{"displayFieldName":"COUNTYNAME","fieldAliases":{"OBJECTID":"OBJECTID","LANDMARKID":"LANDMARKID","LANDMARKCO":"LANDMARKCO","LANDMARKNA":"LANDMARKNA","LANDMARKAD":"LANDMARKAD","ADDRESS":"ADDRESS","TEL":"TEL","COUNTYNAME":"COUNTYNAME","TOWNNAME":"TOWNNAME","MARKTYPE":"MARKTYPE","Class":"Class"},"geometryType":"esriGeometryPoint","spatialReference":{"wkid":4326},"fields":[{"name":"OBJECTID","type":"esriFieldTypeOID","alias":"OBJECTID"},{"name":"LANDMARKID","type":"esriFieldTypeString","alias":"LANDMARKID","length":15},{"name":"LANDMARKCO","type":"esriFieldTypeString","alias":"LANDMARKCO","length":15},{"name":"LANDMARKNA","type":"esriFieldTypeString","alias":"LANDMARKNA","length":50},{"name":"LANDMARKAD","type":"esriFieldTypeString","alias":"LANDMARKAD","length":15},{"name":"ADDRESS","type":"esriFieldTypeString","alias":"ADDRESS","length":56},{"name":"TEL","type":"esriFieldTypeString","alias":"TEL","length":36},{"name":"COUNTYNAME","type":"esriFieldTypeString","alias":"COUNTYNAME","length":15},{"name":"TOWNNAME","type":"esriFieldTypeString","alias":"TOWNNAME","length":13},{"name":"MARKTYPE","type":"esriFieldTypeString","alias":"MARKTYPE","length":12},{"name":"Class","type":"esriFieldTypeString","alias":"Class","length":5}],"features":[{"attributes":{"OBJECTID":28201,"LANDMARKID":"1002100000447","LANDMARKCO":"405","LANDMARKNA":"全國加油站-台南機場站(台塑)","LANDMARKAD":"1002103","ADDRESS":"台南市仁德區仁愛村28鄰仁愛1000號","TEL":"06-2699473","COUNTYNAME":"台南市(海)","TOWNNAME":"南區(海)","MARKTYPE":"994","Class":"4"},"geometry":{"x":120.21663824258049,"y":22.955209249634539}},{"attributes":{"OBJECTID":28202,"LANDMARKID":"1000800001051","LANDMARKCO":"604","LANDMARKNA":"格林雅築民宿","LANDMARKAD":"1000813","ADDRESS":"南投縣仁愛鄉大同村仁和路219號","TEL":"049-2803028","COUNTYNAME":"南投縣","TOWNNAME":"仁愛鄉","MARKTYPE":"996","Class":"6"},"geometry":{"x":121.16771972260173,"y":24.06636323732743}},{"attributes":{"OBJECTID":28203,"LANDMARKID":"1000800000849","LANDMARKCO":"504","LANDMARKNA":"松柏嶺森林公園","LANDMARKAD":"1000806","ADDRESS":"南投縣名間鄉名松路二段181號","TEL":" ","COUNTYNAME":"南投縣","TOWNNAME":"名間鄉","MARKTYPE":"995","Class":"5"},"geometry":{"x":120.63599433463401,"y":23.833736372781367}},{"attributes":{"OBJECTID":28204,"LANDMARKID":"1001200000853","LANDMARKCO":"405","LANDMARKNA":"中油加油站-三杰站","LANDMARKAD":"1001221","ADDRESS":"高雄市文武村光復路416號","TEL":"07-6895636","COUNTYNAME":"高雄市","TOWNNAME":"六龜區","MARKTYPE":"994","Class":"4"},"geometry":{"x":120.63671626744019,"y":22.986164187182226}},{"attributes":{"OBJECTID":28205,"LANDMARKID":"1001200001124","LANDMARKCO":"409","LANDMARKNA":"鳳山區農會-東區分部","LANDMARKAD":"1001201","ADDRESS":"高雄市鳳山區埤頂里中山東路379號","TEL":"07-703-88","COUNTYNAME":"高雄市","TOWNNAME":"鳳山區","MARKTYPE":"994","Class":"4"},"geometry":{"x":120.37753470823274,"y":22.627313057884834}},{"attributes":{"OBJECTID":28206,"LANDMARKID":"1001200000040","LANDMARKCO":"103","LANDMARKNA":"高雄市審計處","LANDMARKAD":"1001201","ADDRESS":"高雄市鳳山區南光街239號","TEL":"07-8118198","COUNTYNAME":"高雄市","TOWNNAME":"鳳山區","MARKTYPE":"991","Class":"1"},"geometry":{"x":120.33519146734479,"y":22.596499691437959}},{"attributes":{"OBJECTID":28207,"LANDMARKID":"1001100000027","LANDMARKCO":"101","LANDMARKNA":"水產試驗所海水繁養殖研究中心","LANDMARKAD":"1001115","ADDRESS":"台南市七股區三股村海埔4號","TEL":"06-7880461","COUNTYNAME":"台南市","TOWNNAME":"七股區","MARKTYPE":"991","Class":"1"},"geometry":{"x":120.07991778228966,"y":23.122347106314091}},{"attributes":{"OBJECTID":28208,"LANDMARKID":"1000100001569","LANDMARKCO":"308","LANDMARKNA":"國3-南港交流道-北上","LANDMARKAD":"1000111","ADDRESS":"台北市南港區","TEL":" ","COUNTYNAME":"新北市","TOWNNAME":"汐止區","MARKTYPE":"993","Class":"308"},"geometry":{"x":121.62486155805834,"y":25.045988771613001}},{"attributes":{"OBJECTID":28209,"LANDMARKID":"1000100001570","LANDMARKCO":"308","LANDMARKNA":"國3-南港交流道-南下","LANDMARKAD":"1000111","ADDRESS":"台北市南港區","TEL":" ","COUNTYNAME":"新北市","TOWNNAME":"汐止區","MARKTYPE":"993","Class":"308"},"geometry":{"x":121.62477846817836,"y":25.045071611016905}},{"attributes":{"OBJECTID":28210,"LANDMARKID":"6300000001632","LANDMARKCO":"303","LANDMARKNA":"自來水園區永福停車場","LANDMARKAD":"6300005","ADDRESS":"新北市永和區思源街","TEL":" ","COUNTYNAME":"台北市","TOWNNAME":"中正區","MARKTYPE":"993","Class":"303"},"geometry":{"x":121.52898686207023,"y":25.012012820229607}},{"attributes":{"OBJECTID":28211,"LANDMARKID":"1001100000761","LANDMARKCO":"308","LANDMARKNA":"國8-台南端-北上","LANDMARKAD":"1001121","ADDRESS":"台南市安南區","TEL":" ","COUNTYNAME":"台南市","TOWNNAME":"安定區","MARKTYPE":"993","Class":"308"},"geometry":{"x":120.19552284591023,"y":23.080541832824025}},{"attributes":{"OBJECTID":28212,"LANDMARKID":"6400000000046","LANDMARKCO":"101","LANDMARKNA":"交通部高雄港務局港埠工程處","LANDMARKAD":"6400002","ADDRESS":"高雄市鼓山區蓬萊二路1號","TEL":"07-5622250","COUNTYNAME":"高雄市","TOWNNAME":"鼓山區","MARKTYPE":"991","Class":"1"},"geometry":{"x":120.27998805397336,"y":22.618829328068255}},{"attributes":{"OBJECTID":28213,"LANDMARKID":"1000600000689","LANDMARKCO":"308","LANDMARKNA":"國3-苑裡交流道-南下","LANDMARKAD":"1000603","ADDRESS":"苗栗縣苑裡鎮","TEL":" ","COUNTYNAME":"台中市","TOWNNAME":"大甲區","MARKTYPE":"993","Class":"308"},"geometry":{"x":120.668476923668,"y":24.394745971978573}},{"attributes":{"OBJECTID":28214,"LANDMARKID":"1000600001334","LANDMARKCO":"513","LANDMARKNA":"南湖大山","LANDMARKAD":"1000621","ADDRESS":"花蓮縣秀林鄉與台中市和平區，為太魯閣國家公園範圍","TEL":" ","COUNTYNAME":"台中市","TOWNNAME":"和平區","MARKTYPE":"995","Class":"5"},"geometry":{"x":121.43870591863879,"y":24.361377571470374}},{"attributes":{"OBJECTID":28215,"LANDMARKID":"1000500000945","LANDMARKCO":"604","LANDMARKNA":"好望角","LANDMARKAD":"1000503","ADDRESS":"苗栗縣通霄鎮福興里11鄰126-3號","TEL":"04-24072062","COUNTYNAME":"苗栗縣","TOWNNAME":"通霄鎮","MARKTYPE":"996","Class":"6"},"geometry":{"x":120.7411681970472,"y":24.412809860673736}},{"attributes":{"OBJECTID":28216,"LANDMARKID":"1001500000717","LANDMARKCO":"408","LANDMARKNA":"郵局-壽豐郵局","LANDMARKAD":"1001506","ADDRESS":"花蓮縣壽豐鄉壽豐村中山路6段57號","TEL":"(03)8651-020","COUNTYNAME":"花蓮縣","TOWNNAME":"壽豐鄉","MARKTYPE":"994","Class":"4"},"geometry":{"x":121.51044533845028,"y":23.871450367435056}},{"attributes":{"OBJECTID":28217,"LANDMARKID":"1000700001203","LANDMARKCO":"604","LANDMARKNA":"清松五星民宿","LANDMARKAD":"1000721","ADDRESS":"彰化縣田尾鄉饒平村中山路1段182巷83號","TEL":"04-8835751","COUNTYNAME":"彰化縣","TOWNNAME":"田尾鄉","MARKTYPE":"996","Class":"6"},"geometry":{"x":120.52772043843351,"y":23.886541426590473}},{"attributes":{"OBJECTID":28218,"LANDMARKID":"1000400000652","LANDMARKCO":"603","LANDMARKNA":"小叮噹科學遊樂區生活大師會館","LANDMARKAD":"1000406","ADDRESS":"新竹縣新豐鄉上坑村坑子口102-1號","TEL":"03-5592132-8","COUNTYNAME":"新竹縣","TOWNNAME":"新豐鄉","MARKTYPE":"996","Class":"6"},"geometry":{"x":120.98052883523026,"y":24.870597312446691}},{"attributes":{"OBJECTID":28219,"LANDMARKID":"1000800000842","LANDMARKCO":"503","LANDMARKNA":"祝山觀日平台","LANDMARKAD":"1000812","ADDRESS":"嘉義縣阿里山鄉","TEL":" ","COUNTYNAME":"南投縣","TOWNNAME":"信義鄉","MARKTYPE":"995","Class":"5"},"geometry":{"x":120.8232176537318,"y":23.511255970184429}},{"attributes":{"OBJECTID":28220,"LANDMARKID":"1000500000550","LANDMARKCO":"308","LANDMARKNA":"國3-香山交流道-南下","LANDMARKAD":"1000504","ADDRESS":"新竹市香山區","TEL":" ","COUNTYNAME":"苗栗縣","TOWNNAME":"竹南鎮","MARKTYPE":"993","Class":"308"},"geometry":{"x":120.90521964810578,"y":24.732031666123053}},{"attributes":{"OBJECTID":28221,"LANDMARKID":"1001200000769","LANDMARKCO":"402","LANDMARKNA":"亞太行動寬頻電信-高雄一心加盟服務中心","LANDMARKAD":"1001201","ADDRESS":"高雄市前鎮區岡山北街339號","TEL":"07-3322077","COUNTYNAME":"高雄市","TOWNNAME":"鳳山區","MARKTYPE":"994","Class":"4"},"geometry":{"x":120.33401209906785,"y":22.609974864543165}},{"attributes":{"OBJECTID":28222,"LANDMARKID":"6400000000716","LANDMARKCO":"308","LANDMARKNA":"國10-鼎金系統交流道-南下","LANDMARKAD":"6400005","ADDRESS":"高雄市仁武區","TEL":" ","COUNTYNAME":"高雄市","TOWNNAME":"三民區","MARKTYPE":"993","Class":"308"},"geometry":{"x":120.3288544483356,"y":22.671658936647543}},{"attributes":{"OBJECTID":28223,"LANDMARKID":"6400000001223","LANDMARKCO":"513","LANDMARKNA":"鳳山水庫","LANDMARKAD":"6400011","ADDRESS":"高雄市鳳山區往林園區的沿海2路與沿海3路之間","TEL":" ","COUNTYNAME":"高雄市","TOWNNAME":"小港區","MARKTYPE":"995","Class":"5"},"geometry":{"x":120.38402509025094,"y":22.537443684182094}},{"attributes":{"OBJECTID":28224,"LANDMARKID":"1000300001672","LANDMARKCO":"604","LANDMARKNA":"馬告山莊民宿","LANDMARKAD":"1000313","ADDRESS":"桃園縣復興鄉三光村8鄰5-1號","TEL":"0912-003444","COUNTYNAME":"桃園市","TOWNNAME":"復興區","MARKTYPE":"996","Class":"6"},"geometry":{"x":121.37365584434639,"y":24.66842716962131}},{"attributes":{"OBJECTID":28225,"LANDMARKID":"1001500000519","LANDMARKCO":"303","LANDMARKNA":"合歡山風景區停車場","LANDMARKAD":"1001511","ADDRESS":"南投縣仁愛鄉","TEL":"049-2802732","COUNTYNAME":"花蓮縣","TOWNNAME":"秀林鄉","MARKTYPE":"993","Class":"303"},"geometry":{"x":121.2843118797942,"y":24.145620590807997}},{"attributes":{"OBJECTID":28226,"LANDMARKID":"1001000000681","LANDMARKCO":"405","LANDMARKNA":"中油加油站-忠孝站","LANDMARKAD":"1001005","ADDRESS":"嘉義市忠孝路808號","TEL":"05-2209094","COUNTYNAME":"嘉義縣","TOWNNAME":"民雄鄉","MARKTYPE":"994","Class":"4"},"geometry":{"x":120.44097970494643,"y":23.518157571748507}},{"attributes":{"OBJECTID":28227,"LANDMARKID":"1002000000016","LANDMARKCO":"103","LANDMARKNA":"嘉義縣審計室","LANDMARKAD":"1002002","ADDRESS":"嘉義市新民路221巷80號","TEL":"05-2835172","COUNTYNAME":"嘉義市","TOWNNAME":"西區","MARKTYPE":"991","Class":"1"},"geometry":{"x":120.43322817742208,"y":23.45516255185608}},{"attributes":{"OBJECTID":28228,"LANDMARKID":"1002000000144","LANDMARKCO":"308","LANDMARKNA":"國3-中埔交流道-北上","LANDMARKAD":"1002001","ADDRESS":"嘉義縣中埔鄉","TEL":" ","COUNTYNAME":"嘉義市","TOWNNAME":"東區","MARKTYPE":"993","Class":"308"},"geometry":{"x":120.48730509826015,"y":23.454305413669321}}]}