{"displayFieldName":"COUNTYNAME","fieldAliases":{"OBJECTID":"OBJECTID","LANDMARKID":"LANDMARKID","LANDMARKCO":"LANDMARKCO","LANDMARKNA":"LANDMARKNA","LANDMARKAD":"LANDMARKAD","ADDRESS":"ADDRESS","TEL":"TEL","COUNTYNAME":"COUNTYNAME","TOWNNAME":"TOWNNAME","MARKTYPE":"MARKTYPE","Class":"Class"},"geometryType":"esriGeometryPoint","spatialReference":{"wkid":102443},"fields":[{"name":"OBJECTID","type":"esriFieldTypeOID","alias":"OBJECTID"},{"name":"LANDMARKID","type":"esriFieldTypeString","alias":"LANDMARKID","length":15},{"name":"LANDMARKCO","type":"esriFieldTypeString","alias":"LANDMARKCO","length":15},{"name":"LANDMARKNA","type":"esriFieldTypeString","alias":"LANDMARKNA","length":50},{"name":"LANDMARKAD","type":"esriFieldTypeString","alias":"LANDMARKAD","length":15},{"name":"ADDRESS","type":"esriFieldTypeString","alias":"ADDRESS","length":56},{"name":"TEL","type":"esriFieldTypeString","alias":"TEL","length":36},{"name":"COUNTYNAME","type":"esriFieldTypeString","alias":"COUNTYNAME","length":15},{"name":"TOWNNAME","type":"esriFieldTypeString","alias":"TOWNNAME","length":13},{"name":"MARKTYPE","type":"esriFieldTypeString","alias":"MARKTYPE","length":12},{"name":"Class","type":"esriFieldTypeString","alias":"Class","length":5}],"features":[{"attributes":{"OBJECTID":26401,"LANDMARKID":"1001000000634","LANDMARKCO":"405","LANDMARKNA":"中油加油站-南靖站(中油直營)","LANDMARKAD":"1001012","ADDRESS":"嘉義縣水上鄉三鎮路101-1號","TEL":"05-2682029","COUNTYNAME":"嘉義縣","TOWNNAME":"水上鄉","MARKTYPE":"994","Class":"4"},"geometry":{"x":187598.05460000038,"y":2590874.5746999998}},{"attributes":{"OBJECTID":26402,"LANDMARKID":"1001000000635","LANDMARKCO":"405","LANDMARKNA":"中油加油站-水上站(中油直營)","LANDMARKAD":"1001012","ADDRESS":"嘉義縣水上鄉大堀村江竹仔腳3-8號","TEL":"05-2685858","COUNTYNAME":"嘉義縣","TOWNNAME":"水上鄉","MARKTYPE":"994","Class":"4"},"geometry":{"x":186584.49770000018,"y":2593303.7303999998}},{"attributes":{"OBJECTID":26403,"LANDMARKID":"1001000000636","LANDMARKCO":"405","LANDMARKNA":"中油加油站-中莊站","LANDMARKAD":"1001012","ADDRESS":"嘉義縣水上鄉中庄村131號","TEL":"05-2892020","COUNTYNAME":"嘉義縣","TOWNNAME":"水上鄉","MARKTYPE":"994","Class":"4"},"geometry":{"x":193217.16569999978,"y":2591325.5226000007}},{"attributes":{"OBJECTID":26404,"LANDMARKID":"1001000000637","LANDMARKCO":"405","LANDMARKNA":"台糖加油站-柳林站(中油)","LANDMARKAD":"1001012","ADDRESS":"嘉義縣水上鄉柳子林180號","TEL":" ","COUNTYNAME":"嘉義縣","TOWNNAME":"水上鄉","MARKTYPE":"994","Class":"4"},"geometry":{"x":190684.74710000027,"y":2593235.7741}},{"attributes":{"OBJECTID":26405,"LANDMARKID":"1001000000817","LANDMARKCO":"507","LANDMARKNA":"龍山寺","LANDMARKAD":"1001012","ADDRESS":"嘉義縣水上鄉","TEL":" ","COUNTYNAME":"嘉義縣","TOWNNAME":"水上鄉","MARKTYPE":"995","Class":"5"},"geometry":{"x":185942.0915000001,"y":2592075.4979999997}},{"attributes":{"OBJECTID":26406,"LANDMARKID":"1001000000751","LANDMARKCO":"408","LANDMARKNA":"郵局-水上南靖郵局","LANDMARKAD":"1001012","ADDRESS":"嘉義縣水上鄉三鎮村三鎮路1號","TEL":"(05)2682-035","COUNTYNAME":"嘉義縣","TOWNNAME":"水上鄉","MARKTYPE":"994","Class":"4"},"geometry":{"x":187189.05680000037,"y":2590163.9159999993}},{"attributes":{"OBJECTID":26407,"LANDMARKID":"1001000000752","LANDMARKCO":"408","LANDMARKNA":"郵局-水上中庄郵局","LANDMARKAD":"1001012","ADDRESS":"嘉義縣水上鄉中庄村中庄61-61號","TEL":"(05)2890-344","COUNTYNAME":"嘉義縣","TOWNNAME":"水上鄉","MARKTYPE":"994","Class":"4"},"geometry":{"x":192447.30489999987,"y":2591021.2943999991}},{"attributes":{"OBJECTID":26408,"LANDMARKID":"1001000000753","LANDMARKCO":"408","LANDMARKNA":"郵局-水上郵局","LANDMARKAD":"1001012","ADDRESS":"嘉義縣水上鄉中興路356號","TEL":"(05)2682-140","COUNTYNAME":"嘉義縣","TOWNNAME":"水上鄉","MARKTYPE":"994","Class":"4"},"geometry":{"x":188812.88879999984,"y":2592115.5243999995}},{"attributes":{"OBJECTID":26409,"LANDMARKID":"1001000000754","LANDMARKCO":"408","LANDMARKNA":"郵局-水上回歸郵局","LANDMARKAD":"1001012","ADDRESS":"嘉義縣水上鄉三和村新厝仔2之4號","TEL":"(05)2356-840","COUNTYNAME":"嘉義縣","TOWNNAME":"水上鄉","MARKTYPE":"994","Class":"4"},"geometry":{"x":189625.44120000023,"y":2594682.3161999993}},{"attributes":{"OBJECTID":26410,"LANDMARKID":"1001000000755","LANDMARKCO":"409","LANDMARKNA":"水上鄉農會","LANDMARKAD":"1001012","ADDRESS":"嘉義縣水上鄉粗溪村5鄰中興路560號","TEL":"05-2682010","COUNTYNAME":"嘉義縣","TOWNNAME":"水上鄉","MARKTYPE":"994","Class":"4"},"geometry":{"x":188518.87440000009,"y":2592359.4845000003}},{"attributes":{"OBJECTID":26411,"LANDMARKID":"1001000000686","LANDMARKCO":"405","LANDMARKNA":"福懋加油站-水上站(台塑)","LANDMARKAD":"1001012","ADDRESS":"嘉義縣水上鄉粗溪村15鄰20-129號","TEL":"05-2605966","COUNTYNAME":"嘉義縣","TOWNNAME":"水上鄉","MARKTYPE":"994","Class":"4"},"geometry":{"x":187710.27799999993,"y":2592753.7065999992}},{"attributes":{"OBJECTID":26412,"LANDMARKID":"1001000000687","LANDMARKCO":"405","LANDMARKNA":"台亞加油站-水上交流道站（台塑）","LANDMARKAD":"1001012","ADDRESS":"嘉義縣水上鄉大堀村江竹仔腳3-2號","TEL":"(05)268-8701","COUNTYNAME":"嘉義縣","TOWNNAME":"水上鄉","MARKTYPE":"994","Class":"4"},"geometry":{"x":186076.90359999985,"y":2593384.0511000007}},{"attributes":{"OBJECTID":26413,"LANDMARKID":"1001000000033","LANDMARKCO":"103","LANDMARKNA":"嘉義縣水上鄉衛生所","LANDMARKAD":"1001012","ADDRESS":"嘉義縣水上鄉水上村正義路145號","TEL":"05-2682059","COUNTYNAME":"嘉義縣","TOWNNAME":"水上鄉","MARKTYPE":"991","Class":"1"},"geometry":{"x":188447.45720000006,"y":2591836.4852000009}},{"attributes":{"OBJECTID":26414,"LANDMARKID":"1001000000203","LANDMARKCO":"108","LANDMARKNA":"嘉義縣水上鄉公所","LANDMARKAD":"1001012","ADDRESS":"嘉義縣水上鄉水上村正義路141號","TEL":"05-2682406","COUNTYNAME":"嘉義縣","TOWNNAME":"水上鄉","MARKTYPE":"991","Class":"1"},"geometry":{"x":188480.15809999965,"y":2591867.4932000004}},{"attributes":{"OBJECTID":26415,"LANDMARKID":"1001000000032","LANDMARKCO":"103","LANDMARKNA":"嘉義縣水上鄉民代表會","LANDMARKAD":"1001012","ADDRESS":"嘉義縣水上鄉正義路143號","TEL":"05-2682074","COUNTYNAME":"嘉義縣","TOWNNAME":"水上鄉","MARKTYPE":"991","Class":"1"},"geometry":{"x":188455.63239999954,"y":2591849.7743999995}},{"attributes":{"OBJECTID":26416,"LANDMARKID":"1001000000199","LANDMARKCO":"107","LANDMARKNA":"嘉義縣警察局水上分局","LANDMARKAD":"1001012","ADDRESS":"嘉義縣水上鄉水頭村中興路528號","TEL":"05-2682025","COUNTYNAME":"嘉義縣","TOWNNAME":"水上鄉","MARKTYPE":"991","Class":"1"},"geometry":{"x":188602.02529999986,"y":2592296.0694999993}},{"attributes":{"OBJECTID":26417,"LANDMARKID":"1001000000200","LANDMARKCO":"107","LANDMARKNA":"嘉義縣警察局柳林派出所","LANDMARKAD":"1001012","ADDRESS":"嘉義縣水上鄉柳鄉村柳子林119號","TEL":"05-2682515","COUNTYNAME":"嘉義縣","TOWNNAME":"水上鄉","MARKTYPE":"991","Class":"1"},"geometry":{"x":190491.92509999964,"y":2592939.0593999997}},{"attributes":{"OBJECTID":26418,"LANDMARKID":"1001000000201","LANDMARKCO":"107","LANDMARKNA":"嘉義縣警察局水上派出所","LANDMARKAD":"1001012","ADDRESS":"嘉義縣水上鄉水上村中山路二段291號","TEL":"05-2682264","COUNTYNAME":"嘉義縣","TOWNNAME":"水上鄉","MARKTYPE":"991","Class":"1"},"geometry":{"x":188415.02099999972,"y":2592325.9702000003}},{"attributes":{"OBJECTID":26419,"LANDMARKID":"1001000000202","LANDMARKCO":"107","LANDMARKNA":"嘉義縣消防局水上消防分隊","LANDMARKAD":"1001012","ADDRESS":"嘉義縣水上鄉中興路522號","TEL":"05-2682380","COUNTYNAME":"嘉義縣","TOWNNAME":"水上鄉","MARKTYPE":"991","Class":"1"},"geometry":{"x":188584.65330000035,"y":2592269.4911000002}},{"attributes":{"OBJECTID":26420,"LANDMARKID":"1001000000074","LANDMARKCO":"105","LANDMARKNA":"嘉義縣水上地政事務所","LANDMARKAD":"1001012","ADDRESS":"嘉義縣水上鄉嘉朴路33號","TEL":"05-2680681","COUNTYNAME":"嘉義縣","TOWNNAME":"水上鄉","MARKTYPE":"991","Class":"1"},"geometry":{"x":188265.07259999961,"y":2592425.7221000008}},{"attributes":{"OBJECTID":26421,"LANDMARKID":"1001000000196","LANDMARKCO":"107","LANDMARKNA":"嘉義縣警察局成功派出所","LANDMARKAD":"1001012","ADDRESS":"嘉義縣水上鄉三界村156號","TEL":"05-2392064","COUNTYNAME":"嘉義縣","TOWNNAME":"水上鄉","MARKTYPE":"991","Class":"1"},"geometry":{"x":196369.19419999979,"y":2592280.0676000006}},{"attributes":{"OBJECTID":26422,"LANDMARKID":"1001000000197","LANDMARKCO":"107","LANDMARKNA":"嘉義縣警察局中莊派出所","LANDMARKAD":"1001012","ADDRESS":"嘉義縣水上鄉中庄村66號","TEL":"05-2890654","COUNTYNAME":"嘉義縣","TOWNNAME":"水上鄉","MARKTYPE":"991","Class":"1"},"geometry":{"x":192588.19149999972,"y":2591050.8441000003}},{"attributes":{"OBJECTID":26423,"LANDMARKID":"1001000000198","LANDMARKCO":"107","LANDMARKNA":"嘉義縣警察局南靖派出所","LANDMARKAD":"1001012","ADDRESS":"嘉義縣水上鄉三鎮村51號","TEL":"05-2682364","COUNTYNAME":"嘉義縣","TOWNNAME":"水上鄉","MARKTYPE":"991","Class":"1"},"geometry":{"x":187301.61209999956,"y":2590340.1783000007}},{"attributes":{"OBJECTID":26424,"LANDMARKID":"1001000000075","LANDMARKCO":"106","LANDMARKNA":"嘉義縣水上鄉戶政事務所","LANDMARKAD":"1001012","ADDRESS":"嘉義縣水上鄉水上村5鄰市政街31巷23號","TEL":"05-2682354","COUNTYNAME":"嘉義縣","TOWNNAME":"水上鄉","MARKTYPE":"991","Class":"1"},"geometry":{"x":188587.12060000002,"y":2592300.7693000007}},{"attributes":{"OBJECTID":26425,"LANDMARKID":"1001000000450","LANDMARKCO":"204","LANDMARKNA":"嘉義縣立圖書館水上分館","LANDMARKAD":"1001012","ADDRESS":"嘉義縣水上鄉柳林村80之1號","TEL":" ","COUNTYNAME":"嘉義縣","TOWNNAME":"水上鄉","MARKTYPE":"992","Class":"2"},"geometry":{"x":190275.70940000005,"y":2592560.4206000008}},{"attributes":{"OBJECTID":26426,"LANDMARKID":"1001000000380","LANDMARKCO":"203","LANDMARKNA":"縣立水上國小","LANDMARKAD":"1001012","ADDRESS":"嘉義縣水上鄉水上村正義路182號","TEL":"05-2682073","COUNTYNAME":"嘉義縣","TOWNNAME":"水上鄉","MARKTYPE":"992","Class":"2"},"geometry":{"x":188403.67499999981,"y":2591860.0083000008}},{"attributes":{"OBJECTID":26427,"LANDMARKID":"1001000000229","LANDMARKCO":"202","LANDMARKNA":"私立萬能科技大學","LANDMARKAD":"1001012","ADDRESS":"嘉義縣水上鄉萬能路1號","TEL":"05-2687773","COUNTYNAME":"嘉義縣","TOWNNAME":"水上鄉","MARKTYPE":"992","Class":"2"},"geometry":{"x":187808.0231999997,"y":2592207.7399000004}},{"attributes":{"OBJECTID":26428,"LANDMARKID":"1001000000370","LANDMARKCO":"203","LANDMARKNA":"縣立水上國中","LANDMARKAD":"1001012","ADDRESS":"嘉義縣水上鄉水上村進學街45號","TEL":"05-2688700","COUNTYNAME":"嘉義縣","TOWNNAME":"水上鄉","MARKTYPE":"992","Class":"2"},"geometry":{"x":188191.71219999995,"y":2591512.0902999993}},{"attributes":{"OBJECTID":26429,"LANDMARKID":"1001000000371","LANDMARKCO":"203","LANDMARKNA":"縣立忠和國小","LANDMARKAD":"1001012","ADDRESS":"嘉義縣水上鄉忠和村檳榔樹角35號","TEL":"05-2890365","COUNTYNAME":"嘉義縣","TOWNNAME":"水上鄉","MARKTYPE":"992","Class":"2"},"geometry":{"x":193581.32490000036,"y":2591549.1087999996}},{"attributes":{"OBJECTID":26430,"LANDMARKID":"1001000000372","LANDMARKCO":"203","LANDMARKNA":"縣立忠和國中","LANDMARKAD":"1001012","ADDRESS":"嘉義縣水上鄉忠和村6之2號","TEL":"05-2890295","COUNTYNAME":"嘉義縣","TOWNNAME":"水上鄉","MARKTYPE":"992","Class":"2"},"geometry":{"x":193954.74320000038,"y":2591520.6137000006}},{"attributes":{"OBJECTID":26431,"LANDMARKID":"1001000000373","LANDMARKCO":"203","LANDMARKNA":"縣立大崙國小","LANDMARKAD":"1001012","ADDRESS":"嘉義縣水上鄉大崙村111號","TEL":"05-3711381","COUNTYNAME":"嘉義縣","TOWNNAME":"水上鄉","MARKTYPE":"992","Class":"2"},"geometry":{"x":184477.96430000011,"y":2593570.1932999995}},{"attributes":{"OBJECTID":26432,"LANDMARKID":"1001000000374","LANDMARKCO":"203","LANDMARKNA":"縣立成功國小","LANDMARKAD":"1001012","ADDRESS":"嘉義縣水上鄉三界村153號","TEL":"05-2393485","COUNTYNAME":"嘉義縣","TOWNNAME":"水上鄉","MARKTYPE":"992","Class":"2"},"geometry":{"x":196429.33980000019,"y":2592240.2865999993}},{"attributes":{"OBJECTID":26433,"LANDMARKID":"1001000000375","LANDMARKCO":"203","LANDMARKNA":"縣立北回國小","LANDMARKAD":"1001012","ADDRESS":"嘉義縣水上鄉三和村1鄰1號","TEL":"05-2356941","COUNTYNAME":"嘉義縣","TOWNNAME":"水上鄉","MARKTYPE":"992","Class":"2"},"geometry":{"x":189690.24390000012,"y":2594730.5821000002}},{"attributes":{"OBJECTID":26434,"LANDMARKID":"1001000000376","LANDMARKCO":"203","LANDMARKNA":"縣立義興國小","LANDMARKAD":"1001012","ADDRESS":"嘉義縣水上鄉義興村2之1號","TEL":"05-2890096","COUNTYNAME":"嘉義縣","TOWNNAME":"水上鄉","MARKTYPE":"992","Class":"2"},"geometry":{"x":191332.36239999998,"y":2590700.3868000004}},{"attributes":{"OBJECTID":26435,"LANDMARKID":"1001000000377","LANDMARKCO":"203","LANDMARKNA":"縣立南靖國小","LANDMARKAD":"1001012","ADDRESS":"嘉義縣水上鄉靖和村46號","TEL":"05-2682004","COUNTYNAME":"嘉義縣","TOWNNAME":"水上鄉","MARKTYPE":"992","Class":"2"},"geometry":{"x":187105.48639999982,"y":2590370.5539999995}},{"attributes":{"OBJECTID":26436,"LANDMARKID":"1001000000378","LANDMARKCO":"203","LANDMARKNA":"縣立柳林國小","LANDMARKAD":"1001012","ADDRESS":"嘉義縣水上鄉柳林村92號","TEL":"05-2683240","COUNTYNAME":"嘉義縣","TOWNNAME":"水上鄉","MARKTYPE":"992","Class":"2"},"geometry":{"x":190238.94450000022,"y":2592650.5350000001}},{"attributes":{"OBJECTID":26437,"LANDMARKID":"1001000000379","LANDMARKCO":"203","LANDMARKNA":"縣立南靖國小靖西分校","LANDMARKAD":"1001012","ADDRESS":"嘉義縣水上鄉靖和村253之1號","TEL":"05-2682020","COUNTYNAME":"嘉義縣","TOWNNAME":"水上鄉","MARKTYPE":"992","Class":"2"},"geometry":{"x":186738.88910000026,"y":2590510.2016000003}},{"attributes":{"OBJECTID":26438,"LANDMARKID":"1001000000548","LANDMARKCO":"308","LANDMARKNA":"國1-水上交流道-北上","LANDMARKAD":"1001012","ADDRESS":"嘉義縣水上鄉","TEL":" ","COUNTYNAME":"嘉義縣","TOWNNAME":"水上鄉","MARKTYPE":"993","Class":"308"},"geometry":{"x":185428.5234000003,"y":2593780.2452000007}},{"attributes":{"OBJECTID":26439,"LANDMARKID":"1001000000549","LANDMARKCO":"308","LANDMARKNA":"國3-水上系統交流道-南下","LANDMARKAD":"1001012","ADDRESS":"嘉義縣水上鄉","TEL":" ","COUNTYNAME":"嘉義縣","TOWNNAME":"水上鄉","MARKTYPE":"993","Class":"308"},"geometry":{"x":195518.98469999991,"y":2591781.5579000004}},{"attributes":{"OBJECTID":26440,"LANDMARKID":"1001000000550","LANDMARKCO":"308","LANDMARKNA":"台82-水上交流道-西行","LANDMARKAD":"1001012","ADDRESS":"嘉義縣水上鄉","TEL":" ","COUNTYNAME":"嘉義縣","TOWNNAME":"水上鄉","MARKTYPE":"993","Class":"308"},"geometry":{"x":186828.24619999994,"y":2590891.1999999993}},{"attributes":{"OBJECTID":26441,"LANDMARKID":"1001000000551","LANDMARKCO":"308","LANDMARKNA":"國1-水上交流道-南下","LANDMARKAD":"1001012","ADDRESS":"嘉義縣水上鄉","TEL":" ","COUNTYNAME":"嘉義縣","TOWNNAME":"水上鄉","MARKTYPE":"993","Class":"308"},"geometry":{"x":185216.69909999985,"y":2593569.6682999991}},{"attributes":{"OBJECTID":26442,"LANDMARKID":"1001000000552","LANDMARKCO":"308","LANDMARKNA":"國3-水上系統交流道-北上","LANDMARKAD":"1001012","ADDRESS":"嘉義縣水上鄉","TEL":" ","COUNTYNAME":"嘉義縣","TOWNNAME":"水上鄉","MARKTYPE":"993","Class":"308"},"geometry":{"x":195950.03529999964,"y":2592076.6725999992}},{"attributes":{"OBJECTID":26443,"LANDMARKID":"1001000000553","LANDMARKCO":"308","LANDMARKNA":"國1-嘉義系統交流道-北上","LANDMARKAD":"1001012","ADDRESS":"嘉義縣水上鄉","TEL":" ","COUNTYNAME":"嘉義縣","TOWNNAME":"水上鄉","MARKTYPE":"993","Class":"308"},"geometry":{"x":184398.75289999973,"y":2591835.5928000007}},{"attributes":{"OBJECTID":26444,"LANDMARKID":"1001000000554","LANDMARKCO":"308","LANDMARKNA":"台82-嘉義系統交流道-東行","LANDMARKAD":"1001012","ADDRESS":" ","TEL":" ","COUNTYNAME":"嘉義縣","TOWNNAME":"水上鄉","MARKTYPE":"993","Class":"308"},"geometry":{"x":184692.91839999985,"y":2591312.7743999995}},{"attributes":{"OBJECTID":26445,"LANDMARKID":"1001000000555","LANDMARKCO":"308","LANDMARKNA":"台82-水上交流道-東行","LANDMARKAD":"1001012","ADDRESS":"嘉義縣水上鄉","TEL":" ","COUNTYNAME":"嘉義縣","TOWNNAME":"水上鄉","MARKTYPE":"993","Class":"308"},"geometry":{"x":187594.17420000024,"y":2590706.5144999996}},{"attributes":{"OBJECTID":26446,"LANDMARKID":"1001000000556","LANDMARKCO":"308","LANDMARKNA":"台82-中和交流道-西行","LANDMARKAD":"1001012","ADDRESS":" ","TEL":" ","COUNTYNAME":"嘉義縣","TOWNNAME":"水上鄉","MARKTYPE":"993","Class":"308"},"geometry":{"x":191811.91920000035,"y":2591566.3098000009}},{"attributes":{"OBJECTID":26447,"LANDMARKID":"1001000000557","LANDMARKCO":"308","LANDMARKNA":"台82-中和交流道-東行","LANDMARKAD":"1001012","ADDRESS":" ","TEL":" ","COUNTYNAME":"嘉義縣","TOWNNAME":"水上鄉","MARKTYPE":"993","Class":"308"},"geometry":{"x":192231.35869999975,"y":2591626.3047000002}},{"attributes":{"OBJECTID":26448,"LANDMARKID":"1001000000558","LANDMARKCO":"308","LANDMARKNA":"台82-水上系統交流道-西行","LANDMARKAD":"1001012","ADDRESS":" ","TEL":" ","COUNTYNAME":"嘉義縣","TOWNNAME":"水上鄉","MARKTYPE":"993","Class":"308"},"geometry":{"x":195486.10199999996,"y":2591999.5822000001}},{"attributes":{"OBJECTID":26449,"LANDMARKID":"1001000000559","LANDMARKCO":"308","LANDMARKNA":"台82-水上系統交流道-西行","LANDMARKAD":"1001012","ADDRESS":" ","TEL":" ","COUNTYNAME":"嘉義縣","TOWNNAME":"水上鄉","MARKTYPE":"993","Class":"308"},"geometry":{"x":195485.57720000017,"y":2591972.1887999997}},{"attributes":{"OBJECTID":26450,"LANDMARKID":"1001000000523","LANDMARKCO":"304","LANDMARKNA":"嘉義航空站-嘉義水上機場","LANDMARKAD":"1001012","ADDRESS":"嘉義縣水上鄉榮典路1號","TEL":" ","COUNTYNAME":"嘉義縣","TOWNNAME":"水上鄉","MARKTYPE":"993","Class":"304"},"geometry":{"x":189053.38860000018,"y":2594737.2328999992}},{"attributes":{"OBJECTID":26451,"LANDMARKID":"1001000000486","LANDMARKCO":"301","LANDMARKNA":"水上火車站","LANDMARKAD":"1001012","ADDRESS":"嘉義縣水上鄉","TEL":" ","COUNTYNAME":"嘉義縣","TOWNNAME":"水上鄉","MARKTYPE":"993","Class":"301"},"geometry":{"x":188585.26889999956,"y":2592352.2094000001}},{"attributes":{"OBJECTID":26452,"LANDMARKID":"1001000000487","LANDMARKCO":"301","LANDMARKNA":"南靖火車站","LANDMARKAD":"1001012","ADDRESS":"嘉義縣水上鄉","TEL":" ","COUNTYNAME":"嘉義縣","TOWNNAME":"水上鄉","MARKTYPE":"993","Class":"301"},"geometry":{"x":187309.27610000037,"y":2590182.6473999992}},{"attributes":{"OBJECTID":26453,"LANDMARKID":"1001000000589","LANDMARKCO":"402","LANDMARKNA":"中華電信-水上服務中心","LANDMARKAD":"1001012","ADDRESS":"嘉義縣水上鄉中正路49號","TEL":"(05)244-8440","COUNTYNAME":"嘉義縣","TOWNNAME":"水上鄉","MARKTYPE":"994","Class":"4"},"geometry":{"x":188964.92530000024,"y":2591799.1607000008}},{"attributes":{"OBJECTID":26454,"LANDMARKID":"1001000000924","LANDMARKCO":"604","LANDMARKNA":"keupana給巴娜","LANDMARKAD":"1001012","ADDRESS":"嘉義縣阿里山鄉達邦村108號","TEL":"05-2511688","COUNTYNAME":"嘉義縣","TOWNNAME":"水上鄉","MARKTYPE":"996","Class":"6"},"geometry":{"x":186167.09520000033,"y":2594905.5917000007}},{"attributes":{"OBJECTID":26455,"LANDMARKID":"1001000000837","LANDMARKCO":"603","LANDMARKNA":"福興旅社","LANDMARKAD":"1001012","ADDRESS":"嘉義縣水上鄉水上村中山路二段322號","TEL":"05-2682421","COUNTYNAME":"嘉義縣","TOWNNAME":"水上鄉","MARKTYPE":"996","Class":"6"},"geometry":{"x":188459.74670000002,"y":2592302.1871000007}},{"attributes":{"OBJECTID":26456,"LANDMARKID":"1001000000822","LANDMARKCO":"510","LANDMARKNA":"嘉光高爾夫球場","LANDMARKAD":"1001012","ADDRESS":"嘉義縣中埔鄉同仁村柚仔宅","TEL":"05-2531344","COUNTYNAME":"嘉義縣","TOWNNAME":"水上鄉","MARKTYPE":"995","Class":"5"},"geometry":{"x":198720.04959999956,"y":2588966.0928000007}},{"attributes":{"OBJECTID":26457,"LANDMARKID":"1001000000828","LANDMARKCO":"513","LANDMARKNA":"北回歸線紀念碑","LANDMARKAD":"1001012","ADDRESS":"嘉義縣水上鄉","TEL":" ","COUNTYNAME":"嘉義縣","TOWNNAME":"水上鄉","MARKTYPE":"995","Class":"5"},"geometry":{"x":190332.73649999965,"y":2594618.1051000003}},{"attributes":{"OBJECTID":26458,"LANDMARKID":"1001000000685","LANDMARKCO":"405","LANDMARKNA":"中油加油站-番路站(中油直營)","LANDMARKAD":"1001016","ADDRESS":"嘉義縣番路鄉下坑村下坑40-2號","TEL":"05-2592386","COUNTYNAME":"嘉義縣","TOWNNAME":"番路鄉","MARKTYPE":"994","Class":"4"},"geometry":{"x":202806.23419999983,"y":2596617.5811999999}},{"attributes":{"OBJECTID":26459,"LANDMARKID":"1001000000829","LANDMARKCO":"513","LANDMARKNA":"仁義潭水庫風景區","LANDMARKAD":"1001016","ADDRESS":"嘉義縣番路鄉","TEL":" ","COUNTYNAME":"嘉義縣","TOWNNAME":"番路鄉","MARKTYPE":"995","Class":"5"},"geometry":{"x":200849.0597000001,"y":2595920.0497999992}},{"attributes":{"OBJECTID":26460,"LANDMARKID":"1001000000820","LANDMARKCO":"507","LANDMARKNA":"半天巖紫雲寺","LANDMARKAD":"1001016","ADDRESS":"嘉義縣番路鄉民和村岩仔6號","TEL":" ","COUNTYNAME":"嘉義縣","TOWNNAME":"番路鄉","MARKTYPE":"995","Class":"5"},"geometry":{"x":208744.58150000032,"y":2595506.9090999998}},{"attributes":{"OBJECTID":26461,"LANDMARKID":"1001000000776","LANDMARKCO":"501","LANDMARKNA":"阿里山國家風景區","LANDMARKAD":"1001016","ADDRESS":"嘉義縣番路鄉觸口村觸口3之16號","TEL":"05-2593900","COUNTYNAME":"嘉義縣","TOWNNAME":"番路鄉","MARKTYPE":"995","Class":"5"},"geometry":{"x":209181.59169999976,"y":2592570.9868999999}},{"attributes":{"OBJECTID":26462,"LANDMARKID":"1001000000808","LANDMARKCO":"506","LANDMARKNA":"巃頭休閒農場","LANDMARKAD":"1001016","ADDRESS":"嘉義縣番路鄉公田村巃頭20號","TEL":"05-2586190-1","COUNTYNAME":"嘉義縣","TOWNNAME":"番路鄉","MARKTYPE":"995","Class":"5"},"geometry":{"x":216490.2324000001,"y":2593456.5123999994}},{"attributes":{"OBJECTID":26463,"LANDMARKID":"1001000000826","LANDMARKCO":"512","LANDMARKNA":"阿里山國家風景區管理處","LANDMARKAD":"1001016","ADDRESS":"嘉義縣番路鄉觸口村觸口3之16號","TEL":"05-2593900","COUNTYNAME":"嘉義縣","TOWNNAME":"番路鄉","MARKTYPE":"995","Class":"5"},"geometry":{"x":209124.29590000026,"y":2592609.3709999993}},{"attributes":{"OBJECTID":26464,"LANDMARKID":"1001000000827","LANDMARKCO":"512","LANDMARKNA":"處本部旅遊服務中心","LANDMARKAD":"1001016","ADDRESS":"嘉義縣番路鄉觸口村觸口3之16號","TEL":"05-2593900","COUNTYNAME":"嘉義縣","TOWNNAME":"番路鄉","MARKTYPE":"995","Class":"5"},"geometry":{"x":209147.51020000037,"y":2592572.0585999992}},{"attributes":{"OBJECTID":26465,"LANDMARKID":"1001000000750","LANDMARKCO":"408","LANDMARKNA":"郵局-番路郵局","LANDMARKAD":"1001016","ADDRESS":"嘉義縣番路鄉下坑村菜公店55號","TEL":"(05)2591-105","COUNTYNAME":"嘉義縣","TOWNNAME":"番路鄉","MARKTYPE":"994","Class":"4"},"geometry":{"x":204494.14400000032,"y":2595727.6407999992}},{"attributes":{"OBJECTID":26466,"LANDMARKID":"1001000000756","LANDMARKCO":"409","LANDMARKNA":"番路鄉農會","LANDMARKAD":"1001016","ADDRESS":"嘉義縣番路鄉下坑村二鄰菜公店59號","TEL":"05-259236","COUNTYNAME":"嘉義縣","TOWNNAME":"番路鄉","MARKTYPE":"994","Class":"4"},"geometry":{"x":204462.64510000031,"y":2595691.0960000008}},{"attributes":{"OBJECTID":26467,"LANDMARKID":"1001000000031","LANDMARKCO":"103","LANDMARKNA":"嘉義縣番路鄉衛生所","LANDMARKAD":"1001016","ADDRESS":"嘉義縣番路鄉下坑村菜公店60號","TEL":"05-2591148","COUNTYNAME":"嘉義縣","TOWNNAME":"番路鄉","MARKTYPE":"991","Class":"1"},"geometry":{"x":204397.39670000039,"y":2595610.2755999994}},{"attributes":{"OBJECTID":26468,"LANDMARKID":"1001000000205","LANDMARKCO":"108","LANDMARKNA":"嘉義縣番路鄉公所","LANDMARKAD":"1001016","ADDRESS":"嘉義縣番路鄉下坑村菜公店101號","TEL":"05-2591951","COUNTYNAME":"嘉義縣","TOWNNAME":"番路鄉","MARKTYPE":"991","Class":"1"},"geometry":{"x":204396.63750000019,"y":2595840.2703000009}},{"attributes":{"OBJECTID":26469,"LANDMARKID":"1001000000030","LANDMARKCO":"103","LANDMARKNA":"嘉義縣番路鄉民代表會","LANDMARKAD":"1001016","ADDRESS":"嘉義縣番路鄉下坑村菜公店101號","TEL":"05-2591154","COUNTYNAME":"嘉義縣","TOWNNAME":"番路鄉","MARKTYPE":"991","Class":"1"},"geometry":{"x":204440.88540000003,"y":2595760.4075000007}},{"attributes":{"OBJECTID":26470,"LANDMARKID":"1001000000192","LANDMARKCO":"107","LANDMARKNA":"嘉義縣警察局觸口派出所","LANDMARKAD":"1001016","ADDRESS":"嘉義縣番路鄉觸口村觸口路15號","TEL":"05-2591358","COUNTYNAME":"嘉義縣","TOWNNAME":"番路鄉","MARKTYPE":"991","Class":"1"},"geometry":{"x":208989.19479999971,"y":2593230.4108000007}},{"attributes":{"OBJECTID":26471,"LANDMARKID":"1001000000193","LANDMARKCO":"107","LANDMARKNA":"嘉義縣警察局公田派出所","LANDMARKAD":"1001016","ADDRESS":"嘉義縣番路鄉公興村中寮31號","TEL":"05-2586114","COUNTYNAME":"嘉義縣","TOWNNAME":"番路鄉","MARKTYPE":"991","Class":"1"},"geometry":{"x":213510.33970000036,"y":2591350.3274000008}},{"attributes":{"OBJECTID":26472,"LANDMARKID":"1001000000194","LANDMARKCO":"107","LANDMARKNA":"嘉義縣警察局番路分駐所","LANDMARKAD":"1001016","ADDRESS":"嘉義縣番路鄉下坑村菜公店27號","TEL":"05-2591212","COUNTYNAME":"嘉義縣","TOWNNAME":"番路鄉","MARKTYPE":"991","Class":"1"},"geometry":{"x":204796.91359999962,"y":2595750.6273999996}},{"attributes":{"OBJECTID":26473,"LANDMARKID":"1001000000195","LANDMARKCO":"107","LANDMARKNA":"嘉義縣消防局番路消防分隊","LANDMARKAD":"1001016","ADDRESS":"嘉義縣番路鄉下坑村菜公店21號","TEL":"05-2591304","COUNTYNAME":"嘉義縣","TOWNNAME":"番路鄉","MARKTYPE":"991","Class":"1"},"geometry":{"x":204824.91339999996,"y":2595750.7135000005}},{"attributes":{"OBJECTID":26474,"LANDMARKID":"1001000000076","LANDMARKCO":"106","LANDMARKNA":"嘉義縣番路鄉戶政事務所","LANDMARKAD":"1001016","ADDRESS":"嘉義縣番路鄉下坑村菜公店28號","TEL":"05-2591144","COUNTYNAME":"嘉義縣","TOWNNAME":"番路鄉","MARKTYPE":"991","Class":"1"},"geometry":{"x":202896.84979999997,"y":2596390.0131999999}},{"attributes":{"OBJECTID":26475,"LANDMARKID":"1001000000449","LANDMARKCO":"204","LANDMARKNA":"嘉義縣立圖書館番路分館","LANDMARKAD":"1001016","ADDRESS":"嘉義縣番路鄉下坑村3鄰菜公店78之1號","TEL":" ","COUNTYNAME":"嘉義縣","TOWNNAME":"番路鄉","MARKTYPE":"992","Class":"2"},"geometry":{"x":204426.98739999998,"y":2595721.3340000007}},{"attributes":{"OBJECTID":26476,"LANDMARKID":"1001000000381","LANDMARKCO":"203","LANDMARKNA":"縣立民和國中","LANDMARKAD":"1001016","ADDRESS":"嘉義縣番路鄉下坑村菜公店30號","TEL":"05-2591109","COUNTYNAME":"嘉義縣","TOWNNAME":"番路鄉","MARKTYPE":"992","Class":"2"},"geometry":{"x":204510.51350000035,"y":2595880.6231999993}},{"attributes":{"OBJECTID":26477,"LANDMARKID":"1001000000382","LANDMARKCO":"203","LANDMARKNA":"縣立內甕國小","LANDMARKAD":"1001016","ADDRESS":"嘉義縣番路鄉內甕村3鄰1之1號","TEL":"05-2951434","COUNTYNAME":"嘉義縣","TOWNNAME":"番路鄉","MARKTYPE":"992","Class":"2"},"geometry":{"x":201370.92590000015,"y":2595140.6122999992}},{"attributes":{"OBJECTID":26478,"LANDMARKID":"1001000000383","LANDMARKCO":"203","LANDMARKNA":"縣立大湖國小","LANDMARKAD":"1001016","ADDRESS":"嘉義縣番路鄉大湖村下坪仔8號","TEL":"05-2581159","COUNTYNAME":"嘉義縣","TOWNNAME":"番路鄉","MARKTYPE":"992","Class":"2"},"geometry":{"x":211204.22499999963,"y":2596920.2166000009}},{"attributes":{"OBJECTID":26479,"LANDMARKID":"1001000000384","LANDMARKCO":"203","LANDMARKNA":"縣立公興國小","LANDMARKAD":"1001016","ADDRESS":"嘉義縣番路鄉公興村中寮21號","TEL":"05-2586271","COUNTYNAME":"嘉義縣","TOWNNAME":"番路鄉","MARKTYPE":"992","Class":"2"},"geometry":{"x":213427.38839999959,"y":2591330.1217}},{"attributes":{"OBJECTID":26480,"LANDMARKID":"1001000000385","LANDMARKCO":"203","LANDMARKNA":"縣立永興國小","LANDMARKAD":"1001016","ADDRESS":"嘉義縣番路鄉草山村永興22號","TEL":"05-2931013","COUNTYNAME":"嘉義縣","TOWNNAME":"番路鄉","MARKTYPE":"992","Class":"2"},"geometry":{"x":208234.58949999977,"y":2583860.7664000001}},{"attributes":{"OBJECTID":26481,"LANDMARKID":"1001000000386","LANDMARKCO":"203","LANDMARKNA":"縣立民和國小","LANDMARKAD":"1001016","ADDRESS":"嘉義縣番路鄉下坑村菜公店91號","TEL":"05-2592188","COUNTYNAME":"嘉義縣","TOWNNAME":"番路鄉","MARKTYPE":"992","Class":"2"},"geometry":{"x":204379.08629999962,"y":2595710.2188000008}},{"attributes":{"OBJECTID":26482,"LANDMARKID":"1001000000387","LANDMARKCO":"203","LANDMARKNA":"縣立隙頂國小","LANDMARKAD":"1001016","ADDRESS":"嘉義縣番路鄉公田村隙頂40號","TEL":"05-2586218","COUNTYNAME":"嘉義縣","TOWNNAME":"番路鄉","MARKTYPE":"992","Class":"2"},"geometry":{"x":215256.42069999967,"y":2591940.4103999995}},{"attributes":{"OBJECTID":26483,"LANDMARKID":"1001000000388","LANDMARKCO":"203","LANDMARKNA":"縣立黎明國小","LANDMARKAD":"1001016","ADDRESS":"嘉義縣番路鄉觸口村觸口164號","TEL":"05-2591194","COUNTYNAME":"嘉義縣","TOWNNAME":"番路鄉","MARKTYPE":"992","Class":"2"},"geometry":{"x":209566.18099999987,"y":2592930.4331999999}},{"attributes":{"OBJECTID":26484,"LANDMARKID":"1001000000389","LANDMARKCO":"203","LANDMARKNA":"縣立隙頂國小草山分校","LANDMARKAD":"1001016","ADDRESS":"嘉義縣番路鄉草山村22號","TEL":"05-2586521","COUNTYNAME":"嘉義縣","TOWNNAME":"番路鄉","MARKTYPE":"992","Class":"2"},"geometry":{"x":212897.51740000024,"y":2585740.2534999996}},{"attributes":{"OBJECTID":26485,"LANDMARKID":"1001000000390","LANDMARKCO":"203","LANDMARKNA":"縣立公田國小","LANDMARKAD":"1001016","ADDRESS":"嘉義縣番路鄉","TEL":" ","COUNTYNAME":"嘉義縣","TOWNNAME":"番路鄉","MARKTYPE":"992","Class":"2"},"geometry":{"x":213397.49519999977,"y":2593440.0340999998}},{"attributes":{"OBJECTID":26486,"LANDMARKID":"1001000000522","LANDMARKCO":"303","LANDMARKNA":"番路鄉停車場","LANDMARKAD":"1001016","ADDRESS":"嘉義縣番路鄉","TEL":" ","COUNTYNAME":"嘉義縣","TOWNNAME":"番路鄉","MARKTYPE":"993","Class":"303"},"geometry":{"x":205819.71200000029,"y":2595784.2903000005}},{"attributes":{"OBJECTID":26487,"LANDMARKID":"1001000000590","LANDMARKCO":"402","LANDMARKNA":"中華電信-番路服務中心","LANDMARKAD":"1001016","ADDRESS":"嘉義縣番路鄉下坑村菜公店3-11號","TEL":"(05)244-4401","COUNTYNAME":"嘉義縣","TOWNNAME":"番路鄉","MARKTYPE":"994","Class":"4"},"geometry":{"x":204939.74569999985,"y":2595694.6586000007}},{"attributes":{"OBJECTID":26488,"LANDMARKID":"1001000000925","LANDMARKCO":"604","LANDMARKNA":"四季星空館民宿","LANDMARKAD":"1001016","ADDRESS":"嘉義縣番路鄉公田村隙頂18號","TEL":"05-2586083","COUNTYNAME":"嘉義縣","TOWNNAME":"番路鄉","MARKTYPE":"996","Class":"6"},"geometry":{"x":215002.76699999999,"y":2592211.7566}},{"attributes":{"OBJECTID":26489,"LANDMARKID":"1001000000926","LANDMARKCO":"604","LANDMARKNA":"仲明居陶藝坊民宿","LANDMARKAD":"1001016","ADDRESS":"嘉義縣番路鄉公興村1鄰龍美19-1號","TEL":"05-2397598","COUNTYNAME":"嘉義縣","TOWNNAME":"番路鄉","MARKTYPE":"996","Class":"6"},"geometry":{"x":214223.76649999991,"y":2588913.5359000005}},{"attributes":{"OBJECTID":26490,"LANDMARKID":"1001000000927","LANDMARKCO":"604","LANDMARKNA":"當歸民宿","LANDMARKAD":"1001016","ADDRESS":"嘉義縣番路鄉金田村龍頭路18-4號","TEL":"05-2586680","COUNTYNAME":"嘉義縣","TOWNNAME":"番路鄉","MARKTYPE":"996","Class":"6"},"geometry":{"x":214329.07050000038,"y":2589100.3271999992}},{"attributes":{"OBJECTID":26491,"LANDMARKID":"1001000000928","LANDMARKCO":"604","LANDMARKNA":"一番宿","LANDMARKAD":"1001016","ADDRESS":"嘉義縣番路鄉番路村瓦厝仔11-1號","TEL":"05-2593573","COUNTYNAME":"嘉義縣","TOWNNAME":"番路鄉","MARKTYPE":"996","Class":"6"},"geometry":{"x":205392.83789999969,"y":2595665.7726000007}},{"attributes":{"OBJECTID":26492,"LANDMARKID":"1001000000836","LANDMARKCO":"602","LANDMARKNA":"名都觀光渡假大飯店","LANDMARKAD":"1001016","ADDRESS":"嘉義縣番路鄉內甕村後坑仔28號","TEL":"05-277-9928","COUNTYNAME":"嘉義縣","TOWNNAME":"番路鄉","MARKTYPE":"996","Class":"6"},"geometry":{"x":199335.9199000001,"y":2595010.5149000008}},{"attributes":{"OBJECTID":26493,"LANDMARKID":"1001000000777","LANDMARKCO":"503","LANDMARKNA":"萬丈瀑布","LANDMARKAD":"1001016","ADDRESS":"嘉義縣番路鄉","TEL":" ","COUNTYNAME":"嘉義縣","TOWNNAME":"番路鄉","MARKTYPE":"995","Class":"5"},"geometry":{"x":212066.78550000023,"y":2590518.0502000004}},{"attributes":{"OBJECTID":26494,"LANDMARKID":"1001000000778","LANDMARKCO":"503","LANDMARKNA":"仙井瀑布","LANDMARKAD":"1001016","ADDRESS":"嘉義縣番路鄉","TEL":" ","COUNTYNAME":"嘉義縣","TOWNNAME":"番路鄉","MARKTYPE":"995","Class":"5"},"geometry":{"x":211516.29980000015,"y":2588875.6714999992}},{"attributes":{"OBJECTID":26495,"LANDMARKID":"1001000000779","LANDMARKCO":"503","LANDMARKNA":"葫蘆谷","LANDMARKAD":"1001016","ADDRESS":"嘉義縣番路鄉","TEL":" ","COUNTYNAME":"嘉義縣","TOWNNAME":"番路鄉","MARKTYPE":"995","Class":"5"},"geometry":{"x":208575.14639999997,"y":2584838.602}},{"attributes":{"OBJECTID":26496,"LANDMARKID":"1001000000780","LANDMARKCO":"503","LANDMARKNA":"梅花谷","LANDMARKAD":"1001016","ADDRESS":"嘉義縣番路鄉","TEL":" ","COUNTYNAME":"嘉義縣","TOWNNAME":"番路鄉","MARKTYPE":"995","Class":"5"},"geometry":{"x":209776.60819999967,"y":2583472.5689000003}},{"attributes":{"OBJECTID":26497,"LANDMARKID":"1001000000781","LANDMARKCO":"503","LANDMARKNA":"仁義潭風景特定區","LANDMARKAD":"1001016","ADDRESS":"嘉義縣番路鄉","TEL":" ","COUNTYNAME":"嘉義縣","TOWNNAME":"番路鄉","MARKTYPE":"995","Class":"5"},"geometry":{"x":201729.15149999969,"y":2594987.2346999999}},{"attributes":{"OBJECTID":26498,"LANDMARKID":"1001000000782","LANDMARKCO":"503","LANDMARKNA":"仁義潭水庫風景區","LANDMARKAD":"1001016","ADDRESS":"嘉義縣番路鄉","TEL":" ","COUNTYNAME":"嘉義縣","TOWNNAME":"番路鄉","MARKTYPE":"995","Class":"5"},"geometry":{"x":200849.0597000001,"y":2595920.0533000007}},{"attributes":{"OBJECTID":26499,"LANDMARKID":"1001000000823","LANDMARKCO":"510","LANDMARKNA":"棕梠湖高爾夫球場","LANDMARKAD":"1001016","ADDRESS":"嘉義縣番路鄉新福村第三農場24號","TEL":"05-2590000","COUNTYNAME":"嘉義縣","TOWNNAME":"番路鄉","MARKTYPE":"995","Class":"5"},"geometry":{"x":202314.72279999964,"y":2596163.1150000002}},{"attributes":{"OBJECTID":26500,"LANDMARKID":"1001000000824","LANDMARKCO":"510","LANDMARKNA":"東洋棕梠湖高爾夫球場","LANDMARKAD":"1001016","ADDRESS":"嘉義縣番路鄉新福村第三農場24號","TEL":"05-2590000","COUNTYNAME":"嘉義縣","TOWNNAME":"番路鄉","MARKTYPE":"995","Class":"5"},"geometry":{"x":202486.45170000009,"y":2596245.6912999991}},{"attributes":{"OBJECTID":26501,"LANDMARKID":"1001000000702","LANDMARKCO":"405","LANDMARKNA":"台糖加油站-人生站(中油)","LANDMARKAD":"1001011","ADDRESS":"嘉義縣鹿草鄉豐稠村馬稠後農場10號","TEL":" ","COUNTYNAME":"嘉義縣","TOWNNAME":"鹿草鄉","MARKTYPE":"994","Class":"4"},"geometry":{"x":176090.11529999971,"y":2592934.8933000006}},{"attributes":{"OBJECTID":26502,"LANDMARKID":"1001000000703","LANDMARKCO":"405","LANDMARKNA":"中油加油站-鹿草站(中油直營)","LANDMARKAD":"1001011","ADDRESS":"嘉義縣鹿草鄉後堀村山仔腳59號","TEL":"05-3751219","COUNTYNAME":"嘉義縣","TOWNNAME":"鹿草鄉","MARKTYPE":"994","Class":"4"},"geometry":{"x":182952.54849999957,"y":2589721.0396999996}},{"attributes":{"OBJECTID":26503,"LANDMARKID":"1001000000749","LANDMARKCO":"408","LANDMARKNA":"郵局-鹿草郵局","LANDMARKAD":"1001011","ADDRESS":"嘉義縣鹿草鄉西井村287號","TEL":"(05)3752-007","COUNTYNAME":"嘉義縣","TOWNNAME":"鹿草鄉","MARKTYPE":"994","Class":"4"},"geometry":{"x":179314.78139999975,"y":2589993.7706000004}},{"attributes":{"OBJECTID":26504,"LANDMARKID":"1001000000757","LANDMARKCO":"409","LANDMARKNA":"嘉義縣鹿草鄉農會","LANDMARKAD":"1001011","ADDRESS":"嘉義縣鹿草鄉西井村288號","TEL":"05-3752911","COUNTYNAME":"嘉義縣","TOWNNAME":"鹿草鄉","MARKTYPE":"994","Class":"4"},"geometry":{"x":179278.39130000025,"y":2589923.7377000004}},{"attributes":{"OBJECTID":26505,"LANDMARKID":"1001000000077","LANDMARKCO":"106","LANDMARKNA":"嘉義縣鹿草鄉戶政事務所","LANDMARKAD":"1001011","ADDRESS":"嘉義縣鹿草鄉西井村12鄰鹿草286號","TEL":"05-3752301","COUNTYNAME":"嘉義縣","TOWNNAME":"鹿草鄉","MARKTYPE":"991","Class":"1"},"geometry":{"x":179294.55730000045,"y":2590050.2590999994}},{"attributes":{"OBJECTID":26506,"LANDMARKID":"1001000000011","LANDMARKCO":"101","LANDMARKNA":"台灣嘉義監獄","LANDMARKAD":"1001011","ADDRESS":"嘉義縣鹿草鄉豐稠村維新新村1號","TEL":"05-3621865","COUNTYNAME":"嘉義縣","TOWNNAME":"鹿草鄉","MARKTYPE":"991","Class":"1"},"geometry":{"x":176888.10940000042,"y":2592269.6245000008}},{"attributes":{"OBJECTID":26507,"LANDMARKID":"1001000000012","LANDMARKCO":"101","LANDMARKNA":"台灣嘉義看守所","LANDMARKAD":"1001011","ADDRESS":"嘉義縣鹿草鄉豐稠村信義新村1號","TEL":"05-3623889","COUNTYNAME":"嘉義縣","TOWNNAME":"鹿草鄉","MARKTYPE":"991","Class":"1"},"geometry":{"x":177083.81219999958,"y":2592077.7340999991}},{"attributes":{"OBJECTID":26508,"LANDMARKID":"1001000000029","LANDMARKCO":"103","LANDMARKNA":"嘉義縣鹿草鄉衛生所","LANDMARKAD":"1001011","ADDRESS":"嘉義縣鹿草鄉西井村287號之3","TEL":"05-3750300","COUNTYNAME":"嘉義縣","TOWNNAME":"鹿草鄉","MARKTYPE":"991","Class":"1"},"geometry":{"x":179246.1361999996,"y":2589851.0679000001}},{"attributes":{"OBJECTID":26509,"LANDMARKID":"1001000000204","LANDMARKCO":"108","LANDMARKNA":"嘉義縣鹿草鄉公所","LANDMARKAD":"1001011","ADDRESS":"嘉義縣鹿草鄉西井村287號","TEL":"05-3752711","COUNTYNAME":"嘉義縣","TOWNNAME":"鹿草鄉","MARKTYPE":"991","Class":"1"},"geometry":{"x":179304.60800000001,"y":2589961.3485000003}},{"attributes":{"OBJECTID":26510,"LANDMARKID":"1001000000027","LANDMARKCO":"103","LANDMARKNA":"嘉義縣鹿草鄉民代表會","LANDMARKAD":"1001011","ADDRESS":"嘉義縣鹿草鄉西井村西井287號","TEL":"05-3752003","COUNTYNAME":"嘉義縣","TOWNNAME":"鹿草鄉","MARKTYPE":"991","Class":"1"},"geometry":{"x":179282.94010000024,"y":2589991.2375000007}},{"attributes":{"OBJECTID":26511,"LANDMARKID":"1001000000188","LANDMARKCO":"107","LANDMARKNA":"嘉義縣警察局後堀派出所","LANDMARKAD":"1001011","ADDRESS":"嘉義縣鹿草鄉後堀村61號","TEL":"05-3752444","COUNTYNAME":"嘉義縣","TOWNNAME":"鹿草鄉","MARKTYPE":"991","Class":"1"},"geometry":{"x":182845.94299999997,"y":2589270.6110999994}},{"attributes":{"OBJECTID":26512,"LANDMARKID":"1001000000189","LANDMARKCO":"107","LANDMARKNA":"嘉義縣警察局下潭派出所","LANDMARKAD":"1001011","ADDRESS":"嘉義縣鹿草鄉下潭村光潭152號","TEL":"05-3651303","COUNTYNAME":"嘉義縣","TOWNNAME":"鹿草鄉","MARKTYPE":"991","Class":"1"},"geometry":{"x":177137.50030000042,"y":2586090.5878999997}},{"attributes":{"OBJECTID":26513,"LANDMARKID":"1001000000190","LANDMARKCO":"107","LANDMARKNA":"嘉義縣警察局鹿草分駐所","LANDMARKAD":"1001011","ADDRESS":"嘉義縣鹿草鄉西井村286號","TEL":"05-3752302","COUNTYNAME":"嘉義縣","TOWNNAME":"鹿草鄉","MARKTYPE":"991","Class":"1"},"geometry":{"x":179294.74789999984,"y":2590031.2940999996}},{"attributes":{"OBJECTID":26514,"LANDMARKID":"1001000000191","LANDMARKCO":"107","LANDMARKNA":"嘉義縣消防局鹿草消防分隊","LANDMARKAD":"1001011","ADDRESS":"嘉義縣鹿草鄉西井村西井286號","TEL":"05-3752243","COUNTYNAME":"嘉義縣","TOWNNAME":"鹿草鄉","MARKTYPE":"991","Class":"1"},"geometry":{"x":179293.79590000026,"y":2590021.2895999998}},{"attributes":{"OBJECTID":26515,"LANDMARKID":"1001000000013","LANDMARKCO":"101","LANDMARKNA":"農業委員會台南區農業改良場","LANDMARKAD":"1001011","ADDRESS":"嘉義縣鹿草鄉豐稠村農改場1號","TEL":"05-3751574~5","COUNTYNAME":"嘉義縣","TOWNNAME":"鹿草鄉","MARKTYPE":"991","Class":"1"},"geometry":{"x":177296.38460000046,"y":2591651.2389000002}},{"attributes":{"OBJECTID":26516,"LANDMARKID":"1001000000448","LANDMARKCO":"204","LANDMARKNA":"嘉義縣立圖書館鹿草分館","LANDMARKAD":"1001011","ADDRESS":"嘉義縣鹿草鄉西井村287號","TEL":" ","COUNTYNAME":"嘉義縣","TOWNNAME":"鹿草鄉","MARKTYPE":"992","Class":"2"},"geometry":{"x":179363.49349999987,"y":2589951.7542000003}},{"attributes":{"OBJECTID":26517,"LANDMARKID":"1001000000391","LANDMARKCO":"203","LANDMARKNA":"縣立後塘國小","LANDMARKAD":"1001011","ADDRESS":"嘉義縣鹿草鄉三角村毛蟹行11號","TEL":"05-3752548","COUNTYNAME":"嘉義縣","TOWNNAME":"鹿草鄉","MARKTYPE":"992","Class":"2"},"geometry":{"x":182238.13009999972,"y":2589230.4323999994}},{"attributes":{"OBJECTID":26518,"LANDMARKID":"1001000000392","LANDMARKCO":"203","LANDMARKNA":"縣立鹿草國中","LANDMARKAD":"1001011","ADDRESS":"嘉義縣鹿草鄉鹿草村439號","TEL":"05-3750319","COUNTYNAME":"嘉義縣","TOWNNAME":"鹿草鄉","MARKTYPE":"992","Class":"2"},"geometry":{"x":179791.93989999965,"y":2589890.9545000009}},{"attributes":{"OBJECTID":26519,"LANDMARKID":"1001000000393","LANDMARKCO":"203","LANDMARKNA":"縣立重寮國小","LANDMARKAD":"1001011","ADDRESS":"嘉義縣鹿草鄉重寮村160號","TEL":"05-3752544","COUNTYNAME":"嘉義縣","TOWNNAME":"鹿草鄉","MARKTYPE":"992","Class":"2"},"geometry":{"x":179996.05420000013,"y":2588020.6131999996}},{"attributes":{"OBJECTID":26520,"LANDMARKID":"1001000000394","LANDMARKCO":"203","LANDMARKNA":"縣立碧潭國小","LANDMARKAD":"1001011","ADDRESS":"嘉義縣鹿草鄉都碧潭村184號","TEL":"05-3650179","COUNTYNAME":"嘉義縣","TOWNNAME":"鹿草鄉","MARKTYPE":"992","Class":"2"},"geometry":{"x":178395.77249999996,"y":2587261.1443000007}},{"attributes":{"OBJECTID":26521,"LANDMARKID":"1001000000395","LANDMARKCO":"203","LANDMARKNA":"縣立下潭國小","LANDMARKAD":"1001011","ADDRESS":"嘉義縣鹿草鄉光潭村196號","TEL":"05-3651544","COUNTYNAME":"嘉義縣","TOWNNAME":"鹿草鄉","MARKTYPE":"992","Class":"2"},"geometry":{"x":177005.02010000031,"y":2585881.3475000001}},{"attributes":{"OBJECTID":26522,"LANDMARKID":"1001000000396","LANDMARKCO":"203","LANDMARKNA":"縣立鹿草國小","LANDMARKAD":"1001011","ADDRESS":"嘉義縣鹿草鄉西井村296號","TEL":"05-3752004","COUNTYNAME":"嘉義縣","TOWNNAME":"鹿草鄉","MARKTYPE":"992","Class":"2"},"geometry":{"x":179207.84570000041,"y":2590010.8769000005}},{"attributes":{"OBJECTID":26523,"LANDMARKID":"1001000000397","LANDMARKCO":"203","LANDMARKNA":"縣立竹園國小","LANDMARKAD":"1001011","ADDRESS":"嘉義縣鹿草鄉松竹村69號","TEL":"05-3650524","COUNTYNAME":"嘉義縣","TOWNNAME":"鹿草鄉","MARKTYPE":"992","Class":"2"},"geometry":{"x":177474.22750000004,"y":2587990.8006999996}},{"attributes":{"OBJECTID":26524,"LANDMARKID":"1001000000398","LANDMARKCO":"203","LANDMARKNA":"縣立竹圍國小","LANDMARKAD":"1001011","ADDRESS":"嘉義縣鹿草鄉","TEL":" ","COUNTYNAME":"嘉義縣","TOWNNAME":"鹿草鄉","MARKTYPE":"992","Class":"2"},"geometry":{"x":177473.17839999963,"y":2588000.7956000008}},{"attributes":{"OBJECTID":26525,"LANDMARKID":"1001000000561","LANDMARKCO":"308","LANDMARKNA":"國1-嘉義系統交流道-南下","LANDMARKAD":"1001011","ADDRESS":"嘉義縣水上鄉","TEL":" ","COUNTYNAME":"嘉義縣","TOWNNAME":"鹿草鄉","MARKTYPE":"993","Class":"308"},"geometry":{"x":184130.20820000023,"y":2591015.3939999994}},{"attributes":{"OBJECTID":26526,"LANDMARKID":"1001000000562","LANDMARKCO":"308","LANDMARKNA":"台82-祥和交流道-東行","LANDMARKAD":"1001011","ADDRESS":"嘉義縣鹿草鄉","TEL":" ","COUNTYNAME":"嘉義縣","TOWNNAME":"鹿草鄉","MARKTYPE":"993","Class":"308"},"geometry":{"x":176989.25729999971,"y":2593329.3284000009}},{"attributes":{"OBJECTID":26527,"LANDMARKID":"1001000000563","LANDMARKCO":"308","LANDMARKNA":"台82-鹿草交流道-西行","LANDMARKAD":"1001011","ADDRESS":"嘉義縣鹿草鄉","TEL":" ","COUNTYNAME":"嘉義縣","TOWNNAME":"鹿草鄉","MARKTYPE":"993","Class":"308"},"geometry":{"x":180160.90220000036,"y":2591969.6281000003}},{"attributes":{"OBJECTID":26528,"LANDMARKID":"1001000000564","LANDMARKCO":"308","LANDMARKNA":"台82-鹿草交流道-東行","LANDMARKAD":"1001011","ADDRESS":"嘉義縣鹿草鄉","TEL":" ","COUNTYNAME":"嘉義縣","TOWNNAME":"鹿草鄉","MARKTYPE":"993","Class":"308"},"geometry":{"x":180479.32220000029,"y":2591905.6877999995}},{"attributes":{"OBJECTID":26529,"LANDMARKID":"1001000000565","LANDMARKCO":"308","LANDMARKNA":"台82-嘉義系統交流道-西行","LANDMARKAD":"1001011","ADDRESS":" ","TEL":" ","COUNTYNAME":"嘉義縣","TOWNNAME":"鹿草鄉","MARKTYPE":"993","Class":"308"},"geometry":{"x":183704.72360000014,"y":2591591.5012999997}},{"attributes":{"OBJECTID":26530,"LANDMARKID":"1001000000588","LANDMARKCO":"402","LANDMARKNA":"中華電信-鹿草服務中心","LANDMARKAD":"1001011","ADDRESS":"嘉義縣鹿草鄉鹿草村440號","TEL":"(05)344-0039","COUNTYNAME":"嘉義縣","TOWNNAME":"鹿草鄉","MARKTYPE":"994","Class":"4"},"geometry":{"x":179922.45629999973,"y":2589728.2620000001}},{"attributes":{"OBJECTID":26531,"LANDMARKID":"1001000000688","LANDMARKCO":"405","LANDMARKNA":"中油加油站-信泰站","LANDMARKAD":"1001013","ADDRESS":"嘉義縣中埔鄉義仁村樹頭埔1-4號","TEL":"05-2031730","COUNTYNAME":"嘉義縣","TOWNNAME":"中埔鄉","MARKTYPE":"994","Class":"4"},"geometry":{"x":200546.05289999954,"y":2593532.4155000001}},{"attributes":{"OBJECTID":26532,"LANDMARKID":"1001000000689","LANDMARKCO":"405","LANDMARKNA":"台糖加油站-公館站(中油)","LANDMARKAD":"1001013","ADDRESS":"嘉義縣中埔鄉和興村中華路499號","TEL":" ","COUNTYNAME":"嘉義縣","TOWNNAME":"中埔鄉","MARKTYPE":"994","Class":"4"},"geometry":{"x":194326.61459999997,"y":2593316.2881000005}},{"attributes":{"OBJECTID":26533,"LANDMARKID":"1001000000690","LANDMARKCO":"405","LANDMARKNA":"中油加油站-輝達站","LANDMARKAD":"1001013","ADDRESS":"嘉義縣中埔鄉中山路五段271號","TEL":"05-2391483","COUNTYNAME":"嘉義縣","TOWNNAME":"中埔鄉","MARKTYPE":"994","Class":"4"},"geometry":{"x":196331.05150000006,"y":2594398.8254000004}},{"attributes":{"OBJECTID":26534,"LANDMARKID":"1001000000691","LANDMARKCO":"405","LANDMARKNA":"中油加油站-中埔站(中油直營)","LANDMARKAD":"1001013","ADDRESS":"嘉義縣中埔鄉中埔村中埔161-4號","TEL":"05-2532046","COUNTYNAME":"嘉義縣","TOWNNAME":"中埔鄉","MARKTYPE":"994","Class":"4"},"geometry":{"x":200650.87349999975,"y":2591753.0572999995}},{"attributes":{"OBJECTID":26535,"LANDMARKID":"1001000000692","LANDMARKCO":"405","LANDMARKNA":"台灣優力加油站-中埔站(中油)","LANDMARKAD":"1001013","ADDRESS":"嘉義縣中埔鄉和睦村中華路532號","TEL":"05-2307148","COUNTYNAME":"嘉義縣","TOWNNAME":"中埔鄉","MARKTYPE":"994","Class":"4"},"geometry":{"x":193990.03589999955,"y":2592649.9298}},{"attributes":{"OBJECTID":26536,"LANDMARKID":"1001000000693","LANDMARKCO":"405","LANDMARKNA":"中油加油站-全順站","LANDMARKAD":"1001013","ADDRESS":"嘉義縣和美村大義路345號","TEL":"05-2307377","COUNTYNAME":"嘉義縣","TOWNNAME":"中埔鄉","MARKTYPE":"994","Class":"4"},"geometry":{"x":196370.39630000014,"y":2594867.9857000001}},{"attributes":{"OBJECTID":26537,"LANDMARKID":"1001000000694","LANDMARKCO":"405","LANDMARKNA":"中油加油站-大義路站(中油直營)","LANDMARKAD":"1001013","ADDRESS":"嘉義縣中埔鄉和美村大義路515號","TEL":"05-2300875","COUNTYNAME":"嘉義縣","TOWNNAME":"中埔鄉","MARKTYPE":"994","Class":"4"},"geometry":{"x":196029.89589999989,"y":2595230.2695000004}},{"attributes":{"OBJECTID":26538,"LANDMARKID":"1001000000695","LANDMARKCO":"405","LANDMARKNA":"台糖加油站-頂六站(中油)","LANDMARKAD":"1001013","ADDRESS":"嘉義縣中埔鄉金蘭村12鄰頂山門21號","TEL":" ","COUNTYNAME":"嘉義縣","TOWNNAME":"中埔鄉","MARKTYPE":"994","Class":"4"},"geometry":{"x":198472.83239999972,"y":2593731.2171999998}},{"attributes":{"OBJECTID":26539,"LANDMARKID":"1001000000696","LANDMARKCO":"405","LANDMARKNA":"中油加油站-嘉盈站","LANDMARKAD":"1001013","ADDRESS":"嘉義縣中埔鄉金蘭村頂山門6號之31","TEL":"05-2391042","COUNTYNAME":"嘉義縣","TOWNNAME":"中埔鄉","MARKTYPE":"994","Class":"4"},"geometry":{"x":198421.49550000019,"y":2593687.3384000007}},{"attributes":{"OBJECTID":26540,"LANDMARKID":"1001000000697","LANDMARKCO":"405","LANDMARKNA":"統一速邁樂加油站-中埔加油站(中油)","LANDMARKAD":"1001013","ADDRESS":"嘉義縣中埔鄉大義路45號","TEL":" ","COUNTYNAME":"嘉義縣","TOWNNAME":"中埔鄉","MARKTYPE":"994","Class":"4"},"geometry":{"x":196743.50810000021,"y":2594440.7050999999}},{"attributes":{"OBJECTID":26541,"LANDMARKID":"1001000000698","LANDMARKCO":"405","LANDMARKNA":"中油加油站-忠義站","LANDMARKAD":"1001013","ADDRESS":"嘉義縣中埔鄉大義路606號","TEL":"05-2398208","COUNTYNAME":"嘉義縣","TOWNNAME":"中埔鄉","MARKTYPE":"994","Class":"4"},"geometry":{"x":196030.3088999996,"y":2595259.5262000002}},{"attributes":{"OBJECTID":26542,"LANDMARKID":"1001000000818","LANDMARKCO":"507","LANDMARKNA":"吳鳳廟","LANDMARKAD":"1001013","ADDRESS":"嘉義縣中埔鄉社口村社口1號","TEL":" ","COUNTYNAME":"嘉義縣","TOWNNAME":"中埔鄉","MARKTYPE":"995","Class":"5"},"geometry":{"x":203255.48759999964,"y":2593802.1853999998}},{"attributes":{"OBJECTID":26543,"LANDMARKID":"1001000000819","LANDMARKCO":"507","LANDMARKNA":"吳鳳廟特定區","LANDMARKAD":"1001013","ADDRESS":"嘉義縣中埔鄉","TEL":" ","COUNTYNAME":"嘉義縣","TOWNNAME":"中埔鄉","MARKTYPE":"995","Class":"5"},"geometry":{"x":203100.3479000004,"y":2593731.8835000005}},{"attributes":{"OBJECTID":26544,"LANDMARKID":"1001000000747","LANDMARKCO":"408","LANDMARKNA":"郵局-中埔郵局","LANDMARKAD":"1001013","ADDRESS":"嘉義縣中埔鄉中埔村167號","TEL":"(05)2531-030","COUNTYNAME":"嘉義縣","TOWNNAME":"中埔鄉","MARKTYPE":"994","Class":"4"},"geometry":{"x":201263.14460000023,"y":2591396.2617000006}},{"attributes":{"OBJECTID":26545,"LANDMARKID":"1001000000748","LANDMARKCO":"408","LANDMARKNA":"郵局-中埔後庄郵局","LANDMARKAD":"1001013","ADDRESS":"嘉義縣中埔鄉和興村中華路889號","TEL":"(05)2394-623","COUNTYNAME":"嘉義縣","TOWNNAME":"中埔鄉","MARKTYPE":"994","Class":"4"},"geometry":{"x":193933.30059999973,"y":2592654.4779000003}},{"attributes":{"OBJECTID":26546,"LANDMARKID":"1001000000758","LANDMARKCO":"409","LANDMARKNA":"嘉義縣中埔鄉農會","LANDMARKAD":"1001013","ADDRESS":"嘉義縣中埔鄉中埔村中正路75號","TEL":"05-2532201轉208","COUNTYNAME":"嘉義縣","TOWNNAME":"中埔鄉","MARKTYPE":"994","Class":"4"},"geometry":{"x":201317.1612999998,"y":2591926.2851999998}},{"attributes":{"OBJECTID":26547,"LANDMARKID":"1001000000704","LANDMARKCO":"406","LANDMARKNA":"吳鳳紀念園","LANDMARKAD":"1001013","ADDRESS":"嘉義縣中埔鄉","TEL":" ","COUNTYNAME":"嘉義縣","TOWNNAME":"中埔鄉","MARKTYPE":"994","Class":"4"},"geometry":{"x":203047.42300000042,"y":2593768.3540000003}},{"attributes":{"OBJECTID":26548,"LANDMARKID":"1001000000699","LANDMARKCO":"405","LANDMARKNA":"台塑加油站-中埔交流道站(台塑)","LANDMARKAD":"1001013","ADDRESS":"嘉義縣中埔鄉金蘭村金蘭24-15號","TEL":"05-2030300","COUNTYNAME":"嘉義縣","TOWNNAME":"中埔鄉","MARKTYPE":"994","Class":"4"},"geometry":{"x":199270.20550000016,"y":2593013.9372000005}},{"attributes":{"OBJECTID":26549,"LANDMARKID":"1001000000700","LANDMARKCO":"405","LANDMARKNA":"福懋加油站-中埔站(台塑)","LANDMARKAD":"1001013","ADDRESS":"嘉義縣中埔鄉司公_1鄰7-8號","TEL":"05-2307148","COUNTYNAME":"嘉義縣","TOWNNAME":"中埔鄉","MARKTYPE":"994","Class":"4"},"geometry":{"x":195477.01510000043,"y":2594779.7451000009}},{"attributes":{"OBJECTID":26550,"LANDMARKID":"1001000000701","LANDMARKCO":"405","LANDMARKNA":"台亞加油站-中埔交流道站（台塑）","LANDMARKAD":"1001013","ADDRESS":"嘉義縣中埔鄉和睦村司公4-20號","TEL":"(05)239-6699","COUNTYNAME":"嘉義縣","TOWNNAME":"中埔鄉","MARKTYPE":"994","Class":"4"},"geometry":{"x":196951.65909999982,"y":2594326.4782999996}},{"attributes":{"OBJECTID":26551,"LANDMARKID":"1001000000185","LANDMARKCO":"107","LANDMARKNA":"嘉義縣警察局中埔分局","LANDMARKAD":"1001013","ADDRESS":"嘉義縣中埔鄉中埔村中正路66號","TEL":"05-2531013","COUNTYNAME":"嘉義縣","TOWNNAME":"中埔鄉","MARKTYPE":"991","Class":"1"},"geometry":{"x":201316.88879999984,"y":2591460.4734000005}},{"attributes":{"OBJECTID":26552,"LANDMARKID":"1001000000186","LANDMARKCO":"107","LANDMARKNA":"嘉義縣警察局中埔派出所","LANDMARKAD":"1001013","ADDRESS":"嘉義縣中埔鄉中埔村中正路66號","TEL":"05-2531203","COUNTYNAME":"嘉義縣","TOWNNAME":"中埔鄉","MARKTYPE":"991","Class":"1"},"geometry":{"x":201316.88879999984,"y":2591460.4734000005}},{"attributes":{"OBJECTID":26553,"LANDMARKID":"1001000000187","LANDMARKCO":"107","LANDMARKNA":"嘉義縣消防局中埔消防分隊","LANDMARKAD":"1001013","ADDRESS":"嘉義縣中埔鄉中正路68號","TEL":"05-2531340","COUNTYNAME":"嘉義縣","TOWNNAME":"中埔鄉","MARKTYPE":"991","Class":"1"},"geometry":{"x":201317.92179999966,"y":2591450.4768000003}},{"attributes":{"OBJECTID":26554,"LANDMARKID":"1001000000078","LANDMARKCO":"106","LANDMARKNA":"嘉義縣中埔鄉戶政事務所","LANDMARKAD":"1001013","ADDRESS":"嘉義縣中埔鄉中正路64號","TEL":"05-2531154","COUNTYNAME":"嘉義縣","TOWNNAME":"中埔鄉","MARKTYPE":"991","Class":"1"},"geometry":{"x":196142.1584999999,"y":2593520.2596000005}},{"attributes":{"OBJECTID":26555,"LANDMARKID":"1001000000028","LANDMARKCO":"103","LANDMARKNA":"嘉義縣中埔鄉衛生所","LANDMARKAD":"1001013","ADDRESS":"嘉義縣中埔鄉中埔村130之1號","TEL":"05-2531008","COUNTYNAME":"嘉義縣","TOWNNAME":"中埔鄉","MARKTYPE":"991","Class":"1"},"geometry":{"x":201198.12760000024,"y":2591690.0802999996}},{"attributes":{"OBJECTID":26556,"LANDMARKID":"1001000000206","LANDMARKCO":"108","LANDMARKNA":"嘉義縣中埔鄉公所","LANDMARKAD":"1001013","ADDRESS":"嘉義縣中埔鄉中埔村128號","TEL":"05-2533321","COUNTYNAME":"嘉義縣","TOWNNAME":"中埔鄉","MARKTYPE":"991","Class":"1"},"geometry":{"x":201269.88920000009,"y":2591460.318}},{"attributes":{"OBJECTID":26557,"LANDMARKID":"1001000000025","LANDMARKCO":"103","LANDMARKNA":"嘉義縣中埔鄉民代表會","LANDMARKAD":"1001013","ADDRESS":"嘉義縣中埔鄉中埔村128號之3","TEL":"05-2531006","COUNTYNAME":"嘉義縣","TOWNNAME":"中埔鄉","MARKTYPE":"991","Class":"1"},"geometry":{"x":201257.0036000004,"y":2591420.2786999997}},{"attributes":{"OBJECTID":26558,"LANDMARKID":"1001000000179","LANDMARKCO":"107","LANDMARKNA":"嘉義縣警察局東興派出所","LANDMARKAD":"1001013","ADDRESS":"嘉義縣中埔鄉東興村凍仔腳16號","TEL":"05-2532050","COUNTYNAME":"嘉義縣","TOWNNAME":"中埔鄉","MARKTYPE":"991","Class":"1"},"geometry":{"x":202067.5401999997,"y":2583260.2243000008}},{"attributes":{"OBJECTID":26559,"LANDMARKID":"1001000000180","LANDMARKCO":"107","LANDMARKNA":"嘉義縣警察局石弄派出所","LANDMARKAD":"1001013","ADDRESS":"嘉義縣中埔鄉石弄村57號","TEL":"05-2531204","COUNTYNAME":"嘉義縣","TOWNNAME":"中埔鄉","MARKTYPE":"991","Class":"1"},"geometry":{"x":203450.48369999975,"y":2590660.0275999997}},{"attributes":{"OBJECTID":26560,"LANDMARKID":"1001000000181","LANDMARKCO":"107","LANDMARKNA":"嘉義縣警察局頂六派出所","LANDMARKAD":"1001013","ADDRESS":"嘉義縣中埔鄉富收村頂中下街60號","TEL":"05-2393984","COUNTYNAME":"嘉義縣","TOWNNAME":"中埔鄉","MARKTYPE":"991","Class":"1"},"geometry":{"x":197816.94199999981,"y":2593890.1478000004}},{"attributes":{"OBJECTID":26561,"LANDMARKID":"1001000000182","LANDMARKCO":"107","LANDMARKNA":"嘉義縣警察局同仁派出所","LANDMARKAD":"1001013","ADDRESS":"嘉義縣中埔鄉同仁村99號","TEL":"05-2531201","COUNTYNAME":"嘉義縣","TOWNNAME":"中埔鄉","MARKTYPE":"991","Class":"1"},"geometry":{"x":200080.42279999983,"y":2589140.1703999992}},{"attributes":{"OBJECTID":26562,"LANDMARKID":"1001000000183","LANDMARKCO":"107","LANDMARKNA":"嘉義縣警察局義仁派出所","LANDMARKAD":"1001013","ADDRESS":"嘉義縣中埔鄉隆興村汴頭11號","TEL":"05-2531202","COUNTYNAME":"嘉義縣","TOWNNAME":"中埔鄉","MARKTYPE":"991","Class":"1"},"geometry":{"x":202322.25860000029,"y":2593190.0259000007}},{"attributes":{"OBJECTID":26563,"LANDMARKID":"1001000000184","LANDMARKCO":"107","LANDMARKNA":"嘉義縣消防局第三消防大隊部","LANDMARKAD":"1001013","ADDRESS":"嘉義縣中埔鄉和興村和興路100號","TEL":"05-2399119","COUNTYNAME":"嘉義縣","TOWNNAME":"中埔鄉","MARKTYPE":"991","Class":"1"},"geometry":{"x":201317.92179999966,"y":2591450.4768000003}},{"attributes":{"OBJECTID":26564,"LANDMARKID":"1001000000014","LANDMARKCO":"101","LANDMARKNA":"中央研究院地球科學研究所","LANDMARKAD":"1001013","ADDRESS":"嘉義縣中埔鄉中崙村28號","TEL":"05-2538420","COUNTYNAME":"嘉義縣","TOWNNAME":"中埔鄉","MARKTYPE":"991","Class":"1"},"geometry":{"x":205388.14290000033,"y":2586160.7796999998}},{"attributes":{"OBJECTID":26565,"LANDMARKID":"1001000000015","LANDMARKCO":"101","LANDMARKNA":"中埔鄉後備憲兵連絡處","LANDMARKAD":"1001013","ADDRESS":"嘉義縣中埔鄉義仁村15號","TEL":"05-2538434","COUNTYNAME":"嘉義縣","TOWNNAME":"中埔鄉","MARKTYPE":"991","Class":"1"},"geometry":{"x":201846.0848000003,"y":2593550.3224999998}},{"attributes":{"OBJECTID":26566,"LANDMARKID":"1001000000016","LANDMARKCO":"101","LANDMARKNA":"中崙林場辦事處","LANDMARKAD":"1001013","ADDRESS":"嘉義縣中埔鄉","TEL":" ","COUNTYNAME":"嘉義縣","TOWNNAME":"中埔鄉","MARKTYPE":"991","Class":"1"},"geometry":{"x":205304.78380000032,"y":2584410.5413000006}},{"attributes":{"OBJECTID":26567,"LANDMARKID":"1001000000468","LANDMARKCO":"205","LANDMARKNA":"中華民俗村","LANDMARKAD":"1001013","ADDRESS":"嘉義縣中埔鄉社口村社口1號","TEL":" ","COUNTYNAME":"嘉義縣","TOWNNAME":"中埔鄉","MARKTYPE":"992","Class":"2"},"geometry":{"x":203097.8853000002,"y":2593691.1473999992}},{"attributes":{"OBJECTID":26568,"LANDMARKID":"1001000000444","LANDMARKCO":"204","LANDMARKNA":"嘉義縣立圖書館中埔分館","LANDMARKAD":"1001013","ADDRESS":"嘉義縣中埔鄉中埔村128之2號","TEL":" ","COUNTYNAME":"嘉義縣","TOWNNAME":"中埔鄉","MARKTYPE":"992","Class":"2"},"geometry":{"x":201284.01889999956,"y":2591458.8911000006}},{"attributes":{"OBJECTID":26569,"LANDMARKID":"1001000000429","LANDMARKCO":"203","LANDMARKNA":"縣立中埔國小","LANDMARKAD":"1001013","ADDRESS":"嘉義縣中埔鄉中埔村中正路1號","TEL":"05-2531003","COUNTYNAME":"嘉義縣","TOWNNAME":"中埔鄉","MARKTYPE":"992","Class":"2"},"geometry":{"x":201377.99509999994,"y":2591120.6786000002}},{"attributes":{"OBJECTID":26570,"LANDMARKID":"1001000000430","LANDMARKCO":"203","LANDMARKNA":"縣立和興國小","LANDMARKAD":"1001013","ADDRESS":"嘉義縣中埔鄉和興村中華路501巷45號","TEL":"05-2306717","COUNTYNAME":"嘉義縣","TOWNNAME":"中埔鄉","MARKTYPE":"992","Class":"2"},"geometry":{"x":193703.58530000038,"y":2593100.7197999991}},{"attributes":{"OBJECTID":26571,"LANDMARKID":"1001000000431","LANDMARKCO":"203","LANDMARKNA":"縣立中埔國中","LANDMARKAD":"1001013","ADDRESS":"嘉義縣中埔鄉中埔村177號","TEL":"05-2353325","COUNTYNAME":"嘉義縣","TOWNNAME":"中埔鄉","MARKTYPE":"992","Class":"2"},"geometry":{"x":200991.20079999976,"y":2591360.3403999992}},{"attributes":{"OBJECTID":26572,"LANDMARKID":"1001000000432","LANDMARKCO":"203","LANDMARKNA":"縣立中山國小","LANDMARKAD":"1001013","ADDRESS":"嘉義縣中埔鄉石弄村22號","TEL":"05-2531231","COUNTYNAME":"嘉義縣","TOWNNAME":"中埔鄉","MARKTYPE":"992","Class":"2"},"geometry":{"x":203852.5932,"y":2590010.4042000007}},{"attributes":{"OBJECTID":26573,"LANDMARKID":"1001000000433","LANDMARKCO":"203","LANDMARKNA":"縣立同仁國小","LANDMARKAD":"1001013","ADDRESS":"嘉義縣中埔鄉同仁村24號","TEL":"05-2531205","COUNTYNAME":"嘉義縣","TOWNNAME":"中埔鄉","MARKTYPE":"992","Class":"2"},"geometry":{"x":200133.7949000001,"y":2589030.3509999998}},{"attributes":{"OBJECTID":26574,"LANDMARKID":"1001000000434","LANDMARKCO":"203","LANDMARKNA":"縣立中崙國小","LANDMARKAD":"1001013","ADDRESS":"嘉義縣中埔鄉中崙村28號","TEL":"05-2531144","COUNTYNAME":"嘉義縣","TOWNNAME":"中埔鄉","MARKTYPE":"992","Class":"2"},"geometry":{"x":205387.14290000033,"y":2586160.7765999995}},{"attributes":{"OBJECTID":26575,"LANDMARKID":"1001000000435","LANDMARKCO":"203","LANDMARKNA":"縣立社口國小","LANDMARKAD":"1001013","ADDRESS":"嘉義縣中埔鄉隆興村2鄰8號","TEL":"05-2531094","COUNTYNAME":"嘉義縣","TOWNNAME":"中埔鄉","MARKTYPE":"992","Class":"2"},"geometry":{"x":202885.86980000045,"y":2593000.0127000008}},{"attributes":{"OBJECTID":26576,"LANDMARKID":"1001000000436","LANDMARKCO":"203","LANDMARKNA":"縣立中正國小","LANDMARKAD":"1001013","ADDRESS":"嘉義縣中埔鄉社口村5鄰內埔40號","TEL":"05-2531448","COUNTYNAME":"嘉義縣","TOWNNAME":"中埔鄉","MARKTYPE":"992","Class":"2"},"geometry":{"x":206316.61760000046,"y":2592770.0886000004}},{"attributes":{"OBJECTID":26577,"LANDMARKID":"1001000000437","LANDMARKCO":"203","LANDMARKNA":"縣立沄水國小","LANDMARKAD":"1001013","ADDRESS":"嘉義縣中埔鄉沄水村16號","TEL":"05-2531654","COUNTYNAME":"嘉義縣","TOWNNAME":"中埔鄉","MARKTYPE":"992","Class":"2"},"geometry":{"x":201998.64950000029,"y":2586610.8910000008}},{"attributes":{"OBJECTID":26578,"LANDMARKID":"1001000000438","LANDMARKCO":"203","LANDMARKNA":"縣立灣潭國小","LANDMARKAD":"1001013","ADDRESS":"嘉義縣中埔鄉灣潭村下庄1之1號","TEL":"05-2531660","COUNTYNAME":"嘉義縣","TOWNNAME":"中埔鄉","MARKTYPE":"992","Class":"2"},"geometry":{"x":204732.15610000025,"y":2591690.4682999998}},{"attributes":{"OBJECTID":26579,"LANDMARKID":"1001000000439","LANDMARKCO":"203","LANDMARKNA":"縣立大有國小","LANDMARKAD":"1001013","ADDRESS":"嘉義縣中埔鄉裕民村石頭厝17之1號","TEL":"05-2531561","COUNTYNAME":"嘉義縣","TOWNNAME":"中埔鄉","MARKTYPE":"992","Class":"2"},"geometry":{"x":200208.48489999957,"y":2591890.5723000001}},{"attributes":{"OBJECTID":26580,"LANDMARKID":"1001000000440","LANDMARKCO":"203","LANDMARKNA":"縣立和睦國小","LANDMARKAD":"1001013","ADDRESS":"嘉義縣中埔鄉和美村後庄16號","TEL":"05-2304511","COUNTYNAME":"嘉義縣","TOWNNAME":"中埔鄉","MARKTYPE":"992","Class":"2"},"geometry":{"x":195099.16700000037,"y":2594440.5969999991}},{"attributes":{"OBJECTID":26581,"LANDMARKID":"1001000000441","LANDMARKCO":"203","LANDMARKNA":"縣立三層國小","LANDMARKAD":"1001013","ADDRESS":"嘉義縣中埔鄉三層村崎頭仔1號","TEL":"05-2551144","COUNTYNAME":"嘉義縣","TOWNNAME":"中埔鄉","MARKTYPE":"992","Class":"2"},"geometry":{"x":198627.45419999957,"y":2585440.1032999996}},{"attributes":{"OBJECTID":26582,"LANDMARKID":"1001000000442","LANDMARKCO":"203","LANDMARKNA":"縣立頂六國小","LANDMARKAD":"1001013","ADDRESS":"嘉義縣中埔鄉金蘭村頂山門25號","TEL":"05-2394042","COUNTYNAME":"嘉義縣","TOWNNAME":"中埔鄉","MARKTYPE":"992","Class":"2"},"geometry":{"x":198445.12210000027,"y":2593840.3585000001}},{"attributes":{"OBJECTID":26583,"LANDMARKID":"1001000000443","LANDMARKCO":"203","LANDMARKNA":"縣立中山國小石弄分班","LANDMARKAD":"1001013","ADDRESS":"嘉義縣中埔鄉石弄村54號","TEL":"05-2531684","COUNTYNAME":"嘉義縣","TOWNNAME":"中埔鄉","MARKTYPE":"992","Class":"2"},"geometry":{"x":206472.53959999979,"y":2588490.5873000007}},{"attributes":{"OBJECTID":26584,"LANDMARKID":"1001000000545","LANDMARKCO":"308","LANDMARKNA":"國3-中埔交流道-南下","LANDMARKAD":"1001013","ADDRESS":"嘉義縣中埔鄉","TEL":" ","COUNTYNAME":"嘉義縣","TOWNNAME":"中埔鄉","MARKTYPE":"993","Class":"308"},"geometry":{"x":197244.49000000022,"y":2594123.6503999997}},{"attributes":{"OBJECTID":26585,"LANDMARKID":"1001000000546","LANDMARKCO":"308","LANDMARKNA":"台82-嘉義交流道-西行","LANDMARKAD":"1001013","ADDRESS":"嘉義縣中埔鄉","TEL":" ","COUNTYNAME":"嘉義縣","TOWNNAME":"中埔鄉","MARKTYPE":"993","Class":"308"},"geometry":{"x":193563.93589999992,"y":2592070.7116999999}},{"attributes":{"OBJECTID":26586,"LANDMARKID":"1001000000547","LANDMARKCO":"308","LANDMARKNA":"台82-嘉義交流道-東行","LANDMARKAD":"1001013","ADDRESS":"嘉義縣中埔鄉","TEL":" ","COUNTYNAME":"嘉義縣","TOWNNAME":"中埔鄉","MARKTYPE":"993","Class":"308"},"geometry":{"x":194145.37330000009,"y":2592253.0139000006}},{"attributes":{"OBJECTID":26587,"LANDMARKID":"1001000000521","LANDMARKCO":"303","LANDMARKNA":"嘉義停二停車場","LANDMARKAD":"1001013","ADDRESS":"嘉義縣中埔鄉中崙村","TEL":" ","COUNTYNAME":"嘉義縣","TOWNNAME":"中埔鄉","MARKTYPE":"993","Class":"303"},"geometry":{"x":194897.26219999976,"y":2594594.1366000008}},{"attributes":{"OBJECTID":26588,"LANDMARKID":"1001000000591","LANDMARKCO":"402","LANDMARKNA":"中華電信-中埔服務中心","LANDMARKAD":"1001013","ADDRESS":"嘉義縣中埔鄉中埔村80-4號","TEL":"(05)244-2501","COUNTYNAME":"嘉義縣","TOWNNAME":"中埔鄉","MARKTYPE":"994","Class":"4"},"geometry":{"x":201107.81209999975,"y":2591079.9308000002}},{"attributes":{"OBJECTID":26589,"LANDMARKID":"1001000000918","LANDMARKCO":"604","LANDMARKNA":"陽光綠景","LANDMARKAD":"1001013","ADDRESS":"嘉義縣中埔鄉鹽館村鹽館26號","TEL":"05-2030501","COUNTYNAME":"嘉義縣","TOWNNAME":"中埔鄉","MARKTYPE":"996","Class":"6"},"geometry":{"x":202914.2006000001,"y":2591889.0503000002}},{"attributes":{"OBJECTID":26590,"LANDMARKID":"1001000000919","LANDMARKCO":"604","LANDMARKNA":"綠盈民宿","LANDMARKAD":"1001013","ADDRESS":"嘉義縣中埔鄉鹽館村鹽館2-6號","TEL":"05-2535621","COUNTYNAME":"嘉義縣","TOWNNAME":"中埔鄉","MARKTYPE":"996","Class":"6"},"geometry":{"x":203157.81840000022,"y":2591904.9969999995}},{"attributes":{"OBJECTID":26591,"LANDMARKID":"1001000000920","LANDMARKCO":"604","LANDMARKNA":"鹽水溪民宿","LANDMARKAD":"1001013","ADDRESS":"嘉義縣中埔鄉中崙村中崙31號","TEL":"05-2537233","COUNTYNAME":"嘉義縣","TOWNNAME":"中埔鄉","MARKTYPE":"996","Class":"6"},"geometry":{"x":205046.26099999994,"y":2586736.1418999992}},{"attributes":{"OBJECTID":26592,"LANDMARKID":"1001000000838","LANDMARKCO":"603","LANDMARKNA":"舒美商務汽車賓館","LANDMARKAD":"1001013","ADDRESS":"嘉義縣中埔鄉和睦村中華路178號","TEL":"05-2399723","COUNTYNAME":"嘉義縣","TOWNNAME":"中埔鄉","MARKTYPE":"996","Class":"6"},"geometry":{"x":193890.53880000021,"y":2592373.7455000002}},{"attributes":{"OBJECTID":26593,"LANDMARKID":"1001000000790","LANDMARKCO":"503","LANDMARKNA":"情人瀑布","LANDMARKAD":"1001013","ADDRESS":"嘉義縣中埔鄉","TEL":" ","COUNTYNAME":"嘉義縣","TOWNNAME":"中埔鄉","MARKTYPE":"995","Class":"5"},"geometry":{"x":205268.83789999969,"y":2590272.6534000002}},{"attributes":{"OBJECTID":26594,"LANDMARKID":"1001000000791","LANDMARKCO":"503","LANDMARKNA":"兄弟瀑布","LANDMARKAD":"1001013","ADDRESS":"嘉義縣中埔鄉","TEL":" ","COUNTYNAME":"嘉義縣","TOWNNAME":"中埔鄉","MARKTYPE":"995","Class":"5"},"geometry":{"x":206708.17030000035,"y":2588854.1678999998}},{"attributes":{"OBJECTID":26595,"LANDMARKID":"1001000000792","LANDMARKCO":"503","LANDMARKNA":"中崙風景特定區","LANDMARKAD":"1001013","ADDRESS":"嘉義縣中埔鄉","TEL":" ","COUNTYNAME":"嘉義縣","TOWNNAME":"中埔鄉","MARKTYPE":"995","Class":"5"},"geometry":{"x":205017.85670000035,"y":2585555.8806999996}},{"attributes":{"OBJECTID":26596,"LANDMARKID":"1001000000804","LANDMARKCO":"505","LANDMARKNA":"吳鳳廟(阿里山忠王祠)","LANDMARKAD":"1001013","ADDRESS":" ","TEL":" ","COUNTYNAME":"嘉義縣","TOWNNAME":"中埔鄉","MARKTYPE":"995","Class":"5"},"geometry":{"x":203128.12569999974,"y":2593741.5930000003}},{"attributes":{"OBJECTID":26597,"LANDMARKID":"1001000000821","LANDMARKCO":"508","LANDMARKNA":"中崙澐水溪溫泉","LANDMARKAD":"1001013","ADDRESS":"嘉義縣中埔鄉中崙村19之1號","TEL":" ","COUNTYNAME":"嘉義縣","TOWNNAME":"中埔鄉","MARKTYPE":"995","Class":"5"},"geometry":{"x":205245.40330000035,"y":2585767.9152000006}},{"attributes":{"OBJECTID":26598,"LANDMARKID":"1001000000683","LANDMARKCO":"405","LANDMARKNA":"中油加油站-育興站","LANDMARKAD":"1001003","ADDRESS":"嘉義縣布袋鎮復興里新塭1-5號","TEL":"05-3432173","COUNTYNAME":"嘉義縣","TOWNNAME":"布袋鎮","MARKTYPE":"994","Class":"4"},"geometry":{"x":163677.61679999996,"y":2579889.9805999994}},{"attributes":{"OBJECTID":26599,"LANDMARKID":"1001000000684","LANDMARKCO":"405","LANDMARKNA":"中油加油站-布袋站(中油直營)","LANDMARKAD":"1001003","ADDRESS":"嘉義縣布袋鎮興中里福德路１號","TEL":"05-3471410","COUNTYNAME":"嘉義縣","TOWNNAME":"布袋鎮","MARKTYPE":"994","Class":"4"},"geometry":{"x":163860.22020000033,"y":2586553.2827000003}},{"attributes":{"OBJECTID":26600,"LANDMARKID":"1001000000743","LANDMARKCO":"408","LANDMARKNA":"郵局-布袋郵局","LANDMARKAD":"1001003","ADDRESS":"嘉義縣布袋鎮九龍里入船路2號","TEL":"(05)3472-050","COUNTYNAME":"嘉義縣","TOWNNAME":"布袋鎮","MARKTYPE":"994","Class":"4"},"geometry":{"x":163923.92150000017,"y":2586382.4631999992}}]}