{"displayFieldName":"COUNTYNAME","fieldAliases":{"OBJECTID":"OBJECTID","LANDMARKID":"LANDMARKID","LANDMARKCO":"LANDMARKCO","LANDMARKNA":"LANDMARKNA","LANDMARKAD":"LANDMARKAD","ADDRESS":"ADDRESS","TEL":"TEL","COUNTYNAME":"COUNTYNAME","TOWNNAME":"TOWNNAME","MARKTYPE":"MARKTYPE","Class":"Class"},"geometryType":"esriGeometryPoint","spatialReference":{"wkid":4326},"fields":[{"name":"OBJECTID","type":"esriFieldTypeOID","alias":"OBJECTID"},{"name":"LANDMARKID","type":"esriFieldTypeString","alias":"LANDMARKID","length":15},{"name":"LANDMARKCO","type":"esriFieldTypeString","alias":"LANDMARKCO","length":15},{"name":"LANDMARKNA","type":"esriFieldTypeString","alias":"LANDMARKNA","length":50},{"name":"LANDMARKAD","type":"esriFieldTypeString","alias":"LANDMARKAD","length":15},{"name":"ADDRESS","type":"esriFieldTypeString","alias":"ADDRESS","length":56},{"name":"TEL","type":"esriFieldTypeString","alias":"TEL","length":36},{"name":"COUNTYNAME","type":"esriFieldTypeString","alias":"COUNTYNAME","length":15},{"name":"TOWNNAME","type":"esriFieldTypeString","alias":"TOWNNAME","length":13},{"name":"MARKTYPE","type":"esriFieldTypeString","alias":"MARKTYPE","length":12},{"name":"Class","type":"esriFieldTypeString","alias":"Class","length":5}],"features":[{"attributes":{"OBJECTID":16801,"LANDMARKID":"1000800001054","LANDMARKCO":"604","LANDMARKNA":"青蛙ㄚ婆ㄟ家","LANDMARKAD":"1000802","ADDRESS":"南投縣埔里鎮桃米里桃米巷11-3號","TEL":"0932-670110","COUNTYNAME":"南投縣","TOWNNAME":"埔里鎮","MARKTYPE":"996","Class":"6"},"geometry":{"x":120.93738757167942,"y":23.943271718869688}},{"attributes":{"OBJECTID":16802,"LANDMARKID":"1000800001055","LANDMARKCO":"604","LANDMARKNA":"星光月語","LANDMARKAD":"1000802","ADDRESS":"南投縣埔里鎮桃米里桃米巷1-7號","TEL":"0912-380288","COUNTYNAME":"南投縣","TOWNNAME":"埔里鎮","MARKTYPE":"996","Class":"6"},"geometry":{"x":120.94474857029567,"y":23.937738953993591}},{"attributes":{"OBJECTID":16803,"LANDMARKID":"1000800001056","LANDMARKCO":"604","LANDMARKNA":"慧來農莊","LANDMARKAD":"1000802","ADDRESS":"南投縣埔里鎮桃米里桃米巷2-1號","TEL":"049-2918778","COUNTYNAME":"南投縣","TOWNNAME":"埔里鎮","MARKTYPE":"996","Class":"6"},"geometry":{"x":120.94202708397731,"y":23.939327195311737}},{"attributes":{"OBJECTID":16804,"LANDMARKID":"1000800001057","LANDMARKCO":"604","LANDMARKNA":"松峰民宿","LANDMARKAD":"1000802","ADDRESS":"南投縣埔里鎮桃米里桃米巷53-7號","TEL":"049-2912314","COUNTYNAME":"南投縣","TOWNNAME":"埔里鎮","MARKTYPE":"996","Class":"6"},"geometry":{"x":120.92799605545862,"y":23.942517720045959}},{"attributes":{"OBJECTID":16805,"LANDMARKID":"1000800001058","LANDMARKCO":"604","LANDMARKNA":"三茅屋民宿","LANDMARKAD":"1000802","ADDRESS":"南投縣埔里鎮桃米里桃米巷5-6號","TEL":"049-2912146","COUNTYNAME":"南投縣","TOWNNAME":"埔里鎮","MARKTYPE":"996","Class":"6"},"geometry":{"x":120.94116254970756,"y":23.939327617906258}},{"attributes":{"OBJECTID":16806,"LANDMARKID":"1000800001059","LANDMARKCO":"604","LANDMARKNA":"智佳緣","LANDMARKAD":"1000802","ADDRESS":"南投縣埔里鎮桃米里桃米巷6-1號","TEL":"0920-055099","COUNTYNAME":"南投縣","TOWNNAME":"埔里鎮","MARKTYPE":"996","Class":"6"},"geometry":{"x":120.9416539970052,"y":23.939066133401774}},{"attributes":{"OBJECTID":16807,"LANDMARKID":"1000800001060","LANDMARKCO":"604","LANDMARKNA":"歐香渡假民宿","LANDMARKAD":"1000802","ADDRESS":"南投縣埔里鎮桃米里桃米巷6-6號","TEL":"0910-998759","COUNTYNAME":"南投縣","TOWNNAME":"埔里鎮","MARKTYPE":"996","Class":"6"},"geometry":{"x":120.94183972714427,"y":23.94010360362596}},{"attributes":{"OBJECTID":16808,"LANDMARKID":"1000800001061","LANDMARKCO":"604","LANDMARKNA":"稻湘村渡假民宿","LANDMARKAD":"1000802","ADDRESS":"南投縣埔里鎮桃米里桃米巷9-3號","TEL":"0911-813597","COUNTYNAME":"南投縣","TOWNNAME":"埔里鎮","MARKTYPE":"996","Class":"6"},"geometry":{"x":120.93978623425411,"y":23.940319812909252}},{"attributes":{"OBJECTID":16809,"LANDMARKID":"1000800001062","LANDMARKCO":"604","LANDMARKNA":"禾題渡假民宿","LANDMARKAD":"1000802","ADDRESS":"南投縣埔里鎮桃米里桃米路13號","TEL":"0936-423567","COUNTYNAME":"南投縣","TOWNNAME":"埔里鎮","MARKTYPE":"996","Class":"6"},"geometry":{"x":120.93835906741535,"y":23.94586401124635}},{"attributes":{"OBJECTID":16810,"LANDMARKID":"1000800001063","LANDMARKCO":"604","LANDMARKNA":"石上清泉","LANDMARKAD":"1000802","ADDRESS":"南投縣埔里鎮桃米里桃米路39號","TEL":"049-2913475","COUNTYNAME":"南投縣","TOWNNAME":"埔里鎮","MARKTYPE":"996","Class":"6"},"geometry":{"x":120.92654401199925,"y":23.939375360698357}},{"attributes":{"OBJECTID":16811,"LANDMARKID":"1000800001064","LANDMARKCO":"604","LANDMARKNA":"豪舖雅宿","LANDMARKAD":"1000802","ADDRESS":"南投縣埔里鎮桃米里桃南路10巷9號","TEL":"049-2914448","COUNTYNAME":"南投縣","TOWNNAME":"埔里鎮","MARKTYPE":"996","Class":"6"},"geometry":{"x":120.94511084383504,"y":23.963293077250022}},{"attributes":{"OBJECTID":16812,"LANDMARKID":"1000800001065","LANDMARKCO":"604","LANDMARKNA":"蛙蛙谷民宿","LANDMARKAD":"1000802","ADDRESS":"南投縣埔里鎮桃米里種瓜路40號","TEL":"049-2994708","COUNTYNAME":"南投縣","TOWNNAME":"埔里鎮","MARKTYPE":"996","Class":"6"},"geometry":{"x":120.91550329292025,"y":23.951135451509394}},{"attributes":{"OBJECTID":16813,"LANDMARKID":"1000800001066","LANDMARKCO":"604","LANDMARKNA":"紅瓦厝山居民宿","LANDMARKAD":"1000802","ADDRESS":"南投縣埔里鎮桃米里種瓜路52號","TEL":"049-2911683","COUNTYNAME":"南投縣","TOWNNAME":"埔里鎮","MARKTYPE":"996","Class":"6"},"geometry":{"x":120.90511972869507,"y":23.947220125600452}},{"attributes":{"OBJECTID":16814,"LANDMARKID":"1000800001067","LANDMARKCO":"604","LANDMARKNA":"綠屋民宿","LANDMARKAD":"1000802","ADDRESS":"南投縣埔里鎮桃米里種瓜路6號","TEL":"049-2916829","COUNTYNAME":"南投縣","TOWNNAME":"埔里鎮","MARKTYPE":"996","Class":"6"},"geometry":{"x":120.92130424629114,"y":23.943598856663058}},{"attributes":{"OBJECTID":16815,"LANDMARKID":"1000800001068","LANDMARKCO":"604","LANDMARKNA":"誠欣居民宿","LANDMARKAD":"1000802","ADDRESS":"南投縣埔里鎮珠格里珠生路36-1號","TEL":"049-2998221","COUNTYNAME":"南投縣","TOWNNAME":"埔里鎮","MARKTYPE":"996","Class":"6"},"geometry":{"x":120.95897407479616,"y":23.937689295671959}},{"attributes":{"OBJECTID":16816,"LANDMARKID":"1000800001069","LANDMARKCO":"604","LANDMARKNA":"溫欣園","LANDMARKAD":"1000802","ADDRESS":"南投縣埔里鎮愛蘭里梅村路21-1號","TEL":"049-2914658","COUNTYNAME":"南投縣","TOWNNAME":"埔里鎮","MARKTYPE":"996","Class":"6"},"geometry":{"x":120.94599283566004,"y":23.968910124225317}},{"attributes":{"OBJECTID":16817,"LANDMARKID":"1000800001070","LANDMARKCO":"604","LANDMARKNA":"埔里花園民宿","LANDMARKAD":"1000802","ADDRESS":"南投縣埔里鎮蜈蚣里中山路一段148-7號","TEL":"049-2998248","COUNTYNAME":"南投縣","TOWNNAME":"埔里鎮","MARKTYPE":"996","Class":"6"},"geometry":{"x":121.01387668995494,"y":23.984178254018364}},{"attributes":{"OBJECTID":16818,"LANDMARKID":"1000800001071","LANDMARKCO":"604","LANDMARKNA":"台一花卉驛棧","LANDMARKAD":"1000802","ADDRESS":"南投縣埔里鎮蜈蚣里中山路一段179號","TEL":"049-2901346","COUNTYNAME":"南投縣","TOWNNAME":"埔里鎮","MARKTYPE":"996","Class":"6"},"geometry":{"x":121.00437310481803,"y":23.978228500447567}},{"attributes":{"OBJECTID":16819,"LANDMARKID":"1000800001072","LANDMARKCO":"604","LANDMARKNA":"錦吉昆蟲館","LANDMARKAD":"1000802","ADDRESS":"南投縣埔里鎮蜈蚣里中山路一段21號","TEL":"049-2920029","COUNTYNAME":"南投縣","TOWNNAME":"埔里鎮","MARKTYPE":"996","Class":"6"},"geometry":{"x":121.04223401891667,"y":23.997961318144512}},{"attributes":{"OBJECTID":16820,"LANDMARKID":"1000800001073","LANDMARKCO":"604","LANDMARKNA":"埔里嵐山民宿","LANDMARKAD":"1000802","ADDRESS":"南投縣埔里鎮蜈蚣里蜈蚣路26-6號","TEL":"049-2981011","COUNTYNAME":"南投縣","TOWNNAME":"埔里鎮","MARKTYPE":"996","Class":"6"},"geometry":{"x":120.99121442021722,"y":23.977280391503175}},{"attributes":{"OBJECTID":16821,"LANDMARKID":"1000800001074","LANDMARKCO":"604","LANDMARKNA":"湖濱小棧","LANDMARKAD":"1000802","ADDRESS":"南投縣埔里鎮蜈蚣里鯉魚二巷18號","TEL":"049-2980980","COUNTYNAME":"南投縣","TOWNNAME":"埔里鎮","MARKTYPE":"996","Class":"6"},"geometry":{"x":120.99664926203683,"y":23.963356855283585}},{"attributes":{"OBJECTID":16822,"LANDMARKID":"1000800001075","LANDMARKCO":"604","LANDMARKNA":"七里山瑭","LANDMARKAD":"1000802","ADDRESS":"南投縣埔里鎮蜈蚣里鯉魚路23-1號","TEL":"049-2980767","COUNTYNAME":"南投縣","TOWNNAME":"埔里鎮","MARKTYPE":"996","Class":"6"},"geometry":{"x":121.00167043314238,"y":23.962462877956259}},{"attributes":{"OBJECTID":16823,"LANDMARKID":"1000800001076","LANDMARKCO":"604","LANDMARKNA":"埔里山水雅築","LANDMARKAD":"1000802","ADDRESS":"南投縣埔里鎮蜈蚣里鯉魚二巷16號","TEL":"049-2980742","COUNTYNAME":"南投縣","TOWNNAME":"埔里鎮","MARKTYPE":"996","Class":"6"},"geometry":{"x":120.99679664622421,"y":23.96353745356442}},{"attributes":{"OBJECTID":16824,"LANDMARKID":"1000800001077","LANDMARKCO":"604","LANDMARKNA":"花香鳥語民宿","LANDMARKAD":"1000802","ADDRESS":"南投縣埔里鎮廣成里西安路3段5號","TEL":"0927-279771","COUNTYNAME":"南投縣","TOWNNAME":"埔里鎮","MARKTYPE":"996","Class":"6"},"geometry":{"x":120.95183041200232,"y":24.020958611885092}},{"attributes":{"OBJECTID":16825,"LANDMARKID":"1000800001078","LANDMARKCO":"604","LANDMARKNA":"老師的家民宿","LANDMARKAD":"1000802","ADDRESS":"南投縣埔里鎮廣成里西安路3段2巷18號","TEL":"0972-072752","COUNTYNAME":"南投縣","TOWNNAME":"埔里鎮","MARKTYPE":"996","Class":"6"},"geometry":{"x":120.95424013110906,"y":24.01781692314599}},{"attributes":{"OBJECTID":16826,"LANDMARKID":"1000800001079","LANDMARKCO":"604","LANDMARKNA":"成龍山莊","LANDMARKAD":"1000802","ADDRESS":"南投縣埔里鎮廣成里覆金路20-1號","TEL":"049-2932644","COUNTYNAME":"南投縣","TOWNNAME":"埔里鎮","MARKTYPE":"996","Class":"6"},"geometry":{"x":120.95422502527255,"y":24.032210012756444}},{"attributes":{"OBJECTID":16827,"LANDMARKID":"1000800001080","LANDMARKCO":"604","LANDMARKNA":"微風川岳民宿","LANDMARKAD":"1000802","ADDRESS":"南投縣埔里鎮廣成里覆金路27-8號","TEL":"0937-758756","COUNTYNAME":"南投縣","TOWNNAME":"埔里鎮","MARKTYPE":"996","Class":"6"},"geometry":{"x":120.9476876841448,"y":24.031548483506675}},{"attributes":{"OBJECTID":16828,"LANDMARKID":"1000800001081","LANDMARKCO":"604","LANDMARKNA":"涵翠園民宿","LANDMARKAD":"1000802","ADDRESS":"南投縣埔里鎮大城里中正路819巷72號","TEL":"049-2911517","COUNTYNAME":"南投縣","TOWNNAME":"埔里鎮","MARKTYPE":"996","Class":"6"},"geometry":{"x":120.95949326459137,"y":23.975252824860416}},{"attributes":{"OBJECTID":16829,"LANDMARKID":"1000800001082","LANDMARKCO":"604","LANDMARKNA":"椿莊民宿","LANDMARKAD":"1000802","ADDRESS":"南投縣埔里鎮中山路一段216-6號","TEL":"049-2914685","COUNTYNAME":"南投縣","TOWNNAME":"埔里鎮","MARKTYPE":"996","Class":"6"},"geometry":{"x":120.98638932687464,"y":23.976828432706618}},{"attributes":{"OBJECTID":16830,"LANDMARKID":"1000800001083","LANDMARKCO":"604","LANDMARKNA":"綠湖別莊民宿","LANDMARKAD":"1000802","ADDRESS":"南投縣埔里鎮水頭里中正路121-10號","TEL":"049-2926970","COUNTYNAME":"南投縣","TOWNNAME":"埔里鎮","MARKTYPE":"996","Class":"6"},"geometry":{"x":120.98045876285018,"y":23.944745877264396}},{"attributes":{"OBJECTID":16831,"LANDMARKID":"1000800001084","LANDMARKCO":"604","LANDMARKNA":"埔里農莊民宿","LANDMARKAD":"1000802","ADDRESS":"南投縣埔里鎮水頭里中正路126-1號","TEL":"049-2904101","COUNTYNAME":"南投縣","TOWNNAME":"埔里鎮","MARKTYPE":"996","Class":"6"},"geometry":{"x":120.97651916296776,"y":23.94451043022244}},{"attributes":{"OBJECTID":16832,"LANDMARKID":"1000800001085","LANDMARKCO":"604","LANDMARKNA":"思源居民宿","LANDMARKAD":"1000802","ADDRESS":"南投縣埔里鎮水頭里水頭路1號","TEL":"049-2927101","COUNTYNAME":"南投縣","TOWNNAME":"埔里鎮","MARKTYPE":"996","Class":"6"},"geometry":{"x":120.97041001254331,"y":23.935091401125714}},{"attributes":{"OBJECTID":16833,"LANDMARKID":"1000800001086","LANDMARKCO":"604","LANDMARKNA":"怡園休閒民宿","LANDMARKAD":"1000802","ADDRESS":"南投縣埔里鎮水頭里水頭路27號","TEL":"049-2925959","COUNTYNAME":"南投縣","TOWNNAME":"埔里鎮","MARKTYPE":"996","Class":"6"},"geometry":{"x":120.97408329797331,"y":23.940130746255171}},{"attributes":{"OBJECTID":16834,"LANDMARKID":"1000800001087","LANDMARKCO":"604","LANDMARKNA":"小城故事民宿","LANDMARKAD":"1000802","ADDRESS":"南投縣埔里鎮水頭里水頭路28-6號","TEL":"049-2906623","COUNTYNAME":"南投縣","TOWNNAME":"埔里鎮","MARKTYPE":"996","Class":"6"},"geometry":{"x":120.97172505342149,"y":23.94242397161965}},{"attributes":{"OBJECTID":16835,"LANDMARKID":"1000800001088","LANDMARKCO":"604","LANDMARKNA":"水田衣藝術家民宿","LANDMARKAD":"1000802","ADDRESS":"南投縣埔里鎮水頭里水頭路77號","TEL":"049-2982022","COUNTYNAME":"南投縣","TOWNNAME":"埔里鎮","MARKTYPE":"996","Class":"6"},"geometry":{"x":120.97412976958869,"y":23.953720369659248}},{"attributes":{"OBJECTID":16836,"LANDMARKID":"1000800001089","LANDMARKCO":"604","LANDMARKNA":"傳尋善宿民宿","LANDMARKAD":"1000802","ADDRESS":"南投縣埔里鎮水頭里東潤路24-11號","TEL":"049-2925368","COUNTYNAME":"南投縣","TOWNNAME":"埔里鎮","MARKTYPE":"996","Class":"6"},"geometry":{"x":120.99592295108377,"y":23.937676534400389}},{"attributes":{"OBJECTID":16837,"LANDMARKID":"1000800001090","LANDMARKCO":"604","LANDMARKNA":"戲綠川","LANDMARKAD":"1000802","ADDRESS":"南投縣埔里鎮水頭里南環路389號","TEL":"049-2982445","COUNTYNAME":"南投縣","TOWNNAME":"埔里鎮","MARKTYPE":"996","Class":"6"},"geometry":{"x":120.96205526613858,"y":23.950810222257207}},{"attributes":{"OBJECTID":16838,"LANDMARKID":"1000800001091","LANDMARKCO":"604","LANDMARKNA":"水鄉民宿","LANDMARKAD":"1000802","ADDRESS":"南投縣埔里鎮牛眠里內埔路15-5號","TEL":"049-2993089","COUNTYNAME":"南投縣","TOWNNAME":"埔里鎮","MARKTYPE":"996","Class":"6"},"geometry":{"x":120.99798533884533,"y":23.983736655607178}},{"attributes":{"OBJECTID":16839,"LANDMARKID":"1000800001092","LANDMARKCO":"604","LANDMARKNA":"悠然居民宿","LANDMARKAD":"1000802","ADDRESS":"南投縣埔里鎮牛眠里內埔路15-7號","TEL":"049-2993089","COUNTYNAME":"南投縣","TOWNNAME":"埔里鎮","MARKTYPE":"996","Class":"6"},"geometry":{"x":120.99746445832488,"y":23.982770473673956}},{"attributes":{"OBJECTID":16840,"LANDMARKID":"1000800001093","LANDMARKCO":"604","LANDMARKNA":"如心園民宿","LANDMARKAD":"1000802","ADDRESS":"南投縣埔里鎮牛眠里牛尾路1-17號","TEL":"049-2930850","COUNTYNAME":"南投縣","TOWNNAME":"埔里鎮","MARKTYPE":"996","Class":"6"},"geometry":{"x":120.98657372583672,"y":24.000504054912632}},{"attributes":{"OBJECTID":16841,"LANDMARKID":"1000800001094","LANDMARKCO":"604","LANDMARKNA":"眉溪曉莊","LANDMARKAD":"1000802","ADDRESS":"南投縣埔里鎮牛眠里守城路2-5號","TEL":"049-2993038","COUNTYNAME":"南投縣","TOWNNAME":"埔里鎮","MARKTYPE":"996","Class":"6"},"geometry":{"x":120.98949407938514,"y":23.984955335351117}},{"attributes":{"OBJECTID":16842,"LANDMARKID":"1000800001095","LANDMARKCO":"604","LANDMARKNA":"上林園生態民宿","LANDMARKAD":"1000802","ADDRESS":"南投縣埔里鎮向善里向善路1巷33號","TEL":"049-2912143","COUNTYNAME":"南投縣","TOWNNAME":"埔里鎮","MARKTYPE":"996","Class":"6"},"geometry":{"x":120.93062172777078,"y":23.991305853809251}},{"attributes":{"OBJECTID":16843,"LANDMARKID":"1000800001096","LANDMARKCO":"604","LANDMARKNA":"提摩太山莊","LANDMARKAD":"1000802","ADDRESS":"南投縣埔里鎮向善里向善路161-1號","TEL":"049-2911003","COUNTYNAME":"南投縣","TOWNNAME":"埔里鎮","MARKTYPE":"996","Class":"6"},"geometry":{"x":120.91758289745879,"y":24.001927678491057}},{"attributes":{"OBJECTID":16844,"LANDMARKID":"1000800001097","LANDMARKCO":"604","LANDMARKNA":"龍山泉休閒民宿","LANDMARKAD":"1000802","ADDRESS":"南投縣埔里鎮一新里東峰路7-12號","TEL":"049-2930345","COUNTYNAME":"南投縣","TOWNNAME":"埔里鎮","MARKTYPE":"996","Class":"6"},"geometry":{"x":120.94032502743791,"y":24.007337969401533}},{"attributes":{"OBJECTID":16845,"LANDMARKID":"1000800001098","LANDMARKCO":"604","LANDMARKNA":"水月山莊","LANDMARKAD":"1000802","ADDRESS":"南投縣埔里鎮南村里桃南路5號","TEL":"0912-651789","COUNTYNAME":"南投縣","TOWNNAME":"埔里鎮","MARKTYPE":"996","Class":"6"},"geometry":{"x":120.94625163403303,"y":23.962147122858077}},{"attributes":{"OBJECTID":16846,"LANDMARKID":"1000800001099","LANDMARKCO":"604","LANDMARKNA":"鯉魚潭天泉民宿","LANDMARKAD":"1000802","ADDRESS":"南投縣埔里鎮蜈蚣里鯉魚路37-2號","TEL":"049-2903411","COUNTYNAME":"南投縣","TOWNNAME":"埔里鎮","MARKTYPE":"996","Class":"6"},"geometry":{"x":120.99962661716887,"y":23.958291233293458}},{"attributes":{"OBJECTID":16847,"LANDMARKID":"1000800001100","LANDMARKCO":"604","LANDMARKNA":"松景農莊","LANDMARKAD":"1000802","ADDRESS":"南投縣埔里鎮大湳里大湳路111號","TEL":"049-2422733","COUNTYNAME":"南投縣","TOWNNAME":"埔里鎮","MARKTYPE":"996","Class":"6"},"geometry":{"x":120.97764216895615,"y":23.98235390761182}},{"attributes":{"OBJECTID":16848,"LANDMARKID":"1000800001101","LANDMARKCO":"604","LANDMARKNA":"若瑟桃米民宿","LANDMARKAD":"1000802","ADDRESS":"南投縣埔里鎮桃米里桃米巷59號","TEL":"049-2915133","COUNTYNAME":"南投縣","TOWNNAME":"埔里鎮","MARKTYPE":"996","Class":"6"},"geometry":{"x":120.92679664947653,"y":23.943240289208081}},{"attributes":{"OBJECTID":16849,"LANDMARKID":"1000800001102","LANDMARKCO":"604","LANDMARKNA":"彩荷園","LANDMARKAD":"1000802","ADDRESS":"南投縣埔里鎮蜈蚣里鯉魚路30-2號","TEL":"049-2997788","COUNTYNAME":"南投縣","TOWNNAME":"埔里鎮","MARKTYPE":"996","Class":"6"},"geometry":{"x":121.0007271219628,"y":23.960349960601452}},{"attributes":{"OBJECTID":16850,"LANDMARKID":"1000800001103","LANDMARKCO":"604","LANDMARKNA":"八方休閒山莊民宿","LANDMARKAD":"1000802","ADDRESS":"南投縣埔里鎮廣成里西安路3段40-1號","TEL":"049-2933982","COUNTYNAME":"南投縣","TOWNNAME":"埔里鎮","MARKTYPE":"996","Class":"6"},"geometry":{"x":120.94939205092776,"y":24.02284514823733}},{"attributes":{"OBJECTID":16851,"LANDMARKID":"1000800001104","LANDMARKCO":"604","LANDMARKNA":"禾風鄉村民宿","LANDMARKAD":"1000802","ADDRESS":"南投縣埔里鎮珠格里珠生路6-6號","TEL":"0931-509189","COUNTYNAME":"南投縣","TOWNNAME":"埔里鎮","MARKTYPE":"996","Class":"6"},"geometry":{"x":120.96400408759416,"y":23.937663323085573}},{"attributes":{"OBJECTID":16852,"LANDMARKID":"1000800001105","LANDMARKCO":"604","LANDMARKNA":"埔里花開了民宿","LANDMARKAD":"1000802","ADDRESS":"南投縣埔里鎮水頭里水頭路22-1號","TEL":"049-2926306","COUNTYNAME":"南投縣","TOWNNAME":"埔里鎮","MARKTYPE":"996","Class":"6"},"geometry":{"x":120.97264900794386,"y":23.939967715611068}},{"attributes":{"OBJECTID":16853,"LANDMARKID":"1000800001106","LANDMARKCO":"604","LANDMARKNA":"綠莊飛閣渡假會館","LANDMARKAD":"1000802","ADDRESS":"南投縣埔里鎮水頭里東潤路52-6號","TEL":"049-2927859","COUNTYNAME":"南投縣","TOWNNAME":"埔里鎮","MARKTYPE":"996","Class":"6"},"geometry":{"x":120.98709076626949,"y":23.940150209071987}},{"attributes":{"OBJECTID":16854,"LANDMARKID":"1000800001107","LANDMARKCO":"604","LANDMARKNA":"臨流小品民宿","LANDMARKAD":"1000802","ADDRESS":"南投縣埔里鎮水頭里水頭路24-9號","TEL":"049-2926539","COUNTYNAME":"南投縣","TOWNNAME":"埔里鎮","MARKTYPE":"996","Class":"6"},"geometry":{"x":120.9741424277575,"y":23.939670254085609}},{"attributes":{"OBJECTID":16855,"LANDMARKID":"1000800001108","LANDMARKCO":"604","LANDMARKNA":"巧克拉提民宿","LANDMARKAD":"1000802","ADDRESS":"南投縣埔里鎮大城里大同街6號","TEL":"049-2916589","COUNTYNAME":"南投縣","TOWNNAME":"埔里鎮","MARKTYPE":"996","Class":"6"},"geometry":{"x":120.95692877300941,"y":23.971956400074276}},{"attributes":{"OBJECTID":16856,"LANDMARKID":"1000800001109","LANDMARKCO":"604","LANDMARKNA":"晨曦綠邑","LANDMARKAD":"1000802","ADDRESS":"南投縣埔里鎮水頭里東潤路62之38號","TEL":"049-2925355","COUNTYNAME":"南投縣","TOWNNAME":"埔里鎮","MARKTYPE":"996","Class":"6"},"geometry":{"x":120.98470298038778,"y":23.944890610735396}},{"attributes":{"OBJECTID":16857,"LANDMARKID":"1000800001110","LANDMARKCO":"604","LANDMARKNA":"埔麗登","LANDMARKAD":"1000802","ADDRESS":"南投縣埔里鎮水頭里東潤路62之39號","TEL":"049-2925355","COUNTYNAME":"南投縣","TOWNNAME":"埔里鎮","MARKTYPE":"996","Class":"6"},"geometry":{"x":120.98464403869177,"y":23.944863509604648}},{"attributes":{"OBJECTID":16858,"LANDMARKID":"1000800001111","LANDMARKCO":"604","LANDMARKNA":"日光別苑","LANDMARKAD":"1000802","ADDRESS":"南投縣埔里鎮水頭里東潤路62之40號","TEL":"049-2925411","COUNTYNAME":"南投縣","TOWNNAME":"埔里鎮","MARKTYPE":"996","Class":"6"},"geometry":{"x":120.98458509702031,"y":23.944836409354188}},{"attributes":{"OBJECTID":16859,"LANDMARKID":"1000800001112","LANDMARKCO":"604","LANDMARKNA":"幸福小棧","LANDMARKAD":"1000802","ADDRESS":"南投縣埔里鎮水頭里東潤路62之41號","TEL":"049-2925411","COUNTYNAME":"南投縣","TOWNNAME":"埔里鎮","MARKTYPE":"996","Class":"6"},"geometry":{"x":120.98452615331425,"y":23.944818337820816}},{"attributes":{"OBJECTID":16860,"LANDMARKID":"1000800001113","LANDMARKCO":"604","LANDMARKNA":"紫櫻民宿","LANDMARKAD":"1000802","ADDRESS":"南投縣埔里鎮水頭里東潤路62之42號","TEL":"049-2925411","COUNTYNAME":"南投縣","TOWNNAME":"埔里鎮","MARKTYPE":"996","Class":"6"},"geometry":{"x":120.98443773158945,"y":23.944818319858108}},{"attributes":{"OBJECTID":16861,"LANDMARKID":"1000800001114","LANDMARKCO":"604","LANDMARKNA":"埔中城","LANDMARKAD":"1000802","ADDRESS":"南投縣埔里鎮溪南里新生路148-5號","TEL":"049-2422777","COUNTYNAME":"南投縣","TOWNNAME":"埔里鎮","MARKTYPE":"996","Class":"6"},"geometry":{"x":120.95981379824816,"y":23.955739989938579}},{"attributes":{"OBJECTID":16862,"LANDMARKID":"1000800000923","LANDMARKCO":"511","LANDMARKNA":"埔里夜市","LANDMARKAD":"1000802","ADDRESS":"南投縣埔里鎮","TEL":" ","COUNTYNAME":"南投縣","TOWNNAME":"埔里鎮","MARKTYPE":"995","Class":"5"},"geometry":{"x":120.96392261990445,"y":23.967773616505919}},{"attributes":{"OBJECTID":16863,"LANDMARKID":"1000800000924","LANDMARKCO":"511","LANDMARKNA":"埔里八德夜市","LANDMARKAD":"1000802","ADDRESS":"南投縣埔里鎮","TEL":" ","COUNTYNAME":"南投縣","TOWNNAME":"埔里鎮","MARKTYPE":"995","Class":"5"},"geometry":{"x":120.96742784265319,"y":23.971567456355068}},{"attributes":{"OBJECTID":16864,"LANDMARKID":"1000800000838","LANDMARKCO":"503","LANDMARKNA":"幽蘭瀑布群","LANDMARKAD":"1000802","ADDRESS":"南投縣埔里鎮","TEL":" ","COUNTYNAME":"南投縣","TOWNNAME":"埔里鎮","MARKTYPE":"995","Class":"5"},"geometry":{"x":121.03762827331096,"y":23.986674806273712}},{"attributes":{"OBJECTID":16865,"LANDMARKID":"1000800000866","LANDMARKCO":"505","LANDMARKNA":"牛耳藝術渡假村","LANDMARKAD":"1000802","ADDRESS":"南投縣埔里鎮中山路四段1之1號","TEL":" ","COUNTYNAME":"南投縣","TOWNNAME":"埔里鎮","MARKTYPE":"995","Class":"5"},"geometry":{"x":120.94400615664236,"y":23.96615552644856}},{"attributes":{"OBJECTID":16866,"LANDMARKID":"1000800000680","LANDMARKCO":"405","LANDMARKNA":"中油加油站-南投三和站(刷卡自助)(中油直營)","LANDMARKAD":"1000801","ADDRESS":"南投縣南投市三和里中興路549號","TEL":"049-2227255","COUNTYNAME":"南投縣","TOWNNAME":"南投市","MARKTYPE":"994","Class":"4"},"geometry":{"x":120.69080435541383,"y":23.906469911901105}},{"attributes":{"OBJECTID":16867,"LANDMARKID":"1000800000681","LANDMARKCO":"405","LANDMARKNA":"中油加油站-南崗工業區站(中油直營)","LANDMARKAD":"1000801","ADDRESS":"南投縣南投市平山里仁和路13號","TEL":"049-2251460","COUNTYNAME":"南投縣","TOWNNAME":"南投市","MARKTYPE":"994","Class":"4"},"geometry":{"x":120.67167350004215,"y":23.922552187064234}},{"attributes":{"OBJECTID":16868,"LANDMARKID":"1000800000682","LANDMARKCO":"405","LANDMARKNA":"中油加油站-南投站(中油直營)","LANDMARKAD":"1000801","ADDRESS":"南投縣南投市三民里彰南路二段71號","TEL":"049-2222650","COUNTYNAME":"南投縣","TOWNNAME":"南投市","MARKTYPE":"994","Class":"4"},"geometry":{"x":120.68388169090734,"y":23.909798854075266}},{"attributes":{"OBJECTID":16869,"LANDMARKID":"1000800000683","LANDMARKCO":"405","LANDMARKNA":"中油加油站-南崗三路站(中油直營)","LANDMARKAD":"1000801","ADDRESS":"南投縣南投市南崗三路278-1號","TEL":"049-2254902","COUNTYNAME":"南投縣","TOWNNAME":"南投市","MARKTYPE":"994","Class":"4"},"geometry":{"x":120.66579417852915,"y":23.936636239766905}},{"attributes":{"OBJECTID":16870,"LANDMARKID":"1000800000684","LANDMARKCO":"405","LANDMARKNA":"台大加油站-南投站(中油)","LANDMARKAD":"1000801","ADDRESS":"南投縣南投市南崗三路16號","TEL":"049-2250179","COUNTYNAME":"南投縣","TOWNNAME":"南投市","MARKTYPE":"994","Class":"4"},"geometry":{"x":120.67156256107182,"y":23.924192879925979}},{"attributes":{"OBJECTID":16871,"LANDMARKID":"1000800000685","LANDMARKCO":"405","LANDMARKNA":"中油加油站-南投民族街站(中油直營)","LANDMARKAD":"1000801","ADDRESS":"南投縣南投市平和里民族街163號","TEL":"049-2222741","COUNTYNAME":"南投縣","TOWNNAME":"南投市","MARKTYPE":"994","Class":"4"},"geometry":{"x":120.6896838381552,"y":23.90955888055494}},{"attributes":{"OBJECTID":16872,"LANDMARKID":"1000800000686","LANDMARKCO":"405","LANDMARKNA":"中油加油站-百鋒站","LANDMARKAD":"1000801","ADDRESS":"南投縣南投市彰南路一段58號","TEL":"049-2200461","COUNTYNAME":"南投縣","TOWNNAME":"南投市","MARKTYPE":"994","Class":"4"},"geometry":{"x":120.69100108914104,"y":23.884852122042631}},{"attributes":{"OBJECTID":16873,"LANDMARKID":"1000800000687","LANDMARKCO":"405","LANDMARKNA":"統一速邁樂加油站-南投加油站(中油)","LANDMARKAD":"1000801","ADDRESS":"南投縣南投市南崗三路83之一號","TEL":" ","COUNTYNAME":"南投縣","TOWNNAME":"南投市","MARKTYPE":"994","Class":"4"},"geometry":{"x":120.66454009344713,"y":23.938624862238399}},{"attributes":{"OBJECTID":16874,"LANDMARKID":"1000800000688","LANDMARKCO":"405","LANDMARKNA":"中油加油站-昱佑站","LANDMARKAD":"1000801","ADDRESS":"南投縣南投市中興路229之35號","TEL":"049-2339697","COUNTYNAME":"南投縣","TOWNNAME":"南投市","MARKTYPE":"994","Class":"4"},"geometry":{"x":120.69251950414861,"y":23.925482546625169}},{"attributes":{"OBJECTID":16875,"LANDMARKID":"1000800000622","LANDMARKCO":"402","LANDMARKNA":"My Phone台灣大哥大-南投復興直營服務中心","LANDMARKAD":"1000801","ADDRESS":"南投市復興路207號","TEL":"0809-000-166","COUNTYNAME":"南投縣","TOWNNAME":"南投市","MARKTYPE":"994","Class":"4"},"geometry":{"x":120.68691121339114,"y":23.907542668436442}},{"attributes":{"OBJECTID":16876,"LANDMARKID":"1000800000623","LANDMARKCO":"402","LANDMARKNA":"亞太行動寬頻電信-南投平和加盟服務中心","LANDMARKAD":"1000801","ADDRESS":"南投縣南投市平和街62巷76之7號","TEL":"049-2200771","COUNTYNAME":"南投縣","TOWNNAME":"南投市","MARKTYPE":"994","Class":"4"},"geometry":{"x":120.69045842758443,"y":23.909413204269914}},{"attributes":{"OBJECTID":16877,"LANDMARKID":"1000800000624","LANDMARKCO":"402","LANDMARKNA":"亞太行動寬頻電信-南投民族加盟服務中心","LANDMARKAD":"1000801","ADDRESS":"南投縣南投市民族路346號","TEL":"049-2208669","COUNTYNAME":"南投縣","TOWNNAME":"南投市","MARKTYPE":"994","Class":"4"},"geometry":{"x":120.68465877398978,"y":23.908121760736638}},{"attributes":{"OBJECTID":16878,"LANDMARKID":"1000800000592","LANDMARKCO":"401","LANDMARKNA":"南基醫院","LANDMARKAD":"1000801","ADDRESS":"南投縣南投市中興路870號","TEL":"049-2225595","COUNTYNAME":"南投縣","TOWNNAME":"南投市","MARKTYPE":"994","Class":"4"},"geometry":{"x":120.68386315222524,"y":23.898832387482866}},{"attributes":{"OBJECTID":16879,"LANDMARKID":"1000800000593","LANDMARKCO":"401","LANDMARKNA":"行政院衛生署南投醫院-南投院區","LANDMARKAD":"1000801","ADDRESS":"南投縣南投市復興路478號","TEL":"049-2231150","COUNTYNAME":"南投縣","TOWNNAME":"南投市","MARKTYPE":"994","Class":"4"},"geometry":{"x":120.68529516176835,"y":23.914092605384397}},{"attributes":{"OBJECTID":16880,"LANDMARKID":"1000800000594","LANDMARKCO":"401","LANDMARKNA":"行政院衛生署南投醫院-中興院區","LANDMARKAD":"1000801","ADDRESS":"南投縣南投市中興新村環山路57號","TEL":"049-2339165","COUNTYNAME":"南投縣","TOWNNAME":"南投市","MARKTYPE":"994","Class":"4"},"geometry":{"x":120.69479880207194,"y":23.952389654953297}},{"attributes":{"OBJECTID":16881,"LANDMARKID":"1000800000891","LANDMARKCO":"507","LANDMARKNA":"藍田書院","LANDMARKAD":"1000801","ADDRESS":"南投縣南投市崇文里文昌街140號","TEL":" ","COUNTYNAME":"南投縣","TOWNNAME":"南投市","MARKTYPE":"995","Class":"5"},"geometry":{"x":120.68487614433003,"y":23.907802924395178}},{"attributes":{"OBJECTID":16882,"LANDMARKID":"1000800000763","LANDMARKCO":"408","LANDMARKNA":"郵局-南投三和郵局","LANDMARKAD":"1000801","ADDRESS":"南投縣南投市三和二路30號","TEL":"(049)2220-162","COUNTYNAME":"南投縣","TOWNNAME":"南投市","MARKTYPE":"994","Class":"4"},"geometry":{"x":120.68846116113501,"y":23.904379850257474}},{"attributes":{"OBJECTID":16883,"LANDMARKID":"1000800000764","LANDMARKCO":"408","LANDMARKNA":"郵局-南投三興郵局","LANDMARKAD":"1000801","ADDRESS":"南投縣南投市南崗一路34號","TEL":"(049)2227-943","COUNTYNAME":"南投縣","TOWNNAME":"南投市","MARKTYPE":"994","Class":"4"},"geometry":{"x":120.68416728690434,"y":23.900788051371972}},{"attributes":{"OBJECTID":16884,"LANDMARKID":"1000800000765","LANDMARKCO":"408","LANDMARKNA":"郵局-南投南崗郵局","LANDMARKAD":"1000801","ADDRESS":"南投縣南投市成功三路136-1號","TEL":"(049)2252-784","COUNTYNAME":"南投縣","TOWNNAME":"南投市","MARKTYPE":"994","Class":"4"},"geometry":{"x":120.66568843554978,"y":23.929938998000711}},{"attributes":{"OBJECTID":16885,"LANDMARKID":"1000800000766","LANDMARKCO":"408","LANDMARKNA":"郵局-南投民族路郵局","LANDMARKAD":"1000801","ADDRESS":"南投縣南投市民族路91號","TEL":"(049)2235-163","COUNTYNAME":"南投縣","TOWNNAME":"南投市","MARKTYPE":"994","Class":"4"},"geometry":{"x":120.69170548620829,"y":23.910236150360642}},{"attributes":{"OBJECTID":16886,"LANDMARKID":"1000800000767","LANDMARKCO":"408","LANDMARKNA":"郵局-南投中山街郵局","LANDMARKAD":"1000801","ADDRESS":"南投縣南投市中山街259號","TEL":"(049)2222-162","COUNTYNAME":"南投縣","TOWNNAME":"南投市","MARKTYPE":"994","Class":"4"},"geometry":{"x":120.68389004414588,"y":23.910782218069077}},{"attributes":{"OBJECTID":16887,"LANDMARKID":"1000800000768","LANDMARKCO":"408","LANDMARKNA":"郵局-南投中興郵局","LANDMARKAD":"1000801","ADDRESS":"南投縣南投市中學路4號","TEL":"(049)2332-852","COUNTYNAME":"南投縣","TOWNNAME":"南投市","MARKTYPE":"994","Class":"4"},"geometry":{"x":120.69449981477393,"y":23.949424183516655}},{"attributes":{"OBJECTID":16888,"LANDMARKID":"1000800000769","LANDMARKCO":"408","LANDMARKNA":"郵局-南投光明里郵局","LANDMARKAD":"1000801","ADDRESS":"南投縣南投市中正路648號","TEL":"(049)2337-516","COUNTYNAME":"南投縣","TOWNNAME":"南投市","MARKTYPE":"994","Class":"4"},"geometry":{"x":120.69717669179367,"y":23.939449482502638}},{"attributes":{"OBJECTID":16889,"LANDMARKID":"1000800000809","LANDMARKCO":"409","LANDMARKNA":"南投縣農會","LANDMARKAD":"1000801","ADDRESS":"南投縣南投市文昌街45號","TEL":"049-2222021","COUNTYNAME":"南投縣","TOWNNAME":"南投市","MARKTYPE":"994","Class":"4"},"geometry":{"x":120.68769508551055,"y":23.907240255711478}},{"attributes":{"OBJECTID":16890,"LANDMARKID":"1000800000810","LANDMARKCO":"409","LANDMARKNA":"南投魚市場","LANDMARKAD":"1000801","ADDRESS":"南投市中興路162號","TEL":"049-331453　","COUNTYNAME":"南投縣","TOWNNAME":"南投市","MARKTYPE":"994","Class":"4"},"geometry":{"x":120.69523192717212,"y":23.937419636340962}},{"attributes":{"OBJECTID":16891,"LANDMARKID":"1000800000811","LANDMARKCO":"409","LANDMARKNA":"南投市農會","LANDMARKAD":"1000801","ADDRESS":"南投市漳仁里龍井街62號","TEL":"049-22233","COUNTYNAME":"南投縣","TOWNNAME":"南投市","MARKTYPE":"994","Class":"4"},"geometry":{"x":120.68696560086119,"y":23.908212813966752}},{"attributes":{"OBJECTID":16892,"LANDMARKID":"1000800000638","LANDMARKCO":"404","LANDMARKNA":"台灣自來水南投營運所","LANDMARKAD":"1000801","ADDRESS":"南投市彰南路一段550號","TEL":"049-2222635","COUNTYNAME":"南投縣","TOWNNAME":"南投市","MARKTYPE":"994","Class":"4"},"geometry":{"x":120.68818108549125,"y":23.895051004680877}},{"attributes":{"OBJECTID":16893,"LANDMARKID":"1000800000639","LANDMARKCO":"404","LANDMARKNA":"台灣省自來水南投營運所","LANDMARKAD":"1000801","ADDRESS":"南投縣南投市公園街87號","TEL":" ","COUNTYNAME":"南投縣","TOWNNAME":"南投市","MARKTYPE":"994","Class":"4"},"geometry":{"x":120.68881956359576,"y":23.90799304731885}},{"attributes":{"OBJECTID":16894,"LANDMARKID":"1000800000640","LANDMARKCO":"404","LANDMARKNA":"台灣省自來水中興營運所","LANDMARKAD":"1000801","ADDRESS":"南投縣南投市中正路200號","TEL":" ","COUNTYNAME":"南投縣","TOWNNAME":"南投市","MARKTYPE":"994","Class":"4"},"geometry":{"x":120.69085366877425,"y":23.948923550598366}},{"attributes":{"OBJECTID":16895,"LANDMARKID":"1000800000733","LANDMARKCO":"406","LANDMARKNA":"光華公園","LANDMARKAD":"1000801","ADDRESS":"南投縣南投市","TEL":" ","COUNTYNAME":"南投縣","TOWNNAME":"南投市","MARKTYPE":"994","Class":"4"},"geometry":{"x":120.69372134627309,"y":23.949193717632628}},{"attributes":{"OBJECTID":16896,"LANDMARKID":"1000800000734","LANDMARKCO":"406","LANDMARKNA":"光輝公園","LANDMARKAD":"1000801","ADDRESS":"南投縣南投市","TEL":" ","COUNTYNAME":"南投縣","TOWNNAME":"南投市","MARKTYPE":"994","Class":"4"},"geometry":{"x":120.68648535276478,"y":23.960135077837435}},{"attributes":{"OBJECTID":16897,"LANDMARKID":"1000800000735","LANDMARKCO":"406","LANDMARKNA":"長春公園","LANDMARKAD":"1000801","ADDRESS":"南投縣南投市","TEL":" ","COUNTYNAME":"南投縣","TOWNNAME":"南投市","MARKTYPE":"994","Class":"4"},"geometry":{"x":120.69918758758642,"y":23.94593229805114}},{"attributes":{"OBJECTID":16898,"LANDMARKID":"1000800000736","LANDMARKCO":"406","LANDMARKNA":"光明公園","LANDMARKAD":"1000801","ADDRESS":"南投縣南投市","TEL":" ","COUNTYNAME":"南投縣","TOWNNAME":"南投市","MARKTYPE":"994","Class":"4"},"geometry":{"x":120.70020498086504,"y":23.940086807985779}},{"attributes":{"OBJECTID":16899,"LANDMARKID":"1000800000737","LANDMARKCO":"406","LANDMARKNA":"仁壽公園","LANDMARKAD":"1000801","ADDRESS":"南投縣南投市","TEL":" ","COUNTYNAME":"南投縣","TOWNNAME":"南投市","MARKTYPE":"994","Class":"4"},"geometry":{"x":120.68487106239436,"y":23.910132188683249}},{"attributes":{"OBJECTID":16900,"LANDMARKID":"1000800000738","LANDMARKCO":"406","LANDMARKNA":"富貴公園","LANDMARKAD":"1000801","ADDRESS":"南投縣南投市","TEL":" ","COUNTYNAME":"南投縣","TOWNNAME":"南投市","MARKTYPE":"994","Class":"4"},"geometry":{"x":120.67728091964381,"y":23.903500136287867}},{"attributes":{"OBJECTID":16901,"LANDMARKID":"1000800000739","LANDMARKCO":"406","LANDMARKNA":"中山公園","LANDMARKAD":"1000801","ADDRESS":"南投縣南投市","TEL":" ","COUNTYNAME":"南投縣","TOWNNAME":"南投市","MARKTYPE":"994","Class":"4"},"geometry":{"x":120.68775579758886,"y":23.910740463868581}},{"attributes":{"OBJECTID":16902,"LANDMARKID":"1000800000752","LANDMARKCO":"407","LANDMARKNA":"三商百貨","LANDMARKAD":"1000801","ADDRESS":"南投縣南投市彰南路二段21號","TEL":"049-2220788","COUNTYNAME":"南投縣","TOWNNAME":"南投市","MARKTYPE":"994","Class":"4"},"geometry":{"x":120.68454013747179,"y":23.908469151345226}},{"attributes":{"OBJECTID":16903,"LANDMARKID":"1000800000674","LANDMARKCO":"405","LANDMARKNA":"台亞加油站-冠旭站（台塑）","LANDMARKAD":"1000801","ADDRESS":"南投縣南投市南岡三路242號","TEL":"(049)225-8411","COUNTYNAME":"南投縣","TOWNNAME":"南投市","MARKTYPE":"994","Class":"4"},"geometry":{"x":120.66742994378323,"y":23.930967743486505}},{"attributes":{"OBJECTID":16904,"LANDMARKID":"1000800000675","LANDMARKCO":"405","LANDMARKNA":"福懋加油站-中興站(台塑)","LANDMARKAD":"1000801","ADDRESS":"南投縣南投市東閔路1050號","TEL":"049-2359420","COUNTYNAME":"南投縣","TOWNNAME":"南投市","MARKTYPE":"994","Class":"4"},"geometry":{"x":120.67993786490921,"y":23.950054607450788}},{"attributes":{"OBJECTID":16905,"LANDMARKID":"1000800000676","LANDMARKCO":"405","LANDMARKNA":"福懋加油站-南投站(台塑)","LANDMARKAD":"1000801","ADDRESS":"南投縣南投市中興路396-12號","TEL":"049-2235870","COUNTYNAME":"南投縣","TOWNNAME":"南投市","MARKTYPE":"994","Class":"4"},"geometry":{"x":120.69401964235232,"y":23.911677173715557}},{"attributes":{"OBJECTID":16906,"LANDMARKID":"1000800000677","LANDMARKCO":"405","LANDMARKNA":"全國加油站-緯勝站（台塑）","LANDMARKAD":"1000801","ADDRESS":"南投縣南投市中興路409-1號","TEL":"049-2201550","COUNTYNAME":"南投縣","TOWNNAME":"南投市","MARKTYPE":"994","Class":"4"},"geometry":{"x":120.69452232980407,"y":23.911490139129292}},{"attributes":{"OBJECTID":16907,"LANDMARKID":"1000800000678","LANDMARKCO":"405","LANDMARKNA":"台塑加油站-承冠站(台塑)","LANDMARKAD":"1000801","ADDRESS":"南投縣南投市新興里南崗三路27號","TEL":"049-2255803","COUNTYNAME":"南投縣","TOWNNAME":"南投市","MARKTYPE":"994","Class":"4"},"geometry":{"x":120.66814419294928,"y":23.92763316080525}},{"attributes":{"OBJECTID":16908,"LANDMARKID":"1000800000679","LANDMARKCO":"405","LANDMARKNA":"台亞加油站-南投站（台塑）","LANDMARKAD":"1000801","ADDRESS":"南投縣南投市中興路280號","TEL":"(049)235-8101","COUNTYNAME":"南投縣","TOWNNAME":"南投市","MARKTYPE":"994","Class":"4"},"geometry":{"x":120.69164541056388,"y":23.926378542156527}},{"attributes":{"OBJECTID":16909,"LANDMARKID":"1000800000075","LANDMARKCO":"103","LANDMARKNA":"南投縣政府衛生局","LANDMARKAD":"1000801","ADDRESS":"南投縣南投市復興路6號","TEL":"049-2222473","COUNTYNAME":"南投縣","TOWNNAME":"南投市","MARKTYPE":"991","Class":"1"},"geometry":{"x":120.68849721289983,"y":23.902453376521382}},{"attributes":{"OBJECTID":16910,"LANDMARKID":"1000800000240","LANDMARKCO":"108","LANDMARKNA":"南投縣南投市公所","LANDMARKAD":"1000801","ADDRESS":"南投市龍泉里玉井街5號","TEL":"049-2222110","COUNTYNAME":"南投縣","TOWNNAME":"南投市","MARKTYPE":"991","Class":"1"},"geometry":{"x":120.68739956036404,"y":23.91160881208997}},{"attributes":{"OBJECTID":16911,"LANDMARKID":"1000800000076","LANDMARKCO":"103","LANDMARKNA":"南投縣立慢性病防治所","LANDMARKAD":"1000801","ADDRESS":"南投縣南投市三和一路15號","TEL":"049-2228471","COUNTYNAME":"南投縣","TOWNNAME":"南投市","MARKTYPE":"991","Class":"1"},"geometry":{"x":120.68848549731828,"y":23.90260286314723}},{"attributes":{"OBJECTID":16912,"LANDMARKID":"1000800000077","LANDMARKCO":"103","LANDMARKNA":"南投縣政府文化局","LANDMARKAD":"1000801","ADDRESS":"南投縣南投市建國路135號","TEL":"049-2231191","COUNTYNAME":"南投縣","TOWNNAME":"南投市","MARKTYPE":"991","Class":"1"},"geometry":{"x":120.6815384138726,"y":23.90798668126331}},{"attributes":{"OBJECTID":16913,"LANDMARKID":"1000800000078","LANDMARKCO":"103","LANDMARKNA":"南投縣南投市衛生所","LANDMARKAD":"1000801","ADDRESS":"南投縣南投市三和里三和一路13號","TEL":"049-2223264","COUNTYNAME":"南投縣","TOWNNAME":"南投市","MARKTYPE":"991","Class":"1"},"geometry":{"x":120.68878919572848,"y":23.902539347008116}},{"attributes":{"OBJECTID":16914,"LANDMARKID":"1000800000008","LANDMARKCO":"101","LANDMARKNA":"南投憲兵隊","LANDMARKAD":"1000801","ADDRESS":"南投縣南投市南崗一路360號","TEL":"049-2358585","COUNTYNAME":"南投縣","TOWNNAME":"南投市","MARKTYPE":"991","Class":"1"},"geometry":{"x":120.68036340422562,"y":23.906026691868433}},{"attributes":{"OBJECTID":16915,"LANDMARKID":"1000800000162","LANDMARKCO":"107","LANDMARKNA":"南投縣消防局","LANDMARKAD":"1000801","ADDRESS":"南投縣南投市民族路494號","TEL":"049-2225134","COUNTYNAME":"南投縣","TOWNNAME":"南投市","MARKTYPE":"991","Class":"1"},"geometry":{"x":120.68007392801528,"y":23.907130559046724}},{"attributes":{"OBJECTID":16916,"LANDMARKID":"1000800000163","LANDMARKCO":"107","LANDMARKNA":"南投縣消防局第一消防大隊部","LANDMARKAD":"1000801","ADDRESS":"南投縣南投市民族路494號2樓","TEL":"049-2222534","COUNTYNAME":"南投縣","TOWNNAME":"南投市","MARKTYPE":"991","Class":"1"},"geometry":{"x":120.68007392801528,"y":23.907130559046724}},{"attributes":{"OBJECTID":16917,"LANDMARKID":"1000800000164","LANDMARKCO":"107","LANDMARKNA":"南投縣消防局南投消防分隊","LANDMARKAD":"1000801","ADDRESS":"南投縣南投市民族路494號2樓","TEL":"049-2222534","COUNTYNAME":"南投縣","TOWNNAME":"南投市","MARKTYPE":"991","Class":"1"},"geometry":{"x":120.68007392801528,"y":23.907130559046724}},{"attributes":{"OBJECTID":16918,"LANDMARKID":"1000800000165","LANDMARKCO":"107","LANDMARKNA":"南投縣消防局中興消防分隊","LANDMARKAD":"1000801","ADDRESS":"南投縣南投市光華七路2號","TEL":"049-2337142","COUNTYNAME":"南投縣","TOWNNAME":"南投市","MARKTYPE":"991","Class":"1"},"geometry":{"x":120.69350871639139,"y":23.950579642696578}},{"attributes":{"OBJECTID":16919,"LANDMARKID":"1000800000166","LANDMARKCO":"107","LANDMARKNA":"南投縣警察局總局","LANDMARKAD":"1000801","ADDRESS":"南投縣南投市南崗二路133號","TEL":"049-2222111","COUNTYNAME":"南投縣","TOWNNAME":"南投市","MARKTYPE":"991","Class":"1"},"geometry":{"x":120.67871216309166,"y":23.910060195781863}},{"attributes":{"OBJECTID":16920,"LANDMARKID":"1000800000167","LANDMARKCO":"107","LANDMARKNA":"南投縣政府警察局南投分局","LANDMARKAD":"1000801","ADDRESS":"南投縣南投市三民里彰南路二段109號","TEL":"049-2222923","COUNTYNAME":"南投縣","TOWNNAME":"南投市","MARKTYPE":"991","Class":"1"},"geometry":{"x":120.68319362962907,"y":23.910086877947506}},{"attributes":{"OBJECTID":16921,"LANDMARKID":"1000800000168","LANDMARKCO":"107","LANDMARKNA":"南投縣政府警察局鳳鳴派出所","LANDMARKAD":"1000801","ADDRESS":"南投縣南投市鳳鳴里八卦路837號","TEL":"049-2291939","COUNTYNAME":"南投縣","TOWNNAME":"南投市","MARKTYPE":"991","Class":"1"},"geometry":{"x":120.63780939884379,"y":23.925974594457163}},{"attributes":{"OBJECTID":16922,"LANDMARKID":"1000800000169","LANDMARKCO":"107","LANDMARKNA":"南投縣政府警察局半山派出所","LANDMARKAD":"1000801","ADDRESS":"南投縣南投市平山里彰南路三段19號","TEL":"049-2251264","COUNTYNAME":"南投縣","TOWNNAME":"南投市","MARKTYPE":"991","Class":"1"},"geometry":{"x":120.67588706029356,"y":23.924096283115755}},{"attributes":{"OBJECTID":16923,"LANDMARKID":"1000800000170","LANDMARKCO":"107","LANDMARKNA":"南投縣警察局南投派出所","LANDMARKAD":"1000801","ADDRESS":"南投縣南投市三民里彰南路二段109號","TEL":"049-2222336","COUNTYNAME":"南投縣","TOWNNAME":"南投市","MARKTYPE":"991","Class":"1"},"geometry":{"x":120.68319362962907,"y":23.910086877947506}},{"attributes":{"OBJECTID":16924,"LANDMARKID":"1000800000171","LANDMARKCO":"107","LANDMARKNA":"南投縣政府警察局中興分局","LANDMARKAD":"1000801","ADDRESS":"南投縣南投市光輝里光華路115號","TEL":"049-2332585","COUNTYNAME":"南投縣","TOWNNAME":"南投市","MARKTYPE":"991","Class":"1"},"geometry":{"x":120.69361968702674,"y":23.950403913423592}},{"attributes":{"OBJECTID":16925,"LANDMARKID":"1000800000172","LANDMARKCO":"107","LANDMARKNA":"南投縣政府警察局永清派出所","LANDMARKAD":"1000801","ADDRESS":"南投縣南投市營南里南營路745號","TEL":"049-2325314","COUNTYNAME":"南投縣","TOWNNAME":"南投市","MARKTYPE":"991","Class":"1"},"geometry":{"x":120.67870811536918,"y":23.941421941540192}},{"attributes":{"OBJECTID":16926,"LANDMARKID":"1000800000173","LANDMARKCO":"107","LANDMARKNA":"南投縣政府警察局光明派出所","LANDMARKAD":"1000801","ADDRESS":"南投縣南投市光明里光明路35號","TEL":"049-2332586","COUNTYNAME":"南投縣","TOWNNAME":"南投市","MARKTYPE":"991","Class":"1"},"geometry":{"x":120.69744536808602,"y":23.938905069512323}},{"attributes":{"OBJECTID":16927,"LANDMARKID":"1000800000174","LANDMARKCO":"107","LANDMARKNA":"南投縣警察局中興派出所","LANDMARKAD":"1000801","ADDRESS":"南投縣南投市光華里光華路115號","TEL":"049-2332544","COUNTYNAME":"南投縣","TOWNNAME":"南投市","MARKTYPE":"991","Class":"1"},"geometry":{"x":120.69361968702674,"y":23.950403913423592}},{"attributes":{"OBJECTID":16928,"LANDMARKID":"1000800000079","LANDMARKCO":"103","LANDMARKNA":"南投縣政府民政局","LANDMARKAD":"1000801","ADDRESS":"南投縣南投市中興路660號","TEL":"049-2222014","COUNTYNAME":"南投縣","TOWNNAME":"南投市","MARKTYPE":"991","Class":"1"},"geometry":{"x":120.69018227656733,"y":23.90246220594862}},{"attributes":{"OBJECTID":16929,"LANDMARKID":"1000800000109","LANDMARKCO":"106","LANDMARKNA":"南投縣南投市戶政事務所","LANDMARKAD":"1000801","ADDRESS":"南投縣南投市育樂一街16號","TEL":"049-2223004","COUNTYNAME":"南投縣","TOWNNAME":"南投市","MARKTYPE":"991","Class":"1"},"geometry":{"x":120.68961235347811,"y":23.910539752956197}},{"attributes":{"OBJECTID":16930,"LANDMARKID":"1000800000095","LANDMARKCO":"105","LANDMARKNA":"南投縣政府地政局","LANDMARKAD":"1000801","ADDRESS":"南投縣南投市中興路660號","TEL":"049-2243933","COUNTYNAME":"南投縣","TOWNNAME":"南投市","MARKTYPE":"991","Class":"1"},"geometry":{"x":120.69018227656733,"y":23.90246220594862}},{"attributes":{"OBJECTID":16931,"LANDMARKID":"1000800000096","LANDMARKCO":"105","LANDMARKNA":"南投縣南投地政事務所","LANDMARKAD":"1000801","ADDRESS":"南投縣南投市三和二路60號","TEL":"049-2223328","COUNTYNAME":"南投縣","TOWNNAME":"南投市","MARKTYPE":"991","Class":"1"},"geometry":{"x":120.6870287626632,"y":23.904170389033808}},{"attributes":{"OBJECTID":16932,"LANDMARKID":"1000800000061","LANDMARKCO":"103","LANDMARKNA":"南投縣政府","LANDMARKAD":"1000801","ADDRESS":"南投縣南投市中興路660號","TEL":"049-2222106","COUNTYNAME":"南投縣","TOWNNAME":"南投市","MARKTYPE":"991","Class":"1"},"geometry":{"x":120.69018227656733,"y":23.90246220594862}},{"attributes":{"OBJECTID":16933,"LANDMARKID":"1000800000009","LANDMARKCO":"101","LANDMARKNA":"台中區監理所南投監理站","LANDMARKAD":"1000801","ADDRESS":"南投縣南投市中興路201號","TEL":"049-2350923","COUNTYNAME":"南投縣","TOWNNAME":"南投市","MARKTYPE":"991","Class":"1"},"geometry":{"x":120.69560699141533,"y":23.935125957853437}},{"attributes":{"OBJECTID":16934,"LANDMARKID":"1000800000092","LANDMARKCO":"104","LANDMARKNA":"中區國稅局南投縣分局","LANDMARKAD":"1000801","ADDRESS":"南投縣南投市復興路2號4樓","TEL":"049-2223067","COUNTYNAME":"南投縣","TOWNNAME":"南投市","MARKTYPE":"991","Class":"1"},"geometry":{"x":120.68869571253707,"y":23.901919071504761}},{"attributes":{"OBJECTID":16935,"LANDMARKID":"1000800000010","LANDMARKCO":"101","LANDMARKNA":"台灣南投地方法院","LANDMARKAD":"1000801","ADDRESS":"南投縣南投市中興路757號","TEL":"049-2242590","COUNTYNAME":"南投縣","TOWNNAME":"南投市","MARKTYPE":"991","Class":"1"},"geometry":{"x":120.68919684990011,"y":23.900674664145434}},{"attributes":{"OBJECTID":16936,"LANDMARKID":"1000800000011","LANDMARKCO":"101","LANDMARKNA":"調查局南投縣調查站","LANDMARKAD":"1000801","ADDRESS":"南投縣南投市民族路486號","TEL":"049-2222530","COUNTYNAME":"南投縣","TOWNNAME":"南投市","MARKTYPE":"991","Class":"1"},"geometry":{"x":120.68058363599737,"y":23.907259257295916}},{"attributes":{"OBJECTID":16937,"LANDMARKID":"1000800000073","LANDMARKCO":"103","LANDMARKNA":"南投縣議會","LANDMARKAD":"1000801","ADDRESS":"南投縣南投市中興路663號","TEL":"049-2222131","COUNTYNAME":"南投縣","TOWNNAME":"南投市","MARKTYPE":"991","Class":"1"},"geometry":{"x":120.69179498481404,"y":23.901925447688296}},{"attributes":{"OBJECTID":16938,"LANDMARKID":"1000800000074","LANDMARKCO":"103","LANDMARKNA":"南投縣南投市市民代表會","LANDMARKAD":"1000801","ADDRESS":"南投縣南投市大同街234號","TEL":"049-2237738","COUNTYNAME":"南投縣","TOWNNAME":"南投市","MARKTYPE":"991","Class":"1"},"geometry":{"x":120.68707580525552,"y":23.911407125949015}},{"attributes":{"OBJECTID":16939,"LANDMARKID":"1000800000091","LANDMARKCO":"104","LANDMARKNA":"南投縣政府稅務局","LANDMARKAD":"1000801","ADDRESS":"南投縣南投市復興路2號","TEL":"0800-496969","COUNTYNAME":"南投縣","TOWNNAME":"南投市","MARKTYPE":"991","Class":"1"},"geometry":{"x":120.68869571253707,"y":23.901919071504761}},{"attributes":{"OBJECTID":16940,"LANDMARKID":"1000800000071","LANDMARKCO":"103","LANDMARKNA":"南投縣後備司令部","LANDMARKAD":"1000801","ADDRESS":"南投縣南投市南崗一路360號","TEL":"049-2233094","COUNTYNAME":"南投縣","TOWNNAME":"南投市","MARKTYPE":"991","Class":"1"},"geometry":{"x":120.68036340422562,"y":23.906026691868433}},{"attributes":{"OBJECTID":16941,"LANDMARKID":"1000800000072","LANDMARKCO":"103","LANDMARKNA":"南投縣工商(業)發展投資策進會","LANDMARKAD":"1000801","ADDRESS":"南投縣南投市中興路660號","TEL":"049-2222120","COUNTYNAME":"南投縣","TOWNNAME":"南投市","MARKTYPE":"991","Class":"1"},"geometry":{"x":120.69018227656733,"y":23.90246220594862}},{"attributes":{"OBJECTID":16942,"LANDMARKID":"1000800000012","LANDMARKCO":"101","LANDMARKNA":"公務人員保障暨培訓委員會中部","LANDMARKAD":"1000801","ADDRESS":"南投縣南投市光榮北路1號","TEL":"049-2350805","COUNTYNAME":"南投縣","TOWNNAME":"南投市","MARKTYPE":"991","Class":"1"},"geometry":{"x":120.69709395724989,"y":23.945410472896217}},{"attributes":{"OBJECTID":16943,"LANDMARKID":"1000800000070","LANDMARKCO":"103","LANDMARKNA":"原住民委員會中部辦公室","LANDMARKAD":"1000801","ADDRESS":"南投縣南投市光明路27號","TEL":"049-2335199","COUNTYNAME":"南投縣","TOWNNAME":"南投市","MARKTYPE":"991","Class":"1"},"geometry":{"x":120.69810417499023,"y":23.93869768506099}},{"attributes":{"OBJECTID":16944,"LANDMARKID":"1000800000013","LANDMARKCO":"101","LANDMARKNA":"內政部役政署執行小組","LANDMARKAD":"1000801","ADDRESS":"南投縣南投市光明路21號","TEL":"049-2394488","COUNTYNAME":"南投縣","TOWNNAME":"南投市","MARKTYPE":"991","Class":"1"},"geometry":{"x":120.69888645160522,"y":23.93807236883961}},{"attributes":{"OBJECTID":16945,"LANDMARKID":"1000800000014","LANDMARKCO":"101","LANDMARKNA":"交通部中部辦公室","LANDMARKAD":"1000801","ADDRESS":"南投縣南投市省府路6號","TEL":"049-2315235","COUNTYNAME":"南投縣","TOWNNAME":"南投市","MARKTYPE":"991","Class":"1"},"geometry":{"x":120.6861739078558,"y":23.957565668757812}},{"attributes":{"OBJECTID":16946,"LANDMARKID":"1000800000015","LANDMARKCO":"101","LANDMARKNA":"行政院主計處中部辦公室","LANDMARKAD":"1000801","ADDRESS":"南投市中興新村光明路25號","TEL":"049-2394081","COUNTYNAME":"南投縣","TOWNNAME":"南投市","MARKTYPE":"991","Class":"1"},"geometry":{"x":120.69792269024518,"y":23.93817496070773}},{"attributes":{"OBJECTID":16947,"LANDMARKID":"1000800000016","LANDMARKCO":"101","LANDMARKNA":"衛生署中部辦公室","LANDMARKAD":"1000801","ADDRESS":"南投縣南投市光明路15號","TEL":"049-2332161","COUNTYNAME":"南投縣","TOWNNAME":"南投市","MARKTYPE":"991","Class":"1"},"geometry":{"x":120.69967059917148,"y":23.937676678608231}},{"attributes":{"OBJECTID":16948,"LANDMARKID":"1000800000017","LANDMARKCO":"101","LANDMARKNA":"法務部中部辦公室","LANDMARKAD":"1000801","ADDRESS":"南投縣南投市光明路11號","TEL":"049-2339181","COUNTYNAME":"南投縣","TOWNNAME":"南投市","MARKTYPE":"991","Class":"1"},"geometry":{"x":120.70035859952139,"y":23.937609982387034}},{"attributes":{"OBJECTID":16949,"LANDMARKID":"1000800000069","LANDMARKCO":"103","LANDMARKNA":"南投縣區車輛行車事故鑑定委員會","LANDMARKAD":"1000801","ADDRESS":"南投縣南投市光華路66號之6","TEL":"049-2390280","COUNTYNAME":"南投縣","TOWNNAME":"南投市","MARKTYPE":"991","Class":"1"},"geometry":{"x":120.69332854768373,"y":23.950199492951686}},{"attributes":{"OBJECTID":16950,"LANDMARKID":"1000800000018","LANDMARKCO":"101","LANDMARKNA":"公路總局中部汽車技術訓練中心","LANDMARKAD":"1000801","ADDRESS":"南投縣南投市光明一路300號","TEL":"049-2339171","COUNTYNAME":"南投縣","TOWNNAME":"南投市","MARKTYPE":"991","Class":"1"},"geometry":{"x":120.69947698984517,"y":23.933043834224481}},{"attributes":{"OBJECTID":16951,"LANDMARKID":"1000800000019","LANDMARKCO":"101","LANDMARKNA":"地方行政研習中心","LANDMARKAD":"1000801","ADDRESS":"南投縣南投市光明一路1號","TEL":"049-2332131","COUNTYNAME":"南投縣","TOWNNAME":"南投市","MARKTYPE":"991","Class":"1"},"geometry":{"x":120.69755810570852,"y":23.941465051801838}},{"attributes":{"OBJECTID":16952,"LANDMARKID":"1000800000068","LANDMARKCO":"103","LANDMARKNA":"南投縣選舉委員會","LANDMARKAD":"1000801","ADDRESS":"南投縣南投市中興路669號6樓","TEL":"049-2222915","COUNTYNAME":"南投縣","TOWNNAME":"南投市","MARKTYPE":"991","Class":"1"},"geometry":{"x":120.69135540102285,"y":23.903145946597459}},{"attributes":{"OBJECTID":16953,"LANDMARKID":"1000800000020","LANDMARKCO":"101","LANDMARKNA":"勞工委員會勞工保險局","LANDMARKAD":"1000801","ADDRESS":"南投縣南投市芳美路391號","TEL":"049-2222954","COUNTYNAME":"南投縣","TOWNNAME":"南投市","MARKTYPE":"991","Class":"1"},"geometry":{"x":120.69360225183003,"y":23.911602281813646}},{"attributes":{"OBJECTID":16954,"LANDMARKID":"1000800000066","LANDMARKCO":"103","LANDMARKNA":"南投縣政府環境保護局","LANDMARKAD":"1000801","ADDRESS":"南投縣南投市中興路660號","TEL":"049-2237530","COUNTYNAME":"南投縣","TOWNNAME":"南投市","MARKTYPE":"991","Class":"1"},"geometry":{"x":120.69018227656733,"y":23.90246220594862}},{"attributes":{"OBJECTID":16955,"LANDMARKID":"1000800000067","LANDMARKCO":"103","LANDMARKNA":"南投縣學生校外生活指導委員會","LANDMARKAD":"1000801","ADDRESS":"南投縣南投市南崗二路6號","TEL":"049-2248275","COUNTYNAME":"南投縣","TOWNNAME":"南投市","MARKTYPE":"991","Class":"1"},"geometry":{"x":120.67986104894862,"y":23.907656924991937}},{"attributes":{"OBJECTID":16956,"LANDMARKID":"1000800000021","LANDMARKCO":"101","LANDMARKNA":"教育部南投縣聯絡處","LANDMARKAD":"1000801","ADDRESS":"南投縣南投市南崗二路6號","TEL":"049-2228026","COUNTYNAME":"南投縣","TOWNNAME":"南投市","MARKTYPE":"991","Class":"1"},"geometry":{"x":120.67986104894862,"y":23.907656924991937}},{"attributes":{"OBJECTID":16957,"LANDMARKID":"1000800000022","LANDMARKCO":"101","LANDMARKNA":"國軍退除役官兵輔導委員會","LANDMARKAD":"1000801","ADDRESS":"南投縣南投市民族路505號","TEL":"049-2222034","COUNTYNAME":"南投縣","TOWNNAME":"南投市","MARKTYPE":"991","Class":"1"},"geometry":{"x":120.68049003014566,"y":23.90650218611831}},{"attributes":{"OBJECTID":16958,"LANDMARKID":"1000800000023","LANDMARKCO":"101","LANDMARKNA":"營建署中部辦公室","LANDMARKAD":"1000801","ADDRESS":"南投縣南投市省府路38號","TEL":"049-2352911","COUNTYNAME":"南投縣","TOWNNAME":"南投市","MARKTYPE":"991","Class":"1"},"geometry":{"x":120.68392658576995,"y":23.957455974953401}},{"attributes":{"OBJECTID":16959,"LANDMARKID":"1000800000024","LANDMARKCO":"101","LANDMARKNA":"人事行政局中部辦公室","LANDMARKAD":"1000801","ADDRESS":"南投縣南投市省府路2號","TEL":"049-2359108","COUNTYNAME":"南投縣","TOWNNAME":"南投市","MARKTYPE":"991","Class":"1"},"geometry":{"x":120.68638178111789,"y":23.958395616244761}},{"attributes":{"OBJECTID":16960,"LANDMARKID":"1000800000025","LANDMARKCO":"101","LANDMARKNA":"行政院研究發展考核委員會中部","LANDMARKAD":"1000801","ADDRESS":"南投市中興新村府西路71號1F","TEL":"049-2394168","COUNTYNAME":"南投縣","TOWNNAME":"南投市","MARKTYPE":"991","Class":"1"},"geometry":{"x":120.68642191941223,"y":23.959727849933788}},{"attributes":{"OBJECTID":16961,"LANDMARKID":"1000800000065","LANDMARKCO":"103","LANDMARKNA":"臺灣省政府新聞科","LANDMARKAD":"1000801","ADDRESS":"南投縣南投市省府路1號","TEL":"049-2394734","COUNTYNAME":"南投縣","TOWNNAME":"南投市","MARKTYPE":"991","Class":"1"},"geometry":{"x":120.68717187842525,"y":23.958455903841994}},{"attributes":{"OBJECTID":16962,"LANDMARKID":"1000800000026","LANDMARKCO":"101","LANDMARKNA":"農業委員會水土保持局","LANDMARKAD":"1000801","ADDRESS":"南投縣南投市光華路6號","TEL":"049-2394300","COUNTYNAME":"南投縣","TOWNNAME":"南投市","MARKTYPE":"991","Class":"1"},"geometry":{"x":120.68727063666294,"y":23.955410709080045}},{"attributes":{"OBJECTID":16963,"LANDMARKID":"1000800000027","LANDMARKCO":"101","LANDMARKNA":"財政部台北區支付處中部辦公室","LANDMARKAD":"1000801","ADDRESS":"南投縣南投市中正路6號","TEL":"049-2359131","COUNTYNAME":"南投縣","TOWNNAME":"南投市","MARKTYPE":"991","Class":"1"},"geometry":{"x":120.68666475083285,"y":23.954863903671768}},{"attributes":{"OBJECTID":16964,"LANDMARKID":"1000800000028","LANDMARKCO":"101","LANDMARKNA":"經濟部中部辦公室","LANDMARKAD":"1000801","ADDRESS":"南投縣南投市省府路4號","TEL":"049-2359171","COUNTYNAME":"南投縣","TOWNNAME":"南投市","MARKTYPE":"991","Class":"1"},"geometry":{"x":120.68617572293414,"y":23.958023485319849}},{"attributes":{"OBJECTID":16965,"LANDMARKID":"1000800000029","LANDMARKCO":"101","LANDMARKNA":"農糧署中興辦公區","LANDMARKAD":"1000801","ADDRESS":"南投縣南投市光華路8號","TEL":"049-2332380","COUNTYNAME":"南投縣","TOWNNAME":"南投市","MARKTYPE":"991","Class":"1"},"geometry":{"x":120.68826846706206,"y":23.955362364996564}},{"attributes":{"OBJECTID":16966,"LANDMARKID":"1000800000030","LANDMARKCO":"101","LANDMARKNA":"國有財產局台灣中區辦事處南投分處","LANDMARKAD":"1000801","ADDRESS":"南投縣南投市省府路40號","TEL":"049-2390100","COUNTYNAME":"南投縣","TOWNNAME":"南投市","MARKTYPE":"991","Class":"1"},"geometry":{"x":120.68424370487949,"y":23.956922806686155}},{"attributes":{"OBJECTID":16967,"LANDMARKID":"1000800000031","LANDMARKCO":"101","LANDMARKNA":"農業委員會水土保持局南投分局","LANDMARKAD":"1000801","ADDRESS":"南投縣南投市復興路350號","TEL":"049-2231169","COUNTYNAME":"南投縣","TOWNNAME":"南投市","MARKTYPE":"991","Class":"1"},"geometry":{"x":120.68556609338681,"y":23.911293978088946}},{"attributes":{"OBJECTID":16968,"LANDMARKID":"1000800000032","LANDMARKCO":"101","LANDMARKNA":"南投縣憲兵隊後備憲兵聯絡中心","LANDMARKAD":"1000801","ADDRESS":"南投縣南投市復興路780號","TEL":"049-2244830","COUNTYNAME":"南投縣","TOWNNAME":"南投市","MARKTYPE":"991","Class":"1"},"geometry":{"x":120.67959542945137,"y":23.918849025267338}},{"attributes":{"OBJECTID":16969,"LANDMARKID":"1000800000064","LANDMARKCO":"103","LANDMARKNA":"南投縣立殯儀館","LANDMARKAD":"1000801","ADDRESS":"南投縣南投市民族路566號","TEL":"049-2220644","COUNTYNAME":"南投縣","TOWNNAME":"南投市","MARKTYPE":"991","Class":"1"},"geometry":{"x":120.67440420417266,"y":23.905945151316761}},{"attributes":{"OBJECTID":16970,"LANDMARKID":"1000800000200","LANDMARKCO":"107","LANDMARKNA":"南投縣政府警察局府西派出所","LANDMARKAD":"1000801","ADDRESS":"南投縣南投市光緷里虎山路3號","TEL":"049-2332557","COUNTYNAME":"南投縣","TOWNNAME":"南投市","MARKTYPE":"991","Class":"1"},"geometry":{"x":120.68471303677188,"y":23.957519072221679}},{"attributes":{"OBJECTID":16971,"LANDMARKID":"1000800000033","LANDMARKCO":"101","LANDMARKNA":"台灣南投看守所","LANDMARKAD":"1000801","ADDRESS":"南投縣南投市三和里嘉和1路1號","TEL":"049-2241876","COUNTYNAME":"南投縣","TOWNNAME":"南投市","MARKTYPE":"991","Class":"1"},"geometry":{"x":120.68781190974364,"y":23.900242205569079}},{"attributes":{"OBJECTID":16972,"LANDMARKID":"1000800000034","LANDMARKCO":"101","LANDMARKNA":"內政部中部辦公室中興地區","LANDMARKAD":"1000801","ADDRESS":"南投縣南投市中興新村虎山路3號3樓","TEL":"049-2391119","COUNTYNAME":"南投縣","TOWNNAME":"南投市","MARKTYPE":"991","Class":"1"},"geometry":{"x":120.68471303677188,"y":23.957519072221679}},{"attributes":{"OBJECTID":16973,"LANDMARKID":"1000800000473","LANDMARKCO":"205","LANDMARKNA":"國史館台灣文獻館","LANDMARKAD":"1000801","ADDRESS":"南投縣南投市中興新村光明一路252號","TEL":" ","COUNTYNAME":"南投縣","TOWNNAME":"南投市","MARKTYPE":"992","Class":"2"},"geometry":{"x":120.70084875708081,"y":23.936450662317213}},{"attributes":{"OBJECTID":16974,"LANDMARKID":"1000800000474","LANDMARKCO":"205","LANDMARKNA":"竹藝博物館","LANDMARKAD":"1000801","ADDRESS":"南投縣南投市建國路135號","TEL":" ","COUNTYNAME":"南投縣","TOWNNAME":"南投市","MARKTYPE":"992","Class":"2"},"geometry":{"x":120.68196740680192,"y":23.908350906316674}},{"attributes":{"OBJECTID":16975,"LANDMARKID":"1000800000475","LANDMARKCO":"205","LANDMARKNA":"台灣省政資料館","LANDMARKAD":"1000801","ADDRESS":"南投縣南投市中興新村中正路2號","TEL":" ","COUNTYNAME":"南投縣","TOWNNAME":"南投市","MARKTYPE":"992","Class":"2"},"geometry":{"x":120.68627320857158,"y":23.955745726332946}},{"attributes":{"OBJECTID":16976,"LANDMARKID":"1000800000476","LANDMARKCO":"205","LANDMARKNA":"南投縣史館","LANDMARKAD":"1000801","ADDRESS":"南投縣南投市彰南路二段65號","TEL":" ","COUNTYNAME":"南投縣","TOWNNAME":"南投市","MARKTYPE":"992","Class":"2"},"geometry":{"x":120.6841390337563,"y":23.909469249290453}},{"attributes":{"OBJECTID":16977,"LANDMARKID":"1000800000394","LANDMARKCO":"203","LANDMARKNA":"縣立嘉和國小","LANDMARKAD":"1000801","ADDRESS":"南投縣南投市彰南路一段639巷80號","TEL":"049-2222430","COUNTYNAME":"南投縣","TOWNNAME":"南投市","MARKTYPE":"992","Class":"2"},"geometry":{"x":120.6846606833406,"y":23.896299859208487}},{"attributes":{"OBJECTID":16978,"LANDMARKID":"1000800000395","LANDMARKCO":"203","LANDMARKNA":"縣立千秋國小","LANDMARKAD":"1000801","ADDRESS":"南投縣南投市千秋里千秋路131巷1號","TEL":"049-2229405","COUNTYNAME":"南投縣","TOWNNAME":"南投市","MARKTYPE":"992","Class":"2"},"geometry":{"x":120.71310096847401,"y":23.891670616304019}},{"attributes":{"OBJECTID":16979,"LANDMARKID":"1000800000248","LANDMARKCO":"202","LANDMARKNA":"國立中興高中","LANDMARKAD":"1000801","ADDRESS":"南投縣南投市中興新村中學路2號","TEL":"049-2331014","COUNTYNAME":"南投縣","TOWNNAME":"南投市","MARKTYPE":"992","Class":"2"},"geometry":{"x":120.69467308794792,"y":23.949796757793077}},{"attributes":{"OBJECTID":16980,"LANDMARKID":"1000800000249","LANDMARKCO":"202","LANDMARKNA":"國立南投高中","LANDMARKAD":"1000801","ADDRESS":"南投縣南投市建國路137號","TEL":"049-2231175","COUNTYNAME":"南投縣","TOWNNAME":"南投市","MARKTYPE":"992","Class":"2"},"geometry":{"x":120.68091089538592,"y":23.910494627743528}},{"attributes":{"OBJECTID":16981,"LANDMARKID":"1000800000250","LANDMARKCO":"202","LANDMARKNA":"私立五育高中","LANDMARKAD":"1000801","ADDRESS":"南投縣南投市樂利路200號","TEL":"049-2246346","COUNTYNAME":"南投縣","TOWNNAME":"南投市","MARKTYPE":"992","Class":"2"},"geometry":{"x":120.67194801491196,"y":23.89271652358245}},{"attributes":{"OBJECTID":16982,"LANDMARKID":"1000800000251","LANDMARKCO":"202","LANDMARKNA":"國立南投高商","LANDMARKAD":"1000801","ADDRESS":"南投縣南投市彰南路一段993號","TEL":"049-2222269","COUNTYNAME":"南投縣","TOWNNAME":"南投市","MARKTYPE":"992","Class":"2"},"geometry":{"x":120.68531959174615,"y":23.903864361109232}},{"attributes":{"OBJECTID":16983,"LANDMARKID":"1000800000376","LANDMARKCO":"203","LANDMARKNA":"縣立鳳鳴國中","LANDMARKAD":"1000801","ADDRESS":"南投縣南投市鳳鳴里八卦路896號","TEL":"049-2291831","COUNTYNAME":"南投縣","TOWNNAME":"南投市","MARKTYPE":"992","Class":"2"},"geometry":{"x":120.63964886590195,"y":23.92476977917763}},{"attributes":{"OBJECTID":16984,"LANDMARKID":"1000800000377","LANDMARKCO":"203","LANDMARKNA":"縣立南崗國中","LANDMARKAD":"1000801","ADDRESS":"南投縣南投市大庄路94號","TEL":"049-2222460","COUNTYNAME":"南投縣","TOWNNAME":"南投市","MARKTYPE":"992","Class":"2"},"geometry":{"x":120.68338169228687,"y":23.895283722817553}},{"attributes":{"OBJECTID":16985,"LANDMARKID":"1000800000378","LANDMARKCO":"203","LANDMARKNA":"縣立南投國中","LANDMARKAD":"1000801","ADDRESS":"南投縣南投市漳和里祖祠路361號","TEL":"049-2222549","COUNTYNAME":"南投縣","TOWNNAME":"南投市","MARKTYPE":"992","Class":"2"},"geometry":{"x":120.67694102178167,"y":23.913745938049971}},{"attributes":{"OBJECTID":16986,"LANDMARKID":"1000800000379","LANDMARKCO":"203","LANDMARKNA":"縣立中興國中","LANDMARKAD":"1000801","ADDRESS":"南投縣南投市內新里新興路309號","TEL":"049-2335283","COUNTYNAME":"南投縣","TOWNNAME":"南投市","MARKTYPE":"992","Class":"2"},"geometry":{"x":120.6950758338555,"y":23.93140323267345}},{"attributes":{"OBJECTID":16987,"LANDMARKID":"1000800000380","LANDMARKCO":"203","LANDMARKNA":"縣立德興國小","LANDMARKAD":"1000801","ADDRESS":"南投縣南投市內興里中興路200號","TEL":"049-2359050","COUNTYNAME":"南投縣","TOWNNAME":"南投市","MARKTYPE":"992","Class":"2"},"geometry":{"x":120.69297891283544,"y":23.932492775850346}},{"attributes":{"OBJECTID":16988,"LANDMARKID":"1000800000381","LANDMARKCO":"203","LANDMARKNA":"縣立漳和國小","LANDMARKAD":"1000801","ADDRESS":"南投縣南投市文林路16號","TEL":"049-2224087","COUNTYNAME":"南投縣","TOWNNAME":"南投市","MARKTYPE":"992","Class":"2"},"geometry":{"x":120.67751095810675,"y":23.912729856233184}},{"attributes":{"OBJECTID":16989,"LANDMARKID":"1000800000382","LANDMARKCO":"203","LANDMARKNA":"縣立漳興國小","LANDMARKAD":"1000801","ADDRESS":"南投縣南投市復興路669號","TEL":"049-2224013","COUNTYNAME":"南投縣","TOWNNAME":"南投市","MARKTYPE":"992","Class":"2"},"geometry":{"x":120.68106621365301,"y":23.918126862211704}},{"attributes":{"OBJECTID":16990,"LANDMARKID":"1000800000383","LANDMARKCO":"203","LANDMARKNA":"縣立新豐國小","LANDMARKAD":"1000801","ADDRESS":"南投縣南投市彰南路三段221號","TEL":"049-2251804","COUNTYNAME":"南投縣","TOWNNAME":"南投市","MARKTYPE":"992","Class":"2"},"geometry":{"x":120.67243334194933,"y":23.929439394682728}},{"attributes":{"OBJECTID":16991,"LANDMARKID":"1000800000384","LANDMARKCO":"203","LANDMARKNA":"縣立僑建國小","LANDMARKAD":"1000801","ADDRESS":"南投縣南投市彰南路三段847號","TEL":"049-2253245","COUNTYNAME":"南投縣","TOWNNAME":"南投市","MARKTYPE":"992","Class":"2"},"geometry":{"x":120.66792016151403,"y":23.940766927744043}},{"attributes":{"OBJECTID":16992,"LANDMARKID":"1000800000385","LANDMARKCO":"203","LANDMARKNA":"縣立營盤國小","LANDMARKAD":"1000801","ADDRESS":"南投縣南投市營南里營盤路136號","TEL":"049-2335882","COUNTYNAME":"南投縣","TOWNNAME":"南投市","MARKTYPE":"992","Class":"2"},"geometry":{"x":120.67581927033233,"y":23.94419095668307}},{"attributes":{"OBJECTID":16993,"LANDMARKID":"1000800000386","LANDMARKCO":"203","LANDMARKNA":"縣立西嶺國小","LANDMARKAD":"1000801","ADDRESS":"南投縣南投市鳳鳴里八卦路894號","TEL":"049-2291354","COUNTYNAME":"南投縣","TOWNNAME":"南投市","MARKTYPE":"992","Class":"2"},"geometry":{"x":120.63858739198936,"y":23.924941291576118}},{"attributes":{"OBJECTID":16994,"LANDMARKID":"1000800000387","LANDMARKCO":"203","LANDMARKNA":"縣立文山國小","LANDMARKAD":"1000801","ADDRESS":"南投縣南投市福山里八卦路349號","TEL":"049-2291394","COUNTYNAME":"南投縣","TOWNNAME":"南投市","MARKTYPE":"992","Class":"2"},"geometry":{"x":120.63790117162247,"y":23.907187679484409}},{"attributes":{"OBJECTID":16995,"LANDMARKID":"1000800000388","LANDMARKCO":"203","LANDMARKNA":"縣立光復國小","LANDMARKAD":"1000801","ADDRESS":"南投縣南投市光明里光明一路67號","TEL":"049-2332587","COUNTYNAME":"南投縣","TOWNNAME":"南投市","MARKTYPE":"992","Class":"2"},"geometry":{"x":120.70242219625682,"y":23.941619620262959}},{"attributes":{"OBJECTID":16996,"LANDMARKID":"1000800000389","LANDMARKCO":"203","LANDMARKNA":"縣立光華國小","LANDMARKAD":"1000801","ADDRESS":"南投縣南投市中興新村光華四路2號","TEL":"049-2332549","COUNTYNAME":"南投縣","TOWNNAME":"南投市","MARKTYPE":"992","Class":"2"},"geometry":{"x":120.69074657195283,"y":23.952247129521133}},{"attributes":{"OBJECTID":16997,"LANDMARKID":"1000800000390","LANDMARKCO":"203","LANDMARKNA":"縣立光榮國小","LANDMARKAD":"1000801","ADDRESS":"南投縣南投市中興新村光榮北路19號","TEL":"049-2332550","COUNTYNAME":"南投縣","TOWNNAME":"南投市","MARKTYPE":"992","Class":"2"},"geometry":{"x":120.69673267321257,"y":23.946471128370568}},{"attributes":{"OBJECTID":16998,"LANDMARKID":"1000800000391","LANDMARKCO":"203","LANDMARKNA":"縣立平和國小","LANDMARKAD":"1000801","ADDRESS":"南投縣南投市平和里育樂路62號","TEL":"049-2222028#11","COUNTYNAME":"南投縣","TOWNNAME":"南投市","MARKTYPE":"992","Class":"2"},"geometry":{"x":120.69118819832724,"y":23.913204003843116}},{"attributes":{"OBJECTID":16999,"LANDMARKID":"1000800000392","LANDMARKCO":"203","LANDMARKNA":"縣立康壽國小","LANDMARKAD":"1000801","ADDRESS":"南投縣南投市南陽路269號","TEL":"049-2243457","COUNTYNAME":"南投縣","TOWNNAME":"南投市","MARKTYPE":"992","Class":"2"},"geometry":{"x":120.6863311557572,"y":23.913265771927829}},{"attributes":{"OBJECTID":17000,"LANDMARKID":"1000800000393","LANDMARKCO":"203","LANDMARKNA":"縣立南投國小","LANDMARKAD":"1000801","ADDRESS":"南投縣南投市彰南路一段1059號","TEL":"049-2222038","COUNTYNAME":"南投縣","TOWNNAME":"南投市","MARKTYPE":"992","Class":"2"},"geometry":{"x":120.68395062936979,"y":23.905822455691347}}]}