{"displayFieldName":"COUNTYNAME","fieldAliases":{"OBJECTID":"OBJECTID","LANDMARKID":"LANDMARKID","LANDMARKCO":"LANDMARKCO","LANDMARKNA":"LANDMARKNA","LANDMARKAD":"LANDMARKAD","ADDRESS":"ADDRESS","TEL":"TEL","COUNTYNAME":"COUNTYNAME","TOWNNAME":"TOWNNAME","MARKTYPE":"MARKTYPE","Class":"Class"},"geometryType":"esriGeometryPoint","spatialReference":{"wkid":4326},"fields":[{"name":"OBJECTID","type":"esriFieldTypeOID","alias":"OBJECTID"},{"name":"LANDMARKID","type":"esriFieldTypeString","alias":"LANDMARKID","length":15},{"name":"LANDMARKCO","type":"esriFieldTypeString","alias":"LANDMARKCO","length":15},{"name":"LANDMARKNA","type":"esriFieldTypeString","alias":"LANDMARKNA","length":50},{"name":"LANDMARKAD","type":"esriFieldTypeString","alias":"LANDMARKAD","length":15},{"name":"ADDRESS","type":"esriFieldTypeString","alias":"ADDRESS","length":56},{"name":"TEL","type":"esriFieldTypeString","alias":"TEL","length":36},{"name":"COUNTYNAME","type":"esriFieldTypeString","alias":"COUNTYNAME","length":15},{"name":"TOWNNAME","type":"esriFieldTypeString","alias":"TOWNNAME","length":13},{"name":"MARKTYPE","type":"esriFieldTypeString","alias":"MARKTYPE","length":12},{"name":"Class","type":"esriFieldTypeString","alias":"Class","length":5}],"features":[{"attributes":{"OBJECTID":15801,"LANDMARKID":"1001300001304","LANDMARKCO":"603","LANDMARKNA":"大鵬灣大飯店","LANDMARKAD":"1001303","ADDRESS":"屏東縣東港鎮中山路59號","TEL":"08-8353222","COUNTYNAME":"屏東縣","TOWNNAME":"東港鎮","MARKTYPE":"996","Class":"6"},"geometry":{"x":120.4506666974018,"y":22.466306868902706}},{"attributes":{"OBJECTID":15802,"LANDMARKID":"1001300001305","LANDMARKCO":"603","LANDMARKNA":"勝友旅社","LANDMARKAD":"1001303","ADDRESS":"屏東縣東港鎮中正路56號","TEL":"08-8322119","COUNTYNAME":"屏東縣","TOWNNAME":"東港鎮","MARKTYPE":"996","Class":"6"},"geometry":{"x":120.44940564263051,"y":22.466036830300947}},{"attributes":{"OBJECTID":15803,"LANDMARKID":"1001300001306","LANDMARKCO":"603","LANDMARKNA":"華安旅社","LANDMARKAD":"1001303","ADDRESS":"屏東縣東港鎮中正路98號","TEL":"08-8322254","COUNTYNAME":"屏東縣","TOWNNAME":"東港鎮","MARKTYPE":"996","Class":"6"},"geometry":{"x":120.44994460124592,"y":22.466853275327441}},{"attributes":{"OBJECTID":15804,"LANDMARKID":"1001300001307","LANDMARKCO":"603","LANDMARKNA":"新東港旅社","LANDMARKAD":"1001303","ADDRESS":"屏東縣東港鎮延平路118-4號","TEL":"08-8322109","COUNTYNAME":"屏東縣","TOWNNAME":"東港鎮","MARKTYPE":"996","Class":"6"},"geometry":{"x":120.44745874868563,"y":22.466475075082997}},{"attributes":{"OBJECTID":15805,"LANDMARKID":"1001300001308","LANDMARKCO":"603","LANDMARKNA":"東之港汽車旅館","LANDMARKAD":"1001303","ADDRESS":"屏東縣東港鎮船頭里水源二街139號","TEL":"08-8352229","COUNTYNAME":"屏東縣","TOWNNAME":"東港鎮","MARKTYPE":"996","Class":"6"},"geometry":{"x":120.46200919663791,"y":22.467339214104314}},{"attributes":{"OBJECTID":15806,"LANDMARKID":"1001300001309","LANDMARKCO":"603","LANDMARKNA":"福大旅社","LANDMARKAD":"1001303","ADDRESS":"屏東縣東港鎮興台里延平路117號","TEL":"08-8323152","COUNTYNAME":"屏東縣","TOWNNAME":"東港鎮","MARKTYPE":"996","Class":"6"},"geometry":{"x":120.44845368927236,"y":22.467384963432551}},{"attributes":{"OBJECTID":15807,"LANDMARKID":"1001300001310","LANDMARKCO":"603","LANDMARKNA":"玉大曆汽車旅館 (東戀)","LANDMARKAD":"1001303","ADDRESS":"屏東縣東港鎮興東路501號1-2樓","TEL":"08-8334001","COUNTYNAME":"屏東縣","TOWNNAME":"東港鎮","MARKTYPE":"996","Class":"6"},"geometry":{"x":120.46673562606972,"y":22.473402952473442}},{"attributes":{"OBJECTID":15808,"LANDMARKID":"1001300001223","LANDMARKCO":"505","LANDMARKNA":"仁鵬海洋親水牧場","LANDMARKAD":"1001303","ADDRESS":"屏東縣東港鎮船頭路75之87號","TEL":"08-8322777","COUNTYNAME":"屏東縣","TOWNNAME":"東港鎮","MARKTYPE":"995","Class":"5"},"geometry":{"x":120.4726718210929,"y":22.459499746420313}},{"attributes":{"OBJECTID":15809,"LANDMARKID":"1001300001274","LANDMARKCO":"511","LANDMARKNA":"東港夜市","LANDMARKAD":"1001303","ADDRESS":"屏東縣東港鎮","TEL":" ","COUNTYNAME":"屏東縣","TOWNNAME":"東港鎮","MARKTYPE":"995","Class":"5"},"geometry":{"x":120.45854435447229,"y":22.472522186066076}},{"attributes":{"OBJECTID":15810,"LANDMARKID":"1001300001193","LANDMARKCO":"503","LANDMARKNA":"青洲遊憩區","LANDMARKAD":"1001303","ADDRESS":"屏東縣東港鎮","TEL":" ","COUNTYNAME":"屏東縣","TOWNNAME":"東港鎮","MARKTYPE":"995","Class":"5"},"geometry":{"x":120.45598923665084,"y":22.446117361695737}},{"attributes":{"OBJECTID":15811,"LANDMARKID":"1001300001194","LANDMARKCO":"503","LANDMARKNA":"大鵬灣風景區","LANDMARKAD":"1001303","ADDRESS":"屏東縣東港鎮港鎮大鵬里大潭路169號","TEL":"08-8338100","COUNTYNAME":"屏東縣","TOWNNAME":"東港鎮","MARKTYPE":"995","Class":"5"},"geometry":{"x":120.47917999450115,"y":22.454230415337765}},{"attributes":{"OBJECTID":15812,"LANDMARKID":"1001300000936","LANDMARKCO":"405","LANDMARKNA":"中油加油站-林邊站","LANDMARKAD":"1001319","ADDRESS":"屏東縣林邊鄉鎮安村中山路585號","TEL":"08-8756997","COUNTYNAME":"屏東縣","TOWNNAME":"林邊鄉","MARKTYPE":"994","Class":"4"},"geometry":{"x":120.50345763268827,"y":22.447691287684059}},{"attributes":{"OBJECTID":15813,"LANDMARKID":"1001300001130","LANDMARKCO":"408","LANDMARKNA":"郵局-林邊郵局","LANDMARKAD":"1001319","ADDRESS":"屏東縣林邊鄉中林村中山路116號","TEL":"(08)8752-152","COUNTYNAME":"屏東縣","TOWNNAME":"林邊鄉","MARKTYPE":"994","Class":"4"},"geometry":{"x":120.51622120154308,"y":22.433738493885361}},{"attributes":{"OBJECTID":15814,"LANDMARKID":"1001300001170","LANDMARKCO":"409","LANDMARKNA":"屏東縣林邊鄉農會","LANDMARKAD":"1001319","ADDRESS":"屏東縣林邊鄉仁和村中山路303號","TEL":"08-8752811","COUNTYNAME":"屏東縣","TOWNNAME":"林邊鄉","MARKTYPE":"994","Class":"4"},"geometry":{"x":120.51390707822939,"y":22.435521769774272}},{"attributes":{"OBJECTID":15815,"LANDMARKID":"1001300001171","LANDMARKCO":"409","LANDMARKNA":"林邊區漁會","LANDMARKAD":"1001319","ADDRESS":"屏東縣林邊鄉仁愛路82號","TEL":"08-875-2023","COUNTYNAME":"屏東縣","TOWNNAME":"林邊鄉","MARKTYPE":"994","Class":"4"},"geometry":{"x":120.51533075553414,"y":22.43228818459195}},{"attributes":{"OBJECTID":15816,"LANDMARKID":"1001300001072","LANDMARKCO":"406","LANDMARKNA":"林邊運動公園","LANDMARKAD":"1001319","ADDRESS":"屏東縣林邊鄉","TEL":" ","COUNTYNAME":"屏東縣","TOWNNAME":"林邊鄉","MARKTYPE":"994","Class":"4"},"geometry":{"x":120.50694177188571,"y":22.43222068806395}},{"attributes":{"OBJECTID":15817,"LANDMARKID":"1001300001073","LANDMARKCO":"406","LANDMARKNA":"親林公園","LANDMARKAD":"1001319","ADDRESS":"屏東縣林邊鄉","TEL":" ","COUNTYNAME":"屏東縣","TOWNNAME":"林邊鄉","MARKTYPE":"994","Class":"4"},"geometry":{"x":120.52259488361597,"y":22.440475631972411}},{"attributes":{"OBJECTID":15818,"LANDMARKID":"1001300000920","LANDMARKCO":"405","LANDMARKNA":"福懋加油站-林邊站(台塑)","LANDMARKAD":"1001319","ADDRESS":"屏東縣林邊鄉鎮安村中山路530號","TEL":"08-8755449","COUNTYNAME":"屏東縣","TOWNNAME":"林邊鄉","MARKTYPE":"994","Class":"4"},"geometry":{"x":120.5082718729423,"y":22.442835328277035}},{"attributes":{"OBJECTID":15819,"LANDMARKID":"1001300000921","LANDMARKCO":"405","LANDMARKNA":"台亞加油站-林邊交流道站（台塑）","LANDMARKAD":"1001319","ADDRESS":"屏東縣林邊鄉中山路487號","TEL":"(08)875-8087","COUNTYNAME":"屏東縣","TOWNNAME":"林邊鄉","MARKTYPE":"994","Class":"4"},"geometry":{"x":120.50885456264379,"y":22.441475706976544}},{"attributes":{"OBJECTID":15820,"LANDMARKID":"1001300000144","LANDMARKCO":"106","LANDMARKNA":"屏東縣林邊鄉戶政事務所","LANDMARKAD":"1001319","ADDRESS":"屏東縣林邊鄉光林村8鄰中林路36號之5","TEL":"08-8752044","COUNTYNAME":"屏東縣","TOWNNAME":"林邊鄉","MARKTYPE":"991","Class":"1"},"geometry":{"x":120.5163774167242,"y":22.432653451297689}},{"attributes":{"OBJECTID":15821,"LANDMARKID":"1001300000220","LANDMARKCO":"107","LANDMARKNA":"屏東縣消防局林邊消防分隊","LANDMARKAD":"1001319","ADDRESS":"屏東縣林邊鄉中林村美華路197號之64","TEL":"08-8752119","COUNTYNAME":"屏東縣","TOWNNAME":"林邊鄉","MARKTYPE":"991","Class":"1"},"geometry":{"x":120.51828430057223,"y":22.439249232332312}},{"attributes":{"OBJECTID":15822,"LANDMARKID":"1001300000221","LANDMARKCO":"107","LANDMARKNA":"屏東縣警察局林邊分駐所","LANDMARKAD":"1001319","ADDRESS":"屏東縣林邊鄉光林村中山路185號","TEL":"08-8752018","COUNTYNAME":"屏東縣","TOWNNAME":"林邊鄉","MARKTYPE":"991","Class":"1"},"geometry":{"x":120.51663782960901,"y":22.432925948319127}},{"attributes":{"OBJECTID":15823,"LANDMARKID":"1001300000042","LANDMARKCO":"103","LANDMARKNA":"屏東縣林邊鄉衛生所","LANDMARKAD":"1001319","ADDRESS":"屏東縣林邊鄉仁和村中山路305號","TEL":"08-8752076","COUNTYNAME":"屏東縣","TOWNNAME":"林邊鄉","MARKTYPE":"991","Class":"1"},"geometry":{"x":120.51357763399895,"y":22.435715612931354}},{"attributes":{"OBJECTID":15824,"LANDMARKID":"1001300000043","LANDMARKCO":"103","LANDMARKNA":"屏東縣林邊鄉鄉民代表會","LANDMARKAD":"1001319","ADDRESS":"屏東縣林邊鄉中山路279號","TEL":"08-8754144","COUNTYNAME":"屏東縣","TOWNNAME":"林邊鄉","MARKTYPE":"991","Class":"1"},"geometry":{"x":120.51430157420029,"y":22.434989086162997}},{"attributes":{"OBJECTID":15825,"LANDMARKID":"1001300000321","LANDMARKCO":"108","LANDMARKNA":"屏東縣林邊鄉公所","LANDMARKAD":"1001319","ADDRESS":"屏東縣林邊鄉仁和村中山路279號","TEL":"08-8755123","COUNTYNAME":"屏東縣","TOWNNAME":"林邊鄉","MARKTYPE":"991","Class":"1"},"geometry":{"x":120.51430157420029,"y":22.434989086162997}},{"attributes":{"OBJECTID":15826,"LANDMARKID":"1001300000661","LANDMARKCO":"204","LANDMARKNA":"屏東縣立圖書館林邊分館","LANDMARKAD":"1001319","ADDRESS":"屏東縣林邊鄉永樂村美華路197之63號","TEL":" ","COUNTYNAME":"屏東縣","TOWNNAME":"林邊鄉","MARKTYPE":"992","Class":"2"},"geometry":{"x":120.51630991791724,"y":22.433187527319866}},{"attributes":{"OBJECTID":15827,"LANDMARKID":"1001300000412","LANDMARKCO":"203","LANDMARKNA":"縣立林邊國中","LANDMARKAD":"1001319","ADDRESS":"屏東縣林邊鄉光林村和平路43號","TEL":"08-8752051","COUNTYNAME":"屏東縣","TOWNNAME":"林邊鄉","MARKTYPE":"992","Class":"2"},"geometry":{"x":120.51046177662506,"y":22.432544311276583}},{"attributes":{"OBJECTID":15828,"LANDMARKID":"1001300000413","LANDMARKCO":"203","LANDMARKNA":"縣立仁和國小","LANDMARKAD":"1001319","ADDRESS":"屏東縣林邊鄉仁和村中山路417號","TEL":"08-8752201","COUNTYNAME":"屏東縣","TOWNNAME":"林邊鄉","MARKTYPE":"992","Class":"2"},"geometry":{"x":120.51137012426784,"y":22.437418189051929}},{"attributes":{"OBJECTID":15829,"LANDMARKID":"1001300000414","LANDMARKCO":"203","LANDMARKNA":"縣立林邊國小","LANDMARKAD":"1001319","ADDRESS":"屏東縣林邊鄉林邊村中山路68號","TEL":"08-8752120","COUNTYNAME":"屏東縣","TOWNNAME":"林邊鄉","MARKTYPE":"992","Class":"2"},"geometry":{"x":120.51900173123738,"y":22.432480163263932}},{"attributes":{"OBJECTID":15830,"LANDMARKID":"1001300000415","LANDMARKCO":"203","LANDMARKNA":"縣立竹林國小","LANDMARKAD":"1001319","ADDRESS":"屏東縣林邊鄉竹林村中興路122號","TEL":"08-8752884","COUNTYNAME":"屏東縣","TOWNNAME":"林邊鄉","MARKTYPE":"992","Class":"2"},"geometry":{"x":120.53317336611195,"y":22.46404105474674}},{"attributes":{"OBJECTID":15831,"LANDMARKID":"1001300000416","LANDMARKCO":"203","LANDMARKNA":"縣立崎峰國小","LANDMARKAD":"1001319","ADDRESS":"屏東縣林邊鄉崎峰村裕後路2號","TEL":"08-8752400","COUNTYNAME":"屏東縣","TOWNNAME":"林邊鄉","MARKTYPE":"992","Class":"2"},"geometry":{"x":120.49356460973486,"y":22.426169908111149}},{"attributes":{"OBJECTID":15832,"LANDMARKID":"1001300000417","LANDMARKCO":"203","LANDMARKNA":"縣立水利國小","LANDMARKAD":"1001319","ADDRESS":"屏東縣林邊鄉水利村豐漁路117號","TEL":"08-8752745","COUNTYNAME":"屏東縣","TOWNNAME":"林邊鄉","MARKTYPE":"992","Class":"2"},"geometry":{"x":120.50480289707579,"y":22.419063640309108}},{"attributes":{"OBJECTID":15833,"LANDMARKID":"1001300000796","LANDMARKCO":"308","LANDMARKNA":"國3-林邊端-北上","LANDMARKAD":"1001319","ADDRESS":"屏東縣林邊鄉","TEL":" ","COUNTYNAME":"屏東縣","TOWNNAME":"林邊鄉","MARKTYPE":"993","Class":"308"},"geometry":{"x":120.50683709303712,"y":22.445876129156488}},{"attributes":{"OBJECTID":15834,"LANDMARKID":"1001300000797","LANDMARKCO":"308","LANDMARKNA":"國3-林邊端-南下","LANDMARKAD":"1001319","ADDRESS":"屏東縣林邊鄉","TEL":" ","COUNTYNAME":"屏東縣","TOWNNAME":"林邊鄉","MARKTYPE":"993","Class":"308"},"geometry":{"x":120.50440067327428,"y":22.444450485201244}},{"attributes":{"OBJECTID":15835,"LANDMARKID":"1001300000693","LANDMARKCO":"301","LANDMARKNA":"鎮安火車站","LANDMARKAD":"1001319","ADDRESS":"屏東縣林邊鄉","TEL":" ","COUNTYNAME":"屏東縣","TOWNNAME":"林邊鄉","MARKTYPE":"993","Class":"301"},"geometry":{"x":120.5112461168824,"y":22.456826038317594}},{"attributes":{"OBJECTID":15836,"LANDMARKID":"1001300000694","LANDMARKCO":"301","LANDMARKNA":"林邊火車站","LANDMARKAD":"1001319","ADDRESS":"屏東縣林邊鄉仁和村仁愛路33號","TEL":"08-8751475","COUNTYNAME":"屏東縣","TOWNNAME":"林邊鄉","MARKTYPE":"993","Class":"301"},"geometry":{"x":120.51571385981399,"y":22.431487896188784}},{"attributes":{"OBJECTID":15837,"LANDMARKID":"1001300000851","LANDMARKCO":"402","LANDMARKNA":"中華電信-林邊服務中心","LANDMARKAD":"1001319","ADDRESS":"屏東縣林邊鄉中山路70號","TEL":"(08)844-3112","COUNTYNAME":"屏東縣","TOWNNAME":"林邊鄉","MARKTYPE":"994","Class":"4"},"geometry":{"x":120.51790879805405,"y":22.432746841125883}},{"attributes":{"OBJECTID":15838,"LANDMARKID":"1001300001302","LANDMARKCO":"603","LANDMARKNA":"愛之旅汽車旅館","LANDMARKAD":"1001319","ADDRESS":"屏東縣林邊鄉仁和村中山路457號","TEL":"08-8750755","COUNTYNAME":"屏東縣","TOWNNAME":"林邊鄉","MARKTYPE":"996","Class":"6"},"geometry":{"x":120.50912943415457,"y":22.440666502792787}},{"attributes":{"OBJECTID":15839,"LANDMARKID":"1001300000918","LANDMARKCO":"405","LANDMARKNA":"中油加油站-佳冬站 (中油直營)","LANDMARKAD":"1001321","ADDRESS":"屏東縣佳冬鄉六根村佳和路145號","TEL":"08-8662004","COUNTYNAME":"屏東縣","TOWNNAME":"佳冬鄉","MARKTYPE":"994","Class":"4"},"geometry":{"x":120.54415864081224,"y":22.417290462336755}},{"attributes":{"OBJECTID":15840,"LANDMARKID":"1001300000919","LANDMARKCO":"405","LANDMARKNA":"中油加油站-川流站","LANDMARKAD":"1001321","ADDRESS":"屏東縣佳冬鄉昌隆村大豐路786號","TEL":"08-8666986","COUNTYNAME":"屏東縣","TOWNNAME":"佳冬鄉","MARKTYPE":"994","Class":"4"},"geometry":{"x":120.5586474942853,"y":22.447217774426271}},{"attributes":{"OBJECTID":15841,"LANDMARKID":"1001300001246","LANDMARKCO":"507","LANDMARKNA":"佳冬楊氏宗祠","LANDMARKAD":"1001321","ADDRESS":"屏東縣佳冬鄉六根村冬根路19之30號","TEL":" ","COUNTYNAME":"屏東縣","TOWNNAME":"佳冬鄉","MARKTYPE":"995","Class":"5"},"geometry":{"x":120.54814929111427,"y":22.420256950148861}},{"attributes":{"OBJECTID":15842,"LANDMARKID":"1001300001247","LANDMARKCO":"507","LANDMARKNA":"佳冬蕭宅","LANDMARKAD":"1001321","ADDRESS":"屏東縣佳冬鄉佳冬村溝堵路1號","TEL":" ","COUNTYNAME":"屏東縣","TOWNNAME":"佳冬鄉","MARKTYPE":"995","Class":"5"},"geometry":{"x":120.5504359610825,"y":22.418194917088783}},{"attributes":{"OBJECTID":15843,"LANDMARKID":"1001300001248","LANDMARKCO":"507","LANDMARKNA":"茄冬西隘門","LANDMARKAD":"1001321","ADDRESS":"屏東縣佳冬鄉六根村冬根路上","TEL":" ","COUNTYNAME":"屏東縣","TOWNNAME":"佳冬鄉","MARKTYPE":"995","Class":"5"},"geometry":{"x":120.54818430677625,"y":22.418331621475023}},{"attributes":{"OBJECTID":15844,"LANDMARKID":"1001300001243","LANDMARKCO":"506","LANDMARKNA":"蓮霧觀光果園","LANDMARKAD":"1001321","ADDRESS":"屏東縣佳冬鄉佳冬村佳和路64號","TEL":"08-8662811","COUNTYNAME":"屏東縣","TOWNNAME":"佳冬鄉","MARKTYPE":"995","Class":"5"},"geometry":{"x":120.55080337925787,"y":22.420884565912175}},{"attributes":{"OBJECTID":15845,"LANDMARKID":"1001300001147","LANDMARKCO":"408","LANDMARKNA":"郵局-佳冬郵局","LANDMARKAD":"1001321","ADDRESS":"屏東縣佳冬鄉佳冬村佳和路86號","TEL":"(08)8662-047","COUNTYNAME":"屏東縣","TOWNNAME":"佳冬鄉","MARKTYPE":"994","Class":"4"},"geometry":{"x":120.55188706555947,"y":22.414422576605439}},{"attributes":{"OBJECTID":15846,"LANDMARKID":"1001300001162","LANDMARKCO":"409","LANDMARKNA":"屏東縣佳冬鄉農會","LANDMARKAD":"1001321","ADDRESS":"屏東縣佳冬鄉佳冬村佳和路64號","TEL":"08-8660012","COUNTYNAME":"屏東縣","TOWNNAME":"佳冬鄉","MARKTYPE":"994","Class":"4"},"geometry":{"x":120.55363796958356,"y":22.413719444439188}},{"attributes":{"OBJECTID":15847,"LANDMARKID":"1001300001074","LANDMARKCO":"406","LANDMARKNA":"大翔公園","LANDMARKAD":"1001321","ADDRESS":"屏東縣佳冬鄉","TEL":" ","COUNTYNAME":"屏東縣","TOWNNAME":"佳冬鄉","MARKTYPE":"994","Class":"4"},"geometry":{"x":120.56427308467754,"y":22.434185068593081}},{"attributes":{"OBJECTID":15848,"LANDMARKID":"1001300001075","LANDMARKCO":"406","LANDMARKNA":"佳冬公園","LANDMARKAD":"1001321","ADDRESS":"屏東縣佳冬鄉","TEL":" ","COUNTYNAME":"屏東縣","TOWNNAME":"佳冬鄉","MARKTYPE":"994","Class":"4"},"geometry":{"x":120.54631283308686,"y":22.417560928301818}},{"attributes":{"OBJECTID":15849,"LANDMARKID":"1001300000145","LANDMARKCO":"106","LANDMARKNA":"屏東縣佳冬鄉戶政事務所","LANDMARKAD":"1001321","ADDRESS":"屏東縣佳冬鄉六根村21鄰佳和路89號","TEL":"08-8662037","COUNTYNAME":"屏東縣","TOWNNAME":"佳冬鄉","MARKTYPE":"991","Class":"1"},"geometry":{"x":120.54960548679055,"y":22.414776644825999}},{"attributes":{"OBJECTID":15850,"LANDMARKID":"1001300000216","LANDMARKCO":"107","LANDMARKNA":"屏東縣消防局佳冬消防分隊","LANDMARKAD":"1001321","ADDRESS":"屏東縣佳冬鄉佳冬村文化三路155號","TEL":"08-8662119","COUNTYNAME":"屏東縣","TOWNNAME":"佳冬鄉","MARKTYPE":"991","Class":"1"},"geometry":{"x":120.55301489310595,"y":22.416315423513367}},{"attributes":{"OBJECTID":15851,"LANDMARKID":"1001300000217","LANDMARKCO":"107","LANDMARKNA":"屏東縣警察局佳冬分駐所","LANDMARKAD":"1001321","ADDRESS":"屏東縣佳冬鄉六根村佳和路89號","TEL":"08-8662089","COUNTYNAME":"屏東縣","TOWNNAME":"佳冬鄉","MARKTYPE":"991","Class":"1"},"geometry":{"x":120.54960548679055,"y":22.414776644825999}},{"attributes":{"OBJECTID":15852,"LANDMARKID":"1001300000218","LANDMARKCO":"107","LANDMARKNA":"屏東縣警察局昌隆派出所","LANDMARKAD":"1001321","ADDRESS":"屏東縣佳冬鄉昌隆村中正路16號","TEL":"08-8662344","COUNTYNAME":"屏東縣","TOWNNAME":"佳冬鄉","MARKTYPE":"991","Class":"1"},"geometry":{"x":120.56120698980926,"y":22.44794662630601}},{"attributes":{"OBJECTID":15853,"LANDMARKID":"1001300000219","LANDMARKCO":"107","LANDMARKNA":"屏東縣警察局石光派出所","LANDMARKAD":"1001321","ADDRESS":"屏東縣佳冬鄉石光村中山路200號","TEL":"08-8662034","COUNTYNAME":"屏東縣","TOWNNAME":"佳冬鄉","MARKTYPE":"991","Class":"1"},"geometry":{"x":120.56324479362914,"y":22.43811370354442}},{"attributes":{"OBJECTID":15854,"LANDMARKID":"1001300000044","LANDMARKCO":"103","LANDMARKNA":"屏東縣佳冬鄉衛生所","LANDMARKAD":"1001321","ADDRESS":"屏東縣佳冬鄉六根村佳和路87之1號","TEL":"08-8662018","COUNTYNAME":"屏東縣","TOWNNAME":"佳冬鄉","MARKTYPE":"991","Class":"1"},"geometry":{"x":120.54957984167716,"y":22.414234624690561}},{"attributes":{"OBJECTID":15855,"LANDMARKID":"1001300000045","LANDMARKCO":"103","LANDMARKNA":"屏東縣佳冬鄉民代表會","LANDMARKAD":"1001321","ADDRESS":"屏東縣佳冬鄉佳冬村佳昌路2號","TEL":"08-8662045","COUNTYNAME":"屏東縣","TOWNNAME":"佳冬鄉","MARKTYPE":"991","Class":"1"},"geometry":{"x":120.55238359051182,"y":22.419209625169856}},{"attributes":{"OBJECTID":15856,"LANDMARKID":"1001300000319","LANDMARKCO":"108","LANDMARKNA":"屏東縣佳冬鄉公所","LANDMARKAD":"1001321","ADDRESS":"屏東縣佳冬鄉佳冬村佳昌路２號","TEL":"08-8662714","COUNTYNAME":"屏東縣","TOWNNAME":"佳冬鄉","MARKTYPE":"991","Class":"1"},"geometry":{"x":120.55238359051182,"y":22.419209625169856}},{"attributes":{"OBJECTID":15857,"LANDMARKID":"1001300000663","LANDMARKCO":"204","LANDMARKNA":"屏東縣立圖書館佳冬分館","LANDMARKAD":"1001321","ADDRESS":"屏東縣佳冬鄉六根村東鎮路1號","TEL":" ","COUNTYNAME":"屏東縣","TOWNNAME":"佳冬鄉","MARKTYPE":"992","Class":"2"},"geometry":{"x":120.55303821020449,"y":22.418676926824727}},{"attributes":{"OBJECTID":15858,"LANDMARKID":"1001300000371","LANDMARKCO":"202","LANDMARKNA":"國立佳冬高農","LANDMARKAD":"1001321","ADDRESS":"屏東縣佳冬鄉佳冬村佳農街67號","TEL":"08-8662726","COUNTYNAME":"屏東縣","TOWNNAME":"佳冬鄉","MARKTYPE":"992","Class":"2"},"geometry":{"x":120.56403835500578,"y":22.413635923639379}},{"attributes":{"OBJECTID":15859,"LANDMARKID":"1001300000400","LANDMARKCO":"203","LANDMARKNA":"縣立佳冬國中","LANDMARKAD":"1001321","ADDRESS":"屏東縣佳冬鄉玉光村大同路1號","TEL":"08-8662041","COUNTYNAME":"屏東縣","TOWNNAME":"佳冬鄉","MARKTYPE":"992","Class":"2"},"geometry":{"x":120.56675689153154,"y":22.428454234852509}},{"attributes":{"OBJECTID":15860,"LANDMARKID":"1001300000401","LANDMARKCO":"203","LANDMARKNA":"縣立昌隆國小","LANDMARKAD":"1001321","ADDRESS":"屏東縣佳冬鄉昌隆村中正路44號","TEL":"08-8662093","COUNTYNAME":"屏東縣","TOWNNAME":"佳冬鄉","MARKTYPE":"992","Class":"2"},"geometry":{"x":120.56085642518045,"y":22.446687945044648}},{"attributes":{"OBJECTID":15861,"LANDMARKID":"1001300000402","LANDMARKCO":"203","LANDMARKNA":"縣立塭子國小","LANDMARKAD":"1001321","ADDRESS":"屏東縣佳冬鄉塭豐村中興路1號","TEL":"08-8662094","COUNTYNAME":"屏東縣","TOWNNAME":"佳冬鄉","MARKTYPE":"992","Class":"2"},"geometry":{"x":120.52590147995312,"y":22.409557061866987}},{"attributes":{"OBJECTID":15862,"LANDMARKID":"1001300000403","LANDMARKCO":"203","LANDMARKNA":"縣立大新國小","LANDMARKAD":"1001321","ADDRESS":"屏東縣佳冬鄉大同村武丁路33號","TEL":"08-8662175","COUNTYNAME":"屏東縣","TOWNNAME":"佳冬鄉","MARKTYPE":"992","Class":"2"},"geometry":{"x":120.5376461377834,"y":22.45077497346962}},{"attributes":{"OBJECTID":15863,"LANDMARKID":"1001300000404","LANDMARKCO":"203","LANDMARKNA":"縣立羌園國小","LANDMARKAD":"1001321","ADDRESS":"屏東縣佳冬鄉羌園村羌光路669號","TEL":"08-8662474","COUNTYNAME":"屏東縣","TOWNNAME":"佳冬鄉","MARKTYPE":"992","Class":"2"},"geometry":{"x":120.52636381711311,"y":22.427080260160274}},{"attributes":{"OBJECTID":15864,"LANDMARKID":"1001300000405","LANDMARKCO":"203","LANDMARKNA":"縣立佳冬國小","LANDMARKAD":"1001321","ADDRESS":"屏東縣佳冬鄉進學街150號","TEL":"08-8662009","COUNTYNAME":"屏東縣","TOWNNAME":"佳冬鄉","MARKTYPE":"992","Class":"2"},"geometry":{"x":120.55182028217963,"y":22.422096485910995}},{"attributes":{"OBJECTID":15865,"LANDMARKID":"1001300000406","LANDMARKCO":"203","LANDMARKNA":"縣立玉光國小","LANDMARKAD":"1001321","ADDRESS":"屏東縣佳冬鄉玉光村民學路81號","TEL":"08-8662629","COUNTYNAME":"屏東縣","TOWNNAME":"佳冬鄉","MARKTYPE":"992","Class":"2"},"geometry":{"x":120.56518521910913,"y":22.426737345465263}},{"attributes":{"OBJECTID":15866,"LANDMARKID":"1001300000692","LANDMARKCO":"301","LANDMARKNA":"佳冬火車站","LANDMARKAD":"1001321","ADDRESS":"屏東縣佳冬鄉六根村復興路21號","TEL":"08-8662939","COUNTYNAME":"屏東縣","TOWNNAME":"佳冬鄉","MARKTYPE":"993","Class":"301"},"geometry":{"x":120.54775492723829,"y":22.413981297624815}},{"attributes":{"OBJECTID":15867,"LANDMARKID":"1001300000852","LANDMARKCO":"402","LANDMARKNA":"中華電信-佳冬服務中心","LANDMARKAD":"1001321","ADDRESS":"屏東縣佳冬鄉佳和路130號","TEL":"(08)844-2444","COUNTYNAME":"屏東縣","TOWNNAME":"佳冬鄉","MARKTYPE":"994","Class":"4"},"geometry":{"x":120.5466976291758,"y":22.41630576564566}},{"attributes":{"OBJECTID":15868,"LANDMARKID":"1001300001146","LANDMARKCO":"408","LANDMARKNA":"郵局-春日郵局","LANDMARKAD":"1001331","ADDRESS":"屏東縣春日鄉春日路13號","TEL":"(08)8786-375","COUNTYNAME":"屏東縣","TOWNNAME":"春日鄉","MARKTYPE":"994","Class":"4"},"geometry":{"x":120.626712106395,"y":22.370905021534806}},{"attributes":{"OBJECTID":15869,"LANDMARKID":"1001300000225","LANDMARKCO":"107","LANDMARKNA":"屏東縣警察局春日分駐所","LANDMARKAD":"1001331","ADDRESS":"屏東縣春日鄉春日村春日路316號","TEL":"08-8785180","COUNTYNAME":"屏東縣","TOWNNAME":"春日鄉","MARKTYPE":"991","Class":"1"},"geometry":{"x":120.62723185869982,"y":22.370712767840409}},{"attributes":{"OBJECTID":15870,"LANDMARKID":"1001300000143","LANDMARKCO":"106","LANDMARKNA":"屏東縣春日鄉戶政事務所","LANDMARKAD":"1001331","ADDRESS":"屏東縣春日鄉春日村1鄰春日路29號","TEL":"08-8781613","COUNTYNAME":"屏東縣","TOWNNAME":"春日鄉","MARKTYPE":"991","Class":"1"},"geometry":{"x":120.6274770690747,"y":22.371079667596881}},{"attributes":{"OBJECTID":15871,"LANDMARKID":"1001300000222","LANDMARKCO":"107","LANDMARKNA":"屏東縣警察局古華派出所","LANDMARKAD":"1001331","ADDRESS":"屏東縣春日鄉古華村古華路2巷18號","TEL":"08-8786940","COUNTYNAME":"屏東縣","TOWNNAME":"春日鄉","MARKTYPE":"991","Class":"1"},"geometry":{"x":120.62891546892601,"y":22.359790715374569}},{"attributes":{"OBJECTID":15872,"LANDMARKID":"1001300000223","LANDMARKCO":"107","LANDMARKNA":"屏東縣警察局士文派出所","LANDMARKAD":"1001331","ADDRESS":"屏東縣春日鄉士文村士文路64號","TEL":"08-8790020","COUNTYNAME":"屏東縣","TOWNNAME":"春日鄉","MARKTYPE":"991","Class":"1"},"geometry":{"x":120.66384078502287,"y":22.368269218018728}},{"attributes":{"OBJECTID":15873,"LANDMARKID":"1001300000224","LANDMARKCO":"107","LANDMARKNA":"屏東縣警察局歸崇派出所","LANDMARKAD":"1001331","ADDRESS":"屏東縣春日鄉歸崇村玉光路6號","TEL":"08-8791104","COUNTYNAME":"屏東縣","TOWNNAME":"春日鄉","MARKTYPE":"991","Class":"1"},"geometry":{"x":120.63080517637133,"y":22.428433024359794}},{"attributes":{"OBJECTID":15874,"LANDMARKID":"1001300000046","LANDMARKCO":"103","LANDMARKNA":"屏東縣春日鄉鄉民代表會","LANDMARKAD":"1001331","ADDRESS":"屏東縣春日鄉春日路322號","TEL":"08-8781970","COUNTYNAME":"屏東縣","TOWNNAME":"春日鄉","MARKTYPE":"991","Class":"1"},"geometry":{"x":120.62934305317279,"y":22.370810882619669}},{"attributes":{"OBJECTID":15875,"LANDMARKID":"1001300000047","LANDMARKCO":"103","LANDMARKNA":"屏東縣春日鄉衛生所","LANDMARKAD":"1001331","ADDRESS":"屏東縣春日鄉春日村176號","TEL":"08-8782297","COUNTYNAME":"屏東縣","TOWNNAME":"春日鄉","MARKTYPE":"991","Class":"1"},"geometry":{"x":120.64661885285338,"y":22.43433614017772}},{"attributes":{"OBJECTID":15876,"LANDMARKID":"1001300000320","LANDMARKCO":"108","LANDMARKNA":"屏東縣春日鄉公所","LANDMARKAD":"1001331","ADDRESS":"屏東縣春日鄉春日村322號","TEL":"08-8782145","COUNTYNAME":"屏東縣","TOWNNAME":"春日鄉","MARKTYPE":"991","Class":"1"},"geometry":{"x":120.62869764667151,"y":22.37080340835568}},{"attributes":{"OBJECTID":15877,"LANDMARKID":"1001300000662","LANDMARKCO":"204","LANDMARKNA":"屏東縣立圖書館春日分館","LANDMARKAD":"1001331","ADDRESS":"屏東縣春日鄉春日村春日路322號","TEL":" ","COUNTYNAME":"屏東縣","TOWNNAME":"春日鄉","MARKTYPE":"992","Class":"2"},"geometry":{"x":120.62939003716922,"y":22.371285785188618}},{"attributes":{"OBJECTID":15878,"LANDMARKID":"1001300000407","LANDMARKCO":"203","LANDMARKNA":"縣立古華國小","LANDMARKAD":"1001331","ADDRESS":"屏東縣春日鄉古華村古華路3巷63號","TEL":"08-8781040","COUNTYNAME":"屏東縣","TOWNNAME":"春日鄉","MARKTYPE":"992","Class":"2"},"geometry":{"x":120.62598613508089,"y":22.361048037925407}},{"attributes":{"OBJECTID":15879,"LANDMARKID":"1001300000408","LANDMARKCO":"203","LANDMARKNA":"縣立春日國小","LANDMARKAD":"1001331","ADDRESS":"屏東縣春日鄉春日村春日路314號","TEL":"08-8782433","COUNTYNAME":"屏東縣","TOWNNAME":"春日鄉","MARKTYPE":"992","Class":"2"},"geometry":{"x":120.62701530440975,"y":22.370264717885416}},{"attributes":{"OBJECTID":15880,"LANDMARKID":"1001300000409","LANDMARKCO":"203","LANDMARKNA":"縣立春日國中","LANDMARKAD":"1001331","ADDRESS":"屏東縣春日鄉","TEL":" ","COUNTYNAME":"屏東縣","TOWNNAME":"春日鄉","MARKTYPE":"992","Class":"2"},"geometry":{"x":120.62569788423338,"y":22.367454413012737}},{"attributes":{"OBJECTID":15881,"LANDMARKID":"1001300000410","LANDMARKCO":"203","LANDMARKNA":"縣立力里國小圓山分校","LANDMARKAD":"1001331","ADDRESS":"屏東縣春日鄉力里村27號","TEL":"08-8791664","COUNTYNAME":"屏東縣","TOWNNAME":"春日鄉","MARKTYPE":"992","Class":"2"},"geometry":{"x":120.64791211783184,"y":22.432710078744076}},{"attributes":{"OBJECTID":15882,"LANDMARKID":"1001300000411","LANDMARKCO":"203","LANDMARKNA":"縣立古華國小士文分校","LANDMARKAD":"1001331","ADDRESS":"屏東縣春日鄉","TEL":" ","COUNTYNAME":"屏東縣","TOWNNAME":"春日鄉","MARKTYPE":"992","Class":"2"},"geometry":{"x":120.66350246390324,"y":22.368895494000537}},{"attributes":{"OBJECTID":15883,"LANDMARKID":"1001300000914","LANDMARKCO":"405","LANDMARKNA":"中油加油站-枋寮站(中油直營)","LANDMARKAD":"1001316","ADDRESS":"屏東縣枋寮鄉新龍村中山路319號","TEL":"08-8782060","COUNTYNAME":"屏東縣","TOWNNAME":"枋寮鄉","MARKTYPE":"994","Class":"4"},"geometry":{"x":120.59234602931825,"y":22.370720577505185}},{"attributes":{"OBJECTID":15884,"LANDMARKID":"1001300000915","LANDMARKCO":"405","LANDMARKNA":"中油加油站-水底寮站","LANDMARKAD":"1001316","ADDRESS":"屏東縣枋寮鄉中正大路662號","TEL":"08-8710145","COUNTYNAME":"屏東縣","TOWNNAME":"枋寮鄉","MARKTYPE":"994","Class":"4"},"geometry":{"x":120.60191712584593,"y":22.374450242250262}},{"attributes":{"OBJECTID":15885,"LANDMARKID":"1001300000916","LANDMARKCO":"405","LANDMARKNA":"中油加油站-東龍站","LANDMARKAD":"1001316","ADDRESS":"屏東縣枋寮鄉東海村臨海路403號","TEL":"08-8716096","COUNTYNAME":"屏東縣","TOWNNAME":"枋寮鄉","MARKTYPE":"994","Class":"4"},"geometry":{"x":120.58881180729981,"y":22.394509937154744}},{"attributes":{"OBJECTID":15886,"LANDMARKID":"1001300000917","LANDMARKCO":"405","LANDMARKNA":"千越加油站-枋寮站(中油)","LANDMARKAD":"1001316","ADDRESS":"屏東縣枋寮鄉中山路二段66號","TEL":"08-871-1212","COUNTYNAME":"屏東縣","TOWNNAME":"枋寮鄉","MARKTYPE":"994","Class":"4"},"geometry":{"x":120.59671587115761,"y":22.379947543245891}},{"attributes":{"OBJECTID":15887,"LANDMARKID":"1001300000849","LANDMARKCO":"402","LANDMARKNA":"亞太行動寬頻電信-屏東枋寮加盟服務中心","LANDMARKAD":"1001316","ADDRESS":"屏東縣枋寮鄉中山路127號","TEL":"08-8788358","COUNTYNAME":"屏東縣","TOWNNAME":"枋寮鄉","MARKTYPE":"994","Class":"4"},"geometry":{"x":120.59742753434668,"y":22.363691656300993}},{"attributes":{"OBJECTID":15888,"LANDMARKID":"1001300000841","LANDMARKCO":"401","LANDMARKNA":"枋寮醫院","LANDMARKAD":"1001316","ADDRESS":"屏東縣枋寮鄉中山路139號","TEL":"08-8789991","COUNTYNAME":"屏東縣","TOWNNAME":"枋寮鄉","MARKTYPE":"994","Class":"4"},"geometry":{"x":120.59678235439453,"y":22.364146927628308}},{"attributes":{"OBJECTID":15889,"LANDMARKID":"1001300001249","LANDMARKCO":"507","LANDMARKNA":"石頭營聖蹟亭","LANDMARKAD":"1001316","ADDRESS":"屏東縣枋寮鄉玉泉村大嚮營段947地號","TEL":" ","COUNTYNAME":"屏東縣","TOWNNAME":"枋寮鄉","MARKTYPE":"995","Class":"5"},"geometry":{"x":120.58346161807833,"y":22.398841595647156}},{"attributes":{"OBJECTID":15890,"LANDMARKID":"1001300001149","LANDMARKCO":"408","LANDMARKNA":"郵局-枋寮郵局","LANDMARKAD":"1001316","ADDRESS":"屏東縣枋寮鄉中山路194號","TEL":"(08)8782-130","COUNTYNAME":"屏東縣","TOWNNAME":"枋寮鄉","MARKTYPE":"994","Class":"4"},"geometry":{"x":120.59509871152243,"y":22.366486705971884}},{"attributes":{"OBJECTID":15891,"LANDMARKID":"1001300001150","LANDMARKCO":"408","LANDMARKNA":"郵局-枋寮水底寮郵局","LANDMARKAD":"1001316","ADDRESS":"屏東縣枋寮鄉中山路2段258號","TEL":"(08)8712-359","COUNTYNAME":"屏東縣","TOWNNAME":"枋寮鄉","MARKTYPE":"994","Class":"4"},"geometry":{"x":120.59512343948884,"y":22.385362201327524}},{"attributes":{"OBJECTID":15892,"LANDMARKID":"1001300001158","LANDMARKCO":"409","LANDMARKNA":"枋寮區漁會","LANDMARKAD":"1001316","ADDRESS":"屏東縣枋寮鄉保生村保生路437號","TEL":"08-8781324","COUNTYNAME":"屏東縣","TOWNNAME":"枋寮鄉","MARKTYPE":"994","Class":"4"},"geometry":{"x":120.59380296176343,"y":22.363145614926061}},{"attributes":{"OBJECTID":15893,"LANDMARKID":"1001300001159","LANDMARKCO":"409","LANDMARKNA":"枋寮地區農會","LANDMARKAD":"1001316","ADDRESS":"屏東縣枋寮鄉 安樂村安樂路82號","TEL":"08-8785121","COUNTYNAME":"屏東縣","TOWNNAME":"枋寮鄉","MARKTYPE":"994","Class":"4"},"geometry":{"x":120.59657825330063,"y":22.362791257188597}},{"attributes":{"OBJECTID":15894,"LANDMARKID":"1001300001160","LANDMARKCO":"409","LANDMARKNA":"枋山地區農會","LANDMARKAD":"1001316","ADDRESS":"屏東縣枋山鄉善餘村德隆路25-1號","TEL":"08-877125","COUNTYNAME":"屏東縣","TOWNNAME":"枋寮鄉","MARKTYPE":"994","Class":"4"},"geometry":{"x":120.60066689643838,"y":22.364626709853752}},{"attributes":{"OBJECTID":15895,"LANDMARKID":"1001300000929","LANDMARKCO":"405","LANDMARKNA":"台塑加油站-桂格站(台塑)","LANDMARKAD":"1001316","ADDRESS":"屏東縣枋寮鄉隆山村中正大路28號","TEL":"08-8788188","COUNTYNAME":"屏東縣","TOWNNAME":"枋寮鄉","MARKTYPE":"994","Class":"4"},"geometry":{"x":120.60973664995052,"y":22.346571989388423}},{"attributes":{"OBJECTID":15896,"LANDMARKID":"1001300000930","LANDMARKCO":"405","LANDMARKNA":"台塑加油站-八八八站(台塑)","LANDMARKAD":"1001316","ADDRESS":"屏東縣枋寮鄉東海村臨海路二段102號","TEL":"08-8663411","COUNTYNAME":"屏東縣","TOWNNAME":"枋寮鄉","MARKTYPE":"994","Class":"4"},"geometry":{"x":120.57517790064834,"y":22.404994766956271}},{"attributes":{"OBJECTID":15897,"LANDMARKID":"1001300000029","LANDMARKCO":"101","LANDMARKNA":"工業局屏南工業區服務中心","LANDMARKAD":"1001316","ADDRESS":"屏東縣枋寮鄉屏南路36號","TEL":"08-8665290","COUNTYNAME":"屏東縣","TOWNNAME":"枋寮鄉","MARKTYPE":"991","Class":"1"},"geometry":{"x":120.57726636127963,"y":22.410328272389155}},{"attributes":{"OBJECTID":15898,"LANDMARKID":"1001300000229","LANDMARKCO":"107","LANDMARKNA":"屏東縣消防局第三消防大隊","LANDMARKAD":"1001316","ADDRESS":"屏東縣枋寮鄉中山路7號之29","TEL":"08-8782304","COUNTYNAME":"屏東縣","TOWNNAME":"枋寮鄉","MARKTYPE":"991","Class":"1"},"geometry":{"x":120.59303103828238,"y":22.366383975027279}},{"attributes":{"OBJECTID":15899,"LANDMARKID":"1001300000123","LANDMARKCO":"105","LANDMARKNA":"屏東縣枋寮地政事務所","LANDMARKAD":"1001316","ADDRESS":"屏東縣枋寮鄉德興路32號","TEL":"08-8788168","COUNTYNAME":"屏東縣","TOWNNAME":"枋寮鄉","MARKTYPE":"991","Class":"1"},"geometry":{"x":120.593672767066,"y":22.365217638118633}},{"attributes":{"OBJECTID":15900,"LANDMARKID":"1001300000140","LANDMARKCO":"106","LANDMARKNA":"屏東縣枋寮鄉戶政事務所","LANDMARKAD":"1001316","ADDRESS":"屏東縣枋寮鄉枋寮村8鄰德興路46號","TEL":"08-8784271","COUNTYNAME":"屏東縣","TOWNNAME":"枋寮鄉","MARKTYPE":"991","Class":"1"},"geometry":{"x":120.59326023331467,"y":22.366028387737952}},{"attributes":{"OBJECTID":15901,"LANDMARKID":"1001300000230","LANDMARKCO":"107","LANDMARKNA":"屏東縣消防局枋寮消防分隊","LANDMARKAD":"1001316","ADDRESS":"屏東縣枋寮鄉中山路7之29號","TEL":"08-8782304","COUNTYNAME":"屏東縣","TOWNNAME":"枋寮鄉","MARKTYPE":"991","Class":"1"},"geometry":{"x":120.60036030471045,"y":22.355024763253855}},{"attributes":{"OBJECTID":15902,"LANDMARKID":"1001300000231","LANDMARKCO":"107","LANDMARKNA":"屏東縣警察局枋寮分局","LANDMARKAD":"1001316","ADDRESS":"屏東縣枋寮鄉枋寮村中興路33號","TEL":"08-8782004","COUNTYNAME":"屏東縣","TOWNNAME":"枋寮鄉","MARKTYPE":"991","Class":"1"},"geometry":{"x":120.59347772062645,"y":22.366751969070485}},{"attributes":{"OBJECTID":15903,"LANDMARKID":"1001300000232","LANDMARKCO":"107","LANDMARKNA":"屏東縣警察局建興派出所","LANDMARKAD":"1001316","ADDRESS":"屏東縣枋寮鄉地利村建興路262號","TEL":"08-8712962","COUNTYNAME":"屏東縣","TOWNNAME":"枋寮鄉","MARKTYPE":"991","Class":"1"},"geometry":{"x":120.59519401859103,"y":22.386983658550175}},{"attributes":{"OBJECTID":15904,"LANDMARKID":"1001300000233","LANDMARKCO":"107","LANDMARKNA":"屏東縣警察局東海派出所","LANDMARKAD":"1001316","ADDRESS":"屏東縣枋寮鄉東海村東林路717號","TEL":"08-8712920","COUNTYNAME":"屏東縣","TOWNNAME":"枋寮鄉","MARKTYPE":"991","Class":"1"},"geometry":{"x":120.57411718808635,"y":22.400752725595087}},{"attributes":{"OBJECTID":15905,"LANDMARKID":"1001300000234","LANDMARKCO":"107","LANDMARKNA":"屏東縣警察局枋寮派出所","LANDMARKAD":"1001316","ADDRESS":"屏東縣枋寮鄉枋寮村中興路33號","TEL":"08-8782949","COUNTYNAME":"屏東縣","TOWNNAME":"枋寮鄉","MARKTYPE":"991","Class":"1"},"geometry":{"x":120.59347772062645,"y":22.366751969070485}},{"attributes":{"OBJECTID":15906,"LANDMARKID":"1001300000040","LANDMARKCO":"103","LANDMARKNA":"屏東縣枋寮鄉衛生所","LANDMARKAD":"1001316","ADDRESS":"屏東縣枋寮鄉德興路77號","TEL":"08-8782940","COUNTYNAME":"屏東縣","TOWNNAME":"枋寮鄉","MARKTYPE":"991","Class":"1"},"geometry":{"x":120.59302929420426,"y":22.365665973257304}},{"attributes":{"OBJECTID":15907,"LANDMARKID":"1001300000041","LANDMARKCO":"103","LANDMARKNA":"屏東縣枋寮鄉鄉民代表會","LANDMARKAD":"1001316","ADDRESS":"屏東縣枋寮鄉德興路46號","TEL":"08-8781524","COUNTYNAME":"屏東縣","TOWNNAME":"枋寮鄉","MARKTYPE":"991","Class":"1"},"geometry":{"x":120.59326023331467,"y":22.366028387737952}},{"attributes":{"OBJECTID":15908,"LANDMARKID":"1001300000317","LANDMARKCO":"108","LANDMARKNA":"屏東縣枋寮鄉公所","LANDMARKAD":"1001316","ADDRESS":"屏東縣枋寮鄉德興路36號","TEL":"08-8782012","COUNTYNAME":"屏東縣","TOWNNAME":"枋寮鄉","MARKTYPE":"991","Class":"1"},"geometry":{"x":120.59351531306486,"y":22.365578101576087}},{"attributes":{"OBJECTID":15909,"LANDMARKID":"1001300000665","LANDMARKCO":"204","LANDMARKNA":"屏東縣立圖書館枋寮分館","LANDMARKAD":"1001316","ADDRESS":"屏東縣枋寮鄉德興路36號","TEL":" ","COUNTYNAME":"屏東縣","TOWNNAME":"枋寮鄉","MARKTYPE":"992","Class":"2"},"geometry":{"x":120.59239973745485,"y":22.36723658574148}},{"attributes":{"OBJECTID":15910,"LANDMARKID":"1001300000683","LANDMARKCO":"206","LANDMARKNA":"國立台南社會教育館屏南社會教育","LANDMARKAD":"1001316","ADDRESS":"屏東縣枋寮鄉屏南路36號","TEL":" ","COUNTYNAME":"屏東縣","TOWNNAME":"枋寮鄉","MARKTYPE":"992","Class":"2"},"geometry":{"x":120.57726641213081,"y":22.410307289370117}},{"attributes":{"OBJECTID":15911,"LANDMARKID":"1001300000394","LANDMARKCO":"203","LANDMARKNA":"縣立建興國小","LANDMARKAD":"1001316","ADDRESS":"屏東縣枋寮鄉人和村建興路39號","TEL":"08-8713562","COUNTYNAME":"屏東縣","TOWNNAME":"枋寮鄉","MARKTYPE":"992","Class":"2"},"geometry":{"x":120.60170083262938,"y":22.386275106886206}},{"attributes":{"OBJECTID":15912,"LANDMARKID":"1001300000372","LANDMARKCO":"202","LANDMARKNA":"縣立枋寮高中","LANDMARKAD":"1001316","ADDRESS":"屏東縣枋寮鄉新龍村義民路3號","TEL":"08-8782095","COUNTYNAME":"屏東縣","TOWNNAME":"枋寮鄉","MARKTYPE":"992","Class":"2"},"geometry":{"x":120.59075143414573,"y":22.371080289272808}},{"attributes":{"OBJECTID":15913,"LANDMARKID":"1001300000386","LANDMARKCO":"203","LANDMARKNA":"縣立僑德國小","LANDMARKAD":"1001316","ADDRESS":"屏東縣枋寮鄉隆山村僑德路186號","TEL":"08-8782096","COUNTYNAME":"屏東縣","TOWNNAME":"枋寮鄉","MARKTYPE":"992","Class":"2"},"geometry":{"x":120.60003721436674,"y":22.363061024244612}},{"attributes":{"OBJECTID":15914,"LANDMARKID":"1001300000387","LANDMARKCO":"203","LANDMARKNA":"縣立太源國小","LANDMARKAD":"1001316","ADDRESS":"屏東縣枋寮鄉太源村太源路2之10號","TEL":"08-8715785","COUNTYNAME":"屏東縣","TOWNNAME":"枋寮鄉","MARKTYPE":"992","Class":"2"},"geometry":{"x":120.59300040872301,"y":22.408205357350091}},{"attributes":{"OBJECTID":15915,"LANDMARKID":"1001300000388","LANDMARKCO":"203","LANDMARKNA":"縣立東海國小","LANDMARKAD":"1001316","ADDRESS":"屏東縣枋寮鄉東海村東海路486號","TEL":"08-8712209","COUNTYNAME":"屏東縣","TOWNNAME":"枋寮鄉","MARKTYPE":"992","Class":"2"},"geometry":{"x":120.57729954046943,"y":22.401303981272704}},{"attributes":{"OBJECTID":15916,"LANDMARKID":"1001300000389","LANDMARKCO":"203","LANDMARKNA":"縣立枋寮國小","LANDMARKAD":"1001316","ADDRESS":"屏東縣枋寮鄉德興路197號","TEL":"08-8782034","COUNTYNAME":"屏東縣","TOWNNAME":"枋寮鄉","MARKTYPE":"992","Class":"2"},"geometry":{"x":120.59076232028518,"y":22.367829078375522}},{"attributes":{"OBJECTID":15917,"LANDMARKID":"1001300000390","LANDMARKCO":"203","LANDMARKNA":"縣立力里國小","LANDMARKAD":"1001316","ADDRESS":"屏東縣春日鄉七佳村自強一路92號","TEL":"08-8791020","COUNTYNAME":"屏東縣","TOWNNAME":"枋寮鄉","MARKTYPE":"992","Class":"2"},"geometry":{"x":120.6287344164266,"y":22.427790943959735}},{"attributes":{"OBJECTID":15918,"LANDMARKID":"1001300000391","LANDMARKCO":"203","LANDMARKNA":"縣立玉泉國小","LANDMARKAD":"1001316","ADDRESS":"屏東縣枋寮鄉","TEL":" ","COUNTYNAME":"屏東縣","TOWNNAME":"枋寮鄉","MARKTYPE":"992","Class":"2"},"geometry":{"x":120.61601937161441,"y":22.423067856446529}},{"attributes":{"OBJECTID":15919,"LANDMARKID":"1001300000392","LANDMARKCO":"203","LANDMARKNA":"縣立建興國小新開分校","LANDMARKAD":"1001316","ADDRESS":"屏東縣枋寮鄉","TEL":" ","COUNTYNAME":"屏東縣","TOWNNAME":"枋寮鄉","MARKTYPE":"992","Class":"2"},"geometry":{"x":120.61760380881861,"y":22.407444695403257}},{"attributes":{"OBJECTID":15920,"LANDMARKID":"1001300000393","LANDMARKCO":"203","LANDMARKNA":"縣立枋寮國小新龍分校","LANDMARKAD":"1001316","ADDRESS":"屏東縣枋寮鄉","TEL":" ","COUNTYNAME":"屏東縣","TOWNNAME":"枋寮鄉","MARKTYPE":"992","Class":"2"},"geometry":{"x":120.58490990215311,"y":22.374401805857204}},{"attributes":{"OBJECTID":15921,"LANDMARKID":"1001300000795","LANDMARKCO":"305","LANDMARKNA":"枋寮漁港","LANDMARKAD":"1001316","ADDRESS":"屏東縣枋寮鄉","TEL":" ","COUNTYNAME":"屏東縣","TOWNNAME":"枋寮鄉","MARKTYPE":"993","Class":"305"},"geometry":{"x":120.59240313302966,"y":22.363965714414885}},{"attributes":{"OBJECTID":15922,"LANDMARKID":"1001300000707","LANDMARKCO":"302","LANDMARKNA":"國光汽車客運枋寮站","LANDMARKAD":"1001316","ADDRESS":"屏東縣枋寮鄉中興路7號","TEL":" ","COUNTYNAME":"屏東縣","TOWNNAME":"枋寮鄉","MARKTYPE":"993","Class":"302"},"geometry":{"x":120.59435005023529,"y":22.367309074053473}},{"attributes":{"OBJECTID":15923,"LANDMARKID":"1001300000766","LANDMARKCO":"303","LANDMARKNA":"綠色碼頭停車場","LANDMARKAD":"1001316","ADDRESS":"屏東縣枋寮鄉臨海路二段48號","TEL":" ","COUNTYNAME":"屏東縣","TOWNNAME":"枋寮鄉","MARKTYPE":"993","Class":"303"},"geometry":{"x":120.58413346102614,"y":22.402502819838734}},{"attributes":{"OBJECTID":15924,"LANDMARKID":"1001300000767","LANDMARKCO":"303","LANDMARKNA":"枋寮漁港停車場","LANDMARKAD":"1001316","ADDRESS":"屏東縣枋寮鄉","TEL":" ","COUNTYNAME":"屏東縣","TOWNNAME":"枋寮鄉","MARKTYPE":"993","Class":"303"},"geometry":{"x":120.59496538440015,"y":22.360889700138468}},{"attributes":{"OBJECTID":15925,"LANDMARKID":"1001300000689","LANDMARKCO":"301","LANDMARKNA":"建興火車站(閒)","LANDMARKAD":"1001316","ADDRESS":"屏東縣枋寮鄉","TEL":" ","COUNTYNAME":"屏東縣","TOWNNAME":"枋寮鄉","MARKTYPE":"993","Class":"301"},"geometry":{"x":120.58233749390038,"y":22.385693379736413}},{"attributes":{"OBJECTID":15926,"LANDMARKID":"1001300000690","LANDMARKCO":"301","LANDMARKNA":"東海火車站","LANDMARKAD":"1001316","ADDRESS":"屏東縣枋寮鄉","TEL":" ","COUNTYNAME":"屏東縣","TOWNNAME":"枋寮鄉","MARKTYPE":"993","Class":"301"},"geometry":{"x":120.57253496507924,"y":22.398817391492418}},{"attributes":{"OBJECTID":15927,"LANDMARKID":"1001300000691","LANDMARKCO":"301","LANDMARKNA":"枋寮火車站","LANDMARKAD":"1001316","ADDRESS":"屏東縣枋寮鄉枋寮村儲運路18號","TEL":"08-8782041","COUNTYNAME":"屏東縣","TOWNNAME":"枋寮鄉","MARKTYPE":"993","Class":"301"},"geometry":{"x":120.59606485801822,"y":22.367973224254136}},{"attributes":{"OBJECTID":15928,"LANDMARKID":"1001300000848","LANDMARKCO":"402","LANDMARKNA":"中華電信-枋寮服務中心","LANDMARKAD":"1001316","ADDRESS":"屏東縣枋寮鄉中山路240號","TEL":"(08)844-4011","COUNTYNAME":"屏東縣","TOWNNAME":"枋寮鄉","MARKTYPE":"994","Class":"4"},"geometry":{"x":120.59399142516084,"y":22.367933139177726}},{"attributes":{"OBJECTID":15929,"LANDMARKID":"1001300001296","LANDMARKCO":"603","LANDMARKNA":"東昇旅社","LANDMARKAD":"1001316","ADDRESS":"屏東縣枋寮鄉人和村中山路二段280號","TEL":"08-8782308","COUNTYNAME":"屏東縣","TOWNNAME":"枋寮鄉","MARKTYPE":"996","Class":"6"},"geometry":{"x":120.59487856557257,"y":22.38572222851726}},{"attributes":{"OBJECTID":15930,"LANDMARKID":"1001300001297","LANDMARKCO":"603","LANDMARKNA":"建興大旅社","LANDMARKAD":"1001316","ADDRESS":"屏東縣枋寮鄉人和村中山路二段322號","TEL":"08-8782217","COUNTYNAME":"屏東縣","TOWNNAME":"枋寮鄉","MARKTYPE":"996","Class":"6"},"geometry":{"x":120.5944535593238,"y":22.38671352471221}},{"attributes":{"OBJECTID":15931,"LANDMARKID":"1001300001298","LANDMARKCO":"603","LANDMARKNA":"江南旅社","LANDMARKAD":"1001316","ADDRESS":"屏東縣枋寮鄉枋寮村中山路187號","TEL":"08-8786195","COUNTYNAME":"屏東縣","TOWNNAME":"枋寮鄉","MARKTYPE":"996","Class":"6"},"geometry":{"x":120.5951800464847,"y":22.36585491775887}},{"attributes":{"OBJECTID":15932,"LANDMARKID":"1001300001413","LANDMARKCO":"604","LANDMARKNA":"崑山會館民宿","LANDMARKAD":"1001316","ADDRESS":"屏東縣枋寮鄉太源村太源路20-3號","TEL":"08-8711511","COUNTYNAME":"屏東縣","TOWNNAME":"枋寮鄉","MARKTYPE":"996","Class":"6"},"geometry":{"x":120.59147980033109,"y":22.406761975046663}},{"attributes":{"OBJECTID":15933,"LANDMARKID":"1001300000928","LANDMARKCO":"405","LANDMARKNA":"中油加油站-小琉球站(中油直營)","LANDMARKAD":"1001322","ADDRESS":"屏東縣琉球鄉大福村和平路3巷33-7號","TEL":"08-8613054","COUNTYNAME":"屏東縣","TOWNNAME":"琉球鄉","MARKTYPE":"994","Class":"4"},"geometry":{"x":120.37046925631219,"y":22.336945032635892}},{"attributes":{"OBJECTID":15934,"LANDMARKID":"1001300001148","LANDMARKCO":"408","LANDMARKNA":"郵局-琉球郵局","LANDMARKAD":"1001322","ADDRESS":"屏東縣琉球鄉本福村中山路105號","TEL":"(08)8612-507","COUNTYNAME":"屏東縣","TOWNNAME":"琉球鄉","MARKTYPE":"994","Class":"4"},"geometry":{"x":120.38085121160245,"y":22.351178190865774}},{"attributes":{"OBJECTID":15935,"LANDMARKID":"1001300001161","LANDMARKCO":"409","LANDMARKNA":"屏東縣琉球鄉農會","LANDMARKAD":"1001322","ADDRESS":"屏東縣琉球鄉本福村民生路3號","TEL":"08-8613626","COUNTYNAME":"屏東縣","TOWNNAME":"琉球鄉","MARKTYPE":"994","Class":"4"},"geometry":{"x":120.38108433659971,"y":22.352534196075894}},{"attributes":{"OBJECTID":15936,"LANDMARKID":"1001300001070","LANDMARKCO":"406","LANDMARKNA":"海底公園","LANDMARKAD":"1001322","ADDRESS":"屏東縣琉球鄉","TEL":" ","COUNTYNAME":"屏東縣","TOWNNAME":"琉球鄉","MARKTYPE":"994","Class":"4"},"geometry":{"x":120.3580041327038,"y":22.323534415373103}},{"attributes":{"OBJECTID":15937,"LANDMARKID":"1001300001071","LANDMARKCO":"406","LANDMARKNA":"觀日公園","LANDMARKAD":"1001322","ADDRESS":"屏東縣琉球鄉","TEL":" ","COUNTYNAME":"屏東縣","TOWNNAME":"琉球鄉","MARKTYPE":"994","Class":"4"},"geometry":{"x":120.36596870171715,"y":22.328677805911639}},{"attributes":{"OBJECTID":15938,"LANDMARKID":"1001300000141","LANDMARKCO":"106","LANDMARKNA":"屏東縣琉球鄉戶政事務所","LANDMARKAD":"1001322","ADDRESS":"屏東縣琉球鄉中福村1鄰中山路262號","TEL":"08-8612519","COUNTYNAME":"屏東縣","TOWNNAME":"琉球鄉","MARKTYPE":"991","Class":"1"},"geometry":{"x":120.38233298577499,"y":22.352986677460443}},{"attributes":{"OBJECTID":15939,"LANDMARKID":"1001300000227","LANDMARKCO":"107","LANDMARKNA":"屏東縣警察局琉球分駐所","LANDMARKAD":"1001322","ADDRESS":"屏東縣琉球鄉中福村中山路262號","TEL":"08-8612231","COUNTYNAME":"屏東縣","TOWNNAME":"琉球鄉","MARKTYPE":"991","Class":"1"},"geometry":{"x":120.38234269431571,"y":22.352986751514244}},{"attributes":{"OBJECTID":15940,"LANDMARKID":"1001300000228","LANDMARKCO":"107","LANDMARKNA":"屏東縣消防局琉球消防分隊","LANDMARKAD":"1001322","ADDRESS":"屏東縣琉球鄉民生路5號之1","TEL":"08-8611765","COUNTYNAME":"屏東縣","TOWNNAME":"琉球鄉","MARKTYPE":"991","Class":"1"},"geometry":{"x":120.38020250588565,"y":22.352077969773582}},{"attributes":{"OBJECTID":15941,"LANDMARKID":"1001300000038","LANDMARKCO":"103","LANDMARKNA":"屏東縣琉球鄉鄉民代表會","LANDMARKAD":"1001322","ADDRESS":"屏東縣琉球鄉中山路49號之16","TEL":"08-8612544","COUNTYNAME":"屏東縣","TOWNNAME":"琉球鄉","MARKTYPE":"991","Class":"1"},"geometry":{"x":120.3815773264722,"y":22.352800284713897}},{"attributes":{"OBJECTID":15942,"LANDMARKID":"1001300000039","LANDMARKCO":"103","LANDMARKNA":"屏東縣琉球鄉衛生所","LANDMARKAD":"1001322","ADDRESS":"屏東縣琉球鄉中山路51號","TEL":"08-8612513","COUNTYNAME":"屏東縣","TOWNNAME":"琉球鄉","MARKTYPE":"991","Class":"1"},"geometry":{"x":120.37854134839303,"y":22.348549874216321}},{"attributes":{"OBJECTID":15943,"LANDMARKID":"1001300000318","LANDMARKCO":"108","LANDMARKNA":"屏東縣琉球鄉公所","LANDMARKAD":"1001322","ADDRESS":"屏東縣琉球鄉中山路217號","TEL":"08-8612501","COUNTYNAME":"屏東縣","TOWNNAME":"琉球鄉","MARKTYPE":"991","Class":"1"},"geometry":{"x":120.38229299358554,"y":22.353083458336521}},{"attributes":{"OBJECTID":15944,"LANDMARKID":"1001300000664","LANDMARKCO":"204","LANDMARKNA":"屏東縣立圖書館琉球分館","LANDMARKAD":"1001322","ADDRESS":"屏東縣琉球鄉民族路20號","TEL":" ","COUNTYNAME":"屏東縣","TOWNNAME":"琉球鄉","MARKTYPE":"992","Class":"2"},"geometry":{"x":120.3811512566588,"y":22.354340653278427}},{"attributes":{"OBJECTID":15945,"LANDMARKID":"1001300000395","LANDMARKCO":"203","LANDMARKNA":"縣立琉球國中","LANDMARKAD":"1001322","ADDRESS":"屏東縣琉球鄉中正路158號","TEL":"08-8612509","COUNTYNAME":"屏東縣","TOWNNAME":"琉球鄉","MARKTYPE":"992","Class":"2"},"geometry":{"x":120.36851433771392,"y":22.335962187503949}},{"attributes":{"OBJECTID":15946,"LANDMARKID":"1001300000396","LANDMARKCO":"203","LANDMARKNA":"縣立白沙國小","LANDMARKAD":"1001322","ADDRESS":"屏東縣琉球鄉漁福村三民路124號","TEL":"08-8612510","COUNTYNAME":"屏東縣","TOWNNAME":"琉球鄉","MARKTYPE":"992","Class":"2"},"geometry":{"x":120.38686680456152,"y":22.350478048983121}},{"attributes":{"OBJECTID":15947,"LANDMARKID":"1001300000397","LANDMARKCO":"203","LANDMARKNA":"縣立琉球國小","LANDMARKAD":"1001322","ADDRESS":"屏東縣琉球鄉大福村中正路293號","TEL":"08-8612597","COUNTYNAME":"屏東縣","TOWNNAME":"琉球鄉","MARKTYPE":"992","Class":"2"},"geometry":{"x":120.3682549884291,"y":22.337043867254057}},{"attributes":{"OBJECTID":15948,"LANDMARKID":"1001300000398","LANDMARKCO":"203","LANDMARKNA":"縣立天南國小","LANDMARKAD":"1001322","ADDRESS":"屏東縣琉球鄉南福村忠孝路27號","TEL":"08-8612300","COUNTYNAME":"屏東縣","TOWNNAME":"琉球鄉","MARKTYPE":"992","Class":"2"},"geometry":{"x":120.36327026446251,"y":22.330163052913811}},{"attributes":{"OBJECTID":15949,"LANDMARKID":"1001300000399","LANDMARKCO":"203","LANDMARKNA":"縣立全德國小","LANDMARKAD":"1001322","ADDRESS":"屏東縣琉球鄉杉福村復興路97號","TEL":"08-8612534","COUNTYNAME":"屏東縣","TOWNNAME":"琉球鄉","MARKTYPE":"992","Class":"2"},"geometry":{"x":120.36919989043813,"y":22.346262956999656}},{"attributes":{"OBJECTID":15950,"LANDMARKID":"1001300000850","LANDMARKCO":"402","LANDMARKNA":"中華電信-琉球服務中心","LANDMARKAD":"1001322","ADDRESS":"屏東縣琉球鄉中興路39號","TEL":"(08)844-7123","COUNTYNAME":"屏東縣","TOWNNAME":"琉球鄉","MARKTYPE":"994","Class":"4"},"geometry":{"x":120.3697818297087,"y":22.340929375813268}},{"attributes":{"OBJECTID":15951,"LANDMARKID":"1001300001299","LANDMARKCO":"603","LANDMARKNA":"白龍宮旅館","LANDMARKAD":"1001322","ADDRESS":"屏東縣琉球鄉中福村三民路272號","TEL":"08-8612536","COUNTYNAME":"屏東縣","TOWNNAME":"琉球鄉","MARKTYPE":"996","Class":"6"},"geometry":{"x":120.38326557707104,"y":22.35264161329831}},{"attributes":{"OBJECTID":15952,"LANDMARKID":"1001300001300","LANDMARKCO":"603","LANDMARKNA":"小琉球大飯店","LANDMARKAD":"1001322","ADDRESS":"屏東縣琉球鄉本福村民生路43-2號","TEL":"08-8611133","COUNTYNAME":"屏東縣","TOWNNAME":"琉球鄉","MARKTYPE":"996","Class":"6"},"geometry":{"x":120.38133054987105,"y":22.353258993059097}},{"attributes":{"OBJECTID":15953,"LANDMARKID":"1001300001301","LANDMARKCO":"603","LANDMARKNA":"海洋風情渡假旅館","LANDMARKAD":"1001322","ADDRESS":"屏東縣琉球鄉本福村民生路73之1號","TEL":"08-8612617","COUNTYNAME":"屏東縣","TOWNNAME":"琉球鄉","MARKTYPE":"996","Class":"6"},"geometry":{"x":120.38212504846979,"y":22.353445684183313}},{"attributes":{"OBJECTID":15954,"LANDMARKID":"1001300001412","LANDMARKCO":"604","LANDMARKNA":"南方休閒民宿","LANDMARKAD":"1001322","ADDRESS":"屏東縣琉球鄉中福村三民路235號","TEL":"08-8612285","COUNTYNAME":"屏東縣","TOWNNAME":"琉球鄉","MARKTYPE":"996","Class":"6"},"geometry":{"x":120.38364408072357,"y":22.351550144718608}},{"attributes":{"OBJECTID":15955,"LANDMARKID":"1001300001201","LANDMARKCO":"503","LANDMARKNA":"珊瑚礁風景區","LANDMARKAD":"1001322","ADDRESS":"屏東縣琉球鄉","TEL":" ","COUNTYNAME":"屏東縣","TOWNNAME":"琉球鄉","MARKTYPE":"995","Class":"5"},"geometry":{"x":120.36013261714524,"y":22.334257793481232}},{"attributes":{"OBJECTID":15956,"LANDMARKID":"1001300001202","LANDMARKCO":"503","LANDMARKNA":"中澳海灘","LANDMARKAD":"1001322","ADDRESS":"屏東縣琉球鄉三民路觀光碼頭邊","TEL":" ","COUNTYNAME":"屏東縣","TOWNNAME":"琉球鄉","MARKTYPE":"995","Class":"5"},"geometry":{"x":120.38724070865329,"y":22.350934872485546}},{"attributes":{"OBJECTID":15957,"LANDMARKID":"1001300000922","LANDMARKCO":"405","LANDMARKNA":"中油加油站-加祿站","LANDMARKAD":"1001325","ADDRESS":"屏東縣枋山鄉加祿村加祿路157號","TEL":"08-8720477","COUNTYNAME":"屏東縣","TOWNNAME":"枋山鄉","MARKTYPE":"994","Class":"4"},"geometry":{"x":120.61501929170852,"y":22.334871823208459}},{"attributes":{"OBJECTID":15958,"LANDMARKID":"1001300000923","LANDMARKCO":"405","LANDMARKNA":"山隆加油站-中山站(中油)","LANDMARKAD":"1001325","ADDRESS":"屏東縣枋山鄉枋山村中山路四段33號","TEL":"(08)876-1533","COUNTYNAME":"屏東縣","TOWNNAME":"枋山鄉","MARKTYPE":"994","Class":"4"},"geometry":{"x":120.65292953526418,"y":22.263565002280259}},{"attributes":{"OBJECTID":15959,"LANDMARKID":"1001300000924","LANDMARKCO":"405","LANDMARKNA":"中油加油站-亞柏楓港站","LANDMARKAD":"1001325","ADDRESS":"屏東縣枋山鄉楓港村舊庄路163號","TEL":"08-8772177","COUNTYNAME":"屏東縣","TOWNNAME":"枋山鄉","MARKTYPE":"994","Class":"4"},"geometry":{"x":120.6878052495974,"y":22.206799290140708}},{"attributes":{"OBJECTID":15960,"LANDMARKID":"1001300000925","LANDMARKCO":"405","LANDMARKNA":"中油加油站-楓港站(中油直營)","LANDMARKAD":"1001325","ADDRESS":"屏東縣枋山鄉楓港村舊庄路53號","TEL":"08-8771141","COUNTYNAME":"屏東縣","TOWNNAME":"枋山鄉","MARKTYPE":"994","Class":"4"},"geometry":{"x":120.68924401936989,"y":22.199298396008615}},{"attributes":{"OBJECTID":15961,"LANDMARKID":"1001300000926","LANDMARKCO":"405","LANDMARKNA":"中油加油站-新楓港站","LANDMARKAD":"1001325","ADDRESS":"屏東縣枋山鄉楓港村舊庄路142號","TEL":"08-8771868","COUNTYNAME":"屏東縣","TOWNNAME":"枋山鄉","MARKTYPE":"994","Class":"4"},"geometry":{"x":120.68884858382002,"y":22.201160987640037}},{"attributes":{"OBJECTID":15962,"LANDMARKID":"1001300000927","LANDMARKCO":"405","LANDMARKNA":"中油加油站-亞太站","LANDMARKAD":"1001325","ADDRESS":"屏東縣枋山鄉中山路三段126-9號","TEL":"08-8761668","COUNTYNAME":"屏東縣","TOWNNAME":"枋山鄉","MARKTYPE":"994","Class":"4"},"geometry":{"x":120.65650878175408,"y":22.252284734560053}},{"attributes":{"OBJECTID":15963,"LANDMARKID":"1001300001242","LANDMARKCO":"506","LANDMARKNA":"枋山觀光果園","LANDMARKAD":"1001325","ADDRESS":"屏東縣枋山鄉枋山村國中路3號","TEL":"08-8761075","COUNTYNAME":"屏東縣","TOWNNAME":"枋山鄉","MARKTYPE":"995","Class":"5"},"geometry":{"x":120.65441798748265,"y":22.262455167384939}},{"attributes":{"OBJECTID":15964,"LANDMARKID":"1001300001144","LANDMARKCO":"408","LANDMARKNA":"郵局-枋山郵局","LANDMARKAD":"1001325","ADDRESS":"屏東縣枋山鄉舊庄路47號","TEL":"(08)8771-219","COUNTYNAME":"屏東縣","TOWNNAME":"枋山鄉","MARKTYPE":"994","Class":"4"},"geometry":{"x":120.68995096515386,"y":22.198149088005938}},{"attributes":{"OBJECTID":15965,"LANDMARKID":"1001300000142","LANDMARKCO":"106","LANDMARKNA":"屏東縣枋山鄉戶政事務所","LANDMARKAD":"1001325","ADDRESS":"屏東縣枋山鄉枋山村國中路26巷1之1號","TEL":"08-8761158","COUNTYNAME":"屏東縣","TOWNNAME":"枋山鄉","MARKTYPE":"991","Class":"1"},"geometry":{"x":120.6523121157333,"y":22.262845574688821}},{"attributes":{"OBJECTID":15966,"LANDMARKID":"1001300000226","LANDMARKCO":"107","LANDMARKNA":"屏東縣警察局枋山分駐所","LANDMARKAD":"1001325","ADDRESS":"屏東縣枋山鄉枋山村國中路26巷5-1號","TEL":"08-8761129","COUNTYNAME":"屏東縣","TOWNNAME":"枋山鄉","MARKTYPE":"991","Class":"1"},"geometry":{"x":120.6523015204324,"y":22.263026159280152}},{"attributes":{"OBJECTID":15967,"LANDMARKID":"1001300000048","LANDMARKCO":"103","LANDMARKNA":"屏東縣枋山鄉衛生所","LANDMARKAD":"1001325","ADDRESS":"屏東縣枋山鄉枋山路98號","TEL":"08-8761150","COUNTYNAME":"屏東縣","TOWNNAME":"枋山鄉","MARKTYPE":"991","Class":"1"},"geometry":{"x":120.65270787300729,"y":22.264653552115256}},{"attributes":{"OBJECTID":15968,"LANDMARKID":"1001300000049","LANDMARKCO":"103","LANDMARKNA":"屏東縣枋山鄉民代表會","LANDMARKAD":"1001325","ADDRESS":"屏東縣枋山鄉國中路26巷20號","TEL":"08-8761105","COUNTYNAME":"屏東縣","TOWNNAME":"枋山鄉","MARKTYPE":"991","Class":"1"},"geometry":{"x":120.65272443764502,"y":22.263840803456393}},{"attributes":{"OBJECTID":15969,"LANDMARKID":"1001300000324","LANDMARKCO":"108","LANDMARKNA":"屏東縣枋山鄉公所","LANDMARKAD":"1001325","ADDRESS":"屏東縣枋山鄉枋山路82號","TEL":"08-8761107","COUNTYNAME":"屏東縣","TOWNNAME":"枋山鄉","MARKTYPE":"991","Class":"1"},"geometry":{"x":120.65242035346762,"y":22.263929802944517}},{"attributes":{"OBJECTID":15970,"LANDMARKID":"1001300000204","LANDMARKCO":"107","LANDMARKNA":"屏東縣警察局加祿派出所","LANDMARKAD":"1001325","ADDRESS":"屏東縣枋山鄉加祿村加祿路102號","TEL":"08-8720002","COUNTYNAME":"屏東縣","TOWNNAME":"枋山鄉","MARKTYPE":"991","Class":"1"},"geometry":{"x":120.62214984559287,"y":22.333493085911218}},{"attributes":{"OBJECTID":15971,"LANDMARKID":"1001300000205","LANDMARKCO":"107","LANDMARKNA":"屏東縣警察局楓港派出所","LANDMARKAD":"1001325","ADDRESS":"屏東縣枋山鄉善餘村隆德路19號","TEL":"08-8771214","COUNTYNAME":"屏東縣","TOWNNAME":"枋山鄉","MARKTYPE":"991","Class":"1"},"geometry":{"x":120.69076511703517,"y":22.19048693232601}},{"attributes":{"OBJECTID":15972,"LANDMARKID":"1001300000659","LANDMARKCO":"204","LANDMARKNA":"屏東縣立圖書館枋山分館","LANDMARKAD":"1001325","ADDRESS":"屏東縣枋山鄉善餘村德隆路113號","TEL":" ","COUNTYNAME":"屏東縣","TOWNNAME":"枋山鄉","MARKTYPE":"992","Class":"2"},"geometry":{"x":120.69082795624574,"y":22.193137557048573}},{"attributes":{"OBJECTID":15973,"LANDMARKID":"1001300000425","LANDMARKCO":"203","LANDMARKNA":"縣立正成國中","LANDMARKAD":"1001325","ADDRESS":"屏東縣枋山鄉國中路1號","TEL":"08-8761140","COUNTYNAME":"屏東縣","TOWNNAME":"枋山鄉","MARKTYPE":"992","Class":"2"},"geometry":{"x":120.66113803259809,"y":22.264211766082628}},{"attributes":{"OBJECTID":15974,"LANDMARKID":"1001300000426","LANDMARKCO":"203","LANDMARKNA":"縣立獅子國中","LANDMARKAD":"1001325","ADDRESS":"屏東縣枋山鄉楓港村舊庄280號","TEL":"08-8779121","COUNTYNAME":"屏東縣","TOWNNAME":"枋山鄉","MARKTYPE":"992","Class":"2"},"geometry":{"x":120.70076681745238,"y":22.204592669636646}},{"attributes":{"OBJECTID":15975,"LANDMARKID":"1001300000427","LANDMARKCO":"203","LANDMARKNA":"縣立枋山國小","LANDMARKAD":"1001325","ADDRESS":"屏東縣枋山鄉枋山村枋山路6號","TEL":"08-8761127","COUNTYNAME":"屏東縣","TOWNNAME":"枋山鄉","MARKTYPE":"992","Class":"2"},"geometry":{"x":120.65116043725078,"y":22.2608537229635}},{"attributes":{"OBJECTID":15976,"LANDMARKID":"1001300000428","LANDMARKCO":"203","LANDMARKNA":"縣立楓港國小","LANDMARKAD":"1001325","ADDRESS":"屏東縣枋山鄉善餘村光復路24號","TEL":"08-8771158","COUNTYNAME":"屏東縣","TOWNNAME":"枋山鄉","MARKTYPE":"992","Class":"2"},"geometry":{"x":120.69256934081534,"y":22.190398165089288}},{"attributes":{"OBJECTID":15977,"LANDMARKID":"1001300000429","LANDMARKCO":"203","LANDMARKNA":"縣立加祿國小","LANDMARKAD":"1001325","ADDRESS":"屏東縣枋山鄉加祿村會社路28號","TEL":"08-8720060","COUNTYNAME":"屏東縣","TOWNNAME":"枋山鄉","MARKTYPE":"992","Class":"2"},"geometry":{"x":120.62104476372618,"y":22.33041728248055}},{"attributes":{"OBJECTID":15978,"LANDMARKID":"1001300000430","LANDMARKCO":"203","LANDMARKNA":"縣立內獅國小","LANDMARKAD":"1001325","ADDRESS":"屏東縣獅子鄉內獅村1號","TEL":"08-8720003","COUNTYNAME":"屏東縣","TOWNNAME":"枋山鄉","MARKTYPE":"992","Class":"2"},"geometry":{"x":120.6430028320496,"y":22.304726890107531}},{"attributes":{"OBJECTID":15979,"LANDMARKID":"1001300000431","LANDMARKCO":"203","LANDMARKNA":"縣立成功國小","LANDMARKAD":"1001325","ADDRESS":"屏東縣枋山鄉","TEL":" ","COUNTYNAME":"屏東縣","TOWNNAME":"枋山鄉","MARKTYPE":"992","Class":"2"},"geometry":{"x":120.66090172773019,"y":22.247147145945487}},{"attributes":{"OBJECTID":15980,"LANDMARKID":"1001300000697","LANDMARKCO":"301","LANDMARKNA":"加祿火車站","LANDMARKAD":"1001325","ADDRESS":"屏東縣枋山鄉加祿村會社路53號","TEL":"08-8720791","COUNTYNAME":"屏東縣","TOWNNAME":"枋山鄉","MARKTYPE":"993","Class":"301"},"geometry":{"x":120.62461701015445,"y":22.33097737258748}},{"attributes":{"OBJECTID":15981,"LANDMARKID":"1001300000698","LANDMARKCO":"301","LANDMARKNA":"內獅火車站","LANDMARKAD":"1001325","ADDRESS":"屏東縣枋山鄉","TEL":" ","COUNTYNAME":"屏東縣","TOWNNAME":"枋山鄉","MARKTYPE":"993","Class":"301"},"geometry":{"x":120.64334883936668,"y":22.30623052199746}},{"attributes":{"OBJECTID":15982,"LANDMARKID":"1001300001295","LANDMARKCO":"603","LANDMARKNA":"隆安旅社","LANDMARKAD":"1001325","ADDRESS":"屏東縣枋山鄉楓港村舊庄路27號","TEL":"08-8771367","COUNTYNAME":"屏東縣","TOWNNAME":"枋山鄉","MARKTYPE":"996","Class":"6"},"geometry":{"x":120.69166267721793,"y":22.195508337592873}},{"attributes":{"OBJECTID":15983,"LANDMARKID":"1001300001414","LANDMARKCO":"604","LANDMARKNA":"聯發山海民宿","LANDMARKAD":"1001325","ADDRESS":"屏東縣枋山鄉枋山村中山路4段39號","TEL":"08-8761218","COUNTYNAME":"屏東縣","TOWNNAME":"枋山鄉","MARKTYPE":"996","Class":"6"},"geometry":{"x":120.65304712194818,"y":22.263924264267519}},{"attributes":{"OBJECTID":15984,"LANDMARKID":"1001300001215","LANDMARKCO":"505","LANDMARKNA":"枋山之星國際度假村","LANDMARKAD":"1001325","ADDRESS":"屏東縣枋山鄉中山路三段124號","TEL":"08-8761213","COUNTYNAME":"屏東縣","TOWNNAME":"枋山鄉","MARKTYPE":"995","Class":"5"},"geometry":{"x":120.65618139800455,"y":22.252653111221672}},{"attributes":{"OBJECTID":15985,"LANDMARKID":"1001300000206","LANDMARKCO":"107","LANDMARKNA":"屏東縣警察局丹路派出所","LANDMARKAD":"1001332","ADDRESS":"屏東縣獅子鄉丹路村巴士巷13號","TEL":"08-8771403","COUNTYNAME":"屏東縣","TOWNNAME":"獅子鄉","MARKTYPE":"991","Class":"1"},"geometry":{"x":120.74830293479229,"y":22.20458304229097}},{"attributes":{"OBJECTID":15986,"LANDMARKID":"1001300000207","LANDMARKCO":"107","LANDMARKNA":"屏東縣警察局竹坑派出所","LANDMARKAD":"1001332","ADDRESS":"屏東縣獅子鄉竹坑村竹坑巷2號","TEL":"08-8771886","COUNTYNAME":"屏東縣","TOWNNAME":"獅子鄉","MARKTYPE":"991","Class":"1"},"geometry":{"x":120.70162628810618,"y":22.14634215812362}},{"attributes":{"OBJECTID":15987,"LANDMARKID":"1001300000208","LANDMARKCO":"107","LANDMARKNA":"屏東縣警察局內獅派出所","LANDMARKAD":"1001332","ADDRESS":"屏東縣獅子鄉內獅村內獅巷60號","TEL":"08-8720004","COUNTYNAME":"屏東縣","TOWNNAME":"獅子鄉","MARKTYPE":"991","Class":"1"},"geometry":{"x":120.64510474605888,"y":22.304461315794008}},{"attributes":{"OBJECTID":15988,"LANDMARKID":"1001300000148","LANDMARKCO":"106","LANDMARKNA":"屏東縣獅子鄉戶政事務所","LANDMARKAD":"1001332","ADDRESS":"屏東縣獅子鄉楓林村8鄰楓林2巷25號","TEL":"08-8771618","COUNTYNAME":"屏東縣","TOWNNAME":"獅子鄉","MARKTYPE":"991","Class":"1"},"geometry":{"x":120.70509458894274,"y":22.201713272793736}},{"attributes":{"OBJECTID":15989,"LANDMARKID":"1001300000200","LANDMARKCO":"107","LANDMARKNA":"屏東縣警察局草埔派出所","LANDMARKAD":"1001332","ADDRESS":"屏東縣獅子鄉草埔村5號","TEL":"08-8701484","COUNTYNAME":"屏東縣","TOWNNAME":"獅子鄉","MARKTYPE":"991","Class":"1"},"geometry":{"x":120.80317927491055,"y":22.235816377050547}},{"attributes":{"OBJECTID":15990,"LANDMARKID":"1001300000201","LANDMARKCO":"107","LANDMARKNA":"屏東縣警察局內文派出所","LANDMARKAD":"1001332","ADDRESS":"屏東縣獅子鄉內文村1巷30號","TEL":"08-8700009","COUNTYNAME":"屏東縣","TOWNNAME":"獅子鄉","MARKTYPE":"991","Class":"1"},"geometry":{"x":120.85071721160223,"y":22.217623328646958}},{"attributes":{"OBJECTID":15991,"LANDMARKID":"1001300000202","LANDMARKCO":"107","LANDMARKNA":"屏東縣警察局和平派出所","LANDMARKAD":"1001332","ADDRESS":"屏東縣獅子鄉獅子村獅子巷52號","TEL":"08-8761428","COUNTYNAME":"屏東縣","TOWNNAME":"獅子鄉","MARKTYPE":"991","Class":"1"},"geometry":{"x":120.68253085894908,"y":22.233009868089379}},{"attributes":{"OBJECTID":15992,"LANDMARKID":"1001300000203","LANDMARKCO":"107","LANDMARKNA":"屏東縣警察局獅子分駐所","LANDMARKAD":"1001332","ADDRESS":"屏東縣獅子鄉楓林村8鄰2巷25號","TEL":"08-8771391","COUNTYNAME":"屏東縣","TOWNNAME":"獅子鄉","MARKTYPE":"991","Class":"1"},"geometry":{"x":120.70542524216413,"y":22.202888564101045}},{"attributes":{"OBJECTID":15993,"LANDMARKID":"1001300000050","LANDMARKCO":"103","LANDMARKNA":"屏東縣獅子鄉衛生所","LANDMARKAD":"1001332","ADDRESS":"屏東縣獅子鄉楓林村2巷31號","TEL":"08-8771324","COUNTYNAME":"屏東縣","TOWNNAME":"獅子鄉","MARKTYPE":"991","Class":"1"},"geometry":{"x":120.70486030828076,"y":22.20207368664925}},{"attributes":{"OBJECTID":15994,"LANDMARKID":"1001300000051","LANDMARKCO":"103","LANDMARKNA":"屏東縣獅子鄉鄉民代表會","LANDMARKAD":"1001332","ADDRESS":"屏東縣獅子鄉楓林村2巷26號","TEL":"08-8771485","COUNTYNAME":"屏東縣","TOWNNAME":"獅子鄉","MARKTYPE":"991","Class":"1"},"geometry":{"x":120.70451190770066,"y":22.201891791604389}},{"attributes":{"OBJECTID":15995,"LANDMARKID":"1001300000325","LANDMARKCO":"108","LANDMARKNA":"屏東縣獅子鄉公所","LANDMARKAD":"1001332","ADDRESS":"屏東縣獅子鄉楓林村2巷26號","TEL":"08-8771129","COUNTYNAME":"屏東縣","TOWNNAME":"獅子鄉","MARKTYPE":"991","Class":"1"},"geometry":{"x":120.70452160638246,"y":22.201891826364491}},{"attributes":{"OBJECTID":15996,"LANDMARKID":"1001300000660","LANDMARKCO":"204","LANDMARKNA":"屏東縣立圖書館獅子分館","LANDMARKAD":"1001332","ADDRESS":"屏東縣獅子鄉楓林村28號","TEL":" ","COUNTYNAME":"屏東縣","TOWNNAME":"獅子鄉","MARKTYPE":"992","Class":"2"},"geometry":{"x":120.7046425761912,"y":22.203303984618842}},{"attributes":{"OBJECTID":15997,"LANDMARKID":"1001300000418","LANDMARKCO":"203","LANDMARKNA":"縣立丹路國小","LANDMARKAD":"1001332","ADDRESS":"屏東縣獅子鄉丹路村1巷39號","TEL":"08-8771455","COUNTYNAME":"屏東縣","TOWNNAME":"獅子鄉","MARKTYPE":"992","Class":"2"},"geometry":{"x":120.75155077326683,"y":22.203504938682343}},{"attributes":{"OBJECTID":15998,"LANDMARKID":"1001300000419","LANDMARKCO":"203","LANDMARKNA":"縣立草埔國小","LANDMARKAD":"1001332","ADDRESS":"屏東縣獅子鄉草埔村1巷5號","TEL":"08-8771449","COUNTYNAME":"屏東縣","TOWNNAME":"獅子鄉","MARKTYPE":"992","Class":"2"},"geometry":{"x":120.80321140462459,"y":22.234732665899227}},{"attributes":{"OBJECTID":15999,"LANDMARKID":"1001300000420","LANDMARKCO":"203","LANDMARKNA":"縣立楓林國小","LANDMARKAD":"1001332","ADDRESS":"屏東縣獅子鄉楓林村2巷22之1號","TEL":"08-8771371","COUNTYNAME":"屏東縣","TOWNNAME":"獅子鄉","MARKTYPE":"992","Class":"2"},"geometry":{"x":120.70694021970611,"y":22.199637636025948}},{"attributes":{"OBJECTID":16000,"LANDMARKID":"1001300000421","LANDMARKCO":"203","LANDMARKNA":"縣立楓林國小竹坑分班","LANDMARKAD":"1001332","ADDRESS":"屏東縣獅子鄉","TEL":" ","COUNTYNAME":"屏東縣","TOWNNAME":"獅子鄉","MARKTYPE":"992","Class":"2"},"geometry":{"x":120.70184662580955,"y":22.146072014610194}}]}