{"displayFieldName":"COUNTYNAME","fieldAliases":{"OBJECTID":"OBJECTID","LANDMARKID":"LANDMARKID","LANDMARKCO":"LANDMARKCO","LANDMARKNA":"LANDMARKNA","LANDMARKAD":"LANDMARKAD","ADDRESS":"ADDRESS","TEL":"TEL","COUNTYNAME":"COUNTYNAME","TOWNNAME":"TOWNNAME","MARKTYPE":"MARKTYPE","Class":"Class"},"geometryType":"esriGeometryPoint","spatialReference":{"wkid":4326},"fields":[{"name":"OBJECTID","type":"esriFieldTypeOID","alias":"OBJECTID"},{"name":"LANDMARKID","type":"esriFieldTypeString","alias":"LANDMARKID","length":15},{"name":"LANDMARKCO","type":"esriFieldTypeString","alias":"LANDMARKCO","length":15},{"name":"LANDMARKNA","type":"esriFieldTypeString","alias":"LANDMARKNA","length":50},{"name":"LANDMARKAD","type":"esriFieldTypeString","alias":"LANDMARKAD","length":15},{"name":"ADDRESS","type":"esriFieldTypeString","alias":"ADDRESS","length":56},{"name":"TEL","type":"esriFieldTypeString","alias":"TEL","length":36},{"name":"COUNTYNAME","type":"esriFieldTypeString","alias":"COUNTYNAME","length":15},{"name":"TOWNNAME","type":"esriFieldTypeString","alias":"TOWNNAME","length":13},{"name":"MARKTYPE","type":"esriFieldTypeString","alias":"MARKTYPE","length":12},{"name":"Class","type":"esriFieldTypeString","alias":"Class","length":5}],"features":[{"attributes":{"OBJECTID":19001,"LANDMARKID":"1001700000021","LANDMARKCO":"101","LANDMARKNA":"台北區監理所基隆監理站","LANDMARKAD":"1001702","ADDRESS":"基隆市七堵區實踐路296號","TEL":"02-24515311","COUNTYNAME":"基隆市","TOWNNAME":"七堵區","MARKTYPE":"991","Class":"1"},"geometry":{"x":121.69630311840177,"y":25.088304011401327}},{"attributes":{"OBJECTID":19002,"LANDMARKID":"1001700000046","LANDMARKCO":"104","LANDMARKNA":"北區國稅局七堵稽徵所","LANDMARKAD":"1001702","ADDRESS":"基隆市七堵區俊賢路45號4樓","TEL":"02-24551242","COUNTYNAME":"基隆市","TOWNNAME":"七堵區","MARKTYPE":"991","Class":"1"},"geometry":{"x":121.70620913652481,"y":25.095017825900058}},{"attributes":{"OBJECTID":19003,"LANDMARKID":"1001700000020","LANDMARKCO":"101","LANDMARKNA":"內政部營建署","LANDMARKAD":"1001702","ADDRESS":"基隆市七堵區百七街66號1樓","TEL":"02-24511054","COUNTYNAME":"基隆市","TOWNNAME":"七堵區","MARKTYPE":"991","Class":"1"},"geometry":{"x":121.69734624112327,"y":25.08680632224247}},{"attributes":{"OBJECTID":19004,"LANDMARKID":"1001700000023","LANDMARKCO":"103","LANDMARKNA":"基隆市六堵工業區聯合防護團","LANDMARKAD":"1001702","ADDRESS":"基隆市七堵區工建路194號之1，3樓","TEL":"02-24513363","COUNTYNAME":"基隆市","TOWNNAME":"七堵區","MARKTYPE":"991","Class":"1"},"geometry":{"x":121.70040835924424,"y":25.091715224623165}},{"attributes":{"OBJECTID":19005,"LANDMARKID":"1001700000045","LANDMARKCO":"104","LANDMARKNA":"財務部基隆關稅局六堵分局","LANDMARKAD":"1001702","ADDRESS":"基隆市七堵區南光街21號","TEL":"02-24554202","COUNTYNAME":"基隆市","TOWNNAME":"七堵區","MARKTYPE":"991","Class":"1"},"geometry":{"x":121.71230716335454,"y":25.094717456119529}},{"attributes":{"OBJECTID":19006,"LANDMARKID":"1001700000182","LANDMARKCO":"204","LANDMARKNA":"基隆市立圖書館七堵分館","LANDMARKAD":"1001702","ADDRESS":"基隆市七堵區福三街92號","TEL":" ","COUNTYNAME":"基隆市","TOWNNAME":"七堵區","MARKTYPE":"992","Class":"2"},"geometry":{"x":121.69733672102458,"y":25.084127126620754}},{"attributes":{"OBJECTID":19007,"LANDMARKID":"1001700000114","LANDMARKCO":"202","LANDMARKNA":"國立基隆商工","LANDMARKAD":"1001702","ADDRESS":"基隆市七堵區東新街22號","TEL":"02-24567126","COUNTYNAME":"基隆市","TOWNNAME":"七堵區","MARKTYPE":"992","Class":"2"},"geometry":{"x":121.71731359618447,"y":25.094892304811189}},{"attributes":{"OBJECTID":19008,"LANDMARKID":"1001700000125","LANDMARKCO":"203","LANDMARKNA":"市立明德國中","LANDMARKAD":"1001702","ADDRESS":"基隆市七堵區東新街20號","TEL":"02-24561274","COUNTYNAME":"基隆市","TOWNNAME":"七堵區","MARKTYPE":"992","Class":"2"},"geometry":{"x":121.71552202639594,"y":25.093641391751621}},{"attributes":{"OBJECTID":19009,"LANDMARKID":"1001700000126","LANDMARKCO":"203","LANDMARKNA":"市立百福國中","LANDMARKAD":"1001702","ADDRESS":"基隆市七堵區福五街1號","TEL":"02-24512975","COUNTYNAME":"基隆市","TOWNNAME":"七堵區","MARKTYPE":"992","Class":"2"},"geometry":{"x":121.69868565968318,"y":25.083683618820285}},{"attributes":{"OBJECTID":19010,"LANDMARKID":"1001700000127","LANDMARKCO":"203","LANDMARKNA":"市立尚仁國小","LANDMARKAD":"1001702","ADDRESS":"基隆市七堵區八德路20號","TEL":"02-24311708","COUNTYNAME":"基隆市","TOWNNAME":"七堵區","MARKTYPE":"992","Class":"2"},"geometry":{"x":121.72790418639266,"y":25.111095566400401}},{"attributes":{"OBJECTID":19011,"LANDMARKID":"1001700000128","LANDMARKCO":"203","LANDMARKNA":"市立瑪陵國小","LANDMARKAD":"1001702","ADDRESS":"基隆市七堵區大成街1號","TEL":"02-24565663","COUNTYNAME":"基隆市","TOWNNAME":"七堵區","MARKTYPE":"992","Class":"2"},"geometry":{"x":121.68992524006964,"y":25.109884878185763}},{"attributes":{"OBJECTID":19012,"LANDMARKID":"1001700000129","LANDMARKCO":"203","LANDMARKNA":"市立堵南國小","LANDMARKAD":"1001702","ADDRESS":"基隆市七堵區大德路120號","TEL":"02-24511339","COUNTYNAME":"基隆市","TOWNNAME":"七堵區","MARKTYPE":"992","Class":"2"},"geometry":{"x":121.69221344000461,"y":25.083273724326119}},{"attributes":{"OBJECTID":19013,"LANDMARKID":"1001700000130","LANDMARKCO":"203","LANDMARKNA":"市立五堵國小","LANDMARKAD":"1001702","ADDRESS":"基隆市七堵區百一街25號","TEL":"02-24511457","COUNTYNAME":"基隆市","TOWNNAME":"七堵區","MARKTYPE":"992","Class":"2"},"geometry":{"x":121.69461219484587,"y":25.079693742084849}},{"attributes":{"OBJECTID":19014,"LANDMARKID":"1001700000131","LANDMARKCO":"203","LANDMARKNA":"市立七堵國小","LANDMARKAD":"1001702","ADDRESS":"基隆市七堵區明德一路184號","TEL":"02-24567116","COUNTYNAME":"基隆市","TOWNNAME":"七堵區","MARKTYPE":"992","Class":"2"},"geometry":{"x":121.71364844530925,"y":25.097767256198836}},{"attributes":{"OBJECTID":19015,"LANDMARKID":"1001700000132","LANDMARKCO":"203","LANDMARKNA":"市立長興國小","LANDMARKAD":"1001702","ADDRESS":"基隆市七堵區東新街3號","TEL":"02-24552096","COUNTYNAME":"基隆市","TOWNNAME":"七堵區","MARKTYPE":"992","Class":"2"},"geometry":{"x":121.71409136005205,"y":25.092528927851767}},{"attributes":{"OBJECTID":19016,"LANDMARKID":"1001700000133","LANDMARKCO":"203","LANDMARKNA":"市立華興國小","LANDMARKAD":"1001702","ADDRESS":"基隆市七堵區泰安路34號","TEL":"02-24512022","COUNTYNAME":"基隆市","TOWNNAME":"七堵區","MARKTYPE":"992","Class":"2"},"geometry":{"x":121.70806228674356,"y":25.087791471191593}},{"attributes":{"OBJECTID":19017,"LANDMARKID":"1001700000134","LANDMARKCO":"203","LANDMARKNA":"市立復興國小","LANDMARKAD":"1001702","ADDRESS":"基隆市七堵區華興二路21號","TEL":"02-24515601","COUNTYNAME":"基隆市","TOWNNAME":"七堵區","MARKTYPE":"992","Class":"2"},"geometry":{"x":121.66536902364732,"y":25.107223730920204}},{"attributes":{"OBJECTID":19018,"LANDMARKID":"1001700000135","LANDMARKCO":"203","LANDMARKNA":"市立瑪陵國小瑪西分校","LANDMARKAD":"1001702","ADDRESS":"基隆市七堵區","TEL":" ","COUNTYNAME":"基隆市","TOWNNAME":"七堵區","MARKTYPE":"992","Class":"2"},"geometry":{"x":121.67911211262749,"y":25.124585695330037}},{"attributes":{"OBJECTID":19019,"LANDMARKID":"1001700000136","LANDMARKCO":"203","LANDMARKNA":"市立瑪陵國小瑪東分校","LANDMARKAD":"1001702","ADDRESS":"基隆市七堵區","TEL":" ","COUNTYNAME":"基隆市","TOWNNAME":"七堵區","MARKTYPE":"992","Class":"2"},"geometry":{"x":121.69846603957615,"y":25.118898771471187}},{"attributes":{"OBJECTID":19020,"LANDMARKID":"1001700000260","LANDMARKCO":"308","LANDMARKNA":"七堵收費站","LANDMARKAD":"1001702","ADDRESS":" ","TEL":" ","COUNTYNAME":"基隆市","TOWNNAME":"七堵區","MARKTYPE":"993","Class":"308"},"geometry":{"x":121.68472586742361,"y":25.108653166043965}},{"attributes":{"OBJECTID":19021,"LANDMARKID":"1001700000261","LANDMARKCO":"308","LANDMARKNA":"國1-五堵交流道-北上","LANDMARKAD":"1001702","ADDRESS":"基隆市七堵區","TEL":" ","COUNTYNAME":"基隆市","TOWNNAME":"七堵區","MARKTYPE":"993","Class":"308"},"geometry":{"x":121.68817171784127,"y":25.086754820065757}},{"attributes":{"OBJECTID":19022,"LANDMARKID":"1001700000262","LANDMARKCO":"308","LANDMARKNA":"國1-八堵交流道-南下","LANDMARKAD":"1001702","ADDRESS":"基隆市七堵區","TEL":" ","COUNTYNAME":"基隆市","TOWNNAME":"七堵區","MARKTYPE":"993","Class":"308"},"geometry":{"x":121.72225791447683,"y":25.104215677438074}},{"attributes":{"OBJECTID":19023,"LANDMARKID":"1001700000263","LANDMARKCO":"308","LANDMARKNA":"國1-基隆交流道-南下","LANDMARKAD":"1001702","ADDRESS":"基隆市七堵區","TEL":" ","COUNTYNAME":"基隆市","TOWNNAME":"七堵區","MARKTYPE":"993","Class":"308"},"geometry":{"x":121.72741633915058,"y":25.114877122276614}},{"attributes":{"OBJECTID":19024,"LANDMARKID":"1001700000264","LANDMARKCO":"308","LANDMARKNA":"國3-瑪東系統交流道-南下","LANDMARKAD":"1001702","ADDRESS":"基隆市七堵區","TEL":" ","COUNTYNAME":"基隆市","TOWNNAME":"七堵區","MARKTYPE":"993","Class":"308"},"geometry":{"x":121.69662061625398,"y":25.12263885657114}},{"attributes":{"OBJECTID":19025,"LANDMARKID":"1001700000265","LANDMARKCO":"308","LANDMARKNA":"國1-五堵交流道-南下","LANDMARKAD":"1001702","ADDRESS":"基隆市七堵區","TEL":" ","COUNTYNAME":"基隆市","TOWNNAME":"七堵區","MARKTYPE":"993","Class":"308"},"geometry":{"x":121.68547674668952,"y":25.086485646789143}},{"attributes":{"OBJECTID":19026,"LANDMARKID":"1001700000266","LANDMARKCO":"308","LANDMARKNA":"國3-瑪東系統交流道-北上","LANDMARKAD":"1001702","ADDRESS":"基隆市七堵區","TEL":" ","COUNTYNAME":"基隆市","TOWNNAME":"七堵區","MARKTYPE":"993","Class":"308"},"geometry":{"x":121.6984124677718,"y":25.126976993039602}},{"attributes":{"OBJECTID":19027,"LANDMARKID":"1001700000267","LANDMARKCO":"308","LANDMARKNA":"台62-瑪東系統交流道-東行","LANDMARKAD":"1001702","ADDRESS":" ","TEL":" ","COUNTYNAME":"基隆市","TOWNNAME":"七堵區","MARKTYPE":"993","Class":"308"},"geometry":{"x":121.69809180361204,"y":25.123116113368699}},{"attributes":{"OBJECTID":19028,"LANDMARKID":"1001700000268","LANDMARKCO":"308","LANDMARKNA":"台62-七堵一交流道-東行","LANDMARKAD":"1001702","ADDRESS":" ","TEL":" ","COUNTYNAME":"基隆市","TOWNNAME":"七堵區","MARKTYPE":"993","Class":"308"},"geometry":{"x":121.69150220830213,"y":25.111152088066937}},{"attributes":{"OBJECTID":19029,"LANDMARKID":"1001700000269","LANDMARKCO":"308","LANDMARKNA":"台62-七堵一交流道-西行","LANDMARKAD":"1001702","ADDRESS":" ","TEL":" ","COUNTYNAME":"基隆市","TOWNNAME":"七堵區","MARKTYPE":"993","Class":"308"},"geometry":{"x":121.6945767747258,"y":25.115761664724229}},{"attributes":{"OBJECTID":19030,"LANDMARKID":"1001700000238","LANDMARKCO":"303","LANDMARKNA":"開元路立體停車場","LANDMARKAD":"1001702","ADDRESS":"基隆市七堵區開元路59號","TEL":" ","COUNTYNAME":"基隆市","TOWNNAME":"七堵區","MARKTYPE":"993","Class":"303"},"geometry":{"x":121.71423777345754,"y":25.096324898910645}},{"attributes":{"OBJECTID":19031,"LANDMARKID":"1001700000239","LANDMARKCO":"303","LANDMARKNA":"停車場步道口","LANDMARKAD":"1001702","ADDRESS":"基隆市七堵區泰安路七堵南方草濫山區","TEL":" ","COUNTYNAME":"基隆市","TOWNNAME":"七堵區","MARKTYPE":"993","Class":"303"},"geometry":{"x":121.71661872266571,"y":25.071255868612973}},{"attributes":{"OBJECTID":19032,"LANDMARKID":"1001700000240","LANDMARKCO":"303","LANDMARKNA":"基隆市立百福國民小學停車場","LANDMARKAD":"1001702","ADDRESS":"基隆市七堵區福五街1號","TEL":" ","COUNTYNAME":"基隆市","TOWNNAME":"七堵區","MARKTYPE":"993","Class":"303"},"geometry":{"x":121.69900321809467,"y":25.082252923734806}},{"attributes":{"OBJECTID":19033,"LANDMARKID":"1001700000241","LANDMARKCO":"303","LANDMARKNA":"永固停車場-七堵站","LANDMARKAD":"1001702","ADDRESS":"基隆市七堵區百六街60號旁空地","TEL":" ","COUNTYNAME":"基隆市","TOWNNAME":"七堵區","MARKTYPE":"993","Class":"303"},"geometry":{"x":121.69620975128639,"y":25.085233806891882}},{"attributes":{"OBJECTID":19034,"LANDMARKID":"1001700000190","LANDMARKCO":"301","LANDMARKNA":"百福站","LANDMARKAD":"1001702","ADDRESS":"基隆市明德三路1-1號","TEL":"02-24528372","COUNTYNAME":"基隆市","TOWNNAME":"七堵區","MARKTYPE":"993","Class":"301"},"geometry":{"x":121.69322789186104,"y":25.077644796335075}},{"attributes":{"OBJECTID":19035,"LANDMARKID":"1001700000191","LANDMARKCO":"301","LANDMARKNA":"七堵火車站","LANDMARKAD":"1001702","ADDRESS":"基隆市七堵區正光里崇禮街1之1號","TEL":" ","COUNTYNAME":"基隆市","TOWNNAME":"七堵區","MARKTYPE":"993","Class":"301"},"geometry":{"x":121.71598606794289,"y":25.09745692616497}},{"attributes":{"OBJECTID":19036,"LANDMARKID":"1001700000285","LANDMARKCO":"402","LANDMARKNA":"中華電信-七堵服務中心","LANDMARKAD":"1001702","ADDRESS":"基隆市七堵區崇智街2-5號","TEL":"123或0800-080-123","COUNTYNAME":"基隆市","TOWNNAME":"七堵區","MARKTYPE":"994","Class":"4"},"geometry":{"x":121.71479145592147,"y":25.097002284445715}},{"attributes":{"OBJECTID":19037,"LANDMARKID":"1001700000311","LANDMARKCO":"405","LANDMARKNA":"中油加油站-碇內站(中油直營)","LANDMARKAD":"1001703","ADDRESS":"基隆市暖暖區源遠路157號","TEL":"02-24577214","COUNTYNAME":"基隆市","TOWNNAME":"暖暖區","MARKTYPE":"994","Class":"4"},"geometry":{"x":121.74863079576203,"y":25.098439954055294}},{"attributes":{"OBJECTID":19038,"LANDMARKID":"1001700000312","LANDMARKCO":"405","LANDMARKNA":"中油加油站-八堵加油加氣站(刷卡自助)(中油直營)","LANDMARKAD":"1001703","ADDRESS":"基隆市暖暖區八堵路158號","TEL":"02-24560524","COUNTYNAME":"基隆市","TOWNNAME":"暖暖區","MARKTYPE":"994","Class":"4"},"geometry":{"x":121.72590139148458,"y":25.104076353148702}},{"attributes":{"OBJECTID":19039,"LANDMARKID":"1001700000270","LANDMARKCO":"401","LANDMARKNA":"臺灣區煤礦業同業公會附設臺灣礦工醫院","LANDMARKAD":"1001703","ADDRESS":"基隆市暖暖區源遠路29號","TEL":"02-24579101","COUNTYNAME":"基隆市","TOWNNAME":"暖暖區","MARKTYPE":"994","Class":"4"},"geometry":{"x":121.73316802405699,"y":25.107981097510748}},{"attributes":{"OBJECTID":19040,"LANDMARKID":"1001700000376","LANDMARKCO":"408","LANDMARKNA":"郵局-基隆過港路郵局","LANDMARKAD":"1001703","ADDRESS":"基隆市暖暖區過港路58號","TEL":"(02)2457-2339","COUNTYNAME":"基隆市","TOWNNAME":"暖暖區","MARKTYPE":"994","Class":"4"},"geometry":{"x":121.73785099173112,"y":25.105190631102328}},{"attributes":{"OBJECTID":19041,"LANDMARKID":"1001700000377","LANDMARKCO":"408","LANDMARKNA":"郵局-基隆碇內郵局","LANDMARKAD":"1001703","ADDRESS":"基隆市暖暖區源遠路341號","TEL":"(02)2457-6082","COUNTYNAME":"基隆市","TOWNNAME":"暖暖區","MARKTYPE":"994","Class":"4"},"geometry":{"x":121.75828077748608,"y":25.099593450250435}},{"attributes":{"OBJECTID":19042,"LANDMARKID":"1001700000378","LANDMARKCO":"408","LANDMARKNA":"郵局-基隆暖暖郵局","LANDMARKAD":"1001703","ADDRESS":"基隆市暖暖區暖暖街190號","TEL":"(02)2458-4870","COUNTYNAME":"基隆市","TOWNNAME":"暖暖區","MARKTYPE":"994","Class":"4"},"geometry":{"x":121.73558293663096,"y":25.099304255955744}},{"attributes":{"OBJECTID":19043,"LANDMARKID":"1001700000344","LANDMARKCO":"406","LANDMARKNA":"碇內公園","LANDMARKAD":"1001703","ADDRESS":"基隆市暖暖區","TEL":" ","COUNTYNAME":"基隆市","TOWNNAME":"暖暖區","MARKTYPE":"994","Class":"4"},"geometry":{"x":121.75424856351567,"y":25.095339554434805}},{"attributes":{"OBJECTID":19044,"LANDMARKID":"1001700000063","LANDMARKCO":"107","LANDMARKNA":"基隆市警察局八堵分駐所","LANDMARKAD":"1001703","ADDRESS":"基隆市八堵路130號","TEL":"02-24562438","COUNTYNAME":"基隆市","TOWNNAME":"暖暖區","MARKTYPE":"991","Class":"1"},"geometry":{"x":121.73208157046793,"y":25.108894594373343}},{"attributes":{"OBJECTID":19045,"LANDMARKID":"1001700000022","LANDMARKCO":"103","LANDMARKNA":"基隆巿暖暖區衛生所","LANDMARKAD":"1001703","ADDRESS":"基隆市暖暖區暖暖街281巷98號","TEL":"02-24572630","COUNTYNAME":"基隆市","TOWNNAME":"暖暖區","MARKTYPE":"991","Class":"1"},"geometry":{"x":121.73658112992543,"y":25.098992126705109}},{"attributes":{"OBJECTID":19046,"LANDMARKID":"1001700000100","LANDMARKCO":"108","LANDMARKNA":"基隆市暖暖區公所","LANDMARKAD":"1001703","ADDRESS":"基隆市暖暖區東勢街2號","TEL":"02-24579121","COUNTYNAME":"基隆市","TOWNNAME":"暖暖區","MARKTYPE":"991","Class":"1"},"geometry":{"x":121.73604427144539,"y":25.10020014406312}},{"attributes":{"OBJECTID":19047,"LANDMARKID":"1001700000064","LANDMARKCO":"107","LANDMARKNA":"基隆市消防局暖暖消防分隊","LANDMARKAD":"1001703","ADDRESS":"基隆市暖暖區源遠路30號","TEL":"02-24574119","COUNTYNAME":"基隆市","TOWNNAME":"暖暖區","MARKTYPE":"991","Class":"1"},"geometry":{"x":121.73799038790895,"y":25.102740471388277}},{"attributes":{"OBJECTID":19048,"LANDMARKID":"1001700000065","LANDMARKCO":"107","LANDMARKNA":"基隆市警察局碇內派出所","LANDMARKAD":"1001703","ADDRESS":"基隆市暖暖區源遠路249巷36號","TEL":"02-24576080","COUNTYNAME":"基隆市","TOWNNAME":"暖暖區","MARKTYPE":"991","Class":"1"},"geometry":{"x":121.75516427579304,"y":25.09975106037718}},{"attributes":{"OBJECTID":19049,"LANDMARKID":"1001700000066","LANDMARKCO":"107","LANDMARKNA":"基隆市警察局暖暖派出所","LANDMARKAD":"1001703","ADDRESS":"基隆市暖暖區暖暖街119號","TEL":"02-24572331","COUNTYNAME":"基隆市","TOWNNAME":"暖暖區","MARKTYPE":"991","Class":"1"},"geometry":{"x":121.73778639050099,"y":25.101103910878162}},{"attributes":{"OBJECTID":19050,"LANDMARKID":"1001700000055","LANDMARKCO":"106","LANDMARKNA":"基隆市暖暖區戶政事務所","LANDMARKAD":"1001703","ADDRESS":"基隆市暖暖區暖同里16鄰暖暖街246巷180號","TEL":"02-24575228","COUNTYNAME":"基隆市","TOWNNAME":"暖暖區","MARKTYPE":"991","Class":"1"},"geometry":{"x":121.73589678001079,"y":25.100199350208719}},{"attributes":{"OBJECTID":19051,"LANDMARKID":"1001700000183","LANDMARKCO":"204","LANDMARKNA":"基隆市立圖書館暖暖分館","LANDMARKAD":"1001703","ADDRESS":"基隆市暖暖區東勢街2號","TEL":" ","COUNTYNAME":"基隆市","TOWNNAME":"暖暖區","MARKTYPE":"992","Class":"2"},"geometry":{"x":121.73613154254814,"y":25.099830537017702}},{"attributes":{"OBJECTID":19052,"LANDMARKID":"1001700000116","LANDMARKCO":"202","LANDMARKNA":"市立暖暖高中","LANDMARKAD":"1001703","ADDRESS":"基隆市暖暖區暖中路112號","TEL":"02-24575534","COUNTYNAME":"基隆市","TOWNNAME":"暖暖區","MARKTYPE":"992","Class":"2"},"geometry":{"x":121.73764652227081,"y":25.107950648830172}},{"attributes":{"OBJECTID":19053,"LANDMARKID":"1001700000117","LANDMARKCO":"202","LANDMARKNA":"國立基隆高中","LANDMARKAD":"1001703","ADDRESS":"基隆市暖暖區源遠路20號","TEL":"02-24571225","COUNTYNAME":"基隆市","TOWNNAME":"暖暖區","MARKTYPE":"992","Class":"2"},"geometry":{"x":121.73295831831837,"y":25.107701084175112}},{"attributes":{"OBJECTID":19054,"LANDMARKID":"1001700000118","LANDMARKCO":"203","LANDMARKNA":"市立碇內國中","LANDMARKAD":"1001703","ADDRESS":"基隆市暖暖區源遠路152巷75號","TEL":"02-24586105","COUNTYNAME":"基隆市","TOWNNAME":"暖暖區","MARKTYPE":"992","Class":"2"},"geometry":{"x":121.7495746747058,"y":25.096103090414605}},{"attributes":{"OBJECTID":19055,"LANDMARKID":"1001700000119","LANDMARKCO":"203","LANDMARKNA":"市立暖暖國小","LANDMARKAD":"1001703","ADDRESS":"基隆市暖暖區暖暖街121號","TEL":"02-24583795","COUNTYNAME":"基隆市","TOWNNAME":"暖暖區","MARKTYPE":"992","Class":"2"},"geometry":{"x":121.73718701570907,"y":25.100574959981735}},{"attributes":{"OBJECTID":19056,"LANDMARKID":"1001700000120","LANDMARKCO":"203","LANDMARKNA":"市立碇內國小","LANDMARKAD":"1001703","ADDRESS":"基隆市暖暖區源遠路258號","TEL":"02-24581300","COUNTYNAME":"基隆市","TOWNNAME":"暖暖區","MARKTYPE":"992","Class":"2"},"geometry":{"x":121.75414690631567,"y":25.098120566576895}},{"attributes":{"OBJECTID":19057,"LANDMARKID":"1001700000121","LANDMARKCO":"203","LANDMARKNA":"市立八堵國小","LANDMARKAD":"1001703","ADDRESS":"基隆市暖暖區源遠路27號","TEL":"02-24573287#80","COUNTYNAME":"基隆市","TOWNNAME":"暖暖區","MARKTYPE":"992","Class":"2"},"geometry":{"x":121.73242620500663,"y":25.108640662813656}},{"attributes":{"OBJECTID":19058,"LANDMARKID":"1001700000122","LANDMARKCO":"203","LANDMARKNA":"市立暖江國小","LANDMARKAD":"1001703","ADDRESS":"基隆市暖暖區寧靜街3號","TEL":"02-24574348","COUNTYNAME":"基隆市","TOWNNAME":"暖暖區","MARKTYPE":"992","Class":"2"},"geometry":{"x":121.73782115501743,"y":25.105389544912136}},{"attributes":{"OBJECTID":19059,"LANDMARKID":"1001700000123","LANDMARKCO":"203","LANDMARKNA":"市立暖西國小","LANDMARKAD":"1001703","ADDRESS":"基隆市暖暖區暖暖街350號","TEL":"02-24591311","COUNTYNAME":"基隆市","TOWNNAME":"暖暖區","MARKTYPE":"992","Class":"2"},"geometry":{"x":121.73523785629015,"y":25.093863927129966}},{"attributes":{"OBJECTID":19060,"LANDMARKID":"1001700000124","LANDMARKCO":"203","LANDMARKNA":"市立暖暖國小暖東分班","LANDMARKAD":"1001703","ADDRESS":"基隆市暖暖區","TEL":" ","COUNTYNAME":"基隆市","TOWNNAME":"暖暖區","MARKTYPE":"992","Class":"2"},"geometry":{"x":121.75436872010745,"y":25.078087930705827}},{"attributes":{"OBJECTID":19061,"LANDMARKID":"1001700000235","LANDMARKCO":"303","LANDMARKNA":"基隆市立暖暖國中停車場","LANDMARKAD":"1001703","ADDRESS":"基隆市暖暖區暖中路112號","TEL":" ","COUNTYNAME":"基隆市","TOWNNAME":"暖暖區","MARKTYPE":"993","Class":"303"},"geometry":{"x":121.73774542640099,"y":25.107677324985005}},{"attributes":{"OBJECTID":19062,"LANDMARKID":"1001700000236","LANDMARKCO":"303","LANDMARKNA":"暖東峽谷停車場","LANDMARKAD":"1001703","ADDRESS":"基隆市暖暖區","TEL":" ","COUNTYNAME":"基隆市","TOWNNAME":"暖暖區","MARKTYPE":"993","Class":"303"},"geometry":{"x":121.75473267985564,"y":25.076879139772778}},{"attributes":{"OBJECTID":19063,"LANDMARKID":"1001700000237","LANDMARKCO":"303","LANDMARKNA":"基隆市立暖暖國中停車場","LANDMARKAD":"1001703","ADDRESS":"基隆市暖暖區暖中路112號","TEL":" ","COUNTYNAME":"基隆市","TOWNNAME":"暖暖區","MARKTYPE":"993","Class":"303"},"geometry":{"x":121.73776686917992,"y":25.107738224361448}},{"attributes":{"OBJECTID":19064,"LANDMARKID":"1001700000257","LANDMARKCO":"308","LANDMARKNA":"台62-暖暖交流道-西行","LANDMARKAD":"1001703","ADDRESS":" ","TEL":" ","COUNTYNAME":"基隆市","TOWNNAME":"暖暖區","MARKTYPE":"993","Class":"308"},"geometry":{"x":121.72941756870001,"y":25.105149477932752}},{"attributes":{"OBJECTID":19065,"LANDMARKID":"1001700000258","LANDMARKCO":"308","LANDMARKNA":"台62-暖暖交流道-東行","LANDMARKAD":"1001703","ADDRESS":" ","TEL":" ","COUNTYNAME":"基隆市","TOWNNAME":"暖暖區","MARKTYPE":"993","Class":"308"},"geometry":{"x":121.73438333401944,"y":25.104293134407492}},{"attributes":{"OBJECTID":19066,"LANDMARKID":"1001700000193","LANDMARKCO":"302","LANDMARKNA":"基隆市公共汽車暖暖分站","LANDMARKAD":"1001703","ADDRESS":"基隆市暖暖區源遠路30號","TEL":" ","COUNTYNAME":"基隆市","TOWNNAME":"暖暖區","MARKTYPE":"993","Class":"302"},"geometry":{"x":121.73873484273304,"y":25.10266270132378}},{"attributes":{"OBJECTID":19067,"LANDMARKID":"1001700000194","LANDMARKCO":"302","LANDMARKNA":"大有巴士","LANDMARKAD":"1001703","ADDRESS":"205基隆市暖暖區源遠路124號","TEL":"|","COUNTYNAME":"基隆市","TOWNNAME":"暖暖區","MARKTYPE":"993","Class":"302"},"geometry":{"x":121.74745776652958,"y":25.098479022398756}},{"attributes":{"OBJECTID":19068,"LANDMARKID":"1001700000232","LANDMARKCO":"303","LANDMARKNA":"礦工醫院停車場","LANDMARKAD":"1001703","ADDRESS":"基隆市暖暖區源遠路29號","TEL":" ","COUNTYNAME":"基隆市","TOWNNAME":"暖暖區","MARKTYPE":"993","Class":"303"},"geometry":{"x":121.73335044352268,"y":25.108316458433066}},{"attributes":{"OBJECTID":19069,"LANDMARKID":"1001700000233","LANDMARKCO":"303","LANDMARKNA":"八堵里臨時停車場","LANDMARKAD":"1001703","ADDRESS":"基隆市暖暖區","TEL":" ","COUNTYNAME":"基隆市","TOWNNAME":"暖暖區","MARKTYPE":"993","Class":"303"},"geometry":{"x":121.73390674897045,"y":25.106194462212798}},{"attributes":{"OBJECTID":19070,"LANDMARKID":"1001700000234","LANDMARKCO":"303","LANDMARKNA":"暖暖里臨時停車場","LANDMARKAD":"1001703","ADDRESS":"基隆市暖暖區暖暖街281巷","TEL":" ","COUNTYNAME":"基隆市","TOWNNAME":"暖暖區","MARKTYPE":"993","Class":"303"},"geometry":{"x":121.73491937029834,"y":25.097854136067227}},{"attributes":{"OBJECTID":19071,"LANDMARKID":"1001700000188","LANDMARKCO":"301","LANDMARKNA":"暖暖火車站","LANDMARKAD":"1001703","ADDRESS":"基隆市暖暖區","TEL":" ","COUNTYNAME":"基隆市","TOWNNAME":"暖暖區","MARKTYPE":"993","Class":"301"},"geometry":{"x":121.74016202943399,"y":25.102230827254367}},{"attributes":{"OBJECTID":19072,"LANDMARKID":"1001700000189","LANDMARKCO":"301","LANDMARKNA":"八堵火車站","LANDMARKAD":"1001703","ADDRESS":"基隆市暖暖區八南里八堵路142號","TEL":"02-24560841","COUNTYNAME":"基隆市","TOWNNAME":"暖暖區","MARKTYPE":"993","Class":"301"},"geometry":{"x":121.72870085556748,"y":25.108459329094806}},{"attributes":{"OBJECTID":19073,"LANDMARKID":"1001700000427","LANDMARKCO":"603","LANDMARKNA":"八堵旅社","LANDMARKAD":"1001703","ADDRESS":"基隆市暖暖區八堵路125號2樓","TEL":"02-24567690","COUNTYNAME":"基隆市","TOWNNAME":"暖暖區","MARKTYPE":"996","Class":"6"},"geometry":{"x":121.7289130738141,"y":25.107874009941373}},{"attributes":{"OBJECTID":19074,"LANDMARKID":"1001700000428","LANDMARKCO":"603","LANDMARKNA":"新生旅店","LANDMARKAD":"1001703","ADDRESS":"基隆市暖暖區八堵路131號","TEL":"02-24560951","COUNTYNAME":"基隆市","TOWNNAME":"暖暖區","MARKTYPE":"996","Class":"6"},"geometry":{"x":121.72879313883645,"y":25.107793936201155}},{"attributes":{"OBJECTID":19075,"LANDMARKID":"1001700000384","LANDMARKCO":"503","LANDMARKNA":"暖東峽谷","LANDMARKAD":"1001703","ADDRESS":"基隆市暖暖區東勢坑221號","TEL":" ","COUNTYNAME":"基隆市","TOWNNAME":"暖暖區","MARKTYPE":"995","Class":"5"},"geometry":{"x":121.75329731937056,"y":25.074768696937227}},{"attributes":{"OBJECTID":19076,"LANDMARKID":"1001200000874","LANDMARKCO":"405","LANDMARKNA":"中油加油站-伊比站","LANDMARKAD":"1001227","ADDRESS":"高雄市民生村大光巷188號","TEL":"07-6701981","COUNTYNAME":"高雄市","TOWNNAME":"那瑪夏區","MARKTYPE":"994","Class":"4"},"geometry":{"x":120.71975780515133,"y":23.273749595090571}},{"attributes":{"OBJECTID":19077,"LANDMARKID":"1001200001094","LANDMARKCO":"408","LANDMARKNA":"郵局-那瑪夏郵局","LANDMARKAD":"1001227","ADDRESS":"高雄市那瑪夏區南沙魯村鞍山巷9號","TEL":"(07)6701-138","COUNTYNAME":"高雄市","TOWNNAME":"那瑪夏區","MARKTYPE":"994","Class":"4"},"geometry":{"x":120.69247325834769,"y":23.217427647982035}},{"attributes":{"OBJECTID":19078,"LANDMARKID":"1001200001156","LANDMARKCO":"409","LANDMARKNA":"甲仙農會-三民分部","LANDMARKAD":"1001227","ADDRESS":"高雄市三民鄉民族村鞍山巷6號","TEL":"07-670-12","COUNTYNAME":"高雄市","TOWNNAME":"那瑪夏區","MARKTYPE":"994","Class":"4"},"geometry":{"x":120.69277443799143,"y":23.216912236120407}},{"attributes":{"OBJECTID":19079,"LANDMARKID":"1001200000232","LANDMARKCO":"107","LANDMARKNA":"高雄市消防局第三消防大隊部","LANDMARKAD":"1001227","ADDRESS":"高雄市美濃區民生路75號","TEL":"07-6817132","COUNTYNAME":"高雄市","TOWNNAME":"那瑪夏區","MARKTYPE":"991","Class":"1"},"geometry":{"x":120.69540175507468,"y":23.245852482656463}},{"attributes":{"OBJECTID":19080,"LANDMARKID":"1001200000233","LANDMARKCO":"107","LANDMARKNA":"高雄市政府警察局民治派出所","LANDMARKAD":"1001227","ADDRESS":"高雄市三民鄉民權村雙連堀1號","TEL":"07-6761280","COUNTYNAME":"高雄市","TOWNNAME":"那瑪夏區","MARKTYPE":"991","Class":"1"},"geometry":{"x":120.66680585423967,"y":23.21078993306039}},{"attributes":{"OBJECTID":19081,"LANDMARKID":"1001200000234","LANDMARKCO":"107","LANDMARKNA":"高雄市消防局三民消防分隊","LANDMARKAD":"1001227","ADDRESS":"高雄市三民鄉民權村10號","TEL":"07-6701440","COUNTYNAME":"高雄市","TOWNNAME":"那瑪夏區","MARKTYPE":"991","Class":"1"},"geometry":{"x":120.69542130014528,"y":23.245852558477861}},{"attributes":{"OBJECTID":19082,"LANDMARKID":"1001200000235","LANDMARKCO":"107","LANDMARKNA":"高雄市政府警察局民權派出所","LANDMARKAD":"1001227","ADDRESS":"高雄市三民鄉民權村74號","TEL":"07-6701282","COUNTYNAME":"高雄市","TOWNNAME":"那瑪夏區","MARKTYPE":"991","Class":"1"},"geometry":{"x":120.69763346914752,"y":23.238804845012908}},{"attributes":{"OBJECTID":19083,"LANDMARKID":"1001200000236","LANDMARKCO":"107","LANDMARKNA":"高雄市政府警察局民生派出所","LANDMARKAD":"1001227","ADDRESS":"高雄市三民鄉民生村2號","TEL":"07-6701118","COUNTYNAME":"高雄市","TOWNNAME":"那瑪夏區","MARKTYPE":"991","Class":"1"},"geometry":{"x":120.7206686760892,"y":23.271365398356913}},{"attributes":{"OBJECTID":19084,"LANDMARKID":"1001200000123","LANDMARKCO":"106","LANDMARKNA":"高雄市那瑪夏區戶政事務所","LANDMARKAD":"1001227","ADDRESS":"高雄市那瑪夏區南沙魯村鞍山巷60號","TEL":"07-6701141","COUNTYNAME":"高雄市","TOWNNAME":"那瑪夏區","MARKTYPE":"991","Class":"1"},"geometry":{"x":120.69006129727887,"y":23.213242814909073}},{"attributes":{"OBJECTID":19085,"LANDMARKID":"1001200000282","LANDMARKCO":"108","LANDMARKNA":"高雄市那瑪夏區公所","LANDMARKAD":"1001227","ADDRESS":"高雄市那瑪夏區南沙魯村鞍山巷1號","TEL":"07-6701001","COUNTYNAME":"高雄市","TOWNNAME":"那瑪夏區","MARKTYPE":"991","Class":"1"},"geometry":{"x":120.69269422538643,"y":23.21713074326405}},{"attributes":{"OBJECTID":19086,"LANDMARKID":"1001200000097","LANDMARKCO":"103","LANDMARKNA":"高雄市那瑪夏區鄉民代表會","LANDMARKAD":"1001227","ADDRESS":"高雄市那瑪夏區南沙魯村鞍山巷11號","TEL":"07-6701003","COUNTYNAME":"高雄市","TOWNNAME":"那瑪夏區","MARKTYPE":"991","Class":"1"},"geometry":{"x":120.69318674211496,"y":23.218396928759244}},{"attributes":{"OBJECTID":19087,"LANDMARKID":"1001200000098","LANDMARKCO":"103","LANDMARKNA":"高雄市那瑪夏區衛生所","LANDMARKAD":"1001227","ADDRESS":"高雄市那瑪夏區南沙魯村鞍山巷63號","TEL":"07-6701142","COUNTYNAME":"高雄市","TOWNNAME":"那瑪夏區","MARKTYPE":"991","Class":"1"},"geometry":{"x":120.69410559103665,"y":23.218310204762613}},{"attributes":{"OBJECTID":19088,"LANDMARKID":"1001200000574","LANDMARKCO":"204","LANDMARKNA":"高雄市立圖書館三民分館","LANDMARKAD":"1001227","ADDRESS":"高雄市三民鄉民族村鞍山巷4號","TEL":" ","COUNTYNAME":"高雄市","TOWNNAME":"那瑪夏區","MARKTYPE":"992","Class":"2"},"geometry":{"x":120.69263789172093,"y":23.216859470163975}},{"attributes":{"OBJECTID":19089,"LANDMARKID":"1001200000537","LANDMARKCO":"203","LANDMARKNA":"縣立三民國中","LANDMARKAD":"1001227","ADDRESS":"高雄市那瑪夏區瑪雅村平和巷171號","TEL":"07-6701813","COUNTYNAME":"高雄市","TOWNNAME":"那瑪夏區","MARKTYPE":"992","Class":"2"},"geometry":{"x":120.69769515909177,"y":23.239444396511036}},{"attributes":{"OBJECTID":19090,"LANDMARKID":"1001200000538","LANDMARKCO":"203","LANDMARKNA":"縣立民族國小","LANDMARKAD":"1001227","ADDRESS":"高雄市那瑪夏區民族村鞍山巷59號","TEL":"07-6701260","COUNTYNAME":"高雄市","TOWNNAME":"那瑪夏區","MARKTYPE":"992","Class":"2"},"geometry":{"x":120.69440240745354,"y":23.217498618549712}},{"attributes":{"OBJECTID":19091,"LANDMARKID":"1001200000539","LANDMARKCO":"203","LANDMARKNA":"縣立民生國小","LANDMARKAD":"1001227","ADDRESS":"高雄市那瑪夏區民生村大光巷159號","TEL":"07-6701233","COUNTYNAME":"高雄市","TOWNNAME":"那瑪夏區","MARKTYPE":"992","Class":"2"},"geometry":{"x":120.72090504755928,"y":23.276062018565963}},{"attributes":{"OBJECTID":19092,"LANDMARKID":"1001200000540","LANDMARKCO":"203","LANDMARKNA":"民權國小","LANDMARKAD":"1001227","ADDRESS":"高雄市那瑪夏區瑪雅村平和巷1號","TEL":"07-6701129","COUNTYNAME":"高雄市","TOWNNAME":"那瑪夏區","MARKTYPE":"992","Class":"2"},"geometry":{"x":120.69480257140859,"y":23.229595481572801}},{"attributes":{"OBJECTID":19093,"LANDMARKID":"1001200001214","LANDMARKCO":"503","LANDMARKNA":"天使瀑布","LANDMARKAD":"1001227","ADDRESS":"高雄市三民鄉","TEL":" ","COUNTYNAME":"高雄市","TOWNNAME":"那瑪夏區","MARKTYPE":"995","Class":"5"},"geometry":{"x":120.70891390377237,"y":23.224589541326683}},{"attributes":{"OBJECTID":19094,"LANDMARKID":"1001200001215","LANDMARKCO":"503","LANDMARKNA":"龍鳳瀑布(虹彩瀑市)","LANDMARKAD":"1001227","ADDRESS":"高雄市三民鄉","TEL":" ","COUNTYNAME":"高雄市","TOWNNAME":"那瑪夏區","MARKTYPE":"995","Class":"5"},"geometry":{"x":120.73870372760024,"y":23.294936860182656}},{"attributes":{"OBJECTID":19095,"LANDMARKID":"1001200000873","LANDMARKCO":"405","LANDMARKNA":"中油加油站-梅蘭站","LANDMARKAD":"1001226","ADDRESS":"高雄市桃源區梅蘭巷123號","TEL":"07-6866039","COUNTYNAME":"高雄市","TOWNNAME":"桃源區","MARKTYPE":"994","Class":"4"},"geometry":{"x":120.83023973910248,"y":23.245440714309158}},{"attributes":{"OBJECTID":19096,"LANDMARKID":"1001200001309","LANDMARKCO":"512","LANDMARKNA":"玉山國家公園管理處梅山管理中心","LANDMARKAD":"1001226","ADDRESS":"高雄市桃源區梅山巷50號","TEL":"07-6866181","COUNTYNAME":"高雄市","TOWNNAME":"桃源區","MARKTYPE":"995","Class":"5"},"geometry":{"x":120.82577942521763,"y":23.263396699158079}},{"attributes":{"OBJECTID":19097,"LANDMARKID":"1001200001469","LANDMARKCO":"605","LANDMARKNA":"救國團梅山青年活動中心","LANDMARKAD":"1001226","ADDRESS":"高雄市桃源區梅山村梅山巷55號","TEL":"07-6866166","COUNTYNAME":"高雄市","TOWNNAME":"桃源區","MARKTYPE":"996","Class":"6"},"geometry":{"x":120.82383181278645,"y":23.268230874852538}},{"attributes":{"OBJECTID":19098,"LANDMARKID":"1001200001095","LANDMARKCO":"408","LANDMARKNA":"郵局-桃源郵局","LANDMARKAD":"1001226","ADDRESS":"高雄市桃源區桃源村南進巷182號","TEL":"(07)6861-141","COUNTYNAME":"高雄市","TOWNNAME":"桃源區","MARKTYPE":"994","Class":"4"},"geometry":{"x":120.7644508324446,"y":23.159000909164256}},{"attributes":{"OBJECTID":19099,"LANDMARKID":"1001200001155","LANDMARKCO":"409","LANDMARKNA":"甲仙農會-桃源分部","LANDMARKAD":"1001226","ADDRESS":"高雄市桃源區桃源村北進巷68號","TEL":"07-686-12","COUNTYNAME":"高雄市","TOWNNAME":"桃源區","MARKTYPE":"994","Class":"4"},"geometry":{"x":120.76604419826242,"y":23.159946283494829}},{"attributes":{"OBJECTID":19100,"LANDMARKID":"1001200000244","LANDMARKCO":"107","LANDMARKNA":"高中派出所","LANDMARKAD":"1001226","ADDRESS":" ","TEL":"07-6881385","COUNTYNAME":"高雄市","TOWNNAME":"桃源區","MARKTYPE":"991","Class":"1"},"geometry":{"x":120.70941212355349,"y":23.12089777290111}},{"attributes":{"OBJECTID":19101,"LANDMARKID":"1001200000245","LANDMARKCO":"107","LANDMARKNA":"高雄市政府警察局桃源分駐所","LANDMARKAD":"1001226","ADDRESS":"高雄市桃源區桃源村南進巷183號","TEL":"07-6861176","COUNTYNAME":"高雄市","TOWNNAME":"桃源區","MARKTYPE":"991","Class":"1"},"geometry":{"x":120.75721359996614,"y":23.150147745869152}},{"attributes":{"OBJECTID":19102,"LANDMARKID":"1001200000099","LANDMARKCO":"103","LANDMARKNA":"高雄市桃源區衛生所","LANDMARKAD":"1001226","ADDRESS":"高雄市桃源區桃源村南進巷188之1號","TEL":"07-6861126","COUNTYNAME":"高雄市","TOWNNAME":"桃源區","MARKTYPE":"991","Class":"1"},"geometry":{"x":120.76247859934097,"y":23.158102126125893}},{"attributes":{"OBJECTID":19103,"LANDMARKID":"1001200000241","LANDMARKCO":"107","LANDMARKNA":"高雄市消防局桃源消防分隊","LANDMARKAD":"1001226","ADDRESS":"高雄市桃源區桃源村南進巷189號","TEL":"07-6861358","COUNTYNAME":"高雄市","TOWNNAME":"桃源區","MARKTYPE":"991","Class":"1"},"geometry":{"x":120.76849788430744,"y":23.162807578509806}},{"attributes":{"OBJECTID":19104,"LANDMARKID":"1001200000242","LANDMARKCO":"107","LANDMARKNA":"高雄市政府警察局寶山派出所","LANDMARKAD":"1001226","ADDRESS":"高雄市桃源區寶山村寶山巷16號","TEL":"07-6892464","COUNTYNAME":"高雄市","TOWNNAME":"桃源區","MARKTYPE":"991","Class":"1"},"geometry":{"x":120.7226028185414,"y":23.054274639201189}},{"attributes":{"OBJECTID":19105,"LANDMARKID":"1001200000243","LANDMARKCO":"107","LANDMARKNA":"高雄市政府警察局森濤派出所","LANDMARKAD":"1001226","ADDRESS":"高雄市桃源區寶山村寶山巷145號","TEL":"07-6892474","COUNTYNAME":"高雄市","TOWNNAME":"桃源區","MARKTYPE":"991","Class":"1"},"geometry":{"x":120.75373703940129,"y":23.068324470979935}},{"attributes":{"OBJECTID":19106,"LANDMARKID":"1001200000281","LANDMARKCO":"108","LANDMARKNA":"高雄市桃源區公所","LANDMARKAD":"1001226","ADDRESS":"高雄市桃源區北進巷1號","TEL":"07-6861132","COUNTYNAME":"高雄市","TOWNNAME":"桃源區","MARKTYPE":"991","Class":"1"},"geometry":{"x":120.76027086811035,"y":23.159634857087084}},{"attributes":{"OBJECTID":19107,"LANDMARKID":"1001200000122","LANDMARKCO":"106","LANDMARKNA":"高雄市桃源區戶政事務所","LANDMARKAD":"1001226","ADDRESS":"高雄市桃源區桃源村7鄰南進巷200號","TEL":"07-6861035","COUNTYNAME":"高雄市","TOWNNAME":"桃源區","MARKTYPE":"991","Class":"1"},"geometry":{"x":120.76109112423342,"y":23.158282776859231}},{"attributes":{"OBJECTID":19108,"LANDMARKID":"1001200000100","LANDMARKCO":"103","LANDMARKNA":"高雄市桃源區鄉民代表會","LANDMARKAD":"1001226","ADDRESS":"高雄市桃源區桃源村北進巷1-2號","TEL":"07-6861001","COUNTYNAME":"高雄市","TOWNNAME":"桃源區","MARKTYPE":"991","Class":"1"},"geometry":{"x":120.76383814758248,"y":23.158918953174627}},{"attributes":{"OBJECTID":19109,"LANDMARKID":"1001200000237","LANDMARKCO":"107","LANDMARKNA":"高雄市政府警察局復興派出所","LANDMARKAD":"1001226","ADDRESS":"高雄市桃源區復興村復興巷1號","TEL":"07-6866088","COUNTYNAME":"高雄市","TOWNNAME":"桃源區","MARKTYPE":"991","Class":"1"},"geometry":{"x":120.80529995897525,"y":23.215866744108876}},{"attributes":{"OBJECTID":19110,"LANDMARKID":"1001200000238","LANDMARKCO":"107","LANDMARKNA":"高雄市政府警察局梅蘭派出所","LANDMARKAD":"1001226","ADDRESS":"高雄市桃源區梅蘭村梅蘭巷113號","TEL":"07-6866087","COUNTYNAME":"高雄市","TOWNNAME":"桃源區","MARKTYPE":"991","Class":"1"},"geometry":{"x":120.81295723302105,"y":23.238541516819719}},{"attributes":{"OBJECTID":19111,"LANDMARKID":"1001200000239","LANDMARKCO":"107","LANDMARKNA":"高雄市政府警察局梅山派出所","LANDMARKAD":"1001226","ADDRESS":"高雄市桃源區梅山村梅山巷52號","TEL":"07-6866170","COUNTYNAME":"高雄市","TOWNNAME":"桃源區","MARKTYPE":"991","Class":"1"},"geometry":{"x":120.82633227116123,"y":23.265015267743465}},{"attributes":{"OBJECTID":19112,"LANDMARKID":"1001200000240","LANDMARKCO":"107","LANDMARKNA":"高雄市政府警察局高中派出所","LANDMARKAD":"1001226","ADDRESS":"高雄市桃源區高中村高中巷九０號","TEL":"07-6881385","COUNTYNAME":"高雄市","TOWNNAME":"桃源區","MARKTYPE":"991","Class":"1"},"geometry":{"x":120.71386364522203,"y":23.126146635201152}},{"attributes":{"OBJECTID":19113,"LANDMARKID":"1001200000575","LANDMARKCO":"204","LANDMARKNA":"高雄市立圖書館桃源分館","LANDMARKAD":"1001226","ADDRESS":"高雄市桃源區桃源村南進巷179號","TEL":" ","COUNTYNAME":"高雄市","TOWNNAME":"桃源區","MARKTYPE":"992","Class":"2"},"geometry":{"x":120.76064860599814,"y":23.158306213972185}},{"attributes":{"OBJECTID":19114,"LANDMARKID":"1001200000541","LANDMARKCO":"203","LANDMARKNA":"縣立桃源國中","LANDMARKAD":"1001226","ADDRESS":"高雄市桃源區勤和村50號","TEL":"07-6861133","COUNTYNAME":"高雄市","TOWNNAME":"桃源區","MARKTYPE":"992","Class":"2"},"geometry":{"x":120.76568872696731,"y":23.160365176871306}},{"attributes":{"OBJECTID":19115,"LANDMARKID":"1001200000542","LANDMARKCO":"203","LANDMARKNA":"縣立興中國小","LANDMARKAD":"1001226","ADDRESS":"高雄市桃源區高中村興中巷44號","TEL":"07-6881850","COUNTYNAME":"高雄市","TOWNNAME":"桃源區","MARKTYPE":"992","Class":"2"},"geometry":{"x":120.71904318141027,"y":23.128774029311415}},{"attributes":{"OBJECTID":19116,"LANDMARKID":"1001200000543","LANDMARKCO":"203","LANDMARKNA":"縣立桃源國小","LANDMARKAD":"1001226","ADDRESS":"高雄市桃源區桃源村50號","TEL":"07-6861045","COUNTYNAME":"高雄市","TOWNNAME":"桃源區","MARKTYPE":"992","Class":"2"},"geometry":{"x":120.76542628933322,"y":23.160003174374129}},{"attributes":{"OBJECTID":19117,"LANDMARKID":"1001200000544","LANDMARKCO":"203","LANDMARKNA":"縣立桃源國小勤和分校","LANDMARKAD":"1001226","ADDRESS":"高雄市桃源區","TEL":" ","COUNTYNAME":"高雄市","TOWNNAME":"桃源區","MARKTYPE":"992","Class":"2"},"geometry":{"x":120.78107205716709,"y":23.178807547445416}},{"attributes":{"OBJECTID":19118,"LANDMARKID":"1001200000545","LANDMARKCO":"203","LANDMARKNA":"縣立樟山國小復興分校","LANDMARKAD":"1001226","ADDRESS":"高雄市桃源區","TEL":" ","COUNTYNAME":"高雄市","TOWNNAME":"桃源區","MARKTYPE":"992","Class":"2"},"geometry":{"x":120.80434043703384,"y":23.21794136521277}},{"attributes":{"OBJECTID":19119,"LANDMARKID":"1001200000546","LANDMARKCO":"203","LANDMARKNA":"縣立樟山國小","LANDMARKAD":"1001226","ADDRESS":"高雄市桃源區樟山村12號","TEL":"07-6866118","COUNTYNAME":"高雄市","TOWNNAME":"桃源區","MARKTYPE":"992","Class":"2"},"geometry":{"x":120.81935138639712,"y":23.252998576286771}},{"attributes":{"OBJECTID":19120,"LANDMARKID":"1001200000547","LANDMARKCO":"203","LANDMARKNA":"縣立樟山國小梅山分班","LANDMARKAD":"1001226","ADDRESS":"高雄市桃源區","TEL":" ","COUNTYNAME":"高雄市","TOWNNAME":"桃源區","MARKTYPE":"992","Class":"2"},"geometry":{"x":120.82621213845873,"y":23.274045402540256}},{"attributes":{"OBJECTID":19121,"LANDMARKID":"1001200000548","LANDMARKCO":"203","LANDMARKNA":"縣立寶山國小","LANDMARKAD":"1001226","ADDRESS":"高雄市桃源區寶山村15號","TEL":"07-6891728","COUNTYNAME":"高雄市","TOWNNAME":"桃源區","MARKTYPE":"992","Class":"2"},"geometry":{"x":120.70907626248928,"y":23.035647987805099}},{"attributes":{"OBJECTID":19122,"LANDMARKID":"1001200000630","LANDMARKCO":"303","LANDMARKNA":"藤枝森林遊樂區停車場","LANDMARKAD":"1001226","ADDRESS":"高雄市桃源區藤枝段78號","TEL":"07-6893118","COUNTYNAME":"高雄市","TOWNNAME":"桃源區","MARKTYPE":"993","Class":"303"},"geometry":{"x":120.7545222053313,"y":23.067655802535917}},{"attributes":{"OBJECTID":19123,"LANDMARKID":"1001200000631","LANDMARKCO":"303","LANDMARKNA":"玉穗溫泉停車場","LANDMARKAD":"1001226","ADDRESS":"高雄市桃源區","TEL":" ","COUNTYNAME":"高雄市","TOWNNAME":"桃源區","MARKTYPE":"993","Class":"303"},"geometry":{"x":120.79387019866459,"y":23.180309836957846}},{"attributes":{"OBJECTID":19124,"LANDMARKID":"1001200000632","LANDMARKCO":"303","LANDMARKNA":"千碟瀑布停車場","LANDMARKAD":"1001226","ADDRESS":"高雄市桃源區","TEL":" ","COUNTYNAME":"高雄市","TOWNNAME":"桃源區","MARKTYPE":"993","Class":"303"},"geometry":{"x":120.81018421192192,"y":23.24085933230867}},{"attributes":{"OBJECTID":19125,"LANDMARKID":"1001200000633","LANDMARKCO":"303","LANDMARKNA":"桃源區立體停車場","LANDMARKAD":"1001226","ADDRESS":"高雄市桃源區","TEL":" ","COUNTYNAME":"高雄市","TOWNNAME":"桃源區","MARKTYPE":"993","Class":"303"},"geometry":{"x":120.76430255927734,"y":23.159646982368955}},{"attributes":{"OBJECTID":19126,"LANDMARKID":"1001200000634","LANDMARKCO":"303","LANDMARKNA":"玉山國家公園管理處梅山遊客中心","LANDMARKAD":"1001226","ADDRESS":"高雄市桃源區梅山路梅山巷44之5號","TEL":" ","COUNTYNAME":"高雄市","TOWNNAME":"桃源區","MARKTYPE":"993","Class":"303"},"geometry":{"x":120.83253604622813,"y":23.267656818692554}},{"attributes":{"OBJECTID":19127,"LANDMARKID":"1001200001465","LANDMARKCO":"604","LANDMARKNA":"藤枝出雲民宿","LANDMARKAD":"1001226","ADDRESS":"高雄市桃源區寶山村寶山巷111-5號","TEL":"07-6895036","COUNTYNAME":"高雄市","TOWNNAME":"桃源區","MARKTYPE":"996","Class":"6"},"geometry":{"x":120.75483788809255,"y":23.06728027635409}},{"attributes":{"OBJECTID":19128,"LANDMARKID":"1001200001466","LANDMARKCO":"604","LANDMARKNA":"藤枝森林山莊","LANDMARKAD":"1001226","ADDRESS":"高雄市桃源區寶山村寶山巷148號","TEL":"07-6895205","COUNTYNAME":"高雄市","TOWNNAME":"桃源區","MARKTYPE":"996","Class":"6"},"geometry":{"x":120.75554468512507,"y":23.067394371146861}},{"attributes":{"OBJECTID":19129,"LANDMARKID":"1001200001467","LANDMARKCO":"604","LANDMARKNA":"森濤餐飲民宿","LANDMARKAD":"1001226","ADDRESS":"高雄市桃源區寶山村111-1號","TEL":"07-6894013","COUNTYNAME":"高雄市","TOWNNAME":"桃源區","MARKTYPE":"996","Class":"6"},"geometry":{"x":120.75495099004344,"y":23.067224452097197}},{"attributes":{"OBJECTID":19130,"LANDMARKID":"1001200001468","LANDMARKCO":"604","LANDMARKNA":"拉法阿勒台灣野百合民宿","LANDMARKAD":"1001226","ADDRESS":"高雄市桃源區復興村復興巷42-6號","TEL":"07-6866142","COUNTYNAME":"高雄市","TOWNNAME":"桃源區","MARKTYPE":"996","Class":"6"},"geometry":{"x":120.80508574027351,"y":23.2182239460647}},{"attributes":{"OBJECTID":19131,"LANDMARKID":"1001200001272","LANDMARKCO":"508","LANDMARKNA":"高中溫泉(荖荖溫泉)","LANDMARKAD":"1001226","ADDRESS":"高雄市桃源區","TEL":" ","COUNTYNAME":"高雄市","TOWNNAME":"桃源區","MARKTYPE":"995","Class":"5"},"geometry":{"x":120.71334737695433,"y":23.135417581301141}},{"attributes":{"OBJECTID":19132,"LANDMARKID":"1001200001273","LANDMARKCO":"508","LANDMARKNA":"石洞溫泉","LANDMARKAD":"1001226","ADDRESS":"高雄市桃源區","TEL":" ","COUNTYNAME":"高雄市","TOWNNAME":"桃源區","MARKTYPE":"995","Class":"5"},"geometry":{"x":120.72587554639476,"y":23.085445822037961}},{"attributes":{"OBJECTID":19133,"LANDMARKID":"1001200001274","LANDMARKCO":"508","LANDMARKNA":"七坑溫泉","LANDMARKAD":"1001226","ADDRESS":"高雄市桃源區","TEL":" ","COUNTYNAME":"高雄市","TOWNNAME":"桃源區","MARKTYPE":"995","Class":"5"},"geometry":{"x":120.75294105726277,"y":23.101050937187182}},{"attributes":{"OBJECTID":19134,"LANDMARKID":"1001200001275","LANDMARKCO":"508","LANDMARKNA":"玉穗溫泉","LANDMARKAD":"1001226","ADDRESS":"高雄市桃源區","TEL":" ","COUNTYNAME":"高雄市","TOWNNAME":"桃源區","MARKTYPE":"995","Class":"5"},"geometry":{"x":120.79414431298893,"y":23.182117152246132}},{"attributes":{"OBJECTID":19135,"LANDMARKID":"1001200001276","LANDMARKCO":"508","LANDMARKNA":"復興溫泉","LANDMARKAD":"1001226","ADDRESS":"高雄市桃源區","TEL":" ","COUNTYNAME":"高雄市","TOWNNAME":"桃源區","MARKTYPE":"995","Class":"5"},"geometry":{"x":120.84366368893221,"y":23.212816778523752}},{"attributes":{"OBJECTID":19136,"LANDMARKID":"1001200001237","LANDMARKCO":"504","LANDMARKNA":"藤枝森林遊樂區木馬道","LANDMARKAD":"1001226","ADDRESS":"高雄市桃源區藤枝段78號","TEL":" ","COUNTYNAME":"高雄市","TOWNNAME":"桃源區","MARKTYPE":"995","Class":"5"},"geometry":{"x":120.76047699583199,"y":23.07340800233181}},{"attributes":{"OBJECTID":19137,"LANDMARKID":"1001200001238","LANDMARKCO":"504","LANDMARKNA":"藤枝森林遊樂區樹海亭","LANDMARKAD":"1001226","ADDRESS":"高雄市桃源區藤枝段78號","TEL":" ","COUNTYNAME":"高雄市","TOWNNAME":"桃源區","MARKTYPE":"995","Class":"5"},"geometry":{"x":120.76342802846786,"y":23.077397412395303}},{"attributes":{"OBJECTID":19138,"LANDMARKID":"1001200001212","LANDMARKCO":"503","LANDMARKNA":"高中瀑布","LANDMARKAD":"1001226","ADDRESS":"高雄市桃源區","TEL":" ","COUNTYNAME":"高雄市","TOWNNAME":"桃源區","MARKTYPE":"995","Class":"5"},"geometry":{"x":120.73684160461767,"y":23.127463842455054}},{"attributes":{"OBJECTID":19139,"LANDMARKID":"1001200001236","LANDMARKCO":"504","LANDMARKNA":"藤枝森林遊樂區","LANDMARKAD":"1001226","ADDRESS":"高雄市六龜區寶山村藤枝段78號","TEL":" ","COUNTYNAME":"高雄市","TOWNNAME":"桃源區","MARKTYPE":"995","Class":"5"},"geometry":{"x":120.75513593543265,"y":23.068163401216946}},{"attributes":{"OBJECTID":19140,"LANDMARKID":"1001200001216","LANDMARKCO":"503","LANDMARKNA":"千疊瀑布","LANDMARKAD":"1001226","ADDRESS":"高雄市桃源區","TEL":" ","COUNTYNAME":"高雄市","TOWNNAME":"桃源區","MARKTYPE":"995","Class":"5"},"geometry":{"x":120.81170703004827,"y":23.2475575153452}},{"attributes":{"OBJECTID":19141,"LANDMARKID":"1001200001217","LANDMARKCO":"503","LANDMARKNA":"梅山遊憩區","LANDMARKAD":"1001226","ADDRESS":"高雄市桃源區梅山村","TEL":" ","COUNTYNAME":"高雄市","TOWNNAME":"桃源區","MARKTYPE":"995","Class":"5"},"geometry":{"x":120.82579385071102,"y":23.264075662633466}},{"attributes":{"OBJECTID":19142,"LANDMARKID":"1001200001218","LANDMARKCO":"503","LANDMARKNA":"欽堂瀑布","LANDMARKAD":"1001226","ADDRESS":"高雄市桃源區","TEL":" ","COUNTYNAME":"高雄市","TOWNNAME":"桃源區","MARKTYPE":"995","Class":"5"},"geometry":{"x":120.79403352621604,"y":23.193356539976904}},{"attributes":{"OBJECTID":19143,"LANDMARKID":"1001200001310","LANDMARKCO":"513","LANDMARKNA":"玉山東峰","LANDMARKAD":"1001226","ADDRESS":"高雄市桃源區","TEL":" ","COUNTYNAME":"高雄市","TOWNNAME":"桃源區","MARKTYPE":"995","Class":"5"},"geometry":{"x":120.9656697612313,"y":23.470759685396715}},{"attributes":{"OBJECTID":19144,"LANDMARKID":"1001200001311","LANDMARKCO":"513","LANDMARKNA":"玉山南峰","LANDMARKAD":"1001226","ADDRESS":"高雄市桃源區","TEL":" ","COUNTYNAME":"高雄市","TOWNNAME":"桃源區","MARKTYPE":"995","Class":"5"},"geometry":{"x":120.95878503927597,"y":23.446565363975363}},{"attributes":{"OBJECTID":19145,"LANDMARKID":"1001200001312","LANDMARKCO":"513","LANDMARKNA":"東小南山","LANDMARKAD":"1001226","ADDRESS":"高雄市桃源區","TEL":" ","COUNTYNAME":"高雄市","TOWNNAME":"桃源區","MARKTYPE":"995","Class":"5"},"geometry":{"x":120.9634172264952,"y":23.439017505855329}},{"attributes":{"OBJECTID":19146,"LANDMARKID":"1001200001313","LANDMARKCO":"513","LANDMARKNA":"向陽山","LANDMARKAD":"1001226","ADDRESS":"高雄市桃源區","TEL":" ","COUNTYNAME":"高雄市","TOWNNAME":"桃源區","MARKTYPE":"995","Class":"5"},"geometry":{"x":120.99242390029879,"y":23.284274198916641}},{"attributes":{"OBJECTID":19147,"LANDMARKID":"1001200001314","LANDMARKCO":"513","LANDMARKNA":"雲峰","LANDMARKAD":"1001226","ADDRESS":"高雄市桃源區","TEL":" ","COUNTYNAME":"高雄市","TOWNNAME":"桃源區","MARKTYPE":"995","Class":"5"},"geometry":{"x":120.97575387747874,"y":23.35378085562747}},{"attributes":{"OBJECTID":19148,"LANDMARKID":"1001200001315","LANDMARKCO":"513","LANDMARKNA":"南玉山","LANDMARKAD":"1001226","ADDRESS":"高雄市桃源區","TEL":" ","COUNTYNAME":"高雄市","TOWNNAME":"桃源區","MARKTYPE":"995","Class":"5"},"geometry":{"x":120.92490979049526,"y":23.429260916661637}},{"attributes":{"OBJECTID":19149,"LANDMARKID":"1001200001316","LANDMARKCO":"513","LANDMARKNA":"卑南主山","LANDMARKAD":"1001226","ADDRESS":"高雄市桃源區","TEL":" ","COUNTYNAME":"高雄市","TOWNNAME":"桃源區","MARKTYPE":"995","Class":"5"},"geometry":{"x":120.87419653214658,"y":23.051161725421426}},{"attributes":{"OBJECTID":19150,"LANDMARKID":"1001200001317","LANDMARKCO":"513","LANDMARKNA":"轆轆山","LANDMARKAD":"1001226","ADDRESS":"高雄市桃源區","TEL":" ","COUNTYNAME":"高雄市","TOWNNAME":"桃源區","MARKTYPE":"995","Class":"5"},"geometry":{"x":120.99808333134642,"y":23.391340285080577}},{"attributes":{"OBJECTID":19151,"LANDMARKID":"1001200001318","LANDMARKCO":"513","LANDMARKNA":"小關山","LANDMARKAD":"1001226","ADDRESS":"高雄市桃源區","TEL":" ","COUNTYNAME":"高雄市","TOWNNAME":"桃源區","MARKTYPE":"995","Class":"5"},"geometry":{"x":120.87611512371174,"y":23.151630012710715}},{"attributes":{"OBJECTID":19152,"LANDMARKID":"1001200001319","LANDMARKCO":"513","LANDMARKNA":"關山嶺","LANDMARKAD":"1001226","ADDRESS":"高雄市桃源區","TEL":" ","COUNTYNAME":"高雄市","TOWNNAME":"桃源區","MARKTYPE":"995","Class":"5"},"geometry":{"x":120.95945392797353,"y":23.270976573491648}},{"attributes":{"OBJECTID":19153,"LANDMARKID":"1001200001320","LANDMARKCO":"513","LANDMARKNA":"海諾南山","LANDMARKAD":"1001226","ADDRESS":"高雄市桃源區","TEL":" ","COUNTYNAME":"高雄市","TOWNNAME":"桃源區","MARKTYPE":"995","Class":"5"},"geometry":{"x":120.91132898360226,"y":23.185572134309901}},{"attributes":{"OBJECTID":19154,"LANDMARKID":"1001200001321","LANDMARKCO":"513","LANDMARKNA":"庫哈諾辛山","LANDMARKAD":"1001226","ADDRESS":"高雄市桃源區","TEL":" ","COUNTYNAME":"高雄市","TOWNNAME":"桃源區","MARKTYPE":"995","Class":"5"},"geometry":{"x":120.90003860677977,"y":23.262750317406091}},{"attributes":{"OBJECTID":19155,"LANDMARKID":"1001200001322","LANDMARKCO":"513","LANDMARKNA":"鹿山","LANDMARKAD":"1001226","ADDRESS":"高雄市桃源區","TEL":" ","COUNTYNAME":"高雄市","TOWNNAME":"桃源區","MARKTYPE":"995","Class":"5"},"geometry":{"x":120.98848094958358,"y":23.45063394989214}},{"attributes":{"OBJECTID":19156,"LANDMARKID":"1001200000872","LANDMARKCO":"405","LANDMARKNA":"中油加油站-甲仙站","LANDMARKAD":"1001222","ADDRESS":"高雄市甲仙區大田村新興路55號","TEL":"07-6751555","COUNTYNAME":"高雄市","TOWNNAME":"甲仙區","MARKTYPE":"994","Class":"4"},"geometry":{"x":120.58166837709408,"y":23.076046375791421}},{"attributes":{"OBJECTID":19157,"LANDMARKID":"1001200001256","LANDMARKCO":"507","LANDMARKNA":"甲仙鎮海將軍墓","LANDMARKAD":"1001222","ADDRESS":"高雄市甲仙區五里路58號","TEL":" ","COUNTYNAME":"高雄市","TOWNNAME":"甲仙區","MARKTYPE":"995","Class":"5"},"geometry":{"x":120.59092970117538,"y":23.081270415276759}},{"attributes":{"OBJECTID":19158,"LANDMARKID":"1001200001091","LANDMARKCO":"408","LANDMARKNA":"郵局-甲仙郵局","LANDMARKAD":"1001222","ADDRESS":"高雄市甲仙區林森路44號","TEL":"(07)6751-042","COUNTYNAME":"高雄市","TOWNNAME":"甲仙區","MARKTYPE":"994","Class":"4"},"geometry":{"x":120.58858162640749,"y":23.083307521139808}},{"attributes":{"OBJECTID":19159,"LANDMARKID":"1001200001158","LANDMARKCO":"409","LANDMARKNA":"高雄市甲仙區農會","LANDMARKAD":"1001222","ADDRESS":"高雄市甲仙區西安村中正路26號","TEL":"07-6751001","COUNTYNAME":"高雄市","TOWNNAME":"甲仙區","MARKTYPE":"994","Class":"4"},"geometry":{"x":120.58839336857982,"y":23.083438725762374}},{"attributes":{"OBJECTID":19160,"LANDMARKID":"1001200001034","LANDMARKCO":"406","LANDMARKNA":"甲仙公園","LANDMARKAD":"1001222","ADDRESS":"高雄市甲仙區","TEL":" ","COUNTYNAME":"高雄市","TOWNNAME":"甲仙區","MARKTYPE":"994","Class":"4"},"geometry":{"x":120.59075064445648,"y":23.08257461963791}},{"attributes":{"OBJECTID":19161,"LANDMARKID":"1001200000869","LANDMARKCO":"405","LANDMARKNA":"台塑加油站-大田站(台塑)","LANDMARKAD":"1001222","ADDRESS":"高雄市甲仙區大田村田寮巷27號","TEL":"07-6754328","COUNTYNAME":"高雄市","TOWNNAME":"甲仙區","MARKTYPE":"994","Class":"4"},"geometry":{"x":120.57866066977807,"y":23.064958440071614}},{"attributes":{"OBJECTID":19162,"LANDMARKID":"1001200000246","LANDMARKCO":"107","LANDMARKNA":"高雄市政府警察局大隆派出所","LANDMARKAD":"1001222","ADDRESS":"高雄市甲仙區大田村中園路43號","TEL":"07-6751044","COUNTYNAME":"高雄市","TOWNNAME":"甲仙區","MARKTYPE":"991","Class":"1"},"geometry":{"x":120.5671452248807,"y":23.060066851533389}},{"attributes":{"OBJECTID":19163,"LANDMARKID":"1001200000280","LANDMARKCO":"108","LANDMARKNA":"高雄市甲仙區公所","LANDMARKAD":"1001222","ADDRESS":"高雄市甲仙區中山路50號","TEL":"07-6751600","COUNTYNAME":"高雄市","TOWNNAME":"甲仙區","MARKTYPE":"991","Class":"1"},"geometry":{"x":120.5878731670138,"y":23.08387573040784}},{"attributes":{"OBJECTID":19164,"LANDMARKID":"1001200000101","LANDMARKCO":"103","LANDMARKNA":"高雄市甲仙區衛生所","LANDMARKAD":"1001222","ADDRESS":"高雄市甲仙區和安村中山路52號","TEL":"07-6752433","COUNTYNAME":"高雄市","TOWNNAME":"甲仙區","MARKTYPE":"991","Class":"1"},"geometry":{"x":120.58797022293784,"y":23.083966542159668}},{"attributes":{"OBJECTID":19165,"LANDMARKID":"1001200000102","LANDMARKCO":"103","LANDMARKNA":"高雄市甲仙區鄉民代表會","LANDMARKAD":"1001222","ADDRESS":"高雄市甲仙區中正路65號之1號","TEL":"07-6751027","COUNTYNAME":"高雄市","TOWNNAME":"甲仙區","MARKTYPE":"991","Class":"1"},"geometry":{"x":120.58822674921826,"y":23.083516352746067}},{"attributes":{"OBJECTID":19166,"LANDMARKID":"1001200000121","LANDMARKCO":"106","LANDMARKNA":"高雄市甲仙區戶政事務所","LANDMARKAD":"1001222","ADDRESS":"高雄市甲仙區東安村和安街42-1號","TEL":"07-6751420","COUNTYNAME":"高雄市","TOWNNAME":"甲仙區","MARKTYPE":"991","Class":"1"},"geometry":{"x":120.58974372949342,"y":23.083065488167129}},{"attributes":{"OBJECTID":19167,"LANDMARKID":"1001200000247","LANDMARKCO":"107","LANDMARKNA":"高雄市消防局甲仙消防分隊","LANDMARKAD":"1001222","ADDRESS":"高雄市甲仙區林森路2號","TEL":"07-6751995","COUNTYNAME":"高雄市","TOWNNAME":"甲仙區","MARKTYPE":"991","Class":"1"},"geometry":{"x":120.59028460548876,"y":23.083790717609006}},{"attributes":{"OBJECTID":19168,"LANDMARKID":"1001200000248","LANDMARKCO":"107","LANDMARKNA":"高雄市政府警察局小林派出所","LANDMARKAD":"1001222","ADDRESS":"高雄市甲仙區小林村忠義路114號","TEL":"07-6761138","COUNTYNAME":"高雄市","TOWNNAME":"甲仙區","MARKTYPE":"991","Class":"1"},"geometry":{"x":120.64377818097091,"y":23.162577021995016}},{"attributes":{"OBJECTID":19169,"LANDMARKID":"1001200000249","LANDMARKCO":"107","LANDMARKNA":"高雄市政府警察局里關派出所","LANDMARKAD":"1001222","ADDRESS":"高雄市甲仙區關山村中興路四四巷10號","TEL":"07-6752006","COUNTYNAME":"高雄市","TOWNNAME":"甲仙區","MARKTYPE":"991","Class":"1"},"geometry":{"x":120.60747833806269,"y":23.110565778513497}},{"attributes":{"OBJECTID":19170,"LANDMARKID":"1001200000250","LANDMARKCO":"107","LANDMARKNA":"高雄市政府警察局甲仙分駐所","LANDMARKAD":"1001222","ADDRESS":"高雄市甲仙區東安村和安路42號","TEL":"07-6751204","COUNTYNAME":"高雄市","TOWNNAME":"甲仙區","MARKTYPE":"991","Class":"1"},"geometry":{"x":120.65159026397818,"y":23.196457294764503}},{"attributes":{"OBJECTID":19171,"LANDMARKID":"1001200000607","LANDMARKCO":"205","LANDMARKNA":"小林國小平埔族文物館","LANDMARKAD":"1001222","ADDRESS":"高雄市甲仙區忠義路58號","TEL":"07-6761065","COUNTYNAME":"高雄市","TOWNNAME":"甲仙區","MARKTYPE":"992","Class":"2"},"geometry":{"x":120.64392437679135,"y":23.160909578230672}},{"attributes":{"OBJECTID":19172,"LANDMARKID":"1001200000608","LANDMARKCO":"205","LANDMARKNA":"甲仙化石館","LANDMARKAD":"1001222","ADDRESS":"高雄市甲仙區和安村四德巷10之10號","TEL":" ","COUNTYNAME":"高雄市","TOWNNAME":"甲仙區","MARKTYPE":"992","Class":"2"},"geometry":{"x":120.58852075785303,"y":23.092696643592628}},{"attributes":{"OBJECTID":19173,"LANDMARKID":"1001200000576","LANDMARKCO":"204","LANDMARKNA":"高雄市立圖書館甲仙分館","LANDMARKAD":"1001222","ADDRESS":"高雄市甲仙區和安村中山路50號","TEL":" ","COUNTYNAME":"高雄市","TOWNNAME":"甲仙區","MARKTYPE":"992","Class":"2"},"geometry":{"x":120.58791312078556,"y":23.083895292623374}},{"attributes":{"OBJECTID":19174,"LANDMARKID":"1001200000532","LANDMARKCO":"203","LANDMARKNA":"縣立甲仙國中","LANDMARKAD":"1001222","ADDRESS":"高雄市甲仙區東安村文化南路6號","TEL":"07-6751018","COUNTYNAME":"高雄市","TOWNNAME":"甲仙區","MARKTYPE":"992","Class":"2"},"geometry":{"x":120.59172086491969,"y":23.082165473135227}},{"attributes":{"OBJECTID":19175,"LANDMARKID":"1001200000533","LANDMARKCO":"203","LANDMARKNA":"縣立寶隆國小","LANDMARKAD":"1001222","ADDRESS":"高雄市甲仙區寶隆村光華路20號","TEL":"07-6752998","COUNTYNAME":"高雄市","TOWNNAME":"甲仙區","MARKTYPE":"992","Class":"2"},"geometry":{"x":120.5554013734384,"y":23.049113459734404}},{"attributes":{"OBJECTID":19176,"LANDMARKID":"1001200000534","LANDMARKCO":"203","LANDMARKNA":"縣立甲仙國小","LANDMARKAD":"1001222","ADDRESS":"高雄市甲仙區甲仙村文化路45號","TEL":"07-6751025","COUNTYNAME":"高雄市","TOWNNAME":"甲仙區","MARKTYPE":"992","Class":"2"},"geometry":{"x":120.58902375559001,"y":23.081075023277499}},{"attributes":{"OBJECTID":19177,"LANDMARKID":"1001200000535","LANDMARKCO":"203","LANDMARKNA":"縣立小林國小","LANDMARKAD":"1001222","ADDRESS":"高雄市甲仙區小林村忠義路58號","TEL":"07-6761065","COUNTYNAME":"高雄市","TOWNNAME":"甲仙區","MARKTYPE":"992","Class":"2"},"geometry":{"x":120.6431767855151,"y":23.160406999448252}},{"attributes":{"OBJECTID":19178,"LANDMARKID":"1001200000536","LANDMARKCO":"203","LANDMARKNA":"縣立中興國小(廢)","LANDMARKAD":"1001222","ADDRESS":"高雄市甲仙區","TEL":" ","COUNTYNAME":"高雄市","TOWNNAME":"甲仙區","MARKTYPE":"992","Class":"2"},"geometry":{"x":120.60614290962725,"y":23.113268261631841}},{"attributes":{"OBJECTID":19179,"LANDMARKID":"1001200000625","LANDMARKCO":"302","LANDMARKNA":"高雄汽車客運甲仙站","LANDMARKAD":"1001222","ADDRESS":"高雄市甲仙區林森路73號","TEL":" ","COUNTYNAME":"高雄市","TOWNNAME":"甲仙區","MARKTYPE":"993","Class":"302"},"geometry":{"x":120.64345743264803,"y":23.162485064667514}},{"attributes":{"OBJECTID":19180,"LANDMARKID":"1001200000626","LANDMARKCO":"302","LANDMARKNA":"車站","LANDMARKAD":"1001222","ADDRESS":" ","TEL":" ","COUNTYNAME":"高雄市","TOWNNAME":"甲仙區","MARKTYPE":"993","Class":"302"},"geometry":{"x":120.58783221802136,"y":23.082457508735008}},{"attributes":{"OBJECTID":19181,"LANDMARKID":"1001200001351","LANDMARKCO":"603","LANDMARKNA":"碧宮大旅社","LANDMARKAD":"1001222","ADDRESS":"高雄市甲仙區東安村文化南路18號","TEL":"07-6752352","COUNTYNAME":"高雄市","TOWNNAME":"甲仙區","MARKTYPE":"996","Class":"6"},"geometry":{"x":120.58970922912206,"y":23.081798199870526}},{"attributes":{"OBJECTID":19182,"LANDMARKID":"1001200001352","LANDMARKCO":"603","LANDMARKNA":"全龍大旅社","LANDMARKAD":"1001222","ADDRESS":"高雄市甲仙區東安村文化路23號","TEL":"07-6751502","COUNTYNAME":"高雄市","TOWNNAME":"甲仙區","MARKTYPE":"996","Class":"6"},"geometry":{"x":120.58978694151079,"y":23.081893402375869}},{"attributes":{"OBJECTID":19183,"LANDMARKID":"1001200001213","LANDMARKCO":"503","LANDMARKNA":"石磯瀑布群","LANDMARKAD":"1001222","ADDRESS":"高雄市甲仙區","TEL":" ","COUNTYNAME":"高雄市","TOWNNAME":"甲仙區","MARKTYPE":"995","Class":"5"},"geometry":{"x":120.64853686545393,"y":23.148452043305507}},{"attributes":{"OBJECTID":19184,"LANDMARKID":"1001200001470","LANDMARKCO":"605","LANDMARKNA":"寶隆活動中心","LANDMARKAD":"1001222","ADDRESS":"高雄市甲仙區","TEL":" ","COUNTYNAME":"高雄市","TOWNNAME":"甲仙區","MARKTYPE":"996","Class":"6"},"geometry":{"x":120.56425566944873,"y":23.050502793244373}},{"attributes":{"OBJECTID":19185,"LANDMARKID":"1001200001471","LANDMARKCO":"605","LANDMARKNA":"靈隱寺","LANDMARKAD":"1001222","ADDRESS":"高雄市甲仙區","TEL":" ","COUNTYNAME":"高雄市","TOWNNAME":"甲仙區","MARKTYPE":"996","Class":"6"},"geometry":{"x":120.55414732773617,"y":23.048216654490975}},{"attributes":{"OBJECTID":19186,"LANDMARKID":"1001200001472","LANDMARKCO":"605","LANDMARKNA":"甲仙區立泳游池","LANDMARKAD":"1001222","ADDRESS":"高雄市甲仙區","TEL":" ","COUNTYNAME":"高雄市","TOWNNAME":"甲仙區","MARKTYPE":"996","Class":"6"},"geometry":{"x":120.58725136606868,"y":23.091298562965093}},{"attributes":{"OBJECTID":19187,"LANDMARKID":"1001200001473","LANDMARKCO":"605","LANDMARKNA":"白雲寺","LANDMARKAD":"1001222","ADDRESS":"高雄市甲仙區","TEL":" ","COUNTYNAME":"高雄市","TOWNNAME":"甲仙區","MARKTYPE":"996","Class":"6"},"geometry":{"x":120.62371495363867,"y":23.066371317016934}},{"attributes":{"OBJECTID":19188,"LANDMARKID":"1001200001474","LANDMARKCO":"605","LANDMARKNA":"王母宮","LANDMARKAD":"1001222","ADDRESS":"高雄市甲仙區","TEL":" ","COUNTYNAME":"高雄市","TOWNNAME":"甲仙區","MARKTYPE":"996","Class":"6"},"geometry":{"x":120.58704183679509,"y":23.066294610534442}},{"attributes":{"OBJECTID":19189,"LANDMARKID":"1001200001475","LANDMARKCO":"605","LANDMARKNA":"龍鳳寺","LANDMARKAD":"1001222","ADDRESS":"高雄市甲仙區","TEL":" ","COUNTYNAME":"高雄市","TOWNNAME":"甲仙區","MARKTYPE":"996","Class":"6"},"geometry":{"x":120.60453090344409,"y":23.081961420146335}},{"attributes":{"OBJECTID":19190,"LANDMARKID":"1001200000870","LANDMARKCO":"405","LANDMARKNA":"中油加油站-六龜站","LANDMARKAD":"1001221","ADDRESS":"高雄市六龜區光復路308號","TEL":"07-6891059","COUNTYNAME":"高雄市","TOWNNAME":"六龜區","MARKTYPE":"994","Class":"4"},"geometry":{"x":120.63583585768883,"y":22.991179822121225}},{"attributes":{"OBJECTID":19191,"LANDMARKID":"1001200000871","LANDMARKCO":"405","LANDMARKNA":"中油加油站-保來站","LANDMARKAD":"1001221","ADDRESS":"高雄市六龜區寶來村寶建路4號","TEL":"07-6881565","COUNTYNAME":"高雄市","TOWNNAME":"六龜區","MARKTYPE":"994","Class":"4"},"geometry":{"x":120.70735627816208,"y":23.105395622823316}},{"attributes":{"OBJECTID":19192,"LANDMARKID":"1001200001211","LANDMARKCO":"501","LANDMARKNA":"茂林國家風景區","LANDMARKAD":"1001221","ADDRESS":"高雄市茂林區茂林村12之5號","TEL":" ","COUNTYNAME":"高雄市","TOWNNAME":"六龜區","MARKTYPE":"995","Class":"5"},"geometry":{"x":120.64948668752903,"y":22.879991257910792}},{"attributes":{"OBJECTID":19193,"LANDMARKID":"1001200001257","LANDMARKCO":"507","LANDMARKNA":"妙崇寺","LANDMARKAD":"1001221","ADDRESS":"高雄市六龜區","TEL":" ","COUNTYNAME":"高雄市","TOWNNAME":"六龜區","MARKTYPE":"995","Class":"5"},"geometry":{"x":120.66978428885795,"y":23.011574172389526}},{"attributes":{"OBJECTID":19194,"LANDMARKID":"1001200001258","LANDMARKCO":"507","LANDMARKNA":"妙通寺","LANDMARKAD":"1001221","ADDRESS":"高雄市六龜區","TEL":" ","COUNTYNAME":"高雄市","TOWNNAME":"六龜區","MARKTYPE":"995","Class":"5"},"geometry":{"x":120.68652715383219,"y":23.101356322426867}},{"attributes":{"OBJECTID":19195,"LANDMARKID":"1001200001092","LANDMARKCO":"408","LANDMARKNA":"郵局-六龜郵局","LANDMARKAD":"1001221","ADDRESS":"高雄市六龜區義寶村光復路173號","TEL":"(07)6891-046","COUNTYNAME":"高雄市","TOWNNAME":"六龜區","MARKTYPE":"994","Class":"4"},"geometry":{"x":120.63553471957859,"y":22.994379146995882}},{"attributes":{"OBJECTID":19196,"LANDMARKID":"1001200001093","LANDMARKCO":"408","LANDMARKNA":"郵局-六龜寶來郵局","LANDMARKAD":"1001221","ADDRESS":"高雄市六龜區寶來街18-1號","TEL":"(07)6881-420","COUNTYNAME":"高雄市","TOWNNAME":"六龜區","MARKTYPE":"994","Class":"4"},"geometry":{"x":120.69972187745343,"y":23.108308843396784}},{"attributes":{"OBJECTID":19197,"LANDMARKID":"1001200001157","LANDMARKCO":"409","LANDMARKNA":"高雄市六龜區農會","LANDMARKAD":"1001221","ADDRESS":"高雄市六龜區義寶村光復路107號","TEL":"07-6892111","COUNTYNAME":"高雄市","TOWNNAME":"六龜區","MARKTYPE":"994","Class":"4"},"geometry":{"x":120.63499531840066,"y":22.995126730944186}},{"attributes":{"OBJECTID":19198,"LANDMARKID":"1001200000277","LANDMARKCO":"108","LANDMARKNA":"高雄市六龜區公所","LANDMARKAD":"1001221","ADDRESS":"高雄市六龜區民治路18號","TEL":"07-6892100","COUNTYNAME":"高雄市","TOWNNAME":"六龜區","MARKTYPE":"991","Class":"1"},"geometry":{"x":120.63326794542697,"y":22.998108715964225}},{"attributes":{"OBJECTID":19199,"LANDMARKID":"1001200000103","LANDMARKCO":"103","LANDMARKNA":"高雄市六龜區鄉民代表會","LANDMARKAD":"1001221","ADDRESS":"高雄市六龜區民治路18號3樓","TEL":"07-6891019","COUNTYNAME":"高雄市","TOWNNAME":"六龜區","MARKTYPE":"991","Class":"1"},"geometry":{"x":120.63346305347251,"y":22.998103164904848}},{"attributes":{"OBJECTID":19200,"LANDMARKID":"1001200000255","LANDMARKCO":"107","LANDMARKNA":"高雄市政府警察局六龜分局","LANDMARKAD":"1001221","ADDRESS":"高雄市六龜區大龜村民生路1號","TEL":"07-6891119","COUNTYNAME":"高雄市","TOWNNAME":"六龜區","MARKTYPE":"991","Class":"1"},"geometry":{"x":120.6335591359437,"y":22.998374529454548}}]}