{"displayFieldName":"COUNTYNAME","fieldAliases":{"OBJECTID":"OBJECTID","LANDMARKID":"LANDMARKID","LANDMARKCO":"LANDMARKCO","LANDMARKNA":"LANDMARKNA","LANDMARKAD":"LANDMARKAD","ADDRESS":"ADDRESS","TEL":"TEL","COUNTYNAME":"COUNTYNAME","TOWNNAME":"TOWNNAME","MARKTYPE":"MARKTYPE","Class":"Class"},"geometryType":"esriGeometryPoint","spatialReference":{"wkid":4326},"fields":[{"name":"OBJECTID","type":"esriFieldTypeOID","alias":"OBJECTID"},{"name":"LANDMARKID","type":"esriFieldTypeString","alias":"LANDMARKID","length":15},{"name":"LANDMARKCO","type":"esriFieldTypeString","alias":"LANDMARKCO","length":15},{"name":"LANDMARKNA","type":"esriFieldTypeString","alias":"LANDMARKNA","length":50},{"name":"LANDMARKAD","type":"esriFieldTypeString","alias":"LANDMARKAD","length":15},{"name":"ADDRESS","type":"esriFieldTypeString","alias":"ADDRESS","length":56},{"name":"TEL","type":"esriFieldTypeString","alias":"TEL","length":36},{"name":"COUNTYNAME","type":"esriFieldTypeString","alias":"COUNTYNAME","length":15},{"name":"TOWNNAME","type":"esriFieldTypeString","alias":"TOWNNAME","length":13},{"name":"MARKTYPE","type":"esriFieldTypeString","alias":"MARKTYPE","length":12},{"name":"Class","type":"esriFieldTypeString","alias":"Class","length":5}],"features":[{"attributes":{"OBJECTID":8801,"LANDMARKID":"6300000000241","LANDMARKCO":"107","LANDMARKNA":"台北市政府警察局介壽路派出所","LANDMARKAD":"6300005","ADDRESS":"台北市中正區公園路54號","TEL":"02-23113081","COUNTYNAME":"台北市","TOWNNAME":"中正區","MARKTYPE":"991","Class":"1"},"geometry":{"x":121.51551016788464,"y":25.039998110618505}},{"attributes":{"OBJECTID":8802,"LANDMARKID":"6300000000242","LANDMARKCO":"107","LANDMARKNA":"台北市政府警察局博愛路派出所","LANDMARKAD":"6300005","ADDRESS":"台北市中正區博愛路119號","TEL":"02-23142724","COUNTYNAME":"台北市","TOWNNAME":"中正區","MARKTYPE":"991","Class":"1"},"geometry":{"x":121.5115834131316,"y":25.041730996389514}},{"attributes":{"OBJECTID":8803,"LANDMARKID":"6300000000243","LANDMARKCO":"107","LANDMARKNA":"台北市政府警察局中正二分局","LANDMARKAD":"6300005","ADDRESS":"台北市中正區南門里南海路35號","TEL":"02-23751825","COUNTYNAME":"台北市","TOWNNAME":"中正區","MARKTYPE":"991","Class":"1"},"geometry":{"x":121.5140428031856,"y":25.031998097086912}},{"attributes":{"OBJECTID":8804,"LANDMARKID":"6300000000244","LANDMARKCO":"107","LANDMARKNA":"台北市政府警察局南海路派出所","LANDMARKAD":"6300005","ADDRESS":"台北市中正區南門里南海路35號","TEL":"02-23752835","COUNTYNAME":"台北市","TOWNNAME":"中正區","MARKTYPE":"991","Class":"1"},"geometry":{"x":121.5140428031856,"y":25.031998097086912}},{"attributes":{"OBJECTID":8805,"LANDMARKID":"6300000000245","LANDMARKCO":"107","LANDMARKNA":"台北市政府警察局思源街派出所","LANDMARKAD":"6300005","ADDRESS":"台北市汀州路3段72號","TEL":"02-23650844","COUNTYNAME":"台北市","TOWNNAME":"中正區","MARKTYPE":"991","Class":"1"},"geometry":{"x":121.53193254139934,"y":25.015192655135824}},{"attributes":{"OBJECTID":8806,"LANDMARKID":"6300000000246","LANDMARKCO":"107","LANDMARKNA":"台北市政府警察局南昌路派出所","LANDMARKAD":"6300005","ADDRESS":"台北市中正區龍福里南昌路一段7號","TEL":"02-23218148","COUNTYNAME":"台北市","TOWNNAME":"中正區","MARKTYPE":"991","Class":"1"},"geometry":{"x":121.51653487485422,"y":25.032312604347776}},{"attributes":{"OBJECTID":8807,"LANDMARKID":"6300000000247","LANDMARKCO":"107","LANDMARKNA":"台北市政府警察局廈門街派出所","LANDMARKAD":"6300005","ADDRESS":"台北市中正區廈門街94號","TEL":"02-23684427","COUNTYNAME":"台北市","TOWNNAME":"中正區","MARKTYPE":"991","Class":"1"},"geometry":{"x":121.51735177915661,"y":25.024161914907626}},{"attributes":{"OBJECTID":8808,"LANDMARKID":"6300000000248","LANDMARKCO":"107","LANDMARKNA":"內政部入出國及移民署","LANDMARKAD":"6300005","ADDRESS":"台北市中正區廣州街15號","TEL":"02-23899983","COUNTYNAME":"台北市","TOWNNAME":"中正區","MARKTYPE":"991","Class":"1"},"geometry":{"x":121.50814161398033,"y":25.035801923272064}},{"attributes":{"OBJECTID":8809,"LANDMARKID":"6300000000249","LANDMARKCO":"107","LANDMARKNA":"台北市政府警察局交通警察大隊","LANDMARKAD":"6300005","ADDRESS":"台北市中正區北平東路1號","TEL":"02-23214666","COUNTYNAME":"台北市","TOWNNAME":"中正區","MARKTYPE":"991","Class":"1"},"geometry":{"x":121.52097069164168,"y":25.047192804474115}},{"attributes":{"OBJECTID":8810,"LANDMARKID":"6300000000250","LANDMARKCO":"107","LANDMARKNA":"台北市消防局第一救災救護大隊","LANDMARKAD":"6300005","ADDRESS":"台北市中正區泉州街40號46樓","TEL":"02-23325631","COUNTYNAME":"台北市","TOWNNAME":"中正區","MARKTYPE":"991","Class":"1"},"geometry":{"x":121.51244309840335,"y":25.024589755129426}},{"attributes":{"OBJECTID":8811,"LANDMARKID":"6300000000251","LANDMARKCO":"107","LANDMARKNA":"台北市消防局忠孝消防分隊","LANDMARKAD":"6300005","ADDRESS":"台北市中正區忠孝東路二段8號","TEL":"02-23516396","COUNTYNAME":"台北市","TOWNNAME":"中正區","MARKTYPE":"991","Class":"1"},"geometry":{"x":121.52709808831173,"y":25.04368425635246}},{"attributes":{"OBJECTID":8812,"LANDMARKID":"6300000000252","LANDMARKCO":"107","LANDMARKNA":"台北市消防局古亭消防分隊","LANDMARKAD":"6300005","ADDRESS":"台北市中正區羅斯福路二段32號","TEL":"02-23212600","COUNTYNAME":"台北市","TOWNNAME":"中正區","MARKTYPE":"991","Class":"1"},"geometry":{"x":121.52117247147973,"y":25.028435492735191}},{"attributes":{"OBJECTID":8813,"LANDMARKID":"6300000000253","LANDMARKCO":"107","LANDMARKNA":"台北市消防局城中消防分隊","LANDMARKAD":"6300005","ADDRESS":"台北市中正區重慶南路一段1號","TEL":"02-23812839","COUNTYNAME":"台北市","TOWNNAME":"中正區","MARKTYPE":"991","Class":"1"},"geometry":{"x":121.51339641771438,"y":25.046735884419789}},{"attributes":{"OBJECTID":8814,"LANDMARKID":"6300000000254","LANDMARKCO":"107","LANDMARKNA":"台北市消防局中正消防中隊","LANDMARKAD":"6300005","ADDRESS":"台北市中正區北平東路1號2樓","TEL":"02-23213802","COUNTYNAME":"台北市","TOWNNAME":"中正區","MARKTYPE":"991","Class":"1"},"geometry":{"x":121.52097069164168,"y":25.047192804474115}},{"attributes":{"OBJECTID":8815,"LANDMARKID":"6300000000255","LANDMARKCO":"107","LANDMARKNA":"台北市消防局華山消防分隊","LANDMARKAD":"6300005","ADDRESS":"台北市中正區北平東路1號","TEL":"02-23412668","COUNTYNAME":"台北市","TOWNNAME":"中正區","MARKTYPE":"991","Class":"1"},"geometry":{"x":121.52097069164168,"y":25.047192804474115}},{"attributes":{"OBJECTID":8816,"LANDMARKID":"6300000000133","LANDMARKCO":"103","LANDMARKNA":"台北市中正區衛生所","LANDMARKAD":"6300005","ADDRESS":"台北市中正區牯嶺街24號","TEL":"02-23215158","COUNTYNAME":"台北市","TOWNNAME":"中正區","MARKTYPE":"991","Class":"1"},"geometry":{"x":121.51596731961051,"y":25.030488369239766}},{"attributes":{"OBJECTID":8817,"LANDMARKID":"6300000000374","LANDMARKCO":"108","LANDMARKNA":"台北市中正區公所","LANDMARKAD":"6300005","ADDRESS":"台北市中正區羅斯福路一段8號6樓","TEL":"02-23416721","COUNTYNAME":"台北市","TOWNNAME":"中正區","MARKTYPE":"991","Class":"1"},"geometry":{"x":121.51821115818423,"y":25.032468558894195}},{"attributes":{"OBJECTID":8818,"LANDMARKID":"6300000000076","LANDMARKCO":"101","LANDMARKNA":"台灣高等法院","LANDMARKAD":"6300005","ADDRESS":"台北市中正區重慶南路一段124號","TEL":"02-23713261","COUNTYNAME":"台北市","TOWNNAME":"中正區","MARKTYPE":"991","Class":"1"},"geometry":{"x":121.51244789870934,"y":25.037926490741899}},{"attributes":{"OBJECTID":8819,"LANDMARKID":"6300000000132","LANDMARKCO":"103","LANDMARKNA":"台北市兵役處","LANDMARKAD":"6300005","ADDRESS":"台北市中正區羅斯福路四段92號9樓","TEL":"02-23654361","COUNTYNAME":"台北市","TOWNNAME":"中正區","MARKTYPE":"991","Class":"1"},"geometry":{"x":121.53502495282254,"y":25.013756239290711}},{"attributes":{"OBJECTID":8820,"LANDMARKID":"6300000000077","LANDMARKCO":"101","LANDMARKNA":"農業委員會林業試驗所","LANDMARKAD":"6300005","ADDRESS":"台北市南海路53號","TEL":"02-23039978","COUNTYNAME":"台北市","TOWNNAME":"中正區","MARKTYPE":"991","Class":"1"},"geometry":{"x":121.5104583184434,"y":25.031046706865617}},{"attributes":{"OBJECTID":8821,"LANDMARKID":"6300000000131","LANDMARKCO":"103","LANDMARKNA":"台北市政府勞工局台北火車站服務站","LANDMARKAD":"6300005","ADDRESS":"台北市北平西路3號1樓東區","TEL":"02-23811278","COUNTYNAME":"台北市","TOWNNAME":"中正區","MARKTYPE":"991","Class":"1"},"geometry":{"x":121.51707316680337,"y":25.047174238197655}},{"attributes":{"OBJECTID":8822,"LANDMARKID":"6300000000078","LANDMARKCO":"101","LANDMARKNA":"公務員懲戒委員會","LANDMARKAD":"6300005","ADDRESS":"台北市中正區重慶南路一段124號3樓","TEL":"02-23111639","COUNTYNAME":"台北市","TOWNNAME":"中正區","MARKTYPE":"991","Class":"1"},"geometry":{"x":121.51244789870934,"y":25.037926490741899}},{"attributes":{"OBJECTID":8823,"LANDMARKID":"6300000000079","LANDMARKCO":"101","LANDMARKNA":"教育部兒童讀物出版資金管理委員會","LANDMARKAD":"6300005","ADDRESS":"台北市中正區連雲街18號4樓","TEL":"02-23416894","COUNTYNAME":"台北市","TOWNNAME":"中正區","MARKTYPE":"991","Class":"1"},"geometry":{"x":121.5317737174874,"y":25.036831877282381}},{"attributes":{"OBJECTID":8824,"LANDMARKID":"6300000000080","LANDMARKCO":"101","LANDMARKNA":"衛生署疾病管制局","LANDMARKAD":"6300005","ADDRESS":"台北市中正區林森南路6號5樓","TEL":"02-23959825","COUNTYNAME":"台北市","TOWNNAME":"中正區","MARKTYPE":"991","Class":"1"},"geometry":{"x":121.52276770275577,"y":25.04329653995455}},{"attributes":{"OBJECTID":8825,"LANDMARKID":"6300000000081","LANDMARKCO":"101","LANDMARKNA":"行政院研究發展考核委員會","LANDMARKAD":"6300005","ADDRESS":"台北市中正區濟南路一段2之2號6樓","TEL":"02-23419066","COUNTYNAME":"台北市","TOWNNAME":"中正區","MARKTYPE":"991","Class":"1"},"geometry":{"x":121.51998678604241,"y":25.042909077300386}},{"attributes":{"OBJECTID":8826,"LANDMARKID":"6300000000082","LANDMARKCO":"101","LANDMARKNA":"青年輔導委員會忠孝東路辦公室","LANDMARKAD":"6300005","ADDRESS":"台北市中正區忠孝東路一段31號3樓","TEL":"02-23560766","COUNTYNAME":"台北市","TOWNNAME":"中正區","MARKTYPE":"991","Class":"1"},"geometry":{"x":121.52534060629229,"y":25.044536287982382}},{"attributes":{"OBJECTID":8827,"LANDMARKID":"6300000000083","LANDMARKCO":"101","LANDMARKNA":"勞工委員會勞工保險監理委員會","LANDMARKAD":"6300005","ADDRESS":"台北市中正區羅斯福路一段4號10樓","TEL":"02-23961266","COUNTYNAME":"台北市","TOWNNAME":"中正區","MARKTYPE":"991","Class":"1"},"geometry":{"x":121.51744320695322,"y":25.033455689844576}},{"attributes":{"OBJECTID":8828,"LANDMARKID":"6300000000130","LANDMARKCO":"103","LANDMARKNA":"台東縣政府台北聯絡處","LANDMARKAD":"6300005","ADDRESS":"台北市中正區忠孝東路一段176號6樓之1","TEL":"02-23957166","COUNTYNAME":"台北市","TOWNNAME":"中正區","MARKTYPE":"991","Class":"1"},"geometry":{"x":121.52643927268129,"y":25.043855950035216}},{"attributes":{"OBJECTID":8829,"LANDMARKID":"6300000000084","LANDMARKCO":"101","LANDMARKNA":"國民大會祕書處","LANDMARKAD":"6300005","ADDRESS":"台北市中正區中華路一段53號1樓","TEL":"02-23311312","COUNTYNAME":"台北市","TOWNNAME":"中正區","MARKTYPE":"991","Class":"1"},"geometry":{"x":121.50901850718724,"y":25.043296455122388}},{"attributes":{"OBJECTID":8830,"LANDMARKID":"6300000000085","LANDMARKCO":"101","LANDMARKNA":"經濟部國營事業委員會","LANDMARKAD":"6300005","ADDRESS":"台北市中正區寶慶路25號","TEL":"02-23713161","COUNTYNAME":"台北市","TOWNNAME":"中正區","MARKTYPE":"991","Class":"1"},"geometry":{"x":121.51219096165509,"y":25.041340892720363}},{"attributes":{"OBJECTID":8831,"LANDMARKID":"6300000000086","LANDMARKCO":"101","LANDMARKNA":"行政院主計處廣博大樓","LANDMARKAD":"6300005","ADDRESS":"台北市中正區廣州街2號","TEL":"02-2380-3400","COUNTYNAME":"台北市","TOWNNAME":"中正區","MARKTYPE":"991","Class":"1"},"geometry":{"x":121.51020711046914,"y":25.034860566057592}},{"attributes":{"OBJECTID":8832,"LANDMARKID":"6300000000087","LANDMARKCO":"101","LANDMARKNA":"勞工保險局","LANDMARKAD":"6300005","ADDRESS":"台北市中正區濟南路二段42號2樓","TEL":"02-23568873","COUNTYNAME":"台北市","TOWNNAME":"中正區","MARKTYPE":"991","Class":"1"},"geometry":{"x":121.5304724347517,"y":25.040410935191964}},{"attributes":{"OBJECTID":8833,"LANDMARKID":"6300000000088","LANDMARKCO":"101","LANDMARKNA":"北美事務協調委員會","LANDMARKAD":"6300005","ADDRESS":"台北市中正區博愛路133號","TEL":"02-23116979","COUNTYNAME":"台北市","TOWNNAME":"中正區","MARKTYPE":"991","Class":"1"},"geometry":{"x":121.51099401442454,"y":25.036288350654669}},{"attributes":{"OBJECTID":8834,"LANDMARKID":"6300000000235","LANDMARKCO":"107","LANDMARKNA":"台北市政府警察局仁愛路派出所","LANDMARKAD":"6300005","ADDRESS":"臺北市仁愛路1段19號","TEL":"02-23212067","COUNTYNAME":"台北市","TOWNNAME":"中正區","MARKTYPE":"991","Class":"1"},"geometry":{"x":121.52249575869398,"y":25.038980745946404}},{"attributes":{"OBJECTID":8835,"LANDMARKID":"6300000000236","LANDMARKCO":"107","LANDMARKNA":"台北市政府警察局泉州街派出所","LANDMARKAD":"6300005","ADDRESS":"台北市中華路2段503號","TEL":"02-23039915","COUNTYNAME":"台北市","TOWNNAME":"中正區","MARKTYPE":"991","Class":"1"},"geometry":{"x":121.51220800445081,"y":25.024246045991664}},{"attributes":{"OBJECTID":8836,"LANDMARKID":"6300000000134","LANDMARKCO":"103","LANDMARKNA":"台北市中正運動中心","LANDMARKAD":"6300005","ADDRESS":"台北市信義路一段1號","TEL":"02-33225016","COUNTYNAME":"台北市","TOWNNAME":"中正區","MARKTYPE":"991","Class":"1"},"geometry":{"x":121.51918713079789,"y":25.038248760382682}},{"attributes":{"OBJECTID":8837,"LANDMARKID":"6300000000135","LANDMARKCO":"103","LANDMARKNA":"高雄市議會台北聯絡處","LANDMARKAD":"6300005","ADDRESS":"台北市中山區忠孝東路二段80號11樓","TEL":"02-23972710","COUNTYNAME":"台北市","TOWNNAME":"中正區","MARKTYPE":"991","Class":"1"},"geometry":{"x":121.52882781913887,"y":25.04322587944786}},{"attributes":{"OBJECTID":8838,"LANDMARKID":"6300000000784","LANDMARKCO":"205","LANDMARKNA":"黃俊榮相機博物館","LANDMARKAD":"6300005","ADDRESS":"台北市博愛路16號4樓","TEL":"02-23618299","COUNTYNAME":"台北市","TOWNNAME":"中正區","MARKTYPE":"992","Class":"2"},"geometry":{"x":121.51117598851363,"y":25.046501783390372}},{"attributes":{"OBJECTID":8839,"LANDMARKID":"6300000000785","LANDMARKCO":"205","LANDMARKNA":"布政使司文物館","LANDMARKAD":"6300005","ADDRESS":"台北市中正區南海路53號","TEL":" ","COUNTYNAME":"台北市","TOWNNAME":"中正區","MARKTYPE":"992","Class":"2"},"geometry":{"x":121.50836059372271,"y":25.032009117284844}},{"attributes":{"OBJECTID":8840,"LANDMARKID":"6300000000786","LANDMARKCO":"205","LANDMARKNA":"自來水園區台北自來水博物館","LANDMARKAD":"6300005","ADDRESS":"台北市中正區思源街1號","TEL":" ","COUNTYNAME":"台北市","TOWNNAME":"中正區","MARKTYPE":"992","Class":"2"},"geometry":{"x":121.53017152094314,"y":25.012442332080898}},{"attributes":{"OBJECTID":8841,"LANDMARKID":"6300000000787","LANDMARKCO":"205","LANDMARKNA":"兒童交通博物館","LANDMARKAD":"6300005","ADDRESS":"台北市汀州路三段2號","TEL":" ","COUNTYNAME":"台北市","TOWNNAME":"中正區","MARKTYPE":"992","Class":"2"},"geometry":{"x":121.52527024524981,"y":25.020485606114761}},{"attributes":{"OBJECTID":8842,"LANDMARKID":"6300000000788","LANDMARKCO":"205","LANDMARKNA":"水資源博物館","LANDMARKAD":"6300005","ADDRESS":"台北市思源街1號","TEL":" ","COUNTYNAME":"台北市","TOWNNAME":"中正區","MARKTYPE":"992","Class":"2"},"geometry":{"x":121.53107459917619,"y":25.013992495394351}},{"attributes":{"OBJECTID":8843,"LANDMARKID":"6300000000789","LANDMARKCO":"205","LANDMARKNA":"台北市立成功高級中學昆蟲科學博","LANDMARKAD":"6300005","ADDRESS":"台北市濟南路一段71號","TEL":" ","COUNTYNAME":"台北市","TOWNNAME":"中正區","MARKTYPE":"992","Class":"2"},"geometry":{"x":121.52379979607637,"y":25.042444713391692}},{"attributes":{"OBJECTID":8844,"LANDMARKID":"6300000000790","LANDMARKCO":"205","LANDMARKNA":"中正紀念堂","LANDMARKAD":"6300005","ADDRESS":"台北市中山南路21號","TEL":" ","COUNTYNAME":"台北市","TOWNNAME":"中正區","MARKTYPE":"992","Class":"2"},"geometry":{"x":121.52179525541857,"y":25.034636375153791}},{"attributes":{"OBJECTID":8845,"LANDMARKID":"6300000000791","LANDMARKCO":"205","LANDMARKNA":"國立歷史博物館","LANDMARKAD":"6300005","ADDRESS":"台北市南海路49號","TEL":" ","COUNTYNAME":"台北市","TOWNNAME":"中正區","MARKTYPE":"992","Class":"2"},"geometry":{"x":121.51120385858697,"y":25.031469345057971}},{"attributes":{"OBJECTID":8846,"LANDMARKID":"6300000000792","LANDMARKCO":"205","LANDMARKNA":"郵政博物館","LANDMARKAD":"6300005","ADDRESS":"台北市重慶南路二段45號","TEL":" ","COUNTYNAME":"台北市","TOWNNAME":"中正區","MARKTYPE":"992","Class":"2"},"geometry":{"x":121.51481561434086,"y":25.031649437940011}},{"attributes":{"OBJECTID":8847,"LANDMARKID":"6300000000793","LANDMARKCO":"205","LANDMARKNA":"國立台灣博物館","LANDMARKAD":"6300005","ADDRESS":"台北市中正區襄陽路2號","TEL":" ","COUNTYNAME":"台北市","TOWNNAME":"中正區","MARKTYPE":"992","Class":"2"},"geometry":{"x":121.51504513482799,"y":25.042766916181044}},{"attributes":{"OBJECTID":8848,"LANDMARKID":"6300000000794","LANDMARKCO":"205","LANDMARKNA":"善導寺佛教歷史藝術館","LANDMARKAD":"6300005","ADDRESS":"台北市忠孝東路一段23號5-7樓","TEL":" ","COUNTYNAME":"台北市","TOWNNAME":"中正區","MARKTYPE":"992","Class":"2"},"geometry":{"x":121.52487171821107,"y":25.045043157703883}},{"attributes":{"OBJECTID":8849,"LANDMARKID":"6300000000795","LANDMARKCO":"205","LANDMARKNA":"國父史蹟紀念館","LANDMARKAD":"6300005","ADDRESS":"台北市中正區中山北路一段46號","TEL":" ","COUNTYNAME":"台北市","TOWNNAME":"中正區","MARKTYPE":"992","Class":"2"},"geometry":{"x":121.52006094942054,"y":25.047790186284189}},{"attributes":{"OBJECTID":8850,"LANDMARKID":"6300000000796","LANDMARKCO":"205","LANDMARKNA":"台灣林業陳列館","LANDMARKAD":"6300005","ADDRESS":"台北市南海路60號","TEL":" ","COUNTYNAME":"台北市","TOWNNAME":"中正區","MARKTYPE":"992","Class":"2"},"geometry":{"x":121.5093220150945,"y":25.030142140260136}},{"attributes":{"OBJECTID":8851,"LANDMARKID":"6300000000797","LANDMARKCO":"205","LANDMARKNA":"手工藝研究所台北展示中心","LANDMARKAD":"6300005","ADDRESS":"台北市南海路20號9-10樓","TEL":" ","COUNTYNAME":"台北市","TOWNNAME":"中正區","MARKTYPE":"992","Class":"2"},"geometry":{"x":121.51691692072608,"y":25.032444400886803}},{"attributes":{"OBJECTID":8852,"LANDMARKID":"6300000000798","LANDMARKCO":"205","LANDMARKNA":"二二八紀念館","LANDMARKAD":"6300005","ADDRESS":"台北市中正區凱達格蘭大道3號","TEL":" ","COUNTYNAME":"台北市","TOWNNAME":"中正區","MARKTYPE":"992","Class":"2"},"geometry":{"x":121.51556153504129,"y":25.04026728749912}},{"attributes":{"OBJECTID":8853,"LANDMARKID":"6300000000799","LANDMARKCO":"205","LANDMARKNA":"國軍歷史文物館","LANDMARKAD":"6300005","ADDRESS":"台北市中正區貴陽街一段243號","TEL":" ","COUNTYNAME":"台北市","TOWNNAME":"中正區","MARKTYPE":"992","Class":"2"},"geometry":{"x":121.50829412227996,"y":25.03935227915802}},{"attributes":{"OBJECTID":8854,"LANDMARKID":"6300000000761","LANDMARKCO":"204","LANDMARKNA":"國立國家圖書館","LANDMARKAD":"6300005","ADDRESS":"台北市中正區中山南路20號","TEL":" ","COUNTYNAME":"台北市","TOWNNAME":"中正區","MARKTYPE":"992","Class":"2"},"geometry":{"x":121.51673120094343,"y":25.037327741863535}},{"attributes":{"OBJECTID":8855,"LANDMARKID":"6300000000762","LANDMARKCO":"204","LANDMARKNA":"台北市立圖書館城中分館","LANDMARKAD":"6300005","ADDRESS":"台北市中正區濟南路二段46號3樓","TEL":" ","COUNTYNAME":"台北市","TOWNNAME":"中正區","MARKTYPE":"992","Class":"2"},"geometry":{"x":121.53098230787545,"y":25.040278988621417}},{"attributes":{"OBJECTID":8856,"LANDMARKID":"6300000000763","LANDMARKCO":"204","LANDMARKNA":"王貫英先生紀念圖書館","LANDMARKAD":"6300005","ADDRESS":"台北市中正區汀州路二段265號","TEL":" ","COUNTYNAME":"台北市","TOWNNAME":"中正區","MARKTYPE":"992","Class":"2"},"geometry":{"x":121.52378861168904,"y":25.022618857095885}},{"attributes":{"OBJECTID":8857,"LANDMARKID":"6300000000830","LANDMARKCO":"207","LANDMARKNA":"國家音樂廳文化藝廊","LANDMARKAD":"6300005","ADDRESS":"台北市中山南路21之1號","TEL":" ","COUNTYNAME":"台北市","TOWNNAME":"中正區","MARKTYPE":"992","Class":"2"},"geometry":{"x":121.51900793613873,"y":25.036928400540937}},{"attributes":{"OBJECTID":8858,"LANDMARKID":"6300000000825","LANDMARKCO":"206","LANDMARKNA":"台灣科學教育館","LANDMARKAD":"6300005","ADDRESS":"台北市士林區士商路189號","TEL":" ","COUNTYNAME":"台北市","TOWNNAME":"中正區","MARKTYPE":"992","Class":"2"},"geometry":{"x":121.51230863383718,"y":25.032114969129765}},{"attributes":{"OBJECTID":8859,"LANDMARKID":"6300000000826","LANDMARKCO":"206","LANDMARKNA":"美國文化中心","LANDMARKAD":"6300005","ADDRESS":"台北市南海路54號","TEL":" ","COUNTYNAME":"台北市","TOWNNAME":"中正區","MARKTYPE":"992","Class":"2"},"geometry":{"x":121.51386514234035,"y":25.031580097889517}},{"attributes":{"OBJECTID":8860,"LANDMARKID":"6300000000829","LANDMARKCO":"207","LANDMARKNA":"鴻禧美術館","LANDMARKAD":"6300005","ADDRESS":"台北市仁愛路二段63號B1樓","TEL":" ","COUNTYNAME":"台北市","TOWNNAME":"中正區","MARKTYPE":"992","Class":"2"},"geometry":{"x":121.53053355258885,"y":25.038340896736358}},{"attributes":{"OBJECTID":8861,"LANDMARKID":"6300000000827","LANDMARKCO":"206","LANDMARKNA":"國立台灣藝術教育館","LANDMARKAD":"6300005","ADDRESS":"台北市南海路47號","TEL":" ","COUNTYNAME":"台北市","TOWNNAME":"中正區","MARKTYPE":"992","Class":"2"},"geometry":{"x":121.51180022262206,"y":25.031872999705694}},{"attributes":{"OBJECTID":8862,"LANDMARKID":"6300000000828","LANDMARKCO":"207","LANDMARKNA":"楊英風美術館","LANDMARKAD":"6300005","ADDRESS":"台北市重慶南路二段31號","TEL":" ","COUNTYNAME":"台北市","TOWNNAME":"中正區","MARKTYPE":"992","Class":"2"},"geometry":{"x":121.51301204821505,"y":25.031712285106131}},{"attributes":{"OBJECTID":8863,"LANDMARKID":"6300000000535","LANDMARKCO":"203","LANDMARKNA":"市立忠義國小","LANDMARKAD":"6300005","ADDRESS":"台北市中正區中華路二段307巷17號","TEL":"02-23058463","COUNTYNAME":"台北市","TOWNNAME":"中正區","MARKTYPE":"992","Class":"2"},"geometry":{"x":121.50580250033717,"y":25.029766782431697}},{"attributes":{"OBJECTID":8864,"LANDMARKID":"6300000000536","LANDMARKCO":"203","LANDMARKNA":"市立東門國小","LANDMARKAD":"6300005","ADDRESS":"台北市中正區東門里仁愛路一段2號之4","TEL":"02-23216938","COUNTYNAME":"台北市","TOWNNAME":"中正區","MARKTYPE":"992","Class":"2"},"geometry":{"x":121.52065120199637,"y":25.038017979598681}},{"attributes":{"OBJECTID":8865,"LANDMARKID":"6300000000537","LANDMARKCO":"203","LANDMARKNA":"市立忠孝國小","LANDMARKAD":"6300005","ADDRESS":"台北市中正區梅花里忠孝東路二段101號","TEL":"02-23918170","COUNTYNAME":"台北市","TOWNNAME":"中正區","MARKTYPE":"992","Class":"2"},"geometry":{"x":121.53148211521196,"y":25.043036266337879}},{"attributes":{"OBJECTID":8866,"LANDMARKID":"6300000000487","LANDMARKCO":"202","LANDMARKNA":"私立強恕中學","LANDMARKAD":"6300005","ADDRESS":"台北市中正區汀州路二段143號","TEL":"02-23656570","COUNTYNAME":"台北市","TOWNNAME":"中正區","MARKTYPE":"992","Class":"2"},"geometry":{"x":121.52018258008506,"y":25.02486055526467}},{"attributes":{"OBJECTID":8867,"LANDMARKID":"6300000000488","LANDMARKCO":"202","LANDMARKNA":"市立建國中學","LANDMARKAD":"6300005","ADDRESS":"台北市中正區南海路56號","TEL":"02-23034381","COUNTYNAME":"台北市","TOWNNAME":"中正區","MARKTYPE":"992","Class":"2"},"geometry":{"x":121.51218413601418,"y":25.031206866911237}},{"attributes":{"OBJECTID":8868,"LANDMARKID":"6300000000489","LANDMARKCO":"202","LANDMARKNA":"市立北一女中","LANDMARKAD":"6300005","ADDRESS":"台北市中正區重慶南路一段165號","TEL":"02-23820484","COUNTYNAME":"台北市","TOWNNAME":"中正區","MARKTYPE":"992","Class":"2"},"geometry":{"x":121.51302920497649,"y":25.038599596484556}},{"attributes":{"OBJECTID":8869,"LANDMARKID":"6300000000490","LANDMARKCO":"202","LANDMARKNA":"市立成功中學","LANDMARKAD":"6300005","ADDRESS":"台北市中正區濟南路一段71號","TEL":"02-23216256","COUNTYNAME":"台北市","TOWNNAME":"中正區","MARKTYPE":"992","Class":"2"},"geometry":{"x":121.52381791987588,"y":25.042388576948117}},{"attributes":{"OBJECTID":8870,"LANDMARKID":"6300000000491","LANDMARKCO":"202","LANDMARKNA":"私立開南商工","LANDMARKAD":"6300005","ADDRESS":"台北市中正區濟南路一段6號","TEL":"02-23212666","COUNTYNAME":"台北市","TOWNNAME":"中正區","MARKTYPE":"992","Class":"2"},"geometry":{"x":121.52184413803637,"y":25.042408529294075}},{"attributes":{"OBJECTID":8871,"LANDMARKID":"6300000000492","LANDMARKCO":"202","LANDMARKNA":"私立泰北中學女生部","LANDMARKAD":"6300005","ADDRESS":"台北市中正區林森南路69號","TEL":"02-23214144","COUNTYNAME":"台北市","TOWNNAME":"中正區","MARKTYPE":"992","Class":"2"},"geometry":{"x":121.52200066390365,"y":25.039279191599235}},{"attributes":{"OBJECTID":8872,"LANDMARKID":"6300000000525","LANDMARKCO":"203","LANDMARKNA":"市立古亭國中","LANDMARKAD":"6300005","ADDRESS":"台北市中正區中華路二段465號","TEL":"02-23090986","COUNTYNAME":"台北市","TOWNNAME":"中正區","MARKTYPE":"992","Class":"2"},"geometry":{"x":121.51063747328122,"y":25.02465585567105}},{"attributes":{"OBJECTID":8873,"LANDMARKID":"6300000000526","LANDMARKCO":"203","LANDMARKNA":"市立弘道國中","LANDMARKAD":"6300005","ADDRESS":"台北市中正區公園路21號","TEL":"02-23715520","COUNTYNAME":"台北市","TOWNNAME":"中正區","MARKTYPE":"992","Class":"2"},"geometry":{"x":121.51530457384324,"y":25.037539384342612}},{"attributes":{"OBJECTID":8874,"LANDMARKID":"6300000000527","LANDMARKCO":"203","LANDMARKNA":"市立中正國中","LANDMARKAD":"6300005","ADDRESS":"台北市中正區愛國東路158號","TEL":"02-23916697","COUNTYNAME":"台北市","TOWNNAME":"中正區","MARKTYPE":"992","Class":"2"},"geometry":{"x":121.52209164399133,"y":25.032324683240269}},{"attributes":{"OBJECTID":8875,"LANDMARKID":"6300000000528","LANDMARKCO":"203","LANDMARKNA":"市立南門國中","LANDMARKAD":"6300005","ADDRESS":"台北市中正區廣州街6號","TEL":"02-23142775","COUNTYNAME":"台北市","TOWNNAME":"中正區","MARKTYPE":"992","Class":"2"},"geometry":{"x":121.50910551507576,"y":25.035226994109159}},{"attributes":{"OBJECTID":8876,"LANDMARKID":"6300000000529","LANDMARKCO":"203","LANDMARKNA":"市立師院附小","LANDMARKAD":"6300005","ADDRESS":"台北市中正區黎明里公園路29號","TEL":"02-23311794","COUNTYNAME":"台北市","TOWNNAME":"中正區","MARKTYPE":"992","Class":"2"},"geometry":{"x":121.51527803489203,"y":25.03632752862563}},{"attributes":{"OBJECTID":8877,"LANDMARKID":"6300000000530","LANDMARKCO":"203","LANDMARKNA":"市立河堤國小","LANDMARKAD":"6300005","ADDRESS":"台北市中正區堤苑里汀州路二段180號","TEL":"02-23677144","COUNTYNAME":"台北市","TOWNNAME":"中正區","MARKTYPE":"992","Class":"2"},"geometry":{"x":121.52265274034201,"y":25.023261730957515}},{"attributes":{"OBJECTID":8878,"LANDMARKID":"6300000000531","LANDMARKCO":"203","LANDMARKNA":"市立國語實小","LANDMARKAD":"6300005","ADDRESS":"台北市中正區龍光里南海路58號","TEL":"02-23011547","COUNTYNAME":"台北市","TOWNNAME":"中正區","MARKTYPE":"992","Class":"2"},"geometry":{"x":121.51102822462674,"y":25.03091187988381}},{"attributes":{"OBJECTID":8879,"LANDMARKID":"6300000000532","LANDMARKCO":"203","LANDMARKNA":"市立螢橋國小","LANDMARKAD":"6300005","ADDRESS":"台北市中正區螢雪里詔安街29號","TEL":"02-23016813","COUNTYNAME":"台北市","TOWNNAME":"中正區","MARKTYPE":"992","Class":"2"},"geometry":{"x":121.51446139975442,"y":25.024926206278195}},{"attributes":{"OBJECTID":8880,"LANDMARKID":"6300000000533","LANDMARKCO":"203","LANDMARKNA":"市立南門國小","LANDMARKAD":"6300005","ADDRESS":"台北市中正區南門里廣州街6號","TEL":"02-23715052","COUNTYNAME":"台北市","TOWNNAME":"中正區","MARKTYPE":"992","Class":"2"},"geometry":{"x":121.50910551507576,"y":25.035226994109159}},{"attributes":{"OBJECTID":8881,"LANDMARKID":"6300000000378","LANDMARKCO":"201","LANDMARKNA":"台北市立師範學院","LANDMARKAD":"6300005","ADDRESS":"台北市中正區愛國西路1號","TEL":"02-23113040","COUNTYNAME":"台北市","TOWNNAME":"中正區","MARKTYPE":"992","Class":"2"},"geometry":{"x":121.51359326060137,"y":25.035550968275846}},{"attributes":{"OBJECTID":8882,"LANDMARKID":"6300000000379","LANDMARKCO":"201","LANDMARKNA":"國立台北商業技術學院","LANDMARKAD":"6300005","ADDRESS":"台北市中正區濟南路一段321號","TEL":"02-23935263","COUNTYNAME":"台北市","TOWNNAME":"中正區","MARKTYPE":"992","Class":"2"},"geometry":{"x":121.52553662589652,"y":25.04194610165889}},{"attributes":{"OBJECTID":8883,"LANDMARKID":"6300000000380","LANDMARKCO":"201","LANDMARKNA":"國立台北商業技術學院附空中商專","LANDMARKAD":"6300005","ADDRESS":"台北市中正區濟南路一段321號","TEL":"02-23938500","COUNTYNAME":"台北市","TOWNNAME":"中正區","MARKTYPE":"992","Class":"2"},"geometry":{"x":121.52553662589652,"y":25.04194610165889}},{"attributes":{"OBJECTID":8884,"LANDMARKID":"6300000000381","LANDMARKCO":"201","LANDMARKNA":"國立台灣大學醫學院","LANDMARKAD":"6300005","ADDRESS":"台北市中正區仁愛路一段1號","TEL":"02-23123456","COUNTYNAME":"台北市","TOWNNAME":"中正區","MARKTYPE":"992","Class":"2"},"geometry":{"x":121.51889949478861,"y":25.039424398062156}},{"attributes":{"OBJECTID":8885,"LANDMARKID":"6300000000382","LANDMARKCO":"201","LANDMARKNA":"東吳大學城中校區","LANDMARKAD":"6300005","ADDRESS":"台北市中正區貴陽街一段56號","TEL":"02-28819471","COUNTYNAME":"台北市","TOWNNAME":"中正區","MARKTYPE":"992","Class":"2"},"geometry":{"x":121.50991216644159,"y":25.038895875482012}},{"attributes":{"OBJECTID":8886,"LANDMARKID":"6300000000383","LANDMARKCO":"201","LANDMARKNA":"台北市立教育大學","LANDMARKAD":"6300005","ADDRESS":"[100]台北市愛國西路1號","TEL":"02-23113040","COUNTYNAME":"台北市","TOWNNAME":"中正區","MARKTYPE":"992","Class":"2"},"geometry":{"x":121.51359326060137,"y":25.035550968275846}},{"attributes":{"OBJECTID":8887,"LANDMARKID":"6300000000384","LANDMARKCO":"201","LANDMARKNA":"台大校友會館","LANDMARKAD":"6300005","ADDRESS":"台北市濟南路一段2之1號","TEL":"02-23218415","COUNTYNAME":"台北市","TOWNNAME":"中正區","MARKTYPE":"992","Class":"2"},"geometry":{"x":121.51966817319068,"y":25.042990304616232}},{"attributes":{"OBJECTID":8888,"LANDMARKID":"6300000000385","LANDMARKCO":"201","LANDMARKNA":"中華福音神學院","LANDMARKAD":"6300005","ADDRESS":"台北市中正區汀州路3段101號","TEL":"02-23659151","COUNTYNAME":"台北市","TOWNNAME":"中正區","MARKTYPE":"992","Class":"2"},"geometry":{"x":121.5295357576632,"y":25.017122853861618}},{"attributes":{"OBJECTID":8889,"LANDMARKID":"6300000000386","LANDMARKCO":"201","LANDMARKNA":"國立台灣大學水源校區","LANDMARKAD":"6300005","ADDRESS":"台北市中正區思源街18號","TEL":"02-33663366","COUNTYNAME":"台北市","TOWNNAME":"中正區","MARKTYPE":"992","Class":"2"},"geometry":{"x":121.52939096709081,"y":25.013058999612184}},{"attributes":{"OBJECTID":8890,"LANDMARKID":"6300000000534","LANDMARKCO":"203","LANDMARKNA":"市立螢橋國中","LANDMARKAD":"6300005","ADDRESS":"台北市中正區林興里汀州街三段4號","TEL":"02-23670293","COUNTYNAME":"台北市","TOWNNAME":"中正區","MARKTYPE":"992","Class":"2"},"geometry":{"x":121.52559278715403,"y":25.018592291919258}},{"attributes":{"OBJECTID":8891,"LANDMARKID":"6300000000404","LANDMARKCO":"201","LANDMARKNA":"國立台灣大學法學院","LANDMARKAD":"6300005","ADDRESS":"台北市中正區台北市徐州路22號","TEL":"02-23918758","COUNTYNAME":"台北市","TOWNNAME":"中正區","MARKTYPE":"992","Class":"2"},"geometry":{"x":121.52512481418945,"y":25.041075575377661}},{"attributes":{"OBJECTID":8892,"LANDMARKID":"6300000001912","LANDMARKCO":"306","LANDMARKNA":"忠孝新生捷運站-出口3","LANDMARKAD":"6300005","ADDRESS":" ","TEL":" ","COUNTYNAME":"台北市","TOWNNAME":"中正區","MARKTYPE":"993","Class":"306"},"geometry":{"x":121.53194975792375,"y":25.042749835388864}},{"attributes":{"OBJECTID":8893,"LANDMARKID":"6300000001913","LANDMARKCO":"306","LANDMARKNA":"忠孝新生捷運站-出口4","LANDMARKAD":"6300005","ADDRESS":" ","TEL":" ","COUNTYNAME":"台北市","TOWNNAME":"中正區","MARKTYPE":"993","Class":"306"},"geometry":{"x":121.53213341556815,"y":25.042214542073239}},{"attributes":{"OBJECTID":8894,"LANDMARKID":"6300000001914","LANDMARKCO":"306","LANDMARKNA":"善導寺捷運站-出口1","LANDMARKAD":"6300005","ADDRESS":" ","TEL":" ","COUNTYNAME":"台北市","TOWNNAME":"中正區","MARKTYPE":"993","Class":"306"},"geometry":{"x":121.52301255060617,"y":25.045066373899484}},{"attributes":{"OBJECTID":8895,"LANDMARKID":"6300000001915","LANDMARKCO":"306","LANDMARKNA":"善導寺捷運站-出口2","LANDMARKAD":"6300005","ADDRESS":" ","TEL":" ","COUNTYNAME":"台北市","TOWNNAME":"中正區","MARKTYPE":"993","Class":"306"},"geometry":{"x":121.52290784844583,"y":25.044759187191882}},{"attributes":{"OBJECTID":8896,"LANDMARKID":"6300000001916","LANDMARKCO":"306","LANDMARKNA":"善導寺捷運站-出口3","LANDMARKAD":"6300005","ADDRESS":" ","TEL":" ","COUNTYNAME":"台北市","TOWNNAME":"中正區","MARKTYPE":"993","Class":"306"},"geometry":{"x":121.52358773226018,"y":25.044586108593705}},{"attributes":{"OBJECTID":8897,"LANDMARKID":"6300000001917","LANDMARKCO":"306","LANDMARKNA":"善導寺捷運站-出口4","LANDMARKAD":"6300005","ADDRESS":" ","TEL":" ","COUNTYNAME":"台北市","TOWNNAME":"中正區","MARKTYPE":"993","Class":"306"},"geometry":{"x":121.52427721049918,"y":25.044223398754752}},{"attributes":{"OBJECTID":8898,"LANDMARKID":"6300000001918","LANDMARKCO":"306","LANDMARKNA":"善導寺捷運站-出口5","LANDMARKAD":"6300005","ADDRESS":" ","TEL":" ","COUNTYNAME":"台北市","TOWNNAME":"中正區","MARKTYPE":"993","Class":"306"},"geometry":{"x":121.52475290056252,"y":25.04430036029262}},{"attributes":{"OBJECTID":8899,"LANDMARKID":"6300000001919","LANDMARKCO":"306","LANDMARKNA":"善導寺捷運站-出口6","LANDMARKAD":"6300005","ADDRESS":" ","TEL":" ","COUNTYNAME":"台北市","TOWNNAME":"中正區","MARKTYPE":"993","Class":"306"},"geometry":{"x":121.52486604996739,"y":25.04460768555051}},{"attributes":{"OBJECTID":8900,"LANDMARKID":"6300000001920","LANDMARKCO":"306","LANDMARKNA":"西門捷運站-出口3","LANDMARKAD":"6300005","ADDRESS":" ","TEL":" ","COUNTYNAME":"台北市","TOWNNAME":"中正區","MARKTYPE":"993","Class":"306"},"geometry":{"x":121.50874718476851,"y":25.041853654756139}},{"attributes":{"OBJECTID":8901,"LANDMARKID":"6300000001921","LANDMARKCO":"306","LANDMARKNA":"西門捷運站-出口4","LANDMARKAD":"6300005","ADDRESS":" ","TEL":" ","COUNTYNAME":"台北市","TOWNNAME":"中正區","MARKTYPE":"993","Class":"306"},"geometry":{"x":121.50884953450624,"y":25.042266098864552}},{"attributes":{"OBJECTID":8902,"LANDMARKID":"6300000001922","LANDMARKCO":"306","LANDMARKNA":"西門捷運站-出口5","LANDMARKAD":"6300005","ADDRESS":" ","TEL":" ","COUNTYNAME":"台北市","TOWNNAME":"中正區","MARKTYPE":"993","Class":"306"},"geometry":{"x":121.50878010115035,"y":25.042844978334003}},{"attributes":{"OBJECTID":8903,"LANDMARKID":"6300000001923","LANDMARKCO":"306","LANDMARKNA":"西門捷運站-出口2","LANDMARKAD":"6300005","ADDRESS":" ","TEL":" ","COUNTYNAME":"台北市","TOWNNAME":"中正區","MARKTYPE":"993","Class":"306"},"geometry":{"x":121.50837998620291,"y":25.041431794244478}},{"attributes":{"OBJECTID":8904,"LANDMARKID":"6300000001924","LANDMARKCO":"306","LANDMARKNA":"古亭捷運站-出口2","LANDMARKAD":"6300005","ADDRESS":" ","TEL":" ","COUNTYNAME":"台北市","TOWNNAME":"中正區","MARKTYPE":"993","Class":"306"},"geometry":{"x":121.52336984981392,"y":25.025533312996462}},{"attributes":{"OBJECTID":8905,"LANDMARKID":"6300000001925","LANDMARKCO":"306","LANDMARKNA":"古亭捷運站-出口8","LANDMARKAD":"6300005","ADDRESS":" ","TEL":" ","COUNTYNAME":"台北市","TOWNNAME":"中正區","MARKTYPE":"993","Class":"306"},"geometry":{"x":121.52188804761482,"y":25.027076339183758}},{"attributes":{"OBJECTID":8906,"LANDMARKID":"6300000001926","LANDMARKCO":"306","LANDMARKNA":"古亭捷運站-出口7","LANDMARKAD":"6300005","ADDRESS":" ","TEL":" ","COUNTYNAME":"台北市","TOWNNAME":"中正區","MARKTYPE":"993","Class":"306"},"geometry":{"x":121.5217491171457,"y":25.02774107171193}},{"attributes":{"OBJECTID":8907,"LANDMARKID":"6300000001927","LANDMARKCO":"306","LANDMARKNA":"古亭捷運站-出口9","LANDMARKAD":"6300005","ADDRESS":" ","TEL":" ","COUNTYNAME":"台北市","TOWNNAME":"中正區","MARKTYPE":"993","Class":"306"},"geometry":{"x":121.52244638480421,"y":25.026773519744793}},{"attributes":{"OBJECTID":8908,"LANDMARKID":"6300000001928","LANDMARKCO":"306","LANDMARKNA":"古亭捷運站-出口1","LANDMARKAD":"6300005","ADDRESS":" ","TEL":" ","COUNTYNAME":"台北市","TOWNNAME":"中正區","MARKTYPE":"993","Class":"306"},"geometry":{"x":121.52305930825776,"y":25.025952634046376}},{"attributes":{"OBJECTID":8909,"LANDMARKID":"6300000001929","LANDMARKCO":"306","LANDMARKNA":"中正紀念堂捷運站-出口7","LANDMARKAD":"6300005","ADDRESS":" ","TEL":" ","COUNTYNAME":"台北市","TOWNNAME":"中正區","MARKTYPE":"993","Class":"306"},"geometry":{"x":121.51607777363024,"y":25.034557772191913}},{"attributes":{"OBJECTID":8910,"LANDMARKID":"6300000001930","LANDMARKCO":"306","LANDMARKNA":"中正紀念堂捷運站-出口5","LANDMARKAD":"6300005","ADDRESS":" ","TEL":" ","COUNTYNAME":"台北市","TOWNNAME":"中正區","MARKTYPE":"993","Class":"306"},"geometry":{"x":121.51708914363442,"y":25.035214914191592}},{"attributes":{"OBJECTID":8911,"LANDMARKID":"6300000001931","LANDMARKCO":"306","LANDMARKNA":"中正紀念堂捷運站-出口6","LANDMARKAD":"6300005","ADDRESS":" ","TEL":" ","COUNTYNAME":"台北市","TOWNNAME":"中正區","MARKTYPE":"993","Class":"306"},"geometry":{"x":121.51657179262115,"y":25.035900903659712}},{"attributes":{"OBJECTID":8912,"LANDMARKID":"6300000001932","LANDMARKCO":"306","LANDMARKNA":"中正紀念堂捷運站-出口1","LANDMARKAD":"6300005","ADDRESS":" ","TEL":" ","COUNTYNAME":"台北市","TOWNNAME":"中正區","MARKTYPE":"993","Class":"306"},"geometry":{"x":121.51777015583521,"y":25.033153602896657}},{"attributes":{"OBJECTID":8913,"LANDMARKID":"6300000001933","LANDMARKCO":"306","LANDMARKNA":"中正紀念堂捷運站-出口2","LANDMARKAD":"6300005","ADDRESS":" ","TEL":" ","COUNTYNAME":"台北市","TOWNNAME":"中正區","MARKTYPE":"993","Class":"306"},"geometry":{"x":121.51824481533417,"y":25.032463485104721}},{"attributes":{"OBJECTID":8914,"LANDMARKID":"6300000001934","LANDMARKCO":"306","LANDMARKNA":"中正紀念堂捷運站-出口3","LANDMARKAD":"6300005","ADDRESS":" ","TEL":" ","COUNTYNAME":"台北市","TOWNNAME":"中正區","MARKTYPE":"993","Class":"306"},"geometry":{"x":121.51894377289415,"y":25.032167593061001}},{"attributes":{"OBJECTID":8915,"LANDMARKID":"6300000001935","LANDMARKCO":"306","LANDMARKNA":"中正紀念堂捷運站-出口4","LANDMARKAD":"6300005","ADDRESS":" ","TEL":" ","COUNTYNAME":"台北市","TOWNNAME":"中正區","MARKTYPE":"993","Class":"306"},"geometry":{"x":121.51796764677117,"y":25.033412279506788}},{"attributes":{"OBJECTID":8916,"LANDMARKID":"6300000001936","LANDMARKCO":"306","LANDMARKNA":"台大醫院捷運站-出口1","LANDMARKAD":"6300005","ADDRESS":" ","TEL":" ","COUNTYNAME":"台北市","TOWNNAME":"中正區","MARKTYPE":"993","Class":"306"},"geometry":{"x":121.51568079425572,"y":25.04068038307329}},{"attributes":{"OBJECTID":8917,"LANDMARKID":"6300000001937","LANDMARKCO":"306","LANDMARKNA":"台大醫院捷運站-出口2","LANDMARKAD":"6300005","ADDRESS":" ","TEL":" ","COUNTYNAME":"台北市","TOWNNAME":"中正區","MARKTYPE":"993","Class":"306"},"geometry":{"x":121.51680864951435,"y":25.041174772886801}},{"attributes":{"OBJECTID":8918,"LANDMARKID":"6300000001938","LANDMARKCO":"306","LANDMARKNA":"台大醫院捷運站-出口4","LANDMARKAD":"6300005","ADDRESS":" ","TEL":" ","COUNTYNAME":"台北市","TOWNNAME":"中正區","MARKTYPE":"993","Class":"306"},"geometry":{"x":121.51635457175048,"y":25.042900215728778}},{"attributes":{"OBJECTID":8919,"LANDMARKID":"6300000001939","LANDMARKCO":"306","LANDMARKNA":"台大醫院捷運站-出口3","LANDMARKAD":"6300005","ADDRESS":" ","TEL":" ","COUNTYNAME":"台北市","TOWNNAME":"中正區","MARKTYPE":"993","Class":"306"},"geometry":{"x":121.51677620902498,"y":25.04309882316085}},{"attributes":{"OBJECTID":8920,"LANDMARKID":"6300000001940","LANDMARKCO":"306","LANDMARKNA":"台北捷運站-出口5","LANDMARKAD":"6300005","ADDRESS":" ","TEL":" ","COUNTYNAME":"台北市","TOWNNAME":"中正區","MARKTYPE":"993","Class":"306"},"geometry":{"x":121.51533712876784,"y":25.046955654429265}},{"attributes":{"OBJECTID":8921,"LANDMARKID":"6300000001941","LANDMARKCO":"306","LANDMARKNA":"台北捷運站-出口6","LANDMARKAD":"6300005","ADDRESS":" ","TEL":" ","COUNTYNAME":"台北市","TOWNNAME":"中正區","MARKTYPE":"993","Class":"306"},"geometry":{"x":121.51585312165318,"y":25.046395430198867}},{"attributes":{"OBJECTID":8922,"LANDMARKID":"6300000001942","LANDMARKCO":"306","LANDMARKNA":"台北捷運站-出口8","LANDMARKAD":"6300005","ADDRESS":" ","TEL":" ","COUNTYNAME":"台北市","TOWNNAME":"中正區","MARKTYPE":"993","Class":"306"},"geometry":{"x":121.51731571682772,"y":25.046025182530318}},{"attributes":{"OBJECTID":8923,"LANDMARKID":"6300000001943","LANDMARKCO":"306","LANDMARKNA":"台北捷運站-出口7","LANDMARKAD":"6300005","ADDRESS":" ","TEL":" ","COUNTYNAME":"台北市","TOWNNAME":"中正區","MARKTYPE":"993","Class":"306"},"geometry":{"x":121.51814287970818,"y":25.046252239899548}},{"attributes":{"OBJECTID":8924,"LANDMARKID":"6300000001944","LANDMARKCO":"306","LANDMARKNA":"台北捷運站-出口3","LANDMARKAD":"6300005","ADDRESS":" ","TEL":" ","COUNTYNAME":"台北市","TOWNNAME":"中正區","MARKTYPE":"993","Class":"306"},"geometry":{"x":121.51784680194834,"y":25.046496253313038}},{"attributes":{"OBJECTID":8925,"LANDMARKID":"6300000001945","LANDMARKCO":"306","LANDMARKNA":"台北捷運站-出口4","LANDMARKAD":"6300005","ADDRESS":" ","TEL":" ","COUNTYNAME":"台北市","TOWNNAME":"中正區","MARKTYPE":"993","Class":"306"},"geometry":{"x":121.51741077773278,"y":25.04658795864923}},{"attributes":{"OBJECTID":8926,"LANDMARKID":"6300000001946","LANDMARKCO":"306","LANDMARKNA":"台北捷運站-出口2","LANDMARKAD":"6300005","ADDRESS":" ","TEL":" ","COUNTYNAME":"台北市","TOWNNAME":"中正區","MARKTYPE":"993","Class":"306"},"geometry":{"x":121.51908586374671,"y":25.048075797474851}},{"attributes":{"OBJECTID":8927,"LANDMARKID":"6300000001947","LANDMARKCO":"306","LANDMARKNA":"台北捷運站-出口1","LANDMARKAD":"6300005","ADDRESS":" ","TEL":" ","COUNTYNAME":"台北市","TOWNNAME":"中正區","MARKTYPE":"993","Class":"306"},"geometry":{"x":121.51816843252914,"y":25.04825690877076}},{"attributes":{"OBJECTID":8928,"LANDMARKID":"6300000001948","LANDMARKCO":"306","LANDMARKNA":"公館捷運站-出口1","LANDMARKAD":"6300005","ADDRESS":" ","TEL":" ","COUNTYNAME":"台北市","TOWNNAME":"中正區","MARKTYPE":"993","Class":"306"},"geometry":{"x":121.53425403835182,"y":25.014137414413426}},{"attributes":{"OBJECTID":8929,"LANDMARKID":"6300000001949","LANDMARKCO":"306","LANDMARKNA":"公館捷運站-出口4","LANDMARKAD":"6300005","ADDRESS":" ","TEL":" ","COUNTYNAME":"台北市","TOWNNAME":"中正區","MARKTYPE":"993","Class":"306"},"geometry":{"x":121.53338374761383,"y":25.015295455370545}},{"attributes":{"OBJECTID":8930,"LANDMARKID":"6300000001950","LANDMARKCO":"306","LANDMARKNA":"台電大樓捷運站-出口1","LANDMARKAD":"6300005","ADDRESS":" ","TEL":" ","COUNTYNAME":"台北市","TOWNNAME":"中正區","MARKTYPE":"993","Class":"306"},"geometry":{"x":121.52846803014822,"y":25.019473752350471}},{"attributes":{"OBJECTID":8931,"LANDMARKID":"6300000001951","LANDMARKCO":"306","LANDMARKNA":"台電大樓捷運站-出口4","LANDMARKAD":"6300005","ADDRESS":" ","TEL":" ","COUNTYNAME":"台北市","TOWNNAME":"中正區","MARKTYPE":"993","Class":"306"},"geometry":{"x":121.52745620445877,"y":25.020898174153412}},{"attributes":{"OBJECTID":8932,"LANDMARKID":"6300000001952","LANDMARKCO":"306","LANDMARKNA":"台電大樓捷運站-出口5","LANDMARKAD":"6300005","ADDRESS":" ","TEL":" ","COUNTYNAME":"台北市","TOWNNAME":"中正區","MARKTYPE":"993","Class":"306"},"geometry":{"x":121.52760688638298,"y":25.020587739678199}},{"attributes":{"OBJECTID":8933,"LANDMARKID":"6300000001953","LANDMARKCO":"306","LANDMARKNA":"小南門捷運站-出口1","LANDMARKAD":"6300005","ADDRESS":" ","TEL":" ","COUNTYNAME":"台北市","TOWNNAME":"中正區","MARKTYPE":"993","Class":"306"},"geometry":{"x":121.50954463654263,"y":25.036720733429441}},{"attributes":{"OBJECTID":8934,"LANDMARKID":"6300000001954","LANDMARKCO":"306","LANDMARKNA":"小南門捷運站-出口2","LANDMARKAD":"6300005","ADDRESS":" ","TEL":" ","COUNTYNAME":"台北市","TOWNNAME":"中正區","MARKTYPE":"993","Class":"306"},"geometry":{"x":121.50968065368671,"y":25.035769964734566}},{"attributes":{"OBJECTID":8935,"LANDMARKID":"6300000001955","LANDMARKCO":"306","LANDMARKNA":"小南門捷運站-出口3","LANDMARKAD":"6300005","ADDRESS":" ","TEL":" ","COUNTYNAME":"台北市","TOWNNAME":"中正區","MARKTYPE":"993","Class":"306"},"geometry":{"x":121.51078629654324,"y":25.035385437903599}},{"attributes":{"OBJECTID":8936,"LANDMARKID":"6300000001956","LANDMARKCO":"306","LANDMARKNA":"小南門捷運站-出口4","LANDMARKAD":"6300005","ADDRESS":" ","TEL":" ","COUNTYNAME":"台北市","TOWNNAME":"中正區","MARKTYPE":"993","Class":"306"},"geometry":{"x":121.5117274809967,"y":25.035132174632764}},{"attributes":{"OBJECTID":8937,"LANDMARKID":"6300000002050","LANDMARKCO":"307","LANDMARKNA":"高鐵台北站-北一門","LANDMARKAD":"6300005","ADDRESS":" ","TEL":" ","COUNTYNAME":"台北市","TOWNNAME":"中正區","MARKTYPE":"993","Class":"307"},"geometry":{"x":121.51773951654421,"y":25.04823190863976}},{"attributes":{"OBJECTID":8938,"LANDMARKID":"6300000002051","LANDMARKCO":"307","LANDMARKNA":"高鐵台北站-北二門","LANDMARKAD":"6300005","ADDRESS":" ","TEL":" ","COUNTYNAME":"台北市","TOWNNAME":"中正區","MARKTYPE":"993","Class":"307"},"geometry":{"x":121.51728930032348,"y":25.04831205933888}},{"attributes":{"OBJECTID":8939,"LANDMARKID":"6300000002052","LANDMARKCO":"307","LANDMARKNA":"高鐵台北站-北三門","LANDMARKAD":"6300005","ADDRESS":" ","TEL":" ","COUNTYNAME":"台北市","TOWNNAME":"中正區","MARKTYPE":"993","Class":"307"},"geometry":{"x":121.51683597571026,"y":25.048395081397992}},{"attributes":{"OBJECTID":8940,"LANDMARKID":"6300000002053","LANDMARKCO":"307","LANDMARKNA":"高鐵台北站-西一門","LANDMARKAD":"6300005","ADDRESS":" ","TEL":" ","COUNTYNAME":"台北市","TOWNNAME":"中正區","MARKTYPE":"993","Class":"307"},"geometry":{"x":121.51643069864153,"y":25.048228533244835}},{"attributes":{"OBJECTID":8941,"LANDMARKID":"6300000002054","LANDMARKCO":"307","LANDMARKNA":"高鐵台北站-西二門","LANDMARKAD":"6300005","ADDRESS":" ","TEL":" ","COUNTYNAME":"台北市","TOWNNAME":"中正區","MARKTYPE":"993","Class":"307"},"geometry":{"x":121.51634946093922,"y":25.047875404834578}},{"attributes":{"OBJECTID":8942,"LANDMARKID":"6300000002055","LANDMARKCO":"307","LANDMARKNA":"高鐵台北站-西三門","LANDMARKAD":"6300005","ADDRESS":" ","TEL":" ","COUNTYNAME":"台北市","TOWNNAME":"中正區","MARKTYPE":"993","Class":"307"},"geometry":{"x":121.51628395028993,"y":25.047530725257186}},{"attributes":{"OBJECTID":8943,"LANDMARKID":"6300000002056","LANDMARKCO":"307","LANDMARKNA":"高鐵台北站-南三門","LANDMARKAD":"6300005","ADDRESS":" ","TEL":" ","COUNTYNAME":"台北市","TOWNNAME":"中正區","MARKTYPE":"993","Class":"307"},"geometry":{"x":121.51668463854179,"y":25.04719342952194}},{"attributes":{"OBJECTID":8944,"LANDMARKID":"6300000002057","LANDMARKCO":"307","LANDMARKNA":"高鐵台北站-南二門","LANDMARKAD":"6300005","ADDRESS":" ","TEL":" ","COUNTYNAME":"台北市","TOWNNAME":"中正區","MARKTYPE":"993","Class":"307"},"geometry":{"x":121.51701395919724,"y":25.047134091421832}},{"attributes":{"OBJECTID":8945,"LANDMARKID":"6300000002058","LANDMARKCO":"307","LANDMARKNA":"高鐵台北站-南一門","LANDMARKAD":"6300005","ADDRESS":" ","TEL":" ","COUNTYNAME":"台北市","TOWNNAME":"中正區","MARKTYPE":"993","Class":"307"},"geometry":{"x":121.51752250277897,"y":25.047039274515939}},{"attributes":{"OBJECTID":8946,"LANDMARKID":"6300000002059","LANDMARKCO":"307","LANDMARKNA":"高鐵台北站-東三門","LANDMARKAD":"6300005","ADDRESS":" ","TEL":" ","COUNTYNAME":"台北市","TOWNNAME":"中正區","MARKTYPE":"993","Class":"307"},"geometry":{"x":121.51792681019398,"y":25.04735587986443}},{"attributes":{"OBJECTID":8947,"LANDMARKID":"6300000002060","LANDMARKCO":"307","LANDMARKNA":"高鐵台北站-東二門","LANDMARKAD":"6300005","ADDRESS":" ","TEL":" ","COUNTYNAME":"台北市","TOWNNAME":"中正區","MARKTYPE":"993","Class":"307"},"geometry":{"x":121.51796658598875,"y":25.04761801974232}},{"attributes":{"OBJECTID":8948,"LANDMARKID":"6300000002061","LANDMARKCO":"307","LANDMARKNA":"高鐵台北站-東一門","LANDMARKAD":"6300005","ADDRESS":" ","TEL":" ","COUNTYNAME":"台北市","TOWNNAME":"中正區","MARKTYPE":"993","Class":"307"},"geometry":{"x":121.51803568156728,"y":25.047891364132379}},{"attributes":{"OBJECTID":8949,"LANDMARKID":"6300000000845","LANDMARKCO":"302","LANDMARKNA":"統聯客運-台北總站-自營站","LANDMARKAD":"6300005","ADDRESS":"台北市中正區北平西路55號","TEL":"連絡電話:02-255","COUNTYNAME":"台北市","TOWNNAME":"中正區","MARKTYPE":"993","Class":"302"},"geometry":{"x":121.51308310220163,"y":25.048505094111007}},{"attributes":{"OBJECTID":8950,"LANDMARKID":"6300000000846","LANDMARKCO":"302","LANDMARKNA":"和欣客運-台北總站","LANDMARKAD":"6300005","ADDRESS":"臺北市中正區北平西路55號","TEL":"(02)2559-5511","COUNTYNAME":"台北市","TOWNNAME":"中正區","MARKTYPE":"993","Class":"302"},"geometry":{"x":121.51308310220163,"y":25.048505094111007}},{"attributes":{"OBJECTID":8951,"LANDMARKID":"6300000000847","LANDMARKCO":"302","LANDMARKNA":"國光汽車客運台北西站","LANDMARKAD":"6300005","ADDRESS":"台北市中山區忠孝西路一段173號","TEL":" ","COUNTYNAME":"台北市","TOWNNAME":"中正區","MARKTYPE":"993","Class":"302"},"geometry":{"x":121.51363956316821,"y":25.047750254580496}},{"attributes":{"OBJECTID":8952,"LANDMARKID":"6300000000848","LANDMARKCO":"302","LANDMARKNA":"國光汽車客運台北東站","LANDMARKAD":"6300005","ADDRESS":"台北市中山區忠孝西路一段","TEL":" ","COUNTYNAME":"台北市","TOWNNAME":"中正區","MARKTYPE":"993","Class":"302"},"geometry":{"x":121.51477096488613,"y":25.04714260561418}},{"attributes":{"OBJECTID":8953,"LANDMARKID":"6300000001445","LANDMARKCO":"303","LANDMARKNA":"台北市立和平醫院停車場","LANDMARKAD":"6300005","ADDRESS":" ","TEL":" ","COUNTYNAME":"台北市","TOWNNAME":"中正區","MARKTYPE":"993","Class":"303"},"geometry":{"x":121.50725385248209,"y":25.035693174671508}},{"attributes":{"OBJECTID":8954,"LANDMARKID":"6300000001446","LANDMARKCO":"303","LANDMARKNA":"廣州保管場","LANDMARKAD":"6300005","ADDRESS":" ","TEL":" ","COUNTYNAME":"台北市","TOWNNAME":"中正區","MARKTYPE":"993","Class":"303"},"geometry":{"x":121.51027121459856,"y":25.035159063510747}},{"attributes":{"OBJECTID":8955,"LANDMARKID":"6300000001447","LANDMARKCO":"303","LANDMARKNA":"府前廣場停車場","LANDMARKAD":"6300005","ADDRESS":" ","TEL":" ","COUNTYNAME":"台北市","TOWNNAME":"中正區","MARKTYPE":"993","Class":"303"},"geometry":{"x":121.51349919144442,"y":25.040375865166688}},{"attributes":{"OBJECTID":8956,"LANDMARKID":"6300000001448","LANDMARKCO":"303","LANDMARKNA":"百利停車塔","LANDMARKAD":"6300005","ADDRESS":" ","TEL":" ","COUNTYNAME":"台北市","TOWNNAME":"中正區","MARKTYPE":"993","Class":"303"},"geometry":{"x":121.51385758457354,"y":25.04530462476546}},{"attributes":{"OBJECTID":8957,"LANDMARKID":"6300000001449","LANDMARKCO":"303","LANDMARKNA":"台北車站西地下停車場","LANDMARKAD":"6300005","ADDRESS":" ","TEL":"02-23815226#2851","COUNTYNAME":"台北市","TOWNNAME":"中正區","MARKTYPE":"993","Class":"303"},"geometry":{"x":121.51566767285338,"y":25.047550821737236}},{"attributes":{"OBJECTID":8958,"LANDMARKID":"6300000001450","LANDMARKCO":"303","LANDMARKNA":"信陽停車場","LANDMARKAD":"6300005","ADDRESS":" ","TEL":"02-23121101","COUNTYNAME":"台北市","TOWNNAME":"中正區","MARKTYPE":"993","Class":"303"},"geometry":{"x":121.51581041789747,"y":25.044783440395978}},{"attributes":{"OBJECTID":8959,"LANDMARKID":"6300000001451","LANDMARKCO":"303","LANDMARKNA":"新光三越地下停車場","LANDMARKAD":"6300005","ADDRESS":" ","TEL":" ","COUNTYNAME":"台北市","TOWNNAME":"中正區","MARKTYPE":"993","Class":"303"},"geometry":{"x":121.51553383932293,"y":25.045656959133325}},{"attributes":{"OBJECTID":8960,"LANDMARKID":"6300000001452","LANDMARKCO":"303","LANDMARKNA":"台開信託仰德大樓停車場","LANDMARKAD":"6300005","ADDRESS":" ","TEL":" ","COUNTYNAME":"台北市","TOWNNAME":"中正區","MARKTYPE":"993","Class":"303"},"geometry":{"x":121.51616991215469,"y":25.033261671799675}},{"attributes":{"OBJECTID":8961,"LANDMARKID":"6300000001453","LANDMARKCO":"303","LANDMARKNA":"中興嘟嘟房停車場-台北車站西站","LANDMARKAD":"6300005","ADDRESS":"台北市中正區北平西路3號","TEL":"02-23707251","COUNTYNAME":"台北市","TOWNNAME":"中正區","MARKTYPE":"993","Class":"303"},"geometry":{"x":121.51543760675443,"y":25.048147352137729}},{"attributes":{"OBJECTID":8962,"LANDMARKID":"6300000001454","LANDMARKCO":"303","LANDMARKNA":"仰德立體停車場","LANDMARKAD":"6300005","ADDRESS":" ","TEL":" ","COUNTYNAME":"台北市","TOWNNAME":"中正區","MARKTYPE":"993","Class":"303"},"geometry":{"x":121.51628578702369,"y":25.032905719030737}},{"attributes":{"OBJECTID":8963,"LANDMARKID":"6300000001455","LANDMARKCO":"303","LANDMARKNA":"中興嘟嘟房停車場-台北車站東站","LANDMARKAD":"6300005","ADDRESS":"台北市中正區北平西路3號","TEL":"02-23700884","COUNTYNAME":"台北市","TOWNNAME":"中正區","MARKTYPE":"993","Class":"303"},"geometry":{"x":121.51829981203272,"y":25.047415410204792}},{"attributes":{"OBJECTID":8964,"LANDMARKID":"6300000001456","LANDMARKCO":"303","LANDMARKNA":"中正區行政中心停車場","LANDMARKAD":"6300005","ADDRESS":" ","TEL":" ","COUNTYNAME":"台北市","TOWNNAME":"中正區","MARKTYPE":"993","Class":"303"},"geometry":{"x":121.51787424787852,"y":25.032304312191407}},{"attributes":{"OBJECTID":8965,"LANDMARKID":"6300000001457","LANDMARKCO":"303","LANDMARKNA":"南門市場停車場","LANDMARKAD":"6300005","ADDRESS":" ","TEL":" ","COUNTYNAME":"台北市","TOWNNAME":"中正區","MARKTYPE":"993","Class":"303"},"geometry":{"x":121.51846079305624,"y":25.032102579065874}},{"attributes":{"OBJECTID":8966,"LANDMARKID":"6300000001458","LANDMARKCO":"303","LANDMARKNA":"國立中正文化中心地下停車場","LANDMARKAD":"6300005","ADDRESS":" ","TEL":"02-15662522","COUNTYNAME":"台北市","TOWNNAME":"中正區","MARKTYPE":"993","Class":"303"},"geometry":{"x":121.51751234581987,"y":25.035529445363505}},{"attributes":{"OBJECTID":8967,"LANDMARKID":"6300000001459","LANDMARKCO":"303","LANDMARKNA":"聯通停車場","LANDMARKAD":"6300005","ADDRESS":" ","TEL":" ","COUNTYNAME":"台北市","TOWNNAME":"中正區","MARKTYPE":"993","Class":"303"},"geometry":{"x":121.51565970209269,"y":25.04758238181082}},{"attributes":{"OBJECTID":8968,"LANDMARKID":"6300000001460","LANDMARKCO":"303","LANDMARKNA":"台北市立婦幼醫院停車場","LANDMARKAD":"6300005","ADDRESS":" ","TEL":" ","COUNTYNAME":"台北市","TOWNNAME":"中正區","MARKTYPE":"993","Class":"303"},"geometry":{"x":121.519513033214,"y":25.029009289166137}},{"attributes":{"OBJECTID":8969,"LANDMARKID":"6300000001461","LANDMARKCO":"303","LANDMARKNA":"台北車站東地下停車場","LANDMARKAD":"6300005","ADDRESS":" ","TEL":"02-23815226#2851","COUNTYNAME":"台北市","TOWNNAME":"中正區","MARKTYPE":"993","Class":"303"},"geometry":{"x":121.51937524526797,"y":25.04779955762098}},{"attributes":{"OBJECTID":8970,"LANDMARKID":"6300000001462","LANDMARKCO":"303","LANDMARKNA":"台灣民主紀念館地下停車場入口","LANDMARKAD":"6300005","ADDRESS":" ","TEL":" ","COUNTYNAME":"台北市","TOWNNAME":"中正區","MARKTYPE":"993","Class":"303"},"geometry":{"x":121.52004500137552,"y":25.037069018555037}},{"attributes":{"OBJECTID":8971,"LANDMARKID":"6300000001463","LANDMARKCO":"303","LANDMARKNA":"中潮停車場","LANDMARKAD":"6300005","ADDRESS":" ","TEL":" ","COUNTYNAME":"台北市","TOWNNAME":"中正區","MARKTYPE":"993","Class":"303"},"geometry":{"x":121.52099828747744,"y":25.029871049505388}},{"attributes":{"OBJECTID":8972,"LANDMARKID":"6300000001464","LANDMARKCO":"303","LANDMARKNA":"友星大飯店附設停車場","LANDMARKAD":"6300005","ADDRESS":" ","TEL":" ","COUNTYNAME":"台北市","TOWNNAME":"中正區","MARKTYPE":"993","Class":"303"},"geometry":{"x":121.52133401298998,"y":25.027009289663646}},{"attributes":{"OBJECTID":8973,"LANDMARKID":"6300000001465","LANDMARKCO":"303","LANDMARKNA":"立法院青島第二會館停車場","LANDMARKAD":"6300005","ADDRESS":" ","TEL":"02-23585858","COUNTYNAME":"台北市","TOWNNAME":"中正區","MARKTYPE":"993","Class":"303"},"geometry":{"x":121.52257207840078,"y":25.04357286829217}},{"attributes":{"OBJECTID":8974,"LANDMARKID":"6300000001466","LANDMARKCO":"303","LANDMARKNA":"台北市青少年育樂中心地下停車場","LANDMARKAD":"6300005","ADDRESS":" ","TEL":" ","COUNTYNAME":"台北市","TOWNNAME":"中正區","MARKTYPE":"993","Class":"303"},"geometry":{"x":121.5229066925136,"y":25.039145231325737}},{"attributes":{"OBJECTID":8975,"LANDMARKID":"6300000001467","LANDMARKCO":"303","LANDMARKNA":"六軒濟南停車場","LANDMARKAD":"6300005","ADDRESS":" ","TEL":" ","COUNTYNAME":"台北市","TOWNNAME":"中正區","MARKTYPE":"993","Class":"303"},"geometry":{"x":121.52721532241927,"y":25.041176709803107}},{"attributes":{"OBJECTID":8976,"LANDMARKID":"6300000001468","LANDMARKCO":"303","LANDMARKNA":"臨沂69巷停車場","LANDMARKAD":"6300005","ADDRESS":" ","TEL":" ","COUNTYNAME":"台北市","TOWNNAME":"中正區","MARKTYPE":"993","Class":"303"},"geometry":{"x":121.52850921987142,"y":25.035681807815681}},{"attributes":{"OBJECTID":8977,"LANDMARKID":"6300000001469","LANDMARKCO":"303","LANDMARKNA":"華山藝文園區停車場","LANDMARKAD":"6300005","ADDRESS":" ","TEL":"02-23279534","COUNTYNAME":"台北市","TOWNNAME":"中正區","MARKTYPE":"993","Class":"303"},"geometry":{"x":121.52865193157389,"y":25.044373349771153}},{"attributes":{"OBJECTID":8978,"LANDMARKID":"6300000001470","LANDMARKCO":"303","LANDMARKNA":"臨沂63巷停車場","LANDMARKAD":"6300005","ADDRESS":" ","TEL":" ","COUNTYNAME":"台北市","TOWNNAME":"中正區","MARKTYPE":"993","Class":"303"},"geometry":{"x":121.52992586710366,"y":25.036015751351847}},{"attributes":{"OBJECTID":8979,"LANDMARKID":"6300000001471","LANDMARKCO":"303","LANDMARKNA":"自來水園區停車場","LANDMARKAD":"6300005","ADDRESS":" ","TEL":" ","COUNTYNAME":"台北市","TOWNNAME":"中正區","MARKTYPE":"993","Class":"303"},"geometry":{"x":121.53107443700394,"y":25.01380437714263}},{"attributes":{"OBJECTID":8980,"LANDMARKID":"6300000001472","LANDMARKCO":"303","LANDMARKNA":"自來水園區公館停車場","LANDMARKAD":"6300005","ADDRESS":"台北市中正區汀州路三段230巷15號","TEL":" ","COUNTYNAME":"台北市","TOWNNAME":"中正區","MARKTYPE":"993","Class":"303"},"geometry":{"x":121.53553000665785,"y":25.011102204664571}},{"attributes":{"OBJECTID":8981,"LANDMARKID":"6300000001473","LANDMARKCO":"303","LANDMARKNA":"臨沂65巷停車場","LANDMARKAD":"6300005","ADDRESS":" ","TEL":" ","COUNTYNAME":"台北市","TOWNNAME":"中正區","MARKTYPE":"993","Class":"303"},"geometry":{"x":121.52885179491928,"y":25.036545691378585}},{"attributes":{"OBJECTID":8982,"LANDMARKID":"6300000001474","LANDMARKCO":"303","LANDMARKNA":"中興嘟嘟房停車場-忠孝華山站","LANDMARKAD":"6300005","ADDRESS":"台北市中正區八德路1段1號旁(華山藝文園區旁)","TEL":"(02)2327-9534","COUNTYNAME":"台北市","TOWNNAME":"中正區","MARKTYPE":"993","Class":"303"},"geometry":{"x":121.52965587022045,"y":25.044112955887464}},{"attributes":{"OBJECTID":8983,"LANDMARKID":"6300000001475","LANDMARKCO":"303","LANDMARKNA":"中興嘟嘟房停車場-三元站","LANDMARKAD":"6300005","ADDRESS":"台北市中正區三元街268號旁","TEL":" ","COUNTYNAME":"台北市","TOWNNAME":"中正區","MARKTYPE":"993","Class":"303"},"geometry":{"x":121.51396937241432,"y":25.027350411840771}},{"attributes":{"OBJECTID":8984,"LANDMARKID":"6300000001476","LANDMARKCO":"303","LANDMARKNA":"中興嘟嘟房停車場-中正紀念堂站","LANDMARKAD":"6300005","ADDRESS":"台北市中正區中山南路21-1號B1","TEL":"(02)3393-9530.31","COUNTYNAME":"台北市","TOWNNAME":"中正區","MARKTYPE":"993","Class":"303"},"geometry":{"x":121.52163635167973,"y":25.034671588264288}},{"attributes":{"OBJECTID":8985,"LANDMARKID":"6300000001477","LANDMARKCO":"303","LANDMARKNA":"中興嘟嘟房停車場-牯嶺站","LANDMARKAD":"6300005","ADDRESS":"台北市中正區牯嶺街78號旁","TEL":" ","COUNTYNAME":"台北市","TOWNNAME":"中正區","MARKTYPE":"993","Class":"303"},"geometry":{"x":121.51867465167736,"y":25.026889881004195}},{"attributes":{"OBJECTID":8986,"LANDMARKID":"6300000001478","LANDMARKCO":"303","LANDMARKNA":"中興嘟嘟房停車場-博客加盟-南昌站","LANDMARKAD":"6300005","ADDRESS":"台北市南昌路2段100號旁","TEL":"(02)2368-7914","COUNTYNAME":"台北市","TOWNNAME":"中正區","MARKTYPE":"993","Class":"303"},"geometry":{"x":121.52186492508589,"y":25.026111408580306}},{"attributes":{"OBJECTID":8987,"LANDMARKID":"6300000001479","LANDMARKCO":"303","LANDMARKNA":"古亭國中地下停車場","LANDMARKAD":"6300005","ADDRESS":"台北市中正區中華路二段606巷1號B1","TEL":" ","COUNTYNAME":"台北市","TOWNNAME":"中正區","MARKTYPE":"993","Class":"303"},"geometry":{"x":121.51100442174516,"y":25.024626261773562}},{"attributes":{"OBJECTID":8988,"LANDMARKID":"6300000001480","LANDMARKCO":"303","LANDMARKNA":"一銀大樓地面停車場","LANDMARKAD":"6300005","ADDRESS":"台北市中正區重慶南路一段30號","TEL":" ","COUNTYNAME":"台北市","TOWNNAME":"中正區","MARKTYPE":"993","Class":"303"},"geometry":{"x":121.51312043454104,"y":25.045486686312159}},{"attributes":{"OBJECTID":8989,"LANDMARKID":"6300000001481","LANDMARKCO":"303","LANDMARKNA":"三軍總醫院附設停車場","LANDMARKAD":"6300005","ADDRESS":"台北市中正區汀州路三段40號","TEL":" ","COUNTYNAME":"台北市","TOWNNAME":"中正區","MARKTYPE":"993","Class":"303"},"geometry":{"x":121.5293633437318,"y":25.017004251572089}},{"attributes":{"OBJECTID":8990,"LANDMARKID":"6300000001482","LANDMARKCO":"303","LANDMARKNA":"中山堂地下停車場","LANDMARKAD":"6300005","ADDRESS":"台北市中正區延平南路98之1號B1","TEL":" ","COUNTYNAME":"台北市","TOWNNAME":"中正區","MARKTYPE":"993","Class":"303"},"geometry":{"x":121.5098318712861,"y":25.04308882141434}},{"attributes":{"OBJECTID":8991,"LANDMARKID":"6300000001483","LANDMARKCO":"303","LANDMARKNA":"中央信託局杭州南路停車場","LANDMARKAD":"6300005","ADDRESS":"台北市中正區杭州南路一段77巷19號","TEL":" ","COUNTYNAME":"台北市","TOWNNAME":"中正區","MARKTYPE":"993","Class":"303"},"geometry":{"x":121.52696203534101,"y":25.03893185174698}},{"attributes":{"OBJECTID":8992,"LANDMARKID":"6300000001484","LANDMARKCO":"303","LANDMARKNA":"中央信託局廈門停車場","LANDMARKAD":"6300005","ADDRESS":"台北市中正區廈門街142號","TEL":" ","COUNTYNAME":"台北市","TOWNNAME":"中正區","MARKTYPE":"993","Class":"303"},"geometry":{"x":121.51734550694819,"y":25.022432577562501}},{"attributes":{"OBJECTID":8993,"LANDMARKID":"6300000001485","LANDMARKCO":"303","LANDMARKNA":"中興紡織大樓停車場","LANDMARKAD":"6300005","ADDRESS":"台北市中正區忠孝東路二段123號","TEL":" ","COUNTYNAME":"台北市","TOWNNAME":"中正區","MARKTYPE":"993","Class":"303"},"geometry":{"x":121.53235252532032,"y":25.042738802273139}},{"attributes":{"OBJECTID":8994,"LANDMARKID":"6300000001486","LANDMARKCO":"303","LANDMARKNA":"仁愛路二段停車場","LANDMARKAD":"6300005","ADDRESS":"台北市中正區仁愛路二段84號","TEL":" ","COUNTYNAME":"台北市","TOWNNAME":"中正區","MARKTYPE":"993","Class":"303"},"geometry":{"x":121.53073060202956,"y":25.037974385858643}},{"attributes":{"OBJECTID":8995,"LANDMARKID":"6300000001487","LANDMARKCO":"303","LANDMARKNA":"北門橋下停車場","LANDMARKAD":"6300005","ADDRESS":"台北市中正區","TEL":" ","COUNTYNAME":"台北市","TOWNNAME":"中正區","MARKTYPE":"993","Class":"303"},"geometry":{"x":121.51213528591944,"y":25.04753332909349}},{"attributes":{"OBJECTID":8996,"LANDMARKID":"6300000001488","LANDMARKCO":"303","LANDMARKNA":"台大醫院訪客停車場","LANDMARKAD":"6300005","ADDRESS":"台北市中正區中山南路7號B1","TEL":" ","COUNTYNAME":"台北市","TOWNNAME":"中正區","MARKTYPE":"993","Class":"303"},"geometry":{"x":121.5188747465873,"y":25.041564968902851}},{"attributes":{"OBJECTID":8997,"LANDMARKID":"6300000001489","LANDMARKCO":"303","LANDMARKNA":"台北希爾頓大飯店停車場","LANDMARKAD":"6300005","ADDRESS":"台北市中正區忠孝西路一段38號","TEL":" ","COUNTYNAME":"台北市","TOWNNAME":"中正區","MARKTYPE":"993","Class":"303"},"geometry":{"x":121.51643542072544,"y":25.04623127435671}},{"attributes":{"OBJECTID":8998,"LANDMARKID":"6300000001490","LANDMARKCO":"303","LANDMARKNA":"台北站地下停車場","LANDMARKAD":"6300005","ADDRESS":"台北市中正區北平西路3號B1","TEL":" ","COUNTYNAME":"台北市","TOWNNAME":"中正區","MARKTYPE":"993","Class":"303"},"geometry":{"x":121.51708670965104,"y":25.047175014420773}},{"attributes":{"OBJECTID":8999,"LANDMARKID":"6300000001491","LANDMARKCO":"303","LANDMARKNA":"仰德大樓停車場","LANDMARKAD":"6300005","ADDRESS":"台北市中正區南昌路一段五號","TEL":" ","COUNTYNAME":"台北市","TOWNNAME":"中正區","MARKTYPE":"993","Class":"303"},"geometry":{"x":121.516633088859,"y":25.032221948503935}},{"attributes":{"OBJECTID":9000,"LANDMARKID":"6300000001492","LANDMARKCO":"303","LANDMARKNA":"合興臨沂停車場","LANDMARKAD":"6300005","ADDRESS":"台北市中正區臨沂街33巷42號","TEL":" ","COUNTYNAME":"台北市","TOWNNAME":"中正區","MARKTYPE":"993","Class":"303"},"geometry":{"x":121.53199430308297,"y":25.039715720610605}}]}