{"displayFieldName":"COUNTYNAME","fieldAliases":{"OBJECTID":"OBJECTID","LANDMARKID":"LANDMARKID","LANDMARKCO":"LANDMARKCO","LANDMARKNA":"LANDMARKNA","LANDMARKAD":"LANDMARKAD","ADDRESS":"ADDRESS","TEL":"TEL","COUNTYNAME":"COUNTYNAME","TOWNNAME":"TOWNNAME","MARKTYPE":"MARKTYPE","Class":"Class"},"geometryType":"esriGeometryPoint","spatialReference":{"wkid":4326},"fields":[{"name":"OBJECTID","type":"esriFieldTypeOID","alias":"OBJECTID"},{"name":"LANDMARKID","type":"esriFieldTypeString","alias":"LANDMARKID","length":15},{"name":"LANDMARKCO","type":"esriFieldTypeString","alias":"LANDMARKCO","length":15},{"name":"LANDMARKNA","type":"esriFieldTypeString","alias":"LANDMARKNA","length":50},{"name":"LANDMARKAD","type":"esriFieldTypeString","alias":"LANDMARKAD","length":15},{"name":"ADDRESS","type":"esriFieldTypeString","alias":"ADDRESS","length":56},{"name":"TEL","type":"esriFieldTypeString","alias":"TEL","length":36},{"name":"COUNTYNAME","type":"esriFieldTypeString","alias":"COUNTYNAME","length":15},{"name":"TOWNNAME","type":"esriFieldTypeString","alias":"TOWNNAME","length":13},{"name":"MARKTYPE","type":"esriFieldTypeString","alias":"MARKTYPE","length":12},{"name":"Class","type":"esriFieldTypeString","alias":"Class","length":5}],"features":[{"attributes":{"OBJECTID":5601,"LANDMARKID":"1000100002041","LANDMARKCO":"405","LANDMARKNA":"中油加油站-金樹林站","LANDMARKAD":"1000107","ADDRESS":"新北市樹林區中華路365號","TEL":"02-86866016","COUNTYNAME":"新北市","TOWNNAME":"樹林區","MARKTYPE":"994","Class":"4"},"geometry":{"x":121.41420298763295,"y":24.980042362688376}},{"attributes":{"OBJECTID":5602,"LANDMARKID":"1000100002042","LANDMARKCO":"405","LANDMARKNA":"中油加油站-永盛站","LANDMARKAD":"1000107","ADDRESS":"新北市樹林區中華路1-1號","TEL":"02-86858070","COUNTYNAME":"新北市","TOWNNAME":"樹林區","MARKTYPE":"994","Class":"4"},"geometry":{"x":121.42526381075878,"y":24.984091820510351}},{"attributes":{"OBJECTID":5603,"LANDMARKID":"1000100002043","LANDMARKCO":"405","LANDMARKNA":"中油加油站-永錡保安站","LANDMARKAD":"1000107","ADDRESS":"新北市樹林區大安路179號","TEL":"02-26860590","COUNTYNAME":"新北市","TOWNNAME":"樹林區","MARKTYPE":"994","Class":"4"},"geometry":{"x":121.42113580525954,"y":24.996062405137785}},{"attributes":{"OBJECTID":5604,"LANDMARKID":"1000100002044","LANDMARKCO":"405","LANDMARKNA":"中油加油站-樹新站","LANDMARKAD":"1000107","ADDRESS":"新北市樹林區中正路106號","TEL":"02-26820825","COUNTYNAME":"新北市","TOWNNAME":"樹林區","MARKTYPE":"994","Class":"4"},"geometry":{"x":121.42521474179966,"y":25.001420989208494}},{"attributes":{"OBJECTID":5605,"LANDMARKID":"1000100002045","LANDMARKCO":"405","LANDMARKNA":"中油加油站-浮洲站","LANDMARKAD":"1000107","ADDRESS":"新北市樹林區中正路105號","TEL":"02-26828826","COUNTYNAME":"新北市","TOWNNAME":"樹林區","MARKTYPE":"994","Class":"4"},"geometry":{"x":121.42498975769345,"y":25.001015396534296}},{"attributes":{"OBJECTID":5606,"LANDMARKID":"1000100002046","LANDMARKCO":"405","LANDMARKNA":"中油加油站-彭厝站","LANDMARKAD":"1000107","ADDRESS":"新北市樹林區八德街395號","TEL":"02-86853033","COUNTYNAME":"新北市","TOWNNAME":"樹林區","MARKTYPE":"994","Class":"4"},"geometry":{"x":121.41554262019449,"y":24.971754088878395}},{"attributes":{"OBJECTID":5607,"LANDMARKID":"1000100002047","LANDMARKCO":"405","LANDMARKNA":"中油加油站-永錡大安站","LANDMARKAD":"1000107","ADDRESS":"新北市樹林區大安路576號","TEL":"02-86751897","COUNTYNAME":"新北市","TOWNNAME":"樹林區","MARKTYPE":"994","Class":"4"},"geometry":{"x":121.41170034950852,"y":24.983648272839766}},{"attributes":{"OBJECTID":5608,"LANDMARKID":"1000100002048","LANDMARKCO":"405","LANDMARKNA":"山隆加油站-樹林站(中油)","LANDMARKAD":"1000107","ADDRESS":"新北市樹林區中華路66號","TEL":"(02)8686-5677","COUNTYNAME":"新北市","TOWNNAME":"樹林區","MARKTYPE":"994","Class":"4"},"geometry":{"x":121.42021880130885,"y":24.9818092625388}},{"attributes":{"OBJECTID":5609,"LANDMARKID":"1000100002049","LANDMARKCO":"405","LANDMARKNA":"中油加油站-中信站","LANDMARKAD":"1000107","ADDRESS":"新北市樹林區大安路1-10號","TEL":"02-26758205","COUNTYNAME":"新北市","TOWNNAME":"樹林區","MARKTYPE":"994","Class":"4"},"geometry":{"x":121.4266329956304,"y":25.001999173582455}},{"attributes":{"OBJECTID":5610,"LANDMARKID":"1000100002050","LANDMARKCO":"405","LANDMARKNA":"中油加油站-柑園站","LANDMARKAD":"1000107","ADDRESS":"新北市樹林區佳園路二段47號","TEL":"02-26803001","COUNTYNAME":"新北市","TOWNNAME":"樹林區","MARKTYPE":"994","Class":"4"},"geometry":{"x":121.39286854322705,"y":24.962791034139681}},{"attributes":{"OBJECTID":5611,"LANDMARKID":"1000100002051","LANDMARKCO":"405","LANDMARKNA":"台灣優力加油站-保安站(中油)","LANDMARKAD":"1000107","ADDRESS":"新北市樹林區保安街2段2號","TEL":"02-26875020","COUNTYNAME":"新北市","TOWNNAME":"樹林區","MARKTYPE":"994","Class":"4"},"geometry":{"x":121.40845835133706,"y":25.001579504023837}},{"attributes":{"OBJECTID":5612,"LANDMARKID":"1000100002052","LANDMARKCO":"405","LANDMARKNA":"中油加油站-中華保安站","LANDMARKAD":"1000107","ADDRESS":"新北市樹林區保安街二段2號","TEL":"02-2687-5020","COUNTYNAME":"新北市","TOWNNAME":"樹林區","MARKTYPE":"994","Class":"4"},"geometry":{"x":121.40845390512813,"y":25.001579498175847}},{"attributes":{"OBJECTID":5613,"LANDMARKID":"1000100002053","LANDMARKCO":"405","LANDMARKNA":"中油加油站-樹林站(中油直營)","LANDMARKAD":"1000107","ADDRESS":"新北市樹林區樹新路207號","TEL":"02-26812405","COUNTYNAME":"新北市","TOWNNAME":"樹林區","MARKTYPE":"994","Class":"4"},"geometry":{"x":121.43012918505833,"y":24.999533610759521}},{"attributes":{"OBJECTID":5614,"LANDMARKID":"1000100002054","LANDMARKCO":"405","LANDMARKNA":"中油加油站-昇陽站","LANDMARKAD":"1000107","ADDRESS":"新北市樹林區中華路190號","TEL":"02-26825914","COUNTYNAME":"新北市","TOWNNAME":"樹林區","MARKTYPE":"994","Class":"4"},"geometry":{"x":121.41198105269854,"y":24.980696763233158}},{"attributes":{"OBJECTID":5615,"LANDMARKID":"1000100002055","LANDMARKCO":"405","LANDMARKNA":"中油加油站-上順柑園站","LANDMARKAD":"1000107","ADDRESS":"新北市樹林區柑園街1段1-2號","TEL":"910350763","COUNTYNAME":"新北市","TOWNNAME":"樹林區","MARKTYPE":"994","Class":"4"},"geometry":{"x":121.40008931954162,"y":24.961767484958283}},{"attributes":{"OBJECTID":5616,"LANDMARKID":"1000100002056","LANDMARKCO":"405","LANDMARKNA":"中油加油站-山隆樹林","LANDMARKAD":"1000107","ADDRESS":"新北市樹林區樹林鎮中華路66號","TEL":"02-86865677","COUNTYNAME":"新北市","TOWNNAME":"樹林區","MARKTYPE":"994","Class":"4"},"geometry":{"x":121.42022012717919,"y":24.981863345220315}},{"attributes":{"OBJECTID":5617,"LANDMARKID":"1000100002057","LANDMARKCO":"405","LANDMARKNA":"中油加油站-山佳站","LANDMARKAD":"1000107","ADDRESS":"新北市樹林區樹林鎮中山路三段30號","TEL":"02-26805524","COUNTYNAME":"新北市","TOWNNAME":"樹林區","MARKTYPE":"994","Class":"4"},"geometry":{"x":121.39518017760187,"y":24.972804659514715}},{"attributes":{"OBJECTID":5618,"LANDMARKID":"1000100002058","LANDMARKCO":"405","LANDMARKNA":"中油加油站-和信站","LANDMARKAD":"1000107","ADDRESS":"新北市樹林區中正路280-2號","TEL":"02-26762168","COUNTYNAME":"新北市","TOWNNAME":"樹林區","MARKTYPE":"994","Class":"4"},"geometry":{"x":121.41615715994475,"y":25.008715013063348}},{"attributes":{"OBJECTID":5619,"LANDMARKID":"1000100002059","LANDMARKCO":"405","LANDMARKNA":"中油加油站-三多站(中油直營)","LANDMARKAD":"1000107","ADDRESS":"新北市樹林區中正路433號","TEL":"02-26886405","COUNTYNAME":"新北市","TOWNNAME":"樹林區","MARKTYPE":"994","Class":"4"},"geometry":{"x":121.41534483713822,"y":25.008702132707658}},{"attributes":{"OBJECTID":5620,"LANDMARKID":"1000100002060","LANDMARKCO":"405","LANDMARKNA":"中油加油站-中華北大站","LANDMARKAD":"1000107","ADDRESS":"新北市樹林區佳園路三段227號","TEL":"02-26685258","COUNTYNAME":"新北市","TOWNNAME":"樹林區","MARKTYPE":"994","Class":"4"},"geometry":{"x":121.38604125953277,"y":24.950529148421378}},{"attributes":{"OBJECTID":5621,"LANDMARKID":"1000100001747","LANDMARKCO":"402","LANDMARKNA":"亞太行動寬頻電信-樹林中山加盟服務中心","LANDMARKAD":"1000107","ADDRESS":"新北市樹林區中山路1段180號","TEL":"02-26851585","COUNTYNAME":"新北市","TOWNNAME":"樹林區","MARKTYPE":"994","Class":"4"},"geometry":{"x":121.42176377646724,"y":24.988818491548187}},{"attributes":{"OBJECTID":5622,"LANDMARKID":"1000100001605","LANDMARKCO":"401","LANDMARKNA":"仁愛醫院","LANDMARKAD":"1000107","ADDRESS":"新北市樹林區文化街9號","TEL":"02-26834567","COUNTYNAME":"新北市","TOWNNAME":"樹林區","MARKTYPE":"994","Class":"4"},"geometry":{"x":121.42003891707448,"y":24.987185093095221}},{"attributes":{"OBJECTID":5623,"LANDMARKID":"1000100002348","LANDMARKCO":"408","LANDMARKNA":"郵局-樹林郵局","LANDMARKAD":"1000107","ADDRESS":"新北市樹林區保安街1段325號","TEL":"(02)2681-2148","COUNTYNAME":"新北市","TOWNNAME":"樹林區","MARKTYPE":"994","Class":"4"},"geometry":{"x":121.41756944703079,"y":24.998169561915763}},{"attributes":{"OBJECTID":5624,"LANDMARKID":"1000100002349","LANDMARKCO":"408","LANDMARKNA":"郵局-樹林山佳郵局","LANDMARKAD":"1000107","ADDRESS":"新北市樹林區佳園路1段28號","TEL":"(02)2680-7719","COUNTYNAME":"新北市","TOWNNAME":"樹林區","MARKTYPE":"994","Class":"4"},"geometry":{"x":121.39278869204587,"y":24.971142813099625}},{"attributes":{"OBJECTID":5625,"LANDMARKID":"1000100002350","LANDMARKCO":"408","LANDMARKNA":"郵局-樹林迴龍郵局","LANDMARKAD":"1000107","ADDRESS":"新北市樹林區中正路708號","TEL":"(02)2689-2417","COUNTYNAME":"新北市","TOWNNAME":"樹林區","MARKTYPE":"994","Class":"4"},"geometry":{"x":121.40931313578639,"y":25.017738449036983}},{"attributes":{"OBJECTID":5626,"LANDMARKID":"1000100002351","LANDMARKCO":"408","LANDMARKNA":"郵局-樹林鎮前街郵局","LANDMARKAD":"1000107","ADDRESS":"新北市樹林區鎮前街25號","TEL":"(02)2681-3381","COUNTYNAME":"新北市","TOWNNAME":"樹林區","MARKTYPE":"994","Class":"4"},"geometry":{"x":121.42571118328723,"y":24.992296691318288}},{"attributes":{"OBJECTID":5627,"LANDMARKID":"1000100002352","LANDMARKCO":"408","LANDMARKNA":"郵局-樹林育英街郵局","LANDMARKAD":"1000107","ADDRESS":"新北市樹林區育英街36號","TEL":"(02)2681-2832","COUNTYNAME":"新北市","TOWNNAME":"樹林區","MARKTYPE":"994","Class":"4"},"geometry":{"x":121.42161839370439,"y":24.989225602160772}},{"attributes":{"OBJECTID":5628,"LANDMARKID":"1000100002353","LANDMARKCO":"408","LANDMARKNA":"郵局-樹林柑園郵局","LANDMARKAD":"1000107","ADDRESS":"新北市樹林區佳園路3段47號","TEL":"(02)2680-2825","COUNTYNAME":"新北市","TOWNNAME":"樹林區","MARKTYPE":"994","Class":"4"},"geometry":{"x":121.38896843899713,"y":24.952430913996093}},{"attributes":{"OBJECTID":5629,"LANDMARKID":"1000100002354","LANDMARKCO":"408","LANDMARKNA":"郵局-樹林樹新路郵局","LANDMARKAD":"1000107","ADDRESS":"新北市樹林區樹新路229號","TEL":"(02)2682-5921","COUNTYNAME":"新北市","TOWNNAME":"樹林區","MARKTYPE":"994","Class":"4"},"geometry":{"x":121.43106055700572,"y":25.000732276308376}},{"attributes":{"OBJECTID":5630,"LANDMARKID":"1000100002355","LANDMARKCO":"408","LANDMARKNA":"郵局-樹林中正路郵局","LANDMARKAD":"1000107","ADDRESS":"新北市樹林區中正路248巷12號","TEL":"(02)2688-6335","COUNTYNAME":"新北市","TOWNNAME":"樹林區","MARKTYPE":"994","Class":"4"},"geometry":{"x":121.41823031658946,"y":25.007762861656591}},{"attributes":{"OBJECTID":5631,"LANDMARKID":"1000100002356","LANDMARKCO":"408","LANDMARKNA":"郵局-樹林大同郵局","LANDMARKAD":"1000107","ADDRESS":"新北市樹林區中華路134號","TEL":"(02)8685-6838","COUNTYNAME":"新北市","TOWNNAME":"樹林區","MARKTYPE":"994","Class":"4"},"geometry":{"x":121.41713857673976,"y":24.980386361488115}},{"attributes":{"OBJECTID":5632,"LANDMARKID":"1000100002357","LANDMARKCO":"408","LANDMARKNA":"郵局-樹林三多郵局","LANDMARKAD":"1000107","ADDRESS":"新北市樹林區三福街70巷1號","TEL":"(02)2676-1408","COUNTYNAME":"新北市","TOWNNAME":"樹林區","MARKTYPE":"994","Class":"4"},"geometry":{"x":121.40473631043598,"y":25.016466360368273}},{"attributes":{"OBJECTID":5633,"LANDMARKID":"1000100002466","LANDMARKCO":"409","LANDMARKNA":"新北市樹林區農會","LANDMARKAD":"1000107","ADDRESS":"新北市樹林區鎮前街77號","TEL":"02-26862288","COUNTYNAME":"新北市","TOWNNAME":"樹林區","MARKTYPE":"994","Class":"4"},"geometry":{"x":121.42386228926298,"y":24.989477066843286}},{"attributes":{"OBJECTID":5634,"LANDMARKID":"1000100001867","LANDMARKCO":"404","LANDMARKNA":"台灣自來水樹林服務所","LANDMARKAD":"1000107","ADDRESS":"新北市樹林鎮武林街6-1號","TEL":"02-26812254","COUNTYNAME":"新北市","TOWNNAME":"樹林區","MARKTYPE":"994","Class":"4"},"geometry":{"x":121.41789332465089,"y":25.001661846108959}},{"attributes":{"OBJECTID":5635,"LANDMARKID":"1000100001868","LANDMARKCO":"404","LANDMARKNA":"台灣省自來水樹林服務所","LANDMARKAD":"1000107","ADDRESS":"新北市樹林區武林街6之1號","TEL":" ","COUNTYNAME":"新北市","TOWNNAME":"樹林區","MARKTYPE":"994","Class":"4"},"geometry":{"x":121.41833135648675,"y":25.001701046014809}},{"attributes":{"OBJECTID":5636,"LANDMARKID":"1000100002159","LANDMARKCO":"406","LANDMARKNA":"三多公園","LANDMARKAD":"1000107","ADDRESS":"新北市樹林區","TEL":" ","COUNTYNAME":"新北市","TOWNNAME":"樹林區","MARKTYPE":"994","Class":"4"},"geometry":{"x":121.41009691642279,"y":25.017149856395477}},{"attributes":{"OBJECTID":5637,"LANDMARKID":"1000100002160","LANDMARKCO":"406","LANDMARKNA":"中山公園","LANDMARKAD":"1000107","ADDRESS":"新北市樹林區","TEL":" ","COUNTYNAME":"新北市","TOWNNAME":"樹林區","MARKTYPE":"994","Class":"4"},"geometry":{"x":121.40202057663788,"y":25.014306576632517}},{"attributes":{"OBJECTID":5638,"LANDMARKID":"1000100002161","LANDMARKCO":"406","LANDMARKNA":"十三公園","LANDMARKAD":"1000107","ADDRESS":"新北市樹林區","TEL":" ","COUNTYNAME":"新北市","TOWNNAME":"樹林區","MARKTYPE":"994","Class":"4"},"geometry":{"x":121.43030901286149,"y":24.999076271866915}},{"attributes":{"OBJECTID":5639,"LANDMARKID":"1000100002162","LANDMARKCO":"406","LANDMARKNA":"潭底公園","LANDMARKAD":"1000107","ADDRESS":"新北市樹林區","TEL":" ","COUNTYNAME":"新北市","TOWNNAME":"樹林區","MARKTYPE":"994","Class":"4"},"geometry":{"x":121.41793714610844,"y":24.995581944831052}},{"attributes":{"OBJECTID":5640,"LANDMARKID":"1000100002163","LANDMARKCO":"406","LANDMARKNA":"國揚公園","LANDMARKAD":"1000107","ADDRESS":"新北市樹林區","TEL":" ","COUNTYNAME":"新北市","TOWNNAME":"樹林區","MARKTYPE":"994","Class":"4"},"geometry":{"x":121.41496001569205,"y":24.983121053876971}},{"attributes":{"OBJECTID":5641,"LANDMARKID":"1000100002164","LANDMARKCO":"406","LANDMARKNA":"河濱公園","LANDMARKAD":"1000107","ADDRESS":"新北市樹林區","TEL":" ","COUNTYNAME":"新北市","TOWNNAME":"樹林區","MARKTYPE":"994","Class":"4"},"geometry":{"x":121.38848310321684,"y":24.967542468628384}},{"attributes":{"OBJECTID":5642,"LANDMARKID":"1000100002165","LANDMARKCO":"406","LANDMARKNA":"三福長青公園","LANDMARKAD":"1000107","ADDRESS":"新北市樹林區","TEL":" ","COUNTYNAME":"新北市","TOWNNAME":"樹林區","MARKTYPE":"994","Class":"4"},"geometry":{"x":121.40756955607621,"y":25.017009944574266}},{"attributes":{"OBJECTID":5643,"LANDMARKID":"1000100002037","LANDMARKCO":"405","LANDMARKNA":"台亞加油站-中華站（台塑）","LANDMARKAD":"1000107","ADDRESS":"新北市樹林區中華路2號","TEL":"(02)8686-0595","COUNTYNAME":"新北市","TOWNNAME":"樹林區","MARKTYPE":"994","Class":"4"},"geometry":{"x":121.42551852390717,"y":24.98464761669921}},{"attributes":{"OBJECTID":5644,"LANDMARKID":"1000100002038","LANDMARKCO":"405","LANDMARKNA":"台亞加油站-俊英站（台塑）","LANDMARKAD":"1000107","ADDRESS":"新北市樹林區俊英街280號","TEL":"(02)2688-5930____","COUNTYNAME":"新北市","TOWNNAME":"樹林區","MARKTYPE":"994","Class":"4"},"geometry":{"x":121.42402840661488,"y":25.013267959304667}},{"attributes":{"OBJECTID":5645,"LANDMARKID":"1000100002039","LANDMARKCO":"405","LANDMARKNA":"台塑加油站-大慶站(台塑)","LANDMARKAD":"1000107","ADDRESS":"新北市樹林區三興路50號","TEL":"02-26882418","COUNTYNAME":"新北市","TOWNNAME":"樹林區","MARKTYPE":"994","Class":"4"},"geometry":{"x":121.39697629424305,"y":25.015256693129576}},{"attributes":{"OBJECTID":5646,"LANDMARKID":"1000100002040","LANDMARKCO":"405","LANDMARKNA":"全國加油站-大安站（台塑）","LANDMARKAD":"1000107","ADDRESS":"新北市樹林區大安路2號","TEL":"02-26750285","COUNTYNAME":"新北市","TOWNNAME":"樹林區","MARKTYPE":"994","Class":"4"},"geometry":{"x":121.42958806328825,"y":25.004317763494971}},{"attributes":{"OBJECTID":5647,"LANDMARKID":"1000100000239","LANDMARKCO":"107","LANDMARKNA":"國公路警察局第六警察隊樹林分隊","LANDMARKAD":"1000107","ADDRESS":"新北市樹林區柑園里佳園路三段101巷1號","TEL":"02-26807637","COUNTYNAME":"新北市","TOWNNAME":"樹林區","MARKTYPE":"991","Class":"1"},"geometry":{"x":121.38734497611023,"y":24.953921808109413}},{"attributes":{"OBJECTID":5648,"LANDMARKID":"1000100000061","LANDMARKCO":"103","LANDMARKNA":"新北市樹林區衛生所","LANDMARKAD":"1000107","ADDRESS":"新北市樹林區中山路2段80-1號","TEL":"02-26812134","COUNTYNAME":"新北市","TOWNNAME":"樹林區","MARKTYPE":"991","Class":"1"},"geometry":{"x":121.41483808864064,"y":24.983887747689373}},{"attributes":{"OBJECTID":5649,"LANDMARKID":"1000100000425","LANDMARKCO":"108","LANDMARKNA":"新北市樹林區公所","LANDMARKAD":"1000107","ADDRESS":"新北市樹林區鎮前街93號","TEL":"02-26812106","COUNTYNAME":"新北市","TOWNNAME":"樹林區","MARKTYPE":"991","Class":"1"},"geometry":{"x":121.42449188557281,"y":24.99003517801647}},{"attributes":{"OBJECTID":5650,"LANDMARKID":"1000100000062","LANDMARKCO":"103","LANDMARKNA":"新北市樹林區市民代表會","LANDMARKAD":"1000107","ADDRESS":"新北市樹林區鎮前街93號2樓","TEL":"02-26812450","COUNTYNAME":"新北市","TOWNNAME":"樹林區","MARKTYPE":"991","Class":"1"},"geometry":{"x":121.42449188557281,"y":24.99003517801647}},{"attributes":{"OBJECTID":5651,"LANDMARKID":"1000100000233","LANDMARKCO":"107","LANDMARKNA":"新北市消防局樹林分隊","LANDMARKAD":"1000107","ADDRESS":"新北市樹林區中山路二段80號","TEL":"02-26814252","COUNTYNAME":"新北市","TOWNNAME":"樹林區","MARKTYPE":"991","Class":"1"},"geometry":{"x":121.41519043064827,"y":24.984057775572886}},{"attributes":{"OBJECTID":5652,"LANDMARKID":"1000100000234","LANDMARKCO":"107","LANDMARKNA":"新北市消防局樹潭分隊","LANDMARKAD":"1000107","ADDRESS":"新北市樹林區樹潭街1之1號","TEL":"02-26822119","COUNTYNAME":"新北市","TOWNNAME":"樹林區","MARKTYPE":"991","Class":"1"},"geometry":{"x":121.41806493124723,"y":25.001318547759833}},{"attributes":{"OBJECTID":5653,"LANDMARKID":"1000100000235","LANDMARKCO":"107","LANDMARKNA":"新北市政府警察局樹林分局","LANDMARKAD":"1000107","ADDRESS":"新北市樹林鎮潭底里保安街一段283號","TEL":"02-26812101","COUNTYNAME":"新北市","TOWNNAME":"樹林區","MARKTYPE":"991","Class":"1"},"geometry":{"x":121.41896654607588,"y":24.996733832603585}},{"attributes":{"OBJECTID":5654,"LANDMARKID":"1000100000236","LANDMARKCO":"107","LANDMARKNA":"新北市政府警察局山佳派出所","LANDMARKAD":"1000107","ADDRESS":"新北市樹林區東山里中山路三段38號","TEL":"02-26806114","COUNTYNAME":"新北市","TOWNNAME":"樹林區","MARKTYPE":"991","Class":"1"},"geometry":{"x":121.39486596125386,"y":24.97267103960591}},{"attributes":{"OBJECTID":5655,"LANDMARKID":"1000100000237","LANDMARKCO":"107","LANDMARKNA":"新北市政府警察局三多派出所","LANDMARKAD":"1000107","ADDRESS":"新北市樹林區三福里三福街72號","TEL":"02-26894108","COUNTYNAME":"新北市","TOWNNAME":"樹林區","MARKTYPE":"991","Class":"1"},"geometry":{"x":121.40466165222949,"y":25.0163112421207}},{"attributes":{"OBJECTID":5656,"LANDMARKID":"1000100000238","LANDMARKCO":"107","LANDMARKNA":"新北市政府警察局樹林派出所","LANDMARKAD":"1000107","ADDRESS":"新北市樹林區樹北里鎮前街35號","TEL":"02-26812034","COUNTYNAME":"新北市","TOWNNAME":"樹林區","MARKTYPE":"991","Class":"1"},"geometry":{"x":121.42552488532328,"y":24.991942725299229}},{"attributes":{"OBJECTID":5657,"LANDMARKID":"1000100000167","LANDMARKCO":"106","LANDMARKNA":"新北市樹林區戶政事務所","LANDMARKAD":"1000107","ADDRESS":"新北市樹林區保安街1段285號","TEL":"02-26842131","COUNTYNAME":"新北市","TOWNNAME":"樹林區","MARKTYPE":"991","Class":"1"},"geometry":{"x":121.41889943309829,"y":24.996500112768555}},{"attributes":{"OBJECTID":5658,"LANDMARKID":"1000100000134","LANDMARKCO":"105","LANDMARKNA":"新北市樹林地政事務所","LANDMARKAD":"1000107","ADDRESS":"新北市樹林區地政街12號","TEL":"02-26808001","COUNTYNAME":"新北市","TOWNNAME":"樹林區","MARKTYPE":"991","Class":"1"},"geometry":{"x":121.39414303198936,"y":24.971745501884836}},{"attributes":{"OBJECTID":5659,"LANDMARKID":"1000100000032","LANDMARKCO":"101","LANDMARKNA":"公路總局台北區監理所","LANDMARKAD":"1000107","ADDRESS":"新北市樹林區中正路248巷7號","TEL":"02-26884366","COUNTYNAME":"新北市","TOWNNAME":"樹林區","MARKTYPE":"991","Class":"1"},"geometry":{"x":121.41862289333865,"y":25.008253585573957}},{"attributes":{"OBJECTID":5660,"LANDMARKID":"1000100000033","LANDMARKCO":"101","LANDMARKNA":"內政部國土測繪中心樹林辦公室","LANDMARKAD":"1000107","ADDRESS":"新北市樹林區圳生里三俊街258號","TEL":"02-26892735","COUNTYNAME":"新北市","TOWNNAME":"樹林區","MARKTYPE":"991","Class":"1"},"geometry":{"x":121.42162340732624,"y":25.014665832289314}},{"attributes":{"OBJECTID":5661,"LANDMARKID":"1000100000034","LANDMARKCO":"101","LANDMARKNA":"工業局樹林工業區服務中心","LANDMARKAD":"1000107","ADDRESS":"新北市樹林區武林街6號","TEL":"02-26813813","COUNTYNAME":"新北市","TOWNNAME":"樹林區","MARKTYPE":"991","Class":"1"},"geometry":{"x":121.41814409440381,"y":25.00157489568635}},{"attributes":{"OBJECTID":5662,"LANDMARKID":"1000100000240","LANDMARKCO":"107","LANDMARKNA":"新北市消防局柑園分隊","LANDMARKAD":"1000107","ADDRESS":"新北市樹林區柑園路一段60號","TEL":"02-26802134","COUNTYNAME":"新北市","TOWNNAME":"樹林區","MARKTYPE":"991","Class":"1"},"geometry":{"x":121.40268091061159,"y":24.960648349132821}},{"attributes":{"OBJECTID":5663,"LANDMARKID":"1000100000886","LANDMARKCO":"204","LANDMARKNA":"新北市立圖書館樹林分館","LANDMARKAD":"1000107","ADDRESS":"新北市樹林區中山路二段80號3~4樓","TEL":" ","COUNTYNAME":"新北市","TOWNNAME":"樹林區","MARKTYPE":"992","Class":"2"},"geometry":{"x":121.41483373366978,"y":24.983947219875375}},{"attributes":{"OBJECTID":5664,"LANDMARKID":"1000100000573","LANDMARKCO":"203","LANDMARKNA":"縣立桃子腳國中","LANDMARKAD":"1000107","ADDRESS":"新北市樹林區學勤路555號","TEL":"02-89703225","COUNTYNAME":"新北市","TOWNNAME":"樹林區","MARKTYPE":"992","Class":"2"},"geometry":{"x":121.38284539055569,"y":24.948965210473435}},{"attributes":{"OBJECTID":5665,"LANDMARKID":"1000100000510","LANDMARKCO":"202","LANDMARKNA":"私立樹人家商","LANDMARKAD":"1000107","ADDRESS":"新北市樹林區長壽街33號","TEL":"02-26870391","COUNTYNAME":"新北市","TOWNNAME":"樹林區","MARKTYPE":"992","Class":"2"},"geometry":{"x":121.41931207696156,"y":24.99518044128288}},{"attributes":{"OBJECTID":5666,"LANDMARKID":"1000100000536","LANDMARKCO":"203","LANDMARKNA":"縣立育林國中","LANDMARKAD":"1000107","ADDRESS":"新北市樹林區備前街51號","TEL":"02-26841160","COUNTYNAME":"新北市","TOWNNAME":"樹林區","MARKTYPE":"992","Class":"2"},"geometry":{"x":121.41616459519592,"y":24.985620444458775}},{"attributes":{"OBJECTID":5667,"LANDMARKID":"1000100000537","LANDMARKCO":"203","LANDMARKNA":"縣立柑園國小","LANDMARKAD":"1000107","ADDRESS":"新北市樹林區柑園街一段160號","TEL":"02-26802507","COUNTYNAME":"新北市","TOWNNAME":"樹林區","MARKTYPE":"992","Class":"2"},"geometry":{"x":121.3897022133709,"y":24.95554184592244}},{"attributes":{"OBJECTID":5668,"LANDMARKID":"1000100000538","LANDMARKCO":"203","LANDMARKNA":"縣立育林國小","LANDMARKAD":"1000107","ADDRESS":"新北市樹林區備前街51號","TEL":"02-26832112","COUNTYNAME":"新北市","TOWNNAME":"樹林區","MARKTYPE":"992","Class":"2"},"geometry":{"x":121.41558825813539,"y":24.985352815510698}},{"attributes":{"OBJECTID":5669,"LANDMARKID":"1000100000509","LANDMARKCO":"202","LANDMARKNA":"縣立樹林高中","LANDMARKAD":"1000107","ADDRESS":"新北市樹林區中華路8號","TEL":"02-86852011","COUNTYNAME":"新北市","TOWNNAME":"樹林區","MARKTYPE":"992","Class":"2"},"geometry":{"x":121.42247110487126,"y":24.982936293445537}},{"attributes":{"OBJECTID":5670,"LANDMARKID":"1000100000541","LANDMARKCO":"203","LANDMARKNA":"縣立柑園國中","LANDMARKAD":"1000107","ADDRESS":"新北市樹林區柑園街二段112號","TEL":"02-26801958","COUNTYNAME":"新北市","TOWNNAME":"樹林區","MARKTYPE":"992","Class":"2"},"geometry":{"x":121.38343947795184,"y":24.956294502576871}},{"attributes":{"OBJECTID":5671,"LANDMARKID":"1000100000542","LANDMARKCO":"203","LANDMARKNA":"縣立三多國小","LANDMARKAD":"1000107","ADDRESS":"新北市樹林區三福街52號","TEL":"02-26880698","COUNTYNAME":"新北市","TOWNNAME":"樹林區","MARKTYPE":"992","Class":"2"},"geometry":{"x":121.40644464111924,"y":25.016361618203199}},{"attributes":{"OBJECTID":5672,"LANDMARKID":"1000100000543","LANDMARKCO":"203","LANDMARKNA":"縣立文林國小","LANDMARKAD":"1000107","ADDRESS":"新北市樹林區潭底里千歲街59號","TEL":"02-26812625","COUNTYNAME":"新北市","TOWNNAME":"樹林區","MARKTYPE":"992","Class":"2"},"geometry":{"x":121.42610139690323,"y":24.997503238238004}},{"attributes":{"OBJECTID":5673,"LANDMARKID":"1000100000544","LANDMARKCO":"203","LANDMARKNA":"縣立大同國小","LANDMARKAD":"1000107","ADDRESS":"新北市樹林區大同里大同街43號","TEL":"02-26812474","COUNTYNAME":"新北市","TOWNNAME":"樹林區","MARKTYPE":"992","Class":"2"},"geometry":{"x":121.41752314088919,"y":24.981308482387405}},{"attributes":{"OBJECTID":5674,"LANDMARKID":"1000100000545","LANDMARKCO":"203","LANDMARKNA":"縣立山佳國小","LANDMARKAD":"1000107","ADDRESS":"新北市樹林區中山路三段5號","TEL":"02-26806824","COUNTYNAME":"新北市","TOWNNAME":"樹林區","MARKTYPE":"992","Class":"2"},"geometry":{"x":121.40175284290015,"y":24.975514054693122}},{"attributes":{"OBJECTID":5675,"LANDMARKID":"1000100000546","LANDMARKCO":"203","LANDMARKNA":"縣立樹林國小","LANDMARKAD":"1000107","ADDRESS":"新北市樹林區樹西里育英街176號","TEL":"02-26812014","COUNTYNAME":"新北市","TOWNNAME":"樹林區","MARKTYPE":"992","Class":"2"},"geometry":{"x":121.41783130921313,"y":24.989423518714172}},{"attributes":{"OBJECTID":5676,"LANDMARKID":"1000100000547","LANDMARKCO":"203","LANDMARKNA":"縣立育德國小","LANDMARKAD":"1000107","ADDRESS":"新北市樹林區西山里佳園路一段34號","TEL":"02-26805557","COUNTYNAME":"新北市","TOWNNAME":"樹林區","MARKTYPE":"992","Class":"2"},"geometry":{"x":121.39250646881027,"y":24.970891838081354}},{"attributes":{"OBJECTID":5677,"LANDMARKID":"1000100000548","LANDMARKCO":"203","LANDMARKNA":"縣立彭福國小","LANDMARKAD":"1000107","ADDRESS":"新北市樹林區忠孝街30號","TEL":"02-26866589","COUNTYNAME":"新北市","TOWNNAME":"樹林區","MARKTYPE":"992","Class":"2"},"geometry":{"x":121.42344504497807,"y":24.981927477781003}},{"attributes":{"OBJECTID":5678,"LANDMARKID":"1000100000549","LANDMARKCO":"203","LANDMARKNA":"縣立武林國小","LANDMARKAD":"1000107","ADDRESS":"新北市樹林區保安街二段151號","TEL":"02-26812475","COUNTYNAME":"新北市","TOWNNAME":"樹林區","MARKTYPE":"992","Class":"2"},"geometry":{"x":121.41536815374769,"y":25.001641596434286}},{"attributes":{"OBJECTID":5679,"LANDMARKID":"1000100000550","LANDMARKCO":"203","LANDMARKNA":"縣立三多國中(籌)","LANDMARKAD":"1000107","ADDRESS":"新北市樹林區中華路8號","TEL":"02-86862595","COUNTYNAME":"新北市","TOWNNAME":"樹林區","MARKTYPE":"992","Class":"2"},"geometry":{"x":121.42247110487126,"y":24.982936293445537}},{"attributes":{"OBJECTID":5680,"LANDMARKID":"1000100000551","LANDMARKCO":"203","LANDMARKNA":"縣立深坑國中","LANDMARKAD":"1000107","ADDRESS":"新北市深坑區文化街41號","TEL":"02-26625872","COUNTYNAME":"新北市","TOWNNAME":"樹林區","MARKTYPE":"992","Class":"2"},"geometry":{"x":121.41727669311398,"y":24.988872139446165}},{"attributes":{"OBJECTID":5681,"LANDMARKID":"1000100000552","LANDMARKCO":"203","LANDMARKNA":"縣立深坑國小","LANDMARKAD":"1000107","ADDRESS":"新北市深坑區深坑村文化街45號","TEL":"02-26624675","COUNTYNAME":"新北市","TOWNNAME":"樹林區","MARKTYPE":"992","Class":"2"},"geometry":{"x":121.41705000425199,"y":24.988963667647806}},{"attributes":{"OBJECTID":5682,"LANDMARKID":"1000100001541","LANDMARKCO":"308","LANDMARKNA":"樹林收費站","LANDMARKAD":"1000107","ADDRESS":" ","TEL":" ","COUNTYNAME":"新北市","TOWNNAME":"樹林區","MARKTYPE":"993","Class":"308"},"geometry":{"x":121.3954880694082,"y":24.951084750616968}},{"attributes":{"OBJECTID":5683,"LANDMARKID":"1000100000955","LANDMARKCO":"302","LANDMARKNA":"台北汽車客運樹林站","LANDMARKAD":"1000107","ADDRESS":"新北市樹林區樹新路28號","TEL":" ","COUNTYNAME":"新北市","TOWNNAME":"樹林區","MARKTYPE":"993","Class":"302"},"geometry":{"x":121.42780705973806,"y":24.995425212942077}},{"attributes":{"OBJECTID":5684,"LANDMARKID":"1000100000956","LANDMARKCO":"302","LANDMARKNA":"三重汽車客運自強站","LANDMARKAD":"1000107","ADDRESS":"新北市樹林區福興街18號","TEL":" ","COUNTYNAME":"新北市","TOWNNAME":"樹林區","MARKTYPE":"993","Class":"302"},"geometry":{"x":121.4041514758014,"y":25.016059621099441}},{"attributes":{"OBJECTID":5685,"LANDMARKID":"1000100000957","LANDMARKCO":"302","LANDMARKNA":"三重汽車客運迴龍一站","LANDMARKAD":"1000107","ADDRESS":"新北市樹林區福興街40號","TEL":" ","COUNTYNAME":"新北市","TOWNNAME":"樹林區","MARKTYPE":"993","Class":"302"},"geometry":{"x":121.40420940428072,"y":25.015225985738311}},{"attributes":{"OBJECTID":5686,"LANDMARKID":"1000100000958","LANDMARKCO":"302","LANDMARKNA":"三重汽車客運樹林站","LANDMARKAD":"1000107","ADDRESS":"新北市樹林區中山路二段82巷1號","TEL":" ","COUNTYNAME":"新北市","TOWNNAME":"樹林區","MARKTYPE":"993","Class":"302"},"geometry":{"x":121.41528119125093,"y":24.984041002464767}},{"attributes":{"OBJECTID":5687,"LANDMARKID":"1000100001227","LANDMARKCO":"303","LANDMARKNA":"河濱運動公園停車場","LANDMARKAD":"1000107","ADDRESS":"新北市樹林區","TEL":" ","COUNTYNAME":"新北市","TOWNNAME":"樹林區","MARKTYPE":"993","Class":"303"},"geometry":{"x":121.39128006020869,"y":24.968266833585147}},{"attributes":{"OBJECTID":5688,"LANDMARKID":"1000100001228","LANDMARKCO":"303","LANDMARKNA":"樹林第十二簡易簡車場","LANDMARKAD":"1000107","ADDRESS":"新北市樹林區","TEL":" ","COUNTYNAME":"新北市","TOWNNAME":"樹林區","MARKTYPE":"993","Class":"303"},"geometry":{"x":121.42200826080152,"y":24.980924851148796}},{"attributes":{"OBJECTID":5689,"LANDMARKID":"1000100001229","LANDMARKCO":"303","LANDMARKNA":"停五立體停車塔","LANDMARKAD":"1000107","ADDRESS":"新北市樹林區鎮前街","TEL":" ","COUNTYNAME":"新北市","TOWNNAME":"樹林區","MARKTYPE":"993","Class":"303"},"geometry":{"x":121.42475212550249,"y":24.990092551058851}},{"attributes":{"OBJECTID":5690,"LANDMARKID":"1000100001230","LANDMARKCO":"303","LANDMARKNA":"樹林火車站停車場","LANDMARKAD":"1000107","ADDRESS":"新北市樹林區鎮前街","TEL":" ","COUNTYNAME":"新北市","TOWNNAME":"樹林區","MARKTYPE":"993","Class":"303"},"geometry":{"x":121.42519024347786,"y":24.991737555653689}},{"attributes":{"OBJECTID":5691,"LANDMARKID":"1000100001231","LANDMARKCO":"303","LANDMARKNA":"樹林體育場公有停車場","LANDMARKAD":"1000107","ADDRESS":"新北市樹林區溪城路","TEL":" ","COUNTYNAME":"新北市","TOWNNAME":"樹林區","MARKTYPE":"993","Class":"303"},"geometry":{"x":121.42640983094356,"y":24.983574066336349}},{"attributes":{"OBJECTID":5692,"LANDMARKID":"1000100001232","LANDMARKCO":"303","LANDMARKNA":"公有停車場","LANDMARKAD":"1000107","ADDRESS":"新北市樹林鄉","TEL":" ","COUNTYNAME":"新北市","TOWNNAME":"樹林區","MARKTYPE":"993","Class":"303"},"geometry":{"x":121.42820942934001,"y":24.994828922936602}},{"attributes":{"OBJECTID":5693,"LANDMARKID":"1000100001233","LANDMARKCO":"303","LANDMARKNA":"十停車場","LANDMARKAD":"1000107","ADDRESS":"新北市樹林區彭福里國凱街","TEL":" ","COUNTYNAME":"新北市","TOWNNAME":"樹林區","MARKTYPE":"993","Class":"303"},"geometry":{"x":121.42117500869379,"y":24.976981042547141}},{"attributes":{"OBJECTID":5694,"LANDMARKID":"1000100001234","LANDMARKCO":"303","LANDMARKNA":"停一停車場","LANDMARKAD":"1000107","ADDRESS":"新北市樹林區保安里保頃街","TEL":" ","COUNTYNAME":"新北市","TOWNNAME":"樹林區","MARKTYPE":"993","Class":"303"},"geometry":{"x":121.41467562277155,"y":25.011112761103096}},{"attributes":{"OBJECTID":5695,"LANDMARKID":"1000100001235","LANDMARKCO":"303","LANDMARKNA":"停八停車場","LANDMARKAD":"1000107","ADDRESS":"新北市樹林區備前街","TEL":" ","COUNTYNAME":"新北市","TOWNNAME":"樹林區","MARKTYPE":"993","Class":"303"},"geometry":{"x":121.41690669919903,"y":24.986280980127052}},{"attributes":{"OBJECTID":5696,"LANDMARKID":"1000100001236","LANDMARKCO":"303","LANDMARKNA":"停三停車場","LANDMARKAD":"1000107","ADDRESS":"新北市樹林區坡內里備內街","TEL":" ","COUNTYNAME":"新北市","TOWNNAME":"樹林區","MARKTYPE":"993","Class":"303"},"geometry":{"x":121.4140167453091,"y":24.987018411039035}},{"attributes":{"OBJECTID":5697,"LANDMARKID":"1000100001237","LANDMARKCO":"303","LANDMARKNA":"停五立體停車場","LANDMARKAD":"1000107","ADDRESS":"新北市樹林區保安里鎮前街","TEL":" ","COUNTYNAME":"新北市","TOWNNAME":"樹林區","MARKTYPE":"993","Class":"303"},"geometry":{"x":121.42601075862214,"y":24.993093209899357}},{"attributes":{"OBJECTID":5698,"LANDMARKID":"1000100001238","LANDMARKCO":"303","LANDMARKNA":"樹林區第一簡易簡易停車場","LANDMARKAD":"1000107","ADDRESS":"新北市樹林區保順路","TEL":" ","COUNTYNAME":"新北市","TOWNNAME":"樹林區","MARKTYPE":"993","Class":"303"},"geometry":{"x":121.4205814227239,"y":25.005878841938877}},{"attributes":{"OBJECTID":5699,"LANDMARKID":"1000100001239","LANDMARKCO":"303","LANDMARKNA":"樹林區第七簡易簡易停車場","LANDMARKAD":"1000107","ADDRESS":"新北市樹林區復興路","TEL":" ","COUNTYNAME":"新北市","TOWNNAME":"樹林區","MARKTYPE":"993","Class":"303"},"geometry":{"x":121.41971843475704,"y":24.991049703529285}},{"attributes":{"OBJECTID":5700,"LANDMARKID":"1000100001240","LANDMARKCO":"303","LANDMARKNA":"樹林區第六簡易簡易停車場","LANDMARKAD":"1000107","ADDRESS":"新北市樹林區潭興街","TEL":" ","COUNTYNAME":"新北市","TOWNNAME":"樹林區","MARKTYPE":"993","Class":"303"},"geometry":{"x":121.42431783699629,"y":24.997679856775704}},{"attributes":{"OBJECTID":5701,"LANDMARKID":"1000100001241","LANDMARKCO":"303","LANDMARKNA":"永固停車場-樹林站","LANDMARKAD":"1000107","ADDRESS":"新北市樹林區太平路146號旁空地","TEL":" ","COUNTYNAME":"新北市","TOWNNAME":"樹林區","MARKTYPE":"993","Class":"303"},"geometry":{"x":121.41840346302709,"y":24.978210207660883}},{"attributes":{"OBJECTID":5702,"LANDMARKID":"1000100000928","LANDMARKCO":"301","LANDMARKNA":"樹林火車站","LANDMARKAD":"1000107","ADDRESS":"新北市樹林區樹北里鎮前街112號","TEL":"02-26812052","COUNTYNAME":"新北市","TOWNNAME":"樹林區","MARKTYPE":"993","Class":"301"},"geometry":{"x":121.42450654810673,"y":24.991417554649303}},{"attributes":{"OBJECTID":5703,"LANDMARKID":"1000100000929","LANDMARKCO":"301","LANDMARKNA":"山佳火車站","LANDMARKAD":"1000107","ADDRESS":"新北市樹林區中山里山佳街28號","TEL":"02-26808874","COUNTYNAME":"新北市","TOWNNAME":"樹林區","MARKTYPE":"993","Class":"301"},"geometry":{"x":121.3929399105496,"y":24.972690344151083}},{"attributes":{"OBJECTID":5704,"LANDMARKID":"1000100001775","LANDMARKCO":"402","LANDMARKNA":"中華電信-樹林中山特約服務中心","LANDMARKAD":"1000107","ADDRESS":"新北市樹林區中山路一段147號","TEL":"02-26876161","COUNTYNAME":"新北市","TOWNNAME":"樹林區","MARKTYPE":"994","Class":"4"},"geometry":{"x":121.42227274416672,"y":24.989311001964808}},{"attributes":{"OBJECTID":5705,"LANDMARKID":"1000100001776","LANDMARKCO":"402","LANDMARKNA":"威寶電信-樹林中山特約服務中心","LANDMARKAD":"1000107","ADDRESS":"新北市樹林區中山路一段14號","TEL":"02-26870150","COUNTYNAME":"新北市","TOWNNAME":"樹林區","MARKTYPE":"994","Class":"4"},"geometry":{"x":121.42411006574727,"y":24.992830597814699}},{"attributes":{"OBJECTID":5706,"LANDMARKID":"1000100001777","LANDMARKCO":"402","LANDMARKNA":"大眾電信(傑昇通信)-樹林店","LANDMARKAD":"1000107","ADDRESS":"新北市樹林巿保安二街27號","TEL":"02-86751913","COUNTYNAME":"新北市","TOWNNAME":"樹林區","MARKTYPE":"994","Class":"4"},"geometry":{"x":121.42484875302432,"y":24.993647959463836}},{"attributes":{"OBJECTID":5707,"LANDMARKID":"1000100001778","LANDMARKCO":"402","LANDMARKNA":"大眾電信(震旦通訊)-樹林中山店","LANDMARKAD":"1000107","ADDRESS":"新北市樹林區中山路一段4號","TEL":"02-26870888","COUNTYNAME":"新北市","TOWNNAME":"樹林區","MARKTYPE":"994","Class":"4"},"geometry":{"x":121.42422008480273,"y":24.992983451735409}},{"attributes":{"OBJECTID":5708,"LANDMARKID":"1000100001779","LANDMARKCO":"402","LANDMARKNA":"中華電信-樹林服務中心","LANDMARKAD":"1000107","ADDRESS":"新北市樹林區樹新路15號","TEL":"123或0800-080-123","COUNTYNAME":"新北市","TOWNNAME":"樹林區","MARKTYPE":"994","Class":"4"},"geometry":{"x":121.42666173932277,"y":24.994198322799278}},{"attributes":{"OBJECTID":5709,"LANDMARKID":"1000100001780","LANDMARKCO":"402","LANDMARKNA":"大眾電信(傑昇通信)-樹樹店","LANDMARKAD":"1000107","ADDRESS":"新北市樹林巿中山路一段49號","TEL":"02-26827557","COUNTYNAME":"新北市","TOWNNAME":"樹林區","MARKTYPE":"994","Class":"4"},"geometry":{"x":121.42222155869538,"y":24.989345225187297}},{"attributes":{"OBJECTID":5710,"LANDMARKID":"1000100002757","LANDMARKCO":"603","LANDMARKNA":"月圓汽車旅館","LANDMARKAD":"1000107","ADDRESS":"新北市樹林區八德街208巷12號","TEL":"02-86862828","COUNTYNAME":"新北市","TOWNNAME":"樹林區","MARKTYPE":"996","Class":"6"},"geometry":{"x":121.39668367383048,"y":24.969372130308567}},{"attributes":{"OBJECTID":5711,"LANDMARKID":"1000100002758","LANDMARKCO":"603","LANDMARKNA":"貝爾頌精緻汽車旅館","LANDMARKAD":"1000107","ADDRESS":"新北市樹林區中正路226號","TEL":"02-26751199","COUNTYNAME":"新北市","TOWNNAME":"樹林區","MARKTYPE":"996","Class":"6"},"geometry":{"x":121.41856257578257,"y":25.006905755777627}},{"attributes":{"OBJECTID":5712,"LANDMARKID":"1000100002759","LANDMARKCO":"603","LANDMARKNA":"佳賓旅社","LANDMARKAD":"1000107","ADDRESS":"新北市樹林區博愛街2巷24號","TEL":"02-26812329","COUNTYNAME":"新北市","TOWNNAME":"樹林區","MARKTYPE":"996","Class":"6"},"geometry":{"x":121.42671566268713,"y":24.992868748883001}},{"attributes":{"OBJECTID":5713,"LANDMARKID":"1000100002760","LANDMARKCO":"603","LANDMARKNA":"明園賓館","LANDMARKAD":"1000107","ADDRESS":"新北市樹林區博愛街6號4樓","TEL":"02-26835057","COUNTYNAME":"新北市","TOWNNAME":"樹林區","MARKTYPE":"996","Class":"6"},"geometry":{"x":121.42759847722189,"y":24.993035217511903}},{"attributes":{"OBJECTID":5714,"LANDMARKID":"1000100002761","LANDMARKCO":"603","LANDMARKNA":"龍海大飯店","LANDMARKAD":"1000107","ADDRESS":"新北市樹林區博愛街6號5樓","TEL":"02-26813333","COUNTYNAME":"新北市","TOWNNAME":"樹林區","MARKTYPE":"996","Class":"6"},"geometry":{"x":121.42759847722189,"y":24.993035217511903}},{"attributes":{"OBJECTID":5715,"LANDMARKID":"1000100002762","LANDMARKCO":"603","LANDMARKNA":"金莎旗艦汽車旅館","LANDMARKAD":"1000107","ADDRESS":"新北市樹林區學成路468號及大義路36號","TEL":"02-89700189","COUNTYNAME":"新北市","TOWNNAME":"樹林區","MARKTYPE":"996","Class":"6"},"geometry":{"x":121.37057093998769,"y":24.946760295392057}},{"attributes":{"OBJECTID":5716,"LANDMARKID":"1000100002763","LANDMARKCO":"603","LANDMARKNA":"印象旅社","LANDMARKAD":"1000107","ADDRESS":"新北市樹林區鎮前街3之3號4樓","TEL":"02-26834727","COUNTYNAME":"新北市","TOWNNAME":"樹林區","MARKTYPE":"996","Class":"6"},"geometry":{"x":121.42606187224528,"y":24.992872495771607}},{"attributes":{"OBJECTID":5717,"LANDMARKID":"1000100002764","LANDMARKCO":"603","LANDMARKNA":"昇園賓館","LANDMARKAD":"1000107","ADDRESS":"新北市樹林區鎮前街3之4號5樓","TEL":"02-26810868","COUNTYNAME":"新北市","TOWNNAME":"樹林區","MARKTYPE":"996","Class":"6"},"geometry":{"x":121.42622964968338,"y":24.992781251753925}},{"attributes":{"OBJECTID":5718,"LANDMARKID":"1000100002765","LANDMARKCO":"603","LANDMARKNA":"豪華旅社","LANDMARKAD":"1000107","ADDRESS":"新北市樹林區鎮前街77之10號","TEL":"02-26814898","COUNTYNAME":"新北市","TOWNNAME":"樹林區","MARKTYPE":"996","Class":"6"},"geometry":{"x":121.42551972959275,"y":24.990437979308741}},{"attributes":{"OBJECTID":5719,"LANDMARKID":"1000100002766","LANDMARKCO":"603","LANDMARKNA":"卡爾卡頌時尚休閒旅館","LANDMARKAD":"1000107","ADDRESS":"新北市樹林區中正路349號","TEL":"02-26870033","COUNTYNAME":"新北市","TOWNNAME":"樹林區","MARKTYPE":"996","Class":"6"},"geometry":{"x":121.41916493547077,"y":25.005401238333015}},{"attributes":{"OBJECTID":5720,"LANDMARKID":"1000100002061","LANDMARKCO":"405","LANDMARKNA":"中油加油站-土城廣福路站(刷卡自助)(中油直營)","LANDMARKAD":"1000113","ADDRESS":"新北市土城區四川路1號","TEL":"02-89672580","COUNTYNAME":"新北市","TOWNNAME":"土城區","MARKTYPE":"994","Class":"4"},"geometry":{"x":121.45593381909818,"y":24.996040757888899}},{"attributes":{"OBJECTID":5721,"LANDMARKID":"1000100002062","LANDMARKCO":"405","LANDMARKNA":"中油加油站-北基冠軍站","LANDMARKAD":"1000113","ADDRESS":"新北市土城區中央路一段7之1號","TEL":"02-82733837","COUNTYNAME":"新北市","TOWNNAME":"土城區","MARKTYPE":"994","Class":"4"},"geometry":{"x":121.44947490882888,"y":24.99216565929655}},{"attributes":{"OBJECTID":5722,"LANDMARKID":"1000100002063","LANDMARKCO":"405","LANDMARKNA":"中油加油站-頂埔站","LANDMARKAD":"1000113","ADDRESS":"新北市土城區中央路四段43號","TEL":"02-22697176","COUNTYNAME":"新北市","TOWNNAME":"土城區","MARKTYPE":"994","Class":"4"},"geometry":{"x":121.42259829122314,"y":24.961744150021175}},{"attributes":{"OBJECTID":5723,"LANDMARKID":"1000100002064","LANDMARKCO":"405","LANDMARKNA":"中油加油站-土城站(刷卡自助)(中油直營)","LANDMARKAD":"1000113","ADDRESS":"新北市土城區中央路二段280號","TEL":"02-22602808","COUNTYNAME":"新北市","TOWNNAME":"土城區","MARKTYPE":"994","Class":"4"},"geometry":{"x":121.44073444173719,"y":24.974077864071873}},{"attributes":{"OBJECTID":5724,"LANDMARKID":"1000100002065","LANDMARKCO":"405","LANDMARKNA":"中油加油站-連城站","LANDMARKAD":"1000113","ADDRESS":"新北市土城區金城路三段283號","TEL":"02-22668911","COUNTYNAME":"新北市","TOWNNAME":"土城區","MARKTYPE":"994","Class":"4"},"geometry":{"x":121.473452586756,"y":24.990757306395267}},{"attributes":{"OBJECTID":5725,"LANDMARKID":"1000100002066","LANDMARKCO":"405","LANDMARKNA":"中油加油站-明仁站","LANDMARKAD":"1000113","ADDRESS":"新北市土城區中華路1段30號","TEL":"02-22633323","COUNTYNAME":"新北市","TOWNNAME":"土城區","MARKTYPE":"994","Class":"4"},"geometry":{"x":121.4468487480592,"y":24.989834416142156}},{"attributes":{"OBJECTID":5726,"LANDMARKID":"1000100002067","LANDMARKCO":"405","LANDMARKNA":"中油加油站-聯華土城交流道站","LANDMARKAD":"1000113","ADDRESS":"新北市土城區大安路101號","TEL":"02-2267-5755","COUNTYNAME":"新北市","TOWNNAME":"土城區","MARKTYPE":"994","Class":"4"},"geometry":{"x":121.43309913714798,"y":24.968582739981176}},{"attributes":{"OBJECTID":5727,"LANDMARKID":"1000100002068","LANDMARKCO":"405","LANDMARKNA":"中油加油站-北基土城交流道站","LANDMARKAD":"1000113","ADDRESS":"新北市土城區中央路3段164號","TEL":"02-22682700","COUNTYNAME":"新北市","TOWNNAME":"土城區","MARKTYPE":"994","Class":"4"},"geometry":{"x":121.43150484138454,"y":24.965574959087512}},{"attributes":{"OBJECTID":5728,"LANDMARKID":"1000100002069","LANDMARKCO":"405","LANDMARKNA":"中油加油站-順光站","LANDMARKAD":"1000113","ADDRESS":"新北市土城區金城路1段2號","TEL":"02-22692342","COUNTYNAME":"新北市","TOWNNAME":"土城區","MARKTYPE":"994","Class":"4"},"geometry":{"x":121.43886915621522,"y":24.968422313043991}},{"attributes":{"OBJECTID":5729,"LANDMARKID":"1000100002070","LANDMARKCO":"405","LANDMARKNA":"中油加油站-亞柏土城站","LANDMARKAD":"1000113","ADDRESS":"新北市土城區中華路一段164號","TEL":"02-2263-5800","COUNTYNAME":"新北市","TOWNNAME":"土城區","MARKTYPE":"994","Class":"4"},"geometry":{"x":121.44145354353297,"y":24.983505031381462}},{"attributes":{"OBJECTID":5730,"LANDMARKID":"1000100001771","LANDMARKCO":"402","LANDMARKNA":"My Phone台灣大哥大-台北土城直營服務中心","LANDMARKAD":"1000113","ADDRESS":"新北市土城區裕民路261號","TEL":"0809-000-166","COUNTYNAME":"新北市","TOWNNAME":"土城區","MARKTYPE":"994","Class":"4"},"geometry":{"x":121.45501332441546,"y":24.982680400406288}},{"attributes":{"OBJECTID":5731,"LANDMARKID":"1000100001772","LANDMARKCO":"402","LANDMARKNA":"亞太行動寬頻電信-土城中央二加盟服務中心","LANDMARKAD":"1000113","ADDRESS":"新北市土城區中央路2段120號","TEL":"02-82629211","COUNTYNAME":"新北市","TOWNNAME":"土城區","MARKTYPE":"994","Class":"4"},"geometry":{"x":121.44199241358243,"y":24.977805077370824}},{"attributes":{"OBJECTID":5732,"LANDMARKID":"1000100001773","LANDMARKCO":"402","LANDMARKNA":"亞太行動寬頻電信-土城裕民加盟服務中心","LANDMARKAD":"1000113","ADDRESS":"新北市土城區裕民路263號之1號","TEL":"02-22660997","COUNTYNAME":"新北市","TOWNNAME":"土城區","MARKTYPE":"994","Class":"4"},"geometry":{"x":121.45513112254686,"y":24.982535226696374}},{"attributes":{"OBJECTID":5733,"LANDMARKID":"1000100001774","LANDMARKCO":"402","LANDMARKNA":"亞太行動寬頻電信-土城中央加盟服務中心","LANDMARKAD":"1000113","ADDRESS":"新北市土城區中央路一段68號","TEL":"02-22638789","COUNTYNAME":"新北市","TOWNNAME":"土城區","MARKTYPE":"994","Class":"4"},"geometry":{"x":121.44734533779072,"y":24.989427070541318}},{"attributes":{"OBJECTID":5734,"LANDMARKID":"1000100001601","LANDMARKCO":"401","LANDMARKNA":"恩樺醫院","LANDMARKAD":"1000113","ADDRESS":"新北市土城區中央路一段7號","TEL":"02-22639955","COUNTYNAME":"新北市","TOWNNAME":"土城區","MARKTYPE":"994","Class":"4"},"geometry":{"x":121.44890234725683,"y":24.991309044822611}},{"attributes":{"OBJECTID":5735,"LANDMARKID":"1000100001602","LANDMARKCO":"401","LANDMARKNA":"元復醫院","LANDMARKAD":"1000113","ADDRESS":"新北市土城區中央路二段320號","TEL":"02-22661886","COUNTYNAME":"新北市","TOWNNAME":"土城區","MARKTYPE":"994","Class":"4"},"geometry":{"x":121.44034306266768,"y":24.972913338928599}},{"attributes":{"OBJECTID":5736,"LANDMARKID":"1000100001603","LANDMARKCO":"401","LANDMARKNA":"廣川醫院","LANDMARKAD":"1000113","ADDRESS":"新北市土城區裕民路274號","TEL":"02-22617000","COUNTYNAME":"新北市","TOWNNAME":"土城區","MARKTYPE":"994","Class":"4"},"geometry":{"x":121.45502070409191,"y":24.982337278419809}},{"attributes":{"OBJECTID":5737,"LANDMARKID":"1000100001604","LANDMARKCO":"401","LANDMARKNA":"仁安醫院","LANDMARKAD":"1000113","ADDRESS":"新北市土城區中央路一段62號","TEL":"02-22627088","COUNTYNAME":"新北市","TOWNNAME":"土城區","MARKTYPE":"994","Class":"4"},"geometry":{"x":121.447425562251,"y":24.98956201245684}},{"attributes":{"OBJECTID":5738,"LANDMARKID":"1000100002358","LANDMARKCO":"408","LANDMARKNA":"郵局-土城郵局","LANDMARKAD":"1000113","ADDRESS":"新北市土城區中央路2段160號","TEL":"(02)2260-1258","COUNTYNAME":"新北市","TOWNNAME":"土城區","MARKTYPE":"994","Class":"4"},"geometry":{"x":121.44184505953484,"y":24.976587194943253}},{"attributes":{"OBJECTID":5739,"LANDMARKID":"1000100002359","LANDMARKCO":"408","LANDMARKNA":"郵局-土城清水郵局","LANDMARKAD":"1000113","ADDRESS":"新北市土城區青雲路228號","TEL":"(02)2261-2430","COUNTYNAME":"新北市","TOWNNAME":"土城區","MARKTYPE":"994","Class":"4"},"geometry":{"x":121.45896283403206,"y":24.980975865966773}},{"attributes":{"OBJECTID":5740,"LANDMARKID":"1000100002360","LANDMARKCO":"408","LANDMARKNA":"郵局-土城貨饒郵局","LANDMARKAD":"1000113","ADDRESS":"新北市土城區中央路1段240號","TEL":"(02)2261-9029","COUNTYNAME":"新北市","TOWNNAME":"土城區","MARKTYPE":"994","Class":"4"},"geometry":{"x":121.44459946859722,"y":24.985002401197615}},{"attributes":{"OBJECTID":5741,"LANDMARKID":"1000100002361","LANDMARKCO":"408","LANDMARKNA":"郵局-土城青雲郵局","LANDMARKAD":"1000113","ADDRESS":"新北市土城區青雲路138號(地方法院內)","TEL":"(02)2266-7380","COUNTYNAME":"新北市","TOWNNAME":"土城區","MARKTYPE":"994","Class":"4"},"geometry":{"x":121.45830487742599,"y":24.984465320044453}},{"attributes":{"OBJECTID":5742,"LANDMARKID":"1000100002362","LANDMARKCO":"408","LANDMARKNA":"郵局-土城平和郵局","LANDMARKAD":"1000113","ADDRESS":"新北市土城區金城路3段185號","TEL":"(02)2265-9556","COUNTYNAME":"新北市","TOWNNAME":"土城區","MARKTYPE":"994","Class":"4"},"geometry":{"x":121.46959030520418,"y":24.988952210286566}},{"attributes":{"OBJECTID":5743,"LANDMARKID":"1000100002363","LANDMARKCO":"408","LANDMARKNA":"郵局-土城學府郵局","LANDMARKAD":"1000113","ADDRESS":"新北市土城區裕民路179號","TEL":"(02)8262-1088","COUNTYNAME":"新北市","TOWNNAME":"土城區","MARKTYPE":"994","Class":"4"},"geometry":{"x":121.45342357691997,"y":24.984757595750153}},{"attributes":{"OBJECTID":5744,"LANDMARKID":"1000100002364","LANDMARKCO":"408","LANDMARKNA":"郵局-土城工業區郵局","LANDMARKAD":"1000113","ADDRESS":"新北市土城區三民路4號","TEL":"(02)2268-6014","COUNTYNAME":"新北市","TOWNNAME":"土城區","MARKTYPE":"994","Class":"4"},"geometry":{"x":121.42076956189482,"y":24.963041340282082}},{"attributes":{"OBJECTID":5745,"LANDMARKID":"1000100002465","LANDMARKCO":"409","LANDMARKNA":"新北市土城區農會","LANDMARKAD":"1000113","ADDRESS":"新北市土城區中正路一段5號","TEL":"02-82615266","COUNTYNAME":"新北市","TOWNNAME":"土城區","MARKTYPE":"994","Class":"4"},"geometry":{"x":121.44226377929645,"y":24.975137907986078}},{"attributes":{"OBJECTID":5746,"LANDMARKID":"1000100001865","LANDMARKCO":"404","LANDMARKNA":"台灣自來水土城服務所","LANDMARKAD":"1000113","ADDRESS":"新北市土城區學享街63號","TEL":"02-22655672","COUNTYNAME":"新北市","TOWNNAME":"土城區","MARKTYPE":"994","Class":"4"},"geometry":{"x":121.45210996429306,"y":24.986886360538044}},{"attributes":{"OBJECTID":5747,"LANDMARKID":"1000100001866","LANDMARKCO":"404","LANDMARKNA":"台灣省自來水土城服務所","LANDMARKAD":"1000113","ADDRESS":"新北市土城區學享街63號","TEL":" ","COUNTYNAME":"新北市","TOWNNAME":"土城區","MARKTYPE":"994","Class":"4"},"geometry":{"x":121.45264617112356,"y":24.986333521854508}},{"attributes":{"OBJECTID":5748,"LANDMARKID":"1000100002155","LANDMARKCO":"406","LANDMARKNA":"第一河濱公園","LANDMARKAD":"1000113","ADDRESS":"新北市土城區","TEL":" ","COUNTYNAME":"新北市","TOWNNAME":"土城區","MARKTYPE":"994","Class":"4"},"geometry":{"x":121.44144751772596,"y":24.985386407381192}},{"attributes":{"OBJECTID":5749,"LANDMARKID":"1000100002156","LANDMARKCO":"406","LANDMARKNA":"第二河濱公園","LANDMARKAD":"1000113","ADDRESS":"新北市土城區","TEL":" ","COUNTYNAME":"新北市","TOWNNAME":"土城區","MARKTYPE":"994","Class":"4"},"geometry":{"x":121.43384212688905,"y":24.974832821114322}},{"attributes":{"OBJECTID":5750,"LANDMARKID":"1000100002157","LANDMARKCO":"406","LANDMARKNA":"五號公園","LANDMARKAD":"1000113","ADDRESS":"新北市土城區","TEL":" ","COUNTYNAME":"新北市","TOWNNAME":"土城區","MARKTYPE":"994","Class":"4"},"geometry":{"x":121.44435485383259,"y":24.973642179886859}},{"attributes":{"OBJECTID":5751,"LANDMARKID":"1000100002158","LANDMARKCO":"406","LANDMARKNA":"華德公園","LANDMARKAD":"1000113","ADDRESS":"新北市土城區","TEL":" ","COUNTYNAME":"新北市","TOWNNAME":"土城區","MARKTYPE":"994","Class":"4"},"geometry":{"x":121.45346068370871,"y":24.99196314472244}},{"attributes":{"OBJECTID":5752,"LANDMARKID":"1000100002071","LANDMARKCO":"405","LANDMARKNA":"全國加油站-中華路站（台塑）","LANDMARKAD":"1000113","ADDRESS":"新北市土城區中華路二段1號","TEL":"02-82616999","COUNTYNAME":"新北市","TOWNNAME":"土城區","MARKTYPE":"994","Class":"4"},"geometry":{"x":121.43981682241906,"y":24.979153616458486}},{"attributes":{"OBJECTID":5753,"LANDMARKID":"1000100002072","LANDMARKCO":"405","LANDMARKNA":"全國加油站-美城站（台塑）","LANDMARKAD":"1000113","ADDRESS":"新北市土城區中華路二段2號","TEL":"02-22633002","COUNTYNAME":"新北市","TOWNNAME":"土城區","MARKTYPE":"994","Class":"4"},"geometry":{"x":121.43943739097843,"y":24.979314737286249}},{"attributes":{"OBJECTID":5754,"LANDMARKID":"1000100002073","LANDMARKCO":"405","LANDMARKNA":"台塑加油站-金城站(台塑)","LANDMARKAD":"1000113","ADDRESS":"新北市土城區金城路三段202-8號","TEL":"02-82618889","COUNTYNAME":"新北市","TOWNNAME":"土城區","MARKTYPE":"994","Class":"4"},"geometry":{"x":121.46902904644901,"y":24.9882503278195}},{"attributes":{"OBJECTID":5755,"LANDMARKID":"1000100002074","LANDMARKCO":"405","LANDMARKNA":"台亞加油站-土城工業區站（台塑）","LANDMARKAD":"1000113","ADDRESS":"新北市土城區中央路四段8號","TEL":"(02)2268-6757","COUNTYNAME":"新北市","TOWNNAME":"土城區","MARKTYPE":"994","Class":"4"},"geometry":{"x":121.42533310623953,"y":24.963111905083583}},{"attributes":{"OBJECTID":5756,"LANDMARKID":"1000100002075","LANDMARKCO":"405","LANDMARKNA":"台亞加油站-土城中央路站（台塑）","LANDMARKAD":"1000113","ADDRESS":"新北市土城區中央路三段83號","TEL":"(02)2267-3368","COUNTYNAME":"新北市","TOWNNAME":"土城區","MARKTYPE":"994","Class":"4"},"geometry":{"x":121.43837553522469,"y":24.968192606017556}},{"attributes":{"OBJECTID":5757,"LANDMARKID":"1000100002076","LANDMARKCO":"405","LANDMARKNA":"台亞加油站-土城城林橋站（台塑）","LANDMARKAD":"1000113","ADDRESS":"新北市土城區亞洲路9號","TEL":"(02)2267-8668","COUNTYNAME":"新北市","TOWNNAME":"土城區","MARKTYPE":"994","Class":"4"},"geometry":{"x":121.43447088968945,"y":24.972296340624972}},{"attributes":{"OBJECTID":5758,"LANDMARKID":"1000100002077","LANDMARKCO":"405","LANDMARKNA":"統一速邁樂加油站-土城中華加油站","LANDMARKAD":"1000113","ADDRESS":"新北市土城區中華路2段255號","TEL":" ","COUNTYNAME":"新北市","TOWNNAME":"土城區","MARKTYPE":"994","Class":"4"},"geometry":{"x":121.43770679018132,"y":24.971892172798505}},{"attributes":{"OBJECTID":5759,"LANDMARKID":"1000100000059","LANDMARKCO":"103","LANDMARKNA":"新北市土城區市民代表會","LANDMARKAD":"1000113","ADDRESS":"新北市土城區金城路一段101號6樓","TEL":"02-22732088","COUNTYNAME":"新北市","TOWNNAME":"土城區","MARKTYPE":"991","Class":"1"},"geometry":{"x":121.44330983969496,"y":24.972271999713726}},{"attributes":{"OBJECTID":5760,"LANDMARKID":"1000100000426","LANDMARKCO":"108","LANDMARKNA":"新北市土城區公所","LANDMARKAD":"1000113","ADDRESS":"新北市土城區金城路一段101號","TEL":"02-22732000","COUNTYNAME":"新北市","TOWNNAME":"土城區","MARKTYPE":"991","Class":"1"},"geometry":{"x":121.44330983969496,"y":24.972271999713726}},{"attributes":{"OBJECTID":5761,"LANDMARKID":"1000100000193","LANDMARKCO":"107","LANDMARKNA":"新北市政府警察局頂埔派出所","LANDMARKAD":"1000113","ADDRESS":"新北市土城區頂埔里中央路三段一六四號","TEL":"0222681220","COUNTYNAME":"新北市","TOWNNAME":"土城區","MARKTYPE":"991","Class":"1"},"geometry":{"x":121.43386398852932,"y":24.965712558173578}},{"attributes":{"OBJECTID":5762,"LANDMARKID":"1000100000060","LANDMARKCO":"103","LANDMARKNA":"新北市土城巿衛生所","LANDMARKAD":"1000113","ADDRESS":"新北市土城區和平路26號","TEL":"02-22603181","COUNTYNAME":"新北市","TOWNNAME":"土城區","MARKTYPE":"991","Class":"1"},"geometry":{"x":121.44319126270359,"y":24.972853168369781}},{"attributes":{"OBJECTID":5763,"LANDMARKID":"1000100000226","LANDMARKCO":"107","LANDMARKNA":"新北市消防局土城分隊","LANDMARKAD":"1000113","ADDRESS":"新北市土城區和平路21號","TEL":"02-22602524","COUNTYNAME":"新北市","TOWNNAME":"土城區","MARKTYPE":"991","Class":"1"},"geometry":{"x":121.44324987386248,"y":24.973194605344062}},{"attributes":{"OBJECTID":5764,"LANDMARKID":"1000100000227","LANDMARKCO":"107","LANDMARKNA":"新北市消防局清水分隊","LANDMARKAD":"1000113","ADDRESS":"新北市土城區青雲路35號","TEL":"02-22615281","COUNTYNAME":"新北市","TOWNNAME":"土城區","MARKTYPE":"991","Class":"1"},"geometry":{"x":121.46009659434333,"y":24.988522326807477}},{"attributes":{"OBJECTID":5765,"LANDMARKID":"1000100000228","LANDMARKCO":"107","LANDMARKNA":"新北市消防局頂埔分隊","LANDMARKAD":"1000113","ADDRESS":"新北市土城區中山路49號","TEL":"02-22681574","COUNTYNAME":"新北市","TOWNNAME":"土城區","MARKTYPE":"991","Class":"1"},"geometry":{"x":121.42144091144647,"y":24.963083698505262}},{"attributes":{"OBJECTID":5766,"LANDMARKID":"1000100000229","LANDMARKCO":"107","LANDMARKNA":"新北市政府警察局土城分局","LANDMARKAD":"1000113","ADDRESS":"新北市土城區和平路22號","TEL":"02-22665929","COUNTYNAME":"新北市","TOWNNAME":"土城區","MARKTYPE":"991","Class":"1"},"geometry":{"x":121.44293002171712,"y":24.973277032636869}},{"attributes":{"OBJECTID":5767,"LANDMARKID":"1000100000230","LANDMARKCO":"107","LANDMARKNA":"新北市政府警察局土城派出所","LANDMARKAD":"1000113","ADDRESS":"新北市土城區土城里和平路22號","TEL":"02-22656058","COUNTYNAME":"新北市","TOWNNAME":"土城區","MARKTYPE":"991","Class":"1"},"geometry":{"x":121.44293002171712,"y":24.973277032636869}},{"attributes":{"OBJECTID":5768,"LANDMARKID":"1000100000231","LANDMARKCO":"107","LANDMARKNA":"新北市政府警察局廣福派出所","LANDMARKAD":"1000113","ADDRESS":"新北市土城區學府路一段103號","TEL":"02-22701588","COUNTYNAME":"新北市","TOWNNAME":"土城區","MARKTYPE":"991","Class":"1"},"geometry":{"x":121.45598551359312,"y":24.98769602324003}},{"attributes":{"OBJECTID":5769,"LANDMARKID":"1000100000232","LANDMARKCO":"107","LANDMARKNA":"新北市政府警察局清水派出所","LANDMARKAD":"1000113","ADDRESS":"新北市土城區青雲路220號","TEL":"02-22615479","COUNTYNAME":"新北市","TOWNNAME":"土城區","MARKTYPE":"991","Class":"1"},"geometry":{"x":121.45889472355971,"y":24.98129462851691}},{"attributes":{"OBJECTID":5770,"LANDMARKID":"1000100000171","LANDMARKCO":"106","LANDMARKNA":"新北市土城區戶政事務所","LANDMARKAD":"1000113","ADDRESS":"新北市土城區埤塘里5鄰和平路28號","TEL":"02-22605640","COUNTYNAME":"新北市","TOWNNAME":"土城區","MARKTYPE":"991","Class":"1"},"geometry":{"x":121.44326038001822,"y":24.972635824386462}},{"attributes":{"OBJECTID":5771,"LANDMARKID":"1000100000035","LANDMARKCO":"101","LANDMARKNA":"台灣板橋地方法院","LANDMARKAD":"1000113","ADDRESS":"新北市土城區青雲路138號","TEL":"02-22616714","COUNTYNAME":"新北市","TOWNNAME":"土城區","MARKTYPE":"991","Class":"1"},"geometry":{"x":121.45830618370313,"y":24.984467925175871}},{"attributes":{"OBJECTID":5772,"LANDMARKID":"1000100000036","LANDMARKCO":"101","LANDMARKNA":"台灣台北看守所","LANDMARKAD":"1000113","ADDRESS":"新北市土城區立德路2號","TEL":"02-22611711","COUNTYNAME":"新北市","TOWNNAME":"土城區","MARKTYPE":"991","Class":"1"},"geometry":{"x":121.46138346736363,"y":24.987840896493182}},{"attributes":{"OBJECTID":5773,"LANDMARKID":"1000100000037","LANDMARKCO":"101","LANDMARKNA":"台灣台北少年觀護所","LANDMARKAD":"1000113","ADDRESS":"新北市土城區石門路4號","TEL":"02-22611181","COUNTYNAME":"新北市","TOWNNAME":"土城區","MARKTYPE":"991","Class":"1"},"geometry":{"x":121.45902264648149,"y":24.969093260502735}},{"attributes":{"OBJECTID":5774,"LANDMARKID":"1000100000038","LANDMARKCO":"101","LANDMARKNA":"工業局土城工業區服務中心","LANDMARKAD":"1000113","ADDRESS":"新北市土城區三民路4號","TEL":"02-22683684","COUNTYNAME":"新北市","TOWNNAME":"土城區","MARKTYPE":"991","Class":"1"},"geometry":{"x":121.42106596162562,"y":24.963287757039442}},{"attributes":{"OBJECTID":5775,"LANDMARKID":"1000100000039","LANDMARKCO":"101","LANDMARKNA":"台灣士林看守所","LANDMARKAD":"1000113","ADDRESS":"新北市土城區青雲路33號","TEL":"02-22748872","COUNTYNAME":"新北市","TOWNNAME":"土城區","MARKTYPE":"991","Class":"1"},"geometry":{"x":121.46048252215402,"y":24.98869911518101}},{"attributes":{"OBJECTID":5776,"LANDMARKID":"1000100000894","LANDMARKCO":"205","LANDMARKNA":"牛軋糖博物館","LANDMARKAD":"1000113","ADDRESS":"新北市土城區自強街31之2號","TEL":"02-22687222","COUNTYNAME":"新北市","TOWNNAME":"土城區","MARKTYPE":"992","Class":"2"},"geometry":{"x":121.43308168591315,"y":24.972040435038718}},{"attributes":{"OBJECTID":5777,"LANDMARKID":"1000100000881","LANDMARKCO":"204","LANDMARKNA":"新北市立圖書館土城分館","LANDMARKAD":"1000113","ADDRESS":"新北市土城區和平路19號2樓","TEL":" ","COUNTYNAME":"新北市","TOWNNAME":"土城區","MARKTYPE":"992","Class":"2"},"geometry":{"x":121.4432680626456,"y":24.973385346792284}},{"attributes":{"OBJECTID":5778,"LANDMARKID":"1000100000882","LANDMARKCO":"204","LANDMARKNA":"新北市立圖書館土城清水分館","LANDMARKAD":"1000113","ADDRESS":"新北市土城區清水路243之1號2樓","TEL":" ","COUNTYNAME":"新北市","TOWNNAME":"土城區","MARKTYPE":"992","Class":"2"},"geometry":{"x":121.46151843514387,"y":24.983397620683284}},{"attributes":{"OBJECTID":5779,"LANDMARKID":"1000100000883","LANDMARKCO":"204","LANDMARKNA":"新北市立圖書館土城頂埔分館","LANDMARKAD":"1000113","ADDRESS":"新北市土城區頂福村中州路28巷30號4樓","TEL":" ","COUNTYNAME":"新北市","TOWNNAME":"土城區","MARKTYPE":"992","Class":"2"},"geometry":{"x":121.41455661825366,"y":24.957749502042905}},{"attributes":{"OBJECTID":5780,"LANDMARKID":"1000100000884","LANDMARKCO":"204","LANDMARKNA":"新北市立圖書館柑林埤閱覽室","LANDMARKAD":"1000113","ADDRESS":"新北市土城區學亨街55號3樓","TEL":" ","COUNTYNAME":"新北市","TOWNNAME":"土城區","MARKTYPE":"992","Class":"2"},"geometry":{"x":121.45169225699446,"y":24.987368662253221}},{"attributes":{"OBJECTID":5781,"LANDMARKID":"1000100000885","LANDMARKCO":"204","LANDMARKNA":"新北市立圖書館祖田圖書館","LANDMARKAD":"1000113","ADDRESS":"新北市土城區中央路四段283之1號4樓","TEL":" ","COUNTYNAME":"新北市","TOWNNAME":"土城區","MARKTYPE":"992","Class":"2"},"geometry":{"x":121.41146442001636,"y":24.951840753159601}},{"attributes":{"OBJECTID":5782,"LANDMARKID":"1000100000506","LANDMARKCO":"202","LANDMARKNA":"私立中華高中","LANDMARKAD":"1000113","ADDRESS":"新北市土城區城林路60號","TEL":"02-22603021","COUNTYNAME":"新北市","TOWNNAME":"土城區","MARKTYPE":"992","Class":"2"},"geometry":{"x":121.43783254119708,"y":24.976441045433191}},{"attributes":{"OBJECTID":5783,"LANDMARKID":"1000100000507","LANDMARKCO":"202","LANDMARKNA":"縣立清水高中","LANDMARKAD":"1000113","ADDRESS":"新北市土城區明德路一段72號","TEL":"02-22707801","COUNTYNAME":"新北市","TOWNNAME":"土城區","MARKTYPE":"992","Class":"2"},"geometry":{"x":121.46531694363098,"y":24.982009096017759}},{"attributes":{"OBJECTID":5784,"LANDMARKID":"1000100000508","LANDMARKCO":"202","LANDMARKNA":"國立海山高工","LANDMARKAD":"1000113","ADDRESS":"新北市土城區學府路一段241號","TEL":"02-22612483","COUNTYNAME":"新北市","TOWNNAME":"土城區","MARKTYPE":"992","Class":"2"},"geometry":{"x":121.45039028423339,"y":24.983306419102732}},{"attributes":{"OBJECTID":5785,"LANDMARKID":"1000100000553","LANDMARKCO":"203","LANDMARKNA":"縣立土城國中","LANDMARKAD":"1000113","ADDRESS":"新北市土城區永寧路18號","TEL":"02-22675135","COUNTYNAME":"新北市","TOWNNAME":"土城區","MARKTYPE":"992","Class":"2"},"geometry":{"x":121.43017577807184,"y":24.96240856742315}},{"attributes":{"OBJECTID":5786,"LANDMARKID":"1000100000554","LANDMARKCO":"203","LANDMARKNA":"縣立中正國中","LANDMARKAD":"1000113","ADDRESS":"新北市土城區金城路二段247號","TEL":"02-22628456","COUNTYNAME":"新北市","TOWNNAME":"土城區","MARKTYPE":"992","Class":"2"},"geometry":{"x":121.45684241220282,"y":24.983452418552307}},{"attributes":{"OBJECTID":5787,"LANDMARKID":"1000100000555","LANDMARKCO":"203","LANDMARKNA":"縣立頂埔國小","LANDMARKAD":"1000113","ADDRESS":"新北市土城區頂福村中央路四段205號","TEL":"02-22686800","COUNTYNAME":"新北市","TOWNNAME":"土城區","MARKTYPE":"992","Class":"2"},"geometry":{"x":121.41433398367199,"y":24.956199976374162}},{"attributes":{"OBJECTID":5788,"LANDMARKID":"1000100000556","LANDMARKCO":"203","LANDMARKNA":"縣立安和國小","LANDMARKAD":"1000113","ADDRESS":"新北市土城區延和路23號","TEL":"02-22603451","COUNTYNAME":"新北市","TOWNNAME":"土城區","MARKTYPE":"992","Class":"2"},"geometry":{"x":121.46478450400575,"y":24.98880451323706}},{"attributes":{"OBJECTID":5789,"LANDMARKID":"1000100000557","LANDMARKCO":"203","LANDMARKNA":"縣立清水國小","LANDMARKAD":"1000113","ADDRESS":"新北市土城區金城路二段205號","TEL":"02-22665501","COUNTYNAME":"新北市","TOWNNAME":"土城區","MARKTYPE":"992","Class":"2"},"geometry":{"x":121.45473225410821,"y":24.981973680792972}},{"attributes":{"OBJECTID":5790,"LANDMARKID":"1000100000558","LANDMARKCO":"203","LANDMARKNA":"縣立樂利國小","LANDMARKAD":"1000113","ADDRESS":"新北市土城區裕民路65號","TEL":"02-22662556","COUNTYNAME":"新北市","TOWNNAME":"土城區","MARKTYPE":"992","Class":"2"},"geometry":{"x":121.44941862024275,"y":24.987748112441967}},{"attributes":{"OBJECTID":5791,"LANDMARKID":"1000100000559","LANDMARKCO":"203","LANDMARKNA":"縣立廣福國小","LANDMARKAD":"1000113","ADDRESS":"新北市土城區學府路一段127號","TEL":"02-22626782","COUNTYNAME":"新北市","TOWNNAME":"土城區","MARKTYPE":"992","Class":"2"},"geometry":{"x":121.45489884209999,"y":24.986946381468005}},{"attributes":{"OBJECTID":5792,"LANDMARKID":"1000100000560","LANDMARKCO":"203","LANDMARKNA":"縣立土城國小","LANDMARKAD":"1000113","ADDRESS":"新北市土城區興城路17號","TEL":"02-22606617","COUNTYNAME":"新北市","TOWNNAME":"土城區","MARKTYPE":"992","Class":"2"},"geometry":{"x":121.44193534532215,"y":24.972381898836773}},{"attributes":{"OBJECTID":5793,"LANDMARKID":"1000100000434","LANDMARKCO":"201","LANDMARKNA":"德霖技術學院","LANDMARKAD":"1000113","ADDRESS":"新北市土城區青雲路380巷1號","TEL":"02-22733567","COUNTYNAME":"新北市","TOWNNAME":"土城區","MARKTYPE":"992","Class":"2"},"geometry":{"x":121.4564425410463,"y":24.97352459965153}},{"attributes":{"OBJECTID":5794,"LANDMARKID":"1000100000572","LANDMARKCO":"203","LANDMARKNA":"縣立民權國小","LANDMARKAD":"1000113","ADDRESS":"新北市土城區","TEL":" ","COUNTYNAME":"新北市","TOWNNAME":"土城區","MARKTYPE":"992","Class":"2"},"geometry":{"x":121.41584494617933,"y":24.96232931415847}},{"attributes":{"OBJECTID":5795,"LANDMARKID":"1000100001533","LANDMARKCO":"308","LANDMARKNA":"國3-土城交流道-南下","LANDMARKAD":"1000113","ADDRESS":"新北市土城區","TEL":" ","COUNTYNAME":"新北市","TOWNNAME":"土城區","MARKTYPE":"993","Class":"308"},"geometry":{"x":121.43062986116942,"y":24.960319657687112}},{"attributes":{"OBJECTID":5796,"LANDMARKID":"1000100001534","LANDMARKCO":"308","LANDMARKNA":"國3-土城交流道-北上","LANDMARKAD":"1000113","ADDRESS":"新北市土城區","TEL":" ","COUNTYNAME":"新北市","TOWNNAME":"土城區","MARKTYPE":"993","Class":"308"},"geometry":{"x":121.43061972002042,"y":24.959684310157375}},{"attributes":{"OBJECTID":5797,"LANDMARKID":"1000100001468","LANDMARKCO":"306","LANDMARKNA":"海山捷運站-出口2","LANDMARKAD":"1000113","ADDRESS":" ","TEL":" ","COUNTYNAME":"新北市","TOWNNAME":"土城區","MARKTYPE":"993","Class":"306"},"geometry":{"x":121.44927198674489,"y":24.985007556170029}},{"attributes":{"OBJECTID":5798,"LANDMARKID":"1000100001469","LANDMARKCO":"306","LANDMARKNA":"海山捷運站-出口3","LANDMARKAD":"1000113","ADDRESS":" ","TEL":" ","COUNTYNAME":"新北市","TOWNNAME":"土城區","MARKTYPE":"993","Class":"306"},"geometry":{"x":121.44936394066792,"y":24.98557724367117}},{"attributes":{"OBJECTID":5799,"LANDMARKID":"1000100001470","LANDMARKCO":"306","LANDMARKNA":"海山捷運站-出口1","LANDMARKAD":"1000113","ADDRESS":" ","TEL":" ","COUNTYNAME":"新北市","TOWNNAME":"土城區","MARKTYPE":"993","Class":"306"},"geometry":{"x":121.4489395800348,"y":24.985082927418883}},{"attributes":{"OBJECTID":5800,"LANDMARKID":"1000100001471","LANDMARKCO":"306","LANDMARKNA":"土城捷運站-出口1","LANDMARKAD":"1000113","ADDRESS":" ","TEL":" ","COUNTYNAME":"新北市","TOWNNAME":"土城區","MARKTYPE":"993","Class":"306"},"geometry":{"x":121.44411294617602,"y":24.973176397248185}}]}