{"displayFieldName":"COUNTYNAME","fieldAliases":{"OBJECTID":"OBJECTID","LANDMARKID":"LANDMARKID","LANDMARKCO":"LANDMARKCO","LANDMARKNA":"LANDMARKNA","LANDMARKAD":"LANDMARKAD","ADDRESS":"ADDRESS","TEL":"TEL","COUNTYNAME":"COUNTYNAME","TOWNNAME":"TOWNNAME","MARKTYPE":"MARKTYPE","Class":"Class"},"geometryType":"esriGeometryPoint","spatialReference":{"wkid":102443},"fields":[{"name":"OBJECTID","type":"esriFieldTypeOID","alias":"OBJECTID"},{"name":"LANDMARKID","type":"esriFieldTypeString","alias":"LANDMARKID","length":15},{"name":"LANDMARKCO","type":"esriFieldTypeString","alias":"LANDMARKCO","length":15},{"name":"LANDMARKNA","type":"esriFieldTypeString","alias":"LANDMARKNA","length":50},{"name":"LANDMARKAD","type":"esriFieldTypeString","alias":"LANDMARKAD","length":15},{"name":"ADDRESS","type":"esriFieldTypeString","alias":"ADDRESS","length":56},{"name":"TEL","type":"esriFieldTypeString","alias":"TEL","length":36},{"name":"COUNTYNAME","type":"esriFieldTypeString","alias":"COUNTYNAME","length":15},{"name":"TOWNNAME","type":"esriFieldTypeString","alias":"TOWNNAME","length":13},{"name":"MARKTYPE","type":"esriFieldTypeString","alias":"MARKTYPE","length":12},{"name":"Class","type":"esriFieldTypeString","alias":"Class","length":5}],"features":[{"attributes":{"OBJECTID":26201,"LANDMARKID":"1001000000046","LANDMARKCO":"103","LANDMARKNA":"嘉義縣政府民政局","LANDMARKAD":"1001001","ADDRESS":"嘉義縣太保市東勢里祥和新村祥和一路東段1號","TEL":"05-3620123#428","COUNTYNAME":"嘉義縣","TOWNNAME":"太保市","MARKTYPE":"991","Class":"1"},"geometry":{"x":177724.58139999956,"y":2595300.4564999994}},{"attributes":{"OBJECTID":26202,"LANDMARKID":"1001000000004","LANDMARKCO":"101","LANDMARKNA":"職業訓練局朴子就業服務站","LANDMARKAD":"1001001","ADDRESS":"嘉義縣朴子市嘉朴路西段87及89號","TEL":"05-3621632-3","COUNTYNAME":"嘉義縣","TOWNNAME":"太保市","MARKTYPE":"991","Class":"1"},"geometry":{"x":177659.92690000031,"y":2595230.1385999992}},{"attributes":{"OBJECTID":26203,"LANDMARKID":"1001000000005","LANDMARKCO":"101","LANDMARKNA":"工業局嘉太工業區服務中心","LANDMARKAD":"1001001","ADDRESS":"嘉義縣太保市嘉太工業區中興路1號","TEL":"05-2373248","COUNTYNAME":"嘉義縣","TOWNNAME":"太保市","MARKTYPE":"991","Class":"1"},"geometry":{"x":184920.81599999964,"y":2600759.9199000001}},{"attributes":{"OBJECTID":26204,"LANDMARKID":"1001000000461","LANDMARKCO":"204","LANDMARKNA":"嘉義縣立圖書館太保分館","LANDMARKAD":"1001001","ADDRESS":"嘉義縣太保市太保里31號","TEL":" ","COUNTYNAME":"嘉義縣","TOWNNAME":"太保市","MARKTYPE":"992","Class":"2"},"geometry":{"x":181718.74739999976,"y":2594918.5581}},{"attributes":{"OBJECTID":26205,"LANDMARKID":"1001000000266","LANDMARKCO":"203","LANDMARKNA":"縣立嘉新國中","LANDMARKAD":"1001001","ADDRESS":"嘉義縣太保市中山路一段586巷7號","TEL":"05-2381479","COUNTYNAME":"嘉義縣","TOWNNAME":"太保市","MARKTYPE":"992","Class":"2"},"geometry":{"x":186549.5689000003,"y":2599795.2402999997}},{"attributes":{"OBJECTID":26206,"LANDMARKID":"1001000000267","LANDMARKCO":"203","LANDMARKNA":"縣立南新國小","LANDMARKAD":"1001001","ADDRESS":"嘉義縣太保市中山路一段140號","TEL":"05-2373005","COUNTYNAME":"嘉義縣","TOWNNAME":"太保市","MARKTYPE":"992","Class":"2"},"geometry":{"x":187055.56219999958,"y":2599461.6684000008}},{"attributes":{"OBJECTID":26207,"LANDMARKID":"1001000000268","LANDMARKCO":"203","LANDMARKNA":"縣立新埤國小瓦厝分班","LANDMARKAD":"1001001","ADDRESS":"嘉義縣太保市過溝里瓦厝25號","TEL":"05-3611506","COUNTYNAME":"嘉義縣","TOWNNAME":"太保市","MARKTYPE":"992","Class":"2"},"geometry":{"x":183907.92129999958,"y":2598833.0733000003}},{"attributes":{"OBJECTID":26208,"LANDMARKID":"1001000000221","LANDMARKCO":"201","LANDMARKNA":"大同技術學院太保校區","LANDMARKAD":"1001001","ADDRESS":"嘉義縣太保市學府路一段30號","TEL":"05-3621100","COUNTYNAME":"嘉義縣","TOWNNAME":"太保市","MARKTYPE":"992","Class":"2"},"geometry":{"x":177631.39960000012,"y":2594461.4860999994}},{"attributes":{"OBJECTID":26209,"LANDMARKID":"1001000000261","LANDMARKCO":"203","LANDMARKNA":"縣立南新國小麻寮分班","LANDMARKAD":"1001001","ADDRESS":"嘉義縣太保市麻寮里中山路二段","TEL":"05-2373415","COUNTYNAME":"嘉義縣","TOWNNAME":"太保市","MARKTYPE":"992","Class":"2"},"geometry":{"x":185480.88210000005,"y":2599820.7324999999}},{"attributes":{"OBJECTID":26210,"LANDMARKID":"1001000000262","LANDMARKCO":"203","LANDMARKNA":"縣立太保國中","LANDMARKAD":"1001001","ADDRESS":"嘉義縣太保市太保里36號","TEL":"05-3714329","COUNTYNAME":"嘉義縣","TOWNNAME":"太保市","MARKTYPE":"992","Class":"2"},"geometry":{"x":181478.70289999992,"y":2594860.7486000005}},{"attributes":{"OBJECTID":26211,"LANDMARKID":"1001000000263","LANDMARKCO":"203","LANDMARKNA":"縣立安東國小","LANDMARKAD":"1001001","ADDRESS":"嘉義縣太保市崙頂村1號","TEL":"05-3714068","COUNTYNAME":"嘉義縣","TOWNNAME":"太保市","MARKTYPE":"992","Class":"2"},"geometry":{"x":179297.89030000009,"y":2595231.1905000005}},{"attributes":{"OBJECTID":26212,"LANDMARKID":"1001000000264","LANDMARKCO":"203","LANDMARKNA":"縣立新埤國小","LANDMARKAD":"1001001","ADDRESS":"嘉義縣太保市新埤村214號","TEL":"05-3611075","COUNTYNAME":"嘉義縣","TOWNNAME":"太保市","MARKTYPE":"992","Class":"2"},"geometry":{"x":181980.0421000002,"y":2598170.3640000001}},{"attributes":{"OBJECTID":26213,"LANDMARKID":"1001000000265","LANDMARKCO":"203","LANDMARKNA":"縣立太保國小","LANDMARKAD":"1001001","ADDRESS":"嘉義縣太保市太保村31號","TEL":"05-3711178","COUNTYNAME":"嘉義縣","TOWNNAME":"太保市","MARKTYPE":"992","Class":"2"},"geometry":{"x":181626.88839999959,"y":2594820.1155999992}},{"attributes":{"OBJECTID":26214,"LANDMARKID":"1001000000529","LANDMARKCO":"307","LANDMARKNA":"高鐵嘉義站(太保站)-出口1","LANDMARKAD":"1001001","ADDRESS":" ","TEL":" ","COUNTYNAME":"嘉義縣","TOWNNAME":"太保市","MARKTYPE":"993","Class":"307"},"geometry":{"x":180875.13179999962,"y":2595274.9990999997}},{"attributes":{"OBJECTID":26215,"LANDMARKID":"1001000000530","LANDMARKCO":"307","LANDMARKNA":"高鐵嘉義站(太保站)-出口2","LANDMARKAD":"1001001","ADDRESS":" ","TEL":" ","COUNTYNAME":"嘉義縣","TOWNNAME":"太保市","MARKTYPE":"993","Class":"307"},"geometry":{"x":180815.05929999985,"y":2595251.7572000008}},{"attributes":{"OBJECTID":26216,"LANDMARKID":"1001000000531","LANDMARKCO":"307","LANDMARKNA":"高鐵嘉義站(太保站)-出口3","LANDMARKAD":"1001001","ADDRESS":" ","TEL":" ","COUNTYNAME":"嘉義縣","TOWNNAME":"太保市","MARKTYPE":"993","Class":"307"},"geometry":{"x":180823.29440000001,"y":2595349.8953000009}},{"attributes":{"OBJECTID":26217,"LANDMARKID":"1001000000532","LANDMARKCO":"307","LANDMARKNA":"高鐵嘉義站(太保站)-出口4","LANDMARKAD":"1001001","ADDRESS":" ","TEL":" ","COUNTYNAME":"嘉義縣","TOWNNAME":"太保市","MARKTYPE":"993","Class":"307"},"geometry":{"x":180877.01130000036,"y":2595319.1875}},{"attributes":{"OBJECTID":26218,"LANDMARKID":"1001000000490","LANDMARKCO":"302","LANDMARKNA":"統聯客運-嘉義縣府站-代售處","LANDMARKAD":"1001001","ADDRESS":"嘉義縣太保市嘉朴東路一段64號","TEL":"連絡電話:05-362","COUNTYNAME":"嘉義縣","TOWNNAME":"太保市","MARKTYPE":"993","Class":"302"},"geometry":{"x":178211.19689999986,"y":2595325.1470999997}},{"attributes":{"OBJECTID":26219,"LANDMARKID":"1001000000497","LANDMARKCO":"303","LANDMARKNA":"嘉義縣政府地下停車場","LANDMARKAD":"1001001","ADDRESS":"嘉義縣太保市祥和一路東段","TEL":" ","COUNTYNAME":"嘉義縣","TOWNNAME":"太保市","MARKTYPE":"993","Class":"303"},"geometry":{"x":177823.3049999997,"y":2595341.1635999996}},{"attributes":{"OBJECTID":26220,"LANDMARKID":"1001000000571","LANDMARKCO":"402","LANDMARKNA":"中華電信-太保服務中心","LANDMARKAD":"1001001","ADDRESS":"嘉義縣太保市後潭里376號","TEL":"(05)344-1951","COUNTYNAME":"嘉義縣","TOWNNAME":"太保市","MARKTYPE":"994","Class":"4"},"geometry":{"x":182543.41830000002,"y":2594548.7552000005}},{"attributes":{"OBJECTID":26221,"LANDMARKID":"1001000000853","LANDMARKCO":"603","LANDMARKNA":"佳仕堡商務汽車飯店","LANDMARKAD":"1001001","ADDRESS":"嘉義縣太保市北港路二段218號","TEL":"05-2375311","COUNTYNAME":"嘉義縣","TOWNNAME":"太保市","MARKTYPE":"996","Class":"6"},"geometry":{"x":186294.47039999999,"y":2599604.5658999998}},{"attributes":{"OBJECTID":26222,"LANDMARKID":"1001000000854","LANDMARKCO":"603","LANDMARKNA":"向日葵汽車旅館","LANDMARKAD":"1001001","ADDRESS":"嘉義縣太保市縣府六街29號","TEL":"05-5863676","COUNTYNAME":"嘉義縣","TOWNNAME":"太保市","MARKTYPE":"996","Class":"6"},"geometry":{"x":178029.65770000033,"y":2594668.5734999999}},{"attributes":{"OBJECTID":26223,"LANDMARKID":"1001000000802","LANDMARKCO":"505","LANDMARKNA":"大嘉義主題樂園","LANDMARKAD":"1001001","ADDRESS":"嘉義縣太保市南新里中山路一段64號","TEL":" ","COUNTYNAME":"嘉義縣","TOWNNAME":"太保市","MARKTYPE":"995","Class":"5"},"geometry":{"x":187393.74540000036,"y":2599418.2854999993}},{"attributes":{"OBJECTID":26224,"LANDMARKID":"1001000000803","LANDMARKCO":"505","LANDMARKNA":"藝都表演村","LANDMARKAD":"1001001","ADDRESS":"嘉義縣太保市中山路一段64號","TEL":" ","COUNTYNAME":"嘉義縣","TOWNNAME":"太保市","MARKTYPE":"995","Class":"5"},"geometry":{"x":187057.93429999985,"y":2599432.9904999994}},{"attributes":{"OBJECTID":26225,"LANDMARKID":"1001000000609","LANDMARKCO":"405","LANDMARKNA":"中油加油站-東石站(中油直營)","LANDMARKAD":"1001009","ADDRESS":"嘉義縣東石鄉東石村4-1號","TEL":"05-3732760","COUNTYNAME":"嘉義縣","TOWNNAME":"東石鄉","MARKTYPE":"994","Class":"4"},"geometry":{"x":163911.55080000032,"y":2595756.3217999991}},{"attributes":{"OBJECTID":26226,"LANDMARKID":"1001000000610","LANDMARKCO":"405","LANDMARKNA":"中油加油站-掌潭站","LANDMARKAD":"1001009","ADDRESS":"嘉義縣東石鄉掌潭村9之66號","TEL":"05-3454047","COUNTYNAME":"嘉義縣","TOWNNAME":"東石鄉","MARKTYPE":"994","Class":"4"},"geometry":{"x":164496.55399999954,"y":2591024.9036999997}},{"attributes":{"OBJECTID":26227,"LANDMARKID":"1001000000611","LANDMARKCO":"405","LANDMARKNA":"台糖加油站-惠生站(中油)","LANDMARKAD":"1001009","ADDRESS":"嘉義縣東石鄉圍潭村14鄰雙連潭59之3號","TEL":" ","COUNTYNAME":"嘉義縣","TOWNNAME":"東石鄉","MARKTYPE":"994","Class":"4"},"geometry":{"x":168153.99050000031,"y":2595407.9433999993}},{"attributes":{"OBJECTID":26228,"LANDMARKID":"1001000000721","LANDMARKCO":"408","LANDMARKNA":"郵局-東石郵局","LANDMARKAD":"1001009","ADDRESS":"嘉義縣東石鄉東石村34號","TEL":"(05)3732-224","COUNTYNAME":"嘉義縣","TOWNNAME":"東石鄉","MARKTYPE":"994","Class":"4"},"geometry":{"x":163207.07569999993,"y":2595018.6181000005}},{"attributes":{"OBJECTID":26229,"LANDMARKID":"1001000000774","LANDMARKCO":"409","LANDMARKNA":"嘉義縣東石鄉農會","LANDMARKAD":"1001009","ADDRESS":"嘉義縣東石鄉港漧村60號","TEL":"05-3799174","COUNTYNAME":"嘉義縣","TOWNNAME":"東石鄉","MARKTYPE":"994","Class":"4"},"geometry":{"x":169850.30869999994,"y":2595757.7712999992}},{"attributes":{"OBJECTID":26230,"LANDMARKID":"1001000000602","LANDMARKCO":"404","LANDMARKNA":"台灣省自來水東石營運所","LANDMARKAD":"1001009","ADDRESS":"嘉義縣東石鄉東崙村中洲29之2號","TEL":" ","COUNTYNAME":"嘉義縣","TOWNNAME":"東石鄉","MARKTYPE":"994","Class":"4"},"geometry":{"x":167765.18589999992,"y":2593207.7368999999}},{"attributes":{"OBJECTID":26231,"LANDMARKID":"1001000000716","LANDMARKCO":"406","LANDMARKNA":"東石觀海公園","LANDMARKAD":"1001009","ADDRESS":"嘉義縣東石鄉","TEL":" ","COUNTYNAME":"嘉義縣","TOWNNAME":"東石鄉","MARKTYPE":"994","Class":"4"},"geometry":{"x":163532.50329999998,"y":2595276.5015999991}},{"attributes":{"OBJECTID":26232,"LANDMARKID":"1001000000089","LANDMARKCO":"106","LANDMARKNA":"嘉義縣東石鄉戶政事務所","LANDMARKAD":"1001009","ADDRESS":"嘉義縣東石鄉東石村14鄰東石36號之1","TEL":"05-3732355","COUNTYNAME":"嘉義縣","TOWNNAME":"東石鄉","MARKTYPE":"991","Class":"1"},"geometry":{"x":163183.5092000002,"y":2594982.8199000005}},{"attributes":{"OBJECTID":26233,"LANDMARKID":"1001000000041","LANDMARKCO":"103","LANDMARKNA":"嘉義縣東石鄉衛生所","LANDMARKAD":"1001009","ADDRESS":"嘉義縣東石鄉東石村3之2號","TEL":"05-3732340","COUNTYNAME":"嘉義縣","TOWNNAME":"東石鄉","MARKTYPE":"991","Class":"1"},"geometry":{"x":163226.79700000025,"y":2595020.4166999999}},{"attributes":{"OBJECTID":26234,"LANDMARKID":"1001000000218","LANDMARKCO":"108","LANDMARKNA":"嘉義縣東石鄉公所","LANDMARKAD":"1001009","ADDRESS":"嘉義縣東石鄉東石村3號","TEL":"05-3732201","COUNTYNAME":"嘉義縣","TOWNNAME":"東石鄉","MARKTYPE":"991","Class":"1"},"geometry":{"x":163725.3563000001,"y":2595401.6664000005}},{"attributes":{"OBJECTID":26235,"LANDMARKID":"1001000000103","LANDMARKCO":"107","LANDMARKNA":"嘉義縣警察局龍崗派出所","LANDMARKAD":"1001009","ADDRESS":"嘉義縣東石鄉東崙村62號","TEL":"05-3451740","COUNTYNAME":"嘉義縣","TOWNNAME":"東石鄉","MARKTYPE":"991","Class":"1"},"geometry":{"x":167391.44489999954,"y":2592471.5598000009}},{"attributes":{"OBJECTID":26236,"LANDMARKID":"1001000000104","LANDMARKCO":"107","LANDMARKNA":"嘉義縣警察局下楫派出所","LANDMARKAD":"1001009","ADDRESS":"嘉義縣東石鄉下揖村137號","TEL":"05-3601849","COUNTYNAME":"嘉義縣","TOWNNAME":"東石鄉","MARKTYPE":"991","Class":"1"},"geometry":{"x":167952.34350000042,"y":2598461.3220000006}},{"attributes":{"OBJECTID":26237,"LANDMARKID":"1001000000105","LANDMARKCO":"107","LANDMARKNA":"嘉義縣警察局三江派出所","LANDMARKAD":"1001009","ADDRESS":"嘉義縣東石鄉三家村1號","TEL":"05-3732501","COUNTYNAME":"嘉義縣","TOWNNAME":"東石鄉","MARKTYPE":"991","Class":"1"},"geometry":{"x":165523.64400000032,"y":2596880.4966000002}},{"attributes":{"OBJECTID":26238,"LANDMARKID":"1001000000106","LANDMARKCO":"107","LANDMARKNA":"嘉義縣警察局東石分駐所","LANDMARKAD":"1001009","ADDRESS":"嘉義縣東石鄉東石村36號","TEL":"05-3732240","COUNTYNAME":"嘉義縣","TOWNNAME":"東石鄉","MARKTYPE":"991","Class":"1"},"geometry":{"x":163160.50389999989,"y":2595070.0252999999}},{"attributes":{"OBJECTID":26239,"LANDMARKID":"1001000000107","LANDMARKCO":"107","LANDMARKNA":"嘉義縣警察局港墘派出所","LANDMARKAD":"1001009","ADDRESS":"嘉義縣東石鄉港墘村91號","TEL":"05-3793564","COUNTYNAME":"嘉義縣","TOWNNAME":"東石鄉","MARKTYPE":"991","Class":"1"},"geometry":{"x":169530.37069999985,"y":2595680.6958000008}},{"attributes":{"OBJECTID":26240,"LANDMARKID":"1001000000108","LANDMARKCO":"107","LANDMARKNA":"嘉義縣消防局東石消防分隊","LANDMARKAD":"1001009","ADDRESS":"嘉義縣東石鄉東石村43號","TEL":"05-3732502","COUNTYNAME":"嘉義縣","TOWNNAME":"東石鄉","MARKTYPE":"991","Class":"1"},"geometry":{"x":163173.44440000039,"y":2595080.1017000005}},{"attributes":{"OBJECTID":26241,"LANDMARKID":"1001000000042","LANDMARKCO":"103","LANDMARKNA":"嘉義縣東石鄉鄉民代表會","LANDMARKAD":"1001009","ADDRESS":"嘉義縣東石鄉東石村3號之6","TEL":"05-3732209","COUNTYNAME":"嘉義縣","TOWNNAME":"東石鄉","MARKTYPE":"991","Class":"1"},"geometry":{"x":163793.35450000037,"y":2595400.3971999995}},{"attributes":{"OBJECTID":26242,"LANDMARKID":"1001000000043","LANDMARKCO":"103","LANDMARKNA":"嘉義縣政府東石漁港管理站","LANDMARKAD":"1001009","ADDRESS":"嘉義縣東石鄉東石村300號","TEL":"05-3730275","COUNTYNAME":"嘉義縣","TOWNNAME":"東石鄉","MARKTYPE":"991","Class":"1"},"geometry":{"x":162093.84680000041,"y":2594570.4576999992}},{"attributes":{"OBJECTID":26243,"LANDMARKID":"1001000000459","LANDMARKCO":"204","LANDMARKNA":"嘉義縣立圖書館東石分館","LANDMARKAD":"1001009","ADDRESS":"嘉義縣東石鄉東石村11鄰3號","TEL":" ","COUNTYNAME":"嘉義縣","TOWNNAME":"東石鄉","MARKTYPE":"992","Class":"2"},"geometry":{"x":163455.65550000034,"y":2595315.6800999995}},{"attributes":{"OBJECTID":26244,"LANDMARKID":"1001000000241","LANDMARKCO":"202","LANDMARKNA":"私立嘉南高中","LANDMARKAD":"1001009","ADDRESS":"嘉義縣東石鄉蔦松村湖底路1號","TEL":"05-3703588","COUNTYNAME":"嘉義縣","TOWNNAME":"東石鄉","MARKTYPE":"992","Class":"2"},"geometry":{"x":170806.20579999965,"y":2596071.8158}},{"attributes":{"OBJECTID":26245,"LANDMARKID":"1001000000271","LANDMARKCO":"203","LANDMARKNA":"縣立下楫國小鰲鼓分校","LANDMARKAD":"1001009","ADDRESS":"嘉義縣東石鄉鰲鼓村四股17號","TEL":"05-3602550","COUNTYNAME":"嘉義縣","TOWNNAME":"東石鄉","MARKTYPE":"992","Class":"2"},"geometry":{"x":164270.80680000037,"y":2600869.6066999994}},{"attributes":{"OBJECTID":26246,"LANDMARKID":"1001000000272","LANDMARKCO":"203","LANDMARKNA":"縣立過溝國中","LANDMARKAD":"1001009","ADDRESS":"嘉義縣布袋鎮中安里","TEL":"05-3451091","COUNTYNAME":"嘉義縣","TOWNNAME":"東石鄉","MARKTYPE":"992","Class":"2"},"geometry":{"x":166521.28399999999,"y":2591271.5095000006}},{"attributes":{"OBJECTID":26247,"LANDMARKID":"1001000000273","LANDMARKCO":"203","LANDMARKNA":"縣立東榮國中","LANDMARKAD":"1001009","ADDRESS":"嘉義縣東石鄉永屯村39之2號","TEL":"05-3733803","COUNTYNAME":"嘉義縣","TOWNNAME":"東石鄉","MARKTYPE":"992","Class":"2"},"geometry":{"x":165473.29729999974,"y":2595710.2478}},{"attributes":{"OBJECTID":26248,"LANDMARKID":"1001000000274","LANDMARKCO":"203","LANDMARKNA":"縣立龍港國小","LANDMARKAD":"1001009","ADDRESS":"嘉義縣東石鄉龍港村113號","TEL":"05-3732671","COUNTYNAME":"嘉義縣","TOWNNAME":"東石鄉","MARKTYPE":"992","Class":"2"},"geometry":{"x":165964.29110000003,"y":2598171.3532999996}},{"attributes":{"OBJECTID":26249,"LANDMARKID":"1001000000275","LANDMARKCO":"203","LANDMARKNA":"縣立東石國小","LANDMARKAD":"1001009","ADDRESS":"嘉義縣東石鄉猿樹村117號","TEL":"05-3732295","COUNTYNAME":"嘉義縣","TOWNNAME":"東石鄉","MARKTYPE":"992","Class":"2"},"geometry":{"x":163567.53760000039,"y":2595540.7394999992}},{"attributes":{"OBJECTID":26250,"LANDMARKID":"1001000000276","LANDMARKCO":"203","LANDMARKNA":"縣立龍崗國小","LANDMARKAD":"1001009","ADDRESS":"嘉義縣東石鄉西崙村131號","TEL":"05-3451070","COUNTYNAME":"嘉義縣","TOWNNAME":"東石鄉","MARKTYPE":"992","Class":"2"},"geometry":{"x":166520.27269999962,"y":2592811.4550999999}},{"attributes":{"OBJECTID":26251,"LANDMARKID":"1001000000277","LANDMARKCO":"203","LANDMARKNA":"縣立下楫國小","LANDMARKAD":"1001009","ADDRESS":"嘉義縣東石鄉下楫村147號","TEL":"05-3601508","COUNTYNAME":"嘉義縣","TOWNNAME":"東石鄉","MARKTYPE":"992","Class":"2"},"geometry":{"x":166954.62330000009,"y":2599030.4883999992}},{"attributes":{"OBJECTID":26252,"LANDMARKID":"1001000000278","LANDMARKCO":"203","LANDMARKNA":"縣立塭港國小","LANDMARKAD":"1001009","ADDRESS":"嘉義縣東石鄉塭港村170號","TEL":"05-3732653","COUNTYNAME":"嘉義縣","TOWNNAME":"東石鄉","MARKTYPE":"992","Class":"2"},"geometry":{"x":162700.73419999983,"y":2596740.6121999994}},{"attributes":{"OBJECTID":26253,"LANDMARKID":"1001000000279","LANDMARKCO":"203","LANDMARKNA":"縣立網寮國小","LANDMARKAD":"1001009","ADDRESS":"嘉義縣東石鄉網寮村27號","TEL":"05-3451544","COUNTYNAME":"嘉義縣","TOWNNAME":"東石鄉","MARKTYPE":"992","Class":"2"},"geometry":{"x":163759.55289999954,"y":2592290.3044000007}},{"attributes":{"OBJECTID":26254,"LANDMARKID":"1001000000280","LANDMARKCO":"203","LANDMARKNA":"縣立港墘國小","LANDMARKAD":"1001009","ADDRESS":"嘉義縣東石鄉港墘村64號","TEL":"05-3795350","COUNTYNAME":"嘉義縣","TOWNNAME":"東石鄉","MARKTYPE":"992","Class":"2"},"geometry":{"x":169712.43819999974,"y":2595850.1381999999}},{"attributes":{"OBJECTID":26255,"LANDMARKID":"1001000000281","LANDMARKCO":"203","LANDMARKNA":"縣立三江國小","LANDMARKAD":"1001009","ADDRESS":"嘉義縣東石鄉三家村16號","TEL":"05-3732634","COUNTYNAME":"嘉義縣","TOWNNAME":"東石鄉","MARKTYPE":"992","Class":"2"},"geometry":{"x":165651.85030000005,"y":2596711.2433000002}},{"attributes":{"OBJECTID":26256,"LANDMARKID":"1001000000282","LANDMARKCO":"203","LANDMARKNA":"縣立型厝國小","LANDMARKAD":"1001009","ADDRESS":"嘉義縣東石鄉型厝村66之1號","TEL":"05-3730083","COUNTYNAME":"嘉義縣","TOWNNAME":"東石鄉","MARKTYPE":"992","Class":"2"},"geometry":{"x":163236.53589999955,"y":2596910.4101}},{"attributes":{"OBJECTID":26257,"LANDMARKID":"1001000000283","LANDMARKCO":"203","LANDMARKNA":"縣立下楫國小楫源分校","LANDMARKAD":"1001009","ADDRESS":"嘉義縣東石鄉下楫69號","TEL":"05-3601765","COUNTYNAME":"嘉義縣","TOWNNAME":"東石鄉","MARKTYPE":"992","Class":"2"},"geometry":{"x":168644.49390000012,"y":2598430.4278999995}},{"attributes":{"OBJECTID":26258,"LANDMARKID":"1001000000284","LANDMARKCO":"203","LANDMARKNA":"縣立三江國小永屯分校","LANDMARKAD":"1001009","ADDRESS":"嘉義縣東石鄉永屯村39之6號","TEL":"05-3730585","COUNTYNAME":"嘉義縣","TOWNNAME":"東石鄉","MARKTYPE":"992","Class":"2"},"geometry":{"x":165516.75600000005,"y":2595630.4976000004}},{"attributes":{"OBJECTID":26259,"LANDMARKID":"1001000000285","LANDMARKCO":"203","LANDMARKNA":"縣立港墘國小洲子分校","LANDMARKAD":"1001009","ADDRESS":"嘉義縣東石鄉洲仔村41之2號","TEL":"05-3791638","COUNTYNAME":"嘉義縣","TOWNNAME":"東石鄉","MARKTYPE":"992","Class":"2"},"geometry":{"x":167626.85199999996,"y":2594551.2168000005}},{"attributes":{"OBJECTID":26260,"LANDMARKID":"1001000000525","LANDMARKCO":"305","LANDMARKNA":"東石漁港","LANDMARKAD":"1001009","ADDRESS":"嘉義縣東石鄉","TEL":" ","COUNTYNAME":"嘉義縣","TOWNNAME":"東石鄉","MARKTYPE":"993","Class":"305"},"geometry":{"x":161630.18369999994,"y":2594697.2061999999}},{"attributes":{"OBJECTID":26261,"LANDMARKID":"1001000000526","LANDMARKCO":"305","LANDMARKNA":"網寮漁港","LANDMARKAD":"1001009","ADDRESS":"嘉義縣東石鄉","TEL":" ","COUNTYNAME":"嘉義縣","TOWNNAME":"東石鄉","MARKTYPE":"993","Class":"305"},"geometry":{"x":162835.16029999964,"y":2593002.8128999993}},{"attributes":{"OBJECTID":26262,"LANDMARKID":"1001000000527","LANDMARKCO":"305","LANDMARKNA":"塭港漁港","LANDMARKAD":"1001009","ADDRESS":"嘉義縣東石鄉","TEL":" ","COUNTYNAME":"嘉義縣","TOWNNAME":"東石鄉","MARKTYPE":"993","Class":"305"},"geometry":{"x":162983.05289999954,"y":2597025.5620000008}},{"attributes":{"OBJECTID":26263,"LANDMARKID":"1001000000528","LANDMARKCO":"305","LANDMARKNA":"白水湖漁港","LANDMARKAD":"1001009","ADDRESS":"嘉義縣東石鄉","TEL":" ","COUNTYNAME":"嘉義縣","TOWNNAME":"東石鄉","MARKTYPE":"993","Class":"305"},"geometry":{"x":162943.18740000017,"y":2591999.9432999995}},{"attributes":{"OBJECTID":26264,"LANDMARKID":"1001000000533","LANDMARKCO":"308","LANDMARKNA":"台61-白水湖交流道-南下","LANDMARKAD":"1001009","ADDRESS":" ","TEL":" ","COUNTYNAME":"嘉義縣","TOWNNAME":"東石鄉","MARKTYPE":"993","Class":"308"},"geometry":{"x":164391.62839999981,"y":2590797.9811000004}},{"attributes":{"OBJECTID":26265,"LANDMARKID":"1001000000534","LANDMARKCO":"308","LANDMARKNA":"台61-白水湖交流道-北上","LANDMARKAD":"1001009","ADDRESS":" ","TEL":" ","COUNTYNAME":"嘉義縣","TOWNNAME":"東石鄉","MARKTYPE":"993","Class":"308"},"geometry":{"x":164358.18640000001,"y":2591309.1588000003}},{"attributes":{"OBJECTID":26266,"LANDMARKID":"1001000000535","LANDMARKCO":"308","LANDMARKNA":"台61-東石二交流道-南下","LANDMARKAD":"1001009","ADDRESS":" ","TEL":" ","COUNTYNAME":"嘉義縣","TOWNNAME":"東石鄉","MARKTYPE":"993","Class":"308"},"geometry":{"x":164752.13090000022,"y":2594956.1319999993}},{"attributes":{"OBJECTID":26267,"LANDMARKID":"1001000000536","LANDMARKCO":"308","LANDMARKNA":"台61-東石一交流道-北上","LANDMARKAD":"1001009","ADDRESS":" ","TEL":" ","COUNTYNAME":"嘉義縣","TOWNNAME":"東石鄉","MARKTYPE":"993","Class":"308"},"geometry":{"x":165033.15189999994,"y":2596823.7728000004}},{"attributes":{"OBJECTID":26268,"LANDMARKID":"1001000000537","LANDMARKCO":"308","LANDMARKNA":"台61-鰲鼓交流道-北上","LANDMARKAD":"1001009","ADDRESS":" ","TEL":" ","COUNTYNAME":"嘉義縣","TOWNNAME":"東石鄉","MARKTYPE":"993","Class":"308"},"geometry":{"x":165337.74430000037,"y":2599788.9999000002}},{"attributes":{"OBJECTID":26269,"LANDMARKID":"1001000000491","LANDMARKCO":"302","LANDMARKNA":"統聯汽車客運東石站","LANDMARKAD":"1001009","ADDRESS":"嘉義縣東石鄉東石村23之1號","TEL":" ","COUNTYNAME":"嘉義縣","TOWNNAME":"東石鄉","MARKTYPE":"993","Class":"302"},"geometry":{"x":163188.07189999986,"y":2595045.7274999991}},{"attributes":{"OBJECTID":26270,"LANDMARKID":"1001000000576","LANDMARKCO":"402","LANDMARKNA":"中華電信-東石服務中心","LANDMARKAD":"1001009","ADDRESS":"嘉義縣東石鄉東石村4之4號","TEL":"(05)344-0038","COUNTYNAME":"嘉義縣","TOWNNAME":"東石鄉","MARKTYPE":"994","Class":"4"},"geometry":{"x":163554.33029999956,"y":2595407.3304999992}},{"attributes":{"OBJECTID":26271,"LANDMARKID":"1001000000916","LANDMARKCO":"604","LANDMARKNA":"船仔頭ㄟ厝","LANDMARKAD":"1001009","ADDRESS":"嘉義縣東石鄉蔦松村船仔頭22-3號","TEL":"05-3708078","COUNTYNAME":"嘉義縣","TOWNNAME":"東石鄉","MARKTYPE":"996","Class":"6"},"geometry":{"x":170772.73060000036,"y":2596672.0887000002}},{"attributes":{"OBJECTID":26272,"LANDMARKID":"1001000000795","LANDMARKCO":"503","LANDMARKNA":"觀海公園","LANDMARKAD":"1001009","ADDRESS":"嘉義縣東石鄉","TEL":" ","COUNTYNAME":"嘉義縣","TOWNNAME":"東石鄉","MARKTYPE":"995","Class":"5"},"geometry":{"x":163470.69189999998,"y":2594366.1816000007}},{"attributes":{"OBJECTID":26273,"LANDMARKID":"1001000000796","LANDMARKCO":"503","LANDMARKNA":"朴子溪紅樹林公園","LANDMARKAD":"1001009","ADDRESS":"嘉義縣東石鄉","TEL":" ","COUNTYNAME":"嘉義縣","TOWNNAME":"東石鄉","MARKTYPE":"995","Class":"5"},"geometry":{"x":165848.05420000013,"y":2595470.5537}},{"attributes":{"OBJECTID":26274,"LANDMARKID":"1001000000800","LANDMARKCO":"505","LANDMARKNA":"船仔頭文教基金會","LANDMARKAD":"1001009","ADDRESS":"嘉義縣東石鄉蔦松村船仔頭13號","TEL":" ","COUNTYNAME":"嘉義縣","TOWNNAME":"東石鄉","MARKTYPE":"995","Class":"5"},"geometry":{"x":170787.79440000001,"y":2596576.0678000003}},{"attributes":{"OBJECTID":26275,"LANDMARKID":"1001000000638","LANDMARKCO":"405","LANDMARKNA":"中油加油站-北基阿里山站","LANDMARKAD":"1001018","ADDRESS":"嘉義縣公田村隙頂56號之5","TEL":"05-2586018","COUNTYNAME":"嘉義縣","TOWNNAME":"阿里山鄉","MARKTYPE":"994","Class":"4"},"geometry":{"x":229742.45839999989,"y":2600564.4489999991}},{"attributes":{"OBJECTID":26276,"LANDMARKID":"1001000000639","LANDMARKCO":"405","LANDMARKNA":"中油加油站-阿里山站(中油直營)","LANDMARKAD":"1001018","ADDRESS":"嘉義縣阿里山鄉中山村南阿里山74號","TEL":"05-2679944","COUNTYNAME":"嘉義縣","TOWNNAME":"阿里山鄉","MARKTYPE":"994","Class":"4"},"geometry":{"x":229730.04629999958,"y":2600571.3101000004}},{"attributes":{"OBJECTID":26277,"LANDMARKID":"1001000000729","LANDMARKCO":"408","LANDMARKNA":"郵局-阿里山郵局","LANDMARKAD":"1001018","ADDRESS":"嘉義縣阿里山鄉中正村2鄰東阿里山39號","TEL":"(05)2679-970","COUNTYNAME":"嘉義縣","TOWNNAME":"阿里山鄉","MARKTYPE":"994","Class":"4"},"geometry":{"x":230039.15730000008,"y":2600919.5377999991}},{"attributes":{"OBJECTID":26278,"LANDMARKID":"1001000000770","LANDMARKCO":"409","LANDMARKNA":"嘉義縣阿里山鄉農會","LANDMARKAD":"1001018","ADDRESS":"嘉義縣阿里山鄉樂野村4鄰114號","TEL":"05-2562332","COUNTYNAME":"嘉義縣","TOWNNAME":"阿里山鄉","MARKTYPE":"994","Class":"4"},"geometry":{"x":219723.42679999955,"y":2596616.9100000001}},{"attributes":{"OBJECTID":26279,"LANDMARKID":"1001000000713","LANDMARKCO":"406","LANDMARKNA":"自然公園","LANDMARKAD":"1001018","ADDRESS":"嘉義縣阿里山鄉","TEL":" ","COUNTYNAME":"嘉義縣","TOWNNAME":"阿里山鄉","MARKTYPE":"994","Class":"4"},"geometry":{"x":230970.78000000026,"y":2601352.6102000009}},{"attributes":{"OBJECTID":26280,"LANDMARKID":"1001000000044","LANDMARKCO":"103","LANDMARKNA":"嘉義縣阿里山鄉衛生所","LANDMARKAD":"1001018","ADDRESS":"嘉義縣阿里山鄉達邦村4鄰85號","TEL":"05-2511007","COUNTYNAME":"嘉義縣","TOWNNAME":"阿里山鄉","MARKTYPE":"991","Class":"1"},"geometry":{"x":224190.48170000035,"y":2594740.0360000003}},{"attributes":{"OBJECTID":26281,"LANDMARKID":"1001000000217","LANDMARKCO":"108","LANDMARKNA":"嘉義縣阿里山鄉公所","LANDMARKAD":"1001018","ADDRESS":"嘉義縣阿里山鄉樂野村2鄰69號","TEL":"05-2562547","COUNTYNAME":"嘉義縣","TOWNNAME":"阿里山鄉","MARKTYPE":"991","Class":"1"},"geometry":{"x":224228.51730000041,"y":2594720.1027000006}},{"attributes":{"OBJECTID":26282,"LANDMARKID":"1001000000040","LANDMARKCO":"103","LANDMARKNA":"嘉義縣阿里山鄉民代表會","LANDMARKAD":"1001018","ADDRESS":"嘉義縣阿里山鄉樂野村69號","TEL":"05-2511003","COUNTYNAME":"嘉義縣","TOWNNAME":"阿里山鄉","MARKTYPE":"991","Class":"1"},"geometry":{"x":224494.76429999992,"y":2594580.0713}},{"attributes":{"OBJECTID":26283,"LANDMARKID":"1001000000116","LANDMARKCO":"107","LANDMARKNA":"嘉義縣警察局新美派出所","LANDMARKAD":"1001018","ADDRESS":"嘉義縣阿里山鄉新美村56號","TEL":"05-2513079","COUNTYNAME":"嘉義縣","TOWNNAME":"阿里山鄉","MARKTYPE":"991","Class":"1"},"geometry":{"x":217635.73280000035,"y":2581660.0450999998}},{"attributes":{"OBJECTID":26284,"LANDMARKID":"1001000000117","LANDMARKCO":"107","LANDMARKNA":"嘉義縣警察局山美派出所","LANDMARKAD":"1001018","ADDRESS":"嘉義縣阿里山鄉山美村58號","TEL":"05-2586154","COUNTYNAME":"嘉義縣","TOWNNAME":"阿里山鄉","MARKTYPE":"991","Class":"1"},"geometry":{"x":216086.9327999996,"y":2586800.3775999993}},{"attributes":{"OBJECTID":26285,"LANDMARKID":"1001000000118","LANDMARKCO":"107","LANDMARKNA":"嘉義縣警察局里佳派出所","LANDMARKAD":"1001018","ADDRESS":"嘉義縣阿里山鄉里佳村里佳50號","TEL":"05-2511124","COUNTYNAME":"嘉義縣","TOWNNAME":"阿里山鄉","MARKTYPE":"991","Class":"1"},"geometry":{"x":221505.71499999985,"y":2589060.3570000008}},{"attributes":{"OBJECTID":26286,"LANDMARKID":"1001000000119","LANDMARKCO":"107","LANDMARKNA":"嘉義縣警察局阿里山派出所","LANDMARKAD":"1001018","ADDRESS":"嘉義縣阿里山鄉中正村阿里山62號","TEL":"05-2679975","COUNTYNAME":"嘉義縣","TOWNNAME":"阿里山鄉","MARKTYPE":"991","Class":"1"},"geometry":{"x":230915.73230000027,"y":2601100.2765999995}},{"attributes":{"OBJECTID":26287,"LANDMARKID":"1001000000120","LANDMARKCO":"107","LANDMARKNA":"嘉義縣警察局來吉派出所","LANDMARKAD":"1001018","ADDRESS":"嘉義縣阿里山鄉來吉村內來吉95號","TEL":"05-2661185","COUNTYNAME":"嘉義縣","TOWNNAME":"阿里山鄉","MARKTYPE":"991","Class":"1"},"geometry":{"x":223435.60400000028,"y":2602970.1849000007}},{"attributes":{"OBJECTID":26288,"LANDMARKID":"1001000000121","LANDMARKCO":"107","LANDMARKNA":"嘉義縣警察局樂野派出所","LANDMARKAD":"1001018","ADDRESS":"嘉義縣阿里山鄉樂野村13號","TEL":"05-2561325","COUNTYNAME":"嘉義縣","TOWNNAME":"阿里山鄉","MARKTYPE":"991","Class":"1"},"geometry":{"x":219537.58880000003,"y":2596190.3914999999}},{"attributes":{"OBJECTID":26289,"LANDMARKID":"1001000000122","LANDMARKCO":"107","LANDMARKNA":"嘉義縣警察局達邦分駐所","LANDMARKAD":"1001018","ADDRESS":"嘉義縣阿里山鄉達邦村12號","TEL":"05-2511006","COUNTYNAME":"嘉義縣","TOWNNAME":"阿里山鄉","MARKTYPE":"991","Class":"1"},"geometry":{"x":224355.47119999956,"y":2594440.3256000001}},{"attributes":{"OBJECTID":26290,"LANDMARKID":"1001000000123","LANDMARKCO":"107","LANDMARKNA":"嘉義縣警察局十字派出所","LANDMARKAD":"1001018","ADDRESS":"嘉義縣阿里山鄉十字村十字路28號","TEL":"05-2511223","COUNTYNAME":"嘉義縣","TOWNNAME":"阿里山鄉","MARKTYPE":"991","Class":"1"},"geometry":{"x":224897.89740000013,"y":2598810.2624999993}},{"attributes":{"OBJECTID":26291,"LANDMARKID":"1001000000124","LANDMARKCO":"107","LANDMARKNA":"嘉義縣消防局阿里山消防分隊","LANDMARKAD":"1001018","ADDRESS":"嘉義縣阿里山鄉中正村阿里山62號","TEL":"05-2679900","COUNTYNAME":"嘉義縣","TOWNNAME":"阿里山鄉","MARKTYPE":"991","Class":"1"},"geometry":{"x":230359.84590000007,"y":2601010.2999000009}},{"attributes":{"OBJECTID":26292,"LANDMARKID":"1001000000090","LANDMARKCO":"106","LANDMARKNA":"嘉義縣阿里山鄉戶政事務所","LANDMARKAD":"1001018","ADDRESS":"嘉義縣阿里山鄉樂野村2鄰樂野68號","TEL":"05-2562806","COUNTYNAME":"嘉義縣","TOWNNAME":"阿里山鄉","MARKTYPE":"991","Class":"1"},"geometry":{"x":224318.84630000032,"y":2594840.2598000001}},{"attributes":{"OBJECTID":26293,"LANDMARKID":"1001000000006","LANDMARKCO":"101","LANDMARKNA":"林務局嘉義林區管理處阿里山站","LANDMARKAD":"1001018","ADDRESS":"嘉義縣阿里山鄉林村17號","TEL":"05-2679715","COUNTYNAME":"嘉義縣","TOWNNAME":"阿里山鄉","MARKTYPE":"991","Class":"1"},"geometry":{"x":223226.8702999996,"y":2594210.3516000006}},{"attributes":{"OBJECTID":26294,"LANDMARKID":"1001000000462","LANDMARKCO":"205","LANDMARKNA":"蘭后山莊鄒族文物館","LANDMARKAD":"1001018","ADDRESS":"嘉義縣阿里山鄉來吉村10號","TEL":"05-2661172","COUNTYNAME":"嘉義縣","TOWNNAME":"阿里山鄉","MARKTYPE":"992","Class":"2"},"geometry":{"x":224041.02979999967,"y":2601819.8445999995}},{"attributes":{"OBJECTID":26295,"LANDMARKID":"1001000000463","LANDMARKCO":"205","LANDMARKNA":"阿里山高山博物館","LANDMARKAD":"1001018","ADDRESS":"嘉義縣阿里山鄉阿里山森林遊樂區內","TEL":"05-2679917","COUNTYNAME":"嘉義縣","TOWNNAME":"阿里山鄉","MARKTYPE":"992","Class":"2"},"geometry":{"x":230321.43450000044,"y":2601568.6542000007}},{"attributes":{"OBJECTID":26296,"LANDMARKID":"1001000000458","LANDMARKCO":"204","LANDMARKNA":"嘉義縣立圖書館阿里山分館","LANDMARKAD":"1001018","ADDRESS":"嘉義縣阿里山鄉達邦村2鄰23之1號","TEL":" ","COUNTYNAME":"嘉義縣","TOWNNAME":"阿里山鄉","MARKTYPE":"992","Class":"2"},"geometry":{"x":224104.28000000026,"y":2594840.8783999998}},{"attributes":{"OBJECTID":26297,"LANDMARKID":"1001000000286","LANDMARKCO":"203","LANDMARKNA":"縣立香林國中","LANDMARKAD":"1001018","ADDRESS":"嘉義縣阿里山鄉香林村64號","TEL":"05-2679981","COUNTYNAME":"嘉義縣","TOWNNAME":"阿里山鄉","MARKTYPE":"992","Class":"2"},"geometry":{"x":230439.66980000027,"y":2601450.0247000009}},{"attributes":{"OBJECTID":26298,"LANDMARKID":"1001000000287","LANDMARKCO":"203","LANDMARKNA":"縣立達邦國小","LANDMARKAD":"1001018","ADDRESS":"嘉義縣阿里山鄉達邦村1鄰1號","TEL":"05-2511017","COUNTYNAME":"嘉義縣","TOWNNAME":"阿里山鄉","MARKTYPE":"992","Class":"2"},"geometry":{"x":224404.90299999993,"y":2594500.4108000007}},{"attributes":{"OBJECTID":26299,"LANDMARKID":"1001000000288","LANDMARKCO":"203","LANDMARKNA":"縣立樂野國小","LANDMARKAD":"1001018","ADDRESS":"嘉義縣阿里山鄉樂野村1鄰31號","TEL":"05-2561180","COUNTYNAME":"嘉義縣","TOWNNAME":"阿里山鄉","MARKTYPE":"992","Class":"2"},"geometry":{"x":219497.50540000014,"y":2596230.3083999995}},{"attributes":{"OBJECTID":26300,"LANDMARKID":"1001000000289","LANDMARKCO":"203","LANDMARKNA":"縣立香林國小","LANDMARKAD":"1001018","ADDRESS":"嘉義縣阿里山鄉香林村2鄰40號","TEL":"05-2679713","COUNTYNAME":"嘉義縣","TOWNNAME":"阿里山鄉","MARKTYPE":"992","Class":"2"},"geometry":{"x":230627.84119999968,"y":2601630.2740000002}},{"attributes":{"OBJECTID":26301,"LANDMARKID":"1001000000290","LANDMARKCO":"203","LANDMARKNA":"縣立山美國小","LANDMARKAD":"1001018","ADDRESS":"嘉義縣阿里山鄉山美村4鄰61號","TEL":"05-2586520","COUNTYNAME":"嘉義縣","TOWNNAME":"阿里山鄉","MARKTYPE":"992","Class":"2"},"geometry":{"x":216085.31780000031,"y":2586760.3754999992}},{"attributes":{"OBJECTID":26302,"LANDMARKID":"1001000000291","LANDMARKCO":"203","LANDMARKNA":"縣立茶山國小","LANDMARKAD":"1001018","ADDRESS":"嘉義縣阿里山鄉茶山村3鄰74號","TEL":"05-2513014","COUNTYNAME":"嘉義縣","TOWNNAME":"阿里山鄉","MARKTYPE":"992","Class":"2"},"geometry":{"x":215887.93759999983,"y":2577570.6247000005}},{"attributes":{"OBJECTID":26303,"LANDMARKID":"1001000000292","LANDMARKCO":"203","LANDMARKNA":"縣立豐山國小","LANDMARKAD":"1001018","ADDRESS":"嘉義縣阿里山鄉豐山村47號","TEL":"05-2661451","COUNTYNAME":"嘉義縣","TOWNNAME":"阿里山鄉","MARKTYPE":"992","Class":"2"},"geometry":{"x":224388.92870000005,"y":2608020.3431000002}},{"attributes":{"OBJECTID":26304,"LANDMARKID":"1001000000293","LANDMARKCO":"203","LANDMARKNA":"縣立來吉國小","LANDMARKAD":"1001018","ADDRESS":"嘉義縣阿里山鄉來吉村4鄰91號","TEL":"05-2661232","COUNTYNAME":"嘉義縣","TOWNNAME":"阿里山鄉","MARKTYPE":"992","Class":"2"},"geometry":{"x":223345.94419999979,"y":2603090.0210999995}},{"attributes":{"OBJECTID":26305,"LANDMARKID":"1001000000294","LANDMARKCO":"203","LANDMARKNA":"縣立里佳國小","LANDMARKAD":"1001018","ADDRESS":"嘉義縣阿里山鄉里佳村52號","TEL":"05-2511341","COUNTYNAME":"嘉義縣","TOWNNAME":"阿里山鄉","MARKTYPE":"992","Class":"2"},"geometry":{"x":221374.48120000027,"y":2589180.1027000006}},{"attributes":{"OBJECTID":26306,"LANDMARKID":"1001000000295","LANDMARKCO":"203","LANDMARKNA":"縣立新美國小","LANDMARKAD":"1001018","ADDRESS":"嘉義縣阿里山鄉新美村四鄰78號","TEL":"05-2513015","COUNTYNAME":"嘉義縣","TOWNNAME":"阿里山鄉","MARKTYPE":"992","Class":"2"},"geometry":{"x":217582.57909999974,"y":2581730.5534000006}},{"attributes":{"OBJECTID":26307,"LANDMARKID":"1001000000296","LANDMARKCO":"203","LANDMARKNA":"縣立十字國小","LANDMARKAD":"1001018","ADDRESS":"嘉義縣阿里山鄉十字村16號","TEL":"05-2511340","COUNTYNAME":"嘉義縣","TOWNNAME":"阿里山鄉","MARKTYPE":"992","Class":"2"},"geometry":{"x":224886.88030000031,"y":2598820.2435999997}},{"attributes":{"OBJECTID":26308,"LANDMARKID":"1001000000297","LANDMARKCO":"203","LANDMARKNA":"縣立十字國小十字路分校","LANDMARKAD":"1001018","ADDRESS":"嘉義縣阿里山鄉","TEL":" ","COUNTYNAME":"嘉義縣","TOWNNAME":"阿里山鄉","MARKTYPE":"992","Class":"2"},"geometry":{"x":222560.68099999987,"y":2599540.1574000008}},{"attributes":{"OBJECTID":26309,"LANDMARKID":"1001000000495","LANDMARKCO":"303","LANDMARKNA":"阿里山遊樂區停車場","LANDMARKAD":"1001018","ADDRESS":"嘉義縣阿里山鄉","TEL":" ","COUNTYNAME":"嘉義縣","TOWNNAME":"阿里山鄉","MARKTYPE":"993","Class":"303"},"geometry":{"x":229917.29729999974,"y":2600745.7993999999}},{"attributes":{"OBJECTID":26310,"LANDMARKID":"1001000000496","LANDMARKCO":"303","LANDMARKNA":"阿里山遊樂區停車場","LANDMARKAD":"1001018","ADDRESS":"嘉義縣阿里山鄉","TEL":" ","COUNTYNAME":"嘉義縣","TOWNNAME":"阿里山鄉","MARKTYPE":"993","Class":"303"},"geometry":{"x":229987.23029999994,"y":2600941.5116000008}},{"attributes":{"OBJECTID":26311,"LANDMARKID":"1001000000470","LANDMARKCO":"301","LANDMARKNA":"十字路火車站","LANDMARKAD":"1001018","ADDRESS":"嘉義縣阿里山鄉","TEL":" ","COUNTYNAME":"嘉義縣","TOWNNAME":"阿里山鄉","MARKTYPE":"993","Class":"301"},"geometry":{"x":224961.22750000004,"y":2598869.7670000009}},{"attributes":{"OBJECTID":26312,"LANDMARKID":"1001000000471","LANDMARKCO":"301","LANDMARKNA":"屏遮那火車站","LANDMARKAD":"1001018","ADDRESS":"嘉義縣阿里山鄉","TEL":" ","COUNTYNAME":"嘉義縣","TOWNNAME":"阿里山鄉","MARKTYPE":"993","Class":"301"},"geometry":{"x":227498.75789999962,"y":2600917.7273999993}},{"attributes":{"OBJECTID":26313,"LANDMARKID":"1001000000472","LANDMARKCO":"301","LANDMARKNA":"神木火車站","LANDMARKAD":"1001018","ADDRESS":"嘉義縣阿里山鄉","TEL":" ","COUNTYNAME":"嘉義縣","TOWNNAME":"阿里山鄉","MARKTYPE":"993","Class":"301"},"geometry":{"x":230293.09559999965,"y":2601819.3708999995}},{"attributes":{"OBJECTID":26314,"LANDMARKID":"1001000000473","LANDMARKCO":"301","LANDMARKNA":"多林火車站","LANDMARKAD":"1001018","ADDRESS":"嘉義縣阿里山鄉","TEL":" ","COUNTYNAME":"嘉義縣","TOWNNAME":"阿里山鄉","MARKTYPE":"993","Class":"301"},"geometry":{"x":225434.3021999998,"y":2599998.3618999999}},{"attributes":{"OBJECTID":26315,"LANDMARKID":"1001000000474","LANDMARKCO":"301","LANDMARKNA":"阿里山火車站","LANDMARKAD":"1001018","ADDRESS":"嘉義縣阿里山鄉","TEL":" ","COUNTYNAME":"嘉義縣","TOWNNAME":"阿里山鄉","MARKTYPE":"993","Class":"301"},"geometry":{"x":230050.41619999986,"y":2600749.9473000001}},{"attributes":{"OBJECTID":26316,"LANDMARKID":"1001000000475","LANDMARKCO":"301","LANDMARKNA":"阿里山舊火車站","LANDMARKAD":"1001018","ADDRESS":"嘉義縣阿里山鄉","TEL":" ","COUNTYNAME":"嘉義縣","TOWNNAME":"阿里山鄉","MARKTYPE":"993","Class":"301"},"geometry":{"x":231032.97549999971,"y":2601249.8509}},{"attributes":{"OBJECTID":26317,"LANDMARKID":"1001000000476","LANDMARKCO":"301","LANDMARKNA":"二萬平車站","LANDMARKAD":"1001018","ADDRESS":"嘉義縣阿里山鄉香林村二萬坪105號","TEL":" ","COUNTYNAME":"嘉義縣","TOWNNAME":"阿里山鄉","MARKTYPE":"993","Class":"301"},"geometry":{"x":228540.96750000026,"y":2600607.0110999998}},{"attributes":{"OBJECTID":26318,"LANDMARKID":"1001000000577","LANDMARKCO":"402","LANDMARKNA":"中華電信-阿里山服務中心","LANDMARKAD":"1001018","ADDRESS":"嘉義縣阿里山鄉中正村59號","TEL":"(05)244-1441","COUNTYNAME":"嘉義縣","TOWNNAME":"阿里山鄉","MARKTYPE":"994","Class":"4"},"geometry":{"x":229915.98469999991,"y":2600895.6177999992}},{"attributes":{"OBJECTID":26319,"LANDMARKID":"1001000000835","LANDMARKCO":"602","LANDMARKNA":"阿里山賓館","LANDMARKAD":"1001018","ADDRESS":"嘉義縣阿里山鄉香林村西阿里山16號","TEL":"05-267-9813","COUNTYNAME":"嘉義縣","TOWNNAME":"阿里山鄉","MARKTYPE":"996","Class":"6"},"geometry":{"x":230617.64279999956,"y":2601338.6055999994}},{"attributes":{"OBJECTID":26320,"LANDMARKID":"1001000000912","LANDMARKCO":"604","LANDMARKNA":"阿古亞娜","LANDMARKAD":"1001018","ADDRESS":"嘉義縣阿里山鄉來吉村109號","TEL":"05-2661585","COUNTYNAME":"嘉義縣","TOWNNAME":"阿里山鄉","MARKTYPE":"996","Class":"6"},"geometry":{"x":223295.51900000032,"y":2603125.4659000002}},{"attributes":{"OBJECTID":26321,"LANDMARKID":"1001000000913","LANDMARKCO":"604","LANDMARKNA":"淳液園農場","LANDMARKAD":"1001018","ADDRESS":"嘉義縣阿里山鄉茶山村茶山106號","TEL":"05-2513189","COUNTYNAME":"嘉義縣","TOWNNAME":"阿里山鄉","MARKTYPE":"996","Class":"6"},"geometry":{"x":217345.07060000021,"y":2577048.1051000003}},{"attributes":{"OBJECTID":26322,"LANDMARKID":"1001000000914","LANDMARKCO":"604","LANDMARKNA":"閒雲居民宿","LANDMARKAD":"1001018","ADDRESS":"嘉義縣阿里山鄉樂野村8鄰210號","TEL":"05-2561580","COUNTYNAME":"嘉義縣","TOWNNAME":"阿里山鄉","MARKTYPE":"996","Class":"6"},"geometry":{"x":221228.81379999965,"y":2595019.0357000008}},{"attributes":{"OBJECTID":26323,"LANDMARKID":"1001000000915","LANDMARKCO":"604","LANDMARKNA":"蘭后民宿","LANDMARKAD":"1001018","ADDRESS":"嘉義縣阿里山鄉來吉村1鄰11號","TEL":"05-2661172","COUNTYNAME":"嘉義縣","TOWNNAME":"阿里山鄉","MARKTYPE":"996","Class":"6"},"geometry":{"x":224033.00930000003,"y":2601839.4399999995}},{"attributes":{"OBJECTID":26324,"LANDMARKID":"1001000000797","LANDMARKCO":"503","LANDMARKNA":"豐山風景區","LANDMARKAD":"1001018","ADDRESS":"嘉義縣阿里山鄉","TEL":" ","COUNTYNAME":"嘉義縣","TOWNNAME":"阿里山鄉","MARKTYPE":"995","Class":"5"},"geometry":{"x":224072.5856999997,"y":2608632.1503999997}},{"attributes":{"OBJECTID":26325,"LANDMARKID":"1001000000798","LANDMARKCO":"503","LANDMARKNA":"達娜伊谷公園","LANDMARKAD":"1001018","ADDRESS":"嘉義縣阿里山鄉","TEL":" ","COUNTYNAME":"嘉義縣","TOWNNAME":"阿里山鄉","MARKTYPE":"995","Class":"5"},"geometry":{"x":217134.16700000037,"y":2586247.3486000001}},{"attributes":{"OBJECTID":26326,"LANDMARKID":"1001000000799","LANDMARKCO":"504","LANDMARKNA":"阿里山森林遊樂區","LANDMARKAD":"1001018","ADDRESS":"嘉義縣阿里山鄉中正村59號","TEL":" ","COUNTYNAME":"嘉義縣","TOWNNAME":"阿里山鄉","MARKTYPE":"995","Class":"5"},"geometry":{"x":229798.66029999964,"y":2600649.1041000001}},{"attributes":{"OBJECTID":26327,"LANDMARKID":"1001000000832","LANDMARKCO":"513","LANDMARKNA":"玉山西峰","LANDMARKAD":"1001018","ADDRESS":"嘉義縣阿里山鄉","TEL":" ","COUNTYNAME":"嘉義縣","TOWNNAME":"阿里山鄉","MARKTYPE":"995","Class":"5"},"geometry":{"x":243279.0131000001,"y":2596597.7232000008}},{"attributes":{"OBJECTID":26328,"LANDMARKID":"1001000000833","LANDMARKCO":"513","LANDMARKNA":"前山","LANDMARKAD":"1001018","ADDRESS":"嘉義縣阿里山鄉","TEL":" ","COUNTYNAME":"嘉義縣","TOWNNAME":"阿里山鄉","MARKTYPE":"995","Class":"5"},"geometry":{"x":241588.95380000025,"y":2596950.7589999996}},{"attributes":{"OBJECTID":26329,"LANDMARKID":"1001000000622","LANDMARKCO":"405","LANDMARKNA":"中油加油站-一品站","LANDMARKAD":"1001002","ADDRESS":"嘉義縣朴子市竹村林里鴨母寮14-16號","TEL":"05-3692726","COUNTYNAME":"嘉義縣","TOWNNAME":"朴子市","MARKTYPE":"994","Class":"4"},"geometry":{"x":173038.54870000016,"y":2592557.4605}},{"attributes":{"OBJECTID":26330,"LANDMARKID":"1001000000623","LANDMARKCO":"405","LANDMARKNA":"中油加油站-泰鋒站","LANDMARKAD":"1001002","ADDRESS":"嘉義縣朴子市文化南路168號","TEL":"05-3702929","COUNTYNAME":"嘉義縣","TOWNNAME":"朴子市","MARKTYPE":"994","Class":"4"},"geometry":{"x":172486.88410000037,"y":2595439.0054000001}},{"attributes":{"OBJECTID":26331,"LANDMARKID":"1001000000624","LANDMARKCO":"405","LANDMARKNA":"中油加油站-朴子山通路站(中油直營)","LANDMARKAD":"1001002","ADDRESS":"嘉義縣朴子市大鄉里大棣榔625號","TEL":"05-3799580","COUNTYNAME":"嘉義縣","TOWNNAME":"朴子市","MARKTYPE":"994","Class":"4"},"geometry":{"x":173899.45679999981,"y":2596071.0537}},{"attributes":{"OBJECTID":26332,"LANDMARKID":"1001000000625","LANDMARKCO":"405","LANDMARKNA":"中油加油站-朴子站(中油直營)","LANDMARKAD":"1001002","ADDRESS":"嘉義縣朴子市南通路三段635號","TEL":"05-3792364","COUNTYNAME":"嘉義縣","TOWNNAME":"朴子市","MARKTYPE":"994","Class":"4"},"geometry":{"x":172576.81960000005,"y":2595518.6409000009}},{"attributes":{"OBJECTID":26333,"LANDMARKID":"1001000000572","LANDMARKCO":"402","LANDMARKNA":"My Phone台灣大哥大-嘉義朴子直營服務中心","LANDMARKAD":"1001002","ADDRESS":"嘉義縣朴子市文化南路28號","TEL":"0809-000-166","COUNTYNAME":"嘉義縣","TOWNNAME":"朴子市","MARKTYPE":"994","Class":"4"},"geometry":{"x":172474.04820000008,"y":2595745.5556000005}},{"attributes":{"OBJECTID":26334,"LANDMARKID":"1001000000573","LANDMARKCO":"402","LANDMARKNA":"亞太行動寬頻電信-朴子山通加盟服務中心","LANDMARKAD":"1001002","ADDRESS":"嘉義縣朴子市山通路123號","TEL":"05-3660708","COUNTYNAME":"嘉義縣","TOWNNAME":"朴子市","MARKTYPE":"994","Class":"4"},"geometry":{"x":172571.90160000045,"y":2595875.2345000003}},{"attributes":{"OBJECTID":26335,"LANDMARKID":"1001000000567","LANDMARKCO":"401","LANDMARKNA":"財團法人長庚紀念醫院嘉義分院","LANDMARKAD":"1001002","ADDRESS":"嘉義縣朴子市仁和里嘉朴路西段6號","TEL":"05-3621000","COUNTYNAME":"嘉義縣","TOWNNAME":"朴子市","MARKTYPE":"994","Class":"4"},"geometry":{"x":176855.76599999983,"y":2595941.8877000008}},{"attributes":{"OBJECTID":26336,"LANDMARKID":"1001000000568","LANDMARKCO":"401","LANDMARKNA":"行政院衛生署朴子醫院","LANDMARKAD":"1001002","ADDRESS":"嘉義縣朴子市永和里應菜埔42之50號","TEL":"05-3790600","COUNTYNAME":"嘉義縣","TOWNNAME":"朴子市","MARKTYPE":"994","Class":"4"},"geometry":{"x":171806.67750000022,"y":2595921.6954999994}},{"attributes":{"OBJECTID":26337,"LANDMARKID":"1001000000725","LANDMARKCO":"408","LANDMARKNA":"郵局-朴子郵局","LANDMARKAD":"1001002","ADDRESS":"嘉義縣朴子市光復路46號","TEL":"(05)3792-130","COUNTYNAME":"嘉義縣","TOWNNAME":"朴子市","MARKTYPE":"994","Class":"4"},"geometry":{"x":172990.65419999976,"y":2596111.9451000001}},{"attributes":{"OBJECTID":26338,"LANDMARKID":"1001000000726","LANDMARKCO":"408","LANDMARKNA":"郵局-朴子海通路郵局","LANDMARKAD":"1001002","ADDRESS":"嘉義縣朴子市永和里4-2號","TEL":"(05)3796-291","COUNTYNAME":"嘉義縣","TOWNNAME":"朴子市","MARKTYPE":"994","Class":"4"},"geometry":{"x":172271.04250000045,"y":2595823.9675999992}},{"attributes":{"OBJECTID":26339,"LANDMARKID":"1001000000727","LANDMARKCO":"408","LANDMARKNA":"郵局-朴子祥和郵局","LANDMARKAD":"1001002","ADDRESS":"嘉義縣朴子市祥和二路西段6號","TEL":"(05)3620-051","COUNTYNAME":"嘉義縣","TOWNNAME":"朴子市","MARKTYPE":"994","Class":"4"},"geometry":{"x":177433.13870000001,"y":2595181.4269999992}},{"attributes":{"OBJECTID":26340,"LANDMARKID":"1001000000728","LANDMARKCO":"408","LANDMARKNA":"郵局-朴子長庚醫院郵局","LANDMARKAD":"1001002","ADDRESS":"嘉義縣朴子市嘉朴路西段6號","TEL":"(05)3623-947","COUNTYNAME":"嘉義縣","TOWNNAME":"朴子市","MARKTYPE":"994","Class":"4"},"geometry":{"x":176834.82330000028,"y":2595837.8616000004}},{"attributes":{"OBJECTID":26341,"LANDMARKID":"1001000000771","LANDMARKCO":"409","LANDMARKNA":"嘉義縣朴子市農會","LANDMARKAD":"1001002","ADDRESS":"嘉義縣朴子市山通路102號","TEL":"05-3794102","COUNTYNAME":"嘉義縣","TOWNNAME":"朴子市","MARKTYPE":"994","Class":"4"},"geometry":{"x":172975.17399999965,"y":2596141.2493999992}},{"attributes":{"OBJECTID":26342,"LANDMARKID":"1001000000772","LANDMARKCO":"409","LANDMARKNA":"朴子魚市場","LANDMARKAD":"1001002","ADDRESS":"朴子市永和里海通路16號","TEL":"05-3794337　","COUNTYNAME":"嘉義縣","TOWNNAME":"朴子市","MARKTYPE":"994","Class":"4"},"geometry":{"x":173114.10769999959,"y":2595877.1039000005}},{"attributes":{"OBJECTID":26343,"LANDMARKID":"1001000000601","LANDMARKCO":"404","LANDMARKNA":"台灣省自來水朴子營運所","LANDMARKAD":"1001002","ADDRESS":"嘉義縣朴子市文明路28號","TEL":" ","COUNTYNAME":"嘉義縣","TOWNNAME":"朴子市","MARKTYPE":"994","Class":"4"},"geometry":{"x":173211.47269999981,"y":2596396.3610999994}},{"attributes":{"OBJECTID":26344,"LANDMARKID":"1001000000714","LANDMARKCO":"406","LANDMARKNA":"中正公園","LANDMARKAD":"1001002","ADDRESS":"嘉義縣朴子市","TEL":" ","COUNTYNAME":"嘉義縣","TOWNNAME":"朴子市","MARKTYPE":"994","Class":"4"},"geometry":{"x":173763.77799999993,"y":2596240.6108999997}},{"attributes":{"OBJECTID":26345,"LANDMARKID":"1001000000626","LANDMARKCO":"405","LANDMARKNA":"台亞加油站-朴子四維站（台塑）","LANDMARKAD":"1001002","ADDRESS":"嘉義縣朴子市四維路二段387號","TEL":"(05)366-1569","COUNTYNAME":"嘉義縣","TOWNNAME":"朴子市","MARKTYPE":"994","Class":"4"},"geometry":{"x":172058.52089999989,"y":2595400.1674000006}},{"attributes":{"OBJECTID":26346,"LANDMARKID":"1001000000627","LANDMARKCO":"405","LANDMARKNA":"台亞加油站-朴子站（台塑）","LANDMARKAD":"1001002","ADDRESS":"嘉義縣朴子市大_鄉253之23號","TEL":"(05)370-2875","COUNTYNAME":"嘉義縣","TOWNNAME":"朴子市","MARKTYPE":"994","Class":"4"},"geometry":{"x":173912.61670000013,"y":2596083.5408999994}},{"attributes":{"OBJECTID":26347,"LANDMARKID":"1001000000628","LANDMARKCO":"405","LANDMARKNA":"福懋加油站-朴子站(台塑)","LANDMARKAD":"1001002","ADDRESS":"嘉義縣朴子市安福里山通路2-8號","TEL":"05-3660506","COUNTYNAME":"嘉義縣","TOWNNAME":"朴子市","MARKTYPE":"994","Class":"4"},"geometry":{"x":173864.48300000001,"y":2596136.3264000006}},{"attributes":{"OBJECTID":26348,"LANDMARKID":"1001000000007","LANDMARKCO":"101","LANDMARKNA":"調查局嘉義縣調查站","LANDMARKAD":"1001002","ADDRESS":"嘉義縣朴子市朴子一路1號","TEL":"05-3620012","COUNTYNAME":"嘉義縣","TOWNNAME":"朴子市","MARKTYPE":"991","Class":"1"},"geometry":{"x":177499.70969999954,"y":2595170.7564000003}},{"attributes":{"OBJECTID":26349,"LANDMARKID":"1001000000125","LANDMARKCO":"107","LANDMARKNA":"嘉義縣消防局第一消防大隊部","LANDMARKAD":"1001002","ADDRESS":"嘉義縣朴子市光復新路16號","TEL":"05-3792088","COUNTYNAME":"嘉義縣","TOWNNAME":"朴子市","MARKTYPE":"991","Class":"1"},"geometry":{"x":172985.55020000041,"y":2595940.9182999991}},{"attributes":{"OBJECTID":26350,"LANDMARKID":"1001000000126","LANDMARKCO":"107","LANDMARKNA":"嘉義縣消防局朴子消防分隊","LANDMARKAD":"1001002","ADDRESS":"嘉義縣朴子市光復新路16號","TEL":"05-3792075","COUNTYNAME":"嘉義縣","TOWNNAME":"朴子市","MARKTYPE":"991","Class":"1"},"geometry":{"x":172982.55030000024,"y":2595940.9025999997}},{"attributes":{"OBJECTID":26351,"LANDMARKID":"1001000000127","LANDMARKCO":"107","LANDMARKNA":"嘉義縣警察局竹村派出所","LANDMARKAD":"1001002","ADDRESS":"嘉義縣朴子市竹村里鴨母寮14-2號","TEL":"05-3693219","COUNTYNAME":"嘉義縣","TOWNNAME":"朴子市","MARKTYPE":"991","Class":"1"},"geometry":{"x":173055.60020000022,"y":2592431.3848000001}},{"attributes":{"OBJECTID":26352,"LANDMARKID":"1001000000039","LANDMARKCO":"103","LANDMARKNA":"嘉義縣朴子市衛生所","LANDMARKAD":"1001002","ADDRESS":"嘉義縣朴子市光復路40號","TEL":"05-3792037","COUNTYNAME":"嘉義縣","TOWNNAME":"朴子市","MARKTYPE":"991","Class":"1"},"geometry":{"x":173027.27029999997,"y":2596044.2138}},{"attributes":{"OBJECTID":26353,"LANDMARKID":"1001000000216","LANDMARKCO":"108","LANDMARKNA":"嘉義縣朴子市公所","LANDMARKAD":"1001002","ADDRESS":"嘉義縣朴子市安福里光復路34號","TEL":"05-3795102","COUNTYNAME":"嘉義縣","TOWNNAME":"朴子市","MARKTYPE":"991","Class":"1"},"geometry":{"x":173065.07129999995,"y":2595996.5930000003}},{"attributes":{"OBJECTID":26354,"LANDMARKID":"1001000000038","LANDMARKCO":"103","LANDMARKNA":"嘉義縣朴子市民代表會","LANDMARKAD":"1001002","ADDRESS":"嘉義縣朴子市光復路38號","TEL":"05-3792404","COUNTYNAME":"嘉義縣","TOWNNAME":"朴子市","MARKTYPE":"991","Class":"1"},"geometry":{"x":173030.33530000038,"y":2596029.8169}},{"attributes":{"OBJECTID":26355,"LANDMARKID":"1001000000128","LANDMARKCO":"107","LANDMARKNA":"嘉義縣警察局朴子分局","LANDMARKAD":"1001002","ADDRESS":"嘉義縣朴子市平和里光復路33號","TEL":"05-3793584","COUNTYNAME":"嘉義縣","TOWNNAME":"朴子市","MARKTYPE":"991","Class":"1"},"geometry":{"x":173005.81570000015,"y":2595977.7661000006}},{"attributes":{"OBJECTID":26356,"LANDMARKID":"1001000000129","LANDMARKCO":"107","LANDMARKNA":"嘉義縣警察局松梅派出所","LANDMARKAD":"1001002","ADDRESS":"嘉義縣朴子市梅華里牛挑灣108號","TEL":"05-3691572","COUNTYNAME":"嘉義縣","TOWNNAME":"朴子市","MARKTYPE":"991","Class":"1"},"geometry":{"x":173914.95590000041,"y":2589874.5612000003}},{"attributes":{"OBJECTID":26357,"LANDMARKID":"1001000000130","LANDMARKCO":"107","LANDMARKNA":"嘉義縣警察局朴子派出所","LANDMARKAD":"1001002","ADDRESS":"嘉義縣朴子市平和里光復路33號","TEL":"05-3792014","COUNTYNAME":"嘉義縣","TOWNNAME":"朴子市","MARKTYPE":"991","Class":"1"},"geometry":{"x":173005.81570000015,"y":2595977.7661000006}},{"attributes":{"OBJECTID":26358,"LANDMARKID":"1001000000088","LANDMARKCO":"106","LANDMARKNA":"嘉義縣朴子市戶政事務所","LANDMARKAD":"1001002","ADDRESS":"嘉義縣朴子市平和里8鄰光復路35號","TEL":"05-3793571","COUNTYNAME":"嘉義縣","TOWNNAME":"朴子市","MARKTYPE":"991","Class":"1"},"geometry":{"x":172997.64250000007,"y":2596002.1303000003}},{"attributes":{"OBJECTID":26359,"LANDMARKID":"1001000000072","LANDMARKCO":"105","LANDMARKNA":"嘉義縣朴子地政事務所","LANDMARKAD":"1001002","ADDRESS":"嘉義縣朴子市光復路37號","TEL":"05-3792074","COUNTYNAME":"嘉義縣","TOWNNAME":"朴子市","MARKTYPE":"991","Class":"1"},"geometry":{"x":172995.59929999989,"y":2596010.9900000002}},{"attributes":{"OBJECTID":26360,"LANDMARKID":"1001000000034","LANDMARKCO":"103","LANDMARKNA":"嘉義縣立體育場","LANDMARKAD":"1001002","ADDRESS":"嘉義縣朴子市四維路一段460號","TEL":"05-3708100","COUNTYNAME":"嘉義縣","TOWNNAME":"朴子市","MARKTYPE":"991","Class":"1"},"geometry":{"x":173030.17920000013,"y":2595278.9584999997}},{"attributes":{"OBJECTID":26361,"LANDMARKID":"1001000000008","LANDMARKCO":"101","LANDMARKNA":"台灣嘉義地方法院朴子簡易庭","LANDMARKAD":"1001002","ADDRESS":"嘉義縣朴子市朴子三路2號","TEL":"05-3623527","COUNTYNAME":"嘉義縣","TOWNNAME":"朴子市","MARKTYPE":"991","Class":"1"},"geometry":{"x":177348.84779999964,"y":2595226.2172999997}},{"attributes":{"OBJECTID":26362,"LANDMARKID":"1001000000009","LANDMARKCO":"101","LANDMARKNA":"工業局朴子義竹工業區服務中心","LANDMARKAD":"1001002","ADDRESS":"嘉義縣朴子市朴子工業區二街1號","TEL":"05-3693515","COUNTYNAME":"嘉義縣","TOWNNAME":"朴子市","MARKTYPE":"991","Class":"1"},"geometry":{"x":173076.57010000013,"y":2593014.2052999996}},{"attributes":{"OBJECTID":26363,"LANDMARKID":"1001000000035","LANDMARKCO":"103","LANDMARKNA":"朴子市立殯儀館","LANDMARKAD":"1001002","ADDRESS":"嘉義縣朴子市光復新路2號","TEL":"05-3793114","COUNTYNAME":"嘉義縣","TOWNNAME":"朴子市","MARKTYPE":"991","Class":"1"},"geometry":{"x":172876.33389999997,"y":2594966.6547999997}},{"attributes":{"OBJECTID":26364,"LANDMARKID":"1001000000036","LANDMARKCO":"103","LANDMARKNA":"嘉義縣議會","LANDMARKAD":"1001002","ADDRESS":"嘉義縣朴子市祥和一路西段1號","TEL":"05-3620076","COUNTYNAME":"嘉義縣","TOWNNAME":"朴子市","MARKTYPE":"991","Class":"1"},"geometry":{"x":177594.48529999983,"y":2595321.216}},{"attributes":{"OBJECTID":26365,"LANDMARKID":"1001000000037","LANDMARKCO":"103","LANDMARKNA":"嘉義縣環境保護局","LANDMARKAD":"1001002","ADDRESS":"嘉義縣朴子市祥和新村祥和二路西段2之1號","TEL":"05-3620800","COUNTYNAME":"嘉義縣","TOWNNAME":"朴子市","MARKTYPE":"991","Class":"1"},"geometry":{"x":177541.75870000012,"y":2595160.9637000002}},{"attributes":{"OBJECTID":26366,"LANDMARKID":"1001000000131","LANDMARKCO":"107","LANDMARKNA":"嘉義縣警察局雙溪派出所","LANDMARKAD":"1001002","ADDRESS":"嘉義縣朴子市溪口里145號","TEL":"05-3794553","COUNTYNAME":"嘉義縣","TOWNNAME":"朴子市","MARKTYPE":"991","Class":"1"},"geometry":{"x":176318.7603000002,"y":2597930.4699000008}},{"attributes":{"OBJECTID":26367,"LANDMARKID":"1001000000132","LANDMARKCO":"107","LANDMARKNA":"嘉義縣警察局大鄉派出所","LANDMARKAD":"1001002","ADDRESS":"嘉義縣朴子市大鄉里223號","TEL":"05-3792091","COUNTYNAME":"嘉義縣","TOWNNAME":"朴子市","MARKTYPE":"991","Class":"1"},"geometry":{"x":174360.72279999964,"y":2595480.6925000008}},{"attributes":{"OBJECTID":26368,"LANDMARKID":"1001000000010","LANDMARKCO":"101","LANDMARKNA":"農業委員會台南區農業改良場","LANDMARKAD":"1001002","ADDRESS":"嘉義縣朴子市德興里120號","TEL":"05-3792060","COUNTYNAME":"嘉義縣","TOWNNAME":"朴子市","MARKTYPE":"991","Class":"1"},"geometry":{"x":174242.38399999961,"y":2596890.0425000004}},{"attributes":{"OBJECTID":26369,"LANDMARKID":"1001000000469","LANDMARKCO":"207","LANDMARKNA":"嘉義縣政府文化局梅嶺美術館","LANDMARKAD":"1001002","ADDRESS":"嘉義縣朴子市山通路2之1號","TEL":" ","COUNTYNAME":"嘉義縣","TOWNNAME":"朴子市","MARKTYPE":"992","Class":"2"},"geometry":{"x":173525.18690000009,"y":2596180.3694000002}},{"attributes":{"OBJECTID":26370,"LANDMARKID":"1001000000457","LANDMARKCO":"204","LANDMARKNA":"嘉義縣立圖書館朴子金瑧分館","LANDMARKAD":"1001002","ADDRESS":"嘉義縣朴子市光復路36號","TEL":" ","COUNTYNAME":"嘉義縣","TOWNNAME":"朴子市","MARKTYPE":"992","Class":"2"},"geometry":{"x":173048.47250000015,"y":2596016.9824000001}},{"attributes":{"OBJECTID":26371,"LANDMARKID":"1001000000240","LANDMARKCO":"202","LANDMARKNA":"縣立東石國中分部","LANDMARKAD":"1001002","ADDRESS":"嘉義縣朴子市山通路7號","TEL":"05-3792151","COUNTYNAME":"嘉義縣","TOWNNAME":"朴子市","MARKTYPE":"992","Class":"2"},"geometry":{"x":173378.2770999996,"y":2596168.9768000003}},{"attributes":{"OBJECTID":26372,"LANDMARKID":"1001000000298","LANDMARKCO":"203","LANDMARKNA":"縣立朴子國中","LANDMARKAD":"1001002","ADDRESS":"嘉義縣朴子市竹圍里大同路245號","TEL":"05-3705120","COUNTYNAME":"嘉義縣","TOWNNAME":"朴子市","MARKTYPE":"992","Class":"2"},"geometry":{"x":172235.90940000024,"y":2595565.8556999993}},{"attributes":{"OBJECTID":26373,"LANDMARKID":"1001000000299","LANDMARKCO":"203","LANDMARKNA":"縣立東石國中","LANDMARKAD":"1001002","ADDRESS":"嘉義縣朴子市安福里山通路6號","TEL":"05-3792027","COUNTYNAME":"嘉義縣","TOWNNAME":"朴子市","MARKTYPE":"992","Class":"2"},"geometry":{"x":173417.0987999998,"y":2596288.2079000007}},{"attributes":{"OBJECTID":26374,"LANDMARKID":"1001000000300","LANDMARKCO":"203","LANDMARKNA":"縣立大同國小","LANDMARKAD":"1001002","ADDRESS":"嘉義縣朴子市大同路239號","TEL":"05-3704926","COUNTYNAME":"嘉義縣","TOWNNAME":"朴子市","MARKTYPE":"992","Class":"2"},"geometry":{"x":172408.99139999971,"y":2595534.4505000003}},{"attributes":{"OBJECTID":26375,"LANDMARKID":"1001000000301","LANDMARKCO":"203","LANDMARKNA":"縣立朴子國小","LANDMARKAD":"1001002","ADDRESS":"嘉義縣朴子市山通路11號","TEL":"05-3792032","COUNTYNAME":"嘉義縣","TOWNNAME":"朴子市","MARKTYPE":"992","Class":"2"},"geometry":{"x":173167.82230000012,"y":2596161.2245000005}},{"attributes":{"OBJECTID":26376,"LANDMARKID":"1001000000222","LANDMARKCO":"201","LANDMARKNA":"稻江科技暨管理學院","LANDMARKAD":"1001002","ADDRESS":"嘉義縣朴子市學府路二段51號","TEL":"05-3622889","COUNTYNAME":"嘉義縣","TOWNNAME":"朴子市","MARKTYPE":"992","Class":"2"},"geometry":{"x":177334.59509999957,"y":2594063.3925000001}},{"attributes":{"OBJECTID":26377,"LANDMARKID":"1001000000223","LANDMARKCO":"201","LANDMARKNA":"國立台灣體育學院嘉義校區","LANDMARKAD":"1001002","ADDRESS":"嘉義縣朴子市朴子三路6號","TEL":"05-3621241","COUNTYNAME":"嘉義縣","TOWNNAME":"朴子市","MARKTYPE":"992","Class":"2"},"geometry":{"x":177319.74189999979,"y":2595026.8758000005}},{"attributes":{"OBJECTID":26378,"LANDMARKID":"1001000000307","LANDMARKCO":"203","LANDMARKNA":"縣立祥和國小","LANDMARKAD":"1001002","ADDRESS":"嘉義縣朴子市祥和二路西段9號","TEL":"05-3621839","COUNTYNAME":"嘉義縣","TOWNNAME":"朴子市","MARKTYPE":"992","Class":"2"},"geometry":{"x":177171.98869999964,"y":2595044.3578999992}},{"attributes":{"OBJECTID":26379,"LANDMARKID":"1001000000238","LANDMARKCO":"202","LANDMARKNA":"國立東石高中","LANDMARKAD":"1001002","ADDRESS":"嘉義縣朴子市大鄉里253號","TEL":"05-3794180","COUNTYNAME":"嘉義縣","TOWNNAME":"朴子市","MARKTYPE":"992","Class":"2"},"geometry":{"x":173572.61429999955,"y":2595811.0211999994}},{"attributes":{"OBJECTID":26380,"LANDMARKID":"1001000000239","LANDMARKCO":"202","LANDMARKNA":"私立弘德工商","LANDMARKAD":"1001002","ADDRESS":"嘉義縣朴子市崁後里54之2號","TEL":"05-3691473","COUNTYNAME":"嘉義縣","TOWNNAME":"朴子市","MARKTYPE":"992","Class":"2"},"geometry":{"x":171131.81659999955,"y":2594360.1732999999}},{"attributes":{"OBJECTID":26381,"LANDMARKID":"1001000000302","LANDMARKCO":"203","LANDMARKNA":"縣立松梅國小","LANDMARKAD":"1001002","ADDRESS":"嘉義縣朴子市松華里345號","TEL":"05-3693075","COUNTYNAME":"嘉義縣","TOWNNAME":"朴子市","MARKTYPE":"992","Class":"2"},"geometry":{"x":173413.93159999978,"y":2590020.3447999991}},{"attributes":{"OBJECTID":26382,"LANDMARKID":"1001000000303","LANDMARKCO":"203","LANDMARKNA":"縣立竹村國小","LANDMARKAD":"1001002","ADDRESS":"嘉義縣朴子市竹村里36號","TEL":"05-3693628","COUNTYNAME":"嘉義縣","TOWNNAME":"朴子市","MARKTYPE":"992","Class":"2"},"geometry":{"x":172196.01860000007,"y":2592661.3491999991}},{"attributes":{"OBJECTID":26383,"LANDMARKID":"1001000000304","LANDMARKCO":"203","LANDMARKNA":"縣立雙溪國小","LANDMARKAD":"1001002","ADDRESS":"嘉義縣朴子市雙溪里30號","TEL":"05-3795549","COUNTYNAME":"嘉義縣","TOWNNAME":"朴子市","MARKTYPE":"992","Class":"2"},"geometry":{"x":176197.50310000032,"y":2598091.2814000007}},{"attributes":{"OBJECTID":26384,"LANDMARKID":"1001000000305","LANDMARKCO":"203","LANDMARKNA":"縣立大鄉國小","LANDMARKAD":"1001002","ADDRESS":"嘉義縣朴子市大鄉里大康榔560號","TEL":"05-3792952","COUNTYNAME":"嘉義縣","TOWNNAME":"朴子市","MARKTYPE":"992","Class":"2"},"geometry":{"x":174517.5672000004,"y":2594700.0549999997}},{"attributes":{"OBJECTID":26385,"LANDMARKID":"1001000000306","LANDMARKCO":"203","LANDMARKNA":"縣立竹村國小崁後分校","LANDMARKAD":"1001002","ADDRESS":"嘉義縣朴子市崁後里34之3號","TEL":"05-3691446","COUNTYNAME":"嘉義縣","TOWNNAME":"朴子市","MARKTYPE":"992","Class":"2"},"geometry":{"x":171322.66050000023,"y":2593961.2127}},{"attributes":{"OBJECTID":26386,"LANDMARKID":"1001000000228","LANDMARKCO":"201","LANDMARKNA":"長庚技術學院嘉義分部","LANDMARKAD":"1001002","ADDRESS":"嘉義縣朴子市嘉朴路西段2號","TEL":"05-3628800","COUNTYNAME":"嘉義縣","TOWNNAME":"朴子市","MARKTYPE":"992","Class":"2"},"geometry":{"x":177259.6771999998,"y":2595590.9609999992}},{"attributes":{"OBJECTID":26387,"LANDMARKID":"1001000000560","LANDMARKCO":"308","LANDMARKNA":"台82-觀音山交流道-西行","LANDMARKAD":"1001002","ADDRESS":"嘉義縣朴子市","TEL":" ","COUNTYNAME":"嘉義縣","TOWNNAME":"朴子市","MARKTYPE":"993","Class":"308"},"geometry":{"x":172882.49069999997,"y":2594489.4760999996}},{"attributes":{"OBJECTID":26388,"LANDMARKID":"1001000000492","LANDMARKCO":"302","LANDMARKNA":"統聯客運-朴子站-自營站","LANDMARKAD":"1001002","ADDRESS":"嘉義縣朴子市山通路59號","TEL":"連絡電話:05-370","COUNTYNAME":"嘉義縣","TOWNNAME":"朴子市","MARKTYPE":"993","Class":"302"},"geometry":{"x":172817.78259999957,"y":2596020.1765000001}},{"attributes":{"OBJECTID":26389,"LANDMARKID":"1001000000493","LANDMARKCO":"302","LANDMARKNA":"嘉義汽車客運朴子站","LANDMARKAD":"1001002","ADDRESS":"嘉義縣朴子市山通路59號","TEL":" ","COUNTYNAME":"嘉義縣","TOWNNAME":"朴子市","MARKTYPE":"993","Class":"302"},"geometry":{"x":172803.53299999982,"y":2596008.4904999994}},{"attributes":{"OBJECTID":26390,"LANDMARKID":"1001000000494","LANDMARKCO":"303","LANDMARKNA":"朴子第一公有零售市場地下室停車","LANDMARKAD":"1001002","ADDRESS":"嘉義縣朴子市開元路","TEL":" ","COUNTYNAME":"嘉義縣","TOWNNAME":"朴子市","MARKTYPE":"993","Class":"303"},"geometry":{"x":172793.38119999971,"y":2596171.2678999994}},{"attributes":{"OBJECTID":26391,"LANDMARKID":"1001000000574","LANDMARKCO":"402","LANDMARKNA":"中華電信-朴子服務中心","LANDMARKAD":"1001002","ADDRESS":"嘉義縣朴子市山通路21號","TEL":"123 或 080050","COUNTYNAME":"嘉義縣","TOWNNAME":"朴子市","MARKTYPE":"994","Class":"4"},"geometry":{"x":173075.40220000036,"y":2596160.3889000006}},{"attributes":{"OBJECTID":26392,"LANDMARKID":"1001000000575","LANDMARKCO":"402","LANDMARKNA":"威寶電信-朴子海通特約服務中心","LANDMARKAD":"1001002","ADDRESS":"嘉義縣朴子市海通路78號","TEL":"05-3707564","COUNTYNAME":"嘉義縣","TOWNNAME":"朴子市","MARKTYPE":"994","Class":"4"},"geometry":{"x":172573.39719999954,"y":2595853.2545999996}},{"attributes":{"OBJECTID":26393,"LANDMARKID":"1001000000841","LANDMARKCO":"603","LANDMARKNA":"宏賓旅社","LANDMARKAD":"1001002","ADDRESS":"嘉義縣朴子市山通路90號","TEL":"05-3792222","COUNTYNAME":"嘉義縣","TOWNNAME":"朴子市","MARKTYPE":"996","Class":"6"},"geometry":{"x":173028.9924999997,"y":2596164.1374999993}},{"attributes":{"OBJECTID":26394,"LANDMARKID":"1001000000842","LANDMARKCO":"603","LANDMARKNA":"嘉洲大飯店","LANDMARKAD":"1001002","ADDRESS":"嘉義縣朴子市光復路57號","TEL":"05-3794121-4","COUNTYNAME":"嘉義縣","TOWNNAME":"朴子市","MARKTYPE":"996","Class":"6"},"geometry":{"x":172940.4188000001,"y":2596156.6819000002}},{"attributes":{"OBJECTID":26395,"LANDMARKID":"1001000000843","LANDMARKCO":"603","LANDMARKNA":"萬龍旅社","LANDMARKAD":"1001002","ADDRESS":"嘉義縣朴子市南通路三段800號","TEL":"05-3792696","COUNTYNAME":"嘉義縣","TOWNNAME":"朴子市","MARKTYPE":"996","Class":"6"},"geometry":{"x":172659.79930000007,"y":2595894.7009999994}},{"attributes":{"OBJECTID":26396,"LANDMARKID":"1001000000629","LANDMARKCO":"405","LANDMARKNA":"中油加油站-快速交流道站","LANDMARKAD":"1001012","ADDRESS":"嘉義縣水上鄉內溪村中義路998號","TEL":"05-2306899","COUNTYNAME":"嘉義縣","TOWNNAME":"水上鄉","MARKTYPE":"994","Class":"4"},"geometry":{"x":192374.42169999983,"y":2592640.6414000001}},{"attributes":{"OBJECTID":26397,"LANDMARKID":"1001000000630","LANDMARKCO":"405","LANDMARKNA":"統一速邁樂加油站-水上加油站(中油)","LANDMARKAD":"1001012","ADDRESS":"嘉義縣水上鄉龍德村十一指厝8之2號","TEL":" ","COUNTYNAME":"嘉義縣","TOWNNAME":"水上鄉","MARKTYPE":"994","Class":"4"},"geometry":{"x":187674.99230000004,"y":2591141.3748000003}},{"attributes":{"OBJECTID":26398,"LANDMARKID":"1001000000631","LANDMARKCO":"405","LANDMARKNA":"中油加油站-柳林站(中油直營)","LANDMARKAD":"1001012","ADDRESS":"嘉義縣水上鄉柳林村柳子林76-6號","TEL":"05-2688327","COUNTYNAME":"嘉義縣","TOWNNAME":"水上鄉","MARKTYPE":"994","Class":"4"},"geometry":{"x":190268.88090000022,"y":2592479.1620000005}},{"attributes":{"OBJECTID":26399,"LANDMARKID":"1001000000632","LANDMARKCO":"405","LANDMARKNA":"中油加油站-佳宜站","LANDMARKAD":"1001012","ADDRESS":"嘉義縣水上鄉下寮村中山路三段37號","TEL":"05-2863178","COUNTYNAME":"嘉義縣","TOWNNAME":"水上鄉","MARKTYPE":"994","Class":"4"},"geometry":{"x":189970.66550000012,"y":2594251.8835000005}},{"attributes":{"OBJECTID":26400,"LANDMARKID":"1001000000633","LANDMARKCO":"405","LANDMARKNA":"中油加油站-北回站","LANDMARKAD":"1001012","ADDRESS":"嘉義縣水上鄉回歸村北回32號","TEL":"05-2853965","COUNTYNAME":"嘉義縣","TOWNNAME":"水上鄉","MARKTYPE":"994","Class":"4"},"geometry":{"x":190196.46829999983,"y":2594428.2429000009}}]}