{"displayFieldName":"COUNTYNAME","fieldAliases":{"OBJECTID":"OBJECTID","LANDMARKID":"LANDMARKID","LANDMARKCO":"LANDMARKCO","LANDMARKNA":"LANDMARKNA","LANDMARKAD":"LANDMARKAD","ADDRESS":"ADDRESS","TEL":"TEL","COUNTYNAME":"COUNTYNAME","TOWNNAME":"TOWNNAME","MARKTYPE":"MARKTYPE","Class":"Class"},"geometryType":"esriGeometryPoint","spatialReference":{"wkid":102443},"fields":[{"name":"OBJECTID","type":"esriFieldTypeOID","alias":"OBJECTID"},{"name":"LANDMARKID","type":"esriFieldTypeString","alias":"LANDMARKID","length":15},{"name":"LANDMARKCO","type":"esriFieldTypeString","alias":"LANDMARKCO","length":15},{"name":"LANDMARKNA","type":"esriFieldTypeString","alias":"LANDMARKNA","length":50},{"name":"LANDMARKAD","type":"esriFieldTypeString","alias":"LANDMARKAD","length":15},{"name":"ADDRESS","type":"esriFieldTypeString","alias":"ADDRESS","length":56},{"name":"TEL","type":"esriFieldTypeString","alias":"TEL","length":36},{"name":"COUNTYNAME","type":"esriFieldTypeString","alias":"COUNTYNAME","length":15},{"name":"TOWNNAME","type":"esriFieldTypeString","alias":"TOWNNAME","length":13},{"name":"MARKTYPE","type":"esriFieldTypeString","alias":"MARKTYPE","length":12},{"name":"Class","type":"esriFieldTypeString","alias":"Class","length":5}],"features":[{"attributes":{"OBJECTID":2401,"LANDMARKID":"1000300000574","LANDMARKCO":"207","LANDMARKNA":"大溪藝文之家","LANDMARKAD":"1000303","ADDRESS":"桃園縣大溪鎮普濟路21-3號","TEL":"03-3886461","COUNTYNAME":"桃園市","TOWNNAME":"大溪區","MARKTYPE":"992","Class":"2"},"geometry":{"x":278826.64279999956,"y":2752756.0611000005}},{"attributes":{"OBJECTID":2402,"LANDMARKID":"1000300000575","LANDMARKCO":"207","LANDMARKNA":"武德殿","LANDMARKAD":"1000303","ADDRESS":"桃園縣大溪鎮普濟路33號","TEL":" ","COUNTYNAME":"桃園市","TOWNNAME":"大溪區","MARKTYPE":"992","Class":"2"},"geometry":{"x":278882.71899999958,"y":2752611.4072999991}},{"attributes":{"OBJECTID":2403,"LANDMARKID":"1000300000559","LANDMARKCO":"205","LANDMARKNA":"金蘭博物館","LANDMARKAD":"1000303","ADDRESS":"桃園縣大溪鎮介壽路236號","TEL":"03-3801226","COUNTYNAME":"桃園市","TOWNNAME":"大溪區","MARKTYPE":"992","Class":"2"},"geometry":{"x":279513.34509999957,"y":2756911.3862999994}},{"attributes":{"OBJECTID":2404,"LANDMARKID":"1000300000754","LANDMARKCO":"308","LANDMARKNA":"國3-大溪交流道-南下","LANDMARKAD":"1000303","ADDRESS":"桃園縣大溪鎮","TEL":" ","COUNTYNAME":"桃園市","TOWNNAME":"大溪區","MARKTYPE":"993","Class":"308"},"geometry":{"x":276600.71690000035,"y":2753612.7366000004}},{"attributes":{"OBJECTID":2405,"LANDMARKID":"1000300000755","LANDMARKCO":"308","LANDMARKNA":"國3-大溪交流道-北上","LANDMARKAD":"1000303","ADDRESS":"桃園縣大溪鎮","TEL":" ","COUNTYNAME":"桃園市","TOWNNAME":"大溪區","MARKTYPE":"993","Class":"308"},"geometry":{"x":276824.12339999992,"y":2754043.5350000001}},{"attributes":{"OBJECTID":2406,"LANDMARKID":"1000300000756","LANDMARKCO":"308","LANDMARKNA":"台66-大溪端-西行","LANDMARKAD":"1000303","ADDRESS":" ","TEL":" ","COUNTYNAME":"桃園市","TOWNNAME":"大溪區","MARKTYPE":"993","Class":"308"},"geometry":{"x":276115.99280000012,"y":2754551.9243000001}},{"attributes":{"OBJECTID":2407,"LANDMARKID":"1000300000584","LANDMARKCO":"302","LANDMARKNA":"桃園汽車客運大溪總站","LANDMARKAD":"1000303","ADDRESS":"桃園縣大溪鎮復興路63號","TEL":" ","COUNTYNAME":"桃園市","TOWNNAME":"大溪區","MARKTYPE":"993","Class":"302"},"geometry":{"x":279366.10170000046,"y":2752489.3056000005}},{"attributes":{"OBJECTID":2408,"LANDMARKID":"1000300000585","LANDMARKCO":"302","LANDMARKNA":"桃園汽車客運桃園市公車站","LANDMARKAD":"1000303","ADDRESS":"桃園縣桃園市復興路151號","TEL":" ","COUNTYNAME":"桃園市","TOWNNAME":"大溪區","MARKTYPE":"993","Class":"302"},"geometry":{"x":279105.29750000034,"y":2752633.3679000009}},{"attributes":{"OBJECTID":2409,"LANDMARKID":"1000300000678","LANDMARKCO":"303","LANDMARKNA":"齋明寺停車場","LANDMARKAD":"1000303","ADDRESS":" ","TEL":" ","COUNTYNAME":"桃園市","TOWNNAME":"大溪區","MARKTYPE":"993","Class":"303"},"geometry":{"x":277735.30700000003,"y":2753468.3342000004}},{"attributes":{"OBJECTID":2410,"LANDMARKID":"1000300000679","LANDMARKCO":"303","LANDMARKNA":"公園停車場","LANDMARKAD":"1000303","ADDRESS":"桃園縣龍潭鄉中正路210號","TEL":" ","COUNTYNAME":"桃園市","TOWNNAME":"大溪區","MARKTYPE":"993","Class":"303"},"geometry":{"x":275162.59979999997,"y":2744882.8454}},{"attributes":{"OBJECTID":2411,"LANDMARKID":"1000300000680","LANDMARKCO":"303","LANDMARKNA":"阿姆坪停車場","LANDMARKAD":"1000303","ADDRESS":"桃園縣大溪鎮","TEL":" ","COUNTYNAME":"桃園市","TOWNNAME":"大溪區","MARKTYPE":"993","Class":"303"},"geometry":{"x":280679.77259999979,"y":2745284.9579000007}},{"attributes":{"OBJECTID":2412,"LANDMARKID":"1000300000681","LANDMARKCO":"303","LANDMARKNA":"古道口停車場","LANDMARKAD":"1000303","ADDRESS":"桃園縣大溪鎮","TEL":" ","COUNTYNAME":"桃園市","TOWNNAME":"大溪區","MARKTYPE":"993","Class":"303"},"geometry":{"x":278488.52859999985,"y":2747533.3535999991}},{"attributes":{"OBJECTID":2413,"LANDMARKID":"1000300000682","LANDMARKCO":"303","LANDMARKNA":"慈湖第一停車場","LANDMARKAD":"1000303","ADDRESS":"桃園縣大溪鎮","TEL":" ","COUNTYNAME":"桃園市","TOWNNAME":"大溪區","MARKTYPE":"993","Class":"303"},"geometry":{"x":279595.66349999979,"y":2748097.9973000009}},{"attributes":{"OBJECTID":2414,"LANDMARKID":"1000300000683","LANDMARKCO":"303","LANDMARKNA":"頭寮陵寢停車場","LANDMARKAD":"1000303","ADDRESS":"桃園縣大溪鎮","TEL":" ","COUNTYNAME":"桃園市","TOWNNAME":"大溪區","MARKTYPE":"993","Class":"303"},"geometry":{"x":278909.23379999958,"y":2749104.1344000008}},{"attributes":{"OBJECTID":2415,"LANDMARKID":"1000300000684","LANDMARKCO":"303","LANDMARKNA":"南苑停車場","LANDMARKAD":"1000303","ADDRESS":"桃園縣大溪鎮","TEL":" ","COUNTYNAME":"桃園市","TOWNNAME":"大溪區","MARKTYPE":"993","Class":"303"},"geometry":{"x":275007.1716,"y":2745261.4719999991}},{"attributes":{"OBJECTID":2416,"LANDMARKID":"1000300000685","LANDMARKCO":"303","LANDMARKNA":"大溪都市計畫停二停車場","LANDMARKAD":"1000303","ADDRESS":"桃園縣大溪鎮普濟路","TEL":" ","COUNTYNAME":"桃園市","TOWNNAME":"大溪區","MARKTYPE":"993","Class":"303"},"geometry":{"x":278856.1771999998,"y":2752804.6085000001}},{"attributes":{"OBJECTID":2417,"LANDMARKID":"1000300000686","LANDMARKCO":"303","LANDMARKNA":"埔頂都市計畫停四停車場","LANDMARKAD":"1000303","ADDRESS":"桃園縣大溪鎮仁善路","TEL":" ","COUNTYNAME":"桃園市","TOWNNAME":"大溪區","MARKTYPE":"993","Class":"303"},"geometry":{"x":278605.39099999983,"y":2755714.1542000007}},{"attributes":{"OBJECTID":2418,"LANDMARKID":"1000300000924","LANDMARKCO":"402","LANDMARKNA":"中華電信-大溪服務中心","LANDMARKAD":"1000303","ADDRESS":"桃園縣大溪鎮慈湖路78號","TEL":"123或0800-080-123","COUNTYNAME":"桃園市","TOWNNAME":"大溪區","MARKTYPE":"994","Class":"4"},"geometry":{"x":279171.58719999995,"y":2752723.1981000006}},{"attributes":{"OBJECTID":2419,"LANDMARKID":"1000300000925","LANDMARKCO":"402","LANDMARKNA":"威寶電信-大溪慈湖特約服務中心","LANDMARKAD":"1000303","ADDRESS":"桃園縣大溪鎮慈湖路84號","TEL":"03-3888410","COUNTYNAME":"桃園市","TOWNNAME":"大溪區","MARKTYPE":"994","Class":"4"},"geometry":{"x":279178.05360000022,"y":2752694.6217999998}},{"attributes":{"OBJECTID":2420,"LANDMARKID":"1000300001650","LANDMARKCO":"603","LANDMARKNA":"人客旅館","LANDMARKAD":"1000303","ADDRESS":"桃園縣大溪鎮埔頂路一段50號、50-1號至50-30號2樓","TEL":"03-3800666","COUNTYNAME":"桃園市","TOWNNAME":"大溪區","MARKTYPE":"996","Class":"6"},"geometry":{"x":277988.02799999993,"y":2754360.9232000001}},{"attributes":{"OBJECTID":2421,"LANDMARKID":"1000300001651","LANDMARKCO":"603","LANDMARKNA":"良辰汽車旅館","LANDMARKAD":"1000303","ADDRESS":"桃園縣八德市介壽路二段1425號1-2樓","TEL":"03-3731201","COUNTYNAME":"桃園市","TOWNNAME":"大溪區","MARKTYPE":"996","Class":"6"},"geometry":{"x":279922.66050000023,"y":2757473.3308000006}},{"attributes":{"OBJECTID":2422,"LANDMARKID":"1000300001652","LANDMARKCO":"603","LANDMARKNA":"中和旅社","LANDMARKAD":"1000303","ADDRESS":"桃園縣大溪鎮中正路31號","TEL":"03-3872366","COUNTYNAME":"桃園市","TOWNNAME":"大溪區","MARKTYPE":"996","Class":"6"},"geometry":{"x":278944.15020000003,"y":2752822.3290999997}},{"attributes":{"OBJECTID":2423,"LANDMARKID":"1000300001653","LANDMARKCO":"603","LANDMARKNA":"歐堡汽車旅館","LANDMARKAD":"1000303","ADDRESS":"桃園縣大溪鎮埔頂路一段61號及1段59巷1-3","TEL":"5-35號","COUNTYNAME":"桃園市","TOWNNAME":"大溪區","MARKTYPE":"996","Class":"6"},"geometry":{"x":276578.33069999982,"y":2752552.7569999993}},{"attributes":{"OBJECTID":2424,"LANDMARKID":"1000300001654","LANDMARKCO":"603","LANDMARKNA":"紅蟳旅館","LANDMARKAD":"1000303","ADDRESS":"桃園縣大溪鎮埔頂路一段88號3樓","TEL":"03-3807979","COUNTYNAME":"桃園市","TOWNNAME":"大溪區","MARKTYPE":"996","Class":"6"},"geometry":{"x":277759.79339999985,"y":2754649.7777999993}},{"attributes":{"OBJECTID":2425,"LANDMARKID":"1000300001655","LANDMARKCO":"603","LANDMARKNA":"僑愛大旅社","LANDMARKAD":"1000303","ADDRESS":"桃園縣大溪鎮介壽路343號","TEL":"03-3804859.3802","COUNTYNAME":"桃園市","TOWNNAME":"大溪區","MARKTYPE":"996","Class":"6"},"geometry":{"x":279460.16849999968,"y":2756772.4463}},{"attributes":{"OBJECTID":2426,"LANDMARKID":"1000300001656","LANDMARKCO":"603","LANDMARKNA":"孔雀大旅社","LANDMARKAD":"1000303","ADDRESS":"桃園縣大溪鎮介壽路904號2-3樓","TEL":"03-3800023","COUNTYNAME":"桃園市","TOWNNAME":"大溪區","MARKTYPE":"996","Class":"6"},"geometry":{"x":278820.33370000031,"y":2755451.4329000004}},{"attributes":{"OBJECTID":2427,"LANDMARKID":"1000300001657","LANDMARKCO":"603","LANDMARKNA":"碧雲天汽車旅館(大溪館)","LANDMARKAD":"1000303","ADDRESS":"桃園縣大溪鎮員林路一段211巷37號1-2樓","TEL":"03-3803399","COUNTYNAME":"桃園市","TOWNNAME":"大溪區","MARKTYPE":"996","Class":"6"},"geometry":{"x":278239.66009999998,"y":2754453.4247999992}},{"attributes":{"OBJECTID":2428,"LANDMARKID":"1000300001479","LANDMARKCO":"601","LANDMARKNA":"大溪別館","LANDMARKAD":"1000303","ADDRESS":"桃園縣大溪鎮永福里日新路166號","TEL":"03-387-6688","COUNTYNAME":"桃園市","TOWNNAME":"大溪區","MARKTYPE":"996","Class":"6"},"geometry":{"x":282973.86089999974,"y":2752743.7554000001}},{"attributes":{"OBJECTID":2429,"LANDMARKID":"1000300001404","LANDMARKCO":"503","LANDMARKNA":"大溪中正公園","LANDMARKAD":"1000303","ADDRESS":"桃園縣大溪鎮","TEL":" ","COUNTYNAME":"桃園市","TOWNNAME":"大溪區","MARKTYPE":"995","Class":"5"},"geometry":{"x":278812.58779999986,"y":2752870.3611999992}},{"attributes":{"OBJECTID":2430,"LANDMARKID":"1000300001405","LANDMARKCO":"503","LANDMARKNA":"慈湖","LANDMARKAD":"1000303","ADDRESS":"桃園縣大溪鎮","TEL":" ","COUNTYNAME":"桃園市","TOWNNAME":"大溪區","MARKTYPE":"995","Class":"5"},"geometry":{"x":279745.67949999962,"y":2748126.2167000007}},{"attributes":{"OBJECTID":2431,"LANDMARKID":"1000300001425","LANDMARKCO":"505","LANDMARKNA":"龍溪花園","LANDMARKAD":"1000303","ADDRESS":"桃園縣大溪鎮福安里水汴頭12號","TEL":" ","COUNTYNAME":"桃園市","TOWNNAME":"大溪區","MARKTYPE":"995","Class":"5"},"geometry":{"x":279573.9216,"y":2749466.6840000004}},{"attributes":{"OBJECTID":2432,"LANDMARKID":"1000300001426","LANDMARKCO":"505","LANDMARKNA":"龍珠灣遊樂區","LANDMARKAD":"1000303","ADDRESS":"桃園縣大溪鎮","TEL":" ","COUNTYNAME":"桃園市","TOWNNAME":"大溪區","MARKTYPE":"995","Class":"5"},"geometry":{"x":279044.65440000035,"y":2745871.3352000006}},{"attributes":{"OBJECTID":2433,"LANDMARKID":"1000300001401","LANDMARKCO":"503","LANDMARKNA":"石門水庫風景區","LANDMARKAD":"1000303","ADDRESS":"桃園縣大溪鎮","TEL":" ","COUNTYNAME":"桃園市","TOWNNAME":"大溪區","MARKTYPE":"995","Class":"5"},"geometry":{"x":275005.91260000039,"y":2744911.7241999991}},{"attributes":{"OBJECTID":2434,"LANDMARKID":"1000300001454","LANDMARKCO":"510","LANDMARKNA":"鴻禧大溪高爾夫球場","LANDMARKAD":"1000303","ADDRESS":"桃園縣大溪鎮永福里日新路168號","TEL":"03-3875699","COUNTYNAME":"桃園市","TOWNNAME":"大溪區","MARKTYPE":"995","Class":"5"},"geometry":{"x":283051.35730000027,"y":2752601.3204999994}},{"attributes":{"OBJECTID":2435,"LANDMARKID":"1000300001398","LANDMARKCO":"503","LANDMARKNA":"楓香道","LANDMARKAD":"1000303","ADDRESS":"石門水庫的環湖道路兩旁有多處楓香道","TEL":" ","COUNTYNAME":"桃園市","TOWNNAME":"大溪區","MARKTYPE":"995","Class":"5"},"geometry":{"x":274981.43250000011,"y":2744958.2392999995}},{"attributes":{"OBJECTID":2436,"LANDMARKID":"1000300001399","LANDMARKCO":"503","LANDMARKNA":"石門水庫自行車道","LANDMARKAD":"1000303","ADDRESS":"石門水庫自行車道是環繞著石門水庫後池堰的一條約三公","TEL":" ","COUNTYNAME":"桃園市","TOWNNAME":"大溪區","MARKTYPE":"995","Class":"5"},"geometry":{"x":274981.43250000011,"y":2744958.2392999995}},{"attributes":{"OBJECTID":2437,"LANDMARKID":"1000300001400","LANDMARKCO":"503","LANDMARKNA":"大霸、八角亭","LANDMARKAD":"1000303","ADDRESS":"石門水庫最佳的觀景平台就是大壩與八角亭","TEL":" ","COUNTYNAME":"桃園市","TOWNNAME":"大溪區","MARKTYPE":"995","Class":"5"},"geometry":{"x":274981.43250000011,"y":2744958.2392999995}},{"attributes":{"OBJECTID":2438,"LANDMARKID":"1000300000943","LANDMARKCO":"405","LANDMARKNA":"中油加油站-合信站","LANDMARKAD":"1000309","ADDRESS":"桃園縣龍潭鄉中豐路中山段230號","TEL":"03-4892986","COUNTYNAME":"桃園市","TOWNNAME":"龍潭區","MARKTYPE":"994","Class":"4"},"geometry":{"x":271204.61120000016,"y":2750911.6380000003}},{"attributes":{"OBJECTID":2439,"LANDMARKID":"1000300000944","LANDMARKCO":"405","LANDMARKNA":"中油加油站-銢嘉龍潭站","LANDMARKAD":"1000309","ADDRESS":"桃園縣龍潭鄉聖亭路15號","TEL":"03-4893488","COUNTYNAME":"桃園市","TOWNNAME":"龍潭區","MARKTYPE":"994","Class":"4"},"geometry":{"x":271251.23990000039,"y":2750803.5179999992}},{"attributes":{"OBJECTID":2440,"LANDMARKID":"1000300000945","LANDMARKCO":"405","LANDMARKNA":"中油加油站-生曜站","LANDMARKAD":"1000309","ADDRESS":"桃園縣龍潭鄉中豐路117號","TEL":"03-4897881","COUNTYNAME":"桃園市","TOWNNAME":"龍潭區","MARKTYPE":"994","Class":"4"},"geometry":{"x":271572.65280000027,"y":2751681.6150000002}},{"attributes":{"OBJECTID":2441,"LANDMARKID":"1000300000946","LANDMARKCO":"405","LANDMARKNA":"統一速邁樂加油站-龍潭二站加油站(中油)","LANDMARKAD":"1000309","ADDRESS":"桃園縣龍潭鄉黃唐村中興路448號","TEL":" ","COUNTYNAME":"桃園市","TOWNNAME":"龍潭區","MARKTYPE":"994","Class":"4"},"geometry":{"x":273032.10670000035,"y":2751663.4593000002}},{"attributes":{"OBJECTID":2442,"LANDMARKID":"1000300000947","LANDMARKCO":"405","LANDMARKNA":"中油加油站-泉盛站","LANDMARKAD":"1000309","ADDRESS":"桃園縣龍潭鄉中正路上華段126號","TEL":"03-4797799","COUNTYNAME":"桃園市","TOWNNAME":"龍潭區","MARKTYPE":"994","Class":"4"},"geometry":{"x":272632.43400000036,"y":2749469.9848999996}},{"attributes":{"OBJECTID":2443,"LANDMARKID":"1000300000948","LANDMARKCO":"405","LANDMARKNA":"中油加油站-小人國站","LANDMARKAD":"1000309","ADDRESS":"桃園縣龍潭鄉中原路2段660號","TEL":"03-4717023","COUNTYNAME":"桃園市","TOWNNAME":"龍潭區","MARKTYPE":"994","Class":"4"},"geometry":{"x":269548.11330000032,"y":2747254.9650999997}},{"attributes":{"OBJECTID":2444,"LANDMARKID":"1000300000949","LANDMARKCO":"405","LANDMARKNA":"中油加油站-龍潭站(中油直營)","LANDMARKAD":"1000309","ADDRESS":"桃園縣龍潭鄉北龍路264號","TEL":"03-4792614","COUNTYNAME":"桃園市","TOWNNAME":"龍潭區","MARKTYPE":"994","Class":"4"},"geometry":{"x":271960.73620000016,"y":2751123.3779000007}},{"attributes":{"OBJECTID":2445,"LANDMARKID":"1000300000950","LANDMARKCO":"405","LANDMARKNA":"中油加油站-九龍站","LANDMARKAD":"1000309","ADDRESS":"桃園縣龍潭鄉大昌路2段80號","TEL":"03-4707513","COUNTYNAME":"桃園市","TOWNNAME":"龍潭區","MARKTYPE":"994","Class":"4"},"geometry":{"x":272403.28550000023,"y":2751017.8544999994}},{"attributes":{"OBJECTID":2446,"LANDMARKID":"1000300000951","LANDMARKCO":"405","LANDMARKNA":"北基加油站-百年站(中油)","LANDMARKAD":"1000309","ADDRESS":"桃園縣龍潭鄉聖亭路366號","TEL":"(03)499-2080","COUNTYNAME":"桃園市","TOWNNAME":"龍潭區","MARKTYPE":"994","Class":"4"},"geometry":{"x":270516.53479999956,"y":2751671.5856999997}},{"attributes":{"OBJECTID":2447,"LANDMARKID":"1000300000952","LANDMARKCO":"405","LANDMARKNA":"統一速邁樂加油站-龍潭加油站(中油)","LANDMARKAD":"1000309","ADDRESS":"桃園縣龍潭鄉中豐路上林段187號","TEL":" ","COUNTYNAME":"桃園市","TOWNNAME":"龍潭區","MARKTYPE":"994","Class":"4"},"geometry":{"x":270797.4402999999,"y":2750397.1331999991}},{"attributes":{"OBJECTID":2448,"LANDMARKID":"1000300000953","LANDMARKCO":"405","LANDMARKNA":"北基加油站-茗貴站(中油)","LANDMARKAD":"1000309","ADDRESS":"桃園縣龍潭鄉中正路佳安段350號","TEL":"03-4711020","COUNTYNAME":"桃園市","TOWNNAME":"龍潭區","MARKTYPE":"994","Class":"4"},"geometry":{"x":274522.32060000021,"y":2749069.0847999994}},{"attributes":{"OBJECTID":2449,"LANDMARKID":"1000300000954","LANDMARKCO":"405","LANDMARKNA":"中油加油站-建龍站(中油直營)","LANDMARKAD":"1000309","ADDRESS":"桃園縣龍潭鄉烏林村中豐路716號","TEL":"03-4792578","COUNTYNAME":"桃園市","TOWNNAME":"龍潭區","MARKTYPE":"994","Class":"4"},"geometry":{"x":271499.38669999968,"y":2753548.2246000003}},{"attributes":{"OBJECTID":2450,"LANDMARKID":"1000300000955","LANDMARKCO":"405","LANDMARKNA":"中油加油站-祥瑞站","LANDMARKAD":"1000309","ADDRESS":"桃園縣龍潭鄉大昌路一段85號","TEL":"03-4093979","COUNTYNAME":"桃園市","TOWNNAME":"龍潭區","MARKTYPE":"994","Class":"4"},"geometry":{"x":271826.35830000043,"y":2751534.6285999995}},{"attributes":{"OBJECTID":2451,"LANDMARKID":"1000300000956","LANDMARKCO":"405","LANDMARKNA":"中油加油站-中興站","LANDMARKAD":"1000309","ADDRESS":"桃園縣龍潭鄉中興路369號","TEL":"03-4891399","COUNTYNAME":"桃園市","TOWNNAME":"龍潭區","MARKTYPE":"994","Class":"4"},"geometry":{"x":273405.19820000045,"y":2751735.0832000002}},{"attributes":{"OBJECTID":2452,"LANDMARKID":"1000300000957","LANDMARKCO":"405","LANDMARKNA":"中油加油站-大昌站","LANDMARKAD":"1000309","ADDRESS":"桃園縣龍潭鄉大昌路一段160號","TEL":"03-4892202","COUNTYNAME":"桃園市","TOWNNAME":"龍潭區","MARKTYPE":"994","Class":"4"},"geometry":{"x":271960.34649999999,"y":2751495.8629999999}},{"attributes":{"OBJECTID":2453,"LANDMARKID":"1000300000916","LANDMARKCO":"402","LANDMARKNA":"亞太行動寬頻電信-龍潭北龍加盟服務中心","LANDMARKAD":"1000309","ADDRESS":"桃園縣龍潭鄉北龍路205號","TEL":"03-4894886","COUNTYNAME":"桃園市","TOWNNAME":"龍潭區","MARKTYPE":"994","Class":"4"},"geometry":{"x":271812.59810000006,"y":2751084.6092000008}},{"attributes":{"OBJECTID":2454,"LANDMARKID":"1000300000760","LANDMARKCO":"401","LANDMARKNA":"敏盛綜合醫院龍潭分院","LANDMARKAD":"1000309","ADDRESS":"桃園縣龍潭鄉烏林村中豐路168號","TEL":"03- 4794151","COUNTYNAME":"桃園市","TOWNNAME":"龍潭區","MARKTYPE":"994","Class":"4"},"geometry":{"x":271585.43640000001,"y":2751919.6085999999}},{"attributes":{"OBJECTID":2455,"LANDMARKID":"1000300000761","LANDMARKCO":"401","LANDMARKNA":"國軍桃園總醫院","LANDMARKAD":"1000309","ADDRESS":"桃園縣龍潭鄉中興路168號","TEL":"03-4799595","COUNTYNAME":"桃園市","TOWNNAME":"龍潭區","MARKTYPE":"994","Class":"4"},"geometry":{"x":273910.52890000027,"y":2751949.9125999995}},{"attributes":{"OBJECTID":2456,"LANDMARKID":"1000300001429","LANDMARKCO":"505","LANDMARKNA":"小人國主題樂園","LANDMARKAD":"1000309","ADDRESS":"桃園縣龍潭鄉高原村橫岡下60之2號","TEL":" ","COUNTYNAME":"桃園市","TOWNNAME":"龍潭區","MARKTYPE":"995","Class":"5"},"geometry":{"x":269056.83609999996,"y":2747186.1557999998}},{"attributes":{"OBJECTID":2457,"LANDMARKID":"1000300001444","LANDMARKCO":"507","LANDMARKNA":"龍潭聖蹟亭","LANDMARKAD":"1000309","ADDRESS":"桃園縣龍潭鄉凌雲村竹窩子段20地號","TEL":" ","COUNTYNAME":"桃園市","TOWNNAME":"龍潭區","MARKTYPE":"995","Class":"5"},"geometry":{"x":271062.10869999975,"y":2750706.6730000004}},{"attributes":{"OBJECTID":2458,"LANDMARKID":"1000300001430","LANDMARKCO":"506","LANDMARKNA":"龍潭鄉觀光茶園","LANDMARKAD":"1000309","ADDRESS":"桃園縣龍潭鄉高原村中原路二段575號","TEL":"03-4717663","COUNTYNAME":"桃園市","TOWNNAME":"龍潭區","MARKTYPE":"995","Class":"5"},"geometry":{"x":269666.11199999973,"y":2747113.2234000005}},{"attributes":{"OBJECTID":2459,"LANDMARKID":"1000300001431","LANDMARKCO":"506","LANDMARKNA":"茶舍水龍吟","LANDMARKAD":"1000309","ADDRESS":"桃園縣龍潭鄉高原村中原路一段506號","TEL":"03-4718455","COUNTYNAME":"桃園市","TOWNNAME":"龍潭區","MARKTYPE":"995","Class":"5"},"geometry":{"x":269991.45050000027,"y":2750664.8427000009}},{"attributes":{"OBJECTID":2460,"LANDMARKID":"1000300001365","LANDMARKCO":"408","LANDMARKNA":"郵局-龍潭郵局","LANDMARKAD":"1000309","ADDRESS":"桃園縣龍潭鄉中正路151號","TEL":"(03)4792-025轉","COUNTYNAME":"桃園市","TOWNNAME":"龍潭區","MARKTYPE":"994","Class":"4"},"geometry":{"x":271898.0856999997,"y":2751034.4395000003}},{"attributes":{"OBJECTID":2461,"LANDMARKID":"1000300001366","LANDMARKCO":"408","LANDMARKNA":"郵局-龍潭大平郵局","LANDMARKAD":"1000309","ADDRESS":"桃園縣龍潭鄉中正路三坑段743號","TEL":"(03)4712-857","COUNTYNAME":"桃園市","TOWNNAME":"龍潭區","MARKTYPE":"994","Class":"4"},"geometry":{"x":274669.04140000045,"y":2747138.0460999999}},{"attributes":{"OBJECTID":2462,"LANDMARKID":"1000300001367","LANDMARKCO":"408","LANDMARKNA":"郵局-龍潭石管局郵局","LANDMARKAD":"1000309","ADDRESS":"桃園縣龍潭鄉佳安路3號","TEL":"(03)4712-509","COUNTYNAME":"桃園市","TOWNNAME":"龍潭區","MARKTYPE":"994","Class":"4"},"geometry":{"x":274166.47879999969,"y":2747227.7102000006}},{"attributes":{"OBJECTID":2463,"LANDMARKID":"1000300001368","LANDMARKCO":"408","LANDMARKNA":"郵局-龍潭三林郵局","LANDMARKAD":"1000309","ADDRESS":"桃園縣龍潭鄉中正路三林段224號","TEL":"(03)4705-904","COUNTYNAME":"桃園市","TOWNNAME":"龍潭區","MARKTYPE":"994","Class":"4"},"geometry":{"x":273137.83739999961,"y":2749143.1560999993}},{"attributes":{"OBJECTID":2464,"LANDMARKID":"1000300001369","LANDMARKCO":"408","LANDMARKNA":"郵局-龍潭中興郵局","LANDMARKAD":"1000309","ADDRESS":"桃園縣龍潭鄉中興路280號","TEL":"(03)4792-837","COUNTYNAME":"桃園市","TOWNNAME":"龍潭區","MARKTYPE":"994","Class":"4"},"geometry":{"x":273652.75760000013,"y":2751863.7152999993}},{"attributes":{"OBJECTID":2465,"LANDMARKID":"1000300001370","LANDMARKCO":"408","LANDMARKNA":"郵局-龍潭新新郵局","LANDMARKAD":"1000309","ADDRESS":"桃園縣龍潭鄉中正路佳安段481號(中山科學研究院內)","TEL":"(03)4711-273","COUNTYNAME":"桃園市","TOWNNAME":"龍潭區","MARKTYPE":"994","Class":"4"},"geometry":{"x":274763.97360000014,"y":2749054.1421000008}},{"attributes":{"OBJECTID":2466,"LANDMARKID":"1000300001371","LANDMARKCO":"408","LANDMARKNA":"郵局-龍潭烏林郵局","LANDMARKAD":"1000309","ADDRESS":"桃園縣龍潭鄉中豐路508號","TEL":"(03)4798-278","COUNTYNAME":"桃園市","TOWNNAME":"龍潭區","MARKTYPE":"994","Class":"4"},"geometry":{"x":271430.89039999992,"y":2752872.5139000006}},{"attributes":{"OBJECTID":2467,"LANDMARKID":"1000300001372","LANDMARKCO":"408","LANDMARKNA":"郵局-龍潭核研所郵局","LANDMARKAD":"1000309","ADDRESS":"桃園縣龍潭鄉文化路1000號(行政院核能研究所內)","TEL":"(03)4711-537","COUNTYNAME":"桃園市","TOWNNAME":"龍潭區","MARKTYPE":"994","Class":"4"},"geometry":{"x":275171.6007000003,"y":2749896.0942000002}},{"attributes":{"OBJECTID":2468,"LANDMARKID":"1000300001373","LANDMARKCO":"408","LANDMARKNA":"郵局-龍潭南龍郵局","LANDMARKAD":"1000309","ADDRESS":"桃園縣龍潭鄉南龍路70號","TEL":"(03)4704-059","COUNTYNAME":"桃園市","TOWNNAME":"龍潭區","MARKTYPE":"994","Class":"4"},"geometry":{"x":271425.35140000004,"y":2750723.7617000006}},{"attributes":{"OBJECTID":2469,"LANDMARKID":"1000300001374","LANDMARKCO":"408","LANDMARKNA":"郵局-龍潭龍門郵局","LANDMARKAD":"1000309","ADDRESS":"桃園縣龍潭鄉中正路佳安段481號(中山科學研究院內)","TEL":"(03)4711-538","COUNTYNAME":"桃園市","TOWNNAME":"龍潭區","MARKTYPE":"994","Class":"4"},"geometry":{"x":274763.97360000014,"y":2749054.1421000008}},{"attributes":{"OBJECTID":2470,"LANDMARKID":"1000300001383","LANDMARKCO":"409","LANDMARKNA":"桃園縣龍潭鄉農會","LANDMARKAD":"1000309","ADDRESS":"桃園縣龍潭鄉龍星村東龍路100號","TEL":"03-4794137-40","COUNTYNAME":"桃園市","TOWNNAME":"龍潭區","MARKTYPE":"994","Class":"4"},"geometry":{"x":271769.93450000044,"y":2750513.9700000007}},{"attributes":{"OBJECTID":2471,"LANDMARKID":"1000300000942","LANDMARKCO":"404","LANDMARKNA":"台灣省自來水龍潭營運所","LANDMARKAD":"1000309","ADDRESS":"桃園縣龍潭鄉建成路1號","TEL":" ","COUNTYNAME":"桃園市","TOWNNAME":"龍潭區","MARKTYPE":"994","Class":"4"},"geometry":{"x":274353.1305999998,"y":2747676.6109999996}},{"attributes":{"OBJECTID":2472,"LANDMARKID":"1000300001270","LANDMARKCO":"406","LANDMARKNA":"八德社區公園","LANDMARKAD":"1000309","ADDRESS":"桃園縣龍潭鄉","TEL":" ","COUNTYNAME":"桃園市","TOWNNAME":"龍潭區","MARKTYPE":"994","Class":"4"},"geometry":{"x":269998.12110000011,"y":2752530.0698000006}},{"attributes":{"OBJECTID":2473,"LANDMARKID":"1000300001271","LANDMARKCO":"406","LANDMARKNA":"中央公園","LANDMARKAD":"1000309","ADDRESS":"桃園縣龍潭鄉","TEL":" ","COUNTYNAME":"桃園市","TOWNNAME":"龍潭區","MARKTYPE":"994","Class":"4"},"geometry":{"x":268616.13229999971,"y":2747823.8079000004}},{"attributes":{"OBJECTID":2474,"LANDMARKID":"1000300000958","LANDMARKCO":"405","LANDMARKNA":"台亞加油站-小人國站（台塑）","LANDMARKAD":"1000309","ADDRESS":"桃園縣龍潭鄉隆源路2-20號","TEL":"(03)471-0699","COUNTYNAME":"桃園市","TOWNNAME":"龍潭區","MARKTYPE":"994","Class":"4"},"geometry":{"x":270784.30910000019,"y":2746625.3400999997}},{"attributes":{"OBJECTID":2475,"LANDMARKID":"1000300000959","LANDMARKCO":"405","LANDMARKNA":"台亞加油站-龍潭交流道站（台塑）","LANDMARKAD":"1000309","ADDRESS":"桃園縣龍潭鄉中正路605號","TEL":"(03)480-2586","COUNTYNAME":"桃園市","TOWNNAME":"龍潭區","MARKTYPE":"994","Class":"4"},"geometry":{"x":272247.29420000035,"y":2749721.4865000006}},{"attributes":{"OBJECTID":2476,"LANDMARKID":"1000300000960","LANDMARKCO":"405","LANDMARKNA":"台塑加油站-龍門站(台塑)","LANDMARKAD":"1000309","ADDRESS":"桃園縣龍潭鄉大昌路二段13號","TEL":"03-4802548","COUNTYNAME":"桃園市","TOWNNAME":"龍潭區","MARKTYPE":"994","Class":"4"},"geometry":{"x":272360.18340000045,"y":2751258.4053000007}},{"attributes":{"OBJECTID":2477,"LANDMARKID":"1000300000961","LANDMARKCO":"405","LANDMARKNA":"全國加油站-龍潭站（台塑）","LANDMARKAD":"1000309","ADDRESS":"桃園縣龍潭鄉牛欄河13-1號","TEL":"03-4716236","COUNTYNAME":"桃園市","TOWNNAME":"龍潭區","MARKTYPE":"994","Class":"4"},"geometry":{"x":270483.61760000046,"y":2745901.1813999992}},{"attributes":{"OBJECTID":2478,"LANDMARKID":"1000300000131","LANDMARKCO":"107","LANDMARKNA":"桃園縣警察局-龍潭分局","LANDMARKAD":"1000309","ADDRESS":"桃園縣龍潭鄉干城路21號","TEL":"(03)489-0831","COUNTYNAME":"桃園市","TOWNNAME":"龍潭區","MARKTYPE":"991","Class":"1"},"geometry":{"x":270967.52450000029,"y":2751186.8782000002}},{"attributes":{"OBJECTID":2479,"LANDMARKID":"1000300000252","LANDMARKCO":"108","LANDMARKNA":"桃園縣龍潭鄉公所","LANDMARKAD":"1000309","ADDRESS":"桃園縣龍潭鄉中正路210號","TEL":"03-4793070","COUNTYNAME":"桃園市","TOWNNAME":"龍潭區","MARKTYPE":"991","Class":"1"},"geometry":{"x":271864.00129999965,"y":2750719.6135000009}},{"attributes":{"OBJECTID":2480,"LANDMARKID":"1000300000041","LANDMARKCO":"103","LANDMARKNA":"桃園縣龍潭鄉鄉民代表會","LANDMARKAD":"1000309","ADDRESS":"桃園縣龍潭鄉中正路210號","TEL":"03-4895666","COUNTYNAME":"桃園市","TOWNNAME":"龍潭區","MARKTYPE":"991","Class":"1"},"geometry":{"x":271907.01709999982,"y":2750729.9885000009}},{"attributes":{"OBJECTID":2481,"LANDMARKID":"1000300000127","LANDMARKCO":"107","LANDMARKNA":"桃園縣消防局龍潭消防分隊","LANDMARKAD":"1000309","ADDRESS":"桃園縣龍潭鄉中正路204號","TEL":"03-4792442","COUNTYNAME":"桃園市","TOWNNAME":"龍潭區","MARKTYPE":"991","Class":"1"},"geometry":{"x":271904.12849999964,"y":2750799.9931000005}},{"attributes":{"OBJECTID":2482,"LANDMARKID":"1000300000128","LANDMARKCO":"107","LANDMARKNA":"桃園縣政府警察局高平派出所","LANDMARKAD":"1000309","ADDRESS":"桃園縣龍潭鄉高平村中豐路高平段281號","TEL":"03-4717204","COUNTYNAME":"桃園市","TOWNNAME":"龍潭區","MARKTYPE":"991","Class":"1"},"geometry":{"x":270798.0103000002,"y":2747339.9765000008}},{"attributes":{"OBJECTID":2483,"LANDMARKID":"1000300000129","LANDMARKCO":"107","LANDMARKNA":"桃園縣政府警察局中興派出所","LANDMARKAD":"1000309","ADDRESS":"桃園縣龍潭鄉中興村武漢路45號","TEL":"03-4797497","COUNTYNAME":"桃園市","TOWNNAME":"龍潭區","MARKTYPE":"991","Class":"1"},"geometry":{"x":273694.05989999976,"y":2751679.8076000009}},{"attributes":{"OBJECTID":2484,"LANDMARKID":"1000300000130","LANDMARKCO":"107","LANDMARKNA":"桃園縣政府警察局龍潭分駐所","LANDMARKAD":"1000309","ADDRESS":"桃園縣龍潭鄉龍潭村東龍路198號","TEL":"03-4792002","COUNTYNAME":"桃園市","TOWNNAME":"龍潭區","MARKTYPE":"991","Class":"1"},"geometry":{"x":271709.01750000007,"y":2750729.8586999997}},{"attributes":{"OBJECTID":2485,"LANDMARKID":"1000300000110","LANDMARKCO":"106","LANDMARKNA":"桃園縣龍潭鄉戶政事務所","LANDMARKAD":"1000309","ADDRESS":"桃園縣龍潭鄉中正村15鄰中正路210號2樓","TEL":"03-4792394","COUNTYNAME":"桃園市","TOWNNAME":"龍潭區","MARKTYPE":"991","Class":"1"},"geometry":{"x":271913.04889999982,"y":2750749.9789000005}},{"attributes":{"OBJECTID":2486,"LANDMARKID":"1000300000033","LANDMARKCO":"101","LANDMARKNA":"台灣桃園女子監獄","LANDMARKAD":"1000309","ADDRESS":"桃園縣龍潭鄉中正路三林段617號","TEL":"03-4807959","COUNTYNAME":"桃園市","TOWNNAME":"龍潭區","MARKTYPE":"991","Class":"1"},"geometry":{"x":273938.05399999954,"y":2748599.8784999996}},{"attributes":{"OBJECTID":2487,"LANDMARKID":"1000300000034","LANDMARKCO":"101","LANDMARKNA":"原子能委員會核能研究所","LANDMARKAD":"1000309","ADDRESS":"桃園縣龍潭鄉文化路1000號","TEL":"03-4711400","COUNTYNAME":"桃園市","TOWNNAME":"龍潭區","MARKTYPE":"991","Class":"1"},"geometry":{"x":274297.29220000003,"y":2748119.7408000007}},{"attributes":{"OBJECTID":2488,"LANDMARKID":"1000300000040","LANDMARKCO":"103","LANDMARKNA":"桃園縣龍潭鄉衛生所","LANDMARKAD":"1000309","ADDRESS":"桃園縣龍潭鄉東龍路196號","TEL":"03-4792033#28","COUNTYNAME":"桃園市","TOWNNAME":"龍潭區","MARKTYPE":"991","Class":"1"},"geometry":{"x":271713.47109999973,"y":2750709.8524999991}},{"attributes":{"OBJECTID":2489,"LANDMARKID":"1000300000125","LANDMARKCO":"107","LANDMARKNA":"桃園縣政府警察局三和派出所","LANDMARKAD":"1000309","ADDRESS":"桃園縣龍潭鄉三和村直坑24號","TEL":"03-4794384","COUNTYNAME":"桃園市","TOWNNAME":"龍潭區","MARKTYPE":"991","Class":"1"},"geometry":{"x":267746.10960000008,"y":2749259.9311999995}},{"attributes":{"OBJECTID":2490,"LANDMARKID":"1000300000126","LANDMARKCO":"107","LANDMARKNA":"國公路第六警察隊龍潭分隊","LANDMARKAD":"1000309","ADDRESS":"桃園縣龍潭鄉高原村大庄8之1號","TEL":"03-4718083","COUNTYNAME":"桃園市","TOWNNAME":"龍潭區","MARKTYPE":"991","Class":"1"},"geometry":{"x":270041.16029999964,"y":2747749.8531999998}},{"attributes":{"OBJECTID":2491,"LANDMARKID":"1000300000035","LANDMARKCO":"101","LANDMARKNA":"中山科學研究院","LANDMARKAD":"1000309","ADDRESS":"桃園縣龍潭鄉高平村石崎子9鄰15號","TEL":"03-4117120","COUNTYNAME":"桃園市","TOWNNAME":"龍潭區","MARKTYPE":"991","Class":"1"},"geometry":{"x":275635.45150000043,"y":2749429.8431000002}},{"attributes":{"OBJECTID":2492,"LANDMARKID":"1000300000555","LANDMARKCO":"204","LANDMARKNA":"桃園縣立圖書館龍潭分館","LANDMARKAD":"1000309","ADDRESS":"桃園縣龍潭鄉中正村中正路210號","TEL":" ","COUNTYNAME":"桃園市","TOWNNAME":"龍潭區","MARKTYPE":"992","Class":"2"},"geometry":{"x":271855.95289999992,"y":2750677.8697999995}},{"attributes":{"OBJECTID":2493,"LANDMARKID":"1000300000324","LANDMARKCO":"203","LANDMARKNA":"縣立武漢國中","LANDMARKAD":"1000309","ADDRESS":"桃園縣龍潭鄉成功路190巷227號","TEL":"03-4806468","COUNTYNAME":"桃園市","TOWNNAME":"龍潭區","MARKTYPE":"992","Class":"2"},"geometry":{"x":273401.18699999992,"y":2752369.8289999999}},{"attributes":{"OBJECTID":2494,"LANDMARKID":"1000300000308","LANDMARKCO":"202","LANDMARKNA":"國立龍潭農工","LANDMARKAD":"1000309","ADDRESS":"桃園縣龍潭鄉中正村神龍路155號","TEL":"03-4792409","COUNTYNAME":"桃園市","TOWNNAME":"龍潭區","MARKTYPE":"992","Class":"2"},"geometry":{"x":271618.10819999967,"y":2750480.0024999995}},{"attributes":{"OBJECTID":2495,"LANDMARKID":"1000300000309","LANDMARKCO":"203","LANDMARKNA":"縣立凌雲國中","LANDMARKAD":"1000309","ADDRESS":"桃園縣龍潭鄉中豐路上林段418號","TEL":"03-4792604","COUNTYNAME":"桃園市","TOWNNAME":"龍潭區","MARKTYPE":"992","Class":"2"},"geometry":{"x":270401.13100000005,"y":2750189.7284999993}},{"attributes":{"OBJECTID":2496,"LANDMARKID":"1000300000310","LANDMARKCO":"203","LANDMARKNA":"縣立龍潭國中","LANDMARKAD":"1000309","ADDRESS":"桃園縣龍潭鄉中正村龍華路460號","TEL":"03-4792075","COUNTYNAME":"桃園市","TOWNNAME":"龍潭區","MARKTYPE":"992","Class":"2"},"geometry":{"x":271843.43059999961,"y":2749759.6492999997}},{"attributes":{"OBJECTID":2497,"LANDMARKID":"1000300000311","LANDMARKCO":"203","LANDMARKNA":"縣立龍星國小","LANDMARKAD":"1000309","ADDRESS":"桃園縣龍潭鄉中正路269號","TEL":"03-4797299","COUNTYNAME":"桃園市","TOWNNAME":"龍潭區","MARKTYPE":"992","Class":"2"},"geometry":{"x":272058.15730000008,"y":2750509.7480999995}},{"attributes":{"OBJECTID":2498,"LANDMARKID":"1000300000312","LANDMARKCO":"203","LANDMARKNA":"縣立潛龍國小","LANDMARKAD":"1000309","ADDRESS":"桃園縣龍潭鄉烏林村中豐路401號","TEL":"03-4792153","COUNTYNAME":"桃園市","TOWNNAME":"龍潭區","MARKTYPE":"992","Class":"2"},"geometry":{"x":271277.00889999978,"y":2752569.6587000005}},{"attributes":{"OBJECTID":2499,"LANDMARKID":"1000300000313","LANDMARKCO":"203","LANDMARKNA":"縣立石門國小","LANDMARKAD":"1000309","ADDRESS":"桃園縣龍潭鄉佳安村文化路188號","TEL":"03-4711752","COUNTYNAME":"桃園市","TOWNNAME":"龍潭區","MARKTYPE":"992","Class":"2"},"geometry":{"x":274438.52400000021,"y":2748249.9857000001}},{"attributes":{"OBJECTID":2500,"LANDMARKID":"1000300000314","LANDMARKCO":"203","LANDMARKNA":"縣立武漢國小","LANDMARKAD":"1000309","ADDRESS":"桃園縣龍潭鄉武漢路100號","TEL":"03-4792873","COUNTYNAME":"桃園市","TOWNNAME":"龍潭區","MARKTYPE":"992","Class":"2"},"geometry":{"x":273654.19340000022,"y":2751449.8771000002}},{"attributes":{"OBJECTID":2501,"LANDMARKID":"1000300000315","LANDMARKCO":"203","LANDMARKNA":"縣立龍潭國小","LANDMARKAD":"1000309","ADDRESS":"桃園縣龍潭鄉龍潭村南龍路13號","TEL":"03-4792014","COUNTYNAME":"桃園市","TOWNNAME":"龍潭區","MARKTYPE":"992","Class":"2"},"geometry":{"x":271542.37390000001,"y":2750649.6834999993}},{"attributes":{"OBJECTID":2502,"LANDMARKID":"1000300000316","LANDMARKCO":"203","LANDMARKNA":"縣立雙龍國小","LANDMARKAD":"1000309","ADDRESS":"桃園縣龍潭鄉神龍路346號","TEL":"03-4991888","COUNTYNAME":"桃園市","TOWNNAME":"龍潭區","MARKTYPE":"992","Class":"2"},"geometry":{"x":271799.25949999969,"y":2749959.7184999995}},{"attributes":{"OBJECTID":2503,"LANDMARKID":"1000300000317","LANDMARKCO":"203","LANDMARKNA":"私立福祿貝爾國小","LANDMARKAD":"1000309","ADDRESS":"桃園縣龍潭鄉金龍路223號","TEL":"03-4899899","COUNTYNAME":"桃園市","TOWNNAME":"龍潭區","MARKTYPE":"992","Class":"2"},"geometry":{"x":271688.20749999955,"y":2749619.8946000002}},{"attributes":{"OBJECTID":2504,"LANDMARKID":"1000300000318","LANDMARKCO":"203","LANDMARKNA":"縣立三坑國小","LANDMARKAD":"1000309","ADDRESS":"桃園縣龍潭鄉永昌路51巷85號","TEL":"03-4713627","COUNTYNAME":"桃園市","TOWNNAME":"龍潭區","MARKTYPE":"992","Class":"2"},"geometry":{"x":275116.04000000004,"y":2747669.7753999997}},{"attributes":{"OBJECTID":2505,"LANDMARKID":"1000300000254","LANDMARKCO":"201","LANDMARKNA":"國防大學","LANDMARKAD":"1000309","ADDRESS":"桃園縣龍潭鄉中興路56號","TEL":"03-3801126","COUNTYNAME":"桃園市","TOWNNAME":"龍潭區","MARKTYPE":"992","Class":"2"},"geometry":{"x":274178.23950000014,"y":2752089.9376999997}},{"attributes":{"OBJECTID":2506,"LANDMARKID":"1000300000305","LANDMARKCO":"202","LANDMARKNA":"私立泉僑高中","LANDMARKAD":"1000309","ADDRESS":"桃園縣龍潭鄉佳安段466號","TEL":"03-4712531","COUNTYNAME":"桃園市","TOWNNAME":"龍潭區","MARKTYPE":"992","Class":"2"},"geometry":{"x":274741.03949999996,"y":2748899.9434999991}},{"attributes":{"OBJECTID":2507,"LANDMARKID":"1000300000306","LANDMARKCO":"202","LANDMARKNA":"私立方曙工家","LANDMARKAD":"1000309","ADDRESS":"桃園縣龍潭鄉上林村中原路50號","TEL":"03-4796345","COUNTYNAME":"桃園市","TOWNNAME":"龍潭區","MARKTYPE":"992","Class":"2"},"geometry":{"x":270300.33339999989,"y":2750019.8781000003}},{"attributes":{"OBJECTID":2508,"LANDMARKID":"1000300000307","LANDMARKCO":"202","LANDMARKNA":"私立泉僑高中附設國中部","LANDMARKAD":"1000309","ADDRESS":"桃園縣龍潭鄉鍾正路佳安段466號","TEL":"03-4712531","COUNTYNAME":"桃園市","TOWNNAME":"龍潭區","MARKTYPE":"992","Class":"2"},"geometry":{"x":274741.02159999963,"y":2748889.9434999991}},{"attributes":{"OBJECTID":2509,"LANDMARKID":"1000300000319","LANDMARKCO":"203","LANDMARKNA":"縣立石門國中","LANDMARKAD":"1000309","ADDRESS":"桃園縣龍潭鄉十一份文化路137號","TEL":"03-4713610","COUNTYNAME":"桃園市","TOWNNAME":"龍潭區","MARKTYPE":"992","Class":"2"},"geometry":{"x":274246.3973000003,"y":2748179.8303999994}},{"attributes":{"OBJECTID":2510,"LANDMARKID":"1000300000320","LANDMARKCO":"203","LANDMARKNA":"縣立德龍國小","LANDMARKAD":"1000309","ADDRESS":"桃園縣龍潭鄉八德村25鄰49號","TEL":"03-4792524","COUNTYNAME":"桃園市","TOWNNAME":"龍潭區","MARKTYPE":"992","Class":"2"},"geometry":{"x":269693.28359999973,"y":2752759.9412999991}},{"attributes":{"OBJECTID":2511,"LANDMARKID":"1000300000321","LANDMARKCO":"203","LANDMARKNA":"縣立三和國小","LANDMARKAD":"1000309","ADDRESS":"桃園縣龍潭鄉三和村直坑39號","TEL":"03-4792154","COUNTYNAME":"桃園市","TOWNNAME":"龍潭區","MARKTYPE":"992","Class":"2"},"geometry":{"x":266914.07830000017,"y":2748929.9229000006}},{"attributes":{"OBJECTID":2512,"LANDMARKID":"1000300000322","LANDMARKCO":"203","LANDMARKNA":"縣立龍源國小","LANDMARKAD":"1000309","ADDRESS":"桃園縣龍潭鄉高平村深窩子16之1號","TEL":"03-4717149","COUNTYNAME":"桃園市","TOWNNAME":"龍潭區","MARKTYPE":"992","Class":"2"},"geometry":{"x":271452.18479999993,"y":2746529.8341000006}},{"attributes":{"OBJECTID":2513,"LANDMARKID":"1000300000323","LANDMARKCO":"203","LANDMARKNA":"縣立高原國小","LANDMARKAD":"1000309","ADDRESS":"桃園縣龍潭鄉高原村橫岡下36號","TEL":"03-4717009","COUNTYNAME":"桃園市","TOWNNAME":"龍潭區","MARKTYPE":"992","Class":"2"},"geometry":{"x":269629.3898,"y":2746989.6471999995}},{"attributes":{"OBJECTID":2514,"LANDMARKID":"1000300000573","LANDMARKCO":"206","LANDMARKNA":"桃園客家文化館","LANDMARKAD":"1000309","ADDRESS":"桃園縣龍潭鄉中正路三林段500號","TEL":"03-4096682","COUNTYNAME":"桃園市","TOWNNAME":"龍潭區","MARKTYPE":"992","Class":"2"},"geometry":{"x":273697.35690000001,"y":2748682.125}},{"attributes":{"OBJECTID":2515,"LANDMARKID":"1000300000757","LANDMARKCO":"308","LANDMARKNA":"龍潭收費站","LANDMARKAD":"1000309","ADDRESS":" ","TEL":" ","COUNTYNAME":"桃園市","TOWNNAME":"龍潭區","MARKTYPE":"993","Class":"308"},"geometry":{"x":270149.21960000042,"y":2747816.8289999999}},{"attributes":{"OBJECTID":2516,"LANDMARKID":"1000300000758","LANDMARKCO":"308","LANDMARKNA":"國3-龍潭交流道-南下","LANDMARKAD":"1000309","ADDRESS":"桃園縣龍潭鄉","TEL":" ","COUNTYNAME":"桃園市","TOWNNAME":"龍潭區","MARKTYPE":"993","Class":"308"},"geometry":{"x":272354.54669999983,"y":2750464.0876000002}},{"attributes":{"OBJECTID":2517,"LANDMARKID":"1000300000759","LANDMARKCO":"308","LANDMARKNA":"國3-龍潭交流道-北上","LANDMARKAD":"1000309","ADDRESS":"桃園縣龍潭鄉","TEL":" ","COUNTYNAME":"桃園市","TOWNNAME":"龍潭區","MARKTYPE":"993","Class":"308"},"geometry":{"x":272916.07809999958,"y":2750551.1423000004}},{"attributes":{"OBJECTID":2518,"LANDMARKID":"1000300000586","LANDMARKCO":"302","LANDMARKNA":"桃園汽車客運中壢東站","LANDMARKAD":"1000309","ADDRESS":"桃園縣龍潭鄉中山村中正路106號","TEL":" ","COUNTYNAME":"桃園市","TOWNNAME":"龍潭區","MARKTYPE":"993","Class":"302"},"geometry":{"x":271827.99110000022,"y":2751088.2261999995}},{"attributes":{"OBJECTID":2519,"LANDMARKID":"1000300000587","LANDMARKCO":"302","LANDMARKNA":"新竹汽車客運龍潭站","LANDMARKAD":"1000309","ADDRESS":"桃園縣龍潭鄉北龍路13號","TEL":" ","COUNTYNAME":"桃園市","TOWNNAME":"龍潭區","MARKTYPE":"993","Class":"302"},"geometry":{"x":271333.07899999991,"y":2750856.7652000003}},{"attributes":{"OBJECTID":2520,"LANDMARKID":"1000300000666","LANDMARKCO":"303","LANDMARKNA":"龍園休閒營地停車場","LANDMARKAD":"1000309","ADDRESS":"桃園縣龍潭鄉三水村大北坑28號","TEL":"03-4898878","COUNTYNAME":"桃園市","TOWNNAME":"龍潭區","MARKTYPE":"993","Class":"303"},"geometry":{"x":266568.48180000018,"y":2751680.6316}},{"attributes":{"OBJECTID":2521,"LANDMARKID":"1000300000667","LANDMARKCO":"303","LANDMARKNA":"小人國主題樂園停車場","LANDMARKAD":"1000309","ADDRESS":"桃園縣龍潭鄉高原村橫岡下60之2號","TEL":"03-4717211","COUNTYNAME":"桃園市","TOWNNAME":"龍潭區","MARKTYPE":"993","Class":"303"},"geometry":{"x":268994.34860000014,"y":2747171.9331}},{"attributes":{"OBJECTID":2522,"LANDMARKID":"1000300000668","LANDMARKCO":"303","LANDMARKNA":"龍潭TIS賽車場停車場","LANDMARKAD":"1000309","ADDRESS":"桃園縣龍潭鄉楊銅路一段218號","TEL":"03-4717688","COUNTYNAME":"桃園市","TOWNNAME":"龍潭區","MARKTYPE":"993","Class":"303"},"geometry":{"x":270098.3152999999,"y":2749510.2993000001}},{"attributes":{"OBJECTID":2523,"LANDMARKID":"1000300000669","LANDMARKCO":"303","LANDMARKNA":"水利署北區水資源局停車場","LANDMARKAD":"1000309","ADDRESS":"桃園縣龍潭鄉復興里10鄰10號","TEL":" ","COUNTYNAME":"桃園市","TOWNNAME":"龍潭區","MARKTYPE":"993","Class":"303"},"geometry":{"x":271414.80209999997,"y":2752240.9115999993}},{"attributes":{"OBJECTID":2524,"LANDMARKID":"1000300000670","LANDMARKCO":"303","LANDMARKNA":"台灣聯通停車場-龍潭場","LANDMARKAD":"1000309","ADDRESS":"桃園縣龍潭鄉北龍路19號旁","TEL":" ","COUNTYNAME":"桃園市","TOWNNAME":"龍潭區","MARKTYPE":"993","Class":"303"},"geometry":{"x":271347.74399999995,"y":2750892.3388}},{"attributes":{"OBJECTID":2525,"LANDMARKID":"1000300000918","LANDMARKCO":"402","LANDMARKNA":"中華電信-龍潭服務中心","LANDMARKAD":"1000309","ADDRESS":"桃園縣龍潭鄉中正路194巷25號","TEL":"123或0800-080-123","COUNTYNAME":"桃園市","TOWNNAME":"龍潭區","MARKTYPE":"994","Class":"4"},"geometry":{"x":271844.61359999981,"y":2750813.4722000007}},{"attributes":{"OBJECTID":2526,"LANDMARKID":"1000300000919","LANDMARKCO":"402","LANDMARKNA":"中華電信-龍潭北龍特約服務中心","LANDMARKAD":"1000309","ADDRESS":"桃園縣龍潭鄉北龍路106號","TEL":"03-4805151","COUNTYNAME":"桃園市","TOWNNAME":"龍潭區","MARKTYPE":"994","Class":"4"},"geometry":{"x":272171.21160000004,"y":2750928.5526000001}},{"attributes":{"OBJECTID":2527,"LANDMARKID":"1000300000920","LANDMARKCO":"402","LANDMARKNA":"中華電信-石門服務中心","LANDMARKAD":"1000309","ADDRESS":"桃園縣龍潭鄉中正路三坑段741號","TEL":"123或0800-080-123","COUNTYNAME":"桃園市","TOWNNAME":"龍潭區","MARKTYPE":"994","Class":"4"},"geometry":{"x":274685.82050000038,"y":2747165.0715999994}},{"attributes":{"OBJECTID":2528,"LANDMARKID":"1000300000921","LANDMARKCO":"402","LANDMARKNA":"威寶電信-龍潭北龍特約服務中心","LANDMARKAD":"1000309","ADDRESS":"桃園縣龍潭鄉北龍路157號","TEL":"03-4990556","COUNTYNAME":"桃園市","TOWNNAME":"龍潭區","MARKTYPE":"994","Class":"4"},"geometry":{"x":271700.00910000037,"y":2751020.1510000005}},{"attributes":{"OBJECTID":2529,"LANDMARKID":"1000300000922","LANDMARKCO":"402","LANDMARKNA":"大眾電信(震旦通訊)-龍潭中正店","LANDMARKAD":"1000309","ADDRESS":"桃園縣龍潭鄉中正路102號","TEL":"03-4802377","COUNTYNAME":"桃園市","TOWNNAME":"龍潭區","MARKTYPE":"994","Class":"4"},"geometry":{"x":271769.65230000019,"y":2751160.7059000004}},{"attributes":{"OBJECTID":2530,"LANDMARKID":"1000300000923","LANDMARKCO":"402","LANDMARKNA":"大眾電信-龍潭專賣店","LANDMARKAD":"1000309","ADDRESS":"桃園縣龍潭鄉北龍路114號","TEL":"03-4808663","COUNTYNAME":"桃園市","TOWNNAME":"龍潭區","MARKTYPE":"994","Class":"4"},"geometry":{"x":271597.94720000029,"y":2750946.0576000009}},{"attributes":{"OBJECTID":2531,"LANDMARKID":"1000300001631","LANDMARKCO":"603","LANDMARKNA":"龍都旅社","LANDMARKAD":"1000309","ADDRESS":"桃園縣龍潭鄉中興路63巷6號","TEL":"03-4791926","COUNTYNAME":"桃園市","TOWNNAME":"龍潭區","MARKTYPE":"996","Class":"6"},"geometry":{"x":274141.67850000039,"y":2752006.9048999995}},{"attributes":{"OBJECTID":2532,"LANDMARKID":"1000300001632","LANDMARKCO":"603","LANDMARKNA":"楓林大飯店","LANDMARKAD":"1000309","ADDRESS":"桃園縣龍潭鄉中正路206號","TEL":"03-4792364","COUNTYNAME":"桃園市","TOWNNAME":"龍潭區","MARKTYPE":"996","Class":"6"},"geometry":{"x":271924.12559999991,"y":2750718.4403000008}},{"attributes":{"OBJECTID":2533,"LANDMARKID":"1000300001633","LANDMARKCO":"603","LANDMARKNA":"雅仕旅社","LANDMARKAD":"1000309","ADDRESS":"桃園縣龍潭鄉東龍路319號","TEL":"03-4798811","COUNTYNAME":"桃園市","TOWNNAME":"龍潭區","MARKTYPE":"996","Class":"6"},"geometry":{"x":271574.52639999986,"y":2751026.9125999995}},{"attributes":{"OBJECTID":2534,"LANDMARKID":"1000300001634","LANDMARKCO":"603","LANDMARKNA":"溫馨旅館","LANDMARKAD":"1000309","ADDRESS":"桃園縣龍潭鄉中正路457號2樓","TEL":"03-4991688","COUNTYNAME":"桃園市","TOWNNAME":"龍潭區","MARKTYPE":"996","Class":"6"},"geometry":{"x":272138.85390000045,"y":2750117.4550999999}},{"attributes":{"OBJECTID":2535,"LANDMARKID":"1000300001635","LANDMARKCO":"603","LANDMARKNA":"凱虹汽車旅館","LANDMARKAD":"1000309","ADDRESS":"桃園縣龍潭鄉中正路506號2樓","TEL":"03-4995757","COUNTYNAME":"桃園市","TOWNNAME":"龍潭區","MARKTYPE":"996","Class":"6"},"geometry":{"x":272151.77850000001,"y":2749927.7228999995}},{"attributes":{"OBJECTID":2536,"LANDMARKID":"1000300001636","LANDMARKCO":"603","LANDMARKNA":"萊茵旅館","LANDMARKAD":"1000309","ADDRESS":"桃園縣龍潭鄉金龍路79巷21","TEL":"21-1號1-3樓","COUNTYNAME":"桃園市","TOWNNAME":"龍潭區","MARKTYPE":"996","Class":"6"},"geometry":{"x":271591.8152999999,"y":2750041.9217000008}},{"attributes":{"OBJECTID":2537,"LANDMARKID":"1000300001637","LANDMARKCO":"603","LANDMARKNA":"龍安旅社","LANDMARKAD":"1000309","ADDRESS":"桃園縣龍潭鄉北龍路30號2-3樓","TEL":"03-4792109","COUNTYNAME":"桃園市","TOWNNAME":"龍潭區","MARKTYPE":"996","Class":"6"},"geometry":{"x":271390.58980000019,"y":2750877.0538999997}},{"attributes":{"OBJECTID":2538,"LANDMARKID":"1000300001638","LANDMARKCO":"603","LANDMARKNA":"龍潭旅社","LANDMARKAD":"1000309","ADDRESS":"桃園縣龍潭鄉龍潭村西龍路31號","TEL":"03-4792158","COUNTYNAME":"桃園市","TOWNNAME":"龍潭區","MARKTYPE":"996","Class":"6"},"geometry":{"x":271387.25509999972,"y":2750754.8853999991}},{"attributes":{"OBJECTID":2539,"LANDMARKID":"1000300001639","LANDMARKCO":"603","LANDMARKNA":"源泉旅社","LANDMARKAD":"1000309","ADDRESS":"桃園縣龍潭鄉龍元路59號2樓","TEL":"03-4792045","COUNTYNAME":"桃園市","TOWNNAME":"龍潭區","MARKTYPE":"996","Class":"6"},"geometry":{"x":271442.12600000016,"y":2750800.6293000001}},{"attributes":{"OBJECTID":2540,"LANDMARKID":"1000300001445","LANDMARKCO":"508","LANDMARKNA":"石門山溫泉會館","LANDMARKAD":"1000309","ADDRESS":"桃園縣龍潭鄉民有一街313號","TEL":"03-4115931","COUNTYNAME":"桃園市","TOWNNAME":"龍潭區","MARKTYPE":"995","Class":"5"},"geometry":{"x":274356.5064000003,"y":2746336.9199999999}},{"attributes":{"OBJECTID":2541,"LANDMARKID":"1000300001428","LANDMARKCO":"505","LANDMARKNA":"小人國主題樂園","LANDMARKAD":"1000309","ADDRESS":"桃園縣龍潭鄉高原村橫岡下60之2號","TEL":" ","COUNTYNAME":"桃園市","TOWNNAME":"龍潭區","MARKTYPE":"995","Class":"5"},"geometry":{"x":269056.83609999996,"y":2747186.1599000003}},{"attributes":{"OBJECTID":2542,"LANDMARKID":"1000300001451","LANDMARKCO":"510","LANDMARKNA":"藍鷹高爾夫球場","LANDMARKAD":"1000309","ADDRESS":"桃園縣龍潭鄉三水村南坑14鄰14號","TEL":"03-4718306","COUNTYNAME":"桃園市","TOWNNAME":"龍潭區","MARKTYPE":"995","Class":"5"},"geometry":{"x":267257.52359999996,"y":2747974.8061999995}},{"attributes":{"OBJECTID":2543,"LANDMARKID":"1000300001452","LANDMARKCO":"510","LANDMARKNA":"龍潭高爾夫球場","LANDMARKAD":"1000309","ADDRESS":"桃園縣龍潭鄉民生路457號","TEL":"03-4995506","COUNTYNAME":"桃園市","TOWNNAME":"龍潭區","MARKTYPE":"995","Class":"5"},"geometry":{"x":272555.49739999976,"y":2748367.3561000004}},{"attributes":{"OBJECTID":2544,"LANDMARKID":"1000300001453","LANDMARKCO":"510","LANDMARKNA":"桃園高爾夫球場","LANDMARKAD":"1000309","ADDRESS":"桃園縣龍潭鄉九龍村23鄰39號","TEL":"03-4803388","COUNTYNAME":"桃園市","TOWNNAME":"龍潭區","MARKTYPE":"995","Class":"5"},"geometry":{"x":275079.72319999989,"y":2751356.6228999998}},{"attributes":{"OBJECTID":2545,"LANDMARKID":"1000300000962","LANDMARKCO":"405","LANDMARKNA":"中油加油站-復興站(中油直營)","LANDMARKAD":"1000313","ADDRESS":"桃園縣復興鄉澤仁村中正路267號","TEL":"03-3822939","COUNTYNAME":"桃園市","TOWNNAME":"復興區","MARKTYPE":"994","Class":"4"},"geometry":{"x":285784.49309999961,"y":2746244.7562000006}},{"attributes":{"OBJECTID":2546,"LANDMARKID":"1000300001402","LANDMARKCO":"503","LANDMARKNA":"小烏來風景特定區","LANDMARKAD":"1000313","ADDRESS":"桃園縣復興鄉","TEL":" ","COUNTYNAME":"桃園市","TOWNNAME":"復興區","MARKTYPE":"995","Class":"5"},"geometry":{"x":288248.99370000046,"y":2743027.5829000007}},{"attributes":{"OBJECTID":2547,"LANDMARKID":"1000300001403","LANDMARKCO":"503","LANDMARKNA":"拉拉山自然保護區","LANDMARKAD":"1000313","ADDRESS":"桃園縣復興鄉","TEL":" ","COUNTYNAME":"桃園市","TOWNNAME":"復興區","MARKTYPE":"995","Class":"5"},"geometry":{"x":294253.96999999974,"y":2733588.6648999993}},{"attributes":{"OBJECTID":2548,"LANDMARKID":"1000300001432","LANDMARKCO":"506","LANDMARKNA":"綜合觀光農園","LANDMARKAD":"1000313","ADDRESS":"桃園縣復興鄉三民村13鄰5號","TEL":"03-3825951","COUNTYNAME":"桃園市","TOWNNAME":"復興區","MARKTYPE":"995","Class":"5"},"geometry":{"x":283472.5569000002,"y":2747258.6631000005}},{"attributes":{"OBJECTID":2549,"LANDMARKID":"1000300001375","LANDMARKCO":"408","LANDMARKNA":"郵局-復興郵局","LANDMARKAD":"1000313","ADDRESS":"桃園縣復興鄉中正路62號","TEL":"(03)3822-307","COUNTYNAME":"桃園市","TOWNNAME":"復興區","MARKTYPE":"994","Class":"4"},"geometry":{"x":285510.25800000038,"y":2745409.4473000001}},{"attributes":{"OBJECTID":2550,"LANDMARKID":"1000300001382","LANDMARKCO":"409","LANDMARKNA":"桃園縣復興鄉農會","LANDMARKAD":"1000313","ADDRESS":"桃園縣復興鄉中正路澤仁村256號","TEL":"03-3822218","COUNTYNAME":"桃園市","TOWNNAME":"復興區","MARKTYPE":"994","Class":"4"},"geometry":{"x":285441.12179999985,"y":2745727.2879000008}},{"attributes":{"OBJECTID":2551,"LANDMARKID":"1000300001268","LANDMARKCO":"406","LANDMARKNA":"角板山公園","LANDMARKAD":"1000313","ADDRESS":"桃園縣復興鄉澤仁村","TEL":"03-3946061","COUNTYNAME":"桃園市","TOWNNAME":"復興區","MARKTYPE":"994","Class":"4"},"geometry":{"x":285463.65429999959,"y":2745249.1768999994}},{"attributes":{"OBJECTID":2552,"LANDMARKID":"1000300001269","LANDMARKCO":"406","LANDMARKNA":"角板山雕塑公園","LANDMARKAD":"1000313","ADDRESS":"桃園縣復興鄉澤仁村","TEL":"03-3946061","COUNTYNAME":"桃園市","TOWNNAME":"復興區","MARKTYPE":"994","Class":"4"},"geometry":{"x":285474.08469999954,"y":2745732.2031999994}},{"attributes":{"OBJECTID":2553,"LANDMARKID":"1000300000253","LANDMARKCO":"108","LANDMARKNA":"桃園縣復興鄉公所","LANDMARKAD":"1000313","ADDRESS":"桃園縣復興鄉中正路20號","TEL":"03-3821500","COUNTYNAME":"桃園市","TOWNNAME":"復興區","MARKTYPE":"991","Class":"1"},"geometry":{"x":285427.42459999956,"y":2745989.8884999994}},{"attributes":{"OBJECTID":2554,"LANDMARKID":"1000300000042","LANDMARKCO":"103","LANDMARKNA":"桃園縣復興鄉鄉民代表會","LANDMARKAD":"1000313","ADDRESS":"桃園縣復興鄉中正路20號5樓","TEL":"03-3822324","COUNTYNAME":"桃園市","TOWNNAME":"復興區","MARKTYPE":"991","Class":"1"},"geometry":{"x":285473.54739999957,"y":2745729.7719999999}},{"attributes":{"OBJECTID":2555,"LANDMARKID":"1000300000132","LANDMARKCO":"107","LANDMARKNA":"桃園縣政府警察局復興分駐所","LANDMARKAD":"1000313","ADDRESS":"桃園縣復興鄉澤仁村中正路2號","TEL":"03-3822604","COUNTYNAME":"桃園市","TOWNNAME":"復興區","MARKTYPE":"991","Class":"1"},"geometry":{"x":285496.20720000006,"y":2745289.7158000004}},{"attributes":{"OBJECTID":2556,"LANDMARKID":"1000300000111","LANDMARKCO":"106","LANDMARKNA":"桃園縣復興鄉戶政事務所","LANDMARKAD":"1000313","ADDRESS":"桃園縣復興鄉澤仁村14鄰中正路180號","TEL":"03-3822337","COUNTYNAME":"桃園市","TOWNNAME":"復興區","MARKTYPE":"991","Class":"1"},"geometry":{"x":285479.37349999975,"y":2745969.7550000008}},{"attributes":{"OBJECTID":2557,"LANDMARKID":"1000300000036","LANDMARKCO":"101","LANDMARKNA":"水利署北區水資源局","LANDMARKAD":"1000313","ADDRESS":"桃園縣龍潭鄉佳安路2號","TEL":"03-4712001","COUNTYNAME":"桃園市","TOWNNAME":"復興區","MARKTYPE":"991","Class":"1"},"geometry":{"x":286654.58690000046,"y":2743279.6285999995}},{"attributes":{"OBJECTID":2558,"LANDMARKID":"1000300000039","LANDMARKCO":"103","LANDMARKNA":"桃園縣復興鄉衛生所","LANDMARKAD":"1000313","ADDRESS":"桃園縣復興鄉澤仁村中正路25號","TEL":"03-3822325","COUNTYNAME":"桃園市","TOWNNAME":"復興區","MARKTYPE":"991","Class":"1"},"geometry":{"x":285487.36149999965,"y":2745349.7385000009}},{"attributes":{"OBJECTID":2559,"LANDMARKID":"1000300000113","LANDMARKCO":"107","LANDMARKNA":"桃園縣消防局復興消防分隊","LANDMARKAD":"1000313","ADDRESS":"桃園縣復興鄉中山路2號","TEL":"03-3822491","COUNTYNAME":"桃園市","TOWNNAME":"復興區","MARKTYPE":"991","Class":"1"},"geometry":{"x":283770.65259999968,"y":2747009.8200000003}},{"attributes":{"OBJECTID":2560,"LANDMARKID":"1000300000114","LANDMARKCO":"107","LANDMARKNA":"桃園縣消防局巴陵消防分隊","LANDMARKAD":"1000313","ADDRESS":"桃園縣復興鄉華陵村10鄰112號","TEL":"03-3913286","COUNTYNAME":"桃園市","TOWNNAME":"復興區","MARKTYPE":"991","Class":"1"},"geometry":{"x":289267.38470000029,"y":2730279.4666000009}},{"attributes":{"OBJECTID":2561,"LANDMARKID":"1000300000115","LANDMARKCO":"107","LANDMARKNA":"桃園縣政府警察局羅浮派出所","LANDMARKAD":"1000313","ADDRESS":"桃園縣復興鄉羅浮村3鄰3號","TEL":"03-3822606","COUNTYNAME":"桃園市","TOWNNAME":"復興區","MARKTYPE":"991","Class":"1"},"geometry":{"x":285232.56900000013,"y":2741739.6985999998}},{"attributes":{"OBJECTID":2562,"LANDMARKID":"1000300000116","LANDMARKCO":"107","LANDMARKNA":"桃園縣政府警察局榮華派出所","LANDMARKAD":"1000313","ADDRESS":"桃園縣復興鄉高義村11鄰榮華2號","TEL":"03-3821016","COUNTYNAME":"桃園市","TOWNNAME":"復興區","MARKTYPE":"991","Class":"1"},"geometry":{"x":286528.36670000013,"y":2733659.2917999998}},{"attributes":{"OBJECTID":2563,"LANDMARKID":"1000300000117","LANDMARKCO":"107","LANDMARKNA":"桃園縣政府警察局巴陵派出所","LANDMARKAD":"1000313","ADDRESS":"桃園縣復興鄉華陵村10鄰111號","TEL":"03-3912180","COUNTYNAME":"桃園市","TOWNNAME":"復興區","MARKTYPE":"991","Class":"1"},"geometry":{"x":290061.08220000006,"y":2730789.5931000002}},{"attributes":{"OBJECTID":2564,"LANDMARKID":"1000300000118","LANDMARKCO":"107","LANDMARKNA":"桃園縣政府警察局奎輝派出所","LANDMARKAD":"1000313","ADDRESS":"桃園縣復興鄉奎輝村4鄰37號","TEL":"03-3822960","COUNTYNAME":"桃園市","TOWNNAME":"復興區","MARKTYPE":"991","Class":"1"},"geometry":{"x":283504.2648,"y":2743159.8085999992}},{"attributes":{"OBJECTID":2565,"LANDMARKID":"1000300000119","LANDMARKCO":"107","LANDMARKNA":"桃園縣政府警察局光華派出所","LANDMARKAD":"1000313","ADDRESS":"桃園縣復興鄉華陵村4鄰12號","TEL":"03-3912253","COUNTYNAME":"桃園市","TOWNNAME":"復興區","MARKTYPE":"991","Class":"1"},"geometry":{"x":290364.24459999986,"y":2727769.5525000002}},{"attributes":{"OBJECTID":2566,"LANDMARKID":"1000300000120","LANDMARKCO":"107","LANDMARKNA":"桃園縣政府警察局霞雲派出所","LANDMARKAD":"1000313","ADDRESS":"桃園縣復興鄉霞雲村6鄰2號","TEL":"03-3822607","COUNTYNAME":"桃園市","TOWNNAME":"復興區","MARKTYPE":"991","Class":"1"},"geometry":{"x":288489.78789999988,"y":2745499.9565999992}},{"attributes":{"OBJECTID":2567,"LANDMARKID":"1000300000121","LANDMARKCO":"107","LANDMARKNA":"桃園縣政府警察局長興派出所","LANDMARKAD":"1000313","ADDRESS":"桃園縣復興鄉長興村16鄰29號","TEL":"03-3822961","COUNTYNAME":"桃園市","TOWNNAME":"復興區","MARKTYPE":"991","Class":"1"},"geometry":{"x":276008.24480000045,"y":2743779.6879999992}},{"attributes":{"OBJECTID":2568,"LANDMARKID":"1000300000122","LANDMARKCO":"107","LANDMARKNA":"桃園縣政府警察局溪內派出所","LANDMARKAD":"1000313","ADDRESS":"桃園縣復興鄉羅浮村2鄰合流51之2號","TEL":"03-3822958","COUNTYNAME":"桃園市","TOWNNAME":"復興區","MARKTYPE":"991","Class":"1"},"geometry":{"x":288063.5569000002,"y":2743879.5964000002}},{"attributes":{"OBJECTID":2569,"LANDMARKID":"1000300000123","LANDMARKCO":"107","LANDMARKNA":"桃園縣政府警察局三民派出所","LANDMARKAD":"1000313","ADDRESS":"桃園縣復興鄉三民村12鄰水流東33號","TEL":"03-3825605","COUNTYNAME":"桃園市","TOWNNAME":"復興區","MARKTYPE":"991","Class":"1"},"geometry":{"x":283482.43599999975,"y":2747229.8377999999}},{"attributes":{"OBJECTID":2570,"LANDMARKID":"1000300000037","LANDMARKCO":"101","LANDMARKNA":"石門水庫管理局","LANDMARKAD":"1000313","ADDRESS":"桃園縣復興鄉佳安西路巷3號","TEL":"03-4713639","COUNTYNAME":"桃園市","TOWNNAME":"復興區","MARKTYPE":"991","Class":"1"},"geometry":{"x":285415.28450000007,"y":2740089.9581000004}},{"attributes":{"OBJECTID":2571,"LANDMARKID":"1000300000038","LANDMARKCO":"101","LANDMARKNA":"水利署北區水資源局石門水庫管裡處","LANDMARKAD":"1000313","ADDRESS":"桃園縣大溪鎮復興里10鄰10號","TEL":"03-4712000","COUNTYNAME":"桃園市","TOWNNAME":"復興區","MARKTYPE":"991","Class":"1"},"geometry":{"x":285505.26460000034,"y":2745619.6904000007}},{"attributes":{"OBJECTID":2572,"LANDMARKID":"1000300000112","LANDMARKCO":"107","LANDMARKNA":"桃園縣政府警察局三光派出所","LANDMARKAD":"1000313","ADDRESS":"桃園縣復復興鄉三光村7鄰33號","TEL":"03-3912258","COUNTYNAME":"桃園市","TOWNNAME":"復興區","MARKTYPE":"991","Class":"1"},"geometry":{"x":287367.66349999979,"y":2729769.3153000008}},{"attributes":{"OBJECTID":2573,"LANDMARKID":"1000300000557","LANDMARKCO":"204","LANDMARKNA":"桃園縣立圖書館中正分館","LANDMARKAD":"1000313","ADDRESS":"桃園縣復興鄉澤仁村中正路178號","TEL":" ","COUNTYNAME":"桃園市","TOWNNAME":"復興區","MARKTYPE":"992","Class":"2"},"geometry":{"x":285471.98249999993,"y":2745660.9041000009}},{"attributes":{"OBJECTID":2574,"LANDMARKID":"1000300000325","LANDMARKCO":"203","LANDMARKNA":"縣立介壽國中","LANDMARKAD":"1000313","ADDRESS":"桃園縣復興鄉澤仁村中正路248號","TEL":"03-3822315","COUNTYNAME":"桃園市","TOWNNAME":"復興區","MARKTYPE":"992","Class":"2"},"geometry":{"x":285630.34829999972,"y":2745959.3659000006}},{"attributes":{"OBJECTID":2575,"LANDMARKID":"1000300000326","LANDMARKCO":"203","LANDMARKNA":"縣立介壽國小","LANDMARKAD":"1000313","ADDRESS":"桃園縣復興鄉澤仁村中正路33號","TEL":"03-3822364","COUNTYNAME":"桃園市","TOWNNAME":"復興區","MARKTYPE":"992","Class":"2"},"geometry":{"x":285481.56709999964,"y":2745429.7533999998}},{"attributes":{"OBJECTID":2576,"LANDMARKID":"1000300000327","LANDMARKCO":"203","LANDMARKNA":"縣立高義國小","LANDMARKAD":"1000313","ADDRESS":"桃園縣復興鄉高義村28號","TEL":"03-3912313","COUNTYNAME":"桃園市","TOWNNAME":"復興區","MARKTYPE":"992","Class":"2"},"geometry":{"x":286485.39910000004,"y":2733979.4027999993}},{"attributes":{"OBJECTID":2577,"LANDMARKID":"1000300000328","LANDMARKCO":"203","LANDMARKNA":"縣立三光國小","LANDMARKAD":"1000313","ADDRESS":"桃園縣復興鄉三光村6鄰7號","TEL":"03-3912230","COUNTYNAME":"桃園市","TOWNNAME":"復興區","MARKTYPE":"992","Class":"2"},"geometry":{"x":287186.44739999995,"y":2729689.8015999999}},{"attributes":{"OBJECTID":2578,"LANDMARKID":"1000300000329","LANDMARKCO":"203","LANDMARKNA":"縣立霞雲國小","LANDMARKAD":"1000313","ADDRESS":"桃園縣復興鄉霞雲村6鄰14號","TEL":"03-3822224","COUNTYNAME":"桃園市","TOWNNAME":"復興區","MARKTYPE":"992","Class":"2"},"geometry":{"x":288676.84640000015,"y":2745519.4335999992}},{"attributes":{"OBJECTID":2579,"LANDMARKID":"1000300000330","LANDMARKCO":"203","LANDMARKNA":"縣立巴崚國小","LANDMARKAD":"1000313","ADDRESS":"桃園縣復興鄉華陵村9鄰75號","TEL":"03-3912131","COUNTYNAME":"桃園市","TOWNNAME":"復興區","MARKTYPE":"992","Class":"2"},"geometry":{"x":290167.45760000031,"y":2730919.2858000007}},{"attributes":{"OBJECTID":2580,"LANDMARKID":"1000300000331","LANDMARKCO":"203","LANDMARKNA":"縣立三民國小","LANDMARKAD":"1000313","ADDRESS":"桃園縣復興鄉三民村11鄰57號","TEL":"03-3825294","COUNTYNAME":"桃園市","TOWNNAME":"復興區","MARKTYPE":"992","Class":"2"},"geometry":{"x":283453.58129999973,"y":2747289.9079}},{"attributes":{"OBJECTID":2581,"LANDMARKID":"1000300000332","LANDMARKCO":"203","LANDMARKNA":"縣立光華國小","LANDMARKAD":"1000313","ADDRESS":"桃園縣復興鄉華陵村12號","TEL":"03-3912325","COUNTYNAME":"桃園市","TOWNNAME":"復興區","MARKTYPE":"992","Class":"2"},"geometry":{"x":290457.76140000019,"y":2727639.2831999995}},{"attributes":{"OBJECTID":2582,"LANDMARKID":"1000300000333","LANDMARKCO":"203","LANDMARKNA":"縣立長興國小","LANDMARKAD":"1000313","ADDRESS":"桃園縣復興鄉長興村16鄰43號","TEL":"03-3822178","COUNTYNAME":"桃園市","TOWNNAME":"復興區","MARKTYPE":"992","Class":"2"},"geometry":{"x":281084.66889999993,"y":2743649.5791999996}},{"attributes":{"OBJECTID":2583,"LANDMARKID":"1000300000334","LANDMARKCO":"203","LANDMARKNA":"縣立奎輝國小","LANDMARKAD":"1000313","ADDRESS":"桃園縣復興鄉奎輝村三鄰25號","TEL":"03-3822177","COUNTYNAME":"桃園市","TOWNNAME":"復興區","MARKTYPE":"992","Class":"2"},"geometry":{"x":285169.51460000034,"y":2744179.8431000002}},{"attributes":{"OBJECTID":2584,"LANDMARKID":"1000300000335","LANDMARKCO":"203","LANDMARKNA":"縣立義盛國小","LANDMARKAD":"1000313","ADDRESS":"桃園縣復興鄉義盛村一鄰11號","TEL":"03-3822787","COUNTYNAME":"桃園市","TOWNNAME":"復興區","MARKTYPE":"992","Class":"2"},"geometry":{"x":285804.45409999974,"y":2744769.6465000007}},{"attributes":{"OBJECTID":2585,"LANDMARKID":"1000300000671","LANDMARKCO":"303","LANDMARKNA":"美腿山遊憩區停車場","LANDMARKAD":"1000313","ADDRESS":"桃園縣復興鄉長興村","TEL":" ","COUNTYNAME":"桃園市","TOWNNAME":"復興區","MARKTYPE":"993","Class":"303"},"geometry":{"x":281758.53230000008,"y":2743471.1283}},{"attributes":{"OBJECTID":2586,"LANDMARKID":"1000300000672","LANDMARKCO":"303","LANDMARKNA":"達觀山風景區停車場","LANDMARKAD":"1000313","ADDRESS":"桃園縣復興鄉","TEL":" ","COUNTYNAME":"桃園市","TOWNNAME":"復興區","MARKTYPE":"993","Class":"303"},"geometry":{"x":288825.61060000025,"y":2730388.4894999992}},{"attributes":{"OBJECTID":2587,"LANDMARKID":"1000300000673","LANDMARKCO":"303","LANDMARKNA":"東眼山森林遊樂區大型停車場","LANDMARKAD":"1000313","ADDRESS":"桃園縣復興鄉霞雲村30號","TEL":"03-3821506","COUNTYNAME":"桃園市","TOWNNAME":"復興區","MARKTYPE":"993","Class":"303"},"geometry":{"x":291380.69259999972,"y":2747237.1532000005}},{"attributes":{"OBJECTID":2588,"LANDMARKID":"1000300000674","LANDMARKCO":"303","LANDMARKNA":"東眼山森林遊樂區小型停車場","LANDMARKAD":"1000313","ADDRESS":"桃園縣復興鄉霞雲村30號","TEL":"03-3821506","COUNTYNAME":"桃園市","TOWNNAME":"復興區","MARKTYPE":"993","Class":"303"},"geometry":{"x":291360.49909999967,"y":2747370.2039999999}},{"attributes":{"OBJECTID":2589,"LANDMARKID":"1000300000675","LANDMARKCO":"303","LANDMARKNA":"桃園縣復興鄉停車場","LANDMARKAD":"1000313","ADDRESS":"桃園縣復興鄉中山路8之1號","TEL":" ","COUNTYNAME":"桃園市","TOWNNAME":"復興區","MARKTYPE":"993","Class":"303"},"geometry":{"x":285377.55009999964,"y":2745281.0839000009}},{"attributes":{"OBJECTID":2590,"LANDMARKID":"1000300000676","LANDMARKCO":"303","LANDMARKNA":"上巴陵停車場","LANDMARKAD":"1000313","ADDRESS":"桃園縣復興鄉","TEL":" ","COUNTYNAME":"桃園市","TOWNNAME":"復興區","MARKTYPE":"993","Class":"303"},"geometry":{"x":292909.65419999976,"y":2733055.6192000005}},{"attributes":{"OBJECTID":2591,"LANDMARKID":"1000300000677","LANDMARKCO":"303","LANDMARKNA":"仁愛停車場","LANDMARKAD":"1000313","ADDRESS":"桃園縣復興鄉","TEL":" ","COUNTYNAME":"桃園市","TOWNNAME":"復興區","MARKTYPE":"993","Class":"303"},"geometry":{"x":285700.30630000029,"y":2745699.3430000003}},{"attributes":{"OBJECTID":2592,"LANDMARKID":"1000300000917","LANDMARKCO":"402","LANDMARKNA":"中華電信-復興服務中心","LANDMARKAD":"1000313","ADDRESS":"桃園縣復興鄉中正路70號","TEL":"123或0800-080-123","COUNTYNAME":"桃園市","TOWNNAME":"復興區","MARKTYPE":"994","Class":"4"},"geometry":{"x":285521.47929999977,"y":2745477.2325999998}},{"attributes":{"OBJECTID":2593,"LANDMARKID":"1000300001658","LANDMARKCO":"604","LANDMARKNA":"瑞士鄉村","LANDMARKAD":"1000313","ADDRESS":"桃園縣復興鄉三民村1鄰13-2號","TEL":"03-3822380","COUNTYNAME":"桃園市","TOWNNAME":"復興區","MARKTYPE":"996","Class":"6"},"geometry":{"x":285547.10419999994,"y":2746209.4702000003}},{"attributes":{"OBJECTID":2594,"LANDMARKID":"1000300001659","LANDMARKCO":"604","LANDMARKNA":"塔曼山莊","LANDMARKAD":"1000313","ADDRESS":"桃園縣復興鄉華陵村11鄰巴崚207-5號","TEL":"03-3912639","COUNTYNAME":"桃園市","TOWNNAME":"復興區","MARKTYPE":"996","Class":"6"},"geometry":{"x":291749.21509999968,"y":2731351.7313999999}},{"attributes":{"OBJECTID":2595,"LANDMARKID":"1000300001660","LANDMARKCO":"604","LANDMARKNA":"達觀農場","LANDMARKAD":"1000313","ADDRESS":"桃園縣復興鄉華陵村 11鄰巴崚189號","TEL":"03-3912212","COUNTYNAME":"桃園市","TOWNNAME":"復興區","MARKTYPE":"996","Class":"6"},"geometry":{"x":291021.51329999976,"y":2731764.0221999995}},{"attributes":{"OBJECTID":2596,"LANDMARKID":"1000300001661","LANDMARKCO":"604","LANDMARKNA":"景仁山莊","LANDMARKAD":"1000313","ADDRESS":"桃園縣復興鄉華陵村巴陵59號","TEL":"03-3912238","COUNTYNAME":"桃園市","TOWNNAME":"復興區","MARKTYPE":"996","Class":"6"},"geometry":{"x":289778.45449999999,"y":2730755.9613000005}},{"attributes":{"OBJECTID":2597,"LANDMARKID":"1000300001662","LANDMARKCO":"604","LANDMARKNA":"彩峰居","LANDMARKAD":"1000313","ADDRESS":"桃園縣復興鄉華陵村巴崚50號","TEL":"03-3912288","COUNTYNAME":"桃園市","TOWNNAME":"復興區","MARKTYPE":"996","Class":"6"},"geometry":{"x":290139.21449999977,"y":2730338.4306000005}},{"attributes":{"OBJECTID":2598,"LANDMARKID":"1000300001663","LANDMARKCO":"604","LANDMARKNA":"侑德園","LANDMARKAD":"1000313","ADDRESS":"桃園縣復興鄉華陵村11鄰巴崚160-2號","TEL":"03-3912731","COUNTYNAME":"桃園市","TOWNNAME":"復興區","MARKTYPE":"996","Class":"6"},"geometry":{"x":290652.56689999998,"y":2731697.5195000004}},{"attributes":{"OBJECTID":2599,"LANDMARKID":"1000300001664","LANDMARKCO":"604","LANDMARKNA":"小烏來山莊","LANDMARKAD":"1000313","ADDRESS":"桃園縣復興鄉義盛村1鄰下宇內3-2號","TEL":"03-3822877","COUNTYNAME":"桃園市","TOWNNAME":"復興區","MARKTYPE":"996","Class":"6"},"geometry":{"x":288113.41870000027,"y":2742800.8825000003}},{"attributes":{"OBJECTID":2600,"LANDMARKID":"1000300001665","LANDMARKCO":"604","LANDMARKNA":"象山農場","LANDMARKAD":"1000313","ADDRESS":"桃園縣復興鄉義盛村6鄰下宇內65號","TEL":"03-3822720","COUNTYNAME":"桃園市","TOWNNAME":"復興區","MARKTYPE":"996","Class":"6"},"geometry":{"x":288841.37270000018,"y":2742496.6361999996}}]}