{"displayFieldName":"COUNTYNAME","fieldAliases":{"OBJECTID":"OBJECTID","LANDMARKID":"LANDMARKID","LANDMARKCO":"LANDMARKCO","LANDMARKNA":"LANDMARKNA","LANDMARKAD":"LANDMARKAD","ADDRESS":"ADDRESS","TEL":"TEL","COUNTYNAME":"COUNTYNAME","TOWNNAME":"TOWNNAME","MARKTYPE":"MARKTYPE","Class":"Class"},"geometryType":"esriGeometryPoint","spatialReference":{"wkid":102443},"fields":[{"name":"OBJECTID","type":"esriFieldTypeOID","alias":"OBJECTID"},{"name":"LANDMARKID","type":"esriFieldTypeString","alias":"LANDMARKID","length":15},{"name":"LANDMARKCO","type":"esriFieldTypeString","alias":"LANDMARKCO","length":15},{"name":"LANDMARKNA","type":"esriFieldTypeString","alias":"LANDMARKNA","length":50},{"name":"LANDMARKAD","type":"esriFieldTypeString","alias":"LANDMARKAD","length":15},{"name":"ADDRESS","type":"esriFieldTypeString","alias":"ADDRESS","length":56},{"name":"TEL","type":"esriFieldTypeString","alias":"TEL","length":36},{"name":"COUNTYNAME","type":"esriFieldTypeString","alias":"COUNTYNAME","length":15},{"name":"TOWNNAME","type":"esriFieldTypeString","alias":"TOWNNAME","length":13},{"name":"MARKTYPE","type":"esriFieldTypeString","alias":"MARKTYPE","length":12},{"name":"Class","type":"esriFieldTypeString","alias":"Class","length":5}],"features":[{"attributes":{"OBJECTID":27601,"LANDMARKID":"1000700000118","LANDMARKCO":"106","LANDMARKNA":"彰化縣員林鎮戶政事務所","LANDMARKAD":"1000710","ADDRESS":"彰化縣員林鎮三和里11鄰和平東街1號","TEL":"04-8368395","COUNTYNAME":"彰化縣","TOWNNAME":"員林鎮","MARKTYPE":"991","Class":"1"},"geometry":{"x":207188.43379999977,"y":2650970.4835000001}},{"attributes":{"OBJECTID":27602,"LANDMARKID":"1000700000014","LANDMARKCO":"101","LANDMARKNA":"台灣彰化地方法院","LANDMARKAD":"1000710","ADDRESS":"彰化縣員林鎮中山路二段240號","TEL":"04-8343171","COUNTYNAME":"彰化縣","TOWNNAME":"員林鎮","MARKTYPE":"991","Class":"1"},"geometry":{"x":206423.15029999986,"y":2651370.7418000009}},{"attributes":{"OBJECTID":27603,"LANDMARKID":"1000700000015","LANDMARKCO":"101","LANDMARKNA":"農糧署中區分署","LANDMARKAD":"1000710","ADDRESS":"彰化縣員林鎮和平街11號","TEL":"04-8321911","COUNTYNAME":"彰化縣","TOWNNAME":"員林鎮","MARKTYPE":"991","Class":"1"},"geometry":{"x":206516.85500000045,"y":2650830.1687000003}},{"attributes":{"OBJECTID":27604,"LANDMARKID":"1000700000263","LANDMARKCO":"108","LANDMARKNA":"彰化縣員林鎮公所","LANDMARKAD":"1000710","ADDRESS":"彰化縣員林鎮三民街18號","TEL":"04-8347171","COUNTYNAME":"彰化縣","TOWNNAME":"員林鎮","MARKTYPE":"991","Class":"1"},"geometry":{"x":206677.57220000029,"y":2650556.7674000002}},{"attributes":{"OBJECTID":27605,"LANDMARKID":"1000700000061","LANDMARKCO":"103","LANDMARKNA":"彰化縣員林鎮鎮民代表會","LANDMARKAD":"1000710","ADDRESS":"彰化縣員林鎮三民街18號","TEL":"04-8321513","COUNTYNAME":"彰化縣","TOWNNAME":"員林鎮","MARKTYPE":"991","Class":"1"},"geometry":{"x":206677.57220000029,"y":2650556.7674000002}},{"attributes":{"OBJECTID":27606,"LANDMARKID":"1000700000228","LANDMARKCO":"107","LANDMARKNA":"彰化縣消防局員林消防分隊","LANDMARKAD":"1000710","ADDRESS":"彰化縣員林鎮和平東街21號","TEL":"04-8320300","COUNTYNAME":"彰化縣","TOWNNAME":"員林鎮","MARKTYPE":"991","Class":"1"},"geometry":{"x":207133.70679999981,"y":2650955.8902000003}},{"attributes":{"OBJECTID":27607,"LANDMARKID":"1000700000229","LANDMARKCO":"107","LANDMARKNA":"彰化縣消防局員林西區消防分隊","LANDMARKAD":"1000710","ADDRESS":"彰化縣員林鎮源泉路78號之100","TEL":"04-8382968","COUNTYNAME":"彰化縣","TOWNNAME":"員林鎮","MARKTYPE":"991","Class":"1"},"geometry":{"x":205045.98429999966,"y":2650532.8851999994}},{"attributes":{"OBJECTID":27608,"LANDMARKID":"1000700000230","LANDMARKCO":"107","LANDMARKNA":"彰化縣警察局員林分局","LANDMARKAD":"1000710","ADDRESS":"彰化縣員林鎮三和里大同路一段319號","TEL":"04-8320114","COUNTYNAME":"彰化縣","TOWNNAME":"員林鎮","MARKTYPE":"991","Class":"1"},"geometry":{"x":207211.76549999975,"y":2650936.5230999999}},{"attributes":{"OBJECTID":27609,"LANDMARKID":"1000700000231","LANDMARKCO":"107","LANDMARKNA":"彰化縣警察局員林派出所","LANDMARKAD":"1000710","ADDRESS":"彰化縣員林鎮三和里大同路一段319號","TEL":"04-8320767","COUNTYNAME":"彰化縣","TOWNNAME":"員林鎮","MARKTYPE":"991","Class":"1"},"geometry":{"x":207211.76549999975,"y":2650936.5230999999}},{"attributes":{"OBJECTID":27610,"LANDMARKID":"1000700000232","LANDMARKCO":"107","LANDMARKNA":"彰化縣警察局莒光派出所","LANDMARKAD":"1000710","ADDRESS":"彰化縣員林鎮南興里員大路一段17號","TEL":"04-8357857","COUNTYNAME":"彰化縣","TOWNNAME":"員林鎮","MARKTYPE":"991","Class":"1"},"geometry":{"x":205424.08810000028,"y":2650934.5709000006}},{"attributes":{"OBJECTID":27611,"LANDMARKID":"1000700000110","LANDMARKCO":"105","LANDMARKNA":"彰化縣員林地政事務所","LANDMARKAD":"1000710","ADDRESS":"彰化縣員林鎮三和里大同路一段318號","TEL":"04-8320310","COUNTYNAME":"彰化縣","TOWNNAME":"員林鎮","MARKTYPE":"991","Class":"1"},"geometry":{"x":207266.26850000024,"y":2650945.6954999994}},{"attributes":{"OBJECTID":27612,"LANDMARKID":"1000700000103","LANDMARKCO":"104","LANDMARKNA":"中區國稅局員林稽徵所","LANDMARKAD":"1000710","ADDRESS":"彰化縣員林鎮惠明街319號","TEL":"04-8332100","COUNTYNAME":"彰化縣","TOWNNAME":"員林鎮","MARKTYPE":"991","Class":"1"},"geometry":{"x":205647.37289999984,"y":2649812.4473999999}},{"attributes":{"OBJECTID":27613,"LANDMARKID":"1000700000016","LANDMARKCO":"101","LANDMARKNA":"台灣彰化地方法院員林簡易庭","LANDMARKAD":"1000710","ADDRESS":"彰化縣員林鎮中正路36號","TEL":"04-8360018","COUNTYNAME":"彰化縣","TOWNNAME":"員林鎮","MARKTYPE":"991","Class":"1"},"geometry":{"x":206946.1074000001,"y":2649491.0315000005}},{"attributes":{"OBJECTID":27614,"LANDMARKID":"1000700000017","LANDMARKCO":"101","LANDMARKNA":"台灣彰化看守所","LANDMARKAD":"1000710","ADDRESS":"彰化縣員林鎮法院街73號","TEL":"04-8321381","COUNTYNAME":"彰化縣","TOWNNAME":"員林鎮","MARKTYPE":"991","Class":"1"},"geometry":{"x":206564.62750000041,"y":2651405.1075999998}},{"attributes":{"OBJECTID":27615,"LANDMARKID":"1000700000018","LANDMARKCO":"101","LANDMARKNA":"內政部營建署","LANDMARKAD":"1000710","ADDRESS":"彰化縣員林鎮復興路57號","TEL":"04-8318447","COUNTYNAME":"彰化縣","TOWNNAME":"員林鎮","MARKTYPE":"991","Class":"1"},"geometry":{"x":205798.47620000038,"y":2651606.0059999991}},{"attributes":{"OBJECTID":27616,"LANDMARKID":"1000700000056","LANDMARKCO":"103","LANDMARKNA":"中華民國觀護協會彰化縣分會","LANDMARKAD":"1000710","ADDRESS":"彰化縣員林鎮中正路36號","TEL":"04-8334166","COUNTYNAME":"彰化縣","TOWNNAME":"員林鎮","MARKTYPE":"991","Class":"1"},"geometry":{"x":206946.1074000001,"y":2649491.0315000005}},{"attributes":{"OBJECTID":27617,"LANDMARKID":"1000700000019","LANDMARKCO":"101","LANDMARKNA":"國有財產局台灣中區辦事處彰化分處","LANDMARKAD":"1000710","ADDRESS":"彰化縣員林鎮靜修路23號","TEL":"04-8379260","COUNTYNAME":"彰化縣","TOWNNAME":"員林鎮","MARKTYPE":"991","Class":"1"},"geometry":{"x":206462.25590000022,"y":2650932.9531999994}},{"attributes":{"OBJECTID":27618,"LANDMARKID":"1000700000177","LANDMARKCO":"107","LANDMARKNA":"彰化縣警察局林厝派出所","LANDMARKAD":"1000710","ADDRESS":"彰化縣員林鎮林庴里山腳路一段462號","TEL":"04-8313012","COUNTYNAME":"彰化縣","TOWNNAME":"員林鎮","MARKTYPE":"991","Class":"1"},"geometry":{"x":209402.46389999986,"y":2648810.3409000002}},{"attributes":{"OBJECTID":27619,"LANDMARKID":"1000700000055","LANDMARKCO":"103","LANDMARKNA":"彰化縣員林鎮衛生所","LANDMARKAD":"1000710","ADDRESS":"彰化縣員林鎮仁美里博愛街1號","TEL":"04-8336403","COUNTYNAME":"彰化縣","TOWNNAME":"員林鎮","MARKTYPE":"991","Class":"1"},"geometry":{"x":206484.67339999974,"y":2650890.0712000001}},{"attributes":{"OBJECTID":27620,"LANDMARKID":"1000700000176","LANDMARKCO":"107","LANDMARKNA":"彰化縣消防局第二消防大隊部","LANDMARKAD":"1000710","ADDRESS":"彰化縣員林鎮三和里和平東路21號2樓","TEL":"04-8378521","COUNTYNAME":"彰化縣","TOWNNAME":"員林鎮","MARKTYPE":"991","Class":"1"},"geometry":{"x":207181.46360000037,"y":2650960.4627}},{"attributes":{"OBJECTID":27621,"LANDMARKID":"1000700000542","LANDMARKCO":"204","LANDMARKNA":"彰化縣立圖書館員林分館","LANDMARKAD":"1000710","ADDRESS":"彰化縣員林鎮三民街2之1號","TEL":" ","COUNTYNAME":"彰化縣","TOWNNAME":"員林鎮","MARKTYPE":"992","Class":"2"},"geometry":{"x":206742.35300000012,"y":2650556.7939999998}},{"attributes":{"OBJECTID":27622,"LANDMARKID":"1000700000434","LANDMARKCO":"203","LANDMARKNA":"縣立東山國小","LANDMARKAD":"1000710","ADDRESS":"彰化縣員林鎮南東里山腳路四段212號","TEL":"04-8310749","COUNTYNAME":"彰化縣","TOWNNAME":"員林鎮","MARKTYPE":"992","Class":"2"},"geometry":{"x":209474.60130000021,"y":2651530.5229000002}},{"attributes":{"OBJECTID":27623,"LANDMARKID":"1000700000300","LANDMARKCO":"202","LANDMARKNA":"國立員林高中","LANDMARKAD":"1000710","ADDRESS":"彰化縣員林鎮靜修路79號","TEL":"04-8320364","COUNTYNAME":"彰化縣","TOWNNAME":"員林鎮","MARKTYPE":"992","Class":"2"},"geometry":{"x":205599.09499999974,"y":2650770.8362000007}},{"attributes":{"OBJECTID":27624,"LANDMARKID":"1000700000429","LANDMARKCO":"203","LANDMARKNA":"縣立員林國中","LANDMARKAD":"1000710","ADDRESS":"彰化縣員林鎮南興里南潭路2號","TEL":"04-8320873","COUNTYNAME":"彰化縣","TOWNNAME":"員林鎮","MARKTYPE":"992","Class":"2"},"geometry":{"x":205163.23900000006,"y":2651030.3610999994}},{"attributes":{"OBJECTID":27625,"LANDMARKID":"1000700000430","LANDMARKCO":"203","LANDMARKNA":"縣立員林國小","LANDMARKAD":"1000710","ADDRESS":"彰化縣員林鎮三和里三民東街221號","TEL":"04-8320145","COUNTYNAME":"彰化縣","TOWNNAME":"員林鎮","MARKTYPE":"992","Class":"2"},"geometry":{"x":207125.32120000012,"y":2650700.2979000006}},{"attributes":{"OBJECTID":27626,"LANDMARKID":"1000700000431","LANDMARKCO":"203","LANDMARKNA":"縣立饒明國小","LANDMARKAD":"1000710","ADDRESS":"彰化縣員林鎮中央里員集路二段131號","TEL":"04-8331020","COUNTYNAME":"彰化縣","TOWNNAME":"員林鎮","MARKTYPE":"992","Class":"2"},"geometry":{"x":206802.9104000004,"y":2648350.1997999996}},{"attributes":{"OBJECTID":27627,"LANDMARKID":"1000700000432","LANDMARKCO":"203","LANDMARKNA":"縣立明湖國小","LANDMARKAD":"1000710","ADDRESS":"彰化縣員林鎮湖水里湖水巷26號","TEL":"04-8310743","COUNTYNAME":"彰化縣","TOWNNAME":"員林鎮","MARKTYPE":"992","Class":"2"},"geometry":{"x":210897.90919999965,"y":2649880.5428999998}},{"attributes":{"OBJECTID":27628,"LANDMARKID":"1000700000301","LANDMARKCO":"202","LANDMARKNA":"國立員林家商","LANDMARKAD":"1000710","ADDRESS":"彰化縣員林鎮中正路56號","TEL":"04-8320260","COUNTYNAME":"彰化縣","TOWNNAME":"員林鎮","MARKTYPE":"992","Class":"2"},"geometry":{"x":206895.0839999998,"y":2649602.9456999991}},{"attributes":{"OBJECTID":27629,"LANDMARKID":"1000700000302","LANDMARKCO":"202","LANDMARKNA":"國立崇實高工","LANDMARKAD":"1000710","ADDRESS":"彰化縣員林鎮育英路103號","TEL":"04-8347106","COUNTYNAME":"彰化縣","TOWNNAME":"員林鎮","MARKTYPE":"992","Class":"2"},"geometry":{"x":206776.29360000044,"y":2650786.9573999997}},{"attributes":{"OBJECTID":27630,"LANDMARKID":"1000700000303","LANDMARKCO":"202","LANDMARKNA":"國立員林農工","LANDMARKAD":"1000710","ADDRESS":"彰化縣員林鎮員水路二段313號","TEL":"04-8360105","COUNTYNAME":"彰化縣","TOWNNAME":"員林鎮","MARKTYPE":"992","Class":"2"},"geometry":{"x":207438.67229999974,"y":2650065.4221999999}},{"attributes":{"OBJECTID":27631,"LANDMARKID":"1000700000423","LANDMARKCO":"203","LANDMARKNA":"縣立大同國中","LANDMARKAD":"1000710","ADDRESS":"彰化縣員林鎮大同路一段345號","TEL":"04-8358382","COUNTYNAME":"彰化縣","TOWNNAME":"員林鎮","MARKTYPE":"992","Class":"2"},"geometry":{"x":207198.9617999997,"y":2651008.1647999994}},{"attributes":{"OBJECTID":27632,"LANDMARKID":"1000700000424","LANDMARKCO":"203","LANDMARKNA":"縣立明倫國中","LANDMARKAD":"1000710","ADDRESS":"彰化縣員林鎮萬年里明倫路2號","TEL":"04-8311349","COUNTYNAME":"彰化縣","TOWNNAME":"員林鎮","MARKTYPE":"992","Class":"2"},"geometry":{"x":207816.44840000011,"y":2649302.5642000008}},{"attributes":{"OBJECTID":27633,"LANDMARKID":"1000700000425","LANDMARKCO":"203","LANDMARKNA":"縣立僑信國小","LANDMARKAD":"1000710","ADDRESS":"彰化縣員林鎮三橋里中山路二段280號","TEL":"04-8320810","COUNTYNAME":"彰化縣","TOWNNAME":"員林鎮","MARKTYPE":"992","Class":"2"},"geometry":{"x":206403.7379999999,"y":2651438.5900999997}},{"attributes":{"OBJECTID":27634,"LANDMARKID":"1000700000426","LANDMARKCO":"203","LANDMARKNA":"縣立育英國小","LANDMARKAD":"1000710","ADDRESS":"彰化縣員林鎮黎明里光明街31號","TEL":"04-8320230","COUNTYNAME":"彰化縣","TOWNNAME":"員林鎮","MARKTYPE":"992","Class":"2"},"geometry":{"x":206652.67420000024,"y":2649851.9504000004}},{"attributes":{"OBJECTID":27635,"LANDMARKID":"1000700000427","LANDMARKCO":"203","LANDMARKNA":"縣立員東國小","LANDMARKAD":"1000710","ADDRESS":"彰化縣員林鎮浮圳里員東路二段12號","TEL":"04-8311022","COUNTYNAME":"彰化縣","TOWNNAME":"員林鎮","MARKTYPE":"992","Class":"2"},"geometry":{"x":208001.10080000013,"y":2650900.9105999991}},{"attributes":{"OBJECTID":27636,"LANDMARKID":"1000700000428","LANDMARKCO":"203","LANDMARKNA":"縣立靜修國小","LANDMARKAD":"1000710","ADDRESS":"彰化縣員林鎮南平里靜修路74號","TEL":"04-8346804","COUNTYNAME":"彰化縣","TOWNNAME":"員林鎮","MARKTYPE":"992","Class":"2"},"geometry":{"x":205782.63630000036,"y":2650941.9230000004}},{"attributes":{"OBJECTID":27637,"LANDMARKID":"1000700000286","LANDMARKCO":"201","LANDMARKNA":"中州技術學院","LANDMARKAD":"1000710","ADDRESS":"彰化縣員林鎮山腳路三段2巷6號","TEL":"04-8311498","COUNTYNAME":"彰化縣","TOWNNAME":"員林鎮","MARKTYPE":"992","Class":"2"},"geometry":{"x":209833.23709999956,"y":2650430.7413999997}},{"attributes":{"OBJECTID":27638,"LANDMARKID":"1000700000299","LANDMARKCO":"202","LANDMARKNA":"私立大慶商工","LANDMARKAD":"1000710","ADDRESS":"彰化縣員林鎮山腳路二段206號","TEL":"04-8311005","COUNTYNAME":"彰化縣","TOWNNAME":"員林鎮","MARKTYPE":"992","Class":"2"},"geometry":{"x":209397.6481999997,"y":2649360.3223999999}},{"attributes":{"OBJECTID":27639,"LANDMARKID":"1000700000433","LANDMARKCO":"203","LANDMARKNA":"縣立青山國小","LANDMARKAD":"1000710","ADDRESS":"彰化縣員林鎮出水里泉洲巷3號","TEL":"04-8310401","COUNTYNAME":"彰化縣","TOWNNAME":"員林鎮","MARKTYPE":"992","Class":"2"},"geometry":{"x":209525.85219999962,"y":2648980.6864999998}},{"attributes":{"OBJECTID":27640,"LANDMARKID":"1000700000585","LANDMARKCO":"303","LANDMARKNA":"新百果山遊樂園停車場","LANDMARKAD":"1000710","ADDRESS":"彰化縣員林鎮","TEL":"04-8315834","COUNTYNAME":"彰化縣","TOWNNAME":"員林鎮","MARKTYPE":"993","Class":"303"},"geometry":{"x":209811.03689999972,"y":2649139.5967999995}},{"attributes":{"OBJECTID":27641,"LANDMARKID":"1000700000586","LANDMARKCO":"303","LANDMARKNA":"三百崁入口停車場","LANDMARKAD":"1000710","ADDRESS":"彰化縣員林鎮","TEL":" ","COUNTYNAME":"彰化縣","TOWNNAME":"員林鎮","MARKTYPE":"993","Class":"303"},"geometry":{"x":211363.73780000024,"y":2648483.1170000006}},{"attributes":{"OBJECTID":27642,"LANDMARKID":"1000700000587","LANDMARKCO":"303","LANDMARKNA":"三百崁入口停車場","LANDMARKAD":"1000710","ADDRESS":"彰化縣員林鎮","TEL":" ","COUNTYNAME":"彰化縣","TOWNNAME":"員林鎮","MARKTYPE":"993","Class":"303"},"geometry":{"x":210903.25289999973,"y":2648552.8852999993}},{"attributes":{"OBJECTID":27643,"LANDMARKID":"1000700000674","LANDMARKCO":"308","LANDMARKNA":"台76-員林交流道-東行","LANDMARKAD":"1000710","ADDRESS":" ","TEL":" ","COUNTYNAME":"彰化縣","TOWNNAME":"員林鎮","MARKTYPE":"993","Class":"308"},"geometry":{"x":206209.47499999963,"y":2648981.4831000008}},{"attributes":{"OBJECTID":27644,"LANDMARKID":"1000700000675","LANDMARKCO":"308","LANDMARKNA":"台76-林厝交流道-西行","LANDMARKAD":"1000710","ADDRESS":" ","TEL":" ","COUNTYNAME":"彰化縣","TOWNNAME":"員林鎮","MARKTYPE":"993","Class":"308"},"geometry":{"x":208785.91940000001,"y":2648431.6326000001}},{"attributes":{"OBJECTID":27645,"LANDMARKID":"1000700000676","LANDMARKCO":"308","LANDMARKNA":"台76-林厝交流道-東行","LANDMARKAD":"1000710","ADDRESS":" ","TEL":" ","COUNTYNAME":"彰化縣","TOWNNAME":"員林鎮","MARKTYPE":"993","Class":"308"},"geometry":{"x":209769.39020000026,"y":2648617.6798999999}},{"attributes":{"OBJECTID":27646,"LANDMARKID":"1000700000579","LANDMARKCO":"302","LANDMARKNA":"國光汽車客運員林站","LANDMARKAD":"1000710","ADDRESS":"彰化縣員林鎮和平里中山路二段79號","TEL":" ","COUNTYNAME":"彰化縣","TOWNNAME":"員林鎮","MARKTYPE":"993","Class":"302"},"geometry":{"x":206306.99210000038,"y":2650941.0351}},{"attributes":{"OBJECTID":27647,"LANDMARKID":"1000700000580","LANDMARKCO":"302","LANDMARKNA":"統聯客運-員林站-自營站","LANDMARKAD":"1000710","ADDRESS":"彰化縣員林鎮民權街46號","TEL":"連絡電話:04-831","COUNTYNAME":"彰化縣","TOWNNAME":"員林鎮","MARKTYPE":"993","Class":"302"},"geometry":{"x":206277.08930000011,"y":2650608.4539999999}},{"attributes":{"OBJECTID":27648,"LANDMARKID":"1000700000581","LANDMARKCO":"303","LANDMARKNA":"站前停車場","LANDMARKAD":"1000710","ADDRESS":"彰化縣員林鎮光復街","TEL":" ","COUNTYNAME":"彰化縣","TOWNNAME":"員林鎮","MARKTYPE":"993","Class":"303"},"geometry":{"x":206243.92080000043,"y":2650400.0833000001}},{"attributes":{"OBJECTID":27649,"LANDMARKID":"1000700000582","LANDMARKCO":"303","LANDMARKNA":"華成停車場","LANDMARKAD":"1000710","ADDRESS":"彰化縣員林鎮","TEL":"04-8320196","COUNTYNAME":"彰化縣","TOWNNAME":"員林鎮","MARKTYPE":"993","Class":"303"},"geometry":{"x":206449.12349999975,"y":2651279.0560999997}},{"attributes":{"OBJECTID":27650,"LANDMARKID":"1000700000583","LANDMARKCO":"303","LANDMARKNA":"愛買吉安員林店停車場","LANDMARKAD":"1000710","ADDRESS":"彰化縣員林鎮中正路2巷90號","TEL":"04-8361728","COUNTYNAME":"彰化縣","TOWNNAME":"員林鎮","MARKTYPE":"993","Class":"303"},"geometry":{"x":207028.25710000005,"y":2649358.3686999995}},{"attributes":{"OBJECTID":27651,"LANDMARKID":"1000700000584","LANDMARKCO":"303","LANDMARKNA":"台灣聯通停車場-員林場","LANDMARKAD":"1000710","ADDRESS":"彰化縣員林鎮三民街38號旁空地","TEL":" ","COUNTYNAME":"彰化縣","TOWNNAME":"員林鎮","MARKTYPE":"993","Class":"303"},"geometry":{"x":206534.65969999973,"y":2650525.0332999993}},{"attributes":{"OBJECTID":27652,"LANDMARKID":"1000700000567","LANDMARKCO":"301","LANDMARKNA":"員林火車站","LANDMARKAD":"1000710","ADDRESS":"彰化縣員林鎮民權街55號","TEL":"04-8320544","COUNTYNAME":"彰化縣","TOWNNAME":"員林鎮","MARKTYPE":"993","Class":"301"},"geometry":{"x":206217.94649999961,"y":2650615.5919000003}},{"attributes":{"OBJECTID":27653,"LANDMARKID":"1000700000767","LANDMARKCO":"402","LANDMARKNA":"中華電信-員林中正特約服務中心","LANDMARKAD":"1000710","ADDRESS":"彰化縣員林鎮和平街18號","TEL":"04-8331358","COUNTYNAME":"彰化縣","TOWNNAME":"員林鎮","MARKTYPE":"994","Class":"4"},"geometry":{"x":206407.80099999998,"y":2650848.6980000008}},{"attributes":{"OBJECTID":27654,"LANDMARKID":"1000700000768","LANDMARKCO":"402","LANDMARKNA":"中華電信-員林育英特約服務中心","LANDMARKAD":"1000710","ADDRESS":"彰化縣員林鎮育英路589-3號","TEL":"04-8378383","COUNTYNAME":"彰化縣","TOWNNAME":"員林鎮","MARKTYPE":"994","Class":"4"},"geometry":{"x":206606.2416000003,"y":2651648.4334999993}},{"attributes":{"OBJECTID":27655,"LANDMARKID":"1000700000769","LANDMARKCO":"402","LANDMARKNA":"中華電信-員林服務中心","LANDMARKAD":"1000710","ADDRESS":"彰化縣員林鎮員東路二段498號","TEL":"04-8329991","COUNTYNAME":"彰化縣","TOWNNAME":"員林鎮","MARKTYPE":"994","Class":"4"},"geometry":{"x":206946.32120000012,"y":2650392.6139000002}},{"attributes":{"OBJECTID":27656,"LANDMARKID":"1000700000770","LANDMARKCO":"402","LANDMARKNA":"威寶電信-員林南昌特約服務中心","LANDMARKAD":"1000710","ADDRESS":"彰化縣員林鎮南昌路3號","TEL":"04-8338656","COUNTYNAME":"彰化縣","TOWNNAME":"員林鎮","MARKTYPE":"994","Class":"4"},"geometry":{"x":206656.37469999958,"y":2650066.5987999998}},{"attributes":{"OBJECTID":27657,"LANDMARKID":"1000700000771","LANDMARKCO":"402","LANDMARKNA":"威寶電信-員林中山特約服務中心","LANDMARKAD":"1000710","ADDRESS":"彰化縣員林鎮中山路一段769號","TEL":"04-8390168","COUNTYNAME":"彰化縣","TOWNNAME":"員林鎮","MARKTYPE":"994","Class":"4"},"geometry":{"x":206306.25609999988,"y":2650412.3949999996}},{"attributes":{"OBJECTID":27658,"LANDMARKID":"1000700000772","LANDMARKCO":"402","LANDMARKNA":"大眾電信(震旦通訊)-員林民族店","LANDMARKAD":"1000710","ADDRESS":"彰化縣員林鎮民族街1號","TEL":"04-8329040","COUNTYNAME":"彰化縣","TOWNNAME":"員林鎮","MARKTYPE":"994","Class":"4"},"geometry":{"x":206516.39400000032,"y":2650367.1728000008}},{"attributes":{"OBJECTID":27659,"LANDMARKID":"1000700000773","LANDMARKCO":"402","LANDMARKNA":"大眾電信(震旦通訊)-員林莒光店","LANDMARKAD":"1000710","ADDRESS":"彰化縣員林鎮員鹿路97號","TEL":"04-8376531","COUNTYNAME":"彰化縣","TOWNNAME":"員林鎮","MARKTYPE":"994","Class":"4"},"geometry":{"x":205933.78720000014,"y":2650238.1223000009}},{"attributes":{"OBJECTID":27660,"LANDMARKID":"1000700000774","LANDMARKCO":"402","LANDMARKNA":"遠傳電信-員林中正門市","LANDMARKAD":"1000710","ADDRESS":"彰化縣員林鎮中正路120號","TEL":" ","COUNTYNAME":"彰化縣","TOWNNAME":"員林鎮","MARKTYPE":"994","Class":"4"},"geometry":{"x":206800.26779999956,"y":2649830.5606999993}},{"attributes":{"OBJECTID":27661,"LANDMARKID":"1000700000775","LANDMARKCO":"402","LANDMARKNA":"威寶電信-員林中正特約服務中心","LANDMARKAD":"1000710","ADDRESS":"彰化縣員林鎮中正路569號","TEL":"04-8392666","COUNTYNAME":"彰化縣","TOWNNAME":"員林鎮","MARKTYPE":"994","Class":"4"},"geometry":{"x":206385.45569999982,"y":2650759.9053000007}},{"attributes":{"OBJECTID":27662,"LANDMARKID":"1000700001181","LANDMARKCO":"603","LANDMARKNA":"雙橡園大飯店","LANDMARKAD":"1000710","ADDRESS":"彰化縣員林鎮員鹿路115號","TEL":"04-8326716","COUNTYNAME":"彰化縣","TOWNNAME":"員林鎮","MARKTYPE":"996","Class":"6"},"geometry":{"x":205827.89510000031,"y":2650280.9924999997}},{"attributes":{"OBJECTID":27663,"LANDMARKID":"1000700001182","LANDMARKCO":"603","LANDMARKNA":"昇財麗禧酒店","LANDMARKAD":"1000710","ADDRESS":"彰化縣員林鎮中山路二段395號5~9樓","TEL":"04-8372777","COUNTYNAME":"彰化縣","TOWNNAME":"員林鎮","MARKTYPE":"996","Class":"6"},"geometry":{"x":206353.45399999991,"y":2651663.6150000002}},{"attributes":{"OBJECTID":27664,"LANDMARKID":"1000700001183","LANDMARKCO":"603","LANDMARKNA":"康橋大飯店-員林店","LANDMARKAD":"1000710","ADDRESS":"彰化縣員林鎮靜修路12號5-7樓","TEL":"04-8311555","COUNTYNAME":"彰化縣","TOWNNAME":"員林鎮","MARKTYPE":"996","Class":"6"},"geometry":{"x":206503.43400000036,"y":2650969.1280000005}},{"attributes":{"OBJECTID":27665,"LANDMARKID":"1000700001184","LANDMARKCO":"603","LANDMARKNA":"富安大旅社","LANDMARKAD":"1000710","ADDRESS":"彰化縣員林鎮三民街96號","TEL":"04-8320598","COUNTYNAME":"彰化縣","TOWNNAME":"員林鎮","MARKTYPE":"996","Class":"6"},"geometry":{"x":206254.13989999983,"y":2650450.2363000009}},{"attributes":{"OBJECTID":27666,"LANDMARKID":"1000700001185","LANDMARKCO":"603","LANDMARKNA":"楓采汽車旅館","LANDMARKAD":"1000710","ADDRESS":"彰化縣員林鎮員鹿路245巷58號","TEL":"04-8397699","COUNTYNAME":"彰化縣","TOWNNAME":"員林鎮","MARKTYPE":"996","Class":"6"},"geometry":{"x":205582.23639999982,"y":2650109.7897999994}},{"attributes":{"OBJECTID":27667,"LANDMARKID":"1000700001186","LANDMARKCO":"603","LANDMARKNA":"富山大飯店","LANDMARKAD":"1000710","ADDRESS":"彰化縣員林鎮中山南路57號5-6樓","TEL":"04-8358123-5","COUNTYNAME":"彰化縣","TOWNNAME":"員林鎮","MARKTYPE":"996","Class":"6"},"geometry":{"x":206346.31539999973,"y":2650085.5196000002}},{"attributes":{"OBJECTID":27668,"LANDMARKID":"1000700001187","LANDMARKCO":"603","LANDMARKNA":"京都大旅社","LANDMARKAD":"1000710","ADDRESS":"彰化縣員林鎮中山路一段508號","TEL":"04-8321039","COUNTYNAME":"彰化縣","TOWNNAME":"員林鎮","MARKTYPE":"996","Class":"6"},"geometry":{"x":205993.80640000012,"y":2649924.3092}},{"attributes":{"OBJECTID":27669,"LANDMARKID":"1000700001188","LANDMARKCO":"603","LANDMARKNA":"新生大旅社","LANDMARKAD":"1000710","ADDRESS":"彰化縣員林鎮民權街54號","TEL":"04-8326166","COUNTYNAME":"彰化縣","TOWNNAME":"員林鎮","MARKTYPE":"996","Class":"6"},"geometry":{"x":206254.59269999992,"y":2650609.2348999996}},{"attributes":{"OBJECTID":27670,"LANDMARKID":"1000700001189","LANDMARKCO":"603","LANDMARKNA":"蜜雪兒精品旅館","LANDMARKAD":"1000710","ADDRESS":"彰化縣員林鎮光明街295號4樓及5樓之1.2.3","TEL":"04-8359922","COUNTYNAME":"彰化縣","TOWNNAME":"員林鎮","MARKTYPE":"996","Class":"6"},"geometry":{"x":206401.30850000028,"y":2650395.6839000005}},{"attributes":{"OBJECTID":27671,"LANDMARKID":"1000700001190","LANDMARKCO":"603","LANDMARKNA":"東火精品旅館","LANDMARKAD":"1000710","ADDRESS":"彰化縣員林鎮法院南街65號","TEL":"04-8398196","COUNTYNAME":"彰化縣","TOWNNAME":"員林鎮","MARKTYPE":"996","Class":"6"},"geometry":{"x":206428.37189999968,"y":2651297.7577}},{"attributes":{"OBJECTID":27672,"LANDMARKID":"1000700001191","LANDMARKCO":"603","LANDMARKNA":"華京大飯店","LANDMARKAD":"1000710","ADDRESS":"彰化縣員林鎮南平四街9號4-10樓","TEL":"04-8397868","COUNTYNAME":"彰化縣","TOWNNAME":"員林鎮","MARKTYPE":"996","Class":"6"},"geometry":{"x":205838.11969999969,"y":2651378.6909999996}},{"attributes":{"OBJECTID":27673,"LANDMARKID":"1000700001192","LANDMARKCO":"603","LANDMARKNA":"雅迪大飯店","LANDMARKAD":"1000710","ADDRESS":"彰化縣員林鎮南和街51號","TEL":"04-8332333","COUNTYNAME":"彰化縣","TOWNNAME":"員林鎮","MARKTYPE":"996","Class":"6"},"geometry":{"x":205958.20129999984,"y":2650429.1972000003}},{"attributes":{"OBJECTID":27674,"LANDMARKID":"1000700001081","LANDMARKCO":"503","LANDMARKNA":"百果山風景區","LANDMARKAD":"1000710","ADDRESS":"彰化縣員林鎮出水巷12號","TEL":" ","COUNTYNAME":"彰化縣","TOWNNAME":"員林鎮","MARKTYPE":"995","Class":"5"},"geometry":{"x":209775.89780000038,"y":2649051.6498000007}},{"attributes":{"OBJECTID":27675,"LANDMARKID":"1000700000854","LANDMARKCO":"405","LANDMARKNA":"中油加油站-員林快速道站(中油直營)","LANDMARKAD":"1000715","ADDRESS":"彰化縣埔心鄉瓦南村中山路281號","TEL":"04-8381928","COUNTYNAME":"彰化縣","TOWNNAME":"埔心鄉","MARKTYPE":"994","Class":"4"},"geometry":{"x":205541.58459999971,"y":2649128.3275000006}},{"attributes":{"OBJECTID":27676,"LANDMARKID":"1000700000855","LANDMARKCO":"405","LANDMARKNA":"中油加油站-埔心站(中油直營)","LANDMARKAD":"1000715","ADDRESS":"彰化縣埔心鄉瓦北村員鹿路一段421號","TEL":"04-8293874","COUNTYNAME":"彰化縣","TOWNNAME":"埔心鄉","MARKTYPE":"994","Class":"4"},"geometry":{"x":204896.60529999994,"y":2650070.5468000006}},{"attributes":{"OBJECTID":27677,"LANDMARKID":"1000700000856","LANDMARKCO":"405","LANDMARKNA":"中油加油站-大翔站","LANDMARKAD":"1000715","ADDRESS":"彰化縣埔心鄉瓦北村員鹿路一段418號","TEL":"04-8282827","COUNTYNAME":"彰化縣","TOWNNAME":"埔心鄉","MARKTYPE":"994","Class":"4"},"geometry":{"x":205257.75420000032,"y":2650272.9056000002}},{"attributes":{"OBJECTID":27678,"LANDMARKID":"1000700000857","LANDMARKCO":"405","LANDMARKNA":"中油加油站-日茂站","LANDMARKAD":"1000715","ADDRESS":"彰化縣埔心鄉舊館村員鹿路4段325號","TEL":"04-8296981","COUNTYNAME":"彰化縣","TOWNNAME":"埔心鄉","MARKTYPE":"994","Class":"4"},"geometry":{"x":200992.92860000022,"y":2649578.4644000009}},{"attributes":{"OBJECTID":27679,"LANDMARKID":"1000700000677","LANDMARKCO":"401","LANDMARKNA":"行政院衛生署彰化醫院","LANDMARKAD":"1000715","ADDRESS":"彰化縣埔心鄉中正路二段80號","TEL":"04-8298686","COUNTYNAME":"彰化縣","TOWNNAME":"埔心鄉","MARKTYPE":"994","Class":"4"},"geometry":{"x":201966.25970000029,"y":2649572.0756000001}},{"attributes":{"OBJECTID":27680,"LANDMARKID":"1000700001093","LANDMARKCO":"506","LANDMARKNA":"觀光果園","LANDMARKAD":"1000715","ADDRESS":"彰化縣埔心鄉","TEL":" ","COUNTYNAME":"彰化縣","TOWNNAME":"埔心鄉","MARKTYPE":"995","Class":"5"},"geometry":{"x":200868.77720000036,"y":2652313.5307}},{"attributes":{"OBJECTID":27681,"LANDMARKID":"1000700001029","LANDMARKCO":"408","LANDMARKNA":"郵局-埔心郵局","LANDMARKAD":"1000715","ADDRESS":"彰化縣埔心鄉忠義北路70號","TEL":"(04)8291-748","COUNTYNAME":"彰化縣","TOWNNAME":"埔心鄉","MARKTYPE":"994","Class":"4"},"geometry":{"x":203505.32959999982,"y":2650051.8227999993}},{"attributes":{"OBJECTID":27682,"LANDMARKID":"1000700001030","LANDMARKCO":"408","LANDMARKNA":"郵局-埔心太平郵局","LANDMARKAD":"1000715","ADDRESS":"彰化縣埔心鄉中山路100號","TEL":"(04)8357-508","COUNTYNAME":"彰化縣","TOWNNAME":"埔心鄉","MARKTYPE":"994","Class":"4"},"geometry":{"x":205261.95889999997,"y":2648541.0076000001}},{"attributes":{"OBJECTID":27683,"LANDMARKID":"1000700001051","LANDMARKCO":"409","LANDMARKNA":"彰化縣埔心鄉農會","LANDMARKAD":"1000715","ADDRESS":"彰化縣埔心鄉義民村忠義北路100號","TEL":"04-8293171-4","COUNTYNAME":"彰化縣","TOWNNAME":"埔心鄉","MARKTYPE":"994","Class":"4"},"geometry":{"x":203519.53320000041,"y":2650101.6022999994}},{"attributes":{"OBJECTID":27684,"LANDMARKID":"1000700001052","LANDMARKCO":"409","LANDMARKNA":"埔心魚市場","LANDMARKAD":"1000715","ADDRESS":"彰化縣埔心鄉員鹿路三段12號","TEL":"04-8294901","COUNTYNAME":"彰化縣","TOWNNAME":"埔心鄉","MARKTYPE":"994","Class":"4"},"geometry":{"x":202889.46219999995,"y":2649796.6221999992}},{"attributes":{"OBJECTID":27685,"LANDMARKID":"1000700000853","LANDMARKCO":"405","LANDMARKNA":"台塑加油站-金隆站(台塑)","LANDMARKAD":"1000715","ADDRESS":"彰化縣埔心鄉員鹿路三段338號","TEL":"04-8291115","COUNTYNAME":"彰化縣","TOWNNAME":"埔心鄉","MARKTYPE":"994","Class":"4"},"geometry":{"x":202271.97800000012,"y":2649527.7803000007}},{"attributes":{"OBJECTID":27686,"LANDMARKID":"1000700000058","LANDMARKCO":"103","LANDMARKNA":"彰化縣埔心鄉衛生所","LANDMARKAD":"1000715","ADDRESS":"彰化縣埔心鄉義理村員鹿路二段304號","TEL":"04-8294133","COUNTYNAME":"彰化縣","TOWNNAME":"埔心鄉","MARKTYPE":"991","Class":"1"},"geometry":{"x":203570.96270000003,"y":2649880.7204}},{"attributes":{"OBJECTID":27687,"LANDMARKID":"1000700000277","LANDMARKCO":"108","LANDMARKNA":"彰化縣埔心鄉公所","LANDMARKAD":"1000715","ADDRESS":"彰化縣埔心鄉義民村員鹿路二段344號","TEL":"04-8296249","COUNTYNAME":"彰化縣","TOWNNAME":"埔心鄉","MARKTYPE":"991","Class":"1"},"geometry":{"x":203539.70949999988,"y":2649900.8553999998}},{"attributes":{"OBJECTID":27688,"LANDMARKID":"1000700000057","LANDMARKCO":"103","LANDMARKNA":"彰化縣埔心鄉民代表會","LANDMARKAD":"1000715","ADDRESS":"彰化縣埔心鄉員鹿路二段332號7樓","TEL":"04-8291241","COUNTYNAME":"彰化縣","TOWNNAME":"埔心鄉","MARKTYPE":"991","Class":"1"},"geometry":{"x":203602.85859999992,"y":2649896.4813999999}},{"attributes":{"OBJECTID":27689,"LANDMARKID":"1000700000173","LANDMARKCO":"107","LANDMARKNA":"彰化縣消防局埔心消防分隊","LANDMARKAD":"1000715","ADDRESS":"彰化縣埔心鄉員鹿路二段415號","TEL":"04-8294704","COUNTYNAME":"彰化縣","TOWNNAME":"埔心鄉","MARKTYPE":"991","Class":"1"},"geometry":{"x":203387.11789999995,"y":2649858.0203000009}},{"attributes":{"OBJECTID":27690,"LANDMARKID":"1000700000174","LANDMARKCO":"107","LANDMARKNA":"彰化縣警察局埔心分駐所","LANDMARKAD":"1000715","ADDRESS":"彰化縣埔心鄉義民村員鹿路二段424號","TEL":"04-8291545","COUNTYNAME":"彰化縣","TOWNNAME":"埔心鄉","MARKTYPE":"991","Class":"1"},"geometry":{"x":203372.96160000004,"y":2649895.1220999993}},{"attributes":{"OBJECTID":27691,"LANDMARKID":"1000700000175","LANDMARKCO":"107","LANDMARKNA":"彰化縣警察局舊館派出所","LANDMARKAD":"1000715","ADDRESS":"彰化縣埔心鄉舊館村員鹿路四段182號","TEL":"04-8292854","COUNTYNAME":"彰化縣","TOWNNAME":"埔心鄉","MARKTYPE":"991","Class":"1"},"geometry":{"x":201743.2611999996,"y":2649390.4426000006}},{"attributes":{"OBJECTID":27692,"LANDMARKID":"1000700000132","LANDMARKCO":"106","LANDMARKNA":"彰化縣埔心鄉戶政事務所","LANDMARKAD":"1000715","ADDRESS":"彰化縣埔心鄉員鹿路二段332號5樓","TEL":"04-8293703","COUNTYNAME":"彰化縣","TOWNNAME":"埔心鄉","MARKTYPE":"991","Class":"1"},"geometry":{"x":203602.85859999992,"y":2649896.4813999999}},{"attributes":{"OBJECTID":27693,"LANDMARKID":"1000700000543","LANDMARKCO":"204","LANDMARKNA":"彰化縣立圖書館埔心分館","LANDMARKAD":"1000715","ADDRESS":"彰化縣埔心鄉義民村員鹿路二段328號","TEL":" ","COUNTYNAME":"彰化縣","TOWNNAME":"埔心鄉","MARKTYPE":"992","Class":"2"},"geometry":{"x":203578.58330000006,"y":2649894.9508999996}},{"attributes":{"OBJECTID":27694,"LANDMARKID":"1000700000415","LANDMARKCO":"203","LANDMARKNA":"縣立埔心國中","LANDMARKAD":"1000715","ADDRESS":"彰化縣埔心鄉義民村忠義北路51號","TEL":"04-8291129","COUNTYNAME":"彰化縣","TOWNNAME":"埔心鄉","MARKTYPE":"992","Class":"2"},"geometry":{"x":203377.93209999986,"y":2649990.5303000007}},{"attributes":{"OBJECTID":27695,"LANDMARKID":"1000700000416","LANDMARKCO":"203","LANDMARKNA":"縣立鳳霞國小","LANDMARKAD":"1000715","ADDRESS":"彰化縣埔心鄉二重村五通南路82號","TEL":"04-8294072","COUNTYNAME":"彰化縣","TOWNNAME":"埔心鄉","MARKTYPE":"992","Class":"2"},"geometry":{"x":201734.74780000001,"y":2651785.2024000008}},{"attributes":{"OBJECTID":27696,"LANDMARKID":"1000700000417","LANDMARKCO":"203","LANDMARKNA":"縣立太平國小","LANDMARKAD":"1000715","ADDRESS":"彰化縣埔心鄉太平村太平路336號","TEL":"04-8226049","COUNTYNAME":"彰化縣","TOWNNAME":"埔心鄉","MARKTYPE":"992","Class":"2"},"geometry":{"x":204333.70930000022,"y":2648274.5625}},{"attributes":{"OBJECTID":27697,"LANDMARKID":"1000700000418","LANDMARKCO":"203","LANDMARKNA":"縣立羅厝國小","LANDMARKAD":"1000715","ADDRESS":"彰化縣埔心鄉羅厝村文昌東路100號","TEL":"04-8292861","COUNTYNAME":"彰化縣","TOWNNAME":"埔心鄉","MARKTYPE":"992","Class":"2"},"geometry":{"x":200437.15990000032,"y":2648693.4431999996}},{"attributes":{"OBJECTID":27698,"LANDMARKID":"1000700000419","LANDMARKCO":"203","LANDMARKNA":"縣立明聖國小","LANDMARKAD":"1000715","ADDRESS":"彰化縣埔心鄉瓦北村西安南路178號","TEL":"04-8295395","COUNTYNAME":"彰化縣","TOWNNAME":"埔心鄉","MARKTYPE":"992","Class":"2"},"geometry":{"x":204968.46619999968,"y":2649687.7752}},{"attributes":{"OBJECTID":27699,"LANDMARKID":"1000700000420","LANDMARKCO":"203","LANDMARKNA":"縣立埔心國小","LANDMARKAD":"1000715","ADDRESS":"彰化縣埔心鄉義民村員鹿路二段254號","TEL":"04-8291494","COUNTYNAME":"彰化縣","TOWNNAME":"埔心鄉","MARKTYPE":"992","Class":"2"},"geometry":{"x":203723.27080000006,"y":2649931.0116000008}},{"attributes":{"OBJECTID":27700,"LANDMARKID":"1000700000421","LANDMARKCO":"203","LANDMARKNA":"縣立舊館國小","LANDMARKAD":"1000715","ADDRESS":"彰化縣埔心鄉舊館村員鹿路四段201號","TEL":"04-8292025","COUNTYNAME":"彰化縣","TOWNNAME":"埔心鄉","MARKTYPE":"992","Class":"2"},"geometry":{"x":201735.53000000026,"y":2649310.1405999996}},{"attributes":{"OBJECTID":27701,"LANDMARKID":"1000700000422","LANDMARKCO":"203","LANDMARKNA":"縣立梧鳳國小","LANDMARKAD":"1000715","ADDRESS":"彰化縣埔心鄉梧鳳村大溪路175號","TEL":"04-8291964","COUNTYNAME":"彰化縣","TOWNNAME":"埔心鄉","MARKTYPE":"992","Class":"2"},"geometry":{"x":200386.8097000001,"y":2651780.4902999997}},{"attributes":{"OBJECTID":27702,"LANDMARKID":"1000700000671","LANDMARKCO":"308","LANDMARKNA":"台76-埔心交流道-西行","LANDMARKAD":"1000715","ADDRESS":" ","TEL":" ","COUNTYNAME":"彰化縣","TOWNNAME":"埔心鄉","MARKTYPE":"993","Class":"308"},"geometry":{"x":202549.24199999962,"y":2651735.4453999996}},{"attributes":{"OBJECTID":27703,"LANDMARKID":"1000700000672","LANDMARKCO":"308","LANDMARKNA":"台76-埔心交流道-東行","LANDMARKAD":"1000715","ADDRESS":" ","TEL":" ","COUNTYNAME":"彰化縣","TOWNNAME":"埔心鄉","MARKTYPE":"993","Class":"308"},"geometry":{"x":203447.29499999993,"y":2651232.9342}},{"attributes":{"OBJECTID":27704,"LANDMARKID":"1000700000673","LANDMARKCO":"308","LANDMARKNA":"台76-員林交流道-西行","LANDMARKAD":"1000715","ADDRESS":" ","TEL":" ","COUNTYNAME":"彰化縣","TOWNNAME":"埔心鄉","MARKTYPE":"993","Class":"308"},"geometry":{"x":204922.89030000009,"y":2649435.8225999996}},{"attributes":{"OBJECTID":27705,"LANDMARKID":"1000700001177","LANDMARKCO":"603","LANDMARKNA":"高登庭園汽車旅館","LANDMARKAD":"1000715","ADDRESS":"彰化縣埔心鄉芎蕉村鎮福街111號","TEL":"04-8298987","COUNTYNAME":"彰化縣","TOWNNAME":"埔心鄉","MARKTYPE":"996","Class":"6"},"geometry":{"x":200705.25850000046,"y":2649552.7235000003}},{"attributes":{"OBJECTID":27706,"LANDMARKID":"1000700001178","LANDMARKCO":"603","LANDMARKNA":"三民賓館","LANDMARKAD":"1000715","ADDRESS":"彰化縣彰化市三民路226號10-12樓","TEL":"04-7229751","COUNTYNAME":"彰化縣","TOWNNAME":"埔心鄉","MARKTYPE":"996","Class":"6"},"geometry":{"x":205301.31219999958,"y":2649592.5653000008}},{"attributes":{"OBJECTID":27707,"LANDMARKID":"1000700001179","LANDMARKCO":"603","LANDMARKNA":"金陵汽車旅館(埔心分店)","LANDMARKAD":"1000715","ADDRESS":"彰化縣埔心鄉中正路一段566號","TEL":"04-8281122","COUNTYNAME":"彰化縣","TOWNNAME":"埔心鄉","MARKTYPE":"996","Class":"6"},"geometry":{"x":203042.33160000015,"y":2649767.8527000006}},{"attributes":{"OBJECTID":27708,"LANDMARKID":"1000700001180","LANDMARKCO":"603","LANDMARKNA":"夏綠地汽車旅館","LANDMARKAD":"1000715","ADDRESS":"彰化縣埔心鄉員鹿路一段226號","TEL":"04-8299922","COUNTYNAME":"彰化縣","TOWNNAME":"埔心鄉","MARKTYPE":"996","Class":"6"},"geometry":{"x":204978.10030000005,"y":2650151.6785000004}},{"attributes":{"OBJECTID":27709,"LANDMARKID":"1000700000842","LANDMARKCO":"405","LANDMARKNA":"台糖加油站-糖友站(中油)","LANDMARKAD":"1000711","ADDRESS":"彰化縣溪湖鎮彰水路二段820號","TEL":"04-8611193","COUNTYNAME":"彰化縣","TOWNNAME":"溪湖鎮","MARKTYPE":"994","Class":"4"},"geometry":{"x":197982.07959999982,"y":2649675.7828000002}},{"attributes":{"OBJECTID":27710,"LANDMARKID":"1000700000843","LANDMARKCO":"405","LANDMARKNA":"中油加油站-忠溪站","LANDMARKAD":"1000711","ADDRESS":"彰化縣溪湖鎮忠覺里崙子腳路147號","TEL":"04-8824466","COUNTYNAME":"彰化縣","TOWNNAME":"溪湖鎮","MARKTYPE":"994","Class":"4"},"geometry":{"x":197620.78189999983,"y":2649381.5536000002}},{"attributes":{"OBJECTID":27711,"LANDMARKID":"1000700000844","LANDMARKCO":"405","LANDMARKNA":"中油加油站-信興站","LANDMARKAD":"1000711","ADDRESS":"彰化縣溪湖鎮員鹿路112號","TEL":"04-8812736","COUNTYNAME":"彰化縣","TOWNNAME":"溪湖鎮","MARKTYPE":"994","Class":"4"},"geometry":{"x":198303.4068,"y":2650062.4456999991}},{"attributes":{"OBJECTID":27712,"LANDMARKID":"1000700000845","LANDMARKCO":"405","LANDMARKNA":"中油加油站-溪湖站(中油直營)","LANDMARKAD":"1000711","ADDRESS":"彰化縣溪湖鎮東寮里彰水路93號","TEL":"04-8852244","COUNTYNAME":"彰化縣","TOWNNAME":"溪湖鎮","MARKTYPE":"994","Class":"4"},"geometry":{"x":197065.57510000002,"y":2651557.4722000007}},{"attributes":{"OBJECTID":27713,"LANDMARKID":"1000700000765","LANDMARKCO":"402","LANDMARKNA":"My Phone台灣大哥大-彰化溪湖直營服務中心","LANDMARKAD":"1000711","ADDRESS":"彰化縣溪湖鎮西環路370號","TEL":"0809-000-166","COUNTYNAME":"彰化縣","TOWNNAME":"溪湖鎮","MARKTYPE":"994","Class":"4"},"geometry":{"x":196820.64499999955,"y":2650603.9420999996}},{"attributes":{"OBJECTID":27714,"LANDMARKID":"1000700000766","LANDMARKCO":"402","LANDMARKNA":"亞太行動寬頻電信-彰化溪湖加盟服務中心","LANDMARKAD":"1000711","ADDRESS":"彰化縣溪湖鎮湖西里西環路213號","TEL":"04-8611525","COUNTYNAME":"彰化縣","TOWNNAME":"溪湖鎮","MARKTYPE":"994","Class":"4"},"geometry":{"x":196801.29459999967,"y":2650390.8746000007}},{"attributes":{"OBJECTID":27715,"LANDMARKID":"1000700000678","LANDMARKCO":"401","LANDMARKNA":"道安醫院","LANDMARKAD":"1000711","ADDRESS":"彰化縣溪湖鎮光平里彰水路三段362號","TEL":"04-8852309","COUNTYNAME":"彰化縣","TOWNNAME":"溪湖鎮","MARKTYPE":"994","Class":"4"},"geometry":{"x":197097.82230000012,"y":2650862.9125999995}},{"attributes":{"OBJECTID":27716,"LANDMARKID":"1000700001094","LANDMARKCO":"506","LANDMARKNA":"溪湖鎮葡萄觀光果園","LANDMARKAD":"1000711","ADDRESS":"彰化縣溪湖鎮媽厝里湳底路102號","TEL":"04-8854279","COUNTYNAME":"彰化縣","TOWNNAME":"溪湖鎮","MARKTYPE":"995","Class":"5"},"geometry":{"x":197471.51640000008,"y":2647969.3598999996}},{"attributes":{"OBJECTID":27717,"LANDMARKID":"1000700001027","LANDMARKCO":"408","LANDMARKNA":"郵局-溪湖郵局","LANDMARKAD":"1000711","ADDRESS":"彰化縣溪湖鎮彰水路3段430號","TEL":"04-8852142","COUNTYNAME":"彰化縣","TOWNNAME":"溪湖鎮","MARKTYPE":"994","Class":"4"},"geometry":{"x":196847.89780000038,"y":2651311.3198000006}},{"attributes":{"OBJECTID":27718,"LANDMARKID":"1000700001028","LANDMARKCO":"408","LANDMARKNA":"郵局-溪湖湖西郵局","LANDMARKAD":"1000711","ADDRESS":"彰化縣溪湖鎮大公路34號","TEL":"(04)8810-642","COUNTYNAME":"彰化縣","TOWNNAME":"溪湖鎮","MARKTYPE":"994","Class":"4"},"geometry":{"x":196619.57290000003,"y":2650782.8220000006}},{"attributes":{"OBJECTID":27719,"LANDMARKID":"1000700001053","LANDMARKCO":"409","LANDMARKNA":"彰化縣溪湖鎮農會","LANDMARKAD":"1000711","ADDRESS":"彰化縣溪湖鎮員鹿路三段69號","TEL":"04-8853316","COUNTYNAME":"彰化縣","TOWNNAME":"溪湖鎮","MARKTYPE":"994","Class":"4"},"geometry":{"x":197172.61390000023,"y":2650519.8030999992}},{"attributes":{"OBJECTID":27720,"LANDMARKID":"1000700000784","LANDMARKCO":"404","LANDMARKNA":"台灣省自來水溪湖營運所","LANDMARKAD":"1000711","ADDRESS":"彰化縣溪湖鎮湖東里大溪路二段61號","TEL":" ","COUNTYNAME":"彰化縣","TOWNNAME":"溪湖鎮","MARKTYPE":"994","Class":"4"},"geometry":{"x":197868.4467000002,"y":2651549.9835000001}},{"attributes":{"OBJECTID":27721,"LANDMARKID":"1000700000967","LANDMARKCO":"406","LANDMARKNA":"鳳山寺公園","LANDMARKAD":"1000711","ADDRESS":"彰化縣溪湖鎮","TEL":" ","COUNTYNAME":"彰化縣","TOWNNAME":"溪湖鎮","MARKTYPE":"994","Class":"4"},"geometry":{"x":196597.6333999997,"y":2652993.8511999995}},{"attributes":{"OBJECTID":27722,"LANDMARKID":"1000700000838","LANDMARKCO":"405","LANDMARKNA":"全國加油站-員溪站（台塑）","LANDMARKAD":"1000711","ADDRESS":"彰化縣溪湖鎮員鹿路二段205號","TEL":"04-8814457","COUNTYNAME":"彰化縣","TOWNNAME":"溪湖鎮","MARKTYPE":"994","Class":"4"},"geometry":{"x":198047.50590000022,"y":2650120.4803999998}},{"attributes":{"OBJECTID":27723,"LANDMARKID":"1000700000839","LANDMARKCO":"405","LANDMARKNA":"台塑加油站-中美站(台塑)","LANDMARKAD":"1000711","ADDRESS":"彰化縣溪湖鎮彰水路一段923號","TEL":"04-8826562","COUNTYNAME":"彰化縣","TOWNNAME":"溪湖鎮","MARKTYPE":"994","Class":"4"},"geometry":{"x":197339.41550000012,"y":2648182.4229000006}},{"attributes":{"OBJECTID":27724,"LANDMARKID":"1000700000840","LANDMARKCO":"405","LANDMARKNA":"福懋加油站-溪湖站(台塑)","LANDMARKAD":"1000711","ADDRESS":"彰化縣溪湖鎮彰水路二段216號","TEL":"04-8859995","COUNTYNAME":"彰化縣","TOWNNAME":"溪湖鎮","MARKTYPE":"994","Class":"4"},"geometry":{"x":197324.22080000024,"y":2648581.6346000005}},{"attributes":{"OBJECTID":27725,"LANDMARKID":"1000700000841","LANDMARKCO":"405","LANDMARKNA":"福懋加油站-員鹿站(台塑)","LANDMARKAD":"1000711","ADDRESS":"彰化縣溪湖鎮員鹿路一段351號","TEL":"04-8611035","COUNTYNAME":"彰化縣","TOWNNAME":"溪湖鎮","MARKTYPE":"994","Class":"4"},"geometry":{"x":199170.74789999984,"y":2649953.3991999999}},{"attributes":{"OBJECTID":27726,"LANDMARKID":"1000700000276","LANDMARKCO":"108","LANDMARKNA":"彰化縣溪湖鎮公所","LANDMARKAD":"1000711","ADDRESS":"彰化縣溪湖鎮湖東里青雅路58號","TEL":"04-8852121","COUNTYNAME":"彰化縣","TOWNNAME":"溪湖鎮","MARKTYPE":"991","Class":"1"},"geometry":{"x":197457.62509999983,"y":2651392.8377999999}},{"attributes":{"OBJECTID":27727,"LANDMARKID":"1000700000059","LANDMARKCO":"103","LANDMARKNA":"彰化縣溪湖鎮民代表會","LANDMARKAD":"1000711","ADDRESS":"彰化縣溪湖鎮湖東里青雅路58號","TEL":"04-8853125","COUNTYNAME":"彰化縣","TOWNNAME":"溪湖鎮","MARKTYPE":"991","Class":"1"},"geometry":{"x":197457.62509999983,"y":2651392.8377999999}},{"attributes":{"OBJECTID":27728,"LANDMARKID":"1000700000060","LANDMARKCO":"103","LANDMARKNA":"彰化縣溪湖鎮衛生所","LANDMARKAD":"1000711","ADDRESS":"彰化縣溪湖鎮湖東里青雅路36號","TEL":"04-8815112","COUNTYNAME":"彰化縣","TOWNNAME":"溪湖鎮","MARKTYPE":"991","Class":"1"},"geometry":{"x":197429.61429999955,"y":2651349.2572000008}},{"attributes":{"OBJECTID":27729,"LANDMARKID":"1000700000169","LANDMARKCO":"107","LANDMARKNA":"彰化縣消防局溪湖消防分隊","LANDMARKAD":"1000711","ADDRESS":"彰化縣溪湖鎮大溪路二段330號","TEL":"04-8852007","COUNTYNAME":"彰化縣","TOWNNAME":"溪湖鎮","MARKTYPE":"991","Class":"1"},"geometry":{"x":197362.21970000025,"y":2651230.7356000002}},{"attributes":{"OBJECTID":27730,"LANDMARKID":"1000700000170","LANDMARKCO":"107","LANDMARKNA":"彰化縣警察局溪湖分局","LANDMARKAD":"1000711","ADDRESS":"彰化縣溪湖鎮光平里員鹿路三段262號","TEL":"04-8852026","COUNTYNAME":"彰化縣","TOWNNAME":"溪湖鎮","MARKTYPE":"991","Class":"1"},"geometry":{"x":197028.54760000017,"y":2650981.1612}},{"attributes":{"OBJECTID":27731,"LANDMARKID":"1000700000171","LANDMARKCO":"107","LANDMARKNA":"彰化縣警察局溪湖派出所","LANDMARKAD":"1000711","ADDRESS":"彰化縣溪湖鎮光平里員鹿路三段262號","TEL":"04-8852404","COUNTYNAME":"彰化縣","TOWNNAME":"溪湖鎮","MARKTYPE":"991","Class":"1"},"geometry":{"x":197028.54760000017,"y":2650981.1612}},{"attributes":{"OBJECTID":27732,"LANDMARKID":"1000700000128","LANDMARKCO":"106","LANDMARKNA":"彰化縣溪湖鎮戶政事務所","LANDMARKAD":"1000711","ADDRESS":"彰化縣溪湖鎮光平里9鄰員鹿路三段272號","TEL":"04-8853214","COUNTYNAME":"彰化縣","TOWNNAME":"溪湖鎮","MARKTYPE":"991","Class":"1"},"geometry":{"x":197028.32309999969,"y":2651000.8203999996}},{"attributes":{"OBJECTID":27733,"LANDMARKID":"1000700000108","LANDMARKCO":"105","LANDMARKNA":"彰化縣溪湖地政事務所","LANDMARKAD":"1000711","ADDRESS":"彰化縣溪湖鎮湖西里大公路99號","TEL":"04-8813119","COUNTYNAME":"彰化縣","TOWNNAME":"溪湖鎮","MARKTYPE":"991","Class":"1"},"geometry":{"x":196528.48790000007,"y":2650832.4015999995}},{"attributes":{"OBJECTID":27734,"LANDMARKID":"1000700000172","LANDMARKCO":"107","LANDMARKNA":"彰化縣警察局忠覺派出所","LANDMARKAD":"1000711","ADDRESS":"彰化縣溪湖鎮大庭里崙仔腳路66號","TEL":"04-8852814","COUNTYNAME":"彰化縣","TOWNNAME":"溪湖鎮","MARKTYPE":"991","Class":"1"},"geometry":{"x":198293.75239999965,"y":2649340.1302000005}},{"attributes":{"OBJECTID":27735,"LANDMARKID":"1000700000566","LANDMARKCO":"206","LANDMARKNA":"巫家捏麵館","LANDMARKAD":"1000711","ADDRESS":"彰化縣溪湖鎮東寮里彰水路四段439巷151號","TEL":"(04)22957103","COUNTYNAME":"彰化縣","TOWNNAME":"溪湖鎮","MARKTYPE":"992","Class":"2"},"geometry":{"x":196814.08690000046,"y":2652005.6143999994}},{"attributes":{"OBJECTID":27736,"LANDMARKID":"1000700000547","LANDMARKCO":"204","LANDMARKNA":"彰化縣立圖書館溪湖分館","LANDMARKAD":"1000711","ADDRESS":"彰化縣溪湖鎮太平里太平街147號","TEL":" ","COUNTYNAME":"彰化縣","TOWNNAME":"溪湖鎮","MARKTYPE":"992","Class":"2"},"geometry":{"x":196933.40739999991,"y":2650941.3709999993}},{"attributes":{"OBJECTID":27737,"LANDMARKID":"1000700000406","LANDMARKCO":"203","LANDMARKNA":"縣立湖東國小","LANDMARKAD":"1000711","ADDRESS":"彰化縣溪湖鎮湖東里大溪路二段423號","TEL":"04-8852062","COUNTYNAME":"彰化縣","TOWNNAME":"溪湖鎮","MARKTYPE":"992","Class":"2"},"geometry":{"x":197428.91079999972,"y":2651110.0507999994}},{"attributes":{"OBJECTID":27738,"LANDMARKID":"1000700000407","LANDMARKCO":"203","LANDMARKNA":"縣立溪湖國中","LANDMARKAD":"1000711","ADDRESS":"彰化縣溪湖鎮彰水路四段60號","TEL":"04-8852132","COUNTYNAME":"彰化縣","TOWNNAME":"溪湖鎮","MARKTYPE":"992","Class":"2"},"geometry":{"x":197122.70010000002,"y":2651453.0219999999}},{"attributes":{"OBJECTID":27739,"LANDMARKID":"1000700000408","LANDMARKCO":"203","LANDMARKNA":"縣立成功國中","LANDMARKAD":"1000711","ADDRESS":"彰化縣溪湖鎮福德路310號","TEL":"04-8828588","COUNTYNAME":"彰化縣","TOWNNAME":"溪湖鎮","MARKTYPE":"992","Class":"2"},"geometry":{"x":196247.98990000039,"y":2649755.6616999991}},{"attributes":{"OBJECTID":27740,"LANDMARKID":"1000700000409","LANDMARKCO":"203","LANDMARKNA":"縣立溪湖國小","LANDMARKAD":"1000711","ADDRESS":"彰化縣溪湖鎮光華里二溪路一段35號","TEL":"04-8853126","COUNTYNAME":"彰化縣","TOWNNAME":"溪湖鎮","MARKTYPE":"992","Class":"2"},"geometry":{"x":196927.13989999983,"y":2650606.3739}},{"attributes":{"OBJECTID":27741,"LANDMARKID":"1000700000410","LANDMARKCO":"203","LANDMARKNA":"縣立湖西國小","LANDMARKAD":"1000711","ADDRESS":"彰化縣溪湖鎮大突里北聖路20號","TEL":"04-8852234","COUNTYNAME":"彰化縣","TOWNNAME":"溪湖鎮","MARKTYPE":"992","Class":"2"},"geometry":{"x":195825.58160000015,"y":2650692.1685000006}},{"attributes":{"OBJECTID":27742,"LANDMARKID":"1000700000411","LANDMARKCO":"203","LANDMARKNA":"縣立東溪國小","LANDMARKAD":"1000711","ADDRESS":"彰化縣溪湖鎮東溪里員鹿路一段538號","TEL":"04-8852034","COUNTYNAME":"彰化縣","TOWNNAME":"溪湖鎮","MARKTYPE":"992","Class":"2"},"geometry":{"x":198906.50769999996,"y":2650034.2182999998}},{"attributes":{"OBJECTID":27743,"LANDMARKID":"1000700000412","LANDMARKCO":"203","LANDMARKNA":"縣立媽厝國小","LANDMARKAD":"1000711","ADDRESS":"彰化縣溪湖鎮媽厝里湳底路67號","TEL":"04-8853225","COUNTYNAME":"彰化縣","TOWNNAME":"溪湖鎮","MARKTYPE":"992","Class":"2"},"geometry":{"x":198699.89879999962,"y":2648601.5781999994}},{"attributes":{"OBJECTID":27744,"LANDMARKID":"1000700000413","LANDMARKCO":"203","LANDMARKNA":"縣立湖南國小","LANDMARKAD":"1000711","ADDRESS":"彰化縣溪湖鎮大竹里彰水路二段725號","TEL":"04-8852045","COUNTYNAME":"彰化縣","TOWNNAME":"溪湖鎮","MARKTYPE":"992","Class":"2"},"geometry":{"x":197089.94919999968,"y":2649588.9900000002}},{"attributes":{"OBJECTID":27745,"LANDMARKID":"1000700000414","LANDMARKCO":"203","LANDMARKNA":"縣立湖北國小","LANDMARKAD":"1000711","ADDRESS":"彰化縣溪湖鎮地政路201號","TEL":"04-8613618","COUNTYNAME":"彰化縣","TOWNNAME":"溪湖鎮","MARKTYPE":"992","Class":"2"},"geometry":{"x":196644.40460000001,"y":2651287.5589000005}},{"attributes":{"OBJECTID":27746,"LANDMARKID":"1000700000304","LANDMARKCO":"202","LANDMARKNA":"國立溪湖高中","LANDMARKAD":"1000711","ADDRESS":"彰化縣彰化市南部路一段326號","TEL":"04-8825500","COUNTYNAME":"彰化縣","TOWNNAME":"溪湖鎮","MARKTYPE":"992","Class":"2"},"geometry":{"x":197779.07789999992,"y":2651680.2880000006}},{"attributes":{"OBJECTID":27747,"LANDMARKID":"1000700000588","LANDMARKCO":"303","LANDMARKNA":"糖廠宿舍停車場","LANDMARKAD":"1000711","ADDRESS":"彰化縣溪湖鎮","TEL":" ","COUNTYNAME":"彰化縣","TOWNNAME":"溪湖鎮","MARKTYPE":"993","Class":"303"},"geometry":{"x":197207.93570000026,"y":2649709.4185000006}},{"attributes":{"OBJECTID":27748,"LANDMARKID":"1000700000669","LANDMARKCO":"308","LANDMARKNA":"國1-員林交流道-北上","LANDMARKAD":"1000711","ADDRESS":"彰化縣溪湖鎮","TEL":" ","COUNTYNAME":"彰化縣","TOWNNAME":"溪湖鎮","MARKTYPE":"993","Class":"308"},"geometry":{"x":199800.52610000037,"y":2650297.4485999998}},{"attributes":{"OBJECTID":27749,"LANDMARKID":"1000700000670","LANDMARKCO":"308","LANDMARKNA":"國1-員林交流道-南下","LANDMARKAD":"1000711","ADDRESS":"彰化縣溪湖鎮","TEL":" ","COUNTYNAME":"彰化縣","TOWNNAME":"溪湖鎮","MARKTYPE":"993","Class":"308"},"geometry":{"x":199671.3853000002,"y":2649738.3389999997}},{"attributes":{"OBJECTID":27750,"LANDMARKID":"1000700000589","LANDMARKCO":"303","LANDMARKNA":"糖廠宿舍烤肉區停車場","LANDMARKAD":"1000711","ADDRESS":"彰化縣溪湖鎮","TEL":" ","COUNTYNAME":"彰化縣","TOWNNAME":"溪湖鎮","MARKTYPE":"993","Class":"303"},"geometry":{"x":197218.25430000015,"y":2649585.1508000009}},{"attributes":{"OBJECTID":27751,"LANDMARKID":"1000700000761","LANDMARKCO":"402","LANDMARKNA":"中華電信-溪湖西環特約服務中心","LANDMARKAD":"1000711","ADDRESS":"彰化縣溪湖鎮西環路251號","TEL":"04-8853998","COUNTYNAME":"彰化縣","TOWNNAME":"溪湖鎮","MARKTYPE":"994","Class":"4"},"geometry":{"x":196797.91669999994,"y":2650492.8661000002}},{"attributes":{"OBJECTID":27752,"LANDMARKID":"1000700000762","LANDMARKCO":"402","LANDMARKNA":"大眾電信(震旦通訊)-溪湖西環店","LANDMARKAD":"1000711","ADDRESS":"彰化縣溪湖鎮西環路193號","TEL":"04-8817589","COUNTYNAME":"彰化縣","TOWNNAME":"溪湖鎮","MARKTYPE":"994","Class":"4"},"geometry":{"x":196799.45760000031,"y":2650346.8717}},{"attributes":{"OBJECTID":27753,"LANDMARKID":"1000700000763","LANDMARKCO":"402","LANDMARKNA":"中華電信-溪湖服務中心","LANDMARKAD":"1000711","ADDRESS":"彰化縣溪湖鎮彰水路四段323號","TEL":"(04)885-4040","COUNTYNAME":"彰化縣","TOWNNAME":"溪湖鎮","MARKTYPE":"994","Class":"4"},"geometry":{"x":197029.08499999996,"y":2651986.7301000003}},{"attributes":{"OBJECTID":27754,"LANDMARKID":"1000700000764","LANDMARKCO":"402","LANDMARKNA":"遠傳電信-溪湖西環門市","LANDMARKAD":"1000711","ADDRESS":"彰化縣溪湖鎮西環路195 號","TEL":" ","COUNTYNAME":"彰化縣","TOWNNAME":"溪湖鎮","MARKTYPE":"994","Class":"4"},"geometry":{"x":196818.42580000032,"y":2650337.4975000005}},{"attributes":{"OBJECTID":27755,"LANDMARKID":"1000700001173","LANDMARKCO":"603","LANDMARKNA":"展亞商務旅館","LANDMARKAD":"1000711","ADDRESS":"彰化縣溪湖鎮大公路179號4-7樓","TEL":"04-8817566","COUNTYNAME":"彰化縣","TOWNNAME":"溪湖鎮","MARKTYPE":"996","Class":"6"},"geometry":{"x":196341.71059999987,"y":2650894.2149}},{"attributes":{"OBJECTID":27756,"LANDMARKID":"1000700001174","LANDMARKCO":"603","LANDMARKNA":"南華大旅社","LANDMARKAD":"1000711","ADDRESS":"彰化縣溪湖鎮彰水路三段122號","TEL":"04-8855131-2","COUNTYNAME":"彰化縣","TOWNNAME":"溪湖鎮","MARKTYPE":"996","Class":"6"},"geometry":{"x":197117.76580000017,"y":2650262.9981999993}},{"attributes":{"OBJECTID":27757,"LANDMARKID":"1000700001175","LANDMARKCO":"603","LANDMARKNA":"富仙大旅社","LANDMARKAD":"1000711","ADDRESS":"彰化縣溪湖鎮彰水路三段218號","TEL":"04-8852306","COUNTYNAME":"彰化縣","TOWNNAME":"溪湖鎮","MARKTYPE":"996","Class":"6"},"geometry":{"x":197109.89300000016,"y":2650499.9693}},{"attributes":{"OBJECTID":27758,"LANDMARKID":"1000700001176","LANDMARKCO":"603","LANDMARKNA":"溪湖汽車旅館","LANDMARKAD":"1000711","ADDRESS":"彰化縣溪湖鎮興學街68號","TEL":"04-8829867","COUNTYNAME":"彰化縣","TOWNNAME":"溪湖鎮","MARKTYPE":"996","Class":"6"},"geometry":{"x":197386.9439000003,"y":2650828.9352000002}},{"attributes":{"OBJECTID":27759,"LANDMARKID":"1000700000846","LANDMARKCO":"405","LANDMARKNA":"中油加油站-大成路(中油直營)","LANDMARKAD":"1000720","ADDRESS":"彰化縣二林鎮大成路1段456號","TEL":"04-8955660","COUNTYNAME":"彰化縣","TOWNNAME":"二林鎮","MARKTYPE":"994","Class":"4"},"geometry":{"x":185366.92750000022,"y":2643579.0103999991}},{"attributes":{"OBJECTID":27760,"LANDMARKID":"1000700000847","LANDMARKCO":"405","LANDMARKNA":"中油加油站-木林站","LANDMARKAD":"1000720","ADDRESS":"彰化縣二林鎮斗苑路四段111號","TEL":"04-8953838","COUNTYNAME":"彰化縣","TOWNNAME":"二林鎮","MARKTYPE":"994","Class":"4"},"geometry":{"x":187654.56070000026,"y":2643931.8775999993}},{"attributes":{"OBJECTID":27761,"LANDMARKID":"1000700000848","LANDMARKCO":"405","LANDMARKNA":"台糖加油站-儒林站(中油)","LANDMARKAD":"1000720","ADDRESS":"彰化縣二林鎮仁愛路175號","TEL":" ","COUNTYNAME":"彰化縣","TOWNNAME":"二林鎮","MARKTYPE":"994","Class":"4"},"geometry":{"x":186266.96109999996,"y":2644435.0741000008}},{"attributes":{"OBJECTID":27762,"LANDMARKID":"1000700000849","LANDMARKCO":"405","LANDMARKNA":"中油加油站-原斗站","LANDMARKAD":"1000720","ADDRESS":"彰化縣二林鎮斗苑路1段836號","TEL":"04-8902268","COUNTYNAME":"彰化縣","TOWNNAME":"二林鎮","MARKTYPE":"994","Class":"4"},"geometry":{"x":191906.5876000002,"y":2643703.0097000003}},{"attributes":{"OBJECTID":27763,"LANDMARKID":"1000700000850","LANDMARKCO":"405","LANDMARKNA":"中油加油站-挖仔站","LANDMARKAD":"1000720","ADDRESS":"彰化縣二林鎮華崙里二溪路七段552號","TEL":"04-8684600","COUNTYNAME":"彰化縣","TOWNNAME":"二林鎮","MARKTYPE":"994","Class":"4"},"geometry":{"x":193576.08899999969,"y":2650184.1007000003}},{"attributes":{"OBJECTID":27764,"LANDMARKID":"1000700000851","LANDMARKCO":"405","LANDMARKNA":"中油加油站-二林站(中油直營)","LANDMARKAD":"1000720","ADDRESS":"彰化縣二林鎮豐田里二溪路一段212號","TEL":"04-8960049","COUNTYNAME":"彰化縣","TOWNNAME":"二林鎮","MARKTYPE":"994","Class":"4"},"geometry":{"x":186206.06269999966,"y":2644374.8016999997}},{"attributes":{"OBJECTID":27765,"LANDMARKID":"1000700000852","LANDMARKCO":"405","LANDMARKNA":"台糖加油站-萬興站(中油)","LANDMARKAD":"1000720","ADDRESS":"彰化縣二林鎮二溪路六段539號","TEL":" ","COUNTYNAME":"彰化縣","TOWNNAME":"二林鎮","MARKTYPE":"994","Class":"4"},"geometry":{"x":190717.76449999958,"y":2650141.4217000008}},{"attributes":{"OBJECTID":27766,"LANDMARKID":"1000700000679","LANDMARKCO":"401","LANDMARKNA":"宋志懿醫院","LANDMARKAD":"1000720","ADDRESS":"彰化縣二林鎮豐田里大成路一段51號","TEL":"04-8968707","COUNTYNAME":"彰化縣","TOWNNAME":"二林鎮","MARKTYPE":"994","Class":"4"},"geometry":{"x":186153.55669999961,"y":2644190.3358999994}},{"attributes":{"OBJECTID":27767,"LANDMARKID":"1000700000680","LANDMARKCO":"401","LANDMARKNA":"洪宗鄰醫院","LANDMARKAD":"1000720","ADDRESS":"彰化縣二林鎮西平里中正路61號","TEL":"04-8967955","COUNTYNAME":"彰化縣","TOWNNAME":"二林鎮","MARKTYPE":"994","Class":"4"},"geometry":{"x":185623.2165000001,"y":2643960.5031000003}},{"attributes":{"OBJECTID":27768,"LANDMARKID":"1000700000681","LANDMARKCO":"401","LANDMARKNA":"財團法人彰化基督教醫院二林分院","LANDMARKAD":"1000720","ADDRESS":"彰化縣二林鎮大成路一段558號","TEL":"04-8960128","COUNTYNAME":"彰化縣","TOWNNAME":"二林鎮","MARKTYPE":"994","Class":"4"},"geometry":{"x":185177.15149999969,"y":2643361.0588000007}},{"attributes":{"OBJECTID":27769,"LANDMARKID":"1000700001108","LANDMARKCO":"507","LANDMARKNA":"二林仁和宮","LANDMARKAD":"1000720","ADDRESS":"彰化縣二林鎮西平里中正路58號","TEL":" ","COUNTYNAME":"彰化縣","TOWNNAME":"二林鎮","MARKTYPE":"995","Class":"5"},"geometry":{"x":185647.52350000013,"y":2643992.0949000008}},{"attributes":{"OBJECTID":27770,"LANDMARKID":"1000700001019","LANDMARKCO":"408","LANDMARKNA":"郵局-二林郵局","LANDMARKAD":"1000720","ADDRESS":"彰化縣二林鎮中正路1號","TEL":"(04)8964-284","COUNTYNAME":"彰化縣","TOWNNAME":"二林鎮","MARKTYPE":"994","Class":"4"},"geometry":{"x":185796.84190000035,"y":2644005.3532999996}},{"attributes":{"OBJECTID":27771,"LANDMARKID":"1000700001020","LANDMARKCO":"408","LANDMARKNA":"郵局-二林萬興郵局","LANDMARKAD":"1000720","ADDRESS":"彰化縣二林鎮二溪路6段290號","TEL":"(04)8682-582","COUNTYNAME":"彰化縣","TOWNNAME":"二林鎮","MARKTYPE":"994","Class":"4"},"geometry":{"x":191257.35099999979,"y":2650119.3785999995}},{"attributes":{"OBJECTID":27772,"LANDMARKID":"1000700001058","LANDMARKCO":"409","LANDMARKNA":"彰化縣二林鎮農會","LANDMARKAD":"1000720","ADDRESS":"彰化縣二林鎮儒林路二段260號","TEL":"04-8961191","COUNTYNAME":"彰化縣","TOWNNAME":"二林鎮","MARKTYPE":"994","Class":"4"},"geometry":{"x":185823.00250000041,"y":2643663.9374000002}},{"attributes":{"OBJECTID":27773,"LANDMARKID":"1000700000786","LANDMARKCO":"404","LANDMARKNA":"台灣省自來水二林營運所","LANDMARKAD":"1000720","ADDRESS":"彰化縣二林鎮儒林路二段100號","TEL":" ","COUNTYNAME":"彰化縣","TOWNNAME":"二林鎮","MARKTYPE":"994","Class":"4"},"geometry":{"x":185935.82349999994,"y":2643270.0545000006}},{"attributes":{"OBJECTID":27774,"LANDMARKID":"1000700000969","LANDMARKCO":"406","LANDMARKNA":"長青公園","LANDMARKAD":"1000720","ADDRESS":"彰化縣二林鎮","TEL":" ","COUNTYNAME":"彰化縣","TOWNNAME":"二林鎮","MARKTYPE":"994","Class":"4"},"geometry":{"x":185798.81269999966,"y":2644535.4611000009}},{"attributes":{"OBJECTID":27775,"LANDMARKID":"1000700000970","LANDMARKCO":"406","LANDMARKNA":"儒林公園","LANDMARKAD":"1000720","ADDRESS":"彰化縣二林鎮","TEL":" ","COUNTYNAME":"彰化縣","TOWNNAME":"二林鎮","MARKTYPE":"994","Class":"4"},"geometry":{"x":186200.73309999984,"y":2644509.6243999992}},{"attributes":{"OBJECTID":27776,"LANDMARKID":"1000700000978","LANDMARKCO":"407","LANDMARKNA":"三商百貨","LANDMARKAD":"1000720","ADDRESS":"彰化縣二林鎮建興街110號","TEL":"04-8953927","COUNTYNAME":"彰化縣","TOWNNAME":"二林鎮","MARKTYPE":"994","Class":"4"},"geometry":{"x":185861.19539999962,"y":2643916.8829999994}},{"attributes":{"OBJECTID":27777,"LANDMARKID":"1000700000832","LANDMARKCO":"405","LANDMARKNA":"台塑加油站-林田站(台塑)","LANDMARKAD":"1000720","ADDRESS":"彰化縣二林鎮斗苑路四段22號","TEL":"04-8956266","COUNTYNAME":"彰化縣","TOWNNAME":"二林鎮","MARKTYPE":"994","Class":"4"},"geometry":{"x":187583.99509999994,"y":2643973.1912999991}},{"attributes":{"OBJECTID":27778,"LANDMARKID":"1000700000833","LANDMARKCO":"405","LANDMARKNA":"福懋加油站-二溪站(台塑)","LANDMARKAD":"1000720","ADDRESS":"彰化縣二林鎮華崙里二溪路七段363號","TEL":"04-8684674","COUNTYNAME":"彰化縣","TOWNNAME":"二林鎮","MARKTYPE":"994","Class":"4"},"geometry":{"x":192954.56549999956,"y":2649843.9756000005}},{"attributes":{"OBJECTID":27779,"LANDMARKID":"1000700000271","LANDMARKCO":"108","LANDMARKNA":"彰化縣二林鎮公所","LANDMARKAD":"1000720","ADDRESS":"彰化縣二林鎮豐田里斗苑路四段636號","TEL":"04-8969906","COUNTYNAME":"彰化縣","TOWNNAME":"二林鎮","MARKTYPE":"991","Class":"1"},"geometry":{"x":186301.7248999998,"y":2644071.0020000003}},{"attributes":{"OBJECTID":27780,"LANDMARKID":"1000700000053","LANDMARKCO":"103","LANDMARKNA":"彰化縣二林鎮衛生所","LANDMARKAD":"1000720","ADDRESS":"彰化縣二林鎮斗苑路四段689號","TEL":"04-8964298","COUNTYNAME":"彰化縣","TOWNNAME":"二林鎮","MARKTYPE":"991","Class":"1"},"geometry":{"x":186173.9020999996,"y":2644030.4360000007}},{"attributes":{"OBJECTID":27781,"LANDMARKID":"1000700000054","LANDMARKCO":"103","LANDMARKNA":"彰化縣二林鎮鎮民代表會","LANDMARKAD":"1000720","ADDRESS":"彰化縣二林鎮斗苑路四段636號","TEL":"04-8969906#230","COUNTYNAME":"彰化縣","TOWNNAME":"二林鎮","MARKTYPE":"991","Class":"1"},"geometry":{"x":186288.76910000015,"y":2644060.9447000008}},{"attributes":{"OBJECTID":27782,"LANDMARKID":"1000700000189","LANDMARKCO":"107","LANDMARKNA":"彰化縣消防局二林消防分隊","LANDMARKAD":"1000720","ADDRESS":"彰化縣二林鎮仁愛路200號","TEL":"04-8960695","COUNTYNAME":"彰化縣","TOWNNAME":"二林鎮","MARKTYPE":"991","Class":"1"},"geometry":{"x":186482.80680000037,"y":2644440.5372000001}},{"attributes":{"OBJECTID":27783,"LANDMARKID":"1000700000190","LANDMARKCO":"107","LANDMARKNA":"彰化縣警察局芳苑分局","LANDMARKAD":"1000720","ADDRESS":"彰化縣二林鎮東和里斗苑路五段110號","TEL":"04-8960013","COUNTYNAME":"彰化縣","TOWNNAME":"二林鎮","MARKTYPE":"991","Class":"1"},"geometry":{"x":185829.81390000042,"y":2644050.1652000006}},{"attributes":{"OBJECTID":27784,"LANDMARKID":"1000700000191","LANDMARKCO":"107","LANDMARKNA":"彰化縣警察局二林派出所","LANDMARKAD":"1000720","ADDRESS":"彰化縣二林鎮東和里斗苑路五段110號","TEL":"04-8961072","COUNTYNAME":"彰化縣","TOWNNAME":"二林鎮","MARKTYPE":"991","Class":"1"},"geometry":{"x":185829.81390000042,"y":2644050.1652000006}},{"attributes":{"OBJECTID":27785,"LANDMARKID":"1000700000192","LANDMARKCO":"107","LANDMARKNA":"彰化縣警察局萬興派出所","LANDMARKAD":"1000720","ADDRESS":"彰化縣二林鎮永興里二溪路六段395號","TEL":"04-8682039","COUNTYNAME":"彰化縣","TOWNNAME":"二林鎮","MARKTYPE":"991","Class":"1"},"geometry":{"x":191217.44209999964,"y":2650050.1045999993}},{"attributes":{"OBJECTID":27786,"LANDMARKID":"1000700000193","LANDMARKCO":"107","LANDMARKNA":"彰化縣警察局原斗派出所","LANDMARKAD":"1000720","ADDRESS":"彰化縣二林鎮原斗里斗苑路一段915號","TEL":"04-8902041","COUNTYNAME":"彰化縣","TOWNNAME":"二林鎮","MARKTYPE":"991","Class":"1"},"geometry":{"x":191563.79000000004,"y":2643750.4690000005}},{"attributes":{"OBJECTID":27787,"LANDMARKID":"1000700000127","LANDMARKCO":"106","LANDMARKNA":"彰化縣二林鎮戶政事務所","LANDMARKAD":"1000720","ADDRESS":"彰化縣二林鎮東和里6鄰斗苑路五段80號","TEL":"04-8960683","COUNTYNAME":"彰化縣","TOWNNAME":"二林鎮","MARKTYPE":"991","Class":"1"},"geometry":{"x":185866.81379999965,"y":2644050.3300000001}},{"attributes":{"OBJECTID":27788,"LANDMARKID":"1000700000109","LANDMARKCO":"105","LANDMARKNA":"彰化縣二林地政事務所","LANDMARKAD":"1000720","ADDRESS":"彰化縣二林鎮豐田里斗苑路四段696號","TEL":"04-8960094","COUNTYNAME":"彰化縣","TOWNNAME":"二林鎮","MARKTYPE":"991","Class":"1"},"geometry":{"x":186215.76910000015,"y":2644060.6216000002}},{"attributes":{"OBJECTID":27789,"LANDMARKID":"1000700000020","LANDMARKCO":"101","LANDMARKNA":"台灣彰化監獄","LANDMARKAD":"1000720","ADDRESS":"彰化縣二林鎮二溪路三段240號","TEL":"04-8964800","COUNTYNAME":"彰化縣","TOWNNAME":"二林鎮","MARKTYPE":"991","Class":"1"},"geometry":{"x":187373.05920000002,"y":2648300.6425000001}},{"attributes":{"OBJECTID":27790,"LANDMARKID":"1000700000549","LANDMARKCO":"204","LANDMARKNA":"彰化縣立圖書館二林分館","LANDMARKAD":"1000720","ADDRESS":"彰化縣二林鎮斗苑路四段626號","TEL":" ","COUNTYNAME":"彰化縣","TOWNNAME":"二林鎮","MARKTYPE":"992","Class":"2"},"geometry":{"x":186370.48469999991,"y":2644084.4065000005}},{"attributes":{"OBJECTID":27791,"LANDMARKID":"1000700000305","LANDMARKCO":"202","LANDMARKNA":"縣立二林高中","LANDMARKAD":"1000720","ADDRESS":"彰化縣二林鎮中西里二城路6號","TEL":"04-8960121","COUNTYNAME":"彰化縣","TOWNNAME":"二林鎮","MARKTYPE":"992","Class":"2"},"geometry":{"x":184784.43670000043,"y":2642990.5766000003}},{"attributes":{"OBJECTID":27792,"LANDMARKID":"1000700000306","LANDMARKCO":"202","LANDMARKNA":"國立二林工商","LANDMARKAD":"1000720","ADDRESS":"彰化縣二林鎮斗苑路四段500號","TEL":"04-8962133","COUNTYNAME":"彰化縣","TOWNNAME":"二林鎮","MARKTYPE":"992","Class":"2"},"geometry":{"x":186597.41909999959,"y":2644221.0482999999}},{"attributes":{"OBJECTID":27793,"LANDMARKID":"1000700000379","LANDMARKCO":"203","LANDMARKNA":"縣立萬興國中","LANDMARKAD":"1000720","ADDRESS":"彰化縣二林鎮萬興里二溪路六段626號","TEL":"04-8682978","COUNTYNAME":"彰化縣","TOWNNAME":"二林鎮","MARKTYPE":"992","Class":"2"},"geometry":{"x":190506.68630000018,"y":2650300.6707000006}},{"attributes":{"OBJECTID":27794,"LANDMARKID":"1000700000380","LANDMARKCO":"203","LANDMARKNA":"縣立原斗國中","LANDMARKAD":"1000720","ADDRESS":"彰化縣二林鎮原斗里原竹路872號","TEL":"04-8904600","COUNTYNAME":"彰化縣","TOWNNAME":"二林鎮","MARKTYPE":"992","Class":"2"},"geometry":{"x":191661.84059999976,"y":2643430.8714000005}},{"attributes":{"OBJECTID":27795,"LANDMARKID":"1000700000381","LANDMARKCO":"203","LANDMARKNA":"縣立萬興國小","LANDMARKAD":"1000720","ADDRESS":"彰化縣二林鎮永興里二溪路六段433號","TEL":"04-8682759","COUNTYNAME":"彰化縣","TOWNNAME":"二林鎮","MARKTYPE":"992","Class":"2"},"geometry":{"x":190902.40330000035,"y":2650061.1381000001}},{"attributes":{"OBJECTID":27796,"LANDMARKID":"1000700000382","LANDMARKCO":"203","LANDMARKNA":"縣立原斗國小","LANDMARKAD":"1000720","ADDRESS":"彰化縣二林鎮原斗里斗苑路一段865號","TEL":"04-8902322","COUNTYNAME":"彰化縣","TOWNNAME":"二林鎮","MARKTYPE":"992","Class":"2"},"geometry":{"x":191635.35759999976,"y":2643610.7590999994}},{"attributes":{"OBJECTID":27797,"LANDMARKID":"1000700000383","LANDMARKCO":"203","LANDMARKNA":"縣立二林國小","LANDMARKAD":"1000720","ADDRESS":"彰化縣二林鎮東和里斗苑路五段22號","TEL":"04-8960057","COUNTYNAME":"彰化縣","TOWNNAME":"二林鎮","MARKTYPE":"992","Class":"2"},"geometry":{"x":186030.78039999958,"y":2644141.0533000007}},{"attributes":{"OBJECTID":27798,"LANDMARKID":"1000700000384","LANDMARKCO":"203","LANDMARKNA":"縣立中興國小","LANDMARKAD":"1000720","ADDRESS":"彰化縣二林鎮華菕里光復路73號","TEL":"04-8683458","COUNTYNAME":"彰化縣","TOWNNAME":"二林鎮","MARKTYPE":"992","Class":"2"},"geometry":{"x":193274.72410000023,"y":2649360.4198000003}},{"attributes":{"OBJECTID":27799,"LANDMARKID":"1000700000385","LANDMARKCO":"203","LANDMARKNA":"縣立中正國小","LANDMARKAD":"1000720","ADDRESS":"彰化縣二林鎮南光里建興街80號","TEL":"04-8960145","COUNTYNAME":"彰化縣","TOWNNAME":"二林鎮","MARKTYPE":"992","Class":"2"},"geometry":{"x":185979.88069999963,"y":2643810.8331000004}},{"attributes":{"OBJECTID":27800,"LANDMARKID":"1000700000386","LANDMARKCO":"203","LANDMARKNA":"縣立香田國小","LANDMARKAD":"1000720","ADDRESS":"彰化縣二林鎮香田里儒林路10之1號","TEL":"04-8960654","COUNTYNAME":"彰化縣","TOWNNAME":"二林鎮","MARKTYPE":"992","Class":"2"},"geometry":{"x":186512.8638000004,"y":2641270.7348999996}}]}