{"displayFieldName":"COUNTYNAME","fieldAliases":{"OBJECTID":"OBJECTID","LANDMARKID":"LANDMARKID","LANDMARKCO":"LANDMARKCO","LANDMARKNA":"LANDMARKNA","LANDMARKAD":"LANDMARKAD","ADDRESS":"ADDRESS","TEL":"TEL","COUNTYNAME":"COUNTYNAME","TOWNNAME":"TOWNNAME","MARKTYPE":"MARKTYPE","Class":"Class"},"geometryType":"esriGeometryPoint","spatialReference":{"wkid":4326},"fields":[{"name":"OBJECTID","type":"esriFieldTypeOID","alias":"OBJECTID"},{"name":"LANDMARKID","type":"esriFieldTypeString","alias":"LANDMARKID","length":15},{"name":"LANDMARKCO","type":"esriFieldTypeString","alias":"LANDMARKCO","length":15},{"name":"LANDMARKNA","type":"esriFieldTypeString","alias":"LANDMARKNA","length":50},{"name":"LANDMARKAD","type":"esriFieldTypeString","alias":"LANDMARKAD","length":15},{"name":"ADDRESS","type":"esriFieldTypeString","alias":"ADDRESS","length":56},{"name":"TEL","type":"esriFieldTypeString","alias":"TEL","length":36},{"name":"COUNTYNAME","type":"esriFieldTypeString","alias":"COUNTYNAME","length":15},{"name":"TOWNNAME","type":"esriFieldTypeString","alias":"TOWNNAME","length":13},{"name":"MARKTYPE","type":"esriFieldTypeString","alias":"MARKTYPE","length":12},{"name":"Class","type":"esriFieldTypeString","alias":"Class","length":5}],"features":[{"attributes":{"OBJECTID":5801,"LANDMARKID":"1000100001472","LANDMARKCO":"306","LANDMARKNA":"土城捷運站-出口2","LANDMARKAD":"1000113","ADDRESS":" ","TEL":" ","COUNTYNAME":"新北市","TOWNNAME":"土城區","MARKTYPE":"993","Class":"306"},"geometry":{"x":121.44372860012358,"y":24.972720634879945}},{"attributes":{"OBJECTID":5802,"LANDMARKID":"1000100001473","LANDMARKCO":"306","LANDMARKNA":"土城捷運站-出口3","LANDMARKAD":"1000113","ADDRESS":" ","TEL":" ","COUNTYNAME":"新北市","TOWNNAME":"土城區","MARKTYPE":"993","Class":"306"},"geometry":{"x":121.44521350041217,"y":24.973651413598652}},{"attributes":{"OBJECTID":5803,"LANDMARKID":"1000100001474","LANDMARKCO":"306","LANDMARKNA":"永寧捷運站-出口1","LANDMARKAD":"1000113","ADDRESS":" ","TEL":" ","COUNTYNAME":"新北市","TOWNNAME":"土城區","MARKTYPE":"993","Class":"306"},"geometry":{"x":121.43534841293572,"y":24.966827427836868}},{"attributes":{"OBJECTID":5804,"LANDMARKID":"1000100001475","LANDMARKCO":"306","LANDMARKNA":"永寧捷運站-出口3","LANDMARKAD":"1000113","ADDRESS":" ","TEL":" ","COUNTYNAME":"新北市","TOWNNAME":"土城區","MARKTYPE":"993","Class":"306"},"geometry":{"x":121.43710625507103,"y":24.96712747734448}},{"attributes":{"OBJECTID":5805,"LANDMARKID":"1000100001476","LANDMARKCO":"306","LANDMARKNA":"永寧捷運站-出口4","LANDMARKAD":"1000113","ADDRESS":" ","TEL":" ","COUNTYNAME":"新北市","TOWNNAME":"土城區","MARKTYPE":"993","Class":"306"},"geometry":{"x":121.43682316886463,"y":24.967589366461212}},{"attributes":{"OBJECTID":5806,"LANDMARKID":"1000100001477","LANDMARKCO":"306","LANDMARKNA":"永寧捷運站-出口2","LANDMARKAD":"1000113","ADDRESS":" ","TEL":" ","COUNTYNAME":"新北市","TOWNNAME":"土城區","MARKTYPE":"993","Class":"306"},"geometry":{"x":121.43584876603455,"y":24.965900209671155}},{"attributes":{"OBJECTID":5807,"LANDMARKID":"1000100000959","LANDMARKCO":"302","LANDMARKNA":"大南汽車客運光復站","LANDMARKAD":"1000113","ADDRESS":"新北市土城區明德路一段398號之1","TEL":" ","COUNTYNAME":"新北市","TOWNNAME":"土城區","MARKTYPE":"993","Class":"302"},"geometry":{"x":121.4577271518509,"y":24.977487500016196}},{"attributes":{"OBJECTID":5808,"LANDMARKID":"1000100000960","LANDMARKCO":"302","LANDMARKNA":"台北汽車客運四海站","LANDMARKAD":"1000113","ADDRESS":"新北市土城區石門路15之1號","TEL":" ","COUNTYNAME":"新北市","TOWNNAME":"土城區","MARKTYPE":"993","Class":"302"},"geometry":{"x":121.45952966008008,"y":24.968330900091878}},{"attributes":{"OBJECTID":5809,"LANDMARKID":"1000100000961","LANDMARKCO":"302","LANDMARKNA":"台北汽車客運土城站","LANDMARKAD":"1000113","ADDRESS":"新北市土城區忠承路59號","TEL":" ","COUNTYNAME":"新北市","TOWNNAME":"土城區","MARKTYPE":"993","Class":"302"},"geometry":{"x":121.43844143640131,"y":24.964763257965497}},{"attributes":{"OBJECTID":5810,"LANDMARKID":"1000100001202","LANDMARKCO":"303","LANDMARKNA":"錫章停車場","LANDMARKAD":"1000113","ADDRESS":"新北市土城區","TEL":" ","COUNTYNAME":"新北市","TOWNNAME":"土城區","MARKTYPE":"993","Class":"303"},"geometry":{"x":121.44062329716019,"y":24.971536640731877}},{"attributes":{"OBJECTID":5811,"LANDMARKID":"1000100001203","LANDMARKCO":"303","LANDMARKNA":"土城公有停車場","LANDMARKAD":"1000113","ADDRESS":"新北市土城區和平路","TEL":" ","COUNTYNAME":"新北市","TOWNNAME":"土城區","MARKTYPE":"993","Class":"303"},"geometry":{"x":121.44322657226101,"y":24.972156828782598}},{"attributes":{"OBJECTID":5812,"LANDMARKID":"1000100001204","LANDMARKCO":"303","LANDMARKNA":"德霖技術學院停車場","LANDMARKAD":"1000113","ADDRESS":" ","TEL":" ","COUNTYNAME":"新北市","TOWNNAME":"土城區","MARKTYPE":"993","Class":"303"},"geometry":{"x":121.45612463602119,"y":24.973139244293645}},{"attributes":{"OBJECTID":5813,"LANDMARKID":"1000100001205","LANDMARKCO":"303","LANDMARKNA":"成功停車場","LANDMARKAD":"1000113","ADDRESS":"新北市土城區","TEL":" ","COUNTYNAME":"新北市","TOWNNAME":"土城區","MARKTYPE":"993","Class":"303"},"geometry":{"x":121.45091529973382,"y":24.988112328028176}},{"attributes":{"OBJECTID":5814,"LANDMARKID":"1000100001206","LANDMARKCO":"303","LANDMARKNA":"華德公園平面停車場","LANDMARKAD":"1000113","ADDRESS":" ","TEL":" ","COUNTYNAME":"新北市","TOWNNAME":"土城區","MARKTYPE":"993","Class":"303"},"geometry":{"x":121.45430856459247,"y":24.992192475901554}},{"attributes":{"OBJECTID":5815,"LANDMARKID":"1000100001207","LANDMARKCO":"303","LANDMARKNA":"亞東停車場","LANDMARKAD":"1000113","ADDRESS":" ","TEL":" ","COUNTYNAME":"新北市","TOWNNAME":"土城區","MARKTYPE":"993","Class":"303"},"geometry":{"x":121.4547692329147,"y":24.992123135908962}},{"attributes":{"OBJECTID":5816,"LANDMARKID":"1000100001208","LANDMARKCO":"303","LANDMARKNA":"佳來停車場","LANDMARKAD":"1000113","ADDRESS":"新北市土城區","TEL":" ","COUNTYNAME":"新北市","TOWNNAME":"土城區","MARKTYPE":"993","Class":"303"},"geometry":{"x":121.45614331510998,"y":24.991200685379319}},{"attributes":{"OBJECTID":5817,"LANDMARKID":"1000100001209","LANDMARKCO":"303","LANDMARKNA":"民族公園停車場","LANDMARKAD":"1000113","ADDRESS":"新北市土城區","TEL":" ","COUNTYNAME":"新北市","TOWNNAME":"土城區","MARKTYPE":"993","Class":"303"},"geometry":{"x":121.41893830231081,"y":24.964090725483889}},{"attributes":{"OBJECTID":5818,"LANDMARKID":"1000100001210","LANDMARKCO":"303","LANDMARKNA":"和平路停車場","LANDMARKAD":"1000113","ADDRESS":"新北市土城區土城里和平路","TEL":" ","COUNTYNAME":"新北市","TOWNNAME":"土城區","MARKTYPE":"993","Class":"303"},"geometry":{"x":121.44353461852612,"y":24.97285985056174}},{"attributes":{"OBJECTID":5819,"LANDMARKID":"1000100001211","LANDMARKCO":"303","LANDMARKNA":"延吉停車場","LANDMARKAD":"1000113","ADDRESS":"新北市土城區德峰街65號","TEL":" ","COUNTYNAME":"新北市","TOWNNAME":"土城區","MARKTYPE":"993","Class":"303"},"geometry":{"x":121.46793005072838,"y":24.985980725229226}},{"attributes":{"OBJECTID":5820,"LANDMARKID":"1000100001212","LANDMARKCO":"303","LANDMARKNA":"金城停車場","LANDMARKAD":"1000113","ADDRESS":"新北市土城區金城路286號","TEL":" ","COUNTYNAME":"新北市","TOWNNAME":"土城區","MARKTYPE":"993","Class":"303"},"geometry":{"x":121.45865399313367,"y":24.984045032071187}},{"attributes":{"OBJECTID":5821,"LANDMARKID":"1000100001213","LANDMARKCO":"303","LANDMARKNA":"青雲路、金城路口停車場","LANDMARKAD":"1000113","ADDRESS":"新北市土城區青溪里青雲路","TEL":" ","COUNTYNAME":"新北市","TOWNNAME":"土城區","MARKTYPE":"993","Class":"303"},"geometry":{"x":121.45915257686767,"y":24.984670989922247}},{"attributes":{"OBJECTID":5822,"LANDMARKID":"1000100001214","LANDMARKCO":"303","LANDMARKNA":"停七停車場","LANDMARKAD":"1000113","ADDRESS":"新北市土城區青雲路","TEL":" ","COUNTYNAME":"新北市","TOWNNAME":"土城區","MARKTYPE":"993","Class":"303"},"geometry":{"x":121.45886224267088,"y":24.979204031456298}},{"attributes":{"OBJECTID":5823,"LANDMARKID":"1000100001215","LANDMARKCO":"303","LANDMARKNA":"停二停車場","LANDMARKAD":"1000113","ADDRESS":"新北市土城區延和里立德路","TEL":" ","COUNTYNAME":"新北市","TOWNNAME":"土城區","MARKTYPE":"993","Class":"303"},"geometry":{"x":121.46699868115097,"y":24.981691824799718}},{"attributes":{"OBJECTID":5824,"LANDMARKID":"1000100001216","LANDMARKCO":"303","LANDMARKNA":"停八停車場","LANDMARKAD":"1000113","ADDRESS":"新北市土城區員林街","TEL":" ","COUNTYNAME":"新北市","TOWNNAME":"土城區","MARKTYPE":"993","Class":"303"},"geometry":{"x":121.44307414372469,"y":24.978062342376255}},{"attributes":{"OBJECTID":5825,"LANDMARKID":"1000100001217","LANDMARKCO":"303","LANDMARKNA":"停三停車場","LANDMARKAD":"1000113","ADDRESS":"新北市土城區永豐街","TEL":" ","COUNTYNAME":"新北市","TOWNNAME":"土城區","MARKTYPE":"993","Class":"303"},"geometry":{"x":121.46953423927211,"y":24.979159797646894}},{"attributes":{"OBJECTID":5826,"LANDMARKID":"1000100001218","LANDMARKCO":"303","LANDMARKNA":"停四立體停車場","LANDMARKAD":"1000113","ADDRESS":"新北市土城區青雲里金城路","TEL":" ","COUNTYNAME":"新北市","TOWNNAME":"土城區","MARKTYPE":"993","Class":"303"},"geometry":{"x":121.46123626565982,"y":24.985275883235243}},{"attributes":{"OBJECTID":5827,"LANDMARKID":"1000100001219","LANDMARKCO":"303","LANDMARKNA":"新豐停車場","LANDMARKAD":"1000113","ADDRESS":"新北市土城區金城路二段266號","TEL":" ","COUNTYNAME":"新北市","TOWNNAME":"土城區","MARKTYPE":"993","Class":"303"},"geometry":{"x":121.46288577325883,"y":24.985743983718425}},{"attributes":{"OBJECTID":5828,"LANDMARKID":"1000100001220","LANDMARKCO":"303","LANDMARKNA":"裕生停車場","LANDMARKAD":"1000113","ADDRESS":"新北市土城區裕生路106號","TEL":" ","COUNTYNAME":"新北市","TOWNNAME":"土城區","MARKTYPE":"993","Class":"303"},"geometry":{"x":121.44717423369143,"y":24.984453884894041}},{"attributes":{"OBJECTID":5829,"LANDMARKID":"1000100001221","LANDMARKCO":"303","LANDMARKNA":"停一立體停車場","LANDMARKAD":"1000113","ADDRESS":"新北市土城區峰延里明峰路","TEL":" ","COUNTYNAME":"新北市","TOWNNAME":"土城區","MARKTYPE":"993","Class":"303"},"geometry":{"x":121.44922725258196,"y":24.973271729403859}},{"attributes":{"OBJECTID":5830,"LANDMARKID":"1000100001222","LANDMARKCO":"303","LANDMARKNA":"應安停車場-學府場","LANDMARKAD":"1000113","ADDRESS":"新北市學府路二段21號B1(皇翔快樂花園)","TEL":"0980-933207","COUNTYNAME":"新北市","TOWNNAME":"土城區","MARKTYPE":"993","Class":"303"},"geometry":{"x":121.44936109497584,"y":24.981957636516132}},{"attributes":{"OBJECTID":5831,"LANDMARKID":"1000100001223","LANDMARKCO":"303","LANDMARKNA":"應安停車場-土城清水場","LANDMARKAD":"1000113","ADDRESS":"新北市土城區清水路117號","TEL":" ","COUNTYNAME":"新北市","TOWNNAME":"土城區","MARKTYPE":"993","Class":"303"},"geometry":{"x":121.457539360604,"y":24.981733993671011}},{"attributes":{"OBJECTID":5832,"LANDMARKID":"1000100001224","LANDMARKCO":"303","LANDMARKNA":"應安停車場-土城中央場","LANDMARKAD":"1000113","ADDRESS":"新北市土城區中央路三段6號","TEL":"0980-933201","COUNTYNAME":"新北市","TOWNNAME":"土城區","MARKTYPE":"993","Class":"303"},"geometry":{"x":121.43874752093033,"y":24.969591333161787}},{"attributes":{"OBJECTID":5833,"LANDMARKID":"1000100001225","LANDMARKCO":"303","LANDMARKNA":"Times(普客二四停車場)-裕民路停車場","LANDMARKAD":"1000113","ADDRESS":"土城區學成段106地號（中央路一段與裕民路口）","TEL":" ","COUNTYNAME":"新北市","TOWNNAME":"土城區","MARKTYPE":"993","Class":"303"},"geometry":{"x":121.44754609849271,"y":24.989192105193272}},{"attributes":{"OBJECTID":5834,"LANDMARKID":"1000100001226","LANDMARKCO":"303","LANDMARKNA":"Times(普客二四停車場)-金城路停車場","LANDMARKAD":"1000113","ADDRESS":"新北市土城區金城路三段200號及202號","TEL":" ","COUNTYNAME":"新北市","TOWNNAME":"土城區","MARKTYPE":"993","Class":"303"},"geometry":{"x":121.46887968077394,"y":24.988136122303821}},{"attributes":{"OBJECTID":5835,"LANDMARKID":"1000100001781","LANDMARKCO":"402","LANDMARKNA":"中華電信-土城金城特約服務中心","LANDMARKAD":"1000113","ADDRESS":"土城區金城路三段38號","TEL":"02-82613737","COUNTYNAME":"新北市","TOWNNAME":"土城區","MARKTYPE":"994","Class":"4"},"geometry":{"x":121.46554960611842,"y":24.986360059024552}},{"attributes":{"OBJECTID":5836,"LANDMARKID":"1000100001782","LANDMARKCO":"402","LANDMARKNA":"中華電信-土城服務中心","LANDMARKAD":"1000113","ADDRESS":"新北市土城區青雲路136號","TEL":"123或0800-080-123","COUNTYNAME":"新北市","TOWNNAME":"土城區","MARKTYPE":"994","Class":"4"},"geometry":{"x":121.45888557494075,"y":24.985300875847614}},{"attributes":{"OBJECTID":5837,"LANDMARKID":"1000100001783","LANDMARKCO":"402","LANDMARKNA":"中華電信-土城裕民特約服務中心","LANDMARKAD":"1000113","ADDRESS":"新北市土城區裕民路35號","TEL":"02-22605665","COUNTYNAME":"新北市","TOWNNAME":"土城區","MARKTYPE":"994","Class":"4"},"geometry":{"x":121.44831869028002,"y":24.988392052639881}},{"attributes":{"OBJECTID":5838,"LANDMARKID":"1000100001784","LANDMARKCO":"402","LANDMARKNA":"遠傳電信-土城中央門市","LANDMARKAD":"1000113","ADDRESS":"新北市土城區中央路二段95號","TEL":" ","COUNTYNAME":"新北市","TOWNNAME":"土城區","MARKTYPE":"994","Class":"4"},"geometry":{"x":121.44224106170127,"y":24.977948091854422}},{"attributes":{"OBJECTID":5839,"LANDMARKID":"1000100001785","LANDMARKCO":"402","LANDMARKNA":"威寶電信-土城裕民特約服務中心","LANDMARKAD":"1000113","ADDRESS":"新北市土城區中央路一段74號","TEL":"02-22646420","COUNTYNAME":"新北市","TOWNNAME":"土城區","MARKTYPE":"994","Class":"4"},"geometry":{"x":121.44727514897397,"y":24.989310162974803}},{"attributes":{"OBJECTID":5840,"LANDMARKID":"1000100001786","LANDMARKCO":"402","LANDMARKNA":"威寶電信-土城中央特約服務中心","LANDMARKAD":"1000113","ADDRESS":"新北市土城區中央路二段74號","TEL":"02-22657512","COUNTYNAME":"新北市","TOWNNAME":"土城區","MARKTYPE":"994","Class":"4"},"geometry":{"x":121.44236773210676,"y":24.979039767105132}},{"attributes":{"OBJECTID":5841,"LANDMARKID":"1000100001787","LANDMARKCO":"402","LANDMARKNA":"威寶電信-土城學府特約服務中心","LANDMARKAD":"1000113","ADDRESS":"新北市土城區學府路一段48號","TEL":"(02)22700124","COUNTYNAME":"新北市","TOWNNAME":"土城區","MARKTYPE":"994","Class":"4"},"geometry":{"x":121.45775017782121,"y":24.988531444443957}},{"attributes":{"OBJECTID":5842,"LANDMARKID":"1000100001788","LANDMARKCO":"402","LANDMARKNA":"大眾電信(傑昇通信)-中央店","LANDMARKAD":"1000113","ADDRESS":"新北市土城巿中央路一段48號","TEL":"02-22634468","COUNTYNAME":"新北市","TOWNNAME":"土城區","MARKTYPE":"994","Class":"4"},"geometry":{"x":121.44765607161878,"y":24.989930826049086}},{"attributes":{"OBJECTID":5843,"LANDMARKID":"1000100001789","LANDMARKCO":"402","LANDMARKNA":"大眾電信(傑昇通信)-立德店","LANDMARKAD":"1000113","ADDRESS":"新北市土城巿立德路38號","TEL":"02-82602121","COUNTYNAME":"新北市","TOWNNAME":"土城區","MARKTYPE":"994","Class":"4"},"geometry":{"x":121.46348682324958,"y":24.987357418317732}},{"attributes":{"OBJECTID":5844,"LANDMARKID":"1000100001790","LANDMARKCO":"402","LANDMARKNA":"大眾電信(傑昇通信)-金城店","LANDMARKAD":"1000113","ADDRESS":"新北市土城巿金城路三段253號","TEL":"02-22637828","COUNTYNAME":"新北市","TOWNNAME":"土城區","MARKTYPE":"994","Class":"4"},"geometry":{"x":121.47176834382839,"y":24.990085026411446}},{"attributes":{"OBJECTID":5845,"LANDMARKID":"1000100001791","LANDMARKCO":"402","LANDMARKNA":"大眾電信(傑昇通信)-土城店","LANDMARKAD":"1000113","ADDRESS":"新北市土城巿裕民路30號","TEL":"02-22655000","COUNTYNAME":"新北市","TOWNNAME":"土城區","MARKTYPE":"994","Class":"4"},"geometry":{"x":121.44782354045516,"y":24.988413091422956}},{"attributes":{"OBJECTID":5846,"LANDMARKID":"1000100001792","LANDMARKCO":"402","LANDMARKNA":"大眾電信(震旦通訊)-土城明德店","LANDMARKAD":"1000113","ADDRESS":"新北市土城區明德路一段57號","TEL":"02-82731889","COUNTYNAME":"新北市","TOWNNAME":"土城區","MARKTYPE":"994","Class":"4"},"geometry":{"x":121.46532916457154,"y":24.984637063229531}},{"attributes":{"OBJECTID":5847,"LANDMARKID":"1000100001793","LANDMARKCO":"402","LANDMARKNA":"大眾電信(震旦通訊)-土城裕民店","LANDMARKAD":"1000113","ADDRESS":"新北市土城區裕民路22號","TEL":"02-22633638","COUNTYNAME":"新北市","TOWNNAME":"土城區","MARKTYPE":"994","Class":"4"},"geometry":{"x":121.44765606072414,"y":24.988540495963516}},{"attributes":{"OBJECTID":5848,"LANDMARKID":"1000100001794","LANDMARKCO":"402","LANDMARKNA":"大眾電信-土城專賣店","LANDMARKAD":"1000113","ADDRESS":"新北市土城區裕生路21巷1弄15號(海山捷運站3號出口)","TEL":"02-22666661","COUNTYNAME":"新北市","TOWNNAME":"土城區","MARKTYPE":"994","Class":"4"},"geometry":{"x":121.44880892200618,"y":24.987693917927942}},{"attributes":{"OBJECTID":5849,"LANDMARKID":"1000100001795","LANDMARKCO":"402","LANDMARKNA":"大眾電信(震旦通訊)-土城學府店","LANDMARKAD":"1000113","ADDRESS":"新北市土城區學府路一段90號","TEL":"02-22629398","COUNTYNAME":"新北市","TOWNNAME":"土城區","MARKTYPE":"994","Class":"4"},"geometry":{"x":121.4562613375284,"y":24.988134314576733}},{"attributes":{"OBJECTID":5850,"LANDMARKID":"1000100002767","LANDMARKCO":"603","LANDMARKNA":"有馬旅館","LANDMARKAD":"1000113","ADDRESS":"新北市土城區中央路2段392號","TEL":"02-22606666","COUNTYNAME":"新北市","TOWNNAME":"土城區","MARKTYPE":"996","Class":"6"},"geometry":{"x":121.43938872054446,"y":24.971336604866835}},{"attributes":{"OBJECTID":5851,"LANDMARKID":"1000100002768","LANDMARKCO":"603","LANDMARKNA":"簡愛旅棧","LANDMARKAD":"1000113","ADDRESS":"新北市土城區中央路2段282號1","TEL":"4至7樓","COUNTYNAME":"新北市","TOWNNAME":"土城區","MARKTYPE":"996","Class":"6"},"geometry":{"x":121.44068669047844,"y":24.973877376240928}},{"attributes":{"OBJECTID":5852,"LANDMARKID":"1000100002769","LANDMARKCO":"603","LANDMARKNA":"紅堡旅店","LANDMARKAD":"1000113","ADDRESS":"新北市土城區中央路2段223之4號1至2樓","TEL":"223之5號3至5樓","COUNTYNAME":"新北市","TOWNNAME":"土城區","MARKTYPE":"996","Class":"6"},"geometry":{"x":121.44074309348134,"y":24.973452711284978}},{"attributes":{"OBJECTID":5853,"LANDMARKID":"1000100002770","LANDMARKCO":"603","LANDMARKNA":"福客旅店","LANDMARKAD":"1000113","ADDRESS":"新北市土城區中正路28號1至9樓","TEL":"02-22649705","COUNTYNAME":"新北市","TOWNNAME":"土城區","MARKTYPE":"996","Class":"6"},"geometry":{"x":121.44324116258178,"y":24.975134361065326}},{"attributes":{"OBJECTID":5854,"LANDMARKID":"1000100002771","LANDMARKCO":"603","LANDMARKNA":"名喬賓館","LANDMARKAD":"1000113","ADDRESS":"新北市土城區中正路2號4樓","TEL":"02-22604568","COUNTYNAME":"新北市","TOWNNAME":"土城區","MARKTYPE":"996","Class":"6"},"geometry":{"x":121.44232830874731,"y":24.974905083836433}},{"attributes":{"OBJECTID":5855,"LANDMARKID":"1000100002772","LANDMARKCO":"603","LANDMARKNA":"Q汽車旅館","LANDMARKAD":"1000113","ADDRESS":"新北市土城區中華路1段56巷38號","TEL":"02-22629999","COUNTYNAME":"新北市","TOWNNAME":"土城區","MARKTYPE":"996","Class":"6"},"geometry":{"x":121.44418133944741,"y":24.990242020939249}},{"attributes":{"OBJECTID":5856,"LANDMARKID":"1000100002773","LANDMARKCO":"603","LANDMARKNA":"艾蔓精緻旅館-土城館","LANDMARKAD":"1000113","ADDRESS":"新北市土城區城林路6巷18號","TEL":"02-22673399","COUNTYNAME":"新北市","TOWNNAME":"土城區","MARKTYPE":"996","Class":"6"},"geometry":{"x":121.43808955769047,"y":24.977766697469317}},{"attributes":{"OBJECTID":5857,"LANDMARKID":"1000100002560","LANDMARKCO":"504","LANDMARKNA":"南天母森林遊樂園(停)","LANDMARKAD":"1000113","ADDRESS":"新北市土城區南天母路171巷20號","TEL":" ","COUNTYNAME":"新北市","TOWNNAME":"土城區","MARKTYPE":"995","Class":"5"},"geometry":{"x":121.4485635738488,"y":24.953210660537703}},{"attributes":{"OBJECTID":5858,"LANDMARKID":"1000100002528","LANDMARKCO":"503","LANDMARKNA":"媽祖田風景區","LANDMARKAD":"1000113","ADDRESS":"新北市土城區","TEL":" ","COUNTYNAME":"新北市","TOWNNAME":"土城區","MARKTYPE":"995","Class":"5"},"geometry":{"x":121.43073731650082,"y":24.942748526128053}},{"attributes":{"OBJECTID":5859,"LANDMARKID":"1000100002003","LANDMARKCO":"405","LANDMARKNA":"中油加油站-鶯桃路站(中油直營)","LANDMARKAD":"1000108","ADDRESS":"新北市鶯歌區鶯桃路永新巷1號","TEL":"02-26792083","COUNTYNAME":"新北市","TOWNNAME":"鶯歌區","MARKTYPE":"994","Class":"4"},"geometry":{"x":121.34078127407074,"y":24.952993895852288}},{"attributes":{"OBJECTID":5860,"LANDMARKID":"1000100002004","LANDMARKCO":"405","LANDMARKNA":"中油加油站-鶯歌站(刷卡自助)(中油直營)","LANDMARKAD":"1000108","ADDRESS":"新北市鶯歌區文化路152號","TEL":"02-26792944","COUNTYNAME":"新北市","TOWNNAME":"鶯歌區","MARKTYPE":"994","Class":"4"},"geometry":{"x":121.35207791615257,"y":24.95032216354679}},{"attributes":{"OBJECTID":5861,"LANDMARKID":"1000100002005","LANDMARKCO":"405","LANDMARKNA":"中油加油站-亞柏鶯歌站","LANDMARKAD":"1000108","ADDRESS":"新北市鶯歌區鶯桃路412號","TEL":"02-86777277","COUNTYNAME":"新北市","TOWNNAME":"鶯歌區","MARKTYPE":"994","Class":"4"},"geometry":{"x":121.33324520163906,"y":24.964335064781494}},{"attributes":{"OBJECTID":5862,"LANDMARKID":"1000100002006","LANDMARKCO":"405","LANDMARKNA":"統一速邁樂加油站-鶯歌二站(中油)","LANDMARKAD":"1000108","ADDRESS":"新北市鶯歌區文化路669號","TEL":"02-26799303","COUNTYNAME":"新北市","TOWNNAME":"鶯歌區","MARKTYPE":"994","Class":"4"},"geometry":{"x":121.35315313215995,"y":24.946595151010929}},{"attributes":{"OBJECTID":5863,"LANDMARKID":"1000100002007","LANDMARKCO":"405","LANDMARKNA":"中油加油站-峰沅站","LANDMARKAD":"1000108","ADDRESS":"新北市鶯歌區中正一路225號","TEL":"02-26780368","COUNTYNAME":"新北市","TOWNNAME":"鶯歌區","MARKTYPE":"994","Class":"4"},"geometry":{"x":121.35399385450934,"y":24.957253174230008}},{"attributes":{"OBJECTID":5864,"LANDMARKID":"1000100002008","LANDMARKCO":"405","LANDMARKNA":"統一速邁樂加油站-鶯歌加油站(中油)","LANDMARKAD":"1000108","ADDRESS":"新北市鶯歌區中山路198號","TEL":" ","COUNTYNAME":"新北市","TOWNNAME":"鶯歌區","MARKTYPE":"994","Class":"4"},"geometry":{"x":121.34656333279663,"y":24.957103143948622}},{"attributes":{"OBJECTID":5865,"LANDMARKID":"1000100002009","LANDMARKCO":"405","LANDMARKNA":"山隆加油站-鶯歌站(中油)","LANDMARKAD":"1000108","ADDRESS":"新北市鶯歌區永和二街28號","TEL":"(02)2670-9799","COUNTYNAME":"新北市","TOWNNAME":"鶯歌區","MARKTYPE":"994","Class":"4"},"geometry":{"x":121.33560909858035,"y":24.970147267436211}},{"attributes":{"OBJECTID":5866,"LANDMARKID":"1000100001611","LANDMARKCO":"401","LANDMARKNA":"名恩療養院","LANDMARKAD":"1000108","ADDRESS":"新北市鶯歌區鶯桃路二段62號1-4樓","TEL":"02-26701092","COUNTYNAME":"新北市","TOWNNAME":"鶯歌區","MARKTYPE":"994","Class":"4"},"geometry":{"x":121.32483469635498,"y":24.973299342752487}},{"attributes":{"OBJECTID":5867,"LANDMARKID":"1000100002002","LANDMARKCO":"405","LANDMARKNA":"台塑加油站-東林站(台塑)","LANDMARKAD":"1000108","ADDRESS":"新北市鶯歌區中正一路461-5號","TEL":"02-86773511","COUNTYNAME":"新北市","TOWNNAME":"鶯歌區","MARKTYPE":"994","Class":"4"},"geometry":{"x":121.36422648485546,"y":24.956561456562461}},{"attributes":{"OBJECTID":5868,"LANDMARKID":"1000100002320","LANDMARKCO":"408","LANDMARKNA":"郵局-鶯歌郵局","LANDMARKAD":"1000108","ADDRESS":"新北市鶯歌區中正一路47號","TEL":"(02)2679-2330","COUNTYNAME":"新北市","TOWNNAME":"鶯歌區","MARKTYPE":"994","Class":"4"},"geometry":{"x":121.35230318077286,"y":24.953895649866912}},{"attributes":{"OBJECTID":5869,"LANDMARKID":"1000100002321","LANDMARKCO":"408","LANDMARKNA":"郵局-鶯歌鳳鳴郵局","LANDMARKAD":"1000108","ADDRESS":"新北市鶯歌區鶯桃路2段11號","TEL":"(02)2679-4155","COUNTYNAME":"新北市","TOWNNAME":"鶯歌區","MARKTYPE":"994","Class":"4"},"geometry":{"x":121.33041734244297,"y":24.967918245421821}},{"attributes":{"OBJECTID":5870,"LANDMARKID":"1000100002322","LANDMARKCO":"408","LANDMARKNA":"郵局-鶯歌二橋郵局","LANDMARKAD":"1000108","ADDRESS":"新北市鶯歌區中正3路208之4號","TEL":"(02)2679-6540","COUNTYNAME":"新北市","TOWNNAME":"鶯歌區","MARKTYPE":"994","Class":"4"},"geometry":{"x":121.33224523454078,"y":24.938063321028071}},{"attributes":{"OBJECTID":5871,"LANDMARKID":"1000100002323","LANDMARKCO":"408","LANDMARKNA":"郵局-鶯歌永昌郵局","LANDMARKAD":"1000108","ADDRESS":"新北市鶯歌區鶯桃路104號","TEL":"(02)2678-3133","COUNTYNAME":"新北市","TOWNNAME":"鶯歌區","MARKTYPE":"994","Class":"4"},"geometry":{"x":121.33859065120137,"y":24.95447846296663}},{"attributes":{"OBJECTID":5872,"LANDMARKID":"1000100002470","LANDMARKCO":"409","LANDMARKNA":"新北市鶯歌區農會","LANDMARKAD":"1000108","ADDRESS":"新北市鶯歌區文化路181號","TEL":"02-26706262-72","COUNTYNAME":"新北市","TOWNNAME":"鶯歌區","MARKTYPE":"994","Class":"4"},"geometry":{"x":121.35587572326457,"y":24.954204828543602}},{"attributes":{"OBJECTID":5873,"LANDMARKID":"1000100001869","LANDMARKCO":"404","LANDMARKNA":"台灣省自來水鶯歌服務所","LANDMARKAD":"1000108","ADDRESS":"新北市鶯歌區環河路57號","TEL":" ","COUNTYNAME":"新北市","TOWNNAME":"鶯歌區","MARKTYPE":"994","Class":"4"},"geometry":{"x":121.35269345811518,"y":24.950337894823132}},{"attributes":{"OBJECTID":5874,"LANDMARKID":"1000100002177","LANDMARKCO":"406","LANDMARKNA":"三號公園","LANDMARKAD":"1000108","ADDRESS":"新北市鶯歌區","TEL":" ","COUNTYNAME":"新北市","TOWNNAME":"鶯歌區","MARKTYPE":"994","Class":"4"},"geometry":{"x":121.3491625702061,"y":24.95258909814482}},{"attributes":{"OBJECTID":5875,"LANDMARKID":"1000100000430","LANDMARKCO":"108","LANDMARKNA":"新北市鶯歌區公所","LANDMARKAD":"1000108","ADDRESS":"新北市鶯歌區仁愛路55號","TEL":"02-26780202","COUNTYNAME":"新北市","TOWNNAME":"鶯歌區","MARKTYPE":"991","Class":"1"},"geometry":{"x":121.35421831762591,"y":24.955932494766365}},{"attributes":{"OBJECTID":5876,"LANDMARKID":"1000100000203","LANDMARKCO":"107","LANDMARKNA":"新北市政府警察局鶯歌分駐所","LANDMARKAD":"1000108","ADDRESS":"新北市鶯歌區西鶯里中正一路195號","TEL":"02-26792024","COUNTYNAME":"新北市","TOWNNAME":"鶯歌區","MARKTYPE":"991","Class":"1"},"geometry":{"x":121.35356778954868,"y":24.9570988945366}},{"attributes":{"OBJECTID":5877,"LANDMARKID":"1000100000170","LANDMARKCO":"106","LANDMARKNA":"新北市鶯歌區戶政事務所","LANDMARKAD":"1000108","ADDRESS":"新北市鶯歌區仁愛路53號","TEL":"02-26797784","COUNTYNAME":"新北市","TOWNNAME":"鶯歌區","MARKTYPE":"991","Class":"1"},"geometry":{"x":121.35403819951911,"y":24.956115248185124}},{"attributes":{"OBJECTID":5878,"LANDMARKID":"1000100000194","LANDMARKCO":"107","LANDMARKNA":"新北市消防局鶯歌分隊","LANDMARKAD":"1000108","ADDRESS":"新北市鶯歌區中正一路193號","TEL":"02-26792082","COUNTYNAME":"新北市","TOWNNAME":"鶯歌區","MARKTYPE":"991","Class":"1"},"geometry":{"x":121.35348995111393,"y":24.957097041591517}},{"attributes":{"OBJECTID":5879,"LANDMARKID":"1000100000055","LANDMARKCO":"103","LANDMARKNA":"新北市鶯歌區衛生所","LANDMARKAD":"1000108","ADDRESS":"新北市鶯歌區文化路389號","TEL":"02-26702304","COUNTYNAME":"新北市","TOWNNAME":"鶯歌區","MARKTYPE":"991","Class":"1"},"geometry":{"x":121.35259360260601,"y":24.950574435135056}},{"attributes":{"OBJECTID":5880,"LANDMARKID":"1000100000195","LANDMARKCO":"107","LANDMARKNA":"新北市政府警察局湖山派出所","LANDMARKAD":"1000108","ADDRESS":"新北市鶯歌區大湖路370號","TEL":"02-26792474","COUNTYNAME":"新北市","TOWNNAME":"鶯歌區","MARKTYPE":"991","Class":"1"},"geometry":{"x":121.3457465468648,"y":24.973344955436399}},{"attributes":{"OBJECTID":5881,"LANDMARKID":"1000100000196","LANDMARKCO":"107","LANDMARKNA":"新北市政府警察局鳳鳴派出所","LANDMARKAD":"1000108","ADDRESS":"新北市鶯歌區莒光街20號","TEL":"02-26789110","COUNTYNAME":"新北市","TOWNNAME":"鶯歌區","MARKTYPE":"991","Class":"1"},"geometry":{"x":121.332756051516,"y":24.96633059164602}},{"attributes":{"OBJECTID":5882,"LANDMARKID":"1000100000056","LANDMARKCO":"103","LANDMARKNA":"新北市鶯歌區鎮民代表會","LANDMARKAD":"1000108","ADDRESS":"新北市鶯歌區中山路150號1樓","TEL":"02-26791767","COUNTYNAME":"新北市","TOWNNAME":"鶯歌區","MARKTYPE":"991","Class":"1"},"geometry":{"x":121.3461568448899,"y":24.956911513130976}},{"attributes":{"OBJECTID":5883,"LANDMARKID":"1000100000880","LANDMARKCO":"204","LANDMARKNA":"新北市立圖書館鶯歌分館","LANDMARKAD":"1000108","ADDRESS":"新北市鶯歌區中山路150號3樓","TEL":" ","COUNTYNAME":"新北市","TOWNNAME":"鶯歌區","MARKTYPE":"992","Class":"2"},"geometry":{"x":121.34956996516684,"y":24.957644190667402}},{"attributes":{"OBJECTID":5884,"LANDMARKID":"1000100000505","LANDMARKCO":"202","LANDMARKNA":"縣立鶯歌工商","LANDMARKAD":"1000108","ADDRESS":"新北市鶯歌區中正三路154號","TEL":"02-26775040","COUNTYNAME":"新北市","TOWNNAME":"鶯歌區","MARKTYPE":"992","Class":"2"},"geometry":{"x":121.33486143500649,"y":24.940235439297382}},{"attributes":{"OBJECTID":5885,"LANDMARKID":"1000100000561","LANDMARKCO":"203","LANDMARKNA":"縣立鳳鳴國中","LANDMARKAD":"1000108","ADDRESS":"新北市鶯歌區永和街33號","TEL":"02-26780047","COUNTYNAME":"新北市","TOWNNAME":"鶯歌區","MARKTYPE":"992","Class":"2"},"geometry":{"x":121.33203480577011,"y":24.968049186640307}},{"attributes":{"OBJECTID":5886,"LANDMARKID":"1000100000562","LANDMARKCO":"203","LANDMARKNA":"縣立鶯歌國中","LANDMARKAD":"1000108","ADDRESS":"新北市鶯歌區尖山埔路108號","TEL":"02-26706091","COUNTYNAME":"新北市","TOWNNAME":"鶯歌區","MARKTYPE":"992","Class":"2"},"geometry":{"x":121.34443727901052,"y":24.95122523840822}},{"attributes":{"OBJECTID":5887,"LANDMARKID":"1000100000563","LANDMARKCO":"203","LANDMARKNA":"縣立尖山國中","LANDMARKAD":"1000108","ADDRESS":"新北市鶯歌區國中街1號","TEL":"02-26781670","COUNTYNAME":"新北市","TOWNNAME":"鶯歌區","MARKTYPE":"992","Class":"2"},"geometry":{"x":121.34230050307831,"y":24.94527638061901}},{"attributes":{"OBJECTID":5888,"LANDMARKID":"1000100000564","LANDMARKCO":"203","LANDMARKNA":"縣立二橋國小","LANDMARKAD":"1000108","ADDRESS":"新北市鶯歌區二橋里中正三路106號","TEL":"02-26792364","COUNTYNAME":"新北市","TOWNNAME":"鶯歌區","MARKTYPE":"992","Class":"2"},"geometry":{"x":121.33730272839468,"y":24.941223792794844}},{"attributes":{"OBJECTID":5889,"LANDMARKID":"1000100000565","LANDMARKCO":"203","LANDMARKNA":"縣立中湖國小","LANDMARKAD":"1000108","ADDRESS":"新北市鶯歌區中湖里中湖街25號","TEL":"02-26792084","COUNTYNAME":"新北市","TOWNNAME":"鶯歌區","MARKTYPE":"992","Class":"2"},"geometry":{"x":121.34909582113868,"y":24.973606627366781}},{"attributes":{"OBJECTID":5890,"LANDMARKID":"1000100000566","LANDMARKCO":"203","LANDMARKNA":"縣立鳳鳴國小","LANDMARKAD":"1000108","ADDRESS":"新北市鶯歌區鳳鳴里永和街120號","TEL":"02-26797554","COUNTYNAME":"新北市","TOWNNAME":"鶯歌區","MARKTYPE":"992","Class":"2"},"geometry":{"x":121.33596921654852,"y":24.968489147472216}},{"attributes":{"OBJECTID":5891,"LANDMARKID":"1000100000567","LANDMARKCO":"203","LANDMARKNA":"縣立鶯歌國小","LANDMARKAD":"1000108","ADDRESS":"新北市鶯歌區同慶里尖山埔路101號","TEL":"02-26793843","COUNTYNAME":"新北市","TOWNNAME":"鶯歌區","MARKTYPE":"992","Class":"2"},"geometry":{"x":121.34623222087356,"y":24.951674733384152}},{"attributes":{"OBJECTID":5892,"LANDMARKID":"1000100000568","LANDMARKCO":"203","LANDMARKNA":"縣立建國國小","LANDMARKAD":"1000108","ADDRESS":"新北市鶯歌區育英街2號","TEL":"02-26709228","COUNTYNAME":"新北市","TOWNNAME":"鶯歌區","MARKTYPE":"992","Class":"2"},"geometry":{"x":121.34616391159074,"y":24.955015536729768}},{"attributes":{"OBJECTID":5893,"LANDMARKID":"1000100000569","LANDMARKCO":"203","LANDMARKNA":"縣立永吉國小","LANDMARKAD":"1000108","ADDRESS":"新北市鶯歌區德昌二街2號","TEL":"02-26704177","COUNTYNAME":"新北市","TOWNNAME":"鶯歌區","MARKTYPE":"992","Class":"2"},"geometry":{"x":121.33254301593394,"y":24.958928303258862}},{"attributes":{"OBJECTID":5894,"LANDMARKID":"1000100000570","LANDMARKCO":"203","LANDMARKNA":"縣立中湖國中","LANDMARKAD":"1000108","ADDRESS":"新北市鶯歌區","TEL":" ","COUNTYNAME":"新北市","TOWNNAME":"鶯歌區","MARKTYPE":"992","Class":"2"},"geometry":{"x":121.3480251128005,"y":24.973431073377675}},{"attributes":{"OBJECTID":5895,"LANDMARKID":"1000100000571","LANDMARKCO":"203","LANDMARKNA":"縣立尖山國小","LANDMARKAD":"1000108","ADDRESS":"新北市鶯歌區","TEL":" ","COUNTYNAME":"新北市","TOWNNAME":"鶯歌區","MARKTYPE":"992","Class":"2"},"geometry":{"x":121.34569092975306,"y":24.947343635312997}},{"attributes":{"OBJECTID":5896,"LANDMARKID":"1000100001535","LANDMARKCO":"308","LANDMARKNA":"國2-鶯歌系統交流道-北上","LANDMARKAD":"1000108","ADDRESS":"新北市鶯歌區","TEL":" ","COUNTYNAME":"新北市","TOWNNAME":"鶯歌區","MARKTYPE":"993","Class":"308"},"geometry":{"x":121.32955864628754,"y":24.939352710842869}},{"attributes":{"OBJECTID":5897,"LANDMARKID":"1000100001536","LANDMARKCO":"308","LANDMARKNA":"國2-鶯歌系統交流道-北上","LANDMARKAD":"1000108","ADDRESS":"新北市鶯歌區","TEL":" ","COUNTYNAME":"新北市","TOWNNAME":"鶯歌區","MARKTYPE":"993","Class":"308"},"geometry":{"x":121.32437380382484,"y":24.942533499516177}},{"attributes":{"OBJECTID":5898,"LANDMARKID":"1000100001537","LANDMARKCO":"308","LANDMARKNA":"國2-鶯歌系統交流道-南下","LANDMARKAD":"1000108","ADDRESS":"新北市鶯歌區","TEL":" ","COUNTYNAME":"新北市","TOWNNAME":"鶯歌區","MARKTYPE":"993","Class":"308"},"geometry":{"x":121.32074899740191,"y":24.938005916904643}},{"attributes":{"OBJECTID":5899,"LANDMARKID":"1000100001156","LANDMARKCO":"303","LANDMARKNA":"鶯歌火車站站前停車場","LANDMARKAD":"1000108","ADDRESS":" ","TEL":" ","COUNTYNAME":"新北市","TOWNNAME":"鶯歌區","MARKTYPE":"993","Class":"303"},"geometry":{"x":121.35483117440035,"y":24.955334307222767}},{"attributes":{"OBJECTID":5900,"LANDMARKID":"1000100001157","LANDMARKCO":"303","LANDMARKNA":"停一停車場","LANDMARKAD":"1000108","ADDRESS":"新北市鶯歌區建國路","TEL":" ","COUNTYNAME":"新北市","TOWNNAME":"鶯歌區","MARKTYPE":"993","Class":"303"},"geometry":{"x":121.35014519673364,"y":24.952660335655285}},{"attributes":{"OBJECTID":5901,"LANDMARKID":"1000100001158","LANDMARKCO":"303","LANDMARKNA":"尖山埔路停車場","LANDMARKAD":"1000108","ADDRESS":"新北市鶯歌區尖山埔路","TEL":" ","COUNTYNAME":"新北市","TOWNNAME":"鶯歌區","MARKTYPE":"993","Class":"303"},"geometry":{"x":121.33507510644816,"y":24.977378358798813}},{"attributes":{"OBJECTID":5902,"LANDMARKID":"1000100001159","LANDMARKCO":"303","LANDMARKNA":"碧龍宮停車場","LANDMARKAD":"1000108","ADDRESS":"新北市鶯歌區碧龍宮路","TEL":" ","COUNTYNAME":"新北市","TOWNNAME":"鶯歌區","MARKTYPE":"993","Class":"303"},"geometry":{"x":121.33640030330153,"y":24.974023302441768}},{"attributes":{"OBJECTID":5903,"LANDMARKID":"1000100000927","LANDMARKCO":"301","LANDMARKNA":"鶯歌火車站","LANDMARKAD":"1000108","ADDRESS":"新北市鶯歌區東鶯里文化路68號","TEL":"02-26792004","COUNTYNAME":"新北市","TOWNNAME":"鶯歌區","MARKTYPE":"993","Class":"301"},"geometry":{"x":121.35551630747749,"y":24.954487565527288}},{"attributes":{"OBJECTID":5904,"LANDMARKID":"1000100002786","LANDMARKCO":"603","LANDMARKNA":"玉山旅店","LANDMARKAD":"1000108","ADDRESS":"新北市鶯歌區文化路228號","TEL":"02-86776060","COUNTYNAME":"新北市","TOWNNAME":"鶯歌區","MARKTYPE":"996","Class":"6"},"geometry":{"x":121.35298308606866,"y":24.952485592209591}},{"attributes":{"OBJECTID":5905,"LANDMARKID":"1000100002787","LANDMARKCO":"603","LANDMARKNA":"北國之春溫泉汽車旅館","LANDMARKAD":"1000108","ADDRESS":"新北市鶯歌區鶯桃路362之1號","TEL":"02-26780899","COUNTYNAME":"新北市","TOWNNAME":"鶯歌區","MARKTYPE":"996","Class":"6"},"geometry":{"x":121.33281970794148,"y":24.962862036133288}},{"attributes":{"OBJECTID":5906,"LANDMARKID":"1000100002576","LANDMARKCO":"505","LANDMARKNA":"吉洲窯","LANDMARKAD":"1000108","ADDRESS":"新北市鶯歌區尖山埔路37號","TEL":"02-26782591","COUNTYNAME":"新北市","TOWNNAME":"鶯歌區","MARKTYPE":"995","Class":"5"},"geometry":{"x":121.34894606579005,"y":24.950909060772997}},{"attributes":{"OBJECTID":5907,"LANDMARKID":"1000100002714","LANDMARKCO":"511","LANDMARKNA":"鶯歌觀光陶市","LANDMARKAD":"1000108","ADDRESS":"新北市鶯歌區","TEL":" ","COUNTYNAME":"新北市","TOWNNAME":"鶯歌區","MARKTYPE":"995","Class":"5"},"geometry":{"x":121.35452893073574,"y":24.954652778021458}},{"attributes":{"OBJECTID":5908,"LANDMARKID":"1000100002001","LANDMARKCO":"405","LANDMARKNA":"中油加油站-泰和站","LANDMARKAD":"1000119","ADDRESS":"新北市石碇區豐林村楓子林66號","TEL":"02-26633669","COUNTYNAME":"新北市","TOWNNAME":"石碇區","MARKTYPE":"994","Class":"4"},"geometry":{"x":121.64260172281605,"y":25.009241002035527}},{"attributes":{"OBJECTID":5909,"LANDMARKID":"1000100002582","LANDMARKCO":"506","LANDMARKNA":"雲海茶園","LANDMARKAD":"1000119","ADDRESS":"新北市石碇區格頭村土巷1之1號","TEL":"02-26651612","COUNTYNAME":"新北市","TOWNNAME":"石碇區","MARKTYPE":"995","Class":"5"},"geometry":{"x":121.62340520223353,"y":24.942308452833693}},{"attributes":{"OBJECTID":5910,"LANDMARKID":"1000100002324","LANDMARKCO":"408","LANDMARKNA":"郵局-石碇郵局","LANDMARKAD":"1000119","ADDRESS":"新北市石碇區石崁22號","TEL":"(02)2663-1833","COUNTYNAME":"新北市","TOWNNAME":"石碇區","MARKTYPE":"994","Class":"4"},"geometry":{"x":121.65770205160726,"y":24.991341606625255}},{"attributes":{"OBJECTID":5911,"LANDMARKID":"1000100002325","LANDMARKCO":"408","LANDMARKNA":"郵局-石碇華梵大學郵局","LANDMARKAD":"1000119","ADDRESS":"新北市石碇區豐田村華梵路1號","TEL":"(02)2663-2697","COUNTYNAME":"新北市","TOWNNAME":"石碇區","MARKTYPE":"994","Class":"4"},"geometry":{"x":121.69218646011859,"y":24.978574663185274}},{"attributes":{"OBJECTID":5912,"LANDMARKID":"1000100002469","LANDMARKCO":"409","LANDMARKNA":"新北市石碇區農會","LANDMARKAD":"1000119","ADDRESS":"新北市石碇區湳窟路6號","TEL":"02-26631214","COUNTYNAME":"新北市","TOWNNAME":"石碇區","MARKTYPE":"994","Class":"4"},"geometry":{"x":121.66092674539148,"y":24.990884133291424}},{"attributes":{"OBJECTID":5913,"LANDMARKID":"1000100001870","LANDMARKCO":"404","LANDMARKNA":"台灣省自來水文山營運所","LANDMARKAD":"1000119","ADDRESS":"新北市石碇區雙溪口80之1號","TEL":" ","COUNTYNAME":"新北市","TOWNNAME":"石碇區","MARKTYPE":"994","Class":"4"},"geometry":{"x":121.65406358326864,"y":25.007247297021777}},{"attributes":{"OBJECTID":5914,"LANDMARKID":"1000100000429","LANDMARKCO":"108","LANDMARKNA":"新北市石碇區公所","LANDMARKAD":"1000119","ADDRESS":"新北市石碇區潭邊村石崁路25號","TEL":"02-26631080","COUNTYNAME":"新北市","TOWNNAME":"石碇區","MARKTYPE":"991","Class":"1"},"geometry":{"x":121.65881523269117,"y":24.99142907645356}},{"attributes":{"OBJECTID":5915,"LANDMARKID":"1000100000198","LANDMARKCO":"107","LANDMARKNA":"新北市消防局石碇分隊","LANDMARKAD":"1000119","ADDRESS":"新北市石碇區湳窟路9之1號","TEL":"02-26632234","COUNTYNAME":"新北市","TOWNNAME":"石碇區","MARKTYPE":"991","Class":"1"},"geometry":{"x":121.65992258880442,"y":24.991690042295684}},{"attributes":{"OBJECTID":5916,"LANDMARKID":"1000100000199","LANDMARKCO":"107","LANDMARKNA":"新北市政府警察局碧山派出所","LANDMARKAD":"1000119","ADDRESS":"新北市石碇區格頭村北宜路五段42號","TEL":"02-26651835","COUNTYNAME":"新北市","TOWNNAME":"石碇區","MARKTYPE":"991","Class":"1"},"geometry":{"x":121.63166130678452,"y":24.951459652647781}},{"attributes":{"OBJECTID":5917,"LANDMARKID":"1000100000057","LANDMARKCO":"103","LANDMARKNA":"新北市石碇區衛生所","LANDMARKAD":"1000119","ADDRESS":"新北市石碇區潭邊村石崁27號","TEL":"02-26631325","COUNTYNAME":"新北市","TOWNNAME":"石碇區","MARKTYPE":"991","Class":"1"},"geometry":{"x":121.65796198396593,"y":24.992688248610889}},{"attributes":{"OBJECTID":5918,"LANDMARKID":"1000100000058","LANDMARKCO":"103","LANDMARKNA":"新北市石碇區鄉民代表會","LANDMARKAD":"1000119","ADDRESS":"新北市石碇區潭邊村石崁25號4樓","TEL":"02-26631080轉27","COUNTYNAME":"新北市","TOWNNAME":"石碇區","MARKTYPE":"991","Class":"1"},"geometry":{"x":121.65820103988439,"y":24.991422248401062}},{"attributes":{"OBJECTID":5919,"LANDMARKID":"1000100000200","LANDMARKCO":"107","LANDMARKNA":"新北市政府警察局楓子林派出所","LANDMARKAD":"1000119","ADDRESS":"新北市石碇區隆盛村楓子林32號","TEL":"02-26631285","COUNTYNAME":"新北市","TOWNNAME":"石碇區","MARKTYPE":"991","Class":"1"},"geometry":{"x":121.64214885955649,"y":25.011634410263802}},{"attributes":{"OBJECTID":5920,"LANDMARKID":"1000100000201","LANDMARKCO":"107","LANDMARKNA":"新北市政府警察局中民派出所","LANDMARKAD":"1000119","ADDRESS":"新北市石碇區中民村石碇仔埔1號","TEL":"02-26631254","COUNTYNAME":"新北市","TOWNNAME":"石碇區","MARKTYPE":"991","Class":"1"},"geometry":{"x":121.69902169762356,"y":25.009746579173669}},{"attributes":{"OBJECTID":5921,"LANDMARKID":"1000100000202","LANDMARKCO":"107","LANDMARKNA":"新北市政府警察局豐田派出所","LANDMARKAD":"1000119","ADDRESS":"新北市石碇區豊田村磨石坑8號","TEL":"02-26631975","COUNTYNAME":"新北市","TOWNNAME":"石碇區","MARKTYPE":"991","Class":"1"},"geometry":{"x":121.69127979586456,"y":24.971320997736765}},{"attributes":{"OBJECTID":5922,"LANDMARKID":"1000100000169","LANDMARKCO":"106","LANDMARKNA":"新北市石碇區戶政事務所","LANDMARKAD":"1000119","ADDRESS":"新北市石碇區潭邊村6鄰湳窟20號2樓","TEL":"02-26631337","COUNTYNAME":"新北市","TOWNNAME":"石碇區","MARKTYPE":"991","Class":"1"},"geometry":{"x":121.66094994133455,"y":24.990958731580875}},{"attributes":{"OBJECTID":5923,"LANDMARKID":"1000100000197","LANDMARKCO":"107","LANDMARKNA":"新北市政府警察局石碇分駐所","LANDMARKAD":"1000119","ADDRESS":"新北市石碇區潭邊村湳窟20號","TEL":"0226631240","COUNTYNAME":"新北市","TOWNNAME":"石碇區","MARKTYPE":"991","Class":"1"},"geometry":{"x":121.66094994133455,"y":24.990958731580875}},{"attributes":{"OBJECTID":5924,"LANDMARKID":"1000100000895","LANDMARKCO":"205","LANDMARKNA":"華梵大學華梵文物館","LANDMARKAD":"1000119","ADDRESS":"新北市石碇區豐田村華梵路1號","TEL":" ","COUNTYNAME":"新北市","TOWNNAME":"石碇區","MARKTYPE":"992","Class":"2"},"geometry":{"x":121.6915242992343,"y":24.980480374456029}},{"attributes":{"OBJECTID":5925,"LANDMARKID":"1000100000879","LANDMARKCO":"204","LANDMARKNA":"新北市立圖書館石碇分館","LANDMARKAD":"1000119","ADDRESS":"新北市石碇區潭邊村湳窟11號2樓","TEL":" ","COUNTYNAME":"新北市","TOWNNAME":"石碇區","MARKTYPE":"992","Class":"2"},"geometry":{"x":121.6602774003118,"y":24.991504844040076}},{"attributes":{"OBJECTID":5926,"LANDMARKID":"1000100000435","LANDMARKCO":"201","LANDMARKNA":"華梵大學","LANDMARKAD":"1000119","ADDRESS":"新北市石碇區華梵路1號","TEL":"02-26632102","COUNTYNAME":"新北市","TOWNNAME":"石碇區","MARKTYPE":"992","Class":"2"},"geometry":{"x":121.69184985014722,"y":24.978641223260194}},{"attributes":{"OBJECTID":5927,"LANDMARKID":"1000100000504","LANDMARKCO":"202","LANDMARKNA":"縣立石碇高中","LANDMARKAD":"1000119","ADDRESS":"新北市石碇區八分寮45號","TEL":"02-26631224","COUNTYNAME":"新北市","TOWNNAME":"石碇區","MARKTYPE":"992","Class":"2"},"geometry":{"x":121.64301162103486,"y":25.013613157778437}},{"attributes":{"OBJECTID":5928,"LANDMARKID":"1000100000574","LANDMARKCO":"203","LANDMARKNA":"縣立永定國小光明分校","LANDMARKAD":"1000119","ADDRESS":"新北市石碇區","TEL":" ","COUNTYNAME":"新北市","TOWNNAME":"石碇區","MARKTYPE":"992","Class":"2"},"geometry":{"x":121.6734448920498,"y":25.017902395438821}},{"attributes":{"OBJECTID":5929,"LANDMARKID":"1000100000575","LANDMARKCO":"203","LANDMARKNA":"縣立和平國小","LANDMARKAD":"1000119","ADDRESS":"新北市石碇區隆盛村八分寮5號","TEL":"02-26631405","COUNTYNAME":"新北市","TOWNNAME":"石碇區","MARKTYPE":"992","Class":"2"},"geometry":{"x":121.64157326584468,"y":25.011537137044385}},{"attributes":{"OBJECTID":5930,"LANDMARKID":"1000100000576","LANDMARKCO":"203","LANDMARKNA":"縣立石碇國小","LANDMARKAD":"1000119","ADDRESS":"新北市石碇區石碇村石碇西街15號","TEL":"02-26631244","COUNTYNAME":"新北市","TOWNNAME":"石碇區","MARKTYPE":"992","Class":"2"},"geometry":{"x":121.65899573135972,"y":24.990705220479555}},{"attributes":{"OBJECTID":5931,"LANDMARKID":"1000100000577","LANDMARKCO":"203","LANDMARKNA":"縣立雲海國小","LANDMARKAD":"1000119","ADDRESS":"新北市石碇區格頭村坑內1號","TEL":"02-26651754","COUNTYNAME":"新北市","TOWNNAME":"石碇區","MARKTYPE":"992","Class":"2"},"geometry":{"x":121.63688410144451,"y":24.953244391780942}},{"attributes":{"OBJECTID":5932,"LANDMARKID":"1000100000578","LANDMARKCO":"203","LANDMARKNA":"縣立永安國小","LANDMARKAD":"1000119","ADDRESS":"新北市石碇區永安村直潭路1號","TEL":"02-26651811","COUNTYNAME":"新北市","TOWNNAME":"石碇區","MARKTYPE":"992","Class":"2"},"geometry":{"x":121.66068072885886,"y":24.934265028175904}},{"attributes":{"OBJECTID":5933,"LANDMARKID":"1000100000579","LANDMARKCO":"203","LANDMARKNA":"縣立永定國小","LANDMARKAD":"1000119","ADDRESS":"新北市石碇區永定村蚯蚓坑20號","TEL":"02-26631288","COUNTYNAME":"新北市","TOWNNAME":"石碇區","MARKTYPE":"992","Class":"2"},"geometry":{"x":121.68824736142801,"y":25.007899562738881}},{"attributes":{"OBJECTID":5934,"LANDMARKID":"1000100001538","LANDMARKCO":"308","LANDMARKNA":"石碇服務區","LANDMARKAD":"1000119","ADDRESS":" ","TEL":" ","COUNTYNAME":"新北市","TOWNNAME":"石碇區","MARKTYPE":"993","Class":"308"},"geometry":{"x":121.64533711488275,"y":25.008695535782849}},{"attributes":{"OBJECTID":5935,"LANDMARKID":"1000100001539","LANDMARKCO":"308","LANDMARKNA":"國5-石碇交流道-北上","LANDMARKAD":"1000119","ADDRESS":"新北市石碇區","TEL":" ","COUNTYNAME":"新北市","TOWNNAME":"石碇區","MARKTYPE":"993","Class":"308"},"geometry":{"x":121.64688305728612,"y":25.009664578318766}},{"attributes":{"OBJECTID":5936,"LANDMARKID":"1000100001540","LANDMARKCO":"308","LANDMARKNA":"國5-石碇交流道-南下","LANDMARKAD":"1000119","ADDRESS":"新北市石碇區","TEL":" ","COUNTYNAME":"新北市","TOWNNAME":"石碇區","MARKTYPE":"993","Class":"308"},"geometry":{"x":121.6485839992807,"y":25.00712493736718}},{"attributes":{"OBJECTID":5937,"LANDMARKID":"1000100001160","LANDMARKCO":"303","LANDMARKNA":"皇帝殿風景區登山口停車場","LANDMARKAD":"1000119","ADDRESS":"新北市石碇區","TEL":" ","COUNTYNAME":"新北市","TOWNNAME":"石碇區","MARKTYPE":"993","Class":"303"},"geometry":{"x":121.67881017751888,"y":24.98636374847392}},{"attributes":{"OBJECTID":5938,"LANDMARKID":"1000100001161","LANDMARKCO":"303","LANDMARKNA":"楠枋寮停車場","LANDMARKAD":"1000119","ADDRESS":"新北市石碇區","TEL":" ","COUNTYNAME":"新北市","TOWNNAME":"石碇區","MARKTYPE":"993","Class":"303"},"geometry":{"x":121.6138326259769,"y":24.960738125522013}},{"attributes":{"OBJECTID":5939,"LANDMARKID":"1000100001162","LANDMARKCO":"303","LANDMARKNA":"二格公園停車場","LANDMARKAD":"1000119","ADDRESS":"新北市石碇區","TEL":" ","COUNTYNAME":"新北市","TOWNNAME":"石碇區","MARKTYPE":"993","Class":"303"},"geometry":{"x":121.61985203638676,"y":24.959204053478931}},{"attributes":{"OBJECTID":5940,"LANDMARKID":"1000100002529","LANDMARKCO":"503","LANDMARKNA":"流螢谷","LANDMARKAD":"1000119","ADDRESS":"新北市石碇區","TEL":" ","COUNTYNAME":"新北市","TOWNNAME":"石碇區","MARKTYPE":"995","Class":"5"},"geometry":{"x":121.65914006850738,"y":24.985244110069591}},{"attributes":{"OBJECTID":5941,"LANDMARKID":"1000100002014","LANDMARKCO":"405","LANDMARKNA":"中油加油站-安坑站","LANDMARKAD":"1000106","ADDRESS":"新北市新店區安和路二段192號","TEL":"02-22114678","COUNTYNAME":"新北市","TOWNNAME":"新店區","MARKTYPE":"994","Class":"4"},"geometry":{"x":121.5188231958107,"y":24.974594170244853}},{"attributes":{"OBJECTID":5942,"LANDMARKID":"1000100002015","LANDMARKCO":"405","LANDMARKNA":"統一速邁樂加油站-新店加油站(中油)","LANDMARKAD":"1000106","ADDRESS":"新北市新店區中華里環河路116號","TEL":"02-86653965","COUNTYNAME":"新北市","TOWNNAME":"新店區","MARKTYPE":"994","Class":"4"},"geometry":{"x":121.53711133074113,"y":24.967270435948251}},{"attributes":{"OBJECTID":5943,"LANDMARKID":"1000100002016","LANDMARKCO":"405","LANDMARKNA":"中油加油站-新店中正路站(中油直營)","LANDMARKAD":"1000106","ADDRESS":"新北市新店區中正路470號","TEL":"02-22192678","COUNTYNAME":"新北市","TOWNNAME":"新店區","MARKTYPE":"994","Class":"4"},"geometry":{"x":121.53422977657362,"y":24.979583256360243}},{"attributes":{"OBJECTID":5944,"LANDMARKID":"1000100002017","LANDMARKCO":"405","LANDMARKNA":"中油加油站-欣欣站","LANDMARKAD":"1000106","ADDRESS":"新北市新店區永安里安和路3段35號","TEL":"02-86685314","COUNTYNAME":"新北市","TOWNNAME":"新店區","MARKTYPE":"994","Class":"4"},"geometry":{"x":121.5172825877811,"y":24.981413345694552}},{"attributes":{"OBJECTID":5945,"LANDMARKID":"1000100002018","LANDMARKCO":"405","LANDMARKNA":"中油加油站-碧安站","LANDMARKAD":"1000106","ADDRESS":"新北市新店區安康路一段20號","TEL":"02-22126979","COUNTYNAME":"新北市","TOWNNAME":"新店區","MARKTYPE":"994","Class":"4"},"geometry":{"x":121.53120187487463,"y":24.96106666687362}},{"attributes":{"OBJECTID":5946,"LANDMARKID":"1000100002019","LANDMARKCO":"405","LANDMARKNA":"中油加油站-車子路站","LANDMARKAD":"1000106","ADDRESS":"新北市新店區安康路二段269號","TEL":"02-22121171","COUNTYNAME":"新北市","TOWNNAME":"新店區","MARKTYPE":"994","Class":"4"},"geometry":{"x":121.50413081320103,"y":24.957688425965504}},{"attributes":{"OBJECTID":5947,"LANDMARKID":"1000100002020","LANDMARKCO":"405","LANDMARKNA":"中油加油站-德安站","LANDMARKAD":"1000106","ADDRESS":"新北市新店區安康路二段362號","TEL":"02-22115288","COUNTYNAME":"新北市","TOWNNAME":"新店區","MARKTYPE":"994","Class":"4"},"geometry":{"x":121.50193558422575,"y":24.95744427246284}},{"attributes":{"OBJECTID":5948,"LANDMARKID":"1000100002021","LANDMARKCO":"405","LANDMARKNA":"中油加油站-五城站","LANDMARKAD":"1000106","ADDRESS":"新北市新店區安康路三段800號","TEL":"02-22143761","COUNTYNAME":"新北市","TOWNNAME":"新店區","MARKTYPE":"994","Class":"4"},"geometry":{"x":121.47104660365201,"y":24.940146481328398}},{"attributes":{"OBJECTID":5949,"LANDMARKID":"1000100002022","LANDMARKCO":"405","LANDMARKNA":"中油加油站-屈尺站(中油直營)","LANDMARKAD":"1000106","ADDRESS":"新北市新店區新烏路2段202號","TEL":"02-26668137","COUNTYNAME":"新北市","TOWNNAME":"新店區","MARKTYPE":"994","Class":"4"},"geometry":{"x":121.54745781959321,"y":24.916154080646969}},{"attributes":{"OBJECTID":5950,"LANDMARKID":"1000100002023","LANDMARKCO":"405","LANDMARKNA":"中油加油站-寶橋站(中油直營)","LANDMARKAD":"1000106","ADDRESS":"新北市新店區寶橋路219號","TEL":"02-29111965","COUNTYNAME":"新北市","TOWNNAME":"新店區","MARKTYPE":"994","Class":"4"},"geometry":{"x":121.54912555812618,"y":24.977510811170898}},{"attributes":{"OBJECTID":5951,"LANDMARKID":"1000100002024","LANDMARKCO":"405","LANDMARKNA":"中油加油站-新店北新路站(刷卡自助)(中油直營)","LANDMARKAD":"1000106","ADDRESS":"新北市新店區北新路一段90號","TEL":"02-29180305","COUNTYNAME":"新北市","TOWNNAME":"新店區","MARKTYPE":"994","Class":"4"},"geometry":{"x":121.54209803088196,"y":24.96839215284599}},{"attributes":{"OBJECTID":5952,"LANDMARKID":"1000100002025","LANDMARKCO":"405","LANDMARKNA":"台灣優力加油站-安康站(中油)","LANDMARKAD":"1000106","ADDRESS":"新北市新店區安康路一段308號","TEL":"02-86665693","COUNTYNAME":"新北市","TOWNNAME":"新店區","MARKTYPE":"994","Class":"4"},"geometry":{"x":121.51737164912313,"y":24.964375646327689}},{"attributes":{"OBJECTID":5953,"LANDMARKID":"1000100002026","LANDMARKCO":"405","LANDMARKNA":"中油加油站-莊敬站","LANDMARKAD":"1000106","ADDRESS":"新北市新店區中正路457號","TEL":"02-22181270","COUNTYNAME":"新北市","TOWNNAME":"新店區","MARKTYPE":"994","Class":"4"},"geometry":{"x":121.53374819217416,"y":24.980445593618825}},{"attributes":{"OBJECTID":5954,"LANDMARKID":"1000100002027","LANDMARKCO":"405","LANDMARKNA":"中油加油站-大豐站","LANDMARKAD":"1000106","ADDRESS":"新北市新店區北新路二段205號","TEL":"02-29117053","COUNTYNAME":"新北市","TOWNNAME":"新店區","MARKTYPE":"994","Class":"4"},"geometry":{"x":121.54233609053644,"y":24.978410058312495}},{"attributes":{"OBJECTID":5955,"LANDMARKID":"1000100001728","LANDMARKCO":"402","LANDMARKNA":"My Phone台灣大哥大-新店七張直營服務中心","LANDMARKAD":"1000106","ADDRESS":"新北市新店區北新路二段165號","TEL":"0809-000-166","COUNTYNAME":"新北市","TOWNNAME":"新店區","MARKTYPE":"994","Class":"4"},"geometry":{"x":121.54274385468713,"y":24.976322318842556}},{"attributes":{"OBJECTID":5956,"LANDMARKID":"1000100001729","LANDMARKCO":"402","LANDMARKNA":"My Phone台灣大哥大-新店中正二直營服務中心","LANDMARKAD":"1000106","ADDRESS":"新北市新店區中正路516之1號","TEL":" ","COUNTYNAME":"新北市","TOWNNAME":"新店區","MARKTYPE":"994","Class":"4"},"geometry":{"x":121.5338363180542,"y":24.98357012456761}},{"attributes":{"OBJECTID":5957,"LANDMARKID":"1000100001730","LANDMARKCO":"402","LANDMARKNA":"亞太行動寬頻電信-新店北新二加盟服務中心","LANDMARKAD":"1000106","ADDRESS":"新北市新店區北新路2段88號","TEL":"02-29158789","COUNTYNAME":"新北市","TOWNNAME":"新店區","MARKTYPE":"994","Class":"4"},"geometry":{"x":121.54311282741786,"y":24.97296114598084}},{"attributes":{"OBJECTID":5958,"LANDMARKID":"1000100001731","LANDMARKCO":"402","LANDMARKNA":"亞太行動寬頻電信-新店北新加盟服務中心","LANDMARKAD":"1000106","ADDRESS":"新北市新店區北新路3段74號","TEL":"02-55915735","COUNTYNAME":"新北市","TOWNNAME":"新店區","MARKTYPE":"994","Class":"4"},"geometry":{"x":121.5421050513541,"y":24.980543141193461}},{"attributes":{"OBJECTID":5959,"LANDMARKID":"1000100001732","LANDMARKCO":"402","LANDMARKNA":"亞太行動寬頻電信-新店安康加盟服務中心","LANDMARKAD":"1000106","ADDRESS":"新北市新店區安康路二段156號","TEL":"02-86663699","COUNTYNAME":"新北市","TOWNNAME":"新店區","MARKTYPE":"994","Class":"4"},"geometry":{"x":121.51215921620091,"y":24.960983796736475}},{"attributes":{"OBJECTID":5960,"LANDMARKID":"1000100001606","LANDMARKCO":"401","LANDMARKNA":"佛教慈濟綜合醫院-台北院區(新店院區)","LANDMARKAD":"1000106","ADDRESS":"新北市新店區復興里復興路289號","TEL":"02-66289779","COUNTYNAME":"新北市","TOWNNAME":"新店區","MARKTYPE":"994","Class":"4"},"geometry":{"x":121.53692825001296,"y":24.98560512194609}},{"attributes":{"OBJECTID":5961,"LANDMARKID":"1000100001607","LANDMARKCO":"401","LANDMARKNA":"宏慈療養院","LANDMARKAD":"1000106","ADDRESS":"新北市新店區安泰路157號","TEL":"02-22151177","COUNTYNAME":"新北市","TOWNNAME":"新店區","MARKTYPE":"994","Class":"4"},"geometry":{"x":121.48805411718872,"y":24.938635860649782}},{"attributes":{"OBJECTID":5962,"LANDMARKID":"1000100001608","LANDMARKCO":"401","LANDMARKNA":"宏濟神經精神科醫院","LANDMARKAD":"1000106","ADDRESS":"新北市新店區安忠路57巷5號","TEL":" ","COUNTYNAME":"新北市","TOWNNAME":"新店區","MARKTYPE":"994","Class":"4"},"geometry":{"x":121.51395431120548,"y":24.958904473578354}},{"attributes":{"OBJECTID":5963,"LANDMARKID":"1000100001609","LANDMARKCO":"401","LANDMARKNA":"財團法人天主教耕莘醫院","LANDMARKAD":"1000106","ADDRESS":"新北市新店區中正路362號","TEL":"02-22193391","COUNTYNAME":"新北市","TOWNNAME":"新店區","MARKTYPE":"994","Class":"4"},"geometry":{"x":121.53562016266639,"y":24.976072984099105}},{"attributes":{"OBJECTID":5964,"LANDMARKID":"1000100001610","LANDMARKCO":"401","LANDMARKNA":"同仁醫院","LANDMARKAD":"1000106","ADDRESS":"新北市新店區民權路89號","TEL":"02-29170201","COUNTYNAME":"新北市","TOWNNAME":"新店區","MARKTYPE":"994","Class":"4"},"geometry":{"x":121.53775394053712,"y":24.982757452781598}},{"attributes":{"OBJECTID":5965,"LANDMARKID":"1000100002583","LANDMARKCO":"506","LANDMARKNA":"文山農場","LANDMARKAD":"1000106","ADDRESS":"新北市新店區湖子內路100號","TEL":"02-26667512","COUNTYNAME":"新北市","TOWNNAME":"新店區","MARKTYPE":"995","Class":"5"},"geometry":{"x":121.54086011321017,"y":24.933282746511054}},{"attributes":{"OBJECTID":5966,"LANDMARKID":"1000100002166","LANDMARKCO":"406","LANDMARKNA":"中央公園","LANDMARKAD":"1000106","ADDRESS":"新北市新店區","TEL":" ","COUNTYNAME":"新北市","TOWNNAME":"新店區","MARKTYPE":"994","Class":"4"},"geometry":{"x":121.49472282668445,"y":24.949666659953163}},{"attributes":{"OBJECTID":5967,"LANDMARKID":"1000100002167","LANDMARKCO":"406","LANDMARKNA":"中央公園","LANDMARKAD":"1000106","ADDRESS":"新北市新店區","TEL":" ","COUNTYNAME":"新北市","TOWNNAME":"新店區","MARKTYPE":"994","Class":"4"},"geometry":{"x":121.49393303482196,"y":24.949851966691064}},{"attributes":{"OBJECTID":5968,"LANDMARKID":"1000100002326","LANDMARKCO":"408","LANDMARKNA":"郵局-新店郵局","LANDMARKAD":"1000106","ADDRESS":"新北市新店區北新路2段177號","TEL":"(02)2911-1249","COUNTYNAME":"新北市","TOWNNAME":"新店區","MARKTYPE":"994","Class":"4"},"geometry":{"x":121.54267246364124,"y":24.977216679089569}},{"attributes":{"OBJECTID":5969,"LANDMARKID":"1000100002327","LANDMARKCO":"408","LANDMARKNA":"郵局-新店頂城郵局","LANDMARKAD":"1000106","ADDRESS":"新北市新店區安康路1段50-1號","TEL":"(02)2211-8791","COUNTYNAME":"新北市","TOWNNAME":"新店區","MARKTYPE":"994","Class":"4"},"geometry":{"x":121.52969056583564,"y":24.961424870070942}},{"attributes":{"OBJECTID":5970,"LANDMARKID":"1000100002328","LANDMARKCO":"408","LANDMARKNA":"郵局-新店五城郵局","LANDMARKAD":"1000106","ADDRESS":"新北市新店區錦秀路5號","TEL":"(02)2214-2424","COUNTYNAME":"新北市","TOWNNAME":"新店區","MARKTYPE":"994","Class":"4"},"geometry":{"x":121.47941636346273,"y":24.944939630212836}},{"attributes":{"OBJECTID":5971,"LANDMARKID":"1000100002329","LANDMARKCO":"408","LANDMARKNA":"郵局-新店大坪林郵局","LANDMARKAD":"1000106","ADDRESS":"新北市新店區北新路3段116號","TEL":"(02)2911-2892","COUNTYNAME":"新北市","TOWNNAME":"新店區","MARKTYPE":"994","Class":"4"},"geometry":{"x":121.54175578736429,"y":24.981638102077941}},{"attributes":{"OBJECTID":5972,"LANDMARKID":"1000100002330","LANDMARKCO":"408","LANDMARKNA":"郵局-新店公崙郵局","LANDMARKAD":"1000106","ADDRESS":"新北市新店區安康路2段179號","TEL":"(02)2211-7431","COUNTYNAME":"新北市","TOWNNAME":"新店區","MARKTYPE":"994","Class":"4"},"geometry":{"x":121.50962850072364,"y":24.959140884672728}},{"attributes":{"OBJECTID":5973,"LANDMARKID":"1000100002331","LANDMARKCO":"408","LANDMARKNA":"郵局-新店檳榔路郵局","LANDMARKAD":"1000106","ADDRESS":"新北市新店區北新路1段273號","TEL":"(02)2911-4400","COUNTYNAME":"新北市","TOWNNAME":"新店區","MARKTYPE":"994","Class":"4"},"geometry":{"x":121.54097288607424,"y":24.966719191773265}},{"attributes":{"OBJECTID":5974,"LANDMARKID":"1000100002332","LANDMARKCO":"408","LANDMARKNA":"郵局-新店復興郵局","LANDMARKAD":"1000106","ADDRESS":"新北市新店區復興路30號","TEL":"(02)2911-5002","COUNTYNAME":"新北市","TOWNNAME":"新店區","MARKTYPE":"994","Class":"4"},"geometry":{"x":121.53916249371495,"y":24.986901227021423}},{"attributes":{"OBJECTID":5975,"LANDMARKID":"1000100002333","LANDMARKCO":"408","LANDMARKNA":"郵局-新店中央郵局","LANDMARKAD":"1000106","ADDRESS":"新北市新店區中央路232號","TEL":"(02)2219-5162","COUNTYNAME":"新北市","TOWNNAME":"新店區","MARKTYPE":"994","Class":"4"},"geometry":{"x":121.52935344388489,"y":24.972721512839144}},{"attributes":{"OBJECTID":5976,"LANDMARKID":"1000100002334","LANDMARKCO":"408","LANDMARKNA":"郵局-新店中正郵局","LANDMARKAD":"1000106","ADDRESS":"新北市新店區中正路253號","TEL":"(02)2915-0640","COUNTYNAME":"新北市","TOWNNAME":"新店區","MARKTYPE":"994","Class":"4"},"geometry":{"x":121.53891717953024,"y":24.973405928936238}},{"attributes":{"OBJECTID":5977,"LANDMARKID":"1000100002335","LANDMARKCO":"408","LANDMARKNA":"郵局-新店十四份郵局","LANDMARKAD":"1000106","ADDRESS":"新北市新店區安和路2段79號","TEL":"(02)2211-2584","COUNTYNAME":"新北市","TOWNNAME":"新店區","MARKTYPE":"994","Class":"4"},"geometry":{"x":121.51834110789241,"y":24.96893211267194}},{"attributes":{"OBJECTID":5978,"LANDMARKID":"1000100002336","LANDMARKCO":"408","LANDMARKNA":"郵局-新店永安郵局","LANDMARKAD":"1000106","ADDRESS":"新北市新店區安和路3段57號","TEL":"(02)2944-2541","COUNTYNAME":"新北市","TOWNNAME":"新店區","MARKTYPE":"994","Class":"4"},"geometry":{"x":121.51788476170258,"y":24.982883815896351}},{"attributes":{"OBJECTID":5979,"LANDMARKID":"1000100002337","LANDMARKCO":"408","LANDMARKNA":"郵局-新店雙城郵局","LANDMARKAD":"1000106","ADDRESS":"新北市新店區安康路3段47號","TEL":"(02)2215-7065","COUNTYNAME":"新北市","TOWNNAME":"新店區","MARKTYPE":"994","Class":"4"},"geometry":{"x":121.49276357628524,"y":24.95256271979574}},{"attributes":{"OBJECTID":5980,"LANDMARKID":"1000100002338","LANDMARKCO":"408","LANDMARKNA":"郵局-新店屈尺郵局","LANDMARKAD":"1000106","ADDRESS":"新北市新店區屈尺路64號","TEL":"(02)2666-8950","COUNTYNAME":"新北市","TOWNNAME":"新店區","MARKTYPE":"994","Class":"4"},"geometry":{"x":121.54700048745411,"y":24.922755214720439}},{"attributes":{"OBJECTID":5981,"LANDMARKID":"1000100002339","LANDMARKCO":"408","LANDMARKNA":"郵局-新店水尾郵局","LANDMARKAD":"1000106","ADDRESS":"新北市新店區中正路493之5號","TEL":"(02)2218-0146","COUNTYNAME":"新北市","TOWNNAME":"新店區","MARKTYPE":"994","Class":"4"},"geometry":{"x":121.5336258797138,"y":24.983048075349998}},{"attributes":{"OBJECTID":5982,"LANDMARKID":"1000100002340","LANDMARKCO":"408","LANDMARKNA":"郵局-新店五峰郵局","LANDMARKAD":"1000106","ADDRESS":"新北市新店區中正路35號","TEL":"(02)2916-0300","COUNTYNAME":"新北市","TOWNNAME":"新店區","MARKTYPE":"994","Class":"4"},"geometry":{"x":121.54501665574917,"y":24.969571836253529}},{"attributes":{"OBJECTID":5983,"LANDMARKID":"1000100002341","LANDMARKCO":"408","LANDMARKNA":"郵局-新店中華路郵局","LANDMARKAD":"1000106","ADDRESS":"新北市新店區中華路74號","TEL":"(02)2912-0115","COUNTYNAME":"新北市","TOWNNAME":"新店區","MARKTYPE":"994","Class":"4"},"geometry":{"x":121.53877924320768,"y":24.969821735580652}},{"attributes":{"OBJECTID":5984,"LANDMARKID":"1000100002342","LANDMARKCO":"408","LANDMARKNA":"郵局-新店玫瑰城郵局","LANDMARKAD":"1000106","ADDRESS":"新北市新店區如意街112號","TEL":"(02)2214-0502","COUNTYNAME":"新北市","TOWNNAME":"新店區","MARKTYPE":"994","Class":"4"},"geometry":{"x":121.49669193037153,"y":24.946921238847601}},{"attributes":{"OBJECTID":5985,"LANDMARKID":"1000100002343","LANDMARKCO":"408","LANDMARKNA":"郵局-新店龜山郵局","LANDMARKAD":"1000106","ADDRESS":"新北市新店區新烏路2段392、394號","TEL":"(02)2666-7584","COUNTYNAME":"新北市","TOWNNAME":"新店區","MARKTYPE":"994","Class":"4"},"geometry":{"x":121.55128491911364,"y":24.90944033530392}},{"attributes":{"OBJECTID":5986,"LANDMARKID":"1000100002344","LANDMARKCO":"408","LANDMARKNA":"郵局-新店青潭郵局","LANDMARKAD":"1000106","ADDRESS":"新北市新店區郵政路1號","TEL":"(02)2217-1465","COUNTYNAME":"新北市","TOWNNAME":"新店區","MARKTYPE":"994","Class":"4"},"geometry":{"x":121.55760361555905,"y":24.953358426702142}},{"attributes":{"OBJECTID":5987,"LANDMARKID":"1000100002345","LANDMARKCO":"408","LANDMARKNA":"郵局-新店寶橋郵局","LANDMARKAD":"1000106","ADDRESS":"新北市新店區寶中路94-2號1樓","TEL":"(02)2914-4585","COUNTYNAME":"新北市","TOWNNAME":"新店區","MARKTYPE":"994","Class":"4"},"geometry":{"x":121.54900935369599,"y":24.979659497480768}},{"attributes":{"OBJECTID":5988,"LANDMARKID":"1000100002346","LANDMARKCO":"408","LANDMARKNA":"郵局-新店碧潭郵局","LANDMARKAD":"1000106","ADDRESS":"新北市新店區北宜路1段47號","TEL":"(02)2911-1564","COUNTYNAME":"新北市","TOWNNAME":"新店區","MARKTYPE":"994","Class":"4"},"geometry":{"x":121.53828694234984,"y":24.957152231368841}},{"attributes":{"OBJECTID":5989,"LANDMARKID":"1000100002468","LANDMARKCO":"409","LANDMARKNA":"新北市新店地區農會","LANDMARKAD":"1000106","ADDRESS":"新北市新店區光明街98號","TEL":"02-29106666","COUNTYNAME":"新北市","TOWNNAME":"新店區","MARKTYPE":"994","Class":"4"},"geometry":{"x":121.53898253727138,"y":24.960394525487938}},{"attributes":{"OBJECTID":5990,"LANDMARKID":"1000100002168","LANDMARKCO":"406","LANDMARKNA":"中興公園","LANDMARKAD":"1000106","ADDRESS":"新北市新店區","TEL":" ","COUNTYNAME":"新北市","TOWNNAME":"新店區","MARKTYPE":"994","Class":"4"},"geometry":{"x":121.54512476265839,"y":24.981543699503632}},{"attributes":{"OBJECTID":5991,"LANDMARKID":"1000100002169","LANDMARKCO":"406","LANDMARKNA":"交通公園","LANDMARKAD":"1000106","ADDRESS":"新北市新店區","TEL":" ","COUNTYNAME":"新北市","TOWNNAME":"新店區","MARKTYPE":"994","Class":"4"},"geometry":{"x":121.5385643082106,"y":24.976385804471583}},{"attributes":{"OBJECTID":5992,"LANDMARKID":"1000100002170","LANDMARKCO":"406","LANDMARKNA":"原野公園","LANDMARKAD":"1000106","ADDRESS":"新北市新店區","TEL":" ","COUNTYNAME":"新北市","TOWNNAME":"新店區","MARKTYPE":"994","Class":"4"},"geometry":{"x":121.54456535855638,"y":24.972562784089}},{"attributes":{"OBJECTID":5993,"LANDMARKID":"1000100002171","LANDMARKCO":"406","LANDMARKNA":"太平運動公園","LANDMARKAD":"1000106","ADDRESS":"新北市新店區","TEL":" ","COUNTYNAME":"新北市","TOWNNAME":"新店區","MARKTYPE":"994","Class":"4"},"geometry":{"x":121.53211472341481,"y":24.958748118126902}},{"attributes":{"OBJECTID":5994,"LANDMARKID":"1000100002172","LANDMARKCO":"406","LANDMARKNA":"碧山公園","LANDMARKAD":"1000106","ADDRESS":"新北市新店區","TEL":" ","COUNTYNAME":"新北市","TOWNNAME":"新店區","MARKTYPE":"994","Class":"4"},"geometry":{"x":121.54499931972205,"y":24.929449920231445}},{"attributes":{"OBJECTID":5995,"LANDMARKID":"1000100002173","LANDMARKCO":"406","LANDMARKNA":"聰明公園","LANDMARKAD":"1000106","ADDRESS":"新北市新店區","TEL":" ","COUNTYNAME":"新北市","TOWNNAME":"新店區","MARKTYPE":"994","Class":"4"},"geometry":{"x":121.50419383861542,"y":24.917417162837303}},{"attributes":{"OBJECTID":5996,"LANDMARKID":"1000100002174","LANDMARKCO":"406","LANDMARKNA":"福民公園","LANDMARKAD":"1000106","ADDRESS":"新北市新店區","TEL":" ","COUNTYNAME":"新北市","TOWNNAME":"新店區","MARKTYPE":"994","Class":"4"},"geometry":{"x":121.53238980378818,"y":24.97281245220347}},{"attributes":{"OBJECTID":5997,"LANDMARKID":"1000100002175","LANDMARKCO":"406","LANDMARKNA":"誠中公園","LANDMARKAD":"1000106","ADDRESS":"新北市新店區","TEL":" ","COUNTYNAME":"新北市","TOWNNAME":"新店區","MARKTYPE":"994","Class":"4"},"geometry":{"x":121.49612585935726,"y":24.947265032861765}},{"attributes":{"OBJECTID":5998,"LANDMARKID":"1000100002176","LANDMARKCO":"406","LANDMARKNA":"景美河濱公園","LANDMARKAD":"1000106","ADDRESS":"新北市新店區","TEL":" ","COUNTYNAME":"新北市","TOWNNAME":"新店區","MARKTYPE":"994","Class":"4"},"geometry":{"x":121.5365624508038,"y":24.9906710819178}},{"attributes":{"OBJECTID":5999,"LANDMARKID":"1000100002010","LANDMARKCO":"405","LANDMARKNA":"台亞加油站-新店中興路站（台塑）","LANDMARKAD":"1000106","ADDRESS":"新北市新店區中興路三段131號","TEL":"(02)8911-4089轉201","COUNTYNAME":"新北市","TOWNNAME":"新店區","MARKTYPE":"994","Class":"4"},"geometry":{"x":121.54456098537769,"y":24.979210040184984}},{"attributes":{"OBJECTID":6000,"LANDMARKID":"1000100002011","LANDMARKCO":"405","LANDMARKNA":"台亞加油站-新店北新路站（台塑）","LANDMARKAD":"1000106","ADDRESS":"新北市新店區北新路一段85號","TEL":"(02)2918-6111","COUNTYNAME":"新北市","TOWNNAME":"新店區","MARKTYPE":"994","Class":"4"},"geometry":{"x":121.53853036034505,"y":24.961096322111732}}]}