{"displayFieldName":"COUNTYNAME","fieldAliases":{"OBJECTID":"OBJECTID","LANDMARKID":"LANDMARKID","LANDMARKCO":"LANDMARKCO","LANDMARKNA":"LANDMARKNA","LANDMARKAD":"LANDMARKAD","ADDRESS":"ADDRESS","TEL":"TEL","COUNTYNAME":"COUNTYNAME","TOWNNAME":"TOWNNAME","MARKTYPE":"MARKTYPE","Class":"Class"},"geometryType":"esriGeometryPoint","spatialReference":{"wkid":102443},"fields":[{"name":"OBJECTID","type":"esriFieldTypeOID","alias":"OBJECTID"},{"name":"LANDMARKID","type":"esriFieldTypeString","alias":"LANDMARKID","length":15},{"name":"LANDMARKCO","type":"esriFieldTypeString","alias":"LANDMARKCO","length":15},{"name":"LANDMARKNA","type":"esriFieldTypeString","alias":"LANDMARKNA","length":50},{"name":"LANDMARKAD","type":"esriFieldTypeString","alias":"LANDMARKAD","length":15},{"name":"ADDRESS","type":"esriFieldTypeString","alias":"ADDRESS","length":56},{"name":"TEL","type":"esriFieldTypeString","alias":"TEL","length":36},{"name":"COUNTYNAME","type":"esriFieldTypeString","alias":"COUNTYNAME","length":15},{"name":"TOWNNAME","type":"esriFieldTypeString","alias":"TOWNNAME","length":13},{"name":"MARKTYPE","type":"esriFieldTypeString","alias":"MARKTYPE","length":12},{"name":"Class","type":"esriFieldTypeString","alias":"Class","length":5}],"features":[{"attributes":{"OBJECTID":23801,"LANDMARKID":"1001500001235","LANDMARKCO":"604","LANDMARKNA":"凱群民宿","LANDMARKAD":"1001501","ADDRESS":"花蓮縣花蓮市仁愛街96號","TEL":"03-8330103","COUNTYNAME":"花蓮縣","TOWNNAME":"花蓮市","MARKTYPE":"996","Class":"6"},"geometry":{"x":311355.16050000023,"y":2652656.9440000001}},{"attributes":{"OBJECTID":23802,"LANDMARKID":"1001500001236","LANDMARKCO":"604","LANDMARKNA":"法蘭絲花園民宿","LANDMARKAD":"1001501","ADDRESS":"花蓮縣花蓮市介仁街5巷13號","TEL":"03-8568505","COUNTYNAME":"花蓮縣","TOWNNAME":"花蓮市","MARKTYPE":"996","Class":"6"},"geometry":{"x":308266.07849999983,"y":2654483.8339000009}},{"attributes":{"OBJECTID":23803,"LANDMARKID":"1001500001237","LANDMARKCO":"604","LANDMARKNA":"二草緣民宿","LANDMARKAD":"1001501","ADDRESS":"花蓮縣花蓮市介仁街68號","TEL":"03-8574934","COUNTYNAME":"花蓮縣","TOWNNAME":"花蓮市","MARKTYPE":"996","Class":"6"},"geometry":{"x":308397.55080000032,"y":2654661.2938000001}},{"attributes":{"OBJECTID":23804,"LANDMARKID":"1001500001238","LANDMARKCO":"604","LANDMARKNA":"夏綠地民宿","LANDMARKAD":"1001501","ADDRESS":"花蓮縣花蓮市介林八街69號","TEL":"03-8466020","COUNTYNAME":"花蓮縣","TOWNNAME":"花蓮市","MARKTYPE":"996","Class":"6"},"geometry":{"x":308147.0717000002,"y":2654789.1667999998}},{"attributes":{"OBJECTID":23805,"LANDMARKID":"1001500001239","LANDMARKCO":"604","LANDMARKNA":"蓓森朵芙民宿","LANDMARKAD":"1001501","ADDRESS":"花蓮縣花蓮市介林八街72號","TEL":"0938-042011","COUNTYNAME":"花蓮縣","TOWNNAME":"花蓮市","MARKTYPE":"996","Class":"6"},"geometry":{"x":308144.20150000043,"y":2654821.1784000006}},{"attributes":{"OBJECTID":23806,"LANDMARKID":"1001500001240","LANDMARKCO":"604","LANDMARKNA":"雲天別館民宿","LANDMARKAD":"1001501","ADDRESS":"花蓮縣花蓮市介林五街113號","TEL":"03-8460121","COUNTYNAME":"花蓮縣","TOWNNAME":"花蓮市","MARKTYPE":"996","Class":"6"},"geometry":{"x":308529.2341,"y":2654521.9125999995}},{"attributes":{"OBJECTID":23807,"LANDMARKID":"1001500001241","LANDMARKCO":"604","LANDMARKNA":"來來我家民宿","LANDMARKAD":"1001501","ADDRESS":"花蓮縣花蓮市介林五街122號","TEL":"03-8310677","COUNTYNAME":"花蓮縣","TOWNNAME":"花蓮市","MARKTYPE":"996","Class":"6"},"geometry":{"x":308550.06769999955,"y":2654543.8223999999}},{"attributes":{"OBJECTID":23808,"LANDMARKID":"1001500001242","LANDMARKCO":"604","LANDMARKNA":"曾媽媽民宿","LANDMARKAD":"1001501","ADDRESS":"花蓮縣花蓮市介林五街138號","TEL":"03-8568495","COUNTYNAME":"花蓮縣","TOWNNAME":"花蓮市","MARKTYPE":"996","Class":"6"},"geometry":{"x":308522.12119999994,"y":2654556.9364999998}},{"attributes":{"OBJECTID":23809,"LANDMARKID":"1001500001243","LANDMARKCO":"604","LANDMARKNA":"菩提園民宿","LANDMARKAD":"1001501","ADDRESS":"花蓮縣花蓮市介林五街281號","TEL":"03-8565806","COUNTYNAME":"花蓮縣","TOWNNAME":"花蓮市","MARKTYPE":"996","Class":"6"},"geometry":{"x":307990.69919999968,"y":2654697.8003000002}},{"attributes":{"OBJECTID":23810,"LANDMARKID":"1001500001244","LANDMARKCO":"604","LANDMARKNA":"花之戀民宿","LANDMARKAD":"1001501","ADDRESS":"花蓮縣花蓮市福建街92巷45號","TEL":"03-8545365","COUNTYNAME":"花蓮縣","TOWNNAME":"花蓮市","MARKTYPE":"996","Class":"6"},"geometry":{"x":311100.24010000005,"y":2651517.8429000005}},{"attributes":{"OBJECTID":23811,"LANDMARKID":"1001500001245","LANDMARKCO":"604","LANDMARKNA":"海傳民宿","LANDMARKAD":"1001501","ADDRESS":"花蓮縣花蓮市海濱街4號","TEL":"03-8348817","COUNTYNAME":"花蓮縣","TOWNNAME":"花蓮市","MARKTYPE":"996","Class":"6"},"geometry":{"x":312443.97009999957,"y":2651996.9090999998}},{"attributes":{"OBJECTID":23812,"LANDMARKID":"1001500001246","LANDMARKCO":"604","LANDMARKNA":"圓緣民宿","LANDMARKAD":"1001501","ADDRESS":"花蓮縣花蓮市國盛三街60號","TEL":"03-8351313","COUNTYNAME":"花蓮縣","TOWNNAME":"花蓮市","MARKTYPE":"996","Class":"6"},"geometry":{"x":311727.50050000008,"y":2654656.5181000009}},{"attributes":{"OBJECTID":23813,"LANDMARKID":"1001500001247","LANDMARKCO":"604","LANDMARKNA":"綠地音樂花園別墅民宿","LANDMARKAD":"1001501","ADDRESS":"花蓮縣花蓮市豐村36-11號","TEL":"03-8520385","COUNTYNAME":"花蓮縣","TOWNNAME":"花蓮市","MARKTYPE":"996","Class":"6"},"geometry":{"x":311228.25669999979,"y":2655213.2293999996}},{"attributes":{"OBJECTID":23814,"LANDMARKID":"1001500001248","LANDMARKCO":"604","LANDMARKNA":"陽光海岸民宿","LANDMARKAD":"1001501","ADDRESS":"花蓮縣花蓮市康樂街2號","TEL":"03-8311255","COUNTYNAME":"花蓮縣","TOWNNAME":"花蓮市","MARKTYPE":"996","Class":"6"},"geometry":{"x":312597.86220000032,"y":2652280.4605999999}},{"attributes":{"OBJECTID":23815,"LANDMARKID":"1001500001249","LANDMARKCO":"604","LANDMARKNA":"白舍民宿","LANDMARKAD":"1001501","ADDRESS":"花蓮縣花蓮市府前路224巷1號","TEL":"03-8225556","COUNTYNAME":"花蓮縣","TOWNNAME":"花蓮市","MARKTYPE":"996","Class":"6"},"geometry":{"x":313315.31780000031,"y":2654311.9880999997}},{"attributes":{"OBJECTID":23816,"LANDMARKID":"1001500001250","LANDMARKCO":"604","LANDMARKNA":"水悅雅築民宿","LANDMARKAD":"1001501","ADDRESS":"花蓮縣花蓮市富裕十五街68號","TEL":"03-8580661","COUNTYNAME":"花蓮縣","TOWNNAME":"花蓮市","MARKTYPE":"996","Class":"6"},"geometry":{"x":310704.27940000035,"y":2654909.0673999991}},{"attributes":{"OBJECTID":23817,"LANDMARKID":"1001500001251","LANDMARKCO":"604","LANDMARKNA":"阿桃姐民宿","LANDMARKAD":"1001501","ADDRESS":"花蓮縣花蓮市林森路305巷2號","TEL":"03-8343167","COUNTYNAME":"花蓮縣","TOWNNAME":"花蓮市","MARKTYPE":"996","Class":"6"},"geometry":{"x":311372.13650000002,"y":2652958.8658000007}},{"attributes":{"OBJECTID":23818,"LANDMARKID":"1001500001252","LANDMARKCO":"604","LANDMARKNA":"知了居民宿","LANDMARKAD":"1001501","ADDRESS":"花蓮縣花蓮市水源街55巷18號","TEL":"03-8329676","COUNTYNAME":"花蓮縣","TOWNNAME":"花蓮市","MARKTYPE":"996","Class":"6"},"geometry":{"x":312560.36739999987,"y":2653397.6006000005}},{"attributes":{"OBJECTID":23819,"LANDMARKID":"1001500001253","LANDMARKCO":"604","LANDMARKNA":"御之宿民宿","LANDMARKAD":"1001501","ADDRESS":"花蓮縣花蓮市中山路525巷2弄7-1號","TEL":"0936-291648","COUNTYNAME":"花蓮縣","TOWNNAME":"花蓮市","MARKTYPE":"996","Class":"6"},"geometry":{"x":311289.93030000012,"y":2653525}},{"attributes":{"OBJECTID":23820,"LANDMARKID":"1001500001254","LANDMARKCO":"604","LANDMARKNA":"浪淘沙","LANDMARKAD":"1001501","ADDRESS":"花蓮縣花蓮市海濱街20號","TEL":"03-8323169","COUNTYNAME":"花蓮縣","TOWNNAME":"花蓮市","MARKTYPE":"996","Class":"6"},"geometry":{"x":312513.00879999995,"y":2652084.8304999992}},{"attributes":{"OBJECTID":23821,"LANDMARKID":"1001500001255","LANDMARKCO":"604","LANDMARKNA":"黎明優光民宿","LANDMARKAD":"1001501","ADDRESS":"花蓮縣花蓮市民權九街13巷12號","TEL":"03-8233220","COUNTYNAME":"花蓮縣","TOWNNAME":"花蓮市","MARKTYPE":"996","Class":"6"},"geometry":{"x":313477.30109999981,"y":2654226.2778999992}},{"attributes":{"OBJECTID":23822,"LANDMARKID":"1001500001256","LANDMARKCO":"604","LANDMARKNA":"麗都小築民宿","LANDMARKAD":"1001501","ADDRESS":"花蓮縣花蓮市府前路340號","TEL":"0920-559717","COUNTYNAME":"花蓮縣","TOWNNAME":"花蓮市","MARKTYPE":"996","Class":"6"},"geometry":{"x":313259.10580000002,"y":2654796.9847999997}},{"attributes":{"OBJECTID":23823,"LANDMARKID":"1001500001257","LANDMARKCO":"604","LANDMARKNA":"雲想優質民宿","LANDMARKAD":"1001501","ADDRESS":"花蓮縣花蓮市建興街137巷15弄9號","TEL":"03-8564916","COUNTYNAME":"花蓮縣","TOWNNAME":"花蓮市","MARKTYPE":"996","Class":"6"},"geometry":{"x":308450.59929999989,"y":2654673.0776000004}},{"attributes":{"OBJECTID":23824,"LANDMARKID":"1001500001258","LANDMARKCO":"604","LANDMARKNA":"伯特利民宿","LANDMARKAD":"1001501","ADDRESS":"花蓮縣花蓮市水源街55巷8號","TEL":"03-8328902","COUNTYNAME":"花蓮縣","TOWNNAME":"花蓮市","MARKTYPE":"996","Class":"6"},"geometry":{"x":312508.20249999966,"y":2653359.8280999996}},{"attributes":{"OBJECTID":23825,"LANDMARKID":"1001500001259","LANDMARKCO":"604","LANDMARKNA":"島國BALI民宿","LANDMARKAD":"1001501","ADDRESS":"花蓮縣花蓮市林榮街36號","TEL":"03-8323979","COUNTYNAME":"花蓮縣","TOWNNAME":"花蓮市","MARKTYPE":"996","Class":"6"},"geometry":{"x":310890.07519999985,"y":2652708.5139000006}},{"attributes":{"OBJECTID":23826,"LANDMARKID":"1001500001260","LANDMARKCO":"604","LANDMARKNA":"洄瀾雅舍民宿","LANDMARKAD":"1001501","ADDRESS":"花蓮縣花蓮市國聯二路78號","TEL":"03-8326668","COUNTYNAME":"花蓮縣","TOWNNAME":"花蓮市","MARKTYPE":"996","Class":"6"},"geometry":{"x":311345.47989999969,"y":2654035.9572999999}},{"attributes":{"OBJECTID":23827,"LANDMARKID":"1001500001261","LANDMARKCO":"604","LANDMARKNA":"水雲鄉山景民宿","LANDMARKAD":"1001501","ADDRESS":"花蓮縣花蓮市建興街59巷18號","TEL":"03-8566558","COUNTYNAME":"花蓮縣","TOWNNAME":"花蓮市","MARKTYPE":"996","Class":"6"},"geometry":{"x":308430.2081000004,"y":2654577.1607000008}},{"attributes":{"OBJECTID":23828,"LANDMARKID":"1001500001262","LANDMARKCO":"604","LANDMARKNA":"歐洲之星民宿","LANDMARKAD":"1001501","ADDRESS":"花蓮縣花蓮市中正路354號","TEL":"03-8350789","COUNTYNAME":"花蓮縣","TOWNNAME":"花蓮市","MARKTYPE":"996","Class":"6"},"geometry":{"x":311343.88949999958,"y":2652285.9978}},{"attributes":{"OBJECTID":23829,"LANDMARKID":"1001500001263","LANDMARKCO":"604","LANDMARKNA":"伊万里民宿","LANDMARKAD":"1001501","ADDRESS":"花蓮縣花蓮市忠義一街27之4號","TEL":"03-8236600","COUNTYNAME":"花蓮縣","TOWNNAME":"花蓮市","MARKTYPE":"996","Class":"6"},"geometry":{"x":314413.14859999996,"y":2654276.8673}},{"attributes":{"OBJECTID":23830,"LANDMARKID":"1001500000829","LANDMARKCO":"601","LANDMARKNA":"花蓮亞士都飯店","LANDMARKAD":"1001501","ADDRESS":"花蓮縣花蓮市民權路6之1號","TEL":"038-326-111","COUNTYNAME":"花蓮縣","TOWNNAME":"花蓮市","MARKTYPE":"996","Class":"6"},"geometry":{"x":313413.05069999956,"y":2653328.5743000004}},{"attributes":{"OBJECTID":23831,"LANDMARKID":"1001500000830","LANDMARKCO":"601","LANDMARKNA":"統帥大飯店","LANDMARKAD":"1001501","ADDRESS":"花蓮縣花蓮市公園路36號","TEL":"038-326-123","COUNTYNAME":"花蓮縣","TOWNNAME":"花蓮市","MARKTYPE":"996","Class":"6"},"geometry":{"x":312259.14329999965,"y":2652652.7004000004}},{"attributes":{"OBJECTID":23832,"LANDMARKID":"1001500000831","LANDMARKCO":"601","LANDMARKNA":"中信大飯店(花蓮)","LANDMARKAD":"1001501","ADDRESS":"花蓮縣花蓮市美崙區永興路2號","TEL":"038-221-171","COUNTYNAME":"花蓮縣","TOWNNAME":"花蓮市","MARKTYPE":"996","Class":"6"},"geometry":{"x":313777.02639999986,"y":2654247.1926000006}},{"attributes":{"OBJECTID":23833,"LANDMARKID":"1001500000832","LANDMARKCO":"601","LANDMARKNA":"美侖大飯店","LANDMARKAD":"1001501","ADDRESS":"花蓮縣花蓮市美崙區林園1之1號","TEL":"038-222-111","COUNTYNAME":"花蓮縣","TOWNNAME":"花蓮市","MARKTYPE":"996","Class":"6"},"geometry":{"x":313891.08229999989,"y":2655183.9230000004}},{"attributes":{"OBJECTID":23834,"LANDMARKID":"1001500000834","LANDMARKCO":"602","LANDMARKNA":"華京大飯店(花蓮)","LANDMARKAD":"1001501","ADDRESS":"花蓮縣花蓮市三民街50號","TEL":"03-8326-151","COUNTYNAME":"花蓮縣","TOWNNAME":"花蓮市","MARKTYPE":"996","Class":"6"},"geometry":{"x":311988.44010000024,"y":2652925.6969000008}},{"attributes":{"OBJECTID":23835,"LANDMARKID":"1001500000792","LANDMARKCO":"511","LANDMARKNA":"溝仔尾夜市","LANDMARKAD":"1001501","ADDRESS":"花蓮縣花蓮市自由街和明義街之間","TEL":" ","COUNTYNAME":"花蓮縣","TOWNNAME":"花蓮市","MARKTYPE":"995","Class":"5"},"geometry":{"x":311778.16980000027,"y":2652377.2039000001}},{"attributes":{"OBJECTID":23836,"LANDMARKID":"1001500000793","LANDMARKCO":"511","LANDMARKNA":"黃昏市場夜市","LANDMARKAD":"1001501","ADDRESS":"花蓮縣花蓮市","TEL":" ","COUNTYNAME":"花蓮縣","TOWNNAME":"花蓮市","MARKTYPE":"995","Class":"5"},"geometry":{"x":312070.49220000021,"y":2652555.2694000006}},{"attributes":{"OBJECTID":23837,"LANDMARKID":"1001500000794","LANDMARKCO":"511","LANDMARKNA":"南濱公園夜市","LANDMARKAD":"1001501","ADDRESS":"花蓮縣花蓮市","TEL":" ","COUNTYNAME":"花蓮縣","TOWNNAME":"花蓮市","MARKTYPE":"995","Class":"5"},"geometry":{"x":311983.7882000003,"y":2651536.1513999999}},{"attributes":{"OBJECTID":23838,"LANDMARKID":"1001500000795","LANDMARKCO":"511","LANDMARKNA":"中央市場夜市","LANDMARKAD":"1001501","ADDRESS":"花蓮縣花蓮市","TEL":" ","COUNTYNAME":"花蓮縣","TOWNNAME":"花蓮市","MARKTYPE":"995","Class":"5"},"geometry":{"x":311793.17320000008,"y":2652372.7521000002}},{"attributes":{"OBJECTID":23839,"LANDMARKID":"1001500000791","LANDMARKCO":"510","LANDMARKNA":"財團法人花蓮高爾夫俱樂部","LANDMARKAD":"1001501","ADDRESS":"花蓮縣花蓮市化道路120號","TEL":"03-8227528","COUNTYNAME":"花蓮縣","TOWNNAME":"花蓮市","MARKTYPE":"995","Class":"5"},"geometry":{"x":313755.44429999962,"y":2654932.6259000003}},{"attributes":{"OBJECTID":23840,"LANDMARKID":"1001500000589","LANDMARKCO":"405","LANDMARKNA":"中油加油站-慶豐昌站","LANDMARKAD":"1001505","ADDRESS":"花蓮縣吉安鄉中央路2段336號","TEL":"03-8510661","COUNTYNAME":"花蓮縣","TOWNNAME":"吉安鄉","MARKTYPE":"994","Class":"4"},"geometry":{"x":308655.41849999968,"y":2652435.8798999991}},{"attributes":{"OBJECTID":23841,"LANDMARKID":"1001500000590","LANDMARKCO":"405","LANDMARKNA":"中油加油站-富薪站","LANDMARKAD":"1001505","ADDRESS":"花蓮縣吉安鄉北昌村自強路400號","TEL":"03-8575580","COUNTYNAME":"花蓮縣","TOWNNAME":"吉安鄉","MARKTYPE":"994","Class":"4"},"geometry":{"x":310012.39030000009,"y":2653294.0812999997}},{"attributes":{"OBJECTID":23842,"LANDMARKID":"1001500000591","LANDMARKCO":"405","LANDMARKNA":"統一速邁樂加油站-花蓮加油站(中油)","LANDMARKAD":"1001505","ADDRESS":"花蓮縣吉安鄉光華村海岸路789號","TEL":" ","COUNTYNAME":"花蓮縣","TOWNNAME":"吉安鄉","MARKTYPE":"994","Class":"4"},"geometry":{"x":310216.45249999966,"y":2647160.3749000002}},{"attributes":{"OBJECTID":23843,"LANDMARKID":"1001500000592","LANDMARKCO":"405","LANDMARKNA":"北基加油站-花蓮站(中油)","LANDMARKAD":"1001505","ADDRESS":"花蓮縣吉安鄉中華路2段248號","TEL":"(03)853-5268","COUNTYNAME":"花蓮縣","TOWNNAME":"吉安鄉","MARKTYPE":"994","Class":"4"},"geometry":{"x":309223.83079999965,"y":2652236.8993999995}},{"attributes":{"OBJECTID":23844,"LANDMARKID":"1001500000593","LANDMARKCO":"405","LANDMARKNA":"中油加油站-友華站","LANDMARKAD":"1001505","ADDRESS":"花蓮縣吉安鄉光華村南濱路1段533號","TEL":"03-8421636","COUNTYNAME":"花蓮縣","TOWNNAME":"吉安鄉","MARKTYPE":"994","Class":"4"},"geometry":{"x":310490.04690000042,"y":2647434.5168999992}},{"attributes":{"OBJECTID":23845,"LANDMARKID":"1001500000594","LANDMARKCO":"405","LANDMARKNA":"中油加油站-建國路站","LANDMARKAD":"1001505","ADDRESS":"花蓮縣吉安鄉建國路二段3號","TEL":"03-8579058","COUNTYNAME":"花蓮縣","TOWNNAME":"吉安鄉","MARKTYPE":"994","Class":"4"},"geometry":{"x":309450.18070000038,"y":2653917.9725000001}},{"attributes":{"OBJECTID":23846,"LANDMARKID":"1001500000595","LANDMARKCO":"405","LANDMARKNA":"中油加油站-吉興路站","LANDMARKAD":"1001505","ADDRESS":"花蓮縣吉安鄉吉安村吉興路一段126號","TEL":"03-8520247","COUNTYNAME":"花蓮縣","TOWNNAME":"吉安鄉","MARKTYPE":"994","Class":"4"},"geometry":{"x":308564.73940000031,"y":2651598.3083999995}},{"attributes":{"OBJECTID":23847,"LANDMARKID":"1001500000596","LANDMARKCO":"405","LANDMARKNA":"中油加油站-長良站","LANDMARKAD":"1001505","ADDRESS":"花蓮縣吉安鄉中央路三段529號","TEL":"03-8578399","COUNTYNAME":"花蓮縣","TOWNNAME":"吉安鄉","MARKTYPE":"994","Class":"4"},"geometry":{"x":309868.13989999983,"y":2653846.4177000001}},{"attributes":{"OBJECTID":23848,"LANDMARKID":"1001500000597","LANDMARKCO":"405","LANDMARKNA":"中油加油站-太平洋站","LANDMARKAD":"1001505","ADDRESS":"花蓮縣吉安鄉南濱路一段6號","TEL":"03-8534370","COUNTYNAME":"花蓮縣","TOWNNAME":"吉安鄉","MARKTYPE":"994","Class":"4"},"geometry":{"x":311530.66060000006,"y":2650999.8153000008}},{"attributes":{"OBJECTID":23849,"LANDMARKID":"1001500000598","LANDMARKCO":"405","LANDMARKNA":"中油加油站-巨豐站","LANDMARKAD":"1001505","ADDRESS":"花蓮縣吉安鄉勝安村和平路1段45號","TEL":"03-8580391","COUNTYNAME":"花蓮縣","TOWNNAME":"吉安鄉","MARKTYPE":"994","Class":"4"},"geometry":{"x":310233.47169999965,"y":2653079.3524999991}},{"attributes":{"OBJECTID":23850,"LANDMARKID":"1001500000599","LANDMARKCO":"405","LANDMARKNA":"中油加油站-美得吉豐營業處站","LANDMARKAD":"1001505","ADDRESS":"花蓮縣吉安鄉吉豐路一段198號","TEL":"03-8540006","COUNTYNAME":"花蓮縣","TOWNNAME":"吉安鄉","MARKTYPE":"994","Class":"4"},"geometry":{"x":309186.25769999996,"y":2651184.1280000005}},{"attributes":{"OBJECTID":23851,"LANDMARKID":"1001500000600","LANDMARKCO":"405","LANDMARKNA":"中油加油站-南埔站(中油自營)","LANDMARKAD":"1001505","ADDRESS":"花蓮縣吉安鄉仁和村中正路二段6號","TEL":"03-8522853","COUNTYNAME":"花蓮縣","TOWNNAME":"吉安鄉","MARKTYPE":"994","Class":"4"},"geometry":{"x":310005.17970000021,"y":2651176.2689999994}},{"attributes":{"OBJECTID":23852,"LANDMARKID":"1001500000554","LANDMARKCO":"402","LANDMARKNA":"亞太行動寬頻電信-花蓮吉安加盟服務中心","LANDMARKAD":"1001505","ADDRESS":"花蓮縣吉安鄉中華路2段255號","TEL":"03-8547755","COUNTYNAME":"花蓮縣","TOWNNAME":"吉安鄉","MARKTYPE":"994","Class":"4"},"geometry":{"x":308993.44369999971,"y":2652175.1992000006}},{"attributes":{"OBJECTID":23853,"LANDMARKID":"1001500000767","LANDMARKCO":"507","LANDMARKNA":"吉安慶修院","LANDMARKAD":"1001505","ADDRESS":"花蓮縣吉安鄉吉安村中興路349號","TEL":" ","COUNTYNAME":"花蓮縣","TOWNNAME":"吉安鄉","MARKTYPE":"995","Class":"5"},"geometry":{"x":307583.9550999999,"y":2652350.5680999998}},{"attributes":{"OBJECTID":23854,"LANDMARKID":"1001500000768","LANDMARKCO":"507","LANDMARKNA":"吉安橫斷道路開鑿紀念碑","LANDMARKAD":"1001505","ADDRESS":"花蓮縣吉安鄉干城村吉安段4781之9地號","TEL":" ","COUNTYNAME":"花蓮縣","TOWNNAME":"吉安鄉","MARKTYPE":"995","Class":"5"},"geometry":{"x":303446.61980000045,"y":2649443.3603000008}},{"attributes":{"OBJECTID":23855,"LANDMARKID":"1001500000760","LANDMARKCO":"506","LANDMARKNA":"慈雲山觀光農園","LANDMARKAD":"1001505","ADDRESS":"花蓮縣吉安鄉慶豐村中山路三段953巷53號","TEL":"03-8536328","COUNTYNAME":"花蓮縣","TOWNNAME":"吉安鄉","MARKTYPE":"995","Class":"5"},"geometry":{"x":307002.26800000016,"y":2653673.2387000006}},{"attributes":{"OBJECTID":23856,"LANDMARKID":"1001500000761","LANDMARKCO":"506","LANDMARKNA":"君達香草健康世界","LANDMARKAD":"1001505","ADDRESS":"花蓮縣吉安鄉干城村干城45之63號","TEL":"038-525775","COUNTYNAME":"花蓮縣","TOWNNAME":"吉安鄉","MARKTYPE":"995","Class":"5"},"geometry":{"x":305308.12170000002,"y":2648828.7907999996}},{"attributes":{"OBJECTID":23857,"LANDMARKID":"1001500000701","LANDMARKCO":"408","LANDMARKNA":"郵局-吉安郵局","LANDMARKAD":"1001505","ADDRESS":"花蓮縣吉安鄉慶豐村吉安路2段280號","TEL":"(03)8521-279","COUNTYNAME":"花蓮縣","TOWNNAME":"吉安鄉","MARKTYPE":"994","Class":"4"},"geometry":{"x":307663.2734000003,"y":2652744.8780000005}},{"attributes":{"OBJECTID":23858,"LANDMARKID":"1001500000702","LANDMARKCO":"408","LANDMARKNA":"郵局-吉安仁里郵局","LANDMARKAD":"1001505","ADDRESS":"花蓮縣吉安鄉仁里村中正路1段48號","TEL":"(03)8520-442","COUNTYNAME":"花蓮縣","TOWNNAME":"吉安鄉","MARKTYPE":"994","Class":"4"},"geometry":{"x":310332.36840000004,"y":2651545.5081999991}},{"attributes":{"OBJECTID":23859,"LANDMARKID":"1001500000703","LANDMARKCO":"408","LANDMARKNA":"郵局-吉安宜昌郵局","LANDMARKAD":"1001505","ADDRESS":"花蓮縣吉安鄉中華路2段83號","TEL":"(03)8528-673","COUNTYNAME":"花蓮縣","TOWNNAME":"吉安鄉","MARKTYPE":"994","Class":"4"},"geometry":{"x":309545.64580000006,"y":2652225.25}},{"attributes":{"OBJECTID":23860,"LANDMARKID":"1001500000704","LANDMARKCO":"408","LANDMARKNA":"郵局-吉安太昌郵局","LANDMARKAD":"1001505","ADDRESS":"花蓮縣吉安鄉永安村吉安路段35號","TEL":"(03)8568-217","COUNTYNAME":"花蓮縣","TOWNNAME":"吉安鄉","MARKTYPE":"994","Class":"4"},"geometry":{"x":308520.80580000021,"y":2654229.9475999996}},{"attributes":{"OBJECTID":23861,"LANDMARKID":"1001500000569","LANDMARKCO":"404","LANDMARKNA":"台灣自來水吉安壽豐服務所","LANDMARKAD":"1001505","ADDRESS":"花蓮縣吉安鄉稻香村16鄰稻香路8號","TEL":"03-8523131","COUNTYNAME":"花蓮縣","TOWNNAME":"吉安鄉","MARKTYPE":"994","Class":"4"},"geometry":{"x":308270.37509999983,"y":2650900.4078000002}},{"attributes":{"OBJECTID":23862,"LANDMARKID":"1001500000570","LANDMARKCO":"404","LANDMARKNA":"台灣省自來水吉安服務所","LANDMARKAD":"1001505","ADDRESS":"花蓮縣吉安鄉稻香村16鄰稻香路8號","TEL":" ","COUNTYNAME":"花蓮縣","TOWNNAME":"吉安鄉","MARKTYPE":"994","Class":"4"},"geometry":{"x":308232.60369999986,"y":2650937.4038999993}},{"attributes":{"OBJECTID":23863,"LANDMARKID":"1001500000666","LANDMARKCO":"406","LANDMARKNA":"榮安公園","LANDMARKAD":"1001505","ADDRESS":"花蓮縣吉安鄉","TEL":" ","COUNTYNAME":"花蓮縣","TOWNNAME":"吉安鄉","MARKTYPE":"994","Class":"4"},"geometry":{"x":308263.08609999996,"y":2654076.9026999995}},{"attributes":{"OBJECTID":23864,"LANDMARKID":"1001500000667","LANDMARKCO":"406","LANDMARKNA":"中山公園","LANDMARKAD":"1001505","ADDRESS":"花蓮縣吉安鄉","TEL":" ","COUNTYNAME":"花蓮縣","TOWNNAME":"吉安鄉","MARKTYPE":"994","Class":"4"},"geometry":{"x":308848.52450000029,"y":2652162.6257000007}},{"attributes":{"OBJECTID":23865,"LANDMARKID":"1001500000668","LANDMARKCO":"406","LANDMARKNA":"南埔公園","LANDMARKAD":"1001505","ADDRESS":"花蓮縣吉安鄉","TEL":" ","COUNTYNAME":"花蓮縣","TOWNNAME":"吉安鄉","MARKTYPE":"994","Class":"4"},"geometry":{"x":309912.52639999986,"y":2651146.2095999997}},{"attributes":{"OBJECTID":23866,"LANDMARKID":"1001500000587","LANDMARKCO":"405","LANDMARKNA":"台塑加油站-台灣吉安站(台塑)","LANDMARKAD":"1001505","ADDRESS":"花蓮縣吉安鄉中興路121號","TEL":"03-8534930","COUNTYNAME":"花蓮縣","TOWNNAME":"吉安鄉","MARKTYPE":"994","Class":"4"},"geometry":{"x":308087.56500000041,"y":2651885.8144000005}},{"attributes":{"OBJECTID":23867,"LANDMARKID":"1001500000588","LANDMARKCO":"405","LANDMARKNA":"台塑加油站-花東站(台塑)","LANDMARKAD":"1001505","ADDRESS":"花蓮縣吉安鄉干城村干城71-5號","TEL":"03-8544608","COUNTYNAME":"花蓮縣","TOWNNAME":"吉安鄉","MARKTYPE":"994","Class":"4"},"geometry":{"x":305782.8518000003,"y":2649188.5295000002}},{"attributes":{"OBJECTID":23868,"LANDMARKID":"1001500000157","LANDMARKCO":"107","LANDMARKNA":"花蓮縣警察局吉安派出所","LANDMARKAD":"1001505","ADDRESS":"花蓮縣吉安鄉吉安村吉安路二段128號","TEL":"03-8525894","COUNTYNAME":"花蓮縣","TOWNNAME":"吉安鄉","MARKTYPE":"991","Class":"1"},"geometry":{"x":307361.67370000016,"y":2652228.9692000002}},{"attributes":{"OBJECTID":23869,"LANDMARKID":"1001500000158","LANDMARKCO":"107","LANDMARKNA":"花蓮縣消防局吉安消防分隊","LANDMARKAD":"1001505","ADDRESS":"花蓮縣吉安鄉吉安路二段120號","TEL":"03-8522334","COUNTYNAME":"花蓮縣","TOWNNAME":"吉安鄉","MARKTYPE":"991","Class":"1"},"geometry":{"x":307315.35429999977,"y":2652149.1543000005}},{"attributes":{"OBJECTID":23870,"LANDMARKID":"1001500000062","LANDMARKCO":"103","LANDMARKNA":"花蓮縣吉安鄉鄉民代表會","LANDMARKAD":"1001505","ADDRESS":"花蓮縣吉安鄉吉安路二段110號","TEL":"03-8539956","COUNTYNAME":"花蓮縣","TOWNNAME":"吉安鄉","MARKTYPE":"991","Class":"1"},"geometry":{"x":307307.28249999974,"y":2652131.1864999998}},{"attributes":{"OBJECTID":23871,"LANDMARKID":"1001500000172","LANDMARKCO":"107","LANDMARKNA":"花蓮縣消防局仁里消防分隊","LANDMARKAD":"1001505","ADDRESS":"花蓮縣吉安鄉仁里三街11號","TEL":"03-8524143","COUNTYNAME":"花蓮縣","TOWNNAME":"吉安鄉","MARKTYPE":"991","Class":"1"},"geometry":{"x":310290.09140000027,"y":2651717.6859000009}},{"attributes":{"OBJECTID":23872,"LANDMARKID":"1001500000173","LANDMARKCO":"107","LANDMARKNA":"花蓮縣警察局吉安分局","LANDMARKAD":"1001505","ADDRESS":"花蓮縣吉安鄉仁里村中正路一段38號","TEL":"03-8514200","COUNTYNAME":"花蓮縣","TOWNNAME":"吉安鄉","MARKTYPE":"991","Class":"1"},"geometry":{"x":310364.58249999955,"y":2651596.3728}},{"attributes":{"OBJECTID":23873,"LANDMARKID":"1001500000174","LANDMARKCO":"107","LANDMARKNA":"花蓮縣警察局北昌派出所","LANDMARKAD":"1001505","ADDRESS":"花蓮縣吉安鄉北昌村34鄰壽昌街6號","TEL":"03-8569376","COUNTYNAME":"花蓮縣","TOWNNAME":"吉安鄉","MARKTYPE":"991","Class":"1"},"geometry":{"x":310239.91370000038,"y":2653828.8585000001}},{"attributes":{"OBJECTID":23874,"LANDMARKID":"1001500000175","LANDMARKCO":"107","LANDMARKNA":"花蓮縣警察局太昌派出所","LANDMARKAD":"1001505","ADDRESS":"花蓮縣吉安鄉吉安村吉安路一段37號","TEL":"03-8569425","COUNTYNAME":"花蓮縣","TOWNNAME":"吉安鄉","MARKTYPE":"991","Class":"1"},"geometry":{"x":308527.21210000012,"y":2654208.9260000009}},{"attributes":{"OBJECTID":23875,"LANDMARKID":"1001500000176","LANDMARKCO":"107","LANDMARKNA":"花蓮縣警察局仁里派出所","LANDMARKAD":"1001505","ADDRESS":"花蓮縣吉安鄉中正路一段38號","TEL":"03-8527894","COUNTYNAME":"花蓮縣","TOWNNAME":"吉安鄉","MARKTYPE":"991","Class":"1"},"geometry":{"x":310364.58249999955,"y":2651596.3728}},{"attributes":{"OBJECTID":23876,"LANDMARKID":"1001500000105","LANDMARKCO":"106","LANDMARKNA":"花蓮縣吉安鄉戶政事務所","LANDMARKAD":"1001505","ADDRESS":"花蓮縣吉安鄉吉安路二段124巷6號","TEL":"03-8528267","COUNTYNAME":"花蓮縣","TOWNNAME":"吉安鄉","MARKTYPE":"991","Class":"1"},"geometry":{"x":307379.44170000032,"y":2652170.8981999997}},{"attributes":{"OBJECTID":23877,"LANDMARKID":"1001500000035","LANDMARKCO":"101","LANDMARKNA":"台北區監理所花蓮監理站","LANDMARKAD":"1001505","ADDRESS":"花蓮縣吉安鄉中正路二段152號","TEL":"03-8523166","COUNTYNAME":"花蓮縣","TOWNNAME":"吉安鄉","MARKTYPE":"991","Class":"1"},"geometry":{"x":309711.24000000022,"y":2650830.7609000001}},{"attributes":{"OBJECTID":23878,"LANDMARKID":"1001500000036","LANDMARKCO":"101","LANDMARKNA":"台灣花蓮監獄","LANDMARKAD":"1001505","ADDRESS":"花蓮縣吉安鄉干城村吉安路6段700號","TEL":"03-8521141","COUNTYNAME":"花蓮縣","TOWNNAME":"吉安鄉","MARKTYPE":"991","Class":"1"},"geometry":{"x":303682.4765999997,"y":2649405.0914999992}},{"attributes":{"OBJECTID":23879,"LANDMARKID":"1001500000037","LANDMARKCO":"101","LANDMARKNA":"內政部國土測繪中心吉安辦公室","LANDMARKAD":"1001505","ADDRESS":"花蓮縣吉安鄉東海十街22號之1","TEL":"03-8511146","COUNTYNAME":"花蓮縣","TOWNNAME":"吉安鄉","MARKTYPE":"991","Class":"1"},"geometry":{"x":310301.69489999954,"y":2651315.6425000001}},{"attributes":{"OBJECTID":23880,"LANDMARKID":"1001500000038","LANDMARKCO":"101","LANDMARKNA":"農業委員會畜產試驗所花蓮種畜繁殖場","LANDMARKAD":"1001505","ADDRESS":"花蓮縣吉安鄉吉安路6段38號","TEL":"03-8524365","COUNTYNAME":"花蓮縣","TOWNNAME":"吉安鄉","MARKTYPE":"991","Class":"1"},"geometry":{"x":305724.1325000003,"y":2649627.9039999992}},{"attributes":{"OBJECTID":23881,"LANDMARKID":"1001500000039","LANDMARKCO":"101","LANDMARKNA":"農業委員會花蓮區農業改良場","LANDMARKAD":"1001505","ADDRESS":"花蓮縣吉安鄉吉安路二段150號","TEL":"03-8521108","COUNTYNAME":"花蓮縣","TOWNNAME":"吉安鄉","MARKTYPE":"991","Class":"1"},"geometry":{"x":307425.03359999973,"y":2652319.8434999995}},{"attributes":{"OBJECTID":23882,"LANDMARKID":"1001500000040","LANDMARKCO":"101","LANDMARKNA":"林務局花蓮林區管理處南華工作站","LANDMARKAD":"1001505","ADDRESS":"花蓮縣吉安鄉干城村4鄰吉安路6段117號","TEL":"03-8527526","COUNTYNAME":"花蓮縣","TOWNNAME":"吉安鄉","MARKTYPE":"991","Class":"1"},"geometry":{"x":305815.55570000038,"y":2649121.5584999993}},{"attributes":{"OBJECTID":23883,"LANDMARKID":"1001500000061","LANDMARKCO":"103","LANDMARKNA":"花蓮縣吉安鄉衛生所","LANDMARKAD":"1001505","ADDRESS":"花蓮縣吉安鄉吉安路二段132號","TEL":"03-8521113","COUNTYNAME":"花蓮縣","TOWNNAME":"吉安鄉","MARKTYPE":"991","Class":"1"},"geometry":{"x":307379.70160000026,"y":2652235.8970999997}},{"attributes":{"OBJECTID":23884,"LANDMARKID":"1001500000233","LANDMARKCO":"108","LANDMARKNA":"花蓮縣吉安鄉公所","LANDMARKAD":"1001505","ADDRESS":"花蓮縣吉安鄉吉安村吉安路116號","TEL":"03-8523126","COUNTYNAME":"花蓮縣","TOWNNAME":"吉安鄉","MARKTYPE":"991","Class":"1"},"geometry":{"x":307351.2341,"y":2652119.0109999999}},{"attributes":{"OBJECTID":23885,"LANDMARKID":"1001500000159","LANDMARKCO":"107","LANDMARKNA":"花蓮縣警察局稻香派出所","LANDMARKAD":"1001505","ADDRESS":"花蓮縣吉安鄉稻香村47之1號","TEL":"03-8521340","COUNTYNAME":"花蓮縣","TOWNNAME":"吉安鄉","MARKTYPE":"991","Class":"1"},"geometry":{"x":308216.19890000019,"y":2651128.9482000005}},{"attributes":{"OBJECTID":23886,"LANDMARKID":"1001500000160","LANDMARKCO":"107","LANDMARKNA":"花蓮縣警察局南華派出所","LANDMARKAD":"1001505","ADDRESS":"花蓮縣吉安鄉干城村干城168號","TEL":"03-8521672","COUNTYNAME":"花蓮縣","TOWNNAME":"吉安鄉","MARKTYPE":"991","Class":"1"},"geometry":{"x":305733.01460000034,"y":2649289.8742999993}},{"attributes":{"OBJECTID":23887,"LANDMARKID":"1001500000415","LANDMARKCO":"205","LANDMARKNA":"吉安鄉阿美文物館","LANDMARKAD":"1001505","ADDRESS":"花蓮縣吉安鄉文化五街43號","TEL":"03-8531116","COUNTYNAME":"花蓮縣","TOWNNAME":"吉安鄉","MARKTYPE":"992","Class":"2"},"geometry":{"x":309118.29310000036,"y":2651823.2749000005}},{"attributes":{"OBJECTID":23888,"LANDMARKID":"1001500000408","LANDMARKCO":"204","LANDMARKNA":"花蓮縣立圖書館吉安分館","LANDMARKAD":"1001505","ADDRESS":"花蓮縣吉安鄉吉安村中山路三段3號","TEL":" ","COUNTYNAME":"花蓮縣","TOWNNAME":"吉安鄉","MARKTYPE":"992","Class":"2"},"geometry":{"x":308811.59889999963,"y":2652145.6768999994}},{"attributes":{"OBJECTID":23889,"LANDMARKID":"1001500000328","LANDMARKCO":"203","LANDMARKNA":"縣立北昌國小","LANDMARKAD":"1001505","ADDRESS":"花蓮縣吉安鄉北昌村自強路533號","TEL":"03-8562619","COUNTYNAME":"花蓮縣","TOWNNAME":"吉安鄉","MARKTYPE":"992","Class":"2"},"geometry":{"x":310187.62420000043,"y":2653758.8942000009}},{"attributes":{"OBJECTID":23890,"LANDMARKID":"1001500000329","LANDMARKCO":"203","LANDMARKNA":"縣立化仁國小","LANDMARKAD":"1001505","ADDRESS":"花蓮縣吉安鄉東昌村東里十一街83號","TEL":"03-8528720","COUNTYNAME":"花蓮縣","TOWNNAME":"吉安鄉","MARKTYPE":"992","Class":"2"},"geometry":{"x":310667.69940000027,"y":2651009.2946000006}},{"attributes":{"OBJECTID":23891,"LANDMARKID":"1001500000256","LANDMARKCO":"202","LANDMARKNA":"私立中華工商","LANDMARKAD":"1001505","ADDRESS":"花蓮縣吉安鄉吉安村吉興四街101號","TEL":"03-8538565","COUNTYNAME":"花蓮縣","TOWNNAME":"吉安鄉","MARKTYPE":"992","Class":"2"},"geometry":{"x":306852.16949999984,"y":2652046.8795999996}},{"attributes":{"OBJECTID":23892,"LANDMARKID":"1001500000309","LANDMARKCO":"203","LANDMARKNA":"縣立吉安國中","LANDMARKAD":"1001505","ADDRESS":"花蓮縣吉安鄉中山路三段662號","TEL":"03-8523136","COUNTYNAME":"花蓮縣","TOWNNAME":"吉安鄉","MARKTYPE":"992","Class":"2"},"geometry":{"x":307109.06359999999,"y":2653306.9572999999}},{"attributes":{"OBJECTID":23893,"LANDMARKID":"1001500000310","LANDMARKCO":"203","LANDMARKNA":"縣立化仁國中","LANDMARKAD":"1001505","ADDRESS":"花蓮縣吉安鄉仁里村東海十街3號","TEL":"03-8543471","COUNTYNAME":"花蓮縣","TOWNNAME":"吉安鄉","MARKTYPE":"992","Class":"2"},"geometry":{"x":310372.75329999998,"y":2651329.3439000007}},{"attributes":{"OBJECTID":23894,"LANDMARKID":"1001500000311","LANDMARKCO":"203","LANDMARKNA":"縣立太昌國小","LANDMARKAD":"1001505","ADDRESS":"花蓮縣吉安鄉太昌村明義五街1號","TEL":"03-8571746","COUNTYNAME":"花蓮縣","TOWNNAME":"吉安鄉","MARKTYPE":"992","Class":"2"},"geometry":{"x":307499.32820000034,"y":2654604.5061000008}},{"attributes":{"OBJECTID":23895,"LANDMARKID":"1001500000312","LANDMARKCO":"203","LANDMARKNA":"縣立宜昌國小","LANDMARKAD":"1001505","ADDRESS":"花蓮縣吉安鄉宜昌一街45號","TEL":"03-8520209","COUNTYNAME":"花蓮縣","TOWNNAME":"吉安鄉","MARKTYPE":"992","Class":"2"},"geometry":{"x":309585.75200000033,"y":2651943.0888999999}},{"attributes":{"OBJECTID":23896,"LANDMARKID":"1001500000313","LANDMARKCO":"203","LANDMARKNA":"縣立吉安國小","LANDMARKAD":"1001505","ADDRESS":"花蓮縣吉安鄉吉安路二段97號","TEL":"03-8523984","COUNTYNAME":"花蓮縣","TOWNNAME":"吉安鄉","MARKTYPE":"992","Class":"2"},"geometry":{"x":307274.52639999986,"y":2652192.3172999993}},{"attributes":{"OBJECTID":23897,"LANDMARKID":"1001500000240","LANDMARKCO":"201","LANDMARKNA":"慈濟大學","LANDMARKAD":"1001505","ADDRESS":"花蓮縣花蓮市中央路三段701號","TEL":"03-8565301","COUNTYNAME":"花蓮縣","TOWNNAME":"吉安鄉","MARKTYPE":"992","Class":"2"},"geometry":{"x":309970.35280000046,"y":2654309.7936000004}},{"attributes":{"OBJECTID":23898,"LANDMARKID":"1001500000322","LANDMARKCO":"203","LANDMARKNA":"縣立宜昌國中","LANDMARKAD":"1001505","ADDRESS":"花蓮縣吉安鄉宜昌村1鄰41號","TEL":"03-8520803","COUNTYNAME":"花蓮縣","TOWNNAME":"吉安鄉","MARKTYPE":"992","Class":"2"},"geometry":{"x":309796.03579999972,"y":2652079.3811000008}},{"attributes":{"OBJECTID":23899,"LANDMARKID":"1001500000323","LANDMARKCO":"203","LANDMARKNA":"縣立稻香國小","LANDMARKAD":"1001505","ADDRESS":"花蓮縣吉安鄉稻香村21鄰49號","TEL":"03-8524734","COUNTYNAME":"花蓮縣","TOWNNAME":"吉安鄉","MARKTYPE":"992","Class":"2"},"geometry":{"x":307876.83459999971,"y":2651039.1818000004}},{"attributes":{"OBJECTID":23900,"LANDMARKID":"1001500000324","LANDMARKCO":"203","LANDMARKNA":"縣立光華國小","LANDMARKAD":"1001505","ADDRESS":"花蓮縣吉安鄉光華村39之1號","TEL":"03-8521611","COUNTYNAME":"花蓮縣","TOWNNAME":"吉安鄉","MARKTYPE":"992","Class":"2"},"geometry":{"x":308891.0625,"y":2648019.6963999998}},{"attributes":{"OBJECTID":23901,"LANDMARKID":"1001500000325","LANDMARKCO":"203","LANDMARKNA":"縣立南華國小","LANDMARKAD":"1001505","ADDRESS":"花蓮縣吉安鄉干城村46號","TEL":"03-8525043","COUNTYNAME":"花蓮縣","TOWNNAME":"吉安鄉","MARKTYPE":"992","Class":"2"},"geometry":{"x":305676.90670000017,"y":2649518.9984000009}},{"attributes":{"OBJECTID":23902,"LANDMARKID":"1001500000326","LANDMARKCO":"203","LANDMARKNA":"縣立仁里國小","LANDMARKAD":"1001505","ADDRESS":"花蓮縣吉安鄉","TEL":" ","COUNTYNAME":"花蓮縣","TOWNNAME":"吉安鄉","MARKTYPE":"992","Class":"2"},"geometry":{"x":310027.77500000037,"y":2651949.5966999996}},{"attributes":{"OBJECTID":23903,"LANDMARKID":"1001500000327","LANDMARKCO":"203","LANDMARKNA":"國立花蓮啟智學校","LANDMARKAD":"1001505","ADDRESS":"花蓮縣吉安鄉中山路二段2號","TEL":"03-8544225","COUNTYNAME":"花蓮縣","TOWNNAME":"吉安鄉","MARKTYPE":"992","Class":"2"},"geometry":{"x":309436.69469999988,"y":2651929.7070000004}},{"attributes":{"OBJECTID":23904,"LANDMARKID":"1001500000467","LANDMARKCO":"303","LANDMARKNA":"吉安仁里停四停車場","LANDMARKAD":"1001505","ADDRESS":"花蓮縣吉安鄉中正路一段","TEL":" ","COUNTYNAME":"花蓮縣","TOWNNAME":"吉安鄉","MARKTYPE":"993","Class":"303"},"geometry":{"x":310440.20779999997,"y":2651650.7227999996}},{"attributes":{"OBJECTID":23905,"LANDMARKID":"1001500000430","LANDMARKCO":"301","LANDMARKNA":"南華火車站(閒)","LANDMARKAD":"1001505","ADDRESS":"花蓮縣吉安鄉","TEL":" ","COUNTYNAME":"花蓮縣","TOWNNAME":"吉安鄉","MARKTYPE":"993","Class":"301"},"geometry":{"x":305464.66750000045,"y":2648719.9022000004}},{"attributes":{"OBJECTID":23906,"LANDMARKID":"1001500000431","LANDMARKCO":"301","LANDMARKNA":"吉安火車站","LANDMARKAD":"1001505","ADDRESS":"花蓮縣吉安鄉南昌街200號","TEL":"03-8539423","COUNTYNAME":"花蓮縣","TOWNNAME":"吉安鄉","MARKTYPE":"993","Class":"301"},"geometry":{"x":309243.49660000019,"y":2651551.0698000006}},{"attributes":{"OBJECTID":23907,"LANDMARKID":"1001500000544","LANDMARKCO":"402","LANDMARKNA":"中華電信-花蓮建國特約服務中心","LANDMARKAD":"1001505","ADDRESS":"花蓮縣吉安鄉建國路一段16號","TEL":"03-8575899","COUNTYNAME":"花蓮縣","TOWNNAME":"吉安鄉","MARKTYPE":"994","Class":"4"},"geometry":{"x":310675.78399999999,"y":2653490.2159000002}},{"attributes":{"OBJECTID":23908,"LANDMARKID":"1001500000545","LANDMARKCO":"402","LANDMARKNA":"威寶電信-吉安中華特約服務中心","LANDMARKAD":"1001505","ADDRESS":"花蓮縣吉安鄉中華路二段276號","TEL":"03-8536869","COUNTYNAME":"花蓮縣","TOWNNAME":"吉安鄉","MARKTYPE":"994","Class":"4"},"geometry":{"x":309116.62380000018,"y":2652219.8572000004}},{"attributes":{"OBJECTID":23909,"LANDMARKID":"1001500000546","LANDMARKCO":"402","LANDMARKNA":"中華電信-吉安服務中心","LANDMARKAD":"1001505","ADDRESS":"花蓮縣吉安鄉中山路三段76號","TEL":"123或0800-080-123","COUNTYNAME":"花蓮縣","TOWNNAME":"吉安鄉","MARKTYPE":"994","Class":"4"},"geometry":{"x":308691.60529999994,"y":2652342.8670000006}},{"attributes":{"OBJECTID":23910,"LANDMARKID":"1001500001406","LANDMARKCO":"604","LANDMARKNA":"光華農場田莊民宿","LANDMARKAD":"1001505","ADDRESS":"花蓮縣吉安鄉光華村1鄰光華七街18號","TEL":"0937-976598","COUNTYNAME":"花蓮縣","TOWNNAME":"吉安鄉","MARKTYPE":"996","Class":"6"},"geometry":{"x":307773.07820000034,"y":2647833.5643000007}},{"attributes":{"OBJECTID":23911,"LANDMARKID":"1001500001407","LANDMARKCO":"604","LANDMARKNA":"花東縱谷民宿","LANDMARKAD":"1001505","ADDRESS":"花蓮縣瑞穗鄉瑞良村中山路3段216-1號","TEL":"0919-923709","COUNTYNAME":"花蓮縣","TOWNNAME":"吉安鄉","MARKTYPE":"996","Class":"6"},"geometry":{"x":307254.16089999955,"y":2651460.3627000004}},{"attributes":{"OBJECTID":23912,"LANDMARKID":"1001500001408","LANDMARKCO":"604","LANDMARKNA":"海景福居民宿","LANDMARKAD":"1001505","ADDRESS":"花蓮縣吉安鄉仁安村海濱路137號","TEL":"03-8420856","COUNTYNAME":"花蓮縣","TOWNNAME":"吉安鄉","MARKTYPE":"996","Class":"6"},"geometry":{"x":311128.00540000014,"y":2649811.5171000008}},{"attributes":{"OBJECTID":23913,"LANDMARKID":"1001500001409","LANDMARKCO":"604","LANDMARKNA":"鄉貌休閒民宿","LANDMARKAD":"1001505","ADDRESS":"花蓮縣吉安鄉光華村知卡宣大道2段199號","TEL":"03-8422585","COUNTYNAME":"花蓮縣","TOWNNAME":"吉安鄉","MARKTYPE":"996","Class":"6"},"geometry":{"x":309320.50629999954,"y":2648503.4749999996}},{"attributes":{"OBJECTID":23914,"LANDMARKID":"1001500001410","LANDMARKCO":"604","LANDMARKNA":"藍-日式民宿","LANDMARKAD":"1001505","ADDRESS":"花蓮縣吉安鄉南華村南華266-6號","TEL":"0933-189330","COUNTYNAME":"花蓮縣","TOWNNAME":"吉安鄉","MARKTYPE":"996","Class":"6"},"geometry":{"x":305876.26410000026,"y":2650087.9881999996}},{"attributes":{"OBJECTID":23915,"LANDMARKID":"1001500001411","LANDMARKCO":"604","LANDMARKNA":"福園古厝民宿","LANDMARKAD":"1001505","ADDRESS":"花蓮縣吉安鄉仁安村海濱路48號","TEL":"03-8542317","COUNTYNAME":"花蓮縣","TOWNNAME":"吉安鄉","MARKTYPE":"996","Class":"6"},"geometry":{"x":311118.3359000003,"y":2649821.2631999999}},{"attributes":{"OBJECTID":23916,"LANDMARKID":"1001500001412","LANDMARKCO":"604","LANDMARKNA":"桃花緣民宿","LANDMARKAD":"1001505","ADDRESS":"花蓮縣吉安鄉福興村福興158巷7號","TEL":"03-8529537","COUNTYNAME":"花蓮縣","TOWNNAME":"吉安鄉","MARKTYPE":"996","Class":"6"},"geometry":{"x":307308.60850000009,"y":2651474.4279999994}},{"attributes":{"OBJECTID":23917,"LANDMARKID":"1001500001413","LANDMARKCO":"604","LANDMARKNA":"小品雅舍民宿","LANDMARKAD":"1001505","ADDRESS":"花蓮縣吉安鄉稻香村稻香四街60巷3號","TEL":"03-8546168","COUNTYNAME":"花蓮縣","TOWNNAME":"吉安鄉","MARKTYPE":"996","Class":"6"},"geometry":{"x":307974.43740000017,"y":2651109.5821000002}},{"attributes":{"OBJECTID":23918,"LANDMARKID":"1001500000920","LANDMARKCO":"603","LANDMARKNA":"阿季大飯店","LANDMARKAD":"1001505","ADDRESS":"花蓮縣吉安鄉宜昌六街11號","TEL":"03-8544438","COUNTYNAME":"花蓮縣","TOWNNAME":"吉安鄉","MARKTYPE":"996","Class":"6"},"geometry":{"x":309341.99780000001,"y":2652144.1712999996}},{"attributes":{"OBJECTID":23919,"LANDMARKID":"1001500000921","LANDMARKCO":"603","LANDMARKNA":"美爽爽旅館","LANDMARKAD":"1001505","ADDRESS":"花蓮縣吉安鄉慶豐村中山路三段176","TEL":"178號","COUNTYNAME":"花蓮縣","TOWNNAME":"吉安鄉","MARKTYPE":"996","Class":"6"},"geometry":{"x":308285.62880000006,"y":2652579.0554000009}},{"attributes":{"OBJECTID":23920,"LANDMARKID":"1001500000922","LANDMARKCO":"603","LANDMARKNA":"華登旅店","LANDMARKAD":"1001505","ADDRESS":"花蓮縣吉安鄉南昌村南昌北路34號","TEL":"03-8521106-7","COUNTYNAME":"花蓮縣","TOWNNAME":"吉安鄉","MARKTYPE":"996","Class":"6"},"geometry":{"x":309317.25310000032,"y":2651822.0347000007}},{"attributes":{"OBJECTID":23921,"LANDMARKID":"1001500000923","LANDMARKCO":"603","LANDMARKNA":"松石旅館","LANDMARKAD":"1001505","ADDRESS":"花蓮縣吉安鄉勝安村自強路21號","TEL":"03-8525106","COUNTYNAME":"花蓮縣","TOWNNAME":"吉安鄉","MARKTYPE":"996","Class":"6"},"geometry":{"x":309529.82180000003,"y":2652575.3103}},{"attributes":{"OBJECTID":23922,"LANDMARKID":"1001500000924","LANDMARKCO":"603","LANDMARKNA":"函園大飯店","LANDMARKAD":"1001505","ADDRESS":"花蓮縣吉安鄉勝安村自強路25號3樓","TEL":"03-8539098","COUNTYNAME":"花蓮縣","TOWNNAME":"吉安鄉","MARKTYPE":"996","Class":"6"},"geometry":{"x":309528.89230000041,"y":2652592.3142000008}},{"attributes":{"OBJECTID":23923,"LANDMARKID":"1001500000925","LANDMARKCO":"603","LANDMARKNA":"源雄飯店","LANDMARKAD":"1001505","ADDRESS":"花蓮縣吉安鄉宜昌村宜昌一街2之2號","TEL":"03-8533188","COUNTYNAME":"花蓮縣","TOWNNAME":"吉安鄉","MARKTYPE":"996","Class":"6"},"geometry":{"x":309714.40340000018,"y":2652167.7210000008}},{"attributes":{"OBJECTID":23924,"LANDMARKID":"1001500000935","LANDMARKCO":"604","LANDMARKNA":"春夏秋冬渡假民宿","LANDMARKAD":"1001505","ADDRESS":"花蓮縣吉安鄉太昌村明義三街210巷16號","TEL":"03-8562713","COUNTYNAME":"花蓮縣","TOWNNAME":"吉安鄉","MARKTYPE":"996","Class":"6"},"geometry":{"x":307481.54839999974,"y":2653736.5923999995}},{"attributes":{"OBJECTID":23925,"LANDMARKID":"1001500000936","LANDMARKCO":"604","LANDMARKNA":"吉昌之家民宿","LANDMARKAD":"1001505","ADDRESS":"花蓮縣吉安鄉吉安村吉昌三街266巷9弄23號","TEL":"03-8579632","COUNTYNAME":"花蓮縣","TOWNNAME":"吉安鄉","MARKTYPE":"996","Class":"6"},"geometry":{"x":307238.20610000007,"y":2651804.4671999998}},{"attributes":{"OBJECTID":23926,"LANDMARKID":"1001500000937","LANDMARKCO":"604","LANDMARKNA":"白被單民宿","LANDMARKAD":"1001505","ADDRESS":"花蓮縣吉安鄉吉安村吉興一街373巷28號","TEL":"0911-861916","COUNTYNAME":"花蓮縣","TOWNNAME":"吉安鄉","MARKTYPE":"996","Class":"6"},"geometry":{"x":308620.76169999968,"y":2652252.5748999994}},{"attributes":{"OBJECTID":23927,"LANDMARKID":"1001500000938","LANDMARKCO":"604","LANDMARKNA":"鬱金香花園夢幻城堡","LANDMARKAD":"1001505","ADDRESS":"花蓮縣吉安鄉吉安村吉興二街330-1號","TEL":"03-8511111","COUNTYNAME":"花蓮縣","TOWNNAME":"吉安鄉","MARKTYPE":"996","Class":"6"},"geometry":{"x":308020.6950000003,"y":2652235.7193999998}},{"attributes":{"OBJECTID":23928,"LANDMARKID":"1001500000939","LANDMARKCO":"604","LANDMARKNA":"協同民宿","LANDMARKAD":"1001505","ADDRESS":"花蓮縣吉安鄉吉安村吉興三街127巷18-1號","TEL":"03-8549466","COUNTYNAME":"花蓮縣","TOWNNAME":"吉安鄉","MARKTYPE":"996","Class":"6"},"geometry":{"x":307573.99380000029,"y":2652309.2466000002}},{"attributes":{"OBJECTID":23929,"LANDMARKID":"1001500000940","LANDMARKCO":"604","LANDMARKNA":"水鈴子民宿","LANDMARKAD":"1001505","ADDRESS":"花蓮縣吉安鄉吉安村吉興三街127巷18號","TEL":"03-8543722","COUNTYNAME":"花蓮縣","TOWNNAME":"吉安鄉","MARKTYPE":"996","Class":"6"},"geometry":{"x":307577.98170000035,"y":2652306.2305999994}},{"attributes":{"OBJECTID":23930,"LANDMARKID":"1001500000941","LANDMARKCO":"604","LANDMARKNA":"波斯民宿","LANDMARKAD":"1001505","ADDRESS":"花蓮縣吉安鄉吉安村吉興三街87號","TEL":"03-8539388","COUNTYNAME":"花蓮縣","TOWNNAME":"吉安鄉","MARKTYPE":"996","Class":"6"},"geometry":{"x":307454.70380000025,"y":2651929.7295999993}},{"attributes":{"OBJECTID":23931,"LANDMARKID":"1001500000942","LANDMARKCO":"604","LANDMARKNA":"昌慶居民宿","LANDMARKAD":"1001505","ADDRESS":"花蓮縣吉安鄉吉安村吉興路一段216-1號","TEL":"03-8531196","COUNTYNAME":"花蓮縣","TOWNNAME":"吉安鄉","MARKTYPE":"996","Class":"6"},"geometry":{"x":308380.62370000035,"y":2651295.4193999991}},{"attributes":{"OBJECTID":23932,"LANDMARKID":"1001500000943","LANDMARKCO":"604","LANDMARKNA":"吾家民宿","LANDMARKAD":"1001505","ADDRESS":"花蓮縣吉安鄉吉安村南山五街45巷1號","TEL":"03-8549922","COUNTYNAME":"花蓮縣","TOWNNAME":"吉安鄉","MARKTYPE":"996","Class":"6"},"geometry":{"x":308964.14960000012,"y":2652411.3182999995}},{"attributes":{"OBJECTID":23933,"LANDMARKID":"1001500000944","LANDMARKCO":"604","LANDMARKNA":"采豐民宿","LANDMARKAD":"1001505","ADDRESS":"花蓮縣吉安鄉慶豐村中山路三段222號","TEL":"03-8514654","COUNTYNAME":"花蓮縣","TOWNNAME":"吉安鄉","MARKTYPE":"996","Class":"6"},"geometry":{"x":308237.99189999979,"y":2652616.9784999993}},{"attributes":{"OBJECTID":23934,"LANDMARKID":"1001500000945","LANDMARKCO":"604","LANDMARKNA":"平安民宿","LANDMARKAD":"1001505","ADDRESS":"花蓮縣吉安鄉慶豐村中山路三段257號","TEL":"03-8521081","COUNTYNAME":"花蓮縣","TOWNNAME":"吉安鄉","MARKTYPE":"996","Class":"6"},"geometry":{"x":308126.08910000045,"y":2652640.2877999991}},{"attributes":{"OBJECTID":23935,"LANDMARKID":"1001500000946","LANDMARKCO":"604","LANDMARKNA":"一間民宿","LANDMARKAD":"1001505","ADDRESS":"花蓮縣吉安鄉慶豐村慶北二街346號","TEL":"03-8539333","COUNTYNAME":"花蓮縣","TOWNNAME":"吉安鄉","MARKTYPE":"996","Class":"6"},"geometry":{"x":307940.95689999964,"y":2652914.8925999999}},{"attributes":{"OBJECTID":23936,"LANDMARKID":"1001500000947","LANDMARKCO":"604","LANDMARKNA":"辰發民宿","LANDMARKAD":"1001505","ADDRESS":"花蓮縣吉安鄉慶豐村慶北三街248巷1號","TEL":"03-8533993","COUNTYNAME":"花蓮縣","TOWNNAME":"吉安鄉","MARKTYPE":"996","Class":"6"},"geometry":{"x":308117.04200000037,"y":2652936.3192999996}},{"attributes":{"OBJECTID":23937,"LANDMARKID":"1001500000948","LANDMARKCO":"604","LANDMARKNA":"戀家民宿","LANDMARKAD":"1001505","ADDRESS":"花蓮縣吉安鄉慶豐村慶南三街286巷19號","TEL":"0963-005576","COUNTYNAME":"花蓮縣","TOWNNAME":"吉安鄉","MARKTYPE":"996","Class":"6"},"geometry":{"x":307576.53529999964,"y":2652810.2262999993}},{"attributes":{"OBJECTID":23938,"LANDMARKID":"1001500000949","LANDMARKCO":"604","LANDMARKNA":"未央花苑民宿","LANDMARKAD":"1001505","ADDRESS":"花蓮縣吉安鄉南昌村昌隆八街10巷2號","TEL":"03-8525268","COUNTYNAME":"花蓮縣","TOWNNAME":"吉安鄉","MARKTYPE":"996","Class":"6"},"geometry":{"x":308784.18609999958,"y":2651803.9115999993}},{"attributes":{"OBJECTID":23939,"LANDMARKID":"1001500000950","LANDMARKCO":"604","LANDMARKNA":"干城小鎮民宿","LANDMARKAD":"1001505","ADDRESS":"花蓮縣吉安鄉干城村干城一街305號","TEL":"03-8538811","COUNTYNAME":"花蓮縣","TOWNNAME":"吉安鄉","MARKTYPE":"996","Class":"6"},"geometry":{"x":304734.44180000015,"y":2649705.3686999995}},{"attributes":{"OBJECTID":23940,"LANDMARKID":"1001500000951","LANDMARKCO":"604","LANDMARKNA":"家榛民宿","LANDMARKAD":"1001505","ADDRESS":"花蓮縣吉安鄉干城村干城二街101號","TEL":"03-8512820","COUNTYNAME":"花蓮縣","TOWNNAME":"吉安鄉","MARKTYPE":"996","Class":"6"},"geometry":{"x":305335.67750000022,"y":2649152.2335999999}},{"attributes":{"OBJECTID":23941,"LANDMARKID":"1001500000952","LANDMARKCO":"604","LANDMARKNA":"文達民宿","LANDMARKAD":"1001505","ADDRESS":"花蓮縣吉安鄉干城村干城二街101號2樓","TEL":"03-8525225","COUNTYNAME":"花蓮縣","TOWNNAME":"吉安鄉","MARKTYPE":"996","Class":"6"},"geometry":{"x":305335.67750000022,"y":2649152.2335999999}},{"attributes":{"OBJECTID":23942,"LANDMARKID":"1001500000953","LANDMARKCO":"604","LANDMARKNA":"偉倫民宿","LANDMARKAD":"1001505","ADDRESS":"花蓮縣吉安鄉干城村干城二街103號","TEL":"03-8525775","COUNTYNAME":"花蓮縣","TOWNNAME":"吉安鄉","MARKTYPE":"996","Class":"6"},"geometry":{"x":305332.64670000039,"y":2649144.2453000005}},{"attributes":{"OBJECTID":23943,"LANDMARKID":"1001500000954","LANDMARKCO":"604","LANDMARKNA":"書浩民宿","LANDMARKAD":"1001505","ADDRESS":"花蓮縣吉安鄉干城村干城二街105號","TEL":"0933-260758","COUNTYNAME":"花蓮縣","TOWNNAME":"吉安鄉","MARKTYPE":"996","Class":"6"},"geometry":{"x":305321.58509999979,"y":2649128.2879000008}},{"attributes":{"OBJECTID":23944,"LANDMARKID":"1001500000955","LANDMARKCO":"604","LANDMARKNA":"君達民宿","LANDMARKAD":"1001505","ADDRESS":"花蓮縣吉安鄉干城村干城二街105號2樓","TEL":"03-8525225","COUNTYNAME":"花蓮縣","TOWNNAME":"吉安鄉","MARKTYPE":"996","Class":"6"},"geometry":{"x":305321.58509999979,"y":2649128.2879000008}},{"attributes":{"OBJECTID":23945,"LANDMARKID":"1001500000956","LANDMARKCO":"604","LANDMARKNA":"婉菁民宿","LANDMARKAD":"1001505","ADDRESS":"花蓮縣吉安鄉干城村干城二街107號","TEL":"03-8549099","COUNTYNAME":"花蓮縣","TOWNNAME":"吉安鄉","MARKTYPE":"996","Class":"6"},"geometry":{"x":305319.55819999985,"y":2649121.2957000006}},{"attributes":{"OBJECTID":23946,"LANDMARKID":"1001500000957","LANDMARKCO":"604","LANDMARKNA":"拾穗田園民宿","LANDMARKAD":"1001505","ADDRESS":"花蓮縣吉安鄉干城村干城二街407號","TEL":"03-8526020","COUNTYNAME":"花蓮縣","TOWNNAME":"吉安鄉","MARKTYPE":"996","Class":"6"},"geometry":{"x":304220.76960000023,"y":2649791.1798999999}},{"attributes":{"OBJECTID":23947,"LANDMARKID":"1001500000958","LANDMARKCO":"604","LANDMARKNA":"香柚園休閒民宿","LANDMARKAD":"1001505","ADDRESS":"花蓮縣吉安鄉太昌村明義五街112號","TEL":"0933-481976","COUNTYNAME":"花蓮縣","TOWNNAME":"吉安鄉","MARKTYPE":"996","Class":"6"},"geometry":{"x":307198.19000000041,"y":2654204.5922999997}},{"attributes":{"OBJECTID":23948,"LANDMARKID":"1001500000959","LANDMARKCO":"604","LANDMARKNA":"逸鄉休閒民宿","LANDMARKAD":"1001505","ADDRESS":"花蓮縣吉安鄉太昌村明義五街93號","TEL":"03-8577780","COUNTYNAME":"花蓮縣","TOWNNAME":"吉安鄉","MARKTYPE":"996","Class":"6"},"geometry":{"x":307297.14099999983,"y":2654249.1922999993}},{"attributes":{"OBJECTID":23949,"LANDMARKID":"1001500000960","LANDMARKCO":"604","LANDMARKNA":"築園民宿","LANDMARKAD":"1001505","ADDRESS":"花蓮縣吉安鄉太昌村明義五街95號","TEL":"03-8466984","COUNTYNAME":"花蓮縣","TOWNNAME":"吉安鄉","MARKTYPE":"996","Class":"6"},"geometry":{"x":307294.02120000031,"y":2654219.2047000006}},{"attributes":{"OBJECTID":23950,"LANDMARKID":"1001500000961","LANDMARKCO":"604","LANDMARKNA":"溫蒂花園民宿","LANDMARKAD":"1001505","ADDRESS":"花蓮縣吉安鄉太昌村明義六街25號","TEL":"03-8560685","COUNTYNAME":"花蓮縣","TOWNNAME":"吉安鄉","MARKTYPE":"996","Class":"6"},"geometry":{"x":306883.76690000016,"y":2654713.7106999997}},{"attributes":{"OBJECTID":23951,"LANDMARKID":"1001500000962","LANDMARKCO":"604","LANDMARKNA":"大山休閒民宿","LANDMARKAD":"1001505","ADDRESS":"花蓮縣吉安鄉太昌村明義六街69巷10號","TEL":"03-8580678","COUNTYNAME":"花蓮縣","TOWNNAME":"吉安鄉","MARKTYPE":"996","Class":"6"},"geometry":{"x":306847.11050000042,"y":2654492.8608999997}},{"attributes":{"OBJECTID":23952,"LANDMARKID":"1001500000963","LANDMARKCO":"604","LANDMARKNA":"夏朵內民宿","LANDMARKAD":"1001505","ADDRESS":"花蓮縣吉安鄉慶豐村慶豐十一街212號","TEL":"03-8652181","COUNTYNAME":"花蓮縣","TOWNNAME":"吉安鄉","MARKTYPE":"996","Class":"6"},"geometry":{"x":307642.12310000043,"y":2653263.9579000007}},{"attributes":{"OBJECTID":23953,"LANDMARKID":"1001500000964","LANDMARKCO":"604","LANDMARKNA":"吉野屋民宿","LANDMARKAD":"1001505","ADDRESS":"花蓮縣吉安鄉慶豐村慶豐十一街227號","TEL":"03-8510390","COUNTYNAME":"花蓮縣","TOWNNAME":"吉安鄉","MARKTYPE":"996","Class":"6"},"geometry":{"x":307618.01169999968,"y":2653295.0497999992}},{"attributes":{"OBJECTID":23954,"LANDMARKID":"1001500000965","LANDMARKCO":"604","LANDMARKNA":"後山之旅民宿","LANDMARKAD":"1001505","ADDRESS":"花蓮縣吉安鄉慶豐村慶豐十五街1號","TEL":"03-8520256","COUNTYNAME":"花蓮縣","TOWNNAME":"吉安鄉","MARKTYPE":"996","Class":"6"},"geometry":{"x":306534.53560000006,"y":2653116.9989}},{"attributes":{"OBJECTID":23955,"LANDMARKID":"1001500000966","LANDMARKCO":"604","LANDMARKNA":"加南美地之窩民宿","LANDMARKAD":"1001505","ADDRESS":"花蓮縣吉安鄉慶豐村慶豐九街106巷12號","TEL":"0933-993411","COUNTYNAME":"花蓮縣","TOWNNAME":"吉安鄉","MARKTYPE":"996","Class":"6"},"geometry":{"x":307950.99330000021,"y":2652924.9910000004}},{"attributes":{"OBJECTID":23956,"LANDMARKID":"1001500000967","LANDMARKCO":"604","LANDMARKNA":"觀星小語民宿","LANDMARKAD":"1001505","ADDRESS":"花蓮縣吉安鄉慶豐村慶豐八街107號","TEL":"03-8530281","COUNTYNAME":"花蓮縣","TOWNNAME":"吉安鄉","MARKTYPE":"996","Class":"6"},"geometry":{"x":307808.03809999954,"y":2652687.4287999999}},{"attributes":{"OBJECTID":23957,"LANDMARKID":"1001500000968","LANDMARKCO":"604","LANDMARKNA":"花蓮好民宿","LANDMARKAD":"1001505","ADDRESS":"花蓮縣吉安鄉慶豐村慶豐十一街186巷19號","TEL":"0910-660504","COUNTYNAME":"花蓮縣","TOWNNAME":"吉安鄉","MARKTYPE":"996","Class":"6"},"geometry":{"x":307667.56840000022,"y":2653126.9891999997}},{"attributes":{"OBJECTID":23958,"LANDMARKID":"1001500000969","LANDMARKCO":"604","LANDMARKNA":"茗新休閒花園民宿","LANDMARKAD":"1001505","ADDRESS":"花蓮縣吉安鄉慶豐村慶豐十一街31號","TEL":"03-8510176","COUNTYNAME":"花蓮縣","TOWNNAME":"吉安鄉","MARKTYPE":"996","Class":"6"},"geometry":{"x":307277.19799999986,"y":2652725.2967000008}},{"attributes":{"OBJECTID":23959,"LANDMARKID":"1001500000970","LANDMARKCO":"604","LANDMARKNA":"慶豐民宿","LANDMARKAD":"1001505","ADDRESS":"花蓮縣吉安鄉慶豐村慶豐十街229號","TEL":"03-8549948","COUNTYNAME":"花蓮縣","TOWNNAME":"吉安鄉","MARKTYPE":"996","Class":"6"},"geometry":{"x":307687.59240000043,"y":2653132.9087000005}},{"attributes":{"OBJECTID":23960,"LANDMARKID":"1001500000971","LANDMARKCO":"604","LANDMARKNA":"雅築民宿","LANDMARKAD":"1001505","ADDRESS":"花蓮縣吉安鄉慶豐村慶豐四街137號","TEL":"03-8527028","COUNTYNAME":"花蓮縣","TOWNNAME":"吉安鄉","MARKTYPE":"996","Class":"6"},"geometry":{"x":308214.17040000018,"y":2652659.9307000004}},{"attributes":{"OBJECTID":23961,"LANDMARKID":"1001500000972","LANDMARKCO":"604","LANDMARKNA":"松芸居休閒民宿","LANDMARKAD":"1001505","ADDRESS":"花蓮縣吉安鄉稻香村吉豐路2段31號","TEL":"0980-199150","COUNTYNAME":"花蓮縣","TOWNNAME":"吉安鄉","MARKTYPE":"996","Class":"6"},"geometry":{"x":309095.01699999999,"y":2651084.9671}},{"attributes":{"OBJECTID":23962,"LANDMARKID":"1001500000973","LANDMARKCO":"604","LANDMARKNA":"米蘭小鎮民宿","LANDMARKAD":"1001505","ADDRESS":"花蓮縣吉安鄉宜昌村吉祥三街20號","TEL":"03-8267707","COUNTYNAME":"花蓮縣","TOWNNAME":"吉安鄉","MARKTYPE":"996","Class":"6"},"geometry":{"x":309514.17279999983,"y":2652352.3805999998}},{"attributes":{"OBJECTID":23963,"LANDMARKID":"1001500000974","LANDMARKCO":"604","LANDMARKNA":"無名小築民宿","LANDMARKAD":"1001505","ADDRESS":"花蓮縣吉安鄉宜昌村吉祥三街22-1號","TEL":"03-8524532","COUNTYNAME":"花蓮縣","TOWNNAME":"吉安鄉","MARKTYPE":"996","Class":"6"},"geometry":{"x":309521.21009999979,"y":2652361.3513999991}},{"attributes":{"OBJECTID":23964,"LANDMARKID":"1001500000975","LANDMARKCO":"604","LANDMARKNA":"呼吸民宿","LANDMARKAD":"1001505","ADDRESS":"花蓮縣吉安鄉宜昌村吉祥三街22-2號","TEL":"03-8529836","COUNTYNAME":"花蓮縣","TOWNNAME":"吉安鄉","MARKTYPE":"996","Class":"6"},"geometry":{"x":309524.22670000046,"y":2652365.3388999999}},{"attributes":{"OBJECTID":23965,"LANDMARKID":"1001500000976","LANDMARKCO":"604","LANDMARKNA":"EZDAY民宿","LANDMARKAD":"1001505","ADDRESS":"花蓮縣吉安鄉宜昌村吉祥三街22號","TEL":"03-8524532","COUNTYNAME":"花蓮縣","TOWNNAME":"吉安鄉","MARKTYPE":"996","Class":"6"},"geometry":{"x":309517.18939999957,"y":2652356.3681000005}},{"attributes":{"OBJECTID":23966,"LANDMARKID":"1001500000977","LANDMARKCO":"604","LANDMARKNA":"天外天民宿","LANDMARKAD":"1001505","ADDRESS":"花蓮縣吉安鄉宜昌村吉祥五街50號","TEL":"03-8527057","COUNTYNAME":"花蓮縣","TOWNNAME":"吉安鄉","MARKTYPE":"996","Class":"6"},"geometry":{"x":309416.31280000042,"y":2652452.7808999997}},{"attributes":{"OBJECTID":23967,"LANDMARKID":"1001500000978","LANDMARKCO":"604","LANDMARKNA":"元元民宿","LANDMARKAD":"1001505","ADDRESS":"花蓮縣吉安鄉宜昌村吉祥五街52巷12號","TEL":"0937-925613","COUNTYNAME":"花蓮縣","TOWNNAME":"吉安鄉","MARKTYPE":"996","Class":"6"},"geometry":{"x":309439.29590000026,"y":2652448.6856999993}},{"attributes":{"OBJECTID":23968,"LANDMARKID":"1001500000979","LANDMARKCO":"604","LANDMARKNA":"山水的故鄉民宿","LANDMARKAD":"1001505","ADDRESS":"花蓮縣吉安鄉宜昌村吉祥五街7號","TEL":"0932-521044","COUNTYNAME":"花蓮縣","TOWNNAME":"吉安鄉","MARKTYPE":"996","Class":"6"},"geometry":{"x":309348.0736999996,"y":2652393.8966000006}},{"attributes":{"OBJECTID":23969,"LANDMARKID":"1001500000980","LANDMARKCO":"604","LANDMARKNA":"百合民宿","LANDMARKAD":"1001505","ADDRESS":"花蓮縣吉安鄉宜昌村吉祥四街20號","TEL":"03-8526569","COUNTYNAME":"花蓮縣","TOWNNAME":"吉安鄉","MARKTYPE":"996","Class":"6"},"geometry":{"x":309429.16839999985,"y":2652351.7328999992}},{"attributes":{"OBJECTID":23970,"LANDMARKID":"1001500000981","LANDMARKCO":"604","LANDMARKNA":"富珍民宿","LANDMARKAD":"1001505","ADDRESS":"花蓮縣吉安鄉干城村干城二街97號","TEL":"0972-281537","COUNTYNAME":"花蓮縣","TOWNNAME":"吉安鄉","MARKTYPE":"996","Class":"6"},"geometry":{"x":305350.76989999972,"y":2649176.1754999999}},{"attributes":{"OBJECTID":23971,"LANDMARKID":"1001500000982","LANDMARKCO":"604","LANDMARKNA":"家樂園民宿","LANDMARKAD":"1001505","ADDRESS":"花蓮縣吉安鄉北昌村北昌五街51號","TEL":"03-8566818","COUNTYNAME":"花蓮縣","TOWNNAME":"吉安鄉","MARKTYPE":"996","Class":"6"},"geometry":{"x":310015.92260000017,"y":2653830.6138000004}},{"attributes":{"OBJECTID":23972,"LANDMARKID":"1001500000983","LANDMARKCO":"604","LANDMARKNA":"十大民宿","LANDMARKAD":"1001505","ADDRESS":"花蓮縣吉安鄉宜昌村宜昌一街6號","TEL":"03-8549483","COUNTYNAME":"花蓮縣","TOWNNAME":"吉安鄉","MARKTYPE":"996","Class":"6"},"geometry":{"x":309716.28679999989,"y":2652139.7131999992}},{"attributes":{"OBJECTID":23973,"LANDMARKID":"1001500000984","LANDMARKCO":"604","LANDMARKNA":"雲香園民宿","LANDMARKAD":"1001505","ADDRESS":"花蓮縣吉安鄉稻香村廣賢路1段238巷8號","TEL":"0916-009039","COUNTYNAME":"花蓮縣","TOWNNAME":"吉安鄉","MARKTYPE":"996","Class":"6"},"geometry":{"x":308968.58260000031,"y":2650363.3367999997}},{"attributes":{"OBJECTID":23974,"LANDMARKID":"1001500000985","LANDMARKCO":"604","LANDMARKNA":"秋明民宿","LANDMARKAD":"1001505","ADDRESS":"花蓮縣吉安鄉干城村干城二街97號2樓","TEL":"0919-250042","COUNTYNAME":"花蓮縣","TOWNNAME":"吉安鄉","MARKTYPE":"996","Class":"6"},"geometry":{"x":305350.76989999972,"y":2649176.1754999999}},{"attributes":{"OBJECTID":23975,"LANDMARKID":"1001500000986","LANDMARKCO":"604","LANDMARKNA":"友維民宿","LANDMARKAD":"1001505","ADDRESS":"花蓮縣吉安鄉干城村干城二街99號","TEL":"03-8525839","COUNTYNAME":"花蓮縣","TOWNNAME":"吉安鄉","MARKTYPE":"996","Class":"6"},"geometry":{"x":305347.74679999985,"y":2649170.1871000007}},{"attributes":{"OBJECTID":23976,"LANDMARKID":"1001500000987","LANDMARKCO":"604","LANDMARKNA":"樹窩優質民宿","LANDMARKAD":"1001505","ADDRESS":"花蓮縣吉安鄉干城村干城二街121號","TEL":"03-8536465","COUNTYNAME":"花蓮縣","TOWNNAME":"吉安鄉","MARKTYPE":"996","Class":"6"},"geometry":{"x":305305.99710000027,"y":2649235.3478999995}},{"attributes":{"OBJECTID":23977,"LANDMARKID":"1001500000988","LANDMARKCO":"604","LANDMARKNA":"金澤居民宿","LANDMARKAD":"1001505","ADDRESS":"花蓮縣吉安鄉干城村干城二街125巷3號","TEL":"03-8521981","COUNTYNAME":"花蓮縣","TOWNNAME":"吉安鄉","MARKTYPE":"996","Class":"6"},"geometry":{"x":305275.87770000007,"y":2649204.4638}},{"attributes":{"OBJECTID":23978,"LANDMARKID":"1001500000989","LANDMARKCO":"604","LANDMARKNA":"別有天民宿","LANDMARKAD":"1001505","ADDRESS":"花蓮縣吉安鄉仁里村中山路1段118-3號","TEL":"03-8520882","COUNTYNAME":"花蓮縣","TOWNNAME":"吉安鄉","MARKTYPE":"996","Class":"6"},"geometry":{"x":309826.36170000024,"y":2651542.2654999997}},{"attributes":{"OBJECTID":23979,"LANDMARKID":"1001500000990","LANDMARKCO":"604","LANDMARKNA":"瑪格莉特民宿","LANDMARKAD":"1001505","ADDRESS":"花蓮縣吉安鄉仁安村海岸路645巷42弄3號","TEL":"0925-637627","COUNTYNAME":"花蓮縣","TOWNNAME":"吉安鄉","MARKTYPE":"996","Class":"6"},"geometry":{"x":309778.97499999963,"y":2648613.5165999997}},{"attributes":{"OBJECTID":23980,"LANDMARKID":"1001500000991","LANDMARKCO":"604","LANDMARKNA":"快樂園丁","LANDMARKAD":"1001505","ADDRESS":"花蓮縣吉安鄉仁安村南海十街143巷2弄12號","TEL":"03-8423725","COUNTYNAME":"花蓮縣","TOWNNAME":"吉安鄉","MARKTYPE":"996","Class":"6"},"geometry":{"x":309798.25380000006,"y":2648680.4364}},{"attributes":{"OBJECTID":23981,"LANDMARKID":"1001500000992","LANDMARKCO":"604","LANDMARKNA":"碧海藍天民宿","LANDMARKAD":"1001505","ADDRESS":"花蓮縣吉安鄉仁安村南海十街143巷2弄16號","TEL":"03-8423699","COUNTYNAME":"花蓮縣","TOWNNAME":"吉安鄉","MARKTYPE":"996","Class":"6"},"geometry":{"x":309790.26620000042,"y":2648683.4695999995}},{"attributes":{"OBJECTID":23982,"LANDMARKID":"1001500000993","LANDMARKCO":"604","LANDMARKNA":"懶人宿民宿","LANDMARKAD":"1001505","ADDRESS":"花蓮縣吉安鄉仁安村南海十街143巷2弄17號","TEL":"03-8420141","COUNTYNAME":"花蓮縣","TOWNNAME":"吉安鄉","MARKTYPE":"996","Class":"6"},"geometry":{"x":309759.21619999968,"y":2648671.5987999998}},{"attributes":{"OBJECTID":23983,"LANDMARKID":"1001500000994","LANDMARKCO":"604","LANDMARKNA":"咪咪民宿","LANDMARKAD":"1001505","ADDRESS":"花蓮縣吉安鄉仁安村南海十街143巷2弄7號","TEL":"03-8422377","COUNTYNAME":"花蓮縣","TOWNNAME":"吉安鄉","MARKTYPE":"996","Class":"6"},"geometry":{"x":309797.1456000004,"y":2648654.4409999996}},{"attributes":{"OBJECTID":23984,"LANDMARKID":"1001500000995","LANDMARKCO":"604","LANDMARKNA":"如意民宿","LANDMARKAD":"1001505","ADDRESS":"花蓮縣吉安鄉北昌村建國路一段12-2號","TEL":"03-8463839","COUNTYNAME":"花蓮縣","TOWNNAME":"吉安鄉","MARKTYPE":"996","Class":"6"},"geometry":{"x":310699.76269999985,"y":2653485.1143999994}},{"attributes":{"OBJECTID":23985,"LANDMARKID":"1001500000996","LANDMARKCO":"604","LANDMARKNA":"和風民宿","LANDMARKAD":"1001505","ADDRESS":"花蓮縣吉安鄉永安村太昌路50號","TEL":"03-8463636","COUNTYNAME":"花蓮縣","TOWNNAME":"吉安鄉","MARKTYPE":"996","Class":"6"},"geometry":{"x":308965.90629999992,"y":2653518.2951999996}},{"attributes":{"OBJECTID":23986,"LANDMARKID":"1001500000997","LANDMARKCO":"604","LANDMARKNA":"峇里戀人民宿","LANDMARKAD":"1001505","ADDRESS":"花蓮縣吉安鄉永安村明仁一街107巷33號","TEL":"03-8562635","COUNTYNAME":"花蓮縣","TOWNNAME":"吉安鄉","MARKTYPE":"996","Class":"6"},"geometry":{"x":308696.58650000021,"y":2654055.2336999997}},{"attributes":{"OBJECTID":23987,"LANDMARKID":"1001500000998","LANDMARKCO":"604","LANDMARKNA":"牧牛與尋劍民宿","LANDMARKAD":"1001505","ADDRESS":"花蓮縣吉安鄉永安村明仁二街176巷1號","TEL":"03-8572758","COUNTYNAME":"花蓮縣","TOWNNAME":"吉安鄉","MARKTYPE":"996","Class":"6"},"geometry":{"x":308547.35059999954,"y":2653997.8438000008}},{"attributes":{"OBJECTID":23988,"LANDMARKID":"1001500000999","LANDMARKCO":"604","LANDMARKNA":"悅容莊民宿","LANDMARKAD":"1001505","ADDRESS":"花蓮縣吉安鄉永安村明仁三街228巷3弄12號","TEL":"03-8573896","COUNTYNAME":"花蓮縣","TOWNNAME":"吉安鄉","MARKTYPE":"996","Class":"6"},"geometry":{"x":307908.14180000033,"y":2653636.0098000001}},{"attributes":{"OBJECTID":23989,"LANDMARKID":"1001500001000","LANDMARKCO":"604","LANDMARKNA":"莊家堡田園民宿","LANDMARKAD":"1001505","ADDRESS":"花蓮縣吉安鄉永安村明仁三街45號","TEL":"03-8567808","COUNTYNAME":"花蓮縣","TOWNNAME":"吉安鄉","MARKTYPE":"996","Class":"6"},"geometry":{"x":308628.51279999968,"y":2653114.5276999995}},{"attributes":{"OBJECTID":23990,"LANDMARKID":"1001500001001","LANDMARKCO":"604","LANDMARKNA":"雅爾富的家民宿","LANDMARKAD":"1001505","ADDRESS":"花蓮縣吉安鄉宜昌村南山一街32號","TEL":"03-8549013","COUNTYNAME":"花蓮縣","TOWNNAME":"吉安鄉","MARKTYPE":"996","Class":"6"},"geometry":{"x":309326.26329999976,"y":2652373.9920000006}},{"attributes":{"OBJECTID":23991,"LANDMARKID":"1001500001002","LANDMARKCO":"604","LANDMARKNA":"觀星水閣民宿","LANDMARKAD":"1001505","ADDRESS":"花蓮縣吉安鄉東昌村東里十五街121巷16號","TEL":"03-8511891","COUNTYNAME":"花蓮縣","TOWNNAME":"吉安鄉","MARKTYPE":"996","Class":"6"},"geometry":{"x":310932.57309999969,"y":2650672.3725000005}},{"attributes":{"OBJECTID":23992,"LANDMARKID":"1001500001003","LANDMARKCO":"604","LANDMARKNA":"麻吉的家民宿","LANDMARKAD":"1001505","ADDRESS":"花蓮縣吉安鄉東昌村東海一街58號","TEL":"03-8523478","COUNTYNAME":"花蓮縣","TOWNNAME":"吉安鄉","MARKTYPE":"996","Class":"6"},"geometry":{"x":310660.15749999974,"y":2651496.3154000007}},{"attributes":{"OBJECTID":23993,"LANDMARKID":"1001500001004","LANDMARKCO":"604","LANDMARKNA":"Home Space民宿","LANDMARKAD":"1001505","ADDRESS":"花蓮縣吉安鄉東昌村東海十五街23之1號","TEL":"03-8538868","COUNTYNAME":"花蓮縣","TOWNNAME":"吉安鄉","MARKTYPE":"996","Class":"6"},"geometry":{"x":310231.71889999975,"y":2651013.9418000001}},{"attributes":{"OBJECTID":23994,"LANDMARKID":"1001500001005","LANDMARKCO":"604","LANDMARKNA":"閒雲居花園民宿","LANDMARKAD":"1001505","ADDRESS":"花蓮縣吉安鄉東昌村東海六街195號","TEL":"03-8544417","COUNTYNAME":"花蓮縣","TOWNNAME":"吉安鄉","MARKTYPE":"996","Class":"6"},"geometry":{"x":310953.64240000024,"y":2650996.2774999999}},{"attributes":{"OBJECTID":23995,"LANDMARKID":"1001500001006","LANDMARKCO":"604","LANDMARKNA":"荷風藍亭民宿","LANDMARKAD":"1001505","ADDRESS":"花蓮縣吉安鄉南昌村中山路二段87號","TEL":"03-8525126","COUNTYNAME":"花蓮縣","TOWNNAME":"吉安鄉","MARKTYPE":"996","Class":"6"},"geometry":{"x":309337.67449999973,"y":2651923.9502000008}},{"attributes":{"OBJECTID":23996,"LANDMARKID":"1001500001007","LANDMARKCO":"604","LANDMARKNA":"方翊民宿","LANDMARKAD":"1001505","ADDRESS":"花蓮縣吉安鄉南昌村文化七街27-1號","TEL":"03-8536359","COUNTYNAME":"花蓮縣","TOWNNAME":"吉安鄉","MARKTYPE":"996","Class":"6"},"geometry":{"x":309136.93120000046,"y":2651986.7787999995}},{"attributes":{"OBJECTID":23997,"LANDMARKID":"1001500001008","LANDMARKCO":"604","LANDMARKNA":"桔園民宿","LANDMARKAD":"1001505","ADDRESS":"花蓮縣吉安鄉稻香村廣豐一街56號","TEL":"0911-493992","COUNTYNAME":"花蓮縣","TOWNNAME":"吉安鄉","MARKTYPE":"996","Class":"6"},"geometry":{"x":309196.43979999982,"y":2650944.5493000001}},{"attributes":{"OBJECTID":23998,"LANDMARKID":"1001500001009","LANDMARKCO":"604","LANDMARKNA":"凱苑民宿","LANDMARKAD":"1001505","ADDRESS":"花蓮縣吉安鄉稻香村廣豐路126號","TEL":"03-8539039","COUNTYNAME":"花蓮縣","TOWNNAME":"吉安鄉","MARKTYPE":"996","Class":"6"},"geometry":{"x":308517.18640000001,"y":2650264.8790000007}},{"attributes":{"OBJECTID":23999,"LANDMARKID":"1001500001010","LANDMARKCO":"604","LANDMARKNA":"戀戀花蓮民宿","LANDMARKAD":"1001505","ADDRESS":"花蓮縣吉安鄉稻香村廣豐路83巷18號","TEL":"03-8460250","COUNTYNAME":"花蓮縣","TOWNNAME":"吉安鄉","MARKTYPE":"996","Class":"6"},"geometry":{"x":308469.78799999971,"y":2650105.0771999992}},{"attributes":{"OBJECTID":24000,"LANDMARKID":"1001500001011","LANDMARKCO":"604","LANDMARKNA":"南洋風情民宿","LANDMARKAD":"1001505","ADDRESS":"花蓮縣吉安鄉稻香村廣豐路83巷7號","TEL":"03-8524612","COUNTYNAME":"花蓮縣","TOWNNAME":"吉安鄉","MARKTYPE":"996","Class":"6"},"geometry":{"x":308518.16270000022,"y":2650196.8801000006}}]}