{"displayFieldName":"COUNTYNAME","fieldAliases":{"OBJECTID":"OBJECTID","LANDMARKID":"LANDMARKID","LANDMARKCO":"LANDMARKCO","LANDMARKNA":"LANDMARKNA","LANDMARKAD":"LANDMARKAD","ADDRESS":"ADDRESS","TEL":"TEL","COUNTYNAME":"COUNTYNAME","TOWNNAME":"TOWNNAME","MARKTYPE":"MARKTYPE","Class":"Class"},"geometryType":"esriGeometryPoint","spatialReference":{"wkid":4326},"fields":[{"name":"OBJECTID","type":"esriFieldTypeOID","alias":"OBJECTID"},{"name":"LANDMARKID","type":"esriFieldTypeString","alias":"LANDMARKID","length":15},{"name":"LANDMARKCO","type":"esriFieldTypeString","alias":"LANDMARKCO","length":15},{"name":"LANDMARKNA","type":"esriFieldTypeString","alias":"LANDMARKNA","length":50},{"name":"LANDMARKAD","type":"esriFieldTypeString","alias":"LANDMARKAD","length":15},{"name":"ADDRESS","type":"esriFieldTypeString","alias":"ADDRESS","length":56},{"name":"TEL","type":"esriFieldTypeString","alias":"TEL","length":36},{"name":"COUNTYNAME","type":"esriFieldTypeString","alias":"COUNTYNAME","length":15},{"name":"TOWNNAME","type":"esriFieldTypeString","alias":"TOWNNAME","length":13},{"name":"MARKTYPE","type":"esriFieldTypeString","alias":"MARKTYPE","length":12},{"name":"Class","type":"esriFieldTypeString","alias":"Class","length":5}],"features":[{"attributes":{"OBJECTID":7801,"LANDMARKID":"6300000003148","LANDMARKCO":"505","LANDMARKNA":"兒童育樂中心兒童科學館","LANDMARKAD":"6300004","ADDRESS":"台北市中山區中山北路三段66號","TEL":"02-25932211","COUNTYNAME":"台北市","TOWNNAME":"中山區","MARKTYPE":"995","Class":"5"},"geometry":{"x":121.52288018856584,"y":25.074059558958581}},{"attributes":{"OBJECTID":7802,"LANDMARKID":"6300000003149","LANDMARKCO":"505","LANDMARKNA":"兒童育樂中心3D奇幻劇場","LANDMARKAD":"6300004","ADDRESS":"台北市中山區中山北路三段66號","TEL":"02-25932211","COUNTYNAME":"台北市","TOWNNAME":"中山區","MARKTYPE":"995","Class":"5"},"geometry":{"x":121.52323140360562,"y":25.073912404631841}},{"attributes":{"OBJECTID":7803,"LANDMARKID":"6300000003333","LANDMARKCO":"511","LANDMARKNA":"華陰街商店街","LANDMARKAD":"6300004","ADDRESS":"台北市中山區","TEL":" ","COUNTYNAME":"台北市","TOWNNAME":"中山區","MARKTYPE":"995","Class":"5"},"geometry":{"x":121.52096304545984,"y":25.048938929394733}},{"attributes":{"OBJECTID":7804,"LANDMARKID":"6300000003334","LANDMARKCO":"511","LANDMARKNA":"晴光商店街","LANDMARKAD":"6300004","ADDRESS":"台北市中山區","TEL":" ","COUNTYNAME":"台北市","TOWNNAME":"中山區","MARKTYPE":"995","Class":"5"},"geometry":{"x":121.5232220746002,"y":25.064508009440971}},{"attributes":{"OBJECTID":7805,"LANDMARKID":"6300000003335","LANDMARKCO":"511","LANDMARKNA":"四平街商店街","LANDMARKAD":"6300004","ADDRESS":"台北市中山區","TEL":" ","COUNTYNAME":"台北市","TOWNNAME":"中山區","MARKTYPE":"995","Class":"5"},"geometry":{"x":121.53352046056487,"y":25.053660318022644}},{"attributes":{"OBJECTID":7806,"LANDMARKID":"6300000003336","LANDMARKCO":"511","LANDMARKNA":"中山北路婚紗商店街","LANDMARKAD":"6300004","ADDRESS":"台北市中山區中山北路","TEL":" ","COUNTYNAME":"台北市","TOWNNAME":"中山區","MARKTYPE":"995","Class":"5"},"geometry":{"x":121.52277744543929,"y":25.056341818657376}},{"attributes":{"OBJECTID":7807,"LANDMARKID":"6300000003337","LANDMARKCO":"511","LANDMARKNA":"遼寧街夜市","LANDMARKAD":"6300004","ADDRESS":"台北市中山區遼寧街","TEL":" ","COUNTYNAME":"台北市","TOWNNAME":"中山區","MARKTYPE":"995","Class":"5"},"geometry":{"x":121.54218006979836,"y":25.049066185946419}},{"attributes":{"OBJECTID":7808,"LANDMARKID":"6300000003141","LANDMARKCO":"505","LANDMARKNA":"台北市立兒童育樂中心","LANDMARKAD":"6300004","ADDRESS":"台北市士林區中山北路三段66號","TEL":" ","COUNTYNAME":"台北市","TOWNNAME":"中山區","MARKTYPE":"995","Class":"5"},"geometry":{"x":121.52395674103288,"y":25.073575482414807}},{"attributes":{"OBJECTID":7809,"LANDMARKID":"6300000003311","LANDMARKCO":"510","LANDMARKNA":"蓬萊高爾夫練習場","LANDMARKAD":"6300004","ADDRESS":"台北市中山區敬業三路100號","TEL":"02-85021799","COUNTYNAME":"台北市","TOWNNAME":"中山區","MARKTYPE":"995","Class":"5"},"geometry":{"x":121.55678510237387,"y":25.081462509098525}},{"attributes":{"OBJECTID":7810,"LANDMARKID":"6300000002427","LANDMARKCO":"405","LANDMARKNA":"中油加油站-民權西路站(中油直營)","LANDMARKAD":"6300006","ADDRESS":"台北市大同區民權西路194號","TEL":"02-25575809","COUNTYNAME":"台北市","TOWNNAME":"大同區","MARKTYPE":"994","Class":"4"},"geometry":{"x":121.51424401124814,"y":25.062766614986671}},{"attributes":{"OBJECTID":7811,"LANDMARKID":"6300000002201","LANDMARKCO":"402","LANDMARKNA":"My Phone台灣大哥大-大同－民生西(傳凌-26","LANDMARKAD":"6300006","ADDRESS":"台北市大同區民生西路102號","TEL":"02-25590392","COUNTYNAME":"台北市","TOWNNAME":"大同區","MARKTYPE":"994","Class":"4"},"geometry":{"x":121.5197813663154,"y":25.057407327301558}},{"attributes":{"OBJECTID":7812,"LANDMARKID":"6300000002202","LANDMARKCO":"402","LANDMARKNA":"My Phone台灣大哥大-台北南京西直營服務中心","LANDMARKAD":"6300006","ADDRESS":"台北市大同區南京西路42號","TEL":"0809-000-166","COUNTYNAME":"台北市","TOWNNAME":"大同區","MARKTYPE":"994","Class":"4"},"geometry":{"x":121.51943810409105,"y":25.052705454004293}},{"attributes":{"OBJECTID":7813,"LANDMARKID":"6300000002203","LANDMARKCO":"402","LANDMARKNA":"My Phone台灣大哥大-大同－延平北","LANDMARKAD":"6300006","ADDRESS":"台北市大同區延平北路三段22號","TEL":"02-66105678","COUNTYNAME":"台北市","TOWNNAME":"大同區","MARKTYPE":"994","Class":"4"},"geometry":{"x":121.51104987232745,"y":25.064010927028196}},{"attributes":{"OBJECTID":7814,"LANDMARKID":"6300000002204","LANDMARKCO":"402","LANDMARKNA":"My Phone台灣大哥大-台北酒泉直營服務中心","LANDMARKAD":"6300006","ADDRESS":"台北市大同區酒泉街100號","TEL":" ","COUNTYNAME":"台北市","TOWNNAME":"大同區","MARKTYPE":"994","Class":"4"},"geometry":{"x":121.51442324637027,"y":25.071942456280734}},{"attributes":{"OBJECTID":7815,"LANDMARKID":"6300000002205","LANDMARKCO":"402","LANDMARKNA":"My Phone台灣大哥大-大同－延平北II(廣識-","LANDMARKAD":"6300006","ADDRESS":"台北市大同區延平北路二段110號","TEL":"02-25525189","COUNTYNAME":"台北市","TOWNNAME":"大同區","MARKTYPE":"994","Class":"4"},"geometry":{"x":121.51154576579668,"y":25.05694454341663}},{"attributes":{"OBJECTID":7816,"LANDMARKID":"6300000002206","LANDMARKCO":"402","LANDMARKNA":"亞太行動寬頻電信-大同民族西加盟服務中心","LANDMARKAD":"6300006","ADDRESS":"台北市大同區民族西路66號","TEL":"02-25992577","COUNTYNAME":"台北市","TOWNNAME":"大同區","MARKTYPE":"994","Class":"4"},"geometry":{"x":121.51813232007218,"y":25.068405345629937}},{"attributes":{"OBJECTID":7817,"LANDMARKID":"6300000002114","LANDMARKCO":"401","LANDMARKNA":"行政院衛生署台北醫院城區分院","LANDMARKAD":"6300006","ADDRESS":"台北市大同區鄭州路40號","TEL":"02-25521429","COUNTYNAME":"台北市","TOWNNAME":"大同區","MARKTYPE":"994","Class":"4"},"geometry":{"x":121.50871354887926,"y":25.050214006128368}},{"attributes":{"OBJECTID":7818,"LANDMARKID":"6300000002115","LANDMARKCO":"401","LANDMARKNA":"台北市立聯合醫院-中興院區(中興醫院)","LANDMARKAD":"6300006","ADDRESS":"台北市大同區鄭州路145號","TEL":"02-25523234","COUNTYNAME":"台北市","TOWNNAME":"大同區","MARKTYPE":"994","Class":"4"},"geometry":{"x":121.50927944872232,"y":25.050589518877537}},{"attributes":{"OBJECTID":7819,"LANDMARKID":"6300000003201","LANDMARKCO":"507","LANDMARKNA":"大龍峒保安宮","LANDMARKAD":"6300006","ADDRESS":"台北市大同區哈密街61號","TEL":" ","COUNTYNAME":"台北市","TOWNNAME":"大同區","MARKTYPE":"995","Class":"5"},"geometry":{"x":121.5155423893347,"y":25.07310132375903}},{"attributes":{"OBJECTID":7820,"LANDMARKID":"6300000003202","LANDMARKCO":"507","LANDMARKNA":"陳悅記祖宅(老師府)","LANDMARKAD":"6300006","ADDRESS":"台北市大同區延平北路四段231號","TEL":" ","COUNTYNAME":"台北市","TOWNNAME":"大同區","MARKTYPE":"995","Class":"5"},"geometry":{"x":121.51200322813132,"y":25.075550202032613}},{"attributes":{"OBJECTID":7821,"LANDMARKID":"6300000003203","LANDMARKCO":"507","LANDMARKNA":"陳德星堂","LANDMARKAD":"6300006","ADDRESS":"台北市大同區寧夏路27號","TEL":" ","COUNTYNAME":"台北市","TOWNNAME":"大同區","MARKTYPE":"995","Class":"5"},"geometry":{"x":121.51521389276661,"y":25.055342676124987}},{"attributes":{"OBJECTID":7822,"LANDMARKID":"6300000003204","LANDMARKCO":"507","LANDMARKNA":"台北孔子廟","LANDMARKAD":"6300006","ADDRESS":"台北市大同區大龍街275號","TEL":" ","COUNTYNAME":"台北市","TOWNNAME":"大同區","MARKTYPE":"995","Class":"5"},"geometry":{"x":121.51698487418314,"y":25.072288327535997}},{"attributes":{"OBJECTID":7823,"LANDMARKID":"6300000003205","LANDMARKCO":"507","LANDMARKNA":"台灣總督府交通局鐵道部","LANDMARKAD":"6300006","ADDRESS":"台北市大同區延平北路1號","TEL":" ","COUNTYNAME":"台北市","TOWNNAME":"大同區","MARKTYPE":"995","Class":"5"},"geometry":{"x":121.51096754103857,"y":25.048736233951274}},{"attributes":{"OBJECTID":7824,"LANDMARKID":"6300000003206","LANDMARKCO":"507","LANDMARKNA":"大稻埕辜宅","LANDMARKAD":"6300006","ADDRESS":"台北市大同區歸綏街303巷9號","TEL":" ","COUNTYNAME":"台北市","TOWNNAME":"大同區","MARKTYPE":"995","Class":"5"},"geometry":{"x":121.50877021444177,"y":25.058715749968187}},{"attributes":{"OBJECTID":7825,"LANDMARKID":"6300000003207","LANDMARKCO":"507","LANDMARKNA":"台北市政府舊廈(原建成小學校)","LANDMARKAD":"6300006","ADDRESS":"台北市大同區長安西路39號","TEL":" ","COUNTYNAME":"台北市","TOWNNAME":"大同區","MARKTYPE":"995","Class":"5"},"geometry":{"x":121.51898051904656,"y":25.0506356868047}},{"attributes":{"OBJECTID":7826,"LANDMARKID":"6300000003208","LANDMARKCO":"507","LANDMARKNA":"大稻埕霞海城隍廟","LANDMARKAD":"6300006","ADDRESS":"台北市大同區迪化街一段61號","TEL":" ","COUNTYNAME":"台北市","TOWNNAME":"大同區","MARKTYPE":"995","Class":"5"},"geometry":{"x":121.51012986296728,"y":25.055347233969751}},{"attributes":{"OBJECTID":7827,"LANDMARKID":"6300000003010","LANDMARKCO":"408","LANDMARKNA":"郵局-台北迪化街郵局","LANDMARKAD":"6300006","ADDRESS":"台北市大同區迪化街1段38號","TEL":"(02)2556-0519","COUNTYNAME":"台北市","TOWNNAME":"大同區","MARKTYPE":"994","Class":"4"},"geometry":{"x":121.5100382543261,"y":25.05479125335409}},{"attributes":{"OBJECTID":7828,"LANDMARKID":"6300000003011","LANDMARKCO":"408","LANDMARKNA":"郵局-台北圓環郵局","LANDMARKAD":"6300006","ADDRESS":"台北市大同區重慶北路2段15號","TEL":"(02)2556-1703","COUNTYNAME":"台北市","TOWNNAME":"大同區","MARKTYPE":"994","Class":"4"},"geometry":{"x":121.51445732409174,"y":25.054635438758037}},{"attributes":{"OBJECTID":7829,"LANDMARKID":"6300000003012","LANDMARKCO":"408","LANDMARKNA":"郵局-台北大同郵局","LANDMARKAD":"6300006","ADDRESS":"台北市大同區承德路3段83號","TEL":"(02)2597-4508","COUNTYNAME":"台北市","TOWNNAME":"大同區","MARKTYPE":"994","Class":"4"},"geometry":{"x":121.51857889979408,"y":25.065901498223322}},{"attributes":{"OBJECTID":7830,"LANDMARKID":"6300000003013","LANDMARKCO":"408","LANDMARKNA":"郵局-台北大龍峒郵局","LANDMARKAD":"6300006","ADDRESS":"台北市大同區重慶北路3段338號","TEL":"(02)2597-5098","COUNTYNAME":"台北市","TOWNNAME":"大同區","MARKTYPE":"994","Class":"4"},"geometry":{"x":121.5136613062777,"y":25.076063983040065}},{"attributes":{"OBJECTID":7831,"LANDMARKID":"6300000003014","LANDMARKCO":"408","LANDMARKNA":"郵局-台北保安郵局","LANDMARKAD":"6300006","ADDRESS":"台北市大同區重慶北路2段183號","TEL":"(02)2553-9692","COUNTYNAME":"台北市","TOWNNAME":"大同區","MARKTYPE":"994","Class":"4"},"geometry":{"x":121.5137546781876,"y":25.059912138626871}},{"attributes":{"OBJECTID":7832,"LANDMARKID":"6300000003015","LANDMARKCO":"408","LANDMARKNA":"郵局-台北台北橋郵局","LANDMARKAD":"6300006","ADDRESS":"台北市大同區民權西路246號","TEL":"(02)2557-8538","COUNTYNAME":"台北市","TOWNNAME":"大同區","MARKTYPE":"994","Class":"4"},"geometry":{"x":121.51265445608171,"y":25.062902759336225}},{"attributes":{"OBJECTID":7833,"LANDMARKID":"6300000002393","LANDMARKCO":"404","LANDMARKNA":"台北自來水事業處北區營業分處","LANDMARKAD":"6300006","ADDRESS":"台北市大同區民權西路237號之1","TEL":" ","COUNTYNAME":"台北市","TOWNNAME":"大同區","MARKTYPE":"994","Class":"4"},"geometry":{"x":121.51184958445782,"y":25.063198280271038}},{"attributes":{"OBJECTID":7834,"LANDMARKID":"6300000002695","LANDMARKCO":"406","LANDMARKNA":"哈密公園","LANDMARKAD":"6300006","ADDRESS":"台北市大同區","TEL":" ","COUNTYNAME":"台北市","TOWNNAME":"大同區","MARKTYPE":"994","Class":"4"},"geometry":{"x":121.51540288829611,"y":25.074721714282724}},{"attributes":{"OBJECTID":7835,"LANDMARKID":"6300000002696","LANDMARKCO":"406","LANDMARKNA":"迪化公園","LANDMARKAD":"6300006","ADDRESS":"台北市大同區","TEL":" ","COUNTYNAME":"台北市","TOWNNAME":"大同區","MARKTYPE":"994","Class":"4"},"geometry":{"x":121.51207047551462,"y":25.071498476146786}},{"attributes":{"OBJECTID":7836,"LANDMARKID":"6300000002697","LANDMARKCO":"406","LANDMARKNA":"至聖公園","LANDMARKAD":"6300006","ADDRESS":"台北市大同區","TEL":" ","COUNTYNAME":"台北市","TOWNNAME":"大同區","MARKTYPE":"994","Class":"4"},"geometry":{"x":121.51760664588389,"y":25.071308733671142}},{"attributes":{"OBJECTID":7837,"LANDMARKID":"6300000002698","LANDMARKCO":"406","LANDMARKNA":"大龍公園","LANDMARKAD":"6300006","ADDRESS":"台北市大同區","TEL":" ","COUNTYNAME":"台北市","TOWNNAME":"大同區","MARKTYPE":"994","Class":"4"},"geometry":{"x":121.51559187633187,"y":25.070302691722635}},{"attributes":{"OBJECTID":7838,"LANDMARKID":"6300000002699","LANDMARKCO":"406","LANDMARKNA":"大同公園","LANDMARKAD":"6300006","ADDRESS":"台北市大同區","TEL":" ","COUNTYNAME":"台北市","TOWNNAME":"大同區","MARKTYPE":"994","Class":"4"},"geometry":{"x":121.51199367655758,"y":25.06796901034453}},{"attributes":{"OBJECTID":7839,"LANDMARKID":"6300000002700","LANDMARKCO":"406","LANDMARKNA":"樹德公園","LANDMARKAD":"6300006","ADDRESS":"台北市大同區","TEL":" ","COUNTYNAME":"台北市","TOWNNAME":"大同區","MARKTYPE":"994","Class":"4"},"geometry":{"x":121.51626635621655,"y":25.066846932213682}},{"attributes":{"OBJECTID":7840,"LANDMARKID":"6300000002701","LANDMARKCO":"406","LANDMARKNA":"景化公園","LANDMARKAD":"6300006","ADDRESS":"台北市大同區","TEL":" ","COUNTYNAME":"台北市","TOWNNAME":"大同區","MARKTYPE":"994","Class":"4"},"geometry":{"x":121.51275798186872,"y":25.065390292789633}},{"attributes":{"OBJECTID":7841,"LANDMARKID":"6300000002702","LANDMARKCO":"406","LANDMARKNA":"蘭州公園","LANDMARKAD":"6300006","ADDRESS":"台北市大同區","TEL":" ","COUNTYNAME":"台北市","TOWNNAME":"大同區","MARKTYPE":"994","Class":"4"},"geometry":{"x":121.51535857964817,"y":25.06402266676994}},{"attributes":{"OBJECTID":7842,"LANDMARKID":"6300000002703","LANDMARKCO":"406","LANDMARKNA":"太平公園","LANDMARKAD":"6300006","ADDRESS":"台北市大同區","TEL":" ","COUNTYNAME":"台北市","TOWNNAME":"大同區","MARKTYPE":"994","Class":"4"},"geometry":{"x":121.51574968375277,"y":25.061942069341018}},{"attributes":{"OBJECTID":7843,"LANDMARKID":"6300000002704","LANDMARKCO":"406","LANDMARKNA":"德鄰公園","LANDMARKAD":"6300006","ADDRESS":"台北市大同區","TEL":" ","COUNTYNAME":"台北市","TOWNNAME":"大同區","MARKTYPE":"994","Class":"4"},"geometry":{"x":121.51473987414803,"y":25.061923151088084}},{"attributes":{"OBJECTID":7844,"LANDMARKID":"6300000002705","LANDMARKCO":"406","LANDMARKNA":"錦西公園","LANDMARKAD":"6300006","ADDRESS":"台北市大同區","TEL":" ","COUNTYNAME":"台北市","TOWNNAME":"大同區","MARKTYPE":"994","Class":"4"},"geometry":{"x":121.51683997911182,"y":25.059701852704233}},{"attributes":{"OBJECTID":7845,"LANDMARKID":"6300000002706","LANDMARKCO":"406","LANDMARKNA":"歸綏公園","LANDMARKAD":"6300006","ADDRESS":"台北市大同區","TEL":" ","COUNTYNAME":"台北市","TOWNNAME":"大同區","MARKTYPE":"994","Class":"4"},"geometry":{"x":121.51325847723447,"y":25.057926527281573}},{"attributes":{"OBJECTID":7846,"LANDMARKID":"6300000002707","LANDMARKCO":"406","LANDMARKNA":"朝陽公園","LANDMARKAD":"6300006","ADDRESS":"台北市大同區","TEL":" ","COUNTYNAME":"台北市","TOWNNAME":"大同區","MARKTYPE":"994","Class":"4"},"geometry":{"x":121.51318611987365,"y":25.05591167202509}},{"attributes":{"OBJECTID":7847,"LANDMARKID":"6300000002708","LANDMARKCO":"406","LANDMARKNA":"延平公園","LANDMARKAD":"6300006","ADDRESS":"台北市大同區","TEL":" ","COUNTYNAME":"台北市","TOWNNAME":"大同區","MARKTYPE":"994","Class":"4"},"geometry":{"x":121.50724842355743,"y":25.055332420175823}},{"attributes":{"OBJECTID":7848,"LANDMARKID":"6300000002709","LANDMARKCO":"406","LANDMARKNA":"建成公園","LANDMARKAD":"6300006","ADDRESS":"台北市大同區","TEL":" ","COUNTYNAME":"台北市","TOWNNAME":"大同區","MARKTYPE":"994","Class":"4"},"geometry":{"x":121.51856712957125,"y":25.054235234888612}},{"attributes":{"OBJECTID":7849,"LANDMARKID":"6300000002710","LANDMARKCO":"406","LANDMARKNA":"塔城公園","LANDMARKAD":"6300006","ADDRESS":"台北市大同區","TEL":" ","COUNTYNAME":"台北市","TOWNNAME":"大同區","MARKTYPE":"994","Class":"4"},"geometry":{"x":121.5108977402318,"y":25.050922524990174}},{"attributes":{"OBJECTID":7850,"LANDMARKID":"6300000002711","LANDMARKCO":"406","LANDMARKNA":"玉泉公園","LANDMARKAD":"6300006","ADDRESS":"台北市大同區","TEL":" ","COUNTYNAME":"台北市","TOWNNAME":"大同區","MARKTYPE":"994","Class":"4"},"geometry":{"x":121.50722873168239,"y":25.049674087511143}},{"attributes":{"OBJECTID":7851,"LANDMARKID":"6300000000300","LANDMARKCO":"107","LANDMARKNA":"台北市政府警察局大同分局","LANDMARKAD":"6300006","ADDRESS":"台北市大同區雙連里寧夏路89號","TEL":"02-25577262","COUNTYNAME":"台北市","TOWNNAME":"大同區","MARKTYPE":"991","Class":"1"},"geometry":{"x":121.51499876527834,"y":25.059344329457048}},{"attributes":{"OBJECTID":7852,"LANDMARKID":"6300000000301","LANDMARKCO":"107","LANDMARKNA":"台北市政府警察局寧夏路派出所","LANDMARKAD":"6300006","ADDRESS":"台北市大同區雙連里寧夏路89號","TEL":"02-25575011","COUNTYNAME":"台北市","TOWNNAME":"大同區","MARKTYPE":"991","Class":"1"},"geometry":{"x":121.51502849856716,"y":25.059344123421631}},{"attributes":{"OBJECTID":7853,"LANDMARKID":"6300000000302","LANDMARKCO":"107","LANDMARKNA":"台北市政府警察局雙連派出所","LANDMARKAD":"6300006","ADDRESS":"台北市民生西路198號","TEL":"02-25565856","COUNTYNAME":"台北市","TOWNNAME":"大同區","MARKTYPE":"991","Class":"1"},"geometry":{"x":121.51682430686937,"y":25.056993991325033}},{"attributes":{"OBJECTID":7854,"LANDMARKID":"6300000000171","LANDMARKCO":"104","LANDMARKNA":"台北市國稅局大同稽徵所","LANDMARKAD":"6300006","ADDRESS":"台北市大同區昌吉街57號3樓之4","TEL":"02-25853833","COUNTYNAME":"台北市","TOWNNAME":"大同區","MARKTYPE":"991","Class":"1"},"geometry":{"x":121.51515490903535,"y":25.066015005990618}},{"attributes":{"OBJECTID":7855,"LANDMARKID":"6300000000017","LANDMARKCO":"101","LANDMARKNA":"勞工委員會","LANDMARKAD":"6300006","ADDRESS":"台北市大同區延平北路2段83號9樓","TEL":"02-85902866","COUNTYNAME":"台北市","TOWNNAME":"大同區","MARKTYPE":"991","Class":"1"},"geometry":{"x":121.5117398307362,"y":25.05613875866786}},{"attributes":{"OBJECTID":7856,"LANDMARKID":"6300000000170","LANDMARKCO":"104","LANDMARKNA":"財政部關稅總局","LANDMARKAD":"6300006","ADDRESS":"台北市大同區塔城街13號海關大樓","TEL":"02-25505500","COUNTYNAME":"台北市","TOWNNAME":"大同區","MARKTYPE":"991","Class":"1"},"geometry":{"x":121.51060889931205,"y":25.051212199438087}},{"attributes":{"OBJECTID":7857,"LANDMARKID":"6300000000194","LANDMARKCO":"106","LANDMARKNA":"台北市大同區戶政事務所","LANDMARKAD":"6300006","ADDRESS":"台北市大同區揚雅里10鄰昌吉街57號3樓之1","TEL":"02-25942569","COUNTYNAME":"台北市","TOWNNAME":"大同區","MARKTYPE":"991","Class":"1"},"geometry":{"x":121.51515490903535,"y":25.066015005990618}},{"attributes":{"OBJECTID":7858,"LANDMARKID":"6300000000291","LANDMARKCO":"107","LANDMARKNA":"台北市政府警察局建成派出所","LANDMARKAD":"6300006","ADDRESS":"台北市大同區建泰里承德路一段80號","TEL":"02-25585463","COUNTYNAME":"台北市","TOWNNAME":"大同區","MARKTYPE":"991","Class":"1"},"geometry":{"x":121.51736842025575,"y":25.052767338055489}},{"attributes":{"OBJECTID":7859,"LANDMARKID":"6300000000292","LANDMARKCO":"107","LANDMARKNA":"台北市政府警察局民生西路派出","LANDMARKAD":"6300006","ADDRESS":"台北市保安街47-1號","TEL":"02-25538587","COUNTYNAME":"台北市","TOWNNAME":"大同區","MARKTYPE":"991","Class":"1"},"geometry":{"x":121.51208274079571,"y":25.059246572047286}},{"attributes":{"OBJECTID":7860,"LANDMARKID":"6300000000293","LANDMARKCO":"107","LANDMARKNA":"台北市政府警察局延平派出所","LANDMARKAD":"6300006","ADDRESS":"台北市大同區永樂里延平北路一段86號","TEL":"02-25564340","COUNTYNAME":"台北市","TOWNNAME":"大同區","MARKTYPE":"991","Class":"1"},"geometry":{"x":121.51175205833374,"y":25.052222766003432}},{"attributes":{"OBJECTID":7861,"LANDMARKID":"6300000000294","LANDMARKCO":"107","LANDMARKNA":"台北市政府警察局民族路派出所","LANDMARKAD":"6300006","ADDRESS":"台北市大同區國慶里重慶北路三段168號","TEL":"02-25926204","COUNTYNAME":"台北市","TOWNNAME":"大同區","MARKTYPE":"991","Class":"1"},"geometry":{"x":121.51354036194967,"y":25.068799505753105}},{"attributes":{"OBJECTID":7862,"LANDMARKID":"6300000000295","LANDMARKCO":"107","LANDMARKNA":"台北市政府警察局大橋派出所","LANDMARKAD":"6300006","ADDRESS":"台北市大同區景興里延平北路三段2號","TEL":"02-25945524","COUNTYNAME":"台北市","TOWNNAME":"大同區","MARKTYPE":"991","Class":"1"},"geometry":{"x":121.51087773863655,"y":25.063267364149873}},{"attributes":{"OBJECTID":7863,"LANDMARKID":"6300000000296","LANDMARKCO":"107","LANDMARKNA":"台北市消防局大同消防中隊","LANDMARKAD":"6300006","ADDRESS":"台北市大同區承德路三段206號","TEL":"02-25931905","COUNTYNAME":"台北市","TOWNNAME":"大同區","MARKTYPE":"991","Class":"1"},"geometry":{"x":121.51815634571381,"y":25.070219843200935}},{"attributes":{"OBJECTID":7864,"LANDMARKID":"6300000000297","LANDMARKCO":"107","LANDMARKNA":"台北市消防局大同消防分隊","LANDMARKAD":"6300006","ADDRESS":"台北市大同區重慶北路二段223號","TEL":"02-25504001","COUNTYNAME":"台北市","TOWNNAME":"大同區","MARKTYPE":"991","Class":"1"},"geometry":{"x":121.51374892255068,"y":25.061464989184735}},{"attributes":{"OBJECTID":7865,"LANDMARKID":"6300000000298","LANDMARKCO":"107","LANDMARKNA":"台北市消防局建成消防分隊","LANDMARKAD":"6300006","ADDRESS":"台北市大同區承德路二段35號","TEL":"02-25593748","COUNTYNAME":"台北市","TOWNNAME":"大同區","MARKTYPE":"991","Class":"1"},"geometry":{"x":121.51844847178182,"y":25.05478659840664}},{"attributes":{"OBJECTID":7866,"LANDMARKID":"6300000000299","LANDMARKCO":"107","LANDMARKNA":"台北市消防局延平消防分隊","LANDMARKAD":"6300006","ADDRESS":"台北市大同區鄭州路109號","TEL":"02-25582105","COUNTYNAME":"台北市","TOWNNAME":"大同區","MARKTYPE":"991","Class":"1"},"geometry":{"x":121.51135994383836,"y":25.050243773699897}},{"attributes":{"OBJECTID":7867,"LANDMARKID":"6300000000149","LANDMARKCO":"103","LANDMARKNA":"台北市大同區健康服務中心","LANDMARKAD":"6300006","ADDRESS":"台北市大同區昌吉街52號3樓","TEL":"02-25853227","COUNTYNAME":"台北市","TOWNNAME":"大同區","MARKTYPE":"991","Class":"1"},"geometry":{"x":121.51635286439846,"y":25.065808063494529}},{"attributes":{"OBJECTID":7868,"LANDMARKID":"6300000000370","LANDMARKCO":"108","LANDMARKNA":"台北市大同區公所","LANDMARKAD":"6300006","ADDRESS":"台北市大同區昌吉街57號4樓","TEL":"02-25975323","COUNTYNAME":"台北市","TOWNNAME":"大同區","MARKTYPE":"991","Class":"1"},"geometry":{"x":121.51515490903535,"y":25.066015005990618}},{"attributes":{"OBJECTID":7869,"LANDMARKID":"6300000000146","LANDMARKCO":"103","LANDMARKNA":"台北市政府勞工局身心障礙就業服務站","LANDMARKAD":"6300006","ADDRESS":"台北市大同區迪化街一段21號6樓","TEL":"02-25598518　","COUNTYNAME":"台北市","TOWNNAME":"大同區","MARKTYPE":"991","Class":"1"},"geometry":{"x":121.51034711867217,"y":25.054574711850151}},{"attributes":{"OBJECTID":7870,"LANDMARKID":"6300000000147","LANDMARKCO":"103","LANDMARKNA":"台北市政府勞工局勞工教育中心","LANDMARKAD":"6300006","ADDRESS":"台北市大同區迪化街一段21號6樓","TEL":"02-25590136","COUNTYNAME":"台北市","TOWNNAME":"大同區","MARKTYPE":"991","Class":"1"},"geometry":{"x":121.51034711867217,"y":25.054574711850151}},{"attributes":{"OBJECTID":7871,"LANDMARKID":"6300000000148","LANDMARKCO":"103","LANDMARKNA":"連江縣政府駐台辦事處","LANDMARKAD":"6300006","ADDRESS":"台北市大同區庫倫街51號2樓","TEL":"02-25922244","COUNTYNAME":"台北市","TOWNNAME":"大同區","MARKTYPE":"991","Class":"1"},"geometry":{"x":121.51926481913729,"y":25.072035789940259}},{"attributes":{"OBJECTID":7872,"LANDMARKID":"6300000000303","LANDMARKCO":"107","LANDMARKNA":"台北市政府警察局重慶北路派出","LANDMARKAD":"6300006","ADDRESS":"台北市重慶北路3段320之2號","TEL":"02-25944741","COUNTYNAME":"台北市","TOWNNAME":"大同區","MARKTYPE":"991","Class":"1"},"geometry":{"x":121.51355595306673,"y":25.075466595442055}},{"attributes":{"OBJECTID":7873,"LANDMARKID":"6300000000018","LANDMARKCO":"101","LANDMARKNA":"原住民委員會","LANDMARKAD":"6300006","ADDRESS":"台北市大同區重慶北路二段172號","TEL":"02-25571600","COUNTYNAME":"台北市","TOWNNAME":"大同區","MARKTYPE":"991","Class":"1"},"geometry":{"x":121.51345082531722,"y":25.059577939140237}},{"attributes":{"OBJECTID":7874,"LANDMARKID":"6300000000019","LANDMARKCO":"101","LANDMARKNA":"行政院衛生署","LANDMARKAD":"6300006","ADDRESS":"台北市大同區塔城街36號","TEL":" ","COUNTYNAME":"台北市","TOWNNAME":"大同區","MARKTYPE":"991","Class":"1"},"geometry":{"x":121.51036489099333,"y":25.051554691606263}},{"attributes":{"OBJECTID":7875,"LANDMARKID":"6300000000804","LANDMARKCO":"205","LANDMARKNA":"海關博物館","LANDMARKAD":"6300006","ADDRESS":"台北市大同區塔城街13號","TEL":" ","COUNTYNAME":"台北市","TOWNNAME":"大同區","MARKTYPE":"992","Class":"2"},"geometry":{"x":121.5107193905169,"y":25.051315147861203}},{"attributes":{"OBJECTID":7876,"LANDMARKID":"6300000000737","LANDMARKCO":"204","LANDMARKNA":"台北市立圖書館延平分館","LANDMARKAD":"6300006","ADDRESS":"台北市大同區保安街47號","TEL":" ","COUNTYNAME":"台北市","TOWNNAME":"大同區","MARKTYPE":"992","Class":"2"},"geometry":{"x":121.51216265018238,"y":25.059251075941546}},{"attributes":{"OBJECTID":7877,"LANDMARKID":"6300000000738","LANDMARKCO":"204","LANDMARKNA":"台北市立圖書館大同分館","LANDMARKAD":"6300006","ADDRESS":"台北市大同區重慶北路三段318號","TEL":" ","COUNTYNAME":"台北市","TOWNNAME":"大同區","MARKTYPE":"992","Class":"2"},"geometry":{"x":121.51358909620595,"y":25.074265564923031}},{"attributes":{"OBJECTID":7878,"LANDMARKID":"6300000000739","LANDMARKCO":"204","LANDMARKNA":"台北市立圖書館建成分館","LANDMARKAD":"6300006","ADDRESS":"台北市大同區民生西路198號4樓","TEL":" ","COUNTYNAME":"台北市","TOWNNAME":"大同區","MARKTYPE":"992","Class":"2"},"geometry":{"x":121.51686823222251,"y":25.05705068735293}},{"attributes":{"OBJECTID":7879,"LANDMARKID":"6300000000740","LANDMARKCO":"204","LANDMARKNA":"台北市立圖書館蘭州民眾閱覽室","LANDMARKAD":"6300006","ADDRESS":"台北市大同區昌吉街57號4樓之6","TEL":" ","COUNTYNAME":"台北市","TOWNNAME":"大同區","MARKTYPE":"992","Class":"2"},"geometry":{"x":121.51517071867474,"y":25.066018117279175}},{"attributes":{"OBJECTID":7880,"LANDMARKID":"6300000000631","LANDMARKCO":"203","LANDMARKNA":"市立忠孝國中","LANDMARKAD":"6300006","ADDRESS":"台北市大同區玉泉里西寧北路32號","TEL":"02-25524070","COUNTYNAME":"台北市","TOWNNAME":"大同區","MARKTYPE":"992","Class":"2"},"geometry":{"x":121.50768364237278,"y":25.051511675946077}},{"attributes":{"OBJECTID":7881,"LANDMARKID":"6300000000632","LANDMARKCO":"203","LANDMARKNA":"市立日新國小","LANDMARKAD":"6300006","ADDRESS":"台北市大同區星明里太原路151號","TEL":"02-25584819","COUNTYNAME":"台北市","TOWNNAME":"大同區","MARKTYPE":"992","Class":"2"},"geometry":{"x":121.51711971192564,"y":25.054193230643175}},{"attributes":{"OBJECTID":7882,"LANDMARKID":"6300000000633","LANDMARKCO":"203","LANDMARKNA":"市立蓬萊國小","LANDMARKAD":"6300006","ADDRESS":"台北市大同區星明里寧夏路35號","TEL":"02-25597744","COUNTYNAME":"台北市","TOWNNAME":"大同區","MARKTYPE":"992","Class":"2"},"geometry":{"x":121.51618543202116,"y":25.056447103890736}},{"attributes":{"OBJECTID":7883,"LANDMARKID":"6300000000456","LANDMARKCO":"202","LANDMARKNA":"市立成淵高中","LANDMARKAD":"6300006","ADDRESS":"台北市大同區承德路二段235號","TEL":"02-23931969","COUNTYNAME":"台北市","TOWNNAME":"大同區","MARKTYPE":"992","Class":"2"},"geometry":{"x":121.51853206957493,"y":25.061268142830087}},{"attributes":{"OBJECTID":7884,"LANDMARKID":"6300000000457","LANDMARKCO":"202","LANDMARKNA":"市立明倫高中","LANDMARKAD":"6300006","ADDRESS":"台北市大同區保安里承德路三段336號","TEL":"02-25976146","COUNTYNAME":"台北市","TOWNNAME":"大同區","MARKTYPE":"992","Class":"2"},"geometry":{"x":121.51989595568723,"y":25.075530378864205}},{"attributes":{"OBJECTID":7885,"LANDMARKID":"6300000000458","LANDMARKCO":"202","LANDMARKNA":"私立靜修女中","LANDMARKAD":"6300006","ADDRESS":"台北市大同區雙連里寧夏路59號","TEL":"02-25574345","COUNTYNAME":"台北市","TOWNNAME":"大同區","MARKTYPE":"992","Class":"2"},"geometry":{"x":121.51538304646274,"y":25.057906218693965}},{"attributes":{"OBJECTID":7886,"LANDMARKID":"6300000000459","LANDMARKCO":"202","LANDMARKNA":"私立稻江高商","LANDMARKAD":"6300006","ADDRESS":"台北市大同區國昌里民權西路225巷24號","TEL":"02-25912001","COUNTYNAME":"台北市","TOWNNAME":"大同區","MARKTYPE":"992","Class":"2"},"geometry":{"x":121.51204527783155,"y":25.0643364012167}},{"attributes":{"OBJECTID":7887,"LANDMARKID":"6300000000618","LANDMARKCO":"203","LANDMARKNA":"市立蘭州國中","LANDMARKAD":"6300006","ADDRESS":"台北市大同區至聖里大龍街187巷1號","TEL":"02-25918269","COUNTYNAME":"台北市","TOWNNAME":"大同區","MARKTYPE":"992","Class":"2"},"geometry":{"x":121.5167798463397,"y":25.069322146560104}},{"attributes":{"OBJECTID":7888,"LANDMARKID":"6300000000619","LANDMARKCO":"203","LANDMARKNA":"市立民權國中","LANDMARKAD":"6300006","ADDRESS":"台北市大同區福澤里民權西路219號","TEL":"02-25931951","COUNTYNAME":"台北市","TOWNNAME":"大同區","MARKTYPE":"992","Class":"2"},"geometry":{"x":121.51436123203388,"y":25.063244378975366}},{"attributes":{"OBJECTID":7889,"LANDMARKID":"6300000000620","LANDMARKCO":"203","LANDMARKNA":"市立重慶國中","LANDMARKAD":"6300006","ADDRESS":"台北市大同區重慶里敦煌路19號","TEL":"02-25928681","COUNTYNAME":"台北市","TOWNNAME":"大同區","MARKTYPE":"992","Class":"2"},"geometry":{"x":121.51791366432725,"y":25.075927269994793}},{"attributes":{"OBJECTID":7890,"LANDMARKID":"6300000000621","LANDMARKCO":"203","LANDMARKNA":"市立建成國中","LANDMARKAD":"6300006","ADDRESS":"台北市大同區建明里華陰街34號","TEL":"02-25597249","COUNTYNAME":"台北市","TOWNNAME":"大同區","MARKTYPE":"992","Class":"2"},"geometry":{"x":121.51724374128709,"y":25.04973476709354}},{"attributes":{"OBJECTID":7891,"LANDMARKID":"6300000000622","LANDMARKCO":"203","LANDMARKNA":"市立大同國小","LANDMARKAD":"6300006","ADDRESS":"台北市大同區蓬萊里大龍街51號","TEL":"02-25931858","COUNTYNAME":"台北市","TOWNNAME":"大同區","MARKTYPE":"992","Class":"2"},"geometry":{"x":121.51611071666312,"y":25.064782789766966}},{"attributes":{"OBJECTID":7892,"LANDMARKID":"6300000000623","LANDMARKCO":"203","LANDMARKNA":"市立太平國小","LANDMARKAD":"6300006","ADDRESS":"台北市大同區南芳里延平北路二段239號","TEL":"02-25532229","COUNTYNAME":"台北市","TOWNNAME":"大同區","MARKTYPE":"992","Class":"2"},"geometry":{"x":121.51145145904657,"y":25.061377026449904}},{"attributes":{"OBJECTID":7893,"LANDMARKID":"6300000000624","LANDMARKCO":"203","LANDMARKNA":"市立永樂國小","LANDMARKAD":"6300006","ADDRESS":"台北市大同區南芳里延平北路二段266號","TEL":"02-25534882","COUNTYNAME":"台北市","TOWNNAME":"大同區","MARKTYPE":"992","Class":"2"},"geometry":{"x":121.51114031187318,"y":25.06169289957295}},{"attributes":{"OBJECTID":7894,"LANDMARKID":"6300000000625","LANDMARKCO":"203","LANDMARKNA":"市立明倫國小","LANDMARKAD":"6300006","ADDRESS":"台北市大同區保安里承德路三段285號","TEL":"02-25928889","COUNTYNAME":"台北市","TOWNNAME":"大同區","MARKTYPE":"992","Class":"2"},"geometry":{"x":121.51942569767664,"y":25.073106720930003}},{"attributes":{"OBJECTID":7895,"LANDMARKID":"6300000000626","LANDMARKCO":"203","LANDMARKNA":"市立延平國小","LANDMARKAD":"6300006","ADDRESS":"台北市大同區國慶里昌吉街97號","TEL":"02-25942439","COUNTYNAME":"台北市","TOWNNAME":"大同區","MARKTYPE":"992","Class":"2"},"geometry":{"x":121.512416518462,"y":25.066031141057596}},{"attributes":{"OBJECTID":7896,"LANDMARKID":"6300000000627","LANDMARKCO":"203","LANDMARKNA":"市立大龍國小","LANDMARKAD":"6300006","ADDRESS":"台北市大同區保安里哈密街47號","TEL":"02-25942635","COUNTYNAME":"台北市","TOWNNAME":"大同區","MARKTYPE":"992","Class":"2"},"geometry":{"x":121.51672978101125,"y":25.07340541310478}},{"attributes":{"OBJECTID":7897,"LANDMARKID":"6300000000628","LANDMARKCO":"203","LANDMARKNA":"市立大橋國小","LANDMARKAD":"6300006","ADDRESS":"台北市大同區隆和里重慶北路三段2號","TEL":"02-25944413","COUNTYNAME":"台北市","TOWNNAME":"大同區","MARKTYPE":"992","Class":"2"},"geometry":{"x":121.51338447014138,"y":25.06427975449223}},{"attributes":{"OBJECTID":7898,"LANDMARKID":"6300000000629","LANDMARKCO":"203","LANDMARKNA":"市立雙蓮國小","LANDMARKAD":"6300006","ADDRESS":"台北市大同區民權里錦西街51號","TEL":"02-25576330","COUNTYNAME":"台北市","TOWNNAME":"大同區","MARKTYPE":"992","Class":"2"},"geometry":{"x":121.5166833784567,"y":25.060118690213077}},{"attributes":{"OBJECTID":7899,"LANDMARKID":"6300000000630","LANDMARKCO":"203","LANDMARKNA":"台北市立啟聰學校","LANDMARKAD":"6300006","ADDRESS":"台北市大同區重慶北路三段320號","TEL":"02-28924446","COUNTYNAME":"台北市","TOWNNAME":"大同區","MARKTYPE":"992","Class":"2"},"geometry":{"x":121.51360349973284,"y":25.074689882572031}},{"attributes":{"OBJECTID":7900,"LANDMARKID":"6300000002062","LANDMARKCO":"308","LANDMARKNA":"國1-台北交流道-北上","LANDMARKAD":"6300006","ADDRESS":"台北市大同區","TEL":" ","COUNTYNAME":"台北市","TOWNNAME":"大同區","MARKTYPE":"993","Class":"308"},"geometry":{"x":121.51841888100985,"y":25.077082052056383}},{"attributes":{"OBJECTID":7901,"LANDMARKID":"6300000001906","LANDMARKCO":"306","LANDMARKNA":"民權西路捷運站-出口4","LANDMARKAD":"6300006","ADDRESS":" ","TEL":" ","COUNTYNAME":"台北市","TOWNNAME":"大同區","MARKTYPE":"993","Class":"306"},"geometry":{"x":121.51964241616197,"y":25.061797122422373}},{"attributes":{"OBJECTID":7902,"LANDMARKID":"6300000000849","LANDMARKCO":"302","LANDMARKNA":"飛狗巴士","LANDMARKAD":"6300006","ADDRESS":"台北市大同區承德路1段21號","TEL":"|","COUNTYNAME":"台北市","TOWNNAME":"大同區","MARKTYPE":"993","Class":"302"},"geometry":{"x":121.51717136234599,"y":25.05049118255193}},{"attributes":{"OBJECTID":7903,"LANDMARKID":"6300000000850","LANDMARKCO":"302","LANDMARKNA":"日統客運-台北站","LANDMARKAD":"6300006","ADDRESS":"台北市忠孝西路二段11號","TEL":"02-25583131","COUNTYNAME":"台北市","TOWNNAME":"大同區","MARKTYPE":"993","Class":"302"},"geometry":{"x":121.50951494254058,"y":25.048474995724437}},{"attributes":{"OBJECTID":7904,"LANDMARKID":"6300000000851","LANDMARKCO":"302","LANDMARKNA":"國光汽車客運台北北站","LANDMARKAD":"6300006","ADDRESS":"台北市大同區建明里承德路一段4號","TEL":" ","COUNTYNAME":"台北市","TOWNNAME":"大同區","MARKTYPE":"993","Class":"302"},"geometry":{"x":121.51549333723193,"y":25.049266424933634}},{"attributes":{"OBJECTID":7905,"LANDMARKID":"6300000000852","LANDMARKCO":"302","LANDMARKNA":"統聯汽車客運承德站","LANDMARKAD":"6300006","ADDRESS":"台北市大同區承德路一段55號","TEL":" ","COUNTYNAME":"台北市","TOWNNAME":"大同區","MARKTYPE":"993","Class":"302"},"geometry":{"x":121.51757060703612,"y":25.05108156748615}},{"attributes":{"OBJECTID":7906,"LANDMARKID":"6300000000853","LANDMARKCO":"302","LANDMARKNA":"三重汽車客運北門站","LANDMARKAD":"6300006","ADDRESS":"台北市塔城街5號","TEL":" ","COUNTYNAME":"台北市","TOWNNAME":"大同區","MARKTYPE":"993","Class":"302"},"geometry":{"x":121.51058836782805,"y":25.049643038123477}},{"attributes":{"OBJECTID":7907,"LANDMARKID":"6300000001405","LANDMARKCO":"303","LANDMARKNA":"中興醫院停車場","LANDMARKAD":"6300006","ADDRESS":" ","TEL":" ","COUNTYNAME":"台北市","TOWNNAME":"大同區","MARKTYPE":"993","Class":"303"},"geometry":{"x":121.5087297354857,"y":25.051358114089076}},{"attributes":{"OBJECTID":7908,"LANDMARKID":"6300000001406","LANDMARKCO":"303","LANDMARKNA":"民生西路停車場","LANDMARKAD":"6300006","ADDRESS":"台北市大同區民生西路292號旁空地","TEL":" ","COUNTYNAME":"台北市","TOWNNAME":"大同區","MARKTYPE":"993","Class":"303"},"geometry":{"x":121.51245988575211,"y":25.056730450892672}},{"attributes":{"OBJECTID":7909,"LANDMARKID":"6300000001407","LANDMARKCO":"303","LANDMARKNA":"六軒重慶停車場","LANDMARKAD":"6300006","ADDRESS":" ","TEL":" ","COUNTYNAME":"台北市","TOWNNAME":"大同區","MARKTYPE":"993","Class":"303"},"geometry":{"x":121.51327069775955,"y":25.060618449901185}},{"attributes":{"OBJECTID":7910,"LANDMARKID":"6300000001408","LANDMARKCO":"303","LANDMARKNA":"朝陽茶葉公園地下停車場","LANDMARKAD":"6300006","ADDRESS":" ","TEL":" ","COUNTYNAME":"台北市","TOWNNAME":"大同區","MARKTYPE":"993","Class":"303"},"geometry":{"x":121.51373675909116,"y":25.056133442648584}},{"attributes":{"OBJECTID":7911,"LANDMARKID":"6300000001409","LANDMARKCO":"303","LANDMARKNA":"揚雅立體停車場","LANDMARKAD":"6300006","ADDRESS":" ","TEL":" ","COUNTYNAME":"台北市","TOWNNAME":"大同區","MARKTYPE":"993","Class":"303"},"geometry":{"x":121.51581932193623,"y":25.067329356826964}},{"attributes":{"OBJECTID":7912,"LANDMARKID":"6300000001410","LANDMARKCO":"303","LANDMARKNA":"大同區行政中心停車場","LANDMARKAD":"6300006","ADDRESS":" ","TEL":" ","COUNTYNAME":"台北市","TOWNNAME":"大同區","MARKTYPE":"993","Class":"303"},"geometry":{"x":121.51519795391089,"y":25.066098750848433}},{"attributes":{"OBJECTID":7913,"LANDMARKID":"6300000001411","LANDMARKCO":"303","LANDMARKNA":"華陰街臨時停車場","LANDMARKAD":"6300006","ADDRESS":"台北市大同區承德路一段1號","TEL":" ","COUNTYNAME":"台北市","TOWNNAME":"大同區","MARKTYPE":"993","Class":"303"},"geometry":{"x":121.51683389801295,"y":25.049344517368151}},{"attributes":{"OBJECTID":7914,"LANDMARKID":"6300000001412","LANDMARKCO":"303","LANDMARKNA":"華陰街臨時停車場","LANDMARKAD":"6300006","ADDRESS":"台北市大同區華陰街34號","TEL":" ","COUNTYNAME":"台北市","TOWNNAME":"大同區","MARKTYPE":"993","Class":"303"},"geometry":{"x":121.51804465349579,"y":25.049519299732065}},{"attributes":{"OBJECTID":7915,"LANDMARKID":"6300000001413","LANDMARKCO":"303","LANDMARKNA":"建成國中地下停車場","LANDMARKAD":"6300006","ADDRESS":"台北市大同區長安西路37之1號","TEL":"02-25596615","COUNTYNAME":"台北市","TOWNNAME":"大同區","MARKTYPE":"993","Class":"303"},"geometry":{"x":121.5196061045819,"y":25.050480685067733}},{"attributes":{"OBJECTID":7916,"LANDMARKID":"6300000001414","LANDMARKCO":"303","LANDMARKNA":"兒童育樂中心旁平面停車場","LANDMARKAD":"6300006","ADDRESS":" ","TEL":" ","COUNTYNAME":"台北市","TOWNNAME":"大同區","MARKTYPE":"993","Class":"303"},"geometry":{"x":121.52045749459559,"y":25.074811249701916}},{"attributes":{"OBJECTID":7917,"LANDMARKID":"6300000001415","LANDMARKCO":"303","LANDMARKNA":"大稻埕公園停車場","LANDMARKAD":"6300006","ADDRESS":"台北市大同區歸綏街243號B1","TEL":" ","COUNTYNAME":"台北市","TOWNNAME":"大同區","MARKTYPE":"993","Class":"303"},"geometry":{"x":121.51076185199908,"y":25.058308498244635}},{"attributes":{"OBJECTID":7918,"LANDMARKID":"6300000001416","LANDMARKCO":"303","LANDMARKNA":"建成國中地下停車場","LANDMARKAD":"6300006","ADDRESS":"台北市大同區長安西路37號之1B1","TEL":" ","COUNTYNAME":"台北市","TOWNNAME":"大同區","MARKTYPE":"993","Class":"303"},"geometry":{"x":121.51707684902199,"y":25.04959168601852}},{"attributes":{"OBJECTID":7919,"LANDMARKID":"6300000001417","LANDMARKCO":"303","LANDMARKNA":"塔城公園地下停車場","LANDMARKAD":"6300006","ADDRESS":"台北市大同區塔城街11號B1","TEL":" ","COUNTYNAME":"台北市","TOWNNAME":"大同區","MARKTYPE":"993","Class":"303"},"geometry":{"x":121.51075075405801,"y":25.051724853844942}},{"attributes":{"OBJECTID":7920,"LANDMARKID":"6300000001418","LANDMARKCO":"303","LANDMARKNA":"3、5號水門外停車場","LANDMARKAD":"6300006","ADDRESS":"台北市大同區鄭州路底與民生西路底堤防外","TEL":" ","COUNTYNAME":"台北市","TOWNNAME":"大同區","MARKTYPE":"993","Class":"303"},"geometry":{"x":121.50694053449027,"y":25.052503011118382}},{"attributes":{"OBJECTID":7921,"LANDMARKID":"6300000001419","LANDMARKCO":"303","LANDMARKNA":"巨業重北停車場","LANDMARKAD":"6300006","ADDRESS":"台北市大同區重慶北路三段191巷13號","TEL":" ","COUNTYNAME":"台北市","TOWNNAME":"大同區","MARKTYPE":"993","Class":"303"},"geometry":{"x":121.51482062710396,"y":25.069511265310751}},{"attributes":{"OBJECTID":7922,"LANDMARKID":"6300000001420","LANDMARKCO":"303","LANDMARKNA":"市民大道塔城段停車場","LANDMARKAD":"6300006","ADDRESS":"台北市大同區鄭州路","TEL":" ","COUNTYNAME":"台北市","TOWNNAME":"大同區","MARKTYPE":"993","Class":"303"},"geometry":{"x":121.5094470307197,"y":25.050268492136691}},{"attributes":{"OBJECTID":7923,"LANDMARKID":"6300000001421","LANDMARKCO":"303","LANDMARKNA":"成淵高中地下停車場","LANDMARKAD":"6300006","ADDRESS":"台北市大同區承德路二段235之1號B1","TEL":" ","COUNTYNAME":"台北市","TOWNNAME":"大同區","MARKTYPE":"993","Class":"303"},"geometry":{"x":121.51852084396738,"y":25.061381466244598}},{"attributes":{"OBJECTID":7924,"LANDMARKID":"6300000001422","LANDMARKCO":"303","LANDMARKNA":"百車驛立體停車塔","LANDMARKAD":"6300006","ADDRESS":"台北市大同區華亭街32號","TEL":" ","COUNTYNAME":"台北市","TOWNNAME":"大同區","MARKTYPE":"993","Class":"303"},"geometry":{"x":121.51305201023712,"y":25.053516085879362}},{"attributes":{"OBJECTID":7925,"LANDMARKID":"6300000001423","LANDMARKCO":"303","LANDMARKNA":"赤峰停車場","LANDMARKAD":"6300006","ADDRESS":"台北市大同區圓環段二小段190地號","TEL":" ","COUNTYNAME":"台北市","TOWNNAME":"大同區","MARKTYPE":"993","Class":"303"},"geometry":{"x":121.51212791032587,"y":25.07657741222792}},{"attributes":{"OBJECTID":7926,"LANDMARKID":"6300000001424","LANDMARKCO":"303","LANDMARKNA":"重慶停車場","LANDMARKAD":"6300006","ADDRESS":"台北市大同區重慶北路一段26巷46弄3號","TEL":" ","COUNTYNAME":"台北市","TOWNNAME":"大同區","MARKTYPE":"993","Class":"303"},"geometry":{"x":121.51270969254395,"y":25.050394797804717}},{"attributes":{"OBJECTID":7927,"LANDMARKID":"6300000001425","LANDMARKCO":"303","LANDMARKNA":"國茶帝國花園廣場停車場","LANDMARKAD":"6300006","ADDRESS":"台北市大同區延平北路二段83號B4","TEL":" ","COUNTYNAME":"台北市","TOWNNAME":"大同區","MARKTYPE":"993","Class":"303"},"geometry":{"x":121.51175573558508,"y":25.056056053579447}},{"attributes":{"OBJECTID":7928,"LANDMARKID":"6300000001426","LANDMARKCO":"303","LANDMARKNA":"朝陽大樓室內停車場","LANDMARKAD":"6300006","ADDRESS":"台北市大同區民生西路78號B1","TEL":" ","COUNTYNAME":"台北市","TOWNNAME":"大同區","MARKTYPE":"993","Class":"303"},"geometry":{"x":121.52042160605556,"y":25.057450401543004}},{"attributes":{"OBJECTID":7929,"LANDMARKID":"6300000001427","LANDMARKCO":"303","LANDMARKNA":"新長越公司延平停車場","LANDMARKAD":"6300006","ADDRESS":"台北市大同區延平北路二段197號B2","TEL":" ","COUNTYNAME":"台北市","TOWNNAME":"大同區","MARKTYPE":"993","Class":"303"},"geometry":{"x":121.51154513071057,"y":25.059323191829247}},{"attributes":{"OBJECTID":7930,"LANDMARKID":"6300000001428","LANDMARKCO":"303","LANDMARKNA":"中興嘟嘟房停車場-大同站","LANDMARKAD":"6300006","ADDRESS":"台北市大同區蘭州街89巷22號","TEL":" ","COUNTYNAME":"台北市","TOWNNAME":"大同區","MARKTYPE":"993","Class":"303"},"geometry":{"x":121.51584782756605,"y":25.064321501447218}},{"attributes":{"OBJECTID":7931,"LANDMARKID":"6300000001429","LANDMARKCO":"303","LANDMARKNA":"慶昌橋下停車場","LANDMARKAD":"6300006","ADDRESS":"台北市大同區介於重慶北路與大龍街間","TEL":" ","COUNTYNAME":"台北市","TOWNNAME":"大同區","MARKTYPE":"993","Class":"303"},"geometry":{"x":121.51509337173668,"y":25.076369435563485}},{"attributes":{"OBJECTID":7932,"LANDMARKID":"6300000001430","LANDMARKCO":"303","LANDMARKNA":"震大華爾街立體停車場","LANDMARKAD":"6300006","ADDRESS":"台北市大同區重慶北路三段139號","TEL":" ","COUNTYNAME":"台北市","TOWNNAME":"大同區","MARKTYPE":"993","Class":"303"},"geometry":{"x":121.5139617639622,"y":25.068162938479283}},{"attributes":{"OBJECTID":7933,"LANDMARKID":"6300000001431","LANDMARKCO":"303","LANDMARKNA":"舊建成國中平面停車場","LANDMARKAD":"6300006","ADDRESS":"台北市大同區市民大道與承德路與華陰街","TEL":" ","COUNTYNAME":"台北市","TOWNNAME":"大同區","MARKTYPE":"993","Class":"303"},"geometry":{"x":121.51684598026951,"y":25.049461822384746}},{"attributes":{"OBJECTID":7934,"LANDMARKID":"6300000001432","LANDMARKCO":"303","LANDMARKNA":"Times(普客二四停車場)-民生西路停車場","LANDMARKAD":"6300006","ADDRESS":"北市大同區民生西路300號旁","TEL":" ","COUNTYNAME":"台北市","TOWNNAME":"大同區","MARKTYPE":"993","Class":"303"},"geometry":{"x":121.51222827694107,"y":25.056825230405128}},{"attributes":{"OBJECTID":7935,"LANDMARKID":"6300000001433","LANDMARKCO":"303","LANDMARKNA":"Times(普客二四停車場)-承德路停車場","LANDMARKAD":"6300006","ADDRESS":"北市大同區承德路3段239號旁","TEL":" ","COUNTYNAME":"台北市","TOWNNAME":"大同區","MARKTYPE":"993","Class":"303"},"geometry":{"x":121.51865188197122,"y":25.070841157173586}},{"attributes":{"OBJECTID":7936,"LANDMARKID":"6300000001434","LANDMARKCO":"303","LANDMARKNA":"Times(普客二四停車場)-民權西路停車場","LANDMARKAD":"6300006","ADDRESS":"北市大同區民權西路166號空地","TEL":" ","COUNTYNAME":"台北市","TOWNNAME":"大同區","MARKTYPE":"993","Class":"303"},"geometry":{"x":121.51544788952634,"y":25.062757675852499}},{"attributes":{"OBJECTID":7937,"LANDMARKID":"6300000001435","LANDMARKCO":"303","LANDMARKNA":"中興嘟嘟房停車場-太原站","LANDMARKAD":"6300006","ADDRESS":"台北市大同區太原路80號(近寧夏夜市)","TEL":"02-25592680","COUNTYNAME":"台北市","TOWNNAME":"大同區","MARKTYPE":"993","Class":"303"},"geometry":{"x":121.5155418142963,"y":25.051868352185242}},{"attributes":{"OBJECTID":7938,"LANDMARKID":"6300000002189","LANDMARKCO":"402","LANDMARKNA":"中華電信-台北雙連特約服務中心","LANDMARKAD":"6300006","ADDRESS":"台北市大同區民生西路75號","TEL":"02-25535656","COUNTYNAME":"台北市","TOWNNAME":"大同區","MARKTYPE":"994","Class":"4"},"geometry":{"x":121.51982321872731,"y":25.057668891106122}},{"attributes":{"OBJECTID":7939,"LANDMARKID":"6300000002190","LANDMARKCO":"402","LANDMARKNA":"中華電信-大龍峒服務中心","LANDMARKAD":"6300006","ADDRESS":"台北市承德路三段249號","TEL":"123或0800-080-123","COUNTYNAME":"台北市","TOWNNAME":"大同區","MARKTYPE":"994","Class":"4"},"geometry":{"x":121.51882902708743,"y":25.071307555078722}},{"attributes":{"OBJECTID":7940,"LANDMARKID":"6300000002191","LANDMARKCO":"402","LANDMARKNA":"遠傳電信-台北延平門市","LANDMARKAD":"6300006","ADDRESS":"台北市大同區延平北路三段26號","TEL":" ","COUNTYNAME":"台北市","TOWNNAME":"大同區","MARKTYPE":"994","Class":"4"},"geometry":{"x":121.51103147275356,"y":25.064182628467364}},{"attributes":{"OBJECTID":7941,"LANDMARKID":"6300000002192","LANDMARKCO":"402","LANDMARKNA":"威寶電信-台北延平北二特約服務中心","LANDMARKAD":"6300006","ADDRESS":"台北市大同區延平北路三段32之1號","TEL":"02-25973870","COUNTYNAME":"台北市","TOWNNAME":"大同區","MARKTYPE":"994","Class":"4"},"geometry":{"x":121.51102260989529,"y":25.064309084491057}},{"attributes":{"OBJECTID":7942,"LANDMARKID":"6300000002193","LANDMARKCO":"402","LANDMARKNA":"威寶電信-台北民族西特約服務中心","LANDMARKAD":"6300006","ADDRESS":"臺北市大同區民族西路65號","TEL":"(02)25919557","COUNTYNAME":"台北市","TOWNNAME":"大同區","MARKTYPE":"994","Class":"4"},"geometry":{"x":121.51881828831553,"y":25.068644354985317}},{"attributes":{"OBJECTID":7943,"LANDMARKID":"6300000002194","LANDMARKCO":"402","LANDMARKNA":"大眾電信(傑昇通信)-民生店","LANDMARKAD":"6300006","ADDRESS":"台北市大同區民生西路98號","TEL":"02-25583313","COUNTYNAME":"台北市","TOWNNAME":"大同區","MARKTYPE":"994","Class":"4"},"geometry":{"x":121.51990044914291,"y":25.057424589245844}},{"attributes":{"OBJECTID":7944,"LANDMARKID":"6300000002195","LANDMARKCO":"402","LANDMARKNA":"大眾電信-承德專賣店","LANDMARKAD":"6300006","ADDRESS":"台北市民族西路67號","TEL":"02-25853199","COUNTYNAME":"台北市","TOWNNAME":"大同區","MARKTYPE":"994","Class":"4"},"geometry":{"x":121.51869942197024,"y":25.068654214579393}},{"attributes":{"OBJECTID":7945,"LANDMARKID":"6300000002196","LANDMARKCO":"402","LANDMARKNA":"大眾電信(震旦通訊)-台北民族店","LANDMARKAD":"6300006","ADDRESS":"台北市民族西路73號","TEL":"02-25996333","COUNTYNAME":"台北市","TOWNNAME":"大同區","MARKTYPE":"994","Class":"4"},"geometry":{"x":121.51808496365697,"y":25.06866753321653}},{"attributes":{"OBJECTID":7946,"LANDMARKID":"6300000002197","LANDMARKCO":"402","LANDMARKNA":"大眾電信(傑昇通信)-承德店","LANDMARKAD":"6300006","ADDRESS":"台北市承德路三段165號","TEL":"02-25979088","COUNTYNAME":"台北市","TOWNNAME":"大同區","MARKTYPE":"994","Class":"4"},"geometry":{"x":121.51862616155313,"y":25.068194288587819}},{"attributes":{"OBJECTID":7947,"LANDMARKID":"6300000002198","LANDMARKCO":"402","LANDMARKNA":"大眾電信(傑昇通信)-重慶店","LANDMARKAD":"6300006","ADDRESS":"台北市重慶北路三段263號","TEL":"02-25972368","COUNTYNAME":"台北市","TOWNNAME":"大同區","MARKTYPE":"994","Class":"4"},"geometry":{"x":121.51401541634129,"y":25.071773784821385}},{"attributes":{"OBJECTID":7948,"LANDMARKID":"6300000002199","LANDMARKCO":"402","LANDMARKNA":"大眾電信-延平北專賣店","LANDMARKAD":"6300006","ADDRESS":"台北市大同區延平北路二段 138 號","TEL":"02-25576767","COUNTYNAME":"台北市","TOWNNAME":"大同區","MARKTYPE":"994","Class":"4"},"geometry":{"x":121.51150368804193,"y":25.057648727876423}},{"attributes":{"OBJECTID":7949,"LANDMARKID":"6300000002200","LANDMARKCO":"402","LANDMARKNA":"威寶電信-台北民生西特約服務中心","LANDMARKAD":"6300006","ADDRESS":"台北市大同區民生西路173號","TEL":"02-25572674","COUNTYNAME":"台北市","TOWNNAME":"大同區","MARKTYPE":"994","Class":"4"},"geometry":{"x":121.51718046460519,"y":25.057334290809532}},{"attributes":{"OBJECTID":7950,"LANDMARKID":"6300000003441","LANDMARKCO":"603","LANDMARKNA":"信洲大飯店","LANDMARKAD":"6300006","ADDRESS":"台北市大同區長安西路81號1-6樓","TEL":"02-25559222","COUNTYNAME":"台北市","TOWNNAME":"大同區","MARKTYPE":"996","Class":"6"},"geometry":{"x":121.51677032990717,"y":25.051032718589191}},{"attributes":{"OBJECTID":7951,"LANDMARKID":"6300000003442","LANDMARKCO":"603","LANDMARKNA":"白雪大旅社","LANDMARKAD":"6300006","ADDRESS":"台北市大同區太原路142-13號","TEL":"02-25558660","COUNTYNAME":"台北市","TOWNNAME":"大同區","MARKTYPE":"996","Class":"6"},"geometry":{"x":121.51613411529063,"y":25.053999294225545}},{"attributes":{"OBJECTID":7952,"LANDMARKID":"6300000003443","LANDMARKCO":"603","LANDMARKNA":"富順大飯店","LANDMARKAD":"6300006","ADDRESS":"台北市大同區南京西路177號","TEL":"02-25551016-10","COUNTYNAME":"台北市","TOWNNAME":"大同區","MARKTYPE":"996","Class":"6"},"geometry":{"x":121.51265848548786,"y":25.054042431371744}},{"attributes":{"OBJECTID":7953,"LANDMARKID":"6300000003444","LANDMARKCO":"603","LANDMARKNA":"獅城大飯店","LANDMARKAD":"6300006","ADDRESS":"台北市大同區華陰街179號3-5樓","TEL":"02-25591231","COUNTYNAME":"台北市","TOWNNAME":"大同區","MARKTYPE":"996","Class":"6"},"geometry":{"x":121.51539403748257,"y":25.050295442285137}},{"attributes":{"OBJECTID":7954,"LANDMARKID":"6300000003445","LANDMARKCO":"603","LANDMARKNA":"金龍大飯店","LANDMARKAD":"6300006","ADDRESS":"台北市大同區華陰街46號3樓","TEL":"02-25597146","COUNTYNAME":"台北市","TOWNNAME":"大同區","MARKTYPE":"996","Class":"6"},"geometry":{"x":121.5156298448895,"y":25.050050043156499}},{"attributes":{"OBJECTID":7955,"LANDMARKID":"6300000003446","LANDMARKCO":"603","LANDMARKNA":"梅山園大旅社","LANDMARKAD":"6300006","ADDRESS":"台北市大同區鄭州路29巷1-1號2-4樓","TEL":"02-25565950-2","COUNTYNAME":"台北市","TOWNNAME":"大同區","MARKTYPE":"996","Class":"6"},"geometry":{"x":121.5143205131693,"y":25.04971608958683}},{"attributes":{"OBJECTID":7956,"LANDMARKID":"6300000003447","LANDMARKCO":"603","LANDMARKNA":"建山大旅社","LANDMARKAD":"6300006","ADDRESS":"台北市大同區歸綏街182號2-4樓","TEL":"02-25570804","COUNTYNAME":"台北市","TOWNNAME":"大同區","MARKTYPE":"996","Class":"6"},"geometry":{"x":121.51224449486077,"y":25.058089885683426}},{"attributes":{"OBJECTID":7957,"LANDMARKID":"6300000003448","LANDMARKCO":"603","LANDMARKNA":"和泰大飯店","LANDMARKAD":"6300006","ADDRESS":"台北市大同區太原路156-2號5-6樓","TEL":"02-25558885-7","COUNTYNAME":"台北市","TOWNNAME":"大同區","MARKTYPE":"996","Class":"6"},"geometry":{"x":121.51637205990633,"y":25.054856883182584}},{"attributes":{"OBJECTID":7958,"LANDMARKID":"6300000003449","LANDMARKCO":"603","LANDMARKNA":"迎賓旅社","LANDMARKAD":"6300006","ADDRESS":"台北市大同區太原路23巷11號2-3樓","TEL":"02-25599170","COUNTYNAME":"台北市","TOWNNAME":"大同區","MARKTYPE":"996","Class":"6"},"geometry":{"x":121.51565245930973,"y":25.050383930692501}},{"attributes":{"OBJECTID":7959,"LANDMARKID":"6300000003450","LANDMARKCO":"603","LANDMARKNA":"彰化旅社","LANDMARKAD":"6300006","ADDRESS":"台北市大同區西寧北路49號1-5樓","TEL":"43-47號2-5樓","COUNTYNAME":"台北市","TOWNNAME":"大同區","MARKTYPE":"996","Class":"6"},"geometry":{"x":121.50889247666822,"y":25.054067828573388}},{"attributes":{"OBJECTID":7960,"LANDMARKID":"6300000003451","LANDMARKCO":"603","LANDMARKNA":"銀寶旅店","LANDMARKAD":"6300006","ADDRESS":"台北市大同區延平北路一段121號1-6樓","TEL":"02-25551130","COUNTYNAME":"台北市","TOWNNAME":"大同區","MARKTYPE":"996","Class":"6"},"geometry":{"x":121.51192518402918,"y":25.052864793111986}},{"attributes":{"OBJECTID":7961,"LANDMARKID":"6300000003452","LANDMARKCO":"603","LANDMARKNA":"百宣商務旅館","LANDMARKAD":"6300006","ADDRESS":"台北市大同區延平北路二段197號4樓","TEL":"02-25533044","COUNTYNAME":"台北市","TOWNNAME":"大同區","MARKTYPE":"996","Class":"6"},"geometry":{"x":121.51153947357264,"y":25.059322543238199}},{"attributes":{"OBJECTID":7962,"LANDMARKID":"6300000003453","LANDMARKCO":"603","LANDMARKNA":"東吳大飯店","LANDMARKAD":"6300006","ADDRESS":"台北市大同區延平北路二段258號1-10樓","TEL":"02-25571261","COUNTYNAME":"台北市","TOWNNAME":"大同區","MARKTYPE":"996","Class":"6"},"geometry":{"x":121.51129010301817,"y":25.06032639167946}},{"attributes":{"OBJECTID":7963,"LANDMARKID":"6300000003454","LANDMARKCO":"603","LANDMARKNA":"華大旅社","LANDMARKAD":"6300006","ADDRESS":"台北市大同區南京西路151號6-12樓","TEL":"02-25562468","COUNTYNAME":"台北市","TOWNNAME":"大同區","MARKTYPE":"996","Class":"6"},"geometry":{"x":121.51360059776266,"y":25.054108147512686}},{"attributes":{"OBJECTID":7964,"LANDMARKID":"6300000003455","LANDMARKCO":"603","LANDMARKNA":"賓王大旅社","LANDMARKAD":"6300006","ADDRESS":"台北市大同區南京西路163號3-4樓","TEL":"02-25555182","COUNTYNAME":"台北市","TOWNNAME":"大同區","MARKTYPE":"996","Class":"6"},"geometry":{"x":121.51318404924432,"y":25.054074914084214}},{"attributes":{"OBJECTID":7965,"LANDMARKID":"6300000003456","LANDMARKCO":"603","LANDMARKNA":"城市商旅","LANDMARKAD":"6300006","ADDRESS":"台北市大同區南京西路169號","TEL":"02-25507722","COUNTYNAME":"台北市","TOWNNAME":"大同區","MARKTYPE":"996","Class":"6"},"geometry":{"x":121.51273784610161,"y":25.054050911057811}},{"attributes":{"OBJECTID":7966,"LANDMARKID":"6300000003457","LANDMARKCO":"603","LANDMARKNA":"紫園旅社","LANDMARKAD":"6300006","ADDRESS":"台北市大同區南京西路18巷30號","TEL":"02-25557170","COUNTYNAME":"台北市","TOWNNAME":"大同區","MARKTYPE":"996","Class":"6"},"geometry":{"x":121.52004476378755,"y":25.050607362268369}},{"attributes":{"OBJECTID":7967,"LANDMARKID":"6300000003458","LANDMARKCO":"603","LANDMARKNA":"千慧賓館","LANDMARKAD":"6300006","ADDRESS":"台北市大同區南京西路22號7樓","TEL":"02-25552451-3","COUNTYNAME":"台北市","TOWNNAME":"大同區","MARKTYPE":"996","Class":"6"},"geometry":{"x":121.52001181891472,"y":25.052575743465816}},{"attributes":{"OBJECTID":7968,"LANDMARKID":"6300000003459","LANDMARKCO":"603","LANDMARKNA":"金弘旅社","LANDMARKAD":"6300006","ADDRESS":"台北市大同區南京西路316號4樓","TEL":"02-25554038","COUNTYNAME":"台北市","TOWNNAME":"大同區","MARKTYPE":"996","Class":"6"},"geometry":{"x":121.51295430100082,"y":25.053859824580154}},{"attributes":{"OBJECTID":7969,"LANDMARKID":"6300000003460","LANDMARKCO":"603","LANDMARKNA":"四季大飯店","LANDMARKAD":"6300006","ADDRESS":"台北市大同區南京西路326號1-9樓","TEL":"02-25554288","COUNTYNAME":"台北市","TOWNNAME":"大同區","MARKTYPE":"996","Class":"6"},"geometry":{"x":121.51279565621266,"y":25.053851891407909}},{"attributes":{"OBJECTID":7970,"LANDMARKID":"6300000003461","LANDMARKCO":"603","LANDMARKNA":"福來旅社","LANDMARKAD":"6300006","ADDRESS":"台北市大同區南京西路344巷13號1-4樓","TEL":"02-25550857","COUNTYNAME":"台北市","TOWNNAME":"大同區","MARKTYPE":"996","Class":"6"},"geometry":{"x":121.51222707558998,"y":25.05341343269766}},{"attributes":{"OBJECTID":7971,"LANDMARKID":"6300000003462","LANDMARKCO":"603","LANDMARKNA":"嘉榮大旅社","LANDMARKAD":"6300006","ADDRESS":"台北市大同區太原路28巷11號2-4樓","TEL":"02-25585887","COUNTYNAME":"台北市","TOWNNAME":"大同區","MARKTYPE":"996","Class":"6"},"geometry":{"x":121.51472824113181,"y":25.050083381675943}},{"attributes":{"OBJECTID":7972,"LANDMARKID":"6300000003463","LANDMARKCO":"603","LANDMARKNA":"梅軒商務旅店","LANDMARKAD":"6300006","ADDRESS":"台北市大同區太原路64號1-8樓","TEL":"02-25554142","COUNTYNAME":"台北市","TOWNNAME":"大同區","MARKTYPE":"996","Class":"6"},"geometry":{"x":121.51547473600961,"y":25.051649114073697}},{"attributes":{"OBJECTID":7973,"LANDMARKID":"6300000003464","LANDMARKCO":"603","LANDMARKNA":"宮林賓館","LANDMARKAD":"6300006","ADDRESS":"台北市大同區太原路79巷37號","TEL":"02-25568960","COUNTYNAME":"台北市","TOWNNAME":"大同區","MARKTYPE":"996","Class":"6"},"geometry":{"x":121.51664424653752,"y":25.051650016317019}},{"attributes":{"OBJECTID":7974,"LANDMARKID":"6300000003465","LANDMARKCO":"603","LANDMARKNA":"人人別館","LANDMARKAD":"6300006","ADDRESS":"台北市大同區民生西路178巷9號1-4樓","TEL":"02-25550619","COUNTYNAME":"台北市","TOWNNAME":"大同區","MARKTYPE":"996","Class":"6"},"geometry":{"x":121.51770455407143,"y":25.056771182125118}},{"attributes":{"OBJECTID":7975,"LANDMARKID":"6300000003466","LANDMARKCO":"603","LANDMARKNA":"悅來旅社","LANDMARKAD":"6300006","ADDRESS":"台北市大同區民生西路293號2-5樓","TEL":"02-25570395","COUNTYNAME":"台北市","TOWNNAME":"大同區","MARKTYPE":"996","Class":"6"},"geometry":{"x":121.51313790471268,"y":25.057063530054084}},{"attributes":{"OBJECTID":7976,"LANDMARKID":"6300000003467","LANDMARKCO":"603","LANDMARKNA":"啟文賓館","LANDMARKAD":"6300006","ADDRESS":"台北市大同區民樂街50號1-6樓","TEL":"02-25535888","COUNTYNAME":"台北市","TOWNNAME":"大同區","MARKTYPE":"996","Class":"6"},"geometry":{"x":121.5105622280758,"y":25.057216201841797}},{"attributes":{"OBJECTID":7977,"LANDMARKID":"6300000003468","LANDMARKCO":"603","LANDMARKNA":"橋泰商務旅館","LANDMARKAD":"6300006","ADDRESS":"台北市大同區延平北路三段4號6樓、6樓之1","TEL":"02-25859168","COUNTYNAME":"台北市","TOWNNAME":"大同區","MARKTYPE":"996","Class":"6"},"geometry":{"x":121.51101673108819,"y":25.063406344337999}},{"attributes":{"OBJECTID":7978,"LANDMARKID":"6300000003469","LANDMARKCO":"603","LANDMARKNA":"儷景旅社","LANDMARKAD":"6300006","ADDRESS":"台北市大同區承德路一段19巷15號1-5樓","TEL":"02-25567579","COUNTYNAME":"台北市","TOWNNAME":"大同區","MARKTYPE":"996","Class":"6"},"geometry":{"x":121.51753522188727,"y":25.050353386277333}},{"attributes":{"OBJECTID":7979,"LANDMARKID":"6300000003470","LANDMARKCO":"603","LANDMARKNA":"北門大旅社","LANDMARKAD":"6300006","ADDRESS":"台北市大同區長安西路145巷3號","TEL":"02-25567798","COUNTYNAME":"台北市","TOWNNAME":"大同區","MARKTYPE":"996","Class":"6"},"geometry":{"x":121.51497973981938,"y":25.051715745688742}},{"attributes":{"OBJECTID":7980,"LANDMARKID":"6300000003471","LANDMARKCO":"603","LANDMARKNA":"忠信旅社","LANDMARKAD":"6300006","ADDRESS":"台北市大同區長安西路177巷4號1-5樓","TEL":"02-25589103-4","COUNTYNAME":"台北市","TOWNNAME":"大同區","MARKTYPE":"996","Class":"6"},"geometry":{"x":121.51365320061061,"y":25.051895911683186}},{"attributes":{"OBJECTID":7981,"LANDMARKID":"6300000003472","LANDMARKCO":"603","LANDMARKNA":"皇后旅社","LANDMARKAD":"6300006","ADDRESS":"台北市大同區長安西路226號2-4樓","TEL":"02-25590489","COUNTYNAME":"台北市","TOWNNAME":"大同區","MARKTYPE":"996","Class":"6"},"geometry":{"x":121.51464967867906,"y":25.051356904695307}},{"attributes":{"OBJECTID":7982,"LANDMARKID":"6300000003473","LANDMARKCO":"603","LANDMARKNA":"福君大飯店","LANDMARKAD":"6300006","ADDRESS":"台北市大同區重慶北路一段62號5-10樓","TEL":"02-25551122","COUNTYNAME":"台北市","TOWNNAME":"大同區","MARKTYPE":"996","Class":"6"},"geometry":{"x":121.51386290236512,"y":25.052084053001654}},{"attributes":{"OBJECTID":7983,"LANDMARKID":"6300000003474","LANDMARKCO":"603","LANDMARKNA":"如山別館","LANDMARKAD":"6300006","ADDRESS":"台北市大同區重慶北路二段158號2-3樓","TEL":"02-25570597","COUNTYNAME":"台北市","TOWNNAME":"大同區","MARKTYPE":"996","Class":"6"},"geometry":{"x":121.51348848604545,"y":25.058893792182307}},{"attributes":{"OBJECTID":7984,"LANDMARKID":"6300000003381","LANDMARKCO":"601","LANDMARKNA":"三德大飯店","LANDMARKAD":"6300006","ADDRESS":"台北市大同區承德路3段49號","TEL":"02-2596-3111","COUNTYNAME":"台北市","TOWNNAME":"大同區","MARKTYPE":"996","Class":"6"},"geometry":{"x":121.51855033595454,"y":25.064863454518033}},{"attributes":{"OBJECTID":7985,"LANDMARKID":"6300000003338","LANDMARKCO":"511","LANDMARKNA":"寧夏圓環夜市","LANDMARKAD":"6300006","ADDRESS":"台北市大同區","TEL":" ","COUNTYNAME":"台北市","TOWNNAME":"大同區","MARKTYPE":"995","Class":"5"},"geometry":{"x":121.515497039908,"y":25.05671877626266}},{"attributes":{"OBJECTID":7986,"LANDMARKID":"6300000003339","LANDMARKCO":"511","LANDMARKNA":"飾品DIY專賣街","LANDMARKAD":"6300006","ADDRESS":"台北市大同區","TEL":" ","COUNTYNAME":"台北市","TOWNNAME":"大同區","MARKTYPE":"995","Class":"5"},"geometry":{"x":121.51185629636325,"y":25.052050711582307}},{"attributes":{"OBJECTID":7987,"LANDMARKID":"6300000003340","LANDMARKCO":"511","LANDMARKNA":"延三夜市(台北橋夜市)","LANDMARKAD":"6300006","ADDRESS":"台北市大同區","TEL":" ","COUNTYNAME":"台北市","TOWNNAME":"大同區","MARKTYPE":"995","Class":"5"},"geometry":{"x":121.51116801270078,"y":25.063937616872035}},{"attributes":{"OBJECTID":7988,"LANDMARKID":"6300000003341","LANDMARKCO":"511","LANDMARKNA":"台北地下街","LANDMARKAD":"6300006","ADDRESS":"台北市大同區","TEL":" ","COUNTYNAME":"台北市","TOWNNAME":"大同區","MARKTYPE":"995","Class":"5"},"geometry":{"x":121.51075652777804,"y":25.050111538835313}},{"attributes":{"OBJECTID":7989,"LANDMARKID":"6300000003342","LANDMARKCO":"511","LANDMARKNA":"迪化街南北雜貨專賣","LANDMARKAD":"6300006","ADDRESS":"台北市大同區迪化街一段","TEL":" ","COUNTYNAME":"台北市","TOWNNAME":"大同區","MARKTYPE":"995","Class":"5"},"geometry":{"x":121.50978381330272,"y":25.057548328629998}},{"attributes":{"OBJECTID":7990,"LANDMARKID":"6300000003343","LANDMARKCO":"511","LANDMARKNA":"民生西路傢俱街","LANDMARKAD":"6300006","ADDRESS":"台北市大同區","TEL":" ","COUNTYNAME":"台北市","TOWNNAME":"大同區","MARKTYPE":"995","Class":"5"},"geometry":{"x":121.51274189649358,"y":25.056975350074119}},{"attributes":{"OBJECTID":7991,"LANDMARKID":"6300000003344","LANDMARKCO":"511","LANDMARKNA":"太原路五金街","LANDMARKAD":"6300006","ADDRESS":"台北市大同區","TEL":" ","COUNTYNAME":"台北市","TOWNNAME":"大同區","MARKTYPE":"995","Class":"5"},"geometry":{"x":121.5170096911193,"y":25.056809579586613}},{"attributes":{"OBJECTID":7992,"LANDMARKID":"6300000003345","LANDMARKCO":"511","LANDMARKNA":"化工原料專賣街","LANDMARKAD":"6300006","ADDRESS":"台北市大同區","TEL":" ","COUNTYNAME":"台北市","TOWNNAME":"大同區","MARKTYPE":"995","Class":"5"},"geometry":{"x":121.5131317212018,"y":25.052883695658586}},{"attributes":{"OBJECTID":7993,"LANDMARKID":"6300000003346","LANDMARKCO":"511","LANDMARKNA":"布類專賣街","LANDMARKAD":"6300006","ADDRESS":"台北市大同區","TEL":" ","COUNTYNAME":"台北市","TOWNNAME":"大同區","MARKTYPE":"995","Class":"5"},"geometry":{"x":121.51066329064059,"y":25.053804765381361}},{"attributes":{"OBJECTID":7994,"LANDMARKID":"6300000003347","LANDMARKCO":"511","LANDMARKNA":"迪化街中藥材專賣街","LANDMARKAD":"6300006","ADDRESS":"台北市大同區","TEL":" ","COUNTYNAME":"台北市","TOWNNAME":"大同區","MARKTYPE":"995","Class":"5"},"geometry":{"x":121.50991826870924,"y":25.056160204672565}},{"attributes":{"OBJECTID":7995,"LANDMARKID":"6300000002429","LANDMARKCO":"405","LANDMARKNA":"中油加油站-民生東路站(中油直營)","LANDMARKAD":"6300001","ADDRESS":"台北市松山區三民路126號","TEL":"02-27671664","COUNTYNAME":"台北市","TOWNNAME":"松山區","MARKTYPE":"994","Class":"4"},"geometry":{"x":121.56390094029692,"y":25.059476925805232}},{"attributes":{"OBJECTID":7996,"LANDMARKID":"6300000002430","LANDMARKCO":"405","LANDMARKNA":"中油加油站-復興北路站(中油直營)","LANDMARKAD":"6300001","ADDRESS":"台北市松山區復興北路31號","TEL":"02-27112342","COUNTYNAME":"台北市","TOWNNAME":"松山區","MARKTYPE":"994","Class":"4"},"geometry":{"x":121.54418059543539,"y":25.049848871184}},{"attributes":{"OBJECTID":7997,"LANDMARKID":"6300000002431","LANDMARKCO":"405","LANDMARKNA":"中油加油站-光復北路站(中油直營)","LANDMARKAD":"6300001","ADDRESS":"台北市松山區光復北路9號","TEL":"02-27674900","COUNTYNAME":"台北市","TOWNNAME":"松山區","MARKTYPE":"994","Class":"4"},"geometry":{"x":121.55799993938751,"y":25.049256538927761}},{"attributes":{"OBJECTID":7998,"LANDMARKID":"6300000002185","LANDMARKCO":"402","LANDMARKNA":"My Phone台灣大哥大-台北民生東直營服務中心","LANDMARKAD":"6300001","ADDRESS":"台北市松山區民生東路4段71號","TEL":" ","COUNTYNAME":"台北市","TOWNNAME":"松山區","MARKTYPE":"994","Class":"4"},"geometry":{"x":121.55121586843185,"y":25.058030966697185}},{"attributes":{"OBJECTID":7999,"LANDMARKID":"6300000002186","LANDMARKCO":"402","LANDMARKNA":"My Phone台灣大哥大-台北八德直營服務中心","LANDMARKAD":"6300001","ADDRESS":"台北市松山區八德路三段34號","TEL":" ","COUNTYNAME":"台北市","TOWNNAME":"松山區","MARKTYPE":"994","Class":"4"},"geometry":{"x":121.5520263204635,"y":25.048076012644778}},{"attributes":{"OBJECTID":8000,"LANDMARKID":"6300000002187","LANDMARKCO":"402","LANDMARKNA":"My Phone台灣大哥大-松山－東興","LANDMARKAD":"6300001","ADDRESS":"台北市松山區東興路28號","TEL":"02-27489393","COUNTYNAME":"台北市","TOWNNAME":"松山區","MARKTYPE":"994","Class":"4"},"geometry":{"x":121.56553818032029,"y":25.048495899544054}}]}