{"displayFieldName":"COUNTYNAME","fieldAliases":{"OBJECTID":"OBJECTID","LANDMARKID":"LANDMARKID","LANDMARKCO":"LANDMARKCO","LANDMARKNA":"LANDMARKNA","LANDMARKAD":"LANDMARKAD","ADDRESS":"ADDRESS","TEL":"TEL","COUNTYNAME":"COUNTYNAME","TOWNNAME":"TOWNNAME","MARKTYPE":"MARKTYPE","Class":"Class"},"geometryType":"esriGeometryPoint","spatialReference":{"wkid":4326},"fields":[{"name":"OBJECTID","type":"esriFieldTypeOID","alias":"OBJECTID"},{"name":"LANDMARKID","type":"esriFieldTypeString","alias":"LANDMARKID","length":15},{"name":"LANDMARKCO","type":"esriFieldTypeString","alias":"LANDMARKCO","length":15},{"name":"LANDMARKNA","type":"esriFieldTypeString","alias":"LANDMARKNA","length":50},{"name":"LANDMARKAD","type":"esriFieldTypeString","alias":"LANDMARKAD","length":15},{"name":"ADDRESS","type":"esriFieldTypeString","alias":"ADDRESS","length":56},{"name":"TEL","type":"esriFieldTypeString","alias":"TEL","length":36},{"name":"COUNTYNAME","type":"esriFieldTypeString","alias":"COUNTYNAME","length":15},{"name":"TOWNNAME","type":"esriFieldTypeString","alias":"TOWNNAME","length":13},{"name":"MARKTYPE","type":"esriFieldTypeString","alias":"MARKTYPE","length":12},{"name":"Class","type":"esriFieldTypeString","alias":"Class","length":5}],"features":[{"attributes":{"OBJECTID":11601,"LANDMARKID":"1002100000271","LANDMARKCO":"303","LANDMARKNA":"鹿耳門聖母廟停車場","LANDMARKAD":"1002106","ADDRESS":"台南市 安南區城安路160號","TEL":" ","COUNTYNAME":"台南市","TOWNNAME":"安南區","MARKTYPE":"993","Class":"303"},"geometry":{"x":120.12726682161284,"y":23.066744570854773}},{"attributes":{"OBJECTID":11602,"LANDMARKID":"1002100000254","LANDMARKCO":"302","LANDMARKNA":"台南汽車客運大同站","LANDMARKAD":"1002106","ADDRESS":"台南市安南區","TEL":" ","COUNTYNAME":"台南市","TOWNNAME":"安南區","MARKTYPE":"993","Class":"302"},"geometry":{"x":120.22169514507026,"y":23.071782314490818}},{"attributes":{"OBJECTID":11603,"LANDMARKID":"1002100000255","LANDMARKCO":"302","LANDMARKNA":"台南汽車客運安南總站","LANDMARKAD":"1002106","ADDRESS":"台南市安南區","TEL":" ","COUNTYNAME":"台南市","TOWNNAME":"安南區","MARKTYPE":"993","Class":"302"},"geometry":{"x":120.17777660495533,"y":23.048372825727309}},{"attributes":{"OBJECTID":11604,"LANDMARKID":"1002100000267","LANDMARKCO":"303","LANDMARKNA":"鹿耳門天后宮停車場(三)","LANDMARKAD":"1002106","ADDRESS":"台南市安南區顯草街三段1巷236號","TEL":"06-2842400","COUNTYNAME":"台南市","TOWNNAME":"安南區","MARKTYPE":"993","Class":"303"},"geometry":{"x":120.12423852556981,"y":23.037958575671034}},{"attributes":{"OBJECTID":11605,"LANDMARKID":"1002100000268","LANDMARKCO":"303","LANDMARKNA":"鹿耳門天后宮停車場(二)","LANDMARKAD":"1002106","ADDRESS":"台南市安南區顯草街三段1巷236號","TEL":"06-2842400","COUNTYNAME":"台南市","TOWNNAME":"安南區","MARKTYPE":"993","Class":"303"},"geometry":{"x":120.1235947485457,"y":23.036853915337666}},{"attributes":{"OBJECTID":11606,"LANDMARKID":"1002100000269","LANDMARKCO":"303","LANDMARKNA":"鹿耳門天后宮停車場(一)","LANDMARKAD":"1002106","ADDRESS":"台南市安南區顯草街三段1巷236號","TEL":"06-2842400","COUNTYNAME":"台南市","TOWNNAME":"安南區","MARKTYPE":"993","Class":"303"},"geometry":{"x":120.12471860566157,"y":23.036879049265252}},{"attributes":{"OBJECTID":11607,"LANDMARKID":"1002100000330","LANDMARKCO":"402","LANDMARKNA":"中華電信-安南服務中心","LANDMARKAD":"1002106","ADDRESS":"台南市安中路二段300號","TEL":"123或0800-080-123","COUNTYNAME":"台南市","TOWNNAME":"安南區","MARKTYPE":"994","Class":"4"},"geometry":{"x":120.18513561649071,"y":23.04704492905211}},{"attributes":{"OBJECTID":11608,"LANDMARKID":"1002100000331","LANDMARKCO":"402","LANDMARKNA":"中華電信-台南海佃特約服務中心","LANDMARKAD":"1002106","ADDRESS":"台南市海佃路一段192號","TEL":"06-2597588","COUNTYNAME":"台南市","TOWNNAME":"安南區","MARKTYPE":"994","Class":"4"},"geometry":{"x":120.1916981572496,"y":23.024855504165483}},{"attributes":{"OBJECTID":11609,"LANDMARKID":"1002100000332","LANDMARKCO":"402","LANDMARKNA":"遠傳電信-台南安南門市","LANDMARKAD":"1002106","ADDRESS":"台南市安南區安和路一段308號","TEL":" ","COUNTYNAME":"台南市","TOWNNAME":"安南區","MARKTYPE":"994","Class":"4"},"geometry":{"x":120.2126339346904,"y":23.032481502886416}},{"attributes":{"OBJECTID":11610,"LANDMARKID":"1002100000333","LANDMARKCO":"402","LANDMARKNA":"威寶電信-台南海佃特約服務中心","LANDMARKAD":"1002106","ADDRESS":"台南市安南區海佃路一段282號","TEL":"06-3501831","COUNTYNAME":"台南市","TOWNNAME":"安南區","MARKTYPE":"994","Class":"4"},"geometry":{"x":120.19134567454293,"y":23.026356040399435}},{"attributes":{"OBJECTID":11611,"LANDMARKID":"1002100000334","LANDMARKCO":"402","LANDMARKNA":"威寶電信-台南安和特約服務中心","LANDMARKAD":"1002106","ADDRESS":"台南市安南區安和路一段320號","TEL":"06-2567093","COUNTYNAME":"台南市","TOWNNAME":"安南區","MARKTYPE":"994","Class":"4"},"geometry":{"x":120.21259333718361,"y":23.032616554644243}},{"attributes":{"OBJECTID":11612,"LANDMARKID":"1002100000685","LANDMARKCO":"603","LANDMARKNA":"威妮斯汽車商務旅館","LANDMARKAD":"1002106","ADDRESS":"台南市安南區北安路三段308號","TEL":"06-2554785","COUNTYNAME":"台南市","TOWNNAME":"安南區","MARKTYPE":"996","Class":"6"},"geometry":{"x":120.2057038316829,"y":23.044097879383301}},{"attributes":{"OBJECTID":11613,"LANDMARKID":"1002100000686","LANDMARKCO":"603","LANDMARKNA":"長和大旅社","LANDMARKAD":"1002106","ADDRESS":"台南市安南區長和路二段81號","TEL":"06-3567738","COUNTYNAME":"台南市","TOWNNAME":"安南區","MARKTYPE":"996","Class":"6"},"geometry":{"x":120.22213883322448,"y":23.063742265074634}},{"attributes":{"OBJECTID":11614,"LANDMARKID":"1002100000687","LANDMARKCO":"603","LANDMARKNA":"樺谷大飯店","LANDMARKAD":"1002106","ADDRESS":"台南市安南區海佃路一段254號","TEL":"06-2582101-8","COUNTYNAME":"台南市","TOWNNAME":"安南區","MARKTYPE":"996","Class":"6"},"geometry":{"x":120.19158863255721,"y":23.025618034330961}},{"attributes":{"OBJECTID":11615,"LANDMARKID":"1002100000545","LANDMARKCO":"505","LANDMARKNA":"財神爺遊樂區(停)","LANDMARKAD":"1002106","ADDRESS":"台南市安南區公學路五段122號","TEL":" ","COUNTYNAME":"台南市","TOWNNAME":"安南區","MARKTYPE":"995","Class":"5"},"geometry":{"x":120.17049437479926,"y":23.068217067250057}},{"attributes":{"OBJECTID":11616,"LANDMARKID":"1002100000546","LANDMARKCO":"505","LANDMARKNA":"夢幻水城","LANDMARKAD":"1002106","ADDRESS":"台南市安南區城西街三段1105巷121弄146號","TEL":"06-2575681","COUNTYNAME":"台南市","TOWNNAME":"安南區","MARKTYPE":"995","Class":"5"},"geometry":{"x":120.07544672254657,"y":23.04659762744074}},{"attributes":{"OBJECTID":11617,"LANDMARKID":"1002100000547","LANDMARKCO":"505","LANDMARKNA":"悟智樂園(停)","LANDMARKAD":"1002106","ADDRESS":"台南市安南區城北路245巷160號","TEL":" ","COUNTYNAME":"台南市","TOWNNAME":"安南區","MARKTYPE":"995","Class":"5"},"geometry":{"x":120.12584916230921,"y":23.068444146347488}},{"attributes":{"OBJECTID":11618,"LANDMARKID":"1002100000401","LANDMARKCO":"405","LANDMARKNA":"千越加油站-文賢站(中油)","LANDMARKAD":"1002104","ADDRESS":"台南市中西區文賢路415號","TEL":"06-2506366","COUNTYNAME":"台南市","TOWNNAME":"北區","MARKTYPE":"994","Class":"4"},"geometry":{"x":120.19354947790049,"y":23.009430635526307}},{"attributes":{"OBJECTID":11619,"LANDMARKID":"1002100000402","LANDMARKCO":"405","LANDMARKNA":"統一速邁樂加油站-小北加油站(中油)","LANDMARKAD":"1002104","ADDRESS":"台南市西門路三段228號","TEL":" ","COUNTYNAME":"台南市","TOWNNAME":"北區","MARKTYPE":"994","Class":"4"},"geometry":{"x":120.20457372023994,"y":23.00360319555568}},{"attributes":{"OBJECTID":11620,"LANDMARKID":"1002100000403","LANDMARKCO":"405","LANDMARKNA":"千越加油站-開元站(中油)","LANDMARKAD":"1002104","ADDRESS":"台南市北區元寶里開元路467號","TEL":"06-2381886","COUNTYNAME":"台南市","TOWNNAME":"北區","MARKTYPE":"994","Class":"4"},"geometry":{"x":120.22390050607528,"y":23.009777320284854}},{"attributes":{"OBJECTID":11621,"LANDMARKID":"1002100000404","LANDMARKCO":"405","LANDMARKNA":"中油加油站-成功路站(刷卡自助)(中油直營)","LANDMARKAD":"1002104","ADDRESS":"台南市北區成功路16號","TEL":"06-2222894","COUNTYNAME":"台南市","TOWNNAME":"北區","MARKTYPE":"994","Class":"4"},"geometry":{"x":120.20928300654316,"y":22.997907795009496}},{"attributes":{"OBJECTID":11622,"LANDMARKID":"1002100000405","LANDMARKCO":"405","LANDMARKNA":"千越加油站-西門站(中油)","LANDMARKAD":"1002104","ADDRESS":"台南市北區西門路四段239號","TEL":"06-2516899","COUNTYNAME":"台南市","TOWNNAME":"北區","MARKTYPE":"994","Class":"4"},"geometry":{"x":120.20856044895191,"y":23.011777966185356}},{"attributes":{"OBJECTID":11623,"LANDMARKID":"1002100000406","LANDMARKCO":"405","LANDMARKNA":"統一速邁樂加油站-西門加油站(中油)","LANDMARKAD":"1002104","ADDRESS":"台南市北區成功路368號","TEL":" ","COUNTYNAME":"台南市","TOWNNAME":"北區","MARKTYPE":"994","Class":"4"},"geometry":{"x":120.20070746553425,"y":23.000090623362098}},{"attributes":{"OBJECTID":11624,"LANDMARKID":"1002100000407","LANDMARKCO":"405","LANDMARKNA":"統一速邁樂加油站-中華西站加油站(中油)","LANDMARKAD":"1002104","ADDRESS":"台南市中華北路一段76號","TEL":" ","COUNTYNAME":"台南市","TOWNNAME":"北區","MARKTYPE":"994","Class":"4"},"geometry":{"x":120.18592141986623,"y":23.008560464982114}},{"attributes":{"OBJECTID":11625,"LANDMARKID":"1002100000408","LANDMARKCO":"405","LANDMARKNA":"千越加油站-中華北站(中油)","LANDMARKAD":"1002104","ADDRESS":"台南市北區中華北路一段72號","TEL":"06-3583186","COUNTYNAME":"台南市","TOWNNAME":"北區","MARKTYPE":"994","Class":"4"},"geometry":{"x":120.18592326336284,"y":23.008519358655366}},{"attributes":{"OBJECTID":11626,"LANDMARKID":"1002100000409","LANDMARKCO":"405","LANDMARKNA":"中油加油站-前鋒站(中油直營)","LANDMARKAD":"1002104","ADDRESS":"台南市北區前鋒路283號","TEL":"06-2355962","COUNTYNAME":"台南市","TOWNNAME":"北區","MARKTYPE":"994","Class":"4"},"geometry":{"x":120.21505202211097,"y":23.004502820288501}},{"attributes":{"OBJECTID":11627,"LANDMARKID":"1002100000410","LANDMARKCO":"405","LANDMARKNA":"統一速邁樂加油站-小北二站加油站(中油)","LANDMARKAD":"1002104","ADDRESS":"台南市北區西門路四段339號","TEL":" ","COUNTYNAME":"台南市","TOWNNAME":"北區","MARKTYPE":"994","Class":"4"},"geometry":{"x":120.20981973215717,"y":23.01513647734388}},{"attributes":{"OBJECTID":11628,"LANDMARKID":"1002100000411","LANDMARKCO":"405","LANDMARKNA":"中油加油站-中華石油公園南路站","LANDMARKAD":"1002104","ADDRESS":"台南市北區公園南路211號","TEL":"06-2208327","COUNTYNAME":"台南市","TOWNNAME":"北區","MARKTYPE":"994","Class":"4"},"geometry":{"x":120.21168435340113,"y":23.000440255140255}},{"attributes":{"OBJECTID":11629,"LANDMARKID":"1002100000412","LANDMARKCO":"405","LANDMARKNA":"中油加油站-公園路站(刷卡自助)(中油直營)","LANDMARKAD":"1002104","ADDRESS":"台南市北區公園路721號","TEL":"06-2517454","COUNTYNAME":"台南市","TOWNNAME":"北區","MARKTYPE":"994","Class":"4"},"geometry":{"x":120.21493890897396,"y":23.017168579885411}},{"attributes":{"OBJECTID":11630,"LANDMARKID":"1002100000335","LANDMARKCO":"402","LANDMARKNA":"My Phone台灣大哥大-台南公園直營服務中心","LANDMARKAD":"1002104","ADDRESS":"台南市北區公園路591-44號","TEL":" ","COUNTYNAME":"台南市","TOWNNAME":"北區","MARKTYPE":"994","Class":"4"},"geometry":{"x":120.21165314872663,"y":23.013129199817037}},{"attributes":{"OBJECTID":11631,"LANDMARKID":"1002100000336","LANDMARKCO":"402","LANDMARKNA":"亞太行動寬頻電信-台南開元加盟服務中心","LANDMARKAD":"1002104","ADDRESS":"台南市北區開元路120號","TEL":"06-2087756","COUNTYNAME":"台南市","TOWNNAME":"北區","MARKTYPE":"994","Class":"4"},"geometry":{"x":120.21838886880938,"y":23.006576377747759}},{"attributes":{"OBJECTID":11632,"LANDMARKID":"1002100000321","LANDMARKCO":"401","LANDMARKNA":"陳志誠耳鼻喉科醫院","LANDMARKAD":"1002104","ADDRESS":"台南市北區公園路315之1號","TEL":"06-2210423","COUNTYNAME":"台南市","TOWNNAME":"北區","MARKTYPE":"994","Class":"4"},"geometry":{"x":120.21009690614784,"y":23.003569059872074}},{"attributes":{"OBJECTID":11633,"LANDMARKID":"1002100000322","LANDMARKCO":"401","LANDMARKNA":"美德中醫醫院","LANDMARKAD":"1002104","ADDRESS":"台南市北區公園路661號","TEL":"06-2517956","COUNTYNAME":"台南市","TOWNNAME":"北區","MARKTYPE":"994","Class":"4"},"geometry":{"x":120.21392867342202,"y":23.015982474977903}},{"attributes":{"OBJECTID":11634,"LANDMARKID":"1002100000323","LANDMARKCO":"401","LANDMARKNA":"開元寺慈愛醫院","LANDMARKAD":"1002104","ADDRESS":"台南市北園街89號之1","TEL":"06-2384111","COUNTYNAME":"台南市","TOWNNAME":"北區","MARKTYPE":"994","Class":"4"},"geometry":{"x":120.22280816313402,"y":23.011875123339006}},{"attributes":{"OBJECTID":11635,"LANDMARKID":"1002100000324","LANDMARKCO":"401","LANDMARKNA":"國立成功大學醫學院附醫院","LANDMARKAD":"1002104","ADDRESS":"台南市勝利路138號","TEL":"06-2353535","COUNTYNAME":"台南市","TOWNNAME":"北區","MARKTYPE":"994","Class":"4"},"geometry":{"x":120.2192069226499,"y":23.002222920409473}},{"attributes":{"OBJECTID":11636,"LANDMARKID":"1002100000548","LANDMARKCO":"507","LANDMARKNA":"開元寺","LANDMARKAD":"1002104","ADDRESS":"台南市北區開元里北園街89號","TEL":" ","COUNTYNAME":"台南市","TOWNNAME":"北區","MARKTYPE":"995","Class":"5"},"geometry":{"x":120.22236477493941,"y":23.011915090750243}},{"attributes":{"OBJECTID":11637,"LANDMARKID":"1002100000549","LANDMARKCO":"507","LANDMARKNA":"開基天后宮","LANDMARKAD":"1002104","ADDRESS":"台南市北區重光里自強街12號","TEL":" ","COUNTYNAME":"台南市","TOWNNAME":"北區","MARKTYPE":"995","Class":"5"},"geometry":{"x":120.2023882728858,"y":22.999569386792313}},{"attributes":{"OBJECTID":11638,"LANDMARKID":"1002100000550","LANDMARKCO":"507","LANDMARKNA":"台南三山國王廟","LANDMARKAD":"1002104","ADDRESS":"台南市北區元和里西門路三段100號","TEL":" ","COUNTYNAME":"台南市","TOWNNAME":"北區","MARKTYPE":"995","Class":"5"},"geometry":{"x":120.20259453192146,"y":23.001144675881825}},{"attributes":{"OBJECTID":11639,"LANDMARKID":"1002100000551","LANDMARKCO":"507","LANDMARKNA":"大觀音亭","LANDMARKAD":"1002104","ADDRESS":"台南市北區大公里成功路86號","TEL":" ","COUNTYNAME":"台南市","TOWNNAME":"北區","MARKTYPE":"995","Class":"5"},"geometry":{"x":120.20601461276105,"y":22.998402095003765}},{"attributes":{"OBJECTID":11640,"LANDMARKID":"1002100000552","LANDMARKCO":"507","LANDMARKNA":"西華堂","LANDMARKAD":"1002104","ADDRESS":"台南市北區西華里西華街59巷16號","TEL":" ","COUNTYNAME":"台南市","TOWNNAME":"北區","MARKTYPE":"995","Class":"5"},"geometry":{"x":120.20999141795585,"y":22.998318243196806}},{"attributes":{"OBJECTID":11641,"LANDMARKID":"1002100000553","LANDMARKCO":"507","LANDMARKNA":"重道崇文坊","LANDMARKAD":"1002104","ADDRESS":"台南市北區北門里公園路356號","TEL":" ","COUNTYNAME":"台南市","TOWNNAME":"北區","MARKTYPE":"995","Class":"5"},"geometry":{"x":120.21145106878279,"y":23.001956000704343}},{"attributes":{"OBJECTID":11642,"LANDMARKID":"1002100000554","LANDMARKCO":"507","LANDMARKNA":"烏鬼井","LANDMARKAD":"1002104","ADDRESS":"台南市北區成朔里","TEL":" ","COUNTYNAME":"台南市","TOWNNAME":"北區","MARKTYPE":"995","Class":"5"},"geometry":{"x":120.20389713795898,"y":23.002023405300903}},{"attributes":{"OBJECTID":11643,"LANDMARKID":"1002100000555","LANDMARKCO":"507","LANDMARKNA":"台南興濟宮","LANDMARKAD":"1002104","ADDRESS":"台南市北區大公里成功路86號","TEL":" ","COUNTYNAME":"台南市","TOWNNAME":"北區","MARKTYPE":"995","Class":"5"},"geometry":{"x":120.20630537794557,"y":22.99841351429831}},{"attributes":{"OBJECTID":11644,"LANDMARKID":"1002100000556","LANDMARKCO":"507","LANDMARKNA":"原台南中學校講堂","LANDMARKAD":"1002104","ADDRESS":"台南市北區北門路二段125號","TEL":" ","COUNTYNAME":"台南市","TOWNNAME":"北區","MARKTYPE":"995","Class":"5"},"geometry":{"x":120.2133613186769,"y":23.00426001229442}},{"attributes":{"OBJECTID":11645,"LANDMARKID":"1002100000528","LANDMARKCO":"408","LANDMARKNA":"郵局-台南成功路郵局","LANDMARKAD":"1002104","ADDRESS":"台南市成功路6號","TEL":"(06)2267-962","COUNTYNAME":"台南市","TOWNNAME":"北區","MARKTYPE":"994","Class":"4"},"geometry":{"x":120.21047441338526,"y":22.997662684776024}},{"attributes":{"OBJECTID":11646,"LANDMARKID":"1002100000529","LANDMARKCO":"408","LANDMARKNA":"郵局-台南開元路郵局","LANDMARKAD":"1002104","ADDRESS":"台南市開元路162號","TEL":"(06)2371-330","COUNTYNAME":"台南市","TOWNNAME":"北區","MARKTYPE":"994","Class":"4"},"geometry":{"x":120.21983803832029,"y":23.00694723211204}},{"attributes":{"OBJECTID":11647,"LANDMARKID":"1002100000530","LANDMARKCO":"408","LANDMARKNA":"郵局-台南大光郵局","LANDMARKAD":"1002104","ADDRESS":"台南市長榮路5段266號","TEL":"(06)2516-481","COUNTYNAME":"台南市","TOWNNAME":"北區","MARKTYPE":"994","Class":"4"},"geometry":{"x":120.21794706743722,"y":23.012983471105972}},{"attributes":{"OBJECTID":11648,"LANDMARKID":"1002100000531","LANDMARKCO":"408","LANDMARKNA":"郵局-台南北小北郵局","LANDMARKAD":"1002104","ADDRESS":"台南市西門路4段482號","TEL":"(06)2516-135","COUNTYNAME":"台南市","TOWNNAME":"北區","MARKTYPE":"994","Class":"4"},"geometry":{"x":120.21102599755135,"y":23.016441892000163}},{"attributes":{"OBJECTID":11649,"LANDMARKID":"1002100000532","LANDMARKCO":"408","LANDMARKNA":"郵局-台南南小北郵局","LANDMARKAD":"1002104","ADDRESS":"台南市西門路3段214號","TEL":"(06)2267-420","COUNTYNAME":"台南市","TOWNNAME":"北區","MARKTYPE":"994","Class":"4"},"geometry":{"x":120.20427562386455,"y":23.003353617052657}},{"attributes":{"OBJECTID":11650,"LANDMARKID":"1002100000533","LANDMARKCO":"408","LANDMARKNA":"郵局-台南西華郵局","LANDMARKAD":"1002104","ADDRESS":"台南市公園路176-1號","TEL":"(06)2288-491","COUNTYNAME":"台南市","TOWNNAME":"北區","MARKTYPE":"994","Class":"4"},"geometry":{"x":120.20805733020703,"y":22.999565595980457}},{"attributes":{"OBJECTID":11651,"LANDMARKID":"1002100000534","LANDMARKCO":"408","LANDMARKNA":"郵局-台南文元郵局","LANDMARKAD":"1002104","ADDRESS":"台南市北區文賢路365巷1號","TEL":"(06)2585-364","COUNTYNAME":"台南市","TOWNNAME":"北區","MARKTYPE":"994","Class":"4"},"geometry":{"x":120.19346909191773,"y":23.00772725819921}},{"attributes":{"OBJECTID":11652,"LANDMARKID":"1002100000541","LANDMARKCO":"409","LANDMARKNA":"台南市農會","LANDMARKAD":"1002104","ADDRESS":"台南市北區成功路434號","TEL":"06-2206623","COUNTYNAME":"台南市","TOWNNAME":"北區","MARKTYPE":"994","Class":"4"},"geometry":{"x":120.19791464610765,"y":23.001086945107456}},{"attributes":{"OBJECTID":11653,"LANDMARKID":"1002100000376","LANDMARKCO":"404","LANDMARKNA":"台灣自來水台南服務所","LANDMARKAD":"1002104","ADDRESS":"台南市北區開元路67號","TEL":"06-2370021","COUNTYNAME":"台南市","TOWNNAME":"北區","MARKTYPE":"994","Class":"4"},"geometry":{"x":120.21680854944125,"y":23.00637653457683}},{"attributes":{"OBJECTID":11654,"LANDMARKID":"1002100000377","LANDMARKCO":"404","LANDMARKNA":"台灣省自來水東北區服務所","LANDMARKAD":"1002104","ADDRESS":"台南市北區開元路67號","TEL":" ","COUNTYNAME":"台南市","TOWNNAME":"北區","MARKTYPE":"994","Class":"4"},"geometry":{"x":120.21629955257536,"y":23.006258284258291}},{"attributes":{"OBJECTID":11655,"LANDMARKID":"1002100000475","LANDMARKCO":"406","LANDMARKNA":"中山公園","LANDMARKAD":"1002104","ADDRESS":"台南市北區","TEL":" ","COUNTYNAME":"台南市","TOWNNAME":"北區","MARKTYPE":"994","Class":"4"},"geometry":{"x":120.21117028596542,"y":23.00227620260841}},{"attributes":{"OBJECTID":11656,"LANDMARKID":"1002100000476","LANDMARKCO":"406","LANDMARKNA":"育德園公園","LANDMARKAD":"1002104","ADDRESS":"台南市北區","TEL":" ","COUNTYNAME":"台南市","TOWNNAME":"北區","MARKTYPE":"994","Class":"4"},"geometry":{"x":120.20130870257672,"y":23.006865170345705}},{"attributes":{"OBJECTID":11657,"LANDMARKID":"1002100000477","LANDMARKCO":"406","LANDMARKNA":"連雅堂紀念公園","LANDMARKAD":"1002104","ADDRESS":"台南市北區","TEL":" ","COUNTYNAME":"台南市","TOWNNAME":"北區","MARKTYPE":"994","Class":"4"},"geometry":{"x":120.1991854924844,"y":23.003187012320328}},{"attributes":{"OBJECTID":11658,"LANDMARKID":"1002100000478","LANDMARKCO":"406","LANDMARKNA":"小東公園","LANDMARKAD":"1002104","ADDRESS":"台南市北區","TEL":" ","COUNTYNAME":"台南市","TOWNNAME":"北區","MARKTYPE":"994","Class":"4"},"geometry":{"x":120.22597706073179,"y":23.001309616036686}},{"attributes":{"OBJECTID":11659,"LANDMARKID":"1002100000479","LANDMARKCO":"406","LANDMARKNA":"實踐社區公園","LANDMARKAD":"1002104","ADDRESS":"台南市北區","TEL":" ","COUNTYNAME":"台南市","TOWNNAME":"北區","MARKTYPE":"994","Class":"4"},"geometry":{"x":120.21959344860322,"y":23.013329204104728}},{"attributes":{"OBJECTID":11660,"LANDMARKID":"1002100000484","LANDMARKCO":"407","LANDMARKNA":"小北百貨","LANDMARKAD":"1002104","ADDRESS":"台南市西門路四段5號","TEL":"06-2815745","COUNTYNAME":"台南市","TOWNNAME":"北區","MARKTYPE":"994","Class":"4"},"geometry":{"x":120.20574790980847,"y":23.006201188726205}},{"attributes":{"OBJECTID":11661,"LANDMARKID":"1002100000485","LANDMARKCO":"407","LANDMARKNA":"小北百貨","LANDMARKAD":"1002104","ADDRESS":"台南市成功路526號","TEL":"06-2247111","COUNTYNAME":"台南市","TOWNNAME":"北區","MARKTYPE":"994","Class":"4"},"geometry":{"x":120.19625311890449,"y":23.001553918582474}},{"attributes":{"OBJECTID":11662,"LANDMARKID":"1002100000486","LANDMARKCO":"407","LANDMARKNA":"小北百貨","LANDMARKAD":"1002104","ADDRESS":"台南市長榮路五段363號","TEL":"06-2525918","COUNTYNAME":"台南市","TOWNNAME":"北區","MARKTYPE":"994","Class":"4"},"geometry":{"x":120.21548672249088,"y":23.012866786409226}},{"attributes":{"OBJECTID":11663,"LANDMARKID":"1002100000487","LANDMARKCO":"407","LANDMARKNA":"小北百貨","LANDMARKAD":"1002104","ADDRESS":"台南市文賢路697號1樓","TEL":"06-3507727","COUNTYNAME":"台南市","TOWNNAME":"北區","MARKTYPE":"994","Class":"4"},"geometry":{"x":120.19360358170471,"y":23.014472216999561}},{"attributes":{"OBJECTID":11664,"LANDMARKID":"1002100000098","LANDMARKCO":"107","LANDMARKNA":"台南市警察局開元派出所","LANDMARKAD":"1002104","ADDRESS":"台南市開元路145號","TEL":"06-2370384","COUNTYNAME":"台南市","TOWNNAME":"北區","MARKTYPE":"991","Class":"1"},"geometry":{"x":120.2185791643106,"y":23.006993686825115}},{"attributes":{"OBJECTID":11665,"LANDMARKID":"1002100000045","LANDMARKCO":"103","LANDMARKNA":"台南巿北區衛生所","LANDMARKAD":"1002104","ADDRESS":"台南市西華街50號","TEL":"06-2252404","COUNTYNAME":"台南市","TOWNNAME":"北區","MARKTYPE":"991","Class":"1"},"geometry":{"x":120.21086770812897,"y":23.000120536325383}},{"attributes":{"OBJECTID":11666,"LANDMARKID":"1002100000122","LANDMARKCO":"108","LANDMARKNA":"台南市北區區公所","LANDMARKAD":"1002104","ADDRESS":"台南市成功路238巷7號","TEL":"06-2267128","COUNTYNAME":"台南市","TOWNNAME":"北區","MARKTYPE":"991","Class":"1"},"geometry":{"x":120.20289014296607,"y":22.999666734151294}},{"attributes":{"OBJECTID":11667,"LANDMARKID":"1002100000099","LANDMARKCO":"107","LANDMARKNA":"台南市警察局第五分局","LANDMARKAD":"1002104","ADDRESS":"台南市文賢路650號","TEL":"06-2598595","COUNTYNAME":"台南市","TOWNNAME":"北區","MARKTYPE":"991","Class":"1"},"geometry":{"x":120.19402828202091,"y":23.009986356817976}},{"attributes":{"OBJECTID":11668,"LANDMARKID":"1002100000100","LANDMARKCO":"107","LANDMARKNA":"台南市警察局立人派出所","LANDMARKAD":"1002104","ADDRESS":"台南市西門路三段43號","TEL":"06-2224227","COUNTYNAME":"台南市","TOWNNAME":"北區","MARKTYPE":"991","Class":"1"},"geometry":{"x":120.20257073733544,"y":23.00167993404451}},{"attributes":{"OBJECTID":11669,"LANDMARKID":"1002100000101","LANDMARKCO":"107","LANDMARKNA":"台南市警察局北門派出所","LANDMARKAD":"1002104","ADDRESS":"台南市北門路二段3號","TEL":"06-2224230","COUNTYNAME":"台南市","TOWNNAME":"北區","MARKTYPE":"991","Class":"1"},"geometry":{"x":120.21164567140768,"y":22.997816267854081}},{"attributes":{"OBJECTID":11670,"LANDMARKID":"1002100000102","LANDMARKCO":"107","LANDMARKNA":"台南市警察局公園派出所","LANDMARKAD":"1002104","ADDRESS":"台南市公園北路100號","TEL":"06-2520392","COUNTYNAME":"台南市","TOWNNAME":"北區","MARKTYPE":"991","Class":"1"},"geometry":{"x":120.21002362270364,"y":23.004862029539932}},{"attributes":{"OBJECTID":11671,"LANDMARKID":"1002100000103","LANDMARKCO":"107","LANDMARKNA":"台南市警察局實踐派出所","LANDMARKAD":"1002104","ADDRESS":"台南市大武街162號","TEL":"06-2520742","COUNTYNAME":"台南市","TOWNNAME":"北區","MARKTYPE":"991","Class":"1"},"geometry":{"x":120.21616350080426,"y":23.014336334718912}},{"attributes":{"OBJECTID":11672,"LANDMARKID":"1002100000104","LANDMARKCO":"107","LANDMARKNA":"台南市警察局和緯派出所","LANDMARKAD":"1002104","ADDRESS":"台南市文賢路650號","TEL":"06-2597695","COUNTYNAME":"台南市","TOWNNAME":"北區","MARKTYPE":"991","Class":"1"},"geometry":{"x":120.19402828202091,"y":23.009986356817976}},{"attributes":{"OBJECTID":11673,"LANDMARKID":"1002100000105","LANDMARKCO":"107","LANDMARKNA":"台南市消防局第二消防大隊部","LANDMARKAD":"1002104","ADDRESS":"台南市文賢路678號","TEL":"06-3589894","COUNTYNAME":"台南市","TOWNNAME":"北區","MARKTYPE":"991","Class":"1"},"geometry":{"x":120.19405229503145,"y":23.010377165450837}},{"attributes":{"OBJECTID":11674,"LANDMARKID":"1002100000106","LANDMARKCO":"107","LANDMARKNA":"台南市消防局公園消防分隊","LANDMARKAD":"1002104","ADDRESS":"台南市公園北路108號","TEL":"06-2511046","COUNTYNAME":"台南市","TOWNNAME":"北區","MARKTYPE":"991","Class":"1"},"geometry":{"x":120.20970969941698,"y":23.004908564027897}},{"attributes":{"OBJECTID":11675,"LANDMARKID":"1002100000107","LANDMARKCO":"107","LANDMARKNA":"台南市消防局和緯消防分隊","LANDMARKAD":"1002104","ADDRESS":"台南市文賢路678號","TEL":"06-3589891","COUNTYNAME":"台南市","TOWNNAME":"北區","MARKTYPE":"991","Class":"1"},"geometry":{"x":120.19405229503145,"y":23.010377165450837}},{"attributes":{"OBJECTID":11676,"LANDMARKID":"1002100000055","LANDMARKCO":"106","LANDMARKNA":"台南市北區戶政事務所","LANDMARKAD":"1002104","ADDRESS":"台南市成功路238巷7號","TEL":"06-2219303","COUNTYNAME":"台南市","TOWNNAME":"北區","MARKTYPE":"991","Class":"1"},"geometry":{"x":120.20289014296607,"y":22.999666734151294}},{"attributes":{"OBJECTID":11677,"LANDMARKID":"1002100000047","LANDMARKCO":"104","LANDMARKNA":"台灣省南區國稅局","LANDMARKAD":"1002104","ADDRESS":"台南市富北街7號6-17樓","TEL":"06-2223111","COUNTYNAME":"台南市","TOWNNAME":"北區","MARKTYPE":"991","Class":"1"},"geometry":{"x":120.21121816390661,"y":22.998326743602814}},{"attributes":{"OBJECTID":11678,"LANDMARKID":"1002100000048","LANDMARKCO":"104","LANDMARKNA":"南區國稅局台南市分局","LANDMARKAD":"1002104","ADDRESS":"台南市富北街7號1樓","TEL":"06-2220961","COUNTYNAME":"台南市","TOWNNAME":"北區","MARKTYPE":"991","Class":"1"},"geometry":{"x":120.21121816390661,"y":22.998326743602814}},{"attributes":{"OBJECTID":11679,"LANDMARKID":"1002100000002","LANDMARKCO":"101","LANDMARKNA":"財政部國有財產局台灣南區辦事處","LANDMARKAD":"1002104","ADDRESS":"台南市富北街9號6樓","TEL":"06-2111818","COUNTYNAME":"台南市","TOWNNAME":"北區","MARKTYPE":"991","Class":"1"},"geometry":{"x":120.21127343777951,"y":22.998659161848369}},{"attributes":{"OBJECTID":11680,"LANDMARKID":"1002100000241","LANDMARKCO":"205","LANDMARKNA":"星光地球科學陳列館","LANDMARKAD":"1002104","ADDRESS":"台南市北區西門路四段65巷59號","TEL":"06-2812431","COUNTYNAME":"台南市","TOWNNAME":"北區","MARKTYPE":"992","Class":"2"},"geometry":{"x":120.20551554704528,"y":23.007945168163857}},{"attributes":{"OBJECTID":11681,"LANDMARKID":"1002100000242","LANDMARKCO":"205","LANDMARKNA":"台南市l立兒童科學教育中心","LANDMARKAD":"1002104","ADDRESS":"台南市北區公園北路5號","TEL":" ","COUNTYNAME":"台南市","TOWNNAME":"北區","MARKTYPE":"992","Class":"2"},"geometry":{"x":120.2114468069984,"y":23.003641146354809}},{"attributes":{"OBJECTID":11682,"LANDMARKID":"1002100000227","LANDMARKCO":"204","LANDMARKNA":"台南巿立圖書館總館","LANDMARKAD":"1002104","ADDRESS":"台南市北區公園北路3號","TEL":" ","COUNTYNAME":"台南市","TOWNNAME":"北區","MARKTYPE":"992","Class":"2"},"geometry":{"x":120.21242269296377,"y":23.00376699193065}},{"attributes":{"OBJECTID":11683,"LANDMARKID":"1002100000228","LANDMARKCO":"204","LANDMARKNA":"台南巿立圖書館兒童科學館","LANDMARKAD":"1002104","ADDRESS":"台南市北區公園北路5號","TEL":" ","COUNTYNAME":"台南市","TOWNNAME":"北區","MARKTYPE":"992","Class":"2"},"geometry":{"x":120.21153640138053,"y":23.003684488293764}},{"attributes":{"OBJECTID":11684,"LANDMARKID":"1002100000224","LANDMARKCO":"203","LANDMARKNA":"市立成功國中","LANDMARKAD":"1002104","ADDRESS":"台南市大武街4巷47號","TEL":"06-2517906","COUNTYNAME":"台南市","TOWNNAME":"北區","MARKTYPE":"992","Class":"2"},"geometry":{"x":120.2171064076943,"y":23.01004939249172}},{"attributes":{"OBJECTID":11685,"LANDMARKID":"1002100000135","LANDMARKCO":"202","LANDMARKNA":"私立崑山高中","LANDMARKAD":"1002104","ADDRESS":"台南市開元路444號","TEL":"06-2364408","COUNTYNAME":"台南市","TOWNNAME":"北區","MARKTYPE":"992","Class":"2"},"geometry":{"x":120.22758534601793,"y":23.01074344727698}},{"attributes":{"OBJECTID":11686,"LANDMARKID":"1002100000136","LANDMARKCO":"202","LANDMARKNA":"國立台南二中","LANDMARKAD":"1002104","ADDRESS":"台南市北門路二段125號","TEL":"06-2514526","COUNTYNAME":"台南市","TOWNNAME":"北區","MARKTYPE":"992","Class":"2"},"geometry":{"x":120.21250437027932,"y":23.004389752345901}},{"attributes":{"OBJECTID":11687,"LANDMARKID":"1002100000137","LANDMARKCO":"202","LANDMARKNA":"私立聖功女中","LANDMARKAD":"1002104","ADDRESS":"台南市北園街87巷64號","TEL":"06-2740126","COUNTYNAME":"台南市","TOWNNAME":"北區","MARKTYPE":"992","Class":"2"},"geometry":{"x":120.22128222166955,"y":23.014795085166803}},{"attributes":{"OBJECTID":11688,"LANDMARKID":"1002100000138","LANDMARKCO":"202","LANDMARKNA":"市立海佃國中(籌)","LANDMARKAD":"1002104","ADDRESS":"台南市西門路三段223號","TEL":"06-2294192","COUNTYNAME":"台南市","TOWNNAME":"北區","MARKTYPE":"992","Class":"2"},"geometry":{"x":120.20519136871218,"y":23.005369819338966}},{"attributes":{"OBJECTID":11689,"LANDMARKID":"1002100000213","LANDMARKCO":"203","LANDMARKNA":"市立延平國中","LANDMARKAD":"1002104","ADDRESS":"台南市公園路750號","TEL":"06-2514720","COUNTYNAME":"台南市","TOWNNAME":"北區","MARKTYPE":"992","Class":"2"},"geometry":{"x":120.21066932191461,"y":23.009444460444932}},{"attributes":{"OBJECTID":11690,"LANDMARKID":"1002100000214","LANDMARKCO":"203","LANDMARKNA":"市立文賢國中","LANDMARKAD":"1002104","ADDRESS":"台南市文賢一路2號","TEL":"06-2587571","COUNTYNAME":"台南市","TOWNNAME":"北區","MARKTYPE":"992","Class":"2"},"geometry":{"x":120.19619071445746,"y":23.005713868033041}},{"attributes":{"OBJECTID":11691,"LANDMARKID":"1002100000215","LANDMARKCO":"203","LANDMARKNA":"市立民德國中","LANDMARKAD":"1002104","ADDRESS":"台南市西門路三段223號","TEL":"06-2223014","COUNTYNAME":"台南市","TOWNNAME":"北區","MARKTYPE":"992","Class":"2"},"geometry":{"x":120.20519136871218,"y":23.005369819338966}},{"attributes":{"OBJECTID":11692,"LANDMARKID":"1002100000216","LANDMARKCO":"203","LANDMARKNA":"市立大港國小","LANDMARKAD":"1002104","ADDRESS":"台南市大港街146號","TEL":"06-2591930","COUNTYNAME":"台南市","TOWNNAME":"北區","MARKTYPE":"992","Class":"2"},"geometry":{"x":120.18890893802441,"y":23.013413595999669}},{"attributes":{"OBJECTID":11693,"LANDMARKID":"1002100000217","LANDMARKCO":"203","LANDMARKNA":"市立公園國小","LANDMARKAD":"1002104","ADDRESS":"台南市西華里公園路180號","TEL":"06-2223291","COUNTYNAME":"台南市","TOWNNAME":"北區","MARKTYPE":"992","Class":"2"},"geometry":{"x":120.2090383463199,"y":23.000244513627656}},{"attributes":{"OBJECTID":11694,"LANDMARKID":"1002100000218","LANDMARKCO":"203","LANDMARKNA":"市立立人國小","LANDMARKAD":"1002104","ADDRESS":"台南市西門路三段41號","TEL":"06-2222054","COUNTYNAME":"台南市","TOWNNAME":"北區","MARKTYPE":"992","Class":"2"},"geometry":{"x":120.20206686689163,"y":23.001340733415379}},{"attributes":{"OBJECTID":11695,"LANDMARKID":"1002100000219","LANDMARKCO":"203","LANDMARKNA":"市立大光國小","LANDMARKAD":"1002104","ADDRESS":"台南市長榮路五段277號","TEL":"06-2518465","COUNTYNAME":"台南市","TOWNNAME":"北區","MARKTYPE":"992","Class":"2"},"geometry":{"x":120.21770971989092,"y":23.01257475770759}},{"attributes":{"OBJECTID":11696,"LANDMARKID":"1002100000220","LANDMARKCO":"203","LANDMARKNA":"市立文元國小","LANDMARKAD":"1002104","ADDRESS":"台南市海安路三段815號","TEL":"06-3584371","COUNTYNAME":"台南市","TOWNNAME":"北區","MARKTYPE":"992","Class":"2"},"geometry":{"x":120.19993573448414,"y":23.015363833236467}},{"attributes":{"OBJECTID":11697,"LANDMARKID":"1002100000221","LANDMARKCO":"203","LANDMARKNA":"市立開元國小","LANDMARKAD":"1002104","ADDRESS":"台南市勝安里開元路71巷32號","TEL":"06-2375509","COUNTYNAME":"台南市","TOWNNAME":"北區","MARKTYPE":"992","Class":"2"},"geometry":{"x":120.21683281403884,"y":23.007299267514568}},{"attributes":{"OBJECTID":11698,"LANDMARKID":"1002100000222","LANDMARKCO":"203","LANDMARKNA":"私立寶仁小學","LANDMARKAD":"1002104","ADDRESS":"台南市重興里開南街211巷6號","TEL":"06-2369369","COUNTYNAME":"台南市","TOWNNAME":"北區","MARKTYPE":"992","Class":"2"},"geometry":{"x":120.22788595161444,"y":23.006172530303953}},{"attributes":{"OBJECTID":11699,"LANDMARKID":"1002100000223","LANDMARKCO":"203","LANDMARKNA":"市立賢北國小(籌)","LANDMARKAD":"1002104","ADDRESS":"台南市大港街146號","TEL":"06-2591941","COUNTYNAME":"台南市","TOWNNAME":"北區","MARKTYPE":"992","Class":"2"},"geometry":{"x":120.18890893802441,"y":23.013413595999669}},{"attributes":{"OBJECTID":11700,"LANDMARKID":"1002100000132","LANDMARKCO":"201","LANDMARKNA":"碧岳神哲學院","LANDMARKAD":"1002104","ADDRESS":"台南市南園街127巷42號","TEL":"06-2375422","COUNTYNAME":"台南市","TOWNNAME":"北區","MARKTYPE":"992","Class":"2"},"geometry":{"x":120.2273769716211,"y":23.007267041836482}},{"attributes":{"OBJECTID":11701,"LANDMARKID":"1002100000246","LANDMARKCO":"302","LANDMARKNA":"統聯客運-北門站-自營站","LANDMARKAD":"1002104","ADDRESS":"台南市北區北門路二段71號","TEL":"連絡電話:06-228","COUNTYNAME":"台南市","TOWNNAME":"北區","MARKTYPE":"993","Class":"302"},"geometry":{"x":120.21237474636298,"y":22.998834432167445}},{"attributes":{"OBJECTID":11702,"LANDMARKID":"1002100000247","LANDMARKCO":"302","LANDMARKNA":"和欣客運-北門總站","LANDMARKAD":"1002104","ADDRESS":"台南市北門路二段25號","TEL":"(06)227-0777","COUNTYNAME":"台南市","TOWNNAME":"北區","MARKTYPE":"993","Class":"302"},"geometry":{"x":120.21220944382978,"y":22.997947792935118}},{"attributes":{"OBJECTID":11703,"LANDMARKID":"1002100000248","LANDMARKCO":"302","LANDMARKNA":"和欣客運-北門站","LANDMARKAD":"1002104","ADDRESS":"台南市北門路二段49號","TEL":"(06)211-3333","COUNTYNAME":"台南市","TOWNNAME":"北區","MARKTYPE":"993","Class":"302"},"geometry":{"x":120.21229230449519,"y":22.998373053336714}},{"attributes":{"OBJECTID":11704,"LANDMARKID":"1002100000249","LANDMARKCO":"302","LANDMARKNA":"統聯汽車客運北門站","LANDMARKAD":"1002104","ADDRESS":"台南市北區北門路二段71號","TEL":" ","COUNTYNAME":"台南市","TOWNNAME":"北區","MARKTYPE":"993","Class":"302"},"geometry":{"x":120.21220844340215,"y":22.998880099509989}},{"attributes":{"OBJECTID":11705,"LANDMARKID":"1002100000287","LANDMARKCO":"303","LANDMARKNA":"菱州停車場","LANDMARKAD":"1002104","ADDRESS":"台南市北區成功路516號","TEL":" ","COUNTYNAME":"台南市","TOWNNAME":"北區","MARKTYPE":"993","Class":"303"},"geometry":{"x":120.19636868598383,"y":23.001467878243375}},{"attributes":{"OBJECTID":11706,"LANDMARKID":"1002100000288","LANDMARKCO":"303","LANDMARKNA":"小北攤販中心停車場","LANDMARKAD":"1002104","ADDRESS":"台南市北區西門路四段","TEL":" ","COUNTYNAME":"台南市","TOWNNAME":"北區","MARKTYPE":"993","Class":"303"},"geometry":{"x":120.20577372825286,"y":23.009172942455272}},{"attributes":{"OBJECTID":11707,"LANDMARKID":"1002100000289","LANDMARKCO":"303","LANDMARKNA":"東帝士百貨停車場","LANDMARKAD":"1002104","ADDRESS":"台南市北區西門路四段151號","TEL":" ","COUNTYNAME":"台南市","TOWNNAME":"北區","MARKTYPE":"993","Class":"303"},"geometry":{"x":120.20754417887667,"y":23.00933004898555}},{"attributes":{"OBJECTID":11708,"LANDMARKID":"1002100000290","LANDMARKCO":"303","LANDMARKNA":"成功路停車場","LANDMARKAD":"1002104","ADDRESS":"台南市成功路2號","TEL":" ","COUNTYNAME":"台南市","TOWNNAME":"北區","MARKTYPE":"993","Class":"303"},"geometry":{"x":120.21082344926816,"y":22.997592115283172}},{"attributes":{"OBJECTID":11709,"LANDMARKID":"1002100000291","LANDMARKCO":"303","LANDMARKNA":"楊明停車場","LANDMARKAD":"1002104","ADDRESS":"台南市北區富北路10號","TEL":" ","COUNTYNAME":"台南市","TOWNNAME":"北區","MARKTYPE":"993","Class":"303"},"geometry":{"x":120.21139302252902,"y":22.998571782946051}},{"attributes":{"OBJECTID":11710,"LANDMARKID":"1002100000337","LANDMARKCO":"402","LANDMARKNA":"中華電信-台南公園特約服務中心","LANDMARKAD":"1002104","ADDRESS":"台南市北區公園路587號","TEL":"06-2811688","COUNTYNAME":"台南市","TOWNNAME":"北區","MARKTYPE":"994","Class":"4"},"geometry":{"x":120.21073857567863,"y":23.012086460539184}},{"attributes":{"OBJECTID":11711,"LANDMARKID":"1002100000338","LANDMARKCO":"402","LANDMARKNA":"威寶電信-台南西門特約服務中心","LANDMARKAD":"1002104","ADDRESS":"台南市北區西門路四段26號","TEL":"06-2816989","COUNTYNAME":"台南市","TOWNNAME":"北區","MARKTYPE":"994","Class":"4"},"geometry":{"x":120.20638181947609,"y":23.006476198971221}},{"attributes":{"OBJECTID":11712,"LANDMARKID":"1002100000622","LANDMARKCO":"511","LANDMARKNA":"大統一夜市","LANDMARKAD":"1002104","ADDRESS":"台南市北區","TEL":" ","COUNTYNAME":"台南市","TOWNNAME":"北區","MARKTYPE":"995","Class":"5"},"geometry":{"x":120.20938597160347,"y":23.014647391377284}},{"attributes":{"OBJECTID":11713,"LANDMARKID":"1002100000623","LANDMARKCO":"511","LANDMARKNA":"小北夜市","LANDMARKAD":"1002104","ADDRESS":"台南市北區","TEL":" ","COUNTYNAME":"台南市","TOWNNAME":"北區","MARKTYPE":"995","Class":"5"},"geometry":{"x":120.20676750863613,"y":23.008236608928769}},{"attributes":{"OBJECTID":11714,"LANDMARKID":"1002100000624","LANDMARKCO":"511","LANDMARKNA":"花園夜市","LANDMARKAD":"1002104","ADDRESS":" ","TEL":" ","COUNTYNAME":"台南市","TOWNNAME":"北區","MARKTYPE":"995","Class":"5"},"geometry":{"x":120.1998197869392,"y":23.009763247204742}},{"attributes":{"OBJECTID":11715,"LANDMARKID":"1002100000413","LANDMARKCO":"405","LANDMARKNA":"山隆加油站-台南站(中油)","LANDMARKAD":"1002102","ADDRESS":"台南市成功路365號","TEL":"(06)222-0621","COUNTYNAME":"台南市","TOWNNAME":"中西區","MARKTYPE":"994","Class":"4"},"geometry":{"x":120.19905014331329,"y":23.000223467638509}},{"attributes":{"OBJECTID":11716,"LANDMARKID":"1002100000414","LANDMARKCO":"405","LANDMARKNA":"中油加油站-文賢路站(中油直營)","LANDMARKAD":"1002102","ADDRESS":"台南市西區文賢路229號","TEL":"06-2591749","COUNTYNAME":"台南市","TOWNNAME":"中西區","MARKTYPE":"994","Class":"4"},"geometry":{"x":120.19355294672459,"y":23.004344821237922}},{"attributes":{"OBJECTID":11717,"LANDMARKID":"1002100000415","LANDMARKCO":"405","LANDMARKNA":"中油加油站-德州民族站","LANDMARKAD":"1002102","ADDRESS":"台南市中西區民族路三段138號","TEL":"06-2251688","COUNTYNAME":"台南市","TOWNNAME":"中西區","MARKTYPE":"994","Class":"4"},"geometry":{"x":120.19629401909087,"y":22.998841891298671}},{"attributes":{"OBJECTID":11718,"LANDMARKID":"1002100000416","LANDMARKCO":"405","LANDMARKNA":"中油加油站-府前路站(中油直營)","LANDMARKAD":"1002102","ADDRESS":"台南市西區府前路二段256號","TEL":"06-2971568","COUNTYNAME":"台南市","TOWNNAME":"中西區","MARKTYPE":"994","Class":"4"},"geometry":{"x":120.19084615275264,"y":22.992071487894588}},{"attributes":{"OBJECTID":11719,"LANDMARKID":"1002100000417","LANDMARKCO":"405","LANDMARKNA":"中油加油站-民生路站(中油直營)","LANDMARKAD":"1002102","ADDRESS":"台南市西區民生路二段303號","TEL":"06-2233627","COUNTYNAME":"台南市","TOWNNAME":"中西區","MARKTYPE":"994","Class":"4"},"geometry":{"x":120.19119118432282,"y":22.996846374598949}},{"attributes":{"OBJECTID":11720,"LANDMARKID":"1002100000418","LANDMARKCO":"405","LANDMARKNA":"中油加油站-西門路一段站(中油直營)","LANDMARKAD":"1002102","ADDRESS":"台南市中區西門路一段524號","TEL":"06-2134067","COUNTYNAME":"台南市","TOWNNAME":"中西區","MARKTYPE":"994","Class":"4"},"geometry":{"x":120.19777397625076,"y":22.985167699105759}},{"attributes":{"OBJECTID":11721,"LANDMARKID":"1002100000339","LANDMARKCO":"402","LANDMARKNA":"My Phone台灣大哥大-台南民族直營服務中心","LANDMARKAD":"1002102","ADDRESS":"台南市中西區民族路二段55之1號","TEL":"0809-000-166","COUNTYNAME":"台南市","TOWNNAME":"中西區","MARKTYPE":"994","Class":"4"},"geometry":{"x":120.21008118955568,"y":22.994308611312064}},{"attributes":{"OBJECTID":11722,"LANDMARKID":"1002100000340","LANDMARKCO":"402","LANDMARKNA":"My Phone台灣大哥大-台南民生直營服務中心","LANDMARKAD":"1002102","ADDRESS":"台南市中西區民生路二段279號","TEL":"0809-000-166","COUNTYNAME":"台南市","TOWNNAME":"中西區","MARKTYPE":"994","Class":"4"},"geometry":{"x":120.19179183767189,"y":22.996556089998244}},{"attributes":{"OBJECTID":11723,"LANDMARKID":"1002100000341","LANDMARKCO":"402","LANDMARKNA":"My Phone台灣大哥大-台南西門直營服務中心","LANDMARKAD":"1002102","ADDRESS":"台南市中西區西門路二段357號","TEL":"0809-000-166","COUNTYNAME":"台南市","TOWNNAME":"中西區","MARKTYPE":"994","Class":"4"},"geometry":{"x":120.19983769757347,"y":22.998063342600933}},{"attributes":{"OBJECTID":11724,"LANDMARKID":"1002100000342","LANDMARKCO":"402","LANDMARKNA":"亞太行動寬頻電信-台南成功加盟服務中心","LANDMARKAD":"1002102","ADDRESS":"台南市中西區成功路93號","TEL":"06-2281778","COUNTYNAME":"台南市","TOWNNAME":"中西區","MARKTYPE":"994","Class":"4"},"geometry":{"x":120.20803506207244,"y":22.997733477942909}},{"attributes":{"OBJECTID":11725,"LANDMARKID":"1002100000343","LANDMARKCO":"402","LANDMARKNA":"亞太行動寬頻電信-台南市","LANDMARKAD":"1002102","ADDRESS":"台南市西門路二段369號","TEL":" ","COUNTYNAME":"台南市","TOWNNAME":"中西區","MARKTYPE":"994","Class":"4"},"geometry":{"x":120.20014882237109,"y":22.998142735592243}},{"attributes":{"OBJECTID":11726,"LANDMARKID":"1002100000314","LANDMARKCO":"401","LANDMARKNA":"永和醫院","LANDMARKAD":"1002102","ADDRESS":"台南市府前路一段310號","TEL":"06-2231191","COUNTYNAME":"台南市","TOWNNAME":"中西區","MARKTYPE":"994","Class":"4"},"geometry":{"x":120.19883926718398,"y":22.990326319993496}},{"attributes":{"OBJECTID":11727,"LANDMARKID":"1002100000315","LANDMARKCO":"401","LANDMARKNA":"永川醫院","LANDMARKAD":"1002102","ADDRESS":"台南市成功路169號","TEL":"06-2245771","COUNTYNAME":"台南市","TOWNNAME":"中西區","MARKTYPE":"994","Class":"4"},"geometry":{"x":120.20628563238472,"y":22.998022998466183}},{"attributes":{"OBJECTID":11728,"LANDMARKID":"1002100000316","LANDMARKCO":"401","LANDMARKNA":"郭綜合醫院","LANDMARKAD":"1002102","ADDRESS":"台南市民生路二段22號","TEL":"06-2221111","COUNTYNAME":"台南市","TOWNNAME":"中西區","MARKTYPE":"994","Class":"4"},"geometry":{"x":120.19849347261567,"y":22.994862104285904}},{"attributes":{"OBJECTID":11729,"LANDMARKID":"1002100000317","LANDMARKCO":"401","LANDMARKNA":"行政院衛生署台南醫院","LANDMARKAD":"1002102","ADDRESS":"台南市廣慈里中山路125號","TEL":"06-2200055","COUNTYNAME":"台南市","TOWNNAME":"中西區","MARKTYPE":"994","Class":"4"},"geometry":{"x":120.20909530599972,"y":22.995429572060022}},{"attributes":{"OBJECTID":11730,"LANDMARKID":"1002100000318","LANDMARKCO":"401","LANDMARKNA":"永和醫院","LANDMARKAD":"1002102","ADDRESS":"台南市府前路一段304巷2號","TEL":"06-2231191","COUNTYNAME":"台南市","TOWNNAME":"中西區","MARKTYPE":"994","Class":"4"},"geometry":{"x":120.19908801077945,"y":22.990470478515594}},{"attributes":{"OBJECTID":11731,"LANDMARKID":"1002100000319","LANDMARKCO":"401","LANDMARKNA":"仁村醫院","LANDMARKAD":"1002102","ADDRESS":"台南市西門路一段486號","TEL":"06-2152607","COUNTYNAME":"台南市","TOWNNAME":"中西區","MARKTYPE":"994","Class":"4"},"geometry":{"x":120.19774118681184,"y":22.983630032502724}},{"attributes":{"OBJECTID":11732,"LANDMARKID":"1002100000320","LANDMARKCO":"401","LANDMARKNA":"洪外科醫院","LANDMARKAD":"1002102","ADDRESS":"台南市民生路二段60號","TEL":"06-2240011","COUNTYNAME":"台南市","TOWNNAME":"中西區","MARKTYPE":"994","Class":"4"},"geometry":{"x":120.19760263660933,"y":22.995133026815665}},{"attributes":{"OBJECTID":11733,"LANDMARKID":"1002100000559","LANDMARKCO":"507","LANDMARKNA":"台南石鼎美古宅","LANDMARKAD":"1002102","ADDRESS":"台南市西區西門路二段225巷4號","TEL":" ","COUNTYNAME":"台南市","TOWNNAME":"中西區","MARKTYPE":"995","Class":"5"},"geometry":{"x":120.19957278677332,"y":22.994850835895299}},{"attributes":{"OBJECTID":11734,"LANDMARKID":"1002100000560","LANDMARKCO":"507","LANDMARKNA":"延平郡王祠","LANDMARKAD":"1002102","ADDRESS":"台南市中區","TEL":" ","COUNTYNAME":"台南市","TOWNNAME":"中西區","MARKTYPE":"995","Class":"5"},"geometry":{"x":120.20796553370056,"y":22.98824333323169}},{"attributes":{"OBJECTID":11735,"LANDMARKID":"1002100000561","LANDMARKCO":"507","LANDMARKNA":"大天后宮","LANDMARKAD":"1002102","ADDRESS":"台南市中區武聖里永福路二段227巷18號","TEL":" ","COUNTYNAME":"台南市","TOWNNAME":"中西區","MARKTYPE":"995","Class":"5"},"geometry":{"x":120.20106385454831,"y":22.996998084993148}},{"attributes":{"OBJECTID":11736,"LANDMARKID":"1002100000562","LANDMARKCO":"507","LANDMARKNA":"五妃廟","LANDMARKAD":"1002102","ADDRESS":"台南市中區五妃里五妃街201號","TEL":" ","COUNTYNAME":"台南市","TOWNNAME":"中西區","MARKTYPE":"995","Class":"5"},"geometry":{"x":120.2050373806629,"y":22.981850572693673}},{"attributes":{"OBJECTID":11737,"LANDMARKID":"1002100000563","LANDMARKCO":"507","LANDMARKNA":"赤崁樓","LANDMARKAD":"1002102","ADDRESS":"台南市中區赤崁里民族路二段212號","TEL":" ","COUNTYNAME":"台南市","TOWNNAME":"中西區","MARKTYPE":"995","Class":"5"},"geometry":{"x":120.20259529965274,"y":22.997021228847203}},{"attributes":{"OBJECTID":11738,"LANDMARKID":"1002100000564","LANDMARKCO":"507","LANDMARKNA":"祀典武廟","LANDMARKAD":"1002102","ADDRESS":"台南市中區武聖里永福路二段229號","TEL":"06-2202390","COUNTYNAME":"台南市","TOWNNAME":"中西區","MARKTYPE":"995","Class":"5"},"geometry":{"x":120.20205060604303,"y":22.996437556086345}},{"attributes":{"OBJECTID":11739,"LANDMARKID":"1002100000565","LANDMARKCO":"507","LANDMARKNA":"台南孔子廟","LANDMARKAD":"1002102","ADDRESS":"台南市中區永慶里南門路2號","TEL":" ","COUNTYNAME":"台南市","TOWNNAME":"中西區","MARKTYPE":"995","Class":"5"},"geometry":{"x":120.20434819804272,"y":22.989927951324539}},{"attributes":{"OBJECTID":11740,"LANDMARKID":"1002100000566","LANDMARKCO":"507","LANDMARKNA":"北極殿","LANDMARKAD":"1002102","ADDRESS":"台南市中區天中里民權路二段89號","TEL":" ","COUNTYNAME":"台南市","TOWNNAME":"中西區","MARKTYPE":"995","Class":"5"},"geometry":{"x":120.20429194987281,"y":22.994553296634709}},{"attributes":{"OBJECTID":11741,"LANDMARKID":"1002100000567","LANDMARKCO":"507","LANDMARKNA":"兌悅門","LANDMARKAD":"1002102","ADDRESS":"台南市西區忠信里文賢路與信義街交叉口","TEL":" ","COUNTYNAME":"台南市","TOWNNAME":"中西區","MARKTYPE":"995","Class":"5"},"geometry":{"x":120.19468490356874,"y":23.001103412744889}},{"attributes":{"OBJECTID":11742,"LANDMARKID":"1002100000568","LANDMARKCO":"507","LANDMARKNA":"台灣台南地方法院","LANDMARKAD":"1002102","ADDRESS":"台南市中區府前路一段307號","TEL":" ","COUNTYNAME":"台南市","TOWNNAME":"中西區","MARKTYPE":"995","Class":"5"},"geometry":{"x":120.20100409336295,"y":22.989685516473898}},{"attributes":{"OBJECTID":11743,"LANDMARKID":"1002100000569","LANDMARKCO":"507","LANDMARKNA":"台灣府城隍廟","LANDMARKAD":"1002102","ADDRESS":"台南市中區清水里青年路133號","TEL":" ","COUNTYNAME":"台南市","TOWNNAME":"中西區","MARKTYPE":"995","Class":"5"},"geometry":{"x":120.20915140819878,"y":22.992110474847831}},{"attributes":{"OBJECTID":11744,"LANDMARKID":"1002100000570","LANDMARKCO":"507","LANDMARKNA":"全台吳氏大宗祠","LANDMARKAD":"1002102","ADDRESS":"台南市中區觀音里成功路175巷57號","TEL":" ","COUNTYNAME":"台南市","TOWNNAME":"中西區","MARKTYPE":"995","Class":"5"},"geometry":{"x":120.20643113316632,"y":22.998065489150143}},{"attributes":{"OBJECTID":11745,"LANDMARKID":"1002100000571","LANDMARKCO":"507","LANDMARKNA":"風神廟","LANDMARKAD":"1002102","ADDRESS":"台南市西區西羅里民權路三段143巷8號","TEL":" ","COUNTYNAME":"台南市","TOWNNAME":"中西區","MARKTYPE":"995","Class":"5"},"geometry":{"x":120.19464990286403,"y":22.997557059475174}},{"attributes":{"OBJECTID":11746,"LANDMARKID":"1002100000572","LANDMARKCO":"507","LANDMARKNA":"接官亭","LANDMARKAD":"1002102","ADDRESS":"台南市西區西華里","TEL":" ","COUNTYNAME":"台南市","TOWNNAME":"中西區","MARKTYPE":"995","Class":"5"},"geometry":{"x":120.19491242772889,"y":22.997310230170186}},{"attributes":{"OBJECTID":11747,"LANDMARKID":"1002100000573","LANDMARKCO":"507","LANDMARKNA":"陳德聚堂","LANDMARKAD":"1002102","ADDRESS":"台南市中區溫陵里永福路二段152巷20號","TEL":" ","COUNTYNAME":"台南市","TOWNNAME":"中西區","MARKTYPE":"995","Class":"5"},"geometry":{"x":120.20218638328402,"y":22.994295500380307}},{"attributes":{"OBJECTID":11748,"LANDMARKID":"1002100000574","LANDMARKCO":"507","LANDMARKNA":"開基武廟原正殿","LANDMARKAD":"1002102","ADDRESS":"台南市中區武聖里新美街114號","TEL":" ","COUNTYNAME":"台南市","TOWNNAME":"中西區","MARKTYPE":"995","Class":"5"},"geometry":{"x":120.20091649416911,"y":22.996543697939376}},{"attributes":{"OBJECTID":11749,"LANDMARKID":"1002100000575","LANDMARKCO":"507","LANDMARKNA":"台南天壇","LANDMARKAD":"1002102","ADDRESS":"台南市中區天中里忠義路二段84巷16號","TEL":" ","COUNTYNAME":"台南市","TOWNNAME":"中西區","MARKTYPE":"995","Class":"5"},"geometry":{"x":120.20417141425843,"y":22.993913779365879}},{"attributes":{"OBJECTID":11750,"LANDMARKID":"1002100000576","LANDMARKCO":"507","LANDMARKNA":"台南水仙宮","LANDMARKAD":"1002102","ADDRESS":"台南市西區水仙里神農街1號","TEL":" ","COUNTYNAME":"台南市","TOWNNAME":"中西區","MARKTYPE":"995","Class":"5"},"geometry":{"x":120.19790218755975,"y":22.996777188126941}},{"attributes":{"OBJECTID":11751,"LANDMARKID":"1002100000577","LANDMARKCO":"507","LANDMARKNA":"台南東嶽殿","LANDMARKAD":"1002102","ADDRESS":"台南市中區萬壽里民權路一段110號","TEL":" ","COUNTYNAME":"台南市","TOWNNAME":"中西區","MARKTYPE":"995","Class":"5"},"geometry":{"x":120.20893274371939,"y":22.990888009179741}},{"attributes":{"OBJECTID":11752,"LANDMARKID":"1002100000578","LANDMARKCO":"507","LANDMARKNA":"台南法華寺","LANDMARKAD":"1002102","ADDRESS":"台南市中區法華里法華街100號","TEL":" ","COUNTYNAME":"台南市","TOWNNAME":"中西區","MARKTYPE":"995","Class":"5"},"geometry":{"x":120.20989032046671,"y":22.984229790919201}},{"attributes":{"OBJECTID":11753,"LANDMARKID":"1002100000579","LANDMARKCO":"507","LANDMARKNA":"台南報恩堂","LANDMARKAD":"1002102","ADDRESS":"台南市中區永慶里忠義路二段38巷8號","TEL":" ","COUNTYNAME":"台南市","TOWNNAME":"中西區","MARKTYPE":"995","Class":"5"},"geometry":{"x":120.20365828727883,"y":22.992358275934567}},{"attributes":{"OBJECTID":11754,"LANDMARKID":"1002100000580","LANDMARKCO":"507","LANDMARKNA":"台南景福祠","LANDMARKAD":"1002102","ADDRESS":"台南市西區水仙里普濟街44號","TEL":" ","COUNTYNAME":"台南市","TOWNNAME":"中西區","MARKTYPE":"995","Class":"5"},"geometry":{"x":120.19873716663132,"y":22.997356110828623}},{"attributes":{"OBJECTID":11755,"LANDMARKID":"1002100000581","LANDMARKCO":"507","LANDMARKNA":"台南開基靈祐宮","LANDMARKAD":"1002102","ADDRESS":"台南市中區赤崁里民族路208巷31號","TEL":" ","COUNTYNAME":"台南市","TOWNNAME":"中西區","MARKTYPE":"995","Class":"5"},"geometry":{"x":120.2031035012612,"y":22.997821709299913}},{"attributes":{"OBJECTID":11756,"LANDMARKID":"1002100000582","LANDMARKCO":"507","LANDMARKNA":"台南德化堂","LANDMARKAD":"1002102","ADDRESS":"台南市中區啟智里府前路一段110號","TEL":" ","COUNTYNAME":"台南市","TOWNNAME":"中西區","MARKTYPE":"995","Class":"5"},"geometry":{"x":120.2070668039307,"y":22.98917935487745}},{"attributes":{"OBJECTID":11757,"LANDMARKID":"1002100000583","LANDMARKCO":"507","LANDMARKNA":"台南鄭氏家廟","LANDMARKAD":"1002102","ADDRESS":"台南市中區永慶里忠義路二段36號","TEL":" ","COUNTYNAME":"台南市","TOWNNAME":"中西區","MARKTYPE":"995","Class":"5"},"geometry":{"x":120.20305393986179,"y":22.992486098089209}},{"attributes":{"OBJECTID":11758,"LANDMARKID":"1002100000584","LANDMARKCO":"507","LANDMARKNA":"台灣府城大南門","LANDMARKAD":"1002102","ADDRESS":"台南市中區聖前里南門路32之1號後面","TEL":" ","COUNTYNAME":"台南市","TOWNNAME":"中西區","MARKTYPE":"995","Class":"5"},"geometry":{"x":120.20428823345347,"y":22.987266752229456}},{"attributes":{"OBJECTID":11759,"LANDMARKID":"1002100000585","LANDMARKCO":"507","LANDMARKNA":"台灣府城城垣南門段殘蹟","LANDMARKAD":"1002102","ADDRESS":"台南市中區郡王里大埔街97號後（台南女中內）","TEL":" ","COUNTYNAME":"台南市","TOWNNAME":"中西區","MARKTYPE":"995","Class":"5"},"geometry":{"x":120.20916235718626,"y":22.987208243435763}},{"attributes":{"OBJECTID":11760,"LANDMARKID":"1002100000586","LANDMARKCO":"507","LANDMARKNA":"原日本勸業銀行台南支店","LANDMARKAD":"1002102","ADDRESS":"台南市中區中正路28號","TEL":" ","COUNTYNAME":"台南市","TOWNNAME":"中西區","MARKTYPE":"995","Class":"5"},"geometry":{"x":120.20299546919574,"y":22.992237819302595}},{"attributes":{"OBJECTID":11761,"LANDMARKID":"1002100000587","LANDMARKCO":"507","LANDMARKNA":"原林百貨店","LANDMARKAD":"1002102","ADDRESS":"台南市中區忠義路二段63號","TEL":" ","COUNTYNAME":"台南市","TOWNNAME":"中西區","MARKTYPE":"995","Class":"5"},"geometry":{"x":120.20243581837198,"y":22.991746838344955}},{"attributes":{"OBJECTID":11762,"LANDMARKID":"1002100000588","LANDMARKCO":"507","LANDMARKNA":"原嘉南大圳組合事務所","LANDMARKAD":"1002102","ADDRESS":"台南市中區友愛街25號","TEL":" ","COUNTYNAME":"台南市","TOWNNAME":"中西區","MARKTYPE":"995","Class":"5"},"geometry":{"x":120.20496579659813,"y":22.990694512853111}},{"attributes":{"OBJECTID":11763,"LANDMARKID":"1002100000589","LANDMARKCO":"507","LANDMARKNA":"原台南公會堂","LANDMARKAD":"1002102","ADDRESS":"台南市中區民權路二段30號","TEL":" ","COUNTYNAME":"台南市","TOWNNAME":"中西區","MARKTYPE":"995","Class":"5"},"geometry":{"x":120.20564656890745,"y":22.994427728555401}},{"attributes":{"OBJECTID":11764,"LANDMARKID":"1002100000590","LANDMARKCO":"507","LANDMARKNA":"原台南合同廳舍","LANDMARKAD":"1002102","ADDRESS":"台南市中區中正路2之1號","TEL":" ","COUNTYNAME":"台南市","TOWNNAME":"中西區","MARKTYPE":"995","Class":"5"},"geometry":{"x":120.20378111688721,"y":22.992392371621424}},{"attributes":{"OBJECTID":11765,"LANDMARKID":"1002100000591","LANDMARKCO":"507","LANDMARKNA":"原台南州廳","LANDMARKAD":"1002102","ADDRESS":"台南市中區中正路1號","TEL":" ","COUNTYNAME":"台南市","TOWNNAME":"中西區","MARKTYPE":"995","Class":"5"},"geometry":{"x":120.20468711380104,"y":22.992140926122666}},{"attributes":{"OBJECTID":11766,"LANDMARKID":"1002100000592","LANDMARKCO":"507","LANDMARKNA":"原台南武德殿","LANDMARKAD":"1002102","ADDRESS":"台南市中區忠義路二段2號","TEL":" ","COUNTYNAME":"台南市","TOWNNAME":"中西區","MARKTYPE":"995","Class":"5"},"geometry":{"x":120.20338197888162,"y":22.9907125677091}},{"attributes":{"OBJECTID":11767,"LANDMARKID":"1002100000593","LANDMARKCO":"507","LANDMARKNA":"原台南高等女學校本館","LANDMARKAD":"1002102","ADDRESS":"台南市中區大埔街97號","TEL":" ","COUNTYNAME":"台南市","TOWNNAME":"中西區","MARKTYPE":"995","Class":"5"},"geometry":{"x":120.20683897653066,"y":22.987127938213174}},{"attributes":{"OBJECTID":11768,"LANDMARKID":"1002100000594","LANDMARKCO":"507","LANDMARKNA":"原台南測候所","LANDMARKAD":"1002102","ADDRESS":"台南市中區公園路21號","TEL":" ","COUNTYNAME":"台南市","TOWNNAME":"中西區","MARKTYPE":"995","Class":"5"},"geometry":{"x":120.20516980120978,"y":22.99371330372902}},{"attributes":{"OBJECTID":11769,"LANDMARKID":"1002100000595","LANDMARKCO":"507","LANDMARKNA":"原台南愛國婦人會館","LANDMARKAD":"1002102","ADDRESS":"台南市中區府前路一段195號","TEL":" ","COUNTYNAME":"台南市","TOWNNAME":"中西區","MARKTYPE":"995","Class":"5"},"geometry":{"x":120.20685364695312,"y":22.988854035386016}},{"attributes":{"OBJECTID":11770,"LANDMARKID":"1002100000596","LANDMARKCO":"507","LANDMARKNA":"原台南警察署","LANDMARKAD":"1002102","ADDRESS":"台南市中區南門路37號","TEL":" ","COUNTYNAME":"台南市","TOWNNAME":"中西區","MARKTYPE":"995","Class":"5"},"geometry":{"x":120.20514757667299,"y":22.991610501280398}},{"attributes":{"OBJECTID":11771,"LANDMARKID":"1002100000597","LANDMARKCO":"507","LANDMARKNA":"大井頭","LANDMARKAD":"1002102","ADDRESS":"台南市中區民權路二段225號前","TEL":" ","COUNTYNAME":"台南市","TOWNNAME":"中西區","MARKTYPE":"995","Class":"5"},"geometry":{"x":120.2006370543539,"y":22.995681224840538}},{"attributes":{"OBJECTID":11772,"LANDMARKID":"1002100000625","LANDMARKCO":"512","LANDMARKNA":"交通部觀光局旅遊服務中心","LANDMARKAD":"1002102","ADDRESS":"台南市中區民權路一段243號10樓","TEL":"06-2265681","COUNTYNAME":"台南市","TOWNNAME":"中西區","MARKTYPE":"995","Class":"5"},"geometry":{"x":120.20733641791176,"y":22.992980591457513}},{"attributes":{"OBJECTID":11773,"LANDMARKID":"1002100000558","LANDMARKCO":"507","LANDMARKNA":"原臺南合同廳舍","LANDMARKAD":"1002102","ADDRESS":"台南市中區中正路2-1號","TEL":" ","COUNTYNAME":"台南市","TOWNNAME":"中西區","MARKTYPE":"995","Class":"5"},"geometry":{"x":120.20433407212059,"y":22.992556157924394}},{"attributes":{"OBJECTID":11774,"LANDMARKID":"1002100000521","LANDMARKCO":"408","LANDMARKNA":"郵局-台南水交社郵局","LANDMARKAD":"1002102","ADDRESS":"台南市中西區健康路1段260號","TEL":"(06)2142-892","COUNTYNAME":"台南市","TOWNNAME":"中西區","MARKTYPE":"994","Class":"4"},"geometry":{"x":120.20441104034322,"y":22.981520112992047}},{"attributes":{"OBJECTID":11775,"LANDMARKID":"1002100000522","LANDMARKCO":"408","LANDMARKNA":"郵局-台南興華街郵局","LANDMARKAD":"1002102","ADDRESS":"台南市中西區興華街37號","TEL":"(06)2226-883","COUNTYNAME":"台南市","TOWNNAME":"中西區","MARKTYPE":"994","Class":"4"},"geometry":{"x":120.21119387860158,"y":22.992563006332382}},{"attributes":{"OBJECTID":11776,"LANDMARKID":"1002100000523","LANDMARKCO":"408","LANDMARKNA":"郵局-台南中正路郵局","LANDMARKAD":"1002102","ADDRESS":"台南市中西區中正路42號","TEL":"(06)2223-304","COUNTYNAME":"台南市","TOWNNAME":"中西區","MARKTYPE":"994","Class":"4"},"geometry":{"x":120.20220600503895,"y":22.992131375420431}},{"attributes":{"OBJECTID":11777,"LANDMARKID":"1002100000524","LANDMARKCO":"408","LANDMARKNA":"郵局-台南永樂郵局","LANDMARKAD":"1002102","ADDRESS":"台南市中西區民族路3段282號","TEL":"(06)2234-495","COUNTYNAME":"台南市","TOWNNAME":"中西區","MARKTYPE":"994","Class":"4"},"geometry":{"x":120.19242509015679,"y":23.000219719550838}},{"attributes":{"OBJECTID":11778,"LANDMARKID":"1002100000525","LANDMARKCO":"408","LANDMARKNA":"郵局-台南友愛街郵局","LANDMARKAD":"1002102","ADDRESS":"台南市中西區友愛街318號","TEL":"(06)2235-406","COUNTYNAME":"台南市","TOWNNAME":"中西區","MARKTYPE":"994","Class":"4"},"geometry":{"x":120.19378089836555,"y":22.992774682910483}},{"attributes":{"OBJECTID":11779,"LANDMARKID":"1002100000526","LANDMARKCO":"408","LANDMARKNA":"郵局-台南南門路郵局","LANDMARKAD":"1002102","ADDRESS":"台南市中西區南門路93號","TEL":"(06)2147-235","COUNTYNAME":"台南市","TOWNNAME":"中西區","MARKTYPE":"994","Class":"4"},"geometry":{"x":120.20467136310073,"y":22.988719802358965}},{"attributes":{"OBJECTID":11780,"LANDMARKID":"1002100000527","LANDMARKCO":"408","LANDMARKNA":"郵局-台南普濟郵局","LANDMARKAD":"1002102","ADDRESS":"台南市中西區西門路2段366號","TEL":"(06)2235-410","COUNTYNAME":"台南市","TOWNNAME":"中西區","MARKTYPE":"994","Class":"4"},"geometry":{"x":120.2005767994944,"y":22.998246423659072}},{"attributes":{"OBJECTID":11781,"LANDMARKID":"1002100000542","LANDMARKCO":"409","LANDMARKNA":"南市區漁會","LANDMARKAD":"1002102","ADDRESS":"台南市運河南街12號","TEL":"06-222-2712","COUNTYNAME":"台南市","TOWNNAME":"中西區","MARKTYPE":"994","Class":"4"},"geometry":{"x":120.1925580435627,"y":22.993602053220862}},{"attributes":{"OBJECTID":11782,"LANDMARKID":"1002100000374","LANDMARKCO":"404","LANDMARKNA":"台灣省自來水西區服務所","LANDMARKAD":"1002102","ADDRESS":"台南市中區南門路22號","TEL":" ","COUNTYNAME":"台南市","TOWNNAME":"中西區","MARKTYPE":"994","Class":"4"},"geometry":{"x":120.20401762607635,"y":22.988673645344402}},{"attributes":{"OBJECTID":11783,"LANDMARKID":"1002100000375","LANDMARKCO":"404","LANDMARKNA":"台灣省自來水第六區台南市市管理處","LANDMARKAD":"1002102","ADDRESS":"台南市中區南門路22號","TEL":" ","COUNTYNAME":"台南市","TOWNNAME":"中西區","MARKTYPE":"994","Class":"4"},"geometry":{"x":120.20402031628321,"y":22.988671613532379}},{"attributes":{"OBJECTID":11784,"LANDMARKID":"1002100000373","LANDMARKCO":"403","LANDMARKNA":"台灣電力公司台南區營業處","LANDMARKAD":"1002102","ADDRESS":"台南市中區忠義路一段109號","TEL":" ","COUNTYNAME":"台南市","TOWNNAME":"中西區","MARKTYPE":"994","Class":"4"},"geometry":{"x":120.20124196805459,"y":22.9880100337089}},{"attributes":{"OBJECTID":11785,"LANDMARKID":"1002100000472","LANDMARKCO":"406","LANDMARKNA":"西湖公園","LANDMARKAD":"1002102","ADDRESS":"台南市西區","TEL":" ","COUNTYNAME":"台南市","TOWNNAME":"中西區","MARKTYPE":"994","Class":"4"},"geometry":{"x":120.18411820366364,"y":22.999426958469012}},{"attributes":{"OBJECTID":11786,"LANDMARKID":"1002100000473","LANDMARKCO":"406","LANDMARKNA":"協和公園","LANDMARKAD":"1002102","ADDRESS":"台南市西區","TEL":" ","COUNTYNAME":"台南市","TOWNNAME":"中西區","MARKTYPE":"994","Class":"4"},"geometry":{"x":120.19364620388907,"y":23.000426712958358}},{"attributes":{"OBJECTID":11787,"LANDMARKID":"1002100000474","LANDMARKCO":"406","LANDMARKNA":"運動公園","LANDMARKAD":"1002102","ADDRESS":"台南市中區","TEL":" ","COUNTYNAME":"台南市","TOWNNAME":"中西區","MARKTYPE":"994","Class":"4"},"geometry":{"x":120.20160696598616,"y":22.990421414175245}},{"attributes":{"OBJECTID":11788,"LANDMARKID":"1002100000488","LANDMARKCO":"407","LANDMARKNA":"Gucci專賣店","LANDMARKAD":"1002102","ADDRESS":"台南市中西區西門路1段658","TEL":"06-3031049","COUNTYNAME":"台南市","TOWNNAME":"中西區","MARKTYPE":"994","Class":"4"},"geometry":{"x":120.19775446650193,"y":22.988063762543117}},{"attributes":{"OBJECTID":11789,"LANDMARKID":"1002100000489","LANDMARKCO":"407","LANDMARKNA":"遠東百貨","LANDMARKAD":"1002102","ADDRESS":"台南市公園路60號","TEL":"06-2259101","COUNTYNAME":"台南市","TOWNNAME":"中西區","MARKTYPE":"994","Class":"4"},"geometry":{"x":120.20581501514404,"y":22.995354425714254}},{"attributes":{"OBJECTID":11790,"LANDMARKID":"1002100000490","LANDMARKCO":"407","LANDMARKNA":"新光三越","LANDMARKAD":"1002102","ADDRESS":"台南市西門路一段658號","TEL":"303-0999","COUNTYNAME":"台南市","TOWNNAME":"中西區","MARKTYPE":"994","Class":"4"},"geometry":{"x":120.1988567684112,"y":22.986734183965879}},{"attributes":{"OBJECTID":11791,"LANDMARKID":"1002100000491","LANDMARKCO":"407","LANDMARKNA":"新光三越","LANDMARKAD":"1002102","ADDRESS":"台南市中山路162號","TEL":"2266-899","COUNTYNAME":"台南市","TOWNNAME":"中西區","MARKTYPE":"994","Class":"4"},"geometry":{"x":120.20988667716466,"y":22.995464772715387}},{"attributes":{"OBJECTID":11792,"LANDMARKID":"1002100000419","LANDMARKCO":"405","LANDMARKNA":"台亞加油站-金華站（台塑）","LANDMARKAD":"1002102","ADDRESS":"台南市中西區金華路三段169號","TEL":"(06)222-2950","COUNTYNAME":"台南市","TOWNNAME":"中西區","MARKTYPE":"994","Class":"4"},"geometry":{"x":120.19298238043787,"y":22.993121507779851}},{"attributes":{"OBJECTID":11793,"LANDMARKID":"1002100000042","LANDMARKCO":"103","LANDMARKNA":"台南巿中西區衛生所","LANDMARKAD":"1002102","ADDRESS":"台南市環河街94號","TEL":"06-2252403","COUNTYNAME":"台南市","TOWNNAME":"中西區","MARKTYPE":"991","Class":"1"},"geometry":{"x":120.1927228301076,"y":22.99507786047387}},{"attributes":{"OBJECTID":11794,"LANDMARKID":"1002100000125","LANDMARKCO":"108","LANDMARKNA":"台南市中西區區公所","LANDMARKAD":"1002102","ADDRESS":"台南市中西區開山路1號","TEL":"06-2267151","COUNTYNAME":"台南市","TOWNNAME":"中西區","MARKTYPE":"991","Class":"1"},"geometry":{"x":120.20567068906193,"y":22.992219510453712}},{"attributes":{"OBJECTID":11795,"LANDMARKID":"1002100000062","LANDMARKCO":"107","LANDMARKNA":"台南市警察局總局","LANDMARKAD":"1002102","ADDRESS":"台南市中西區永華里南門路37號","TEL":"06-2231101","COUNTYNAME":"台南市","TOWNNAME":"中西區","MARKTYPE":"991","Class":"1"},"geometry":{"x":120.20504874208513,"y":22.991030778891172}},{"attributes":{"OBJECTID":11796,"LANDMARKID":"1002100000063","LANDMARKCO":"107","LANDMARKNA":"台南市警察局第二分局","LANDMARKAD":"1002102","ADDRESS":"台南市南寧街144號","TEL":"06-2139070","COUNTYNAME":"台南市","TOWNNAME":"中西區","MARKTYPE":"991","Class":"1"},"geometry":{"x":120.20047368454767,"y":22.985330065191668}},{"attributes":{"OBJECTID":11797,"LANDMARKID":"1002100000064","LANDMARKCO":"107","LANDMARKNA":"台南市警察局南門派出所","LANDMARKAD":"1002102","ADDRESS":"台南市南寧街144號","TEL":"06-2148283","COUNTYNAME":"台南市","TOWNNAME":"中西區","MARKTYPE":"991","Class":"1"},"geometry":{"x":120.20047368454767,"y":22.985330065191668}},{"attributes":{"OBJECTID":11798,"LANDMARKID":"1002100000065","LANDMARKCO":"107","LANDMARKNA":"台南市警察局民權派出所","LANDMARKAD":"1002102","ADDRESS":"台南市中西區民權路2段202號","TEL":"06-2200277","COUNTYNAME":"台南市","TOWNNAME":"中西區","MARKTYPE":"991","Class":"1"},"geometry":{"x":120.20165725473034,"y":22.995575376762439}},{"attributes":{"OBJECTID":11799,"LANDMARKID":"1002100000066","LANDMARKCO":"107","LANDMARKNA":"台南市警察局博愛派出所","LANDMARKAD":"1002102","ADDRESS":"台南市中西區北門路1段103號","TEL":"06-2287553","COUNTYNAME":"台南市","TOWNNAME":"中西區","MARKTYPE":"991","Class":"1"},"geometry":{"x":120.21150923075282,"y":22.992548085308904}},{"attributes":{"OBJECTID":11800,"LANDMARKID":"1002100000067","LANDMARKCO":"107","LANDMARKNA":"台南市警察局第四分局","LANDMARKAD":"1002102","ADDRESS":"台南市安海里民生路二段273號","TEL":"06-2252241","COUNTYNAME":"台南市","TOWNNAME":"中西區","MARKTYPE":"991","Class":"1"},"geometry":{"x":120.19225190739591,"y":22.996497602627652}}]}