{"displayFieldName":"COUNTYNAME","fieldAliases":{"OBJECTID":"OBJECTID","LANDMARKID":"LANDMARKID","LANDMARKCO":"LANDMARKCO","LANDMARKNA":"LANDMARKNA","LANDMARKAD":"LANDMARKAD","ADDRESS":"ADDRESS","TEL":"TEL","COUNTYNAME":"COUNTYNAME","TOWNNAME":"TOWNNAME","MARKTYPE":"MARKTYPE","Class":"Class"},"geometryType":"esriGeometryPoint","spatialReference":{"wkid":4326},"fields":[{"name":"OBJECTID","type":"esriFieldTypeOID","alias":"OBJECTID"},{"name":"LANDMARKID","type":"esriFieldTypeString","alias":"LANDMARKID","length":15},{"name":"LANDMARKCO","type":"esriFieldTypeString","alias":"LANDMARKCO","length":15},{"name":"LANDMARKNA","type":"esriFieldTypeString","alias":"LANDMARKNA","length":50},{"name":"LANDMARKAD","type":"esriFieldTypeString","alias":"LANDMARKAD","length":15},{"name":"ADDRESS","type":"esriFieldTypeString","alias":"ADDRESS","length":56},{"name":"TEL","type":"esriFieldTypeString","alias":"TEL","length":36},{"name":"COUNTYNAME","type":"esriFieldTypeString","alias":"COUNTYNAME","length":15},{"name":"TOWNNAME","type":"esriFieldTypeString","alias":"TOWNNAME","length":13},{"name":"MARKTYPE","type":"esriFieldTypeString","alias":"MARKTYPE","length":12},{"name":"Class","type":"esriFieldTypeString","alias":"Class","length":5}],"features":[{"attributes":{"OBJECTID":12001,"LANDMARKID":"1002100000311","LANDMARKCO":"401","LANDMARKNA":"財團法人新樓基督教醫院","LANDMARKAD":"1002101","ADDRESS":"台南市東門路一段57號","TEL":"06-2748316","COUNTYNAME":"台南市","TOWNNAME":"東區","MARKTYPE":"994","Class":"4"},"geometry":{"x":120.21279732915475,"y":22.989165508742161}},{"attributes":{"OBJECTID":12002,"LANDMARKID":"1002100000312","LANDMARKCO":"401","LANDMARKNA":"仁愛醫院","LANDMARKAD":"1002101","ADDRESS":"台南市北門路一段10號","TEL":"06-2213111","COUNTYNAME":"台南市","TOWNNAME":"東區","MARKTYPE":"994","Class":"4"},"geometry":{"x":120.21160037418915,"y":22.989767673886856}},{"attributes":{"OBJECTID":12003,"LANDMARKID":"1002100000313","LANDMARKCO":"401","LANDMARKNA":"台南市立醫院","LANDMARKAD":"1002101","ADDRESS":"台南市崇德路670號","TEL":"06-2609926","COUNTYNAME":"台南市","TOWNNAME":"東區","MARKTYPE":"994","Class":"4"},"geometry":{"x":120.22672642705166,"y":22.968537002970592}},{"attributes":{"OBJECTID":12004,"LANDMARKID":"1002100000611","LANDMARKCO":"507","LANDMARKNA":"台灣府城大東門","LANDMARKAD":"1002101","ADDRESS":"台南市東區龍山里東門路一段320號前","TEL":" ","COUNTYNAME":"台南市","TOWNNAME":"東區","MARKTYPE":"995","Class":"5"},"geometry":{"x":120.21743551231722,"y":22.987037984547349}},{"attributes":{"OBJECTID":12005,"LANDMARKID":"1002100000612","LANDMARKCO":"507","LANDMARKNA":"台灣府城城垣小東門段殘蹟","LANDMARKAD":"1002101","ADDRESS":"台南市東區大學路1號（成功大學大學池旁）","TEL":" ","COUNTYNAME":"台南市","TOWNNAME":"東區","MARKTYPE":"995","Class":"5"},"geometry":{"x":120.21811412641891,"y":22.999308420016281}},{"attributes":{"OBJECTID":12006,"LANDMARKID":"1002100000613","LANDMARKCO":"507","LANDMARKNA":"台灣府城巽方砲台(巽方靖鎮)","LANDMARKAD":"1002101","ADDRESS":"台南市東區龍山里光華街10號（修禪院內）","TEL":" ","COUNTYNAME":"台南市","TOWNNAME":"東區","MARKTYPE":"995","Class":"5"},"geometry":{"x":120.21997366750202,"y":22.984314046197554}},{"attributes":{"OBJECTID":12007,"LANDMARKID":"1002100000614","LANDMARKCO":"507","LANDMARKNA":"台南火車站","LANDMARKAD":"1002101","ADDRESS":"台南市東區北門路二段4號","TEL":"06-2261314","COUNTYNAME":"台南市","TOWNNAME":"東區","MARKTYPE":"995","Class":"5"},"geometry":{"x":120.21234921504652,"y":22.997245502252653}},{"attributes":{"OBJECTID":12008,"LANDMARKID":"1002100000615","LANDMARKCO":"507","LANDMARKNA":"原台南州知事官邸","LANDMARKAD":"1002101","ADDRESS":"台南市東區衛民街1號","TEL":" ","COUNTYNAME":"台南市","TOWNNAME":"東區","MARKTYPE":"995","Class":"5"},"geometry":{"x":120.21267234100686,"y":22.992936645229591}},{"attributes":{"OBJECTID":12009,"LANDMARKID":"1002100000616","LANDMARKCO":"507","LANDMARKNA":"省立台南第一高級中學","LANDMARKAD":"1002101","ADDRESS":"台南市民族路一段1號","TEL":" ","COUNTYNAME":"台南市","TOWNNAME":"東區","MARKTYPE":"995","Class":"5"},"geometry":{"x":120.21655618443586,"y":22.994155262682057}},{"attributes":{"OBJECTID":12010,"LANDMARKID":"1002100000617","LANDMARKCO":"507","LANDMARKNA":"原日軍步兵第二聯隊營舍","LANDMARKAD":"1002101","ADDRESS":"台南市東區大學路1號(成大光復校區內)","TEL":" ","COUNTYNAME":"台南市","TOWNNAME":"東區","MARKTYPE":"995","Class":"5"},"geometry":{"x":120.22123056859718,"y":22.997866284843568}},{"attributes":{"OBJECTID":12011,"LANDMARKID":"1002100000618","LANDMARKCO":"507","LANDMARKNA":"原台南高等工業學校校舍","LANDMARKAD":"1002101","ADDRESS":"台南市東區大學路1號(成大成功校區內)","TEL":" ","COUNTYNAME":"台南市","TOWNNAME":"東區","MARKTYPE":"995","Class":"5"},"geometry":{"x":120.22111317267188,"y":22.997337700856612}},{"attributes":{"OBJECTID":12012,"LANDMARKID":"1002100000504","LANDMARKCO":"408","LANDMARKNA":"郵局-成功大學郵局","LANDMARKAD":"1002101","ADDRESS":"台南市大學路１號（光復校區內）","TEL":"(06)2377-908","COUNTYNAME":"台南市","TOWNNAME":"東區","MARKTYPE":"994","Class":"4"},"geometry":{"x":120.21952562205472,"y":22.996324711227707}},{"attributes":{"OBJECTID":12013,"LANDMARKID":"1002100000505","LANDMARKCO":"408","LANDMARKNA":"郵局-台南德高厝郵局","LANDMARKAD":"1002101","ADDRESS":"台南市崇德路678號","TEL":"(06)2681-297","COUNTYNAME":"台南市","TOWNNAME":"東區","MARKTYPE":"994","Class":"4"},"geometry":{"x":120.22736395894057,"y":22.967360262243503}},{"attributes":{"OBJECTID":12014,"LANDMARKID":"1002100000506","LANDMARKCO":"408","LANDMARKNA":"郵局-台南東城郵局","LANDMARKAD":"1002101","ADDRESS":"台南市府連路433號","TEL":"(06)2375-408","COUNTYNAME":"台南市","TOWNNAME":"東區","MARKTYPE":"994","Class":"4"},"geometry":{"x":120.21701976194554,"y":22.986154711533207}},{"attributes":{"OBJECTID":12015,"LANDMARKID":"1002100000507","LANDMARKCO":"408","LANDMARKNA":"郵局-台南東門郵局","LANDMARKAD":"1002101","ADDRESS":"台南市東門路2段216號","TEL":"(06)2683-290","COUNTYNAME":"台南市","TOWNNAME":"東區","MARKTYPE":"994","Class":"4"},"geometry":{"x":120.2238947163453,"y":22.984867593552913}},{"attributes":{"OBJECTID":12016,"LANDMARKID":"1002100000508","LANDMARKCO":"408","LANDMARKNA":"郵局-台南東寧路郵局","LANDMARKAD":"1002101","ADDRESS":"台南市東寧路323號","TEL":"(06)2363-607","COUNTYNAME":"台南市","TOWNNAME":"東區","MARKTYPE":"994","Class":"4"},"geometry":{"x":120.22758991731062,"y":22.990335290134169}},{"attributes":{"OBJECTID":12017,"LANDMARKID":"1002100000509","LANDMARKCO":"408","LANDMARKNA":"郵局-台南小東郵局","LANDMARKAD":"1002101","ADDRESS":"台南市東和路45號","TEL":"(06)2370-917","COUNTYNAME":"台南市","TOWNNAME":"東區","MARKTYPE":"994","Class":"4"},"geometry":{"x":120.22947520002383,"y":22.998548511174207}},{"attributes":{"OBJECTID":12018,"LANDMARKID":"1002100000510","LANDMARKCO":"408","LANDMARKNA":"郵局-台南虎尾寮郵局","LANDMARKAD":"1002101","ADDRESS":"台南市東區富農街1段167號","TEL":"(06)2907-881","COUNTYNAME":"台南市","TOWNNAME":"東區","MARKTYPE":"994","Class":"4"},"geometry":{"x":120.23474981769463,"y":22.982540912750867}},{"attributes":{"OBJECTID":12019,"LANDMARKID":"1002100000448","LANDMARKCO":"406","LANDMARKNA":"東寧運動公園","LANDMARKAD":"1002101","ADDRESS":"台南市東區","TEL":" ","COUNTYNAME":"台南市","TOWNNAME":"東區","MARKTYPE":"994","Class":"4"},"geometry":{"x":120.22485311431188,"y":22.992187775539218}},{"attributes":{"OBJECTID":12020,"LANDMARKID":"1002100000449","LANDMARKCO":"406","LANDMARKNA":"九號公園","LANDMARKAD":"1002101","ADDRESS":"台南市東區","TEL":" ","COUNTYNAME":"台南市","TOWNNAME":"東區","MARKTYPE":"994","Class":"4"},"geometry":{"x":120.2149349043834,"y":22.992006405114314}},{"attributes":{"OBJECTID":12021,"LANDMARKID":"1002100000450","LANDMARKCO":"406","LANDMARKNA":"東寧公園","LANDMARKAD":"1002101","ADDRESS":"台南市東區","TEL":" ","COUNTYNAME":"台南市","TOWNNAME":"東區","MARKTYPE":"994","Class":"4"},"geometry":{"x":120.22503366265735,"y":22.992362662918893}},{"attributes":{"OBJECTID":12022,"LANDMARKID":"1002100000451","LANDMARKCO":"406","LANDMARKNA":"三角公園","LANDMARKAD":"1002101","ADDRESS":"台南市東區","TEL":" ","COUNTYNAME":"台南市","TOWNNAME":"東區","MARKTYPE":"994","Class":"4"},"geometry":{"x":120.21815916491209,"y":22.983495330525887}},{"attributes":{"OBJECTID":12023,"LANDMARKID":"1002100000452","LANDMARKCO":"406","LANDMARKNA":"大智鄰里公園","LANDMARKAD":"1002101","ADDRESS":"台南市東區","TEL":" ","COUNTYNAME":"台南市","TOWNNAME":"東區","MARKTYPE":"994","Class":"4"},"geometry":{"x":120.23028258637945,"y":22.961629167130969}},{"attributes":{"OBJECTID":12024,"LANDMARKID":"1002100000497","LANDMARKCO":"407","LANDMARKNA":"小北百貨","LANDMARKAD":"1002101","ADDRESS":"台南市崇德路615號","TEL":"06-2882711","COUNTYNAME":"台南市","TOWNNAME":"東區","MARKTYPE":"994","Class":"4"},"geometry":{"x":120.22761641761984,"y":22.971970432464037}},{"attributes":{"OBJECTID":12025,"LANDMARKID":"1002100000498","LANDMARKCO":"407","LANDMARKNA":"小北百貨","LANDMARKAD":"1002101","ADDRESS":"台南市大同路二段103號","TEL":"06-2142559","COUNTYNAME":"台南市","TOWNNAME":"東區","MARKTYPE":"994","Class":"4"},"geometry":{"x":120.21358220507975,"y":22.978463573724603}},{"attributes":{"OBJECTID":12026,"LANDMARKID":"1002100000499","LANDMARKCO":"407","LANDMARKNA":"小北百貨","LANDMARKAD":"1002101","ADDRESS":"台南市東安路16號","TEL":"06-2088487","COUNTYNAME":"台南市","TOWNNAME":"東區","MARKTYPE":"994","Class":"4"},"geometry":{"x":120.22619602716354,"y":22.991109591165952}},{"attributes":{"OBJECTID":12027,"LANDMARKID":"1002100000500","LANDMARKCO":"407","LANDMARKNA":"小北百貨","LANDMARKAD":"1002101","ADDRESS":"台南市中華東路二段323號","TEL":"06-2698860","COUNTYNAME":"台南市","TOWNNAME":"東區","MARKTYPE":"994","Class":"4"},"geometry":{"x":120.23025775859738,"y":22.981861572014122}},{"attributes":{"OBJECTID":12028,"LANDMARKID":"1002100000501","LANDMARKCO":"407","LANDMARKNA":"遠東百貨","LANDMARKAD":"1002101","ADDRESS":"台南市前鋒路210號","TEL":"06-2098999","COUNTYNAME":"台南市","TOWNNAME":"東區","MARKTYPE":"994","Class":"4"},"geometry":{"x":120.21390410806352,"y":22.996409469373916}},{"attributes":{"OBJECTID":12029,"LANDMARKID":"1002100000502","LANDMARKCO":"407","LANDMARKNA":"誠品Eslite","LANDMARKAD":"1002101","ADDRESS":"台南市長榮路一段181號B2\/B1\/1F\/2F","TEL":"06-208-3977","COUNTYNAME":"台南市","TOWNNAME":"東區","MARKTYPE":"994","Class":"4"},"geometry":{"x":120.21764303211418,"y":22.98408169283131}},{"attributes":{"OBJECTID":12030,"LANDMARKID":"1002100000503","LANDMARKCO":"407","LANDMARKNA":"誠品Eslite","LANDMARKAD":"1002101","ADDRESS":"台南市長榮路一段181號B1","TEL":"06-208-3977","COUNTYNAME":"台南市","TOWNNAME":"東區","MARKTYPE":"994","Class":"4"},"geometry":{"x":120.21764303211418,"y":22.98408169283131}},{"attributes":{"OBJECTID":12031,"LANDMARKID":"1002100000446","LANDMARKCO":"405","LANDMARKNA":"台亞加油站-大同路站（台塑）","LANDMARKAD":"1002101","ADDRESS":"台南市東區大同路一段243號","TEL":"(06)213-9975","COUNTYNAME":"台南市","TOWNNAME":"東區","MARKTYPE":"994","Class":"4"},"geometry":{"x":120.2113162502598,"y":22.982924104228868}},{"attributes":{"OBJECTID":12032,"LANDMARKID":"1002100000079","LANDMARKCO":"107","LANDMARKNA":"台南市警察局東寧派出所","LANDMARKAD":"1002101","ADDRESS":"台南市東寧路133號","TEL":"06-2375433","COUNTYNAME":"台南市","TOWNNAME":"東區","MARKTYPE":"991","Class":"1"},"geometry":{"x":120.22447707409526,"y":22.991311835785126}},{"attributes":{"OBJECTID":12033,"LANDMARKID":"1002100000011","LANDMARKCO":"101","LANDMARKNA":"台灣省台南區車輛行車事故鑑定委員會","LANDMARKAD":"1002101","ADDRESS":"台南市府連東路87號","TEL":"06-2006969","COUNTYNAME":"台南市","TOWNNAME":"東區","MARKTYPE":"991","Class":"1"},"geometry":{"x":120.2181747312554,"y":22.984414293614154}},{"attributes":{"OBJECTID":12034,"LANDMARKID":"1002100000029","LANDMARKCO":"103","LANDMARKNA":"台南市政府無障礙福利之家","LANDMARKAD":"1002101","ADDRESS":"台南市林森路三段500號","TEL":"06-2005800","COUNTYNAME":"台南市","TOWNNAME":"東區","MARKTYPE":"991","Class":"1"},"geometry":{"x":120.22449486798833,"y":23.000432422645368}},{"attributes":{"OBJECTID":12035,"LANDMARKID":"1002100000030","LANDMARKCO":"103","LANDMARKNA":"台南市審計室","LANDMARKAD":"1002101","ADDRESS":"台南市富德街21號","TEL":"06-2601341","COUNTYNAME":"台南市","TOWNNAME":"東區","MARKTYPE":"991","Class":"1"},"geometry":{"x":120.22406907990572,"y":22.984212337478859}},{"attributes":{"OBJECTID":12036,"LANDMARKID":"1002100000031","LANDMARKCO":"103","LANDMARKNA":"台南巿政府衛生局","LANDMARKAD":"1002101","ADDRESS":"台南市林森路一段418號","TEL":"06-2679751","COUNTYNAME":"台南市","TOWNNAME":"東區","MARKTYPE":"991","Class":"1"},"geometry":{"x":120.22202723107476,"y":22.985018712915636}},{"attributes":{"OBJECTID":12037,"LANDMARKID":"1002100000032","LANDMARKCO":"103","LANDMARKNA":"台南巿東區衛生所","LANDMARKAD":"1002101","ADDRESS":"台南市林森路一段418號","TEL":"06-2673613","COUNTYNAME":"台南市","TOWNNAME":"東區","MARKTYPE":"991","Class":"1"},"geometry":{"x":120.22202723107476,"y":22.985018712915636}},{"attributes":{"OBJECTID":12038,"LANDMARKID":"1002100000123","LANDMARKCO":"108","LANDMARKNA":"台南市東區區公所","LANDMARKAD":"1002101","ADDRESS":"台南市崇學路100號","TEL":"06-2680622","COUNTYNAME":"台南市","TOWNNAME":"東區","MARKTYPE":"991","Class":"1"},"geometry":{"x":120.22395301595461,"y":22.98036213503071}},{"attributes":{"OBJECTID":12039,"LANDMARKID":"1002100000012","LANDMARKCO":"101","LANDMARKNA":"行政院衛生署胸腔病院門診院","LANDMARKAD":"1002101","ADDRESS":"台南市大同路一段69號","TEL":"06-2146006","COUNTYNAME":"台南市","TOWNNAME":"東區","MARKTYPE":"991","Class":"1"},"geometry":{"x":120.21151010078864,"y":22.987188705497275}},{"attributes":{"OBJECTID":12040,"LANDMARKID":"1002100000013","LANDMARKCO":"101","LANDMARKNA":"台南憲兵隊","LANDMARKAD":"1002101","ADDRESS":"台南市小東路600號","TEL":"06-2756530","COUNTYNAME":"台南市","TOWNNAME":"東區","MARKTYPE":"991","Class":"1"},"geometry":{"x":120.23948213625671,"y":22.998239271393857}},{"attributes":{"OBJECTID":12041,"LANDMARKID":"1002100000090","LANDMARKCO":"107","LANDMARKNA":"台南市警察局第一分局","LANDMARKAD":"1002101","ADDRESS":"台南市崇文里崇善路740號","TEL":"06-2684867","COUNTYNAME":"台南市","TOWNNAME":"東區","MARKTYPE":"991","Class":"1"},"geometry":{"x":120.23217386985071,"y":22.966533405997041}},{"attributes":{"OBJECTID":12042,"LANDMARKID":"1002100000091","LANDMARKCO":"107","LANDMARKNA":"台南市警察局文化派出所","LANDMARKAD":"1002101","ADDRESS":"台南市忠孝里崇明路384號","TEL":"06-2907243","COUNTYNAME":"台南市","TOWNNAME":"東區","MARKTYPE":"991","Class":"1"},"geometry":{"x":120.22111852727215,"y":22.976008935972917}},{"attributes":{"OBJECTID":12043,"LANDMARKID":"1002100000092","LANDMARKCO":"107","LANDMARKNA":"台南市警察局莊敬派出所","LANDMARKAD":"1002101","ADDRESS":"台南市莊敬里東光路二段66號","TEL":"06-2385398","COUNTYNAME":"台南市","TOWNNAME":"東區","MARKTYPE":"991","Class":"1"},"geometry":{"x":120.23164851686327,"y":22.996908131983364}},{"attributes":{"OBJECTID":12044,"LANDMARKID":"1002100000093","LANDMARKCO":"107","LANDMARKNA":"台南市警察局德高派出所","LANDMARKAD":"1002101","ADDRESS":"台南市崇文里崇善路740號","TEL":"06-2693405","COUNTYNAME":"台南市","TOWNNAME":"東區","MARKTYPE":"991","Class":"1"},"geometry":{"x":120.23217386985071,"y":22.966533405997041}},{"attributes":{"OBJECTID":12045,"LANDMARKID":"1002100000094","LANDMARKCO":"107","LANDMARKNA":"台南市警察局後甲派出所","LANDMARKAD":"1002101","ADDRESS":"台南市東聖里富農街一段267號","TEL":"06-2676364","COUNTYNAME":"台南市","TOWNNAME":"東區","MARKTYPE":"991","Class":"1"},"geometry":{"x":120.2354900488838,"y":22.984774918624272}},{"attributes":{"OBJECTID":12046,"LANDMARKID":"1002100000095","LANDMARKCO":"107","LANDMARKNA":"台南市警察局東門派出所","LANDMARKAD":"1002101","ADDRESS":"台南市龍山里富德街23號","TEL":"06-2690098","COUNTYNAME":"台南市","TOWNNAME":"東區","MARKTYPE":"991","Class":"1"},"geometry":{"x":120.22365931864435,"y":22.984395705644662}},{"attributes":{"OBJECTID":12047,"LANDMARKID":"1002100000096","LANDMARKCO":"107","LANDMARKNA":"台南市消防局崇善消防分隊","LANDMARKAD":"1002101","ADDRESS":"台南市崇善路740號","TEL":"06-2674781","COUNTYNAME":"台南市","TOWNNAME":"東區","MARKTYPE":"991","Class":"1"},"geometry":{"x":120.23217386985071,"y":22.966533405997041}},{"attributes":{"OBJECTID":12048,"LANDMARKID":"1002100000097","LANDMARKCO":"107","LANDMARKNA":"台南市消防局東門消防分隊","LANDMARKAD":"1002101","ADDRESS":"台南市東門路二段104巷25號","TEL":"06-2353860","COUNTYNAME":"台南市","TOWNNAME":"東區","MARKTYPE":"991","Class":"1"},"geometry":{"x":120.22011288975031,"y":22.985672659265546}},{"attributes":{"OBJECTID":12049,"LANDMARKID":"1002100000056","LANDMARKCO":"106","LANDMARKNA":"台南市東區戶政事務所","LANDMARKAD":"1002101","ADDRESS":"台南市崇學里9鄰崇善路195號","TEL":"06-3351559","COUNTYNAME":"台南市","TOWNNAME":"東區","MARKTYPE":"991","Class":"1"},"geometry":{"x":120.22397095139111,"y":22.980179443888073}},{"attributes":{"OBJECTID":12050,"LANDMARKID":"1002100000019","LANDMARKCO":"101","LANDMARKNA":"嘉義區監理所台南監理站","LANDMARKAD":"1002101","ADDRESS":"台南市崇德路1號","TEL":"06-2696678","COUNTYNAME":"台南市","TOWNNAME":"東區","MARKTYPE":"991","Class":"1"},"geometry":{"x":120.21764975324066,"y":22.98204321909628}},{"attributes":{"OBJECTID":12051,"LANDMARKID":"1002100000020","LANDMARKCO":"101","LANDMARKNA":"國道高速公路局南區工程處","LANDMARKAD":"1002101","ADDRESS":"台南市裕農路991號","TEL":"06-2363201","COUNTYNAME":"台南市","TOWNNAME":"東區","MARKTYPE":"991","Class":"1"},"geometry":{"x":120.24779358662532,"y":22.991070497970973}},{"attributes":{"OBJECTID":12052,"LANDMARKID":"1002100000021","LANDMARKCO":"101","LANDMARKNA":"台灣糖業研究所－園藝系","LANDMARKAD":"1002101","ADDRESS":"台南市生產路54號","TEL":"06-2155740","COUNTYNAME":"台南市","TOWNNAME":"東區","MARKTYPE":"991","Class":"1"},"geometry":{"x":120.22094082406132,"y":22.964552386544437}},{"attributes":{"OBJECTID":12053,"LANDMARKID":"1002100000028","LANDMARKCO":"103","LANDMARKNA":"台南市環境保護局","LANDMARKAD":"1002101","ADDRESS":"台南市中華東路二段133巷72號","TEL":"06-2686751","COUNTYNAME":"台南市","TOWNNAME":"東區","MARKTYPE":"991","Class":"1"},"geometry":{"x":120.23526726393901,"y":22.984786314363063}},{"attributes":{"OBJECTID":12054,"LANDMARKID":"1002100000014","LANDMARKCO":"101","LANDMARKNA":"國軍退除役官兵輔導委員會","LANDMARKAD":"1002101","ADDRESS":"台南市崇明路190號","TEL":"06-2690418","COUNTYNAME":"台南市","TOWNNAME":"東區","MARKTYPE":"991","Class":"1"},"geometry":{"x":120.21784395400056,"y":22.979022279993984}},{"attributes":{"OBJECTID":12055,"LANDMARKID":"1002100000015","LANDMARKCO":"101","LANDMARKNA":"職業訓練局雲嘉南區就業服務中心","LANDMARKAD":"1002101","ADDRESS":"台南市衛民街19號","TEL":"06-2371218","COUNTYNAME":"台南市","TOWNNAME":"東區","MARKTYPE":"991","Class":"1"},"geometry":{"x":120.21269633789608,"y":22.992521514002025}},{"attributes":{"OBJECTID":12056,"LANDMARKID":"1002100000016","LANDMARKCO":"101","LANDMARKNA":"農糧署南區分署","LANDMARKAD":"1002101","ADDRESS":"台南市東門路一段320號","TEL":"06-2372161","COUNTYNAME":"台南市","TOWNNAME":"東區","MARKTYPE":"991","Class":"1"},"geometry":{"x":120.21693640945898,"y":22.986788274823557}},{"attributes":{"OBJECTID":12057,"LANDMARKID":"1002100000017","LANDMARKCO":"101","LANDMARKNA":"國軍退除役官兵輔導委員會","LANDMARKAD":"1002101","ADDRESS":"台南市育樂街88號","TEL":"06-2741981","COUNTYNAME":"台南市","TOWNNAME":"東區","MARKTYPE":"991","Class":"1"},"geometry":{"x":120.2149759919169,"y":22.996149188504681}},{"attributes":{"OBJECTID":12058,"LANDMARKID":"1002100000018","LANDMARKCO":"101","LANDMARKNA":"海外技術合作委員會台南中心","LANDMARKAD":"1002101","ADDRESS":"台南市德光街","TEL":" ","COUNTYNAME":"台南市","TOWNNAME":"東區","MARKTYPE":"991","Class":"1"},"geometry":{"x":120.22197244542227,"y":22.980464734975961}},{"attributes":{"OBJECTID":12059,"LANDMARKID":"1002100000052","LANDMARKCO":"105","LANDMARKNA":"台南市東南地政事務所","LANDMARKAD":"1002101","ADDRESS":"台南市林森一段318號","TEL":"06-2680595","COUNTYNAME":"台南市","TOWNNAME":"東區","MARKTYPE":"991","Class":"1"},"geometry":{"x":120.22016287406437,"y":22.98315599842773}},{"attributes":{"OBJECTID":12060,"LANDMARKID":"1002100000238","LANDMARKCO":"205","LANDMARKNA":"國立成功大學歷史文物館","LANDMARKAD":"1002101","ADDRESS":"台南市東區大學路1號","TEL":"06-2757575","COUNTYNAME":"台南市","TOWNNAME":"東區","MARKTYPE":"992","Class":"2"},"geometry":{"x":120.21822531499474,"y":23.000042308179495}},{"attributes":{"OBJECTID":12061,"LANDMARKID":"1002100000239","LANDMARKCO":"205","LANDMARKNA":"台灣糖業博物館","LANDMARKAD":"1002101","ADDRESS":"台南市東區生產路54號","TEL":"06-2671911","COUNTYNAME":"台南市","TOWNNAME":"東區","MARKTYPE":"992","Class":"2"},"geometry":{"x":120.22102300159312,"y":22.9645659192465}},{"attributes":{"OBJECTID":12062,"LANDMARKID":"1002100000240","LANDMARKCO":"205","LANDMARKNA":"台南基督長老教會歷史資料館","LANDMARKAD":"1002101","ADDRESS":"台南市東區林森路二段79號","TEL":" ","COUNTYNAME":"台南市","TOWNNAME":"東區","MARKTYPE":"992","Class":"2"},"geometry":{"x":120.22301154849087,"y":22.988340897466639}},{"attributes":{"OBJECTID":12063,"LANDMARKID":"1002100000232","LANDMARKCO":"204","LANDMARKNA":"台南巿立圖書館東區分館","LANDMARKAD":"1002101","ADDRESS":"台南市東區林森路二段46號","TEL":" ","COUNTYNAME":"台南市","TOWNNAME":"東區","MARKTYPE":"992","Class":"2"},"geometry":{"x":120.2230490723427,"y":22.98643541123084}},{"attributes":{"OBJECTID":12064,"LANDMARKID":"1002100000141","LANDMARKCO":"202","LANDMARKNA":"國立台南一中","LANDMARKAD":"1002101","ADDRESS":"台南市民族路一段1號","TEL":"06-2371206","COUNTYNAME":"台南市","TOWNNAME":"東區","MARKTYPE":"992","Class":"2"},"geometry":{"x":120.21561145120506,"y":22.994175646419421}},{"attributes":{"OBJECTID":12065,"LANDMARKID":"1002100000142","LANDMARKCO":"202","LANDMARKNA":"私立長榮高中","LANDMARKAD":"1002101","ADDRESS":"台南市林森路二段79號","TEL":"06-2381711","COUNTYNAME":"台南市","TOWNNAME":"東區","MARKTYPE":"992","Class":"2"},"geometry":{"x":120.22089675303295,"y":22.988976319728952}},{"attributes":{"OBJECTID":12066,"LANDMARKID":"1002100000143","LANDMARKCO":"202","LANDMARKNA":"私立長榮女中","LANDMARKAD":"1002101","ADDRESS":"台南市長榮路二段135號","TEL":"06-2387605","COUNTYNAME":"台南市","TOWNNAME":"東區","MARKTYPE":"992","Class":"2"},"geometry":{"x":120.22099170752057,"y":22.991074567802105}},{"attributes":{"OBJECTID":12067,"LANDMARKID":"1002100000144","LANDMARKCO":"202","LANDMARKNA":"私立光華女中","LANDMARKAD":"1002101","ADDRESS":"台南市勝利路41號","TEL":"06-2386501","COUNTYNAME":"台南市","TOWNNAME":"東區","MARKTYPE":"992","Class":"2"},"geometry":{"x":120.21706156567356,"y":22.988715247819567}},{"attributes":{"OBJECTID":12068,"LANDMARKID":"1002100000145","LANDMARKCO":"202","LANDMARKNA":"私立德光女中","LANDMARKAD":"1002101","ADDRESS":"台南市德光街106號","TEL":"06-2894560","COUNTYNAME":"台南市","TOWNNAME":"東區","MARKTYPE":"992","Class":"2"},"geometry":{"x":120.2215614624161,"y":22.979810507951129}},{"attributes":{"OBJECTID":12069,"LANDMARKID":"1002100000146","LANDMARKCO":"202","LANDMARKNA":"私立慈幼高工","LANDMARKAD":"1002101","ADDRESS":"台南市裕農路801號","TEL":"06-2362106","COUNTYNAME":"台南市","TOWNNAME":"東區","MARKTYPE":"992","Class":"2"},"geometry":{"x":120.23919598494804,"y":22.989400471356287}},{"attributes":{"OBJECTID":12070,"LANDMARKID":"1002100000147","LANDMARKCO":"202","LANDMARKNA":"國立成功大學附設工補","LANDMARKAD":"1002101","ADDRESS":"台南市大學路1號","TEL":"06-2757575","COUNTYNAME":"台南市","TOWNNAME":"東區","MARKTYPE":"992","Class":"2"},"geometry":{"x":120.21952193786768,"y":22.996326932553927}},{"attributes":{"OBJECTID":12071,"LANDMARKID":"1002100000181","LANDMARKCO":"203","LANDMARKNA":"市立後甲國中","LANDMARKAD":"1002101","ADDRESS":"台南市東平路260號","TEL":"06-2388118","COUNTYNAME":"台南市","TOWNNAME":"東區","MARKTYPE":"992","Class":"2"},"geometry":{"x":120.22601476994959,"y":22.995749301854811}},{"attributes":{"OBJECTID":12072,"LANDMARKID":"1002100000182","LANDMARKCO":"203","LANDMARKNA":"市立崇明國中","LANDMARKAD":"1002101","ADDRESS":"台南市崇明路700號","TEL":"06-2907259","COUNTYNAME":"台南市","TOWNNAME":"東區","MARKTYPE":"992","Class":"2"},"geometry":{"x":120.22499281064151,"y":22.969822727885965}},{"attributes":{"OBJECTID":12073,"LANDMARKID":"1002100000183","LANDMARKCO":"203","LANDMARKNA":"市立復興國中","LANDMARKAD":"1002101","ADDRESS":"台南市裕文路62號","TEL":"06-3310688","COUNTYNAME":"台南市","TOWNNAME":"東區","MARKTYPE":"992","Class":"2"},"geometry":{"x":120.24007394425446,"y":22.982241208932948}},{"attributes":{"OBJECTID":12074,"LANDMARKID":"1002100000184","LANDMARKCO":"203","LANDMARKNA":"市立忠孝國中","LANDMARKAD":"1002101","ADDRESS":"台南市崇善路151號","TEL":"06-2670495","COUNTYNAME":"台南市","TOWNNAME":"東區","MARKTYPE":"992","Class":"2"},"geometry":{"x":120.22235573601989,"y":22.981459399087761}},{"attributes":{"OBJECTID":12075,"LANDMARKID":"1002100000185","LANDMARKCO":"203","LANDMARKNA":"市立東光國小","LANDMARKAD":"1002101","ADDRESS":"台南市東光路一段39號","TEL":"06-2376534","COUNTYNAME":"台南市","TOWNNAME":"東區","MARKTYPE":"992","Class":"2"},"geometry":{"x":120.2307373462365,"y":22.991578263841223}},{"attributes":{"OBJECTID":12076,"LANDMARKID":"1002100000186","LANDMARKCO":"203","LANDMARKNA":"市立博愛國小","LANDMARKAD":"1002101","ADDRESS":"台南市圍下里前鋒路100號","TEL":"06-2377905","COUNTYNAME":"台南市","TOWNNAME":"東區","MARKTYPE":"992","Class":"2"},"geometry":{"x":120.21328839140328,"y":22.993078251616492}},{"attributes":{"OBJECTID":12077,"LANDMARKID":"1002100000187","LANDMARKCO":"203","LANDMARKNA":"市立崇明國小","LANDMARKAD":"1002101","ADDRESS":"台南市崇明路698號","TEL":"06-2673330","COUNTYNAME":"台南市","TOWNNAME":"東區","MARKTYPE":"992","Class":"2"},"geometry":{"x":120.22537667750099,"y":22.971311930715753}},{"attributes":{"OBJECTID":12078,"LANDMARKID":"1002100000188","LANDMARKCO":"203","LANDMARKNA":"市立德高國小","LANDMARKAD":"1002101","ADDRESS":"台南市崇善路1155號","TEL":"06-2681891","COUNTYNAME":"台南市","TOWNNAME":"東區","MARKTYPE":"992","Class":"2"},"geometry":{"x":120.23597324264558,"y":22.962732329595312}},{"attributes":{"OBJECTID":12079,"LANDMARKID":"1002100000189","LANDMARKCO":"203","LANDMARKNA":"市立崇學國小","LANDMARKAD":"1002101","ADDRESS":"台南市崇學路98號","TEL":"06-2689951","COUNTYNAME":"台南市","TOWNNAME":"東區","MARKTYPE":"992","Class":"2"},"geometry":{"x":120.22333411971351,"y":22.979563651208547}},{"attributes":{"OBJECTID":12080,"LANDMARKID":"1002100000190","LANDMARKCO":"203","LANDMARKNA":"市立勝利國小","LANDMARKAD":"1002101","ADDRESS":"台南市中西里勝利路10號","TEL":"06-2372982","COUNTYNAME":"台南市","TOWNNAME":"東區","MARKTYPE":"992","Class":"2"},"geometry":{"x":120.21771056369018,"y":22.988617809558562}},{"attributes":{"OBJECTID":12081,"LANDMARKID":"1002100000191","LANDMARKCO":"203","LANDMARKNA":"市立復興國小","LANDMARKAD":"1002101","ADDRESS":"台南市裕文路60號","TEL":"06-3310457","COUNTYNAME":"台南市","TOWNNAME":"東區","MARKTYPE":"992","Class":"2"},"geometry":{"x":120.23866519830432,"y":22.982600010901777}},{"attributes":{"OBJECTID":12082,"LANDMARKID":"1002100000192","LANDMARKCO":"203","LANDMARKNA":"市立大同國小","LANDMARKAD":"1002101","ADDRESS":"台南市榮譽街30號","TEL":"06-2157589","COUNTYNAME":"台南市","TOWNNAME":"東區","MARKTYPE":"992","Class":"2"},"geometry":{"x":120.21572781730544,"y":22.973915340699641}},{"attributes":{"OBJECTID":12083,"LANDMARKID":"1002100000127","LANDMARKCO":"201","LANDMARKNA":"國立成功大學","LANDMARKAD":"1002101","ADDRESS":"台南市大學路1號","TEL":"06-2757575","COUNTYNAME":"台南市","TOWNNAME":"東區","MARKTYPE":"992","Class":"2"},"geometry":{"x":120.21952193786768,"y":22.996326932553927}},{"attributes":{"OBJECTID":12084,"LANDMARKID":"1002100000128","LANDMARKCO":"201","LANDMARKNA":"國立成功大學附設空中商專","LANDMARKAD":"1002101","ADDRESS":"台南市大學路1號","TEL":"06-2757575","COUNTYNAME":"台南市","TOWNNAME":"東區","MARKTYPE":"992","Class":"2"},"geometry":{"x":120.21952193786768,"y":22.996326932553927}},{"attributes":{"OBJECTID":12085,"LANDMARKID":"1002100000129","LANDMARKCO":"201","LANDMARKNA":"台南神學院","LANDMARKAD":"1002101","ADDRESS":"台南市東門路一段117號","TEL":"06-2371291","COUNTYNAME":"台南市","TOWNNAME":"東區","MARKTYPE":"992","Class":"2"},"geometry":{"x":120.21394178014921,"y":22.988291743820522}},{"attributes":{"OBJECTID":12086,"LANDMARKID":"1002100000243","LANDMARKCO":"301","LANDMARKNA":"台南火車站","LANDMARKAD":"1002101","ADDRESS":"台南市東區北門路二段4號","TEL":" ","COUNTYNAME":"台南市","TOWNNAME":"東區","MARKTYPE":"993","Class":"301"},"geometry":{"x":120.2123325098931,"y":22.997181165201845}},{"attributes":{"OBJECTID":12087,"LANDMARKID":"1002100000244","LANDMARKCO":"302","LANDMARKNA":"國光汽車客運台南站","LANDMARKAD":"1002101","ADDRESS":"台南市東區北門路二段2號","TEL":" ","COUNTYNAME":"台南市","TOWNNAME":"東區","MARKTYPE":"993","Class":"302"},"geometry":{"x":120.21245041144525,"y":22.997510715035801}},{"attributes":{"OBJECTID":12088,"LANDMARKID":"1002100000245","LANDMARKCO":"302","LANDMARKNA":"統聯汽車客運台南車站","LANDMARKAD":"1002101","ADDRESS":"台南市北區北門路二段2號","TEL":" ","COUNTYNAME":"台南市","TOWNNAME":"東區","MARKTYPE":"993","Class":"302"},"geometry":{"x":120.2124333984455,"y":22.997512713701653}},{"attributes":{"OBJECTID":12089,"LANDMARKID":"1002100000292","LANDMARKCO":"303","LANDMARKNA":"巴西停車場","LANDMARKAD":"1002101","ADDRESS":"台南市東區民族路128號","TEL":" ","COUNTYNAME":"台南市","TOWNNAME":"東區","MARKTYPE":"993","Class":"303"},"geometry":{"x":120.21370639766091,"y":22.994504433712248}},{"attributes":{"OBJECTID":12090,"LANDMARKID":"1002100000293","LANDMARKCO":"303","LANDMARKNA":"大東停車場","LANDMARKAD":"1002101","ADDRESS":"台南市東區林森路大東夜市旁","TEL":" ","COUNTYNAME":"台南市","TOWNNAME":"東區","MARKTYPE":"993","Class":"303"},"geometry":{"x":120.21858986033429,"y":22.980454358977397}},{"attributes":{"OBJECTID":12091,"LANDMARKID":"1002100000294","LANDMARKCO":"303","LANDMARKNA":"大福新村停車場","LANDMARKAD":"1002101","ADDRESS":"台南市東區榮譽街","TEL":" ","COUNTYNAME":"台南市","TOWNNAME":"東區","MARKTYPE":"993","Class":"303"},"geometry":{"x":120.21948577241852,"y":22.975902544505065}},{"attributes":{"OBJECTID":12092,"LANDMARKID":"1002100000295","LANDMARKCO":"303","LANDMARKNA":"長榮酒店停車場","LANDMARKAD":"1002101","ADDRESS":"台南市東區中華路三段","TEL":" ","COUNTYNAME":"台南市","TOWNNAME":"東區","MARKTYPE":"993","Class":"303"},"geometry":{"x":120.22093690803061,"y":22.973808425007302}},{"attributes":{"OBJECTID":12093,"LANDMARKID":"1002100000296","LANDMARKCO":"303","LANDMARKNA":"東興路停車場","LANDMARKAD":"1002101","ADDRESS":"台南市東區東興路56號","TEL":" ","COUNTYNAME":"台南市","TOWNNAME":"東區","MARKTYPE":"993","Class":"303"},"geometry":{"x":120.22931387058443,"y":22.992905387857597}},{"attributes":{"OBJECTID":12094,"LANDMARKID":"1002100000358","LANDMARKCO":"402","LANDMARKNA":"中華電信-台南中華特約服務中心","LANDMARKAD":"1002101","ADDRESS":"台南市中華東路二段325號","TEL":"06-2697562","COUNTYNAME":"台南市","TOWNNAME":"東區","MARKTYPE":"994","Class":"4"},"geometry":{"x":120.23016631565964,"y":22.981741030883224}},{"attributes":{"OBJECTID":12095,"LANDMARKID":"1002100000359","LANDMARKCO":"402","LANDMARKNA":"中華電信-台南崇德特約服務中心","LANDMARKAD":"1002101","ADDRESS":"台南市東區崇德路557號","TEL":"06-2676988","COUNTYNAME":"台南市","TOWNNAME":"東區","MARKTYPE":"994","Class":"4"},"geometry":{"x":120.22762156879898,"y":22.973214350475015}},{"attributes":{"OBJECTID":12096,"LANDMARKID":"1002100000360","LANDMARKCO":"402","LANDMARKNA":"中華電信-台南東寧特約服務中心","LANDMARKAD":"1002101","ADDRESS":"台南市東寧路492號","TEL":"06-2351712","COUNTYNAME":"台南市","TOWNNAME":"東區","MARKTYPE":"994","Class":"4"},"geometry":{"x":120.23022652783321,"y":22.989200526377171}},{"attributes":{"OBJECTID":12097,"LANDMARKID":"1002100000361","LANDMARKCO":"402","LANDMARKNA":"遠傳電信-台南大同門市","LANDMARKAD":"1002101","ADDRESS":"台南市東區大同路二段95號","TEL":" ","COUNTYNAME":"台南市","TOWNNAME":"東區","MARKTYPE":"994","Class":"4"},"geometry":{"x":120.21345801901052,"y":22.978778406484878}},{"attributes":{"OBJECTID":12098,"LANDMARKID":"1002100000362","LANDMARKCO":"402","LANDMARKNA":"遠傳電信-台南門市","LANDMARKAD":"1002101","ADDRESS":"台南市東區中華東路三段72號","TEL":" ","COUNTYNAME":"台南市","TOWNNAME":"東區","MARKTYPE":"994","Class":"4"},"geometry":{"x":120.22780495023488,"y":22.979586948333477}},{"attributes":{"OBJECTID":12099,"LANDMARKID":"1002100000363","LANDMARKCO":"402","LANDMARKNA":"威寶電信-台南東門二特約服務中心","LANDMARKAD":"1002101","ADDRESS":"台南市東區東門路二段132號","TEL":"06-2671234","COUNTYNAME":"台南市","TOWNNAME":"東區","MARKTYPE":"994","Class":"4"},"geometry":{"x":120.22080114326968,"y":22.985871327878009}},{"attributes":{"OBJECTID":12100,"LANDMARKID":"1002100000364","LANDMARKCO":"402","LANDMARKNA":"威寶電信-台南東寧特約服務中心","LANDMARKAD":"1002101","ADDRESS":"台南市東區東寧路122之1號","TEL":"06-2366169","COUNTYNAME":"台南市","TOWNNAME":"東區","MARKTYPE":"994","Class":"4"},"geometry":{"x":120.2218632415191,"y":22.991832580391815}},{"attributes":{"OBJECTID":12101,"LANDMARKID":"1002100000365","LANDMARKCO":"402","LANDMARKNA":"威寶電信-台南崇德特約服務中心","LANDMARKAD":"1002101","ADDRESS":"台南市東區崇德路485號","TEL":"06-3368697","COUNTYNAME":"台南市","TOWNNAME":"東區","MARKTYPE":"994","Class":"4"},"geometry":{"x":120.22701172292165,"y":22.974526850257519}},{"attributes":{"OBJECTID":12102,"LANDMARKID":"1002100000366","LANDMARKCO":"402","LANDMARKNA":"威寶電信-台南大同特約服務中心","LANDMARKAD":"1002101","ADDRESS":"台南市東區大同路二段69號","TEL":"06-2133094","COUNTYNAME":"台南市","TOWNNAME":"東區","MARKTYPE":"994","Class":"4"},"geometry":{"x":120.21320825831344,"y":22.979290661770772}},{"attributes":{"OBJECTID":12103,"LANDMARKID":"1002100000367","LANDMARKCO":"402","LANDMARKNA":"威寶電信-台南東門特約服務中心","LANDMARKAD":"1002101","ADDRESS":"台南市東區東門路三段2號","TEL":"06-2671234","COUNTYNAME":"台南市","TOWNNAME":"東區","MARKTYPE":"994","Class":"4"},"geometry":{"x":120.22969951155348,"y":22.98076120612998}},{"attributes":{"OBJECTID":12104,"LANDMARKID":"1002100000626","LANDMARKCO":"601","LANDMARKNA":"台糖長榮酒店(台南)","LANDMARKAD":"1002101","ADDRESS":"台南市中華東路3段336巷1號","TEL":"06-289-9988","COUNTYNAME":"台南市","TOWNNAME":"東區","MARKTYPE":"996","Class":"6"},"geometry":{"x":120.22072039992374,"y":22.974594343876049}},{"attributes":{"OBJECTID":12105,"LANDMARKID":"1002100000621","LANDMARKCO":"511","LANDMARKNA":"大東夜市","LANDMARKAD":"1002101","ADDRESS":"台南市東區","TEL":" ","COUNTYNAME":"台南市","TOWNNAME":"東區","MARKTYPE":"995","Class":"5"},"geometry":{"x":120.21895652318908,"y":22.982811199577508}},{"attributes":{"OBJECTID":12106,"LANDMARKID":"1002100000307","LANDMARKCO":"305","LANDMARKNA":"安平新港","LANDMARKAD":"1002107","ADDRESS":"台南市安平區","TEL":" ","COUNTYNAME":"台南市","TOWNNAME":"安平區","MARKTYPE":"993","Class":"305"},"geometry":{"x":120.16171653764793,"y":22.969612879600028}},{"attributes":{"OBJECTID":12107,"LANDMARKID":"1002100000435","LANDMARKCO":"405","LANDMARKNA":"統一速邁樂加油站-金華加油站(中油)","LANDMARKAD":"1002103","ADDRESS":"台南市金華路一段1號","TEL":" ","COUNTYNAME":"台南市(海)","TOWNNAME":"南區(海)","MARKTYPE":"994","Class":"4"},"geometry":{"x":120.18904846413855,"y":22.961584541666266}},{"attributes":{"OBJECTID":12108,"LANDMARKID":"1002100000436","LANDMARKCO":"405","LANDMARKNA":"中油加油站-北海站(中油直營)","LANDMARKAD":"1002103","ADDRESS":"台南市南區濱南路239號","TEL":"06-2965899","COUNTYNAME":"台南市(海)","TOWNNAME":"南區(海)","MARKTYPE":"994","Class":"4"},"geometry":{"x":120.17845295786759,"y":22.950172548247995}},{"attributes":{"OBJECTID":12109,"LANDMARKID":"1002100000437","LANDMARKCO":"405","LANDMARKNA":"中油加油站-大同路站(刷卡自助)(中油直營)","LANDMARKAD":"1002103","ADDRESS":"台南市東區大同路二段380號","TEL":"06-2153503","COUNTYNAME":"台南市(海)","TOWNNAME":"南區(海)","MARKTYPE":"994","Class":"4"},"geometry":{"x":120.21399436578596,"y":22.975109574110274}},{"attributes":{"OBJECTID":12110,"LANDMARKID":"1002100000438","LANDMARKCO":"405","LANDMARKNA":"中油加油站-喜樹站(中油直營)","LANDMARKAD":"1002103","ADDRESS":"台南市南區喜樹路63號","TEL":"06-2622820","COUNTYNAME":"台南市(海)","TOWNNAME":"南區(海)","MARKTYPE":"994","Class":"4"},"geometry":{"x":120.18000033544556,"y":22.946214552336851}},{"attributes":{"OBJECTID":12111,"LANDMARKID":"1002100000439","LANDMARKCO":"405","LANDMARKNA":"中油加油站-中華西路南站(刷卡自助)(中油直營)","LANDMARKAD":"1002103","ADDRESS":"台南市南區中華西路二段2號","TEL":"06-2970350","COUNTYNAME":"台南市(海)","TOWNNAME":"南區(海)","MARKTYPE":"994","Class":"4"},"geometry":{"x":120.18650377829063,"y":22.982580040169019}},{"attributes":{"OBJECTID":12112,"LANDMARKID":"1002100000440","LANDMARKCO":"405","LANDMARKNA":"中油加油站-明興站(中油直營)","LANDMARKAD":"1002103","ADDRESS":"台南市南區明興路465號","TEL":"06-2963816","COUNTYNAME":"台南市(海)","TOWNNAME":"南區(海)","MARKTYPE":"994","Class":"4"},"geometry":{"x":120.18351346244545,"y":22.946200978390571}},{"attributes":{"OBJECTID":12113,"LANDMARKID":"1002100000441","LANDMARKCO":"405","LANDMARKNA":"中油加油站-安平工業區站(中油直營)","LANDMARKAD":"1002103","ADDRESS":"台南市南區中華西路一段65號","TEL":"06-2654022","COUNTYNAME":"台南市(海)","TOWNNAME":"南區(海)","MARKTYPE":"994","Class":"4"},"geometry":{"x":120.18329418877687,"y":22.972690183158882}},{"attributes":{"OBJECTID":12114,"LANDMARKID":"1002100000442","LANDMARKCO":"405","LANDMARKNA":"中油加油站-灣裡站(中油直營)","LANDMARKAD":"1002103","ADDRESS":"台南市南區明興路1081號","TEL":"06-2626810","COUNTYNAME":"台南市(海)","TOWNNAME":"南區(海)","MARKTYPE":"994","Class":"4"},"geometry":{"x":120.18568306018064,"y":22.929273120237795}},{"attributes":{"OBJECTID":12115,"LANDMARKID":"1002100000443","LANDMARKCO":"405","LANDMARKNA":"中油加油站-國民路站(中油直營)","LANDMARKAD":"1002103","ADDRESS":"台南市南區國民路246號","TEL":"06-2601380","COUNTYNAME":"台南市(海)","TOWNNAME":"南區(海)","MARKTYPE":"994","Class":"4"},"geometry":{"x":120.21007507311882,"y":22.969063738323012}},{"attributes":{"OBJECTID":12116,"LANDMARKID":"1002100000356","LANDMARKCO":"402","LANDMARKNA":"亞太行動寬頻電信-台南永華加盟服務中心","LANDMARKAD":"1002103","ADDRESS":"台南市南區永華路一段11號","TEL":"06-2225533","COUNTYNAME":"台南市(海)","TOWNNAME":"南區(海)","MARKTYPE":"994","Class":"4"},"geometry":{"x":120.19702220023025,"y":22.987266985729782}},{"attributes":{"OBJECTID":12117,"LANDMARKID":"1002100000357","LANDMARKCO":"402","LANDMARKNA":"亞太行動寬頻電信-台南金華加盟服務中心","LANDMARKAD":"1002103","ADDRESS":"台南市南區金華路一段513號","TEL":"06-2616747","COUNTYNAME":"台南市(海)","TOWNNAME":"南區(海)","MARKTYPE":"994","Class":"4"},"geometry":{"x":120.19076811446733,"y":22.974770155584785}},{"attributes":{"OBJECTID":12118,"LANDMARKID":"1002100000308","LANDMARKCO":"401","LANDMARKNA":"天心中醫醫院","LANDMARKAD":"1002103","ADDRESS":"台南市南區金華路二段187號","TEL":"06-2638207","COUNTYNAME":"台南市(海)","TOWNNAME":"南區(海)","MARKTYPE":"994","Class":"4"},"geometry":{"x":120.19135691041006,"y":22.981909907420498}},{"attributes":{"OBJECTID":12119,"LANDMARKID":"1002100000309","LANDMARKCO":"401","LANDMARKNA":"奇美醫學中心-台南分院","LANDMARKAD":"1002103","ADDRESS":"台南市樹林街二段442號","TEL":"06-2228116","COUNTYNAME":"台南市(海)","TOWNNAME":"南區(海)","MARKTYPE":"994","Class":"4"},"geometry":{"x":120.19618744474761,"y":22.986464519649697}},{"attributes":{"OBJECTID":12120,"LANDMARKID":"1002100000607","LANDMARKCO":"507","LANDMARKNA":"龍山寺","LANDMARKAD":"1002103","ADDRESS":"台南市南區","TEL":" ","COUNTYNAME":"台南市(海)","TOWNNAME":"南區(海)","MARKTYPE":"995","Class":"5"},"geometry":{"x":120.17246556853011,"y":22.962207986559079}},{"attributes":{"OBJECTID":12121,"LANDMARKID":"1002100000608","LANDMARKCO":"507","LANDMARKNA":"曾振暘墓","LANDMARKAD":"1002103","ADDRESS":"台南市南區竹溪里","TEL":" ","COUNTYNAME":"台南市(海)","TOWNNAME":"南區(海)","MARKTYPE":"995","Class":"5"},"geometry":{"x":120.19599192219761,"y":22.965849563778278}},{"attributes":{"OBJECTID":12122,"LANDMARKID":"1002100000609","LANDMARKCO":"507","LANDMARKNA":"藩府二鄭公子墓","LANDMARKAD":"1002103","ADDRESS":"台南市南區桶盤淺段墓園內","TEL":" ","COUNTYNAME":"台南市(海)","TOWNNAME":"南區(海)","MARKTYPE":"995","Class":"5"},"geometry":{"x":120.19962815310475,"y":22.95143586643772}},{"attributes":{"OBJECTID":12123,"LANDMARKID":"1002100000610","LANDMARKCO":"507","LANDMARKNA":"藩府曾蔡二姬墓","LANDMARKAD":"1002103","ADDRESS":"台南市南區桶盤淺段墓園內","TEL":" ","COUNTYNAME":"台南市(海)","TOWNNAME":"南區(海)","MARKTYPE":"995","Class":"5"},"geometry":{"x":120.19910218887959,"y":22.970613295172839}},{"attributes":{"OBJECTID":12124,"LANDMARKID":"1002100000453","LANDMARKCO":"406","LANDMARKNA":"社區公園","LANDMARKAD":"1002103","ADDRESS":"台南市南區","TEL":" ","COUNTYNAME":"台南市(海)","TOWNNAME":"南區(海)","MARKTYPE":"994","Class":"4"},"geometry":{"x":120.21185808350691,"y":22.977035193642816}},{"attributes":{"OBJECTID":12125,"LANDMARKID":"1002100000454","LANDMARKCO":"406","LANDMARKNA":"社區公園","LANDMARKAD":"1002103","ADDRESS":"台南市南區","TEL":" ","COUNTYNAME":"台南市(海)","TOWNNAME":"南區(海)","MARKTYPE":"994","Class":"4"},"geometry":{"x":120.18453602255956,"y":22.967140747302029}},{"attributes":{"OBJECTID":12126,"LANDMARKID":"1002100000455","LANDMARKCO":"406","LANDMARKNA":"社區公園","LANDMARKAD":"1002103","ADDRESS":"台南市南區","TEL":" ","COUNTYNAME":"台南市(海)","TOWNNAME":"南區(海)","MARKTYPE":"994","Class":"4"},"geometry":{"x":120.19628305382095,"y":22.976410726396931}},{"attributes":{"OBJECTID":12127,"LANDMARKID":"1002100000511","LANDMARKCO":"408","LANDMARKNA":"郵局-台南西門路郵局","LANDMARKAD":"1002103","ADDRESS":"台南市西門路1段681號","TEL":"(06)2222-471","COUNTYNAME":"台南市(海)","TOWNNAME":"南區(海)","MARKTYPE":"994","Class":"4"},"geometry":{"x":120.19731193816733,"y":22.986677910221225}},{"attributes":{"OBJECTID":12128,"LANDMARKID":"1002100000512","LANDMARKCO":"408","LANDMARKNA":"郵局-台南大同路郵局","LANDMARKAD":"1002103","ADDRESS":"台南市大同路2段410號","TEL":"(06)2159-673","COUNTYNAME":"台南市(海)","TOWNNAME":"南區(海)","MARKTYPE":"994","Class":"4"},"geometry":{"x":120.21410956611743,"y":22.974472744348876}},{"attributes":{"OBJECTID":12129,"LANDMARKID":"1002100000513","LANDMARKCO":"408","LANDMARKNA":"郵局-台南灣裡郵局","LANDMARKAD":"1002103","ADDRESS":"台南市灣裡路82號","TEL":"(06)2622-411","COUNTYNAME":"台南市(海)","TOWNNAME":"南區(海)","MARKTYPE":"994","Class":"4"},"geometry":{"x":120.18057396313883,"y":22.931489996295703}},{"attributes":{"OBJECTID":12130,"LANDMARKID":"1002100000514","LANDMARKCO":"408","LANDMARKNA":"郵局-台南鹽埕郵局","LANDMARKAD":"1002103","ADDRESS":"台南市金華路1段86號","TEL":"(06)2616-286","COUNTYNAME":"台南市(海)","TOWNNAME":"南區(海)","MARKTYPE":"994","Class":"4"},"geometry":{"x":120.18964032974951,"y":22.963191040344928}},{"attributes":{"OBJECTID":12131,"LANDMARKID":"1002100000515","LANDMARKCO":"408","LANDMARKNA":"郵局-台南新義郵局","LANDMARKAD":"1002103","ADDRESS":"台南市新義路1號","TEL":"(06)2654-762","COUNTYNAME":"台南市(海)","TOWNNAME":"南區(海)","MARKTYPE":"994","Class":"4"},"geometry":{"x":120.18313343959461,"y":22.970002882257432}},{"attributes":{"OBJECTID":12132,"LANDMARKID":"1002100000516","LANDMARKCO":"408","LANDMARKNA":"郵局-台南金華郵局","LANDMARKAD":"1002103","ADDRESS":"台南市健康路2段182號","TEL":"(06)2227-221","COUNTYNAME":"台南市(海)","TOWNNAME":"南區(海)","MARKTYPE":"994","Class":"4"},"geometry":{"x":120.19271544196241,"y":22.981665806613041}},{"attributes":{"OBJECTID":12133,"LANDMARKID":"1002100000456","LANDMARKCO":"406","LANDMARKNA":"市立體育公園","LANDMARKAD":"1002103","ADDRESS":"台南市南區","TEL":" ","COUNTYNAME":"台南市(海)","TOWNNAME":"南區(海)","MARKTYPE":"994","Class":"4"},"geometry":{"x":120.2108588348718,"y":22.980420524815028}},{"attributes":{"OBJECTID":12134,"LANDMARKID":"1002100000457","LANDMARKCO":"406","LANDMARKNA":"水萍塭公園","LANDMARKAD":"1002103","ADDRESS":"台南市南區","TEL":" ","COUNTYNAME":"台南市(海)","TOWNNAME":"南區(海)","MARKTYPE":"994","Class":"4"},"geometry":{"x":120.19333205401541,"y":22.98650218721486}},{"attributes":{"OBJECTID":12135,"LANDMARKID":"1002100000458","LANDMARKCO":"406","LANDMARKNA":"棒球公園","LANDMARKAD":"1002103","ADDRESS":"台南市南區","TEL":" ","COUNTYNAME":"台南市(海)","TOWNNAME":"南區(海)","MARKTYPE":"994","Class":"4"},"geometry":{"x":120.21056222139865,"y":22.980807315608988}},{"attributes":{"OBJECTID":12136,"LANDMARKID":"1002100000459","LANDMARKCO":"406","LANDMARKNA":"明和公園","LANDMARKAD":"1002103","ADDRESS":"台南市南區","TEL":" ","COUNTYNAME":"台南市(海)","TOWNNAME":"南區(海)","MARKTYPE":"994","Class":"4"},"geometry":{"x":120.1847394999309,"y":22.974959120080975}},{"attributes":{"OBJECTID":12137,"LANDMARKID":"1002100000460","LANDMARKCO":"406","LANDMARKNA":"南都公園","LANDMARKAD":"1002103","ADDRESS":"台南市南區","TEL":" ","COUNTYNAME":"台南市(海)","TOWNNAME":"南區(海)","MARKTYPE":"994","Class":"4"},"geometry":{"x":120.18743446994279,"y":22.961923437895635}},{"attributes":{"OBJECTID":12138,"LANDMARKID":"1002100000461","LANDMARKCO":"406","LANDMARKNA":"日新公園","LANDMARKAD":"1002103","ADDRESS":"台南市南區","TEL":" ","COUNTYNAME":"台南市(海)","TOWNNAME":"南區(海)","MARKTYPE":"994","Class":"4"},"geometry":{"x":120.18826648920101,"y":22.974037358573039}},{"attributes":{"OBJECTID":12139,"LANDMARKID":"1002100000462","LANDMARKCO":"406","LANDMARKNA":"金華公園","LANDMARKAD":"1002103","ADDRESS":"台南市南區","TEL":" ","COUNTYNAME":"台南市(海)","TOWNNAME":"南區(海)","MARKTYPE":"994","Class":"4"},"geometry":{"x":120.19019335400073,"y":22.98044090230886}},{"attributes":{"OBJECTID":12140,"LANDMARKID":"1002100000463","LANDMARKCO":"406","LANDMARKNA":"一號公園","LANDMARKAD":"1002103","ADDRESS":"台南市南區","TEL":" ","COUNTYNAME":"台南市(海)","TOWNNAME":"南區(海)","MARKTYPE":"994","Class":"4"},"geometry":{"x":120.19347521443498,"y":22.979785672306207}},{"attributes":{"OBJECTID":12141,"LANDMARKID":"1002100000464","LANDMARKCO":"406","LANDMARKNA":"明德社區公園","LANDMARKAD":"1002103","ADDRESS":"台南市南區","TEL":" ","COUNTYNAME":"台南市(海)","TOWNNAME":"南區(海)","MARKTYPE":"994","Class":"4"},"geometry":{"x":120.20103011333511,"y":22.973733127672677}},{"attributes":{"OBJECTID":12142,"LANDMARKID":"1002100000465","LANDMARKCO":"406","LANDMARKNA":"萬年公園","LANDMARKAD":"1002103","ADDRESS":"台南市南區","TEL":" ","COUNTYNAME":"台南市(海)","TOWNNAME":"南區(海)","MARKTYPE":"994","Class":"4"},"geometry":{"x":120.18085031998621,"y":22.933386963771071}},{"attributes":{"OBJECTID":12143,"LANDMARKID":"1002100000494","LANDMARKCO":"407","LANDMARKNA":"小北百貨","LANDMARKAD":"1002103","ADDRESS":"台南市中華西路一段189號","TEL":"06-2640917","COUNTYNAME":"台南市(海)","TOWNNAME":"南區(海)","MARKTYPE":"994","Class":"4"},"geometry":{"x":120.18591086347422,"y":22.983286962398658}},{"attributes":{"OBJECTID":12144,"LANDMARKID":"1002100000495","LANDMARKCO":"407","LANDMARKNA":"小北百貨","LANDMARKAD":"1002103","ADDRESS":"台南市西門路一段382號1樓","TEL":"06-2913107","COUNTYNAME":"台南市(海)","TOWNNAME":"南區(海)","MARKTYPE":"994","Class":"4"},"geometry":{"x":120.19785992869662,"y":22.981116380507025}},{"attributes":{"OBJECTID":12145,"LANDMARKID":"1002100000496","LANDMARKCO":"407","LANDMARKNA":"小北百貨","LANDMARKAD":"1002103","ADDRESS":"台南市中華南路二段113號","TEL":"06-2623036","COUNTYNAME":"台南市(海)","TOWNNAME":"南區(海)","MARKTYPE":"994","Class":"4"},"geometry":{"x":120.19250257945464,"y":22.961616703360416}},{"attributes":{"OBJECTID":12146,"LANDMARKID":"1002100000444","LANDMARKCO":"405","LANDMARKNA":"全國加油站-南一站（台塑）","LANDMARKAD":"1002103","ADDRESS":"台南市南區中華南路一段188號","TEL":"06-2158430","COUNTYNAME":"台南市(海)","TOWNNAME":"南區(海)","MARKTYPE":"994","Class":"4"},"geometry":{"x":120.20957256622459,"y":22.969149266388342}},{"attributes":{"OBJECTID":12147,"LANDMARKID":"1002100000445","LANDMARKCO":"405","LANDMARKNA":"鯨世界加油站-安平站(台塑)","LANDMARKAD":"1002103","ADDRESS":"台南市南區新樂路3-1號","TEL":" ","COUNTYNAME":"台南市(海)","TOWNNAME":"南區(海)","MARKTYPE":"994","Class":"4"},"geometry":{"x":120.17873198383579,"y":22.979104030695062}},{"attributes":{"OBJECTID":12148,"LANDMARKID":"1002100000060","LANDMARKCO":"107","LANDMARKNA":"台南市消防局第一消防大隊部","LANDMARKAD":"1002103","ADDRESS":"台南市南門路206號","TEL":"06-2158304","COUNTYNAME":"台南市(海)","TOWNNAME":"南區(海)","MARKTYPE":"991","Class":"1"},"geometry":{"x":120.20353835131918,"y":22.977474913894518}},{"attributes":{"OBJECTID":12149,"LANDMARKID":"1002100000061","LANDMARKCO":"107","LANDMARKNA":"台南市消防局南門消防分隊","LANDMARKAD":"1002103","ADDRESS":"台南市南門路206號","TEL":"06-2151510","COUNTYNAME":"台南市(海)","TOWNNAME":"南區(海)","MARKTYPE":"991","Class":"1"},"geometry":{"x":120.20353941009917,"y":22.97738462040553}},{"attributes":{"OBJECTID":12150,"LANDMARKID":"1002100000027","LANDMARKCO":"103","LANDMARKNA":"台南巿南區衛生所","LANDMARKAD":"1002103","ADDRESS":"台南市南和路6號","TEL":"06-2618578","COUNTYNAME":"台南市(海)","TOWNNAME":"南區(海)","MARKTYPE":"991","Class":"1"},"geometry":{"x":120.18804639443965,"y":22.960680850789242}},{"attributes":{"OBJECTID":12151,"LANDMARKID":"1002100000126","LANDMARKCO":"108","LANDMARKNA":"台南市南區區公所","LANDMARKAD":"1002103","ADDRESS":"台南市明興路2號","TEL":"06-2910126","COUNTYNAME":"台南市(海)","TOWNNAME":"南區(海)","MARKTYPE":"991","Class":"1"},"geometry":{"x":120.18831693391051,"y":22.960929699574475}},{"attributes":{"OBJECTID":12152,"LANDMARKID":"1002100000080","LANDMARKCO":"107","LANDMARKNA":"台南市警察局第六分局","LANDMARKAD":"1002103","ADDRESS":"台南市中華南路二段241號","TEL":"06-2640556","COUNTYNAME":"台南市(海)","TOWNNAME":"南區(海)","MARKTYPE":"991","Class":"1"},"geometry":{"x":120.18787394885008,"y":22.961351766439282}},{"attributes":{"OBJECTID":12153,"LANDMARKID":"1002100000081","LANDMARKCO":"107","LANDMARKNA":"台南市警察局喜樹派出所","LANDMARKAD":"1002103","ADDRESS":"台南市喜樹路151巷1號","TEL":"06-2622407","COUNTYNAME":"台南市(海)","TOWNNAME":"南區(海)","MARKTYPE":"991","Class":"1"},"geometry":{"x":120.17911542173806,"y":22.941050010949514}},{"attributes":{"OBJECTID":12154,"LANDMARKID":"1002100000082","LANDMARKCO":"107","LANDMARKNA":"台南市警察局鯤鯓派出所","LANDMARKAD":"1002103","ADDRESS":"台南市鯤鯓路161號","TEL":"06-2627306","COUNTYNAME":"台南市(海)","TOWNNAME":"南區(海)","MARKTYPE":"991","Class":"1"},"geometry":{"x":120.16910680081044,"y":22.961976234543588}},{"attributes":{"OBJECTID":12155,"LANDMARKID":"1002100000083","LANDMARKCO":"107","LANDMARKNA":"台南市警察局新興派出所","LANDMARKAD":"1002103","ADDRESS":"台南市中華西路一段67之1號","TEL":"06-2611428","COUNTYNAME":"台南市(海)","TOWNNAME":"南區(海)","MARKTYPE":"991","Class":"1"},"geometry":{"x":120.18366388791429,"y":22.974073413861728}},{"attributes":{"OBJECTID":12156,"LANDMARKID":"1002100000084","LANDMARKCO":"107","LANDMARKNA":"台南市警察局金華派出所","LANDMARKAD":"1002103","ADDRESS":"台南市金華路二段250號","TEL":"06-2640007","COUNTYNAME":"台南市(海)","TOWNNAME":"南區(海)","MARKTYPE":"991","Class":"1"},"geometry":{"x":120.19159712302445,"y":22.98138188248166}},{"attributes":{"OBJECTID":12157,"LANDMARKID":"1002100000085","LANDMARKCO":"107","LANDMARKNA":"台南市警察局灣裡派出所","LANDMARKAD":"1002103","ADDRESS":"台南市灣裡路61巷2號","TEL":"06-2622819","COUNTYNAME":"台南市(海)","TOWNNAME":"南區(海)","MARKTYPE":"991","Class":"1"},"geometry":{"x":120.18114697971271,"y":22.932814355456426}},{"attributes":{"OBJECTID":12158,"LANDMARKID":"1002100000086","LANDMARKCO":"107","LANDMARKNA":"台南市警察局鹽埕派出所","LANDMARKAD":"1002103","ADDRESS":"台南市中華南路二段241號","TEL":"06-2910222","COUNTYNAME":"台南市(海)","TOWNNAME":"南區(海)","MARKTYPE":"991","Class":"1"},"geometry":{"x":120.18787394885008,"y":22.961351766439282}},{"attributes":{"OBJECTID":12159,"LANDMARKID":"1002100000087","LANDMARKCO":"107","LANDMARKNA":"台南市警察局大林派出所","LANDMARKAD":"1002103","ADDRESS":"台南市大同路二段456號","TEL":"06-2150209","COUNTYNAME":"台南市(海)","TOWNNAME":"南區(海)","MARKTYPE":"991","Class":"1"},"geometry":{"x":120.2142018785451,"y":22.973579646597095}},{"attributes":{"OBJECTID":12160,"LANDMARKID":"1002100000088","LANDMARKCO":"107","LANDMARKNA":"台南市消防局德興消防分隊","LANDMARKAD":"1002103","ADDRESS":"台南市德興路100號","TEL":"06-2611509","COUNTYNAME":"台南市(海)","TOWNNAME":"南區(海)","MARKTYPE":"991","Class":"1"},"geometry":{"x":120.19231250379626,"y":22.964204157693985}},{"attributes":{"OBJECTID":12161,"LANDMARKID":"1002100000089","LANDMARKCO":"107","LANDMARKNA":"台南市消防局灣裡消防分隊","LANDMARKAD":"1002103","ADDRESS":"台南市灣裡路61巷6號","TEL":"06-2623732","COUNTYNAME":"台南市(海)","TOWNNAME":"南區(海)","MARKTYPE":"991","Class":"1"},"geometry":{"x":120.181346213514,"y":22.932854789785914}},{"attributes":{"OBJECTID":12162,"LANDMARKID":"1002100000059","LANDMARKCO":"106","LANDMARKNA":"台南市南區戶政事務所","LANDMARKAD":"1002103","ADDRESS":"台南市南都里28鄰明興路2號","TEL":"06-2913702","COUNTYNAME":"台南市(海)","TOWNNAME":"南區(海)","MARKTYPE":"991","Class":"1"},"geometry":{"x":120.18831693391051,"y":22.960929699574475}},{"attributes":{"OBJECTID":12163,"LANDMARKID":"1002100000022","LANDMARKCO":"101","LANDMARKNA":"台灣台南少年觀護所","LANDMARKAD":"1002103","ADDRESS":"台南市大林路161號","TEL":"06-2150583","COUNTYNAME":"台南市(海)","TOWNNAME":"南區(海)","MARKTYPE":"991","Class":"1"},"geometry":{"x":120.21024688616058,"y":22.974820958018292}},{"attributes":{"OBJECTID":12164,"LANDMARKID":"1002100000023","LANDMARKCO":"101","LANDMARKNA":"台南更生晨曦輔導所","LANDMARKAD":"1002103","ADDRESS":"台南市大林路193號","TEL":"06-2155026","COUNTYNAME":"台南市(海)","TOWNNAME":"南區(海)","MARKTYPE":"991","Class":"1"},"geometry":{"x":120.20962805503322,"y":22.974543876925594}},{"attributes":{"OBJECTID":12165,"LANDMARKID":"1002100000024","LANDMARKCO":"101","LANDMARKNA":"工業局安平工業區服務中心","LANDMARKAD":"1002103","ADDRESS":"台南市中華西路一段67號","TEL":"06-2645015","COUNTYNAME":"台南市(海)","TOWNNAME":"南區(海)","MARKTYPE":"991","Class":"1"},"geometry":{"x":120.18309388195789,"y":22.973896753295811}},{"attributes":{"OBJECTID":12166,"LANDMARKID":"1002100000025","LANDMARKCO":"103","LANDMARKNA":"台南市政府公共工程處","LANDMARKAD":"1002103","ADDRESS":"台南市永華二段6號","TEL":"06-3901300","COUNTYNAME":"台南市(海)","TOWNNAME":"南區(海)","MARKTYPE":"991","Class":"1"},"geometry":{"x":120.20792701099013,"y":22.971364420290218}},{"attributes":{"OBJECTID":12167,"LANDMARKID":"1002100000026","LANDMARKCO":"103","LANDMARKNA":"台南市立殯儀館","LANDMARKAD":"1002103","ADDRESS":"台南市南區國民路268號","TEL":"06-2144331","COUNTYNAME":"台南市(海)","TOWNNAME":"南區(海)","MARKTYPE":"991","Class":"1"},"geometry":{"x":120.2091682770844,"y":22.970153715082674}},{"attributes":{"OBJECTID":12168,"LANDMARKID":"1002100000234","LANDMARKCO":"204","LANDMARKNA":"台南巿立圖書館南區分館","LANDMARKAD":"1002103","ADDRESS":"台南市南區喜樹路179號","TEL":" ","COUNTYNAME":"台南市(海)","TOWNNAME":"南區(海)","MARKTYPE":"992","Class":"2"},"geometry":{"x":120.17818207974123,"y":22.94030580053353}},{"attributes":{"OBJECTID":12169,"LANDMARKID":"1002100000155","LANDMARKCO":"202","LANDMARKNA":"私立亞洲工商","LANDMARKAD":"1002103","ADDRESS":"台南市大成路一段5號","TEL":"06-2640175","COUNTYNAME":"台南市(海)","TOWNNAME":"南區(海)","MARKTYPE":"992","Class":"2"},"geometry":{"x":120.20290914969716,"y":22.974849849032857}},{"attributes":{"OBJECTID":12170,"LANDMARKID":"1002100000156","LANDMARKCO":"202","LANDMARKNA":"私立六信高中","LANDMARKAD":"1002103","ADDRESS":"台南市新都路20號","TEL":"06-2619885","COUNTYNAME":"台南市(海)","TOWNNAME":"南區(海)","MARKTYPE":"992","Class":"2"},"geometry":{"x":120.20248952596853,"y":22.974046883956177}},{"attributes":{"OBJECTID":12171,"LANDMARKID":"1002100000157","LANDMARKCO":"203","LANDMARKNA":"市立新興國中","LANDMARKAD":"1002103","ADDRESS":"台南市新孝路87號","TEL":"06-2633171","COUNTYNAME":"台南市(海)","TOWNNAME":"南區(海)","MARKTYPE":"992","Class":"2"},"geometry":{"x":120.18627369363699,"y":22.977655146061061}},{"attributes":{"OBJECTID":12172,"LANDMARKID":"1002100000158","LANDMARKCO":"203","LANDMARKNA":"市立永華國小","LANDMARKAD":"1002103","ADDRESS":"台南市中華西路一段2巷17號","TEL":"06-2644357","COUNTYNAME":"台南市(海)","TOWNNAME":"南區(海)","MARKTYPE":"992","Class":"2"},"geometry":{"x":120.18698147937788,"y":22.964297741298601}},{"attributes":{"OBJECTID":12173,"LANDMARKID":"1002100000159","LANDMARKCO":"203","LANDMARKNA":"市立喜樹國小","LANDMARKAD":"1002103","ADDRESS":"台南市喜東里喜樹路133號","TEL":"06-2622462","COUNTYNAME":"台南市(海)","TOWNNAME":"南區(海)","MARKTYPE":"992","Class":"2"},"geometry":{"x":120.1797987339623,"y":22.942323508777374}},{"attributes":{"OBJECTID":12174,"LANDMARKID":"1002100000152","LANDMARKCO":"202","LANDMARKNA":"市立南寧高中","LANDMARKAD":"1002103","ADDRESS":"台南市明興路925巷167號","TEL":"06-2622458","COUNTYNAME":"台南市(海)","TOWNNAME":"南區(海)","MARKTYPE":"992","Class":"2"},"geometry":{"x":120.18648489767433,"y":22.935335241681987}},{"attributes":{"OBJECTID":12175,"LANDMARKID":"1002100000153","LANDMARKCO":"202","LANDMARKNA":"私立建業高中","LANDMARKAD":"1002103","ADDRESS":"台南市大成路一段26號","TEL":"06-2633457","COUNTYNAME":"台南市(海)","TOWNNAME":"南區(海)","MARKTYPE":"992","Class":"2"},"geometry":{"x":120.20236316998545,"y":22.975217227919931}},{"attributes":{"OBJECTID":12176,"LANDMARKID":"1002100000154","LANDMARKCO":"202","LANDMARKNA":"國立台南高商","LANDMARKAD":"1002103","ADDRESS":"台南市健康路一段327號","TEL":"06-2657064","COUNTYNAME":"台南市(海)","TOWNNAME":"南區(海)","MARKTYPE":"992","Class":"2"},"geometry":{"x":120.2019438673738,"y":22.981051008153276}},{"attributes":{"OBJECTID":12177,"LANDMARKID":"1002100000160","LANDMARKCO":"203","LANDMARKNA":"市立大成國中","LANDMARKAD":"1002103","ADDRESS":"台南市西門路一段306號","TEL":"06-2630011","COUNTYNAME":"台南市(海)","TOWNNAME":"南區(海)","MARKTYPE":"992","Class":"2"},"geometry":{"x":120.1979793465278,"y":22.978609475572323}},{"attributes":{"OBJECTID":12178,"LANDMARKID":"1002100000161","LANDMARKCO":"203","LANDMARKNA":"市立日新國小","LANDMARKAD":"1002103","ADDRESS":"台南市金華路一段473號","TEL":"06-2912931","COUNTYNAME":"台南市(海)","TOWNNAME":"南區(海)","MARKTYPE":"992","Class":"2"},"geometry":{"x":120.19046094547951,"y":22.973333472954401}},{"attributes":{"OBJECTID":12179,"LANDMARKID":"1002100000162","LANDMARKCO":"203","LANDMARKNA":"市立志開國小","LANDMARKAD":"1002103","ADDRESS":"台南市興中里南門路232號","TEL":"06-2619431","COUNTYNAME":"台南市(海)","TOWNNAME":"南區(海)","MARKTYPE":"992","Class":"2"},"geometry":{"x":120.20292146333894,"y":22.976202196226961}},{"attributes":{"OBJECTID":12180,"LANDMARKID":"1002100000163","LANDMARKCO":"203","LANDMARKNA":"市立新興國小","LANDMARKAD":"1002103","ADDRESS":"台南市新興路22號","TEL":"06-2617452","COUNTYNAME":"台南市(海)","TOWNNAME":"南區(海)","MARKTYPE":"992","Class":"2"},"geometry":{"x":120.19690637628317,"y":22.979813748136586}},{"attributes":{"OBJECTID":12181,"LANDMARKID":"1002100000164","LANDMARKCO":"203","LANDMARKNA":"市立龍崗國小","LANDMARKAD":"1002103","ADDRESS":"台南市鯤鯓路147號","TEL":"06-2620024","COUNTYNAME":"台南市(海)","TOWNNAME":"南區(海)","MARKTYPE":"992","Class":"2"},"geometry":{"x":120.16954877720177,"y":22.961374799629084}},{"attributes":{"OBJECTID":12182,"LANDMARKID":"1002100000165","LANDMARKCO":"203","LANDMARKNA":"市立省躬國小","LANDMARKAD":"1002103","ADDRESS":"台南市灣裡路70號","TEL":"06-2622460","COUNTYNAME":"台南市(海)","TOWNNAME":"南區(海)","MARKTYPE":"992","Class":"2"},"geometry":{"x":120.18032358348233,"y":22.932504154048662}},{"attributes":{"OBJECTID":12183,"LANDMARKID":"1002100000256","LANDMARKCO":"302","LANDMARKNA":"興南客運-總公司","LANDMARKAD":"1002103","ADDRESS":"台南市新樂路72號","TEL":"06-2653121~5等","COUNTYNAME":"台南市(海)","TOWNNAME":"南區(海)","MARKTYPE":"993","Class":"302"},"geometry":{"x":120.17361226781381,"y":22.968161021666319}},{"attributes":{"OBJECTID":12184,"LANDMARKID":"1002100000257","LANDMARKCO":"302","LANDMARKNA":"興南客運-遊覽部","LANDMARKAD":"1002103","ADDRESS":"台南市西門路一段547號","TEL":"06-2224207","COUNTYNAME":"台南市(海)","TOWNNAME":"南區(海)","MARKTYPE":"993","Class":"302"},"geometry":{"x":120.19733309910579,"y":22.98364557843993}},{"attributes":{"OBJECTID":12185,"LANDMARKID":"1002100000258","LANDMARKCO":"302","LANDMARKNA":"興南客運-台南站","LANDMARKAD":"1002103","ADDRESS":"台南市永華路一段27號","TEL":"06-2206382","COUNTYNAME":"台南市(海)","TOWNNAME":"南區(海)","MARKTYPE":"993","Class":"302"},"geometry":{"x":120.19654573842914,"y":22.987290937580617}},{"attributes":{"OBJECTID":12186,"LANDMARKID":"1002100000305","LANDMARKCO":"304","LANDMARKNA":"台南航空站-台南機場","LANDMARKAD":"1002103","ADDRESS":"台南市南區大同路二段1002號","TEL":" ","COUNTYNAME":"台南市(海)","TOWNNAME":"南區(海)","MARKTYPE":"993","Class":"304"},"geometry":{"x":120.21496693933967,"y":22.955432697471316}},{"attributes":{"OBJECTID":12187,"LANDMARKID":"1002100000259","LANDMARKCO":"302","LANDMARKNA":"興南汽車客運台南總站","LANDMARKAD":"1002103","ADDRESS":"台南市南區西門路一段547號","TEL":" ","COUNTYNAME":"台南市(海)","TOWNNAME":"南區(海)","MARKTYPE":"993","Class":"302"},"geometry":{"x":120.19743308122811,"y":22.983473167655031}},{"attributes":{"OBJECTID":12188,"LANDMARKID":"1002100000260","LANDMARKCO":"302","LANDMARKNA":"台南汽車客運新興站","LANDMARKAD":"1002103","ADDRESS":"台南市南區","TEL":" ","COUNTYNAME":"台南市(海)","TOWNNAME":"南區(海)","MARKTYPE":"993","Class":"302"},"geometry":{"x":120.18686298271474,"y":22.961663652615297}},{"attributes":{"OBJECTID":12189,"LANDMARKID":"1002100000261","LANDMARKCO":"303","LANDMARKNA":"日新公園停車場","LANDMARKAD":"1002103","ADDRESS":"台南市國宅里利南街","TEL":" ","COUNTYNAME":"台南市(海)","TOWNNAME":"南區(海)","MARKTYPE":"993","Class":"303"},"geometry":{"x":120.18798977389216,"y":22.974268717410606}},{"attributes":{"OBJECTID":12190,"LANDMARKID":"1002100000262","LANDMARKCO":"303","LANDMARKNA":"松柏育樂中心停車場","LANDMARKAD":"1002103","ADDRESS":"台南市南區南門路263號","TEL":"06-2156974","COUNTYNAME":"台南市(海)","TOWNNAME":"南區(海)","MARKTYPE":"993","Class":"303"},"geometry":{"x":120.20420122283849,"y":22.979447236271749}},{"attributes":{"OBJECTID":12191,"LANDMARKID":"1002100000263","LANDMARKCO":"303","LANDMARKNA":"台南市立體育場停車場","LANDMARKAD":"1002103","ADDRESS":"台南市南區體育路10號","TEL":" ","COUNTYNAME":"台南市(海)","TOWNNAME":"南區(海)","MARKTYPE":"993","Class":"303"},"geometry":{"x":120.20507850510815,"y":22.978280448613148}},{"attributes":{"OBJECTID":12192,"LANDMARKID":"1002100000264","LANDMARKCO":"303","LANDMARKNA":"忠烈祠停車場","LANDMARKAD":"1002103","ADDRESS":"台南市健康路一段68號","TEL":" ","COUNTYNAME":"台南市(海)","TOWNNAME":"南區(海)","MARKTYPE":"993","Class":"303"},"geometry":{"x":120.21170985731906,"y":22.981023135322243}},{"attributes":{"OBJECTID":12193,"LANDMARKID":"1002100000265","LANDMARKCO":"303","LANDMARKNA":"大台南觀光城停車場","LANDMARKAD":"1002103","ADDRESS":"台南市南區","TEL":" ","COUNTYNAME":"台南市(海)","TOWNNAME":"南區(海)","MARKTYPE":"993","Class":"303"},"geometry":{"x":120.18683973510946,"y":22.97794240240237}},{"attributes":{"OBJECTID":12194,"LANDMARKID":"1002100000266","LANDMARKCO":"303","LANDMARKNA":"黃金海岸公園停車場","LANDMARKAD":"1002103","ADDRESS":"台南市南區","TEL":" ","COUNTYNAME":"台南市(海)","TOWNNAME":"南區(海)","MARKTYPE":"993","Class":"303"},"geometry":{"x":120.17623963003909,"y":22.934977469882785}},{"attributes":{"OBJECTID":12195,"LANDMARKID":"1002100000368","LANDMARKCO":"402","LANDMARKNA":"中華電信-台南金華特約服務中心","LANDMARKAD":"1002103","ADDRESS":"台南市金華路二段318號","TEL":"06-2230555","COUNTYNAME":"台南市(海)","TOWNNAME":"南區(海)","MARKTYPE":"994","Class":"4"},"geometry":{"x":120.19176065209136,"y":22.983218333895486}},{"attributes":{"OBJECTID":12196,"LANDMARKID":"1002100000369","LANDMARKCO":"402","LANDMARKNA":"中華電信-台南大林特約服務中心","LANDMARKAD":"1002103","ADDRESS":"台南市大林路6號","TEL":"06-2150262","COUNTYNAME":"台南市(海)","TOWNNAME":"南區(海)","MARKTYPE":"994","Class":"4"},"geometry":{"x":120.21338208401778,"y":22.976366607618242}},{"attributes":{"OBJECTID":12197,"LANDMARKID":"1002100000370","LANDMARKCO":"402","LANDMARKNA":"威寶電信-台南永華直營服務中心","LANDMARKAD":"1002103","ADDRESS":"台南市南區永華路一段51號","TEL":" ","COUNTYNAME":"台南市(海)","TOWNNAME":"南區(海)","MARKTYPE":"994","Class":"4"},"geometry":{"x":120.19602679869342,"y":22.987311105571376}},{"attributes":{"OBJECTID":12198,"LANDMARKID":"1002100000371","LANDMARKCO":"402","LANDMARKNA":"威寶電信-台南金華特約服務中心","LANDMARKAD":"1002103","ADDRESS":"台南市南區金華路一段440號","TEL":"06-2647837","COUNTYNAME":"台南市(海)","TOWNNAME":"南區(海)","MARKTYPE":"994","Class":"4"},"geometry":{"x":120.19077451262326,"y":22.972025091742132}},{"attributes":{"OBJECTID":12199,"LANDMARKID":"1002100000620","LANDMARKCO":"509","LANDMARKNA":"鯤鯓海水浴場","LANDMARKAD":"1002103","ADDRESS":"台南市南區鯤鯓路205號","TEL":" ","COUNTYNAME":"台南市(海)","TOWNNAME":"南區(海)","MARKTYPE":"995","Class":"5"},"geometry":{"x":120.1682727625968,"y":22.962610166962978}},{"attributes":{"OBJECTID":12200,"LANDMARKID":"1000600000927","LANDMARKCO":"405","LANDMARKNA":"中油加油站-建興站","LANDMARKAD":"1000603","ADDRESS":"台中市大甲區臨江路162之10號","TEL":"04-26818266","COUNTYNAME":"台中市","TOWNNAME":"大甲區","MARKTYPE":"994","Class":"4"},"geometry":{"x":120.63975257601992,"y":24.389744112973769}}]}