{"displayFieldName":"COUNTYNAME","fieldAliases":{"OBJECTID":"OBJECTID","LANDMARKID":"LANDMARKID","LANDMARKCO":"LANDMARKCO","LANDMARKNA":"LANDMARKNA","LANDMARKAD":"LANDMARKAD","ADDRESS":"ADDRESS","TEL":"TEL","COUNTYNAME":"COUNTYNAME","TOWNNAME":"TOWNNAME","MARKTYPE":"MARKTYPE","Class":"Class"},"geometryType":"esriGeometryPoint","spatialReference":{"wkid":102443},"fields":[{"name":"OBJECTID","type":"esriFieldTypeOID","alias":"OBJECTID"},{"name":"LANDMARKID","type":"esriFieldTypeString","alias":"LANDMARKID","length":15},{"name":"LANDMARKCO","type":"esriFieldTypeString","alias":"LANDMARKCO","length":15},{"name":"LANDMARKNA","type":"esriFieldTypeString","alias":"LANDMARKNA","length":50},{"name":"LANDMARKAD","type":"esriFieldTypeString","alias":"LANDMARKAD","length":15},{"name":"ADDRESS","type":"esriFieldTypeString","alias":"ADDRESS","length":56},{"name":"TEL","type":"esriFieldTypeString","alias":"TEL","length":36},{"name":"COUNTYNAME","type":"esriFieldTypeString","alias":"COUNTYNAME","length":15},{"name":"TOWNNAME","type":"esriFieldTypeString","alias":"TOWNNAME","length":13},{"name":"MARKTYPE","type":"esriFieldTypeString","alias":"MARKTYPE","length":12},{"name":"Class","type":"esriFieldTypeString","alias":"Class","length":5}],"features":[{"attributes":{"OBJECTID":10801,"LANDMARKID":"1001100000875","LANDMARKCO":"402","LANDMARKNA":"中華電信-大內服務中心","LANDMARKAD":"1001111","ADDRESS":"台南市大內區大內村1-5號","TEL":"123或0800-080-123","COUNTYNAME":"台南市","TOWNNAME":"大內區","MARKTYPE":"994","Class":"4"},"geometry":{"x":184265.10049999971,"y":2557663.9024}},{"attributes":{"OBJECTID":10802,"LANDMARKID":"1001100001414","LANDMARKCO":"604","LANDMARKNA":"走馬瀨精緻民宿","LANDMARKAD":"1001111","ADDRESS":"台南市大內區二溪村其子瓦70號","TEL":"0933-396548","COUNTYNAME":"台南市","TOWNNAME":"大內區","MARKTYPE":"996","Class":"6"},"geometry":{"x":191140.7452999996,"y":2559521.0555000007}},{"attributes":{"OBJECTID":10803,"LANDMARKID":"1001100001354","LANDMARKCO":"510","LANDMARKNA":"南寶高爾夫球場","LANDMARKAD":"1001111","ADDRESS":"台南市大內區頭社村136號","TEL":"06-5763829","COUNTYNAME":"台南市","TOWNNAME":"大內區","MARKTYPE":"995","Class":"5"},"geometry":{"x":185870.92609999981,"y":2561218.6199999992}},{"attributes":{"OBJECTID":10804,"LANDMARKID":"1001100001415","LANDMARKCO":"605","LANDMARKNA":"大內衛生所","LANDMARKAD":"1001111","ADDRESS":"台南市大內區","TEL":" ","COUNTYNAME":"台南市","TOWNNAME":"大內區","MARKTYPE":"996","Class":"6"},"geometry":{"x":183283.29650000017,"y":2557790.8127999995}},{"attributes":{"OBJECTID":10805,"LANDMARKID":"1001100000932","LANDMARKCO":"405","LANDMARKNA":"中油加油站-五洲站","LANDMARKAD":"1001119","ADDRESS":"台南市善化區胡厝里興農路706號","TEL":"06-5819249","COUNTYNAME":"台南市","TOWNNAME":"善化區","MARKTYPE":"994","Class":"4"},"geometry":{"x":174726.34260000009,"y":2558824.5940000005}},{"attributes":{"OBJECTID":10806,"LANDMARKID":"1001100000933","LANDMARKCO":"405","LANDMARKNA":"台糖加油站-曾文西站(中油)","LANDMARKAD":"1001119","ADDRESS":"台南市善化區溪美里12鄰溪尾113之30號","TEL":" ","COUNTYNAME":"台南市","TOWNNAME":"善化區","MARKTYPE":"994","Class":"4"},"geometry":{"x":175332.06570000015,"y":2562601.6815000009}},{"attributes":{"OBJECTID":10807,"LANDMARKID":"1001100000934","LANDMARKCO":"405","LANDMARKNA":"中油加油站-善化站","LANDMARKAD":"1001119","ADDRESS":"台南市善化區中山路368號","TEL":"06-5817264","COUNTYNAME":"台南市","TOWNNAME":"善化區","MARKTYPE":"994","Class":"4"},"geometry":{"x":177574.8284,"y":2559116.5811999999}},{"attributes":{"OBJECTID":10808,"LANDMARKID":"1001100000935","LANDMARKCO":"405","LANDMARKNA":"統一速邁樂加油站-南科二站加油站(中油)","LANDMARKAD":"1001119","ADDRESS":"台南市善化區文昌里中正路81號","TEL":" ","COUNTYNAME":"台南市","TOWNNAME":"善化區","MARKTYPE":"994","Class":"4"},"geometry":{"x":177691.34210000001,"y":2557677.4311999995}},{"attributes":{"OBJECTID":10809,"LANDMARKID":"1001100000936","LANDMARKCO":"405","LANDMARKNA":"台糖加油站-曾文東站(中油)","LANDMARKAD":"1001119","ADDRESS":"台南市善化區六分里10鄰溪底寮67號","TEL":" ","COUNTYNAME":"台南市","TOWNNAME":"善化區","MARKTYPE":"994","Class":"4"},"geometry":{"x":175335.29760000017,"y":2562691.1898999996}},{"attributes":{"OBJECTID":10810,"LANDMARKID":"1001100000937","LANDMARKCO":"405","LANDMARKNA":"中油加油站-茄拔站(中油直營)","LANDMARKAD":"1001119","ADDRESS":"台南市善化區嘉北里茄拔2-30號","TEL":"06-5838334","COUNTYNAME":"台南市","TOWNNAME":"善化區","MARKTYPE":"994","Class":"4"},"geometry":{"x":181174.6138000004,"y":2560429.8213}},{"attributes":{"OBJECTID":10811,"LANDMARKID":"1001100000938","LANDMARKCO":"405","LANDMARKNA":"統一速邁樂加油站-善化加油站(中油)","LANDMARKAD":"1001119","ADDRESS":"台南市善化區中正路339號","TEL":" ","COUNTYNAME":"台南市","TOWNNAME":"善化區","MARKTYPE":"994","Class":"4"},"geometry":{"x":177671.42410000041,"y":2558463.3135000002}},{"attributes":{"OBJECTID":10812,"LANDMARKID":"1001100000939","LANDMARKCO":"405","LANDMARKNA":"統一速邁樂加油站-南科一站加油站(中油)","LANDMARKAD":"1001119","ADDRESS":"台南市善化區文昌里中正路62號","TEL":" ","COUNTYNAME":"台南市","TOWNNAME":"善化區","MARKTYPE":"994","Class":"4"},"geometry":{"x":177758.47719999962,"y":2557757.3702000007}},{"attributes":{"OBJECTID":10813,"LANDMARKID":"1001100000940","LANDMARKCO":"405","LANDMARKNA":"中油加油站-松建站","LANDMARKAD":"1001119","ADDRESS":"台南市善化區成功路1-1號","TEL":"06-5834029","COUNTYNAME":"台南市","TOWNNAME":"善化區","MARKTYPE":"994","Class":"4"},"geometry":{"x":178689.95469999965,"y":2558885.4793999996}},{"attributes":{"OBJECTID":10814,"LANDMARKID":"1001100000874","LANDMARKCO":"402","LANDMARKNA":"亞太行動寬頻電信-善化中山加盟服務中心","LANDMARKAD":"1001119","ADDRESS":"台南市善化區中山路210號","TEL":"06-5833023","COUNTYNAME":"台南市","TOWNNAME":"善化區","MARKTYPE":"994","Class":"4"},"geometry":{"x":178261.89199999999,"y":2559144.1442000009}},{"attributes":{"OBJECTID":10815,"LANDMARKID":"1001100000825","LANDMARKCO":"401","LANDMARKNA":"宏科醫院","LANDMARKAD":"1001119","ADDRESS":"台南市善化區三民路1之35號","TEL":"06-5818868","COUNTYNAME":"台南市","TOWNNAME":"善化區","MARKTYPE":"994","Class":"4"},"geometry":{"x":176976.55960000027,"y":2558598.4572000001}},{"attributes":{"OBJECTID":10816,"LANDMARKID":"1001100000826","LANDMARKCO":"401","LANDMARKNA":"謝醫院","LANDMARKAD":"1001119","ADDRESS":"台南市善化區中正路436號","TEL":"06-5838209","COUNTYNAME":"台南市","TOWNNAME":"善化區","MARKTYPE":"994","Class":"4"},"geometry":{"x":177702.87899999972,"y":2558941.2015000004}},{"attributes":{"OBJECTID":10817,"LANDMARKID":"1001100001332","LANDMARKCO":"507","LANDMARKNA":"善化慶安宮","LANDMARKAD":"1001119","ADDRESS":"台南市善化區仙草里岩前1號","TEL":" ","COUNTYNAME":"台南市","TOWNNAME":"善化區","MARKTYPE":"995","Class":"5"},"geometry":{"x":177284.05649999995,"y":2559188.8743999992}},{"attributes":{"OBJECTID":10818,"LANDMARKID":"1001100001245","LANDMARKCO":"408","LANDMARKNA":"郵局-善化成功郵局","LANDMARKAD":"1001119","ADDRESS":"台南市善化區成功路41號","TEL":"(06)5850-747","COUNTYNAME":"台南市","TOWNNAME":"善化區","MARKTYPE":"994","Class":"4"},"geometry":{"x":180049.70590000041,"y":2558565.1773000006}},{"attributes":{"OBJECTID":10819,"LANDMARKID":"1001100001246","LANDMARKCO":"408","LANDMARKNA":"郵局-善化亞蔬郵局","LANDMARKAD":"1001119","ADDRESS":"台南市善化區文昌里益民寮60號(亞蔬中心內)","TEL":"(06)5839-016","COUNTYNAME":"台南市","TOWNNAME":"善化區","MARKTYPE":"994","Class":"4"},"geometry":{"x":178102.84779999964,"y":2557099.4255999997}},{"attributes":{"OBJECTID":10820,"LANDMARKID":"1001100001247","LANDMARKCO":"408","LANDMARKNA":"郵局-善化中山路郵局","LANDMARKAD":"1001119","ADDRESS":"台南市善化區中山路371號","TEL":"(06)5810-779","COUNTYNAME":"台南市","TOWNNAME":"善化區","MARKTYPE":"994","Class":"4"},"geometry":{"x":177502.17470000032,"y":2559086.2324000001}},{"attributes":{"OBJECTID":10821,"LANDMARKID":"1001100001248","LANDMARKCO":"408","LANDMARKNA":"郵局-善化郵局","LANDMARKAD":"1001119","ADDRESS":"台南市善化區中正路332號","TEL":"(06)5832-496","COUNTYNAME":"台南市","TOWNNAME":"善化區","MARKTYPE":"994","Class":"4"},"geometry":{"x":177703.03129999992,"y":2558508.2908999994}},{"attributes":{"OBJECTID":10822,"LANDMARKID":"1001100001249","LANDMARKCO":"408","LANDMARKNA":"郵局-善化溪美郵局","LANDMARKAD":"1001119","ADDRESS":"台南市善化區溪美里204號","TEL":"(06)5817-018","COUNTYNAME":"台南市","TOWNNAME":"善化區","MARKTYPE":"994","Class":"4"},"geometry":{"x":177137.91980000027,"y":2561400.4049999993}},{"attributes":{"OBJECTID":10823,"LANDMARKID":"1001100001262","LANDMARKCO":"409","LANDMARKNA":"台南市善化區農會","LANDMARKAD":"1001119","ADDRESS":"台南市善化區中山路242號","TEL":"06-5836111","COUNTYNAME":"台南市","TOWNNAME":"善化區","MARKTYPE":"994","Class":"4"},"geometry":{"x":178074.01190000027,"y":2559120.3102000002}},{"attributes":{"OBJECTID":10824,"LANDMARKID":"1001100000919","LANDMARKCO":"404","LANDMARKNA":"台灣省自來水善化服務所","LANDMARKAD":"1001119","ADDRESS":"台南市善化區自立路71號","TEL":" ","COUNTYNAME":"台南市","TOWNNAME":"善化區","MARKTYPE":"994","Class":"4"},"geometry":{"x":178335.25910000037,"y":2558818.1752000004}},{"attributes":{"OBJECTID":10825,"LANDMARKID":"1001100001171","LANDMARKCO":"406","LANDMARKNA":"體育公園","LANDMARKAD":"1001119","ADDRESS":" ","TEL":" ","COUNTYNAME":"台南市","TOWNNAME":"善化區","MARKTYPE":"994","Class":"4"},"geometry":{"x":177416.14910000004,"y":2559534.6381000001}},{"attributes":{"OBJECTID":10826,"LANDMARKID":"1001100000930","LANDMARKCO":"405","LANDMARKNA":"台亞加油站-東勢寮站（台塑）","LANDMARKAD":"1001119","ADDRESS":"台南市善化區嘉北里茄拔一號之13","TEL":"(06)583-4143","COUNTYNAME":"台南市","TOWNNAME":"善化區","MARKTYPE":"994","Class":"4"},"geometry":{"x":181263.48180000018,"y":2559760.8687999994}},{"attributes":{"OBJECTID":10827,"LANDMARKID":"1001100000931","LANDMARKCO":"405","LANDMARKNA":"福懋加油站-奇美站(台塑)","LANDMARKAD":"1001119","ADDRESS":"台南市善化區興農路32號","TEL":"06-5812036","COUNTYNAME":"台南市","TOWNNAME":"善化區","MARKTYPE":"994","Class":"4"},"geometry":{"x":176550.40099999961,"y":2559183.9027999993}},{"attributes":{"OBJECTID":10828,"LANDMARKID":"1001100000187","LANDMARKCO":"107","LANDMARKNA":"善化派出所","LANDMARKAD":"1001119","ADDRESS":"台南市善化區興農路四六一號","TEL":"06-5817007","COUNTYNAME":"台南市","TOWNNAME":"善化區","MARKTYPE":"991","Class":"1"},"geometry":{"x":175136.84750000015,"y":2558851.2273999993}},{"attributes":{"OBJECTID":10829,"LANDMARKID":"1001100000188","LANDMARKCO":"107","LANDMARKNA":"台南市警察局善化分局","LANDMARKAD":"1001119","ADDRESS":"台南市善化區興農路461號","TEL":"06-5819503","COUNTYNAME":"台南市","TOWNNAME":"善化區","MARKTYPE":"991","Class":"1"},"geometry":{"x":175075.48819999956,"y":2558844.9197000004}},{"attributes":{"OBJECTID":10830,"LANDMARKID":"1001100000189","LANDMARKCO":"107","LANDMARKNA":"台南市警察局溪美派出所","LANDMARKAD":"1001119","ADDRESS":"台南市善化區溪美里溪尾115號","TEL":"06-5817981","COUNTYNAME":"台南市","TOWNNAME":"善化區","MARKTYPE":"991","Class":"1"},"geometry":{"x":176982.17150000017,"y":2561524.6651000008}},{"attributes":{"OBJECTID":10831,"LANDMARKID":"1001100000190","LANDMARKCO":"107","LANDMARKNA":"台南市消防局善化消防分隊","LANDMARKAD":"1001119","ADDRESS":"台南市善化區建國路194號","TEL":"06-5817119","COUNTYNAME":"台南市","TOWNNAME":"善化區","MARKTYPE":"991","Class":"1"},"geometry":{"x":177983.78729999997,"y":2559147.6831999999}},{"attributes":{"OBJECTID":10832,"LANDMARKID":"1001100000062","LANDMARKCO":"103","LANDMARKNA":"台南市善化區鎮民代表會","LANDMARKAD":"1001119","ADDRESS":"台南市善化區建國路190號","TEL":"06-5852951","COUNTYNAME":"台南市","TOWNNAME":"善化區","MARKTYPE":"991","Class":"1"},"geometry":{"x":177977.58669999987,"y":2559122.9033000004}},{"attributes":{"OBJECTID":10833,"LANDMARKID":"1001100000326","LANDMARKCO":"108","LANDMARKNA":"台南市善化區公所","LANDMARKAD":"1001119","ADDRESS":"台南市善化區建國路190號","TEL":"06-5837226","COUNTYNAME":"台南市","TOWNNAME":"善化區","MARKTYPE":"991","Class":"1"},"geometry":{"x":177977.58669999987,"y":2559122.9033000004}},{"attributes":{"OBJECTID":10834,"LANDMARKID":"1001100000063","LANDMARKCO":"103","LANDMARKNA":"台南市善化區衛生所","LANDMARKAD":"1001119","ADDRESS":"台南市善化區中山路200號","TEL":"06-5837035","COUNTYNAME":"台南市","TOWNNAME":"善化區","MARKTYPE":"991","Class":"1"},"geometry":{"x":178301.97809999995,"y":2559157.5902999993}},{"attributes":{"OBJECTID":10835,"LANDMARKID":"1001100000185","LANDMARKCO":"107","LANDMARKNA":"台南市警察局東昌派出所","LANDMARKAD":"1001119","ADDRESS":"台南市善化區東昌里東勢寮101號","TEL":"06-5837305","COUNTYNAME":"台南市","TOWNNAME":"善化區","MARKTYPE":"991","Class":"1"},"geometry":{"x":180103.62999999989,"y":2561781.3559000008}},{"attributes":{"OBJECTID":10836,"LANDMARKID":"1001100000186","LANDMARKCO":"107","LANDMARKNA":"台南市警察局茄拔派出所","LANDMARKAD":"1001119","ADDRESS":"台南市善化區嘉南里茄拔350號","TEL":"06-5837379","COUNTYNAME":"台南市","TOWNNAME":"善化區","MARKTYPE":"991","Class":"1"},"geometry":{"x":180590.76260000002,"y":2559597.7695000004}},{"attributes":{"OBJECTID":10837,"LANDMARKID":"1001100000127","LANDMARKCO":"106","LANDMARKNA":"台南市善化區戶政事務所","LANDMARKAD":"1001119","ADDRESS":"台南市善化區文昌里19鄰光復路269號","TEL":"06-5817445","COUNTYNAME":"台南市","TOWNNAME":"善化區","MARKTYPE":"991","Class":"1"},"geometry":{"x":177184.25289999973,"y":2558541.8348999992}},{"attributes":{"OBJECTID":10838,"LANDMARKID":"1001100000655","LANDMARKCO":"204","LANDMARKNA":"台南市立圖書館善化分館","LANDMARKAD":"1001119","ADDRESS":"台南市善化區三民路6之6號","TEL":" ","COUNTYNAME":"台南市","TOWNNAME":"善化區","MARKTYPE":"992","Class":"2"},"geometry":{"x":177058.84049999993,"y":2558769.7672000006}},{"attributes":{"OBJECTID":10839,"LANDMARKID":"1001100000381","LANDMARKCO":"202","LANDMARKNA":"國立善化高中","LANDMARKAD":"1001119","ADDRESS":"台南市善化區大成路195號","TEL":"06-5837312","COUNTYNAME":"台南市","TOWNNAME":"善化區","MARKTYPE":"992","Class":"2"},"geometry":{"x":178408.68140000012,"y":2558804.4909000006}},{"attributes":{"OBJECTID":10840,"LANDMARKID":"1001100000418","LANDMARKCO":"203","LANDMARKNA":"縣立善化國小","LANDMARKAD":"1001119","ADDRESS":"台南市善化區進學路63號","TEL":"06-5817020","COUNTYNAME":"台南市","TOWNNAME":"善化區","MARKTYPE":"992","Class":"2"},"geometry":{"x":177162.5307,"y":2559486.8471000008}},{"attributes":{"OBJECTID":10841,"LANDMARKID":"1001100000419","LANDMARKCO":"203","LANDMARKNA":"縣立大成國小","LANDMARKAD":"1001119","ADDRESS":"台南市善化區大成路385號","TEL":"06-5837520","COUNTYNAME":"台南市","TOWNNAME":"善化區","MARKTYPE":"992","Class":"2"},"geometry":{"x":177797.21700000018,"y":2558711.2895999998}},{"attributes":{"OBJECTID":10842,"LANDMARKID":"1001100000420","LANDMARKCO":"203","LANDMARKNA":"縣立善化國中","LANDMARKAD":"1001119","ADDRESS":"台南市善化區溪美里656號","TEL":"06-5817055","COUNTYNAME":"台南市","TOWNNAME":"善化區","MARKTYPE":"992","Class":"2"},"geometry":{"x":176981.97180000041,"y":2560770.4287999999}},{"attributes":{"OBJECTID":10843,"LANDMARKID":"1001100000421","LANDMARKCO":"203","LANDMARKNA":"縣立陽明國小","LANDMARKAD":"1001119","ADDRESS":"台南市善化區胡家里300號","TEL":"06-5817165","COUNTYNAME":"台南市","TOWNNAME":"善化區","MARKTYPE":"992","Class":"2"},"geometry":{"x":175508.33270000014,"y":2560290.1962000001}},{"attributes":{"OBJECTID":10844,"LANDMARKID":"1001100000422","LANDMARKCO":"203","LANDMARKNA":"縣立善糖國小","LANDMARKAD":"1001119","ADDRESS":"台南市善化區溪美里245號","TEL":"06-5817304","COUNTYNAME":"台南市","TOWNNAME":"善化區","MARKTYPE":"992","Class":"2"},"geometry":{"x":177182.65110000037,"y":2561451.3948999997}},{"attributes":{"OBJECTID":10845,"LANDMARKID":"1001100000423","LANDMARKCO":"203","LANDMARKNA":"縣立大同國小","LANDMARKAD":"1001119","ADDRESS":"台南市善化區六德里200之1號","TEL":"06-5837352","COUNTYNAME":"台南市","TOWNNAME":"善化區","MARKTYPE":"992","Class":"2"},"geometry":{"x":179078.5103000002,"y":2561780.8975000009}},{"attributes":{"OBJECTID":10846,"LANDMARKID":"1001100000424","LANDMARKCO":"203","LANDMARKNA":"縣立小新國小","LANDMARKAD":"1001119","ADDRESS":"台南市善化區小新里97之3號","TEL":"06-5837019","COUNTYNAME":"台南市","TOWNNAME":"善化區","MARKTYPE":"992","Class":"2"},"geometry":{"x":179377.96100000013,"y":2558301.0395999998}},{"attributes":{"OBJECTID":10847,"LANDMARKID":"1001100000425","LANDMARKCO":"203","LANDMARKNA":"縣立茄拔國小","LANDMARKAD":"1001119","ADDRESS":"台南市善化區嘉北里280號","TEL":"06-5837031","COUNTYNAME":"台南市","TOWNNAME":"善化區","MARKTYPE":"992","Class":"2"},"geometry":{"x":180823.91349999979,"y":2559751.1015000008}},{"attributes":{"OBJECTID":10848,"LANDMARKID":"1001100000795","LANDMARKCO":"308","LANDMARKNA":"善化收費站","LANDMARKAD":"1001119","ADDRESS":" ","TEL":" ","COUNTYNAME":"台南市","TOWNNAME":"善化區","MARKTYPE":"993","Class":"308"},"geometry":{"x":181162.14780000038,"y":2556259.9695999995}},{"attributes":{"OBJECTID":10849,"LANDMARKID":"1001100000796","LANDMARKCO":"308","LANDMARKNA":"國3-善化交流道-南下","LANDMARKAD":"1001119","ADDRESS":"台南市善化區","TEL":" ","COUNTYNAME":"台南市","TOWNNAME":"善化區","MARKTYPE":"993","Class":"308"},"geometry":{"x":181406.24239999987,"y":2557879.4484000001}},{"attributes":{"OBJECTID":10850,"LANDMARKID":"1001100000797","LANDMARKCO":"308","LANDMARKNA":"國3-善化交流道-北上","LANDMARKAD":"1001119","ADDRESS":"台南市善化區","TEL":" ","COUNTYNAME":"台南市","TOWNNAME":"善化區","MARKTYPE":"993","Class":"308"},"geometry":{"x":181664.03679999989,"y":2558406.5921999998}},{"attributes":{"OBJECTID":10851,"LANDMARKID":"1001100000672","LANDMARKCO":"301","LANDMARKNA":"善化火車站","LANDMARKAD":"1001119","ADDRESS":"台南市善化區中山路1號","TEL":" ","COUNTYNAME":"台南市","TOWNNAME":"善化區","MARKTYPE":"993","Class":"301"},"geometry":{"x":178991.40969999973,"y":2559201.5412000008}},{"attributes":{"OBJECTID":10852,"LANDMARKID":"1001100000876","LANDMARKCO":"402","LANDMARKNA":"中華電信-善化服務中心","LANDMARKAD":"1001119","ADDRESS":"台南市善化區中山路246號","TEL":"06-5908800","COUNTYNAME":"台南市","TOWNNAME":"善化區","MARKTYPE":"994","Class":"4"},"geometry":{"x":178022.05289999954,"y":2559111.3675999995}},{"attributes":{"OBJECTID":10853,"LANDMARKID":"1001100000877","LANDMARKCO":"402","LANDMARKNA":"威寶電信-善化中正特約服務中心","LANDMARKAD":"1001119","ADDRESS":"台南市善化區中正路405號","TEL":"06-5811668","COUNTYNAME":"台南市","TOWNNAME":"善化區","MARKTYPE":"994","Class":"4"},"geometry":{"x":177686.66339999996,"y":2558678.1338}},{"attributes":{"OBJECTID":10854,"LANDMARKID":"1001100001413","LANDMARKCO":"604","LANDMARKNA":"田園別莊","LANDMARKAD":"1001119","ADDRESS":"台南市善化區文昌里中正路2-1號","TEL":"06-5831017","COUNTYNAME":"台南市","TOWNNAME":"善化區","MARKTYPE":"996","Class":"6"},"geometry":{"x":177759.51209999993,"y":2557569.2722999994}},{"attributes":{"OBJECTID":10855,"LANDMARKID":"1001100001377","LANDMARKCO":"603","LANDMARKNA":"金慶安旅社","LANDMARKAD":"1001119","ADDRESS":"台南市善化區青年路175號","TEL":"06-5837441","COUNTYNAME":"台南市","TOWNNAME":"善化區","MARKTYPE":"996","Class":"6"},"geometry":{"x":177794.35500000045,"y":2559048.2686000001}},{"attributes":{"OBJECTID":10856,"LANDMARKID":"1001100001378","LANDMARKCO":"603","LANDMARKNA":"宜賓大旅社","LANDMARKAD":"1001119","ADDRESS":"台南市善化區嘉北里茄拔280-19號","TEL":"06-5831439","COUNTYNAME":"台南市","TOWNNAME":"善化區","MARKTYPE":"996","Class":"6"},"geometry":{"x":180673.25329999998,"y":2559677.4026999995}},{"attributes":{"OBJECTID":10857,"LANDMARKID":"1001100001379","LANDMARKCO":"603","LANDMARKNA":"富賓旅社","LANDMARKAD":"1001119","ADDRESS":"台南市善化區中山路339號","TEL":"06-5837159","COUNTYNAME":"台南市","TOWNNAME":"善化區","MARKTYPE":"996","Class":"6"},"geometry":{"x":177734.22520000022,"y":2559076.3568999991}},{"attributes":{"OBJECTID":10858,"LANDMARKID":"1001100001380","LANDMARKCO":"603","LANDMARKNA":"佳南旅社","LANDMARKAD":"1001119","ADDRESS":"台南市善化區中華路157巷10號","TEL":"06-5815538","COUNTYNAME":"台南市","TOWNNAME":"善化區","MARKTYPE":"996","Class":"6"},"geometry":{"x":177178.08609999996,"y":2559105.0403000005}},{"attributes":{"OBJECTID":10859,"LANDMARKID":"1001100001381","LANDMARKCO":"603","LANDMARKNA":"米蘭商務汽車旅館","LANDMARKAD":"1001119","ADDRESS":"台南市善化區自由路270號","TEL":"06-5814567","COUNTYNAME":"台南市","TOWNNAME":"善化區","MARKTYPE":"996","Class":"6"},"geometry":{"x":176866.92310000025,"y":2559140.3051999994}},{"attributes":{"OBJECTID":10860,"LANDMARKID":"1001100001382","LANDMARKCO":"603","LANDMARKNA":"激情密碼藝術商旅","LANDMARKAD":"1001119","ADDRESS":"台南市善化區小新里士宏新村1號之1","TEL":"06-5850011","COUNTYNAME":"台南市","TOWNNAME":"善化區","MARKTYPE":"996","Class":"6"},"geometry":{"x":180424.06790000014,"y":2558487.5953000002}},{"attributes":{"OBJECTID":10861,"LANDMARKID":"1001100001412","LANDMARKCO":"604","LANDMARKNA":"凱怡時尚民宿","LANDMARKAD":"1001119","ADDRESS":"台南市善化區文昌里中正路2號","TEL":"06-5831020","COUNTYNAME":"台南市","TOWNNAME":"善化區","MARKTYPE":"996","Class":"6"},"geometry":{"x":177737.0318,"y":2557577.0273000002}},{"attributes":{"OBJECTID":10862,"LANDMARKID":"1001100001416","LANDMARKCO":"605","LANDMARKNA":"成功酒廠","LANDMARKAD":"1001119","ADDRESS":"台南市善化區","TEL":" ","COUNTYNAME":"台南市","TOWNNAME":"善化區","MARKTYPE":"996","Class":"6"},"geometry":{"x":180180.30429999996,"y":2558578.4903999995}},{"attributes":{"OBJECTID":10863,"LANDMARKID":"1001100001417","LANDMARKCO":"605","LANDMARKNA":"元興堂","LANDMARKAD":"1001119","ADDRESS":"台南市善化區","TEL":" ","COUNTYNAME":"台南市","TOWNNAME":"善化區","MARKTYPE":"996","Class":"6"},"geometry":{"x":179945.34819999989,"y":2559899.3100000005}},{"attributes":{"OBJECTID":10864,"LANDMARKID":"1001100001418","LANDMARKCO":"605","LANDMARKNA":"牛庄里活動中心","LANDMARKAD":"1001119","ADDRESS":"台南市善化區","TEL":" ","COUNTYNAME":"台南市","TOWNNAME":"善化區","MARKTYPE":"996","Class":"6"},"geometry":{"x":180043.45370000042,"y":2559848.7990000006}},{"attributes":{"OBJECTID":10865,"LANDMARKID":"1001100000941","LANDMARKCO":"405","LANDMARKNA":"中油加油站-走馬瀨站","LANDMARKAD":"1001123","ADDRESS":"台南市玉井區豐里村豐里89之8號","TEL":"06-5746452","COUNTYNAME":"台南市","TOWNNAME":"玉井區","MARKTYPE":"994","Class":"4"},"geometry":{"x":192116.05960000027,"y":2559710.5807000007}},{"attributes":{"OBJECTID":10866,"LANDMARKID":"1001100000942","LANDMARKCO":"405","LANDMARKNA":"中油加油站-玉井站(中油直營)","LANDMARKAD":"1001123","ADDRESS":"台南市玉井區玉田村中山路91號","TEL":"06-5742476","COUNTYNAME":"台南市","TOWNNAME":"玉井區","MARKTYPE":"994","Class":"4"},"geometry":{"x":195216.12469999958,"y":2557767.4670000002}},{"attributes":{"OBJECTID":10867,"LANDMARKID":"1001100000943","LANDMARKCO":"405","LANDMARKNA":"中油加油站-大玉井站","LANDMARKAD":"1001123","ADDRESS":"台南市玉井區沙田村沙田21-21號","TEL":"06-5741111","COUNTYNAME":"台南市","TOWNNAME":"玉井區","MARKTYPE":"994","Class":"4"},"geometry":{"x":195823.92819999997,"y":2557178.6107000001}},{"attributes":{"OBJECTID":10868,"LANDMARKID":"1001100000944","LANDMARKCO":"405","LANDMARKNA":"中油加油站-新玉井站(中油直營)","LANDMARKAD":"1001123","ADDRESS":"台南市玉井區玉田村玉田209-30號","TEL":"06-5747776","COUNTYNAME":"台南市","TOWNNAME":"玉井區","MARKTYPE":"994","Class":"4"},"geometry":{"x":194146.92709999997,"y":2557790.8951999992}},{"attributes":{"OBJECTID":10869,"LANDMARKID":"1001100001250","LANDMARKCO":"408","LANDMARKNA":"郵局-玉井郵局","LANDMARKAD":"1001123","ADDRESS":"台南市玉井區中正路19號","TEL":"(06)5742-056","COUNTYNAME":"台南市","TOWNNAME":"玉井區","MARKTYPE":"994","Class":"4"},"geometry":{"x":194634.81039999984,"y":2557971.4256999996}},{"attributes":{"OBJECTID":10870,"LANDMARKID":"1001100001261","LANDMARKCO":"409","LANDMARKNA":"台南市玉井區農會","LANDMARKAD":"1001123","ADDRESS":"台南市玉井區玉田村中正路139號","TEL":"06-5742216-8","COUNTYNAME":"台南市","TOWNNAME":"玉井區","MARKTYPE":"994","Class":"4"},"geometry":{"x":194958.47609999962,"y":2558231.2452000007}},{"attributes":{"OBJECTID":10871,"LANDMARKID":"1001100000917","LANDMARKCO":"404","LANDMARKNA":"台灣省自來水玉井營運所","LANDMARKAD":"1001123","ADDRESS":"台南市玉井區民族路249號","TEL":" ","COUNTYNAME":"台南市","TOWNNAME":"玉井區","MARKTYPE":"994","Class":"4"},"geometry":{"x":195629.16089999955,"y":2558110.1237000003}},{"attributes":{"OBJECTID":10872,"LANDMARKID":"1001100001170","LANDMARKCO":"406","LANDMARKNA":"玉井運動公園","LANDMARKAD":"1001123","ADDRESS":"台南市玉井區","TEL":" ","COUNTYNAME":"台南市","TOWNNAME":"玉井區","MARKTYPE":"994","Class":"4"},"geometry":{"x":195704.79629999958,"y":2557891.6176999994}},{"attributes":{"OBJECTID":10873,"LANDMARKID":"1001100000918","LANDMARKCO":"404","LANDMARKNA":"自來水服務處","LANDMARKAD":"1001123","ADDRESS":" ","TEL":" ","COUNTYNAME":"台南市","TOWNNAME":"玉井區","MARKTYPE":"994","Class":"4"},"geometry":{"x":195530.3161000004,"y":2558104.0332999993}},{"attributes":{"OBJECTID":10874,"LANDMARKID":"1001100000103","LANDMARKCO":"105","LANDMARKNA":"台南市玉井地政事務所","LANDMARKAD":"1001123","ADDRESS":"台南市玉井區民族路146號","TEL":"06-5742049","COUNTYNAME":"台南市","TOWNNAME":"玉井區","MARKTYPE":"991","Class":"1"},"geometry":{"x":195410.29470000044,"y":2558110.1344000008}},{"attributes":{"OBJECTID":10875,"LANDMARKID":"1001100000014","LANDMARKCO":"101","LANDMARKNA":"林務局嘉義林區管理處玉井工作站","LANDMARKAD":"1001123","ADDRESS":"台南市玉井區中正路6號","TEL":"06-5742031","COUNTYNAME":"台南市","TOWNNAME":"玉井區","MARKTYPE":"991","Class":"1"},"geometry":{"x":194599.2751000002,"y":2557700.2982000001}},{"attributes":{"OBJECTID":10876,"LANDMARKID":"1001100000211","LANDMARKCO":"107","LANDMARKNA":"台南市警察局玉井派出所","LANDMARKAD":"1001123","ADDRESS":"台南市玉井區王田村中山路2號","TEL":"06-5742479","COUNTYNAME":"台南市","TOWNNAME":"玉井區","MARKTYPE":"991","Class":"1"},"geometry":{"x":194565.24619999994,"y":2557589.1762000006}},{"attributes":{"OBJECTID":10877,"LANDMARKID":"1001100000212","LANDMARKCO":"107","LANDMARKNA":"台南市警察局玉井分局","LANDMARKAD":"1001123","ADDRESS":"台南市玉井區玉田村中山路2號","TEL":"06-5742007","COUNTYNAME":"台南市","TOWNNAME":"玉井區","MARKTYPE":"991","Class":"1"},"geometry":{"x":194565.24619999994,"y":2557589.1762000006}},{"attributes":{"OBJECTID":10878,"LANDMARKID":"1001100000049","LANDMARKCO":"103","LANDMARKNA":"台南市玉井區衛生所","LANDMARKAD":"1001123","ADDRESS":"台南市玉井區中正路5號","TEL":"06-5742275","COUNTYNAME":"台南市","TOWNNAME":"玉井區","MARKTYPE":"991","Class":"1"},"geometry":{"x":194602.35790000018,"y":2557934.3054000009}},{"attributes":{"OBJECTID":10879,"LANDMARKID":"1001100000322","LANDMARKCO":"108","LANDMARKNA":"台南市玉井區公所","LANDMARKAD":"1001123","ADDRESS":"台南市玉井區中正路27號","TEL":"06-5741141","COUNTYNAME":"台南市","TOWNNAME":"玉井區","MARKTYPE":"991","Class":"1"},"geometry":{"x":194710.88410000037,"y":2558086.7073999997}},{"attributes":{"OBJECTID":10880,"LANDMARKID":"1001100000047","LANDMARKCO":"103","LANDMARKNA":"台南市玉井區鄉民代表會","LANDMARKAD":"1001123","ADDRESS":"台南市玉井區中正路27號2樓","TEL":"06-5746877","COUNTYNAME":"台南市","TOWNNAME":"玉井區","MARKTYPE":"991","Class":"1"},"geometry":{"x":194710.88410000037,"y":2558086.7073999997}},{"attributes":{"OBJECTID":10881,"LANDMARKID":"1001100000126","LANDMARKCO":"106","LANDMARKNA":"台南市玉井區戶政事務所","LANDMARKAD":"1001123","ADDRESS":"台南市玉井區中山路2之1號","TEL":"06-5742474","COUNTYNAME":"台南市","TOWNNAME":"玉井區","MARKTYPE":"991","Class":"1"},"geometry":{"x":194634.3498999998,"y":2557612.6780999992}},{"attributes":{"OBJECTID":10882,"LANDMARKID":"1001100000208","LANDMARKCO":"107","LANDMARKNA":"台南市消防局玉井消防分隊","LANDMARKAD":"1001123","ADDRESS":"台南市玉井區中山路2之2號","TEL":"06-5742517","COUNTYNAME":"台南市","TOWNNAME":"玉井區","MARKTYPE":"991","Class":"1"},"geometry":{"x":194636.1688000001,"y":2557583.4390999991}},{"attributes":{"OBJECTID":10883,"LANDMARKID":"1001100000209","LANDMARKCO":"107","LANDMARKNA":"台南市警察局豐里派出所","LANDMARKAD":"1001123","ADDRESS":"台南市玉井區豐里村58號","TEL":"06-5742091","COUNTYNAME":"台南市","TOWNNAME":"玉井區","MARKTYPE":"991","Class":"1"},"geometry":{"x":193063.64080000017,"y":2558020.9570000004}},{"attributes":{"OBJECTID":10884,"LANDMARKID":"1001100000210","LANDMARKCO":"107","LANDMARKNA":"台南市警察局望明派出所","LANDMARKAD":"1001123","ADDRESS":"台南市玉井區望明村75號","TEL":"06-5742445","COUNTYNAME":"台南市","TOWNNAME":"玉井區","MARKTYPE":"991","Class":"1"},"geometry":{"x":194083.6118999999,"y":2556180.5221999995}},{"attributes":{"OBJECTID":10885,"LANDMARKID":"1001100000048","LANDMARKCO":"103","LANDMARKNA":"台南市左鎮區衛生所","LANDMARKAD":"1001123","ADDRESS":"台南市左鎮區中正村172之15號","TEL":"06-5731114","COUNTYNAME":"台南市","TOWNNAME":"玉井區","MARKTYPE":"991","Class":"1"},"geometry":{"x":195556.94909999985,"y":2558820.6613999996}},{"attributes":{"OBJECTID":10886,"LANDMARKID":"1001100000384","LANDMARKCO":"202","LANDMARKNA":"國立玉井工商","LANDMARKAD":"1001123","ADDRESS":"台南市玉井區中正路18號","TEL":"06-2322131","COUNTYNAME":"台南市","TOWNNAME":"玉井區","MARKTYPE":"992","Class":"2"},"geometry":{"x":194609.05370000005,"y":2557757.3344000001}},{"attributes":{"OBJECTID":10887,"LANDMARKID":"1001100000385","LANDMARKCO":"203","LANDMARKNA":"縣立玉井國中","LANDMARKAD":"1001123","ADDRESS":"台南市玉井區大成路152號","TEL":"06-5742214","COUNTYNAME":"台南市","TOWNNAME":"玉井區","MARKTYPE":"992","Class":"2"},"geometry":{"x":195738.11710000038,"y":2558046.2910999991}},{"attributes":{"OBJECTID":10888,"LANDMARKID":"1001100000386","LANDMARKCO":"203","LANDMARKNA":"縣立玉井國小","LANDMARKAD":"1001123","ADDRESS":"台南市玉井區中正路1號","TEL":"06-5742047","COUNTYNAME":"台南市","TOWNNAME":"玉井區","MARKTYPE":"992","Class":"2"},"geometry":{"x":194561.1699000001,"y":2557812.1568999998}},{"attributes":{"OBJECTID":10889,"LANDMARKID":"1001100000387","LANDMARKCO":"203","LANDMARKNA":"縣立層林國小","LANDMARKAD":"1001123","ADDRESS":"台南市玉井區層林村115號","TEL":"06-5743574","COUNTYNAME":"台南市","TOWNNAME":"玉井區","MARKTYPE":"992","Class":"2"},"geometry":{"x":191619.83800000045,"y":2553000.9758000001}},{"attributes":{"OBJECTID":10890,"LANDMARKID":"1001100000799","LANDMARKCO":"308","LANDMARKNA":"台84-玉井端-西行","LANDMARKAD":"1001123","ADDRESS":" ","TEL":" ","COUNTYNAME":"台南市","TOWNNAME":"玉井區","MARKTYPE":"993","Class":"308"},"geometry":{"x":194461.74849999975,"y":2557655.8453000002}},{"attributes":{"OBJECTID":10891,"LANDMARKID":"1001100000691","LANDMARKCO":"302","LANDMARKNA":"興南汽車客運玉井站","LANDMARKAD":"1001123","ADDRESS":"台南市玉井區中正路54號","TEL":" ","COUNTYNAME":"台南市","TOWNNAME":"玉井區","MARKTYPE":"993","Class":"302"},"geometry":{"x":194818.10589999985,"y":2558130.6967999991}},{"attributes":{"OBJECTID":10892,"LANDMARKID":"1001100000701","LANDMARKCO":"303","LANDMARKNA":"第一停車場","LANDMARKAD":"1001123","ADDRESS":"台南市玉井區民族路","TEL":" ","COUNTYNAME":"台南市","TOWNNAME":"玉井區","MARKTYPE":"993","Class":"303"},"geometry":{"x":195124.75069999974,"y":2558122.9765000008}},{"attributes":{"OBJECTID":10893,"LANDMARKID":"1001100000878","LANDMARKCO":"402","LANDMARKNA":"中華電信-玉井服務中心","LANDMARKAD":"1001123","ADDRESS":"台南市玉井區中正路42號","TEL":"(06)574-2999","COUNTYNAME":"台南市","TOWNNAME":"玉井區","MARKTYPE":"994","Class":"4"},"geometry":{"x":194729.47279999964,"y":2558062.7761000004}},{"attributes":{"OBJECTID":10894,"LANDMARKID":"1001100001383","LANDMARKCO":"603","LANDMARKNA":"華都客棧","LANDMARKAD":"1001123","ADDRESS":"台南市玉井區民主街71號","TEL":"06-5742121","COUNTYNAME":"台南市","TOWNNAME":"玉井區","MARKTYPE":"996","Class":"6"},"geometry":{"x":194977.47549999971,"y":2558061.6378000006}},{"attributes":{"OBJECTID":10895,"LANDMARKID":"1001100001384","LANDMARKCO":"603","LANDMARKNA":"長興旅社","LANDMARKAD":"1001123","ADDRESS":"台南市玉井區民族路12號","TEL":"06-5742038","COUNTYNAME":"台南市","TOWNNAME":"玉井區","MARKTYPE":"996","Class":"6"},"geometry":{"x":194968.33559999987,"y":2558099.6041999999}},{"attributes":{"OBJECTID":10896,"LANDMARKID":"1001100001385","LANDMARKCO":"603","LANDMARKNA":"高賓園旅社","LANDMARKAD":"1001123","ADDRESS":"台南市玉井區玉田村民族路1號","TEL":"06-5742131","COUNTYNAME":"台南市","TOWNNAME":"玉井區","MARKTYPE":"996","Class":"6"},"geometry":{"x":194945.28770000022,"y":2558112.5193000007}},{"attributes":{"OBJECTID":10897,"LANDMARKID":"1001100001293","LANDMARKCO":"503","LANDMARKNA":"抗日烈士余清芳紀念碑","LANDMARKAD":"1001123","ADDRESS":"台南市玉井區","TEL":" ","COUNTYNAME":"台南市","TOWNNAME":"玉井區","MARKTYPE":"995","Class":"5"},"geometry":{"x":196979.05630000029,"y":2558802.1997999996}},{"attributes":{"OBJECTID":10898,"LANDMARKID":"1001100001419","LANDMARKCO":"605","LANDMARKNA":"綜合體育館","LANDMARKAD":"1001123","ADDRESS":"台南市玉井區","TEL":" ","COUNTYNAME":"台南市","TOWNNAME":"玉井區","MARKTYPE":"996","Class":"6"},"geometry":{"x":195586.47059999965,"y":2558067.6997999996}},{"attributes":{"OBJECTID":10899,"LANDMARKID":"1001100000945","LANDMARKCO":"405","LANDMARKNA":"中油加油站-西港站(中油直營)","LANDMARKAD":"1001114","ADDRESS":"台南市西港區西港村中山路52號","TEL":"06-7952124","COUNTYNAME":"台南市","TOWNNAME":"西港區","MARKTYPE":"994","Class":"4"},"geometry":{"x":168490.1660000002,"y":2557390.4477999993}},{"attributes":{"OBJECTID":10900,"LANDMARKID":"1001100000946","LANDMARKCO":"405","LANDMARKNA":"統一速邁樂加油站-西港加油站(中油)","LANDMARKAD":"1001114","ADDRESS":"台南市西港區營西村後營1號","TEL":" ","COUNTYNAME":"台南市","TOWNNAME":"西港區","MARKTYPE":"994","Class":"4"},"geometry":{"x":169755.74100000039,"y":2559915.6534000002}},{"attributes":{"OBJECTID":10901,"LANDMARKID":"1001100000947","LANDMARKCO":"405","LANDMARKNA":"中油加油站-育昇站","LANDMARKAD":"1001114","ADDRESS":"台南市西港區西港村中州24-7號","TEL":"06-7952829","COUNTYNAME":"台南市","TOWNNAME":"西港區","MARKTYPE":"994","Class":"4"},"geometry":{"x":167595.35240000021,"y":2559933.0253999997}},{"attributes":{"OBJECTID":10902,"LANDMARKID":"1001100001251","LANDMARKCO":"408","LANDMARKNA":"郵局-西港郵局","LANDMARKAD":"1001114","ADDRESS":"台南市西港區中山路351號","TEL":"(06)7952-186","COUNTYNAME":"台南市","TOWNNAME":"西港區","MARKTYPE":"994","Class":"4"},"geometry":{"x":168362.86170000024,"y":2558136.5587000009}},{"attributes":{"OBJECTID":10903,"LANDMARKID":"1001100001260","LANDMARKCO":"409","LANDMARKNA":"台南市西港區農會","LANDMARKAD":"1001114","ADDRESS":"台南市西港區西港村9鄰文化路2號","TEL":"06-7952706","COUNTYNAME":"台南市","TOWNNAME":"西港區","MARKTYPE":"994","Class":"4"},"geometry":{"x":168403.07299999986,"y":2558076.5478000008}},{"attributes":{"OBJECTID":10904,"LANDMARKID":"1001100000128","LANDMARKCO":"106","LANDMARKNA":"台南市西港區戶政事務所","LANDMARKAD":"1001114","ADDRESS":"台南市西港區慶安村10鄰中山路337號","TEL":"06-7952414","COUNTYNAME":"台南市","TOWNNAME":"西港區","MARKTYPE":"991","Class":"1"},"geometry":{"x":168354.50989999995,"y":2558130.0493000001}},{"attributes":{"OBJECTID":10905,"LANDMARKID":"1001100000202","LANDMARKCO":"107","LANDMARKNA":"台南市警察局西港分駐所","LANDMARKAD":"1001114","ADDRESS":"台南市西港區慶安村中山路337號","TEL":"06-7952045","COUNTYNAME":"台南市","TOWNNAME":"西港區","MARKTYPE":"991","Class":"1"},"geometry":{"x":168358.50980000012,"y":2558130.0711000003}},{"attributes":{"OBJECTID":10906,"LANDMARKID":"1001100000045","LANDMARKCO":"103","LANDMARKNA":"台南市西港區衛生所","LANDMARKAD":"1001114","ADDRESS":"台南市西港區西港村中山路368號","TEL":"06-7952338","COUNTYNAME":"台南市","TOWNNAME":"西港區","MARKTYPE":"991","Class":"1"},"geometry":{"x":168396.01740000024,"y":2558220.2760000005}},{"attributes":{"OBJECTID":10907,"LANDMARKID":"1001100000046","LANDMARKCO":"103","LANDMARKNA":"台南市西港區鄉民代表會","LANDMARKAD":"1001114","ADDRESS":"台南市西港區中山路370號","TEL":"06-7952006","COUNTYNAME":"台南市","TOWNNAME":"西港區","MARKTYPE":"991","Class":"1"},"geometry":{"x":168399.12650000025,"y":2558200.2929999996}},{"attributes":{"OBJECTID":10908,"LANDMARKID":"1001100000323","LANDMARKCO":"108","LANDMARKNA":"台南市西港區公所","LANDMARKAD":"1001114","ADDRESS":"台南市西港區文化路1號","TEL":"06-7952601","COUNTYNAME":"台南市","TOWNNAME":"西港區","MARKTYPE":"991","Class":"1"},"geometry":{"x":168406.56319999974,"y":2558120.3335999995}},{"attributes":{"OBJECTID":10909,"LANDMARKID":"1001100000203","LANDMARKCO":"107","LANDMARKNA":"台南市消防局西港消防分隊","LANDMARKAD":"1001114","ADDRESS":"台南市西港區文化路18號","TEL":"06-7952074","COUNTYNAME":"台南市","TOWNNAME":"西港區","MARKTYPE":"991","Class":"1"},"geometry":{"x":168575.28660000023,"y":2558171.2540000007}},{"attributes":{"OBJECTID":10910,"LANDMARKID":"1001100000204","LANDMARKCO":"107","LANDMARKNA":"台南市警察局後營派出所","LANDMARKAD":"1001114","ADDRESS":"台南市西港區後營村13鄰281號","TEL":"06-7952644","COUNTYNAME":"台南市","TOWNNAME":"西港區","MARKTYPE":"991","Class":"1"},"geometry":{"x":169831.61359999981,"y":2559950.2882000003}},{"attributes":{"OBJECTID":10911,"LANDMARKID":"1001100000654","LANDMARKCO":"204","LANDMARKNA":"台南市立圖書館西港分館","LANDMARKAD":"1001114","ADDRESS":"台南市西港區西港村中山路370號3樓","TEL":" ","COUNTYNAME":"台南市","TOWNNAME":"西港區","MARKTYPE":"992","Class":"2"},"geometry":{"x":168397.43489999976,"y":2558196.3483000007}},{"attributes":{"OBJECTID":10912,"LANDMARKID":"1001100000382","LANDMARKCO":"202","LANDMARKNA":"私立港明高中","LANDMARKAD":"1001114","ADDRESS":"台南市西港區慶安路229號","TEL":"06-7952025","COUNTYNAME":"台南市","TOWNNAME":"西港區","MARKTYPE":"992","Class":"2"},"geometry":{"x":167652.50629999954,"y":2557700.9043000005}},{"attributes":{"OBJECTID":10913,"LANDMARKID":"1001100000383","LANDMARKCO":"202","LANDMARKNA":"私立港明高中附設國中部","LANDMARKAD":"1001114","ADDRESS":"台南市西港區慶安路229號","TEL":"06-7952025","COUNTYNAME":"台南市","TOWNNAME":"西港區","MARKTYPE":"992","Class":"2"},"geometry":{"x":167657.50629999954,"y":2557700.9318000004}},{"attributes":{"OBJECTID":10914,"LANDMARKID":"1001100000388","LANDMARKCO":"203","LANDMARKNA":"縣立西港國中","LANDMARKAD":"1001114","ADDRESS":"台南市西港區文化路41號","TEL":"06-7952132","COUNTYNAME":"台南市","TOWNNAME":"西港區","MARKTYPE":"992","Class":"2"},"geometry":{"x":168534.46970000025,"y":2558321.0315000005}},{"attributes":{"OBJECTID":10915,"LANDMARKID":"1001100000389","LANDMARKCO":"203","LANDMARKNA":"縣立西港國小","LANDMARKAD":"1001114","ADDRESS":"台南市西港區進學街60號","TEL":"06-7952005","COUNTYNAME":"台南市","TOWNNAME":"西港區","MARKTYPE":"992","Class":"2"},"geometry":{"x":168022.62760000024,"y":2558111.3526000008}},{"attributes":{"OBJECTID":10916,"LANDMARKID":"1001100000390","LANDMARKCO":"203","LANDMARKNA":"縣立成功國小","LANDMARKAD":"1001114","ADDRESS":"台南市西港區竹林村11號","TEL":"06-7952204","COUNTYNAME":"台南市","TOWNNAME":"西港區","MARKTYPE":"992","Class":"2"},"geometry":{"x":166087.68180000037,"y":2557980.1125000007}},{"attributes":{"OBJECTID":10917,"LANDMARKID":"1001100000391","LANDMARKCO":"203","LANDMARKNA":"縣立金砂國小","LANDMARKAD":"1001114","ADDRESS":"台南市西港區金砂村10之1號","TEL":"06-7221655","COUNTYNAME":"台南市","TOWNNAME":"西港區","MARKTYPE":"992","Class":"2"},"geometry":{"x":168628.56539999973,"y":2561811.4363000002}},{"attributes":{"OBJECTID":10918,"LANDMARKID":"1001100000392","LANDMARKCO":"203","LANDMARKNA":"縣立港東國小","LANDMARKAD":"1001114","ADDRESS":"台南市西港區港東村雙張廓1之1號","TEL":"06-7952231","COUNTYNAME":"台南市","TOWNNAME":"西港區","MARKTYPE":"992","Class":"2"},"geometry":{"x":169018.54849999957,"y":2558120.5642000008}},{"attributes":{"OBJECTID":10919,"LANDMARKID":"1001100000393","LANDMARKCO":"203","LANDMARKNA":"縣立後營國小","LANDMARKAD":"1001114","ADDRESS":"台南市西港區營西村3號","TEL":"06-7952131","COUNTYNAME":"台南市","TOWNNAME":"西港區","MARKTYPE":"992","Class":"2"},"geometry":{"x":169543.08179999981,"y":2560050.2673000004}},{"attributes":{"OBJECTID":10920,"LANDMARKID":"1001100000394","LANDMARKCO":"203","LANDMARKNA":"縣立松林國小","LANDMARKAD":"1001114","ADDRESS":"台南市西港區檨林村39之1號","TEL":"06-7952205","COUNTYNAME":"台南市","TOWNNAME":"西港區","MARKTYPE":"992","Class":"2"},"geometry":{"x":171133.7106999997,"y":2559501.1692999993}},{"attributes":{"OBJECTID":10921,"LANDMARKID":"1001100000702","LANDMARKCO":"303","LANDMARKNA":"停一預定地停車場","LANDMARKAD":"1001114","ADDRESS":"台南市西港區慶定路","TEL":" ","COUNTYNAME":"台南市","TOWNNAME":"西港區","MARKTYPE":"993","Class":"303"},"geometry":{"x":167647.14230000041,"y":2559916.7295999993}},{"attributes":{"OBJECTID":10922,"LANDMARKID":"1001100000879","LANDMARKCO":"402","LANDMARKNA":"中華電信-西港服務中心","LANDMARKAD":"1001114","ADDRESS":"台南市西港區文化路60號","TEL":"(06)744-4700","COUNTYNAME":"台南市","TOWNNAME":"西港區","MARKTYPE":"994","Class":"4"},"geometry":{"x":168704.5569000002,"y":2558220.8318000007}},{"attributes":{"OBJECTID":10923,"LANDMARKID":"1001100000948","LANDMARKCO":"405","LANDMARKNA":"中油加油站-七股站(中油直營)","LANDMARKAD":"1001115","ADDRESS":"台南市七股區玉成村玉成18-2號","TEL":"06-7872248","COUNTYNAME":"台南市","TOWNNAME":"七股區","MARKTYPE":"994","Class":"4"},"geometry":{"x":161380.19959999993,"y":2559702.5011999998}},{"attributes":{"OBJECTID":10924,"LANDMARKID":"1001100000949","LANDMARKCO":"405","LANDMARKNA":"台糖加油站-國聖站(中油)","LANDMARKAD":"1001115","ADDRESS":"台南市七股區義合村12鄰義合108號","TEL":" ","COUNTYNAME":"台南市","TOWNNAME":"七股區","MARKTYPE":"994","Class":"4"},"geometry":{"x":161719.68539999984,"y":2555764.4114999995}},{"attributes":{"OBJECTID":10925,"LANDMARKID":"1001100000950","LANDMARKCO":"405","LANDMARKNA":"中油加油站-篤加加油站","LANDMARKAD":"1001115","ADDRESS":"台南市七股區篤加村篤加1之33號","TEL":"06-7871661","COUNTYNAME":"台南市","TOWNNAME":"七股區","MARKTYPE":"994","Class":"4"},"geometry":{"x":161014.28160000034,"y":2562141.3425999992}},{"attributes":{"OBJECTID":10926,"LANDMARKID":"1001100000951","LANDMARKCO":"405","LANDMARKNA":"中油加油站-台潭站","LANDMARKAD":"1001115","ADDRESS":"台南市七股區大潭村一鄰13號","TEL":"06-7944920","COUNTYNAME":"台南市","TOWNNAME":"七股區","MARKTYPE":"994","Class":"4"},"geometry":{"x":161573.7444000002,"y":2565042.5471000001}},{"attributes":{"OBJECTID":10927,"LANDMARKID":"1001100000952","LANDMARKCO":"405","LANDMARKNA":"台糖加油站-三股站(中油)","LANDMARKAD":"1001115","ADDRESS":"台南市七股區永吉村1鄰永吉1之25號","TEL":" ","COUNTYNAME":"台南市","TOWNNAME":"七股區","MARKTYPE":"994","Class":"4"},"geometry":{"x":161003.52770000044,"y":2555295.0260000005}},{"attributes":{"OBJECTID":10928,"LANDMARKID":"1001100001292","LANDMARKCO":"501","LANDMARKNA":"南瀛國家風景區管理處","LANDMARKAD":"1001115","ADDRESS":" ","TEL":" ","COUNTYNAME":"台南市","TOWNNAME":"七股區","MARKTYPE":"995","Class":"5"},"geometry":{"x":158409.78469999973,"y":2561561.7238999996}},{"attributes":{"OBJECTID":10929,"LANDMARKID":"1001100001252","LANDMARKCO":"408","LANDMARKNA":"郵局-七股郵局","LANDMARKAD":"1001115","ADDRESS":"台南市七股區大埕村296號","TEL":"(06)7872-241","COUNTYNAME":"台南市","TOWNNAME":"七股區","MARKTYPE":"994","Class":"4"},"geometry":{"x":162172.63650000002,"y":2560386.7222000007}},{"attributes":{"OBJECTID":10930,"LANDMARKID":"1001100001259","LANDMARKCO":"409","LANDMARKNA":"七股區農會","LANDMARKAD":"1001115","ADDRESS":"台南市七股區大埕村272號","TEL":"06-787128","COUNTYNAME":"台南市","TOWNNAME":"七股區","MARKTYPE":"994","Class":"4"},"geometry":{"x":162121.94209999964,"y":2560398.9039999992}},{"attributes":{"OBJECTID":10931,"LANDMARKID":"1001100001168","LANDMARKCO":"406","LANDMARKNA":"義合社區公園","LANDMARKAD":"1001115","ADDRESS":"台南市七股區","TEL":" ","COUNTYNAME":"台南市","TOWNNAME":"七股區","MARKTYPE":"994","Class":"4"},"geometry":{"x":162999.71410000045,"y":2556583.0560999997}},{"attributes":{"OBJECTID":10932,"LANDMARKID":"1001100001169","LANDMARKCO":"406","LANDMARKNA":"社區小公園","LANDMARKAD":"1001115","ADDRESS":"台南市七股區","TEL":" ","COUNTYNAME":"台南市","TOWNNAME":"七股區","MARKTYPE":"994","Class":"4"},"geometry":{"x":163446.47159999982,"y":2560993.9295000006}},{"attributes":{"OBJECTID":10933,"LANDMARKID":"1001100000015","LANDMARKCO":"101","LANDMARKNA":"農業委員會水產試驗所","LANDMARKAD":"1001115","ADDRESS":"台南市七股區三股村海埔4號","TEL":"06-7880461","COUNTYNAME":"台南市","TOWNNAME":"七股區","MARKTYPE":"991","Class":"1"},"geometry":{"x":155624.59119999968,"y":2558180.5206000004}},{"attributes":{"OBJECTID":10934,"LANDMARKID":"1001100000043","LANDMARKCO":"103","LANDMARKNA":"台南市政府七股漁港管理站","LANDMARKAD":"1001115","ADDRESS":"台南市七股區龍山村210號之2","TEL":"06-7875105","COUNTYNAME":"台南市","TOWNNAME":"七股區","MARKTYPE":"991","Class":"1"},"geometry":{"x":156689.5867999997,"y":2558790.0340999998}},{"attributes":{"OBJECTID":10935,"LANDMARKID":"1001100000044","LANDMARKCO":"103","LANDMARKNA":"台南市政府七股海埔林務所","LANDMARKAD":"1001115","ADDRESS":"台南市七股區十份村海埔37號之1","TEL":"06-7880014","COUNTYNAME":"台南市","TOWNNAME":"七股區","MARKTYPE":"991","Class":"1"},"geometry":{"x":157840.86120000016,"y":2554740.2671000008}},{"attributes":{"OBJECTID":10936,"LANDMARKID":"1001100000205","LANDMARKCO":"107","LANDMARKNA":"台南市警察局中鹽派出所","LANDMARKAD":"1001115","ADDRESS":"台南市七股區中寮村23之65號","TEL":"06-7800213","COUNTYNAME":"台南市","TOWNNAME":"七股區","MARKTYPE":"991","Class":"1"},"geometry":{"x":158541.63910000026,"y":2561540.8187000006}},{"attributes":{"OBJECTID":10937,"LANDMARKID":"1001100000206","LANDMARKCO":"107","LANDMARKNA":"台南市警察局三股派出所","LANDMARKAD":"1001115","ADDRESS":"台南市七股區三股村7鄰72號","TEL":"06-7881404","COUNTYNAME":"台南市","TOWNNAME":"七股區","MARKTYPE":"991","Class":"1"},"geometry":{"x":159846.20529999956,"y":2555760.3078000005}},{"attributes":{"OBJECTID":10938,"LANDMARKID":"1001100000016","LANDMARKCO":"101","LANDMARKNA":"國軍退除役官兵輔導委員會","LANDMARKAD":"1001115","ADDRESS":"台南市七股區三股村147號","TEL":"06-7880664","COUNTYNAME":"台南市","TOWNNAME":"七股區","MARKTYPE":"991","Class":"1"},"geometry":{"x":160097.42449999973,"y":2556030.0953000002}},{"attributes":{"OBJECTID":10939,"LANDMARKID":"1001100000207","LANDMARKCO":"107","LANDMARKNA":"台南市警察局後港派出所","LANDMARKAD":"1001115","ADDRESS":"臺南縣七股區三股村74號","TEL":"06-7881404","COUNTYNAME":"台南市","TOWNNAME":"七股區","MARKTYPE":"991","Class":"1"},"geometry":{"x":161214.66830000002,"y":2565381.3390999995}},{"attributes":{"OBJECTID":10940,"LANDMARKID":"1001100000131","LANDMARKCO":"106","LANDMARKNA":"台南市七股區戶政事務所","LANDMARKAD":"1001115","ADDRESS":"台南市七股區大埕村380號","TEL":"06-7872127","COUNTYNAME":"台南市","TOWNNAME":"七股區","MARKTYPE":"991","Class":"1"},"geometry":{"x":161338.75800000038,"y":2559520.5873000007}},{"attributes":{"OBJECTID":10941,"LANDMARKID":"1001100000191","LANDMARKCO":"107","LANDMARKNA":"台南市警察局七股分駐所","LANDMARKAD":"1001115","ADDRESS":"台南市七股區玉成村玉城24號","TEL":"06-7872154","COUNTYNAME":"台南市","TOWNNAME":"七股區","MARKTYPE":"991","Class":"1"},"geometry":{"x":161379.51979999989,"y":2559560.8291999996}},{"attributes":{"OBJECTID":10942,"LANDMARKID":"1001100000050","LANDMARKCO":"103","LANDMARKNA":"台南市七股區鄉民代表會","LANDMARKAD":"1001115","ADDRESS":"台南市七股區大埕村378號","TEL":"06-7872179","COUNTYNAME":"台南市","TOWNNAME":"七股區","MARKTYPE":"991","Class":"1"},"geometry":{"x":161844.48300000001,"y":2560180.1886999998}},{"attributes":{"OBJECTID":10943,"LANDMARKID":"1001100000051","LANDMARKCO":"103","LANDMARKNA":"台南市七股區衛生所","LANDMARKAD":"1001115","ADDRESS":"台南市七股區大埕村379號","TEL":"06-7872277","COUNTYNAME":"台南市","TOWNNAME":"七股區","MARKTYPE":"991","Class":"1"},"geometry":{"x":161871.0728000002,"y":2560080.3456999995}},{"attributes":{"OBJECTID":10944,"LANDMARKID":"1001100000325","LANDMARKCO":"108","LANDMARKNA":"台南市七股區公所","LANDMARKAD":"1001115","ADDRESS":"台南市七股區大埕村377號","TEL":"06-7872611","COUNTYNAME":"台南市","TOWNNAME":"七股區","MARKTYPE":"991","Class":"1"},"geometry":{"x":161918.95359999966,"y":2560100.6282000002}},{"attributes":{"OBJECTID":10945,"LANDMARKID":"1001100000192","LANDMARKCO":"107","LANDMARKNA":"台南市消防局七股消防分隊","LANDMARKAD":"1001115","ADDRESS":"台南市七股區大埕村295號","TEL":"06-7873482","COUNTYNAME":"台南市","TOWNNAME":"七股區","MARKTYPE":"991","Class":"1"},"geometry":{"x":162346.9729000004,"y":2560541.4485999998}},{"attributes":{"OBJECTID":10946,"LANDMARKID":"1001100000193","LANDMARKCO":"107","LANDMARKNA":"台南市警察局竹橋派出所","LANDMARKAD":"1001115","ADDRESS":"台南市七股區竹橋村11鄰125號","TEL":"06-7891002","COUNTYNAME":"台南市","TOWNNAME":"七股區","MARKTYPE":"991","Class":"1"},"geometry":{"x":163983.04420000035,"y":2555771.1743999999}},{"attributes":{"OBJECTID":10947,"LANDMARKID":"1001100000194","LANDMARKCO":"107","LANDMARKNA":"台南市警察局三股派出所","LANDMARKAD":"1001115","ADDRESS":"台南市七股區三股村72號","TEL":"06-7881404","COUNTYNAME":"台南市","TOWNNAME":"七股區","MARKTYPE":"991","Class":"1"},"geometry":{"x":159858.42669999972,"y":2555844.2874999996}},{"attributes":{"OBJECTID":10948,"LANDMARKID":"1001100000656","LANDMARKCO":"205","LANDMARKNA":"台灣鹽博物館","LANDMARKAD":"1001115","ADDRESS":"台南市七股區鹽埕村69號","TEL":"06-7800990","COUNTYNAME":"台南市","TOWNNAME":"七股區","MARKTYPE":"992","Class":"2"},"geometry":{"x":158400.50100000016,"y":2561768.2721999995}},{"attributes":{"OBJECTID":10949,"LANDMARKID":"1001100000657","LANDMARKCO":"205","LANDMARKNA":"鹽業博物館","LANDMARKAD":"1001115","ADDRESS":"台南市七股區","TEL":" ","COUNTYNAME":"台南市","TOWNNAME":"七股區","MARKTYPE":"992","Class":"2"},"geometry":{"x":158408.77029999997,"y":2561646.1336000003}},{"attributes":{"OBJECTID":10950,"LANDMARKID":"1001100000653","LANDMARKCO":"204","LANDMARKNA":"台南市立圖書館七股分館","LANDMARKAD":"1001115","ADDRESS":"台南市七股區大埕村377號","TEL":" ","COUNTYNAME":"台南市","TOWNNAME":"七股區","MARKTYPE":"992","Class":"2"},"geometry":{"x":161917.7714999998,"y":2560105.0540999994}},{"attributes":{"OBJECTID":10951,"LANDMARKID":"1001100000395","LANDMARKCO":"203","LANDMARKNA":"縣立後港國中","LANDMARKAD":"1001115","ADDRESS":"台南市七股區大潭村頂潭93號","TEL":"06-7941357","COUNTYNAME":"台南市","TOWNNAME":"七股區","MARKTYPE":"992","Class":"2"},"geometry":{"x":161413.42640000023,"y":2565420.8257999998}},{"attributes":{"OBJECTID":10952,"LANDMARKID":"1001100000396","LANDMARKCO":"203","LANDMARKNA":"縣立竹橋國中","LANDMARKAD":"1001115","ADDRESS":"台南市七股區義合村74之2號","TEL":"06-7891733","COUNTYNAME":"台南市","TOWNNAME":"七股區","MARKTYPE":"992","Class":"2"},"geometry":{"x":162108.20600000024,"y":2555920.2147000004}},{"attributes":{"OBJECTID":10953,"LANDMARKID":"1001100000397","LANDMARKCO":"203","LANDMARKNA":"私立昭明國中","LANDMARKAD":"1001115","ADDRESS":"台南市七股區大埕村315號","TEL":"06-7872053","COUNTYNAME":"台南市","TOWNNAME":"七股區","MARKTYPE":"992","Class":"2"},"geometry":{"x":162123.46470000036,"y":2560320.1450999994}},{"attributes":{"OBJECTID":10954,"LANDMARKID":"1001100000398","LANDMARKCO":"203","LANDMARKNA":"縣立西興國小","LANDMARKAD":"1001115","ADDRESS":"台南市七股區","TEL":" ","COUNTYNAME":"台南市","TOWNNAME":"七股區","MARKTYPE":"992","Class":"2"},"geometry":{"x":157530.83349999972,"y":2563361.5465999991}},{"attributes":{"OBJECTID":10955,"LANDMARKID":"1001100000399","LANDMARKCO":"203","LANDMARKNA":"縣立建功國小","LANDMARKAD":"1001115","ADDRESS":"台南市七股區十份村74之1號","TEL":"06-7880114","COUNTYNAME":"台南市","TOWNNAME":"七股區","MARKTYPE":"992","Class":"2"},"geometry":{"x":157657.38690000027,"y":2554980.8923000004}},{"attributes":{"OBJECTID":10956,"LANDMARKID":"1001100000400","LANDMARKCO":"203","LANDMARKNA":"縣立光復國小","LANDMARKAD":"1001115","ADDRESS":"台南市七股區鹽埕村1號","TEL":"06-7800530","COUNTYNAME":"台南市","TOWNNAME":"七股區","MARKTYPE":"992","Class":"2"},"geometry":{"x":158545.31979999971,"y":2561140.8642999995}},{"attributes":{"OBJECTID":10957,"LANDMARKID":"1001100000401","LANDMARKCO":"203","LANDMARKNA":"縣立後港國小頂山分校","LANDMARKAD":"1001115","ADDRESS":"台南市七股區頂山村153-2號","TEL":"06-7800106","COUNTYNAME":"台南市","TOWNNAME":"七股區","MARKTYPE":"992","Class":"2"},"geometry":{"x":158981.62420000043,"y":2564781.6528999992}},{"attributes":{"OBJECTID":10958,"LANDMARKID":"1001100000402","LANDMARKCO":"203","LANDMARKNA":"縣立龍山國小","LANDMARKAD":"1001115","ADDRESS":"台南市七股區龍山村12號","TEL":"06-7872106","COUNTYNAME":"台南市","TOWNNAME":"七股區","MARKTYPE":"992","Class":"2"},"geometry":{"x":159442.51370000001,"y":2559711.1668999996}},{"attributes":{"OBJECTID":10959,"LANDMARKID":"1001100000403","LANDMARKCO":"203","LANDMARKNA":"縣立三股國小","LANDMARKAD":"1001115","ADDRESS":"台南市七股區三股村100號","TEL":"06-7880744","COUNTYNAME":"台南市","TOWNNAME":"七股區","MARKTYPE":"992","Class":"2"},"geometry":{"x":159544.97180000041,"y":2555800.2080000006}},{"attributes":{"OBJECTID":10960,"LANDMARKID":"1001100000404","LANDMARKCO":"203","LANDMARKNA":"縣立篤加國小","LANDMARKAD":"1001115","ADDRESS":"台南市七股區篤加村120號","TEL":"06-7872536","COUNTYNAME":"台南市","TOWNNAME":"七股區","MARKTYPE":"992","Class":"2"},"geometry":{"x":161459.68680000026,"y":2562301.2083999999}},{"attributes":{"OBJECTID":10961,"LANDMARKID":"1001100000405","LANDMARKCO":"203","LANDMARKNA":"縣立後港國小","LANDMARKAD":"1001115","ADDRESS":"台南市七股區大潭村台潭1號","TEL":"06-7941305","COUNTYNAME":"台南市","TOWNNAME":"七股區","MARKTYPE":"992","Class":"2"},"geometry":{"x":161667.44419999979,"y":2564940.6538999993}},{"attributes":{"OBJECTID":10962,"LANDMARKID":"1001100000406","LANDMARKCO":"203","LANDMARKNA":"縣立七股國小","LANDMARKAD":"1001115","ADDRESS":"台南市七股區大埕村395號","TEL":"06-7872076","COUNTYNAME":"台南市","TOWNNAME":"七股區","MARKTYPE":"992","Class":"2"},"geometry":{"x":161827.78249999974,"y":2559960.0900999997}},{"attributes":{"OBJECTID":10963,"LANDMARKID":"1001100000407","LANDMARKCO":"203","LANDMARKNA":"縣立大文國小","LANDMARKAD":"1001115","ADDRESS":"台南市七股區大寮村36之2號","TEL":"06-7872730","COUNTYNAME":"台南市","TOWNNAME":"七股區","MARKTYPE":"992","Class":"2"},"geometry":{"x":163328.91229999997,"y":2561160.5044999998}},{"attributes":{"OBJECTID":10964,"LANDMARKID":"1001100000408","LANDMARKCO":"203","LANDMARKNA":"縣立樹林國小","LANDMARKAD":"1001115","ADDRESS":"台南市七股區樹林村65之11號","TEL":"06-7891031","COUNTYNAME":"台南市","TOWNNAME":"七股區","MARKTYPE":"992","Class":"2"},"geometry":{"x":163403.58090000041,"y":2556911.0813999996}},{"attributes":{"OBJECTID":10965,"LANDMARKID":"1001100000409","LANDMARKCO":"203","LANDMARKNA":"縣立竹橋國小","LANDMARKAD":"1001115","ADDRESS":"台南市七股區竹橋村130號","TEL":"06-7891041","COUNTYNAME":"台南市","TOWNNAME":"七股區","MARKTYPE":"992","Class":"2"},"geometry":{"x":163847.7592000002,"y":2555820.3958000001}},{"attributes":{"OBJECTID":10966,"LANDMARKID":"1001100000798","LANDMARKCO":"308","LANDMARKNA":"台61-七股交流道-北上","LANDMARKAD":"1001115","ADDRESS":" ","TEL":" ","COUNTYNAME":"台南市","TOWNNAME":"七股區","MARKTYPE":"993","Class":"308"},"geometry":{"x":156866.06439999957,"y":2561874.0588000007}},{"attributes":{"OBJECTID":10967,"LANDMARKID":"1001100000880","LANDMARKCO":"402","LANDMARKNA":"中華電信-七股服務中心","LANDMARKAD":"1001115","ADDRESS":"台南市七股區大埕村373號","TEL":"(06)744-2801","COUNTYNAME":"台南市","TOWNNAME":"七股區","MARKTYPE":"994","Class":"4"},"geometry":{"x":161920.42190000042,"y":2560181.6415999997}},{"attributes":{"OBJECTID":10968,"LANDMARKID":"1001100001294","LANDMARKCO":"503","LANDMARKNA":"黑面琵鷺棲息地","LANDMARKAD":"1001115","ADDRESS":"台南市七股區","TEL":" ","COUNTYNAME":"台南市","TOWNNAME":"七股區","MARKTYPE":"995","Class":"5"},"geometry":{"x":151150.88069999963,"y":2553099.5223999992}},{"attributes":{"OBJECTID":10969,"LANDMARKID":"1001100001291","LANDMARKCO":"410","LANDMARKNA":"七股潟湖","LANDMARKAD":"1001115","ADDRESS":"台南市七股區","TEL":" ","COUNTYNAME":"台南市","TOWNNAME":"七股區","MARKTYPE":"994","Class":"4"},"geometry":{"x":155492.70550000016,"y":2558597.5377999991}},{"attributes":{"OBJECTID":10970,"LANDMARKID":"1001100000953","LANDMARKCO":"405","LANDMARKNA":"中油加油站-再傳站","LANDMARKAD":"1001125","ADDRESS":"台南市南化區玉山村玉山55-3號","TEL":"06-5772787","COUNTYNAME":"台南市","TOWNNAME":"南化區","MARKTYPE":"994","Class":"4"},"geometry":{"x":200754.20370000042,"y":2552702.8025000002}},{"attributes":{"OBJECTID":10971,"LANDMARKID":"1001100000954","LANDMARKCO":"405","LANDMARKNA":"中油加油站-南化站(中油直營)","LANDMARKAD":"1001125","ADDRESS":"台南市南化區南化村217號","TEL":"06-5771128","COUNTYNAME":"台南市","TOWNNAME":"南化區","MARKTYPE":"994","Class":"4"},"geometry":{"x":196602.07419999968,"y":2549165.8176000006}},{"attributes":{"OBJECTID":10972,"LANDMARKID":"1001100001253","LANDMARKCO":"408","LANDMARKNA":"郵局-南化郵局","LANDMARKAD":"1001125","ADDRESS":"台南市南化區南化村115-11號","TEL":"(06)5771-161","COUNTYNAME":"台南市","TOWNNAME":"南化區","MARKTYPE":"994","Class":"4"},"geometry":{"x":196333.05429999996,"y":2549160.6364999991}},{"attributes":{"OBJECTID":10973,"LANDMARKID":"1001100001258","LANDMARKCO":"409","LANDMARKNA":"台南市南化區農會","LANDMARKAD":"1001125","ADDRESS":"台南市南化區南化村128號","TEL":"06-5771516","COUNTYNAME":"台南市","TOWNNAME":"南化區","MARKTYPE":"994","Class":"4"},"geometry":{"x":196369.08990000002,"y":2549087.3178000003}},{"attributes":{"OBJECTID":10974,"LANDMARKID":"1001100001167","LANDMARKCO":"406","LANDMARKNA":"南化運動公園","LANDMARKAD":"1001125","ADDRESS":"台南市南化區","TEL":" ","COUNTYNAME":"台南市","TOWNNAME":"南化區","MARKTYPE":"994","Class":"4"},"geometry":{"x":196527.99039999954,"y":2548430.3687999994}},{"attributes":{"OBJECTID":10975,"LANDMARKID":"1001100000916","LANDMARKCO":"404","LANDMARKNA":"台灣省自來水南化給水廠","LANDMARKAD":"1001125","ADDRESS":"台南市南化區北寮村154號","TEL":" ","COUNTYNAME":"台南市","TOWNNAME":"南化區","MARKTYPE":"994","Class":"4"},"geometry":{"x":198365.56109999958,"y":2553425.2866999991}},{"attributes":{"OBJECTID":10976,"LANDMARKID":"1001100000129","LANDMARKCO":"106","LANDMARKNA":"台南市南化區戶政事務所","LANDMARKAD":"1001125","ADDRESS":"台南市南化區南化村9鄰南化170號","TEL":"06-5771164","COUNTYNAME":"台南市","TOWNNAME":"南化區","MARKTYPE":"991","Class":"1"},"geometry":{"x":196429.16309999954,"y":2549059.8380999994}},{"attributes":{"OBJECTID":10977,"LANDMARKID":"1001100000196","LANDMARKCO":"107","LANDMARKNA":"台南市警察局東埔派出所","LANDMARKAD":"1001125","ADDRESS":"台南市南化區東和村1號","TEL":"06-5771629","COUNTYNAME":"台南市","TOWNNAME":"南化區","MARKTYPE":"991","Class":"1"},"geometry":{"x":195978.59059999976,"y":2547570.2657999992}},{"attributes":{"OBJECTID":10978,"LANDMARKID":"1001100000324","LANDMARKCO":"108","LANDMARKNA":"台南市南化區公所","LANDMARKAD":"1001125","ADDRESS":"台南市南化區南化村230號","TEL":"06-5771513","COUNTYNAME":"台南市","TOWNNAME":"南化區","MARKTYPE":"991","Class":"1"},"geometry":{"x":196404.54530000035,"y":2549120.7501999997}},{"attributes":{"OBJECTID":10979,"LANDMARKID":"1001100000195","LANDMARKCO":"107","LANDMARKNA":"台南市警察局南化分駐所","LANDMARKAD":"1001125","ADDRESS":"台南市南化區南化村170號","TEL":"06-5771179","COUNTYNAME":"台南市","TOWNNAME":"南化區","MARKTYPE":"991","Class":"1"},"geometry":{"x":196433.90230000019,"y":2549020.8550000004}},{"attributes":{"OBJECTID":10980,"LANDMARKID":"1001100000052","LANDMARKCO":"103","LANDMARKNA":"台南市南化區鄉民代表會","LANDMARKAD":"1001125","ADDRESS":"台南市南化區南化村230號","TEL":"06-5773943","COUNTYNAME":"台南市","TOWNNAME":"南化區","MARKTYPE":"991","Class":"1"},"geometry":{"x":196626.78490000032,"y":2549360.5204000007}},{"attributes":{"OBJECTID":10981,"LANDMARKID":"1001100000053","LANDMARKCO":"103","LANDMARKNA":"台南市南化區衛生所","LANDMARKAD":"1001125","ADDRESS":"台南市南化區南化村226之1號","TEL":"06-5771139","COUNTYNAME":"台南市","TOWNNAME":"南化區","MARKTYPE":"991","Class":"1"},"geometry":{"x":196627.29540000018,"y":2549190.5261000004}},{"attributes":{"OBJECTID":10982,"LANDMARKID":"1001100000199","LANDMARKCO":"107","LANDMARKNA":"台南市消防局南化消防分隊","LANDMARKAD":"1001125","ADDRESS":"台南市南化區南化村226之2號","TEL":"06-5773428","COUNTYNAME":"台南市","TOWNNAME":"南化區","MARKTYPE":"991","Class":"1"},"geometry":{"x":196639.22420000006,"y":2549210.5684999991}},{"attributes":{"OBJECTID":10983,"LANDMARKID":"1001100000200","LANDMARKCO":"107","LANDMARKNA":"台南市警察局北寮派出所","LANDMARKAD":"1001125","ADDRESS":"台南市南化區北寮村111號","TEL":"06-5772057","COUNTYNAME":"台南市","TOWNNAME":"南化區","MARKTYPE":"991","Class":"1"},"geometry":{"x":198004.77780000027,"y":2553050.3055000007}},{"attributes":{"OBJECTID":10984,"LANDMARKID":"1001100000201","LANDMARKCO":"107","LANDMARKNA":"台南市警察局玉山派出所","LANDMARKAD":"1001125","ADDRESS":"台南市南化區玉山村54號","TEL":"06-5772058","COUNTYNAME":"台南市","TOWNNAME":"南化區","MARKTYPE":"991","Class":"1"},"geometry":{"x":200809.21609999985,"y":2552600.1592999995}},{"attributes":{"OBJECTID":10985,"LANDMARKID":"1001100000651","LANDMARKCO":"204","LANDMARKNA":"台南市立圖書館南化分館","LANDMARKAD":"1001125","ADDRESS":"台南市南化區南化村227之1號","TEL":" ","COUNTYNAME":"台南市","TOWNNAME":"南化區","MARKTYPE":"992","Class":"2"},"geometry":{"x":196709.46659999993,"y":2549394.3489999995}},{"attributes":{"OBJECTID":10986,"LANDMARKID":"1001100000412","LANDMARKCO":"203","LANDMARKNA":"縣立南化國中","LANDMARKAD":"1001125","ADDRESS":"台南市南化區南化村227號","TEL":"06-5771105","COUNTYNAME":"台南市","TOWNNAME":"南化區","MARKTYPE":"992","Class":"2"},"geometry":{"x":196737.78399999999,"y":2549360.9149999991}},{"attributes":{"OBJECTID":10987,"LANDMARKID":"1001100000413","LANDMARKCO":"203","LANDMARKNA":"縣立西埔國小","LANDMARKAD":"1001125","ADDRESS":"台南市南化區西埔村117號","TEL":"06-5771240","COUNTYNAME":"台南市","TOWNNAME":"南化區","MARKTYPE":"992","Class":"2"},"geometry":{"x":193208.28859999962,"y":2549500.5439999998}},{"attributes":{"OBJECTID":10988,"LANDMARKID":"1001100000414","LANDMARKCO":"203","LANDMARKNA":"縣立南化國小","LANDMARKAD":"1001125","ADDRESS":"台南市南化區南化村17號","TEL":"06-5751118","COUNTYNAME":"台南市","TOWNNAME":"南化區","MARKTYPE":"992","Class":"2"},"geometry":{"x":195700.07789999992,"y":2549250.2696000002}},{"attributes":{"OBJECTID":10989,"LANDMARKID":"1001100000415","LANDMARKCO":"203","LANDMARKNA":"縣立北寮國小","LANDMARKAD":"1001125","ADDRESS":"台南市南化區北寮村110之25號","TEL":"06-5772215","COUNTYNAME":"台南市","TOWNNAME":"南化區","MARKTYPE":"992","Class":"2"},"geometry":{"x":198257.64589999989,"y":2552780.1978999991}},{"attributes":{"OBJECTID":10990,"LANDMARKID":"1001100000416","LANDMARKCO":"203","LANDMARKNA":"縣立玉山國小","LANDMARKAD":"1001125","ADDRESS":"台南市南化區玉山村48之1號","TEL":"06-5772072","COUNTYNAME":"台南市","TOWNNAME":"南化區","MARKTYPE":"992","Class":"2"},"geometry":{"x":200683.11670000013,"y":2552630.6830000002}},{"attributes":{"OBJECTID":10991,"LANDMARKID":"1001100000417","LANDMARKCO":"203","LANDMARKNA":"縣立瑞峰國小","LANDMARKAD":"1001125","ADDRESS":"台南市南化區關山村96號","TEL":"06-5770093","COUNTYNAME":"台南市","TOWNNAME":"南化區","MARKTYPE":"992","Class":"2"},"geometry":{"x":208579.58750000037,"y":2563560.2894000001}},{"attributes":{"OBJECTID":10992,"LANDMARKID":"1001100000703","LANDMARKCO":"303","LANDMARKNA":"南化區玉山村停車場","LANDMARKAD":"1001125","ADDRESS":"台南市南化區玉山村","TEL":" ","COUNTYNAME":"台南市","TOWNNAME":"南化區","MARKTYPE":"993","Class":"303"},"geometry":{"x":202712.40469999984,"y":2554605.9528999999}},{"attributes":{"OBJECTID":10993,"LANDMARKID":"1001100001295","LANDMARKCO":"503","LANDMARKNA":"阿拉溪斜瀑群","LANDMARKAD":"1001125","ADDRESS":"台南市南化區","TEL":" ","COUNTYNAME":"台南市","TOWNNAME":"南化區","MARKTYPE":"995","Class":"5"},"geometry":{"x":206483.69159999955,"y":2561951.8243000004}},{"attributes":{"OBJECTID":10994,"LANDMARKID":"1001100001296","LANDMARKCO":"503","LANDMARKNA":"金童瀑布","LANDMARKAD":"1001125","ADDRESS":"台南市南化區","TEL":" ","COUNTYNAME":"台南市","TOWNNAME":"南化區","MARKTYPE":"995","Class":"5"},"geometry":{"x":207227.40409999993,"y":2563223.6319999993}},{"attributes":{"OBJECTID":10995,"LANDMARKID":"1001100001297","LANDMARKCO":"503","LANDMARKNA":"龍王瀑布","LANDMARKAD":"1001125","ADDRESS":"台南市南化區","TEL":" ","COUNTYNAME":"台南市","TOWNNAME":"南化區","MARKTYPE":"995","Class":"5"},"geometry":{"x":208211.56350000016,"y":2568955.5884000007}},{"attributes":{"OBJECTID":10996,"LANDMARKID":"1001100000962","LANDMARKCO":"405","LANDMARKNA":"台糖加油站-豐德站(中油)","LANDMARKAD":"1001122","ADDRESS":"台南市山上區豐德村隙子口1之1號","TEL":" ","COUNTYNAME":"台南市","TOWNNAME":"山上區","MARKTYPE":"994","Class":"4"},"geometry":{"x":185208.86349999998,"y":2553183.4238000009}},{"attributes":{"OBJECTID":10997,"LANDMARKID":"1001100000963","LANDMARKCO":"405","LANDMARKNA":"中油加油站-山上站(中油直營)","LANDMARKAD":"1001122","ADDRESS":"台南市山上區明和村232號","TEL":"06-5781556","COUNTYNAME":"台南市","TOWNNAME":"山上區","MARKTYPE":"994","Class":"4"},"geometry":{"x":183518.23060000036,"y":2556177.0894000009}},{"attributes":{"OBJECTID":10998,"LANDMARKID":"1001100001254","LANDMARKCO":"408","LANDMARKNA":"郵局-山上郵局","LANDMARKAD":"1001122","ADDRESS":"台南市山上區山上村250號","TEL":"(06)5781-024","COUNTYNAME":"台南市","TOWNNAME":"山上區","MARKTYPE":"994","Class":"4"},"geometry":{"x":184018.17480000015,"y":2555632.3889000006}},{"attributes":{"OBJECTID":10999,"LANDMARKID":"1001100001257","LANDMARKCO":"409","LANDMARKNA":"台南市山上區農會","LANDMARKAD":"1001122","ADDRESS":"台南市山上區山上村15鄰238號","TEL":"06-5781811~3","COUNTYNAME":"台南市","TOWNNAME":"山上區","MARKTYPE":"994","Class":"4"},"geometry":{"x":183900.09850000031,"y":2555530.6918000001}},{"attributes":{"OBJECTID":11000,"LANDMARKID":"1001100000130","LANDMARKCO":"106","LANDMARKNA":"台南市山上區戶政事務所","LANDMARKAD":"1001122","ADDRESS":"台南市山上區山上村1鄰山上36號","TEL":"06-5781204","COUNTYNAME":"台南市","TOWNNAME":"山上區","MARKTYPE":"991","Class":"1"},"geometry":{"x":184250.99729999993,"y":2555377.1877999995}}]}