{"displayFieldName":"COUNTYNAME","fieldAliases":{"OBJECTID":"OBJECTID","LANDMARKID":"LANDMARKID","LANDMARKCO":"LANDMARKCO","LANDMARKNA":"LANDMARKNA","LANDMARKAD":"LANDMARKAD","ADDRESS":"ADDRESS","TEL":"TEL","COUNTYNAME":"COUNTYNAME","TOWNNAME":"TOWNNAME","MARKTYPE":"MARKTYPE","Class":"Class"},"geometryType":"esriGeometryPoint","spatialReference":{"wkid":4326},"fields":[{"name":"OBJECTID","type":"esriFieldTypeOID","alias":"OBJECTID"},{"name":"LANDMARKID","type":"esriFieldTypeString","alias":"LANDMARKID","length":15},{"name":"LANDMARKCO","type":"esriFieldTypeString","alias":"LANDMARKCO","length":15},{"name":"LANDMARKNA","type":"esriFieldTypeString","alias":"LANDMARKNA","length":50},{"name":"LANDMARKAD","type":"esriFieldTypeString","alias":"LANDMARKAD","length":15},{"name":"ADDRESS","type":"esriFieldTypeString","alias":"ADDRESS","length":56},{"name":"TEL","type":"esriFieldTypeString","alias":"TEL","length":36},{"name":"COUNTYNAME","type":"esriFieldTypeString","alias":"COUNTYNAME","length":15},{"name":"TOWNNAME","type":"esriFieldTypeString","alias":"TOWNNAME","length":13},{"name":"MARKTYPE","type":"esriFieldTypeString","alias":"MARKTYPE","length":12},{"name":"Class","type":"esriFieldTypeString","alias":"Class","length":5}],"features":[{"attributes":{"OBJECTID":25201,"LANDMARKID":"1000400000348","LANDMARKCO":"303","LANDMARKNA":"內灣停車場","LANDMARKAD":"1000408","ADDRESS":"新竹縣橫山鄉","TEL":" ","COUNTYNAME":"新竹縣","TOWNNAME":"橫山鄉","MARKTYPE":"993","Class":"303"},"geometry":{"x":121.17684327680836,"y":24.705155173013509}},{"attributes":{"OBJECTID":25202,"LANDMARKID":"1000400000320","LANDMARKCO":"301","LANDMARKNA":"九讚頭火車站","LANDMARKAD":"1000408","ADDRESS":"新竹縣橫山鄉中豐路二段286巷29號","TEL":" ","COUNTYNAME":"新竹縣","TOWNNAME":"橫山鄉","MARKTYPE":"993","Class":"301"},"geometry":{"x":121.13559061771248,"y":24.720717230480908}},{"attributes":{"OBJECTID":25203,"LANDMARKID":"1000400000321","LANDMARKCO":"301","LANDMARKNA":"內灣火車站","LANDMARKAD":"1000408","ADDRESS":"新竹縣橫山鄉中正路6號","TEL":" ","COUNTYNAME":"新竹縣","TOWNNAME":"橫山鄉","MARKTYPE":"993","Class":"301"},"geometry":{"x":121.18267656412563,"y":24.705537715508406}},{"attributes":{"OBJECTID":25204,"LANDMARKID":"1000400000322","LANDMARKCO":"301","LANDMARKNA":"合興火車站","LANDMARKAD":"1000408","ADDRESS":"新竹縣橫山鄉中山街一段17號","TEL":" ","COUNTYNAME":"新竹縣","TOWNNAME":"橫山鄉","MARKTYPE":"993","Class":"301"},"geometry":{"x":121.15464392778941,"y":24.716561191316778}},{"attributes":{"OBJECTID":25205,"LANDMARKID":"1000400000323","LANDMARKCO":"301","LANDMARKNA":"富貴火車站","LANDMARKAD":"1000408","ADDRESS":"新竹縣橫山鄉","TEL":" ","COUNTYNAME":"新竹縣","TOWNNAME":"橫山鄉","MARKTYPE":"993","Class":"301"},"geometry":{"x":121.16784264903394,"y":24.71507527398591}},{"attributes":{"OBJECTID":25206,"LANDMARKID":"1000400000324","LANDMARKCO":"301","LANDMARKNA":"橫山火車站","LANDMARKAD":"1000408","ADDRESS":"新竹縣橫山鄉橫山村橫山路97號","TEL":" ","COUNTYNAME":"新竹縣","TOWNNAME":"橫山鄉","MARKTYPE":"993","Class":"301"},"geometry":{"x":121.11737486597494,"y":24.720514642327462}},{"attributes":{"OBJECTID":25207,"LANDMARKID":"1000400000693","LANDMARKCO":"604","LANDMARKNA":"山舍民宿","LANDMARKAD":"1000408","ADDRESS":"新竹縣橫山鄉內灣村92號","TEL":"03-5849988","COUNTYNAME":"新竹縣","TOWNNAME":"橫山鄉","MARKTYPE":"996","Class":"6"},"geometry":{"x":121.1834176438435,"y":24.705265973760969}},{"attributes":{"OBJECTID":25208,"LANDMARKID":"1000400000694","LANDMARKCO":"604","LANDMARKNA":"佐岸","LANDMARKAD":"1000408","ADDRESS":"新竹縣橫山鄉內灣村中山街2段51-7號","TEL":"03-5849320","COUNTYNAME":"新竹縣","TOWNNAME":"橫山鄉","MARKTYPE":"996","Class":"6"},"geometry":{"x":121.18049354166567,"y":24.704540835587817}},{"attributes":{"OBJECTID":25209,"LANDMARKID":"1000400000695","LANDMARKCO":"604","LANDMARKNA":"彎月民宿","LANDMARKAD":"1000408","ADDRESS":"新竹縣橫山鄉內灣村中正路279號","TEL":"03-5848062","COUNTYNAME":"新竹縣","TOWNNAME":"橫山鄉","MARKTYPE":"996","Class":"6"},"geometry":{"x":121.18120525176691,"y":24.705729293667108}},{"attributes":{"OBJECTID":25210,"LANDMARKID":"1000400000696","LANDMARKCO":"604","LANDMARKNA":"星光流域","LANDMARKAD":"1000408","ADDRESS":"新竹縣橫山鄉內灣村146號","TEL":"03-5849433","COUNTYNAME":"新竹縣","TOWNNAME":"橫山鄉","MARKTYPE":"996","Class":"6"},"geometry":{"x":121.18222950784612,"y":24.705904053567416}},{"attributes":{"OBJECTID":25211,"LANDMARKID":"1000400000697","LANDMARKCO":"604","LANDMARKNA":"鍾媽媽民宿","LANDMARKAD":"1000408","ADDRESS":"新竹縣橫山鄉內灣村81號","TEL":"03-5849127","COUNTYNAME":"新竹縣","TOWNNAME":"橫山鄉","MARKTYPE":"996","Class":"6"},"geometry":{"x":121.18366627319485,"y":24.705009669661056}},{"attributes":{"OBJECTID":25212,"LANDMARKID":"1000400000698","LANDMARKCO":"604","LANDMARKNA":"賞螢民宿","LANDMARKAD":"1000408","ADDRESS":"新竹縣橫山鄉內灣村85號","TEL":"0937-156023","COUNTYNAME":"新竹縣","TOWNNAME":"橫山鄉","MARKTYPE":"996","Class":"6"},"geometry":{"x":121.18363642916111,"y":24.705116706314183}},{"attributes":{"OBJECTID":25213,"LANDMARKID":"1000400000699","LANDMARKCO":"604","LANDMARKNA":"綠意山林民宿","LANDMARKAD":"1000408","ADDRESS":"新竹縣橫山鄉豐鄉村大山背29號","TEL":"03-5937198","COUNTYNAME":"新竹縣","TOWNNAME":"橫山鄉","MARKTYPE":"996","Class":"6"},"geometry":{"x":121.13939807039917,"y":24.697824957131207}},{"attributes":{"OBJECTID":25214,"LANDMARKID":"1000400000581","LANDMARKCO":"503","LANDMARKNA":"南坪古道","LANDMARKAD":"1000408","ADDRESS":"新竹縣橫山鄉","TEL":" ","COUNTYNAME":"新竹縣","TOWNNAME":"橫山鄉","MARKTYPE":"995","Class":"5"},"geometry":{"x":121.17976119094041,"y":24.702659524382138}},{"attributes":{"OBJECTID":25215,"LANDMARKID":"1000400000622","LANDMARKCO":"508","LANDMARKNA":"河岸溫泉","LANDMARKAD":"1000408","ADDRESS":"新竹縣橫山鄉中山街二段2號","TEL":"03-5849250","COUNTYNAME":"新竹縣","TOWNNAME":"橫山鄉","MARKTYPE":"995","Class":"5"},"geometry":{"x":121.1754597010453,"y":24.705561492825236}},{"attributes":{"OBJECTID":25216,"LANDMARKID":"1000400000623","LANDMARKCO":"508","LANDMARKNA":"威尼斯內灣溫泉會館","LANDMARKAD":"1000408","ADDRESS":"新竹縣橫山鄉內灣村內灣33號","TEL":"03-5849966","COUNTYNAME":"新竹縣","TOWNNAME":"橫山鄉","MARKTYPE":"995","Class":"5"},"geometry":{"x":121.18309854825901,"y":24.701038526778277}},{"attributes":{"OBJECTID":25217,"LANDMARKID":"1000400000582","LANDMARKCO":"503","LANDMARKNA":"豐鄉瀑布","LANDMARKAD":"1000408","ADDRESS":"新竹縣寶山鄉","TEL":" ","COUNTYNAME":"新竹縣","TOWNNAME":"橫山鄉","MARKTYPE":"995","Class":"5"},"geometry":{"x":121.14353582593189,"y":24.693028382381616}},{"attributes":{"OBJECTID":25218,"LANDMARKID":"1000400000583","LANDMARKCO":"503","LANDMARKNA":"內灣風景區","LANDMARKAD":"1000408","ADDRESS":"新竹縣橫山鄉","TEL":" ","COUNTYNAME":"新竹縣","TOWNNAME":"橫山鄉","MARKTYPE":"995","Class":"5"},"geometry":{"x":121.18123243647329,"y":24.705857224725342}},{"attributes":{"OBJECTID":25219,"LANDMARKID":"1000400000505","LANDMARKCO":"405","LANDMARKNA":"中油加油站-北埔站(中油直營)","LANDMARKAD":"1000409","ADDRESS":"新竹縣北埔鄉水際村麻布樹排23-2號","TEL":"03-5802547","COUNTYNAME":"新竹縣","TOWNNAME":"北埔鄉","MARKTYPE":"994","Class":"4"},"geometry":{"x":121.06283207790253,"y":24.705655307741573}},{"attributes":{"OBJECTID":25220,"LANDMARKID":"1000400000613","LANDMARKCO":"507","LANDMARKNA":"金廣福公館","LANDMARKAD":"1000409","ADDRESS":"新竹縣北埔鄉北埔村中正路1號","TEL":" ","COUNTYNAME":"新竹縣","TOWNNAME":"北埔鄉","MARKTYPE":"995","Class":"5"},"geometry":{"x":121.05703202645657,"y":24.700569322385039}},{"attributes":{"OBJECTID":25221,"LANDMARKID":"1000400000614","LANDMARKCO":"507","LANDMARKNA":"北埔慈天宮","LANDMARKAD":"1000409","ADDRESS":"新竹縣北埔鄉北埔街1號","TEL":" ","COUNTYNAME":"新竹縣","TOWNNAME":"北埔鄉","MARKTYPE":"995","Class":"5"},"geometry":{"x":121.05712500647971,"y":24.699852526798658}},{"attributes":{"OBJECTID":25222,"LANDMARKID":"1000400000559","LANDMARKCO":"408","LANDMARKNA":"郵局-北埔郵局","LANDMARKAD":"1000409","ADDRESS":"新竹縣北埔鄉長興街1號","TEL":"(03)5802-261","COUNTYNAME":"新竹縣","TOWNNAME":"北埔鄉","MARKTYPE":"994","Class":"4"},"geometry":{"x":121.0547382119551,"y":24.699995375173295}},{"attributes":{"OBJECTID":25223,"LANDMARKID":"1000400000564","LANDMARKCO":"409","LANDMARKNA":"新竹縣北埔鄉農會","LANDMARKAD":"1000409","ADDRESS":"新竹縣北埔鄉北埔村北埔街94號","TEL":"03-5801073","COUNTYNAME":"新竹縣","TOWNNAME":"北埔鄉","MARKTYPE":"994","Class":"4"},"geometry":{"x":121.05476920021785,"y":24.700644277619961}},{"attributes":{"OBJECTID":25224,"LANDMARKID":"1000400000510","LANDMARKCO":"406","LANDMARKNA":"秀巒公園","LANDMARKAD":"1000409","ADDRESS":"新竹縣北埔鄉","TEL":" ","COUNTYNAME":"新竹縣","TOWNNAME":"北埔鄉","MARKTYPE":"994","Class":"4"},"geometry":{"x":121.05958924140229,"y":24.699663661574384}},{"attributes":{"OBJECTID":25225,"LANDMARKID":"1000400000167","LANDMARKCO":"108","LANDMARKNA":"新竹縣北埔鄉公所","LANDMARKAD":"1000409","ADDRESS":"新竹縣北埔鄉中山路20號","TEL":"035-802204","COUNTYNAME":"新竹縣","TOWNNAME":"北埔鄉","MARKTYPE":"991","Class":"1"},"geometry":{"x":121.05648902194288,"y":24.702075288751885}},{"attributes":{"OBJECTID":25226,"LANDMARKID":"1000400000017","LANDMARKCO":"103","LANDMARKNA":"新竹縣北埔鄉鄉民代表會","LANDMARKAD":"1000409","ADDRESS":"新竹縣北埔鎮中山路20號","TEL":"035-802280","COUNTYNAME":"新竹縣","TOWNNAME":"北埔鄉","MARKTYPE":"991","Class":"1"},"geometry":{"x":121.05648902194288,"y":24.702075288751885}},{"attributes":{"OBJECTID":25227,"LANDMARKID":"1000400000018","LANDMARKCO":"103","LANDMARKNA":"新竹縣北埔鄉衛生所","LANDMARKAD":"1000409","ADDRESS":"新竹縣北埔鄉北埔街90號","TEL":"03-5802304","COUNTYNAME":"新竹縣","TOWNNAME":"北埔鄉","MARKTYPE":"991","Class":"1"},"geometry":{"x":121.05563373767272,"y":24.700539326458006}},{"attributes":{"OBJECTID":25228,"LANDMARKID":"1000400000120","LANDMARKCO":"107","LANDMARKNA":"新竹縣消防局北埔消防分隊","LANDMARKAD":"1000409","ADDRESS":"新竹縣北埔鄉南興街66號","TEL":"03-5804449","COUNTYNAME":"新竹縣","TOWNNAME":"北埔鄉","MARKTYPE":"991","Class":"1"},"geometry":{"x":121.05710300074119,"y":24.698763623614454}},{"attributes":{"OBJECTID":25229,"LANDMARKID":"1000400000121","LANDMARKCO":"107","LANDMARKNA":"新竹縣警察局北埔分駐所","LANDMARKAD":"1000409","ADDRESS":"新竹縣北埔鄉南興村南興街70號","TEL":"035-802214","COUNTYNAME":"新竹縣","TOWNNAME":"北埔鄉","MARKTYPE":"991","Class":"1"},"geometry":{"x":121.05718027223901,"y":24.698964905384063}},{"attributes":{"OBJECTID":25230,"LANDMARKID":"1000400000067","LANDMARKCO":"106","LANDMARKNA":"新竹縣北埔鄉戶政事務所","LANDMARKAD":"1000409","ADDRESS":"新竹縣北埔鄉南興村14鄰南興街68號","TEL":"035-802834","COUNTYNAME":"新竹縣","TOWNNAME":"北埔鄉","MARKTYPE":"991","Class":"1"},"geometry":{"x":121.05710062115712,"y":24.698863844477327}},{"attributes":{"OBJECTID":25231,"LANDMARKID":"1000400000309","LANDMARKCO":"204","LANDMARKNA":"新竹縣立圖書館北埔分館","LANDMARKAD":"1000409","ADDRESS":"新竹縣北埔鄉中興街2號","TEL":" ","COUNTYNAME":"新竹縣","TOWNNAME":"北埔鄉","MARKTYPE":"992","Class":"2"},"geometry":{"x":121.05762623705654,"y":24.701400230746273}},{"attributes":{"OBJECTID":25232,"LANDMARKID":"1000400000233","LANDMARKCO":"203","LANDMARKNA":"縣立北埔國小","LANDMARKAD":"1000409","ADDRESS":"新竹縣北埔鄉埔心街24號","TEL":"035-802215","COUNTYNAME":"新竹縣","TOWNNAME":"北埔鄉","MARKTYPE":"992","Class":"2"},"geometry":{"x":121.05386061393064,"y":24.700428563986375}},{"attributes":{"OBJECTID":25233,"LANDMARKID":"1000400000234","LANDMARKCO":"203","LANDMARKNA":"縣立北埔國中","LANDMARKAD":"1000409","ADDRESS":"新竹縣北埔鄉埔尾村141號","TEL":"035-802224","COUNTYNAME":"新竹縣","TOWNNAME":"北埔鄉","MARKTYPE":"992","Class":"2"},"geometry":{"x":121.04745071045963,"y":24.704509682877909}},{"attributes":{"OBJECTID":25234,"LANDMARKID":"1000400000235","LANDMARKCO":"203","LANDMARKNA":"縣立大坪國小","LANDMARKAD":"1000409","ADDRESS":"新竹縣北埔鄉大坪村8號","TEL":"035-802264","COUNTYNAME":"新竹縣","TOWNNAME":"北埔鄉","MARKTYPE":"992","Class":"2"},"geometry":{"x":121.05896120874608,"y":24.674710538544154}},{"attributes":{"OBJECTID":25235,"LANDMARKID":"1000400000351","LANDMARKCO":"303","LANDMARKNA":"北埔鄉停車場","LANDMARKAD":"1000409","ADDRESS":"新竹縣北埔鄉","TEL":" ","COUNTYNAME":"新竹縣","TOWNNAME":"北埔鄉","MARKTYPE":"993","Class":"303"},"geometry":{"x":121.05614506016401,"y":24.703509170738759}},{"attributes":{"OBJECTID":25236,"LANDMARKID":"1000400000352","LANDMARKCO":"303","LANDMARKNA":"五指山風景區停車場仙洞入口處","LANDMARKAD":"1000409","ADDRESS":"新竹縣北埔鄉","TEL":" ","COUNTYNAME":"新竹縣","TOWNNAME":"北埔鄉","MARKTYPE":"993","Class":"303"},"geometry":{"x":121.08801346297595,"y":24.640195824361239}},{"attributes":{"OBJECTID":25237,"LANDMARKID":"1000400000353","LANDMARKCO":"303","LANDMARKNA":"五指山風景區停車場五指山登山口","LANDMARKAD":"1000409","ADDRESS":"新竹縣北埔鄉","TEL":" ","COUNTYNAME":"新竹縣","TOWNNAME":"北埔鄉","MARKTYPE":"993","Class":"303"},"geometry":{"x":121.08968374141932,"y":24.642849276271864}},{"attributes":{"OBJECTID":25238,"LANDMARKID":"1000400000419","LANDMARKCO":"402","LANDMARKNA":"中華電信-北埔服務中心","LANDMARKAD":"1000409","ADDRESS":"新竹縣北埔鄉北埔街107號","TEL":"123或0800-080-123","COUNTYNAME":"新竹縣","TOWNNAME":"北埔鄉","MARKTYPE":"994","Class":"4"},"geometry":{"x":121.05499921323235,"y":24.700280930202908}},{"attributes":{"OBJECTID":25239,"LANDMARKID":"1000400000700","LANDMARKCO":"604","LANDMARKNA":"小分林","LANDMARKAD":"1000409","ADDRESS":"新竹縣北埔鄉大林村5鄰23-1號","TEL":"03-5803728","COUNTYNAME":"新竹縣","TOWNNAME":"北埔鄉","MARKTYPE":"996","Class":"6"},"geometry":{"x":121.05711600395284,"y":24.685536491138357}},{"attributes":{"OBJECTID":25240,"LANDMARKID":"1000400000701","LANDMARKCO":"604","LANDMARKNA":"香品源","LANDMARKAD":"1000409","ADDRESS":"新竹縣北埔鄉南坑村7鄰25號之2","TEL":"03-5802216","COUNTYNAME":"新竹縣","TOWNNAME":"北埔鄉","MARKTYPE":"996","Class":"6"},"geometry":{"x":121.05082084811909,"y":24.660426801533927}},{"attributes":{"OBJECTID":25241,"LANDMARKID":"1000400000702","LANDMARKCO":"604","LANDMARKNA":"北昇休閒山莊民宿","LANDMARKAD":"1000409","ADDRESS":"新竹縣北埔鄉水?村8鄰10-3號","TEL":"03-5804607","COUNTYNAME":"新竹縣","TOWNNAME":"北埔鄉","MARKTYPE":"996","Class":"6"},"geometry":{"x":121.05746816896281,"y":24.674774357444182}},{"attributes":{"OBJECTID":25242,"LANDMARKID":"1000400000578","LANDMARKCO":"503","LANDMARKNA":"五指山風景區","LANDMARKAD":"1000409","ADDRESS":"新竹縣竹東鎮北埔鄉","TEL":" ","COUNTYNAME":"新竹縣","TOWNNAME":"北埔鄉","MARKTYPE":"995","Class":"5"},"geometry":{"x":121.08995555246202,"y":24.64286867118302}},{"attributes":{"OBJECTID":25243,"LANDMARKID":"1000400000632","LANDMARKCO":"508","LANDMARKNA":"北埔冷泉","LANDMARKAD":"1000409","ADDRESS":"新竹縣北埔鄉","TEL":" ","COUNTYNAME":"新竹縣","TOWNNAME":"北埔鄉","MARKTYPE":"995","Class":"5"},"geometry":{"x":121.07315471015657,"y":24.66217709936689}},{"attributes":{"OBJECTID":25244,"LANDMARKID":"1000400000577","LANDMARKCO":"410","LANDMARKNA":"北埔老街","LANDMARKAD":"1000409","ADDRESS":"新竹縣北埔鄉","TEL":" ","COUNTYNAME":"新竹縣","TOWNNAME":"北埔鄉","MARKTYPE":"994","Class":"4"},"geometry":{"x":121.05737909121952,"y":24.700199354780764}},{"attributes":{"OBJECTID":25245,"LANDMARKID":"1000400000636","LANDMARKCO":"509","LANDMARKNA":"北埔冷泉","LANDMARKAD":"1000409","ADDRESS":"新竹縣北埔鄉","TEL":" ","COUNTYNAME":"新竹縣","TOWNNAME":"北埔鄉","MARKTYPE":"995","Class":"5"},"geometry":{"x":121.07300016003269,"y":24.663104664625738}},{"attributes":{"OBJECTID":25246,"LANDMARKID":"1000400000506","LANDMARKCO":"405","LANDMARKNA":"中油加油站-建岑站","LANDMARKAD":"1000411","ADDRESS":"新竹縣峨眉鄉峨眉村1鄰8-9號","TEL":"03-5809343","COUNTYNAME":"新竹縣","TOWNNAME":"峨眉鄉","MARKTYPE":"994","Class":"4"},"geometry":{"x":121.02184164199871,"y":24.687028318008327}},{"attributes":{"OBJECTID":25247,"LANDMARKID":"1000400000507","LANDMARKCO":"405","LANDMARKNA":"中油加油站-峨眉站(中油直營)","LANDMARKAD":"1000411","ADDRESS":"新竹縣峨眉鄉峨眉村3-1號","TEL":"035-800564","COUNTYNAME":"新竹縣","TOWNNAME":"峨眉鄉","MARKTYPE":"994","Class":"4"},"geometry":{"x":121.02555297608004,"y":24.687525113997498}},{"attributes":{"OBJECTID":25248,"LANDMARKID":"1000400000649","LANDMARKCO":"512","LANDMARKNA":"獅山旅遊服務中心","LANDMARKAD":"1000411","ADDRESS":"新竹縣峨眉鄉七星村六寮60之8號","TEL":"035-809296","COUNTYNAME":"新竹縣","TOWNNAME":"峨眉鄉","MARKTYPE":"995","Class":"5"},"geometry":{"x":121.02250264282812,"y":24.656150597484899}},{"attributes":{"OBJECTID":25249,"LANDMARKID":"1000400000561","LANDMARKCO":"408","LANDMARKNA":"郵局-峨眉郵局","LANDMARKAD":"1000411","ADDRESS":"新竹縣峨眉鄉成功街26號","TEL":"(03)5800-284","COUNTYNAME":"新竹縣","TOWNNAME":"峨眉鄉","MARKTYPE":"994","Class":"4"},"geometry":{"x":121.02020926045958,"y":24.688399477965618}},{"attributes":{"OBJECTID":25250,"LANDMARKID":"1000400000563","LANDMARKCO":"409","LANDMARKNA":"新竹縣峨眉鄉農會","LANDMARKAD":"1000411","ADDRESS":"新竹縣峨眉鄉峨眉村8鄰12號","TEL":"03-5800216-7","COUNTYNAME":"新竹縣","TOWNNAME":"峨眉鄉","MARKTYPE":"994","Class":"4"},"geometry":{"x":121.01793051780228,"y":24.689180541917949}},{"attributes":{"OBJECTID":25251,"LANDMARKID":"1000400000102","LANDMARKCO":"107","LANDMARKNA":"新竹縣消防局峨眉消防分隊","LANDMARKAD":"1000411","ADDRESS":"新竹縣峨眉鄉峨眉村峨眉街1之1號","TEL":"035-800684","COUNTYNAME":"新竹縣","TOWNNAME":"峨眉鄉","MARKTYPE":"991","Class":"1"},"geometry":{"x":121.02174204717691,"y":24.68803563417023}},{"attributes":{"OBJECTID":25252,"LANDMARKID":"1000400000103","LANDMARKCO":"107","LANDMARKNA":"新竹縣警察局富興派出所","LANDMARKAD":"1000411","ADDRESS":"新竹縣峨眉鄉富興村太平街4號","TEL":"035-806584","COUNTYNAME":"新竹縣","TOWNNAME":"峨眉鄉","MARKTYPE":"991","Class":"1"},"geometry":{"x":120.98790692084926,"y":24.686884605550713}},{"attributes":{"OBJECTID":25253,"LANDMARKID":"1000400000069","LANDMARKCO":"106","LANDMARKNA":"新竹縣峨眉鄉戶政事務所","LANDMARKAD":"1000411","ADDRESS":"新竹縣峨眉鄉峨眉村2鄰峨眉街1號","TEL":"035-800253","COUNTYNAME":"新竹縣","TOWNNAME":"峨眉鄉","MARKTYPE":"991","Class":"1"},"geometry":{"x":121.02154405797324,"y":24.688191080157402}},{"attributes":{"OBJECTID":25254,"LANDMARKID":"1000400000162","LANDMARKCO":"108","LANDMARKNA":"新竹縣峨眉鄉公所","LANDMARKAD":"1000411","ADDRESS":"新竹縣峨眉鄉峨眉街8鄰8號","TEL":"035-800116","COUNTYNAME":"新竹縣","TOWNNAME":"峨眉鄉","MARKTYPE":"991","Class":"1"},"geometry":{"x":121.0192208975561,"y":24.689347422409657}},{"attributes":{"OBJECTID":25255,"LANDMARKID":"1000400000019","LANDMARKCO":"103","LANDMARKNA":"新竹縣峨眉鄉衛生所","LANDMARKAD":"1000411","ADDRESS":"新竹縣峨眉鄉峨眉村2鄰5號","TEL":"03-5800014","COUNTYNAME":"新竹縣","TOWNNAME":"峨眉鄉","MARKTYPE":"991","Class":"1"},"geometry":{"x":121.02079226991384,"y":24.688263887523664}},{"attributes":{"OBJECTID":25256,"LANDMARKID":"1000400000104","LANDMARKCO":"107","LANDMARKNA":"新竹縣警察局峨眉分駐所","LANDMARKAD":"1000411","ADDRESS":"新竹縣峨眉鄉二鄰1號","TEL":"035-800344","COUNTYNAME":"新竹縣","TOWNNAME":"峨眉鄉","MARKTYPE":"991","Class":"1"},"geometry":{"x":121.02165196449506,"y":24.688083068939594}},{"attributes":{"OBJECTID":25257,"LANDMARKID":"1000400000020","LANDMARKCO":"103","LANDMARKNA":"新竹縣峨眉鄉鄉民代表會","LANDMARKAD":"1000411","ADDRESS":"新竹縣峨嵋鄉峨嵋街8鄰8號2樓","TEL":"035-800384","COUNTYNAME":"新竹縣","TOWNNAME":"峨眉鄉","MARKTYPE":"991","Class":"1"},"geometry":{"x":121.01939901186789,"y":24.688715363867207}},{"attributes":{"OBJECTID":25258,"LANDMARKID":"1000400000306","LANDMARKCO":"204","LANDMARKNA":"新竹縣立圖書館峨眉分館","LANDMARKAD":"1000411","ADDRESS":"新竹縣峨眉鄉峨眉街8號","TEL":" ","COUNTYNAME":"新竹縣","TOWNNAME":"峨眉鄉","MARKTYPE":"992","Class":"2"},"geometry":{"x":121.01957869521578,"y":24.688808094783557}},{"attributes":{"OBJECTID":25259,"LANDMARKID":"1000400000230","LANDMARKCO":"203","LANDMARKNA":"縣立峨眉國中","LANDMARKAD":"1000411","ADDRESS":"新竹縣峨眉鄉10鄰峨眉街54號","TEL":"035-800208","COUNTYNAME":"新竹縣","TOWNNAME":"峨眉鄉","MARKTYPE":"992","Class":"2"},"geometry":{"x":121.01808378684804,"y":24.690801579056174}},{"attributes":{"OBJECTID":25260,"LANDMARKID":"1000400000231","LANDMARKCO":"203","LANDMARKNA":"縣立峨眉國小","LANDMARKAD":"1000411","ADDRESS":"新竹縣峨眉鄉峨眉街4號","TEL":"035-800674","COUNTYNAME":"新竹縣","TOWNNAME":"峨眉鄉","MARKTYPE":"992","Class":"2"},"geometry":{"x":121.02017938424007,"y":24.689076642472191}},{"attributes":{"OBJECTID":25261,"LANDMARKID":"1000400000232","LANDMARKCO":"203","LANDMARKNA":"縣立富興國小","LANDMARKAD":"1000411","ADDRESS":"新竹縣峨眉鄉富興村太平街8號","TEL":"035-806353","COUNTYNAME":"新竹縣","TOWNNAME":"峨眉鄉","MARKTYPE":"992","Class":"2"},"geometry":{"x":120.98839908076603,"y":24.686865434791901}},{"attributes":{"OBJECTID":25262,"LANDMARKID":"1000400000349","LANDMARKCO":"303","LANDMARKNA":"峨眉湖停車場","LANDMARKAD":"1000411","ADDRESS":"新竹縣峨眉鄉","TEL":" ","COUNTYNAME":"新竹縣","TOWNNAME":"峨眉鄉","MARKTYPE":"993","Class":"303"},"geometry":{"x":120.98032701531987,"y":24.678941925637101}},{"attributes":{"OBJECTID":25263,"LANDMARKID":"1000400000350","LANDMARKCO":"303","LANDMARKNA":"獅山停車場水濂洞處","LANDMARKAD":"1000411","ADDRESS":"新竹縣峨眉鄉","TEL":" ","COUNTYNAME":"新竹縣","TOWNNAME":"峨眉鄉","MARKTYPE":"993","Class":"303"},"geometry":{"x":121.02589999056521,"y":24.65447009168572}},{"attributes":{"OBJECTID":25264,"LANDMARKID":"1000400000703","LANDMARKCO":"604","LANDMARKNA":"一家三國民宿","LANDMARKAD":"1000411","ADDRESS":"新竹縣峨眉鄉石井村6鄰63-6號","TEL":"03-4753510","COUNTYNAME":"新竹縣","TOWNNAME":"峨眉鄉","MARKTYPE":"996","Class":"6"},"geometry":{"x":121.00544701482623,"y":24.708673004569668}},{"attributes":{"OBJECTID":25265,"LANDMARKID":"1000400000508","LANDMARKCO":"405","LANDMARKNA":"中油加油站-尖石站(中油直營)","LANDMARKAD":"1000412","ADDRESS":"新竹縣尖石鄉嘉樂村2鄰麥樹仁66號","TEL":"03-5842322","COUNTYNAME":"新竹縣","TOWNNAME":"尖石鄉","MARKTYPE":"994","Class":"4"},"geometry":{"x":121.20269011433001,"y":24.70596776944706}},{"attributes":{"OBJECTID":25266,"LANDMARKID":"1000400000560","LANDMARKCO":"408","LANDMARKNA":"郵局-尖石郵局","LANDMARKAD":"1000412","ADDRESS":"新竹縣尖石鄉嘉樂村2鄰28之1號","TEL":"(03)5841-274","COUNTYNAME":"新竹縣","TOWNNAME":"尖石鄉","MARKTYPE":"994","Class":"4"},"geometry":{"x":121.228669813412,"y":24.728222719840343}},{"attributes":{"OBJECTID":25267,"LANDMARKID":"1000400000105","LANDMARKCO":"107","LANDMARKNA":"新竹縣消防局尖石消防分隊","LANDMARKAD":"1000412","ADDRESS":"新竹縣尖石鄉嘉樂村2鄰麥樹仁50號","TEL":"035-841014","COUNTYNAME":"新竹縣","TOWNNAME":"尖石鄉","MARKTYPE":"991","Class":"1"},"geometry":{"x":121.2020100747952,"y":24.705482363567281}},{"attributes":{"OBJECTID":25268,"LANDMARKID":"1000400000161","LANDMARKCO":"108","LANDMARKNA":"新竹縣尖石鄉公所","LANDMARKAD":"1000412","ADDRESS":"新竹縣尖石鄉嘉樂村2鄰36號","TEL":"03-5841001","COUNTYNAME":"新竹縣","TOWNNAME":"尖石鄉","MARKTYPE":"991","Class":"1"},"geometry":{"x":121.20071067642188,"y":24.703479216728613}},{"attributes":{"OBJECTID":25269,"LANDMARKID":"1000400000021","LANDMARKCO":"103","LANDMARKNA":"新竹縣尖石鄉衛生所","LANDMARKAD":"1000412","ADDRESS":"新竹縣尖石鄉嘉樂村二鄰61號","TEL":"03-5841011","COUNTYNAME":"新竹縣","TOWNNAME":"尖石鄉","MARKTYPE":"991","Class":"1"},"geometry":{"x":121.20197824099084,"y":24.705642702890938}},{"attributes":{"OBJECTID":25270,"LANDMARKID":"1000400000106","LANDMARKCO":"107","LANDMARKNA":"新竹縣警察局嘉樂派出所","LANDMARKAD":"1000412","ADDRESS":"新竹縣尖石鄉嘉樂村六鄰1號","TEL":"035-841675","COUNTYNAME":"新竹縣","TOWNNAME":"尖石鄉","MARKTYPE":"991","Class":"1"},"geometry":{"x":121.22650421762206,"y":24.727728342789455}},{"attributes":{"OBJECTID":25271,"LANDMARKID":"1000400000107","LANDMARKCO":"107","LANDMARKNA":"新竹縣警察局水田派出所","LANDMARKAD":"1000412","ADDRESS":"新竹縣尖石鄉新樂村1鄰22-1號","TEL":"03-5841676","COUNTYNAME":"新竹縣","TOWNNAME":"尖石鄉","MARKTYPE":"991","Class":"1"},"geometry":{"x":121.25065144440694,"y":24.732295715122447}},{"attributes":{"OBJECTID":25272,"LANDMARKID":"1000400000108","LANDMARKCO":"107","LANDMARKNA":"新竹縣警察局新光派出所","LANDMARKAD":"1000412","ADDRESS":"新竹縣尖石鄉秀巒村7鄰32號","TEL":"03-5847322","COUNTYNAME":"新竹縣","TOWNNAME":"尖石鄉","MARKTYPE":"991","Class":"1"},"geometry":{"x":121.30352527514707,"y":24.58286268125914}},{"attributes":{"OBJECTID":25273,"LANDMARKID":"1000400000109","LANDMARKCO":"107","LANDMARKNA":"新竹縣警察局泰平派出所","LANDMARKAD":"1000412","ADDRESS":"新竹縣尖石鄉玉峰村5鄰45號","TEL":"03-5847202","COUNTYNAME":"新竹縣","TOWNNAME":"尖石鄉","MARKTYPE":"991","Class":"1"},"geometry":{"x":121.32316922092227,"y":24.665795418995636}},{"attributes":{"OBJECTID":25274,"LANDMARKID":"1000400000110","LANDMARKCO":"107","LANDMARKNA":"新竹縣警察局宇老派出所","LANDMARKAD":"1000412","ADDRESS":"新竹縣尖石鄉玉峰村1鄰1號","TEL":"03-5847238","COUNTYNAME":"新竹縣","TOWNNAME":"尖石鄉","MARKTYPE":"991","Class":"1"},"geometry":{"x":121.2821840045075,"y":24.666870121526578}},{"attributes":{"OBJECTID":25275,"LANDMARKID":"1000400000111","LANDMARKCO":"107","LANDMARKNA":"新竹縣警察局秀巒派出所","LANDMARKAD":"1000412","ADDRESS":"新竹縣尖石鄉秀巒村二鄰控溪村1號","TEL":"035-847523","COUNTYNAME":"新竹縣","TOWNNAME":"尖石鄉","MARKTYPE":"991","Class":"1"},"geometry":{"x":121.28441147682402,"y":24.61666713003298}},{"attributes":{"OBJECTID":25276,"LANDMARKID":"1000400000112","LANDMARKCO":"107","LANDMARKNA":"新竹縣警察局柿山派出所","LANDMARKAD":"1000412","ADDRESS":"新竹縣尖石鄉錦屏村八鄰那羅22號","TEL":"035-841682","COUNTYNAME":"新竹縣","TOWNNAME":"尖石鄉","MARKTYPE":"991","Class":"1"},"geometry":{"x":121.24339397299904,"y":24.680120175923197}},{"attributes":{"OBJECTID":25277,"LANDMARKID":"1000400000113","LANDMARKCO":"107","LANDMARKNA":"新竹縣警察局田埔派出所","LANDMARKAD":"1000412","ADDRESS":"新竹縣尖石鄉玉峰村1鄰1號","TEL":"03-5847238","COUNTYNAME":"新竹縣","TOWNNAME":"尖石鄉","MARKTYPE":"991","Class":"1"},"geometry":{"x":121.2795855818221,"y":24.639698202122169}},{"attributes":{"OBJECTID":25278,"LANDMARKID":"1000400000114","LANDMARKCO":"107","LANDMARKNA":"新竹縣警察局梅林派出所","LANDMARKAD":"1000412","ADDRESS":"新竹縣尖石鄉一鄰梅花9號","TEL":"035-841681","COUNTYNAME":"新竹縣","TOWNNAME":"尖石鄉","MARKTYPE":"991","Class":"1"},"geometry":{"x":121.20909036461363,"y":24.678728989485645}},{"attributes":{"OBJECTID":25279,"LANDMARKID":"1000400000115","LANDMARKCO":"107","LANDMARKNA":"新竹縣警察局玉峰派出所","LANDMARKAD":"1000412","ADDRESS":"新竹縣尖石鄉玉峰村5鄰玉峰45號","TEL":"035-847202","COUNTYNAME":"新竹縣","TOWNNAME":"尖石鄉","MARKTYPE":"991","Class":"1"},"geometry":{"x":121.30042120813806,"y":24.660246020117743}},{"attributes":{"OBJECTID":25280,"LANDMARKID":"1000400000116","LANDMARKCO":"107","LANDMARKNA":"新竹縣警察局尖石分駐所","LANDMARKAD":"1000412","ADDRESS":"新竹縣尖石鄉嘉樂村37號","TEL":"035-841144","COUNTYNAME":"新竹縣","TOWNNAME":"尖石鄉","MARKTYPE":"991","Class":"1"},"geometry":{"x":121.19986589873996,"y":24.705102965713536}},{"attributes":{"OBJECTID":25281,"LANDMARKID":"1000400000117","LANDMARKCO":"107","LANDMARKNA":"新竹縣警察局石磊派出所","LANDMARKAD":"1000412","ADDRESS":"新竹縣尖石鄉玉峰村5鄰45號","TEL":"03-5847202","COUNTYNAME":"新竹縣","TOWNNAME":"尖石鄉","MARKTYPE":"991","Class":"1"},"geometry":{"x":121.32237018923692,"y":24.652797513604806}},{"attributes":{"OBJECTID":25282,"LANDMARKID":"1000400000118","LANDMARKCO":"107","LANDMARKNA":"新竹縣警察局泰崗派出所","LANDMARKAD":"1000412","ADDRESS":"新竹縣尖石鄉秀巒村7鄰32號","TEL":"03-5847322","COUNTYNAME":"新竹縣","TOWNNAME":"尖石鄉","MARKTYPE":"991","Class":"1"},"geometry":{"x":121.29786590471392,"y":24.612398342775379}},{"attributes":{"OBJECTID":25283,"LANDMARKID":"1000400000073","LANDMARKCO":"106","LANDMARKNA":"新竹縣尖石鄉戶政事務所","LANDMARKAD":"1000412","ADDRESS":"新竹縣尖石鄉嘉樂村二鄰麥樹仁63號","TEL":"03-5841258","COUNTYNAME":"新竹縣","TOWNNAME":"尖石鄉","MARKTYPE":"991","Class":"1"},"geometry":{"x":121.20026737448379,"y":24.703931837373808}},{"attributes":{"OBJECTID":25284,"LANDMARKID":"1000400000050","LANDMARKCO":"103","LANDMARKNA":"新竹縣尖石鄉鄉民代表會","LANDMARKAD":"1000412","ADDRESS":"新竹縣尖石鄉嘉樂村麥樹仁2鄰36號2樓","TEL":"03-5842321","COUNTYNAME":"新竹縣","TOWNNAME":"尖石鄉","MARKTYPE":"991","Class":"1"},"geometry":{"x":121.20141819482714,"y":24.705283065975983}},{"attributes":{"OBJECTID":25285,"LANDMARKID":"1000400000300","LANDMARKCO":"204","LANDMARKNA":"新竹縣立圖書館尖石分館","LANDMARKAD":"1000412","ADDRESS":"新竹縣尖石鄉嘉樂村2鄰26號","TEL":" ","COUNTYNAME":"新竹縣","TOWNNAME":"尖石鄉","MARKTYPE":"992","Class":"2"},"geometry":{"x":121.20074817020786,"y":24.704070956614984}},{"attributes":{"OBJECTID":25286,"LANDMARKID":"1000400000236","LANDMARKCO":"203","LANDMARKNA":"縣立嘉興國小","LANDMARKAD":"1000412","ADDRESS":"新竹縣尖石鄉嘉樂村3鄰麥樹仁69號","TEL":"035-841004","COUNTYNAME":"新竹縣","TOWNNAME":"尖石鄉","MARKTYPE":"992","Class":"2"},"geometry":{"x":121.21055986043933,"y":24.705088731805215}},{"attributes":{"OBJECTID":25287,"LANDMARKID":"1000400000237","LANDMARKCO":"203","LANDMARKNA":"縣立尖石國中","LANDMARKAD":"1000412","ADDRESS":"新竹縣尖石鄉嘉樂村3鄰麥樹仁80號","TEL":"035-841027","COUNTYNAME":"新竹縣","TOWNNAME":"尖石鄉","MARKTYPE":"992","Class":"2"},"geometry":{"x":121.20232412202101,"y":24.707098554624107}},{"attributes":{"OBJECTID":25288,"LANDMARKID":"1000400000238","LANDMARKCO":"203","LANDMARKNA":"縣立玉峰國小","LANDMARKAD":"1000412","ADDRESS":"新竹縣尖石鄉玉峰村五鄰59號","TEL":"035-847200","COUNTYNAME":"新竹縣","TOWNNAME":"尖石鄉","MARKTYPE":"992","Class":"2"},"geometry":{"x":121.30147747896999,"y":24.660061214079473}},{"attributes":{"OBJECTID":25289,"LANDMARKID":"1000400000239","LANDMARKCO":"203","LANDMARKNA":"縣立新樂國小","LANDMARKAD":"1000412","ADDRESS":"新竹縣尖石鄉新樂村一鄰10號","TEL":"035-841500","COUNTYNAME":"新竹縣","TOWNNAME":"尖石鄉","MARKTYPE":"992","Class":"2"},"geometry":{"x":121.25096379570891,"y":24.73130151566416}},{"attributes":{"OBJECTID":25290,"LANDMARKID":"1000400000240","LANDMARKCO":"203","LANDMARKNA":"縣立秀巒國小","LANDMARKAD":"1000412","ADDRESS":"新竹縣尖石鄉秀巒村4鄰8號","TEL":"035-847500","COUNTYNAME":"新竹縣","TOWNNAME":"尖石鄉","MARKTYPE":"992","Class":"2"},"geometry":{"x":121.28655339989972,"y":24.618560308502865}},{"attributes":{"OBJECTID":25291,"LANDMARKID":"1000400000241","LANDMARKCO":"203","LANDMARKNA":"縣立錦屏國小","LANDMARKAD":"1000412","ADDRESS":"新竹縣尖石鄉錦屏村68號","TEL":"035-841633","COUNTYNAME":"新竹縣","TOWNNAME":"尖石鄉","MARKTYPE":"992","Class":"2"},"geometry":{"x":121.24681951971353,"y":24.680655205422209}},{"attributes":{"OBJECTID":25292,"LANDMARKID":"1000400000242","LANDMARKCO":"203","LANDMARKNA":"縣立新光國小","LANDMARKAD":"1000412","ADDRESS":"新竹縣尖石鄉秀巒村8鄰8號","TEL":"035-847706","COUNTYNAME":"新竹縣","TOWNNAME":"尖石鄉","MARKTYPE":"992","Class":"2"},"geometry":{"x":121.30303424107699,"y":24.579975440357551}},{"attributes":{"OBJECTID":25293,"LANDMARKID":"1000400000243","LANDMARKCO":"203","LANDMARKNA":"縣立梅花國小","LANDMARKAD":"1000412","ADDRESS":"新竹縣尖石鄉梅花村1鄰25號","TEL":"035-841501","COUNTYNAME":"新竹縣","TOWNNAME":"尖石鄉","MARKTYPE":"992","Class":"2"},"geometry":{"x":121.20860719612814,"y":24.677646889788072}},{"attributes":{"OBJECTID":25294,"LANDMARKID":"1000400000244","LANDMARKCO":"203","LANDMARKNA":"縣立尖石國小","LANDMARKAD":"1000412","ADDRESS":"新竹縣尖石鄉嘉樂村11號","TEL":"035-841563","COUNTYNAME":"新竹縣","TOWNNAME":"尖石鄉","MARKTYPE":"992","Class":"2"},"geometry":{"x":121.22669093139621,"y":24.728811214240732}},{"attributes":{"OBJECTID":25295,"LANDMARKID":"1000400000245","LANDMARKCO":"203","LANDMARKNA":"縣立石磊國小","LANDMARKAD":"1000412","ADDRESS":"新竹縣尖石鄉玉峰村10鄰49號","TEL":"035-847001","COUNTYNAME":"新竹縣","TOWNNAME":"尖石鄉","MARKTYPE":"992","Class":"2"},"geometry":{"x":121.32630626037891,"y":24.65549513271964}},{"attributes":{"OBJECTID":25296,"LANDMARKID":"1000400000246","LANDMARKCO":"203","LANDMARKNA":"縣立秀巒國小田埔分校","LANDMARKAD":"1000412","ADDRESS":"新竹縣尖石鄉秀巒村1鄰18號","TEL":"035-847823","COUNTYNAME":"新竹縣","TOWNNAME":"尖石鄉","MARKTYPE":"992","Class":"2"},"geometry":{"x":121.27874367670704,"y":24.641416797180383}},{"attributes":{"OBJECTID":25297,"LANDMARKID":"1000400000247","LANDMARKCO":"203","LANDMARKNA":"縣立嘉興國小義興分校","LANDMARKAD":"1000412","ADDRESS":"新竹縣尖石鄉義興村8鄰51號","TEL":"03-5841600","COUNTYNAME":"新竹縣","TOWNNAME":"尖石鄉","MARKTYPE":"992","Class":"2"},"geometry":{"x":121.17819577675594,"y":24.689333000476871}},{"attributes":{"OBJECTID":25298,"LANDMARKID":"1000400000704","LANDMARKCO":"604","LANDMARKNA":"斯馬庫斯","LANDMARKAD":"1000412","ADDRESS":"新竹縣尖石鄉玉峰村14鄰斯馬庫斯5號","TEL":"03-5847688","COUNTYNAME":"新竹縣","TOWNNAME":"尖石鄉","MARKTYPE":"996","Class":"6"},"geometry":{"x":121.32347640525384,"y":24.583880388482473}},{"attributes":{"OBJECTID":25299,"LANDMARKID":"1000400000705","LANDMARKCO":"604","LANDMARKNA":"塔克金溪","LANDMARKAD":"1000412","ADDRESS":"新竹縣尖石鄉秀巒村4鄰8之1號","TEL":"03-5847566","COUNTYNAME":"新竹縣","TOWNNAME":"尖石鄉","MARKTYPE":"996","Class":"6"},"geometry":{"x":121.27583059034309,"y":24.641434555353911}},{"attributes":{"OBJECTID":25300,"LANDMARKID":"1000400000706","LANDMARKCO":"604","LANDMARKNA":"日日春","LANDMARKAD":"1000412","ADDRESS":"新竹縣尖石鄉秀巒村8鄰18號","TEL":"03-5847708","COUNTYNAME":"新竹縣","TOWNNAME":"尖石鄉","MARKTYPE":"996","Class":"6"},"geometry":{"x":121.20082227122484,"y":24.704817979074058}},{"attributes":{"OBJECTID":25301,"LANDMARKID":"1000400000707","LANDMARKCO":"604","LANDMARKNA":"達客喜","LANDMARKAD":"1000412","ADDRESS":"新竹縣尖石鄉嘉樂村3鄰96號","TEL":"03-5842235","COUNTYNAME":"新竹縣","TOWNNAME":"尖石鄉","MARKTYPE":"996","Class":"6"},"geometry":{"x":121.20434231518298,"y":24.707586954897081}},{"attributes":{"OBJECTID":25302,"LANDMARKID":"1000400000708","LANDMARKCO":"604","LANDMARKNA":"朝日民宿","LANDMARKAD":"1000412","ADDRESS":"新竹縣尖石鄉錦屏村4鄰32號","TEL":"03-5841111","COUNTYNAME":"新竹縣","TOWNNAME":"尖石鄉","MARKTYPE":"996","Class":"6"},"geometry":{"x":121.20884322281988,"y":24.670178368662736}},{"attributes":{"OBJECTID":25303,"LANDMARKID":"1000400000709","LANDMARKCO":"604","LANDMARKNA":"亞山民宿","LANDMARKAD":"1000412","ADDRESS":"新竹縣尖石鄉錦屏村5鄰73號","TEL":"03-5841533","COUNTYNAME":"新竹縣","TOWNNAME":"尖石鄉","MARKTYPE":"996","Class":"6"},"geometry":{"x":121.20775138036829,"y":24.669674056351887}},{"attributes":{"OBJECTID":25304,"LANDMARKID":"1000400000710","LANDMARKCO":"604","LANDMARKNA":"魯壁","LANDMARKAD":"1000412","ADDRESS":"新竹縣尖石鄉玉峰村1鄰宇老5號","TEL":"03-5847203","COUNTYNAME":"新竹縣","TOWNNAME":"尖石鄉","MARKTYPE":"996","Class":"6"},"geometry":{"x":121.280081233045,"y":24.665870650178562}},{"attributes":{"OBJECTID":25305,"LANDMARKID":"1000400000711","LANDMARKCO":"604","LANDMARKNA":"那羅灣石屋","LANDMARKAD":"1000412","ADDRESS":"新竹縣尖石鄉錦屏村12鄰那羅223號","TEL":"03-5841573","COUNTYNAME":"新竹縣","TOWNNAME":"尖石鄉","MARKTYPE":"996","Class":"6"},"geometry":{"x":121.25221001202242,"y":24.676691867619798}},{"attributes":{"OBJECTID":25306,"LANDMARKID":"1000400000579","LANDMARKCO":"503","LANDMARKNA":"宇老觀景台","LANDMARKAD":"1000412","ADDRESS":"新竹縣尖石鄉(位於宇老派出所旁)","TEL":" ","COUNTYNAME":"新竹縣","TOWNNAME":"尖石鄉","MARKTYPE":"995","Class":"5"},"geometry":{"x":121.28239232633575,"y":24.667273564556371}},{"attributes":{"OBJECTID":25307,"LANDMARKID":"1000400000624","LANDMARKCO":"508","LANDMARKNA":"小錦屏溫泉","LANDMARKAD":"1000412","ADDRESS":"新竹縣尖石鄉","TEL":" ","COUNTYNAME":"新竹縣","TOWNNAME":"尖石鄉","MARKTYPE":"995","Class":"5"},"geometry":{"x":121.20444334524539,"y":24.6515447109376}},{"attributes":{"OBJECTID":25308,"LANDMARKID":"1000400000625","LANDMARKCO":"508","LANDMARKNA":"暫時園溫泉區咖啡民宿","LANDMARKAD":"1000412","ADDRESS":"新竹縣尖石鄉梅花村10鄰243號","TEL":"03-5841812","COUNTYNAME":"新竹縣","TOWNNAME":"尖石鄉","MARKTYPE":"995","Class":"5"},"geometry":{"x":121.20606694797962,"y":24.663903768585641}},{"attributes":{"OBJECTID":25309,"LANDMARKID":"1000400000626","LANDMARKCO":"508","LANDMARKNA":"亞山溫泉民宿","LANDMARKAD":"1000412","ADDRESS":"新竹縣尖石鄉錦屏村33之1號","TEL":"03-5841533","COUNTYNAME":"新竹縣","TOWNNAME":"尖石鄉","MARKTYPE":"995","Class":"5"},"geometry":{"x":121.20729494978994,"y":24.669741543816293}},{"attributes":{"OBJECTID":25310,"LANDMARKID":"1000400000627","LANDMARKCO":"508","LANDMARKNA":"錦屏美人湯館","LANDMARKAD":"1000412","ADDRESS":"新竹縣尖石鄉錦屏村69號","TEL":"03-5841199","COUNTYNAME":"新竹縣","TOWNNAME":"尖石鄉","MARKTYPE":"995","Class":"5"},"geometry":{"x":121.20897176371714,"y":24.671375156271267}},{"attributes":{"OBJECTID":25311,"LANDMARKID":"1000400000628","LANDMARKCO":"508","LANDMARKNA":"朝日溫泉會館","LANDMARKAD":"1000412","ADDRESS":"新竹縣尖石鄉錦屏村4鄰32號","TEL":"03-5841111","COUNTYNAME":"新竹縣","TOWNNAME":"尖石鄉","MARKTYPE":"995","Class":"5"},"geometry":{"x":121.20887371261558,"y":24.670187376682215}},{"attributes":{"OBJECTID":25312,"LANDMARKID":"1000400000629","LANDMARKCO":"508","LANDMARKNA":"石上湯屋","LANDMARKAD":"1000412","ADDRESS":"新竹縣尖石鄉嘉樂村45號","TEL":"03-5842605","COUNTYNAME":"新竹縣","TOWNNAME":"尖石鄉","MARKTYPE":"995","Class":"5"},"geometry":{"x":121.22232694951133,"y":24.728604990825104}},{"attributes":{"OBJECTID":25313,"LANDMARKID":"1000400000630","LANDMARKCO":"508","LANDMARKNA":"天然谷溫泉會館","LANDMARKAD":"1000412","ADDRESS":"新竹縣尖石鄉錦屏村天然谷25號","TEL":"03-5841321","COUNTYNAME":"新竹縣","TOWNNAME":"尖石鄉","MARKTYPE":"995","Class":"5"},"geometry":{"x":121.22257834601294,"y":24.687722271126727}},{"attributes":{"OBJECTID":25314,"LANDMARKID":"1000400000631","LANDMARKCO":"508","LANDMARKNA":"秀巒野溪溫泉","LANDMARKAD":"1000412","ADDRESS":"新竹縣尖石鄉秀巒村","TEL":" ","COUNTYNAME":"新竹縣","TOWNNAME":"尖石鄉","MARKTYPE":"995","Class":"5"},"geometry":{"x":121.28722150669881,"y":24.621416979590563}},{"attributes":{"OBJECTID":25315,"LANDMARKID":"1000400000588","LANDMARKCO":"503","LANDMARKNA":"司馬庫斯斷崖","LANDMARKAD":"1000412","ADDRESS":"新竹縣尖山鄉","TEL":" ","COUNTYNAME":"新竹縣","TOWNNAME":"尖石鄉","MARKTYPE":"995","Class":"5"},"geometry":{"x":121.34933908966771,"y":24.569701844661754}},{"attributes":{"OBJECTID":25316,"LANDMARKID":"1000400000589","LANDMARKCO":"503","LANDMARKNA":"司馬庫斯神木群","LANDMARKAD":"1000412","ADDRESS":"新竹縣尖山鄉","TEL":" ","COUNTYNAME":"新竹縣","TOWNNAME":"尖石鄉","MARKTYPE":"995","Class":"5"},"geometry":{"x":121.36673919461688,"y":24.574187456829911}},{"attributes":{"OBJECTID":25317,"LANDMARKID":"1000400000590","LANDMARKCO":"503","LANDMARKNA":"司馬庫斯古道步道口","LANDMARKAD":"1000412","ADDRESS":"新竹縣尖山鄉","TEL":" ","COUNTYNAME":"新竹縣","TOWNNAME":"尖石鄉","MARKTYPE":"995","Class":"5"},"geometry":{"x":121.34250942239359,"y":24.578610812290339}},{"attributes":{"OBJECTID":25318,"LANDMARKID":"1000400000591","LANDMARKCO":"503","LANDMARKNA":"青蛙谷","LANDMARKAD":"1000412","ADDRESS":"新竹縣尖石鄉","TEL":" ","COUNTYNAME":"新竹縣","TOWNNAME":"尖石鄉","MARKTYPE":"995","Class":"5"},"geometry":{"x":121.22722369203063,"y":24.687361303238951}},{"attributes":{"OBJECTID":25319,"LANDMARKID":"1000400000633","LANDMARKCO":"508","LANDMARKNA":"會來尖石渡假村","LANDMARKAD":"1000412","ADDRESS":"新竹縣尖石鄉嘉樂村3鄰177之1號","TEL":"03-5841000","COUNTYNAME":"新竹縣","TOWNNAME":"尖石鄉","MARKTYPE":"995","Class":"5"},"geometry":{"x":121.20924331293605,"y":24.705298522319861}},{"attributes":{"OBJECTID":25320,"LANDMARKID":"1000400000586","LANDMARKCO":"503","LANDMARKNA":"北角吊橋","LANDMARKAD":"1000412","ADDRESS":"新竹縣尖石鄉","TEL":" ","COUNTYNAME":"新竹縣","TOWNNAME":"尖石鄉","MARKTYPE":"995","Class":"5"},"geometry":{"x":121.19786771108809,"y":24.701584117778548}},{"attributes":{"OBJECTID":25321,"LANDMARKID":"1000400000587","LANDMARKCO":"503","LANDMARKNA":"鴛鴦谷瀑布","LANDMARKAD":"1000412","ADDRESS":"新竹縣尖石鄉","TEL":" ","COUNTYNAME":"新竹縣","TOWNNAME":"尖石鄉","MARKTYPE":"995","Class":"5"},"geometry":{"x":121.28386699444397,"y":24.749697792340417}},{"attributes":{"OBJECTID":25322,"LANDMARKID":"1000400000650","LANDMARKCO":"513","LANDMARKNA":"大霸尖山","LANDMARKAD":"1000412","ADDRESS":"新竹縣尖石鄉","TEL":" ","COUNTYNAME":"新竹縣","TOWNNAME":"尖石鄉","MARKTYPE":"995","Class":"5"},"geometry":{"x":121.25805006455252,"y":24.45774735189903}},{"attributes":{"OBJECTID":25323,"LANDMARKID":"1000400000651","LANDMARKCO":"513","LANDMARKNA":"池有山","LANDMARKAD":"1000412","ADDRESS":"新竹縣尖石鄉","TEL":" ","COUNTYNAME":"新竹縣","TOWNNAME":"尖石鄉","MARKTYPE":"995","Class":"5"},"geometry":{"x":121.28816057021126,"y":24.43110227700846}},{"attributes":{"OBJECTID":25324,"LANDMARKID":"1000400000611","LANDMARKCO":"506","LANDMARKNA":"桃山村休閒農場","LANDMARKAD":"1000413","ADDRESS":"新竹縣五峰鄉桃山村18鄰299號","TEL":"035-954037","COUNTYNAME":"新竹縣","TOWNNAME":"五峰鄉","MARKTYPE":"995","Class":"5"},"geometry":{"x":121.09502136470449,"y":24.567590563626368}},{"attributes":{"OBJECTID":25325,"LANDMARKID":"1000400000612","LANDMARKCO":"506","LANDMARKNA":"雪霸休閒農場","LANDMARKAD":"1000413","ADDRESS":"新竹縣五峰鄉桃山村民石308之1號","TEL":"035-856192","COUNTYNAME":"新竹縣","TOWNNAME":"五峰鄉","MARKTYPE":"995","Class":"5"},"geometry":{"x":121.11381311074774,"y":24.526672395031547}},{"attributes":{"OBJECTID":25326,"LANDMARKID":"1000400000562","LANDMARKCO":"408","LANDMARKNA":"郵局-五峰郵局","LANDMARKAD":"1000413","ADDRESS":"新竹縣五峰鄉大隘村6鄰95號(圖書館內)","TEL":"(03)5851-103","COUNTYNAME":"新竹縣","TOWNNAME":"五峰鄉","MARKTYPE":"994","Class":"4"},"geometry":{"x":121.11946021883102,"y":24.63183806416043}},{"attributes":{"OBJECTID":25327,"LANDMARKID":"1000400000509","LANDMARKCO":"405","LANDMARKNA":"台亞加油站-五峰站(台塑)","LANDMARKAD":"1000413","ADDRESS":"新竹縣五峰鄉大隘村12鄰五峰247號之5","TEL":"0921-980071","COUNTYNAME":"新竹縣","TOWNNAME":"五峰鄉","MARKTYPE":"994","Class":"4"},"geometry":{"x":121.11856762607191,"y":24.628695768241943}},{"attributes":{"OBJECTID":25328,"LANDMARKID":"1000400000080","LANDMARKCO":"107","LANDMARKNA":"新竹縣警察局羅山派出所","LANDMARKAD":"1000413","ADDRESS":"新竹縣五峰鄉竹林村1鄰羅山20號","TEL":"03-5851214","COUNTYNAME":"新竹縣","TOWNNAME":"五峰鄉","MARKTYPE":"991","Class":"1"},"geometry":{"x":121.14796610900042,"y":24.624794861356438}},{"attributes":{"OBJECTID":25329,"LANDMARKID":"1000400000081","LANDMARKCO":"107","LANDMARKNA":"新竹縣警察局茅圃派出所","LANDMARKAD":"1000413","ADDRESS":"新竹縣五峰鄉大隘村二九鄰茅圃435號","TEL":"035-851149","COUNTYNAME":"新竹縣","TOWNNAME":"五峰鄉","MARKTYPE":"991","Class":"1"},"geometry":{"x":121.1030291610556,"y":24.615824480599684}},{"attributes":{"OBJECTID":25330,"LANDMARKID":"1000400000082","LANDMARKCO":"107","LANDMARKNA":"新竹縣警察局清泉派出所","LANDMARKAD":"1000413","ADDRESS":"新竹縣五峰鄉桃山村16鄰清泉277號","TEL":"035-856045","COUNTYNAME":"新竹縣","TOWNNAME":"五峰鄉","MARKTYPE":"991","Class":"1"},"geometry":{"x":121.10379360628386,"y":24.57343761870861}},{"attributes":{"OBJECTID":25331,"LANDMARKID":"1000400000072","LANDMARKCO":"106","LANDMARKNA":"新竹縣五峰鄉戶政事務所","LANDMARKAD":"1000413","ADDRESS":"新竹縣五峰鄉大隘村6鄰五峰97號","TEL":"035-851085","COUNTYNAME":"新竹縣","TOWNNAME":"五峰鄉","MARKTYPE":"991","Class":"1"},"geometry":{"x":121.11998009722967,"y":24.631634136328728}},{"attributes":{"OBJECTID":25332,"LANDMARKID":"1000400000166","LANDMARKCO":"108","LANDMARKNA":"新竹縣五峰鄉公所","LANDMARKAD":"1000413","ADDRESS":"新竹縣五峰鄉大隘村95號","TEL":"035-851001","COUNTYNAME":"新竹縣","TOWNNAME":"五峰鄉","MARKTYPE":"991","Class":"1"},"geometry":{"x":121.11856516960366,"y":24.633231940045988}},{"attributes":{"OBJECTID":25333,"LANDMARKID":"1000400000051","LANDMARKCO":"103","LANDMARKNA":"新竹縣五峰鄉鄉民代表會","LANDMARKAD":"1000413","ADDRESS":"新竹縣五峰鄉大隘村6鄰95號","TEL":"03-5851002","COUNTYNAME":"新竹縣","TOWNNAME":"五峰鄉","MARKTYPE":"991","Class":"1"},"geometry":{"x":121.11993579071633,"y":24.631967912753847}},{"attributes":{"OBJECTID":25334,"LANDMARKID":"1000400000052","LANDMARKCO":"103","LANDMARKNA":"新竹縣五峰鄉衛生所","LANDMARKAD":"1000413","ADDRESS":"新竹縣五峰鄉大隘村6鄰99號","TEL":"035-851005","COUNTYNAME":"新竹縣","TOWNNAME":"五峰鄉","MARKTYPE":"991","Class":"1"},"geometry":{"x":121.11936088682866,"y":24.629528867242044}},{"attributes":{"OBJECTID":25335,"LANDMARKID":"1000400000074","LANDMARKCO":"107","LANDMARKNA":"新竹縣消防局五峰消防分隊","LANDMARKAD":"1000413","ADDRESS":"新竹縣五峰鄉桃山村2鄰21號","TEL":"035-856320","COUNTYNAME":"新竹縣","TOWNNAME":"五峰鄉","MARKTYPE":"991","Class":"1"},"geometry":{"x":121.10295799122574,"y":24.575279574772299}},{"attributes":{"OBJECTID":25336,"LANDMARKID":"1000400000075","LANDMARKCO":"107","LANDMARKNA":"新竹縣警察局雲山派出所","LANDMARKAD":"1000413","ADDRESS":"新竹縣五峰鄉桃山村2鄰20號","TEL":"03-5856043","COUNTYNAME":"新竹縣","TOWNNAME":"五峰鄉","MARKTYPE":"991","Class":"1"},"geometry":{"x":121.12322510383504,"y":24.520909607336375}},{"attributes":{"OBJECTID":25337,"LANDMARKID":"1000400000076","LANDMARKCO":"107","LANDMARKNA":"新竹縣警察局桃山派出所","LANDMARKAD":"1000413","ADDRESS":"新竹縣五峰鄉桃山村2鄰20號","TEL":"03-5856043","COUNTYNAME":"新竹縣","TOWNNAME":"五峰鄉","MARKTYPE":"991","Class":"1"},"geometry":{"x":121.10561533211661,"y":24.599023746152046}},{"attributes":{"OBJECTID":25338,"LANDMARKID":"1000400000077","LANDMARKCO":"107","LANDMARKNA":"新竹縣警察局花園派出所","LANDMARKAD":"1000413","ADDRESS":"新竹縣五峰鄉花園村5鄰93號","TEL":"03-5851147","COUNTYNAME":"新竹縣","TOWNNAME":"五峰鄉","MARKTYPE":"991","Class":"1"},"geometry":{"x":121.1514210201412,"y":24.651892110624427}},{"attributes":{"OBJECTID":25339,"LANDMARKID":"1000400000078","LANDMARKCO":"107","LANDMARKNA":"新竹縣警察局大隘派出所","LANDMARKAD":"1000413","ADDRESS":"新竹縣五峰鄉大隘村22鄰435號","TEL":"03-5851149","COUNTYNAME":"新竹縣","TOWNNAME":"五峰鄉","MARKTYPE":"991","Class":"1"},"geometry":{"x":121.10100550150953,"y":24.626383668029359}},{"attributes":{"OBJECTID":25340,"LANDMARKID":"1000400000079","LANDMARKCO":"107","LANDMARKNA":"新竹縣警察局五峰分駐所","LANDMARKAD":"1000413","ADDRESS":"新竹縣五峰鄉大隘村6鄰96號","TEL":"03-5851029","COUNTYNAME":"新竹縣","TOWNNAME":"五峰鄉","MARKTYPE":"991","Class":"1"},"geometry":{"x":121.11870982033625,"y":24.629981338906191}},{"attributes":{"OBJECTID":25341,"LANDMARKID":"1000400000314","LANDMARKCO":"205","LANDMARKNA":"賽夏族文物館","LANDMARKAD":"1000413","ADDRESS":"新竹縣五峰鄉大隘村331之1號","TEL":"03-5851676","COUNTYNAME":"新竹縣","TOWNNAME":"五峰鄉","MARKTYPE":"992","Class":"2"},"geometry":{"x":121.09931938489646,"y":24.622628143287564}},{"attributes":{"OBJECTID":25342,"LANDMARKID":"1000400000301","LANDMARKCO":"204","LANDMARKNA":"新竹縣立圖書館五峰分館","LANDMARKAD":"1000413","ADDRESS":"新竹縣五峰鄉大隘村6鄰95號之1","TEL":" ","COUNTYNAME":"新竹縣","TOWNNAME":"五峰鄉","MARKTYPE":"992","Class":"2"},"geometry":{"x":121.11985753614246,"y":24.634606426152384}},{"attributes":{"OBJECTID":25343,"LANDMARKID":"1000400000295","LANDMARKCO":"203","LANDMARKNA":"縣立花園國小竹林分校","LANDMARKAD":"1000413","ADDRESS":"新竹縣五峰鄉竹林村羅山15號","TEL":"03-5851254","COUNTYNAME":"新竹縣","TOWNNAME":"五峰鄉","MARKTYPE":"992","Class":"2"},"geometry":{"x":121.14803612003753,"y":24.624954533891572}},{"attributes":{"OBJECTID":25344,"LANDMARKID":"1000400000296","LANDMARKCO":"203","LANDMARKNA":"縣立五峰國中","LANDMARKAD":"1000413","ADDRESS":"新竹縣五峰鄉大隘村6鄰113號","TEL":"035-851006","COUNTYNAME":"新竹縣","TOWNNAME":"五峰鄉","MARKTYPE":"992","Class":"2"},"geometry":{"x":121.1189292852019,"y":24.632509059473939}},{"attributes":{"OBJECTID":25345,"LANDMARKID":"1000400000297","LANDMARKCO":"203","LANDMARKNA":"縣立五峰國小","LANDMARKAD":"1000413","ADDRESS":"新竹縣五峰鄉大隘村123號","TEL":"035-851007","COUNTYNAME":"新竹縣","TOWNNAME":"五峰鄉","MARKTYPE":"992","Class":"2"},"geometry":{"x":121.1181654675225,"y":24.630794788089592}},{"attributes":{"OBJECTID":25346,"LANDMARKID":"1000400000298","LANDMARKCO":"203","LANDMARKNA":"縣立花園國小","LANDMARKAD":"1000413","ADDRESS":"新竹縣五峰鄉花園村8鄰174號","TEL":"035-851091","COUNTYNAME":"新竹縣","TOWNNAME":"五峰鄉","MARKTYPE":"992","Class":"2"},"geometry":{"x":121.15150391706543,"y":24.648009565740072}},{"attributes":{"OBJECTID":25347,"LANDMARKID":"1000400000299","LANDMARKCO":"203","LANDMARKNA":"縣立桃山國小","LANDMARKAD":"1000413","ADDRESS":"新竹縣五峰鄉桃山村清泉15鄰243號","TEL":"035-856040","COUNTYNAME":"新竹縣","TOWNNAME":"五峰鄉","MARKTYPE":"992","Class":"2"},"geometry":{"x":121.10605990850176,"y":24.574916037274033}},{"attributes":{"OBJECTID":25348,"LANDMARKID":"1000400000358","LANDMARKCO":"303","LANDMARKNA":"清泉風景區停車場","LANDMARKAD":"1000413","ADDRESS":"新竹縣五峰鄉","TEL":" ","COUNTYNAME":"新竹縣","TOWNNAME":"五峰鄉","MARKTYPE":"993","Class":"303"},"geometry":{"x":121.10546066293061,"y":24.572838150031721}},{"attributes":{"OBJECTID":25349,"LANDMARKID":"1000400000712","LANDMARKCO":"604","LANDMARKNA":"白蘭山莊","LANDMARKAD":"1000413","ADDRESS":"新竹縣五峰鄉桃山村18鄰白蘭307-2號","TEL":"03-5856222","COUNTYNAME":"新竹縣","TOWNNAME":"五峰鄉","MARKTYPE":"996","Class":"6"},"geometry":{"x":121.08811655946555,"y":24.585561916523218}},{"attributes":{"OBJECTID":25350,"LANDMARKID":"1000400000713","LANDMARKCO":"604","LANDMARKNA":"洞口民宿","LANDMARKAD":"1000413","ADDRESS":"新竹縣五峰鄉桃山村1鄰7號","TEL":"03-5856103","COUNTYNAME":"新竹縣","TOWNNAME":"五峰鄉","MARKTYPE":"996","Class":"6"},"geometry":{"x":121.10927662785889,"y":24.599097394317059}},{"attributes":{"OBJECTID":25351,"LANDMARKID":"1000400000714","LANDMARKCO":"604","LANDMARKNA":"家人上山民宿","LANDMARKAD":"1000413","ADDRESS":"新竹縣五峰鄉大隘村23鄰茅圃468-3號","TEL":"03-5851376","COUNTYNAME":"新竹縣","TOWNNAME":"五峰鄉","MARKTYPE":"996","Class":"6"},"geometry":{"x":121.09009646393704,"y":24.606644481871278}},{"attributes":{"OBJECTID":25352,"LANDMARKID":"1000400000715","LANDMARKCO":"604","LANDMARKNA":"山上人家","LANDMARKAD":"1000413","ADDRESS":"新竹縣五峰鄉大隘村茅圃468-5號","TEL":"03-5851376","COUNTYNAME":"新竹縣","TOWNNAME":"五峰鄉","MARKTYPE":"996","Class":"6"},"geometry":{"x":121.08956335241152,"y":24.605381079660518}},{"attributes":{"OBJECTID":25353,"LANDMARKID":"1000400000716","LANDMARKCO":"604","LANDMARKNA":"望月小築","LANDMARKAD":"1000413","ADDRESS":"新竹縣五峰鄉桃山村18鄰白蘭305之1號","TEL":"03-5856099","COUNTYNAME":"新竹縣","TOWNNAME":"五峰鄉","MARKTYPE":"996","Class":"6"},"geometry":{"x":121.09104872131506,"y":24.584775430389584}},{"attributes":{"OBJECTID":25354,"LANDMARKID":"1000400000634","LANDMARKCO":"508","LANDMARKNA":"新竹清泉溫泉館","LANDMARKAD":"1000413","ADDRESS":"新竹縣五峰鄉桃山村清泉254之1號","TEL":"03-5856037","COUNTYNAME":"新竹縣","TOWNNAME":"五峰鄉","MARKTYPE":"995","Class":"5"},"geometry":{"x":121.1051390573305,"y":24.57439473189563}},{"attributes":{"OBJECTID":25355,"LANDMARKID":"1000400000635","LANDMARKCO":"508","LANDMARKNA":"清泉溫泉","LANDMARKAD":"1000413","ADDRESS":"新竹縣五峰鄉","TEL":" ","COUNTYNAME":"新竹縣","TOWNNAME":"五峰鄉","MARKTYPE":"995","Class":"5"},"geometry":{"x":121.10518634637721,"y":24.574701884152095}},{"attributes":{"OBJECTID":25356,"LANDMARKID":"1000400000592","LANDMARKCO":"503","LANDMARKNA":"霞喀羅古道","LANDMARKAD":"1000413","ADDRESS":"新竹縣五峰鄉","TEL":" ","COUNTYNAME":"新竹縣","TOWNNAME":"五峰鄉","MARKTYPE":"995","Class":"5"},"geometry":{"x":121.16983223003371,"y":24.561273718893208}},{"attributes":{"OBJECTID":25357,"LANDMARKID":"1000400000593","LANDMARKCO":"503","LANDMARKNA":"古鹿古道","LANDMARKAD":"1000413","ADDRESS":"新竹縣五峰鄉","TEL":" ","COUNTYNAME":"新竹縣","TOWNNAME":"五峰鄉","MARKTYPE":"995","Class":"5"},"geometry":{"x":121.11064039709485,"y":24.565596182728349}},{"attributes":{"OBJECTID":25358,"LANDMARKID":"1000400000594","LANDMARKCO":"503","LANDMARKNA":"銀絲瀑布","LANDMARKAD":"1000413","ADDRESS":"新竹縣五峰鄉","TEL":" ","COUNTYNAME":"新竹縣","TOWNNAME":"五峰鄉","MARKTYPE":"995","Class":"5"},"geometry":{"x":121.1323653060267,"y":24.635722604866245}},{"attributes":{"OBJECTID":25359,"LANDMARKID":"1001800000312","LANDMARKCO":"405","LANDMARKNA":"中油加油站-永富站","LANDMARKAD":"1001802","ADDRESS":"新竹市境福里中正路620號","TEL":"03-5330892","COUNTYNAME":"新竹市","TOWNNAME":"北區","MARKTYPE":"994","Class":"4"},"geometry":{"x":120.9555971753452,"y":24.818229301035448}},{"attributes":{"OBJECTID":25360,"LANDMARKID":"1001800000313","LANDMARKCO":"405","LANDMARKNA":"中油加油站-正塘站","LANDMARKAD":"1001802","ADDRESS":"新竹市港北里西濱路一段45號","TEL":"03-5366523","COUNTYNAME":"新竹市","TOWNNAME":"北區","MARKTYPE":"994","Class":"4"},"geometry":{"x":120.92726658321189,"y":24.827511207864202}},{"attributes":{"OBJECTID":25361,"LANDMARKID":"1001800000314","LANDMARKCO":"405","LANDMARKNA":"中油加油站-昇冠站","LANDMARKAD":"1001802","ADDRESS":"新竹市經國路二段1號","TEL":"03-5348887","COUNTYNAME":"新竹市","TOWNNAME":"北區","MARKTYPE":"994","Class":"4"},"geometry":{"x":120.96736344115534,"y":24.813619379023081}},{"attributes":{"OBJECTID":25362,"LANDMARKID":"1001800000315","LANDMARKCO":"405","LANDMARKNA":"中油加油站-北大路站(中油直營)","LANDMARKAD":"1001802","ADDRESS":"新竹市北大路３７４號","TEL":" ","COUNTYNAME":"新竹市","TOWNNAME":"北區","MARKTYPE":"994","Class":"4"},"geometry":{"x":120.96090626320444,"y":24.805129733776656}},{"attributes":{"OBJECTID":25363,"LANDMARKID":"1001800000316","LANDMARKCO":"405","LANDMARKNA":"中油加油站-長隆站","LANDMARKAD":"1001802","ADDRESS":"新竹市東大路二段657號","TEL":"03-5327739","COUNTYNAME":"新竹市","TOWNNAME":"北區","MARKTYPE":"994","Class":"4"},"geometry":{"x":120.95773993090583,"y":24.82396507486267}},{"attributes":{"OBJECTID":25364,"LANDMARKID":"1001800000317","LANDMARKCO":"405","LANDMARKNA":"中油加油站-南寮站(中油直營)","LANDMARKAD":"1001802","ADDRESS":"新竹市東大路四段292號","TEL":"035-363424","COUNTYNAME":"新竹市","TOWNNAME":"北區","MARKTYPE":"994","Class":"4"},"geometry":{"x":120.92790484299692,"y":24.845649051994751}},{"attributes":{"OBJECTID":25365,"LANDMARKID":"1001800000318","LANDMARKCO":"405","LANDMARKNA":"中油加油站-四維加油站(中油直營)","LANDMARKAD":"1001802","ADDRESS":"新竹市中華路二段７４６號","TEL":" ","COUNTYNAME":"新竹市","TOWNNAME":"北區","MARKTYPE":"994","Class":"4"},"geometry":{"x":120.96325385575564,"y":24.797709580814352}},{"attributes":{"OBJECTID":25366,"LANDMARKID":"1001800000319","LANDMARKCO":"405","LANDMARKNA":"中油加油站-尚隆站","LANDMARKAD":"1001802","ADDRESS":"新竹市北區海濱里天府路二段51號","TEL":"035-5365678","COUNTYNAME":"新竹市","TOWNNAME":"北區","MARKTYPE":"994","Class":"4"},"geometry":{"x":120.9301402049342,"y":24.839471340291041}},{"attributes":{"OBJECTID":25367,"LANDMARKID":"1001800000237","LANDMARKCO":"402","LANDMARKNA":"亞太行動寬頻電信-新竹西大加盟服務中心","LANDMARKAD":"1001802","ADDRESS":"新竹市西大路557號","TEL":"03-5228583","COUNTYNAME":"新竹市","TOWNNAME":"北區","MARKTYPE":"994","Class":"4"},"geometry":{"x":120.96153148523697,"y":24.807168449877395}},{"attributes":{"OBJECTID":25368,"LANDMARKID":"1001800000238","LANDMARKCO":"402","LANDMARKNA":"亞太行動寬頻電信-新竹水田加盟服務中心","LANDMARKAD":"1001802","ADDRESS":"新竹市水田街89號","TEL":"03-5420668","COUNTYNAME":"新竹市","TOWNNAME":"北區","MARKTYPE":"994","Class":"4"},"geometry":{"x":120.96779066495951,"y":24.815620845458454}},{"attributes":{"OBJECTID":25369,"LANDMARKID":"1001800000239","LANDMARKCO":"402","LANDMARKNA":"亞太行動寬頻電信-新竹中正加盟服務中心","LANDMARKAD":"1001802","ADDRESS":"新竹市中正路187號","TEL":"03-5223285","COUNTYNAME":"新竹市","TOWNNAME":"北區","MARKTYPE":"994","Class":"4"},"geometry":{"x":120.96557615378772,"y":24.810374882641458}},{"attributes":{"OBJECTID":25370,"LANDMARKID":"1001800000240","LANDMARKCO":"402","LANDMARKNA":"亞太行動寬頻電信-新竹市","LANDMARKAD":"1001802","ADDRESS":"新竹市中山路102-1號","TEL":" ","COUNTYNAME":"新竹市","TOWNNAME":"北區","MARKTYPE":"994","Class":"4"},"geometry":{"x":120.96533050033946,"y":24.804641597873328}},{"attributes":{"OBJECTID":25371,"LANDMARKID":"1001800000233","LANDMARKCO":"401","LANDMARKNA":"和平醫院","LANDMARKAD":"1001802","ADDRESS":"新竹市和平路86號之1","TEL":"03-5260151","COUNTYNAME":"新竹市","TOWNNAME":"北區","MARKTYPE":"994","Class":"4"},"geometry":{"x":120.95578364597409,"y":24.809694832511457}},{"attributes":{"OBJECTID":25372,"LANDMARKID":"1001800000234","LANDMARKCO":"401","LANDMARKNA":"財團法人台灣省私立桃園仁愛之家附設新","LANDMARKAD":"1001802","ADDRESS":"新竹市西門街120號","TEL":"03-5222637","COUNTYNAME":"新竹市","TOWNNAME":"北區","MARKTYPE":"994","Class":"4"},"geometry":{"x":120.96342244468948,"y":24.801562626209673}},{"attributes":{"OBJECTID":25373,"LANDMARKID":"1001800000235","LANDMARKCO":"401","LANDMARKNA":"國軍新竹醫院","LANDMARKAD":"1001802","ADDRESS":"新竹市福林里武陵路3號","TEL":"03-5348181","COUNTYNAME":"新竹市","TOWNNAME":"北區","MARKTYPE":"994","Class":"4"},"geometry":{"x":120.96143959074838,"y":24.815971296930044}},{"attributes":{"OBJECTID":25374,"LANDMARKID":"1001800000236","LANDMARKCO":"401","LANDMARKNA":"新中興醫院","LANDMARKAD":"1001802","ADDRESS":"新竹市興南街43號","TEL":"03-5213163","COUNTYNAME":"新竹市","TOWNNAME":"北區","MARKTYPE":"994","Class":"4"},"geometry":{"x":120.96286838306396,"y":24.801824183436281}},{"attributes":{"OBJECTID":25375,"LANDMARKID":"1001800000399","LANDMARKCO":"507","LANDMARKNA":"蘇氏節孝坊","LANDMARKAD":"1001802","ADDRESS":"新竹市北區南雅里武陵段719地號","TEL":" ","COUNTYNAME":"新竹市","TOWNNAME":"北區","MARKTYPE":"995","Class":"5"},"geometry":{"x":120.97162925780246,"y":24.819595533415093}},{"attributes":{"OBJECTID":25376,"LANDMARKID":"1001800000400","LANDMARKCO":"507","LANDMARKNA":"進士第(鄭用錫宅第)","LANDMARKAD":"1001802","ADDRESS":"新竹市北區北門里北門街169號","TEL":" ","COUNTYNAME":"新竹市","TOWNNAME":"北區","MARKTYPE":"995","Class":"5"},"geometry":{"x":120.9654709220451,"y":24.809815674047105}},{"attributes":{"OBJECTID":25377,"LANDMARKID":"1001800000401","LANDMARKCO":"507","LANDMARKNA":"新竹鄭氏家廟","LANDMARKAD":"1001802","ADDRESS":"新竹市北區北門里北門街175號","TEL":" ","COUNTYNAME":"新竹市","TOWNNAME":"北區","MARKTYPE":"995","Class":"5"},"geometry":{"x":120.96549337460061,"y":24.809996549405739}},{"attributes":{"OBJECTID":25378,"LANDMARKID":"1001800000402","LANDMARKCO":"507","LANDMARKNA":"新竹長和宮","LANDMARKAD":"1001802","ADDRESS":"新竹市北區長和里北門街135號","TEL":" ","COUNTYNAME":"新竹市","TOWNNAME":"北區","MARKTYPE":"995","Class":"5"},"geometry":{"x":120.96502504341285,"y":24.808515836685569}},{"attributes":{"OBJECTID":25379,"LANDMARKID":"1001800000403","LANDMARKCO":"507","LANDMARKNA":"新竹都城隍廟","LANDMARKAD":"1001802","ADDRESS":"新竹市北區中山里中山路75號","TEL":" ","COUNTYNAME":"新竹市","TOWNNAME":"北區","MARKTYPE":"995","Class":"5"},"geometry":{"x":120.96563851894354,"y":24.804563328512021}},{"attributes":{"OBJECTID":25380,"LANDMARKID":"1001800000404","LANDMARKCO":"507","LANDMARKNA":"張氏節孝坊","LANDMARKAD":"1001802","ADDRESS":"新竹市北區南雅里光華段415地號","TEL":" ","COUNTYNAME":"新竹市","TOWNNAME":"北區","MARKTYPE":"995","Class":"5"},"geometry":{"x":120.96997941260105,"y":24.816443660383541}},{"attributes":{"OBJECTID":25381,"LANDMARKID":"1001800000405","LANDMARKCO":"507","LANDMARKNA":"楊氏節孝坊","LANDMARKAD":"1001802","ADDRESS":"新竹市北區石坊里石坊街4號","TEL":" ","COUNTYNAME":"新竹市","TOWNNAME":"北區","MARKTYPE":"995","Class":"5"},"geometry":{"x":120.96444810322504,"y":24.803042290574993}},{"attributes":{"OBJECTID":25382,"LANDMARKID":"1001800000406","LANDMARKCO":"507","LANDMARKNA":"新竹州廳","LANDMARKAD":"1001802","ADDRESS":"新竹市北區大同里中正路120號","TEL":" ","COUNTYNAME":"新竹市","TOWNNAME":"北區","MARKTYPE":"995","Class":"5"},"geometry":{"x":120.96852066305492,"y":24.80735821928047}},{"attributes":{"OBJECTID":25383,"LANDMARKID":"1001800000407","LANDMARKCO":"507","LANDMARKNA":"新竹水仙宮","LANDMARKAD":"1001802","ADDRESS":"新竹市北區北門里北門街135號","TEL":" ","COUNTYNAME":"新竹市","TOWNNAME":"北區","MARKTYPE":"995","Class":"5"},"geometry":{"x":120.96346813139381,"y":24.80907602228984}},{"attributes":{"OBJECTID":25384,"LANDMARKID":"1001800000408","LANDMARKCO":"507","LANDMARKNA":"新竹信用組合","LANDMARKAD":"1001802","ADDRESS":"新竹市北區大同路130號","TEL":" ","COUNTYNAME":"新竹市","TOWNNAME":"北區","MARKTYPE":"995","Class":"5"},"geometry":{"x":120.96791567309535,"y":24.805954103091086}},{"attributes":{"OBJECTID":25385,"LANDMARKID":"1001800000360","LANDMARKCO":"408","LANDMARKNA":"郵局-新竹光華街郵局","LANDMARKAD":"1001802","ADDRESS":"新竹市光華北街87號","TEL":"(03)5330-945","COUNTYNAME":"新竹市","TOWNNAME":"北區","MARKTYPE":"994","Class":"4"},"geometry":{"x":120.97119371616179,"y":24.816795397176687}},{"attributes":{"OBJECTID":25386,"LANDMARKID":"1001800000361","LANDMARKCO":"408","LANDMARKNA":"郵局-新竹樹林頭郵局","LANDMARKAD":"1001802","ADDRESS":"新竹市東大路2段449號","TEL":"(03)5310-204","COUNTYNAME":"新竹市","TOWNNAME":"北區","MARKTYPE":"994","Class":"4"},"geometry":{"x":120.96071641678409,"y":24.820386693420843}},{"attributes":{"OBJECTID":25387,"LANDMARKID":"1001800000362","LANDMARKCO":"408","LANDMARKNA":"郵局-新竹西門郵局","LANDMARKAD":"1001802","ADDRESS":"新竹市北大路471號","TEL":"(03)5226-574","COUNTYNAME":"新竹市","TOWNNAME":"北區","MARKTYPE":"994","Class":"4"},"geometry":{"x":120.96039566026492,"y":24.801697300386937}},{"attributes":{"OBJECTID":25388,"LANDMARKID":"1001800000363","LANDMARKCO":"408","LANDMARKNA":"郵局-新竹文雅郵局","LANDMARKAD":"1001802","ADDRESS":"新竹市竹光路218號","TEL":"(03)5425-157","COUNTYNAME":"新竹市","TOWNNAME":"北區","MARKTYPE":"994","Class":"4"},"geometry":{"x":120.95676264503217,"y":24.811501164842184}},{"attributes":{"OBJECTID":25389,"LANDMARKID":"1001800000364","LANDMARKCO":"408","LANDMARKNA":"郵局-新竹南寮郵局","LANDMARKAD":"1001802","ADDRESS":"新竹市東大路3段644號","TEL":"(03)5362-225","COUNTYNAME":"新竹市","TOWNNAME":"北區","MARKTYPE":"994","Class":"4"},"geometry":{"x":120.93896313408794,"y":24.839609668887636}},{"attributes":{"OBJECTID":25390,"LANDMARKID":"1001800000365","LANDMARKCO":"408","LANDMARKNA":"郵局-新竹民生路郵局","LANDMARKAD":"1001802","ADDRESS":"新竹市民生路243號","TEL":"(03)5320-020","COUNTYNAME":"新竹市","TOWNNAME":"北區","MARKTYPE":"994","Class":"4"},"geometry":{"x":120.93744853499221,"y":24.84040409251935}},{"attributes":{"OBJECTID":25391,"LANDMARKID":"1001800000366","LANDMARKCO":"408","LANDMARKNA":"郵局-新竹經國路郵局","LANDMARKAD":"1001802","ADDRESS":"新竹市經國路2段56號1樓","TEL":"(03)5335-063","COUNTYNAME":"新竹市","TOWNNAME":"北區","MARKTYPE":"994","Class":"4"},"geometry":{"x":120.96565466126913,"y":24.812902967354866}},{"attributes":{"OBJECTID":25392,"LANDMARKID":"1001800000367","LANDMARKCO":"408","LANDMARKNA":"郵局-新竹南勢郵局","LANDMARKAD":"1001802","ADDRESS":"新竹市延平路1段373號","TEL":"(03)5259-463","COUNTYNAME":"新竹市","TOWNNAME":"北區","MARKTYPE":"994","Class":"4"},"geometry":{"x":120.94948414782074,"y":24.804971624251152}},{"attributes":{"OBJECTID":25393,"LANDMARKID":"1001800000368","LANDMARKCO":"408","LANDMARKNA":"郵局-新竹英明街郵局","LANDMARKAD":"1001802","ADDRESS":"新竹市英明街10號","TEL":"(03)5238-365","COUNTYNAME":"新竹市","TOWNNAME":"北區","MARKTYPE":"994","Class":"4"},"geometry":{"x":120.96742367684261,"y":24.806791244722159}},{"attributes":{"OBJECTID":25394,"LANDMARKID":"1001800000388","LANDMARKCO":"409","LANDMARKNA":"新竹區漁會","LANDMARKAD":"1001802","ADDRESS":"新竹市南寮里東大路4段315號","TEL":"03-5362216-8","COUNTYNAME":"新竹市","TOWNNAME":"北區","MARKTYPE":"994","Class":"4"},"geometry":{"x":120.92679919065952,"y":24.845820970018647}},{"attributes":{"OBJECTID":25395,"LANDMARKID":"1001800000389","LANDMARKCO":"409","LANDMARKNA":"新竹漁會油庫","LANDMARKAD":"1001802","ADDRESS":"新竹市東大路4段315號","TEL":"03-5364082","COUNTYNAME":"新竹市","TOWNNAME":"北區","MARKTYPE":"994","Class":"4"},"geometry":{"x":120.92679919065952,"y":24.845820970018647}},{"attributes":{"OBJECTID":25396,"LANDMARKID":"1001800000390","LANDMARKCO":"409","LANDMARKNA":"新竹魚市場","LANDMARKAD":"1001802","ADDRESS":"新竹市吉羊路139號","TEL":"03-5332066　","COUNTYNAME":"新竹市","TOWNNAME":"北區","MARKTYPE":"994","Class":"4"},"geometry":{"x":120.95435830285309,"y":24.823436399347521}},{"attributes":{"OBJECTID":25397,"LANDMARKID":"1001800000391","LANDMARKCO":"409","LANDMARKNA":"新竹直銷中心","LANDMARKAD":"1001802","ADDRESS":"新竹市南寮里新港三路1-9號","TEL":"03-5366210","COUNTYNAME":"新竹市","TOWNNAME":"北區","MARKTYPE":"994","Class":"4"},"geometry":{"x":120.92416663670856,"y":24.846637117924164}},{"attributes":{"OBJECTID":25398,"LANDMARKID":"1001800000392","LANDMARKCO":"409","LANDMARKNA":"新竹漁會信用部","LANDMARKAD":"1001802","ADDRESS":"新竹市東大路4段279號","TEL":"03-5362329","COUNTYNAME":"新竹市","TOWNNAME":"北區","MARKTYPE":"994","Class":"4"},"geometry":{"x":120.92806015838694,"y":24.84533806659087}},{"attributes":{"OBJECTID":25399,"LANDMARKID":"1001800000332","LANDMARKCO":"406","LANDMARKNA":"西雅公園","LANDMARKAD":"1001802","ADDRESS":"新竹市北區","TEL":" ","COUNTYNAME":"新竹市","TOWNNAME":"北區","MARKTYPE":"994","Class":"4"},"geometry":{"x":120.95579358631252,"y":24.800140975918683}},{"attributes":{"OBJECTID":25400,"LANDMARKID":"1001800000333","LANDMARKCO":"406","LANDMARKNA":"長和公園","LANDMARKAD":"1001802","ADDRESS":"新竹市北區","TEL":" ","COUNTYNAME":"新竹市","TOWNNAME":"北區","MARKTYPE":"994","Class":"4"},"geometry":{"x":120.96399865018542,"y":24.808400497352309}}]}