{"displayFieldName":"COUNTYNAME","fieldAliases":{"OBJECTID":"OBJECTID","LANDMARKID":"LANDMARKID","LANDMARKCO":"LANDMARKCO","LANDMARKNA":"LANDMARKNA","LANDMARKAD":"LANDMARKAD","ADDRESS":"ADDRESS","TEL":"TEL","COUNTYNAME":"COUNTYNAME","TOWNNAME":"TOWNNAME","MARKTYPE":"MARKTYPE","Class":"Class"},"geometryType":"esriGeometryPoint","spatialReference":{"wkid":4326},"fields":[{"name":"OBJECTID","type":"esriFieldTypeOID","alias":"OBJECTID"},{"name":"LANDMARKID","type":"esriFieldTypeString","alias":"LANDMARKID","length":15},{"name":"LANDMARKCO","type":"esriFieldTypeString","alias":"LANDMARKCO","length":15},{"name":"LANDMARKNA","type":"esriFieldTypeString","alias":"LANDMARKNA","length":50},{"name":"LANDMARKAD","type":"esriFieldTypeString","alias":"LANDMARKAD","length":15},{"name":"ADDRESS","type":"esriFieldTypeString","alias":"ADDRESS","length":56},{"name":"TEL","type":"esriFieldTypeString","alias":"TEL","length":36},{"name":"COUNTYNAME","type":"esriFieldTypeString","alias":"COUNTYNAME","length":15},{"name":"TOWNNAME","type":"esriFieldTypeString","alias":"TOWNNAME","length":13},{"name":"MARKTYPE","type":"esriFieldTypeString","alias":"MARKTYPE","length":12},{"name":"Class","type":"esriFieldTypeString","alias":"Class","length":5}],"features":[{"attributes":{"OBJECTID":3601,"LANDMARKID":"1000100000109","LANDMARKCO":"103","LANDMARKNA":"新北市淡水區衛生所","LANDMARKAD":"1000110","ADDRESS":"新北市淡水區中山路158號","TEL":"02-26215620","COUNTYNAME":"新北市","TOWNNAME":"淡水區","MARKTYPE":"991","Class":"1"},"geometry":{"x":121.44079942031067,"y":25.172702978058652}},{"attributes":{"OBJECTID":3602,"LANDMARKID":"1000100000408","LANDMARKCO":"108","LANDMARKNA":"新北市淡水區公所","LANDMARKAD":"1000110","ADDRESS":"新北市淡水區中正路65號","TEL":"02-26221020","COUNTYNAME":"新北市","TOWNNAME":"淡水區","MARKTYPE":"991","Class":"1"},"geometry":{"x":121.44086604502399,"y":25.169542776444224}},{"attributes":{"OBJECTID":3603,"LANDMARKID":"1000100000110","LANDMARKCO":"103","LANDMARKNA":"新北市淡水區鎮民代表會","LANDMARKAD":"1000110","ADDRESS":"新北市淡水區中正路65號5樓","TEL":"02-26212607","COUNTYNAME":"新北市","TOWNNAME":"淡水區","MARKTYPE":"991","Class":"1"},"geometry":{"x":121.44074700443645,"y":25.169543484818764}},{"attributes":{"OBJECTID":3604,"LANDMARKID":"1000100000003","LANDMARKCO":"101","LANDMARKNA":"家畜衛生試驗所","LANDMARKAD":"1000110","ADDRESS":"新北市淡水區中正路376號","TEL":"02-26212111","COUNTYNAME":"新北市","TOWNNAME":"淡水區","MARKTYPE":"991","Class":"1"},"geometry":{"x":121.42656976501202,"y":25.176447323975413}},{"attributes":{"OBJECTID":3605,"LANDMARKID":"1000100000365","LANDMARKCO":"107","LANDMARKNA":"新北市消防局淡水分隊","LANDMARKAD":"1000110","ADDRESS":"新北市淡水區新生街29號","TEL":"02-26210140","COUNTYNAME":"新北市","TOWNNAME":"淡水區","MARKTYPE":"991","Class":"1"},"geometry":{"x":121.43977398200722,"y":25.174966102378555}},{"attributes":{"OBJECTID":3606,"LANDMARKID":"1000100000366","LANDMARKCO":"107","LANDMARKNA":"新北市消防局竹圍分隊","LANDMARKAD":"1000110","ADDRESS":"新北市淡水區中正東路一段125號","TEL":"02-26212140","COUNTYNAME":"新北市","TOWNNAME":"淡水區","MARKTYPE":"991","Class":"1"},"geometry":{"x":121.4567075088095,"y":25.15848291888404}},{"attributes":{"OBJECTID":3607,"LANDMARKID":"1000100000367","LANDMARKCO":"107","LANDMARKNA":"新北市政府警察局淡水分局","LANDMARKAD":"1000110","ADDRESS":"新北市淡水區新生里中正路229號","TEL":"02-26212069","COUNTYNAME":"新北市","TOWNNAME":"淡水區","MARKTYPE":"991","Class":"1"},"geometry":{"x":121.43664148862943,"y":25.172538853265888}},{"attributes":{"OBJECTID":3608,"LANDMARKID":"1000100000368","LANDMARKCO":"107","LANDMARKNA":"新北市政府警察局水源派出所","LANDMARKAD":"1000110","ADDRESS":"新北市淡水區水源里北新路二段19號","TEL":"02-26200534","COUNTYNAME":"新北市","TOWNNAME":"淡水區","MARKTYPE":"991","Class":"1"},"geometry":{"x":121.47858950446161,"y":25.186311168703821}},{"attributes":{"OBJECTID":3609,"LANDMARKID":"1000100000369","LANDMARKCO":"107","LANDMARKNA":"新北市政府警察局興仁派出所","LANDMARKAD":"1000110","ADDRESS":"新北市淡水區興仁里興仁路93號","TEL":"02-26236399","COUNTYNAME":"新北市","TOWNNAME":"淡水區","MARKTYPE":"991","Class":"1"},"geometry":{"x":121.4533076524485,"y":25.216093783722773}},{"attributes":{"OBJECTID":3610,"LANDMARKID":"1000100000370","LANDMARKCO":"107","LANDMARKNA":"新北市政府警察局賢孝派出所","LANDMARKAD":"1000110","ADDRESS":"新北市淡水區賢孝里淡金路五段72號","TEL":"02-28011505","COUNTYNAME":"新北市","TOWNNAME":"淡水區","MARKTYPE":"991","Class":"1"},"geometry":{"x":121.45495281503199,"y":25.23323685593671}},{"attributes":{"OBJECTID":3611,"LANDMARKID":"1000100000371","LANDMARKCO":"107","LANDMARKNA":"新北市政府警察局中正路派出所","LANDMARKAD":"1000110","ADDRESS":"新北市淡水區新生里中正路318之1號","TEL":"02-26212752","COUNTYNAME":"新北市","TOWNNAME":"淡水區","MARKTYPE":"991","Class":"1"},"geometry":{"x":121.43674262166533,"y":25.172809099805541}},{"attributes":{"OBJECTID":3612,"LANDMARKID":"1000100000372","LANDMARKCO":"107","LANDMARKNA":"新北市政府警察局中山路派出所","LANDMARKAD":"1000110","ADDRESS":"新北市淡水區鄧公里中正東路40號","TEL":"02-26212753","COUNTYNAME":"新北市","TOWNNAME":"淡水區","MARKTYPE":"991","Class":"1"},"geometry":{"x":121.44812786768374,"y":25.16681570833304}},{"attributes":{"OBJECTID":3613,"LANDMARKID":"1000100000373","LANDMARKCO":"107","LANDMARKNA":"新北市政府警察局竹圍派出所","LANDMARKAD":"1000110","ADDRESS":"新北市淡水區竹圍里民權路32號","TEL":"02-28092831","COUNTYNAME":"新北市","TOWNNAME":"淡水區","MARKTYPE":"991","Class":"1"},"geometry":{"x":121.45973853222414,"y":25.137527752160022}},{"attributes":{"OBJECTID":3614,"LANDMARKID":"1000100000374","LANDMARKCO":"107","LANDMARKNA":"新北市政府警察局水碓派出所","LANDMARKAD":"1000110","ADDRESS":"新北市淡水區水碓里中山北路一段160號","TEL":"02-26212491","COUNTYNAME":"新北市","TOWNNAME":"淡水區","MARKTYPE":"991","Class":"1"},"geometry":{"x":121.4444606848089,"y":25.178295015149036}},{"attributes":{"OBJECTID":3615,"LANDMARKID":"1000100000147","LANDMARKCO":"106","LANDMARKNA":"新北市淡水區戶政事務所","LANDMARKAD":"1000110","ADDRESS":"新北市淡水區新生里9鄰中正路227號","TEL":"02-26232830#208","COUNTYNAME":"新北市","TOWNNAME":"淡水區","MARKTYPE":"991","Class":"1"},"geometry":{"x":121.4367400483807,"y":25.172447990844375}},{"attributes":{"OBJECTID":3616,"LANDMARKID":"1000100000140","LANDMARKCO":"105","LANDMARKNA":"新北市淡水地政事務所","LANDMARKAD":"1000110","ADDRESS":"新北市淡水區中正路233號","TEL":"02-26219645","COUNTYNAME":"新北市","TOWNNAME":"淡水區","MARKTYPE":"991","Class":"1"},"geometry":{"x":121.43580144300421,"y":25.172987051453617}},{"attributes":{"OBJECTID":3617,"LANDMARKID":"1000100000124","LANDMARKCO":"104","LANDMARKNA":"北區國稅局淡水稽徵所第一辦公","LANDMARKAD":"1000110","ADDRESS":"新北市淡水區中正路229之10號1樓","TEL":"02-26251532","COUNTYNAME":"新北市","TOWNNAME":"淡水區","MARKTYPE":"991","Class":"1"},"geometry":{"x":121.43620563748146,"y":25.172631704877382}},{"attributes":{"OBJECTID":3618,"LANDMARKID":"1000100000004","LANDMARKCO":"101","LANDMARKNA":"中央氣象局淡水氣候觀測所","LANDMARKAD":"1000110","ADDRESS":"新北市淡水區中正東路42巷6號","TEL":" ","COUNTYNAME":"新北市","TOWNNAME":"淡水區","MARKTYPE":"991","Class":"1"},"geometry":{"x":121.45427339400631,"y":25.159301903968469}},{"attributes":{"OBJECTID":3619,"LANDMARKID":"1000100000450","LANDMARKCO":"201","LANDMARKNA":"真理大學","LANDMARKAD":"1000110","ADDRESS":"新北市淡水區真理街32號","TEL":"02-26212121","COUNTYNAME":"新北市","TOWNNAME":"淡水區","MARKTYPE":"992","Class":"2"},"geometry":{"x":121.43476788297998,"y":25.175520968964509}},{"attributes":{"OBJECTID":3620,"LANDMARKID":"1000100000909","LANDMARKCO":"205","LANDMARKNA":"信不信由你搜奇博物館","LANDMARKAD":"1000110","ADDRESS":"新北市淡水區公明街67號","TEL":"02-26233140","COUNTYNAME":"新北市","TOWNNAME":"淡水區","MARKTYPE":"992","Class":"2"},"geometry":{"x":121.44370530231157,"y":25.168589883019358}},{"attributes":{"OBJECTID":3621,"LANDMARKID":"1000100000910","LANDMARKCO":"205","LANDMARKNA":"道生中國兵器博物館","LANDMARKAD":"1000110","ADDRESS":"新北市淡水區北投里北投子72之1號","TEL":"02-26238417","COUNTYNAME":"新北市","TOWNNAME":"淡水區","MARKTYPE":"992","Class":"2"},"geometry":{"x":121.45288738271712,"y":25.18121113054881}},{"attributes":{"OBJECTID":3622,"LANDMARKID":"1000100000911","LANDMARKCO":"205","LANDMARKNA":"海事博物館","LANDMARKAD":"1000110","ADDRESS":"新北市淡水區英專路151號","TEL":" ","COUNTYNAME":"新北市","TOWNNAME":"淡水區","MARKTYPE":"992","Class":"2"},"geometry":{"x":121.45046480203898,"y":25.176227761204689}},{"attributes":{"OBJECTID":3623,"LANDMARKID":"1000100000912","LANDMARKCO":"205","LANDMARKNA":"紅樹林展示館","LANDMARKAD":"1000110","ADDRESS":"新北市淡水區中正東路二段68號2樓","TEL":" ","COUNTYNAME":"新北市","TOWNNAME":"淡水區","MARKTYPE":"992","Class":"2"},"geometry":{"x":121.45872979536786,"y":25.153134313101493}},{"attributes":{"OBJECTID":3624,"LANDMARKID":"1000100000914","LANDMARKCO":"206","LANDMARKNA":"淡水藝文中心","LANDMARKAD":"1000110","ADDRESS":"新北市淡水區新生街10號B1","TEL":" ","COUNTYNAME":"新北市","TOWNNAME":"淡水區","MARKTYPE":"992","Class":"2"},"geometry":{"x":121.4391681721134,"y":25.17328338642443}},{"attributes":{"OBJECTID":3625,"LANDMARKID":"1000100000829","LANDMARKCO":"204","LANDMARKNA":"新北市立圖書館竹圍分館","LANDMARKAD":"1000110","ADDRESS":"新北市淡水區民生路27號4樓","TEL":" ","COUNTYNAME":"新北市","TOWNNAME":"淡水區","MARKTYPE":"992","Class":"2"},"geometry":{"x":121.4609329606826,"y":25.137943702789258}},{"attributes":{"OBJECTID":3626,"LANDMARKID":"1000100000830","LANDMARKCO":"204","LANDMARKNA":"新北市立圖書館淡水分館","LANDMARKAD":"1000110","ADDRESS":"新北市淡水區新生街10號","TEL":" ","COUNTYNAME":"新北市","TOWNNAME":"淡水區","MARKTYPE":"992","Class":"2"},"geometry":{"x":121.43439503128577,"y":25.176379463015589}},{"attributes":{"OBJECTID":3627,"LANDMARKID":"1000100000769","LANDMARKCO":"203","LANDMARKNA":"縣立天生國小","LANDMARKAD":"1000110","ADDRESS":"新北市淡水區淡海路72巷26號","TEL":"02-26212695","COUNTYNAME":"新北市","TOWNNAME":"淡水區","MARKTYPE":"992","Class":"2"},"geometry":{"x":121.42508628456139,"y":25.1813309772349}},{"attributes":{"OBJECTID":3628,"LANDMARKID":"1000100000770","LANDMARKCO":"203","LANDMARKNA":"縣立興仁國小","LANDMARKAD":"1000110","ADDRESS":"新北市淡水區興仁路101巷0號","TEL":"02-26213783","COUNTYNAME":"新北市","TOWNNAME":"淡水區","MARKTYPE":"992","Class":"2"},"geometry":{"x":121.45100367953403,"y":25.217273010076617}},{"attributes":{"OBJECTID":3629,"LANDMARKID":"1000100000463","LANDMARKCO":"202","LANDMARKNA":"私立淡江高中","LANDMARKAD":"1000110","ADDRESS":"新北市淡水區真理街26號","TEL":"02-26203850","COUNTYNAME":"新北市","TOWNNAME":"淡水區","MARKTYPE":"992","Class":"2"},"geometry":{"x":121.4357695688024,"y":25.176869290918301}},{"attributes":{"OBJECTID":3630,"LANDMARKID":"1000100000464","LANDMARKCO":"202","LANDMARKNA":"國立淡水商工","LANDMARKAD":"1000110","ADDRESS":"新北市淡水區商工路307號","TEL":"02-26203930","COUNTYNAME":"新北市","TOWNNAME":"淡水區","MARKTYPE":"992","Class":"2"},"geometry":{"x":121.45330647683764,"y":25.18864881215546}},{"attributes":{"OBJECTID":3631,"LANDMARKID":"1000100000761","LANDMARKCO":"203","LANDMARKNA":"縣立竹圍國中","LANDMARKAD":"1000110","ADDRESS":"新北市淡水區中正東路二段145號","TEL":"02-28096990","COUNTYNAME":"新北市","TOWNNAME":"淡水區","MARKTYPE":"992","Class":"2"},"geometry":{"x":121.4616758970979,"y":25.146100946158548}},{"attributes":{"OBJECTID":3632,"LANDMARKID":"1000100000762","LANDMARKCO":"203","LANDMARKNA":"縣立正德國中","LANDMARKAD":"1000110","ADDRESS":"新北市淡水區北新路109號","TEL":"02-26205136","COUNTYNAME":"新北市","TOWNNAME":"淡水區","MARKTYPE":"992","Class":"2"},"geometry":{"x":121.4475916897175,"y":25.179097038881501}},{"attributes":{"OBJECTID":3633,"LANDMARKID":"1000100000763","LANDMARKCO":"203","LANDMARKNA":"縣立淡水國中","LANDMARKAD":"1000110","ADDRESS":"新北市淡水區文化里真理街10號","TEL":"02-26215915","COUNTYNAME":"新北市","TOWNNAME":"淡水區","MARKTYPE":"992","Class":"2"},"geometry":{"x":121.43670113462915,"y":25.175337182957534}},{"attributes":{"OBJECTID":3634,"LANDMARKID":"1000100000764","LANDMARKCO":"203","LANDMARKNA":"縣立淡水國小","LANDMARKAD":"1000110","ADDRESS":"新北市淡水區協元里中山路160號","TEL":"02-26212755","COUNTYNAME":"新北市","TOWNNAME":"淡水區","MARKTYPE":"992","Class":"2"},"geometry":{"x":121.44171927651524,"y":25.17369884637003}},{"attributes":{"OBJECTID":3635,"LANDMARKID":"1000100000765","LANDMARKCO":"203","LANDMARKNA":"縣立文化國小","LANDMARKAD":"1000110","ADDRESS":"新北市淡水區文化里真理街6號","TEL":"02-26212031","COUNTYNAME":"新北市","TOWNNAME":"淡水區","MARKTYPE":"992","Class":"2"},"geometry":{"x":121.4373996855894,"y":25.174520557998367}},{"attributes":{"OBJECTID":3636,"LANDMARKID":"1000100000766","LANDMARKCO":"203","LANDMARKNA":"縣立屯山國小","LANDMARKAD":"1000110","ADDRESS":"新北市淡水區淡金路五段111號","TEL":"02-26214591","COUNTYNAME":"新北市","TOWNNAME":"淡水區","MARKTYPE":"992","Class":"2"},"geometry":{"x":121.45612603360813,"y":25.237481320585992}},{"attributes":{"OBJECTID":3637,"LANDMARKID":"1000100000767","LANDMARKCO":"203","LANDMARKNA":"縣立新興國小","LANDMARKAD":"1000110","ADDRESS":"新北市淡水區新興街123號","TEL":"02-26203645","COUNTYNAME":"新北市","TOWNNAME":"淡水區","MARKTYPE":"992","Class":"2"},"geometry":{"x":121.43979097947495,"y":25.180111954414304}},{"attributes":{"OBJECTID":3638,"LANDMARKID":"1000100000768","LANDMARKCO":"203","LANDMARKNA":"縣立鄧公國小","LANDMARKAD":"1000110","ADDRESS":"新北市淡水區鄧公里學府路99號","TEL":"02-26297121","COUNTYNAME":"新北市","TOWNNAME":"淡水區","MARKTYPE":"992","Class":"2"},"geometry":{"x":121.44902766825861,"y":25.171865958977634}},{"attributes":{"OBJECTID":3639,"LANDMARKID":"1000100000451","LANDMARKCO":"201","LANDMARKNA":"基督人文管理學院","LANDMARKAD":"1000110","ADDRESS":"新北市淡水區自強路51號","TEL":"02-28097661","COUNTYNAME":"新北市","TOWNNAME":"淡水區","MARKTYPE":"992","Class":"2"},"geometry":{"x":121.4615552366529,"y":25.131024882198247}},{"attributes":{"OBJECTID":3640,"LANDMARKID":"1000100000452","LANDMARKCO":"201","LANDMARKNA":"淡江大學","LANDMARKAD":"1000110","ADDRESS":"新北市淡水區英專路151號","TEL":"02-26215656","COUNTYNAME":"新北市","TOWNNAME":"淡水區","MARKTYPE":"992","Class":"2"},"geometry":{"x":121.44710678113961,"y":25.173765090541078}},{"attributes":{"OBJECTID":3641,"LANDMARKID":"1000100000453","LANDMARKCO":"201","LANDMARKNA":"聖約翰科技大學","LANDMARKAD":"1000110","ADDRESS":"新北市淡水區淡金路四段499號","TEL":"02-28013131","COUNTYNAME":"新北市","TOWNNAME":"淡水區","MARKTYPE":"992","Class":"2"},"geometry":{"x":121.4514610263434,"y":25.22683989824829}},{"attributes":{"OBJECTID":3642,"LANDMARKID":"1000100000454","LANDMARKCO":"201","LANDMARKNA":"台北海洋技術學院淡水校區","LANDMARKAD":"1000110","ADDRESS":"新北市淡水區濱海路3段150號","TEL":"02-28102292","COUNTYNAME":"新北市","TOWNNAME":"淡水區","MARKTYPE":"992","Class":"2"},"geometry":{"x":121.42613959061718,"y":25.191436290149678}},{"attributes":{"OBJECTID":3643,"LANDMARKID":"1000100000771","LANDMARKCO":"203","LANDMARKNA":"縣立賢孝國中","LANDMARKAD":"1000110","ADDRESS":"新北市淡水區後洲子11號","TEL":"02-26252056","COUNTYNAME":"新北市","TOWNNAME":"淡水區","MARKTYPE":"992","Class":"2"},"geometry":{"x":121.44702638234735,"y":25.225766683874273}},{"attributes":{"OBJECTID":3644,"LANDMARKID":"1000100000772","LANDMARKCO":"203","LANDMARKNA":"縣立竹圍國小自強分班","LANDMARKAD":"1000110","ADDRESS":"新北市淡水區","TEL":" ","COUNTYNAME":"新北市","TOWNNAME":"淡水區","MARKTYPE":"992","Class":"2"},"geometry":{"x":121.46376592788617,"y":25.125503979154246}},{"attributes":{"OBJECTID":3645,"LANDMARKID":"1000100000773","LANDMARKCO":"203","LANDMARKNA":"縣立育英國小","LANDMARKAD":"1000110","ADDRESS":"新北市淡水區埤島里14號","TEL":"02-26237045","COUNTYNAME":"新北市","TOWNNAME":"淡水區","MARKTYPE":"992","Class":"2"},"geometry":{"x":121.44511509776855,"y":25.197520672973383}},{"attributes":{"OBJECTID":3646,"LANDMARKID":"1000100000774","LANDMARKCO":"203","LANDMARKNA":"縣立坪頂國小","LANDMARKAD":"1000110","ADDRESS":"新北市淡水區坪頂里小坪頂18號","TEL":"02-26211105","COUNTYNAME":"新北市","TOWNNAME":"淡水區","MARKTYPE":"992","Class":"2"},"geometry":{"x":121.48389633212084,"y":25.158308030058876}},{"attributes":{"OBJECTID":3647,"LANDMARKID":"1000100000775","LANDMARKCO":"203","LANDMARKNA":"縣立水源國小","LANDMARKAD":"1000110","ADDRESS":"新北市淡水區水源里北見路二段之5號","TEL":"02-26211347","COUNTYNAME":"新北市","TOWNNAME":"淡水區","MARKTYPE":"992","Class":"2"},"geometry":{"x":121.47654445601034,"y":25.186044618739409}},{"attributes":{"OBJECTID":3648,"LANDMARKID":"1000100000776","LANDMARKCO":"203","LANDMARKNA":"縣立中泰國小","LANDMARKAD":"1000110","ADDRESS":"新北市淡水區中和里北勢子5號","TEL":"02-28012033","COUNTYNAME":"新北市","TOWNNAME":"淡水區","MARKTYPE":"992","Class":"2"},"geometry":{"x":121.48453485877469,"y":25.224568974817128}},{"attributes":{"OBJECTID":3649,"LANDMARKID":"1000100000777","LANDMARKCO":"203","LANDMARKNA":"縣立忠山國小","LANDMARKAD":"1000110","ADDRESS":"新北市淡水區忠山里樁子林16號","TEL":"02-26216139","COUNTYNAME":"新北市","TOWNNAME":"淡水區","MARKTYPE":"992","Class":"2"},"geometry":{"x":121.48018399486111,"y":25.200474707619325}},{"attributes":{"OBJECTID":3650,"LANDMARKID":"1000100001451","LANDMARKCO":"305","LANDMARKNA":"滬尾漁港","LANDMARKAD":"1000110","ADDRESS":"新北市淡水區","TEL":" ","COUNTYNAME":"新北市","TOWNNAME":"淡水區","MARKTYPE":"993","Class":"305"},"geometry":{"x":121.43537678273935,"y":25.173379515285504}},{"attributes":{"OBJECTID":3651,"LANDMARKID":"1000100001457","LANDMARKCO":"306","LANDMARKNA":"竹圍捷運站-出口1","LANDMARKAD":"1000110","ADDRESS":" ","TEL":" ","COUNTYNAME":"新北市","TOWNNAME":"淡水區","MARKTYPE":"993","Class":"306"},"geometry":{"x":121.45990828958681,"y":25.137018446273178}},{"attributes":{"OBJECTID":3652,"LANDMARKID":"1000100001458","LANDMARKCO":"306","LANDMARKNA":"紅樹林捷運站-出口1","LANDMARKAD":"1000110","ADDRESS":" ","TEL":" ","COUNTYNAME":"新北市","TOWNNAME":"淡水區","MARKTYPE":"993","Class":"306"},"geometry":{"x":121.45902314548634,"y":25.154110633857073}},{"attributes":{"OBJECTID":3653,"LANDMARKID":"1000100001459","LANDMARKCO":"306","LANDMARKNA":"竹圍捷運站-出口2","LANDMARKAD":"1000110","ADDRESS":" ","TEL":" ","COUNTYNAME":"新北市","TOWNNAME":"淡水區","MARKTYPE":"993","Class":"306"},"geometry":{"x":121.45929851897488,"y":25.136953542008463}},{"attributes":{"OBJECTID":3654,"LANDMARKID":"1000100001460","LANDMARKCO":"306","LANDMARKNA":"紅樹林捷運站-出口2","LANDMARKAD":"1000110","ADDRESS":" ","TEL":" ","COUNTYNAME":"新北市","TOWNNAME":"淡水區","MARKTYPE":"993","Class":"306"},"geometry":{"x":121.45855202740997,"y":25.153922351647175}},{"attributes":{"OBJECTID":3655,"LANDMARKID":"1000100001461","LANDMARKCO":"306","LANDMARKNA":"淡水捷運站-出口","LANDMARKAD":"1000110","ADDRESS":" ","TEL":" ","COUNTYNAME":"新北市","TOWNNAME":"淡水區","MARKTYPE":"993","Class":"306"},"geometry":{"x":121.44562182387639,"y":25.168265655353103}},{"attributes":{"OBJECTID":3656,"LANDMARKID":"1000100001265","LANDMARKCO":"303","LANDMARKNA":"淡水區觀光漁會停車場","LANDMARKAD":"1000110","ADDRESS":" ","TEL":" ","COUNTYNAME":"新北市","TOWNNAME":"淡水區","MARKTYPE":"993","Class":"303"},"geometry":{"x":121.41266321048171,"y":25.184338186976397}},{"attributes":{"OBJECTID":3657,"LANDMARKID":"1000100001266","LANDMARKCO":"303","LANDMARKNA":"淡水區漁會停車場","LANDMARKAD":"1000110","ADDRESS":" ","TEL":" ","COUNTYNAME":"新北市","TOWNNAME":"淡水區","MARKTYPE":"993","Class":"303"},"geometry":{"x":121.41236610359636,"y":25.184018452352625}},{"attributes":{"OBJECTID":3658,"LANDMARKID":"1000100001267","LANDMARKCO":"303","LANDMARKNA":"漁人碼頭停車場","LANDMARKAD":"1000110","ADDRESS":" ","TEL":" ","COUNTYNAME":"新北市","TOWNNAME":"淡水區","MARKTYPE":"993","Class":"303"},"geometry":{"x":121.41554163136823,"y":25.182984244389601}},{"attributes":{"OBJECTID":3659,"LANDMARKID":"1000100001268","LANDMARKCO":"303","LANDMARKNA":"淡海停車場","LANDMARKAD":"1000110","ADDRESS":" ","TEL":" ","COUNTYNAME":"新北市","TOWNNAME":"淡水區","MARKTYPE":"993","Class":"303"},"geometry":{"x":121.41887354651591,"y":25.182036109168596}},{"attributes":{"OBJECTID":3660,"LANDMARKID":"1000100001269","LANDMARKCO":"303","LANDMARKNA":"新北市忠烈祠停車場","LANDMARKAD":"1000110","ADDRESS":" ","TEL":" ","COUNTYNAME":"新北市","TOWNNAME":"淡水區","MARKTYPE":"993","Class":"303"},"geometry":{"x":121.42921753266825,"y":25.178495349080478}},{"attributes":{"OBJECTID":3661,"LANDMARKID":"1000100001270","LANDMARKCO":"303","LANDMARKNA":"台灣高爾夫俱樂部停車場","LANDMARKAD":"1000110","ADDRESS":" ","TEL":" ","COUNTYNAME":"新北市","TOWNNAME":"淡水區","MARKTYPE":"993","Class":"303"},"geometry":{"x":121.42977424805635,"y":25.178639356004773}},{"attributes":{"OBJECTID":3662,"LANDMARKID":"1000100001271","LANDMARKCO":"303","LANDMARKNA":"淡水河邊停車場","LANDMARKAD":"1000110","ADDRESS":"新北市淡水區","TEL":" ","COUNTYNAME":"新北市","TOWNNAME":"淡水區","MARKTYPE":"993","Class":"303"},"geometry":{"x":121.44112907963604,"y":25.169214042450776}},{"attributes":{"OBJECTID":3663,"LANDMARKID":"1000100001272","LANDMARKCO":"303","LANDMARKNA":"淡水地下捷運站停車場","LANDMARKAD":"1000110","ADDRESS":"新北市淡水區","TEL":" ","COUNTYNAME":"新北市","TOWNNAME":"淡水區","MARKTYPE":"993","Class":"303"},"geometry":{"x":121.44454054842487,"y":25.168238461123757}},{"attributes":{"OBJECTID":3664,"LANDMARKID":"1000100001273","LANDMARKCO":"303","LANDMARKNA":"燦坤停車場","LANDMARKAD":"1000110","ADDRESS":" ","TEL":" ","COUNTYNAME":"新北市","TOWNNAME":"淡水區","MARKTYPE":"993","Class":"303"},"geometry":{"x":121.44718441921398,"y":25.177573419267773}},{"attributes":{"OBJECTID":3665,"LANDMARKID":"1000100001274","LANDMARKCO":"303","LANDMARKNA":"市民農園停車場","LANDMARKAD":"1000110","ADDRESS":" ","TEL":" ","COUNTYNAME":"新北市","TOWNNAME":"淡水區","MARKTYPE":"993","Class":"303"},"geometry":{"x":121.45927815293811,"y":25.138487804838249}},{"attributes":{"OBJECTID":3666,"LANDMARKID":"1000100001275","LANDMARKCO":"303","LANDMARKNA":"捷運紅樹林站停車場","LANDMARKAD":"1000110","ADDRESS":" ","TEL":" ","COUNTYNAME":"新北市","TOWNNAME":"淡水區","MARKTYPE":"993","Class":"303"},"geometry":{"x":121.45889848096346,"y":25.153901260724783}},{"attributes":{"OBJECTID":3667,"LANDMARKID":"1000100001276","LANDMARKCO":"303","LANDMARKNA":"馬偕醫院停車場","LANDMARKAD":"1000110","ADDRESS":" ","TEL":" ","COUNTYNAME":"新北市","TOWNNAME":"淡水區","MARKTYPE":"993","Class":"303"},"geometry":{"x":121.46032639708416,"y":25.139516318864512}},{"attributes":{"OBJECTID":3668,"LANDMARKID":"1000100001277","LANDMARKCO":"303","LANDMARKNA":"淡海停車場","LANDMARKAD":"1000110","ADDRESS":"新北市淡水區","TEL":" ","COUNTYNAME":"新北市","TOWNNAME":"淡水區","MARKTYPE":"993","Class":"303"},"geometry":{"x":121.41905012325275,"y":25.181994654592732}},{"attributes":{"OBJECTID":3669,"LANDMARKID":"1000100001278","LANDMARKCO":"303","LANDMARKNA":"紅毛城停車場","LANDMARKAD":"1000110","ADDRESS":"新北市淡水區油車里中正路","TEL":" ","COUNTYNAME":"新北市","TOWNNAME":"淡水區","MARKTYPE":"993","Class":"303"},"geometry":{"x":121.43138669148496,"y":25.175660341308028}},{"attributes":{"OBJECTID":3670,"LANDMARKID":"1000100001279","LANDMARKCO":"303","LANDMARKNA":"淡江停車場","LANDMARKAD":"1000110","ADDRESS":"新北市淡水區","TEL":" ","COUNTYNAME":"新北市","TOWNNAME":"淡水區","MARKTYPE":"993","Class":"303"},"geometry":{"x":121.42089004784228,"y":25.179679204855173}},{"attributes":{"OBJECTID":3671,"LANDMARKID":"1000100001280","LANDMARKCO":"303","LANDMARKNA":"沙崙海水浴場停車場","LANDMARKAD":"1000110","ADDRESS":"新北市淡水區淡海路300號","TEL":" ","COUNTYNAME":"新北市","TOWNNAME":"淡水區","MARKTYPE":"993","Class":"303"},"geometry":{"x":121.41867824991002,"y":25.188199281170181}},{"attributes":{"OBJECTID":3672,"LANDMARKID":"1000100001281","LANDMARKCO":"303","LANDMARKNA":"竹圍捷運站停車場","LANDMARKAD":"1000110","ADDRESS":"新北市淡水區","TEL":" ","COUNTYNAME":"新北市","TOWNNAME":"淡水區","MARKTYPE":"993","Class":"303"},"geometry":{"x":121.45964013637959,"y":25.137209855531381}},{"attributes":{"OBJECTID":3673,"LANDMARKID":"1000100001282","LANDMARKCO":"303","LANDMARKNA":"水碓立體停車場","LANDMARKAD":"1000110","ADDRESS":"新北市淡水區水碓里中山北路","TEL":" ","COUNTYNAME":"新北市","TOWNNAME":"淡水區","MARKTYPE":"993","Class":"303"},"geometry":{"x":121.44423835041803,"y":25.178105155968801}},{"attributes":{"OBJECTID":3674,"LANDMARKID":"1000100001283","LANDMARKCO":"303","LANDMARKNA":"河邊停車場","LANDMARKAD":"1000110","ADDRESS":"新北市淡水區新興里河邊道路","TEL":" ","COUNTYNAME":"新北市","TOWNNAME":"淡水區","MARKTYPE":"993","Class":"303"},"geometry":{"x":121.44899361267464,"y":25.204357479822157}},{"attributes":{"OBJECTID":3675,"LANDMARKID":"1000100001284","LANDMARKCO":"303","LANDMARKNA":"台灣聯通停車場-淡水場","LANDMARKAD":"1000110","ADDRESS":"新北市淡水區大忠街111號","TEL":" ","COUNTYNAME":"新北市","TOWNNAME":"淡水區","MARKTYPE":"993","Class":"303"},"geometry":{"x":121.44692467377074,"y":25.177378610662657}},{"attributes":{"OBJECTID":3676,"LANDMARKID":"1000100001285","LANDMARKCO":"303","LANDMARKNA":"台灣聯通停車場-漁人碼頭","LANDMARKAD":"1000110","ADDRESS":"新北市淡水區漁人碼頭","TEL":" ","COUNTYNAME":"新北市","TOWNNAME":"淡水區","MARKTYPE":"993","Class":"303"},"geometry":{"x":121.41549718947937,"y":25.182970572583056}},{"attributes":{"OBJECTID":3677,"LANDMARKID":"1000100002866","LANDMARKCO":"603","LANDMARKNA":"享來大旅社","LANDMARKAD":"1000110","ADDRESS":"新北市淡水區中山路129巷22號3至7樓(1樓門廳）","TEL":"02-26228661","COUNTYNAME":"新北市","TOWNNAME":"淡水區","MARKTYPE":"996","Class":"6"},"geometry":{"x":121.44170767628825,"y":25.170464957162558}},{"attributes":{"OBJECTID":3678,"LANDMARKID":"1000100002867","LANDMARKCO":"603","LANDMARKNA":"新五福旅社","LANDMARKAD":"1000110","ADDRESS":"新北市淡水區中山路95巷18號2至4樓","TEL":"02-26211719","COUNTYNAME":"新北市","TOWNNAME":"淡水區","MARKTYPE":"996","Class":"6"},"geometry":{"x":121.44204180268679,"y":25.170221960543959}},{"attributes":{"OBJECTID":3679,"LANDMARKID":"1000100002868","LANDMARKCO":"603","LANDMARKNA":"漁人碼頭休閒旅館","LANDMARKAD":"1000110","ADDRESS":"新北市淡水區中正路2段22巷8號2至7樓","TEL":"02-28058886","COUNTYNAME":"新北市","TOWNNAME":"淡水區","MARKTYPE":"996","Class":"6"},"geometry":{"x":121.42112274728042,"y":25.180323314093407}},{"attributes":{"OBJECTID":3680,"LANDMARKID":"1000100002869","LANDMARKCO":"603","LANDMARKNA":"佳宏旅社","LANDMARKAD":"1000110","ADDRESS":"新北市淡水區民生路16巷5號","TEL":"02-26215256","COUNTYNAME":"新北市","TOWNNAME":"淡水區","MARKTYPE":"996","Class":"6"},"geometry":{"x":121.46118135157992,"y":25.137535860637389}},{"attributes":{"OBJECTID":3681,"LANDMARKID":"1000100002870","LANDMARKCO":"603","LANDMARKNA":"萬熹大飯店","LANDMARKAD":"1000110","ADDRESS":"新北市淡水區中正東路35號2至6樓(1樓門廳）","TEL":"02-26213281","COUNTYNAME":"新北市","TOWNNAME":"淡水區","MARKTYPE":"996","Class":"6"},"geometry":{"x":121.44643555137651,"y":25.168191088857888}},{"attributes":{"OBJECTID":3682,"LANDMARKID":"1000100002871","LANDMARKCO":"603","LANDMARKNA":"觀海樓旅店","LANDMARKAD":"1000110","ADDRESS":"新北市淡水區中正東路1段129號1至12樓","TEL":"02-26291117","COUNTYNAME":"新北市","TOWNNAME":"淡水區","MARKTYPE":"996","Class":"6"},"geometry":{"x":121.45695821800497,"y":25.158928758130759}},{"attributes":{"OBJECTID":3683,"LANDMARKID":"1000100002872","LANDMARKCO":"603","LANDMARKNA":"海中天汽車旅館","LANDMARKAD":"1000110","ADDRESS":"新北市淡水區中正東路2段127巷1至55號2-3樓","TEL":"02-28094300","COUNTYNAME":"新北市","TOWNNAME":"淡水區","MARKTYPE":"996","Class":"6"},"geometry":{"x":121.45974373671524,"y":25.148219709068577}},{"attributes":{"OBJECTID":3684,"LANDMARKID":"1000100002873","LANDMARKCO":"603","LANDMARKNA":"淡水中信大飯店","LANDMARKAD":"1000110","ADDRESS":"新北市淡水區中正東路2段91號","TEL":"02-88091111","COUNTYNAME":"新北市","TOWNNAME":"淡水區","MARKTYPE":"996","Class":"6"},"geometry":{"x":121.46006563208135,"y":25.150168709190261}},{"attributes":{"OBJECTID":3685,"LANDMARKID":"1000100002874","LANDMARKCO":"603","LANDMARKNA":"福格大飯店","LANDMARKAD":"1000110","ADDRESS":"新北市淡水區學府路89號5-16樓","TEL":"02-26262929","COUNTYNAME":"新北市","TOWNNAME":"淡水區","MARKTYPE":"996","Class":"6"},"geometry":{"x":121.4485185183529,"y":25.170406157943663}},{"attributes":{"OBJECTID":3686,"LANDMARKID":"1000100002875","LANDMARKCO":"603","LANDMARKNA":"喜相逢觀景渡假飯店","LANDMARKAD":"1000110","ADDRESS":"新北市淡水區中正路1段156巷8號","TEL":"02-28059168","COUNTYNAME":"新北市","TOWNNAME":"淡水區","MARKTYPE":"996","Class":"6"},"geometry":{"x":121.42112274728042,"y":25.180323314093407}},{"attributes":{"OBJECTID":3687,"LANDMARKID":"1000100002876","LANDMARKCO":"603","LANDMARKNA":"艾蔓精緻旅館-淡水館","LANDMARKAD":"1000110","ADDRESS":"新北市淡水區八勢一街83號","TEL":"02-88096789","COUNTYNAME":"新北市","TOWNNAME":"淡水區","MARKTYPE":"996","Class":"6"},"geometry":{"x":121.46450321436161,"y":25.154155154294884}},{"attributes":{"OBJECTID":3688,"LANDMARKID":"1000100002877","LANDMARKCO":"603","LANDMARKNA":"香寧旅店","LANDMARKAD":"1000110","ADDRESS":"新北市淡水區民權路105至111號7至8樓","TEL":"02-28097777","COUNTYNAME":"新北市","TOWNNAME":"淡水區","MARKTYPE":"996","Class":"6"},"geometry":{"x":121.46024998430113,"y":25.136907138615385}},{"attributes":{"OBJECTID":3689,"LANDMARKID":"1000100002878","LANDMARKCO":"603","LANDMARKNA":"長緹海景飯店","LANDMARKAD":"1000110","ADDRESS":"新北市淡水區淡海路176號1至6樓","TEL":"02-28057228","COUNTYNAME":"新北市","TOWNNAME":"淡水區","MARKTYPE":"996","Class":"6"},"geometry":{"x":121.42054282975576,"y":25.184448962024891}},{"attributes":{"OBJECTID":3690,"LANDMARKID":"1000100002879","LANDMARKCO":"603","LANDMARKNA":"福容溫泉會館 淡水","LANDMARKAD":"1000110","ADDRESS":"新北市淡水區淡金路2號3樓","TEL":"6號2-3樓","COUNTYNAME":"新北市","TOWNNAME":"淡水區","MARKTYPE":"996","Class":"6"},"geometry":{"x":121.45729115025655,"y":25.159714730343936}},{"attributes":{"OBJECTID":3691,"LANDMARKID":"1000100002947","LANDMARKCO":"604","LANDMARKNA":"達林的家","LANDMARKAD":"1000110","ADDRESS":"新北市淡水區中正東路71之6號","TEL":"0937-068638","COUNTYNAME":"新北市","TOWNNAME":"淡水區","MARKTYPE":"996","Class":"6"},"geometry":{"x":121.44759374298602,"y":25.167417957160922}},{"attributes":{"OBJECTID":3692,"LANDMARKID":"1000100002717","LANDMARKCO":"511","LANDMARKNA":"淡水小吃","LANDMARKAD":"1000110","ADDRESS":"新北市淡水區","TEL":" ","COUNTYNAME":"新北市","TOWNNAME":"淡水區","MARKTYPE":"995","Class":"5"},"geometry":{"x":121.43892362083707,"y":25.170142984997987}},{"attributes":{"OBJECTID":3693,"LANDMARKID":"1000100002569","LANDMARKCO":"505","LANDMARKNA":"綠野馬術俱樂部","LANDMARKAD":"1000110","ADDRESS":"新北市淡水區淡海路280巷33弄36號","TEL":"02-28058189","COUNTYNAME":"新北市","TOWNNAME":"淡水區","MARKTYPE":"995","Class":"5"},"geometry":{"x":121.41881681825197,"y":25.188973930901632}},{"attributes":{"OBJECTID":3694,"LANDMARKID":"1000100002637","LANDMARKCO":"508","LANDMARKNA":"海中天溫泉飯店","LANDMARKAD":"1000110","ADDRESS":"新北市淡水區中正東路二段131號","TEL":"02-28099800","COUNTYNAME":"新北市","TOWNNAME":"淡水區","MARKTYPE":"995","Class":"5"},"geometry":{"x":121.45984725035294,"y":25.148272945544946}},{"attributes":{"OBJECTID":3695,"LANDMARKID":"1000100002681","LANDMARKCO":"509","LANDMARKNA":"洲子灣海水浴場","LANDMARKAD":"1000110","ADDRESS":"新北市淡水區","TEL":"02-26223052","COUNTYNAME":"新北市","TOWNNAME":"淡水區","MARKTYPE":"995","Class":"5"},"geometry":{"x":121.4387827937779,"y":25.218003194214635}},{"attributes":{"OBJECTID":3696,"LANDMARKID":"1000100002715","LANDMARKCO":"511","LANDMARKNA":"淡水夜市","LANDMARKAD":"1000110","ADDRESS":"新北市淡水區","TEL":" ","COUNTYNAME":"新北市","TOWNNAME":"淡水區","MARKTYPE":"995","Class":"5"},"geometry":{"x":121.43926875570479,"y":25.17050994271435}},{"attributes":{"OBJECTID":3697,"LANDMARKID":"1000100002716","LANDMARKCO":"511","LANDMARKNA":"淡水觀光夜市","LANDMARKAD":"1000110","ADDRESS":"新北市淡水區","TEL":" ","COUNTYNAME":"新北市","TOWNNAME":"淡水區","MARKTYPE":"995","Class":"5"},"geometry":{"x":121.44954133945843,"y":25.170661382403853}},{"attributes":{"OBJECTID":3698,"LANDMARKID":"1000100002509","LANDMARKCO":"503","LANDMARKNA":"淡水風景特定區","LANDMARKAD":"1000110","ADDRESS":"新北市淡水區","TEL":" ","COUNTYNAME":"新北市","TOWNNAME":"淡水區","MARKTYPE":"995","Class":"5"},"geometry":{"x":121.43954188921741,"y":25.171001191579595}},{"attributes":{"OBJECTID":3699,"LANDMARKID":"1000100002695","LANDMARKCO":"510","LANDMARKNA":"台灣淡水高爾夫球俱樂部","LANDMARKAD":"1000110","ADDRESS":"新北市淡水區中正路一段6巷32號","TEL":"02-26230114","COUNTYNAME":"新北市","TOWNNAME":"淡水區","MARKTYPE":"995","Class":"5"},"geometry":{"x":121.43029309447995,"y":25.179228825845335}},{"attributes":{"OBJECTID":3700,"LANDMARKID":"1000100002696","LANDMARKCO":"510","LANDMARKNA":"大屯高爾夫球場","LANDMARKAD":"1000110","ADDRESS":"新北市淡水區商工路309號","TEL":"02-26213271","COUNTYNAME":"新北市","TOWNNAME":"淡水區","MARKTYPE":"995","Class":"5"},"geometry":{"x":121.45834617378243,"y":25.186756885919436}},{"attributes":{"OBJECTID":3701,"LANDMARKID":"1000100002697","LANDMARKCO":"510","LANDMARKNA":"新淡水高爾夫球場","LANDMARKAD":"1000110","ADDRESS":"新北市淡水區八勢路300號","TEL":"02-28092466","COUNTYNAME":"新北市","TOWNNAME":"淡水區","MARKTYPE":"995","Class":"5"},"geometry":{"x":121.46797880288113,"y":25.149929391211753}},{"attributes":{"OBJECTID":3702,"LANDMARKID":"1000100002698","LANDMARKCO":"510","LANDMARKNA":"國華高爾夫球場","LANDMARKAD":"1000110","ADDRESS":"新北市淡水區坪頂里23-1號","TEL":"02-86261281","COUNTYNAME":"新北市","TOWNNAME":"淡水區","MARKTYPE":"995","Class":"5"},"geometry":{"x":121.48432075753809,"y":25.153450529635453}},{"attributes":{"OBJECTID":3703,"LANDMARKID":"1000100001920","LANDMARKCO":"405","LANDMARKNA":"中油加油站-萬里站(中油直營)","LANDMARKAD":"1000128","ADDRESS":"新北市萬里區龜吼村美崙31-1號","TEL":"02-24922019","COUNTYNAME":"新北市","TOWNNAME":"萬里區","MARKTYPE":"994","Class":"4"},"geometry":{"x":121.68702680010968,"y":25.184328020265472}},{"attributes":{"OBJECTID":3704,"LANDMARKID":"1000100001921","LANDMARKCO":"405","LANDMARKNA":"中油加油站-北基基金站","LANDMARKAD":"1000128","ADDRESS":"新北市萬里區大鵬村加投路19號之5","TEL":"02-24983603","COUNTYNAME":"新北市","TOWNNAME":"萬里區","MARKTYPE":"994","Class":"4"},"geometry":{"x":121.64983166154344,"y":25.20939959563265}},{"attributes":{"OBJECTID":3705,"LANDMARKID":"1000100002682","LANDMARKCO":"509","LANDMARKNA":"翡翠灣海水浴場","LANDMARKAD":"1000128","ADDRESS":"新北市萬里區翡翠路1之1號","TEL":"02-24926565","COUNTYNAME":"新北市","TOWNNAME":"萬里區","MARKTYPE":"995","Class":"5"},"geometry":{"x":121.68365188170257,"y":25.188563457574187}},{"attributes":{"OBJECTID":3706,"LANDMARKID":"1000100002508","LANDMARKCO":"503","LANDMARKNA":"野柳風景特定區","LANDMARKAD":"1000128","ADDRESS":"新北市萬里區港東路167之1號","TEL":" ","COUNTYNAME":"新北市","TOWNNAME":"萬里區","MARKTYPE":"995","Class":"5"},"geometry":{"x":121.69242654730736,"y":25.207446779416291}},{"attributes":{"OBJECTID":3707,"LANDMARKID":"1000100002725","LANDMARKCO":"512","LANDMARKNA":"野柳旅客服務中心","LANDMARKAD":"1000128","ADDRESS":"新北市萬里區野柳村港東路167之1號","TEL":"02-24922016","COUNTYNAME":"新北市","TOWNNAME":"萬里區","MARKTYPE":"995","Class":"5"},"geometry":{"x":121.69450118870591,"y":25.209094889100623}},{"attributes":{"OBJECTID":3708,"LANDMARKID":"1000100002426","LANDMARKCO":"408","LANDMARKNA":"郵局-萬里郵局","LANDMARKAD":"1000128","ADDRESS":"新北市萬里區瑪鋉路48號","TEL":"(02)2492-2042","COUNTYNAME":"新北市","TOWNNAME":"萬里區","MARKTYPE":"994","Class":"4"},"geometry":{"x":121.68958371893822,"y":25.177615843817964}},{"attributes":{"OBJECTID":3709,"LANDMARKID":"1000100002451","LANDMARKCO":"409","LANDMARKNA":"萬里區漁會","LANDMARKAD":"1000128","ADDRESS":"新北市萬里區野柳林港西路56-1號","TEL":"02-24921180-1","COUNTYNAME":"新北市","TOWNNAME":"萬里區","MARKTYPE":"994","Class":"4"},"geometry":{"x":121.6856527891017,"y":25.203454344840772}},{"attributes":{"OBJECTID":3710,"LANDMARKID":"1000100001884","LANDMARKCO":"404","LANDMARKNA":"台灣省自來水萬里金山營運所","LANDMARKAD":"1000128","ADDRESS":"新北市萬里區瑪鍊路54巷20號","TEL":" ","COUNTYNAME":"新北市","TOWNNAME":"萬里區","MARKTYPE":"994","Class":"4"},"geometry":{"x":121.68726119732914,"y":25.179816192387662}},{"attributes":{"OBJECTID":3711,"LANDMARKID":"1000100002248","LANDMARKCO":"406","LANDMARKNA":"瑪鍊運動公園","LANDMARKAD":"1000128","ADDRESS":"新北市萬里區","TEL":" ","COUNTYNAME":"新北市","TOWNNAME":"萬里區","MARKTYPE":"994","Class":"4"},"geometry":{"x":121.68944109388579,"y":25.174705000782389}},{"attributes":{"OBJECTID":3712,"LANDMARKID":"1000100002249","LANDMARKCO":"406","LANDMARKNA":"中福休閒公園","LANDMARKAD":"1000128","ADDRESS":"新北市萬里區","TEL":" ","COUNTYNAME":"新北市","TOWNNAME":"萬里區","MARKTYPE":"994","Class":"4"},"geometry":{"x":121.68156492033053,"y":25.171674741385491}},{"attributes":{"OBJECTID":3713,"LANDMARKID":"1000100002250","LANDMARKCO":"406","LANDMARKNA":"懷恩公園","LANDMARKAD":"1000128","ADDRESS":"新北市萬里區","TEL":" ","COUNTYNAME":"新北市","TOWNNAME":"萬里區","MARKTYPE":"994","Class":"4"},"geometry":{"x":121.67839327798747,"y":25.162928942640544}},{"attributes":{"OBJECTID":3714,"LANDMARKID":"1000100000111","LANDMARKCO":"103","LANDMARKNA":"新北市萬里區衛生所","LANDMARKAD":"1000128","ADDRESS":"新北市萬里區瑪鋉路221號3樓","TEL":"02-24921117","COUNTYNAME":"新北市","TOWNNAME":"萬里區","MARKTYPE":"991","Class":"1"},"geometry":{"x":121.68871349390716,"y":25.181320090874411}},{"attributes":{"OBJECTID":3715,"LANDMARKID":"1000100000409","LANDMARKCO":"108","LANDMARKNA":"新北市萬里區公所","LANDMARKAD":"1000128","ADDRESS":"新北市萬里區瑪鋉路151號","TEL":"02-24922064","COUNTYNAME":"新北市","TOWNNAME":"萬里區","MARKTYPE":"991","Class":"1"},"geometry":{"x":121.68868373238578,"y":25.181320367511411}},{"attributes":{"OBJECTID":3716,"LANDMARKID":"1000100000385","LANDMARKCO":"107","LANDMARKNA":"新北市消防局萬里分隊","LANDMARKAD":"1000128","ADDRESS":"新北市萬里區景美村景美路16號","TEL":"02-24922739","COUNTYNAME":"新北市","TOWNNAME":"萬里區","MARKTYPE":"991","Class":"1"},"geometry":{"x":121.65751593285133,"y":25.204847330283847}},{"attributes":{"OBJECTID":3717,"LANDMARKID":"1000100000386","LANDMARKCO":"107","LANDMARKNA":"新北市政府警察局崁腳派出所","LANDMARKAD":"1000128","ADDRESS":"新北市萬里區崁腳村崁腳路38號","TEL":"02-24922740","COUNTYNAME":"新北市","TOWNNAME":"萬里區","MARKTYPE":"991","Class":"1"},"geometry":{"x":121.65250341060177,"y":25.161533823714272}},{"attributes":{"OBJECTID":3718,"LANDMARKID":"1000100000387","LANDMARKCO":"107","LANDMARKNA":"新北市政府警察局野柳派出所","LANDMARKAD":"1000128","ADDRESS":"新北市萬里區港東路1-3號","TEL":"02-24922510","COUNTYNAME":"新北市","TOWNNAME":"萬里區","MARKTYPE":"991","Class":"1"},"geometry":{"x":121.68490017001278,"y":25.203641136670026}},{"attributes":{"OBJECTID":3719,"LANDMARKID":"1000100000388","LANDMARKCO":"107","LANDMARKNA":"新北市政府警察局大鵬派出所","LANDMARKAD":"1000128","ADDRESS":"新北市萬里區大鵬村加投路81號","TEL":"02-24982475","COUNTYNAME":"新北市","TOWNNAME":"萬里區","MARKTYPE":"991","Class":"1"},"geometry":{"x":121.64690595729074,"y":25.212565657925154}},{"attributes":{"OBJECTID":3720,"LANDMARKID":"1000100000107","LANDMARKCO":"103","LANDMARKNA":"新北市萬里區鄉民代表會","LANDMARKAD":"1000128","ADDRESS":"新北市萬里區瑪鍊路151號","TEL":"02-24922030","COUNTYNAME":"新北市","TOWNNAME":"萬里區","MARKTYPE":"991","Class":"1"},"geometry":{"x":121.68951397634115,"y":25.177894981691164}},{"attributes":{"OBJECTID":3721,"LANDMARKID":"1000100000384","LANDMARKCO":"107","LANDMARKNA":"新北市政府警察局萬里分駐所","LANDMARKAD":"1000128","ADDRESS":"新北市萬里區萬里村瑪鍊路155號","TEL":"02-24922122","COUNTYNAME":"新北市","TOWNNAME":"萬里區","MARKTYPE":"991","Class":"1"},"geometry":{"x":121.68657797889999,"y":25.173395528297323}},{"attributes":{"OBJECTID":3722,"LANDMARKID":"1000100000144","LANDMARKCO":"106","LANDMARKNA":"新北市萬里區戶政事務所","LANDMARKAD":"1000128","ADDRESS":"新北市萬里區萬里區4鄰瑪鍊路153號","TEL":"02-24922063","COUNTYNAME":"新北市","TOWNNAME":"萬里區","MARKTYPE":"991","Class":"1"},"geometry":{"x":121.68876208006405,"y":25.181229358905018}},{"attributes":{"OBJECTID":3723,"LANDMARKID":"1000100000108","LANDMARKCO":"103","LANDMARKNA":"新北市萬里區萬里公有零售市場","LANDMARKAD":"1000128","ADDRESS":"新北市萬里區瑪鍊路261號","TEL":"02-24925748","COUNTYNAME":"新北市","TOWNNAME":"萬里區","MARKTYPE":"991","Class":"1"},"geometry":{"x":121.68866873830584,"y":25.180869108802973}},{"attributes":{"OBJECTID":3724,"LANDMARKID":"1000100000828","LANDMARKCO":"204","LANDMARKNA":"新北市立圖書館萬里分館","LANDMARKAD":"1000128","ADDRESS":"新北市萬里區瑪鍊路221號4樓","TEL":" ","COUNTYNAME":"新北市","TOWNNAME":"萬里區","MARKTYPE":"992","Class":"2"},"geometry":{"x":121.68930464953996,"y":25.178157952855614}},{"attributes":{"OBJECTID":3725,"LANDMARKID":"1000100000781","LANDMARKCO":"203","LANDMARKNA":"縣立萬里國中","LANDMARKAD":"1000128","ADDRESS":"新北市萬里區獅頭路24號","TEL":"02-24921653","COUNTYNAME":"新北市","TOWNNAME":"萬里區","MARKTYPE":"992","Class":"2"},"geometry":{"x":121.69502144015475,"y":25.177508375040734}},{"attributes":{"OBJECTID":3726,"LANDMARKID":"1000100000782","LANDMARKCO":"203","LANDMARKNA":"縣立大鵬國小","LANDMARKAD":"1000128","ADDRESS":"新北市萬里區大鵬村加投路14號","TEL":"02-24988131","COUNTYNAME":"新北市","TOWNNAME":"萬里區","MARKTYPE":"992","Class":"2"},"geometry":{"x":121.65094512611918,"y":25.208401723354442}},{"attributes":{"OBJECTID":3727,"LANDMARKID":"1000100000783","LANDMARKCO":"203","LANDMARKNA":"縣立崁腳國小","LANDMARKAD":"1000128","ADDRESS":"新北市萬里區崁腳村崁腳路59號","TEL":"02-24922037","COUNTYNAME":"新北市","TOWNNAME":"萬里區","MARKTYPE":"992","Class":"2"},"geometry":{"x":121.64973122734871,"y":25.160643299167774}},{"attributes":{"OBJECTID":3728,"LANDMARKID":"1000100000784","LANDMARKCO":"203","LANDMARKNA":"縣立野柳國小","LANDMARKAD":"1000128","ADDRESS":"新北市萬里區野柳村港東路167號","TEL":"02-24922512","COUNTYNAME":"新北市","TOWNNAME":"萬里區","MARKTYPE":"992","Class":"2"},"geometry":{"x":121.68988897197522,"y":25.20569688815695}},{"attributes":{"OBJECTID":3729,"LANDMARKID":"1000100000462","LANDMARKCO":"202","LANDMARKNA":"私立中華商海","LANDMARKAD":"1000128","ADDRESS":"新北市萬里區瑪鍊路15號","TEL":"02-24922119","COUNTYNAME":"新北市","TOWNNAME":"萬里區","MARKTYPE":"992","Class":"2"},"geometry":{"x":121.68522049731827,"y":25.17808966805849}},{"attributes":{"OBJECTID":3730,"LANDMARKID":"1000100000778","LANDMARKCO":"203","LANDMARKNA":"縣立大坪國小溪底分校","LANDMARKAD":"1000128","ADDRESS":"新北市萬里區","TEL":" ","COUNTYNAME":"新北市","TOWNNAME":"萬里區","MARKTYPE":"992","Class":"2"},"geometry":{"x":121.62125947993428,"y":25.156074359540515}},{"attributes":{"OBJECTID":3731,"LANDMARKID":"1000100000779","LANDMARKCO":"203","LANDMARKNA":"縣立大坪國小","LANDMARKAD":"1000128","ADDRESS":"新北市萬里區雙興村大坪路1號","TEL":"02-24922461","COUNTYNAME":"新北市","TOWNNAME":"萬里區","MARKTYPE":"992","Class":"2"},"geometry":{"x":121.63876511973996,"y":25.167190564594694}},{"attributes":{"OBJECTID":3732,"LANDMARKID":"1000100000780","LANDMARKCO":"203","LANDMARKNA":"縣立萬里國小","LANDMARKAD":"1000128","ADDRESS":"新北市萬里區瑪鍊路18號","TEL":"02-24922034","COUNTYNAME":"新北市","TOWNNAME":"萬里區","MARKTYPE":"992","Class":"2"},"geometry":{"x":121.68909163662853,"y":25.176003111487361}},{"attributes":{"OBJECTID":3733,"LANDMARKID":"1000100001443","LANDMARKCO":"305","LANDMARKNA":"瑪鋉漁港","LANDMARKAD":"1000128","ADDRESS":"新北市萬里區","TEL":" ","COUNTYNAME":"新北市","TOWNNAME":"萬里區","MARKTYPE":"993","Class":"305"},"geometry":{"x":121.69598682651218,"y":25.180836158151145}},{"attributes":{"OBJECTID":3734,"LANDMARKID":"1000100001444","LANDMARKCO":"305","LANDMARKNA":"野柳漁港","LANDMARKAD":"1000128","ADDRESS":"新北市萬里區","TEL":" ","COUNTYNAME":"新北市","TOWNNAME":"萬里區","MARKTYPE":"993","Class":"305"},"geometry":{"x":121.68951754128113,"y":25.205367694396902}},{"attributes":{"OBJECTID":3735,"LANDMARKID":"1000100001445","LANDMARKCO":"305","LANDMARKNA":"東澳漁港","LANDMARKAD":"1000128","ADDRESS":"新北市萬里區","TEL":" ","COUNTYNAME":"新北市","TOWNNAME":"萬里區","MARKTYPE":"993","Class":"305"},"geometry":{"x":121.69423353378889,"y":25.202963115776015}},{"attributes":{"OBJECTID":3736,"LANDMARKID":"1000100001446","LANDMARKCO":"305","LANDMARKNA":"龜吼漁港","LANDMARKAD":"1000128","ADDRESS":"新北市萬里區","TEL":" ","COUNTYNAME":"新北市","TOWNNAME":"萬里區","MARKTYPE":"993","Class":"305"},"geometry":{"x":121.68859125805157,"y":25.196157647174292}},{"attributes":{"OBJECTID":3737,"LANDMARKID":"1000100001335","LANDMARKCO":"303","LANDMARKNA":"第二核能發電廠停車場","LANDMARKAD":"1000128","ADDRESS":" ","TEL":"02-24985112","COUNTYNAME":"新北市","TOWNNAME":"萬里區","MARKTYPE":"993","Class":"303"},"geometry":{"x":121.66179130649277,"y":25.207589357546961}},{"attributes":{"OBJECTID":3738,"LANDMARKID":"1000100001336","LANDMARKCO":"303","LANDMARKNA":"野柳停車場(一)","LANDMARKAD":"1000128","ADDRESS":" ","TEL":"02-24922016","COUNTYNAME":"新北市","TOWNNAME":"萬里區","MARKTYPE":"993","Class":"303"},"geometry":{"x":121.69049513360652,"y":25.204219608689787}},{"attributes":{"OBJECTID":3739,"LANDMARKID":"1000100001337","LANDMARKCO":"303","LANDMARKNA":"野柳停車場(二)","LANDMARKAD":"1000128","ADDRESS":" ","TEL":"02-24922016","COUNTYNAME":"新北市","TOWNNAME":"萬里區","MARKTYPE":"993","Class":"303"},"geometry":{"x":121.69205139641511,"y":25.205617178323063}},{"attributes":{"OBJECTID":3740,"LANDMARKID":"1000100001338","LANDMARKCO":"303","LANDMARKNA":"員潭溪停車場","LANDMARKAD":"1000128","ADDRESS":"新北市萬里區","TEL":" ","COUNTYNAME":"新北市","TOWNNAME":"萬里區","MARKTYPE":"993","Class":"303"},"geometry":{"x":121.64834904578341,"y":25.212890385157724}},{"attributes":{"OBJECTID":3741,"LANDMARKID":"1000100001339","LANDMARKCO":"303","LANDMARKNA":"大鵬停車場","LANDMARKAD":"1000128","ADDRESS":"新北市萬里區茄頭路","TEL":" ","COUNTYNAME":"新北市","TOWNNAME":"萬里區","MARKTYPE":"993","Class":"303"},"geometry":{"x":121.69171411572964,"y":25.177326171695444}},{"attributes":{"OBJECTID":3742,"LANDMARKID":"1000100001340","LANDMARKCO":"303","LANDMARKNA":"新北市野柳風景特定區管理所停車","LANDMARKAD":"1000128","ADDRESS":"新北市萬里區港東路197之1號","TEL":" ","COUNTYNAME":"新北市","TOWNNAME":"萬里區","MARKTYPE":"993","Class":"303"},"geometry":{"x":121.68821585070749,"y":25.203953946844688}},{"attributes":{"OBJECTID":3743,"LANDMARKID":"1000100001341","LANDMARKCO":"303","LANDMARKNA":"停三停車場","LANDMARKAD":"1000128","ADDRESS":"新北市萬里區","TEL":" ","COUNTYNAME":"新北市","TOWNNAME":"萬里區","MARKTYPE":"993","Class":"303"},"geometry":{"x":121.64798848429201,"y":25.212216923767151}},{"attributes":{"OBJECTID":3744,"LANDMARKID":"1000100001342","LANDMARKCO":"303","LANDMARKNA":"野柳風景區停車場","LANDMARKAD":"1000128","ADDRESS":"新北市萬里區野柳村港東路","TEL":" ","COUNTYNAME":"新北市","TOWNNAME":"萬里區","MARKTYPE":"993","Class":"303"},"geometry":{"x":121.655988150608,"y":25.208761948197061}},{"attributes":{"OBJECTID":3745,"LANDMARKID":"1000100002856","LANDMARKCO":"603","LANDMARKNA":"映象休旅會館","LANDMARKAD":"1000128","ADDRESS":"新北市萬里區玉田路33號","TEL":"02-24928833","COUNTYNAME":"新北市","TOWNNAME":"萬里區","MARKTYPE":"996","Class":"6"},"geometry":{"x":121.68061915465009,"y":25.193853026658807}},{"attributes":{"OBJECTID":3746,"LANDMARKID":"1000100002857","LANDMARKCO":"603","LANDMARKNA":"愛琴海太平洋海景溫泉會館","LANDMARKAD":"1000128","ADDRESS":"新北市萬里區海景路1號1樓","TEL":"2至3樓之1至之8","COUNTYNAME":"新北市","TOWNNAME":"萬里區","MARKTYPE":"996","Class":"6"},"geometry":{"x":121.68391667831906,"y":25.191159384130891}},{"attributes":{"OBJECTID":3747,"LANDMARKID":"1000100002858","LANDMARKCO":"603","LANDMARKNA":"太平洋翡翠灣福華渡假飯店","LANDMARKAD":"1000128","ADDRESS":"新北市萬里區翡翠路17號1-2樓","TEL":"14至18樓","COUNTYNAME":"新北市","TOWNNAME":"萬里區","MARKTYPE":"996","Class":"6"},"geometry":{"x":121.68328176647735,"y":25.188220514413626}},{"attributes":{"OBJECTID":3748,"LANDMARKID":"1000100002683","LANDMARKCO":"509","LANDMARKNA":"萬里海水浴場","LANDMARKAD":"1000128","ADDRESS":"新北市萬里區","TEL":" ","COUNTYNAME":"新北市","TOWNNAME":"萬里區","MARKTYPE":"995","Class":"5"},"geometry":{"x":121.69026797768792,"y":25.180600177172686}},{"attributes":{"OBJECTID":3749,"LANDMARKID":"1000100002513","LANDMARKCO":"503","LANDMARKNA":"海蝕溝","LANDMARKAD":"1000128","ADDRESS":"新北市萬里區","TEL":" ","COUNTYNAME":"新北市","TOWNNAME":"萬里區","MARKTYPE":"995","Class":"5"},"geometry":{"x":121.69234336869501,"y":25.207660445773488}},{"attributes":{"OBJECTID":3750,"LANDMARKID":"1000100002514","LANDMARKCO":"503","LANDMARKNA":"象石","LANDMARKAD":"1000128","ADDRESS":"新北市萬里區","TEL":" ","COUNTYNAME":"新北市","TOWNNAME":"萬里區","MARKTYPE":"995","Class":"5"},"geometry":{"x":121.69285983198499,"y":25.208833514274694}},{"attributes":{"OBJECTID":3751,"LANDMARKID":"1000100002515","LANDMARKCO":"503","LANDMARKNA":"仙女鞋","LANDMARKAD":"1000128","ADDRESS":"新北市萬里區","TEL":" ","COUNTYNAME":"新北市","TOWNNAME":"萬里區","MARKTYPE":"995","Class":"5"},"geometry":{"x":121.69313450052047,"y":25.209015360250952}},{"attributes":{"OBJECTID":3752,"LANDMARKID":"1000100002516","LANDMARKCO":"503","LANDMARKNA":"女王頭","LANDMARKAD":"1000128","ADDRESS":"新北市萬里區","TEL":" ","COUNTYNAME":"新北市","TOWNNAME":"萬里區","MARKTYPE":"995","Class":"5"},"geometry":{"x":121.69318939057626,"y":25.208675589918695}},{"attributes":{"OBJECTID":3753,"LANDMARKID":"1000100002517","LANDMARKCO":"503","LANDMARKNA":"海蝕平台","LANDMARKAD":"1000128","ADDRESS":"新北市萬里區","TEL":" ","COUNTYNAME":"新北市","TOWNNAME":"萬里區","MARKTYPE":"995","Class":"5"},"geometry":{"x":121.69378977909005,"y":25.209485115653859}},{"attributes":{"OBJECTID":3754,"LANDMARKID":"1000100002518","LANDMARKCO":"503","LANDMARKNA":"瑪玲鳥石","LANDMARKAD":"1000128","ADDRESS":"新北市萬里區","TEL":" ","COUNTYNAME":"新北市","TOWNNAME":"萬里區","MARKTYPE":"995","Class":"5"},"geometry":{"x":121.69477494754261,"y":25.209069138817096}},{"attributes":{"OBJECTID":3755,"LANDMARKID":"1000100002519","LANDMARKCO":"503","LANDMARKNA":"豆腐岩","LANDMARKAD":"1000128","ADDRESS":"新北市萬里區","TEL":" ","COUNTYNAME":"新北市","TOWNNAME":"萬里區","MARKTYPE":"995","Class":"5"},"geometry":{"x":121.69521429796764,"y":25.211515482616456}},{"attributes":{"OBJECTID":3756,"LANDMARKID":"1000100002520","LANDMARKCO":"503","LANDMARKNA":"情人洞","LANDMARKAD":"1000128","ADDRESS":"新北市萬里區","TEL":" ","COUNTYNAME":"新北市","TOWNNAME":"萬里區","MARKTYPE":"995","Class":"5"},"geometry":{"x":121.69585978642679,"y":25.21075185878048}},{"attributes":{"OBJECTID":3757,"LANDMARKID":"1000100002521","LANDMARKCO":"503","LANDMARKNA":"野柳燈塔","LANDMARKAD":"1000128","ADDRESS":"新北市萬里區","TEL":" ","COUNTYNAME":"新北市","TOWNNAME":"萬里區","MARKTYPE":"995","Class":"5"},"geometry":{"x":121.69726099470789,"y":25.213566916904519}},{"attributes":{"OBJECTID":3758,"LANDMARKID":"1000100002522","LANDMARKCO":"503","LANDMARKNA":"蜂窩岩","LANDMARKAD":"1000128","ADDRESS":"新北市萬里區","TEL":" ","COUNTYNAME":"新北市","TOWNNAME":"萬里區","MARKTYPE":"995","Class":"5"},"geometry":{"x":121.69888439398618,"y":25.212318682244153}},{"attributes":{"OBJECTID":3759,"LANDMARKID":"1000100002523","LANDMARKCO":"503","LANDMARKNA":"珠石","LANDMARKAD":"1000128","ADDRESS":"新北市萬里區","TEL":" ","COUNTYNAME":"新北市","TOWNNAME":"萬里區","MARKTYPE":"995","Class":"5"},"geometry":{"x":121.69917396446476,"y":25.21283672773821}},{"attributes":{"OBJECTID":3760,"LANDMARKID":"1000100002572","LANDMARKCO":"505","LANDMARKNA":"野柳海洋世界","LANDMARKAD":"1000128","ADDRESS":"新北市萬里區港東路167之3號","TEL":"02-24921111","COUNTYNAME":"新北市","TOWNNAME":"萬里區","MARKTYPE":"995","Class":"5"},"geometry":{"x":121.69122026344689,"y":25.205504346427603}},{"attributes":{"OBJECTID":3761,"LANDMARKID":"1000100002573","LANDMARKCO":"505","LANDMARKNA":"海王新遊艇樂園","LANDMARKAD":"1000128","ADDRESS":"新北市萬里區港東路162之17號","TEL":"02-24921609","COUNTYNAME":"新北市","TOWNNAME":"萬里區","MARKTYPE":"995","Class":"5"},"geometry":{"x":121.69176848850715,"y":25.204784365074907}},{"attributes":{"OBJECTID":3762,"LANDMARKID":"1000100002630","LANDMARKCO":"508","LANDMARKNA":"喜凱亞溫泉酒店","LANDMARKAD":"1000128","ADDRESS":"新北市萬里區大鵬村萬里加投166之1號","TEL":"02-24082559","COUNTYNAME":"新北市","TOWNNAME":"萬里區","MARKTYPE":"995","Class":"5"},"geometry":{"x":121.64348054848956,"y":25.215249630205754}},{"attributes":{"OBJECTID":3763,"LANDMARKID":"1000100002631","LANDMARKCO":"508","LANDMARKNA":"大鵬村硫磺溫泉","LANDMARKAD":"1000128","ADDRESS":"新北市萬里區加投路250之5號","TEL":"02-24980779","COUNTYNAME":"新北市","TOWNNAME":"萬里區","MARKTYPE":"995","Class":"5"},"geometry":{"x":121.64432108822217,"y":25.215340635109619}},{"attributes":{"OBJECTID":3764,"LANDMARKID":"1000100002632","LANDMARKCO":"508","LANDMARKNA":"金湯溫泉養生館","LANDMARKAD":"1000128","ADDRESS":"新北市萬里區加投路197之5號","TEL":"02-24988788","COUNTYNAME":"新北市","TOWNNAME":"萬里區","MARKTYPE":"995","Class":"5"},"geometry":{"x":121.64411823351524,"y":25.21518993858303}},{"attributes":{"OBJECTID":3765,"LANDMARKID":"1000100002574","LANDMARKCO":"505","LANDMARKNA":"海王星遊艇樂園","LANDMARKAD":"1000128","ADDRESS":"新北市萬里區港東路167之17號","TEL":" ","COUNTYNAME":"新北市","TOWNNAME":"萬里區","MARKTYPE":"995","Class":"5"},"geometry":{"x":121.6914476511048,"y":25.205980624445818}},{"attributes":{"OBJECTID":3766,"LANDMARKID":"1000100002512","LANDMARKCO":"503","LANDMARKNA":"野柳風景特定區","LANDMARKAD":"1000128","ADDRESS":"新北市萬里區港東路167之1號","TEL":" ","COUNTYNAME":"新北市","TOWNNAME":"萬里區","MARKTYPE":"995","Class":"5"},"geometry":{"x":121.69242654752189,"y":25.207446817331657}},{"attributes":{"OBJECTID":3767,"LANDMARKID":"1000100002689","LANDMARKCO":"510","LANDMARKNA":"翡翠高爾夫球場","LANDMARKAD":"1000128","ADDRESS":"新北市萬里區仁七街16-1號","TEL":"02-24924935","COUNTYNAME":"新北市","TOWNNAME":"萬里區","MARKTYPE":"995","Class":"5"},"geometry":{"x":121.6737244043827,"y":25.180067955652536}},{"attributes":{"OBJECTID":3768,"LANDMARKID":"1000100002626","LANDMARKCO":"508","LANDMARKNA":"金湧泉溫泉汽車旅館","LANDMARKAD":"1000128","ADDRESS":" ","TEL":" ","COUNTYNAME":"新北市","TOWNNAME":"萬里區","MARKTYPE":"995","Class":"5"},"geometry":{"x":121.64438151941302,"y":25.217448125444726}},{"attributes":{"OBJECTID":3769,"LANDMARKID":"1000100002627","LANDMARKCO":"508","LANDMARKNA":"萬里仙境溫泉會館","LANDMARKAD":"1000128","ADDRESS":" ","TEL":" ","COUNTYNAME":"新北市","TOWNNAME":"萬里區","MARKTYPE":"995","Class":"5"},"geometry":{"x":121.64273666155214,"y":25.215960948370938}},{"attributes":{"OBJECTID":3770,"LANDMARKID":"1000100002628","LANDMARKCO":"508","LANDMARKNA":"火山浴溫泉館","LANDMARKAD":"1000128","ADDRESS":" ","TEL":" ","COUNTYNAME":"新北市","TOWNNAME":"萬里區","MARKTYPE":"995","Class":"5"},"geometry":{"x":121.64415120183871,"y":25.215554340176141}},{"attributes":{"OBJECTID":3771,"LANDMARKID":"1000100002629","LANDMARKCO":"508","LANDMARKNA":"香草花源","LANDMARKAD":"1000128","ADDRESS":" ","TEL":" ","COUNTYNAME":"新北市","TOWNNAME":"萬里區","MARKTYPE":"995","Class":"5"},"geometry":{"x":121.64826362771197,"y":25.211351782292688}},{"attributes":{"OBJECTID":3772,"LANDMARKID":"1000100001899","LANDMARKCO":"405","LANDMARKNA":"中油加油站-八里站(中油直營)","LANDMARKAD":"1000123","ADDRESS":"新北市八里區中山路一段1號","TEL":"02-26104191","COUNTYNAME":"新北市","TOWNNAME":"八里區","MARKTYPE":"994","Class":"4"},"geometry":{"x":121.42278511380312,"y":25.158656453992442}},{"attributes":{"OBJECTID":3773,"LANDMARKID":"1000100001900","LANDMARKCO":"405","LANDMARKNA":"統一速邁樂加油站-八里加油站(中油)","LANDMARKAD":"1000123","ADDRESS":"新北市八里區米倉村龍米路二段151號","TEL":" ","COUNTYNAME":"新北市","TOWNNAME":"八里區","MARKTYPE":"994","Class":"4"},"geometry":{"x":121.4412189942578,"y":25.152223136755154}},{"attributes":{"OBJECTID":3774,"LANDMARKID":"1000100001901","LANDMARKCO":"405","LANDMARKNA":"中油加油站-車容坊關渡橋站","LANDMARKAD":"1000123","ADDRESS":"新北市八里區龍米路二段72-1號","TEL":"02-26183987","COUNTYNAME":"新北市","TOWNNAME":"八里區","MARKTYPE":"994","Class":"4"},"geometry":{"x":121.44068634145037,"y":25.152851500498329}},{"attributes":{"OBJECTID":3775,"LANDMARKID":"1000100001902","LANDMARKCO":"405","LANDMARKNA":"中油加油站-八里中華路站(中油直營)","LANDMARKAD":"1000123","ADDRESS":"新北市八里區中華路二段39號","TEL":"02-86302525","COUNTYNAME":"新北市","TOWNNAME":"八里區","MARKTYPE":"994","Class":"4"},"geometry":{"x":121.41212865574492,"y":25.153212323490038}},{"attributes":{"OBJECTID":3776,"LANDMARKID":"1000100001903","LANDMARKCO":"405","LANDMARKNA":"中油加油站-獅子頭站","LANDMARKAD":"1000123","ADDRESS":"新北市八里區龍米路一段50號","TEL":"02-26183718","COUNTYNAME":"新北市","TOWNNAME":"八里區","MARKTYPE":"994","Class":"4"},"geometry":{"x":121.45644146290188,"y":25.120107335039574}},{"attributes":{"OBJECTID":3777,"LANDMARKID":"1000100001904","LANDMARKCO":"405","LANDMARKNA":"中油加油站-八仙站","LANDMARKAD":"1000123","ADDRESS":"新北市八里區龍米路一段51號","TEL":"02-26182297","COUNTYNAME":"新北市","TOWNNAME":"八里區","MARKTYPE":"994","Class":"4"},"geometry":{"x":121.45612078259897,"y":25.119504694721115}},{"attributes":{"OBJECTID":3778,"LANDMARKID":"1000100001592","LANDMARKCO":"401","LANDMARKNA":"行政院衛生署八里療養院","LANDMARKAD":"1000123","ADDRESS":"新北市八里區華富山路33號","TEL":"02-26101660","COUNTYNAME":"新北市","TOWNNAME":"八里區","MARKTYPE":"994","Class":"4"},"geometry":{"x":121.41140647537242,"y":25.145798579096411}},{"attributes":{"OBJECTID":3779,"LANDMARKID":"1000100002615","LANDMARKCO":"507","LANDMARKNA":"大坌坑遺址","LANDMARKAD":"1000123","ADDRESS":"新北市八里區小八里坌段","TEL":" ","COUNTYNAME":"新北市","TOWNNAME":"八里區","MARKTYPE":"995","Class":"5"},"geometry":{"x":121.40952397802639,"y":25.147040876470982}},{"attributes":{"OBJECTID":3780,"LANDMARKID":"1000100002616","LANDMARKCO":"507","LANDMARKNA":"十三行遺址","LANDMARKAD":"1000123","ADDRESS":"新北市八里區頂罟村信義路186號","TEL":" ","COUNTYNAME":"新北市","TOWNNAME":"八里區","MARKTYPE":"995","Class":"5"},"geometry":{"x":121.41006268207504,"y":25.164321093126411}},{"attributes":{"OBJECTID":3781,"LANDMARKID":"1000100002585","LANDMARKCO":"506","LANDMARKNA":"牛寮埔觀光果園","LANDMARKAD":"1000123","ADDRESS":"新北市八里區牛寮埔","TEL":"02-26102996","COUNTYNAME":"新北市","TOWNNAME":"八里區","MARKTYPE":"995","Class":"5"},"geometry":{"x":121.4347012085027,"y":25.142466815569364}},{"attributes":{"OBJECTID":3782,"LANDMARKID":"1000100002586","LANDMARKCO":"506","LANDMARKNA":"荖阡坑文旦觀光果園","LANDMARKAD":"1000123","ADDRESS":"新北市八里區荖阡村","TEL":"02-26102996","COUNTYNAME":"新北市","TOWNNAME":"八里區","MARKTYPE":"995","Class":"5"},"geometry":{"x":121.40161932494458,"y":25.131869350182107}},{"attributes":{"OBJECTID":3783,"LANDMARKID":"1000100002419","LANDMARKCO":"408","LANDMARKNA":"郵局-八里郵局","LANDMARKAD":"1000123","ADDRESS":"新北市八里區訊塘路13號","TEL":"(02)2610-2045","COUNTYNAME":"新北市","TOWNNAME":"八里區","MARKTYPE":"994","Class":"4"},"geometry":{"x":121.39785937454656,"y":25.144868369783993}},{"attributes":{"OBJECTID":3784,"LANDMARKID":"1000100002420","LANDMARKCO":"408","LANDMARKNA":"郵局-八里龍形郵局","LANDMARKAD":"1000123","ADDRESS":"新北市八里區龍形二街7號","TEL":"(02)2618-6468","COUNTYNAME":"新北市","TOWNNAME":"八里區","MARKTYPE":"994","Class":"4"},"geometry":{"x":121.45053712016494,"y":25.131133447557144}},{"attributes":{"OBJECTID":3785,"LANDMARKID":"1000100002453","LANDMARKCO":"409","LANDMARKNA":"新北市八里區農會","LANDMARKAD":"1000123","ADDRESS":"新北市八里區中山路二段366號","TEL":"02-26102996","COUNTYNAME":"新北市","TOWNNAME":"八里區","MARKTYPE":"994","Class":"4"},"geometry":{"x":121.41037911572425,"y":25.157395803202746}},{"attributes":{"OBJECTID":3786,"LANDMARKID":"1000100002258","LANDMARKCO":"406","LANDMARKNA":"社區公園","LANDMARKAD":"1000123","ADDRESS":"新北市八里區","TEL":" ","COUNTYNAME":"新北市","TOWNNAME":"八里區","MARKTYPE":"994","Class":"4"},"geometry":{"x":121.39617353751763,"y":25.145693898526321}},{"attributes":{"OBJECTID":3787,"LANDMARKID":"1000100002259","LANDMARKCO":"406","LANDMARKNA":"添丁公園","LANDMARKAD":"1000123","ADDRESS":"新北市八里區","TEL":" ","COUNTYNAME":"新北市","TOWNNAME":"八里區","MARKTYPE":"994","Class":"4"},"geometry":{"x":121.39539283892914,"y":25.143609697970696}},{"attributes":{"OBJECTID":3788,"LANDMARKID":"1000100002260","LANDMARKCO":"406","LANDMARKNA":"龍米二號公園","LANDMARKAD":"1000123","ADDRESS":"新北市八里區","TEL":" ","COUNTYNAME":"新北市","TOWNNAME":"八里區","MARKTYPE":"994","Class":"4"},"geometry":{"x":121.44318639163079,"y":25.150780077861313}},{"attributes":{"OBJECTID":3789,"LANDMARKID":"1000100002261","LANDMARKCO":"406","LANDMARKNA":"龍米河濱公園","LANDMARKAD":"1000123","ADDRESS":"新北市八里區","TEL":" ","COUNTYNAME":"新北市","TOWNNAME":"八里區","MARKTYPE":"994","Class":"4"},"geometry":{"x":121.44478832609792,"y":25.148805724488703}},{"attributes":{"OBJECTID":3790,"LANDMARKID":"1000100001897","LANDMARKCO":"405","LANDMARKNA":"台塑加油站-龍形站(台塑)","LANDMARKAD":"1000123","ADDRESS":"新北市八里區龍米路二段150號","TEL":"02-86302559","COUNTYNAME":"新北市","TOWNNAME":"八里區","MARKTYPE":"994","Class":"4"},"geometry":{"x":121.44024913251201,"y":25.153320454288867}},{"attributes":{"OBJECTID":3791,"LANDMARKID":"1000100001898","LANDMARKCO":"405","LANDMARKNA":"台亞加油站-八里台北港站（台塑）","LANDMARKAD":"1000123","ADDRESS":"新北市八里區中華路2段341號","TEL":"(02)2610-1936","COUNTYNAME":"新北市","TOWNNAME":"八里區","MARKTYPE":"994","Class":"4"},"geometry":{"x":121.40121609279956,"y":25.146034219639688}},{"attributes":{"OBJECTID":3792,"LANDMARKID":"1000100000106","LANDMARKCO":"103","LANDMARKNA":"新北市八里區衛生所","LANDMARKAD":"1000123","ADDRESS":"新北市八里區舊城村舊城路16號","TEL":"02-26102137","COUNTYNAME":"新北市","TOWNNAME":"八里區","MARKTYPE":"991","Class":"1"},"geometry":{"x":121.40166296688835,"y":25.148168970224635}},{"attributes":{"OBJECTID":3793,"LANDMARKID":"1000100000406","LANDMARKCO":"108","LANDMARKNA":"新北市八里區公所","LANDMARKAD":"1000123","ADDRESS":"新北市八里區中山路二段356巷16號","TEL":"02-26102621","COUNTYNAME":"新北市","TOWNNAME":"八里區","MARKTYPE":"991","Class":"1"},"geometry":{"x":121.39875096629767,"y":25.147274416344924}},{"attributes":{"OBJECTID":3794,"LANDMARKID":"1000100000105","LANDMARKCO":"103","LANDMARKNA":"新北市八里區鄉民代表會","LANDMARKAD":"1000123","ADDRESS":"新北市八里區中山路135號","TEL":"02-26102021","COUNTYNAME":"新北市","TOWNNAME":"八里區","MARKTYPE":"991","Class":"1"},"geometry":{"x":121.40080703011274,"y":25.147722200531962}},{"attributes":{"OBJECTID":3795,"LANDMARKID":"1000100000380","LANDMARKCO":"107","LANDMARKNA":"新北市消防局龍源分隊","LANDMARKAD":"1000123","ADDRESS":"新北市八里區龍源村龍米路一段225號","TEL":"02-26181730","COUNTYNAME":"新北市","TOWNNAME":"八里區","MARKTYPE":"991","Class":"1"},"geometry":{"x":121.45125935999538,"y":25.130783299369874}},{"attributes":{"OBJECTID":3796,"LANDMARKID":"1000100000381","LANDMARKCO":"107","LANDMARKNA":"新北市消防局八里分隊","LANDMARKAD":"1000123","ADDRESS":"新北市八里區中山路2段76號","TEL":"02-26102718","COUNTYNAME":"新北市","TOWNNAME":"八里區","MARKTYPE":"991","Class":"1"},"geometry":{"x":121.39911875543613,"y":25.146008520102466}},{"attributes":{"OBJECTID":3797,"LANDMARKID":"1000100000382","LANDMARKCO":"107","LANDMARKNA":"新北市政府警察局龍源派出所","LANDMARKAD":"1000123","ADDRESS":"新北市八里區龍米路一段225號","TEL":"02-26182245","COUNTYNAME":"新北市","TOWNNAME":"八里區","MARKTYPE":"991","Class":"1"},"geometry":{"x":121.45122724311462,"y":25.130422400002139}},{"attributes":{"OBJECTID":3798,"LANDMARKID":"1000100000383","LANDMARKCO":"107","LANDMARKNA":"新北市政府警察局八里分駐所","LANDMARKAD":"1000123","ADDRESS":"新北市八里區訊塘路37號","TEL":"02-26102116","COUNTYNAME":"新北市","TOWNNAME":"八里區","MARKTYPE":"991","Class":"1"},"geometry":{"x":121.39873481937212,"y":25.144927210922503}},{"attributes":{"OBJECTID":3799,"LANDMARKID":"1000100000145","LANDMARKCO":"106","LANDMARKNA":"新北市八里區戶政事務所","LANDMARKAD":"1000123","ADDRESS":"新北市八里區訊塘路39號","TEL":"02-26102204","COUNTYNAME":"新北市","TOWNNAME":"八里區","MARKTYPE":"991","Class":"1"},"geometry":{"x":121.39782234854933,"y":25.144932117090033}},{"attributes":{"OBJECTID":3800,"LANDMARKID":"1000100000913","LANDMARKCO":"205","LANDMARKNA":"十三行博物館","LANDMARKAD":"1000123","ADDRESS":"新北市八里區博物館路200號","TEL":"02-26191313","COUNTYNAME":"新北市","TOWNNAME":"八里區","MARKTYPE":"992","Class":"2"},"geometry":{"x":121.40456740213037,"y":25.157071786925332}}]}