{"displayFieldName":"COUNTYNAME","fieldAliases":{"OBJECTID":"OBJECTID","LANDMARKID":"LANDMARKID","LANDMARKCO":"LANDMARKCO","LANDMARKNA":"LANDMARKNA","LANDMARKAD":"LANDMARKAD","ADDRESS":"ADDRESS","TEL":"TEL","COUNTYNAME":"COUNTYNAME","TOWNNAME":"TOWNNAME","MARKTYPE":"MARKTYPE","Class":"Class"},"geometryType":"esriGeometryPoint","spatialReference":{"wkid":4326},"fields":[{"name":"OBJECTID","type":"esriFieldTypeOID","alias":"OBJECTID"},{"name":"LANDMARKID","type":"esriFieldTypeString","alias":"LANDMARKID","length":15},{"name":"LANDMARKCO","type":"esriFieldTypeString","alias":"LANDMARKCO","length":15},{"name":"LANDMARKNA","type":"esriFieldTypeString","alias":"LANDMARKNA","length":50},{"name":"LANDMARKAD","type":"esriFieldTypeString","alias":"LANDMARKAD","length":15},{"name":"ADDRESS","type":"esriFieldTypeString","alias":"ADDRESS","length":56},{"name":"TEL","type":"esriFieldTypeString","alias":"TEL","length":36},{"name":"COUNTYNAME","type":"esriFieldTypeString","alias":"COUNTYNAME","length":15},{"name":"TOWNNAME","type":"esriFieldTypeString","alias":"TOWNNAME","length":13},{"name":"MARKTYPE","type":"esriFieldTypeString","alias":"MARKTYPE","length":12},{"name":"Class","type":"esriFieldTypeString","alias":"Class","length":5}],"features":[{"attributes":{"OBJECTID":24401,"LANDMARKID":"1001500000128","LANDMARKCO":"107","LANDMARKNA":"花蓮縣警察局富源派出所","LANDMARKAD":"1001509","ADDRESS":"花蓮縣瑞穗鄉富源村中正路159號","TEL":"03-8811014","COUNTYNAME":"花蓮縣","TOWNNAME":"瑞穗鄉","MARKTYPE":"991","Class":"1"},"geometry":{"x":121.37639682307871,"y":23.576916828601654}},{"attributes":{"OBJECTID":24402,"LANDMARKID":"1001500000129","LANDMARKCO":"107","LANDMARKNA":"花蓮縣警察局奇美派出所","LANDMARKAD":"1001509","ADDRESS":"花蓮縣瑞穗鄉奇美村2鄰20號","TEL":"03-8991071","COUNTYNAME":"花蓮縣","TOWNNAME":"瑞穗鄉","MARKTYPE":"991","Class":"1"},"geometry":{"x":121.44756410106939,"y":23.496364185450176}},{"attributes":{"OBJECTID":24403,"LANDMARKID":"1001500000130","LANDMARKCO":"107","LANDMARKNA":"花蓮縣警察局舞鶴派出所","LANDMARKAD":"1001509","ADDRESS":"花蓮縣瑞穗鄉舞鶴村1鄰舞鶴村59號","TEL":"03-8872874","COUNTYNAME":"花蓮縣","TOWNNAME":"瑞穗鄉","MARKTYPE":"991","Class":"1"},"geometry":{"x":121.3521654617671,"y":23.457685497293404}},{"attributes":{"OBJECTID":24404,"LANDMARKID":"1001500000131","LANDMARKCO":"107","LANDMARKNA":"花蓮縣警察局鶴岡派出所","LANDMARKAD":"1001509","ADDRESS":"花蓮縣瑞穗鄉鶴岡村17鄰169號","TEL":"03-8871440","COUNTYNAME":"花蓮縣","TOWNNAME":"瑞穗鄉","MARKTYPE":"991","Class":"1"},"geometry":{"x":121.39011871099665,"y":23.523335616606865}},{"attributes":{"OBJECTID":24405,"LANDMARKID":"1001500000044","LANDMARKCO":"101","LANDMARKNA":"中央研究院地球科學研究所","LANDMARKAD":"1001509","ADDRESS":"花蓮縣瑞穗鄉瑞北村135號之3","TEL":"03-8871646","COUNTYNAME":"花蓮縣","TOWNNAME":"瑞穗鄉","MARKTYPE":"991","Class":"1"},"geometry":{"x":121.37592853192018,"y":23.513980152106406}},{"attributes":{"OBJECTID":24406,"LANDMARKID":"1001500000134","LANDMARKCO":"107","LANDMARKNA":"花蓮縣消防局富源消防分隊","LANDMARKAD":"1001509","ADDRESS":"花蓮縣瑞穗鄉富源村中正路157號","TEL":"03-8811885","COUNTYNAME":"花蓮縣","TOWNNAME":"瑞穗鄉","MARKTYPE":"991","Class":"1"},"geometry":{"x":121.37638702629921,"y":23.576916875806404}},{"attributes":{"OBJECTID":24407,"LANDMARKID":"1001500000413","LANDMARKCO":"204","LANDMARKNA":"花蓮縣立圖書館瑞穗分館","LANDMARKAD":"1001509","ADDRESS":"花蓮縣瑞穗鄉中山路二段377號","TEL":" ","COUNTYNAME":"花蓮縣","TOWNNAME":"瑞穗鄉","MARKTYPE":"992","Class":"2"},"geometry":{"x":121.39193891232189,"y":23.493351326551739}},{"attributes":{"OBJECTID":24408,"LANDMARKID":"1001500000276","LANDMARKCO":"203","LANDMARKNA":"縣立瑞穗國中","LANDMARKAD":"1001509","ADDRESS":"花蓮縣瑞穗鄉成功北路18號","TEL":"03-8873111","COUNTYNAME":"花蓮縣","TOWNNAME":"瑞穗鄉","MARKTYPE":"992","Class":"2"},"geometry":{"x":121.37438494958239,"y":23.499352305336611}},{"attributes":{"OBJECTID":24409,"LANDMARKID":"1001500000277","LANDMARKCO":"203","LANDMARKNA":"縣立瑞美國小","LANDMARKAD":"1001509","ADDRESS":"花蓮縣瑞穗鄉中山路二段389號","TEL":"03-8872014","COUNTYNAME":"花蓮縣","TOWNNAME":"瑞穗鄉","MARKTYPE":"992","Class":"2"},"geometry":{"x":121.39211273521235,"y":23.492540233201652}},{"attributes":{"OBJECTID":24410,"LANDMARKID":"1001500000278","LANDMARKCO":"203","LANDMARKNA":"縣立瑞穗國小","LANDMARKAD":"1001509","ADDRESS":"花蓮縣瑞穗鄉溫泉路一段19號","TEL":"03-8872054","COUNTYNAME":"花蓮縣","TOWNNAME":"瑞穗鄉","MARKTYPE":"992","Class":"2"},"geometry":{"x":121.37455149172331,"y":23.497635787294218}},{"attributes":{"OBJECTID":24411,"LANDMARKID":"1001500000279","LANDMARKCO":"203","LANDMARKNA":"縣立鶴岡國小","LANDMARKAD":"1001509","ADDRESS":"花蓮縣瑞穗鄉鶴岡村167號","TEL":"03-8872740","COUNTYNAME":"花蓮縣","TOWNNAME":"瑞穗鄉","MARKTYPE":"992","Class":"2"},"geometry":{"x":121.39038045389989,"y":23.52288280171398}},{"attributes":{"OBJECTID":24412,"LANDMARKID":"1001500000280","LANDMARKCO":"203","LANDMARKNA":"縣立瑞北國小","LANDMARKAD":"1001509","ADDRESS":"花蓮縣瑞穗鄉瑞北村35號","TEL":"03-8872642","COUNTYNAME":"花蓮縣","TOWNNAME":"瑞穗鄉","MARKTYPE":"992","Class":"2"},"geometry":{"x":121.37914741897036,"y":23.525890867676154}},{"attributes":{"OBJECTID":24413,"LANDMARKID":"1001500000281","LANDMARKCO":"203","LANDMARKNA":"縣立富源國小","LANDMARKAD":"1001509","ADDRESS":"花蓮縣瑞穗鄉富源村30號","TEL":"03-8811029","COUNTYNAME":"花蓮縣","TOWNNAME":"瑞穗鄉","MARKTYPE":"992","Class":"2"},"geometry":{"x":121.375231828512,"y":23.578457543819873}},{"attributes":{"OBJECTID":24414,"LANDMARKID":"1001500000282","LANDMARKCO":"203","LANDMARKNA":"縣立奇美國小","LANDMARKAD":"1001509","ADDRESS":"花蓮縣瑞穗鄉奇美村47號","TEL":"03-8991077","COUNTYNAME":"花蓮縣","TOWNNAME":"瑞穗鄉","MARKTYPE":"992","Class":"2"},"geometry":{"x":121.44600059308186,"y":23.496816707229208}},{"attributes":{"OBJECTID":24415,"LANDMARKID":"1001500000283","LANDMARKCO":"203","LANDMARKNA":"縣立舞鶴國小","LANDMARKAD":"1001509","ADDRESS":"花蓮縣瑞穗鄉舞鶴村64號","TEL":"03-8872394","COUNTYNAME":"花蓮縣","TOWNNAME":"瑞穗鄉","MARKTYPE":"992","Class":"2"},"geometry":{"x":121.35232093061576,"y":23.458858697191385}},{"attributes":{"OBJECTID":24416,"LANDMARKID":"1001500000284","LANDMARKCO":"203","LANDMARKNA":"縣立馬遠國小","LANDMARKAD":"1001509","ADDRESS":"花蓮縣萬榮鄉馬遠村39號","TEL":"03-8811371","COUNTYNAME":"花蓮縣","TOWNNAME":"瑞穗鄉","MARKTYPE":"992","Class":"2"},"geometry":{"x":121.36176901516774,"y":23.576772813680286}},{"attributes":{"OBJECTID":24417,"LANDMARKID":"1001500000457","LANDMARKCO":"302","LANDMARKNA":"花蓮汽車客運瑞穗站","LANDMARKAD":"1001509","ADDRESS":"花蓮縣瑞穗鄉中華路19號","TEL":" ","COUNTYNAME":"花蓮縣","TOWNNAME":"瑞穗鄉","MARKTYPE":"993","Class":"302"},"geometry":{"x":121.37804614710127,"y":23.498118646888425}},{"attributes":{"OBJECTID":24418,"LANDMARKID":"1001500000498","LANDMARKCO":"303","LANDMARKNA":"中口標誌休息區停車場","LANDMARKAD":"1001509","ADDRESS":"花蓮縣瑞穗鄉鶴崗村","TEL":" ","COUNTYNAME":"花蓮縣","TOWNNAME":"瑞穗鄉","MARKTYPE":"993","Class":"303"},"geometry":{"x":121.38292159734512,"y":23.587343321907227}},{"attributes":{"OBJECTID":24419,"LANDMARKID":"1001500000499","LANDMARKCO":"303","LANDMARKNA":"奇美泛舟中途站停車場","LANDMARKAD":"1001509","ADDRESS":"花蓮縣瑞穗鄉奇美村","TEL":" ","COUNTYNAME":"花蓮縣","TOWNNAME":"瑞穗鄉","MARKTYPE":"993","Class":"303"},"geometry":{"x":121.4462835981477,"y":23.499066083982207}},{"attributes":{"OBJECTID":24420,"LANDMARKID":"1001500000500","LANDMARKCO":"303","LANDMARKNA":"瑞港3、5瞭望台停車場","LANDMARKAD":"1001509","ADDRESS":"花蓮縣瑞穗鄉瑞港公路","TEL":" ","COUNTYNAME":"花蓮縣","TOWNNAME":"瑞穗鄉","MARKTYPE":"993","Class":"303"},"geometry":{"x":121.42751239978246,"y":23.496293402374526}},{"attributes":{"OBJECTID":24421,"LANDMARKID":"1001500000501","LANDMARKCO":"303","LANDMARKNA":"瑞穗泛舟中心停車場","LANDMARKAD":"1001509","ADDRESS":"花蓮縣瑞穗鄉中山路三段215號","TEL":" ","COUNTYNAME":"花蓮縣","TOWNNAME":"瑞穗鄉","MARKTYPE":"993","Class":"303"},"geometry":{"x":121.39721984964093,"y":23.49093179067787}},{"attributes":{"OBJECTID":24422,"LANDMARKID":"1001500000445","LANDMARKCO":"301","LANDMARKNA":"瑞北火車站(閒)","LANDMARKAD":"1001509","ADDRESS":"花蓮縣瑞穗鄉","TEL":"089-580159","COUNTYNAME":"花蓮縣","TOWNNAME":"瑞穗鄉","MARKTYPE":"993","Class":"301"},"geometry":{"x":121.37733406065313,"y":23.526393268194646}},{"attributes":{"OBJECTID":24423,"LANDMARKID":"1001500000446","LANDMARKCO":"301","LANDMARKNA":"瑞穗火車站","LANDMARKAD":"1001509","ADDRESS":"花蓮縣瑞穗鄉四維街13號","TEL":"03-8875039","COUNTYNAME":"花蓮縣","TOWNNAME":"瑞穗鄉","MARKTYPE":"993","Class":"301"},"geometry":{"x":121.37704628456191,"y":23.497537188829412}},{"attributes":{"OBJECTID":24424,"LANDMARKID":"1001500000447","LANDMARKCO":"301","LANDMARKNA":"富源火車站","LANDMARKAD":"1001509","ADDRESS":"花蓮縣瑞穗鄉富源路2號","TEL":"03-8811824","COUNTYNAME":"花蓮縣","TOWNNAME":"瑞穗鄉","MARKTYPE":"993","Class":"301"},"geometry":{"x":121.3801937272966,"y":23.580641613375708}},{"attributes":{"OBJECTID":24425,"LANDMARKID":"1001500000557","LANDMARKCO":"402","LANDMARKNA":"中華電信-瑞穗服務中心","LANDMARKAD":"1001509","ADDRESS":"花蓮縣瑞穗鄉中山路一段176號","TEL":"(03)887-2932","COUNTYNAME":"花蓮縣","TOWNNAME":"瑞穗鄉","MARKTYPE":"994","Class":"4"},"geometry":{"x":121.38139890049212,"y":23.496495007449486}},{"attributes":{"OBJECTID":24426,"LANDMARKID":"1001500001298","LANDMARKCO":"604","LANDMARKNA":"國小前民宿","LANDMARKAD":"1001509","ADDRESS":"花蓮縣瑞穗鄉瑞穗村溫泉路1段48-1號","TEL":"03-8527173","COUNTYNAME":"花蓮縣","TOWNNAME":"瑞穗鄉","MARKTYPE":"996","Class":"6"},"geometry":{"x":121.374396989525,"y":23.49691885975432}},{"attributes":{"OBJECTID":24427,"LANDMARKID":"1001500001299","LANDMARKCO":"604","LANDMARKNA":"瑞穗邦札民宿","LANDMARKAD":"1001509","ADDRESS":"花蓮縣瑞穗鄉瑞穗村溫泉路1段48號","TEL":"0925-871705","COUNTYNAME":"花蓮縣","TOWNNAME":"瑞穗鄉","MARKTYPE":"996","Class":"6"},"geometry":{"x":121.37407780767323,"y":23.496856626533614}},{"attributes":{"OBJECTID":24428,"LANDMARKID":"1001500001300","LANDMARKCO":"604","LANDMARKNA":"瑞穗檳城休閒渡假農莊民宿","LANDMARKAD":"1001509","ADDRESS":"花蓮縣瑞穗鄉瑞美村中山路2段111號","TEL":"03-8872040","COUNTYNAME":"花蓮縣","TOWNNAME":"瑞穗鄉","MARKTYPE":"996","Class":"6"},"geometry":{"x":121.38505170629642,"y":23.495031833345859}},{"attributes":{"OBJECTID":24429,"LANDMARKID":"1001500001301","LANDMARKCO":"604","LANDMARKNA":"瑞穗民宿","LANDMARKAD":"1001509","ADDRESS":"花蓮縣瑞穗鄉國光北路85-10號","TEL":"03-8876476","COUNTYNAME":"花蓮縣","TOWNNAME":"瑞穗鄉","MARKTYPE":"996","Class":"6"},"geometry":{"x":121.38047932193591,"y":23.499424496301451}},{"attributes":{"OBJECTID":24430,"LANDMARKID":"1001500001302","LANDMARKCO":"604","LANDMARKNA":"瑞穗箱根民宿","LANDMARKAD":"1001509","ADDRESS":"花蓮縣瑞穗鄉瑞良村信義路57號","TEL":"0928-875087","COUNTYNAME":"花蓮縣","TOWNNAME":"瑞穗鄉","MARKTYPE":"996","Class":"6"},"geometry":{"x":121.39321396288632,"y":23.490899173346687}},{"attributes":{"OBJECTID":24431,"LANDMARKID":"1001500001303","LANDMARKCO":"604","LANDMARKNA":"知音民宿","LANDMARKAD":"1001509","ADDRESS":"花蓮縣瑞穗鄉瑞美村中山路2段161巷6號","TEL":"03-8870351","COUNTYNAME":"花蓮縣","TOWNNAME":"瑞穗鄉","MARKTYPE":"996","Class":"6"},"geometry":{"x":121.38631988054325,"y":23.494027552429607}},{"attributes":{"OBJECTID":24432,"LANDMARKID":"1001500001304","LANDMARKCO":"604","LANDMARKNA":"夢之鄉民宿","LANDMARKAD":"1001509","ADDRESS":"花蓮縣瑞穗鄉瑞美村中山路2段167號","TEL":"03-8870066","COUNTYNAME":"花蓮縣","TOWNNAME":"瑞穗鄉","MARKTYPE":"996","Class":"6"},"geometry":{"x":121.38730333816622,"y":23.49456011142459}},{"attributes":{"OBJECTID":24433,"LANDMARKID":"1001500001305","LANDMARKCO":"604","LANDMARKNA":"昕宸的屋民宿","LANDMARKAD":"1001509","ADDRESS":"花蓮縣瑞穗鄉瑞祥村溫泉路1段300號","TEL":"038-8873761","COUNTYNAME":"花蓮縣","TOWNNAME":"瑞穗鄉","MARKTYPE":"996","Class":"6"},"geometry":{"x":121.36995709038305,"y":23.495909854466824}},{"attributes":{"OBJECTID":24434,"LANDMARKID":"1001500001306","LANDMARKCO":"604","LANDMARKNA":"弘果民宿","LANDMARKAD":"1001509","ADDRESS":"花蓮縣瑞穗鄉瑞穗村中正北路24巷2號","TEL":"03-8872522","COUNTYNAME":"花蓮縣","TOWNNAME":"瑞穗鄉","MARKTYPE":"996","Class":"6"},"geometry":{"x":121.37727299688582,"y":23.49757258317959}},{"attributes":{"OBJECTID":24435,"LANDMARKID":"1001500001307","LANDMARKCO":"604","LANDMARKNA":"學緣民宿","LANDMARKAD":"1001509","ADDRESS":"花蓮縣瑞穗鄉瑞穗村中正北路45號","TEL":"03-8873877","COUNTYNAME":"花蓮縣","TOWNNAME":"瑞穗鄉","MARKTYPE":"996","Class":"6"},"geometry":{"x":121.37757409269112,"y":23.498658853603722}},{"attributes":{"OBJECTID":24436,"LANDMARKID":"1001500001308","LANDMARKCO":"604","LANDMARKNA":"苗鄉園民宿","LANDMARKAD":"1001509","ADDRESS":"花蓮縣瑞穗鄉瑞穗村中正北路652號","TEL":"03-8872964","COUNTYNAME":"花蓮縣","TOWNNAME":"瑞穗鄉","MARKTYPE":"996","Class":"6"},"geometry":{"x":121.37615450466498,"y":23.512345285977233}},{"attributes":{"OBJECTID":24437,"LANDMARKID":"1001500001309","LANDMARKCO":"604","LANDMARKNA":"大順民宿","LANDMARKAD":"1001509","ADDRESS":"花蓮縣瑞穗鄉瑞穗村成功南路122號","TEL":"03-8873211","COUNTYNAME":"花蓮縣","TOWNNAME":"瑞穗鄉","MARKTYPE":"996","Class":"6"},"geometry":{"x":121.37537257188221,"y":23.492928173599005}},{"attributes":{"OBJECTID":24438,"LANDMARKID":"1001500001310","LANDMARKCO":"604","LANDMARKNA":"信號ㄎㄚㄟ厝民宿","LANDMARKAD":"1001509","ADDRESS":"花蓮縣瑞穗鄉瑞穗村成功南路12號","TEL":"03-8771160","COUNTYNAME":"花蓮縣","TOWNNAME":"瑞穗鄉","MARKTYPE":"996","Class":"6"},"geometry":{"x":121.37625943970586,"y":23.495304034113296}},{"attributes":{"OBJECTID":24439,"LANDMARKID":"1001500001311","LANDMARKCO":"604","LANDMARKNA":"掃叭頂民宿","LANDMARKAD":"1001509","ADDRESS":"花蓮縣瑞穗鄉舞鶴村舞鶴211-1號","TEL":"03-8871378","COUNTYNAME":"花蓮縣","TOWNNAME":"瑞穗鄉","MARKTYPE":"996","Class":"6"},"geometry":{"x":121.35723230381768,"y":23.457155239680251}},{"attributes":{"OBJECTID":24440,"LANDMARKID":"1001500001312","LANDMARKCO":"604","LANDMARKNA":"東立茶行民宿","LANDMARKAD":"1001509","ADDRESS":"花蓮縣瑞穗鄉舞鶴村舞鶴251號","TEL":"03-8870027","COUNTYNAME":"花蓮縣","TOWNNAME":"瑞穗鄉","MARKTYPE":"996","Class":"6"},"geometry":{"x":121.35369558110666,"y":23.456899991876558}},{"attributes":{"OBJECTID":24441,"LANDMARKID":"1001500001313","LANDMARKCO":"604","LANDMARKNA":"林家茶園民宿","LANDMARKAD":"1001509","ADDRESS":"花蓮縣瑞穗鄉舞鶴村舞鶴74-8號","TEL":"03-8872722","COUNTYNAME":"花蓮縣","TOWNNAME":"瑞穗鄉","MARKTYPE":"996","Class":"6"},"geometry":{"x":121.35436275981215,"y":23.460491477237163}},{"attributes":{"OBJECTID":24442,"LANDMARKID":"1001500001314","LANDMARKCO":"604","LANDMARKNA":"清風茶園民宿","LANDMARKAD":"1001509","ADDRESS":"花蓮縣瑞穗鄉舞鶴村舞鶴76-20號","TEL":"03-8872710","COUNTYNAME":"花蓮縣","TOWNNAME":"瑞穗鄉","MARKTYPE":"996","Class":"6"},"geometry":{"x":121.35468008109416,"y":23.462638755729714}},{"attributes":{"OBJECTID":24443,"LANDMARKID":"1001500001315","LANDMARKCO":"604","LANDMARKNA":"鶴山山莊民宿","LANDMARKAD":"1001509","ADDRESS":"花蓮縣瑞穗鄉舞鶴村舞鶴76-26號","TEL":"03-8872929","COUNTYNAME":"花蓮縣","TOWNNAME":"瑞穗鄉","MARKTYPE":"996","Class":"6"},"geometry":{"x":121.35613528365603,"y":23.465112747134597}},{"attributes":{"OBJECTID":24444,"LANDMARKID":"1001500001316","LANDMARKCO":"604","LANDMARKNA":"柚子林民宿","LANDMARKAD":"1001509","ADDRESS":"花蓮縣瑞穗鄉瑞祥村溫泉路2段39號","TEL":"03-8872758","COUNTYNAME":"花蓮縣","TOWNNAME":"瑞穗鄉","MARKTYPE":"996","Class":"6"},"geometry":{"x":121.36641799630078,"y":23.495890143531469}},{"attributes":{"OBJECTID":24445,"LANDMARKID":"1001500001317","LANDMARKCO":"604","LANDMARKNA":"黃家民宿","LANDMARKAD":"1001509","ADDRESS":"花蓮縣瑞穗鄉瑞祥村瑞祥321號","TEL":"0932-655790","COUNTYNAME":"花蓮縣","TOWNNAME":"瑞穗鄉","MARKTYPE":"996","Class":"6"},"geometry":{"x":121.3569894206105,"y":23.496456791065665}},{"attributes":{"OBJECTID":24446,"LANDMARKID":"1001500001318","LANDMARKCO":"604","LANDMARKNA":"養和屋民宿","LANDMARKAD":"1001509","ADDRESS":"花蓮縣瑞穗鄉瑞穗村中正北路一段36號","TEL":"03-8872040","COUNTYNAME":"花蓮縣","TOWNNAME":"瑞穗鄉","MARKTYPE":"996","Class":"6"},"geometry":{"x":121.37742434024179,"y":23.496671216404447}},{"attributes":{"OBJECTID":24447,"LANDMARKID":"1001500000839","LANDMARKCO":"603","LANDMARKNA":"華榮旅社","LANDMARKAD":"1001509","ADDRESS":"花蓮縣瑞穗鄉中山路一段28號","TEL":"03-8872214","COUNTYNAME":"花蓮縣","TOWNNAME":"瑞穗鄉","MARKTYPE":"996","Class":"6"},"geometry":{"x":121.37789432383845,"y":23.497335787408719}},{"attributes":{"OBJECTID":24448,"LANDMARKID":"1001500000840","LANDMARKCO":"603","LANDMARKNA":"秀山園旅社","LANDMARKAD":"1001509","ADDRESS":"花蓮縣瑞穗鄉中正北路13號","TEL":"03-8872211","COUNTYNAME":"花蓮縣","TOWNNAME":"瑞穗鄉","MARKTYPE":"996","Class":"6"},"geometry":{"x":121.37761108135683,"y":23.497601763759508}},{"attributes":{"OBJECTID":24449,"LANDMARKID":"1001500000841","LANDMARKCO":"603","LANDMARKNA":"高賓旅社","LANDMARKAD":"1001509","ADDRESS":"花蓮縣瑞穗鄉中正北路90號","TEL":"03-8872224","COUNTYNAME":"花蓮縣","TOWNNAME":"瑞穗鄉","MARKTYPE":"996","Class":"6"},"geometry":{"x":121.37742143748164,"y":23.498429223200677}},{"attributes":{"OBJECTID":24450,"LANDMARKID":"1001500000789","LANDMARKCO":"508","LANDMARKNA":"湧泉休閒牧場","LANDMARKAD":"1001509","ADDRESS":"花蓮縣瑞穗鄉溫泉路三段2巷31號","TEL":"03-8873988","COUNTYNAME":"花蓮縣","TOWNNAME":"瑞穗鄉","MARKTYPE":"995","Class":"5"},"geometry":{"x":121.35258923440621,"y":23.490178770928718}},{"attributes":{"OBJECTID":24451,"LANDMARKID":"1001500000740","LANDMARKCO":"503","LANDMARKNA":"秀姑巒溪泛舟起點","LANDMARKAD":"1001509","ADDRESS":"花蓮縣瑞穗鄉","TEL":" ","COUNTYNAME":"花蓮縣","TOWNNAME":"瑞穗鄉","MARKTYPE":"995","Class":"5"},"geometry":{"x":121.40266067614772,"y":23.486666766315519}},{"attributes":{"OBJECTID":24452,"LANDMARKID":"1001500000741","LANDMARKCO":"503","LANDMARKNA":"奇美泛舟休息站","LANDMARKAD":"1001509","ADDRESS":"花蓮縣瑞穗鄉","TEL":" ","COUNTYNAME":"花蓮縣","TOWNNAME":"瑞穗鄉","MARKTYPE":"995","Class":"5"},"geometry":{"x":121.44659724684257,"y":23.490538220374283}},{"attributes":{"OBJECTID":24453,"LANDMARKID":"1001500000780","LANDMARKCO":"508","LANDMARKNA":"瑞雄山莊","LANDMARKAD":"1001509","ADDRESS":"花蓮縣瑞穗鄉溫泉路三段185號","TEL":"03-8872254","COUNTYNAME":"花蓮縣","TOWNNAME":"瑞穗鄉","MARKTYPE":"995","Class":"5"},"geometry":{"x":121.34666868230924,"y":23.495143951289609}},{"attributes":{"OBJECTID":24454,"LANDMARKID":"1001500000781","LANDMARKCO":"508","LANDMARKNA":"吉祥庭園溫泉","LANDMARKAD":"1001509","ADDRESS":"花蓮縣瑞穗鄉溫泉路三段35之10號","TEL":"03-8876866","COUNTYNAME":"花蓮縣","TOWNNAME":"瑞穗鄉","MARKTYPE":"995","Class":"5"},"geometry":{"x":121.35147662815253,"y":23.487199855810726}},{"attributes":{"OBJECTID":24455,"LANDMARKID":"1001500000782","LANDMARKCO":"508","LANDMARKNA":"豐盛山莊","LANDMARKAD":"1001509","ADDRESS":"花蓮縣瑞穗鄉溫泉路三段123號","TEL":"03-8872254","COUNTYNAME":"花蓮縣","TOWNNAME":"瑞穗鄉","MARKTYPE":"995","Class":"5"},"geometry":{"x":121.35159883845054,"y":23.49432219051571}},{"attributes":{"OBJECTID":24456,"LANDMARKID":"1001500000783","LANDMARKCO":"508","LANDMARKNA":"黃家溫泉山莊","LANDMARKAD":"1001509","ADDRESS":"花蓮縣瑞穗鄉北五路321號","TEL":"03-8876629","COUNTYNAME":"花蓮縣","TOWNNAME":"瑞穗鄉","MARKTYPE":"995","Class":"5"},"geometry":{"x":121.35701598554095,"y":23.496440822871921}},{"attributes":{"OBJECTID":24457,"LANDMARKID":"1001500000784","LANDMARKCO":"508","LANDMARKNA":"虎爺溫泉會館","LANDMARKAD":"1001509","ADDRESS":"花蓮縣瑞穗鄉瑞祥村101號","TEL":"03-8875505","COUNTYNAME":"花蓮縣","TOWNNAME":"瑞穗鄉","MARKTYPE":"995","Class":"5"},"geometry":{"x":121.36088773982947,"y":23.500664800326991}},{"attributes":{"OBJECTID":24458,"LANDMARKID":"1001500000785","LANDMARKCO":"508","LANDMARKNA":"瑞峰溫泉花園","LANDMARKAD":"1001509","ADDRESS":"花蓮縣瑞穗鄉溫泉路3段2巷36之1號","TEL":"03-8876338","COUNTYNAME":"花蓮縣","TOWNNAME":"瑞穗鄉","MARKTYPE":"995","Class":"5"},"geometry":{"x":121.35050017506147,"y":23.490406840741578}},{"attributes":{"OBJECTID":24459,"LANDMARKID":"1001500000786","LANDMARKCO":"508","LANDMARKNA":"東岡秀川溫泉會館","LANDMARKAD":"1001509","ADDRESS":"花蓮縣瑞穗鄉溫泉路三段2巷31之6號","TEL":"03-8006788","COUNTYNAME":"花蓮縣","TOWNNAME":"瑞穗鄉","MARKTYPE":"995","Class":"5"},"geometry":{"x":121.35262378304269,"y":23.487898969862666}},{"attributes":{"OBJECTID":24460,"LANDMARKID":"1001500000742","LANDMARKCO":"503","LANDMARKNA":"北回歸線標誌","LANDMARKAD":"1001509","ADDRESS":"花蓮縣瑞穗鄉","TEL":" ","COUNTYNAME":"花蓮縣","TOWNNAME":"瑞穗鄉","MARKTYPE":"995","Class":"5"},"geometry":{"x":121.35787337450824,"y":23.465421410200999}},{"attributes":{"OBJECTID":24461,"LANDMARKID":"1001500000750","LANDMARKCO":"504","LANDMARKNA":"富源森林遊樂區","LANDMARKAD":"1001509","ADDRESS":"花蓮縣瑞穗鄉富源村廣東路161號","TEL":" ","COUNTYNAME":"花蓮縣","TOWNNAME":"瑞穗鄉","MARKTYPE":"995","Class":"5"},"geometry":{"x":121.35626397467112,"y":23.58858867640113}},{"attributes":{"OBJECTID":24462,"LANDMARKID":"1001500000743","LANDMARKCO":"503","LANDMARKNA":"花東縱谷風景特定區","LANDMARKAD":"1001509","ADDRESS":"花蓮縣瑞穗鄉瑞良村中山路三段215號","TEL":" ","COUNTYNAME":"花蓮縣","TOWNNAME":"瑞穗鄉","MARKTYPE":"995","Class":"5"},"geometry":{"x":121.40010880964874,"y":23.490695790105544}},{"attributes":{"OBJECTID":24463,"LANDMARKID":"1001500000749","LANDMARKCO":"504","LANDMARKNA":"蝴蝶谷森林遊樂區","LANDMARKAD":"1001509","ADDRESS":"花蓮縣瑞穗鄉廣東路161號","TEL":" ","COUNTYNAME":"花蓮縣","TOWNNAME":"瑞穗鄉","MARKTYPE":"995","Class":"5"},"geometry":{"x":121.35636232677113,"y":23.588737376203987}},{"attributes":{"OBJECTID":24464,"LANDMARKID":"1001500000135","LANDMARKCO":"107","LANDMARKNA":"花蓮縣警察局崙山派出所","LANDMARKAD":"1001513","ADDRESS":"花蓮縣卓溪鄉崙山2號","TEL":"03-8841502","COUNTYNAME":"花蓮縣","TOWNNAME":"卓溪鄉","MARKTYPE":"991","Class":"1"},"geometry":{"x":121.34588501678726,"y":23.43738348280046}},{"attributes":{"OBJECTID":24465,"LANDMARKID":"1001500000136","LANDMARKCO":"107","LANDMARKNA":"花蓮縣警察局立山派出所","LANDMARKAD":"1001513","ADDRESS":"花蓮縣卓溪鄉立山村立山77號","TEL":"03-8841501","COUNTYNAME":"花蓮縣","TOWNNAME":"卓溪鄉","MARKTYPE":"991","Class":"1"},"geometry":{"x":121.31276926966035,"y":23.429596986166676}},{"attributes":{"OBJECTID":24466,"LANDMARKID":"1001500000137","LANDMARKCO":"107","LANDMARKNA":"花蓮縣警察局太平派出所","LANDMARKAD":"1001513","ADDRESS":"花蓮縣卓溪鄉太平村10號","TEL":"03-8841503","COUNTYNAME":"花蓮縣","TOWNNAME":"卓溪鄉","MARKTYPE":"991","Class":"1"},"geometry":{"x":121.31760339762182,"y":23.408187164304788}},{"attributes":{"OBJECTID":24467,"LANDMARKID":"1001500000138","LANDMARKCO":"107","LANDMARKNA":"花蓮縣警察局中平派出所","LANDMARKAD":"1001513","ADDRESS":"花蓮縣卓溪鄉太平村中興20之3號","TEL":"03-8887357","COUNTYNAME":"花蓮縣","TOWNNAME":"卓溪鄉","MARKTYPE":"991","Class":"1"},"geometry":{"x":121.31316485864392,"y":23.39510014719923}},{"attributes":{"OBJECTID":24468,"LANDMARKID":"1001500000139","LANDMARKCO":"107","LANDMARKNA":"花蓮縣警察局卓樂派出所","LANDMARKAD":"1001513","ADDRESS":"花蓮縣卓溪鄉卓清村卓樂15號","TEL":"03-8888150","COUNTYNAME":"花蓮縣","TOWNNAME":"卓溪鄉","MARKTYPE":"991","Class":"1"},"geometry":{"x":121.26944057037346,"y":23.296299509077254}},{"attributes":{"OBJECTID":24469,"LANDMARKID":"1001500000140","LANDMARKCO":"107","LANDMARKNA":"花蓮縣警察局古風派出所","LANDMARKAD":"1001513","ADDRESS":"花蓮縣卓溪鄉古風村5號","TEL":"03-8846113","COUNTYNAME":"花蓮縣","TOWNNAME":"卓溪鄉","MARKTYPE":"991","Class":"1"},"geometry":{"x":121.27260011870435,"y":23.243922066631107}},{"attributes":{"OBJECTID":24470,"LANDMARKID":"1001500000141","LANDMARKCO":"107","LANDMARKNA":"花蓮縣警察局石平派出所","LANDMARKAD":"1001513","ADDRESS":"花蓮縣卓溪鄉古風村石平22鄰8號","TEL":"03-8832482","COUNTYNAME":"花蓮縣","TOWNNAME":"卓溪鄉","MARKTYPE":"991","Class":"1"},"geometry":{"x":121.2350467235526,"y":23.179322873511136}},{"attributes":{"OBJECTID":24471,"LANDMARKID":"1001500000142","LANDMARKCO":"107","LANDMARKNA":"花蓮縣警察局崙天派出所","LANDMARKAD":"1001513","ADDRESS":"花蓮縣卓溪鄉古風村崙天5號","TEL":"03-8846067","COUNTYNAME":"花蓮縣","TOWNNAME":"卓溪鄉","MARKTYPE":"991","Class":"1"},"geometry":{"x":121.2636812962609,"y":23.216029694438536}},{"attributes":{"OBJECTID":24472,"LANDMARKID":"1001500000143","LANDMARKCO":"107","LANDMARKNA":"花蓮縣警察局清水派出所","LANDMARKAD":"1001513","ADDRESS":"花蓮縣卓溪鄉卓清村清水10號","TEL":"03-8801085","COUNTYNAME":"花蓮縣","TOWNNAME":"卓溪鄉","MARKTYPE":"991","Class":"1"},"geometry":{"x":121.27372962231364,"y":23.285277195872464}},{"attributes":{"OBJECTID":24473,"LANDMARKID":"1001500000045","LANDMARKCO":"101","LANDMARKNA":"中央研究院地球科學研究所","LANDMARKAD":"1001513","ADDRESS":"花蓮縣卓溪鄉太平村中興66號之7","TEL":"03-8884673","COUNTYNAME":"花蓮縣","TOWNNAME":"卓溪鄉","MARKTYPE":"991","Class":"1"},"geometry":{"x":121.30895896079136,"y":23.393937464053757}},{"attributes":{"OBJECTID":24474,"LANDMARKID":"1001500000285","LANDMARKCO":"203","LANDMARKNA":"縣立太平國小","LANDMARKAD":"1001513","ADDRESS":"花蓮縣卓溪鄉太平村1鄰2號","TEL":"03-8841359","COUNTYNAME":"花蓮縣","TOWNNAME":"卓溪鄉","MARKTYPE":"992","Class":"2"},"geometry":{"x":121.32020371885612,"y":23.405653744272698}},{"attributes":{"OBJECTID":24475,"LANDMARKID":"1001500000286","LANDMARKCO":"203","LANDMARKNA":"縣立卓樂國小","LANDMARKAD":"1001513","ADDRESS":"花蓮縣卓溪鄉卓樂村86號","TEL":"03-8886685","COUNTYNAME":"花蓮縣","TOWNNAME":"卓溪鄉","MARKTYPE":"992","Class":"2"},"geometry":{"x":121.26778655864648,"y":23.295853656346463}},{"attributes":{"OBJECTID":24476,"LANDMARKID":"1001500000287","LANDMARKCO":"203","LANDMARKNA":"縣立立山國小","LANDMARKAD":"1001513","ADDRESS":"花蓮縣卓溪鄉立山村9鄰90號","TEL":"03-8841358","COUNTYNAME":"花蓮縣","TOWNNAME":"卓溪鄉","MARKTYPE":"992","Class":"2"},"geometry":{"x":121.3207199464179,"y":23.430484577260142}},{"attributes":{"OBJECTID":24477,"LANDMARKID":"1001500000288","LANDMARKCO":"203","LANDMARKNA":"縣立崙山國小","LANDMARKAD":"1001513","ADDRESS":"花蓮縣卓溪鄉崙山村12號","TEL":"03-8841350","COUNTYNAME":"花蓮縣","TOWNNAME":"卓溪鄉","MARKTYPE":"992","Class":"2"},"geometry":{"x":121.34462910755347,"y":23.438653261290629}},{"attributes":{"OBJECTID":24478,"LANDMARKID":"1001500000289","LANDMARKCO":"203","LANDMARKNA":"縣立卓楓國小","LANDMARKAD":"1001513","ADDRESS":"花蓮縣卓溪鄉古風村古楓6號","TEL":"03-8846027","COUNTYNAME":"花蓮縣","TOWNNAME":"卓溪鄉","MARKTYPE":"992","Class":"2"},"geometry":{"x":121.2721863644847,"y":23.2431059754846}},{"attributes":{"OBJECTID":24479,"LANDMARKID":"1001500000290","LANDMARKCO":"203","LANDMARKNA":"縣立古風國小","LANDMARKAD":"1001513","ADDRESS":"花蓮縣卓溪鄉古風村崙天18號","TEL":"03-8846058","COUNTYNAME":"花蓮縣","TOWNNAME":"卓溪鄉","MARKTYPE":"992","Class":"2"},"geometry":{"x":121.26504711445864,"y":23.219370996576892}},{"attributes":{"OBJECTID":24480,"LANDMARKID":"1001500000291","LANDMARKCO":"203","LANDMARKNA":"縣立古風國小石平分校","LANDMARKAD":"1001513","ADDRESS":"花蓮縣卓溪鄉古風村石平7號","TEL":"03-8846058","COUNTYNAME":"花蓮縣","TOWNNAME":"卓溪鄉","MARKTYPE":"992","Class":"2"},"geometry":{"x":121.23644822527196,"y":23.177877937447271}},{"attributes":{"OBJECTID":24481,"LANDMARKID":"1001500000292","LANDMARKCO":"203","LANDMARKNA":"縣立卓清國小","LANDMARKAD":"1001513","ADDRESS":"花蓮縣卓溪鄉卓清村清水6號","TEL":"03-8801163","COUNTYNAME":"花蓮縣","TOWNNAME":"卓溪鄉","MARKTYPE":"992","Class":"2"},"geometry":{"x":121.27237191493482,"y":23.277967336247272}},{"attributes":{"OBJECTID":24482,"LANDMARKID":"1001500000502","LANDMARKCO":"303","LANDMARKNA":"玉山國家公園管理處南安遊客中心","LANDMARKAD":"1001513","ADDRESS":"花蓮縣卓溪鄉卓清村清水83之3號","TEL":" ","COUNTYNAME":"花蓮縣","TOWNNAME":"卓溪鄉","MARKTYPE":"993","Class":"303"},"geometry":{"x":121.27248245385562,"y":23.473468408991504}},{"attributes":{"OBJECTID":24483,"LANDMARKID":"1001500000787","LANDMARKCO":"508","LANDMARKNA":"紅葉溫泉旅社","LANDMARKAD":"1001513","ADDRESS":"花蓮縣瑞穗鄉紅葉村188號","TEL":"03-8872176","COUNTYNAME":"花蓮縣","TOWNNAME":"卓溪鄉","MARKTYPE":"995","Class":"5"},"geometry":{"x":121.32527994040048,"y":23.490648719031373}},{"attributes":{"OBJECTID":24484,"LANDMARKID":"1001500000788","LANDMARKCO":"508","LANDMARKNA":"紅葉溫泉(內溫泉)","LANDMARKAD":"1001513","ADDRESS":"花蓮縣卓溪鄉紅葉村","TEL":" ","COUNTYNAME":"花蓮縣","TOWNNAME":"卓溪鄉","MARKTYPE":"995","Class":"5"},"geometry":{"x":121.32607346849355,"y":23.490931317526179}},{"attributes":{"OBJECTID":24485,"LANDMARKID":"1001500000739","LANDMARKCO":"503","LANDMARKNA":"南安遊憩區","LANDMARKAD":"1001513","ADDRESS":"花蓮縣卓溪鄉","TEL":" ","COUNTYNAME":"花蓮縣","TOWNNAME":"卓溪鄉","MARKTYPE":"995","Class":"5"},"geometry":{"x":121.25736299630697,"y":23.30387666069705}},{"attributes":{"OBJECTID":24486,"LANDMARKID":"1001500000816","LANDMARKCO":"513","LANDMARKNA":"秀姑巒山","LANDMARKAD":"1001513","ADDRESS":"花蓮縣卓溪鄉","TEL":" ","COUNTYNAME":"花蓮縣","TOWNNAME":"卓溪鄉","MARKTYPE":"995","Class":"5"},"geometry":{"x":121.06231478909555,"y":23.496775031891598}},{"attributes":{"OBJECTID":24487,"LANDMARKID":"1001500000817","LANDMARKCO":"513","LANDMARKNA":"馬利加南山","LANDMARKAD":"1001513","ADDRESS":"花蓮縣卓溪鄉","TEL":" ","COUNTYNAME":"花蓮縣","TOWNNAME":"卓溪鄉","MARKTYPE":"995","Class":"5"},"geometry":{"x":121.11717885814691,"y":23.521576571343562}},{"attributes":{"OBJECTID":24488,"LANDMARKID":"1001500000818","LANDMARKCO":"513","LANDMARKNA":"馬西山","LANDMARKAD":"1001513","ADDRESS":"花蓮縣卓溪鄉","TEL":" ","COUNTYNAME":"花蓮縣","TOWNNAME":"卓溪鄉","MARKTYPE":"995","Class":"5"},"geometry":{"x":121.17397669897622,"y":23.483738710045063}},{"attributes":{"OBJECTID":24489,"LANDMARKID":"1001500000819","LANDMARKCO":"513","LANDMARKNA":"新康山","LANDMARKAD":"1001513","ADDRESS":"花蓮縣卓溪鄉","TEL":" ","COUNTYNAME":"花蓮縣","TOWNNAME":"卓溪鄉","MARKTYPE":"995","Class":"5"},"geometry":{"x":121.12739131660278,"y":23.316395707688987}},{"attributes":{"OBJECTID":24490,"LANDMARKID":"1001500000820","LANDMARKCO":"513","LANDMARKNA":"南雙頭山","LANDMARKAD":"1001513","ADDRESS":"花蓮縣卓溪鄉","TEL":" ","COUNTYNAME":"花蓮縣","TOWNNAME":"卓溪鄉","MARKTYPE":"995","Class":"5"},"geometry":{"x":121.01053430298252,"y":23.350278064100365}},{"attributes":{"OBJECTID":24491,"LANDMARKID":"1001500000821","LANDMARKCO":"513","LANDMARKNA":"喀西帕南山","LANDMARKAD":"1001513","ADDRESS":"花蓮縣卓溪鄉","TEL":" ","COUNTYNAME":"花蓮縣","TOWNNAME":"卓溪鄉","MARKTYPE":"995","Class":"5"},"geometry":{"x":121.19523104850686,"y":23.46861564882585}},{"attributes":{"OBJECTID":24492,"LANDMARKID":"1001500000822","LANDMARKCO":"513","LANDMARKNA":"內嶺爾山","LANDMARKAD":"1001513","ADDRESS":"花蓮縣卓溪鄉","TEL":" ","COUNTYNAME":"花蓮縣","TOWNNAME":"卓溪鄉","MARKTYPE":"995","Class":"5"},"geometry":{"x":121.19606064603599,"y":23.579252584845296}},{"attributes":{"OBJECTID":24493,"LANDMARKID":"1001500000823","LANDMARKCO":"513","LANDMARKNA":"義西請馬至山","LANDMARKAD":"1001513","ADDRESS":"花蓮縣卓溪鄉","TEL":" ","COUNTYNAME":"花蓮縣","TOWNNAME":"卓溪鄉","MARKTYPE":"995","Class":"5"},"geometry":{"x":121.15327219624407,"y":23.586445388601874}},{"attributes":{"OBJECTID":24494,"LANDMARKID":"1001500000824","LANDMARKCO":"513","LANDMARKNA":"塔芬山","LANDMARKAD":"1001513","ADDRESS":"花蓮縣卓溪鄉","TEL":" ","COUNTYNAME":"花蓮縣","TOWNNAME":"卓溪鄉","MARKTYPE":"995","Class":"5"},"geometry":{"x":121.02679147783324,"y":23.406021037963114}},{"attributes":{"OBJECTID":24495,"LANDMARKID":"1001500000601","LANDMARKCO":"405","LANDMARKNA":"中油加油站-忠孝站","LANDMARKAD":"1001503","ADDRESS":"花蓮縣玉里鎮中城里忠孝路15-10號","TEL":"03-8886611","COUNTYNAME":"花蓮縣","TOWNNAME":"玉里鎮","MARKTYPE":"994","Class":"4"},"geometry":{"x":121.32410331273783,"y":23.323588172472974}},{"attributes":{"OBJECTID":24496,"LANDMARKID":"1001500000602","LANDMARKCO":"405","LANDMARKNA":"中油加油站-信義站","LANDMARKAD":"1001503","ADDRESS":"花蓮縣玉里鎮興國路一段26號","TEL":"03-8887555","COUNTYNAME":"花蓮縣","TOWNNAME":"玉里鎮","MARKTYPE":"994","Class":"4"},"geometry":{"x":121.32421552627095,"y":23.324087923587761}},{"attributes":{"OBJECTID":24497,"LANDMARKID":"1001500000603","LANDMARKCO":"405","LANDMARKNA":"中油加油站-赤科山站(中油自營)","LANDMARKAD":"1001503","ADDRESS":"花蓮縣玉里鎮觀音里高寮18-7號","TEL":"03-8851546","COUNTYNAME":"花蓮縣","TOWNNAME":"玉里鎮","MARKTYPE":"994","Class":"4"},"geometry":{"x":121.36032700944739,"y":23.388892470795433}},{"attributes":{"OBJECTID":24498,"LANDMARKID":"1001500000604","LANDMARKCO":"405","LANDMARKNA":"中油加油站-玉里站(中油自營)","LANDMARKAD":"1001503","ADDRESS":"花蓮縣玉里鎮大同路219號","TEL":"03-8882307","COUNTYNAME":"花蓮縣","TOWNNAME":"玉里鎮","MARKTYPE":"994","Class":"4"},"geometry":{"x":121.31253907162616,"y":23.333342554128897}},{"attributes":{"OBJECTID":24499,"LANDMARKID":"1001500000525","LANDMARKCO":"401","LANDMARKNA":"玉里榮民康復之家","LANDMARKAD":"1001503","ADDRESS":"花蓮縣玉里鎮新興街91號","TEL":" ","COUNTYNAME":"花蓮縣","TOWNNAME":"玉里鎮","MARKTYPE":"994","Class":"4"},"geometry":{"x":121.31136535295045,"y":23.338849017093629}},{"attributes":{"OBJECTID":24500,"LANDMARKID":"1001500000526","LANDMARKCO":"401","LANDMARKNA":"佛教慈濟綜合醫院-玉里院區","LANDMARKAD":"1001503","ADDRESS":"花蓮縣玉里鎮民權街1-1號","TEL":"03-8882718","COUNTYNAME":"花蓮縣","TOWNNAME":"玉里鎮","MARKTYPE":"994","Class":"4"},"geometry":{"x":121.318468785834,"y":23.334974991359523}},{"attributes":{"OBJECTID":24501,"LANDMARKID":"1001500000527","LANDMARKCO":"401","LANDMARKNA":"玉里榮民醫院附設精神護理之家","LANDMARKAD":"1001503","ADDRESS":"花蓮縣玉里鎮長良里忠義34號","TEL":"03-8801101","COUNTYNAME":"花蓮縣","TOWNNAME":"玉里鎮","MARKTYPE":"994","Class":"4"},"geometry":{"x":121.30091026868759,"y":23.289020995373146}},{"attributes":{"OBJECTID":24502,"LANDMARKID":"1001500000528","LANDMARKCO":"401","LANDMARKNA":"行政院國軍退除役官兵輔導委員會玉里榮","LANDMARKAD":"1001503","ADDRESS":"花蓮縣玉里鎮長良里忠義33號","TEL":"03-8801101","COUNTYNAME":"花蓮縣","TOWNNAME":"玉里鎮","MARKTYPE":"994","Class":"4"},"geometry":{"x":121.29299550471265,"y":23.289847976593489}},{"attributes":{"OBJECTID":24503,"LANDMARKID":"1001500000529","LANDMARKCO":"401","LANDMARKNA":"行政院衛生署玉里醫院","LANDMARKAD":"1001503","ADDRESS":"花蓮縣玉里鎮中華路448號","TEL":"03-8886141","COUNTYNAME":"花蓮縣","TOWNNAME":"玉里鎮","MARKTYPE":"994","Class":"4"},"geometry":{"x":121.31941051603313,"y":23.347767681986468}},{"attributes":{"OBJECTID":24504,"LANDMARKID":"1001500000530","LANDMARKCO":"401","LANDMARKNA":"玉里榮民醫院","LANDMARKAD":"1001503","ADDRESS":"花蓮縣玉里鎮新興街91號","TEL":" ","COUNTYNAME":"花蓮縣","TOWNNAME":"玉里鎮","MARKTYPE":"994","Class":"4"},"geometry":{"x":121.31232120728384,"y":23.338303393173288}},{"attributes":{"OBJECTID":24505,"LANDMARKID":"1001500000705","LANDMARKCO":"408","LANDMARKNA":"郵局-玉里郵局","LANDMARKAD":"1001503","ADDRESS":"花蓮縣玉里鎮光復路111號","TEL":"(03)8882-177","COUNTYNAME":"花蓮縣","TOWNNAME":"玉里鎮","MARKTYPE":"994","Class":"4"},"geometry":{"x":121.31392517308154,"y":23.33105499606566}},{"attributes":{"OBJECTID":24506,"LANDMARKID":"1001500000706","LANDMARKCO":"408","LANDMARKNA":"郵局-玉里泰昌郵局","LANDMARKAD":"1001503","ADDRESS":"花蓮縣玉里鎮中山路2段139號","TEL":"(03)8882-593","COUNTYNAME":"花蓮縣","TOWNNAME":"玉里鎮","MARKTYPE":"994","Class":"4"},"geometry":{"x":121.31393291230108,"y":23.335848980915596}},{"attributes":{"OBJECTID":24507,"LANDMARKID":"1001500000707","LANDMARKCO":"408","LANDMARKNA":"郵局-卓溪郵局","LANDMARKAD":"1001503","ADDRESS":"花蓮縣卓溪鄉中正路61-1號","TEL":"(03)8883-747","COUNTYNAME":"花蓮縣","TOWNNAME":"玉里鎮","MARKTYPE":"994","Class":"4"},"geometry":{"x":121.30459626985845,"y":23.34587754206224}},{"attributes":{"OBJECTID":24508,"LANDMARKID":"1001500000708","LANDMARKCO":"408","LANDMARKNA":"郵局-玉里三民郵局","LANDMARKAD":"1001503","ADDRESS":"花蓮縣玉里鎮三民里90-3號","TEL":"(03)8841-334","COUNTYNAME":"花蓮縣","TOWNNAME":"玉里鎮","MARKTYPE":"994","Class":"4"},"geometry":{"x":121.34907412987783,"y":23.429731940481716}},{"attributes":{"OBJECTID":24509,"LANDMARKID":"1001500000709","LANDMARKCO":"408","LANDMARKNA":"郵局-玉里新興郵局","LANDMARKAD":"1001503","ADDRESS":"花蓮縣玉里鎮新興街91號","TEL":"(03)8888-321","COUNTYNAME":"花蓮縣","TOWNNAME":"玉里鎮","MARKTYPE":"994","Class":"4"},"geometry":{"x":121.31204228716879,"y":23.338374217152463}},{"attributes":{"OBJECTID":24510,"LANDMARKID":"1001500000721","LANDMARKCO":"409","LANDMARKNA":"花蓮縣玉溪地區農會","LANDMARKAD":"1001503","ADDRESS":"花蓮縣玉里鎮中山路二段49號","TEL":"03-8883181","COUNTYNAME":"花蓮縣","TOWNNAME":"玉里鎮","MARKTYPE":"994","Class":"4"},"geometry":{"x":121.34504942328147,"y":23.421430432725781}},{"attributes":{"OBJECTID":24511,"LANDMARKID":"1001500000568","LANDMARKCO":"404","LANDMARKNA":"台灣省自來水玉里營運所","LANDMARKAD":"1001503","ADDRESS":"花蓮縣玉里鎮中華路361號","TEL":" ","COUNTYNAME":"花蓮縣","TOWNNAME":"玉里鎮","MARKTYPE":"994","Class":"4"},"geometry":{"x":121.31656629522757,"y":23.342396549037698}},{"attributes":{"OBJECTID":24512,"LANDMARKID":"1001500000662","LANDMARKCO":"406","LANDMARKNA":"德武社區公園","LANDMARKAD":"1001503","ADDRESS":"花蓮縣玉里鎮","TEL":" ","COUNTYNAME":"花蓮縣","TOWNNAME":"玉里鎮","MARKTYPE":"994","Class":"4"},"geometry":{"x":121.4043757225315,"y":23.466171151346199}},{"attributes":{"OBJECTID":24513,"LANDMARKID":"1001500000663","LANDMARKCO":"406","LANDMARKNA":"大禹公園","LANDMARKAD":"1001503","ADDRESS":"花蓮縣玉里鎮","TEL":" ","COUNTYNAME":"花蓮縣","TOWNNAME":"玉里鎮","MARKTYPE":"994","Class":"4"},"geometry":{"x":121.33325653719659,"y":23.384753293696413}},{"attributes":{"OBJECTID":24514,"LANDMARKID":"1001500000664","LANDMARKCO":"406","LANDMARKNA":"運動公園","LANDMARKAD":"1001503","ADDRESS":"花蓮縣玉里鎮","TEL":" ","COUNTYNAME":"花蓮縣","TOWNNAME":"玉里鎮","MARKTYPE":"994","Class":"4"},"geometry":{"x":121.3200937205139,"y":23.342768102818283}},{"attributes":{"OBJECTID":24515,"LANDMARKID":"1001500000665","LANDMARKCO":"406","LANDMARKNA":"哈拉灣公園","LANDMARKAD":"1001503","ADDRESS":"花蓮縣玉里鎮","TEL":" ","COUNTYNAME":"花蓮縣","TOWNNAME":"玉里鎮","MARKTYPE":"994","Class":"4"},"geometry":{"x":121.34542686094161,"y":23.317243287272372}},{"attributes":{"OBJECTID":24516,"LANDMARKID":"1001500000605","LANDMARKCO":"405","LANDMARKNA":"台塑加油站-瑞玉站(台塑)","LANDMARKAD":"1001503","ADDRESS":"花蓮縣玉里鎮大禹里酸柑86-1號","TEL":"03-8885565","COUNTYNAME":"花蓮縣","TOWNNAME":"玉里鎮","MARKTYPE":"994","Class":"4"},"geometry":{"x":121.32513564626116,"y":23.361906197716092}},{"attributes":{"OBJECTID":24517,"LANDMARKID":"1001500000606","LANDMARKCO":"405","LANDMARKNA":"台塑加油站-大禹站(台塑)","LANDMARKAD":"1001503","ADDRESS":"花蓮縣玉里鎮大禹171號","TEL":"03-8880878","COUNTYNAME":"花蓮縣","TOWNNAME":"玉里鎮","MARKTYPE":"994","Class":"4"},"geometry":{"x":121.33049742582509,"y":23.382743362464844}},{"attributes":{"OBJECTID":24518,"LANDMARKID":"1001500000234","LANDMARKCO":"108","LANDMARKNA":"花蓮縣玉里鎮公所","LANDMARKAD":"1001503","ADDRESS":"花蓮縣玉里鎮中正路148號","TEL":"03-8883166","COUNTYNAME":"花蓮縣","TOWNNAME":"玉里鎮","MARKTYPE":"991","Class":"1"},"geometry":{"x":121.31531640602556,"y":23.335407283608607}},{"attributes":{"OBJECTID":24519,"LANDMARKID":"1001500000051","LANDMARKCO":"103","LANDMARKNA":"花蓮縣玉里鎮鎮民代表會","LANDMARKAD":"1001503","ADDRESS":"花蓮縣玉里鎮五權街5號","TEL":"03-8882150","COUNTYNAME":"花蓮縣","TOWNNAME":"玉里鎮","MARKTYPE":"991","Class":"1"},"geometry":{"x":121.31586216973018,"y":23.336398404299636}},{"attributes":{"OBJECTID":24520,"LANDMARKID":"1001500000153","LANDMARKCO":"107","LANDMARKNA":"花蓮縣消防局救災救護第二消防分隊","LANDMARKAD":"1001503","ADDRESS":"花蓮縣玉里鎮博愛路37號","TEL":"03-8883169","COUNTYNAME":"花蓮縣","TOWNNAME":"玉里鎮","MARKTYPE":"991","Class":"1"},"geometry":{"x":121.3155998403538,"y":23.336760674322321}},{"attributes":{"OBJECTID":24521,"LANDMARKID":"1001500000154","LANDMARKCO":"107","LANDMARKNA":"花蓮縣消防局玉溪消防分隊","LANDMARKAD":"1001503","ADDRESS":"花蓮縣玉里鎮博愛路37號","TEL":"03-8885119","COUNTYNAME":"花蓮縣","TOWNNAME":"玉里鎮","MARKTYPE":"991","Class":"1"},"geometry":{"x":121.3155998403538,"y":23.336760674322321}},{"attributes":{"OBJECTID":24522,"LANDMARKID":"1001500000155","LANDMARKCO":"107","LANDMARKNA":"花蓮縣警察局玉里分局","LANDMARKAD":"1001503","ADDRESS":"花蓮縣玉里鎮泰昌里博愛路180號","TEL":"03-8888568","COUNTYNAME":"花蓮縣","TOWNNAME":"玉里鎮","MARKTYPE":"991","Class":"1"},"geometry":{"x":121.31380939183732,"y":23.336581720513369}},{"attributes":{"OBJECTID":24523,"LANDMARKID":"1001500000156","LANDMARKCO":"107","LANDMARKNA":"花蓮縣警察局玉里派出所","LANDMARKAD":"1001503","ADDRESS":"花蓮縣玉里鎮泰昌里博愛路180號","TEL":"03-8882245","COUNTYNAME":"花蓮縣","TOWNNAME":"玉里鎮","MARKTYPE":"991","Class":"1"},"geometry":{"x":121.31378983353819,"y":23.336581799429702}},{"attributes":{"OBJECTID":24524,"LANDMARKID":"1001500000106","LANDMARKCO":"106","LANDMARKNA":"花蓮縣玉里鎮戶政事務所","LANDMARKAD":"1001503","ADDRESS":"花蓮縣玉里鎮忠孝路149號","TEL":"03-8882546","COUNTYNAME":"花蓮縣","TOWNNAME":"玉里鎮","MARKTYPE":"991","Class":"1"},"geometry":{"x":121.31361338458407,"y":23.336492203323811}},{"attributes":{"OBJECTID":24525,"LANDMARKID":"1001500000095","LANDMARKCO":"105","LANDMARKNA":"花蓮縣玉里地政事務所","LANDMARKAD":"1001503","ADDRESS":"花蓮縣玉里鎮莊敬路18號","TEL":"03-8883171","COUNTYNAME":"花蓮縣","TOWNNAME":"玉里鎮","MARKTYPE":"991","Class":"1"},"geometry":{"x":121.31839290283614,"y":23.341450700268663}},{"attributes":{"OBJECTID":24526,"LANDMARKID":"1001500000048","LANDMARKCO":"101","LANDMARKNA":"台北區監理所玉里監理分站","LANDMARKAD":"1001503","ADDRESS":"花蓮縣玉里鎮中華路427號","TEL":"03-8883161","COUNTYNAME":"花蓮縣","TOWNNAME":"玉里鎮","MARKTYPE":"991","Class":"1"},"geometry":{"x":121.31799258547656,"y":23.346418958367622}},{"attributes":{"OBJECTID":24527,"LANDMARKID":"1001500000093","LANDMARKCO":"104","LANDMARKNA":"北區國稅局玉里稽徵所","LANDMARKAD":"1001503","ADDRESS":"花蓮縣玉里鎮光復路52號","TEL":"03-8881070","COUNTYNAME":"花蓮縣","TOWNNAME":"玉里鎮","MARKTYPE":"991","Class":"1"},"geometry":{"x":121.31944644389867,"y":23.324379221777924}},{"attributes":{"OBJECTID":24528,"LANDMARKID":"1001500000046","LANDMARKCO":"101","LANDMARKNA":"台灣花蓮地方法院玉里簡易庭","LANDMARKAD":"1001503","ADDRESS":"花蓮縣玉里鎮莊敬路69號","TEL":"03-8880480","COUNTYNAME":"花蓮縣","TOWNNAME":"玉里鎮","MARKTYPE":"991","Class":"1"},"geometry":{"x":121.31812670191977,"y":23.341000266964819}},{"attributes":{"OBJECTID":24529,"LANDMARKID":"1001500000047","LANDMARKCO":"101","LANDMARKNA":"職業訓練局玉里就業服務站","LANDMARKAD":"1001503","ADDRESS":"花蓮縣玉里鎮光復路160號","TEL":"03-8882033","COUNTYNAME":"花蓮縣","TOWNNAME":"玉里鎮","MARKTYPE":"991","Class":"1"},"geometry":{"x":121.31325064575798,"y":23.331436710914765}},{"attributes":{"OBJECTID":24530,"LANDMARKID":"1001500000050","LANDMARKCO":"103","LANDMARKNA":"花蓮縣玉里鎮衛生所","LANDMARKAD":"1001503","ADDRESS":"花蓮縣玉里鎮中正路152號","TEL":"03-8882046","COUNTYNAME":"花蓮縣","TOWNNAME":"玉里鎮","MARKTYPE":"991","Class":"1"},"geometry":{"x":121.31484556770177,"y":23.336492800771559}},{"attributes":{"OBJECTID":24531,"LANDMARKID":"1001500000235","LANDMARKCO":"108","LANDMARKNA":"花蓮縣卓溪鄉公所","LANDMARKAD":"1001503","ADDRESS":"花蓮縣卓溪鄉中正70號","TEL":"03-8883118","COUNTYNAME":"花蓮縣","TOWNNAME":"玉里鎮","MARKTYPE":"991","Class":"1"},"geometry":{"x":121.30343013724978,"y":23.34644927914454}},{"attributes":{"OBJECTID":24532,"LANDMARKID":"1001500000049","LANDMARKCO":"103","LANDMARKNA":"花蓮縣卓溪鄉民代表會","LANDMARKAD":"1001503","ADDRESS":"花蓮縣卓溪鄉卓溪村中正66號之2","TEL":"03-8885308","COUNTYNAME":"花蓮縣","TOWNNAME":"玉里鎮","MARKTYPE":"991","Class":"1"},"geometry":{"x":121.30583230343906,"y":23.345632601912616}},{"attributes":{"OBJECTID":24533,"LANDMARKID":"1001500000144","LANDMARKCO":"107","LANDMARKNA":"花蓮縣消防局觀音消防分隊","LANDMARKAD":"1001503","ADDRESS":"花蓮縣玉里鎮觀音里16鄰觀音村14號之7","TEL":"03-8851119","COUNTYNAME":"花蓮縣","TOWNNAME":"玉里鎮","MARKTYPE":"991","Class":"1"},"geometry":{"x":121.35856398773988,"y":23.395728601883487}},{"attributes":{"OBJECTID":24534,"LANDMARKID":"1001500000145","LANDMARKCO":"107","LANDMARKNA":"花蓮縣警察局卓溪分駐所","LANDMARKAD":"1001503","ADDRESS":"花蓮縣卓溪鄉卓溪村中正路69號","TEL":"03-8886024","COUNTYNAME":"花蓮縣","TOWNNAME":"玉里鎮","MARKTYPE":"991","Class":"1"},"geometry":{"x":121.30387960591989,"y":23.346357232662399}},{"attributes":{"OBJECTID":24535,"LANDMARKID":"1001500000146","LANDMARKCO":"107","LANDMARKNA":"花蓮縣警察局大禹派出所","LANDMARKAD":"1001503","ADDRESS":"花蓮縣玉里鎮大禹里227號","TEL":"03-8886025","COUNTYNAME":"花蓮縣","TOWNNAME":"玉里鎮","MARKTYPE":"991","Class":"1"},"geometry":{"x":121.32921685948182,"y":23.378272091629796}},{"attributes":{"OBJECTID":24536,"LANDMARKID":"1001500000147","LANDMARKCO":"107","LANDMARKNA":"花蓮縣警察局三民派出所","LANDMARKAD":"1001503","ADDRESS":"花蓮縣玉里鎮三民里三民26號","TEL":"03-8841496","COUNTYNAME":"花蓮縣","TOWNNAME":"玉里鎮","MARKTYPE":"991","Class":"1"},"geometry":{"x":121.3453466893247,"y":23.429439357979422}},{"attributes":{"OBJECTID":24537,"LANDMARKID":"1001500000148","LANDMARKCO":"107","LANDMARKNA":"花蓮縣警察局春日派出所","LANDMARKAD":"1001503","ADDRESS":"花蓮縣玉里鎮春日里春日74號","TEL":"03-8871134","COUNTYNAME":"花蓮縣","TOWNNAME":"玉里鎮","MARKTYPE":"991","Class":"1"},"geometry":{"x":121.39670199302854,"y":23.4560426379795}},{"attributes":{"OBJECTID":24538,"LANDMARKID":"1001500000149","LANDMARKCO":"107","LANDMARKNA":"花蓮縣警察局松浦派出所","LANDMARKAD":"1001503","ADDRESS":"花蓮縣玉里鎮松浦里萬麗10號","TEL":"03-8851213","COUNTYNAME":"花蓮縣","TOWNNAME":"玉里鎮","MARKTYPE":"991","Class":"1"},"geometry":{"x":121.37483716638593,"y":23.428554377512015}},{"attributes":{"OBJECTID":24539,"LANDMARKID":"1001500000150","LANDMARKCO":"107","LANDMARKNA":"花蓮縣警察局觀音派出所","LANDMARKAD":"1001503","ADDRESS":"花蓮縣玉里鎮觀音里觀音14號","TEL":"03-8851040","COUNTYNAME":"花蓮縣","TOWNNAME":"玉里鎮","MARKTYPE":"991","Class":"1"},"geometry":{"x":121.35872349628033,"y":23.394463639470079}},{"attributes":{"OBJECTID":24540,"LANDMARKID":"1001500000151","LANDMARKCO":"107","LANDMARKNA":"花蓮縣警察局樂合派出所","LANDMARKAD":"1001503","ADDRESS":"花蓮縣玉里鎮樂合里27號","TEL":"03-8883384","COUNTYNAME":"花蓮縣","TOWNNAME":"玉里鎮","MARKTYPE":"991","Class":"1"},"geometry":{"x":121.34311290594154,"y":23.318281396608231}},{"attributes":{"OBJECTID":24541,"LANDMARKID":"1001500000152","LANDMARKCO":"107","LANDMARKNA":"花蓮縣警察局長良派出所","LANDMARKAD":"1001503","ADDRESS":"花蓮縣玉里鎮長良里143號","TEL":"03-8801050","COUNTYNAME":"花蓮縣","TOWNNAME":"玉里鎮","MARKTYPE":"991","Class":"1"},"geometry":{"x":121.28846234378568,"y":23.276760602874415}},{"attributes":{"OBJECTID":24542,"LANDMARKID":"1001500000107","LANDMARKCO":"106","LANDMARKNA":"花蓮縣卓溪鄉戶政事務所","LANDMARKAD":"1001503","ADDRESS":"花蓮縣卓溪鄉卓溪村7鄰中正路66之6號","TEL":"03-8883647","COUNTYNAME":"花蓮縣","TOWNNAME":"玉里鎮","MARKTYPE":"991","Class":"1"},"geometry":{"x":121.30370397697008,"y":23.346448217271597}},{"attributes":{"OBJECTID":24543,"LANDMARKID":"1001500000094","LANDMARKCO":"104","LANDMARKNA":"花蓮縣稅捐稽徵處玉里分處","LANDMARKAD":"1001503","ADDRESS":"花蓮縣玉里鎮忠孝街151號","TEL":"03-8882047","COUNTYNAME":"花蓮縣","TOWNNAME":"玉里鎮","MARKTYPE":"991","Class":"1"},"geometry":{"x":121.31945666759127,"y":23.324475121346275}},{"attributes":{"OBJECTID":24544,"LANDMARKID":"1001500000087","LANDMARKCO":"103","LANDMARKNA":"花蓮縣卓溪鄉衛生所","LANDMARKAD":"1001503","ADDRESS":"花蓮縣卓溪鄉卓溪村中正65號","TEL":"03-8881238","COUNTYNAME":"花蓮縣","TOWNNAME":"玉里鎮","MARKTYPE":"991","Class":"1"},"geometry":{"x":121.304278114688,"y":23.345813867938503}},{"attributes":{"OBJECTID":24545,"LANDMARKID":"1001500000403","LANDMARKCO":"204","LANDMARKNA":"花蓮縣立圖書館玉里分館","LANDMARKAD":"1001503","ADDRESS":"花蓮縣玉里鎮民族街2號","TEL":" ","COUNTYNAME":"花蓮縣","TOWNNAME":"玉里鎮","MARKTYPE":"992","Class":"2"},"geometry":{"x":121.3158837688772,"y":23.336069587155301}},{"attributes":{"OBJECTID":24546,"LANDMARKID":"1001500000258","LANDMARKCO":"202","LANDMARKNA":"國立玉里高中","LANDMARKAD":"1001503","ADDRESS":"花蓮縣玉里鎮中華路424號","TEL":"03-8882964","COUNTYNAME":"花蓮縣","TOWNNAME":"玉里鎮","MARKTYPE":"992","Class":"2"},"geometry":{"x":121.3189875519589,"y":23.345873094506189}},{"attributes":{"OBJECTID":24547,"LANDMARKID":"1001500000259","LANDMARKCO":"203","LANDMARKNA":"縣立玉里國中","LANDMARKAD":"1001503","ADDRESS":"花蓮縣玉里鎮民族街30號","TEL":"03-8882054","COUNTYNAME":"花蓮縣","TOWNNAME":"玉里鎮","MARKTYPE":"992","Class":"2"},"geometry":{"x":121.31147984942832,"y":23.336139505267784}},{"attributes":{"OBJECTID":24548,"LANDMARKID":"1001500000260","LANDMARKCO":"203","LANDMARKNA":"縣立中城國小","LANDMARKAD":"1001503","ADDRESS":"花蓮縣玉里鎮中山路一段1號","TEL":"03-8882372","COUNTYNAME":"花蓮縣","TOWNNAME":"玉里鎮","MARKTYPE":"992","Class":"2"},"geometry":{"x":121.31710092229605,"y":23.324659659254117}},{"attributes":{"OBJECTID":24549,"LANDMARKID":"1001500000261","LANDMARKCO":"203","LANDMARKNA":"縣立源城國小","LANDMARKAD":"1001503","ADDRESS":"花蓮縣玉里鎮源城里水源路62號","TEL":"03-8882290","COUNTYNAME":"花蓮縣","TOWNNAME":"玉里鎮","MARKTYPE":"992","Class":"2"},"geometry":{"x":121.29975615248097,"y":23.321619553374632}},{"attributes":{"OBJECTID":24550,"LANDMARKID":"1001500000262","LANDMARKCO":"203","LANDMARKNA":"縣立玉里國小","LANDMARKAD":"1001503","ADDRESS":"花蓮縣玉里鎮民權街50號","TEL":"03-8882007","COUNTYNAME":"花蓮縣","TOWNNAME":"玉里鎮","MARKTYPE":"992","Class":"2"},"geometry":{"x":121.31737176047383,"y":23.335765785066311}},{"attributes":{"OBJECTID":24551,"LANDMARKID":"1001500000263","LANDMARKCO":"203","LANDMARKNA":"縣立玉里國小永昌分校","LANDMARKAD":"1001503","ADDRESS":"花蓮縣玉里鎮莊敬路8號","TEL":"03-8886121","COUNTYNAME":"花蓮縣","TOWNNAME":"玉里鎮","MARKTYPE":"992","Class":"2"},"geometry":{"x":121.31986877745346,"y":23.341269720127183}},{"attributes":{"OBJECTID":24552,"LANDMARKID":"1001500000264","LANDMARKCO":"203","LANDMARKNA":"縣立三民國中","LANDMARKAD":"1001503","ADDRESS":"花蓮縣玉里鎮三民里151號","TEL":"03-8841198","COUNTYNAME":"花蓮縣","TOWNNAME":"玉里鎮","MARKTYPE":"992","Class":"2"},"geometry":{"x":121.34985017327428,"y":23.433037515342843}},{"attributes":{"OBJECTID":24553,"LANDMARKID":"1001500000265","LANDMARKCO":"203","LANDMARKNA":"縣立玉東國中","LANDMARKAD":"1001503","ADDRESS":"花蓮縣玉里鎮松埔里宮前39號","TEL":"03-8851062","COUNTYNAME":"花蓮縣","TOWNNAME":"玉里鎮","MARKTYPE":"992","Class":"2"},"geometry":{"x":121.37097740626227,"y":23.417007658843474}},{"attributes":{"OBJECTID":24554,"LANDMARKID":"1001500000266","LANDMARKCO":"203","LANDMARKNA":"縣立三民國小","LANDMARKAD":"1001503","ADDRESS":"花蓮縣玉里鎮三民里118號","TEL":"03-8841183","COUNTYNAME":"花蓮縣","TOWNNAME":"玉里鎮","MARKTYPE":"992","Class":"2"},"geometry":{"x":121.34836552139875,"y":23.430335117287164}},{"attributes":{"OBJECTID":24555,"LANDMARKID":"1001500000267","LANDMARKCO":"203","LANDMARKNA":"縣立長良國小","LANDMARKAD":"1001503","ADDRESS":"花蓮縣玉里鎮長良里163號","TEL":"03-8801171","COUNTYNAME":"花蓮縣","TOWNNAME":"玉里鎮","MARKTYPE":"992","Class":"2"},"geometry":{"x":121.28635619833877,"y":23.284444101818117}},{"attributes":{"OBJECTID":24556,"LANDMARKID":"1001500000268","LANDMARKCO":"203","LANDMARKNA":"縣立大禹國小","LANDMARKAD":"1001503","ADDRESS":"花蓮縣玉里鎮大禹里225號","TEL":"03-8883274","COUNTYNAME":"花蓮縣","TOWNNAME":"玉里鎮","MARKTYPE":"992","Class":"2"},"geometry":{"x":121.32881402720524,"y":23.379899230034923}},{"attributes":{"OBJECTID":24557,"LANDMARKID":"1001500000269","LANDMARKCO":"203","LANDMARKNA":"縣立德武國小","LANDMARKAD":"1001503","ADDRESS":"花蓮縣玉里鎮德武里9鄰171號","TEL":"03-8872824","COUNTYNAME":"花蓮縣","TOWNNAME":"玉里鎮","MARKTYPE":"992","Class":"2"},"geometry":{"x":121.40542991062033,"y":23.466132726995443}},{"attributes":{"OBJECTID":24558,"LANDMARKID":"1001500000270","LANDMARKCO":"203","LANDMARKNA":"縣立觀音國小","LANDMARKAD":"1001503","ADDRESS":"花蓮縣玉里鎮觀音里15鄰9號","TEL":"03-8851006","COUNTYNAME":"花蓮縣","TOWNNAME":"玉里鎮","MARKTYPE":"992","Class":"2"},"geometry":{"x":121.35664109153751,"y":23.394737732970885}},{"attributes":{"OBJECTID":24559,"LANDMARKID":"1001500000271","LANDMARKCO":"203","LANDMARKNA":"縣立松浦國小","LANDMARKAD":"1001503","ADDRESS":"花蓮縣玉里鎮松浦里12鄰212號","TEL":"03-8851131","COUNTYNAME":"花蓮縣","TOWNNAME":"玉里鎮","MARKTYPE":"992","Class":"2"},"geometry":{"x":121.37310659771319,"y":23.428833571852756}},{"attributes":{"OBJECTID":24560,"LANDMARKID":"1001500000272","LANDMARKCO":"203","LANDMARKNA":"縣立春日國小","LANDMARKAD":"1001503","ADDRESS":"花蓮縣玉里鎮春日里泰林95號","TEL":"03-8872628","COUNTYNAME":"花蓮縣","TOWNNAME":"玉里鎮","MARKTYPE":"992","Class":"2"},"geometry":{"x":121.39242743560992,"y":23.452084042402053}},{"attributes":{"OBJECTID":24561,"LANDMARKID":"1001500000273","LANDMARKCO":"203","LANDMARKNA":"縣立高寮國小","LANDMARKAD":"1001503","ADDRESS":"花蓮縣玉里鎮高寮92號","TEL":"03-8851078","COUNTYNAME":"花蓮縣","TOWNNAME":"玉里鎮","MARKTYPE":"992","Class":"2"},"geometry":{"x":121.35960745411792,"y":23.382720373177516}},{"attributes":{"OBJECTID":24562,"LANDMARKID":"1001500000274","LANDMARKCO":"203","LANDMARKNA":"縣立樂合國小","LANDMARKAD":"1001503","ADDRESS":"花蓮縣玉里鎮樂合里新民41號","TEL":"03-8886097","COUNTYNAME":"花蓮縣","TOWNNAME":"玉里鎮","MARKTYPE":"992","Class":"2"},"geometry":{"x":121.33959911806089,"y":23.320909446377119}},{"attributes":{"OBJECTID":24563,"LANDMARKID":"1001500000275","LANDMARKCO":"203","LANDMARKNA":"縣立卓溪國小","LANDMARKAD":"1001503","ADDRESS":"花蓮縣卓溪鄉卓溪村中正路72號","TEL":"03-8883514","COUNTYNAME":"花蓮縣","TOWNNAME":"玉里鎮","MARKTYPE":"992","Class":"2"},"geometry":{"x":121.30316156642515,"y":23.345456987151998}},{"attributes":{"OBJECTID":24564,"LANDMARKID":"1001500000503","LANDMARKCO":"303","LANDMARKNA":"停1-1停車場","LANDMARKAD":"1001503","ADDRESS":"花蓮縣玉里鎮民國路","TEL":" ","COUNTYNAME":"花蓮縣","TOWNNAME":"玉里鎮","MARKTYPE":"993","Class":"303"},"geometry":{"x":121.31742115158508,"y":23.332403038949252}},{"attributes":{"OBJECTID":24565,"LANDMARKID":"1001500000504","LANDMARKCO":"303","LANDMARKNA":"停1-8停車場","LANDMARKAD":"1001503","ADDRESS":"花蓮縣玉里鎮民權路","TEL":" ","COUNTYNAME":"花蓮縣","TOWNNAME":"玉里鎮","MARKTYPE":"993","Class":"303"},"geometry":{"x":121.31955298313542,"y":23.334843705740081}},{"attributes":{"OBJECTID":24566,"LANDMARKID":"1001500000448","LANDMARKCO":"301","LANDMARKNA":"大禹火車站(閒)","LANDMARKAD":"1001503","ADDRESS":"花蓮縣玉里鎮","TEL":" ","COUNTYNAME":"花蓮縣","TOWNNAME":"玉里鎮","MARKTYPE":"993","Class":"301"},"geometry":{"x":121.32680219588582,"y":23.380237256826703}},{"attributes":{"OBJECTID":24567,"LANDMARKID":"1001500000449","LANDMARKCO":"301","LANDMARKNA":"三民火車站","LANDMARKAD":"1001503","ADDRESS":"花蓮縣玉里鎮三民路10號","TEL":"03-8841847","COUNTYNAME":"花蓮縣","TOWNNAME":"玉里鎮","MARKTYPE":"993","Class":"301"},"geometry":{"x":121.34544846863318,"y":23.424604940160318}},{"attributes":{"OBJECTID":24568,"LANDMARKID":"1001500000450","LANDMARKCO":"301","LANDMARKNA":"玉里火車站","LANDMARKAD":"1001503","ADDRESS":"花蓮縣玉里鎮康樂街39號","TEL":"03-8882020","COUNTYNAME":"花蓮縣","TOWNNAME":"玉里鎮","MARKTYPE":"993","Class":"301"},"geometry":{"x":121.31180092878914,"y":23.331567421887033}},{"attributes":{"OBJECTID":24569,"LANDMARKID":"1001500000555","LANDMARKCO":"402","LANDMARKNA":"中華電信-玉里服務中心","LANDMARKAD":"1001503","ADDRESS":"花蓮縣玉里鎮中山路二段137號","TEL":"123或0800-080-123","COUNTYNAME":"花蓮縣","TOWNNAME":"玉里鎮","MARKTYPE":"994","Class":"4"},"geometry":{"x":121.31413016993841,"y":23.3355315854491}},{"attributes":{"OBJECTID":24570,"LANDMARKID":"1001500001343","LANDMARKCO":"604","LANDMARKNA":"鏷石民宿","LANDMARKAD":"1001503","ADDRESS":"花蓮縣玉里鎮中城里忠勇路62號","TEL":"03-8887878","COUNTYNAME":"花蓮縣","TOWNNAME":"玉里鎮","MARKTYPE":"996","Class":"6"},"geometry":{"x":121.31654527008091,"y":23.32680272537506}},{"attributes":{"OBJECTID":24571,"LANDMARKID":"1001500001344","LANDMARKCO":"604","LANDMARKNA":"歐鄉信義民宿","LANDMARKAD":"1001503","ADDRESS":"花蓮縣玉里鎮中城里信義路8號","TEL":"03-8883655","COUNTYNAME":"花蓮縣","TOWNNAME":"玉里鎮","MARKTYPE":"996","Class":"6"},"geometry":{"x":121.31451662993456,"y":23.327391810402357}},{"attributes":{"OBJECTID":24572,"LANDMARKID":"1001500001345","LANDMARKCO":"604","LANDMARKNA":"咪亞民宿","LANDMARKAD":"1001503","ADDRESS":"花蓮縣玉里鎮中城里城南五街1號","TEL":"03-8885300","COUNTYNAME":"花蓮縣","TOWNNAME":"玉里鎮","MARKTYPE":"996","Class":"6"},"geometry":{"x":121.32159347181198,"y":23.327273672515048}},{"attributes":{"OBJECTID":24573,"LANDMARKID":"1001500001346","LANDMARKCO":"604","LANDMARKNA":"好朋友民宿","LANDMARKAD":"1001503","ADDRESS":"花蓮縣瑞穗鄉瑞美村中山路2段161巷5號","TEL":"03-8870421","COUNTYNAME":"花蓮縣","TOWNNAME":"玉里鎮","MARKTYPE":"996","Class":"6"},"geometry":{"x":121.38628801524578,"y":23.469449632175753}},{"attributes":{"OBJECTID":24574,"LANDMARKID":"1001500001347","LANDMARKCO":"604","LANDMARKNA":"田園民宿","LANDMARKAD":"1001503","ADDRESS":"花蓮縣玉里鎮三民里三軒31-12號","TEL":"03-8841025","COUNTYNAME":"花蓮縣","TOWNNAME":"玉里鎮","MARKTYPE":"996","Class":"6"},"geometry":{"x":121.34462618956967,"y":23.420675668897907}},{"attributes":{"OBJECTID":24575,"LANDMARKID":"1001500001348","LANDMARKCO":"604","LANDMARKNA":"智嵐雅居","LANDMARKAD":"1001503","ADDRESS":"花蓮縣玉里鎮大禹里酸柑98-1號","TEL":"03-8882488","COUNTYNAME":"花蓮縣","TOWNNAME":"玉里鎮","MARKTYPE":"996","Class":"6"},"geometry":{"x":121.31687589912977,"y":23.36275264606369}},{"attributes":{"OBJECTID":24576,"LANDMARKID":"1001500001349","LANDMARKCO":"604","LANDMARKNA":"素敵園休閒渡假民宿","LANDMARKAD":"1001503","ADDRESS":"花蓮縣玉里鎮長良里155號之6","TEL":"03-8801153","COUNTYNAME":"花蓮縣","TOWNNAME":"玉里鎮","MARKTYPE":"996","Class":"6"},"geometry":{"x":121.40696108132424,"y":23.465872408871263}},{"attributes":{"OBJECTID":24577,"LANDMARKID":"1001500001350","LANDMARKCO":"604","LANDMARKNA":"旭日山莊民宿","LANDMARKAD":"1001503","ADDRESS":"花蓮縣玉里鎮泰昌里北平38號","TEL":"03-8888877","COUNTYNAME":"花蓮縣","TOWNNAME":"玉里鎮","MARKTYPE":"996","Class":"6"},"geometry":{"x":121.30889909342926,"y":23.343435954174058}},{"attributes":{"OBJECTID":24578,"LANDMARKID":"1001500001351","LANDMARKCO":"604","LANDMARKNA":"禾風綠園民宿","LANDMARKAD":"1001503","ADDRESS":"花蓮縣玉里鎮源城里水源43-1號","TEL":"03-8884087","COUNTYNAME":"花蓮縣","TOWNNAME":"玉里鎮","MARKTYPE":"996","Class":"6"},"geometry":{"x":121.29986214398765,"y":23.318960040199311}},{"attributes":{"OBJECTID":24579,"LANDMARKID":"1001500001352","LANDMARKCO":"604","LANDMARKNA":"和風陶花園民宿","LANDMARKAD":"1001503","ADDRESS":"花蓮縣玉里鎮德武里德武12-1號","TEL":"0932-651466","COUNTYNAME":"花蓮縣","TOWNNAME":"玉里鎮","MARKTYPE":"996","Class":"6"},"geometry":{"x":121.40212885030678,"y":23.475280594155393}},{"attributes":{"OBJECTID":24580,"LANDMARKID":"1001500001353","LANDMARKCO":"604","LANDMARKNA":"依佳人民宿","LANDMARKAD":"1001503","ADDRESS":"花蓮縣玉里鎮樂合里安通58號","TEL":"03-8886564","COUNTYNAME":"花蓮縣","TOWNNAME":"玉里鎮","MARKTYPE":"996","Class":"6"},"geometry":{"x":121.33827459601804,"y":23.294276418439125}},{"attributes":{"OBJECTID":24581,"LANDMARKID":"1001500001354","LANDMARKCO":"604","LANDMARKNA":"金萱花民宿","LANDMARKAD":"1001503","ADDRESS":"花蓮縣玉里鎮樂合里新民31號","TEL":"03-8886678","COUNTYNAME":"花蓮縣","TOWNNAME":"玉里鎮","MARKTYPE":"996","Class":"6"},"geometry":{"x":121.33807302175622,"y":23.319047849793261}},{"attributes":{"OBJECTID":24582,"LANDMARKID":"1001500001355","LANDMARKCO":"604","LANDMARKNA":"玉花緣山莊民宿","LANDMARKAD":"1001503","ADDRESS":"花蓮縣玉里鎮樂合里新民69-2號","TEL":"03-8980289","COUNTYNAME":"花蓮縣","TOWNNAME":"玉里鎮","MARKTYPE":"996","Class":"6"},"geometry":{"x":121.33803820853865,"y":23.323490923946881}},{"attributes":{"OBJECTID":24583,"LANDMARKID":"1001500001356","LANDMARKCO":"604","LANDMARKNA":"吉祥農莊民宿","LANDMARKAD":"1001503","ADDRESS":"花蓮縣玉里鎮樂合里溫泉35-6號","TEL":"03-8884776","COUNTYNAME":"花蓮縣","TOWNNAME":"玉里鎮","MARKTYPE":"996","Class":"6"},"geometry":{"x":121.34074158677032,"y":23.282358056265945}},{"attributes":{"OBJECTID":24584,"LANDMARKID":"1001500001357","LANDMARKCO":"604","LANDMARKNA":"紐澳華溫泉民宿","LANDMARKAD":"1001503","ADDRESS":"花蓮縣玉里鎮樂合里溫泉41-5號","TEL":"03-8887333","COUNTYNAME":"花蓮縣","TOWNNAME":"玉里鎮","MARKTYPE":"996","Class":"6"},"geometry":{"x":121.34357225558233,"y":23.283432907429948}},{"attributes":{"OBJECTID":24585,"LANDMARKID":"1001500001358","LANDMARKCO":"604","LANDMARKNA":"林家厝民宿","LANDMARKAD":"1001503","ADDRESS":"花蓮縣玉里鎮源城里水源239號","TEL":"03-8882522","COUNTYNAME":"花蓮縣","TOWNNAME":"玉里鎮","MARKTYPE":"996","Class":"6"},"geometry":{"x":121.30987490883059,"y":23.329032028046026}},{"attributes":{"OBJECTID":24586,"LANDMARKID":"1001500000842","LANDMARKCO":"603","LANDMARKNA":"新新大旅社","LANDMARKAD":"1001503","ADDRESS":"花蓮縣玉里鎮大同路226號","TEL":"03-8883103","COUNTYNAME":"花蓮縣","TOWNNAME":"玉里鎮","MARKTYPE":"996","Class":"6"},"geometry":{"x":121.31274039894413,"y":23.332861824548562}},{"attributes":{"OBJECTID":24587,"LANDMARKID":"1001500000843","LANDMARKCO":"603","LANDMARKNA":"東都商務汽車旅館","LANDMARKAD":"1001503","ADDRESS":"花蓮縣花蓮市五里鎮大同路42號","TEL":"03-8889627","COUNTYNAME":"花蓮縣","TOWNNAME":"玉里鎮","MARKTYPE":"996","Class":"6"},"geometry":{"x":121.31532142831954,"y":23.326029193250321}},{"attributes":{"OBJECTID":24588,"LANDMARKID":"1001500000844","LANDMARKCO":"603","LANDMARKNA":"福錦大旅社","LANDMARKAD":"1001503","ADDRESS":"花蓮縣玉里鎮中正路91號","TEL":"03-8883156","COUNTYNAME":"花蓮縣","TOWNNAME":"玉里鎮","MARKTYPE":"996","Class":"6"},"geometry":{"x":121.31564813046302,"y":23.333811534068225}},{"attributes":{"OBJECTID":24589,"LANDMARKID":"1001500000845","LANDMARKCO":"603","LANDMARKNA":"玉麒麟別莊","LANDMARKAD":"1001503","ADDRESS":"花蓮縣玉里鎮大同路210號","TEL":"03-8883113-4","COUNTYNAME":"花蓮縣","TOWNNAME":"玉里鎮","MARKTYPE":"996","Class":"6"},"geometry":{"x":121.31247883320532,"y":23.33133934652497}},{"attributes":{"OBJECTID":24590,"LANDMARKID":"1001500000846","LANDMARKCO":"603","LANDMARKNA":"長春旅社","LANDMARKAD":"1001503","ADDRESS":"花蓮縣玉里鎮中華路160號","TEL":"03-8882203","COUNTYNAME":"花蓮縣","TOWNNAME":"玉里鎮","MARKTYPE":"996","Class":"6"},"geometry":{"x":121.3153560137881,"y":23.337387122002919}},{"attributes":{"OBJECTID":24591,"LANDMARKID":"1001500000847","LANDMARKCO":"603","LANDMARKNA":"東興旅社","LANDMARKAD":"1001503","ADDRESS":"花蓮縣玉里鎮光復路130號","TEL":"03-8882017","COUNTYNAME":"花蓮縣","TOWNNAME":"玉里鎮","MARKTYPE":"996","Class":"6"},"geometry":{"x":121.31369218420376,"y":23.331485921892625}},{"attributes":{"OBJECTID":24592,"LANDMARKID":"1001500000848","LANDMARKCO":"603","LANDMARKNA":"和平大旅社","LANDMARKAD":"1001503","ADDRESS":"花蓮縣玉里鎮和平路51號","TEL":"03-8883146","COUNTYNAME":"花蓮縣","TOWNNAME":"玉里鎮","MARKTYPE":"996","Class":"6"},"geometry":{"x":121.31438488182812,"y":23.332205074226842}},{"attributes":{"OBJECTID":24593,"LANDMARKID":"1001500000771","LANDMARKCO":"508","LANDMARKNA":"安通吉祥溫泉農莊","LANDMARKAD":"1001503","ADDRESS":"花蓮縣玉里鎮樂合里安通35之6號","TEL":"03-8884776","COUNTYNAME":"花蓮縣","TOWNNAME":"玉里鎮","MARKTYPE":"995","Class":"5"},"geometry":{"x":121.34075581130979,"y":23.282513468495662}},{"attributes":{"OBJECTID":24594,"LANDMARKID":"1001500000772","LANDMARKCO":"508","LANDMARKNA":"安通溫泉飯店","LANDMARKAD":"1001503","ADDRESS":"花蓮縣玉里鎮溫泉路36號","TEL":"03-8886108","COUNTYNAME":"花蓮縣","TOWNNAME":"玉里鎮","MARKTYPE":"995","Class":"5"},"geometry":{"x":121.34194381121854,"y":23.281175355578888}},{"attributes":{"OBJECTID":24595,"LANDMARKID":"1001500000773","LANDMARKCO":"508","LANDMARKNA":"安通溫泉","LANDMARKAD":"1001503","ADDRESS":"花蓮縣玉里鎮","TEL":" ","COUNTYNAME":"花蓮縣","TOWNNAME":"玉里鎮","MARKTYPE":"995","Class":"5"},"geometry":{"x":121.34098965099729,"y":23.28105644930459}},{"attributes":{"OBJECTID":24596,"LANDMARKID":"1001500000774","LANDMARKCO":"508","LANDMARKNA":"加賀屋溫泉山莊","LANDMARKAD":"1001503","ADDRESS":"花蓮縣玉里鎮溫泉41之2號","TEL":"03-9307979","COUNTYNAME":"花蓮縣","TOWNNAME":"玉里鎮","MARKTYPE":"995","Class":"5"},"geometry":{"x":121.34295696008968,"y":23.283487618972003}},{"attributes":{"OBJECTID":24597,"LANDMARKID":"1001500000775","LANDMARKCO":"508","LANDMARKNA":"紐澳華溫泉山莊","LANDMARKAD":"1001503","ADDRESS":"花蓮縣玉里鎮溫泉41之5號","TEL":"03-8887373","COUNTYNAME":"花蓮縣","TOWNNAME":"玉里鎮","MARKTYPE":"995","Class":"5"},"geometry":{"x":121.34395213185206,"y":23.28455813088863}},{"attributes":{"OBJECTID":24598,"LANDMARKID":"1001500000637","LANDMARKCO":"405","LANDMARKNA":"中油加油站-國光站(中油自營)","LANDMARKAD":"1001510","ADDRESS":"花蓮縣富里鄉東里村大莊路120號","TEL":"03-8861455","COUNTYNAME":"花蓮縣","TOWNNAME":"富里鄉","MARKTYPE":"994","Class":"4"},"geometry":{"x":121.3208028183311,"y":23.278276155098467}},{"attributes":{"OBJECTID":24599,"LANDMARKID":"1001500000638","LANDMARKCO":"405","LANDMARKNA":"中油加油站-富里站(中油自營)","LANDMARKAD":"1001510","ADDRESS":"花蓮縣富里鄉石牌村中興路85號","TEL":"038-831285","COUNTYNAME":"花蓮縣","TOWNNAME":"富里鄉","MARKTYPE":"994","Class":"4"},"geometry":{"x":121.25233786743087,"y":23.182762012399138}},{"attributes":{"OBJECTID":24600,"LANDMARKID":"1001500000770","LANDMARKCO":"507","LANDMARKNA":"公埔遺址","LANDMARKAD":"1001510","ADDRESS":"花蓮縣富里鄉石牌村","TEL":" ","COUNTYNAME":"花蓮縣","TOWNNAME":"富里鄉","MARKTYPE":"995","Class":"5"},"geometry":{"x":121.25385543943217,"y":23.179716919865246}}]}