{"displayFieldName":"COUNTYNAME","fieldAliases":{"OBJECTID":"OBJECTID","LANDMARKID":"LANDMARKID","LANDMARKCO":"LANDMARKCO","LANDMARKNA":"LANDMARKNA","LANDMARKAD":"LANDMARKAD","ADDRESS":"ADDRESS","TEL":"TEL","COUNTYNAME":"COUNTYNAME","TOWNNAME":"TOWNNAME","MARKTYPE":"MARKTYPE","Class":"Class"},"geometryType":"esriGeometryPoint","spatialReference":{"wkid":102443},"fields":[{"name":"OBJECTID","type":"esriFieldTypeOID","alias":"OBJECTID"},{"name":"LANDMARKID","type":"esriFieldTypeString","alias":"LANDMARKID","length":15},{"name":"LANDMARKCO","type":"esriFieldTypeString","alias":"LANDMARKCO","length":15},{"name":"LANDMARKNA","type":"esriFieldTypeString","alias":"LANDMARKNA","length":50},{"name":"LANDMARKAD","type":"esriFieldTypeString","alias":"LANDMARKAD","length":15},{"name":"ADDRESS","type":"esriFieldTypeString","alias":"ADDRESS","length":56},{"name":"TEL","type":"esriFieldTypeString","alias":"TEL","length":36},{"name":"COUNTYNAME","type":"esriFieldTypeString","alias":"COUNTYNAME","length":15},{"name":"TOWNNAME","type":"esriFieldTypeString","alias":"TOWNNAME","length":13},{"name":"MARKTYPE","type":"esriFieldTypeString","alias":"MARKTYPE","length":12},{"name":"Class","type":"esriFieldTypeString","alias":"Class","length":5}],"features":[{"attributes":{"OBJECTID":14401,"LANDMARKID":"1001900000335","LANDMARKCO":"303","LANDMARKNA":"富仙大飯店停車場","LANDMARKAD":"1001904","ADDRESS":"台中市西區五權路2之55號","TEL":"04-23722161","COUNTYNAME":"台中市","TOWNNAME":"西區","MARKTYPE":"993","Class":"303"},"geometry":{"x":216131.67769999988,"y":2670663.9214999992}},{"attributes":{"OBJECTID":14402,"LANDMARKID":"1001900000336","LANDMARKCO":"303","LANDMARKNA":"香榭大飯店停車場","LANDMARKAD":"1001904","ADDRESS":" ","TEL":"04-23221775","COUNTYNAME":"台中市","TOWNNAME":"西區","MARKTYPE":"993","Class":"303"},"geometry":{"x":216462.76929999981,"y":2672112.7564000003}},{"attributes":{"OBJECTID":14403,"LANDMARKID":"1001900000337","LANDMARKCO":"303","LANDMARKNA":"民龍公園旁停車場","LANDMARKAD":"1001904","ADDRESS":" ","TEL":" ","COUNTYNAME":"台中市","TOWNNAME":"西區","MARKTYPE":"993","Class":"303"},"geometry":{"x":216473.8328999998,"y":2671978.6927000005}},{"attributes":{"OBJECTID":14404,"LANDMARKID":"1001900000338","LANDMARKCO":"303","LANDMARKNA":"貴和停車場","LANDMARKAD":"1001904","ADDRESS":" ","TEL":" ","COUNTYNAME":"台中市","TOWNNAME":"西區","MARKTYPE":"993","Class":"303"},"geometry":{"x":216533.75719999988,"y":2670166.9729999993}},{"attributes":{"OBJECTID":14405,"LANDMARKID":"1001900000339","LANDMARKCO":"303","LANDMARKNA":"平和停車場","LANDMARKAD":"1001904","ADDRESS":" ","TEL":" ","COUNTYNAME":"台中市","TOWNNAME":"西區","MARKTYPE":"993","Class":"303"},"geometry":{"x":216733.06960000005,"y":2670680.0438999999}},{"attributes":{"OBJECTID":14406,"LANDMARKID":"1001900000340","LANDMARKCO":"303","LANDMARKNA":"貴和街邊臨時停車場","LANDMARKAD":"1001904","ADDRESS":"台中市西區貴河路旁","TEL":" ","COUNTYNAME":"台中市","TOWNNAME":"西區","MARKTYPE":"993","Class":"303"},"geometry":{"x":216764.90859999973,"y":2669918.3429000005}},{"attributes":{"OBJECTID":14407,"LANDMARKID":"1001900000341","LANDMARKCO":"303","LANDMARKNA":"中港大飯店停車場","LANDMARKAD":"1001904","ADDRESS":" ","TEL":"04-22012181","COUNTYNAME":"台中市","TOWNNAME":"西區","MARKTYPE":"993","Class":"303"},"geometry":{"x":216823.75650000013,"y":2671377.8139999993}},{"attributes":{"OBJECTID":14408,"LANDMARKID":"1001900000342","LANDMARKCO":"303","LANDMARKNA":"廣民停車場","LANDMARKAD":"1001904","ADDRESS":" ","TEL":" ","COUNTYNAME":"台中市","TOWNNAME":"西區","MARKTYPE":"993","Class":"303"},"geometry":{"x":216816.43030000012,"y":2670465.7697999999}},{"attributes":{"OBJECTID":14409,"LANDMARKID":"1001900000343","LANDMARKCO":"303","LANDMARKNA":"林森停車場","LANDMARKAD":"1001904","ADDRESS":"台中市西區林森路27巷","TEL":" ","COUNTYNAME":"台中市","TOWNNAME":"西區","MARKTYPE":"993","Class":"303"},"geometry":{"x":216826.6540000001,"y":2669960.9011000004}},{"attributes":{"OBJECTID":14410,"LANDMARKID":"1001900000344","LANDMARKCO":"303","LANDMARKNA":"府後街地下停車場","LANDMARKAD":"1001904","ADDRESS":" ","TEL":" ","COUNTYNAME":"台中市","TOWNNAME":"西區","MARKTYPE":"993","Class":"303"},"geometry":{"x":216987.1810999997,"y":2670165.7661000006}},{"attributes":{"OBJECTID":14411,"LANDMARKID":"1001900000345","LANDMARKCO":"303","LANDMARKNA":"台中地方法院停車場","LANDMARKAD":"1001904","ADDRESS":" ","TEL":" ","COUNTYNAME":"台中市","TOWNNAME":"西區","MARKTYPE":"993","Class":"303"},"geometry":{"x":217011.41779999994,"y":2669897.2569999993}},{"attributes":{"OBJECTID":14412,"LANDMARKID":"1001900000346","LANDMARKCO":"303","LANDMARKNA":"市府廣場停車場","LANDMARKAD":"1001904","ADDRESS":" ","TEL":"04-91112803","COUNTYNAME":"台中市","TOWNNAME":"西區","MARKTYPE":"993","Class":"303"},"geometry":{"x":217317.23450000025,"y":2670464.5325000007}},{"attributes":{"OBJECTID":14413,"LANDMARKID":"1001900000347","LANDMARKCO":"303","LANDMARKNA":"水舞饡平面停車場","LANDMARKAD":"1001904","ADDRESS":" ","TEL":" ","COUNTYNAME":"台中市","TOWNNAME":"西區","MARKTYPE":"993","Class":"303"},"geometry":{"x":216305.56450000033,"y":2671855.1693999991}},{"attributes":{"OBJECTID":14414,"LANDMARKID":"1001900000348","LANDMARKCO":"303","LANDMARKNA":"中興嘟嘟房停車場-寶盛加盟-台中萬壽站","LANDMARKAD":"1001904","ADDRESS":"台中市西區向上路1段577號B1(萬壽棒球場)","TEL":" ","COUNTYNAME":"台中市","TOWNNAME":"西區","MARKTYPE":"993","Class":"303"},"geometry":{"x":214505.04910000041,"y":2671299.4297000002}},{"attributes":{"OBJECTID":14415,"LANDMARKID":"1001900000349","LANDMARKCO":"303","LANDMARKNA":"台灣省立台中醫院附設停車場","LANDMARKAD":"1001904","ADDRESS":"台中市西區三民路一段199號","TEL":" ","COUNTYNAME":"台中市","TOWNNAME":"西區","MARKTYPE":"993","Class":"303"},"geometry":{"x":217041.49619999994,"y":2670592.8978000004}},{"attributes":{"OBJECTID":14416,"LANDMARKID":"1001900000350","LANDMARKCO":"303","LANDMARKNA":"市府廣場停車場","LANDMARKAD":"1001904","ADDRESS":"台中市西區民權路99號","TEL":" ","COUNTYNAME":"台中市","TOWNNAME":"西區","MARKTYPE":"993","Class":"303"},"geometry":{"x":217274.23959999997,"y":2670395.9199999999}},{"attributes":{"OBJECTID":14417,"LANDMARKID":"1001900000351","LANDMARKCO":"303","LANDMARKNA":"應安停車場-台中場","LANDMARKAD":"1001904","ADDRESS":"台中中港路一段423號B3~B6","TEL":"04-23268016","COUNTYNAME":"台中市","TOWNNAME":"西區","MARKTYPE":"993","Class":"303"},"geometry":{"x":215270.16980000027,"y":2672520.8949999996}},{"attributes":{"OBJECTID":14418,"LANDMARKID":"1001900000352","LANDMARKCO":"303","LANDMARKNA":"台灣聯通停車場-勤美誠品","LANDMARKAD":"1001904","ADDRESS":"台中市公益路68號4F~14F(勤美綠緣道商場)","TEL":" ","COUNTYNAME":"台中市","TOWNNAME":"西區","MARKTYPE":"993","Class":"303"},"geometry":{"x":215844.87909999955,"y":2671810.5863000005}},{"attributes":{"OBJECTID":14419,"LANDMARKID":"1001900000353","LANDMARKCO":"303","LANDMARKNA":"中興嘟嘟房停車場-台中忠明站","LANDMARKAD":"1001904","ADDRESS":"台中市西區中港路與忠明南路口","TEL":"04-23262916","COUNTYNAME":"台中市","TOWNNAME":"西區","MARKTYPE":"993","Class":"303"},"geometry":{"x":215358.37609999999,"y":2672390.0711000003}},{"attributes":{"OBJECTID":14420,"LANDMARKID":"1001900000354","LANDMARKCO":"303","LANDMARKNA":"中興嘟嘟房停車場-台中中興站","LANDMARKAD":"1001904","ADDRESS":"台中市西區英才路470巷與中港路1段199巷口(全國大飯店","TEL":"04-23264084","COUNTYNAME":"台中市","TOWNNAME":"西區","MARKTYPE":"993","Class":"303"},"geometry":{"x":215894.29449999984,"y":2672029.8725000005}},{"attributes":{"OBJECTID":14421,"LANDMARKID":"1001900000645","LANDMARKCO":"402","LANDMARKNA":"中華電信-台中忠明特約服務中心","LANDMARKAD":"1001904","ADDRESS":"台中市西區忠明南路421號","TEL":"04-23728958","COUNTYNAME":"台中市","TOWNNAME":"西區","MARKTYPE":"994","Class":"4"},"geometry":{"x":215207.78809999954,"y":2670534.534}},{"attributes":{"OBJECTID":14422,"LANDMARKID":"1001900000646","LANDMARKCO":"402","LANDMARKNA":"中華電信-台中柳川特約服務中心","LANDMARKAD":"1001904","ADDRESS":"台中市南屯路一段96號","TEL":"04-23728298","COUNTYNAME":"台中市","TOWNNAME":"西區","MARKTYPE":"994","Class":"4"},"geometry":{"x":215815.52699999977,"y":2669720.6342999991}},{"attributes":{"OBJECTID":14423,"LANDMARKID":"1001900000647","LANDMARKCO":"402","LANDMARKNA":"中華電信-台中美村特約服務中心","LANDMARKAD":"1001904","ADDRESS":"台中市美村路一段180號","TEL":"04-23029689","COUNTYNAME":"台中市","TOWNNAME":"西區","MARKTYPE":"994","Class":"4"},"geometry":{"x":215601.3021999998,"y":2671658.1077999994}},{"attributes":{"OBJECTID":14424,"LANDMARKID":"1001900000648","LANDMARKCO":"402","LANDMARKNA":"遠傳電信-忠明門市","LANDMARKAD":"1001904","ADDRESS":"台中市西區忠明南路119號","TEL":" ","COUNTYNAME":"台中市","TOWNNAME":"西區","MARKTYPE":"994","Class":"4"},"geometry":{"x":215198.34680000041,"y":2671945.5037999991}},{"attributes":{"OBJECTID":14425,"LANDMARKID":"1001900000649","LANDMARKCO":"402","LANDMARKNA":"遠傳電信-美村門市","LANDMARKAD":"1001904","ADDRESS":"台中市西區美村路一段26號","TEL":" ","COUNTYNAME":"台中市","TOWNNAME":"西區","MARKTYPE":"994","Class":"4"},"geometry":{"x":215612.58320000023,"y":2672157.1315000001}},{"attributes":{"OBJECTID":14426,"LANDMARKID":"1001900000650","LANDMARKCO":"402","LANDMARKNA":"威寶電信-台中公益特約服務中心","LANDMARKAD":"1001904","ADDRESS":"台中市西區公益路234號","TEL":"04-23202003","COUNTYNAME":"台中市","TOWNNAME":"西區","MARKTYPE":"994","Class":"4"},"geometry":{"x":214995.72300000023,"y":2671791.7039000001}},{"attributes":{"OBJECTID":14427,"LANDMARKID":"1001900000651","LANDMARKCO":"402","LANDMARKNA":"威寶電信-台中向上特約服務中心","LANDMARKAD":"1001904","ADDRESS":"台中市西區向上路一段466號","TEL":"04-23209298","COUNTYNAME":"台中市","TOWNNAME":"西區","MARKTYPE":"994","Class":"4"},"geometry":{"x":214773.33100000024,"y":2671334.1589000002}},{"attributes":{"OBJECTID":14428,"LANDMARKID":"1001900000652","LANDMARKCO":"402","LANDMARKNA":"威寶電信-台中美村特約服務中心","LANDMARKAD":"1001904","ADDRESS":"台中市西區美村路一段１９５號","TEL":"04-23017070","COUNTYNAME":"台中市","TOWNNAME":"西區","MARKTYPE":"994","Class":"4"},"geometry":{"x":215637.9972000001,"y":2671678.1945999991}},{"attributes":{"OBJECTID":14429,"LANDMARKID":"1001900000653","LANDMARKCO":"402","LANDMARKNA":"大眾電信-民生專賣店","LANDMARKAD":"1001904","ADDRESS":"台中市民生路35-1號(中華電信對面)","TEL":"0966-599777","COUNTYNAME":"台中市","TOWNNAME":"西區","MARKTYPE":"994","Class":"4"},"geometry":{"x":217185.68659999967,"y":2670271.5097000003}},{"attributes":{"OBJECTID":14430,"LANDMARKID":"1001900000654","LANDMARKCO":"402","LANDMARKNA":"大眾電信(震旦通訊)-台中向上店","LANDMARKAD":"1001904","ADDRESS":"台中市西區向上路一段449號","TEL":"04-24720999","COUNTYNAME":"台中市","TOWNNAME":"西區","MARKTYPE":"994","Class":"4"},"geometry":{"x":214841.42580000032,"y":2671296.3272999991}},{"attributes":{"OBJECTID":14431,"LANDMARKID":"1001900000655","LANDMARKCO":"402","LANDMARKNA":"大眾電信-向上專賣店","LANDMARKAD":"1001904","ADDRESS":"台中市西區向上路一段478號","TEL":"968544317","COUNTYNAME":"台中市","TOWNNAME":"西區","MARKTYPE":"994","Class":"4"},"geometry":{"x":214754.33320000023,"y":2671333.1118999999}},{"attributes":{"OBJECTID":14432,"LANDMARKID":"1001900000656","LANDMARKCO":"402","LANDMARKNA":"大眾電信(震旦通訊)-台中精誠店","LANDMARKAD":"1001904","ADDRESS":"台中市西區精誠路3-1號","TEL":"04-23299808","COUNTYNAME":"台中市","TOWNNAME":"西區","MARKTYPE":"994","Class":"4"},"geometry":{"x":215152.67989999987,"y":2672424.3883999996}},{"attributes":{"OBJECTID":14433,"LANDMARKID":"1001900000657","LANDMARKCO":"402","LANDMARKNA":"大眾電信(震旦通訊)-台中忠明店","LANDMARKAD":"1001904","ADDRESS":"台中市忠明南路181之4號","TEL":"04-23025995","COUNTYNAME":"台中市","TOWNNAME":"西區","MARKTYPE":"994","Class":"4"},"geometry":{"x":215199.48230000027,"y":2671582.5084000006}},{"attributes":{"OBJECTID":14434,"LANDMARKID":"1001900000658","LANDMARKCO":"402","LANDMARKNA":"中華電信-南台中服務中心","LANDMARKAD":"1001904","ADDRESS":"台中市市府路37號","TEL":"123或0800-080-123","COUNTYNAME":"台中市","TOWNNAME":"西區","MARKTYPE":"994","Class":"4"},"geometry":{"x":217247.51790000033,"y":2670291.4153000005}},{"attributes":{"OBJECTID":14435,"LANDMARKID":"1001900000659","LANDMARKCO":"402","LANDMARKNA":"中華電信-台中精誠特約服務中心","LANDMARKAD":"1001904","ADDRESS":"台中市西區精誠路29號","TEL":"04-23203535","COUNTYNAME":"台中市","TOWNNAME":"西區","MARKTYPE":"994","Class":"4"},"geometry":{"x":214985.99409999978,"y":2672165.5285}},{"attributes":{"OBJECTID":14436,"LANDMARKID":"1001900001134","LANDMARKCO":"603","LANDMARKNA":"雅典商務旅館","LANDMARKAD":"1001904","ADDRESS":"台中市大和路3號","TEL":"04-23052370","COUNTYNAME":"台中市","TOWNNAME":"西區","MARKTYPE":"996","Class":"6"},"geometry":{"x":216422.96690000035,"y":2671689.0441999994}},{"attributes":{"OBJECTID":14437,"LANDMARKID":"1001900001135","LANDMARKCO":"603","LANDMARKNA":"中港大飯店","LANDMARKAD":"1001904","ADDRESS":"台中市中正路461號","TEL":"04-22012181","COUNTYNAME":"台中市","TOWNNAME":"西區","MARKTYPE":"996","Class":"6"},"geometry":{"x":216814.30939999968,"y":2671355.3017999995}},{"attributes":{"OBJECTID":14438,"LANDMARKID":"1001900001136","LANDMARKCO":"603","LANDMARKNA":"昭盛52行館","LANDMARKAD":"1001904","ADDRESS":"台中市忠明路52號","TEL":"04-23175000","COUNTYNAME":"台中市","TOWNNAME":"西區","MARKTYPE":"996","Class":"6"},"geometry":{"x":215546.90060000028,"y":2672641.6550999992}},{"attributes":{"OBJECTID":14439,"LANDMARKID":"1001900001137","LANDMARKCO":"603","LANDMARKNA":"宇宙大飯店","LANDMARKAD":"1001904","ADDRESS":"台中市五權路203號","TEL":"04-22012191","COUNTYNAME":"台中市","TOWNNAME":"西區","MARKTYPE":"996","Class":"6"},"geometry":{"x":216927.53789999988,"y":2671565.5636999998}},{"attributes":{"OBJECTID":14440,"LANDMARKID":"1001900001138","LANDMARKCO":"603","LANDMARKNA":"富仙大飯店","LANDMARKAD":"1001904","ADDRESS":"台中市五權路2-55號","TEL":"04-23722161","COUNTYNAME":"台中市","TOWNNAME":"西區","MARKTYPE":"996","Class":"6"},"geometry":{"x":216135.49590000045,"y":2670657.0391000006}},{"attributes":{"OBJECTID":14441,"LANDMARKID":"1001900001139","LANDMARKCO":"603","LANDMARKNA":"麗加園邸酒店","LANDMARKAD":"1001904","ADDRESS":"台中市公益路111號1-5樓","TEL":"04-23057581","COUNTYNAME":"台中市","TOWNNAME":"西區","MARKTYPE":"996","Class":"6"},"geometry":{"x":216100.82550000027,"y":2671749.6242999993}},{"attributes":{"OBJECTID":14442,"LANDMARKID":"1001900001140","LANDMARKCO":"603","LANDMARKNA":"晶品大飯店","LANDMARKAD":"1001904","ADDRESS":"台中市向上路1段95號11-14樓","TEL":"04-23028008","COUNTYNAME":"台中市","TOWNNAME":"西區","MARKTYPE":"996","Class":"6"},"geometry":{"x":215786.43080000021,"y":2671298.5558000002}},{"attributes":{"OBJECTID":14443,"LANDMARKID":"1001900001141","LANDMARKCO":"603","LANDMARKNA":"香榭大飯店","LANDMARKAD":"1001904","ADDRESS":"台中市西屯路一段173號","TEL":"04-23221775","COUNTYNAME":"台中市","TOWNNAME":"西區","MARKTYPE":"996","Class":"6"},"geometry":{"x":216460.70189999975,"y":2672109.1314000003}},{"attributes":{"OBJECTID":14444,"LANDMARKID":"1001900001142","LANDMARKCO":"603","LANDMARKNA":"奧大利汽車旅館","LANDMARKAD":"1001904","ADDRESS":"台中市忠明南路206號","TEL":"04-23780969","COUNTYNAME":"台中市","TOWNNAME":"西區","MARKTYPE":"996","Class":"6"},"geometry":{"x":215133.85089999996,"y":2670816.3512999993}},{"attributes":{"OBJECTID":14445,"LANDMARKID":"1001900001143","LANDMARKCO":"603","LANDMARKNA":"美之旅大飯店","LANDMARKAD":"1001904","ADDRESS":"台中市美村路1段269號","TEL":"04-23024330","COUNTYNAME":"台中市","TOWNNAME":"西區","MARKTYPE":"996","Class":"6"},"geometry":{"x":215637.77599999961,"y":2671462.1959000006}},{"attributes":{"OBJECTID":14446,"LANDMARKID":"1001900001144","LANDMARKCO":"603","LANDMARKNA":"亞緻大飯店","LANDMARKAD":"1001904","ADDRESS":"台中市英才路530號1樓","TEL":"04-23031234","COUNTYNAME":"台中市","TOWNNAME":"西區","MARKTYPE":"996","Class":"6"},"geometry":{"x":215964.98579999991,"y":2671682.3001000006}},{"attributes":{"OBJECTID":14447,"LANDMARKID":"1001900001145","LANDMARKCO":"603","LANDMARKNA":"漢彌敦大飯店","LANDMARKAD":"1001904","ADDRESS":"台中市華美街303-1號","TEL":"04-23027890","COUNTYNAME":"台中市","TOWNNAME":"西區","MARKTYPE":"996","Class":"6"},"geometry":{"x":215295.26370000001,"y":2671672.0506999996}},{"attributes":{"OBJECTID":14448,"LANDMARKID":"1001900001146","LANDMARKCO":"603","LANDMARKNA":"台中品商務旅館","LANDMARKAD":"1001904","ADDRESS":"台中市篤信街26號","TEL":"04-24717851","COUNTYNAME":"台中市","TOWNNAME":"西區","MARKTYPE":"996","Class":"6"},"geometry":{"x":216734.40070000011,"y":2671623.1136000007}},{"attributes":{"OBJECTID":14449,"LANDMARKID":"1001900001034","LANDMARKCO":"601","LANDMARKNA":"全國大飯店","LANDMARKAD":"1001904","ADDRESS":"台中市台中港路1段257號","TEL":"04-2321-3111","COUNTYNAME":"台中市","TOWNNAME":"西區","MARKTYPE":"996","Class":"6"},"geometry":{"x":215846.81280000042,"y":2672062.0152000003}},{"attributes":{"OBJECTID":14450,"LANDMARKID":"1001900001035","LANDMARKCO":"601","LANDMARKNA":"日華金典酒店","LANDMARKAD":"1001904","ADDRESS":"台中市健行路1049號","TEL":"04-2328-8000","COUNTYNAME":"台中市","TOWNNAME":"西區","MARKTYPE":"996","Class":"6"},"geometry":{"x":215774.94180000015,"y":2672316.5211999994}},{"attributes":{"OBJECTID":14451,"LANDMARKID":"1001900001028","LANDMARKCO":"511","LANDMARKNA":"精明一街形象商圈","LANDMARKAD":"1001904","ADDRESS":"台中市西區精明一街","TEL":" ","COUNTYNAME":"台中市","TOWNNAME":"西區","MARKTYPE":"995","Class":"5"},"geometry":{"x":215246.23550000042,"y":2672490.6678999998}},{"attributes":{"OBJECTID":14452,"LANDMARKID":"1001900000978","LANDMARKCO":"410","LANDMARKNA":"臺中市市民廣場","LANDMARKAD":"1001904","ADDRESS":"台中市西區","TEL":" ","COUNTYNAME":"台中市","TOWNNAME":"西區","MARKTYPE":"994","Class":"4"},"geometry":{"x":215800.36760000046,"y":2671738.8319000006}},{"attributes":{"OBJECTID":14453,"LANDMARKID":"1001900000808","LANDMARKCO":"405","LANDMARKNA":"中油加油站-加得利站","LANDMARKAD":"1001901","ADDRESS":"台中市中區柳川西路三段1號","TEL":"04-22298828","COUNTYNAME":"台中市","TOWNNAME":"中區","MARKTYPE":"994","Class":"4"},"geometry":{"x":217041.29559999984,"y":2670787.2119999994}},{"attributes":{"OBJECTID":14454,"LANDMARKID":"1001900000809","LANDMARKCO":"405","LANDMARKNA":"中油加油站-加得利","LANDMARKAD":"1001901","ADDRESS":"台中市中區柳川西路三段1號","TEL":"04-22298828","COUNTYNAME":"台中市","TOWNNAME":"中區","MARKTYPE":"994","Class":"4"},"geometry":{"x":217028.90199999977,"y":2670781.4835999999}},{"attributes":{"OBJECTID":14455,"LANDMARKID":"1001900000643","LANDMARKCO":"402","LANDMARKNA":"My Phone台灣大哥大-台中自由直營服務中心","LANDMARKAD":"1001901","ADDRESS":"台中市中區自由路二段43號","TEL":"0809-000-166","COUNTYNAME":"台中市","TOWNNAME":"中區","MARKTYPE":"994","Class":"4"},"geometry":{"x":217604.87870000023,"y":2670495.1654000003}},{"attributes":{"OBJECTID":14456,"LANDMARKID":"1001900000644","LANDMARKCO":"402","LANDMARKNA":"亞太行動寬頻電信-台中中正加盟服務中心","LANDMARKAD":"1001901","ADDRESS":"台中市中區中正路77號","TEL":"04-22296866","COUNTYNAME":"台中市","TOWNNAME":"中區","MARKTYPE":"994","Class":"4"},"geometry":{"x":217737.82180000003,"y":2670520.4671999998}},{"attributes":{"OBJECTID":14457,"LANDMARKID":"1001900000550","LANDMARKCO":"401","LANDMARKNA":"財團法人仁愛綜合醫院-台中院區","LANDMARKAD":"1001901","ADDRESS":"台中市柳川東路三段36號","TEL":"04-22255450","COUNTYNAME":"台中市","TOWNNAME":"中區","MARKTYPE":"994","Class":"4"},"geometry":{"x":217269.56570000015,"y":2670939.0435000006}},{"attributes":{"OBJECTID":14458,"LANDMARKID":"1001900000551","LANDMARKCO":"401","LANDMARKNA":"第一醫院","LANDMARKAD":"1001901","ADDRESS":"台中市民族路184號","TEL":"04-22221122","COUNTYNAME":"台中市","TOWNNAME":"中區","MARKTYPE":"994","Class":"4"},"geometry":{"x":217116.78619999997,"y":2670843.3435999993}},{"attributes":{"OBJECTID":14459,"LANDMARKID":"1001900000552","LANDMARKCO":"401","LANDMARKNA":"澄清綜合醫院平等院區","LANDMARKAD":"1001901","ADDRESS":"台中市平等街139號","TEL":"04-24632000","COUNTYNAME":"台中市","TOWNNAME":"中區","MARKTYPE":"994","Class":"4"},"geometry":{"x":217641.76180000044,"y":2670854.2477000002}},{"attributes":{"OBJECTID":14460,"LANDMARKID":"1001900000295","LANDMARKCO":"301","LANDMARKNA":"台中火車站","LANDMARKAD":"1001901","ADDRESS":"台中市中區建國路一段172號","TEL":"04-22227236","COUNTYNAME":"台中市","TOWNNAME":"中區","MARKTYPE":"993","Class":"301"},"geometry":{"x":218007.70260000043,"y":2670194.0955999997}},{"attributes":{"OBJECTID":14461,"LANDMARKID":"1001900000979","LANDMARKCO":"410","LANDMARKNA":"臺中火車站商圈","LANDMARKAD":"1001901","ADDRESS":"包括前站、後站","TEL":"中正路、中山路、成功路、民族路頭","COUNTYNAME":"台中市","TOWNNAME":"中區","MARKTYPE":"994","Class":"4"},"geometry":{"x":217987.52500000037,"y":2670272.5273000002}},{"attributes":{"OBJECTID":14462,"LANDMARKID":"1001900001013","LANDMARKCO":"507","LANDMARKNA":"台中火車站","LANDMARKAD":"1001901","ADDRESS":"台中市中區建國路一段172號","TEL":" ","COUNTYNAME":"台中市","TOWNNAME":"中區","MARKTYPE":"995","Class":"5"},"geometry":{"x":218013.35589999985,"y":2670215.4728999995}},{"attributes":{"OBJECTID":14463,"LANDMARKID":"1001900000930","LANDMARKCO":"408","LANDMARKNA":"郵局-台中民權路郵局","LANDMARKAD":"1001901","ADDRESS":"台中市民權路86號","TEL":"(04)2221-5121","COUNTYNAME":"台中市","TOWNNAME":"中區","MARKTYPE":"994","Class":"4"},"geometry":{"x":217378.97750000004,"y":2670452.3002000004}},{"attributes":{"OBJECTID":14464,"LANDMARKID":"1001900000931","LANDMARKCO":"408","LANDMARKNA":"郵局-台中建國路郵局","LANDMARKAD":"1001901","ADDRESS":"台中市建國路141號","TEL":"(04)2222-6941","COUNTYNAME":"台中市","TOWNNAME":"中區","MARKTYPE":"994","Class":"4"},"geometry":{"x":217978.53270000033,"y":2670341.3751999997}},{"attributes":{"OBJECTID":14465,"LANDMARKID":"1001900000932","LANDMARKCO":"408","LANDMARKNA":"郵局-台中公園路郵局","LANDMARKAD":"1001901","ADDRESS":"台中市公園路4號","TEL":"(04)2223-1784","COUNTYNAME":"台中市","TOWNNAME":"中區","MARKTYPE":"994","Class":"4"},"geometry":{"x":217970.91559999995,"y":2670786.3551000003}},{"attributes":{"OBJECTID":14466,"LANDMARKID":"1001900000692","LANDMARKCO":"403","LANDMARKNA":"台灣電力公司台中區營業處","LANDMARKAD":"1001901","ADDRESS":"台中市中區自由路二段86號","TEL":" ","COUNTYNAME":"台中市","TOWNNAME":"中區","MARKTYPE":"994","Class":"4"},"geometry":{"x":217932.39309999999,"y":2670714.4002}},{"attributes":{"OBJECTID":14467,"LANDMARKID":"1001900000927","LANDMARKCO":"407","LANDMARKNA":"小北百貨","LANDMARKAD":"1001901","ADDRESS":"台中市區中華里成功路357號1樓","TEL":"04-22252257","COUNTYNAME":"台中市","TOWNNAME":"中區","MARKTYPE":"994","Class":"4"},"geometry":{"x":217184.67250000034,"y":2671200.4605999999}},{"attributes":{"OBJECTID":14468,"LANDMARKID":"1001900000928","LANDMARKCO":"407","LANDMARKNA":"第一廣場","LANDMARKAD":"1001901","ADDRESS":"台中市中正路56號","TEL":" ","COUNTYNAME":"台中市","TOWNNAME":"中區","MARKTYPE":"994","Class":"4"},"geometry":{"x":217823.10500000045,"y":2670478.8213}},{"attributes":{"OBJECTID":14469,"LANDMARKID":"1001900000929","LANDMARKCO":"407","LANDMARKNA":"誠品Eslite","LANDMARKAD":"1001901","ADDRESS":"台中市中正路80號B1","TEL":"04-2224-3111","COUNTYNAME":"台中市","TOWNNAME":"中區","MARKTYPE":"994","Class":"4"},"geometry":{"x":217784.65280000027,"y":2670551.9752999991}},{"attributes":{"OBJECTID":14470,"LANDMARKID":"1001900000068","LANDMARKCO":"106","LANDMARKNA":"台中市中區戶政事務所","LANDMARKAD":"1001901","ADDRESS":"臺中市興中街80號","TEL":"04-22247517","COUNTYNAME":"台中市","TOWNNAME":"中區","MARKTYPE":"991","Class":"1"},"geometry":{"x":217383.40390000027,"y":2671010.3087000009}},{"attributes":{"OBJECTID":14471,"LANDMARKID":"1001900000081","LANDMARKCO":"107","LANDMARKNA":"台中市消防局中區消防分隊","LANDMARKAD":"1001901","ADDRESS":"台中市成功路332號","TEL":"04-22216042","COUNTYNAME":"台中市","TOWNNAME":"中區","MARKTYPE":"991","Class":"1"},"geometry":{"x":217341.00059999991,"y":2671094.1129000001}},{"attributes":{"OBJECTID":14472,"LANDMARKID":"1001900000127","LANDMARKCO":"108","LANDMARKNA":"台中市中區公所","LANDMARKAD":"1001901","ADDRESS":"台中市成功路300號3樓","TEL":"04-22222502","COUNTYNAME":"台中市","TOWNNAME":"中區","MARKTYPE":"991","Class":"1"},"geometry":{"x":217430.52520000003,"y":2671001.3746000007}},{"attributes":{"OBJECTID":14473,"LANDMARKID":"1001900000082","LANDMARKCO":"107","LANDMARKNA":"台中市警察局大誠分駐所","LANDMARKAD":"1001901","ADDRESS":"台中市成功路302號","TEL":"04-22221373","COUNTYNAME":"台中市","TOWNNAME":"中區","MARKTYPE":"991","Class":"1"},"geometry":{"x":217425.30549999978,"y":2671007.3126999997}},{"attributes":{"OBJECTID":14474,"LANDMARKID":"1001900000083","LANDMARKCO":"107","LANDMARKNA":"台中市警察局繼中派出所","LANDMARKAD":"1001901","ADDRESS":"台中市中山路9號","TEL":"04-22224119","COUNTYNAME":"台中市","TOWNNAME":"中區","MARKTYPE":"991","Class":"1"},"geometry":{"x":217860.03110000025,"y":2670265.9813000001}},{"attributes":{"OBJECTID":14475,"LANDMARKID":"1001900000040","LANDMARKCO":"103","LANDMARKNA":"台中市環境保護局","LANDMARKAD":"1001901","ADDRESS":"台中市自由路二段53號7樓","TEL":"04-22276011","COUNTYNAME":"台中市","TOWNNAME":"中區","MARKTYPE":"991","Class":"1"},"geometry":{"x":217644.25829999987,"y":2670554.3618999999}},{"attributes":{"OBJECTID":14476,"LANDMARKID":"1001900000041","LANDMARKCO":"103","LANDMARKNA":"台中市中區衛生所","LANDMARKAD":"1001901","ADDRESS":"台中市興中街82號","TEL":"04-22222832","COUNTYNAME":"台中市","TOWNNAME":"中區","MARKTYPE":"991","Class":"1"},"geometry":{"x":217446.70129999984,"y":2671028.5566000007}},{"attributes":{"OBJECTID":14477,"LANDMARKID":"1001900000278","LANDMARKCO":"204","LANDMARKNA":"台中市立圖書館中區分館","LANDMARKAD":"1001901","ADDRESS":"台中市中區成功路300號7樓","TEL":" ","COUNTYNAME":"台中市","TOWNNAME":"中區","MARKTYPE":"992","Class":"2"},"geometry":{"x":217325.58370000031,"y":2671062.3048999999}},{"attributes":{"OBJECTID":14478,"LANDMARKID":"1001900000212","LANDMARKCO":"203","LANDMARKNA":"市立光復國小","LANDMARKAD":"1001901","ADDRESS":"台中市中區三民路二段148號","TEL":"04-22294174","COUNTYNAME":"台中市","TOWNNAME":"中區","MARKTYPE":"992","Class":"2"},"geometry":{"x":217678.49859999958,"y":2670970.3352000006}},{"attributes":{"OBJECTID":14479,"LANDMARKID":"1001900000309","LANDMARKCO":"302","LANDMARKNA":"統聯客運-台中車站-自營站","LANDMARKAD":"1001901","ADDRESS":"台中市中區建國路145號","TEL":"連絡電話:04-222","COUNTYNAME":"台中市","TOWNNAME":"中區","MARKTYPE":"993","Class":"302"},"geometry":{"x":217990.51169999968,"y":2670336.7006999999}},{"attributes":{"OBJECTID":14480,"LANDMARKID":"1001900000310","LANDMARKCO":"302","LANDMARKNA":"國光汽車客運台中站","LANDMARKAD":"1001901","ADDRESS":"400台中市中區建國路174號","TEL":"|","COUNTYNAME":"台中市","TOWNNAME":"中區","MARKTYPE":"993","Class":"302"},"geometry":{"x":218009.63329999987,"y":2670282.7424999997}},{"attributes":{"OBJECTID":14481,"LANDMARKID":"1001900000311","LANDMARKCO":"302","LANDMARKNA":"和欣客運-干城總站","LANDMARKAD":"1001901","ADDRESS":"台中市雙十路一段29號","TEL":"(04)2227-7279","COUNTYNAME":"台中市","TOWNNAME":"中區","MARKTYPE":"993","Class":"302"},"geometry":{"x":218049.42019999959,"y":2670686.8380999994}},{"attributes":{"OBJECTID":14482,"LANDMARKID":"1001900000312","LANDMARKCO":"302","LANDMARKNA":"仁友汽車客運綠川北站","LANDMARKAD":"1001901","ADDRESS":"台中市西區綠川東街110號","TEL":" ","COUNTYNAME":"台中市","TOWNNAME":"中區","MARKTYPE":"993","Class":"302"},"geometry":{"x":218018.26840000041,"y":2670498.1154999994}},{"attributes":{"OBJECTID":14483,"LANDMARKID":"1001900000313","LANDMARKCO":"302","LANDMARKNA":"仁友汽車客運綠川西站","LANDMARKAD":"1001901","ADDRESS":"台中市西區綠川東街110號","TEL":" ","COUNTYNAME":"台中市","TOWNNAME":"中區","MARKTYPE":"993","Class":"302"},"geometry":{"x":217790.72950000037,"y":2670354.6105000004}},{"attributes":{"OBJECTID":14484,"LANDMARKID":"1001900000314","LANDMARKCO":"302","LANDMARKNA":"仁友汽車客運綠川東站","LANDMARKAD":"1001901","ADDRESS":"台中市西區綠川東街110號","TEL":" ","COUNTYNAME":"台中市","TOWNNAME":"中區","MARKTYPE":"993","Class":"302"},"geometry":{"x":217950.73180000018,"y":2670455.3562000003}},{"attributes":{"OBJECTID":14485,"LANDMARKID":"1001900000315","LANDMARKCO":"302","LANDMARKNA":"巨業汽車客運台中站","LANDMARKAD":"1001901","ADDRESS":"台中市中區建國路212號","TEL":" ","COUNTYNAME":"台中市","TOWNNAME":"中區","MARKTYPE":"993","Class":"302"},"geometry":{"x":218084.56790000014,"y":2670419.5259000007}},{"attributes":{"OBJECTID":14486,"LANDMARKID":"1001900000316","LANDMARKCO":"302","LANDMARKNA":"豐原汽車客運台中站","LANDMARKAD":"1001901","ADDRESS":"台中市建國路113號","TEL":" ","COUNTYNAME":"台中市","TOWNNAME":"中區","MARKTYPE":"993","Class":"302"},"geometry":{"x":217922.26219999976,"y":2670308.1819000002}},{"attributes":{"OBJECTID":14487,"LANDMARKID":"1001900000317","LANDMARKCO":"302","LANDMARKNA":"國光汽車客運台中站","LANDMARKAD":"1001901","ADDRESS":"台中市中區建國路174號","TEL":" ","COUNTYNAME":"台中市","TOWNNAME":"中區","MARKTYPE":"993","Class":"302"},"geometry":{"x":218011.29949999973,"y":2670280.3981999997}},{"attributes":{"OBJECTID":14488,"LANDMARKID":"1001900000355","LANDMARKCO":"303","LANDMARKNA":"金樺大飯店","LANDMARKAD":"1001901","ADDRESS":"台中市中區柳川西路三段19號","TEL":"04-22272257","COUNTYNAME":"台中市","TOWNNAME":"中區","MARKTYPE":"993","Class":"303"},"geometry":{"x":217153.19680000003,"y":2670875.6254999992}},{"attributes":{"OBJECTID":14489,"LANDMARKID":"1001900000356","LANDMARKCO":"303","LANDMARKNA":"興中停車場","LANDMARKAD":"1001901","ADDRESS":" ","TEL":" ","COUNTYNAME":"台中市","TOWNNAME":"中區","MARKTYPE":"993","Class":"303"},"geometry":{"x":217308.51130000036,"y":2670971.6297999993}},{"attributes":{"OBJECTID":14490,"LANDMARKID":"1001900000357","LANDMARKCO":"303","LANDMARKNA":"公園大飯店停車場","LANDMARKAD":"1001901","ADDRESS":"台中市中區光復路101號","TEL":"04-22215307","COUNTYNAME":"台中市","TOWNNAME":"中區","MARKTYPE":"993","Class":"303"},"geometry":{"x":217801.30520000029,"y":2670764.1526999995}},{"attributes":{"OBJECTID":14491,"LANDMARKID":"1001900000358","LANDMARKCO":"303","LANDMARKNA":"名帥大飯店停車場","LANDMARKAD":"1001901","ADDRESS":"台中市中區光復路58號","TEL":"04-22267589","COUNTYNAME":"台中市","TOWNNAME":"中區","MARKTYPE":"993","Class":"303"},"geometry":{"x":217788.59360000025,"y":2670814.4108000007}},{"attributes":{"OBJECTID":14492,"LANDMARKID":"1001900000359","LANDMARKCO":"303","LANDMARKNA":"自由路立體停車場","LANDMARKAD":"1001901","ADDRESS":" ","TEL":" ","COUNTYNAME":"台中市","TOWNNAME":"中區","MARKTYPE":"993","Class":"303"},"geometry":{"x":217974.02249999996,"y":2670850.9229000006}},{"attributes":{"OBJECTID":14493,"LANDMARKID":"1001900000360","LANDMARKCO":"303","LANDMARKNA":"博奇大飯店停車場","LANDMARKAD":"1001901","ADDRESS":"台中市東區雙十路一段","TEL":"04-22296151","COUNTYNAME":"台中市","TOWNNAME":"中區","MARKTYPE":"993","Class":"303"},"geometry":{"x":218039.13480000012,"y":2670611.4289999995}},{"attributes":{"OBJECTID":14494,"LANDMARKID":"1001900000361","LANDMARKCO":"303","LANDMARKNA":"大誠立體停車場","LANDMARKAD":"1001901","ADDRESS":"台中市中區吉祥路20號","TEL":" ","COUNTYNAME":"台中市","TOWNNAME":"中區","MARKTYPE":"993","Class":"303"},"geometry":{"x":217420.61600000039,"y":2671085.4036999997}},{"attributes":{"OBJECTID":14495,"LANDMARKID":"1001900000362","LANDMARKCO":"303","LANDMARKNA":"火車站前廣場停車場","LANDMARKAD":"1001901","ADDRESS":"台中市中區","TEL":" ","COUNTYNAME":"台中市","TOWNNAME":"中區","MARKTYPE":"993","Class":"303"},"geometry":{"x":217979.21270000003,"y":2670247.2095999997}},{"attributes":{"OBJECTID":14496,"LANDMARKID":"1001900000363","LANDMARKCO":"303","LANDMARKNA":"台中市興中停車場","LANDMARKAD":"1001901","ADDRESS":"台中市中區","TEL":" ","COUNTYNAME":"台中市","TOWNNAME":"中區","MARKTYPE":"993","Class":"303"},"geometry":{"x":217469.83990000002,"y":2671047.7378000002}},{"attributes":{"OBJECTID":14497,"LANDMARKID":"1001900000364","LANDMARKCO":"303","LANDMARKNA":"大誠平面停車場","LANDMARKAD":"1001901","ADDRESS":"台中市中區","TEL":" ","COUNTYNAME":"台中市","TOWNNAME":"中區","MARKTYPE":"993","Class":"303"},"geometry":{"x":217424.31929999962,"y":2671170.3017999995}},{"attributes":{"OBJECTID":14498,"LANDMARKID":"1001900000365","LANDMARKCO":"303","LANDMARKNA":"台灣聯通停車場-誠心場","LANDMARKAD":"1001901","ADDRESS":"台中市中區中正路80號誠品商場地下室B2、B3","TEL":"02-25235000","COUNTYNAME":"台中市","TOWNNAME":"中區","MARKTYPE":"993","Class":"303"},"geometry":{"x":217780.88499999978,"y":2670542.4058999997}},{"attributes":{"OBJECTID":14499,"LANDMARKID":"1001900000296","LANDMARKCO":"301","LANDMARKNA":"台中火車站","LANDMARKAD":"1001901","ADDRESS":"台中市建國路172號","TEL":"04-22227236","COUNTYNAME":"台中市","TOWNNAME":"中區","MARKTYPE":"993","Class":"301"},"geometry":{"x":218007.70260000043,"y":2670194.0994000006}},{"attributes":{"OBJECTID":14500,"LANDMARKID":"1001900000667","LANDMARKCO":"402","LANDMARKNA":"大眾電信(震旦通訊)-台中成功店","LANDMARKAD":"1001901","ADDRESS":"台中市中區成功路64號","TEL":"04-22211302","COUNTYNAME":"台中市","TOWNNAME":"中區","MARKTYPE":"994","Class":"4"},"geometry":{"x":217984.92540000007,"y":2670474.3881000001}},{"attributes":{"OBJECTID":14501,"LANDMARKID":"1001900001147","LANDMARKCO":"603","LANDMARKNA":"新家旅店","LANDMARKAD":"1001901","ADDRESS":"台中市光復路45號","TEL":"04-22262125","COUNTYNAME":"台中市","TOWNNAME":"中區","MARKTYPE":"996","Class":"6"},"geometry":{"x":217957.7265999997,"y":2670613.1989999991}},{"attributes":{"OBJECTID":14502,"LANDMARKID":"1001900001148","LANDMARKCO":"603","LANDMARKNA":"皇凱賓館","LANDMARKAD":"1001901","ADDRESS":"台中市三民路2段116號6-8樓","TEL":"04-22206108","COUNTYNAME":"台中市","TOWNNAME":"中區","MARKTYPE":"996","Class":"6"},"geometry":{"x":217515.8161000004,"y":2670915.7274999991}},{"attributes":{"OBJECTID":14503,"LANDMARKID":"1001900001149","LANDMARKCO":"603","LANDMARKNA":"哈密瓜旅館","LANDMARKAD":"1001901","ADDRESS":"台中市中正路11號7-12樓","TEL":"04-22245577","COUNTYNAME":"台中市","TOWNNAME":"中區","MARKTYPE":"996","Class":"6"},"geometry":{"x":217899.53419999965,"y":2670340.1973999999}},{"attributes":{"OBJECTID":14504,"LANDMARKID":"1001900001150","LANDMARKCO":"603","LANDMARKNA":"巧合大飯店","LANDMARKAD":"1001901","ADDRESS":"台中市建國路163號","TEL":"04-22297161","COUNTYNAME":"台中市","TOWNNAME":"中區","MARKTYPE":"996","Class":"6"},"geometry":{"x":218002.46999999974,"y":2670369.4290999994}},{"attributes":{"OBJECTID":14505,"LANDMARKID":"1001900001151","LANDMARKCO":"603","LANDMARKNA":"福星大客棧","LANDMARKAD":"1001901","ADDRESS":"台中市中正路253號","TEL":"04-22294466","COUNTYNAME":"台中市","TOWNNAME":"中區","MARKTYPE":"996","Class":"6"},"geometry":{"x":217283.54739999957,"y":2670947.0796000008}},{"attributes":{"OBJECTID":14506,"LANDMARKID":"1001900001152","LANDMARKCO":"603","LANDMARKNA":"銀座大飯店","LANDMARKAD":"1001901","ADDRESS":"台中市中正路43巷16號","TEL":"04-22252181","COUNTYNAME":"台中市","TOWNNAME":"中區","MARKTYPE":"996","Class":"6"},"geometry":{"x":217778.33169999998,"y":2670429.5645000003}},{"attributes":{"OBJECTID":14507,"LANDMARKID":"1001900001153","LANDMARKCO":"603","LANDMARKNA":"華園大旅社","LANDMARKAD":"1001901","ADDRESS":"台中市中正路43巷2-1號","TEL":"04-22225056","COUNTYNAME":"台中市","TOWNNAME":"中區","MARKTYPE":"996","Class":"6"},"geometry":{"x":217792.99149999954,"y":2670445.5961000007}},{"attributes":{"OBJECTID":14508,"LANDMARKID":"1001900001154","LANDMARKCO":"603","LANDMARKNA":"名帥大飯店","LANDMARKAD":"1001901","ADDRESS":"台中市市府路146號6-8樓","TEL":"04-22267589","COUNTYNAME":"台中市","TOWNNAME":"中區","MARKTYPE":"996","Class":"6"},"geometry":{"x":217788.85720000044,"y":2670812.5853000004}},{"attributes":{"OBJECTID":14509,"LANDMARKID":"1001900001155","LANDMARKCO":"603","LANDMARKNA":"花洲大旅社","LANDMARKAD":"1001901","ADDRESS":"台中市平等街132號2樓","TEL":"04-22207746","COUNTYNAME":"台中市","TOWNNAME":"中區","MARKTYPE":"996","Class":"6"},"geometry":{"x":217707.69620000012,"y":2670883.4013999999}},{"attributes":{"OBJECTID":14510,"LANDMARKID":"1001900001156","LANDMARKCO":"603","LANDMARKNA":"西苑旅館","LANDMARKAD":"1001901","ADDRESS":"台中市成功路114號","TEL":"04-22222568","COUNTYNAME":"台中市","TOWNNAME":"中區","MARKTYPE":"996","Class":"6"},"geometry":{"x":217852.62770000007,"y":2670606.0899999999}},{"attributes":{"OBJECTID":14511,"LANDMARKID":"1001900001157","LANDMARKCO":"603","LANDMARKNA":"吉都韻大飯店","LANDMARKAD":"1001901","ADDRESS":"台中市成功路165號","TEL":"04-22213213","COUNTYNAME":"台中市","TOWNNAME":"中區","MARKTYPE":"996","Class":"6"},"geometry":{"x":217638.96410000045,"y":2670765.2453000005}},{"attributes":{"OBJECTID":14512,"LANDMARKID":"1001900001158","LANDMARKCO":"603","LANDMARKNA":"金山旅社","LANDMARKAD":"1001901","ADDRESS":"台中市成功路268巷43號","TEL":"04-22224813","COUNTYNAME":"台中市","TOWNNAME":"中區","MARKTYPE":"996","Class":"6"},"geometry":{"x":217487.37100000028,"y":2671025.5464999992}},{"attributes":{"OBJECTID":14513,"LANDMARKID":"1001900001159","LANDMARKCO":"603","LANDMARKNA":"花國大旅社","LANDMARKAD":"1001901","ADDRESS":"台中市成功路26號6-7樓","TEL":"04-22204135","COUNTYNAME":"台中市","TOWNNAME":"中區","MARKTYPE":"996","Class":"6"},"geometry":{"x":218038.34920000006,"y":2670423.5096000005}},{"attributes":{"OBJECTID":14514,"LANDMARKID":"1001900001160","LANDMARKCO":"603","LANDMARKNA":"雙美堂大飯店","LANDMARKAD":"1001901","ADDRESS":"台中市自由路2段52之1號4-7樓","TEL":"04-22225025","COUNTYNAME":"台中市","TOWNNAME":"中區","MARKTYPE":"996","Class":"6"},"geometry":{"x":217797.52329999954,"y":2670652.6063999999}},{"attributes":{"OBJECTID":14515,"LANDMARKID":"1001900001161","LANDMARKCO":"603","LANDMARKNA":"達欣大飯店","LANDMARKAD":"1001901","ADDRESS":"台中市建國路180號","TEL":"04-22293191","COUNTYNAME":"台中市","TOWNNAME":"中區","MARKTYPE":"996","Class":"6"},"geometry":{"x":218029.57809999958,"y":2670321.4899000004}},{"attributes":{"OBJECTID":14516,"LANDMARKID":"1001900001162","LANDMARKCO":"603","LANDMARKNA":"王冠大飯店","LANDMARKAD":"1001901","ADDRESS":"台中市建國路184號","TEL":"04-22292175","COUNTYNAME":"台中市","TOWNNAME":"中區","MARKTYPE":"996","Class":"6"},"geometry":{"x":218039.55570000038,"y":2670331.5122999996}},{"attributes":{"OBJECTID":14517,"LANDMARKID":"1001900001163","LANDMARKCO":"603","LANDMARKNA":"南北大飯店","LANDMARKAD":"1001901","ADDRESS":"台中市建國路186號","TEL":"04-22230386","COUNTYNAME":"台中市","TOWNNAME":"中區","MARKTYPE":"996","Class":"6"},"geometry":{"x":218041.54679999966,"y":2670335.5167999994}},{"attributes":{"OBJECTID":14518,"LANDMARKID":"1001900001164","LANDMARKCO":"603","LANDMARKNA":"永豐大旅社","LANDMARKAD":"1001901","ADDRESS":"台中市建國路187號","TEL":"04-22222018","COUNTYNAME":"台中市","TOWNNAME":"中區","MARKTYPE":"996","Class":"6"},"geometry":{"x":218071.99689999968,"y":2670442.5835999995}},{"attributes":{"OBJECTID":14519,"LANDMARKID":"1001900001165","LANDMARKCO":"603","LANDMARKNA":"樂府大飯店","LANDMARKAD":"1001901","ADDRESS":"台中市建國路89號5樓之1","TEL":"04-22297181","COUNTYNAME":"台中市","TOWNNAME":"中區","MARKTYPE":"996","Class":"6"},"geometry":{"x":217742.9495000001,"y":2670156.4844000004}},{"attributes":{"OBJECTID":14520,"LANDMARKID":"1001900001166","LANDMARKCO":"603","LANDMARKNA":"金樺大飯店","LANDMARKAD":"1001901","ADDRESS":"台中市柳川西路3段19號","TEL":"04-22272257","COUNTYNAME":"台中市","TOWNNAME":"中區","MARKTYPE":"996","Class":"6"},"geometry":{"x":217138.7193,"y":2670872.3981999997}},{"attributes":{"OBJECTID":14521,"LANDMARKID":"1001900001167","LANDMARKCO":"603","LANDMARKNA":"帝寶大飯店","LANDMARKAD":"1001901","ADDRESS":"台中市柳川西路3段22號","TEL":"3樓-1","COUNTYNAME":"台中市","TOWNNAME":"中區","MARKTYPE":"996","Class":"6"},"geometry":{"x":217155.66860000044,"y":2670894.4373000003}},{"attributes":{"OBJECTID":14522,"LANDMARKID":"1001900001168","LANDMARKCO":"603","LANDMARKNA":"博奇大飯店","LANDMARKAD":"1001901","ADDRESS":"台中市雙十路1段5號","TEL":"04-22296151","COUNTYNAME":"台中市","TOWNNAME":"中區","MARKTYPE":"996","Class":"6"},"geometry":{"x":218043.6222000001,"y":2670609.5199999996}},{"attributes":{"OBJECTID":14523,"LANDMARKID":"1001900001169","LANDMARKCO":"603","LANDMARKNA":"三榮大飯店","LANDMARKAD":"1001901","ADDRESS":"台中市繼光街123號","TEL":"04-22252139","COUNTYNAME":"台中市","TOWNNAME":"中區","MARKTYPE":"996","Class":"6"},"geometry":{"x":217859.66390000004,"y":2670590.1059000008}},{"attributes":{"OBJECTID":14524,"LANDMARKID":"1001900001170","LANDMARKCO":"603","LANDMARKNA":"第一旅社","LANDMARKAD":"1001901","ADDRESS":"台中市繼光街51號1","TEL":"3樓","COUNTYNAME":"台中市","TOWNNAME":"中區","MARKTYPE":"996","Class":"6"},"geometry":{"x":217644.44550000038,"y":2670378.2609000001}},{"attributes":{"OBJECTID":14525,"LANDMARKID":"1001900001171","LANDMARKCO":"603","LANDMARKNA":"建成旅社","LANDMARKAD":"1001901","ADDRESS":"台中市建國路125巷10號","TEL":"04-22222497","COUNTYNAME":"台中市","TOWNNAME":"中區","MARKTYPE":"996","Class":"6"},"geometry":{"x":217899.56799999997,"y":2670325.1974999998}},{"attributes":{"OBJECTID":14526,"LANDMARKID":"1001900001172","LANDMARKCO":"603","LANDMARKNA":"中洲旅社","LANDMARKAD":"1001901","ADDRESS":"台中市建國路129號","TEL":"04-22222711","COUNTYNAME":"台中市","TOWNNAME":"中區","MARKTYPE":"996","Class":"6"},"geometry":{"x":217910.58609999996,"y":2670317.2223000005}},{"attributes":{"OBJECTID":14527,"LANDMARKID":"1001900001173","LANDMARKCO":"603","LANDMARKNA":"美豐旅社","LANDMARKAD":"1001901","ADDRESS":"台中市建國路159巷12號","TEL":"04-22283111","COUNTYNAME":"台中市","TOWNNAME":"中區","MARKTYPE":"996","Class":"6"},"geometry":{"x":217981.42480000015,"y":2670389.3816999998}},{"attributes":{"OBJECTID":14528,"LANDMARKID":"1001900001174","LANDMARKCO":"603","LANDMARKNA":"長春旅社","LANDMARKAD":"1001901","ADDRESS":"台中市建國路159巷13號","TEL":"04-22250766","COUNTYNAME":"台中市","TOWNNAME":"中區","MARKTYPE":"996","Class":"6"},"geometry":{"x":217986.4720999999,"y":2670368.3931000009}},{"attributes":{"OBJECTID":14529,"LANDMARKID":"1001900001175","LANDMARKCO":"603","LANDMARKNA":"南北旅社","LANDMARKAD":"1001901","ADDRESS":"台中市建國路159巷15號","TEL":"04-22224552","COUNTYNAME":"台中市","TOWNNAME":"中區","MARKTYPE":"996","Class":"6"},"geometry":{"x":217974.4606999997,"y":2670373.3661000002}},{"attributes":{"OBJECTID":14530,"LANDMARKID":"1001900001176","LANDMARKCO":"603","LANDMARKNA":"復興旅社","LANDMARKAD":"1001901","ADDRESS":"台中市綠川東街72號","TEL":"04-22250227","COUNTYNAME":"台中市","TOWNNAME":"中區","MARKTYPE":"996","Class":"6"},"geometry":{"x":217933.35659999959,"y":2670419.2736000009}},{"attributes":{"OBJECTID":14531,"LANDMARKID":"1001900001177","LANDMARKCO":"603","LANDMARKNA":"印象大飯店","LANDMARKAD":"1001901","ADDRESS":"台中市興中街93號","TEL":"04-22233332","COUNTYNAME":"台中市","TOWNNAME":"中區","MARKTYPE":"996","Class":"6"},"geometry":{"x":217494.85199999996,"y":2671122.5620000008}},{"attributes":{"OBJECTID":14532,"LANDMARKID":"1001900001178","LANDMARKCO":"603","LANDMARKNA":"玉山大旅社","LANDMARKAD":"1001901","ADDRESS":"台中市興民街6-1號","TEL":"04-22225068","COUNTYNAME":"台中市","TOWNNAME":"中區","MARKTYPE":"996","Class":"6"},"geometry":{"x":217220.93740000017,"y":2671085.5861000009}},{"attributes":{"OBJECTID":14533,"LANDMARKID":"1001900001179","LANDMARKCO":"603","LANDMARKNA":"東城旅社","LANDMARKAD":"1001901","ADDRESS":"台中市中山路14號","TEL":"04-22225001","COUNTYNAME":"台中市","TOWNNAME":"中區","MARKTYPE":"996","Class":"6"},"geometry":{"x":217857.58800000045,"y":2670316.1028000005}},{"attributes":{"OBJECTID":14534,"LANDMARKID":"1001900001180","LANDMARKCO":"603","LANDMARKNA":"集賢大飯店","LANDMARKAD":"1001901","ADDRESS":"台中市中山路17號7樓之1","TEL":"8樓之1","COUNTYNAME":"台中市","TOWNNAME":"中區","MARKTYPE":"996","Class":"6"},"geometry":{"x":217842.68269999977,"y":2670274.0691}},{"attributes":{"OBJECTID":14535,"LANDMARKID":"1001900001181","LANDMARKCO":"603","LANDMARKNA":"寶島大飯店","LANDMARKAD":"1001901","ADDRESS":"台中市中山路27號","TEL":"04-22226701","COUNTYNAME":"台中市","TOWNNAME":"中區","MARKTYPE":"996","Class":"6"},"geometry":{"x":217821.65550000034,"y":2670286.0216000006}},{"attributes":{"OBJECTID":14536,"LANDMARKID":"1001900001182","LANDMARKCO":"603","LANDMARKNA":"富春大飯店","LANDMARKAD":"1001901","ADDRESS":"台中市中山路3號","TEL":"04-22283181","COUNTYNAME":"台中市","TOWNNAME":"中區","MARKTYPE":"996","Class":"6"},"geometry":{"x":217883.71449999977,"y":2670260.1616999991}},{"attributes":{"OBJECTID":14537,"LANDMARKID":"1001900001183","LANDMARKCO":"603","LANDMARKNA":"碧園旅店","LANDMARKAD":"1001901","ADDRESS":"台中市中正路112號","TEL":"04-22276115","COUNTYNAME":"台中市","TOWNNAME":"中區","MARKTYPE":"996","Class":"6"},"geometry":{"x":217671.55159999989,"y":2670639.3210000005}},{"attributes":{"OBJECTID":14538,"LANDMARKID":"1001900001184","LANDMARKCO":"603","LANDMARKNA":"銀河大飯店","LANDMARKAD":"1001901","ADDRESS":"台中市民族路206號","TEL":"04-22291191","COUNTYNAME":"台中市","TOWNNAME":"中區","MARKTYPE":"996","Class":"6"},"geometry":{"x":217040.6054999996,"y":2670921.1713999994}},{"attributes":{"OBJECTID":14539,"LANDMARKID":"1001900001185","LANDMARKCO":"603","LANDMARKNA":"公園大飯店","LANDMARKAD":"1001901","ADDRESS":"台中市光復路101號","TEL":"04-22215307","COUNTYNAME":"台中市","TOWNNAME":"中區","MARKTYPE":"996","Class":"6"},"geometry":{"x":217750.86180000007,"y":2670810.4991999995}},{"attributes":{"OBJECTID":14540,"LANDMARKID":"1001900001186","LANDMARKCO":"603","LANDMARKNA":"豪宮大飯店","LANDMARKAD":"1001901","ADDRESS":"台中市光復路115號","TEL":"04-22224096","COUNTYNAME":"台中市","TOWNNAME":"中區","MARKTYPE":"996","Class":"6"},"geometry":{"x":217708.78920000046,"y":2670842.4038999993}},{"attributes":{"OBJECTID":14541,"LANDMARKID":"1001900001187","LANDMARKCO":"603","LANDMARKNA":"銀河別館","LANDMARKAD":"1001901","ADDRESS":"台中市光復路151號11樓","TEL":"04-22260467","COUNTYNAME":"台中市","TOWNNAME":"中區","MARKTYPE":"996","Class":"6"},"geometry":{"x":217587.51580000017,"y":2670962.1283}},{"attributes":{"OBJECTID":14542,"LANDMARKID":"1001900001029","LANDMARKCO":"511","LANDMARKNA":"台中繼光商店街","LANDMARKAD":"1001901","ADDRESS":"台中市中區繼光街","TEL":" ","COUNTYNAME":"台中市","TOWNNAME":"中區","MARKTYPE":"995","Class":"5"},"geometry":{"x":217812.37729999982,"y":2670527.5311999992}},{"attributes":{"OBJECTID":14543,"LANDMARKID":"1001900001030","LANDMARKCO":"511","LANDMARKNA":"中華路夜市","LANDMARKAD":"1001901","ADDRESS":"台中市中區中華路一段","TEL":" ","COUNTYNAME":"台中市","TOWNNAME":"中區","MARKTYPE":"995","Class":"5"},"geometry":{"x":217097.81680000015,"y":2671090.4120000005}},{"attributes":{"OBJECTID":14544,"LANDMARKID":"1001900000793","LANDMARKCO":"405","LANDMARKNA":"中油加油站-中華黎明站","LANDMARKAD":"1001907","ADDRESS":"台中市南屯區黎明路一段92號","TEL":"04-24792601","COUNTYNAME":"台中市","TOWNNAME":"南屯區","MARKTYPE":"994","Class":"4"},"geometry":{"x":212028.14300000016,"y":2667718.4263000004}},{"attributes":{"OBJECTID":14545,"LANDMARKID":"1001900000794","LANDMARKCO":"405","LANDMARKNA":"中油加油站-永春站","LANDMARKAD":"1001907","ADDRESS":"台中市南屯區永春路42-37號","TEL":"04-23865966","COUNTYNAME":"台中市","TOWNNAME":"南屯區","MARKTYPE":"994","Class":"4"},"geometry":{"x":210844.57129999995,"y":2670527.0403000005}},{"attributes":{"OBJECTID":14546,"LANDMARKID":"1001900000795","LANDMARKCO":"405","LANDMARKNA":"中油加油站-嘉大站","LANDMARKAD":"1001907","ADDRESS":"台中市南屯區文山里工業區18路28之1號","TEL":"04-23581555","COUNTYNAME":"台中市","TOWNNAME":"南屯區","MARKTYPE":"994","Class":"4"},"geometry":{"x":210258.7023,"y":2672336.9338000007}},{"attributes":{"OBJECTID":14547,"LANDMARKID":"1001900000796","LANDMARKCO":"405","LANDMARKNA":"台糖加油站-忠勇站(中油)","LANDMARKAD":"1001907","ADDRESS":"台中市南屯區忠勇路16之5號","TEL":" ","COUNTYNAME":"台中市","TOWNNAME":"南屯區","MARKTYPE":"994","Class":"4"},"geometry":{"x":210587.02579999994,"y":2670172.2172999997}},{"attributes":{"OBJECTID":14548,"LANDMARKID":"1001900000797","LANDMARKCO":"405","LANDMARKNA":"台糖加油站-成功站(中油)","LANDMARKAD":"1001907","ADDRESS":"台中市南屯區忠勇路1號","TEL":" ","COUNTYNAME":"台中市","TOWNNAME":"南屯區","MARKTYPE":"994","Class":"4"},"geometry":{"x":210100.0159,"y":2669162.5819000006}},{"attributes":{"OBJECTID":14549,"LANDMARKID":"1001900000798","LANDMARKCO":"405","LANDMARKNA":"中油加油站-萬和站","LANDMARKAD":"1001907","ADDRESS":"台中市南屯區黎明路一段515號","TEL":"04-24793637","COUNTYNAME":"台中市","TOWNNAME":"南屯區","MARKTYPE":"994","Class":"4"},"geometry":{"x":212389.13590000011,"y":2668730.5050000008}},{"attributes":{"OBJECTID":14550,"LANDMARKID":"1001900000799","LANDMARKCO":"405","LANDMARKNA":"中油加油站-知高站","LANDMARKAD":"1001907","ADDRESS":"台中市南屯區南屯路三段88號","TEL":"04-23848206","COUNTYNAME":"台中市","TOWNNAME":"南屯區","MARKTYPE":"994","Class":"4"},"geometry":{"x":213525.14639999997,"y":2670410.1987999994}},{"attributes":{"OBJECTID":14551,"LANDMARKID":"1001900000800","LANDMARKCO":"405","LANDMARKNA":"統一速邁樂加油站-南屯加油站(中油)","LANDMARKAD":"1001907","ADDRESS":"台中市南屯區五權西路3段350號","TEL":" ","COUNTYNAME":"台中市","TOWNNAME":"南屯區","MARKTYPE":"994","Class":"4"},"geometry":{"x":209972.80700000003,"y":2673024.8180999998}},{"attributes":{"OBJECTID":14552,"LANDMARKID":"1001900000801","LANDMARKCO":"405","LANDMARKNA":"中油加油站-五權西路站(刷卡自助)(中油直營)","LANDMARKAD":"1001907","ADDRESS":"台中市南屯區五權西路二段562號","TEL":"04-23893367","COUNTYNAME":"台中市","TOWNNAME":"南屯區","MARKTYPE":"994","Class":"4"},"geometry":{"x":213555.38470000029,"y":2670736.7105}},{"attributes":{"OBJECTID":14553,"LANDMARKID":"1001900000802","LANDMARKCO":"405","LANDMARKNA":"中油加油站-南屯交流道站","LANDMARKAD":"1001907","ADDRESS":"台中市南屯區新生里五權西路2段1260號","TEL":"04-23870798","COUNTYNAME":"台中市","TOWNNAME":"南屯區","MARKTYPE":"994","Class":"4"},"geometry":{"x":211657.54430000018,"y":2671730.5141000003}},{"attributes":{"OBJECTID":14554,"LANDMARKID":"1001900000803","LANDMARKCO":"405","LANDMARKNA":"中油加油站-向上站","LANDMARKAD":"1001907","ADDRESS":"台中市南屯區黎明路一段1133號","TEL":"04-23844749","COUNTYNAME":"台中市","TOWNNAME":"南屯區","MARKTYPE":"994","Class":"4"},"geometry":{"x":213232.99700000044,"y":2670622.8916999996}},{"attributes":{"OBJECTID":14555,"LANDMARKID":"1001900000804","LANDMARKCO":"405","LANDMARKNA":"中油加油站-台中工業區南站","LANDMARKAD":"1001907","ADDRESS":"台中市南屯區工業區18路26號之1","TEL":"04-23595269","COUNTYNAME":"台中市","TOWNNAME":"南屯區","MARKTYPE":"994","Class":"4"},"geometry":{"x":210207.7341,"y":2672301.0713}},{"attributes":{"OBJECTID":14556,"LANDMARKID":"1001900000805","LANDMARKCO":"405","LANDMARKNA":"中油加油站-公益路站(刷卡自助)(中油直營)","LANDMARKAD":"1001907","ADDRESS":"台中市南屯區公益路二段2號","TEL":"04-23269700","COUNTYNAME":"台中市","TOWNNAME":"南屯區","MARKTYPE":"994","Class":"4"},"geometry":{"x":214704.58339999989,"y":2671804.0370000005}},{"attributes":{"OBJECTID":14557,"LANDMARKID":"1001900000806","LANDMARKCO":"405","LANDMARKNA":"中油加油站-北基南屯站","LANDMARKAD":"1001907","ADDRESS":"台中市南屯區工業區25路25號之1","TEL":"04-23502626","COUNTYNAME":"台中市","TOWNNAME":"南屯區","MARKTYPE":"994","Class":"4"},"geometry":{"x":209554.79800000042,"y":2672892.852}},{"attributes":{"OBJECTID":14558,"LANDMARKID":"1001900000807","LANDMARKCO":"405","LANDMARKNA":"中油加油站-中村站","LANDMARKAD":"1001907","ADDRESS":"台中市南屯區五權西路二段1001號","TEL":"04-223812919","COUNTYNAME":"台中市","TOWNNAME":"南屯區","MARKTYPE":"994","Class":"4"},"geometry":{"x":212415.40149999969,"y":2671317.4359000009}},{"attributes":{"OBJECTID":14559,"LANDMARKID":"1001900000660","LANDMARKCO":"402","LANDMARKNA":"My Phone台灣大哥大-台中南屯","LANDMARKAD":"1001907","ADDRESS":"台中市南屯區黎明路一段1105號","TEL":"04-23830929","COUNTYNAME":"台中市","TOWNNAME":"南屯區","MARKTYPE":"994","Class":"4"},"geometry":{"x":213210.33349999972,"y":2670538.1342999991}},{"attributes":{"OBJECTID":14560,"LANDMARKID":"1001900000661","LANDMARKCO":"402","LANDMARKNA":"My Phone台灣大哥大-南屯－黎明Ⅱ","LANDMARKAD":"1001907","ADDRESS":"台中市南屯區黎明路二段315號","TEL":"04-22555288","COUNTYNAME":"台中市","TOWNNAME":"南屯區","MARKTYPE":"994","Class":"4"},"geometry":{"x":212941.34900000039,"y":2671626.5373}},{"attributes":{"OBJECTID":14561,"LANDMARKID":"1001900000662","LANDMARKCO":"402","LANDMARKNA":"亞太行動寬頻電信-公益二店加盟服務中心","LANDMARKAD":"1001907","ADDRESS":"台中市南屯區溝墘里公益路二段154號","TEL":"04-23275426","COUNTYNAME":"台中市","TOWNNAME":"南屯區","MARKTYPE":"994","Class":"4"},"geometry":{"x":214230.70669999998,"y":2671797.2087999992}},{"attributes":{"OBJECTID":14562,"LANDMARKID":"1001900000663","LANDMARKCO":"402","LANDMARKNA":"亞太行動寬頻電信-台中東興加盟服務中心","LANDMARKAD":"1001907","ADDRESS":"台中市南屯區東興路二段23號","TEL":"04-24725298","COUNTYNAME":"台中市","TOWNNAME":"南屯區","MARKTYPE":"994","Class":"4"},"geometry":{"x":214716.86840000004,"y":2670194.0208000001}},{"attributes":{"OBJECTID":14563,"LANDMARKID":"1001900000664","LANDMARKCO":"402","LANDMARKNA":"亞太行動寬頻電信-台中南屯加盟服務中心","LANDMARKAD":"1001907","ADDRESS":"台中市南屯區黎明路2段291號","TEL":"04-22550090","COUNTYNAME":"台中市","TOWNNAME":"南屯區","MARKTYPE":"994","Class":"4"},"geometry":{"x":212954.52350000013,"y":2671559.5715999994}},{"attributes":{"OBJECTID":14564,"LANDMARKID":"1001900000665","LANDMARKCO":"402","LANDMARKNA":"亞太行動寬頻電信-台中黎明加盟服務中心","LANDMARKAD":"1001907","ADDRESS":"台中市南屯區黎明路一段1131號","TEL":"04-23812577","COUNTYNAME":"台中市","TOWNNAME":"南屯區","MARKTYPE":"994","Class":"4"},"geometry":{"x":213236.57469999976,"y":2670617.5726999994}},{"attributes":{"OBJECTID":14565,"LANDMARKID":"1001900000666","LANDMARKCO":"402","LANDMARKNA":"亞太行動寬頻電信-台中五權西加盟服務中心","LANDMARKAD":"1001907","ADDRESS":"台中市南屯區五權西路二段411號","TEL":"04-24751788","COUNTYNAME":"台中市","TOWNNAME":"南屯區","MARKTYPE":"994","Class":"4"},"geometry":{"x":213924.72009999957,"y":2670561.1581999995}},{"attributes":{"OBJECTID":14566,"LANDMARKID":"1001900000547","LANDMARKCO":"401","LANDMARKNA":"臺灣臺中監獄附設培德醫院","LANDMARKAD":"1001907","ADDRESS":"台中市南屯區培德路9號","TEL":"04-23814169","COUNTYNAME":"台中市","TOWNNAME":"南屯區","MARKTYPE":"994","Class":"4"},"geometry":{"x":208965.68460000027,"y":2670881.5276999995}},{"attributes":{"OBJECTID":14567,"LANDMARKID":"1001900000548","LANDMARKCO":"401","LANDMARKNA":"友仁醫院","LANDMARKAD":"1001907","ADDRESS":"台中市南屯區五權西路二段197號","TEL":"04-24739995","COUNTYNAME":"台中市","TOWNNAME":"南屯區","MARKTYPE":"994","Class":"4"},"geometry":{"x":214378.73830000032,"y":2670554.5876000002}},{"attributes":{"OBJECTID":14568,"LANDMARKID":"1001900000549","LANDMARKCO":"401","LANDMARKNA":"林新醫院","LANDMARKAD":"1001907","ADDRESS":"台中市南屯區惠中路三段36號","TEL":"04-22586688","COUNTYNAME":"台中市","TOWNNAME":"南屯區","MARKTYPE":"994","Class":"4"},"geometry":{"x":213435.48029999994,"y":2671577.3484000005}},{"attributes":{"OBJECTID":14569,"LANDMARKID":"1001900001033","LANDMARKCO":"512","LANDMARKNA":"觀光局旅遊服務中心台中服務處","LANDMARKAD":"1001907","ADDRESS":"台中市南屯區干城街95號1樓","TEL":"04-22540809","COUNTYNAME":"台中市","TOWNNAME":"南屯區","MARKTYPE":"995","Class":"5"},"geometry":{"x":212521.31819999963,"y":2672280.5288999993}},{"attributes":{"OBJECTID":14570,"LANDMARKID":"1001900000933","LANDMARKCO":"408","LANDMARKNA":"郵局-台中南屯路郵局","LANDMARKAD":"1001907","ADDRESS":"台中市南屯區南屯路2段405號","TEL":"(04)2389-0624","COUNTYNAME":"台中市","TOWNNAME":"南屯區","MARKTYPE":"994","Class":"4"},"geometry":{"x":213758.42810000014,"y":2670368.4611000009}},{"attributes":{"OBJECTID":14571,"LANDMARKID":"1001900000934","LANDMARKCO":"408","LANDMARKNA":"郵局-台中東興路郵局","LANDMARKAD":"1001907","ADDRESS":"台中市南屯區東興路2段186號","TEL":"(04)2475-1984","COUNTYNAME":"台中市","TOWNNAME":"南屯區","MARKTYPE":"994","Class":"4"},"geometry":{"x":214761.32540000044,"y":2670721.1329999994}},{"attributes":{"OBJECTID":14572,"LANDMARKID":"1001900000935","LANDMARKCO":"408","LANDMARKNA":"郵局-台中黎明郵局","LANDMARKAD":"1001907","ADDRESS":"台中市南屯區博愛街80巷49號","TEL":"(04)2252-1074","COUNTYNAME":"台中市","TOWNNAME":"南屯區","MARKTYPE":"994","Class":"4"},"geometry":{"x":212720.81089999992,"y":2672064.7031999994}},{"attributes":{"OBJECTID":14573,"LANDMARKID":"1001900000936","LANDMARKCO":"408","LANDMARKNA":"郵局-台中向上郵局","LANDMARKAD":"1001907","ADDRESS":"台中市南屯區向上路2段199號","TEL":"(04)2387-0215","COUNTYNAME":"台中市","TOWNNAME":"南屯區","MARKTYPE":"994","Class":"4"},"geometry":{"x":213548.49230000004,"y":2671265.6443000007}},{"attributes":{"OBJECTID":14574,"LANDMARKID":"1001900000937","LANDMARKCO":"408","LANDMARKNA":"郵局-台中嶺東郵局","LANDMARKAD":"1001907","ADDRESS":"台中市南屯區建功路50號","TEL":"(04)2389-8990","COUNTYNAME":"台中市","TOWNNAME":"南屯區","MARKTYPE":"994","Class":"4"},"geometry":{"x":210414.61459999997,"y":2670120.0245999992}},{"attributes":{"OBJECTID":14575,"LANDMARKID":"1001900000977","LANDMARKCO":"409","LANDMARKNA":"臺中魚市場","LANDMARKAD":"1001907","ADDRESS":"臺中市南屯區南屯路三段39號","TEL":"04-23811737","COUNTYNAME":"台中市","TOWNNAME":"南屯區","MARKTYPE":"994","Class":"4"},"geometry":{"x":211621.24060000014,"y":2671583.4864000008}},{"attributes":{"OBJECTID":14576,"LANDMARKID":"1001900000693","LANDMARKCO":"404","LANDMARKNA":"台灣自來水員工訓練所","LANDMARKAD":"1001907","ADDRESS":"台中市南屯區大業路605號","TEL":"04-22514923~24","COUNTYNAME":"台中市","TOWNNAME":"南屯區","MARKTYPE":"994","Class":"4"},"geometry":{"x":212810.04789999966,"y":2672073.8436999992}},{"attributes":{"OBJECTID":14577,"LANDMARKID":"1001900000812","LANDMARKCO":"406","LANDMARKNA":"惠智公園","LANDMARKAD":"1001907","ADDRESS":"台中市南屯區","TEL":" ","COUNTYNAME":"台中市","TOWNNAME":"南屯區","MARKTYPE":"994","Class":"4"},"geometry":{"x":213311.49899999984,"y":2671575.0446000006}},{"attributes":{"OBJECTID":14578,"LANDMARKID":"1001900000813","LANDMARKCO":"406","LANDMARKNA":"惠仁公園","LANDMARKAD":"1001907","ADDRESS":"台中市南屯區","TEL":" ","COUNTYNAME":"台中市","TOWNNAME":"南屯區","MARKTYPE":"994","Class":"4"},"geometry":{"x":213937.33999999985,"y":2671642.1524999999}},{"attributes":{"OBJECTID":14579,"LANDMARKID":"1001900000814","LANDMARKCO":"406","LANDMARKNA":"東興公園","LANDMARKAD":"1001907","ADDRESS":"台中市西屯區","TEL":" ","COUNTYNAME":"台中市","TOWNNAME":"南屯區","MARKTYPE":"994","Class":"4"},"geometry":{"x":214811.44079999998,"y":2672168.4865000006}},{"attributes":{"OBJECTID":14580,"LANDMARKID":"1001900000815","LANDMARKCO":"406","LANDMARKNA":"嶺東公園","LANDMARKAD":"1001907","ADDRESS":"台中市南屯區","TEL":" ","COUNTYNAME":"台中市","TOWNNAME":"南屯區","MARKTYPE":"994","Class":"4"},"geometry":{"x":210439.03509999998,"y":2670684.6937000006}},{"attributes":{"OBJECTID":14581,"LANDMARKID":"1001900000816","LANDMARKCO":"406","LANDMARKNA":"文昌兒童公園","LANDMARKAD":"1001907","ADDRESS":"台中市南屯區","TEL":" ","COUNTYNAME":"台中市","TOWNNAME":"南屯區","MARKTYPE":"994","Class":"4"},"geometry":{"x":212986.16100000031,"y":2670357.2700999994}},{"attributes":{"OBJECTID":14582,"LANDMARKID":"1001900000817","LANDMARKCO":"406","LANDMARKNA":"文心公園","LANDMARKAD":"1001907","ADDRESS":"台中市南屯區","TEL":" ","COUNTYNAME":"台中市","TOWNNAME":"南屯區","MARKTYPE":"994","Class":"4"},"geometry":{"x":213677.54729999974,"y":2669728.8300000001}},{"attributes":{"OBJECTID":14583,"LANDMARKID":"1001900000818","LANDMARKCO":"406","LANDMARKNA":"豐樂公園","LANDMARKAD":"1001907","ADDRESS":"台中市南屯區","TEL":" ","COUNTYNAME":"台中市","TOWNNAME":"南屯區","MARKTYPE":"994","Class":"4"},"geometry":{"x":213675.2592000002,"y":2669561.0537999999}},{"attributes":{"OBJECTID":14584,"LANDMARKID":"1001900000819","LANDMARKCO":"406","LANDMARKNA":"京展海德公園","LANDMARKAD":"1001907","ADDRESS":"台中市南屯區","TEL":" ","COUNTYNAME":"台中市","TOWNNAME":"南屯區","MARKTYPE":"994","Class":"4"},"geometry":{"x":213899.17590000015,"y":2670089.8102000002}},{"attributes":{"OBJECTID":14585,"LANDMARKID":"1001900000820","LANDMARKCO":"406","LANDMARKNA":"禮惠公園","LANDMARKAD":"1001907","ADDRESS":"台中市南屯區","TEL":" ","COUNTYNAME":"台中市","TOWNNAME":"南屯區","MARKTYPE":"994","Class":"4"},"geometry":{"x":213842.95459999982,"y":2670851.6122999992}},{"attributes":{"OBJECTID":14586,"LANDMARKID":"1001900000821","LANDMARKCO":"406","LANDMARKNA":"光明公園","LANDMARKAD":"1001907","ADDRESS":"台中市南屯區","TEL":" ","COUNTYNAME":"台中市","TOWNNAME":"南屯區","MARKTYPE":"994","Class":"4"},"geometry":{"x":215006.39329999965,"y":2670483.0900999997}},{"attributes":{"OBJECTID":14587,"LANDMARKID":"1001900000822","LANDMARKCO":"406","LANDMARKNA":"大忠公園","LANDMARKAD":"1001907","ADDRESS":"台中市南屯區","TEL":" ","COUNTYNAME":"台中市","TOWNNAME":"南屯區","MARKTYPE":"994","Class":"4"},"geometry":{"x":215070.29509999976,"y":2670955.3070999999}},{"attributes":{"OBJECTID":14588,"LANDMARKID":"1001900000823","LANDMARKCO":"406","LANDMARKNA":"鎮平公園","LANDMARKAD":"1001907","ADDRESS":"台中市南屯區","TEL":" ","COUNTYNAME":"台中市","TOWNNAME":"南屯區","MARKTYPE":"994","Class":"4"},"geometry":{"x":212309.43780000042,"y":2668443.1017000005}},{"attributes":{"OBJECTID":14589,"LANDMARKID":"1001900000824","LANDMARKCO":"406","LANDMARKNA":"南屯河濱公園","LANDMARKAD":"1001907","ADDRESS":"台中市南屯區","TEL":" ","COUNTYNAME":"台中市","TOWNNAME":"南屯區","MARKTYPE":"994","Class":"4"},"geometry":{"x":211432.80960000027,"y":2669099.8286000006}},{"attributes":{"OBJECTID":14590,"LANDMARKID":"1001900000825","LANDMARKCO":"406","LANDMARKNA":"正心兒童公園","LANDMARKAD":"1001907","ADDRESS":"台中市南屯區","TEL":" ","COUNTYNAME":"台中市","TOWNNAME":"南屯區","MARKTYPE":"994","Class":"4"},"geometry":{"x":214480.37920000032,"y":2670096.7991000004}},{"attributes":{"OBJECTID":14591,"LANDMARKID":"1001900000826","LANDMARKCO":"406","LANDMARKNA":"南苑兒童公園","LANDMARKAD":"1001907","ADDRESS":"台中市南屯區","TEL":" ","COUNTYNAME":"台中市","TOWNNAME":"南屯區","MARKTYPE":"994","Class":"4"},"geometry":{"x":213874.36259999964,"y":2669760.0120000001}},{"attributes":{"OBJECTID":14592,"LANDMARKID":"1001900000926","LANDMARKCO":"407","LANDMARKNA":"小北百貨","LANDMARKAD":"1001907","ADDRESS":"台中市南屯區大墩路171號","TEL":"04-24754386","COUNTYNAME":"台中市","TOWNNAME":"南屯區","MARKTYPE":"994","Class":"4"},"geometry":{"x":214385.52880000044,"y":2670699.1366000008}},{"attributes":{"OBJECTID":14593,"LANDMARKID":"1001900000791","LANDMARKCO":"405","LANDMARKNA":"全國加油站-文心站（台塑）","LANDMARKAD":"1001907","ADDRESS":"台中市南屯區文心南路212號","TEL":"04-24759318","COUNTYNAME":"台中市","TOWNNAME":"南屯區","MARKTYPE":"994","Class":"4"},"geometry":{"x":214110.20999999996,"y":2669669.9514000006}},{"attributes":{"OBJECTID":14594,"LANDMARKID":"1001900000792","LANDMARKCO":"405","LANDMARKNA":"台亞加油站-春社站（台塑）","LANDMARKAD":"1001907","ADDRESS":"台中市南屯區永春路35-25號","TEL":"(04)2386-4382","COUNTYNAME":"台中市","TOWNNAME":"南屯區","MARKTYPE":"994","Class":"4"},"geometry":{"x":210823.47439999972,"y":2670463.8250999991}},{"attributes":{"OBJECTID":14595,"LANDMARKID":"1001900000063","LANDMARKCO":"105","LANDMARKNA":"內政部地政司","LANDMARKAD":"1001907","ADDRESS":"台中市南屯區黎明路二段503號","TEL":"04-22502365","COUNTYNAME":"台中市","TOWNNAME":"南屯區","MARKTYPE":"991","Class":"1"},"geometry":{"x":212761.27170000039,"y":2672270.0671999995}},{"attributes":{"OBJECTID":14596,"LANDMARKID":"1001900000015","LANDMARKCO":"101","LANDMARKNA":"內政部土地重劃工程處","LANDMARKAD":"1001907","ADDRESS":"台中市南屯區黎明路二段503號4樓","TEL":"04-22524985","COUNTYNAME":"台中市","TOWNNAME":"南屯區","MARKTYPE":"991","Class":"1"},"geometry":{"x":212762.27170000039,"y":2672270.0698000006}},{"attributes":{"OBJECTID":14597,"LANDMARKID":"1001900000016","LANDMARKCO":"101","LANDMARKNA":"經濟部智慧財產局","LANDMARKAD":"1001907","ADDRESS":"台中市南屯區黎明路二段503號7樓","TEL":"04-22513761","COUNTYNAME":"台中市","TOWNNAME":"南屯區","MARKTYPE":"991","Class":"1"},"geometry":{"x":212839.99780000001,"y":2672300.2708999999}},{"attributes":{"OBJECTID":14598,"LANDMARKID":"1001900000017","LANDMARKCO":"101","LANDMARKNA":"外交部領事事務局台中辦事處","LANDMARKAD":"1001907","ADDRESS":"台中市南屯區黎明路二段503號1樓","TEL":"04-22510779","COUNTYNAME":"台中市","TOWNNAME":"南屯區","MARKTYPE":"991","Class":"1"},"geometry":{"x":212838.99780000001,"y":2672300.2683000006}},{"attributes":{"OBJECTID":14599,"LANDMARKID":"1001900000018","LANDMARKCO":"101","LANDMARKNA":"經濟部中區聯合服務中心","LANDMARKAD":"1001907","ADDRESS":"台中市南屯區黎明路二段503號7樓","TEL":"04-22521111","COUNTYNAME":"台中市","TOWNNAME":"南屯區","MARKTYPE":"991","Class":"1"},"geometry":{"x":212839.99780000001,"y":2672300.2708999999}},{"attributes":{"OBJECTID":14600,"LANDMARKID":"1001900000019","LANDMARKCO":"101","LANDMARKNA":"經濟部水利署台中辦公室","LANDMARKAD":"1001907","ADDRESS":"台中市南屯區黎明路二段501號","TEL":"04-22501250","COUNTYNAME":"台中市","TOWNNAME":"南屯區","MARKTYPE":"991","Class":"1"},"geometry":{"x":212851.42949999962,"y":2672210.3027999997}}]}