{"displayFieldName":"COUNTYNAME","fieldAliases":{"OBJECTID":"OBJECTID","LANDMARKID":"LANDMARKID","LANDMARKCO":"LANDMARKCO","LANDMARKNA":"LANDMARKNA","LANDMARKAD":"LANDMARKAD","ADDRESS":"ADDRESS","TEL":"TEL","COUNTYNAME":"COUNTYNAME","TOWNNAME":"TOWNNAME","MARKTYPE":"MARKTYPE","Class":"Class"},"geometryType":"esriGeometryPoint","spatialReference":{"wkid":102443},"fields":[{"name":"OBJECTID","type":"esriFieldTypeOID","alias":"OBJECTID"},{"name":"LANDMARKID","type":"esriFieldTypeString","alias":"LANDMARKID","length":15},{"name":"LANDMARKCO","type":"esriFieldTypeString","alias":"LANDMARKCO","length":15},{"name":"LANDMARKNA","type":"esriFieldTypeString","alias":"LANDMARKNA","length":50},{"name":"LANDMARKAD","type":"esriFieldTypeString","alias":"LANDMARKAD","length":15},{"name":"ADDRESS","type":"esriFieldTypeString","alias":"ADDRESS","length":56},{"name":"TEL","type":"esriFieldTypeString","alias":"TEL","length":36},{"name":"COUNTYNAME","type":"esriFieldTypeString","alias":"COUNTYNAME","length":15},{"name":"TOWNNAME","type":"esriFieldTypeString","alias":"TOWNNAME","length":13},{"name":"MARKTYPE","type":"esriFieldTypeString","alias":"MARKTYPE","length":12},{"name":"Class","type":"esriFieldTypeString","alias":"Class","length":5}],"features":[{"attributes":{"OBJECTID":6601,"LANDMARKID":"6300000001201","LANDMARKCO":"303","LANDMARKNA":"陽明山花鐘停車場","LANDMARKAD":"6300012","ADDRESS":"台北市北投區","TEL":" ","COUNTYNAME":"台北市","TOWNNAME":"北投區","MARKTYPE":"993","Class":"303"},"geometry":{"x":304317.57500000019,"y":2783515.7742999997}},{"attributes":{"OBJECTID":6602,"LANDMARKID":"6300000001202","LANDMARKCO":"303","LANDMARKNA":"海洋生活館停車場","LANDMARKAD":"6300012","ADDRESS":"台北市士林區光華段四小段780地號","TEL":" ","COUNTYNAME":"台北市","TOWNNAME":"北投區","MARKTYPE":"993","Class":"303"},"geometry":{"x":306939.54179999977,"y":2787621.2195999995}},{"attributes":{"OBJECTID":6603,"LANDMARKID":"6300000001203","LANDMARKCO":"303","LANDMARKNA":"應安停車場-裕民場","LANDMARKAD":"6300012","ADDRESS":"臺北市裕民一路裕民二路路口","TEL":"0980-503051","COUNTYNAME":"台北市","TOWNNAME":"北投區","MARKTYPE":"993","Class":"303"},"geometry":{"x":302169.69089999981,"y":2778777.8183999993}},{"attributes":{"OBJECTID":6604,"LANDMARKID":"6300000001204","LANDMARKCO":"303","LANDMARKNA":"應安停車場-東華場","LANDMARKAD":"6300012","ADDRESS":"台北市北投區東華街一段308號","TEL":"0980-503051","COUNTYNAME":"台北市","TOWNNAME":"北投區","MARKTYPE":"993","Class":"303"},"geometry":{"x":302149.89269999973,"y":2778384.0438000001}},{"attributes":{"OBJECTID":6605,"LANDMARKID":"6300000001205","LANDMARKCO":"303","LANDMARKNA":"應安停車場-泉源場","LANDMARKAD":"6300012","ADDRESS":"台北市北投區泉源路20號","TEL":"0980-503051","COUNTYNAME":"台北市","TOWNNAME":"北投區","MARKTYPE":"993","Class":"303"},"geometry":{"x":300994.19890000019,"y":2781282.4365999997}},{"attributes":{"OBJECTID":6606,"LANDMARKID":"6300000001206","LANDMARKCO":"303","LANDMARKNA":"Times(普客二四停車場)-石牌停車場","LANDMARKAD":"6300012","ADDRESS":"台北市北投區東華街一段裕民二路口","TEL":" ","COUNTYNAME":"台北市","TOWNNAME":"北投區","MARKTYPE":"993","Class":"303"},"geometry":{"x":302060.37009999994,"y":2778523.5371000003}},{"attributes":{"OBJECTID":6607,"LANDMARKID":"6300000001207","LANDMARKCO":"303","LANDMARKNA":"Times(普客二四停車場)-石牌停車場","LANDMARKAD":"6300012","ADDRESS":"台北市北投區東華街二段16號旁","TEL":" ","COUNTYNAME":"台北市","TOWNNAME":"北投區","MARKTYPE":"993","Class":"303"},"geometry":{"x":301899.11199999973,"y":2778773.0938000008}},{"attributes":{"OBJECTID":6608,"LANDMARKID":"6300000002285","LANDMARKCO":"402","LANDMARKNA":"中華電信-台北石牌特約服務中心","LANDMARKAD":"6300012","ADDRESS":"台北市北投區石牌路二段47號","TEL":"02-28228181","COUNTYNAME":"台北市","TOWNNAME":"北投區","MARKTYPE":"994","Class":"4"},"geometry":{"x":302031.06400000025,"y":2778769.2207999993}},{"attributes":{"OBJECTID":6609,"LANDMARKID":"6300000002286","LANDMARKCO":"402","LANDMARKNA":"中華電信-北投服務中心","LANDMARKAD":"6300012","ADDRESS":"台北市北投區光明路176號","TEL":"123或0800-080-123","COUNTYNAME":"台北市","TOWNNAME":"北投區","MARKTYPE":"994","Class":"4"},"geometry":{"x":300734.92300000042,"y":2780887.8632999994}},{"attributes":{"OBJECTID":6610,"LANDMARKID":"6300000002287","LANDMARKCO":"402","LANDMARKNA":"中華電信-陽明山服務中心","LANDMARKAD":"6300012","ADDRESS":"台北市北投區紗帽路139號","TEL":"123或0800-080-123","COUNTYNAME":"台北市","TOWNNAME":"北投區","MARKTYPE":"994","Class":"4"},"geometry":{"x":305064.54879999999,"y":2782638.3021000009}},{"attributes":{"OBJECTID":6611,"LANDMARKID":"6300000002288","LANDMARKCO":"402","LANDMARKNA":"威寶電信-北投中和特約服務中心","LANDMARKAD":"6300012","ADDRESS":"台北市北投區中和街295號","TEL":"02-28924304","COUNTYNAME":"台北市","TOWNNAME":"北投區","MARKTYPE":"994","Class":"4"},"geometry":{"x":300427.66830000002,"y":2781434.9563999996}},{"attributes":{"OBJECTID":6612,"LANDMARKID":"6300000002289","LANDMARKCO":"402","LANDMARKNA":"大眾電信-復興崗專賣店","LANDMARKAD":"6300012","ADDRESS":"台北市北投區中央北路二段115號","TEL":"02-28943355","COUNTYNAME":"台北市","TOWNNAME":"北投區","MARKTYPE":"994","Class":"4"},"geometry":{"x":299874.40319999959,"y":2781054.9359000009}},{"attributes":{"OBJECTID":6613,"LANDMARKID":"6300000002290","LANDMARKCO":"402","LANDMARKNA":"大眾電信-石牌專賣店","LANDMARKAD":"6300012","ADDRESS":"台北市北投區石牌路二段43號","TEL":"02-28264567","COUNTYNAME":"台北市","TOWNNAME":"北投區","MARKTYPE":"994","Class":"4"},"geometry":{"x":302014.97979999986,"y":2778747.2821999993}},{"attributes":{"OBJECTID":6614,"LANDMARKID":"6300000002291","LANDMARKCO":"402","LANDMARKNA":"大眾電信-北投專賣店","LANDMARKAD":"6300012","ADDRESS":"台北市北投區光明路172號","TEL":"02-28922616","COUNTYNAME":"台北市","TOWNNAME":"北投區","MARKTYPE":"994","Class":"4"},"geometry":{"x":300720.88190000039,"y":2780876.9156999998}},{"attributes":{"OBJECTID":6615,"LANDMARKID":"6300000002292","LANDMARKCO":"402","LANDMARKNA":"大眾電信(皇家通訊)-北投中央","LANDMARKAD":"6300012","ADDRESS":"台北市北投區中央南路一段18號","TEL":"02-28985929","COUNTYNAME":"台北市","TOWNNAME":"北投區","MARKTYPE":"994","Class":"4"},"geometry":{"x":300558.01669999957,"y":2780573.5469000004}},{"attributes":{"OBJECTID":6616,"LANDMARKID":"6300000002293","LANDMARKCO":"402","LANDMARKNA":"大眾電信(傑昇通信)-北投店","LANDMARKAD":"6300012","ADDRESS":"台北市北投區中和街247號","TEL":"02-28919935","COUNTYNAME":"台北市","TOWNNAME":"北投區","MARKTYPE":"994","Class":"4"},"geometry":{"x":300513.64910000004,"y":2781346.2544999998}},{"attributes":{"OBJECTID":6617,"LANDMARKID":"6300000003604","LANDMARKCO":"603","LANDMARKNA":"國際大旅館","LANDMARKAD":"6300012","ADDRESS":"台北市北投區湖山路一段7號","TEL":"02-28617100","COUNTYNAME":"台北市","TOWNNAME":"北投區","MARKTYPE":"996","Class":"6"},"geometry":{"x":305252.00289999973,"y":2782750.6753000002}},{"attributes":{"OBJECTID":6618,"LANDMARKID":"6300000003605","LANDMARKCO":"603","LANDMARKNA":"吟松閣溫泉旅館","LANDMARKAD":"6300012","ADDRESS":"台北市北投區幽雅路21號1-2樓","TEL":"02-28912063","COUNTYNAME":"台北市","TOWNNAME":"北投區","MARKTYPE":"996","Class":"6"},"geometry":{"x":301846.56859999988,"y":2781065.6294}},{"attributes":{"OBJECTID":6619,"LANDMARKID":"6300000003606","LANDMARKCO":"603","LANDMARKNA":"鳳凰閣溫泉休閒HOTEL","LANDMARKAD":"6300012","ADDRESS":"台北市北投區溫泉路天主巷1號","TEL":"02-28911889","COUNTYNAME":"台北市","TOWNNAME":"北投區","MARKTYPE":"996","Class":"6"},"geometry":{"x":301482.32139999978,"y":2780946.2049000002}},{"attributes":{"OBJECTID":6620,"LANDMARKID":"6300000003607","LANDMARKCO":"603","LANDMARKNA":"荷豐館溫泉渡假飯店","LANDMARKAD":"6300012","ADDRESS":"台北市北投區溫泉路銀光巷1號1-5樓","TEL":"02-28979955","COUNTYNAME":"台北市","TOWNNAME":"北投區","MARKTYPE":"996","Class":"6"},"geometry":{"x":301697.13690000027,"y":2781012.9478999991}},{"attributes":{"OBJECTID":6621,"LANDMARKID":"6300000003608","LANDMARKCO":"603","LANDMARKNA":"東南大飯店","LANDMARKAD":"6300012","ADDRESS":"台北市北投區中山路26號","TEL":"02-28969797","COUNTYNAME":"台北市","TOWNNAME":"北投區","MARKTYPE":"996","Class":"6"},"geometry":{"x":301435.37939999998,"y":2781119.7762000002}},{"attributes":{"OBJECTID":6622,"LANDMARKID":"6300000003609","LANDMARKCO":"603","LANDMARKNA":"逸?大飯店","LANDMARKAD":"6300012","ADDRESS":"台北市北投區溫泉路140號1-2樓","TEL":"02-28912121","COUNTYNAME":"台北市","TOWNNAME":"北投區","MARKTYPE":"996","Class":"6"},"geometry":{"x":301623.32849999983,"y":2781107.5427000001}},{"attributes":{"OBJECTID":6623,"LANDMARKID":"6300000003610","LANDMARKCO":"603","LANDMARKNA":"淺草大飯店","LANDMARKAD":"6300012","ADDRESS":"台北市北投區溫泉路銀光巷4-2號","TEL":"02-28913366","COUNTYNAME":"台北市","TOWNNAME":"北投區","MARKTYPE":"996","Class":"6"},"geometry":{"x":301803.51370000001,"y":2780959.7798999995}},{"attributes":{"OBJECTID":6624,"LANDMARKID":"6300000003611","LANDMARKCO":"603","LANDMARKNA":"春天酒店","LANDMARKAD":"6300012","ADDRESS":"台北市北投區幽雅路18號1-6樓","TEL":"02-28975555","COUNTYNAME":"台北市","TOWNNAME":"北投區","MARKTYPE":"996","Class":"6"},"geometry":{"x":301789.49820000026,"y":2781122.2747000009}},{"attributes":{"OBJECTID":6625,"LANDMARKID":"6300000003612","LANDMARKCO":"603","LANDMARKNA":"月光莊旅社","LANDMARKAD":"6300012","ADDRESS":"台北市北投區光明路115-1號","TEL":"02-28914478","COUNTYNAME":"台北市","TOWNNAME":"北投區","MARKTYPE":"996","Class":"6"},"geometry":{"x":300611.13729999959,"y":2780676.2833999991}},{"attributes":{"OBJECTID":6626,"LANDMARKID":"6300000003613","LANDMARKCO":"603","LANDMARKNA":"泉都溫泉休閒飯店","LANDMARKAD":"6300012","ADDRESS":"台北市北投區光明路220號","TEL":"02-28960077","COUNTYNAME":"台北市","TOWNNAME":"北投區","MARKTYPE":"996","Class":"6"},"geometry":{"x":300870.04959999956,"y":2780961.3542999998}},{"attributes":{"OBJECTID":6627,"LANDMARKID":"6300000003614","LANDMARKCO":"603","LANDMARKNA":"嘉賓閣旅館","LANDMARKAD":"6300012","ADDRESS":"台北市北投區光明路230號1-7樓","TEL":"02-28930055","COUNTYNAME":"台北市","TOWNNAME":"北投區","MARKTYPE":"996","Class":"6"},"geometry":{"x":301020.05549999978,"y":2780922.8435999993}},{"attributes":{"OBJECTID":6628,"LANDMARKID":"6300000003615","LANDMARKCO":"603","LANDMARKNA":"新秀閣大飯店","LANDMARKAD":"6300012","ADDRESS":"台北市北投區光明路238號1-5樓","TEL":"02-28912166-8","COUNTYNAME":"台北市","TOWNNAME":"北投區","MARKTYPE":"996","Class":"6"},"geometry":{"x":301138.0047000004,"y":2780950.3962999992}},{"attributes":{"OBJECTID":6629,"LANDMARKID":"6300000003616","LANDMARKCO":"603","LANDMARKNA":"美代溫泉飯店","LANDMARKAD":"6300012","ADDRESS":"台北市北投區光明路281號1-3樓","TEL":"02-28912174","COUNTYNAME":"台北市","TOWNNAME":"北投區","MARKTYPE":"996","Class":"6"},"geometry":{"x":301506.43120000046,"y":2781064.0587000009}},{"attributes":{"OBJECTID":6630,"LANDMARKID":"6300000003617","LANDMARKCO":"603","LANDMARKNA":"水都溫泉會館","LANDMARKAD":"6300012","ADDRESS":"台北市北投區光明路283號","TEL":"02-28979060","COUNTYNAME":"台北市","TOWNNAME":"北投區","MARKTYPE":"996","Class":"6"},"geometry":{"x":301528.35529999994,"y":2781043.9756000005}},{"attributes":{"OBJECTID":6631,"LANDMARKID":"6300000003618","LANDMARKCO":"603","LANDMARKNA":"太平洋溫泉生活館","LANDMARKAD":"6300012","ADDRESS":"台北市北投區奇岩路1號","TEL":"02-28931668","COUNTYNAME":"台北市","TOWNNAME":"北投區","MARKTYPE":"996","Class":"6"},"geometry":{"x":301120.6540000001,"y":2780815.4659000002}},{"attributes":{"OBJECTID":6632,"LANDMARKID":"6300000003619","LANDMARKCO":"603","LANDMARKNA":"溫拿旅館","LANDMARKAD":"6300012","ADDRESS":"台北市北投區承德路七段380號1-5樓","TEL":"02-28213191","COUNTYNAME":"台北市","TOWNNAME":"北投區","MARKTYPE":"996","Class":"6"},"geometry":{"x":300685.9299999997,"y":2779043.0309999995}},{"attributes":{"OBJECTID":6633,"LANDMARKID":"6300000003620","LANDMARKCO":"603","LANDMARKNA":"南美大飯店","LANDMARKAD":"6300012","ADDRESS":"台北市北投區幽雅路14號","TEL":"02-28975555","COUNTYNAME":"台北市","TOWNNAME":"北投區","MARKTYPE":"996","Class":"6"},"geometry":{"x":301787.56280000042,"y":2781099.0493999999}},{"attributes":{"OBJECTID":6634,"LANDMARKID":"6300000003621","LANDMARKCO":"603","LANDMARKNA":"賓城旅社","LANDMARKAD":"6300012","ADDRESS":"台北市北投區溫泉路21巷7號1-3樓","TEL":"02-28918312","COUNTYNAME":"台北市","TOWNNAME":"北投區","MARKTYPE":"996","Class":"6"},"geometry":{"x":300707.32639999967,"y":2780727.9661999997}},{"attributes":{"OBJECTID":6635,"LANDMARKID":"6300000003622","LANDMARKCO":"603","LANDMARKNA":"漾館溫泉商旅","LANDMARKAD":"6300012","ADDRESS":"台北市北投區溫泉路63號1-4樓","TEL":"02-28912225","COUNTYNAME":"台北市","TOWNNAME":"北投區","MARKTYPE":"996","Class":"6"},"geometry":{"x":300882.74780000001,"y":2780840.3111000005}},{"attributes":{"OBJECTID":6636,"LANDMARKID":"6300000003623","LANDMARKCO":"603","LANDMARKNA":"百樂匯大飯店","LANDMARKAD":"6300012","ADDRESS":"台北市北投區溫泉路99號1-4樓","TEL":"02-28956658","COUNTYNAME":"台北市","TOWNNAME":"北投區","MARKTYPE":"996","Class":"6"},"geometry":{"x":301397.11060000025,"y":2780979.4722000007}},{"attributes":{"OBJECTID":6637,"LANDMARKID":"6300000003624","LANDMARKCO":"603","LANDMARKNA":"仙渡莊旅社","LANDMARKAD":"6300012","ADDRESS":"台北市北投區大度路三段304號","TEL":"02-28913537","COUNTYNAME":"台北市","TOWNNAME":"北投區","MARKTYPE":"996","Class":"6"},"geometry":{"x":296972.5373999998,"y":2779551.3416000009}},{"attributes":{"OBJECTID":6638,"LANDMARKID":"6300000003625","LANDMARKCO":"603","LANDMARKNA":"松林大旅社","LANDMARKAD":"6300012","ADDRESS":"台北市北投區大業路741號","TEL":"02-28951505-9","COUNTYNAME":"台北市","TOWNNAME":"北投區","MARKTYPE":"996","Class":"6"},"geometry":{"x":300697.5736999996,"y":2781101.9982999992}},{"attributes":{"OBJECTID":6639,"LANDMARKID":"6300000003626","LANDMARKCO":"603","LANDMARKNA":"別府大飯店 (水紗蓮汽車旅館)","LANDMARKAD":"6300012","ADDRESS":"台北市北投區中山路1-2號","TEL":"02-28915121-5","COUNTYNAME":"台北市","TOWNNAME":"北投區","MARKTYPE":"996","Class":"6"},"geometry":{"x":300881.37870000023,"y":2781049.3118999992}},{"attributes":{"OBJECTID":6640,"LANDMARKID":"6300000003627","LANDMARKCO":"603","LANDMARKNA":"京都飯店","LANDMARKAD":"6300012","ADDRESS":"台北市北投區溫泉路105號1-3樓","TEL":"02-28912151-4","COUNTYNAME":"台北市","TOWNNAME":"北投區","MARKTYPE":"996","Class":"6"},"geometry":{"x":301620.14580000006,"y":2780989.6859000009}},{"attributes":{"OBJECTID":6641,"LANDMARKID":"6300000003628","LANDMARKCO":"603","LANDMARKNA":"東皇大飯店","LANDMARKAD":"6300012","ADDRESS":"台北市北投區溫泉路108號1-6樓","TEL":"02-28913027-9","COUNTYNAME":"台北市","TOWNNAME":"北投區","MARKTYPE":"996","Class":"6"},"geometry":{"x":301500.14570000023,"y":2780945.0868999995}},{"attributes":{"OBJECTID":6642,"LANDMARKID":"6300000003629","LANDMARKCO":"603","LANDMARKNA":"山樂溫泉","LANDMARKAD":"6300012","ADDRESS":"台北市北投區泉源路17號1-2樓","TEL":"02-28913388","COUNTYNAME":"台北市","TOWNNAME":"北投區","MARKTYPE":"996","Class":"6"},"geometry":{"x":300873.89120000042,"y":2781186.3399}},{"attributes":{"OBJECTID":6643,"LANDMARKID":"6300000003630","LANDMARKCO":"603","LANDMARKNA":"美樂莊旅社","LANDMARKAD":"6300012","ADDRESS":"台北市北投區中和街20巷6號","TEL":"02-28913388","COUNTYNAME":"台北市","TOWNNAME":"北投區","MARKTYPE":"996","Class":"6"},"geometry":{"x":300792.79760000017,"y":2781161.6429999992}},{"attributes":{"OBJECTID":6644,"LANDMARKID":"6300000003631","LANDMARKCO":"603","LANDMARKNA":"楓漾麗緻飯店","LANDMARKAD":"6300012","ADDRESS":"台北市北投區溫泉路155號","TEL":"02-28986866","COUNTYNAME":"台北市","TOWNNAME":"北投區","MARKTYPE":"996","Class":"6"},"geometry":{"x":301842.98699999973,"y":2781518.8980999999}},{"attributes":{"OBJECTID":6645,"LANDMARKID":"6300000003262","LANDMARKCO":"508","LANDMARKNA":"水美溫泉會館","LANDMARKAD":"6300012","ADDRESS":"台北市北投區光明路224號","TEL":"02-28983838","COUNTYNAME":"台北市","TOWNNAME":"北投區","MARKTYPE":"995","Class":"5"},"geometry":{"x":300916.14919999987,"y":2780951.7572000008}},{"attributes":{"OBJECTID":6646,"LANDMARKID":"6300000003263","LANDMARKCO":"508","LANDMARKNA":"春天酒店","LANDMARKAD":"6300012","ADDRESS":"台北市北投區幽雅路18號","TEL":"02-28975555","COUNTYNAME":"台北市","TOWNNAME":"北投區","MARKTYPE":"995","Class":"5"},"geometry":{"x":301787.45320000034,"y":2781122.2454000004}},{"attributes":{"OBJECTID":6647,"LANDMARKID":"6300000003264","LANDMARKCO":"508","LANDMARKNA":"國際大旅館","LANDMARKAD":"6300012","ADDRESS":"台北市北投區湖山路一段7號","TEL":"02-28617100","COUNTYNAME":"台北市","TOWNNAME":"北投區","MARKTYPE":"995","Class":"5"},"geometry":{"x":305243.64400000032,"y":2782741.5683999993}},{"attributes":{"OBJECTID":6648,"LANDMARKID":"6300000003132","LANDMARKCO":"504","LANDMARKNA":"地熱谷","LANDMARKAD":"6300012","ADDRESS":"台北市北投區","TEL":" ","COUNTYNAME":"台北市","TOWNNAME":"北投區","MARKTYPE":"995","Class":"5"},"geometry":{"x":301582.2089999998,"y":2781163.5331999995}},{"attributes":{"OBJECTID":6649,"LANDMARKID":"6300000003133","LANDMARKCO":"504","LANDMARKNA":"硫磺谷遊憩區","LANDMARKAD":"6300012","ADDRESS":"台北市北投區","TEL":" ","COUNTYNAME":"台北市","TOWNNAME":"北投區","MARKTYPE":"995","Class":"5"},"geometry":{"x":302731.55530000012,"y":2781741.1756999996}},{"attributes":{"OBJECTID":6650,"LANDMARKID":"6300000003134","LANDMARKCO":"504","LANDMARKNA":"硫磺谷地熱景觀區","LANDMARKAD":"6300012","ADDRESS":"台北市北投區","TEL":" ","COUNTYNAME":"台北市","TOWNNAME":"北投區","MARKTYPE":"995","Class":"5"},"geometry":{"x":302875.4523,"y":2781869.1477000006}},{"attributes":{"OBJECTID":6651,"LANDMARKID":"6300000003135","LANDMARKCO":"504","LANDMARKNA":"小油坑遊憩區","LANDMARKAD":"6300012","ADDRESS":"台北市北投區竹子湖路69號","TEL":"02-28617024","COUNTYNAME":"台北市","TOWNNAME":"北投區","MARKTYPE":"995","Class":"5"},"geometry":{"x":305110.49780000001,"y":2785475.6636999995}},{"attributes":{"OBJECTID":6652,"LANDMARKID":"6300000003118","LANDMARKCO":"503","LANDMARKNA":"鷺鷥草原","LANDMARKAD":"6300012","ADDRESS":"台北市北投區學園路1號","TEL":" ","COUNTYNAME":"台北市","TOWNNAME":"北投區","MARKTYPE":"995","Class":"5"},"geometry":{"x":297025.85699999984,"y":2780318.3175000008}},{"attributes":{"OBJECTID":6653,"LANDMARKID":"6300000003265","LANDMARKCO":"508","LANDMARKNA":"亞爵會館","LANDMARKAD":"6300012","ADDRESS":"台北市北投區中和街20巷6號","TEL":"02-66119988","COUNTYNAME":"台北市","TOWNNAME":"北投區","MARKTYPE":"995","Class":"5"},"geometry":{"x":300794.4020999996,"y":2781161.9371000007}},{"attributes":{"OBJECTID":6654,"LANDMARKID":"6300000003266","LANDMARKCO":"508","LANDMARKNA":"大屯溫泉旅館","LANDMARKAD":"6300012","ADDRESS":"台北市北投區泉源路5號","TEL":"02-28912021","COUNTYNAME":"台北市","TOWNNAME":"北投區","MARKTYPE":"995","Class":"5"},"geometry":{"x":300878.19680000003,"y":2781175.5965999998}},{"attributes":{"OBJECTID":6655,"LANDMARKID":"6300000003267","LANDMARKCO":"508","LANDMARKNA":"泉都溫泉飯店","LANDMARKAD":"6300012","ADDRESS":"台北市北投區光明路220號","TEL":"02-28960077","COUNTYNAME":"台北市","TOWNNAME":"北投區","MARKTYPE":"995","Class":"5"},"geometry":{"x":300873.72809999995,"y":2780959.1526999995}},{"attributes":{"OBJECTID":6656,"LANDMARKID":"6300000003268","LANDMARKCO":"508","LANDMARKNA":"北投溫泉親水公園","LANDMARKAD":"6300012","ADDRESS":"台北市北投區","TEL":" ","COUNTYNAME":"台北市","TOWNNAME":"北投區","MARKTYPE":"995","Class":"5"},"geometry":{"x":300891.05289999954,"y":2781014.3787999991}},{"attributes":{"OBJECTID":6657,"LANDMARKID":"6300000003269","LANDMARKCO":"508","LANDMARKNA":"水紗蓮休閒旅館","LANDMARKAD":"6300012","ADDRESS":"台北市北投區中山路1之2號","TEL":"02-28915121","COUNTYNAME":"台北市","TOWNNAME":"北投區","MARKTYPE":"995","Class":"5"},"geometry":{"x":300884.14570000023,"y":2781052.0884000007}},{"attributes":{"OBJECTID":6658,"LANDMARKID":"6300000003270","LANDMARKCO":"508","LANDMARKNA":"嘉賓閣溫泉飯店","LANDMARKAD":"6300012","ADDRESS":"台北市北投區光明路230號","TEL":"02-28930055","COUNTYNAME":"台北市","TOWNNAME":"北投區","MARKTYPE":"995","Class":"5"},"geometry":{"x":301018.38970000017,"y":2780923.2732999995}},{"attributes":{"OBJECTID":6659,"LANDMARKID":"6300000003271","LANDMARKCO":"508","LANDMARKNA":"小川源北投福岡溫泉館","LANDMARKAD":"6300012","ADDRESS":"台北市北投區溫泉路87號","TEL":"02-28979618","COUNTYNAME":"台北市","TOWNNAME":"北投區","MARKTYPE":"995","Class":"5"},"geometry":{"x":301076.97989999969,"y":2780884.2763}},{"attributes":{"OBJECTID":6660,"LANDMARKID":"6300000003272","LANDMARKCO":"508","LANDMARKNA":"新莊飯店","LANDMARKAD":"6300012","ADDRESS":"台北市北投區光明路236號","TEL":"02-28912171","COUNTYNAME":"台北市","TOWNNAME":"北投區","MARKTYPE":"995","Class":"5"},"geometry":{"x":301125.9617999997,"y":2780947.9561000001}},{"attributes":{"OBJECTID":6661,"LANDMARKID":"6300000003273","LANDMARKCO":"508","LANDMARKNA":"太平洋北投溫泉會館","LANDMARKAD":"6300012","ADDRESS":"台北市北投區奇岩路1號","TEL":"02-28931668","COUNTYNAME":"台北市","TOWNNAME":"北投區","MARKTYPE":"995","Class":"5"},"geometry":{"x":301134.46490000002,"y":2780790.2572000008}},{"attributes":{"OBJECTID":6662,"LANDMARKID":"6300000003274","LANDMARKCO":"508","LANDMARKNA":"瀧乃湯","LANDMARKAD":"6300012","ADDRESS":"台北市北投區光明路244號","TEL":"02-28912236","COUNTYNAME":"台北市","TOWNNAME":"北投區","MARKTYPE":"995","Class":"5"},"geometry":{"x":301219.80260000005,"y":2780988.3532999996}},{"attributes":{"OBJECTID":6663,"LANDMARKID":"6300000003275","LANDMARKCO":"508","LANDMARKNA":"台北花月溫泉會館","LANDMARKAD":"6300012","ADDRESS":"台北市北投區新民路1巷4號","TEL":"02-28939870","COUNTYNAME":"台北市","TOWNNAME":"北投區","MARKTYPE":"995","Class":"5"},"geometry":{"x":301200.36990000028,"y":2781459.9902999997}},{"attributes":{"OBJECTID":6664,"LANDMARKID":"6300000003276","LANDMARKCO":"508","LANDMARKNA":"北投親水露天溫泉","LANDMARKAD":"6300012","ADDRESS":"台北市北投區中山路6號","TEL":"02-28937014","COUNTYNAME":"台北市","TOWNNAME":"北投區","MARKTYPE":"995","Class":"5"},"geometry":{"x":301297.48209999967,"y":2781041.5538999997}},{"attributes":{"OBJECTID":6665,"LANDMARKID":"6300000003277","LANDMARKCO":"508","LANDMARKNA":"熱海大飯店","LANDMARKAD":"6300012","ADDRESS":"台北市北投區光明路258號","TEL":"02-28915161","COUNTYNAME":"台北市","TOWNNAME":"北投區","MARKTYPE":"995","Class":"5"},"geometry":{"x":301359.31769999955,"y":2781018.4959999993}},{"attributes":{"OBJECTID":6666,"LANDMARKID":"6300000003278","LANDMARKCO":"508","LANDMARKNA":"北投溫泉區","LANDMARKAD":"6300012","ADDRESS":"台北市北投區","TEL":" ","COUNTYNAME":"台北市","TOWNNAME":"北投區","MARKTYPE":"995","Class":"5"},"geometry":{"x":301387.73400000017,"y":2780919.9716999996}},{"attributes":{"OBJECTID":6667,"LANDMARKID":"6300000003279","LANDMARKCO":"508","LANDMARKNA":"東皇大飯店","LANDMARKAD":"6300012","ADDRESS":"台北市北投區溫泉路108號","TEL":"02-28913027","COUNTYNAME":"台北市","TOWNNAME":"北投區","MARKTYPE":"995","Class":"5"},"geometry":{"x":301499.89429999981,"y":2780953.5332999993}},{"attributes":{"OBJECTID":6668,"LANDMARKID":"6300000003280","LANDMARKCO":"508","LANDMARKNA":"逸村大飯店","LANDMARKAD":"6300012","ADDRESS":"台北市北投區溫泉路140號","TEL":"02-28912121","COUNTYNAME":"台北市","TOWNNAME":"北投區","MARKTYPE":"995","Class":"5"},"geometry":{"x":301595.17939999979,"y":2781086.5019000005}},{"attributes":{"OBJECTID":6669,"LANDMARKID":"6300000003281","LANDMARKCO":"508","LANDMARKNA":"荷豐館溫泉渡假飯店","LANDMARKAD":"6300012","ADDRESS":"台北市北投區溫泉路銀光巷1號","TEL":"02-28979955","COUNTYNAME":"台北市","TOWNNAME":"北投區","MARKTYPE":"995","Class":"5"},"geometry":{"x":301736.66270000022,"y":2781011.5100999996}},{"attributes":{"OBJECTID":6670,"LANDMARKID":"6300000003282","LANDMARKCO":"508","LANDMARKNA":"北投楓漾麗緻飯店","LANDMARKAD":"6300012","ADDRESS":"台北市北投區溫泉路155號","TEL":"02-28986866","COUNTYNAME":"台北市","TOWNNAME":"北投區","MARKTYPE":"995","Class":"5"},"geometry":{"x":301843.39350000024,"y":2781519.4823000003}},{"attributes":{"OBJECTID":6671,"LANDMARKID":"6300000003283","LANDMARKCO":"508","LANDMARKNA":"亞太溫泉生活館","LANDMARKAD":"6300012","ADDRESS":"台北市北投區溫泉路銀光巷21之2號","TEL":"02-28983088","COUNTYNAME":"台北市","TOWNNAME":"北投區","MARKTYPE":"995","Class":"5"},"geometry":{"x":302004.25939999986,"y":2780954.4639999997}},{"attributes":{"OBJECTID":6672,"LANDMARKID":"6300000003284","LANDMARKCO":"508","LANDMARKNA":"山玥新館","LANDMARKAD":"6300012","ADDRESS":"台北市北投區東昇路68之15號","TEL":"02-28965858","COUNTYNAME":"台北市","TOWNNAME":"北投區","MARKTYPE":"995","Class":"5"},"geometry":{"x":303364.97109999973,"y":2782945.9586999994}},{"attributes":{"OBJECTID":6673,"LANDMARKID":"6300000003285","LANDMARKCO":"508","LANDMARKNA":"天美山莊溫泉","LANDMARKAD":"6300012","ADDRESS":"台北市北投區行義路342號","TEL":"02-28715915","COUNTYNAME":"台北市","TOWNNAME":"北投區","MARKTYPE":"995","Class":"5"},"geometry":{"x":303266.52390000038,"y":2781307.1916000005}},{"attributes":{"OBJECTID":6674,"LANDMARKID":"6300000003286","LANDMARKCO":"508","LANDMARKNA":"湯瀨溫泉SPA餐廳","LANDMARKAD":"6300012","ADDRESS":"台北市北投區行義路300巷1號","TEL":"02-28760888","COUNTYNAME":"台北市","TOWNNAME":"北投區","MARKTYPE":"995","Class":"5"},"geometry":{"x":303342.69350000005,"y":2781275.3345999997}},{"attributes":{"OBJECTID":6675,"LANDMARKID":"6300000003287","LANDMARKCO":"508","LANDMARKNA":"銀饌懷石鍋物草本風呂","LANDMARKAD":"6300012","ADDRESS":"台北市北投區行義路352號","TEL":"02-28765599","COUNTYNAME":"台北市","TOWNNAME":"北投區","MARKTYPE":"995","Class":"5"},"geometry":{"x":303293.19799999986,"y":2781359.2547999993}},{"attributes":{"OBJECTID":6676,"LANDMARKID":"6300000003288","LANDMARKCO":"508","LANDMARKNA":"行義路溫泉區(紗帽山溫泉區)","LANDMARKAD":"6300012","ADDRESS":"台北市北投區","TEL":" ","COUNTYNAME":"台北市","TOWNNAME":"北投區","MARKTYPE":"995","Class":"5"},"geometry":{"x":303354.23199999984,"y":2781184.2347999997}},{"attributes":{"OBJECTID":6677,"LANDMARKID":"6300000003289","LANDMARKCO":"508","LANDMARKNA":"吼嗨啞湯泉啤酒會館","LANDMARKAD":"6300012","ADDRESS":"台北市北投區行義路300巷5號","TEL":"02-28740909","COUNTYNAME":"台北市","TOWNNAME":"北投區","MARKTYPE":"995","Class":"5"},"geometry":{"x":303348.22690000013,"y":2781305.6565000005}},{"attributes":{"OBJECTID":6678,"LANDMARKID":"6300000003290","LANDMARKCO":"508","LANDMARKNA":"櫻崗溫泉會館","LANDMARKAD":"6300012","ADDRESS":"台北市北投區行義路300巷3號","TEL":"02-28718965","COUNTYNAME":"台北市","TOWNNAME":"北投區","MARKTYPE":"995","Class":"5"},"geometry":{"x":303364.39969999995,"y":2781277.6653000005}},{"attributes":{"OBJECTID":6679,"LANDMARKID":"6300000003291","LANDMARKCO":"508","LANDMARKNA":"川湯溫泉","LANDMARKAD":"6300012","ADDRESS":"台北市北投區行義路300巷10號","TEL":"02-28747979","COUNTYNAME":"台北市","TOWNNAME":"北投區","MARKTYPE":"995","Class":"5"},"geometry":{"x":303412.67650000006,"y":2781239.2456999999}},{"attributes":{"OBJECTID":6680,"LANDMARKID":"6300000003292","LANDMARKCO":"508","LANDMARKNA":"皇池御膳館","LANDMARKAD":"6300012","ADDRESS":"台北市北投區行義路402巷42之1號","TEL":"02-28623688","COUNTYNAME":"台北市","TOWNNAME":"北投區","MARKTYPE":"995","Class":"5"},"geometry":{"x":303474.12939999998,"y":2781357.2542000003}},{"attributes":{"OBJECTID":6681,"LANDMARKID":"6300000003293","LANDMARKCO":"508","LANDMARKNA":"北投媽祖窟溫泉","LANDMARKAD":"6300012","ADDRESS":"台北市北投區","TEL":" ","COUNTYNAME":"台北市","TOWNNAME":"北投區","MARKTYPE":"995","Class":"5"},"geometry":{"x":303587.98309999984,"y":2782194.5000999998}},{"attributes":{"OBJECTID":6682,"LANDMARKID":"6300000003294","LANDMARKCO":"508","LANDMARKNA":"前山公園男公共溫泉浴池","LANDMARKAD":"6300012","ADDRESS":"台北市北投區","TEL":" ","COUNTYNAME":"台北市","TOWNNAME":"北投區","MARKTYPE":"995","Class":"5"},"geometry":{"x":305266.19649999961,"y":2782561.0067999996}},{"attributes":{"OBJECTID":6683,"LANDMARKID":"6300000003295","LANDMARKCO":"508","LANDMARKNA":"前山公園女公共溫泉浴池","LANDMARKAD":"6300012","ADDRESS":"台北市北投區","TEL":" ","COUNTYNAME":"台北市","TOWNNAME":"北投區","MARKTYPE":"995","Class":"5"},"geometry":{"x":305310.62939999998,"y":2782423.7304999996}},{"attributes":{"OBJECTID":6684,"LANDMARKID":"6300000003136","LANDMARKCO":"505","LANDMARKNA":"關渡自然公園","LANDMARKAD":"6300012","ADDRESS":"台北市北投區關渡路55號","TEL":" ","COUNTYNAME":"台北市","TOWNNAME":"北投區","MARKTYPE":"995","Class":"5"},"geometry":{"x":297373.87600000016,"y":2779082.6931999996}},{"attributes":{"OBJECTID":6685,"LANDMARKID":"6300000003116","LANDMARKCO":"503","LANDMARKNA":"水鳥保護區","LANDMARKAD":"6300012","ADDRESS":"台北市北投區關渡路55號","TEL":" ","COUNTYNAME":"台北市","TOWNNAME":"北投區","MARKTYPE":"995","Class":"5"},"geometry":{"x":297397.13949999958,"y":2778453.9618999995}},{"attributes":{"OBJECTID":6686,"LANDMARKID":"6300000003117","LANDMARKCO":"503","LANDMARKNA":"龍鳳谷遊憩區","LANDMARKAD":"6300012","ADDRESS":"台北市士林區","TEL":" ","COUNTYNAME":"台北市","TOWNNAME":"北投區","MARKTYPE":"995","Class":"5"},"geometry":{"x":303287.09499999974,"y":2781775.7884999998}},{"attributes":{"OBJECTID":6687,"LANDMARKID":"6300000003131","LANDMARKCO":"504","LANDMARKNA":"陽明山童子軍露營場","LANDMARKAD":"6300012","ADDRESS":"台北市北投區竹子湖路1之10號","TEL":" ","COUNTYNAME":"台北市","TOWNNAME":"北投區","MARKTYPE":"995","Class":"5"},"geometry":{"x":305160.51379999984,"y":2783249.0343999993}},{"attributes":{"OBJECTID":6688,"LANDMARKID":"6300000003115","LANDMARKCO":"503","LANDMARKNA":"小油坑遊憩區","LANDMARKAD":"6300012","ADDRESS":"台北市北投區","TEL":" ","COUNTYNAME":"台北市","TOWNNAME":"北投區","MARKTYPE":"995","Class":"5"},"geometry":{"x":305272.75229999982,"y":2785462.5745000001}},{"attributes":{"OBJECTID":6689,"LANDMARKID":"6300000003308","LANDMARKCO":"510","LANDMARKNA":"大業高爾夫球練習場","LANDMARKAD":"6300012","ADDRESS":"台北市北投區大業路306號","TEL":"02-28940652","COUNTYNAME":"台北市","TOWNNAME":"北投區","MARKTYPE":"995","Class":"5"},"geometry":{"x":300220.89300000016,"y":2780132.1359999999}},{"attributes":{"OBJECTID":6690,"LANDMARKID":"6300000003309","LANDMARKCO":"510","LANDMARKNA":"石牌高爾夫練習場","LANDMARKAD":"6300012","ADDRESS":"台北市北投區承德路七段223-2號","TEL":"02-28220305","COUNTYNAME":"台北市","TOWNNAME":"北投區","MARKTYPE":"995","Class":"5"},"geometry":{"x":300934.56520000007,"y":2778580.5761999991}},{"attributes":{"OBJECTID":6691,"LANDMARKID":"6300000003310","LANDMARKCO":"510","LANDMARKNA":"士林高爾夫練習場","LANDMARKAD":"6300012","ADDRESS":"台北市北投區州美街2號","TEL":"02-28385678","COUNTYNAME":"台北市","TOWNNAME":"北投區","MARKTYPE":"995","Class":"5"},"geometry":{"x":301584.16860000044,"y":2776791.3399}},{"attributes":{"OBJECTID":6692,"LANDMARKID":"6300000003137","LANDMARKCO":"505","LANDMARKNA":"台北海洋館(停)","LANDMARKAD":"6300012","ADDRESS":"台北市士林區基河路128號","TEL":" ","COUNTYNAME":"台北市","TOWNNAME":"北投區","MARKTYPE":"995","Class":"5"},"geometry":{"x":303789.37390000001,"y":2781192.5792999994}},{"attributes":{"OBJECTID":6693,"LANDMARKID":"6300000003102","LANDMARKCO":"410","LANDMARKNA":"關渡宮","LANDMARKAD":"6300012","ADDRESS":"台北市北投區","TEL":" ","COUNTYNAME":"台北市","TOWNNAME":"北投區","MARKTYPE":"994","Class":"4"},"geometry":{"x":296791.35730000027,"y":2778939.3628000002}},{"attributes":{"OBJECTID":6694,"LANDMARKID":"6300000002442","LANDMARKCO":"405","LANDMARKNA":"中油加油站-延平北路站(中油直營)","LANDMARKAD":"6300011","ADDRESS":"台北市士林區延平北路六段477號","TEL":"02-28168375","COUNTYNAME":"台北市","TOWNNAME":"士林區","MARKTYPE":"994","Class":"4"},"geometry":{"x":300330.7379999999,"y":2776105.3043000009}},{"attributes":{"OBJECTID":6695,"LANDMARKID":"6300000002443","LANDMARKCO":"405","LANDMARKNA":"中油加油站-陽明山站","LANDMARKAD":"6300011","ADDRESS":"台北市士林區陽明山格致路3號","TEL":"02-28616052","COUNTYNAME":"台北市","TOWNNAME":"士林區","MARKTYPE":"994","Class":"4"},"geometry":{"x":305055.87679999974,"y":2780938.3050999995}},{"attributes":{"OBJECTID":6696,"LANDMARKID":"6300000002444","LANDMARKCO":"405","LANDMARKNA":"中油加油站-文林路站(刷卡自助)(中油直營)","LANDMARKAD":"6300011","ADDRESS":"台北市士林區文林路100號","TEL":"02-28817934","COUNTYNAME":"台北市","TOWNNAME":"士林區","MARKTYPE":"994","Class":"4"},"geometry":{"x":303069.11209999956,"y":2775572.5108000003}},{"attributes":{"OBJECTID":6697,"LANDMARKID":"6300000002445","LANDMARKCO":"405","LANDMARKNA":"中油加油站-社子站(中油直營)","LANDMARKAD":"6300011","ADDRESS":"台北市士林區重慶北路四段198號","TEL":"02-28122647","COUNTYNAME":"台北市","TOWNNAME":"士林區","MARKTYPE":"994","Class":"4"},"geometry":{"x":301621.61170000024,"y":2775300.9026999995}},{"attributes":{"OBJECTID":6698,"LANDMARKID":"6300000002446","LANDMARKCO":"405","LANDMARKNA":"中油加油站-福林站(刷卡自助)(中油直營)","LANDMARKAD":"6300011","ADDRESS":"台北市士林區中山北路五段465號","TEL":"02-28812420","COUNTYNAME":"台北市","TOWNNAME":"士林區","MARKTYPE":"994","Class":"4"},"geometry":{"x":303202.72479999997,"y":2776084.0088}},{"attributes":{"OBJECTID":6699,"LANDMARKID":"6300000002276","LANDMARKCO":"402","LANDMARKNA":"My Phone台灣大哥大-聯華世訊股份有限公司","LANDMARKAD":"6300011","ADDRESS":"台北市士林區承德路四段62號","TEL":"(02)28831919","COUNTYNAME":"台北市","TOWNNAME":"士林區","MARKTYPE":"994","Class":"4"},"geometry":{"x":302727.50260000024,"y":2774931.8175000008}},{"attributes":{"OBJECTID":6700,"LANDMARKID":"6300000002277","LANDMARKCO":"402","LANDMARKNA":"My Phone台灣大哥大-士林\u2500德行東(皇家)","LANDMARKAD":"6300011","ADDRESS":"台北市士林區德行東路211號","TEL":"02-28386988","COUNTYNAME":"台北市","TOWNNAME":"士林區","MARKTYPE":"994","Class":"4"},"geometry":{"x":303710.41110000014,"y":2777986.2064999994}},{"attributes":{"OBJECTID":6701,"LANDMARKID":"6300000002278","LANDMARKCO":"402","LANDMARKNA":"My Phone台灣大哥大-台北天母直營服務中心","LANDMARKAD":"6300011","ADDRESS":"台北市士林區天母西路11號","TEL":"0809-000-166","COUNTYNAME":"台北市","TOWNNAME":"士林區","MARKTYPE":"994","Class":"4"},"geometry":{"x":303311.79399999976,"y":2779006.6607000008}},{"attributes":{"OBJECTID":6702,"LANDMARKID":"6300000002279","LANDMARKCO":"402","LANDMARKNA":"My Phone台灣大哥大-台北文林直營服務中心","LANDMARKAD":"6300011","ADDRESS":"台北市士林區文林路678號","TEL":"0809-000-166","COUNTYNAME":"台北市","TOWNNAME":"士林區","MARKTYPE":"994","Class":"4"},"geometry":{"x":302693.53100000042,"y":2777092.9166000001}},{"attributes":{"OBJECTID":6703,"LANDMARKID":"6300000002280","LANDMARKCO":"402","LANDMARKNA":"My Phone台灣大哥大-社子－延平北","LANDMARKAD":"6300011","ADDRESS":"台北市士林區延平北路五段204號","TEL":"02-28133311","COUNTYNAME":"台北市","TOWNNAME":"士林區","MARKTYPE":"994","Class":"4"},"geometry":{"x":301459.17030000035,"y":2775149.3178000003}},{"attributes":{"OBJECTID":6704,"LANDMARKID":"6300000002281","LANDMARKCO":"402","LANDMARKNA":"亞太行動寬頻電信-士林文林加盟服務中心","LANDMARKAD":"6300011","ADDRESS":"台北市士林區文林路178號","TEL":"02-28811511","COUNTYNAME":"台北市","TOWNNAME":"士林區","MARKTYPE":"994","Class":"4"},"geometry":{"x":303161.28940000013,"y":2775800.2043999992}},{"attributes":{"OBJECTID":6705,"LANDMARKID":"6300000002282","LANDMARKCO":"402","LANDMARKNA":"亞太行動寬頻電信-社子延平加盟服務中心","LANDMARKAD":"6300011","ADDRESS":"台北市士林區延平北路五段326號","TEL":"02-28150080","COUNTYNAME":"台北市","TOWNNAME":"士林區","MARKTYPE":"994","Class":"4"},"geometry":{"x":301394.12700000033,"y":2775445.5588000007}},{"attributes":{"OBJECTID":6706,"LANDMARKID":"6300000002283","LANDMARKCO":"402","LANDMARKNA":"亞太行動寬頻電信-士林福國加盟服務中心","LANDMARKAD":"6300011","ADDRESS":"台北市士林區福國路95號","TEL":"02-28313212","COUNTYNAME":"台北市","TOWNNAME":"士林區","MARKTYPE":"994","Class":"4"},"geometry":{"x":302663.6007000003,"y":2777109.9519999996}},{"attributes":{"OBJECTID":6707,"LANDMARKID":"6300000002284","LANDMARKCO":"402","LANDMARKNA":"亞太行動寬頻電信-台北市","LANDMARKAD":"6300011","ADDRESS":"台北市士林區中正路249-1號","TEL":" ","COUNTYNAME":"台北市","TOWNNAME":"士林區","MARKTYPE":"994","Class":"4"},"geometry":{"x":302978.20739999972,"y":2776412.8715000004}},{"attributes":{"OBJECTID":6708,"LANDMARKID":"6300000002099","LANDMARKCO":"401","LANDMARKNA":"財團法人新光吳火獅紀念醫院","LANDMARKAD":"6300011","ADDRESS":"台北市士林區文昌路95號","TEL":"02-28332211","COUNTYNAME":"台北市","TOWNNAME":"士林區","MARKTYPE":"994","Class":"4"},"geometry":{"x":302481.78369999956,"y":2776542.6629000008}},{"attributes":{"OBJECTID":6709,"LANDMARKID":"6300000002100","LANDMARKCO":"401","LANDMARKNA":"台北市立聯合醫院-陽明院區(陽明醫院)","LANDMARKAD":"6300011","ADDRESS":"台北市士林區雨聲街105號","TEL":"02-28353456","COUNTYNAME":"台北市","TOWNNAME":"士林區","MARKTYPE":"994","Class":"4"},"geometry":{"x":303597.39809999987,"y":2777533.5330999997}},{"attributes":{"OBJECTID":6710,"LANDMARKID":"6300000003306","LANDMARKCO":"508","LANDMARKNA":"馬槽溫泉","LANDMARKAD":"6300011","ADDRESS":"台北市士林區","TEL":" ","COUNTYNAME":"台北市","TOWNNAME":"士林區","MARKTYPE":"995","Class":"5"},"geometry":{"x":306564.46980000008,"y":2785299.0089999996}},{"attributes":{"OBJECTID":6711,"LANDMARKID":"6300000003360","LANDMARKCO":"511","LANDMARKNA":"士林夜市","LANDMARKAD":"6300011","ADDRESS":"台北市士林區基河路捷運劍潭站對面","TEL":" ","COUNTYNAME":"台北市","TOWNNAME":"士林區","MARKTYPE":"995","Class":"5"},"geometry":{"x":303005.60879999958,"y":2775485.4839999992}},{"attributes":{"OBJECTID":6712,"LANDMARKID":"6300000000821","LANDMARKCO":"205","LANDMARKNA":"國立故宮博物院","LANDMARKAD":"6300011","ADDRESS":"台北市士林區至善路二段221號","TEL":"02-28812021","COUNTYNAME":"台北市","TOWNNAME":"士林區","MARKTYPE":"992","Class":"2"},"geometry":{"x":305422.6978000002,"y":2777006.5694999993}},{"attributes":{"OBJECTID":6713,"LANDMARKID":"6300000003166","LANDMARKCO":"507","LANDMARKNA":"芝山岩遺址","LANDMARKAD":"6300011","ADDRESS":"台北市士林區芝山岩小山","TEL":" ","COUNTYNAME":"台北市","TOWNNAME":"士林區","MARKTYPE":"995","Class":"5"},"geometry":{"x":303491.40689999983,"y":2777256.2060000002}},{"attributes":{"OBJECTID":6714,"LANDMARKID":"6300000003167","LANDMARKCO":"507","LANDMARKNA":"士林慈諴宮","LANDMARKAD":"6300011","ADDRESS":"台北市士林區大南路84號","TEL":" ","COUNTYNAME":"台北市","TOWNNAME":"士林區","MARKTYPE":"995","Class":"5"},"geometry":{"x":302920.72580000013,"y":2775829.4845000003}},{"attributes":{"OBJECTID":6715,"LANDMARKID":"6300000003168","LANDMARKCO":"507","LANDMARKNA":"芝山岩惠濟宮","LANDMARKAD":"6300011","ADDRESS":"台北市士林區至誠路一段326巷26號","TEL":" ","COUNTYNAME":"台北市","TOWNNAME":"士林區","MARKTYPE":"995","Class":"5"},"geometry":{"x":303514.34910000023,"y":2777300.5396999996}},{"attributes":{"OBJECTID":6716,"LANDMARKID":"6300000003169","LANDMARKCO":"507","LANDMARKNA":"芝山岩隘門","LANDMARKAD":"6300011","ADDRESS":"台北市士林區至誠路一段326巷26號","TEL":" ","COUNTYNAME":"台北市","TOWNNAME":"士林區","MARKTYPE":"995","Class":"5"},"geometry":{"x":303444.85680000018,"y":2777271.9605}},{"attributes":{"OBJECTID":6717,"LANDMARKID":"6300000003170","LANDMARKCO":"507","LANDMARKNA":"士林公有市場","LANDMARKAD":"6300011","ADDRESS":"台北市士林區大南路89號","TEL":" ","COUNTYNAME":"台北市","TOWNNAME":"士林區","MARKTYPE":"995","Class":"5"},"geometry":{"x":302874.00970000029,"y":2775769.5587000009}},{"attributes":{"OBJECTID":6718,"LANDMARKID":"6300000003171","LANDMARKCO":"507","LANDMARKNA":"草山御賓館","LANDMARKAD":"6300011","ADDRESS":"台北市士林區新園路1號","TEL":" ","COUNTYNAME":"台北市","TOWNNAME":"士林區","MARKTYPE":"995","Class":"5"},"geometry":{"x":305539.60419999994,"y":2782611.7673000004}},{"attributes":{"OBJECTID":6719,"LANDMARKID":"6300000003172","LANDMARKCO":"507","LANDMARKNA":"士林官邸","LANDMARKAD":"6300011","ADDRESS":"台北市士林區","TEL":" ","COUNTYNAME":"台北市","TOWNNAME":"士林區","MARKTYPE":"995","Class":"5"},"geometry":{"x":303397.4907999998,"y":2776246.7266000006}},{"attributes":{"OBJECTID":6720,"LANDMARKID":"6300000003162","LANDMARKCO":"506","LANDMARKNA":"天母區果園","LANDMARKAD":"6300011","ADDRESS":"台北市士林區芝山里德行東路338巷28號","TEL":"02-28327759","COUNTYNAME":"台北市","TOWNNAME":"士林區","MARKTYPE":"995","Class":"5"},"geometry":{"x":304586.02749999985,"y":2777810.9978}},{"attributes":{"OBJECTID":6721,"LANDMARKID":"6300000003163","LANDMARKCO":"506","LANDMARKNA":"福田園教育休閒農場","LANDMARKAD":"6300011","ADDRESS":"台北市士林區菁山路131巷18號","TEL":"02-28622145","COUNTYNAME":"台北市","TOWNNAME":"士林區","MARKTYPE":"995","Class":"5"},"geometry":{"x":306913.92389999982,"y":2781297.7971000001}},{"attributes":{"OBJECTID":6722,"LANDMARKID":"6300000003164","LANDMARKCO":"507","LANDMARKNA":"潘宮籌墓","LANDMARKAD":"6300011","ADDRESS":"台北市士林區芝蘭段二小段595地號","TEL":" ","COUNTYNAME":"台北市","TOWNNAME":"士林區","MARKTYPE":"995","Class":"5"},"geometry":{"x":304643.16089999955,"y":2777940.8462000005}},{"attributes":{"OBJECTID":6723,"LANDMARKID":"6300000003165","LANDMARKCO":"507","LANDMARKNA":"蔣中正宋美齡故居","LANDMARKAD":"6300011","ADDRESS":"台北市士林區福林路60號","TEL":" ","COUNTYNAME":"台北市","TOWNNAME":"士林區","MARKTYPE":"995","Class":"5"},"geometry":{"x":303716.89529999997,"y":2776554.5092999991}},{"attributes":{"OBJECTID":6724,"LANDMARKID":"6300000002975","LANDMARKCO":"408","LANDMARKNA":"郵局-士林郵局","LANDMARKAD":"6300011","ADDRESS":"台北市士林區文林路162號","TEL":"(02)2881-8743","COUNTYNAME":"台北市","TOWNNAME":"士林區","MARKTYPE":"994","Class":"4"},"geometry":{"x":303143.1297000004,"y":2775759.2796}},{"attributes":{"OBJECTID":6725,"LANDMARKID":"6300000002976","LANDMARKCO":"408","LANDMARKNA":"郵局-士林社子郵局","LANDMARKAD":"6300011","ADDRESS":"台北市士林區延平北路5段150號","TEL":"(02)2812-2884","COUNTYNAME":"台北市","TOWNNAME":"士林區","MARKTYPE":"994","Class":"4"},"geometry":{"x":301487.78430000041,"y":2775004.2184999995}},{"attributes":{"OBJECTID":6726,"LANDMARKID":"6300000002977","LANDMARKCO":"408","LANDMARKNA":"郵局-士林天母郵局","LANDMARKAD":"6300011","ADDRESS":"台北市士林區中山北路7段130號","TEL":"(02)2871-8271","COUNTYNAME":"台北市","TOWNNAME":"士林區","MARKTYPE":"994","Class":"4"},"geometry":{"x":303658.16160000023,"y":2779461.3926999997}},{"attributes":{"OBJECTID":6727,"LANDMARKID":"6300000002978","LANDMARKCO":"408","LANDMARKNA":"郵局-士林中正路郵局","LANDMARKAD":"6300011","ADDRESS":"台北市士林區中正路420號","TEL":"(02)8866-6045","COUNTYNAME":"台北市","TOWNNAME":"士林區","MARKTYPE":"994","Class":"4"},"geometry":{"x":302412.74399999995,"y":2776224.9375999998}},{"attributes":{"OBJECTID":6728,"LANDMARKID":"6300000002979","LANDMARKCO":"408","LANDMARKNA":"郵局-士林後港郵局","LANDMARKAD":"6300011","ADDRESS":"台北市士林區福港街149巷2號","TEL":"(02)2883-7486","COUNTYNAME":"台北市","TOWNNAME":"士林區","MARKTYPE":"994","Class":"4"},"geometry":{"x":302281.54580000043,"y":2775557.3761999998}},{"attributes":{"OBJECTID":6729,"LANDMARKID":"6300000002980","LANDMARKCO":"408","LANDMARKNA":"郵局-士林蘭雅郵局","LANDMARKAD":"6300011","ADDRESS":"台北市士林區忠誠路1段52號","TEL":"(02)2832-6924","COUNTYNAME":"台北市","TOWNNAME":"士林區","MARKTYPE":"994","Class":"4"},"geometry":{"x":303137.79920000024,"y":2777469.2766999993}},{"attributes":{"OBJECTID":6730,"LANDMARKID":"6300000002981","LANDMARKCO":"408","LANDMARKNA":"郵局-東吳大學郵局","LANDMARKAD":"6300011","ADDRESS":"台北市士林區臨溪路70號(東吳大學內)","TEL":"(02)2881-5624","COUNTYNAME":"台北市","TOWNNAME":"士林區","MARKTYPE":"994","Class":"4"},"geometry":{"x":305047.00140000042,"y":2776349.4748}},{"attributes":{"OBJECTID":6731,"LANDMARKID":"6300000002982","LANDMARKCO":"408","LANDMARKNA":"郵局-士林芝山郵局","LANDMARKAD":"6300011","ADDRESS":"台北市士林區德行東路252號","TEL":"(02)2836-3191","COUNTYNAME":"台北市","TOWNNAME":"士林區","MARKTYPE":"994","Class":"4"},"geometry":{"x":303899.57189999986,"y":2778027.5670999996}},{"attributes":{"OBJECTID":6732,"LANDMARKID":"6300000002983","LANDMARKCO":"408","LANDMARKNA":"郵局-士林法院郵局","LANDMARKAD":"6300011","ADDRESS":"台北市士林區士東路190號(士林地方法院內)","TEL":"(02)2836-6049","COUNTYNAME":"台北市","TOWNNAME":"士林區","MARKTYPE":"994","Class":"4"},"geometry":{"x":303744.2779000001,"y":2778260.0723000001}},{"attributes":{"OBJECTID":6733,"LANDMARKID":"6300000002984","LANDMARKCO":"408","LANDMARKNA":"郵局-士林外雙溪郵局","LANDMARKAD":"6300011","ADDRESS":"台北市士林區明溪街15號","TEL":"(02)2841-1174","COUNTYNAME":"台北市","TOWNNAME":"士林區","MARKTYPE":"994","Class":"4"},"geometry":{"x":307000.68039999995,"y":2777750.4658000004}},{"attributes":{"OBJECTID":6734,"LANDMARKID":"6300000002985","LANDMARKCO":"408","LANDMARKNA":"郵局-士林劍潭郵局","LANDMARKAD":"6300011","ADDRESS":"台北市士林區基河路14號","TEL":"(02)2885-9559","COUNTYNAME":"台北市","TOWNNAME":"士林區","MARKTYPE":"994","Class":"4"},"geometry":{"x":302853.50970000029,"y":2774933.3340000007}},{"attributes":{"OBJECTID":6735,"LANDMARKID":"6300000002986","LANDMARKCO":"408","LANDMARKNA":"郵局-文化大學郵局","LANDMARKAD":"6300011","ADDRESS":"台北市士林區華岡路55號","TEL":"(02)2861-5880","COUNTYNAME":"台北市","TOWNNAME":"士林區","MARKTYPE":"994","Class":"4"},"geometry":{"x":304489.62600000016,"y":2781118.3936999999}},{"attributes":{"OBJECTID":6736,"LANDMARKID":"6300000002987","LANDMARKCO":"408","LANDMARKNA":"郵局-士林社新里郵局","LANDMARKAD":"6300011","ADDRESS":"台北市士林區延平北路6段197號","TEL":"(02) 2811-9944","COUNTYNAME":"台北市","TOWNNAME":"士林區","MARKTYPE":"994","Class":"4"},"geometry":{"x":301022.19979999959,"y":2775771.9047999997}},{"attributes":{"OBJECTID":6737,"LANDMARKID":"6300000002988","LANDMARKCO":"408","LANDMARKNA":"郵局-士林名山里郵局","LANDMARKAD":"6300011","ADDRESS":"台北市士林區至誠路2段70號","TEL":"(02) 2838-6703","COUNTYNAME":"台北市","TOWNNAME":"士林區","MARKTYPE":"994","Class":"4"},"geometry":{"x":303282.75090000033,"y":2777149.8071999997}},{"attributes":{"OBJECTID":6738,"LANDMARKID":"6300000002989","LANDMARKCO":"408","LANDMARKNA":"郵局-故宮郵局","LANDMARKAD":"6300011","ADDRESS":"台北市士林區外雙溪(故宮博物院)","TEL":"(02)2881-8410","COUNTYNAME":"台北市","TOWNNAME":"士林區","MARKTYPE":"994","Class":"4"},"geometry":{"x":305337.57569999993,"y":2777189.4941000007}},{"attributes":{"OBJECTID":6739,"LANDMARKID":"6300000003096","LANDMARKCO":"409","LANDMARKNA":"台北市士林區農會","LANDMARKAD":"6300011","ADDRESS":"台北市士林區文林路342號","TEL":"02-28828959","COUNTYNAME":"台北市","TOWNNAME":"士林區","MARKTYPE":"994","Class":"4"},"geometry":{"x":302996.01850000024,"y":2776219.9963000007}},{"attributes":{"OBJECTID":6740,"LANDMARKID":"6300000002389","LANDMARKCO":"404","LANDMARKNA":"台北自來水事業處陽明營業分處","LANDMARKAD":"6300011","ADDRESS":"臺北市中山北路5段82號之一","TEL":"02-28882123","COUNTYNAME":"台北市","TOWNNAME":"士林區","MARKTYPE":"994","Class":"4"},"geometry":{"x":303052.82129999995,"y":2775186.0314000007}},{"attributes":{"OBJECTID":6741,"LANDMARKID":"6300000002390","LANDMARKCO":"404","LANDMARKNA":"台北自來水事業處陽明營業分處","LANDMARKAD":"6300011","ADDRESS":"台北市中山北路五段82號之1","TEL":" ","COUNTYNAME":"台北市","TOWNNAME":"士林區","MARKTYPE":"994","Class":"4"},"geometry":{"x":303060.17289999966,"y":2775193.7394999992}},{"attributes":{"OBJECTID":6742,"LANDMARKID":"6300000002388","LANDMARKCO":"403","LANDMARKNA":"台灣電力公司北北區營業處","LANDMARKAD":"6300011","ADDRESS":"台北市士林區中山北路五段380號","TEL":" ","COUNTYNAME":"台北市","TOWNNAME":"士林區","MARKTYPE":"994","Class":"4"},"geometry":{"x":303228.46769999992,"y":2775930.9130000006}},{"attributes":{"OBJECTID":6743,"LANDMARKID":"6300000002604","LANDMARKCO":"406","LANDMARKNA":"王秀杞石雕公園","LANDMARKAD":"6300011","ADDRESS":"台北市士林區","TEL":" ","COUNTYNAME":"台北市","TOWNNAME":"士林區","MARKTYPE":"994","Class":"4"},"geometry":{"x":306218.74810000043,"y":2780348.3944000006}},{"attributes":{"OBJECTID":6744,"LANDMARKID":"6300000002605","LANDMARKCO":"406","LANDMARKNA":"天母公園","LANDMARKAD":"6300011","ADDRESS":"台北市士林區","TEL":" ","COUNTYNAME":"台北市","TOWNNAME":"士林區","MARKTYPE":"994","Class":"4"},"geometry":{"x":303545.54700000025,"y":2779838.4272000007}},{"attributes":{"OBJECTID":6745,"LANDMARKID":"6300000002606","LANDMARKCO":"406","LANDMARKNA":"帕米爾公園","LANDMARKAD":"6300011","ADDRESS":"台北市士林區","TEL":" ","COUNTYNAME":"台北市","TOWNNAME":"士林區","MARKTYPE":"994","Class":"4"},"geometry":{"x":309806.85280000046,"y":2779460.8940999992}},{"attributes":{"OBJECTID":6746,"LANDMARKID":"6300000002607","LANDMARKCO":"406","LANDMARKNA":"天山公園","LANDMARKAD":"6300011","ADDRESS":"台北市士林區","TEL":" ","COUNTYNAME":"台北市","TOWNNAME":"士林區","MARKTYPE":"994","Class":"4"},"geometry":{"x":303919.1995000001,"y":2779049.1063000001}},{"attributes":{"OBJECTID":6747,"LANDMARKID":"6300000002608","LANDMARKCO":"406","LANDMARKNA":"天福公園","LANDMARKAD":"6300011","ADDRESS":"台北市士林區","TEL":" ","COUNTYNAME":"台北市","TOWNNAME":"士林區","MARKTYPE":"994","Class":"4"},"geometry":{"x":303700.69859999977,"y":2778807.5927000009}},{"attributes":{"OBJECTID":6748,"LANDMARKID":"6300000002609","LANDMARKCO":"406","LANDMARKNA":"天母運動公園","LANDMARKAD":"6300011","ADDRESS":"台北市士林區忠誠路二段77號","TEL":" ","COUNTYNAME":"台北市","TOWNNAME":"士林區","MARKTYPE":"994","Class":"4"},"geometry":{"x":303907.03210000042,"y":2778568.0591000002}},{"attributes":{"OBJECTID":6749,"LANDMARKID":"6300000002610","LANDMARKCO":"406","LANDMARKNA":"蘭興二號公園","LANDMARKAD":"6300011","ADDRESS":"台北市士林區","TEL":" ","COUNTYNAME":"台北市","TOWNNAME":"士林區","MARKTYPE":"994","Class":"4"},"geometry":{"x":303058.19099999964,"y":2778378.8803000003}},{"attributes":{"OBJECTID":6750,"LANDMARKID":"6300000002611","LANDMARKCO":"406","LANDMARKNA":"蘭嶼公園","LANDMARKAD":"6300011","ADDRESS":"台北市士林區","TEL":" ","COUNTYNAME":"台北市","TOWNNAME":"士林區","MARKTYPE":"994","Class":"4"},"geometry":{"x":303018.40319999959,"y":2778240.8375000004}},{"attributes":{"OBJECTID":6751,"LANDMARKID":"6300000002612","LANDMARKCO":"406","LANDMARKNA":"蘭雅公園","LANDMARKAD":"6300011","ADDRESS":"台北市士林區","TEL":" ","COUNTYNAME":"台北市","TOWNNAME":"士林區","MARKTYPE":"994","Class":"4"},"geometry":{"x":303444.79789999966,"y":2778037.6824999992}},{"attributes":{"OBJECTID":6752,"LANDMARKID":"6300000002613","LANDMARKCO":"406","LANDMARKNA":"忠誠公園","LANDMARKAD":"6300011","ADDRESS":"台北市士林區","TEL":" ","COUNTYNAME":"台北市","TOWNNAME":"士林區","MARKTYPE":"994","Class":"4"},"geometry":{"x":303034.54430000018,"y":2777339.3763999995}},{"attributes":{"OBJECTID":6753,"LANDMARKID":"6300000002614","LANDMARKCO":"406","LANDMARKNA":"芝山公園","LANDMARKAD":"6300011","ADDRESS":"台北市士林區","TEL":" ","COUNTYNAME":"台北市","TOWNNAME":"士林區","MARKTYPE":"994","Class":"4"},"geometry":{"x":303578.92960000038,"y":2777289.1864}},{"attributes":{"OBJECTID":6754,"LANDMARKID":"6300000002615","LANDMARKCO":"406","LANDMARKNA":"德仁公園","LANDMARKAD":"6300011","ADDRESS":"台北市士林區","TEL":" ","COUNTYNAME":"台北市","TOWNNAME":"士林區","MARKTYPE":"994","Class":"4"},"geometry":{"x":302598.56039999984,"y":2777242.0474999994}},{"attributes":{"OBJECTID":6755,"LANDMARKID":"6300000002616","LANDMARKCO":"406","LANDMARKNA":"至誠公園","LANDMARKAD":"6300011","ADDRESS":"台北市士林區","TEL":" ","COUNTYNAME":"台北市","TOWNNAME":"士林區","MARKTYPE":"994","Class":"4"},"geometry":{"x":304083.89309999999,"y":2777045.2492999993}},{"attributes":{"OBJECTID":6756,"LANDMARKID":"6300000002617","LANDMARKCO":"406","LANDMARKNA":"士林名山公園","LANDMARKAD":"6300011","ADDRESS":"台北市士林區","TEL":" ","COUNTYNAME":"台北市","TOWNNAME":"士林區","MARKTYPE":"994","Class":"4"},"geometry":{"x":303188.99569999985,"y":2777010.5122999996}},{"attributes":{"OBJECTID":6757,"LANDMARKID":"6300000002618","LANDMARKCO":"406","LANDMARKNA":"德華公園","LANDMARKAD":"6300011","ADDRESS":"台北市士林區","TEL":" ","COUNTYNAME":"台北市","TOWNNAME":"士林區","MARKTYPE":"994","Class":"4"},"geometry":{"x":302773.22130000032,"y":2777002.8306000009}},{"attributes":{"OBJECTID":6758,"LANDMARKID":"6300000002619","LANDMARKCO":"406","LANDMARKNA":"至善公園","LANDMARKAD":"6300011","ADDRESS":"台北市士林區","TEL":" ","COUNTYNAME":"台北市","TOWNNAME":"士林區","MARKTYPE":"994","Class":"4"},"geometry":{"x":304268.6481999997,"y":2776818.8179000001}},{"attributes":{"OBJECTID":6759,"LANDMARKID":"6300000002620","LANDMARKCO":"406","LANDMARKNA":"雙溪公園","LANDMARKAD":"6300011","ADDRESS":"台北市士林區","TEL":" ","COUNTYNAME":"台北市","TOWNNAME":"士林區","MARKTYPE":"994","Class":"4"},"geometry":{"x":304063.80810000002,"y":2776784.3132000007}},{"attributes":{"OBJECTID":6760,"LANDMARKID":"6300000002621","LANDMARKCO":"406","LANDMARKNA":"美崙公園","LANDMARKAD":"6300011","ADDRESS":"台北市士林區","TEL":" ","COUNTYNAME":"台北市","TOWNNAME":"士林區","MARKTYPE":"994","Class":"4"},"geometry":{"x":302179.61670000013,"y":2776730.4312999994}},{"attributes":{"OBJECTID":6761,"LANDMARKID":"6300000002622","LANDMARKCO":"406","LANDMARKNA":"志成公園","LANDMARKAD":"6300011","ADDRESS":"台北市士林區","TEL":" ","COUNTYNAME":"台北市","TOWNNAME":"士林區","MARKTYPE":"994","Class":"4"},"geometry":{"x":303577.58980000019,"y":2776605.1404999997}},{"attributes":{"OBJECTID":6762,"LANDMARKID":"6300000002623","LANDMARKCO":"406","LANDMARKNA":"榮華公園","LANDMARKAD":"6300011","ADDRESS":"台北市士林區","TEL":" ","COUNTYNAME":"台北市","TOWNNAME":"士林區","MARKTYPE":"994","Class":"4"},"geometry":{"x":302698.54449999984,"y":2776570.1989999991}},{"attributes":{"OBJECTID":6763,"LANDMARKID":"6300000002624","LANDMARKCO":"406","LANDMARKNA":"福林公園","LANDMARKAD":"6300011","ADDRESS":"台北市士林區","TEL":" ","COUNTYNAME":"台北市","TOWNNAME":"士林區","MARKTYPE":"994","Class":"4"},"geometry":{"x":303473.17669999972,"y":2776424.2027000003}},{"attributes":{"OBJECTID":6764,"LANDMARKID":"6300000002625","LANDMARKCO":"406","LANDMARKNA":"河基十五號河濱公園","LANDMARKAD":"6300011","ADDRESS":"台北市士林區","TEL":" ","COUNTYNAME":"台北市","TOWNNAME":"士林區","MARKTYPE":"994","Class":"4"},"geometry":{"x":301538.36160000041,"y":2776075.0694999993}},{"attributes":{"OBJECTID":6765,"LANDMARKID":"6300000002626","LANDMARKCO":"406","LANDMARKNA":"社子公園","LANDMARKAD":"6300011","ADDRESS":"台北市士林區","TEL":" ","COUNTYNAME":"台北市","TOWNNAME":"士林區","MARKTYPE":"994","Class":"4"},"geometry":{"x":301083.82579999976,"y":2775931.0615999997}},{"attributes":{"OBJECTID":6766,"LANDMARKID":"6300000002627","LANDMARKCO":"406","LANDMARKNA":"基河公園","LANDMARKAD":"6300011","ADDRESS":"台北市士林區","TEL":" ","COUNTYNAME":"台北市","TOWNNAME":"士林區","MARKTYPE":"994","Class":"4"},"geometry":{"x":302656.45579999965,"y":2775816.6547999997}},{"attributes":{"OBJECTID":6767,"LANDMARKID":"6300000002628","LANDMARKCO":"406","LANDMARKNA":"福中公園","LANDMARKAD":"6300011","ADDRESS":"台北市士林區","TEL":" ","COUNTYNAME":"台北市","TOWNNAME":"士林區","MARKTYPE":"994","Class":"4"},"geometry":{"x":302341.24880000018,"y":2775617.1392000001}},{"attributes":{"OBJECTID":6768,"LANDMARKID":"6300000002629","LANDMARKCO":"406","LANDMARKNA":"百齡公園","LANDMARKAD":"6300011","ADDRESS":"台北市士林區","TEL":" ","COUNTYNAME":"台北市","TOWNNAME":"士林區","MARKTYPE":"994","Class":"4"},"geometry":{"x":301478.36459999997,"y":2775590.4691000003}},{"attributes":{"OBJECTID":6769,"LANDMARKID":"6300000002630","LANDMARKCO":"406","LANDMARKNA":"前港公園","LANDMARKAD":"6300011","ADDRESS":"台北市士林區","TEL":" ","COUNTYNAME":"台北市","TOWNNAME":"士林區","MARKTYPE":"994","Class":"4"},"geometry":{"x":302465.96300000045,"y":2775422.7223000005}},{"attributes":{"OBJECTID":6770,"LANDMARKID":"6300000002631","LANDMARKCO":"406","LANDMARKNA":"葫蘆公園","LANDMARKAD":"6300011","ADDRESS":"台北市士林區","TEL":" ","COUNTYNAME":"台北市","TOWNNAME":"士林區","MARKTYPE":"994","Class":"4"},"geometry":{"x":301573.45969999954,"y":2775008.1106000002}},{"attributes":{"OBJECTID":6771,"LANDMARKID":"6300000002632","LANDMARKCO":"406","LANDMARKNA":"海光公園","LANDMARKAD":"6300011","ADDRESS":"台北市士林區","TEL":" ","COUNTYNAME":"台北市","TOWNNAME":"士林區","MARKTYPE":"994","Class":"4"},"geometry":{"x":301249.52819999959,"y":2774913.7335000001}},{"attributes":{"OBJECTID":6772,"LANDMARKID":"6300000002633","LANDMARKCO":"406","LANDMARKNA":"雙溪河濱公園","LANDMARKAD":"6300011","ADDRESS":"台北市士林區","TEL":" ","COUNTYNAME":"台北市","TOWNNAME":"士林區","MARKTYPE":"994","Class":"4"},"geometry":{"x":302974.39499999955,"y":2776928.9463}},{"attributes":{"OBJECTID":6773,"LANDMARKID":"6300000002909","LANDMARKCO":"407","LANDMARKNA":"誠品Eslite","LANDMARKAD":"6300011","ADDRESS":"台北市文林路338~340-1號1F","TEL":"02-8861-1827","COUNTYNAME":"台北市","TOWNNAME":"士林區","MARKTYPE":"994","Class":"4"},"geometry":{"x":303077.95139999967,"y":2776161.7688999996}},{"attributes":{"OBJECTID":6774,"LANDMARKID":"6300000002910","LANDMARKCO":"407","LANDMARKNA":"三商百貨","LANDMARKAD":"6300011","ADDRESS":"台北市士林區中正路323號","TEL":"02-28812636","COUNTYNAME":"台北市","TOWNNAME":"士林區","MARKTYPE":"994","Class":"4"},"geometry":{"x":302786.11789999995,"y":2776354.5719000008}},{"attributes":{"OBJECTID":6775,"LANDMARKID":"6300000002911","LANDMARKCO":"407","LANDMARKNA":"大葉高島屋","LANDMARKAD":"6300011","ADDRESS":"台北市士林區忠誠路二段55號","TEL":" ","COUNTYNAME":"台北市","TOWNNAME":"士林區","MARKTYPE":"994","Class":"4"},"geometry":{"x":303595.9935999997,"y":2778267.4068999998}},{"attributes":{"OBJECTID":6776,"LANDMARKID":"6300000002912","LANDMARKCO":"407","LANDMARKNA":"新光三越","LANDMARKAD":"6300011","ADDRESS":"台北市士林區天母東路68號","TEL":"2875-6000","COUNTYNAME":"台北市","TOWNNAME":"士林區","MARKTYPE":"994","Class":"4"},"geometry":{"x":303849.76510000043,"y":2778944.2497000005}},{"attributes":{"OBJECTID":6777,"LANDMARKID":"6300000002913","LANDMARKCO":"407","LANDMARKNA":"誠品Eslite","LANDMARKAD":"6300011","ADDRESS":"台北市忠誠路二段188號3F","TEL":"02-2873-0966","COUNTYNAME":"台北市","TOWNNAME":"士林區","MARKTYPE":"994","Class":"4"},"geometry":{"x":303817.93159999978,"y":2778773.6304000001}},{"attributes":{"OBJECTID":6778,"LANDMARKID":"6300000002437","LANDMARKCO":"405","LANDMARKNA":"台塑加油站-芝山站(台塑)","LANDMARKAD":"6300011","ADDRESS":"台北市士林區至誠路二段40號","TEL":"02-28320320","COUNTYNAME":"台北市","TOWNNAME":"士林區","MARKTYPE":"994","Class":"4"},"geometry":{"x":303329.24920000043,"y":2777170.5507999994}},{"attributes":{"OBJECTID":6779,"LANDMARKID":"6300000002438","LANDMARKCO":"405","LANDMARKNA":"全國加油站-洲美站站（台塑）","LANDMARKAD":"6300011","ADDRESS":"台北市士林區延平北路六段505號","TEL":"02-88113031","COUNTYNAME":"台北市","TOWNNAME":"士林區","MARKTYPE":"994","Class":"4"},"geometry":{"x":300257.78940000013,"y":2776185.5978999995}},{"attributes":{"OBJECTID":6780,"LANDMARKID":"6300000002439","LANDMARKCO":"405","LANDMARKNA":"全國加油站-台北交流道站（台塑）","LANDMARKAD":"6300011","ADDRESS":"台北市士林區重慶北路四段141號","TEL":"02-28118028","COUNTYNAME":"台北市","TOWNNAME":"士林區","MARKTYPE":"994","Class":"4"},"geometry":{"x":301652.82070000004,"y":2775046.0296999998}},{"attributes":{"OBJECTID":6781,"LANDMARKID":"6300000002440","LANDMARKCO":"405","LANDMARKNA":"西歐加油站-士林站（台塑）","LANDMARKAD":"6300011","ADDRESS":"台北市中山北路五段570號","TEL":"02-28812342","COUNTYNAME":"台北市","TOWNNAME":"士林區","MARKTYPE":"994","Class":"4"},"geometry":{"x":303282.90419999976,"y":2776469.6627999991}},{"attributes":{"OBJECTID":6782,"LANDMARKID":"6300000002441","LANDMARKCO":"405","LANDMARKNA":"西歐加油站-基河站（台塑）","LANDMARKAD":"6300011","ADDRESS":"台北市承德路四段200號","TEL":"02-28815335","COUNTYNAME":"台北市","TOWNNAME":"士林區","MARKTYPE":"994","Class":"4"},"geometry":{"x":302655.97389999963,"y":2775583.8964000009}},{"attributes":{"OBJECTID":6783,"LANDMARKID":"6300000002914","LANDMARKCO":"407","LANDMARKNA":"太平洋SOGO百貨-天母店","LANDMARKAD":"6300011","ADDRESS":"台北市中山北路六段77號","TEL":"(02)2834-5000","COUNTYNAME":"台北市","TOWNNAME":"士林區","MARKTYPE":"994","Class":"4"},"geometry":{"x":302879.07770000026,"y":2777368.5276999995}},{"attributes":{"OBJECTID":6784,"LANDMARKID":"6300000000004","LANDMARKCO":"101","LANDMARKNA":"國家安全局","LANDMARKAD":"6300011","ADDRESS":"台北市士林區仰德大道一段110號","TEL":"02-28811686","COUNTYNAME":"台北市","TOWNNAME":"士林區","MARKTYPE":"991","Class":"1"},"geometry":{"x":304070.92700000014,"y":2777810.0021000002}},{"attributes":{"OBJECTID":6785,"LANDMARKID":"6300000000005","LANDMARKCO":"101","LANDMARKNA":"台灣士林地方法院","LANDMARKAD":"6300011","ADDRESS":"台北市士林區士東路190號","TEL":"02-28312321","COUNTYNAME":"台北市","TOWNNAME":"士林區","MARKTYPE":"991","Class":"1"},"geometry":{"x":303744.65390000027,"y":2778260.3208000008}},{"attributes":{"OBJECTID":6786,"LANDMARKID":"6300000000006","LANDMARKCO":"101","LANDMARKNA":"台灣士林地方法院士林簡易庭","LANDMARKAD":"6300011","ADDRESS":"台北市士林區重慶北路四段2號","TEL":"02-28131289","COUNTYNAME":"台北市","TOWNNAME":"士林區","MARKTYPE":"991","Class":"1"},"geometry":{"x":301865.15060000028,"y":2774686.6620000005}},{"attributes":{"OBJECTID":6787,"LANDMARKID":"6300000000159","LANDMARKCO":"103","LANDMARKNA":"台北市監理處北區分處","LANDMARKAD":"6300011","ADDRESS":"台北市士林區承德路五段80號","TEL":"02-28314155","COUNTYNAME":"台北市","TOWNNAME":"士林區","MARKTYPE":"991","Class":"1"},"geometry":{"x":301867.54800000042,"y":2776357.8761}},{"attributes":{"OBJECTID":6788,"LANDMARKID":"6300000000165","LANDMARKCO":"104","LANDMARKNA":"台北市國稅局士林稽徵所","LANDMARKAD":"6300011","ADDRESS":"台北市士林區美崙街43號","TEL":"02-28315171","COUNTYNAME":"台北市","TOWNNAME":"士林區","MARKTYPE":"991","Class":"1"},"geometry":{"x":302720.79430000018,"y":2776626.3247999996}},{"attributes":{"OBJECTID":6789,"LANDMARKID":"6300000000003","LANDMARKCO":"101","LANDMARKNA":"國立故宮博物院","LANDMARKAD":"6300011","ADDRESS":"台北市士林區至善路二段221號","TEL":"02-28812021","COUNTYNAME":"台北市","TOWNNAME":"士林區","MARKTYPE":"991","Class":"1"},"geometry":{"x":305422.6978000002,"y":2777006.5735999998}},{"attributes":{"OBJECTID":6790,"LANDMARKID":"6300000000189","LANDMARKCO":"105","LANDMARKNA":"台北市士林地政事務所","LANDMARKAD":"6300011","ADDRESS":"台北市士林區中正路439號5-7樓","TEL":"02-28812483","COUNTYNAME":"台北市","TOWNNAME":"士林區","MARKTYPE":"991","Class":"1"},"geometry":{"x":302420.15880000032,"y":2776162.159}},{"attributes":{"OBJECTID":6791,"LANDMARKID":"6300000000190","LANDMARKCO":"106","LANDMARKNA":"台北市士林區戶政事務所","LANDMARKAD":"6300011","ADDRESS":"台北市士林區福德里24鄰中正路439號3樓","TEL":"02-28803252","COUNTYNAME":"台北市","TOWNNAME":"士林區","MARKTYPE":"991","Class":"1"},"geometry":{"x":302420.15880000032,"y":2776162.159}},{"attributes":{"OBJECTID":6792,"LANDMARKID":"6300000000346","LANDMARKCO":"107","LANDMARKNA":"台北市政府警察局士林分局","LANDMARKAD":"6300011","ADDRESS":"台北市士林區仁勇里大東路80號","TEL":"02-28813856","COUNTYNAME":"台北市","TOWNNAME":"士林區","MARKTYPE":"991","Class":"1"},"geometry":{"x":303036.86870000046,"y":2775941.1934999991}},{"attributes":{"OBJECTID":6793,"LANDMARKID":"6300000000347","LANDMARKCO":"107","LANDMARKNA":"台北市政府警察局翠山派出所","LANDMARKAD":"6300011","ADDRESS":"台北市士林區臨溪里中社路一段56號","TEL":"02-28411423","COUNTYNAME":"台北市","TOWNNAME":"士林區","MARKTYPE":"991","Class":"1"},"geometry":{"x":306506.68400000036,"y":2777870.9462000001}},{"attributes":{"OBJECTID":6794,"LANDMARKID":"6300000000348","LANDMARKCO":"107","LANDMARKNA":"台北市政府警察局後港派出所","LANDMARKAD":"6300011","ADDRESS":"台北市士林區福中里福港街151號","TEL":"02-28829373","COUNTYNAME":"台北市","TOWNNAME":"士林區","MARKTYPE":"991","Class":"1"},"geometry":{"x":302256.52419999987,"y":2775559.9722000007}},{"attributes":{"OBJECTID":6795,"LANDMARKID":"6300000000349","LANDMARKCO":"107","LANDMARKNA":"台北市政府警察局山仔后派出所","LANDMARKAD":"6300011","ADDRESS":"台北市士林區陽明里格致路39號","TEL":"02-28611295","COUNTYNAME":"台北市","TOWNNAME":"士林區","MARKTYPE":"991","Class":"1"},"geometry":{"x":305088.58930000011,"y":2781094.4802999999}},{"attributes":{"OBJECTID":6796,"LANDMARKID":"6300000000350","LANDMARKCO":"107","LANDMARKNA":"台北市政府警察局永福派出所","LANDMARKAD":"6300011","ADDRESS":"台北市士林區永福里仰德大道三段49號","TEL":"02-28616353","COUNTYNAME":"台北市","TOWNNAME":"士林區","MARKTYPE":"991","Class":"1"},"geometry":{"x":305697.00310000032,"y":2779004.5614999998}},{"attributes":{"OBJECTID":6797,"LANDMARKID":"6300000000351","LANDMARKCO":"107","LANDMARKNA":"台北市政府警察局溪山派出所","LANDMARKAD":"6300011","ADDRESS":"台北市士林區溪山里至善路三段263號","TEL":"02-28411110","COUNTYNAME":"台北市","TOWNNAME":"士林區","MARKTYPE":"991","Class":"1"},"geometry":{"x":308949.1612999998,"y":2779164.7226999998}},{"attributes":{"OBJECTID":6798,"LANDMARKID":"6300000000352","LANDMARKCO":"107","LANDMARKNA":"台北市政府警察局芝山岩派出所","LANDMARKAD":"6300011","ADDRESS":"台北市士林區岩山里仰德大道一段16號","TEL":"02-28813194","COUNTYNAME":"台北市","TOWNNAME":"士林區","MARKTYPE":"991","Class":"1"},"geometry":{"x":304250.18690000009,"y":2777086.5491000004}},{"attributes":{"OBJECTID":6799,"LANDMARKID":"6300000000353","LANDMARKCO":"107","LANDMARKNA":"台北市政府警察局天母派出所","LANDMARKAD":"6300011","ADDRESS":"台北市士林區天母里中山北路七段192號","TEL":"02-28714110","COUNTYNAME":"台北市","TOWNNAME":"士林區","MARKTYPE":"991","Class":"1"},"geometry":{"x":303743.67320000008,"y":2779740.3004000001}},{"attributes":{"OBJECTID":6800,"LANDMARKID":"6300000000354","LANDMARKCO":"107","LANDMARKNA":"台北市政府警察局社子派出所","LANDMARKAD":"6300011","ADDRESS":"台北市士林區永園里延平北路六段192號","TEL":"02-28122720","COUNTYNAME":"台北市","TOWNNAME":"士林區","MARKTYPE":"991","Class":"1"},"geometry":{"x":301009.29160000011,"y":2775796.4530999996}}]}