{"displayFieldName":"COUNTYNAME","fieldAliases":{"OBJECTID":"OBJECTID","LANDMARKID":"LANDMARKID","LANDMARKCO":"LANDMARKCO","LANDMARKNA":"LANDMARKNA","LANDMARKAD":"LANDMARKAD","ADDRESS":"ADDRESS","TEL":"TEL","COUNTYNAME":"COUNTYNAME","TOWNNAME":"TOWNNAME","MARKTYPE":"MARKTYPE","Class":"Class"},"geometryType":"esriGeometryPoint","spatialReference":{"wkid":102443},"fields":[{"name":"OBJECTID","type":"esriFieldTypeOID","alias":"OBJECTID"},{"name":"LANDMARKID","type":"esriFieldTypeString","alias":"LANDMARKID","length":15},{"name":"LANDMARKCO","type":"esriFieldTypeString","alias":"LANDMARKCO","length":15},{"name":"LANDMARKNA","type":"esriFieldTypeString","alias":"LANDMARKNA","length":50},{"name":"LANDMARKAD","type":"esriFieldTypeString","alias":"LANDMARKAD","length":15},{"name":"ADDRESS","type":"esriFieldTypeString","alias":"ADDRESS","length":56},{"name":"TEL","type":"esriFieldTypeString","alias":"TEL","length":36},{"name":"COUNTYNAME","type":"esriFieldTypeString","alias":"COUNTYNAME","length":15},{"name":"TOWNNAME","type":"esriFieldTypeString","alias":"TOWNNAME","length":13},{"name":"MARKTYPE","type":"esriFieldTypeString","alias":"MARKTYPE","length":12},{"name":"Class","type":"esriFieldTypeString","alias":"Class","length":5}],"features":[{"attributes":{"OBJECTID":24001,"LANDMARKID":"1001500001012","LANDMARKCO":"604","LANDMARKNA":"樂以居民宿","LANDMARKAD":"1001505","ADDRESS":"花蓮縣吉安鄉永興村永興二街201號","TEL":"03-8540757","COUNTYNAME":"花蓮縣","TOWNNAME":"吉安鄉","MARKTYPE":"996","Class":"6"},"geometry":{"x":307551.5680999998,"y":2648819.3914999999}},{"attributes":{"OBJECTID":24002,"LANDMARKID":"1001500001013","LANDMARKCO":"604","LANDMARKNA":"京品民宿","LANDMARKAD":"1001505","ADDRESS":"花蓮縣吉安鄉仁安村南海四街41號","TEL":"03-8421595","COUNTYNAME":"花蓮縣","TOWNNAME":"吉安鄉","MARKTYPE":"996","Class":"6"},"geometry":{"x":310697.04220000003,"y":2649623.1928000003}},{"attributes":{"OBJECTID":24003,"LANDMARKID":"1001500001014","LANDMARKCO":"604","LANDMARKNA":"立群花園民宿","LANDMARKAD":"1001505","ADDRESS":"花蓮縣吉安鄉仁安村南海四街47號","TEL":"03-8422200","COUNTYNAME":"花蓮縣","TOWNNAME":"吉安鄉","MARKTYPE":"996","Class":"6"},"geometry":{"x":310635.2078999998,"y":2649662.4539999999}},{"attributes":{"OBJECTID":24004,"LANDMARKID":"1001500001015","LANDMARKCO":"604","LANDMARKNA":"石頭的家民宿","LANDMARKAD":"1001505","ADDRESS":"花蓮縣吉安鄉仁安村南濱路一段251巷26號","TEL":"03-8423686","COUNTYNAME":"花蓮縣","TOWNNAME":"吉安鄉","MARKTYPE":"996","Class":"6"},"geometry":{"x":311472.24019999988,"y":2650903.4713000003}},{"attributes":{"OBJECTID":24005,"LANDMARKID":"1001500001016","LANDMARKCO":"604","LANDMARKNA":"幸福紀行民宿","LANDMARKAD":"1001505","ADDRESS":"花蓮縣吉安鄉仁安村海岸路645巷42弄15號","TEL":"0337-860927","COUNTYNAME":"花蓮縣","TOWNNAME":"吉安鄉","MARKTYPE":"996","Class":"6"},"geometry":{"x":309735.05399999954,"y":2648632.6992000006}},{"attributes":{"OBJECTID":24006,"LANDMARKID":"1001500001017","LANDMARKCO":"604","LANDMARKNA":"海之戀民宿","LANDMARKAD":"1001505","ADDRESS":"花蓮縣吉安鄉仁安村海岸路645巷42弄16號","TEL":"03-8423476","COUNTYNAME":"花蓮縣","TOWNNAME":"吉安鄉","MARKTYPE":"996","Class":"6"},"geometry":{"x":309758.10390000045,"y":2648644.6033999994}},{"attributes":{"OBJECTID":24007,"LANDMARKID":"1001500001018","LANDMARKCO":"604","LANDMARKNA":"閱讀花蓮民宿","LANDMARKAD":"1001505","ADDRESS":"花蓮縣吉安鄉仁安村海岸路645巷42弄5號","TEL":"03-8423238","COUNTYNAME":"花蓮縣","TOWNNAME":"吉安鄉","MARKTYPE":"996","Class":"6"},"geometry":{"x":309769.98749999981,"y":2648616.5539999995}},{"attributes":{"OBJECTID":24008,"LANDMARKID":"1001500001019","LANDMARKCO":"604","LANDMARKNA":"金都大郡民宿","LANDMARKAD":"1001505","ADDRESS":"花蓮縣吉安鄉仁安村海岸路645巷42弄8號","TEL":"03-8421213","COUNTYNAME":"花蓮縣","TOWNNAME":"吉安鄉","MARKTYPE":"996","Class":"6"},"geometry":{"x":309780.07070000004,"y":2648636.5120999999}},{"attributes":{"OBJECTID":24009,"LANDMARKID":"1001500001020","LANDMARKCO":"604","LANDMARKNA":"小王子民宿","LANDMARKAD":"1001505","ADDRESS":"花蓮縣吉安鄉仁安村海岸路645巷42弄9號","TEL":"03-8423791","COUNTYNAME":"花蓮縣","TOWNNAME":"吉安鄉","MARKTYPE":"996","Class":"6"},"geometry":{"x":309755.01659999974,"y":2648623.6162999999}},{"attributes":{"OBJECTID":24010,"LANDMARKID":"1001500001021","LANDMARKCO":"604","LANDMARKNA":"蓮園民宿","LANDMARKAD":"1001505","ADDRESS":"花蓮縣吉安鄉永興村永興二街99號","TEL":"03-8539184","COUNTYNAME":"花蓮縣","TOWNNAME":"吉安鄉","MARKTYPE":"996","Class":"6"},"geometry":{"x":307787.99789999984,"y":2648311.5847999994}},{"attributes":{"OBJECTID":24011,"LANDMARKID":"1001500001022","LANDMARKCO":"604","LANDMARKNA":"竹湖館民宿","LANDMARKAD":"1001505","ADDRESS":"花蓮縣吉安鄉永興村永興六街112號","TEL":"03-8545103","COUNTYNAME":"花蓮縣","TOWNNAME":"吉安鄉","MARKTYPE":"996","Class":"6"},"geometry":{"x":307967.12040000036,"y":2650187.9710000008}},{"attributes":{"OBJECTID":24012,"LANDMARKID":"1001500001023","LANDMARKCO":"604","LANDMARKNA":"月牙館民宿","LANDMARKAD":"1001505","ADDRESS":"花蓮縣吉安鄉永興村永興六街116號","TEL":"03-8502340","COUNTYNAME":"花蓮縣","TOWNNAME":"吉安鄉","MARKTYPE":"996","Class":"6"},"geometry":{"x":307970.14059999958,"y":2650192.9587999992}},{"attributes":{"OBJECTID":24013,"LANDMARKID":"1001500001024","LANDMARKCO":"604","LANDMARKNA":"山月竹民宿","LANDMARKAD":"1001505","ADDRESS":"花蓮縣吉安鄉永興村永興六街118號","TEL":"03-8543456","COUNTYNAME":"花蓮縣","TOWNNAME":"吉安鄉","MARKTYPE":"996","Class":"6"},"geometry":{"x":307973.16079999972,"y":2650197.9466999993}},{"attributes":{"OBJECTID":24014,"LANDMARKID":"1001500001025","LANDMARKCO":"604","LANDMARKNA":"全民客棧民宿","LANDMARKAD":"1001505","ADDRESS":"花蓮縣吉安鄉永興村全民街7號","TEL":"03-8543501","COUNTYNAME":"花蓮縣","TOWNNAME":"吉安鄉","MARKTYPE":"996","Class":"6"},"geometry":{"x":308202.74309999961,"y":2648248.0489000008}},{"attributes":{"OBJECTID":24015,"LANDMARKID":"1001500001026","LANDMARKCO":"604","LANDMARKNA":"花蓮山海閑情民宿","LANDMARKAD":"1001505","ADDRESS":"花蓮縣吉安鄉光華村海岸路785巷50號","TEL":"03-8421870","COUNTYNAME":"花蓮縣","TOWNNAME":"吉安鄉","MARKTYPE":"996","Class":"6"},"geometry":{"x":310172.26659999974,"y":2650905.0080999993}},{"attributes":{"OBJECTID":24016,"LANDMARKID":"1001500001027","LANDMARKCO":"604","LANDMARKNA":"甜蜜家庭民宿","LANDMARKAD":"1001505","ADDRESS":"花蓮縣吉安鄉南昌村昌隆八街8號","TEL":"03-8535857","COUNTYNAME":"花蓮縣","TOWNNAME":"吉安鄉","MARKTYPE":"996","Class":"6"},"geometry":{"x":308781.26389999967,"y":2651822.9235999994}},{"attributes":{"OBJECTID":24017,"LANDMARKID":"1001500001028","LANDMARKCO":"604","LANDMARKNA":"白陽山莊民宿","LANDMARKAD":"1001505","ADDRESS":"花蓮縣吉安鄉南華村山下路258號","TEL":"03-8549438","COUNTYNAME":"花蓮縣","TOWNNAME":"吉安鄉","MARKTYPE":"996","Class":"6"},"geometry":{"x":304502.29289999977,"y":2649973.1756999996}},{"attributes":{"OBJECTID":24018,"LANDMARKID":"1001500001029","LANDMARKCO":"604","LANDMARKNA":"蝶泊遠近民宿","LANDMARKAD":"1001505","ADDRESS":"花蓮縣吉安鄉南華村吉安路五段30號","TEL":"03-8538707","COUNTYNAME":"花蓮縣","TOWNNAME":"吉安鄉","MARKTYPE":"996","Class":"6"},"geometry":{"x":306298.41550000012,"y":2650624.8541999999}},{"attributes":{"OBJECTID":24019,"LANDMARKID":"1001500001030","LANDMARKCO":"604","LANDMARKNA":"金山角田園民宿","LANDMARKAD":"1001505","ADDRESS":"花蓮縣吉安鄉南華村南華二街312號","TEL":"03-8547876","COUNTYNAME":"花蓮縣","TOWNNAME":"吉安鄉","MARKTYPE":"996","Class":"6"},"geometry":{"x":305612.5214999998,"y":2650650.2291000001}},{"attributes":{"OBJECTID":24020,"LANDMARKID":"1001500001031","LANDMARKCO":"604","LANDMARKNA":"山緹歐式民宿","LANDMARKAD":"1001505","ADDRESS":"花蓮縣吉安鄉南華村福昌路801巷12號","TEL":"03-8547782","COUNTYNAME":"花蓮縣","TOWNNAME":"吉安鄉","MARKTYPE":"996","Class":"6"},"geometry":{"x":305856.24139999971,"y":2650886.3721999992}},{"attributes":{"OBJECTID":24021,"LANDMARKID":"1001500001032","LANDMARKCO":"604","LANDMARKNA":"日?出民宿","LANDMARKAD":"1001505","ADDRESS":"花蓮縣吉安鄉勝安村中央路三段192號","TEL":"0933-484226","COUNTYNAME":"花蓮縣","TOWNNAME":"吉安鄉","MARKTYPE":"996","Class":"6"},"geometry":{"x":309438.10120000038,"y":2652950.6853}},{"attributes":{"OBJECTID":24022,"LANDMARKID":"1001500001033","LANDMARKCO":"604","LANDMARKNA":"楊媽媽民宿","LANDMARKAD":"1001505","ADDRESS":"花蓮縣吉安鄉仁里村仁里九街17號","TEL":"03-8528096","COUNTYNAME":"花蓮縣","TOWNNAME":"吉安鄉","MARKTYPE":"996","Class":"6"},"geometry":{"x":310068.25710000005,"y":2651449.4381000008}},{"attributes":{"OBJECTID":24023,"LANDMARKID":"1001500001034","LANDMARKCO":"604","LANDMARKNA":"花弄房民宿","LANDMARKAD":"1001505","ADDRESS":"花蓮縣吉安鄉仁里村仁里五街117巷36弄11號","TEL":"03-8545961","COUNTYNAME":"花蓮縣","TOWNNAME":"吉安鄉","MARKTYPE":"996","Class":"6"},"geometry":{"x":309877.1202999996,"y":2651724.0537}},{"attributes":{"OBJECTID":24024,"LANDMARKID":"1001500001035","LANDMARKCO":"604","LANDMARKNA":"松格民宿","LANDMARKAD":"1001505","ADDRESS":"花蓮縣吉安鄉仁里村仁里五街78-1號","TEL":"03-8332102","COUNTYNAME":"花蓮縣","TOWNNAME":"吉安鄉","MARKTYPE":"996","Class":"6"},"geometry":{"x":310050.27109999955,"y":2651760.5079999994}},{"attributes":{"OBJECTID":24025,"LANDMARKID":"1001500001036","LANDMARKCO":"604","LANDMARKNA":"壺說民宿","LANDMARKAD":"1001505","ADDRESS":"花蓮縣吉安鄉仁和村中正路二段160巷8號","TEL":"0937-887392","COUNTYNAME":"花蓮縣","TOWNNAME":"吉安鄉","MARKTYPE":"996","Class":"6"},"geometry":{"x":309706.91559999995,"y":2650752.7788999993}},{"attributes":{"OBJECTID":24026,"LANDMARKID":"1001500001037","LANDMARKCO":"604","LANDMARKNA":"仁光民宿","LANDMARKAD":"1001505","ADDRESS":"花蓮縣吉安鄉仁和村30鄰仁光62號","TEL":"03-8423566","COUNTYNAME":"花蓮縣","TOWNNAME":"吉安鄉","MARKTYPE":"996","Class":"6"},"geometry":{"x":309202.65979999956,"y":2648844.5604999997}},{"attributes":{"OBJECTID":24027,"LANDMARKID":"1001500001038","LANDMARKCO":"604","LANDMARKNA":"秘密花園民宿","LANDMARKAD":"1001505","ADDRESS":"花蓮縣吉安鄉仁和村仁光81號","TEL":"03-8325542","COUNTYNAME":"花蓮縣","TOWNNAME":"吉安鄉","MARKTYPE":"996","Class":"6"},"geometry":{"x":309164.6353000002,"y":2648838.7171}},{"attributes":{"OBJECTID":24028,"LANDMARKID":"1001500001039","LANDMARKCO":"604","LANDMARKNA":"羊兒煙囪民宿","LANDMARKAD":"1001505","ADDRESS":"花蓮縣吉安鄉仁和村南海九街11號","TEL":"03-8421807","COUNTYNAME":"花蓮縣","TOWNNAME":"吉安鄉","MARKTYPE":"996","Class":"6"},"geometry":{"x":310372.09190000035,"y":2648641.3959999997}},{"attributes":{"OBJECTID":24029,"LANDMARKID":"1001500001040","LANDMARKCO":"604","LANDMARKNA":"知卡宣田園民宿","LANDMARKAD":"1001505","ADDRESS":"花蓮縣吉安鄉仁和村南海八街325號","TEL":"03-8423487","COUNTYNAME":"花蓮縣","TOWNNAME":"吉安鄉","MARKTYPE":"996","Class":"6"},"geometry":{"x":309212.23419999983,"y":2649356.5106000006}},{"attributes":{"OBJECTID":24030,"LANDMARKID":"1001500001041","LANDMARKCO":"604","LANDMARKNA":"方家民宿","LANDMARKAD":"1001505","ADDRESS":"花蓮縣吉安鄉光華村華城七街401號","TEL":"03-8421705","COUNTYNAME":"花蓮縣","TOWNNAME":"吉安鄉","MARKTYPE":"996","Class":"6"},"geometry":{"x":307148.16870000027,"y":2647739.8943000007}},{"attributes":{"OBJECTID":24031,"LANDMARKID":"1001500001042","LANDMARKCO":"604","LANDMARKNA":"祁楨軒民宿","LANDMARKAD":"1001505","ADDRESS":"花蓮縣吉安鄉吉安村中興路180巷10弄4號","TEL":"0933-760390","COUNTYNAME":"花蓮縣","TOWNNAME":"吉安鄉","MARKTYPE":"996","Class":"6"},"geometry":{"x":308012.99270000029,"y":2652001.7555999998}},{"attributes":{"OBJECTID":24032,"LANDMARKID":"1001500001043","LANDMARKCO":"604","LANDMARKNA":"嘎嘎Home民宿","LANDMARKAD":"1001505","ADDRESS":"花蓮縣吉安鄉吉安村吉昌一街169號","TEL":"03-8549866","COUNTYNAME":"花蓮縣","TOWNNAME":"吉安鄉","MARKTYPE":"996","Class":"6"},"geometry":{"x":307488.90000000037,"y":2651978.5927000009}},{"attributes":{"OBJECTID":24033,"LANDMARKID":"1001500001044","LANDMARKCO":"604","LANDMARKNA":"卡蓮CO民宿","LANDMARKAD":"1001505","ADDRESS":"花蓮縣吉安鄉吉安村吉昌一街171號","TEL":"03-8549866","COUNTYNAME":"花蓮縣","TOWNNAME":"吉安鄉","MARKTYPE":"996","Class":"6"},"geometry":{"x":307482.90799999982,"y":2651980.6166999992}},{"attributes":{"OBJECTID":24034,"LANDMARKID":"1001500001045","LANDMARKCO":"604","LANDMARKNA":"鐵人家族民宿","LANDMARKAD":"1001505","ADDRESS":"花蓮縣吉安鄉吉安村吉昌一街173號","TEL":"03-8533902","COUNTYNAME":"花蓮縣","TOWNNAME":"吉安鄉","MARKTYPE":"996","Class":"6"},"geometry":{"x":307477.91999999993,"y":2651983.6367000006}},{"attributes":{"OBJECTID":24035,"LANDMARKID":"1001500001046","LANDMARKCO":"604","LANDMARKNA":"阿里阿多民宿","LANDMARKAD":"1001505","ADDRESS":"花蓮縣吉安鄉吉安村吉昌一街180號","TEL":"03-8512107","COUNTYNAME":"花蓮縣","TOWNNAME":"吉安鄉","MARKTYPE":"996","Class":"6"},"geometry":{"x":307489.06419999991,"y":2652019.5920000002}},{"attributes":{"OBJECTID":24036,"LANDMARKID":"1001500001047","LANDMARKCO":"604","LANDMARKNA":"佶椰民宿","LANDMARKAD":"1001505","ADDRESS":"花蓮縣吉安鄉吉安村吉昌一街198號","TEL":"03-8532519","COUNTYNAME":"花蓮縣","TOWNNAME":"吉安鄉","MARKTYPE":"996","Class":"6"},"geometry":{"x":307451.1361999996,"y":2652037.7438999992}},{"attributes":{"OBJECTID":24037,"LANDMARKID":"1001500001048","LANDMARKCO":"604","LANDMARKNA":"好客民宿","LANDMARKAD":"1001505","ADDRESS":"花蓮縣吉安鄉勝安村中原路一段173號","TEL":"0933-481976","COUNTYNAME":"花蓮縣","TOWNNAME":"吉安鄉","MARKTYPE":"996","Class":"6"},"geometry":{"x":309761.66839999985,"y":2652846.5134999994}},{"attributes":{"OBJECTID":24038,"LANDMARKID":"1001500001049","LANDMARKCO":"604","LANDMARKNA":"喵物語民宿","LANDMARKAD":"1001505","ADDRESS":"花蓮縣吉安鄉勝安村自強路125巷3號","TEL":"03-8542393","COUNTYNAME":"花蓮縣","TOWNNAME":"吉安鄉","MARKTYPE":"996","Class":"6"},"geometry":{"x":309637.58179999981,"y":2652824.8574000001}},{"attributes":{"OBJECTID":24039,"LANDMARKID":"1001500001050","LANDMARKCO":"604","LANDMARKNA":"三顧茅廬民宿","LANDMARKAD":"1001505","ADDRESS":"花蓮縣吉安鄉勝安村自強路125巷5號","TEL":"03-8536781","COUNTYNAME":"花蓮縣","TOWNNAME":"吉安鄉","MARKTYPE":"996","Class":"6"},"geometry":{"x":309633.59020000044,"y":2652826.8739999998}},{"attributes":{"OBJECTID":24040,"LANDMARKID":"1001500001051","LANDMARKCO":"604","LANDMARKNA":"水晶閣民宿","LANDMARKAD":"1001505","ADDRESS":"花蓮縣吉安鄉勝安村自強路198號之1","TEL":"03-8525076","COUNTYNAME":"花蓮縣","TOWNNAME":"吉安鄉","MARKTYPE":"996","Class":"6"},"geometry":{"x":309786.14329999965,"y":2652960.4114999995}},{"attributes":{"OBJECTID":24041,"LANDMARKID":"1001500001052","LANDMARKCO":"604","LANDMARKNA":"蒲舍民宿","LANDMARKAD":"1001505","ADDRESS":"花蓮縣吉安鄉勝安村勝安二街35巷2號","TEL":"03-8523726","COUNTYNAME":"花蓮縣","TOWNNAME":"吉安鄉","MARKTYPE":"996","Class":"6"},"geometry":{"x":309786.36670000013,"y":2652466.4158999994}},{"attributes":{"OBJECTID":24042,"LANDMARKID":"1001500001053","LANDMARKCO":"604","LANDMARKNA":"河堤雅舍民宿","LANDMARKAD":"1001505","ADDRESS":"花蓮縣吉安鄉勝安村慈惠一街39號","TEL":"0910-831320","COUNTYNAME":"花蓮縣","TOWNNAME":"吉安鄉","MARKTYPE":"996","Class":"6"},"geometry":{"x":309638.38910000026,"y":2652470.8595000003}},{"attributes":{"OBJECTID":24043,"LANDMARKID":"1001500001054","LANDMARKCO":"604","LANDMARKNA":"梅蘭民宿","LANDMARKAD":"1001505","ADDRESS":"花蓮縣吉安鄉福興村福興路158巷21號","TEL":"03-8328907","COUNTYNAME":"花蓮縣","TOWNNAME":"吉安鄉","MARKTYPE":"996","Class":"6"},"geometry":{"x":307360.32699999958,"y":2651526.9846999999}},{"attributes":{"OBJECTID":24044,"LANDMARKID":"1001500001055","LANDMARKCO":"604","LANDMARKNA":"峇里情人渡假別墅民宿","LANDMARKAD":"1001505","ADDRESS":"花蓮縣吉安鄉福興村福興七街459號","TEL":"0938-985875","COUNTYNAME":"花蓮縣","TOWNNAME":"吉安鄉","MARKTYPE":"996","Class":"6"},"geometry":{"x":306202.57969999965,"y":2651281.1151999999}},{"attributes":{"OBJECTID":24045,"LANDMARKID":"1001500001056","LANDMARKCO":"604","LANDMARKNA":"翠雲楓民宿","LANDMARKAD":"1001505","ADDRESS":"花蓮縣吉安鄉福興村福興四街32之5號","TEL":"03-8511072","COUNTYNAME":"花蓮縣","TOWNNAME":"吉安鄉","MARKTYPE":"996","Class":"6"},"geometry":{"x":306853.51429999992,"y":2651573.8791000005}},{"attributes":{"OBJECTID":24046,"LANDMARKID":"1001500001057","LANDMARKCO":"604","LANDMARKNA":"東之旅民宿","LANDMARKAD":"1001505","ADDRESS":"花蓮縣吉安鄉福興村福興路366巷7號","TEL":"03-8523623","COUNTYNAME":"花蓮縣","TOWNNAME":"吉安鄉","MARKTYPE":"996","Class":"6"},"geometry":{"x":306557.07780000009,"y":2652077.9243000001}},{"attributes":{"OBJECTID":24047,"LANDMARKID":"1001500001058","LANDMARKCO":"604","LANDMARKNA":"湘緣小築民宿","LANDMARKAD":"1001505","ADDRESS":"花蓮縣吉安鄉仁和村南海四街294巷28號","TEL":"03-8531146","COUNTYNAME":"花蓮縣","TOWNNAME":"吉安鄉","MARKTYPE":"996","Class":"6"},"geometry":{"x":309904.79530000035,"y":2650107.9656000007}},{"attributes":{"OBJECTID":24048,"LANDMARKID":"1001500001059","LANDMARKCO":"604","LANDMARKNA":"居亭民宿","LANDMARKAD":"1001505","ADDRESS":"花蓮縣吉安鄉吉安村吉昌一街205-5號","TEL":"03-8568628","COUNTYNAME":"花蓮縣","TOWNNAME":"吉安鄉","MARKTYPE":"996","Class":"6"},"geometry":{"x":307330.03060000017,"y":2652068.0956999995}},{"attributes":{"OBJECTID":24049,"LANDMARKID":"1001500001060","LANDMARKCO":"604","LANDMARKNA":"檜木居民宿","LANDMARKAD":"1001505","ADDRESS":"花蓮縣吉安鄉勝安村慈惠一街58號","TEL":"03-8546006","COUNTYNAME":"花蓮縣","TOWNNAME":"吉安鄉","MARKTYPE":"996","Class":"6"},"geometry":{"x":309550.53949999996,"y":2652507.2244000006}},{"attributes":{"OBJECTID":24050,"LANDMARKID":"1001500001061","LANDMARKCO":"604","LANDMARKNA":"教師家民宿","LANDMARKAD":"1001505","ADDRESS":"花蓮縣吉安鄉勝安村慈惠四街170巷2號","TEL":"0910-483874","COUNTYNAME":"花蓮縣","TOWNNAME":"吉安鄉","MARKTYPE":"996","Class":"6"},"geometry":{"x":309735.3563000001,"y":2652771.6230999995}},{"attributes":{"OBJECTID":24051,"LANDMARKID":"1001500001062","LANDMARKCO":"604","LANDMARKNA":"新雅閣民宿","LANDMARKAD":"1001505","ADDRESS":"花蓮縣吉安鄉勝安村慈惠四街229號","TEL":"03-8527531","COUNTYNAME":"花蓮縣","TOWNNAME":"吉安鄉","MARKTYPE":"996","Class":"6"},"geometry":{"x":309580.51999999955,"y":2652810.0944999997}},{"attributes":{"OBJECTID":24052,"LANDMARKID":"1001500001063","LANDMARKCO":"604","LANDMARKNA":"奇萊亞民宿","LANDMARKAD":"1001505","ADDRESS":"花蓮縣吉安鄉福興村中央路一段681號","TEL":"03-8527000","COUNTYNAME":"花蓮縣","TOWNNAME":"吉安鄉","MARKTYPE":"996","Class":"6"},"geometry":{"x":307560.90340000018,"y":2651056.3191999998}},{"attributes":{"OBJECTID":24053,"LANDMARKID":"1001500001064","LANDMARKCO":"604","LANDMARKNA":"真善美民宿","LANDMARKAD":"1001505","ADDRESS":"花蓮縣吉安鄉福興村吉昌三街267巷30號","TEL":"03-8534336","COUNTYNAME":"花蓮縣","TOWNNAME":"吉安鄉","MARKTYPE":"996","Class":"6"},"geometry":{"x":307247.0421000002,"y":2651706.4368999992}},{"attributes":{"OBJECTID":24054,"LANDMARKID":"1001500001065","LANDMARKCO":"604","LANDMARKNA":"怡驛民宿","LANDMARKAD":"1001505","ADDRESS":"花蓮縣吉安鄉太昌村太昌路468巷9號","TEL":"03-8572412","COUNTYNAME":"花蓮縣","TOWNNAME":"吉安鄉","MARKTYPE":"996","Class":"6"},"geometry":{"x":307576.98460000008,"y":2654460.1994000003}},{"attributes":{"OBJECTID":24055,"LANDMARKID":"1001500001066","LANDMARKCO":"604","LANDMARKNA":"東東休閒民宿","LANDMARKAD":"1001505","ADDRESS":"花蓮縣吉安鄉太昌村永昌街562號","TEL":"03-8510338","COUNTYNAME":"花蓮縣","TOWNNAME":"吉安鄉","MARKTYPE":"996","Class":"6"},"geometry":{"x":307483.07430000044,"y":2654233.5763000008}},{"attributes":{"OBJECTID":24056,"LANDMARKID":"1001500001067","LANDMARKCO":"604","LANDMARKNA":"山之谷民宿","LANDMARKAD":"1001505","ADDRESS":"花蓮縣吉安鄉太昌村明仁二街277號","TEL":"03-8573203","COUNTYNAME":"花蓮縣","TOWNNAME":"吉安鄉","MARKTYPE":"996","Class":"6"},"geometry":{"x":308020.23220000044,"y":2654274.6859000009}},{"attributes":{"OBJECTID":24057,"LANDMARKID":"1001500001068","LANDMARKCO":"604","LANDMARKNA":"歐式庭園民宿","LANDMARKAD":"1001505","ADDRESS":"花蓮縣吉安鄉太昌村明仁三街600巷9號","TEL":"03-8580606","COUNTYNAME":"花蓮縣","TOWNNAME":"吉安鄉","MARKTYPE":"996","Class":"6"},"geometry":{"x":307296.86679999996,"y":2654123.1983000003}},{"attributes":{"OBJECTID":24058,"LANDMARKID":"1001500001069","LANDMARKCO":"604","LANDMARKNA":"博愛民宿","LANDMARKAD":"1001505","ADDRESS":"花蓮縣吉安鄉吉安村吉昌一街256巷38號","TEL":"03-8529789","COUNTYNAME":"花蓮縣","TOWNNAME":"吉安鄉","MARKTYPE":"996","Class":"6"},"geometry":{"x":307131.16100000031,"y":2652100.8888000008}},{"attributes":{"OBJECTID":24059,"LANDMARKID":"1001500001070","LANDMARKCO":"604","LANDMARKNA":"風之絮民宿","LANDMARKAD":"1001505","ADDRESS":"花蓮縣吉安鄉吉安村吉昌一街67巷11號","TEL":"03-8542785","COUNTYNAME":"花蓮縣","TOWNNAME":"吉安鄉","MARKTYPE":"996","Class":"6"},"geometry":{"x":308018.72840000037,"y":2651628.7374000009}},{"attributes":{"OBJECTID":24060,"LANDMARKID":"1001500001071","LANDMARKCO":"604","LANDMARKNA":"葆岱兒休閒民宿","LANDMARKAD":"1001505","ADDRESS":"花蓮縣吉安鄉吉安村吉昌二街202號","TEL":"03-8536708","COUNTYNAME":"花蓮縣","TOWNNAME":"吉安鄉","MARKTYPE":"996","Class":"6"},"geometry":{"x":307329.36870000046,"y":2651845.1032999996}},{"attributes":{"OBJECTID":24061,"LANDMARKID":"1001500001072","LANDMARKCO":"604","LANDMARKNA":"溯溪民宿","LANDMARKAD":"1001505","ADDRESS":"花蓮縣吉安鄉吉安村吉昌二街220巷30號","TEL":"03-8510420","COUNTYNAME":"花蓮縣","TOWNNAME":"吉安鄉","MARKTYPE":"996","Class":"6"},"geometry":{"x":307340.63630000036,"y":2651912.0582999997}},{"attributes":{"OBJECTID":24062,"LANDMARKID":"1001500001073","LANDMARKCO":"604","LANDMARKNA":"滌塵居民宿","LANDMARKAD":"1001505","ADDRESS":"花蓮縣吉安鄉吉安村吉昌二街220巷32號","TEL":"03-8521272","COUNTYNAME":"花蓮縣","TOWNNAME":"吉安鄉","MARKTYPE":"996","Class":"6"},"geometry":{"x":307342.65230000019,"y":2651916.0502000004}},{"attributes":{"OBJECTID":24063,"LANDMARKID":"1001500001074","LANDMARKCO":"604","LANDMARKNA":"月陶居民宿","LANDMARKAD":"1001505","ADDRESS":"花蓮縣吉安鄉吉安村吉昌二街300巷25號","TEL":"03-8545848","COUNTYNAME":"花蓮縣","TOWNNAME":"吉安鄉","MARKTYPE":"996","Class":"6"},"geometry":{"x":307105.21439999994,"y":2652057.9968999997}},{"attributes":{"OBJECTID":24064,"LANDMARKID":"1001500001075","LANDMARKCO":"604","LANDMARKNA":"亞美民宿","LANDMARKAD":"1001505","ADDRESS":"花蓮縣花蓮市莊敬路269號","TEL":"03-8230785","COUNTYNAME":"花蓮縣","TOWNNAME":"吉安鄉","MARKTYPE":"996","Class":"6"},"geometry":{"x":310296.03710000031,"y":2654165.6171000004}},{"attributes":{"OBJECTID":24065,"LANDMARKID":"1001500001076","LANDMARKCO":"604","LANDMARKNA":"茱麗葉民宿","LANDMARKAD":"1001505","ADDRESS":"花蓮縣吉安鄉稻香村吉興路2段140號","TEL":"03-8513647","COUNTYNAME":"花蓮縣","TOWNNAME":"吉安鄉","MARKTYPE":"996","Class":"6"},"geometry":{"x":308099.16849999968,"y":2650814.4273000006}},{"attributes":{"OBJECTID":24066,"LANDMARKID":"1001500001077","LANDMARKCO":"604","LANDMARKNA":"海泉民宿","LANDMARKAD":"1001505","ADDRESS":"花蓮縣吉安鄉南昌村文化一街35號","TEL":"03-8533722","COUNTYNAME":"花蓮縣","TOWNNAME":"吉安鄉","MARKTYPE":"996","Class":"6"},"geometry":{"x":309421.09889999963,"y":2651719.7769000009}},{"attributes":{"OBJECTID":24067,"LANDMARKID":"1001500001078","LANDMARKCO":"604","LANDMARKNA":"歐雅精緻民宿","LANDMARKAD":"1001505","ADDRESS":"花蓮縣吉安鄉吉安村吉興一街356-3號","TEL":"03-8530667","COUNTYNAME":"花蓮縣","TOWNNAME":"吉安鄉","MARKTYPE":"996","Class":"6"},"geometry":{"x":308747.6138000004,"y":2652216.0561999995}},{"attributes":{"OBJECTID":24068,"LANDMARKID":"1001500001079","LANDMARKCO":"604","LANDMARKNA":"尚芳民宿","LANDMARKAD":"1001505","ADDRESS":"花蓮縣吉安鄉永安村明仁三街131巷8號","TEL":"03-8580049","COUNTYNAME":"花蓮縣","TOWNNAME":"吉安鄉","MARKTYPE":"996","Class":"6"},"geometry":{"x":308871.1046000002,"y":2653015.6899999995}},{"attributes":{"OBJECTID":24069,"LANDMARKID":"1001500001080","LANDMARKCO":"604","LANDMARKNA":"吉野軒民宿","LANDMARKAD":"1001505","ADDRESS":"花蓮縣吉安鄉吉安村吉興一街309巷5號","TEL":"03-8529271","COUNTYNAME":"花蓮縣","TOWNNAME":"吉安鄉","MARKTYPE":"996","Class":"6"},"geometry":{"x":308447.74039999954,"y":2651939.1359000001}},{"attributes":{"OBJECTID":24070,"LANDMARKID":"1001500001081","LANDMARKCO":"604","LANDMARKNA":"山與海民宿","LANDMARKAD":"1001505","ADDRESS":"花蓮縣吉安鄉稻香村稻香路31巷24弄3號","TEL":"03-8523745","COUNTYNAME":"花蓮縣","TOWNNAME":"吉安鄉","MARKTYPE":"996","Class":"6"},"geometry":{"x":308128.41309999954,"y":2650935.3038999997}},{"attributes":{"OBJECTID":24071,"LANDMARKID":"1001500001082","LANDMARKCO":"604","LANDMARKNA":"遇見幸福花園渡假民宿","LANDMARKAD":"1001505","ADDRESS":"花蓮縣吉安鄉仁里村中山路1段115巷6號","TEL":"03-8532013","COUNTYNAME":"花蓮縣","TOWNNAME":"吉安鄉","MARKTYPE":"996","Class":"6"},"geometry":{"x":310024.42899999954,"y":2651251.6215000004}},{"attributes":{"OBJECTID":24072,"LANDMARKID":"1001500001083","LANDMARKCO":"604","LANDMARKNA":"美麗晨曦民宿","LANDMARKAD":"1001505","ADDRESS":"花蓮縣吉安鄉太昌村明義二街16號","TEL":"03-8568738","COUNTYNAME":"花蓮縣","TOWNNAME":"吉安鄉","MARKTYPE":"996","Class":"6"},"geometry":{"x":308190.20160000026,"y":2654266.9969999995}},{"attributes":{"OBJECTID":24073,"LANDMARKID":"1001500001084","LANDMARKCO":"604","LANDMARKNA":"星語農園民宿","LANDMARKAD":"1001505","ADDRESS":"花蓮縣吉安鄉太昌村明義二街88號","TEL":"03-8572619","COUNTYNAME":"花蓮縣","TOWNNAME":"吉安鄉","MARKTYPE":"996","Class":"6"},"geometry":{"x":307841.69120000023,"y":2653772.2778999992}},{"attributes":{"OBJECTID":24074,"LANDMARKID":"1001500001085","LANDMARKCO":"604","LANDMARKNA":"漁夫民宿","LANDMARKAD":"1001505","ADDRESS":"花蓮縣吉安鄉仁里村中山路1段115巷10號","TEL":"03-8543069","COUNTYNAME":"花蓮縣","TOWNNAME":"吉安鄉","MARKTYPE":"996","Class":"6"},"geometry":{"x":310020.46250000037,"y":2651259.6381000001}},{"attributes":{"OBJECTID":24075,"LANDMARKID":"1001500001086","LANDMARKCO":"604","LANDMARKNA":"曉雨浪漫花園民宿","LANDMARKAD":"1001505","ADDRESS":"花蓮縣吉安鄉仁里村中山路1段115巷12號","TEL":"03-8539009","COUNTYNAME":"花蓮縣","TOWNNAME":"吉安鄉","MARKTYPE":"996","Class":"6"},"geometry":{"x":310017.47919999994,"y":2651263.6505999994}},{"attributes":{"OBJECTID":24076,"LANDMARKID":"1001500000580","LANDMARKCO":"405","LANDMARKNA":"中油加油站-壽豐站(中油自營)","LANDMARKAD":"1001506","ADDRESS":"花蓮縣壽豐鄉壽豐路一段1號","TEL":"03-8651140","COUNTYNAME":"花蓮縣","TOWNNAME":"壽豐鄉","MARKTYPE":"994","Class":"4"},"geometry":{"x":302296.11969999969,"y":2641131.4837999996}},{"attributes":{"OBJECTID":24077,"LANDMARKID":"1001500000581","LANDMARKCO":"405","LANDMARKNA":"中油加油站-木瓜溪站","LANDMARKAD":"1001506","ADDRESS":"花蓮縣壽豐鄉志學村中山路4段156號","TEL":"03-8662918","COUNTYNAME":"花蓮縣","TOWNNAME":"壽豐鄉","MARKTYPE":"994","Class":"4"},"geometry":{"x":304505.98230000027,"y":2646624.5868999995}},{"attributes":{"OBJECTID":24078,"LANDMARKID":"1001500000582","LANDMARKCO":"405","LANDMARKNA":"台糖加油站-平和站(中油)","LANDMARKAD":"1001506","ADDRESS":"花蓮縣壽豐鄉平和村中華路2段172號","TEL":" ","COUNTYNAME":"花蓮縣","TOWNNAME":"壽豐鄉","MARKTYPE":"994","Class":"4"},"geometry":{"x":303150.25260000024,"y":2642726.1026000008}},{"attributes":{"OBJECTID":24079,"LANDMARKID":"1001500000583","LANDMARKCO":"405","LANDMARKNA":"中油加油站-志學站","LANDMARKAD":"1001506","ADDRESS":"花蓮縣壽豐鄉志學村中山路三段303號","TEL":"03-8661555","COUNTYNAME":"花蓮縣","TOWNNAME":"壽豐鄉","MARKTYPE":"994","Class":"4"},"geometry":{"x":304200.04719999991,"y":2645770.7379999999}},{"attributes":{"OBJECTID":24080,"LANDMARKID":"1001500000584","LANDMARKCO":"405","LANDMARKNA":"中油加油站-泰豐站","LANDMARKAD":"1001506","ADDRESS":"花蓮縣壽豐鄉豐山村中山路358號","TEL":"03-8656188","COUNTYNAME":"花蓮縣","TOWNNAME":"壽豐鄉","MARKTYPE":"994","Class":"4"},"geometry":{"x":300884.53129999992,"y":2638903.2027000003}},{"attributes":{"OBJECTID":24081,"LANDMARKID":"1001500000585","LANDMARKCO":"405","LANDMARKNA":"中油加油站-水璉站","LANDMARKAD":"1001506","ADDRESS":"花蓮縣壽豐鄉水璉村水新路一號","TEL":"03-8601048","COUNTYNAME":"花蓮縣","TOWNNAME":"壽豐鄉","MARKTYPE":"994","Class":"4"},"geometry":{"x":307260.96729999967,"y":2631309.9213999994}},{"attributes":{"OBJECTID":24082,"LANDMARKID":"1001500000586","LANDMARKCO":"405","LANDMARKNA":"中油加油站-廣昇站","LANDMARKAD":"1001506","ADDRESS":"花蓮縣壽豐鄉壽豐村中山路六段123號","TEL":"03-8652729","COUNTYNAME":"花蓮縣","TOWNNAME":"壽豐鄉","MARKTYPE":"994","Class":"4"},"geometry":{"x":302102.47479999997,"y":2641035.5560999997}},{"attributes":{"OBJECTID":24083,"LANDMARKID":"1001500000759","LANDMARKCO":"506","LANDMARKNA":"米棧文旦觀光果園","LANDMARKAD":"1001506","ADDRESS":"花蓮縣壽豐鄉","TEL":"03-8741369","COUNTYNAME":"花蓮縣","TOWNNAME":"壽豐鄉","MARKTYPE":"995","Class":"5"},"geometry":{"x":306190.96019999962,"y":2634133.1535}},{"attributes":{"OBJECTID":24084,"LANDMARKID":"1001500000796","LANDMARKCO":"512","LANDMARKNA":"花蓮遊客服務中心","LANDMARKAD":"1001506","ADDRESS":"花蓮縣壽豐鄉鹽寮村大坑5號","TEL":"03-8671326","COUNTYNAME":"花蓮縣","TOWNNAME":"壽豐鄉","MARKTYPE":"995","Class":"5"},"geometry":{"x":311303.7416000003,"y":2644740.5208999999}},{"attributes":{"OBJECTID":24085,"LANDMARKID":"1001500000699","LANDMARKCO":"408","LANDMARKNA":"郵局-壽豐豐田郵局","LANDMARKAD":"1001506","ADDRESS":"花蓮縣壽豐鄉豐山村中山路127巷16弄5號","TEL":"(03)8652-626","COUNTYNAME":"花蓮縣","TOWNNAME":"壽豐鄉","MARKTYPE":"994","Class":"4"},"geometry":{"x":300335.41280000005,"y":2638304.5228000004}},{"attributes":{"OBJECTID":24086,"LANDMARKID":"1001500000700","LANDMARKCO":"408","LANDMARKNA":"郵局-壽豐志學郵局","LANDMARKAD":"1001506","ADDRESS":"花蓮縣壽豐鄉志學村中山路2段202號","TEL":"(03)8661-626","COUNTYNAME":"花蓮縣","TOWNNAME":"壽豐鄉","MARKTYPE":"994","Class":"4"},"geometry":{"x":303951.24069999997,"y":2644696.3169}},{"attributes":{"OBJECTID":24087,"LANDMARKID":"1001500000722","LANDMARKCO":"409","LANDMARKNA":"花蓮縣壽豐鄉農會","LANDMARKAD":"1001506","ADDRESS":"花蓮縣壽豐鄉壽豐村壽山路19號","TEL":"03-8653101","COUNTYNAME":"花蓮縣","TOWNNAME":"壽豐鄉","MARKTYPE":"994","Class":"4"},"geometry":{"x":301964.26530000009,"y":2640708.5168999992}},{"attributes":{"OBJECTID":24088,"LANDMARKID":"1001500000571","LANDMARKCO":"404","LANDMARKNA":"台灣省自來水壽豐營運所","LANDMARKAD":"1001506","ADDRESS":"花蓮縣壽豐鄉公園路28巷12號","TEL":" ","COUNTYNAME":"花蓮縣","TOWNNAME":"壽豐鄉","MARKTYPE":"994","Class":"4"},"geometry":{"x":301671.87359999958,"y":2640545.1649999991}},{"attributes":{"OBJECTID":24089,"LANDMARKID":"1001500000669","LANDMARKCO":"406","LANDMARKNA":"吳全社區公園","LANDMARKAD":"1001506","ADDRESS":"花蓮縣壽豐鄉","TEL":" ","COUNTYNAME":"花蓮縣","TOWNNAME":"壽豐鄉","MARKTYPE":"994","Class":"4"},"geometry":{"x":306357.8992999997,"y":2642898.4448000006}},{"attributes":{"OBJECTID":24090,"LANDMARKID":"1001500000670","LANDMARKCO":"406","LANDMARKNA":"福德公園","LANDMARKAD":"1001506","ADDRESS":"花蓮縣壽豐鄉","TEL":" ","COUNTYNAME":"花蓮縣","TOWNNAME":"壽豐鄉","MARKTYPE":"994","Class":"4"},"geometry":{"x":302187.0449000001,"y":2640741.7422000002}},{"attributes":{"OBJECTID":24091,"LANDMARKID":"1001500000671","LANDMARKCO":"406","LANDMARKNA":"中山公園","LANDMARKAD":"1001506","ADDRESS":"花蓮縣壽豐鄉","TEL":" ","COUNTYNAME":"花蓮縣","TOWNNAME":"壽豐鄉","MARKTYPE":"994","Class":"4"},"geometry":{"x":301419.36479999963,"y":2640562.7840999998}},{"attributes":{"OBJECTID":24092,"LANDMARKID":"1001500000578","LANDMARKCO":"405","LANDMARKNA":"台塑加油站-蓮豐站(台塑)","LANDMARKAD":"1001506","ADDRESS":"花蓮縣壽豐鄉豐坪村豐坪路三段3號","TEL":"03-8651072","COUNTYNAME":"花蓮縣","TOWNNAME":"壽豐鄉","MARKTYPE":"994","Class":"4"},"geometry":{"x":302205.41079999972,"y":2637270.2414999995}},{"attributes":{"OBJECTID":24093,"LANDMARKID":"1001500000579","LANDMARKCO":"405","LANDMARKNA":"台塑加油站-安豐站(台塑)","LANDMARKAD":"1001506","ADDRESS":"花蓮縣壽豐鄉豐坪村12鄰豐坪三段2-50號","TEL":"03-8653109","COUNTYNAME":"花蓮縣","TOWNNAME":"壽豐鄉","MARKTYPE":"994","Class":"4"},"geometry":{"x":302141.91019999981,"y":2637119.0471000001}},{"attributes":{"OBJECTID":24094,"LANDMARKID":"1001500000232","LANDMARKCO":"108","LANDMARKNA":"花蓮縣壽豐鄉公所","LANDMARKAD":"1001506","ADDRESS":"花蓮縣壽豐鄉壽豐村壽山路26號","TEL":"03-8652131","COUNTYNAME":"花蓮縣","TOWNNAME":"壽豐鄉","MARKTYPE":"991","Class":"1"},"geometry":{"x":301849.29559999984,"y":2640739.7271999996}},{"attributes":{"OBJECTID":24095,"LANDMARKID":"1001500000060","LANDMARKCO":"103","LANDMARKNA":"花蓮縣壽豐鄉民代表會","LANDMARKAD":"1001506","ADDRESS":"花蓮縣壽豐鄉壽豐村壽山路36號","TEL":"03-8651021","COUNTYNAME":"花蓮縣","TOWNNAME":"壽豐鄉","MARKTYPE":"991","Class":"1"},"geometry":{"x":301811.33179999981,"y":2640749.8637000006}},{"attributes":{"OBJECTID":24096,"LANDMARKID":"1001500000161","LANDMARKCO":"107","LANDMARKNA":"花蓮縣消防局壽豐消防分隊","LANDMARKAD":"1001506","ADDRESS":"花蓮縣壽豐鄉壽豐村中山路六段4號","TEL":"03-8650119","COUNTYNAME":"花蓮縣","TOWNNAME":"壽豐鄉","MARKTYPE":"991","Class":"1"},"geometry":{"x":301836.04200000037,"y":2640639.7787999995}},{"attributes":{"OBJECTID":24097,"LANDMARKID":"1001500000162","LANDMARKCO":"107","LANDMARKNA":"花蓮縣警察局月眉派出所","LANDMARKAD":"1001506","ADDRESS":"花蓮縣壽豐鄉月眉村月眉路三段42號","TEL":"03-8631001","COUNTYNAME":"花蓮縣","TOWNNAME":"壽豐鄉","MARKTYPE":"991","Class":"1"},"geometry":{"x":306697.51730000041,"y":2640499.5535000004}},{"attributes":{"OBJECTID":24098,"LANDMARKID":"1001500000163","LANDMARKCO":"107","LANDMARKNA":"花蓮縣警察局溪口派出所","LANDMARKAD":"1001506","ADDRESS":"花蓮縣壽豐鄉溪口村溪口路67號","TEL":"03-8652283","COUNTYNAME":"花蓮縣","TOWNNAME":"壽豐鄉","MARKTYPE":"991","Class":"1"},"geometry":{"x":298200.37440000009,"y":2635219.7128999997}},{"attributes":{"OBJECTID":24099,"LANDMARKID":"1001500000164","LANDMARKCO":"107","LANDMARKNA":"花蓮縣警察局平和派出所","LANDMARKAD":"1001506","ADDRESS":"花蓮縣壽豐鄉平和村中華路二段102號","TEL":"03-8661281","COUNTYNAME":"花蓮縣","TOWNNAME":"壽豐鄉","MARKTYPE":"991","Class":"1"},"geometry":{"x":302995.73489999957,"y":2642399.6457000002}},{"attributes":{"OBJECTID":24100,"LANDMARKID":"1001500000165","LANDMARKCO":"107","LANDMARKNA":"花蓮縣警察局水璉派出所","LANDMARKAD":"1001506","ADDRESS":"花蓮縣壽豐鄉水璉村水璉一街53號","TEL":"03-8601011","COUNTYNAME":"花蓮縣","TOWNNAME":"壽豐鄉","MARKTYPE":"991","Class":"1"},"geometry":{"x":307449.42760000005,"y":2631248.9576999992}},{"attributes":{"OBJECTID":24101,"LANDMARKID":"1001500000166","LANDMARKCO":"107","LANDMARKNA":"花蓮縣警察局壽豐分駐所","LANDMARKAD":"1001506","ADDRESS":"花蓮縣壽豐鄉壽豐村壽山路22號","TEL":"03-8651337","COUNTYNAME":"花蓮縣","TOWNNAME":"壽豐鄉","MARKTYPE":"991","Class":"1"},"geometry":{"x":301875.25939999986,"y":2640729.6338}},{"attributes":{"OBJECTID":24102,"LANDMARKID":"1001500000104","LANDMARKCO":"106","LANDMARKNA":"花蓮縣壽豐鄉戶政事務所","LANDMARKAD":"1001506","ADDRESS":"花蓮縣壽豐鄉壽豐村10鄰壽山路24號","TEL":"03-8651944","COUNTYNAME":"花蓮縣","TOWNNAME":"壽豐鄉","MARKTYPE":"991","Class":"1"},"geometry":{"x":301863.25949999969,"y":2640729.6769999992}},{"attributes":{"OBJECTID":24103,"LANDMARKID":"1001500000041","LANDMARKCO":"101","LANDMARKNA":"內政部國土測繪中心壽豐辦公室","LANDMARKAD":"1001506","ADDRESS":"花蓮縣壽豐鄉壽豐村壽文路30號","TEL":"03-8650050","COUNTYNAME":"花蓮縣","TOWNNAME":"壽豐鄉","MARKTYPE":"991","Class":"1"},"geometry":{"x":301434.47180000041,"y":2638019.2281999998}},{"attributes":{"OBJECTID":24104,"LANDMARKID":"1001500000059","LANDMARKCO":"103","LANDMARKNA":"花蓮縣壽豐鄉衛生所","LANDMARKAD":"1001506","ADDRESS":"花蓮縣壽豐鄉壽豐村公園路28巷10號","TEL":"03-8652101~2","COUNTYNAME":"花蓮縣","TOWNNAME":"壽豐鄉","MARKTYPE":"991","Class":"1"},"geometry":{"x":301833.72709999979,"y":2640859.7831999995}},{"attributes":{"OBJECTID":24105,"LANDMARKID":"1001500000167","LANDMARKCO":"107","LANDMARKNA":"花蓮縣警察局池南派出所","LANDMARKAD":"1001506","ADDRESS":"花蓮縣壽豐鄉池南村二段13號","TEL":"03-8641280","COUNTYNAME":"花蓮縣","TOWNNAME":"壽豐鄉","MARKTYPE":"991","Class":"1"},"geometry":{"x":301494.8088999996,"y":2646419.9136999995}},{"attributes":{"OBJECTID":24106,"LANDMARKID":"1001500000168","LANDMARKCO":"107","LANDMARKNA":"花蓮縣警察局鹽寮派出所","LANDMARKAD":"1001506","ADDRESS":"花蓮縣壽豐鄉鹽寮村129號","TEL":"03-8671200","COUNTYNAME":"花蓮縣","TOWNNAME":"壽豐鄉","MARKTYPE":"991","Class":"1"},"geometry":{"x":310874.77909999993,"y":2640569.8001000006}},{"attributes":{"OBJECTID":24107,"LANDMARKID":"1001500000169","LANDMARKCO":"107","LANDMARKNA":"花蓮縣警察局重光派出所","LANDMARKAD":"1001506","ADDRESS":"花蓮縣壽豐鄉池南村池南路五段86號","TEL":"03-8652284","COUNTYNAME":"花蓮縣","TOWNNAME":"壽豐鄉","MARKTYPE":"991","Class":"1"},"geometry":{"x":301872.25569999963,"y":2643189.6125000007}},{"attributes":{"OBJECTID":24108,"LANDMARKID":"1001500000170","LANDMARKCO":"107","LANDMARKNA":"花蓮縣警察局志學派出所","LANDMARKAD":"1001506","ADDRESS":"花蓮縣壽豐鄉志學村中山路二段238號","TEL":"03-8661282","COUNTYNAME":"花蓮縣","TOWNNAME":"壽豐鄉","MARKTYPE":"991","Class":"1"},"geometry":{"x":304221.31699999981,"y":2644749.2489}},{"attributes":{"OBJECTID":24109,"LANDMARKID":"1001500000171","LANDMARKCO":"107","LANDMARKNA":"花蓮縣警察局豐田派出所","LANDMARKAD":"1001506","ADDRESS":"花蓮縣壽豐鄉豐山村豐山街1號","TEL":"03-8651486","COUNTYNAME":"花蓮縣","TOWNNAME":"壽豐鄉","MARKTYPE":"991","Class":"1"},"geometry":{"x":300412.51819999982,"y":2638339.8428000007}},{"attributes":{"OBJECTID":24110,"LANDMARKID":"1001500000416","LANDMARKCO":"205","LANDMARKNA":"池南林業陳列館","LANDMARKAD":"1001506","ADDRESS":"花蓮縣壽豐鄉","TEL":"03-8641594","COUNTYNAME":"花蓮縣","TOWNNAME":"壽豐鄉","MARKTYPE":"992","Class":"2"},"geometry":{"x":301107.09310000017,"y":2646066.8509999998}},{"attributes":{"OBJECTID":24111,"LANDMARKID":"1001500000407","LANDMARKCO":"204","LANDMARKNA":"花蓮縣立圖書館壽豐分館","LANDMARKAD":"1001506","ADDRESS":"花蓮縣壽豐鄉壽豐村壽山路26號","TEL":" ","COUNTYNAME":"花蓮縣","TOWNNAME":"壽豐鄉","MARKTYPE":"992","Class":"2"},"geometry":{"x":301849.26530000009,"y":2640739.9192999993}},{"attributes":{"OBJECTID":24112,"LANDMARKID":"1001500000314","LANDMARKCO":"203","LANDMARKNA":"縣立水璉國中","LANDMARKAD":"1001506","ADDRESS":"花蓮縣壽豐鄉水璉村水璉路6號","TEL":"03-8601031","COUNTYNAME":"花蓮縣","TOWNNAME":"壽豐鄉","MARKTYPE":"992","Class":"2"},"geometry":{"x":307348.67559999973,"y":2631619.3521999996}},{"attributes":{"OBJECTID":24113,"LANDMARKID":"1001500000315","LANDMARKCO":"203","LANDMARKNA":"縣立壽豐國中","LANDMARKAD":"1001506","ADDRESS":"花蓮縣壽豐鄉豐裡村中山路132號","TEL":"03-8652111","COUNTYNAME":"花蓮縣","TOWNNAME":"壽豐鄉","MARKTYPE":"992","Class":"2"},"geometry":{"x":300901.2620000001,"y":2637959.1216000002}},{"attributes":{"OBJECTID":24114,"LANDMARKID":"1001500000316","LANDMARKCO":"203","LANDMARKNA":"縣立溪口國小","LANDMARKAD":"1001506","ADDRESS":"花蓮縣壽豐鄉溪口村溪口路87號","TEL":"03-8652275","COUNTYNAME":"花蓮縣","TOWNNAME":"壽豐鄉","MARKTYPE":"992","Class":"2"},"geometry":{"x":298171.07459999993,"y":2635129.8104999997}},{"attributes":{"OBJECTID":24115,"LANDMARKID":"1001500000317","LANDMARKCO":"203","LANDMARKNA":"縣立水璉國小","LANDMARKAD":"1001506","ADDRESS":"花蓮縣壽豐鄉水璉村水璉二街20號","TEL":"03-8601228","COUNTYNAME":"花蓮縣","TOWNNAME":"壽豐鄉","MARKTYPE":"992","Class":"2"},"geometry":{"x":307506.89429999981,"y":2631059.8552999999}},{"attributes":{"OBJECTID":24116,"LANDMARKID":"1001500000318","LANDMARKCO":"203","LANDMARKNA":"縣立豐裡國小","LANDMARKAD":"1001506","ADDRESS":"花蓮縣壽豐鄉豐裡村中山路299號","TEL":"03-8652183","COUNTYNAME":"花蓮縣","TOWNNAME":"壽豐鄉","MARKTYPE":"992","Class":"2"},"geometry":{"x":301767.28270000033,"y":2637659.0493999999}},{"attributes":{"OBJECTID":24117,"LANDMARKID":"1001500000319","LANDMARKCO":"203","LANDMARKNA":"縣立豐山國小","LANDMARKAD":"1001506","ADDRESS":"花蓮縣壽豐鄉豐山村中山路41號","TEL":"03-8650370","COUNTYNAME":"花蓮縣","TOWNNAME":"壽豐鄉","MARKTYPE":"992","Class":"2"},"geometry":{"x":300106.85759999976,"y":2638129.9263000004}},{"attributes":{"OBJECTID":24118,"LANDMARKID":"1001500000320","LANDMARKCO":"203","LANDMARKNA":"縣立志學國小","LANDMARKAD":"1001506","ADDRESS":"花蓮縣壽豐鄉中正路120巷10號","TEL":"03-8662600","COUNTYNAME":"花蓮縣","TOWNNAME":"壽豐鄉","MARKTYPE":"992","Class":"2"},"geometry":{"x":304130.64719999954,"y":2644529.5944999997}},{"attributes":{"OBJECTID":24119,"LANDMARKID":"1001500000321","LANDMARKCO":"203","LANDMARKNA":"縣立壽豐國小","LANDMARKAD":"1001506","ADDRESS":"花蓮縣壽豐鄉壽豐村壽山路37號","TEL":"03-8651024","COUNTYNAME":"花蓮縣","TOWNNAME":"壽豐鄉","MARKTYPE":"992","Class":"2"},"geometry":{"x":301720.26059999969,"y":2640729.1776999999}},{"attributes":{"OBJECTID":24120,"LANDMARKID":"1001500000241","LANDMARKCO":"201","LANDMARKNA":"國立東華大學","LANDMARKAD":"1001506","ADDRESS":"花蓮縣壽豐鄉大學路二段1號","TEL":"03-8662500","COUNTYNAME":"花蓮縣","TOWNNAME":"壽豐鄉","MARKTYPE":"992","Class":"2"},"geometry":{"x":304955.55059999973,"y":2643889.6872000005}},{"attributes":{"OBJECTID":24121,"LANDMARKID":"1001500000242","LANDMARKCO":"201","LANDMARKNA":"台灣觀光學院台灣觀光學院","LANDMARKAD":"1001506","ADDRESS":"花蓮縣壽豐鄉中興街268號","TEL":"03-8653906","COUNTYNAME":"花蓮縣","TOWNNAME":"壽豐鄉","MARKTYPE":"992","Class":"2"},"geometry":{"x":299518.61280000024,"y":2639289.9892999995}},{"attributes":{"OBJECTID":24122,"LANDMARKID":"1001500000330","LANDMARKCO":"203","LANDMARKNA":"縣立平和國中","LANDMARKAD":"1001506","ADDRESS":"花蓮縣壽豐鄉平和村平和路48號","TEL":"03-8661221#11","COUNTYNAME":"花蓮縣","TOWNNAME":"壽豐鄉","MARKTYPE":"992","Class":"2"},"geometry":{"x":302673.99069999997,"y":2642469.7897999994}},{"attributes":{"OBJECTID":24123,"LANDMARKID":"1001500000331","LANDMARKCO":"203","LANDMARKNA":"縣立月眉國小","LANDMARKAD":"1001506","ADDRESS":"花蓮縣壽豐鄉月眉村24號","TEL":"03-8631011","COUNTYNAME":"花蓮縣","TOWNNAME":"壽豐鄉","MARKTYPE":"992","Class":"2"},"geometry":{"x":306683.75320000015,"y":2640559.6075999998}},{"attributes":{"OBJECTID":24124,"LANDMARKID":"1001500000332","LANDMARKCO":"203","LANDMARKNA":"縣立平和國小","LANDMARKAD":"1001506","ADDRESS":"花蓮縣壽豐鄉平和路34號","TEL":"03-8661223","COUNTYNAME":"花蓮縣","TOWNNAME":"壽豐鄉","MARKTYPE":"992","Class":"2"},"geometry":{"x":302937.29409999959,"y":2642279.8605000004}},{"attributes":{"OBJECTID":24125,"LANDMARKID":"1001500000479","LANDMARKCO":"303","LANDMARKNA":"潭南停車場","LANDMARKAD":"1001506","ADDRESS":"花蓮縣壽豐鄉","TEL":" ","COUNTYNAME":"花蓮縣","TOWNNAME":"壽豐鄉","MARKTYPE":"993","Class":"303"},"geometry":{"x":301505.16349999979,"y":2646676.4350000005}},{"attributes":{"OBJECTID":24126,"LANDMARKID":"1001500000480","LANDMARKCO":"303","LANDMARKNA":"潭北停車場","LANDMARKAD":"1001506","ADDRESS":"花蓮縣壽豐鄉","TEL":" ","COUNTYNAME":"花蓮縣","TOWNNAME":"壽豐鄉","MARKTYPE":"993","Class":"303"},"geometry":{"x":301665.52020000014,"y":2647946.7128999997}},{"attributes":{"OBJECTID":24127,"LANDMARKID":"1001500000481","LANDMARKCO":"303","LANDMARKNA":"蕃薯寮休息區停車場","LANDMARKAD":"1001506","ADDRESS":"花蓮縣壽豐鄉","TEL":" ","COUNTYNAME":"花蓮縣","TOWNNAME":"壽豐鄉","MARKTYPE":"993","Class":"303"},"geometry":{"x":306629.82199999969,"y":2627093.9907000009}},{"attributes":{"OBJECTID":24128,"LANDMARKID":"1001500000482","LANDMARKCO":"303","LANDMARKNA":"花蓮遊客服務中心停車場","LANDMARKAD":"1001506","ADDRESS":"花蓮縣壽豐鄉鹽寮村大坑5號","TEL":"03-8671326","COUNTYNAME":"花蓮縣","TOWNNAME":"壽豐鄉","MARKTYPE":"993","Class":"303"},"geometry":{"x":311395.05250000022,"y":2644587.1467000004}},{"attributes":{"OBJECTID":24129,"LANDMARKID":"1001500000483","LANDMARKCO":"303","LANDMARKNA":"鹽寮遊客中心停車場","LANDMARKAD":"1001506","ADDRESS":"花蓮縣壽豐鄉鹽寮村大坑5號","TEL":" ","COUNTYNAME":"花蓮縣","TOWNNAME":"壽豐鄉","MARKTYPE":"993","Class":"303"},"geometry":{"x":310466.79800000042,"y":2638411.7069000006}},{"attributes":{"OBJECTID":24130,"LANDMARKID":"1001500000484","LANDMARKCO":"303","LANDMARKNA":"池南森林遊樂區停車場","LANDMARKAD":"1001506","ADDRESS":"花蓮縣壽豐鄉池南村林園路","TEL":" ","COUNTYNAME":"花蓮縣","TOWNNAME":"壽豐鄉","MARKTYPE":"993","Class":"303"},"geometry":{"x":301103.15899999999,"y":2646132.1489000004}},{"attributes":{"OBJECTID":24131,"LANDMARKID":"1001500000435","LANDMARKCO":"301","LANDMARKNA":"溪口火車站","LANDMARKAD":"1001506","ADDRESS":"花蓮縣壽豐鄉","TEL":" ","COUNTYNAME":"花蓮縣","TOWNNAME":"壽豐鄉","MARKTYPE":"993","Class":"301"},"geometry":{"x":298311.81840000022,"y":2634834.1612999998}},{"attributes":{"OBJECTID":24132,"LANDMARKID":"1001500000436","LANDMARKCO":"301","LANDMARKNA":"豐田火車站","LANDMARKAD":"1001506","ADDRESS":"花蓮縣壽豐鄉站前街36號","TEL":"03-8654251","COUNTYNAME":"花蓮縣","TOWNNAME":"壽豐鄉","MARKTYPE":"993","Class":"301"},"geometry":{"x":300549.80800000019,"y":2638340.0669999998}},{"attributes":{"OBJECTID":24133,"LANDMARKID":"1001500000437","LANDMARKCO":"301","LANDMARKNA":"壽豐火車站","LANDMARKAD":"1001506","ADDRESS":"花蓮縣壽豐鄉壽山路1號","TEL":"03-8653706","COUNTYNAME":"花蓮縣","TOWNNAME":"壽豐鄉","MARKTYPE":"993","Class":"301"},"geometry":{"x":302026.27740000002,"y":2640626.6432000007}},{"attributes":{"OBJECTID":24134,"LANDMARKID":"1001500000438","LANDMARKCO":"301","LANDMARKNA":"平和火車站","LANDMARKAD":"1001506","ADDRESS":"花蓮縣壽豐鄉","TEL":" ","COUNTYNAME":"花蓮縣","TOWNNAME":"壽豐鄉","MARKTYPE":"993","Class":"301"},"geometry":{"x":303058.03039999958,"y":2642147.6389000006}},{"attributes":{"OBJECTID":24135,"LANDMARKID":"1001500000439","LANDMARKCO":"301","LANDMARKNA":"志學火車站","LANDMARKAD":"1001506","ADDRESS":"花蓮縣壽豐鄉中正路1號","TEL":"03-8662966","COUNTYNAME":"花蓮縣","TOWNNAME":"壽豐鄉","MARKTYPE":"993","Class":"301"},"geometry":{"x":303911.72190000024,"y":2644887.4089000002}},{"attributes":{"OBJECTID":24136,"LANDMARKID":"1001500000542","LANDMARKCO":"402","LANDMARKNA":"中華電信-壽豐服務中心","LANDMARKAD":"1001506","ADDRESS":"花蓮縣壽豐鄉壽豐村壽豐路一段109號","TEL":"(03)865-1011","COUNTYNAME":"花蓮縣","TOWNNAME":"壽豐鄉","MARKTYPE":"994","Class":"4"},"geometry":{"x":301963.09520000033,"y":2640832.4681000002}},{"attributes":{"OBJECTID":24137,"LANDMARKID":"1001500001370","LANDMARKCO":"604","LANDMARKNA":"莫內花園民宿","LANDMARKAD":"1001506","ADDRESS":"花蓮縣壽豐鄉池南村林園路3-2號","TEL":"03-8642066","COUNTYNAME":"花蓮縣","TOWNNAME":"壽豐鄉","MARKTYPE":"996","Class":"6"},"geometry":{"x":301666.67069999967,"y":2647663.3176000006}},{"attributes":{"OBJECTID":24138,"LANDMARKID":"1001500001371","LANDMARKCO":"604","LANDMARKNA":"邀月小築民宿","LANDMARKAD":"1001506","ADDRESS":"花蓮縣壽豐鄉志學村忠孝街81號","TEL":"03-8576239","COUNTYNAME":"花蓮縣","TOWNNAME":"壽豐鄉","MARKTYPE":"996","Class":"6"},"geometry":{"x":305807.13320000004,"y":2646513.0442999993}},{"attributes":{"OBJECTID":24139,"LANDMARKID":"1001500001372","LANDMARKCO":"604","LANDMARKNA":"落羽松別館民宿","LANDMARKAD":"1001506","ADDRESS":"花蓮縣壽豐鄉壽豐村公園路61號","TEL":"0933-887816","COUNTYNAME":"花蓮縣","TOWNNAME":"壽豐鄉","MARKTYPE":"996","Class":"6"},"geometry":{"x":301673.23950000014,"y":2640841.5332999993}},{"attributes":{"OBJECTID":24140,"LANDMARKID":"1001500001373","LANDMARKCO":"604","LANDMARKNA":"倆呆民宿","LANDMARKAD":"1001506","ADDRESS":"花蓮縣壽豐鄉豐山村和平街21號","TEL":"03-8656858","COUNTYNAME":"花蓮縣","TOWNNAME":"壽豐鄉","MARKTYPE":"996","Class":"6"},"geometry":{"x":299606.88229999971,"y":2638427.0507999994}},{"attributes":{"OBJECTID":24141,"LANDMARKID":"1001500001374","LANDMARKCO":"604","LANDMARKNA":"人間山水民宿","LANDMARKAD":"1001506","ADDRESS":"花蓮縣壽豐鄉水璉村水璉路20巷36號","TEL":"03-8601219","COUNTYNAME":"花蓮縣","TOWNNAME":"壽豐鄉","MARKTYPE":"996","Class":"6"},"geometry":{"x":307326.49330000021,"y":2631093.4116999991}},{"attributes":{"OBJECTID":24142,"LANDMARKID":"1001500001375","LANDMARKCO":"604","LANDMARKNA":"傅家農園民宿","LANDMARKAD":"1001506","ADDRESS":"花蓮縣壽豐鄉光榮村中山路7段85巷10-1號","TEL":"03-8654585","COUNTYNAME":"花蓮縣","TOWNNAME":"壽豐鄉","MARKTYPE":"996","Class":"6"},"geometry":{"x":302226.19379999954,"y":2642408.4393000007}},{"attributes":{"OBJECTID":24143,"LANDMARKID":"1001500001376","LANDMARKCO":"604","LANDMARKNA":"鯉魚山莊休閒民宿","LANDMARKAD":"1001506","ADDRESS":"花蓮縣壽豐鄉池南村池南路3段57號","TEL":"03-8641175","COUNTYNAME":"花蓮縣","TOWNNAME":"壽豐鄉","MARKTYPE":"996","Class":"6"},"geometry":{"x":301593.97259999998,"y":2645345.2315999996}},{"attributes":{"OBJECTID":24144,"LANDMARKID":"1001500001377","LANDMARKCO":"604","LANDMARKNA":"志學民宿","LANDMARKAD":"1001506","ADDRESS":"花蓮縣壽豐鄉志學村中山路2段115號","TEL":"03-8661202","COUNTYNAME":"花蓮縣","TOWNNAME":"壽豐鄉","MARKTYPE":"996","Class":"6"},"geometry":{"x":303439.87090000045,"y":2644012.0035999995}},{"attributes":{"OBJECTID":24145,"LANDMARKID":"1001500001378","LANDMARKCO":"604","LANDMARKNA":"後山歲月民宿","LANDMARKAD":"1001506","ADDRESS":"花蓮縣壽豐鄉志學村中山路2段186號","TEL":"03-8663053","COUNTYNAME":"花蓮縣","TOWNNAME":"壽豐鄉","MARKTYPE":"996","Class":"6"},"geometry":{"x":303932.74220000021,"y":2644565.7438999992}},{"attributes":{"OBJECTID":24146,"LANDMARKID":"1001500001379","LANDMARKCO":"604","LANDMARKNA":"平常人家民宿","LANDMARKAD":"1001506","ADDRESS":"花蓮縣壽豐鄉樹湖村荖山40-5號","TEL":"03-8656226","COUNTYNAME":"花蓮縣","TOWNNAME":"壽豐鄉","MARKTYPE":"996","Class":"6"},"geometry":{"x":298176.94959999993,"y":2637123.7530000005}},{"attributes":{"OBJECTID":24147,"LANDMARKID":"1001500001380","LANDMARKCO":"604","LANDMARKNA":"大愛農場民宿","LANDMARKAD":"1001506","ADDRESS":"花蓮縣壽豐鄉豐山村魚塘街36號","TEL":"03-8653808","COUNTYNAME":"花蓮縣","TOWNNAME":"壽豐鄉","MARKTYPE":"996","Class":"6"},"geometry":{"x":300697.59609999973,"y":2639537.9027999993}},{"attributes":{"OBJECTID":24148,"LANDMARKID":"1001500001381","LANDMARKCO":"604","LANDMARKNA":"微風星情民宿","LANDMARKAD":"1001506","ADDRESS":"花蓮縣壽豐鄉豐平村豐坪路2段10巷3號","TEL":"03-8654005","COUNTYNAME":"花蓮縣","TOWNNAME":"壽豐鄉","MARKTYPE":"996","Class":"6"},"geometry":{"x":301664.00669999979,"y":2636384.2617000006}},{"attributes":{"OBJECTID":24149,"LANDMARKID":"1001500001382","LANDMARKCO":"604","LANDMARKNA":"豐田肯納園民宿","LANDMARKAD":"1001506","ADDRESS":"花蓮縣壽豐鄉豐坪村豐坪路2段1巷12弄3號","TEL":"0912-491333","COUNTYNAME":"花蓮縣","TOWNNAME":"壽豐鄉","MARKTYPE":"996","Class":"6"},"geometry":{"x":301297.83220000006,"y":2636276.0518999994}},{"attributes":{"OBJECTID":24150,"LANDMARKID":"1001500001383","LANDMARKCO":"604","LANDMARKNA":"藍海綠地休閒渡假民宿","LANDMARKAD":"1001506","ADDRESS":"花蓮縣壽豐鄉鹽寮村大坑37號","TEL":"03-8671082","COUNTYNAME":"花蓮縣","TOWNNAME":"壽豐鄉","MARKTYPE":"996","Class":"6"},"geometry":{"x":311446.44900000002,"y":2644940.0421999991}},{"attributes":{"OBJECTID":24151,"LANDMARKID":"1001500001384","LANDMARKCO":"604","LANDMARKNA":"陽光假期民宿","LANDMARKAD":"1001506","ADDRESS":"花蓮縣壽豐鄉鹽寮村大坑64號","TEL":"03-8671101","COUNTYNAME":"花蓮縣","TOWNNAME":"壽豐鄉","MARKTYPE":"996","Class":"6"},"geometry":{"x":311481.1978000002,"y":2645688.8230000008}},{"attributes":{"OBJECTID":24152,"LANDMARKID":"1001500001385","LANDMARKCO":"604","LANDMARKNA":"鹽寮民宿","LANDMARKAD":"1001506","ADDRESS":"花蓮縣壽豐鄉鹽寮村大坑57號","TEL":"03-8671005","COUNTYNAME":"花蓮縣","TOWNNAME":"壽豐鄉","MARKTYPE":"996","Class":"6"},"geometry":{"x":311401.03749999963,"y":2644937.1626999993}},{"attributes":{"OBJECTID":24153,"LANDMARKID":"1001500001386","LANDMARKCO":"604","LANDMARKNA":"山嶺好望角民宿","LANDMARKAD":"1001506","ADDRESS":"花蓮縣壽豐鄉鹽寮村山嶺9-6號","TEL":"0932-581581","COUNTYNAME":"花蓮縣","TOWNNAME":"壽豐鄉","MARKTYPE":"996","Class":"6"},"geometry":{"x":310651.82220000029,"y":2644606.5258000009}},{"attributes":{"OBJECTID":24154,"LANDMARKID":"1001500001387","LANDMARKCO":"604","LANDMARKNA":"白色地中海民宿","LANDMARKAD":"1001506","ADDRESS":"花蓮縣壽豐鄉鹽寮村福德107-1號","TEL":"0933-993666","COUNTYNAME":"花蓮縣","TOWNNAME":"壽豐鄉","MARKTYPE":"996","Class":"6"},"geometry":{"x":311284.30439999979,"y":2641857.5603}},{"attributes":{"OBJECTID":24155,"LANDMARKID":"1001500001388","LANDMARKCO":"604","LANDMARKNA":"聽濤閣民宿","LANDMARKAD":"1001506","ADDRESS":"花蓮縣壽豐鄉鹽寮村福德107號","TEL":"03-8671021","COUNTYNAME":"花蓮縣","TOWNNAME":"壽豐鄉","MARKTYPE":"996","Class":"6"},"geometry":{"x":311383.85709999967,"y":2642916.6427999996}},{"attributes":{"OBJECTID":24156,"LANDMARKID":"1001500001389","LANDMARKCO":"604","LANDMARKNA":"水牛山民宿","LANDMARKAD":"1001506","ADDRESS":"花蓮縣壽豐鄉水璉村牛山32號","TEL":"03-8601088","COUNTYNAME":"花蓮縣","TOWNNAME":"壽豐鄉","MARKTYPE":"996","Class":"6"},"geometry":{"x":306880.50100000016,"y":2628682.2091000006}},{"attributes":{"OBJECTID":24157,"LANDMARKID":"1001500001390","LANDMARKCO":"604","LANDMARKNA":"日光民宿","LANDMARKAD":"1001506","ADDRESS":"花蓮縣壽豐鄉鹽寮村福德123號","TEL":"03-8671167","COUNTYNAME":"花蓮縣","TOWNNAME":"壽豐鄉","MARKTYPE":"996","Class":"6"},"geometry":{"x":311388.13399999961,"y":2643052.3112000003}},{"attributes":{"OBJECTID":24158,"LANDMARKID":"1001500001391","LANDMARKCO":"604","LANDMARKNA":"十二號橋空間民宿","LANDMARKAD":"1001506","ADDRESS":"花蓮縣壽豐鄉鹽寮村橄樹腳16號","TEL":"03-8671214","COUNTYNAME":"花蓮縣","TOWNNAME":"壽豐鄉","MARKTYPE":"996","Class":"6"},"geometry":{"x":309303.75619999971,"y":2635406.2655999996}},{"attributes":{"OBJECTID":24159,"LANDMARKID":"1001500001392","LANDMARKCO":"604","LANDMARKNA":"越牆工園民宿","LANDMARKAD":"1001506","ADDRESS":"花蓮縣壽豐鄉鹽寮村鹽寮146號","TEL":"03-8671331","COUNTYNAME":"花蓮縣","TOWNNAME":"壽豐鄉","MARKTYPE":"996","Class":"6"},"geometry":{"x":311000.10030000005,"y":2640767.8077000007}},{"attributes":{"OBJECTID":24160,"LANDMARKID":"1001500001393","LANDMARKCO":"604","LANDMARKNA":"近月旭海民宿","LANDMARKAD":"1001506","ADDRESS":"花蓮縣壽豐鄉鹽寮村鹽寮152號","TEL":"03-8671158","COUNTYNAME":"花蓮縣","TOWNNAME":"壽豐鄉","MARKTYPE":"996","Class":"6"},"geometry":{"x":310973.31439999957,"y":2640848.7654999997}},{"attributes":{"OBJECTID":24161,"LANDMARKID":"1001500001394","LANDMARKCO":"604","LANDMARKNA":"葛莉絲莊園民宿","LANDMARKAD":"1001506","ADDRESS":"花蓮縣壽豐鄉豐山村魚塘43號","TEL":"0933-121662","COUNTYNAME":"花蓮縣","TOWNNAME":"壽豐鄉","MARKTYPE":"996","Class":"6"},"geometry":{"x":300252.99799999967,"y":2639441.4595999997}},{"attributes":{"OBJECTID":24162,"LANDMARKID":"1001500001395","LANDMARKCO":"604","LANDMARKNA":"牛山呼庭休閒園區民宿","LANDMARKAD":"1001506","ADDRESS":"花蓮縣壽豐鄉水璉村牛山39-5號","TEL":"03-8601400","COUNTYNAME":"花蓮縣","TOWNNAME":"壽豐鄉","MARKTYPE":"996","Class":"6"},"geometry":{"x":308058.22200000007,"y":2628989.5962000005}},{"attributes":{"OBJECTID":24163,"LANDMARKID":"1001500001396","LANDMARKCO":"604","LANDMARKNA":"星海農莊民宿","LANDMARKAD":"1001506","ADDRESS":"花蓮縣壽豐鄉水璉村牛山66號","TEL":"03-8601168","COUNTYNAME":"花蓮縣","TOWNNAME":"壽豐鄉","MARKTYPE":"996","Class":"6"},"geometry":{"x":306938.17970000021,"y":2628671.5789000001}},{"attributes":{"OBJECTID":24164,"LANDMARKID":"1001500001397","LANDMARKCO":"604","LANDMARKNA":"吉谷樂民宿","LANDMARKAD":"1001506","ADDRESS":"花蓮縣壽豐鄉水璉村芳寮63號","TEL":"03-8601117","COUNTYNAME":"花蓮縣","TOWNNAME":"壽豐鄉","MARKTYPE":"996","Class":"6"},"geometry":{"x":306619.72950000037,"y":2627021.5603}},{"attributes":{"OBJECTID":24165,"LANDMARKID":"1001500001398","LANDMARKCO":"604","LANDMARKNA":"豐廬居民宿","LANDMARKAD":"1001506","ADDRESS":"花蓮縣壽豐鄉鹽寮村大坑51-5號","TEL":"03-8671421","COUNTYNAME":"花蓮縣","TOWNNAME":"壽豐鄉","MARKTYPE":"996","Class":"6"},"geometry":{"x":311404.70299999975,"y":2644904.7129999995}},{"attributes":{"OBJECTID":24166,"LANDMARKID":"1001500001399","LANDMARKCO":"604","LANDMARKNA":"山海風情民宿","LANDMARKAD":"1001506","ADDRESS":"花蓮縣秀林鄉崇德村崇德198-12號","TEL":"03-8621833","COUNTYNAME":"花蓮縣","TOWNNAME":"壽豐鄉","MARKTYPE":"996","Class":"6"},"geometry":{"x":311439.01620000042,"y":2644881.5661999993}},{"attributes":{"OBJECTID":24167,"LANDMARKID":"1001500000835","LANDMARKCO":"603","LANDMARKNA":"順泰旅社","LANDMARKAD":"1001506","ADDRESS":"花蓮縣壽豐鄉中山路215號","TEL":"03-8652076","COUNTYNAME":"花蓮縣","TOWNNAME":"壽豐鄉","MARKTYPE":"996","Class":"6"},"geometry":{"x":300453.67679999955,"y":2638478.1630000006}},{"attributes":{"OBJECTID":24168,"LANDMARKID":"1001500000836","LANDMARKCO":"603","LANDMARKNA":"樂宮旅社","LANDMARKAD":"1001506","ADDRESS":"花蓮縣壽豐鄉池南路二段21號","TEL":"03-8641227","COUNTYNAME":"花蓮縣","TOWNNAME":"壽豐鄉","MARKTYPE":"996","Class":"6"},"geometry":{"x":301506.9776999997,"y":2646326.7986999992}},{"attributes":{"OBJECTID":24169,"LANDMARKID":"1001500000828","LANDMARKCO":"601","LANDMARKNA":"遠雄悅來大飯店","LANDMARKAD":"1001506","ADDRESS":"花蓮縣壽豐鄉鹽寮村山嶺18號","TEL":"03-8123-999","COUNTYNAME":"花蓮縣","TOWNNAME":"壽豐鄉","MARKTYPE":"996","Class":"6"},"geometry":{"x":310801.75210000016,"y":2645046.6456000004}},{"attributes":{"OBJECTID":24170,"LANDMARKID":"1001500000747","LANDMARKCO":"503","LANDMARKNA":"牛山風景區","LANDMARKAD":"1001506","ADDRESS":"花蓮縣壽豐鄉","TEL":" ","COUNTYNAME":"花蓮縣","TOWNNAME":"壽豐鄉","MARKTYPE":"995","Class":"5"},"geometry":{"x":307212.51449999958,"y":2629395.6418999992}},{"attributes":{"OBJECTID":24171,"LANDMARKID":"1001500000754","LANDMARKCO":"505","LANDMARKNA":"遠雄花蓮海洋公園","LANDMARKAD":"1001506","ADDRESS":"花蓮縣壽豐鄉鹽寮村福德189號","TEL":"03-8123199","COUNTYNAME":"花蓮縣","TOWNNAME":"壽豐鄉","MARKTYPE":"995","Class":"5"},"geometry":{"x":311399.09329999983,"y":2644228.9710000008}},{"attributes":{"OBJECTID":24172,"LANDMARKID":"1001500000745","LANDMARKCO":"503","LANDMARKNA":"蕃薯寮休息區","LANDMARKAD":"1001506","ADDRESS":"花蓮縣壽豐鄉","TEL":" ","COUNTYNAME":"花蓮縣","TOWNNAME":"壽豐鄉","MARKTYPE":"995","Class":"5"},"geometry":{"x":306624.80539999995,"y":2627100.2907999996}},{"attributes":{"OBJECTID":24173,"LANDMARKID":"1001500000748","LANDMARKCO":"504","LANDMARKNA":"池南森林遊樂區","LANDMARKAD":"1001506","ADDRESS":"花蓮縣壽豐鄉池南村林源路76號","TEL":" ","COUNTYNAME":"花蓮縣","TOWNNAME":"壽豐鄉","MARKTYPE":"995","Class":"5"},"geometry":{"x":301111.99569999985,"y":2646091.8698999994}},{"attributes":{"OBJECTID":24174,"LANDMARKID":"1001500000746","LANDMARKCO":"503","LANDMARKNA":"鯉魚潭風景特定區","LANDMARKAD":"1001506","ADDRESS":"花蓮縣壽豐鄉","TEL":" ","COUNTYNAME":"花蓮縣","TOWNNAME":"壽豐鄉","MARKTYPE":"995","Class":"5"},"geometry":{"x":301538.71410000045,"y":2647316.1973000001}},{"attributes":{"OBJECTID":24175,"LANDMARKID":"1001500000752","LANDMARKCO":"505","LANDMARKNA":"怡園渡假村","LANDMARKAD":"1001506","ADDRESS":"花蓮縣壽豐鄉豐坪村豐坪路三段17號","TEL":" ","COUNTYNAME":"花蓮縣","TOWNNAME":"壽豐鄉","MARKTYPE":"995","Class":"5"},"geometry":{"x":302744.18680000026,"y":2638031.1717000008}},{"attributes":{"OBJECTID":24176,"LANDMARKID":"1001500000753","LANDMARKCO":"505","LANDMARKNA":"花蓮海洋公園","LANDMARKAD":"1001506","ADDRESS":"花蓮縣壽豐鄉鹽寮村福德189號","TEL":" ","COUNTYNAME":"花蓮縣","TOWNNAME":"壽豐鄉","MARKTYPE":"995","Class":"5"},"geometry":{"x":311433.48440000042,"y":2644179.2534999996}},{"attributes":{"OBJECTID":24177,"LANDMARKID":"1001500000573","LANDMARKCO":"405","LANDMARKNA":"台糖加油站-萬里站(中油)","LANDMARKAD":"1001502","ADDRESS":"花蓮縣鳳林鎮長橋里長橋路118號","TEL":" ","COUNTYNAME":"花蓮縣","TOWNNAME":"鳳林鎮","MARKTYPE":"994","Class":"4"},"geometry":{"x":293070.49729999993,"y":2623452.7052999996}},{"attributes":{"OBJECTID":24178,"LANDMARKID":"1001500000574","LANDMARKCO":"405","LANDMARKNA":"中油加油站-鳳林站(中油自營)","LANDMARKAD":"1001502","ADDRESS":"花蓮縣鳳林鎮中正路一段371號","TEL":"03-8762114","COUNTYNAME":"花蓮縣","TOWNNAME":"鳳林鎮","MARKTYPE":"994","Class":"4"},"geometry":{"x":295502.93759999983,"y":2626381.8706999999}},{"attributes":{"OBJECTID":24179,"LANDMARKID":"1001500000575","LANDMARKCO":"405","LANDMARKNA":"中油加油站-鳳榮站","LANDMARKAD":"1001502","ADDRESS":"花蓮縣鳳林鎮林榮路219號","TEL":"03-8771811","COUNTYNAME":"花蓮縣","TOWNNAME":"鳳林鎮","MARKTYPE":"994","Class":"4"},"geometry":{"x":295940.40350000001,"y":2633506.4168999996}},{"attributes":{"OBJECTID":24180,"LANDMARKID":"1001500000531","LANDMARKCO":"401","LANDMARKNA":"鳳林榮民醫院附設民眾門診部","LANDMARKAD":"1001502","ADDRESS":"花蓮縣鳳林鎮中山路27號","TEL":"03-8762400","COUNTYNAME":"花蓮縣","TOWNNAME":"鳳林鎮","MARKTYPE":"994","Class":"4"},"geometry":{"x":295634.61409999989,"y":2626968.6670999993}},{"attributes":{"OBJECTID":24181,"LANDMARKID":"1001500000532","LANDMARKCO":"401","LANDMARKNA":"鳳林榮民醫院","LANDMARKAD":"1001502","ADDRESS":"花蓮縣鳳林鎮中正路一段2號","TEL":"03-8763331","COUNTYNAME":"花蓮縣","TOWNNAME":"鳳林鎮","MARKTYPE":"994","Class":"4"},"geometry":{"x":294789.91289999988,"y":2624934.4990999997}},{"attributes":{"OBJECTID":24182,"LANDMARKID":"1001500000757","LANDMARKCO":"506","LANDMARKNA":"新光兆豐休閒農場","LANDMARKAD":"1001502","ADDRESS":"花蓮縣鳳林鎮林榮里永福街20號","TEL":"03-8771410","COUNTYNAME":"花蓮縣","TOWNNAME":"鳳林鎮","MARKTYPE":"995","Class":"5"},"geometry":{"x":297725.55520000029,"y":2632424.3561000004}},{"attributes":{"OBJECTID":24183,"LANDMARKID":"1001500000758","LANDMARKCO":"506","LANDMARKNA":"兆豐平林休閒農場","LANDMARKAD":"1001502","ADDRESS":"花蓮縣鳳林鎮林榮里永福街20號","TEL":"03-8771121","COUNTYNAME":"花蓮縣","TOWNNAME":"鳳林鎮","MARKTYPE":"995","Class":"5"},"geometry":{"x":296579.34619999956,"y":2633326.2346000001}},{"attributes":{"OBJECTID":24184,"LANDMARKID":"1001500000696","LANDMARKCO":"408","LANDMARKNA":"郵局-鳳林郵局","LANDMARKAD":"1001502","ADDRESS":"花蓮縣鳳林鎮光復路14號","TEL":"(03)8762-108","COUNTYNAME":"花蓮縣","TOWNNAME":"鳳林鎮","MARKTYPE":"994","Class":"4"},"geometry":{"x":295829.24390000012,"y":2626960.0458000004}},{"attributes":{"OBJECTID":24185,"LANDMARKID":"1001500000697","LANDMARKCO":"408","LANDMARKNA":"郵局-鳳林萬榮郵局","LANDMARKAD":"1001502","ADDRESS":"花蓮縣鳳林鎮長橋路133號","TEL":"(03)8751-234","COUNTYNAME":"花蓮縣","TOWNNAME":"鳳林鎮","MARKTYPE":"994","Class":"4"},"geometry":{"x":292913.56080000009,"y":2623307.5698000006}},{"attributes":{"OBJECTID":24186,"LANDMARKID":"1001500000698","LANDMARKCO":"408","LANDMARKNA":"郵局-鳳林林榮郵局","LANDMARKAD":"1001502","ADDRESS":"花蓮縣鳳林鎮林榮路165號","TEL":"(03)8771-731","COUNTYNAME":"花蓮縣","TOWNNAME":"鳳林鎮","MARKTYPE":"994","Class":"4"},"geometry":{"x":296003.49629999977,"y":2633192.75}},{"attributes":{"OBJECTID":24187,"LANDMARKID":"1001500000723","LANDMARKCO":"409","LANDMARKNA":"鳳榮地區農會","LANDMARKAD":"1001502","ADDRESS":"花蓮縣鳳林鎮中正路二段172號","TEL":"03-876116","COUNTYNAME":"花蓮縣","TOWNNAME":"鳳林鎮","MARKTYPE":"994","Class":"4"},"geometry":{"x":295843.76699999999,"y":2627229.8225999996}},{"attributes":{"OBJECTID":24188,"LANDMARKID":"1001500000572","LANDMARKCO":"404","LANDMARKNA":"台灣省自來水鳳林營運所","LANDMARKAD":"1001502","ADDRESS":"花蓮縣鳳林鎮中華路25號","TEL":" ","COUNTYNAME":"花蓮縣","TOWNNAME":"鳳林鎮","MARKTYPE":"994","Class":"4"},"geometry":{"x":295901.70799999963,"y":2626929.9878000002}},{"attributes":{"OBJECTID":24189,"LANDMARKID":"1001500000672","LANDMARKCO":"406","LANDMARKNA":"林榮森林公園","LANDMARKAD":"1001502","ADDRESS":"花蓮縣鳳林鎮","TEL":" ","COUNTYNAME":"花蓮縣","TOWNNAME":"鳳林鎮","MARKTYPE":"994","Class":"4"},"geometry":{"x":295784.09130000044,"y":2633687.4163000006}},{"attributes":{"OBJECTID":24190,"LANDMARKID":"1001500000673","LANDMARKCO":"406","LANDMARKNA":"鳳林溪畔公園","LANDMARKAD":"1001502","ADDRESS":"花蓮縣鳳林鎮","TEL":" ","COUNTYNAME":"花蓮縣","TOWNNAME":"鳳林鎮","MARKTYPE":"994","Class":"4"},"geometry":{"x":296976.87980000023,"y":2628881.7795000002}},{"attributes":{"OBJECTID":24191,"LANDMARKID":"1001500000674","LANDMARKCO":"406","LANDMARKNA":"鳳林公路公園","LANDMARKAD":"1001502","ADDRESS":"花蓮縣鳳林鎮","TEL":" ","COUNTYNAME":"花蓮縣","TOWNNAME":"鳳林鎮","MARKTYPE":"994","Class":"4"},"geometry":{"x":296398.31520000007,"y":2628616.8531999998}},{"attributes":{"OBJECTID":24192,"LANDMARKID":"1001500000675","LANDMARKCO":"406","LANDMARKNA":"福德公園","LANDMARKAD":"1001502","ADDRESS":"花蓮縣鳳林鎮","TEL":" ","COUNTYNAME":"花蓮縣","TOWNNAME":"鳳林鎮","MARKTYPE":"994","Class":"4"},"geometry":{"x":295829.42239999957,"y":2627329.8162999991}},{"attributes":{"OBJECTID":24193,"LANDMARKID":"1001500000676","LANDMARKCO":"406","LANDMARKNA":"鳳林公園","LANDMARKAD":"1001502","ADDRESS":"花蓮縣鳳林鎮","TEL":" ","COUNTYNAME":"花蓮縣","TOWNNAME":"鳳林鎮","MARKTYPE":"994","Class":"4"},"geometry":{"x":296036.07720000017,"y":2627114.7568999995}},{"attributes":{"OBJECTID":24194,"LANDMARKID":"1001500000677","LANDMARKCO":"406","LANDMARKNA":"石神公園","LANDMARKAD":"1001502","ADDRESS":"花蓮縣鳳林鎮","TEL":" ","COUNTYNAME":"花蓮縣","TOWNNAME":"鳳林鎮","MARKTYPE":"994","Class":"4"},"geometry":{"x":295471.75760000013,"y":2627097.4280999992}},{"attributes":{"OBJECTID":24195,"LANDMARKID":"1001500000678","LANDMARKCO":"406","LANDMARKNA":"第一兒童公園","LANDMARKAD":"1001502","ADDRESS":"花蓮縣鳳林鎮","TEL":" ","COUNTYNAME":"花蓮縣","TOWNNAME":"鳳林鎮","MARKTYPE":"994","Class":"4"},"geometry":{"x":295644.28689999972,"y":2626619.2815000005}},{"attributes":{"OBJECTID":24196,"LANDMARKID":"1001500000679","LANDMARKCO":"406","LANDMARKNA":"箭瑛公園","LANDMARKAD":"1001502","ADDRESS":"花蓮縣鳳林鎮","TEL":" ","COUNTYNAME":"花蓮縣","TOWNNAME":"鳳林鎮","MARKTYPE":"994","Class":"4"},"geometry":{"x":300081.74619999994,"y":2625379.5142999999}},{"attributes":{"OBJECTID":24197,"LANDMARKID":"1001500000576","LANDMARKCO":"405","LANDMARKNA":"台塑加油站-鳳北站(台塑)","LANDMARKAD":"1001502","ADDRESS":"花蓮縣鳳林鎮南平里自強路188號","TEL":"038-763446","COUNTYNAME":"花蓮縣","TOWNNAME":"鳳林鎮","MARKTYPE":"994","Class":"4"},"geometry":{"x":296650.36930000037,"y":2630191.5909000002}},{"attributes":{"OBJECTID":24198,"LANDMARKID":"1001500000577","LANDMARKCO":"405","LANDMARKNA":"台塑加油站-鳳南站(台塑)","LANDMARKAD":"1001502","ADDRESS":"花蓮縣鳳林鎮中正路一段199號","TEL":"038-763446","COUNTYNAME":"花蓮縣","TOWNNAME":"鳳林鎮","MARKTYPE":"994","Class":"4"},"geometry":{"x":295377.35969999991,"y":2626089.5832000002}},{"attributes":{"OBJECTID":24199,"LANDMARKID":"1001500000230","LANDMARKCO":"108","LANDMARKNA":"花蓮縣鳳林鎮公所","LANDMARKAD":"1001502","ADDRESS":"花蓮縣鳳林鎮光華路124號","TEL":"03-8762771","COUNTYNAME":"花蓮縣","TOWNNAME":"鳳林鎮","MARKTYPE":"991","Class":"1"},"geometry":{"x":296045.08050000016,"y":2626819.4659000002}},{"attributes":{"OBJECTID":24200,"LANDMARKID":"1001500000063","LANDMARKCO":"103","LANDMARKNA":"花蓮縣鳳林鎮鎮民代表會","LANDMARKAD":"1001502","ADDRESS":"花蓮縣鳳林鎮大同街19號","TEL":"03-8762057","COUNTYNAME":"花蓮縣","TOWNNAME":"鳳林鎮","MARKTYPE":"991","Class":"1"},"geometry":{"x":295890.65130000003,"y":2626999.9551999997}}]}