{"displayFieldName":"COUNTYNAME","fieldAliases":{"OBJECTID":"OBJECTID","LANDMARKID":"LANDMARKID","LANDMARKCO":"LANDMARKCO","LANDMARKNA":"LANDMARKNA","LANDMARKAD":"LANDMARKAD","ADDRESS":"ADDRESS","TEL":"TEL","COUNTYNAME":"COUNTYNAME","TOWNNAME":"TOWNNAME","MARKTYPE":"MARKTYPE","Class":"Class"},"geometryType":"esriGeometryPoint","spatialReference":{"wkid":102443},"fields":[{"name":"OBJECTID","type":"esriFieldTypeOID","alias":"OBJECTID"},{"name":"LANDMARKID","type":"esriFieldTypeString","alias":"LANDMARKID","length":15},{"name":"LANDMARKCO","type":"esriFieldTypeString","alias":"LANDMARKCO","length":15},{"name":"LANDMARKNA","type":"esriFieldTypeString","alias":"LANDMARKNA","length":50},{"name":"LANDMARKAD","type":"esriFieldTypeString","alias":"LANDMARKAD","length":15},{"name":"ADDRESS","type":"esriFieldTypeString","alias":"ADDRESS","length":56},{"name":"TEL","type":"esriFieldTypeString","alias":"TEL","length":36},{"name":"COUNTYNAME","type":"esriFieldTypeString","alias":"COUNTYNAME","length":15},{"name":"TOWNNAME","type":"esriFieldTypeString","alias":"TOWNNAME","length":13},{"name":"MARKTYPE","type":"esriFieldTypeString","alias":"MARKTYPE","length":12},{"name":"Class","type":"esriFieldTypeString","alias":"Class","length":5}],"features":[{"attributes":{"OBJECTID":18801,"LANDMARKID":"1001700000091","LANDMARKCO":"107","LANDMARKNA":"基隆市警察局八斗子派出所","LANDMARKAD":"1001701","ADDRESS":"基隆市環港街98號","TEL":"02-24692077","COUNTYNAME":"基隆市","TOWNNAME":"中正區","MARKTYPE":"991","Class":"1"},"geometry":{"x":329980.46609999985,"y":2781559.8300000001}},{"attributes":{"OBJECTID":18802,"LANDMARKID":"1001700000092","LANDMARKCO":"107","LANDMARKNA":"基隆市警察局和一路派出所","LANDMARKAD":"1001701","ADDRESS":"基隆市中正區和一路146號","TEL":"02-24622752","COUNTYNAME":"基隆市","TOWNNAME":"中正區","MARKTYPE":"991","Class":"1"},"geometry":{"x":327127.7396999998,"y":2783169.3568999991}},{"attributes":{"OBJECTID":18803,"LANDMARKID":"1001700000093","LANDMARKCO":"107","LANDMARKNA":"基隆市警察局安瀾橋派出所","LANDMARKAD":"1001701","ADDRESS":"基隆市中正區中正路320號","TEL":"02-24622435","COUNTYNAME":"基隆市","TOWNNAME":"中正區","MARKTYPE":"991","Class":"1"},"geometry":{"x":326722.06089999992,"y":2781772.2803000007}},{"attributes":{"OBJECTID":18804,"LANDMARKID":"1001700000094","LANDMARKCO":"107","LANDMARKNA":"基隆市警察局正濱派出所","LANDMARKAD":"1001701","ADDRESS":"基隆市中正路670號","TEL":"02-24621889","COUNTYNAME":"基隆市","TOWNNAME":"中正區","MARKTYPE":"991","Class":"1"},"geometry":{"x":327395.26130000036,"y":2782761.9360000007}},{"attributes":{"OBJECTID":18805,"LANDMARKID":"1001700000035","LANDMARKCO":"103","LANDMARKNA":"基隆市政府民政處","LANDMARKAD":"1001701","ADDRESS":"基隆市中正區義一路1號","TEL":"02-24201122","COUNTYNAME":"基隆市","TOWNNAME":"中正區","MARKTYPE":"991","Class":"1"},"geometry":{"x":325075.11039999966,"y":2780572.9583999999}},{"attributes":{"OBJECTID":18806,"LANDMARKID":"1001700000052","LANDMARKCO":"106","LANDMARKNA":"基隆市中正區戶政事務所","LANDMARKAD":"1001701","ADDRESS":"基隆市中正區中正路674號","TEL":"02-24634911","COUNTYNAME":"基隆市","TOWNNAME":"中正區","MARKTYPE":"991","Class":"1"},"geometry":{"x":327407.18169999961,"y":2782780.8681000005}},{"attributes":{"OBJECTID":18807,"LANDMARKID":"1001700000048","LANDMARKCO":"105","LANDMARKNA":"基隆市政府地政局","LANDMARKAD":"1001701","ADDRESS":"基隆市中正區義一路1號","TEL":"02-24201122#9","COUNTYNAME":"基隆市","TOWNNAME":"中正區","MARKTYPE":"991","Class":"1"},"geometry":{"x":325075.11039999966,"y":2780572.9583999999}},{"attributes":{"OBJECTID":18808,"LANDMARKID":"1001700000036","LANDMARKCO":"103","LANDMARKNA":"基隆市政府","LANDMARKAD":"1001701","ADDRESS":"基隆市中正區義一路1號","TEL":"02-24201122","COUNTYNAME":"基隆市","TOWNNAME":"中正區","MARKTYPE":"991","Class":"1"},"geometry":{"x":325075.11039999966,"y":2780572.9583999999}},{"attributes":{"OBJECTID":18809,"LANDMARKID":"1001700000008","LANDMARKCO":"101","LANDMARKNA":"調查局基隆市調查站","LANDMARKAD":"1001701","ADDRESS":"基隆市信義區崇法街220號","TEL":"02-24663030","COUNTYNAME":"基隆市","TOWNNAME":"中正區","MARKTYPE":"991","Class":"1"},"geometry":{"x":327462.65380000044,"y":2781012.1122999992}},{"attributes":{"OBJECTID":18810,"LANDMARKID":"1001700000009","LANDMARKCO":"101","LANDMARKNA":"調查局航業海員調查處","LANDMARKAD":"1001701","ADDRESS":"基隆市中正區中正路303號","TEL":"02-24633633","COUNTYNAME":"基隆市","TOWNNAME":"中正區","MARKTYPE":"991","Class":"1"},"geometry":{"x":326751.55229999963,"y":2782190.682}},{"attributes":{"OBJECTID":18811,"LANDMARKID":"1001700000010","LANDMARKCO":"101","LANDMARKNA":"職業訓練局基隆就業服務站","LANDMARKAD":"1001701","ADDRESS":"基隆市中正區中正路102號","TEL":"02-24225263","COUNTYNAME":"基隆市","TOWNNAME":"中正區","MARKTYPE":"991","Class":"1"},"geometry":{"x":325559.0820000004,"y":2781212.0581999999}},{"attributes":{"OBJECTID":18812,"LANDMARKID":"1001700000011","LANDMARKCO":"101","LANDMARKNA":"中央健康保險局台北分局","LANDMARKAD":"1001701","ADDRESS":"基隆市中正區義一路95號","TEL":"02-24282799","COUNTYNAME":"基隆市","TOWNNAME":"中正區","MARKTYPE":"991","Class":"1"},"geometry":{"x":325306.0318,"y":2780939.4224999994}},{"attributes":{"OBJECTID":18813,"LANDMARKID":"1001700000012","LANDMARKCO":"101","LANDMARKNA":"農業委員會動植物防疫檢疫局","LANDMARKAD":"1001701","ADDRESS":"基隆市中正區義二路88號","TEL":"02-24247363","COUNTYNAME":"基隆市","TOWNNAME":"中正區","MARKTYPE":"991","Class":"1"},"geometry":{"x":325255.3236999996,"y":2780639.4626000002}},{"attributes":{"OBJECTID":18814,"LANDMARKID":"1001700000013","LANDMARKCO":"101","LANDMARKNA":"勞工保險局基隆辦事處","LANDMARKAD":"1001701","ADDRESS":"基隆市中正區正義路40號","TEL":"02-24267796","COUNTYNAME":"基隆市","TOWNNAME":"中正區","MARKTYPE":"991","Class":"1"},"geometry":{"x":325416.59769999981,"y":2780766.6085999999}},{"attributes":{"OBJECTID":18815,"LANDMARKID":"1001700000014","LANDMARKCO":"101","LANDMARKNA":"交通部基隆港務局","LANDMARKAD":"1001701","ADDRESS":"基隆市中正區中正路1號","TEL":"02-24206100","COUNTYNAME":"基隆市","TOWNNAME":"中正區","MARKTYPE":"991","Class":"1"},"geometry":{"x":324956.99980000034,"y":2780585.5669999998}},{"attributes":{"OBJECTID":18816,"LANDMARKID":"1001700000015","LANDMARKCO":"101","LANDMARKNA":"北區職業訓練中心基隆訓練場","LANDMARKAD":"1001701","ADDRESS":"基隆市和平島平一路21之5號","TEL":"02-24636805","COUNTYNAME":"基隆市","TOWNNAME":"中正區","MARKTYPE":"991","Class":"1"},"geometry":{"x":327022.98830000032,"y":2783399.9410999995}},{"attributes":{"OBJECTID":18817,"LANDMARKID":"1001700000184","LANDMARKCO":"205","LANDMARKNA":"春禾童玩博物館","LANDMARKAD":"1001701","ADDRESS":"基隆市中正區中正路551號","TEL":"02-24625331","COUNTYNAME":"基隆市","TOWNNAME":"中正區","MARKTYPE":"992","Class":"2"},"geometry":{"x":327626.00889999978,"y":2782863.0336000007}},{"attributes":{"OBJECTID":18818,"LANDMARKID":"1001700000186","LANDMARKCO":"207","LANDMARKNA":"民間美術號海上美術館","LANDMARKAD":"1001701","ADDRESS":"基隆市中正路549號右側碼頭","TEL":" ","COUNTYNAME":"基隆市","TOWNNAME":"中正區","MARKTYPE":"992","Class":"2"},"geometry":{"x":327395.48450000025,"y":2782815.6333000008}},{"attributes":{"OBJECTID":18819,"LANDMARKID":"1001700000185","LANDMARKCO":"206","LANDMARKNA":"基隆市立文化中心","LANDMARKAD":"1001701","ADDRESS":"基隆市信一路181號","TEL":" ","COUNTYNAME":"基隆市","TOWNNAME":"中正區","MARKTYPE":"992","Class":"2"},"geometry":{"x":325028.36500000022,"y":2780523.1711999997}},{"attributes":{"OBJECTID":18820,"LANDMARKID":"1001700000178","LANDMARKCO":"204","LANDMARKNA":"基隆市立圖書館","LANDMARKAD":"1001701","ADDRESS":"基隆市中正區信一路181號","TEL":" ","COUNTYNAME":"基隆市","TOWNNAME":"中正區","MARKTYPE":"992","Class":"2"},"geometry":{"x":324995.67559999973,"y":2780554.0091999993}},{"attributes":{"OBJECTID":18821,"LANDMARKID":"1001700000179","LANDMARKCO":"204","LANDMARKNA":"基隆市立圖書館中正分館","LANDMARKAD":"1001701","ADDRESS":"基隆市中正區祥豐街66號2樓","TEL":" ","COUNTYNAME":"基隆市","TOWNNAME":"中正區","MARKTYPE":"992","Class":"2"},"geometry":{"x":327424.07890000008,"y":2782806.4261000007}},{"attributes":{"OBJECTID":18822,"LANDMARKID":"1001700000107","LANDMARKCO":"202","LANDMARKNA":"私立二信高中","LANDMARKAD":"1001701","ADDRESS":"基隆市中正區立德路243號","TEL":"02-24623131","COUNTYNAME":"基隆市","TOWNNAME":"中正區","MARKTYPE":"992","Class":"2"},"geometry":{"x":327628.74490000028,"y":2781930.2302000001}},{"attributes":{"OBJECTID":18823,"LANDMARKID":"1001700000108","LANDMARKCO":"202","LANDMARKNA":"國立基隆海事","LANDMARKAD":"1001701","ADDRESS":"基隆市中正區祥豐街246號","TEL":"02-24633655","COUNTYNAME":"基隆市","TOWNNAME":"中正區","MARKTYPE":"992","Class":"2"},"geometry":{"x":327784.24880000018,"y":2782398.3211000003}},{"attributes":{"OBJECTID":18824,"LANDMARKID":"1001700000109","LANDMARKCO":"202","LANDMARKNA":"私立二信高中附設國中部","LANDMARKAD":"1001701","ADDRESS":"基隆市中正區立德路243號","TEL":"02-24623131","COUNTYNAME":"基隆市","TOWNNAME":"中正區","MARKTYPE":"992","Class":"2"},"geometry":{"x":327628.74490000028,"y":2781930.2302000001}},{"attributes":{"OBJECTID":18825,"LANDMARKID":"1001700000155","LANDMARKCO":"203","LANDMARKNA":"市立中正國中","LANDMARKAD":"1001701","ADDRESS":"基隆市中正區中船路36巷59號","TEL":"02-24282191","COUNTYNAME":"基隆市","TOWNNAME":"中正區","MARKTYPE":"992","Class":"2"},"geometry":{"x":326002.17300000042,"y":2780956.4638999999}},{"attributes":{"OBJECTID":18826,"LANDMARKID":"1001700000156","LANDMARKCO":"203","LANDMARKNA":"市立正濱國中","LANDMARKAD":"1001701","ADDRESS":"基隆市中正區正榮街88號","TEL":"02-24631490","COUNTYNAME":"基隆市","TOWNNAME":"中正區","MARKTYPE":"992","Class":"2"},"geometry":{"x":326922.5449000001,"y":2782194.4655000009}},{"attributes":{"OBJECTID":18827,"LANDMARKID":"1001700000157","LANDMARKCO":"203","LANDMARKNA":"市立八斗國中","LANDMARKAD":"1001701","ADDRESS":"基隆市中正區新豐街100號","TEL":"02-24692366","COUNTYNAME":"基隆市","TOWNNAME":"中正區","MARKTYPE":"992","Class":"2"},"geometry":{"x":329506.18259999994,"y":2781525.0845999997}},{"attributes":{"OBJECTID":18828,"LANDMARKID":"1001700000158","LANDMARKCO":"203","LANDMARKNA":"市立忠孝國小","LANDMARKAD":"1001701","ADDRESS":"基隆市中正區中正路656巷150號","TEL":"02-24622934","COUNTYNAME":"基隆市","TOWNNAME":"中正區","MARKTYPE":"992","Class":"2"},"geometry":{"x":327305.49880000018,"y":2782490.7068000007}},{"attributes":{"OBJECTID":18829,"LANDMARKID":"1001700000159","LANDMARKCO":"203","LANDMARKNA":"市立中正國小","LANDMARKAD":"1001701","ADDRESS":"基隆市中正區中船路36巷4號","TEL":"02-24223064","COUNTYNAME":"基隆市","TOWNNAME":"中正區","MARKTYPE":"992","Class":"2"},"geometry":{"x":325740.15170000028,"y":2781019.1151999999}},{"attributes":{"OBJECTID":18830,"LANDMARKID":"1001700000160","LANDMARKCO":"203","LANDMARKNA":"市立八斗國小","LANDMARKAD":"1001701","ADDRESS":"基隆市中正區北寧路396巷52號","TEL":"02-24693391","COUNTYNAME":"基隆市","TOWNNAME":"中正區","MARKTYPE":"992","Class":"2"},"geometry":{"x":330385.57909999974,"y":2781310.7519000005}},{"attributes":{"OBJECTID":18831,"LANDMARKID":"1001700000161","LANDMARKCO":"203","LANDMARKNA":"市立和平國小","LANDMARKAD":"1001701","ADDRESS":"基隆市中正區和一路84巷26號","TEL":"02-24622106","COUNTYNAME":"基隆市","TOWNNAME":"中正區","MARKTYPE":"992","Class":"2"},"geometry":{"x":327235.76080000028,"y":2783238.4833000004}},{"attributes":{"OBJECTID":18832,"LANDMARKID":"1001700000162","LANDMARKCO":"203","LANDMARKNA":"市立正濱國小","LANDMARKAD":"1001701","ADDRESS":"基隆市中正區祥豐街216號","TEL":"02-24635551","COUNTYNAME":"基隆市","TOWNNAME":"中正區","MARKTYPE":"992","Class":"2"},"geometry":{"x":327678.73110000044,"y":2782213.4345999993}},{"attributes":{"OBJECTID":18833,"LANDMARKID":"1001700000102","LANDMARKCO":"201","LANDMARKNA":"國立台灣海洋大學","LANDMARKAD":"1001701","ADDRESS":"基隆市中正區北寧路2號","TEL":"02-24622192","COUNTYNAME":"基隆市","TOWNNAME":"中正區","MARKTYPE":"992","Class":"2"},"geometry":{"x":327895.0831000004,"y":2782711.2775999997}},{"attributes":{"OBJECTID":18834,"LANDMARKID":"1001700000246","LANDMARKCO":"305","LANDMARKNA":"基隆外港","LANDMARKAD":"1001701","ADDRESS":"基隆市中正區","TEL":" ","COUNTYNAME":"基隆市","TOWNNAME":"中正區","MARKTYPE":"993","Class":"305"},"geometry":{"x":326628.03249999974,"y":2783102.5252}},{"attributes":{"OBJECTID":18835,"LANDMARKID":"1001700000247","LANDMARKCO":"305","LANDMARKNA":"基隆港","LANDMARKAD":"1001701","ADDRESS":"基隆市中正區","TEL":" ","COUNTYNAME":"基隆市","TOWNNAME":"中正區","MARKTYPE":"993","Class":"305"},"geometry":{"x":325822.01290000044,"y":2781428.1157000009}},{"attributes":{"OBJECTID":18836,"LANDMARKID":"1001700000248","LANDMARKCO":"305","LANDMARKNA":"八斗子漁港","LANDMARKAD":"1001701","ADDRESS":"基隆市中正區","TEL":" ","COUNTYNAME":"基隆市","TOWNNAME":"中正區","MARKTYPE":"993","Class":"305"},"geometry":{"x":329612.07720000017,"y":2782022.1943999995}},{"attributes":{"OBJECTID":18837,"LANDMARKID":"1001700000249","LANDMARKCO":"305","LANDMARKNA":"長潭里漁港","LANDMARKAD":"1001701","ADDRESS":"基隆市中正區","TEL":" ","COUNTYNAME":"基隆市","TOWNNAME":"中正區","MARKTYPE":"993","Class":"305"},"geometry":{"x":330764.71129999962,"y":2781569.2629000004}},{"attributes":{"OBJECTID":18838,"LANDMARKID":"1001700000250","LANDMARKCO":"305","LANDMARKNA":"望海巷漁港","LANDMARKAD":"1001701","ADDRESS":"基隆市中正區","TEL":" ","COUNTYNAME":"基隆市","TOWNNAME":"中正區","MARKTYPE":"993","Class":"305"},"geometry":{"x":330983.84539999999,"y":2781278.1776999999}},{"attributes":{"OBJECTID":18839,"LANDMARKID":"1001700000251","LANDMARKCO":"305","LANDMARKNA":"碧砂漁港","LANDMARKAD":"1001701","ADDRESS":"基隆市中正區","TEL":" ","COUNTYNAME":"基隆市","TOWNNAME":"中正區","MARKTYPE":"993","Class":"305"},"geometry":{"x":329273.87660000008,"y":2782285.3608999997}},{"attributes":{"OBJECTID":18840,"LANDMARKID":"1001700000252","LANDMARKCO":"305","LANDMARKNA":"八尺門港","LANDMARKAD":"1001701","ADDRESS":"基隆市中正區","TEL":" ","COUNTYNAME":"基隆市","TOWNNAME":"中正區","MARKTYPE":"993","Class":"305"},"geometry":{"x":327807.39230000041,"y":2783323.1861000005}},{"attributes":{"OBJECTID":18841,"LANDMARKID":"1001700000210","LANDMARKCO":"303","LANDMARKNA":"碧沙漁港停車場","LANDMARKAD":"1001701","ADDRESS":"基隆市中正區北寧路","TEL":" ","COUNTYNAME":"基隆市","TOWNNAME":"中正區","MARKTYPE":"993","Class":"303"},"geometry":{"x":329709.30460000038,"y":2781903.1423000004}},{"attributes":{"OBJECTID":18842,"LANDMARKID":"1001700000211","LANDMARKCO":"303","LANDMARKNA":"仁正里停車場","LANDMARKAD":"1001701","ADDRESS":"基隆市中正區中正二路105巷","TEL":" ","COUNTYNAME":"基隆市","TOWNNAME":"中正區","MARKTYPE":"993","Class":"303"},"geometry":{"x":327051.7193,"y":2783362.1119999997}},{"attributes":{"OBJECTID":18843,"LANDMARKID":"1001700000200","LANDMARKCO":"302","LANDMARKNA":"基隆市公共汽車望海巷分站","LANDMARKAD":"1001701","ADDRESS":"基隆市中正區北寧路395號","TEL":" ","COUNTYNAME":"基隆市","TOWNNAME":"中正區","MARKTYPE":"993","Class":"302"},"geometry":{"x":330871.5915000001,"y":2781100.3030999992}},{"attributes":{"OBJECTID":18844,"LANDMARKID":"1001700000201","LANDMARKCO":"302","LANDMARKNA":"基隆市公共汽車管理處","LANDMARKAD":"1001701","ADDRESS":"基隆市中山區中正路103號","TEL":" ","COUNTYNAME":"基隆市","TOWNNAME":"中正區","MARKTYPE":"993","Class":"302"},"geometry":{"x":326432.2265999997,"y":2781601.6391000003}},{"attributes":{"OBJECTID":18845,"LANDMARKID":"1001700000202","LANDMARKCO":"303","LANDMARKNA":"土銀倉庫停車場","LANDMARKAD":"1001701","ADDRESS":"基隆市中正區信二路","TEL":" ","COUNTYNAME":"基隆市","TOWNNAME":"中正區","MARKTYPE":"993","Class":"303"},"geometry":{"x":325145.68759999983,"y":2780613.0067999996}},{"attributes":{"OBJECTID":18846,"LANDMARKID":"1001700000203","LANDMARKCO":"303","LANDMARKNA":"和平公園停車場","LANDMARKAD":"1001701","ADDRESS":"基隆市中正區和平島","TEL":"02-24693606","COUNTYNAME":"基隆市","TOWNNAME":"中正區","MARKTYPE":"993","Class":"303"},"geometry":{"x":326899.54609999992,"y":2783824.2489999998}},{"attributes":{"OBJECTID":18847,"LANDMARKID":"1001700000204","LANDMARKCO":"303","LANDMARKNA":"碧砂海洋悠遊館停車場","LANDMARKAD":"1001701","ADDRESS":"基隆市中正區北寧路69之1號","TEL":"02-24695213","COUNTYNAME":"基隆市","TOWNNAME":"中正區","MARKTYPE":"993","Class":"303"},"geometry":{"x":329051.56199999992,"y":2782411.6741000004}},{"attributes":{"OBJECTID":18848,"LANDMARKID":"1001700000205","LANDMARKCO":"303","LANDMARKNA":"碧沙漁市停車場","LANDMARKAD":"1001701","ADDRESS":"基隆市中正區北寧路","TEL":" ","COUNTYNAME":"基隆市","TOWNNAME":"中正區","MARKTYPE":"993","Class":"303"},"geometry":{"x":329150.14279999956,"y":2782205.7902000006}},{"attributes":{"OBJECTID":18849,"LANDMARKID":"1001700000206","LANDMARKCO":"303","LANDMARKNA":"信二路立體停車場","LANDMARKAD":"1001701","ADDRESS":"基隆市中正區信二路299號","TEL":" ","COUNTYNAME":"基隆市","TOWNNAME":"中正區","MARKTYPE":"993","Class":"303"},"geometry":{"x":325228.67679999955,"y":2780486.5361000001}},{"attributes":{"OBJECTID":18850,"LANDMARKID":"1001700000207","LANDMARKCO":"303","LANDMARKNA":"中正公園停車場","LANDMARKAD":"1001701","ADDRESS":"基隆市中正區壽山路","TEL":" ","COUNTYNAME":"基隆市","TOWNNAME":"中正區","MARKTYPE":"993","Class":"303"},"geometry":{"x":325889.80659999978,"y":2780853.5475999992}},{"attributes":{"OBJECTID":18851,"LANDMARKID":"1001700000208","LANDMARKCO":"303","LANDMARKNA":"應安停車場-基隆場","LANDMARKAD":"1001701","ADDRESS":"基隆市信ㄧ路177號","TEL":"02-24211065","COUNTYNAME":"基隆市","TOWNNAME":"中正區","MARKTYPE":"993","Class":"303"},"geometry":{"x":325083.27909999993,"y":2780472.3464000002}},{"attributes":{"OBJECTID":18852,"LANDMARKID":"1001700000209","LANDMARKCO":"303","LANDMARKNA":"中興嘟嘟房停車場-基隆廟口站","LANDMARKAD":"1001701","ADDRESS":"基隆市信一路177號B2-B7","TEL":"02-24261471","COUNTYNAME":"基隆市","TOWNNAME":"中正區","MARKTYPE":"993","Class":"303"},"geometry":{"x":325096.28729999997,"y":2780476.7771000005}},{"attributes":{"OBJECTID":18853,"LANDMARKID":"1001700000278","LANDMARKCO":"402","LANDMARKNA":"威寶電信-基隆義一直營服務中心","LANDMARKAD":"1001701","ADDRESS":"基隆市中正區義一路42號","TEL":" ","COUNTYNAME":"基隆市","TOWNNAME":"中正區","MARKTYPE":"994","Class":"4"},"geometry":{"x":325193.3097000001,"y":2780682.3056000005}},{"attributes":{"OBJECTID":18854,"LANDMARKID":"1001700000397","LANDMARKCO":"603","LANDMARKNA":"藍美大旅社","LANDMARKAD":"1001701","ADDRESS":"基隆市中正區信三路20","TEL":"22號1-6樓","COUNTYNAME":"基隆市","TOWNNAME":"中正區","MARKTYPE":"996","Class":"6"},"geometry":{"x":325154.47109999973,"y":2780706.0705999993}},{"attributes":{"OBJECTID":18855,"LANDMARKID":"1001700000398","LANDMARKCO":"603","LANDMARKNA":"老爺大旅社","LANDMARKAD":"1001701","ADDRESS":"基隆市中正區義一路71號1-10樓","TEL":"02-24260308","COUNTYNAME":"基隆市","TOWNNAME":"中正區","MARKTYPE":"996","Class":"6"},"geometry":{"x":325255.55269999988,"y":2780852.9518999998}},{"attributes":{"OBJECTID":18856,"LANDMARKID":"1001700000399","LANDMARKCO":"603","LANDMARKNA":"柯達大飯店","LANDMARKAD":"1001701","ADDRESS":"基隆市中正區義一路7號1-8樓","TEL":"02-24230111-2","COUNTYNAME":"基隆市","TOWNNAME":"中正區","MARKTYPE":"996","Class":"6"},"geometry":{"x":325132.11160000041,"y":2780646.6436999999}},{"attributes":{"OBJECTID":18857,"LANDMARKID":"1001700000400","LANDMARKCO":"603","LANDMARKNA":"秀山莊大旅社","LANDMARKAD":"1001701","ADDRESS":"基隆市中正區信三路12巷9號3-4樓","TEL":"02-24287777","COUNTYNAME":"基隆市","TOWNNAME":"中正區","MARKTYPE":"996","Class":"6"},"geometry":{"x":325250.53569999989,"y":2780722.9890999999}},{"attributes":{"OBJECTID":18858,"LANDMARKID":"1001700000401","LANDMARKCO":"603","LANDMARKNA":"蔚藍海景旅店","LANDMARKAD":"1001701","ADDRESS":"基隆市中正區北寧路250-6號","TEL":"02-24692169","COUNTYNAME":"基隆市","TOWNNAME":"中正區","MARKTYPE":"996","Class":"6"},"geometry":{"x":328995.07409999985,"y":2782190.9127999991}},{"attributes":{"OBJECTID":18859,"LANDMARKID":"1001700000402","LANDMARKCO":"603","LANDMARKNA":"阿樂哈大飯店","LANDMARKAD":"1001701","ADDRESS":"基隆市中正區信二路292-1號1、4、6-8F","TEL":"02-24227322-8","COUNTYNAME":"基隆市","TOWNNAME":"中正區","MARKTYPE":"996","Class":"6"},"geometry":{"x":325168.63030000031,"y":2780559.4419999998}},{"attributes":{"OBJECTID":18860,"LANDMARKID":"1001700000403","LANDMARKCO":"603","LANDMARKNA":"北都大飯店","LANDMARKAD":"1001701","ADDRESS":"基隆市中正區信二路319號","TEL":"02-24227899","COUNTYNAME":"基隆市","TOWNNAME":"中正區","MARKTYPE":"996","Class":"6"},"geometry":{"x":325143.48720000032,"y":2780533.5809000004}},{"attributes":{"OBJECTID":18861,"LANDMARKID":"1001700000396","LANDMARKCO":"602","LANDMARKNA":"長榮桂冠酒店(基隆)","LANDMARKAD":"1001701","ADDRESS":"基隆市中正區中正路62號之1","TEL":"02-2427-9988","COUNTYNAME":"基隆市","TOWNNAME":"中正區","MARKTYPE":"996","Class":"6"},"geometry":{"x":325215.82459999993,"y":2780902.1715999991}},{"attributes":{"OBJECTID":18862,"LANDMARKID":"1001700000383","LANDMARKCO":"503","LANDMARKNA":"和平島公園","LANDMARKAD":"1001701","ADDRESS":"基隆市中正區平一路360號","TEL":" ","COUNTYNAME":"基隆市","TOWNNAME":"中正區","MARKTYPE":"995","Class":"5"},"geometry":{"x":327006.9402999999,"y":2783807.7708000001}},{"attributes":{"OBJECTID":18863,"LANDMARKID":"1001700000330","LANDMARKCO":"405","LANDMARKNA":"中油加油站-深澳站","LANDMARKAD":"1001707","ADDRESS":"基隆市信義區孝深里孝東路63號","TEL":"02-24659668","COUNTYNAME":"基隆市","TOWNNAME":"信義區","MARKTYPE":"994","Class":"4"},"geometry":{"x":328578.87430000026,"y":2780253.7282999996}},{"attributes":{"OBJECTID":18864,"LANDMARKID":"1001700000331","LANDMARKCO":"405","LANDMARKNA":"中油加油站-東明路站(中油直營)","LANDMARKAD":"1001707","ADDRESS":"基隆市信義區東明路138號","TEL":"02-24660611","COUNTYNAME":"基隆市","TOWNNAME":"信義區","MARKTYPE":"994","Class":"4"},"geometry":{"x":326517.17100000009,"y":2780165.8696999997}},{"attributes":{"OBJECTID":18865,"LANDMARKID":"1001700000276","LANDMARKCO":"401","LANDMARKNA":"基隆市立醫院","LANDMARKAD":"1001707","ADDRESS":"基隆市信義區東信路282號","TEL":"02-4652141","COUNTYNAME":"基隆市","TOWNNAME":"信義區","MARKTYPE":"994","Class":"4"},"geometry":{"x":326843.15460000001,"y":2780351.4653999992}},{"attributes":{"OBJECTID":18866,"LANDMARKID":"1001700000277","LANDMARKCO":"401","LANDMARKNA":"行政院衛生署基隆醫院","LANDMARKAD":"1001707","ADDRESS":"基隆市信義區信二路268號","TEL":"02-24292525","COUNTYNAME":"基隆市","TOWNNAME":"信義區","MARKTYPE":"994","Class":"4"},"geometry":{"x":325461.66490000021,"y":2780439.3732999992}},{"attributes":{"OBJECTID":18867,"LANDMARKID":"1001700000386","LANDMARKCO":"507","LANDMARKNA":"槓子寮砲台","LANDMARKAD":"1001707","ADDRESS":"基隆市信義區東光路","TEL":" ","COUNTYNAME":"基隆市","TOWNNAME":"信義區","MARKTYPE":"995","Class":"5"},"geometry":{"x":328837.80759999994,"y":2781881.0817000009}},{"attributes":{"OBJECTID":18868,"LANDMARKID":"1001700000355","LANDMARKCO":"408","LANDMARKNA":"郵局-基隆信義郵局","LANDMARKAD":"1001707","ADDRESS":"基隆市信義區信二路178號","TEL":"(02)2421-0161","COUNTYNAME":"基隆市","TOWNNAME":"信義區","MARKTYPE":"994","Class":"4"},"geometry":{"x":325983.0736999996,"y":2780334.5898000002}},{"attributes":{"OBJECTID":18869,"LANDMARKID":"1001700000356","LANDMARKCO":"408","LANDMARKNA":"郵局-基隆東信路郵局","LANDMARKAD":"1001707","ADDRESS":"基隆市信義區東信路123號","TEL":"(02)2465-7502","COUNTYNAME":"基隆市","TOWNNAME":"信義區","MARKTYPE":"994","Class":"4"},"geometry":{"x":327006.22350000031,"y":2780186.5516999997}},{"attributes":{"OBJECTID":18870,"LANDMARKID":"1001700000332","LANDMARKCO":"405","LANDMARKNA":"全國加油站-深澳坑站(台塑)","LANDMARKAD":"1001707","ADDRESS":"基隆市信義區深澳坑路37號","TEL":"02-24661975","COUNTYNAME":"基隆市","TOWNNAME":"信義區","MARKTYPE":"994","Class":"4"},"geometry":{"x":328757.00540000014,"y":2780223.3128999993}},{"attributes":{"OBJECTID":18871,"LANDMARKID":"1001700000072","LANDMARKCO":"107","LANDMARKNA":"基隆市警察局總局","LANDMARKAD":"1001707","ADDRESS":"基隆市中正區信二路205號","TEL":"02-24268181","COUNTYNAME":"基隆市","TOWNNAME":"信義區","MARKTYPE":"991","Class":"1"},"geometry":{"x":325654.32949999999,"y":2780379.8618999999}},{"attributes":{"OBJECTID":18872,"LANDMARKID":"1001700000032","LANDMARKCO":"103","LANDMARKNA":"基隆巿政府衛生局","LANDMARKAD":"1001707","ADDRESS":"基隆市信義區信二路266號","TEL":"02-24230181","COUNTYNAME":"基隆市","TOWNNAME":"信義區","MARKTYPE":"991","Class":"1"},"geometry":{"x":325541.64209999982,"y":2780378.6838000007}},{"attributes":{"OBJECTID":18873,"LANDMARKID":"1001700000033","LANDMARKCO":"103","LANDMARKNA":"基隆巿信義區衛生所","LANDMARKAD":"1001707","ADDRESS":"基隆市信義區信一路69號","TEL":"02-24221633","COUNTYNAME":"基隆市","TOWNNAME":"信義區","MARKTYPE":"991","Class":"1"},"geometry":{"x":325820.39549999963,"y":2780234.1874000002}},{"attributes":{"OBJECTID":18874,"LANDMARKID":"1001700000097","LANDMARKCO":"108","LANDMARKNA":"基隆市信義區公所","LANDMARKAD":"1001707","ADDRESS":"基隆市信義區信二路179號","TEL":"02-24282101","COUNTYNAME":"基隆市","TOWNNAME":"信義區","MARKTYPE":"991","Class":"1"},"geometry":{"x":325760.48429999966,"y":2780328.7710999995}},{"attributes":{"OBJECTID":18875,"LANDMARKID":"1001700000073","LANDMARKCO":"107","LANDMARKNA":"基隆市消防局信義消防分隊","LANDMARKAD":"1001707","ADDRESS":"基隆市信義區孝深里教忠街65號","TEL":"02-24683276","COUNTYNAME":"基隆市","TOWNNAME":"信義區","MARKTYPE":"991","Class":"1"},"geometry":{"x":328474.87200000044,"y":2781111.7138}},{"attributes":{"OBJECTID":18876,"LANDMARKID":"1001700000074","LANDMARKCO":"107","LANDMARKNA":"基隆市警察局深澳坑派出所","LANDMARKAD":"1001707","ADDRESS":"基隆市信義區深澳坑路69號","TEL":"02-24654170","COUNTYNAME":"基隆市","TOWNNAME":"信義區","MARKTYPE":"991","Class":"1"},"geometry":{"x":329183.56149999984,"y":2780104.3899000008}},{"attributes":{"OBJECTID":18877,"LANDMARKID":"1001700000075","LANDMARKCO":"107","LANDMARKNA":"基隆市警察局信義分駐所","LANDMARKAD":"1001707","ADDRESS":"基隆市信義區東明路61號","TEL":"02-24656945","COUNTYNAME":"基隆市","TOWNNAME":"信義區","MARKTYPE":"991","Class":"1"},"geometry":{"x":326908.92239999957,"y":2780113.1119999997}},{"attributes":{"OBJECTID":18878,"LANDMARKID":"1001700000076","LANDMARKCO":"107","LANDMARKNA":"基隆市警察局東光派出所","LANDMARKAD":"1001707","ADDRESS":"基隆市信義區崇法街3號","TEL":"02-24656443","COUNTYNAME":"基隆市","TOWNNAME":"信義區","MARKTYPE":"991","Class":"1"},"geometry":{"x":327109.39900000021,"y":2780323.8004000001}},{"attributes":{"OBJECTID":18879,"LANDMARKID":"1001700000053","LANDMARKCO":"106","LANDMARKNA":"基隆市信義區戶政事務所","LANDMARKAD":"1001707","ADDRESS":"基隆市信義區信一路6號","TEL":"02-24261535","COUNTYNAME":"基隆市","TOWNNAME":"信義區","MARKTYPE":"991","Class":"1"},"geometry":{"x":326384.50879999995,"y":2780245.6577000003}},{"attributes":{"OBJECTID":18880,"LANDMARKID":"1001700000047","LANDMARKCO":"105","LANDMARKNA":"基隆市信義地政事務所","LANDMARKAD":"1001707","ADDRESS":"基隆市信義區信二路176號3樓","TEL":"02-24235600","COUNTYNAME":"基隆市","TOWNNAME":"信義區","MARKTYPE":"991","Class":"1"},"geometry":{"x":326000.51140000019,"y":2780328.9923999999}},{"attributes":{"OBJECTID":18881,"LANDMARKID":"1001700000044","LANDMARKCO":"104","LANDMARKNA":"北區國稅局信義稽徵所","LANDMARKAD":"1001707","ADDRESS":"基隆市信義區信二路176號1樓","TEL":"02-24286511","COUNTYNAME":"基隆市","TOWNNAME":"信義區","MARKTYPE":"991","Class":"1"},"geometry":{"x":326000.51140000019,"y":2780328.9923999999}},{"attributes":{"OBJECTID":18882,"LANDMARKID":"1001700000016","LANDMARKCO":"101","LANDMARKNA":"台灣基隆地方法院","LANDMARKAD":"1001707","ADDRESS":"基隆市信義區東信路176號","TEL":"02-24652171","COUNTYNAME":"基隆市","TOWNNAME":"信義區","MARKTYPE":"991","Class":"1"},"geometry":{"x":327033.27529999986,"y":2780257.9815999996}},{"attributes":{"OBJECTID":18883,"LANDMARKID":"1001700000017","LANDMARKCO":"101","LANDMARKNA":"台灣基隆監獄","LANDMARKAD":"1001707","ADDRESS":"基隆市信義區東光路199號","TEL":"02-24651146","COUNTYNAME":"基隆市","TOWNNAME":"信義區","MARKTYPE":"991","Class":"1"},"geometry":{"x":327413.14570000023,"y":2780450.4142000005}},{"attributes":{"OBJECTID":18884,"LANDMARKID":"1001700000018","LANDMARKCO":"101","LANDMARKNA":"台灣基隆看守所","LANDMARKAD":"1001707","ADDRESS":"基隆市信義區崇法街64號","TEL":"02-24653240","COUNTYNAME":"基隆市","TOWNNAME":"信義區","MARKTYPE":"991","Class":"1"},"geometry":{"x":327166.85589999985,"y":2780415.2246000003}},{"attributes":{"OBJECTID":18885,"LANDMARKID":"1001700000029","LANDMARKCO":"103","LANDMARKNA":"基隆市環境保護局","LANDMARKAD":"1001707","ADDRESS":"基隆市信義區東光路253號","TEL":"02-24651115","COUNTYNAME":"基隆市","TOWNNAME":"信義區","MARKTYPE":"991","Class":"1"},"geometry":{"x":327534.67140000034,"y":2780581.2120999992}},{"attributes":{"OBJECTID":18886,"LANDMARKID":"1001700000030","LANDMARKCO":"103","LANDMARKNA":"基隆市體育會","LANDMARKAD":"1001707","ADDRESS":"基隆市信義區信二路40號之1","TEL":"02-24263969","COUNTYNAME":"基隆市","TOWNNAME":"信義區","MARKTYPE":"991","Class":"1"},"geometry":{"x":326355.72690000013,"y":2780429.3191999998}},{"attributes":{"OBJECTID":18887,"LANDMARKID":"1001700000031","LANDMARKCO":"103","LANDMARKNA":"基隆市議會","LANDMARKAD":"1001707","ADDRESS":"基隆市信義區壽山路5號","TEL":"02-24266135","COUNTYNAME":"基隆市","TOWNNAME":"信義區","MARKTYPE":"991","Class":"1"},"geometry":{"x":325518.66899999976,"y":2780561.8017999995}},{"attributes":{"OBJECTID":18888,"LANDMARKID":"1001700000104","LANDMARKCO":"202","LANDMARKNA":"國立基隆女中","LANDMARKAD":"1001707","ADDRESS":"基隆市信義區東信路324號","TEL":"02-24222309","COUNTYNAME":"基隆市","TOWNNAME":"信義區","MARKTYPE":"992","Class":"2"},"geometry":{"x":326586.37770000007,"y":2780323.5943}},{"attributes":{"OBJECTID":18889,"LANDMARKID":"1001700000105","LANDMARKCO":"202","LANDMARKNA":"私立光隆家商","LANDMARKAD":"1001707","ADDRESS":"基隆市信義區信二路264號","TEL":"02-24225735","COUNTYNAME":"基隆市","TOWNNAME":"信義區","MARKTYPE":"992","Class":"2"},"geometry":{"x":325574.51040000003,"y":2780383.0011999998}},{"attributes":{"OBJECTID":18890,"LANDMARKID":"1001700000106","LANDMARKCO":"202","LANDMARKNA":"私立培德工家","LANDMARKAD":"1001707","ADDRESS":"基隆市信義區培德路73號","TEL":"02-24652121","COUNTYNAME":"基隆市","TOWNNAME":"信義區","MARKTYPE":"992","Class":"2"},"geometry":{"x":327795.41999999993,"y":2780372.8282999992}},{"attributes":{"OBJECTID":18891,"LANDMARKID":"1001700000163","LANDMARKCO":"203","LANDMARKNA":"市立信義國中","LANDMARKAD":"1001707","ADDRESS":"基隆市信義區東信路4號","TEL":"02-24652199","COUNTYNAME":"基隆市","TOWNNAME":"信義區","MARKTYPE":"992","Class":"2"},"geometry":{"x":327466.29420000035,"y":2780333.6117000002}},{"attributes":{"OBJECTID":18892,"LANDMARKID":"1001700000164","LANDMARKCO":"203","LANDMARKNA":"市立成功國中","LANDMARKAD":"1001707","ADDRESS":"基隆市信義區壽山路9號","TEL":"02-24225594","COUNTYNAME":"基隆市","TOWNNAME":"信義區","MARKTYPE":"992","Class":"2"},"geometry":{"x":325777.80800000019,"y":2780677.6651000008}},{"attributes":{"OBJECTID":18893,"LANDMARKID":"1001700000165","LANDMARKCO":"203","LANDMARKNA":"市立月眉國小","LANDMARKAD":"1001707","ADDRESS":"基隆市信義區月眉路250巷22號","TEL":"02-24653493","COUNTYNAME":"基隆市","TOWNNAME":"信義區","MARKTYPE":"992","Class":"2"},"geometry":{"x":326314.98759999964,"y":2779816.0672999993}},{"attributes":{"OBJECTID":18894,"LANDMARKID":"1001700000166","LANDMARKCO":"203","LANDMARKNA":"市立東信國小","LANDMARKAD":"1001707","ADDRESS":"基隆市信義區正信路26號","TEL":"02-24222133","COUNTYNAME":"基隆市","TOWNNAME":"信義區","MARKTYPE":"992","Class":"2"},"geometry":{"x":326692.78120000008,"y":2780624.9849999994}},{"attributes":{"OBJECTID":18895,"LANDMARKID":"1001700000167","LANDMARKCO":"203","LANDMARKNA":"市立東光國小","LANDMARKAD":"1001707","ADDRESS":"基隆市信義區東信路236巷16號","TEL":"02-24650329","COUNTYNAME":"基隆市","TOWNNAME":"信義區","MARKTYPE":"992","Class":"2"},"geometry":{"x":326958.78490000032,"y":2780285.8201000001}},{"attributes":{"OBJECTID":18896,"LANDMARKID":"1001700000168","LANDMARKCO":"203","LANDMARKNA":"市立中興國小","LANDMARKAD":"1001707","ADDRESS":"基隆市信義區信二路40號","TEL":"02-24225038","COUNTYNAME":"基隆市","TOWNNAME":"信義區","MARKTYPE":"992","Class":"2"},"geometry":{"x":326355.72690000013,"y":2780429.3191999998}},{"attributes":{"OBJECTID":18897,"LANDMARKID":"1001700000169","LANDMARKCO":"203","LANDMARKNA":"市立深澳國小","LANDMARKAD":"1001707","ADDRESS":"基隆市信義區深澳坑路111號","TEL":"02-24652940","COUNTYNAME":"基隆市","TOWNNAME":"信義區","MARKTYPE":"992","Class":"2"},"geometry":{"x":329271.49430000037,"y":2779954.7569999993}},{"attributes":{"OBJECTID":18898,"LANDMARKID":"1001700000103","LANDMARKCO":"201","LANDMARKNA":"私立崇右技術學院","LANDMARKAD":"1001707","ADDRESS":"基隆市信義區義七路40號","TEL":"02-24237785","COUNTYNAME":"基隆市","TOWNNAME":"信義區","MARKTYPE":"992","Class":"2"},"geometry":{"x":326113.61820000038,"y":2780686.9728999995}},{"attributes":{"OBJECTID":18899,"LANDMARKID":"1001700000170","LANDMARKCO":"203","LANDMARKNA":"市立深美國小","LANDMARKAD":"1001707","ADDRESS":"基隆市信義區教忠街75巷2號","TEL":"02-24654821","COUNTYNAME":"基隆市","TOWNNAME":"信義區","MARKTYPE":"992","Class":"2"},"geometry":{"x":328465.09640000015,"y":2781269.7701999992}},{"attributes":{"OBJECTID":18900,"LANDMARKID":"1001700000253","LANDMARKCO":"308","LANDMARKNA":"台62-瑞芳交流道-西行","LANDMARKAD":"1001707","ADDRESS":" ","TEL":" ","COUNTYNAME":"基隆市","TOWNNAME":"信義區","MARKTYPE":"993","Class":"308"},"geometry":{"x":329995.68709999975,"y":2778626.3814000003}},{"attributes":{"OBJECTID":18901,"LANDMARKID":"1001700000216","LANDMARKCO":"303","LANDMARKNA":"成功國中停車場","LANDMARKAD":"1001707","ADDRESS":"基隆市信義區壽山路9號","TEL":"02-24245620","COUNTYNAME":"基隆市","TOWNNAME":"信義區","MARKTYPE":"993","Class":"303"},"geometry":{"x":325709.61909999978,"y":2780682.4321999997}},{"attributes":{"OBJECTID":18902,"LANDMARKID":"1001700000217","LANDMARKCO":"303","LANDMARKNA":"成功國中校園停車場","LANDMARKAD":"1001707","ADDRESS":"基隆市信義區壽山路9號","TEL":" ","COUNTYNAME":"基隆市","TOWNNAME":"信義區","MARKTYPE":"993","Class":"303"},"geometry":{"x":325798.85950000025,"y":2780674.4847999997}},{"attributes":{"OBJECTID":18903,"LANDMARKID":"1001700000218","LANDMARKCO":"303","LANDMARKNA":"信二路土銀倉庫停車場","LANDMARKAD":"1001707","ADDRESS":"基隆市信義區信二路","TEL":" ","COUNTYNAME":"基隆市","TOWNNAME":"信義區","MARKTYPE":"993","Class":"303"},"geometry":{"x":325367.16500000004,"y":2780447.4027999993}},{"attributes":{"OBJECTID":18904,"LANDMARKID":"1001700000404","LANDMARKCO":"603","LANDMARKNA":"萊茵商旅","LANDMARKAD":"1001707","ADDRESS":"基隆市中正區信二路177號18","TEL":"21-26樓","COUNTYNAME":"基隆市","TOWNNAME":"信義區","MARKTYPE":"996","Class":"6"},"geometry":{"x":325811.53589999955,"y":2780324.4700000007}},{"attributes":{"OBJECTID":18905,"LANDMARKID":"1001700000405","LANDMARKCO":"603","LANDMARKNA":"欣海大飯店","LANDMARKAD":"1001707","ADDRESS":"基隆市信義區義三路6號1-5樓","TEL":"02-24254688-91","COUNTYNAME":"基隆市","TOWNNAME":"信義區","MARKTYPE":"996","Class":"6"},"geometry":{"x":325305.39499999955,"y":2780389.6950000003}},{"attributes":{"OBJECTID":18906,"LANDMARKID":"1001700000328","LANDMARKCO":"405","LANDMARKNA":"中油加油站-基隆直銷中心站(中油直營)","LANDMARKAD":"1001704","ADDRESS":"基隆市仁愛區成功一路107號","TEL":" ","COUNTYNAME":"基隆市(海)","TOWNNAME":"仁愛區(海)","MARKTYPE":"994","Class":"4"},"geometry":{"x":324358.02450000029,"y":2780064.3000000007}},{"attributes":{"OBJECTID":18907,"LANDMARKID":"1001700000329","LANDMARKCO":"405","LANDMARKNA":"中油加油站-成功一路站(中油直營)","LANDMARKAD":"1001704","ADDRESS":"基隆市仁愛區成功一路105號","TEL":"02-24316683","COUNTYNAME":"基隆市(海)","TOWNNAME":"仁愛區(海)","MARKTYPE":"994","Class":"4"},"geometry":{"x":324377.00949999969,"y":2780031.4337000009}},{"attributes":{"OBJECTID":18908,"LANDMARKID":"1001700000279","LANDMARKCO":"402","LANDMARKNA":"亞太行動寬頻電信-基隆仁五加盟服務中心","LANDMARKAD":"1001704","ADDRESS":"基隆市仁愛區仁五路41號","TEL":"02-24211166","COUNTYNAME":"基隆市(海)","TOWNNAME":"仁愛區(海)","MARKTYPE":"994","Class":"4"},"geometry":{"x":324702.38379999995,"y":2780078.9448000006}},{"attributes":{"OBJECTID":18909,"LANDMARKID":"1001700000275","LANDMARKCO":"401","LANDMARKNA":"國軍基隆醫院民眾診療處","LANDMARKAD":"1001704","ADDRESS":"基隆市仁愛區孝二路39號","TEL":"02-4631979","COUNTYNAME":"基隆市(海)","TOWNNAME":"仁愛區(海)","MARKTYPE":"994","Class":"4"},"geometry":{"x":324561.68570000026,"y":2780259.7072999999}},{"attributes":{"OBJECTID":18910,"LANDMARKID":"1001700000387","LANDMARKCO":"507","LANDMARKNA":"獅球嶺砲台","LANDMARKAD":"1001704","ADDRESS":"基隆市仁愛區獅球里獅球嶺頂","TEL":" ","COUNTYNAME":"基隆市(海)","TOWNNAME":"仁愛區(海)","MARKTYPE":"995","Class":"5"},"geometry":{"x":324315.80910000019,"y":2779736.7774}},{"attributes":{"OBJECTID":18911,"LANDMARKID":"1001700000350","LANDMARKCO":"408","LANDMARKNA":"郵局-基隆愛三路郵局","LANDMARKAD":"1001704","ADDRESS":"基隆市仁愛區愛三路130號1F","TEL":"(02)2421-0123","COUNTYNAME":"基隆市(海)","TOWNNAME":"仁愛區(海)","MARKTYPE":"994","Class":"4"},"geometry":{"x":325019.43699999992,"y":2780396.7321000006}},{"attributes":{"OBJECTID":18912,"LANDMARKID":"1001700000351","LANDMARKCO":"408","LANDMARKNA":"郵局-基隆孝三路郵局","LANDMARKAD":"1001704","ADDRESS":"基隆市仁愛區孝三路62號","TEL":"(02)2421-0159","COUNTYNAME":"基隆市(海)","TOWNNAME":"仁愛區(海)","MARKTYPE":"994","Class":"4"},"geometry":{"x":324584.61720000021,"y":2780429.5859999992}},{"attributes":{"OBJECTID":18913,"LANDMARKID":"1001700000352","LANDMARKCO":"408","LANDMARKNA":"郵局-基隆仁二路郵局","LANDMARKAD":"1001704","ADDRESS":"基隆市仁愛區仁二路19號","TEL":"(02)2421-0162","COUNTYNAME":"基隆市(海)","TOWNNAME":"仁愛區(海)","MARKTYPE":"994","Class":"4"},"geometry":{"x":325669.56099999975,"y":2780113.7866999991}},{"attributes":{"OBJECTID":18914,"LANDMARKID":"1001700000353","LANDMARKCO":"408","LANDMARKNA":"郵局-基隆光二路郵局","LANDMARKAD":"1001704","ADDRESS":"基隆市仁愛區光二路1號","TEL":"(02)2431-8895","COUNTYNAME":"基隆市(海)","TOWNNAME":"仁愛區(海)","MARKTYPE":"994","Class":"4"},"geometry":{"x":324339.39340000041,"y":2780080.4061999992}},{"attributes":{"OBJECTID":18915,"LANDMARKID":"1001700000354","LANDMARKCO":"408","LANDMARKNA":"郵局-基隆南榮路郵局","LANDMARKAD":"1001704","ADDRESS":"基隆市仁愛區南榮路20號","TEL":"(02)2421-0163","COUNTYNAME":"基隆市(海)","TOWNNAME":"仁愛區(海)","MARKTYPE":"994","Class":"4"},"geometry":{"x":324884.39099999983,"y":2779899.4856000002}},{"attributes":{"OBJECTID":18916,"LANDMARKID":"1001700000296","LANDMARKCO":"403","LANDMARKNA":"台灣電力公司基隆區營業處","LANDMARKAD":"1001704","ADDRESS":"基隆市仁愛區仁一路301號","TEL":" ","COUNTYNAME":"基隆市(海)","TOWNNAME":"仁愛區(海)","MARKTYPE":"994","Class":"4"},"geometry":{"x":325206.96160000004,"y":2780305.4298}},{"attributes":{"OBJECTID":18917,"LANDMARKID":"1001700000335","LANDMARKCO":"406","LANDMARKNA":"仁愛公園","LANDMARKAD":"1001704","ADDRESS":"基隆市仁愛區","TEL":" ","COUNTYNAME":"基隆市(海)","TOWNNAME":"仁愛區(海)","MARKTYPE":"994","Class":"4"},"geometry":{"x":325133.75069999974,"y":2779968.8827}},{"attributes":{"OBJECTID":18918,"LANDMARKID":"1001700000336","LANDMARKCO":"406","LANDMARKNA":"林泉社區中山公園","LANDMARKAD":"1001704","ADDRESS":"基隆市仁愛區","TEL":" ","COUNTYNAME":"基隆市(海)","TOWNNAME":"仁愛區(海)","MARKTYPE":"994","Class":"4"},"geometry":{"x":325788.38800000027,"y":2779692.3565999996}},{"attributes":{"OBJECTID":18919,"LANDMARKID":"1001700000348","LANDMARKCO":"407","LANDMARKNA":"三商百貨","LANDMARKAD":"1001704","ADDRESS":"基隆市仁愛區愛四路62號","TEL":"02-24295608","COUNTYNAME":"基隆市(海)","TOWNNAME":"仁愛區(海)","MARKTYPE":"994","Class":"4"},"geometry":{"x":325055.5223000003,"y":2780298.7831999995}},{"attributes":{"OBJECTID":18920,"LANDMARKID":"1001700000349","LANDMARKCO":"407","LANDMARKNA":"誠品Eslite","LANDMARKAD":"1001704","ADDRESS":"基隆市仁二路236號1樓","TEL":"02-2421-1589","COUNTYNAME":"基隆市(海)","TOWNNAME":"仁愛區(海)","MARKTYPE":"994","Class":"4"},"geometry":{"x":324983.41050000023,"y":2780329.6808000002}},{"attributes":{"OBJECTID":18921,"LANDMARKID":"1001700000028","LANDMARKCO":"103","LANDMARKNA":"基隆巿仁愛區衛生所","LANDMARKAD":"1001704","ADDRESS":"基隆市仁愛區光一路26號","TEL":"02-24311592","COUNTYNAME":"基隆市(海)","TOWNNAME":"仁愛區(海)","MARKTYPE":"991","Class":"1"},"geometry":{"x":324305.95170000009,"y":2779856.5888999999}},{"attributes":{"OBJECTID":18922,"LANDMARKID":"1001700000098","LANDMARKCO":"108","LANDMARKNA":"基隆市仁愛區公所","LANDMARKAD":"1001704","ADDRESS":"基隆市光一路28號2樓","TEL":"02-24301122","COUNTYNAME":"基隆市(海)","TOWNNAME":"仁愛區(海)","MARKTYPE":"991","Class":"1"},"geometry":{"x":324292.42879999988,"y":2779852.4126999993}},{"attributes":{"OBJECTID":18923,"LANDMARKID":"1001700000067","LANDMARKCO":"107","LANDMARKNA":"基隆市消防局仁愛消防分隊","LANDMARKAD":"1001704","ADDRESS":"基隆市仁愛區成功一路86號","TEL":"02-24316900","COUNTYNAME":"基隆市(海)","TOWNNAME":"仁愛區(海)","MARKTYPE":"991","Class":"1"},"geometry":{"x":324411.76460000034,"y":2780073.7606000006}},{"attributes":{"OBJECTID":18924,"LANDMARKID":"1001700000068","LANDMARKCO":"107","LANDMARKNA":"基隆市警察局第一分局","LANDMARKAD":"1001704","ADDRESS":"基隆市仁愛區博愛里仁五路22號","TEL":"02-24222741","COUNTYNAME":"基隆市(海)","TOWNNAME":"仁愛區(海)","MARKTYPE":"991","Class":"1"},"geometry":{"x":324682.66260000039,"y":2780129.8073999994}},{"attributes":{"OBJECTID":18925,"LANDMARKID":"1001700000069","LANDMARKCO":"107","LANDMARKNA":"基隆市警察局延平街派出所","LANDMARKAD":"1001704","ADDRESS":"基隆市仁愛區仁二路137巷3號","TEL":"02-24246950","COUNTYNAME":"基隆市(海)","TOWNNAME":"仁愛區(海)","MARKTYPE":"991","Class":"1"},"geometry":{"x":325302.34069999959,"y":2779936.7215}},{"attributes":{"OBJECTID":18926,"LANDMARKID":"1001700000070","LANDMARKCO":"107","LANDMARKNA":"基隆市警察局南榮路派出所","LANDMARKAD":"1001704","ADDRESS":"基隆市仁愛區吉仁里南榮路225號","TEL":"02-24242437","COUNTYNAME":"基隆市(海)","TOWNNAME":"仁愛區(海)","MARKTYPE":"991","Class":"1"},"geometry":{"x":324943.62870000023,"y":2779578.1688000001}},{"attributes":{"OBJECTID":18927,"LANDMARKID":"1001700000071","LANDMARKCO":"107","LANDMARKNA":"基隆市警察局忠二路派出所","LANDMARKAD":"1001704","ADDRESS":"基隆市仁愛區新店里忠二路2之1號","TEL":"02-24241363","COUNTYNAME":"基隆市(海)","TOWNNAME":"仁愛區(海)","MARKTYPE":"991","Class":"1"},"geometry":{"x":324720.92119999975,"y":2780347.8379999995}},{"attributes":{"OBJECTID":18928,"LANDMARKID":"1001700000054","LANDMARKCO":"106","LANDMARKNA":"基隆市仁愛區戶政事務所","LANDMARKAD":"1001704","ADDRESS":"基隆市光一路28號","TEL":"02-24328669","COUNTYNAME":"基隆市(海)","TOWNNAME":"仁愛區(海)","MARKTYPE":"991","Class":"1"},"geometry":{"x":324292.42879999988,"y":2779852.4126999993}},{"attributes":{"OBJECTID":18929,"LANDMARKID":"1001700000025","LANDMARKCO":"103","LANDMARKNA":"基隆市審計室","LANDMARKAD":"1001704","ADDRESS":"基隆市仁一路263號6樓","TEL":"02-24245431","COUNTYNAME":"基隆市(海)","TOWNNAME":"仁愛區(海)","MARKTYPE":"991","Class":"1"},"geometry":{"x":325440.36830000021,"y":2780188.7457999997}},{"attributes":{"OBJECTID":18930,"LANDMARKID":"1001700000019","LANDMARKCO":"101","LANDMARKNA":"國有財產局台灣北區辦事處基隆分處","LANDMARKAD":"1001704","ADDRESS":"基隆市仁愛區光一路12號","TEL":"02-24346270","COUNTYNAME":"基隆市(海)","TOWNNAME":"仁愛區(海)","MARKTYPE":"991","Class":"1"},"geometry":{"x":324375.55900000036,"y":2780001.9585999995}},{"attributes":{"OBJECTID":18931,"LANDMARKID":"1001700000026","LANDMARKCO":"103","LANDMARKNA":"基隆市政府視障教育中心","LANDMARKAD":"1001704","ADDRESS":"基隆市仁愛區仁二路139號","TEL":"02-24289877","COUNTYNAME":"基隆市(海)","TOWNNAME":"仁愛區(海)","MARKTYPE":"991","Class":"1"},"geometry":{"x":325228.16079999972,"y":2780161.1223000009}},{"attributes":{"OBJECTID":18932,"LANDMARKID":"1001700000027","LANDMARKCO":"103","LANDMARKNA":"基隆市立殯葬管理所","LANDMARKAD":"1001704","ADDRESS":"基隆市南榮路509巷2號","TEL":"02-24282116","COUNTYNAME":"基隆市(海)","TOWNNAME":"仁愛區(海)","MARKTYPE":"991","Class":"1"},"geometry":{"x":324709.44419999979,"y":2778466.2072000001}},{"attributes":{"OBJECTID":18933,"LANDMARKID":"1001700000171","LANDMARKCO":"203","LANDMARKNA":"市立南榮國中","LANDMARKAD":"1001704","ADDRESS":"基隆市仁愛區南榮路319巷36號","TEL":"02-24282188","COUNTYNAME":"基隆市(海)","TOWNNAME":"仁愛區(海)","MARKTYPE":"992","Class":"2"},"geometry":{"x":325185.67949999962,"y":2779365.8855000008}},{"attributes":{"OBJECTID":18934,"LANDMARKID":"1001700000172","LANDMARKCO":"203","LANDMARKNA":"市立銘傳國中","LANDMARKAD":"1001704","ADDRESS":"基隆市仁愛區劉銘傳路132號","TEL":"02-24223120","COUNTYNAME":"基隆市(海)","TOWNNAME":"仁愛區(海)","MARKTYPE":"992","Class":"2"},"geometry":{"x":325719.59869999997,"y":2779694.7678999994}},{"attributes":{"OBJECTID":18935,"LANDMARKID":"1001700000173","LANDMARKCO":"203","LANDMARKNA":"市立信義國小","LANDMARKAD":"1001704","ADDRESS":"基隆市仁愛區仁二路135號","TEL":"02-24289102","COUNTYNAME":"基隆市(海)","TOWNNAME":"仁愛區(海)","MARKTYPE":"992","Class":"2"},"geometry":{"x":325309.38769999985,"y":2780108.9323999994}},{"attributes":{"OBJECTID":18936,"LANDMARKID":"1001700000174","LANDMARKCO":"203","LANDMARKNA":"市立仁愛國小","LANDMARKAD":"1001704","ADDRESS":"基隆市仁愛區仁二路139號","TEL":"02-24289131","COUNTYNAME":"基隆市(海)","TOWNNAME":"仁愛區(海)","MARKTYPE":"992","Class":"2"},"geometry":{"x":325228.16079999972,"y":2780161.1223000009}},{"attributes":{"OBJECTID":18937,"LANDMARKID":"1001700000175","LANDMARKCO":"203","LANDMARKNA":"市立南榮國小","LANDMARKAD":"1001704","ADDRESS":"基隆市仁愛區南榮路321號","TEL":"02-24223038","COUNTYNAME":"基隆市(海)","TOWNNAME":"仁愛區(海)","MARKTYPE":"992","Class":"2"},"geometry":{"x":325022.03899999987,"y":2779207.2555999998}},{"attributes":{"OBJECTID":18938,"LANDMARKID":"1001700000176","LANDMARKCO":"203","LANDMARKNA":"市立成功國小","LANDMARKAD":"1001704","ADDRESS":"基隆市仁愛區獅球路6號","TEL":"02-24316924","COUNTYNAME":"基隆市(海)","TOWNNAME":"仁愛區(海)","MARKTYPE":"992","Class":"2"},"geometry":{"x":324469.10859999992,"y":2779919.4469000008}},{"attributes":{"OBJECTID":18939,"LANDMARKID":"1001700000177","LANDMARKCO":"203","LANDMARKNA":"市立尚智國小","LANDMARKAD":"1001704","ADDRESS":"基隆市仁愛區龍安街326號","TEL":"02-24223362","COUNTYNAME":"基隆市(海)","TOWNNAME":"仁愛區(海)","MARKTYPE":"992","Class":"2"},"geometry":{"x":324831.10140000004,"y":2779333.7973999996}},{"attributes":{"OBJECTID":18940,"LANDMARKID":"1001700000115","LANDMARKCO":"202","LANDMARKNA":"私立聖心學校","LANDMARKAD":"1001704","ADDRESS":"基隆市仁愛區","TEL":" ","COUNTYNAME":"基隆市(海)","TOWNNAME":"仁愛區(海)","MARKTYPE":"992","Class":"2"},"geometry":{"x":324391.00860000029,"y":2778779.1612}},{"attributes":{"OBJECTID":18941,"LANDMARKID":"1001700000259","LANDMARKCO":"308","LANDMARKNA":"國1-基隆端-南下","LANDMARKAD":"1001704","ADDRESS":"基隆市仁愛區","TEL":" ","COUNTYNAME":"基隆市(海)","TOWNNAME":"仁愛區(海)","MARKTYPE":"993","Class":"308"},"geometry":{"x":324465.86539999954,"y":2780075.4902999997}},{"attributes":{"OBJECTID":18942,"LANDMARKID":"1001700000212","LANDMARKCO":"303","LANDMARKNA":"博愛市場地下停車場","LANDMARKAD":"1001704","ADDRESS":"基隆市仁愛區愛三路11號","TEL":" ","COUNTYNAME":"基隆市(海)","TOWNNAME":"仁愛區(海)","MARKTYPE":"993","Class":"303"},"geometry":{"x":324778.5932,"y":2780137.4582000002}},{"attributes":{"OBJECTID":18943,"LANDMARKID":"1001700000213","LANDMARKCO":"303","LANDMARKNA":"東岸停車場","LANDMARKAD":"1001704","ADDRESS":"基隆市仁愛區仁二路","TEL":" ","COUNTYNAME":"基隆市(海)","TOWNNAME":"仁愛區(海)","MARKTYPE":"993","Class":"303"},"geometry":{"x":324963.98979999963,"y":2780366.9304000009}},{"attributes":{"OBJECTID":18944,"LANDMARKID":"1001700000214","LANDMARKCO":"303","LANDMARKNA":"博愛地下停車場","LANDMARKAD":"1001704","ADDRESS":"基隆市仁愛區愛三路11號B1樓","TEL":" ","COUNTYNAME":"基隆市(海)","TOWNNAME":"仁愛區(海)","MARKTYPE":"993","Class":"303"},"geometry":{"x":324795.90299999993,"y":2780092.7025000006}},{"attributes":{"OBJECTID":18945,"LANDMARKID":"1001700000215","LANDMARKCO":"303","LANDMARKNA":"愛一機械停車場","LANDMARKAD":"1001704","ADDRESS":"基隆市仁愛區愛一路","TEL":" ","COUNTYNAME":"基隆市(海)","TOWNNAME":"仁愛區(海)","MARKTYPE":"993","Class":"303"},"geometry":{"x":324805.53079999983,"y":2780401.6838000007}},{"attributes":{"OBJECTID":18946,"LANDMARKID":"1001700000192","LANDMARKCO":"301","LANDMARKNA":"三坑車站","LANDMARKAD":"1001704","ADDRESS":"基隆市仁愛區龍安街206號","TEL":"02-24230289","COUNTYNAME":"基隆市(海)","TOWNNAME":"仁愛區(海)","MARKTYPE":"993","Class":"301"},"geometry":{"x":324805.02929999959,"y":2779582.7004000004}},{"attributes":{"OBJECTID":18947,"LANDMARKID":"1001700000287","LANDMARKCO":"402","LANDMARKNA":"中華電信-基隆營運處","LANDMARKAD":"1001704","ADDRESS":"基隆市仁一路299號","TEL":"123或0800-080-123","COUNTYNAME":"基隆市(海)","TOWNNAME":"仁愛區(海)","MARKTYPE":"994","Class":"4"},"geometry":{"x":325263.74260000046,"y":2780271.9254999999}},{"attributes":{"OBJECTID":18948,"LANDMARKID":"1001700000288","LANDMARKCO":"402","LANDMARKNA":"中華電信-中華電信生活館","LANDMARKAD":"1001704","ADDRESS":"基隆市仁一路321號","TEL":"123或0800-080-123","COUNTYNAME":"基隆市(海)","TOWNNAME":"仁愛區(海)","MARKTYPE":"994","Class":"4"},"geometry":{"x":325102.30350000039,"y":2780373.8177000005}},{"attributes":{"OBJECTID":18949,"LANDMARKID":"1001700000289","LANDMARKCO":"402","LANDMARKNA":"遠傳電信-基隆仁一門市","LANDMARKAD":"1001704","ADDRESS":"基隆市仁愛區仁一路197號","TEL":" ","COUNTYNAME":"基隆市(海)","TOWNNAME":"仁愛區(海)","MARKTYPE":"994","Class":"4"},"geometry":{"x":325682.16089999955,"y":2780169.7071000002}},{"attributes":{"OBJECTID":18950,"LANDMARKID":"1001700000290","LANDMARKCO":"402","LANDMARKNA":"遠傳電信-基隆門市","LANDMARKAD":"1001704","ADDRESS":"基隆市仁愛區仁五路6號","TEL":" ","COUNTYNAME":"基隆市(海)","TOWNNAME":"仁愛區(海)","MARKTYPE":"994","Class":"4"},"geometry":{"x":324771.38850000035,"y":2780079.5701000001}},{"attributes":{"OBJECTID":18951,"LANDMARKID":"1001700000291","LANDMARKCO":"402","LANDMARKNA":"威寶電信-基隆仁五特約服務中心","LANDMARKAD":"1001704","ADDRESS":"基隆市仁愛區仁五路61號","TEL":"(02)24286979","COUNTYNAME":"基隆市(海)","TOWNNAME":"仁愛區(海)","MARKTYPE":"994","Class":"4"},"geometry":{"x":324655.51599999983,"y":2780103.2063999996}},{"attributes":{"OBJECTID":18952,"LANDMARKID":"1001700000292","LANDMARKCO":"402","LANDMARKNA":"大眾電信(震旦通訊)-基隆站前店","LANDMARKAD":"1001704","ADDRESS":"基隆市仁愛區仁二路174號","TEL":"02-24216682","COUNTYNAME":"基隆市(海)","TOWNNAME":"仁愛區(海)","MARKTYPE":"994","Class":"4"},"geometry":{"x":325164.46289999969,"y":2780221.4744000006}},{"attributes":{"OBJECTID":18953,"LANDMARKID":"1001700000293","LANDMARKCO":"402","LANDMARKNA":"大眾電信-基隆店","LANDMARKAD":"1001704","ADDRESS":"基隆市仁愛區愛三路71號","TEL":"0968-544285","COUNTYNAME":"基隆市(海)","TOWNNAME":"仁愛區(海)","MARKTYPE":"994","Class":"4"},"geometry":{"x":324907.72240000032,"y":2780267.3477999996}},{"attributes":{"OBJECTID":18954,"LANDMARKID":"1001700000294","LANDMARKCO":"402","LANDMARKNA":"大眾電信(震旦通訊)-基隆愛三店","LANDMARKAD":"1001704","ADDRESS":"基隆市愛三路22號","TEL":"02-24265459","COUNTYNAME":"基隆市(海)","TOWNNAME":"仁愛區(海)","MARKTYPE":"994","Class":"4"},"geometry":{"x":324838.50320000015,"y":2780101.7380999997}},{"attributes":{"OBJECTID":18955,"LANDMARKID":"1001700000295","LANDMARKCO":"402","LANDMARKNA":"威寶電信-基隆安一特約服務中心","LANDMARKAD":"1001704","ADDRESS":"基隆市仁愛區安一路76號","TEL":"(02)24286521","COUNTYNAME":"基隆市(海)","TOWNNAME":"仁愛區(海)","MARKTYPE":"994","Class":"4"},"geometry":{"x":325242.38989999983,"y":2780295.2255000006}},{"attributes":{"OBJECTID":18956,"LANDMARKID":"1001700000408","LANDMARKCO":"603","LANDMARKNA":"國都旅館","LANDMARKAD":"1001704","ADDRESS":"基隆市仁愛區仁一路303巷13號","TEL":"02-24221010","COUNTYNAME":"基隆市(海)","TOWNNAME":"仁愛區(海)","MARKTYPE":"996","Class":"6"},"geometry":{"x":325123.83389999997,"y":2780288.6987999994}},{"attributes":{"OBJECTID":18957,"LANDMARKID":"1001700000409","LANDMARKCO":"603","LANDMARKNA":"華都飯店","LANDMARKAD":"1001704","ADDRESS":"基隆市仁愛區仁一路307號","TEL":"02-24202668-9","COUNTYNAME":"基隆市(海)","TOWNNAME":"仁愛區(海)","MARKTYPE":"996","Class":"6"},"geometry":{"x":325139.14290000033,"y":2780344.6142999995}},{"attributes":{"OBJECTID":18958,"LANDMARKID":"1001700000410","LANDMARKCO":"603","LANDMARKNA":"隆發旅社","LANDMARKAD":"1001704","ADDRESS":"基隆市仁愛區孝四路23號2-3樓","TEL":"02-24232131","COUNTYNAME":"基隆市(海)","TOWNNAME":"仁愛區(海)","MARKTYPE":"996","Class":"6"},"geometry":{"x":324518.51290000044,"y":2780535.9389999993}},{"attributes":{"OBJECTID":18959,"LANDMARKID":"1001700000411","LANDMARKCO":"603","LANDMARKNA":"永吉旅社","LANDMARKAD":"1001704","ADDRESS":"基隆市仁愛區忠一路31號2-3樓","TEL":"02-24223570","COUNTYNAME":"基隆市(海)","TOWNNAME":"仁愛區(海)","MARKTYPE":"996","Class":"6"},"geometry":{"x":324572.51169999968,"y":2780535.6431000009}},{"attributes":{"OBJECTID":18960,"LANDMARKID":"1001700000412","LANDMARKCO":"603","LANDMARKNA":"金金商務旅館","LANDMARKAD":"1001704","ADDRESS":"基隆市仁愛區忠二路58號4-8樓","TEL":"02-24211212","COUNTYNAME":"基隆市(海)","TOWNNAME":"仁愛區(海)","MARKTYPE":"996","Class":"6"},"geometry":{"x":324523.17320000008,"y":2780473.9134999998}},{"attributes":{"OBJECTID":18961,"LANDMARKID":"1001700000413","LANDMARKCO":"603","LANDMARKNA":"永豐旅社","LANDMARKAD":"1001704","ADDRESS":"基隆市仁愛區愛三路49巷14號2-3樓","TEL":"02-24232137-8","COUNTYNAME":"基隆市(海)","TOWNNAME":"仁愛區(海)","MARKTYPE":"996","Class":"6"},"geometry":{"x":324858.36029999983,"y":2780201.6195}},{"attributes":{"OBJECTID":18962,"LANDMARKID":"1001700000414","LANDMARKCO":"603","LANDMARKNA":"華國商務飯店","LANDMARKAD":"1001704","ADDRESS":"基隆市仁愛區愛三路49巷18號3-6樓","TEL":"02-24267101-6","COUNTYNAME":"基隆市(海)","TOWNNAME":"仁愛區(海)","MARKTYPE":"996","Class":"6"},"geometry":{"x":324846.33860000037,"y":2780197.6855999995}},{"attributes":{"OBJECTID":18963,"LANDMARKID":"1001700000415","LANDMARKCO":"603","LANDMARKNA":"大華大旅社","LANDMARKAD":"1001704","ADDRESS":"基隆市仁愛區精一路15號6-8樓","TEL":"02-24246391-2","COUNTYNAME":"基隆市(海)","TOWNNAME":"仁愛區(海)","MARKTYPE":"996","Class":"6"},"geometry":{"x":324771.88289999962,"y":2779987.5673999991}},{"attributes":{"OBJECTID":18964,"LANDMARKID":"1001700000416","LANDMARKCO":"603","LANDMARKNA":"歐香商務旅店","LANDMARKAD":"1001704","ADDRESS":"基隆市仁愛區仁二路215號1-5樓","TEL":"02-24201166","COUNTYNAME":"基隆市(海)","TOWNNAME":"仁愛區(海)","MARKTYPE":"996","Class":"6"},"geometry":{"x":325048.71399999969,"y":2780265.5706999991}},{"attributes":{"OBJECTID":18965,"LANDMARKID":"1001700000417","LANDMARKCO":"603","LANDMARKNA":"協和旅社","LANDMARKAD":"1001704","ADDRESS":"基隆市仁愛區孝四路22號2-3樓","TEL":"02-24282136-7","COUNTYNAME":"基隆市(海)","TOWNNAME":"仁愛區(海)","MARKTYPE":"996","Class":"6"},"geometry":{"x":324517.48010000028,"y":2780529.9447000008}},{"attributes":{"OBJECTID":18966,"LANDMARKID":"1001700000418","LANDMARKCO":"603","LANDMARKNA":"綠文旅社","LANDMARKAD":"1001704","ADDRESS":"基隆市仁愛區仁三路28號2-4樓","TEL":"02-24224224","COUNTYNAME":"基隆市(海)","TOWNNAME":"仁愛區(海)","MARKTYPE":"996","Class":"6"},"geometry":{"x":325032.23450000025,"y":2780178.6616999991}},{"attributes":{"OBJECTID":18967,"LANDMARKID":"1001700000419","LANDMARKCO":"603","LANDMARKNA":"金中泰賓館","LANDMARKAD":"1001704","ADDRESS":"基隆市仁愛區仁五路13號2-3樓","TEL":"02-24289186-9","COUNTYNAME":"基隆市(海)","TOWNNAME":"仁愛區(海)","MARKTYPE":"996","Class":"6"},"geometry":{"x":324750.24039999954,"y":2780052.6863000002}},{"attributes":{"OBJECTID":18968,"LANDMARKID":"1001700000420","LANDMARKCO":"603","LANDMARKNA":"金華大旅社","LANDMARKAD":"1001704","ADDRESS":"基隆市仁愛區成功一路9號5-8樓","TEL":"02-24238181","COUNTYNAME":"基隆市(海)","TOWNNAME":"仁愛區(海)","MARKTYPE":"996","Class":"6"},"geometry":{"x":324627.28589999955,"y":2780061.3611999992}},{"attributes":{"OBJECTID":18969,"LANDMARKID":"1001700000421","LANDMARKCO":"603","LANDMARKNA":"華星旅社","LANDMARKAD":"1001704","ADDRESS":"基隆市仁愛區孝一路54號1-7樓","TEL":"02-24223166","COUNTYNAME":"基隆市(海)","TOWNNAME":"仁愛區(海)","MARKTYPE":"996","Class":"6"},"geometry":{"x":324741.33019999973,"y":2780376.7259}},{"attributes":{"OBJECTID":18970,"LANDMARKID":"1001700000422","LANDMARKCO":"603","LANDMARKNA":"華帥海景飯店","LANDMARKAD":"1001704","ADDRESS":"基隆市仁愛區孝二路108號1-9樓","TEL":"02-24223131","COUNTYNAME":"基隆市(海)","TOWNNAME":"仁愛區(海)","MARKTYPE":"996","Class":"6"},"geometry":{"x":324710.01970000006,"y":2780445.8885999992}},{"attributes":{"OBJECTID":18971,"LANDMARKID":"1001700000423","LANDMARKCO":"603","LANDMARKNA":"蝶戀花旅社","LANDMARKAD":"1001704","ADDRESS":"基隆市仁愛區孝三路81號3-4樓","TEL":"02-24201145","COUNTYNAME":"基隆市(海)","TOWNNAME":"仁愛區(海)","MARKTYPE":"996","Class":"6"},"geometry":{"x":324553.55169999972,"y":2780417.7563000005}},{"attributes":{"OBJECTID":18972,"LANDMARKID":"1001700000424","LANDMARKCO":"603","LANDMARKNA":"富國旅社","LANDMARKAD":"1001704","ADDRESS":"基隆市仁愛區孝三路99巷18號1-5樓","TEL":"02-24284171-2","COUNTYNAME":"基隆市(海)","TOWNNAME":"仁愛區(海)","MARKTYPE":"996","Class":"6"},"geometry":{"x":324527.3702999996,"y":2780509.8904999997}},{"attributes":{"OBJECTID":18973,"LANDMARKID":"1001700000425","LANDMARKCO":"603","LANDMARKNA":"同安大旅社","LANDMARKAD":"1001704","ADDRESS":"基隆市仁愛區孝三路99巷1號2-3樓","TEL":"02-24227719","COUNTYNAME":"基隆市(海)","TOWNNAME":"仁愛區(海)","MARKTYPE":"996","Class":"6"},"geometry":{"x":324574.19919999968,"y":2780478.6338999998}},{"attributes":{"OBJECTID":18974,"LANDMARKID":"1001700000426","LANDMARKCO":"603","LANDMARKNA":"馥嘉商務旅館","LANDMARKAD":"1001704","ADDRESS":"基隆市仁愛區忠四路11巷5號1-4樓","TEL":"02-24224667","COUNTYNAME":"基隆市(海)","TOWNNAME":"仁愛區(海)","MARKTYPE":"996","Class":"6"},"geometry":{"x":324573.65930000041,"y":2780129.6553000007}},{"attributes":{"OBJECTID":18975,"LANDMARKID":"1001700000394","LANDMARKCO":"511","LANDMARKNA":"基隆廟口夜市","LANDMARKAD":"1001704","ADDRESS":"基隆市仁愛區","TEL":" ","COUNTYNAME":"基隆市(海)","TOWNNAME":"仁愛區(海)","MARKTYPE":"995","Class":"5"},"geometry":{"x":324918.81159999967,"y":2780216.7481999993}},{"attributes":{"OBJECTID":18976,"LANDMARKID":"1001700000305","LANDMARKCO":"405","LANDMARKNA":"中油加油站-六堵站(中油直營)","LANDMARKAD":"1001702","ADDRESS":"基隆市七堵區明德二路28號","TEL":"02-24512006","COUNTYNAME":"基隆市","TOWNNAME":"七堵區","MARKTYPE":"994","Class":"4"},"geometry":{"x":321046.32519999985,"y":2775250.3424999993}},{"attributes":{"OBJECTID":18977,"LANDMARKID":"1001700000306","LANDMARKCO":"405","LANDMARKNA":"中油加油站-北基五堵交流道站","LANDMARKAD":"1001702","ADDRESS":"基隆市七堵區明德三路102號","TEL":"02-24518513","COUNTYNAME":"基隆市","TOWNNAME":"七堵區","MARKTYPE":"994","Class":"4"},"geometry":{"x":318961.28500000015,"y":2774313.0066999998}},{"attributes":{"OBJECTID":18978,"LANDMARKID":"1001700000307","LANDMARKCO":"405","LANDMARKNA":"中油加油站-百福站(中油直營)","LANDMARKAD":"1001702","ADDRESS":"基隆市七堵區堵南街46-3號","TEL":"02-24526033","COUNTYNAME":"基隆市","TOWNNAME":"七堵區","MARKTYPE":"994","Class":"4"},"geometry":{"x":319092.24940000009,"y":2775093.5402000006}},{"attributes":{"OBJECTID":18979,"LANDMARKID":"1001700000308","LANDMARKCO":"405","LANDMARKNA":"中油加油站-八德路站(中油直營)","LANDMARKAD":"1001702","ADDRESS":"基隆市七堵區八德路2-15號","TEL":"02-24562643","COUNTYNAME":"基隆市","TOWNNAME":"七堵區","MARKTYPE":"994","Class":"4"},"geometry":{"x":322740.64169999957,"y":2777213.5348000005}},{"attributes":{"OBJECTID":18980,"LANDMARKID":"1001700000286","LANDMARKCO":"402","LANDMARKNA":"亞太行動寬頻電信-基隆七堵加盟服務中心","LANDMARKAD":"1001702","ADDRESS":"基隆市七堵區明德一路71號","TEL":"02-24551601","COUNTYNAME":"基隆市","TOWNNAME":"七堵區","MARKTYPE":"994","Class":"4"},"geometry":{"x":322225.65419999976,"y":2776859.8329000007}},{"attributes":{"OBJECTID":18981,"LANDMARKID":"1001700000385","LANDMARKCO":"507","LANDMARKNA":"獅球嶺隧道","LANDMARKAD":"1001702","ADDRESS":"基隆市七堵區八德里八德路81號","TEL":" ","COUNTYNAME":"基隆市","TOWNNAME":"七堵區","MARKTYPE":"995","Class":"5"},"geometry":{"x":323263.75710000005,"y":2778457.3132000007}},{"attributes":{"OBJECTID":18982,"LANDMARKID":"1001700000373","LANDMARKCO":"408","LANDMARKNA":"郵局-基隆七堵郵局","LANDMARKAD":"1001702","ADDRESS":"基隆市七堵區明德一路171號","TEL":"(02)2456-1286","COUNTYNAME":"基隆市","TOWNNAME":"七堵區","MARKTYPE":"994","Class":"4"},"geometry":{"x":321893.54530000035,"y":2776720.1245000008}},{"attributes":{"OBJECTID":18983,"LANDMARKID":"1001700000374","LANDMARKCO":"408","LANDMARKNA":"郵局-基隆六堵郵局","LANDMARKAD":"1001702","ADDRESS":"基隆市七堵區工東街64號","TEL":"(02)2451-2153","COUNTYNAME":"基隆市","TOWNNAME":"七堵區","MARKTYPE":"994","Class":"4"},"geometry":{"x":320949.28000000026,"y":2775745.7004000004}},{"attributes":{"OBJECTID":18984,"LANDMARKID":"1001700000375","LANDMARKCO":"408","LANDMARKNA":"郵局-基隆百福郵局","LANDMARKAD":"1001702","ADDRESS":"基隆市七堵區百五街93號","TEL":"(02)2451-2891","COUNTYNAME":"基隆市","TOWNNAME":"七堵區","MARKTYPE":"994","Class":"4"},"geometry":{"x":320389.52940000035,"y":2775291.7076999992}},{"attributes":{"OBJECTID":18985,"LANDMARKID":"1001700000379","LANDMARKCO":"409","LANDMARKNA":"基隆市農會","LANDMARKAD":"1001702","ADDRESS":"基隆市七堵區明德一路149號","TEL":"02-24567156","COUNTYNAME":"基隆市","TOWNNAME":"七堵區","MARKTYPE":"994","Class":"4"},"geometry":{"x":321989.71210000012,"y":2776756.1604999993}},{"attributes":{"OBJECTID":18986,"LANDMARKID":"1001700000304","LANDMARKCO":"404","LANDMARKNA":"台灣省自來水六堵營運所","LANDMARKAD":"1001702","ADDRESS":"基隆市七堵區工建西路30號","TEL":" ","COUNTYNAME":"基隆市","TOWNNAME":"七堵區","MARKTYPE":"994","Class":"4"},"geometry":{"x":320876.0689000003,"y":2776421.7210000008}},{"attributes":{"OBJECTID":18987,"LANDMARKID":"1001700000345","LANDMARKCO":"406","LANDMARKNA":"介壽公園","LANDMARKAD":"1001702","ADDRESS":"基隆市七堵區","TEL":" ","COUNTYNAME":"基隆市","TOWNNAME":"七堵區","MARKTYPE":"994","Class":"4"},"geometry":{"x":319464.82259999961,"y":2778289.6945999991}},{"attributes":{"OBJECTID":18988,"LANDMARKID":"1001700000346","LANDMARKCO":"406","LANDMARKNA":"泰安公園","LANDMARKAD":"1001702","ADDRESS":"基隆市七堵區","TEL":" ","COUNTYNAME":"基隆市","TOWNNAME":"七堵區","MARKTYPE":"994","Class":"4"},"geometry":{"x":321567.56780000031,"y":2775729.5409999993}},{"attributes":{"OBJECTID":18989,"LANDMARKID":"1001700000347","LANDMARKCO":"406","LANDMARKNA":"第八號公園","LANDMARKAD":"1001702","ADDRESS":"基隆市七堵區","TEL":" ","COUNTYNAME":"基隆市","TOWNNAME":"七堵區","MARKTYPE":"994","Class":"4"},"geometry":{"x":319943.93099999987,"y":2775639.1142999995}},{"attributes":{"OBJECTID":18990,"LANDMARKID":"1001700000309","LANDMARKCO":"405","LANDMARKNA":"全國加油站-七堵站（台塑）","LANDMARKAD":"1001702","ADDRESS":"基隆市七堵區俊賢路26號","TEL":"02-24551045","COUNTYNAME":"基隆市","TOWNNAME":"七堵區","MARKTYPE":"994","Class":"4"},"geometry":{"x":321191.3853000002,"y":2776519.3734000009}},{"attributes":{"OBJECTID":18991,"LANDMARKID":"1001700000310","LANDMARKCO":"405","LANDMARKNA":"台亞加油站-明德站（台塑）","LANDMARKAD":"1001702","ADDRESS":"基隆市七堵區明德一路238號","TEL":"(02)2455-1214","COUNTYNAME":"基隆市","TOWNNAME":"七堵區","MARKTYPE":"994","Class":"4"},"geometry":{"x":321647.04059999995,"y":2776597.4682999998}},{"attributes":{"OBJECTID":18992,"LANDMARKID":"1001700000057","LANDMARKCO":"107","LANDMARKNA":"國公路警察局第九警察隊七堵小隊","LANDMARKAD":"1001702","ADDRESS":"基隆市七堵區大成街62之1號","TEL":"02-24563434","COUNTYNAME":"基隆市","TOWNNAME":"七堵區","MARKTYPE":"991","Class":"1"},"geometry":{"x":319078.59829999972,"y":2778069.1854999997}},{"attributes":{"OBJECTID":18993,"LANDMARKID":"1001700000024","LANDMARKCO":"103","LANDMARKNA":"基隆巿七堵區衛生所","LANDMARKAD":"1001702","ADDRESS":"基隆市七堵區明德一路169號","TEL":"02-24562008","COUNTYNAME":"基隆市","TOWNNAME":"七堵區","MARKTYPE":"991","Class":"1"},"geometry":{"x":321916.15259999968,"y":2776728.5052000005}},{"attributes":{"OBJECTID":18994,"LANDMARKID":"1001700000101","LANDMARKCO":"108","LANDMARKNA":"基隆市七堵區公所","LANDMARKAD":"1001702","ADDRESS":"基隆市七堵區自治街15號","TEL":"02-24566171","COUNTYNAME":"基隆市","TOWNNAME":"七堵區","MARKTYPE":"991","Class":"1"},"geometry":{"x":321942.40919999965,"y":2776587.6165999994}},{"attributes":{"OBJECTID":18995,"LANDMARKID":"1001700000058","LANDMARKCO":"107","LANDMARKNA":"基隆市消防局七堵消防分隊","LANDMARKAD":"1001702","ADDRESS":"基隆市七堵區百六街116號","TEL":"02-24527429","COUNTYNAME":"基隆市","TOWNNAME":"七堵區","MARKTYPE":"991","Class":"1"},"geometry":{"x":320413.59970000014,"y":2775432.3333000001}},{"attributes":{"OBJECTID":18996,"LANDMARKID":"1001700000059","LANDMARKCO":"107","LANDMARKNA":"基隆市警察局第三分局","LANDMARKAD":"1001702","ADDRESS":"基隆市七堵區明德一路142號","TEL":"02-24558843","COUNTYNAME":"基隆市","TOWNNAME":"七堵區","MARKTYPE":"991","Class":"1"},"geometry":{"x":322150.14960000012,"y":2776864.9874000009}},{"attributes":{"OBJECTID":18997,"LANDMARKID":"1001700000060","LANDMARKCO":"107","LANDMARKNA":"基隆市警察局復興派出所","LANDMARKAD":"1001702","ADDRESS":"基隆市七堵區華新一路40之3號","TEL":"02-24515602","COUNTYNAME":"基隆市","TOWNNAME":"七堵區","MARKTYPE":"991","Class":"1"},"geometry":{"x":317401.51460000034,"y":2776000.4897000007}},{"attributes":{"OBJECTID":18998,"LANDMARKID":"1001700000061","LANDMARKCO":"107","LANDMARKNA":"基隆市警察局瑪陵派出所","LANDMARKAD":"1001702","ADDRESS":"基隆市七堵區大華二路194號","TEL":"02-24565085","COUNTYNAME":"基隆市","TOWNNAME":"七堵區","MARKTYPE":"991","Class":"1"},"geometry":{"x":319280.06410000008,"y":2778260.0826999992}},{"attributes":{"OBJECTID":18999,"LANDMARKID":"1001700000062","LANDMARKCO":"107","LANDMARKNA":"基隆市警察局七堵派出所","LANDMARKAD":"1001702","ADDRESS":"基隆市七堵區明德一路142號","TEL":"02-24566947","COUNTYNAME":"基隆市","TOWNNAME":"七堵區","MARKTYPE":"991","Class":"1"},"geometry":{"x":322150.14960000012,"y":2776864.9874000009}},{"attributes":{"OBJECTID":19000,"LANDMARKID":"1001700000056","LANDMARKCO":"106","LANDMARKNA":"基隆市七堵區戶政事務所","LANDMARKAD":"1001702","ADDRESS":"基隆市七堵區7鄰南興路37號3樓","TEL":"02-24568430","COUNTYNAME":"基隆市","TOWNNAME":"七堵區","MARKTYPE":"991","Class":"1"},"geometry":{"x":322036.69450000022,"y":2776725.5964000002}}]}