{"displayFieldName":"COUNTYNAME","fieldAliases":{"OBJECTID":"OBJECTID","LANDMARKID":"LANDMARKID","LANDMARKCO":"LANDMARKCO","LANDMARKNA":"LANDMARKNA","LANDMARKAD":"LANDMARKAD","ADDRESS":"ADDRESS","TEL":"TEL","COUNTYNAME":"COUNTYNAME","TOWNNAME":"TOWNNAME","MARKTYPE":"MARKTYPE","Class":"Class"},"geometryType":"esriGeometryPoint","spatialReference":{"wkid":102443},"fields":[{"name":"OBJECTID","type":"esriFieldTypeOID","alias":"OBJECTID"},{"name":"LANDMARKID","type":"esriFieldTypeString","alias":"LANDMARKID","length":15},{"name":"LANDMARKCO","type":"esriFieldTypeString","alias":"LANDMARKCO","length":15},{"name":"LANDMARKNA","type":"esriFieldTypeString","alias":"LANDMARKNA","length":50},{"name":"LANDMARKAD","type":"esriFieldTypeString","alias":"LANDMARKAD","length":15},{"name":"ADDRESS","type":"esriFieldTypeString","alias":"ADDRESS","length":56},{"name":"TEL","type":"esriFieldTypeString","alias":"TEL","length":36},{"name":"COUNTYNAME","type":"esriFieldTypeString","alias":"COUNTYNAME","length":15},{"name":"TOWNNAME","type":"esriFieldTypeString","alias":"TOWNNAME","length":13},{"name":"MARKTYPE","type":"esriFieldTypeString","alias":"MARKTYPE","length":12},{"name":"Class","type":"esriFieldTypeString","alias":"Class","length":5}],"features":[{"attributes":{"OBJECTID":4601,"LANDMARKID":"1000100001439","LANDMARKCO":"305","LANDMARKNA":"挖子漁港","LANDMARKAD":"1000126","ADDRESS":"新北市貢寮區","TEL":" ","COUNTYNAME":"新北市","TOWNNAME":"貢寮區","MARKTYPE":"993","Class":"305"},"geometry":{"x":345895.13580000028,"y":2768425.0074000005}},{"attributes":{"OBJECTID":4602,"LANDMARKID":"1000100001440","LANDMARKCO":"305","LANDMARKNA":"澳底漁港","LANDMARKAD":"1000126","ADDRESS":"新北市貢寮區","TEL":" ","COUNTYNAME":"新北市","TOWNNAME":"貢寮區","MARKTYPE":"993","Class":"305"},"geometry":{"x":343593.07330000028,"y":2772423.3279999997}},{"attributes":{"OBJECTID":4603,"LANDMARKID":"1000100001441","LANDMARKCO":"305","LANDMARKNA":"蚊子漁港","LANDMARKAD":"1000126","ADDRESS":"新北市貢寮區","TEL":" ","COUNTYNAME":"新北市","TOWNNAME":"貢寮區","MARKTYPE":"993","Class":"305"},"geometry":{"x":342345.08299999963,"y":2774912.9495999999}},{"attributes":{"OBJECTID":4604,"LANDMARKID":"1000100001442","LANDMARKCO":"305","LANDMARKNA":"龍洞漁港","LANDMARKAD":"1000126","ADDRESS":"新北市貢寮區","TEL":" ","COUNTYNAME":"新北市","TOWNNAME":"貢寮區","MARKTYPE":"993","Class":"305"},"geometry":{"x":342325.52550000045,"y":2778919.5013999995}},{"attributes":{"OBJECTID":4605,"LANDMARKID":"1000100001392","LANDMARKCO":"303","LANDMARKNA":"金沙灣停車場","LANDMARKAD":"1000126","ADDRESS":"新北市貢寮區和美街","TEL":" ","COUNTYNAME":"新北市","TOWNNAME":"貢寮區","MARKTYPE":"993","Class":"303"},"geometry":{"x":342315.53000000026,"y":2774429.8816999998}},{"attributes":{"OBJECTID":4606,"LANDMARKID":"1000100001393","LANDMARKCO":"303","LANDMARKNA":"龍洞灣公園停車場","LANDMARKAD":"1000126","ADDRESS":"新北市貢寮區位於東北角海岸線上","TEL":" ","COUNTYNAME":"新北市","TOWNNAME":"貢寮區","MARKTYPE":"993","Class":"303"},"geometry":{"x":342354.26850000024,"y":2779073.8790000007}},{"attributes":{"OBJECTID":4607,"LANDMARKID":"1000100001394","LANDMARKCO":"303","LANDMARKNA":"貢寮區停車場","LANDMARKAD":"1000126","ADDRESS":"新北市貢寮區","TEL":" ","COUNTYNAME":"新北市","TOWNNAME":"貢寮區","MARKTYPE":"993","Class":"303"},"geometry":{"x":343076.21289999969,"y":2774002.4229000006}},{"attributes":{"OBJECTID":4608,"LANDMARKID":"1000100001395","LANDMARKCO":"303","LANDMARKNA":"鹽寮黃金海岸停車場一","LANDMARKAD":"1000126","ADDRESS":"新北市貢寮區研海街45號","TEL":"02-24902991","COUNTYNAME":"新北市","TOWNNAME":"貢寮區","MARKTYPE":"993","Class":"303"},"geometry":{"x":343469.21659999993,"y":2770796.5544000007}},{"attributes":{"OBJECTID":4609,"LANDMARKID":"1000100001396","LANDMARKCO":"303","LANDMARKNA":"鹽寮黃金海岸停車場二","LANDMARKAD":"1000126","ADDRESS":"新北市貢寮區研海街45號","TEL":"02-24902991","COUNTYNAME":"新北市","TOWNNAME":"貢寮區","MARKTYPE":"993","Class":"303"},"geometry":{"x":343491.69120000023,"y":2770690.1005000006}},{"attributes":{"OBJECTID":4610,"LANDMARKID":"1000100001397","LANDMARKCO":"303","LANDMARKNA":"草嶺古道停車場","LANDMARKAD":"1000126","ADDRESS":"新北市貢寮區望遠街7號","TEL":" ","COUNTYNAME":"新北市","TOWNNAME":"貢寮區","MARKTYPE":"993","Class":"303"},"geometry":{"x":343797.92169999983,"y":2766169.8599999994}},{"attributes":{"OBJECTID":4611,"LANDMARKID":"1000100001398","LANDMARKCO":"303","LANDMARKNA":"龍門公園停車場","LANDMARKAD":"1000126","ADDRESS":"新北市貢寮區興隆街100號","TEL":"02-24991791","COUNTYNAME":"新北市","TOWNNAME":"貢寮區","MARKTYPE":"993","Class":"303"},"geometry":{"x":344768.85209999979,"y":2768184.8069000002}},{"attributes":{"OBJECTID":4612,"LANDMARKID":"1000100001399","LANDMARKCO":"303","LANDMARKNA":"福隆海水浴場停車場","LANDMARKAD":"1000126","ADDRESS":"新北市貢寮區福隆街40號","TEL":" ","COUNTYNAME":"新北市","TOWNNAME":"貢寮區","MARKTYPE":"993","Class":"303"},"geometry":{"x":345205.10230000038,"y":2767989.3967000004}},{"attributes":{"OBJECTID":4613,"LANDMARKID":"1000100001400","LANDMARKCO":"303","LANDMARKNA":"東北角停車場","LANDMARKAD":"1000126","ADDRESS":"新北市貢寮區福隆街","TEL":" ","COUNTYNAME":"新北市","TOWNNAME":"貢寮區","MARKTYPE":"993","Class":"303"},"geometry":{"x":345377.69130000006,"y":2768046.0866999999}},{"attributes":{"OBJECTID":4614,"LANDMARKID":"1000100001401","LANDMARKCO":"303","LANDMARKNA":"鼻頭停車場","LANDMARKAD":"1000126","ADDRESS":"新北市貢寮區","TEL":" ","COUNTYNAME":"新北市","TOWNNAME":"貢寮區","MARKTYPE":"993","Class":"303"},"geometry":{"x":342477.70729999989,"y":2779172.5307999998}},{"attributes":{"OBJECTID":4615,"LANDMARKID":"1000100001402","LANDMARKCO":"303","LANDMARKNA":"龍洞南口停車場","LANDMARKAD":"1000126","ADDRESS":"新北市貢寮區","TEL":" ","COUNTYNAME":"新北市","TOWNNAME":"貢寮區","MARKTYPE":"993","Class":"303"},"geometry":{"x":342643.16849999968,"y":2777575.4025999997}},{"attributes":{"OBJECTID":4616,"LANDMARKID":"1000100001403","LANDMARKCO":"303","LANDMARKNA":"澳底公園地下停車場","LANDMARKAD":"1000126","ADDRESS":"新北市貢寮區澳底村仁愛路","TEL":" ","COUNTYNAME":"新北市","TOWNNAME":"貢寮區","MARKTYPE":"993","Class":"303"},"geometry":{"x":343329.06429999974,"y":2772388.5339000002}},{"attributes":{"OBJECTID":4617,"LANDMARKID":"1000100001404","LANDMARKCO":"303","LANDMARKNA":"東北角停車場","LANDMARKAD":"1000126","ADDRESS":"新北市貢寮區","TEL":" ","COUNTYNAME":"新北市","TOWNNAME":"貢寮區","MARKTYPE":"993","Class":"303"},"geometry":{"x":345294.1623999998,"y":2767976.8917999994}},{"attributes":{"OBJECTID":4618,"LANDMARKID":"1000100000934","LANDMARKCO":"301","LANDMARKNA":"福隆火車站","LANDMARKAD":"1000126","ADDRESS":"新北市貢寮區福隆村福隆街2號","TEL":"02-24991800","COUNTYNAME":"新北市","TOWNNAME":"貢寮區","MARKTYPE":"993","Class":"301"},"geometry":{"x":345340.78079999983,"y":2767847.7664999999}},{"attributes":{"OBJECTID":4619,"LANDMARKID":"1000100000935","LANDMARKCO":"301","LANDMARKNA":"貢寮火車站","LANDMARKAD":"1000126","ADDRESS":"新北市貢寮區貢寮村朝陽街33號","TEL":"02-24941500","COUNTYNAME":"新北市","TOWNNAME":"貢寮區","MARKTYPE":"993","Class":"301"},"geometry":{"x":341712.00820000004,"y":2768505.6797000002}},{"attributes":{"OBJECTID":4620,"LANDMARKID":"1000100002918","LANDMARKCO":"603","LANDMARKNA":"九岸海景會館","LANDMARKAD":"1000126","ADDRESS":"新北市貢寮區仁愛路106巷36號","TEL":"02-24903955","COUNTYNAME":"新北市","TOWNNAME":"貢寮區","MARKTYPE":"996","Class":"6"},"geometry":{"x":343583.74700000044,"y":2772158.8725000005}},{"attributes":{"OBJECTID":4621,"LANDMARKID":"1000100002919","LANDMARKCO":"603","LANDMARKNA":"銘興旅社","LANDMARKAD":"1000126","ADDRESS":"新北市貢寮區福隆村仁和路47號","TEL":"02-24902263","COUNTYNAME":"新北市","TOWNNAME":"貢寮區","MARKTYPE":"996","Class":"6"},"geometry":{"x":343252.5756000001,"y":2772161.9437000006}},{"attributes":{"OBJECTID":4622,"LANDMARKID":"1000100002920","LANDMARKCO":"603","LANDMARKNA":"福隆貝悅酒店","LANDMARKAD":"1000126","ADDRESS":"新北市貢寮區福隆村福隆街40號","TEL":"02-24992381","COUNTYNAME":"新北市","TOWNNAME":"貢寮區","MARKTYPE":"996","Class":"6"},"geometry":{"x":344757.45689999964,"y":2768378.8491999991}},{"attributes":{"OBJECTID":4623,"LANDMARKID":"1000100002921","LANDMARKCO":"603","LANDMARKNA":"海都旅社","LANDMARKAD":"1000126","ADDRESS":"新北市貢寮區福隆村福隆街25號","TEL":"02-24991839","COUNTYNAME":"新北市","TOWNNAME":"貢寮區","MARKTYPE":"996","Class":"6"},"geometry":{"x":345350.76690000016,"y":2768046.7228999995}},{"attributes":{"OBJECTID":4624,"LANDMARKID":"1000100002922","LANDMARKCO":"603","LANDMARKNA":"大東旅館","LANDMARKAD":"1000126","ADDRESS":"新北市貢寮區福隆村興隆街4之1號","TEL":"02-24991362","COUNTYNAME":"新北市","TOWNNAME":"貢寮區","MARKTYPE":"996","Class":"6"},"geometry":{"x":345350.76690000016,"y":2768046.7228999995}},{"attributes":{"OBJECTID":4625,"LANDMARKID":"1000100002486","LANDMARKCO":"503","LANDMARKNA":"龍洞岩場","LANDMARKAD":"1000126","ADDRESS":"新北市貢寮區","TEL":" ","COUNTYNAME":"新北市","TOWNNAME":"貢寮區","MARKTYPE":"995","Class":"5"},"geometry":{"x":343027.06039999984,"y":2778481.0270000007}},{"attributes":{"OBJECTID":4626,"LANDMARKID":"1000100002684","LANDMARKCO":"509","LANDMARKNA":"福隆海水浴場","LANDMARKAD":"1000126","ADDRESS":"新北市貢寮區福隆街40號","TEL":"02-24992381","COUNTYNAME":"新北市","TOWNNAME":"貢寮區","MARKTYPE":"995","Class":"5"},"geometry":{"x":345214.11510000005,"y":2768108.9514000006}},{"attributes":{"OBJECTID":4627,"LANDMARKID":"1000100002685","LANDMARKCO":"509","LANDMARKNA":"金沙灣海水浴場","LANDMARKAD":"1000126","ADDRESS":"新北市貢寮區","TEL":" ","COUNTYNAME":"新北市","TOWNNAME":"貢寮區","MARKTYPE":"995","Class":"5"},"geometry":{"x":342320.72130000032,"y":2774458.7092000004}},{"attributes":{"OBJECTID":4628,"LANDMARKID":"1000100002481","LANDMARKCO":"503","LANDMARKNA":"桃源谷大草原","LANDMARKAD":"1000126","ADDRESS":"新北市貢寮區","TEL":" ","COUNTYNAME":"新北市","TOWNNAME":"貢寮區","MARKTYPE":"995","Class":"5"},"geometry":{"x":340403.79179999977,"y":2762445.7882000003}},{"attributes":{"OBJECTID":4629,"LANDMARKID":"1000100002482","LANDMARKCO":"503","LANDMARKNA":"舊草嶺隧道","LANDMARKAD":"1000126","ADDRESS":"新北市貢寮區","TEL":" ","COUNTYNAME":"新北市","TOWNNAME":"貢寮區","MARKTYPE":"995","Class":"5"},"geometry":{"x":346718.76460000034,"y":2766564.3993999995}},{"attributes":{"OBJECTID":4630,"LANDMARKID":"1000100002686","LANDMARKCO":"509","LANDMARKNA":"鹽寮海水浴場","LANDMARKAD":"1000126","ADDRESS":"新北市貢寮區","TEL":" ","COUNTYNAME":"新北市","TOWNNAME":"貢寮區","MARKTYPE":"995","Class":"5"},"geometry":{"x":343704.6771999998,"y":2770457.3878000006}},{"attributes":{"OBJECTID":4631,"LANDMARKID":"1000100002687","LANDMARKCO":"509","LANDMARKNA":"福隆蔚藍海岸海水浴場","LANDMARKAD":"1000126","ADDRESS":"新北市貢寮區福隆村福隆街40號","TEL":" ","COUNTYNAME":"新北市","TOWNNAME":"貢寮區","MARKTYPE":"995","Class":"5"},"geometry":{"x":346629.37949999981,"y":2768505.5711000003}},{"attributes":{"OBJECTID":4632,"LANDMARKID":"1000100002483","LANDMARKCO":"503","LANDMARKNA":"東北角海岸風景特定區","LANDMARKAD":"1000126","ADDRESS":"新北市貢寮區興隆街36號","TEL":" ","COUNTYNAME":"新北市","TOWNNAME":"貢寮區","MARKTYPE":"995","Class":"5"},"geometry":{"x":344858.59509999957,"y":2768137.2938999999}},{"attributes":{"OBJECTID":4633,"LANDMARKID":"1000100002484","LANDMARKCO":"503","LANDMARKNA":"三貂角燈塔","LANDMARKAD":"1000126","ADDRESS":"新北市貢寮區福連村","TEL":" ","COUNTYNAME":"新北市","TOWNNAME":"貢寮區","MARKTYPE":"995","Class":"5"},"geometry":{"x":351098.91309999954,"y":2766942.9804999996}},{"attributes":{"OBJECTID":4634,"LANDMARKID":"1000100002485","LANDMARKCO":"503","LANDMARKNA":"三貂角(台灣本島極東點)","LANDMARKAD":"1000126","ADDRESS":"新北市貢寮區","TEL":" ","COUNTYNAME":"新北市","TOWNNAME":"貢寮區","MARKTYPE":"995","Class":"5"},"geometry":{"x":351592.59119999968,"y":2767348.8159999996}},{"attributes":{"OBJECTID":4635,"LANDMARKID":"1000100001985","LANDMARKCO":"405","LANDMARKNA":"中油加油站-新莊大漢橋站(中油直營)","LANDMARKAD":"1000105","ADDRESS":"新北市新莊區思源路41-1號","TEL":"02-29977573","COUNTYNAME":"新北市","TOWNNAME":"新莊區","MARKTYPE":"994","Class":"4"},"geometry":{"x":296392.63460000046,"y":2770329.5079999994}},{"attributes":{"OBJECTID":4636,"LANDMARKID":"1000100001986","LANDMARKCO":"405","LANDMARKNA":"中油加油站-興德站","LANDMARKAD":"1000105","ADDRESS":"新北市新莊區頭前路13號","TEL":"02-89923336","COUNTYNAME":"新北市","TOWNNAME":"新莊區","MARKTYPE":"994","Class":"4"},"geometry":{"x":297225.16249999963,"y":2771647.6590999998}},{"attributes":{"OBJECTID":4637,"LANDMARKID":"1000100001987","LANDMARKCO":"405","LANDMARKNA":"中油加油站-永錡中正站","LANDMARKAD":"1000105","ADDRESS":"新北市新莊區中正路692之8號","TEL":"02-29032955","COUNTYNAME":"新北市","TOWNNAME":"新莊區","MARKTYPE":"994","Class":"4"},"geometry":{"x":292358.89769999962,"y":2768986.4289999995}},{"attributes":{"OBJECTID":4638,"LANDMARKID":"1000100001988","LANDMARKCO":"405","LANDMARKNA":"中油加油站-輔大站","LANDMARKAD":"1000105","ADDRESS":"新北市新莊區中正路486-1號","TEL":"02-22094677","COUNTYNAME":"新北市","TOWNNAME":"新莊區","MARKTYPE":"994","Class":"4"},"geometry":{"x":294089.85819999967,"y":2769514.2985999994}},{"attributes":{"OBJECTID":4639,"LANDMARKID":"1000100001989","LANDMARKCO":"405","LANDMARKNA":"中油加油站-五工站","LANDMARKAD":"1000105","ADDRESS":"新北市新莊區五工路60號","TEL":"02-85215660","COUNTYNAME":"新北市","TOWNNAME":"新莊區","MARKTYPE":"994","Class":"4"},"geometry":{"x":296288.37260000035,"y":2772834.8679000009}},{"attributes":{"OBJECTID":4640,"LANDMARKID":"1000100001990","LANDMARKCO":"405","LANDMARKNA":"中油加油站-五股工業區站(中油直營)","LANDMARKAD":"1000105","ADDRESS":"新北市新莊區五工路99-3號","TEL":"02-22980057","COUNTYNAME":"新北市","TOWNNAME":"新莊區","MARKTYPE":"994","Class":"4"},"geometry":{"x":296038.1091,"y":2772988.9683999997}},{"attributes":{"OBJECTID":4641,"LANDMARKID":"1000100001991","LANDMARKCO":"405","LANDMARKNA":"中油加油站-聯新站","LANDMARKAD":"1000105","ADDRESS":"新北市新莊區中山路三段118號","TEL":"02-29039393","COUNTYNAME":"新北市","TOWNNAME":"新莊區","MARKTYPE":"994","Class":"4"},"geometry":{"x":292140.38669999968,"y":2769420.6561999992}},{"attributes":{"OBJECTID":4642,"LANDMARKID":"1000100001992","LANDMARKCO":"405","LANDMARKNA":"統一速邁樂加油站-新莊加油站(中油)","LANDMARKAD":"1000105","ADDRESS":"新北市新莊區青山路一段170號","TEL":" ","COUNTYNAME":"新北市","TOWNNAME":"新莊區","MARKTYPE":"994","Class":"4"},"geometry":{"x":290528.69890000019,"y":2769151.1867999993}},{"attributes":{"OBJECTID":4643,"LANDMARKID":"1000100001993","LANDMARKCO":"405","LANDMARKNA":"中油加油站-興化站","LANDMARKAD":"1000105","ADDRESS":"新北市新莊區復興路三段117號","TEL":"02-29905558","COUNTYNAME":"新北市","TOWNNAME":"新莊區","MARKTYPE":"994","Class":"4"},"geometry":{"x":296919.62770000007,"y":2770813.2496000007}},{"attributes":{"OBJECTID":4644,"LANDMARKID":"1000100001994","LANDMARKCO":"405","LANDMARKNA":"中油加油站-新莊站(中油直營)","LANDMARKAD":"1000105","ADDRESS":"新北市新莊區中正路338號","TEL":"02-29965736","COUNTYNAME":"新北市","TOWNNAME":"新莊區","MARKTYPE":"994","Class":"4"},"geometry":{"x":294933.63769999985,"y":2769704.0919000003}},{"attributes":{"OBJECTID":4645,"LANDMARKID":"1000100001995","LANDMARKCO":"405","LANDMARKNA":"中油加油站-新莊中山路站(中油直營)","LANDMARKAD":"1000105","ADDRESS":"新北市新莊區中山路一段146號","TEL":"02-85222428","COUNTYNAME":"新北市","TOWNNAME":"新莊區","MARKTYPE":"994","Class":"4"},"geometry":{"x":295842.18780000042,"y":2772579.6860000007}},{"attributes":{"OBJECTID":4646,"LANDMARKID":"1000100001996","LANDMARKCO":"405","LANDMARKNA":"中油加油站-麗昌站","LANDMARKAD":"1000105","ADDRESS":"新北市思源路68號","TEL":"02-8993712","COUNTYNAME":"新北市","TOWNNAME":"新莊區","MARKTYPE":"994","Class":"4"},"geometry":{"x":296435.71920000017,"y":2770792.5961000007}},{"attributes":{"OBJECTID":4647,"LANDMARKID":"1000100001796","LANDMARKCO":"402","LANDMARKNA":"My Phone台灣大哥大-台北新莊直營服務中心","LANDMARKAD":"1000105","ADDRESS":"新北市新莊區中正路299號","TEL":"0809-000-166","COUNTYNAME":"新北市","TOWNNAME":"新莊區","MARKTYPE":"994","Class":"4"},"geometry":{"x":295255.67050000001,"y":2769746.5911999997}},{"attributes":{"OBJECTID":4648,"LANDMARKID":"1000100001797","LANDMARKCO":"402","LANDMARKNA":"My Phone台灣大哥大-新莊富國二直營服務中心","LANDMARKAD":"1000105","ADDRESS":"新北市新莊區富國路41號","TEL":" ","COUNTYNAME":"新北市","TOWNNAME":"新莊區","MARKTYPE":"994","Class":"4"},"geometry":{"x":292296.47640000004,"y":2768765.2441000007}},{"attributes":{"OBJECTID":4649,"LANDMARKID":"1000100001798","LANDMARKCO":"402","LANDMARKNA":"My Phone台灣大哥大-新莊幸福二直營服務中心","LANDMARKAD":"1000105","ADDRESS":"新北市新莊區幸福路690號","TEL":" ","COUNTYNAME":"新北市","TOWNNAME":"新莊區","MARKTYPE":"994","Class":"4"},"geometry":{"x":295433.76339999959,"y":2771312.9118000008}},{"attributes":{"OBJECTID":4650,"LANDMARKID":"1000100001799","LANDMARKCO":"402","LANDMARKNA":"亞太行動寬頻電信-新莊中平加盟服務中心","LANDMARKAD":"1000105","ADDRESS":"新北市新莊區中平路16號","TEL":"02-89931626","COUNTYNAME":"新北市","TOWNNAME":"新莊區","MARKTYPE":"994","Class":"4"},"geometry":{"x":294888.45550000016,"y":2770604.8694000002}},{"attributes":{"OBJECTID":4651,"LANDMARKID":"1000100001800","LANDMARKCO":"402","LANDMARKNA":"亞太行動寬頻電信-新莊民安西加盟服務中心","LANDMARKAD":"1000105","ADDRESS":"新北市新莊區民安西路165號","TEL":"02-22049482","COUNTYNAME":"新北市","TOWNNAME":"新莊區","MARKTYPE":"994","Class":"4"},"geometry":{"x":293015.80659999978,"y":2767639.6247000005}},{"attributes":{"OBJECTID":4652,"LANDMARKID":"1000100001801","LANDMARKCO":"402","LANDMARKNA":"亞太行動寬頻電信-新莊幸福加盟服務中心","LANDMARKAD":"1000105","ADDRESS":"新北市新莊區幸福路35號","TEL":"02-89931171","COUNTYNAME":"新北市","TOWNNAME":"新莊區","MARKTYPE":"994","Class":"4"},"geometry":{"x":296273.81539999973,"y":2771326.9127999991}},{"attributes":{"OBJECTID":4653,"LANDMARKID":"1000100001802","LANDMARKCO":"402","LANDMARKNA":"亞太行動寬頻電信-新莊富國加盟服務中心","LANDMARKAD":"1000105","ADDRESS":"新北市新莊區富國路164號","TEL":"02-82015008","COUNTYNAME":"新北市","TOWNNAME":"新莊區","MARKTYPE":"994","Class":"4"},"geometry":{"x":292741.89190000016,"y":2768590.5978999995}},{"attributes":{"OBJECTID":4654,"LANDMARKID":"1000100001803","LANDMARKCO":"402","LANDMARKNA":"亞太行動寬頻電信-新莊中華加盟服務中心","LANDMARKAD":"1000105","ADDRESS":"新北市新莊區中華路一段60號","TEL":"02-89928992","COUNTYNAME":"新北市","TOWNNAME":"新莊區","MARKTYPE":"994","Class":"4"},"geometry":{"x":295623.90350000001,"y":2770123.2917999998}},{"attributes":{"OBJECTID":4655,"LANDMARKID":"1000100001583","LANDMARKCO":"401","LANDMARKNA":"大順醫院","LANDMARKAD":"1000105","ADDRESS":"新北市新莊區中正路215號","TEL":"02-29912637","COUNTYNAME":"新北市","TOWNNAME":"新莊區","MARKTYPE":"994","Class":"4"},"geometry":{"x":295528.89479999989,"y":2769813.6083000004}},{"attributes":{"OBJECTID":4656,"LANDMARKID":"1000100001584","LANDMARKCO":"401","LANDMARKNA":"宏安中醫醫院","LANDMARKAD":"1000105","ADDRESS":"新北市新莊區中正路213號4樓","TEL":"02-29970022","COUNTYNAME":"新北市","TOWNNAME":"新莊區","MARKTYPE":"994","Class":"4"},"geometry":{"x":295539.8981999997,"y":2769814.5715999994}},{"attributes":{"OBJECTID":4657,"LANDMARKID":"1000100001585","LANDMARKCO":"401","LANDMARKNA":"財團法人台灣省私立台灣仁濟院附設仁濟","LANDMARKAD":"1000105","ADDRESS":"新北市新莊區瓊林路100巷27號","TEL":"02-22015222","COUNTYNAME":"新北市","TOWNNAME":"新莊區","MARKTYPE":"994","Class":"4"},"geometry":{"x":294679.62880000006,"y":2768811.6566000003}},{"attributes":{"OBJECTID":4658,"LANDMARKID":"1000100001586","LANDMARKCO":"401","LANDMARKNA":"行政院衛生署台北醫院","LANDMARKAD":"1000105","ADDRESS":"新北市新莊區思賢里思源路127號","TEL":"02-22765566","COUNTYNAME":"新北市","TOWNNAME":"新莊區","MARKTYPE":"994","Class":"4"},"geometry":{"x":296378.59289999958,"y":2770645.5645000003}},{"attributes":{"OBJECTID":4659,"LANDMARKID":"1000100001587","LANDMARKCO":"401","LANDMARKNA":"新莊英仁醫院","LANDMARKAD":"1000105","ADDRESS":"新北市新莊區大觀街46之2號","TEL":"02-29916363","COUNTYNAME":"新北市","TOWNNAME":"新莊區","MARKTYPE":"994","Class":"4"},"geometry":{"x":295796.91720000003,"y":2769819.6510000005}},{"attributes":{"OBJECTID":4660,"LANDMARKID":"1000100001588","LANDMARKCO":"401","LANDMARKNA":"新仁醫院","LANDMARKAD":"1000105","ADDRESS":"新北市新莊區中正路395號","TEL":"02-82010835","COUNTYNAME":"新北市","TOWNNAME":"新莊區","MARKTYPE":"994","Class":"4"},"geometry":{"x":294958.43240000028,"y":2769674.6493999995}},{"attributes":{"OBJECTID":4661,"LANDMARKID":"1000100001589","LANDMARKCO":"401","LANDMARKNA":"益民醫院","LANDMARKAD":"1000105","ADDRESS":"新北市新莊區中港路127號","TEL":"02-89911050","COUNTYNAME":"新北市","TOWNNAME":"新莊區","MARKTYPE":"994","Class":"4"},"geometry":{"x":295935.44660000037,"y":2770294.1788999997}},{"attributes":{"OBJECTID":4662,"LANDMARKID":"1000100001590","LANDMARKCO":"401","LANDMARKNA":"新泰綜合醫院","LANDMARKAD":"1000105","ADDRESS":"新北市新莊區新泰路157號","TEL":"02-29962121","COUNTYNAME":"新北市","TOWNNAME":"新莊區","MARKTYPE":"994","Class":"4"},"geometry":{"x":295187.31749999989,"y":2769947.8139999993}},{"attributes":{"OBJECTID":4663,"LANDMARKID":"1000100001591","LANDMARKCO":"401","LANDMARKNA":"行政院衛生署樂生療養院","LANDMARKAD":"1000105","ADDRESS":"新北市新莊區中正路794號","TEL":"02-82006600","COUNTYNAME":"新北市","TOWNNAME":"新莊區","MARKTYPE":"994","Class":"4"},"geometry":{"x":291446.56359999999,"y":2768179.2920999993}},{"attributes":{"OBJECTID":4664,"LANDMARKID":"1000100002592","LANDMARKCO":"507","LANDMARKNA":"廣福宮(三山國王廟)","LANDMARKAD":"1000105","ADDRESS":"新北市新莊區文德里新莊路150號","TEL":" ","COUNTYNAME":"新北市","TOWNNAME":"新莊區","MARKTYPE":"995","Class":"5"},"geometry":{"x":294783.27099999972,"y":2770151.7092000004}},{"attributes":{"OBJECTID":4665,"LANDMARKID":"1000100002593","LANDMARKCO":"507","LANDMARKNA":"新莊文昌祠","LANDMARKAD":"1000105","ADDRESS":"新北市新莊區文德里碧江街20號","TEL":" ","COUNTYNAME":"新北市","TOWNNAME":"新莊區","MARKTYPE":"995","Class":"5"},"geometry":{"x":295856.87760000024,"y":2769674.3549000006}},{"attributes":{"OBJECTID":4666,"LANDMARKID":"1000100002594","LANDMARKCO":"507","LANDMARKNA":"新莊武聖廟","LANDMARKAD":"1000105","ADDRESS":"新北市新莊區興漢里新莊路340號","TEL":" ","COUNTYNAME":"新北市","TOWNNAME":"新莊區","MARKTYPE":"995","Class":"5"},"geometry":{"x":295396.9916000003,"y":2769525.7163999993}},{"attributes":{"OBJECTID":4667,"LANDMARKID":"1000100002595","LANDMARKCO":"507","LANDMARKNA":"新莊慈祐宮","LANDMARKAD":"1000105","ADDRESS":"新北市新莊區榮和里新莊路218號","TEL":" ","COUNTYNAME":"新北市","TOWNNAME":"新莊區","MARKTYPE":"995","Class":"5"},"geometry":{"x":295577.7818,"y":2769629.3153000008}},{"attributes":{"OBJECTID":4668,"LANDMARKID":"1000100002365","LANDMARKCO":"408","LANDMARKNA":"郵局-新莊郵局","LANDMARKAD":"1000105","ADDRESS":"新北市新莊區中正路265號","TEL":"(02)2992-1622","COUNTYNAME":"新北市","TOWNNAME":"新莊區","MARKTYPE":"994","Class":"4"},"geometry":{"x":295371.74729999993,"y":2769769.2105}},{"attributes":{"OBJECTID":4669,"LANDMARKID":"1000100002366","LANDMARKCO":"408","LANDMARKNA":"郵局-輔仁大學郵局","LANDMARKAD":"1000105","ADDRESS":"新北市新莊區中正路510號(輔仁大學內)","TEL":"(02)2902-2448","COUNTYNAME":"新北市","TOWNNAME":"新莊區","MARKTYPE":"994","Class":"4"},"geometry":{"x":293807.84580000024,"y":2769495.7598000001}},{"attributes":{"OBJECTID":4670,"LANDMARKID":"1000100002367","LANDMARKCO":"408","LANDMARKNA":"郵局-新莊中港郵局","LANDMARKAD":"1000105","ADDRESS":"新北市新莊區復興路2段22號","TEL":"(02)2992-2786","COUNTYNAME":"新北市","TOWNNAME":"新莊區","MARKTYPE":"994","Class":"4"},"geometry":{"x":295841.88410000037,"y":2770732.4940000009}},{"attributes":{"OBJECTID":4671,"LANDMARKID":"1000100002368","LANDMARKCO":"408","LANDMARKNA":"郵局-新莊昌盛郵局","LANDMARKAD":"1000105","ADDRESS":"新北市新莊區中華路2段160號","TEL":"(02)2276-2561","COUNTYNAME":"新北市","TOWNNAME":"新莊區","MARKTYPE":"994","Class":"4"},"geometry":{"x":295754.44130000006,"y":2771523.7769000009}},{"attributes":{"OBJECTID":4672,"LANDMARKID":"1000100002369","LANDMARKCO":"408","LANDMARKNA":"郵局-新莊丹鳳郵局","LANDMARKAD":"1000105","ADDRESS":"新北市新莊區明志路15號","TEL":"(02)2908-8163","COUNTYNAME":"新北市","TOWNNAME":"新莊區","MARKTYPE":"994","Class":"4"},"geometry":{"x":292385.43719999958,"y":2769060.8352000006}},{"attributes":{"OBJECTID":4673,"LANDMARKID":"1000100002370","LANDMARKCO":"408","LANDMARKNA":"郵局-新莊化成路郵局","LANDMARKAD":"1000105","ADDRESS":"新北市新莊區化成路87號","TEL":"(02)2276-2634","COUNTYNAME":"新北市","TOWNNAME":"新莊區","MARKTYPE":"994","Class":"4"},"geometry":{"x":296965.81830000039,"y":2771018.4682999998}},{"attributes":{"OBJECTID":4674,"LANDMARKID":"1000100002371","LANDMARKCO":"408","LANDMARKNA":"郵局-新莊幸福郵局","LANDMARKAD":"1000105","ADDRESS":"新北市新莊區幸福路723號","TEL":"(02)2996-0981","COUNTYNAME":"新北市","TOWNNAME":"新莊區","MARKTYPE":"994","Class":"4"},"geometry":{"x":295344.67980000004,"y":2771287.2830999997}},{"attributes":{"OBJECTID":4675,"LANDMARKID":"1000100002372","LANDMARKCO":"408","LANDMARKNA":"郵局-新莊西盛郵局","LANDMARKAD":"1000105","ADDRESS":"新北市新莊區新樹路457號","TEL":"(02)2204-7137","COUNTYNAME":"新北市","TOWNNAME":"新莊區","MARKTYPE":"994","Class":"4"},"geometry":{"x":293677.78560000006,"y":2767323.3041999992}},{"attributes":{"OBJECTID":4676,"LANDMARKID":"1000100002373","LANDMARKCO":"408","LANDMARKNA":"郵局-新莊後港路郵局","LANDMARKAD":"1000105","ADDRESS":"新北市新莊區後港一路34號","TEL":"(02)2203-5248","COUNTYNAME":"新北市","TOWNNAME":"新莊區","MARKTYPE":"994","Class":"4"},"geometry":{"x":292949.39879999962,"y":2768740.8256000001}},{"attributes":{"OBJECTID":4677,"LANDMARKID":"1000100002374","LANDMARKCO":"408","LANDMARKNA":"郵局-新莊思源路郵局","LANDMARKAD":"1000105","ADDRESS":"新北市新莊區思源路213號","TEL":"(02)2992-2649","COUNTYNAME":"新北市","TOWNNAME":"新莊區","MARKTYPE":"994","Class":"4"},"geometry":{"x":296380.64499999955,"y":2770968.5582999997}},{"attributes":{"OBJECTID":4678,"LANDMARKID":"1000100002375","LANDMARKCO":"408","LANDMARKNA":"郵局-新莊新泰路郵局","LANDMARKAD":"1000105","ADDRESS":"新北市新莊區新泰路333號","TEL":"(02)2996-3926","COUNTYNAME":"新北市","TOWNNAME":"新莊區","MARKTYPE":"994","Class":"4"},"geometry":{"x":294890.07749999966,"y":2770489.8684}},{"attributes":{"OBJECTID":4679,"LANDMARKID":"1000100002376","LANDMARKCO":"408","LANDMARKNA":"郵局-新莊五工郵局","LANDMARKAD":"1000105","ADDRESS":"新北市新莊區五工三路50巷2號","TEL":"(02)2298-0293","COUNTYNAME":"新北市","TOWNNAME":"新莊區","MARKTYPE":"994","Class":"4"},"geometry":{"x":296415.16679999977,"y":2772981.4158999994}},{"attributes":{"OBJECTID":4680,"LANDMARKID":"1000100002377","LANDMARKCO":"408","LANDMARKNA":"郵局-新莊龍鳳郵局","LANDMARKAD":"1000105","ADDRESS":"新北市新莊區中正路740-2號","TEL":"(02)2907-1496","COUNTYNAME":"新北市","TOWNNAME":"新莊區","MARKTYPE":"994","Class":"4"},"geometry":{"x":291687.71210000012,"y":2768359.1503999997}},{"attributes":{"OBJECTID":4681,"LANDMARKID":"1000100002378","LANDMARKCO":"408","LANDMARKNA":"郵局-新莊民安郵局","LANDMARKAD":"1000105","ADDRESS":"新北市新莊區民安西路85號","TEL":"(02)2203-7653","COUNTYNAME":"新北市","TOWNNAME":"新莊區","MARKTYPE":"994","Class":"4"},"geometry":{"x":293113.62249999959,"y":2768017.0064000003}},{"attributes":{"OBJECTID":4682,"LANDMARKID":"1000100002464","LANDMARKCO":"409","LANDMARKNA":"新北市新莊區農會","LANDMARKAD":"1000105","ADDRESS":"新北市新莊區新莊路216號","TEL":"02-29917171-6","COUNTYNAME":"新北市","TOWNNAME":"新莊區","MARKTYPE":"994","Class":"4"},"geometry":{"x":296227.32760000043,"y":2770027.4883999992}},{"attributes":{"OBJECTID":4683,"LANDMARKID":"1000100001871","LANDMARKCO":"404","LANDMARKNA":"台灣自來水第十二區管理處","LANDMARKAD":"1000105","ADDRESS":"新北市新莊區思源路32號","TEL":"02-29968961~5","COUNTYNAME":"新北市","TOWNNAME":"新莊區","MARKTYPE":"994","Class":"4"},"geometry":{"x":296457.45830000006,"y":2770379.2437999994}},{"attributes":{"OBJECTID":4684,"LANDMARKID":"1000100001872","LANDMARKCO":"404","LANDMARKNA":"台灣自來水新莊服務所","LANDMARKAD":"1000105","ADDRESS":"新北市新莊區思源路32號","TEL":"02-29966681-3","COUNTYNAME":"新北市","TOWNNAME":"新莊區","MARKTYPE":"994","Class":"4"},"geometry":{"x":296457.45830000006,"y":2770379.2437999994}},{"attributes":{"OBJECTID":4685,"LANDMARKID":"1000100001873","LANDMARKCO":"404","LANDMARKNA":"台灣自來水管線隊","LANDMARKAD":"1000105","ADDRESS":"新北市新莊區福營路165巷24號","TEL":"02-29026253","COUNTYNAME":"新北市","TOWNNAME":"新莊區","MARKTYPE":"994","Class":"4"},"geometry":{"x":293627.79260000028,"y":2769181.3696999997}},{"attributes":{"OBJECTID":4686,"LANDMARKID":"1000100001874","LANDMARKCO":"404","LANDMARKNA":"台灣自來水北區第二工務所","LANDMARKAD":"1000105","ADDRESS":"新北市新莊區福營路165巷24號2F","TEL":"02-29029331","COUNTYNAME":"新北市","TOWNNAME":"新莊區","MARKTYPE":"994","Class":"4"},"geometry":{"x":293627.79260000028,"y":2769181.3696999997}},{"attributes":{"OBJECTID":4687,"LANDMARKID":"1000100001875","LANDMARKCO":"404","LANDMARKNA":"台灣省自來水新莊服務所","LANDMARKAD":"1000105","ADDRESS":"新北市新莊區思源路32號","TEL":" ","COUNTYNAME":"新北市","TOWNNAME":"新莊區","MARKTYPE":"994","Class":"4"},"geometry":{"x":296465.88460000046,"y":2770377.0219999999}},{"attributes":{"OBJECTID":4688,"LANDMARKID":"1000100001876","LANDMARKCO":"404","LANDMARKNA":"台灣省自來水第十二區新北市管理處","LANDMARKAD":"1000105","ADDRESS":"新北市新莊區思源路32之1號","TEL":" ","COUNTYNAME":"新北市","TOWNNAME":"新莊區","MARKTYPE":"994","Class":"4"},"geometry":{"x":296400.49340000004,"y":2772563.7327999994}},{"attributes":{"OBJECTID":4689,"LANDMARKID":"1000100001860","LANDMARKCO":"403","LANDMARKNA":"台灣電力公司北西區營業處","LANDMARKAD":"1000105","ADDRESS":"新北市新莊區化成路135號","TEL":" ","COUNTYNAME":"新北市","TOWNNAME":"新莊區","MARKTYPE":"994","Class":"4"},"geometry":{"x":296970.88509999961,"y":2771114.8820999991}},{"attributes":{"OBJECTID":4690,"LANDMARKID":"1000100002178","LANDMARKCO":"406","LANDMARKNA":"福壽公園","LANDMARKAD":"1000105","ADDRESS":"新北市新莊區","TEL":" ","COUNTYNAME":"新北市","TOWNNAME":"新莊區","MARKTYPE":"994","Class":"4"},"geometry":{"x":296148.08409999963,"y":2771603.8022000007}},{"attributes":{"OBJECTID":4691,"LANDMARKID":"1000100002179","LANDMARKCO":"406","LANDMARKNA":"思賢公園","LANDMARKAD":"1000105","ADDRESS":"新北市新莊區","TEL":" ","COUNTYNAME":"新北市","TOWNNAME":"新莊區","MARKTYPE":"994","Class":"4"},"geometry":{"x":296054.6632000003,"y":2771118.5423000008}},{"attributes":{"OBJECTID":4692,"LANDMARKID":"1000100002180","LANDMARKCO":"406","LANDMARKNA":"中港三角公園","LANDMARKAD":"1000105","ADDRESS":"新北市新莊區","TEL":" ","COUNTYNAME":"新北市","TOWNNAME":"新莊區","MARKTYPE":"994","Class":"4"},"geometry":{"x":295709.26690000016,"y":2770724.3389999997}},{"attributes":{"OBJECTID":4693,"LANDMARKID":"1000100002181","LANDMARKCO":"406","LANDMARKNA":"中正公園","LANDMARKAD":"1000105","ADDRESS":"新北市新莊區","TEL":" ","COUNTYNAME":"新北市","TOWNNAME":"新莊區","MARKTYPE":"994","Class":"4"},"geometry":{"x":296146.80399999954,"y":2770036.0530999992}},{"attributes":{"OBJECTID":4694,"LANDMARKID":"1000100002182","LANDMARKCO":"406","LANDMARKNA":"榮和社區公園","LANDMARKAD":"1000105","ADDRESS":"新北市新莊區","TEL":" ","COUNTYNAME":"新北市","TOWNNAME":"新莊區","MARKTYPE":"994","Class":"4"},"geometry":{"x":295589.38200000022,"y":2769497.8082999997}},{"attributes":{"OBJECTID":4695,"LANDMARKID":"1000100002183","LANDMARKCO":"406","LANDMARKNA":"青年公園","LANDMARKAD":"1000105","ADDRESS":"新北市新莊區","TEL":" ","COUNTYNAME":"新北市","TOWNNAME":"新莊區","MARKTYPE":"994","Class":"4"},"geometry":{"x":291323.56680000015,"y":2769192.5482999999}},{"attributes":{"OBJECTID":4696,"LANDMARKID":"1000100002184","LANDMARKCO":"406","LANDMARKNA":"建福公園","LANDMARKAD":"1000105","ADDRESS":"新北市新莊區","TEL":" ","COUNTYNAME":"新北市","TOWNNAME":"新莊區","MARKTYPE":"994","Class":"4"},"geometry":{"x":293375.93240000028,"y":2768915.8055000007}},{"attributes":{"OBJECTID":4697,"LANDMARKID":"1000100002185","LANDMARKCO":"406","LANDMARKNA":"後港公園","LANDMARKAD":"1000105","ADDRESS":"新北市新莊區","TEL":" ","COUNTYNAME":"新北市","TOWNNAME":"新莊區","MARKTYPE":"994","Class":"4"},"geometry":{"x":293245.11880000029,"y":2768680.9945}},{"attributes":{"OBJECTID":4698,"LANDMARKID":"1000100002186","LANDMARKCO":"406","LANDMARKNA":"龍鳳公園","LANDMARKAD":"1000105","ADDRESS":"新北市新莊區","TEL":" ","COUNTYNAME":"新北市","TOWNNAME":"新莊區","MARKTYPE":"994","Class":"4"},"geometry":{"x":292033.98699999973,"y":2768197.6350999996}},{"attributes":{"OBJECTID":4699,"LANDMARKID":"1000100002187","LANDMARKCO":"406","LANDMARKNA":"四維公園","LANDMARKAD":"1000105","ADDRESS":"新北市新莊區","TEL":" ","COUNTYNAME":"新北市","TOWNNAME":"新莊區","MARKTYPE":"994","Class":"4"},"geometry":{"x":292583.32290000003,"y":2768215.0247000009}},{"attributes":{"OBJECTID":4700,"LANDMARKID":"1000100002188","LANDMARKCO":"406","LANDMARKNA":"西盛公園","LANDMARKAD":"1000105","ADDRESS":"新北市新莊區","TEL":" ","COUNTYNAME":"新北市","TOWNNAME":"新莊區","MARKTYPE":"994","Class":"4"},"geometry":{"x":293151.29250000045,"y":2767764.2299000006}},{"attributes":{"OBJECTID":4701,"LANDMARKID":"1000100002189","LANDMARKCO":"406","LANDMARKNA":"萬安公園","LANDMARKAD":"1000105","ADDRESS":"新北市新莊區","TEL":" ","COUNTYNAME":"新北市","TOWNNAME":"新莊區","MARKTYPE":"994","Class":"4"},"geometry":{"x":292376.26879999973,"y":2767990.1910999995}},{"attributes":{"OBJECTID":4702,"LANDMARKID":"1000100002190","LANDMARKCO":"406","LANDMARKNA":"黃城公園","LANDMARKAD":"1000105","ADDRESS":"新北市新莊區","TEL":" ","COUNTYNAME":"新北市","TOWNNAME":"新莊區","MARKTYPE":"994","Class":"4"},"geometry":{"x":295377.88190000039,"y":2771667.3531999998}},{"attributes":{"OBJECTID":4703,"LANDMARKID":"1000100002268","LANDMARKCO":"407","LANDMARKNA":"小北百貨","LANDMARKAD":"1000105","ADDRESS":"新北市新莊區思源里中正路36號1樓","TEL":"02-22799825","COUNTYNAME":"新北市","TOWNNAME":"新莊區","MARKTYPE":"994","Class":"4"},"geometry":{"x":296901.7293999996,"y":2770485.8828999996}},{"attributes":{"OBJECTID":4704,"LANDMARKID":"1000100001997","LANDMARKCO":"405","LANDMARKNA":"台亞加油站-新莊站（台塑）","LANDMARKAD":"1000105","ADDRESS":"新北市新莊區思源路89號","TEL":"(02)2998-5961","COUNTYNAME":"新北市","TOWNNAME":"新莊區","MARKTYPE":"994","Class":"4"},"geometry":{"x":296388.3339999998,"y":2770466.9707999993}},{"attributes":{"OBJECTID":4705,"LANDMARKID":"1000100001998","LANDMARKCO":"405","LANDMARKNA":"台亞加油站-新莊化成路站（台塑）","LANDMARKAD":"1000105","ADDRESS":"新北市新莊區中山路一段23號","TEL":"(02)8522-5381","COUNTYNAME":"新北市","TOWNNAME":"新莊區","MARKTYPE":"994","Class":"4"},"geometry":{"x":296897.26219999976,"y":2772615.9108000007}},{"attributes":{"OBJECTID":4706,"LANDMARKID":"1000100001999","LANDMARKCO":"405","LANDMARKNA":"鯨世界加油站-新安站(台塑)","LANDMARKAD":"1000105","ADDRESS":"新北市新莊區新樹路294號","TEL":" ","COUNTYNAME":"新北市","TOWNNAME":"新莊區","MARKTYPE":"994","Class":"4"},"geometry":{"x":293682.12359999958,"y":2766613.3572000004}},{"attributes":{"OBJECTID":4707,"LANDMARKID":"1000100002000","LANDMARKCO":"405","LANDMARKNA":"全國加油站-新莊站(台塑)","LANDMARKAD":"1000105","ADDRESS":"新北市新莊區中華路95號","TEL":"02-29988899","COUNTYNAME":"新北市","TOWNNAME":"新莊區","MARKTYPE":"994","Class":"4"},"geometry":{"x":295558.91009999998,"y":2771078.2678999994}},{"attributes":{"OBJECTID":4708,"LANDMARKID":"1000100000301","LANDMARKCO":"107","LANDMARKNA":"新北市政府警察局新莊分局","LANDMARKAD":"1000105","ADDRESS":"新北市新莊區榮和里中正路150號","TEL":"02-29924034","COUNTYNAME":"新北市","TOWNNAME":"新莊區","MARKTYPE":"991","Class":"1"},"geometry":{"x":295595.15560000017,"y":2769899.3922000006}},{"attributes":{"OBJECTID":4709,"LANDMARKID":"1000100000087","LANDMARKCO":"103","LANDMARKNA":"新北市新莊巿衛生所","LANDMARKAD":"1000105","ADDRESS":"新北市新莊區中港路48巷25號3樓","TEL":"02-29967123","COUNTYNAME":"新北市","TOWNNAME":"新莊區","MARKTYPE":"991","Class":"1"},"geometry":{"x":296105.65510000009,"y":2770122.3991}},{"attributes":{"OBJECTID":4710,"LANDMARKID":"1000100000417","LANDMARKCO":"108","LANDMARKNA":"新北市新莊區公所","LANDMARKAD":"1000105","ADDRESS":"新北市新莊區中正路176號","TEL":"02-29929891","COUNTYNAME":"新北市","TOWNNAME":"新莊區","MARKTYPE":"991","Class":"1"},"geometry":{"x":295467.35850000009,"y":2769822.0971000008}},{"attributes":{"OBJECTID":4711,"LANDMARKID":"1000100000086","LANDMARKCO":"103","LANDMARKNA":"新北市新莊區市民代表會","LANDMARKAD":"1000105","ADDRESS":"新北市新莊區中正路176號8樓","TEL":"02-22993811","COUNTYNAME":"新北市","TOWNNAME":"新莊區","MARKTYPE":"991","Class":"1"},"geometry":{"x":295467.35850000009,"y":2769822.0971000008}},{"attributes":{"OBJECTID":4712,"LANDMARKID":"1000100000303","LANDMARKCO":"107","LANDMARKNA":"新北市消防局新北市第二大隊部","LANDMARKAD":"1000105","ADDRESS":"新北市新莊區中正路170號2樓","TEL":"02-29985958","COUNTYNAME":"新北市","TOWNNAME":"新莊區","MARKTYPE":"991","Class":"1"},"geometry":{"x":295511.11780000012,"y":2769833.4685999993}},{"attributes":{"OBJECTID":4713,"LANDMARKID":"1000100000304","LANDMARKCO":"107","LANDMARKNA":"新北市消防局福營分隊","LANDMARKAD":"1000105","ADDRESS":"新北市新莊區福營路279號","TEL":"02-29032112","COUNTYNAME":"新北市","TOWNNAME":"新莊區","MARKTYPE":"991","Class":"1"},"geometry":{"x":293142.76240000036,"y":2769106.1483999994}},{"attributes":{"OBJECTID":4714,"LANDMARKID":"1000100000305","LANDMARKCO":"107","LANDMARKNA":"新北市消防局新莊分隊","LANDMARKAD":"1000105","ADDRESS":"新北市新莊區中正路170號1樓","TEL":"02-29924050","COUNTYNAME":"新北市","TOWNNAME":"新莊區","MARKTYPE":"991","Class":"1"},"geometry":{"x":295511.11780000012,"y":2769833.4685999993}},{"attributes":{"OBJECTID":4715,"LANDMARKID":"1000100000306","LANDMARKCO":"107","LANDMARKNA":"新北市消防局中原分隊","LANDMARKAD":"1000105","ADDRESS":"新北市新莊區中原路191號","TEL":"02-29908140","COUNTYNAME":"新北市","TOWNNAME":"新莊區","MARKTYPE":"991","Class":"1"},"geometry":{"x":295633.1520999996,"y":2771857.3484000005}},{"attributes":{"OBJECTID":4716,"LANDMARKID":"1000100000307","LANDMARKCO":"107","LANDMARKNA":"新北市政府警察局丹鳳派出所","LANDMARKAD":"1000105","ADDRESS":"新北市新莊區雙鳳里4鄰雙鳳路75號","TEL":"02-29083119","COUNTYNAME":"新北市","TOWNNAME":"新莊區","MARKTYPE":"991","Class":"1"},"geometry":{"x":291874.59949999955,"y":2768905.5415000003}},{"attributes":{"OBJECTID":4717,"LANDMARKID":"1000100000308","LANDMARKCO":"107","LANDMARKNA":"新北市政府警察局光華派出所","LANDMARKAD":"1000105","ADDRESS":"新北市新莊區民安西路141號","TEL":"02-22022677","COUNTYNAME":"新北市","TOWNNAME":"新莊區","MARKTYPE":"991","Class":"1"},"geometry":{"x":293039.02610000037,"y":2767732.5179999992}},{"attributes":{"OBJECTID":4718,"LANDMARKID":"1000100000309","LANDMARKCO":"107","LANDMARKNA":"新北市政府警察局福營派出所","LANDMARKAD":"1000105","ADDRESS":"新北市新莊區福營路101號","TEL":"02-29017434","COUNTYNAME":"新北市","TOWNNAME":"新莊區","MARKTYPE":"991","Class":"1"},"geometry":{"x":293825.59700000007,"y":2769421.568}},{"attributes":{"OBJECTID":4719,"LANDMARKID":"1000100000310","LANDMARKCO":"107","LANDMARKNA":"新北市政府警察局頭前派出所","LANDMARKAD":"1000105","ADDRESS":"新北市新莊區化成路312號","TEL":"02-29921043","COUNTYNAME":"新北市","TOWNNAME":"新莊區","MARKTYPE":"991","Class":"1"},"geometry":{"x":296999.46939999983,"y":2771199.1548999995}},{"attributes":{"OBJECTID":4720,"LANDMARKID":"1000100000311","LANDMARKCO":"107","LANDMARKNA":"新北市政府警察局中港派出所","LANDMARKAD":"1000105","ADDRESS":"新北市新莊區中華里中港路352號","TEL":"02-29922112","COUNTYNAME":"新北市","TOWNNAME":"新莊區","MARKTYPE":"991","Class":"1"},"geometry":{"x":295604.92459999956,"y":2770988.3938999996}},{"attributes":{"OBJECTID":4721,"LANDMARKID":"1000100000312","LANDMARKCO":"107","LANDMARKNA":"新北市政府警察局五工派出所","LANDMARKAD":"1000105","ADDRESS":"新北市新莊區五工路95-1號","TEL":"02-22993050","COUNTYNAME":"新北市","TOWNNAME":"新莊區","MARKTYPE":"991","Class":"1"},"geometry":{"x":296185.30250000022,"y":2772868.1502999999}},{"attributes":{"OBJECTID":4722,"LANDMARKID":"1000100000313","LANDMARKCO":"107","LANDMARKNA":"新北市政府警察局中平派出所","LANDMARKAD":"1000105","ADDRESS":"新北市新莊區中平里中平路286號","TEL":"02-89919755","COUNTYNAME":"新北市","TOWNNAME":"新莊區","MARKTYPE":"991","Class":"1"},"geometry":{"x":294890.08050000016,"y":2771499.3306000009}},{"attributes":{"OBJECTID":4723,"LANDMARKID":"1000100000157","LANDMARKCO":"106","LANDMARKNA":"新北市新莊區戶政事務所","LANDMARKAD":"1000105","ADDRESS":"新北市新莊區中華路一段1號2樓","TEL":"02-29912866","COUNTYNAME":"新北市","TOWNNAME":"新莊區","MARKTYPE":"991","Class":"1"},"geometry":{"x":295606.68510000035,"y":2769874.0786000006}},{"attributes":{"OBJECTID":4724,"LANDMARKID":"1000100000137","LANDMARKCO":"105","LANDMARKNA":"新北市新莊地政事務所","LANDMARKAD":"1000105","ADDRESS":"新北市新莊區中華路一段3號","TEL":"02-22779245","COUNTYNAME":"新北市","TOWNNAME":"新莊區","MARKTYPE":"991","Class":"1"},"geometry":{"x":295591.77699999977,"y":2769925.9869999997}},{"attributes":{"OBJECTID":4725,"LANDMARKID":"1000100000128","LANDMARKCO":"104","LANDMARKNA":"北區國稅局新莊稽徵所第一辦公","LANDMARKAD":"1000105","ADDRESS":"新北市新莊區仁愛街56號","TEL":"02-29983201","COUNTYNAME":"新北市","TOWNNAME":"新莊區","MARKTYPE":"991","Class":"1"},"geometry":{"x":294845.74899999984,"y":2769969.2793000005}},{"attributes":{"OBJECTID":4726,"LANDMARKID":"1000100000014","LANDMARKCO":"101","LANDMARKNA":"衛生署公共衛生研究所","LANDMARKAD":"1000105","ADDRESS":"新北市新莊區長青街2號","TEL":"02-29978616#421","COUNTYNAME":"新北市","TOWNNAME":"新莊區","MARKTYPE":"991","Class":"1"},"geometry":{"x":296232.82969999965,"y":2770549.9905999992}},{"attributes":{"OBJECTID":4727,"LANDMARKID":"1000100000015","LANDMARKCO":"101","LANDMARKNA":"職業訓練局新莊就業服務台","LANDMARKAD":"1000105","ADDRESS":"新北市新莊區中正路176號","TEL":"02-29916380","COUNTYNAME":"新北市","TOWNNAME":"新莊區","MARKTYPE":"991","Class":"1"},"geometry":{"x":295467.35850000009,"y":2769822.0971000008}},{"attributes":{"OBJECTID":4728,"LANDMARKID":"1000100000016","LANDMARKCO":"101","LANDMARKNA":"工業局五股工業區服務中心","LANDMARKAD":"1000105","ADDRESS":"新北市新莊區五工路95號2樓","TEL":"02-22992638","COUNTYNAME":"新北市","TOWNNAME":"新莊區","MARKTYPE":"991","Class":"1"},"geometry":{"x":296148.18169999961,"y":2772877.1784000006}},{"attributes":{"OBJECTID":4729,"LANDMARKID":"1000100000302","LANDMARKCO":"107","LANDMARKNA":"新北市政府警察局新莊派出所","LANDMARKAD":"1000105","ADDRESS":"242新北市新莊區新莊路212號","TEL":"0229924018","COUNTYNAME":"新北市","TOWNNAME":"新莊區","MARKTYPE":"991","Class":"1"},"geometry":{"x":295733.18230000045,"y":2769683.7507000007}},{"attributes":{"OBJECTID":4730,"LANDMARKID":"1000100000902","LANDMARKCO":"205","LANDMARKNA":"輔仁大學織品服飾教學博物館","LANDMARKAD":"1000105","ADDRESS":"新北市新莊區中正路510號","TEL":"02-29031111","COUNTYNAME":"新北市","TOWNNAME":"新莊區","MARKTYPE":"992","Class":"2"},"geometry":{"x":293735.85230000038,"y":2769764.7227999996}},{"attributes":{"OBJECTID":4731,"LANDMARKID":"1000100000903","LANDMARKCO":"205","LANDMARKNA":"中國天主教文物館","LANDMARKAD":"1000105","ADDRESS":"新北市新莊區中正路510號","TEL":" ","COUNTYNAME":"新北市","TOWNNAME":"新莊區","MARKTYPE":"992","Class":"2"},"geometry":{"x":293844.90429999959,"y":2769534.3027999997}},{"attributes":{"OBJECTID":4732,"LANDMARKID":"1000100000915","LANDMARKCO":"206","LANDMARKNA":"黃愚文藝活動中心","LANDMARKAD":"1000105","ADDRESS":"新北市新莊區中信街74號","TEL":" ","COUNTYNAME":"新北市","TOWNNAME":"新莊區","MARKTYPE":"992","Class":"2"},"geometry":{"x":295247.60030000005,"y":2771598.9317000005}},{"attributes":{"OBJECTID":4733,"LANDMARKID":"1000100000850","LANDMARKCO":"204","LANDMARKNA":"新北市立圖書館黃愚活動中心","LANDMARKAD":"1000105","ADDRESS":"新北市新莊區中信街74號","TEL":" ","COUNTYNAME":"新北市","TOWNNAME":"新莊區","MARKTYPE":"992","Class":"2"},"geometry":{"x":295288.7268000003,"y":2771527.8716000002}},{"attributes":{"OBJECTID":4734,"LANDMARKID":"1000100000851","LANDMARKCO":"204","LANDMARKNA":"新北市立圖書館中港分館","LANDMARKAD":"1000105","ADDRESS":"新北市新莊區中港路324之3號2樓","TEL":" ","COUNTYNAME":"新北市","TOWNNAME":"新莊區","MARKTYPE":"992","Class":"2"},"geometry":{"x":295607.95010000002,"y":2770986.3074999992}},{"attributes":{"OBJECTID":4735,"LANDMARKID":"1000100000852","LANDMARKCO":"204","LANDMARKNA":"新北市立圖書館福營分館","LANDMARKAD":"1000105","ADDRESS":"新北市新莊區福營路277號3樓","TEL":" ","COUNTYNAME":"新北市","TOWNNAME":"新莊區","MARKTYPE":"992","Class":"2"},"geometry":{"x":293263.67619999964,"y":2769125.9921000004}},{"attributes":{"OBJECTID":4736,"LANDMARKID":"1000100000660","LANDMARKCO":"203","LANDMARKNA":"縣立昌隆國小","LANDMARKAD":"1000105","ADDRESS":"新北市新莊區昌隆街61號","TEL":"02-29962351","COUNTYNAME":"新北市","TOWNNAME":"新莊區","MARKTYPE":"992","Class":"2"},"geometry":{"x":295999.59580000024,"y":2771569.8938999996}},{"attributes":{"OBJECTID":4737,"LANDMARKID":"1000100000661","LANDMARKCO":"203","LANDMARKNA":"縣立光華國小","LANDMARKAD":"1000105","ADDRESS":"新北市新莊區龍安路452號","TEL":"02-22041493","COUNTYNAME":"新北市","TOWNNAME":"新莊區","MARKTYPE":"992","Class":"2"},"geometry":{"x":292960.31080000009,"y":2767789.8004000001}},{"attributes":{"OBJECTID":4738,"LANDMARKID":"1000100000480","LANDMARKCO":"202","LANDMARKNA":"國立新莊高中","LANDMARKAD":"1000105","ADDRESS":"新北市新莊區中平路135號","TEL":"02-29983930","COUNTYNAME":"新北市","TOWNNAME":"新莊區","MARKTYPE":"992","Class":"2"},"geometry":{"x":294866.9327999996,"y":2771188.2151999995}},{"attributes":{"OBJECTID":4739,"LANDMARKID":"1000100000481","LANDMARKCO":"202","LANDMARKNA":"私立恆毅高中","LANDMARKAD":"1000105","ADDRESS":"新北市新莊區中正路108號","TEL":"02-29923620","COUNTYNAME":"新北市","TOWNNAME":"新莊區","MARKTYPE":"992","Class":"2"},"geometry":{"x":295789.42559999973,"y":2769902.7108999994}},{"attributes":{"OBJECTID":4740,"LANDMARKID":"1000100000668","LANDMARKCO":"203","LANDMARKNA":"縣立中平國中","LANDMARKAD":"1000105","ADDRESS":"新北市新莊區中平路385號","TEL":"02-29912396","COUNTYNAME":"新北市","TOWNNAME":"新莊區","MARKTYPE":"992","Class":"2"},"geometry":{"x":294852.03870000038,"y":2771805.3455999997}},{"attributes":{"OBJECTID":4741,"LANDMARKID":"1000100000669","LANDMARKCO":"203","LANDMARKNA":"縣立新莊國中","LANDMARKAD":"1000105","ADDRESS":"新北市新莊區中正路211號","TEL":"02-29938400","COUNTYNAME":"新北市","TOWNNAME":"新莊區","MARKTYPE":"992","Class":"2"},"geometry":{"x":295662.08270000014,"y":2769833.6802999992}},{"attributes":{"OBJECTID":4742,"LANDMARKID":"1000100000670","LANDMARKCO":"203","LANDMARKNA":"縣立頭前國中","LANDMARKAD":"1000105","ADDRESS":"新北市新莊區思源路485號","TEL":"02-29967766","COUNTYNAME":"新北市","TOWNNAME":"新莊區","MARKTYPE":"992","Class":"2"},"geometry":{"x":296360.79980000015,"y":2771968.1844999995}},{"attributes":{"OBJECTID":4743,"LANDMARKID":"1000100000671","LANDMARKCO":"203","LANDMARKNA":"縣立福營國中","LANDMARKAD":"1000105","ADDRESS":"新北市新莊區富國路105號","TEL":"02-22045556","COUNTYNAME":"新北市","TOWNNAME":"新莊區","MARKTYPE":"992","Class":"2"},"geometry":{"x":292639.8200000003,"y":2768648.8913000003}},{"attributes":{"OBJECTID":4744,"LANDMARKID":"1000100000672","LANDMARKCO":"203","LANDMARKNA":"縣立新泰國中","LANDMARKAD":"1000105","ADDRESS":"新北市新莊區新泰路359號","TEL":"02-29962375","COUNTYNAME":"新北市","TOWNNAME":"新莊區","MARKTYPE":"992","Class":"2"},"geometry":{"x":294840.65429999959,"y":2770568.1526999995}},{"attributes":{"OBJECTID":4745,"LANDMARKID":"1000100000673","LANDMARKCO":"203","LANDMARKNA":"縣立丹鳳國中","LANDMARKAD":"1000105","ADDRESS":"新北市新莊區龍安路72號","TEL":"02-29031989","COUNTYNAME":"新北市","TOWNNAME":"新莊區","MARKTYPE":"992","Class":"2"},"geometry":{"x":292029.46520000044,"y":2768180.9932000004}},{"attributes":{"OBJECTID":4746,"LANDMARKID":"1000100000674","LANDMARKCO":"203","LANDMARKNA":"縣立興化國小","LANDMARKAD":"1000105","ADDRESS":"新北市新莊區五工二路50巷2號","TEL":"02-29062407","COUNTYNAME":"新北市","TOWNNAME":"新莊區","MARKTYPE":"992","Class":"2"},"geometry":{"x":296573.8786000004,"y":2773157.8901000004}},{"attributes":{"OBJECTID":4747,"LANDMARKID":"1000100000675","LANDMARKCO":"203","LANDMARKNA":"縣立丹鳳國小","LANDMARKAD":"1000105","ADDRESS":"新北市新莊區中山路三段625號","TEL":"02-29035355","COUNTYNAME":"新北市","TOWNNAME":"新莊區","MARKTYPE":"992","Class":"2"},"geometry":{"x":291763.23400000017,"y":2768519.2368000001}},{"attributes":{"OBJECTID":4748,"LANDMARKID":"1000100000676","LANDMARKCO":"203","LANDMARKNA":"縣立國泰國小","LANDMARKAD":"1000105","ADDRESS":"新北市新莊區中正路386號","TEL":"02-29021287","COUNTYNAME":"新北市","TOWNNAME":"新莊區","MARKTYPE":"992","Class":"2"},"geometry":{"x":294574.60140000004,"y":2769635.0953000002}},{"attributes":{"OBJECTID":4749,"LANDMARKID":"1000100000677","LANDMARKCO":"203","LANDMARKNA":"縣立新莊國小","LANDMARKAD":"1000105","ADDRESS":"新北市新莊區文明里中正路86號","TEL":"02-29931201","COUNTYNAME":"新北市","TOWNNAME":"新莊區","MARKTYPE":"992","Class":"2"},"geometry":{"x":296058.20779999997,"y":2769949.5362999998}},{"attributes":{"OBJECTID":4750,"LANDMARKID":"1000100000678","LANDMARKCO":"203","LANDMARKNA":"縣立榮富國小","LANDMARKAD":"1000105","ADDRESS":"新北市新莊區中和街193號","TEL":"02-22769020","COUNTYNAME":"新北市","TOWNNAME":"新莊區","MARKTYPE":"992","Class":"2"},"geometry":{"x":295142.39199999999,"y":2771548.9000000004}},{"attributes":{"OBJECTID":4751,"LANDMARKID":"1000100000679","LANDMARKCO":"203","LANDMARKNA":"縣立中信國小","LANDMARKAD":"1000105","ADDRESS":"新北市新莊區中信街120號","TEL":"02-22769131","COUNTYNAME":"新北市","TOWNNAME":"新莊區","MARKTYPE":"992","Class":"2"},"geometry":{"x":295190.81369999982,"y":2771835.8476}},{"attributes":{"OBJECTID":4752,"LANDMARKID":"1000100000680","LANDMARKCO":"203","LANDMARKNA":"縣立中港國小","LANDMARKAD":"1000105","ADDRESS":"新北市新莊區立志里中港一街142號","TEL":"02-29925550","COUNTYNAME":"新北市","TOWNNAME":"新莊區","MARKTYPE":"992","Class":"2"},"geometry":{"x":295120.98919999972,"y":2770843.2312000003}},{"attributes":{"OBJECTID":4753,"LANDMARKID":"1000100000681","LANDMARKCO":"203","LANDMARKNA":"縣立頭前國小","LANDMARKAD":"1000105","ADDRESS":"新北市新莊區頭前里化成路231號","TEL":"02-29920238","COUNTYNAME":"新北市","TOWNNAME":"新莊區","MARKTYPE":"992","Class":"2"},"geometry":{"x":297031.26269999985,"y":2771719.9781999998}},{"attributes":{"OBJECTID":4754,"LANDMARKID":"1000100000682","LANDMARKCO":"203","LANDMARKNA":"縣立民安國小","LANDMARKAD":"1000105","ADDRESS":"新北市新莊區民安里民安路261號","TEL":"02-22056777","COUNTYNAME":"新北市","TOWNNAME":"新莊區","MARKTYPE":"992","Class":"2"},"geometry":{"x":293175.42499999981,"y":2768241.8115999997}},{"attributes":{"OBJECTID":4755,"LANDMARKID":"1000100000683","LANDMARKCO":"203","LANDMARKNA":"縣立思賢國小","LANDMARKAD":"1000105","ADDRESS":"新北市新莊區自立街229號","TEL":"02-29916991","COUNTYNAME":"新北市","TOWNNAME":"新莊區","MARKTYPE":"992","Class":"2"},"geometry":{"x":296068.47609999962,"y":2770901.5100999996}},{"attributes":{"OBJECTID":4756,"LANDMARKID":"1000100000684","LANDMARKCO":"203","LANDMARKNA":"縣立昌平國小","LANDMARKAD":"1000105","ADDRESS":"新北市新莊區昌平街200號","TEL":"02-29905492","COUNTYNAME":"新北市","TOWNNAME":"新莊區","MARKTYPE":"992","Class":"2"},"geometry":{"x":295965.9132000003,"y":2772102.3551000003}},{"attributes":{"OBJECTID":4757,"LANDMARKID":"1000100000685","LANDMARKCO":"203","LANDMARKNA":"縣立裕民國小","LANDMARKAD":"1000105","ADDRESS":"新北市新莊區裕民街123號","TEL":"02-29062407","COUNTYNAME":"新北市","TOWNNAME":"新莊區","MARKTYPE":"992","Class":"2"},"geometry":{"x":292168.19830000028,"y":2768199.0897000004}},{"attributes":{"OBJECTID":4758,"LANDMARKID":"1000100000686","LANDMARKCO":"203","LANDMARKNA":"縣立豐年國小","LANDMARKAD":"1000105","ADDRESS":"新北市新莊區國泰里瓊泰路116號","TEL":"02-22017102","COUNTYNAME":"新北市","TOWNNAME":"新莊區","MARKTYPE":"992","Class":"2"},"geometry":{"x":294739.10670000035,"y":2769276.2849000003}},{"attributes":{"OBJECTID":4759,"LANDMARKID":"1000100000444","LANDMARKCO":"201","LANDMARKNA":"輔仁大學","LANDMARKAD":"1000105","ADDRESS":"新北市新莊區中正路510號","TEL":"02-29052000","COUNTYNAME":"新北市","TOWNNAME":"新莊區","MARKTYPE":"992","Class":"2"},"geometry":{"x":293807.98479999974,"y":2769495.6892000008}},{"attributes":{"OBJECTID":4760,"LANDMARKID":"1000100000445","LANDMARKCO":"201","LANDMARKNA":"私立輔仁大學","LANDMARKAD":"1000105","ADDRESS":"新北市新莊區中正路510號","TEL":"02-29031111","COUNTYNAME":"新北市","TOWNNAME":"新莊區","MARKTYPE":"992","Class":"2"},"geometry":{"x":293807.98479999974,"y":2769495.6892000008}},{"attributes":{"OBJECTID":4761,"LANDMARKID":"1000100000659","LANDMARKCO":"203","LANDMARKNA":"縣立新泰國小","LANDMARKAD":"1000105","ADDRESS":"新北市新莊區信義街91號","TEL":"02-29971005","COUNTYNAME":"新北市","TOWNNAME":"新莊區","MARKTYPE":"992","Class":"2"},"geometry":{"x":294733.91509999987,"y":2770129.4700000007}},{"attributes":{"OBJECTID":4762,"LANDMARKID":"1000100001047","LANDMARKCO":"303","LANDMARKNA":"公有新泰停車場","LANDMARKAD":"1000105","ADDRESS":"新北市新莊區","TEL":" ","COUNTYNAME":"新北市","TOWNNAME":"新莊區","MARKTYPE":"993","Class":"303"},"geometry":{"x":294884.14580000006,"y":2769945.4922000002}},{"attributes":{"OBJECTID":4763,"LANDMARKID":"1000100001048","LANDMARKCO":"303","LANDMARKNA":"公有新泰停車場","LANDMARKAD":"1000105","ADDRESS":"新北市新莊區","TEL":" ","COUNTYNAME":"新北市","TOWNNAME":"新莊區","MARKTYPE":"993","Class":"303"},"geometry":{"x":294875.95820000023,"y":2770041.8457999993}},{"attributes":{"OBJECTID":4764,"LANDMARKID":"1000100000985","LANDMARKCO":"302","LANDMARKNA":"阿囉哈客運-新莊站","LANDMARKAD":"1000105","ADDRESS":"新莊區中山路一段10號","TEL":"(02)8521-3735","COUNTYNAME":"新北市","TOWNNAME":"新莊區","MARKTYPE":"993","Class":"302"},"geometry":{"x":296939.19330000039,"y":2772664.5658}},{"attributes":{"OBJECTID":4765,"LANDMARKID":"1000100000986","LANDMARKCO":"302","LANDMARKNA":"首都汽車客運新莊二站","LANDMARKAD":"1000105","ADDRESS":"新北市新莊區新樹路293巷8號","TEL":" ","COUNTYNAME":"新北市","TOWNNAME":"新莊區","MARKTYPE":"993","Class":"302"},"geometry":{"x":293718.06549999956,"y":2767725.4759}},{"attributes":{"OBJECTID":4766,"LANDMARKID":"1000100000987","LANDMARKCO":"302","LANDMARKNA":"三重汽車客運新莊新樹站","LANDMARKAD":"1000105","ADDRESS":"新北市新莊區新樹路72號之10","TEL":" ","COUNTYNAME":"新北市","TOWNNAME":"新莊區","MARKTYPE":"993","Class":"302"},"geometry":{"x":294156.69369999971,"y":2768849.8092}},{"attributes":{"OBJECTID":4767,"LANDMARKID":"1000100000988","LANDMARKCO":"302","LANDMARKNA":"三重汽車客運輔大站","LANDMARKAD":"1000105","ADDRESS":"新北市新莊區中正路512號","TEL":" ","COUNTYNAME":"新北市","TOWNNAME":"新莊區","MARKTYPE":"993","Class":"302"},"geometry":{"x":293729.01229999959,"y":2769426.1487000007}},{"attributes":{"OBJECTID":4768,"LANDMARKID":"1000100000989","LANDMARKCO":"302","LANDMARKNA":"大有巴士名門站","LANDMARKAD":"1000105","ADDRESS":"新北市新莊區中原路120號之1","TEL":" ","COUNTYNAME":"新北市","TOWNNAME":"新莊區","MARKTYPE":"993","Class":"302"},"geometry":{"x":295613.63989999983,"y":2771882.1669999994}},{"attributes":{"OBJECTID":4769,"LANDMARKID":"1000100000990","LANDMARKCO":"302","LANDMARKNA":"三重汽車客運中港里站","LANDMARKAD":"1000105","ADDRESS":"新北市新莊區中港路596號","TEL":" ","COUNTYNAME":"新北市","TOWNNAME":"新莊區","MARKTYPE":"993","Class":"302"},"geometry":{"x":295522.64240000024,"y":2771893.5662999991}},{"attributes":{"OBJECTID":4770,"LANDMARKID":"1000100001012","LANDMARKCO":"303","LANDMARKNA":"後港地下停車場","LANDMARKAD":"1000105","ADDRESS":"新北市新莊區後港一路19號","TEL":" ","COUNTYNAME":"新北市","TOWNNAME":"新莊區","MARKTYPE":"993","Class":"303"},"geometry":{"x":292874.01290000044,"y":2768722.4661999997}},{"attributes":{"OBJECTID":4771,"LANDMARKID":"1000100001013","LANDMARKCO":"303","LANDMARKNA":"新莊區文化藝術中心收費停車場","LANDMARKAD":"1000105","ADDRESS":"新北市新莊區中平路133號","TEL":"02-29937680","COUNTYNAME":"新北市","TOWNNAME":"新莊區","MARKTYPE":"993","Class":"303"},"geometry":{"x":294861.40419999976,"y":2771084.1874000002}},{"attributes":{"OBJECTID":4772,"LANDMARKID":"1000100001014","LANDMARKCO":"303","LANDMARKNA":"體育館地下停車場","LANDMARKAD":"1000105","ADDRESS":"新北市新莊區和興街66號","TEL":" ","COUNTYNAME":"新北市","TOWNNAME":"新莊區","MARKTYPE":"993","Class":"303"},"geometry":{"x":295088.59360000025,"y":2770375.6458999999}},{"attributes":{"OBJECTID":4773,"LANDMARKID":"1000100001015","LANDMARKCO":"303","LANDMARKNA":"露天劇場平面停車場","LANDMARKAD":"1000105","ADDRESS":" ","TEL":" ","COUNTYNAME":"新北市","TOWNNAME":"新莊區","MARKTYPE":"993","Class":"303"},"geometry":{"x":295325.5390999997,"y":2770233.3145000003}},{"attributes":{"OBJECTID":4774,"LANDMARKID":"1000100001016","LANDMARKCO":"303","LANDMARKNA":"中港停車場","LANDMARKAD":"1000105","ADDRESS":"新北市新莊區","TEL":" ","COUNTYNAME":"新北市","TOWNNAME":"新莊區","MARKTYPE":"993","Class":"303"},"geometry":{"x":295699.37079999968,"y":2770792.8781000003}},{"attributes":{"OBJECTID":4775,"LANDMARKID":"1000100001017","LANDMARKCO":"303","LANDMARKNA":"國光停車場","LANDMARKAD":"1000105","ADDRESS":" ","TEL":" ","COUNTYNAME":"新北市","TOWNNAME":"新莊區","MARKTYPE":"993","Class":"303"},"geometry":{"x":296068.02909999993,"y":2771906.7334000003}},{"attributes":{"OBJECTID":4776,"LANDMARKID":"1000100001018","LANDMARKCO":"303","LANDMARKNA":"中興嘟嘟房停車場-五工站","LANDMARKAD":"1000105","ADDRESS":"新北市新莊區五工路68巷旁","TEL":" ","COUNTYNAME":"新北市","TOWNNAME":"新莊區","MARKTYPE":"993","Class":"303"},"geometry":{"x":296208.24550000019,"y":2772887.9394000005}},{"attributes":{"OBJECTID":4777,"LANDMARKID":"1000100001019","LANDMARKCO":"303","LANDMARKNA":"平面停車場","LANDMARKAD":"1000105","ADDRESS":"新北市新莊區","TEL":" ","COUNTYNAME":"新北市","TOWNNAME":"新莊區","MARKTYPE":"993","Class":"303"},"geometry":{"x":295056.25439999998,"y":2771213.7416999992}},{"attributes":{"OBJECTID":4778,"LANDMARKID":"1000100001020","LANDMARKCO":"303","LANDMARKNA":"八德立體停車場","LANDMARKAD":"1000105","ADDRESS":"新北市新莊區八德路","TEL":" ","COUNTYNAME":"新北市","TOWNNAME":"新莊區","MARKTYPE":"993","Class":"303"},"geometry":{"x":292903.1688000001,"y":2768354.8850999996}},{"attributes":{"OBJECTID":4779,"LANDMARKID":"1000100001021","LANDMARKCO":"303","LANDMARKNA":"中原停車場","LANDMARKAD":"1000105","ADDRESS":"新北市新莊區","TEL":" ","COUNTYNAME":"新北市","TOWNNAME":"新莊區","MARKTYPE":"993","Class":"303"},"geometry":{"x":295628.29959999956,"y":2771882.3989000004}},{"attributes":{"OBJECTID":4780,"LANDMARKID":"1000100001022","LANDMARKCO":"303","LANDMARKNA":"中華停車場","LANDMARKAD":"1000105","ADDRESS":"新北市新莊區","TEL":" ","COUNTYNAME":"新北市","TOWNNAME":"新莊區","MARKTYPE":"993","Class":"303"},"geometry":{"x":295670.81030000001,"y":2771561.0543000009}},{"attributes":{"OBJECTID":4781,"LANDMARKID":"1000100001023","LANDMARKCO":"303","LANDMARKNA":"中誠立體停車場","LANDMARKAD":"1000105","ADDRESS":"新北市新莊區中誠街53巷1號","TEL":" ","COUNTYNAME":"新北市","TOWNNAME":"新莊區","MARKTYPE":"993","Class":"303"},"geometry":{"x":295434.89570000023,"y":2771139.4078000002}},{"attributes":{"OBJECTID":4782,"LANDMARKID":"1000100001024","LANDMARKCO":"303","LANDMARKNA":"四維立體停車場","LANDMARKAD":"1000105","ADDRESS":"新北市新莊區四維路95號","TEL":" ","COUNTYNAME":"新北市","TOWNNAME":"新莊區","MARKTYPE":"993","Class":"303"},"geometry":{"x":292787.20069999993,"y":2768585.3300999999}},{"attributes":{"OBJECTID":4783,"LANDMARKID":"1000100001025","LANDMARKCO":"303","LANDMARKNA":"新泰臨時停車場","LANDMARKAD":"1000105","ADDRESS":"新北市新莊區新泰路209巷","TEL":" ","COUNTYNAME":"新北市","TOWNNAME":"新莊區","MARKTYPE":"993","Class":"303"},"geometry":{"x":295071.09059999976,"y":2770116.8692000005}},{"attributes":{"OBJECTID":4784,"LANDMARKID":"1000100001026","LANDMARKCO":"303","LANDMARKNA":"新莊公十四地下停車場","LANDMARKAD":"1000105","ADDRESS":"新北市新莊區民安路","TEL":" ","COUNTYNAME":"新北市","TOWNNAME":"新莊區","MARKTYPE":"993","Class":"303"},"geometry":{"x":292657.06989999954,"y":2768994.6459999997}},{"attributes":{"OBJECTID":4785,"LANDMARKID":"1000100001027","LANDMARKCO":"303","LANDMARKNA":"新莊區中正路立體停車場","LANDMARKAD":"1000105","ADDRESS":"新北市新莊區中正路","TEL":" ","COUNTYNAME":"新北市","TOWNNAME":"新莊區","MARKTYPE":"993","Class":"303"},"geometry":{"x":295582.05439999979,"y":2769850.4497999996}},{"attributes":{"OBJECTID":4786,"LANDMARKID":"1000100001028","LANDMARKCO":"303","LANDMARKNA":"新莊區政大樓立體停車場及B2停車","LANDMARKAD":"1000105","ADDRESS":"新北市新莊區中正路176號","TEL":" ","COUNTYNAME":"新北市","TOWNNAME":"新莊區","MARKTYPE":"993","Class":"303"},"geometry":{"x":295470.00769999996,"y":2769884.9809000008}},{"attributes":{"OBJECTID":4787,"LANDMARKID":"1000100001029","LANDMARKCO":"303","LANDMARKNA":"新莊國中操場地下新中停車場","LANDMARKAD":"1000105","ADDRESS":"新北市新莊區中正路211號","TEL":" ","COUNTYNAME":"新北市","TOWNNAME":"新莊區","MARKTYPE":"993","Class":"303"},"geometry":{"x":295442.70480000041,"y":2769720.1027000006}},{"attributes":{"OBJECTID":4788,"LANDMARKID":"1000100001030","LANDMARKCO":"303","LANDMARKNA":"綜合運動場周邊及網球場地下停車場","LANDMARKAD":"1000105","ADDRESS":"新北市新莊區","TEL":" ","COUNTYNAME":"新北市","TOWNNAME":"新莊區","MARKTYPE":"993","Class":"303"},"geometry":{"x":295339.27290000021,"y":2770238.7661000006}},{"attributes":{"OBJECTID":4789,"LANDMARKID":"1000100001031","LANDMARKCO":"303","LANDMARKNA":"應安停車場-新莊場","LANDMARKAD":"1000105","ADDRESS":"新北市新莊區中平路133號B1","TEL":"02-29937680","COUNTYNAME":"新北市","TOWNNAME":"新莊區","MARKTYPE":"993","Class":"303"},"geometry":{"x":294861.34759999998,"y":2771086.1626999993}},{"attributes":{"OBJECTID":4790,"LANDMARKID":"1000100001032","LANDMARKCO":"303","LANDMARKNA":"永固停車場-新莊站","LANDMARKAD":"1000105","ADDRESS":"新北市新莊區中平路110巷36號B1","TEL":"02-89923937","COUNTYNAME":"新北市","TOWNNAME":"新莊區","MARKTYPE":"993","Class":"303"},"geometry":{"x":295015.12949999981,"y":2770954.9066000003}},{"attributes":{"OBJECTID":4791,"LANDMARKID":"1000100001033","LANDMARKCO":"303","LANDMARKNA":"永固停車場-新莊二","LANDMARKAD":"1000105","ADDRESS":"新北市新莊區中正路649-1號地下2樓","TEL":"02-29087142","COUNTYNAME":"新北市","TOWNNAME":"新莊區","MARKTYPE":"993","Class":"303"},"geometry":{"x":293384.13379999995,"y":2769285.2525999993}},{"attributes":{"OBJECTID":4792,"LANDMARKID":"1000100001034","LANDMARKCO":"303","LANDMARKNA":"永固停車場-新莊三","LANDMARKAD":"1000105","ADDRESS":"新北市新莊區新泰路255巷巷底空地","TEL":" ","COUNTYNAME":"新北市","TOWNNAME":"新莊區","MARKTYPE":"993","Class":"303"},"geometry":{"x":294677.39300000016,"y":2770218.7337999996}},{"attributes":{"OBJECTID":4793,"LANDMARKID":"1000100001035","LANDMARKCO":"303","LANDMARKNA":"Times(普客二四停車場)-五工三路停車場","LANDMARKAD":"1000105","ADDRESS":"新莊區五工三路 (田倉生鮮百貨旁邊)","TEL":" ","COUNTYNAME":"新北市","TOWNNAME":"新莊區","MARKTYPE":"993","Class":"303"},"geometry":{"x":296369.53529999964,"y":2772970.1856999993}},{"attributes":{"OBJECTID":4794,"LANDMARKID":"1000100001036","LANDMARKCO":"303","LANDMARKNA":"Times(普客二四停車場)-佳瑪新莊停車場","LANDMARKAD":"1000105","ADDRESS":"新北市新莊區幸福路763號B1F","TEL":" ","COUNTYNAME":"新北市","TOWNNAME":"新莊區","MARKTYPE":"993","Class":"303"},"geometry":{"x":295187.26539999992,"y":2771281.4780999999}},{"attributes":{"OBJECTID":4795,"LANDMARKID":"1000100001037","LANDMARKCO":"303","LANDMARKNA":"Times(普客二四停車場)-新莊輔大前停車場","LANDMARKAD":"1000105","ADDRESS":"新莊區福營路135號旁","TEL":" ","COUNTYNAME":"新北市","TOWNNAME":"新莊區","MARKTYPE":"993","Class":"303"},"geometry":{"x":292505.14460000023,"y":2768758.2642999999}},{"attributes":{"OBJECTID":4796,"LANDMARKID":"1000100001038","LANDMARKCO":"303","LANDMARKNA":"台灣聯通停車場-復興場","LANDMARKAD":"1000105","ADDRESS":"新北市新莊區復興路二段47號旁","TEL":" ","COUNTYNAME":"新北市","TOWNNAME":"新莊區","MARKTYPE":"993","Class":"303"},"geometry":{"x":295874.4665000001,"y":2770758.0957999993}},{"attributes":{"OBJECTID":4797,"LANDMARKID":"1000100001653","LANDMARKCO":"402","LANDMARKNA":"中華電信-台北西區營運處(新莊服務中心","LANDMARKAD":"1000105","ADDRESS":"新北市新莊區中華路一段57號","TEL":"123或0800-080-123","COUNTYNAME":"新北市","TOWNNAME":"新莊區","MARKTYPE":"994","Class":"4"},"geometry":{"x":295594.00310000032,"y":2770161.3925000001}},{"attributes":{"OBJECTID":4798,"LANDMARKID":"1000100001654","LANDMARKCO":"402","LANDMARKNA":"中華電信-後港服務中心","LANDMARKAD":"1000105","ADDRESS":"新北市新莊區四維路7號","TEL":"123或0800-080-123","COUNTYNAME":"新北市","TOWNNAME":"新莊區","MARKTYPE":"994","Class":"4"},"geometry":{"x":292803.73290000018,"y":2768539.4088000003}},{"attributes":{"OBJECTID":4799,"LANDMARKID":"1000100001655","LANDMARKCO":"402","LANDMARKNA":"中華電信-新莊幸福特約服務中心","LANDMARKAD":"1000105","ADDRESS":"新北市新莊區幸福路22號","TEL":"02-89920808","COUNTYNAME":"新北市","TOWNNAME":"新莊區","MARKTYPE":"994","Class":"4"},"geometry":{"x":296305.87660000008,"y":2771344.8084999993}},{"attributes":{"OBJECTID":4800,"LANDMARKID":"1000100001656","LANDMARKCO":"402","LANDMARKNA":"中華電信-新莊新泰特約服務中心","LANDMARKAD":"1000105","ADDRESS":"新北市新莊區新泰路283號","TEL":"02-89920909","COUNTYNAME":"新北市","TOWNNAME":"新莊區","MARKTYPE":"994","Class":"4"},"geometry":{"x":294966.63860000018,"y":2770352.6199999992}}]}