{"displayFieldName":"COUNTYNAME","fieldAliases":{"OBJECTID":"OBJECTID","LANDMARKID":"LANDMARKID","LANDMARKCO":"LANDMARKCO","LANDMARKNA":"LANDMARKNA","LANDMARKAD":"LANDMARKAD","ADDRESS":"ADDRESS","TEL":"TEL","COUNTYNAME":"COUNTYNAME","TOWNNAME":"TOWNNAME","MARKTYPE":"MARKTYPE","Class":"Class"},"geometryType":"esriGeometryPoint","spatialReference":{"wkid":102443},"fields":[{"name":"OBJECTID","type":"esriFieldTypeOID","alias":"OBJECTID"},{"name":"LANDMARKID","type":"esriFieldTypeString","alias":"LANDMARKID","length":15},{"name":"LANDMARKCO","type":"esriFieldTypeString","alias":"LANDMARKCO","length":15},{"name":"LANDMARKNA","type":"esriFieldTypeString","alias":"LANDMARKNA","length":50},{"name":"LANDMARKAD","type":"esriFieldTypeString","alias":"LANDMARKAD","length":15},{"name":"ADDRESS","type":"esriFieldTypeString","alias":"ADDRESS","length":56},{"name":"TEL","type":"esriFieldTypeString","alias":"TEL","length":36},{"name":"COUNTYNAME","type":"esriFieldTypeString","alias":"COUNTYNAME","length":15},{"name":"TOWNNAME","type":"esriFieldTypeString","alias":"TOWNNAME","length":13},{"name":"MARKTYPE","type":"esriFieldTypeString","alias":"MARKTYPE","length":12},{"name":"Class","type":"esriFieldTypeString","alias":"Class","length":5}],"features":[{"attributes":{"OBJECTID":2801,"LANDMARKID":"1001400000073","LANDMARKCO":"103","LANDMARKNA":"台東縣關山鎮衛生所","LANDMARKAD":"1001403","ADDRESS":"台東縣關山鎮中華路78號","TEL":"089-811042","COUNTYNAME":"台東縣","TOWNNAME":"關山鎮","MARKTYPE":"991","Class":"1"},"geometry":{"x":266688.32100000046,"y":2549809.8102000002}},{"attributes":{"OBJECTID":2802,"LANDMARKID":"1001400000201","LANDMARKCO":"108","LANDMARKNA":"台東縣關山鎮公所","LANDMARKAD":"1001403","ADDRESS":"台東縣關山鎮中山路54號","TEL":"089-811179","COUNTYNAME":"台東縣","TOWNNAME":"關山鎮","MARKTYPE":"991","Class":"1"},"geometry":{"x":266704.0206000004,"y":2549539.7927000001}},{"attributes":{"OBJECTID":2803,"LANDMARKID":"1001400000004","LANDMARKCO":"101","LANDMARKNA":"林務局台東林區管理處關山工作站","LANDMARKAD":"1001403","ADDRESS":"台東縣關山鎮中正路9號","TEL":"089-811020","COUNTYNAME":"台東縣","TOWNNAME":"關山鎮","MARKTYPE":"991","Class":"1"},"geometry":{"x":266466.03160000034,"y":2549549.7453000005}},{"attributes":{"OBJECTID":2804,"LANDMARKID":"1001400000072","LANDMARKCO":"103","LANDMARKNA":"台東縣關山鎮民代表會","LANDMARKAD":"1001403","ADDRESS":"台東縣關山鎮三民路1號之18","TEL":"089-811283","COUNTYNAME":"台東縣","TOWNNAME":"關山鎮","MARKTYPE":"991","Class":"1"},"geometry":{"x":266686.30989999976,"y":2549799.8124000002}},{"attributes":{"OBJECTID":2805,"LANDMARKID":"1001400000175","LANDMARKCO":"107","LANDMARKNA":"台東縣消防局關山消防分隊","LANDMARKAD":"1001403","ADDRESS":"台東縣關山鎮新福路46號","TEL":"089-811004","COUNTYNAME":"台東縣","TOWNNAME":"關山鎮","MARKTYPE":"991","Class":"1"},"geometry":{"x":267165.25540000014,"y":2549129.9102999996}},{"attributes":{"OBJECTID":2806,"LANDMARKID":"1001400000176","LANDMARKCO":"107","LANDMARKNA":"台東縣警察局關山分局","LANDMARKAD":"1001403","ADDRESS":"台東縣關山鎮中福里中正路27號","TEL":"089-811001","COUNTYNAME":"台東縣","TOWNNAME":"關山鎮","MARKTYPE":"991","Class":"1"},"geometry":{"x":266486.10850000009,"y":2549619.7232000008}},{"attributes":{"OBJECTID":2807,"LANDMARKID":"1001400000177","LANDMARKCO":"107","LANDMARKNA":"台東縣警察局關山派出所","LANDMARKAD":"1001403","ADDRESS":"台東縣關山鎮中福里中正路27號","TEL":"089-811284","COUNTYNAME":"台東縣","TOWNNAME":"關山鎮","MARKTYPE":"991","Class":"1"},"geometry":{"x":266486.10850000009,"y":2549619.7232000008}},{"attributes":{"OBJECTID":2808,"LANDMARKID":"1001400000096","LANDMARKCO":"106","LANDMARKNA":"台東縣關山鎮戶政事務所","LANDMARKAD":"1001403","ADDRESS":"台東縣關山鎮新政路2號","TEL":"089-811410","COUNTYNAME":"台東縣","TOWNNAME":"關山鎮","MARKTYPE":"991","Class":"1"},"geometry":{"x":267126.23199999984,"y":2549109.9549000002}},{"attributes":{"OBJECTID":2809,"LANDMARKID":"1001400000090","LANDMARKCO":"105","LANDMARKNA":"台東縣關山地政事務所","LANDMARKAD":"1001403","ADDRESS":"台東縣關山鎮新政路17號","TEL":"089-813543","COUNTYNAME":"台東縣","TOWNNAME":"關山鎮","MARKTYPE":"991","Class":"1"},"geometry":{"x":267131.26630000025,"y":2549139.9492000006}},{"attributes":{"OBJECTID":2810,"LANDMARKID":"1001400000170","LANDMARKCO":"107","LANDMARKNA":"台東縣警察局電光派出所","LANDMARKAD":"1001403","ADDRESS":"台東縣關山鎮電光里中興路42號","TEL":"089-951041","COUNTYNAME":"台東縣","TOWNNAME":"關山鎮","MARKTYPE":"991","Class":"1"},"geometry":{"x":268001.13860000018,"y":2545639.9321999997}},{"attributes":{"OBJECTID":2811,"LANDMARKID":"1001400000384","LANDMARKCO":"204","LANDMARKNA":"台東縣立圖書館關山分館","LANDMARKAD":"1001403","ADDRESS":"台東縣關山鎮自強路66號","TEL":" ","COUNTYNAME":"台東縣","TOWNNAME":"關山鎮","MARKTYPE":"992","Class":"2"},"geometry":{"x":266540.75879999995,"y":2549263.4861999992}},{"attributes":{"OBJECTID":2812,"LANDMARKID":"1001400000225","LANDMARKCO":"202","LANDMARKNA":"國立關山工商","LANDMARKAD":"1001403","ADDRESS":"台東縣關山鎮民權路58號","TEL":"089-811006","COUNTYNAME":"台東縣","TOWNNAME":"關山鎮","MARKTYPE":"992","Class":"2"},"geometry":{"x":266309.15110000037,"y":2549659.9166999999}},{"attributes":{"OBJECTID":2813,"LANDMARKID":"1001400000262","LANDMARKCO":"203","LANDMARKNA":"縣立關山國中","LANDMARKAD":"1001403","ADDRESS":"台東縣關山鎮崁頂路22號","TEL":"089-811114","COUNTYNAME":"台東縣","TOWNNAME":"關山鎮","MARKTYPE":"992","Class":"2"},"geometry":{"x":266384.32120000012,"y":2549199.8355}},{"attributes":{"OBJECTID":2814,"LANDMARKID":"1001400000263","LANDMARKCO":"203","LANDMARKNA":"縣立關山國小","LANDMARKAD":"1001403","ADDRESS":"台東縣關山鎮中華路101號","TEL":"089-811012","COUNTYNAME":"台東縣","TOWNNAME":"關山鎮","MARKTYPE":"992","Class":"2"},"geometry":{"x":266810.03450000007,"y":2549859.9900000002}},{"attributes":{"OBJECTID":2815,"LANDMARKID":"1001400000264","LANDMARKCO":"203","LANDMARKNA":"縣立月眉國小","LANDMARKAD":"1001403","ADDRESS":"台東縣關山鎮月眉里盛豐路2鄰1號","TEL":"089-811074","COUNTYNAME":"台東縣","TOWNNAME":"關山鎮","MARKTYPE":"992","Class":"2"},"geometry":{"x":265220.11789999995,"y":2545329.8773999996}},{"attributes":{"OBJECTID":2816,"LANDMARKID":"1001400000265","LANDMARKCO":"203","LANDMARKNA":"縣立電光國小","LANDMARKAD":"1001403","ADDRESS":"台東縣關山鎮電光里中興路93號","TEL":"089-951142","COUNTYNAME":"台東縣","TOWNNAME":"關山鎮","MARKTYPE":"992","Class":"2"},"geometry":{"x":267770.07239999995,"y":2544969.8708999995}},{"attributes":{"OBJECTID":2817,"LANDMARKID":"1001400000266","LANDMARKCO":"203","LANDMARKNA":"縣立德高國小","LANDMARKAD":"1001403","ADDRESS":"台東縣關山鎮德高里永豐7鄰16號","TEL":"089-931149","COUNTYNAME":"台東縣","TOWNNAME":"關山鎮","MARKTYPE":"992","Class":"2"},"geometry":{"x":268208.18039999995,"y":2552439.6720000003}},{"attributes":{"OBJECTID":2818,"LANDMARKID":"1001400000406","LANDMARKCO":"301","LANDMARKNA":"德高火車站(閒)","LANDMARKAD":"1001403","ADDRESS":"台東縣關山鎮","TEL":" ","COUNTYNAME":"台東縣","TOWNNAME":"關山鎮","MARKTYPE":"993","Class":"301"},"geometry":{"x":267844.30769999977,"y":2552463.2972999997}},{"attributes":{"OBJECTID":2819,"LANDMARKID":"1001400000407","LANDMARKCO":"301","LANDMARKNA":"月眉火車站","LANDMARKAD":"1001403","ADDRESS":"台東縣關山鎮","TEL":" ","COUNTYNAME":"台東縣","TOWNNAME":"關山鎮","MARKTYPE":"993","Class":"301"},"geometry":{"x":265521.04590000026,"y":2546088.9020000007}},{"attributes":{"OBJECTID":2820,"LANDMARKID":"1001400000408","LANDMARKCO":"301","LANDMARKNA":"關山火車站","LANDMARKAD":"1001403","ADDRESS":"台東縣關山鎮博愛路2號","TEL":"089-811033","COUNTYNAME":"台東縣","TOWNNAME":"關山鎮","MARKTYPE":"993","Class":"301"},"geometry":{"x":266865.81570000015,"y":2549352.6035999991}},{"attributes":{"OBJECTID":2821,"LANDMARKID":"1001400000409","LANDMARKCO":"301","LANDMARKNA":"海端火車站","LANDMARKAD":"1001403","ADDRESS":"台東縣關山鎮西庄路49號","TEL":" ","COUNTYNAME":"台東縣","TOWNNAME":"關山鎮","MARKTYPE":"993","Class":"301"},"geometry":{"x":268115.71800000034,"y":2555686.0998999998}},{"attributes":{"OBJECTID":2822,"LANDMARKID":"1001400000483","LANDMARKCO":"402","LANDMARKNA":"中華電信-關山服務中心","LANDMARKAD":"1001403","ADDRESS":"台東縣關山鎮民生路10號","TEL":"123或0800-080-123","COUNTYNAME":"台東縣","TOWNNAME":"關山鎮","MARKTYPE":"994","Class":"4"},"geometry":{"x":266783.42679999955,"y":2549640.8585999999}},{"attributes":{"OBJECTID":2823,"LANDMARKID":"1001400000760","LANDMARKCO":"604","LANDMARKNA":"永晴民宿","LANDMARKAD":"1001403","ADDRESS":"台東縣關山鎮中華路33巷8號","TEL":"089-814551","COUNTYNAME":"台東縣","TOWNNAME":"關山鎮","MARKTYPE":"996","Class":"6"},"geometry":{"x":266668.85759999976,"y":2549587.7062999997}},{"attributes":{"OBJECTID":2824,"LANDMARKID":"1001400000753","LANDMARKCO":"603","LANDMARKNA":"宜客休閒山莊","LANDMARKAD":"1001403","ADDRESS":"台東縣關山鎮新福里溪埔路22-2","TEL":"22-3號","COUNTYNAME":"台東縣","TOWNNAME":"關山鎮","MARKTYPE":"996","Class":"6"},"geometry":{"x":267121.19060000032,"y":2549536.6311000008}},{"attributes":{"OBJECTID":2825,"LANDMARKID":"1001400000754","LANDMARKCO":"604","LANDMARKNA":"好來屋民宿","LANDMARKAD":"1001403","ADDRESS":"台東縣關山鎮大安路20號","TEL":"038-880756","COUNTYNAME":"台東縣","TOWNNAME":"關山鎮","MARKTYPE":"996","Class":"6"},"geometry":{"x":266811.05810000002,"y":2549966.7324999999}},{"attributes":{"OBJECTID":2826,"LANDMARKID":"1001400000755","LANDMARKCO":"604","LANDMARKNA":"親山農園民宿","LANDMARKAD":"1001403","ADDRESS":"台東縣關山鎮和平路2之4號","TEL":"089-813329","COUNTYNAME":"台東縣","TOWNNAME":"關山鎮","MARKTYPE":"996","Class":"6"},"geometry":{"x":266666.56929999962,"y":2549081.9846999999}},{"attributes":{"OBJECTID":2827,"LANDMARKID":"1001400000756","LANDMARKCO":"604","LANDMARKNA":"清水庄民宿","LANDMARKAD":"1001403","ADDRESS":"台東縣關山鎮新福路11號","TEL":"089-814570","COUNTYNAME":"台東縣","TOWNNAME":"關山鎮","MARKTYPE":"996","Class":"6"},"geometry":{"x":267337.6699000001,"y":2549228.6801999994}},{"attributes":{"OBJECTID":2828,"LANDMARKID":"1001400000757","LANDMARKCO":"604","LANDMARKNA":"東籬房民宿","LANDMARKAD":"1001403","ADDRESS":"台東縣關山鎮新福路26號","TEL":"089-810123","COUNTYNAME":"台東縣","TOWNNAME":"關山鎮","MARKTYPE":"996","Class":"6"},"geometry":{"x":267255.73309999984,"y":2549083.3972999994}},{"attributes":{"OBJECTID":2829,"LANDMARKID":"1001400000758","LANDMARKCO":"604","LANDMARKNA":"白樺民宿","LANDMARKAD":"1001403","ADDRESS":"台東縣關山鎮豐泉里中正路88號","TEL":"089-812559","COUNTYNAME":"台東縣","TOWNNAME":"關山鎮","MARKTYPE":"996","Class":"6"},"geometry":{"x":266619.22539999988,"y":2549932.8640000001}},{"attributes":{"OBJECTID":2830,"LANDMARKID":"1001400000759","LANDMARKCO":"604","LANDMARKNA":"禾豐民宿","LANDMARKAD":"1001403","ADDRESS":"台東縣關山鎮和平路136-2號","TEL":"089-811752","COUNTYNAME":"台東縣","TOWNNAME":"關山鎮","MARKTYPE":"996","Class":"6"},"geometry":{"x":266913.26499999966,"y":2549810.2653999999}},{"attributes":{"OBJECTID":2831,"LANDMARKID":"1001400000516","LANDMARKCO":"405","LANDMARKNA":"中油加油站-東展站(中油直營)","LANDMARKAD":"1001407","ADDRESS":"台東縣東河鄉都蘭村都蘭路445-3號","TEL":"089-530028","COUNTYNAME":"台東縣","TOWNNAME":"東河鄉","MARKTYPE":"994","Class":"4"},"geometry":{"x":273887.49380000029,"y":2531136.1424000002}},{"attributes":{"OBJECTID":2832,"LANDMARKID":"1001400000517","LANDMARKCO":"405","LANDMARKNA":"中油加油站-永利站","LANDMARKAD":"1001407","ADDRESS":"台東縣東河鄉都蘭村都蘭41-2號","TEL":"089-531382","COUNTYNAME":"台東縣","TOWNNAME":"東河鄉","MARKTYPE":"994","Class":"4"},"geometry":{"x":273143.65909999982,"y":2529990.5159000009}},{"attributes":{"OBJECTID":2833,"LANDMARKID":"1001400000518","LANDMARKCO":"405","LANDMARKNA":"中油加油站-泰源站(中油直營)","LANDMARKAD":"1001407","ADDRESS":"台東縣東河鄉北源村柑桔林路37-3號","TEL":"089-891290","COUNTYNAME":"台東縣","TOWNNAME":"東河鄉","MARKTYPE":"994","Class":"4"},"geometry":{"x":279384.01539999992,"y":2544869.8432}},{"attributes":{"OBJECTID":2834,"LANDMARKID":"1001400000519","LANDMARKCO":"405","LANDMARKNA":"中油加油站-東河站(中油直營)","LANDMARKAD":"1001407","ADDRESS":"台東縣東河鄉南東河46號","TEL":"089-896236","COUNTYNAME":"台東縣","TOWNNAME":"東河鄉","MARKTYPE":"994","Class":"4"},"geometry":{"x":280812.71580000035,"y":2540545.4320999999}},{"attributes":{"OBJECTID":2835,"LANDMARKID":"1001400000636","LANDMARKCO":"506","LANDMARKNA":"東河休閒農場","LANDMARKAD":"1001407","ADDRESS":"台東縣東河鄉北源村45鄰67號","TEL":"089-891193","COUNTYNAME":"台東縣","TOWNNAME":"東河鄉","MARKTYPE":"995","Class":"5"},"geometry":{"x":279577.06209999975,"y":2552564.9941000007}},{"attributes":{"OBJECTID":2836,"LANDMARKID":"1001400000637","LANDMARKCO":"506","LANDMARKNA":"上美綜合觀光果園","LANDMARKAD":"1001407","ADDRESS":"台東縣東河鄉北源村17鄰美蘭2號","TEL":"089-891433","COUNTYNAME":"台東縣","TOWNNAME":"東河鄉","MARKTYPE":"995","Class":"5"},"geometry":{"x":278766.33970000036,"y":2547888.2719999999}},{"attributes":{"OBJECTID":2837,"LANDMARKID":"1001400000646","LANDMARKCO":"507","LANDMARKNA":"都蘭遺址","LANDMARKAD":"1001407","ADDRESS":"台東縣東河鄉都蘭1326、797-3地號","TEL":" ","COUNTYNAME":"台東縣","TOWNNAME":"東河鄉","MARKTYPE":"995","Class":"5"},"geometry":{"x":272952.0429999996,"y":2530697.6245000008}},{"attributes":{"OBJECTID":2838,"LANDMARKID":"1001400000582","LANDMARKCO":"408","LANDMARKNA":"郵局-東河都蘭郵局","LANDMARKAD":"1001407","ADDRESS":"台東縣東河鄉都蘭村201號","TEL":"(089)531-304","COUNTYNAME":"台東縣","TOWNNAME":"東河鄉","MARKTYPE":"994","Class":"4"},"geometry":{"x":273476.87330000009,"y":2530407.8606000002}},{"attributes":{"OBJECTID":2839,"LANDMARKID":"1001400000583","LANDMARKCO":"408","LANDMARKNA":"郵局-東河泰源郵局","LANDMARKAD":"1001407","ADDRESS":"台東縣東河鄉泰源村本部落246號","TEL":"(089)891-421","COUNTYNAME":"台東縣","TOWNNAME":"東河鄉","MARKTYPE":"994","Class":"4"},"geometry":{"x":279387.57589999959,"y":2544177.6471999995}},{"attributes":{"OBJECTID":2840,"LANDMARKID":"1001400000595","LANDMARKCO":"409","LANDMARKNA":"台東縣東河鄉農會","LANDMARKAD":"1001407","ADDRESS":"台東縣東河鄉東河村14鄰380號","TEL":"089-531202","COUNTYNAME":"台東縣","TOWNNAME":"東河鄉","MARKTYPE":"994","Class":"4"},"geometry":{"x":281307.52890000027,"y":2541183.1088999994}},{"attributes":{"OBJECTID":2841,"LANDMARKID":"1001400000075","LANDMARKCO":"103","LANDMARKNA":"台東縣東河鄉衛生所","LANDMARKAD":"1001407","ADDRESS":"台東縣東河鄉東河村十鄰300號","TEL":"089-896289","COUNTYNAME":"台東縣","TOWNNAME":"東河鄉","MARKTYPE":"991","Class":"1"},"geometry":{"x":281130.40479999967,"y":2540819.8333999999}},{"attributes":{"OBJECTID":2842,"LANDMARKID":"1001400000202","LANDMARKCO":"108","LANDMARKNA":"台東縣東河鄉公所","LANDMARKAD":"1001407","ADDRESS":"台東縣東河鄉東河村十一鄰311號","TEL":"089-896070","COUNTYNAME":"台東縣","TOWNNAME":"東河鄉","MARKTYPE":"991","Class":"1"},"geometry":{"x":281212.16179999989,"y":2541009.6627999991}},{"attributes":{"OBJECTID":2843,"LANDMARKID":"1001400000074","LANDMARKCO":"103","LANDMARKNA":"台東縣東河鄉鄉民代表會","LANDMARKAD":"1001407","ADDRESS":"台東縣東河鄉東河村南東河64之2號","TEL":"089-896280","COUNTYNAME":"台東縣","TOWNNAME":"東河鄉","MARKTYPE":"991","Class":"1"},"geometry":{"x":281065.46619999968,"y":2540849.9675999992}},{"attributes":{"OBJECTID":2844,"LANDMARKID":"1001400000171","LANDMARKCO":"107","LANDMARKNA":"台東縣消防局東河消防分隊","LANDMARKAD":"1001407","ADDRESS":"台東縣東河鄉東河村南東河115號","TEL":"089-896180","COUNTYNAME":"台東縣","TOWNNAME":"東河鄉","MARKTYPE":"991","Class":"1"},"geometry":{"x":281263.39030000009,"y":2541119.5565000009}},{"attributes":{"OBJECTID":2845,"LANDMARKID":"1001400000172","LANDMARKCO":"107","LANDMARKNA":"台東縣警察局東河分駐所","LANDMARKAD":"1001407","ADDRESS":"台東縣東河鄉東河村南東河368號","TEL":"089-896010","COUNTYNAME":"台東縣","TOWNNAME":"東河鄉","MARKTYPE":"991","Class":"1"},"geometry":{"x":281265.30719999969,"y":2541079.5526000001}},{"attributes":{"OBJECTID":2846,"LANDMARKID":"1001400000173","LANDMARKCO":"107","LANDMARKNA":"台東縣警察局都蘭派出所","LANDMARKAD":"1001407","ADDRESS":"台東縣東河鄉都蘭村248號","TEL":"089-531209","COUNTYNAME":"台東縣","TOWNNAME":"東河鄉","MARKTYPE":"991","Class":"1"},"geometry":{"x":273717.23110000044,"y":2530299.9131000005}},{"attributes":{"OBJECTID":2847,"LANDMARKID":"1001400000174","LANDMARKCO":"107","LANDMARKNA":"台東縣警察局泰源派出所","LANDMARKAD":"1001407","ADDRESS":"台東縣東河鄉泰源村本部落281號","TEL":"089-891014","COUNTYNAME":"台東縣","TOWNNAME":"東河鄉","MARKTYPE":"991","Class":"1"},"geometry":{"x":279274.03110000025,"y":2544019.5647999998}},{"attributes":{"OBJECTID":2848,"LANDMARKID":"1001400000097","LANDMARKCO":"106","LANDMARKNA":"台東縣東河鄉戶政事務所","LANDMARKAD":"1001407","ADDRESS":"台東縣東河鄉東河村13鄰南東河367號","TEL":"089-896120","COUNTYNAME":"台東縣","TOWNNAME":"東河鄉","MARKTYPE":"991","Class":"1"},"geometry":{"x":281303.43219999969,"y":2541139.4733000007}},{"attributes":{"OBJECTID":2849,"LANDMARKID":"1001400000005","LANDMARKCO":"101","LANDMARKNA":"台灣泰源技能訓練所","LANDMARKAD":"1001407","ADDRESS":"台東縣東河鄉北源村32號","TEL":"089-891743","COUNTYNAME":"台東縣","TOWNNAME":"東河鄉","MARKTYPE":"991","Class":"1"},"geometry":{"x":279935.43819999974,"y":2542379.9443999995}},{"attributes":{"OBJECTID":2850,"LANDMARKID":"1001400000381","LANDMARKCO":"204","LANDMARKNA":"台東縣立圖書館東河分館","LANDMARKAD":"1001407","ADDRESS":"台東縣東河鄉都蘭村20鄰94巷61號","TEL":" ","COUNTYNAME":"台東縣","TOWNNAME":"東河鄉","MARKTYPE":"992","Class":"2"},"geometry":{"x":273337.63960000034,"y":2530269.3006999996}},{"attributes":{"OBJECTID":2851,"LANDMARKID":"1001400000267","LANDMARKCO":"203","LANDMARKNA":"縣立都蘭國中","LANDMARKAD":"1001407","ADDRESS":"台東縣東河鄉都蘭村398號","TEL":"089-531226","COUNTYNAME":"台東縣","TOWNNAME":"東河鄉","MARKTYPE":"992","Class":"2"},"geometry":{"x":273037.42410000041,"y":2530429.6504999995}},{"attributes":{"OBJECTID":2852,"LANDMARKID":"1001400000268","LANDMARKCO":"203","LANDMARKNA":"縣立泰源國中","LANDMARKAD":"1001407","ADDRESS":"台東縣東河鄉北源村3鄰30號","TEL":"089-891252","COUNTYNAME":"台東縣","TOWNNAME":"東河鄉","MARKTYPE":"992","Class":"2"},"geometry":{"x":279721.3311999999,"y":2544479.7971000001}},{"attributes":{"OBJECTID":2853,"LANDMARKID":"1001400000269","LANDMARKCO":"203","LANDMARKNA":"縣立泰源國小尚德分校","LANDMARKAD":"1001407","ADDRESS":"台東縣東河鄉尚德村","TEL":" ","COUNTYNAME":"台東縣","TOWNNAME":"東河鄉","MARKTYPE":"992","Class":"2"},"geometry":{"x":272289.3842000002,"y":2538099.9057}},{"attributes":{"OBJECTID":2854,"LANDMARKID":"1001400000270","LANDMARKCO":"203","LANDMARKNA":"縣立興隆國小","LANDMARKAD":"1001407","ADDRESS":"台東縣東河鄉興昌村155號","TEL":"089-531283","COUNTYNAME":"台東縣","TOWNNAME":"東河鄉","MARKTYPE":"992","Class":"2"},"geometry":{"x":275487.14130000025,"y":2532699.7984999996}},{"attributes":{"OBJECTID":2855,"LANDMARKID":"1001400000271","LANDMARKCO":"203","LANDMARKNA":"縣立都蘭國小","LANDMARKAD":"1001407","ADDRESS":"台東縣東河鄉都蘭村431號","TEL":"089-531224","COUNTYNAME":"台東縣","TOWNNAME":"東河鄉","MARKTYPE":"992","Class":"2"},"geometry":{"x":273350.46380000003,"y":2530759.602}},{"attributes":{"OBJECTID":2856,"LANDMARKID":"1001400000272","LANDMARKCO":"203","LANDMARKNA":"縣立東河國小","LANDMARKAD":"1001407","ADDRESS":"台東縣東河鄉東河村16鄰35號","TEL":"089-896160","COUNTYNAME":"台東縣","TOWNNAME":"東河鄉","MARKTYPE":"992","Class":"2"},"geometry":{"x":281200.34829999972,"y":2541099.6873000003}},{"attributes":{"OBJECTID":2857,"LANDMARKID":"1001400000273","LANDMARKCO":"203","LANDMARKNA":"縣立泰源國小","LANDMARKAD":"1001407","ADDRESS":"台東縣東河鄉泰源村本部落11鄰293號","TEL":"089-891011","COUNTYNAME":"台東縣","TOWNNAME":"東河鄉","MARKTYPE":"992","Class":"2"},"geometry":{"x":279154.32230000012,"y":2544169.7973999996}},{"attributes":{"OBJECTID":2858,"LANDMARKID":"1001400000274","LANDMARKCO":"203","LANDMARKNA":"縣立北源國小","LANDMARKAD":"1001407","ADDRESS":"台東縣東河鄉北源村順那21號","TEL":"089-891103","COUNTYNAME":"台東縣","TOWNNAME":"東河鄉","MARKTYPE":"992","Class":"2"},"geometry":{"x":279947.06130000018,"y":2548649.8955000006}},{"attributes":{"OBJECTID":2859,"LANDMARKID":"1001400000275","LANDMARKCO":"203","LANDMARKNA":"縣立尚德國小(廢)","LANDMARKAD":"1001407","ADDRESS":"台東縣東河鄉尚德村前寮43號","TEL":"089-891182","COUNTYNAME":"台東縣","TOWNNAME":"東河鄉","MARKTYPE":"992","Class":"2"},"geometry":{"x":274653.34860000014,"y":2540209.7508000005}},{"attributes":{"OBJECTID":2860,"LANDMARKID":"1001400000276","LANDMARKCO":"203","LANDMARKNA":"縣立隆昌國小","LANDMARKAD":"1001407","ADDRESS":"台東縣東河鄉","TEL":" ","COUNTYNAME":"台東縣","TOWNNAME":"東河鄉","MARKTYPE":"992","Class":"2"},"geometry":{"x":277598.10790000018,"y":2536369.5576000009}},{"attributes":{"OBJECTID":2861,"LANDMARKID":"1001400000277","LANDMARKCO":"203","LANDMARKNA":"縣立尚德國小分校","LANDMARKAD":"1001407","ADDRESS":"台東縣東河鄉","TEL":" ","COUNTYNAME":"台東縣","TOWNNAME":"東河鄉","MARKTYPE":"992","Class":"2"},"geometry":{"x":269896.19649999961,"y":2534909.6986999996}},{"attributes":{"OBJECTID":2862,"LANDMARKID":"1001400000461","LANDMARKCO":"305","LANDMARKNA":"金樽漁港","LANDMARKAD":"1001407","ADDRESS":"台東縣東河鄉","TEL":" ","COUNTYNAME":"台東縣","TOWNNAME":"東河鄉","MARKTYPE":"993","Class":"305"},"geometry":{"x":279948.23089999985,"y":2539409.9559000004}},{"attributes":{"OBJECTID":2863,"LANDMARKID":"1001400000446","LANDMARKCO":"303","LANDMARKNA":"行政院國軍除役官兵輔導委員會台東農場","LANDMARKAD":"1001407","ADDRESS":"台東縣東河鄉北源村67號","TEL":" ","COUNTYNAME":"台東縣","TOWNNAME":"東河鄉","MARKTYPE":"993","Class":"303"},"geometry":{"x":280772.86400000006,"y":2552570.4120000005}},{"attributes":{"OBJECTID":2864,"LANDMARKID":"1001400000447","LANDMARKCO":"303","LANDMARKNA":"水往上流休憩區停車場","LANDMARKAD":"1001407","ADDRESS":"台東縣東河鄉都蘭村水往流","TEL":" ","COUNTYNAME":"台東縣","TOWNNAME":"東河鄉","MARKTYPE":"993","Class":"303"},"geometry":{"x":272320.90739999991,"y":2529869.0638999995}},{"attributes":{"OBJECTID":2865,"LANDMARKID":"1001400000448","LANDMARKCO":"303","LANDMARKNA":"台東農場東河分場停車場","LANDMARKAD":"1001407","ADDRESS":"台東縣東河鄉北源村67號","TEL":" ","COUNTYNAME":"台東縣","TOWNNAME":"東河鄉","MARKTYPE":"993","Class":"303"},"geometry":{"x":271204.10199999996,"y":2530164.9331}},{"attributes":{"OBJECTID":2866,"LANDMARKID":"1001400000449","LANDMARKCO":"303","LANDMARKNA":"金樽休息區停車場","LANDMARKAD":"1001407","ADDRESS":"台東縣東河鄉七里橋","TEL":" ","COUNTYNAME":"台東縣","TOWNNAME":"東河鄉","MARKTYPE":"993","Class":"303"},"geometry":{"x":278837.54409999959,"y":2538238.0723999999}},{"attributes":{"OBJECTID":2867,"LANDMARKID":"1001400000450","LANDMARKCO":"303","LANDMARKNA":"郡界休息區停車場","LANDMARKAD":"1001407","ADDRESS":"台東縣東河鄉都蘭村郡界","TEL":" ","COUNTYNAME":"台東縣","TOWNNAME":"東河鄉","MARKTYPE":"993","Class":"303"},"geometry":{"x":269673.68680000026,"y":2527923.7337999996}},{"attributes":{"OBJECTID":2868,"LANDMARKID":"1001400000451","LANDMARKCO":"303","LANDMARKNA":"新橋休息區停車場","LANDMARKAD":"1001407","ADDRESS":"台東縣東河鄉都蘭村水往流","TEL":" ","COUNTYNAME":"台東縣","TOWNNAME":"東河鄉","MARKTYPE":"993","Class":"303"},"geometry":{"x":271768.43379999977,"y":2529351.8231000006}},{"attributes":{"OBJECTID":2869,"LANDMARKID":"1001400000452","LANDMARKCO":"303","LANDMARKNA":"加母子休息區停車場","LANDMARKAD":"1001407","ADDRESS":"台東縣東河鄉都蘭村加母子","TEL":" ","COUNTYNAME":"台東縣","TOWNNAME":"東河鄉","MARKTYPE":"993","Class":"303"},"geometry":{"x":270994.87179999985,"y":2529294.2991000004}},{"attributes":{"OBJECTID":2870,"LANDMARKID":"1001400000616","LANDMARKCO":"503","LANDMARKNA":"加母子灣休憩區","LANDMARKAD":"1001407","ADDRESS":"台東縣東河鄉","TEL":" ","COUNTYNAME":"台東縣","TOWNNAME":"東河鄉","MARKTYPE":"995","Class":"5"},"geometry":{"x":271171.86930000037,"y":2529197.3241000008}},{"attributes":{"OBJECTID":2871,"LANDMARKID":"1001400000617","LANDMARKCO":"503","LANDMARKNA":"渚橋休憩區","LANDMARKAD":"1001407","ADDRESS":"台東縣東河鄉","TEL":" ","COUNTYNAME":"台東縣","TOWNNAME":"東河鄉","MARKTYPE":"995","Class":"5"},"geometry":{"x":270908.8833999997,"y":2528934.5036999993}},{"attributes":{"OBJECTID":2872,"LANDMARKID":"1001400000618","LANDMARKCO":"503","LANDMARKNA":"郡界休憩區","LANDMARKAD":"1001407","ADDRESS":"台東縣東河鄉","TEL":" ","COUNTYNAME":"台東縣","TOWNNAME":"東河鄉","MARKTYPE":"995","Class":"5"},"geometry":{"x":270377.2977,"y":2528477.7753999997}},{"attributes":{"OBJECTID":2873,"LANDMARKID":"1001400000619","LANDMARKCO":"503","LANDMARKNA":"金樽遊憩區","LANDMARKAD":"1001407","ADDRESS":"台東縣東河鄉","TEL":" ","COUNTYNAME":"台東縣","TOWNNAME":"東河鄉","MARKTYPE":"995","Class":"5"},"geometry":{"x":278741.93979999982,"y":2538064.7006999999}},{"attributes":{"OBJECTID":2874,"LANDMARKID":"1001400000620","LANDMARKCO":"503","LANDMARKNA":"水往上流","LANDMARKAD":"1001407","ADDRESS":"台東縣東河鄉","TEL":" ","COUNTYNAME":"台東縣","TOWNNAME":"東河鄉","MARKTYPE":"995","Class":"5"},"geometry":{"x":272340.5728000002,"y":2529789.6371999998}},{"attributes":{"OBJECTID":2875,"LANDMARKID":"1001400000522","LANDMARKCO":"405","LANDMARKNA":"中油加油站-東進站(中油直營)","LANDMARKAD":"1001405","ADDRESS":"台東縣鹿野鄉瑞豐村中山路123號","TEL":"089-581809","COUNTYNAME":"台東縣","TOWNNAME":"鹿野鄉","MARKTYPE":"994","Class":"4"},"geometry":{"x":264584.83150000032,"y":2543286.9509999994}},{"attributes":{"OBJECTID":2876,"LANDMARKID":"1001400000523","LANDMARKCO":"405","LANDMARKNA":"中油加油站-延平聽裝站(中油直營)","LANDMARKAD":"1001405","ADDRESS":"台東縣延平鄉桃源村昇平路1號","TEL":"089-561225","COUNTYNAME":"台東縣","TOWNNAME":"鹿野鄉","MARKTYPE":"994","Class":"4"},"geometry":{"x":258858.6743999999,"y":2533463.4658000004}},{"attributes":{"OBJECTID":2877,"LANDMARKID":"1001400000638","LANDMARKCO":"506","LANDMARKNA":"高台觀光果園","LANDMARKAD":"1001405","ADDRESS":"台東縣鹿野鄉","TEL":"089-551745","COUNTYNAME":"台東縣","TOWNNAME":"鹿野鄉","MARKTYPE":"995","Class":"5"},"geometry":{"x":264426.23539999966,"y":2535816.3588999994}},{"attributes":{"OBJECTID":2878,"LANDMARKID":"1001400000639","LANDMARKCO":"506","LANDMARKNA":"鹿野觀光茶園","LANDMARKAD":"1001405","ADDRESS":"台東縣鹿野鄉鹿野村中華路114號","TEL":"089-550107","COUNTYNAME":"台東縣","TOWNNAME":"鹿野鄉","MARKTYPE":"995","Class":"5"},"geometry":{"x":262296.29310000036,"y":2534251.7427999992}},{"attributes":{"OBJECTID":2879,"LANDMARKID":"1001400000640","LANDMARKCO":"506","LANDMARKNA":"阿如的茶葉中心","LANDMARKAD":"1001405","ADDRESS":"台東縣鹿野鄉","TEL":" ","COUNTYNAME":"台東縣","TOWNNAME":"鹿野鄉","MARKTYPE":"995","Class":"5"},"geometry":{"x":264846.42370000016,"y":2538577.3780000005}},{"attributes":{"OBJECTID":2880,"LANDMARKID":"1001400000641","LANDMARKCO":"506","LANDMARKNA":"福鹿休閒農場","LANDMARKAD":"1001405","ADDRESS":"台東縣鹿野鄉中華路41號","TEL":"089-551052","COUNTYNAME":"台東縣","TOWNNAME":"鹿野鄉","MARKTYPE":"995","Class":"5"},"geometry":{"x":263945.56269999966,"y":2534547.6018000003}},{"attributes":{"OBJECTID":2881,"LANDMARKID":"1001400000584","LANDMARKCO":"408","LANDMARKNA":"郵局-延平郵局","LANDMARKAD":"1001405","ADDRESS":"台東縣延平鄉桃源村昇平路30號","TEL":"(089)561-207","COUNTYNAME":"台東縣","TOWNNAME":"鹿野鄉","MARKTYPE":"994","Class":"4"},"geometry":{"x":258729.1847000001,"y":2533479.7445999999}},{"attributes":{"OBJECTID":2882,"LANDMARKID":"1001400000585","LANDMARKCO":"408","LANDMARKNA":"郵局-鹿野郵局","LANDMARKAD":"1001405","ADDRESS":"台東縣鹿野鄉中華路1段427號","TEL":"(089)551-341","COUNTYNAME":"台東縣","TOWNNAME":"鹿野鄉","MARKTYPE":"994","Class":"4"},"geometry":{"x":263948.61419999972,"y":2534380.0037999991}},{"attributes":{"OBJECTID":2883,"LANDMARKID":"1001400000586","LANDMARKCO":"408","LANDMARKNA":"郵局-鹿野瑞源郵局","LANDMARKAD":"1001405","ADDRESS":"台東縣鹿野鄉瑞源村瑞景路1段388號","TEL":"(089)580-152","COUNTYNAME":"台東縣","TOWNNAME":"鹿野鄉","MARKTYPE":"994","Class":"4"},"geometry":{"x":266241.11809999961,"y":2539544.4420999996}},{"attributes":{"OBJECTID":2884,"LANDMARKID":"1001400000594","LANDMARKCO":"409","LANDMARKNA":"台東縣鹿野鄉農會","LANDMARKAD":"1001405","ADDRESS":"台東縣鹿野鄉鹿野村中華路二段25號","TEL":"089-551052","COUNTYNAME":"台東縣","TOWNNAME":"鹿野鄉","MARKTYPE":"994","Class":"4"},"geometry":{"x":263932.13260000013,"y":2534032.3814000003}},{"attributes":{"OBJECTID":2885,"LANDMARKID":"1001400000557","LANDMARKCO":"406","LANDMARKNA":"龍田公園","LANDMARKAD":"1001405","ADDRESS":"台東縣鹿野鄉","TEL":" ","COUNTYNAME":"台東縣","TOWNNAME":"鹿野鄉","MARKTYPE":"994","Class":"4"},"geometry":{"x":263976.34190000035,"y":2533932.9989999998}},{"attributes":{"OBJECTID":2886,"LANDMARKID":"1001400000524","LANDMARKCO":"405","LANDMARKNA":"台塑加油站-瑞豐站(台塑)","LANDMARKAD":"1001405","ADDRESS":"台東縣鹿野鄉瑞豐村中山路226號","TEL":"08-9812370","COUNTYNAME":"台東縣","TOWNNAME":"鹿野鄉","MARKTYPE":"994","Class":"4"},"geometry":{"x":264525.01680000033,"y":2543058.1634999998}},{"attributes":{"OBJECTID":2887,"LANDMARKID":"1001400000525","LANDMARKCO":"405","LANDMARKNA":"台塑加油站-瑞源站(台塑)","LANDMARKAD":"1001405","ADDRESS":"台東縣鹿野鄉中華路二段283號","TEL":"08-9551620","COUNTYNAME":"台東縣","TOWNNAME":"鹿野鄉","MARKTYPE":"994","Class":"4"},"geometry":{"x":264094.5820000004,"y":2534961.1475000009}},{"attributes":{"OBJECTID":2888,"LANDMARKID":"1001400000071","LANDMARKCO":"103","LANDMARKNA":"台東縣鹿野鄉衛生所","LANDMARKAD":"1001405","ADDRESS":"台東縣鹿野鄉鹿野村中華路一段418號","TEL":"089-551074","COUNTYNAME":"台東縣","TOWNNAME":"鹿野鄉","MARKTYPE":"991","Class":"1"},"geometry":{"x":263988.15830000024,"y":2534309.9835999999}},{"attributes":{"OBJECTID":2889,"LANDMARKID":"1001400000203","LANDMARKCO":"108","LANDMARKNA":"台東縣鹿野鄉公所","LANDMARKAD":"1001405","ADDRESS":"台東縣鹿野鄉鹿野村中華路二段139號","TEL":"089-552136","COUNTYNAME":"台東縣","TOWNNAME":"鹿野鄉","MARKTYPE":"991","Class":"1"},"geometry":{"x":263943.01460000034,"y":2534769.7639000006}},{"attributes":{"OBJECTID":2890,"LANDMARKID":"1001400000006","LANDMARKCO":"101","LANDMARKNA":"農業委員會茶葉改良場台東分場","LANDMARKAD":"1001405","ADDRESS":"台東縣鹿野鄉龍田村北二路66號","TEL":"089-551446","COUNTYNAME":"台東縣","TOWNNAME":"鹿野鄉","MARKTYPE":"991","Class":"1"},"geometry":{"x":263572.12480000034,"y":2533969.8473000005}},{"attributes":{"OBJECTID":2891,"LANDMARKID":"1001400000070","LANDMARKCO":"103","LANDMARKNA":"台東縣鹿野鄉鄉民代表會","LANDMARKAD":"1001405","ADDRESS":"台東縣鹿野鄉中華路二段141號","TEL":"089-550921","COUNTYNAME":"台東縣","TOWNNAME":"鹿野鄉","MARKTYPE":"991","Class":"1"},"geometry":{"x":263962.2620000001,"y":2534730.0073000006}},{"attributes":{"OBJECTID":2892,"LANDMARKID":"1001400000165","LANDMARKCO":"107","LANDMARKNA":"台東縣消防局鹿野消防分隊","LANDMARKAD":"1001405","ADDRESS":"台東縣鹿野鄉中華路二段273號","TEL":"089-551449","COUNTYNAME":"台東縣","TOWNNAME":"鹿野鄉","MARKTYPE":"991","Class":"1"},"geometry":{"x":264035.12609999999,"y":2534889.9395000003}},{"attributes":{"OBJECTID":2893,"LANDMARKID":"1001400000166","LANDMARKCO":"107","LANDMARKNA":"台東縣警察局永康派出所","LANDMARKAD":"1001405","ADDRESS":"台東縣延平鄉永康村泰平路85號","TEL":"089-551154","COUNTYNAME":"台東縣","TOWNNAME":"鹿野鄉","MARKTYPE":"991","Class":"1"},"geometry":{"x":261766.03469999973,"y":2536949.9410999995}},{"attributes":{"OBJECTID":2894,"LANDMARKID":"1001400000167","LANDMARKCO":"107","LANDMARKNA":"台東縣警察局瑞源派出所","LANDMARKAD":"1001405","ADDRESS":"台東縣鹿野鄉瑞景路一段386號","TEL":"089-581134","COUNTYNAME":"台東縣","TOWNNAME":"鹿野鄉","MARKTYPE":"991","Class":"1"},"geometry":{"x":265875.05520000029,"y":2539729.7890000008}},{"attributes":{"OBJECTID":2895,"LANDMARKID":"1001400000168","LANDMARKCO":"107","LANDMARKNA":"台東縣警察局瑞豐派出所","LANDMARKAD":"1001405","ADDRESS":"台東縣鹿野鄉中山路171號","TEL":"089-811419","COUNTYNAME":"台東縣","TOWNNAME":"鹿野鄉","MARKTYPE":"991","Class":"1"},"geometry":{"x":264384.05539999995,"y":2542809.8696999997}},{"attributes":{"OBJECTID":2896,"LANDMARKID":"1001400000169","LANDMARKCO":"107","LANDMARKNA":"台東縣警察局鹿野分駐所","LANDMARKAD":"1001405","ADDRESS":"台東縣鹿野鄉中華路2段57號","TEL":"089-551114","COUNTYNAME":"台東縣","TOWNNAME":"鹿野鄉","MARKTYPE":"991","Class":"1"},"geometry":{"x":263926.22439999972,"y":2534689.7796999998}},{"attributes":{"OBJECTID":2897,"LANDMARKID":"1001400000098","LANDMARKCO":"106","LANDMARKNA":"台東縣鹿野鄉戶政事務所","LANDMARKAD":"1001405","ADDRESS":"台東縣鹿野鄉中華路二段175號","TEL":"089-551224","COUNTYNAME":"台東縣","TOWNNAME":"鹿野鄉","MARKTYPE":"991","Class":"1"},"geometry":{"x":263924.15979999956,"y":2534619.7816000003}},{"attributes":{"OBJECTID":2898,"LANDMARKID":"1001400000068","LANDMARKCO":"103","LANDMARKNA":"台東縣延平鄉鄉民代表會","LANDMARKAD":"1001405","ADDRESS":"台東縣延平鄉昇平路22號","TEL":"089-561166","COUNTYNAME":"台東縣","TOWNNAME":"鹿野鄉","MARKTYPE":"991","Class":"1"},"geometry":{"x":258737.16629999969,"y":2533499.8997000009}},{"attributes":{"OBJECTID":2899,"LANDMARKID":"1001400000007","LANDMARKCO":"101","LANDMARKNA":"台灣台東戒治所","LANDMARKAD":"1001405","ADDRESS":"臺東縣鹿野鄉瑞豐村永嶺路270號","TEL":"089-581014","COUNTYNAME":"台東縣","TOWNNAME":"鹿野鄉","MARKTYPE":"991","Class":"1"},"geometry":{"x":262774.15689999983,"y":2541089.8039999995}},{"attributes":{"OBJECTID":2900,"LANDMARKID":"1001400000382","LANDMARKCO":"204","LANDMARKNA":"台東縣立圖書館鹿野分館","LANDMARKAD":"1001405","ADDRESS":"台東縣鹿野鄉中華路仁貴巷2之1號","TEL":" ","COUNTYNAME":"台東縣","TOWNNAME":"鹿野鄉","MARKTYPE":"992","Class":"2"},"geometry":{"x":264008.72439999972,"y":2534311.2061000001}},{"attributes":{"OBJECTID":2901,"LANDMARKID":"1001400000283","LANDMARKCO":"203","LANDMARKNA":"縣立鹿野國中","LANDMARKAD":"1001405","ADDRESS":"台東縣鹿野鄉龍田村光榮路38號","TEL":"089-551006","COUNTYNAME":"台東縣","TOWNNAME":"鹿野鄉","MARKTYPE":"992","Class":"2"},"geometry":{"x":263877.18250000011,"y":2534029.8255000003}},{"attributes":{"OBJECTID":2902,"LANDMARKID":"1001400000284","LANDMARKCO":"203","LANDMARKNA":"縣立瑞豐國小","LANDMARKAD":"1001405","ADDRESS":"台東縣鹿野鄉瑞豐村中山路67號","TEL":"089-581118","COUNTYNAME":"台東縣","TOWNNAME":"鹿野鄉","MARKTYPE":"992","Class":"2"},"geometry":{"x":264069.15060000028,"y":2541989.9013999999}},{"attributes":{"OBJECTID":2903,"LANDMARKID":"1001400000285","LANDMARKCO":"203","LANDMARKNA":"縣立鹿野國小","LANDMARKAD":"1001405","ADDRESS":"台東縣鹿野鄉鹿野村中華路一段402號","TEL":"089-551371","COUNTYNAME":"台東縣","TOWNNAME":"鹿野鄉","MARKTYPE":"992","Class":"2"},"geometry":{"x":264036.04719999991,"y":2534189.9392000008}},{"attributes":{"OBJECTID":2904,"LANDMARKID":"1001400000286","LANDMARKCO":"203","LANDMARKNA":"縣立瑞源國小","LANDMARKAD":"1001405","ADDRESS":"台東縣鹿野鄉瑞源村文化路67號","TEL":"089-581064","COUNTYNAME":"台東縣","TOWNNAME":"鹿野鄉","MARKTYPE":"992","Class":"2"},"geometry":{"x":265957.23290000018,"y":2539590.0013999995}},{"attributes":{"OBJECTID":2905,"LANDMARKID":"1001400000287","LANDMARKCO":"203","LANDMARKNA":"縣立龍田國小","LANDMARKAD":"1001405","ADDRESS":"台東縣鹿野鄉龍田村光榮路236號","TEL":"089-551078","COUNTYNAME":"台東縣","TOWNNAME":"鹿野鄉","MARKTYPE":"992","Class":"2"},"geometry":{"x":262738.15780000016,"y":2533709.8400999997}},{"attributes":{"OBJECTID":2906,"LANDMARKID":"1001400000288","LANDMARKCO":"203","LANDMARKNA":"縣立瑞源國中","LANDMARKAD":"1001405","ADDRESS":"台東縣鹿野鄉瑞和村瑞興2號","TEL":"089-581425","COUNTYNAME":"台東縣","TOWNNAME":"鹿野鄉","MARKTYPE":"992","Class":"2"},"geometry":{"x":266043.21769999992,"y":2541419.9079999998}},{"attributes":{"OBJECTID":2907,"LANDMARKID":"1001400000289","LANDMARKCO":"203","LANDMARKNA":"瑞源國小寶華分校(廢)","LANDMARKAD":"1001405","ADDRESS":"台東縣鹿野鄉","TEL":" ","COUNTYNAME":"台東縣","TOWNNAME":"鹿野鄉","MARKTYPE":"992","Class":"2"},"geometry":{"x":267711.16750000045,"y":2541359.9455999993}},{"attributes":{"OBJECTID":2908,"LANDMARKID":"1001400000290","LANDMARKCO":"203","LANDMARKNA":"縣立永安國小","LANDMARKAD":"1001405","ADDRESS":"台東縣鹿野鄉永安村鹿寮路31號","TEL":"089-551172","COUNTYNAME":"台東縣","TOWNNAME":"鹿野鄉","MARKTYPE":"992","Class":"2"},"geometry":{"x":263202.0203999998,"y":2536929.9230000004}},{"attributes":{"OBJECTID":2909,"LANDMARKID":"1001400000291","LANDMARKCO":"203","LANDMARKNA":"縣立永安國小永隆分校","LANDMARKAD":"1001405","ADDRESS":"台東縣鹿野鄉","TEL":" ","COUNTYNAME":"台東縣","TOWNNAME":"鹿野鄉","MARKTYPE":"992","Class":"2"},"geometry":{"x":264019.09499999974,"y":2538239.9514000006}},{"attributes":{"OBJECTID":2910,"LANDMARKID":"1001400000292","LANDMARKCO":"203","LANDMARKNA":"縣立永康國小","LANDMARKAD":"1001405","ADDRESS":"台東縣鹿野鄉","TEL":" ","COUNTYNAME":"台東縣","TOWNNAME":"鹿野鄉","MARKTYPE":"992","Class":"2"},"geometry":{"x":261753.18080000021,"y":2536829.9513000008}},{"attributes":{"OBJECTID":2911,"LANDMARKID":"1001400000453","LANDMARKCO":"303","LANDMARKNA":"鹿野高台遊憩區停車場","LANDMARKAD":"1001405","ADDRESS":"台東縣鹿野鄉","TEL":" ","COUNTYNAME":"台東縣","TOWNNAME":"鹿野鄉","MARKTYPE":"993","Class":"303"},"geometry":{"x":262789.82770000026,"y":2535095.0341999996}},{"attributes":{"OBJECTID":2912,"LANDMARKID":"1001400000403","LANDMARKCO":"301","LANDMARKNA":"瑞和火車站","LANDMARKAD":"1001405","ADDRESS":"台東縣鹿野鄉","TEL":" ","COUNTYNAME":"台東縣","TOWNNAME":"鹿野鄉","MARKTYPE":"993","Class":"301"},"geometry":{"x":265937.60410000011,"y":2542203.0894000009}},{"attributes":{"OBJECTID":2913,"LANDMARKID":"1001400000404","LANDMARKCO":"301","LANDMARKNA":"瑞源火車站","LANDMARKAD":"1001405","ADDRESS":"臺東縣鹿野鄉瑞景路1段336巷8號之1","TEL":"089-580159","COUNTYNAME":"台東縣","TOWNNAME":"鹿野鄉","MARKTYPE":"993","Class":"301"},"geometry":{"x":266317.5148,"y":2539434.9981999993}},{"attributes":{"OBJECTID":2914,"LANDMARKID":"1001400000405","LANDMARKCO":"301","LANDMARKNA":"鹿野火車站","LANDMARKAD":"1001405","ADDRESS":"臺東縣鹿野鄉中正路38號","TEL":"089-550217","COUNTYNAME":"台東縣","TOWNNAME":"鹿野鄉","MARKTYPE":"993","Class":"301"},"geometry":{"x":264079.21520000044,"y":2534600.4324999992}},{"attributes":{"OBJECTID":2915,"LANDMARKID":"1001400000751","LANDMARKCO":"603","LANDMARKNA":"明玉大飯店","LANDMARKAD":"1001405","ADDRESS":"台東縣台東市復興路145號1-5樓及福建路252號3-5樓","TEL":"089-322100","COUNTYNAME":"台東縣","TOWNNAME":"鹿野鄉","MARKTYPE":"996","Class":"6"},"geometry":{"x":265517.36620000005,"y":2538909.0477000009}},{"attributes":{"OBJECTID":2916,"LANDMARKID":"1001400000752","LANDMARKCO":"603","LANDMARKNA":"鹿鳴溫泉酒店","LANDMARKAD":"1001405","ADDRESS":"台東縣鹿野鄉中華路1段200號","TEL":"089-550888","COUNTYNAME":"台東縣","TOWNNAME":"鹿野鄉","MARKTYPE":"996","Class":"6"},"geometry":{"x":263886.7352,"y":2532614.9390999991}},{"attributes":{"OBJECTID":2917,"LANDMARKID":"1001400000761","LANDMARKCO":"604","LANDMARKNA":"最後貴族","LANDMARKAD":"1001405","ADDRESS":"台東縣鹿野鄉龍田村光榮路58號","TEL":"089-329080","COUNTYNAME":"台東縣","TOWNNAME":"鹿野鄉","MARKTYPE":"996","Class":"6"},"geometry":{"x":263371.21430000011,"y":2533752.7561000008}},{"attributes":{"OBJECTID":2918,"LANDMARKID":"1001400000762","LANDMARKCO":"604","LANDMARKNA":"萬曄蝶坊民宿","LANDMARKAD":"1001405","ADDRESS":"台東縣鹿野鄉龍田村光榮路620號","TEL":"089-550972","COUNTYNAME":"台東縣","TOWNNAME":"鹿野鄉","MARKTYPE":"996","Class":"6"},"geometry":{"x":261534.59250000026,"y":2533838.4039999992}},{"attributes":{"OBJECTID":2919,"LANDMARKID":"1001400000763","LANDMARKCO":"604","LANDMARKNA":"臺東涵園別墅","LANDMARKAD":"1001405","ADDRESS":"台東縣鹿野鄉龍田村南三路115號","TEL":"089-550616","COUNTYNAME":"台東縣","TOWNNAME":"鹿野鄉","MARKTYPE":"996","Class":"6"},"geometry":{"x":262464.61029999983,"y":2533302.3565999996}},{"attributes":{"OBJECTID":2920,"LANDMARKID":"1001400000764","LANDMARKCO":"604","LANDMARKNA":"易日得民宿","LANDMARKAD":"1001405","ADDRESS":"台東縣鹿野鄉龍田村龍六路91巷10號","TEL":"0972-308897","COUNTYNAME":"台東縣","TOWNNAME":"鹿野鄉","MARKTYPE":"996","Class":"6"},"geometry":{"x":262153.82959999982,"y":2533781.5965}},{"attributes":{"OBJECTID":2921,"LANDMARKID":"1001400000765","LANDMARKCO":"604","LANDMARKNA":"松築休閒民宿","LANDMARKAD":"1001405","ADDRESS":"台東縣鹿野鄉龍田村龍馬路251巷10號","TEL":"089-551370","COUNTYNAME":"台東縣","TOWNNAME":"鹿野鄉","MARKTYPE":"996","Class":"6"},"geometry":{"x":261681.32409999985,"y":2534626.0394000001}},{"attributes":{"OBJECTID":2922,"LANDMARKID":"1001400000658","LANDMARKCO":"508","LANDMARKNA":"鹿鳴溫泉酒店","LANDMARKAD":"1001405","ADDRESS":"台東縣鹿野鄉中華路一段200號","TEL":"089-550888","COUNTYNAME":"台東縣","TOWNNAME":"鹿野鄉","MARKTYPE":"995","Class":"5"},"geometry":{"x":260399.49930000026,"y":2533060.5680999998}},{"attributes":{"OBJECTID":2923,"LANDMARKID":"1001400000621","LANDMARKCO":"503","LANDMARKNA":"武陵綠色隧道","LANDMARKAD":"1001405","ADDRESS":" ","TEL":" ","COUNTYNAME":"台東縣","TOWNNAME":"鹿野鄉","MARKTYPE":"995","Class":"5"},"geometry":{"x":262813.09159999993,"y":2539827.8538000006}},{"attributes":{"OBJECTID":2924,"LANDMARKID":"1001400000069","LANDMARKCO":"103","LANDMARKNA":"台東縣延平鄉衛生所","LANDMARKAD":"1001413","ADDRESS":"台東縣延平鄉桃源村1鄰11號","TEL":"089-561040","COUNTYNAME":"台東縣","TOWNNAME":"延平鄉","MARKTYPE":"991","Class":"1"},"geometry":{"x":258616.14690000005,"y":2533469.9692000002}},{"attributes":{"OBJECTID":2925,"LANDMARKID":"1001400000205","LANDMARKCO":"108","LANDMARKNA":"台東縣延平鄉公所","LANDMARKAD":"1001413","ADDRESS":"台東縣延平鄉桃源村昇平路1號","TEL":"089-561285","COUNTYNAME":"台東縣","TOWNNAME":"延平鄉","MARKTYPE":"991","Class":"1"},"geometry":{"x":258660.14769999962,"y":2533469.9440000001}},{"attributes":{"OBJECTID":2926,"LANDMARKID":"1001400000156","LANDMARKCO":"107","LANDMARKNA":"台東縣消防局延平消防分隊","LANDMARKAD":"1001413","ADDRESS":"台東縣延平鄉桃源村4鄰75號","TEL":"089-561247","COUNTYNAME":"台東縣","TOWNNAME":"延平鄉","MARKTYPE":"991","Class":"1"},"geometry":{"x":258384.06539999973,"y":2533329.9411999993}},{"attributes":{"OBJECTID":2927,"LANDMARKID":"1001400000157","LANDMARKCO":"107","LANDMARKNA":"台東縣警察局武陵派出所","LANDMARKAD":"1001413","ADDRESS":"台東縣延平鄉明野路12號","TEL":"089-551164","COUNTYNAME":"台東縣","TOWNNAME":"延平鄉","MARKTYPE":"991","Class":"1"},"geometry":{"x":262087.20320000034,"y":2540849.9079}},{"attributes":{"OBJECTID":2928,"LANDMARKID":"1001400000158","LANDMARKCO":"107","LANDMARKNA":"台東縣警察局延平分駐所","LANDMARKAD":"1001413","ADDRESS":"台東縣延平鄉昇平路74號","TEL":"089-561245","COUNTYNAME":"台東縣","TOWNNAME":"延平鄉","MARKTYPE":"991","Class":"1"},"geometry":{"x":258349.0541000003,"y":2533309.9605999999}},{"attributes":{"OBJECTID":2929,"LANDMARKID":"1001400000159","LANDMARKCO":"107","LANDMARKNA":"台東縣警察局鸞山派出所","LANDMARKAD":"1001413","ADDRESS":"台東縣延平鄉榕山村53號","TEL":"089-568079","COUNTYNAME":"台東縣","TOWNNAME":"延平鄉","MARKTYPE":"991","Class":"1"},"geometry":{"x":265580.28060000017,"y":2533489.8103999998}},{"attributes":{"OBJECTID":2930,"LANDMARKID":"1001400000160","LANDMARKCO":"107","LANDMARKNA":"台東縣警察局紅葉派出所","LANDMARKAD":"1001413","ADDRESS":"台東縣延平鄉紅葉村9號","TEL":"089-561146","COUNTYNAME":"台東縣","TOWNNAME":"延平鄉","MARKTYPE":"991","Class":"1"},"geometry":{"x":256438.06030000001,"y":2532429.9364999998}},{"attributes":{"OBJECTID":2931,"LANDMARKID":"1001400000099","LANDMARKCO":"106","LANDMARKNA":"台東縣延平鄉戶政事務所","LANDMARKAD":"1001413","ADDRESS":"台東縣延平鄉1鄰昇平路1號","TEL":"089-561149","COUNTYNAME":"台東縣","TOWNNAME":"延平鄉","MARKTYPE":"991","Class":"1"},"geometry":{"x":258679.14800000004,"y":2533469.9331}},{"attributes":{"OBJECTID":2932,"LANDMARKID":"1001400000389","LANDMARKCO":"205","LANDMARKNA":"紅葉少棒紀念館","LANDMARKAD":"1001413","ADDRESS":"台東縣延平鄉紅葉村1鄰紅谷路1號","TEL":"089-561015","COUNTYNAME":"台東縣","TOWNNAME":"延平鄉","MARKTYPE":"992","Class":"2"},"geometry":{"x":256500.86620000005,"y":2532472.4050999992}},{"attributes":{"OBJECTID":2933,"LANDMARKID":"1001400000383","LANDMARKCO":"204","LANDMARKNA":"台東縣立圖書館延平分館","LANDMARKAD":"1001413","ADDRESS":"台東縣延平鄉昇平路80號","TEL":" ","COUNTYNAME":"台東縣","TOWNNAME":"延平鄉","MARKTYPE":"992","Class":"2"},"geometry":{"x":258553.48000000045,"y":2533593.2383999992}},{"attributes":{"OBJECTID":2934,"LANDMARKID":"1001400000278","LANDMARKCO":"203","LANDMARKNA":"縣立桃源國中","LANDMARKAD":"1001413","ADDRESS":"台東縣延平鄉桃源村昇平路178號","TEL":"089-561255","COUNTYNAME":"台東縣","TOWNNAME":"延平鄉","MARKTYPE":"992","Class":"2"},"geometry":{"x":258269.1520999996,"y":2533490.0045999996}},{"attributes":{"OBJECTID":2935,"LANDMARKID":"1001400000279","LANDMARKCO":"203","LANDMARKNA":"縣立鸞山國小","LANDMARKAD":"1001413","ADDRESS":"台東縣延平鄉鸞山村1鄰14號","TEL":"089-568027","COUNTYNAME":"台東縣","TOWNNAME":"延平鄉","MARKTYPE":"992","Class":"2"},"geometry":{"x":265356.09140000027,"y":2532999.7526999991}},{"attributes":{"OBJECTID":2936,"LANDMARKID":"1001400000280","LANDMARKCO":"203","LANDMARKNA":"縣立武陵國小","LANDMARKAD":"1001413","ADDRESS":"台東縣延平鄉武陵村1鄰明野路16號","TEL":"089-551249#10","COUNTYNAME":"台東縣","TOWNNAME":"延平鄉","MARKTYPE":"992","Class":"2"},"geometry":{"x":261982.04430000018,"y":2540959.9918000009}},{"attributes":{"OBJECTID":2937,"LANDMARKID":"1001400000281","LANDMARKCO":"203","LANDMARKNA":"縣立桃源國小","LANDMARKAD":"1001413","ADDRESS":"台東縣延平鄉桃源村昇平路84號","TEL":"089-561275","COUNTYNAME":"台東縣","TOWNNAME":"延平鄉","MARKTYPE":"992","Class":"2"},"geometry":{"x":258590.16359999962,"y":2533499.9839999992}},{"attributes":{"OBJECTID":2938,"LANDMARKID":"1001400000282","LANDMARKCO":"203","LANDMARKNA":"縣立紅葉國小","LANDMARKAD":"1001413","ADDRESS":"台東縣延平鄉紅葉村紅谷路1號","TEL":"089-561015","COUNTYNAME":"台東縣","TOWNNAME":"延平鄉","MARKTYPE":"992","Class":"2"},"geometry":{"x":256536.07419999968,"y":2532459.8944000006}},{"attributes":{"OBJECTID":2939,"LANDMARKID":"1001400000657","LANDMARKCO":"508","LANDMARKNA":"娜路彎紅葉溫泉","LANDMARKAD":"1001413","ADDRESS":"台東縣延平鄉紅葉村紅谷路120號","TEL":"089-561165","COUNTYNAME":"台東縣","TOWNNAME":"延平鄉","MARKTYPE":"995","Class":"5"},"geometry":{"x":257065.58880000003,"y":2532254.5215000007}},{"attributes":{"OBJECTID":2940,"LANDMARKID":"1001400000527","LANDMARKCO":"405","LANDMARKNA":"中油加油站-萬年站","LANDMARKAD":"1001404","ADDRESS":"台東縣卑南鄉賓郎村賓朗路321號","TEL":"089-228244","COUNTYNAME":"台東縣","TOWNNAME":"卑南鄉","MARKTYPE":"994","Class":"4"},"geometry":{"x":259621.03699999955,"y":2522345.2548999991}},{"attributes":{"OBJECTID":2941,"LANDMARKID":"1001400000528","LANDMARKCO":"405","LANDMARKNA":"中油加油站-初鹿站(中油直營)","LANDMARKAD":"1001404","ADDRESS":"台東縣卑南鄉明峰村13鄰忠孝路32號","TEL":"089-571742","COUNTYNAME":"台東縣","TOWNNAME":"卑南鄉","MARKTYPE":"994","Class":"4"},"geometry":{"x":259486.67690000031,"y":2527941.1359999999}},{"attributes":{"OBJECTID":2942,"LANDMARKID":"1001400000529","LANDMARKCO":"405","LANDMARKNA":"中油加油站-特新站","LANDMARKAD":"1001404","ADDRESS":"台東縣卑南鄉賓朗村賓朗路612號","TEL":"089-239880","COUNTYNAME":"台東縣","TOWNNAME":"卑南鄉","MARKTYPE":"994","Class":"4"},"geometry":{"x":259233.69639999978,"y":2524016.3324999996}},{"attributes":{"OBJECTID":2943,"LANDMARKID":"1001400000642","LANDMARKCO":"506","LANDMARKNA":"初鹿牧場","LANDMARKAD":"1001404","ADDRESS":"台東縣卑南鄉明峰村28鄰牧場1號","TEL":"089-571002","COUNTYNAME":"台東縣","TOWNNAME":"卑南鄉","MARKTYPE":"995","Class":"5"},"geometry":{"x":261306.01190000027,"y":2528920.5521000009}},{"attributes":{"OBJECTID":2944,"LANDMARKID":"1001400000689","LANDMARKCO":"512","LANDMARKNA":"知本森林遊樂區遊客服務中心","LANDMARKAD":"1001404","ADDRESS":"台東縣卑南鄉溫泉村龍泉路290號","TEL":"089-513395","COUNTYNAME":"台東縣","TOWNNAME":"卑南鄉","MARKTYPE":"995","Class":"5"},"geometry":{"x":249195.26300000027,"y":2509632.8247999996}},{"attributes":{"OBJECTID":2945,"LANDMARKID":"1001400000690","LANDMARKCO":"512","LANDMARKNA":"杉原遊客服務中心","LANDMARKAD":"1001404","ADDRESS":"台東縣卑南鄉富山村杉原2號","TEL":"089-281151","COUNTYNAME":"台東縣","TOWNNAME":"卑南鄉","MARKTYPE":"995","Class":"5"},"geometry":{"x":269331.41999999993,"y":2526485.8825000003}},{"attributes":{"OBJECTID":2946,"LANDMARKID":"1001400000587","LANDMARKCO":"408","LANDMARKNA":"郵局-卑南初鹿郵局","LANDMARKAD":"1001404","ADDRESS":"台東縣卑南鄉明峰村文泰路12號","TEL":"(089)571-326","COUNTYNAME":"台東縣","TOWNNAME":"卑南鄉","MARKTYPE":"994","Class":"4"},"geometry":{"x":259486.49670000002,"y":2528394.4723000005}},{"attributes":{"OBJECTID":2947,"LANDMARKID":"1001400000526","LANDMARKCO":"405","LANDMARKNA":"台塑加油站-瑞鹿站(台塑)","LANDMARKAD":"1001404","ADDRESS":"台東縣卑南鄉賓朗村賓朗路28鄰673號","TEL":"08-9230049","COUNTYNAME":"台東縣","TOWNNAME":"卑南鄉","MARKTYPE":"994","Class":"4"},"geometry":{"x":259155.58619999979,"y":2523432.4756000005}},{"attributes":{"OBJECTID":2948,"LANDMARKID":"1001400000008","LANDMARKCO":"101","LANDMARKNA":"國軍退除役官兵輔導委員會","LANDMARKAD":"1001404","ADDRESS":"台東縣卑南鄉太平路316巷45號","TEL":"089-380024","COUNTYNAME":"台東縣","TOWNNAME":"卑南鄉","MARKTYPE":"991","Class":"1"},"geometry":{"x":258716.02209999971,"y":2520639.9163000006}},{"attributes":{"OBJECTID":2949,"LANDMARKID":"1001400000066","LANDMARKCO":"103","LANDMARKNA":"台東縣卑南鄉衛生所","LANDMARKAD":"1001404","ADDRESS":"台東縣卑南鄉太平村和平路132號","TEL":"089-382042","COUNTYNAME":"台東縣","TOWNNAME":"卑南鄉","MARKTYPE":"991","Class":"1"},"geometry":{"x":258589.13920000009,"y":2520539.9887000006}},{"attributes":{"OBJECTID":2950,"LANDMARKID":"1001400000204","LANDMARKCO":"108","LANDMARKNA":"台東縣卑南鄉公所","LANDMARKAD":"1001404","ADDRESS":"台東縣卑南鄉太平村和平路111號","TEL":"089-381368","COUNTYNAME":"台東縣","TOWNNAME":"卑南鄉","MARKTYPE":"991","Class":"1"},"geometry":{"x":258569.11070000008,"y":2520490}},{"attributes":{"OBJECTID":2951,"LANDMARKID":"1001400000067","LANDMARKCO":"103","LANDMARKNA":"台東縣卑南鄉鄉民代表會","LANDMARKAD":"1001404","ADDRESS":"台東縣卑南鄉和平路134號","TEL":"089-382018","COUNTYNAME":"台東縣","TOWNNAME":"卑南鄉","MARKTYPE":"991","Class":"1"},"geometry":{"x":259022.13870000001,"y":2520219.9011000004}},{"attributes":{"OBJECTID":2952,"LANDMARKID":"1001400000161","LANDMARKCO":"107","LANDMARKNA":"台東縣警察局卑南分駐所","LANDMARKAD":"1001404","ADDRESS":"台東縣卑南鄉賓朗村賓朗路440號","TEL":"089-223820","COUNTYNAME":"台東縣","TOWNNAME":"卑南鄉","MARKTYPE":"991","Class":"1"},"geometry":{"x":259663.17349999957,"y":2522719.8485000003}},{"attributes":{"OBJECTID":2953,"LANDMARKID":"1001400000162","LANDMARKCO":"107","LANDMARKNA":"台東縣警察局初鹿派出所","LANDMARKAD":"1001404","ADDRESS":"台東縣卑南鄉初鹿村梅園路83號","TEL":"089-571126","COUNTYNAME":"台東縣","TOWNNAME":"卑南鄉","MARKTYPE":"991","Class":"1"},"geometry":{"x":259451.18169999961,"y":2528889.9795999993}},{"attributes":{"OBJECTID":2954,"LANDMARKID":"1001400000163","LANDMARKCO":"107","LANDMARKNA":"台東縣警察局利嘉派出所","LANDMARKAD":"1001404","ADDRESS":"台東縣卑南鄉利嘉村利嘉路617號","TEL":"089-382819","COUNTYNAME":"台東縣","TOWNNAME":"卑南鄉","MARKTYPE":"991","Class":"1"},"geometry":{"x":256414.03380000032,"y":2519449.9493000004}},{"attributes":{"OBJECTID":2955,"LANDMARKID":"1001400000105","LANDMARKCO":"106","LANDMARKNA":"台東縣卑南鄉戶政事務所","LANDMARKAD":"1001404","ADDRESS":"台東縣卑南鄉8鄰和平路136號","TEL":"089-382040","COUNTYNAME":"台東縣","TOWNNAME":"卑南鄉","MARKTYPE":"991","Class":"1"},"geometry":{"x":258599.15639999975,"y":2520569.9831000008}},{"attributes":{"OBJECTID":2956,"LANDMARKID":"1001400000009","LANDMARKCO":"101","LANDMARKNA":"農業委員會畜產試驗所台東種畜繁殖場","LANDMARKAD":"1001404","ADDRESS":"台東縣卑南鄉賓朗村27鄰30號","TEL":"089-224634","COUNTYNAME":"台東縣","TOWNNAME":"卑南鄉","MARKTYPE":"991","Class":"1"},"geometry":{"x":258678.01580000017,"y":2524319.9367999993}},{"attributes":{"OBJECTID":2957,"LANDMARKID":"1001400000164","LANDMARKCO":"107","LANDMARKNA":"台東縣警察局東興派出所","LANDMARKAD":"1001404","ADDRESS":"台東縣卑南鄉中興路六段796號","TEL":"089-381714","COUNTYNAME":"台東縣","TOWNNAME":"卑南鄉","MARKTYPE":"991","Class":"1"},"geometry":{"x":254057.04569999967,"y":2518309.9903999995}},{"attributes":{"OBJECTID":2958,"LANDMARKID":"1001400000010","LANDMARKCO":"101","LANDMARKNA":"台灣東成技能訓練所","LANDMARKAD":"1001404","ADDRESS":"台東縣卑南鄉美農村18鄰班鳩1號","TEL":"089-570747","COUNTYNAME":"台東縣","TOWNNAME":"卑南鄉","MARKTYPE":"991","Class":"1"},"geometry":{"x":258904.03500000015,"y":2525889.9688000008}},{"attributes":{"OBJECTID":2959,"LANDMARKID":"1001400000374","LANDMARKCO":"204","LANDMARKNA":"台東縣立圖書館卑南分館","LANDMARKAD":"1001404","ADDRESS":"台東縣卑南鄉初鹿村二街21巷5號","TEL":" ","COUNTYNAME":"台東縣","TOWNNAME":"卑南鄉","MARKTYPE":"992","Class":"2"},"geometry":{"x":259460.0175999999,"y":2528414.1195}},{"attributes":{"OBJECTID":2960,"LANDMARKID":"1001400000360","LANDMARKCO":"203","LANDMARKNA":"縣立初鹿國小","LANDMARKAD":"1001404","ADDRESS":"台東縣卑南鄉初鹿村梅園路97號","TEL":"089-571027","COUNTYNAME":"台東縣","TOWNNAME":"卑南鄉","MARKTYPE":"992","Class":"2"},"geometry":{"x":259409.12490000017,"y":2528800.0057999995}},{"attributes":{"OBJECTID":2961,"LANDMARKID":"1001400000361","LANDMARKCO":"203","LANDMARKNA":"縣立初鹿國中","LANDMARKAD":"1001404","ADDRESS":"台東縣卑南鄉明峰村忠孝路2號","TEL":"089-571125","COUNTYNAME":"台東縣","TOWNNAME":"卑南鄉","MARKTYPE":"992","Class":"2"},"geometry":{"x":259553.17740000039,"y":2527649.9162000008}},{"attributes":{"OBJECTID":2962,"LANDMARKID":"1001400000362","LANDMARKCO":"203","LANDMARKNA":"縣立嘉豐國小","LANDMARKAD":"1001404","ADDRESS":"台東縣卑南鄉","TEL":" ","COUNTYNAME":"台東縣","TOWNNAME":"卑南鄉","MARKTYPE":"992","Class":"2"},"geometry":{"x":262647.09869999997,"y":2531179.9184000008}},{"attributes":{"OBJECTID":2963,"LANDMARKID":"1001400000363","LANDMARKCO":"203","LANDMARKNA":"縣立初鹿國小山里分校","LANDMARKAD":"1001404","ADDRESS":"台東縣卑南鄉","TEL":" ","COUNTYNAME":"台東縣","TOWNNAME":"卑南鄉","MARKTYPE":"992","Class":"2"},"geometry":{"x":264018.02759999968,"y":2528939.9604000002}},{"attributes":{"OBJECTID":2964,"LANDMARKID":"1001400000364","LANDMARKCO":"203","LANDMARKNA":"縣立美農國小","LANDMARKAD":"1001404","ADDRESS":"台東縣卑南鄉","TEL":" ","COUNTYNAME":"台東縣","TOWNNAME":"卑南鄉","MARKTYPE":"992","Class":"2"},"geometry":{"x":259893.18379999977,"y":2525189.8786999993}},{"attributes":{"OBJECTID":2965,"LANDMARKID":"1001400000365","LANDMARKCO":"203","LANDMARKNA":"縣立賓朗國小","LANDMARKAD":"1001404","ADDRESS":"台東縣台東市賓朗村474巷2號","TEL":"089-224129","COUNTYNAME":"台東縣","TOWNNAME":"卑南鄉","MARKTYPE":"992","Class":"2"},"geometry":{"x":259601.12339999992,"y":2522949.8878000006}},{"attributes":{"OBJECTID":2966,"LANDMARKID":"1001400000366","LANDMARKCO":"203","LANDMARKNA":"縣立利嘉國小","LANDMARKAD":"1001404","ADDRESS":"台東縣卑南鄉利嘉村666號","TEL":"089-380121","COUNTYNAME":"台東縣","TOWNNAME":"卑南鄉","MARKTYPE":"992","Class":"2"},"geometry":{"x":256525.06439999957,"y":2519519.9020000007}},{"attributes":{"OBJECTID":2967,"LANDMARKID":"1001400000367","LANDMARKCO":"203","LANDMARKNA":"縣立東成國小","LANDMARKAD":"1001404","ADDRESS":"台東縣卑南鄉美農村22鄰班鳩92號","TEL":"089-571124","COUNTYNAME":"台東縣","TOWNNAME":"卑南鄉","MARKTYPE":"992","Class":"2"},"geometry":{"x":258460.13389999978,"y":2526069.9013}},{"attributes":{"OBJECTID":2968,"LANDMARKID":"1001400000368","LANDMARKCO":"203","LANDMARKNA":"縣立太平國小","LANDMARKAD":"1001404","ADDRESS":"台東縣卑南鄉泰安村6號","TEL":"089-381418","COUNTYNAME":"台東縣","TOWNNAME":"卑南鄉","MARKTYPE":"992","Class":"2"},"geometry":{"x":257831.12459999975,"y":2521149.9404000007}},{"attributes":{"OBJECTID":2969,"LANDMARKID":"1001400000369","LANDMARKCO":"203","LANDMARKNA":"縣立大南國小","LANDMARKAD":"1001404","ADDRESS":"台東縣卑南鄉東興村東園一街40號","TEL":"089-382402#9","COUNTYNAME":"台東縣","TOWNNAME":"卑南鄉","MARKTYPE":"992","Class":"2"},"geometry":{"x":254449.02080000006,"y":2518209.9583999999}},{"attributes":{"OBJECTID":2970,"LANDMARKID":"1001400000370","LANDMARKCO":"203","LANDMARKNA":"縣立富山國小","LANDMARKAD":"1001404","ADDRESS":"台東縣卑南鄉富山村漁場3鄰66號","TEL":"089-281086","COUNTYNAME":"台東縣","TOWNNAME":"卑南鄉","MARKTYPE":"992","Class":"2"},"geometry":{"x":269500.22829999961,"y":2524479.8648000006}},{"attributes":{"OBJECTID":2971,"LANDMARKID":"1001400000371","LANDMARKCO":"203","LANDMARKNA":"縣立利吉國小","LANDMARKAD":"1001404","ADDRESS":"台東縣卑南鄉利吉村環山路12號","TEL":" ","COUNTYNAME":"台東縣","TOWNNAME":"卑南鄉","MARKTYPE":"992","Class":"2"},"geometry":{"x":264200.19489999954,"y":2526349.7931999993}},{"attributes":{"OBJECTID":2972,"LANDMARKID":"1001400000372","LANDMARKCO":"203","LANDMARKNA":"縣立富源國小","LANDMARKAD":"1001404","ADDRESS":"台東縣卑南鄉","TEL":" ","COUNTYNAME":"台東縣","TOWNNAME":"卑南鄉","MARKTYPE":"992","Class":"2"},"geometry":{"x":265277.29480000027,"y":2523359.8431000002}},{"attributes":{"OBJECTID":2973,"LANDMARKID":"1001400000373","LANDMARKCO":"203","LANDMARKNA":"縣立溫泉國小","LANDMARKAD":"1001404","ADDRESS":"台東縣卑南鄉溫泉村291號","TEL":"089-512354","COUNTYNAME":"台東縣","TOWNNAME":"卑南鄉","MARKTYPE":"992","Class":"2"},"geometry":{"x":252644.01790000033,"y":2510859.9943000004}},{"attributes":{"OBJECTID":2974,"LANDMARKID":"1001400000437","LANDMARKCO":"303","LANDMARKNA":"東遊季溫泉渡假村停車場","LANDMARKAD":"1001404","ADDRESS":"台東縣卑南鄉溫泉路376巷18號","TEL":" ","COUNTYNAME":"台東縣","TOWNNAME":"卑南鄉","MARKTYPE":"993","Class":"303"},"geometry":{"x":252023.3161000004,"y":2510640.6423000004}},{"attributes":{"OBJECTID":2975,"LANDMARKID":"1001400000438","LANDMARKCO":"303","LANDMARKNA":"東遊季溫泉渡假村停車場","LANDMARKAD":"1001404","ADDRESS":"台東縣卑南鄉溫泉路376巷18號","TEL":" ","COUNTYNAME":"台東縣","TOWNNAME":"卑南鄉","MARKTYPE":"993","Class":"303"},"geometry":{"x":252310.47840000037,"y":2510643.7822999991}},{"attributes":{"OBJECTID":2976,"LANDMARKID":"1001400000439","LANDMARKCO":"303","LANDMARKNA":"杉原海水浴場停車場","LANDMARKAD":"1001404","ADDRESS":"台東縣卑南鄉","TEL":" ","COUNTYNAME":"台東縣","TOWNNAME":"卑南鄉","MARKTYPE":"993","Class":"303"},"geometry":{"x":269127.16820000019,"y":2525482.4918000009}},{"attributes":{"OBJECTID":2977,"LANDMARKID":"1001400000398","LANDMARKCO":"301","LANDMARKNA":"檳榔火車站","LANDMARKAD":"1001404","ADDRESS":"台東縣卑南鄉","TEL":" ","COUNTYNAME":"台東縣","TOWNNAME":"卑南鄉","MARKTYPE":"993","Class":"301"},"geometry":{"x":259515.80829999968,"y":2523121.2855999991}},{"attributes":{"OBJECTID":2978,"LANDMARKID":"1001400000399","LANDMARKCO":"301","LANDMARKNA":"初鹿火車站(閒)","LANDMARKAD":"1001404","ADDRESS":"台東縣卑南鄉","TEL":" ","COUNTYNAME":"台東縣","TOWNNAME":"卑南鄉","MARKTYPE":"993","Class":"301"},"geometry":{"x":259538.40180000011,"y":2528866.2346000001}},{"attributes":{"OBJECTID":2979,"LANDMARKID":"1001400000400","LANDMARKCO":"301","LANDMARKNA":"嘉豐火車站(閒)","LANDMARKAD":"1001404","ADDRESS":"台東縣卑南鄉","TEL":" ","COUNTYNAME":"台東縣","TOWNNAME":"卑南鄉","MARKTYPE":"993","Class":"301"},"geometry":{"x":263111.44070000015,"y":2531130.5976}},{"attributes":{"OBJECTID":2980,"LANDMARKID":"1001400000401","LANDMARKCO":"301","LANDMARKNA":"山里火車站","LANDMARKAD":"1001404","ADDRESS":"台東縣卑南鄉山里路7之4號","TEL":"089-572370","COUNTYNAME":"台東縣","TOWNNAME":"卑南鄉","MARKTYPE":"993","Class":"301"},"geometry":{"x":264049.43180000037,"y":2528893.1412000004}},{"attributes":{"OBJECTID":2981,"LANDMARKID":"1001400000745","LANDMARKCO":"603","LANDMARKNA":"翠亨村渡假中心","LANDMARKAD":"1001404","ADDRESS":"台東縣卑南鄉溫泉村龍泉路53巷5號1樓","TEL":"089-514888","COUNTYNAME":"台東縣","TOWNNAME":"卑南鄉","MARKTYPE":"996","Class":"6"},"geometry":{"x":251381.53809999954,"y":2510810.0200999994}},{"attributes":{"OBJECTID":2982,"LANDMARKID":"1001400000746","LANDMARKCO":"603","LANDMARKNA":"亞灣飯店","LANDMARKAD":"1001404","ADDRESS":"台東縣卑南鄉溫泉村鎮樂路1號1-6樓","TEL":"089-510007","COUNTYNAME":"台東縣","TOWNNAME":"卑南鄉","MARKTYPE":"996","Class":"6"},"geometry":{"x":252923.33459999971,"y":2511616.0175999999}},{"attributes":{"OBJECTID":2983,"LANDMARKID":"1001400000747","LANDMARKCO":"603","LANDMARKNA":"九族溫泉村","LANDMARKAD":"1001404","ADDRESS":"台東縣卑南鄉溫泉村溫泉路312巷2號1樓之6","TEL":"089-515361","COUNTYNAME":"台東縣","TOWNNAME":"卑南鄉","MARKTYPE":"996","Class":"6"},"geometry":{"x":252564.9944000002,"y":2510869.8310000002}},{"attributes":{"OBJECTID":2984,"LANDMARKID":"1001400000770","LANDMARKCO":"604","LANDMARKNA":"林道客棧","LANDMARKAD":"1001404","ADDRESS":"台東縣卑南鄉溫泉村鎮樂路36-8號","TEL":"089-515479","COUNTYNAME":"台東縣","TOWNNAME":"卑南鄉","MARKTYPE":"996","Class":"6"},"geometry":{"x":252806.1595999999,"y":2511914.8242000006}},{"attributes":{"OBJECTID":2985,"LANDMARKID":"1001400000771","LANDMARKCO":"604","LANDMARKNA":"發哥民宿","LANDMARKAD":"1001404","ADDRESS":"台東縣卑南鄉賓朗村賓朗路662-1號","TEL":"089-235945","COUNTYNAME":"台東縣","TOWNNAME":"卑南鄉","MARKTYPE":"996","Class":"6"},"geometry":{"x":259178.96470000036,"y":2523703.1903000008}},{"attributes":{"OBJECTID":2986,"LANDMARKID":"1001400000772","LANDMARKCO":"604","LANDMARKNA":"常安養生民宿","LANDMARKAD":"1001404","ADDRESS":"台東縣卑南鄉初鹿村梅園路8號","TEL":"089-572300","COUNTYNAME":"台東縣","TOWNNAME":"卑南鄉","MARKTYPE":"996","Class":"6"},"geometry":{"x":259764.92819999997,"y":2529491.3330000006}},{"attributes":{"OBJECTID":2987,"LANDMARKID":"1001400000632","LANDMARKCO":"504","LANDMARKNA":"知本國家森林遊樂區","LANDMARKAD":"1001404","ADDRESS":"台東縣卑南鄉溫泉村龍泉路290號","TEL":"089-510961","COUNTYNAME":"台東縣","TOWNNAME":"卑南鄉","MARKTYPE":"995","Class":"5"},"geometry":{"x":249190.16550000012,"y":2509620.1111999992}},{"attributes":{"OBJECTID":2988,"LANDMARKID":"1001400000648","LANDMARKCO":"508","LANDMARKNA":"東遊季溫泉渡假村","LANDMARKAD":"1001404","ADDRESS":"台東縣卑南鄉溫泉路376巷18號","TEL":"089-516111","COUNTYNAME":"台東縣","TOWNNAME":"卑南鄉","MARKTYPE":"995","Class":"5"},"geometry":{"x":252288.26040000003,"y":2510652.5284000002}},{"attributes":{"OBJECTID":2989,"LANDMARKID":"1001400000649","LANDMARKCO":"508","LANDMARKNA":"九族溫泉山莊","LANDMARKAD":"1001404","ADDRESS":"台東縣卑南鄉溫泉路312巷2號","TEL":"089-515361","COUNTYNAME":"台東縣","TOWNNAME":"卑南鄉","MARKTYPE":"995","Class":"5"},"geometry":{"x":252565.13520000037,"y":2510866.1400000006}},{"attributes":{"OBJECTID":2990,"LANDMARKID":"1001400000650","LANDMARKCO":"508","LANDMARKNA":"亞灣溫泉飯店","LANDMARKAD":"1001404","ADDRESS":"台東縣卑南鄉溫泉村鎮樂1號","TEL":"089-510007","COUNTYNAME":"台東縣","TOWNNAME":"卑南鄉","MARKTYPE":"995","Class":"5"},"geometry":{"x":252933.23770000041,"y":2511518.5485999994}},{"attributes":{"OBJECTID":2991,"LANDMARKID":"1001400000651","LANDMARKCO":"508","LANDMARKNA":"山海戀渡假飯店","LANDMARKAD":"1001404","ADDRESS":"台東縣卑南鄉溫泉路68號","TEL":"089-516415","COUNTYNAME":"台東縣","TOWNNAME":"卑南鄉","MARKTYPE":"995","Class":"5"},"geometry":{"x":253375.77520000003,"y":2511406.0214000009}},{"attributes":{"OBJECTID":2992,"LANDMARKID":"1001400000679","LANDMARKCO":"509","LANDMARKNA":"杉原海水浴場","LANDMARKAD":"1001404","ADDRESS":"台東縣卑南鄉富山村杉原2號","TEL":"089-281862","COUNTYNAME":"台東縣","TOWNNAME":"卑南鄉","MARKTYPE":"995","Class":"5"},"geometry":{"x":269027.18740000017,"y":2525613.1429999992}},{"attributes":{"OBJECTID":2993,"LANDMARKID":"1001400000680","LANDMARKCO":"509","LANDMARKNA":"杉原海水浴場","LANDMARKAD":"1001404","ADDRESS":"台東縣卑南鄉富山村杉原1號","TEL":" ","COUNTYNAME":"台東縣","TOWNNAME":"卑南鄉","MARKTYPE":"995","Class":"5"},"geometry":{"x":269317.22829999961,"y":2526500.3943000007}},{"attributes":{"OBJECTID":2994,"LANDMARKID":"1001400000622","LANDMARKCO":"503","LANDMARKNA":"知本溫泉風景特定區","LANDMARKAD":"1001404","ADDRESS":"台東縣卑南鄉","TEL":" ","COUNTYNAME":"台東縣","TOWNNAME":"卑南鄉","MARKTYPE":"995","Class":"5"},"geometry":{"x":248905.30920000002,"y":2509668.5668000001}},{"attributes":{"OBJECTID":2995,"LANDMARKID":"1001400000530","LANDMARKCO":"405","LANDMARKNA":"台糖加油站-中興站(中油)","LANDMARKAD":"1001401","ADDRESS":"台東縣台東市中興路二段717號","TEL":"089-233735","COUNTYNAME":"台東縣","TOWNNAME":"台東市","MARKTYPE":"994","Class":"4"},"geometry":{"x":262528.96129999962,"y":2518659.2283999994}},{"attributes":{"OBJECTID":2996,"LANDMARKID":"1001400000531","LANDMARKCO":"405","LANDMARKNA":"中油加油站-豐里站(中油直營)","LANDMARKAD":"1001401","ADDRESS":"台東縣台東市中華路二段732號","TEL":"089-329691","COUNTYNAME":"台東縣","TOWNNAME":"台東市","MARKTYPE":"994","Class":"4"},"geometry":{"x":263166.34810000006,"y":2515446.3785999995}},{"attributes":{"OBJECTID":2997,"LANDMARKID":"1001400000532","LANDMARKCO":"405","LANDMARKNA":"中油加油站-東海岸站","LANDMARKAD":"1001401","ADDRESS":"台東縣台東市臨海路二段51號","TEL":"089-357807","COUNTYNAME":"台東縣","TOWNNAME":"台東市","MARKTYPE":"994","Class":"4"},"geometry":{"x":262152.45040000044,"y":2514508.3336999994}},{"attributes":{"OBJECTID":2998,"LANDMARKID":"1001400000533","LANDMARKCO":"405","LANDMARKNA":"中油加油站-自強站","LANDMARKAD":"1001401","ADDRESS":"台東縣台東市青海路四段599號","TEL":"089-515205","COUNTYNAME":"台東縣","TOWNNAME":"台東市","MARKTYPE":"994","Class":"4"},"geometry":{"x":254114.13630000036,"y":2511416.1676000003}},{"attributes":{"OBJECTID":2999,"LANDMARKID":"1001400000534","LANDMARKCO":"405","LANDMARKNA":"中油加油站-美得豐工站","LANDMARKAD":"1001401","ADDRESS":"台東縣台東市中興路四段203號","TEL":"089-384511","COUNTYNAME":"台東縣","TOWNNAME":"台東市","MARKTYPE":"994","Class":"4"},"geometry":{"x":260065.96239999961,"y":2519231.2228999995}},{"attributes":{"OBJECTID":3000,"LANDMARKID":"1001400000535","LANDMARKCO":"405","LANDMARKNA":"中油加油站-豐盛站","LANDMARKAD":"1001401","ADDRESS":"台東縣台東市中興路5段335號","TEL":"089-383393","COUNTYNAME":"台東縣","TOWNNAME":"台東市","MARKTYPE":"994","Class":"4"},"geometry":{"x":257702.67569999956,"y":2518945.9463999998}}]}