{"displayFieldName":"COUNTYNAME","fieldAliases":{"OBJECTID":"OBJECTID","LANDMARKID":"LANDMARKID","LANDMARKCO":"LANDMARKCO","LANDMARKNA":"LANDMARKNA","LANDMARKAD":"LANDMARKAD","ADDRESS":"ADDRESS","TEL":"TEL","COUNTYNAME":"COUNTYNAME","TOWNNAME":"TOWNNAME","MARKTYPE":"MARKTYPE","Class":"Class"},"geometryType":"esriGeometryPoint","spatialReference":{"wkid":102443},"fields":[{"name":"OBJECTID","type":"esriFieldTypeOID","alias":"OBJECTID"},{"name":"LANDMARKID","type":"esriFieldTypeString","alias":"LANDMARKID","length":15},{"name":"LANDMARKCO","type":"esriFieldTypeString","alias":"LANDMARKCO","length":15},{"name":"LANDMARKNA","type":"esriFieldTypeString","alias":"LANDMARKNA","length":50},{"name":"LANDMARKAD","type":"esriFieldTypeString","alias":"LANDMARKAD","length":15},{"name":"ADDRESS","type":"esriFieldTypeString","alias":"ADDRESS","length":56},{"name":"TEL","type":"esriFieldTypeString","alias":"TEL","length":36},{"name":"COUNTYNAME","type":"esriFieldTypeString","alias":"COUNTYNAME","length":15},{"name":"TOWNNAME","type":"esriFieldTypeString","alias":"TOWNNAME","length":13},{"name":"MARKTYPE","type":"esriFieldTypeString","alias":"MARKTYPE","length":12},{"name":"Class","type":"esriFieldTypeString","alias":"Class","length":5}],"features":[{"attributes":{"OBJECTID":1201,"LANDMARKID":"1000300000509","LANDMARKCO":"203","LANDMARKNA":"縣立上大國小","LANDMARKAD":"1000312","ADDRESS":"桃園縣觀音鄉上大村8鄰51號","TEL":"03-4901174","COUNTYNAME":"桃園市","TOWNNAME":"觀音區","MARKTYPE":"992","Class":"2"},"geometry":{"x":264844.14719999954,"y":2763459.7280000001}},{"attributes":{"OBJECTID":1202,"LANDMARKID":"1000300000510","LANDMARKCO":"203","LANDMARKNA":"縣立保生國小","LANDMARKAD":"1000312","ADDRESS":"桃園縣觀音鄉保生村14鄰5號","TEL":"03-4732054","COUNTYNAME":"桃園市","TOWNNAME":"觀音區","MARKTYPE":"992","Class":"2"},"geometry":{"x":257286.05069999956,"y":2766489.8641999997}},{"attributes":{"OBJECTID":1203,"LANDMARKID":"1000300000511","LANDMARKCO":"203","LANDMARKNA":"縣立樹林國小","LANDMARKAD":"1000312","ADDRESS":"桃園縣觀音鄉樹林村新村路二段12號","TEL":"03-4830414","COUNTYNAME":"桃園市","TOWNNAME":"觀音區","MARKTYPE":"992","Class":"2"},"geometry":{"x":262916.13019999955,"y":2772689.9855000004}},{"attributes":{"OBJECTID":1204,"LANDMARKID":"1000300000738","LANDMARKCO":"308","LANDMARKNA":"台66-觀音交流道-東行","LANDMARKAD":"1000312","ADDRESS":" ","TEL":" ","COUNTYNAME":"桃園市","TOWNNAME":"觀音區","MARKTYPE":"993","Class":"308"},"geometry":{"x":255475.66559999995,"y":2768967.4340000004}},{"attributes":{"OBJECTID":1205,"LANDMARKID":"1000300000739","LANDMARKCO":"308","LANDMARKNA":"台66-觀音交流道-東行","LANDMARKAD":"1000312","ADDRESS":" ","TEL":" ","COUNTYNAME":"桃園市","TOWNNAME":"觀音區","MARKTYPE":"993","Class":"308"},"geometry":{"x":255441.48670000024,"y":2768983.9278999995}},{"attributes":{"OBJECTID":1206,"LANDMARKID":"1000300000740","LANDMARKCO":"308","LANDMARKNA":"台66-觀音交流道平交匝道-東行","LANDMARKAD":"1000312","ADDRESS":" ","TEL":" ","COUNTYNAME":"桃園市","TOWNNAME":"觀音區","MARKTYPE":"993","Class":"308"},"geometry":{"x":256317.29310000036,"y":2768521.2002000008}},{"attributes":{"OBJECTID":1207,"LANDMARKID":"1000300000741","LANDMARKCO":"308","LANDMARKNA":"台66-觀音一交流道-東行","LANDMARKAD":"1000312","ADDRESS":" ","TEL":" ","COUNTYNAME":"桃園市","TOWNNAME":"觀音區","MARKTYPE":"993","Class":"308"},"geometry":{"x":260363.10809999984,"y":2765627.1443000007}},{"attributes":{"OBJECTID":1208,"LANDMARKID":"1000300000742","LANDMARKCO":"308","LANDMARKNA":"台66-觀音一交流道-西行","LANDMARKAD":"1000312","ADDRESS":" ","TEL":" ","COUNTYNAME":"桃園市","TOWNNAME":"觀音區","MARKTYPE":"993","Class":"308"},"geometry":{"x":259699.87119999994,"y":2766147.3288000003}},{"attributes":{"OBJECTID":1209,"LANDMARKID":"1000300000743","LANDMARKCO":"308","LANDMARKNA":"台66-新屋交流道-西行","LANDMARKAD":"1000312","ADDRESS":" ","TEL":" ","COUNTYNAME":"桃園市","TOWNNAME":"觀音區","MARKTYPE":"993","Class":"308"},"geometry":{"x":263528.71079999954,"y":2763194.8830999993}},{"attributes":{"OBJECTID":1210,"LANDMARKID":"1000300000744","LANDMARKCO":"308","LANDMARKNA":"台61-觀音交流道-北上","LANDMARKAD":"1000312","ADDRESS":" ","TEL":" ","COUNTYNAME":"桃園市","TOWNNAME":"觀音區","MARKTYPE":"993","Class":"308"},"geometry":{"x":255662.9310999997,"y":2769293.5004999992}},{"attributes":{"OBJECTID":1211,"LANDMARKID":"1000300000745","LANDMARKCO":"308","LANDMARKNA":"台61-觀音交流道-南下","LANDMARKAD":"1000312","ADDRESS":" ","TEL":" ","COUNTYNAME":"桃園市","TOWNNAME":"觀音區","MARKTYPE":"993","Class":"308"},"geometry":{"x":255217.14969999995,"y":2768888.6809}},{"attributes":{"OBJECTID":1212,"LANDMARKID":"1000300000746","LANDMARKCO":"308","LANDMARKNA":"台61-桃科交流道-北上","LANDMARKAD":"1000312","ADDRESS":" ","TEL":" ","COUNTYNAME":"桃園市","TOWNNAME":"觀音區","MARKTYPE":"993","Class":"308"},"geometry":{"x":259505.67140000034,"y":2771788.9461000003}},{"attributes":{"OBJECTID":1213,"LANDMARKID":"1000300000596","LANDMARKCO":"302","LANDMARKNA":"桃園汽車客運觀音車站","LANDMARKAD":"1000312","ADDRESS":"桃園縣觀音鄉白玉村中興路2號","TEL":" ","COUNTYNAME":"桃園市","TOWNNAME":"觀音區","MARKTYPE":"993","Class":"302"},"geometry":{"x":258171.57849999983,"y":2769943.3563999999}},{"attributes":{"OBJECTID":1214,"LANDMARKID":"1000300000636","LANDMARKCO":"303","LANDMARKNA":"觀音停車場","LANDMARKAD":"1000312","ADDRESS":"桃園縣觀音鄉觀音國中旁","TEL":" ","COUNTYNAME":"桃園市","TOWNNAME":"觀音區","MARKTYPE":"993","Class":"303"},"geometry":{"x":258136.42949999962,"y":2769985.9243999999}},{"attributes":{"OBJECTID":1215,"LANDMARKID":"1000300000637","LANDMARKCO":"303","LANDMARKNA":"觀音海水浴場停車場","LANDMARKAD":"1000312","ADDRESS":"桃園縣觀音鄉","TEL":" ","COUNTYNAME":"桃園市","TOWNNAME":"觀音區","MARKTYPE":"993","Class":"303"},"geometry":{"x":257665.08189999964,"y":2770749.3380999994}},{"attributes":{"OBJECTID":1216,"LANDMARKID":"1000300000638","LANDMARKCO":"303","LANDMARKNA":"觀音鄉公有停車場","LANDMARKAD":"1000312","ADDRESS":"桃園縣觀音鄉中興路","TEL":" ","COUNTYNAME":"桃園市","TOWNNAME":"觀音區","MARKTYPE":"993","Class":"303"},"geometry":{"x":258200.75659999996,"y":2769894.4357999992}},{"attributes":{"OBJECTID":1217,"LANDMARKID":"1000300000868","LANDMARKCO":"402","LANDMARKNA":"中華電信-觀音服務中心","LANDMARKAD":"1000312","ADDRESS":"桃園縣觀音鄉中山路38號","TEL":"123或0800-080-123","COUNTYNAME":"桃園市","TOWNNAME":"觀音區","MARKTYPE":"994","Class":"4"},"geometry":{"x":258478.9935999997,"y":2769693.2736000009}},{"attributes":{"OBJECTID":1218,"LANDMARKID":"1000300001629","LANDMARKCO":"603","LANDMARKNA":"愛登堡汽車旅館","LANDMARKAD":"1000312","ADDRESS":"桃園縣觀音鄉二聖路87號2-3樓","TEL":"03-4389222","COUNTYNAME":"桃園市","TOWNNAME":"觀音區","MARKTYPE":"996","Class":"6"},"geometry":{"x":264243.50449999981,"y":2770102.3792000003}},{"attributes":{"OBJECTID":1219,"LANDMARKID":"1000300001630","LANDMARKCO":"603","LANDMARKNA":"黃金海岸商務旅館","LANDMARKAD":"1000312","ADDRESS":"桃園縣觀音鄉草漯村六合街16號1-2樓","TEL":"03-4389999","COUNTYNAME":"桃園市","TOWNNAME":"觀音區","MARKTYPE":"996","Class":"6"},"geometry":{"x":263860.24500000011,"y":2770474.6998999994}},{"attributes":{"OBJECTID":1220,"LANDMARKID":"1000300001397","LANDMARKCO":"503","LANDMARKNA":"風力發電景觀","LANDMARKAD":"1000312","ADDRESS":"桃園縣觀音鄉大潭村6鄰電廠路1號","TEL":" ","COUNTYNAME":"桃園市","TOWNNAME":"觀音區","MARKTYPE":"995","Class":"5"},"geometry":{"x":261172.70260000043,"y":2766741.9156999998}},{"attributes":{"OBJECTID":1221,"LANDMARKID":"1000300001140","LANDMARKCO":"405","LANDMARKNA":"中油加油站-坤業站","LANDMARKAD":"1000307","ADDRESS":"桃園縣龜山鄉東萬壽路20號","TEL":"03-3502233","COUNTYNAME":"桃園市","TOWNNAME":"龜山區","MARKTYPE":"994","Class":"4"},"geometry":{"x":286572.53500000015,"y":2765984.6175999995}},{"attributes":{"OBJECTID":1222,"LANDMARKID":"1000300001141","LANDMARKCO":"405","LANDMARKNA":"中油加油站-迴龍站","LANDMARKAD":"1000307","ADDRESS":"桃園縣龜山鄉龍壽村萬壽路一段383號","TEL":"02-82093915","COUNTYNAME":"桃園市","TOWNNAME":"龜山區","MARKTYPE":"994","Class":"4"},"geometry":{"x":290284.78760000039,"y":2767615.9587999992}},{"attributes":{"OBJECTID":1223,"LANDMARKID":"1000300001142","LANDMARKCO":"405","LANDMARKNA":"統一速邁樂加油站-林口加油站(中油)","LANDMARKAD":"1000307","ADDRESS":"桃園縣龜山鄉文化一路88號","TEL":" ","COUNTYNAME":"桃園市","TOWNNAME":"龜山區","MARKTYPE":"994","Class":"4"},"geometry":{"x":288556.96250000037,"y":2771355.0423000008}},{"attributes":{"OBJECTID":1224,"LANDMARKID":"1000300001143","LANDMARKCO":"405","LANDMARKNA":"中油加油站-北基建國站(中油)","LANDMARKAD":"1000307","ADDRESS":"桃園縣龜山鄉山頂村18鄰建國東路42號","TEL":"03-3294686","COUNTYNAME":"桃園市","TOWNNAME":"龜山區","MARKTYPE":"994","Class":"4"},"geometry":{"x":282860.28029999975,"y":2764411.7540000007}},{"attributes":{"OBJECTID":1225,"LANDMARKID":"1000300001144","LANDMARKCO":"405","LANDMARKNA":"中油加油站-渥柏站","LANDMARKAD":"1000307","ADDRESS":"桃園縣龜山鄉嶺頂村萬壽路2段361號","TEL":"03-3197225","COUNTYNAME":"桃園市","TOWNNAME":"龜山區","MARKTYPE":"994","Class":"4"},"geometry":{"x":285752.58000000007,"y":2765956.2952999994}},{"attributes":{"OBJECTID":1226,"LANDMARKID":"1000300001145","LANDMARKCO":"405","LANDMARKNA":"北基加油站-山鶯站(中油)","LANDMARKAD":"1000307","ADDRESS":"桃園縣龜山鄉山鶯路181號","TEL":"(03)319-2212","COUNTYNAME":"桃園市","TOWNNAME":"龜山區","MARKTYPE":"994","Class":"4"},"geometry":{"x":283390.71499999985,"y":2763708.8147}},{"attributes":{"OBJECTID":1227,"LANDMARKID":"1000300001146","LANDMARKCO":"405","LANDMARKNA":"中油加油站-超商林口站","LANDMARKAD":"1000307","ADDRESS":"桃園縣龜山鄉文化一路86號-5","TEL":"03-2114483","COUNTYNAME":"桃園市","TOWNNAME":"龜山區","MARKTYPE":"994","Class":"4"},"geometry":{"x":287899.44759999961,"y":2771945.2971000001}},{"attributes":{"OBJECTID":1228,"LANDMARKID":"1000300001147","LANDMARKCO":"405","LANDMARKNA":"中油加油站-林口工三站(中油直營)","LANDMARKAD":"1000307","ADDRESS":"桃園縣龜山鄉樂善村文化一路33號","TEL":"03-3282232","COUNTYNAME":"桃園市","TOWNNAME":"龜山區","MARKTYPE":"994","Class":"4"},"geometry":{"x":287364.31639999989,"y":2772634.7171}},{"attributes":{"OBJECTID":1229,"LANDMARKID":"1000300001148","LANDMARKCO":"405","LANDMARKNA":"中油加油站-友仁站(中油直營)","LANDMARKAD":"1000307","ADDRESS":"桃園縣龜山鄉復興一路201號","TEL":"03-2115538","COUNTYNAME":"桃園市","TOWNNAME":"龜山區","MARKTYPE":"994","Class":"4"},"geometry":{"x":286896.06699999981,"y":2772289.8156000003}},{"attributes":{"OBJECTID":1230,"LANDMARKID":"1000300001149","LANDMARKCO":"405","LANDMARKNA":"中油加油站-文一站","LANDMARKAD":"1000307","ADDRESS":"桃園縣龜山鄉文化一路73號","TEL":"03-3282115","COUNTYNAME":"桃園市","TOWNNAME":"龜山區","MARKTYPE":"994","Class":"4"},"geometry":{"x":288378.26269999985,"y":2771495.5538999997}},{"attributes":{"OBJECTID":1231,"LANDMARKID":"1000300001150","LANDMARKCO":"405","LANDMARKNA":"中油加油站-南強站","LANDMARKAD":"1000307","ADDRESS":"桃園縣龜山鄉自強南路760號","TEL":"03-3209679","COUNTYNAME":"桃園市","TOWNNAME":"龜山區","MARKTYPE":"994","Class":"4"},"geometry":{"x":283600.77029999997,"y":2765021.0866999999}},{"attributes":{"OBJECTID":1232,"LANDMARKID":"1000300001151","LANDMARKCO":"405","LANDMARKNA":"中油加油站-北基東佑站(中油)","LANDMARKAD":"1000307","ADDRESS":"桃園縣龜山鄉舊路村西舊路坑32之6號","TEL":"03-3595798","COUNTYNAME":"桃園市","TOWNNAME":"龜山區","MARKTYPE":"994","Class":"4"},"geometry":{"x":288157.30300000031,"y":2769399.4074000008}},{"attributes":{"OBJECTID":1233,"LANDMARKID":"1000300001152","LANDMARKCO":"405","LANDMARKNA":"中油加油站-龜山站","LANDMARKAD":"1000307","ADDRESS":"桃園縣龜山鄉萬壽路二段640號","TEL":"03-3296223","COUNTYNAME":"桃園市","TOWNNAME":"龜山區","MARKTYPE":"994","Class":"4"},"geometry":{"x":284974.2313000001,"y":2765845.3301999997}},{"attributes":{"OBJECTID":1234,"LANDMARKID":"1000300001153","LANDMARKCO":"405","LANDMARKNA":"中油加油站-車容坊林口站","LANDMARKAD":"1000307","ADDRESS":"桃園縣龜山鄉復興一路258號","TEL":"03-3185610","COUNTYNAME":"桃園市","TOWNNAME":"龜山區","MARKTYPE":"994","Class":"4"},"geometry":{"x":286795.90189999994,"y":2772154.4618999995}},{"attributes":{"OBJECTID":1235,"LANDMARKID":"1000300001154","LANDMARKCO":"405","LANDMARKNA":"台灣優力加油站-林口三站(中油)","LANDMARKAD":"1000307","ADDRESS":"桃園縣龜山鄉文化一路220號","TEL":"03-3184867","COUNTYNAME":"桃園市","TOWNNAME":"龜山區","MARKTYPE":"994","Class":"4"},"geometry":{"x":288880.88999999966,"y":2770902.0418999996}},{"attributes":{"OBJECTID":1236,"LANDMARKID":"1000300001155","LANDMARKCO":"405","LANDMARKNA":"統一速邁樂加油站-龜山長壽加油站(中油)","LANDMARKAD":"1000307","ADDRESS":"桃園縣龜山鄉楓樹村長壽路88號","TEL":" ","COUNTYNAME":"桃園市","TOWNNAME":"龜山區","MARKTYPE":"994","Class":"4"},"geometry":{"x":284926.14630000014,"y":2766035.1443000007}},{"attributes":{"OBJECTID":1237,"LANDMARKID":"1000300001156","LANDMARKCO":"405","LANDMARKNA":"中油加油站-長壽路站(中油直營)","LANDMARKAD":"1000307","ADDRESS":"桃園縣龜山鄉長壽路109-1號","TEL":"03-3490658","COUNTYNAME":"桃園市","TOWNNAME":"龜山區","MARKTYPE":"994","Class":"4"},"geometry":{"x":285065.68400000036,"y":2766005.7659000009}},{"attributes":{"OBJECTID":1238,"LANDMARKID":"1000300000865","LANDMARKCO":"402","LANDMARKNA":"亞太行動寬頻電信-龜山中興加盟服務中心","LANDMARKAD":"1000307","ADDRESS":"桃園縣龜山鄉中興路443號","TEL":"03-3506655","COUNTYNAME":"桃園市","TOWNNAME":"龜山區","MARKTYPE":"994","Class":"4"},"geometry":{"x":283995.4765999997,"y":2765097.4495000001}},{"attributes":{"OBJECTID":1239,"LANDMARKID":"1000300000866","LANDMARKCO":"402","LANDMARKNA":"亞太行動寬頻電信-龜山萬壽加盟服務中心","LANDMARKAD":"1000307","ADDRESS":"桃園縣龜山鄉萬壽路一段238號","TEL":"02-82000258","COUNTYNAME":"桃園市","TOWNNAME":"龜山區","MARKTYPE":"994","Class":"4"},"geometry":{"x":290870.05269999988,"y":2767831.1556000002}},{"attributes":{"OBJECTID":1240,"LANDMARKID":"1000300000867","LANDMARKCO":"402","LANDMARKNA":"亞太行動寬頻電信-龜山文化加盟服務中心","LANDMARKAD":"1000307","ADDRESS":"桃園縣龜山鄉文化二路129號","TEL":"03-3187373","COUNTYNAME":"桃園市","TOWNNAME":"龜山區","MARKTYPE":"994","Class":"4"},"geometry":{"x":287366.9068,"y":2771790.5680999998}},{"attributes":{"OBJECTID":1241,"LANDMARKID":"1000300000772","LANDMARKCO":"401","LANDMARKNA":"財團法人長庚紀念醫院林口分院","LANDMARKAD":"1000307","ADDRESS":"桃園縣龜山鄉復興街5號","TEL":"03-3281200","COUNTYNAME":"桃園市","TOWNNAME":"龜山區","MARKTYPE":"994","Class":"4"},"geometry":{"x":287132.1445000004,"y":2772649.6270000003}},{"attributes":{"OBJECTID":1242,"LANDMARKID":"1000300000773","LANDMARKCO":"401","LANDMARKNA":"大明醫院","LANDMARKAD":"1000307","ADDRESS":"桃園縣龜山鄉萬壽路二段964號","TEL":"03-3202792","COUNTYNAME":"桃園市","TOWNNAME":"龜山區","MARKTYPE":"994","Class":"4"},"geometry":{"x":284036.2126000002,"y":2765289.7375000007}},{"attributes":{"OBJECTID":1243,"LANDMARKID":"1000300000774","LANDMARKCO":"401","LANDMARKNA":"財團法人長庚紀念醫院桃園分院","LANDMARKAD":"1000307","ADDRESS":"桃園縣龜山鄉舊路村東舊路坑26之8號","TEL":"03-3196200","COUNTYNAME":"桃園市","TOWNNAME":"龜山區","MARKTYPE":"994","Class":"4"},"geometry":{"x":287041.52359999996,"y":2768789.9027999993}},{"attributes":{"OBJECTID":1244,"LANDMARKID":"1000300001312","LANDMARKCO":"408","LANDMARKNA":"郵局-龜山大崗郵局","LANDMARKAD":"1000307","ADDRESS":"桃園縣龜山鄉大崗村大湖56-1號","TEL":"(03)3283-892","COUNTYNAME":"桃園市","TOWNNAME":"龜山區","MARKTYPE":"994","Class":"4"},"geometry":{"x":286071.78399999999,"y":2771503.1513999999}},{"attributes":{"OBJECTID":1245,"LANDMARKID":"1000300001313","LANDMARKCO":"408","LANDMARKNA":"郵局-龜山郵局","LANDMARKAD":"1000307","ADDRESS":"桃園縣龜山鄉豐美街2-1號","TEL":"(03)3204-924","COUNTYNAME":"桃園市","TOWNNAME":"龜山區","MARKTYPE":"994","Class":"4"},"geometry":{"x":283766.62770000007,"y":2765066.3018999994}},{"attributes":{"OBJECTID":1246,"LANDMARKID":"1000300001314","LANDMARKCO":"408","LANDMARKNA":"郵局-龜山民安街郵局","LANDMARKAD":"1000307","ADDRESS":"桃園縣龜山鄉民安街120號","TEL":"(03)3192-253","COUNTYNAME":"桃園市","TOWNNAME":"龜山區","MARKTYPE":"994","Class":"4"},"geometry":{"x":282775.0466,"y":2764676.5855}},{"attributes":{"OBJECTID":1247,"LANDMARKID":"1000300001315","LANDMARKCO":"408","LANDMARKNA":"郵局-龜山樂善郵局","LANDMARKAD":"1000307","ADDRESS":"桃園縣龜山鄉復興街5號(長庚醫院內)","TEL":"(03)3282-459","COUNTYNAME":"桃園市","TOWNNAME":"龜山區","MARKTYPE":"994","Class":"4"},"geometry":{"x":287042.16100000031,"y":2772595.8406000007}},{"attributes":{"OBJECTID":1248,"LANDMARKID":"1000300001316","LANDMARKCO":"408","LANDMARKNA":"郵局-龜山迴龍郵局","LANDMARKAD":"1000307","ADDRESS":"桃園縣龜山鄉萬壽路1段320號","TEL":"(02)8209-4775","COUNTYNAME":"桃園市","TOWNNAME":"龜山區","MARKTYPE":"994","Class":"4"},"geometry":{"x":290632.4682,"y":2767772.7321000006}},{"attributes":{"OBJECTID":1249,"LANDMARKID":"1000300001317","LANDMARKCO":"408","LANDMARKNA":"郵局-龜山誠園郵局","LANDMARKAD":"1000307","ADDRESS":"桃園縣龜山鄉樹人路56號","TEL":"(03)3285-100","COUNTYNAME":"桃園市","TOWNNAME":"龜山區","MARKTYPE":"994","Class":"4"},"geometry":{"x":285443.2583999997,"y":2771023.9652999993}},{"attributes":{"OBJECTID":1250,"LANDMARKID":"1000300001318","LANDMARKCO":"408","LANDMARKNA":"郵局-龜山長庚大學郵局","LANDMARKAD":"1000307","ADDRESS":"桃園縣龜山鄉文化一路259號(長庚大學活動中心內)","TEL":"(03)2118-633","COUNTYNAME":"桃園市","TOWNNAME":"龜山區","MARKTYPE":"994","Class":"4"},"geometry":{"x":288822.26389999967,"y":2769882.1289000008}},{"attributes":{"OBJECTID":1251,"LANDMARKID":"1000300001319","LANDMARKCO":"408","LANDMARKNA":"郵局-龜山文化郵局","LANDMARKAD":"1000307","ADDRESS":"桃園縣龜山鄉文化村文昌一街102號","TEL":"(03)3282-617","COUNTYNAME":"桃園市","TOWNNAME":"龜山區","MARKTYPE":"994","Class":"4"},"geometry":{"x":287303.10560000036,"y":2772210.3684999999}},{"attributes":{"OBJECTID":1252,"LANDMARKID":"1000300001390","LANDMARKCO":"409","LANDMARKNA":"桃園縣龜山鄉農會","LANDMARKAD":"1000307","ADDRESS":"桃園縣龜山鄉自強南路65號","TEL":"03-3291126-9","COUNTYNAME":"桃園市","TOWNNAME":"龜山區","MARKTYPE":"994","Class":"4"},"geometry":{"x":284393.49959999975,"y":2765113.8321000002}},{"attributes":{"OBJECTID":1253,"LANDMARKID":"1000300000934","LANDMARKCO":"404","LANDMARKNA":"台灣省自來水龜山服務所","LANDMARKAD":"1000307","ADDRESS":"桃園縣龜山鄉光峰路2號","TEL":" ","COUNTYNAME":"桃園市","TOWNNAME":"龜山區","MARKTYPE":"994","Class":"4"},"geometry":{"x":284368.76339999959,"y":2765427.2248999998}},{"attributes":{"OBJECTID":1254,"LANDMARKID":"1000300001230","LANDMARKCO":"406","LANDMARKNA":"壽山巖公園","LANDMARKAD":"1000307","ADDRESS":"桃園縣龜山鄉","TEL":" ","COUNTYNAME":"桃園市","TOWNNAME":"龜山區","MARKTYPE":"994","Class":"4"},"geometry":{"x":287064.22599999979,"y":2766342.4484999999}},{"attributes":{"OBJECTID":1255,"LANDMARKID":"1000300001231","LANDMARKCO":"406","LANDMARKNA":"虎頭山公園","LANDMARKAD":"1000307","ADDRESS":"桃園縣龜山鄉","TEL":" ","COUNTYNAME":"桃園市","TOWNNAME":"龜山區","MARKTYPE":"994","Class":"4"},"geometry":{"x":283403.61600000039,"y":2765941.7096999995}},{"attributes":{"OBJECTID":1256,"LANDMARKID":"1000300001232","LANDMARKCO":"406","LANDMARKNA":"環保公園","LANDMARKAD":"1000307","ADDRESS":"桃園縣龜山鄉","TEL":" ","COUNTYNAME":"桃園市","TOWNNAME":"龜山區","MARKTYPE":"994","Class":"4"},"geometry":{"x":286089.2703999998,"y":2771196.2551000006}},{"attributes":{"OBJECTID":1257,"LANDMARKID":"1000300001233","LANDMARKCO":"406","LANDMARKNA":"中正公園","LANDMARKAD":"1000307","ADDRESS":"桃園縣龜山鄉","TEL":" ","COUNTYNAME":"桃園市","TOWNNAME":"龜山區","MARKTYPE":"994","Class":"4"},"geometry":{"x":284655.56620000023,"y":2765736.9988000002}},{"attributes":{"OBJECTID":1258,"LANDMARKID":"1000300001130","LANDMARKCO":"405","LANDMARKNA":"全鋒加油站-中悅（台塑）","LANDMARKAD":"1000307","ADDRESS":"桃園縣龜山鄉南祥路86號","TEL":"(03)212-9746","COUNTYNAME":"桃園市","TOWNNAME":"龜山區","MARKTYPE":"994","Class":"4"},"geometry":{"x":280247.6819000002,"y":2771051.0725999996}},{"attributes":{"OBJECTID":1259,"LANDMARKID":"1000300001131","LANDMARKCO":"405","LANDMARKNA":"台亞加油站-南崁北上站（台塑）","LANDMARKAD":"1000307","ADDRESS":"桃園縣龜山鄉南上村民生北路一段89號","TEL":"(03)317-4646","COUNTYNAME":"桃園市","TOWNNAME":"龜山區","MARKTYPE":"994","Class":"4"},"geometry":{"x":280567.42899999954,"y":2769492.8702000007}},{"attributes":{"OBJECTID":1260,"LANDMARKID":"1000300001132","LANDMARKCO":"405","LANDMARKNA":"台塑加油站-長庚站(台塑)","LANDMARKAD":"1000307","ADDRESS":"桃園縣龜山鄉樂善村文化一路103號","TEL":"03-3289296","COUNTYNAME":"桃園市","TOWNNAME":"龜山區","MARKTYPE":"994","Class":"4"},"geometry":{"x":288847.62110000011,"y":2771268.8279999997}},{"attributes":{"OBJECTID":1261,"LANDMARKID":"1000300001133","LANDMARKCO":"405","LANDMARKNA":"台塑加油站-大林站(台塑)","LANDMARKAD":"1000307","ADDRESS":"桃園縣龜山鄉舊路村9鄰47-8號","TEL":"03-3507690","COUNTYNAME":"桃園市","TOWNNAME":"龜山區","MARKTYPE":"994","Class":"4"},"geometry":{"x":287074.2873999998,"y":2768460.2039000001}},{"attributes":{"OBJECTID":1262,"LANDMARKID":"1000300001134","LANDMARKCO":"405","LANDMARKNA":"台亞加油站-林口第二交流道南站（台塑","LANDMARKAD":"1000307","ADDRESS":"桃園縣龜山鄉公西村忠義路三段167號","TEL":"(03)327-9406","COUNTYNAME":"桃園市","TOWNNAME":"龜山區","MARKTYPE":"994","Class":"4"},"geometry":{"x":285783.24590000045,"y":2772791.3110000007}},{"attributes":{"OBJECTID":1263,"LANDMARKID":"1000300001135","LANDMARKCO":"405","LANDMARKNA":"台亞加油站-林口第二交流道北站（台塑","LANDMARKAD":"1000307","ADDRESS":"桃園縣龜山鄉大崗村忠義路二段718號","TEL":"(03)396-1788","COUNTYNAME":"桃園市","TOWNNAME":"龜山區","MARKTYPE":"994","Class":"4"},"geometry":{"x":285786.01750000007,"y":2772245.0085000005}},{"attributes":{"OBJECTID":1264,"LANDMARKID":"1000300001136","LANDMARKCO":"405","LANDMARKNA":"台亞加油站-華亞科學園區站（台塑）","LANDMARKAD":"1000307","ADDRESS":"桃園縣龜山鄉文化三路307號","TEL":"(03)396-1266","COUNTYNAME":"桃園市","TOWNNAME":"龜山區","MARKTYPE":"994","Class":"4"},"geometry":{"x":287146.44429999962,"y":2771710.2836000007}},{"attributes":{"OBJECTID":1265,"LANDMARKID":"1000300001137","LANDMARKCO":"405","LANDMARKNA":"台亞加油站-林口長庚站（台塑）","LANDMARKAD":"1000307","ADDRESS":"桃園縣龜山鄉文化一路41號","TEL":"(03)397-5905","COUNTYNAME":"桃園市","TOWNNAME":"龜山區","MARKTYPE":"994","Class":"4"},"geometry":{"x":287414.15579999983,"y":2772582.2059000004}},{"attributes":{"OBJECTID":1266,"LANDMARKID":"1000300001138","LANDMARKCO":"405","LANDMARKNA":"台亞加油站-仙鴻站（台塑）","LANDMARKAD":"1000307","ADDRESS":"桃園縣龜山鄉忠義路一段1099號","TEL":"(03)350-4227","COUNTYNAME":"桃園市","TOWNNAME":"龜山區","MARKTYPE":"994","Class":"4"},"geometry":{"x":285642.81560000032,"y":2768739.9721000008}},{"attributes":{"OBJECTID":1267,"LANDMARKID":"1000300001139","LANDMARKCO":"405","LANDMARKNA":"全國加油站-龜山站（台塑）","LANDMARKAD":"1000307","ADDRESS":"桃園縣龜山鄉東萬壽路二段350號","TEL":"03-3599742","COUNTYNAME":"桃園市","TOWNNAME":"龜山區","MARKTYPE":"994","Class":"4"},"geometry":{"x":285806.08789999969,"y":2766000.0185000002}},{"attributes":{"OBJECTID":1268,"LANDMARKID":"1000300000242","LANDMARKCO":"108","LANDMARKNA":"桃園縣龜山鄉公所","LANDMARKAD":"1000307","ADDRESS":"桃園縣龜山鄉中山街26號","TEL":"03-3203711","COUNTYNAME":"桃園市","TOWNNAME":"龜山區","MARKTYPE":"991","Class":"1"},"geometry":{"x":284093.25650000013,"y":2764999.6018000003}},{"attributes":{"OBJECTID":1269,"LANDMARKID":"1000300000074","LANDMARKCO":"103","LANDMARKNA":"桃園縣龜山鄉鄉民代表會","LANDMARKAD":"1000307","ADDRESS":"桃園縣龜山鄉自強南路105號1樓","TEL":"03-3205201","COUNTYNAME":"桃園市","TOWNNAME":"龜山區","MARKTYPE":"991","Class":"1"},"geometry":{"x":284086.69890000019,"y":2764869.6199999992}},{"attributes":{"OBJECTID":1270,"LANDMARKID":"1000300000225","LANDMARKCO":"107","LANDMARKNA":"桃園縣消防局龜山消防分隊","LANDMARKAD":"1000307","ADDRESS":"桃園縣龜山鄉萬壽路二段933號","TEL":"03-3299674","COUNTYNAME":"桃園市","TOWNNAME":"龜山區","MARKTYPE":"991","Class":"1"},"geometry":{"x":284192.23749999981,"y":2765299.3530000001}},{"attributes":{"OBJECTID":1271,"LANDMARKID":"1000300000226","LANDMARKCO":"107","LANDMARKNA":"桃園縣消防局坪頂消防分隊","LANDMARKAD":"1000307","ADDRESS":"桃園縣龜山鄉文化一路53號之1","TEL":"03-3280309","COUNTYNAME":"桃園市","TOWNNAME":"龜山區","MARKTYPE":"991","Class":"1"},"geometry":{"x":287687.73709999956,"y":2772249.6438999996}},{"attributes":{"OBJECTID":1272,"LANDMARKID":"1000300000227","LANDMARKCO":"107","LANDMARKNA":"桃園縣消防局迴龍消防分隊","LANDMARKAD":"1000307","ADDRESS":"桃園縣龜山鄉萬壽路一段42號","TEL":"02-82091576","COUNTYNAME":"桃園市","TOWNNAME":"龜山區","MARKTYPE":"991","Class":"1"},"geometry":{"x":287101.15099999961,"y":2772959.7133000009}},{"attributes":{"OBJECTID":1273,"LANDMARKID":"1000300000228","LANDMARKCO":"107","LANDMARKNA":"桃園縣政府警察局大林派出所","LANDMARKAD":"1000307","ADDRESS":"桃園縣龜山鄉中興路158號","TEL":"03-3500070","COUNTYNAME":"桃園市","TOWNNAME":"龜山區","MARKTYPE":"991","Class":"1"},"geometry":{"x":283737.49089999963,"y":2764479.7949000001}},{"attributes":{"OBJECTID":1274,"LANDMARKID":"1000300000229","LANDMARKCO":"107","LANDMARKNA":"桃園縣政府警察局龜山分局","LANDMARKAD":"1000307","ADDRESS":"桃園縣龜山鄉自強南路123號","TEL":"03-3292701","COUNTYNAME":"桃園市","TOWNNAME":"龜山區","MARKTYPE":"991","Class":"1"},"geometry":{"x":284109.69919999968,"y":2764869.5626999997}},{"attributes":{"OBJECTID":1275,"LANDMARKID":"1000300000230","LANDMARKCO":"107","LANDMARKNA":"桃園縣政府警察局龜山派出所","LANDMARKAD":"1000307","ADDRESS":"桃園縣龜山鄉龜山村萬壽路二段931號","TEL":"03-3202554","COUNTYNAME":"桃園市","TOWNNAME":"龜山區","MARKTYPE":"991","Class":"1"},"geometry":{"x":284217.26250000019,"y":2765309.9883999992}},{"attributes":{"OBJECTID":1276,"LANDMARKID":"1000300000231","LANDMARKCO":"107","LANDMARKNA":"桃園縣政府警察局大埔派出所","LANDMARKAD":"1000307","ADDRESS":"桃園縣龜山鄉文德二路80號","TEL":"03-3186447","COUNTYNAME":"桃園市","TOWNNAME":"龜山區","MARKTYPE":"991","Class":"1"},"geometry":{"x":288281.54470000044,"y":2769409.5672999993}},{"attributes":{"OBJECTID":1277,"LANDMARKID":"1000300000232","LANDMARKCO":"107","LANDMARKNA":"桃園縣政府警察局迴龍派出所","LANDMARKAD":"1000307","ADDRESS":"桃園縣龜山鄉迴龍村萬壽路一段117號","TEL":"02-82006815","COUNTYNAME":"桃園市","TOWNNAME":"龜山區","MARKTYPE":"991","Class":"1"},"geometry":{"x":291320.88839999959,"y":2767979.6796000004}},{"attributes":{"OBJECTID":1278,"LANDMARKID":"1000300000100","LANDMARKCO":"106","LANDMARKNA":"桃園縣龜山鄉戶政事務所","LANDMARKAD":"1000307","ADDRESS":"桃園縣龜山鄉自強南路99號","TEL":"03-3201922","COUNTYNAME":"桃園市","TOWNNAME":"龜山區","MARKTYPE":"991","Class":"1"},"geometry":{"x":284146.05700000003,"y":2764919.4702000003}},{"attributes":{"OBJECTID":1279,"LANDMARKID":"1000300000003","LANDMARKCO":"101","LANDMARKNA":"工業局林口工業區服務中心","LANDMARKAD":"1000307","ADDRESS":"桃園縣龜山鄉文化一路53號2樓","TEL":"03-3282380","COUNTYNAME":"桃園市","TOWNNAME":"龜山區","MARKTYPE":"991","Class":"1"},"geometry":{"x":287663.79200000037,"y":2772269.7100000009}},{"attributes":{"OBJECTID":1280,"LANDMARKID":"1000300000073","LANDMARKCO":"103","LANDMARKNA":"桃園縣龜山鄉衛生所","LANDMARKAD":"1000307","ADDRESS":"桃園縣龜山鄉自強南路103號","TEL":"03-3299645","COUNTYNAME":"桃園市","TOWNNAME":"龜山區","MARKTYPE":"991","Class":"1"},"geometry":{"x":284089.23159999959,"y":2764989.6118000001}},{"attributes":{"OBJECTID":1281,"LANDMARKID":"1000300000233","LANDMARKCO":"107","LANDMARKNA":"桃園縣政府警察局大坑派出所","LANDMARKAD":"1000307","ADDRESS":"桃園縣龜山鄉大坑路一段851號","TEL":"03-3251310","COUNTYNAME":"桃園市","TOWNNAME":"龜山區","MARKTYPE":"991","Class":"1"},"geometry":{"x":281765.26219999976,"y":2770849.7937000003}},{"attributes":{"OBJECTID":1282,"LANDMARKID":"1000300000234","LANDMARKCO":"107","LANDMARKNA":"桃園縣政府警察局坪頂派出所","LANDMARKAD":"1000307","ADDRESS":"桃園縣龜山鄉大崗村大湖8號","TEL":"03-3282570","COUNTYNAME":"桃園市","TOWNNAME":"龜山區","MARKTYPE":"991","Class":"1"},"geometry":{"x":286037.68400000036,"y":2771929.5791999996}},{"attributes":{"OBJECTID":1283,"LANDMARKID":"1000300000004","LANDMARKCO":"101","LANDMARKNA":"台灣台北監獄","LANDMARKAD":"1000307","ADDRESS":"桃園縣龜山鄉宏德新村2號","TEL":"03-3191126","COUNTYNAME":"桃園市","TOWNNAME":"龜山區","MARKTYPE":"991","Class":"1"},"geometry":{"x":283581.71740000043,"y":2763649.4970999993}},{"attributes":{"OBJECTID":1284,"LANDMARKID":"1000300000005","LANDMARKCO":"101","LANDMARKNA":"中央造幣廠","LANDMARKAD":"1000307","ADDRESS":"桃園縣龜山鄉33353振興路577號","TEL":"03-3295174","COUNTYNAME":"桃園市","TOWNNAME":"龜山區","MARKTYPE":"991","Class":"1"},"geometry":{"x":286339.75320000015,"y":2767339.5510000009}},{"attributes":{"OBJECTID":1285,"LANDMARKID":"1000300000072","LANDMARKCO":"103","LANDMARKNA":"桃園縣立體育場","LANDMARKAD":"1000307","ADDRESS":"桃園市三民路一段一號","TEL":"(03) 319-4510","COUNTYNAME":"桃園市","TOWNNAME":"龜山區","MARKTYPE":"991","Class":"1"},"geometry":{"x":282725.4935999997,"y":2765243.2000999991}},{"attributes":{"OBJECTID":1286,"LANDMARKID":"1000300000570","LANDMARKCO":"205","LANDMARKNA":"世界警察博物館","LANDMARKAD":"1000307","ADDRESS":"桃園縣龜山鄉樹人路56號","TEL":" ","COUNTYNAME":"桃園市","TOWNNAME":"龜山區","MARKTYPE":"992","Class":"2"},"geometry":{"x":285566.8814000003,"y":2770880.3268999998}},{"attributes":{"OBJECTID":1287,"LANDMARKID":"1000300000546","LANDMARKCO":"204","LANDMARKNA":"桃園縣立圖書館龜山分館","LANDMARKAD":"1000307","ADDRESS":"桃園縣龜山鄉自強南路97號3樓","TEL":" ","COUNTYNAME":"桃園市","TOWNNAME":"龜山區","MARKTYPE":"992","Class":"2"},"geometry":{"x":284123.8432,"y":2764890.1193000004}},{"attributes":{"OBJECTID":1288,"LANDMARKID":"1000300000547","LANDMARKCO":"204","LANDMARKNA":"桃園縣立圖書館龍壽分館","LANDMARKAD":"1000307","ADDRESS":"桃園縣龜山鄉萬壽路一段42號4樓","TEL":" ","COUNTYNAME":"桃園市","TOWNNAME":"龜山區","MARKTYPE":"992","Class":"2"},"geometry":{"x":291221.25480000023,"y":2767957.0318}},{"attributes":{"OBJECTID":1289,"LANDMARKID":"1000300000486","LANDMARKCO":"203","LANDMARKNA":"縣立幸福國小","LANDMARKAD":"1000307","ADDRESS":"桃園縣龜山鄉頂興路83巷1弄1號","TEL":"03-3194072","COUNTYNAME":"桃園市","TOWNNAME":"龜山區","MARKTYPE":"992","Class":"2"},"geometry":{"x":283412.1520999996,"y":2764649.9045000002}},{"attributes":{"OBJECTID":1290,"LANDMARKID":"1000300000487","LANDMARKCO":"203","LANDMARKNA":"縣立龜山國小","LANDMARKAD":"1000307","ADDRESS":"桃園縣龜山鄉萬壽路二段933巷14號","TEL":"03-3203571","COUNTYNAME":"桃園市","TOWNNAME":"龜山區","MARKTYPE":"992","Class":"2"},"geometry":{"x":284306.63269999996,"y":2765149.7665999997}},{"attributes":{"OBJECTID":1291,"LANDMARKID":"1000300000275","LANDMARKCO":"202","LANDMARKNA":"私立光啟高中","LANDMARKAD":"1000307","ADDRESS":"桃園縣龜山鄉龍壽村自由街40號","TEL":"03-9016733","COUNTYNAME":"桃園市","TOWNNAME":"龜山區","MARKTYPE":"992","Class":"2"},"geometry":{"x":290685.23269999959,"y":2768069.9046}},{"attributes":{"OBJECTID":1292,"LANDMARKID":"1000300000488","LANDMARKCO":"203","LANDMARKNA":"縣立大崗國中","LANDMARKAD":"1000307","ADDRESS":"桃園縣龜山鄉大崗村文化二路168號","TEL":"03-3280888","COUNTYNAME":"桃園市","TOWNNAME":"龜山區","MARKTYPE":"992","Class":"2"},"geometry":{"x":287420.47429999989,"y":2771539.6157000009}},{"attributes":{"OBJECTID":1293,"LANDMARKID":"1000300000489","LANDMARKCO":"203","LANDMARKNA":"縣立壽山國中","LANDMARKAD":"1000307","ADDRESS":"桃園縣龜山鄉大同路23號","TEL":"03-3501778","COUNTYNAME":"桃園市","TOWNNAME":"龜山區","MARKTYPE":"992","Class":"2"},"geometry":{"x":284495.21250000037,"y":2765289.9944000002}},{"attributes":{"OBJECTID":1294,"LANDMARKID":"1000300000490","LANDMARKCO":"203","LANDMARKNA":"縣立迴龍國中","LANDMARKAD":"1000307","ADDRESS":"桃園縣龜山鄉萬壽路一段168號","TEL":"02-82096088","COUNTYNAME":"桃園市","TOWNNAME":"龜山區","MARKTYPE":"992","Class":"2"},"geometry":{"x":291304.32129999995,"y":2768099.7269000001}},{"attributes":{"OBJECTID":1295,"LANDMARKID":"1000300000491","LANDMARKCO":"203","LANDMARKNA":"縣立幸福國中","LANDMARKAD":"1000307","ADDRESS":"桃園縣龜山鄉中興路100巷20號","TEL":"03-3298992","COUNTYNAME":"桃園市","TOWNNAME":"龜山區","MARKTYPE":"992","Class":"2"},"geometry":{"x":283500.51329999976,"y":2764489.6904000007}},{"attributes":{"OBJECTID":1296,"LANDMARKID":"1000300000492","LANDMARKCO":"203","LANDMARKNA":"縣立龜山國中","LANDMARKAD":"1000307","ADDRESS":"桃園縣龜山鄉自強西路66號","TEL":"03-3205681","COUNTYNAME":"桃園市","TOWNNAME":"龜山區","MARKTYPE":"992","Class":"2"},"geometry":{"x":284194.01850000024,"y":2765519.3465}},{"attributes":{"OBJECTID":1297,"LANDMARKID":"1000300000493","LANDMARKCO":"203","LANDMARKNA":"縣立文華國小","LANDMARKAD":"1000307","ADDRESS":"桃園縣龜山鄉公西村文化七路116號","TEL":"03-3279015","COUNTYNAME":"桃園市","TOWNNAME":"龜山區","MARKTYPE":"992","Class":"2"},"geometry":{"x":286840.28239999991,"y":2771469.6745999996}},{"attributes":{"OBJECTID":1298,"LANDMARKID":"1000300000494","LANDMARKCO":"203","LANDMARKNA":"縣立新路國小","LANDMARKAD":"1000307","ADDRESS":"桃園縣龜山鄉新路村永和街12號","TEL":"03-3203890","COUNTYNAME":"桃園市","TOWNNAME":"龜山區","MARKTYPE":"992","Class":"2"},"geometry":{"x":283897.28679999989,"y":2765319.3944000006}},{"attributes":{"OBJECTID":1299,"LANDMARKID":"1000300000495","LANDMARKCO":"203","LANDMARKNA":"縣立南美國小","LANDMARKAD":"1000307","ADDRESS":"桃園縣龜山鄉南美村南上路99號","TEL":"03-3126250","COUNTYNAME":"桃園市","TOWNNAME":"龜山區","MARKTYPE":"992","Class":"2"},"geometry":{"x":279993.21760000009,"y":2771140.0022}},{"attributes":{"OBJECTID":1300,"LANDMARKID":"1000300000496","LANDMARKCO":"203","LANDMARKNA":"縣立山頂國小","LANDMARKAD":"1000307","ADDRESS":"桃園縣龜山鄉山德村頂興路2號","TEL":"03-3327244","COUNTYNAME":"桃園市","TOWNNAME":"龜山區","MARKTYPE":"992","Class":"2"},"geometry":{"x":283032.01360000018,"y":2764899.4696999993}},{"attributes":{"OBJECTID":1301,"LANDMARKID":"1000300000497","LANDMARKCO":"203","LANDMARKNA":"縣立迴龍國小","LANDMARKAD":"1000307","ADDRESS":"桃園縣龜山鄉萬壽路一段168號","TEL":"03-82096088","COUNTYNAME":"桃園市","TOWNNAME":"龜山區","MARKTYPE":"992","Class":"2"},"geometry":{"x":291296.29110000003,"y":2768089.7511}},{"attributes":{"OBJECTID":1302,"LANDMARKID":"1000300000498","LANDMARKCO":"203","LANDMARKNA":"縣立龍壽國小","LANDMARKAD":"1000307","ADDRESS":"桃園縣龜山鄉龍壽村龍校街30號","TEL":"03-3296554","COUNTYNAME":"桃園市","TOWNNAME":"龜山區","MARKTYPE":"992","Class":"2"},"geometry":{"x":289127.78230000008,"y":2767029.5628999993}},{"attributes":{"OBJECTID":1303,"LANDMARKID":"1000300000266","LANDMARKCO":"201","LANDMARKNA":"銘傳大學桃園校區","LANDMARKAD":"1000307","ADDRESS":"桃園縣龜山鄉德明路5號","TEL":"03-3507001","COUNTYNAME":"桃園市","TOWNNAME":"龜山區","MARKTYPE":"992","Class":"2"},"geometry":{"x":284673.01750000007,"y":2764289.5511000007}},{"attributes":{"OBJECTID":1304,"LANDMARKID":"1000300000267","LANDMARKCO":"201","LANDMARKNA":"國立體育學院","LANDMARKAD":"1000307","ADDRESS":"桃園縣龜山鄉文化一路250號","TEL":"03-3283201","COUNTYNAME":"桃園市","TOWNNAME":"龜山區","MARKTYPE":"992","Class":"2"},"geometry":{"x":288493.29910000041,"y":2769629.7548999991}},{"attributes":{"OBJECTID":1305,"LANDMARKID":"1000300000268","LANDMARKCO":"201","LANDMARKNA":"長庚大學","LANDMARKAD":"1000307","ADDRESS":"桃園縣龜山鄉文化一路259號","TEL":"03-2118800","COUNTYNAME":"桃園市","TOWNNAME":"龜山區","MARKTYPE":"992","Class":"2"},"geometry":{"x":289265.01140000019,"y":2769529.9484999999}},{"attributes":{"OBJECTID":1306,"LANDMARKID":"1000300000269","LANDMARKCO":"201","LANDMARKNA":"龍華科技大學","LANDMARKAD":"1000307","ADDRESS":"桃園縣龜山鄉萬壽路一段300號","TEL":"02-82093211","COUNTYNAME":"桃園市","TOWNNAME":"龜山區","MARKTYPE":"992","Class":"2"},"geometry":{"x":290642.55279999971,"y":2767869.2036000006}},{"attributes":{"OBJECTID":1307,"LANDMARKID":"1000300000270","LANDMARKCO":"201","LANDMARKNA":"長庚技術學院","LANDMARKAD":"1000307","ADDRESS":"桃園縣龜山鄉文化一路261號","TEL":"03-2118999","COUNTYNAME":"桃園市","TOWNNAME":"龜山區","MARKTYPE":"992","Class":"2"},"geometry":{"x":289395.11890000012,"y":2769259.5766000003}},{"attributes":{"OBJECTID":1308,"LANDMARKID":"1000300000271","LANDMARKCO":"201","LANDMARKNA":"中央警察大學","LANDMARKAD":"1000307","ADDRESS":"桃園縣龜山鄉大崗村樹人路56號","TEL":"03-3282320","COUNTYNAME":"桃園市","TOWNNAME":"龜山區","MARKTYPE":"992","Class":"2"},"geometry":{"x":285447.73639999982,"y":2771029.6685000006}},{"attributes":{"OBJECTID":1309,"LANDMARKID":"1000300000276","LANDMARKCO":"202","LANDMARKNA":"私立成功工商","LANDMARKAD":"1000307","ADDRESS":"桃園縣龜山鄉中興村下山腳23號","TEL":"03-3294188","COUNTYNAME":"桃園市","TOWNNAME":"龜山區","MARKTYPE":"992","Class":"2"},"geometry":{"x":284446.02460000012,"y":2764599.4186000004}},{"attributes":{"OBJECTID":1310,"LANDMARKID":"1000300000479","LANDMARKCO":"203","LANDMARKNA":"縣立大埔國小","LANDMARKAD":"1000307","ADDRESS":"桃園縣龜山鄉舊路村18之2號","TEL":"03-3298329","COUNTYNAME":"桃園市","TOWNNAME":"龜山區","MARKTYPE":"992","Class":"2"},"geometry":{"x":287870.67399999965,"y":2769149.9353}},{"attributes":{"OBJECTID":1311,"LANDMARKID":"1000300000480","LANDMARKCO":"203","LANDMARKNA":"縣立壽山國小","LANDMARKAD":"1000307","ADDRESS":"桃園縣龜山鄉嶺頂村2鄰24號","TEL":"03-3291782","COUNTYNAME":"桃園市","TOWNNAME":"龜山區","MARKTYPE":"992","Class":"2"},"geometry":{"x":286782.04119999986,"y":2766149.8696999997}},{"attributes":{"OBJECTID":1312,"LANDMARKID":"1000300000481","LANDMARKCO":"203","LANDMARKNA":"縣立大坑國小","LANDMARKAD":"1000307","ADDRESS":"桃園縣龜山鄉大坑村4鄰23號","TEL":"03-3252430","COUNTYNAME":"桃園市","TOWNNAME":"龜山區","MARKTYPE":"992","Class":"2"},"geometry":{"x":281780.02950000018,"y":2770749.7592999991}},{"attributes":{"OBJECTID":1313,"LANDMARKID":"1000300000482","LANDMARKCO":"203","LANDMARKNA":"縣立大崗國小","LANDMARKAD":"1000307","ADDRESS":"桃園縣龜山鄉大崗村大湖55號","TEL":"03-3282457","COUNTYNAME":"桃園市","TOWNNAME":"龜山區","MARKTYPE":"992","Class":"2"},"geometry":{"x":286136.70540000033,"y":2771629.3195999991}},{"attributes":{"OBJECTID":1314,"LANDMARKID":"1000300000483","LANDMARKCO":"203","LANDMARKNA":"縣立樂善國小","LANDMARKAD":"1000307","ADDRESS":"桃園縣龜山鄉樂善村11鄰2號","TEL":"03-3281002","COUNTYNAME":"桃園市","TOWNNAME":"龜山區","MARKTYPE":"992","Class":"2"},"geometry":{"x":288601.81929999962,"y":2771659.4338000007}},{"attributes":{"OBJECTID":1315,"LANDMARKID":"1000300000484","LANDMARKCO":"203","LANDMARKNA":"縣立福源國小","LANDMARKAD":"1000307","ADDRESS":"桃園縣龜山鄉兔坑村11鄰22號","TEL":"03-3297276","COUNTYNAME":"桃園市","TOWNNAME":"龜山區","MARKTYPE":"992","Class":"2"},"geometry":{"x":286089.14639999997,"y":2764649.4934999999}},{"attributes":{"OBJECTID":1316,"LANDMARKID":"1000300000485","LANDMARKCO":"203","LANDMARKNA":"長庚國小","LANDMARKAD":"1000307","ADDRESS":"桃園縣龜山鄉長庚醫護新村425號","TEL":" ","COUNTYNAME":"桃園市","TOWNNAME":"龜山區","MARKTYPE":"992","Class":"2"},"geometry":{"x":288994.18010000046,"y":2772626.5907000005}},{"attributes":{"OBJECTID":1317,"LANDMARKID":"1000300000568","LANDMARKCO":"205","LANDMARKNA":"南僑化工榮恭館","LANDMARKAD":"1000307","ADDRESS":"桃園縣桃園市龜山工業區興邦路35號","TEL":"03-3615771","COUNTYNAME":"桃園市","TOWNNAME":"龜山區","MARKTYPE":"992","Class":"2"},"geometry":{"x":282793.91370000038,"y":2763874.7741}},{"attributes":{"OBJECTID":1318,"LANDMARKID":"1000300000569","LANDMARKCO":"205","LANDMARKNA":"台塑企業文物館","LANDMARKAD":"1000307","ADDRESS":"桃園縣龜山鄉文化一路259號","TEL":"03-211-8800","COUNTYNAME":"桃園市","TOWNNAME":"龜山區","MARKTYPE":"992","Class":"2"},"geometry":{"x":289364.5429999996,"y":2769769.0870999992}},{"attributes":{"OBJECTID":1319,"LANDMARKID":"1000300000753","LANDMARKCO":"308","LANDMARKNA":"國1-林口交流道-東行","LANDMARKAD":"1000307","ADDRESS":"桃園縣龜山鄉","TEL":" ","COUNTYNAME":"桃園市","TOWNNAME":"龜山區","MARKTYPE":"993","Class":"308"},"geometry":{"x":287393.62380000018,"y":2773030.0932999998}},{"attributes":{"OBJECTID":1320,"LANDMARKID":"1000300000590","LANDMARKCO":"302","LANDMARKNA":"統聯汽車客運林口站","LANDMARKAD":"1000307","ADDRESS":"桃園縣龜山鄉復興一路133號","TEL":" ","COUNTYNAME":"桃園市","TOWNNAME":"龜山區","MARKTYPE":"993","Class":"302"},"geometry":{"x":286937.67109999992,"y":2772308.0024999995}},{"attributes":{"OBJECTID":1321,"LANDMARKID":"1000300000651","LANDMARKCO":"303","LANDMARKNA":"東方高爾夫球場停車場","LANDMARKAD":"1000307","ADDRESS":"桃園縣龜山鄉舊路村2鄰16之11號","TEL":"03-3500506","COUNTYNAME":"桃園市","TOWNNAME":"龜山區","MARKTYPE":"993","Class":"303"},"geometry":{"x":286807.32909999974,"y":2766449.1937000006}},{"attributes":{"OBJECTID":1322,"LANDMARKID":"1000300000883","LANDMARKCO":"402","LANDMARKNA":"中華電信-龜山文化特約服務中心","LANDMARKAD":"1000307","ADDRESS":"桃園縣龜山鄉文化二路86號","TEL":"03-3270303","COUNTYNAME":"桃園市","TOWNNAME":"龜山區","MARKTYPE":"994","Class":"4"},"geometry":{"x":287099.6995000001,"y":2772022.6360999998}},{"attributes":{"OBJECTID":1323,"LANDMARKID":"1000300000884","LANDMARKCO":"402","LANDMARKNA":"威寶電信-龜山萬壽特約服務中心","LANDMARKAD":"1000307","ADDRESS":"桃園縣龜山鄉萬壽路一段242號","TEL":"02-82096481","COUNTYNAME":"桃園市","TOWNNAME":"龜山區","MARKTYPE":"994","Class":"4"},"geometry":{"x":290821.60720000044,"y":2767817.7575000003}},{"attributes":{"OBJECTID":1324,"LANDMARKID":"1000300000885","LANDMARKCO":"402","LANDMARKNA":"威寶電信-龜山中興特約服務中心","LANDMARKAD":"1000307","ADDRESS":"桃園縣龜山鄉中興路401號","TEL":"03-3193535","COUNTYNAME":"桃園市","TOWNNAME":"龜山區","MARKTYPE":"994","Class":"4"},"geometry":{"x":283915.12210000027,"y":2765016.2369999997}},{"attributes":{"OBJECTID":1325,"LANDMARKID":"1000300000886","LANDMARKCO":"402","LANDMARKNA":"大眾電信-中興專賣店","LANDMARKAD":"1000307","ADDRESS":"桃園縣龜山鄉大同路18號","TEL":"03-3590858","COUNTYNAME":"桃園市","TOWNNAME":"龜山區","MARKTYPE":"994","Class":"4"},"geometry":{"x":284343.37899999972,"y":2765293.5375999995}},{"attributes":{"OBJECTID":1326,"LANDMARKID":"1000300000887","LANDMARKCO":"402","LANDMARKNA":"大眾電信-長庚專賣店","LANDMARKAD":"1000307","ADDRESS":"桃園縣龜山鄉復興一路143號","TEL":"966558999","COUNTYNAME":"桃園市","TOWNNAME":"龜山區","MARKTYPE":"994","Class":"4"},"geometry":{"x":286972.54440000001,"y":2772347.5259000007}},{"attributes":{"OBJECTID":1327,"LANDMARKID":"1000300001548","LANDMARKCO":"603","LANDMARKNA":"愛之星汽車旅館","LANDMARKAD":"1000307","ADDRESS":"桃園縣龜山鄉文化二路50號2-3樓","TEL":"03-3180888","COUNTYNAME":"桃園市","TOWNNAME":"龜山區","MARKTYPE":"996","Class":"6"},"geometry":{"x":286899.69919999968,"y":2772290.8147}},{"attributes":{"OBJECTID":1328,"LANDMARKID":"1000300001549","LANDMARKCO":"603","LANDMARKNA":"加州長堤汽車旅館","LANDMARKAD":"1000307","ADDRESS":"桃園縣龜山鄉文化三路37巷29號","TEL":"29-1號2-3樓","COUNTYNAME":"桃園市","TOWNNAME":"龜山區","MARKTYPE":"996","Class":"6"},"geometry":{"x":286710.4430999998,"y":2772236.6753000002}},{"attributes":{"OBJECTID":1329,"LANDMARKID":"1000300001550","LANDMARKCO":"603","LANDMARKNA":"東楓MOTEL","LANDMARKAD":"1000307","ADDRESS":"桃園縣龜山鄉文化二路52巷66號1-3樓","TEL":"03-3185868","COUNTYNAME":"桃園市","TOWNNAME":"龜山區","MARKTYPE":"996","Class":"6"},"geometry":{"x":286869.95949999988,"y":2772041.3739}},{"attributes":{"OBJECTID":1330,"LANDMARKID":"1000300001551","LANDMARKCO":"603","LANDMARKNA":"新山鶯賓館","LANDMARKAD":"1000307","ADDRESS":"桃園縣龜山鄉山鶯路華國新村1-3號","TEL":"03-3333131","COUNTYNAME":"桃園市","TOWNNAME":"龜山區","MARKTYPE":"996","Class":"6"},"geometry":{"x":282573.34819999989,"y":2764889.4715}},{"attributes":{"OBJECTID":1331,"LANDMARKID":"1000300001552","LANDMARKCO":"603","LANDMARKNA":"長樂旅社","LANDMARKAD":"1000307","ADDRESS":"桃園縣龜山鄉新興街315號","TEL":"03-3282235","COUNTYNAME":"桃園市","TOWNNAME":"龜山區","MARKTYPE":"996","Class":"6"},"geometry":{"x":285880.88289999962,"y":2770805.5603}},{"attributes":{"OBJECTID":1332,"LANDMARKID":"1000300001553","LANDMARKCO":"603","LANDMARKNA":"碧雲天汽車旅館(龜山館)","LANDMARKAD":"1000307","ADDRESS":"桃園縣龜山鄉萬壽路一段195號2樓","TEL":"02-82000999","COUNTYNAME":"桃園市","TOWNNAME":"龜山區","MARKTYPE":"996","Class":"6"},"geometry":{"x":291012.56309999991,"y":2767827.1226000004}},{"attributes":{"OBJECTID":1333,"LANDMARKID":"1000300001554","LANDMARKCO":"603","LANDMARKNA":"天鵝湖汽車旅館 (天堂鳥)","LANDMARKAD":"1000307","ADDRESS":"桃園縣龜山鄉萬壽路一段379號2-3樓","TEL":"02-82002000","COUNTYNAME":"桃園市","TOWNNAME":"龜山區","MARKTYPE":"996","Class":"6"},"geometry":{"x":290413.55640000012,"y":2767654.6578000002}},{"attributes":{"OBJECTID":1334,"LANDMARKID":"1000300001555","LANDMARKCO":"603","LANDMARKNA":"薇閣商務汽車飯店","LANDMARKAD":"1000307","ADDRESS":"桃園縣龜山鄉萬壽路二段1433號2-3樓","TEL":"03-3200066","COUNTYNAME":"桃園市","TOWNNAME":"龜山區","MARKTYPE":"996","Class":"6"},"geometry":{"x":282682.04370000027,"y":2764940.7546999995}},{"attributes":{"OBJECTID":1335,"LANDMARKID":"1000300001556","LANDMARKCO":"603","LANDMARKNA":"華夏大飯店","LANDMARKAD":"1000307","ADDRESS":"桃園縣龜山鄉文化二路28號6-13樓","TEL":"03-3275888","COUNTYNAME":"桃園市","TOWNNAME":"龜山區","MARKTYPE":"996","Class":"6"},"geometry":{"x":286760.46600000001,"y":2772567.0603999998}},{"attributes":{"OBJECTID":1336,"LANDMARKID":"1000300001557","LANDMARKCO":"603","LANDMARKNA":"松鶴汽車旅館","LANDMARKAD":"1000307","ADDRESS":"桃園縣龜山鄉公西村文化二路56號2樓","TEL":"03-3289177","COUNTYNAME":"桃園市","TOWNNAME":"龜山區","MARKTYPE":"996","Class":"6"},"geometry":{"x":287036.3367999997,"y":2772107.5921999998}},{"attributes":{"OBJECTID":1337,"LANDMARKID":"1000300001558","LANDMARKCO":"603","LANDMARKNA":"苓林旅社","LANDMARKAD":"1000307","ADDRESS":"桃園縣龜山鄉公西村復興街176號","TEL":"03-3281047","COUNTYNAME":"桃園市","TOWNNAME":"龜山區","MARKTYPE":"996","Class":"6"},"geometry":{"x":286356.27379999962,"y":2772802.9316000007}},{"attributes":{"OBJECTID":1338,"LANDMARKID":"1000300001559","LANDMARKCO":"603","LANDMARKNA":"興安旅社","LANDMARKAD":"1000307","ADDRESS":"桃園縣龜山鄉公西村復興街178號","TEL":"03-3281146","COUNTYNAME":"桃園市","TOWNNAME":"龜山區","MARKTYPE":"996","Class":"6"},"geometry":{"x":286180.52960000001,"y":2772576.7511999998}},{"attributes":{"OBJECTID":1339,"LANDMARKID":"1000300001560","LANDMARKCO":"603","LANDMARKNA":"加州陽光旅館","LANDMARKAD":"1000307","ADDRESS":"桃園縣龜山鄉萬壽路二段759號1-3樓","TEL":"03-3209697","COUNTYNAME":"桃園市","TOWNNAME":"龜山區","MARKTYPE":"996","Class":"6"},"geometry":{"x":284650.85960000008,"y":2765511.0044999998}},{"attributes":{"OBJECTID":1340,"LANDMARKID":"1000300001459","LANDMARKCO":"510","LANDMARKNA":"東方高爾夫球場","LANDMARKAD":"1000307","ADDRESS":"桃園縣龜山鄉東方球場路100號","TEL":"03-3501212","COUNTYNAME":"桃園市","TOWNNAME":"龜山區","MARKTYPE":"995","Class":"5"},"geometry":{"x":286781.71449999977,"y":2766481.5914999992}},{"attributes":{"OBJECTID":1341,"LANDMARKID":"1000300001460","LANDMARKCO":"510","LANDMARKNA":"長庚高爾夫球餐廳","LANDMARKAD":"1000307","ADDRESS":"桃園縣龜山鄉舊路村球場路66號","TEL":"03-3296354#214","COUNTYNAME":"桃園市","TOWNNAME":"龜山區","MARKTYPE":"995","Class":"5"},"geometry":{"x":286799.95639999956,"y":2766384.4008000009}},{"attributes":{"OBJECTID":1342,"LANDMARKID":"1000300001461","LANDMARKCO":"510","LANDMARKNA":"長庚高爾夫球場","LANDMARKAD":"1000307","ADDRESS":"桃園縣龜山鄉舊路村大埔23-4號","TEL":"03-3296354","COUNTYNAME":"桃園市","TOWNNAME":"龜山區","MARKTYPE":"995","Class":"5"},"geometry":{"x":288517.14379999973,"y":2768763.0703999996}},{"attributes":{"OBJECTID":1343,"LANDMARKID":"1000300001183","LANDMARKCO":"405","LANDMARKNA":"中油加油站-長榮站","LANDMARKAD":"1000301","ADDRESS":"桃園縣桃園市經國路899號","TEL":"03-3571343","COUNTYNAME":"桃園市","TOWNNAME":"桃園區","MARKTYPE":"994","Class":"4"},"geometry":{"x":280298.43120000046,"y":2769389.9516000003}},{"attributes":{"OBJECTID":1344,"LANDMARKID":"1000300001184","LANDMARKCO":"405","LANDMARKNA":"中油加油站-信東站","LANDMARKAD":"1000301","ADDRESS":"桃園縣桃園市國際路2段226號","TEL":"03-3709507","COUNTYNAME":"桃園市","TOWNNAME":"桃園區","MARKTYPE":"994","Class":"4"},"geometry":{"x":279079.46079999954,"y":2765409.5852000006}},{"attributes":{"OBJECTID":1345,"LANDMARKID":"1000300001185","LANDMARKCO":"405","LANDMARKNA":"統一速邁樂加油站-桃園龍壽站(中油)","LANDMARKAD":"1000301","ADDRESS":"桃園縣桃園市龍壽街215-10號","TEL":"03-3785244","COUNTYNAME":"桃園市","TOWNNAME":"桃園區","MARKTYPE":"994","Class":"4"},"geometry":{"x":277003.22510000039,"y":2764379.8413999993}},{"attributes":{"OBJECTID":1346,"LANDMARKID":"1000300001186","LANDMARKCO":"405","LANDMARKNA":"中油加油站-龍壽加油站(中油直營)","LANDMARKAD":"1000301","ADDRESS":"桃園縣桃園市龍壽街２１５之１０號","TEL":" ","COUNTYNAME":"桃園市","TOWNNAME":"桃園區","MARKTYPE":"994","Class":"4"},"geometry":{"x":277000.50320000015,"y":2764394.0966999996}},{"attributes":{"OBJECTID":1347,"LANDMARKID":"1000300001187","LANDMARKCO":"405","LANDMARKNA":"台灣優力加油站-日隆站(中油)","LANDMARKAD":"1000301","ADDRESS":"桃園縣桃園市春日路386號","TEL":"03-3319909","COUNTYNAME":"桃園市","TOWNNAME":"桃園區","MARKTYPE":"994","Class":"4"},"geometry":{"x":281660.01889999956,"y":2766129.4120000005}},{"attributes":{"OBJECTID":1348,"LANDMARKID":"1000300001188","LANDMARKCO":"405","LANDMARKNA":"統一速邁樂加油站-桃園三站加油站(中油)","LANDMARKAD":"1000301","ADDRESS":"桃園縣桃園市春日路77號","TEL":" ","COUNTYNAME":"桃園市","TOWNNAME":"桃園區","MARKTYPE":"994","Class":"4"},"geometry":{"x":281999.77730000019,"y":2765043.3844000008}},{"attributes":{"OBJECTID":1349,"LANDMARKID":"1000300001189","LANDMARKCO":"405","LANDMARKNA":"中油加油站-寶慶站","LANDMARKAD":"1000301","ADDRESS":"桃園縣桃園市中埔里寶慶路99號","TEL":"03-3018833","COUNTYNAME":"桃園市","TOWNNAME":"桃園區","MARKTYPE":"994","Class":"4"},"geometry":{"x":279651.10759999976,"y":2767089.5447000004}},{"attributes":{"OBJECTID":1350,"LANDMARKID":"1000300001190","LANDMARKCO":"405","LANDMARKNA":"中油加油站-武陵站(中油直營)","LANDMARKAD":"1000301","ADDRESS":"桃園縣桃園市中山路1020號","TEL":"03-3604492","COUNTYNAME":"桃園市","TOWNNAME":"桃園區","MARKTYPE":"994","Class":"4"},"geometry":{"x":278756.52630000003,"y":2764519.6827000007}},{"attributes":{"OBJECTID":1351,"LANDMARKID":"1000300001191","LANDMARKCO":"405","LANDMARKNA":"中油加油站-介壽路站(中油直營)","LANDMARKAD":"1000301","ADDRESS":"桃園縣桃園市介壽路324號","TEL":"03-3615070","COUNTYNAME":"桃園市","TOWNNAME":"桃園區","MARKTYPE":"994","Class":"4"},"geometry":{"x":280799.58279999997,"y":2763609.4856000002}},{"attributes":{"OBJECTID":1352,"LANDMARKID":"1000300001192","LANDMARKCO":"405","LANDMARKNA":"統一速邁樂加油站-國際一站加油站(中油)","LANDMARKAD":"1000301","ADDRESS":"桃園市國際路一段390號","TEL":" ","COUNTYNAME":"桃園市","TOWNNAME":"桃園區","MARKTYPE":"994","Class":"4"},"geometry":{"x":279315.26840000041,"y":2762549.6896000002}},{"attributes":{"OBJECTID":1353,"LANDMARKID":"1000300001193","LANDMARKCO":"405","LANDMARKNA":"中油加油站-大新站","LANDMARKAD":"1000301","ADDRESS":"桃園縣桃園市復興路76號","TEL":"03-3328297","COUNTYNAME":"桃園市","TOWNNAME":"桃園區","MARKTYPE":"994","Class":"4"},"geometry":{"x":281964.01350000035,"y":2764830.3429000005}},{"attributes":{"OBJECTID":1354,"LANDMARKID":"1000300001194","LANDMARKCO":"405","LANDMARKNA":"中油加油站-埔子站","LANDMARKAD":"1000301","ADDRESS":"桃園縣桃園市永安路583號","TEL":"03-3265386","COUNTYNAME":"桃園市","TOWNNAME":"桃園區","MARKTYPE":"994","Class":"4"},"geometry":{"x":279799.59310000017,"y":2766389.8326999992}},{"attributes":{"OBJECTID":1355,"LANDMARKID":"1000300001195","LANDMARKCO":"405","LANDMARKNA":"統一速邁樂加油站-文中站(中油)","LANDMARKAD":"1000301","ADDRESS":"桃園縣桃園市文中路390號","TEL":"03-3786622","COUNTYNAME":"桃園市","TOWNNAME":"桃園區","MARKTYPE":"994","Class":"4"},"geometry":{"x":278746.30999999959,"y":2765339.7000999991}},{"attributes":{"OBJECTID":1356,"LANDMARKID":"1000300001196","LANDMARKCO":"405","LANDMARKNA":"統一速邁樂加油站-桃園二站加油站(中油)","LANDMARKAD":"1000301","ADDRESS":"桃園縣桃園市福林里福林街166號","TEL":" ","COUNTYNAME":"桃園市","TOWNNAME":"桃園區","MARKTYPE":"994","Class":"4"},"geometry":{"x":281005.43919999991,"y":2762929.6531000007}},{"attributes":{"OBJECTID":1357,"LANDMARKID":"1000300001197","LANDMARKCO":"405","LANDMARKNA":"統一速邁樂加油站-國際二站加油站(中油)","LANDMARKAD":"1000301","ADDRESS":"桃園市國際路二段495號","TEL":" ","COUNTYNAME":"桃園市","TOWNNAME":"桃園區","MARKTYPE":"994","Class":"4"},"geometry":{"x":278893.19909999985,"y":2766209.9755000006}},{"attributes":{"OBJECTID":1358,"LANDMARKID":"1000300001198","LANDMARKCO":"405","LANDMARKNA":"台灣優力加油站-向陽站(中油)","LANDMARKAD":"1000301","ADDRESS":"桃園縣桃園市三民路二段236號","TEL":"03-3313454","COUNTYNAME":"桃園市","TOWNNAME":"桃園區","MARKTYPE":"994","Class":"4"},"geometry":{"x":281404.15240000002,"y":2765880.0033}},{"attributes":{"OBJECTID":1359,"LANDMARKID":"1000300001199","LANDMARKCO":"405","LANDMARKNA":"中油加油站-佳順站","LANDMARKAD":"1000301","ADDRESS":"桃園縣桃園市龍壽街196-4號","TEL":"03-3782918","COUNTYNAME":"桃園市","TOWNNAME":"桃園區","MARKTYPE":"994","Class":"4"},"geometry":{"x":277116.20120000001,"y":2764059.6194000002}},{"attributes":{"OBJECTID":1360,"LANDMARKID":"1000300001200","LANDMARKCO":"405","LANDMARKNA":"中油加油站-中正站","LANDMARKAD":"1000301","ADDRESS":"桃園縣桃園市中正路1550號","TEL":"03-3162756","COUNTYNAME":"桃園市","TOWNNAME":"桃園區","MARKTYPE":"994","Class":"4"},"geometry":{"x":279672.41500000004,"y":2768769.4910000004}},{"attributes":{"OBJECTID":1361,"LANDMARKID":"1000300001201","LANDMARKCO":"405","LANDMARKNA":"中油加油站-華碩站","LANDMARKAD":"1000301","ADDRESS":"桃園縣桃園市龍安里大興西路三段783號","TEL":"03-3691166","COUNTYNAME":"桃園市","TOWNNAME":"桃園區","MARKTYPE":"994","Class":"4"},"geometry":{"x":278148.16220000014,"y":2765269.7829}},{"attributes":{"OBJECTID":1362,"LANDMARKID":"1000300001202","LANDMARKCO":"405","LANDMARKNA":"統一速邁樂加油站-桃園加油站(中油)","LANDMARKAD":"1000301","ADDRESS":"桃園市桃鶯路357號","TEL":"03-3760735","COUNTYNAME":"桃園市","TOWNNAME":"桃園區","MARKTYPE":"994","Class":"4"},"geometry":{"x":282285.11340000015,"y":2763709.9214999992}},{"attributes":{"OBJECTID":1363,"LANDMARKID":"1000300001203","LANDMARKCO":"405","LANDMARKNA":"中油加油站-春日路站(刷卡自助)(中油直營)","LANDMARKAD":"1000301","ADDRESS":"桃園縣桃園市春日路971號","TEL":"03-3550381","COUNTYNAME":"桃園市","TOWNNAME":"桃園區","MARKTYPE":"994","Class":"4"},"geometry":{"x":281323.51190000027,"y":2766959.5425000004}},{"attributes":{"OBJECTID":1364,"LANDMARKID":"1000300001204","LANDMARKCO":"405","LANDMARKNA":"中油加油站-中山路站(中油直營)","LANDMARKAD":"1000301","ADDRESS":"桃園縣桃園市中山路522號","TEL":"03-3323504","COUNTYNAME":"桃園市","TOWNNAME":"桃園區","MARKTYPE":"994","Class":"4"},"geometry":{"x":280310.1370000001,"y":2764949.9467999991}},{"attributes":{"OBJECTID":1365,"LANDMARKID":"1000300001205","LANDMARKCO":"405","LANDMARKNA":"中油加油站-文興站","LANDMARKAD":"1000301","ADDRESS":"桃園縣桃園市龍岡里文中路666號","TEL":"03-3690868","COUNTYNAME":"桃園市","TOWNNAME":"桃園區","MARKTYPE":"994","Class":"4"},"geometry":{"x":277951.44290000014,"y":2765099.6158000007}},{"attributes":{"OBJECTID":1366,"LANDMARKID":"1000300001206","LANDMARKCO":"405","LANDMARKNA":"中油加油站-三民路站(刷卡自助)(中油直營)","LANDMARKAD":"1000301","ADDRESS":"桃園縣桃園市三民路一段150號","TEL":"03-3348425","COUNTYNAME":"桃園市","TOWNNAME":"桃園區","MARKTYPE":"994","Class":"4"},"geometry":{"x":282384.61950000003,"y":2765769.6761000007}},{"attributes":{"OBJECTID":1367,"LANDMARKID":"1000300001207","LANDMARKCO":"405","LANDMARKNA":"中油加油站-中山站","LANDMARKAD":"1000301","ADDRESS":"桃園縣桃園市中山路1536號","TEL":"03-2171567","COUNTYNAME":"桃園市","TOWNNAME":"桃園區","MARKTYPE":"994","Class":"4"},"geometry":{"x":276868.64790000021,"y":2763109.8125999998}},{"attributes":{"OBJECTID":1368,"LANDMARKID":"1000300001208","LANDMARKCO":"405","LANDMARKNA":"中油加油站-來翔站","LANDMARKAD":"1000301","ADDRESS":"桃園縣桃園市民生路33號","TEL":"03-3392262","COUNTYNAME":"桃園市","TOWNNAME":"桃園區","MARKTYPE":"994","Class":"4"},"geometry":{"x":281807.47900000028,"y":2764789.7248}},{"attributes":{"OBJECTID":1369,"LANDMARKID":"1000300001209","LANDMARKCO":"405","LANDMARKNA":"中油加油站-力行站","LANDMARKAD":"1000301","ADDRESS":"桃園縣桃園市文中北路102號","TEL":"03-3324178","COUNTYNAME":"桃園市","TOWNNAME":"桃園區","MARKTYPE":"994","Class":"4"},"geometry":{"x":279892.38690000027,"y":2765632.1337000001}},{"attributes":{"OBJECTID":1370,"LANDMARKID":"1000300001210","LANDMARKCO":"405","LANDMARKNA":"中油加油站-正光站","LANDMARKAD":"1000301","ADDRESS":"桃園縣桃園市文中北路105號","TEL":"03-3324178","COUNTYNAME":"桃園市","TOWNNAME":"桃園區","MARKTYPE":"994","Class":"4"},"geometry":{"x":279917.02170000039,"y":2765620.0140000004}},{"attributes":{"OBJECTID":1371,"LANDMARKID":"1000300001211","LANDMARKCO":"405","LANDMARKNA":"中油加油站-全鋒莊敬站","LANDMARKAD":"1000301","ADDRESS":"桃園縣桃園市富國路590號","TEL":"03-3027289","COUNTYNAME":"桃園市","TOWNNAME":"桃園區","MARKTYPE":"994","Class":"4"},"geometry":{"x":278660.51640000008,"y":2767899.8691000007}},{"attributes":{"OBJECTID":1372,"LANDMARKID":"1000300000873","LANDMARKCO":"402","LANDMARKNA":"My Phone台灣大哥大-桃園大廟直營服務中心","LANDMARKAD":"1000301","ADDRESS":"桃園縣桃園市中正路142號","TEL":" ","COUNTYNAME":"桃園市","TOWNNAME":"桃園區","MARKTYPE":"994","Class":"4"},"geometry":{"x":281457.56830000039,"y":2765137.8855000008}},{"attributes":{"OBJECTID":1373,"LANDMARKID":"1000300000874","LANDMARKCO":"402","LANDMARKNA":"My Phone台灣大哥大-桃園成功直營服務中心","LANDMARKAD":"1000301","ADDRESS":"桃園縣桃園市成功路二段86號","TEL":"0809-000-166","COUNTYNAME":"桃園市","TOWNNAME":"桃園區","MARKTYPE":"994","Class":"4"},"geometry":{"x":281928.26630000025,"y":2765138.4827999994}},{"attributes":{"OBJECTID":1374,"LANDMARKID":"1000300000875","LANDMARKCO":"402","LANDMARKNA":"亞太行動寬頻電信-桃園中華加盟服務中心","LANDMARKAD":"1000301","ADDRESS":"桃園縣桃園市中華路55號","TEL":"03-3339634","COUNTYNAME":"桃園市","TOWNNAME":"桃園區","MARKTYPE":"994","Class":"4"},"geometry":{"x":281354.46769999992,"y":2764786.4832000006}},{"attributes":{"OBJECTID":1375,"LANDMARKID":"1000300000876","LANDMARKCO":"402","LANDMARKNA":"亞太行動寬頻電信-桃園中山加盟服務中心","LANDMARKAD":"1000301","ADDRESS":"桃園縣桃園市中山路238號","TEL":"03-3470022","COUNTYNAME":"桃園市","TOWNNAME":"桃園區","MARKTYPE":"994","Class":"4"},"geometry":{"x":281000.29519999959,"y":2765019.6535999998}},{"attributes":{"OBJECTID":1376,"LANDMARKID":"1000300000877","LANDMARKCO":"402","LANDMARKNA":"亞太行動寬頻電信-桃園中正加盟服務中心","LANDMARKAD":"1000301","ADDRESS":"桃園縣桃園市中正路468號","TEL":"03-3327676","COUNTYNAME":"桃園市","TOWNNAME":"桃園區","MARKTYPE":"994","Class":"4"},"geometry":{"x":280963.41959999967,"y":2765997.7322000004}},{"attributes":{"OBJECTID":1377,"LANDMARKID":"1000300000878","LANDMARKCO":"402","LANDMARKNA":"亞太行動寬頻電信-桃園縣","LANDMARKAD":"1000301","ADDRESS":"桃園縣桃園市中山路78號","TEL":" ","COUNTYNAME":"桃園市","TOWNNAME":"桃園區","MARKTYPE":"994","Class":"4"},"geometry":{"x":281370.01790000033,"y":2765205.4442999996}},{"attributes":{"OBJECTID":1378,"LANDMARKID":"1000300000879","LANDMARKCO":"402","LANDMARKNA":"亞太行動寬頻電信-桃園大興加盟服務中心","LANDMARKAD":"1000301","ADDRESS":"桃園縣桃園市中正路931號-1","TEL":"03-3150808","COUNTYNAME":"桃園市","TOWNNAME":"桃園區","MARKTYPE":"994","Class":"4"},"geometry":{"x":280271.30150000006,"y":2767177.4045000002}},{"attributes":{"OBJECTID":1379,"LANDMARKID":"1000300000880","LANDMARKCO":"402","LANDMARKNA":"亞太行動寬頻電信-桃園成功加盟服務中心","LANDMARKAD":"1000301","ADDRESS":"桃園縣桃園市成功路二段94號","TEL":"03-3370982","COUNTYNAME":"桃園市","TOWNNAME":"桃園區","MARKTYPE":"994","Class":"4"},"geometry":{"x":281948.75870000012,"y":2765143.4671}},{"attributes":{"OBJECTID":1380,"LANDMARKID":"1000300000881","LANDMARKCO":"402","LANDMARKNA":"亞太行動寬頻電信-桃園民生二加盟服務中心","LANDMARKAD":"1000301","ADDRESS":"桃園縣桃園市民生路77號","TEL":"03-3321155","COUNTYNAME":"桃園市","TOWNNAME":"桃園區","MARKTYPE":"994","Class":"4"},"geometry":{"x":281709.05960000027,"y":2764916.9514000006}},{"attributes":{"OBJECTID":1381,"LANDMARKID":"1000300000882","LANDMARKCO":"402","LANDMARKNA":"亞太行動寬頻電信-桃園民生加盟服務中心","LANDMARKAD":"1000301","ADDRESS":"桃園縣桃園市民生路412號","TEL":"03-2552318","COUNTYNAME":"桃園市","TOWNNAME":"桃園區","MARKTYPE":"994","Class":"4"},"geometry":{"x":281435.28479999956,"y":2765629.9333999995}},{"attributes":{"OBJECTID":1382,"LANDMARKID":"1000300000762","LANDMARKCO":"401","LANDMARKNA":"德仁醫院","LANDMARKAD":"1000301","ADDRESS":"桃園縣桃園市桃鶯路245號","TEL":"03-3617985","COUNTYNAME":"桃園市","TOWNNAME":"桃園區","MARKTYPE":"994","Class":"4"},"geometry":{"x":282159.47039999999,"y":2764055.8752999995}},{"attributes":{"OBJECTID":1383,"LANDMARKID":"1000300000763","LANDMARKCO":"401","LANDMARKNA":"桃新醫院","LANDMARKAD":"1000301","ADDRESS":"桃園縣桃園市復興路98號","TEL":"03-3325678","COUNTYNAME":"桃園市","TOWNNAME":"桃園區","MARKTYPE":"994","Class":"4"},"geometry":{"x":281869.30759999994,"y":2764823.9673999995}},{"attributes":{"OBJECTID":1384,"LANDMARKID":"1000300000764","LANDMARKCO":"401","LANDMARKNA":"桃園榮民醫院","LANDMARKAD":"1000301","ADDRESS":"桃園縣桃園市成功路三段100號","TEL":"03-3384889","COUNTYNAME":"桃園市","TOWNNAME":"桃園區","MARKTYPE":"994","Class":"4"},"geometry":{"x":282718.0708999997,"y":2766153.5428999998}},{"attributes":{"OBJECTID":1385,"LANDMARKID":"1000300000765","LANDMARKCO":"401","LANDMARKNA":"行政院衛生署桃園醫院","LANDMARKAD":"1000301","ADDRESS":"桃園縣桃園市中山路1492號","TEL":"03-3699721","COUNTYNAME":"桃園市","TOWNNAME":"桃園區","MARKTYPE":"994","Class":"4"},"geometry":{"x":276925.1166000003,"y":2763401.9988000002}},{"attributes":{"OBJECTID":1386,"LANDMARKID":"1000300000766","LANDMARKCO":"401","LANDMARKNA":"振生醫院","LANDMARKAD":"1000301","ADDRESS":"桃園縣桃園市三民路二段288號","TEL":"03-3356156","COUNTYNAME":"桃園市","TOWNNAME":"桃園區","MARKTYPE":"994","Class":"4"},"geometry":{"x":281231.67659999989,"y":2765801.7589999996}},{"attributes":{"OBJECTID":1387,"LANDMARKID":"1000300000767","LANDMARKCO":"401","LANDMARKNA":"敏盛綜合醫院-三民院區","LANDMARKAD":"1000301","ADDRESS":"桃園縣桃園市三民路三段106號","TEL":"03-3179599","COUNTYNAME":"桃園市","TOWNNAME":"桃園區","MARKTYPE":"994","Class":"4"},"geometry":{"x":280853.6754999999,"y":2765188.9847999997}},{"attributes":{"OBJECTID":1388,"LANDMARKID":"1000300000768","LANDMARKCO":"401","LANDMARKNA":"福太醫院","LANDMARKAD":"1000301","ADDRESS":"桃園縣桃園市民族路85號","TEL":"03-3358226","COUNTYNAME":"桃園市","TOWNNAME":"桃園區","MARKTYPE":"994","Class":"4"},"geometry":{"x":281231.5943,"y":2764842.7641000003}},{"attributes":{"OBJECTID":1389,"LANDMARKID":"1000300000769","LANDMARKCO":"401","LANDMARKNA":"財團法人天主教聖保祿修女會醫院","LANDMARKAD":"1000301","ADDRESS":"桃園縣桃園市建新街123號","TEL":"03-3613141","COUNTYNAME":"桃園市","TOWNNAME":"桃園區","MARKTYPE":"994","Class":"4"},"geometry":{"x":281478.38599999994,"y":2763827.8442000002}},{"attributes":{"OBJECTID":1390,"LANDMARKID":"1000300000770","LANDMARKCO":"401","LANDMARKNA":"行政院衛生署桃園療養院","LANDMARKAD":"1000301","ADDRESS":"桃園縣桃園市龍壽街71號","TEL":"03-3698553","COUNTYNAME":"桃園市","TOWNNAME":"桃園區","MARKTYPE":"994","Class":"4"},"geometry":{"x":277042.31410000008,"y":2763501.7678999994}},{"attributes":{"OBJECTID":1391,"LANDMARKID":"1000300000771","LANDMARKCO":"401","LANDMARKNA":"敏盛綜合醫院-經國院區","LANDMARKAD":"1000301","ADDRESS":"桃園縣桃園市經國路168號","TEL":"03-3179599","COUNTYNAME":"桃園市","TOWNNAME":"桃園區","MARKTYPE":"994","Class":"4"},"geometry":{"x":280915.58579999954,"y":2767609.8323999997}},{"attributes":{"OBJECTID":1392,"LANDMARKID":"1000300001438","LANDMARKCO":"507","LANDMARKNA":"桃園景福宮","LANDMARKAD":"1000301","ADDRESS":"桃園縣桃園市中和里中正路208號","TEL":" ","COUNTYNAME":"桃園市","TOWNNAME":"桃園區","MARKTYPE":"995","Class":"5"},"geometry":{"x":281225.65510000009,"y":2765403.0017000008}},{"attributes":{"OBJECTID":1393,"LANDMARKID":"1000300001439","LANDMARKCO":"507","LANDMARKNA":"桃園縣忠烈祠","LANDMARKAD":"1000301","ADDRESS":"桃園縣桃園市成功路200號","TEL":" ","COUNTYNAME":"桃園市","TOWNNAME":"桃園區","MARKTYPE":"995","Class":"5"},"geometry":{"x":283050.77630000003,"y":2766702.6450999994}},{"attributes":{"OBJECTID":1394,"LANDMARKID":"1000300001477","LANDMARKCO":"512","LANDMARKNA":"桃園風景區管理所","LANDMARKAD":"1000301","ADDRESS":"桃園縣桃園市公園路42號2樓","TEL":"03-3946061","COUNTYNAME":"桃園市","TOWNNAME":"桃園區","MARKTYPE":"995","Class":"5"},"geometry":{"x":283042.58409999963,"y":2765977.2074999996}},{"attributes":{"OBJECTID":1395,"LANDMARKID":"1000300001287","LANDMARKCO":"408","LANDMARKNA":"郵局-桃園成功路郵局","LANDMARKAD":"1000301","ADDRESS":"桃園縣桃園市成功路1段51號","TEL":"(03)3346-077","COUNTYNAME":"桃園市","TOWNNAME":"桃園區","MARKTYPE":"994","Class":"4"},"geometry":{"x":281412.1409,"y":2764951.9941000007}},{"attributes":{"OBJECTID":1396,"LANDMARKID":"1000300001288","LANDMARKCO":"408","LANDMARKNA":"郵局-桃園民生路郵局","LANDMARKAD":"1000301","ADDRESS":"桃園縣桃園市民生路246-1號","TEL":"(03)3349-833","COUNTYNAME":"桃園市","TOWNNAME":"桃園區","MARKTYPE":"994","Class":"4"},"geometry":{"x":281579.17609999981,"y":2765274.6082000006}},{"attributes":{"OBJECTID":1397,"LANDMARKID":"1000300001289","LANDMARKCO":"408","LANDMARKNA":"郵局-桃園南門郵局","LANDMARKAD":"1000301","ADDRESS":"桃園縣桃園市中山路362號","TEL":"(03)3375-502","COUNTYNAME":"桃園市","TOWNNAME":"桃園區","MARKTYPE":"994","Class":"4"},"geometry":{"x":280770.17729999963,"y":2764967.5480000004}},{"attributes":{"OBJECTID":1398,"LANDMARKID":"1000300001290","LANDMARKCO":"408","LANDMARKNA":"郵局-桃園大樹林郵局","LANDMARKAD":"1000301","ADDRESS":"桃園縣桃園市大誠路9號","TEL":"(03)3619-880","COUNTYNAME":"桃園市","TOWNNAME":"桃園區","MARKTYPE":"994","Class":"4"},"geometry":{"x":282513.13970000017,"y":2764028.3846000005}},{"attributes":{"OBJECTID":1399,"LANDMARKID":"1000300001291","LANDMARKCO":"408","LANDMARKNA":"郵局-桃園茄苳郵局","LANDMARKAD":"1000301","ADDRESS":"桃園縣桃園市中山路1090號","TEL":"(03)3691-274","COUNTYNAME":"桃園市","TOWNNAME":"桃園區","MARKTYPE":"994","Class":"4"},"geometry":{"x":278553.27740000002,"y":2764401.5295000002}},{"attributes":{"OBJECTID":1400,"LANDMARKID":"1000300001292","LANDMARKCO":"408","LANDMARKNA":"郵局-桃園東埔郵局","LANDMARKAD":"1000301","ADDRESS":"桃園縣桃園市中正二街15號","TEL":"(03)3321-928","COUNTYNAME":"桃園市","TOWNNAME":"桃園區","MARKTYPE":"994","Class":"4"},"geometry":{"x":281069.32739999983,"y":2765956.4965000004}}]}