{"displayFieldName":"COUNTYNAME","fieldAliases":{"OBJECTID":"OBJECTID","LANDMARKID":"LANDMARKID","LANDMARKCO":"LANDMARKCO","LANDMARKNA":"LANDMARKNA","LANDMARKAD":"LANDMARKAD","ADDRESS":"ADDRESS","TEL":"TEL","COUNTYNAME":"COUNTYNAME","TOWNNAME":"TOWNNAME","MARKTYPE":"MARKTYPE","Class":"Class"},"geometryType":"esriGeometryPoint","spatialReference":{"wkid":102443},"fields":[{"name":"OBJECTID","type":"esriFieldTypeOID","alias":"OBJECTID"},{"name":"LANDMARKID","type":"esriFieldTypeString","alias":"LANDMARKID","length":15},{"name":"LANDMARKCO","type":"esriFieldTypeString","alias":"LANDMARKCO","length":15},{"name":"LANDMARKNA","type":"esriFieldTypeString","alias":"LANDMARKNA","length":50},{"name":"LANDMARKAD","type":"esriFieldTypeString","alias":"LANDMARKAD","length":15},{"name":"ADDRESS","type":"esriFieldTypeString","alias":"ADDRESS","length":56},{"name":"TEL","type":"esriFieldTypeString","alias":"TEL","length":36},{"name":"COUNTYNAME","type":"esriFieldTypeString","alias":"COUNTYNAME","length":15},{"name":"TOWNNAME","type":"esriFieldTypeString","alias":"TOWNNAME","length":13},{"name":"MARKTYPE","type":"esriFieldTypeString","alias":"MARKTYPE","length":12},{"name":"Class","type":"esriFieldTypeString","alias":"Class","length":5}],"features":[{"attributes":{"OBJECTID":12801,"LANDMARKID":"1000600000596","LANDMARKCO":"302","LANDMARKNA":"豐原汽車客運豐原站","LANDMARKAD":"1000601","ADDRESS":"台中市豐原區三民路46號","TEL":" ","COUNTYNAME":"台中市","TOWNNAME":"豐原區","MARKTYPE":"993","Class":"302"},"geometry":{"x":221719.16669999994,"y":2683167.9520999994}},{"attributes":{"OBJECTID":12802,"LANDMARKID":"1000600000597","LANDMARKCO":"302","LANDMARKNA":"統聯汽車客運豐原站","LANDMARKAD":"1000601","ADDRESS":"台中市豐原區三民路20號","TEL":" ","COUNTYNAME":"台中市","TOWNNAME":"豐原區","MARKTYPE":"993","Class":"302"},"geometry":{"x":221719.16669999994,"y":2683167.9520999994}},{"attributes":{"OBJECTID":12803,"LANDMARKID":"1000600000598","LANDMARKCO":"302","LANDMARKNA":"統聯客運-豐原站-自營站","LANDMARKAD":"1000601","ADDRESS":"台中市豐原區中正路17號","TEL":"連絡電話:04-252","COUNTYNAME":"台中市","TOWNNAME":"豐原區","MARKTYPE":"993","Class":"302"},"geometry":{"x":221810.68369999994,"y":2683120.6454000007}},{"attributes":{"OBJECTID":12804,"LANDMARKID":"1000600000616","LANDMARKCO":"303","LANDMARKNA":"富春國小地下停車場","LANDMARKAD":"1000601","ADDRESS":" ","TEL":" ","COUNTYNAME":"台中市","TOWNNAME":"豐原區","MARKTYPE":"993","Class":"303"},"geometry":{"x":220900.58279999997,"y":2683068.5655000005}},{"attributes":{"OBJECTID":12805,"LANDMARKID":"1000600000617","LANDMARKCO":"303","LANDMARKNA":"府前停車場","LANDMARKAD":"1000601","ADDRESS":" ","TEL":" ","COUNTYNAME":"台中市","TOWNNAME":"豐原區","MARKTYPE":"993","Class":"303"},"geometry":{"x":220947.30939999968,"y":2682505.9748999998}},{"attributes":{"OBJECTID":12806,"LANDMARKID":"1000600000618","LANDMARKCO":"303","LANDMARKNA":"豐原區公有第一零售市場地下停車場","LANDMARKAD":"1000601","ADDRESS":"台中市豐原區市前街88號","TEL":"04-25284470","COUNTYNAME":"台中市","TOWNNAME":"豐原區","MARKTYPE":"993","Class":"303"},"geometry":{"x":221149.18859999999,"y":2682738.8114999998}},{"attributes":{"OBJECTID":12807,"LANDMARKID":"1000600000619","LANDMARKCO":"303","LANDMARKNA":"中興嘟嘟房停車場-豐原府前站","LANDMARKAD":"1000601","ADDRESS":"台中市豐原區新生北路與府前街口(卡友請至豐原信義站","TEL":"04-25236212","COUNTYNAME":"台中市","TOWNNAME":"豐原區","MARKTYPE":"993","Class":"303"},"geometry":{"x":221337.58770000003,"y":2682677.0265999995}},{"attributes":{"OBJECTID":12808,"LANDMARKID":"1000600000620","LANDMARKCO":"303","LANDMARKNA":"中興嘟嘟房停車場-豐原中興站","LANDMARKAD":"1000601","ADDRESS":"台中市豐原區新生北路與中興路口(卡友請至豐原信義站","TEL":"04-25275910","COUNTYNAME":"台中市","TOWNNAME":"豐原區","MARKTYPE":"993","Class":"303"},"geometry":{"x":221378.22510000039,"y":2682553.2416999992}},{"attributes":{"OBJECTID":12809,"LANDMARKID":"1000600000621","LANDMARKCO":"303","LANDMARKNA":"中興嘟嘟房停車場-豐原博愛站","LANDMARKAD":"1000601","ADDRESS":"台中市豐原區新生北路與博愛街口","TEL":"04-25275910","COUNTYNAME":"台中市","TOWNNAME":"豐原區","MARKTYPE":"993","Class":"303"},"geometry":{"x":221379.62880000006,"y":2682431.4299999997}},{"attributes":{"OBJECTID":12810,"LANDMARKID":"1000600000622","LANDMARKCO":"303","LANDMARKNA":"豐原區B區收費停車場","LANDMARKAD":"1000601","ADDRESS":"台中市豐原區新生北路","TEL":" ","COUNTYNAME":"台中市","TOWNNAME":"豐原區","MARKTYPE":"993","Class":"303"},"geometry":{"x":221393.72470000014,"y":2683012.9882999994}},{"attributes":{"OBJECTID":12811,"LANDMARKID":"1000600000623","LANDMARKCO":"303","LANDMARKNA":"中興嘟嘟房停車場-豐原信義站","LANDMARKAD":"1000601","ADDRESS":"台中市豐原區新生北路與信義街口","TEL":"04-25275910","COUNTYNAME":"台中市","TOWNNAME":"豐原區","MARKTYPE":"993","Class":"303"},"geometry":{"x":221455.2659,"y":2683032.5628999993}},{"attributes":{"OBJECTID":12812,"LANDMARKID":"1000600000624","LANDMARKCO":"303","LANDMARKNA":"豐原區公共造產停車場","LANDMARKAD":"1000601","ADDRESS":" ","TEL":" ","COUNTYNAME":"台中市","TOWNNAME":"豐原區","MARKTYPE":"993","Class":"303"},"geometry":{"x":221613.77749999985,"y":2683044.6745999996}},{"attributes":{"OBJECTID":12813,"LANDMARKID":"1000600000625","LANDMARKCO":"303","LANDMARKNA":"中興嘟嘟房停車場-豐原和平站","LANDMARKAD":"1000601","ADDRESS":"台中市豐原區新生北路與和平街口(卡友請至豐原信義站","TEL":"04-25275910","COUNTYNAME":"台中市","TOWNNAME":"豐原區","MARKTYPE":"993","Class":"303"},"geometry":{"x":221565.07139999978,"y":2683035.9596999995}},{"attributes":{"OBJECTID":12814,"LANDMARKID":"1000600000626","LANDMARKCO":"303","LANDMARKNA":"豐原區公有廣三停車場","LANDMARKAD":"1000601","ADDRESS":"豐原火車站對面","TEL":" ","COUNTYNAME":"台中市","TOWNNAME":"豐原區","MARKTYPE":"993","Class":"303"},"geometry":{"x":221984.59159999993,"y":2683249.0907000005}},{"attributes":{"OBJECTID":12815,"LANDMARKID":"1000600000627","LANDMARKCO":"303","LANDMARKNA":"豐原醫院停車場","LANDMARKAD":"1000601","ADDRESS":"台中市豐原區安康路","TEL":" ","COUNTYNAME":"台中市","TOWNNAME":"豐原區","MARKTYPE":"993","Class":"303"},"geometry":{"x":222091.56859999988,"y":2681988.5706999991}},{"attributes":{"OBJECTID":12816,"LANDMARKID":"1000600000628","LANDMARKCO":"303","LANDMARKNA":"豐原客運停車場","LANDMARKAD":"1000601","ADDRESS":"台中市豐原區豐勢路二段","TEL":" ","COUNTYNAME":"台中市","TOWNNAME":"豐原區","MARKTYPE":"993","Class":"303"},"geometry":{"x":223489.97279999964,"y":2684106.3029999994}},{"attributes":{"OBJECTID":12817,"LANDMARKID":"1000600000629","LANDMARKCO":"303","LANDMARKNA":"豐原國小停車場","LANDMARKAD":"1000601","ADDRESS":" ","TEL":" ","COUNTYNAME":"台中市","TOWNNAME":"豐原區","MARKTYPE":"993","Class":"303"},"geometry":{"x":221598.96740000043,"y":2683325.2726000007}},{"attributes":{"OBJECTID":12818,"LANDMARKID":"1000600000630","LANDMARKCO":"303","LANDMARKNA":"中庚停車場","LANDMARKAD":"1000601","ADDRESS":"台中市豐原區府前街、信美街口","TEL":" ","COUNTYNAME":"台中市","TOWNNAME":"豐原區","MARKTYPE":"993","Class":"303"},"geometry":{"x":221499.70650000032,"y":2682692.3990000002}},{"attributes":{"OBJECTID":12819,"LANDMARKID":"1000600000631","LANDMARKCO":"303","LANDMARKNA":"台中市衛生局停車場","LANDMARKAD":"1000601","ADDRESS":"台中市豐原區西安街","TEL":" ","COUNTYNAME":"台中市","TOWNNAME":"豐原區","MARKTYPE":"993","Class":"303"},"geometry":{"x":220986.81109999958,"y":2682644.5769999996}},{"attributes":{"OBJECTID":12820,"LANDMARKID":"1000600000632","LANDMARKCO":"303","LANDMARKNA":"帝亞泳池停車場","LANDMARKAD":"1000601","ADDRESS":"台中市豐原區豐勢路二段","TEL":" ","COUNTYNAME":"台中市","TOWNNAME":"豐原區","MARKTYPE":"993","Class":"303"},"geometry":{"x":223595.40660000034,"y":2684149.1242999993}},{"attributes":{"OBJECTID":12821,"LANDMARKID":"1000600000633","LANDMARKCO":"303","LANDMARKNA":"豐原區A區收費停車場","LANDMARKAD":"1000601","ADDRESS":"台中市豐原區","TEL":" ","COUNTYNAME":"台中市","TOWNNAME":"豐原區","MARKTYPE":"993","Class":"303"},"geometry":{"x":221636.7620000001,"y":2683149.2914000005}},{"attributes":{"OBJECTID":12822,"LANDMARKID":"1000600000634","LANDMARKCO":"303","LANDMARKNA":"豐原區B區收費停車場","LANDMARKAD":"1000601","ADDRESS":"台中市豐原區","TEL":" ","COUNTYNAME":"台中市","TOWNNAME":"豐原區","MARKTYPE":"993","Class":"303"},"geometry":{"x":221347.63200000022,"y":2682948.0223999992}},{"attributes":{"OBJECTID":12823,"LANDMARKID":"1000600000635","LANDMARKCO":"303","LANDMARKNA":"豐原區C區收費停車場","LANDMARKAD":"1000601","ADDRESS":"台中市豐原區","TEL":" ","COUNTYNAME":"台中市","TOWNNAME":"豐原區","MARKTYPE":"993","Class":"303"},"geometry":{"x":221324.4020999996,"y":2682801.4556000009}},{"attributes":{"OBJECTID":12824,"LANDMARKID":"1000600000636","LANDMARKCO":"303","LANDMARKNA":"中興嘟嘟房停車場-豐原豐中站","LANDMARKAD":"1000601","ADDRESS":"台中市豐原區新生北路與豐中路口","TEL":"04-25256814","COUNTYNAME":"台中市","TOWNNAME":"豐原區","MARKTYPE":"993","Class":"303"},"geometry":{"x":221764.37770000007,"y":2683338.5178999994}},{"attributes":{"OBJECTID":12825,"LANDMARKID":"1000600000637","LANDMARKCO":"303","LANDMARKNA":"中興嘟嘟房停車場-豐原三民站","LANDMARKAD":"1000601","ADDRESS":"台中市豐原區新生北路與三民路口(卡友請至豐原信義站","TEL":"04-25256814","COUNTYNAME":"台中市","TOWNNAME":"豐原區","MARKTYPE":"993","Class":"303"},"geometry":{"x":221659.68719999958,"y":2683167.7388000004}},{"attributes":{"OBJECTID":12826,"LANDMARKID":"1000600000638","LANDMARKCO":"303","LANDMARKNA":"中興嘟嘟房停車場-豐原中正站","LANDMARKAD":"1000601","ADDRESS":"台中市豐原區新生北路與中正路口(卡友請至豐原信義站","TEL":"04-25256814","COUNTYNAME":"台中市","TOWNNAME":"豐原區","MARKTYPE":"993","Class":"303"},"geometry":{"x":221363.67760000005,"y":2682952.4539000001}},{"attributes":{"OBJECTID":12827,"LANDMARKID":"1000600000639","LANDMARKCO":"303","LANDMARKNA":"中興嘟嘟房停車場-豐原復興站","LANDMARKAD":"1000601","ADDRESS":"台中市豐原區新生北路與復興路口(卡友請至豐原信義站","TEL":"04-25256814","COUNTYNAME":"台中市","TOWNNAME":"豐原區","MARKTYPE":"993","Class":"303"},"geometry":{"x":221332.50329999998,"y":2682788.3199000005}},{"attributes":{"OBJECTID":12828,"LANDMARKID":"1000600000581","LANDMARKCO":"301","LANDMARKNA":"豐原火車站","LANDMARKAD":"1000601","ADDRESS":"台中市豐原區中正路1號","TEL":"04-25207950","COUNTYNAME":"台中市","TOWNNAME":"豐原區","MARKTYPE":"993","Class":"301"},"geometry":{"x":221900.85599999968,"y":2683216.6011999995}},{"attributes":{"OBJECTID":12829,"LANDMARKID":"1000600000820","LANDMARKCO":"402","LANDMARKNA":"中華電信-豐原中正特約服務中心","LANDMARKAD":"1000601","ADDRESS":"台中市豐原區中正路114號","TEL":"04-25256586","COUNTYNAME":"台中市","TOWNNAME":"豐原區","MARKTYPE":"994","Class":"4"},"geometry":{"x":221626.5689000003,"y":2682954.2398000006}},{"attributes":{"OBJECTID":12830,"LANDMARKID":"1000600000821","LANDMARKCO":"402","LANDMARKNA":"中華電信-豐原成功特約服務中心","LANDMARKAD":"1000601","ADDRESS":"台中市豐原區中正路663號","TEL":"04-25295959","COUNTYNAME":"台中市","TOWNNAME":"豐原區","MARKTYPE":"994","Class":"4"},"geometry":{"x":220180.40869999956,"y":2682715.1773000006}},{"attributes":{"OBJECTID":12831,"LANDMARKID":"1000600000822","LANDMARKCO":"402","LANDMARKNA":"中華電信-豐原南陽特約服務中心","LANDMARKAD":"1000601","ADDRESS":"台中市豐原區南陽路352號","TEL":"04-25120797","COUNTYNAME":"台中市","TOWNNAME":"豐原區","MARKTYPE":"994","Class":"4"},"geometry":{"x":222146.59389999975,"y":2682329.1509000007}},{"attributes":{"OBJECTID":12832,"LANDMARKID":"1000600000823","LANDMARKCO":"402","LANDMARKNA":"中華電信-豐原營運處(豐原服務中心)","LANDMARKAD":"1000601","ADDRESS":"台中市豐原區豐西街21號","TEL":"123或0800-080-123","COUNTYNAME":"台中市","TOWNNAME":"豐原區","MARKTYPE":"994","Class":"4"},"geometry":{"x":220915.68010000046,"y":2682896.5252}},{"attributes":{"OBJECTID":12833,"LANDMARKID":"1000600000824","LANDMARKCO":"402","LANDMARKNA":"遠傳電信-豐原門市","LANDMARKAD":"1000601","ADDRESS":"台中市豐原區中正路207號","TEL":" ","COUNTYNAME":"台中市","TOWNNAME":"豐原區","MARKTYPE":"994","Class":"4"},"geometry":{"x":221380.61870000046,"y":2682928.3151999991}},{"attributes":{"OBJECTID":12834,"LANDMARKID":"1000600000825","LANDMARKCO":"402","LANDMARKNA":"遠傳電信-豐原圓環門市","LANDMARKAD":"1000601","ADDRESS":"台中市豐原區圓環北路一段289號","TEL":" ","COUNTYNAME":"台中市","TOWNNAME":"豐原區","MARKTYPE":"994","Class":"4"},"geometry":{"x":221475.45480000041,"y":2683625.5041000005}},{"attributes":{"OBJECTID":12835,"LANDMARKID":"1000600000826","LANDMARKCO":"402","LANDMARKNA":"威寶電信-豐原向陽特約服務中心","LANDMARKAD":"1000601","ADDRESS":"台中市豐原區向陽路90號","TEL":"04-25298877","COUNTYNAME":"台中市","TOWNNAME":"豐原區","MARKTYPE":"994","Class":"4"},"geometry":{"x":221929.55439999979,"y":2682963.2789999992}},{"attributes":{"OBJECTID":12836,"LANDMARKID":"1000600000827","LANDMARKCO":"402","LANDMARKNA":"大眾電信(震旦通訊)-豐原三民店","LANDMARKAD":"1000601","ADDRESS":"台中市豐原區三民路152號","TEL":"04-25230695","COUNTYNAME":"台中市","TOWNNAME":"豐原區","MARKTYPE":"994","Class":"4"},"geometry":{"x":221494.79609999992,"y":2683148.5441999994}},{"attributes":{"OBJECTID":12837,"LANDMARKID":"1000600000828","LANDMARKCO":"402","LANDMARKNA":"大眾電信(震旦通訊)-豐原中正店","LANDMARKAD":"1000601","ADDRESS":"台中市豐原區中正路273號","TEL":"04-25157110","COUNTYNAME":"台中市","TOWNNAME":"豐原區","MARKTYPE":"994","Class":"4"},"geometry":{"x":221197.64960000012,"y":2682912.5199999996}},{"attributes":{"OBJECTID":12838,"LANDMARKID":"1000600000829","LANDMARKCO":"402","LANDMARKNA":"大眾電信(震旦通訊)-豐原向陽店","LANDMARKAD":"1000601","ADDRESS":"台中市豐原區向陽路290號","TEL":"04-25120939","COUNTYNAME":"台中市","TOWNNAME":"豐原區","MARKTYPE":"994","Class":"4"},"geometry":{"x":222386.76269999985,"y":2682859.0655000005}},{"attributes":{"OBJECTID":12839,"LANDMARKID":"1000600000830","LANDMARKCO":"402","LANDMARKNA":"威寶電信-台中東海特約服務中心","LANDMARKAD":"1000601","ADDRESS":"台中市龍井區台中港路東園巷4號","TEL":"04-26336633","COUNTYNAME":"台中市","TOWNNAME":"豐原區","MARKTYPE":"994","Class":"4"},"geometry":{"x":221216.94519999996,"y":2682943.1727000009}},{"attributes":{"OBJECTID":12840,"LANDMARKID":"1000600001379","LANDMARKCO":"603","LANDMARKNA":"南方大旅社","LANDMARKAD":"1000601","ADDRESS":"台中市豐原區府前街22號","TEL":"04-25222188-9","COUNTYNAME":"台中市","TOWNNAME":"豐原區","MARKTYPE":"996","Class":"6"},"geometry":{"x":221531.82699999958,"y":2682689.8453000002}},{"attributes":{"OBJECTID":12841,"LANDMARKID":"1000600001380","LANDMARKCO":"603","LANDMARKNA":"春水漾旅館","LANDMARKAD":"1000601","ADDRESS":"台中市豐原區成功路579號","TEL":"04-25205899","COUNTYNAME":"台中市","TOWNNAME":"豐原區","MARKTYPE":"996","Class":"6"},"geometry":{"x":220099.9907999998,"y":2683222.8543999996}},{"attributes":{"OBJECTID":12842,"LANDMARKID":"1000600001381","LANDMARKCO":"603","LANDMARKNA":"尼斯堡庭園商務汽車旅館","LANDMARKAD":"1000601","ADDRESS":"台中市豐原區豐勢路2段1110號","TEL":"04-25721212","COUNTYNAME":"台中市","TOWNNAME":"豐原區","MARKTYPE":"996","Class":"6"},"geometry":{"x":225542.25710000005,"y":2685647.9390999991}},{"attributes":{"OBJECTID":12843,"LANDMARKID":"1000600001448","LANDMARKCO":"604","LANDMARKNA":"皮克藍門地中海民宿","LANDMARKAD":"1000601","ADDRESS":"台中市豐原區東陽路獅座巷7號","TEL":"04-25159969","COUNTYNAME":"台中市","TOWNNAME":"豐原區","MARKTYPE":"996","Class":"6"},"geometry":{"x":225001.47910000011,"y":2680692.7982000001}},{"attributes":{"OBJECTID":12844,"LANDMARKID":"1000600001370","LANDMARKCO":"603","LANDMARKNA":"溫莎堡庭園商務旅館","LANDMARKAD":"1000601","ADDRESS":"台中市豐原區成功路686","TEL":"688號","COUNTYNAME":"台中市","TOWNNAME":"豐原區","MARKTYPE":"996","Class":"6"},"geometry":{"x":220472.04349999968,"y":2683269.2868000008}},{"attributes":{"OBJECTID":12845,"LANDMARKID":"1000600001371","LANDMARKCO":"603","LANDMARKNA":"鴻賓大旅社","LANDMARKAD":"1000601","ADDRESS":"台中市豐原區三民路35號","TEL":"04-25222168-9","COUNTYNAME":"台中市","TOWNNAME":"豐原區","MARKTYPE":"996","Class":"6"},"geometry":{"x":221733.80879999977,"y":2683142.4530999996}},{"attributes":{"OBJECTID":12846,"LANDMARKID":"1000600001372","LANDMARKCO":"603","LANDMARKNA":"國賓大旅社","LANDMARKAD":"1000601","ADDRESS":"台中市豐原區三民路37號","TEL":"04-25222191-2","COUNTYNAME":"台中市","TOWNNAME":"豐原區","MARKTYPE":"996","Class":"6"},"geometry":{"x":221726.80879999977,"y":2683142.4390999991}},{"attributes":{"OBJECTID":12847,"LANDMARKID":"1000600001373","LANDMARKCO":"603","LANDMARKNA":"東亞旅社","LANDMARKAD":"1000601","ADDRESS":"台中市豐原區府前街145號","TEL":"04-25262518","COUNTYNAME":"台中市","TOWNNAME":"豐原區","MARKTYPE":"996","Class":"6"},"geometry":{"x":221180.54849999957,"y":2682654.4865000006}},{"attributes":{"OBJECTID":12848,"LANDMARKID":"1000600001374","LANDMARKCO":"603","LANDMARKNA":"真正好旅店","LANDMARKAD":"1000601","ADDRESS":"台中市豐原區三豐路152號","TEL":"04-25256877","COUNTYNAME":"台中市","TOWNNAME":"豐原區","MARKTYPE":"996","Class":"6"},"geometry":{"x":221352.6763000004,"y":2683207.2575000003}},{"attributes":{"OBJECTID":12849,"LANDMARKID":"1000600001375","LANDMARKCO":"603","LANDMARKNA":"新都大飯店","LANDMARKAD":"1000601","ADDRESS":"台中市豐原區向陽路77-1號1","TEL":"9-13樓","COUNTYNAME":"台中市","TOWNNAME":"豐原區","MARKTYPE":"996","Class":"6"},"geometry":{"x":221977.44620000012,"y":2683018.3739}},{"attributes":{"OBJECTID":12850,"LANDMARKID":"1000600001376","LANDMARKCO":"603","LANDMARKNA":"大芳旅社","LANDMARKAD":"1000601","ADDRESS":"台中市豐原區和平街46號","TEL":"04-25222197-8","COUNTYNAME":"台中市","TOWNNAME":"豐原區","MARKTYPE":"996","Class":"6"},"geometry":{"x":221572.95289999992,"y":2683070.1311000008}},{"attributes":{"OBJECTID":12851,"LANDMARKID":"1000600001377","LANDMARKCO":"603","LANDMARKNA":"豐榮旅社","LANDMARKAD":"1000601","ADDRESS":"台中市豐原區府前街149號","TEL":"04-25262511","COUNTYNAME":"台中市","TOWNNAME":"豐原區","MARKTYPE":"996","Class":"6"},"geometry":{"x":221166.57270000037,"y":2682642.4581000004}},{"attributes":{"OBJECTID":12852,"LANDMARKID":"1000600001378","LANDMARKCO":"603","LANDMARKNA":"楓采休閒商務汽車旅館","LANDMARKAD":"1000601","ADDRESS":"台中市豐原區永康路211巷25弄76號","TEL":"04-25282686","COUNTYNAME":"台中市","TOWNNAME":"豐原區","MARKTYPE":"996","Class":"6"},"geometry":{"x":222253.72580000013,"y":2681647.3633999992}},{"attributes":{"OBJECTID":12853,"LANDMARKID":"1000600001327","LANDMARKCO":"511","LANDMARKNA":"豐原夜市(廟東夜市)","LANDMARKAD":"1000601","ADDRESS":"台中市豐原區","TEL":" ","COUNTYNAME":"台中市","TOWNNAME":"豐原區","MARKTYPE":"995","Class":"5"},"geometry":{"x":221504.06159999967,"y":2682862.9068}},{"attributes":{"OBJECTID":12854,"LANDMARKID":"1000600001317","LANDMARKCO":"510","LANDMARKNA":"豐原高爾夫球場","LANDMARKAD":"1000601","ADDRESS":"台中市豐原區水源路坪頂巷23號","TEL":"04-25222835","COUNTYNAME":"台中市","TOWNNAME":"豐原區","MARKTYPE":"995","Class":"5"},"geometry":{"x":225226.89900000021,"y":2684405.1357000005}},{"attributes":{"OBJECTID":12855,"LANDMARKID":"1000600000989","LANDMARKCO":"405","LANDMARKNA":"中油加油站-全家站","LANDMARKAD":"1000606","ADDRESS":"台中市梧棲區中央路一段31之3號","TEL":"04-26301436","COUNTYNAME":"台中市(海)","TOWNNAME":"梧棲區(海)","MARKTYPE":"994","Class":"4"},"geometry":{"x":201917.20639999956,"y":2679914.7026000004}},{"attributes":{"OBJECTID":12856,"LANDMARKID":"1000600000990","LANDMARKCO":"405","LANDMARKNA":"中油加油站-中華站","LANDMARKAD":"1000606","ADDRESS":"台中市梧棲區中華路一段538號","TEL":"04-26356526","COUNTYNAME":"台中市(海)","TOWNNAME":"梧棲區(海)","MARKTYPE":"994","Class":"4"},"geometry":{"x":203916.64719999954,"y":2680377.8933000006}},{"attributes":{"OBJECTID":12857,"LANDMARKID":"1000600000991","LANDMARKCO":"405","LANDMARKNA":"中油加油站-梧棲站(中油直營)","LANDMARKAD":"1000606","ADDRESS":"台中市梧棲區八德路2號","TEL":"04-26568415","COUNTYNAME":"台中市(海)","TOWNNAME":"梧棲區(海)","MARKTYPE":"994","Class":"4"},"geometry":{"x":202509.45579999965,"y":2683980.4017999992}},{"attributes":{"OBJECTID":12858,"LANDMARKID":"1000600000992","LANDMARKCO":"405","LANDMARKNA":"中油加油站-加豐站","LANDMARKAD":"1000606","ADDRESS":"台中市梧棲區中華路一段679號","TEL":"04-26300336","COUNTYNAME":"台中市(海)","TOWNNAME":"梧棲區(海)","MARKTYPE":"994","Class":"4"},"geometry":{"x":203887.08550000004,"y":2680699.2061000001}},{"attributes":{"OBJECTID":12859,"LANDMARKID":"1000600000993","LANDMARKCO":"405","LANDMARKNA":"中油加油站-慶和站","LANDMARKAD":"1000606","ADDRESS":"台中市梧棲區港埠路一段601號","TEL":"04-6302300","COUNTYNAME":"台中市(海)","TOWNNAME":"梧棲區(海)","MARKTYPE":"994","Class":"4"},"geometry":{"x":202348.56400000025,"y":2681440.4977000002}},{"attributes":{"OBJECTID":12860,"LANDMARKID":"1000600000994","LANDMARKCO":"405","LANDMARKNA":"中油加油站-建發站","LANDMARKAD":"1000606","ADDRESS":"台中市梧棲區港埠路二段433號","TEL":"04-26570938","COUNTYNAME":"台中市(海)","TOWNNAME":"梧棲區(海)","MARKTYPE":"994","Class":"4"},"geometry":{"x":203307.65930000041,"y":2683889.4166999999}},{"attributes":{"OBJECTID":12861,"LANDMARKID":"1000600000995","LANDMARKCO":"405","LANDMARKNA":"山隆加油站-台中站(中油)","LANDMARKAD":"1000606","ADDRESS":"台中市梧棲區自立路568號","TEL":"04-26392151","COUNTYNAME":"台中市(海)","TOWNNAME":"梧棲區(海)","MARKTYPE":"994","Class":"4"},"geometry":{"x":201938.8041000003,"y":2682101.2613999993}},{"attributes":{"OBJECTID":12862,"LANDMARKID":"1000600000765","LANDMARKCO":"401","LANDMARKNA":"明德醫院","LANDMARKAD":"1000606","ADDRESS":"台中市梧棲區中正里仁美街33巷50號","TEL":"04-26579595","COUNTYNAME":"台中市(海)","TOWNNAME":"梧棲區(海)","MARKTYPE":"994","Class":"4"},"geometry":{"x":202865.61539999954,"y":2683212.8456999995}},{"attributes":{"OBJECTID":12863,"LANDMARKID":"1000600000766","LANDMARKCO":"401","LANDMARKNA":"童綜合醫院-梧棲院區","LANDMARKAD":"1000606","ADDRESS":"台中市梧棲區中棲路一段699號","TEL":"04-26581919","COUNTYNAME":"台中市(海)","TOWNNAME":"梧棲區(海)","MARKTYPE":"994","Class":"4"},"geometry":{"x":203545.57710000034,"y":2682497.5332999993}},{"attributes":{"OBJECTID":12864,"LANDMARKID":"1000600001157","LANDMARKCO":"408","LANDMARKNA":"郵局-梧棲郵局","LANDMARKAD":"1000606","ADDRESS":"台中市梧棲區梧棲路173號","TEL":"(04)2656-5530","COUNTYNAME":"台中市(海)","TOWNNAME":"梧棲區(海)","MARKTYPE":"994","Class":"4"},"geometry":{"x":202232.24509999994,"y":2683630.6229999997}},{"attributes":{"OBJECTID":12865,"LANDMARKID":"1000600001158","LANDMARKCO":"408","LANDMARKNA":"郵局-台中港郵局","LANDMARKAD":"1000606","ADDRESS":"台中市梧棲區四維路129號","TEL":"(04)2657-3645","COUNTYNAME":"台中市(海)","TOWNNAME":"梧棲區(海)","MARKTYPE":"994","Class":"4"},"geometry":{"x":203003.3507000003,"y":2684131.4662999995}},{"attributes":{"OBJECTID":12866,"LANDMARKID":"1000600001159","LANDMARKCO":"408","LANDMARKNA":"郵局-梧棲臨港郵局","LANDMARKAD":"1000606","ADDRESS":"台中市梧棲區中棲路3段2號","TEL":"(04)2656-3400","COUNTYNAME":"台中市(海)","TOWNNAME":"梧棲區(海)","MARKTYPE":"994","Class":"4"},"geometry":{"x":201651.81589999981,"y":2683446.4557000007}},{"attributes":{"OBJECTID":12867,"LANDMARKID":"1000600001160","LANDMARKCO":"408","LANDMARKNA":"郵局-梧棲大庄郵局","LANDMARKAD":"1000606","ADDRESS":"台中市梧棲區中央路1段921-2號","TEL":"(04)2656-1193","COUNTYNAME":"台中市(海)","TOWNNAME":"梧棲區(海)","MARKTYPE":"994","Class":"4"},"geometry":{"x":203117.36239999998,"y":2682621.1239999998}},{"attributes":{"OBJECTID":12868,"LANDMARKID":"1000600001247","LANDMARKCO":"409","LANDMARKNA":"台中市梧棲區農會","LANDMARKAD":"1000606","ADDRESS":"台中市梧棲區港埠路一段545號","TEL":"04-26392611","COUNTYNAME":"台中市(海)","TOWNNAME":"梧棲區(海)","MARKTYPE":"994","Class":"4"},"geometry":{"x":202303.01300000027,"y":2681339.4152000006}},{"attributes":{"OBJECTID":12869,"LANDMARKID":"1000600001117","LANDMARKCO":"406","LANDMARKNA":"港區公園","LANDMARKAD":"1000606","ADDRESS":"台中市梧棲區","TEL":" ","COUNTYNAME":"台中市(海)","TOWNNAME":"梧棲區(海)","MARKTYPE":"994","Class":"4"},"geometry":{"x":201402.88599999994,"y":2683585.4119000006}},{"attributes":{"OBJECTID":12870,"LANDMARKID":"1000600001118","LANDMARKCO":"406","LANDMARKNA":"梧棲區運動公園","LANDMARKAD":"1000606","ADDRESS":"台中市梧棲區","TEL":" ","COUNTYNAME":"台中市(海)","TOWNNAME":"梧棲區(海)","MARKTYPE":"994","Class":"4"},"geometry":{"x":202198.86670000013,"y":2682493.2686000001}},{"attributes":{"OBJECTID":12871,"LANDMARKID":"1000600001016","LANDMARKCO":"405","LANDMARKNA":"台亞加油站-關連站（台塑）","LANDMARKAD":"1000606","ADDRESS":"台中市梧棲區臨港路二段68號","TEL":"(04)2639-9672","COUNTYNAME":"台中市(海)","TOWNNAME":"梧棲區(海)","MARKTYPE":"994","Class":"4"},"geometry":{"x":200700.23489999957,"y":2680445.9449000005}},{"attributes":{"OBJECTID":12872,"LANDMARKID":"1000600000182","LANDMARKCO":"107","LANDMARKNA":"台中港務消防隊第一分隊","LANDMARKAD":"1000606","ADDRESS":"台中市梧棲區中橫四路6號","TEL":"04-26576142","COUNTYNAME":"台中市(海)","TOWNNAME":"梧棲區(海)","MARKTYPE":"991","Class":"1"},"geometry":{"x":201868.29540000018,"y":2684230.3414999992}},{"attributes":{"OBJECTID":12873,"LANDMARKID":"1000600000257","LANDMARKCO":"108","LANDMARKNA":"台中市梧棲區公所","LANDMARKAD":"1000606","ADDRESS":"台中市梧棲區中和街66號","TEL":"04-26564311","COUNTYNAME":"台中市(海)","TOWNNAME":"梧棲區(海)","MARKTYPE":"991","Class":"1"},"geometry":{"x":202436.25399999972,"y":2683320.3608999997}},{"attributes":{"OBJECTID":12874,"LANDMARKID":"1000600000058","LANDMARKCO":"103","LANDMARKNA":"台中市梧棲區鎮民代表會","LANDMARKAD":"1000606","ADDRESS":"台中市梧棲區中和街60號","TEL":"04-26564315","COUNTYNAME":"台中市(海)","TOWNNAME":"梧棲區(海)","MARKTYPE":"991","Class":"1"},"geometry":{"x":202417.32110000029,"y":2683300.2972999997}},{"attributes":{"OBJECTID":12875,"LANDMARKID":"1000600000177","LANDMARKCO":"107","LANDMARKNA":"台中市消防局梧棲分隊","LANDMARKAD":"1000606","ADDRESS":"台中市梧棲區中興路178巷5號1樓","TEL":"04-26562540","COUNTYNAME":"台中市(海)","TOWNNAME":"梧棲區(海)","MARKTYPE":"991","Class":"1"},"geometry":{"x":202695.25509999972,"y":2683320.2818}},{"attributes":{"OBJECTID":12876,"LANDMARKID":"1000600000059","LANDMARKCO":"103","LANDMARKNA":"台中市梧棲區衛生所","LANDMARKAD":"1000606","ADDRESS":"台中市梧棲區雲集街70巷3號","TEL":"04-26562809","COUNTYNAME":"台中市(海)","TOWNNAME":"梧棲區(海)","MARKTYPE":"991","Class":"1"},"geometry":{"x":202475.15350000001,"y":2683350.4914999995}},{"attributes":{"OBJECTID":12877,"LANDMARKID":"1000600000010","LANDMARKCO":"101","LANDMARKNA":"工業局台中港關連工業區服務中","LANDMARKAD":"1000606","ADDRESS":"台中市梧棲區自強路280號","TEL":"04-26392514","COUNTYNAME":"台中市(海)","TOWNNAME":"梧棲區(海)","MARKTYPE":"991","Class":"1"},"geometry":{"x":201638.59590000007,"y":2681385.3641999997}},{"attributes":{"OBJECTID":12878,"LANDMARKID":"1000600000178","LANDMARKCO":"107","LANDMARKNA":"台中市警察局安寧派出所","LANDMARKAD":"1000606","ADDRESS":"台中市梧棲區中棲路二段18號","TEL":"04-26560343","COUNTYNAME":"台中市(海)","TOWNNAME":"梧棲區(海)","MARKTYPE":"991","Class":"1"},"geometry":{"x":203134.05169999972,"y":2682752.5962000005}},{"attributes":{"OBJECTID":12879,"LANDMARKID":"1000600000179","LANDMARKCO":"107","LANDMARKNA":"台中市警察局梧棲分駐所","LANDMARKAD":"1000606","ADDRESS":"台中市梧棲區中正里中興路210號","TEL":"04-26562860","COUNTYNAME":"台中市(海)","TOWNNAME":"梧棲區(海)","MARKTYPE":"991","Class":"1"},"geometry":{"x":202669.14020000026,"y":2683324.6245000008}},{"attributes":{"OBJECTID":12880,"LANDMARKID":"1000600000180","LANDMARKCO":"107","LANDMARKNA":"台中港務警察所","LANDMARKAD":"1000606","ADDRESS":"台中市梧棲區中橫四路2號","TEL":"04-26562174","COUNTYNAME":"台中市(海)","TOWNNAME":"梧棲區(海)","MARKTYPE":"991","Class":"1"},"geometry":{"x":202008.34590000007,"y":2684204.2368999999}},{"attributes":{"OBJECTID":12881,"LANDMARKID":"1000600000181","LANDMARKCO":"107","LANDMARKNA":"內政部入出國及移民署","LANDMARKAD":"1000606","ADDRESS":"臺中縣梧棲區八德路82-1號4樓之6、6樓之6","TEL":"04-26564550","COUNTYNAME":"台中市(海)","TOWNNAME":"梧棲區(海)","MARKTYPE":"991","Class":"1"},"geometry":{"x":202544.0736999996,"y":2684181.1524}},{"attributes":{"OBJECTID":12882,"LANDMARKID":"1000600000111","LANDMARKCO":"106","LANDMARKNA":"台中市梧棲區戶政事務所","LANDMARKAD":"1000606","ADDRESS":"台中市梧棲區中正里24鄰中興路212號","TEL":"04-26562543","COUNTYNAME":"台中市(海)","TOWNNAME":"梧棲區(海)","MARKTYPE":"991","Class":"1"},"geometry":{"x":202674.46129999962,"y":2683336.3123000003}},{"attributes":{"OBJECTID":12883,"LANDMARKID":"1000600000014","LANDMARKCO":"101","LANDMARKNA":"調查局海調處台中站","LANDMARKAD":"1000606","ADDRESS":"臺中縣梧棲區梧棲路47號","TEL":"04-26569127","COUNTYNAME":"台中市(海)","TOWNNAME":"梧棲區(海)","MARKTYPE":"991","Class":"1"},"geometry":{"x":202122.53949999996,"y":2683273.8460000008}},{"attributes":{"OBJECTID":12884,"LANDMARKID":"1000600000015","LANDMARKCO":"101","LANDMARKNA":"運輸研究所港灣技術研究中心","LANDMARKAD":"1000606","ADDRESS":"台中市梧棲區中橫十路2號","TEL":"04-26587200","COUNTYNAME":"台中市(海)","TOWNNAME":"梧棲區(海)","MARKTYPE":"991","Class":"1"},"geometry":{"x":202166.84680000041,"y":2684990.3848000001}},{"attributes":{"OBJECTID":12885,"LANDMARKID":"1000600000176","LANDMARKCO":"107","LANDMARKNA":"台中市消防局第四大隊部","LANDMARKAD":"1000606","ADDRESS":"台中市沙鹿區鎮南路二段476號","TEL":"04-26320119","COUNTYNAME":"台中市(海)","TOWNNAME":"梧棲區(海)","MARKTYPE":"991","Class":"1"},"geometry":{"x":202690.25509999972,"y":2683320.2651000004}},{"attributes":{"OBJECTID":12886,"LANDMARKID":"1000600000011","LANDMARKCO":"101","LANDMARKNA":"衛生署疾病管制局第三分局","LANDMARKAD":"1000606","ADDRESS":"台中市梧棲區中棲路三段2號","TEL":"04-26562514","COUNTYNAME":"台中市(海)","TOWNNAME":"梧棲區(海)","MARKTYPE":"991","Class":"1"},"geometry":{"x":201621.82330000028,"y":2683460.4721000008}},{"attributes":{"OBJECTID":12887,"LANDMARKID":"1000600000012","LANDMARKCO":"101","LANDMARKNA":"經濟部加工出口區管理處中港分","LANDMARKAD":"1000606","ADDRESS":"台中市梧棲區草湳里大觀路6號","TEL":"04-26581215","COUNTYNAME":"台中市(海)","TOWNNAME":"梧棲區(海)","MARKTYPE":"991","Class":"1"},"geometry":{"x":202729.03120000008,"y":2684310.3844000008}},{"attributes":{"OBJECTID":12888,"LANDMARKID":"1000600000013","LANDMARKCO":"101","LANDMARKNA":"交通部台中港務局","LANDMARKAD":"1000606","ADDRESS":"台中市梧棲區中棲路三段2號","TEL":"04-26562611","COUNTYNAME":"台中市(海)","TOWNNAME":"梧棲區(海)","MARKTYPE":"991","Class":"1"},"geometry":{"x":201621.82330000028,"y":2683460.4721000008}},{"attributes":{"OBJECTID":12889,"LANDMARKID":"1000600000089","LANDMARKCO":"104","LANDMARKNA":"關稅總局台中關稅局","LANDMARKAD":"1000606","ADDRESS":"台中市梧棲區中棲路三段2號","TEL":"04-26565101","COUNTYNAME":"台中市(海)","TOWNNAME":"梧棲區(海)","MARKTYPE":"991","Class":"1"},"geometry":{"x":201648.89140000008,"y":2683440.5646000002}},{"attributes":{"OBJECTID":12890,"LANDMARKID":"1000600000175","LANDMARKCO":"107","LANDMARKNA":"台中港務消防隊台中港務","LANDMARKAD":"1000606","ADDRESS":"台中市梧棲區中棲路3段91巷90號","TEL":"04-26572480","COUNTYNAME":"台中市(海)","TOWNNAME":"梧棲區(海)","MARKTYPE":"991","Class":"1"},"geometry":{"x":201868.29540000018,"y":2684230.3414999992}},{"attributes":{"OBJECTID":12891,"LANDMARKID":"1000600000537","LANDMARKCO":"204","LANDMARKNA":"台中市立圖書館梧棲分館","LANDMARKAD":"1000606","ADDRESS":"台中市梧棲區雲集街72號","TEL":" ","COUNTYNAME":"台中市(海)","TOWNNAME":"梧棲區(海)","MARKTYPE":"992","Class":"2"},"geometry":{"x":202504.20870000031,"y":2683277.7124000005}},{"attributes":{"OBJECTID":12892,"LANDMARKID":"1000600000500","LANDMARKCO":"203","LANDMARKNA":"縣立梧棲國中","LANDMARKAD":"1000606","ADDRESS":"台中市梧棲區民生街12號","TEL":"04-26562850","COUNTYNAME":"台中市(海)","TOWNNAME":"梧棲區(海)","MARKTYPE":"992","Class":"2"},"geometry":{"x":202621.72319999989,"y":2683180.0360000003}},{"attributes":{"OBJECTID":12893,"LANDMARKID":"1000600000501","LANDMARKCO":"203","LANDMARKNA":"縣立梧棲國小","LANDMARKAD":"1000606","ADDRESS":"台中市梧棲區民生街45號","TEL":"04-26562834","COUNTYNAME":"台中市(海)","TOWNNAME":"梧棲區(海)","MARKTYPE":"992","Class":"2"},"geometry":{"x":202373.99270000029,"y":2683090.1550999992}},{"attributes":{"OBJECTID":12894,"LANDMARKID":"1000600000502","LANDMARKCO":"203","LANDMARKNA":"縣立梧南國小","LANDMARKAD":"1000606","ADDRESS":"台中市梧棲區草湳里梧南路50號","TEL":"04-26391661","COUNTYNAME":"台中市(海)","TOWNNAME":"梧棲區(海)","MARKTYPE":"992","Class":"2"},"geometry":{"x":201625.69280000031,"y":2681960.5031000003}},{"attributes":{"OBJECTID":12895,"LANDMARKID":"1000600000281","LANDMARKCO":"202","LANDMARKNA":"縣立中港高中","LANDMARKAD":"1000606","ADDRESS":"台中市梧棲區文昌路400號","TEL":"04-26578270","COUNTYNAME":"台中市(海)","TOWNNAME":"梧棲區(海)","MARKTYPE":"992","Class":"2"},"geometry":{"x":203503.20110000018,"y":2682210.8013000004}},{"attributes":{"OBJECTID":12896,"LANDMARKID":"1000600000282","LANDMARKCO":"202","LANDMARKNA":"縣立中港高中附設國中部","LANDMARKAD":"1000606","ADDRESS":"台中市梧棲區文昌路400號","TEL":"04-26578270","COUNTYNAME":"台中市(海)","TOWNNAME":"梧棲區(海)","MARKTYPE":"992","Class":"2"},"geometry":{"x":203503.20110000018,"y":2682210.8013000004}},{"attributes":{"OBJECTID":12897,"LANDMARKID":"1000600000496","LANDMARKCO":"203","LANDMARKNA":"縣立永寧國小","LANDMARKAD":"1000606","ADDRESS":"台中市梧棲區中央路一段160號","TEL":"04-26394234","COUNTYNAME":"台中市(海)","TOWNNAME":"梧棲區(海)","MARKTYPE":"992","Class":"2"},"geometry":{"x":202563.42310000025,"y":2680462.9877000004}},{"attributes":{"OBJECTID":12898,"LANDMARKID":"1000600000497","LANDMARKCO":"203","LANDMARKNA":"縣立中正國小","LANDMARKAD":"1000606","ADDRESS":"台中市梧棲區福德里中央路二段15號","TEL":"04-26560844","COUNTYNAME":"台中市(海)","TOWNNAME":"梧棲區(海)","MARKTYPE":"992","Class":"2"},"geometry":{"x":203101.95370000042,"y":2682857.0266999993}},{"attributes":{"OBJECTID":12899,"LANDMARKID":"1000600000498","LANDMARKCO":"203","LANDMARKNA":"縣立中港國小","LANDMARKAD":"1000606","ADDRESS":"台中市梧棲區文明街100號","TEL":"04-26655929","COUNTYNAME":"台中市(海)","TOWNNAME":"梧棲區(海)","MARKTYPE":"992","Class":"2"},"geometry":{"x":204833.43939999957,"y":2681744.1886999998}},{"attributes":{"OBJECTID":12900,"LANDMARKID":"1000600000499","LANDMARKCO":"203","LANDMARKNA":"縣立大德國小","LANDMARKAD":"1000606","ADDRESS":"台中市梧棲區文昌路343號","TEL":"04-26568928","COUNTYNAME":"台中市(海)","TOWNNAME":"梧棲區(海)","MARKTYPE":"992","Class":"2"},"geometry":{"x":203503.25860000029,"y":2682071.5647}},{"attributes":{"OBJECTID":12901,"LANDMARKID":"1000600000676","LANDMARKCO":"305","LANDMARKNA":"台中港務局","LANDMARKAD":"1000606","ADDRESS":"台中市梧棲區中棲路三段2號","TEL":"04-26562611","COUNTYNAME":"台中市(海)","TOWNNAME":"梧棲區(海)","MARKTYPE":"993","Class":"305"},"geometry":{"x":201586.04000000004,"y":2683475.5298999995}},{"attributes":{"OBJECTID":12902,"LANDMARKID":"1000600000744","LANDMARKCO":"308","LANDMARKNA":"台61-龍井交流道-南下","LANDMARKAD":"1000606","ADDRESS":" ","TEL":" ","COUNTYNAME":"台中市(海)","TOWNNAME":"梧棲區(海)","MARKTYPE":"993","Class":"308"},"geometry":{"x":201657.33220000006,"y":2679758.5581999999}},{"attributes":{"OBJECTID":12903,"LANDMARKID":"1000600000657","LANDMARKCO":"303","LANDMARKNA":"港區一號停車場","LANDMARKAD":"1000606","ADDRESS":"台中市梧棲區","TEL":" ","COUNTYNAME":"台中市(海)","TOWNNAME":"梧棲區(海)","MARKTYPE":"993","Class":"303"},"geometry":{"x":202481.76140000019,"y":2684181.4416000005}},{"attributes":{"OBJECTID":12904,"LANDMARKID":"1000600000658","LANDMARKCO":"303","LANDMARKNA":"南突堤停車場","LANDMARKAD":"1000606","ADDRESS":"台中市梧棲區","TEL":" ","COUNTYNAME":"台中市(海)","TOWNNAME":"梧棲區(海)","MARKTYPE":"993","Class":"303"},"geometry":{"x":202042.59769999981,"y":2684933.6403000001}},{"attributes":{"OBJECTID":12905,"LANDMARKID":"1000600000835","LANDMARKCO":"402","LANDMARKNA":"中華電信-梧棲服務中心","LANDMARKAD":"1000606","ADDRESS":"台中市梧棲區大智路二段197號","TEL":"123或0800-080-123","COUNTYNAME":"台中市(海)","TOWNNAME":"梧棲區(海)","MARKTYPE":"994","Class":"4"},"geometry":{"x":202985.01290000044,"y":2683701.3023000006}},{"attributes":{"OBJECTID":12906,"LANDMARKID":"1000600001397","LANDMARKCO":"603","LANDMARKNA":"國都大飯店","LANDMARKAD":"1000606","ADDRESS":"台中市梧棲區大智路二段346號","TEL":"04-26571181","COUNTYNAME":"台中市(海)","TOWNNAME":"梧棲區(海)","MARKTYPE":"996","Class":"6"},"geometry":{"x":202665.61099999957,"y":2683533.8962999992}},{"attributes":{"OBJECTID":12907,"LANDMARKID":"1000600001398","LANDMARKCO":"603","LANDMARKNA":"進方大飯店","LANDMARKAD":"1000606","ADDRESS":"台中市梧棲區港埠路二段431巷22號","TEL":"04-26578822","COUNTYNAME":"台中市(海)","TOWNNAME":"梧棲區(海)","MARKTYPE":"996","Class":"6"},"geometry":{"x":203268.3543999996,"y":2683906.3015000001}},{"attributes":{"OBJECTID":12908,"LANDMARKID":"1000600001399","LANDMARKCO":"603","LANDMARKNA":"山多力商務汽車旅館","LANDMARKAD":"1000606","ADDRESS":"台中市梧棲區大仁路二段291巷10號","TEL":"04-26569668","COUNTYNAME":"台中市(海)","TOWNNAME":"梧棲區(海)","MARKTYPE":"996","Class":"6"},"geometry":{"x":202838.50519999955,"y":2684168.7495000008}},{"attributes":{"OBJECTID":12909,"LANDMARKID":"1000600001326","LANDMARKCO":"511","LANDMARKNA":"中港舶來品商店街","LANDMARKAD":"1000606","ADDRESS":"台中市龍井區","TEL":" ","COUNTYNAME":"台中市(海)","TOWNNAME":"梧棲區(海)","MARKTYPE":"995","Class":"5"},"geometry":{"x":202454.7854000004,"y":2684928.7222000007}},{"attributes":{"OBJECTID":12910,"LANDMARKID":"1000600001011","LANDMARKCO":"405","LANDMARKNA":"山隆加油站-東勢站(中油)","LANDMARKAD":"1000602","ADDRESS":"台中市東勢區東關路503-1號","TEL":"(04)2577-1655","COUNTYNAME":"台中市","TOWNNAME":"東勢區","MARKTYPE":"994","Class":"4"},"geometry":{"x":233454.76790000033,"y":2680515.3157000002}},{"attributes":{"OBJECTID":12911,"LANDMARKID":"1000600001012","LANDMARKCO":"405","LANDMARKNA":"中油加油站-東勢站(中油直營)","LANDMARKAD":"1000602","ADDRESS":"台中市東勢區粵寧里豐勢路678號","TEL":"04-25872454","COUNTYNAME":"台中市","TOWNNAME":"東勢區","MARKTYPE":"994","Class":"4"},"geometry":{"x":232126.7779000001,"y":2684009.5493999999}},{"attributes":{"OBJECTID":12912,"LANDMARKID":"1000600001013","LANDMARKCO":"405","LANDMARKNA":"中油加油站-億富站","LANDMARKAD":"1000602","ADDRESS":"台中市東勢區詒福里東關路496號","TEL":"04-25853908","COUNTYNAME":"台中市","TOWNNAME":"東勢區","MARKTYPE":"994","Class":"4"},"geometry":{"x":233464.29719999991,"y":2680295.7419000007}},{"attributes":{"OBJECTID":12913,"LANDMARKID":"1000600001014","LANDMARKCO":"405","LANDMARKNA":"中油加油站-東成站","LANDMARKAD":"1000602","ADDRESS":"台中市東勢區東關街206-2號","TEL":"04-25852721","COUNTYNAME":"台中市","TOWNNAME":"東勢區","MARKTYPE":"994","Class":"4"},"geometry":{"x":233749.27869999968,"y":2676115.4978}},{"attributes":{"OBJECTID":12914,"LANDMARKID":"1000600000836","LANDMARKCO":"402","LANDMARKNA":"亞太行動寬頻電信-台中東勢加盟服務中心","LANDMARKAD":"1000602","ADDRESS":"台中市東勢區豐勢路480號","TEL":"04-25870708","COUNTYNAME":"台中市","TOWNNAME":"東勢區","MARKTYPE":"994","Class":"4"},"geometry":{"x":232594.8013000004,"y":2683498.1054999996}},{"attributes":{"OBJECTID":12915,"LANDMARKID":"1000600000767","LANDMARKCO":"401","LANDMARKNA":"協和醫院","LANDMARKAD":"1000602","ADDRESS":"台中市東勢區豐勢路318號","TEL":"04-25872113","COUNTYNAME":"台中市","TOWNNAME":"東勢區","MARKTYPE":"994","Class":"4"},"geometry":{"x":232749.96410000045,"y":2683058.2957000006}},{"attributes":{"OBJECTID":12916,"LANDMARKID":"1000600000768","LANDMARKCO":"401","LANDMARKNA":"東勢區農會附設農民醫院","LANDMARKAD":"1000602","ADDRESS":"台中市東勢區南平里豐勢路297號","TEL":"04-25871919","COUNTYNAME":"台中市","TOWNNAME":"東勢區","MARKTYPE":"994","Class":"4"},"geometry":{"x":232698.87609999999,"y":2683130.2334000003}},{"attributes":{"OBJECTID":12917,"LANDMARKID":"1000600001155","LANDMARKCO":"408","LANDMARKNA":"郵局-東勢郵局","LANDMARKAD":"1000602","ADDRESS":"台中市東勢區中山路43號","TEL":"(04)2587-2701","COUNTYNAME":"台中市","TOWNNAME":"東勢區","MARKTYPE":"994","Class":"4"},"geometry":{"x":232753.80530000012,"y":2683496.3040999994}},{"attributes":{"OBJECTID":12918,"LANDMARKID":"1000600001156","LANDMARKCO":"408","LANDMARKNA":"郵局-東勢中嵙口郵局","LANDMARKAD":"1000602","ADDRESS":"台中市東勢區豐勢路188、190號","TEL":"(04)2587-2614","COUNTYNAME":"台中市","TOWNNAME":"東勢區","MARKTYPE":"994","Class":"4"},"geometry":{"x":232812.7324000001,"y":2682738.9843000006}},{"attributes":{"OBJECTID":12919,"LANDMARKID":"1000600001248","LANDMARKCO":"409","LANDMARKNA":"台中市東勢區農會","LANDMARKAD":"1000602","ADDRESS":"台中市東勢區豐勢路297號","TEL":"04-25872151","COUNTYNAME":"台中市","TOWNNAME":"東勢區","MARKTYPE":"994","Class":"4"},"geometry":{"x":233247.86450000014,"y":2681090.8684}},{"attributes":{"OBJECTID":12920,"LANDMARKID":"1000600000893","LANDMARKCO":"404","LANDMARKNA":"台灣自來水東勢營運所","LANDMARKAD":"1000602","ADDRESS":"臺中縣東勢區中寧里正一街8號","TEL":"04-25874316","COUNTYNAME":"台中市","TOWNNAME":"東勢區","MARKTYPE":"994","Class":"4"},"geometry":{"x":233130.00690000039,"y":2683298.1854999997}},{"attributes":{"OBJECTID":12921,"LANDMARKID":"1000600001119","LANDMARKCO":"406","LANDMARKNA":"河濱公園","LANDMARKAD":"1000602","ADDRESS":"台中市東勢區","TEL":" ","COUNTYNAME":"台中市","TOWNNAME":"東勢區","MARKTYPE":"994","Class":"4"},"geometry":{"x":232100.74289999995,"y":2683603.7620999999}},{"attributes":{"OBJECTID":12922,"LANDMARKID":"1000600000892","LANDMARKCO":"404","LANDMARKNA":"台灣省自來水東勢營運所","LANDMARKAD":"1000602","ADDRESS":"台中市東勢區中寧里正一街8號","TEL":" ","COUNTYNAME":"台中市","TOWNNAME":"東勢區","MARKTYPE":"994","Class":"4"},"geometry":{"x":232306.99600000028,"y":2683440.2572000008}},{"attributes":{"OBJECTID":12923,"LANDMARKID":"1000600001015","LANDMARKCO":"405","LANDMARKNA":"台塑加油站-東錡站(台塑)","LANDMARKAD":"1000602","ADDRESS":"台中市東勢區中寧里中正路332號","TEL":"04-25888938","COUNTYNAME":"台中市","TOWNNAME":"東勢區","MARKTYPE":"994","Class":"4"},"geometry":{"x":232196.0449000001,"y":2683579.7916000001}},{"attributes":{"OBJECTID":12924,"LANDMARKID":"1000600000173","LANDMARKCO":"107","LANDMARKNA":"台中市消防局第二大隊部","LANDMARKAD":"1000602","ADDRESS":"台中市東勢區東安里中正路306號3樓","TEL":"04-25770018","COUNTYNAME":"台中市","TOWNNAME":"東勢區","MARKTYPE":"991","Class":"1"},"geometry":{"x":232305.68649999984,"y":2683280.1028000005}},{"attributes":{"OBJECTID":12925,"LANDMARKID":"1000600000174","LANDMARKCO":"107","LANDMARKNA":"台中市消防局東勢分隊","LANDMARKAD":"1000602","ADDRESS":"台中市東勢區東安里中正路306號2樓","TEL":"04-25873304","COUNTYNAME":"台中市","TOWNNAME":"東勢區","MARKTYPE":"991","Class":"1"},"geometry":{"x":232314.68659999967,"y":2683280.1140000001}},{"attributes":{"OBJECTID":12926,"LANDMARKID":"1000600000258","LANDMARKCO":"108","LANDMARKNA":"台中市東勢區公所","LANDMARKAD":"1000602","ADDRESS":"台中市東勢區豐勢路518號","TEL":"04-25872106","COUNTYNAME":"台中市","TOWNNAME":"東勢區","MARKTYPE":"991","Class":"1"},"geometry":{"x":232545.34190000035,"y":2683683.0581999999}},{"attributes":{"OBJECTID":12927,"LANDMARKID":"1000600000016","LANDMARKCO":"101","LANDMARKNA":"職業訓練局東勢就業服務台","LANDMARKAD":"1000602","ADDRESS":"台中市東勢區豐勢路518號","TEL":"04-25879493","COUNTYNAME":"台中市","TOWNNAME":"東勢區","MARKTYPE":"991","Class":"1"},"geometry":{"x":232545.34190000035,"y":2683683.0581999999}},{"attributes":{"OBJECTID":12928,"LANDMARKID":"1000600000057","LANDMARKCO":"103","LANDMARKNA":"台中市東勢區鎮民代表會","LANDMARKAD":"1000602","ADDRESS":"台中市東勢區豐勢路518號","TEL":"04-25888761","COUNTYNAME":"台中市","TOWNNAME":"東勢區","MARKTYPE":"991","Class":"1"},"geometry":{"x":232545.34190000035,"y":2683683.0581999999}},{"attributes":{"OBJECTID":12929,"LANDMARKID":"1000600000169","LANDMARKCO":"107","LANDMARKNA":"台中市警察局東勢分局","LANDMARKAD":"1000602","ADDRESS":"台中市東勢區北興里豐勢路512號","TEL":"04-25872013","COUNTYNAME":"台中市","TOWNNAME":"東勢區","MARKTYPE":"991","Class":"1"},"geometry":{"x":232556.30269999988,"y":2683658.1217}},{"attributes":{"OBJECTID":12930,"LANDMARKID":"1000600000170","LANDMARKCO":"107","LANDMARKNA":"台中市警察局茅埔派出所","LANDMARKAD":"1000602","ADDRESS":"台中市東勢區慶東里東關路243號","TEL":"04-25852472","COUNTYNAME":"台中市","TOWNNAME":"東勢區","MARKTYPE":"991","Class":"1"},"geometry":{"x":233735.57859999966,"y":2677349.3453000002}},{"attributes":{"OBJECTID":12931,"LANDMARKID":"1000600000171","LANDMARKCO":"107","LANDMARKNA":"台中市警察局中坑派出所","LANDMARKAD":"1000602","ADDRESS":"臺中縣東勢區隆興里東坑路665號","TEL":"04-25874474","COUNTYNAME":"台中市","TOWNNAME":"東勢區","MARKTYPE":"991","Class":"1"},"geometry":{"x":235198.89680000022,"y":2681202.2057000007}},{"attributes":{"OBJECTID":12932,"LANDMARKID":"1000600000172","LANDMARKCO":"107","LANDMARKNA":"台中市警察局東勢派出所","LANDMARKAD":"1000602","ADDRESS":"台中市東勢區北興里豐勢路512號","TEL":"04-25873802","COUNTYNAME":"台中市","TOWNNAME":"東勢區","MARKTYPE":"991","Class":"1"},"geometry":{"x":232556.30269999988,"y":2683658.1217}},{"attributes":{"OBJECTID":12933,"LANDMARKID":"1000600000096","LANDMARKCO":"105","LANDMARKNA":"台中市東勢地政事務所","LANDMARKAD":"1000602","ADDRESS":"臺中縣東勢區東新里東蘭路26號","TEL":"04-25886008","COUNTYNAME":"台中市","TOWNNAME":"東勢區","MARKTYPE":"991","Class":"1"},"geometry":{"x":232440.1409,"y":2684144.8989000004}},{"attributes":{"OBJECTID":12934,"LANDMARKID":"1000600000110","LANDMARKCO":"106","LANDMARKNA":"台中市東勢區戶政事務所","LANDMARKAD":"1000602","ADDRESS":"台中市東勢區豐勢路516號","TEL":"04-25873644","COUNTYNAME":"台中市","TOWNNAME":"東勢區","MARKTYPE":"991","Class":"1"},"geometry":{"x":232550.46810000017,"y":2683669.9645000007}},{"attributes":{"OBJECTID":12935,"LANDMARKID":"1000600000056","LANDMARKCO":"103","LANDMARKNA":"台中市東勢區衛生所","LANDMARKAD":"1000602","ADDRESS":"台中市東勢區中寧里豐勢路490號","TEL":"04-25873872","COUNTYNAME":"台中市","TOWNNAME":"東勢區","MARKTYPE":"991","Class":"1"},"geometry":{"x":232573.99299999978,"y":2683569.6739000008}},{"attributes":{"OBJECTID":12936,"LANDMARKID":"1000600000090","LANDMARKCO":"104","LANDMARKNA":"中區國稅局東勢稽徵所","LANDMARKAD":"1000602","ADDRESS":"台中市東勢區正二街臨1號","TEL":"04-25881178","COUNTYNAME":"台中市","TOWNNAME":"東勢區","MARKTYPE":"991","Class":"1"},"geometry":{"x":232417.79119999986,"y":2684120.2411000002}},{"attributes":{"OBJECTID":12937,"LANDMARKID":"1000600000017","LANDMARKCO":"101","LANDMARKNA":"林務局東勢林區管理處雙崎工作站","LANDMARKAD":"1000602","ADDRESS":"台中市東勢區東關街647號","TEL":"04-25773103","COUNTYNAME":"台中市","TOWNNAME":"東勢區","MARKTYPE":"991","Class":"1"},"geometry":{"x":233011.81450000033,"y":2682260.2720999997}},{"attributes":{"OBJECTID":12938,"LANDMARKID":"1000600000168","LANDMARKCO":"107","LANDMARKNA":"台中市警察局石城派出所","LANDMARKAD":"1000602","ADDRESS":"臺中縣東勢區隆興里泰興里石城街297號","TEL":"04-25874473","COUNTYNAME":"台中市","TOWNNAME":"東勢區","MARKTYPE":"991","Class":"1"},"geometry":{"x":228634.88800000027,"y":2686800.1079999991}},{"attributes":{"OBJECTID":12939,"LANDMARKID":"1000600000570","LANDMARKCO":"205","LANDMARKNA":"梨文化館","LANDMARKAD":"1000602","ADDRESS":"台中市東勢區東崎街東北巷14號","TEL":"04-25879586","COUNTYNAME":"台中市","TOWNNAME":"東勢區","MARKTYPE":"992","Class":"2"},"geometry":{"x":236184.65350000001,"y":2685075.6706000008}},{"attributes":{"OBJECTID":12940,"LANDMARKID":"1000600000538","LANDMARKCO":"204","LANDMARKNA":"台中市立圖書館東勢分館","LANDMARKAD":"1000602","ADDRESS":"台中市東勢區豐勢路518號","TEL":" ","COUNTYNAME":"台中市","TOWNNAME":"東勢區","MARKTYPE":"992","Class":"2"},"geometry":{"x":232505.69830000028,"y":2683758.0140000004}},{"attributes":{"OBJECTID":12941,"LANDMARKID":"1000600000491","LANDMARKCO":"203","LANDMARKNA":"縣立石城國小","LANDMARKAD":"1000602","ADDRESS":"台中市東勢區茂興里石城街17號","TEL":"04-25873152","COUNTYNAME":"台中市","TOWNNAME":"東勢區","MARKTYPE":"992","Class":"2"},"geometry":{"x":228914.93360000011,"y":2686770.1038000006}},{"attributes":{"OBJECTID":12942,"LANDMARKID":"1000600000492","LANDMARKCO":"203","LANDMARKNA":"縣立石角國小","LANDMARKAD":"1000602","ADDRESS":"台中市東勢區東坑街西盛巷22號","TEL":"04-25873011","COUNTYNAME":"台中市","TOWNNAME":"東勢區","MARKTYPE":"992","Class":"2"},"geometry":{"x":234797.78579999972,"y":2681380.0416000001}},{"attributes":{"OBJECTID":12943,"LANDMARKID":"1000600000493","LANDMARKCO":"203","LANDMARKNA":"縣立中科國小","LANDMARKAD":"1000602","ADDRESS":"台中市東勢區東崎街91號","TEL":"04-25872534","COUNTYNAME":"台中市","TOWNNAME":"東勢區","MARKTYPE":"992","Class":"2"},"geometry":{"x":237188.96250000037,"y":2683638.3471000008}},{"attributes":{"OBJECTID":12944,"LANDMARKID":"1000600000494","LANDMARKCO":"203","LANDMARKNA":"縣立東勢國中","LANDMARKAD":"1000602","ADDRESS":"台中市東勢區東崎街385號","TEL":"04-25873843","COUNTYNAME":"台中市","TOWNNAME":"東勢區","MARKTYPE":"992","Class":"2"},"geometry":{"x":232985.9645999996,"y":2682750.2401999999}},{"attributes":{"OBJECTID":12945,"LANDMARKID":"1000600000495","LANDMARKCO":"203","LANDMARKNA":"縣立中山國小","LANDMARKAD":"1000602","ADDRESS":"台中市東勢區泰昌里東崎街252巷3-8號","TEL":"04-25872471","COUNTYNAME":"台中市","TOWNNAME":"東勢區","MARKTYPE":"992","Class":"2"},"geometry":{"x":233271.98570000008,"y":2683040.2405999992}},{"attributes":{"OBJECTID":12946,"LANDMARKID":"1000600000283","LANDMARKCO":"202","LANDMARKNA":"國立東勢高工","LANDMARKAD":"1000602","ADDRESS":"台中市東勢區泰昌里東崎街319號","TEL":"04-25872136","COUNTYNAME":"台中市","TOWNNAME":"東勢區","MARKTYPE":"992","Class":"2"},"geometry":{"x":233386.65620000008,"y":2682552.1822999995}},{"attributes":{"OBJECTID":12947,"LANDMARKID":"1000600000284","LANDMARKCO":"202","LANDMARKNA":"私立玉山高中","LANDMARKAD":"1000602","ADDRESS":"台中市東勢區東崎街125之5號","TEL":"04-25771313","COUNTYNAME":"台中市","TOWNNAME":"東勢區","MARKTYPE":"992","Class":"2"},"geometry":{"x":234232.32710000034,"y":2682775.6394999996}},{"attributes":{"OBJECTID":12948,"LANDMARKID":"1000600000482","LANDMARKCO":"203","LANDMARKNA":"縣立成功國小","LANDMARKAD":"1000602","ADDRESS":"台中市東勢區慶東里東關路298號","TEL":"04-25852040","COUNTYNAME":"台中市","TOWNNAME":"東勢區","MARKTYPE":"992","Class":"2"},"geometry":{"x":233731.24749999959,"y":2678017.8695}},{"attributes":{"OBJECTID":12949,"LANDMARKID":"1000600000483","LANDMARKCO":"203","LANDMARKNA":"縣立新盛國小","LANDMARKAD":"1000602","ADDRESS":"台中市東勢區新盛里新盛街342號","TEL":"04-25876642","COUNTYNAME":"台中市","TOWNNAME":"東勢區","MARKTYPE":"992","Class":"2"},"geometry":{"x":232797.59300000034,"y":2681984.8740999997}},{"attributes":{"OBJECTID":12950,"LANDMARKID":"1000600000484","LANDMARKCO":"203","LANDMARKNA":"縣立東新國小","LANDMARKAD":"1000602","ADDRESS":"台中市東勢區東蘭路1之1號","TEL":"04-25881083","COUNTYNAME":"台中市","TOWNNAME":"東勢區","MARKTYPE":"992","Class":"2"},"geometry":{"x":232437.8713999996,"y":2683860.9364999998}},{"attributes":{"OBJECTID":12951,"LANDMARKID":"1000600000485","LANDMARKCO":"203","LANDMARKNA":"縣立東華國中","LANDMARKAD":"1000602","ADDRESS":"台中市東勢區東關街296號","TEL":"04-25853219","COUNTYNAME":"台中市","TOWNNAME":"東勢區","MARKTYPE":"992","Class":"2"},"geometry":{"x":233772.67960000038,"y":2677770.1674000006}},{"attributes":{"OBJECTID":12952,"LANDMARKID":"1000600000486","LANDMARKCO":"203","LANDMARKNA":"縣立東新國中","LANDMARKAD":"1000602","ADDRESS":"台中市東勢區東蘭街28之1號","TEL":"04-25872684","COUNTYNAME":"台中市","TOWNNAME":"東勢區","MARKTYPE":"992","Class":"2"},"geometry":{"x":232684.69610000029,"y":2684200.2189000007}},{"attributes":{"OBJECTID":12953,"LANDMARKID":"1000600000487","LANDMARKCO":"203","LANDMARKNA":"縣立中坑國小","LANDMARKAD":"1000602","ADDRESS":"台中市和平區中坑村中坑巷41號","TEL":"04-25874992","COUNTYNAME":"台中市","TOWNNAME":"東勢區","MARKTYPE":"992","Class":"2"},"geometry":{"x":237808.95469999965,"y":2681230.2002000008}},{"attributes":{"OBJECTID":12954,"LANDMARKID":"1000600000488","LANDMARKCO":"203","LANDMARKNA":"縣立明正國小","LANDMARKAD":"1000602","ADDRESS":"台中市東勢區明正里永盛巷57之1號","TEL":"04-25874455","COUNTYNAME":"台中市","TOWNNAME":"東勢區","MARKTYPE":"992","Class":"2"},"geometry":{"x":228716.82959999982,"y":2689300.2261999995}},{"attributes":{"OBJECTID":12955,"LANDMARKID":"1000600000489","LANDMARKCO":"203","LANDMARKNA":"縣立東勢國小","LANDMARKAD":"1000602","ADDRESS":"台中市東勢區廣興里第5橫街1號","TEL":"04-25873442","COUNTYNAME":"台中市","TOWNNAME":"東勢區","MARKTYPE":"992","Class":"2"},"geometry":{"x":232787.94379999954,"y":2683690.3452000003}},{"attributes":{"OBJECTID":12956,"LANDMARKID":"1000600000490","LANDMARKCO":"203","LANDMARKNA":"縣立新成國小","LANDMARKAD":"1000602","ADDRESS":"台中市東勢區東關街367巷40號","TEL":"04-25853447","COUNTYNAME":"台中市","TOWNNAME":"東勢區","MARKTYPE":"992","Class":"2"},"geometry":{"x":233689.76510000043,"y":2679540.0699000005}},{"attributes":{"OBJECTID":12957,"LANDMARKID":"1000600000594","LANDMARKCO":"302","LANDMARKNA":"豐原汽車客運東勢站","LANDMARKAD":"1000602","ADDRESS":"台中市東勢區豐勢路488號","TEL":" ","COUNTYNAME":"台中市","TOWNNAME":"東勢區","MARKTYPE":"993","Class":"302"},"geometry":{"x":232583.1660000002,"y":2683523.4657000005}},{"attributes":{"OBJECTID":12958,"LANDMARKID":"1000600000595","LANDMARKCO":"302","LANDMARKNA":"統聯客運-東勢站-自營站","LANDMARKAD":"1000602","ADDRESS":"台中市東勢區中正路362號","TEL":"連絡電話:04-258","COUNTYNAME":"台中市","TOWNNAME":"東勢區","MARKTYPE":"993","Class":"302"},"geometry":{"x":232146.08609999996,"y":2683660.8647000007}},{"attributes":{"OBJECTID":12959,"LANDMARKID":"1000600000655","LANDMARKCO":"303","LANDMARKNA":"東勢林場停車場","LANDMARKAD":"1000602","ADDRESS":"台中市東勢區","TEL":"04-25872191","COUNTYNAME":"台中市","TOWNNAME":"東勢區","MARKTYPE":"993","Class":"303"},"geometry":{"x":236563.35089999996,"y":2686749.4442999996}},{"attributes":{"OBJECTID":12960,"LANDMARKID":"1000600000656","LANDMARKCO":"303","LANDMARKNA":"河濱公園停車場","LANDMARKAD":"1000602","ADDRESS":"台中市東勢區","TEL":" ","COUNTYNAME":"台中市","TOWNNAME":"東勢區","MARKTYPE":"993","Class":"303"},"geometry":{"x":232172.12260000035,"y":2683638.4763999991}},{"attributes":{"OBJECTID":12961,"LANDMARKID":"1000600000583","LANDMARKCO":"301","LANDMARKNA":"東勢火車站(閒)","LANDMARKAD":"1000602","ADDRESS":"台中市東勢區","TEL":" ","COUNTYNAME":"台中市","TOWNNAME":"東勢區","MARKTYPE":"993","Class":"301"},"geometry":{"x":232940.51260000002,"y":2683595.1997999996}},{"attributes":{"OBJECTID":12962,"LANDMARKID":"1000600000833","LANDMARKCO":"402","LANDMARKNA":"中華電信-東勢豐勢特約服務中心","LANDMARKAD":"1000602","ADDRESS":"台中市東勢區豐勢路337號","TEL":"04-25771199","COUNTYNAME":"台中市","TOWNNAME":"東勢區","MARKTYPE":"994","Class":"4"},"geometry":{"x":232670.74749999959,"y":2683235.2030999996}},{"attributes":{"OBJECTID":12963,"LANDMARKID":"1000600000834","LANDMARKCO":"402","LANDMARKNA":"威寶電信-東勢豐勢特約服務中心","LANDMARKAD":"1000602","ADDRESS":"台中市東勢區豐勢路524號","TEL":"04-25885165","COUNTYNAME":"台中市","TOWNNAME":"東勢區","MARKTYPE":"994","Class":"4"},"geometry":{"x":232506.90490000043,"y":2683721.3519000001}},{"attributes":{"OBJECTID":12964,"LANDMARKID":"1000600001400","LANDMARKCO":"603","LANDMARKNA":"東勢汽車商務旅館","LANDMARKAD":"1000602","ADDRESS":"台中市東勢區正一街1號","TEL":"04-25882218","COUNTYNAME":"台中市","TOWNNAME":"東勢區","MARKTYPE":"996","Class":"6"},"geometry":{"x":232205.45760000031,"y":2683504.3312999997}},{"attributes":{"OBJECTID":12965,"LANDMARKID":"1000600001401","LANDMARKCO":"603","LANDMARKNA":"長緹商務旅館","LANDMARKAD":"1000602","ADDRESS":"台中市東勢區豐勢路2-1號","TEL":"04-25771616","COUNTYNAME":"台中市","TOWNNAME":"東勢區","MARKTYPE":"996","Class":"6"},"geometry":{"x":232983.29879999999,"y":2682366.7499000002}},{"attributes":{"OBJECTID":12966,"LANDMARKID":"1000600001402","LANDMARKCO":"603","LANDMARKNA":"金家園大旅社","LANDMARKAD":"1000602","ADDRESS":"台中市東勢區第二橫街7號","TEL":"04-25877182-5","COUNTYNAME":"台中市","TOWNNAME":"東勢區","MARKTYPE":"996","Class":"6"},"geometry":{"x":232750.75949999969,"y":2683226.3007999994}},{"attributes":{"OBJECTID":12967,"LANDMARKID":"1000600001403","LANDMARKCO":"603","LANDMARKNA":"東海旅社","LANDMARKAD":"1000602","ADDRESS":"台中市東勢區第四橫街44號","TEL":"04-25872121","COUNTYNAME":"台中市","TOWNNAME":"東勢區","MARKTYPE":"996","Class":"6"},"geometry":{"x":232689.85360000003,"y":2683456.2259999998}},{"attributes":{"OBJECTID":12968,"LANDMARKID":"1000600001404","LANDMARKCO":"603","LANDMARKNA":"高賓旅社","LANDMARKAD":"1000602","ADDRESS":"台中市東勢區第四橫街70號","TEL":"04-25873826","COUNTYNAME":"台中市","TOWNNAME":"東勢區","MARKTYPE":"996","Class":"6"},"geometry":{"x":232634.88019999955,"y":2683434.1587000005}},{"attributes":{"OBJECTID":12969,"LANDMARKID":"1000600001405","LANDMARKCO":"603","LANDMARKNA":"金龍旅社","LANDMARKAD":"1000602","ADDRESS":"台中市東勢區第二橫街26號","TEL":"04-25873805","COUNTYNAME":"台中市","TOWNNAME":"東勢區","MARKTYPE":"996","Class":"6"},"geometry":{"x":232715.73460000008,"y":2683246.2579999994}},{"attributes":{"OBJECTID":12970,"LANDMARKID":"1000600001406","LANDMARKCO":"603","LANDMARKNA":"金龍別館","LANDMARKAD":"1000602","ADDRESS":"台中市東勢區三民街79號","TEL":"04-25872448","COUNTYNAME":"台中市","TOWNNAME":"東勢區","MARKTYPE":"996","Class":"6"},"geometry":{"x":232783.88999999966,"y":2683119.3410999998}},{"attributes":{"OBJECTID":12971,"LANDMARKID":"1000600001407","LANDMARKCO":"603","LANDMARKNA":"東來大旅社","LANDMARKAD":"1000602","ADDRESS":"台中市東勢區中山路5號","TEL":"04-25872111","COUNTYNAME":"台中市","TOWNNAME":"東勢區","MARKTYPE":"996","Class":"6"},"geometry":{"x":232856.76150000002,"y":2683533.0835999995}},{"attributes":{"OBJECTID":12972,"LANDMARKID":"1000600001408","LANDMARKCO":"603","LANDMARKNA":"東平旅社","LANDMARKAD":"1000602","ADDRESS":"台中市東勢區豐勢路480號","TEL":"04-25872333","COUNTYNAME":"台中市","TOWNNAME":"東勢區","MARKTYPE":"996","Class":"6"},"geometry":{"x":232594.8013000004,"y":2683498.1095000003}},{"attributes":{"OBJECTID":12973,"LANDMARKID":"1000600001409","LANDMARKCO":"603","LANDMARKNA":"東豐旅社","LANDMARKAD":"1000602","ADDRESS":"台中市東勢區豐勢路564號","TEL":"04-25873836","COUNTYNAME":"台中市","TOWNNAME":"東勢區","MARKTYPE":"996","Class":"6"},"geometry":{"x":232491.78619999997,"y":2683817.3332000002}},{"attributes":{"OBJECTID":12974,"LANDMARKID":"1000600001410","LANDMARKCO":"603","LANDMARKNA":"東山旅社","LANDMARKAD":"1000602","ADDRESS":"台中市東勢區豐勢路中盛巷30號","TEL":"04-25872126","COUNTYNAME":"台中市","TOWNNAME":"東勢區","MARKTYPE":"996","Class":"6"},"geometry":{"x":232959.97229999956,"y":2682436.2094000001}},{"attributes":{"OBJECTID":12975,"LANDMARKID":"1000600001442","LANDMARKCO":"604","LANDMARKNA":"逸心園民宿","LANDMARKAD":"1000602","ADDRESS":"台中市東勢區慶福里慶福街58-1號","TEL":"04-25852846","COUNTYNAME":"台中市","TOWNNAME":"東勢區","MARKTYPE":"996","Class":"6"},"geometry":{"x":234939.82540000044,"y":2676115.1987999994}},{"attributes":{"OBJECTID":12976,"LANDMARKID":"1000600001266","LANDMARKCO":"504","LANDMARKNA":"東勢林場賞鳥區","LANDMARKAD":"1000602","ADDRESS":"台中市東勢區","TEL":"04-25872191","COUNTYNAME":"台中市","TOWNNAME":"東勢區","MARKTYPE":"995","Class":"5"},"geometry":{"x":236794.33050000016,"y":2686239.2936000004}},{"attributes":{"OBJECTID":12977,"LANDMARKID":"1000600001267","LANDMARKCO":"504","LANDMARKNA":"東勢林場忘憂池","LANDMARKAD":"1000602","ADDRESS":"台中市東勢區","TEL":"04-25872191","COUNTYNAME":"台中市","TOWNNAME":"東勢區","MARKTYPE":"995","Class":"5"},"geometry":{"x":236979.25380000006,"y":2686242.2997999992}},{"attributes":{"OBJECTID":12978,"LANDMARKID":"1000600001268","LANDMARKCO":"504","LANDMARKNA":"東勢林場得福亭","LANDMARKAD":"1000602","ADDRESS":"台中市東勢區","TEL":"04-25072191","COUNTYNAME":"台中市","TOWNNAME":"東勢區","MARKTYPE":"995","Class":"5"},"geometry":{"x":237029.38690000027,"y":2686571.2487000003}},{"attributes":{"OBJECTID":12979,"LANDMARKID":"1000600001269","LANDMARKCO":"504","LANDMARKNA":"東勢林場螢火蟲區","LANDMARKAD":"1000602","ADDRESS":"台中市東勢區","TEL":"04-25872191","COUNTYNAME":"台中市","TOWNNAME":"東勢區","MARKTYPE":"995","Class":"5"},"geometry":{"x":237099.55810000002,"y":2686133.2074999996}},{"attributes":{"OBJECTID":12980,"LANDMARKID":"1000600001270","LANDMARKCO":"504","LANDMARKNA":"東勢林場螢火蟲展示館","LANDMARKAD":"1000602","ADDRESS":"台中市東勢區","TEL":"04-25872191","COUNTYNAME":"台中市","TOWNNAME":"東勢區","MARKTYPE":"995","Class":"5"},"geometry":{"x":237136.71109999996,"y":2686318.7024000008}},{"attributes":{"OBJECTID":12981,"LANDMARKID":"1000600001271","LANDMARKCO":"504","LANDMARKNA":"東勢林場森林浴場","LANDMARKAD":"1000602","ADDRESS":"台中市東勢區","TEL":"04-25872191","COUNTYNAME":"台中市","TOWNNAME":"東勢區","MARKTYPE":"995","Class":"5"},"geometry":{"x":237206.01819999982,"y":2686073.6794000007}},{"attributes":{"OBJECTID":12982,"LANDMARKID":"1000600001272","LANDMARKCO":"504","LANDMARKNA":"東勢林場觀日亭","LANDMARKAD":"1000602","ADDRESS":"台中市東勢區","TEL":"04-25872191","COUNTYNAME":"台中市","TOWNNAME":"東勢區","MARKTYPE":"995","Class":"5"},"geometry":{"x":237292.70160000026,"y":2686768.3706999999}},{"attributes":{"OBJECTID":12983,"LANDMARKID":"1000600001273","LANDMARKCO":"504","LANDMARKNA":"東勢林場","LANDMARKAD":"1000602","ADDRESS":"台中市東勢區勢林街6之1號","TEL":" ","COUNTYNAME":"台中市","TOWNNAME":"東勢區","MARKTYPE":"995","Class":"5"},"geometry":{"x":236564.5652999999,"y":2686615.5623000003}},{"attributes":{"OBJECTID":12984,"LANDMARKID":"1000600000999","LANDMARKCO":"405","LANDMARKNA":"中油加油站-國仕站","LANDMARKAD":"1000605","ADDRESS":"台中市沙鹿區中清路310號","TEL":"04-26153448","COUNTYNAME":"台中市","TOWNNAME":"沙鹿區","MARKTYPE":"994","Class":"4"},"geometry":{"x":208122.34839999955,"y":2684392.6068999991}},{"attributes":{"OBJECTID":12985,"LANDMARKID":"1000600001000","LANDMARKCO":"405","LANDMARKNA":"中油加油站-瑞國站","LANDMARKAD":"1000605","ADDRESS":"台中市沙鹿區中山路24-48號","TEL":"04-26621008","COUNTYNAME":"台中市","TOWNNAME":"沙鹿區","MARKTYPE":"994","Class":"4"},"geometry":{"x":207925.47460000031,"y":2682340.6809999999}},{"attributes":{"OBJECTID":12986,"LANDMARKID":"1000600001001","LANDMARKCO":"405","LANDMARKNA":"中油加油站-台灣沙鹿站","LANDMARKAD":"1000605","ADDRESS":"台中市沙鹿區黎分里三民路400號","TEL":"04-26655522","COUNTYNAME":"台中市","TOWNNAME":"沙鹿區","MARKTYPE":"994","Class":"4"},"geometry":{"x":206883.52049999963,"y":2682491.2989000008}},{"attributes":{"OBJECTID":12987,"LANDMARKID":"1000600001002","LANDMARKCO":"405","LANDMARKNA":"中油加油站-巨業站","LANDMARKAD":"1000605","ADDRESS":"台中市沙鹿區居仁里光華路279號","TEL":"04-26627299","COUNTYNAME":"台中市","TOWNNAME":"沙鹿區","MARKTYPE":"994","Class":"4"},"geometry":{"x":205766.18319999985,"y":2681679.3454}},{"attributes":{"OBJECTID":12988,"LANDMARKID":"1000600001003","LANDMARKCO":"405","LANDMARKNA":"中油加油站-寶成站","LANDMARKAD":"1000605","ADDRESS":"台中市沙鹿區光華路282號","TEL":"04-26651985","COUNTYNAME":"台中市","TOWNNAME":"沙鹿區","MARKTYPE":"994","Class":"4"},"geometry":{"x":205838.02109999955,"y":2681731.5694999993}},{"attributes":{"OBJECTID":12989,"LANDMARKID":"1000600001004","LANDMARKCO":"405","LANDMARKNA":"中油加油站-洽維站","LANDMARKAD":"1000605","ADDRESS":"台中市沙鹿區中棲路6-6號","TEL":"04-26317139","COUNTYNAME":"台中市","TOWNNAME":"沙鹿區","MARKTYPE":"994","Class":"4"},"geometry":{"x":207490.34979999997,"y":2678480.3120000008}},{"attributes":{"OBJECTID":12990,"LANDMARKID":"1000600001005","LANDMARKCO":"405","LANDMARKNA":"中油加油站-金忠站","LANDMARKAD":"1000605","ADDRESS":"台中市沙鹿區中棲路2號","TEL":"04-26323127","COUNTYNAME":"台中市","TOWNNAME":"沙鹿區","MARKTYPE":"994","Class":"4"},"geometry":{"x":207418.23280000035,"y":2677048.2586000003}},{"attributes":{"OBJECTID":12991,"LANDMARKID":"1000600001006","LANDMARKCO":"405","LANDMARKNA":"中油加油站-清泉站","LANDMARKAD":"1000605","ADDRESS":"台中市沙鹿區公明里中清路39-10號","TEL":"04-26153676","COUNTYNAME":"台中市","TOWNNAME":"沙鹿區","MARKTYPE":"994","Class":"4"},"geometry":{"x":209563.84549999982,"y":2682659.9548000004}},{"attributes":{"OBJECTID":12992,"LANDMARKID":"1000600001007","LANDMARKCO":"405","LANDMARKNA":"山隆加油站-沙鹿站(中油)","LANDMARKAD":"1000605","ADDRESS":"台中市沙鹿區中興路800號","TEL":"04-26366189","COUNTYNAME":"台中市","TOWNNAME":"沙鹿區","MARKTYPE":"994","Class":"4"},"geometry":{"x":206596.74710000027,"y":2680768.1375999991}},{"attributes":{"OBJECTID":12993,"LANDMARKID":"1000600001008","LANDMARKCO":"405","LANDMARKNA":"中油加油站-萬昇站","LANDMARKAD":"1000605","ADDRESS":"台中市沙鹿區三民路31號","TEL":"04-26625866","COUNTYNAME":"台中市","TOWNNAME":"沙鹿區","MARKTYPE":"994","Class":"4"},"geometry":{"x":206233.64379999973,"y":2681546.9209000003}},{"attributes":{"OBJECTID":12994,"LANDMARKID":"1000600001009","LANDMARKCO":"405","LANDMARKNA":"中油加油站-台大沙鹿站","LANDMARKAD":"1000605","ADDRESS":"台中市沙鹿區明德路375號","TEL":"04-26656068","COUNTYNAME":"台中市","TOWNNAME":"沙鹿區","MARKTYPE":"994","Class":"4"},"geometry":{"x":207645.60360000003,"y":2682745.0508999992}},{"attributes":{"OBJECTID":12995,"LANDMARKID":"1000600001010","LANDMARKCO":"405","LANDMARKNA":"中油加油站-沙鹿站(中油直營)","LANDMARKAD":"1000605","ADDRESS":"台中市沙鹿區北勢里中棲路207號","TEL":"04-26314644","COUNTYNAME":"台中市","TOWNNAME":"沙鹿區","MARKTYPE":"994","Class":"4"},"geometry":{"x":206711.89140000008,"y":2680544.6575000007}},{"attributes":{"OBJECTID":12996,"LANDMARKID":"1000600000831","LANDMARKCO":"402","LANDMARKNA":"My Phone台灣大哥大-台中沙鹿直營服務中心","LANDMARKAD":"1000605","ADDRESS":"台中市沙鹿區沙田路124號","TEL":" ","COUNTYNAME":"台中市","TOWNNAME":"沙鹿區","MARKTYPE":"994","Class":"4"},"geometry":{"x":205248.17339999974,"y":2681197.3296000008}},{"attributes":{"OBJECTID":12997,"LANDMARKID":"1000600000832","LANDMARKCO":"402","LANDMARKNA":"亞太行動寬頻電信-沙鹿靜宜加盟服務中心","LANDMARKAD":"1000605","ADDRESS":"台中市沙鹿區北勢東路528號","TEL":"04-26322808","COUNTYNAME":"台中市","TOWNNAME":"沙鹿區","MARKTYPE":"994","Class":"4"},"geometry":{"x":206880.44400000013,"y":2680190.1423000004}},{"attributes":{"OBJECTID":12998,"LANDMARKID":"1000600000769","LANDMARKCO":"401","LANDMARKNA":"童綜合醫院-沙鹿院區","LANDMARKAD":"1000605","ADDRESS":"台中市沙鹿區成功西街8號","TEL":"04-26626161","COUNTYNAME":"台中市","TOWNNAME":"沙鹿區","MARKTYPE":"994","Class":"4"},"geometry":{"x":205421.53780000005,"y":2681986.6570999995}},{"attributes":{"OBJECTID":12999,"LANDMARKID":"1000600000770","LANDMARKCO":"401","LANDMARKNA":"光田綜合醫院","LANDMARKAD":"1000605","ADDRESS":"台中市沙鹿區沙田路117號","TEL":"04-26625111","COUNTYNAME":"台中市","TOWNNAME":"沙鹿區","MARKTYPE":"994","Class":"4"},"geometry":{"x":205147.22319999989,"y":2681181.0106000006}},{"attributes":{"OBJECTID":13000,"LANDMARKID":"1000600001129","LANDMARKCO":"406","LANDMARKNA":"青山公園","LANDMARKAD":"1000605","ADDRESS":"台中市沙鹿區","TEL":" ","COUNTYNAME":"台中市","TOWNNAME":"沙鹿區","MARKTYPE":"994","Class":"4"},"geometry":{"x":205660.02670000028,"y":2679062.2942999993}}]}