{"displayFieldName":"COUNTYNAME","fieldAliases":{"OBJECTID":"OBJECTID","LANDMARKID":"LANDMARKID","LANDMARKCO":"LANDMARKCO","LANDMARKNA":"LANDMARKNA","LANDMARKAD":"LANDMARKAD","ADDRESS":"ADDRESS","TEL":"TEL","COUNTYNAME":"COUNTYNAME","TOWNNAME":"TOWNNAME","MARKTYPE":"MARKTYPE","Class":"Class"},"geometryType":"esriGeometryPoint","spatialReference":{"wkid":4326},"fields":[{"name":"OBJECTID","type":"esriFieldTypeOID","alias":"OBJECTID"},{"name":"LANDMARKID","type":"esriFieldTypeString","alias":"LANDMARKID","length":15},{"name":"LANDMARKCO","type":"esriFieldTypeString","alias":"LANDMARKCO","length":15},{"name":"LANDMARKNA","type":"esriFieldTypeString","alias":"LANDMARKNA","length":50},{"name":"LANDMARKAD","type":"esriFieldTypeString","alias":"LANDMARKAD","length":15},{"name":"ADDRESS","type":"esriFieldTypeString","alias":"ADDRESS","length":56},{"name":"TEL","type":"esriFieldTypeString","alias":"TEL","length":36},{"name":"COUNTYNAME","type":"esriFieldTypeString","alias":"COUNTYNAME","length":15},{"name":"TOWNNAME","type":"esriFieldTypeString","alias":"TOWNNAME","length":13},{"name":"MARKTYPE","type":"esriFieldTypeString","alias":"MARKTYPE","length":12},{"name":"Class","type":"esriFieldTypeString","alias":"Class","length":5}],"features":[{"attributes":{"OBJECTID":22401,"LANDMARKID":"1000200000175","LANDMARKCO":"107","LANDMARKNA":"宜蘭縣警察局中山派出所","LANDMARKAD":"1000201","ADDRESS":"宜蘭縣宜蘭市北門里中山路219號","TEL":"039-323107","COUNTYNAME":"宜蘭縣","TOWNNAME":"宜蘭市","MARKTYPE":"991","Class":"1"},"geometry":{"x":121.75347149461973,"y":24.761305504528138}},{"attributes":{"OBJECTID":22402,"LANDMARKID":"1000200000176","LANDMARKCO":"107","LANDMARKNA":"宜蘭縣警察局民族派出所","LANDMARKAD":"1000201","ADDRESS":"宜蘭縣宜蘭市三清路33號","TEL":"03-9322223","COUNTYNAME":"宜蘭縣","TOWNNAME":"宜蘭市","MARKTYPE":"991","Class":"1"},"geometry":{"x":121.74355303557952,"y":24.745369339696115}},{"attributes":{"OBJECTID":22403,"LANDMARKID":"1000200000177","LANDMARKCO":"107","LANDMARKNA":"鐵路警察局宜蘭分駐所","LANDMARKAD":"1000201","ADDRESS":"宜蘭縣宜蘭市新興里光復路1號","TEL":"039-364404","COUNTYNAME":"宜蘭縣","TOWNNAME":"宜蘭市","MARKTYPE":"991","Class":"1"},"geometry":{"x":121.75854690048853,"y":24.754962648781618}},{"attributes":{"OBJECTID":22404,"LANDMARKID":"1000200000053","LANDMARKCO":"103","LANDMARKNA":"宜蘭縣警政署警察電訊所","LANDMARKAD":"1000201","ADDRESS":"宜蘭縣宜蘭市東港路22號","TEL":"03-9385450","COUNTYNAME":"宜蘭縣","TOWNNAME":"宜蘭市","MARKTYPE":"991","Class":"1"},"geometry":{"x":121.76848605029862,"y":24.751382760220231}},{"attributes":{"OBJECTID":22405,"LANDMARKID":"1000200000054","LANDMARKCO":"103","LANDMARKNA":"宜蘭縣議會","LANDMARKAD":"1000201","ADDRESS":"宜蘭縣宜蘭市縣政南路1號","TEL":"03-9251001","COUNTYNAME":"宜蘭縣","TOWNNAME":"宜蘭市","MARKTYPE":"991","Class":"1"},"geometry":{"x":121.75339124235828,"y":24.751555933882724}},{"attributes":{"OBJECTID":22406,"LANDMARKID":"1000200000004","LANDMARKCO":"101","LANDMARKNA":"調查局宜蘭縣調查站","LANDMARKAD":"1000201","ADDRESS":"宜蘭縣宜蘭市津梅路42號","TEL":"03-9282111","COUNTYNAME":"宜蘭縣","TOWNNAME":"宜蘭市","MARKTYPE":"991","Class":"1"},"geometry":{"x":121.75421620806603,"y":24.767617740500828}},{"attributes":{"OBJECTID":22407,"LANDMARKID":"1000200000166","LANDMARKCO":"107","LANDMARKNA":"宜蘭縣警察局延平派出所","LANDMARKAD":"1000201","ADDRESS":"宜蘭縣宜蘭市延平里東港路22號","TEL":"039-381784","COUNTYNAME":"宜蘭縣","TOWNNAME":"宜蘭市","MARKTYPE":"991","Class":"1"},"geometry":{"x":121.77281486341029,"y":24.750463918951851}},{"attributes":{"OBJECTID":22408,"LANDMARKID":"1000200000052","LANDMARKCO":"103","LANDMARKNA":"宜蘭縣政府衛生局","LANDMARKAD":"1000201","ADDRESS":"宜蘭縣宜蘭市聖後街141號","TEL":"03-9322634","COUNTYNAME":"宜蘭縣","TOWNNAME":"宜蘭市","MARKTYPE":"991","Class":"1"},"geometry":{"x":121.75451197659751,"y":24.758650388585675}},{"attributes":{"OBJECTID":22409,"LANDMARKID":"1000200000179","LANDMARKCO":"108","LANDMARKNA":"宜蘭縣宜蘭巿公所","LANDMARKAD":"1000201","ADDRESS":"宜蘭縣宜蘭市中山路二段432號","TEL":"03-9325164","COUNTYNAME":"宜蘭縣","TOWNNAME":"宜蘭市","MARKTYPE":"991","Class":"1"},"geometry":{"x":121.75340876328498,"y":24.751983254821667}},{"attributes":{"OBJECTID":22410,"LANDMARKID":"1000200000005","LANDMARKCO":"101","LANDMARKNA":"國有財產局台灣北區辦事處宜蘭分處","LANDMARKAD":"1000201","ADDRESS":"宜蘭縣宜蘭市泰山路66號5樓","TEL":"03-9316122","COUNTYNAME":"宜蘭縣","TOWNNAME":"宜蘭市","MARKTYPE":"991","Class":"1"},"geometry":{"x":121.74570302748113,"y":24.754413056327564}},{"attributes":{"OBJECTID":22411,"LANDMARKID":"1000200000006","LANDMARKCO":"101","LANDMARKNA":"交通部鐵路改建工程局東部工程","LANDMARKAD":"1000201","ADDRESS":"宜蘭縣宜蘭市林森路25號","TEL":"03-9389115","COUNTYNAME":"宜蘭縣","TOWNNAME":"宜蘭市","MARKTYPE":"991","Class":"1"},"geometry":{"x":121.75778368180423,"y":24.751291789399922}},{"attributes":{"OBJECTID":22412,"LANDMARKID":"1000200000071","LANDMARKCO":"105","LANDMARKNA":"宜蘭縣宜蘭地政事務所","LANDMARKAD":"1000201","ADDRESS":"宜蘭縣宜蘭市泰山路66號","TEL":"03-9324140","COUNTYNAME":"宜蘭縣","TOWNNAME":"宜蘭市","MARKTYPE":"991","Class":"1"},"geometry":{"x":121.74570302748113,"y":24.754413056327564}},{"attributes":{"OBJECTID":22413,"LANDMARKID":"1000200000050","LANDMARKCO":"103","LANDMARKNA":"宜蘭縣工商(業)發展投資策進會","LANDMARKAD":"1000201","ADDRESS":"宜蘭縣宜蘭市縣政北路1號","TEL":"03-9252717","COUNTYNAME":"宜蘭縣","TOWNNAME":"宜蘭市","MARKTYPE":"991","Class":"1"},"geometry":{"x":121.76276616445676,"y":24.730550206751637}},{"attributes":{"OBJECTID":22414,"LANDMARKID":"1000200000051","LANDMARKCO":"103","LANDMARKNA":"宜蘭縣政府","LANDMARKAD":"1000201","ADDRESS":"宜蘭縣宜蘭市縣政北路1號","TEL":"03-9251000","COUNTYNAME":"宜蘭縣","TOWNNAME":"宜蘭市","MARKTYPE":"991","Class":"1"},"geometry":{"x":121.76276616445676,"y":24.730550206751637}},{"attributes":{"OBJECTID":22415,"LANDMARKID":"1000200000165","LANDMARKCO":"107","LANDMARKNA":"宜蘭縣消防局宜蘭消防分隊","LANDMARKAD":"1000201","ADDRESS":"宜蘭縣宜蘭市光復路52號","TEL":"03-9322225","COUNTYNAME":"宜蘭縣","TOWNNAME":"宜蘭市","MARKTYPE":"991","Class":"1"},"geometry":{"x":121.75519964808021,"y":24.755392877412614}},{"attributes":{"OBJECTID":22416,"LANDMARKID":"1000200000048","LANDMARKCO":"103","LANDMARKNA":"宜蘭縣宜蘭市民代表會","LANDMARKAD":"1000201","ADDRESS":"宜蘭縣宜蘭市中山路二段476號","TEL":"03-9323591","COUNTYNAME":"宜蘭縣","TOWNNAME":"宜蘭市","MARKTYPE":"991","Class":"1"},"geometry":{"x":121.75296238358067,"y":24.752879812973401}},{"attributes":{"OBJECTID":22417,"LANDMARKID":"1000200000007","LANDMARKCO":"101","LANDMARKNA":"水利署第一河川局","LANDMARKAD":"1000201","ADDRESS":"宜蘭縣宜蘭市民權新路4號","TEL":"03-9324031","COUNTYNAME":"宜蘭縣","TOWNNAME":"宜蘭市","MARKTYPE":"991","Class":"1"},"geometry":{"x":121.7521146466042,"y":24.75095907055854}},{"attributes":{"OBJECTID":22418,"LANDMARKID":"1000200000066","LANDMARKCO":"104","LANDMARKNA":"北區國稅局宜蘭縣分局第一辦公","LANDMARKAD":"1000201","ADDRESS":"宜蘭縣宜蘭市中山路2段165號2、3樓","TEL":"03-9357201","COUNTYNAME":"宜蘭縣","TOWNNAME":"宜蘭市","MARKTYPE":"991","Class":"1"},"geometry":{"x":121.75403211537098,"y":24.748491880590336}},{"attributes":{"OBJECTID":22419,"LANDMARKID":"1000200000008","LANDMARKCO":"101","LANDMARKNA":"勞工保險局宜蘭辦事處","LANDMARKAD":"1000201","ADDRESS":"宜蘭縣宜蘭市農權路三段6號","TEL":"039-322331","COUNTYNAME":"宜蘭縣","TOWNNAME":"宜蘭市","MARKTYPE":"991","Class":"1"},"geometry":{"x":121.74298961896197,"y":24.748675713577416}},{"attributes":{"OBJECTID":22420,"LANDMARKID":"1000200000049","LANDMARKCO":"103","LANDMARKNA":"宜蘭縣社會處","LANDMARKAD":"1000201","ADDRESS":"宜蘭縣宜蘭市同慶街95號","TEL":"03-9328822","COUNTYNAME":"宜蘭縣","TOWNNAME":"宜蘭市","MARKTYPE":"991","Class":"1"},"geometry":{"x":121.75056697204739,"y":24.761676517963473}},{"attributes":{"OBJECTID":22421,"LANDMARKID":"1000200000067","LANDMARKCO":"104","LANDMARKNA":"宜蘭縣稅捐稽徵處","LANDMARKAD":"1000201","ADDRESS":"宜蘭縣宜蘭市中山路2段165號","TEL":"03-9325101","COUNTYNAME":"宜蘭縣","TOWNNAME":"宜蘭市","MARKTYPE":"991","Class":"1"},"geometry":{"x":121.75403211537098,"y":24.748491880590336}},{"attributes":{"OBJECTID":22422,"LANDMARKID":"1000200000073","LANDMARKCO":"106","LANDMARKNA":"宜蘭縣宜蘭市戶政事務所","LANDMARKAD":"1000201","ADDRESS":"宜蘭縣宜蘭市民權里7鄰中華路146號2樓","TEL":"039-322229","COUNTYNAME":"宜蘭縣","TOWNNAME":"宜蘭市","MARKTYPE":"991","Class":"1"},"geometry":{"x":121.75307993223863,"y":24.749168911883228}},{"attributes":{"OBJECTID":22423,"LANDMARKID":"1000200000009","LANDMARKCO":"101","LANDMARKNA":"內政部土地重劃工程處","LANDMARKAD":"1000201","ADDRESS":"宜蘭縣宜蘭市大坡路一段121巷31號A棟10樓","TEL":"039-283420","COUNTYNAME":"宜蘭縣","TOWNNAME":"宜蘭市","MARKTYPE":"991","Class":"1"},"geometry":{"x":121.75333762616089,"y":24.769438751889453}},{"attributes":{"OBJECTID":22424,"LANDMARKID":"1000200000010","LANDMARKCO":"101","LANDMARKNA":"礦務局宜蘭礦場保安中心","LANDMARKAD":"1000201","ADDRESS":"宜蘭縣宜蘭市宜中路292號","TEL":"03-9368890","COUNTYNAME":"宜蘭縣","TOWNNAME":"宜蘭市","MARKTYPE":"991","Class":"1"},"geometry":{"x":121.74434226822299,"y":24.751932391818784}},{"attributes":{"OBJECTID":22425,"LANDMARKID":"1000200000011","LANDMARKCO":"101","LANDMARKNA":"宜蘭教養院籌備處","LANDMARKAD":"1000201","ADDRESS":"宜蘭縣宜蘭市民族路415號3樓","TEL":"03-9533329","COUNTYNAME":"宜蘭縣","TOWNNAME":"宜蘭市","MARKTYPE":"991","Class":"1"},"geometry":{"x":121.74307062250756,"y":24.749592046949328}},{"attributes":{"OBJECTID":22426,"LANDMARKID":"1000200000012","LANDMARKCO":"101","LANDMARKNA":"教育部宜蘭縣聯絡處","LANDMARKAD":"1000201","ADDRESS":"宜蘭縣宜蘭市泰山路181號","TEL":"03-9364292","COUNTYNAME":"宜蘭縣","TOWNNAME":"宜蘭市","MARKTYPE":"991","Class":"1"},"geometry":{"x":121.74142395270415,"y":24.752690068170505}},{"attributes":{"OBJECTID":22427,"LANDMARKID":"1000200000013","LANDMARKCO":"101","LANDMARKNA":"國軍退除役官兵輔導委員會","LANDMARKAD":"1000201","ADDRESS":"宜蘭縣宜蘭市林森路100號","TEL":"03-9375100","COUNTYNAME":"宜蘭縣","TOWNNAME":"宜蘭市","MARKTYPE":"991","Class":"1"},"geometry":{"x":121.7601614839799,"y":24.755702437352472}},{"attributes":{"OBJECTID":22428,"LANDMARKID":"1000200000072","LANDMARKCO":"105","LANDMARKNA":"宜蘭縣政府地政處","LANDMARKAD":"1000201","ADDRESS":"宜蘭縣宜蘭市縣政北路1號","TEL":"03-9251000","COUNTYNAME":"宜蘭縣","TOWNNAME":"宜蘭市","MARKTYPE":"991","Class":"1"},"geometry":{"x":121.76276616445676,"y":24.730550206751637}},{"attributes":{"OBJECTID":22429,"LANDMARKID":"1000200000167","LANDMARKCO":"107","LANDMARKNA":"宜蘭縣消防局","LANDMARKAD":"1000201","ADDRESS":"宜蘭縣宜蘭市中華路100號","TEL":"03-9365027","COUNTYNAME":"宜蘭縣","TOWNNAME":"宜蘭市","MARKTYPE":"991","Class":"1"},"geometry":{"x":121.75353187780068,"y":24.748141733554238}},{"attributes":{"OBJECTID":22430,"LANDMARKID":"1000200000168","LANDMARKCO":"107","LANDMARKNA":"宜蘭縣消防局第一消防大隊部","LANDMARKAD":"1000201","ADDRESS":"宜蘭縣宜蘭市光復路52號3樓","TEL":"03-9324985","COUNTYNAME":"宜蘭縣","TOWNNAME":"宜蘭市","MARKTYPE":"991","Class":"1"},"geometry":{"x":121.75519964808021,"y":24.755392877412614}},{"attributes":{"OBJECTID":22431,"LANDMARKID":"1000200000169","LANDMARKCO":"107","LANDMARKNA":"宜蘭縣警察局","LANDMARKAD":"1000201","ADDRESS":"宜蘭縣宜蘭市中山路2段167號","TEL":"03-9325147","COUNTYNAME":"宜蘭縣","TOWNNAME":"宜蘭市","MARKTYPE":"991","Class":"1"},"geometry":{"x":121.75381568325393,"y":24.749135764659101}},{"attributes":{"OBJECTID":22432,"LANDMARKID":"1000200000170","LANDMARKCO":"107","LANDMARKNA":"宜蘭縣警察局宜蘭分局","LANDMARKAD":"1000201","ADDRESS":"宜蘭縣宜蘭市光復路50號","TEL":"03-9355385","COUNTYNAME":"宜蘭縣","TOWNNAME":"宜蘭市","MARKTYPE":"991","Class":"1"},"geometry":{"x":121.75535372487411,"y":24.755317073975156}},{"attributes":{"OBJECTID":22433,"LANDMARKID":"1000200000171","LANDMARKCO":"107","LANDMARKNA":"宜蘭縣警察局新生派出所","LANDMARKAD":"1000201","ADDRESS":"宜蘭縣宜蘭市中山路五段156號","TEL":"03-9284087","COUNTYNAME":"宜蘭縣","TOWNNAME":"宜蘭市","MARKTYPE":"991","Class":"1"},"geometry":{"x":121.75684537160645,"y":24.769598962956913}},{"attributes":{"OBJECTID":22434,"LANDMARKID":"1000200000172","LANDMARKCO":"107","LANDMARKNA":"宜蘭縣警察局新民派出所","LANDMARKAD":"1000201","ADDRESS":"宜蘭縣宜蘭市新民里新民路143號","TEL":"039-323108","COUNTYNAME":"宜蘭縣","TOWNNAME":"宜蘭市","MARKTYPE":"991","Class":"1"},"geometry":{"x":121.75401213223869,"y":24.757406846879558}},{"attributes":{"OBJECTID":22435,"LANDMARKID":"1000200000173","LANDMARKCO":"107","LANDMARKNA":"宜蘭縣警察局民權派出所","LANDMARKAD":"1000201","ADDRESS":"宜蘭縣宜蘭市昇平里光復路50號","TEL":"039-323105","COUNTYNAME":"宜蘭縣","TOWNNAME":"宜蘭市","MARKTYPE":"991","Class":"1"},"geometry":{"x":121.75535372487411,"y":24.755317073975156}},{"attributes":{"OBJECTID":22436,"LANDMARKID":"1000200000178","LANDMARKCO":"108","LANDMARKNA":"宜蘭縣五結鄉公所","LANDMARKAD":"1000201","ADDRESS":"宜蘭縣縣政北路1號","TEL":"03-9251000","COUNTYNAME":"宜蘭縣","TOWNNAME":"宜蘭市","MARKTYPE":"991","Class":"1"},"geometry":{"x":121.76276616445676,"y":24.730550206751637}},{"attributes":{"OBJECTID":22437,"LANDMARKID":"1000200000014","LANDMARKCO":"101","LANDMARKNA":"台灣宜蘭地方法院","LANDMARKAD":"1000201","ADDRESS":"宜蘭市縣政西路1號","TEL":"03-9252001","COUNTYNAME":"宜蘭縣","TOWNNAME":"宜蘭市","MARKTYPE":"991","Class":"1"},"geometry":{"x":121.75284742996315,"y":24.752373960671505}},{"attributes":{"OBJECTID":22438,"LANDMARKID":"1000200000015","LANDMARKCO":"101","LANDMARKNA":"農業委員會東區糧食管理處宜蘭辦事處","LANDMARKAD":"1000201","ADDRESS":"宜蘭縣宜蘭市渭水路21之1號","TEL":"03-9324401","COUNTYNAME":"宜蘭縣","TOWNNAME":"宜蘭市","MARKTYPE":"991","Class":"1"},"geometry":{"x":121.75441556923508,"y":24.748205186768569}},{"attributes":{"OBJECTID":22439,"LANDMARKID":"1000200000335","LANDMARKCO":"205","LANDMARKNA":"甲子蘭酒文物館","LANDMARKAD":"1000201","ADDRESS":"宜蘭縣宜蘭市舊城西路3號","TEL":"03-9321517","COUNTYNAME":"宜蘭縣","TOWNNAME":"宜蘭市","MARKTYPE":"992","Class":"2"},"geometry":{"x":121.74931632254727,"y":24.757039960862958}},{"attributes":{"OBJECTID":22440,"LANDMARKID":"1000200000336","LANDMARKCO":"205","LANDMARKNA":"宜蘭縣博物館家族協會","LANDMARKAD":"1000201","ADDRESS":"宜蘭縣宜蘭市舊城西路66號","TEL":"03-9359748","COUNTYNAME":"宜蘭縣","TOWNNAME":"宜蘭市","MARKTYPE":"992","Class":"2"},"geometry":{"x":121.75071156661207,"y":24.759889347010795}},{"attributes":{"OBJECTID":22441,"LANDMARKID":"1000200000337","LANDMARKCO":"205","LANDMARKNA":"宜蘭設治紀念館","LANDMARKAD":"1000201","ADDRESS":"宜蘭縣宜蘭市舊城南路力行3巷3號","TEL":"03-9326664","COUNTYNAME":"宜蘭縣","TOWNNAME":"宜蘭市","MARKTYPE":"992","Class":"2"},"geometry":{"x":121.74968574016752,"y":24.755241911029252}},{"attributes":{"OBJECTID":22442,"LANDMARKID":"1000200000338","LANDMARKCO":"205","LANDMARKNA":"台灣戲劇博物館","LANDMARKAD":"1000201","ADDRESS":"宜蘭縣宜蘭巿復興路二段101號","TEL":" ","COUNTYNAME":"宜蘭縣","TOWNNAME":"宜蘭市","MARKTYPE":"992","Class":"2"},"geometry":{"x":121.74510216784356,"y":24.74933713251793}},{"attributes":{"OBJECTID":22443,"LANDMARKID":"1000200000323","LANDMARKCO":"204","LANDMARKNA":"宜蘭縣立圖書館宜蘭分館","LANDMARKAD":"1000201","ADDRESS":"宜蘭縣宜蘭市民權路1之5號","TEL":" ","COUNTYNAME":"宜蘭縣","TOWNNAME":"宜蘭市","MARKTYPE":"992","Class":"2"},"geometry":{"x":121.75423517929234,"y":24.752490243588873}},{"attributes":{"OBJECTID":22444,"LANDMARKID":"1000200000339","LANDMARKCO":"206","LANDMARKNA":"宜蘭縣文化中心","LANDMARKAD":"1000201","ADDRESS":"宜蘭縣宜蘭市復興路二段101號","TEL":" ","COUNTYNAME":"宜蘭縣","TOWNNAME":"宜蘭市","MARKTYPE":"992","Class":"2"},"geometry":{"x":121.74485176948727,"y":24.749615888401937}},{"attributes":{"OBJECTID":22445,"LANDMARKID":"1000200000199","LANDMARKCO":"202","LANDMARKNA":"國立宜蘭高中","LANDMARKAD":"1000201","ADDRESS":"宜蘭縣宜蘭市復興路三段8號","TEL":"03-9324154","COUNTYNAME":"宜蘭縣","TOWNNAME":"宜蘭市","MARKTYPE":"992","Class":"2"},"geometry":{"x":121.74298226128032,"y":24.751694755459901}},{"attributes":{"OBJECTID":22446,"LANDMARKID":"1000200000309","LANDMARKCO":"203","LANDMARKNA":"縣立力行國小","LANDMARKAD":"1000201","ADDRESS":"宜蘭縣宜蘭市力行街2號","TEL":"03-9322309","COUNTYNAME":"宜蘭縣","TOWNNAME":"宜蘭市","MARKTYPE":"992","Class":"2"},"geometry":{"x":121.75542519230532,"y":24.763994269902867}},{"attributes":{"OBJECTID":22447,"LANDMARKID":"1000200000310","LANDMARKCO":"203","LANDMARKNA":"縣立育才國小","LANDMARKAD":"1000201","ADDRESS":"宜蘭縣宜蘭市進士路8號","TEL":"03-9211794","COUNTYNAME":"宜蘭縣","TOWNNAME":"宜蘭市","MARKTYPE":"992","Class":"2"},"geometry":{"x":121.73754996057012,"y":24.733213244652717}},{"attributes":{"OBJECTID":22448,"LANDMARKID":"1000200000197","LANDMARKCO":"202","LANDMARKNA":"國立蘭陽女中","LANDMARKAD":"1000201","ADDRESS":"宜蘭縣宜蘭市女中路2號","TEL":"03-9333821","COUNTYNAME":"宜蘭縣","TOWNNAME":"宜蘭市","MARKTYPE":"992","Class":"2"},"geometry":{"x":121.75354108448303,"y":24.745050194333338}},{"attributes":{"OBJECTID":22449,"LANDMARKID":"1000200000198","LANDMARKCO":"202","LANDMARKNA":"國立宜蘭高商","LANDMARKAD":"1000201","ADDRESS":"宜蘭縣宜蘭市延平路50號","TEL":"03-9384147","COUNTYNAME":"宜蘭縣","TOWNNAME":"宜蘭市","MARKTYPE":"992","Class":"2"},"geometry":{"x":121.76550464370965,"y":24.754884290869857}},{"attributes":{"OBJECTID":22450,"LANDMARKID":"1000200000311","LANDMARKCO":"203","LANDMARKNA":"縣立中華國中","LANDMARKAD":"1000201","ADDRESS":"宜蘭縣宜蘭市東港路15之3號","TEL":"03-9382704","COUNTYNAME":"宜蘭縣","TOWNNAME":"宜蘭市","MARKTYPE":"992","Class":"2"},"geometry":{"x":121.76687478306471,"y":24.750509084086097}},{"attributes":{"OBJECTID":22451,"LANDMARKID":"1000200000312","LANDMARKCO":"203","LANDMARKNA":"縣立復興國中","LANDMARKAD":"1000201","ADDRESS":"宜蘭縣宜蘭市復興路二段77號","TEL":"03-9322942","COUNTYNAME":"宜蘭縣","TOWNNAME":"宜蘭市","MARKTYPE":"992","Class":"2"},"geometry":{"x":121.74764633515967,"y":24.748890413320307}},{"attributes":{"OBJECTID":22452,"LANDMARKID":"1000200000313","LANDMARKCO":"203","LANDMARKNA":"縣立宜蘭國中","LANDMARKAD":"1000201","ADDRESS":"宜蘭縣宜蘭市樹人路37號","TEL":"03-9322519","COUNTYNAME":"宜蘭縣","TOWNNAME":"宜蘭市","MARKTYPE":"992","Class":"2"},"geometry":{"x":121.75820349136075,"y":24.762010596956664}},{"attributes":{"OBJECTID":22453,"LANDMARKID":"1000200000314","LANDMARKCO":"203","LANDMARKNA":"縣立南屏國小","LANDMARKAD":"1000201","ADDRESS":"宜蘭縣宜蘭市泰山路98號","TEL":"03-9323795","COUNTYNAME":"宜蘭縣","TOWNNAME":"宜蘭市","MARKTYPE":"992","Class":"2"},"geometry":{"x":121.74264395851779,"y":24.753957767250309}},{"attributes":{"OBJECTID":22454,"LANDMARKID":"1000200000315","LANDMARKCO":"203","LANDMARKNA":"縣立新生國小","LANDMARKAD":"1000201","ADDRESS":"宜蘭縣宜蘭市大坡路一段100號","TEL":"03-9283791","COUNTYNAME":"宜蘭縣","TOWNNAME":"宜蘭市","MARKTYPE":"992","Class":"2"},"geometry":{"x":121.75452543549243,"y":24.770676747667665}},{"attributes":{"OBJECTID":22455,"LANDMARKID":"1000200000316","LANDMARKCO":"203","LANDMARKNA":"縣立黎明國小","LANDMARKAD":"1000201","ADDRESS":"宜蘭縣宜蘭市校舍路1號","TEL":"03-9383792","COUNTYNAME":"宜蘭縣","TOWNNAME":"宜蘭市","MARKTYPE":"992","Class":"2"},"geometry":{"x":121.764349797807,"y":24.751676916975175}},{"attributes":{"OBJECTID":22456,"LANDMARKID":"1000200000317","LANDMARKCO":"203","LANDMARKNA":"縣立光復國小","LANDMARKAD":"1000201","ADDRESS":"宜蘭縣宜蘭市泰山路60號","TEL":"03-9322077","COUNTYNAME":"宜蘭縣","TOWNNAME":"宜蘭市","MARKTYPE":"992","Class":"2"},"geometry":{"x":121.74689852551542,"y":24.755306022124358}},{"attributes":{"OBJECTID":22457,"LANDMARKID":"1000200000318","LANDMARKCO":"203","LANDMARKNA":"縣立宜蘭國小","LANDMARKAD":"1000201","ADDRESS":"宜蘭縣宜蘭市崇聖街2號","TEL":"03-9322210","COUNTYNAME":"宜蘭縣","TOWNNAME":"宜蘭市","MARKTYPE":"992","Class":"2"},"geometry":{"x":121.75467901292106,"y":24.753217755855932}},{"attributes":{"OBJECTID":22458,"LANDMARKID":"1000200000319","LANDMARKCO":"203","LANDMARKNA":"縣立中山國小","LANDMARKAD":"1000201","ADDRESS":"宜蘭縣宜蘭市崇聖街4號","TEL":"03-9322064","COUNTYNAME":"宜蘭縣","TOWNNAME":"宜蘭市","MARKTYPE":"992","Class":"2"},"geometry":{"x":121.75463111124199,"y":24.753969973128537}},{"attributes":{"OBJECTID":22459,"LANDMARKID":"1000200000320","LANDMARKCO":"203","LANDMARKNA":"縣立凱旋國小","LANDMARKAD":"1000201","ADDRESS":"宜蘭縣宜蘭市凱旋路130號","TEL":"03-9253793","COUNTYNAME":"宜蘭縣","TOWNNAME":"宜蘭市","MARKTYPE":"992","Class":"2"},"geometry":{"x":121.76364931856205,"y":24.72561274111828}},{"attributes":{"OBJECTID":22460,"LANDMARKID":"1000200000194","LANDMARKCO":"201","LANDMARKNA":"私立佛光人文社會學院城區部","LANDMARKAD":"1000201","ADDRESS":"宜蘭縣宜蘭市中山路257號1樓","TEL":"03-9313343","COUNTYNAME":"宜蘭縣","TOWNNAME":"宜蘭市","MARKTYPE":"992","Class":"2"},"geometry":{"x":121.75302584608951,"y":24.751878789787128}},{"attributes":{"OBJECTID":22461,"LANDMARKID":"1000200000195","LANDMARKCO":"201","LANDMARKNA":"國立宜蘭大學","LANDMARKAD":"1000201","ADDRESS":"宜蘭縣宜蘭市神農路一段1號","TEL":"03-9357400","COUNTYNAME":"宜蘭縣","TOWNNAME":"宜蘭市","MARKTYPE":"992","Class":"2"},"geometry":{"x":121.74808703559776,"y":24.745292286109873}},{"attributes":{"OBJECTID":22462,"LANDMARKID":"1000200000196","LANDMARKCO":"201","LANDMARKNA":"國立空中大學(宜蘭學習指導中心)","LANDMARKAD":"1000201","ADDRESS":"宜蘭市神農路一段1號經德大樓六樓","TEL":"03-9330291","COUNTYNAME":"宜蘭縣","TOWNNAME":"宜蘭市","MARKTYPE":"992","Class":"2"},"geometry":{"x":121.74808703559776,"y":24.745292286109873}},{"attributes":{"OBJECTID":22463,"LANDMARKID":"1000200000321","LANDMARKCO":"203","LANDMARKNA":"縣立凱旋國中","LANDMARKAD":"1000201","ADDRESS":"宜蘭市縣政七街50巷1號","TEL":"03-9255600","COUNTYNAME":"宜蘭縣","TOWNNAME":"宜蘭市","MARKTYPE":"992","Class":"2"},"geometry":{"x":121.75623763094174,"y":24.725901178939644}},{"attributes":{"OBJECTID":22464,"LANDMARKID":"1000200000376","LANDMARKCO":"303","LANDMARKNA":"宜蘭運動公園停車場","LANDMARKAD":"1000201","ADDRESS":"宜蘭縣宜蘭市","TEL":" ","COUNTYNAME":"宜蘭縣","TOWNNAME":"宜蘭市","MARKTYPE":"993","Class":"303"},"geometry":{"x":121.75617712659941,"y":24.738446961899214}},{"attributes":{"OBJECTID":22465,"LANDMARKID":"1000200000377","LANDMARKCO":"303","LANDMARKNA":"宜蘭運動公園停車場","LANDMARKAD":"1000201","ADDRESS":"宜蘭縣宜蘭市","TEL":" ","COUNTYNAME":"宜蘭縣","TOWNNAME":"宜蘭市","MARKTYPE":"993","Class":"303"},"geometry":{"x":121.75657947380461,"y":24.741445931127682}},{"attributes":{"OBJECTID":22466,"LANDMARKID":"1000200000365","LANDMARKCO":"302","LANDMARKNA":"國光汽車客運宜蘭站","LANDMARKAD":"1000201","ADDRESS":"宜蘭縣宜蘭市宜興路171號","TEL":" ","COUNTYNAME":"宜蘭縣","TOWNNAME":"宜蘭市","MARKTYPE":"993","Class":"302"},"geometry":{"x":121.75622433168513,"y":24.751614824854887}},{"attributes":{"OBJECTID":22467,"LANDMARKID":"1000200000366","LANDMARKCO":"303","LANDMARKNA":"宜蘭設治紀念館停車場","LANDMARKAD":"1000201","ADDRESS":" ","TEL":" ","COUNTYNAME":"宜蘭縣","TOWNNAME":"宜蘭市","MARKTYPE":"993","Class":"303"},"geometry":{"x":121.75078880050624,"y":24.754791137339993}},{"attributes":{"OBJECTID":22468,"LANDMARKID":"1000200000367","LANDMARKCO":"303","LANDMARKNA":"宜蘭市中央停車場","LANDMARKAD":"1000201","ADDRESS":" ","TEL":" ","COUNTYNAME":"宜蘭縣","TOWNNAME":"宜蘭市","MARKTYPE":"993","Class":"303"},"geometry":{"x":121.75542822334829,"y":24.757021370215657}},{"attributes":{"OBJECTID":22469,"LANDMARKID":"1000200000368","LANDMARKCO":"303","LANDMARKNA":"宜蘭火車站停車場","LANDMARKAD":"1000201","ADDRESS":" ","TEL":" ","COUNTYNAME":"宜蘭縣","TOWNNAME":"宜蘭市","MARKTYPE":"993","Class":"303"},"geometry":{"x":121.75786533948281,"y":24.754482431923865}},{"attributes":{"OBJECTID":22470,"LANDMARKID":"1000200000369","LANDMARKCO":"303","LANDMARKNA":"宜蘭運動公園機車停車場","LANDMARKAD":"1000201","ADDRESS":"宜蘭縣宜蘭市","TEL":" ","COUNTYNAME":"宜蘭縣","TOWNNAME":"宜蘭市","MARKTYPE":"993","Class":"303"},"geometry":{"x":121.75827535745194,"y":24.739607362427474}},{"attributes":{"OBJECTID":22471,"LANDMARKID":"1000200000370","LANDMARKCO":"303","LANDMARKNA":"宜蘭火車站後站停車場","LANDMARKAD":"1000201","ADDRESS":"宜蘭縣宜蘭市林森路","TEL":" ","COUNTYNAME":"宜蘭縣","TOWNNAME":"宜蘭市","MARKTYPE":"993","Class":"303"},"geometry":{"x":121.75920625295679,"y":24.754629675799432}},{"attributes":{"OBJECTID":22472,"LANDMARKID":"1000200000371","LANDMARKCO":"303","LANDMARKNA":"宜蘭縣政府停車場","LANDMARKAD":"1000201","ADDRESS":"宜蘭縣宜蘭市三鄰縣政北路1號","TEL":" ","COUNTYNAME":"宜蘭縣","TOWNNAME":"宜蘭市","MARKTYPE":"993","Class":"303"},"geometry":{"x":121.7643105717512,"y":24.731630947859884}},{"attributes":{"OBJECTID":22473,"LANDMARKID":"1000200000372","LANDMARKCO":"303","LANDMARKNA":"中山公園地下停車場","LANDMARKAD":"1000201","ADDRESS":"宜蘭縣宜蘭市","TEL":" ","COUNTYNAME":"宜蘭縣","TOWNNAME":"宜蘭市","MARKTYPE":"993","Class":"303"},"geometry":{"x":121.7534425600149,"y":24.754323845798982}},{"attributes":{"OBJECTID":22474,"LANDMARKID":"1000200000373","LANDMARKCO":"303","LANDMARKNA":"宜蘭市中央停車場","LANDMARKAD":"1000201","ADDRESS":"宜蘭縣宜蘭市","TEL":" ","COUNTYNAME":"宜蘭縣","TOWNNAME":"宜蘭市","MARKTYPE":"993","Class":"303"},"geometry":{"x":121.75553126681304,"y":24.75726832521871}},{"attributes":{"OBJECTID":22475,"LANDMARKID":"1000200000374","LANDMARKCO":"303","LANDMARKNA":"宜蘭市停車場","LANDMARKAD":"1000201","ADDRESS":"宜蘭縣宜蘭市城西路","TEL":" ","COUNTYNAME":"宜蘭縣","TOWNNAME":"宜蘭市","MARKTYPE":"993","Class":"303"},"geometry":{"x":121.75089328093244,"y":24.760359340946493}},{"attributes":{"OBJECTID":22476,"LANDMARKID":"1000200000375","LANDMARKCO":"303","LANDMARKNA":"Times(普客二四停車場)-宜蘭演藝廳停車","LANDMARKAD":"1000201","ADDRESS":"宜蘭縣宜蘭市中山路2段482號地下1、2樓","TEL":" ","COUNTYNAME":"宜蘭縣","TOWNNAME":"宜蘭市","MARKTYPE":"993","Class":"303"},"geometry":{"x":121.7527113112167,"y":24.753659481548102}},{"attributes":{"OBJECTID":22477,"LANDMARKID":"1000200000340","LANDMARKCO":"301","LANDMARKNA":"宜蘭火車站","LANDMARKAD":"1000201","ADDRESS":"宜蘭縣宜蘭市和睦里光復路1號","TEL":"03-9323801","COUNTYNAME":"宜蘭縣","TOWNNAME":"宜蘭市","MARKTYPE":"993","Class":"301"},"geometry":{"x":121.75857648284391,"y":24.754299255928981}},{"attributes":{"OBJECTID":22478,"LANDMARKID":"1000200000480","LANDMARKCO":"402","LANDMARKNA":"中華電信-宜蘭中山特約服務中心","LANDMARKAD":"1000201","ADDRESS":"宜蘭市中山路三段105號","TEL":"03-9356767","COUNTYNAME":"宜蘭縣","TOWNNAME":"宜蘭市","MARKTYPE":"994","Class":"4"},"geometry":{"x":121.75268686618971,"y":24.758229961134916}},{"attributes":{"OBJECTID":22479,"LANDMARKID":"1000200000481","LANDMARKCO":"402","LANDMARKNA":"中華電信-宜蘭營運處","LANDMARKAD":"1000201","ADDRESS":"宜蘭縣宜蘭市東港路46號","TEL":"(03)936-9489","COUNTYNAME":"宜蘭縣","TOWNNAME":"宜蘭市","MARKTYPE":"994","Class":"4"},"geometry":{"x":121.7628179772899,"y":24.754951422530667}},{"attributes":{"OBJECTID":22480,"LANDMARKID":"1000200000482","LANDMARKCO":"402","LANDMARKNA":"威寶電信-宜蘭舊城東特約服務中心","LANDMARKAD":"1000201","ADDRESS":"宜蘭縣宜蘭市舊城東路87號","TEL":"03-9353854","COUNTYNAME":"宜蘭縣","TOWNNAME":"宜蘭市","MARKTYPE":"994","Class":"4"},"geometry":{"x":121.75649251917581,"y":24.75815634181458}},{"attributes":{"OBJECTID":22481,"LANDMARKID":"1000200000483","LANDMARKCO":"402","LANDMARKNA":"威寶電信-宜蘭健康特約服務中心","LANDMARKAD":"1000201","ADDRESS":"宜蘭市健康路二段130號","TEL":"(03)9361058","COUNTYNAME":"宜蘭縣","TOWNNAME":"宜蘭市","MARKTYPE":"994","Class":"4"},"geometry":{"x":121.75071623580476,"y":24.749700050533665}},{"attributes":{"OBJECTID":22482,"LANDMARKID":"1000200001150","LANDMARKCO":"604","LANDMARKNA":"歐風森林渡假別墅","LANDMARKAD":"1000201","ADDRESS":"宜蘭縣三星鄉尾塹村清洲路22-7號","TEL":"03-9558126","COUNTYNAME":"宜蘭縣","TOWNNAME":"宜蘭市","MARKTYPE":"996","Class":"6"},"geometry":{"x":121.74641018577351,"y":24.746150300144095}},{"attributes":{"OBJECTID":22483,"LANDMARKID":"1000200000764","LANDMARKCO":"603","LANDMARKNA":"天方夜譚旅館","LANDMARKAD":"1000201","ADDRESS":"宜蘭縣宜蘭市中山路五段127巷31號1樓","TEL":"03-9286039","COUNTYNAME":"宜蘭縣","TOWNNAME":"宜蘭市","MARKTYPE":"996","Class":"6"},"geometry":{"x":121.75538142472455,"y":24.770340967842593}},{"attributes":{"OBJECTID":22484,"LANDMARKID":"1000200000765","LANDMARKCO":"603","LANDMARKNA":"全美大飯店","LANDMARKAD":"1000201","ADDRESS":"宜蘭縣宜蘭市和睦路28-2號3-5樓","TEL":"03-9365160","COUNTYNAME":"宜蘭縣","TOWNNAME":"宜蘭市","MARKTYPE":"996","Class":"6"},"geometry":{"x":121.75696874714217,"y":24.755541944827595}},{"attributes":{"OBJECTID":22485,"LANDMARKID":"1000200000766","LANDMARKCO":"603","LANDMARKNA":"米蘭旅館","LANDMARKAD":"1000201","ADDRESS":"宜蘭縣宜蘭市宜興路一段255號2-4樓","TEL":"03-9331188","COUNTYNAME":"宜蘭縣","TOWNNAME":"宜蘭市","MARKTYPE":"996","Class":"6"},"geometry":{"x":121.75795035733613,"y":24.756108982314053}},{"attributes":{"OBJECTID":22486,"LANDMARKID":"1000200000767","LANDMARKCO":"603","LANDMARKNA":"伯斯飯店","LANDMARKAD":"1000201","ADDRESS":"宜蘭縣宜蘭市宜興路一段366號2-6樓","TEL":"03-9312999","COUNTYNAME":"宜蘭縣","TOWNNAME":"宜蘭市","MARKTYPE":"996","Class":"6"},"geometry":{"x":121.75898967071808,"y":24.757805753767148}},{"attributes":{"OBJECTID":22487,"LANDMARKID":"1000200000768","LANDMARKCO":"603","LANDMARKNA":"星鑽大飯店","LANDMARKAD":"1000201","ADDRESS":"宜蘭縣宜蘭市崇聖街63-2號7-8樓","TEL":"03-9362111","COUNTYNAME":"宜蘭縣","TOWNNAME":"宜蘭市","MARKTYPE":"996","Class":"6"},"geometry":{"x":121.75506543378405,"y":24.756785565974209}},{"attributes":{"OBJECTID":22488,"LANDMARKID":"1000200000769","LANDMARKCO":"603","LANDMARKNA":"福星旅社","LANDMARKAD":"1000201","ADDRESS":"宜蘭縣宜蘭市康樂路15號","TEL":"03-9323652","COUNTYNAME":"宜蘭縣","TOWNNAME":"宜蘭市","MARKTYPE":"996","Class":"6"},"geometry":{"x":121.75721148373272,"y":24.755497718055636}},{"attributes":{"OBJECTID":22489,"LANDMARKID":"1000200000770","LANDMARKCO":"603","LANDMARKNA":"金和成旅社","LANDMARKAD":"1000201","ADDRESS":"宜蘭縣宜蘭市康樂路30號2-5樓","TEL":"03-9354722","COUNTYNAME":"宜蘭縣","TOWNNAME":"宜蘭市","MARKTYPE":"996","Class":"6"},"geometry":{"x":121.75715639028239,"y":24.755784996350261}},{"attributes":{"OBJECTID":22490,"LANDMARKID":"1000200000771","LANDMARKCO":"603","LANDMARKNA":"天成旅社","LANDMARKAD":"1000201","ADDRESS":"宜蘭縣宜蘭市康樂路9號","TEL":"03-9322619","COUNTYNAME":"宜蘭縣","TOWNNAME":"宜蘭市","MARKTYPE":"996","Class":"6"},"geometry":{"x":121.75744458465635,"y":24.755513539870133}},{"attributes":{"OBJECTID":22491,"LANDMARKID":"1000200000772","LANDMARKCO":"603","LANDMARKNA":"大成大飯店","LANDMARKAD":"1000201","ADDRESS":"宜蘭縣宜蘭市新民路31","TEL":"33","COUNTYNAME":"宜蘭縣","TOWNNAME":"宜蘭市","MARKTYPE":"996","Class":"6"},"geometry":{"x":121.75753821100288,"y":24.756415066567193}},{"attributes":{"OBJECTID":22492,"LANDMARKID":"1000200000773","LANDMARKCO":"603","LANDMARKNA":"可青大飯店","LANDMARKAD":"1000201","ADDRESS":"宜蘭縣宜蘭市舊城北路30-1","TEL":"3","COUNTYNAME":"宜蘭縣","TOWNNAME":"宜蘭市","MARKTYPE":"996","Class":"6"},"geometry":{"x":121.75594242689425,"y":24.759230126416721}},{"attributes":{"OBJECTID":22493,"LANDMARKID":"1000200000774","LANDMARKCO":"603","LANDMARKNA":"阡碩大飯店","LANDMARKAD":"1000201","ADDRESS":"宜蘭縣宜蘭市光復路30號5-7樓","TEL":"03-9355611","COUNTYNAME":"宜蘭縣","TOWNNAME":"宜蘭市","MARKTYPE":"996","Class":"6"},"geometry":{"x":121.75650258931115,"y":24.755149855101273}},{"attributes":{"OBJECTID":22494,"LANDMARKID":"1000200000775","LANDMARKCO":"603","LANDMARKNA":"五洲大旅社","LANDMARKAD":"1000201","ADDRESS":"宜蘭縣宜蘭市光復路34號","TEL":"03-9322562","COUNTYNAME":"宜蘭縣","TOWNNAME":"宜蘭市","MARKTYPE":"996","Class":"6"},"geometry":{"x":121.75638417490387,"y":24.755169107820986}},{"attributes":{"OBJECTID":22495,"LANDMARKID":"1000200000776","LANDMARKCO":"603","LANDMARKNA":"賓城大飯店","LANDMARKAD":"1000201","ADDRESS":"宜蘭縣宜蘭市西後街26-1號","TEL":"03-9333661","COUNTYNAME":"宜蘭縣","TOWNNAME":"宜蘭市","MARKTYPE":"996","Class":"6"},"geometry":{"x":121.75176428118822,"y":24.757155813060731}},{"attributes":{"OBJECTID":22496,"LANDMARKID":"1000200000777","LANDMARKCO":"603","LANDMARKNA":"王子大飯店","LANDMARKAD":"1000201","ADDRESS":"宜蘭縣宜蘭市和睦路27號","TEL":"03-9322358","COUNTYNAME":"宜蘭縣","TOWNNAME":"宜蘭市","MARKTYPE":"996","Class":"6"},"geometry":{"x":121.756653067302,"y":24.755328904693268}},{"attributes":{"OBJECTID":22497,"LANDMARKID":"1000200000778","LANDMARKCO":"603","LANDMARKNA":"東光旅社","LANDMARKAD":"1000201","ADDRESS":"宜蘭縣宜蘭市聖後街47號","TEL":"03-9322086","COUNTYNAME":"宜蘭縣","TOWNNAME":"宜蘭市","MARKTYPE":"996","Class":"6"},"geometry":{"x":121.7573722942977,"y":24.758138423312545}},{"attributes":{"OBJECTID":22498,"LANDMARKID":"1000200000779","LANDMARKCO":"603","LANDMARKNA":"一加一旅館","LANDMARKAD":"1000201","ADDRESS":"宜蘭縣宜蘭市舊城北路13-1號2-4樓","TEL":"03-9353872","COUNTYNAME":"宜蘭縣","TOWNNAME":"宜蘭市","MARKTYPE":"996","Class":"6"},"geometry":{"x":121.7562558604475,"y":24.758781608202405}},{"attributes":{"OBJECTID":22499,"LANDMARKID":"1000200000780","LANDMARKCO":"603","LANDMARKNA":"華賓旅社","LANDMARKAD":"1000201","ADDRESS":"宜蘭縣宜蘭市和睦路59號1-2樓","TEL":"03-9322962","COUNTYNAME":"宜蘭縣","TOWNNAME":"宜蘭市","MARKTYPE":"996","Class":"6"},"geometry":{"x":121.75709369333691,"y":24.756362637968923}},{"attributes":{"OBJECTID":22500,"LANDMARKID":"1000200000781","LANDMARKCO":"603","LANDMARKNA":"友愛大飯店","LANDMARKAD":"1000201","ADDRESS":"宜蘭縣宜蘭市舊城東路50號11-16樓","TEL":"03-9363456","COUNTYNAME":"宜蘭縣","TOWNNAME":"宜蘭市","MARKTYPE":"996","Class":"6"},"geometry":{"x":121.75662502256885,"y":24.75766746858692}},{"attributes":{"OBJECTID":22501,"LANDMARKID":"1000200000782","LANDMARKCO":"603","LANDMARKNA":"英格蘭旅館","LANDMARKAD":"1000201","ADDRESS":"宜蘭縣宜蘭市中山路5段127巷6號1-4樓","TEL":"03-9356299","COUNTYNAME":"宜蘭縣","TOWNNAME":"宜蘭市","MARKTYPE":"996","Class":"6"},"geometry":{"x":121.75614406722738,"y":24.77061866748253}},{"attributes":{"OBJECTID":22502,"LANDMARKID":"1000200000783","LANDMARKCO":"603","LANDMARKNA":"福岡商務汽車旅館","LANDMARKAD":"1000201","ADDRESS":"宜蘭縣宜蘭市中山路五段259號","TEL":"03-9288060","COUNTYNAME":"宜蘭縣","TOWNNAME":"宜蘭市","MARKTYPE":"996","Class":"6"},"geometry":{"x":121.75714780791947,"y":24.773235709560332}},{"attributes":{"OBJECTID":22503,"LANDMARKID":"1000200000784","LANDMARKCO":"603","LANDMARKNA":"夏威夷汽車旅館","LANDMARKAD":"1000201","ADDRESS":"宜蘭縣宜蘭市宜興路三段101號","TEL":"03-9288333","COUNTYNAME":"宜蘭縣","TOWNNAME":"宜蘭市","MARKTYPE":"996","Class":"6"},"geometry":{"x":121.75910458904642,"y":24.768742984175738}},{"attributes":{"OBJECTID":22504,"LANDMARKID":"1000200000785","LANDMARKCO":"603","LANDMARKNA":"玫瑰園汽車旅館","LANDMARKAD":"1000201","ADDRESS":"宜蘭縣宜蘭市宜興路三段61號1-2樓","TEL":"03-9289689","COUNTYNAME":"宜蘭縣","TOWNNAME":"宜蘭市","MARKTYPE":"996","Class":"6"},"geometry":{"x":121.76001925300849,"y":24.76752389854056}},{"attributes":{"OBJECTID":22505,"LANDMARKID":"1000200000786","LANDMARKCO":"603","LANDMARKNA":"富翔大飯店","LANDMARKAD":"1000201","ADDRESS":"宜蘭縣宜蘭市校舍路19號","TEL":"03-9388386","COUNTYNAME":"宜蘭縣","TOWNNAME":"宜蘭市","MARKTYPE":"996","Class":"6"},"geometry":{"x":121.7632081364462,"y":24.751507701695566}},{"attributes":{"OBJECTID":22506,"LANDMARKID":"1000200000787","LANDMARKCO":"603","LANDMARKNA":"福郡大飯店","LANDMARKAD":"1000201","ADDRESS":"宜蘭縣宜蘭市神農路二段55號1","TEL":"3-7樓","COUNTYNAME":"宜蘭縣","TOWNNAME":"宜蘭市","MARKTYPE":"996","Class":"6"},"geometry":{"x":121.75099184837231,"y":24.751809860901876}},{"attributes":{"OBJECTID":22507,"LANDMARKID":"1000200001149","LANDMARKCO":"604","LANDMARKNA":"禾風竹露民宿","LANDMARKAD":"1000201","ADDRESS":"宜蘭縣宜蘭市黎明一路36號","TEL":"03-9370667","COUNTYNAME":"宜蘭縣","TOWNNAME":"宜蘭市","MARKTYPE":"996","Class":"6"},"geometry":{"x":121.78064537519623,"y":24.740197061420382}},{"attributes":{"OBJECTID":22508,"LANDMARKID":"1000200000725","LANDMARKCO":"511","LANDMARKNA":"東門觀光夜市","LANDMARKAD":"1000201","ADDRESS":"宜蘭縣宜蘭市東港陸橋下方","TEL":" ","COUNTYNAME":"宜蘭縣","TOWNNAME":"宜蘭市","MARKTYPE":"995","Class":"5"},"geometry":{"x":121.75826933118117,"y":24.75818310923114}},{"attributes":{"OBJECTID":22509,"LANDMARKID":"1000200000559","LANDMARKCO":"405","LANDMARKNA":"中油加油站-員山站(中油直營)","LANDMARKAD":"1000207","ADDRESS":"宜蘭縣員山鄉員山路一段31號","TEL":"039-223041","COUNTYNAME":"宜蘭縣","TOWNNAME":"員山鄉","MARKTYPE":"994","Class":"4"},"geometry":{"x":121.731080550915,"y":24.747596797959257}},{"attributes":{"OBJECTID":22510,"LANDMARKID":"1000200000560","LANDMARKCO":"405","LANDMARKNA":"中油加油站-同樂站","LANDMARKAD":"1000207","ADDRESS":"宜蘭縣員山鄉永同路一段193號","TEL":"039-9223452","COUNTYNAME":"宜蘭縣","TOWNNAME":"員山鄉","MARKTYPE":"994","Class":"4"},"geometry":{"x":121.72813249265469,"y":24.763500139411107}},{"attributes":{"OBJECTID":22511,"LANDMARKID":"1000200000467","LANDMARKCO":"401","LANDMARKNA":"宜蘭普門醫療財團法人普門醫院","LANDMARKAD":"1000207","ADDRESS":"宜蘭縣員山鄉深溝村尚深路91號","TEL":"03-9220292","COUNTYNAME":"宜蘭縣","TOWNNAME":"員山鄉","MARKTYPE":"994","Class":"4"},"geometry":{"x":121.7215926588897,"y":24.721451524858654}},{"attributes":{"OBJECTID":22512,"LANDMARKID":"1000200000468","LANDMARKCO":"401","LANDMARKNA":"員山榮民醫院","LANDMARKAD":"1000207","ADDRESS":"宜蘭縣員山鄉內城村榮光路386號","TEL":"03-9222141","COUNTYNAME":"宜蘭縣","TOWNNAME":"員山鄉","MARKTYPE":"994","Class":"4"},"geometry":{"x":121.68784254443585,"y":24.721910466726882}},{"attributes":{"OBJECTID":22513,"LANDMARKID":"1000200000675","LANDMARKCO":"506","LANDMARKNA":"觀光果園","LANDMARKAD":"1000207","ADDRESS":"宜蘭縣員山鄉","TEL":" ","COUNTYNAME":"宜蘭縣","TOWNNAME":"員山鄉","MARKTYPE":"995","Class":"5"},"geometry":{"x":121.73026762123321,"y":24.764944370188523}},{"attributes":{"OBJECTID":22514,"LANDMARKID":"1000200000676","LANDMARKCO":"506","LANDMARKNA":"崩山湖楊桃觀光果園","LANDMARKAD":"1000207","ADDRESS":"宜蘭縣員山鄉湖西村隘界路170之1號","TEL":"03-9221034","COUNTYNAME":"宜蘭縣","TOWNNAME":"員山鄉","MARKTYPE":"995","Class":"5"},"geometry":{"x":121.72218990997078,"y":24.766229753290926}},{"attributes":{"OBJECTID":22515,"LANDMARKID":"1000200000728","LANDMARKCO":"512","LANDMARKNA":"福山植物園行政中心","LANDMARKAD":"1000207","ADDRESS":"宜蘭縣員山鄉湖西村雙埤路福山1號","TEL":"03-9228900","COUNTYNAME":"宜蘭縣","TOWNNAME":"員山鄉","MARKTYPE":"995","Class":"5"},"geometry":{"x":121.59418629205423,"y":24.756626587063302}},{"attributes":{"OBJECTID":22516,"LANDMARKID":"1000200000674","LANDMARKCO":"506","LANDMARKNA":"庄腳所在","LANDMARKAD":"1000207","ADDRESS":"宜蘭縣員山鄉枕山村坡城路69之9號","TEL":"03-9222000","COUNTYNAME":"宜蘭縣","TOWNNAME":"員山鄉","MARKTYPE":"995","Class":"5"},"geometry":{"x":121.69815620212124,"y":24.77985277483954}},{"attributes":{"OBJECTID":22517,"LANDMARKID":"1000200000592","LANDMARKCO":"408","LANDMARKNA":"郵局-員山郵局","LANDMARKAD":"1000207","ADDRESS":"宜蘭縣員山鄉員山路1段299號","TEL":"(03)9225-073","COUNTYNAME":"宜蘭縣","TOWNNAME":"員山鄉","MARKTYPE":"994","Class":"4"},"geometry":{"x":121.72467902475239,"y":24.743861315725525}},{"attributes":{"OBJECTID":22518,"LANDMARKID":"1000200000593","LANDMARKCO":"408","LANDMARKNA":"郵局-員山內城郵局","LANDMARKAD":"1000207","ADDRESS":"宜蘭縣員山鄉榮光路353號","TEL":"(03)9221-096","COUNTYNAME":"宜蘭縣","TOWNNAME":"員山鄉","MARKTYPE":"994","Class":"4"},"geometry":{"x":121.68802090415876,"y":24.721051159081036}},{"attributes":{"OBJECTID":22519,"LANDMARKID":"1000200000631","LANDMARKCO":"409","LANDMARKNA":"宜蘭縣員山鄉農會","LANDMARKAD":"1000207","ADDRESS":"宜蘭縣員山鄉員山路一段210號","TEL":"03-9222161","COUNTYNAME":"宜蘭縣","TOWNNAME":"員山鄉","MARKTYPE":"994","Class":"4"},"geometry":{"x":121.7276126587799,"y":24.763745889346961}},{"attributes":{"OBJECTID":22520,"LANDMARKID":"1000200000498","LANDMARKCO":"404","LANDMARKNA":"台灣自來水第八區管理處","LANDMARKAD":"1000207","ADDRESS":"宜蘭縣員山鄉金山西路265號","TEL":"03-9229847","COUNTYNAME":"宜蘭縣","TOWNNAME":"員山鄉","MARKTYPE":"994","Class":"4"},"geometry":{"x":121.72162853749408,"y":24.746287926816862}},{"attributes":{"OBJECTID":22521,"LANDMARKID":"1000200000499","LANDMARKCO":"404","LANDMARKNA":"台灣省自來水第八區宜蘭縣市管理處","LANDMARKAD":"1000207","ADDRESS":"宜蘭縣員山鄉金山西路265號","TEL":" ","COUNTYNAME":"宜蘭縣","TOWNNAME":"員山鄉","MARKTYPE":"994","Class":"4"},"geometry":{"x":121.72970758574817,"y":24.764501937540523}},{"attributes":{"OBJECTID":22522,"LANDMARKID":"1000200000558","LANDMARKCO":"405","LANDMARKNA":"台塑加油站-太山站(台塑)","LANDMARKAD":"1000207","ADDRESS":"宜蘭縣員山鄉員山路一段12號","TEL":"03-9232001","COUNTYNAME":"宜蘭縣","TOWNNAME":"員山鄉","MARKTYPE":"994","Class":"4"},"geometry":{"x":121.73144293314216,"y":24.748190543785199}},{"attributes":{"OBJECTID":22523,"LANDMARKID":"1000200000016","LANDMARKCO":"101","LANDMARKNA":"宜蘭憲兵隊","LANDMARKAD":"1000207","ADDRESS":"宜蘭縣員山鄉復興路92號","TEL":"03-9228585","COUNTYNAME":"宜蘭縣","TOWNNAME":"員山鄉","MARKTYPE":"991","Class":"1"},"geometry":{"x":121.71899732221966,"y":24.747744378066606}},{"attributes":{"OBJECTID":22524,"LANDMARKID":"1000200000163","LANDMARKCO":"107","LANDMARKNA":"宜蘭縣警察局粗坑派出所","LANDMARKAD":"1000207","ADDRESS":"宜蘭縣員山鄉粗坑路57-1號","TEL":"03-9221996","COUNTYNAME":"宜蘭縣","TOWNNAME":"員山鄉","MARKTYPE":"991","Class":"1"},"geometry":{"x":121.64839317365826,"y":24.708257680128607}},{"attributes":{"OBJECTID":22525,"LANDMARKID":"1000200000164","LANDMARKCO":"107","LANDMARKNA":"宜蘭縣警察局大湖派出所","LANDMARKAD":"1000207","ADDRESS":"宜蘭縣員山鄉逸仙村大安路120號","TEL":"039-221995","COUNTYNAME":"宜蘭縣","TOWNNAME":"員山鄉","MARKTYPE":"991","Class":"1"},"geometry":{"x":121.69762161440917,"y":24.743069757369373}},{"attributes":{"OBJECTID":22526,"LANDMARKID":"1000200000045","LANDMARKCO":"103","LANDMARKNA":"宜蘭縣員山鄉鄉民代表會","LANDMARKAD":"1000207","ADDRESS":"宜蘭縣員山鄉員山路一段322號","TEL":"03-9223520","COUNTYNAME":"宜蘭縣","TOWNNAME":"員山鄉","MARKTYPE":"991","Class":"1"},"geometry":{"x":121.72322127585386,"y":24.743397479891506}},{"attributes":{"OBJECTID":22527,"LANDMARKID":"1000200000180","LANDMARKCO":"108","LANDMARKNA":"宜蘭縣員山鄉公所","LANDMARKAD":"1000207","ADDRESS":"宜蘭縣員山鄉員山村員山路一段322號","TEL":"03-9231991","COUNTYNAME":"宜蘭縣","TOWNNAME":"員山鄉","MARKTYPE":"991","Class":"1"},"geometry":{"x":121.72322127585386,"y":24.743397479891506}},{"attributes":{"OBJECTID":22528,"LANDMARKID":"1000200000162","LANDMARKCO":"107","LANDMARKNA":"宜蘭縣消防局員山消防分隊","LANDMARKAD":"1000207","ADDRESS":"宜蘭縣員山鄉員山路一段207號","TEL":"03-9227430","COUNTYNAME":"宜蘭縣","TOWNNAME":"員山鄉","MARKTYPE":"991","Class":"1"},"geometry":{"x":121.72644649527285,"y":24.745105029373196}},{"attributes":{"OBJECTID":22529,"LANDMARKID":"1000200000046","LANDMARKCO":"103","LANDMARKNA":"宜蘭縣員山鄉衛生所","LANDMARKAD":"1000207","ADDRESS":"宜蘭縣員山鄉員山村復興路2號","TEL":"03-9221575","COUNTYNAME":"宜蘭縣","TOWNNAME":"員山鄉","MARKTYPE":"991","Class":"1"},"geometry":{"x":121.72441688267737,"y":24.744307405141189}},{"attributes":{"OBJECTID":22530,"LANDMARKID":"1000200000074","LANDMARKCO":"106","LANDMARKNA":"宜蘭縣員山鄉戶政事務所","LANDMARKAD":"1000207","ADDRESS":"宜蘭縣員山鄉員山村15鄰員山路一段207號2樓","TEL":"039-223394","COUNTYNAME":"宜蘭縣","TOWNNAME":"員山鄉","MARKTYPE":"991","Class":"1"},"geometry":{"x":121.72644649527285,"y":24.745105029373196}},{"attributes":{"OBJECTID":22531,"LANDMARKID":"1000200000158","LANDMARKCO":"107","LANDMARKNA":"宜蘭縣警察局惠好派出所","LANDMARKAD":"1000207","ADDRESS":"宜蘭縣員山鄉尚惠路63號","TEL":"03-9221994","COUNTYNAME":"宜蘭縣","TOWNNAME":"員山鄉","MARKTYPE":"991","Class":"1"},"geometry":{"x":121.72922289540796,"y":24.729210824835079}},{"attributes":{"OBJECTID":22532,"LANDMARKID":"1000200000159","LANDMARKCO":"107","LANDMARKNA":"宜蘭縣警察局內城派出所","LANDMARKAD":"1000207","ADDRESS":"宜蘭縣員山鄉蓁巷村員山路二段235號","TEL":"039-221996","COUNTYNAME":"宜蘭縣","TOWNNAME":"員山鄉","MARKTYPE":"991","Class":"1"},"geometry":{"x":121.69537634959374,"y":24.715001721904525}},{"attributes":{"OBJECTID":22533,"LANDMARKID":"1000200000160","LANDMARKCO":"107","LANDMARKNA":"宜蘭縣警察局枕山派出所","LANDMARKAD":"1000207","ADDRESS":"宜蘭縣員山鄉永同路三段18號","TEL":"03-9221993","COUNTYNAME":"宜蘭縣","TOWNNAME":"員山鄉","MARKTYPE":"991","Class":"1"},"geometry":{"x":121.71864229502449,"y":24.758968132404252}},{"attributes":{"OBJECTID":22534,"LANDMARKID":"1000200000161","LANDMARKCO":"107","LANDMARKNA":"宜蘭縣警察局員山分駐所","LANDMARKAD":"1000207","ADDRESS":"宜蘭縣員山鄉員山路一段205號","TEL":"03-9222015","COUNTYNAME":"宜蘭縣","TOWNNAME":"員山鄉","MARKTYPE":"991","Class":"1"},"geometry":{"x":121.72693675474223,"y":24.745184930071392}},{"attributes":{"OBJECTID":22535,"LANDMARKID":"1000200000047","LANDMARKCO":"103","LANDMARKNA":"宜蘭縣立殯葬管理所(員山福園)","LANDMARKAD":"1000207","ADDRESS":"宜蘭縣員山鄉湖東村蜊埤路27號","TEL":"03-9220433","COUNTYNAME":"宜蘭縣","TOWNNAME":"員山鄉","MARKTYPE":"991","Class":"1"},"geometry":{"x":121.69858305800439,"y":24.75583100006234}},{"attributes":{"OBJECTID":22536,"LANDMARKID":"1000200000322","LANDMARKCO":"204","LANDMARKNA":"宜蘭縣立圖書館員山分館","LANDMARKAD":"1000207","ADDRESS":"宜蘭縣員山鄉復興路20號","TEL":" ","COUNTYNAME":"宜蘭縣","TOWNNAME":"員山鄉","MARKTYPE":"992","Class":"2"},"geometry":{"x":121.71907436123526,"y":24.747480135162206}},{"attributes":{"OBJECTID":22537,"LANDMARKID":"1000200000306","LANDMARKCO":"203","LANDMARKNA":"縣立員山國小","LANDMARKAD":"1000207","ADDRESS":"宜蘭縣員山鄉員山村復興路39號","TEL":"03-9224061","COUNTYNAME":"宜蘭縣","TOWNNAME":"員山鄉","MARKTYPE":"992","Class":"2"},"geometry":{"x":121.72220522062671,"y":24.743664181283592}},{"attributes":{"OBJECTID":22538,"LANDMARKID":"1000200000307","LANDMARKCO":"203","LANDMARKNA":"縣立化育國小","LANDMARKAD":"1000207","ADDRESS":"宜蘭縣員山鄉中華村粗坑路26號","TEL":" ","COUNTYNAME":"宜蘭縣","TOWNNAME":"員山鄉","MARKTYPE":"992","Class":"2"},"geometry":{"x":121.65245998885712,"y":24.711484583474704}},{"attributes":{"OBJECTID":22539,"LANDMARKID":"1000200000308","LANDMARKCO":"203","LANDMARKNA":"縣立自強國小","LANDMARKAD":"1000207","ADDRESS":"宜蘭縣員山鄉中華村冷水路51號","TEL":" ","COUNTYNAME":"宜蘭縣","TOWNNAME":"員山鄉","MARKTYPE":"992","Class":"2"},"geometry":{"x":121.63199802638309,"y":24.691262964547338}},{"attributes":{"OBJECTID":22540,"LANDMARKID":"1000200000200","LANDMARKCO":"202","LANDMARKNA":"私立慧燈高中","LANDMARKAD":"1000207","ADDRESS":"宜蘭縣員山鄉枕山路117之60號","TEL":"03-9229968","COUNTYNAME":"宜蘭縣","TOWNNAME":"員山鄉","MARKTYPE":"992","Class":"2"},"geometry":{"x":121.71555358165324,"y":24.776543908837741}},{"attributes":{"OBJECTID":22541,"LANDMARKID":"1000200000297","LANDMARKCO":"203","LANDMARKNA":"縣立榮源國中","LANDMARKAD":"1000207","ADDRESS":"宜蘭縣員山鄉內城路545號","TEL":"03-9227393","COUNTYNAME":"宜蘭縣","TOWNNAME":"員山鄉","MARKTYPE":"992","Class":"2"},"geometry":{"x":121.68755626222787,"y":24.718709194846337}},{"attributes":{"OBJECTID":22542,"LANDMARKID":"1000200000298","LANDMARKCO":"203","LANDMARKNA":"縣立員山國中","LANDMARKAD":"1000207","ADDRESS":"宜蘭縣員山鄉溫泉路92號","TEL":"03-9222331#20","COUNTYNAME":"宜蘭縣","TOWNNAME":"員山鄉","MARKTYPE":"992","Class":"2"},"geometry":{"x":121.71467235220868,"y":24.750370362067596}},{"attributes":{"OBJECTID":22543,"LANDMARKID":"1000200000299","LANDMARKCO":"203","LANDMARKNA":"縣立內城國小","LANDMARKAD":"1000207","ADDRESS":"宜蘭縣員山鄉內城村內城路486號","TEL":"03-9221830","COUNTYNAME":"宜蘭縣","TOWNNAME":"員山鄉","MARKTYPE":"992","Class":"2"},"geometry":{"x":121.68832163377266,"y":24.720248924475037}},{"attributes":{"OBJECTID":22544,"LANDMARKID":"1000200000300","LANDMARKCO":"203","LANDMARKNA":"縣立湖山國小","LANDMARKAD":"1000207","ADDRESS":"宜蘭縣員山鄉坡城路54號","TEL":"03-9221174","COUNTYNAME":"宜蘭縣","TOWNNAME":"員山鄉","MARKTYPE":"992","Class":"2"},"geometry":{"x":121.69940592637057,"y":24.779035520120154}},{"attributes":{"OBJECTID":22545,"LANDMARKID":"1000200000301","LANDMARKCO":"203","LANDMARKNA":"縣立同樂國小","LANDMARKAD":"1000207","ADDRESS":"宜蘭縣員山鄉新城路84之4號","TEL":"03-9223543","COUNTYNAME":"宜蘭縣","TOWNNAME":"員山鄉","MARKTYPE":"992","Class":"2"},"geometry":{"x":121.72898258503741,"y":24.762810164756509}},{"attributes":{"OBJECTID":22546,"LANDMARKID":"1000200000302","LANDMARKCO":"203","LANDMARKNA":"縣立七賢國小","LANDMARKAD":"1000207","ADDRESS":"宜蘭縣員山鄉溪洲路30號","TEL":"03-9221688","COUNTYNAME":"宜蘭縣","TOWNNAME":"員山鄉","MARKTYPE":"992","Class":"2"},"geometry":{"x":121.75555260745352,"y":24.719631339264197}},{"attributes":{"OBJECTID":22547,"LANDMARKID":"1000200000303","LANDMARKCO":"203","LANDMARKNA":"縣立大湖國小","LANDMARKAD":"1000207","ADDRESS":"宜蘭縣員山鄉湖東村蜊埤路55號","TEL":"03-9223584","COUNTYNAME":"宜蘭縣","TOWNNAME":"員山鄉","MARKTYPE":"992","Class":"2"},"geometry":{"x":121.69095914355802,"y":24.74749483551998}},{"attributes":{"OBJECTID":22548,"LANDMARKID":"1000200000304","LANDMARKCO":"203","LANDMARKNA":"私立慧燈高中附設國中部","LANDMARKAD":"1000207","ADDRESS":"宜蘭縣員山鄉枕山路117之60號","TEL":"03-9229968","COUNTYNAME":"宜蘭縣","TOWNNAME":"員山鄉","MARKTYPE":"992","Class":"2"},"geometry":{"x":121.71555358165324,"y":24.776543908837741}},{"attributes":{"OBJECTID":22549,"LANDMARKID":"1000200000305","LANDMARKCO":"203","LANDMARKNA":"縣立深溝國小","LANDMARKAD":"1000207","ADDRESS":"宜蘭縣員山鄉深溝路13號","TEL":"03-9224870","COUNTYNAME":"宜蘭縣","TOWNNAME":"員山鄉","MARKTYPE":"992","Class":"2"},"geometry":{"x":121.7236191226722,"y":24.723711495285496}},{"attributes":{"OBJECTID":22550,"LANDMARKID":"1000200000386","LANDMARKCO":"303","LANDMARKNA":"大湖生態遊樂區停車場","LANDMARKAD":"1000207","ADDRESS":"宜蘭縣員山鄉湖前路","TEL":" ","COUNTYNAME":"宜蘭縣","TOWNNAME":"員山鄉","MARKTYPE":"993","Class":"303"},"geometry":{"x":121.69141670827614,"y":24.741985975196823}},{"attributes":{"OBJECTID":22551,"LANDMARKID":"1000200000387","LANDMARKCO":"303","LANDMARKNA":"大湖風景特定區停車場","LANDMARKAD":"1000207","ADDRESS":"宜蘭縣員山鄉湖北村湖前路185號","TEL":" ","COUNTYNAME":"宜蘭縣","TOWNNAME":"員山鄉","MARKTYPE":"993","Class":"303"},"geometry":{"x":121.72970973934177,"y":24.764503812135203}},{"attributes":{"OBJECTID":22552,"LANDMARKID":"1000200001169","LANDMARKCO":"604","LANDMARKNA":"阿米哥共和國民宿","LANDMARKAD":"1000207","ADDRESS":"宜蘭縣員山鄉尚德村八甲路2-26號","TEL":"03-9227733","COUNTYNAME":"宜蘭縣","TOWNNAME":"員山鄉","MARKTYPE":"996","Class":"6"},"geometry":{"x":121.70921046495904,"y":24.728917931026139}},{"attributes":{"OBJECTID":22553,"LANDMARKID":"1000200001170","LANDMARKCO":"604","LANDMARKNA":"糯米粒共和國民宿","LANDMARKAD":"1000207","ADDRESS":"宜蘭縣員山鄉尚德村八甲路2-28號","TEL":"03-9229548","COUNTYNAME":"宜蘭縣","TOWNNAME":"員山鄉","MARKTYPE":"996","Class":"6"},"geometry":{"x":121.71098892522824,"y":24.727940509956415}},{"attributes":{"OBJECTID":22554,"LANDMARKID":"1000200001171","LANDMARKCO":"604","LANDMARKNA":"春成茶園民宿","LANDMARKAD":"1000207","ADDRESS":"宜蘭縣冬山鄉中山村中山路398巷26號","TEL":"0912-095657","COUNTYNAME":"宜蘭縣","TOWNNAME":"員山鄉","MARKTYPE":"996","Class":"6"},"geometry":{"x":121.70972699791778,"y":24.73681548596052}},{"attributes":{"OBJECTID":22555,"LANDMARKID":"1000200001172","LANDMARKCO":"604","LANDMARKNA":"古舍古鄉民宿","LANDMARKAD":"1000207","ADDRESS":"宜蘭縣三星鄉員山村泰雅一路491巷牛頭27號","TEL":"03-9893639","COUNTYNAME":"宜蘭縣","TOWNNAME":"員山鄉","MARKTYPE":"996","Class":"6"},"geometry":{"x":121.7161357100215,"y":24.774786349374324}},{"attributes":{"OBJECTID":22556,"LANDMARKID":"1000200001173","LANDMARKCO":"604","LANDMARKNA":"德隆行館民宿","LANDMARKAD":"1000207","ADDRESS":"宜蘭縣員山鄉枕山村枕山路161號","TEL":"03-9227630","COUNTYNAME":"宜蘭縣","TOWNNAME":"員山鄉","MARKTYPE":"996","Class":"6"},"geometry":{"x":121.71087410365523,"y":24.764434041588071}},{"attributes":{"OBJECTID":22557,"LANDMARKID":"1000200001174","LANDMARKCO":"604","LANDMARKNA":"大坑漁場","LANDMARKAD":"1000207","ADDRESS":"宜蘭縣員山鄉內城村榮光路545號","TEL":"03-9229959","COUNTYNAME":"宜蘭縣","TOWNNAME":"員山鄉","MARKTYPE":"996","Class":"6"},"geometry":{"x":121.67777346301226,"y":24.722861569637033}},{"attributes":{"OBJECTID":22558,"LANDMARKID":"1000200001175","LANDMARKCO":"604","LANDMARKNA":"八甲民宿","LANDMARKAD":"1000207","ADDRESS":"宜蘭縣員山鄉尚德村八甲路1之9號","TEL":"03-9231800","COUNTYNAME":"宜蘭縣","TOWNNAME":"員山鄉","MARKTYPE":"996","Class":"6"},"geometry":{"x":121.71207034719087,"y":24.729595524743587}},{"attributes":{"OBJECTID":22559,"LANDMARKID":"1000200001176","LANDMARKCO":"604","LANDMARKNA":"尚德休閒蓮花園民宿","LANDMARKAD":"1000207","ADDRESS":"宜蘭縣員山鄉尚德村八甲路2-12號","TEL":"03-9223987","COUNTYNAME":"宜蘭縣","TOWNNAME":"員山鄉","MARKTYPE":"996","Class":"6"},"geometry":{"x":121.70974222060298,"y":24.728345415159303}},{"attributes":{"OBJECTID":22560,"LANDMARKID":"1000200001177","LANDMARKCO":"604","LANDMARKNA":"玉月圓民宿","LANDMARKAD":"1000207","ADDRESS":"宜蘭縣員山鄉尚德村八甲路2-1號","TEL":"03-9225199","COUNTYNAME":"宜蘭縣","TOWNNAME":"員山鄉","MARKTYPE":"996","Class":"6"},"geometry":{"x":121.71061557057044,"y":24.728582279259541}},{"attributes":{"OBJECTID":22561,"LANDMARKID":"1000200000763","LANDMARKCO":"603","LANDMARKNA":"櫻花別墅旅館","LANDMARKAD":"1000207","ADDRESS":"宜蘭縣員山鄉員山村北七路348巷36號之38","TEL":"03-9229677","COUNTYNAME":"宜蘭縣","TOWNNAME":"員山鄉","MARKTYPE":"996","Class":"6"},"geometry":{"x":121.72548204842769,"y":24.743207877718586}},{"attributes":{"OBJECTID":22562,"LANDMARKID":"1000200001151","LANDMARKCO":"604","LANDMARKNA":"枕山庄","LANDMARKAD":"1000207","ADDRESS":"宜蘭縣員山鄉枕山村坡城路18-18號","TEL":"03-9228056","COUNTYNAME":"宜蘭縣","TOWNNAME":"員山鄉","MARKTYPE":"996","Class":"6"},"geometry":{"x":121.70312586864915,"y":24.779364826568102}},{"attributes":{"OBJECTID":22563,"LANDMARKID":"1000200001152","LANDMARKCO":"604","LANDMARKNA":"隱居山林民宿","LANDMARKAD":"1000207","ADDRESS":"宜蘭縣員山鄉枕山村坡城路53之19號","TEL":"03-9233633","COUNTYNAME":"宜蘭縣","TOWNNAME":"員山鄉","MARKTYPE":"996","Class":"6"},"geometry":{"x":121.69966299591185,"y":24.781474850671483}},{"attributes":{"OBJECTID":22564,"LANDMARKID":"1000200001153","LANDMARKCO":"604","LANDMARKNA":"庄腳所在","LANDMARKAD":"1000207","ADDRESS":"宜蘭縣員山鄉枕山村坡城路69-9號","TEL":"03-9222000","COUNTYNAME":"宜蘭縣","TOWNNAME":"員山鄉","MARKTYPE":"996","Class":"6"},"geometry":{"x":121.69495724247004,"y":24.780720299858796}},{"attributes":{"OBJECTID":22565,"LANDMARKID":"1000200001154","LANDMARKCO":"604","LANDMARKNA":"卡幄汀休閒民宿","LANDMARKAD":"1000207","ADDRESS":"宜蘭縣員山鄉枕山村坡城路71之3號","TEL":"03-9220007","COUNTYNAME":"宜蘭縣","TOWNNAME":"員山鄉","MARKTYPE":"996","Class":"6"},"geometry":{"x":121.69344342215084,"y":24.781534039601809}},{"attributes":{"OBJECTID":22566,"LANDMARKID":"1000200001155","LANDMARKCO":"604","LANDMARKNA":"靚綠新食宿主義者","LANDMARKAD":"1000207","ADDRESS":"宜蘭縣員山鄉枕山村枕山路114-18號","TEL":"03-9232276","COUNTYNAME":"宜蘭縣","TOWNNAME":"員山鄉","MARKTYPE":"996","Class":"6"},"geometry":{"x":121.72227396446094,"y":24.773442850164745}},{"attributes":{"OBJECTID":22567,"LANDMARKID":"1000200001156","LANDMARKCO":"604","LANDMARKNA":"神風居","LANDMARKAD":"1000207","ADDRESS":"宜蘭縣員山鄉枕山村枕山路151-2號","TEL":"03-9230169","COUNTYNAME":"宜蘭縣","TOWNNAME":"員山鄉","MARKTYPE":"996","Class":"6"},"geometry":{"x":121.711446219621,"y":24.768067392936207}},{"attributes":{"OBJECTID":22568,"LANDMARKID":"1000200001157","LANDMARKCO":"604","LANDMARKNA":"橙堡休閒民宿","LANDMARKAD":"1000207","ADDRESS":"宜蘭縣員山鄉枕山村枕山路30-15號","TEL":"03-9226000","COUNTYNAME":"宜蘭縣","TOWNNAME":"員山鄉","MARKTYPE":"996","Class":"6"},"geometry":{"x":121.71632560640097,"y":24.769325161171668}},{"attributes":{"OBJECTID":22569,"LANDMARKID":"1000200001158","LANDMARKCO":"604","LANDMARKNA":"大日居民宿","LANDMARKAD":"1000207","ADDRESS":"宜蘭縣員山鄉湖北村大湖路49-7號","TEL":"03-9233566","COUNTYNAME":"宜蘭縣","TOWNNAME":"員山鄉","MARKTYPE":"996","Class":"6"},"geometry":{"x":121.69811387524929,"y":24.745159710864158}},{"attributes":{"OBJECTID":22570,"LANDMARKID":"1000200001159","LANDMARKCO":"604","LANDMARKNA":"宜蘭馬場民宿","LANDMARKAD":"1000207","ADDRESS":"宜蘭縣員山鄉內城村16鄰榮光路352巷33號","TEL":"03-9224962","COUNTYNAME":"宜蘭縣","TOWNNAME":"員山鄉","MARKTYPE":"996","Class":"6"},"geometry":{"x":121.6875908390831,"y":24.726968642435466}},{"attributes":{"OBJECTID":22571,"LANDMARKID":"1000200001160","LANDMARKCO":"604","LANDMARKNA":"青靚河畔民宿","LANDMARKAD":"1000207","ADDRESS":"宜蘭縣員山鄉內城村內城路145號","TEL":"03-9358830","COUNTYNAME":"宜蘭縣","TOWNNAME":"員山鄉","MARKTYPE":"996","Class":"6"},"geometry":{"x":121.69768751810638,"y":24.727856485546329}},{"attributes":{"OBJECTID":22572,"LANDMARKID":"1000200001161","LANDMARKCO":"604","LANDMARKNA":"鳳凰宿","LANDMARKAD":"1000207","ADDRESS":"宜蘭縣員山鄉內城村榮光路481巷4弄4號","TEL":"03-9229809","COUNTYNAME":"宜蘭縣","TOWNNAME":"員山鄉","MARKTYPE":"996","Class":"6"},"geometry":{"x":121.68404626221577,"y":24.722338761844437}},{"attributes":{"OBJECTID":22573,"LANDMARKID":"1000200001162","LANDMARKCO":"604","LANDMARKNA":"山田園民宿","LANDMARKAD":"1000207","ADDRESS":"宜蘭縣員山鄉內城村榮光路486號","TEL":"03-9225680","COUNTYNAME":"宜蘭縣","TOWNNAME":"員山鄉","MARKTYPE":"996","Class":"6"},"geometry":{"x":121.68392547325197,"y":24.723044088627443}},{"attributes":{"OBJECTID":22574,"LANDMARKID":"1000200001163","LANDMARKCO":"604","LANDMARKNA":"華清園","LANDMARKAD":"1000207","ADDRESS":"宜蘭縣員山鄉七賢村賢好路45號","TEL":"03-9230011","COUNTYNAME":"宜蘭縣","TOWNNAME":"員山鄉","MARKTYPE":"996","Class":"6"},"geometry":{"x":121.73830034173065,"y":24.720042654625015}},{"attributes":{"OBJECTID":22575,"LANDMARKID":"1000200001164","LANDMARKCO":"604","LANDMARKNA":"春風草堂","LANDMARKAD":"1000207","ADDRESS":"宜蘭縣員山鄉深溝村尚深路142巷16號","TEL":"0922-085067","COUNTYNAME":"宜蘭縣","TOWNNAME":"員山鄉","MARKTYPE":"996","Class":"6"},"geometry":{"x":121.72242553136257,"y":24.726169649622083}},{"attributes":{"OBJECTID":22576,"LANDMARKID":"1000200001165","LANDMARKCO":"604","LANDMARKNA":"優勝美地音樂渡假民宿","LANDMARKAD":"1000207","ADDRESS":"宜蘭縣員山鄉嵐峰路三段321號","TEL":"03-9221313","COUNTYNAME":"宜蘭縣","TOWNNAME":"員山鄉","MARKTYPE":"996","Class":"6"},"geometry":{"x":121.73583346027338,"y":24.745494816954601}},{"attributes":{"OBJECTID":22577,"LANDMARKID":"1000200001166","LANDMARKCO":"604","LANDMARKNA":"拾穗庄民宿","LANDMARKAD":"1000207","ADDRESS":"宜蘭縣員山鄉蓁巷村員山路二段175巷22弄6號","TEL":"03-9220607","COUNTYNAME":"宜蘭縣","TOWNNAME":"員山鄉","MARKTYPE":"996","Class":"6"},"geometry":{"x":121.69917313567605,"y":24.714092583133588}},{"attributes":{"OBJECTID":22578,"LANDMARKID":"1000200001167","LANDMARKCO":"604","LANDMARKNA":"合群農莊民宿","LANDMARKAD":"1000207","ADDRESS":"宜蘭縣員山鄉蓁巷村深蓁路220號","TEL":"03-9232300","COUNTYNAME":"宜蘭縣","TOWNNAME":"員山鄉","MARKTYPE":"996","Class":"6"},"geometry":{"x":121.7059446403008,"y":24.715955080500724}},{"attributes":{"OBJECTID":22579,"LANDMARKID":"1000200001168","LANDMARKCO":"604","LANDMARKNA":"葫堤園民宿","LANDMARKAD":"1000207","ADDRESS":"宜蘭縣員山鄉深溝村深洲路10巷21號","TEL":"03-9222966","COUNTYNAME":"宜蘭縣","TOWNNAME":"員山鄉","MARKTYPE":"996","Class":"6"},"geometry":{"x":121.72511105721181,"y":24.710745944148378}},{"attributes":{"OBJECTID":22580,"LANDMARKID":"1000200000661","LANDMARKCO":"505","LANDMARKNA":"蜂采館","LANDMARKAD":"1000207","ADDRESS":"宜蘭縣員山鄉員山路二段403號","TEL":"03-9233668","COUNTYNAME":"宜蘭縣","TOWNNAME":"員山鄉","MARKTYPE":"995","Class":"5"},"geometry":{"x":121.684709476951,"y":24.708494880848836}},{"attributes":{"OBJECTID":22581,"LANDMARKID":"1000200000634","LANDMARKCO":"503","LANDMARKNA":"雙連埤","LANDMARKAD":"1000207","ADDRESS":"宜蘭縣員山鄉","TEL":" ","COUNTYNAME":"宜蘭縣","TOWNNAME":"員山鄉","MARKTYPE":"995","Class":"5"},"geometry":{"x":121.63759564402268,"y":24.754011192858442}},{"attributes":{"OBJECTID":22582,"LANDMARKID":"1000200000635","LANDMARKCO":"503","LANDMARKNA":"雷公埤","LANDMARKAD":"1000207","ADDRESS":"宜蘭縣員山鄉","TEL":" ","COUNTYNAME":"宜蘭縣","TOWNNAME":"員山鄉","MARKTYPE":"995","Class":"5"},"geometry":{"x":121.71754919976134,"y":24.757514876742832}},{"attributes":{"OBJECTID":22583,"LANDMARKID":"1000200000694","LANDMARKCO":"508","LANDMARKNA":"員山溫泉井","LANDMARKAD":"1000207","ADDRESS":"宜蘭縣員山鄉","TEL":" ","COUNTYNAME":"宜蘭縣","TOWNNAME":"員山鄉","MARKTYPE":"995","Class":"5"},"geometry":{"x":121.7131011863211,"y":24.749817203849496}},{"attributes":{"OBJECTID":22584,"LANDMARKID":"1000200000660","LANDMARKCO":"504","LANDMARKNA":"大湖風景遊樂區","LANDMARKAD":"1000207","ADDRESS":"宜蘭縣員山鄉湖前路185號","TEL":" ","COUNTYNAME":"宜蘭縣","TOWNNAME":"員山鄉","MARKTYPE":"995","Class":"5"},"geometry":{"x":121.69169724933568,"y":24.742467165743868}},{"attributes":{"OBJECTID":22585,"LANDMARKID":"1000200000551","LANDMARKCO":"405","LANDMARKNA":"中油加油站-純精站","LANDMARKAD":"1000202","ADDRESS":"宜蘭縣羅東鎮純精南路177號","TEL":"03-9613650","COUNTYNAME":"宜蘭縣","TOWNNAME":"羅東鎮","MARKTYPE":"994","Class":"4"},"geometry":{"x":121.76356346714407,"y":24.671656611858261}},{"attributes":{"OBJECTID":22586,"LANDMARKID":"1000200000552","LANDMARKCO":"405","LANDMARKNA":"中油加油站-中正南路站(中油直營)","LANDMARKAD":"1000202","ADDRESS":"宜蘭縣羅東鎮中正南路9號","TEL":"039-543031","COUNTYNAME":"宜蘭縣","TOWNNAME":"羅東鎮","MARKTYPE":"994","Class":"4"},"geometry":{"x":121.7720166716846,"y":24.66820722966267}},{"attributes":{"OBJECTID":22587,"LANDMARKID":"1000200000553","LANDMARKCO":"405","LANDMARKNA":"山隆加油站-復興站(中油)","LANDMARKAD":"1000202","ADDRESS":"宜蘭縣羅東鎮純精路三段259號","TEL":"(03)954-4677","COUNTYNAME":"宜蘭縣","TOWNNAME":"羅東鎮","MARKTYPE":"994","Class":"4"},"geometry":{"x":121.76711783133604,"y":24.685912646190225}},{"attributes":{"OBJECTID":22588,"LANDMARKID":"1000200000484","LANDMARKCO":"402","LANDMARKNA":"My Phone台灣大哥大-羅東興直營服務中心","LANDMARKAD":"1000202","ADDRESS":"宜蘭縣羅東鎮興東路150號","TEL":"0809-000-166","COUNTYNAME":"宜蘭縣","TOWNNAME":"羅東鎮","MARKTYPE":"994","Class":"4"},"geometry":{"x":121.7693004612628,"y":24.680460568796416}},{"attributes":{"OBJECTID":22589,"LANDMARKID":"1000200000485","LANDMARKCO":"402","LANDMARKNA":"亞太行動寬頻電信-羅東興東南加盟服務中心","LANDMARKAD":"1000202","ADDRESS":"宜蘭縣羅東鎮興東南路248號","TEL":"039-541146","COUNTYNAME":"宜蘭縣","TOWNNAME":"羅東鎮","MARKTYPE":"994","Class":"4"},"geometry":{"x":121.76756142951518,"y":24.674906469038838}},{"attributes":{"OBJECTID":22590,"LANDMARKID":"1000200000486","LANDMARKCO":"402","LANDMARKNA":"亞太行動寬頻電信-宜蘭縣","LANDMARKAD":"1000202","ADDRESS":"宜蘭縣羅東鎮興東路99號","TEL":" ","COUNTYNAME":"宜蘭縣","TOWNNAME":"羅東鎮","MARKTYPE":"994","Class":"4"},"geometry":{"x":121.76866668774377,"y":24.679031815864295}},{"attributes":{"OBJECTID":22591,"LANDMARKID":"1000200000463","LANDMARKCO":"401","LANDMARKNA":"六福中醫醫院","LANDMARKAD":"1000202","ADDRESS":"宜蘭縣羅東鎮南門路37號","TEL":"03-9571131","COUNTYNAME":"宜蘭縣","TOWNNAME":"羅東鎮","MARKTYPE":"994","Class":"4"},"geometry":{"x":121.76910589222679,"y":24.672790976181481}},{"attributes":{"OBJECTID":22592,"LANDMARKID":"1000200000464","LANDMARKCO":"401","LANDMARKNA":"財團法人羅許基金會羅東博愛醫院","LANDMARKAD":"1000202","ADDRESS":"宜蘭縣羅東鎮南昌街83號","TEL":"03-9543131","COUNTYNAME":"宜蘭縣","TOWNNAME":"羅東鎮","MARKTYPE":"994","Class":"4"},"geometry":{"x":121.77142336714856,"y":24.67177326608433}},{"attributes":{"OBJECTID":22593,"LANDMARKID":"1000200000465","LANDMARKCO":"401","LANDMARKNA":"財團法人天主教靈醫會羅東聖母醫院","LANDMARKAD":"1000202","ADDRESS":"宜蘭縣羅東鎮中正南路160號","TEL":"03-9544106","COUNTYNAME":"宜蘭縣","TOWNNAME":"羅東鎮","MARKTYPE":"994","Class":"4"},"geometry":{"x":121.77088353206689,"y":24.671382547931998}},{"attributes":{"OBJECTID":22594,"LANDMARKID":"1000200000466","LANDMARKCO":"401","LANDMARKNA":"財團法人羅許基金會羅東博愛醫院","LANDMARKAD":"1000202","ADDRESS":"宜蘭縣羅東鎮南昌街81號","TEL":"03-9543131","COUNTYNAME":"宜蘭縣","TOWNNAME":"羅東鎮","MARKTYPE":"994","Class":"4"},"geometry":{"x":121.77315001777229,"y":24.671673060584268}},{"attributes":{"OBJECTID":22595,"LANDMARKID":"1000200000594","LANDMARKCO":"408","LANDMARKNA":"郵局-羅東郵局","LANDMARKAD":"1000202","ADDRESS":"宜蘭縣羅東鎮興東路69號","TEL":"(03)9542-242","COUNTYNAME":"宜蘭縣","TOWNNAME":"羅東鎮","MARKTYPE":"994","Class":"4"},"geometry":{"x":121.76815840424533,"y":24.677514454846403}},{"attributes":{"OBJECTID":22596,"LANDMARKID":"1000200000595","LANDMARKCO":"408","LANDMARKNA":"郵局-羅東南門郵局","LANDMARKAD":"1000202","ADDRESS":"宜蘭縣羅東鎮中正南路102號","TEL":"(03)9548-831","COUNTYNAME":"宜蘭縣","TOWNNAME":"羅東鎮","MARKTYPE":"994","Class":"4"},"geometry":{"x":121.77163293432528,"y":24.670083850441326}},{"attributes":{"OBJECTID":22597,"LANDMARKID":"1000200000596","LANDMARKCO":"408","LANDMARKNA":"郵局-羅東大同路郵局","LANDMARKAD":"1000202","ADDRESS":"宜蘭縣羅東鎮大同路44-6號","TEL":"(03)9548-834","COUNTYNAME":"宜蘭縣","TOWNNAME":"羅東鎮","MARKTYPE":"994","Class":"4"},"geometry":{"x":121.77363138493543,"y":24.679622823523342}},{"attributes":{"OBJECTID":22598,"LANDMARKID":"1000200000597","LANDMARKCO":"408","LANDMARKNA":"郵局-羅東西門郵局","LANDMARKAD":"1000202","ADDRESS":"宜蘭縣羅東鎮中山路4段235號","TEL":"(03)9511-690","COUNTYNAME":"宜蘭縣","TOWNNAME":"羅東鎮","MARKTYPE":"994","Class":"4"},"geometry":{"x":121.75849162684577,"y":24.672987277583033}},{"attributes":{"OBJECTID":22599,"LANDMARKID":"1000200000598","LANDMARKCO":"408","LANDMARKNA":"郵局-羅東竹林郵局","LANDMARKAD":"1000202","ADDRESS":"宜蘭縣羅東鎮復興路2段193號","TEL":"(03)9563-547","COUNTYNAME":"宜蘭縣","TOWNNAME":"羅東鎮","MARKTYPE":"994","Class":"4"},"geometry":{"x":121.76476745359311,"y":24.689618604673157}},{"attributes":{"OBJECTID":22600,"LANDMARKID":"1000200000629","LANDMARKCO":"409","LANDMARKNA":"宜蘭縣羅東鎮農會","LANDMARKAD":"1000202","ADDRESS":"宜蘭縣羅東鎮純精南路109號","TEL":"03-9518667","COUNTYNAME":"宜蘭縣","TOWNNAME":"羅東鎮","MARKTYPE":"994","Class":"4"},"geometry":{"x":121.7637592287808,"y":24.671238051753274}}]}