{"displayFieldName":"COUNTYNAME","fieldAliases":{"OBJECTID":"OBJECTID","LANDMARKID":"LANDMARKID","LANDMARKCO":"LANDMARKCO","LANDMARKNA":"LANDMARKNA","LANDMARKAD":"LANDMARKAD","ADDRESS":"ADDRESS","TEL":"TEL","COUNTYNAME":"COUNTYNAME","TOWNNAME":"TOWNNAME","MARKTYPE":"MARKTYPE","Class":"Class"},"geometryType":"esriGeometryPoint","spatialReference":{"wkid":4326},"fields":[{"name":"OBJECTID","type":"esriFieldTypeOID","alias":"OBJECTID"},{"name":"LANDMARKID","type":"esriFieldTypeString","alias":"LANDMARKID","length":15},{"name":"LANDMARKCO","type":"esriFieldTypeString","alias":"LANDMARKCO","length":15},{"name":"LANDMARKNA","type":"esriFieldTypeString","alias":"LANDMARKNA","length":50},{"name":"LANDMARKAD","type":"esriFieldTypeString","alias":"LANDMARKAD","length":15},{"name":"ADDRESS","type":"esriFieldTypeString","alias":"ADDRESS","length":56},{"name":"TEL","type":"esriFieldTypeString","alias":"TEL","length":36},{"name":"COUNTYNAME","type":"esriFieldTypeString","alias":"COUNTYNAME","length":15},{"name":"TOWNNAME","type":"esriFieldTypeString","alias":"TOWNNAME","length":13},{"name":"MARKTYPE","type":"esriFieldTypeString","alias":"MARKTYPE","length":12},{"name":"Class","type":"esriFieldTypeString","alias":"Class","length":5}],"features":[{"attributes":{"OBJECTID":20401,"LANDMARKID":"1001200001394","LANDMARKCO":"603","LANDMARKNA":"永富大旅社","LANDMARKAD":"1001201","ADDRESS":"高雄市鳳山區忠義街14號","TEL":"07-7463413","COUNTYNAME":"高雄市","TOWNNAME":"鳳山區","MARKTYPE":"996","Class":"6"},"geometry":{"x":120.35575715115587,"y":22.627959874346296}},{"attributes":{"OBJECTID":20402,"LANDMARKID":"1001200001395","LANDMARKCO":"603","LANDMARKNA":"御宿汽車旅館","LANDMARKAD":"1001201","ADDRESS":"高雄市鳳山區武林路3號","TEL":"07-7719888","COUNTYNAME":"高雄市","TOWNNAME":"鳳山區","MARKTYPE":"996","Class":"6"},"geometry":{"x":120.33664055947187,"y":22.614189254683733}},{"attributes":{"OBJECTID":20403,"LANDMARKID":"1001200001396","LANDMARKCO":"603","LANDMARKNA":"聖保羅旅館","LANDMARKAD":"1001201","ADDRESS":"高雄市鳳山區建國路三段299號3-7樓","TEL":"07-7481362","COUNTYNAME":"高雄市","TOWNNAME":"鳳山區","MARKTYPE":"996","Class":"6"},"geometry":{"x":120.35059174295769,"y":22.637442462880028}},{"attributes":{"OBJECTID":20404,"LANDMARKID":"1001200001397","LANDMARKCO":"603","LANDMARKNA":"元谷大旅社","LANDMARKAD":"1001201","ADDRESS":"高雄市鳳山區海洋一路40號","TEL":"07-7718999","COUNTYNAME":"高雄市","TOWNNAME":"鳳山區","MARKTYPE":"996","Class":"6"},"geometry":{"x":120.34269504052791,"y":22.609798279911185}},{"attributes":{"OBJECTID":20405,"LANDMARKID":"1001200001398","LANDMARKCO":"603","LANDMARKNA":"富都大旅社","LANDMARKAD":"1001201","ADDRESS":"高雄市鳳山區曹公路115號","TEL":"07-7462607","COUNTYNAME":"高雄市","TOWNNAME":"鳳山區","MARKTYPE":"996","Class":"6"},"geometry":{"x":120.35735940858895,"y":22.630486302623247}},{"attributes":{"OBJECTID":20406,"LANDMARKID":"1001200001399","LANDMARKCO":"603","LANDMARKNA":"國際大旅社","LANDMARKAD":"1001201","ADDRESS":"高雄市鳳山區曹公路77號","TEL":"07-7462128-9","COUNTYNAME":"高雄市","TOWNNAME":"鳳山區","MARKTYPE":"996","Class":"6"},"geometry":{"x":120.357153904767,"y":22.629518478728052}},{"attributes":{"OBJECTID":20407,"LANDMARKID":"1001200001400","LANDMARKCO":"603","LANDMARKNA":"金鳳凰商務旅錧","LANDMARKAD":"1001201","ADDRESS":"高雄市鳳山區博愛路607號","TEL":"07-7481666","COUNTYNAME":"高雄市","TOWNNAME":"鳳山區","MARKTYPE":"996","Class":"6"},"geometry":{"x":120.37055017035652,"y":22.628838407864745}},{"attributes":{"OBJECTID":20408,"LANDMARKID":"1001200001401","LANDMARKCO":"603","LANDMARKNA":"亞歷山大汽車旅館","LANDMARKAD":"1001201","ADDRESS":"高雄市鳳山區華興街2號","TEL":"07-7217000","COUNTYNAME":"高雄市","TOWNNAME":"鳳山區","MARKTYPE":"996","Class":"6"},"geometry":{"x":120.33619913141871,"y":22.602683429378516}},{"attributes":{"OBJECTID":20409,"LANDMARKID":"1001200001402","LANDMARKCO":"603","LANDMARKNA":"華水亭汽車旅館","LANDMARKAD":"1001201","ADDRESS":"高雄市鳳山區園茂路62號","TEL":"07-7927477","COUNTYNAME":"高雄市","TOWNNAME":"鳳山區","MARKTYPE":"996","Class":"6"},"geometry":{"x":120.35769149057063,"y":22.591370620824716}},{"attributes":{"OBJECTID":20410,"LANDMARKID":"1001200001403","LANDMARKCO":"603","LANDMARKNA":"花鄉商務汽車旅館","LANDMARKAD":"1001201","ADDRESS":"高雄市鳳山區誠義路122號","TEL":"07-7198299","COUNTYNAME":"高雄市","TOWNNAME":"鳳山區","MARKTYPE":"996","Class":"6"},"geometry":{"x":120.36045941523786,"y":22.610839550186963}},{"attributes":{"OBJECTID":20411,"LANDMARKID":"1001200001404","LANDMARKCO":"603","LANDMARKNA":"丹嘜汽車旅館","LANDMARKAD":"1001201","ADDRESS":"高雄市鳳山區過埤路127號","TEL":"07-7923992","COUNTYNAME":"高雄市","TOWNNAME":"鳳山區","MARKTYPE":"996","Class":"6"},"geometry":{"x":120.36424252713729,"y":22.589645465088513}},{"attributes":{"OBJECTID":20412,"LANDMARKID":"1001200001405","LANDMARKCO":"603","LANDMARKNA":"紫園汽車旅館","LANDMARKAD":"1001201","ADDRESS":"高雄市鳳山區福祥街3號","TEL":"07-8222589","COUNTYNAME":"高雄市","TOWNNAME":"鳳山區","MARKTYPE":"996","Class":"6"},"geometry":{"x":120.32432869054365,"y":22.591934940718225}},{"attributes":{"OBJECTID":20413,"LANDMARKID":"1001200001406","LANDMARKCO":"603","LANDMARKNA":"鳳甲商務汽車旅館","LANDMARKAD":"1001201","ADDRESS":"高雄市鳳山區鳳甲路358號","TEL":"07-7923556","COUNTYNAME":"高雄市","TOWNNAME":"鳳山區","MARKTYPE":"996","Class":"6"},"geometry":{"x":120.34426568959366,"y":22.595565698685455}},{"attributes":{"OBJECTID":20414,"LANDMARKID":"1001200001407","LANDMARKCO":"603","LANDMARKNA":"曼波花園汽車旅館","LANDMARKAD":"1001201","ADDRESS":"高雄市鳳山區鳳東路165號","TEL":"07-7013030","COUNTYNAME":"高雄市","TOWNNAME":"鳳山區","MARKTYPE":"996","Class":"6"},"geometry":{"x":120.37827412179729,"y":22.625639989052804}},{"attributes":{"OBJECTID":20415,"LANDMARKID":"1001200001408","LANDMARKCO":"603","LANDMARKNA":"涵碧園商務汽車旅館","LANDMARKAD":"1001201","ADDRESS":"高雄市鳳山區鳳頂路547號","TEL":"07-7553999","COUNTYNAME":"高雄市","TOWNNAME":"鳳山區","MARKTYPE":"996","Class":"6"},"geometry":{"x":120.362387774569,"y":22.610118141093402}},{"attributes":{"OBJECTID":20416,"LANDMARKID":"1001200001409","LANDMARKCO":"603","LANDMARKNA":"麗緻汽車旅館","LANDMARKAD":"1001201","ADDRESS":"高雄市鳳山區鳳頂路8號","TEL":"07-7923406","COUNTYNAME":"高雄市","TOWNNAME":"鳳山區","MARKTYPE":"996","Class":"6"},"geometry":{"x":120.35897915598095,"y":22.585244642863319}},{"attributes":{"OBJECTID":20417,"LANDMARKID":"1001200001306","LANDMARKCO":"511","LANDMARKNA":"中華街觀光夜市","LANDMARKAD":"1001201","ADDRESS":"高雄市鳳山區","TEL":" ","COUNTYNAME":"高雄市","TOWNNAME":"鳳山區","MARKTYPE":"995","Class":"5"},"geometry":{"x":120.35584036139038,"y":22.62666558665752}},{"attributes":{"OBJECTID":20418,"LANDMARKID":"1001200001507","LANDMARKCO":"605","LANDMARKNA":"北門活動中心","LANDMARKAD":"1001201","ADDRESS":"高雄市鳳山區","TEL":" ","COUNTYNAME":"高雄市","TOWNNAME":"鳳山區","MARKTYPE":"996","Class":"6"},"geometry":{"x":120.36551966673338,"y":22.634490639396141}},{"attributes":{"OBJECTID":20419,"LANDMARKID":"1001200001508","LANDMARKCO":"605","LANDMARKNA":"中華電信","LANDMARKAD":"1001201","ADDRESS":"高雄市鳳山區","TEL":" ","COUNTYNAME":"高雄市","TOWNNAME":"鳳山區","MARKTYPE":"996","Class":"6"},"geometry":{"x":120.36392409670252,"y":22.634242179107012}},{"attributes":{"OBJECTID":20420,"LANDMARKID":"1001200001509","LANDMARKCO":"605","LANDMARKNA":"國父紀念館","LANDMARKAD":"1001201","ADDRESS":"高雄市鳳山區","TEL":" ","COUNTYNAME":"高雄市","TOWNNAME":"鳳山區","MARKTYPE":"996","Class":"6"},"geometry":{"x":120.36327907013806,"y":22.62669459729786}},{"attributes":{"OBJECTID":20421,"LANDMARKID":"1001200001510","LANDMARKCO":"605","LANDMARKNA":"龍山寺","LANDMARKAD":"1001201","ADDRESS":"高雄市鳳山區","TEL":" ","COUNTYNAME":"高雄市","TOWNNAME":"鳳山區","MARKTYPE":"996","Class":"6"},"geometry":{"x":120.36150505317882,"y":22.620931855553263}},{"attributes":{"OBJECTID":20422,"LANDMARKID":"1001200001511","LANDMARKCO":"605","LANDMARKNA":"老人活動中心","LANDMARKAD":"1001201","ADDRESS":"高雄市鳳山區","TEL":" ","COUNTYNAME":"高雄市","TOWNNAME":"鳳山區","MARKTYPE":"996","Class":"6"},"geometry":{"x":120.36407971959439,"y":22.628714879287447}},{"attributes":{"OBJECTID":20423,"LANDMARKID":"1001200000841","LANDMARKCO":"405","LANDMARKNA":"統一速邁樂加油站-鳳山加油站(中油)","LANDMARKAD":"1001203","ADDRESS":"高雄市大寮區鳳屏一路112號","TEL":" ","COUNTYNAME":"高雄市","TOWNNAME":"大寮區","MARKTYPE":"994","Class":"4"},"geometry":{"x":120.38599215859909,"y":22.631420250164613}},{"attributes":{"OBJECTID":20424,"LANDMARKID":"1001200000842","LANDMARKCO":"405","LANDMARKNA":"統一速邁樂加油站-鳳山二站加油站(中油)","LANDMARKAD":"1001203","ADDRESS":"高雄市大寮區江山村鳳屏二路3號","TEL":" ","COUNTYNAME":"高雄市","TOWNNAME":"大寮區","MARKTYPE":"994","Class":"4"},"geometry":{"x":120.40156937309496,"y":22.639570552882113}},{"attributes":{"OBJECTID":20425,"LANDMARKID":"1001200000843","LANDMARKCO":"405","LANDMARKNA":"中油加油站-大倫站","LANDMARKAD":"1001203","ADDRESS":"高雄市江山村光明路三段1080號","TEL":"07-7016765","COUNTYNAME":"高雄市","TOWNNAME":"大寮區","MARKTYPE":"994","Class":"4"},"geometry":{"x":120.40720153779138,"y":22.631829125829256}},{"attributes":{"OBJECTID":20426,"LANDMARKID":"1001200000844","LANDMARKCO":"405","LANDMARKNA":"中油加油站-江山站","LANDMARKAD":"1001203","ADDRESS":"高雄市大寮區鳳屏二路46號","TEL":"07-7017334","COUNTYNAME":"高雄市","TOWNNAME":"大寮區","MARKTYPE":"994","Class":"4"},"geometry":{"x":120.40288536125931,"y":22.639499450276194}},{"attributes":{"OBJECTID":20427,"LANDMARKID":"1001200000845","LANDMARKCO":"405","LANDMARKNA":"中油加油站-大寮站","LANDMARKAD":"1001203","ADDRESS":"高雄市大寮區山頂村鳳林三路616號","TEL":"07-7813631","COUNTYNAME":"高雄市","TOWNNAME":"大寮區","MARKTYPE":"994","Class":"4"},"geometry":{"x":120.39458585676849,"y":22.609061940076138}},{"attributes":{"OBJECTID":20428,"LANDMARKID":"1001200000846","LANDMARKCO":"405","LANDMARKNA":"台糖加油站-大發站(中油)","LANDMARKAD":"1001203","ADDRESS":"高雄市大寮區大寮路1303號","TEL":" ","COUNTYNAME":"高雄市","TOWNNAME":"大寮區","MARKTYPE":"994","Class":"4"},"geometry":{"x":120.42874560461017,"y":22.592382701206727}},{"attributes":{"OBJECTID":20429,"LANDMARKID":"1001200000847","LANDMARKCO":"405","LANDMARKNA":"中油加油站-大益站","LANDMARKAD":"1001203","ADDRESS":"高雄市大寮區鳳林一路502號","TEL":"07-6418873","COUNTYNAME":"高雄市","TOWNNAME":"大寮區","MARKTYPE":"994","Class":"4"},"geometry":{"x":120.4117431171142,"y":22.550496191078249}},{"attributes":{"OBJECTID":20430,"LANDMARKID":"1001200000848","LANDMARKCO":"405","LANDMARKNA":"中油加油站-瑔發站","LANDMARKAD":"1001203","ADDRESS":"高雄市大寮區光明路一段1155號","TEL":"07-7874885","COUNTYNAME":"高雄市","TOWNNAME":"大寮區","MARKTYPE":"994","Class":"4"},"geometry":{"x":120.41997538074953,"y":22.590531376593084}},{"attributes":{"OBJECTID":20431,"LANDMARKID":"1001200000849","LANDMARKCO":"405","LANDMARKNA":"中油加油站-大來站","LANDMARKAD":"1001203","ADDRESS":"高雄市大寮區大漢路330號","TEL":"07-7024101","COUNTYNAME":"高雄市","TOWNNAME":"大寮區","MARKTYPE":"994","Class":"4"},"geometry":{"x":120.38357955986311,"y":22.636233333095753}},{"attributes":{"OBJECTID":20432,"LANDMARKID":"1001200000850","LANDMARKCO":"405","LANDMARKNA":"中油加油站-九曲堂站","LANDMARKAD":"1001203","ADDRESS":"高雄市大寮區義和村鳳屏二路297號","TEL":"07-6512175","COUNTYNAME":"高雄市","TOWNNAME":"大寮區","MARKTYPE":"994","Class":"4"},"geometry":{"x":120.41787058794921,"y":22.642366195061751}},{"attributes":{"OBJECTID":20433,"LANDMARKID":"1001200000851","LANDMARKCO":"405","LANDMARKNA":"台灣優力加油站-大進發站(中油)","LANDMARKAD":"1001203","ADDRESS":"高雄市大寮區鳳林二路802號","TEL":"07-7889107","COUNTYNAME":"高雄市","TOWNNAME":"大寮區","MARKTYPE":"994","Class":"4"},"geometry":{"x":120.40735209812213,"y":22.581549506388839}},{"attributes":{"OBJECTID":20434,"LANDMARKID":"1001200000852","LANDMARKCO":"405","LANDMARKNA":"中油加油站-泓成站","LANDMARKAD":"1001203","ADDRESS":"高雄市大寮區鳳林二路621號","TEL":"07-7879010","COUNTYNAME":"高雄市","TOWNNAME":"大寮區","MARKTYPE":"994","Class":"4"},"geometry":{"x":120.40295838702924,"y":22.59133099857338}},{"attributes":{"OBJECTID":20435,"LANDMARKID":"1001200000770","LANDMARKCO":"402","LANDMARKNA":"亞太行動寬頻電信-大寮鳳林加盟服務中心","LANDMARKAD":"1001203","ADDRESS":"高雄市大寮區鳳林四路160號","TEL":"07-7812692","COUNTYNAME":"高雄市","TOWNNAME":"大寮區","MARKTYPE":"994","Class":"4"},"geometry":{"x":120.38574241097852,"y":22.616799273603235}},{"attributes":{"OBJECTID":20436,"LANDMARKID":"1001200000759","LANDMARKCO":"401","LANDMARKNA":"財團法人台灣省私立高雄仁愛之家附設慈","LANDMARKAD":"1001203","ADDRESS":"高雄市大寮區鳳屏一路459號","TEL":"07-7030315","COUNTYNAME":"高雄市","TOWNNAME":"大寮區","MARKTYPE":"994","Class":"4"},"geometry":{"x":120.39771858705335,"y":22.638688694104253}},{"attributes":{"OBJECTID":20437,"LANDMARKID":"1001200000760","LANDMARKCO":"401","LANDMARKNA":"瑞生醫院","LANDMARKAD":"1001203","ADDRESS":"高雄市大寮區鳳林四路192號","TEL":"07-7838843","COUNTYNAME":"高雄市","TOWNNAME":"大寮區","MARKTYPE":"994","Class":"4"},"geometry":{"x":120.38485990401834,"y":22.617692419579484}},{"attributes":{"OBJECTID":20438,"LANDMARKID":"1001200000761","LANDMARKCO":"401","LANDMARKNA":"樂生婦幼醫院","LANDMARKAD":"1001203","ADDRESS":"高雄市大寮區鳳林三路532號","TEL":"07-7862688","COUNTYNAME":"高雄市","TOWNNAME":"大寮區","MARKTYPE":"994","Class":"4"},"geometry":{"x":120.39547549139095,"y":22.607345359074529}},{"attributes":{"OBJECTID":20439,"LANDMARKID":"1001200001113","LANDMARKCO":"408","LANDMARKNA":"郵局-大寮郵局","LANDMARKAD":"1001203","ADDRESS":"高雄市大寮區永芳村鳳林三路530號","TEL":"(07)7828-723","COUNTYNAME":"高雄市","TOWNNAME":"大寮區","MARKTYPE":"994","Class":"4"},"geometry":{"x":120.39553968590936,"y":22.606085293104012}},{"attributes":{"OBJECTID":20440,"LANDMARKID":"1001200001114","LANDMARKCO":"408","LANDMARKNA":"郵局-大寮中庄郵局","LANDMARKAD":"1001203","ADDRESS":"高雄市大寮區鳳屏一路370、372號","TEL":"(07)7012-348","COUNTYNAME":"高雄市","TOWNNAME":"大寮區","MARKTYPE":"994","Class":"4"},"geometry":{"x":120.39071412769751,"y":22.63489200899793}},{"attributes":{"OBJECTID":20441,"LANDMARKID":"1001200001115","LANDMARKCO":"408","LANDMARKNA":"郵局-大寮中興郵局","LANDMARKAD":"1001203","ADDRESS":"高雄市大寮區中正路3之15、16、17號","TEL":"(07)7825-018","COUNTYNAME":"高雄市","TOWNNAME":"大寮區","MARKTYPE":"994","Class":"4"},"geometry":{"x":120.3860961738911,"y":22.617528659063542}},{"attributes":{"OBJECTID":20442,"LANDMARKID":"1001200001116","LANDMARKCO":"408","LANDMARKNA":"郵局-大寮大發郵局","LANDMARKAD":"1001203","ADDRESS":"高雄市大寮區大寮路767號","TEL":"(07)7879-688","COUNTYNAME":"高雄市","TOWNNAME":"大寮區","MARKTYPE":"994","Class":"4"},"geometry":{"x":120.41588715519461,"y":22.591460344593518}},{"attributes":{"OBJECTID":20443,"LANDMARKID":"1001200001117","LANDMARKCO":"409","LANDMARKNA":"高雄市大寮區農會","LANDMARKAD":"1001203","ADDRESS":"高雄市大寮區鳳林三路351號","TEL":"07-7811141","COUNTYNAME":"高雄市","TOWNNAME":"大寮區","MARKTYPE":"994","Class":"4"},"geometry":{"x":120.39725234782253,"y":22.600976520050711}},{"attributes":{"OBJECTID":20444,"LANDMARKID":"1001200001118","LANDMARKCO":"409","LANDMARKNA":"翁園農會","LANDMARKAD":"1001203","ADDRESS":"大寮區翁園村翁園路70~32號","TEL":"07-786-0623","COUNTYNAME":"高雄市","TOWNNAME":"大寮區","MARKTYPE":"994","Class":"4"},"geometry":{"x":120.40766123664416,"y":22.627855886119988}},{"attributes":{"OBJECTID":20445,"LANDMARKID":"1001200001119","LANDMARKCO":"409","LANDMARKNA":"大寮農會-後庄分部","LANDMARKAD":"1001203","ADDRESS":"高雄市大寮區後庄村鳳屏一路233號","TEL":"07-701-30","COUNTYNAME":"高雄市","TOWNNAME":"大寮區","MARKTYPE":"994","Class":"4"},"geometry":{"x":120.39241235225641,"y":22.636485892237229}},{"attributes":{"OBJECTID":20446,"LANDMARKID":"1001200001120","LANDMARKCO":"409","LANDMARKNA":"大寮農會-中庄分部","LANDMARKAD":"1001203","ADDRESS":"高雄市大寮區中庄村四維路184號","TEL":"07-703-44","COUNTYNAME":"高雄市","TOWNNAME":"大寮區","MARKTYPE":"994","Class":"4"},"geometry":{"x":120.39414154010328,"y":22.635947434366663}},{"attributes":{"OBJECTID":20447,"LANDMARKID":"1001200001121","LANDMARKCO":"409","LANDMARKNA":"大寮農會-大寮分部","LANDMARKAD":"1001203","ADDRESS":"高雄市大寮區大寮村大寮路491號","TEL":"07-788-44","COUNTYNAME":"高雄市","TOWNNAME":"大寮區","MARKTYPE":"994","Class":"4"},"geometry":{"x":120.41029461430915,"y":22.592931278113735}},{"attributes":{"OBJECTID":20448,"LANDMARKID":"1001200001122","LANDMARKCO":"409","LANDMARKNA":"大寮農會-潮寮分部","LANDMARKAD":"1001203","ADDRESS":"高雄市大寮區潮寮村潮寮路49~4號","TEL":"07-787-50","COUNTYNAME":"高雄市","TOWNNAME":"大寮區","MARKTYPE":"994","Class":"4"},"geometry":{"x":120.40824385958896,"y":22.545180975950281}},{"attributes":{"OBJECTID":20449,"LANDMARKID":"1001200001123","LANDMARKCO":"409","LANDMARKNA":"大寮農會-昭明分部","LANDMARKAD":"1001203","ADDRESS":"高雄市大寮區昭明村鳳林一路348號","TEL":"07-641-35","COUNTYNAME":"高雄市","TOWNNAME":"大寮區","MARKTYPE":"994","Class":"4"},"geometry":{"x":120.4078783138135,"y":22.544839630732245}},{"attributes":{"OBJECTID":20450,"LANDMARKID":"1001200000831","LANDMARKCO":"404","LANDMARKNA":"台灣省自來水拷潭給水廠","LANDMARKAD":"1001203","ADDRESS":"高雄市大寮區仁德路12號","TEL":" ","COUNTYNAME":"高雄市","TOWNNAME":"大寮區","MARKTYPE":"994","Class":"4"},"geometry":{"x":120.39921038651792,"y":22.590902200578189}},{"attributes":{"OBJECTID":20451,"LANDMARKID":"1001200000832","LANDMARKCO":"405","LANDMARKNA":"福懋加油站-大寮站(台塑)","LANDMARKAD":"1001203","ADDRESS":"高雄市大寮區仁德路一段1號","TEL":"07-7885601","COUNTYNAME":"高雄市","TOWNNAME":"大寮區","MARKTYPE":"994","Class":"4"},"geometry":{"x":120.40318421173636,"y":22.591849591021013}},{"attributes":{"OBJECTID":20452,"LANDMARKID":"1001200000833","LANDMARKCO":"405","LANDMARKNA":"全國加油站-鳳屏站（台塑）","LANDMARKAD":"1001203","ADDRESS":"高雄市大寮區中庄村鳳屏一路810號","TEL":"07-7014976","COUNTYNAME":"高雄市","TOWNNAME":"大寮區","MARKTYPE":"994","Class":"4"},"geometry":{"x":120.40122330861988,"y":22.639096497885046}},{"attributes":{"OBJECTID":20453,"LANDMARKID":"1001200000834","LANDMARKCO":"405","LANDMARKNA":"福懋加油站-九曲堂站(台塑)","LANDMARKAD":"1001203","ADDRESS":"高雄市大寮區義和村九和路43號","TEL":"07-6525015","COUNTYNAME":"高雄市","TOWNNAME":"大寮區","MARKTYPE":"994","Class":"4"},"geometry":{"x":120.41931089282008,"y":22.644251622330415}},{"attributes":{"OBJECTID":20454,"LANDMARKID":"1001200000835","LANDMARKCO":"405","LANDMARKNA":"全國加油站-大寮站（台塑）","LANDMARKAD":"1001203","ADDRESS":"高雄市大寮區鳳林四路398號","TEL":"07-7860388","COUNTYNAME":"高雄市","TOWNNAME":"大寮區","MARKTYPE":"994","Class":"4"},"geometry":{"x":120.3816297508415,"y":22.620686850216089}},{"attributes":{"OBJECTID":20455,"LANDMARKID":"1001200000836","LANDMARKCO":"405","LANDMARKNA":"台亞加油站-萬鳳站（台塑）","LANDMARKAD":"1001203","ADDRESS":"高雄市大寮區萬丹路16號","TEL":"(07)781-0115","COUNTYNAME":"高雄市","TOWNNAME":"大寮區","MARKTYPE":"994","Class":"4"},"geometry":{"x":120.39184615148027,"y":22.611931701499469}},{"attributes":{"OBJECTID":20456,"LANDMARKID":"1001200000837","LANDMARKCO":"405","LANDMARKNA":"台亞加油站-新厝站（台塑）","LANDMARKAD":"1001203","ADDRESS":"高雄市大寮區鳳林二路107號","TEL":"(07)787-5121","COUNTYNAME":"高雄市","TOWNNAME":"大寮區","MARKTYPE":"994","Class":"4"},"geometry":{"x":120.41157811069945,"y":22.561014903755545}},{"attributes":{"OBJECTID":20457,"LANDMARKID":"1001200000838","LANDMARKCO":"405","LANDMARKNA":"台塑加油站-恆通站(台塑)","LANDMARKAD":"1001203","ADDRESS":"高雄市大寮區鳳屏二路130號","TEL":"07-7030197","COUNTYNAME":"高雄市","TOWNNAME":"大寮區","MARKTYPE":"994","Class":"4"},"geometry":{"x":120.41586517521867,"y":22.641449292823271}},{"attributes":{"OBJECTID":20458,"LANDMARKID":"1001200000839","LANDMARKCO":"405","LANDMARKNA":"台塑加油站-明月潭站(台塑)","LANDMARKAD":"1001203","ADDRESS":"高雄市大寮區內坑路158-6號","TEL":"07-7924093","COUNTYNAME":"高雄市","TOWNNAME":"大寮區","MARKTYPE":"994","Class":"4"},"geometry":{"x":120.3950159841278,"y":22.597893312726228}},{"attributes":{"OBJECTID":20459,"LANDMARKID":"1001200000840","LANDMARKCO":"405","LANDMARKNA":"台塑加油站-吉祥站(台塑)","LANDMARKAD":"1001203","ADDRESS":"高雄市大寮區光明路三段1號","TEL":"07-7861066","COUNTYNAME":"高雄市","TOWNNAME":"大寮區","MARKTYPE":"994","Class":"4"},"geometry":{"x":120.41307934915473,"y":22.612207274290334}},{"attributes":{"OBJECTID":20460,"LANDMARKID":"1001200000033","LANDMARKCO":"101","LANDMARKNA":"內政部國土測繪中心大寮辦公室","LANDMARKAD":"1001203","ADDRESS":"高雄市大寮區會社村力行路53號","TEL":"07-7834798","COUNTYNAME":"高雄市","TOWNNAME":"大寮區","MARKTYPE":"991","Class":"1"},"geometry":{"x":120.38579322164937,"y":22.584646792384358}},{"attributes":{"OBJECTID":20461,"LANDMARKID":"1001200000041","LANDMARKCO":"103","LANDMARKNA":"高雄市大寮區衛生所","LANDMARKAD":"1001203","ADDRESS":"高雄市大寮區進學路129巷2號之1","TEL":"07-7811965","COUNTYNAME":"高雄市","TOWNNAME":"大寮區","MARKTYPE":"991","Class":"1"},"geometry":{"x":120.39342900668019,"y":22.604179657437609}},{"attributes":{"OBJECTID":20462,"LANDMARKID":"1001200000151","LANDMARKCO":"107","LANDMARKNA":"高雄市消防局大寮消防分隊","LANDMARKAD":"1001203","ADDRESS":"高雄市大寮區鳳林三路596之1號","TEL":"07-7811457","COUNTYNAME":"高雄市","TOWNNAME":"大寮區","MARKTYPE":"991","Class":"1"},"geometry":{"x":120.39470815149973,"y":22.608333014268311}},{"attributes":{"OBJECTID":20463,"LANDMARKID":"1001200000042","LANDMARKCO":"103","LANDMARKNA":"高雄市大寮區鄉民代表會","LANDMARKAD":"1001203","ADDRESS":"高雄市大寮區鳳林三路492號","TEL":"07-7836958","COUNTYNAME":"高雄市","TOWNNAME":"大寮區","MARKTYPE":"991","Class":"1"},"geometry":{"x":120.39531458161832,"y":22.605447719706156}},{"attributes":{"OBJECTID":20464,"LANDMARKID":"1001200000149","LANDMARKCO":"107","LANDMARKNA":"高雄市政府警察局中庄派出所","LANDMARKAD":"1001203","ADDRESS":"高雄市大寮區中庄村仁愛路101號","TEL":"07-7016714","COUNTYNAME":"高雄市","TOWNNAME":"大寮區","MARKTYPE":"991","Class":"1"},"geometry":{"x":120.39540211229354,"y":22.634076020871102}},{"attributes":{"OBJECTID":20465,"LANDMARKID":"1001200000150","LANDMARKCO":"107","LANDMARKNA":"高雄市政府警察局大寮分駐所","LANDMARKAD":"1001203","ADDRESS":"高雄市大寮區鳳林三路377號","TEL":"07-7816335","COUNTYNAME":"高雄市","TOWNNAME":"大寮區","MARKTYPE":"991","Class":"1"},"geometry":{"x":120.39672666759695,"y":22.602749095316604}},{"attributes":{"OBJECTID":20466,"LANDMARKID":"1001200000142","LANDMARKCO":"106","LANDMARKNA":"高雄市大寮區戶政事務所","LANDMARKAD":"1001203","ADDRESS":"高雄市大寮區鳳林三路375號","TEL":"07-7817516","COUNTYNAME":"高雄市","TOWNNAME":"大寮區","MARKTYPE":"991","Class":"1"},"geometry":{"x":120.39794403833803,"y":22.602567162050143}},{"attributes":{"OBJECTID":20467,"LANDMARKID":"1001200000034","LANDMARKCO":"101","LANDMARKNA":"工業局大發工業區服務中心","LANDMARKAD":"1001203","ADDRESS":"高雄市大寮區潮寮村華中路1號","TEL":"07-7871281#2","COUNTYNAME":"高雄市","TOWNNAME":"大寮區","MARKTYPE":"991","Class":"1"},"geometry":{"x":120.42924057556131,"y":22.582635401345811}},{"attributes":{"OBJECTID":20468,"LANDMARKID":"1001200000299","LANDMARKCO":"108","LANDMARKNA":"高雄市大寮區公所","LANDMARKAD":"1001203","ADDRESS":"高雄市大寮區鳳林三路492號","TEL":"07-7813041","COUNTYNAME":"高雄市","TOWNNAME":"大寮區","MARKTYPE":"991","Class":"1"},"geometry":{"x":120.39531458161832,"y":22.605447719706156}},{"attributes":{"OBJECTID":20469,"LANDMARKID":"1001200000152","LANDMARKCO":"107","LANDMARKNA":"高雄市政府警察局忠義派出所","LANDMARKAD":"1001203","ADDRESS":"高雄市大寮區鳳林四路353號","TEL":"07-7816335","COUNTYNAME":"高雄市","TOWNNAME":"大寮區","MARKTYPE":"991","Class":"1"},"geometry":{"x":120.38228499458928,"y":22.619850747464366}},{"attributes":{"OBJECTID":20470,"LANDMARKID":"1001200000153","LANDMARKCO":"107","LANDMARKNA":"高雄市政府警察局昭明派出所","LANDMARKAD":"1001203","ADDRESS":"高雄市大寮區義仁村鳳林一路二八七號","TEL":"07-6411903","COUNTYNAME":"高雄市","TOWNNAME":"大寮區","MARKTYPE":"991","Class":"1"},"geometry":{"x":120.40572141145772,"y":22.54461578999004}},{"attributes":{"OBJECTID":20471,"LANDMARKID":"1001200000035","LANDMARKCO":"101","LANDMARKNA":"台灣高雄女子監獄","LANDMARKAD":"1001203","ADDRESS":"高雄市大寮區內坑村淑德新村1號","TEL":"07-7920586","COUNTYNAME":"高雄市","TOWNNAME":"大寮區","MARKTYPE":"991","Class":"1"},"geometry":{"x":120.37082075688052,"y":22.58910021544936}},{"attributes":{"OBJECTID":20472,"LANDMARKID":"1001200000036","LANDMARKCO":"101","LANDMARKNA":"台灣高雄監獄","LANDMARKAD":"1001203","ADDRESS":"高雄市大寮區仁德新村1號","TEL":"07-7882548","COUNTYNAME":"高雄市","TOWNNAME":"大寮區","MARKTYPE":"991","Class":"1"},"geometry":{"x":120.39749761849379,"y":22.590191541368601}},{"attributes":{"OBJECTID":20473,"LANDMARKID":"1001200000343","LANDMARKCO":"202","LANDMARKNA":"私立樂育高中","LANDMARKAD":"1001203","ADDRESS":"高雄市大寮區鳳屏一路217號","TEL":"07-7011345","COUNTYNAME":"高雄市","TOWNNAME":"大寮區","MARKTYPE":"992","Class":"2"},"geometry":{"x":120.39024231672092,"y":22.635593284292892}},{"attributes":{"OBJECTID":20474,"LANDMARKID":"1001200000598","LANDMARKCO":"204","LANDMARKNA":"高雄市立圖書館大寮分館","LANDMARKAD":"1001203","ADDRESS":"高雄市大寮區永芳村進學路133號","TEL":" ","COUNTYNAME":"高雄市","TOWNNAME":"大寮區","MARKTYPE":"992","Class":"2"},"geometry":{"x":120.39364169511859,"y":22.603559810108191}},{"attributes":{"OBJECTID":20475,"LANDMARKID":"1001200000352","LANDMARKCO":"203","LANDMARKNA":"忠義國小","LANDMARKAD":"1001203","ADDRESS":" ","TEL":" ","COUNTYNAME":"高雄市","TOWNNAME":"大寮區","MARKTYPE":"992","Class":"2"},"geometry":{"x":120.38371380537463,"y":22.618586750848824}},{"attributes":{"OBJECTID":20476,"LANDMARKID":"1001200000353","LANDMARKCO":"203","LANDMARKNA":"縣立昭明國小","LANDMARKAD":"1001203","ADDRESS":"高雄市大寮區鳳林一路300巷80號","TEL":"07-6426428","COUNTYNAME":"高雄市","TOWNNAME":"大寮區","MARKTYPE":"992","Class":"2"},"geometry":{"x":120.40863000079663,"y":22.541646825737661}},{"attributes":{"OBJECTID":20477,"LANDMARKID":"1001200000341","LANDMARKCO":"202","LANDMARKNA":"私立中山工商","LANDMARKAD":"1001203","ADDRESS":"高雄市大寮區正氣路79號","TEL":"07-7815311","COUNTYNAME":"高雄市","TOWNNAME":"大寮區","MARKTYPE":"992","Class":"2"},"geometry":{"x":120.39330260866066,"y":22.600566356513994}},{"attributes":{"OBJECTID":20478,"LANDMARKID":"1001200000342","LANDMARKCO":"202","LANDMARKNA":"私立高英工商","LANDMARKAD":"1001203","ADDRESS":"高雄市大寮區鳳林三路19巷44號","TEL":"07-7832991","COUNTYNAME":"高雄市","TOWNNAME":"大寮區","MARKTYPE":"992","Class":"2"},"geometry":{"x":120.39972326474226,"y":22.594001181948709}},{"attributes":{"OBJECTID":20479,"LANDMARKID":"1001200000354","LANDMARKCO":"203","LANDMARKNA":"縣立大寮國中","LANDMARKAD":"1001203","ADDRESS":"高雄市大寮區進學路150號","TEL":"07-7818038","COUNTYNAME":"高雄市","TOWNNAME":"大寮區","MARKTYPE":"992","Class":"2"},"geometry":{"x":120.39292065745049,"y":22.603363026329305}},{"attributes":{"OBJECTID":20480,"LANDMARKID":"1001200000355","LANDMARKCO":"203","LANDMARKNA":"縣立潮寮國中","LANDMARKAD":"1001203","ADDRESS":"高雄市大寮區潮寮路51之9號","TEL":"07-7876537","COUNTYNAME":"高雄市","TOWNNAME":"大寮區","MARKTYPE":"992","Class":"2"},"geometry":{"x":120.42552753417264,"y":22.563292730562612}},{"attributes":{"OBJECTID":20481,"LANDMARKID":"1001200000356","LANDMARKCO":"203","LANDMARKNA":"縣立中庄國中","LANDMARKAD":"1001203","ADDRESS":"高雄市大寮區光明路三段1437號","TEL":"07-7033166","COUNTYNAME":"高雄市","TOWNNAME":"大寮區","MARKTYPE":"992","Class":"2"},"geometry":{"x":120.40170743415098,"y":22.636450435175128}},{"attributes":{"OBJECTID":20482,"LANDMARKID":"1001200000357","LANDMARKCO":"203","LANDMARKNA":"縣立忠義國小","LANDMARKAD":"1001203","ADDRESS":"高雄市大寮區忠義路1號","TEL":"07-7812858","COUNTYNAME":"高雄市","TOWNNAME":"大寮區","MARKTYPE":"992","Class":"2"},"geometry":{"x":120.38423627194612,"y":22.616423380258947}},{"attributes":{"OBJECTID":20483,"LANDMARKID":"1001200000358","LANDMARKCO":"203","LANDMARKNA":"縣立山頂國小","LANDMARKAD":"1001203","ADDRESS":"高雄市大寮區山頂路211號","TEL":"07-7828205","COUNTYNAME":"高雄市","TOWNNAME":"大寮區","MARKTYPE":"992","Class":"2"},"geometry":{"x":120.38856810368077,"y":22.607505340077989}},{"attributes":{"OBJECTID":20484,"LANDMARKID":"1001200000359","LANDMARKCO":"203","LANDMARKNA":"縣立永芳國小","LANDMARKAD":"1001203","ADDRESS":"高雄市大寮區鳳林三路499號","TEL":"07-7812814","COUNTYNAME":"高雄市","TOWNNAME":"大寮區","MARKTYPE":"992","Class":"2"},"geometry":{"x":120.395168687894,"y":22.605446620128152}},{"attributes":{"OBJECTID":20485,"LANDMARKID":"1001200000360","LANDMARKCO":"203","LANDMARKNA":"縣立中庄國小","LANDMARKAD":"1001203","ADDRESS":"高雄市大寮區中庄路59號","TEL":"07-7032838","COUNTYNAME":"高雄市","TOWNNAME":"大寮區","MARKTYPE":"992","Class":"2"},"geometry":{"x":120.39760492450016,"y":22.634714301154357}},{"attributes":{"OBJECTID":20486,"LANDMARKID":"1001200000361","LANDMARKCO":"203","LANDMARKNA":"縣立翁園國小","LANDMARKAD":"1001203","ADDRESS":"高雄市大寮區翁園路79號","TEL":"07-7811685","COUNTYNAME":"高雄市","TOWNNAME":"大寮區","MARKTYPE":"992","Class":"2"},"geometry":{"x":120.40792206669859,"y":22.622929655711321}},{"attributes":{"OBJECTID":20487,"LANDMARKID":"1001200000362","LANDMARKCO":"203","LANDMARKNA":"縣立大寮國小","LANDMARKAD":"1001203","ADDRESS":"高雄市大寮區大寮路740號","TEL":"07-7881652","COUNTYNAME":"高雄市","TOWNNAME":"大寮區","MARKTYPE":"992","Class":"2"},"geometry":{"x":120.41645722706011,"y":22.590811720234807}},{"attributes":{"OBJECTID":20488,"LANDMARKID":"1001200000363","LANDMARKCO":"203","LANDMARKNA":"縣立溪寮國小","LANDMARKAD":"1001203","ADDRESS":"高雄市大寮區溪寮路69號","TEL":"07-6516256","COUNTYNAME":"高雄市","TOWNNAME":"大寮區","MARKTYPE":"992","Class":"2"},"geometry":{"x":120.42057099602732,"y":22.630015231137492}},{"attributes":{"OBJECTID":20489,"LANDMARKID":"1001200000364","LANDMARKCO":"203","LANDMARKNA":"縣立潮寮國小","LANDMARKAD":"1001203","ADDRESS":"高雄市大寮區潮寮路61號","TEL":"07-7875075","COUNTYNAME":"高雄市","TOWNNAME":"大寮區","MARKTYPE":"992","Class":"2"},"geometry":{"x":120.42506707787372,"y":22.565095606083116}},{"attributes":{"OBJECTID":20490,"LANDMARKID":"1001200000365","LANDMARKCO":"203","LANDMARKNA":"縣立後庄國小","LANDMARKAD":"1001203","ADDRESS":"高雄市大寮區後庄村民揚路28號","TEL":"07-7035278","COUNTYNAME":"高雄市","TOWNNAME":"大寮區","MARKTYPE":"992","Class":"2"},"geometry":{"x":120.38774930295834,"y":22.634772112517215}},{"attributes":{"OBJECTID":20491,"LANDMARKID":"1001200000366","LANDMARKCO":"203","LANDMARKNA":"縣立後庄國小","LANDMARKAD":"1001203","ADDRESS":"高雄市大寮區民揚路28號","TEL":"07-7035278","COUNTYNAME":"高雄市","TOWNNAME":"大寮區","MARKTYPE":"992","Class":"2"},"geometry":{"x":120.3896735930694,"y":22.637485407599279}},{"attributes":{"OBJECTID":20492,"LANDMARKID":"1001200000301","LANDMARKCO":"201","LANDMARKNA":"輔英科技大學","LANDMARKAD":"1001203","ADDRESS":"高雄市大寮區進學路151號","TEL":"07-7811151","COUNTYNAME":"高雄市","TOWNNAME":"大寮區","MARKTYPE":"992","Class":"2"},"geometry":{"x":120.3914666868888,"y":22.603904425829601}},{"attributes":{"OBJECTID":20493,"LANDMARKID":"1001200000302","LANDMARKCO":"201","LANDMARKNA":"和春技術學院萬大校區","LANDMARKAD":"1001203","ADDRESS":"高雄市大寮區農場路1之10號","TEL":"07-7889888","COUNTYNAME":"高雄市","TOWNNAME":"大寮區","MARKTYPE":"992","Class":"2"},"geometry":{"x":120.42715389077942,"y":22.606381656448487}},{"attributes":{"OBJECTID":20494,"LANDMARKID":"1001200000303","LANDMARKCO":"201","LANDMARKNA":"和春技術學院大寮校區","LANDMARKAD":"1001203","ADDRESS":"高雄市大寮區中庄村信義路40號","TEL":"07-7014242","COUNTYNAME":"高雄市","TOWNNAME":"大寮區","MARKTYPE":"992","Class":"2"},"geometry":{"x":120.39156181207309,"y":22.633797118408555}},{"attributes":{"OBJECTID":20495,"LANDMARKID":"1001200000367","LANDMARKCO":"203","LANDMARKNA":"縣立昭明國小新厝分校","LANDMARKAD":"1001203","ADDRESS":"高雄市大寮區","TEL":" ","COUNTYNAME":"高雄市","TOWNNAME":"大寮區","MARKTYPE":"992","Class":"2"},"geometry":{"x":120.40634248366855,"y":22.560785721885608}},{"attributes":{"OBJECTID":20496,"LANDMARKID":"1001200000698","LANDMARKCO":"308","LANDMARKNA":"台88-大寮交流道-西行","LANDMARKAD":"1001203","ADDRESS":" ","TEL":" ","COUNTYNAME":"高雄市","TOWNNAME":"大寮區","MARKTYPE":"993","Class":"308"},"geometry":{"x":120.40265683851563,"y":22.586911887175436}},{"attributes":{"OBJECTID":20497,"LANDMARKID":"1001200000699","LANDMARKCO":"308","LANDMARKNA":"台88-大寮交流道-東行","LANDMARKAD":"1001203","ADDRESS":" ","TEL":" ","COUNTYNAME":"高雄市","TOWNNAME":"大寮區","MARKTYPE":"993","Class":"308"},"geometry":{"x":120.40906675176424,"y":22.586396504698026}},{"attributes":{"OBJECTID":20498,"LANDMARKID":"1001200000700","LANDMARKCO":"308","LANDMARKNA":"台88-大發交流道-西行","LANDMARKAD":"1001203","ADDRESS":" ","TEL":" ","COUNTYNAME":"高雄市","TOWNNAME":"大寮區","MARKTYPE":"993","Class":"308"},"geometry":{"x":120.42417407303867,"y":22.592244200094932}},{"attributes":{"OBJECTID":20499,"LANDMARKID":"1001200000701","LANDMARKCO":"308","LANDMARKNA":"台88-大發交流道-東行","LANDMARKAD":"1001203","ADDRESS":" ","TEL":" ","COUNTYNAME":"高雄市","TOWNNAME":"大寮區","MARKTYPE":"993","Class":"308"},"geometry":{"x":120.43403817088942,"y":22.592516489413324}},{"attributes":{"OBJECTID":20500,"LANDMARKID":"1001200000689","LANDMARKCO":"306","LANDMARKNA":"大寮捷運站-出口1","LANDMARKAD":"1001203","ADDRESS":" ","TEL":" ","COUNTYNAME":"高雄市","TOWNNAME":"大寮區","MARKTYPE":"993","Class":"306"},"geometry":{"x":120.39067404133618,"y":22.621570251443917}},{"attributes":{"OBJECTID":20501,"LANDMARKID":"1001200000690","LANDMARKCO":"306","LANDMARKNA":"大寮捷運站-出口2","LANDMARKAD":"1001203","ADDRESS":" ","TEL":" ","COUNTYNAME":"高雄市","TOWNNAME":"大寮區","MARKTYPE":"993","Class":"306"},"geometry":{"x":120.39124984695685,"y":22.621496484472765}},{"attributes":{"OBJECTID":20502,"LANDMARKID":"1001200000668","LANDMARKCO":"303","LANDMARKNA":"大寮停車場","LANDMARKAD":"1001203","ADDRESS":"高雄市大寮區","TEL":" ","COUNTYNAME":"高雄市","TOWNNAME":"大寮區","MARKTYPE":"993","Class":"303"},"geometry":{"x":120.39442928722823,"y":22.601720360954097}},{"attributes":{"OBJECTID":20503,"LANDMARKID":"1001200000615","LANDMARKCO":"301","LANDMARKNA":"後庄火車站","LANDMARKAD":"1001203","ADDRESS":"高雄市大寮區","TEL":" ","COUNTYNAME":"高雄市","TOWNNAME":"大寮區","MARKTYPE":"993","Class":"301"},"geometry":{"x":120.39106857155633,"y":22.640480455901429}},{"attributes":{"OBJECTID":20504,"LANDMARKID":"1001200000765","LANDMARKCO":"402","LANDMARKNA":"中華電信-大寮服務中心","LANDMARKAD":"1001203","ADDRESS":"高雄市大寮區鳳林四路6號","TEL":"(07)344-7491","COUNTYNAME":"高雄市","TOWNNAME":"大寮區","MARKTYPE":"994","Class":"4"},"geometry":{"x":120.3888070055729,"y":22.614340354617411}},{"attributes":{"OBJECTID":20505,"LANDMARKID":"1001200000766","LANDMARKCO":"402","LANDMARKNA":"遠傳電信-大寮鳳林門市","LANDMARKAD":"1001203","ADDRESS":"高雄市大寮區鳳林四路227號","TEL":" ","COUNTYNAME":"高雄市","TOWNNAME":"大寮區","MARKTYPE":"994","Class":"4"},"geometry":{"x":120.38515507823632,"y":22.617099055888911}},{"attributes":{"OBJECTID":20506,"LANDMARKID":"1001200001410","LANDMARKCO":"603","LANDMARKNA":"永福大旅社","LANDMARKAD":"1001203","ADDRESS":"高雄市大寮區後庄村鳳屏一路199巷56號","TEL":"07-7018239","COUNTYNAME":"高雄市","TOWNNAME":"大寮區","MARKTYPE":"996","Class":"6"},"geometry":{"x":120.38896964782201,"y":22.635448371871899}},{"attributes":{"OBJECTID":20507,"LANDMARKID":"1001200001411","LANDMARKCO":"603","LANDMARKNA":"親親大旅社","LANDMARKAD":"1001203","ADDRESS":"高雄市大寮區後庄村鳳屏一路181號","TEL":"07-7024877","COUNTYNAME":"高雄市","TOWNNAME":"大寮區","MARKTYPE":"996","Class":"6"},"geometry":{"x":120.38931641849966,"y":22.634143692835071}},{"attributes":{"OBJECTID":20508,"LANDMARKID":"1001200001412","LANDMARKCO":"603","LANDMARKNA":"燕莊大旅社","LANDMARKAD":"1001203","ADDRESS":"高雄市大寮區後庄村鳳屏一路477號","TEL":"07-7011913","COUNTYNAME":"高雄市","TOWNNAME":"大寮區","MARKTYPE":"996","Class":"6"},"geometry":{"x":120.39644343664385,"y":22.638300601165909}},{"attributes":{"OBJECTID":20509,"LANDMARKID":"1001200001413","LANDMARKCO":"603","LANDMARKNA":"金倫商務汽車旅館","LANDMARKAD":"1001203","ADDRESS":"高雄市大寮區翁園村光明路三段397號","TEL":"07-7813837或236","COUNTYNAME":"高雄市","TOWNNAME":"大寮區","MARKTYPE":"996","Class":"6"},"geometry":{"x":120.41182024983294,"y":22.622868666139997}},{"attributes":{"OBJECTID":20510,"LANDMARKID":"1001200001414","LANDMARKCO":"603","LANDMARKNA":"安迪旅館","LANDMARKAD":"1001203","ADDRESS":"高雄市大寮區周廣街5號","TEL":"07-7833848","COUNTYNAME":"高雄市","TOWNNAME":"大寮區","MARKTYPE":"996","Class":"6"},"geometry":{"x":120.41701259645569,"y":22.590885320178362}},{"attributes":{"OBJECTID":20511,"LANDMARKID":"1001200001415","LANDMARKCO":"603","LANDMARKNA":"金都大旅社","LANDMARKAD":"1001203","ADDRESS":"高雄市大寮區三隆村鳳林三路82號","TEL":"07-7814896","COUNTYNAME":"高雄市","TOWNNAME":"大寮區","MARKTYPE":"996","Class":"6"},"geometry":{"x":120.40114675872357,"y":22.596812345439044}},{"attributes":{"OBJECTID":20512,"LANDMARKID":"1001200001416","LANDMARKCO":"603","LANDMARKNA":"華都大旅社","LANDMARKAD":"1001203","ADDRESS":"高雄市大寮區中庄村八德路39號","TEL":"07-7016734","COUNTYNAME":"高雄市","TOWNNAME":"大寮區","MARKTYPE":"996","Class":"6"},"geometry":{"x":120.39288721418484,"y":22.635105690818733}},{"attributes":{"OBJECTID":20513,"LANDMARKID":"1001200001417","LANDMARKCO":"603","LANDMARKNA":"永傑賓館","LANDMARKAD":"1001203","ADDRESS":"高雄市大寮區中庄村仁愛路126號","TEL":"07-7012021","COUNTYNAME":"高雄市","TOWNNAME":"大寮區","MARKTYPE":"996","Class":"6"},"geometry":{"x":120.39515571205382,"y":22.634541749063004}},{"attributes":{"OBJECTID":20514,"LANDMARKID":"1001200001418","LANDMARKCO":"603","LANDMARKNA":"富光大旅社","LANDMARKAD":"1001203","ADDRESS":"高雄市大寮區中庄村仁愛路33號","TEL":"07-7011710","COUNTYNAME":"高雄市","TOWNNAME":"大寮區","MARKTYPE":"996","Class":"6"},"geometry":{"x":120.39503384798266,"y":22.636374289349}},{"attributes":{"OBJECTID":20515,"LANDMARKID":"1001200001419","LANDMARKCO":"603","LANDMARKNA":"吉普森汽車旅館","LANDMARKAD":"1001203","ADDRESS":"高雄市大寮區中庄村仁愛路52號1-2樓","TEL":"07-7026606","COUNTYNAME":"高雄市","TOWNNAME":"大寮區","MARKTYPE":"996","Class":"6"},"geometry":{"x":120.39492404625537,"y":22.635606875446495}},{"attributes":{"OBJECTID":20516,"LANDMARKID":"1001200001501","LANDMARKCO":"605","LANDMARKNA":"翁園活動中心","LANDMARKAD":"1001203","ADDRESS":"高雄市大寮區","TEL":" ","COUNTYNAME":"高雄市","TOWNNAME":"大寮區","MARKTYPE":"996","Class":"6"},"geometry":{"x":120.40864374894818,"y":22.623615671569762}},{"attributes":{"OBJECTID":20517,"LANDMARKID":"1001200001502","LANDMARKCO":"605","LANDMARKNA":"凱旋醫院","LANDMARKAD":"1001203","ADDRESS":"高雄市大寮區","TEL":" ","COUNTYNAME":"高雄市","TOWNNAME":"大寮區","MARKTYPE":"996","Class":"6"},"geometry":{"x":120.37879782928673,"y":22.605216400208736}},{"attributes":{"OBJECTID":20518,"LANDMARKID":"1001200001503","LANDMARKCO":"605","LANDMARKNA":"精忠活動中心","LANDMARKAD":"1001203","ADDRESS":"高雄市大寮區","TEL":" ","COUNTYNAME":"高雄市","TOWNNAME":"大寮區","MARKTYPE":"996","Class":"6"},"geometry":{"x":120.38228681604858,"y":22.611013225192554}},{"attributes":{"OBJECTID":20519,"LANDMARKID":"1001200001504","LANDMARKCO":"605","LANDMARKNA":"復興活動中心","LANDMARKAD":"1001203","ADDRESS":"高雄市大寮區","TEL":" ","COUNTYNAME":"高雄市","TOWNNAME":"大寮區","MARKTYPE":"996","Class":"6"},"geometry":{"x":120.3841394789743,"y":22.612739724342838}},{"attributes":{"OBJECTID":20520,"LANDMARKID":"1001200001505","LANDMARKCO":"605","LANDMARKNA":"忠義活動中心","LANDMARKAD":"1001203","ADDRESS":"高雄市大寮區","TEL":" ","COUNTYNAME":"高雄市","TOWNNAME":"大寮區","MARKTYPE":"996","Class":"6"},"geometry":{"x":120.38205744277283,"y":22.618760987623162}},{"attributes":{"OBJECTID":20521,"LANDMARKID":"1001200001506","LANDMARKCO":"605","LANDMARKNA":"中保亭","LANDMARKAD":"1001203","ADDRESS":"高雄市大寮區","TEL":" ","COUNTYNAME":"高雄市","TOWNNAME":"大寮區","MARKTYPE":"996","Class":"6"},"geometry":{"x":120.39069351188566,"y":22.606947575781025}},{"attributes":{"OBJECTID":20522,"LANDMARKID":"1001200000856","LANDMARKCO":"405","LANDMARKNA":"中油加油站-永晉站","LANDMARKAD":"1001202","ADDRESS":"高雄市林園區中芸三路300號","TEL":"07-6434303","COUNTYNAME":"高雄市","TOWNNAME":"林園區","MARKTYPE":"994","Class":"4"},"geometry":{"x":120.39850433850718,"y":22.49604920146675}},{"attributes":{"OBJECTID":20523,"LANDMARKID":"1001200000857","LANDMARKCO":"405","LANDMARKNA":"中油加油站-港埔站","LANDMARKAD":"1001202","ADDRESS":"高雄市林園區中門路1-29號","TEL":"07-6415389","COUNTYNAME":"高雄市","TOWNNAME":"林園區","MARKTYPE":"994","Class":"4"},"geometry":{"x":120.37415986788679,"y":22.504477857202577}},{"attributes":{"OBJECTID":20524,"LANDMARKID":"1001200000858","LANDMARKCO":"405","LANDMARKNA":"中油加油站-林園站","LANDMARKAD":"1001202","ADDRESS":"高雄市林園區林園北路350號","TEL":"07-6412285","COUNTYNAME":"高雄市","TOWNNAME":"林園區","MARKTYPE":"994","Class":"4"},"geometry":{"x":120.39496764538085,"y":22.511932546386539}},{"attributes":{"OBJECTID":20525,"LANDMARKID":"1001200000859","LANDMARKCO":"405","LANDMARKNA":"中油加油站-林園沿海路站","LANDMARKAD":"1001202","ADDRESS":"高雄市林園區港埔村沿海路四段1號","TEL":"07-6417604","COUNTYNAME":"高雄市","TOWNNAME":"林園區","MARKTYPE":"994","Class":"4"},"geometry":{"x":120.38629956002916,"y":22.500099766659577}},{"attributes":{"OBJECTID":20526,"LANDMARKID":"1001200000860","LANDMARKCO":"405","LANDMARKNA":"中油加油站-林興站","LANDMARKAD":"1001202","ADDRESS":"高雄市林園區溪州村沿海路一段149號","TEL":"07-6428608","COUNTYNAME":"高雄市","TOWNNAME":"林園區","MARKTYPE":"994","Class":"4"},"geometry":{"x":120.40219833260267,"y":22.5004681951681}},{"attributes":{"OBJECTID":20527,"LANDMARKID":"1001200000764","LANDMARKCO":"402","LANDMARKNA":"亞太行動寬頻電信-高雄林園加盟服務中心","LANDMARKAD":"1001202","ADDRESS":"高雄市林園區林園北路316號","TEL":"07-6438789","COUNTYNAME":"高雄市","TOWNNAME":"林園區","MARKTYPE":"994","Class":"4"},"geometry":{"x":120.39485777953715,"y":22.510911586084426}},{"attributes":{"OBJECTID":20528,"LANDMARKID":"1001200000762","LANDMARKCO":"401","LANDMARKNA":"霖園醫院","LANDMARKAD":"1001202","ADDRESS":"高雄市林園區林園北路244號","TEL":"07-6413399","COUNTYNAME":"高雄市","TOWNNAME":"林園區","MARKTYPE":"994","Class":"4"},"geometry":{"x":120.39481448256579,"y":22.50854253035223}},{"attributes":{"OBJECTID":20529,"LANDMARKID":"1001200000763","LANDMARKCO":"401","LANDMARKNA":"建佑醫院","LANDMARKAD":"1001202","ADDRESS":"高雄市林園區東林西路360號","TEL":"07-6437901","COUNTYNAME":"高雄市","TOWNNAME":"林園區","MARKTYPE":"994","Class":"4"},"geometry":{"x":120.38649296370946,"y":22.503724735986015}},{"attributes":{"OBJECTID":20530,"LANDMARKID":"1001200001270","LANDMARKCO":"507","LANDMARKNA":"鳳鼻頭遺址","LANDMARKAD":"1001202","ADDRESS":"高雄市林園區中坑門聚落北側約350公尺處","TEL":" ","COUNTYNAME":"高雄市","TOWNNAME":"林園區","MARKTYPE":"995","Class":"5"},"geometry":{"x":120.36450390361738,"y":22.509030870157073}},{"attributes":{"OBJECTID":20531,"LANDMARKID":"1001200001109","LANDMARKCO":"408","LANDMARKNA":"郵局-林園郵局","LANDMARKAD":"1001202","ADDRESS":"高雄市林園區東林村鳳林路1段176號","TEL":"(07)6412-106","COUNTYNAME":"高雄市","TOWNNAME":"林園區","MARKTYPE":"994","Class":"4"},"geometry":{"x":120.39493881156868,"y":22.504889921530747}},{"attributes":{"OBJECTID":20532,"LANDMARKID":"1001200001110","LANDMARKCO":"408","LANDMARKNA":"郵局-林園三庄郵局","LANDMARKAD":"1001202","ADDRESS":"高雄市林園區林內村林內路153號","TEL":"(07)6411-223","COUNTYNAME":"高雄市","TOWNNAME":"林園區","MARKTYPE":"994","Class":"4"},"geometry":{"x":120.40056303652331,"y":22.533788162296993}},{"attributes":{"OBJECTID":20533,"LANDMARKID":"1001200001111","LANDMARKCO":"408","LANDMARKNA":"郵局-林園福興郵局","LANDMARKAD":"1001202","ADDRESS":"高雄市林園區頂厝村福興街104號","TEL":"(07)6431-863","COUNTYNAME":"高雄市","TOWNNAME":"林園區","MARKTYPE":"994","Class":"4"},"geometry":{"x":120.39491884165395,"y":22.504882846644666}},{"attributes":{"OBJECTID":20534,"LANDMARKID":"1001200001125","LANDMARKCO":"409","LANDMARKNA":"高雄市林園區農會","LANDMARKAD":"1001202","ADDRESS":"高雄市林園區林園村忠孝西路47號","TEL":"07-6432556-60","COUNTYNAME":"高雄市","TOWNNAME":"林園區","MARKTYPE":"994","Class":"4"},"geometry":{"x":120.39274773014196,"y":22.506842496190785}},{"attributes":{"OBJECTID":20535,"LANDMARKID":"1001200001126","LANDMARKCO":"409","LANDMARKNA":"林園區漁會","LANDMARKAD":"1001202","ADDRESS":"高雄市林園區漁港路2號","TEL":"07-643-2763","COUNTYNAME":"高雄市","TOWNNAME":"林園區","MARKTYPE":"994","Class":"4"},"geometry":{"x":120.39849732959085,"y":22.482562826377428}},{"attributes":{"OBJECTID":20536,"LANDMARKID":"1001200001127","LANDMARKCO":"409","LANDMARKNA":"林園區農會-中厝分部","LANDMARKAD":"1001202","ADDRESS":"高雄市林園區潭頭路149-1號","TEL":"07-642-74","COUNTYNAME":"高雄市","TOWNNAME":"林園區","MARKTYPE":"994","Class":"4"},"geometry":{"x":120.39737823686917,"y":22.523781648822684}},{"attributes":{"OBJECTID":20537,"LANDMARKID":"1001200001128","LANDMARKCO":"409","LANDMARKNA":"林園區農會-頂厝分部","LANDMARKAD":"1001202","ADDRESS":"高雄市林園區沿海路四段217號","TEL":"07-642-75","COUNTYNAME":"高雄市","TOWNNAME":"林園區","MARKTYPE":"994","Class":"4"},"geometry":{"x":120.37958596589901,"y":22.503458038027109}},{"attributes":{"OBJECTID":20538,"LANDMARKID":"1001200001037","LANDMARKCO":"406","LANDMARKNA":"十一號公園","LANDMARKAD":"1001202","ADDRESS":"高雄市林園區","TEL":" ","COUNTYNAME":"高雄市","TOWNNAME":"林園區","MARKTYPE":"994","Class":"4"},"geometry":{"x":120.39530704466614,"y":22.498938519208416}},{"attributes":{"OBJECTID":20539,"LANDMARKID":"1001200001038","LANDMARKCO":"406","LANDMARKNA":"十號公園","LANDMARKAD":"1001202","ADDRESS":"高雄市林園區","TEL":" ","COUNTYNAME":"高雄市","TOWNNAME":"林園區","MARKTYPE":"994","Class":"4"},"geometry":{"x":120.39598174722902,"y":22.500905237862725}},{"attributes":{"OBJECTID":20540,"LANDMARKID":"1001200001039","LANDMARKCO":"406","LANDMARKNA":"林園河堤運動公園","LANDMARKAD":"1001202","ADDRESS":"高雄市林園區","TEL":" ","COUNTYNAME":"高雄市","TOWNNAME":"林園區","MARKTYPE":"994","Class":"4"},"geometry":{"x":120.41487756802711,"y":22.503574493407836}},{"attributes":{"OBJECTID":20541,"LANDMARKID":"1001200000854","LANDMARKCO":"405","LANDMARKNA":"全國加油站-林園站（台塑）","LANDMARKAD":"1001202","ADDRESS":"高雄市林園區沿海路三段55號","TEL":"07-6452601","COUNTYNAME":"高雄市","TOWNNAME":"林園區","MARKTYPE":"994","Class":"4"},"geometry":{"x":120.3928190874436,"y":22.499969803926685}},{"attributes":{"OBJECTID":20542,"LANDMARKID":"1001200000855","LANDMARKCO":"405","LANDMARKNA":"台亞加油站-林園站（台塑）","LANDMARKAD":"1001202","ADDRESS":"高雄市林園區鳳林路三段650號","TEL":"(07)643-3066","COUNTYNAME":"高雄市","TOWNNAME":"林園區","MARKTYPE":"994","Class":"4"},"geometry":{"x":120.40151747300831,"y":22.526672590650559}},{"attributes":{"OBJECTID":20543,"LANDMARKID":"1001200000146","LANDMARKCO":"107","LANDMARKNA":"高雄市政府警察局港埔派出所","LANDMARKAD":"1001202","ADDRESS":"高雄市林園區頂厝村沿海路四段326號","TEL":"07-6413695","COUNTYNAME":"高雄市","TOWNNAME":"林園區","MARKTYPE":"991","Class":"1"},"geometry":{"x":120.38043712367612,"y":22.503800696545788}},{"attributes":{"OBJECTID":20544,"LANDMARKID":"1001200000143","LANDMARKCO":"106","LANDMARKNA":"高雄市林園區戶政事務所","LANDMARKAD":"1001202","ADDRESS":"高雄市林園區林園村33鄰林園北路189號","TEL":"07-6413486#11","COUNTYNAME":"高雄市","TOWNNAME":"林園區","MARKTYPE":"991","Class":"1"},"geometry":{"x":120.39426543847566,"y":22.509090766470273}},{"attributes":{"OBJECTID":20545,"LANDMARKID":"1001200000144","LANDMARKCO":"107","LANDMARKNA":"高雄市政府警察局林園派出所","LANDMARKAD":"1001202","ADDRESS":"高雄市林園區林園村林園北路201號","TEL":"07-6412013","COUNTYNAME":"高雄市","TOWNNAME":"林園區","MARKTYPE":"991","Class":"1"},"geometry":{"x":120.39433925994165,"y":22.509542875159035}},{"attributes":{"OBJECTID":20546,"LANDMARKID":"1001200000145","LANDMARKCO":"107","LANDMARKNA":"高雄市政府警察局林園分局","LANDMARKAD":"1001202","ADDRESS":"高雄市林園區林園北路201號","TEL":"07-6412004","COUNTYNAME":"高雄市","TOWNNAME":"林園區","MARKTYPE":"991","Class":"1"},"geometry":{"x":120.39433925994165,"y":22.509542875159035}},{"attributes":{"OBJECTID":20547,"LANDMARKID":"1001200000300","LANDMARKCO":"108","LANDMARKNA":"高雄市林園區公所","LANDMARKAD":"1001202","ADDRESS":"高雄市林園區林園北路179號","TEL":"07-6412511","COUNTYNAME":"高雄市","TOWNNAME":"林園區","MARKTYPE":"991","Class":"1"},"geometry":{"x":120.39461195072818,"y":22.508360418203058}},{"attributes":{"OBJECTID":20548,"LANDMARKID":"1001200000147","LANDMARKCO":"107","LANDMARKNA":"高雄市消防局林園消防分隊","LANDMARKAD":"1001202","ADDRESS":"高雄市林園區林園北路187號","TEL":"07-6412301","COUNTYNAME":"高雄市","TOWNNAME":"林園區","MARKTYPE":"991","Class":"1"},"geometry":{"x":120.39460143030209,"y":22.508179762696201}},{"attributes":{"OBJECTID":20549,"LANDMARKID":"1001200000038","LANDMARKCO":"103","LANDMARKNA":"高雄市林園區鄉民代表會","LANDMARKAD":"1001202","ADDRESS":"高雄市林園區林園北路183號","TEL":"07-6411101","COUNTYNAME":"高雄市","TOWNNAME":"林園區","MARKTYPE":"991","Class":"1"},"geometry":{"x":120.39467103936528,"y":22.507999663904041}},{"attributes":{"OBJECTID":20550,"LANDMARKID":"1001200000039","LANDMARKCO":"103","LANDMARKNA":"高雄市林園區衛生所","LANDMARKAD":"1001202","ADDRESS":"高雄市林園區林園北路186號","TEL":"07-6412404","COUNTYNAME":"高雄市","TOWNNAME":"林園區","MARKTYPE":"991","Class":"1"},"geometry":{"x":120.39558779946616,"y":22.507645306199638}},{"attributes":{"OBJECTID":20551,"LANDMARKID":"1001200000148","LANDMARKCO":"107","LANDMARKNA":"高雄市政府警察局中芸派出所","LANDMARKAD":"1001202","ADDRESS":"高雄市林園區北汕村力行路250號","TEL":"07-6412792","COUNTYNAME":"高雄市","TOWNNAME":"林園區","MARKTYPE":"991","Class":"1"},"geometry":{"x":120.40047134164124,"y":22.48589642438807}},{"attributes":{"OBJECTID":20552,"LANDMARKID":"1001200000037","LANDMARKCO":"101","LANDMARKNA":"工業局林園工業區服務中心","LANDMARKAD":"1001202","ADDRESS":"高雄市林園區溪州村石化二路10號","TEL":"07-6412944","COUNTYNAME":"高雄市","TOWNNAME":"林園區","MARKTYPE":"991","Class":"1"},"geometry":{"x":120.40673405633544,"y":22.49919769367116}},{"attributes":{"OBJECTID":20553,"LANDMARKID":"1001200000599","LANDMARKCO":"204","LANDMARKNA":"高雄市立圖書館林園分館","LANDMARKAD":"1001202","ADDRESS":"高雄市林園區林園北路236號","TEL":" ","COUNTYNAME":"高雄市","TOWNNAME":"林園區","MARKTYPE":"992","Class":"2"},"geometry":{"x":120.39474774203232,"y":22.509300462555306}},{"attributes":{"OBJECTID":20554,"LANDMARKID":"1001200000351","LANDMARKCO":"203","LANDMARKNA":"縣立王公國小","LANDMARKAD":"1001202","ADDRESS":"高雄市林園區東林西路298巷78號","TEL":"07-6420503","COUNTYNAME":"高雄市","TOWNNAME":"林園區","MARKTYPE":"992","Class":"2"},"geometry":{"x":120.38830007836415,"y":22.504912550844061}},{"attributes":{"OBJECTID":20555,"LANDMARKID":"1001200000344","LANDMARKCO":"202","LANDMARKNA":"縣立林園高中","LANDMARKAD":"1001202","ADDRESS":"高雄市林園區林園北路481號","TEL":"07-6412059","COUNTYNAME":"高雄市","TOWNNAME":"林園區","MARKTYPE":"992","Class":"2"},"geometry":{"x":120.39292528221159,"y":22.513957365890878}},{"attributes":{"OBJECTID":20556,"LANDMARKID":"1001200000345","LANDMARKCO":"203","LANDMARKNA":"縣立中芸國中","LANDMARKAD":"1001202","ADDRESS":"高雄市林園區中芸路3之100號","TEL":"07-6425223","COUNTYNAME":"高雄市","TOWNNAME":"林園區","MARKTYPE":"992","Class":"2"},"geometry":{"x":120.39513271762991,"y":22.485154823527179}},{"attributes":{"OBJECTID":20557,"LANDMARKID":"1001200000346","LANDMARKCO":"203","LANDMARKNA":"縣立港埔國小","LANDMARKAD":"1001202","ADDRESS":"高雄市林園區頂厝村校前路1號","TEL":"07-6412282","COUNTYNAME":"高雄市","TOWNNAME":"林園區","MARKTYPE":"992","Class":"2"},"geometry":{"x":120.37804142221086,"y":22.50432409905433}},{"attributes":{"OBJECTID":20558,"LANDMARKID":"1001200000347","LANDMARKCO":"203","LANDMARKNA":"縣立林園國小","LANDMARKAD":"1001202","ADDRESS":"高雄市林園區林園村忠孝西路20號","TEL":"07-6412125","COUNTYNAME":"高雄市","TOWNNAME":"林園區","MARKTYPE":"992","Class":"2"},"geometry":{"x":120.39343085435485,"y":22.507549246160806}},{"attributes":{"OBJECTID":20559,"LANDMARKID":"1001200000348","LANDMARKCO":"203","LANDMARKNA":"縣立中芸國小","LANDMARKAD":"1001202","ADDRESS":"高雄市林園區中芸村中芸路1號","TEL":"07-6412342","COUNTYNAME":"高雄市","TOWNNAME":"林園區","MARKTYPE":"992","Class":"2"},"geometry":{"x":120.39595855103987,"y":22.487689681822623}},{"attributes":{"OBJECTID":20560,"LANDMARKID":"1001200000349","LANDMARKCO":"203","LANDMARKNA":"縣立金潭國小","LANDMARKAD":"1001202","ADDRESS":"高雄市林園區中厝村金潭路40號","TEL":"07-6412332","COUNTYNAME":"高雄市","TOWNNAME":"林園區","MARKTYPE":"992","Class":"2"},"geometry":{"x":120.39607651093097,"y":22.528510390435947}},{"attributes":{"OBJECTID":20561,"LANDMARKID":"1001200000350","LANDMARKCO":"203","LANDMARKNA":"縣立汕尾國小","LANDMARKAD":"1001202","ADDRESS":"高雄市林園區北汕村58巷2號","TEL":"07-6412334","COUNTYNAME":"高雄市","TOWNNAME":"林園區","MARKTYPE":"992","Class":"2"},"geometry":{"x":120.41142817735708,"y":22.4791629499381}},{"attributes":{"OBJECTID":20562,"LANDMARKID":"1001200000676","LANDMARKCO":"305","LANDMARKNA":"中芸漁港","LANDMARKAD":"1001202","ADDRESS":"高雄市林園區","TEL":" ","COUNTYNAME":"高雄市","TOWNNAME":"林園區","MARKTYPE":"993","Class":"305"},"geometry":{"x":120.39995287151967,"y":22.481908077423704}},{"attributes":{"OBJECTID":20563,"LANDMARKID":"1001200000619","LANDMARKCO":"302","LANDMARKNA":"高雄汽車客運林園站","LANDMARKAD":"1001202","ADDRESS":"高雄市林園區東林西路35號","TEL":" ","COUNTYNAME":"高雄市","TOWNNAME":"林園區","MARKTYPE":"993","Class":"302"},"geometry":{"x":120.39498902863005,"y":22.503481909525856}},{"attributes":{"OBJECTID":20564,"LANDMARKID":"1001200000666","LANDMARKCO":"303","LANDMARKNA":"林園區公所立體停車場","LANDMARKAD":"1001202","ADDRESS":"高雄市林園區","TEL":" ","COUNTYNAME":"高雄市","TOWNNAME":"林園區","MARKTYPE":"993","Class":"303"},"geometry":{"x":120.3960108838413,"y":22.501653669107224}},{"attributes":{"OBJECTID":20565,"LANDMARKID":"1001200000667","LANDMARKCO":"303","LANDMARKNA":"立體停車場","LANDMARKAD":"1001202","ADDRESS":" ","TEL":" ","COUNTYNAME":"高雄市","TOWNNAME":"林園區","MARKTYPE":"993","Class":"303"},"geometry":{"x":120.39561274896604,"y":22.501933337307445}},{"attributes":{"OBJECTID":20566,"LANDMARKID":"1001200000767","LANDMARKCO":"402","LANDMARKNA":"中華電信-林園服務中心","LANDMARKAD":"1001202","ADDRESS":"高雄市林園區林園北路367號","TEL":"(07)344-7580","COUNTYNAME":"高雄市","TOWNNAME":"林園區","MARKTYPE":"994","Class":"4"},"geometry":{"x":120.39470604927058,"y":22.511789047250844}},{"attributes":{"OBJECTID":20567,"LANDMARKID":"1001200000768","LANDMARKCO":"402","LANDMARKNA":"大眾電信(震旦通訊)-高雄林園店","LANDMARKAD":"1001202","ADDRESS":"高雄市林園區林園北路363號","TEL":"07-6434499","COUNTYNAME":"高雄市","TOWNNAME":"林園區","MARKTYPE":"994","Class":"4"},"geometry":{"x":120.39461610451134,"y":22.510376709629728}},{"attributes":{"OBJECTID":20568,"LANDMARKID":"1001200001420","LANDMARKCO":"603","LANDMARKNA":"芳賓大旅社","LANDMARKAD":"1001202","ADDRESS":"高雄市林園區東林村林園北路41號","TEL":"07-6412729","COUNTYNAME":"高雄市","TOWNNAME":"林園區","MARKTYPE":"996","Class":"6"},"geometry":{"x":120.3954293763136,"y":22.504991763776935}},{"attributes":{"OBJECTID":20569,"LANDMARKID":"1001200001421","LANDMARKCO":"603","LANDMARKNA":"賀凱大旅社","LANDMARKAD":"1001202","ADDRESS":"高雄市林園區東林村林園北路70巷3號","TEL":"07-6412834","COUNTYNAME":"高雄市","TOWNNAME":"林園區","MARKTYPE":"996","Class":"6"},"geometry":{"x":120.39589664233446,"y":22.505162516254856}},{"attributes":{"OBJECTID":20570,"LANDMARKID":"1001200001422","LANDMARKCO":"603","LANDMARKNA":"良朋大旅社","LANDMARKAD":"1001202","ADDRESS":"高雄市林園區東林村林園北路96號","TEL":"07-6412015","COUNTYNAME":"高雄市","TOWNNAME":"林園區","MARKTYPE":"996","Class":"6"},"geometry":{"x":120.39564749416269,"y":22.50542558227853}},{"attributes":{"OBJECTID":20571,"LANDMARKID":"1001200001423","LANDMARKCO":"603","LANDMARKNA":"林園商務汽車旅館","LANDMARKAD":"1001202","ADDRESS":"高雄市林園區東林村沿海路二段28","TEL":"30號","COUNTYNAME":"高雄市","TOWNNAME":"林園區","MARKTYPE":"996","Class":"6"},"geometry":{"x":120.39985178404773,"y":22.5012088806447}},{"attributes":{"OBJECTID":20572,"LANDMARKID":"1001200001424","LANDMARKCO":"603","LANDMARKNA":"圓林園大飯店","LANDMARKAD":"1001202","ADDRESS":"高雄市林園區東林村沿海路三段182號","TEL":"07-6432118","COUNTYNAME":"高雄市","TOWNNAME":"林園區","MARKTYPE":"996","Class":"6"},"geometry":{"x":120.38799109259176,"y":22.500206216437952}},{"attributes":{"OBJECTID":20573,"LANDMARKID":"1001200001425","LANDMARKCO":"603","LANDMARKNA":"嘉一大旅社","LANDMARKAD":"1001202","ADDRESS":"高雄市林園區文賢村康樂街39號","TEL":"07-6412042","COUNTYNAME":"高雄市","TOWNNAME":"林園區","MARKTYPE":"996","Class":"6"},"geometry":{"x":120.39395609388049,"y":22.502985692872819}},{"attributes":{"OBJECTID":20574,"LANDMARKID":"1001200001426","LANDMARKCO":"603","LANDMARKNA":"新美都大旅社","LANDMARKAD":"1001202","ADDRESS":"高雄市林園區東林村康樂街29號","TEL":"07-6412073","COUNTYNAME":"高雄市","TOWNNAME":"林園區","MARKTYPE":"996","Class":"6"},"geometry":{"x":120.39411859107216,"y":22.50310130404112}},{"attributes":{"OBJECTID":20575,"LANDMARKID":"1001200001427","LANDMARKCO":"603","LANDMARKNA":"志弘大旅社","LANDMARKAD":"1001202","ADDRESS":"高雄市林園區東林村康樂街5號","TEL":"07-6412524","COUNTYNAME":"高雄市","TOWNNAME":"林園區","MARKTYPE":"996","Class":"6"},"geometry":{"x":120.39487644561244,"y":22.503594687711509}},{"attributes":{"OBJECTID":20576,"LANDMARKID":"1001200001428","LANDMARKCO":"603","LANDMARKNA":"鴻福大旅社","LANDMARKAD":"1001202","ADDRESS":"高雄市林園區東林村開南街51號","TEL":"07-6412358","COUNTYNAME":"高雄市","TOWNNAME":"林園區","MARKTYPE":"996","Class":"6"},"geometry":{"x":120.39470641392128,"y":22.50220304851501}},{"attributes":{"OBJECTID":20577,"LANDMARKID":"1001200001429","LANDMARKCO":"603","LANDMARKNA":"廣賓旅社","LANDMARKAD":"1001202","ADDRESS":"高雄市林園區東林村福興街63號","TEL":"07-6412463","COUNTYNAME":"高雄市","TOWNNAME":"林園區","MARKTYPE":"996","Class":"6"},"geometry":{"x":120.39484914373291,"y":22.504353584998032}},{"attributes":{"OBJECTID":20578,"LANDMARKID":"1001200001430","LANDMARKCO":"603","LANDMARKNA":"啟發旅社","LANDMARKAD":"1001202","ADDRESS":"高雄市林園區東林村福興街65號","TEL":"07-6412829","COUNTYNAME":"高雄市","TOWNNAME":"林園區","MARKTYPE":"996","Class":"6"},"geometry":{"x":120.39477426957711,"y":22.5045543035111}},{"attributes":{"OBJECTID":20579,"LANDMARKID":"1001200001431","LANDMARKCO":"603","LANDMARKNA":"和興大旅社","LANDMARKAD":"1001202","ADDRESS":"高雄市林園區東林村福興街73號","TEL":"07-6412076","COUNTYNAME":"高雄市","TOWNNAME":"林園區","MARKTYPE":"996","Class":"6"},"geometry":{"x":120.39471266021023,"y":22.504694072350738}},{"attributes":{"OBJECTID":20580,"LANDMARKID":"1001200001499","LANDMARKCO":"605","LANDMARKNA":"林園佛教堂","LANDMARKAD":"1001202","ADDRESS":"高雄市林園區","TEL":" ","COUNTYNAME":"高雄市","TOWNNAME":"林園區","MARKTYPE":"996","Class":"6"},"geometry":{"x":120.39276823818604,"y":22.501095076061628}},{"attributes":{"OBJECTID":20581,"LANDMARKID":"1001200001500","LANDMARKCO":"605","LANDMARKNA":"白雲寺","LANDMARKAD":"1001202","ADDRESS":"高雄市林園區","TEL":" ","COUNTYNAME":"高雄市","TOWNNAME":"林園區","MARKTYPE":"996","Class":"6"},"geometry":{"x":120.3935470817828,"y":22.502345184132341}},{"attributes":{"OBJECTID":20582,"LANDMARKID":"6400000000995","LANDMARKCO":"405","LANDMARKNA":"統一速邁樂加油站-楠梓加油站(中油)","LANDMARKAD":"6400004","ADDRESS":"高雄市楠梓區德中路168號","TEL":" ","COUNTYNAME":"高雄市","TOWNNAME":"楠梓區","MARKTYPE":"994","Class":"4"},"geometry":{"x":120.27415446445221,"y":22.727655187967478}},{"attributes":{"OBJECTID":20583,"LANDMARKID":"6400000000996","LANDMARKCO":"405","LANDMARKNA":"中油加油站-右昌軍校路站(刷卡自助)(中油直營)","LANDMARKAD":"6400004","ADDRESS":"高雄市楠梓區軍校路737號","TEL":"07-3637331","COUNTYNAME":"高雄市","TOWNNAME":"楠梓區","MARKTYPE":"994","Class":"4"},"geometry":{"x":120.29213237654901,"y":22.708737251809968}},{"attributes":{"OBJECTID":20584,"LANDMARKID":"6400000000997","LANDMARKCO":"405","LANDMARKNA":"中油加油站-楠梓加工區站(中油直營)","LANDMARKAD":"6400004","ADDRESS":"高雄市楠梓區經五路125號","TEL":"07-3630096","COUNTYNAME":"高雄市","TOWNNAME":"楠梓區","MARKTYPE":"994","Class":"4"},"geometry":{"x":120.30145749201563,"y":22.722105424358592}},{"attributes":{"OBJECTID":20585,"LANDMARKID":"6400000000998","LANDMARKCO":"405","LANDMARKNA":"中油加油站-慶昌站","LANDMARKAD":"6400004","ADDRESS":"高雄市楠梓區後昌路1196號","TEL":"07-3638197","COUNTYNAME":"高雄市","TOWNNAME":"楠梓區","MARKTYPE":"994","Class":"4"},"geometry":{"x":120.28996448649224,"y":22.717174123288203}},{"attributes":{"OBJECTID":20586,"LANDMARKID":"6400000000999","LANDMARKCO":"405","LANDMARKNA":"中油加油站-楠都站","LANDMARKAD":"6400004","ADDRESS":"高雄市楠梓區楠陽路115號","TEL":"07-3559665","COUNTYNAME":"高雄市","TOWNNAME":"楠梓區","MARKTYPE":"994","Class":"4"},"geometry":{"x":120.33018306399997,"y":22.72368325446234}},{"attributes":{"OBJECTID":20587,"LANDMARKID":"6400000001000","LANDMARKCO":"405","LANDMARKNA":"中油加油站-後勁站(中油直營)","LANDMARKAD":"6400004","ADDRESS":"高雄市楠梓區後昌路200號","TEL":"07-3613018","COUNTYNAME":"高雄市","TOWNNAME":"楠梓區","MARKTYPE":"994","Class":"4"},"geometry":{"x":120.30963346569435,"y":22.716188666906916}},{"attributes":{"OBJECTID":20588,"LANDMARKID":"6400000001001","LANDMARKCO":"405","LANDMARKNA":"中油加油站-左楠加油站(中油直營)","LANDMARKAD":"6400004","ADDRESS":"高雄市楠梓區左楠路2-1號","TEL":"07-5888562","COUNTYNAME":"高雄市","TOWNNAME":"楠梓區","MARKTYPE":"994","Class":"4"},"geometry":{"x":120.30384119190641,"y":22.700699556096357}},{"attributes":{"OBJECTID":20589,"LANDMARKID":"6400000001002","LANDMARKCO":"405","LANDMARKNA":"中油加油站-德民站","LANDMARKAD":"6400004","ADDRESS":"高雄市楠梓區德民路899號","TEL":"07-3652329","COUNTYNAME":"高雄市","TOWNNAME":"楠梓區","MARKTYPE":"994","Class":"4"},"geometry":{"x":120.29021156648589,"y":22.721131805434418}},{"attributes":{"OBJECTID":20590,"LANDMARKID":"6400000001003","LANDMARKCO":"405","LANDMARKNA":"台糖加油站-加昌站(中油)","LANDMARKAD":"6400004","ADDRESS":"高雄市楠梓區加昌路637號","TEL":" ","COUNTYNAME":"高雄市","TOWNNAME":"楠梓區","MARKTYPE":"994","Class":"4"},"geometry":{"x":120.29852579307946,"y":22.715226040371107}},{"attributes":{"OBJECTID":20591,"LANDMARKID":"6400000001004","LANDMARKCO":"405","LANDMARKNA":"中油加油站-楠梓站(中油直營)","LANDMARKAD":"6400004","ADDRESS":"高雄市楠梓區高楠公路1376號","TEL":"07-3511761","COUNTYNAME":"高雄市","TOWNNAME":"楠梓區","MARKTYPE":"994","Class":"4"},"geometry":{"x":120.32545446629594,"y":22.719019967010222}},{"attributes":{"OBJECTID":20592,"LANDMARKID":"6400000001005","LANDMARKCO":"405","LANDMARKNA":"台糖加油站-民族二站(中油)","LANDMARKAD":"6400004","ADDRESS":"高雄市楠梓區捻田里高楠公路945號","TEL":" ","COUNTYNAME":"高雄市","TOWNNAME":"楠梓區","MARKTYPE":"994","Class":"4"},"geometry":{"x":120.3251125575588,"y":22.712029720038775}},{"attributes":{"OBJECTID":20593,"LANDMARKID":"6400000000808","LANDMARKCO":"402","LANDMARKNA":"My Phone台灣大哥大-高雄楠梓直營服務中心","LANDMARKAD":"6400004","ADDRESS":"高雄市楠梓區楠梓新路250號","TEL":" ","COUNTYNAME":"高雄市","TOWNNAME":"楠梓區","MARKTYPE":"994","Class":"4"},"geometry":{"x":120.32609608340634,"y":22.728089832878425}},{"attributes":{"OBJECTID":20594,"LANDMARKID":"6400000000809","LANDMARKCO":"402","LANDMARKNA":"亞太行動寬頻電信-楠梓後昌加盟服務中心","LANDMARKAD":"6400004","ADDRESS":"高雄市楠梓區後昌路753-1號","TEL":"07-3646789","COUNTYNAME":"高雄市","TOWNNAME":"楠梓區","MARKTYPE":"994","Class":"4"},"geometry":{"x":120.29657531584884,"y":22.709837418315491}},{"attributes":{"OBJECTID":20595,"LANDMARKID":"6400000000810","LANDMARKCO":"402","LANDMARKNA":"亞太行動寬頻電信-楠梓建楠加盟服務中心","LANDMARKAD":"6400004","ADDRESS":"高雄市楠梓區建楠路22號","TEL":"07-3538789","COUNTYNAME":"高雄市","TOWNNAME":"楠梓區","MARKTYPE":"994","Class":"4"},"geometry":{"x":120.32915776613299,"y":22.727200860665398}},{"attributes":{"OBJECTID":20596,"LANDMARKID":"6400000000811","LANDMARKCO":"402","LANDMARKNA":"亞太行動寬頻電信-楠梓後勁加盟服務中心","LANDMARKAD":"6400004","ADDRESS":"高雄市楠梓區區東路7號","TEL":"07-3610320","COUNTYNAME":"高雄市","TOWNNAME":"楠梓區","MARKTYPE":"994","Class":"4"},"geometry":{"x":120.3104962181629,"y":22.719078756818082}},{"attributes":{"OBJECTID":20597,"LANDMARKID":"6400000000754","LANDMARKCO":"401","LANDMARKNA":"右昌聯合醫院","LANDMARKAD":"6400004","ADDRESS":"高雄市楠梓區軍校路930號B1-9F","TEL":"07-3643388","COUNTYNAME":"高雄市","TOWNNAME":"楠梓區","MARKTYPE":"994","Class":"4"},"geometry":{"x":120.29086773493876,"y":22.713817825984641}},{"attributes":{"OBJECTID":20598,"LANDMARKID":"6400000000755","LANDMARKCO":"401","LANDMARKNA":"顏威裕醫院","LANDMARKAD":"6400004","ADDRESS":"高雄市楠梓區秀昌里後昌路826號","TEL":"07-3639053","COUNTYNAME":"高雄市","TOWNNAME":"楠梓區","MARKTYPE":"994","Class":"4"},"geometry":{"x":120.29569365871876,"y":22.711180847528617}},{"attributes":{"OBJECTID":20599,"LANDMARKID":"6400000000756","LANDMARKCO":"401","LANDMARKNA":"健仁醫院","LANDMARKAD":"6400004","ADDRESS":"高雄市楠梓區楠陽路136號","TEL":"07-3517166","COUNTYNAME":"高雄市","TOWNNAME":"楠梓區","MARKTYPE":"994","Class":"4"},"geometry":{"x":120.32898432362917,"y":22.723632296410962}},{"attributes":{"OBJECTID":20600,"LANDMARKID":"6400000000757","LANDMARKCO":"401","LANDMARKNA":"長春醫院","LANDMARKAD":"6400004","ADDRESS":"高雄市楠梓區右昌街331號","TEL":"07-3612995","COUNTYNAME":"高雄市","TOWNNAME":"楠梓區","MARKTYPE":"994","Class":"4"},"geometry":{"x":120.28910563452277,"y":22.714280776902267}}]}