{"displayFieldName":"COUNTYNAME","fieldAliases":{"OBJECTID":"OBJECTID","LANDMARKID":"LANDMARKID","LANDMARKCO":"LANDMARKCO","LANDMARKNA":"LANDMARKNA","LANDMARKAD":"LANDMARKAD","ADDRESS":"ADDRESS","TEL":"TEL","COUNTYNAME":"COUNTYNAME","TOWNNAME":"TOWNNAME","MARKTYPE":"MARKTYPE","Class":"Class"},"geometryType":"esriGeometryPoint","spatialReference":{"wkid":102443},"fields":[{"name":"OBJECTID","type":"esriFieldTypeOID","alias":"OBJECTID"},{"name":"LANDMARKID","type":"esriFieldTypeString","alias":"LANDMARKID","length":15},{"name":"LANDMARKCO","type":"esriFieldTypeString","alias":"LANDMARKCO","length":15},{"name":"LANDMARKNA","type":"esriFieldTypeString","alias":"LANDMARKNA","length":50},{"name":"LANDMARKAD","type":"esriFieldTypeString","alias":"LANDMARKAD","length":15},{"name":"ADDRESS","type":"esriFieldTypeString","alias":"ADDRESS","length":56},{"name":"TEL","type":"esriFieldTypeString","alias":"TEL","length":36},{"name":"COUNTYNAME","type":"esriFieldTypeString","alias":"COUNTYNAME","length":15},{"name":"TOWNNAME","type":"esriFieldTypeString","alias":"TOWNNAME","length":13},{"name":"MARKTYPE","type":"esriFieldTypeString","alias":"MARKTYPE","length":12},{"name":"Class","type":"esriFieldTypeString","alias":"Class","length":5}],"features":[{"attributes":{"OBJECTID":11801,"LANDMARKID":"1002100000068","LANDMARKCO":"107","LANDMARKNA":"台南市警察局海安派出所","LANDMARKAD":"1002102","ADDRESS":"台南市安海里民生路二段273號","TEL":"06-2200295","COUNTYNAME":"台南市","TOWNNAME":"中西區","MARKTYPE":"991","Class":"1"},"geometry":{"x":167191.84329999983,"y":2544123.3449000008}},{"attributes":{"OBJECTID":11802,"LANDMARKID":"1002100000069","LANDMARKCO":"107","LANDMARKNA":"台南市警察局長樂派出所","LANDMARKAD":"1002102","ADDRESS":"台南市藥王里民權路三段230號","TEL":"06-2222422","COUNTYNAME":"台南市","TOWNNAME":"中西區","MARKTYPE":"991","Class":"1"},"geometry":{"x":167365.29849999957,"y":2544300.2901000008}},{"attributes":{"OBJECTID":11803,"LANDMARKID":"1002100000070","LANDMARKCO":"107","LANDMARKNA":"台南市警察局中正派出所","LANDMARKAD":"1002102","ADDRESS":"台南市運河南街2號","TEL":"06-2410135","COUNTYNAME":"台南市","TOWNNAME":"中西區","MARKTYPE":"991","Class":"1"},"geometry":{"x":167366.14639999997,"y":2543775.3131000008}},{"attributes":{"OBJECTID":11804,"LANDMARKID":"1002100000071","LANDMARKCO":"107","LANDMARKNA":"台南市消防局中正消防分隊","LANDMARKAD":"1002102","ADDRESS":"台南市中正路2號之1","TEL":"06-2270334","COUNTYNAME":"台南市","TOWNNAME":"中西區","MARKTYPE":"991","Class":"1"},"geometry":{"x":168437.00329999998,"y":2543676.9246999994}},{"attributes":{"OBJECTID":11805,"LANDMARKID":"1002100000058","LANDMARKCO":"106","LANDMARKNA":"台南市中西區戶政事務所","LANDMARKAD":"1002102","ADDRESS":"台南市民族路三段258號","TEL":"06-2232609","COUNTYNAME":"台南市","TOWNNAME":"中西區","MARKTYPE":"991","Class":"1"},"geometry":{"x":167276.88210000005,"y":2544527.2945000008}},{"attributes":{"OBJECTID":11806,"LANDMARKID":"1002100000003","LANDMARKCO":"101","LANDMARKNA":"中央健康保險局南區分局","LANDMARKAD":"1002102","ADDRESS":"台南市公園路96號","TEL":"06-2245678","COUNTYNAME":"台南市","TOWNNAME":"中西區","MARKTYPE":"991","Class":"1"},"geometry":{"x":168654.37829999998,"y":2544142.0480000004}},{"attributes":{"OBJECTID":11807,"LANDMARKID":"1002100000004","LANDMARKCO":"101","LANDMARKNA":"標準檢驗局台南分局","LANDMARKAD":"1002102","ADDRESS":"台南市北門路一段179號","TEL":"06-2264101","COUNTYNAME":"台南市","TOWNNAME":"中西區","MARKTYPE":"991","Class":"1"},"geometry":{"x":169185.01840000041,"y":2544114.5850000009}},{"attributes":{"OBJECTID":11808,"LANDMARKID":"1002100000005","LANDMARKCO":"101","LANDMARKNA":"台灣高等法院台南分院","LANDMARKAD":"1002102","ADDRESS":"台南市中山路170號","TEL":"06-2283101","COUNTYNAME":"台南市","TOWNNAME":"中西區","MARKTYPE":"991","Class":"1"},"geometry":{"x":169085.57870000042,"y":2544046.5847999994}},{"attributes":{"OBJECTID":11809,"LANDMARKID":"1002100000006","LANDMARKCO":"101","LANDMARKNA":"農業委員會嘉南農田水利會","LANDMARKAD":"1002102","ADDRESS":"台南市友愛街25號","TEL":"06-2200622","COUNTYNAME":"台南市","TOWNNAME":"中西區","MARKTYPE":"991","Class":"1"},"geometry":{"x":168498.7182,"y":2543476.7683000006}},{"attributes":{"OBJECTID":11810,"LANDMARKID":"1002100000041","LANDMARKCO":"103","LANDMARKNA":"台南市動物防疫所","LANDMARKAD":"1002102","ADDRESS":"台南市忠義路一段87號","TEL":"06-2130958","COUNTYNAME":"台南市","TOWNNAME":"中西區","MARKTYPE":"991","Class":"1"},"geometry":{"x":168148.09360000025,"y":2543083.6735999994}},{"attributes":{"OBJECTID":11811,"LANDMARKID":"1002100000007","LANDMARKCO":"101","LANDMARKNA":"勞工保險局台南市辦事處","LANDMARKAD":"1002102","ADDRESS":"台南市運河南街5號","TEL":"06-2225324","COUNTYNAME":"台南市","TOWNNAME":"中西區","MARKTYPE":"991","Class":"1"},"geometry":{"x":167341.96810000017,"y":2543776.4301999994}},{"attributes":{"OBJECTID":11812,"LANDMARKID":"1002100000049","LANDMARKCO":"104","LANDMARKNA":"台南市稅捐稽徵處","LANDMARKAD":"1002102","ADDRESS":"台南市忠孝路一段96號","TEL":"06-2160216","COUNTYNAME":"台南市","TOWNNAME":"中西區","MARKTYPE":"991","Class":"1"},"geometry":{"x":168190.84489999991,"y":2543181.1561999992}},{"attributes":{"OBJECTID":11813,"LANDMARKID":"1002100000236","LANDMARKCO":"205","LANDMARKNA":"赤崁樓文物館","LANDMARKAD":"1002102","ADDRESS":"台南市中西區民族路二段212號","TEL":" ","COUNTYNAME":"台南市","TOWNNAME":"中西區","MARKTYPE":"992","Class":"2"},"geometry":{"x":168224.81680000015,"y":2544191.1373999994}},{"attributes":{"OBJECTID":11814,"LANDMARKID":"1002100000237","LANDMARKCO":"205","LANDMARKNA":"台南市民族文物館","LANDMARKAD":"1002102","ADDRESS":"台南市中西區開山路152號","TEL":" ","COUNTYNAME":"台南市","TOWNNAME":"中西區","MARKTYPE":"992","Class":"2"},"geometry":{"x":168823.79270000011,"y":2543109.4329000004}},{"attributes":{"OBJECTID":11815,"LANDMARKID":"1002100000233","LANDMARKCO":"204","LANDMARKNA":"台南巿立圖書館中區分館","LANDMARKAD":"1002102","ADDRESS":"台南市中區中正路5巷1號","TEL":" ","COUNTYNAME":"台南市","TOWNNAME":"中西區","MARKTYPE":"992","Class":"2"},"geometry":{"x":168375.98940000031,"y":2543625.9955000002}},{"attributes":{"OBJECTID":11816,"LANDMARKID":"1002100000148","LANDMARKCO":"202","LANDMARKNA":"國立台南女中","LANDMARKAD":"1002102","ADDRESS":"台南市大埔街97號","TEL":"06-2215046","COUNTYNAME":"台南市","TOWNNAME":"中西區","MARKTYPE":"992","Class":"2"},"geometry":{"x":168791.84549999982,"y":2542994.3177000005}},{"attributes":{"OBJECTID":11817,"LANDMARKID":"1002100000149","LANDMARKCO":"202","LANDMARKNA":"國立家齊女中","LANDMARKAD":"1002102","ADDRESS":"台南市健康路一段342號","TEL":"06-2251304","COUNTYNAME":"台南市","TOWNNAME":"中西區","MARKTYPE":"992","Class":"2"},"geometry":{"x":168059.85960000008,"y":2542502.7113000005}},{"attributes":{"OBJECTID":11818,"LANDMARKID":"1002100000150","LANDMARKCO":"202","LANDMARKNA":"私立南英商工","LANDMARKAD":"1002102","ADDRESS":"台南市永福路一段149號","TEL":"06-2132222","COUNTYNAME":"台南市","TOWNNAME":"中西區","MARKTYPE":"992","Class":"2"},"geometry":{"x":167969.31730000023,"y":2542945.5144999996}},{"attributes":{"OBJECTID":11819,"LANDMARKID":"1002100000172","LANDMARKCO":"203","LANDMARKNA":"市立建興國中","LANDMARKAD":"1002102","ADDRESS":"台南市府前路一段239號","TEL":"06-2139601","COUNTYNAME":"台南市","TOWNNAME":"中西區","MARKTYPE":"992","Class":"2"},"geometry":{"x":168277.43269999977,"y":2543247.0765000004}},{"attributes":{"OBJECTID":11820,"LANDMARKID":"1002100000173","LANDMARKCO":"203","LANDMARKNA":"市立金城國中","LANDMARKAD":"1002102","ADDRESS":"台南市金城街70號","TEL":"06-2975816","COUNTYNAME":"台南市","TOWNNAME":"中西區","MARKTYPE":"992","Class":"2"},"geometry":{"x":166842.33090000041,"y":2543777.8253000006}},{"attributes":{"OBJECTID":11821,"LANDMARKID":"1002100000174","LANDMARKCO":"203","LANDMARKNA":"市立永福國小","LANDMARKAD":"1002102","ADDRESS":"台南市永福路二段86號","TEL":"06-2223241","COUNTYNAME":"台南市","TOWNNAME":"中西區","MARKTYPE":"992","Class":"2"},"geometry":{"x":168110.75850000046,"y":2543702.9521999992}},{"attributes":{"OBJECTID":11822,"LANDMARKID":"1002100000175","LANDMARKCO":"203","LANDMARKNA":"市立成功國小","LANDMARKAD":"1002102","ADDRESS":"台南市赤嵌里成功路235號","TEL":"06-2222239","COUNTYNAME":"台南市","TOWNNAME":"中西區","MARKTYPE":"992","Class":"2"},"geometry":{"x":168324.50779999979,"y":2544363.0460000001}},{"attributes":{"OBJECTID":11823,"LANDMARKID":"1002100000176","LANDMARKCO":"203","LANDMARKNA":"市立忠義國小","LANDMARKAD":"1002102","ADDRESS":"台南市永慶里忠義路二段2號","TEL":"06-2222768","COUNTYNAME":"台南市","TOWNNAME":"中西區","MARKTYPE":"992","Class":"2"},"geometry":{"x":168257.96879999992,"y":2543428.7621999998}},{"attributes":{"OBJECTID":11824,"LANDMARKID":"1002100000177","LANDMARKCO":"203","LANDMARKNA":"市立進學國小","LANDMARKAD":"1002102","ADDRESS":"台南市進學里南寧街47號","TEL":"06-2223007","COUNTYNAME":"台南市","TOWNNAME":"中西區","MARKTYPE":"992","Class":"2"},"geometry":{"x":168075.81859999988,"y":2542731.7891000006}},{"attributes":{"OBJECTID":11825,"LANDMARKID":"1002100000178","LANDMARKCO":"203","LANDMARKNA":"國立台南大學附設實驗國小","LANDMARKAD":"1002102","ADDRESS":"台南市樹林街二段31號","TEL":"06-2132566","COUNTYNAME":"台南市","TOWNNAME":"中西區","MARKTYPE":"992","Class":"2"},"geometry":{"x":168900.27180000022,"y":2542948.1219999995}},{"attributes":{"OBJECTID":11826,"LANDMARKID":"1002100000179","LANDMARKCO":"203","LANDMARKNA":"市立新南國小","LANDMARKAD":"1002102","ADDRESS":"台南市府前路二段258巷57號","TEL":"06-2973363","COUNTYNAME":"台南市","TOWNNAME":"中西區","MARKTYPE":"992","Class":"2"},"geometry":{"x":167042.73890000023,"y":2543852.8546999991}},{"attributes":{"OBJECTID":11827,"LANDMARKID":"1002100000180","LANDMARKCO":"203","LANDMARKNA":"市立協進國小","LANDMARKAD":"1002102","ADDRESS":"台南市金華路四段17號","TEL":"06-2223369","COUNTYNAME":"台南市","TOWNNAME":"中西區","MARKTYPE":"992","Class":"2"},"geometry":{"x":167366.76360000018,"y":2544204.2981000002}},{"attributes":{"OBJECTID":11828,"LANDMARKID":"1002100000133","LANDMARKCO":"201","LANDMARKNA":"國立台南護理專科學校","LANDMARKAD":"1002102","ADDRESS":"台南市民族路二段78號","TEL":"06-2110600","COUNTYNAME":"台南市","TOWNNAME":"中西區","MARKTYPE":"992","Class":"2"},"geometry":{"x":168753.91980000027,"y":2543984.3362000007}},{"attributes":{"OBJECTID":11829,"LANDMARKID":"1002100000134","LANDMARKCO":"201","LANDMARKNA":"國立台南大學","LANDMARKAD":"1002102","ADDRESS":"台南市樹林街二段33號","TEL":"06-2133111","COUNTYNAME":"台南市","TOWNNAME":"中西區","MARKTYPE":"992","Class":"2"},"geometry":{"x":168798.41119999997,"y":2542851.1119999997}},{"attributes":{"OBJECTID":11830,"LANDMARKID":"1002100000225","LANDMARKCO":"203","LANDMARKNA":"市立中山國中","LANDMARKAD":"1002102","ADDRESS":"台南市府寧街45號","TEL":"06-2137633","COUNTYNAME":"台南市","TOWNNAME":"中西區","MARKTYPE":"992","Class":"2"},"geometry":{"x":168277.72589999996,"y":2542710.0870999992}},{"attributes":{"OBJECTID":11831,"LANDMARKID":"1002100000226","LANDMARKCO":"203","LANDMARKNA":"國立台南啟聰學校(台南校區)","LANDMARKAD":"1002102","ADDRESS":"台南市中西區北門路一段109號","TEL":"06-2222936","COUNTYNAME":"台南市","TOWNNAME":"中西區","MARKTYPE":"992","Class":"2"},"geometry":{"x":169163.58239999972,"y":2543765.9785999991}},{"attributes":{"OBJECTID":11832,"LANDMARKID":"1002100000250","LANDMARKCO":"302","LANDMARKNA":"興南客運-台南東站","LANDMARKAD":"1002102","ADDRESS":"台南市中山路182號","TEL":"06-2223142","COUNTYNAME":"台南市","TOWNNAME":"中西區","MARKTYPE":"993","Class":"302"},"geometry":{"x":169147.06549999956,"y":2544099.3219000008}},{"attributes":{"OBJECTID":11833,"LANDMARKID":"1002100000251","LANDMARKCO":"302","LANDMARKNA":"興南汽車客運台南東站","LANDMARKAD":"1002102","ADDRESS":"台南市中區中山路182號","TEL":" ","COUNTYNAME":"台南市","TOWNNAME":"中西區","MARKTYPE":"993","Class":"302"},"geometry":{"x":169145.63229999971,"y":2544114.7385000009}},{"attributes":{"OBJECTID":11834,"LANDMARKID":"1002100000252","LANDMARKCO":"302","LANDMARKNA":"台南汽車客運中山站","LANDMARKAD":"1002102","ADDRESS":"台南市中區","TEL":" ","COUNTYNAME":"台南市","TOWNNAME":"中西區","MARKTYPE":"993","Class":"302"},"geometry":{"x":169102.59640000015,"y":2544079.5342999995}},{"attributes":{"OBJECTID":11835,"LANDMARKID":"1002100000253","LANDMARKCO":"302","LANDMARKNA":"台南汽車客運逢甲總站","LANDMARKAD":"1002102","ADDRESS":"台南市中區","TEL":" ","COUNTYNAME":"台南市","TOWNNAME":"中西區","MARKTYPE":"993","Class":"302"},"geometry":{"x":167748.33330000006,"y":2542565.5386999995}},{"attributes":{"OBJECTID":11836,"LANDMARKID":"1002100000272","LANDMARKCO":"303","LANDMARKNA":"大億麗緻酒店停車場","LANDMARKAD":"1002102","ADDRESS":"台南市中西區西門路一段660號","TEL":"06-2135555","COUNTYNAME":"台南市","TOWNNAME":"中西區","MARKTYPE":"993","Class":"303"},"geometry":{"x":167751.89360000007,"y":2543200.7899999991}},{"attributes":{"OBJECTID":11837,"LANDMARKID":"1002100000273","LANDMARKCO":"303","LANDMARKNA":"國華街停車場","LANDMARKAD":"1002102","ADDRESS":"台南市中西區國華街三段53號對面","TEL":" ","COUNTYNAME":"台南市","TOWNNAME":"中西區","MARKTYPE":"993","Class":"303"},"geometry":{"x":167811.48440000042,"y":2543909.5760999992}},{"attributes":{"OBJECTID":11838,"LANDMARKID":"1002100000274","LANDMARKCO":"303","LANDMARKNA":"永福停車場","LANDMARKAD":"1002102","ADDRESS":"台南市中西區永福路二段133號","TEL":" ","COUNTYNAME":"台南市","TOWNNAME":"中西區","MARKTYPE":"993","Class":"303"},"geometry":{"x":168112.92540000007,"y":2543863.0832000002}},{"attributes":{"OBJECTID":11839,"LANDMARKID":"1002100000275","LANDMARKCO":"303","LANDMARKNA":"赤崁樓停車場","LANDMARKAD":"1002102","ADDRESS":"台南市民族路二段312號","TEL":" ","COUNTYNAME":"台南市","TOWNNAME":"中西區","MARKTYPE":"993","Class":"303"},"geometry":{"x":168281.96329999994,"y":2544165.0006000008}},{"attributes":{"OBJECTID":11840,"LANDMARKID":"1002100000276","LANDMARKCO":"303","LANDMARKNA":"愛室大樓停車場","LANDMARKAD":"1002102","ADDRESS":"台南市中西區健康路一段296號","TEL":" ","COUNTYNAME":"台南市","TOWNNAME":"中西區","MARKTYPE":"993","Class":"303"},"geometry":{"x":168322.11710000038,"y":2542453.3455999997}},{"attributes":{"OBJECTID":11841,"LANDMARKID":"1002100000277","LANDMARKCO":"303","LANDMARKNA":"中成路停車場","LANDMARKAD":"1002102","ADDRESS":"台南市中西區中成路36號","TEL":"06-2241764","COUNTYNAME":"台南市","TOWNNAME":"中西區","MARKTYPE":"993","Class":"303"},"geometry":{"x":168510.92489999998,"y":2544224.0252}},{"attributes":{"OBJECTID":11842,"LANDMARKID":"1002100000278","LANDMARKCO":"303","LANDMARKNA":"中山大臣大樓地下停車場","LANDMARKAD":"1002102","ADDRESS":"台南市中西區中山路88號","TEL":" ","COUNTYNAME":"台南市","TOWNNAME":"中西區","MARKTYPE":"993","Class":"303"},"geometry":{"x":168792.50870000012,"y":2543862.6842999998}},{"attributes":{"OBJECTID":11843,"LANDMARKID":"1002100000279","LANDMARKCO":"303","LANDMARKNA":"國花停車場","LANDMARKAD":"1002102","ADDRESS":"台南市中西區民權路118號B2樓","TEL":" ","COUNTYNAME":"台南市","TOWNNAME":"中西區","MARKTYPE":"993","Class":"303"},"geometry":{"x":168856.67040000018,"y":2543536.5647999998}},{"attributes":{"OBJECTID":11844,"LANDMARKID":"1002100000280","LANDMARKCO":"303","LANDMARKNA":"台南醫院停車場","LANDMARKAD":"1002102","ADDRESS":"台南市中西區中山路125號","TEL":" ","COUNTYNAME":"台南市","TOWNNAME":"中西區","MARKTYPE":"993","Class":"303"},"geometry":{"x":168854.37770000007,"y":2544064.6026000008}},{"attributes":{"OBJECTID":11845,"LANDMARKID":"1002100000281","LANDMARKCO":"303","LANDMARKNA":"台南市成功路停車場","LANDMARKAD":"1002102","ADDRESS":"台南市中西區成功路7號","TEL":" ","COUNTYNAME":"台南市","TOWNNAME":"中西區","MARKTYPE":"993","Class":"303"},"geometry":{"x":169040.25769999996,"y":2544208.1139000002}},{"attributes":{"OBJECTID":11846,"LANDMARKID":"1002100000282","LANDMARKCO":"303","LANDMARKNA":"台南市大同路停車場","LANDMARKAD":"1002102","ADDRESS":"台南市中西區大同路一段200號","TEL":" ","COUNTYNAME":"台南市","TOWNNAME":"中西區","MARKTYPE":"993","Class":"303"},"geometry":{"x":169101.98419999983,"y":2542618.5298999995}},{"attributes":{"OBJECTID":11847,"LANDMARKID":"1002100000283","LANDMARKCO":"303","LANDMARKNA":"第一銀行商業大樓","LANDMARKAD":"1002102","ADDRESS":"台南市中西區北門路一段101號","TEL":" ","COUNTYNAME":"台南市","TOWNNAME":"中西區","MARKTYPE":"993","Class":"303"},"geometry":{"x":169151.34769999981,"y":2543643.0021000002}},{"attributes":{"OBJECTID":11848,"LANDMARKID":"1002100000284","LANDMARKCO":"303","LANDMARKNA":"公十一地下立體停車場","LANDMARKAD":"1002102","ADDRESS":"台南市中區","TEL":" ","COUNTYNAME":"台南市","TOWNNAME":"中西區","MARKTYPE":"993","Class":"303"},"geometry":{"x":168223.12729999982,"y":2543440.0562999994}},{"attributes":{"OBJECTID":11849,"LANDMARKID":"1002100000285","LANDMARKCO":"303","LANDMARKNA":"應安停車場-衛民場","LANDMARKAD":"1002102","ADDRESS":"台南市衛民街67號","TEL":"06-2203275","COUNTYNAME":"台南市","TOWNNAME":"中西區","MARKTYPE":"993","Class":"303"},"geometry":{"x":168996.32930000033,"y":2543738.6638999991}},{"attributes":{"OBJECTID":11850,"LANDMARKID":"1002100000286","LANDMARKCO":"303","LANDMARKNA":"台灣聯通停車場-台南民生","LANDMARKAD":"1002102","ADDRESS":"台南市民生中西區民生路二段279號B1~B4","TEL":" ","COUNTYNAME":"台南市","TOWNNAME":"中西區","MARKTYPE":"993","Class":"303"},"geometry":{"x":167146.92540000007,"y":2544140.2272999994}},{"attributes":{"OBJECTID":11851,"LANDMARKID":"1002100000344","LANDMARKCO":"402","LANDMARKNA":"中華電信-台南民生特約服務中心","LANDMARKAD":"1002102","ADDRESS":"台南市民生路一段78號","TEL":"06-2229988","COUNTYNAME":"台南市","TOWNNAME":"中西區","MARKTYPE":"994","Class":"4"},"geometry":{"x":168254.85580000002,"y":2543794.4863000009}},{"attributes":{"OBJECTID":11852,"LANDMARKID":"1002100000345","LANDMARKCO":"402","LANDMARKNA":"中華電信-成功服務中心","LANDMARKAD":"1002102","ADDRESS":"台南市成功路3號","TEL":"(06)244-2280","COUNTYNAME":"台南市","TOWNNAME":"中西區","MARKTYPE":"994","Class":"4"},"geometry":{"x":169050.99710000027,"y":2544195.1397999991}},{"attributes":{"OBJECTID":11853,"LANDMARKID":"1002100000346","LANDMARKCO":"402","LANDMARKNA":"中華電信-台南服務中心","LANDMARKAD":"1002102","ADDRESS":"台南市西門路一段701號","TEL":"123或0800-080-123","COUNTYNAME":"台南市","TOWNNAME":"中西區","MARKTYPE":"994","Class":"4"},"geometry":{"x":167689.06080000009,"y":2543143.5354999993}},{"attributes":{"OBJECTID":11854,"LANDMARKID":"1002100000347","LANDMARKCO":"402","LANDMARKNA":"遠傳電信-台南民生門市","LANDMARKAD":"1002102","ADDRESS":"台南市民生路一段207號","TEL":" ","COUNTYNAME":"台南市","TOWNNAME":"中西區","MARKTYPE":"994","Class":"4"},"geometry":{"x":167935.44060000032,"y":2543871.3026000001}},{"attributes":{"OBJECTID":11855,"LANDMARKID":"1002100000348","LANDMARKCO":"402","LANDMARKNA":"威寶電信-台南民族特約服務中心","LANDMARKAD":"1002102","ADDRESS":"台南市中西區民族路二段417號","TEL":"06-2222678","COUNTYNAME":"台南市","TOWNNAME":"中西區","MARKTYPE":"994","Class":"4"},"geometry":{"x":168047.93950000033,"y":2544210.3417000007}},{"attributes":{"OBJECTID":11856,"LANDMARKID":"1002100000349","LANDMARKCO":"402","LANDMARKNA":"威寶電信-台南府前特約服務中心","LANDMARKAD":"1002102","ADDRESS":"台南市西區府前路二段185號","TEL":"06-2206789","COUNTYNAME":"台南市","TOWNNAME":"中西區","MARKTYPE":"994","Class":"4"},"geometry":{"x":167240.01420000009,"y":2543572.7926000003}},{"attributes":{"OBJECTID":11857,"LANDMARKID":"1002100000638","LANDMARKCO":"603","LANDMARKNA":"萊庭商務飯店","LANDMARKAD":"1002102","ADDRESS":"台南市中西區光賢街23號2-5樓","TEL":"06-2501199","COUNTYNAME":"台南市","TOWNNAME":"中西區","MARKTYPE":"996","Class":"6"},"geometry":{"x":166727.69230000023,"y":2545007.4877000004}},{"attributes":{"OBJECTID":11858,"LANDMARKID":"1002100000639","LANDMARKCO":"603","LANDMARKNA":"劍橋大飯店","LANDMARKAD":"1002102","ADDRESS":"台南市中西區民族路二段269號5-11樓","TEL":"06-2219966","COUNTYNAME":"台南市","TOWNNAME":"中西區","MARKTYPE":"996","Class":"6"},"geometry":{"x":168405.81149999984,"y":2544099.6620000005}},{"attributes":{"OBJECTID":11859,"LANDMARKID":"1002100000640","LANDMARKCO":"603","LANDMARKNA":"僾樺大飯店","LANDMARKAD":"1002102","ADDRESS":"台南市中西區和平街99號2-7樓","TEL":"06-2501120","COUNTYNAME":"台南市","TOWNNAME":"中西區","MARKTYPE":"996","Class":"6"},"geometry":{"x":167617.91870000027,"y":2544135.0057999995}},{"attributes":{"OBJECTID":11860,"LANDMARKID":"1002100000641","LANDMARKCO":"603","LANDMARKNA":"台南太白居商旅旅館","LANDMARKAD":"1002102","ADDRESS":"台南市中西區金華路3段175號3至11樓","TEL":"06-2203380","COUNTYNAME":"台南市","TOWNNAME":"中西區","MARKTYPE":"996","Class":"6"},"geometry":{"x":167276.8881000001,"y":2543790.8223000001}},{"attributes":{"OBJECTID":11861,"LANDMARKID":"1002100000642","LANDMARKCO":"603","LANDMARKNA":"玉光大旅社","LANDMARKAD":"1002102","ADDRESS":"台南市中西區慈聖街73號2-3樓","TEL":"06-2283096","COUNTYNAME":"台南市","TOWNNAME":"中西區","MARKTYPE":"996","Class":"6"},"geometry":{"x":168014.90969999973,"y":2544399.1616999991}},{"attributes":{"OBJECTID":11862,"LANDMARKID":"1002100000643","LANDMARKCO":"603","LANDMARKNA":"太子大飯店","LANDMARKAD":"1002102","ADDRESS":"台南市中西區友愛街349號","TEL":"06-2289171","COUNTYNAME":"台南市","TOWNNAME":"中西區","MARKTYPE":"996","Class":"6"},"geometry":{"x":167425.5390999997,"y":2543671.0724999998}},{"attributes":{"OBJECTID":11863,"LANDMARKID":"1002100000644","LANDMARKCO":"603","LANDMARKNA":"立人大飯店","LANDMARKAD":"1002102","ADDRESS":"台南市中西區公園路88號1-7樓","TEL":"06-2265261-3","COUNTYNAME":"台南市","TOWNNAME":"中西區","MARKTYPE":"996","Class":"6"},"geometry":{"x":168625.82620000001,"y":2544105.3935000002}},{"attributes":{"OBJECTID":11864,"LANDMARKID":"1002100000645","LANDMARKCO":"603","LANDMARKNA":"普悠瑪商務旅店","LANDMARKAD":"1002102","ADDRESS":"台南市中西區民權路二段118號7樓之1","TEL":"06-2275566","COUNTYNAME":"台南市","TOWNNAME":"中西區","MARKTYPE":"996","Class":"6"},"geometry":{"x":168328.56410000008,"y":2543970.3270999994}},{"attributes":{"OBJECTID":11865,"LANDMARKID":"1002100000646","LANDMARKCO":"603","LANDMARKNA":"國橋大飯店","LANDMARKAD":"1002102","ADDRESS":"台南市中西區民權路二段118號8樓之1","TEL":"06-2202066","COUNTYNAME":"台南市","TOWNNAME":"中西區","MARKTYPE":"996","Class":"6"},"geometry":{"x":168328.56410000008,"y":2543970.3270999994}},{"attributes":{"OBJECTID":11866,"LANDMARKID":"1002100000647","LANDMARKCO":"603","LANDMARKNA":"名世大飯店","LANDMARKAD":"1002102","ADDRESS":"台南市中西區永福路二段150號之1","TEL":"06-2266111","COUNTYNAME":"台南市","TOWNNAME":"中西區","MARKTYPE":"996","Class":"6"},"geometry":{"x":168148.97670000046,"y":2543895.9012000002}},{"attributes":{"OBJECTID":11867,"LANDMARKID":"1002100000648","LANDMARKCO":"603","LANDMARKNA":"樂都大旅社","LANDMARKAD":"1002102","ADDRESS":"台南市中西區永福路二段152巷26號1-3樓","TEL":"06-2226119","COUNTYNAME":"台南市","TOWNNAME":"中西區","MARKTYPE":"996","Class":"6"},"geometry":{"x":168240.44280000031,"y":2543870.4079}},{"attributes":{"OBJECTID":11868,"LANDMARKID":"1002100000649","LANDMARKCO":"603","LANDMARKNA":"台興大旅社","LANDMARKAD":"1002102","ADDRESS":"台南市中西區永福路二段197巷1號","TEL":"06-2220176-8","COUNTYNAME":"台南市","TOWNNAME":"中西區","MARKTYPE":"996","Class":"6"},"geometry":{"x":168150.14919999987,"y":2544047.9076000005}},{"attributes":{"OBJECTID":11869,"LANDMARKID":"1002100000650","LANDMARKCO":"603","LANDMARKNA":"京城賓館","LANDMARKAD":"1002102","ADDRESS":"台南市中西區忠義路二段158巷74號1-5樓","TEL":"06-2111728","COUNTYNAME":"台南市","TOWNNAME":"中西區","MARKTYPE":"996","Class":"6"},"geometry":{"x":168538.29889999982,"y":2544019.4649}},{"attributes":{"OBJECTID":11870,"LANDMARKID":"1002100000651","LANDMARKCO":"603","LANDMARKNA":"英王旅館","LANDMARKAD":"1002102","ADDRESS":"台南市中西區忠義路二段233巷26號","TEL":"06-2263151","COUNTYNAME":"台南市","TOWNNAME":"中西區","MARKTYPE":"996","Class":"6"},"geometry":{"x":168383.68010000046,"y":2544256.6173999999}},{"attributes":{"OBJECTID":11871,"LANDMARKID":"1002100000652","LANDMARKCO":"603","LANDMARKNA":"太白居商務飯店","LANDMARKAD":"1002102","ADDRESS":"台南市中西區金華路三段175號2樓","TEL":"06-2203380","COUNTYNAME":"台南市","TOWNNAME":"中西區","MARKTYPE":"996","Class":"6"},"geometry":{"x":167276.8881000001,"y":2543790.8223000001}},{"attributes":{"OBJECTID":11872,"LANDMARKID":"1002100000653","LANDMARKCO":"603","LANDMARKNA":"林肯飯店","LANDMARKAD":"1002102","ADDRESS":"台南市中西區金華路三段230號9-10樓","TEL":"06-2295777","COUNTYNAME":"台南市","TOWNNAME":"中西區","MARKTYPE":"996","Class":"6"},"geometry":{"x":167349.64879999962,"y":2543960.2131999992}},{"attributes":{"OBJECTID":11873,"LANDMARKID":"1002100000654","LANDMARKCO":"603","LANDMARKNA":"羅司徠司大飯店","LANDMARKAD":"1002102","ADDRESS":"台南市中西區保安路182號2-7樓","TEL":"06-2211302","COUNTYNAME":"台南市","TOWNNAME":"中西區","MARKTYPE":"996","Class":"6"},"geometry":{"x":167214.58849999961,"y":2543537.4887000006}},{"attributes":{"OBJECTID":11874,"LANDMARKID":"1002100000655","LANDMARKCO":"603","LANDMARKNA":"歡迎商務飯店","LANDMARKAD":"1002102","ADDRESS":"台南市中西區南華街99號1至8樓","TEL":"06-2211526","COUNTYNAME":"台南市","TOWNNAME":"中西區","MARKTYPE":"996","Class":"6"},"geometry":{"x":167120.44099999964,"y":2543565.5423000008}},{"attributes":{"OBJECTID":11875,"LANDMARKID":"1002100000656","LANDMARKCO":"603","LANDMARKNA":"金屋大旅社","LANDMARKAD":"1002102","ADDRESS":"台南市中西區郡緯街50號1-3樓","TEL":"06-2263198","COUNTYNAME":"台南市","TOWNNAME":"中西區","MARKTYPE":"996","Class":"6"},"geometry":{"x":167971.01410000026,"y":2544381.4785999991}},{"attributes":{"OBJECTID":11876,"LANDMARKID":"1002100000657","LANDMARKCO":"603","LANDMARKNA":"新美旅社","LANDMARKAD":"1002102","ADDRESS":"台南市中西區新美街188號","TEL":"06-2222334","COUNTYNAME":"台南市","TOWNNAME":"中西區","MARKTYPE":"996","Class":"6"},"geometry":{"x":168127.68120000046,"y":2544257.7762000002}},{"attributes":{"OBJECTID":11877,"LANDMARKID":"1002100000658","LANDMARKCO":"603","LANDMARKNA":"華茂商務飯店","LANDMARKAD":"1002102","ADDRESS":"台南市中西區新美街21號2-5樓","TEL":"23號1-4樓","COUNTYNAME":"台南市","TOWNNAME":"中西區","MARKTYPE":"996","Class":"6"},"geometry":{"x":167990.84509999957,"y":2543920.0395}},{"attributes":{"OBJECTID":11878,"LANDMARKID":"1002100000659","LANDMARKCO":"603","LANDMARKNA":"湖水岸人文休閒旅館","LANDMARKAD":"1002102","ADDRESS":"台南市中西區中華西路2段598號1-3樓","TEL":"06-2806000","COUNTYNAME":"台南市","TOWNNAME":"中西區","MARKTYPE":"996","Class":"6"},"geometry":{"x":166659.16700000037,"y":2544972.5236000009}},{"attributes":{"OBJECTID":11879,"LANDMARKID":"1002100000660","LANDMARKCO":"603","LANDMARKNA":"漢宮大飯店","LANDMARKAD":"1002102","ADDRESS":"台南市中西區中山路199號1-9樓","TEL":"06-2269115","COUNTYNAME":"台南市","TOWNNAME":"中西區","MARKTYPE":"996","Class":"6"},"geometry":{"x":169104.72250000015,"y":2544124.4378999993}},{"attributes":{"OBJECTID":11880,"LANDMARKID":"1002100000661","LANDMARKCO":"603","LANDMARKNA":"東亞樓大飯店","LANDMARKAD":"1002102","ADDRESS":"台南市中西區中山路98號3-9樓","TEL":"100號1-9樓","COUNTYNAME":"台南市","TOWNNAME":"中西區","MARKTYPE":"996","Class":"6"},"geometry":{"x":168842.99980000034,"y":2543887.0273000002}},{"attributes":{"OBJECTID":11881,"LANDMARKID":"1002100000662","LANDMARKCO":"603","LANDMARKNA":"大立大飯店","LANDMARKAD":"1002102","ADDRESS":"台南市中西區中成路6號2-8樓","TEL":"06-2220171","COUNTYNAME":"台南市","TOWNNAME":"中西區","MARKTYPE":"996","Class":"6"},"geometry":{"x":168507.8172000004,"y":2544108.2997999992}},{"attributes":{"OBJECTID":11882,"LANDMARKID":"1002100000663","LANDMARKCO":"603","LANDMARKNA":"御宿汽車旅館","LANDMARKAD":"1002102","ADDRESS":"台南市中西區中華西路2段581號1-3樓","TEL":"06-3588811","COUNTYNAME":"台南市","TOWNNAME":"中西區","MARKTYPE":"996","Class":"6"},"geometry":{"x":166603.4402999999,"y":2544488.2334000003}},{"attributes":{"OBJECTID":11883,"LANDMARKID":"1002100000664","LANDMARKCO":"603","LANDMARKNA":"華洲大飯店","LANDMARKAD":"1002102","ADDRESS":"台南市中西區民生路一段181巷9號","TEL":"06-2283151","COUNTYNAME":"台南市","TOWNNAME":"中西區","MARKTYPE":"996","Class":"6"},"geometry":{"x":167992.76180000044,"y":2543811.0591000002}},{"attributes":{"OBJECTID":11884,"LANDMARKID":"1002100000665","LANDMARKCO":"603","LANDMARKNA":"香檳大飯店","LANDMARKAD":"1002102","ADDRESS":"台南市中西區民生路二段166號6-7樓","TEL":"06-2231121","COUNTYNAME":"台南市","TOWNNAME":"中西區","MARKTYPE":"996","Class":"6"},"geometry":{"x":167439.01499999966,"y":2544074.1371999998}},{"attributes":{"OBJECTID":11885,"LANDMARKID":"1002100000666","LANDMARKCO":"603","LANDMARKNA":"新生商務別館","LANDMARKAD":"1002102","ADDRESS":"台南市中西區民生路二段83號","TEL":"06-2213942","COUNTYNAME":"台南市","TOWNNAME":"中西區","MARKTYPE":"996","Class":"6"},"geometry":{"x":167683.66210000031,"y":2543956.4785999991}},{"attributes":{"OBJECTID":11886,"LANDMARKID":"1002100000667","LANDMARKCO":"603","LANDMARKNA":"華光國際商務大飯店","LANDMARKAD":"1002102","ADDRESS":"台南市中西區民族路二段143號","TEL":"06-2221123","COUNTYNAME":"台南市","TOWNNAME":"中西區","MARKTYPE":"996","Class":"6"},"geometry":{"x":168747.68369999994,"y":2543947.0525000002}},{"attributes":{"OBJECTID":11887,"LANDMARKID":"1002100000668","LANDMARKCO":"603","LANDMARKNA":"亞特蘭大飯店","LANDMARKAD":"1002102","ADDRESS":"台南市中西區成功路343號9樓","TEL":"06-2114792-3","COUNTYNAME":"台南市","TOWNNAME":"中西區","MARKTYPE":"996","Class":"6"},"geometry":{"x":167962.95079999976,"y":2544517.4254999999}},{"attributes":{"OBJECTID":11888,"LANDMARKID":"1002100000669","LANDMARKCO":"603","LANDMARKNA":"永雅旅社","LANDMARKAD":"1002102","ADDRESS":"台南市中西區西門路二段333巷5號","TEL":"06-2252234","COUNTYNAME":"台南市","TOWNNAME":"中西區","MARKTYPE":"996","Class":"6"},"geometry":{"x":167911.86149999965,"y":2544226.1556000002}},{"attributes":{"OBJECTID":11889,"LANDMARKID":"1002100000670","LANDMARKCO":"603","LANDMARKNA":"東亞旅社","LANDMARKAD":"1002102","ADDRESS":"台南市中西區西門路二段365巷10號","TEL":"06-2250658","COUNTYNAME":"台南市","TOWNNAME":"中西區","MARKTYPE":"996","Class":"6"},"geometry":{"x":167974.31960000005,"y":2544325.4966000002}},{"attributes":{"OBJECTID":11890,"LANDMARKID":"1002100000671","LANDMARKCO":"603","LANDMARKNA":"劍橋康樂大飯店","LANDMARKAD":"1002102","ADDRESS":"台南市中西區康樂街148號1-6樓","TEL":"06-2231133","COUNTYNAME":"台南市","TOWNNAME":"中西區","MARKTYPE":"996","Class":"6"},"geometry":{"x":167478.8320000004,"y":2543925.3557999991}},{"attributes":{"OBJECTID":11891,"LANDMARKID":"1002100000672","LANDMARKCO":"603","LANDMARKNA":"巨人大飯店","LANDMARKAD":"1002102","ADDRESS":"台南市中西區康樂街156號5樓","TEL":"06-2295138","COUNTYNAME":"台南市","TOWNNAME":"中西區","MARKTYPE":"996","Class":"6"},"geometry":{"x":167497.54619999975,"y":2543977.4584999997}},{"attributes":{"OBJECTID":11892,"LANDMARKID":"1002100000673","LANDMARKCO":"603","LANDMARKNA":"富得來大飯店","LANDMARKAD":"1002102","ADDRESS":"台南市中西區康樂街243號1-8樓","TEL":"06-2216846","COUNTYNAME":"台南市","TOWNNAME":"中西區","MARKTYPE":"996","Class":"6"},"geometry":{"x":167469.43159999978,"y":2543998.3041999992}},{"attributes":{"OBJECTID":11893,"LANDMARKID":"1002100000674","LANDMARKCO":"603","LANDMARKNA":"湖美時尚汽車旅館","LANDMARKAD":"1002102","ADDRESS":"台南市中西區頂美三街246號1-3樓","TEL":"06-2593456","COUNTYNAME":"台南市","TOWNNAME":"中西區","MARKTYPE":"996","Class":"6"},"geometry":{"x":166552.70830000006,"y":2545056.5165999997}},{"attributes":{"OBJECTID":11894,"LANDMARKID":"1002100000675","LANDMARKCO":"603","LANDMARKNA":"日升大飯店","LANDMARKAD":"1002102","ADDRESS":"台南市中西區尊王路126號1-11樓(2樓除外)","TEL":"06-2285656","COUNTYNAME":"台南市","TOWNNAME":"中西區","MARKTYPE":"996","Class":"6"},"geometry":{"x":167380.72149999999,"y":2543639.3931000009}},{"attributes":{"OBJECTID":11895,"LANDMARKID":"1002100000676","LANDMARKCO":"603","LANDMARKNA":"賓士大旅社","LANDMARKAD":"1002102","ADDRESS":"台南市中西區尊王路158號","TEL":"06-2295106","COUNTYNAME":"台南市","TOWNNAME":"中西區","MARKTYPE":"996","Class":"6"},"geometry":{"x":167299.61369999964,"y":2543658.9473000001}},{"attributes":{"OBJECTID":11896,"LANDMARKID":"1002100000677","LANDMARKCO":"603","LANDMARKNA":"禧悅大旅店","LANDMARKAD":"1002102","ADDRESS":"台南市中西區尊王路18號","TEL":"06-2221105","COUNTYNAME":"台南市","TOWNNAME":"中西區","MARKTYPE":"996","Class":"6"},"geometry":{"x":167721.44519999996,"y":2543562.1422000006}},{"attributes":{"OBJECTID":11897,"LANDMARKID":"1002100000678","LANDMARKCO":"603","LANDMARKNA":"金凰城大旅社","LANDMARKAD":"1002102","ADDRESS":"台南市中西區慈聖街71-1號2樓","TEL":"06-2759977","COUNTYNAME":"台南市","TOWNNAME":"中西區","MARKTYPE":"996","Class":"6"},"geometry":{"x":168008.93159999978,"y":2544395.1291000005}},{"attributes":{"OBJECTID":11898,"LANDMARKID":"1002100000679","LANDMARKCO":"603","LANDMARKNA":"永大旅社","LANDMARKAD":"1002102","ADDRESS":"台南市中西區新美街93號","TEL":"06-2219046","COUNTYNAME":"台南市","TOWNNAME":"中西區","MARKTYPE":"996","Class":"6"},"geometry":{"x":168043.85149999987,"y":2544102.3286000006}},{"attributes":{"OBJECTID":11899,"LANDMARKID":"1002100000680","LANDMARKCO":"603","LANDMARKNA":"英代大飯店","LANDMARKAD":"1002102","ADDRESS":"台南市中西區觀亭街81號2-7樓","TEL":"06-2221161","COUNTYNAME":"台南市","TOWNNAME":"中西區","MARKTYPE":"996","Class":"6"},"geometry":{"x":168587.62069999985,"y":2544266.1776999999}},{"attributes":{"OBJECTID":11900,"LANDMARKID":"1002100000681","LANDMARKCO":"603","LANDMARKNA":"豪華商務會館","LANDMARKAD":"1002102","ADDRESS":"台南市中西區環河街72號9樓之6","TEL":"06-2238472","COUNTYNAME":"台南市","TOWNNAME":"中西區","MARKTYPE":"996","Class":"6"},"geometry":{"x":167209.65799999982,"y":2543832.4522999991}},{"attributes":{"OBJECTID":11901,"LANDMARKID":"1002100000682","LANDMARKCO":"603","LANDMARKNA":"佳佳大飯店","LANDMARKAD":"1002102","ADDRESS":"台南市中西區正興街11號","TEL":"06-2252236","COUNTYNAME":"台南市","TOWNNAME":"中西區","MARKTYPE":"996","Class":"6"},"geometry":{"x":167820.60030000005,"y":2543841.6753000002}},{"attributes":{"OBJECTID":11902,"LANDMARKID":"1002100000683","LANDMARKCO":"603","LANDMARKNA":"四季紅旅店","LANDMARKAD":"1002102","ADDRESS":"台南市中西區金華路3段230號12樓之2","TEL":"06-2217788","COUNTYNAME":"台南市","TOWNNAME":"中西區","MARKTYPE":"996","Class":"6"},"geometry":{"x":167349.64879999962,"y":2543960.2131999992}},{"attributes":{"OBJECTID":11903,"LANDMARKID":"1002100000684","LANDMARKCO":"603","LANDMARKNA":"康橋商旅台南館","LANDMARKAD":"1002102","ADDRESS":"台南市中西區民生路2段299號1至8樓","TEL":"06-6008899","COUNTYNAME":"台南市","TOWNNAME":"中西區","MARKTYPE":"996","Class":"6"},"geometry":{"x":167121.62390000001,"y":2544147.5305000003}},{"attributes":{"OBJECTID":11904,"LANDMARKID":"1002100000627","LANDMARKCO":"601","LANDMARKNA":"台南大飯店","LANDMARKAD":"1002102","ADDRESS":"台南市中西區成功路1號","TEL":"06-228-9101","COUNTYNAME":"台南市","TOWNNAME":"中西區","MARKTYPE":"996","Class":"6"},"geometry":{"x":169096.38350000046,"y":2544187.3929999992}},{"attributes":{"OBJECTID":11905,"LANDMARKID":"1002100000628","LANDMARKCO":"601","LANDMARKNA":"大億麗緻酒店","LANDMARKAD":"1002102","ADDRESS":"台南市中西區西門路1段660號","TEL":"06-213-5555","COUNTYNAME":"台南市","TOWNNAME":"中西區","MARKTYPE":"996","Class":"6"},"geometry":{"x":167767.99370000046,"y":2543154.4059999995}},{"attributes":{"OBJECTID":11906,"LANDMARKID":"1002100000544","LANDMARKCO":"410","LANDMARKNA":"赤崁樓","LANDMARKAD":"1002102","ADDRESS":"台南市中西區","TEL":" ","COUNTYNAME":"台南市","TOWNNAME":"中西區","MARKTYPE":"994","Class":"4"},"geometry":{"x":168247.82299999986,"y":2544195.0065000001}},{"attributes":{"OBJECTID":11907,"LANDMARKID":"1002100000420","LANDMARKCO":"405","LANDMARKNA":"中油加油站-光州站(中油直營)","LANDMARKAD":"1002107","ADDRESS":"台南市安平區永華路二段1255號","TEL":"06-2999156","COUNTYNAME":"台南市","TOWNNAME":"安平區","MARKTYPE":"994","Class":"4"},"geometry":{"x":163876.44620000012,"y":2543568.7291999999}},{"attributes":{"OBJECTID":11908,"LANDMARKID":"1002100000421","LANDMARKCO":"405","LANDMARKNA":"中油加油站-永華路東(中油直營)","LANDMARKAD":"1002107","ADDRESS":"台南市安平區永華路二段216號","TEL":"06-2992048","COUNTYNAME":"台南市","TOWNNAME":"安平區","MARKTYPE":"994","Class":"4"},"geometry":{"x":166018.09030000027,"y":2543414.8718999997}},{"attributes":{"OBJECTID":11909,"LANDMARKID":"1002100000422","LANDMARKCO":"405","LANDMARKNA":"中油加油站-加樂府前","LANDMARKAD":"1002107","ADDRESS":"台南市安平區建平十七街３號","TEL":"06-2978097","COUNTYNAME":"台南市","TOWNNAME":"安平區","MARKTYPE":"994","Class":"4"},"geometry":{"x":166454.58359999955,"y":2544156.9765000008}},{"attributes":{"OBJECTID":11910,"LANDMARKID":"1002100000423","LANDMARKCO":"405","LANDMARKNA":"中油加油站-運河路站(中油直營)","LANDMARKAD":"1002107","ADDRESS":"台南市安平區運河路1-1號","TEL":"06-2282784","COUNTYNAME":"台南市","TOWNNAME":"安平區","MARKTYPE":"994","Class":"4"},"geometry":{"x":164175.05759999994,"y":2544378.7078000009}},{"attributes":{"OBJECTID":11911,"LANDMARKID":"1002100000424","LANDMARKCO":"405","LANDMARKNA":"中油加油站-育平路站(中油直營)","LANDMARKAD":"1002107","ADDRESS":"台南市安平區育平路80號","TEL":" ","COUNTYNAME":"台南市","TOWNNAME":"安平區","MARKTYPE":"994","Class":"4"},"geometry":{"x":164556.44120000023,"y":2543057.6395999994}},{"attributes":{"OBJECTID":11912,"LANDMARKID":"1002100000425","LANDMARKCO":"405","LANDMARKNA":"中油加油站-慶平路站(中油直營)","LANDMARKAD":"1002107","ADDRESS":"台南市安平區慶平路485號","TEL":"06-2970189","COUNTYNAME":"台南市","TOWNNAME":"安平區","MARKTYPE":"994","Class":"4"},"geometry":{"x":165260.48099999968,"y":2544172.2596000005}},{"attributes":{"OBJECTID":11913,"LANDMARKID":"1002100000426","LANDMARKCO":"405","LANDMARKNA":"中油加油站-健康路站(中油直營)","LANDMARKAD":"1002107","ADDRESS":"台南市安平區健康路三段238號","TEL":"06-2997901","COUNTYNAME":"台南市","TOWNNAME":"安平區","MARKTYPE":"994","Class":"4"},"geometry":{"x":165355.5334999999,"y":2542726.9359000009}},{"attributes":{"OBJECTID":11914,"LANDMARKID":"1002100000598","LANDMARKCO":"507","LANDMARKNA":"台灣城殘蹟(安平古堡)","LANDMARKAD":"1002107","ADDRESS":"台南市安平區國勝路82號","TEL":"06-2267348","COUNTYNAME":"台南市","TOWNNAME":"安平區","MARKTYPE":"995","Class":"5"},"geometry":{"x":163971.1557,"y":2544769.4191999994}},{"attributes":{"OBJECTID":11915,"LANDMARKID":"1002100000599","LANDMARKCO":"507","LANDMARKNA":"億載金城","LANDMARKAD":"1002107","ADDRESS":"台南市安平區","TEL":" ","COUNTYNAME":"台南市","TOWNNAME":"安平區","MARKTYPE":"995","Class":"5"},"geometry":{"x":163765.08899999969,"y":2543165.4605999999}},{"attributes":{"OBJECTID":11916,"LANDMARKID":"1002100000600","LANDMARKCO":"507","LANDMARKNA":"二鯤身砲台億載金城）","LANDMARKAD":"1002107","ADDRESS":"台南市安平區南塭16號","TEL":" ","COUNTYNAME":"台南市","TOWNNAME":"安平區","MARKTYPE":"995","Class":"5"},"geometry":{"x":163776.01389999967,"y":2543150.0929000005}},{"attributes":{"OBJECTID":11917,"LANDMARKID":"1002100000601","LANDMARKCO":"507","LANDMARKNA":"安平小砲台","LANDMARKAD":"1002107","ADDRESS":"台南市安平區西門里漁港段288號","TEL":" ","COUNTYNAME":"台南市","TOWNNAME":"安平區","MARKTYPE":"995","Class":"5"},"geometry":{"x":163720.10539999977,"y":2544473.9438000005}},{"attributes":{"OBJECTID":11918,"LANDMARKID":"1002100000602","LANDMARKCO":"507","LANDMARKNA":"妙壽宮","LANDMARKAD":"1002107","ADDRESS":"台南市安平區妙壽里國勝路26號","TEL":" ","COUNTYNAME":"台南市","TOWNNAME":"安平區","MARKTYPE":"995","Class":"5"},"geometry":{"x":164060.60780000035,"y":2544422.7447999995}},{"attributes":{"OBJECTID":11919,"LANDMARKID":"1002100000603","LANDMARKCO":"507","LANDMARKNA":"原英商德記洋行","LANDMARKAD":"1002107","ADDRESS":"台南市安平區海興里安北路194號","TEL":" ","COUNTYNAME":"台南市","TOWNNAME":"安平區","MARKTYPE":"995","Class":"5"},"geometry":{"x":163892.87490000017,"y":2544908.1271000002}},{"attributes":{"OBJECTID":11920,"LANDMARKID":"1002100000604","LANDMARKCO":"507","LANDMARKNA":"原德商東興洋行","LANDMARKAD":"1002107","ADDRESS":"台南市安平區西門里安北路183巷19號","TEL":" ","COUNTYNAME":"台南市","TOWNNAME":"安平區","MARKTYPE":"995","Class":"5"},"geometry":{"x":163756.94930000044,"y":2544714.7072999999}},{"attributes":{"OBJECTID":11921,"LANDMARKID":"1002100000605","LANDMARKCO":"507","LANDMARKNA":"海山館","LANDMARKAD":"1002107","ADDRESS":"台南市安平區文朱里效忠街52巷3號","TEL":"06-2267364","COUNTYNAME":"台南市","TOWNNAME":"安平區","MARKTYPE":"995","Class":"5"},"geometry":{"x":164186.78880000021,"y":2544626.7994999997}},{"attributes":{"OBJECTID":11922,"LANDMARKID":"1002100000606","LANDMARKCO":"507","LANDMARKNA":"台南延平街古井","LANDMARKAD":"1002107","ADDRESS":"台南市安平區文朱里延平街148巷3號","TEL":" ","COUNTYNAME":"台南市","TOWNNAME":"安平區","MARKTYPE":"995","Class":"5"},"geometry":{"x":164067.75860000029,"y":2544621.7703000009}},{"attributes":{"OBJECTID":11923,"LANDMARKID":"1002100000517","LANDMARKCO":"408","LANDMARKNA":"郵局-台南新南郵局","LANDMARKAD":"1002107","ADDRESS":"台南市安平區永華三街6號","TEL":"(06)2992-514","COUNTYNAME":"台南市","TOWNNAME":"安平區","MARKTYPE":"994","Class":"4"},"geometry":{"x":166086.89439999964,"y":2543485.5595999993}},{"attributes":{"OBJECTID":11924,"LANDMARKID":"1002100000518","LANDMARKCO":"408","LANDMARKNA":"郵局-台南地方法院郵局","LANDMARKAD":"1002107","ADDRESS":"台南市安平區健康路3段308號","TEL":"(06)2986-435","COUNTYNAME":"台南市","TOWNNAME":"安平區","MARKTYPE":"994","Class":"4"},"geometry":{"x":165064.40350000001,"y":2542784.2459999993}},{"attributes":{"OBJECTID":11925,"LANDMARKID":"1002100000519","LANDMARKCO":"408","LANDMARKNA":"郵局-台南育平郵局","LANDMARKAD":"1002107","ADDRESS":"台南市安平區育平路333號","TEL":"(06)2973-047","COUNTYNAME":"台南市","TOWNNAME":"安平區","MARKTYPE":"994","Class":"4"},"geometry":{"x":164617.22059999965,"y":2543740.2997999992}},{"attributes":{"OBJECTID":11926,"LANDMARKID":"1002100000520","LANDMARKCO":"408","LANDMARKNA":"郵局-台南安平郵局","LANDMARKAD":"1002107","ADDRESS":"台南市安平區安北路149-1號","TEL":"(06)2235-402","COUNTYNAME":"台南市","TOWNNAME":"安平區","MARKTYPE":"994","Class":"4"},"geometry":{"x":164042.43169999961,"y":2544829.7986999992}},{"attributes":{"OBJECTID":11927,"LANDMARKID":"1002100000543","LANDMARKCO":"409","LANDMARKNA":"臺南魚市場","LANDMARKAD":"1002107","ADDRESS":"臺南市運河路73號","TEL":"06-2267282","COUNTYNAME":"台南市","TOWNNAME":"安平區","MARKTYPE":"994","Class":"4"},"geometry":{"x":164345.77819999959,"y":2544446.4471000005}},{"attributes":{"OBJECTID":11928,"LANDMARKID":"1002100000466","LANDMARKCO":"406","LANDMARKNA":"海濱秋茂園","LANDMARKAD":"1002107","ADDRESS":"台南市安平區","TEL":" ","COUNTYNAME":"台南市","TOWNNAME":"安平區","MARKTYPE":"994","Class":"4"},"geometry":{"x":163090.28280000016,"y":2542846.9930000007}},{"attributes":{"OBJECTID":11929,"LANDMARKID":"1002100000467","LANDMARKCO":"406","LANDMARKNA":"安平古壁史蹟公園","LANDMARKAD":"1002107","ADDRESS":"台南市安平區國勝路82號(安平古堡旁)","TEL":" ","COUNTYNAME":"台南市","TOWNNAME":"安平區","MARKTYPE":"994","Class":"4"},"geometry":{"x":163971.17090000026,"y":2544715.4452999998}},{"attributes":{"OBJECTID":11930,"LANDMARKID":"1002100000468","LANDMARKCO":"406","LANDMARKNA":"慶平公園","LANDMARKAD":"1002107","ADDRESS":"台南市安平區","TEL":" ","COUNTYNAME":"台南市","TOWNNAME":"安平區","MARKTYPE":"994","Class":"4"},"geometry":{"x":165921.05810000002,"y":2544096.0709000006}},{"attributes":{"OBJECTID":11931,"LANDMARKID":"1002100000469","LANDMARKCO":"406","LANDMARKNA":"府平公園","LANDMARKAD":"1002107","ADDRESS":"台南市安平區","TEL":" ","COUNTYNAME":"台南市","TOWNNAME":"安平區","MARKTYPE":"994","Class":"4"},"geometry":{"x":165102.75169999991,"y":2543156.9415000007}},{"attributes":{"OBJECTID":11932,"LANDMARKID":"1002100000470","LANDMARKCO":"406","LANDMARKNA":"體育公園","LANDMARKAD":"1002107","ADDRESS":"台南市安平區","TEL":" ","COUNTYNAME":"台南市","TOWNNAME":"安平區","MARKTYPE":"994","Class":"4"},"geometry":{"x":164693.74629999977,"y":2544644.3309000004}},{"attributes":{"OBJECTID":11933,"LANDMARKID":"1002100000471","LANDMARKCO":"406","LANDMARKNA":"永華公園","LANDMARKAD":"1002107","ADDRESS":"台南市安平區","TEL":" ","COUNTYNAME":"台南市","TOWNNAME":"安平區","MARKTYPE":"994","Class":"4"},"geometry":{"x":166204.07980000041,"y":2542718.4169999994}},{"attributes":{"OBJECTID":11934,"LANDMARKID":"1002100000492","LANDMARKCO":"407","LANDMARKNA":"誠品Eslite","LANDMARKAD":"1002107","ADDRESS":"台南市安平區文平路207號","TEL":"06-2936-568","COUNTYNAME":"台南市","TOWNNAME":"安平區","MARKTYPE":"994","Class":"4"},"geometry":{"x":165705.70280000009,"y":2543127.9991999995}},{"attributes":{"OBJECTID":11935,"LANDMARKID":"1002100000493","LANDMARKCO":"407","LANDMARKNA":"小北百貨","LANDMARKAD":"1002107","ADDRESS":"台南市安平區永華路2段811號","TEL":"06-2939093","COUNTYNAME":"台南市","TOWNNAME":"安平區","MARKTYPE":"994","Class":"4"},"geometry":{"x":164823.17040000018,"y":2543541.2276000008}},{"attributes":{"OBJECTID":11936,"LANDMARKID":"1002100000008","LANDMARKCO":"101","LANDMARKNA":"台灣鹽業研究研發處","LANDMARKAD":"1002107","ADDRESS":"台南市安南區工環路15號","TEL":"06-3841722","COUNTYNAME":"台南市","TOWNNAME":"安平區","MARKTYPE":"991","Class":"1"},"geometry":{"x":163742.81769999955,"y":2544870.1473999992}},{"attributes":{"OBJECTID":11937,"LANDMARKID":"1002100000040","LANDMARKCO":"103","LANDMARKNA":"台南巿安平區衛生所","LANDMARKAD":"1002107","ADDRESS":"台南市安平區安北路16巷17弄45號","TEL":"06-2271560","COUNTYNAME":"台南市","TOWNNAME":"安平區","MARKTYPE":"991","Class":"1"},"geometry":{"x":164619.85300000012,"y":2544612.2850000001}},{"attributes":{"OBJECTID":11938,"LANDMARKID":"1002100000124","LANDMARKCO":"108","LANDMARKNA":"台南市安平區公所","LANDMARKAD":"1002107","ADDRESS":"台南市安平區安北路42號","TEL":"06-2293191","COUNTYNAME":"台南市","TOWNNAME":"安平區","MARKTYPE":"991","Class":"1"},"geometry":{"x":164580.79009999987,"y":2544604.0631000008}},{"attributes":{"OBJECTID":11939,"LANDMARKID":"1002100000039","LANDMARKCO":"103","LANDMARKNA":"台南市政府文化局","LANDMARKAD":"1002107","ADDRESS":"台南市永華路二段6號","TEL":"06-2991111","COUNTYNAME":"台南市","TOWNNAME":"安平區","MARKTYPE":"991","Class":"1"},"geometry":{"x":166417.03039999958,"y":2543370.3096999992}},{"attributes":{"OBJECTID":11940,"LANDMARKID":"1002100000072","LANDMARKCO":"107","LANDMARKNA":"台南市警察局華平派出所","LANDMARKAD":"1002107","ADDRESS":"台南市安平區建平里建平八街2號","TEL":"06-2951720","COUNTYNAME":"台南市","TOWNNAME":"安平區","MARKTYPE":"991","Class":"1"},"geometry":{"x":166146.63650000002,"y":2543461.8927999996}},{"attributes":{"OBJECTID":11941,"LANDMARKID":"1002100000073","LANDMARKCO":"107","LANDMARKNA":"台南市警察局安平分駐所","LANDMARKAD":"1002107","ADDRESS":"台南市安平區石門里安平路27號","TEL":"06-2252598","COUNTYNAME":"台南市","TOWNNAME":"安平區","MARKTYPE":"991","Class":"1"},"geometry":{"x":164668.98230000027,"y":2544405.8238999993}},{"attributes":{"OBJECTID":11942,"LANDMARKID":"1002100000074","LANDMARKCO":"107","LANDMARKNA":"台南市警察局育平派出所","LANDMARKAD":"1002107","ADDRESS":"台南市安平區平通里育平路321號","TEL":"06-2982674","COUNTYNAME":"台南市","TOWNNAME":"安平區","MARKTYPE":"991","Class":"1"},"geometry":{"x":164633.32230000012,"y":2543681.1412000004}},{"attributes":{"OBJECTID":11943,"LANDMARKID":"1002100000075","LANDMARKCO":"107","LANDMARKNA":"台南市消防局","LANDMARKAD":"1002107","ADDRESS":"台南市安平區永華路二段898號","TEL":"06-2975119","COUNTYNAME":"台南市","TOWNNAME":"安平區","MARKTYPE":"991","Class":"1"},"geometry":{"x":164561.94919999968,"y":2543646.6065999996}},{"attributes":{"OBJECTID":11944,"LANDMARKID":"1002100000076","LANDMARKCO":"107","LANDMARKNA":"台南市消防局永華消防分隊","LANDMARKAD":"1002107","ADDRESS":"台南市安平區永華路二段206號","TEL":"06-2972975","COUNTYNAME":"台南市","TOWNNAME":"安平區","MARKTYPE":"991","Class":"1"},"geometry":{"x":166150.41820000019,"y":2543400.1638999991}},{"attributes":{"OBJECTID":11945,"LANDMARKID":"1002100000077","LANDMARKCO":"107","LANDMARKNA":"台南市消防局安平消防分隊","LANDMARKAD":"1002107","ADDRESS":"台南市安平區安北路38號","TEL":"06-2216843","COUNTYNAME":"台南市","TOWNNAME":"安平區","MARKTYPE":"991","Class":"1"},"geometry":{"x":164612.24100000039,"y":2544574.2418000009}},{"attributes":{"OBJECTID":11946,"LANDMARKID":"1002100000078","LANDMARKCO":"107","LANDMARKNA":"台南市消防局救生消防分隊","LANDMARKAD":"1002107","ADDRESS":"台南市安平區永華路二段898號","TEL":"06-2975119","COUNTYNAME":"台南市","TOWNNAME":"安平區","MARKTYPE":"991","Class":"1"},"geometry":{"x":164561.94919999968,"y":2543646.6065999996}},{"attributes":{"OBJECTID":11947,"LANDMARKID":"1002100000038","LANDMARKCO":"103","LANDMARKNA":"台南市政府民政局","LANDMARKAD":"1002107","ADDRESS":"台南市安平區永華路二段6號8樓","TEL":"06-3901118","COUNTYNAME":"台南市","TOWNNAME":"安平區","MARKTYPE":"991","Class":"1"},"geometry":{"x":166417.03039999958,"y":2543370.3096999992}},{"attributes":{"OBJECTID":11948,"LANDMARKID":"1002100000057","LANDMARKCO":"106","LANDMARKNA":"台南市安平區戶政事務所","LANDMARKAD":"1002107","ADDRESS":"台南市安平區石門里27鄰安北路42之1號","TEL":"06-2275305","COUNTYNAME":"台南市","TOWNNAME":"安平區","MARKTYPE":"991","Class":"1"},"geometry":{"x":164589.29700000025,"y":2544602.8614000008}},{"attributes":{"OBJECTID":11949,"LANDMARKID":"1002100000050","LANDMARKCO":"105","LANDMARKNA":"台南市政府地政處","LANDMARKAD":"1002107","ADDRESS":"台南市安平區永華路二段6號9樓","TEL":"06-2991111","COUNTYNAME":"台南市","TOWNNAME":"安平區","MARKTYPE":"991","Class":"1"},"geometry":{"x":166417.03039999958,"y":2543370.3096999992}},{"attributes":{"OBJECTID":11950,"LANDMARKID":"1002100000051","LANDMARKCO":"105","LANDMARKNA":"台南市台南地政事務所","LANDMARKAD":"1002107","ADDRESS":"台南市安平區建平路321號","TEL":"06-2978860","COUNTYNAME":"台南市","TOWNNAME":"安平區","MARKTYPE":"991","Class":"1"},"geometry":{"x":166180.87650000025,"y":2543480.5836999994}},{"attributes":{"OBJECTID":11951,"LANDMARKID":"1002100000033","LANDMARKCO":"103","LANDMARKNA":"台南巿政府","LANDMARKAD":"1002107","ADDRESS":"台南市安平區永華路二段6號","TEL":"06-2991111","COUNTYNAME":"台南市","TOWNNAME":"安平區","MARKTYPE":"991","Class":"1"},"geometry":{"x":166417.03039999958,"y":2543370.3096999992}},{"attributes":{"OBJECTID":11952,"LANDMARKID":"1002100000009","LANDMARKCO":"101","LANDMARKNA":"台灣台南地方法院","LANDMARKAD":"1002107","ADDRESS":"台南市健康路三段308號","TEL":"06-2956566","COUNTYNAME":"台南市","TOWNNAME":"安平區","MARKTYPE":"991","Class":"1"},"geometry":{"x":165064.89070000034,"y":2542783.7488000002}},{"attributes":{"OBJECTID":11953,"LANDMARKID":"1002100000010","LANDMARKCO":"101","LANDMARKNA":"調查局台南市調查站","LANDMARKAD":"1002107","ADDRESS":"台南市安平區永華路二段208號","TEL":"06-2987777","COUNTYNAME":"台南市","TOWNNAME":"安平區","MARKTYPE":"991","Class":"1"},"geometry":{"x":166101.89059999958,"y":2543410.6432000007}},{"attributes":{"OBJECTID":11954,"LANDMARKID":"1002100000034","LANDMARKCO":"103","LANDMARKNA":"台南市議會","LANDMARKAD":"1002107","ADDRESS":"台南市安平區永華路二段2號","TEL":"06-2976688","COUNTYNAME":"台南市","TOWNNAME":"安平區","MARKTYPE":"991","Class":"1"},"geometry":{"x":166534.89159999974,"y":2543406.7142999992}},{"attributes":{"OBJECTID":11955,"LANDMARKID":"1002100000035","LANDMARKCO":"103","LANDMARKNA":"台南市工商(業)發展投資策進會","LANDMARKAD":"1002107","ADDRESS":"台南市安平區永華路二段6號15樓","TEL":"06-2953281","COUNTYNAME":"台南市","TOWNNAME":"安平區","MARKTYPE":"991","Class":"1"},"geometry":{"x":166417.03039999958,"y":2543370.3096999992}},{"attributes":{"OBJECTID":11956,"LANDMARKID":"1002100000036","LANDMARKCO":"103","LANDMARKNA":"台南市選舉委員會","LANDMARKAD":"1002107","ADDRESS":"台南市安平區建平九街1號","TEL":"06-2982100","COUNTYNAME":"台南市","TOWNNAME":"安平區","MARKTYPE":"991","Class":"1"},"geometry":{"x":166113.61600000039,"y":2543504.7085999995}},{"attributes":{"OBJECTID":11957,"LANDMARKID":"1002100000037","LANDMARKCO":"103","LANDMARKNA":"台南市政府安平漁港管理站","LANDMARKAD":"1002107","ADDRESS":"台南市安平區城平路2號","TEL":"06-3911905","COUNTYNAME":"台南市","TOWNNAME":"安平區","MARKTYPE":"991","Class":"1"},"geometry":{"x":162909.29119999986,"y":2543600.3208000008}},{"attributes":{"OBJECTID":11958,"LANDMARKID":"1002100000235","LANDMARKCO":"205","LANDMARKNA":"永漢民藝館","LANDMARKAD":"1002107","ADDRESS":"台南市安平區國勝路43號","TEL":" ","COUNTYNAME":"台南市","TOWNNAME":"安平區","MARKTYPE":"992","Class":"2"},"geometry":{"x":163901.6771999998,"y":2544667.3822000008}},{"attributes":{"OBJECTID":11959,"LANDMARKID":"1002100000231","LANDMARKCO":"204","LANDMARKNA":"台南巿立圖書館安平分館","LANDMARKAD":"1002107","ADDRESS":"台南市安平區國勝路37號","TEL":" ","COUNTYNAME":"台南市","TOWNNAME":"安平區","MARKTYPE":"992","Class":"2"},"geometry":{"x":163871.20779999997,"y":2544663.2625999991}},{"attributes":{"OBJECTID":11960,"LANDMARKID":"1002100000151","LANDMARKCO":"202","LANDMARKNA":"國立台南海事水產職校","LANDMARKAD":"1002107","ADDRESS":"台南市安平區世平路1號","TEL":"06-3910772","COUNTYNAME":"台南市","TOWNNAME":"安平區","MARKTYPE":"992","Class":"2"},"geometry":{"x":162961.48589999974,"y":2543917.6128000002}},{"attributes":{"OBJECTID":11961,"LANDMARKID":"1002100000166","LANDMARKCO":"203","LANDMARKNA":"市立安平國中","LANDMARKAD":"1002107","ADDRESS":"台南市安平區慶平路687號","TEL":"06-2990461","COUNTYNAME":"台南市","TOWNNAME":"安平區","MARKTYPE":"992","Class":"2"},"geometry":{"x":164747.11990000028,"y":2544263.2672000006}},{"attributes":{"OBJECTID":11962,"LANDMARKID":"1002100000167","LANDMARKCO":"203","LANDMARKNA":"市立西門國小漁光分校","LANDMARKAD":"1002107","ADDRESS":"台南市安平區漁光里漁光路133號","TEL":"06-3911467","COUNTYNAME":"台南市","TOWNNAME":"安平區","MARKTYPE":"992","Class":"2"},"geometry":{"x":163724.57820000034,"y":2542091.6338}},{"attributes":{"OBJECTID":11963,"LANDMARKID":"1002100000168","LANDMARKCO":"203","LANDMARKNA":"市立西門國小","LANDMARKAD":"1002107","ADDRESS":"台南市安平區石門里古堡街87號","TEL":"06-3914141#2","COUNTYNAME":"台南市","TOWNNAME":"安平區","MARKTYPE":"992","Class":"2"},"geometry":{"x":163867.49679999985,"y":2544877.1125000007}},{"attributes":{"OBJECTID":11964,"LANDMARKID":"1002100000169","LANDMARKCO":"203","LANDMARKNA":"市立石門國小","LANDMARKAD":"1002107","ADDRESS":"台南市安平區石門里安平路700號","TEL":"06-2213332","COUNTYNAME":"台南市","TOWNNAME":"安平區","MARKTYPE":"992","Class":"2"},"geometry":{"x":164525.78880000021,"y":2544485.1316}},{"attributes":{"OBJECTID":11965,"LANDMARKID":"1002100000170","LANDMARKCO":"203","LANDMARKNA":"市立安平國小","LANDMARKAD":"1002107","ADDRESS":"台南市安平區怡平路392號","TEL":"06-2996735","COUNTYNAME":"台南市","TOWNNAME":"安平區","MARKTYPE":"992","Class":"2"},"geometry":{"x":165556.13729999959,"y":2543914.7621999998}},{"attributes":{"OBJECTID":11966,"LANDMARKID":"1002100000171","LANDMARKCO":"203","LANDMARKNA":"市立億載國小","LANDMARKAD":"1002107","ADDRESS":"台南市安平區郡平路310號","TEL":"06-2932371","COUNTYNAME":"台南市","TOWNNAME":"安平區","MARKTYPE":"992","Class":"2"},"geometry":{"x":164262.09939999972,"y":2543421.0359000005}},{"attributes":{"OBJECTID":11967,"LANDMARKID":"1002100000306","LANDMARKCO":"305","LANDMARKNA":"安平港","LANDMARKAD":"1002107","ADDRESS":"台南市安平區","TEL":" ","COUNTYNAME":"台南市","TOWNNAME":"安平區","MARKTYPE":"993","Class":"305"},"geometry":{"x":162969.11980000045,"y":2543584.9743000008}},{"attributes":{"OBJECTID":11968,"LANDMARKID":"1002100000297","LANDMARKCO":"303","LANDMARKNA":"港濱歷史公園停車場","LANDMARKAD":"1002107","ADDRESS":"台南市安平區安億路旁","TEL":" ","COUNTYNAME":"台南市","TOWNNAME":"安平區","MARKTYPE":"993","Class":"303"},"geometry":{"x":163567.88320000004,"y":2543741.2632999998}},{"attributes":{"OBJECTID":11969,"LANDMARKID":"1002100000298","LANDMARKCO":"303","LANDMARKNA":"海濱秋茂園停車場","LANDMARKAD":"1002107","ADDRESS":"台南市安平區漁光路","TEL":" ","COUNTYNAME":"台南市","TOWNNAME":"安平區","MARKTYPE":"993","Class":"303"},"geometry":{"x":162987.82710000034,"y":2543188.6402000003}},{"attributes":{"OBJECTID":11970,"LANDMARKID":"1002100000299","LANDMARKCO":"303","LANDMARKNA":"億載金城公有停車場","LANDMARKAD":"1002107","ADDRESS":"台南市安平區光州路3號","TEL":"06-2951504","COUNTYNAME":"台南市","TOWNNAME":"安平區","MARKTYPE":"993","Class":"303"},"geometry":{"x":163857.39950000029,"y":2543288.2432000004}},{"attributes":{"OBJECTID":11971,"LANDMARKID":"1002100000300","LANDMARKCO":"303","LANDMARKNA":"安平開台天后宮停車場","LANDMARKAD":"1002107","ADDRESS":"台南市安平區安平路","TEL":"06-2292316","COUNTYNAME":"台南市","TOWNNAME":"安平區","MARKTYPE":"993","Class":"303"},"geometry":{"x":163928.80370000005,"y":2544570.3138999995}},{"attributes":{"OBJECTID":11972,"LANDMARKID":"1002100000301","LANDMARKCO":"303","LANDMARKNA":"安平停車場","LANDMARKAD":"1002107","ADDRESS":"台南市安平區安平路","TEL":" ","COUNTYNAME":"台南市","TOWNNAME":"安平區","MARKTYPE":"993","Class":"303"},"geometry":{"x":163903.49969999958,"y":2544521.3377}},{"attributes":{"OBJECTID":11973,"LANDMARKID":"1002100000302","LANDMARKCO":"303","LANDMARKNA":"漁人碼頭停車場","LANDMARKAD":"1002107","ADDRESS":"台南市安平區","TEL":" ","COUNTYNAME":"台南市","TOWNNAME":"安平區","MARKTYPE":"993","Class":"303"},"geometry":{"x":164317.84300000034,"y":2544106.7807}},{"attributes":{"OBJECTID":11974,"LANDMARKID":"1002100000303","LANDMARKCO":"303","LANDMARKNA":"新沙卡里巴綜合商場停車場","LANDMARKAD":"1002107","ADDRESS":"台南市安平區怡平路","TEL":" ","COUNTYNAME":"台南市","TOWNNAME":"安平區","MARKTYPE":"993","Class":"303"},"geometry":{"x":165933.47780000046,"y":2543877.7160999998}},{"attributes":{"OBJECTID":11975,"LANDMARKID":"1002100000304","LANDMARKCO":"303","LANDMARKNA":"台南市政府旁停車場","LANDMARKAD":"1002107","ADDRESS":"台南市安平區府前路二段","TEL":" ","COUNTYNAME":"台南市","TOWNNAME":"安平區","MARKTYPE":"993","Class":"303"},"geometry":{"x":166144.85969999991,"y":2543800.7501999997}},{"attributes":{"OBJECTID":11976,"LANDMARKID":"1002100000629","LANDMARKCO":"603","LANDMARKNA":"翔舜花園汽車賓館","LANDMARKAD":"1002107","ADDRESS":"台南市安平區建平八街66號1-3樓","TEL":"06-2971365","COUNTYNAME":"台南市","TOWNNAME":"安平區","MARKTYPE":"996","Class":"6"},"geometry":{"x":166002.81010000035,"y":2543481.1081000008}},{"attributes":{"OBJECTID":11977,"LANDMARKID":"1002100000630","LANDMARKCO":"603","LANDMARKNA":"愛丁堡汽車商旅","LANDMARKAD":"1002107","ADDRESS":"台南市安平區永華五街77號1-2樓","TEL":"06-2970116-8","COUNTYNAME":"台南市","TOWNNAME":"安平區","MARKTYPE":"996","Class":"6"},"geometry":{"x":165886.90259999968,"y":2543614.0263999999}},{"attributes":{"OBJECTID":11978,"LANDMARKID":"1002100000631","LANDMARKCO":"603","LANDMARKNA":"永華春天汽車旅館","LANDMARKAD":"1002107","ADDRESS":"台南市安平區永華六街21號","TEL":"06-2971002","COUNTYNAME":"台南市","TOWNNAME":"安平區","MARKTYPE":"996","Class":"6"},"geometry":{"x":165539.44940000027,"y":2543566.6876999997}},{"attributes":{"OBJECTID":11979,"LANDMARKID":"1002100000632","LANDMARKCO":"603","LANDMARKNA":"龍成飯店","LANDMARKAD":"1002107","ADDRESS":"台南市安平區永華路二段675號1-3樓","TEL":"06-2972666","COUNTYNAME":"台南市","TOWNNAME":"安平區","MARKTYPE":"996","Class":"6"},"geometry":{"x":165127.07010000013,"y":2543458.5803999994}},{"attributes":{"OBJECTID":11980,"LANDMARKID":"1002100000633","LANDMARKCO":"603","LANDMARKNA":"歐薇汽車旅館 (台南館)","LANDMARKAD":"1002107","ADDRESS":"台南市安平區育平路181號1-2樓","TEL":"06-2993000","COUNTYNAME":"台南市","TOWNNAME":"安平區","MARKTYPE":"996","Class":"6"},"geometry":{"x":164569.62729999982,"y":2543361.0394000001}},{"attributes":{"OBJECTID":11981,"LANDMARKID":"1002100000634","LANDMARKCO":"603","LANDMARKNA":"荷蘭村汽車旅館 (華平館)","LANDMARKAD":"1002107","ADDRESS":"台南市安平區建平一街239號","TEL":"06-2956123","COUNTYNAME":"台南市","TOWNNAME":"安平區","MARKTYPE":"996","Class":"6"},"geometry":{"x":165358.28369999956,"y":2542804.2928999998}},{"attributes":{"OBJECTID":11982,"LANDMARKID":"1002100000635","LANDMARKCO":"603","LANDMARKNA":"允頌汽車旅館","LANDMARKAD":"1002107","ADDRESS":"台南市安平區建平十七街1號1-2樓","TEL":"06-2987756","COUNTYNAME":"台南市","TOWNNAME":"安平區","MARKTYPE":"996","Class":"6"},"geometry":{"x":166430.42800000031,"y":2544183.8652999997}},{"attributes":{"OBJECTID":11983,"LANDMARKID":"1002100000636","LANDMARKCO":"603","LANDMARKNA":"臺邦商旅","LANDMARKAD":"1002107","ADDRESS":"台南市安平區永華二街199號","TEL":"06-2931888","COUNTYNAME":"台南市","TOWNNAME":"安平區","MARKTYPE":"996","Class":"6"},"geometry":{"x":166373.56350000016,"y":2543236.5776000004}},{"attributes":{"OBJECTID":11984,"LANDMARKID":"1002100000637","LANDMARKCO":"603","LANDMARKNA":"維悅酒店","LANDMARKAD":"1002107","ADDRESS":"台南市安平區慶平路539號B1","TEL":"1-5樓","COUNTYNAME":"台南市","TOWNNAME":"安平區","MARKTYPE":"996","Class":"6"},"geometry":{"x":165068.29289999977,"y":2544211.2292999998}},{"attributes":{"OBJECTID":11985,"LANDMARKID":"1002100000619","LANDMARKCO":"509","LANDMARKNA":"安平海水浴場","LANDMARKAD":"1002107","ADDRESS":"台南市安平區","TEL":" ","COUNTYNAME":"台南市","TOWNNAME":"安平區","MARKTYPE":"995","Class":"5"},"geometry":{"x":162414.60809999984,"y":2543511.2280000001}},{"attributes":{"OBJECTID":11986,"LANDMARKID":"1002100000427","LANDMARKCO":"405","LANDMARKNA":"中油加油站-中華路東站(中油直營)","LANDMARKAD":"1002101","ADDRESS":"台南市東區中華東路三段171號","TEL":"06-2674935","COUNTYNAME":"台南市","TOWNNAME":"東區","MARKTYPE":"994","Class":"4"},"geometry":{"x":170661.92339999974,"y":2541968.2369999997}},{"attributes":{"OBJECTID":11987,"LANDMARKID":"1002100000428","LANDMARKCO":"405","LANDMARKNA":"中油加油站-中華路西站(中油直營)","LANDMARKAD":"1002101","ADDRESS":"台南市東區中華東路三段170號","TEL":"06-2673501","COUNTYNAME":"台南市","TOWNNAME":"東區","MARKTYPE":"994","Class":"4"},"geometry":{"x":170666.56659999955,"y":2542037.0420999993}},{"attributes":{"OBJECTID":11988,"LANDMARKID":"1002100000429","LANDMARKCO":"405","LANDMARKNA":"中油加油站-東門路站(刷卡自助)(中油直營)","LANDMARKAD":"1002101","ADDRESS":"台南市東區東門路二段39號","TEL":"06-2371994","COUNTYNAME":"台南市","TOWNNAME":"東區","MARKTYPE":"994","Class":"4"},"geometry":{"x":170020.46380000003,"y":2543005.7700999994}},{"attributes":{"OBJECTID":11989,"LANDMARKID":"1002100000430","LANDMARKCO":"405","LANDMARKNA":"中油加油站-崇善路站(中油直營)","LANDMARKAD":"1002101","ADDRESS":"台南市東區崇善路557號","TEL":"06-2697873","COUNTYNAME":"台南市","TOWNNAME":"東區","MARKTYPE":"994","Class":"4"},"geometry":{"x":171026.5932,"y":2541503.3786999993}},{"attributes":{"OBJECTID":11990,"LANDMARKID":"1002100000431","LANDMARKCO":"405","LANDMARKNA":"中油加油站-生產路站(中油直營)","LANDMARKAD":"1002101","ADDRESS":"台南市東區生產路1號","TEL":"06-2675069","COUNTYNAME":"台南市","TOWNNAME":"東區","MARKTYPE":"994","Class":"4"},"geometry":{"x":169686.72350000031,"y":2540547.5842000004}},{"attributes":{"OBJECTID":11991,"LANDMARKID":"1002100000432","LANDMARKCO":"405","LANDMARKNA":"千越加油站-東門站(中油)","LANDMARKAD":"1002101","ADDRESS":"台南市東區中華東路2段298號","TEL":"06-236-3678","COUNTYNAME":"台南市","TOWNNAME":"東區","MARKTYPE":"994","Class":"4"},"geometry":{"x":171305.87399999984,"y":2542765.5610000007}},{"attributes":{"OBJECTID":11992,"LANDMARKID":"1002100000433","LANDMARKCO":"405","LANDMARKNA":"台糖加油站-崇德站(中油)","LANDMARKAD":"1002101","ADDRESS":"台南市東區崇德路790號","TEL":" ","COUNTYNAME":"台南市","TOWNNAME":"東區","MARKTYPE":"994","Class":"4"},"geometry":{"x":170776.07050000038,"y":2540597.9272000007}},{"attributes":{"OBJECTID":11993,"LANDMARKID":"1002100000434","LANDMARKCO":"405","LANDMARKNA":"中油加油站-崇學路站","LANDMARKAD":"1002101","ADDRESS":"台南市東區崇學路228號","TEL":"06-2675827","COUNTYNAME":"台南市","TOWNNAME":"東區","MARKTYPE":"994","Class":"4"},"geometry":{"x":170646.23259999976,"y":2542562.4224999994}},{"attributes":{"OBJECTID":11994,"LANDMARKID":"1002100000350","LANDMARKCO":"402","LANDMARKNA":"My Phone台灣大哥大-台南中華直營服務中心","LANDMARKAD":"1002101","ADDRESS":"台南市東區中華東路三段48號","TEL":"0809-000-166","COUNTYNAME":"台南市","TOWNNAME":"東區","MARKTYPE":"994","Class":"4"},"geometry":{"x":170864.66669999994,"y":2542284.2225000001}},{"attributes":{"OBJECTID":11995,"LANDMARKID":"1002100000351","LANDMARKCO":"402","LANDMARKNA":"亞太行動寬頻電信-台南大同加盟服務中心","LANDMARKAD":"1002101","ADDRESS":"台南市東區大同里大同路1段225號","TEL":"06-2143248","COUNTYNAME":"台南市","TOWNNAME":"東區","MARKTYPE":"994","Class":"4"},"geometry":{"x":169137.91339999996,"y":2542671.1136000007}},{"attributes":{"OBJECTID":11996,"LANDMARKID":"1002100000352","LANDMARKCO":"402","LANDMARKNA":"亞太行動寬頻電信-台南中華東加盟服務中心","LANDMARKAD":"1002101","ADDRESS":"台南市東區中華東路3段154號","TEL":"06-3355688","COUNTYNAME":"台南市","TOWNNAME":"東區","MARKTYPE":"994","Class":"4"},"geometry":{"x":170713.66949999984,"y":2542094.9288999997}},{"attributes":{"OBJECTID":11997,"LANDMARKID":"1002100000353","LANDMARKCO":"402","LANDMARKNA":"亞太行動寬頻電信-台南崇德加盟服務中心","LANDMARKAD":"1002101","ADDRESS":"台南市東區崇德路635號","TEL":"06-2605839","COUNTYNAME":"台南市","TOWNNAME":"東區","MARKTYPE":"994","Class":"4"},"geometry":{"x":170807.09999999963,"y":2541280.4462000001}},{"attributes":{"OBJECTID":11998,"LANDMARKID":"1002100000354","LANDMARKCO":"402","LANDMARKNA":"亞太行動寬頻電信-台南東寧加盟服務中心","LANDMARKAD":"1002101","ADDRESS":"台南市東區東寧路69號","TEL":"06-2346789","COUNTYNAME":"台南市","TOWNNAME":"東區","MARKTYPE":"994","Class":"4"},"geometry":{"x":170261.84489999991,"y":2543601.0050000008}},{"attributes":{"OBJECTID":11999,"LANDMARKID":"1002100000355","LANDMARKCO":"402","LANDMARKNA":"亞太行動寬頻電信-台南東門加盟服務中心","LANDMARKAD":"1002101","ADDRESS":"台南市東區東門路2段125號","TEL":"06-2089088","COUNTYNAME":"台南市","TOWNNAME":"東區","MARKTYPE":"994","Class":"4"},"geometry":{"x":170234.57909999974,"y":2542918.3990000002}},{"attributes":{"OBJECTID":12000,"LANDMARKID":"1002100000310","LANDMARKCO":"401","LANDMARKNA":"周宗盛醫院","LANDMARKAD":"1002101","ADDRESS":"台南市莊敬路100號","TEL":"06-2746188","COUNTYNAME":"台南市","TOWNNAME":"東區","MARKTYPE":"994","Class":"4"},"geometry":{"x":171364.63690000027,"y":2543944.2979000006}}]}