{"displayFieldName":"COUNTYNAME","fieldAliases":{"OBJECTID":"OBJECTID","LANDMARKID":"LANDMARKID","LANDMARKCO":"LANDMARKCO","LANDMARKNA":"LANDMARKNA","LANDMARKAD":"LANDMARKAD","ADDRESS":"ADDRESS","TEL":"TEL","COUNTYNAME":"COUNTYNAME","TOWNNAME":"TOWNNAME","MARKTYPE":"MARKTYPE","Class":"Class"},"geometryType":"esriGeometryPoint","spatialReference":{"wkid":4326},"fields":[{"name":"OBJECTID","type":"esriFieldTypeOID","alias":"OBJECTID"},{"name":"LANDMARKID","type":"esriFieldTypeString","alias":"LANDMARKID","length":15},{"name":"LANDMARKCO","type":"esriFieldTypeString","alias":"LANDMARKCO","length":15},{"name":"LANDMARKNA","type":"esriFieldTypeString","alias":"LANDMARKNA","length":50},{"name":"LANDMARKAD","type":"esriFieldTypeString","alias":"LANDMARKAD","length":15},{"name":"ADDRESS","type":"esriFieldTypeString","alias":"ADDRESS","length":56},{"name":"TEL","type":"esriFieldTypeString","alias":"TEL","length":36},{"name":"COUNTYNAME","type":"esriFieldTypeString","alias":"COUNTYNAME","length":15},{"name":"TOWNNAME","type":"esriFieldTypeString","alias":"TOWNNAME","length":13},{"name":"MARKTYPE","type":"esriFieldTypeString","alias":"MARKTYPE","length":12},{"name":"Class","type":"esriFieldTypeString","alias":"Class","length":5}],"features":[{"attributes":{"OBJECTID":10201,"LANDMARKID":"1001100000247","LANDMARKCO":"107","LANDMARKNA":"台南市警察局華雅派出所","LANDMARKAD":"1001102","ADDRESS":"台南市鹽水區歡雅里25號","TEL":"06-6552307","COUNTYNAME":"台南市","TOWNNAME":"鹽水區","MARKTYPE":"991","Class":"1"},"geometry":{"x":120.24179490131695,"y":23.292446195399837}},{"attributes":{"OBJECTID":10202,"LANDMARKID":"1001100000248","LANDMARKCO":"107","LANDMARKNA":"台南市警察局竹埔派出所","LANDMARKAD":"1001102","ADDRESS":"台南市鹽水區竹埔里1號","TEL":"06-6551960","COUNTYNAME":"台南市","TOWNNAME":"鹽水區","MARKTYPE":"991","Class":"1"},"geometry":{"x":120.24765459013565,"y":23.272790731459953}},{"attributes":{"OBJECTID":10203,"LANDMARKID":"1001100000093","LANDMARKCO":"103","LANDMARKNA":"台南市鹽水區垃圾衛生掩埋場","LANDMARKAD":"1001102","ADDRESS":"台南市鹽水區舊營段後寮小段1547號","TEL":"06-6524103","COUNTYNAME":"台南市","TOWNNAME":"鹽水區","MARKTYPE":"991","Class":"1"},"geometry":{"x":120.25997197324651,"y":23.302924467313964}},{"attributes":{"OBJECTID":10204,"LANDMARKID":"1001100000663","LANDMARKCO":"205","LANDMARKNA":"鹽水文物陳列室","LANDMARKAD":"1001102","ADDRESS":"台南市鹽水區武廟路87之1號","TEL":"06-6521264","COUNTYNAME":"台南市","TOWNNAME":"鹽水區","MARKTYPE":"992","Class":"2"},"geometry":{"x":120.26554959211695,"y":23.323825063191062}},{"attributes":{"OBJECTID":10205,"LANDMARKID":"1001100000638","LANDMARKCO":"204","LANDMARKNA":"台南市立圖書館鹽水分館","LANDMARKAD":"1001102","ADDRESS":"台南市鹽水區月津路14之1號","TEL":" ","COUNTYNAME":"台南市","TOWNNAME":"鹽水區","MARKTYPE":"992","Class":"2"},"geometry":{"x":120.26642590108942,"y":23.31631069493374}},{"attributes":{"OBJECTID":10206,"LANDMARKID":"1001100000362","LANDMARKCO":"202","LANDMARKNA":"私立明達高中","LANDMARKAD":"1001102","ADDRESS":"台南市鹽水區橋南里忠孝路73號","TEL":"06-6521178","COUNTYNAME":"台南市","TOWNNAME":"鹽水區","MARKTYPE":"992","Class":"2"},"geometry":{"x":120.2746676622352,"y":23.310040077678572}},{"attributes":{"OBJECTID":10207,"LANDMARKID":"1001100000363","LANDMARKCO":"202","LANDMARKNA":"私立明達高中附設國中部","LANDMARKAD":"1001102","ADDRESS":"台南市鹽水區橋南里忠孝路73號","TEL":"06-6521178","COUNTYNAME":"台南市","TOWNNAME":"鹽水區","MARKTYPE":"992","Class":"2"},"geometry":{"x":120.2748025714541,"y":23.310221928847046}},{"attributes":{"OBJECTID":10208,"LANDMARKID":"1001100000529","LANDMARKCO":"203","LANDMARKNA":"縣立鹽水國中","LANDMARKAD":"1001102","ADDRESS":"台南市鹽水區三福路63號","TEL":"06-6521146","COUNTYNAME":"台南市","TOWNNAME":"鹽水區","MARKTYPE":"992","Class":"2"},"geometry":{"x":120.26426331871872,"y":23.323346195122642}},{"attributes":{"OBJECTID":10209,"LANDMARKID":"1001100000530","LANDMARKCO":"203","LANDMARKNA":"縣立月津國小","LANDMARKAD":"1001102","ADDRESS":"台南市鹽水區月津路16號","TEL":"06-6521113","COUNTYNAME":"台南市","TOWNNAME":"鹽水區","MARKTYPE":"992","Class":"2"},"geometry":{"x":120.26563156628229,"y":23.315683668057268}},{"attributes":{"OBJECTID":10210,"LANDMARKID":"1001100000531","LANDMARKCO":"203","LANDMARKNA":"縣立鹽水國小","LANDMARKAD":"1001102","ADDRESS":"台南市鹽水區朝琴路137號","TEL":"06-6521046","COUNTYNAME":"台南市","TOWNNAME":"鹽水區","MARKTYPE":"992","Class":"2"},"geometry":{"x":120.27019334793184,"y":23.322924153769954}},{"attributes":{"OBJECTID":10211,"LANDMARKID":"1001100000341","LANDMARKCO":"201","LANDMARKNA":"南榮技術學院","LANDMARKAD":"1001102","ADDRESS":"台南市鹽水區朝琴路178號","TEL":"06-6523111","COUNTYNAME":"台南市","TOWNNAME":"鹽水區","MARKTYPE":"992","Class":"2"},"geometry":{"x":120.27476124211979,"y":23.324579061542142}},{"attributes":{"OBJECTID":10212,"LANDMARKID":"1001100000532","LANDMARKCO":"203","LANDMARKNA":"縣立歡雅國小大豐分校(廢)","LANDMARKAD":"1001102","ADDRESS":"台南市鹽水區大豐里8號","TEL":"06-6551789","COUNTYNAME":"台南市","TOWNNAME":"鹽水區","MARKTYPE":"992","Class":"2"},"geometry":{"x":120.22364632295493,"y":23.266357947799751}},{"attributes":{"OBJECTID":10213,"LANDMARKID":"1001100000533","LANDMARKCO":"203","LANDMARKNA":"月津國小中庄分校(廢)","LANDMARKAD":"1001102","ADDRESS":"台南市鹽水區下中里32號","TEL":"06-6521113","COUNTYNAME":"台南市","TOWNNAME":"鹽水區","MARKTYPE":"992","Class":"2"},"geometry":{"x":120.24217010233558,"y":23.319810226626}},{"attributes":{"OBJECTID":10214,"LANDMARKID":"1001100000534","LANDMARKCO":"203","LANDMARKNA":"縣立歡雅國小","LANDMARKAD":"1001102","ADDRESS":"台南市鹽水區歡雅里31號","TEL":"06-6552558","COUNTYNAME":"台南市","TOWNNAME":"鹽水區","MARKTYPE":"992","Class":"2"},"geometry":{"x":120.24318394153926,"y":23.292369310677774}},{"attributes":{"OBJECTID":10215,"LANDMARKID":"1001100000535","LANDMARKCO":"203","LANDMARKNA":"縣立竹埔國小","LANDMARKAD":"1001102","ADDRESS":"台南市鹽水區竹埔里92之1號","TEL":"06-6551001","COUNTYNAME":"台南市","TOWNNAME":"鹽水區","MARKTYPE":"992","Class":"2"},"geometry":{"x":120.24583339880762,"y":23.266826860733072}},{"attributes":{"OBJECTID":10216,"LANDMARKID":"1001100000536","LANDMARKCO":"203","LANDMARKNA":"縣立河南國小","LANDMARKAD":"1001102","ADDRESS":"台南市鹽水區南港里202號","TEL":"06-6892014","COUNTYNAME":"台南市","TOWNNAME":"鹽水區","MARKTYPE":"992","Class":"2"},"geometry":{"x":120.24984144927819,"y":23.254571294859574}},{"attributes":{"OBJECTID":10217,"LANDMARKID":"1001100000537","LANDMARKCO":"203","LANDMARKNA":"縣立文昌國小","LANDMARKAD":"1001102","ADDRESS":"台南市鹽水區後宅里10之3號","TEL":"06-6522664","COUNTYNAME":"台南市","TOWNNAME":"鹽水區","MARKTYPE":"992","Class":"2"},"geometry":{"x":120.25241172482023,"y":23.309484201821892}},{"attributes":{"OBJECTID":10218,"LANDMARKID":"1001100000538","LANDMARKCO":"203","LANDMARKNA":"縣立仁光國小","LANDMARKAD":"1001102","ADDRESS":"台南市鹽水區舊營里117號","TEL":"06-6523620","COUNTYNAME":"台南市","TOWNNAME":"鹽水區","MARKTYPE":"992","Class":"2"},"geometry":{"x":120.25738462498816,"y":23.299843075078083}},{"attributes":{"OBJECTID":10219,"LANDMARKID":"1001100000539","LANDMARKCO":"203","LANDMARKNA":"縣立岸內國小","LANDMARKAD":"1001102","ADDRESS":"台南市鹽水區岸內里新岸內96號","TEL":"06-6524651","COUNTYNAME":"台南市","TOWNNAME":"鹽水區","MARKTYPE":"992","Class":"2"},"geometry":{"x":120.26078541827633,"y":23.329389665042736}},{"attributes":{"OBJECTID":10220,"LANDMARKID":"1001100000540","LANDMARKCO":"203","LANDMARKNA":"縣立鹽水國小汫水分校(廢)","LANDMARKAD":"1001102","ADDRESS":"台南市鹽水區汫水里1號","TEL":"06-6521046","COUNTYNAME":"台南市","TOWNNAME":"鹽水區","MARKTYPE":"992","Class":"2"},"geometry":{"x":120.27269371353088,"y":23.345960620292207}},{"attributes":{"OBJECTID":10221,"LANDMARKID":"1001100000685","LANDMARKCO":"302","LANDMARKNA":"新營汽車客運鹽水站","LANDMARKAD":"1001102","ADDRESS":"台南市鹽水區中正路52號","TEL":" ","COUNTYNAME":"台南市","TOWNNAME":"鹽水區","MARKTYPE":"993","Class":"302"},"geometry":{"x":120.26736002471382,"y":23.318924587123718}},{"attributes":{"OBJECTID":10222,"LANDMARKID":"1001100000732","LANDMARKCO":"303","LANDMARKNA":"鹽水區停車場","LANDMARKAD":"1001102","ADDRESS":"台南市鹽水區西內路","TEL":" ","COUNTYNAME":"台南市","TOWNNAME":"鹽水區","MARKTYPE":"993","Class":"303"},"geometry":{"x":120.2540061301402,"y":23.32510547315054}},{"attributes":{"OBJECTID":10223,"LANDMARKID":"1001100000677","LANDMARKCO":"301","LANDMARKNA":"鹽水火車站(閒)","LANDMARKAD":"1001102","ADDRESS":"台南市鹽水區","TEL":" ","COUNTYNAME":"台南市","TOWNNAME":"鹽水區","MARKTYPE":"993","Class":"301"},"geometry":{"x":120.2628213459261,"y":23.322516283837786}},{"attributes":{"OBJECTID":10224,"LANDMARKID":"1001100000869","LANDMARKCO":"402","LANDMARKNA":"中華電信-鹽水服務中心","LANDMARKAD":"1001102","ADDRESS":"台南市鹽水區南門路132號","TEL":"(06)652-4403","COUNTYNAME":"台南市","TOWNNAME":"鹽水區","MARKTYPE":"994","Class":"4"},"geometry":{"x":120.26928005878683,"y":23.3129302735693}},{"attributes":{"OBJECTID":10225,"LANDMARKID":"1001100001305","LANDMARKCO":"503","LANDMARKNA":"岸內廠場綠色隧道","LANDMARKAD":"1001102","ADDRESS":"台南市鹽水區","TEL":" ","COUNTYNAME":"台南市","TOWNNAME":"鹽水區","MARKTYPE":"995","Class":"5"},"geometry":{"x":120.26098813946403,"y":23.326488953078428}},{"attributes":{"OBJECTID":10226,"LANDMARKID":"1001100001078","LANDMARKCO":"405","LANDMARKNA":"中油加油站-太子宮站","LANDMARKAD":"1001101","ADDRESS":"台南市新營區復興路779號","TEL":"06-6527638","COUNTYNAME":"台南市","TOWNNAME":"新營區","MARKTYPE":"994","Class":"4"},"geometry":{"x":120.28776697734791,"y":23.307997591027029}},{"attributes":{"OBJECTID":10227,"LANDMARKID":"1001100001079","LANDMARKCO":"405","LANDMARKNA":"統一速邁樂加油站-新營二站加油站(中油)","LANDMARKAD":"1001101","ADDRESS":"台南市新營區埤寮里長榮路二段66號","TEL":" ","COUNTYNAME":"台南市","TOWNNAME":"新營區","MARKTYPE":"994","Class":"4"},"geometry":{"x":120.31491626720768,"y":23.320174522802361}},{"attributes":{"OBJECTID":10228,"LANDMARKID":"1001100001080","LANDMARKCO":"405","LANDMARKNA":"中油加油站-新營長榮路站(中油直營)","LANDMARKAD":"1001101","ADDRESS":"台南市新營區長榮路二段186號","TEL":"06-6561513","COUNTYNAME":"台南市","TOWNNAME":"新營區","MARKTYPE":"994","Class":"4"},"geometry":{"x":120.30642871385044,"y":23.318833939109389}},{"attributes":{"OBJECTID":10229,"LANDMARKID":"1001100001081","LANDMARKCO":"405","LANDMARKNA":"中油加油站-大新營站","LANDMARKAD":"1001101","ADDRESS":"台南市新營區復興路299號","TEL":"06-6562288","COUNTYNAME":"台南市","TOWNNAME":"新營區","MARKTYPE":"994","Class":"4"},"geometry":{"x":120.30230297023422,"y":23.304130239328394}},{"attributes":{"OBJECTID":10230,"LANDMARKID":"1001100001082","LANDMARKCO":"405","LANDMARKNA":"中油加油站-新營站(中油直營)","LANDMARKAD":"1001101","ADDRESS":"台南市新營區開元路２０號","TEL":" ","COUNTYNAME":"台南市","TOWNNAME":"新營區","MARKTYPE":"994","Class":"4"},"geometry":{"x":120.32515214620507,"y":23.311078690307717}},{"attributes":{"OBJECTID":10231,"LANDMARKID":"1001100001083","LANDMARKCO":"405","LANDMARKNA":"中油加油站-三民路站(中油直營)","LANDMARKAD":"1001101","ADDRESS":"台南市新營區三民路61號","TEL":"06-6323343","COUNTYNAME":"台南市","TOWNNAME":"新營區","MARKTYPE":"994","Class":"4"},"geometry":{"x":120.31573332129619,"y":23.30685809704875}},{"attributes":{"OBJECTID":10232,"LANDMARKID":"1001100001084","LANDMARKCO":"405","LANDMARKNA":"台糖加油站-新進站(中油)","LANDMARKAD":"1001101","ADDRESS":"台南市新營區興安里新進路199號","TEL":" ","COUNTYNAME":"台南市","TOWNNAME":"新營區","MARKTYPE":"994","Class":"4"},"geometry":{"x":120.31706173820656,"y":23.301621813183246}},{"attributes":{"OBJECTID":10233,"LANDMARKID":"1001100001085","LANDMARKCO":"405","LANDMARKNA":"中油加油站-亞柏新營站","LANDMARKAD":"1001101","ADDRESS":"台南市新營區復興路770號","TEL":"06-6532601","COUNTYNAME":"台南市","TOWNNAME":"新營區","MARKTYPE":"994","Class":"4"},"geometry":{"x":120.28593658498163,"y":23.308981981992815}},{"attributes":{"OBJECTID":10234,"LANDMARKID":"1001100001086","LANDMARKCO":"405","LANDMARKNA":"中油加油站-正仁站","LANDMARKAD":"1001101","ADDRESS":"台南市新營區復興路984號","TEL":"06-6528964","COUNTYNAME":"台南市","TOWNNAME":"新營區","MARKTYPE":"994","Class":"4"},"geometry":{"x":120.28054040268015,"y":23.310122747444002}},{"attributes":{"OBJECTID":10235,"LANDMARKID":"1001100001087","LANDMARKCO":"405","LANDMARKNA":"中油加油站-新交加油站(中油直營)","LANDMARKAD":"1001101","ADDRESS":"台南市新營區復興路９８４號","TEL":" ","COUNTYNAME":"台南市","TOWNNAME":"新營區","MARKTYPE":"994","Class":"4"},"geometry":{"x":120.28054040268015,"y":23.310122747444002}},{"attributes":{"OBJECTID":10236,"LANDMARKID":"1001100000860","LANDMARKCO":"402","LANDMARKNA":"My Phone台灣大哥大-台南新營直營服務中心","LANDMARKAD":"1001101","ADDRESS":"台南市新營區民治路261號","TEL":" ","COUNTYNAME":"台南市","TOWNNAME":"新營區","MARKTYPE":"994","Class":"4"},"geometry":{"x":120.30328455117535,"y":23.305420069104922}},{"attributes":{"OBJECTID":10237,"LANDMARKID":"1001100000861","LANDMARKCO":"402","LANDMARKNA":"亞太行動寬頻電信-新營復興加盟服務中心","LANDMARKAD":"1001101","ADDRESS":"台南市新營區復興路280之2號","TEL":"06-6592511","COUNTYNAME":"台南市","TOWNNAME":"新營區","MARKTYPE":"994","Class":"4"},"geometry":{"x":120.30302371250592,"y":23.304180621657437}},{"attributes":{"OBJECTID":10238,"LANDMARKID":"1001100000862","LANDMARKCO":"402","LANDMARKNA":"亞太行動寬頻電信-新營三民加盟服務中心","LANDMARKAD":"1001101","ADDRESS":"台南市新營區三民路95號","TEL":"06-6330331","COUNTYNAME":"台南市","TOWNNAME":"新營區","MARKTYPE":"994","Class":"4"},"geometry":{"x":120.31287507436711,"y":23.306858459334226}},{"attributes":{"OBJECTID":10239,"LANDMARKID":"1001100000830","LANDMARKCO":"401","LANDMARKNA":"信一骨科醫院","LANDMARKAD":"1001101","ADDRESS":"台南市新營區民生路43之26號","TEL":"06-6350035","COUNTYNAME":"台南市","TOWNNAME":"新營區","MARKTYPE":"994","Class":"4"},"geometry":{"x":120.30764121893336,"y":23.30623186839162}},{"attributes":{"OBJECTID":10240,"LANDMARKID":"1001100000831","LANDMARKCO":"401","LANDMARKNA":"新興醫院","LANDMARKAD":"1001101","ADDRESS":"台南市新營區中興路10號","TEL":"06-6356031","COUNTYNAME":"台南市","TOWNNAME":"新營區","MARKTYPE":"994","Class":"4"},"geometry":{"x":120.31686277156957,"y":23.303672389546364}},{"attributes":{"OBJECTID":10241,"LANDMARKID":"1001100000832","LANDMARKCO":"401","LANDMARKNA":"營新醫院","LANDMARKAD":"1001101","ADDRESS":"台南市新營區隋唐街228號","TEL":"06-6592592","COUNTYNAME":"台南市","TOWNNAME":"新營區","MARKTYPE":"994","Class":"4"},"geometry":{"x":120.29977260012343,"y":23.308402426328701}},{"attributes":{"OBJECTID":10242,"LANDMARKID":"1001100000833","LANDMARKCO":"401","LANDMARKNA":"行政院衛生署新營醫院","LANDMARKAD":"1001101","ADDRESS":"台南市新營區信義街73號","TEL":"06-6351131","COUNTYNAME":"台南市","TOWNNAME":"新營區","MARKTYPE":"994","Class":"4"},"geometry":{"x":120.31349210734913,"y":23.309094248362893}},{"attributes":{"OBJECTID":10243,"LANDMARKID":"1001100001323","LANDMARKCO":"507","LANDMARKNA":"新營太子宮","LANDMARKAD":"1001101","ADDRESS":"台南市新營區太北里45之2號","TEL":"06-6526596","COUNTYNAME":"台南市","TOWNNAME":"新營區","MARKTYPE":"995","Class":"5"},"geometry":{"x":120.27310275765497,"y":23.295201114284442}},{"attributes":{"OBJECTID":10244,"LANDMARKID":"1001100001324","LANDMARKCO":"507","LANDMARKNA":"鐵線橋通濟宮","LANDMARKAD":"1001101","ADDRESS":"台南市新營區鐵線里鐵線橋40號","TEL":" ","COUNTYNAME":"台南市","TOWNNAME":"新營區","MARKTYPE":"995","Class":"5"},"geometry":{"x":120.27698827461049,"y":23.264583788570413}},{"attributes":{"OBJECTID":10245,"LANDMARKID":"1001100001144","LANDMARKCO":"406","LANDMARKNA":"縣立綜合運動場體育公園","LANDMARKAD":"1001101","ADDRESS":"台南市新營區","TEL":" ","COUNTYNAME":"台南市","TOWNNAME":"新營區","MARKTYPE":"994","Class":"4"},"geometry":{"x":120.31222472088163,"y":23.321676666980181}},{"attributes":{"OBJECTID":10246,"LANDMARKID":"1001100001191","LANDMARKCO":"408","LANDMARKNA":"郵局-新營中山路郵局","LANDMARKAD":"1001101","ADDRESS":"台南市新營區中山路126號","TEL":"(06)6323-613","COUNTYNAME":"台南市","TOWNNAME":"新營區","MARKTYPE":"994","Class":"4"},"geometry":{"x":120.31793334301248,"y":23.305108507872283}},{"attributes":{"OBJECTID":10247,"LANDMARKID":"1001100001192","LANDMARKCO":"408","LANDMARKNA":"郵局-新營新進路郵局","LANDMARKAD":"1001101","ADDRESS":"台南市新營區新進路316號","TEL":"(06)6324-501","COUNTYNAME":"台南市","TOWNNAME":"新營區","MARKTYPE":"994","Class":"4"},"geometry":{"x":120.31533641894285,"y":23.301449883951388}},{"attributes":{"OBJECTID":10248,"LANDMARKID":"1001100001193","LANDMARKCO":"408","LANDMARKNA":"郵局-新營民生郵局","LANDMARKAD":"1001101","ADDRESS":"台南市新營區三民路180-3號","TEL":"(06)6331-565","COUNTYNAME":"台南市","TOWNNAME":"新營區","MARKTYPE":"994","Class":"4"},"geometry":{"x":120.30828290453769,"y":23.305190163451385}},{"attributes":{"OBJECTID":10249,"LANDMARKID":"1001100001194","LANDMARKCO":"408","LANDMARKNA":"郵局-新營民治路郵局","LANDMARKAD":"1001101","ADDRESS":"台南市新營區民治路27-13號","TEL":"(06)6324-502","COUNTYNAME":"台南市","TOWNNAME":"新營區","MARKTYPE":"994","Class":"4"},"geometry":{"x":120.31764149885358,"y":23.310783315476151}},{"attributes":{"OBJECTID":10250,"LANDMARKID":"1001100001195","LANDMARKCO":"408","LANDMARKNA":"郵局-新營太子宮郵局","LANDMARKAD":"1001101","ADDRESS":"台南市新營區太北里9-5號","TEL":"(06)6526-215","COUNTYNAME":"台南市","TOWNNAME":"新營區","MARKTYPE":"994","Class":"4"},"geometry":{"x":120.27886708336921,"y":23.294800081320133}},{"attributes":{"OBJECTID":10251,"LANDMARKID":"1001100001286","LANDMARKCO":"409","LANDMARKNA":"台南市新營區農會","LANDMARKAD":"1001101","ADDRESS":"台南市新營區中山路123號","TEL":"06-6351611","COUNTYNAME":"台南市","TOWNNAME":"新營區","MARKTYPE":"994","Class":"4"},"geometry":{"x":120.31752387495514,"y":23.304585842743322}},{"attributes":{"OBJECTID":10252,"LANDMARKID":"1001100001287","LANDMARKCO":"409","LANDMARKNA":"新營區魚市場","LANDMARKAD":"1001101","ADDRESS":"台南市新營區復興路159號","TEL":"06-6562466　","COUNTYNAME":"台南市","TOWNNAME":"新營區","MARKTYPE":"994","Class":"4"},"geometry":{"x":120.30615867927503,"y":23.303040278474096}},{"attributes":{"OBJECTID":10253,"LANDMARKID":"1001100001288","LANDMARKCO":"409","LANDMARKNA":"台南市農會","LANDMARKAD":"1001101","ADDRESS":"台南市新營區民治路36號","TEL":"06-6324151","COUNTYNAME":"台南市","TOWNNAME":"新營區","MARKTYPE":"994","Class":"4"},"geometry":{"x":120.31475195869781,"y":23.311567319124837}},{"attributes":{"OBJECTID":10254,"LANDMARKID":"1001100001142","LANDMARKCO":"406","LANDMARKNA":"中山公園","LANDMARKAD":"1001101","ADDRESS":"台南市新營區","TEL":" ","COUNTYNAME":"台南市","TOWNNAME":"新營區","MARKTYPE":"994","Class":"4"},"geometry":{"x":120.3134965042066,"y":23.308781482419093}},{"attributes":{"OBJECTID":10255,"LANDMARKID":"1001100001143","LANDMARKCO":"406","LANDMARKNA":"新營公園","LANDMARKAD":"1001101","ADDRESS":"台南市新營區","TEL":" ","COUNTYNAME":"台南市","TOWNNAME":"新營區","MARKTYPE":"994","Class":"4"},"geometry":{"x":120.31499740233122,"y":23.309508124655054}},{"attributes":{"OBJECTID":10256,"LANDMARKID":"1001100000906","LANDMARKCO":"403","LANDMARKNA":"台灣電力公司新營區營業處","LANDMARKAD":"1001101","ADDRESS":"台南市新營區中正路200號","TEL":" ","COUNTYNAME":"台南市","TOWNNAME":"新營區","MARKTYPE":"994","Class":"4"},"geometry":{"x":120.31650613263402,"y":23.318642117168462}},{"attributes":{"OBJECTID":10257,"LANDMARKID":"1001100000907","LANDMARKCO":"404","LANDMARKNA":"台灣省自來水新營營運所","LANDMARKAD":"1001101","ADDRESS":"台南市新營區三民路70號","TEL":" ","COUNTYNAME":"台南市","TOWNNAME":"新營區","MARKTYPE":"994","Class":"4"},"geometry":{"x":120.31734292824595,"y":23.307517487461073}},{"attributes":{"OBJECTID":10258,"LANDMARKID":"1001100001182","LANDMARKCO":"407","LANDMARKNA":"三商百貨","LANDMARKAD":"1001101","ADDRESS":"台南市新營區中山路113號","TEL":"06-6358963","COUNTYNAME":"台南市","TOWNNAME":"新營區","MARKTYPE":"994","Class":"4"},"geometry":{"x":120.31868822997967,"y":23.305078861372049}},{"attributes":{"OBJECTID":10259,"LANDMARKID":"1001100001088","LANDMARKCO":"405","LANDMARKNA":"福懋加油站-新工站(台塑)","LANDMARKAD":"1001101","ADDRESS":"台南市新營區復興路1077號","TEL":"06-6530997","COUNTYNAME":"台南市","TOWNNAME":"新營區","MARKTYPE":"994","Class":"4"},"geometry":{"x":120.28175298272835,"y":23.309642533136476}},{"attributes":{"OBJECTID":10260,"LANDMARKID":"1001100001089","LANDMARKCO":"405","LANDMARKNA":"福懋加油站-新營站(台塑)","LANDMARKAD":"1001101","ADDRESS":"台南市新營區開元路142號","TEL":"06-6374698","COUNTYNAME":"台南市","TOWNNAME":"新營區","MARKTYPE":"994","Class":"4"},"geometry":{"x":120.33338507883369,"y":23.317660328470211}},{"attributes":{"OBJECTID":10261,"LANDMARKID":"1001100001090","LANDMARKCO":"405","LANDMARKNA":"全國加油站-新營（台塑）","LANDMARKAD":"1001101","ADDRESS":"台南市新營區開元路231號","TEL":"06-6362466","COUNTYNAME":"台南市","TOWNNAME":"新營區","MARKTYPE":"994","Class":"4"},"geometry":{"x":120.33294330890143,"y":23.318000267629984}},{"attributes":{"OBJECTID":10262,"LANDMARKID":"1001100001091","LANDMARKCO":"405","LANDMARKNA":"台大加油站-新營站","LANDMARKAD":"1001101","ADDRESS":"台南市新營區長榮路二段1100號","TEL":"06-6565003","COUNTYNAME":"台南市","TOWNNAME":"新營區","MARKTYPE":"994","Class":"4"},"geometry":{"x":120.29368730403182,"y":23.307969104484549}},{"attributes":{"OBJECTID":10263,"LANDMARKID":"1001100001092","LANDMARKCO":"405","LANDMARKNA":"台大加油站-辦事處","LANDMARKAD":"1001101","ADDRESS":"台南市新營區中正路55號11樓之2","TEL":"06-6373861","COUNTYNAME":"台南市","TOWNNAME":"新營區","MARKTYPE":"994","Class":"4"},"geometry":{"x":120.31619613743428,"y":23.316600175367764}},{"attributes":{"OBJECTID":10264,"LANDMARKID":"1001100001093","LANDMARKCO":"405","LANDMARKNA":"台大加油站-新營加盟站","LANDMARKAD":"1001101","ADDRESS":"台南市新營區長榮路2段1098號","TEL":"06-6565000","COUNTYNAME":"台南市","TOWNNAME":"新營區","MARKTYPE":"994","Class":"4"},"geometry":{"x":120.29390556186497,"y":23.308290195235298}},{"attributes":{"OBJECTID":10265,"LANDMARKID":"1001100001094","LANDMARKCO":"405","LANDMARKNA":"台亞加油站-新營交流道站（台塑）","LANDMARKAD":"1001101","ADDRESS":"台南市新營區復興路692號","TEL":"(06)656-6882","COUNTYNAME":"台南市","TOWNNAME":"新營區","MARKTYPE":"994","Class":"4"},"geometry":{"x":120.29402393618857,"y":23.306690671541915}},{"attributes":{"OBJECTID":10266,"LANDMARKID":"1001100000088","LANDMARKCO":"103","LANDMARKNA":"台南市新營區市民代表會","LANDMARKAD":"1001101","ADDRESS":"台南市新營區中正路32號","TEL":"06-6323210","COUNTYNAME":"台南市","TOWNNAME":"新營區","MARKTYPE":"991","Class":"1"},"geometry":{"x":120.31652722170797,"y":23.310589566660095}},{"attributes":{"OBJECTID":10267,"LANDMARKID":"1001100000230","LANDMARKCO":"107","LANDMARKNA":"台南市警察局鐵線派出所","LANDMARKAD":"1001101","ADDRESS":"台南市新營區鐵線里鐵線橋102號","TEL":"06-6581584","COUNTYNAME":"台南市","TOWNNAME":"新營區","MARKTYPE":"991","Class":"1"},"geometry":{"x":120.27647342940487,"y":23.267886937630315}},{"attributes":{"OBJECTID":10268,"LANDMARKID":"1001100000231","LANDMARKCO":"107","LANDMARKNA":"台南市警察局太宮派出所","LANDMARKAD":"1001101","ADDRESS":"台南市新營區太南里太子宮201號","TEL":"06-6524753","COUNTYNAME":"台南市","TOWNNAME":"新營區","MARKTYPE":"991","Class":"1"},"geometry":{"x":120.27742964161055,"y":23.293591308294609}},{"attributes":{"OBJECTID":10269,"LANDMARKID":"1001100000003","LANDMARKCO":"101","LANDMARKNA":"工業局新營工業區服務中心","LANDMARKAD":"1001101","ADDRESS":"台南市新營區新工路28號","TEL":"06-6526838","COUNTYNAME":"台南市","TOWNNAME":"新營區","MARKTYPE":"991","Class":"1"},"geometry":{"x":120.28141718243489,"y":23.303294036653082}},{"attributes":{"OBJECTID":10270,"LANDMARKID":"1001100000227","LANDMARKCO":"107","LANDMARKNA":"台南市消防局新營消防分隊","LANDMARKAD":"1001101","ADDRESS":"台南市新營區中華路2號","TEL":"06-6376652","COUNTYNAME":"台南市","TOWNNAME":"新營區","MARKTYPE":"991","Class":"1"},"geometry":{"x":120.31524734146568,"y":23.305255974578351}},{"attributes":{"OBJECTID":10271,"LANDMARKID":"1001100000228","LANDMARKCO":"107","LANDMARKNA":"台南市消防局","LANDMARKAD":"1001101","ADDRESS":"台南市新營區三興街380號","TEL":"06-6569119","COUNTYNAME":"台南市","TOWNNAME":"新營區","MARKTYPE":"991","Class":"1"},"geometry":{"x":120.30951743716456,"y":23.322715267215077}},{"attributes":{"OBJECTID":10272,"LANDMARKID":"1001100000229","LANDMARKCO":"107","LANDMARKNA":"台南市消防局第一消防大隊","LANDMARKAD":"1001101","ADDRESS":"台南市新營區中華路2號3樓","TEL":"06-6376792","COUNTYNAME":"台南市","TOWNNAME":"新營區","MARKTYPE":"991","Class":"1"},"geometry":{"x":120.31524734146568,"y":23.305255974578351}},{"attributes":{"OBJECTID":10273,"LANDMARKID":"1001100000078","LANDMARKCO":"103","LANDMARKNA":"台南市環境保護局","LANDMARKAD":"1001101","ADDRESS":"台南市新營區長榮路二段78號","TEL":"06-6572916","COUNTYNAME":"台南市","TOWNNAME":"新營區","MARKTYPE":"991","Class":"1"},"geometry":{"x":120.31427320435502,"y":23.320771782022593}},{"attributes":{"OBJECTID":10274,"LANDMARKID":"1001100000224","LANDMARKCO":"107","LANDMARKNA":"台南市警察局後鎮派出所","LANDMARKAD":"1001101","ADDRESS":"台南市新營區埤寮里建國路110號","TEL":"06-6328752","COUNTYNAME":"台南市","TOWNNAME":"新營區","MARKTYPE":"991","Class":"1"},"geometry":{"x":120.31274994348709,"y":23.330567330756498}},{"attributes":{"OBJECTID":10275,"LANDMARKID":"1001100000225","LANDMARKCO":"107","LANDMARKNA":"台南市警察局民治派出所","LANDMARKAD":"1001101","ADDRESS":"台南市新營區民權里民治路49號","TEL":"06-6322164","COUNTYNAME":"台南市","TOWNNAME":"新營區","MARKTYPE":"991","Class":"1"},"geometry":{"x":120.31316913447709,"y":23.310449133288525}},{"attributes":{"OBJECTID":10276,"LANDMARKID":"1001100000104","LANDMARKCO":"105","LANDMARKNA":"台南市政府地政處","LANDMARKAD":"1001101","ADDRESS":"台南市新營區民治路36號","TEL":"06-6322231","COUNTYNAME":"台南市","TOWNNAME":"新營區","MARKTYPE":"991","Class":"1"},"geometry":{"x":120.3147476921764,"y":23.311563851039445}},{"attributes":{"OBJECTID":10277,"LANDMARKID":"1001100000084","LANDMARKCO":"103","LANDMARKNA":"台南市政府","LANDMARKAD":"1001101","ADDRESS":"台南市新營區民治路36號","TEL":"06-6322231","COUNTYNAME":"台南市","TOWNNAME":"新營區","MARKTYPE":"991","Class":"1"},"geometry":{"x":120.3147476921764,"y":23.311563851039445}},{"attributes":{"OBJECTID":10278,"LANDMARKID":"1001100000085","LANDMARKCO":"103","LANDMARKNA":"台南市政府民政處","LANDMARKAD":"1001101","ADDRESS":"台南市新營區民治路36號","TEL":"06-6322231","COUNTYNAME":"台南市","TOWNNAME":"新營區","MARKTYPE":"991","Class":"1"},"geometry":{"x":120.3147476921764,"y":23.311563851039445}},{"attributes":{"OBJECTID":10279,"LANDMARKID":"1001100000086","LANDMARKCO":"103","LANDMARKNA":"台南市議會","LANDMARKAD":"1001101","ADDRESS":"台南市新營區民治路38號","TEL":"06-6322300","COUNTYNAME":"台南市","TOWNNAME":"新營區","MARKTYPE":"991","Class":"1"},"geometry":{"x":120.31564630055753,"y":23.311017765170828}},{"attributes":{"OBJECTID":10280,"LANDMARKID":"1001100000087","LANDMARKCO":"103","LANDMARKNA":"台南市政府文化處","LANDMARKAD":"1001101","ADDRESS":"台南市新營區民治路36號","TEL":"06-6321047#1111","COUNTYNAME":"台南市","TOWNNAME":"新營區","MARKTYPE":"991","Class":"1"},"geometry":{"x":120.3147476921764,"y":23.311563851039445}},{"attributes":{"OBJECTID":10281,"LANDMARKID":"1001100000097","LANDMARKCO":"104","LANDMARKNA":"南區國稅局台南市分局","LANDMARKAD":"1001101","ADDRESS":"台南市新營區中正路15號","TEL":"06-6573111","COUNTYNAME":"台南市","TOWNNAME":"新營區","MARKTYPE":"991","Class":"1"},"geometry":{"x":120.31585809659414,"y":23.30787863194492}},{"attributes":{"OBJECTID":10282,"LANDMARKID":"1001100000226","LANDMARKCO":"107","LANDMARKNA":"台南市警察局總局","LANDMARKAD":"1001101","ADDRESS":"台南市新營區民權里中正路3號","TEL":"06-6333211","COUNTYNAME":"台南市","TOWNNAME":"新營區","MARKTYPE":"991","Class":"1"},"geometry":{"x":120.31613676003322,"y":23.3053699323697}},{"attributes":{"OBJECTID":10283,"LANDMARKID":"1001100000004","LANDMARKCO":"101","LANDMARKNA":"國軍退除役官兵輔導委員會","LANDMARKAD":"1001101","ADDRESS":"台南市新營區中正路31巷7號","TEL":"06-6321480","COUNTYNAME":"台南市","TOWNNAME":"新營區","MARKTYPE":"991","Class":"1"},"geometry":{"x":120.31609445687199,"y":23.312209710240435}},{"attributes":{"OBJECTID":10284,"LANDMARKID":"1001100000077","LANDMARKCO":"103","LANDMARKNA":"台南市政府衛生局","LANDMARKAD":"1001101","ADDRESS":"台南市新營區東興路163號","TEL":"06-6357716","COUNTYNAME":"台南市","TOWNNAME":"新營區","MARKTYPE":"991","Class":"1"},"geometry":{"x":120.32285230254807,"y":23.31541275888727}},{"attributes":{"OBJECTID":10285,"LANDMARKID":"1001100000319","LANDMARKCO":"108","LANDMARKNA":"台南市新營巿公所","LANDMARKAD":"1001101","ADDRESS":"台南市新營區中正路30號","TEL":"06-6322015","COUNTYNAME":"台南市","TOWNNAME":"新營區","MARKTYPE":"991","Class":"1"},"geometry":{"x":120.31656996241539,"y":23.31029176417929}},{"attributes":{"OBJECTID":10286,"LANDMARKID":"1001100000123","LANDMARKCO":"106","LANDMARKNA":"台南市新營區戶政事務所","LANDMARKAD":"1001101","ADDRESS":"台南市新營區民治路36號1樓","TEL":"06-6323470","COUNTYNAME":"台南市","TOWNNAME":"新營區","MARKTYPE":"991","Class":"1"},"geometry":{"x":120.3147476921764,"y":23.311563851039445}},{"attributes":{"OBJECTID":10287,"LANDMARKID":"1001100000222","LANDMARKCO":"107","LANDMARKNA":"台南市警察局新營分局","LANDMARKAD":"1001101","ADDRESS":"台南市新營區興業里中山路119號","TEL":"06-6323297","COUNTYNAME":"台南市","TOWNNAME":"新營區","MARKTYPE":"991","Class":"1"},"geometry":{"x":120.31767027396339,"y":23.304674487562824}},{"attributes":{"OBJECTID":10288,"LANDMARKID":"1001100000223","LANDMARKCO":"107","LANDMARKNA":"台南市警察局中山路派出所","LANDMARKAD":"1001101","ADDRESS":"台南市新營區中營里中山路119號","TEL":"06-6322306","COUNTYNAME":"台南市","TOWNNAME":"新營區","MARKTYPE":"991","Class":"1"},"geometry":{"x":120.31767027396339,"y":23.304674487562824}},{"attributes":{"OBJECTID":10289,"LANDMARKID":"1001100000005","LANDMARKCO":"101","LANDMARKNA":"調查局台南市調查站","LANDMARKAD":"1001101","ADDRESS":"台南市新營區大同路59號","TEL":"06-6351003","COUNTYNAME":"台南市","TOWNNAME":"新營區","MARKTYPE":"991","Class":"1"},"geometry":{"x":120.32225366526235,"y":23.31237017789941}},{"attributes":{"OBJECTID":10290,"LANDMARKID":"1001100000006","LANDMARKCO":"101","LANDMARKNA":"嘉義區監理所新營監理站","LANDMARKAD":"1001101","ADDRESS":"台南市新營區大同路55號","TEL":"06-6352845","COUNTYNAME":"台南市","TOWNNAME":"新營區","MARKTYPE":"991","Class":"1"},"geometry":{"x":120.32227729531748,"y":23.31164029499315}},{"attributes":{"OBJECTID":10291,"LANDMARKID":"1001100000007","LANDMARKCO":"101","LANDMARKNA":"職業訓練局新營就業服務站","LANDMARKAD":"1001101","ADDRESS":"台南市新營區中正路102之3號","TEL":"06-6328700","COUNTYNAME":"台南市","TOWNNAME":"新營區","MARKTYPE":"991","Class":"1"},"geometry":{"x":120.31662282493201,"y":23.315281976100241}},{"attributes":{"OBJECTID":10292,"LANDMARKID":"1001100000008","LANDMARKCO":"101","LANDMARKNA":"新營憲兵隊","LANDMARKAD":"1001101","ADDRESS":"台南市新營區碑寮里59之8號","TEL":"06-6328585","COUNTYNAME":"台南市","TOWNNAME":"新營區","MARKTYPE":"991","Class":"1"},"geometry":{"x":120.31836268708933,"y":23.329195055746759}},{"attributes":{"OBJECTID":10293,"LANDMARKID":"1001100000641","LANDMARKCO":"204","LANDMARKNA":"台南市立圖書館新營分館","LANDMARKAD":"1001101","ADDRESS":"台南市新營區中正路30號","TEL":" ","COUNTYNAME":"台南市","TOWNNAME":"新營區","MARKTYPE":"992","Class":"2"},"geometry":{"x":120.31656821986881,"y":23.310413488261016}},{"attributes":{"OBJECTID":10294,"LANDMARKID":"1001100000366","LANDMARKCO":"202","LANDMARKNA":"國立新營高中","LANDMARKAD":"1001101","ADDRESS":"台南市新營區民權路101號","TEL":"06-6562274","COUNTYNAME":"台南市","TOWNNAME":"新營區","MARKTYPE":"992","Class":"2"},"geometry":{"x":120.31204652713447,"y":23.308174232002408}},{"attributes":{"OBJECTID":10295,"LANDMARKID":"1001100000367","LANDMARKCO":"202","LANDMARKNA":"私立育德工家","LANDMARKAD":"1001101","ADDRESS":"台南市新營區健康路211號","TEL":"06-6563275","COUNTYNAME":"台南市","TOWNNAME":"新營區","MARKTYPE":"992","Class":"2"},"geometry":{"x":120.31190779180352,"y":23.316263554477054}},{"attributes":{"OBJECTID":10296,"LANDMARKID":"1001100000368","LANDMARKCO":"202","LANDMARKNA":"私立南光高中","LANDMARKAD":"1001101","ADDRESS":"台南市新營區中興路62號","TEL":"06-6335408","COUNTYNAME":"台南市","TOWNNAME":"新營區","MARKTYPE":"992","Class":"2"},"geometry":{"x":120.31523420437948,"y":23.298365979752568}},{"attributes":{"OBJECTID":10297,"LANDMARKID":"1001100000369","LANDMARKCO":"202","LANDMARKNA":"國立新營高工","LANDMARKAD":"1001101","ADDRESS":"台南市新營區中正路68號","TEL":"06-6322377","COUNTYNAME":"台南市","TOWNNAME":"新營區","MARKTYPE":"992","Class":"2"},"geometry":{"x":120.31680850010224,"y":23.313370677388495}},{"attributes":{"OBJECTID":10298,"LANDMARKID":"1001100000370","LANDMARKCO":"202","LANDMARKNA":"私立興國高中","LANDMARKAD":"1001101","ADDRESS":"台南市新營區民治路4巷23號","TEL":"06-6326255","COUNTYNAME":"台南市","TOWNNAME":"新營區","MARKTYPE":"992","Class":"2"},"geometry":{"x":120.32239199676928,"y":23.312680745861243}},{"attributes":{"OBJECTID":10299,"LANDMARKID":"1001100000371","LANDMARKCO":"202","LANDMARKNA":"私立興國高中附設國中部","LANDMARKAD":"1001101","ADDRESS":"台南市新營區民治路4巷23號","TEL":"06-6326255","COUNTYNAME":"台南市","TOWNNAME":"新營區","MARKTYPE":"992","Class":"2"},"geometry":{"x":120.32239199676928,"y":23.312680745861243}},{"attributes":{"OBJECTID":10300,"LANDMARKID":"1001100000372","LANDMARKCO":"202","LANDMARKNA":"私立南光高中附設國中部","LANDMARKAD":"1001101","ADDRESS":"台南市新營區中興路62號","TEL":"06-6335408","COUNTYNAME":"台南市","TOWNNAME":"新營區","MARKTYPE":"992","Class":"2"},"geometry":{"x":120.31523420437948,"y":23.298365979752568}},{"attributes":{"OBJECTID":10301,"LANDMARKID":"1001100000487","LANDMARKCO":"203","LANDMARKNA":"縣立南新國中","LANDMARKAD":"1001101","ADDRESS":"台南市新營區民治路65號","TEL":"06-6363129","COUNTYNAME":"台南市","TOWNNAME":"新營區","MARKTYPE":"992","Class":"2"},"geometry":{"x":120.3087138762649,"y":23.309521713469838}},{"attributes":{"OBJECTID":10302,"LANDMARKID":"1001100000488","LANDMARKCO":"203","LANDMARKNA":"縣立新東國中","LANDMARKAD":"1001101","ADDRESS":"台南市新營區民治東路30號","TEL":"06-6322954","COUNTYNAME":"台南市","TOWNNAME":"新營區","MARKTYPE":"992","Class":"2"},"geometry":{"x":120.32388860705069,"y":23.311397303321332}},{"attributes":{"OBJECTID":10303,"LANDMARKID":"1001100000489","LANDMARKCO":"203","LANDMARKNA":"縣立新民國小","LANDMARKAD":"1001101","ADDRESS":"台南市新營區公園路一段136號","TEL":"06-6562152","COUNTYNAME":"台南市","TOWNNAME":"新營區","MARKTYPE":"992","Class":"2"},"geometry":{"x":120.3062160674414,"y":23.305453007450417}},{"attributes":{"OBJECTID":10304,"LANDMARKID":"1001100000490","LANDMARKCO":"203","LANDMARKNA":"縣立新進國小","LANDMARKAD":"1001101","ADDRESS":"台南市新營區中正路41號","TEL":"06-6322378","COUNTYNAME":"台南市","TOWNNAME":"新營區","MARKTYPE":"992","Class":"2"},"geometry":{"x":120.31636295215496,"y":23.31527085934}},{"attributes":{"OBJECTID":10305,"LANDMARKID":"1001100000491","LANDMARKCO":"203","LANDMARKNA":"縣立新營國小","LANDMARKAD":"1001101","ADDRESS":"台南市新營區中正路4號","TEL":"06-6322017","COUNTYNAME":"台南市","TOWNNAME":"新營區","MARKTYPE":"992","Class":"2"},"geometry":{"x":120.31639494144788,"y":23.306551007991544}},{"attributes":{"OBJECTID":10306,"LANDMARKID":"1001100000492","LANDMARKCO":"203","LANDMARKNA":"縣立公誠國小","LANDMARKAD":"1001101","ADDRESS":"台南市新營區公誠街5號","TEL":"06-6323071","COUNTYNAME":"台南市","TOWNNAME":"新營區","MARKTYPE":"992","Class":"2"},"geometry":{"x":120.31888444828733,"y":23.303869713672533}},{"attributes":{"OBJECTID":10307,"LANDMARKID":"1001100000493","LANDMARKCO":"203","LANDMARKNA":"縣立新泰國小","LANDMARKAD":"1001101","ADDRESS":"台南市新營區東學路77號","TEL":"06-6330496","COUNTYNAME":"台南市","TOWNNAME":"新營區","MARKTYPE":"992","Class":"2"},"geometry":{"x":120.3261814565154,"y":23.315585146739032}},{"attributes":{"OBJECTID":10308,"LANDMARKID":"1001100000494","LANDMARKCO":"203","LANDMARKNA":"縣立太子國中","LANDMARKAD":"1001101","ADDRESS":"台南市新營區太北里140-21號","TEL":"06-6524762","COUNTYNAME":"台南市","TOWNNAME":"新營區","MARKTYPE":"992","Class":"2"},"geometry":{"x":120.27084313490681,"y":23.291506265777645}},{"attributes":{"OBJECTID":10309,"LANDMARKID":"1001100000495","LANDMARKCO":"203","LANDMARKNA":"縣立新生國小","LANDMARKAD":"1001101","ADDRESS":"台南市新營區姑爺里52號","TEL":"06-6552524","COUNTYNAME":"台南市","TOWNNAME":"新營區","MARKTYPE":"992","Class":"2"},"geometry":{"x":120.25836265782031,"y":23.275458426163432}},{"attributes":{"OBJECTID":10310,"LANDMARKID":"1001100000496","LANDMARKCO":"203","LANDMARKNA":"縣立新興國小","LANDMARKAD":"1001101","ADDRESS":"台南市新營區太南里316號","TEL":"06-6523779#12","COUNTYNAME":"台南市","TOWNNAME":"新營區","MARKTYPE":"992","Class":"2"},"geometry":{"x":120.27639992391539,"y":23.287016956004347}},{"attributes":{"OBJECTID":10311,"LANDMARKID":"1001100000497","LANDMARKCO":"203","LANDMARKNA":"縣立新橋國小","LANDMARKAD":"1001101","ADDRESS":"台南市新營區鐵線里1號","TEL":"06-6581343","COUNTYNAME":"台南市","TOWNNAME":"新營區","MARKTYPE":"992","Class":"2"},"geometry":{"x":120.27771946262749,"y":23.268246887430976}},{"attributes":{"OBJECTID":10312,"LANDMARKID":"1001100000498","LANDMARKCO":"203","LANDMARKNA":"縣立南梓國小","LANDMARKAD":"1001101","ADDRESS":"台南市新營區南紙里165號","TEL":"06-6562904","COUNTYNAME":"台南市","TOWNNAME":"新營區","MARKTYPE":"992","Class":"2"},"geometry":{"x":120.29862418572075,"y":23.297682712647994}},{"attributes":{"OBJECTID":10313,"LANDMARKID":"1001100000499","LANDMARKCO":"203","LANDMARKNA":"縣立土庫國小","LANDMARKAD":"1001101","ADDRESS":"台南市新營區土庫里71之1號","TEL":"06-6362323","COUNTYNAME":"台南市","TOWNNAME":"新營區","MARKTYPE":"992","Class":"2"},"geometry":{"x":120.34519949477418,"y":23.319552907449712}},{"attributes":{"OBJECTID":10314,"LANDMARKID":"1001100000784","LANDMARKCO":"308","LANDMARKNA":"國1-新營交流道-南下","LANDMARKAD":"1001101","ADDRESS":"台南市新營區","TEL":" ","COUNTYNAME":"台南市","TOWNNAME":"新營區","MARKTYPE":"993","Class":"308"},"geometry":{"x":120.28891561792588,"y":23.305150133668015}},{"attributes":{"OBJECTID":10315,"LANDMARKID":"1001100000785","LANDMARKCO":"308","LANDMARKNA":"國1-新營交流道-北上","LANDMARKAD":"1001101","ADDRESS":"台南市新營區","TEL":" ","COUNTYNAME":"台南市","TOWNNAME":"新營區","MARKTYPE":"993","Class":"308"},"geometry":{"x":120.29332521834456,"y":23.310729015322273}},{"attributes":{"OBJECTID":10316,"LANDMARKID":"1001100000683","LANDMARKCO":"302","LANDMARKNA":"統聯汽車客運新營站","LANDMARKAD":"1001101","ADDRESS":"台南市新營區復興路642號","TEL":" ","COUNTYNAME":"台南市","TOWNNAME":"新營區","MARKTYPE":"993","Class":"302"},"geometry":{"x":120.29555801621191,"y":23.306239733630644}},{"attributes":{"OBJECTID":10317,"LANDMARKID":"1001100000684","LANDMARKCO":"302","LANDMARKNA":"新營汽車客運新營總站","LANDMARKAD":"1001101","ADDRESS":"台南市新營區三民路2號","TEL":" ","COUNTYNAME":"台南市","TOWNNAME":"新營區","MARKTYPE":"993","Class":"302"},"geometry":{"x":120.32278475744893,"y":23.307490203830611}},{"attributes":{"OBJECTID":10318,"LANDMARKID":"1001100000733","LANDMARKCO":"303","LANDMARKNA":"停六立體停車場","LANDMARKAD":"1001101","ADDRESS":"台南市新營區","TEL":" ","COUNTYNAME":"台南市","TOWNNAME":"新營區","MARKTYPE":"993","Class":"303"},"geometry":{"x":120.32265326800822,"y":23.306499128975048}},{"attributes":{"OBJECTID":10319,"LANDMARKID":"1001100000679","LANDMARKCO":"301","LANDMARKNA":"新營火車站","LANDMARKAD":"1001101","ADDRESS":"台南市新營區","TEL":" ","COUNTYNAME":"台南市","TOWNNAME":"新營區","MARKTYPE":"993","Class":"301"},"geometry":{"x":120.3232470265808,"y":23.306720583568971}},{"attributes":{"OBJECTID":10320,"LANDMARKID":"1001100000863","LANDMARKCO":"402","LANDMARKNA":"中華電信-新營三民特約服務中心","LANDMARKAD":"1001101","ADDRESS":"台南市新營區三民路91-2號","TEL":"06-6324588","COUNTYNAME":"台南市","TOWNNAME":"新營區","MARKTYPE":"994","Class":"4"},"geometry":{"x":120.31308996297926,"y":23.306878436091367}},{"attributes":{"OBJECTID":10321,"LANDMARKID":"1001100000864","LANDMARKCO":"402","LANDMARKNA":"中華電信-新營中山特約服務中心","LANDMARKAD":"1001101","ADDRESS":"台南市新營區中山路236號","TEL":"06-6320008","COUNTYNAME":"台南市","TOWNNAME":"新營區","MARKTYPE":"994","Class":"4"},"geometry":{"x":120.31482371661845,"y":23.303260403050682}},{"attributes":{"OBJECTID":10322,"LANDMARKID":"1001100000865","LANDMARKCO":"402","LANDMARKNA":"中華電信-新營服務中心","LANDMARKAD":"1001101","ADDRESS":"台南市新營區民治路105號","TEL":"(06)644-0045","COUNTYNAME":"台南市","TOWNNAME":"新營區","MARKTYPE":"994","Class":"4"},"geometry":{"x":120.30587986164907,"y":23.308708608549008}},{"attributes":{"OBJECTID":10323,"LANDMARKID":"1001100000866","LANDMARKCO":"402","LANDMARKNA":"遠傳電信-新營中山門市","LANDMARKAD":"1001101","ADDRESS":"台南市新營區中山路183號","TEL":" ","COUNTYNAME":"台南市","TOWNNAME":"新營區","MARKTYPE":"994","Class":"4"},"geometry":{"x":120.31534063204707,"y":23.303382310464965}},{"attributes":{"OBJECTID":10324,"LANDMARKID":"1001100000867","LANDMARKCO":"402","LANDMARKNA":"威寶電信-新營中山特約服務中心","LANDMARKAD":"1001101","ADDRESS":"台南市新營區中山路185號","TEL":"06-6329155","COUNTYNAME":"台南市","TOWNNAME":"新營區","MARKTYPE":"994","Class":"4"},"geometry":{"x":120.3152821623669,"y":23.303363739712147}},{"attributes":{"OBJECTID":10325,"LANDMARKID":"1001100000868","LANDMARKCO":"402","LANDMARKNA":"威寶電信-新營三民特約服務中心","LANDMARKAD":"1001101","ADDRESS":"台南市新營區三民路101之17號","TEL":"06-6359110","COUNTYNAME":"台南市","TOWNNAME":"新營區","MARKTYPE":"994","Class":"4"},"geometry":{"x":120.31168489750733,"y":23.306604237240204}},{"attributes":{"OBJECTID":10326,"LANDMARKID":"1001100001386","LANDMARKCO":"603","LANDMARKNA":"君館商務大旅店","LANDMARKAD":"1001101","ADDRESS":"台南市新營區民權路25-3號","TEL":"06-6358889","COUNTYNAME":"台南市","TOWNNAME":"新營區","MARKTYPE":"996","Class":"6"},"geometry":{"x":120.3128657464451,"y":23.304474515839601}},{"attributes":{"OBJECTID":10327,"LANDMARKID":"1001100001387","LANDMARKCO":"603","LANDMARKNA":"禾楓水舍汽車旅館 (禾楓新營館)","LANDMARKAD":"1001101","ADDRESS":"台南市新營區長榮路2段1125號","TEL":"06-6572222","COUNTYNAME":"台南市","TOWNNAME":"新營區","MARKTYPE":"996","Class":"6"},"geometry":{"x":120.2949180741165,"y":23.308895166364465}},{"attributes":{"OBJECTID":10328,"LANDMARKID":"1001100001388","LANDMARKCO":"603","LANDMARKNA":"歐悅精品汽車旅館-新營館","LANDMARKAD":"1001101","ADDRESS":"台南市新營區復興路1062號","TEL":"06-6531122","COUNTYNAME":"台南市","TOWNNAME":"新營區","MARKTYPE":"996","Class":"6"},"geometry":{"x":120.27814385881008,"y":23.310443799759831}},{"attributes":{"OBJECTID":10329,"LANDMARKID":"1001100001389","LANDMARKCO":"603","LANDMARKNA":"溫莎堡汽車旅館","LANDMARKAD":"1001101","ADDRESS":"台南市新營區復興路693巷40號","TEL":"06-6560828","COUNTYNAME":"台南市","TOWNNAME":"新營區","MARKTYPE":"996","Class":"6"},"geometry":{"x":120.29474207801954,"y":23.305191363116901}},{"attributes":{"OBJECTID":10330,"LANDMARKID":"1001100001390","LANDMARKCO":"603","LANDMARKNA":"丹尼爾汽車旅館","LANDMARKAD":"1001101","ADDRESS":"台南市新營區隋唐街405號","TEL":"06-6591616","COUNTYNAME":"台南市","TOWNNAME":"新營區","MARKTYPE":"996","Class":"6"},"geometry":{"x":120.29472367875856,"y":23.308324585872107}},{"attributes":{"OBJECTID":10331,"LANDMARKID":"1001100001391","LANDMARKCO":"603","LANDMARKNA":"新安旅社","LANDMARKAD":"1001101","ADDRESS":"台南市新營區新進路9號","TEL":"06-6322131","COUNTYNAME":"台南市","TOWNNAME":"新營區","MARKTYPE":"996","Class":"6"},"geometry":{"x":120.32237426245247,"y":23.306269673315402}},{"attributes":{"OBJECTID":10332,"LANDMARKID":"1001100001392","LANDMARKCO":"603","LANDMARKNA":"欣園汽車旅館","LANDMARKAD":"1001101","ADDRESS":"台南市新營區嘉芳街15號","TEL":"06-6525054","COUNTYNAME":"台南市","TOWNNAME":"新營區","MARKTYPE":"996","Class":"6"},"geometry":{"x":120.28556528250105,"y":23.308084356483651}},{"attributes":{"OBJECTID":10333,"LANDMARKID":"1001100001393","LANDMARKCO":"603","LANDMARKNA":"圓環大旅社","LANDMARKAD":"1001101","ADDRESS":"台南市新營區中山路153-2號","TEL":"06-6331111","COUNTYNAME":"台南市","TOWNNAME":"新營區","MARKTYPE":"996","Class":"6"},"geometry":{"x":120.31630151597686,"y":23.304067957895892}},{"attributes":{"OBJECTID":10334,"LANDMARKID":"1001100001394","LANDMARKCO":"603","LANDMARKNA":"大同大旅社","LANDMARKAD":"1001101","ADDRESS":"台南市新營區中山路26號","TEL":"06-6322886","COUNTYNAME":"台南市","TOWNNAME":"新營區","MARKTYPE":"996","Class":"6"},"geometry":{"x":120.32182234627017,"y":23.306710381078279}},{"attributes":{"OBJECTID":10335,"LANDMARKID":"1001100001395","LANDMARKCO":"603","LANDMARKNA":"嘉南大旅社","LANDMARKAD":"1001101","ADDRESS":"台南市新營區中山路34-2號","TEL":"06-6321077","COUNTYNAME":"台南市","TOWNNAME":"新營區","MARKTYPE":"996","Class":"6"},"geometry":{"x":120.32169195998546,"y":23.307034337988785}},{"attributes":{"OBJECTID":10336,"LANDMARKID":"1001100001396","LANDMARKCO":"603","LANDMARKNA":"名悅賓館","LANDMARKAD":"1001101","ADDRESS":"台南市新營區民生路20號2-5樓","TEL":"06-6334661","COUNTYNAME":"台南市","TOWNNAME":"新營區","MARKTYPE":"996","Class":"6"},"geometry":{"x":120.30957825579652,"y":23.304719736220026}},{"attributes":{"OBJECTID":10337,"LANDMARKID":"1001100001397","LANDMARKCO":"603","LANDMARKNA":"上豪商務旅館","LANDMARKAD":"1001101","ADDRESS":"台南市新營區中興路22號","TEL":"06-6321277","COUNTYNAME":"台南市","TOWNNAME":"新營區","MARKTYPE":"996","Class":"6"},"geometry":{"x":120.31684524865157,"y":23.303473607452528}},{"attributes":{"OBJECTID":10338,"LANDMARKID":"1001100001398","LANDMARKCO":"603","LANDMARKNA":"世洋商務會館","LANDMARKAD":"1001101","ADDRESS":"台南市新營區新進路二段316號","TEL":"06-6591222","COUNTYNAME":"台南市","TOWNNAME":"新營區","MARKTYPE":"996","Class":"6"},"geometry":{"x":120.30362983899916,"y":23.300917195850307}},{"attributes":{"OBJECTID":10339,"LANDMARKID":"1001100001359","LANDMARKCO":"511","LANDMARKNA":"假日花市","LANDMARKAD":"1001101","ADDRESS":"台南市新營區","TEL":" ","COUNTYNAME":"台南市","TOWNNAME":"新營區","MARKTYPE":"995","Class":"5"},"geometry":{"x":120.31513276436638,"y":23.308350612226153}},{"attributes":{"OBJECTID":10340,"LANDMARKID":"1001100001100","LANDMARKCO":"405","LANDMARKNA":"中油加油站-北門站(中油直營)","LANDMARKAD":"1001117","ADDRESS":"台南市北門區仁里村二重港108號","TEL":"06-7862128","COUNTYNAME":"台南市","TOWNNAME":"北門區","MARKTYPE":"994","Class":"4"},"geometry":{"x":120.13319853371208,"y":23.241450043642782}},{"attributes":{"OBJECTID":10341,"LANDMARKID":"1001100000834","LANDMARKCO":"401","LANDMARKNA":"行政院衛生署新營醫院北門分院","LANDMARKAD":"1001117","ADDRESS":"台南市北門區中樞村溪底寮56之3號","TEL":"06-7862410","COUNTYNAME":"台南市","TOWNNAME":"北門區","MARKTYPE":"994","Class":"4"},"geometry":{"x":120.12949231146506,"y":23.25069654709435}},{"attributes":{"OBJECTID":10342,"LANDMARKID":"1001100001322","LANDMARKCO":"507","LANDMARKNA":"南鯤鯓代天府","LANDMARKAD":"1001117","ADDRESS":"台南市北門區鯤江村蚵寮976號","TEL":" ","COUNTYNAME":"台南市","TOWNNAME":"北門區","MARKTYPE":"995","Class":"5"},"geometry":{"x":120.11154955160167,"y":23.238652907182047}},{"attributes":{"OBJECTID":10343,"LANDMARKID":"1001100001198","LANDMARKCO":"408","LANDMARKNA":"郵局-北門郵局","LANDMARKAD":"1001117","ADDRESS":"台南市北門區北門村舊埕91號","TEL":"(06)7862-031","COUNTYNAME":"台南市","TOWNNAME":"北門區","MARKTYPE":"994","Class":"4"},"geometry":{"x":120.12470581241355,"y":23.267613936985107}},{"attributes":{"OBJECTID":10344,"LANDMARKID":"1001100001284","LANDMARKCO":"409","LANDMARKNA":"台南市北門區農會","LANDMARKAD":"1001117","ADDRESS":"台南市北門區北門村125號","TEL":"06-7862040","COUNTYNAME":"台南市","TOWNNAME":"北門區","MARKTYPE":"994","Class":"4"},"geometry":{"x":120.12498951895023,"y":23.266839702942825}},{"attributes":{"OBJECTID":10345,"LANDMARKID":"1001100001138","LANDMARKCO":"406","LANDMARKNA":"北門區運動公園","LANDMARKAD":"1001117","ADDRESS":"台南市北門區","TEL":" ","COUNTYNAME":"台南市","TOWNNAME":"北門區","MARKTYPE":"994","Class":"4"},"geometry":{"x":120.11891102416888,"y":23.269894009801817}},{"attributes":{"OBJECTID":10346,"LANDMARKID":"1001100000079","LANDMARKCO":"103","LANDMARKNA":"台南市北門區衛生所","LANDMARKAD":"1001117","ADDRESS":"台南市北門區永隆村50號","TEL":"06-7862043","COUNTYNAME":"台南市","TOWNNAME":"北門區","MARKTYPE":"991","Class":"1"},"geometry":{"x":120.12426757861654,"y":23.270625121197732}},{"attributes":{"OBJECTID":10347,"LANDMARKID":"1001100000213","LANDMARKCO":"107","LANDMARKNA":"台南市警察局北門分駐所","LANDMARKAD":"1001117","ADDRESS":"台南市北門區北門村舊埕22號","TEL":"06-7862041","COUNTYNAME":"台南市","TOWNNAME":"北門區","MARKTYPE":"991","Class":"1"},"geometry":{"x":120.12447950114571,"y":23.265841770828448}},{"attributes":{"OBJECTID":10348,"LANDMARKID":"1001100000080","LANDMARKCO":"103","LANDMARKNA":"台南市政府雙春林務所","LANDMARKAD":"1001117","ADDRESS":"台南市北門區雙春村68號","TEL":"06-7863020","COUNTYNAME":"台南市","TOWNNAME":"北門區","MARKTYPE":"991","Class":"1"},"geometry":{"x":120.12438877434074,"y":23.299160304377548}},{"attributes":{"OBJECTID":10349,"LANDMARKID":"1001100000125","LANDMARKCO":"106","LANDMARKNA":"台南市北門區戶政事務所","LANDMARKAD":"1001117","ADDRESS":"台南市北門區北門村舊埕229號","TEL":"06-7862244","COUNTYNAME":"台南市","TOWNNAME":"北門區","MARKTYPE":"991","Class":"1"},"geometry":{"x":120.12474689650072,"y":23.265573852555619}},{"attributes":{"OBJECTID":10350,"LANDMARKID":"1001100000081","LANDMARKCO":"103","LANDMARKNA":"台南市北門區鄉民代表會","LANDMARKAD":"1001117","ADDRESS":"台南市北門區北門村舊埕108號","TEL":"06-7862101","COUNTYNAME":"台南市","TOWNNAME":"北門區","MARKTYPE":"991","Class":"1"},"geometry":{"x":120.12529892251099,"y":23.268092806651474}},{"attributes":{"OBJECTID":10351,"LANDMARKID":"1001100000321","LANDMARKCO":"108","LANDMARKNA":"台南市北門區公所","LANDMARKAD":"1001117","ADDRESS":"台南市北門區北門村108號","TEL":"06-7862042","COUNTYNAME":"台南市","TOWNNAME":"北門區","MARKTYPE":"991","Class":"1"},"geometry":{"x":120.12569183719886,"y":23.267194180725042}},{"attributes":{"OBJECTID":10352,"LANDMARKID":"1001100000214","LANDMARKCO":"107","LANDMARKNA":"台南市消防局北門消防分隊","LANDMARKAD":"1001117","ADDRESS":"台南市北門區永隆村港北51號","TEL":"06-7862519","COUNTYNAME":"台南市","TOWNNAME":"北門區","MARKTYPE":"991","Class":"1"},"geometry":{"x":120.12799318138009,"y":23.26973263223525}},{"attributes":{"OBJECTID":10353,"LANDMARKID":"1001100000215","LANDMARKCO":"107","LANDMARKNA":"台南市警察局文山派出所","LANDMARKAD":"1001117","ADDRESS":"台南市北門區中樞村56號","TEL":"06-7862324","COUNTYNAME":"台南市","TOWNNAME":"北門區","MARKTYPE":"991","Class":"1"},"geometry":{"x":120.12916103339661,"y":23.241302045454727}},{"attributes":{"OBJECTID":10354,"LANDMARKID":"1001100000216","LANDMARKCO":"107","LANDMARKNA":"台南市警察局蚵寮派出所","LANDMARKAD":"1001117","ADDRESS":"台南市北門區保吉村蚵寮62-9號","TEL":"06-7860121","COUNTYNAME":"台南市","TOWNNAME":"北門區","MARKTYPE":"991","Class":"1"},"geometry":{"x":120.13907450091511,"y":23.286588895235045}},{"attributes":{"OBJECTID":10355,"LANDMARKID":"1001100000661","LANDMARKCO":"205","LANDMARKNA":"東隆宮王爺信仰文物館","LANDMARKAD":"1001117","ADDRESS":"台南市北門區三光村三寮灣127之3號","TEL":"06-7850135","COUNTYNAME":"台南市","TOWNNAME":"北門區","MARKTYPE":"992","Class":"2"},"geometry":{"x":120.11170885369567,"y":23.238265258454909}},{"attributes":{"OBJECTID":10356,"LANDMARKID":"1001100000642","LANDMARKCO":"204","LANDMARKNA":"台南市立圖書館北門分館","LANDMARKAD":"1001117","ADDRESS":"台南市北門區永隆村港北49號","TEL":" ","COUNTYNAME":"台南市","TOWNNAME":"北門區","MARKTYPE":"992","Class":"2"},"geometry":{"x":120.12671144198782,"y":23.26983840667442}},{"attributes":{"OBJECTID":10357,"LANDMARKID":"1001100000500","LANDMARKCO":"203","LANDMARKNA":"縣立北門國中","LANDMARKAD":"1001117","ADDRESS":"台南市北門區永華村1之1號","TEL":"06-7862795","COUNTYNAME":"台南市","TOWNNAME":"北門區","MARKTYPE":"992","Class":"2"},"geometry":{"x":120.12788712240629,"y":23.25302648263936}},{"attributes":{"OBJECTID":10358,"LANDMARKID":"1001100000501","LANDMARKCO":"203","LANDMARKNA":"縣立三慈國小","LANDMARKAD":"1001117","ADDRESS":"台南市北門區慈安村381號","TEL":"06-7850400","COUNTYNAME":"台南市","TOWNNAME":"北門區","MARKTYPE":"992","Class":"2"},"geometry":{"x":120.10971962863849,"y":23.238845564508448}},{"attributes":{"OBJECTID":10359,"LANDMARKID":"1001100000502","LANDMARKCO":"203","LANDMARKNA":"縣立永華國小","LANDMARKAD":"1001117","ADDRESS":"台南市北門區","TEL":" ","COUNTYNAME":"台南市","TOWNNAME":"北門區","MARKTYPE":"992","Class":"2"},"geometry":{"x":120.11590426569552,"y":23.259652256377802}},{"attributes":{"OBJECTID":10360,"LANDMARKID":"1001100000503","LANDMARKCO":"203","LANDMARKNA":"縣立北門國小","LANDMARKAD":"1001117","ADDRESS":"台南市北門區北門村舊埕3號","TEL":"06-7862035","COUNTYNAME":"台南市","TOWNNAME":"北門區","MARKTYPE":"992","Class":"2"},"geometry":{"x":120.12512188611753,"y":23.265291624487585}},{"attributes":{"OBJECTID":10361,"LANDMARKID":"1001100000504","LANDMARKCO":"203","LANDMARKNA":"縣立雙春國小","LANDMARKAD":"1001117","ADDRESS":"台南市北門區雙春村35之2號","TEL":"06-7863141","COUNTYNAME":"台南市","TOWNNAME":"北門區","MARKTYPE":"992","Class":"2"},"geometry":{"x":120.12489666196005,"y":23.301333072526454}},{"attributes":{"OBJECTID":10362,"LANDMARKID":"1001100000505","LANDMARKCO":"203","LANDMARKNA":"縣立文山國小","LANDMARKAD":"1001117","ADDRESS":"台南市北門區中樞村50號","TEL":"06-7862060","COUNTYNAME":"台南市","TOWNNAME":"北門區","MARKTYPE":"992","Class":"2"},"geometry":{"x":120.12634814234096,"y":23.241195957696316}},{"attributes":{"OBJECTID":10363,"LANDMARKID":"1001100000506","LANDMARKCO":"203","LANDMARKNA":"縣立蚵寮國小","LANDMARKAD":"1001117","ADDRESS":"台南市北門區鯤江村791號","TEL":"06-7863250","COUNTYNAME":"台南市","TOWNNAME":"北門區","MARKTYPE":"992","Class":"2"},"geometry":{"x":120.13776702281781,"y":23.286409204908441}},{"attributes":{"OBJECTID":10364,"LANDMARKID":"1001100000507","LANDMARKCO":"203","LANDMARKNA":"縣立北門國小玉湖分校","LANDMARKAD":"1001117","ADDRESS":"台南市北門區玉港村39號之3","TEL":"06-7862434","COUNTYNAME":"台南市","TOWNNAME":"北門區","MARKTYPE":"992","Class":"2"},"geometry":{"x":120.13916458361277,"y":23.26175816667984}},{"attributes":{"OBJECTID":10365,"LANDMARKID":"1001100000508","LANDMARKCO":"203","LANDMARKNA":"縣立錦湖國小","LANDMARKAD":"1001117","ADDRESS":"台南市北門區錦湖村75號","TEL":"06-7863454","COUNTYNAME":"台南市","TOWNNAME":"北門區","MARKTYPE":"992","Class":"2"},"geometry":{"x":120.16928596837275,"y":23.296516834563555}},{"attributes":{"OBJECTID":10366,"LANDMARKID":"1001100000737","LANDMARKCO":"305","LANDMARKNA":"北門漁港","LANDMARKAD":"1001117","ADDRESS":"台南市北門區","TEL":" ","COUNTYNAME":"台南市","TOWNNAME":"北門區","MARKTYPE":"993","Class":"305"},"geometry":{"x":120.08891392266496,"y":23.240872968280204}},{"attributes":{"OBJECTID":10367,"LANDMARKID":"1001100000779","LANDMARKCO":"308","LANDMARKNA":"台61-北門交流道-南下","LANDMARKAD":"1001117","ADDRESS":" ","TEL":" ","COUNTYNAME":"台南市","TOWNNAME":"北門區","MARKTYPE":"993","Class":"308"},"geometry":{"x":120.12738234662325,"y":23.281399495988634}},{"attributes":{"OBJECTID":10368,"LANDMARKID":"1001100000780","LANDMARKCO":"308","LANDMARKNA":"台61-北門交流道-北上","LANDMARKAD":"1001117","ADDRESS":" ","TEL":" ","COUNTYNAME":"台南市","TOWNNAME":"北門區","MARKTYPE":"993","Class":"308"},"geometry":{"x":120.12856483012261,"y":23.281946725939225}},{"attributes":{"OBJECTID":10369,"LANDMARKID":"1001100000781","LANDMARKCO":"308","LANDMARKNA":"台61-南鯤鯓交流道-北上","LANDMARKAD":"1001117","ADDRESS":" ","TEL":" ","COUNTYNAME":"台南市","TOWNNAME":"北門區","MARKTYPE":"993","Class":"308"},"geometry":{"x":120.14794443117204,"y":23.302702588765282}},{"attributes":{"OBJECTID":10370,"LANDMARKID":"1001100000782","LANDMARKCO":"308","LANDMARKNA":"台61-三寮灣交流道-北上","LANDMARKAD":"1001117","ADDRESS":" ","TEL":" ","COUNTYNAME":"台南市","TOWNNAME":"北門區","MARKTYPE":"993","Class":"308"},"geometry":{"x":120.1058964481085,"y":23.240533340697638}},{"attributes":{"OBJECTID":10371,"LANDMARKID":"1001100000783","LANDMARKCO":"308","LANDMARKNA":"台61-三寮灣交流道-南下","LANDMARKAD":"1001117","ADDRESS":" ","TEL":" ","COUNTYNAME":"台南市","TOWNNAME":"北門區","MARKTYPE":"993","Class":"308"},"geometry":{"x":120.10400000940351,"y":23.232709548359676}},{"attributes":{"OBJECTID":10372,"LANDMARKID":"1001100000859","LANDMARKCO":"402","LANDMARKNA":"中華電信-北門服務中心","LANDMARKAD":"1001117","ADDRESS":"台南市北門區永隆村北門1號","TEL":"(06)786-2140","COUNTYNAME":"台南市","TOWNNAME":"北門區","MARKTYPE":"994","Class":"4"},"geometry":{"x":120.12420127192669,"y":23.268308122699182}},{"attributes":{"OBJECTID":10373,"LANDMARKID":"1001100001301","LANDMARKCO":"503","LANDMARKNA":"南鯤鯓風景特定區","LANDMARKAD":"1001117","ADDRESS":"台南市北門區","TEL":" ","COUNTYNAME":"台南市","TOWNNAME":"北門區","MARKTYPE":"995","Class":"5"},"geometry":{"x":120.14191180948463,"y":23.286685246046712}},{"attributes":{"OBJECTID":10374,"LANDMARKID":"1001100001095","LANDMARKCO":"405","LANDMARKNA":"中油加油站-東山服務區站(中油直營)","LANDMARKAD":"1001106","ADDRESS":"台南市東山區科里村枋子林74號之6","TEL":" ","COUNTYNAME":"台南市","TOWNNAME":"東山區","MARKTYPE":"994","Class":"4"},"geometry":{"x":120.39774280459189,"y":23.284654241664931}},{"attributes":{"OBJECTID":10375,"LANDMARKID":"1001100001096","LANDMARKCO":"405","LANDMARKNA":"中油加油站-東山站(中油直營)","LANDMARKAD":"1001106","ADDRESS":"台南市東山區東正村東勢240號","TEL":"06-6800021","COUNTYNAME":"台南市","TOWNNAME":"東山區","MARKTYPE":"994","Class":"4"},"geometry":{"x":120.40708771859676,"y":23.329789647765544}},{"attributes":{"OBJECTID":10376,"LANDMARKID":"1001100001097","LANDMARKCO":"405","LANDMARKNA":"中油加油站-東誠站","LANDMARKAD":"1001106","ADDRESS":"台南市東山區東山村242之15號","TEL":"06-6805218","COUNTYNAME":"台南市","TOWNNAME":"東山區","MARKTYPE":"994","Class":"4"},"geometry":{"x":120.40652379229471,"y":23.328274723248775}},{"attributes":{"OBJECTID":10377,"LANDMARKID":"1001100001098","LANDMARKCO":"405","LANDMARKNA":"中油加油站-福德站","LANDMARKAD":"1001106","ADDRESS":"台南市東山區東河村吉貝耍53-9號","TEL":"06-6233927","COUNTYNAME":"台南市","TOWNNAME":"東山區","MARKTYPE":"994","Class":"4"},"geometry":{"x":120.38262399225056,"y":23.297905854231178}},{"attributes":{"OBJECTID":10378,"LANDMARKID":"1001100001099","LANDMARKCO":"405","LANDMARKNA":"中油加油站-榮源站","LANDMARKAD":"1001106","ADDRESS":"台南市東山區東原村瓦厝子4-3號","TEL":"06-6862074","COUNTYNAME":"台南市","TOWNNAME":"東山區","MARKTYPE":"994","Class":"4"},"geometry":{"x":120.44752634960774,"y":23.268343863877661}},{"attributes":{"OBJECTID":10379,"LANDMARKID":"1001100001321","LANDMARKCO":"507","LANDMARKNA":"龍山寺","LANDMARKAD":"1001106","ADDRESS":"台南市東山區","TEL":" ","COUNTYNAME":"台南市","TOWNNAME":"東山區","MARKTYPE":"995","Class":"5"},"geometry":{"x":120.40413125676528,"y":23.272148965544318}},{"attributes":{"OBJECTID":10380,"LANDMARKID":"1001100001320","LANDMARKCO":"506","LANDMARKNA":"森山休閒農場","LANDMARKAD":"1001106","ADDRESS":"台南市東山區南勢村2鄰19號","TEL":"06-6862661","COUNTYNAME":"台南市","TOWNNAME":"東山區","MARKTYPE":"995","Class":"5"},"geometry":{"x":120.4579398988417,"y":23.247129611207402}},{"attributes":{"OBJECTID":10381,"LANDMARKID":"1001100001196","LANDMARKCO":"408","LANDMARKNA":"郵局-東山郵局","LANDMARKAD":"1001106","ADDRESS":"台南市東山區東中村新東路1段18號","TEL":"(06)6802-343","COUNTYNAME":"台南市","TOWNNAME":"東山區","MARKTYPE":"994","Class":"4"},"geometry":{"x":120.40244263369466,"y":23.322751402245792}},{"attributes":{"OBJECTID":10382,"LANDMARKID":"1001100001197","LANDMARKCO":"408","LANDMARKNA":"郵局-東山東原郵局","LANDMARKAD":"1001106","ADDRESS":"台南市東山區東原村170號","TEL":"(06)6862-557","COUNTYNAME":"台南市","TOWNNAME":"東山區","MARKTYPE":"994","Class":"4"},"geometry":{"x":120.44441032558537,"y":23.265498802263849}},{"attributes":{"OBJECTID":10383,"LANDMARKID":"1001100001285","LANDMARKCO":"409","LANDMARKNA":"台南市東山區農會","LANDMARKAD":"1001106","ADDRESS":"台南市東山區東中村中興路1號","TEL":"06-6802159","COUNTYNAME":"台南市","TOWNNAME":"東山區","MARKTYPE":"994","Class":"4"},"geometry":{"x":120.40307476430526,"y":23.321469414511235}},{"attributes":{"OBJECTID":10384,"LANDMARKID":"1001100001139","LANDMARKCO":"406","LANDMARKNA":"東山區運動公園","LANDMARKAD":"1001106","ADDRESS":"台南市東山區","TEL":" ","COUNTYNAME":"台南市","TOWNNAME":"東山區","MARKTYPE":"994","Class":"4"},"geometry":{"x":120.40323701741927,"y":23.319116474021989}},{"attributes":{"OBJECTID":10385,"LANDMARKID":"1001100001140","LANDMARKCO":"406","LANDMARKNA":"東山運動公園","LANDMARKAD":"1001106","ADDRESS":"台南市東山區","TEL":" ","COUNTYNAME":"台南市","TOWNNAME":"東山區","MARKTYPE":"994","Class":"4"},"geometry":{"x":120.40402145589341,"y":23.318082890637548}},{"attributes":{"OBJECTID":10386,"LANDMARKID":"1001100001141","LANDMARKCO":"406","LANDMARKNA":"路邊公園","LANDMARKAD":"1001106","ADDRESS":"台南市東山區","TEL":" ","COUNTYNAME":"台南市","TOWNNAME":"東山區","MARKTYPE":"994","Class":"4"},"geometry":{"x":120.52117586638434,"y":23.241960454038651}},{"attributes":{"OBJECTID":10387,"LANDMARKID":"1001100000218","LANDMARKCO":"107","LANDMARKNA":"台南市警察局東山分駐所","LANDMARKAD":"1001106","ADDRESS":"台南市東山區所前路219號","TEL":"06-6800024","COUNTYNAME":"台南市","TOWNNAME":"東山區","MARKTYPE":"991","Class":"1"},"geometry":{"x":120.40363483389768,"y":23.326287919856927}},{"attributes":{"OBJECTID":10388,"LANDMARKID":"1001100000219","LANDMARKCO":"107","LANDMARKNA":"台南市警察局東河派出所","LANDMARKAD":"1001106","ADDRESS":"台南市東山區東河村1鄰吉貝耍16號","TEL":"06-6231630","COUNTYNAME":"台南市","TOWNNAME":"東山區","MARKTYPE":"991","Class":"1"},"geometry":{"x":120.38473807753952,"y":23.296688959863197}},{"attributes":{"OBJECTID":10389,"LANDMARKID":"1001100000220","LANDMARKCO":"107","LANDMARKNA":"國公路警察局第八警察隊部","LANDMARKAD":"1001106","ADDRESS":"台南市東山區枋子林74號之6","TEL":"06-6230747","COUNTYNAME":"台南市","TOWNNAME":"東山區","MARKTYPE":"991","Class":"1"},"geometry":{"x":120.39806645766991,"y":23.288882264103751}},{"attributes":{"OBJECTID":10390,"LANDMARKID":"1001100000221","LANDMARKCO":"107","LANDMARKNA":"台南市消防局東山消防分隊","LANDMARKAD":"1001106","ADDRESS":"台南市東山區東山村219之2號","TEL":"06-6800862","COUNTYNAME":"台南市","TOWNNAME":"東山區","MARKTYPE":"991","Class":"1"},"geometry":{"x":120.40363483389768,"y":23.326287919856927}},{"attributes":{"OBJECTID":10391,"LANDMARKID":"1001100000124","LANDMARKCO":"106","LANDMARKNA":"台南市東山區戶政事務所","LANDMARKAD":"1001106","ADDRESS":"台南市東山區東山村12鄰東山219號之1","TEL":"06-6801154","COUNTYNAME":"台南市","TOWNNAME":"東山區","MARKTYPE":"991","Class":"1"},"geometry":{"x":120.40367394546446,"y":23.326288217714499}},{"attributes":{"OBJECTID":10392,"LANDMARKID":"1001100000320","LANDMARKCO":"108","LANDMARKNA":"台南市東山區公所","LANDMARKAD":"1001106","ADDRESS":"台南市東山區東山村225號","TEL":"06-6802100","COUNTYNAME":"台南市","TOWNNAME":"東山區","MARKTYPE":"991","Class":"1"},"geometry":{"x":120.40395669674288,"y":23.326380671135194}},{"attributes":{"OBJECTID":10393,"LANDMARKID":"1001100000082","LANDMARKCO":"103","LANDMARKNA":"台南市東山區鄉民代表會","LANDMARKAD":"1001106","ADDRESS":"台南市東山區東山村225號之1","TEL":"06-6802464","COUNTYNAME":"台南市","TOWNNAME":"東山區","MARKTYPE":"991","Class":"1"},"geometry":{"x":120.403966474643,"y":23.326380745354797}},{"attributes":{"OBJECTID":10394,"LANDMARKID":"1001100000083","LANDMARKCO":"103","LANDMARKNA":"台南市東山區衛生所","LANDMARKAD":"1001106","ADDRESS":"台南市東山區東山村236號","TEL":"06-6802618","COUNTYNAME":"台南市","TOWNNAME":"東山區","MARKTYPE":"991","Class":"1"},"geometry":{"x":120.40442269476823,"y":23.325661801043157}},{"attributes":{"OBJECTID":10395,"LANDMARKID":"1001100000217","LANDMARKCO":"107","LANDMARKNA":"台南市警察局水雲派出所","LANDMARKAD":"1001106","ADDRESS":"台南市東山區水雲村12號","TEL":"06-6231945","COUNTYNAME":"台南市","TOWNNAME":"東山區","MARKTYPE":"991","Class":"1"},"geometry":{"x":120.41369836971162,"y":23.280188722625997}},{"attributes":{"OBJECTID":10396,"LANDMARKID":"1001100000073","LANDMARKCO":"103","LANDMARKNA":"台南市東山區公所大坑垃圾場","LANDMARKAD":"1001106","ADDRESS":"台南市東山區東原村前大埔段11號之6","TEL":"06-6863078","COUNTYNAME":"台南市","TOWNNAME":"東山區","MARKTYPE":"991","Class":"1"},"geometry":{"x":120.44262855047867,"y":23.269451686959222}},{"attributes":{"OBJECTID":10397,"LANDMARKID":"1001100000273","LANDMARKCO":"107","LANDMARKNA":"台南市消防局東原消防分隊","LANDMARKAD":"1001106","ADDRESS":"台南市東山區東原村前大埔9之1號","TEL":"06-6860352","COUNTYNAME":"台南市","TOWNNAME":"東山區","MARKTYPE":"991","Class":"1"},"geometry":{"x":120.44587730304087,"y":23.265040082327651}},{"attributes":{"OBJECTID":10398,"LANDMARKID":"1001100000274","LANDMARKCO":"107","LANDMARKNA":"台南市警察局東原派出所","LANDMARKAD":"1001106","ADDRESS":"台南市東山區東原村前大埔9號","TEL":"06-6861051","COUNTYNAME":"台南市","TOWNNAME":"東山區","MARKTYPE":"991","Class":"1"},"geometry":{"x":120.44590587688722,"y":23.265130586625165}},{"attributes":{"OBJECTID":10399,"LANDMARKID":"1001100000275","LANDMARKCO":"107","LANDMARKNA":"台南市警察局青山派出所","LANDMARKAD":"1001106","ADDRESS":"台南市東山區青山村31號","TEL":"06-6861049","COUNTYNAME":"台南市","TOWNNAME":"東山區","MARKTYPE":"991","Class":"1"},"geometry":{"x":120.46887736624406,"y":23.279118753740164}},{"attributes":{"OBJECTID":10400,"LANDMARKID":"1001100000634","LANDMARKCO":"204","LANDMARKNA":"台南市立圖書館東山分館","LANDMARKAD":"1001106","ADDRESS":"台南市東山區東山村225之4號","TEL":" ","COUNTYNAME":"台南市","TOWNNAME":"東山區","MARKTYPE":"992","Class":"2"},"geometry":{"x":120.4039563784339,"y":23.326336506780091}}]}