{"displayFieldName":"COUNTYNAME","fieldAliases":{"OBJECTID":"OBJECTID","LANDMARKID":"LANDMARKID","LANDMARKCO":"LANDMARKCO","LANDMARKNA":"LANDMARKNA","LANDMARKAD":"LANDMARKAD","ADDRESS":"ADDRESS","TEL":"TEL","COUNTYNAME":"COUNTYNAME","TOWNNAME":"TOWNNAME","MARKTYPE":"MARKTYPE","Class":"Class"},"geometryType":"esriGeometryPoint","spatialReference":{"wkid":4326},"fields":[{"name":"OBJECTID","type":"esriFieldTypeOID","alias":"OBJECTID"},{"name":"LANDMARKID","type":"esriFieldTypeString","alias":"LANDMARKID","length":15},{"name":"LANDMARKCO","type":"esriFieldTypeString","alias":"LANDMARKCO","length":15},{"name":"LANDMARKNA","type":"esriFieldTypeString","alias":"LANDMARKNA","length":50},{"name":"LANDMARKAD","type":"esriFieldTypeString","alias":"LANDMARKAD","length":15},{"name":"ADDRESS","type":"esriFieldTypeString","alias":"ADDRESS","length":56},{"name":"TEL","type":"esriFieldTypeString","alias":"TEL","length":36},{"name":"COUNTYNAME","type":"esriFieldTypeString","alias":"COUNTYNAME","length":15},{"name":"TOWNNAME","type":"esriFieldTypeString","alias":"TOWNNAME","length":13},{"name":"MARKTYPE","type":"esriFieldTypeString","alias":"MARKTYPE","length":12},{"name":"Class","type":"esriFieldTypeString","alias":"Class","length":5}],"features":[{"attributes":{"OBJECTID":19801,"LANDMARKID":"1001200000013","LANDMARKCO":"101","LANDMARKNA":"高雄農田水利會岡山工作站","LANDMARKAD":"1001208","ADDRESS":"高雄市岡山區岡山路375號","TEL":"07-6212064","COUNTYNAME":"高雄市","TOWNNAME":"岡山區","MARKTYPE":"991","Class":"1"},"geometry":{"x":120.29251490499385,"y":22.801533634744949}},{"attributes":{"OBJECTID":19802,"LANDMARKID":"1001200000072","LANDMARKCO":"103","LANDMARKNA":"高雄市岡山區衛生所","LANDMARKAD":"1001208","ADDRESS":"高雄市岡山區公園路50號","TEL":"07-6212015","COUNTYNAME":"高雄市","TOWNNAME":"岡山區","MARKTYPE":"991","Class":"1"},"geometry":{"x":120.2939840141665,"y":22.797031438842602}},{"attributes":{"OBJECTID":19803,"LANDMARKID":"1001200000195","LANDMARKCO":"107","LANDMARKNA":"高雄市政府警察局壽天派出所","LANDMARKAD":"1001208","ADDRESS":"高雄市岡山區壽天里公園西路14號","TEL":"07-6216400","COUNTYNAME":"高雄市","TOWNNAME":"岡山區","MARKTYPE":"991","Class":"1"},"geometry":{"x":120.29405684016358,"y":22.796580549443807}},{"attributes":{"OBJECTID":19804,"LANDMARKID":"1001200000196","LANDMARKCO":"107","LANDMARKNA":"高雄市政府警察局岡山分局","LANDMARKAD":"1001208","ADDRESS":"高雄市岡山區岡山里壽天路10號","TEL":"07-6212025","COUNTYNAME":"高雄市","TOWNNAME":"岡山區","MARKTYPE":"991","Class":"1"},"geometry":{"x":120.2940763190242,"y":22.796580721454259}},{"attributes":{"OBJECTID":19805,"LANDMARKID":"1001200000197","LANDMARKCO":"107","LANDMARKNA":"高雄市消防局岡山消防分隊","LANDMARKAD":"1001208","ADDRESS":"高雄市岡山區壽天路19號","TEL":"07-6212300","COUNTYNAME":"高雄市","TOWNNAME":"岡山區","MARKTYPE":"991","Class":"1"},"geometry":{"x":120.29502388609133,"y":22.796305869939687}},{"attributes":{"OBJECTID":19806,"LANDMARKID":"1001200000288","LANDMARKCO":"108","LANDMARKNA":"高雄市岡山區公所","LANDMARKAD":"1001208","ADDRESS":"高雄市岡山區岡山路343號","TEL":"07-6214193","COUNTYNAME":"高雄市","TOWNNAME":"岡山區","MARKTYPE":"991","Class":"1"},"geometry":{"x":120.2952539169342,"y":22.796669131015271}},{"attributes":{"OBJECTID":19807,"LANDMARKID":"1001200000112","LANDMARKCO":"105","LANDMARKNA":"高雄市岡山地政事務所","LANDMARKAD":"1001208","ADDRESS":"高雄市岡山區岡山路341號","TEL":"07-6212383","COUNTYNAME":"高雄市","TOWNNAME":"岡山區","MARKTYPE":"991","Class":"1"},"geometry":{"x":120.29536012108572,"y":22.796760376547766}},{"attributes":{"OBJECTID":19808,"LANDMARKID":"1001200000014","LANDMARKCO":"101","LANDMARKNA":"台灣高雄地方法院岡山簡易庭","LANDMARKAD":"1001208","ADDRESS":"高雄市岡山區岡山南路57號","TEL":"07-6250875","COUNTYNAME":"高雄市","TOWNNAME":"岡山區","MARKTYPE":"991","Class":"1"},"geometry":{"x":120.29726766287638,"y":22.783309514382193}},{"attributes":{"OBJECTID":19809,"LANDMARKID":"1001200000106","LANDMARKCO":"104","LANDMARKNA":"南區國稅局岡山稽徵所","LANDMARKAD":"1001208","ADDRESS":"高雄市岡山區介壽路100號","TEL":"07-6260123","COUNTYNAME":"高雄市","TOWNNAME":"岡山區","MARKTYPE":"991","Class":"1"},"geometry":{"x":120.29883387439155,"y":22.796146583908463}},{"attributes":{"OBJECTID":19810,"LANDMARKID":"1001200000015","LANDMARKCO":"101","LANDMARKNA":"職業訓練局岡山就業服務站","LANDMARKAD":"1001208","ADDRESS":"高雄市岡山區岡燕路347號","TEL":"07-6224485","COUNTYNAME":"高雄市","TOWNNAME":"岡山區","MARKTYPE":"991","Class":"1"},"geometry":{"x":120.305146634989,"y":22.791752471912279}},{"attributes":{"OBJECTID":19811,"LANDMARKID":"1001200000198","LANDMARKCO":"107","LANDMARKNA":"高雄市政府警察局嘉興派出所","LANDMARKAD":"1001208","ADDRESS":"高雄市岡山區嘉興路251號","TEL":"07-6216401","COUNTYNAME":"高雄市","TOWNNAME":"岡山區","MARKTYPE":"991","Class":"1"},"geometry":{"x":120.30538773246215,"y":22.822638862752022}},{"attributes":{"OBJECTID":19812,"LANDMARKID":"1001200000199","LANDMARKCO":"107","LANDMARKNA":"國公路第五警察隊隊部","LANDMARKAD":"1001208","ADDRESS":"高雄市岡山區大莊里大莊路61號","TEL":"07-6283156","COUNTYNAME":"高雄市","TOWNNAME":"岡山區","MARKTYPE":"991","Class":"1"},"geometry":{"x":120.31576240597181,"y":22.810850505227535}},{"attributes":{"OBJECTID":19813,"LANDMARKID":"1001200000200","LANDMARKCO":"107","LANDMARKNA":"國公路第五警察隊岡山分隊","LANDMARKAD":"1001208","ADDRESS":"高雄市岡山區大莊里大莊路61號","TEL":"07-6282059","COUNTYNAME":"高雄市","TOWNNAME":"岡山區","MARKTYPE":"991","Class":"1"},"geometry":{"x":120.31578188697294,"y":22.810850672830547}},{"attributes":{"OBJECTID":19814,"LANDMARKID":"1001200000071","LANDMARKCO":"103","LANDMARKNA":"高雄市政府文化局","LANDMARKAD":"1001208","ADDRESS":"高雄市岡山區岡山南路42號","TEL":"07-6262620","COUNTYNAME":"高雄市","TOWNNAME":"岡山區","MARKTYPE":"991","Class":"1"},"geometry":{"x":120.29826191118794,"y":22.783227959585226}},{"attributes":{"OBJECTID":19815,"LANDMARKID":"1001200000602","LANDMARKCO":"205","LANDMARKNA":"高雄市政府文化局皮影戲館","LANDMARKAD":"1001208","ADDRESS":"高雄市岡山區岡山南路42號","TEL":" ","COUNTYNAME":"高雄市","TOWNNAME":"岡山區","MARKTYPE":"992","Class":"2"},"geometry":{"x":120.29846765223145,"y":22.782693689429518}},{"attributes":{"OBJECTID":19816,"LANDMARKID":"1001200000585","LANDMARKCO":"204","LANDMARKNA":"高雄市立圖書館岡山分館","LANDMARKAD":"1001208","ADDRESS":"高雄市岡山區壽天里公園路10號","TEL":" ","COUNTYNAME":"高雄市","TOWNNAME":"岡山區","MARKTYPE":"992","Class":"2"},"geometry":{"x":120.29212068966423,"y":22.797467569081103}},{"attributes":{"OBJECTID":19817,"LANDMARKID":"1001200000325","LANDMARKCO":"202","LANDMARKNA":"私立立德商工","LANDMARKAD":"1001208","ADDRESS":"高雄市岡山區岡山北路6號","TEL":"07-6212730","COUNTYNAME":"高雄市","TOWNNAME":"岡山區","MARKTYPE":"992","Class":"2"},"geometry":{"x":120.28577972290898,"y":22.807561245167115}},{"attributes":{"OBJECTID":19818,"LANDMARKID":"1001200000326","LANDMARKCO":"202","LANDMARKNA":"國立岡山農工","LANDMARKAD":"1001208","ADDRESS":"高雄市岡山區壽天里岡山路533號","TEL":"07-6217129","COUNTYNAME":"高雄市","TOWNNAME":"岡山區","MARKTYPE":"992","Class":"2"},"geometry":{"x":120.28830537079534,"y":22.80170155830065}},{"attributes":{"OBJECTID":19819,"LANDMARKID":"1001200000327","LANDMARKCO":"202","LANDMARKNA":"國立岡山高中","LANDMARKAD":"1001208","ADDRESS":"高雄市岡山區公園路52號","TEL":"07-6229890","COUNTYNAME":"高雄市","TOWNNAME":"岡山區","MARKTYPE":"992","Class":"2"},"geometry":{"x":120.28968097486708,"y":22.797276442170812}},{"attributes":{"OBJECTID":19820,"LANDMARKID":"1001200000448","LANDMARKCO":"203","LANDMARKNA":"縣立前峰國中","LANDMARKAD":"1001208","ADDRESS":"高雄市岡山區灣裡里育才路3號","TEL":"07-6212804","COUNTYNAME":"高雄市","TOWNNAME":"岡山區","MARKTYPE":"992","Class":"2"},"geometry":{"x":120.28100606552559,"y":22.807621148387447}},{"attributes":{"OBJECTID":19821,"LANDMARKID":"1001200000449","LANDMARKCO":"203","LANDMARKNA":"縣立岡山國中","LANDMARKAD":"1001208","ADDRESS":"高雄市岡山區岡燕路238號","TEL":"07-6212219","COUNTYNAME":"高雄市","TOWNNAME":"岡山區","MARKTYPE":"992","Class":"2"},"geometry":{"x":120.30365164887689,"y":22.790836423604159}},{"attributes":{"OBJECTID":19822,"LANDMARKID":"1001200000450","LANDMARKCO":"203","LANDMARKNA":"縣立嘉興國中","LANDMARKAD":"1001208","ADDRESS":"高雄市岡山區信中街486號","TEL":"07-6221039","COUNTYNAME":"高雄市","TOWNNAME":"岡山區","MARKTYPE":"992","Class":"2"},"geometry":{"x":120.31309708123368,"y":22.810478331784513}},{"attributes":{"OBJECTID":19823,"LANDMARKID":"1001200000451","LANDMARKCO":"203","LANDMARKNA":"縣立兆湘國小","LANDMARKAD":"1001208","ADDRESS":"高雄市岡山區介壽路60號","TEL":"07-6252394","COUNTYNAME":"高雄市","TOWNNAME":"岡山區","MARKTYPE":"992","Class":"2"},"geometry":{"x":120.28702514261181,"y":22.785344958211972}},{"attributes":{"OBJECTID":19824,"LANDMARKID":"1001200000452","LANDMARKCO":"203","LANDMARKNA":"縣立岡山國小","LANDMARKAD":"1001208","ADDRESS":"高雄市岡山區柳橋東路36號","TEL":"07-6212032","COUNTYNAME":"高雄市","TOWNNAME":"岡山區","MARKTYPE":"992","Class":"2"},"geometry":{"x":120.29352696536958,"y":22.791789651064882}},{"attributes":{"OBJECTID":19825,"LANDMARKID":"1001200000453","LANDMARKCO":"203","LANDMARKNA":"縣立竹圍國小","LANDMARKAD":"1001208","ADDRESS":"高雄市岡山區竹圍里大仁北路1號","TEL":"07-6233032","COUNTYNAME":"高雄市","TOWNNAME":"岡山區","MARKTYPE":"992","Class":"2"},"geometry":{"x":120.30250560018054,"y":22.803210326443452}},{"attributes":{"OBJECTID":19826,"LANDMARKID":"1001200000454","LANDMARKCO":"203","LANDMARKNA":"縣立後紅國小","LANDMARKAD":"1001208","ADDRESS":"高雄市岡山區碧紅里岡燕路2巷88號","TEL":"07-6212815","COUNTYNAME":"高雄市","TOWNNAME":"岡山區","MARKTYPE":"992","Class":"2"},"geometry":{"x":120.30352136977869,"y":22.793544436720577}},{"attributes":{"OBJECTID":19827,"LANDMARKID":"1001200000455","LANDMARKCO":"203","LANDMARKNA":"縣立和平國小","LANDMARKAD":"1001208","ADDRESS":"高雄市岡山區和平里和平路1號","TEL":"07-6254220","COUNTYNAME":"高雄市","TOWNNAME":"岡山區","MARKTYPE":"992","Class":"2"},"geometry":{"x":120.30384344054563,"y":22.782168800632132}},{"attributes":{"OBJECTID":19828,"LANDMARKID":"1001200000456","LANDMARKCO":"203","LANDMARKNA":"縣立嘉興國小","LANDMARKAD":"1001208","ADDRESS":"高雄市岡山區嘉興里嘉興路322號","TEL":"07-6212414","COUNTYNAME":"高雄市","TOWNNAME":"岡山區","MARKTYPE":"992","Class":"2"},"geometry":{"x":120.30534475562131,"y":22.821645175405905}},{"attributes":{"OBJECTID":19829,"LANDMARKID":"1001200000457","LANDMARKCO":"203","LANDMARKNA":"縣立壽天國小","LANDMARKAD":"1001208","ADDRESS":"高雄市岡山區公園東路55號","TEL":"07-6246040","COUNTYNAME":"高雄市","TOWNNAME":"岡山區","MARKTYPE":"992","Class":"2"},"geometry":{"x":120.29175538384702,"y":22.799178976826095}},{"attributes":{"OBJECTID":19830,"LANDMARKID":"1001200000458","LANDMARKCO":"203","LANDMARKNA":"縣立岡山國小灣裡分校","LANDMARKAD":"1001208","ADDRESS":"高雄市岡山區灣裡路80-1號","TEL":"07-6220178","COUNTYNAME":"高雄市","TOWNNAME":"岡山區","MARKTYPE":"992","Class":"2"},"geometry":{"x":120.28261352102292,"y":22.812241142312228}},{"attributes":{"OBJECTID":19831,"LANDMARKID":"1001200000459","LANDMARKCO":"203","LANDMARKNA":"縣立前峰國小","LANDMARKAD":"1001208","ADDRESS":"高雄市岡山區仁壽里育英街35號","TEL":"07-6265335","COUNTYNAME":"高雄市","TOWNNAME":"岡山區","MARKTYPE":"992","Class":"2"},"geometry":{"x":120.28240522803732,"y":22.792643154138975}},{"attributes":{"OBJECTID":19832,"LANDMARKID":"1001200000460","LANDMARKCO":"203","LANDMARKNA":"縣立嘉興國小大莊分校","LANDMARKAD":"1001208","ADDRESS":"高雄市岡山區","TEL":" ","COUNTYNAME":"高雄市","TOWNNAME":"岡山區","MARKTYPE":"992","Class":"2"},"geometry":{"x":120.31722113295446,"y":22.805793952080705}},{"attributes":{"OBJECTID":19833,"LANDMARKID":"1001200000707","LANDMARKCO":"308","LANDMARKNA":"岡山收費站","LANDMARKAD":"1001208","ADDRESS":" ","TEL":" ","COUNTYNAME":"高雄市","TOWNNAME":"岡山區","MARKTYPE":"993","Class":"308"},"geometry":{"x":120.31462894798203,"y":22.811042858359603}},{"attributes":{"OBJECTID":19834,"LANDMARKID":"1001200000687","LANDMARKCO":"306","LANDMARKNA":"岡山捷運站-出口1","LANDMARKAD":"1001208","ADDRESS":" ","TEL":" ","COUNTYNAME":"高雄市","TOWNNAME":"岡山區","MARKTYPE":"993","Class":"306"},"geometry":{"x":120.30199927081844,"y":22.780649678249564}},{"attributes":{"OBJECTID":19835,"LANDMARKID":"1001200000688","LANDMARKCO":"306","LANDMARKNA":"岡山捷運站-出口2","LANDMARKAD":"1001208","ADDRESS":" ","TEL":" ","COUNTYNAME":"高雄市","TOWNNAME":"岡山區","MARKTYPE":"993","Class":"306"},"geometry":{"x":120.30173030911332,"y":22.781246853361534}},{"attributes":{"OBJECTID":19836,"LANDMARKID":"1001200000621","LANDMARKCO":"302","LANDMARKNA":"高雄汽車客運岡山站","LANDMARKAD":"1001208","ADDRESS":"高雄市岡山區岡山路353號","TEL":" ","COUNTYNAME":"高雄市","TOWNNAME":"岡山區","MARKTYPE":"993","Class":"302"},"geometry":{"x":120.29497832981664,"y":22.797783555405076}},{"attributes":{"OBJECTID":19837,"LANDMARKID":"1001200000652","LANDMARKCO":"303","LANDMARKNA":"高雄市政府文化局停車場","LANDMARKAD":"1001208","ADDRESS":"高雄市岡山區岡山南路42號","TEL":" ","COUNTYNAME":"高雄市","TOWNNAME":"岡山區","MARKTYPE":"993","Class":"303"},"geometry":{"x":120.29762024256227,"y":22.784173464655584}},{"attributes":{"OBJECTID":19838,"LANDMARKID":"1001200000653","LANDMARKCO":"303","LANDMARKNA":"大世界國際村停車場","LANDMARKAD":"1001208","ADDRESS":"高雄市岡山區菜寮路15號","TEL":"07-6281917","COUNTYNAME":"高雄市","TOWNNAME":"岡山區","MARKTYPE":"993","Class":"303"},"geometry":{"x":120.34415128819403,"y":22.818628123412626}},{"attributes":{"OBJECTID":19839,"LANDMARKID":"1001200000654","LANDMARKCO":"303","LANDMARKNA":"岡山區立停車場","LANDMARKAD":"1001208","ADDRESS":"高雄市岡山區","TEL":" ","COUNTYNAME":"高雄市","TOWNNAME":"岡山區","MARKTYPE":"993","Class":"303"},"geometry":{"x":120.30188293735145,"y":22.80245036876051}},{"attributes":{"OBJECTID":19840,"LANDMARKID":"1001200000610","LANDMARKCO":"301","LANDMARKNA":"岡山火車站","LANDMARKAD":"1001208","ADDRESS":"高雄市岡山區岡燕路111號","TEL":"07-6212074","COUNTYNAME":"高雄市","TOWNNAME":"岡山區","MARKTYPE":"993","Class":"301"},"geometry":{"x":120.30001211005398,"y":22.792504167218397}},{"attributes":{"OBJECTID":19841,"LANDMARKID":"1001200000791","LANDMARKCO":"402","LANDMARKNA":"中華電信-岡山仁壽特約服務中心","LANDMARKAD":"1001208","ADDRESS":"高雄市岡山區仁壽路36號","TEL":"07-6258288","COUNTYNAME":"高雄市","TOWNNAME":"岡山區","MARKTYPE":"994","Class":"4"},"geometry":{"x":120.28977501658137,"y":22.793208013628661}},{"attributes":{"OBJECTID":19842,"LANDMARKID":"1001200000792","LANDMARKCO":"402","LANDMARKNA":"中華電信-岡山服務中心","LANDMARKAD":"1001208","ADDRESS":"高雄市岡山區介壽路27號","TEL":"(07)644-0066","COUNTYNAME":"高雄市","TOWNNAME":"岡山區","MARKTYPE":"994","Class":"4"},"geometry":{"x":120.29622438493205,"y":22.784427926713505}},{"attributes":{"OBJECTID":19843,"LANDMARKID":"1001200000793","LANDMARKCO":"402","LANDMARKNA":"大眾電信(震旦通訊)-岡山岡山店","LANDMARKAD":"1001208","ADDRESS":"高雄市岡山區岡山路316號","TEL":"07-6228197","COUNTYNAME":"高雄市","TOWNNAME":"岡山區","MARKTYPE":"994","Class":"4"},"geometry":{"x":120.29613919070211,"y":22.793772553929173}},{"attributes":{"OBJECTID":19844,"LANDMARKID":"1001200001335","LANDMARKCO":"603","LANDMARKNA":"凱麗賓館","LANDMARKAD":"1001208","ADDRESS":"高雄市岡山區民有路1號9-12樓","TEL":"07-6232563-5","COUNTYNAME":"高雄市","TOWNNAME":"岡山區","MARKTYPE":"996","Class":"6"},"geometry":{"x":120.29888603114642,"y":22.79224738801366}},{"attributes":{"OBJECTID":19845,"LANDMARKID":"1001200001336","LANDMARKCO":"603","LANDMARKNA":"國春大旅社","LANDMARKAD":"1001208","ADDRESS":"高雄市岡山區民有路59號","TEL":"07-6219126","COUNTYNAME":"高雄市","TOWNNAME":"岡山區","MARKTYPE":"996","Class":"6"},"geometry":{"x":120.29742383655945,"y":22.792088953843873}},{"attributes":{"OBJECTID":19846,"LANDMARKID":"1001200001337","LANDMARKCO":"603","LANDMARKNA":"愛之旅商務汽車旅館","LANDMARKAD":"1001208","ADDRESS":"高雄市岡山區岡山北路152號","TEL":"07-6245599","COUNTYNAME":"高雄市","TOWNNAME":"岡山區","MARKTYPE":"996","Class":"6"},"geometry":{"x":120.29798235495035,"y":22.812349415575145}},{"attributes":{"OBJECTID":19847,"LANDMARKID":"1001200001338","LANDMARKCO":"603","LANDMARKNA":"和源大旅社","LANDMARKAD":"1001208","ADDRESS":"高雄市岡山區岡山路390號","TEL":"07-6217143","COUNTYNAME":"高雄市","TOWNNAME":"岡山區","MARKTYPE":"996","Class":"6"},"geometry":{"x":120.29579510037343,"y":22.795009034877424}},{"attributes":{"OBJECTID":19848,"LANDMARKID":"1001200001339","LANDMARKCO":"603","LANDMARKNA":"太陽城旅館","LANDMARKAD":"1001208","ADDRESS":"高雄市岡山區岡燕路89巷26號5-7樓","TEL":"07-6221221-6","COUNTYNAME":"高雄市","TOWNNAME":"岡山區","MARKTYPE":"996","Class":"6"},"geometry":{"x":120.29802815561369,"y":22.789444614241024}},{"attributes":{"OBJECTID":19849,"LANDMARKID":"1001200001340","LANDMARKCO":"603","LANDMARKNA":"富成賓館","LANDMARKAD":"1001208","ADDRESS":"高雄市岡山區信義里大義二路289號","TEL":"07-6250789","COUNTYNAME":"高雄市","TOWNNAME":"岡山區","MARKTYPE":"996","Class":"6"},"geometry":{"x":120.28835431020686,"y":22.785201087501772}},{"attributes":{"OBJECTID":19850,"LANDMARKID":"1001200001341","LANDMARKCO":"603","LANDMARKNA":"國賓大旅社","LANDMARKAD":"1001208","ADDRESS":"高雄市岡山區前峰路77號","TEL":"07-6217126","COUNTYNAME":"高雄市","TOWNNAME":"岡山區","MARKTYPE":"996","Class":"6"},"geometry":{"x":120.28671302267135,"y":22.795977758716734}},{"attributes":{"OBJECTID":19851,"LANDMARKID":"1001200001342","LANDMARKCO":"603","LANDMARKNA":"藏玉精品旅館","LANDMARKAD":"1001208","ADDRESS":"高雄市岡山區中山北路202號","TEL":"07-6229999","COUNTYNAME":"高雄市","TOWNNAME":"岡山區","MARKTYPE":"996","Class":"6"},"geometry":{"x":120.29631248460804,"y":22.798686319680787}},{"attributes":{"OBJECTID":19852,"LANDMARKID":"1001200001343","LANDMARKCO":"603","LANDMARKNA":"光華大旅社","LANDMARKAD":"1001208","ADDRESS":"高雄市岡山區嘉新西路75號","TEL":"07-6216100","COUNTYNAME":"高雄市","TOWNNAME":"岡山區","MARKTYPE":"996","Class":"6"},"geometry":{"x":120.29399887958179,"y":22.802741409275452}},{"attributes":{"OBJECTID":19853,"LANDMARKID":"1001200001305","LANDMARKCO":"511","LANDMARKNA":"岡山夜市","LANDMARKAD":"1001208","ADDRESS":"高雄市岡山區","TEL":" ","COUNTYNAME":"高雄市","TOWNNAME":"岡山區","MARKTYPE":"995","Class":"5"},"geometry":{"x":120.29873860373146,"y":22.793573364858428}},{"attributes":{"OBJECTID":19854,"LANDMARKID":"1001200001242","LANDMARKCO":"505","LANDMARKNA":"大世界國際村","LANDMARKAD":"1001208","ADDRESS":"高雄市岡山區菜寮路15號","TEL":" ","COUNTYNAME":"高雄市","TOWNNAME":"岡山區","MARKTYPE":"995","Class":"5"},"geometry":{"x":120.34425700185929,"y":22.818919107490984}},{"attributes":{"OBJECTID":19855,"LANDMARKID":"1001200001494","LANDMARKCO":"605","LANDMARKNA":"奉天宮","LANDMARKAD":"1001208","ADDRESS":"高雄市岡山區","TEL":" ","COUNTYNAME":"高雄市","TOWNNAME":"岡山區","MARKTYPE":"996","Class":"6"},"geometry":{"x":120.34626657830266,"y":22.830588193615586}},{"attributes":{"OBJECTID":19856,"LANDMARKID":"1001200001495","LANDMARKCO":"605","LANDMARKNA":"小崗山","LANDMARKAD":"1001208","ADDRESS":"高雄市岡山區","TEL":" ","COUNTYNAME":"高雄市","TOWNNAME":"岡山區","MARKTYPE":"996","Class":"6"},"geometry":{"x":120.33401398361217,"y":22.809800832413433}},{"attributes":{"OBJECTID":19857,"LANDMARKID":"1001200000941","LANDMARKCO":"405","LANDMARKNA":"統一速邁樂加油站-旗楠加油站(中油)","LANDMARKAD":"1001210","ADDRESS":"高雄市燕巢區鳳雄村鳳東路86號","TEL":" ","COUNTYNAME":"高雄市","TOWNNAME":"燕巢區","MARKTYPE":"994","Class":"4"},"geometry":{"x":120.35658330588102,"y":22.760616194411572}},{"attributes":{"OBJECTID":19858,"LANDMARKID":"1001200000942","LANDMARKCO":"405","LANDMARKNA":"中油加油站-鳳東路","LANDMARKAD":"1001210","ADDRESS":"高雄市燕巢區鳳雄村鳳東路77號","TEL":"07-6151778","COUNTYNAME":"高雄市","TOWNNAME":"燕巢區","MARKTYPE":"994","Class":"4"},"geometry":{"x":120.35729333532271,"y":22.76018505363939}},{"attributes":{"OBJECTID":19859,"LANDMARKID":"1001200000943","LANDMARKCO":"405","LANDMARKNA":"中油加油站-燕巢站","LANDMARKAD":"1001210","ADDRESS":"高雄市安招路730號","TEL":"07-6168226","COUNTYNAME":"高雄市","TOWNNAME":"燕巢區","MARKTYPE":"994","Class":"4"},"geometry":{"x":120.32537775372681,"y":22.789345632321851}},{"attributes":{"OBJECTID":19860,"LANDMARKID":"1001200000944","LANDMARKCO":"405","LANDMARKNA":"中油加油站-燕巢站","LANDMARKAD":"1001210","ADDRESS":"高雄市燕巢區南燕村中興路199號","TEL":"07-6161704","COUNTYNAME":"高雄市","TOWNNAME":"燕巢區","MARKTYPE":"994","Class":"4"},"geometry":{"x":120.36270720617586,"y":22.786799993763143}},{"attributes":{"OBJECTID":19861,"LANDMARKID":"1001200000945","LANDMARKCO":"405","LANDMARKNA":"中油加油站-永全站","LANDMARKAD":"1001210","ADDRESS":"高雄市燕巢區安招路1044號","TEL":"07-6165222","COUNTYNAME":"高雄市","TOWNNAME":"燕巢區","MARKTYPE":"994","Class":"4"},"geometry":{"x":120.31711803203488,"y":22.787108982507736}},{"attributes":{"OBJECTID":19862,"LANDMARKID":"1001200000946","LANDMARKCO":"405","LANDMARKNA":"山隆加油站-岡山站(中油)","LANDMARKAD":"1001210","ADDRESS":"高雄市燕巢區安招村安招路683號","TEL":"07-6163078","COUNTYNAME":"高雄市","TOWNNAME":"燕巢區","MARKTYPE":"994","Class":"4"},"geometry":{"x":120.3245511521099,"y":22.788719911720996}},{"attributes":{"OBJECTID":19863,"LANDMARKID":"1001200000947","LANDMARKCO":"405","LANDMARKNA":"統一速邁樂加油站-燕巢加油站(中油)","LANDMARKAD":"1001210","ADDRESS":"高雄市燕巢區安北路25號","TEL":" ","COUNTYNAME":"高雄市","TOWNNAME":"燕巢區","MARKTYPE":"994","Class":"4"},"geometry":{"x":120.35015123211022,"y":22.79182866606596}},{"attributes":{"OBJECTID":19864,"LANDMARKID":"1001200000948","LANDMARKCO":"405","LANDMARKNA":"中油加油站-建元站","LANDMARKAD":"1001210","ADDRESS":"高雄市燕巢區安招路456之1號","TEL":"07-6163317","COUNTYNAME":"高雄市","TOWNNAME":"燕巢區","MARKTYPE":"994","Class":"4"},"geometry":{"x":120.33162599433015,"y":22.789505538769269}},{"attributes":{"OBJECTID":19865,"LANDMARKID":"1001200000749","LANDMARKCO":"401","LANDMARKNA":"財團法人義大醫院","LANDMARKAD":"1001210","ADDRESS":"高雄市燕巢區義大路1號","TEL":"07-6150011","COUNTYNAME":"高雄市","TOWNNAME":"燕巢區","MARKTYPE":"994","Class":"4"},"geometry":{"x":120.36443605607842,"y":22.765423305447534}},{"attributes":{"OBJECTID":19866,"LANDMARKID":"1001200000750","LANDMARKCO":"401","LANDMARKNA":"靜和醫院燕巢分院","LANDMARKAD":"1001210","ADDRESS":"高雄市燕巢區深水村深水路3之20號","TEL":"07-6156555","COUNTYNAME":"高雄市","TOWNNAME":"燕巢區","MARKTYPE":"994","Class":"4"},"geometry":{"x":120.4137420738176,"y":22.781802661840103}},{"attributes":{"OBJECTID":19867,"LANDMARKID":"1001200001081","LANDMARKCO":"408","LANDMARKNA":"郵局-燕巢郵局","LANDMARKAD":"1001210","ADDRESS":"高雄市燕巢區南燕村中民路621號","TEL":"(07)6161-164","COUNTYNAME":"高雄市","TOWNNAME":"燕巢區","MARKTYPE":"994","Class":"4"},"geometry":{"x":120.36086566119897,"y":22.7932412335668}},{"attributes":{"OBJECTID":19868,"LANDMARKID":"1001200001082","LANDMARKCO":"408","LANDMARKNA":"郵局-燕巢鳳山厝郵局","LANDMARKAD":"1001210","ADDRESS":"高雄市燕巢區鳳雄村鳳旗路39號","TEL":"(07)6153-670","COUNTYNAME":"高雄市","TOWNNAME":"燕巢區","MARKTYPE":"994","Class":"4"},"geometry":{"x":120.35700234072246,"y":22.755268897360001}},{"attributes":{"OBJECTID":19869,"LANDMARKID":"1001200001083","LANDMARKCO":"408","LANDMARKNA":"郵局-燕巢義大醫院郵局","LANDMARKAD":"1001210","ADDRESS":"高雄市燕巢區中民路621號","TEL":"07-6154282","COUNTYNAME":"高雄市","TOWNNAME":"燕巢區","MARKTYPE":"994","Class":"4"},"geometry":{"x":120.36084168528593,"y":22.793236137262774}},{"attributes":{"OBJECTID":19870,"LANDMARKID":"1001200001177","LANDMARKCO":"409","LANDMARKNA":"高雄市燕巢區農會","LANDMARKAD":"1001210","ADDRESS":"高雄市燕巢區南燕村中民路577號","TEL":"07-6162211","COUNTYNAME":"高雄市","TOWNNAME":"燕巢區","MARKTYPE":"994","Class":"4"},"geometry":{"x":120.36189640266716,"y":22.793141104251454}},{"attributes":{"OBJECTID":19871,"LANDMARKID":"1001200001178","LANDMARKCO":"409","LANDMARKNA":"燕巢農會-安招辦事處","LANDMARKAD":"1001210","ADDRESS":"高雄市燕巢區安西路二巷33號","TEL":"07-616-42","COUNTYNAME":"高雄市","TOWNNAME":"燕巢區","MARKTYPE":"994","Class":"4"},"geometry":{"x":120.34007656004346,"y":22.790434982822344}},{"attributes":{"OBJECTID":19872,"LANDMARKID":"1001200001179","LANDMARKCO":"409","LANDMARKNA":"燕巢農會-深水辦事處","LANDMARKAD":"1001210","ADDRESS":"高雄市燕巢區深興路152號","TEL":"07-615-21","COUNTYNAME":"高雄市","TOWNNAME":"燕巢區","MARKTYPE":"994","Class":"4"},"geometry":{"x":120.3880686094956,"y":22.771999582469764}},{"attributes":{"OBJECTID":19873,"LANDMARKID":"1001200001180","LANDMARKCO":"409","LANDMARKNA":"燕巢農會-鳳雄辦事處","LANDMARKAD":"1001210","ADDRESS":"高雄市燕巢區鳳旗路207號","TEL":"07-615-34","COUNTYNAME":"高雄市","TOWNNAME":"燕巢區","MARKTYPE":"994","Class":"4"},"geometry":{"x":120.35509892153976,"y":22.753220454345396}},{"attributes":{"OBJECTID":19874,"LANDMARKID":"1001200001020","LANDMARKCO":"406","LANDMARKNA":"石頭公園","LANDMARKAD":"1001210","ADDRESS":"高雄市燕巢區","TEL":" ","COUNTYNAME":"高雄市","TOWNNAME":"燕巢區","MARKTYPE":"994","Class":"4"},"geometry":{"x":120.36217694959682,"y":22.798512798413686}},{"attributes":{"OBJECTID":19875,"LANDMARKID":"1001200000949","LANDMARKCO":"405","LANDMARKNA":"福懋加油站-燕巢站(台塑)","LANDMARKAD":"1001210","ADDRESS":"高雄市燕巢區安招村安北路50號","TEL":"07-6141478","COUNTYNAME":"高雄市","TOWNNAME":"燕巢區","MARKTYPE":"994","Class":"4"},"geometry":{"x":120.35071106745986,"y":22.792697882736565}},{"attributes":{"OBJECTID":19876,"LANDMARKID":"1001200000181","LANDMARKCO":"107","LANDMARKNA":"高雄市政府警察局鳳雄派出所","LANDMARKAD":"1001210","ADDRESS":"高雄市燕巢區鳳旗路171號","TEL":"07-6153054","COUNTYNAME":"高雄市","TOWNNAME":"燕巢區","MARKTYPE":"991","Class":"1"},"geometry":{"x":120.35484047046862,"y":22.753398600531206}},{"attributes":{"OBJECTID":19877,"LANDMARKID":"1001200000016","LANDMARKCO":"101","LANDMARKNA":"水利署南區水資源局阿公店水庫","LANDMARKAD":"1001210","ADDRESS":"高雄市燕巢區工程路1號","TEL":"07-6165641","COUNTYNAME":"高雄市","TOWNNAME":"燕巢區","MARKTYPE":"991","Class":"1"},"geometry":{"x":120.35568621397658,"y":22.805500711290215}},{"attributes":{"OBJECTID":19878,"LANDMARKID":"1001200000180","LANDMARKCO":"107","LANDMARKNA":"高雄市政府警察局燕巢分駐所","LANDMARKAD":"1001210","ADDRESS":"高雄市燕巢區中民路585號","TEL":"07-6161402","COUNTYNAME":"高雄市","TOWNNAME":"燕巢區","MARKTYPE":"991","Class":"1"},"geometry":{"x":120.36155500192552,"y":22.793153665046376}},{"attributes":{"OBJECTID":19879,"LANDMARKID":"1001200000294","LANDMARKCO":"108","LANDMARKNA":"高雄市燕巢區公所","LANDMARKAD":"1001210","ADDRESS":"高雄市燕巢區中民路592號","TEL":"07-6161411","COUNTYNAME":"高雄市","TOWNNAME":"燕巢區","MARKTYPE":"991","Class":"1"},"geometry":{"x":120.36181628166369,"y":22.793336371550183}},{"attributes":{"OBJECTID":19880,"LANDMARKID":"1001200000061","LANDMARKCO":"103","LANDMARKNA":"高雄市燕巢區衛生所","LANDMARKAD":"1001210","ADDRESS":"高雄市燕巢區南燕村中興路2號","TEL":"07-6161148","COUNTYNAME":"高雄市","TOWNNAME":"燕巢區","MARKTYPE":"991","Class":"1"},"geometry":{"x":120.3618772389359,"y":22.793065936529203}},{"attributes":{"OBJECTID":19881,"LANDMARKID":"1001200000062","LANDMARKCO":"103","LANDMARKNA":"高雄市燕巢區鄉民代表會","LANDMARKAD":"1001210","ADDRESS":"高雄市燕巢區中興路431號","TEL":"07-6161549","COUNTYNAME":"高雄市","TOWNNAME":"燕巢區","MARKTYPE":"991","Class":"1"},"geometry":{"x":120.36196701097269,"y":22.782049343210325}},{"attributes":{"OBJECTID":19882,"LANDMARKID":"1001200000179","LANDMARKCO":"107","LANDMARKNA":"高雄市消防局燕巢消防分隊","LANDMARKAD":"1001210","ADDRESS":"高雄市燕巢區中興路429號","TEL":"07-6162595","COUNTYNAME":"高雄市","TOWNNAME":"燕巢區","MARKTYPE":"991","Class":"1"},"geometry":{"x":120.36201309253212,"y":22.792073641079519}},{"attributes":{"OBJECTID":19883,"LANDMARKID":"1001200000136","LANDMARKCO":"106","LANDMARKNA":"高雄市燕巢區戶政事務所","LANDMARKAD":"1001210","ADDRESS":"高雄市燕巢區南燕村14鄰中民路585之1號","TEL":"07-6161194","COUNTYNAME":"高雄市","TOWNNAME":"燕巢區","MARKTYPE":"991","Class":"1"},"geometry":{"x":120.36200300869037,"y":22.793157250225828}},{"attributes":{"OBJECTID":19884,"LANDMARKID":"1001200000178","LANDMARKCO":"107","LANDMARKNA":"高雄市政府警察局深水派出所","LANDMARKAD":"1001210","ADDRESS":"高雄市燕巢區深興路88號","TEL":"07-6152054","COUNTYNAME":"高雄市","TOWNNAME":"燕巢區","MARKTYPE":"991","Class":"1"},"geometry":{"x":120.38989784223385,"y":22.772496222096436}},{"attributes":{"OBJECTID":19885,"LANDMARKID":"1001200000060","LANDMARKCO":"103","LANDMARKNA":"高雄市政府社會局仁愛之家","LANDMARKAD":"1001210","ADDRESS":"高雄市燕巢區深水村深水路1號","TEL":"07-6152611","COUNTYNAME":"高雄市","TOWNNAME":"燕巢區","MARKTYPE":"991","Class":"1"},"geometry":{"x":120.41594381396328,"y":22.781718306357323}},{"attributes":{"OBJECTID":19886,"LANDMARKID":"1001200000017","LANDMARKCO":"101","LANDMARKNA":"國軍退除役官兵輔導委員會","LANDMARKAD":"1001210","ADDRESS":"高雄市燕巢區成功路1號","TEL":"07-6161214","COUNTYNAME":"高雄市","TOWNNAME":"燕巢區","MARKTYPE":"991","Class":"1"},"geometry":{"x":120.3621464637492,"y":22.786475745655316}},{"attributes":{"OBJECTID":19887,"LANDMARKID":"1001200000018","LANDMARKCO":"101","LANDMARKNA":"臺灣高雄第二監獄","LANDMARKAD":"1001210","ADDRESS":"高雄市燕巢區正德新村1號","TEL":"07-6152646","COUNTYNAME":"高雄市","TOWNNAME":"燕巢區","MARKTYPE":"991","Class":"1"},"geometry":{"x":120.37017545482878,"y":22.760498264019162}},{"attributes":{"OBJECTID":19888,"LANDMARKID":"1001200000586","LANDMARKCO":"204","LANDMARKNA":"高雄市立圖書館燕巢分館","LANDMARKAD":"1001210","ADDRESS":"高雄市燕巢區西燕村中民路592號3樓","TEL":" ","COUNTYNAME":"高雄市","TOWNNAME":"燕巢區","MARKTYPE":"992","Class":"2"},"geometry":{"x":120.36209317055437,"y":22.793399426217871}},{"attributes":{"OBJECTID":19889,"LANDMARKID":"1001200000441","LANDMARKCO":"203","LANDMARKNA":"縣立燕巢國中","LANDMARKAD":"1001210","ADDRESS":"高雄市燕巢區中興路267號","TEL":"07-6161267","COUNTYNAME":"高雄市","TOWNNAME":"燕巢區","MARKTYPE":"992","Class":"2"},"geometry":{"x":120.36304513912809,"y":22.785850825354444}},{"attributes":{"OBJECTID":19890,"LANDMARKID":"1001200000442","LANDMARKCO":"203","LANDMARKNA":"縣立安招國小","LANDMARKAD":"1001210","ADDRESS":"高雄市燕巢區瓊林村安招路170號","TEL":"07-6162553","COUNTYNAME":"高雄市","TOWNNAME":"燕巢區","MARKTYPE":"992","Class":"2"},"geometry":{"x":120.33782401302709,"y":22.791256164298552}},{"attributes":{"OBJECTID":19891,"LANDMARKID":"1001200000443","LANDMARKCO":"203","LANDMARKNA":"縣立鳳雄國小","LANDMARKAD":"1001210","ADDRESS":"高雄市燕巢區鳳雄村鳳加路52號","TEL":"07-6153782","COUNTYNAME":"高雄市","TOWNNAME":"燕巢區","MARKTYPE":"992","Class":"2"},"geometry":{"x":120.3581339547825,"y":22.753142984278778}},{"attributes":{"OBJECTID":19892,"LANDMARKID":"1001200000444","LANDMARKCO":"203","LANDMARKNA":"縣立燕巢國小","LANDMARKAD":"1001210","ADDRESS":"高雄市燕巢區東燕村中華路177號","TEL":"07-6161495","COUNTYNAME":"高雄市","TOWNNAME":"燕巢區","MARKTYPE":"992","Class":"2"},"geometry":{"x":120.36587543998347,"y":22.794983131687776}},{"attributes":{"OBJECTID":19893,"LANDMARKID":"1001200000445","LANDMARKCO":"203","LANDMARKNA":"縣立橫山國小","LANDMARKAD":"1001210","ADDRESS":"高雄市燕巢區橫山村橫山路24號","TEL":"07-6152479","COUNTYNAME":"高雄市","TOWNNAME":"燕巢區","MARKTYPE":"992","Class":"2"},"geometry":{"x":120.37981035619318,"y":22.768487948550508}},{"attributes":{"OBJECTID":19894,"LANDMARKID":"1001200000446","LANDMARKCO":"203","LANDMARKNA":"縣立金山國小","LANDMARKAD":"1001210","ADDRESS":"高雄市燕巢區金山村番田路29號","TEL":"07-6164328","COUNTYNAME":"高雄市","TOWNNAME":"燕巢區","MARKTYPE":"992","Class":"2"},"geometry":{"x":120.3980618086598,"y":22.81153882040773}},{"attributes":{"OBJECTID":19895,"LANDMARKID":"1001200000447","LANDMARKCO":"203","LANDMARKNA":"縣立深水國小","LANDMARKAD":"1001210","ADDRESS":"高雄市燕巢區深水村深中路2號","TEL":"07-6152447","COUNTYNAME":"高雄市","TOWNNAME":"燕巢區","MARKTYPE":"992","Class":"2"},"geometry":{"x":120.40504096350135,"y":22.77725394837903}},{"attributes":{"OBJECTID":19896,"LANDMARKID":"1001200000309","LANDMARKCO":"201","LANDMARKNA":"樹德科技大學","LANDMARKAD":"1001210","ADDRESS":"高雄市燕巢區橫山路59號","TEL":"07-6158000","COUNTYNAME":"高雄市","TOWNNAME":"燕巢區","MARKTYPE":"992","Class":"2"},"geometry":{"x":120.37535863250491,"y":22.764039050588526}},{"attributes":{"OBJECTID":19897,"LANDMARKID":"1001200000435","LANDMARKCO":"203","LANDMARKNA":"縣立燕巢國小尖山分校","LANDMARKAD":"1001210","ADDRESS":"高雄市燕巢區","TEL":" ","COUNTYNAME":"高雄市","TOWNNAME":"燕巢區","MARKTYPE":"992","Class":"2"},"geometry":{"x":120.3667433973188,"y":22.812678912240674}},{"attributes":{"OBJECTID":19898,"LANDMARKID":"1001200000711","LANDMARKCO":"308","LANDMARKNA":"國3-燕巢系統交流道-北上","LANDMARKAD":"1001210","ADDRESS":"高雄市燕巢區","TEL":" ","COUNTYNAME":"高雄市","TOWNNAME":"燕巢區","MARKTYPE":"993","Class":"308"},"geometry":{"x":120.42748496961643,"y":22.786855843761654}},{"attributes":{"OBJECTID":19899,"LANDMARKID":"1001200000712","LANDMARKCO":"308","LANDMARKNA":"國3-燕巢系統交流道-南下","LANDMARKAD":"1001210","ADDRESS":"高雄市燕巢區","TEL":" ","COUNTYNAME":"高雄市","TOWNNAME":"燕巢區","MARKTYPE":"993","Class":"308"},"geometry":{"x":120.42752594194786,"y":22.780072893938858}},{"attributes":{"OBJECTID":19900,"LANDMARKID":"1001200000713","LANDMARKCO":"308","LANDMARKNA":"國3-燕巢系統交流道-南下","LANDMARKAD":"1001210","ADDRESS":"高雄市燕巢區","TEL":" ","COUNTYNAME":"高雄市","TOWNNAME":"燕巢區","MARKTYPE":"993","Class":"308"},"geometry":{"x":120.42464517139199,"y":22.782363942970655}},{"attributes":{"OBJECTID":19901,"LANDMARKID":"1001200000714","LANDMARKCO":"308","LANDMARKNA":"國3-燕巢系統交流道-北上","LANDMARKAD":"1001210","ADDRESS":"高雄市燕巢區","TEL":" ","COUNTYNAME":"高雄市","TOWNNAME":"燕巢區","MARKTYPE":"993","Class":"308"},"geometry":{"x":120.42594849161358,"y":22.790377382267057}},{"attributes":{"OBJECTID":19902,"LANDMARKID":"1001200000715","LANDMARKCO":"308","LANDMARKNA":"國1-岡山交流道-北上","LANDMARKAD":"1001210","ADDRESS":"高雄市燕巢區","TEL":" ","COUNTYNAME":"高雄市","TOWNNAME":"燕巢區","MARKTYPE":"993","Class":"308"},"geometry":{"x":120.32036709854263,"y":22.789826814986537}},{"attributes":{"OBJECTID":19903,"LANDMARKID":"1001200000716","LANDMARKCO":"308","LANDMARKNA":"國10-燕巢交流道-北上","LANDMARKAD":"1001210","ADDRESS":"高雄市燕巢區","TEL":" ","COUNTYNAME":"高雄市","TOWNNAME":"燕巢區","MARKTYPE":"993","Class":"308"},"geometry":{"x":120.37265780688483,"y":22.756582208191364}},{"attributes":{"OBJECTID":19904,"LANDMARKID":"1001200000717","LANDMARKCO":"308","LANDMARKNA":"國1-岡山交流道-南下","LANDMARKAD":"1001210","ADDRESS":"高雄市燕巢區","TEL":" ","COUNTYNAME":"高雄市","TOWNNAME":"燕巢區","MARKTYPE":"993","Class":"308"},"geometry":{"x":120.32120259781016,"y":22.785369424460541}},{"attributes":{"OBJECTID":19905,"LANDMARKID":"1001200000718","LANDMARKCO":"308","LANDMARKNA":"國10-燕巢交流道-南下","LANDMARKAD":"1001210","ADDRESS":"高雄市燕巢區","TEL":" ","COUNTYNAME":"高雄市","TOWNNAME":"燕巢區","MARKTYPE":"993","Class":"308"},"geometry":{"x":120.3691856901395,"y":22.755401352524551}},{"attributes":{"OBJECTID":19906,"LANDMARKID":"1001200000620","LANDMARKCO":"302","LANDMARKNA":"統聯汽車客運高雄崗山站","LANDMARKAD":"1001210","ADDRESS":"高雄市燕巢區安招路834號","TEL":" ","COUNTYNAME":"高雄市","TOWNNAME":"燕巢區","MARKTYPE":"993","Class":"302"},"geometry":{"x":120.31898797364818,"y":22.787971724286564}},{"attributes":{"OBJECTID":19907,"LANDMARKID":"1001200001233","LANDMARKCO":"503","LANDMARKNA":"阿公店水庫","LANDMARKAD":"1001210","ADDRESS":"高雄市燕巢區工程路9號","TEL":"07-6165641","COUNTYNAME":"高雄市","TOWNNAME":"燕巢區","MARKTYPE":"995","Class":"5"},"geometry":{"x":120.35573772564994,"y":22.803234884501432}},{"attributes":{"OBJECTID":19908,"LANDMARKID":"1001200001234","LANDMARKCO":"503","LANDMARKNA":"崎溜瀑布","LANDMARKAD":"1001210","ADDRESS":"高雄市燕巢區","TEL":" ","COUNTYNAME":"高雄市","TOWNNAME":"燕巢區","MARKTYPE":"995","Class":"5"},"geometry":{"x":120.38925077040383,"y":22.792523957336059}},{"attributes":{"OBJECTID":19909,"LANDMARKID":"1001200000952","LANDMARKCO":"405","LANDMARKNA":"山隆加油站-永發站(中油)","LANDMARKAD":"1001217","ADDRESS":"高雄市彌陀區鹽埕村鹽埕大路160號","TEL":"(07)610-6682","COUNTYNAME":"高雄市","TOWNNAME":"彌陀區","MARKTYPE":"994","Class":"4"},"geometry":{"x":120.24538487144277,"y":22.790848224541605}},{"attributes":{"OBJECTID":19910,"LANDMARKID":"1001200000953","LANDMARKCO":"405","LANDMARKNA":"中油加油站-南寮站","LANDMARKAD":"1001217","ADDRESS":"高雄市彌陀區南寮村漁港路73號","TEL":"07-6109661","COUNTYNAME":"高雄市","TOWNNAME":"彌陀區","MARKTYPE":"994","Class":"4"},"geometry":{"x":120.23749256629948,"y":22.764162258000916}},{"attributes":{"OBJECTID":19911,"LANDMARKID":"1001200001084","LANDMARKCO":"408","LANDMARKNA":"郵局-彌陀郵局","LANDMARKAD":"1001217","ADDRESS":"高雄市彌陀區彌陀村中正路7號","TEL":"(07)6178-124","COUNTYNAME":"高雄市","TOWNNAME":"彌陀區","MARKTYPE":"994","Class":"4"},"geometry":{"x":120.24977144243458,"y":22.779343070753328}},{"attributes":{"OBJECTID":19912,"LANDMARKID":"1001200001173","LANDMARKCO":"409","LANDMARKNA":"高雄市彌陀區農會","LANDMARKAD":"1001217","ADDRESS":"高雄市彌陀區彌仁村中華路2號","TEL":"07-6171311-4","COUNTYNAME":"高雄市","TOWNNAME":"彌陀區","MARKTYPE":"994","Class":"4"},"geometry":{"x":120.25139641173411,"y":22.781693246780062}},{"attributes":{"OBJECTID":19913,"LANDMARKID":"1001200001174","LANDMARKCO":"409","LANDMARKNA":"彌陀區漁會","LANDMARKAD":"1001217","ADDRESS":"高雄市彌陀區澳港一路60號","TEL":"07-6191157","COUNTYNAME":"高雄市","TOWNNAME":"彌陀區","MARKTYPE":"994","Class":"4"},"geometry":{"x":120.24985570379152,"y":22.779295467369117}},{"attributes":{"OBJECTID":19914,"LANDMARKID":"1001200001175","LANDMARKCO":"409","LANDMARKNA":"彌陀農會-壽齡分部","LANDMARKAD":"1001217","ADDRESS":"高雄市彌陀區舊港村舊港路東段28號","TEL":"07-619-62","COUNTYNAME":"高雄市","TOWNNAME":"彌陀區","MARKTYPE":"994","Class":"4"},"geometry":{"x":120.23279778847018,"y":22.795911867884758}},{"attributes":{"OBJECTID":19915,"LANDMARKID":"1001200001176","LANDMARKCO":"409","LANDMARKNA":"彌陀農會-南安分部","LANDMARKAD":"1001217","ADDRESS":"高雄市彌陀區漯底村樂安路2號","TEL":"07-617-50","COUNTYNAME":"高雄市","TOWNNAME":"彌陀區","MARKTYPE":"994","Class":"4"},"geometry":{"x":120.24258255393327,"y":22.763186413452022}},{"attributes":{"OBJECTID":19916,"LANDMARKID":"1001200001021","LANDMARKCO":"406","LANDMARKNA":"彌陀海濱公園","LANDMARKAD":"1001217","ADDRESS":"高雄市彌陀區","TEL":" ","COUNTYNAME":"高雄市","TOWNNAME":"彌陀區","MARKTYPE":"994","Class":"4"},"geometry":{"x":120.21803378667605,"y":22.802468749377166}},{"attributes":{"OBJECTID":19917,"LANDMARKID":"1001200000063","LANDMARKCO":"103","LANDMARKNA":"高雄市彌陀區衛生所","LANDMARKAD":"1001217","ADDRESS":"高雄市彌陀區中華路1巷5弄1","TEL":"07-6175307","COUNTYNAME":"高雄市","TOWNNAME":"彌陀區","MARKTYPE":"991","Class":"1"},"geometry":{"x":120.25043887608506,"y":22.7809308980301}},{"attributes":{"OBJECTID":19918,"LANDMARKID":"1001200000064","LANDMARKCO":"103","LANDMARKNA":"高雄市彌陀區鄉民代表會","LANDMARKAD":"1001217","ADDRESS":"高雄市彌陀區彌仁村中華路1巷5弄2號","TEL":"07-6107914","COUNTYNAME":"高雄市","TOWNNAME":"彌陀區","MARKTYPE":"991","Class":"1"},"geometry":{"x":120.25192867719716,"y":22.781847948449336}},{"attributes":{"OBJECTID":19919,"LANDMARKID":"1001200000183","LANDMARKCO":"107","LANDMARKNA":"高雄市消防局彌陀消防分隊","LANDMARKAD":"1001217","ADDRESS":"高雄市彌陀區中正北路7號","TEL":"07-6100890","COUNTYNAME":"高雄市","TOWNNAME":"彌陀區","MARKTYPE":"991","Class":"1"},"geometry":{"x":120.24636926732781,"y":22.783989125766261}},{"attributes":{"OBJECTID":19920,"LANDMARKID":"1001200000184","LANDMARKCO":"107","LANDMARKNA":"高雄市政府警察局彌陀分駐所","LANDMARKAD":"1001217","ADDRESS":"高雄市彌陀區中華路16號","TEL":"07-6176405","COUNTYNAME":"高雄市","TOWNNAME":"彌陀區","MARKTYPE":"991","Class":"1"},"geometry":{"x":120.24938992588987,"y":22.781566264135719}},{"attributes":{"OBJECTID":19921,"LANDMARKID":"1001200000135","LANDMARKCO":"106","LANDMARKNA":"高雄市彌陀區戶政事務所","LANDMARKAD":"1001217","ADDRESS":"高雄市彌陀區彌仁村10鄰中華路16號","TEL":"07-6177597","COUNTYNAME":"高雄市","TOWNNAME":"彌陀區","MARKTYPE":"991","Class":"1"},"geometry":{"x":120.25062870333258,"y":22.781384214709536}},{"attributes":{"OBJECTID":19922,"LANDMARKID":"1001200000293","LANDMARKCO":"108","LANDMARKNA":"高雄市彌陀區公所","LANDMARKAD":"1001217","ADDRESS":"高雄市彌陀區中華路4號","TEL":"07-6191216","COUNTYNAME":"高雄市","TOWNNAME":"彌陀區","MARKTYPE":"991","Class":"1"},"geometry":{"x":120.25192867719716,"y":22.781847948449336}},{"attributes":{"OBJECTID":19923,"LANDMARKID":"1001200000182","LANDMARKCO":"107","LANDMARKNA":"高雄市政府警察局舊港派出所","LANDMARKAD":"1001217","ADDRESS":"高雄市彌陀區舊港橫巷1號","TEL":"07-6196994","COUNTYNAME":"高雄市","TOWNNAME":"彌陀區","MARKTYPE":"991","Class":"1"},"geometry":{"x":120.23119794035529,"y":22.799443069527776}},{"attributes":{"OBJECTID":19924,"LANDMARKID":"1001200000587","LANDMARKCO":"204","LANDMARKNA":"高雄市立圖書館彌陀分館","LANDMARKAD":"1001217","ADDRESS":"高雄市彌陀區漯底村四維路1之1號","TEL":" ","COUNTYNAME":"高雄市","TOWNNAME":"彌陀區","MARKTYPE":"992","Class":"2"},"geometry":{"x":120.24502256421859,"y":22.762514732931677}},{"attributes":{"OBJECTID":19925,"LANDMARKID":"1001200000436","LANDMARKCO":"203","LANDMARKNA":"縣立彌陀國中","LANDMARKAD":"1001217","ADDRESS":"高雄市彌陀區海尾村進學路136號","TEL":"07-6179318","COUNTYNAME":"高雄市","TOWNNAME":"彌陀區","MARKTYPE":"992","Class":"2"},"geometry":{"x":120.24629673302464,"y":22.776673811640038}},{"attributes":{"OBJECTID":19926,"LANDMARKID":"1001200000437","LANDMARKCO":"203","LANDMARKNA":"縣立壽齡國小","LANDMARKAD":"1001217","ADDRESS":"高雄市彌陀區文安村國校路1號","TEL":"07-6196425","COUNTYNAME":"高雄市","TOWNNAME":"彌陀區","MARKTYPE":"992","Class":"2"},"geometry":{"x":120.23420713128655,"y":22.795485240751638}},{"attributes":{"OBJECTID":19927,"LANDMARKID":"1001200000438","LANDMARKCO":"203","LANDMARKNA":"縣立南安國小","LANDMARKAD":"1001217","ADDRESS":"高雄市彌陀區漯底村樂安路1號","TEL":"07-6191810","COUNTYNAME":"高雄市","TOWNNAME":"彌陀區","MARKTYPE":"992","Class":"2"},"geometry":{"x":120.24469548049964,"y":22.763022704911929}},{"attributes":{"OBJECTID":19928,"LANDMARKID":"1001200000439","LANDMARKCO":"203","LANDMARKNA":"縣立彌陀國小","LANDMARKAD":"1001217","ADDRESS":"高雄市彌陀區彌陀村中正路213號","TEL":"07-6176300","COUNTYNAME":"高雄市","TOWNNAME":"彌陀區","MARKTYPE":"992","Class":"2"},"geometry":{"x":120.24714155832046,"y":22.783725497159516}},{"attributes":{"OBJECTID":19929,"LANDMARKID":"1001200000440","LANDMARKCO":"203","LANDMARKNA":"縣立筧橋國小","LANDMARKAD":"1001217","ADDRESS":"高雄市彌陀區","TEL":" ","COUNTYNAME":"高雄市","TOWNNAME":"彌陀區","MARKTYPE":"992","Class":"2"},"geometry":{"x":120.25620979492582,"y":22.773553942952226}},{"attributes":{"OBJECTID":19930,"LANDMARKID":"1001200000950","LANDMARKCO":"405","LANDMARKNA":"中油加油站-橋頭站","LANDMARKAD":"1001209","ADDRESS":"高雄市橋頭區橋頭村成功北路15號","TEL":"07-6113644","COUNTYNAME":"高雄市","TOWNNAME":"橋頭區","MARKTYPE":"994","Class":"4"},"geometry":{"x":120.30819032418077,"y":22.762436487318269}},{"attributes":{"OBJECTID":19931,"LANDMARKID":"1001200000951","LANDMARKCO":"405","LANDMARKNA":"台糖加油站-白埔站(中油)","LANDMARKAD":"1001209","ADDRESS":"高雄市橋頭區三德村芋寮路412號","TEL":" ","COUNTYNAME":"高雄市","TOWNNAME":"橋頭區","MARKTYPE":"994","Class":"4"},"geometry":{"x":120.29556670586787,"y":22.756783004187501}},{"attributes":{"OBJECTID":19932,"LANDMARKID":"1001200000748","LANDMARKCO":"401","LANDMARKNA":"泰和醫院","LANDMARKAD":"1001209","ADDRESS":"高雄市橋頭區成功路101號","TEL":"07-6111128","COUNTYNAME":"高雄市","TOWNNAME":"橋頭區","MARKTYPE":"994","Class":"4"},"geometry":{"x":120.31003182437831,"y":22.757635292595506}},{"attributes":{"OBJECTID":19933,"LANDMARKID":"1001200001267","LANDMARKCO":"507","LANDMARKNA":"橋仔頭糖廠","LANDMARKAD":"1001209","ADDRESS":"高雄市橋頭區興糖村興糖路247號","TEL":" ","COUNTYNAME":"高雄市","TOWNNAME":"橋頭區","MARKTYPE":"995","Class":"5"},"geometry":{"x":120.3161740467396,"y":22.753475789880614}},{"attributes":{"OBJECTID":19934,"LANDMARKID":"1001200001085","LANDMARKCO":"408","LANDMARKNA":"郵局-橋頭郵局","LANDMARKAD":"1001209","ADDRESS":"高雄市橋頭區橋頭村橋頭路113號","TEL":"(07)6113-602","COUNTYNAME":"高雄市","TOWNNAME":"橋頭區","MARKTYPE":"994","Class":"4"},"geometry":{"x":120.31135883549385,"y":22.757583133711176}},{"attributes":{"OBJECTID":19935,"LANDMARKID":"1001200001167","LANDMARKCO":"409","LANDMARKNA":"高雄市橋頭區農會","LANDMARKAD":"1001209","ADDRESS":"高雄市橋頭區橋南村橋南路90號","TEL":"07-6116161-4","COUNTYNAME":"高雄市","TOWNNAME":"橋頭區","MARKTYPE":"994","Class":"4"},"geometry":{"x":120.3121586327559,"y":22.755082585793705}},{"attributes":{"OBJECTID":19936,"LANDMARKID":"1001200001168","LANDMARKCO":"409","LANDMARKNA":"橋頭農會-橋頭辦事處","LANDMARKAD":"1001209","ADDRESS":"高雄市橋頭區橋頭村新興路15號","TEL":"07-611-88","COUNTYNAME":"高雄市","TOWNNAME":"橋頭區","MARKTYPE":"994","Class":"4"},"geometry":{"x":120.30906926006699,"y":22.759474251251937}},{"attributes":{"OBJECTID":19937,"LANDMARKID":"1001200001169","LANDMARKCO":"409","LANDMARKNA":"橋頭農會-甲圍辦事處","LANDMARKAD":"1001209","ADDRESS":"高雄市橋頭區甲北村甲圍路48號","TEL":"07-612-22","COUNTYNAME":"高雄市","TOWNNAME":"橋頭區","MARKTYPE":"994","Class":"4"},"geometry":{"x":120.29653202465347,"y":22.742834270585838}},{"attributes":{"OBJECTID":19938,"LANDMARKID":"1001200001170","LANDMARKCO":"409","LANDMARKNA":"橋頭農會-隆豐和辦事處","LANDMARKAD":"1001209","ADDRESS":"高雄市橋頭區仕和村隆豐路280號","TEL":"07-612-39","COUNTYNAME":"高雄市","TOWNNAME":"橋頭區","MARKTYPE":"994","Class":"4"},"geometry":{"x":120.30795416723041,"y":22.752746476016917}},{"attributes":{"OBJECTID":19939,"LANDMARKID":"1001200001171","LANDMARKCO":"409","LANDMARKNA":"橋頭農會-五林辦事處","LANDMARKAD":"1001209","ADDRESS":"高雄市橋頭區東林村五林路75號","TEL":"07-612-03","COUNTYNAME":"高雄市","TOWNNAME":"橋頭區","MARKTYPE":"994","Class":"4"},"geometry":{"x":120.29388860461385,"y":22.762354907810263}},{"attributes":{"OBJECTID":19940,"LANDMARKID":"1001200001172","LANDMARKCO":"409","LANDMARKNA":"橋頭農會-白樹辦事處","LANDMARKAD":"1001209","ADDRESS":"高雄市橋頭區白樹村樹德路69號","TEL":"07-612-74","COUNTYNAME":"高雄市","TOWNNAME":"橋頭區","MARKTYPE":"994","Class":"4"},"geometry":{"x":120.30448420328817,"y":22.760465508037068}},{"attributes":{"OBJECTID":19941,"LANDMARKID":"1001200000185","LANDMARKCO":"107","LANDMARKNA":"高雄市消防局橋頭消防分隊","LANDMARKAD":"1001209","ADDRESS":"高雄市橋頭區甲樹路1168號","TEL":"07-6111495","COUNTYNAME":"高雄市","TOWNNAME":"橋頭區","MARKTYPE":"991","Class":"1"},"geometry":{"x":120.29689118475696,"y":22.741236175435336}},{"attributes":{"OBJECTID":19942,"LANDMARKID":"1001200000186","LANDMARKCO":"107","LANDMARKNA":"高雄市政府警察局甲圍派出所","LANDMARKAD":"1001209","ADDRESS":"高雄市橋頭區甲樹路1170號","TEL":"07-6110384","COUNTYNAME":"高雄市","TOWNNAME":"橋頭區","MARKTYPE":"991","Class":"1"},"geometry":{"x":120.29694078561623,"y":22.741146304915564}},{"attributes":{"OBJECTID":19943,"LANDMARKID":"1001200000292","LANDMARKCO":"108","LANDMARKNA":"高雄市橋頭區公所","LANDMARKAD":"1001209","ADDRESS":"高雄市橋頭區隆豐路1號","TEL":"07-611-0246","COUNTYNAME":"高雄市","TOWNNAME":"橋頭區","MARKTYPE":"991","Class":"1"},"geometry":{"x":120.30513660218953,"y":22.758339493022575}},{"attributes":{"OBJECTID":19944,"LANDMARKID":"1001200000134","LANDMARKCO":"106","LANDMARKNA":"高雄市橋頭區戶政事務所","LANDMARKAD":"1001209","ADDRESS":"高雄市橋頭區隆豐路3號","TEL":"07-6113430","COUNTYNAME":"高雄市","TOWNNAME":"橋頭區","MARKTYPE":"991","Class":"1"},"geometry":{"x":120.305186199375,"y":22.758249617422425}},{"attributes":{"OBJECTID":19945,"LANDMARKID":"1001200000065","LANDMARKCO":"103","LANDMARKNA":"高雄市橋頭區鄉民代表會","LANDMARKAD":"1001209","ADDRESS":"高雄市橋頭區隆豐路7號2樓","TEL":"07-6113915","COUNTYNAME":"高雄市","TOWNNAME":"橋頭區","MARKTYPE":"991","Class":"1"},"geometry":{"x":120.30522697318496,"y":22.758069357349783}},{"attributes":{"OBJECTID":19946,"LANDMARKID":"1001200000066","LANDMARKCO":"103","LANDMARKNA":"高雄市橋頭區衛生所","LANDMARKAD":"1001209","ADDRESS":"高雄市橋頭區隆豐路5號","TEL":"07-6120762","COUNTYNAME":"高雄市","TOWNNAME":"橋頭區","MARKTYPE":"991","Class":"1"},"geometry":{"x":120.30537667640722,"y":22.757709429825915}},{"attributes":{"OBJECTID":19947,"LANDMARKID":"1001200000187","LANDMARKCO":"107","LANDMARKNA":"高雄市政府警察局橋頭分駐所","LANDMARKAD":"1001209","ADDRESS":"高雄市橋頭區成功北路156號","TEL":"07-6113555","COUNTYNAME":"高雄市","TOWNNAME":"橋頭區","MARKTYPE":"991","Class":"1"},"geometry":{"x":120.31053359715189,"y":22.758091196115316}},{"attributes":{"OBJECTID":19948,"LANDMARKID":"1001200000601","LANDMARKCO":"205","LANDMARKNA":"糖業博物館","LANDMARKAD":"1001209","ADDRESS":"高雄市橋頭區橋南糖廠路24號","TEL":"07-6113691","COUNTYNAME":"高雄市","TOWNNAME":"橋頭區","MARKTYPE":"992","Class":"2"},"geometry":{"x":120.31537969264753,"y":22.75323541866215}},{"attributes":{"OBJECTID":19949,"LANDMARKID":"1001200000590","LANDMARKCO":"204","LANDMARKNA":"高雄市立圖書館橋頭分館","LANDMARKAD":"1001209","ADDRESS":"高雄市橋頭區隆豐北路7號","TEL":" ","COUNTYNAME":"高雄市","TOWNNAME":"橋頭區","MARKTYPE":"992","Class":"2"},"geometry":{"x":120.30617172781714,"y":22.757618820297413}},{"attributes":{"OBJECTID":19950,"LANDMARKID":"1001200000430","LANDMARKCO":"203","LANDMARKNA":"縣立興糖國小","LANDMARKAD":"1001209","ADDRESS":"高雄市橋頭區興糖村興糖路19巷1號","TEL":"07-6113804#10","COUNTYNAME":"高雄市","TOWNNAME":"橋頭區","MARKTYPE":"992","Class":"2"},"geometry":{"x":120.31716539104202,"y":22.750345976916094}},{"attributes":{"OBJECTID":19951,"LANDMARKID":"1001200000328","LANDMARKCO":"202","LANDMARKNA":"私立高苑工商","LANDMARKAD":"1001209","ADDRESS":"高雄市橋頭區芋寮路1號","TEL":"07-6111101","COUNTYNAME":"高雄市","TOWNNAME":"橋頭區","MARKTYPE":"992","Class":"2"},"geometry":{"x":120.29178031905555,"y":22.758451592969873}},{"attributes":{"OBJECTID":19952,"LANDMARKID":"1001200000425","LANDMARKCO":"203","LANDMARKNA":"縣立橋頭國中","LANDMARKAD":"1001209","ADDRESS":"高雄市橋頭區新興路70號","TEL":"07-6113559","COUNTYNAME":"高雄市","TOWNNAME":"橋頭區","MARKTYPE":"992","Class":"2"},"geometry":{"x":120.30679042953096,"y":22.759876930775228}},{"attributes":{"OBJECTID":19953,"LANDMARKID":"1001200000426","LANDMARKCO":"203","LANDMARKNA":"縣立五林國小","LANDMARKAD":"1001209","ADDRESS":"高雄市橋頭區東林村五林路160號","TEL":"07-6113549","COUNTYNAME":"高雄市","TOWNNAME":"橋頭區","MARKTYPE":"992","Class":"2"},"geometry":{"x":120.29323473377785,"y":22.759999705311106}},{"attributes":{"OBJECTID":19954,"LANDMARKID":"1001200000427","LANDMARKCO":"203","LANDMARKNA":"縣立甲圍國小","LANDMARKAD":"1001209","ADDRESS":"高雄市橋頭區甲北村甲昌路250號","TEL":"07-6113647","COUNTYNAME":"高雄市","TOWNNAME":"橋頭區","MARKTYPE":"992","Class":"2"},"geometry":{"x":120.29404025484601,"y":22.735443765011105}},{"attributes":{"OBJECTID":19955,"LANDMARKID":"1001200000428","LANDMARKCO":"203","LANDMARKNA":"縣立橋頭國小","LANDMARKAD":"1001209","ADDRESS":"高雄市橋頭區樹德路200號","TEL":"07-6126011","COUNTYNAME":"高雄市","TOWNNAME":"橋頭區","MARKTYPE":"992","Class":"2"},"geometry":{"x":120.30586030803205,"y":22.761765243716013}},{"attributes":{"OBJECTID":19956,"LANDMARKID":"1001200000429","LANDMARKCO":"203","LANDMARKNA":"縣立仕隆國小","LANDMARKAD":"1001209","ADDRESS":"高雄市橋頭區仕隆路進校巷16號","TEL":"07-6113517","COUNTYNAME":"高雄市","TOWNNAME":"橋頭區","MARKTYPE":"992","Class":"2"},"geometry":{"x":120.31126864436206,"y":22.750951360510069}},{"attributes":{"OBJECTID":19957,"LANDMARKID":"1001200000310","LANDMARKCO":"201","LANDMARKNA":"國立高雄第一科技大學東校區","LANDMARKAD":"1001209","ADDRESS":"高雄市燕巢區大學路1號","TEL":"07-6011000","COUNTYNAME":"高雄市","TOWNNAME":"橋頭區","MARKTYPE":"992","Class":"2"},"geometry":{"x":120.33628878177721,"y":22.75810123028311}},{"attributes":{"OBJECTID":19958,"LANDMARKID":"1001200000681","LANDMARKCO":"306","LANDMARKNA":"青埔捷運站-出口1","LANDMARKAD":"1001209","ADDRESS":" ","TEL":" ","COUNTYNAME":"高雄市","TOWNNAME":"橋頭區","MARKTYPE":"993","Class":"306"},"geometry":{"x":120.31764598435177,"y":22.743561282125487}},{"attributes":{"OBJECTID":19959,"LANDMARKID":"1001200000682","LANDMARKCO":"306","LANDMARKNA":"橋頭糖廠捷運站-出口1","LANDMARKAD":"1001209","ADDRESS":" ","TEL":" ","COUNTYNAME":"高雄市","TOWNNAME":"橋頭區","MARKTYPE":"993","Class":"306"},"geometry":{"x":120.31453657739486,"y":22.752747414062945}},{"attributes":{"OBJECTID":19960,"LANDMARKID":"1001200000683","LANDMARKCO":"306","LANDMARKNA":"橋頭糖廠捷運站-出口2","LANDMARKAD":"1001209","ADDRESS":" ","TEL":" ","COUNTYNAME":"高雄市","TOWNNAME":"橋頭區","MARKTYPE":"993","Class":"306"},"geometry":{"x":120.31481005949139,"y":22.753017050746141}},{"attributes":{"OBJECTID":19961,"LANDMARKID":"1001200000684","LANDMARKCO":"306","LANDMARKNA":"橋頭糖廠捷運站-出口3","LANDMARKAD":"1001209","ADDRESS":" ","TEL":" ","COUNTYNAME":"高雄市","TOWNNAME":"橋頭區","MARKTYPE":"993","Class":"306"},"geometry":{"x":120.31482280155193,"y":22.752895516120709}},{"attributes":{"OBJECTID":19962,"LANDMARKID":"1001200000685","LANDMARKCO":"306","LANDMARKNA":"橋頭火車捷運站-出口1","LANDMARKAD":"1001209","ADDRESS":" ","TEL":" ","COUNTYNAME":"高雄市","TOWNNAME":"橋頭區","MARKTYPE":"993","Class":"306"},"geometry":{"x":120.31154225821966,"y":22.760056791858783}},{"attributes":{"OBJECTID":19963,"LANDMARKID":"1001200000686","LANDMARKCO":"306","LANDMARKNA":"橋頭火車捷運站-出口2","LANDMARKAD":"1001209","ADDRESS":" ","TEL":" ","COUNTYNAME":"高雄市","TOWNNAME":"橋頭區","MARKTYPE":"993","Class":"306"},"geometry":{"x":120.30976813611881,"y":22.760931341564319}},{"attributes":{"OBJECTID":19964,"LANDMARKID":"1001200000613","LANDMARKCO":"301","LANDMARKNA":"橋頭火車站","LANDMARKAD":"1001209","ADDRESS":"高雄市橋頭區橋頭村站前街14號","TEL":"07-6115424","COUNTYNAME":"高雄市","TOWNNAME":"橋頭區","MARKTYPE":"993","Class":"301"},"geometry":{"x":120.31028742158188,"y":22.761014033131474}},{"attributes":{"OBJECTID":19965,"LANDMARKID":"1001200000794","LANDMARKCO":"402","LANDMARKNA":"中華電信-橋頭服務中心","LANDMARKAD":"1001209","ADDRESS":"高雄市橋頭區成功路235號","TEL":"(07)611-3500","COUNTYNAME":"高雄市","TOWNNAME":"橋頭區","MARKTYPE":"994","Class":"4"},"geometry":{"x":120.31058891242296,"y":22.756170818182341}},{"attributes":{"OBJECTID":19966,"LANDMARKID":"1001200001347","LANDMARKCO":"603","LANDMARKNA":"代迪賓館","LANDMARKAD":"1001209","ADDRESS":"高雄市橋頭區橋頭村成功路57號8-11樓","TEL":"07-6110268","COUNTYNAME":"高雄市","TOWNNAME":"橋頭區","MARKTYPE":"996","Class":"6"},"geometry":{"x":120.30935077768292,"y":22.759968469200782}},{"attributes":{"OBJECTID":19967,"LANDMARKID":"1001200001348","LANDMARKCO":"603","LANDMARKNA":"永美旅社","LANDMARKAD":"1001209","ADDRESS":"高雄市橋頭區橋頭村站前街16號","TEL":"07-6113558","COUNTYNAME":"高雄市","TOWNNAME":"橋頭區","MARKTYPE":"996","Class":"6"},"geometry":{"x":120.31028530737645,"y":22.760263508786593}},{"attributes":{"OBJECTID":19968,"LANDMARKID":"1001200001349","LANDMARKCO":"603","LANDMARKNA":"人山大旅社","LANDMARKAD":"1001209","ADDRESS":"高雄市橋頭區橋頭村橋燕路11號","TEL":"07-6123459","COUNTYNAME":"高雄市","TOWNNAME":"橋頭區","MARKTYPE":"996","Class":"6"},"geometry":{"x":120.31179744859477,"y":22.757462024757366}},{"attributes":{"OBJECTID":19969,"LANDMARKID":"1001200001350","LANDMARKCO":"603","LANDMARKNA":"香堤時尚旅館","LANDMARKAD":"1001209","ADDRESS":"高雄市橋頭區德松村鐵道北路33號","TEL":"07-6117166","COUNTYNAME":"高雄市","TOWNNAME":"橋頭區","MARKTYPE":"996","Class":"6"},"geometry":{"x":120.30566540257078,"y":22.766982543769782}},{"attributes":{"OBJECTID":19970,"LANDMARKID":"1001200000938","LANDMARKCO":"405","LANDMARKNA":"中油加油站-蚵仔寮站","LANDMARKAD":"1001218","ADDRESS":"高雄市梓官區信蚵村通港路通港巷1號","TEL":"07-6103984","COUNTYNAME":"高雄市","TOWNNAME":"梓官區","MARKTYPE":"994","Class":"4"},"geometry":{"x":120.25365353895684,"y":22.724280455825774}},{"attributes":{"OBJECTID":19971,"LANDMARKID":"1001200000939","LANDMARKCO":"405","LANDMARKNA":"中油加油站-梓官站","LANDMARKAD":"1001218","ADDRESS":"高雄市梓官區梓和村和平路317號","TEL":"07-6173555","COUNTYNAME":"高雄市","TOWNNAME":"梓官區","MARKTYPE":"994","Class":"4"},"geometry":{"x":120.2624773400492,"y":22.760147194003018}},{"attributes":{"OBJECTID":19972,"LANDMARKID":"1001200000940","LANDMARKCO":"405","LANDMARKNA":"中油加油站-向陽站","LANDMARKAD":"1001218","ADDRESS":"高雄市梓官區大舍南路92號","TEL":"07-6107628","COUNTYNAME":"高雄市","TOWNNAME":"梓官區","MARKTYPE":"994","Class":"4"},"geometry":{"x":120.26287368295993,"y":22.743031191286779}},{"attributes":{"OBJECTID":19973,"LANDMARKID":"1001200001079","LANDMARKCO":"408","LANDMARKNA":"郵局-梓官郵局","LANDMARKAD":"1001218","ADDRESS":"高雄市梓官區梓義村中崙路260號","TEL":"(07)6172-484","COUNTYNAME":"高雄市","TOWNNAME":"梓官區","MARKTYPE":"994","Class":"4"},"geometry":{"x":120.26908604141303,"y":22.761291158737691}},{"attributes":{"OBJECTID":19974,"LANDMARKID":"1001200001080","LANDMARKCO":"408","LANDMARKNA":"郵局-梓官蚵子寮郵局","LANDMARKAD":"1001218","ADDRESS":"高雄市梓官區赤東村赤崁南路14號","TEL":"(07)6101-014","COUNTYNAME":"高雄市","TOWNNAME":"梓官區","MARKTYPE":"994","Class":"4"},"geometry":{"x":120.24994159688912,"y":22.733773850282329}},{"attributes":{"OBJECTID":19975,"LANDMARKID":"1001200001181","LANDMARKCO":"409","LANDMARKNA":"高雄市梓官區農會","LANDMARKAD":"1001218","ADDRESS":"高雄市梓官區禮蚵村光明路111號","TEL":"07-6101181","COUNTYNAME":"高雄市","TOWNNAME":"梓官區","MARKTYPE":"994","Class":"4"},"geometry":{"x":120.24890566546377,"y":22.736207618454607}},{"attributes":{"OBJECTID":19976,"LANDMARKID":"1001200001182","LANDMARKCO":"409","LANDMARKNA":"梓官區漁會","LANDMARKAD":"1001218","ADDRESS":"高雄市梓官區信蚵村中正路306號","TEL":"07-6194100","COUNTYNAME":"高雄市","TOWNNAME":"梓官區","MARKTYPE":"994","Class":"4"},"geometry":{"x":120.25394230697499,"y":22.731789505117291}},{"attributes":{"OBJECTID":19977,"LANDMARKID":"1001200001183","LANDMARKCO":"409","LANDMARKNA":"梓官農會-赤崁分部","LANDMARKAD":"1001218","ADDRESS":"高雄市梓官區赤崁南路75號","TEL":"07-610-20","COUNTYNAME":"高雄市","TOWNNAME":"梓官區","MARKTYPE":"994","Class":"4"},"geometry":{"x":120.24852436063016,"y":22.736228193530145}},{"attributes":{"OBJECTID":19978,"LANDMARKID":"1001200001184","LANDMARKCO":"409","LANDMARKNA":"梓官農會-大舍分部","LANDMARKAD":"1001218","ADDRESS":"高雄市梓官區大舍南路2號","TEL":"07-617-30","COUNTYNAME":"高雄市","TOWNNAME":"梓官區","MARKTYPE":"994","Class":"4"},"geometry":{"x":120.26143449047555,"y":22.747144560984349}},{"attributes":{"OBJECTID":19979,"LANDMARKID":"1001200001185","LANDMARKCO":"409","LANDMARKNA":"梓官農會-梓官分部","LANDMARKAD":"1001218","ADDRESS":"高雄市梓官區中崙路316號","TEL":"07-617-31","COUNTYNAME":"高雄市","TOWNNAME":"梓官區","MARKTYPE":"994","Class":"4"},"geometry":{"x":120.26723388681032,"y":22.760978669228795}},{"attributes":{"OBJECTID":19980,"LANDMARKID":"1001200000966","LANDMARKCO":"405","LANDMARKNA":"台亞加油站-大舍甲站（台塑）","LANDMARKAD":"1001218","ADDRESS":"高雄市梓官區和平路2號","TEL":"(07)610-6129","COUNTYNAME":"高雄市","TOWNNAME":"梓官區","MARKTYPE":"994","Class":"4"},"geometry":{"x":120.26196959256917,"y":22.753412050360126}},{"attributes":{"OBJECTID":19981,"LANDMARKID":"1001200000188","LANDMARKCO":"107","LANDMARKNA":"高雄市政府警察局赤崁派出所","LANDMARKAD":"1001218","ADDRESS":"高雄市梓官區赤崁西路12號","TEL":"07-6101404","COUNTYNAME":"高雄市","TOWNNAME":"梓官區","MARKTYPE":"991","Class":"1"},"geometry":{"x":120.24703217664195,"y":22.73812067453613}},{"attributes":{"OBJECTID":19982,"LANDMARKID":"1001200000189","LANDMARKCO":"107","LANDMARKNA":"高雄市消防局梓官消防分隊","LANDMARKAD":"1001218","ADDRESS":"高雄市梓官區進學路136號","TEL":"07-6192894","COUNTYNAME":"高雄市","TOWNNAME":"梓官區","MARKTYPE":"991","Class":"1"},"geometry":{"x":120.26293742191822,"y":22.760406067571985}},{"attributes":{"OBJECTID":19983,"LANDMARKID":"1001200000133","LANDMARKCO":"106","LANDMARKNA":"高雄市梓官區戶政事務所","LANDMARKAD":"1001218","ADDRESS":"高雄市梓官區梓義村5鄰進學路5號","TEL":"07-6171538","COUNTYNAME":"高雄市","TOWNNAME":"梓官區","MARKTYPE":"991","Class":"1"},"geometry":{"x":120.26645050609615,"y":22.760606206760503}},{"attributes":{"OBJECTID":19984,"LANDMARKID":"1001200000190","LANDMARKCO":"107","LANDMARKNA":"高雄市政府警察局梓官分駐所","LANDMARKAD":"1001218","ADDRESS":"高雄市梓官區梓官路267號","TEL":"07-6171403","COUNTYNAME":"高雄市","TOWNNAME":"梓官區","MARKTYPE":"991","Class":"1"},"geometry":{"x":120.26690820006328,"y":22.760597629255937}},{"attributes":{"OBJECTID":19985,"LANDMARKID":"1001200000067","LANDMARKCO":"103","LANDMARKNA":"高雄市梓官區鄉民代表會","LANDMARKAD":"1001218","ADDRESS":"高雄市梓官區梓官路256號","TEL":"07-6179348","COUNTYNAME":"高雄市","TOWNNAME":"梓官區","MARKTYPE":"991","Class":"1"},"geometry":{"x":120.26708346053449,"y":22.760599238404577}},{"attributes":{"OBJECTID":19986,"LANDMARKID":"1001200000291","LANDMARKCO":"108","LANDMARKNA":"高雄市梓官區公所","LANDMARKAD":"1001218","ADDRESS":"高雄市梓官區梓官路258號","TEL":"07-6174111","COUNTYNAME":"高雄市","TOWNNAME":"梓官區","MARKTYPE":"991","Class":"1"},"geometry":{"x":120.26730836875731,"y":22.760510995160924}},{"attributes":{"OBJECTID":19987,"LANDMARKID":"1001200000068","LANDMARKCO":"103","LANDMARKNA":"高雄市梓官區衛生所","LANDMARKAD":"1001218","ADDRESS":"高雄市梓官區公館路45號","TEL":"07-6177331","COUNTYNAME":"高雄市","TOWNNAME":"梓官區","MARKTYPE":"991","Class":"1"},"geometry":{"x":120.26801239672562,"y":22.765755128844788}},{"attributes":{"OBJECTID":19988,"LANDMARKID":"1001200000588","LANDMARKCO":"204","LANDMARKNA":"高雄市立圖書館梓官分館","LANDMARKAD":"1001218","ADDRESS":"高雄市梓官區梓官路263號","TEL":" ","COUNTYNAME":"高雄市","TOWNNAME":"梓官區","MARKTYPE":"992","Class":"2"},"geometry":{"x":120.26689435470207,"y":22.760601628506841}},{"attributes":{"OBJECTID":19989,"LANDMARKID":"1001200000431","LANDMARKCO":"203","LANDMARKNA":"縣立蚵寮國中","LANDMARKAD":"1001218","ADDRESS":"高雄市梓官區智蚵村中正二街60號","TEL":"07-6175389","COUNTYNAME":"高雄市","TOWNNAME":"梓官區","MARKTYPE":"992","Class":"2"},"geometry":{"x":120.25861092359411,"y":22.727778821452482}},{"attributes":{"OBJECTID":19990,"LANDMARKID":"1001200000432","LANDMARKCO":"203","LANDMARKNA":"縣立梓官國中","LANDMARKAD":"1001218","ADDRESS":"高雄市梓官區中學路71號","TEL":"07-6172854","COUNTYNAME":"高雄市","TOWNNAME":"梓官區","MARKTYPE":"992","Class":"2"},"geometry":{"x":120.26328254405833,"y":22.763208704013849}},{"attributes":{"OBJECTID":19991,"LANDMARKID":"1001200000433","LANDMARKCO":"203","LANDMARKNA":"縣立蚵寮國小","LANDMARKAD":"1001218","ADDRESS":"高雄市梓官區禮蚵村光明路177號","TEL":"07-6101044","COUNTYNAME":"高雄市","TOWNNAME":"梓官區","MARKTYPE":"992","Class":"2"},"geometry":{"x":120.24874809271918,"y":22.733337576080519}},{"attributes":{"OBJECTID":19992,"LANDMARKID":"1001200000434","LANDMARKCO":"203","LANDMARKNA":"縣立梓官國小","LANDMARKAD":"1001218","ADDRESS":"高雄市梓官區進學路61號","TEL":"07-6193544","COUNTYNAME":"高雄市","TOWNNAME":"梓官區","MARKTYPE":"992","Class":"2"},"geometry":{"x":120.26426554951338,"y":22.760044259917969}},{"attributes":{"OBJECTID":19993,"LANDMARKID":"1001200000677","LANDMARKCO":"305","LANDMARKNA":"蚵仔寮漁港","LANDMARKAD":"1001218","ADDRESS":"高雄市梓官區","TEL":" ","COUNTYNAME":"高雄市","TOWNNAME":"梓官區","MARKTYPE":"993","Class":"305"},"geometry":{"x":120.2534684902265,"y":22.72576754855773}},{"attributes":{"OBJECTID":19994,"LANDMARKID":"1001200001346","LANDMARKCO":"603","LANDMARKNA":"碧峰大旅社","LANDMARKAD":"1001218","ADDRESS":"高雄市梓官區茄典村嘉展路2號","TEL":"07-6102041","COUNTYNAME":"高雄市","TOWNNAME":"梓官區","MARKTYPE":"996","Class":"6"},"geometry":{"x":120.26488584413532,"y":22.738384655118431}},{"attributes":{"OBJECTID":19995,"LANDMARKID":"1001200000933","LANDMARKCO":"405","LANDMARKNA":"台糖加油站-橫山站(中油)","LANDMARKAD":"1001205","ADDRESS":"高雄市大社區和平路一段2號","TEL":" ","COUNTYNAME":"高雄市","TOWNNAME":"大社區","MARKTYPE":"994","Class":"4"},"geometry":{"x":120.36271921808324,"y":22.75089609699835}},{"attributes":{"OBJECTID":19996,"LANDMARKID":"1001200000934","LANDMARKCO":"405","LANDMARKNA":"中油加油站-靖海站","LANDMARKAD":"1001205","ADDRESS":"高雄市大社區中山路665-20號","TEL":"07-3535657","COUNTYNAME":"高雄市","TOWNNAME":"大社區","MARKTYPE":"994","Class":"4"},"geometry":{"x":120.36017407593263,"y":22.730479906385437}},{"attributes":{"OBJECTID":19997,"LANDMARKID":"1001200000935","LANDMARKCO":"405","LANDMARKNA":"台糖加油站-大社站(中油)","LANDMARKAD":"1001205","ADDRESS":"高雄市大社區保社村民權路136號","TEL":"07-3542786","COUNTYNAME":"高雄市","TOWNNAME":"大社區","MARKTYPE":"994","Class":"4"},"geometry":{"x":120.35156810636182,"y":22.748233645094729}},{"attributes":{"OBJECTID":19998,"LANDMARKID":"1001200000936","LANDMARKCO":"405","LANDMARKNA":"中油加油站-大社站","LANDMARKAD":"1001205","ADDRESS":"高雄市大社區大社村中山路9號","TEL":"07-3530343","COUNTYNAME":"高雄市","TOWNNAME":"大社區","MARKTYPE":"994","Class":"4"},"geometry":{"x":120.3412064090974,"y":22.732213559320762}},{"attributes":{"OBJECTID":19999,"LANDMARKID":"1001200000937","LANDMARKCO":"405","LANDMARKNA":"中油加油站-雙泰站","LANDMARKAD":"1001205","ADDRESS":"高雄市大社區旗楠路8號","TEL":"07-3512613","COUNTYNAME":"高雄市","TOWNNAME":"大社區","MARKTYPE":"994","Class":"4"},"geometry":{"x":120.3394938143427,"y":22.742121550911808}},{"attributes":{"OBJECTID":20000,"LANDMARKID":"1001200000795","LANDMARKCO":"402","LANDMARKNA":"亞太行動寬頻電信-大社中山加盟服務中心","LANDMARKAD":"1001205","ADDRESS":"高雄市大社區中山路397號","TEL":"07-3551711","COUNTYNAME":"高雄市","TOWNNAME":"大社區","MARKTYPE":"994","Class":"4"},"geometry":{"x":120.35189103198476,"y":22.731609712962854}}]}