{"displayFieldName":"COUNTYNAME","fieldAliases":{"OBJECTID":"OBJECTID","LANDMARKID":"LANDMARKID","LANDMARKCO":"LANDMARKCO","LANDMARKNA":"LANDMARKNA","LANDMARKAD":"LANDMARKAD","ADDRESS":"ADDRESS","TEL":"TEL","COUNTYNAME":"COUNTYNAME","TOWNNAME":"TOWNNAME","MARKTYPE":"MARKTYPE","Class":"Class"},"geometryType":"esriGeometryPoint","spatialReference":{"wkid":102443},"fields":[{"name":"OBJECTID","type":"esriFieldTypeOID","alias":"OBJECTID"},{"name":"LANDMARKID","type":"esriFieldTypeString","alias":"LANDMARKID","length":15},{"name":"LANDMARKCO","type":"esriFieldTypeString","alias":"LANDMARKCO","length":15},{"name":"LANDMARKNA","type":"esriFieldTypeString","alias":"LANDMARKNA","length":50},{"name":"LANDMARKAD","type":"esriFieldTypeString","alias":"LANDMARKAD","length":15},{"name":"ADDRESS","type":"esriFieldTypeString","alias":"ADDRESS","length":56},{"name":"TEL","type":"esriFieldTypeString","alias":"TEL","length":36},{"name":"COUNTYNAME","type":"esriFieldTypeString","alias":"COUNTYNAME","length":15},{"name":"TOWNNAME","type":"esriFieldTypeString","alias":"TOWNNAME","length":13},{"name":"MARKTYPE","type":"esriFieldTypeString","alias":"MARKTYPE","length":12},{"name":"Class","type":"esriFieldTypeString","alias":"Class","length":5}],"features":[{"attributes":{"OBJECTID":4401,"LANDMARKID":"1000100001354","LANDMARKCO":"303","LANDMARKNA":"三張公園地下停車場","LANDMARKAD":"1000102","ADDRESS":"新北市三重區","TEL":" ","COUNTYNAME":"新北市","TOWNNAME":"三重區","MARKTYPE":"993","Class":"303"},"geometry":{"x":299492.87430000026,"y":2773697.5247000009}},{"attributes":{"OBJECTID":4402,"LANDMARKID":"1000100001355","LANDMARKCO":"303","LANDMARKNA":"溪美立體停車場","LANDMARKAD":"1000102","ADDRESS":" ","TEL":" ","COUNTYNAME":"新北市","TOWNNAME":"三重區","MARKTYPE":"993","Class":"303"},"geometry":{"x":299493.66089999955,"y":2774551.3054000009}},{"attributes":{"OBJECTID":4403,"LANDMARKID":"1000100001356","LANDMARKCO":"303","LANDMARKNA":"集賢路停車場","LANDMARKAD":"1000102","ADDRESS":" ","TEL":" ","COUNTYNAME":"新北市","TOWNNAME":"三重區","MARKTYPE":"993","Class":"303"},"geometry":{"x":299543.25910000037,"y":2775772.7182999998}},{"attributes":{"OBJECTID":4404,"LANDMARKID":"1000100001357","LANDMARKCO":"303","LANDMARKNA":"中山(停一)立體停車場","LANDMARKAD":"1000102","ADDRESS":"新北市三重區中山路","TEL":" ","COUNTYNAME":"新北市","TOWNNAME":"三重區","MARKTYPE":"993","Class":"303"},"geometry":{"x":299411.56500000041,"y":2772644.1022999994}},{"attributes":{"OBJECTID":4405,"LANDMARKID":"1000100001358","LANDMARKCO":"303","LANDMARKNA":"中興嘟嘟房停車場-三重正義站","LANDMARKAD":"1000102","ADDRESS":"新北市三重區信義西街41號旁","TEL":"02-89814604","COUNTYNAME":"新北市","TOWNNAME":"三重區","MARKTYPE":"993","Class":"303"},"geometry":{"x":299979.4578999998,"y":2772980.6696000006}},{"attributes":{"OBJECTID":4406,"LANDMARKID":"1000100001359","LANDMARKCO":"303","LANDMARKNA":"天台廣場停車場","LANDMARKAD":"1000102","ADDRESS":"新北市三重區重新路二段78號B3樓(天台廣場)","TEL":"02-29723067","COUNTYNAME":"新北市","TOWNNAME":"三重區","MARKTYPE":"993","Class":"303"},"geometry":{"x":300165.54310000036,"y":2772727.7369999997}},{"attributes":{"OBJECTID":4407,"LANDMARKID":"1000100001360","LANDMARKCO":"303","LANDMARKNA":"重新市場地下室停車場","LANDMARKAD":"1000102","ADDRESS":"新北市三重區重新路一段87號","TEL":"02-29682340","COUNTYNAME":"新北市","TOWNNAME":"三重區","MARKTYPE":"993","Class":"303"},"geometry":{"x":300575.16660000011,"y":2772916.9606999997}},{"attributes":{"OBJECTID":4408,"LANDMARKID":"1000100001361","LANDMARKCO":"303","LANDMARKNA":"公二地下停車場","LANDMARKAD":"1000102","ADDRESS":"新北市三重區公園街","TEL":" ","COUNTYNAME":"新北市","TOWNNAME":"三重區","MARKTYPE":"993","Class":"303"},"geometry":{"x":300368.66849999968,"y":2773968.2649000008}},{"attributes":{"OBJECTID":4409,"LANDMARKID":"1000100001362","LANDMARKCO":"303","LANDMARKNA":"中興嘟嘟房停車場-三重天台站","LANDMARKAD":"1000102","ADDRESS":"新北市三重區重新路2段78號B3-B4(天台廣場)","TEL":"2972-3067","COUNTYNAME":"新北市","TOWNNAME":"三重區","MARKTYPE":"993","Class":"303"},"geometry":{"x":300171.38779999968,"y":2772722.3710999992}},{"attributes":{"OBJECTID":4410,"LANDMARKID":"1000100001363","LANDMARKCO":"303","LANDMARKNA":"三重力行停車場","LANDMARKAD":"1000102","ADDRESS":"新北市三重區","TEL":" ","COUNTYNAME":"新北市","TOWNNAME":"三重區","MARKTYPE":"993","Class":"303"},"geometry":{"x":298701.98840000015,"y":2774490.8234000001}},{"attributes":{"OBJECTID":4411,"LANDMARKID":"1000100001364","LANDMARKCO":"303","LANDMARKNA":"公有中華停車場","LANDMARKAD":"1000102","ADDRESS":"新北市三重區","TEL":" ","COUNTYNAME":"新北市","TOWNNAME":"三重區","MARKTYPE":"993","Class":"303"},"geometry":{"x":298842.57760000043,"y":2772929.1105000004}},{"attributes":{"OBJECTID":4412,"LANDMARKID":"1000100001365","LANDMARKCO":"303","LANDMARKNA":"二重國中運動場地下停車場","LANDMARKAD":"1000102","ADDRESS":"新北市三重區忠孝路三段89號","TEL":" ","COUNTYNAME":"新北市","TOWNNAME":"三重區","MARKTYPE":"993","Class":"303"},"geometry":{"x":298239.88570000045,"y":2773208.9673999995}},{"attributes":{"OBJECTID":4413,"LANDMARKID":"1000100001366","LANDMARKCO":"303","LANDMARKNA":"中山立體停車場","LANDMARKAD":"1000102","ADDRESS":"新北市三重區中山路","TEL":" ","COUNTYNAME":"新北市","TOWNNAME":"三重區","MARKTYPE":"993","Class":"303"},"geometry":{"x":299025.50889999978,"y":2772691.1399000008}},{"attributes":{"OBJECTID":4414,"LANDMARKID":"1000100001367","LANDMARKCO":"303","LANDMARKNA":"中山高橋停車場","LANDMARKAD":"1000102","ADDRESS":"新北市三重區","TEL":" ","COUNTYNAME":"新北市","TOWNNAME":"三重區","MARKTYPE":"993","Class":"303"},"geometry":{"x":300284.23579999991,"y":2774341.0901999995}},{"attributes":{"OBJECTID":4415,"LANDMARKID":"1000100001368","LANDMARKCO":"303","LANDMARKNA":"五常地下停車場","LANDMARKAD":"1000102","ADDRESS":"新北市三重區仁義街","TEL":" ","COUNTYNAME":"新北市","TOWNNAME":"三重區","MARKTYPE":"993","Class":"303"},"geometry":{"x":300004.89609999955,"y":2775171.3597999997}},{"attributes":{"OBJECTID":4416,"LANDMARKID":"1000100001369","LANDMARKCO":"303","LANDMARKNA":"正義地下停車場","LANDMARKAD":"1000102","ADDRESS":"新北市三重區文化北路","TEL":" ","COUNTYNAME":"新北市","TOWNNAME":"三重區","MARKTYPE":"993","Class":"303"},"geometry":{"x":300209.09850000031,"y":2773470.6732999999}},{"attributes":{"OBJECTID":4417,"LANDMARKID":"1000100001370","LANDMARKCO":"303","LANDMARKNA":"光明市場地下室停車場","LANDMARKAD":"1000102","ADDRESS":"新北市三重區光明路","TEL":" ","COUNTYNAME":"新北市","TOWNNAME":"三重區","MARKTYPE":"993","Class":"303"},"geometry":{"x":299651.80979999993,"y":2772142.3778000008}},{"attributes":{"OBJECTID":4418,"LANDMARKID":"1000100001371","LANDMARKCO":"303","LANDMARKNA":"玫瑰停車場","LANDMARKAD":"1000102","ADDRESS":"新北市三重區集美街","TEL":" ","COUNTYNAME":"新北市","TOWNNAME":"三重區","MARKTYPE":"993","Class":"303"},"geometry":{"x":299360.41679999977,"y":2771907.1790999994}},{"attributes":{"OBJECTID":4419,"LANDMARKID":"1000100001372","LANDMARKCO":"303","LANDMARKNA":"重新市場地下室停車場","LANDMARKAD":"1000102","ADDRESS":"新北市三重區重新路","TEL":" ","COUNTYNAME":"新北市","TOWNNAME":"三重區","MARKTYPE":"993","Class":"303"},"geometry":{"x":299648.7790000001,"y":2772562.7067000009}},{"attributes":{"OBJECTID":4420,"LANDMARKID":"1000100001373","LANDMARKCO":"303","LANDMARKNA":"停一立體停車場","LANDMARKAD":"1000102","ADDRESS":"新北市三重區中山路","TEL":" ","COUNTYNAME":"新北市","TOWNNAME":"三重區","MARKTYPE":"993","Class":"303"},"geometry":{"x":299489.17229999974,"y":2772621.2753999997}},{"attributes":{"OBJECTID":4421,"LANDMARKID":"1000100001374","LANDMARKCO":"303","LANDMARKNA":"停四立體停車場","LANDMARKAD":"1000102","ADDRESS":"新北市三重區重安路","TEL":" ","COUNTYNAME":"新北市","TOWNNAME":"三重區","MARKTYPE":"993","Class":"303"},"geometry":{"x":299538.22300000023,"y":2775763.1988999993}},{"attributes":{"OBJECTID":4422,"LANDMARKID":"1000100001375","LANDMARKCO":"303","LANDMARKNA":"溪美立體停車場","LANDMARKAD":"1000102","ADDRESS":"新北市三重區淡尾里","TEL":" ","COUNTYNAME":"新北市","TOWNNAME":"三重區","MARKTYPE":"993","Class":"303"},"geometry":{"x":299537.60819999967,"y":2775762.5931000002}},{"attributes":{"OBJECTID":4423,"LANDMARKID":"1000100001376","LANDMARKCO":"303","LANDMARKNA":"綜合運動場地下停車場","LANDMARKAD":"1000102","ADDRESS":"新北市三重區中正北路","TEL":" ","COUNTYNAME":"新北市","TOWNNAME":"三重區","MARKTYPE":"993","Class":"303"},"geometry":{"x":299496.57749999966,"y":2772689.7880000006}},{"attributes":{"OBJECTID":4424,"LANDMARKID":"1000100001377","LANDMARKCO":"303","LANDMARKNA":"龍門地下停車場","LANDMARKAD":"1000102","ADDRESS":"新北市三重區公園街","TEL":" ","COUNTYNAME":"新北市","TOWNNAME":"三重區","MARKTYPE":"993","Class":"303"},"geometry":{"x":300397.06979999971,"y":2773901.0131999999}},{"attributes":{"OBJECTID":4425,"LANDMARKID":"1000100001378","LANDMARKCO":"303","LANDMARKNA":"聯邦地下停車場","LANDMARKAD":"1000102","ADDRESS":"新北市三重區三民路","TEL":" ","COUNTYNAME":"新北市","TOWNNAME":"三重區","MARKTYPE":"993","Class":"303"},"geometry":{"x":299538.46399999969,"y":2775763.4370000008}},{"attributes":{"OBJECTID":4426,"LANDMARKID":"1000100001379","LANDMARKCO":"303","LANDMARKNA":"永固停車場-三重站","LANDMARKAD":"1000102","ADDRESS":"新北市三重區三寧街22號後空地","TEL":" ","COUNTYNAME":"新北市","TOWNNAME":"三重區","MARKTYPE":"993","Class":"303"},"geometry":{"x":299408.5513000004,"y":2772529.8337999992}},{"attributes":{"OBJECTID":4427,"LANDMARKID":"1000100001380","LANDMARKCO":"303","LANDMARKNA":"台灣聯通停車場-介壽場","LANDMARKAD":"1000102","ADDRESS":"新北市三重區龍門路6號","TEL":" ","COUNTYNAME":"新北市","TOWNNAME":"三重區","MARKTYPE":"993","Class":"303"},"geometry":{"x":299915.78679999989,"y":2773770.3397000004}},{"attributes":{"OBJECTID":4428,"LANDMARKID":"1000100001381","LANDMARKCO":"303","LANDMARKNA":"中興嘟嘟房停車場-三重忠孝橋站","LANDMARKAD":"1000102","ADDRESS":"新北市三重區中山路與重陽路口(忠孝橋下)","TEL":"02-29845412","COUNTYNAME":"新北市","TOWNNAME":"三重區","MARKTYPE":"993","Class":"303"},"geometry":{"x":298965.22620000038,"y":2772650.8795999996}},{"attributes":{"OBJECTID":4429,"LANDMARKID":"1000100001813","LANDMARKCO":"402","LANDMARKNA":"中華電信-三重三和特約服務中心","LANDMARKAD":"1000102","ADDRESS":"新北市三重區三和路四段165之6號","TEL":"02-22863838","COUNTYNAME":"新北市","TOWNNAME":"三重區","MARKTYPE":"994","Class":"4"},"geometry":{"x":298747.39130000025,"y":2774588.0450999998}},{"attributes":{"OBJECTID":4430,"LANDMARKID":"1000100001814","LANDMARKCO":"402","LANDMARKNA":"中華電信-中正服務中心","LANDMARKAD":"1000102","ADDRESS":"新北市三重區中正北路181號","TEL":"123或0800-080-123","COUNTYNAME":"新北市","TOWNNAME":"三重區","MARKTYPE":"994","Class":"4"},"geometry":{"x":298189.0477,"y":2773567.0605999995}},{"attributes":{"OBJECTID":4431,"LANDMARKID":"1000100001815","LANDMARKCO":"402","LANDMARKNA":"中華電信-三重五華特約服務中心","LANDMARKAD":"1000102","ADDRESS":"新北市三重區五華街140號","TEL":"02-89816767","COUNTYNAME":"新北市","TOWNNAME":"三重區","MARKTYPE":"994","Class":"4"},"geometry":{"x":299566.20770000014,"y":2775154.0996000003}},{"attributes":{"OBJECTID":4432,"LANDMARKID":"1000100001816","LANDMARKCO":"402","LANDMARKNA":"中華電信-三重正義特約服務中心","LANDMARKAD":"1000102","ADDRESS":"新北市三重區正義北路310之2號","TEL":"02-89812288","COUNTYNAME":"新北市","TOWNNAME":"三重區","MARKTYPE":"994","Class":"4"},"geometry":{"x":299947.25329999998,"y":2773629.7683000006}},{"attributes":{"OBJECTID":4433,"LANDMARKID":"1000100001817","LANDMARKCO":"402","LANDMARKNA":"中華電信-三重服務中心","LANDMARKAD":"1000102","ADDRESS":"新北市三重區重新路三段27號","TEL":"123或0800-080-123","COUNTYNAME":"新北市","TOWNNAME":"三重區","MARKTYPE":"994","Class":"4"},"geometry":{"x":299889.18809999991,"y":2772688.9931000005}},{"attributes":{"OBJECTID":4434,"LANDMARKID":"1000100001818","LANDMARKCO":"402","LANDMARKNA":"遠傳電信-台北三重門市","LANDMARKAD":"1000102","ADDRESS":"新北市三重區重新路三段108號","TEL":" ","COUNTYNAME":"新北市","TOWNNAME":"三重區","MARKTYPE":"994","Class":"4"},"geometry":{"x":299686.79320000019,"y":2772546.7139999997}},{"attributes":{"OBJECTID":4435,"LANDMARKID":"1000100001819","LANDMARKCO":"402","LANDMARKNA":"遠傳電信-三重門市","LANDMARKAD":"1000102","ADDRESS":"新北市三重區正義北路186號","TEL":" ","COUNTYNAME":"新北市","TOWNNAME":"三重區","MARKTYPE":"994","Class":"4"},"geometry":{"x":300084.02699999977,"y":2773260.2709999997}},{"attributes":{"OBJECTID":4436,"LANDMARKID":"1000100001820","LANDMARKCO":"402","LANDMARKNA":"威寶電信-三重過圳特約服務中心","LANDMARKAD":"1000102","ADDRESS":"新北市三重區過圳街84號","TEL":"02-29896855","COUNTYNAME":"新北市","TOWNNAME":"三重區","MARKTYPE":"994","Class":"4"},"geometry":{"x":299082.32139999978,"y":2772723.8715000004}},{"attributes":{"OBJECTID":4437,"LANDMARKID":"1000100001821","LANDMARKCO":"402","LANDMARKNA":"威寶電信-三重三和特約服務中心","LANDMARKAD":"1000102","ADDRESS":"新北市三重區三和路二段36號","TEL":"02-29769310","COUNTYNAME":"新北市","TOWNNAME":"三重區","MARKTYPE":"994","Class":"4"},"geometry":{"x":300452.44739999995,"y":2773375.9744000006}},{"attributes":{"OBJECTID":4438,"LANDMARKID":"1000100001822","LANDMARKCO":"402","LANDMARKNA":"威寶電信-三重忠孝特約服務中心","LANDMARKAD":"1000102","ADDRESS":"新北市三重區忠孝路二段95號","TEL":"02-89812959","COUNTYNAME":"新北市","TOWNNAME":"三重區","MARKTYPE":"994","Class":"4"},"geometry":{"x":298850.2620000001,"y":2773629.6878999993}},{"attributes":{"OBJECTID":4439,"LANDMARKID":"1000100001823","LANDMARKCO":"402","LANDMARKNA":"威寶電信-三重自強特約服務中心","LANDMARKAD":"1000102","ADDRESS":"新北市三重區自強路四段39號","TEL":"02-22871113","COUNTYNAME":"新北市","TOWNNAME":"三重區","MARKTYPE":"994","Class":"4"},"geometry":{"x":299351.79239999969,"y":2774392.8895999994}},{"attributes":{"OBJECTID":4440,"LANDMARKID":"1000100001824","LANDMARKCO":"402","LANDMARKNA":"威寶電信-三重正義北特約服務中心","LANDMARKAD":"1000102","ADDRESS":"新北市三重區正義北路253號","TEL":"(02)29886955","COUNTYNAME":"新北市","TOWNNAME":"三重區","MARKTYPE":"994","Class":"4"},"geometry":{"x":300007.09509999957,"y":2773586.5491000004}},{"attributes":{"OBJECTID":4441,"LANDMARKID":"1000100001825","LANDMARKCO":"402","LANDMARKNA":"大眾電信(傑昇通信)-三和店","LANDMARKAD":"1000102","ADDRESS":"新北市三重巿三和路三段45之1號","TEL":"02-29725858","COUNTYNAME":"新北市","TOWNNAME":"三重區","MARKTYPE":"994","Class":"4"},"geometry":{"x":299988.8208999997,"y":2773784.6160000004}},{"attributes":{"OBJECTID":4442,"LANDMARKID":"1000100001826","LANDMARKCO":"402","LANDMARKNA":"大眾電信(傑昇通信)-三和二店","LANDMARKAD":"1000102","ADDRESS":"新北市三重巿三和路四段163巷1號","TEL":"02-82878881","COUNTYNAME":"新北市","TOWNNAME":"三重區","MARKTYPE":"994","Class":"4"},"geometry":{"x":298781.34819999989,"y":2774576.9227000009}},{"attributes":{"OBJECTID":4443,"LANDMARKID":"1000100001827","LANDMARKCO":"402","LANDMARKNA":"大眾電信(傑昇通信)-五華店","LANDMARKAD":"1000102","ADDRESS":"新北市三重巿五華街133號","TEL":"02-28574117","COUNTYNAME":"新北市","TOWNNAME":"三重區","MARKTYPE":"994","Class":"4"},"geometry":{"x":299534.45870000031,"y":2775223.2149}},{"attributes":{"OBJECTID":4444,"LANDMARKID":"1000100001828","LANDMARKCO":"402","LANDMARKNA":"大眾電信(傑昇通信)-正義店","LANDMARKAD":"1000102","ADDRESS":"新北市三重巿正義北路350號","TEL":"02-29898183","COUNTYNAME":"新北市","TOWNNAME":"三重區","MARKTYPE":"994","Class":"4"},"geometry":{"x":299853.62679999974,"y":2773731.0888999999}},{"attributes":{"OBJECTID":4445,"LANDMARKID":"1000100001829","LANDMARKCO":"402","LANDMARKNA":"大眾電信(傑昇通信)-自強店","LANDMARKAD":"1000102","ADDRESS":"新北市三重巿自強路三段12號","TEL":"02-29867711","COUNTYNAME":"新北市","TOWNNAME":"三重區","MARKTYPE":"994","Class":"4"},"geometry":{"x":299126.00169999991,"y":2773835.7021999992}},{"attributes":{"OBJECTID":4446,"LANDMARKID":"1000100001830","LANDMARKCO":"402","LANDMARKNA":"大眾電信(傑昇通信)-三民店","LANDMARKAD":"1000102","ADDRESS":"新北市三重巿過圳街106號","TEL":"02-89830063","COUNTYNAME":"新北市","TOWNNAME":"三重區","MARKTYPE":"994","Class":"4"},"geometry":{"x":299051.47979999986,"y":2772767.9824000001}},{"attributes":{"OBJECTID":4447,"LANDMARKID":"1000100001831","LANDMARKCO":"402","LANDMARKNA":"大眾電信(震旦通訊)-三重正義二店","LANDMARKAD":"1000102","ADDRESS":"新北市三重區正義北路261號","TEL":"02-89830422","COUNTYNAME":"新北市","TOWNNAME":"三重區","MARKTYPE":"994","Class":"4"},"geometry":{"x":299996.16119999997,"y":2773604.5890999995}},{"attributes":{"OBJECTID":4448,"LANDMARKID":"1000100001832","LANDMARKCO":"402","LANDMARKNA":"大眾電信-三重店","LANDMARKAD":"1000102","ADDRESS":"新北市三重區正義北路50號","TEL":"0968-544148","COUNTYNAME":"新北市","TOWNNAME":"三重區","MARKTYPE":"994","Class":"4"},"geometry":{"x":300171.08980000019,"y":2772934.9868999999}},{"attributes":{"OBJECTID":4449,"LANDMARKID":"1000100001833","LANDMARKCO":"402","LANDMARKNA":"大眾電信(傑昇通信)-自強二店","LANDMARKAD":"1000102","ADDRESS":"新北市三重區忠孝路二段103號","TEL":"02-89858677","COUNTYNAME":"新北市","TOWNNAME":"三重區","MARKTYPE":"994","Class":"4"},"geometry":{"x":298816.16199999955,"y":2773601.8100000005}},{"attributes":{"OBJECTID":4450,"LANDMARKID":"1000100001834","LANDMARKCO":"402","LANDMARKNA":"大眾電信(太子科技)-太子科技","LANDMARKAD":"1000102","ADDRESS":"新北市三重區重陽路二段10號","TEL":"02-22808585","COUNTYNAME":"新北市","TOWNNAME":"三重區","MARKTYPE":"994","Class":"4"},"geometry":{"x":299100.4040000001,"y":2772746.8063999992}},{"attributes":{"OBJECTID":4451,"LANDMARKID":"1000100001835","LANDMARKCO":"402","LANDMARKNA":"大眾電信(震旦通訊)-三重重新店","LANDMARKAD":"1000102","ADDRESS":"新北市三重區重新路一段119號","TEL":"02-29721530","COUNTYNAME":"新北市","TOWNNAME":"三重區","MARKTYPE":"994","Class":"4"},"geometry":{"x":300484.8814000003,"y":2772877.8628000002}},{"attributes":{"OBJECTID":4452,"LANDMARKID":"1000100001836","LANDMARKCO":"402","LANDMARKNA":"大眾電信(皇家通訊)-NOKIA重陽店","LANDMARKAD":"1000102","ADDRESS":"新北市三重區過圳街84號","TEL":"02-89855656","COUNTYNAME":"新北市","TOWNNAME":"三重區","MARKTYPE":"994","Class":"4"},"geometry":{"x":299082.32139999978,"y":2772723.8715000004}},{"attributes":{"OBJECTID":4453,"LANDMARKID":"1000100001837","LANDMARKCO":"402","LANDMARKNA":"大眾電信(震旦通訊)-三重三和店","LANDMARKAD":"1000102","ADDRESS":"新北市三重區福德北路22號","TEL":"02-29730309","COUNTYNAME":"新北市","TOWNNAME":"三重區","MARKTYPE":"994","Class":"4"},"geometry":{"x":300663.3300999999,"y":2773036.1972000003}},{"attributes":{"OBJECTID":4454,"LANDMARKID":"1000100002886","LANDMARKCO":"603","LANDMARKNA":"新園大旅社","LANDMARKAD":"1000102","ADDRESS":"新北市三重區重新路5段592號2至4樓","TEL":"02-22782137","COUNTYNAME":"新北市","TOWNNAME":"三重區","MARKTYPE":"996","Class":"6"},"geometry":{"x":297387.01970000006,"y":2770934.4034000002}},{"attributes":{"OBJECTID":4455,"LANDMARKID":"1000100002887","LANDMARKCO":"603","LANDMARKNA":"東寶旅社","LANDMARKAD":"1000102","ADDRESS":"新北市三重區中興南街21號","TEL":"02-29956417","COUNTYNAME":"新北市","TOWNNAME":"三重區","MARKTYPE":"996","Class":"6"},"geometry":{"x":297419.41050000023,"y":2770837.5949000008}},{"attributes":{"OBJECTID":4456,"LANDMARKID":"1000100002888","LANDMARKCO":"603","LANDMARKNA":"麗天汽車旅館","LANDMARKAD":"1000102","ADDRESS":"新北市三重區重新路二段78號17樓","TEL":"02-29746636","COUNTYNAME":"新北市","TOWNNAME":"三重區","MARKTYPE":"996","Class":"6"},"geometry":{"x":300191.27070000023,"y":2772737.8145000003}},{"attributes":{"OBJECTID":4457,"LANDMARKID":"1000100002889","LANDMARKCO":"603","LANDMARKNA":"慶都大旅社","LANDMARKAD":"1000102","ADDRESS":"新北市三重區重新路2段69及71號2樓","TEL":"02-29712263","COUNTYNAME":"新北市","TOWNNAME":"三重區","MARKTYPE":"996","Class":"6"},"geometry":{"x":300093.90950000007,"y":2772729.0335000008}},{"attributes":{"OBJECTID":4458,"LANDMARKID":"1000100002890","LANDMARKCO":"603","LANDMARKNA":"麗園豪華旅社","LANDMARKAD":"1000102","ADDRESS":"新北市三重區仁化街29之1號","TEL":"02-29845188","COUNTYNAME":"新北市","TOWNNAME":"三重區","MARKTYPE":"996","Class":"6"},"geometry":{"x":299776.50530000031,"y":2772467.3870999999}},{"attributes":{"OBJECTID":4459,"LANDMARKID":"1000100002891","LANDMARKCO":"603","LANDMARKNA":"東海旅社","LANDMARKAD":"1000102","ADDRESS":"新北市三重區文化北路19巷8號","TEL":"02-29754149","COUNTYNAME":"新北市","TOWNNAME":"三重區","MARKTYPE":"996","Class":"6"},"geometry":{"x":300443.08090000041,"y":2772930.9842000008}},{"attributes":{"OBJECTID":4460,"LANDMARKID":"1000100002892","LANDMARKCO":"603","LANDMARKNA":"三重旅社","LANDMARKAD":"1000102","ADDRESS":"新北市三重區正義北路291號2至4樓","TEL":"02-29832588","COUNTYNAME":"新北市","TOWNNAME":"三重區","MARKTYPE":"996","Class":"6"},"geometry":{"x":299935.46200000029,"y":2773686.8114999998}},{"attributes":{"OBJECTID":4461,"LANDMARKID":"1000100002893","LANDMARKCO":"603","LANDMARKNA":"金東莊旅社","LANDMARKAD":"1000102","ADDRESS":"新北市三重區正義北路33巷3號","TEL":"02-29811358","COUNTYNAME":"新北市","TOWNNAME":"三重區","MARKTYPE":"996","Class":"6"},"geometry":{"x":300226.04609999992,"y":2772922.7848000005}},{"attributes":{"OBJECTID":4462,"LANDMARKID":"1000100002894","LANDMARKCO":"603","LANDMARKNA":"山都力旅店","LANDMARKAD":"1000102","ADDRESS":"新北市三重區正義北路68號12樓","TEL":"02-29861262","COUNTYNAME":"新北市","TOWNNAME":"三重區","MARKTYPE":"996","Class":"6"},"geometry":{"x":300153.16459999979,"y":2772990.0212999992}},{"attributes":{"OBJECTID":4463,"LANDMARKID":"1000100002895","LANDMARKCO":"603","LANDMARKNA":"名流賓館","LANDMARKAD":"1000102","ADDRESS":"新北市三重區正義北路6之1號8樓","TEL":"02-29857515","COUNTYNAME":"新北市","TOWNNAME":"三重區","MARKTYPE":"996","Class":"6"},"geometry":{"x":300204.61909999978,"y":2772806.8637000006}},{"attributes":{"OBJECTID":4464,"LANDMARKID":"1000100002896","LANDMARKCO":"603","LANDMARKNA":"蝴蝶谷大飯店","LANDMARKAD":"1000102","ADDRESS":"新北市三重區正義北路6號10至11樓","TEL":"02-29836801","COUNTYNAME":"新北市","TOWNNAME":"三重區","MARKTYPE":"996","Class":"6"},"geometry":{"x":300204.61909999978,"y":2772806.8637000006}},{"attributes":{"OBJECTID":4465,"LANDMARKID":"1000100002897","LANDMARKCO":"603","LANDMARKNA":"凱傑精緻飯店","LANDMARKAD":"1000102","ADDRESS":"新北市三重區重新路2段68號12樓","TEL":"02-29750229","COUNTYNAME":"新北市","TOWNNAME":"三重區","MARKTYPE":"996","Class":"6"},"geometry":{"x":300212.37629999965,"y":2772740.8351000007}},{"attributes":{"OBJECTID":4466,"LANDMARKID":"1000100002898","LANDMARKCO":"603","LANDMARKNA":"南夜大旅社","LANDMARKAD":"1000102","ADDRESS":"新北市三重區重新路3段13號2至3樓","TEL":"02-29819589","COUNTYNAME":"新北市","TOWNNAME":"三重區","MARKTYPE":"996","Class":"6"},"geometry":{"x":299959.20940000005,"y":2772694.7368999999}},{"attributes":{"OBJECTID":4467,"LANDMARKID":"1000100002899","LANDMARKCO":"603","LANDMARKNA":"華春林賓館","LANDMARKAD":"1000102","ADDRESS":"新北市三重區重新路3段180號1至5樓","TEL":"02-29769825","COUNTYNAME":"新北市","TOWNNAME":"三重區","MARKTYPE":"996","Class":"6"},"geometry":{"x":299500.28479999956,"y":2772406.3760000002}},{"attributes":{"OBJECTID":4468,"LANDMARKID":"1000100002900","LANDMARKCO":"603","LANDMARKNA":"上格大飯店","LANDMARKAD":"1000102","ADDRESS":"新北市三重區集成路11號","TEL":"02-29775678","COUNTYNAME":"新北市","TOWNNAME":"三重區","MARKTYPE":"996","Class":"6"},"geometry":{"x":299313.79200000037,"y":2771623.0533000007}},{"attributes":{"OBJECTID":4469,"LANDMARKID":"1000100002901","LANDMARKCO":"603","LANDMARKNA":"名華大旅社","LANDMARKAD":"1000102","ADDRESS":"新北市三重區福德北路53巷1號","TEL":"02-29754816","COUNTYNAME":"新北市","TOWNNAME":"三重區","MARKTYPE":"996","Class":"6"},"geometry":{"x":300691.55279999971,"y":2773096.0922999997}},{"attributes":{"OBJECTID":4470,"LANDMARKID":"1000100002902","LANDMARKCO":"603","LANDMARKNA":"名爵汽車旅館","LANDMARKAD":"1000102","ADDRESS":"新北市三重區正義北路73號4至7樓(1樓門廳)","TEL":"02-29826145","COUNTYNAME":"新北市","TOWNNAME":"三重區","MARKTYPE":"996","Class":"6"},"geometry":{"x":300167.37409999967,"y":2773047.9965000004}},{"attributes":{"OBJECTID":4471,"LANDMARKID":"1000100002903","LANDMARKCO":"603","LANDMARKNA":"薇城精緻旅店","LANDMARKAD":"1000102","ADDRESS":"新北市三重區重新路2段21號7樓","TEL":"02-89882868","COUNTYNAME":"新北市","TOWNNAME":"三重區","MARKTYPE":"996","Class":"6"},"geometry":{"x":300254.54169999994,"y":2772785.6798999999}},{"attributes":{"OBJECTID":4472,"LANDMARKID":"1000100002904","LANDMARKCO":"603","LANDMARKNA":"三和大旅社","LANDMARKAD":"1000102","ADDRESS":"新北市三重區三和路2段49號","TEL":"02-29735264","COUNTYNAME":"新北市","TOWNNAME":"三重區","MARKTYPE":"996","Class":"6"},"geometry":{"x":300503.39169999957,"y":2773360.7859000005}},{"attributes":{"OBJECTID":4473,"LANDMARKID":"1000100002905","LANDMARKCO":"603","LANDMARKNA":"薇風馥麗飯店","LANDMARKAD":"1000102","ADDRESS":"新北市三重區三和路4段282號3至12樓","TEL":"02-22862288","COUNTYNAME":"新北市","TOWNNAME":"三重區","MARKTYPE":"996","Class":"6"},"geometry":{"x":298929.95249999966,"y":2774437.3943000007}},{"attributes":{"OBJECTID":4474,"LANDMARKID":"1000100002906","LANDMARKCO":"603","LANDMARKNA":"美琪賓館","LANDMARKAD":"1000102","ADDRESS":"新北市三重區中央北路84號","TEL":"02-29714255","COUNTYNAME":"新北市","TOWNNAME":"三重區","MARKTYPE":"996","Class":"6"},"geometry":{"x":300458.0036000004,"y":2773255.9538000003}},{"attributes":{"OBJECTID":4475,"LANDMARKID":"1000100002907","LANDMARKCO":"603","LANDMARKNA":"九龍大飯店","LANDMARKAD":"1000102","ADDRESS":"新北市三重區中寮街3號2至4樓(1樓門廳)","TEL":"02-29781431","COUNTYNAME":"新北市","TOWNNAME":"三重區","MARKTYPE":"996","Class":"6"},"geometry":{"x":299639.50569999963,"y":2772467.8860999998}},{"attributes":{"OBJECTID":4476,"LANDMARKID":"1000100002908","LANDMARKCO":"603","LANDMARKNA":"湯城汽車旅館","LANDMARKAD":"1000102","ADDRESS":"新北市三重區中興北街89號","TEL":"02-85110088","COUNTYNAME":"新北市","TOWNNAME":"三重區","MARKTYPE":"996","Class":"6"},"geometry":{"x":297422.33220000006,"y":2771185.8199000005}},{"attributes":{"OBJECTID":4477,"LANDMARKID":"1000100002909","LANDMARKCO":"603","LANDMARKNA":"華園旅社","LANDMARKAD":"1000102","ADDRESS":"新北市三重區正義北路8號2至4樓","TEL":"02-29714231","COUNTYNAME":"新北市","TOWNNAME":"三重區","MARKTYPE":"996","Class":"6"},"geometry":{"x":300202.65220000036,"y":2772815.8708999995}},{"attributes":{"OBJECTID":4478,"LANDMARKID":"1000100002910","LANDMARKCO":"603","LANDMARKNA":"藏愛旅店","LANDMARKAD":"1000102","ADDRESS":"新北市三重區成功路73巷6號","TEL":"02-28230062","COUNTYNAME":"新北市","TOWNNAME":"三重區","MARKTYPE":"996","Class":"6"},"geometry":{"x":299361.6799999997,"y":2771592.8901000004}},{"attributes":{"OBJECTID":4479,"LANDMARKID":"1000100002911","LANDMARKCO":"603","LANDMARKNA":"肯特商務飯店","LANDMARKAD":"1000102","ADDRESS":"新北市三重區成功路75號","TEL":"02-29768686","COUNTYNAME":"新北市","TOWNNAME":"三重區","MARKTYPE":"996","Class":"6"},"geometry":{"x":299330.4813000001,"y":2771538.0028000008}},{"attributes":{"OBJECTID":4480,"LANDMARKID":"1000100002912","LANDMARKCO":"603","LANDMARKNA":"成功旅社","LANDMARKAD":"1000102","ADDRESS":"新北市三重區成功路97號6至7樓","TEL":"02-89728181","COUNTYNAME":"新北市","TOWNNAME":"三重區","MARKTYPE":"996","Class":"6"},"geometry":{"x":299249.64749999996,"y":2771583.2848000005}},{"attributes":{"OBJECTID":4481,"LANDMARKID":"1000100002913","LANDMARKCO":"603","LANDMARKNA":"伽洲旅社","LANDMARKAD":"1000102","ADDRESS":"新北市三重區成功路97號8至9樓","TEL":"02-89728181","COUNTYNAME":"新北市","TOWNNAME":"三重區","MARKTYPE":"996","Class":"6"},"geometry":{"x":299249.64749999996,"y":2771583.2848000005}},{"attributes":{"OBJECTID":4482,"LANDMARKID":"1000100002914","LANDMARKCO":"603","LANDMARKNA":"東宮旅社","LANDMARKAD":"1000102","ADDRESS":"新北市三重區長生街44號及中央北路90巷2之1號","TEL":"02-29722988","COUNTYNAME":"新北市","TOWNNAME":"三重區","MARKTYPE":"996","Class":"6"},"geometry":{"x":300336.00019999966,"y":2773217.3753999993}},{"attributes":{"OBJECTID":4483,"LANDMARKID":"1000100002915","LANDMARKCO":"603","LANDMARKNA":"中興旅社","LANDMARKAD":"1000102","ADDRESS":"新北市三重區重新路1段20號2樓","TEL":"02-29722623","COUNTYNAME":"新北市","TOWNNAME":"三重區","MARKTYPE":"996","Class":"6"},"geometry":{"x":300822.14340000041,"y":2772947.6498000007}},{"attributes":{"OBJECTID":4484,"LANDMARKID":"1000100002916","LANDMARKCO":"603","LANDMARKNA":"國益旅社","LANDMARKAD":"1000102","ADDRESS":"新北市三重區福德南路15號","TEL":"02-29722557","COUNTYNAME":"新北市","TOWNNAME":"三重區","MARKTYPE":"996","Class":"6"},"geometry":{"x":300707.88590000011,"y":2772878.0359000005}},{"attributes":{"OBJECTID":4485,"LANDMARKID":"1000100002917","LANDMARKCO":"603","LANDMARKNA":"虹都旅店","LANDMARKAD":"1000102","ADDRESS":"新北市三重區龍門路1號10-12樓","TEL":"10樓-1至12樓-1","COUNTYNAME":"新北市","TOWNNAME":"三重區","MARKTYPE":"996","Class":"6"},"geometry":{"x":299920.63410000037,"y":2773733.8657000009}},{"attributes":{"OBJECTID":4486,"LANDMARKID":"1000100002719","LANDMARKCO":"511","LANDMARKNA":"三和路夜市","LANDMARKAD":"1000102","ADDRESS":"新北市三重區三和路","TEL":" ","COUNTYNAME":"新北市","TOWNNAME":"三重區","MARKTYPE":"995","Class":"5"},"geometry":{"x":300431.40500000026,"y":2773387.1024999991}},{"attributes":{"OBJECTID":4487,"LANDMARKID":"1000100001975","LANDMARKCO":"405","LANDMARKNA":"中油加油站-車容坊五洲站","LANDMARKAD":"1000116","ADDRESS":"新北市泰山區中山路三段8號","TEL":"02-29047767","COUNTYNAME":"新北市","TOWNNAME":"泰山區","MARKTYPE":"994","Class":"4"},"geometry":{"x":292421.7910000002,"y":2769426.2785999998}},{"attributes":{"OBJECTID":4488,"LANDMARKID":"1000100001976","LANDMARKCO":"405","LANDMARKNA":"中油加油站-楓江站","LANDMARKAD":"1000116","ADDRESS":"新北市泰山區楓江路88號","TEL":"02-22977666","COUNTYNAME":"新北市","TOWNNAME":"泰山區","MARKTYPE":"994","Class":"4"},"geometry":{"x":294083.84640000015,"y":2772877.6447999999}},{"attributes":{"OBJECTID":4489,"LANDMARKID":"1000100001977","LANDMARKCO":"405","LANDMARKNA":"中油加油站-永錡站","LANDMARKAD":"1000116","ADDRESS":"新北市泰山區泰林路二段47號","TEL":"02-22974554","COUNTYNAME":"新北市","TOWNNAME":"泰山區","MARKTYPE":"994","Class":"4"},"geometry":{"x":293936.89850000013,"y":2772221.9701000005}},{"attributes":{"OBJECTID":4490,"LANDMARKID":"1000100001978","LANDMARKCO":"405","LANDMARKNA":"中油加油站-泰新站(中油直營)","LANDMARKAD":"1000116","ADDRESS":"新北市泰山區中山路二段61號","TEL":" ","COUNTYNAME":"新北市","TOWNNAME":"泰山區","MARKTYPE":"994","Class":"4"},"geometry":{"x":294263.40610000025,"y":2771584.1896000002}},{"attributes":{"OBJECTID":4491,"LANDMARKID":"1000100001979","LANDMARKCO":"405","LANDMARKNA":"中油加油站-泰山站(中油直營)","LANDMARKAD":"1000116","ADDRESS":"新北市泰山區泰林路二段424號","TEL":"02-29097921","COUNTYNAME":"新北市","TOWNNAME":"泰山區","MARKTYPE":"994","Class":"4"},"geometry":{"x":293056.02539999969,"y":2772973.3199000005}},{"attributes":{"OBJECTID":4492,"LANDMARKID":"1000100001804","LANDMARKCO":"402","LANDMARKNA":"亞太行動寬頻電信-泰山明志加盟服務中心","LANDMARKAD":"1000116","ADDRESS":"新北市泰山區明志路1段182號","TEL":"02-29007888","COUNTYNAME":"新北市","TOWNNAME":"泰山區","MARKTYPE":"994","Class":"4"},"geometry":{"x":293699.86899999995,"y":2772776.9914999995}},{"attributes":{"OBJECTID":4493,"LANDMARKID":"1000100001582","LANDMARKCO":"401","LANDMARKNA":"泰山英仁醫院","LANDMARKAD":"1000116","ADDRESS":"新北市泰山區明志路一段309號","TEL":"02-29099247","COUNTYNAME":"新北市","TOWNNAME":"泰山區","MARKTYPE":"994","Class":"4"},"geometry":{"x":293549.29679999966,"y":2772401.7623999994}},{"attributes":{"OBJECTID":4494,"LANDMARKID":"1000100002599","LANDMARKCO":"507","LANDMARKNA":"頂泰山巖","LANDMARKAD":"1000116","ADDRESS":"新北市泰山區明志村應化街32號","TEL":" ","COUNTYNAME":"新北市","TOWNNAME":"泰山區","MARKTYPE":"995","Class":"5"},"geometry":{"x":292706.38219999988,"y":2770665.8698999994}},{"attributes":{"OBJECTID":4495,"LANDMARKID":"1000100002379","LANDMARKCO":"408","LANDMARKNA":"郵局-泰山半山雅郵局","LANDMARKAD":"1000116","ADDRESS":"新北市泰山區半山雅90號","TEL":"(02)2292-9579","COUNTYNAME":"新北市","TOWNNAME":"泰山區","MARKTYPE":"994","Class":"4"},"geometry":{"x":293497.8387000002,"y":2773447.4551999997}},{"attributes":{"OBJECTID":4496,"LANDMARKID":"1000100002380","LANDMARKCO":"408","LANDMARKNA":"郵局-泰山郵局","LANDMARKAD":"1000116","ADDRESS":"新北市泰山區楓江路10號","TEL":"(02)2909-7881","COUNTYNAME":"新北市","TOWNNAME":"泰山區","MARKTYPE":"994","Class":"4"},"geometry":{"x":293737.50169999991,"y":2772765.2636999991}},{"attributes":{"OBJECTID":4497,"LANDMARKID":"1000100002381","LANDMARKCO":"408","LANDMARKNA":"郵局-明志科大郵局","LANDMARKAD":"1000116","ADDRESS":"新北市泰山區工專路84號(明志科技大學內)","TEL":"(02)2902-1886","COUNTYNAME":"新北市","TOWNNAME":"泰山區","MARKTYPE":"994","Class":"4"},"geometry":{"x":292618.92879999988,"y":2770362.2263999991}},{"attributes":{"OBJECTID":4498,"LANDMARKID":"1000100002382","LANDMARKCO":"408","LANDMARKNA":"郵局-泰山南林郵局","LANDMARKAD":"1000116","ADDRESS":"新北市泰山區南林路101號","TEL":"(02)2901-9567","COUNTYNAME":"新北市","TOWNNAME":"泰山區","MARKTYPE":"994","Class":"4"},"geometry":{"x":291915.07459999993,"y":2771359.0560999997}},{"attributes":{"OBJECTID":4499,"LANDMARKID":"1000100002383","LANDMARKCO":"408","LANDMARKNA":"郵局-泰山同榮郵局","LANDMARKAD":"1000116","ADDRESS":"新北市泰山區明志路1段510號","TEL":"(02)2909-6655","COUNTYNAME":"新北市","TOWNNAME":"泰山區","MARKTYPE":"994","Class":"4"},"geometry":{"x":293410.2182,"y":2771851.7753999997}},{"attributes":{"OBJECTID":4500,"LANDMARKID":"1000100002384","LANDMARKCO":"408","LANDMARKNA":"郵局-泰山貴子路郵局","LANDMARKAD":"1000116","ADDRESS":"新北市泰山區明志路3段85號","TEL":"(02)2908-9174","COUNTYNAME":"新北市","TOWNNAME":"泰山區","MARKTYPE":"994","Class":"4"},"geometry":{"x":292899.25669999979,"y":2770448.2814000007}},{"attributes":{"OBJECTID":4501,"LANDMARKID":"1000100002463","LANDMARKCO":"409","LANDMARKNA":"新北市泰山區農會","LANDMARKAD":"1000116","ADDRESS":"新北市泰山區明志路一段205號","TEL":"02-22977299","COUNTYNAME":"新北市","TOWNNAME":"泰山區","MARKTYPE":"994","Class":"4"},"geometry":{"x":293631.95579999965,"y":2772619.0240000002}},{"attributes":{"OBJECTID":4502,"LANDMARKID":"1000100001878","LANDMARKCO":"404","LANDMARKNA":"台灣自來水泰山營運所","LANDMARKAD":"1000116","ADDRESS":"新北市泰山區泰林路二段347號","TEL":"02-29097480","COUNTYNAME":"新北市","TOWNNAME":"泰山區","MARKTYPE":"994","Class":"4"},"geometry":{"x":293275.82650000043,"y":2772873.3925999999}},{"attributes":{"OBJECTID":4503,"LANDMARKID":"1000100001879","LANDMARKCO":"404","LANDMARKNA":"台灣省自來水泰山營運所","LANDMARKAD":"1000116","ADDRESS":"新北市泰山區泰林路二段347號","TEL":" ","COUNTYNAME":"新北市","TOWNNAME":"泰山區","MARKTYPE":"994","Class":"4"},"geometry":{"x":293305.1464999998,"y":2772866.6451999992}},{"attributes":{"OBJECTID":4504,"LANDMARKID":"1000100002267","LANDMARKCO":"407","LANDMARKNA":"小北百貨","LANDMARKAD":"1000116","ADDRESS":"新北市泰山區明志路三段128號1樓","TEL":"02-29084398","COUNTYNAME":"新北市","TOWNNAME":"泰山區","MARKTYPE":"994","Class":"4"},"geometry":{"x":292869.40359999985,"y":2770306.3662}},{"attributes":{"OBJECTID":4505,"LANDMARKID":"1000100001972","LANDMARKCO":"405","LANDMARKNA":"台塑加油站-中泰站(台塑)","LANDMARKAD":"1000116","ADDRESS":"新北市泰山區泰林路二段32號","TEL":"02-22966556","COUNTYNAME":"新北市","TOWNNAME":"泰山區","MARKTYPE":"994","Class":"4"},"geometry":{"x":293995.4338999996,"y":2772157.8844000008}},{"attributes":{"OBJECTID":4506,"LANDMARKID":"1000100001973","LANDMARKCO":"405","LANDMARKNA":"全國加油站-新五路站（台塑）","LANDMARKAD":"1000116","ADDRESS":"新北市泰山區新五路一段89號","TEL":"02-22961357","COUNTYNAME":"新北市","TOWNNAME":"泰山區","MARKTYPE":"994","Class":"4"},"geometry":{"x":294506.87100000028,"y":2772595.7372999992}},{"attributes":{"OBJECTID":4507,"LANDMARKID":"1000100001974","LANDMARKCO":"405","LANDMARKNA":"全國加油站-五股交流道站（台塑）","LANDMARKAD":"1000116","ADDRESS":"新北市泰山區楓江路110號","TEL":"02-22974803","COUNTYNAME":"新北市","TOWNNAME":"泰山區","MARKTYPE":"994","Class":"4"},"geometry":{"x":294233.05209999997,"y":2772912.1555000003}},{"attributes":{"OBJECTID":4508,"LANDMARKID":"1000100000091","LANDMARKCO":"103","LANDMARKNA":"新北市泰山區衛生所","LANDMARKAD":"1000116","ADDRESS":"新北市泰山區明志路一段350號","TEL":"02-22962858","COUNTYNAME":"新北市","TOWNNAME":"泰山區","MARKTYPE":"991","Class":"1"},"geometry":{"x":293466.34329999983,"y":2772318.9869999997}},{"attributes":{"OBJECTID":4509,"LANDMARKID":"1000100000416","LANDMARKCO":"108","LANDMARKNA":"新北市泰山區公所","LANDMARKAD":"1000116","ADDRESS":"新北市泰山區明志路1段322號","TEL":"02-29099551","COUNTYNAME":"新北市","TOWNNAME":"泰山區","MARKTYPE":"991","Class":"1"},"geometry":{"x":293527.48020000011,"y":2772408.4137999993}},{"attributes":{"OBJECTID":4510,"LANDMARKID":"1000100000090","LANDMARKCO":"103","LANDMARKNA":"新北市泰山區鄉民代表會","LANDMARKAD":"1000116","ADDRESS":"新北市泰山區明志路一段322號4樓","TEL":"02-29099281","COUNTYNAME":"新北市","TOWNNAME":"泰山區","MARKTYPE":"991","Class":"1"},"geometry":{"x":293527.48020000011,"y":2772408.4137999993}},{"attributes":{"OBJECTID":4511,"LANDMARKID":"1000100000317","LANDMARKCO":"107","LANDMARKNA":"新北市政府警察局泰山分駐所","LANDMARKAD":"1000116","ADDRESS":"新北市泰山區泰林路二段214號","TEL":"02-29097947","COUNTYNAME":"新北市","TOWNNAME":"泰山區","MARKTYPE":"991","Class":"1"},"geometry":{"x":293700.63499999978,"y":2772675.0921999998}},{"attributes":{"OBJECTID":4512,"LANDMARKID":"1000100000318","LANDMARKCO":"107","LANDMARKNA":"新北市政府警察局明志派出所","LANDMARKAD":"1000116","ADDRESS":"新北市泰山區明志路二段426號","TEL":"02-29069881","COUNTYNAME":"新北市","TOWNNAME":"泰山區","MARKTYPE":"991","Class":"1"},"geometry":{"x":292897.91079999972,"y":2770749.9691000003}},{"attributes":{"OBJECTID":4513,"LANDMARKID":"1000100000156","LANDMARKCO":"106","LANDMARKNA":"新北市泰山區戶政事務所","LANDMARKAD":"1000116","ADDRESS":"新北市泰山區全興路212號4樓","TEL":"02-29096775","COUNTYNAME":"新北市","TOWNNAME":"泰山區","MARKTYPE":"991","Class":"1"},"geometry":{"x":293773.09410000034,"y":2772085.4684999995}},{"attributes":{"OBJECTID":4514,"LANDMARKID":"1000100000314","LANDMARKCO":"107","LANDMARKNA":"國公路警察局國公路警察局","LANDMARKAD":"1000116","ADDRESS":"新北市泰山區黎明村半山雅70之2號","TEL":"02-29094111","COUNTYNAME":"新北市","TOWNNAME":"泰山區","MARKTYPE":"991","Class":"1"},"geometry":{"x":292772.53679999989,"y":2773399.4574999996}},{"attributes":{"OBJECTID":4515,"LANDMARKID":"1000100000315","LANDMARKCO":"107","LANDMARKNA":"國公路第一警察隊隊部","LANDMARKAD":"1000116","ADDRESS":"新北市泰山區大科村大科坑1號","TEL":"02-29099367","COUNTYNAME":"新北市","TOWNNAME":"泰山區","MARKTYPE":"991","Class":"1"},"geometry":{"x":291264.4804999996,"y":2772459.8077000007}},{"attributes":{"OBJECTID":4516,"LANDMARKID":"1000100000316","LANDMARKCO":"107","LANDMARKNA":"國公路第一警察隊泰山分隊","LANDMARKAD":"1000116","ADDRESS":"新北市泰山區大科村大科坑1號","TEL":"02-29095244","COUNTYNAME":"新北市","TOWNNAME":"泰山區","MARKTYPE":"991","Class":"1"},"geometry":{"x":291266.4804999996,"y":2772459.8015999999}},{"attributes":{"OBJECTID":4517,"LANDMARKID":"1000100000013","LANDMARKCO":"101","LANDMARKNA":"交通部國道高速公路局","LANDMARKAD":"1000116","ADDRESS":"新北市泰山區黎明村半山雅70號","TEL":"02-29096141","COUNTYNAME":"新北市","TOWNNAME":"泰山區","MARKTYPE":"991","Class":"1"},"geometry":{"x":292822.3172000004,"y":2773329.3013000004}},{"attributes":{"OBJECTID":4518,"LANDMARKID":"1000100000847","LANDMARKCO":"204","LANDMARKNA":"新北市立圖書館貴子閱覽室","LANDMARKAD":"1000116","ADDRESS":"新北市泰山區工專路22號3樓","TEL":" ","COUNTYNAME":"新北市","TOWNNAME":"泰山區","MARKTYPE":"992","Class":"2"},"geometry":{"x":292659.40830000024,"y":2770329.0699000005}},{"attributes":{"OBJECTID":4519,"LANDMARKID":"1000100000848","LANDMARKCO":"204","LANDMARKNA":"新北市立圖書館泰山分館","LANDMARKAD":"1000116","ADDRESS":"新北市泰山區明志路一段427號","TEL":" ","COUNTYNAME":"新北市","TOWNNAME":"泰山區","MARKTYPE":"992","Class":"2"},"geometry":{"x":293487.84910000023,"y":2772107.1610000003}},{"attributes":{"OBJECTID":4520,"LANDMARKID":"1000100000478","LANDMARKCO":"202","LANDMARKNA":"國立泰山高中","LANDMARKAD":"1000116","ADDRESS":"新北市泰山區明志路一段422號","TEL":"02-22963625","COUNTYNAME":"新北市","TOWNNAME":"泰山區","MARKTYPE":"992","Class":"2"},"geometry":{"x":293372.44510000013,"y":2772139.3376000002}},{"attributes":{"OBJECTID":4521,"LANDMARKID":"1000100000696","LANDMARKCO":"203","LANDMARKNA":"縣立義學國中","LANDMARKAD":"1000116","ADDRESS":"新北市泰山區民生路30號","TEL":"02-29071362","COUNTYNAME":"新北市","TOWNNAME":"泰山區","MARKTYPE":"992","Class":"2"},"geometry":{"x":293436.95390000008,"y":2771650.8669000007}},{"attributes":{"OBJECTID":4522,"LANDMARKID":"1000100000697","LANDMARKCO":"203","LANDMARKNA":"縣立泰山國中","LANDMARKAD":"1000116","ADDRESS":"新北市泰山區泰林路二段498號","TEL":"02-29092864","COUNTYNAME":"新北市","TOWNNAME":"泰山區","MARKTYPE":"992","Class":"2"},"geometry":{"x":292981.41330000013,"y":2773062.0217000004}},{"attributes":{"OBJECTID":4523,"LANDMARKID":"1000100000698","LANDMARKCO":"203","LANDMARKNA":"縣立同榮國小","LANDMARKAD":"1000116","ADDRESS":"新北市泰山區公園路33號","TEL":"02-22868551","COUNTYNAME":"新北市","TOWNNAME":"泰山區","MARKTYPE":"992","Class":"2"},"geometry":{"x":293194.47020000033,"y":2771859.0885000005}},{"attributes":{"OBJECTID":4524,"LANDMARKID":"1000100000699","LANDMARKCO":"203","LANDMARKNA":"縣立泰山國小","LANDMARKAD":"1000116","ADDRESS":"新北市泰山區泰林路二段255號","TEL":"02-29095842","COUNTYNAME":"新北市","TOWNNAME":"泰山區","MARKTYPE":"992","Class":"2"},"geometry":{"x":293513.00540000014,"y":2772751.9241000004}},{"attributes":{"OBJECTID":4525,"LANDMARKID":"1000100000700","LANDMARKCO":"203","LANDMARKNA":"縣立明志國小","LANDMARKAD":"1000116","ADDRESS":"新北市泰山區新生路2號","TEL":"02-29061133","COUNTYNAME":"新北市","TOWNNAME":"泰山區","MARKTYPE":"992","Class":"2"},"geometry":{"x":293132.20559999999,"y":2770856.4704999998}},{"attributes":{"OBJECTID":4526,"LANDMARKID":"1000100000701","LANDMARKCO":"203","LANDMARKNA":"縣立義學國小","LANDMARKAD":"1000116","ADDRESS":"新北市泰山區民生路30號","TEL":"02-22972048","COUNTYNAME":"新北市","TOWNNAME":"泰山區","MARKTYPE":"992","Class":"2"},"geometry":{"x":293436.95390000008,"y":2771650.8669000007}},{"attributes":{"OBJECTID":4527,"LANDMARKID":"1000100000446","LANDMARKCO":"201","LANDMARKNA":"明志科技大學","LANDMARKAD":"1000116","ADDRESS":"新北市泰山區工專路84號","TEL":"02-29089899","COUNTYNAME":"新北市","TOWNNAME":"泰山區","MARKTYPE":"992","Class":"2"},"geometry":{"x":292361.09860000014,"y":2770299.5424000006}},{"attributes":{"OBJECTID":4528,"LANDMARKID":"1000100000447","LANDMARKCO":"201","LANDMARKNA":"黎明技術學院","LANDMARKAD":"1000116","ADDRESS":"新北市泰山區黎明村黎專路2之2號","TEL":"02-29097811","COUNTYNAME":"新北市","TOWNNAME":"泰山區","MARKTYPE":"992","Class":"2"},"geometry":{"x":292303.77630000003,"y":2773169.1835999992}},{"attributes":{"OBJECTID":4529,"LANDMARKID":"1000100001557","LANDMARKCO":"308","LANDMARKNA":"泰山收費站","LANDMARKAD":"1000116","ADDRESS":" ","TEL":" ","COUNTYNAME":"新北市","TOWNNAME":"泰山區","MARKTYPE":"993","Class":"308"},"geometry":{"x":291969.15629999992,"y":2772646.4653999992}},{"attributes":{"OBJECTID":4530,"LANDMARKID":"1000100000942","LANDMARKCO":"302","LANDMARKNA":"三重汽車客運泰山站","LANDMARKAD":"1000116","ADDRESS":"新北市泰山區明志路一段20號","TEL":" ","COUNTYNAME":"新北市","TOWNNAME":"泰山區","MARKTYPE":"993","Class":"302"},"geometry":{"x":293728.49210000038,"y":2773121.3170999996}},{"attributes":{"OBJECTID":4531,"LANDMARKID":"1000100000943","LANDMARKCO":"302","LANDMARKNA":"中興巴士-中興泰山站","LANDMARKAD":"1000116","ADDRESS":"新北市泰山區半山雅路15號","TEL":"(02)2909-5695","COUNTYNAME":"新北市","TOWNNAME":"泰山區","MARKTYPE":"993","Class":"302"},"geometry":{"x":293106.07969999965,"y":2773249.9871999994}},{"attributes":{"OBJECTID":4532,"LANDMARKID":"1000100001382","LANDMARKCO":"303","LANDMARKNA":"泰山綜合體育場停車場","LANDMARKAD":"1000116","ADDRESS":" ","TEL":" ","COUNTYNAME":"新北市","TOWNNAME":"泰山區","MARKTYPE":"993","Class":"303"},"geometry":{"x":293002.72119999956,"y":2772005.1270000003}},{"attributes":{"OBJECTID":4533,"LANDMARKID":"1000100001383","LANDMARKCO":"303","LANDMARKNA":"明志國小操場地下停車場","LANDMARKAD":"1000116","ADDRESS":"新北市泰山區新生路2號","TEL":"02-29061133","COUNTYNAME":"新北市","TOWNNAME":"泰山區","MARKTYPE":"993","Class":"303"},"geometry":{"x":293035.34499999974,"y":2770805.0875000004}},{"attributes":{"OBJECTID":4534,"LANDMARKID":"1000100001384","LANDMARKCO":"303","LANDMARKNA":"公有楓樹停車場","LANDMARKAD":"1000116","ADDRESS":" ","TEL":" ","COUNTYNAME":"新北市","TOWNNAME":"泰山區","MARKTYPE":"993","Class":"303"},"geometry":{"x":293836.31759999972,"y":2772670.2613999993}},{"attributes":{"OBJECTID":4535,"LANDMARKID":"1000100001385","LANDMARKCO":"303","LANDMARKNA":"泰山公二地下停車場","LANDMARKAD":"1000116","ADDRESS":" ","TEL":" ","COUNTYNAME":"新北市","TOWNNAME":"泰山區","MARKTYPE":"993","Class":"303"},"geometry":{"x":293900.87640000042,"y":2772711.5629999992}},{"attributes":{"OBJECTID":4536,"LANDMARKID":"1000100001386","LANDMARKCO":"303","LANDMARKNA":"泰山區農會停車場","LANDMARKAD":"1000116","ADDRESS":"新北市泰山區明志路228號","TEL":" ","COUNTYNAME":"新北市","TOWNNAME":"泰山區","MARKTYPE":"993","Class":"303"},"geometry":{"x":293630.86649999954,"y":2772614.7407000009}},{"attributes":{"OBJECTID":4537,"LANDMARKID":"1000100001387","LANDMARKCO":"303","LANDMARKNA":"停一停車場","LANDMARKAD":"1000116","ADDRESS":"新北市泰山區益協村明志路","TEL":" ","COUNTYNAME":"新北市","TOWNNAME":"泰山區","MARKTYPE":"993","Class":"303"},"geometry":{"x":293580.36840000004,"y":2772511.6469000001}},{"attributes":{"OBJECTID":4538,"LANDMARKID":"1000100001388","LANDMARKCO":"303","LANDMARKNA":"停二停車場","LANDMARKAD":"1000116","ADDRESS":"新北市泰山區三腳村憲訓路","TEL":" ","COUNTYNAME":"新北市","TOWNNAME":"泰山區","MARKTYPE":"993","Class":"303"},"geometry":{"x":293290.88960000034,"y":2773080.0879999995}},{"attributes":{"OBJECTID":4539,"LANDMARKID":"1000100001389","LANDMARKCO":"303","LANDMARKNA":"永固停車場-泰山站","LANDMARKAD":"1000116","ADDRESS":"新北市泰山區明志路3段81-87號與貴子路2-14號B2全部","TEL":" ","COUNTYNAME":"新北市","TOWNNAME":"泰山區","MARKTYPE":"993","Class":"303"},"geometry":{"x":292923.27329999954,"y":2770428.0114999991}},{"attributes":{"OBJECTID":4540,"LANDMARKID":"1000100001390","LANDMARKCO":"303","LANDMARKNA":"Times(普客二四停車場)-南亞科技停車場","LANDMARKAD":"1000116","ADDRESS":"新北市泰山區南林路115號旁","TEL":" ","COUNTYNAME":"新北市","TOWNNAME":"泰山區","MARKTYPE":"993","Class":"303"},"geometry":{"x":291899.13190000039,"y":2771197.8938999996}},{"attributes":{"OBJECTID":4541,"LANDMARKID":"1000100001805","LANDMARKCO":"402","LANDMARKNA":"中華電信-泰山明志特約服務中心","LANDMARKAD":"1000116","ADDRESS":"新北市泰山區明志路一段190號","TEL":"02-85314488","COUNTYNAME":"新北市","TOWNNAME":"泰山區","MARKTYPE":"994","Class":"4"},"geometry":{"x":293688.66999999993,"y":2772741.1079999991}},{"attributes":{"OBJECTID":4542,"LANDMARKID":"1000100001806","LANDMARKCO":"402","LANDMARKNA":"威寶電信-泰山工專特約服務中心","LANDMARKAD":"1000116","ADDRESS":"新北市泰山區明志路三段186號","TEL":"02-29040507","COUNTYNAME":"新北市","TOWNNAME":"泰山區","MARKTYPE":"994","Class":"4"},"geometry":{"x":292796.58600000013,"y":2770142.5807000007}},{"attributes":{"OBJECTID":4543,"LANDMARKID":"1000100001807","LANDMARKCO":"402","LANDMARKNA":"威寶電信-泰山明志特約服務中心","LANDMARKAD":"1000116","ADDRESS":"新北市泰山區明志路一段163號","TEL":"02-85316108","COUNTYNAME":"新北市","TOWNNAME":"泰山區","MARKTYPE":"994","Class":"4"},"geometry":{"x":293705.11539999954,"y":2772760.2704000007}},{"attributes":{"OBJECTID":4544,"LANDMARKID":"1000100001808","LANDMARKCO":"402","LANDMARKNA":"大眾電信(震旦通訊)-泰山明志店","LANDMARKAD":"1000116","ADDRESS":"新北市泰山區明志路一段157號","TEL":"02-22960209","COUNTYNAME":"新北市","TOWNNAME":"泰山區","MARKTYPE":"994","Class":"4"},"geometry":{"x":293705.11539999954,"y":2772760.2704000007}},{"attributes":{"OBJECTID":4545,"LANDMARKID":"1000100001809","LANDMARKCO":"402","LANDMARKNA":"大眾電信(太子科技)-泰山三星","LANDMARKAD":"1000116","ADDRESS":"新北市泰山區明志路一段186號","TEL":"02-22969787","COUNTYNAME":"新北市","TOWNNAME":"泰山區","MARKTYPE":"994","Class":"4"},"geometry":{"x":293699.86899999995,"y":2772776.9957999997}},{"attributes":{"OBJECTID":4546,"LANDMARKID":"1000100001810","LANDMARKCO":"402","LANDMARKNA":"大眾電信(太子科技)-泰山NOKIA","LANDMARKAD":"1000116","ADDRESS":"新北市泰山區明志路一段194號","TEL":"02-85315556","COUNTYNAME":"新北市","TOWNNAME":"泰山區","MARKTYPE":"994","Class":"4"},"geometry":{"x":293692.40299999993,"y":2772754.6213000007}},{"attributes":{"OBJECTID":4547,"LANDMARKID":"1000100001811","LANDMARKCO":"402","LANDMARKNA":"大眾電信(傑昇通信)-泰山店","LANDMARKAD":"1000116","ADDRESS":"新北市泰山區明志路一段210號","TEL":"02-22972483","COUNTYNAME":"新北市","TOWNNAME":"泰山區","MARKTYPE":"994","Class":"4"},"geometry":{"x":293667.18010000046,"y":2772681.6273999996}},{"attributes":{"OBJECTID":4548,"LANDMARKID":"1000100001812","LANDMARKCO":"402","LANDMARKNA":"大眾電信(太子科技)-泰山2店","LANDMARKAD":"1000116","ADDRESS":"新北市泰山區明志路一段493之1號","TEL":"02-22966636","COUNTYNAME":"新北市","TOWNNAME":"泰山區","MARKTYPE":"994","Class":"4"},"geometry":{"x":293453.80640000012,"y":2771947.7005000003}},{"attributes":{"OBJECTID":4549,"LANDMARKID":"1000100002880","LANDMARKCO":"603","LANDMARKNA":"台麗精品旅店","LANDMARKAD":"1000116","ADDRESS":"新北市泰山區台麗街11巷1號1至5樓","TEL":"02-29039356","COUNTYNAME":"新北市","TOWNNAME":"泰山區","MARKTYPE":"996","Class":"6"},"geometry":{"x":292826.65789999999,"y":2770110.0160000008}},{"attributes":{"OBJECTID":4550,"LANDMARKID":"1000100002881","LANDMARKCO":"603","LANDMARKNA":"香格里拉汽車旅館新泰館","LANDMARKAD":"1000116","ADDRESS":"新北市泰山區中港西路456號","TEL":"02-22975666","COUNTYNAME":"新北市","TOWNNAME":"泰山區","MARKTYPE":"996","Class":"6"},"geometry":{"x":292774.55669999961,"y":2771753.8708999995}},{"attributes":{"OBJECTID":4551,"LANDMARKID":"1000100002882","LANDMARKCO":"603","LANDMARKNA":"風尚休閒商務汽車旅館","LANDMARKAD":"1000116","ADDRESS":"新北市泰山區仁德路48號","TEL":"02-22970202","COUNTYNAME":"新北市","TOWNNAME":"泰山區","MARKTYPE":"996","Class":"6"},"geometry":{"x":293829.57419999968,"y":2772177.4351000004}},{"attributes":{"OBJECTID":4552,"LANDMARKID":"1000100002883","LANDMARKCO":"603","LANDMARKNA":"沂山莊大旅社","LANDMARKAD":"1000116","ADDRESS":"新北市泰山區明志路1段393號及395號2至3樓","TEL":"02-29097575","COUNTYNAME":"新北市","TOWNNAME":"泰山區","MARKTYPE":"996","Class":"6"},"geometry":{"x":293476.3359000003,"y":2772223.6152999997}},{"attributes":{"OBJECTID":4553,"LANDMARKID":"1000100002884","LANDMARKCO":"603","LANDMARKNA":"閣樓汽車旅館","LANDMARKAD":"1000116","ADDRESS":"新北市泰山區明志路2段246巷18弄1至33號","TEL":"02-22966677","COUNTYNAME":"新北市","TOWNNAME":"泰山區","MARKTYPE":"996","Class":"6"},"geometry":{"x":293035.20029999968,"y":2771360.6481999997}},{"attributes":{"OBJECTID":4554,"LANDMARKID":"1000100002885","LANDMARKCO":"603","LANDMARKNA":"泰皇金典汽車旅館","LANDMARKAD":"1000116","ADDRESS":"新北市泰山區楓樹街35號","TEL":"02-29009797","COUNTYNAME":"新北市","TOWNNAME":"泰山區","MARKTYPE":"996","Class":"6"},"geometry":{"x":293907.32160000037,"y":2772972.9476999994}},{"attributes":{"OBJECTID":4555,"LANDMARKID":"1000100001980","LANDMARKCO":"405","LANDMARKNA":"中油加油站-濱海西站","LANDMARKAD":"1000126","ADDRESS":"新北市貢寮區福連街35號","TEL":"02-24992111","COUNTYNAME":"新北市","TOWNNAME":"貢寮區","MARKTYPE":"994","Class":"4"},"geometry":{"x":349878.01350000035,"y":2767295.2356000002}},{"attributes":{"OBJECTID":4556,"LANDMARKID":"1000100001981","LANDMARKCO":"405","LANDMARKNA":"中油加油站-濱海東站","LANDMARKAD":"1000126","ADDRESS":"新北市貢寮區福連街36號","TEL":"02-24992111","COUNTYNAME":"新北市","TOWNNAME":"貢寮區","MARKTYPE":"994","Class":"4"},"geometry":{"x":349864.58800000045,"y":2767246.2741}},{"attributes":{"OBJECTID":4557,"LANDMARKID":"1000100001982","LANDMARKCO":"405","LANDMARKNA":"中油加油站-澳底站(中油直營)","LANDMARKAD":"1000126","ADDRESS":"新北市貢寮區真理村美艷山街6-2號","TEL":"02-24901501","COUNTYNAME":"新北市","TOWNNAME":"貢寮區","MARKTYPE":"994","Class":"4"},"geometry":{"x":343799.34080000035,"y":2773105.2186999992}},{"attributes":{"OBJECTID":4558,"LANDMARKID":"1000100002480","LANDMARKCO":"501","LANDMARKNA":"東北角海岸國家風景區","LANDMARKAD":"1000126","ADDRESS":"新北市貢寮區福隆村興隆街36號","TEL":" ","COUNTYNAME":"新北市","TOWNNAME":"貢寮區","MARKTYPE":"995","Class":"5"},"geometry":{"x":344865.19089999981,"y":2768135.8688999992}},{"attributes":{"OBJECTID":4559,"LANDMARKID":"1000100002596","LANDMARKCO":"507","LANDMARKNA":"吳沙墓","LANDMARKAD":"1000126","ADDRESS":"新北市貢寮區仁里村澳底段澳底小段237之4地號","TEL":" ","COUNTYNAME":"新北市","TOWNNAME":"貢寮區","MARKTYPE":"995","Class":"5"},"geometry":{"x":343559.95579999965,"y":2771873.4756000005}},{"attributes":{"OBJECTID":4560,"LANDMARKID":"1000100002597","LANDMARKCO":"507","LANDMARKNA":"虎字碑","LANDMARKAD":"1000126","ADDRESS":"新北市貢寮區雙玉村遠望坑段草嶺小段109地號","TEL":" ","COUNTYNAME":"新北市","TOWNNAME":"貢寮區","MARKTYPE":"995","Class":"5"},"geometry":{"x":344938.10769999959,"y":2764556.7715000007}},{"attributes":{"OBJECTID":4561,"LANDMARKID":"1000100002598","LANDMARKCO":"507","LANDMARKNA":"雄鎮蠻煙碑","LANDMARKAD":"1000126","ADDRESS":"新北市貢寮區雙玉村遠望坑段草嶺小段103地號","TEL":" ","COUNTYNAME":"新北市","TOWNNAME":"貢寮區","MARKTYPE":"995","Class":"5"},"geometry":{"x":344103.74430000037,"y":2765406.3969000001}},{"attributes":{"OBJECTID":4562,"LANDMARKID":"1000100002479","LANDMARKCO":"501","LANDMARKNA":"東北角海岸國家風景區","LANDMARKAD":"1000126","ADDRESS":"新北市貢寮區福隆村興隆街36號","TEL":"02-24991115#221","COUNTYNAME":"新北市","TOWNNAME":"貢寮區","MARKTYPE":"995","Class":"5"},"geometry":{"x":344865.19089999981,"y":2768135.8688999992}},{"attributes":{"OBJECTID":4563,"LANDMARKID":"1000100002723","LANDMARKCO":"512","LANDMARKNA":"龍洞南口遊客服務中心","LANDMARKAD":"1000126","ADDRESS":"新北市貢寮區和美村和美街48號","TEL":"02-24902717","COUNTYNAME":"新北市","TOWNNAME":"貢寮區","MARKTYPE":"995","Class":"5"},"geometry":{"x":342733.52309999987,"y":2777604.5918000005}},{"attributes":{"OBJECTID":4564,"LANDMARKID":"1000100002724","LANDMARKCO":"512","LANDMARKNA":"東北角國家風景區管理處","LANDMARKAD":"1000126","ADDRESS":"新北市貢寮區福隆村興隆街36號","TEL":"02-24991115#221","COUNTYNAME":"新北市","TOWNNAME":"貢寮區","MARKTYPE":"995","Class":"5"},"geometry":{"x":344873.50659999996,"y":2768134.7731999997}},{"attributes":{"OBJECTID":4565,"LANDMARKID":"1000100002198","LANDMARKCO":"406","LANDMARKNA":"龍洞灣公園","LANDMARKAD":"1000126","ADDRESS":"新北市貢寮區","TEL":" ","COUNTYNAME":"新北市","TOWNNAME":"貢寮區","MARKTYPE":"994","Class":"4"},"geometry":{"x":342636.03780000005,"y":2779279.9058999997}},{"attributes":{"OBJECTID":4566,"LANDMARKID":"1000100002385","LANDMARKCO":"408","LANDMARKNA":"郵局-貢寮郵局","LANDMARKAD":"1000126","ADDRESS":"新北市貢寮區貢寮街50號","TEL":"(02)2494-1127","COUNTYNAME":"新北市","TOWNNAME":"貢寮區","MARKTYPE":"994","Class":"4"},"geometry":{"x":341704.6950000003,"y":2768228.1653000005}},{"attributes":{"OBJECTID":4567,"LANDMARKID":"1000100002386","LANDMARKCO":"408","LANDMARKNA":"郵局-貢寮澳底郵局","LANDMARKAD":"1000126","ADDRESS":"新北市貢寮區仁和路230號","TEL":"(02)2490-3082","COUNTYNAME":"新北市","TOWNNAME":"貢寮區","MARKTYPE":"994","Class":"4"},"geometry":{"x":343244.60410000011,"y":2772073.1045999993}},{"attributes":{"OBJECTID":4568,"LANDMARKID":"1000100002462","LANDMARKCO":"409","LANDMARKNA":"貢寮區漁會","LANDMARKAD":"1000126","ADDRESS":"新北市貢寮區真理村新港街91號","TEL":"02-24901193","COUNTYNAME":"新北市","TOWNNAME":"貢寮區","MARKTYPE":"994","Class":"4"},"geometry":{"x":343485.57770000026,"y":2772391.0505999997}},{"attributes":{"OBJECTID":4569,"LANDMARKID":"1000100002191","LANDMARKCO":"406","LANDMARKNA":"龍洞南口海濱公園","LANDMARKAD":"1000126","ADDRESS":"新北市貢寮區","TEL":" ","COUNTYNAME":"新北市","TOWNNAME":"貢寮區","MARKTYPE":"994","Class":"4"},"geometry":{"x":342200.74600000028,"y":2776069.9918000009}},{"attributes":{"OBJECTID":4570,"LANDMARKID":"1000100001877","LANDMARKCO":"404","LANDMARKNA":"台灣省自來水貢寮雙溪營運所","LANDMARKAD":"1000126","ADDRESS":"新北市貢寮區下雙溪街20號","TEL":" ","COUNTYNAME":"新北市","TOWNNAME":"貢寮區","MARKTYPE":"994","Class":"4"},"geometry":{"x":342979.33509999979,"y":2767226.4046}},{"attributes":{"OBJECTID":4571,"LANDMARKID":"1000100002192","LANDMARKCO":"406","LANDMARKNA":"卯澳公園","LANDMARKAD":"1000126","ADDRESS":"新北市貢寮區","TEL":" ","COUNTYNAME":"新北市","TOWNNAME":"貢寮區","MARKTYPE":"994","Class":"4"},"geometry":{"x":349897.64809999987,"y":2767314.2171999998}},{"attributes":{"OBJECTID":4572,"LANDMARKID":"1000100002193","LANDMARKCO":"406","LANDMARKNA":"福隆海濱公園","LANDMARKAD":"1000126","ADDRESS":"新北市貢寮區福隆村福隆街40號","TEL":" ","COUNTYNAME":"新北市","TOWNNAME":"貢寮區","MARKTYPE":"994","Class":"4"},"geometry":{"x":345463.14230000041,"y":2768154.8820999991}},{"attributes":{"OBJECTID":4573,"LANDMARKID":"1000100002194","LANDMARKCO":"406","LANDMARKNA":"龍門公園","LANDMARKAD":"1000126","ADDRESS":"新北市貢寮區","TEL":" ","COUNTYNAME":"新北市","TOWNNAME":"貢寮區","MARKTYPE":"994","Class":"4"},"geometry":{"x":344403.04270000011,"y":2769278.4787000008}},{"attributes":{"OBJECTID":4574,"LANDMARKID":"1000100002195","LANDMARKCO":"406","LANDMARKNA":"鹽寮海濱公園","LANDMARKAD":"1000126","ADDRESS":"新北市貢寮區濱海公路104公里處","TEL":" ","COUNTYNAME":"新北市","TOWNNAME":"貢寮區","MARKTYPE":"994","Class":"4"},"geometry":{"x":343549.85560000036,"y":2770672.5007000007}},{"attributes":{"OBJECTID":4575,"LANDMARKID":"1000100002196","LANDMARKCO":"406","LANDMARKNA":"鹽寮濱海公園","LANDMARKAD":"1000126","ADDRESS":"新北市貢寮區","TEL":" ","COUNTYNAME":"新北市","TOWNNAME":"貢寮區","MARKTYPE":"994","Class":"4"},"geometry":{"x":343583.33220000006,"y":2770610.7980000004}},{"attributes":{"OBJECTID":4576,"LANDMARKID":"1000100002197","LANDMARKCO":"406","LANDMARKNA":"福隆龍門河濱公園","LANDMARKAD":"1000126","ADDRESS":"新北市貢寮區興隆街100號","TEL":" ","COUNTYNAME":"新北市","TOWNNAME":"貢寮區","MARKTYPE":"994","Class":"4"},"geometry":{"x":344601.90890000015,"y":2768524.3936999999}},{"attributes":{"OBJECTID":4577,"LANDMARKID":"1000100001983","LANDMARKCO":"405","LANDMARKNA":"鯨世界加油站-貢寮站(台塑)","LANDMARKAD":"1000126","ADDRESS":"新北市貢寮區香蘭街2-1號","TEL":" ","COUNTYNAME":"新北市","TOWNNAME":"貢寮區","MARKTYPE":"994","Class":"4"},"geometry":{"x":347823.45110000018,"y":2768722.6625999995}},{"attributes":{"OBJECTID":4578,"LANDMARKID":"1000100001984","LANDMARKCO":"405","LANDMARKNA":"台塑加油站-福隆站(台塑)","LANDMARKAD":"1000126","ADDRESS":"新北市貢寮區福隆村興隆街21-2號","TEL":"02-24991230","COUNTYNAME":"新北市","TOWNNAME":"貢寮區","MARKTYPE":"994","Class":"4"},"geometry":{"x":345327.11959999986,"y":2767977.2628000006}},{"attributes":{"OBJECTID":4579,"LANDMARKID":"1000100000089","LANDMARKCO":"103","LANDMARKNA":"新北市貢寮區衛生所","LANDMARKAD":"1000126","ADDRESS":"新北市貢寮區朝陽街70巷10號","TEL":"02-24941070","COUNTYNAME":"新北市","TOWNNAME":"貢寮區","MARKTYPE":"991","Class":"1"},"geometry":{"x":341824.88320000004,"y":2768519.0042000003}},{"attributes":{"OBJECTID":4580,"LANDMARKID":"1000100000418","LANDMARKCO":"108","LANDMARKNA":"新北市貢寮區公所","LANDMARKAD":"1000126","ADDRESS":"新北市貢寮區貢寮村朝陽街54號","TEL":"02-24941601","COUNTYNAME":"新北市","TOWNNAME":"貢寮區","MARKTYPE":"991","Class":"1"},"geometry":{"x":341654.15969999973,"y":2768568.2588}},{"attributes":{"OBJECTID":4581,"LANDMARKID":"1000100000088","LANDMARKCO":"103","LANDMARKNA":"新北市貢寮區鄉民代表會","LANDMARKAD":"1000126","ADDRESS":"新北市貢寮區朝陽街67號","TEL":"02-24941232","COUNTYNAME":"新北市","TOWNNAME":"貢寮區","MARKTYPE":"991","Class":"1"},"geometry":{"x":341656.02139999997,"y":2768538.2601999994}},{"attributes":{"OBJECTID":4582,"LANDMARKID":"1000100000296","LANDMARKCO":"107","LANDMARKNA":"新北市政府警察局吉林派出所","LANDMARKAD":"1000126","ADDRESS":"新北市貢寮區吉林村枋腳街4號","TEL":"02-24941534","COUNTYNAME":"新北市","TOWNNAME":"貢寮區","MARKTYPE":"991","Class":"1"},"geometry":{"x":339496.06020000018,"y":2766539.6706000008}},{"attributes":{"OBJECTID":4583,"LANDMARKID":"1000100000297","LANDMARKCO":"107","LANDMARKNA":"新北市政府警察局澳底派出所","LANDMARKAD":"1000126","ADDRESS":"新北市貢寮區真理村延平街36號","TEL":"02-24901074","COUNTYNAME":"新北市","TOWNNAME":"貢寮區","MARKTYPE":"991","Class":"1"},"geometry":{"x":343378.21800000034,"y":2772589.6651000008}},{"attributes":{"OBJECTID":4584,"LANDMARKID":"1000100000298","LANDMARKCO":"107","LANDMARKNA":"新北市政府警察局福隆派出所","LANDMARKAD":"1000126","ADDRESS":"新北市貢寮區福隆村福隆街19號","TEL":"02-24991541","COUNTYNAME":"新北市","TOWNNAME":"貢寮區","MARKTYPE":"991","Class":"1"},"geometry":{"x":345400.51360000018,"y":2768029.4622000009}},{"attributes":{"OBJECTID":4585,"LANDMARKID":"1000100000299","LANDMARKCO":"107","LANDMARKNA":"新北市政府警察局卯澳派出所","LANDMARKAD":"1000126","ADDRESS":"新北市貢寮區福連村福連街18號","TEL":"02-24991540","COUNTYNAME":"新北市","TOWNNAME":"貢寮區","MARKTYPE":"991","Class":"1"},"geometry":{"x":350073.21960000042,"y":2767368.1212000009}},{"attributes":{"OBJECTID":4586,"LANDMARKID":"1000100000300","LANDMARKCO":"107","LANDMARKNA":"新北市政府警察局和美派出所","LANDMARKAD":"1000126","ADDRESS":"新北市貢寮區和美村和美街30號","TEL":"02-24901504","COUNTYNAME":"新北市","TOWNNAME":"貢寮區","MARKTYPE":"991","Class":"1"},"geometry":{"x":342167.81439999957,"y":2775278.2682000007}},{"attributes":{"OBJECTID":4587,"LANDMARKID":"1000100000158","LANDMARKCO":"106","LANDMARKNA":"新北市貢寮區戶政事務所","LANDMARKAD":"1000126","ADDRESS":"新北市貢寮區貢寮村8鄰朝陽街56號","TEL":"02-24941034","COUNTYNAME":"新北市","TOWNNAME":"貢寮區","MARKTYPE":"991","Class":"1"},"geometry":{"x":341672.09179999959,"y":2768558.1385999992}},{"attributes":{"OBJECTID":4588,"LANDMARKID":"1000100000294","LANDMARKCO":"107","LANDMARKNA":"新北市政府警察局福隆派出所","LANDMARKAD":"1000126","ADDRESS":"新北市貢寮區福隆街19號","TEL":"02-24991541","COUNTYNAME":"新北市","TOWNNAME":"貢寮區","MARKTYPE":"991","Class":"1"},"geometry":{"x":345359.06350000016,"y":2767943.1327}},{"attributes":{"OBJECTID":4589,"LANDMARKID":"1000100000295","LANDMARKCO":"107","LANDMARKNA":"新北市政府警察局貢寮分駐所","LANDMARKAD":"1000126","ADDRESS":"新北市瑞芳區貢寮區朝陽街68號","TEL":"02-24941304","COUNTYNAME":"新北市","TOWNNAME":"貢寮區","MARKTYPE":"991","Class":"1"},"geometry":{"x":341912.94820000045,"y":2768528.4123999998}},{"attributes":{"OBJECTID":4590,"LANDMARKID":"1000100000849","LANDMARKCO":"204","LANDMARKNA":"新北市立圖書館澳底分館","LANDMARKAD":"1000126","ADDRESS":"新北市貢寮區真理村仁愛路79號3樓","TEL":" ","COUNTYNAME":"新北市","TOWNNAME":"貢寮區","MARKTYPE":"992","Class":"2"},"geometry":{"x":343344.74409999978,"y":2772008.7673000004}},{"attributes":{"OBJECTID":4591,"LANDMARKID":"1000100000687","LANDMARKCO":"203","LANDMARKNA":"縣立豐珠國中小學","LANDMARKAD":"1000126","ADDRESS":"新北市貢寮區美豐村雞母嶺街6之6號","TEL":"02-24903727","COUNTYNAME":"新北市","TOWNNAME":"貢寮區","MARKTYPE":"992","Class":"2"},"geometry":{"x":340977.48469999991,"y":2773378.8355}},{"attributes":{"OBJECTID":4592,"LANDMARKID":"1000100000688","LANDMARKCO":"203","LANDMARKNA":"縣立吉林國小","LANDMARKAD":"1000126","ADDRESS":"新北市貢寮區吉林村內寮街55號","TEL":"02-24941077","COUNTYNAME":"新北市","TOWNNAME":"貢寮區","MARKTYPE":"992","Class":"2"},"geometry":{"x":339625.86649999954,"y":2764508.9137999993}},{"attributes":{"OBJECTID":4593,"LANDMARKID":"1000100000689","LANDMARKCO":"203","LANDMARKNA":"縣立澳底國小","LANDMARKAD":"1000126","ADDRESS":"新北市貢寮區真理村延平街10號","TEL":"02-24901432","COUNTYNAME":"新北市","TOWNNAME":"貢寮區","MARKTYPE":"992","Class":"2"},"geometry":{"x":343354.48709999956,"y":2772159.8563000001}},{"attributes":{"OBJECTID":4594,"LANDMARKID":"1000100000690","LANDMARKCO":"203","LANDMARKNA":"縣立福隆國小","LANDMARKAD":"1000126","ADDRESS":"新北市貢寮區福隆村東興街35號","TEL":"02-24991449","COUNTYNAME":"新北市","TOWNNAME":"貢寮區","MARKTYPE":"992","Class":"2"},"geometry":{"x":345759.56799999997,"y":2768038.9098000005}},{"attributes":{"OBJECTID":4595,"LANDMARKID":"1000100000691","LANDMARKCO":"203","LANDMARKNA":"縣立福連國小","LANDMARKAD":"1000126","ADDRESS":"新北市貢寮區福連村福連街1號","TEL":"02-24991194","COUNTYNAME":"新北市","TOWNNAME":"貢寮區","MARKTYPE":"992","Class":"2"},"geometry":{"x":349800.11589999963,"y":2767968.0402000006}},{"attributes":{"OBJECTID":4596,"LANDMARKID":"1000100000692","LANDMARKCO":"203","LANDMARKNA":"縣立貢寮國小","LANDMARKAD":"1000126","ADDRESS":"新北市貢寮區雙玉村學苑街7號","TEL":"02-24941078","COUNTYNAME":"新北市","TOWNNAME":"貢寮區","MARKTYPE":"992","Class":"2"},"geometry":{"x":342354.87000000011,"y":2768519.2059000004}},{"attributes":{"OBJECTID":4597,"LANDMARKID":"1000100000693","LANDMARKCO":"203","LANDMARKNA":"縣立和美國小","LANDMARKAD":"1000126","ADDRESS":"新北市貢寮區和美村龍洞街1號","TEL":"02-24909035","COUNTYNAME":"新北市","TOWNNAME":"貢寮區","MARKTYPE":"992","Class":"2"},"geometry":{"x":342094.74870000035,"y":2775268.7620000001}},{"attributes":{"OBJECTID":4598,"LANDMARKID":"1000100000694","LANDMARKCO":"203","LANDMARKNA":"縣立貢寮國中","LANDMARKAD":"1000126","ADDRESS":"新北市貢寮區嵩陽街42號","TEL":"02-24941941","COUNTYNAME":"新北市","TOWNNAME":"貢寮區","MARKTYPE":"992","Class":"2"},"geometry":{"x":341651.72229999956,"y":2767878.3169999998}},{"attributes":{"OBJECTID":4599,"LANDMARKID":"1000100001437","LANDMARKCO":"305","LANDMARKNA":"馬崗漁港","LANDMARKAD":"1000126","ADDRESS":"新北市貢寮區","TEL":" ","COUNTYNAME":"新北市","TOWNNAME":"貢寮區","MARKTYPE":"993","Class":"305"},"geometry":{"x":351302.03419999965,"y":2767725.8188000005}},{"attributes":{"OBJECTID":4600,"LANDMARKID":"1000100001438","LANDMARKCO":"305","LANDMARKNA":"卯澳漁港","LANDMARKAD":"1000126","ADDRESS":"新北市貢寮區","TEL":" ","COUNTYNAME":"新北市","TOWNNAME":"貢寮區","MARKTYPE":"993","Class":"305"},"geometry":{"x":350107.50710000005,"y":2767496.3643999994}}]}