{"displayFieldName":"COUNTYNAME","fieldAliases":{"OBJECTID":"OBJECTID","LANDMARKID":"LANDMARKID","LANDMARKCO":"LANDMARKCO","LANDMARKNA":"LANDMARKNA","LANDMARKAD":"LANDMARKAD","ADDRESS":"ADDRESS","TEL":"TEL","COUNTYNAME":"COUNTYNAME","TOWNNAME":"TOWNNAME","MARKTYPE":"MARKTYPE","Class":"Class"},"geometryType":"esriGeometryPoint","spatialReference":{"wkid":4326},"fields":[{"name":"OBJECTID","type":"esriFieldTypeOID","alias":"OBJECTID"},{"name":"LANDMARKID","type":"esriFieldTypeString","alias":"LANDMARKID","length":15},{"name":"LANDMARKCO","type":"esriFieldTypeString","alias":"LANDMARKCO","length":15},{"name":"LANDMARKNA","type":"esriFieldTypeString","alias":"LANDMARKNA","length":50},{"name":"LANDMARKAD","type":"esriFieldTypeString","alias":"LANDMARKAD","length":15},{"name":"ADDRESS","type":"esriFieldTypeString","alias":"ADDRESS","length":56},{"name":"TEL","type":"esriFieldTypeString","alias":"TEL","length":36},{"name":"COUNTYNAME","type":"esriFieldTypeString","alias":"COUNTYNAME","length":15},{"name":"TOWNNAME","type":"esriFieldTypeString","alias":"TOWNNAME","length":13},{"name":"MARKTYPE","type":"esriFieldTypeString","alias":"MARKTYPE","length":12},{"name":"Class","type":"esriFieldTypeString","alias":"Class","length":5}],"features":[{"attributes":{"OBJECTID":22001,"LANDMARKID":"6400000000695","LANDMARKCO":"306","LANDMARKNA":"小港捷運站-出口3","LANDMARKAD":"6400011","ADDRESS":" ","TEL":" ","COUNTYNAME":"高雄市","TOWNNAME":"小港區","MARKTYPE":"993","Class":"306"},"geometry":{"x":120.35363721720074,"y":22.565291585517578}},{"attributes":{"OBJECTID":22002,"LANDMARKID":"6400000000696","LANDMARKCO":"306","LANDMARKNA":"小港捷運站-出口4","LANDMARKAD":"6400011","ADDRESS":" ","TEL":" ","COUNTYNAME":"高雄市","TOWNNAME":"小港區","MARKTYPE":"993","Class":"306"},"geometry":{"x":120.35312797426967,"y":22.564826956007256}},{"attributes":{"OBJECTID":22003,"LANDMARKID":"6400000000697","LANDMARKCO":"306","LANDMARKNA":"高雄小港國際機場捷運站-出口1","LANDMARKAD":"6400011","ADDRESS":" ","TEL":" ","COUNTYNAME":"高雄市","TOWNNAME":"小港區","MARKTYPE":"993","Class":"306"},"geometry":{"x":120.34441438911668,"y":22.569384574525486}},{"attributes":{"OBJECTID":22004,"LANDMARKID":"6400000000698","LANDMARKCO":"306","LANDMARKNA":"高雄小港國際機場捷運站-出口2","LANDMARKAD":"6400011","ADDRESS":" ","TEL":" ","COUNTYNAME":"高雄市","TOWNNAME":"小港區","MARKTYPE":"993","Class":"306"},"geometry":{"x":120.34401833346317,"y":22.571031483837153}},{"attributes":{"OBJECTID":22005,"LANDMARKID":"6400000000699","LANDMARKCO":"306","LANDMARKNA":"高雄小港國際機場捷運站-出口3","LANDMARKAD":"6400011","ADDRESS":" ","TEL":" ","COUNTYNAME":"高雄市","TOWNNAME":"小港區","MARKTYPE":"993","Class":"306"},"geometry":{"x":120.3419650159252,"y":22.570534260418921}},{"attributes":{"OBJECTID":22006,"LANDMARKID":"6400000000700","LANDMARKCO":"306","LANDMARKNA":"高雄小港國際機場捷運站-出口4","LANDMARKAD":"6400011","ADDRESS":" ","TEL":" ","COUNTYNAME":"高雄市","TOWNNAME":"小港區","MARKTYPE":"993","Class":"306"},"geometry":{"x":120.34268688503568,"y":22.570310393882888}},{"attributes":{"OBJECTID":22007,"LANDMARKID":"6400000000701","LANDMARKCO":"306","LANDMARKNA":"高雄小港國際機場捷運站-出口5","LANDMARKAD":"6400011","ADDRESS":" ","TEL":" ","COUNTYNAME":"高雄市","TOWNNAME":"小港區","MARKTYPE":"993","Class":"306"},"geometry":{"x":120.34035630991099,"y":22.570595138904093}},{"attributes":{"OBJECTID":22008,"LANDMARKID":"6400000000702","LANDMARKCO":"306","LANDMARKNA":"高雄小港國際機場捷運站-出口6","LANDMARKAD":"6400011","ADDRESS":" ","TEL":" ","COUNTYNAME":"高雄市","TOWNNAME":"小港區","MARKTYPE":"993","Class":"306"},"geometry":{"x":120.34031203842497,"y":22.571701867405196}},{"attributes":{"OBJECTID":22009,"LANDMARKID":"6400000000703","LANDMARKCO":"306","LANDMARKNA":"高雄小港國際機場捷運站-出口7","LANDMARKAD":"6400011","ADDRESS":" ","TEL":" ","COUNTYNAME":"高雄市","TOWNNAME":"小港區","MARKTYPE":"993","Class":"306"},"geometry":{"x":120.33974966885869,"y":22.57052749175023}},{"attributes":{"OBJECTID":22010,"LANDMARKID":"6400000000577","LANDMARKCO":"304","LANDMARKNA":"高雄國際航空站-小港機場","LANDMARKAD":"6400011","ADDRESS":"高雄市小港區中山四路2號","TEL":" ","COUNTYNAME":"高雄市","TOWNNAME":"小港區","MARKTYPE":"993","Class":"304"},"geometry":{"x":120.3449220617274,"y":22.570911668999216}},{"attributes":{"OBJECTID":22011,"LANDMARKID":"6400000000566","LANDMARKCO":"303","LANDMARKNA":"小港平和路公共停車場","LANDMARKAD":"6400011","ADDRESS":"高雄市小港區平和南路","TEL":" ","COUNTYNAME":"高雄市","TOWNNAME":"小港區","MARKTYPE":"993","Class":"303"},"geometry":{"x":120.33565935361901,"y":22.562498708234276}},{"attributes":{"OBJECTID":22012,"LANDMARKID":"6400000000567","LANDMARKCO":"303","LANDMARKNA":"青島市場停車場","LANDMARKAD":"6400011","ADDRESS":"高雄市小港區中光街","TEL":" ","COUNTYNAME":"高雄市","TOWNNAME":"小港區","MARKTYPE":"993","Class":"303"},"geometry":{"x":120.35569564339897,"y":22.571457641292266}},{"attributes":{"OBJECTID":22013,"LANDMARKID":"6400000000568","LANDMARKCO":"303","LANDMARKNA":"小港醫院第一停車場","LANDMARKAD":"6400011","ADDRESS":"高雄市小港區","TEL":" ","COUNTYNAME":"高雄市","TOWNNAME":"小港區","MARKTYPE":"993","Class":"303"},"geometry":{"x":120.36309133002059,"y":22.567247938005828}},{"attributes":{"OBJECTID":22014,"LANDMARKID":"6400000000569","LANDMARKCO":"303","LANDMARKNA":"小港醫院第三停車場","LANDMARKAD":"6400011","ADDRESS":"高雄市小港區","TEL":" ","COUNTYNAME":"高雄市","TOWNNAME":"小港區","MARKTYPE":"993","Class":"303"},"geometry":{"x":120.36344374316239,"y":22.568121170278463}},{"attributes":{"OBJECTID":22015,"LANDMARKID":"6400000000570","LANDMARKCO":"303","LANDMARKNA":"小港醫院地下停車場","LANDMARKAD":"6400011","ADDRESS":"高雄市小港區","TEL":" ","COUNTYNAME":"高雄市","TOWNNAME":"小港區","MARKTYPE":"993","Class":"303"},"geometry":{"x":120.36396072610393,"y":22.567162364352072}},{"attributes":{"OBJECTID":22016,"LANDMARKID":"6400000000571","LANDMARKCO":"303","LANDMARKNA":"公有停車場","LANDMARKAD":"6400011","ADDRESS":"高雄市小港區","TEL":" ","COUNTYNAME":"高雄市","TOWNNAME":"小港區","MARKTYPE":"993","Class":"303"},"geometry":{"x":120.370243623945,"y":22.562391636889906}},{"attributes":{"OBJECTID":22017,"LANDMARKID":"6400000000572","LANDMARKCO":"303","LANDMARKNA":"高雄餐旅學院停車場","LANDMARKAD":"6400011","ADDRESS":"高雄市小港區博學路","TEL":" ","COUNTYNAME":"高雄市","TOWNNAME":"小港區","MARKTYPE":"993","Class":"303"},"geometry":{"x":120.37130783482219,"y":22.564232188940665}},{"attributes":{"OBJECTID":22018,"LANDMARKID":"6400000000573","LANDMARKCO":"303","LANDMARKNA":"高雄市政府公共停車場","LANDMARKAD":"6400011","ADDRESS":"高雄市小港區","TEL":" ","COUNTYNAME":"高雄市","TOWNNAME":"小港區","MARKTYPE":"993","Class":"303"},"geometry":{"x":120.3808790848073,"y":22.556809867401508}},{"attributes":{"OBJECTID":22019,"LANDMARKID":"6400000000574","LANDMARKCO":"303","LANDMARKNA":"小港國際停車場","LANDMARKAD":"6400011","ADDRESS":"高雄市小港區翠亨南路151之1號","TEL":" ","COUNTYNAME":"高雄市","TOWNNAME":"小港區","MARKTYPE":"993","Class":"303"},"geometry":{"x":120.33425039352792,"y":22.572308171056985}},{"attributes":{"OBJECTID":22020,"LANDMARKID":"6400000000575","LANDMARKCO":"303","LANDMARKNA":"公有小港一號公園地下停車場","LANDMARKAD":"6400011","ADDRESS":"高雄市小港區小港路175號","TEL":" ","COUNTYNAME":"高雄市","TOWNNAME":"小港區","MARKTYPE":"993","Class":"303"},"geometry":{"x":120.33815368178965,"y":22.564507950467799}},{"attributes":{"OBJECTID":22021,"LANDMARKID":"6400000000576","LANDMARKCO":"303","LANDMARKNA":"中興嘟嘟房停車場-大鵬加盟小港站","LANDMARKAD":"6400011","ADDRESS":"高雄市前鎮區翠亨南路230號","TEL":"07-8411385","COUNTYNAME":"高雄市","TOWNNAME":"小港區","MARKTYPE":"993","Class":"303"},"geometry":{"x":120.33674574223518,"y":22.569967127300494}},{"attributes":{"OBJECTID":22022,"LANDMARKID":"6400000000916","LANDMARKCO":"402","LANDMARKNA":"中華電信-高雄二苓特約服務中心","LANDMARKAD":"6400011","ADDRESS":"高雄市小港區二苓路134號","TEL":"07-8055488","COUNTYNAME":"高雄市","TOWNNAME":"小港區","MARKTYPE":"994","Class":"4"},"geometry":{"x":120.35036515937267,"y":22.565534806349994}},{"attributes":{"OBJECTID":22023,"LANDMARKID":"6400000000917","LANDMARKCO":"402","LANDMARKNA":"中華電信-高雄漢民特約服務中心","LANDMARKAD":"6400011","ADDRESS":"高雄市漢民路622號","TEL":"07-8027288","COUNTYNAME":"高雄市","TOWNNAME":"小港區","MARKTYPE":"994","Class":"4"},"geometry":{"x":120.36028498509025,"y":22.566754867818034}},{"attributes":{"OBJECTID":22024,"LANDMARKID":"6400000000918","LANDMARKCO":"402","LANDMARKNA":"威寶電信-高雄漢民特約服務中心","LANDMARKAD":"6400011","ADDRESS":"高雄市小港區漢民路616號","TEL":"07-8063777","COUNTYNAME":"高雄市","TOWNNAME":"小港區","MARKTYPE":"994","Class":"4"},"geometry":{"x":120.36013955369944,"y":22.566708555084364}},{"attributes":{"OBJECTID":22025,"LANDMARKID":"6400000000919","LANDMARKCO":"402","LANDMARKNA":"威寶電信-高雄崇文特約服務中心","LANDMARKAD":"6400011","ADDRESS":"高雄市小港區崇文路75號","TEL":"07-8026666","COUNTYNAME":"高雄市","TOWNNAME":"小港區","MARKTYPE":"994","Class":"4"},"geometry":{"x":120.35172970750628,"y":22.568661461497431}},{"attributes":{"OBJECTID":22026,"LANDMARKID":"6400000000920","LANDMARKCO":"402","LANDMARKNA":"大眾電信-小港電信有限公司(全美)","LANDMARKAD":"6400011","ADDRESS":"高雄市小港區漢民路690號","TEL":"07-8038888","COUNTYNAME":"高雄市","TOWNNAME":"小港區","MARKTYPE":"994","Class":"4"},"geometry":{"x":120.36139804761764,"y":22.56731257619343}},{"attributes":{"OBJECTID":22027,"LANDMARKID":"6400000000921","LANDMARKCO":"402","LANDMARKNA":"大眾電信(震旦通訊)-高雄漢民店","LANDMARKAD":"6400011","ADDRESS":"高雄市漢民路251號","TEL":"07-8060388","COUNTYNAME":"高雄市","TOWNNAME":"小港區","MARKTYPE":"994","Class":"4"},"geometry":{"x":120.35197279638439,"y":22.566234138377673}},{"attributes":{"OBJECTID":22028,"LANDMARKID":"6400000000922","LANDMARKCO":"402","LANDMARKNA":"中華電信-小港服務中心","LANDMARKAD":"6400011","ADDRESS":"高雄市小港區小港一街5號","TEL":"123或0800-080-123","COUNTYNAME":"高雄市","TOWNNAME":"小港區","MARKTYPE":"994","Class":"4"},"geometry":{"x":120.33715725238058,"y":22.563778381064356}},{"attributes":{"OBJECTID":22029,"LANDMARKID":"6400000001452","LANDMARKCO":"603","LANDMARKNA":"樂利大旅社","LANDMARKAD":"6400011","ADDRESS":"高雄市小港區樂利路63號","TEL":"07-8021471","COUNTYNAME":"高雄市","TOWNNAME":"小港區","MARKTYPE":"996","Class":"6"},"geometry":{"x":120.35691287570396,"y":22.568849501134778}},{"attributes":{"OBJECTID":22030,"LANDMARKID":"6400000001453","LANDMARKCO":"603","LANDMARKNA":"容光大旅社","LANDMARKAD":"6400011","ADDRESS":"高雄市小港區二苓路264號","TEL":"07-8011566","COUNTYNAME":"高雄市","TOWNNAME":"小港區","MARKTYPE":"996","Class":"6"},"geometry":{"x":120.34738861725788,"y":22.565648383309394}},{"attributes":{"OBJECTID":22031,"LANDMARKID":"6400000001454","LANDMARKCO":"603","LANDMARKNA":"高富大飯店","LANDMARKAD":"6400011","ADDRESS":"高雄市小港區宏平路447號5-12樓","TEL":"07-8038881","COUNTYNAME":"高雄市","TOWNNAME":"小港區","MARKTYPE":"996","Class":"6"},"geometry":{"x":120.3563132337185,"y":22.569669289325713}},{"attributes":{"OBJECTID":22032,"LANDMARKID":"6400000001455","LANDMARKCO":"603","LANDMARKNA":"小港汽車商務旅館","LANDMARKAD":"6400011","ADDRESS":"高雄市小港區宏平路579號","TEL":"07-8035566","COUNTYNAME":"高雄市","TOWNNAME":"小港區","MARKTYPE":"996","Class":"6"},"geometry":{"x":120.35409725401038,"y":22.569554299411752}},{"attributes":{"OBJECTID":22033,"LANDMARKID":"6400000001456","LANDMARKCO":"603","LANDMARKNA":"客萊頌汽車旅館","LANDMARKAD":"6400011","ADDRESS":"高雄市小港區桂忠街5巷2號","TEL":"07-7919588","COUNTYNAME":"高雄市","TOWNNAME":"小港區","MARKTYPE":"996","Class":"6"},"geometry":{"x":120.35772289259205,"y":22.583994418140556}},{"attributes":{"OBJECTID":22034,"LANDMARKID":"6400000001457","LANDMARKCO":"603","LANDMARKNA":"青海旅社","LANDMARKAD":"6400011","ADDRESS":"高雄市小港區鳳林路123巷10號","TEL":"07-8721678","COUNTYNAME":"高雄市","TOWNNAME":"小港區","MARKTYPE":"996","Class":"6"},"geometry":{"x":120.34521433732202,"y":22.527251948071008}},{"attributes":{"OBJECTID":22035,"LANDMARKID":"6400000001458","LANDMARKCO":"603","LANDMARKNA":"全成大旅社","LANDMARKAD":"6400011","ADDRESS":"高雄市小港區鳳林路21號","TEL":"07-8712875","COUNTYNAME":"高雄市","TOWNNAME":"小港區","MARKTYPE":"996","Class":"6"},"geometry":{"x":120.34797609026532,"y":22.524725412768756}},{"attributes":{"OBJECTID":22036,"LANDMARKID":"6400000001459","LANDMARKCO":"603","LANDMARKNA":"鳳美大旅社","LANDMARKAD":"6400011","ADDRESS":"高雄市小港區鳳林路99號","TEL":"07-8711981","COUNTYNAME":"高雄市","TOWNNAME":"小港區","MARKTYPE":"996","Class":"6"},"geometry":{"x":120.3462227787457,"y":22.526492508191591}},{"attributes":{"OBJECTID":22037,"LANDMARKID":"6400000001460","LANDMARKCO":"603","LANDMARKNA":"打狗戀館","LANDMARKAD":"6400011","ADDRESS":"高雄市小港區港平路167號","TEL":"07-8129988","COUNTYNAME":"高雄市","TOWNNAME":"小港區","MARKTYPE":"996","Class":"6"},"geometry":{"x":120.33486836284939,"y":22.563850796318651}},{"attributes":{"OBJECTID":22038,"LANDMARKID":"6400000000578","LANDMARKCO":"305","LANDMARKNA":"紅毛港","LANDMARKAD":"6400011","ADDRESS":"高雄市小港區","TEL":" ","COUNTYNAME":"高雄市","TOWNNAME":"小港區","MARKTYPE":"993","Class":"305"},"geometry":{"x":120.32129398629235,"y":22.551059561321374}},{"attributes":{"OBJECTID":22039,"LANDMARKID":"6400000000579","LANDMARKCO":"305","LANDMARKNA":"海汕小漁港","LANDMARKAD":"6400011","ADDRESS":"高雄市小港區","TEL":" ","COUNTYNAME":"高雄市","TOWNNAME":"小港區","MARKTYPE":"993","Class":"305"},"geometry":{"x":120.33110519842086,"y":22.539363737053851}},{"attributes":{"OBJECTID":22040,"LANDMARKID":"1000200000527","LANDMARKCO":"405","LANDMARKNA":"中油加油站-頭城站(中油直營)","LANDMARKAD":"1000204","ADDRESS":"宜蘭縣頭城鎮開蘭路300號","TEL":"03-9771644","COUNTYNAME":"宜蘭縣","TOWNNAME":"頭城鎮","MARKTYPE":"994","Class":"4"},"geometry":{"x":121.82844626213424,"y":24.864474846122601}},{"attributes":{"OBJECTID":22041,"LANDMARKID":"1000200000528","LANDMARKCO":"405","LANDMARKNA":"中油加油站-北關站(中油直營)","LANDMARKAD":"1000204","ADDRESS":"宜蘭縣頭城鎮濱海路三段326號","TEL":"039-776128","COUNTYNAME":"宜蘭縣","TOWNNAME":"頭城鎮","MARKTYPE":"994","Class":"4"},"geometry":{"x":121.87080455463062,"y":24.905615268878556}},{"attributes":{"OBJECTID":22042,"LANDMARKID":"1000200000529","LANDMARKCO":"405","LANDMARKNA":"中油加油站-大里站(中油直營)","LANDMARKAD":"1000204","ADDRESS":"宜蘭縣頭城鎮濱海路七段81號","TEL":"039-781137","COUNTYNAME":"宜蘭縣","TOWNNAME":"頭城鎮","MARKTYPE":"994","Class":"4"},"geometry":{"x":121.92805488371998,"y":24.971535153904544}},{"attributes":{"OBJECTID":22043,"LANDMARKID":"1000200000530","LANDMARKCO":"405","LANDMARKNA":"中油加油站-金面站","LANDMARKAD":"1000204","ADDRESS":"宜蘭縣頭城鎮青雲路一段420號","TEL":"039-776509","COUNTYNAME":"宜蘭縣","TOWNNAME":"頭城鎮","MARKTYPE":"994","Class":"4"},"geometry":{"x":121.79868699877231,"y":24.840183480483926}},{"attributes":{"OBJECTID":22044,"LANDMARKID":"1000200000679","LANDMARKCO":"506","LANDMARKNA":"大隱茶園","LANDMARKAD":"1000204","ADDRESS":"宜蘭縣頭城鎮","TEL":" ","COUNTYNAME":"宜蘭縣","TOWNNAME":"頭城鎮","MARKTYPE":"995","Class":"5"},"geometry":{"x":121.91805666515509,"y":24.970727757747667}},{"attributes":{"OBJECTID":22045,"LANDMARKID":"1000200000680","LANDMARKCO":"506","LANDMARKNA":"中山茶園","LANDMARKAD":"1000204","ADDRESS":"宜蘭縣頭城鎮","TEL":" ","COUNTYNAME":"宜蘭縣","TOWNNAME":"頭城鎮","MARKTYPE":"995","Class":"5"},"geometry":{"x":121.91468182161323,"y":24.96198079905529}},{"attributes":{"OBJECTID":22046,"LANDMARKID":"1000200000681","LANDMARKCO":"506","LANDMARKNA":"頭城休閒農場","LANDMARKAD":"1000204","ADDRESS":"宜蘭縣頭城鎮更新里更新路125號","TEL":"03-9772222","COUNTYNAME":"宜蘭縣","TOWNNAME":"頭城鎮","MARKTYPE":"995","Class":"5"},"geometry":{"x":121.85081056959986,"y":24.909320703492764}},{"attributes":{"OBJECTID":22047,"LANDMARKID":"1000200000682","LANDMARKCO":"506","LANDMARKNA":"滬連山休閒農場","LANDMARKAD":"1000204","ADDRESS":"宜蘭縣頭城鎮福德路九股山","TEL":"03-9777077","COUNTYNAME":"宜蘭縣","TOWNNAME":"頭城鎮","MARKTYPE":"995","Class":"5"},"geometry":{"x":121.81106644659425,"y":24.874153521351982}},{"attributes":{"OBJECTID":22048,"LANDMARKID":"1000200000730","LANDMARKCO":"512","LANDMARKNA":"大里遊客服務中心","LANDMARKAD":"1000204","ADDRESS":"宜蘭縣頭城鎮石城路125號","TEL":"03-9780727#101","COUNTYNAME":"宜蘭縣","TOWNNAME":"頭城鎮","MARKTYPE":"995","Class":"5"},"geometry":{"x":121.91963107840094,"y":24.962794357225413}},{"attributes":{"OBJECTID":22049,"LANDMARKID":"1000200000572","LANDMARKCO":"406","LANDMARKNA":"北關海潮公園","LANDMARKAD":"1000204","ADDRESS":"宜蘭縣頭城鎮","TEL":" ","COUNTYNAME":"宜蘭縣","TOWNNAME":"頭城鎮","MARKTYPE":"994","Class":"4"},"geometry":{"x":121.8781762369595,"y":24.912642023091756}},{"attributes":{"OBJECTID":22050,"LANDMARKID":"1000200000599","LANDMARKCO":"408","LANDMARKNA":"郵局-頭城郵局","LANDMARKAD":"1000204","ADDRESS":"宜蘭縣頭城鎮民鋒路15號","TEL":"(03)9782-628","COUNTYNAME":"宜蘭縣","TOWNNAME":"頭城鎮","MARKTYPE":"994","Class":"4"},"geometry":{"x":121.82311640238676,"y":24.858512268654682}},{"attributes":{"OBJECTID":22051,"LANDMARKID":"1000200000600","LANDMARKCO":"408","LANDMARKNA":"郵局-頭城大溪港郵局","LANDMARKAD":"1000204","ADDRESS":"宜蘭縣頭城鎮濱海路5段153號","TEL":"(03)9781-136","COUNTYNAME":"宜蘭縣","TOWNNAME":"頭城鎮","MARKTYPE":"994","Class":"4"},"geometry":{"x":121.89132144938877,"y":24.939424620853643}},{"attributes":{"OBJECTID":22052,"LANDMARKID":"1000200000601","LANDMARKCO":"408","LANDMARKNA":"郵局-頭城頂埔郵局","LANDMARKAD":"1000204","ADDRESS":"宜蘭縣頭城鎮青雲路2段299號","TEL":"(03)9775-470","COUNTYNAME":"宜蘭縣","TOWNNAME":"頭城鎮","MARKTYPE":"994","Class":"4"},"geometry":{"x":121.80719546457343,"y":24.845468576517046}},{"attributes":{"OBJECTID":22053,"LANDMARKID":"1000200000627","LANDMARKCO":"409","LANDMARKNA":"宜蘭縣頭城鎮農會","LANDMARKAD":"1000204","ADDRESS":"宜蘭縣頭城鎮西5巷3之1號","TEL":"03-9773100-2","COUNTYNAME":"宜蘭縣","TOWNNAME":"頭城鎮","MARKTYPE":"994","Class":"4"},"geometry":{"x":121.82446657328995,"y":24.860185998197096}},{"attributes":{"OBJECTID":22054,"LANDMARKID":"1000200000628","LANDMARKCO":"409","LANDMARKNA":"頭城區漁會","LANDMARKAD":"1000204","ADDRESS":"宜蘭縣頭城鎮港口里15-7號","TEL":"03-9782511　","COUNTYNAME":"宜蘭縣","TOWNNAME":"頭城鎮","MARKTYPE":"994","Class":"4"},"geometry":{"x":121.90299162510695,"y":24.942026782592389}},{"attributes":{"OBJECTID":22055,"LANDMARKID":"1000200000501","LANDMARKCO":"404","LANDMARKNA":"台灣省自來水頭城營運所","LANDMARKAD":"1000204","ADDRESS":"宜蘭縣頭城鎮吉祥路75巷5號","TEL":" ","COUNTYNAME":"宜蘭縣","TOWNNAME":"頭城鎮","MARKTYPE":"994","Class":"4"},"geometry":{"x":121.81566365553293,"y":24.859506344168885}},{"attributes":{"OBJECTID":22056,"LANDMARKID":"1000200000573","LANDMARKCO":"406","LANDMARKNA":"城西公園","LANDMARKAD":"1000204","ADDRESS":"宜蘭縣頭城鎮","TEL":" ","COUNTYNAME":"宜蘭縣","TOWNNAME":"頭城鎮","MARKTYPE":"994","Class":"4"},"geometry":{"x":121.82168872734147,"y":24.85659108250508}},{"attributes":{"OBJECTID":22057,"LANDMARKID":"1000200000574","LANDMARKCO":"406","LANDMARKNA":"社區公園","LANDMARKAD":"1000204","ADDRESS":"宜蘭縣頭城鎮","TEL":" ","COUNTYNAME":"宜蘭縣","TOWNNAME":"頭城鎮","MARKTYPE":"994","Class":"4"},"geometry":{"x":121.81445845436885,"y":24.845593170107328}},{"attributes":{"OBJECTID":22058,"LANDMARKID":"1000200000526","LANDMARKCO":"405","LANDMARKNA":"台塑加油站-竹安站(台塑)","LANDMARKAD":"1000204","ADDRESS":"宜蘭縣頭城鎮竹安里頭濱路一段225號","TEL":"03-9772619","COUNTYNAME":"宜蘭縣","TOWNNAME":"頭城鎮","MARKTYPE":"994","Class":"4"},"geometry":{"x":121.81887446686602,"y":24.815361247307766}},{"attributes":{"OBJECTID":22059,"LANDMARKID":"1000200000141","LANDMARKCO":"107","LANDMARKNA":"宜蘭縣消防局頭城消防分隊","LANDMARKAD":"1000204","ADDRESS":"宜蘭縣頭城鎮開蘭路285號","TEL":"03-9771044","COUNTYNAME":"宜蘭縣","TOWNNAME":"頭城鎮","MARKTYPE":"991","Class":"1"},"geometry":{"x":121.82681301719387,"y":24.862567428663052}},{"attributes":{"OBJECTID":22060,"LANDMARKID":"1000200000142","LANDMARKCO":"107","LANDMARKNA":"宜蘭縣警察局福成派出所","LANDMARKAD":"1000204","ADDRESS":"宜蘭縣頭城鎮福城里福成路5號","TEL":"039-771896","COUNTYNAME":"宜蘭縣","TOWNNAME":"頭城鎮","MARKTYPE":"991","Class":"1"},"geometry":{"x":121.80793869351052,"y":24.863029006434587}},{"attributes":{"OBJECTID":22061,"LANDMARKID":"1000200000143","LANDMARKCO":"107","LANDMARKNA":"宜蘭縣警察局二城派出所","LANDMARKAD":"1000204","ADDRESS":"宜蘭縣頭城鎮二城里二城路41號","TEL":"039-882654","COUNTYNAME":"宜蘭縣","TOWNNAME":"頭城鎮","MARKTYPE":"991","Class":"1"},"geometry":{"x":121.79220988994135,"y":24.839108715907816}},{"attributes":{"OBJECTID":22062,"LANDMARKID":"1000200000144","LANDMARKCO":"107","LANDMARKNA":"宜蘭縣警察局梗枋派出所","LANDMARKAD":"1000204","ADDRESS":"宜蘭縣頭城鎮更新路238號","TEL":"039-775088","COUNTYNAME":"宜蘭縣","TOWNNAME":"頭城鎮","MARKTYPE":"991","Class":"1"},"geometry":{"x":121.863517476684,"y":24.90000196540182}},{"attributes":{"OBJECTID":22063,"LANDMARKID":"1000200000145","LANDMARKCO":"107","LANDMARKNA":"國公路警察局第九警察隊部","LANDMARKAD":"1000204","ADDRESS":"宜蘭縣頭城鎮二城里青雲路一段82-1號","TEL":"039-889688","COUNTYNAME":"宜蘭縣","TOWNNAME":"頭城鎮","MARKTYPE":"991","Class":"1"},"geometry":{"x":121.79080131743042,"y":24.837912351493646}},{"attributes":{"OBJECTID":22064,"LANDMARKID":"1000200000062","LANDMARKCO":"103","LANDMARKNA":"宜蘭縣頭城鎮鎮民代表會","LANDMARKAD":"1000204","ADDRESS":"宜蘭縣頭城鎮城北里纘祥路88號3樓","TEL":"03-9771459","COUNTYNAME":"宜蘭縣","TOWNNAME":"頭城鎮","MARKTYPE":"991","Class":"1"},"geometry":{"x":121.82359284374613,"y":24.859231511659477}},{"attributes":{"OBJECTID":22065,"LANDMARKID":"1000200000063","LANDMARKCO":"103","LANDMARKNA":"宜蘭縣頭城鎮衛生所","LANDMARKAD":"1000204","ADDRESS":"宜蘭縣頭城鎮新興路304號","TEL":"03-9771034","COUNTYNAME":"宜蘭縣","TOWNNAME":"頭城鎮","MARKTYPE":"991","Class":"1"},"geometry":{"x":121.82073738785714,"y":24.856532469416841}},{"attributes":{"OBJECTID":22066,"LANDMARKID":"1000200000077","LANDMARKCO":"106","LANDMARKNA":"宜蘭縣頭城鎮戶政事務所","LANDMARKAD":"1000204","ADDRESS":"宜蘭縣頭城鎮開蘭路281號","TEL":"03-9771294","COUNTYNAME":"宜蘭縣","TOWNNAME":"頭城鎮","MARKTYPE":"991","Class":"1"},"geometry":{"x":121.82667706060323,"y":24.862596425140261}},{"attributes":{"OBJECTID":22067,"LANDMARKID":"1000200000138","LANDMARKCO":"107","LANDMARKNA":"宜蘭縣警察局頭城分駐所","LANDMARKAD":"1000204","ADDRESS":"宜蘭縣頭城鎮武營里開蘭路283號","TEL":"03-9771125","COUNTYNAME":"宜蘭縣","TOWNNAME":"頭城鎮","MARKTYPE":"991","Class":"1"},"geometry":{"x":121.82676117618578,"y":24.862691834427608}},{"attributes":{"OBJECTID":22068,"LANDMARKID":"1000200000139","LANDMARKCO":"107","LANDMARKNA":"宜蘭縣警察局大里派出所","LANDMARKAD":"1000204","ADDRESS":"宜蘭縣頭城鎮大里里大里路94號","TEL":"039-781139","COUNTYNAME":"宜蘭縣","TOWNNAME":"頭城鎮","MARKTYPE":"991","Class":"1"},"geometry":{"x":121.92137668327038,"y":24.964240413464367}},{"attributes":{"OBJECTID":22069,"LANDMARKID":"1000200000140","LANDMARKCO":"107","LANDMARKNA":"宜蘭縣警察局大溪派出所","LANDMARKAD":"1000204","ADDRESS":"宜蘭縣頭城鎮大溪里濱海路五段187號","TEL":"03-9781205","COUNTYNAME":"宜蘭縣","TOWNNAME":"頭城鎮","MARKTYPE":"991","Class":"1"},"geometry":{"x":121.89213134318857,"y":24.939832747722583}},{"attributes":{"OBJECTID":22070,"LANDMARKID":"1000200000001","LANDMARKCO":"101","LANDMARKNA":"頭城鎮第五公墓火化場","LANDMARKAD":"1000204","ADDRESS":"宜蘭縣頭城鎮纘祥路88號","TEL":"03-9772371","COUNTYNAME":"宜蘭縣","TOWNNAME":"頭城鎮","MARKTYPE":"991","Class":"1"},"geometry":{"x":121.82359284374613,"y":24.859231511659477}},{"attributes":{"OBJECTID":22071,"LANDMARKID":"1000200000183","LANDMARKCO":"108","LANDMARKNA":"宜蘭縣頭城鎮公所","LANDMARKAD":"1000204","ADDRESS":"宜蘭縣頭城鎮城北里欑祥路88號","TEL":"03-9772371","COUNTYNAME":"宜蘭縣","TOWNNAME":"頭城鎮","MARKTYPE":"991","Class":"1"},"geometry":{"x":121.82329439961313,"y":24.859250625985858}},{"attributes":{"OBJECTID":22072,"LANDMARKID":"1000200000331","LANDMARKCO":"205","LANDMARKNA":"螃蟹博物館","LANDMARKAD":"1000204","ADDRESS":"宜蘭縣頭城鎮更新路205號","TEL":"03-9772168","COUNTYNAME":"宜蘭縣","TOWNNAME":"頭城鎮","MARKTYPE":"992","Class":"2"},"geometry":{"x":121.86870261950932,"y":24.912476129201963}},{"attributes":{"OBJECTID":22073,"LANDMARKID":"1000200000332","LANDMARKCO":"205","LANDMARKNA":"河東堂獅子博物館","LANDMARKAD":"1000204","ADDRESS":"宜蘭縣頭城鎮濱海路四段36號","TEL":"03-9780782","COUNTYNAME":"宜蘭縣","TOWNNAME":"頭城鎮","MARKTYPE":"992","Class":"2"},"geometry":{"x":121.88057336708115,"y":24.915079880663786}},{"attributes":{"OBJECTID":22074,"LANDMARKID":"1000200000325","LANDMARKCO":"204","LANDMARKNA":"宜蘭縣立圖書館頭城分館","LANDMARKAD":"1000204","ADDRESS":"宜蘭縣頭城鎮青雲路32號","TEL":" ","COUNTYNAME":"宜蘭縣","TOWNNAME":"頭城鎮","MARKTYPE":"992","Class":"2"},"geometry":{"x":121.82457244288406,"y":24.856429727952964}},{"attributes":{"OBJECTID":22075,"LANDMARKID":"1000200000204","LANDMARKCO":"202","LANDMARKNA":"國立頭城家商","LANDMARKAD":"1000204","ADDRESS":"宜蘭縣頭城鎮東林村新興路111號","TEL":"03-9771131","COUNTYNAME":"宜蘭縣","TOWNNAME":"頭城鎮","MARKTYPE":"992","Class":"2"},"geometry":{"x":121.81704949264105,"y":24.851279599697314}},{"attributes":{"OBJECTID":22076,"LANDMARKID":"1000200000272","LANDMARKCO":"203","LANDMARKNA":"縣立頭城國中","LANDMARKAD":"1000204","ADDRESS":"宜蘭縣頭城鎮復興路145號","TEL":"03-9771002","COUNTYNAME":"宜蘭縣","TOWNNAME":"頭城鎮","MARKTYPE":"992","Class":"2"},"geometry":{"x":121.8214924923937,"y":24.865004204303258}},{"attributes":{"OBJECTID":22077,"LANDMARKID":"1000200000273","LANDMARKCO":"203","LANDMARKNA":"縣立竹安國小","LANDMARKAD":"1000204","ADDRESS":"宜蘭縣頭城鎮竹安里頭濱路一段601號","TEL":"03-9771178","COUNTYNAME":"宜蘭縣","TOWNNAME":"頭城鎮","MARKTYPE":"992","Class":"2"},"geometry":{"x":121.82063150070438,"y":24.825157195703579}},{"attributes":{"OBJECTID":22078,"LANDMARKID":"1000200000274","LANDMARKCO":"203","LANDMARKNA":"縣立頭城國小","LANDMARKAD":"1000204","ADDRESS":"宜蘭縣頭城鎮開蘭路282號","TEL":"03-9771011","COUNTYNAME":"宜蘭縣","TOWNNAME":"頭城鎮","MARKTYPE":"992","Class":"2"},"geometry":{"x":121.82742304495477,"y":24.862710156701116}},{"attributes":{"OBJECTID":22079,"LANDMARKID":"1000200000275","LANDMARKCO":"203","LANDMARKNA":"縣立二城國小","LANDMARKAD":"1000204","ADDRESS":"宜蘭縣頭城鎮青雲路二段200號","TEL":"03-9771024","COUNTYNAME":"宜蘭縣","TOWNNAME":"頭城鎮","MARKTYPE":"992","Class":"2"},"geometry":{"x":121.80581479028653,"y":24.843562823965982}},{"attributes":{"OBJECTID":22080,"LANDMARKID":"1000200000276","LANDMARKCO":"203","LANDMARKNA":"縣立人文國小","LANDMARKAD":"1000204","ADDRESS":"宜蘭縣頭城鎮拔雅里文雅路150號","TEL":"03-9773396","COUNTYNAME":"宜蘭縣","TOWNNAME":"頭城鎮","MARKTYPE":"992","Class":"2"},"geometry":{"x":121.81989649927797,"y":24.860516780808162}},{"attributes":{"OBJECTID":22081,"LANDMARKID":"1000200000193","LANDMARKCO":"201","LANDMARKNA":"蘭陽技術學院","LANDMARKAD":"1000204","ADDRESS":"宜蘭縣頭城鎮復興路79號","TEL":"03-9771997","COUNTYNAME":"宜蘭縣","TOWNNAME":"頭城鎮","MARKTYPE":"992","Class":"2"},"geometry":{"x":121.81803157762779,"y":24.864485331646581}},{"attributes":{"OBJECTID":22082,"LANDMARKID":"1000200000277","LANDMARKCO":"203","LANDMARKNA":"縣立大里國小","LANDMARKAD":"1000204","ADDRESS":"宜蘭縣頭城鎮石城里115號","TEL":"03-9781440","COUNTYNAME":"宜蘭縣","TOWNNAME":"頭城鎮","MARKTYPE":"992","Class":"2"},"geometry":{"x":121.92644848510308,"y":24.970406525631542}},{"attributes":{"OBJECTID":22083,"LANDMARKID":"1000200000278","LANDMARKCO":"203","LANDMARKNA":"縣立梗枋國小","LANDMARKAD":"1000204","ADDRESS":"宜蘭縣頭城鎮更新里59號","TEL":"03-9771634","COUNTYNAME":"宜蘭縣","TOWNNAME":"頭城鎮","MARKTYPE":"992","Class":"2"},"geometry":{"x":121.8623510290182,"y":24.900827997665701}},{"attributes":{"OBJECTID":22084,"LANDMARKID":"1000200000279","LANDMARKCO":"203","LANDMARKNA":"縣立大溪國小","LANDMARKAD":"1000204","ADDRESS":"宜蘭縣頭城鎮大溪路70號","TEL":"03-9781044","COUNTYNAME":"宜蘭縣","TOWNNAME":"頭城鎮","MARKTYPE":"992","Class":"2"},"geometry":{"x":121.88704656924517,"y":24.93544180886127}},{"attributes":{"OBJECTID":22085,"LANDMARKID":"1000200000280","LANDMARKCO":"203","LANDMARKNA":"縣立頭城國小外澳分校","LANDMARKAD":"1000204","ADDRESS":"宜蘭縣頭城鎮外澳里31之1號","TEL":"03-9775688","COUNTYNAME":"宜蘭縣","TOWNNAME":"頭城鎮","MARKTYPE":"992","Class":"2"},"geometry":{"x":121.84309996279066,"y":24.880985476907991}},{"attributes":{"OBJECTID":22086,"LANDMARKID":"1000200000452","LANDMARKCO":"305","LANDMARKNA":"石城漁港","LANDMARKAD":"1000204","ADDRESS":"宜蘭縣頭城鎮","TEL":" ","COUNTYNAME":"宜蘭縣","TOWNNAME":"頭城鎮","MARKTYPE":"993","Class":"305"},"geometry":{"x":121.9520107204922,"y":24.979775307650335}},{"attributes":{"OBJECTID":22087,"LANDMARKID":"1000200000453","LANDMARKCO":"305","LANDMARKNA":"大里漁港","LANDMARKAD":"1000204","ADDRESS":"宜蘭縣頭城鎮","TEL":" ","COUNTYNAME":"宜蘭縣","TOWNNAME":"頭城鎮","MARKTYPE":"993","Class":"305"},"geometry":{"x":121.9216840816577,"y":24.96271304977412}},{"attributes":{"OBJECTID":22088,"LANDMARKID":"1000200000454","LANDMARKCO":"305","LANDMARKNA":"大溪漁港","LANDMARKAD":"1000204","ADDRESS":"宜蘭縣頭城鎮","TEL":" ","COUNTYNAME":"宜蘭縣","TOWNNAME":"頭城鎮","MARKTYPE":"993","Class":"305"},"geometry":{"x":121.90275138726076,"y":24.940989704869288}},{"attributes":{"OBJECTID":22089,"LANDMARKID":"1000200000455","LANDMARKCO":"305","LANDMARKNA":"梗枋漁港","LANDMARKAD":"1000204","ADDRESS":"宜蘭縣頭城鎮","TEL":" ","COUNTYNAME":"宜蘭縣","TOWNNAME":"頭城鎮","MARKTYPE":"993","Class":"305"},"geometry":{"x":121.86670160998763,"y":24.903426230412215}},{"attributes":{"OBJECTID":22090,"LANDMARKID":"1000200000456","LANDMARKCO":"305","LANDMARKNA":"烏石漁港","LANDMARKAD":"1000204","ADDRESS":"宜蘭縣頭城鎮","TEL":" ","COUNTYNAME":"宜蘭縣","TOWNNAME":"頭城鎮","MARKTYPE":"993","Class":"305"},"geometry":{"x":121.84073942091422,"y":24.869196842335228}},{"attributes":{"OBJECTID":22091,"LANDMARKID":"1000200000401","LANDMARKCO":"303","LANDMARKNA":"北關海潮公園停車場","LANDMARKAD":"1000204","ADDRESS":"宜蘭縣頭城鎮","TEL":" ","COUNTYNAME":"宜蘭縣","TOWNNAME":"頭城鎮","MARKTYPE":"993","Class":"303"},"geometry":{"x":121.87894972351687,"y":24.914228784550183}},{"attributes":{"OBJECTID":22092,"LANDMARKID":"1000200000459","LANDMARKCO":"308","LANDMARKNA":"頭城收費站","LANDMARKAD":"1000204","ADDRESS":" ","TEL":" ","COUNTYNAME":"宜蘭縣","TOWNNAME":"頭城鎮","MARKTYPE":"993","Class":"308"},"geometry":{"x":121.79074725549056,"y":24.834537691664757}},{"attributes":{"OBJECTID":22093,"LANDMARKID":"1000200000388","LANDMARKCO":"303","LANDMARKNA":"金盈谷渡假村停車場","LANDMARKAD":"1000204","ADDRESS":"宜蘭縣頭城鎮北宜路一段223巷80號","TEL":" ","COUNTYNAME":"宜蘭縣","TOWNNAME":"頭城鎮","MARKTYPE":"993","Class":"303"},"geometry":{"x":121.78856749551639,"y":24.850078152477305}},{"attributes":{"OBJECTID":22094,"LANDMARKID":"1000200000389","LANDMARKCO":"303","LANDMARKNA":"頭城火車站停車場","LANDMARKAD":"1000204","ADDRESS":"宜蘭縣頭城鎮纘祥路","TEL":" ","COUNTYNAME":"宜蘭縣","TOWNNAME":"頭城鎮","MARKTYPE":"993","Class":"303"},"geometry":{"x":121.82238932461495,"y":24.85836223584333}},{"attributes":{"OBJECTID":22095,"LANDMARKID":"1000200000390","LANDMARKCO":"303","LANDMARKNA":"頭城運動公園停車場","LANDMARKAD":"1000204","ADDRESS":"宜蘭縣頭城鎮","TEL":" ","COUNTYNAME":"宜蘭縣","TOWNNAME":"頭城鎮","MARKTYPE":"993","Class":"303"},"geometry":{"x":121.82298110571536,"y":24.863403171040744}},{"attributes":{"OBJECTID":22096,"LANDMARKID":"1000200000391","LANDMARKCO":"303","LANDMARKNA":"頭城公有停車場","LANDMARKAD":"1000204","ADDRESS":"宜蘭縣頭城鎮","TEL":" ","COUNTYNAME":"宜蘭縣","TOWNNAME":"頭城鎮","MARKTYPE":"993","Class":"303"},"geometry":{"x":121.82408280517886,"y":24.85966184373348}},{"attributes":{"OBJECTID":22097,"LANDMARKID":"1000200000392","LANDMARKCO":"303","LANDMARKNA":"北關休閒農場售票亭","LANDMARKAD":"1000204","ADDRESS":"宜蘭縣頭城鎮更新路205號","TEL":"03-9772168","COUNTYNAME":"宜蘭縣","TOWNNAME":"頭城鎮","MARKTYPE":"993","Class":"303"},"geometry":{"x":121.86913992662566,"y":24.912122799240866}},{"attributes":{"OBJECTID":22098,"LANDMARKID":"1000200000393","LANDMARKCO":"303","LANDMARKNA":"大溪河濱公園停車場","LANDMARKAD":"1000204","ADDRESS":"宜蘭縣頭城鎮濱海路五段","TEL":" ","COUNTYNAME":"宜蘭縣","TOWNNAME":"頭城鎮","MARKTYPE":"993","Class":"303"},"geometry":{"x":121.89633029438333,"y":24.942183914149187}},{"attributes":{"OBJECTID":22099,"LANDMARKID":"1000200000394","LANDMARKCO":"303","LANDMARKNA":"頭城濱海停車場","LANDMARKAD":"1000204","ADDRESS":"宜蘭縣頭城鎮","TEL":" ","COUNTYNAME":"宜蘭縣","TOWNNAME":"頭城鎮","MARKTYPE":"993","Class":"303"},"geometry":{"x":121.9238294750503,"y":24.968605134168619}},{"attributes":{"OBJECTID":22100,"LANDMARKID":"1000200000395","LANDMARKCO":"303","LANDMARKNA":"天公廟停車場","LANDMARKAD":"1000204","ADDRESS":"宜蘭縣頭城鎮濱海路七段33號","TEL":"03-9781075","COUNTYNAME":"宜蘭縣","TOWNNAME":"頭城鎮","MARKTYPE":"993","Class":"303"},"geometry":{"x":121.92585225966199,"y":24.970075310413463}},{"attributes":{"OBJECTID":22101,"LANDMARKID":"1000200000396","LANDMARKCO":"303","LANDMARKNA":"草領古道停車場","LANDMARKAD":"1000204","ADDRESS":"宜蘭縣頭城鎮","TEL":" ","COUNTYNAME":"宜蘭縣","TOWNNAME":"頭城鎮","MARKTYPE":"993","Class":"303"},"geometry":{"x":121.92729965472398,"y":24.970865792257989}},{"attributes":{"OBJECTID":22102,"LANDMARKID":"1000200000397","LANDMARKCO":"303","LANDMARKNA":"石城縣界公園停車場","LANDMARKAD":"1000204","ADDRESS":"宜蘭濱海公路123km處","TEL":" ","COUNTYNAME":"宜蘭縣","TOWNNAME":"頭城鎮","MARKTYPE":"993","Class":"303"},"geometry":{"x":121.9597609921544,"y":24.983677523558601}},{"attributes":{"OBJECTID":22103,"LANDMARKID":"1000200000398","LANDMARKCO":"303","LANDMARKNA":"港澳停車場","LANDMARKAD":"1000204","ADDRESS":"宜蘭縣頭城鎮","TEL":" ","COUNTYNAME":"宜蘭縣","TOWNNAME":"頭城鎮","MARKTYPE":"993","Class":"303"},"geometry":{"x":121.8387000945112,"y":24.875468094591128}},{"attributes":{"OBJECTID":22104,"LANDMARKID":"1000200000399","LANDMARKCO":"303","LANDMARKNA":"頭城海水浴場南側停車場","LANDMARKAD":"1000204","ADDRESS":"宜蘭縣頭城鎮協天路400號","TEL":" ","COUNTYNAME":"宜蘭縣","TOWNNAME":"頭城鎮","MARKTYPE":"993","Class":"303"},"geometry":{"x":121.82792112228391,"y":24.852205120761784}},{"attributes":{"OBJECTID":22105,"LANDMARKID":"1000200000400","LANDMARKCO":"303","LANDMARKNA":"頭城海水浴場停車場","LANDMARKAD":"1000204","ADDRESS":"宜蘭縣頭城鎮協天路400號","TEL":" ","COUNTYNAME":"宜蘭縣","TOWNNAME":"頭城鎮","MARKTYPE":"993","Class":"303"},"geometry":{"x":121.83138241315201,"y":24.854079447162775}},{"attributes":{"OBJECTID":22106,"LANDMARKID":"1000200000342","LANDMARKCO":"301","LANDMARKNA":"頭城火車站","LANDMARKAD":"1000204","ADDRESS":"宜蘭縣頭城鎮城北里纘祥路59號","TEL":" ","COUNTYNAME":"宜蘭縣","TOWNNAME":"頭城鎮","MARKTYPE":"993","Class":"301"},"geometry":{"x":121.82245426555002,"y":24.858951611859482}},{"attributes":{"OBJECTID":22107,"LANDMARKID":"1000200000343","LANDMARKCO":"301","LANDMARKNA":"石城火車站","LANDMARKAD":"1000204","ADDRESS":"宜蘭縣頭城鎮石城里濱海路7段230號","TEL":" ","COUNTYNAME":"宜蘭縣","TOWNNAME":"頭城鎮","MARKTYPE":"993","Class":"301"},"geometry":{"x":121.94561495531222,"y":24.978500575531584}},{"attributes":{"OBJECTID":22108,"LANDMARKID":"1000200000344","LANDMARKCO":"301","LANDMARKNA":"大里火車站","LANDMARKAD":"1000204","ADDRESS":"宜蘭縣頭城鎮大里里濱海路六段326號","TEL":"03-9781171","COUNTYNAME":"宜蘭縣","TOWNNAME":"頭城鎮","MARKTYPE":"993","Class":"301"},"geometry":{"x":121.92270626657113,"y":24.966837806878356}},{"attributes":{"OBJECTID":22109,"LANDMARKID":"1000200000345","LANDMARKCO":"301","LANDMARKNA":"大溪火車站","LANDMARKAD":"1000204","ADDRESS":"宜蘭縣頭城鎮大溪里濱海路5段63號","TEL":" ","COUNTYNAME":"宜蘭縣","TOWNNAME":"頭城鎮","MARKTYPE":"993","Class":"301"},"geometry":{"x":121.89000372584742,"y":24.938424466357048}},{"attributes":{"OBJECTID":22110,"LANDMARKID":"1000200000346","LANDMARKCO":"301","LANDMARKNA":"龜山火車站","LANDMARKAD":"1000204","ADDRESS":"宜蘭縣頭城鎮更新里濱海路3段261號","TEL":"03-9770351","COUNTYNAME":"宜蘭縣","TOWNNAME":"頭城鎮","MARKTYPE":"993","Class":"301"},"geometry":{"x":121.86877443298175,"y":24.904866152293206}},{"attributes":{"OBJECTID":22111,"LANDMARKID":"1000200000347","LANDMARKCO":"301","LANDMARKNA":"外澳火車站","LANDMARKAD":"1000204","ADDRESS":"宜蘭縣頭城鎮外澳里濱海路2段217號","TEL":" ","COUNTYNAME":"宜蘭縣","TOWNNAME":"頭城鎮","MARKTYPE":"993","Class":"301"},"geometry":{"x":121.84572836617141,"y":24.8838543652368}},{"attributes":{"OBJECTID":22112,"LANDMARKID":"1000200000348","LANDMARKCO":"301","LANDMARKNA":"頂埔火車站","LANDMARKAD":"1000204","ADDRESS":"宜蘭縣頭城鎮下埔里下埔路4-8號","TEL":" ","COUNTYNAME":"宜蘭縣","TOWNNAME":"頭城鎮","MARKTYPE":"993","Class":"301"},"geometry":{"x":121.80913497322085,"y":24.843972035806654}},{"attributes":{"OBJECTID":22113,"LANDMARKID":"1000200000493","LANDMARKCO":"402","LANDMARKNA":"中華電信-頭城服務中心","LANDMARKAD":"1000204","ADDRESS":"宜蘭縣頭城鎮民鋒路15號","TEL":"(03)977-0439","COUNTYNAME":"宜蘭縣","TOWNNAME":"頭城鎮","MARKTYPE":"994","Class":"4"},"geometry":{"x":121.82311640238676,"y":24.858512268654682}},{"attributes":{"OBJECTID":22114,"LANDMARKID":"1000200000788","LANDMARKCO":"603","LANDMARKNA":"頭城休閒旅館","LANDMARKAD":"1000204","ADDRESS":"宜蘭縣頭城鎮更新路125-2號","TEL":"03-9772222","COUNTYNAME":"宜蘭縣","TOWNNAME":"頭城鎮","MARKTYPE":"996","Class":"6"},"geometry":{"x":121.85227178148692,"y":24.907723279786609}},{"attributes":{"OBJECTID":22115,"LANDMARKID":"1000200000789","LANDMARKCO":"603","LANDMARKNA":"和風時尚會館","LANDMARKAD":"1000204","ADDRESS":"宜蘭縣頭城鎮宜三路一段56號","TEL":"03-9779116","COUNTYNAME":"宜蘭縣","TOWNNAME":"頭城鎮","MARKTYPE":"996","Class":"6"},"geometry":{"x":121.7920128411271,"y":24.8421171414371}},{"attributes":{"OBJECTID":22116,"LANDMARKID":"1000200001133","LANDMARKCO":"604","LANDMARKNA":"田園風情民宿","LANDMARKAD":"1000204","ADDRESS":"宜蘭縣頭城鎮下埔里三和路213巷20號","TEL":"0925-859620","COUNTYNAME":"宜蘭縣","TOWNNAME":"頭城鎮","MARKTYPE":"996","Class":"6"},"geometry":{"x":121.80611295337626,"y":24.838700297198347}},{"attributes":{"OBJECTID":22117,"LANDMARKID":"1000200001134","LANDMARKCO":"604","LANDMARKNA":"聽濤居","LANDMARKAD":"1000204","ADDRESS":"宜蘭縣頭城鎮濱海路六段51巷18號","TEL":"03-9770910","COUNTYNAME":"宜蘭縣","TOWNNAME":"頭城鎮","MARKTYPE":"996","Class":"6"},"geometry":{"x":121.90244146529537,"y":24.943591522121739}},{"attributes":{"OBJECTID":22118,"LANDMARKID":"1000200001135","LANDMARKCO":"604","LANDMARKNA":"金緣民宿","LANDMARKAD":"1000204","ADDRESS":"宜蘭縣頭城鎮中崙里三和路457號","TEL":"03-9777779","COUNTYNAME":"宜蘭縣","TOWNNAME":"頭城鎮","MARKTYPE":"996","Class":"6"},"geometry":{"x":121.80362508492627,"y":24.833891121917425}},{"attributes":{"OBJECTID":22119,"LANDMARKID":"1000200001136","LANDMARKCO":"604","LANDMARKNA":"第一海景民宿","LANDMARKAD":"1000204","ADDRESS":"宜蘭縣頭城鎮外澳里濱海路二段46號","TEL":"03-9773377","COUNTYNAME":"宜蘭縣","TOWNNAME":"頭城鎮","MARKTYPE":"996","Class":"6"},"geometry":{"x":121.84206162618922,"y":24.878929839019904}},{"attributes":{"OBJECTID":22120,"LANDMARKID":"1000200001137","LANDMARKCO":"604","LANDMARKNA":"琚珈海岸休閒民宿","LANDMARKAD":"1000204","ADDRESS":"宜蘭縣頭城鎮外澳里濱海路二段453號","TEL":"0921-999008","COUNTYNAME":"宜蘭縣","TOWNNAME":"頭城鎮","MARKTYPE":"996","Class":"6"},"geometry":{"x":121.8498487772727,"y":24.890880113037838}},{"attributes":{"OBJECTID":22121,"LANDMARKID":"1000200001138","LANDMARKCO":"604","LANDMARKNA":"朝日海景民宿","LANDMARKAD":"1000204","ADDRESS":"宜蘭縣頭城鎮外澳里濱海路二段57號","TEL":"03-9773377","COUNTYNAME":"宜蘭縣","TOWNNAME":"頭城鎮","MARKTYPE":"996","Class":"6"},"geometry":{"x":121.8420395277971,"y":24.87948983939522}},{"attributes":{"OBJECTID":22122,"LANDMARKID":"1000200001139","LANDMARKCO":"604","LANDMARKNA":"海韻渡假民宿","LANDMARKAD":"1000204","ADDRESS":"宜蘭縣頭城鎮外澳里濱海路二段61號","TEL":"03-9773720","COUNTYNAME":"宜蘭縣","TOWNNAME":"頭城鎮","MARKTYPE":"996","Class":"6"},"geometry":{"x":121.84207007103035,"y":24.879552692644758}},{"attributes":{"OBJECTID":22123,"LANDMARKID":"1000200001140","LANDMARKCO":"604","LANDMARKNA":"真情民宿","LANDMARKAD":"1000204","ADDRESS":"宜蘭縣頭城鎮外澳里濱海路二段70號","TEL":"03-9773523","COUNTYNAME":"宜蘭縣","TOWNNAME":"頭城鎮","MARKTYPE":"996","Class":"6"},"geometry":{"x":121.84238477042972,"y":24.879404689633887}},{"attributes":{"OBJECTID":22124,"LANDMARKID":"1000200001141","LANDMARKCO":"604","LANDMARKNA":"海灘風情民宿","LANDMARKAD":"1000204","ADDRESS":"宜蘭縣頭城鎮外澳里濱海路二段68號","TEL":"03-9773674","COUNTYNAME":"宜蘭縣","TOWNNAME":"頭城鎮","MARKTYPE":"996","Class":"6"},"geometry":{"x":121.8423444528798,"y":24.879350975470601}},{"attributes":{"OBJECTID":22125,"LANDMARKID":"1000200001142","LANDMARKCO":"604","LANDMARKNA":"家盈海岸休閒渡假民宿","LANDMARKAD":"1000204","ADDRESS":"宜蘭縣頭城鎮外澳里濱海路二段265號","TEL":"03-9778020","COUNTYNAME":"宜蘭縣","TOWNNAME":"頭城鎮","MARKTYPE":"996","Class":"6"},"geometry":{"x":121.84658144785772,"y":24.884392376622216}},{"attributes":{"OBJECTID":22126,"LANDMARKID":"1000200001143","LANDMARKCO":"604","LANDMARKNA":"海天濱海休閒民宿","LANDMARKAD":"1000204","ADDRESS":"宜蘭縣頭城鎮外澳里濱海路二段387號","TEL":"03-9777331","COUNTYNAME":"宜蘭縣","TOWNNAME":"頭城鎮","MARKTYPE":"996","Class":"6"},"geometry":{"x":121.84908419737512,"y":24.889254709705011}},{"attributes":{"OBJECTID":22127,"LANDMARKID":"1000200001144","LANDMARKCO":"604","LANDMARKNA":"夏都別館","LANDMARKAD":"1000204","ADDRESS":"宜蘭縣頭城鎮濱海路五段477號","TEL":"03-9783338","COUNTYNAME":"宜蘭縣","TOWNNAME":"頭城鎮","MARKTYPE":"996","Class":"6"},"geometry":{"x":121.9008420885315,"y":24.941877478613971}},{"attributes":{"OBJECTID":22128,"LANDMARKID":"1000200001145","LANDMARKCO":"604","LANDMARKNA":"雲心海民宿","LANDMARKAD":"1000204","ADDRESS":"宜蘭縣頭城鎮大溪里濱海路五段483號","TEL":"03-9781014","COUNTYNAME":"宜蘭縣","TOWNNAME":"頭城鎮","MARKTYPE":"996","Class":"6"},"geometry":{"x":121.90099137897057,"y":24.941929842285329}},{"attributes":{"OBJECTID":22129,"LANDMARKID":"1000200001146","LANDMARKCO":"604","LANDMARKNA":"丹尼渡假莊園","LANDMARKAD":"1000204","ADDRESS":"宜蘭縣頭城鎮下埔里三和路169巷10號","TEL":"03-9789391","COUNTYNAME":"宜蘭縣","TOWNNAME":"頭城鎮","MARKTYPE":"996","Class":"6"},"geometry":{"x":121.806742405367,"y":24.84056226681987}},{"attributes":{"OBJECTID":22130,"LANDMARKID":"1000200001147","LANDMARKCO":"604","LANDMARKNA":"看海民宿","LANDMARKAD":"1000204","ADDRESS":"宜蘭縣頭城鎮大里里濱海路六段279號","TEL":"03-9782152","COUNTYNAME":"宜蘭縣","TOWNNAME":"頭城鎮","MARKTYPE":"996","Class":"6"},"geometry":{"x":121.9213640060357,"y":24.966038800718913}},{"attributes":{"OBJECTID":22131,"LANDMARKID":"1000200001148","LANDMARKCO":"604","LANDMARKNA":"夏天渡假屋","LANDMARKAD":"1000204","ADDRESS":"宜蘭縣頭城鎮外澳里濱海路二段423號","TEL":"03-9778229","COUNTYNAME":"宜蘭縣","TOWNNAME":"頭城鎮","MARKTYPE":"996","Class":"6"},"geometry":{"x":121.84933306717916,"y":24.89008247375158}},{"attributes":{"OBJECTID":22132,"LANDMARKID":"1000200000695","LANDMARKCO":"508","LANDMARKNA":"理歐海洋溫泉渡假中心","LANDMARKAD":"1000204","ADDRESS":"宜蘭縣頭城鎮濱海路四段36號","TEL":"03-9780782","COUNTYNAME":"宜蘭縣","TOWNNAME":"頭城鎮","MARKTYPE":"995","Class":"5"},"geometry":{"x":121.88064073512457,"y":24.91518265426334}},{"attributes":{"OBJECTID":22133,"LANDMARKID":"1000200000696","LANDMARKCO":"508","LANDMARKNA":"和風時尚館","LANDMARKAD":"1000204","ADDRESS":"宜蘭縣頭城鎮宜三路一段56號","TEL":"03-9777711","COUNTYNAME":"宜蘭縣","TOWNNAME":"頭城鎮","MARKTYPE":"995","Class":"5"},"geometry":{"x":121.79201735814021,"y":24.842118939351323}},{"attributes":{"OBJECTID":22134,"LANDMARKID":"1000200000636","LANDMARKCO":"503","LANDMARKNA":"外澳服務區","LANDMARKAD":"1000204","ADDRESS":"宜蘭縣頭城鎮濱海路二段6號","TEL":"03-9770710","COUNTYNAME":"宜蘭縣","TOWNNAME":"頭城鎮","MARKTYPE":"995","Class":"5"},"geometry":{"x":121.84152902003841,"y":24.878186349968303}},{"attributes":{"OBJECTID":22135,"LANDMARKID":"1000200000721","LANDMARKCO":"509","LANDMARKNA":"頭城海水浴場","LANDMARKAD":"1000204","ADDRESS":"宜蘭縣頭城鎮","TEL":" ","COUNTYNAME":"宜蘭縣","TOWNNAME":"頭城鎮","MARKTYPE":"995","Class":"5"},"geometry":{"x":121.83010054780519,"y":24.85049366558907}},{"attributes":{"OBJECTID":22136,"LANDMARKID":"1000200000637","LANDMARKCO":"503","LANDMARKNA":"石城服務區","LANDMARKAD":"1000204","ADDRESS":"宜蘭縣頭城鎮濱海路七段350號","TEL":" ","COUNTYNAME":"宜蘭縣","TOWNNAME":"頭城鎮","MARKTYPE":"995","Class":"5"},"geometry":{"x":121.95900906531078,"y":24.983521987731532}},{"attributes":{"OBJECTID":22137,"LANDMARKID":"1000200000531","LANDMARKCO":"405","LANDMARKNA":"中油加油站-信宜站","LANDMARKAD":"1000205","ADDRESS":"宜蘭縣礁溪鄉礁溪路三段38號","TEL":"03-9287082","COUNTYNAME":"宜蘭縣","TOWNNAME":"礁溪鄉","MARKTYPE":"994","Class":"4"},"geometry":{"x":121.76530469158689,"y":24.801481779641847}},{"attributes":{"OBJECTID":22138,"LANDMARKID":"1000200000532","LANDMARKCO":"405","LANDMARKNA":"中油加油站-金泉站","LANDMARKAD":"1000205","ADDRESS":"宜蘭縣礁溪鄉礁溪路七段105號","TEL":"03-9880029","COUNTYNAME":"宜蘭縣","TOWNNAME":"礁溪鄉","MARKTYPE":"994","Class":"4"},"geometry":{"x":121.78693356959505,"y":24.837110063885383}},{"attributes":{"OBJECTID":22139,"LANDMARKID":"1000200000533","LANDMARKCO":"405","LANDMARKNA":"中油加油站-豐富站","LANDMARKAD":"1000205","ADDRESS":"宜蘭縣礁溪鄉礁溪路三段266號","TEL":"039-887885","COUNTYNAME":"宜蘭縣","TOWNNAME":"礁溪鄉","MARKTYPE":"994","Class":"4"},"geometry":{"x":121.76767620285659,"y":24.811209453298943}},{"attributes":{"OBJECTID":22140,"LANDMARKID":"1000200000534","LANDMARKCO":"405","LANDMARKNA":"中油加油站-礁溪站(中油直營)","LANDMARKAD":"1000205","ADDRESS":"宜蘭縣礁溪鄉礁溪路六段28號","TEL":"039-882170","COUNTYNAME":"宜蘭縣","TOWNNAME":"礁溪鄉","MARKTYPE":"994","Class":"4"},"geometry":{"x":121.77715211687708,"y":24.829554191009631}},{"attributes":{"OBJECTID":22141,"LANDMARKID":"1000200000462","LANDMARKCO":"401","LANDMARKNA":"杏和醫院","LANDMARKAD":"1000205","ADDRESS":"宜蘭縣礁溪鄉礁溪路四段129號","TEL":" ","COUNTYNAME":"宜蘭縣","TOWNNAME":"礁溪鄉","MARKTYPE":"994","Class":"4"},"geometry":{"x":121.76918729513031,"y":24.820530816617879}},{"attributes":{"OBJECTID":22142,"LANDMARKID":"1000200000678","LANDMARKCO":"506","LANDMARKNA":"二結柑橘觀光果園","LANDMARKAD":"1000205","ADDRESS":"宜蘭縣礁溪鄉二結村二結路3鄰28號","TEL":"03-9225956","COUNTYNAME":"宜蘭縣","TOWNNAME":"礁溪鄉","MARKTYPE":"995","Class":"5"},"geometry":{"x":121.77472112454866,"y":24.831762698875504}},{"attributes":{"OBJECTID":22143,"LANDMARKID":"1000200000683","LANDMARKCO":"507","LANDMARKNA":"武暖石板橋","LANDMARKAD":"1000205","ADDRESS":"宜蘭縣礁溪鄉光武村武暖路石頭橋福德廟前","TEL":" ","COUNTYNAME":"宜蘭縣","TOWNNAME":"礁溪鄉","MARKTYPE":"995","Class":"5"},"geometry":{"x":121.76322267311944,"y":24.780819037109691}},{"attributes":{"OBJECTID":22144,"LANDMARKID":"1000200000602","LANDMARKCO":"408","LANDMARKNA":"郵局-礁溪四城郵局","LANDMARKAD":"1000205","ADDRESS":"宜蘭縣礁溪鄉站前路19號","TEL":"(03)9282-830","COUNTYNAME":"宜蘭縣","TOWNNAME":"礁溪鄉","MARKTYPE":"994","Class":"4"},"geometry":{"x":121.76219435277024,"y":24.786944415456002}},{"attributes":{"OBJECTID":22145,"LANDMARKID":"1000200000603","LANDMARKCO":"408","LANDMARKNA":"郵局-礁溪郵局","LANDMARKAD":"1000205","ADDRESS":"宜蘭縣礁溪鄉礁溪路4段130號","TEL":"(03)9882-203","COUNTYNAME":"宜蘭縣","TOWNNAME":"礁溪鄉","MARKTYPE":"994","Class":"4"},"geometry":{"x":121.76993748120542,"y":24.821625540110137}},{"attributes":{"OBJECTID":22146,"LANDMARKID":"1000200000604","LANDMARKCO":"408","LANDMARKNA":"郵局-礁溪湯仔城郵局","LANDMARKAD":"1000205","ADDRESS":"宜蘭縣礁溪鄉中山路2段196號","TEL":"(03)9887-951","COUNTYNAME":"宜蘭縣","TOWNNAME":"礁溪鄉","MARKTYPE":"994","Class":"4"},"geometry":{"x":121.7745252312898,"y":24.827288164920489}},{"attributes":{"OBJECTID":22147,"LANDMARKID":"1000200000626","LANDMARKCO":"409","LANDMARKNA":"宜蘭縣礁溪鄉農會","LANDMARKAD":"1000205","ADDRESS":"宜蘭縣礁溪鄉中山路一段175之1號","TEL":"03-9882033","COUNTYNAME":"宜蘭縣","TOWNNAME":"礁溪鄉","MARKTYPE":"994","Class":"4"},"geometry":{"x":121.77072296904271,"y":24.82094578811628}},{"attributes":{"OBJECTID":22148,"LANDMARKID":"1000200000571","LANDMARKCO":"406","LANDMARKNA":"礁溪公園","LANDMARKAD":"1000205","ADDRESS":"宜蘭縣礁溪鄉","TEL":" ","COUNTYNAME":"宜蘭縣","TOWNNAME":"礁溪鄉","MARKTYPE":"994","Class":"4"},"geometry":{"x":121.77648568938947,"y":24.830677074843834}},{"attributes":{"OBJECTID":22149,"LANDMARKID":"1000200000535","LANDMARKCO":"405","LANDMARKNA":"台塑加油站-泉家站(台塑)","LANDMARKAD":"1000205","ADDRESS":"宜蘭縣礁溪鄉礁溪路一段285號","TEL":"03-9282090","COUNTYNAME":"宜蘭縣","TOWNNAME":"礁溪鄉","MARKTYPE":"994","Class":"4"},"geometry":{"x":121.76210924387181,"y":24.791678267483231}},{"attributes":{"OBJECTID":22150,"LANDMARKID":"1000200000184","LANDMARKCO":"108","LANDMARKNA":"宜蘭縣礁溪鄉公所","LANDMARKAD":"1000205","ADDRESS":"宜蘭縣礁溪鄉中山路二段3號","TEL":"03-9881311","COUNTYNAME":"宜蘭縣","TOWNNAME":"礁溪鄉","MARKTYPE":"991","Class":"1"},"geometry":{"x":121.77125677541153,"y":24.823683637624569}},{"attributes":{"OBJECTID":22151,"LANDMARKID":"1000200000060","LANDMARKCO":"103","LANDMARKNA":"宜蘭縣礁溪鄉鄉民代表會","LANDMARKAD":"1000205","ADDRESS":"宜蘭縣礁溪鄉中山路二段1號","TEL":"03-9882062","COUNTYNAME":"宜蘭縣","TOWNNAME":"礁溪鄉","MARKTYPE":"991","Class":"1"},"geometry":{"x":121.76962510299636,"y":24.818554466434961}},{"attributes":{"OBJECTID":22152,"LANDMARKID":"1000200000132","LANDMARKCO":"107","LANDMARKNA":"宜蘭縣消防局礁溪消防分隊","LANDMARKAD":"1000205","ADDRESS":"宜蘭縣礁溪鄉德陽路2號","TEL":"03-9882903","COUNTYNAME":"宜蘭縣","TOWNNAME":"礁溪鄉","MARKTYPE":"991","Class":"1"},"geometry":{"x":121.77382320013852,"y":24.827011836425552}},{"attributes":{"OBJECTID":22153,"LANDMARKID":"1000200000061","LANDMARKCO":"103","LANDMARKNA":"宜蘭縣礁溪鄉衛生所","LANDMARKAD":"1000205","ADDRESS":"宜蘭縣礁溪鄉礁溪路四段126號B1","TEL":"03-9881391","COUNTYNAME":"宜蘭縣","TOWNNAME":"礁溪鄉","MARKTYPE":"991","Class":"1"},"geometry":{"x":121.76964407964144,"y":24.820877729875853}},{"attributes":{"OBJECTID":22154,"LANDMARKID":"1000200000078","LANDMARKCO":"106","LANDMARKNA":"宜蘭縣礁溪鄉戶政事務所","LANDMARKAD":"1000205","ADDRESS":"宜蘭縣礁溪鄉礁溪路四段126號","TEL":"03-9882470","COUNTYNAME":"宜蘭縣","TOWNNAME":"礁溪鄉","MARKTYPE":"991","Class":"1"},"geometry":{"x":121.76964407964144,"y":24.820877729875853}},{"attributes":{"OBJECTID":22155,"LANDMARKID":"1000200000002","LANDMARKCO":"101","LANDMARKNA":"林務局羅東林區管理處礁溪工作站","LANDMARKAD":"1000205","ADDRESS":"宜蘭縣礁溪鄉忠孝路127號","TEL":"03-9882514","COUNTYNAME":"宜蘭縣","TOWNNAME":"礁溪鄉","MARKTYPE":"991","Class":"1"},"geometry":{"x":121.7741508445534,"y":24.832275417431081}},{"attributes":{"OBJECTID":22156,"LANDMARKID":"1000200000133","LANDMARKCO":"107","LANDMARKNA":"宜蘭縣警察局礁溪分局","LANDMARKAD":"1000205","ADDRESS":"宜蘭縣礁溪鄉中山路2段157號","TEL":"03-9882053","COUNTYNAME":"宜蘭縣","TOWNNAME":"礁溪鄉","MARKTYPE":"991","Class":"1"},"geometry":{"x":121.77395872478471,"y":24.827193384289743}},{"attributes":{"OBJECTID":22157,"LANDMARKID":"1000200000134","LANDMARKCO":"107","LANDMARKNA":"宜蘭縣警察局龍潭派出所","LANDMARKAD":"1000205","ADDRESS":"宜蘭縣礁溪鄉龍潭村大坡路5號","TEL":"039-285514","COUNTYNAME":"宜蘭縣","TOWNNAME":"礁溪鄉","MARKTYPE":"991","Class":"1"},"geometry":{"x":121.7433041074774,"y":24.777329677118921}},{"attributes":{"OBJECTID":22158,"LANDMARKID":"1000200000135","LANDMARKCO":"107","LANDMARKNA":"宜蘭縣警察局四城派出所","LANDMARKAD":"1000205","ADDRESS":"宜蘭縣礁溪鄉吳沙村礁溪路一段157號","TEL":"039-284072","COUNTYNAME":"宜蘭縣","TOWNNAME":"礁溪鄉","MARKTYPE":"991","Class":"1"},"geometry":{"x":121.76139004743058,"y":24.787825386386597}},{"attributes":{"OBJECTID":22159,"LANDMARKID":"1000200000136","LANDMARKCO":"107","LANDMARKNA":"宜蘭縣警察局三城派出所","LANDMARKAD":"1000205","ADDRESS":"宜蘭縣礁溪鄉三民村礁溪路3段195號","TEL":"03-9881961","COUNTYNAME":"宜蘭縣","TOWNNAME":"礁溪鄉","MARKTYPE":"991","Class":"1"},"geometry":{"x":121.76688036626231,"y":24.810097556826566}},{"attributes":{"OBJECTID":22160,"LANDMARKID":"1000200000137","LANDMARKCO":"107","LANDMARKNA":"宜蘭縣警察局礁溪派出所","LANDMARKAD":"1000205","ADDRESS":"宜蘭縣礁溪鄉中山路2段157號","TEL":"03-9882214","COUNTYNAME":"宜蘭縣","TOWNNAME":"礁溪鄉","MARKTYPE":"991","Class":"1"},"geometry":{"x":121.77395872478471,"y":24.827193384289743}},{"attributes":{"OBJECTID":22161,"LANDMARKID":"1000200000059","LANDMARKCO":"103","LANDMARKNA":"宜蘭縣審計室","LANDMARKAD":"1000205","ADDRESS":"宜蘭縣宜蘭市縣政西路137號","TEL":"03-9253336","COUNTYNAME":"宜蘭縣","TOWNNAME":"礁溪鄉","MARKTYPE":"991","Class":"1"},"geometry":{"x":121.77080633882919,"y":24.821070149764019}},{"attributes":{"OBJECTID":22162,"LANDMARKID":"1000200000333","LANDMARKCO":"205","LANDMARKNA":"礁溪博物館","LANDMARKAD":"1000205","ADDRESS":"宜蘭縣礁溪鄉公園路5號","TEL":"03-9888881","COUNTYNAME":"宜蘭縣","TOWNNAME":"礁溪鄉","MARKTYPE":"992","Class":"2"},"geometry":{"x":121.77635955126414,"y":24.829608798225888}},{"attributes":{"OBJECTID":22163,"LANDMARKID":"1000200000286","LANDMARKCO":"203","LANDMARKNA":"縣立吳沙國中","LANDMARKAD":"1000205","ADDRESS":"宜蘭縣礁溪鄉育英路79號","TEL":"03-9284701","COUNTYNAME":"宜蘭縣","TOWNNAME":"礁溪鄉","MARKTYPE":"992","Class":"2"},"geometry":{"x":121.75919463673051,"y":24.785290636303763}},{"attributes":{"OBJECTID":22164,"LANDMARKID":"1000200000287","LANDMARKCO":"203","LANDMARKNA":"縣立三民國小","LANDMARKAD":"1000205","ADDRESS":"宜蘭縣礁溪鄉三民村十六結路100號","TEL":"03-9882271","COUNTYNAME":"宜蘭縣","TOWNNAME":"礁溪鄉","MARKTYPE":"992","Class":"2"},"geometry":{"x":121.76009056395276,"y":24.813449242452272}},{"attributes":{"OBJECTID":22165,"LANDMARKID":"1000200000288","LANDMARKCO":"203","LANDMARKNA":"縣立四結國小","LANDMARKAD":"1000205","ADDRESS":"宜蘭縣礁溪鄉吳沙村育英路46號","TEL":"03-9284751","COUNTYNAME":"宜蘭縣","TOWNNAME":"礁溪鄉","MARKTYPE":"992","Class":"2"},"geometry":{"x":121.75970951363396,"y":24.786729870594758}},{"attributes":{"OBJECTID":22166,"LANDMARKID":"1000200000191","LANDMARKCO":"201","LANDMARKNA":"佛光大學","LANDMARKAD":"1000205","ADDRESS":"宜蘭縣礁溪鄉林尾路160號","TEL":"03-9871000","COUNTYNAME":"宜蘭縣","TOWNNAME":"礁溪鄉","MARKTYPE":"992","Class":"2"},"geometry":{"x":121.73247219611484,"y":24.817829764506858}},{"attributes":{"OBJECTID":22167,"LANDMARKID":"1000200000192","LANDMARKCO":"201","LANDMARKNA":"淡江大學蘭陽校區","LANDMARKAD":"1000205","ADDRESS":"宜蘭縣礁溪鄉林尾路180號","TEL":"03-9873088","COUNTYNAME":"宜蘭縣","TOWNNAME":"礁溪鄉","MARKTYPE":"992","Class":"2"},"geometry":{"x":121.72962339789967,"y":24.820913641969284}},{"attributes":{"OBJECTID":22168,"LANDMARKID":"1000200000281","LANDMARKCO":"203","LANDMARKNA":"縣立礁溪國中","LANDMARKAD":"1000205","ADDRESS":"宜蘭縣礁溪鄉礁溪路四段23號","TEL":"03-9882412","COUNTYNAME":"宜蘭縣","TOWNNAME":"礁溪鄉","MARKTYPE":"992","Class":"2"},"geometry":{"x":121.76822555026725,"y":24.817789140882269}},{"attributes":{"OBJECTID":22169,"LANDMARKID":"1000200000282","LANDMARKCO":"203","LANDMARKNA":"縣立龍潭國小","LANDMARKAD":"1000205","ADDRESS":"宜蘭縣礁溪鄉大坡路23號","TEL":"03-9284764","COUNTYNAME":"宜蘭縣","TOWNNAME":"礁溪鄉","MARKTYPE":"992","Class":"2"},"geometry":{"x":121.74293357816752,"y":24.777572535284477}},{"attributes":{"OBJECTID":22170,"LANDMARKID":"1000200000283","LANDMARKCO":"203","LANDMARKNA":"縣立玉田國小","LANDMARKAD":"1000205","ADDRESS":"宜蘭縣礁溪鄉茅埔路24號","TEL":"03-9882461","COUNTYNAME":"宜蘭縣","TOWNNAME":"礁溪鄉","MARKTYPE":"992","Class":"2"},"geometry":{"x":121.79027041572395,"y":24.795744401825296}},{"attributes":{"OBJECTID":22171,"LANDMARKID":"1000200000284","LANDMARKCO":"203","LANDMARKNA":"縣立龍潭國小匏崙分校","LANDMARKAD":"1000205","ADDRESS":"宜蘭縣礁溪鄉匏崙村95之2號","TEL":"03-9285199","COUNTYNAME":"宜蘭縣","TOWNNAME":"礁溪鄉","MARKTYPE":"992","Class":"2"},"geometry":{"x":121.72925424734969,"y":24.792388306638593}},{"attributes":{"OBJECTID":22172,"LANDMARKID":"1000200000285","LANDMARKCO":"203","LANDMARKNA":"縣立礁溪國小","LANDMARKAD":"1000205","ADDRESS":"宜蘭縣礁溪鄉大忠村中正路135號","TEL":"03-9882047","COUNTYNAME":"宜蘭縣","TOWNNAME":"礁溪鄉","MARKTYPE":"992","Class":"2"},"geometry":{"x":121.76857863744353,"y":24.821710799166908}},{"attributes":{"OBJECTID":22173,"LANDMARKID":"1000200000457","LANDMARKCO":"308","LANDMARKNA":"國5-頭城交流道-南下","LANDMARKAD":"1000205","ADDRESS":"宜蘭縣礁溪鄉","TEL":" ","COUNTYNAME":"宜蘭縣","TOWNNAME":"礁溪鄉","MARKTYPE":"993","Class":"308"},"geometry":{"x":121.78998821934925,"y":24.828930121765843}},{"attributes":{"OBJECTID":22174,"LANDMARKID":"1000200000458","LANDMARKCO":"308","LANDMARKNA":"國5-頭城交流道-北上","LANDMARKAD":"1000205","ADDRESS":"宜蘭縣礁溪鄉","TEL":" ","COUNTYNAME":"宜蘭縣","TOWNNAME":"礁溪鄉","MARKTYPE":"993","Class":"308"},"geometry":{"x":121.7909842355913,"y":24.831373328754406}},{"attributes":{"OBJECTID":22175,"LANDMARKID":"1000200000402","LANDMARKCO":"303","LANDMARKNA":"林美石磐步道停車場","LANDMARKAD":"1000205","ADDRESS":"宜蘭縣礁溪鄉林美村","TEL":" ","COUNTYNAME":"宜蘭縣","TOWNNAME":"礁溪鄉","MARKTYPE":"993","Class":"303"},"geometry":{"x":121.73570070664387,"y":24.820996141480236}},{"attributes":{"OBJECTID":22176,"LANDMARKID":"1000200000403","LANDMARKCO":"303","LANDMARKNA":"龍潭湖風景區停車場","LANDMARKAD":"1000205","ADDRESS":"宜蘭縣礁溪鄉龍潭村","TEL":" ","COUNTYNAME":"宜蘭縣","TOWNNAME":"礁溪鄉","MARKTYPE":"993","Class":"303"},"geometry":{"x":121.74000429037935,"y":24.792266615950957}},{"attributes":{"OBJECTID":22177,"LANDMARKID":"1000200000404","LANDMARKCO":"303","LANDMARKNA":"五峰旗露營區停車場","LANDMARKAD":"1000205","ADDRESS":"宜蘭縣礁溪鄉五峰路","TEL":" ","COUNTYNAME":"宜蘭縣","TOWNNAME":"礁溪鄉","MARKTYPE":"993","Class":"303"},"geometry":{"x":121.74782414192201,"y":24.831578087741288}},{"attributes":{"OBJECTID":22178,"LANDMARKID":"1000200000405","LANDMARKCO":"303","LANDMARKNA":"礁溪鄉公有停車場","LANDMARKAD":"1000205","ADDRESS":"宜蘭縣礁溪鄉","TEL":" ","COUNTYNAME":"宜蘭縣","TOWNNAME":"礁溪鄉","MARKTYPE":"993","Class":"303"},"geometry":{"x":121.77074863537865,"y":24.824910379956439}},{"attributes":{"OBJECTID":22179,"LANDMARKID":"1000200000406","LANDMARKCO":"303","LANDMARKNA":"跑馬古道南口停車場","LANDMARKAD":"1000205","ADDRESS":"宜蘭縣礁溪鄉十一股溪旁","TEL":" ","COUNTYNAME":"宜蘭縣","TOWNNAME":"礁溪鄉","MARKTYPE":"993","Class":"303"},"geometry":{"x":121.77269619595734,"y":24.838075648099771}},{"attributes":{"OBJECTID":22180,"LANDMARKID":"1000200000407","LANDMARKCO":"303","LANDMARKNA":"山泉大飯店停車場","LANDMARKAD":"1000205","ADDRESS":"宜蘭縣礁溪鄉礁溪路六段36號","TEL":"03-9887979","COUNTYNAME":"宜蘭縣","TOWNNAME":"礁溪鄉","MARKTYPE":"993","Class":"303"},"geometry":{"x":121.77831838601077,"y":24.830777284142059}},{"attributes":{"OBJECTID":22181,"LANDMARKID":"1000200000408","LANDMARKCO":"303","LANDMARKNA":"礁溪公園停車場","LANDMARKAD":"1000205","ADDRESS":"宜蘭縣礁溪鄉","TEL":" ","COUNTYNAME":"宜蘭縣","TOWNNAME":"礁溪鄉","MARKTYPE":"993","Class":"303"},"geometry":{"x":121.77565092705055,"y":24.831472212874623}},{"attributes":{"OBJECTID":22182,"LANDMARKID":"1000200000409","LANDMARKCO":"303","LANDMARKNA":"五峰旗停車場","LANDMARKAD":"1000205","ADDRESS":"宜蘭縣礁溪鄉","TEL":" ","COUNTYNAME":"宜蘭縣","TOWNNAME":"礁溪鄉","MARKTYPE":"993","Class":"303"},"geometry":{"x":121.75198557458484,"y":24.829575327898681}},{"attributes":{"OBJECTID":22183,"LANDMARKID":"1000200000410","LANDMARKCO":"303","LANDMARKNA":"礁溪鄉公共造產第一停車場","LANDMARKAD":"1000205","ADDRESS":"宜蘭縣礁溪鄉中山路187號","TEL":" ","COUNTYNAME":"宜蘭縣","TOWNNAME":"礁溪鄉","MARKTYPE":"993","Class":"303"},"geometry":{"x":121.77052124711142,"y":24.820084611980523}},{"attributes":{"OBJECTID":22184,"LANDMARKID":"1000200000411","LANDMARKCO":"303","LANDMARKNA":"礁溪鄉公共造產第三停車場","LANDMARKAD":"1000205","ADDRESS":"宜蘭縣礁溪鄉中正路25號","TEL":" ","COUNTYNAME":"宜蘭縣","TOWNNAME":"礁溪鄉","MARKTYPE":"993","Class":"303"},"geometry":{"x":121.7689406983869,"y":24.820036504253412}},{"attributes":{"OBJECTID":22185,"LANDMARKID":"1000200000349","LANDMARKCO":"301","LANDMARKNA":"礁溪火車站","LANDMARKAD":"1000205","ADDRESS":"宜蘭縣礁溪鄉德陽村溫泉路1號","TEL":"03-9886940","COUNTYNAME":"宜蘭縣","TOWNNAME":"礁溪鄉","MARKTYPE":"993","Class":"301"},"geometry":{"x":121.77557598140832,"y":24.827008828544081}},{"attributes":{"OBJECTID":22186,"LANDMARKID":"1000200000350","LANDMARKCO":"301","LANDMARKNA":"四城火車站","LANDMARKAD":"1000205","ADDRESS":"宜蘭縣礁溪鄉吳沙村站前路24號","TEL":"03-9282449","COUNTYNAME":"宜蘭縣","TOWNNAME":"礁溪鄉","MARKTYPE":"993","Class":"301"},"geometry":{"x":121.76287017809837,"y":24.786647040738572}},{"attributes":{"OBJECTID":22187,"LANDMARKID":"1000200000494","LANDMARKCO":"402","LANDMARKNA":"中華電信-礁溪服務中心","LANDMARKAD":"1000205","ADDRESS":"宜蘭縣礁溪鄉礁溪路四段128號","TEL":"(03)988-4111","COUNTYNAME":"宜蘭縣","TOWNNAME":"礁溪鄉","MARKTYPE":"994","Class":"4"},"geometry":{"x":121.76979777094617,"y":24.82110762579196}},{"attributes":{"OBJECTID":22188,"LANDMARKID":"1000200000803","LANDMARKCO":"603","LANDMARKNA":"蘭陽溫泉大飯店","LANDMARKAD":"1000205","ADDRESS":"宜蘭縣礁溪鄉德陽路24巷8號","TEL":"03-9881111","COUNTYNAME":"宜蘭縣","TOWNNAME":"礁溪鄉","MARKTYPE":"996","Class":"6"},"geometry":{"x":121.7722516584583,"y":24.828528925642228}},{"attributes":{"OBJECTID":22189,"LANDMARKID":"1000200000804","LANDMARKCO":"603","LANDMARKNA":"凱麗溫泉飯店","LANDMARKAD":"1000205","ADDRESS":"宜蘭縣礁溪鄉溫泉路38號","TEL":"03-9881516","COUNTYNAME":"宜蘭縣","TOWNNAME":"礁溪鄉","MARKTYPE":"996","Class":"6"},"geometry":{"x":121.7742833914765,"y":24.828001417713356}},{"attributes":{"OBJECTID":22190,"LANDMARKID":"1000200000805","LANDMARKCO":"603","LANDMARKNA":"中冠礁溪大飯店","LANDMARKAD":"1000205","ADDRESS":"宜蘭縣礁溪鄉德陽路6號","TEL":"03-9882011","COUNTYNAME":"宜蘭縣","TOWNNAME":"礁溪鄉","MARKTYPE":"996","Class":"6"},"geometry":{"x":121.77345474934531,"y":24.827052707108525}},{"attributes":{"OBJECTID":22191,"LANDMARKID":"1000200000806","LANDMARKCO":"603","LANDMARKNA":"和風溫泉會館","LANDMARKAD":"1000205","ADDRESS":"宜蘭縣礁溪鄉德陽路30號","TEL":"03-9888811","COUNTYNAME":"宜蘭縣","TOWNNAME":"礁溪鄉","MARKTYPE":"996","Class":"6"},"geometry":{"x":121.77183926393431,"y":24.828760406665019}},{"attributes":{"OBJECTID":22192,"LANDMARKID":"1000200000807","LANDMARKCO":"603","LANDMARKNA":"來來大飯店","LANDMARKAD":"1000205","ADDRESS":"宜蘭縣礁溪鄉德陽路47號","TEL":"03-9882042","COUNTYNAME":"宜蘭縣","TOWNNAME":"礁溪鄉","MARKTYPE":"996","Class":"6"},"geometry":{"x":121.77186379077006,"y":24.828344849522555}},{"attributes":{"OBJECTID":22193,"LANDMARKID":"1000200000808","LANDMARKCO":"603","LANDMARKNA":"太子大飯店","LANDMARKAD":"1000205","ADDRESS":"宜蘭縣礁溪鄉礁溪路五段67號","TEL":"03-9882006-8","COUNTYNAME":"宜蘭縣","TOWNNAME":"礁溪鄉","MARKTYPE":"996","Class":"6"},"geometry":{"x":121.77198874067005,"y":24.827458870714654}},{"attributes":{"OBJECTID":22194,"LANDMARKID":"1000200000809","LANDMARKCO":"603","LANDMARKNA":"華閣溫泉飯店","LANDMARKAD":"1000205","ADDRESS":"宜蘭縣礁溪鄉公園路25號","TEL":"03-9882016","COUNTYNAME":"宜蘭縣","TOWNNAME":"礁溪鄉","MARKTYPE":"996","Class":"6"},"geometry":{"x":121.77583369821947,"y":24.830174230081344}},{"attributes":{"OBJECTID":22195,"LANDMARKID":"1000200001122","LANDMARKCO":"604","LANDMARKNA":"懷鄉園民宿","LANDMARKAD":"1000205","ADDRESS":"宜蘭縣礁溪鄉二龍村淇武蘭路12-1號","TEL":"03-9873863","COUNTYNAME":"宜蘭縣","TOWNNAME":"礁溪鄉","MARKTYPE":"996","Class":"6"},"geometry":{"x":121.77344191906769,"y":24.807959776668927}},{"attributes":{"OBJECTID":22196,"LANDMARKID":"1000200001123","LANDMARKCO":"604","LANDMARKNA":"晨旭休閒民宿","LANDMARKAD":"1000205","ADDRESS":"宜蘭縣礁溪鄉時潮村塭底路7號","TEL":"03-9876326","COUNTYNAME":"宜蘭縣","TOWNNAME":"礁溪鄉","MARKTYPE":"996","Class":"6"},"geometry":{"x":121.80398374962725,"y":24.804444602308855}},{"attributes":{"OBJECTID":22197,"LANDMARKID":"1000200000790","LANDMARKCO":"603","LANDMARKNA":"冠翔四季溫泉會館","LANDMARKAD":"1000205","ADDRESS":"宜蘭縣礁溪鄉仁愛路66巷6號1-6樓","TEL":"03-9875599","COUNTYNAME":"宜蘭縣","TOWNNAME":"礁溪鄉","MARKTYPE":"996","Class":"6"},"geometry":{"x":121.76984365451739,"y":24.827047022581901}},{"attributes":{"OBJECTID":22198,"LANDMARKID":"1000200000791","LANDMARKCO":"603","LANDMARKNA":"鴻月莊旅社","LANDMARKAD":"1000205","ADDRESS":"宜蘭縣礁溪鄉溫泉路12號1-4樓","TEL":"03-9883699","COUNTYNAME":"宜蘭縣","TOWNNAME":"礁溪鄉","MARKTYPE":"996","Class":"6"},"geometry":{"x":121.77499072929568,"y":24.827366752456303}},{"attributes":{"OBJECTID":22199,"LANDMARKID":"1000200000792","LANDMARKCO":"603","LANDMARKNA":"巍巍大旅館","LANDMARKAD":"1000205","ADDRESS":"宜蘭縣礁溪鄉德陽路33-1號","TEL":"03-9884486-8","COUNTYNAME":"宜蘭縣","TOWNNAME":"礁溪鄉","MARKTYPE":"996","Class":"6"},"geometry":{"x":121.77172990015559,"y":24.828084298528402}},{"attributes":{"OBJECTID":22200,"LANDMARKID":"1000200000793","LANDMARKCO":"603","LANDMARKNA":"阿先湯泉養生會館","LANDMARKAD":"1000205","ADDRESS":"宜蘭縣礁溪鄉忠孝路103巷22弄1號1-4樓","TEL":"03-9887299","COUNTYNAME":"宜蘭縣","TOWNNAME":"礁溪鄉","MARKTYPE":"996","Class":"6"},"geometry":{"x":121.77316097138242,"y":24.832000225664185}}]}