{"displayFieldName":"COUNTYNAME","fieldAliases":{"OBJECTID":"OBJECTID","LANDMARKID":"LANDMARKID","LANDMARKCO":"LANDMARKCO","LANDMARKNA":"LANDMARKNA","LANDMARKAD":"LANDMARKAD","ADDRESS":"ADDRESS","TEL":"TEL","COUNTYNAME":"COUNTYNAME","TOWNNAME":"TOWNNAME","MARKTYPE":"MARKTYPE","Class":"Class"},"geometryType":"esriGeometryPoint","spatialReference":{"wkid":102443},"fields":[{"name":"OBJECTID","type":"esriFieldTypeOID","alias":"OBJECTID"},{"name":"LANDMARKID","type":"esriFieldTypeString","alias":"LANDMARKID","length":15},{"name":"LANDMARKCO","type":"esriFieldTypeString","alias":"LANDMARKCO","length":15},{"name":"LANDMARKNA","type":"esriFieldTypeString","alias":"LANDMARKNA","length":50},{"name":"LANDMARKAD","type":"esriFieldTypeString","alias":"LANDMARKAD","length":15},{"name":"ADDRESS","type":"esriFieldTypeString","alias":"ADDRESS","length":56},{"name":"TEL","type":"esriFieldTypeString","alias":"TEL","length":36},{"name":"COUNTYNAME","type":"esriFieldTypeString","alias":"COUNTYNAME","length":15},{"name":"TOWNNAME","type":"esriFieldTypeString","alias":"TOWNNAME","length":13},{"name":"MARKTYPE","type":"esriFieldTypeString","alias":"MARKTYPE","length":12},{"name":"Class","type":"esriFieldTypeString","alias":"Class","length":5}],"features":[{"attributes":{"OBJECTID":14801,"LANDMARKID":"1001900000671","LANDMARKCO":"402","LANDMARKNA":"亞太行動寬頻電信-台中南平加盟服務中心","LANDMARKAD":"1001903","ADDRESS":"台中市南區和平里南平路1號","TEL":"04-35053508","COUNTYNAME":"台中市","TOWNNAME":"南區","MARKTYPE":"994","Class":"4"},"geometry":{"x":215414.3925999999,"y":2668236.3563000001}},{"attributes":{"OBJECTID":14802,"LANDMARKID":"1001900000672","LANDMARKCO":"402","LANDMARKNA":"亞太行動寬頻電信-台中台中加盟服務中心","LANDMARKAD":"1001903","ADDRESS":"台中市南區台中路168號","TEL":"04-22857766","COUNTYNAME":"台中市","TOWNNAME":"南區","MARKTYPE":"994","Class":"4"},"geometry":{"x":217934.9347000001,"y":2669547.2762000002}},{"attributes":{"OBJECTID":14803,"LANDMARKID":"1001900000543","LANDMARKCO":"401","LANDMARKNA":"中興醫院","LANDMARKAD":"1001903","ADDRESS":"台中市南區復興路二段11號","TEL":"04-22621652","COUNTYNAME":"台中市","TOWNNAME":"南區","MARKTYPE":"994","Class":"4"},"geometry":{"x":215292.6054999996,"y":2668148.0567000005}},{"attributes":{"OBJECTID":14804,"LANDMARKID":"1001900000544","LANDMARKCO":"401","LANDMARKNA":"宏恩醫院龍安分院","LANDMARKAD":"1001903","ADDRESS":"台中市南區德富路145巷2號","TEL":"04-37017188","COUNTYNAME":"台中市","TOWNNAME":"南區","MARKTYPE":"994","Class":"4"},"geometry":{"x":214968.05240000039,"y":2668281.8914999999}},{"attributes":{"OBJECTID":14805,"LANDMARKID":"1001900000545","LANDMARKCO":"401","LANDMARKNA":"宏恩醫院","LANDMARKAD":"1001903","ADDRESS":"台中市復興路二段38之13號","TEL":"04-22623123","COUNTYNAME":"台中市","TOWNNAME":"南區","MARKTYPE":"994","Class":"4"},"geometry":{"x":215517.78720000014,"y":2668381.6051000003}},{"attributes":{"OBJECTID":14806,"LANDMARKID":"1001900000546","LANDMARKCO":"401","LANDMARKNA":"中山醫學大學附設醫院","LANDMARKAD":"1001903","ADDRESS":"台中市建國北路一段110號","TEL":"04-24739595","COUNTYNAME":"台中市","TOWNNAME":"南區","MARKTYPE":"994","Class":"4"},"geometry":{"x":214413.3602,"y":2668552.6872000005}},{"attributes":{"OBJECTID":14807,"LANDMARKID":"1001900001011","LANDMARKCO":"507","LANDMARKNA":"台中林氏宗祠","LANDMARKAD":"1001903","ADDRESS":"台中市南區民主里國光路55號","TEL":"04-22246928","COUNTYNAME":"台中市","TOWNNAME":"南區","MARKTYPE":"995","Class":"5"},"geometry":{"x":217173.53519999981,"y":2669630.4984000009}},{"attributes":{"OBJECTID":14808,"LANDMARKID":"1001900000938","LANDMARKCO":"408","LANDMARKNA":"郵局-台中台中路郵局","LANDMARKAD":"1001903","ADDRESS":"台中市台中路100號","TEL":"(04)2222-6854","COUNTYNAME":"台中市","TOWNNAME":"南區","MARKTYPE":"994","Class":"4"},"geometry":{"x":217808.32259999961,"y":2669818.6353999991}},{"attributes":{"OBJECTID":14809,"LANDMARKID":"1001900000939","LANDMARKCO":"408","LANDMARKNA":"郵局-台中愛國街郵局","LANDMARKAD":"1001903","ADDRESS":"台中市愛國街87號","TEL":"(04)2224-3823","COUNTYNAME":"台中市","TOWNNAME":"南區","MARKTYPE":"994","Class":"4"},"geometry":{"x":217247.91160000023,"y":2669558.6560999993}},{"attributes":{"OBJECTID":14810,"LANDMARKID":"1001900000940","LANDMARKCO":"408","LANDMARKNA":"郵局-台中南和路郵局","LANDMARKAD":"1001903","ADDRESS":"台中市南和路42號","TEL":"(04)2261-6535","COUNTYNAME":"台中市","TOWNNAME":"南區","MARKTYPE":"994","Class":"4"},"geometry":{"x":216343.3881000001,"y":2667935.5470000003}},{"attributes":{"OBJECTID":14811,"LANDMARKID":"1001900000941","LANDMARKCO":"408","LANDMARKNA":"郵局-台中福平里郵局","LANDMARKAD":"1001903","ADDRESS":"台中市復興路2段169號","TEL":"(04)2261-1854","COUNTYNAME":"台中市","TOWNNAME":"南區","MARKTYPE":"994","Class":"4"},"geometry":{"x":216020.89209999982,"y":2669159.7745999992}},{"attributes":{"OBJECTID":14812,"LANDMARKID":"1001900000942","LANDMARKCO":"408","LANDMARKNA":"郵局-台中樹仔腳郵局","LANDMARKAD":"1001903","ADDRESS":"台中市復興路1段236號","TEL":"(04)2262-6592","COUNTYNAME":"台中市","TOWNNAME":"南區","MARKTYPE":"994","Class":"4"},"geometry":{"x":214900.28280000016,"y":2667743.9275000002}},{"attributes":{"OBJECTID":14813,"LANDMARKID":"1001900000943","LANDMARKCO":"408","LANDMARKNA":"郵局-台中國光路郵局","LANDMARKAD":"1001903","ADDRESS":"台中市國光路297號","TEL":"(04)2285-1030","COUNTYNAME":"台中市","TOWNNAME":"南區","MARKTYPE":"994","Class":"4"},"geometry":{"x":217432.43350000028,"y":2668651.9925999995}},{"attributes":{"OBJECTID":14814,"LANDMARKID":"1001900000827","LANDMARKCO":"406","LANDMARKNA":"豐富公園","LANDMARKAD":"1001903","ADDRESS":"台中市南屯區","TEL":" ","COUNTYNAME":"台中市","TOWNNAME":"南區","MARKTYPE":"994","Class":"4"},"geometry":{"x":214824.0466,"y":2669506.5788000003}},{"attributes":{"OBJECTID":14815,"LANDMARKID":"1001900000828","LANDMARKCO":"406","LANDMARKNA":"崇倫公園","LANDMARKAD":"1001903","ADDRESS":"台中市南屯區","TEL":" ","COUNTYNAME":"台中市","TOWNNAME":"南區","MARKTYPE":"994","Class":"4"},"geometry":{"x":215455.61809999961,"y":2669695.5861000009}},{"attributes":{"OBJECTID":14816,"LANDMARKID":"1001900000829","LANDMARKCO":"406","LANDMARKNA":"長春公園","LANDMARKAD":"1001903","ADDRESS":"台中市西區","TEL":" ","COUNTYNAME":"台中市","TOWNNAME":"南區","MARKTYPE":"994","Class":"4"},"geometry":{"x":217481.06510000024,"y":2669606.6131999996}},{"attributes":{"OBJECTID":14817,"LANDMARKID":"1001900000830","LANDMARKCO":"406","LANDMARKNA":"樹德公園","LANDMARKAD":"1001903","ADDRESS":"台中市南區","TEL":" ","COUNTYNAME":"台中市","TOWNNAME":"南區","MARKTYPE":"994","Class":"4"},"geometry":{"x":214833.70760000031,"y":2668097.0212999992}},{"attributes":{"OBJECTID":14818,"LANDMARKID":"1001900000831","LANDMARKCO":"406","LANDMARKNA":"健康公園","LANDMARKAD":"1001903","ADDRESS":"台中市南區","TEL":" ","COUNTYNAME":"台中市","TOWNNAME":"南區","MARKTYPE":"994","Class":"4"},"geometry":{"x":216306.1063000001,"y":2668363.8804000001}},{"attributes":{"OBJECTID":14819,"LANDMARKID":"1001900000832","LANDMARKCO":"406","LANDMARKNA":"南平公園","LANDMARKAD":"1001903","ADDRESS":"台中市南區","TEL":" ","COUNTYNAME":"台中市","TOWNNAME":"南區","MARKTYPE":"994","Class":"4"},"geometry":{"x":216340.23020000011,"y":2668859.8899000008}},{"attributes":{"OBJECTID":14820,"LANDMARKID":"1001900000833","LANDMARKCO":"406","LANDMARKNA":"福平公園","LANDMARKAD":"1001903","ADDRESS":"台中市南屯區","TEL":" ","COUNTYNAME":"台中市","TOWNNAME":"南區","MARKTYPE":"994","Class":"4"},"geometry":{"x":215632.13090000022,"y":2668802.0692999996}},{"attributes":{"OBJECTID":14821,"LANDMARKID":"1001900000834","LANDMARKCO":"406","LANDMARKNA":"復新公園","LANDMARKAD":"1001903","ADDRESS":"台中市南區","TEL":" ","COUNTYNAME":"台中市","TOWNNAME":"南區","MARKTYPE":"994","Class":"4"},"geometry":{"x":217046.05829999968,"y":2668848.4376999997}},{"attributes":{"OBJECTID":14822,"LANDMARKID":"1001900000925","LANDMARKCO":"407","LANDMARKNA":"小北百貨","LANDMARKAD":"1001903","ADDRESS":"台中市忠明南路1110號","TEL":"0422633384","COUNTYNAME":"台中市","TOWNNAME":"南區","MARKTYPE":"994","Class":"4"},"geometry":{"x":216082.11519999988,"y":2668119.5181000009}},{"attributes":{"OBJECTID":14823,"LANDMARKID":"1001900000789","LANDMARKCO":"405","LANDMARKNA":"福懋加油站-復興站(台塑)","LANDMARKAD":"1001903","ADDRESS":"台中市南區復興路一段70號","TEL":"04-22654256","COUNTYNAME":"台中市","TOWNNAME":"南區","MARKTYPE":"994","Class":"4"},"geometry":{"x":214642.23579999991,"y":2667540.2972999997}},{"attributes":{"OBJECTID":14824,"LANDMARKID":"1001900000790","LANDMARKCO":"405","LANDMARKNA":"西歐加油站-文南站（台塑）","LANDMARKAD":"1001903","ADDRESS":"台中市文心南路641號","TEL":"04-22615700","COUNTYNAME":"台中市","TOWNNAME":"南區","MARKTYPE":"994","Class":"4"},"geometry":{"x":214722.4729000004,"y":2668051.4913999997}},{"attributes":{"OBJECTID":14825,"LANDMARKID":"1001900000076","LANDMARKCO":"107","LANDMARKNA":"台中市警察局勤工派出所","LANDMARKAD":"1001903","ADDRESS":"台中市復興路一段235號","TEL":"04-22612716","COUNTYNAME":"台中市","TOWNNAME":"南區","MARKTYPE":"991","Class":"1"},"geometry":{"x":214545.60840000026,"y":2667530.3188000005}},{"attributes":{"OBJECTID":14826,"LANDMARKID":"1001900000077","LANDMARKCO":"107","LANDMARKNA":"台中市消防局勤工消防分隊","LANDMARKAD":"1001903","ADDRESS":"臺中市復興路一段235號","TEL":"04-22621980","COUNTYNAME":"台中市","TOWNNAME":"南區","MARKTYPE":"991","Class":"1"},"geometry":{"x":214510.65799999982,"y":2667510.2317999993}},{"attributes":{"OBJECTID":14827,"LANDMARKID":"1001900000032","LANDMARKCO":"101","LANDMARKNA":"台中市團管區司令部","LANDMARKAD":"1001903","ADDRESS":"台中市愛國街78號","TEL":"04-22221338","COUNTYNAME":"台中市","TOWNNAME":"南區","MARKTYPE":"991","Class":"1"},"geometry":{"x":217279.88389999978,"y":2669570.0776000004}},{"attributes":{"OBJECTID":14828,"LANDMARKID":"1001900000033","LANDMARKCO":"101","LANDMARKNA":"台灣高等法院台中分院","LANDMARKAD":"1001903","ADDRESS":"臺中市五權南路99號","TEL":"04-22600600","COUNTYNAME":"台中市","TOWNNAME":"南區","MARKTYPE":"991","Class":"1"},"geometry":{"x":216342.97719999962,"y":2669162.9473999999}},{"attributes":{"OBJECTID":14829,"LANDMARKID":"1001900000059","LANDMARKCO":"104","LANDMARKNA":"中區國稅局大智稽徵所","LANDMARKAD":"1001903","ADDRESS":"臺中市復興路2段78號7樓?","TEL":"04-22612821","COUNTYNAME":"台中市","TOWNNAME":"南區","MARKTYPE":"991","Class":"1"},"geometry":{"x":215652.0569000002,"y":2668574.7710999995}},{"attributes":{"OBJECTID":14830,"LANDMARKID":"1001900000034","LANDMARKCO":"101","LANDMARKNA":"標準檢驗局台中分局","LANDMARKAD":"1001903","ADDRESS":"台中市和平里工學路70號","TEL":"04-22612161","COUNTYNAME":"台中市","TOWNNAME":"南區","MARKTYPE":"991","Class":"1"},"geometry":{"x":215932.95210000034,"y":2668072.5122999996}},{"attributes":{"OBJECTID":14831,"LANDMARKID":"1001900000035","LANDMARKCO":"101","LANDMARKNA":"台灣台中高等行政法院","LANDMARKAD":"1001903","ADDRESS":"台中市五權南路99號","TEL":"04-22600800","COUNTYNAME":"台中市","TOWNNAME":"南區","MARKTYPE":"991","Class":"1"},"geometry":{"x":216342.97719999962,"y":2669162.9473999999}},{"attributes":{"OBJECTID":14832,"LANDMARKID":"1001900000128","LANDMARKCO":"108","LANDMARKNA":"台中市南區公所","LANDMARKAD":"1001903","ADDRESS":"臺中市工學路72號3樓","TEL":"04-22626105","COUNTYNAME":"台中市","TOWNNAME":"南區","MARKTYPE":"991","Class":"1"},"geometry":{"x":215834.5745000001,"y":2668031.7468999997}},{"attributes":{"OBJECTID":14833,"LANDMARKID":"1001900000078","LANDMARKCO":"107","LANDMARKNA":"台中市警察局第三分局","LANDMARKAD":"1001903","ADDRESS":"台中市復興路三段159號","TEL":"04-22224477","COUNTYNAME":"台中市","TOWNNAME":"南區","MARKTYPE":"991","Class":"1"},"geometry":{"x":216817.55939999968,"y":2669539.1707000006}},{"attributes":{"OBJECTID":14834,"LANDMARKID":"1001900000079","LANDMARKCO":"107","LANDMARKNA":"台中市警察局正義派出所","LANDMARKAD":"1001903","ADDRESS":"台中市復興路三段157號","TEL":"04-22223319","COUNTYNAME":"台中市","TOWNNAME":"南區","MARKTYPE":"991","Class":"1"},"geometry":{"x":216810.86890000012,"y":2669535.9351000004}},{"attributes":{"OBJECTID":14835,"LANDMARKID":"1001900000080","LANDMARKCO":"107","LANDMARKNA":"台中市消防局信義消防分隊","LANDMARKAD":"1001903","ADDRESS":"台中市台中路124號","TEL":"04-22878220","COUNTYNAME":"台中市","TOWNNAME":"南區","MARKTYPE":"991","Class":"1"},"geometry":{"x":217885.5661000004,"y":2669651.2719999999}},{"attributes":{"OBJECTID":14836,"LANDMARKID":"1001900000070","LANDMARKCO":"106","LANDMARKNA":"台中市南區戶政事務所","LANDMARKAD":"1001903","ADDRESS":"台中市工學路72號","TEL":"04-22627887","COUNTYNAME":"台中市","TOWNNAME":"南區","MARKTYPE":"991","Class":"1"},"geometry":{"x":215834.5745000001,"y":2668031.7468999997}},{"attributes":{"OBJECTID":14837,"LANDMARKID":"1001900000280","LANDMARKCO":"204","LANDMARKNA":"台中市立圖書館南區分館","LANDMARKAD":"1001903","ADDRESS":"台中市南區五權南路335號","TEL":" ","COUNTYNAME":"台中市","TOWNNAME":"南區","MARKTYPE":"992","Class":"2"},"geometry":{"x":216431.01999999955,"y":2668366.8701000009}},{"attributes":{"OBJECTID":14838,"LANDMARKID":"1001900000187","LANDMARKCO":"203","LANDMARKNA":"市立四育國中","LANDMARKAD":"1001903","ADDRESS":"台中市復興路二段152號","TEL":"04-22633229","COUNTYNAME":"台中市","TOWNNAME":"南區","MARKTYPE":"992","Class":"2"},"geometry":{"x":215957.96960000042,"y":2668920.2989000008}},{"attributes":{"OBJECTID":14839,"LANDMARKID":"1001900000188","LANDMARKCO":"203","LANDMARKNA":"市立信義國小","LANDMARKAD":"1001903","ADDRESS":"台中市五權南路325號","TEL":"04-22622005","COUNTYNAME":"台中市","TOWNNAME":"南區","MARKTYPE":"992","Class":"2"},"geometry":{"x":216309.43539999984,"y":2668530.4635000005}},{"attributes":{"OBJECTID":14840,"LANDMARKID":"1001900000189","LANDMARKCO":"203","LANDMARKNA":"市立國光國小","LANDMARKAD":"1001903","ADDRESS":"台中市國光路261號","TEL":"04-22872475#710","COUNTYNAME":"台中市","TOWNNAME":"南區","MARKTYPE":"992","Class":"2"},"geometry":{"x":217497.89439999964,"y":2668950.5798000004}},{"attributes":{"OBJECTID":14841,"LANDMARKID":"1001900000190","LANDMARKCO":"203","LANDMARKNA":"市立和平國小","LANDMARKAD":"1001903","ADDRESS":"台中市復興路二段57號","TEL":"04-22613139","COUNTYNAME":"台中市","TOWNNAME":"南區","MARKTYPE":"992","Class":"2"},"geometry":{"x":215418.71690000035,"y":2668410.3690000009}},{"attributes":{"OBJECTID":14842,"LANDMARKID":"1001900000132","LANDMARKCO":"201","LANDMARKNA":"中山醫學大學大慶校區","LANDMARKAD":"1001903","ADDRESS":"台中市大慶街二段100號","TEL":"04-24730022","COUNTYNAME":"台中市","TOWNNAME":"南區","MARKTYPE":"992","Class":"2"},"geometry":{"x":214380.67069999967,"y":2668120.6114000008}},{"attributes":{"OBJECTID":14843,"LANDMARKID":"1001900000168","LANDMARKCO":"202","LANDMARKNA":"私立明德女中","LANDMARKAD":"1001903","ADDRESS":"台中市明德街84號","TEL":"04-22877676","COUNTYNAME":"台中市","TOWNNAME":"南區","MARKTYPE":"992","Class":"2"},"geometry":{"x":217871.22389999963,"y":2668414.6359000001}},{"attributes":{"OBJECTID":14844,"LANDMARKID":"1001900000169","LANDMARKCO":"202","LANDMARKNA":"私立宜寧高中","LANDMARKAD":"1001903","ADDRESS":"台中市復興路二段45號","TEL":"04-22613411","COUNTYNAME":"台中市","TOWNNAME":"南區","MARKTYPE":"992","Class":"2"},"geometry":{"x":215386.24289999995,"y":2668302.3731999993}},{"attributes":{"OBJECTID":14845,"LANDMARKID":"1001900000170","LANDMARKCO":"202","LANDMARKNA":"國立台中高工","LANDMARKAD":"1001903","ADDRESS":"台中市高工路191號","TEL":"04-22613158","COUNTYNAME":"台中市","TOWNNAME":"南區","MARKTYPE":"992","Class":"2"},"geometry":{"x":215588.70940000005,"y":2667738.4267999995}},{"attributes":{"OBJECTID":14846,"LANDMARKID":"1001900000171","LANDMARKCO":"202","LANDMARKNA":"私立明德女中附設國中部","LANDMARKAD":"1001903","ADDRESS":"台中市明德街84號","TEL":"04-22877676","COUNTYNAME":"台中市","TOWNNAME":"南區","MARKTYPE":"992","Class":"2"},"geometry":{"x":217871.22389999963,"y":2668414.6359000001}},{"attributes":{"OBJECTID":14847,"LANDMARKID":"1001900000172","LANDMARKCO":"202","LANDMARKNA":"私立宜寧高中附設國中部","LANDMARKAD":"1001903","ADDRESS":"台中市復興路二段45號","TEL":"04-22613411","COUNTYNAME":"台中市","TOWNNAME":"南區","MARKTYPE":"992","Class":"2"},"geometry":{"x":215386.24289999995,"y":2668302.3731999993}},{"attributes":{"OBJECTID":14848,"LANDMARKID":"1001900000185","LANDMARKCO":"203","LANDMARKNA":"市立崇倫國中","LANDMARKAD":"1001903","ADDRESS":"台中市忠明南路653號","TEL":"04-23712324","COUNTYNAME":"台中市","TOWNNAME":"南區","MARKTYPE":"992","Class":"2"},"geometry":{"x":215307.19450000022,"y":2669670.1937000006}},{"attributes":{"OBJECTID":14849,"LANDMARKID":"1001900000186","LANDMARKCO":"203","LANDMARKNA":"市立樹義國小","LANDMARKAD":"1001903","ADDRESS":"台中市福田路11號","TEL":"04-22657298","COUNTYNAME":"台中市","TOWNNAME":"南區","MARKTYPE":"992","Class":"2"},"geometry":{"x":215173.62590000033,"y":2667467.2863999996}},{"attributes":{"OBJECTID":14850,"LANDMARKID":"1001900000133","LANDMARKCO":"201","LANDMARKNA":"中山醫學大學","LANDMARKAD":"1001903","ADDRESS":"台中市建國北路一段110號","TEL":"04-24730022","COUNTYNAME":"台中市","TOWNNAME":"南區","MARKTYPE":"992","Class":"2"},"geometry":{"x":214413.14120000042,"y":2668553.0786000006}},{"attributes":{"OBJECTID":14851,"LANDMARKID":"1001900000134","LANDMARKCO":"201","LANDMARKNA":"國立中興大學","LANDMARKAD":"1001903","ADDRESS":"台中市國光路250號","TEL":"04-22873181","COUNTYNAME":"台中市","TOWNNAME":"南區","MARKTYPE":"992","Class":"2"},"geometry":{"x":217368.00420000032,"y":2668660.2975999992}},{"attributes":{"OBJECTID":14852,"LANDMARKID":"1001900000135","LANDMARKCO":"201","LANDMARKNA":"私立樹德工商專科學校","LANDMARKAD":"1001903","ADDRESS":"台中市大慶路二段11號","TEL":"04-22616640","COUNTYNAME":"台中市","TOWNNAME":"南區","MARKTYPE":"992","Class":"2"},"geometry":{"x":214506.25970000029,"y":2667670.2207999993}},{"attributes":{"OBJECTID":14853,"LANDMARKID":"1001900000531","LANDMARKCO":"308","LANDMARKNA":"台63-台中端-北上","LANDMARKAD":"1001903","ADDRESS":"台中市南區","TEL":" ","COUNTYNAME":"台中市","TOWNNAME":"南區","MARKTYPE":"993","Class":"308"},"geometry":{"x":216459.63289999962,"y":2667398.4942000005}},{"attributes":{"OBJECTID":14854,"LANDMARKID":"1001900000406","LANDMARKCO":"303","LANDMARKNA":"豐富公園停車場","LANDMARKAD":"1001903","ADDRESS":" ","TEL":" ","COUNTYNAME":"台中市","TOWNNAME":"南區","MARKTYPE":"993","Class":"303"},"geometry":{"x":214876.01779999956,"y":2669505.0803999994}},{"attributes":{"OBJECTID":14855,"LANDMARKID":"1001900000407","LANDMARKCO":"303","LANDMARKNA":"富帝大飯店停車場","LANDMARKAD":"1001903","ADDRESS":" ","TEL":"04-23726855","COUNTYNAME":"台中市","TOWNNAME":"南區","MARKTYPE":"993","Class":"303"},"geometry":{"x":215063.73529999983,"y":2669941.5154999997}},{"attributes":{"OBJECTID":14856,"LANDMARKID":"1001900000408","LANDMARKCO":"303","LANDMARKNA":"崇倫公園停車場","LANDMARKAD":"1001903","ADDRESS":" ","TEL":" ","COUNTYNAME":"台中市","TOWNNAME":"南區","MARKTYPE":"993","Class":"303"},"geometry":{"x":215272.39599999972,"y":2669852.9979999997}},{"attributes":{"OBJECTID":14857,"LANDMARKID":"1001900000409","LANDMARKCO":"303","LANDMARKNA":"南平停車場","LANDMARKAD":"1001903","ADDRESS":"台中市美村路二段、南平路交叉口","TEL":" ","COUNTYNAME":"台中市","TOWNNAME":"南區","MARKTYPE":"993","Class":"303"},"geometry":{"x":216024.32600000035,"y":2668778.4635000005}},{"attributes":{"OBJECTID":14858,"LANDMARKID":"1001900000297","LANDMARKCO":"301","LANDMARKNA":"大慶火車站","LANDMARKAD":"1001903","ADDRESS":"台中市南屯區建國路80號(對面)","TEL":" ","COUNTYNAME":"台中市","TOWNNAME":"南區","MARKTYPE":"993","Class":"301"},"geometry":{"x":214228.3861999996,"y":2668240.4916999992}},{"attributes":{"OBJECTID":14859,"LANDMARKID":"1001900000673","LANDMARKCO":"402","LANDMARKNA":"中華電信-工學服務中心","LANDMARKAD":"1001903","ADDRESS":"台中市工學路82號","TEL":"(04) 2261-6751","COUNTYNAME":"台中市","TOWNNAME":"南區","MARKTYPE":"994","Class":"4"},"geometry":{"x":215717.86039999966,"y":2668043.4082999993}},{"attributes":{"OBJECTID":14860,"LANDMARKID":"1001900000674","LANDMARKCO":"402","LANDMARKNA":"中華電信-台中國光特約服務中心","LANDMARKAD":"1001903","ADDRESS":"台中市國光路111號","TEL":"04-22855656","COUNTYNAME":"台中市","TOWNNAME":"南區","MARKTYPE":"994","Class":"4"},"geometry":{"x":217311.76999999955,"y":2669312.1524999999}},{"attributes":{"OBJECTID":14861,"LANDMARKID":"1001900000675","LANDMARKCO":"402","LANDMARKNA":"中華電信-台中大慶特約服務中心","LANDMARKAD":"1001903","ADDRESS":"台中市復興路一段319-20號","TEL":"04-22603737","COUNTYNAME":"台中市","TOWNNAME":"南區","MARKTYPE":"994","Class":"4"},"geometry":{"x":214794.91000000015,"y":2667716.2327999994}},{"attributes":{"OBJECTID":14862,"LANDMARKID":"1001900000676","LANDMARKCO":"402","LANDMARKNA":"遠傳電信-台中後站門市","LANDMARKAD":"1001903","ADDRESS":"台中市南區台中路82號","TEL":" ","COUNTYNAME":"台中市","TOWNNAME":"南區","MARKTYPE":"994","Class":"4"},"geometry":{"x":217795.92300000042,"y":2669860.6059000008}},{"attributes":{"OBJECTID":14863,"LANDMARKID":"1001900000677","LANDMARKCO":"402","LANDMARKNA":"威寶電信-台中美村南特約服務中心","LANDMARKAD":"1001903","ADDRESS":"台中市南區美村南路149號","TEL":"04-22609396","COUNTYNAME":"台中市","TOWNNAME":"南區","MARKTYPE":"994","Class":"4"},"geometry":{"x":216112.33279999997,"y":2667957.6736999992}},{"attributes":{"OBJECTID":14864,"LANDMARKID":"1001900000678","LANDMARKCO":"402","LANDMARKNA":"威寶電信-台中台中特約服務中心","LANDMARKAD":"1001903","ADDRESS":"台中市南區台中路184號","TEL":"04-22858385","COUNTYNAME":"台中市","TOWNNAME":"南區","MARKTYPE":"994","Class":"4"},"geometry":{"x":217955.36180000007,"y":2669494.3278000001}},{"attributes":{"OBJECTID":14865,"LANDMARKID":"1001900000679","LANDMARKCO":"402","LANDMARKNA":"威寶電信-台中復興特約服務中心","LANDMARKAD":"1001903","ADDRESS":"台中市南區復興路一段481號","TEL":"04-22603356","COUNTYNAME":"台中市","TOWNNAME":"南區","MARKTYPE":"994","Class":"4"},"geometry":{"x":215206.81740000006,"y":2668061.5460000001}},{"attributes":{"OBJECTID":14866,"LANDMARKID":"1001900000680","LANDMARKCO":"402","LANDMARKNA":"大眾電信(震旦通訊)-台中建成店","LANDMARKAD":"1001903","ADDRESS":"台中市南區台中路230號","TEL":"04-22870538","COUNTYNAME":"台中市","TOWNNAME":"南區","MARKTYPE":"994","Class":"4"},"geometry":{"x":217956.54849999957,"y":2669411.3303999994}},{"attributes":{"OBJECTID":14867,"LANDMARKID":"1001900001188","LANDMARKCO":"603","LANDMARKNA":"愛之船汽車旅館","LANDMARKAD":"1001903","ADDRESS":"台中市復興路3段109巷1號","TEL":"04-22210788","COUNTYNAME":"台中市","TOWNNAME":"南區","MARKTYPE":"996","Class":"6"},"geometry":{"x":216588.88999999966,"y":2669440.9556000009}},{"attributes":{"OBJECTID":14868,"LANDMARKID":"1001900001189","LANDMARKCO":"603","LANDMARKNA":"鳳城大飯店","LANDMARKAD":"1001903","ADDRESS":"台中市復興路3段372號","TEL":"04-22265188","COUNTYNAME":"台中市","TOWNNAME":"南區","MARKTYPE":"996","Class":"6"},"geometry":{"x":217719.22180000041,"y":2669909.5789000001}},{"attributes":{"OBJECTID":14869,"LANDMARKID":"1001900001190","LANDMARKCO":"603","LANDMARKNA":"全一大飯店","LANDMARKAD":"1001903","ADDRESS":"台中市復興路2段74-18號","TEL":"04-22618618","COUNTYNAME":"台中市","TOWNNAME":"南區","MARKTYPE":"996","Class":"6"},"geometry":{"x":215623.30020000041,"y":2668501.8227999993}},{"attributes":{"OBJECTID":14870,"LANDMARKID":"1001900001191","LANDMARKCO":"603","LANDMARKNA":"黎閣旅館","LANDMARKAD":"1001903","ADDRESS":"台中市忠孝路150號","TEL":"04-22851373","COUNTYNAME":"台中市","TOWNNAME":"南區","MARKTYPE":"996","Class":"6"},"geometry":{"x":217699.57120000012,"y":2669400.3907999992}},{"attributes":{"OBJECTID":14871,"LANDMARKID":"1001900001192","LANDMARKCO":"603","LANDMARKNA":"富帝大飯店","LANDMARKAD":"1001903","ADDRESS":"台中市南屯路1段279號","TEL":"04-23726855","COUNTYNAME":"台中市","TOWNNAME":"南區","MARKTYPE":"996","Class":"6"},"geometry":{"x":215051.75069999974,"y":2669934.1556000002}},{"attributes":{"OBJECTID":14872,"LANDMARKID":"1001900001193","LANDMARKCO":"603","LANDMARKNA":"愛萊汽車旅館","LANDMARKAD":"1001903","ADDRESS":"台中市復興路2段155號","TEL":"04-22618555","COUNTYNAME":"台中市","TOWNNAME":"南區","MARKTYPE":"996","Class":"6"},"geometry":{"x":215980.51580000017,"y":2669110.3527000006}},{"attributes":{"OBJECTID":14873,"LANDMARKID":"1001900001194","LANDMARKCO":"603","LANDMARKNA":"春天國際汽車旅館","LANDMARKAD":"1001903","ADDRESS":"台中市德祥街86號","TEL":"04-22638866","COUNTYNAME":"台中市","TOWNNAME":"南區","MARKTYPE":"996","Class":"6"},"geometry":{"x":214653.9012000002,"y":2668335.5821000002}},{"attributes":{"OBJECTID":14874,"LANDMARKID":"1001900001195","LANDMARKCO":"603","LANDMARKNA":"富比多賓館","LANDMARKAD":"1001903","ADDRESS":"台中市正義街41號","TEL":"04-22203145","COUNTYNAME":"台中市","TOWNNAME":"南區","MARKTYPE":"996","Class":"6"},"geometry":{"x":217365.49660000019,"y":2669739.2741}},{"attributes":{"OBJECTID":14875,"LANDMARKID":"1001900001027","LANDMARKCO":"511","LANDMARKNA":"忠孝路夜市","LANDMARKAD":"1001903","ADDRESS":"台中市南區","TEL":" ","COUNTYNAME":"台中市","TOWNNAME":"南區","MARKTYPE":"995","Class":"5"},"geometry":{"x":217540.73940000031,"y":2669355.1956999991}},{"attributes":{"OBJECTID":14876,"LANDMARKID":"1001300000992","LANDMARKCO":"405","LANDMARKNA":"中油加油站-志明站","LANDMARKAD":"1001311","ADDRESS":"屏東縣高樹鄉鹽樹村新豐路69號","TEL":"08-7966745","COUNTYNAME":"屏東縣","TOWNNAME":"高樹鄉","MARKTYPE":"994","Class":"4"},"geometry":{"x":205826.03000000026,"y":2521521.5734999999}},{"attributes":{"OBJECTID":14877,"LANDMARKID":"1001300000993","LANDMARKCO":"405","LANDMARKNA":"中油加油站-旺旺站","LANDMARKAD":"1001311","ADDRESS":"屏東縣高樹鄉高樹村興中路355-1號","TEL":"08-7965596","COUNTYNAME":"屏東縣","TOWNNAME":"高樹鄉","MARKTYPE":"994","Class":"4"},"geometry":{"x":209002.38750000019,"y":2525431.6942999996}},{"attributes":{"OBJECTID":14878,"LANDMARKID":"1001300000994","LANDMARKCO":"405","LANDMARKNA":"中油加油站-泰山站","LANDMARKAD":"1001311","ADDRESS":"屏東縣高樹鄉泰山村產業路7號","TEL":"08-7957871","COUNTYNAME":"屏東縣","TOWNNAME":"高樹鄉","MARKTYPE":"994","Class":"4"},"geometry":{"x":210456.45760000031,"y":2520481.6889999993}},{"attributes":{"OBJECTID":14879,"LANDMARKID":"1001300000995","LANDMARKCO":"405","LANDMARKNA":"中油加油站-高樹站","LANDMARKAD":"1001311","ADDRESS":"屏東縣高樹鄉長榮村興中路170號","TEL":"08-7962205","COUNTYNAME":"屏東縣","TOWNNAME":"高樹鄉","MARKTYPE":"994","Class":"4"},"geometry":{"x":208856.66309999954,"y":2524712.0660999995}},{"attributes":{"OBJECTID":14880,"LANDMARKID":"1001300000816","LANDMARKCO":"401","LANDMARKNA":"聖恩內科醫院","LANDMARKAD":"1001311","ADDRESS":"屏東縣高樹鄉田子村勝利路132號","TEL":"08-7961072","COUNTYNAME":"屏東縣","TOWNNAME":"高樹鄉","MARKTYPE":"994","Class":"4"},"geometry":{"x":206770.29920000024,"y":2522752.3351000007}},{"attributes":{"OBJECTID":14881,"LANDMARKID":"1001300000817","LANDMARKCO":"401","LANDMARKNA":"同慶醫院","LANDMARKAD":"1001311","ADDRESS":"屏東縣高樹鄉長榮村興中路208號","TEL":"08-7960833","COUNTYNAME":"屏東縣","TOWNNAME":"高樹鄉","MARKTYPE":"994","Class":"4"},"geometry":{"x":208905.51530000009,"y":2524832.6816000007}},{"attributes":{"OBJECTID":14882,"LANDMARKID":"1001300001238","LANDMARKCO":"506","LANDMARKNA":"觀光果園","LANDMARKAD":"1001311","ADDRESS":"屏東縣高樹鄉","TEL":" ","COUNTYNAME":"屏東縣","TOWNNAME":"高樹鄉","MARKTYPE":"995","Class":"5"},"geometry":{"x":211282.18890000042,"y":2529370.1498000007}},{"attributes":{"OBJECTID":14883,"LANDMARKID":"1001300001116","LANDMARKCO":"408","LANDMARKNA":"郵局-高樹郵局","LANDMARKAD":"1001311","ADDRESS":"屏東縣高樹鄉高樹村興中路327號","TEL":"(08)7962-054","COUNTYNAME":"屏東縣","TOWNNAME":"高樹鄉","MARKTYPE":"994","Class":"4"},"geometry":{"x":208950.56309999991,"y":2525122.0299999993}},{"attributes":{"OBJECTID":14884,"LANDMARKID":"1001300001178","LANDMARKCO":"409","LANDMARKNA":"高樹鄉農會","LANDMARKAD":"1001311","ADDRESS":"屏東縣高樹鄉高樹村南興路143號","TEL":"08-7960815","COUNTYNAME":"屏東縣","TOWNNAME":"高樹鄉","MARKTYPE":"994","Class":"4"},"geometry":{"x":209074.40809999965,"y":2524872.3671000004}},{"attributes":{"OBJECTID":14885,"LANDMARKID":"1001300000895","LANDMARKCO":"404","LANDMARKNA":"台灣自來水高樹營運所","LANDMARKAD":"1001311","ADDRESS":"屏東縣高樹鄉華光路89號","TEL":"08-7962041","COUNTYNAME":"屏東縣","TOWNNAME":"高樹鄉","MARKTYPE":"994","Class":"4"},"geometry":{"x":208671.65600000042,"y":2525021.5715999994}},{"attributes":{"OBJECTID":14886,"LANDMARKID":"1001300000896","LANDMARKCO":"404","LANDMARKNA":"台灣省自來水高樹營運所","LANDMARKAD":"1001311","ADDRESS":"屏東縣高樹鄉華光路89號","TEL":" ","COUNTYNAME":"屏東縣","TOWNNAME":"高樹鄉","MARKTYPE":"994","Class":"4"},"geometry":{"x":208637.85020000022,"y":2525017.7453000005}},{"attributes":{"OBJECTID":14887,"LANDMARKID":"1001300000128","LANDMARKCO":"106","LANDMARKNA":"屏東縣高樹鄉戶政事務所","LANDMARKAD":"1001311","ADDRESS":"屏東縣高樹鄉高樹村16鄰興中路334號","TEL":"08-7962485","COUNTYNAME":"屏東縣","TOWNNAME":"高樹鄉","MARKTYPE":"991","Class":"1"},"geometry":{"x":209010.31170000043,"y":2525151.6917000003}},{"attributes":{"OBJECTID":14888,"LANDMARKID":"1001300000296","LANDMARKCO":"107","LANDMARKNA":"屏東縣消防局高樹消防分隊","LANDMARKAD":"1001311","ADDRESS":"屏東縣高樹鄉興中路336號","TEL":"08-7962134","COUNTYNAME":"屏東縣","TOWNNAME":"高樹鄉","MARKTYPE":"991","Class":"1"},"geometry":{"x":209010.25760000013,"y":2525171.6916000005}},{"attributes":{"OBJECTID":14889,"LANDMARKID":"1001300000297","LANDMARKCO":"107","LANDMARKNA":"屏東縣警察局泰山派出所","LANDMARKAD":"1001311","ADDRESS":"屏東縣高樹鄉泰山村山下路71號","TEL":"08-7956334","COUNTYNAME":"屏東縣","TOWNNAME":"高樹鄉","MARKTYPE":"991","Class":"1"},"geometry":{"x":210535.53880000021,"y":2520761.9734000005}},{"attributes":{"OBJECTID":14890,"LANDMARKID":"1001300000298","LANDMARKCO":"107","LANDMARKNA":"屏東縣警察局高樹分駐所","LANDMARKAD":"1001311","ADDRESS":"屏東縣高樹鄉高樹村興中路334號","TEL":"08-7962021","COUNTYNAME":"屏東縣","TOWNNAME":"高樹鄉","MARKTYPE":"991","Class":"1"},"geometry":{"x":209010.31170000043,"y":2525151.6917000003}},{"attributes":{"OBJECTID":14891,"LANDMARKID":"1001300000299","LANDMARKCO":"107","LANDMARKNA":"屏東縣警察局舊寮派出所","LANDMARKAD":"1001311","ADDRESS":"屏東縣高樹鄉司馬村長美路25號","TEL":"08-7916063","COUNTYNAME":"屏東縣","TOWNNAME":"高樹鄉","MARKTYPE":"991","Class":"1"},"geometry":{"x":209877.77300000004,"y":2527451.7027000003}},{"attributes":{"OBJECTID":14892,"LANDMARKID":"1001300000099","LANDMARKCO":"103","LANDMARKNA":"屏東縣高樹鄉衛生所","LANDMARKAD":"1001311","ADDRESS":"屏東縣高樹鄉長榮村南昌路12-2號","TEL":"08-7962026","COUNTYNAME":"屏東縣","TOWNNAME":"高樹鄉","MARKTYPE":"991","Class":"1"},"geometry":{"x":208354.69720000029,"y":2524082.2523999996}},{"attributes":{"OBJECTID":14893,"LANDMARKID":"1001300000100","LANDMARKCO":"103","LANDMARKNA":"屏東縣高樹鄉鄉民代表會","LANDMARKAD":"1001311","ADDRESS":"屏東縣高樹鄉興中路325號","TEL":"08-7967685","COUNTYNAME":"屏東縣","TOWNNAME":"高樹鄉","MARKTYPE":"991","Class":"1"},"geometry":{"x":208959.41970000044,"y":2525111.5539999995}},{"attributes":{"OBJECTID":14894,"LANDMARKID":"1001300000306","LANDMARKCO":"108","LANDMARKNA":"屏東縣高樹鄉公所","LANDMARKAD":"1001311","ADDRESS":"屏東縣高樹鄉興中路330號","TEL":"08-7962610","COUNTYNAME":"屏東縣","TOWNNAME":"高樹鄉","MARKTYPE":"991","Class":"1"},"geometry":{"x":209016.41980000027,"y":2525111.7082000002}},{"attributes":{"OBJECTID":14895,"LANDMARKID":"1001300000001","LANDMARKCO":"101","LANDMARKNA":"高樹鄉火葬場","LANDMARKAD":"1001311","ADDRESS":"屏東縣高樹鄉興中路329號","TEL":"08-7962610","COUNTYNAME":"屏東縣","TOWNNAME":"高樹鄉","MARKTYPE":"991","Class":"1"},"geometry":{"x":208978.33860000037,"y":2525141.6052000001}},{"attributes":{"OBJECTID":14896,"LANDMARKID":"1001300000302","LANDMARKCO":"107","LANDMARKNA":"屏東縣警察局新南派出所","LANDMARKAD":"1001311","ADDRESS":"屏東縣高樹鄉新南村新店路8號","TEL":"08-7962584","COUNTYNAME":"屏東縣","TOWNNAME":"高樹鄉","MARKTYPE":"991","Class":"1"},"geometry":{"x":204962.43099999987,"y":2520550.0835999995}},{"attributes":{"OBJECTID":14897,"LANDMARKID":"1001300000639","LANDMARKCO":"204","LANDMARKNA":"屏東縣立圖書館高樹中正分館","LANDMARKAD":"1001311","ADDRESS":"屏東縣高樹鄉興中路328號","TEL":" ","COUNTYNAME":"屏東縣","TOWNNAME":"高樹鄉","MARKTYPE":"992","Class":"2"},"geometry":{"x":209028.3861999996,"y":2525076.8428000007}},{"attributes":{"OBJECTID":14898,"LANDMARKID":"1001300000603","LANDMARKCO":"203","LANDMARKNA":"縣立高樹國中","LANDMARKAD":"1001311","ADDRESS":"屏東縣高樹鄉高樹村南興路4號","TEL":"08-7962034","COUNTYNAME":"屏東縣","TOWNNAME":"高樹鄉","MARKTYPE":"992","Class":"2"},"geometry":{"x":209402.76159999985,"y":2524061.9846000001}},{"attributes":{"OBJECTID":14899,"LANDMARKID":"1001300000604","LANDMARKCO":"203","LANDMARKNA":"縣立高泰國中","LANDMARKAD":"1001311","ADDRESS":"屏東縣高樹鄉泰山村產業路225號","TEL":"08-7956073","COUNTYNAME":"屏東縣","TOWNNAME":"高樹鄉","MARKTYPE":"992","Class":"2"},"geometry":{"x":210070.06969999988,"y":2521242.2543000001}},{"attributes":{"OBJECTID":14900,"LANDMARKID":"1001300000605","LANDMARKCO":"203","LANDMARKNA":"縣立關福國小","LANDMARKAD":"1001311","ADDRESS":"屏東縣高樹鄉廣福村中央路60號","TEL":"08-7956844","COUNTYNAME":"屏東縣","TOWNNAME":"高樹鄉","MARKTYPE":"992","Class":"2"},"geometry":{"x":210689.78029999975,"y":2518201.648}},{"attributes":{"OBJECTID":14901,"LANDMARKID":"1001300000606","LANDMARKCO":"203","LANDMARKNA":"縣立田子國小","LANDMARKAD":"1001311","ADDRESS":"屏東縣高樹鄉鹽樹村公平路19號","TEL":"08-7962714","COUNTYNAME":"屏東縣","TOWNNAME":"高樹鄉","MARKTYPE":"992","Class":"2"},"geometry":{"x":206612.40799999982,"y":2522632.2052999996}},{"attributes":{"OBJECTID":14902,"LANDMARKID":"1001300000607","LANDMARKCO":"203","LANDMARKNA":"縣立南華國小","LANDMARKAD":"1001311","ADDRESS":"屏東縣高樹鄉南華村世一路1號","TEL":"08-7956544","COUNTYNAME":"屏東縣","TOWNNAME":"高樹鄉","MARKTYPE":"992","Class":"2"},"geometry":{"x":208715.40950000007,"y":2519561.7069000006}},{"attributes":{"OBJECTID":14903,"LANDMARKID":"1001300000608","LANDMARKCO":"203","LANDMARKNA":"縣立舊寮國小","LANDMARKAD":"1001311","ADDRESS":"屏東縣高樹鄉舊寮村長美路42號","TEL":"08-7962994","COUNTYNAME":"屏東縣","TOWNNAME":"高樹鄉","MARKTYPE":"992","Class":"2"},"geometry":{"x":209982.45540000033,"y":2527571.9796999991}},{"attributes":{"OBJECTID":14904,"LANDMARKID":"1001300000609","LANDMARKCO":"203","LANDMARKNA":"縣立新豐國小","LANDMARKAD":"1001311","ADDRESS":"屏東縣高樹鄉新豐村泰和路26號","TEL":"08-7916486","COUNTYNAME":"屏東縣","TOWNNAME":"高樹鄉","MARKTYPE":"992","Class":"2"},"geometry":{"x":212470.29870000016,"y":2529201.7474000007}},{"attributes":{"OBJECTID":14905,"LANDMARKID":"1001300000610","LANDMARKCO":"203","LANDMARKNA":"縣立泰山國小","LANDMARKAD":"1001311","ADDRESS":"屏東縣高樹鄉泰山村產業路84號","TEL":"08-7956274","COUNTYNAME":"屏東縣","TOWNNAME":"高樹鄉","MARKTYPE":"992","Class":"2"},"geometry":{"x":210391.26240000036,"y":2520861.5977999996}},{"attributes":{"OBJECTID":14906,"LANDMARKID":"1001300000611","LANDMARKCO":"203","LANDMARKNA":"縣立高樹國小","LANDMARKAD":"1001311","ADDRESS":"屏東縣高樹鄉高樹村華光路32號","TEL":"08-7960802","COUNTYNAME":"屏東縣","TOWNNAME":"高樹鄉","MARKTYPE":"992","Class":"2"},"geometry":{"x":208855.47369999997,"y":2525092.0471000001}},{"attributes":{"OBJECTID":14907,"LANDMARKID":"1001300000612","LANDMARKCO":"203","LANDMARKNA":"縣立新南國小","LANDMARKAD":"1001311","ADDRESS":"屏東縣高樹鄉新南村興店路5號","TEL":"08-7962782","COUNTYNAME":"屏東縣","TOWNNAME":"高樹鄉","MARKTYPE":"992","Class":"2"},"geometry":{"x":204764.95019999985,"y":2520611.8455999997}},{"attributes":{"OBJECTID":14908,"LANDMARKID":"1001300000613","LANDMARKCO":"203","LANDMARKNA":"縣立廣興國小","LANDMARKAD":"1001311","ADDRESS":"屏東縣高樹鄉廣興村中正28號","TEL":"08-7957412","COUNTYNAME":"屏東縣","TOWNNAME":"高樹鄉","MARKTYPE":"992","Class":"2"},"geometry":{"x":211018.82050000038,"y":2515490.2772000004}},{"attributes":{"OBJECTID":14909,"LANDMARKID":"1001300000614","LANDMARKCO":"203","LANDMARKNA":"縣立田子國小田子分班","LANDMARKAD":"1001311","ADDRESS":"屏東縣高樹鄉","TEL":" ","COUNTYNAME":"屏東縣","TOWNNAME":"高樹鄉","MARKTYPE":"992","Class":"2"},"geometry":{"x":204644.95390000008,"y":2522220.8258999996}},{"attributes":{"OBJECTID":14910,"LANDMARKID":"1001300000752","LANDMARKCO":"303","LANDMARKNA":"津山觀光休閒農園停車場","LANDMARKAD":"1001311","ADDRESS":"屏東縣高樹鄉和興路24號","TEL":"08-7916573","COUNTYNAME":"屏東縣","TOWNNAME":"高樹鄉","MARKTYPE":"993","Class":"303"},"geometry":{"x":213058.64890000038,"y":2528644.2026000004}},{"attributes":{"OBJECTID":14911,"LANDMARKID":"1001300000753","LANDMARKCO":"303","LANDMARKNA":"台九楓港段六O三號地下停車場","LANDMARKAD":"1001311","ADDRESS":"屏東縣坊山鄉","TEL":" ","COUNTYNAME":"屏東縣","TOWNNAME":"高樹鄉","MARKTYPE":"993","Class":"303"},"geometry":{"x":211703.02190000005,"y":2529433.5419999994}},{"attributes":{"OBJECTID":14912,"LANDMARKID":"1001300000754","LANDMARKCO":"303","LANDMARKNA":"高樹相立體圖書館地下停車場","LANDMARKAD":"1001311","ADDRESS":"屏東縣高樹鄉興中路","TEL":" ","COUNTYNAME":"屏東縣","TOWNNAME":"高樹鄉","MARKTYPE":"993","Class":"303"},"geometry":{"x":209285.15859999973,"y":2526364.6301000006}},{"attributes":{"OBJECTID":14913,"LANDMARKID":"1001300000881","LANDMARKCO":"402","LANDMARKNA":"中華電信-高樹服務中心","LANDMARKAD":"1001311","ADDRESS":"屏東縣高樹鄉興中路327-1號","TEL":"(08)744-7004","COUNTYNAME":"屏東縣","TOWNNAME":"高樹鄉","MARKTYPE":"994","Class":"4"},"geometry":{"x":208929.59009999968,"y":2525112.7480999995}},{"attributes":{"OBJECTID":14914,"LANDMARKID":"1001300001357","LANDMARKCO":"603","LANDMARKNA":"南華旅社","LANDMARKAD":"1001311","ADDRESS":"屏東縣高樹鄉南華村世一路69號","TEL":"08-7956982","COUNTYNAME":"屏東縣","TOWNNAME":"高樹鄉","MARKTYPE":"996","Class":"6"},"geometry":{"x":208295.71520000044,"y":2519222.6264999993}},{"attributes":{"OBJECTID":14915,"LANDMARKID":"1001300001358","LANDMARKCO":"603","LANDMARKNA":"菁惠旅社","LANDMARKAD":"1001311","ADDRESS":"屏東縣高樹鄉南華村世一路77號1-2樓","TEL":"08-7957578","COUNTYNAME":"屏東縣","TOWNNAME":"高樹鄉","MARKTYPE":"996","Class":"6"},"geometry":{"x":208312.71520000044,"y":2519222.6731000002}},{"attributes":{"OBJECTID":14916,"LANDMARKID":"1001300001359","LANDMARKCO":"603","LANDMARKNA":"高新旅社","LANDMARKAD":"1001311","ADDRESS":"屏東縣高樹鄉泰山村產業路94號","TEL":"08-7956103","COUNTYNAME":"屏東縣","TOWNNAME":"高樹鄉","MARKTYPE":"996","Class":"6"},"geometry":{"x":210360.31790000014,"y":2520912.0171000008}},{"attributes":{"OBJECTID":14917,"LANDMARKID":"1001300001360","LANDMARKCO":"603","LANDMARKNA":"天山渡假大飯店","LANDMARKAD":"1001311","ADDRESS":"屏東縣高樹鄉新豐村和興路55號","TEL":"08-7916625","COUNTYNAME":"屏東縣","TOWNNAME":"高樹鄉","MARKTYPE":"996","Class":"6"},"geometry":{"x":213112.51020000037,"y":2528842.4213999994}},{"attributes":{"OBJECTID":14918,"LANDMARKID":"1001300001272","LANDMARKCO":"510","LANDMARKNA":"台鳳高爾夫球場","LANDMARKAD":"1001311","ADDRESS":"屏東縣高樹鄉中正路190號","TEL":"08-7957713","COUNTYNAME":"屏東縣","TOWNNAME":"高樹鄉","MARKTYPE":"995","Class":"5"},"geometry":{"x":212135.61050000042,"y":2514635.4394000005}},{"attributes":{"OBJECTID":14919,"LANDMARKID":"1001300000996","LANDMARKCO":"405","LANDMARKNA":"中油加油站-載興站","LANDMARKAD":"1001309","ADDRESS":"屏東縣里港鄉載興村載南路40號","TEL":"08-7756538","COUNTYNAME":"屏東縣","TOWNNAME":"里港鄉","MARKTYPE":"994","Class":"4"},"geometry":{"x":201739.11039999966,"y":2519922.2074999996}},{"attributes":{"OBJECTID":14920,"LANDMARKID":"1001300000997","LANDMARKCO":"405","LANDMARKNA":"台糖加油站-土庫站(中油)","LANDMARKAD":"1001309","ADDRESS":"屏東縣里港鄉土庫村北安路1-36號","TEL":" ","COUNTYNAME":"屏東縣","TOWNNAME":"里港鄉","MARKTYPE":"994","Class":"4"},"geometry":{"x":199343.63470000029,"y":2524653.6229999997}},{"attributes":{"OBJECTID":14921,"LANDMARKID":"1001300000998","LANDMARKCO":"405","LANDMARKNA":"中油加油站-日日春站","LANDMARKAD":"1001309","ADDRESS":"屏東縣里港鄉中山南路8號","TEL":"08-7722355","COUNTYNAME":"屏東縣","TOWNNAME":"里港鄉","MARKTYPE":"994","Class":"4"},"geometry":{"x":198012.67459999956,"y":2518712.7544999998}},{"attributes":{"OBJECTID":14922,"LANDMARKID":"1001300000999","LANDMARKCO":"405","LANDMARKNA":"中油加油站-里港站(中油直營)","LANDMARKAD":"1001309","ADDRESS":"屏東縣里港鄉大平村中山南路25號","TEL":"08-7752054","COUNTYNAME":"屏東縣","TOWNNAME":"里港鄉","MARKTYPE":"994","Class":"4"},"geometry":{"x":198006.57940000016,"y":2519132.2039999999}},{"attributes":{"OBJECTID":14923,"LANDMARKID":"1001300000884","LANDMARKCO":"402","LANDMARKNA":"亞太行動寬頻電信-屏東里港加盟服務中心","LANDMARKAD":"1001309","ADDRESS":"屏東縣里港鄉里港路1號(1023)","TEL":"08-7755211","COUNTYNAME":"屏東縣","TOWNNAME":"里港鄉","MARKTYPE":"994","Class":"4"},"geometry":{"x":198120.81269999966,"y":2519512.1144999992}},{"attributes":{"OBJECTID":14924,"LANDMARKID":"1001300001113","LANDMARKCO":"408","LANDMARKNA":"郵局-里港郵局","LANDMARKAD":"1001309","ADDRESS":"屏東縣里港鄉春林村中山南路40號","TEL":"(08)7752-057","COUNTYNAME":"屏東縣","TOWNNAME":"里港鄉","MARKTYPE":"994","Class":"4"},"geometry":{"x":198078.85539999977,"y":2519192.9551999997}},{"attributes":{"OBJECTID":14925,"LANDMARKID":"1001300001114","LANDMARKCO":"408","LANDMARKNA":"郵局-里港三和路郵局","LANDMARKAD":"1001309","ADDRESS":"屏東縣里港鄉三廓村三和路127-1號","TEL":"(08)7732-163","COUNTYNAME":"屏東縣","TOWNNAME":"里港鄉","MARKTYPE":"994","Class":"4"},"geometry":{"x":198961.40600000042,"y":2523322.0238000005}},{"attributes":{"OBJECTID":14926,"LANDMARKID":"1001300001179","LANDMARKCO":"409","LANDMARKNA":"屏東縣里港鄉農會","LANDMARKAD":"1001309","ADDRESS":"屏東縣里港鄉春林村中山路24號","TEL":"08-7752111","COUNTYNAME":"屏東縣","TOWNNAME":"里港鄉","MARKTYPE":"994","Class":"4"},"geometry":{"x":198204.79669999983,"y":2519661.5803999994}},{"attributes":{"OBJECTID":14927,"LANDMARKID":"1001300001000","LANDMARKCO":"405","LANDMARKNA":"台塑加油站-明宜潭站(台塑)","LANDMARKAD":"1001309","ADDRESS":"屏東縣里港鄉里嶺路96號","TEL":"08-7722488","COUNTYNAME":"屏東縣","TOWNNAME":"里港鄉","MARKTYPE":"994","Class":"4"},"geometry":{"x":197367.94259999972,"y":2519021.9824000001}},{"attributes":{"OBJECTID":14928,"LANDMARKID":"1001300001001","LANDMARKCO":"405","LANDMARKNA":"台亞加油站-里港站（台塑）","LANDMARKAD":"1001309","ADDRESS":"屏東縣里港鄉塔樓路1-52號","TEL":"(08)772-1616","COUNTYNAME":"屏東縣","TOWNNAME":"里港鄉","MARKTYPE":"994","Class":"4"},"geometry":{"x":197925.69159999955,"y":2518481.9260000009}},{"attributes":{"OBJECTID":14929,"LANDMARKID":"1001300000303","LANDMARKCO":"107","LANDMARKNA":"屏東縣警察局里港分局","LANDMARKAD":"1001309","ADDRESS":"屏東縣里港鄉永春村永豐路一段3號","TEL":"08-7752040","COUNTYNAME":"屏東縣","TOWNNAME":"里港鄉","MARKTYPE":"991","Class":"1"},"geometry":{"x":198313.26549999975,"y":2519980.7704000007}},{"attributes":{"OBJECTID":14930,"LANDMARKID":"1001300000304","LANDMARKCO":"107","LANDMARKNA":"屏東縣警察局三和派出所","LANDMARKAD":"1001309","ADDRESS":"屏東縣里港鄉土庫村土庫路74號","TEL":"08-7731145","COUNTYNAME":"屏東縣","TOWNNAME":"里港鄉","MARKTYPE":"991","Class":"1"},"geometry":{"x":199387.92239999957,"y":2524090.4857999999}},{"attributes":{"OBJECTID":14931,"LANDMARKID":"1001300000126","LANDMARKCO":"105","LANDMARKNA":"屏東縣里港地政事務所","LANDMARKAD":"1001309","ADDRESS":"屏東縣里港鄉永豐路一段5號","TEL":"08-7752007","COUNTYNAME":"屏東縣","TOWNNAME":"里港鄉","MARKTYPE":"991","Class":"1"},"geometry":{"x":198234.87229999993,"y":2519972.0034999996}},{"attributes":{"OBJECTID":14932,"LANDMARKID":"1001300000127","LANDMARKCO":"106","LANDMARKNA":"屏東縣里港鄉戶政事務所","LANDMARKAD":"1001309","ADDRESS":"屏東縣里港鄉大平村17鄰中山路105號","TEL":"08-7751209","COUNTYNAME":"屏東縣","TOWNNAME":"里港鄉","MARKTYPE":"991","Class":"1"},"geometry":{"x":198057.83779999986,"y":2519982.3764999993}},{"attributes":{"OBJECTID":14933,"LANDMARKID":"1001300000300","LANDMARKCO":"107","LANDMARKNA":"屏東縣消防局里港消防分隊","LANDMARKAD":"1001309","ADDRESS":"屏東縣里港鄉信義路2號","TEL":"08-7752564","COUNTYNAME":"屏東縣","TOWNNAME":"里港鄉","MARKTYPE":"991","Class":"1"},"geometry":{"x":198035.07710000034,"y":2519912.2986999992}},{"attributes":{"OBJECTID":14934,"LANDMARKID":"1001300000301","LANDMARKCO":"107","LANDMARKNA":"屏東縣警察局大平派出所","LANDMARKAD":"1001309","ADDRESS":"屏東縣里港鄉大平村中山路103號","TEL":"08-7752034","COUNTYNAME":"屏東縣","TOWNNAME":"里港鄉","MARKTYPE":"991","Class":"1"},"geometry":{"x":198061.97449999955,"y":2519942.3906999994}},{"attributes":{"OBJECTID":14935,"LANDMARKID":"1001300000097","LANDMARKCO":"103","LANDMARKNA":"屏東縣里港鄉衛生所","LANDMARKAD":"1001309","ADDRESS":"屏東縣里港鄉大平村中山路103-1號","TEL":"08-7751711","COUNTYNAME":"屏東縣","TOWNNAME":"里港鄉","MARKTYPE":"991","Class":"1"},"geometry":{"x":198060.04289999977,"y":2519922.3839999996}},{"attributes":{"OBJECTID":14936,"LANDMARKID":"1001300000305","LANDMARKCO":"108","LANDMARKNA":"屏東縣里港鄉公所","LANDMARKAD":"1001309","ADDRESS":"屏東縣里港鄉永春村中山路104號","TEL":"08-7752114","COUNTYNAME":"屏東縣","TOWNNAME":"里港鄉","MARKTYPE":"991","Class":"1"},"geometry":{"x":198099.04279999994,"y":2519921.5402000006}},{"attributes":{"OBJECTID":14937,"LANDMARKID":"1001300000098","LANDMARKCO":"103","LANDMARKNA":"屏東縣里港鄉鄉民代表會","LANDMARKAD":"1001309","ADDRESS":"屏東縣里港鄉過江路43號之2","TEL":"08-7752396","COUNTYNAME":"屏東縣","TOWNNAME":"里港鄉","MARKTYPE":"991","Class":"1"},"geometry":{"x":198029.52979999967,"y":2520072.2796999998}},{"attributes":{"OBJECTID":14938,"LANDMARKID":"1001300000638","LANDMARKCO":"204","LANDMARKNA":"屏東縣立圖書館里港分館","LANDMARKAD":"1001309","ADDRESS":"屏東縣里港鄉過江村4之1號","TEL":" ","COUNTYNAME":"屏東縣","TOWNNAME":"里港鄉","MARKTYPE":"992","Class":"2"},"geometry":{"x":197814.59559999965,"y":2520125.7271999996}},{"attributes":{"OBJECTID":14939,"LANDMARKID":"1001300000615","LANDMARKCO":"203","LANDMARKNA":"縣立載興國小","LANDMARKAD":"1001309","ADDRESS":"屏東縣里港鄉載興村載興路1之3號","TEL":"08-7752271","COUNTYNAME":"屏東縣","TOWNNAME":"里港鄉","MARKTYPE":"992","Class":"2"},"geometry":{"x":201149.85429999977,"y":2519800.6778999995}},{"attributes":{"OBJECTID":14940,"LANDMARKID":"1001300000616","LANDMARKCO":"203","LANDMARKNA":"縣立里港國中","LANDMARKAD":"1001309","ADDRESS":"屏東縣里港鄉春林村里中路10號","TEL":"08-7752029","COUNTYNAME":"屏東縣","TOWNNAME":"里港鄉","MARKTYPE":"992","Class":"2"},"geometry":{"x":198333.86330000032,"y":2519052.3508000001}},{"attributes":{"OBJECTID":14941,"LANDMARKID":"1001300000617","LANDMARKCO":"203","LANDMARKNA":"縣立三和國小","LANDMARKAD":"1001309","ADDRESS":"屏東縣里港鄉土庫路111之3號","TEL":"08-7731198","COUNTYNAME":"屏東縣","TOWNNAME":"里港鄉","MARKTYPE":"992","Class":"2"},"geometry":{"x":199328.41700000037,"y":2524441.7837000005}},{"attributes":{"OBJECTID":14942,"LANDMARKID":"1001300000618","LANDMARKCO":"203","LANDMARKNA":"縣立土庫國小","LANDMARKAD":"1001309","ADDRESS":"屏東縣里港鄉中和村中和路33號","TEL":"08-7731553","COUNTYNAME":"屏東縣","TOWNNAME":"里港鄉","MARKTYPE":"992","Class":"2"},"geometry":{"x":197864.80370000005,"y":2523071.6793000009}},{"attributes":{"OBJECTID":14943,"LANDMARKID":"1001300000619","LANDMARKCO":"203","LANDMARKNA":"縣立塔樓國小","LANDMARKAD":"1001309","ADDRESS":"屏東縣里港鄉塔樓村塔樓路21之3號","TEL":"08-7756625","COUNTYNAME":"屏東縣","TOWNNAME":"里港鄉","MARKTYPE":"992","Class":"2"},"geometry":{"x":196988.95120000001,"y":2518401.6670999993}},{"attributes":{"OBJECTID":14944,"LANDMARKID":"1001300000620","LANDMARKCO":"203","LANDMARKNA":"縣立里港國小","LANDMARKAD":"1001309","ADDRESS":"屏東縣里港鄉過江路41號","TEL":"08-7752161","COUNTYNAME":"屏東縣","TOWNNAME":"里港鄉","MARKTYPE":"992","Class":"2"},"geometry":{"x":198100.51279999968,"y":2520091.5416000001}},{"attributes":{"OBJECTID":14945,"LANDMARKID":"1001300000621","LANDMARKCO":"203","LANDMARKNA":"縣立玉田國小","LANDMARKAD":"1001309","ADDRESS":"屏東縣里港鄉八德路91號","TEL":"08-7752816","COUNTYNAME":"屏東縣","TOWNNAME":"里港鄉","MARKTYPE":"992","Class":"2"},"geometry":{"x":197754.76939999964,"y":2519382.3269999996}},{"attributes":{"OBJECTID":14946,"LANDMARKID":"1001300000622","LANDMARKCO":"203","LANDMARKNA":"縣立信國國小","LANDMARKAD":"1001309","ADDRESS":"屏東縣里港鄉土庫村信國路74號","TEL":"08-7731773","COUNTYNAME":"屏東縣","TOWNNAME":"里港鄉","MARKTYPE":"992","Class":"2"},"geometry":{"x":202002.33079999965,"y":2525500.6018000003}},{"attributes":{"OBJECTID":14947,"LANDMARKID":"1001300000712","LANDMARKCO":"302","LANDMARKNA":"屏東汽車客運里港站","LANDMARKAD":"1001309","ADDRESS":"屏東縣里港鄉中山路17號","TEL":" ","COUNTYNAME":"屏東縣","TOWNNAME":"里港鄉","MARKTYPE":"993","Class":"302"},"geometry":{"x":198058.9439000003,"y":2519377.1918000001}},{"attributes":{"OBJECTID":14948,"LANDMARKID":"1001300000882","LANDMARKCO":"402","LANDMARKNA":"中華電信-里港服務中心","LANDMARKAD":"1001309","ADDRESS":"屏東縣里港鄉中山路2號","TEL":"(08)744-3141","COUNTYNAME":"屏東縣","TOWNNAME":"里港鄉","MARKTYPE":"994","Class":"4"},"geometry":{"x":198087.4796000002,"y":2519302.0077999998}},{"attributes":{"OBJECTID":14949,"LANDMARKID":"1001300000883","LANDMARKCO":"402","LANDMARKNA":"威寶電信-里港里港特約服務中心","LANDMARKAD":"1001309","ADDRESS":"屏東縣里港鄉春林村5鄰里港路19號","TEL":"08-7755148","COUNTYNAME":"屏東縣","TOWNNAME":"里港鄉","MARKTYPE":"994","Class":"4"},"geometry":{"x":198147.74419999961,"y":2519532.2100000009}},{"attributes":{"OBJECTID":14950,"LANDMARKID":"1001300001356","LANDMARKCO":"603","LANDMARKNA":"富源旅社","LANDMARKAD":"1001309","ADDRESS":"屏東縣里港鄉春林村中山路22-1號","TEL":"08-7752027","COUNTYNAME":"屏東縣","TOWNNAME":"里港鄉","MARKTYPE":"996","Class":"6"},"geometry":{"x":198097.64209999982,"y":2519562.0388999991}},{"attributes":{"OBJECTID":14951,"LANDMARKID":"1001300001115","LANDMARKCO":"408","LANDMARKNA":"郵局-三地門郵局","LANDMARKAD":"1001326","ADDRESS":"屏東縣三地門鄉三地村行政街3號","TEL":"(08)7991-540","COUNTYNAME":"屏東縣","TOWNNAME":"三地門鄉","MARKTYPE":"994","Class":"4"},"geometry":{"x":214393.81859999988,"y":2512721.1546999998}},{"attributes":{"OBJECTID":14952,"LANDMARKID":"1001300001055","LANDMARKCO":"406","LANDMARKNA":"中正公園","LANDMARKAD":"1001326","ADDRESS":"屏東縣三地門鄉","TEL":" ","COUNTYNAME":"屏東縣","TOWNNAME":"三地門鄉","MARKTYPE":"994","Class":"4"},"geometry":{"x":214545.01520000026,"y":2512864.9865000006}},{"attributes":{"OBJECTID":14953,"LANDMARKID":"1001300001056","LANDMARKCO":"406","LANDMARKNA":"賽嘉航空公園","LANDMARKAD":"1001326","ADDRESS":"屏東縣三地門鄉","TEL":" ","COUNTYNAME":"屏東縣","TOWNNAME":"三地門鄉","MARKTYPE":"994","Class":"4"},"geometry":{"x":212807.7296000002,"y":2516467.5603999998}},{"attributes":{"OBJECTID":14954,"LANDMARKID":"1001300000294","LANDMARKCO":"107","LANDMARKNA":"屏東縣警察局口社派出所","LANDMARKAD":"1001326","ADDRESS":"屏東縣三地門鄉口社村信義巷1號","TEL":"08-7957078","COUNTYNAME":"屏東縣","TOWNNAME":"三地門鄉","MARKTYPE":"991","Class":"1"},"geometry":{"x":213863.53969999962,"y":2518990.2188000008}},{"attributes":{"OBJECTID":14955,"LANDMARKID":"1001300000130","LANDMARKCO":"106","LANDMARKNA":"屏東縣三地門鄉戶政事務所","LANDMARKAD":"1001326","ADDRESS":"屏東縣三地門鄉三地村中正路二段105號","TEL":"08-7991366","COUNTYNAME":"屏東縣","TOWNNAME":"三地門鄉","MARKTYPE":"991","Class":"1"},"geometry":{"x":214415.78060000017,"y":2512971.4542999994}},{"attributes":{"OBJECTID":14956,"LANDMARKID":"1001300000281","LANDMARKCO":"107","LANDMARKNA":"屏東縣警察局德文派出所","LANDMARKAD":"1001326","ADDRESS":"屏東縣三地門鄉德文村德文巷3號","TEL":"08-7996067","COUNTYNAME":"屏東縣","TOWNNAME":"三地門鄉","MARKTYPE":"991","Class":"1"},"geometry":{"x":219441.76900000032,"y":2518891.7568999995}},{"attributes":{"OBJECTID":14957,"LANDMARKID":"1001300000282","LANDMARKCO":"107","LANDMARKNA":"屏東縣警察局興化派出所","LANDMARKAD":"1001326","ADDRESS":"屏東縣三地門鄉大社村勝利巷149號","TEL":"08-7996068","COUNTYNAME":"屏東縣","TOWNNAME":"三地門鄉","MARKTYPE":"991","Class":"1"},"geometry":{"x":218871.4665000001,"y":2523351.9991999995}},{"attributes":{"OBJECTID":14958,"LANDMARKID":"1001300000283","LANDMARKCO":"107","LANDMARKNA":"屏東縣警察局青葉派出所","LANDMARKAD":"1001326","ADDRESS":"屏東縣三地門鄉光復巷1之2號","TEL":"08-7964797","COUNTYNAME":"屏東縣","TOWNNAME":"三地門鄉","MARKTYPE":"991","Class":"1"},"geometry":{"x":212978.33339999989,"y":2526421.6084000003}},{"attributes":{"OBJECTID":14959,"LANDMARKID":"1001300000284","LANDMARKCO":"107","LANDMARKNA":"屏東縣警察局青山派出所","LANDMARKAD":"1001326","ADDRESS":"屏東縣三地門鄉青山村民族巷61之2號","TEL":"08-7960690","COUNTYNAME":"屏東縣","TOWNNAME":"三地門鄉","MARKTYPE":"991","Class":"1"},"geometry":{"x":213105.88019999955,"y":2524031.932}},{"attributes":{"OBJECTID":14960,"LANDMARKID":"1001300000285","LANDMARKCO":"107","LANDMARKNA":"屏東縣警察局賽嘉派出所","LANDMARKAD":"1001326","ADDRESS":"屏東縣三地門鄉賽嘉村賽嘉巷1號","TEL":"08-7992181","COUNTYNAME":"屏東縣","TOWNNAME":"三地門鄉","MARKTYPE":"991","Class":"1"},"geometry":{"x":213056.24839999992,"y":2515961.6094000004}},{"attributes":{"OBJECTID":14961,"LANDMARKID":"1001300000101","LANDMARKCO":"103","LANDMARKNA":"屏東縣三地門鄉衛生所","LANDMARKAD":"1001326","ADDRESS":"屏東縣三地門鄉三地村行政街4號","TEL":"08-7991284","COUNTYNAME":"屏東縣","TOWNNAME":"三地門鄉","MARKTYPE":"991","Class":"1"},"geometry":{"x":214404.69290000014,"y":2512701.4300999995}},{"attributes":{"OBJECTID":14962,"LANDMARKID":"1001300000102","LANDMARKCO":"103","LANDMARKNA":"屏東縣三地門鄉民代表會","LANDMARKAD":"1001326","ADDRESS":"屏東縣三地門鄉中正路二段100號","TEL":"08-7991394","COUNTYNAME":"屏東縣","TOWNNAME":"三地門鄉","MARKTYPE":"991","Class":"1"},"geometry":{"x":214485.18010000046,"y":2512921.6179000009}},{"attributes":{"OBJECTID":14963,"LANDMARKID":"1001300000308","LANDMARKCO":"108","LANDMARKNA":"屏東縣三地門鄉公所","LANDMARKAD":"1001326","ADDRESS":"屏東縣三地門鄉中正路二段100號","TEL":"08-7991104","COUNTYNAME":"屏東縣","TOWNNAME":"三地門鄉","MARKTYPE":"991","Class":"1"},"geometry":{"x":214485.18010000046,"y":2512921.6179000009}},{"attributes":{"OBJECTID":14964,"LANDMARKID":"1001300000291","LANDMARKCO":"107","LANDMARKNA":"屏東縣警察局達來派出所","LANDMARKAD":"1001326","ADDRESS":"屏東縣三地門鄉達來村達來巷1號","TEL":"08-7992514","COUNTYNAME":"屏東縣","TOWNNAME":"三地門鄉","MARKTYPE":"991","Class":"1"},"geometry":{"x":215843.96760000009,"y":2514500.1920999996}},{"attributes":{"OBJECTID":14965,"LANDMARKID":"1001300000292","LANDMARKCO":"107","LANDMARKNA":"屏東縣警察局馬兒派出所","LANDMARKAD":"1001326","ADDRESS":"屏東縣三地門鄉馬兜村馬兜巷1號","TEL":"08-7957197","COUNTYNAME":"屏東縣","TOWNNAME":"三地門鄉","MARKTYPE":"991","Class":"1"},"geometry":{"x":212021.3657999998,"y":2520900.6062000003}},{"attributes":{"OBJECTID":14966,"LANDMARKID":"1001300000293","LANDMARKCO":"107","LANDMARKNA":"屏東縣警察局三地門分駐所","LANDMARKAD":"1001326","ADDRESS":"屏東縣三地門鄉三地村中正路行政巷101號","TEL":"08-7991154","COUNTYNAME":"屏東縣","TOWNNAME":"三地門鄉","MARKTYPE":"991","Class":"1"},"geometry":{"x":214333.49340000004,"y":2512860.0136999991}},{"attributes":{"OBJECTID":14967,"LANDMARKID":"1001300000680","LANDMARKCO":"205","LANDMARKNA":"陳俄安博物館","LANDMARKAD":"1001326","ADDRESS":"屏東縣三地門鄉中正路二段80號","TEL":" ","COUNTYNAME":"屏東縣","TOWNNAME":"三地門鄉","MARKTYPE":"992","Class":"2"},"geometry":{"x":214589.7098000003,"y":2512846.8577999994}},{"attributes":{"OBJECTID":14968,"LANDMARKID":"1001300000640","LANDMARKCO":"204","LANDMARKNA":"屏東縣立圖書館三地門分館","LANDMARKAD":"1001326","ADDRESS":"屏東縣三地門鄉三地村中正路二段99號","TEL":" ","COUNTYNAME":"屏東縣","TOWNNAME":"三地門鄉","MARKTYPE":"992","Class":"2"},"geometry":{"x":214368.47039999999,"y":2512809.3740999997}},{"attributes":{"OBJECTID":14969,"LANDMARKID":"1001300000593","LANDMARKCO":"203","LANDMARKNA":"縣立青山國小","LANDMARKAD":"1001326","ADDRESS":"屏東縣三地門鄉青山村民族巷9號","TEL":"08-7962493","COUNTYNAME":"屏東縣","TOWNNAME":"三地門鄉","MARKTYPE":"992","Class":"2"},"geometry":{"x":213185.79829999991,"y":2524072.1261999998}},{"attributes":{"OBJECTID":14970,"LANDMARKID":"1001300000594","LANDMARKCO":"203","LANDMARKNA":"縣立青葉國小","LANDMARKAD":"1001326","ADDRESS":"屏東縣三地門鄉青葉村光復巷1之2號","TEL":"08-7961997","COUNTYNAME":"屏東縣","TOWNNAME":"三地門鄉","MARKTYPE":"992","Class":"2"},"geometry":{"x":212978.33339999989,"y":2526421.6084000003}},{"attributes":{"OBJECTID":14971,"LANDMARKID":"1001300000595","LANDMARKCO":"203","LANDMARKNA":"縣立三地國小","LANDMARKAD":"1001326","ADDRESS":"屏東縣三地門鄉三地村行政街9號","TEL":"08-7991462","COUNTYNAME":"屏東縣","TOWNNAME":"三地門鄉","MARKTYPE":"992","Class":"2"},"geometry":{"x":214442.76279999968,"y":2512671.5188999996}},{"attributes":{"OBJECTID":14972,"LANDMARKID":"1001300000596","LANDMARKCO":"203","LANDMARKNA":"縣立口社國小","LANDMARKAD":"1001326","ADDRESS":"屏東縣三地門鄉口社村信義路65號","TEL":"08-7956495","COUNTYNAME":"屏東縣","TOWNNAME":"三地門鄉","MARKTYPE":"992","Class":"2"},"geometry":{"x":213543.30929999985,"y":2518470.1402000003}},{"attributes":{"OBJECTID":14973,"LANDMARKID":"1001300000597","LANDMARKCO":"203","LANDMARKNA":"縣立大社國小","LANDMARKAD":"1001326","ADDRESS":"屏東縣三地門鄉大社村勝利路147號","TEL":"08-7996021","COUNTYNAME":"屏東縣","TOWNNAME":"三地門鄉","MARKTYPE":"992","Class":"2"},"geometry":{"x":218819.97780000046,"y":2523410.3922000006}},{"attributes":{"OBJECTID":14974,"LANDMARKID":"1001300000598","LANDMARKCO":"203","LANDMARKNA":"縣立三地國小達來分校","LANDMARKAD":"1001326","ADDRESS":"屏東縣三地門鄉","TEL":" ","COUNTYNAME":"屏東縣","TOWNNAME":"三地門鄉","MARKTYPE":"992","Class":"2"},"geometry":{"x":217138.98940000031,"y":2514180.5197999999}},{"attributes":{"OBJECTID":14975,"LANDMARKID":"1001300000599","LANDMARKCO":"203","LANDMARKNA":"縣立口社國小馬兒分校","LANDMARKAD":"1001326","ADDRESS":"屏東縣三地門鄉","TEL":" ","COUNTYNAME":"屏東縣","TOWNNAME":"三地門鄉","MARKTYPE":"992","Class":"2"},"geometry":{"x":212486.3953999998,"y":2520890.3373000007}},{"attributes":{"OBJECTID":14976,"LANDMARKID":"1001300000600","LANDMARKCO":"203","LANDMARKNA":"縣立賽嘉國小","LANDMARKAD":"1001326","ADDRESS":"屏東縣三地門鄉賽嘉村2號","TEL":"08-7992220","COUNTYNAME":"屏東縣","TOWNNAME":"三地門鄉","MARKTYPE":"992","Class":"2"},"geometry":{"x":213006.37430000026,"y":2515980.2382999994}},{"attributes":{"OBJECTID":14977,"LANDMARKID":"1001300000601","LANDMARKCO":"203","LANDMARKNA":"縣立口社國小安坡分班","LANDMARKAD":"1001326","ADDRESS":"屏東縣三地門鄉","TEL":" ","COUNTYNAME":"屏東縣","TOWNNAME":"三地門鄉","MARKTYPE":"992","Class":"2"},"geometry":{"x":212816.57079999987,"y":2522050.4377999995}},{"attributes":{"OBJECTID":14978,"LANDMARKID":"1001300000602","LANDMARKCO":"203","LANDMARKNA":"縣立德文國小","LANDMARKAD":"1001326","ADDRESS":"屏東縣三地門鄉","TEL":" ","COUNTYNAME":"屏東縣","TOWNNAME":"三地門鄉","MARKTYPE":"992","Class":"2"},"geometry":{"x":219440.74689999968,"y":2518910.5048999991}},{"attributes":{"OBJECTID":14979,"LANDMARKID":"1001300001405","LANDMARKCO":"604","LANDMARKNA":"三地門民宿","LANDMARKAD":"1001326","ADDRESS":"屏東縣三地門鄉三地村中正路一段56號","TEL":"08-7994886","COUNTYNAME":"屏東縣","TOWNNAME":"三地門鄉","MARKTYPE":"996","Class":"6"},"geometry":{"x":214157.80090000015,"y":2512421.2737000007}},{"attributes":{"OBJECTID":14980,"LANDMARKID":"1001300001204","LANDMARKCO":"503","LANDMARKNA":"大津瀑布(阿烏瀑布)","LANDMARKAD":"1001326","ADDRESS":"屏東縣三地門鄉","TEL":" ","COUNTYNAME":"屏東縣","TOWNNAME":"三地門鄉","MARKTYPE":"995","Class":"5"},"geometry":{"x":213606.7126000002,"y":2528891.6283}},{"attributes":{"OBJECTID":14981,"LANDMARKID":"1001300001205","LANDMARKCO":"503","LANDMARKNA":"海神瀑布","LANDMARKAD":"1001326","ADDRESS":"屏東縣三地門鄉","TEL":" ","COUNTYNAME":"屏東縣","TOWNNAME":"三地門鄉","MARKTYPE":"995","Class":"5"},"geometry":{"x":214041.12090000045,"y":2524937.3816999998}},{"attributes":{"OBJECTID":14982,"LANDMARKID":"1001300000295","LANDMARKCO":"107","LANDMARKNA":"屏東縣警察局大武派出所","LANDMARKAD":"1001327","ADDRESS":"屏東縣霧台鄉大武村小山巷1之1號","TEL":"08-7902346","COUNTYNAME":"屏東縣","TOWNNAME":"霧台鄉","MARKTYPE":"991","Class":"1"},"geometry":{"x":224869.74600000028,"y":2517390.4365999997}},{"attributes":{"OBJECTID":14983,"LANDMARKID":"1001300000129","LANDMARKCO":"106","LANDMARKNA":"屏東縣霧台鄉戶政事務所","LANDMARKAD":"1001327","ADDRESS":"屏東縣霧台鄉神山巷72號","TEL":"08-7902286","COUNTYNAME":"屏東縣","TOWNNAME":"霧台鄉","MARKTYPE":"991","Class":"1"},"geometry":{"x":222043.58789999969,"y":2516551.2599999998}},{"attributes":{"OBJECTID":14984,"LANDMARKID":"1001300000286","LANDMARKCO":"107","LANDMARKNA":"屏東縣警察局霧台派出所","LANDMARKAD":"1001327","ADDRESS":"屏東縣霧台鄉霧台村神山巷70號","TEL":"08-7902238","COUNTYNAME":"屏東縣","TOWNNAME":"霧台鄉","MARKTYPE":"991","Class":"1"},"geometry":{"x":221935.58660000004,"y":2516551.5879999995}},{"attributes":{"OBJECTID":14985,"LANDMARKID":"1001300000287","LANDMARKCO":"107","LANDMARKNA":"屏東縣警察局阿禮派出所","LANDMARKAD":"1001327","ADDRESS":"屏東縣霧台鄉阿禮村中秋巷1號","TEL":"08-7902331","COUNTYNAME":"屏東縣","TOWNNAME":"霧台鄉","MARKTYPE":"991","Class":"1"},"geometry":{"x":225207.04389999993,"y":2514171.3066000007}},{"attributes":{"OBJECTID":14986,"LANDMARKID":"1001300000288","LANDMARKCO":"107","LANDMARKNA":"屏東縣警察局去露派出所","LANDMARKAD":"1001327","ADDRESS":"屏東縣霧台鄉去露村前山巷1號","TEL":"08-7902300","COUNTYNAME":"屏東縣","TOWNNAME":"霧台鄉","MARKTYPE":"991","Class":"1"},"geometry":{"x":224151.02699999977,"y":2515711.4495000001}},{"attributes":{"OBJECTID":14987,"LANDMARKID":"1001300000289","LANDMARKCO":"107","LANDMARKNA":"屏東縣警察局佳暮派出所","LANDMARKAD":"1001327","ADDRESS":"屏東縣霧台鄉佳暮村流川巷10號","TEL":"08-7902467","COUNTYNAME":"屏東縣","TOWNNAME":"霧台鄉","MARKTYPE":"991","Class":"1"},"geometry":{"x":221256.48780000024,"y":2517821.3857000005}},{"attributes":{"OBJECTID":14988,"LANDMARKID":"1001300000103","LANDMARKCO":"103","LANDMARKNA":"屏東縣霧台鄉衛生所","LANDMARKAD":"1001327","ADDRESS":"屏東縣霧台鄉神山巷70號","TEL":"08-7902232","COUNTYNAME":"屏東縣","TOWNNAME":"霧台鄉","MARKTYPE":"991","Class":"1"},"geometry":{"x":221935.58660000004,"y":2516551.5879999995}},{"attributes":{"OBJECTID":14989,"LANDMARKID":"1001300000104","LANDMARKCO":"103","LANDMARKNA":"屏東縣霧台鄉鄉民代表會","LANDMARKAD":"1001327","ADDRESS":"屏東縣霧台鄉神山巷73號","TEL":"08-7902592","COUNTYNAME":"屏東縣","TOWNNAME":"霧台鄉","MARKTYPE":"991","Class":"1"},"geometry":{"x":221892.49380000029,"y":2516601.5085000005}},{"attributes":{"OBJECTID":14990,"LANDMARKID":"1001300000307","LANDMARKCO":"108","LANDMARKNA":"屏東縣霧台鄉公所","LANDMARKAD":"1001327","ADDRESS":"屏東縣霧台鄉神山巷73號","TEL":"08-7902234","COUNTYNAME":"屏東縣","TOWNNAME":"霧台鄉","MARKTYPE":"991","Class":"1"},"geometry":{"x":221892.49380000029,"y":2516601.5085000005}},{"attributes":{"OBJECTID":14991,"LANDMARKID":"1001300000290","LANDMARKCO":"107","LANDMARKNA":"屏東縣警察局好茶派出所","LANDMARKAD":"1001327","ADDRESS":"屏東縣麟洛鄉麟安巷13號","TEL":"08-7211832","COUNTYNAME":"屏東縣","TOWNNAME":"霧台鄉","MARKTYPE":"991","Class":"1"},"geometry":{"x":220195.82940000016,"y":2509950.3271999992}},{"attributes":{"OBJECTID":14992,"LANDMARKID":"1001300000681","LANDMARKCO":"205","LANDMARKNA":"魯凱族文物館","LANDMARKAD":"1001327","ADDRESS":"屏東縣霧台鄉中山巷63號","TEL":"08-7902297","COUNTYNAME":"屏東縣","TOWNNAME":"霧台鄉","MARKTYPE":"992","Class":"2"},"geometry":{"x":222421.39219999965,"y":2516005.5923999995}},{"attributes":{"OBJECTID":14993,"LANDMARKID":"1001300000641","LANDMARKCO":"204","LANDMARKNA":"屏東縣立圖書館霧台分館","LANDMARKAD":"1001327","ADDRESS":"屏東縣霧台鄉霧台村神山巷71號","TEL":" ","COUNTYNAME":"屏東縣","TOWNNAME":"霧台鄉","MARKTYPE":"992","Class":"2"},"geometry":{"x":222029.83920000028,"y":2516543.7478999998}},{"attributes":{"OBJECTID":14994,"LANDMARKID":"1001300000584","LANDMARKCO":"203","LANDMARKNA":"縣立霧台國小","LANDMARKAD":"1001327","ADDRESS":"屏東縣霧台鄉霧台村中山巷44號","TEL":"08-7902230","COUNTYNAME":"屏東縣","TOWNNAME":"霧台鄉","MARKTYPE":"992","Class":"2"},"geometry":{"x":222390.8685999997,"y":2516091.3735000007}},{"attributes":{"OBJECTID":14995,"LANDMARKID":"1001300000585","LANDMARKCO":"203","LANDMARKNA":"縣立霧台國小大武分班","LANDMARKAD":"1001327","ADDRESS":"屏東縣霧台鄉小山巷1號","TEL":"08-7902398","COUNTYNAME":"屏東縣","TOWNNAME":"霧台鄉","MARKTYPE":"992","Class":"2"},"geometry":{"x":224791.63920000009,"y":2517501.5573999994}},{"attributes":{"OBJECTID":14996,"LANDMARKID":"1001300000349","LANDMARKCO":"202","LANDMARKNA":"縣立瑪家國中霧台分校","LANDMARKAD":"1001327","ADDRESS":"屏東縣霧台鄉","TEL":" ","COUNTYNAME":"屏東縣","TOWNNAME":"霧台鄉","MARKTYPE":"992","Class":"2"},"geometry":{"x":221924.88229999971,"y":2516690.3171999995}},{"attributes":{"OBJECTID":14997,"LANDMARKID":"1001300000579","LANDMARKCO":"203","LANDMARKNA":"縣立霧台國小伊拉分班","LANDMARKAD":"1001327","ADDRESS":"屏東縣霧台鄉","TEL":" ","COUNTYNAME":"屏東縣","TOWNNAME":"霧台鄉","MARKTYPE":"992","Class":"2"},"geometry":{"x":219796.61330000032,"y":2516210.0814999994}},{"attributes":{"OBJECTID":14998,"LANDMARKID":"1001300000580","LANDMARKCO":"203","LANDMARKNA":"縣立霧台國小好茶分班(廢)","LANDMARKAD":"1001327","ADDRESS":"屏東縣霧台鄉","TEL":" ","COUNTYNAME":"屏東縣","TOWNNAME":"霧台鄉","MARKTYPE":"992","Class":"2"},"geometry":{"x":219939.88320000004,"y":2510230.3871999998}},{"attributes":{"OBJECTID":14999,"LANDMARKID":"1001300000581","LANDMARKCO":"203","LANDMARKNA":"縣立阿禮國小去霧分校","LANDMARKAD":"1001327","ADDRESS":"屏東縣霧台鄉","TEL":" ","COUNTYNAME":"屏東縣","TOWNNAME":"霧台鄉","MARKTYPE":"992","Class":"2"},"geometry":{"x":224152.96530000027,"y":2515720.2028000001}},{"attributes":{"OBJECTID":15000,"LANDMARKID":"1001300000582","LANDMARKCO":"203","LANDMARKNA":"縣立阿禮國小(廢)","LANDMARKAD":"1001327","ADDRESS":"屏東縣霧台鄉","TEL":" ","COUNTYNAME":"屏東縣","TOWNNAME":"霧台鄉","MARKTYPE":"992","Class":"2"},"geometry":{"x":225164.99980000034,"y":2514160.4557000007}}]}