{"displayFieldName":"COUNTYNAME","fieldAliases":{"OBJECTID":"OBJECTID","LANDMARKID":"LANDMARKID","LANDMARKCO":"LANDMARKCO","LANDMARKNA":"LANDMARKNA","LANDMARKAD":"LANDMARKAD","ADDRESS":"ADDRESS","TEL":"TEL","COUNTYNAME":"COUNTYNAME","TOWNNAME":"TOWNNAME","MARKTYPE":"MARKTYPE","Class":"Class"},"geometryType":"esriGeometryPoint","spatialReference":{"wkid":4326},"fields":[{"name":"OBJECTID","type":"esriFieldTypeOID","alias":"OBJECTID"},{"name":"LANDMARKID","type":"esriFieldTypeString","alias":"LANDMARKID","length":15},{"name":"LANDMARKCO","type":"esriFieldTypeString","alias":"LANDMARKCO","length":15},{"name":"LANDMARKNA","type":"esriFieldTypeString","alias":"LANDMARKNA","length":50},{"name":"LANDMARKAD","type":"esriFieldTypeString","alias":"LANDMARKAD","length":15},{"name":"ADDRESS","type":"esriFieldTypeString","alias":"ADDRESS","length":56},{"name":"TEL","type":"esriFieldTypeString","alias":"TEL","length":36},{"name":"COUNTYNAME","type":"esriFieldTypeString","alias":"COUNTYNAME","length":15},{"name":"TOWNNAME","type":"esriFieldTypeString","alias":"TOWNNAME","length":13},{"name":"MARKTYPE","type":"esriFieldTypeString","alias":"MARKTYPE","length":12},{"name":"Class","type":"esriFieldTypeString","alias":"Class","length":5}],"features":[{"attributes":{"OBJECTID":24201,"LANDMARKID":"1001500000182","LANDMARKCO":"107","LANDMARKNA":"花蓮縣消防局鳳榮消防分隊","LANDMARKAD":"1001502","ADDRESS":"花蓮縣鳳林鎮信義路212號","TEL":"03-8762189","COUNTYNAME":"花蓮縣","TOWNNAME":"鳳林鎮","MARKTYPE":"991","Class":"1"},"geometry":{"x":121.45370426547488,"y":23.746741816430841}},{"attributes":{"OBJECTID":24202,"LANDMARKID":"1001500000183","LANDMARKCO":"107","LANDMARKNA":"花蓮縣警察局鳳林分局","LANDMARKAD":"1001502","ADDRESS":"花蓮縣鳳林鎮鳳智里信義路37號","TEL":"03-8762324","COUNTYNAME":"花蓮縣","TOWNNAME":"鳳林鎮","MARKTYPE":"991","Class":"1"},"geometry":{"x":121.45098450792752,"y":23.742144464612135}},{"attributes":{"OBJECTID":24203,"LANDMARKID":"1001500000184","LANDMARKCO":"107","LANDMARKNA":"花蓮縣警察局長橋派出所","LANDMARKAD":"1001502","ADDRESS":"花蓮縣鳳林鎮長橋里7鄰長橋路91號","TEL":"03-8751314","COUNTYNAME":"花蓮縣","TOWNNAME":"鳳林鎮","MARKTYPE":"991","Class":"1"},"geometry":{"x":121.41985321314048,"y":23.707740334643983}},{"attributes":{"OBJECTID":24204,"LANDMARKID":"1001500000185","LANDMARKCO":"107","LANDMARKNA":"花蓮縣警察局南平派出所","LANDMARKAD":"1001502","ADDRESS":"花蓮縣鳳林鎮自強路372號","TEL":"03-8741594","COUNTYNAME":"花蓮縣","TOWNNAME":"鳳林鎮","MARKTYPE":"991","Class":"1"},"geometry":{"x":121.45898988888659,"y":23.784109739836204}},{"attributes":{"OBJECTID":24205,"LANDMARKID":"1001500000186","LANDMARKCO":"107","LANDMARKNA":"花蓮縣警察局鳳林派出所","LANDMARKAD":"1001502","ADDRESS":"花蓮縣鳳林鎮鳳智里信義路37號","TEL":"03-8762293","COUNTYNAME":"花蓮縣","TOWNNAME":"鳳林鎮","MARKTYPE":"991","Class":"1"},"geometry":{"x":121.45105379160306,"y":23.742234358012947}},{"attributes":{"OBJECTID":24206,"LANDMARKID":"1001500000103","LANDMARKCO":"106","LANDMARKNA":"花蓮縣鳳林鎮戶政事務所","LANDMARKAD":"1001502","ADDRESS":"花蓮縣鳳林鎮公正街20號","TEL":"03-8763784","COUNTYNAME":"花蓮縣","TOWNNAME":"鳳林鎮","MARKTYPE":"991","Class":"1"},"geometry":{"x":121.44991096217227,"y":23.74575454361316}},{"attributes":{"OBJECTID":24207,"LANDMARKID":"1001500000096","LANDMARKCO":"105","LANDMARKNA":"花蓮縣鳳林地政事務所","LANDMARKAD":"1001502","ADDRESS":"花蓮縣鳳林鎮信義路200號","TEL":"03-8761103","COUNTYNAME":"花蓮縣","TOWNNAME":"鳳林鎮","MARKTYPE":"991","Class":"1"},"geometry":{"x":121.45335656121655,"y":23.746111772877107}},{"attributes":{"OBJECTID":24208,"LANDMARKID":"1001500000064","LANDMARKCO":"103","LANDMARKNA":"花蓮縣鳳林鎮衛生所","LANDMARKAD":"1001502","ADDRESS":"花蓮縣鳳林鎮光華路95號","TEL":"03-8761116","COUNTYNAME":"花蓮縣","TOWNNAME":"鳳林鎮","MARKTYPE":"991","Class":"1"},"geometry":{"x":121.45136945436987,"y":23.745302612278973}},{"attributes":{"OBJECTID":24209,"LANDMARKID":"1001500000180","LANDMARKCO":"107","LANDMARKNA":"花蓮縣警察局見晴派出所","LANDMARKAD":"1001502","ADDRESS":"花蓮縣萬榮鄉見晴村7鄰96號","TEL":"03-8771514","COUNTYNAME":"花蓮縣","TOWNNAME":"鳳林鎮","MARKTYPE":"991","Class":"1"},"geometry":{"x":121.45246309124001,"y":23.785297622582348}},{"attributes":{"OBJECTID":24210,"LANDMARKID":"1001500000181","LANDMARKCO":"107","LANDMARKNA":"花蓮縣警察局山興派出所","LANDMARKAD":"1001502","ADDRESS":"花蓮縣鳳林鎮山興里文山路7號","TEL":"03-8741014","COUNTYNAME":"花蓮縣","TOWNNAME":"鳳林鎮","MARKTYPE":"991","Class":"1"},"geometry":{"x":121.50119771675034,"y":23.734133022141037}},{"attributes":{"OBJECTID":24211,"LANDMARKID":"1001500000406","LANDMARKCO":"204","LANDMARKNA":"花蓮縣立圖書館鳳林分館","LANDMARKAD":"1001502","ADDRESS":"花蓮縣鳳林鎮信義路151號","TEL":" ","COUNTYNAME":"花蓮縣","TOWNNAME":"鳳林鎮","MARKTYPE":"992","Class":"2"},"geometry":{"x":121.45286586080476,"y":23.74644095636307}},{"attributes":{"OBJECTID":24212,"LANDMARKID":"1001500000339","LANDMARKCO":"203","LANDMARKNA":"縣立鳳林國中","LANDMARKAD":"1001502","ADDRESS":"花蓮縣鳳林鎮光復路8號","TEL":"03-8761101","COUNTYNAME":"花蓮縣","TOWNNAME":"鳳林鎮","MARKTYPE":"992","Class":"2"},"geometry":{"x":121.44920121567407,"y":23.743862446448418}},{"attributes":{"OBJECTID":24213,"LANDMARKID":"1001500000340","LANDMARKCO":"203","LANDMARKNA":"縣立萬榮國中","LANDMARKAD":"1001502","ADDRESS":"花蓮縣鳳林鎮長橋路1號","TEL":"03-8751264","COUNTYNAME":"花蓮縣","TOWNNAME":"鳳林鎮","MARKTYPE":"992","Class":"2"},"geometry":{"x":121.41785495655934,"y":23.708104841006008}},{"attributes":{"OBJECTID":24214,"LANDMARKID":"1001500000341","LANDMARKCO":"203","LANDMARKNA":"縣立南平國中","LANDMARKAD":"1001502","ADDRESS":"花蓮縣鳳林鎮八德路56號","TEL":"03-8772586","COUNTYNAME":"花蓮縣","TOWNNAME":"鳳林鎮","MARKTYPE":"992","Class":"2"},"geometry":{"x":121.45647545007168,"y":23.783755239300739}},{"attributes":{"OBJECTID":24215,"LANDMARKID":"1001500000342","LANDMARKCO":"203","LANDMARKNA":"縣立鳳信國小","LANDMARKAD":"1001502","ADDRESS":"花蓮縣鳳林鎮中正路一段120巷25號","TEL":"03-8763949","COUNTYNAME":"花蓮縣","TOWNNAME":"鳳林鎮","MARKTYPE":"992","Class":"2"},"geometry":{"x":121.44434683192841,"y":23.729878497416596}},{"attributes":{"OBJECTID":24216,"LANDMARKID":"1001500000343","LANDMARKCO":"203","LANDMARKNA":"縣立鳳林國小","LANDMARKAD":"1001502","ADDRESS":"花蓮縣鳳林鎮中正路二段1號","TEL":"03-8762031","COUNTYNAME":"花蓮縣","TOWNNAME":"鳳林鎮","MARKTYPE":"992","Class":"2"},"geometry":{"x":121.44660602483292,"y":23.74305679359993}},{"attributes":{"OBJECTID":24217,"LANDMARKID":"1001500000344","LANDMARKCO":"203","LANDMARKNA":"縣立北林國小","LANDMARKAD":"1001502","ADDRESS":"花蓮縣鳳林鎮北林里平園路32號","TEL":"03-8762554","COUNTYNAME":"花蓮縣","TOWNNAME":"鳳林鎮","MARKTYPE":"992","Class":"2"},"geometry":{"x":121.4686041983017,"y":23.771435466355062}},{"attributes":{"OBJECTID":24218,"LANDMARKID":"1001500000345","LANDMARKCO":"203","LANDMARKNA":"縣立林榮國小","LANDMARKAD":"1001502","ADDRESS":"花蓮縣鳳林鎮林榮里永安街2號","TEL":"03-8771024","COUNTYNAME":"花蓮縣","TOWNNAME":"鳳林鎮","MARKTYPE":"992","Class":"2"},"geometry":{"x":121.45258413415785,"y":23.801189050129043}},{"attributes":{"OBJECTID":24219,"LANDMARKID":"1001500000346","LANDMARKCO":"203","LANDMARKNA":"縣立鳳仁國小","LANDMARKAD":"1001502","ADDRESS":"花蓮縣鳳林鎮鳳仁里光復路94號","TEL":"03-8762201","COUNTYNAME":"花蓮縣","TOWNNAME":"鳳林鎮","MARKTYPE":"992","Class":"2"},"geometry":{"x":121.45213692180752,"y":23.751257719260057}},{"attributes":{"OBJECTID":24220,"LANDMARKID":"1001500000347","LANDMARKCO":"203","LANDMARKNA":"縣立長橋國小","LANDMARKAD":"1001502","ADDRESS":"花蓮縣鳳林鎮長橋里長橋路2號","TEL":"03-8751654","COUNTYNAME":"花蓮縣","TOWNNAME":"鳳林鎮","MARKTYPE":"992","Class":"2"},"geometry":{"x":121.41980396033598,"y":23.709095052481867}},{"attributes":{"OBJECTID":24221,"LANDMARKID":"1001500000348","LANDMARKCO":"203","LANDMARKNA":"縣立大榮國小","LANDMARKAD":"1001502","ADDRESS":"花蓮縣鳳林鎮大榮里復興路85號","TEL":"03-8763904","COUNTYNAME":"花蓮縣","TOWNNAME":"鳳林鎮","MARKTYPE":"992","Class":"2"},"geometry":{"x":121.46764960620821,"y":23.754465505672627}},{"attributes":{"OBJECTID":24222,"LANDMARKID":"1001500000469","LANDMARKCO":"303","LANDMARKNA":"鳳林遊憩區小客車停車場","LANDMARKAD":"1001502","ADDRESS":"花蓮縣鳳林鎮","TEL":" ","COUNTYNAME":"花蓮縣","TOWNNAME":"鳳林鎮","MARKTYPE":"993","Class":"303"},"geometry":{"x":121.41300044252445,"y":23.696900724711647}},{"attributes":{"OBJECTID":24223,"LANDMARKID":"1001500000470","LANDMARKCO":"303","LANDMARKNA":"鳳林遊憩區入口處停車場","LANDMARKAD":"1001502","ADDRESS":"花蓮縣鳳林鎮","TEL":" ","COUNTYNAME":"花蓮縣","TOWNNAME":"鳳林鎮","MARKTYPE":"993","Class":"303"},"geometry":{"x":121.41036428384699,"y":23.697094718043846}},{"attributes":{"OBJECTID":24224,"LANDMARKID":"1001500000471","LANDMARKCO":"303","LANDMARKNA":"鳳林遊憩區烤肉區大小客車停車場","LANDMARKAD":"1001502","ADDRESS":"花蓮縣鳳林鎮","TEL":" ","COUNTYNAME":"花蓮縣","TOWNNAME":"鳳林鎮","MARKTYPE":"993","Class":"303"},"geometry":{"x":121.41230679683224,"y":23.693874303769014}},{"attributes":{"OBJECTID":24225,"LANDMARKID":"1001500000472","LANDMARKCO":"303","LANDMARKNA":"兆豐平林休閒農場停車場","LANDMARKAD":"1001502","ADDRESS":"花蓮縣鳳林鎮永福路20號","TEL":"03-8771121","COUNTYNAME":"花蓮縣","TOWNNAME":"鳳林鎮","MARKTYPE":"993","Class":"303"},"geometry":{"x":121.46156079131094,"y":23.802770738289997}},{"attributes":{"OBJECTID":24226,"LANDMARKID":"1001500000473","LANDMARKCO":"303","LANDMARKNA":"公有公正街停車場","LANDMARKAD":"1001502","ADDRESS":"花蓮縣鳳林鎮","TEL":" ","COUNTYNAME":"花蓮縣","TOWNNAME":"鳳林鎮","MARKTYPE":"993","Class":"303"},"geometry":{"x":121.44891685779724,"y":23.7459010710241}},{"attributes":{"OBJECTID":24227,"LANDMARKID":"1001500000474","LANDMARKCO":"303","LANDMARKNA":"停四停車場","LANDMARKAD":"1001502","ADDRESS":"花蓮縣鳳林鎮大榮三路","TEL":" ","COUNTYNAME":"花蓮縣","TOWNNAME":"鳳林鎮","MARKTYPE":"993","Class":"303"},"geometry":{"x":121.45673952660218,"y":23.742691029584975}},{"attributes":{"OBJECTID":24228,"LANDMARKID":"1001500000475","LANDMARKCO":"303","LANDMARKNA":"停一停車場","LANDMARKAD":"1001502","ADDRESS":"花蓮縣鳳林鎮中正路","TEL":" ","COUNTYNAME":"花蓮縣","TOWNNAME":"鳳林鎮","MARKTYPE":"993","Class":"303"},"geometry":{"x":121.44877663719919,"y":23.745846568671773}},{"attributes":{"OBJECTID":24229,"LANDMARKID":"1001500000476","LANDMARKCO":"303","LANDMARKNA":"停三停車場","LANDMARKAD":"1001502","ADDRESS":"花蓮縣鳳林鎮中華路","TEL":" ","COUNTYNAME":"花蓮縣","TOWNNAME":"鳳林鎮","MARKTYPE":"993","Class":"303"},"geometry":{"x":121.45043676457175,"y":23.744693687281767}},{"attributes":{"OBJECTID":24230,"LANDMARKID":"1001500000477","LANDMARKCO":"303","LANDMARKNA":"停五停車場","LANDMARKAD":"1001502","ADDRESS":"花蓮縣鳳林鎮中和路","TEL":" ","COUNTYNAME":"花蓮縣","TOWNNAME":"鳳林鎮","MARKTYPE":"993","Class":"303"},"geometry":{"x":121.45608426621934,"y":23.745826601215178}},{"attributes":{"OBJECTID":24231,"LANDMARKID":"1001500000478","LANDMARKCO":"303","LANDMARKNA":"彩光北豐農場停車場","LANDMARKAD":"1001502","ADDRESS":"花蓮縣鳳林鎮","TEL":" ","COUNTYNAME":"花蓮縣","TOWNNAME":"鳳林鎮","MARKTYPE":"993","Class":"303"},"geometry":{"x":121.45880512054246,"y":23.792261354264557}},{"attributes":{"OBJECTID":24232,"LANDMARKID":"1001500000440","LANDMARKCO":"301","LANDMARKNA":"萬榮火車站","LANDMARKAD":"1001502","ADDRESS":"花蓮縣鳳林鎮長德街17號","TEL":"03-8752175","COUNTYNAME":"花蓮縣","TOWNNAME":"鳳林鎮","MARKTYPE":"993","Class":"301"},"geometry":{"x":121.41883449517519,"y":23.711616758419662}},{"attributes":{"OBJECTID":24233,"LANDMARKID":"1001500000441","LANDMARKCO":"301","LANDMARKNA":"鳳林火車站","LANDMARKAD":"1001502","ADDRESS":"花蓮縣鳳林鎮中山路43號","TEL":"03-8762004","COUNTYNAME":"花蓮縣","TOWNNAME":"鳳林鎮","MARKTYPE":"993","Class":"301"},"geometry":{"x":121.44700207084348,"y":23.746358213088275}},{"attributes":{"OBJECTID":24234,"LANDMARKID":"1001500000442","LANDMARKCO":"301","LANDMARKNA":"南平火車站","LANDMARKAD":"1001502","ADDRESS":"花蓮縣鳳林鎮自強路223號","TEL":"03-8771597","COUNTYNAME":"花蓮縣","TOWNNAME":"鳳林鎮","MARKTYPE":"993","Class":"301"},"geometry":{"x":121.45821440416482,"y":23.782038401875315}},{"attributes":{"OBJECTID":24235,"LANDMARKID":"1001500000543","LANDMARKCO":"402","LANDMARKNA":"中華電信-鳳林服務中心","LANDMARKAD":"1001502","ADDRESS":"花蓮縣鳳林鎮中正路二段62號","TEL":"(03)876-4141","COUNTYNAME":"花蓮縣","TOWNNAME":"鳳林鎮","MARKTYPE":"994","Class":"4"},"geometry":{"x":121.44822627246994,"y":23.74481616337334}},{"attributes":{"OBJECTID":24236,"LANDMARKID":"1001500001359","LANDMARKCO":"604","LANDMARKNA":"余家莊民宿","LANDMARKAD":"1001502","ADDRESS":"花蓮縣鳳林鎮大榮里大榮三路23號","TEL":"03-8762421","COUNTYNAME":"花蓮縣","TOWNNAME":"鳳林鎮","MARKTYPE":"996","Class":"6"},"geometry":{"x":121.45707544572517,"y":23.743800584882102}},{"attributes":{"OBJECTID":24237,"LANDMARKID":"1001500001360","LANDMARKCO":"604","LANDMARKNA":"平林民宿","LANDMARKAD":"1001502","ADDRESS":"花蓮縣鳳林鎮林榮里大功街18號","TEL":"03-8771647","COUNTYNAME":"花蓮縣","TOWNNAME":"鳳林鎮","MARKTYPE":"996","Class":"6"},"geometry":{"x":121.45721311271619,"y":23.803381168252344}},{"attributes":{"OBJECTID":24238,"LANDMARKID":"1001500001361","LANDMARKCO":"604","LANDMARKNA":"水車寮花園民宿","LANDMARKAD":"1001502","ADDRESS":"花蓮縣鳳林鎮林榮里水車路57號","TEL":"03-8761789","COUNTYNAME":"花蓮縣","TOWNNAME":"鳳林鎮","MARKTYPE":"996","Class":"6"},"geometry":{"x":121.45386897340592,"y":23.802294865437759}},{"attributes":{"OBJECTID":24239,"LANDMARKID":"1001500001362","LANDMARKCO":"604","LANDMARKNA":"樟之園民宿","LANDMARKAD":"1001502","ADDRESS":"花蓮縣鳳林鎮林榮里林榮路235號","TEL":"03-8772198","COUNTYNAME":"花蓮縣","TOWNNAME":"鳳林鎮","MARKTYPE":"996","Class":"6"},"geometry":{"x":121.44955403004413,"y":23.807888294275401}},{"attributes":{"OBJECTID":24240,"LANDMARKID":"1001500001363","LANDMARKCO":"604","LANDMARKNA":"蘭花厝渡假民宿","LANDMARKAD":"1001502","ADDRESS":"花蓮縣鳳林鎮鳳智里光華路39號","TEL":"03-8761829","COUNTYNAME":"花蓮縣","TOWNNAME":"鳳林鎮","MARKTYPE":"996","Class":"6"},"geometry":{"x":121.45046649487979,"y":23.743264712924127}},{"attributes":{"OBJECTID":24241,"LANDMARKID":"1001500001364","LANDMARKCO":"604","LANDMARKNA":"府群土產民宿","LANDMARKAD":"1001502","ADDRESS":"花蓮縣鳳林鎮鳳義里水源路5號","TEL":"03-8761035","COUNTYNAME":"花蓮縣","TOWNNAME":"鳳林鎮","MARKTYPE":"996","Class":"6"},"geometry":{"x":121.4446888499788,"y":23.745578368712437}},{"attributes":{"OBJECTID":24242,"LANDMARKID":"1001500001365","LANDMARKCO":"604","LANDMARKNA":"漱石山居","LANDMARKAD":"1001502","ADDRESS":"花蓮縣鳳林鎮鳳義里水源路89號","TEL":"03-8760815","COUNTYNAME":"花蓮縣","TOWNNAME":"鳳林鎮","MARKTYPE":"996","Class":"6"},"geometry":{"x":121.42637428401979,"y":23.754400286430929}},{"attributes":{"OBJECTID":24243,"LANDMARKID":"1001500001366","LANDMARKCO":"604","LANDMARKNA":"靜園池畔民宿","LANDMARKAD":"1001502","ADDRESS":"花蓮縣鳳林鎮林榮里永康路220號","TEL":"0922-664152","COUNTYNAME":"花蓮縣","TOWNNAME":"鳳林鎮","MARKTYPE":"996","Class":"6"},"geometry":{"x":121.45076537888123,"y":23.79380583830498}},{"attributes":{"OBJECTID":24244,"LANDMARKID":"1001500001367","LANDMARKCO":"604","LANDMARKNA":"芳草古樹花園民宿","LANDMARKAD":"1001502","ADDRESS":"花蓮縣鳳林鎮大榮里中和路71-1號","TEL":"03-8763917","COUNTYNAME":"花蓮縣","TOWNNAME":"鳳林鎮","MARKTYPE":"996","Class":"6"},"geometry":{"x":121.45360852754112,"y":23.746906635399768}},{"attributes":{"OBJECTID":24245,"LANDMARKID":"1001500001368","LANDMARKCO":"604","LANDMARKNA":"鳳凰52民宿","LANDMARKAD":"1001502","ADDRESS":"花蓮縣鳳林鎮鳳義里鳳凰路52號","TEL":"03-8761895","COUNTYNAME":"花蓮縣","TOWNNAME":"鳳林鎮","MARKTYPE":"996","Class":"6"},"geometry":{"x":121.44421812440149,"y":23.751215758643205}},{"attributes":{"OBJECTID":24246,"LANDMARKID":"1001500000837","LANDMARKCO":"603","LANDMARKNA":"鳳梧旅社","LANDMARKAD":"1001502","ADDRESS":"花蓮縣鳳林鎮中美路58號","TEL":"03-8762661","COUNTYNAME":"花蓮縣","TOWNNAME":"鳳林鎮","MARKTYPE":"996","Class":"6"},"geometry":{"x":121.44784279341417,"y":23.745846274791116}},{"attributes":{"OBJECTID":24247,"LANDMARKID":"1001500000838","LANDMARKCO":"603","LANDMARKNA":"鳳興旅社","LANDMARKAD":"1001502","ADDRESS":"花蓮縣鳳林鎮成功街165號","TEL":"03-8762052","COUNTYNAME":"花蓮縣","TOWNNAME":"鳳林鎮","MARKTYPE":"996","Class":"6"},"geometry":{"x":121.44796835042021,"y":23.747616910789624}},{"attributes":{"OBJECTID":24248,"LANDMARKID":"1001500000744","LANDMARKCO":"503","LANDMARKNA":"一村香草屋","LANDMARKAD":"1001502","ADDRESS":"花蓮縣鳳林鎮大榮二路20號","TEL":"03-8763533","COUNTYNAME":"花蓮縣","TOWNNAME":"鳳林鎮","MARKTYPE":"995","Class":"5"},"geometry":{"x":121.45637562447979,"y":23.743253204440418}},{"attributes":{"OBJECTID":24249,"LANDMARKID":"1001500000231","LANDMARKCO":"108","LANDMARKNA":"花蓮縣萬榮鄉公所","LANDMARKAD":"1001512","ADDRESS":"花蓮縣萬榮鄉萬榮村19號","TEL":"03-8751321","COUNTYNAME":"花蓮縣","TOWNNAME":"萬榮鄉","MARKTYPE":"991","Class":"1"},"geometry":{"x":121.40904496549877,"y":23.716437079643345}},{"attributes":{"OBJECTID":24250,"LANDMARKID":"1001500000065","LANDMARKCO":"103","LANDMARKNA":"花蓮縣萬榮鄉鄉民代表會","LANDMARKAD":"1001512","ADDRESS":"花蓮縣萬榮鄉萬榮村19號3樓","TEL":"03-8751119","COUNTYNAME":"花蓮縣","TOWNNAME":"萬榮鄉","MARKTYPE":"991","Class":"1"},"geometry":{"x":121.41114278618601,"y":23.71471764664529}},{"attributes":{"OBJECTID":24251,"LANDMARKID":"1001500000177","LANDMARKCO":"107","LANDMARKNA":"花蓮縣警察局萬榮分駐所","LANDMARKAD":"1001512","ADDRESS":"花蓮縣萬榮鄉萬榮村14之1號","TEL":"03-8751549","COUNTYNAME":"花蓮縣","TOWNNAME":"萬榮鄉","MARKTYPE":"991","Class":"1"},"geometry":{"x":121.40857231610704,"y":23.717523133336687}},{"attributes":{"OBJECTID":24252,"LANDMARKID":"1001500000178","LANDMARKCO":"107","LANDMARKNA":"花蓮縣警察局紅葉派出所","LANDMARKAD":"1001512","ADDRESS":"花蓮縣萬榮鄉紅葉村1鄰11號","TEL":"03-8871372","COUNTYNAME":"花蓮縣","TOWNNAME":"萬榮鄉","MARKTYPE":"991","Class":"1"},"geometry":{"x":121.34532046178555,"y":23.495359144883754}},{"attributes":{"OBJECTID":24253,"LANDMARKID":"1001500000179","LANDMARKCO":"107","LANDMARKNA":"花蓮縣警察局西林派出所","LANDMARKAD":"1001512","ADDRESS":"花蓮縣萬榮鄉西林村8鄰西林村130號","TEL":"03-8771116","COUNTYNAME":"花蓮縣","TOWNNAME":"萬榮鄉","MARKTYPE":"991","Class":"1"},"geometry":{"x":121.44332891860036,"y":23.808171533122916}},{"attributes":{"OBJECTID":24254,"LANDMARKID":"1001500000102","LANDMARKCO":"106","LANDMARKNA":"花蓮縣萬榮鄉戶政事務所","LANDMARKAD":"1001512","ADDRESS":"花蓮縣萬榮鄉萬榮村1鄰12號","TEL":"03-8751488","COUNTYNAME":"花蓮縣","TOWNNAME":"萬榮鄉","MARKTYPE":"991","Class":"1"},"geometry":{"x":121.40968998616422,"y":23.716072472582269}},{"attributes":{"OBJECTID":24255,"LANDMARKID":"1001500000042","LANDMARKCO":"101","LANDMARKNA":"林務局花蓮林區管理處萬榮工作站","LANDMARKAD":"1001512","ADDRESS":"花蓮縣鳳林鎮森榮里林森路99號","TEL":"03-8751704","COUNTYNAME":"花蓮縣","TOWNNAME":"萬榮鄉","MARKTYPE":"991","Class":"1"},"geometry":{"x":121.23637169644829,"y":23.750299405387153}},{"attributes":{"OBJECTID":24256,"LANDMARKID":"1001500000054","LANDMARKCO":"103","LANDMARKNA":"花蓮縣萬榮鄉衛生所","LANDMARKAD":"1001512","ADDRESS":"花蓮縣萬榮鄉萬榮村12號","TEL":"03-8751651","COUNTYNAME":"花蓮縣","TOWNNAME":"萬榮鄉","MARKTYPE":"991","Class":"1"},"geometry":{"x":121.40968017907369,"y":23.716072524737278}},{"attributes":{"OBJECTID":24257,"LANDMARKID":"1001500000414","LANDMARKCO":"205","LANDMARKNA":"林田山林業文物展示館","LANDMARKAD":"1001512","ADDRESS":"花蓮縣鳳林鎮林森路20號","TEL":"03-8751703","COUNTYNAME":"花蓮縣","TOWNNAME":"萬榮鄉","MARKTYPE":"992","Class":"2"},"geometry":{"x":121.39887610386039,"y":23.718075467945496}},{"attributes":{"OBJECTID":24258,"LANDMARKID":"1001500000412","LANDMARKCO":"204","LANDMARKNA":"花蓮縣立圖書館萬榮分館","LANDMARKAD":"1001512","ADDRESS":"花蓮縣萬榮鄉2鄰23號","TEL":" ","COUNTYNAME":"花蓮縣","TOWNNAME":"萬榮鄉","MARKTYPE":"992","Class":"2"},"geometry":{"x":121.4101087501415,"y":23.714711242849692}},{"attributes":{"OBJECTID":24259,"LANDMARKID":"1001500000333","LANDMARKCO":"203","LANDMARKNA":"縣立萬榮國小","LANDMARKAD":"1001512","ADDRESS":"花蓮縣萬榮鄉萬榮村2鄰31號","TEL":"03-8751449","COUNTYNAME":"花蓮縣","TOWNNAME":"萬榮鄉","MARKTYPE":"992","Class":"2"},"geometry":{"x":121.41101055872433,"y":23.715523678647322}},{"attributes":{"OBJECTID":24260,"LANDMARKID":"1001500000334","LANDMARKCO":"203","LANDMARKNA":"縣立明利國小","LANDMARKAD":"1001512","ADDRESS":"花蓮縣萬榮鄉明利村35號","TEL":"03-8751048","COUNTYNAME":"花蓮縣","TOWNNAME":"萬榮鄉","MARKTYPE":"992","Class":"2"},"geometry":{"x":121.41301251650776,"y":23.70549735178437}},{"attributes":{"OBJECTID":24261,"LANDMARKID":"1001500000335","LANDMARKCO":"203","LANDMARKNA":"縣立紅葉國小","LANDMARKAD":"1001512","ADDRESS":"花蓮縣萬榮鄉紅葉村4號","TEL":"03-8872784","COUNTYNAME":"花蓮縣","TOWNNAME":"萬榮鄉","MARKTYPE":"992","Class":"2"},"geometry":{"x":121.34575680745174,"y":23.49454449977587}},{"attributes":{"OBJECTID":24262,"LANDMARKID":"1001500000336","LANDMARKCO":"203","LANDMARKNA":"縣立見晴國小","LANDMARKAD":"1001512","ADDRESS":"花蓮縣萬榮鄉見晴村89號","TEL":"03-8771574","COUNTYNAME":"花蓮縣","TOWNNAME":"萬榮鄉","MARKTYPE":"992","Class":"2"},"geometry":{"x":121.45189255706339,"y":23.783675613590859}},{"attributes":{"OBJECTID":24263,"LANDMARKID":"1001500000337","LANDMARKCO":"203","LANDMARKNA":"縣立西林國小","LANDMARKAD":"1001512","ADDRESS":"花蓮縣萬榮鄉西林村8鄰114號","TEL":"03-8771064","COUNTYNAME":"花蓮縣","TOWNNAME":"萬榮鄉","MARKTYPE":"992","Class":"2"},"geometry":{"x":121.44100616032635,"y":23.811427561025532}},{"attributes":{"OBJECTID":24264,"LANDMARKID":"1001500000338","LANDMARKCO":"203","LANDMARKNA":"縣立森榮國小","LANDMARKAD":"1001512","ADDRESS":"花蓮縣萬榮鄉","TEL":" ","COUNTYNAME":"花蓮縣","TOWNNAME":"萬榮鄉","MARKTYPE":"992","Class":"2"},"geometry":{"x":121.3983059464435,"y":23.716464190882071}},{"attributes":{"OBJECTID":24265,"LANDMARKID":"1001500000468","LANDMARKCO":"303","LANDMARKNA":"富源森林遊樂區服務中心停車場","LANDMARKAD":"1001512","ADDRESS":"花蓮縣瑞穗鄉","TEL":" ","COUNTYNAME":"花蓮縣","TOWNNAME":"萬榮鄉","MARKTYPE":"993","Class":"303"},"geometry":{"x":121.35446469113346,"y":23.588697523259672}},{"attributes":{"OBJECTID":24266,"LANDMARKID":"1001500001369","LANDMARKCO":"604","LANDMARKNA":"江布南山莊民宿","LANDMARKAD":"1001512","ADDRESS":"花蓮縣萬榮鄉紅葉村紅葉17號","TEL":"03-8873272","COUNTYNAME":"花蓮縣","TOWNNAME":"萬榮鄉","MARKTYPE":"996","Class":"6"},"geometry":{"x":121.34428159222843,"y":23.495442314141012}},{"attributes":{"OBJECTID":24267,"LANDMARKID":"1001500000776","LANDMARKCO":"508","LANDMARKNA":"瑞穗溫泉山莊","LANDMARKAD":"1001512","ADDRESS":"花蓮縣萬榮鄉紅葉村紅葉23號","TEL":"03-8872170","COUNTYNAME":"花蓮縣","TOWNNAME":"萬榮鄉","MARKTYPE":"995","Class":"5"},"geometry":{"x":121.3436560850312,"y":23.496554208413492}},{"attributes":{"OBJECTID":24268,"LANDMARKID":"1001500000777","LANDMARKCO":"508","LANDMARKNA":"瑞穗溫泉(外溫泉)","LANDMARKAD":"1001512","ADDRESS":"花蓮縣萬榮鄉","TEL":" ","COUNTYNAME":"花蓮縣","TOWNNAME":"萬榮鄉","MARKTYPE":"995","Class":"5"},"geometry":{"x":121.34422688484588,"y":23.496993356840971}},{"attributes":{"OBJECTID":24269,"LANDMARKID":"1001500000778","LANDMARKCO":"508","LANDMARKNA":"江布南溫泉山莊","LANDMARKAD":"1001512","ADDRESS":"花蓮縣萬榮鄉紅葉村17號","TEL":"0911-277317","COUNTYNAME":"花蓮縣","TOWNNAME":"萬榮鄉","MARKTYPE":"995","Class":"5"},"geometry":{"x":121.3442540055355,"y":23.49533456254612}},{"attributes":{"OBJECTID":24270,"LANDMARKID":"1001500000779","LANDMARKCO":"508","LANDMARKNA":"椰子林溫泉飯店","LANDMARKAD":"1001512","ADDRESS":"花蓮縣瑞穗鄉溫泉路三段199號","TEL":"0937-912051","COUNTYNAME":"花蓮縣","TOWNNAME":"萬榮鄉","MARKTYPE":"995","Class":"5"},"geometry":{"x":121.34593243204806,"y":23.495180557312402}},{"attributes":{"OBJECTID":24271,"LANDMARKID":"1001500000825","LANDMARKCO":"513","LANDMARKNA":"丹大山","LANDMARKAD":"1001512","ADDRESS":"花蓮縣萬榮鄉","TEL":" ","COUNTYNAME":"花蓮縣","TOWNNAME":"萬榮鄉","MARKTYPE":"995","Class":"5"},"geometry":{"x":121.21355244277528,"y":23.600403936014729}},{"attributes":{"OBJECTID":24272,"LANDMARKID":"1001500000826","LANDMARKCO":"513","LANDMARKNA":"六順山","LANDMARKAD":"1001512","ADDRESS":"花蓮縣萬榮鄉","TEL":" ","COUNTYNAME":"花蓮縣","TOWNNAME":"萬榮鄉","MARKTYPE":"995","Class":"5"},"geometry":{"x":121.23956381422911,"y":23.724495963742683}},{"attributes":{"OBJECTID":24273,"LANDMARKID":"1001500000827","LANDMARKCO":"513","LANDMARKNA":"安東軍山","LANDMARKAD":"1001512","ADDRESS":"花蓮縣萬榮鄉","TEL":" ","COUNTYNAME":"花蓮縣","TOWNNAME":"萬榮鄉","MARKTYPE":"995","Class":"5"},"geometry":{"x":121.26612970877395,"y":23.872703037504628}},{"attributes":{"OBJECTID":24274,"LANDMARKID":"1001500000607","LANDMARKCO":"405","LANDMARKNA":"中油加油站-馬太鞍加油站(中油自營)","LANDMARKAD":"1001507","ADDRESS":"花蓮縣光復鄉林森路300號","TEL":"03-8700125","COUNTYNAME":"花蓮縣","TOWNNAME":"光復鄉","MARKTYPE":"994","Class":"4"},"geometry":{"x":121.42326783824277,"y":23.672606000824231}},{"attributes":{"OBJECTID":24275,"LANDMARKID":"1001500000608","LANDMARKCO":"405","LANDMARKNA":"中油加油站-光復站(中油自營)","LANDMARKAD":"1001507","ADDRESS":"花蓮縣光復鄉中山路二段340號","TEL":"03-8701070","COUNTYNAME":"花蓮縣","TOWNNAME":"光復鄉","MARKTYPE":"994","Class":"4"},"geometry":{"x":121.42471126674081,"y":23.667580154408281}},{"attributes":{"OBJECTID":24276,"LANDMARKID":"1001500000609","LANDMARKCO":"405","LANDMARKNA":"台糖加油站-大進站(中油)","LANDMARKAD":"1001507","ADDRESS":"花蓮縣光復鄉中山路一段232號","TEL":" ","COUNTYNAME":"花蓮縣","TOWNNAME":"光復鄉","MARKTYPE":"994","Class":"4"},"geometry":{"x":121.41784873892615,"y":23.653493298911858}},{"attributes":{"OBJECTID":24277,"LANDMARKID":"1001500000762","LANDMARKCO":"506","LANDMARKNA":"文旦觀光果園","LANDMARKAD":"1001507","ADDRESS":"花蓮縣光復鄉大興村民權街8號","TEL":"03-8701586","COUNTYNAME":"花蓮縣","TOWNNAME":"光復鄉","MARKTYPE":"995","Class":"5"},"geometry":{"x":121.48798381856619,"y":23.687940511922292}},{"attributes":{"OBJECTID":24278,"LANDMARKID":"1001500000763","LANDMARKCO":"506","LANDMARKNA":"水璉柳橙觀光果園","LANDMARKAD":"1001507","ADDRESS":"花蓮縣光復鄉大興村民權街8號","TEL":"03-8701586","COUNTYNAME":"花蓮縣","TOWNNAME":"光復鄉","MARKTYPE":"995","Class":"5"},"geometry":{"x":121.38963969056196,"y":23.637071158466767}},{"attributes":{"OBJECTID":24279,"LANDMARKID":"1001500000710","LANDMARKCO":"408","LANDMARKNA":"郵局-光復郵局","LANDMARKAD":"1001507","ADDRESS":"花蓮縣光復鄉中正路1段124號","TEL":"(03)8701-048","COUNTYNAME":"花蓮縣","TOWNNAME":"光復鄉","MARKTYPE":"994","Class":"4"},"geometry":{"x":121.42481128458287,"y":23.665214995597523}},{"attributes":{"OBJECTID":24280,"LANDMARKID":"1001500000711","LANDMARKCO":"408","LANDMARKNA":"郵局-光復富田郵局","LANDMARKAD":"1001507","ADDRESS":"花蓮縣光復鄉富田一街36號之1","TEL":"(03)8701-661","COUNTYNAME":"花蓮縣","TOWNNAME":"光復鄉","MARKTYPE":"994","Class":"4"},"geometry":{"x":121.45122472930919,"y":23.658837510356232}},{"attributes":{"OBJECTID":24281,"LANDMARKID":"1001500000720","LANDMARKCO":"409","LANDMARKNA":"光豐地區農會","LANDMARKAD":"1001507","ADDRESS":"花連縣光復鄉大華村中華路193號","TEL":"03-870223","COUNTYNAME":"花蓮縣","TOWNNAME":"光復鄉","MARKTYPE":"994","Class":"4"},"geometry":{"x":121.42261634439414,"y":23.666773996438067}},{"attributes":{"OBJECTID":24282,"LANDMARKID":"1001500000567","LANDMARKCO":"404","LANDMARKNA":"台灣省自來水光復營運所","LANDMARKAD":"1001507","ADDRESS":"花蓮縣光復鄉中興路273號","TEL":" ","COUNTYNAME":"花蓮縣","TOWNNAME":"光復鄉","MARKTYPE":"994","Class":"4"},"geometry":{"x":121.4201822853077,"y":23.66224274190871}},{"attributes":{"OBJECTID":24283,"LANDMARKID":"1001500000658","LANDMARKCO":"406","LANDMARKNA":"獅子公園","LANDMARKAD":"1001507","ADDRESS":"花蓮縣光復鄉","TEL":" ","COUNTYNAME":"花蓮縣","TOWNNAME":"光復鄉","MARKTYPE":"994","Class":"4"},"geometry":{"x":121.41018518596579,"y":23.68367488682474}},{"attributes":{"OBJECTID":24284,"LANDMARKID":"1001500000659","LANDMARKCO":"406","LANDMARKNA":"洪華公園","LANDMARKAD":"1001507","ADDRESS":"花蓮縣光復鄉","TEL":" ","COUNTYNAME":"花蓮縣","TOWNNAME":"光復鄉","MARKTYPE":"994","Class":"4"},"geometry":{"x":121.42327072905522,"y":23.666879632516878}},{"attributes":{"OBJECTID":24285,"LANDMARKID":"1001500000660","LANDMARKCO":"406","LANDMARKNA":"兒童公園","LANDMARKAD":"1001507","ADDRESS":"花蓮縣光復鄉","TEL":" ","COUNTYNAME":"花蓮縣","TOWNNAME":"光復鄉","MARKTYPE":"994","Class":"4"},"geometry":{"x":121.42237655315809,"y":23.666579605608849}},{"attributes":{"OBJECTID":24286,"LANDMARKID":"1001500000661","LANDMARKCO":"406","LANDMARKNA":"大同環河公園","LANDMARKAD":"1001507","ADDRESS":"花蓮縣光復鄉","TEL":" ","COUNTYNAME":"花蓮縣","TOWNNAME":"光復鄉","MARKTYPE":"994","Class":"4"},"geometry":{"x":121.4336815190851,"y":23.66243349777541}},{"attributes":{"OBJECTID":24287,"LANDMARKID":"1001500000238","LANDMARKCO":"108","LANDMARKNA":"花蓮縣光復鄉公所","LANDMARKAD":"1001507","ADDRESS":"花蓮縣光復鄉中華路257號","TEL":"03-8702206","COUNTYNAME":"花蓮縣","TOWNNAME":"光復鄉","MARKTYPE":"991","Class":"1"},"geometry":{"x":121.42348584701656,"y":23.669170960310922}},{"attributes":{"OBJECTID":24288,"LANDMARKID":"1001500000055","LANDMARKCO":"103","LANDMARKNA":"花蓮縣光復鄉鄉民代表會","LANDMARKAD":"1001507","ADDRESS":"花蓮縣光復鄉中興路542號","TEL":"03-8700130","COUNTYNAME":"花蓮縣","TOWNNAME":"光復鄉","MARKTYPE":"991","Class":"1"},"geometry":{"x":121.42262573919294,"y":23.66944652865546}},{"attributes":{"OBJECTID":24289,"LANDMARKID":"1001500000121","LANDMARKCO":"107","LANDMARKNA":"花蓮縣消防局光復消防分隊","LANDMARKAD":"1001507","ADDRESS":"花蓮縣光復鄉光華街1號","TEL":"03-8701719","COUNTYNAME":"花蓮縣","TOWNNAME":"光復鄉","MARKTYPE":"991","Class":"1"},"geometry":{"x":121.42467733433352,"y":23.665552512921625}},{"attributes":{"OBJECTID":24290,"LANDMARKID":"1001500000122","LANDMARKCO":"107","LANDMARKNA":"花蓮縣警察局大富派出所","LANDMARKAD":"1001507","ADDRESS":"花蓮縣光復鄉大富村中山路一段23號","TEL":"03-8731093","COUNTYNAME":"花蓮縣","TOWNNAME":"光復鄉","MARKTYPE":"991","Class":"1"},"geometry":{"x":121.3908205301868,"y":23.602795593568249}},{"attributes":{"OBJECTID":24291,"LANDMARKID":"1001500000123","LANDMARKCO":"107","LANDMARKNA":"花蓮縣警察局富田派出所","LANDMARKAD":"1001507","ADDRESS":"花蓮縣光復鄉北富村中正路二段55號","TEL":"03-8702623","COUNTYNAME":"花蓮縣","TOWNNAME":"光復鄉","MARKTYPE":"991","Class":"1"},"geometry":{"x":121.44930015520477,"y":23.660788300503786}},{"attributes":{"OBJECTID":24292,"LANDMARKID":"1001500000124","LANDMARKCO":"107","LANDMARKNA":"花蓮縣警察局光復分駐所","LANDMARKAD":"1001507","ADDRESS":"花蓮縣光復鄉大華村中正路一段127號","TEL":"03-8701074","COUNTYNAME":"花蓮縣","TOWNNAME":"光復鄉","MARKTYPE":"991","Class":"1"},"geometry":{"x":121.43196283251609,"y":23.667160520412686}},{"attributes":{"OBJECTID":24293,"LANDMARKID":"1001500000110","LANDMARKCO":"106","LANDMARKNA":"花蓮縣光復鄉戶政事務所","LANDMARKAD":"1001507","ADDRESS":"花蓮縣光復鄉中正路一段129號","TEL":"03-8701164","COUNTYNAME":"花蓮縣","TOWNNAME":"光復鄉","MARKTYPE":"991","Class":"1"},"geometry":{"x":121.42508793101383,"y":23.665377256498029}},{"attributes":{"OBJECTID":24294,"LANDMARKID":"1001500000052","LANDMARKCO":"103","LANDMARKNA":"花蓮縣光復鄉衛生所","LANDMARKAD":"1001507","ADDRESS":"花蓮縣光復鄉大馬村中學街158號","TEL":"03-8301114","COUNTYNAME":"花蓮縣","TOWNNAME":"光復鄉","MARKTYPE":"991","Class":"1"},"geometry":{"x":121.42593553994031,"y":23.671874062590046}},{"attributes":{"OBJECTID":24295,"LANDMARKID":"1001500000043","LANDMARKCO":"101","LANDMARKNA":"台灣自強外役監獄","LANDMARKAD":"1001507","ADDRESS":"花蓮縣光復鄉大全村建國路1號","TEL":"03-8703914","COUNTYNAME":"花蓮縣","TOWNNAME":"光復鄉","MARKTYPE":"991","Class":"1"},"geometry":{"x":121.42152316130722,"y":23.60325630204543}},{"attributes":{"OBJECTID":24296,"LANDMARKID":"1001500000411","LANDMARKCO":"204","LANDMARKNA":"花蓮縣立圖書館光復分館","LANDMARKAD":"1001507","ADDRESS":"花蓮縣光復鄉中正路一段122號","TEL":" ","COUNTYNAME":"花蓮縣","TOWNNAME":"光復鄉","MARKTYPE":"992","Class":"2"},"geometry":{"x":121.42450211282612,"y":23.665280704772709}},{"attributes":{"OBJECTID":24297,"LANDMARKID":"1001500000302","LANDMARKCO":"203","LANDMARKNA":"縣立西富國小","LANDMARKAD":"1001507","ADDRESS":"花蓮縣光復鄉西富村民有街51巷3號","TEL":"03-8702765","COUNTYNAME":"花蓮縣","TOWNNAME":"光復鄉","MARKTYPE":"992","Class":"2"},"geometry":{"x":121.4300011061803,"y":23.636733279124517}},{"attributes":{"OBJECTID":24298,"LANDMARKID":"1001500000257","LANDMARKCO":"202","LANDMARKNA":"國立光復商工","LANDMARKAD":"1001507","ADDRESS":"花蓮縣光復鄉林森路100號","TEL":"03-8700245","COUNTYNAME":"花蓮縣","TOWNNAME":"光復鄉","MARKTYPE":"992","Class":"2"},"geometry":{"x":121.42816439926345,"y":23.667986600015681}},{"attributes":{"OBJECTID":24299,"LANDMARKID":"1001500000293","LANDMARKCO":"203","LANDMARKNA":"縣立富源國中","LANDMARKAD":"1001507","ADDRESS":"花蓮縣光復鄉大富村中山路一段2號","TEL":"03-8811002","COUNTYNAME":"花蓮縣","TOWNNAME":"光復鄉","MARKTYPE":"992","Class":"2"},"geometry":{"x":121.38439773278375,"y":23.58863690150449}},{"attributes":{"OBJECTID":24300,"LANDMARKID":"1001500000294","LANDMARKCO":"203","LANDMARKNA":"縣立光復國中","LANDMARKAD":"1001507","ADDRESS":"花蓮縣光復鄉大馬村林森路200號","TEL":"03-8701027","COUNTYNAME":"花蓮縣","TOWNNAME":"光復鄉","MARKTYPE":"992","Class":"2"},"geometry":{"x":121.42466381510171,"y":23.670789865116713}},{"attributes":{"OBJECTID":24301,"LANDMARKID":"1001500000295","LANDMARKCO":"203","LANDMARKNA":"縣立光復國小","LANDMARKAD":"1001507","ADDRESS":"花蓮縣光復鄉大馬村中山路三段75號","TEL":"03-8701029","COUNTYNAME":"花蓮縣","TOWNNAME":"光復鄉","MARKTYPE":"992","Class":"2"},"geometry":{"x":121.42640254446015,"y":23.674219235054803}},{"attributes":{"OBJECTID":24302,"LANDMARKID":"1001500000296","LANDMARKCO":"203","LANDMARKNA":"縣立太巴塱國小","LANDMARKAD":"1001507","ADDRESS":"花蓮縣光復鄉中正路二段23號","TEL":"03-8701134","COUNTYNAME":"花蓮縣","TOWNNAME":"光復鄉","MARKTYPE":"992","Class":"2"},"geometry":{"x":121.44806251834883,"y":23.660434271233516}},{"attributes":{"OBJECTID":24303,"LANDMARKID":"1001500000297","LANDMARKCO":"203","LANDMARKNA":"縣立大富國小","LANDMARKAD":"1001507","ADDRESS":"花蓮縣光復鄉大富村明德路29巷12號","TEL":"03-8731210","COUNTYNAME":"花蓮縣","TOWNNAME":"光復鄉","MARKTYPE":"992","Class":"2"},"geometry":{"x":121.3908020078497,"y":23.607671846589348}},{"attributes":{"OBJECTID":24304,"LANDMARKID":"1001500000298","LANDMARKCO":"203","LANDMARKNA":"縣立大興國小","LANDMARKAD":"1001507","ADDRESS":"花蓮縣光復鄉大興村民權街17號","TEL":"03-8702987","COUNTYNAME":"花蓮縣","TOWNNAME":"光復鄉","MARKTYPE":"992","Class":"2"},"geometry":{"x":121.39804625971482,"y":23.631946491871734}},{"attributes":{"OBJECTID":24305,"LANDMARKID":"1001500000299","LANDMARKCO":"203","LANDMARKNA":"縣立大進國小","LANDMARKAD":"1001507","ADDRESS":"花蓮縣光復鄉大進村糖廠街4號","TEL":"03-8701049","COUNTYNAME":"花蓮縣","TOWNNAME":"光復鄉","MARKTYPE":"992","Class":"2"},"geometry":{"x":121.41963410263455,"y":23.65473667547684}},{"attributes":{"OBJECTID":24306,"LANDMARKID":"1001500000300","LANDMARKCO":"203","LANDMARKNA":"縣立東富國小","LANDMARKAD":"1001507","ADDRESS":"花蓮縣光復鄉","TEL":" ","COUNTYNAME":"花蓮縣","TOWNNAME":"光復鄉","MARKTYPE":"992","Class":"2"},"geometry":{"x":121.48227390443282,"y":23.684708983713175}},{"attributes":{"OBJECTID":24307,"LANDMARKID":"1001500000301","LANDMARKCO":"203","LANDMARKNA":"縣立大全國小","LANDMARKAD":"1001507","ADDRESS":"花蓮縣光復鄉","TEL":" ","COUNTYNAME":"花蓮縣","TOWNNAME":"光復鄉","MARKTYPE":"992","Class":"2"},"geometry":{"x":121.41833982364565,"y":23.651756338229355}},{"attributes":{"OBJECTID":24308,"LANDMARKID":"1001500000459","LANDMARKCO":"302","LANDMARKNA":"花蓮汽車客運光復站","LANDMARKAD":"1001507","ADDRESS":"花蓮縣光復鄉中正路一段149號","TEL":" ","COUNTYNAME":"花蓮縣","TOWNNAME":"光復鄉","MARKTYPE":"993","Class":"302"},"geometry":{"x":121.42611640936926,"y":23.665069613859753}},{"attributes":{"OBJECTID":24309,"LANDMARKID":"1001500000485","LANDMARKCO":"303","LANDMARKNA":"清水公園停車場","LANDMARKAD":"1001507","ADDRESS":"花蓮縣光復鄉","TEL":" ","COUNTYNAME":"花蓮縣","TOWNNAME":"光復鄉","MARKTYPE":"993","Class":"303"},"geometry":{"x":121.40983217443564,"y":23.655723980001152}},{"attributes":{"OBJECTID":24310,"LANDMARKID":"1001500000486","LANDMARKCO":"303","LANDMARKNA":"環河公園停車場","LANDMARKAD":"1001507","ADDRESS":"花蓮縣光復鄉","TEL":" ","COUNTYNAME":"花蓮縣","TOWNNAME":"光復鄉","MARKTYPE":"993","Class":"303"},"geometry":{"x":121.42094476845618,"y":23.659198020831322}},{"attributes":{"OBJECTID":24311,"LANDMARKID":"1001500000487","LANDMARKCO":"303","LANDMARKNA":"花蓮糖廠大客車停車場","LANDMARKAD":"1001507","ADDRESS":"花蓮縣光復鄉","TEL":" ","COUNTYNAME":"花蓮縣","TOWNNAME":"光復鄉","MARKTYPE":"993","Class":"303"},"geometry":{"x":121.42175045092762,"y":23.658009066994612}},{"attributes":{"OBJECTID":24312,"LANDMARKID":"1001500000488","LANDMARKCO":"303","LANDMARKNA":"花蓮糖廠小客車停車場","LANDMARKAD":"1001507","ADDRESS":"花蓮縣光復鄉","TEL":" ","COUNTYNAME":"花蓮縣","TOWNNAME":"光復鄉","MARKTYPE":"993","Class":"303"},"geometry":{"x":121.42185596202688,"y":23.657855780551973}},{"attributes":{"OBJECTID":24313,"LANDMARKID":"1001500000489","LANDMARKCO":"303","LANDMARKNA":"光復鄉停車場","LANDMARKAD":"1001507","ADDRESS":"花蓮縣光復鄉","TEL":" ","COUNTYNAME":"花蓮縣","TOWNNAME":"光復鄉","MARKTYPE":"993","Class":"303"},"geometry":{"x":121.42223751800798,"y":23.667342614411339}},{"attributes":{"OBJECTID":24314,"LANDMARKID":"1001500000490","LANDMARKCO":"303","LANDMARKNA":"光復鄉立體停車場","LANDMARKAD":"1001507","ADDRESS":"花蓮縣光復鄉","TEL":" ","COUNTYNAME":"花蓮縣","TOWNNAME":"光復鄉","MARKTYPE":"993","Class":"303"},"geometry":{"x":121.42446939393636,"y":23.667279909041042}},{"attributes":{"OBJECTID":24315,"LANDMARKID":"1001500000443","LANDMARKCO":"301","LANDMARKNA":"大富火車站","LANDMARKAD":"1001507","ADDRESS":"花蓮縣光復鄉","TEL":" ","COUNTYNAME":"花蓮縣","TOWNNAME":"光復鄉","MARKTYPE":"993","Class":"301"},"geometry":{"x":121.38962194290079,"y":23.605682390380842}},{"attributes":{"OBJECTID":24316,"LANDMARKID":"1001500000444","LANDMARKCO":"301","LANDMARKNA":"光復火車站","LANDMARKAD":"1001507","ADDRESS":"花蓮縣光復鄉中正路一段2之1號","TEL":"03-8704143","COUNTYNAME":"花蓮縣","TOWNNAME":"光復鄉","MARKTYPE":"993","Class":"301"},"geometry":{"x":121.42118365010808,"y":23.666326361835079}},{"attributes":{"OBJECTID":24317,"LANDMARKID":"1001500000556","LANDMARKCO":"402","LANDMARKNA":"中華電信-光復服務中心","LANDMARKAD":"1001507","ADDRESS":"花蓮縣光復鄉中正路一段132號","TEL":"123或0800-080-123","COUNTYNAME":"花蓮縣","TOWNNAME":"光復鄉","MARKTYPE":"994","Class":"4"},"geometry":{"x":121.42517014182795,"y":23.665169604708709}},{"attributes":{"OBJECTID":24318,"LANDMARKID":"1001500001328","LANDMARKCO":"604","LANDMARKNA":"綠園民宿","LANDMARKAD":"1001507","ADDRESS":"花蓮縣光復鄉大同村自強路72-1號","TEL":"03-8701376","COUNTYNAME":"花蓮縣","TOWNNAME":"光復鄉","MARKTYPE":"996","Class":"6"},"geometry":{"x":121.42831713681409,"y":23.666708581009161}},{"attributes":{"OBJECTID":24319,"LANDMARKID":"1001500001329","LANDMARKCO":"604","LANDMARKNA":"盛夏的軌跡山莊","LANDMARKAD":"1001507","ADDRESS":"花蓮縣光復鄉大同村佛祖街8巷5號","TEL":"03-8702629","COUNTYNAME":"花蓮縣","TOWNNAME":"光復鄉","MARKTYPE":"996","Class":"6"},"geometry":{"x":121.43260842303337,"y":23.664017354242407}},{"attributes":{"OBJECTID":24320,"LANDMARKID":"1001500001330","LANDMARKCO":"604","LANDMARKNA":"鐵塔民宿","LANDMARKAD":"1001507","ADDRESS":"花蓮縣光復鄉大安村中山路2段85號","TEL":"03-8700983","COUNTYNAME":"花蓮縣","TOWNNAME":"光復鄉","MARKTYPE":"996","Class":"6"},"geometry":{"x":121.42203027893395,"y":23.662756051497038}},{"attributes":{"OBJECTID":24321,"LANDMARKID":"1001500001331","LANDMARKCO":"604","LANDMARKNA":"馬錫山休閒山莊","LANDMARKAD":"1001507","ADDRESS":"花蓮縣光復鄉大華村大華街109巷70號","TEL":"0930-078368","COUNTYNAME":"花蓮縣","TOWNNAME":"光復鄉","MARKTYPE":"996","Class":"6"},"geometry":{"x":121.405999525295,"y":23.662252908451503}},{"attributes":{"OBJECTID":24322,"LANDMARKID":"1001500001332","LANDMARKCO":"604","LANDMARKNA":"砝傣岸民宿","LANDMARKAD":"1001507","ADDRESS":"花蓮縣光復鄉大進村中興路176巷1弄2號","TEL":"03-8700278","COUNTYNAME":"花蓮縣","TOWNNAME":"光復鄉","MARKTYPE":"996","Class":"6"},"geometry":{"x":121.41957797189691,"y":23.658054709342444}},{"attributes":{"OBJECTID":24323,"LANDMARKID":"1001500001333","LANDMARKCO":"604","LANDMARKNA":"馬太鞍驛棧","LANDMARKAD":"1001507","ADDRESS":"花蓮縣光復鄉大進村中興路176巷1弄6號","TEL":"03-8700368","COUNTYNAME":"花蓮縣","TOWNNAME":"光復鄉","MARKTYPE":"996","Class":"6"},"geometry":{"x":121.41957106421106,"y":23.658083728189144}},{"attributes":{"OBJECTID":24324,"LANDMARKID":"1001500001334","LANDMARKCO":"604","LANDMARKNA":"大眾民宿","LANDMARKAD":"1001507","ADDRESS":"花蓮縣光復鄉大進村中興路176巷1弄8號","TEL":"03-8701631","COUNTYNAME":"花蓮縣","TOWNNAME":"光復鄉","MARKTYPE":"996","Class":"6"},"geometry":{"x":121.41961033915143,"y":23.658169621815805}},{"attributes":{"OBJECTID":24325,"LANDMARKID":"1001500001335","LANDMARKCO":"604","LANDMARKNA":"幸福民宿","LANDMARKAD":"1001507","ADDRESS":"花蓮縣光復鄉大進村中興路200號","TEL":"0937-947823","COUNTYNAME":"花蓮縣","TOWNNAME":"光復鄉","MARKTYPE":"996","Class":"6"},"geometry":{"x":121.41927259572135,"y":23.658520044603613}},{"attributes":{"OBJECTID":24326,"LANDMARKID":"1001500001336","LANDMARKCO":"604","LANDMARKNA":"綠野仙蹤農莊民宿","LANDMARKAD":"1001507","ADDRESS":"花蓮縣光復鄉大興村民生街1-6號","TEL":"03-8700787","COUNTYNAME":"花蓮縣","TOWNNAME":"光復鄉","MARKTYPE":"996","Class":"6"},"geometry":{"x":121.39327716250116,"y":23.62816699633489}},{"attributes":{"OBJECTID":24327,"LANDMARKID":"1001500001337","LANDMARKCO":"604","LANDMARKNA":"有意宿民宿","LANDMARKAD":"1001507","ADDRESS":"花蓮縣光復鄉西富村富愛街51-1號","TEL":"03-8705680","COUNTYNAME":"花蓮縣","TOWNNAME":"光復鄉","MARKTYPE":"996","Class":"6"},"geometry":{"x":121.44767276435275,"y":23.658130770444156}},{"attributes":{"OBJECTID":24328,"LANDMARKID":"1001500001338","LANDMARKCO":"604","LANDMARKNA":"上大和民宿","LANDMARKAD":"1001507","ADDRESS":"花蓮縣光復鄉大平村中學街78號","TEL":"03-8706058","COUNTYNAME":"花蓮縣","TOWNNAME":"光復鄉","MARKTYPE":"996","Class":"6"},"geometry":{"x":121.42879185843856,"y":23.670627267771337}},{"attributes":{"OBJECTID":24329,"LANDMARKID":"1001500001339","LANDMARKCO":"604","LANDMARKNA":"馬太鞍拉藍的家","LANDMARKAD":"1001507","ADDRESS":"花蓮縣光復鄉大全村大全街42巷15號","TEL":"03-8700015","COUNTYNAME":"花蓮縣","TOWNNAME":"光復鄉","MARKTYPE":"996","Class":"6"},"geometry":{"x":121.41279346541467,"y":23.658481598918797}},{"attributes":{"OBJECTID":24330,"LANDMARKID":"1001500001340","LANDMARKCO":"604","LANDMARKNA":"欣綠石頭屋民宿","LANDMARKAD":"1001507","ADDRESS":"花蓮縣光復鄉大全村大全街60號","TEL":"03-8700430","COUNTYNAME":"花蓮縣","TOWNNAME":"光復鄉","MARKTYPE":"996","Class":"6"},"geometry":{"x":121.41013320973214,"y":23.657226318805666}},{"attributes":{"OBJECTID":24331,"LANDMARKID":"1001500001341","LANDMARKCO":"604","LANDMARKNA":"大興民宿","LANDMARKAD":"1001507","ADDRESS":"花蓮縣光復鄉大興村民權路49巷5號","TEL":"03-8882765","COUNTYNAME":"花蓮縣","TOWNNAME":"光復鄉","MARKTYPE":"996","Class":"6"},"geometry":{"x":121.39105402178092,"y":23.63435062779169}},{"attributes":{"OBJECTID":24332,"LANDMARKID":"1001500001342","LANDMARKCO":"604","LANDMARKNA":"綠生活民宿","LANDMARKAD":"1001507","ADDRESS":"花蓮縣光復鄉大豐村大豐96號","TEL":"03-8731436","COUNTYNAME":"花蓮縣","TOWNNAME":"光復鄉","MARKTYPE":"996","Class":"6"},"geometry":{"x":121.4170724227464,"y":23.646470979469026}},{"attributes":{"OBJECTID":24333,"LANDMARKID":"1001500000849","LANDMARKCO":"603","LANDMARKNA":"東泰旅社","LANDMARKAD":"1001507","ADDRESS":"花蓮縣光復鄉中正路一段146號","TEL":"03-8701056","COUNTYNAME":"花蓮縣","TOWNNAME":"光復鄉","MARKTYPE":"996","Class":"6"},"geometry":{"x":121.42563174747852,"y":23.665046337747349}},{"attributes":{"OBJECTID":24334,"LANDMARKID":"1001500000751","LANDMARKCO":"505","LANDMARKNA":"光復鄉原野迷宮","LANDMARKAD":"1001507","ADDRESS":"花蓮縣光復鄉","TEL":"03-8702206","COUNTYNAME":"花蓮縣","TOWNNAME":"光復鄉","MARKTYPE":"995","Class":"5"},"geometry":{"x":121.41723298795947,"y":23.616044542794981}},{"attributes":{"OBJECTID":24335,"LANDMARKID":"1001500000610","LANDMARKCO":"405","LANDMARKNA":"中油加油站-豐濱站(中油自營)","LANDMARKAD":"1001508","ADDRESS":"花蓮縣豐濱鄉豐濱村光豐路53號","TEL":"03-8791134","COUNTYNAME":"花蓮縣","TOWNNAME":"豐濱鄉","MARKTYPE":"994","Class":"4"},"geometry":{"x":121.51961763709849,"y":23.602631847059953}},{"attributes":{"OBJECTID":24336,"LANDMARKID":"1001500000524","LANDMARKCO":"401","LANDMARKNA":"行政院衛生署花蓮醫院豐濱原住民分院","LANDMARKAD":"1001508","ADDRESS":"花蓮縣豐濱鄉光豐路41號","TEL":"03-8791385","COUNTYNAME":"花蓮縣","TOWNNAME":"豐濱鄉","MARKTYPE":"994","Class":"4"},"geometry":{"x":121.52175388806251,"y":23.601685564207742}},{"attributes":{"OBJECTID":24337,"LANDMARKID":"1001500000799","LANDMARKCO":"512","LANDMARKNA":"磯碕遊客服務中心","LANDMARKAD":"1001508","ADDRESS":"花蓮縣磯崎村2鄰磯崎村6之1號","TEL":"038-711251","COUNTYNAME":"花蓮縣","TOWNNAME":"豐濱鄉","MARKTYPE":"995","Class":"5"},"geometry":{"x":121.54609894683938,"y":23.708984368251958}},{"attributes":{"OBJECTID":24338,"LANDMARKID":"1001500000800","LANDMARKCO":"512","LANDMARKNA":"石梯坪遊客服務中心","LANDMARKAD":"1001508","ADDRESS":"花蓮縣豐濱鄉石梯坪52號","TEL":"038-781452","COUNTYNAME":"花蓮縣","TOWNNAME":"豐濱鄉","MARKTYPE":"995","Class":"5"},"geometry":{"x":121.51091616813405,"y":23.48569123637888}},{"attributes":{"OBJECTID":24339,"LANDMARKID":"1001500000712","LANDMARKCO":"408","LANDMARKNA":"郵局-豐濱郵局","LANDMARKAD":"1001508","ADDRESS":"花蓮縣豐濱鄉光豐路48號","TEL":"(03)8791-192","COUNTYNAME":"花蓮縣","TOWNNAME":"豐濱鄉","MARKTYPE":"994","Class":"4"},"geometry":{"x":121.52050019742653,"y":23.601823535201405}},{"attributes":{"OBJECTID":24340,"LANDMARKID":"1001500000657","LANDMARKCO":"406","LANDMARKNA":"豐濱河濱公園","LANDMARKAD":"1001508","ADDRESS":"花蓮縣豐濱鄉","TEL":" ","COUNTYNAME":"花蓮縣","TOWNNAME":"豐濱鄉","MARKTYPE":"994","Class":"4"},"geometry":{"x":121.51929709235246,"y":23.597839555307782}},{"attributes":{"OBJECTID":24341,"LANDMARKID":"1001500000053","LANDMARKCO":"103","LANDMARKNA":"花蓮縣豐濱鄉鄉民代表會","LANDMARKAD":"1001508","ADDRESS":"花蓮縣豐濱鄉民族街24號","TEL":"03-8791155","COUNTYNAME":"花蓮縣","TOWNNAME":"豐濱鄉","MARKTYPE":"991","Class":"1"},"geometry":{"x":121.52184121890433,"y":23.597711889398539}},{"attributes":{"OBJECTID":24342,"LANDMARKID":"1001500000119","LANDMARKCO":"107","LANDMARKNA":"花蓮縣消防局豐濱消防分隊","LANDMARKAD":"1001508","ADDRESS":"花蓮縣豐濱鄉三民路106號","TEL":"03-8791152","COUNTYNAME":"花蓮縣","TOWNNAME":"豐濱鄉","MARKTYPE":"991","Class":"1"},"geometry":{"x":121.52180767580064,"y":23.601053143871862}},{"attributes":{"OBJECTID":24343,"LANDMARKID":"1001500000120","LANDMARKCO":"107","LANDMARKNA":"花蓮縣警察局豐濱分駐所","LANDMARKAD":"1001508","ADDRESS":"花蓮縣豐濱鄉豐濱村三民路104號","TEL":"03-8791148","COUNTYNAME":"花蓮縣","TOWNNAME":"豐濱鄉","MARKTYPE":"991","Class":"1"},"geometry":{"x":121.5223521234696,"y":23.600517005494449}},{"attributes":{"OBJECTID":24344,"LANDMARKID":"1001500000109","LANDMARKCO":"106","LANDMARKNA":"花蓮縣豐濱鄉戶政事務所","LANDMARKAD":"1001508","ADDRESS":"花蓮縣豐濱鄉豐濱村3鄰三民路102號","TEL":"03-8791157","COUNTYNAME":"花蓮縣","TOWNNAME":"豐濱鄉","MARKTYPE":"991","Class":"1"},"geometry":{"x":121.52210261033554,"y":23.599787011338861}},{"attributes":{"OBJECTID":24345,"LANDMARKID":"1001500000237","LANDMARKCO":"108","LANDMARKNA":"花蓮縣豐濱鄉公所","LANDMARKAD":"1001508","ADDRESS":"花蓮縣豐濱鄉光豐路32號","TEL":"03-8791350","COUNTYNAME":"花蓮縣","TOWNNAME":"豐濱鄉","MARKTYPE":"991","Class":"1"},"geometry":{"x":121.51890821406266,"y":23.602417795194871}},{"attributes":{"OBJECTID":24346,"LANDMARKID":"1001500000125","LANDMARKCO":"107","LANDMARKNA":"花蓮縣警察局新社派出所","LANDMARKAD":"1001508","ADDRESS":"花蓮縣豐濱鄉新社村108號","TEL":"03-8711329","COUNTYNAME":"花蓮縣","TOWNNAME":"豐濱鄉","MARKTYPE":"991","Class":"1"},"geometry":{"x":121.53660575505059,"y":23.651575506032096}},{"attributes":{"OBJECTID":24347,"LANDMARKID":"1001500000126","LANDMARKCO":"107","LANDMARKNA":"花蓮縣警察局港口派出所","LANDMARKAD":"1001508","ADDRESS":"花蓮縣豐濱鄉港口村9鄰大港口29號","TEL":"03-8781046","COUNTYNAME":"花蓮縣","TOWNNAME":"豐濱鄉","MARKTYPE":"991","Class":"1"},"geometry":{"x":121.49603952001505,"y":23.469484652729971}},{"attributes":{"OBJECTID":24348,"LANDMARKID":"1001500000056","LANDMARKCO":"103","LANDMARKNA":"花蓮縣豐濱鄉衛生所","LANDMARKAD":"1001508","ADDRESS":"花蓮縣豐濱鄉豐濱村31鄰光豐路39號","TEL":"03-8791050","COUNTYNAME":"花蓮縣","TOWNNAME":"豐濱鄉","MARKTYPE":"991","Class":"1"},"geometry":{"x":121.52196873706001,"y":23.601593856222383}},{"attributes":{"OBJECTID":24349,"LANDMARKID":"1001500000410","LANDMARKCO":"204","LANDMARKNA":"花蓮縣立圖書館豐濱分館","LANDMARKAD":"1001508","ADDRESS":"花蓮縣豐濱鄉光豐路32號","TEL":" ","COUNTYNAME":"花蓮縣","TOWNNAME":"豐濱鄉","MARKTYPE":"992","Class":"2"},"geometry":{"x":121.51889813587461,"y":23.602392581579945}},{"attributes":{"OBJECTID":24350,"LANDMARKID":"1001500000303","LANDMARKCO":"203","LANDMARKNA":"縣立豐濱國小","LANDMARKAD":"1001508","ADDRESS":"花蓮縣豐濱鄉豐濱村民族街5號","TEL":"03-8791111","COUNTYNAME":"花蓮縣","TOWNNAME":"豐濱鄉","MARKTYPE":"992","Class":"2"},"geometry":{"x":121.5203841714267,"y":23.598082864299698}},{"attributes":{"OBJECTID":24351,"LANDMARKID":"1001500000304","LANDMARKCO":"203","LANDMARKNA":"縣立豐濱國中","LANDMARKAD":"1001508","ADDRESS":"花蓮縣豐濱鄉光豐路26號","TEL":"03-8791159","COUNTYNAME":"花蓮縣","TOWNNAME":"豐濱鄉","MARKTYPE":"992","Class":"2"},"geometry":{"x":121.5214422844425,"y":23.600694402307131}},{"attributes":{"OBJECTID":24352,"LANDMARKID":"1001500000305","LANDMARKCO":"203","LANDMARKNA":"縣立新社國小","LANDMARKAD":"1001508","ADDRESS":"花蓮縣豐濱鄉新社村150號","TEL":"03-8711138","COUNTYNAME":"花蓮縣","TOWNNAME":"豐濱鄉","MARKTYPE":"992","Class":"2"},"geometry":{"x":121.53582302540708,"y":23.651751936838526}},{"attributes":{"OBJECTID":24353,"LANDMARKID":"1001500000306","LANDMARKCO":"203","LANDMARKNA":"縣立港口國小","LANDMARKAD":"1001508","ADDRESS":"花蓮縣豐濱鄉港口村43號","TEL":"03-8781037","COUNTYNAME":"花蓮縣","TOWNNAME":"豐濱鄉","MARKTYPE":"992","Class":"2"},"geometry":{"x":121.49682218190674,"y":23.46803489181001}},{"attributes":{"OBJECTID":24354,"LANDMARKID":"1001500000307","LANDMARKCO":"203","LANDMARKNA":"縣立靜浦國小","LANDMARKAD":"1001508","ADDRESS":"花蓮縣豐濱鄉靜浦村64號","TEL":"03-8781021","COUNTYNAME":"花蓮縣","TOWNNAME":"豐濱鄉","MARKTYPE":"992","Class":"2"},"geometry":{"x":121.49508141481414,"y":23.461544372700743}},{"attributes":{"OBJECTID":24355,"LANDMARKID":"1001500000308","LANDMARKCO":"203","LANDMARKNA":"縣立磯崎國小","LANDMARKAD":"1001508","ADDRESS":"花蓮縣豐濱鄉","TEL":" ","COUNTYNAME":"花蓮縣","TOWNNAME":"豐濱鄉","MARKTYPE":"992","Class":"2"},"geometry":{"x":121.54776351014482,"y":23.707881447317565}},{"attributes":{"OBJECTID":24356,"LANDMARKID":"1001500000523","LANDMARKCO":"305","LANDMARKNA":"石梯漁港","LANDMARKAD":"1001508","ADDRESS":"花蓮縣豐濱鄉","TEL":" ","COUNTYNAME":"花蓮縣","TOWNNAME":"豐濱鄉","MARKTYPE":"993","Class":"305"},"geometry":{"x":121.50617617780084,"y":23.493163610460144}},{"attributes":{"OBJECTID":24357,"LANDMARKID":"1001500000458","LANDMARKCO":"302","LANDMARKNA":"花蓮汽車客運豐濱站","LANDMARKAD":"1001508","ADDRESS":"花蓮縣豐濱鄉三民路78號","TEL":" ","COUNTYNAME":"花蓮縣","TOWNNAME":"豐濱鄉","MARKTYPE":"993","Class":"302"},"geometry":{"x":121.52231435927528,"y":23.600360728444482}},{"attributes":{"OBJECTID":24358,"LANDMARKID":"1001500000491","LANDMARKCO":"303","LANDMARKNA":"北迴歸線休息區停車場","LANDMARKAD":"1001508","ADDRESS":"花蓮縣豐濱鄉靜埔村","TEL":" ","COUNTYNAME":"花蓮縣","TOWNNAME":"豐濱鄉","MARKTYPE":"993","Class":"303"},"geometry":{"x":121.49510969125556,"y":23.452655014359156}},{"attributes":{"OBJECTID":24359,"LANDMARKID":"1001500000492","LANDMARKCO":"303","LANDMARKNA":"石門遊憩區停車場","LANDMARKAD":"1001508","ADDRESS":"花蓮縣豐濱鄉石門洞","TEL":" ","COUNTYNAME":"花蓮縣","TOWNNAME":"豐濱鄉","MARKTYPE":"993","Class":"303"},"geometry":{"x":121.50550066806426,"y":23.534625932797738}},{"attributes":{"OBJECTID":24360,"LANDMARKID":"1001500000493","LANDMARKCO":"303","LANDMARKNA":"石梯遊憩區停車場","LANDMARKAD":"1001508","ADDRESS":"花蓮縣豐濱鄉港口村52號","TEL":" ","COUNTYNAME":"花蓮縣","TOWNNAME":"豐濱鄉","MARKTYPE":"993","Class":"303"},"geometry":{"x":121.50829564329835,"y":23.488920830747645}},{"attributes":{"OBJECTID":24361,"LANDMARKID":"1001500000494","LANDMARKCO":"303","LANDMARKNA":"石梯遊憩區北口停車場","LANDMARKAD":"1001508","ADDRESS":"花蓮縣豐濱鄉港口村","TEL":" ","COUNTYNAME":"花蓮縣","TOWNNAME":"豐濱鄉","MARKTYPE":"993","Class":"303"},"geometry":{"x":121.50812934167941,"y":23.491234892525}},{"attributes":{"OBJECTID":24362,"LANDMARKID":"1001500000495","LANDMARKCO":"303","LANDMARKNA":"芭崎休息區停車場","LANDMARKAD":"1001508","ADDRESS":"花蓮縣豐濱鄉芭崎","TEL":" ","COUNTYNAME":"花蓮縣","TOWNNAME":"豐濱鄉","MARKTYPE":"993","Class":"303"},"geometry":{"x":121.55630154240325,"y":23.733493700506383}},{"attributes":{"OBJECTID":24363,"LANDMARKID":"1001500000496","LANDMARKCO":"303","LANDMARKNA":"長虹橋遊憩區停車場","LANDMARKAD":"1001508","ADDRESS":"花蓮縣豐濱鄉港口村","TEL":" ","COUNTYNAME":"花蓮縣","TOWNNAME":"豐濱鄉","MARKTYPE":"993","Class":"303"},"geometry":{"x":121.49459803193665,"y":23.463720318460158}},{"attributes":{"OBJECTID":24364,"LANDMARKID":"1001500000497","LANDMARKCO":"303","LANDMARKNA":"磯崎海水浴場停車場","LANDMARKAD":"1001508","ADDRESS":"花蓮縣豐濱鄉磯崎村6之1號","TEL":" ","COUNTYNAME":"花蓮縣","TOWNNAME":"豐濱鄉","MARKTYPE":"993","Class":"303"},"geometry":{"x":121.54756246010513,"y":23.711717524395784}},{"attributes":{"OBJECTID":24365,"LANDMARKID":"1001500001319","LANDMARKCO":"604","LANDMARKNA":"沙漠風情","LANDMARKAD":"1001508","ADDRESS":"花蓮縣豐濱鄉港口村石梯灣117-1號","TEL":"03-8781134","COUNTYNAME":"花蓮縣","TOWNNAME":"豐濱鄉","MARKTYPE":"996","Class":"6"},"geometry":{"x":121.50971963460928,"y":23.488877541902752}},{"attributes":{"OBJECTID":24366,"LANDMARKID":"1001500001320","LANDMARKCO":"604","LANDMARKNA":"升火民宿","LANDMARKAD":"1001508","ADDRESS":"花蓮縣豐濱鄉港口村石梯灣117-2號","TEL":"03-8781437","COUNTYNAME":"花蓮縣","TOWNNAME":"豐濱鄉","MARKTYPE":"996","Class":"6"},"geometry":{"x":121.50978819840043,"y":23.488940317661786}},{"attributes":{"OBJECTID":24367,"LANDMARKID":"1001500001321","LANDMARKCO":"604","LANDMARKNA":"石梯灣118民宿","LANDMARKAD":"1001508","ADDRESS":"花蓮縣豐濱鄉港口村石梯灣118號","TEL":"03-8781076","COUNTYNAME":"花蓮縣","TOWNNAME":"豐濱鄉","MARKTYPE":"996","Class":"6"},"geometry":{"x":121.51101701681043,"y":23.488191293578243}},{"attributes":{"OBJECTID":24368,"LANDMARKID":"1001500001322","LANDMARKCO":"604","LANDMARKNA":"石梯緣民宿","LANDMARKAD":"1001508","ADDRESS":"花蓮縣豐濱鄉港口村石梯灣119號","TEL":"03-8781828","COUNTYNAME":"花蓮縣","TOWNNAME":"豐濱鄉","MARKTYPE":"996","Class":"6"},"geometry":{"x":121.51204359377917,"y":23.483746010141356}},{"attributes":{"OBJECTID":24369,"LANDMARKID":"1001500001323","LANDMARKCO":"604","LANDMARKNA":"千禧山莊民宿","LANDMARKAD":"1001508","ADDRESS":"花蓮縣豐濱鄉靜浦村三富橋52號","TEL":"03-8781517","COUNTYNAME":"花蓮縣","TOWNNAME":"豐濱鄉","MARKTYPE":"996","Class":"6"},"geometry":{"x":121.49548678996031,"y":23.442414764187223}},{"attributes":{"OBJECTID":24370,"LANDMARKID":"1001500001324","LANDMARKCO":"604","LANDMARKNA":"德蕾莎","LANDMARKAD":"1001508","ADDRESS":"花蓮縣豐濱鄉靜浦村靜浦9號","TEL":"03-8781560","COUNTYNAME":"花蓮縣","TOWNNAME":"豐濱鄉","MARKTYPE":"996","Class":"6"},"geometry":{"x":121.48938500877478,"y":23.465247513407888}},{"attributes":{"OBJECTID":24371,"LANDMARKID":"1001500001325","LANDMARKCO":"604","LANDMARKNA":"後湖水月渡假民宿","LANDMARKAD":"1001508","ADDRESS":"花蓮縣豐濱鄉磯崎村後湖19號","TEL":"03-8711295","COUNTYNAME":"花蓮縣","TOWNNAME":"豐濱鄉","MARKTYPE":"996","Class":"6"},"geometry":{"x":121.5452985919284,"y":23.712697063598991}},{"attributes":{"OBJECTID":24372,"LANDMARKID":"1001500001326","LANDMARKCO":"604","LANDMARKNA":"半月灣民宿","LANDMARKAD":"1001508","ADDRESS":"花蓮縣豐濱鄉磯崎村磯崎98號","TEL":"03-8711159","COUNTYNAME":"花蓮縣","TOWNNAME":"豐濱鄉","MARKTYPE":"996","Class":"6"},"geometry":{"x":121.54700663667305,"y":23.710165035607996}},{"attributes":{"OBJECTID":24373,"LANDMARKID":"1001500001327","LANDMARKCO":"604","LANDMARKNA":"海印民宿","LANDMARKAD":"1001508","ADDRESS":"花蓮縣豐濱鄉新社村新社212號","TEL":"0937-991583","COUNTYNAME":"花蓮縣","TOWNNAME":"豐濱鄉","MARKTYPE":"996","Class":"6"},"geometry":{"x":121.52980437810959,"y":23.636205161247588}},{"attributes":{"OBJECTID":24374,"LANDMARKID":"1001500000850","LANDMARKCO":"603","LANDMARKNA":"國賓旅社","LANDMARKAD":"1001508","ADDRESS":"花蓮縣豐濱鄉豐濱村三民路30號","TEL":"03-8791135","COUNTYNAME":"花蓮縣","TOWNNAME":"豐濱鄉","MARKTYPE":"996","Class":"6"},"geometry":{"x":121.52236155863608,"y":23.600393601556434}},{"attributes":{"OBJECTID":24375,"LANDMARKID":"1001500000735","LANDMARKCO":"503","LANDMARKNA":"月洞風景區","LANDMARKAD":"1001508","ADDRESS":"花蓮縣豐濱鄉","TEL":" ","COUNTYNAME":"花蓮縣","TOWNNAME":"豐濱鄉","MARKTYPE":"995","Class":"5"},"geometry":{"x":121.50799937981327,"y":23.480456342621238}},{"attributes":{"OBJECTID":24376,"LANDMARKID":"1001500000736","LANDMARKCO":"503","LANDMARKNA":"月洞遊憩區","LANDMARKAD":"1001508","ADDRESS":"花蓮縣豐濱鄉港口村石梯坪53號","TEL":"03-8781022","COUNTYNAME":"花蓮縣","TOWNNAME":"豐濱鄉","MARKTYPE":"995","Class":"5"},"geometry":{"x":121.50774048166087,"y":23.480031320460359}},{"attributes":{"OBJECTID":24377,"LANDMARKID":"1001500000737","LANDMARKCO":"503","LANDMARKNA":"秀姑巒溪泛舟終點","LANDMARKAD":"1001508","ADDRESS":"花蓮縣豐濱鄉","TEL":" ","COUNTYNAME":"花蓮縣","TOWNNAME":"豐濱鄉","MARKTYPE":"995","Class":"5"},"geometry":{"x":121.48974145255478,"y":23.468008741357909}},{"attributes":{"OBJECTID":24378,"LANDMARKID":"1001500000738","LANDMARKCO":"503","LANDMARKNA":"北回歸線標誌","LANDMARKAD":"1001508","ADDRESS":"花蓮縣豐濱鄉","TEL":" ","COUNTYNAME":"花蓮縣","TOWNNAME":"豐濱鄉","MARKTYPE":"995","Class":"5"},"geometry":{"x":121.49624220121889,"y":23.451329040501012}},{"attributes":{"OBJECTID":24379,"LANDMARKID":"1001500000790","LANDMARKCO":"509","LANDMARKNA":"磯崎海水浴場","LANDMARKAD":"1001508","ADDRESS":"花蓮縣豐濱鄉磯崎村","TEL":" ","COUNTYNAME":"花蓮縣","TOWNNAME":"豐濱鄉","MARKTYPE":"995","Class":"5"},"geometry":{"x":121.54964877397488,"y":23.701200110681985}},{"attributes":{"OBJECTID":24380,"LANDMARKID":"1001500000612","LANDMARKCO":"405","LANDMARKNA":"中油加油站-瑞穗站(中油自營)","LANDMARKAD":"1001509","ADDRESS":"花蓮縣瑞穗鄉瑞穗村中正南路105號","TEL":"03-8872201","COUNTYNAME":"花蓮縣","TOWNNAME":"瑞穗鄉","MARKTYPE":"994","Class":"4"},"geometry":{"x":121.37614739816681,"y":23.49097839154792}},{"attributes":{"OBJECTID":24381,"LANDMARKID":"1001500000613","LANDMARKCO":"405","LANDMARKNA":"中油加油站-富源站","LANDMARKAD":"1001509","ADDRESS":"花蓮縣瑞穗鄉富興村2鄰富興路222號","TEL":"03-8812352","COUNTYNAME":"花蓮縣","TOWNNAME":"瑞穗鄉","MARKTYPE":"994","Class":"4"},"geometry":{"x":121.3830238824152,"y":23.569384974273611}},{"attributes":{"OBJECTID":24382,"LANDMARKID":"1001500000766","LANDMARKCO":"507","LANDMARKNA":"掃叭遺址","LANDMARKAD":"1001509","ADDRESS":"花蓮縣瑞穗鄉舞鶴村","TEL":" ","COUNTYNAME":"花蓮縣","TOWNNAME":"瑞穗鄉","MARKTYPE":"995","Class":"5"},"geometry":{"x":121.36088475948355,"y":23.470666827226903}},{"attributes":{"OBJECTID":24383,"LANDMARKID":"1001500000764","LANDMARKCO":"506","LANDMARKNA":"林壹隆鶴岡觀光果園","LANDMARKAD":"1001509","ADDRESS":"花蓮縣瑞穗鄉鶴岡村","TEL":"03-8872598","COUNTYNAME":"花蓮縣","TOWNNAME":"瑞穗鄉","MARKTYPE":"995","Class":"5"},"geometry":{"x":121.38705167385569,"y":23.52222677824318}},{"attributes":{"OBJECTID":24384,"LANDMARKID":"1001500000765","LANDMARKCO":"506","LANDMARKNA":"瑞穗鄉舞鶴觀光茶園","LANDMARKAD":"1001509","ADDRESS":"花蓮縣瑞穗鄉中山路一段126號","TEL":"03-8872338","COUNTYNAME":"花蓮縣","TOWNNAME":"瑞穗鄉","MARKTYPE":"995","Class":"5"},"geometry":{"x":121.40540326282472,"y":23.57648982117761}},{"attributes":{"OBJECTID":24385,"LANDMARKID":"1001500000729","LANDMARKCO":"501","LANDMARKNA":"花東縱谷風景特定區","LANDMARKAD":"1001509","ADDRESS":"花蓮縣瑞穗鄉瑞良村中山路三段215號","TEL":"03-8875306","COUNTYNAME":"花蓮縣","TOWNNAME":"瑞穗鄉","MARKTYPE":"995","Class":"5"},"geometry":{"x":121.40010880955337,"y":23.490695758500717}},{"attributes":{"OBJECTID":24386,"LANDMARKID":"1001500000797","LANDMARKCO":"512","LANDMARKNA":"花東縱谷國家風景區管理處","LANDMARKAD":"1001509","ADDRESS":"花蓮縣瑞穗鄉鶴岡村17鄰興鶴路二段168號","TEL":"03-8875306","COUNTYNAME":"花蓮縣","TOWNNAME":"瑞穗鄉","MARKTYPE":"995","Class":"5"},"geometry":{"x":121.38944349357267,"y":23.522979276996359}},{"attributes":{"OBJECTID":24387,"LANDMARKID":"1001500000798","LANDMARKCO":"512","LANDMARKNA":"瑞穗遊客服務中心","LANDMARKAD":"1001509","ADDRESS":"花蓮縣瑞穗鄉瑞良村中山路三段215號","TEL":"03-8875306","COUNTYNAME":"花蓮縣","TOWNNAME":"瑞穗鄉","MARKTYPE":"995","Class":"5"},"geometry":{"x":121.40014590670799,"y":23.490779097947186}},{"attributes":{"OBJECTID":24388,"LANDMARKID":"1001500000713","LANDMARKCO":"408","LANDMARKNA":"郵局-瑞穗郵局","LANDMARKAD":"1001509","ADDRESS":"花蓮縣瑞穗鄉中山路1段120號","TEL":"(03)8872-134","COUNTYNAME":"花蓮縣","TOWNNAME":"瑞穗鄉","MARKTYPE":"994","Class":"4"},"geometry":{"x":121.37982633208442,"y":23.497003090136623}},{"attributes":{"OBJECTID":24389,"LANDMARKID":"1001500000714","LANDMARKCO":"408","LANDMARKNA":"郵局-瑞穗富源郵局","LANDMARKAD":"1001509","ADDRESS":"花蓮縣瑞穗鄉富源村中正路88號","TEL":"(03)8811-035","COUNTYNAME":"花蓮縣","TOWNNAME":"瑞穗鄉","MARKTYPE":"994","Class":"4"},"geometry":{"x":121.37816100058846,"y":23.578825138947995}},{"attributes":{"OBJECTID":24390,"LANDMARKID":"1001500000719","LANDMARKCO":"409","LANDMARKNA":"花蓮縣瑞穗鄉農會","LANDMARKAD":"1001509","ADDRESS":"花蓮縣瑞穗鄉中山路一段128號","TEL":"03-8872226","COUNTYNAME":"花蓮縣","TOWNNAME":"瑞穗鄉","MARKTYPE":"994","Class":"4"},"geometry":{"x":121.37976852294256,"y":23.580055679471606}},{"attributes":{"OBJECTID":24391,"LANDMARKID":"1001500000566","LANDMARKCO":"404","LANDMARKNA":"台灣省自來水瑞穗營運所","LANDMARKAD":"1001509","ADDRESS":"花蓮縣瑞穗鄉中正北路185號","TEL":" ","COUNTYNAME":"花蓮縣","TOWNNAME":"瑞穗鄉","MARKTYPE":"994","Class":"4"},"geometry":{"x":121.37733833316494,"y":23.502000330829731}},{"attributes":{"OBJECTID":24392,"LANDMARKID":"1001500000656","LANDMARKCO":"406","LANDMARKNA":"瑞穗運動公園","LANDMARKAD":"1001509","ADDRESS":"花蓮縣瑞穗鄉","TEL":" ","COUNTYNAME":"花蓮縣","TOWNNAME":"瑞穗鄉","MARKTYPE":"994","Class":"4"},"geometry":{"x":121.38966139086156,"y":23.493364575540564}},{"attributes":{"OBJECTID":24393,"LANDMARKID":"1001500000611","LANDMARKCO":"405","LANDMARKNA":"台塑加油站-瑞北站(台塑)","LANDMARKAD":"1001509","ADDRESS":"花蓮縣瑞穗鄉瑞北村30-18號","TEL":"03-8873238","COUNTYNAME":"花蓮縣","TOWNNAME":"瑞穗鄉","MARKTYPE":"994","Class":"4"},"geometry":{"x":121.37846274530042,"y":23.527169765358042}},{"attributes":{"OBJECTID":24394,"LANDMARKID":"1001500000236","LANDMARKCO":"108","LANDMARKNA":"花蓮縣瑞穗鄉公所","LANDMARKAD":"1001509","ADDRESS":"花蓮縣瑞穗鄉成功南路19號","TEL":"03-8872222?","COUNTYNAME":"花蓮縣","TOWNNAME":"瑞穗鄉","MARKTYPE":"991","Class":"1"},"geometry":{"x":121.37597445633635,"y":23.496822904472396}},{"attributes":{"OBJECTID":24395,"LANDMARKID":"1001500000057","LANDMARKCO":"103","LANDMARKNA":"花蓮縣瑞穗鄉鄉民代表會","LANDMARKAD":"1001509","ADDRESS":"花蓮縣瑞穗鄉成功南路23號","TEL":"03-8870992","COUNTYNAME":"花蓮縣","TOWNNAME":"瑞穗鄉","MARKTYPE":"991","Class":"1"},"geometry":{"x":121.376014132444,"y":23.496913014239045}},{"attributes":{"OBJECTID":24396,"LANDMARKID":"1001500000132","LANDMARKCO":"107","LANDMARKNA":"花蓮縣消防局瑞穗消防分隊","LANDMARKAD":"1001509","ADDRESS":"花蓮縣瑞穗鄉新生路44號之1","TEL":"03-8872164","COUNTYNAME":"花蓮縣","TOWNNAME":"瑞穗鄉","MARKTYPE":"991","Class":"1"},"geometry":{"x":121.37982143973264,"y":23.493560140688732}},{"attributes":{"OBJECTID":24397,"LANDMARKID":"1001500000133","LANDMARKCO":"107","LANDMARKNA":"花蓮縣警察局瑞穗分駐所","LANDMARKAD":"1001509","ADDRESS":"花蓮縣瑞穗鄉瑞穗村中正南路2號","TEL":"03-8872057","COUNTYNAME":"花蓮縣","TOWNNAME":"瑞穗鄉","MARKTYPE":"991","Class":"1"},"geometry":{"x":121.37789711456253,"y":23.49573670113946}},{"attributes":{"OBJECTID":24398,"LANDMARKID":"1001500000108","LANDMARKCO":"106","LANDMARKNA":"花蓮縣瑞穗鄉戶政事務所","LANDMARKAD":"1001509","ADDRESS":"花蓮縣瑞穗鄉成功南路19之1號","TEL":"03-8872109","COUNTYNAME":"花蓮縣","TOWNNAME":"瑞穗鄉","MARKTYPE":"991","Class":"1"},"geometry":{"x":121.37600280447035,"y":23.496642165885063}},{"attributes":{"OBJECTID":24399,"LANDMARKID":"1001500000058","LANDMARKCO":"103","LANDMARKNA":"花蓮縣瑞穗鄉衛生所","LANDMARKAD":"1001509","ADDRESS":"花蓮縣瑞穗鄉民生街14鄰75號","TEL":"03-8872045","COUNTYNAME":"花蓮縣","TOWNNAME":"瑞穗鄉","MARKTYPE":"991","Class":"1"},"geometry":{"x":121.37914709172419,"y":23.499974751433225}},{"attributes":{"OBJECTID":24400,"LANDMARKID":"1001500000127","LANDMARKCO":"107","LANDMARKNA":"花蓮縣警察局馬遠派出所","LANDMARKAD":"1001509","ADDRESS":"花蓮縣萬榮鄉馬遠村2鄰41-1號","TEL":"03-8811420","COUNTYNAME":"花蓮縣","TOWNNAME":"瑞穗鄉","MARKTYPE":"991","Class":"1"},"geometry":{"x":121.36255413021937,"y":23.575234053146861}}]}