{"displayFieldName":"COUNTYNAME","fieldAliases":{"OBJECTID":"OBJECTID","LANDMARKID":"LANDMARKID","LANDMARKCO":"LANDMARKCO","LANDMARKNA":"LANDMARKNA","LANDMARKAD":"LANDMARKAD","ADDRESS":"ADDRESS","TEL":"TEL","COUNTYNAME":"COUNTYNAME","TOWNNAME":"TOWNNAME","MARKTYPE":"MARKTYPE","Class":"Class"},"geometryType":"esriGeometryPoint","spatialReference":{"wkid":4326},"fields":[{"name":"OBJECTID","type":"esriFieldTypeOID","alias":"OBJECTID"},{"name":"LANDMARKID","type":"esriFieldTypeString","alias":"LANDMARKID","length":15},{"name":"LANDMARKCO","type":"esriFieldTypeString","alias":"LANDMARKCO","length":15},{"name":"LANDMARKNA","type":"esriFieldTypeString","alias":"LANDMARKNA","length":50},{"name":"LANDMARKAD","type":"esriFieldTypeString","alias":"LANDMARKAD","length":15},{"name":"ADDRESS","type":"esriFieldTypeString","alias":"ADDRESS","length":56},{"name":"TEL","type":"esriFieldTypeString","alias":"TEL","length":36},{"name":"COUNTYNAME","type":"esriFieldTypeString","alias":"COUNTYNAME","length":15},{"name":"TOWNNAME","type":"esriFieldTypeString","alias":"TOWNNAME","length":13},{"name":"MARKTYPE","type":"esriFieldTypeString","alias":"MARKTYPE","length":12},{"name":"Class","type":"esriFieldTypeString","alias":"Class","length":5}],"features":[{"attributes":{"OBJECTID":16201,"LANDMARKID":"1001300000785","LANDMARKCO":"305","LANDMARKNA":"後壁湖漁港","LANDMARKAD":"1001304","ADDRESS":"屏東縣恆春鎮","TEL":" ","COUNTYNAME":"屏東縣","TOWNNAME":"恆春鎮","MARKTYPE":"993","Class":"305"},"geometry":{"x":120.7449960717671,"y":21.942733891043559}},{"attributes":{"OBJECTID":16202,"LANDMARKID":"1001300000786","LANDMARKCO":"305","LANDMARKNA":"山海漁港","LANDMARKAD":"1001304","ADDRESS":"屏東縣恆春鎮","TEL":" ","COUNTYNAME":"屏東縣","TOWNNAME":"恆春鎮","MARKTYPE":"993","Class":"305"},"geometry":{"x":120.71135494597377,"y":21.985664477591616}},{"attributes":{"OBJECTID":16203,"LANDMARKID":"1001300000716","LANDMARKCO":"303","LANDMARKNA":"大尖山停車場","LANDMARKAD":"1001304","ADDRESS":"屏東縣恆春鎮墾丁路","TEL":" ","COUNTYNAME":"屏東縣","TOWNNAME":"恆春鎮","MARKTYPE":"993","Class":"303"},"geometry":{"x":120.79551926039673,"y":21.94651444043263}},{"attributes":{"OBJECTID":16204,"LANDMARKID":"1001300000717","LANDMARKCO":"303","LANDMARKNA":"墾丁森林遊樂區停車場","LANDMARKAD":"1001304","ADDRESS":"屏東縣恆春鎮公園路201號","TEL":"08-8861211","COUNTYNAME":"屏東縣","TOWNNAME":"恆春鎮","MARKTYPE":"993","Class":"303"},"geometry":{"x":120.81237018651007,"y":21.957510077334405}},{"attributes":{"OBJECTID":16205,"LANDMARKID":"1001300000718","LANDMARKCO":"303","LANDMARKNA":"墾丁森林遊樂區停車場","LANDMARKAD":"1001304","ADDRESS":"屏東縣恆春鎮公園路201號","TEL":"08-8861211","COUNTYNAME":"屏東縣","TOWNNAME":"恆春鎮","MARKTYPE":"993","Class":"303"},"geometry":{"x":120.81302009068121,"y":21.957965847568339}},{"attributes":{"OBJECTID":16206,"LANDMARKID":"1001300000713","LANDMARKCO":"302","LANDMARKNA":"高雄汽車客運恆春站","LANDMARKAD":"1001304","ADDRESS":"屏東縣恆春鎮中正路30號","TEL":" ","COUNTYNAME":"屏東縣","TOWNNAME":"恆春鎮","MARKTYPE":"993","Class":"302"},"geometry":{"x":120.74861738257648,"y":21.988429039546695}},{"attributes":{"OBJECTID":16207,"LANDMARKID":"1001300000714","LANDMARKCO":"302","LANDMARKNA":"屏東汽車客運恆春站","LANDMARKAD":"1001304","ADDRESS":"屏東縣恆春鎮中正路30號","TEL":" ","COUNTYNAME":"屏東縣","TOWNNAME":"恆春鎮","MARKTYPE":"993","Class":"302"},"geometry":{"x":120.74542879511573,"y":22.002286397418086}},{"attributes":{"OBJECTID":16208,"LANDMARKID":"1001300000715","LANDMARKCO":"302","LANDMARKNA":"國光汽車客運恆春站","LANDMARKAD":"1001304","ADDRESS":"屏東縣恆春鎮新興路23號","TEL":" ","COUNTYNAME":"屏東縣","TOWNNAME":"恆春鎮","MARKTYPE":"993","Class":"302"},"geometry":{"x":120.74540683014568,"y":22.003714324430735}},{"attributes":{"OBJECTID":16209,"LANDMARKID":"1001300000784","LANDMARKCO":"304","LANDMARKNA":"恆春航空站(七里亭機場)","LANDMARKAD":"1001304","ADDRESS":"屏東縣恆春鎮省北路二段393號","TEL":" ","COUNTYNAME":"屏東縣","TOWNNAME":"恆春鎮","MARKTYPE":"993","Class":"304"},"geometry":{"x":120.7323376011262,"y":22.040726797816653}},{"attributes":{"OBJECTID":16210,"LANDMARKID":"1001300000720","LANDMARKCO":"303","LANDMARKNA":"關山遊憩區停車場","LANDMARKAD":"1001304","ADDRESS":" ","TEL":" ","COUNTYNAME":"屏東縣","TOWNNAME":"恆春鎮","MARKTYPE":"993","Class":"303"},"geometry":{"x":120.71994084920409,"y":21.965066826193773}},{"attributes":{"OBJECTID":16211,"LANDMARKID":"1001300000721","LANDMARKCO":"303","LANDMARKNA":"恆春航空站停車場","LANDMARKAD":"1001304","ADDRESS":" ","TEL":" ","COUNTYNAME":"屏東縣","TOWNNAME":"恆春鎮","MARKTYPE":"993","Class":"303"},"geometry":{"x":120.73311909339193,"y":22.040555379090058}},{"attributes":{"OBJECTID":16212,"LANDMARKID":"1001300000722","LANDMARKCO":"303","LANDMARKNA":"貓鼻頭公園停車場","LANDMARKAD":"1001304","ADDRESS":" ","TEL":" ","COUNTYNAME":"屏東縣","TOWNNAME":"恆春鎮","MARKTYPE":"993","Class":"303"},"geometry":{"x":120.73642003212311,"y":21.922100274584931}},{"attributes":{"OBJECTID":16213,"LANDMARKID":"1001300000723","LANDMARKCO":"303","LANDMARKNA":"貓鼻頭公園停車場","LANDMARKAD":"1001304","ADDRESS":" ","TEL":"08-8867520","COUNTYNAME":"屏東縣","TOWNNAME":"恆春鎮","MARKTYPE":"993","Class":"303"},"geometry":{"x":120.73690050137539,"y":21.92177914337493}},{"attributes":{"OBJECTID":16214,"LANDMARKID":"1001300000724","LANDMARKCO":"303","LANDMARKNA":"後壁湖遊艇港停車場","LANDMARKAD":"1001304","ADDRESS":" ","TEL":" ","COUNTYNAME":"屏東縣","TOWNNAME":"恆春鎮","MARKTYPE":"993","Class":"303"},"geometry":{"x":120.74331391843475,"y":21.946161656689043}},{"attributes":{"OBJECTID":16215,"LANDMARKID":"1001300000725","LANDMARKCO":"303","LANDMARKNA":"後壁湖遊艇港停車場","LANDMARKAD":"1001304","ADDRESS":" ","TEL":" ","COUNTYNAME":"屏東縣","TOWNNAME":"恆春鎮","MARKTYPE":"993","Class":"303"},"geometry":{"x":120.74418317814391,"y":21.947140012753476}},{"attributes":{"OBJECTID":16216,"LANDMARKID":"1001300000726","LANDMARKCO":"303","LANDMARKNA":"恆春鎮公所立體停車場","LANDMARKAD":"1001304","ADDRESS":" ","TEL":" ","COUNTYNAME":"屏東縣","TOWNNAME":"恆春鎮","MARKTYPE":"993","Class":"303"},"geometry":{"x":120.74554311873642,"y":22.005513181237404}},{"attributes":{"OBJECTID":16217,"LANDMARKID":"1001300000727","LANDMARKCO":"303","LANDMARKNA":"墾丁國家公園管理處停車場","LANDMARKAD":"1001304","ADDRESS":"屏東縣恆春鎮墾丁路596號","TEL":"08-8861321","COUNTYNAME":"屏東縣","TOWNNAME":"恆春鎮","MARKTYPE":"993","Class":"303"},"geometry":{"x":120.77875210693149,"y":21.950577390740296}},{"attributes":{"OBJECTID":16218,"LANDMARKID":"1001300000728","LANDMARKCO":"303","LANDMARKNA":"統一小灣遊客服務區停車場","LANDMARKAD":"1001304","ADDRESS":"屏東縣恆春鎮墾丁街","TEL":"08-8862711","COUNTYNAME":"屏東縣","TOWNNAME":"恆春鎮","MARKTYPE":"993","Class":"303"},"geometry":{"x":120.80276070191388,"y":21.94293943400929}},{"attributes":{"OBJECTID":16219,"LANDMARKID":"1001300000729","LANDMARKCO":"303","LANDMARKNA":"墾丁凱撒大飯店停車場","LANDMARKAD":"1001304","ADDRESS":"屏東縣恆春鎮墾丁路6號","TEL":"08-8861888","COUNTYNAME":"屏東縣","TOWNNAME":"恆春鎮","MARKTYPE":"993","Class":"303"},"geometry":{"x":120.80571178920836,"y":21.942505486354264}},{"attributes":{"OBJECTID":16220,"LANDMARKID":"1001300000730","LANDMARKCO":"303","LANDMARKNA":"墾丁福華渡假飯店停車場","LANDMARKAD":"1001304","ADDRESS":"屏東縣恆春鎮墾丁路2號","TEL":"08-8862323","COUNTYNAME":"屏東縣","TOWNNAME":"恆春鎮","MARKTYPE":"993","Class":"303"},"geometry":{"x":120.80602590051197,"y":21.942607172526323}},{"attributes":{"OBJECTID":16221,"LANDMARKID":"1001300000731","LANDMARKCO":"303","LANDMARKNA":"墾丁賓館停車場","LANDMARKAD":"1001304","ADDRESS":"屏東縣恆春鎮公園路101號","TEL":" ","COUNTYNAME":"屏東縣","TOWNNAME":"恆春鎮","MARKTYPE":"993","Class":"303"},"geometry":{"x":120.80845711374111,"y":21.956664349078803}},{"attributes":{"OBJECTID":16222,"LANDMARKID":"1001300000732","LANDMARKCO":"303","LANDMARKNA":"墾丁森林遊樂區機車停車場","LANDMARKAD":"1001304","ADDRESS":"屏東縣恆春鎮公園路201號","TEL":"08-8861211","COUNTYNAME":"屏東縣","TOWNNAME":"恆春鎮","MARKTYPE":"993","Class":"303"},"geometry":{"x":120.8123938444341,"y":21.95769331671546}},{"attributes":{"OBJECTID":16223,"LANDMARKID":"1001300000733","LANDMARKCO":"303","LANDMARKNA":"風吹沙停車場","LANDMARKAD":"1001304","ADDRESS":" ","TEL":" ","COUNTYNAME":"屏東縣","TOWNNAME":"恆春鎮","MARKTYPE":"993","Class":"303"},"geometry":{"x":120.83901990666716,"y":21.947192204479165}},{"attributes":{"OBJECTID":16224,"LANDMARKID":"1001300000734","LANDMARKCO":"303","LANDMARKNA":"鵝鑾鼻停車場","LANDMARKAD":"1001304","ADDRESS":" ","TEL":"08-8851101","COUNTYNAME":"屏東縣","TOWNNAME":"恆春鎮","MARKTYPE":"993","Class":"303"},"geometry":{"x":120.85143176226507,"y":21.905006781005198}},{"attributes":{"OBJECTID":16225,"LANDMARKID":"1001300000735","LANDMARKCO":"303","LANDMARKNA":"小灣停車場","LANDMARKAD":"1001304","ADDRESS":"屏東縣恆春鎮墾丁路","TEL":" ","COUNTYNAME":"屏東縣","TOWNNAME":"恆春鎮","MARKTYPE":"993","Class":"303"},"geometry":{"x":120.80402492018699,"y":21.942093897636003}},{"attributes":{"OBJECTID":16226,"LANDMARKID":"1001300000736","LANDMARKCO":"303","LANDMARKNA":"四之一景觀道路休息區停車場","LANDMARKAD":"1001304","ADDRESS":"屏東縣恆春鎮石硃山海下水堀路","TEL":" ","COUNTYNAME":"屏東縣","TOWNNAME":"恆春鎮","MARKTYPE":"993","Class":"303"},"geometry":{"x":120.72174802822188,"y":22.02099682195896}},{"attributes":{"OBJECTID":16227,"LANDMARKID":"1001300000737","LANDMARKCO":"303","LANDMARKNA":"赤牛嶺停車場","LANDMARKAD":"1001304","ADDRESS":"屏東縣恆春鎮赤牛嶺路","TEL":" ","COUNTYNAME":"屏東縣","TOWNNAME":"恆春鎮","MARKTYPE":"993","Class":"303"},"geometry":{"x":120.76195504107919,"y":21.992694598463736}},{"attributes":{"OBJECTID":16228,"LANDMARKID":"1001300000738","LANDMARKCO":"303","LANDMARKNA":"南灣遊憩區停車場","LANDMARKAD":"1001304","ADDRESS":"屏東縣恆春鎮南灣路","TEL":" ","COUNTYNAME":"屏東縣","TOWNNAME":"恆春鎮","MARKTYPE":"993","Class":"303"},"geometry":{"x":120.76297911193359,"y":21.960829876420753}},{"attributes":{"OBJECTID":16229,"LANDMARKID":"1001300000739","LANDMARKCO":"303","LANDMARKNA":"後壁湖遊艇港停車場","LANDMARKAD":"1001304","ADDRESS":"屏東縣恆春鎮後壁湖路","TEL":" ","COUNTYNAME":"屏東縣","TOWNNAME":"恆春鎮","MARKTYPE":"993","Class":"303"},"geometry":{"x":120.74463617548734,"y":21.940040766916013}},{"attributes":{"OBJECTID":16230,"LANDMARKID":"1001300000740","LANDMARKCO":"303","LANDMARKNA":"砂島貝殼砂展示停車場","LANDMARKAD":"1001304","ADDRESS":"屏東縣恆春鎮鵝鑾鼻路","TEL":" ","COUNTYNAME":"屏東縣","TOWNNAME":"恆春鎮","MARKTYPE":"993","Class":"303"},"geometry":{"x":120.84787312334791,"y":21.909802279682587}},{"attributes":{"OBJECTID":16231,"LANDMARKID":"1001300000741","LANDMARKCO":"303","LANDMARKNA":"風吹砂停車場","LANDMARKAD":"1001304","ADDRESS":"屏東縣恆春鎮風吹砂路","TEL":" ","COUNTYNAME":"屏東縣","TOWNNAME":"恆春鎮","MARKTYPE":"993","Class":"303"},"geometry":{"x":120.84020058863672,"y":21.954386089721435}},{"attributes":{"OBJECTID":16232,"LANDMARKID":"1001300000742","LANDMARKCO":"303","LANDMARKNA":"墾丁國家公園管理處遊客中心停車","LANDMARKAD":"1001304","ADDRESS":"屏東縣恆春鎮墾丁路","TEL":" ","COUNTYNAME":"屏東縣","TOWNNAME":"恆春鎮","MARKTYPE":"993","Class":"303"},"geometry":{"x":120.77999971565622,"y":21.951666253895521}},{"attributes":{"OBJECTID":16233,"LANDMARKID":"1001300000743","LANDMARKCO":"303","LANDMARKNA":"墾丁街停九停車場","LANDMARKAD":"1001304","ADDRESS":"屏東縣恆春鎮墾丁路","TEL":" ","COUNTYNAME":"屏東縣","TOWNNAME":"恆春鎮","MARKTYPE":"993","Class":"303"},"geometry":{"x":120.78774359882244,"y":21.946791006738071}},{"attributes":{"OBJECTID":16234,"LANDMARKID":"1001300000744","LANDMARKCO":"303","LANDMARKNA":"貓鼻頭公園停車場","LANDMARKAD":"1001304","ADDRESS":"屏東縣恆春鎮貓鼻頭路","TEL":" ","COUNTYNAME":"屏東縣","TOWNNAME":"恆春鎮","MARKTYPE":"993","Class":"303"},"geometry":{"x":120.73681043941528,"y":21.922722483231961}},{"attributes":{"OBJECTID":16235,"LANDMARKID":"1001300000745","LANDMARKCO":"303","LANDMARKNA":"龍盤公園停車場","LANDMARKAD":"1001304","ADDRESS":"屏東縣恆春鎮龍盤路","TEL":" ","COUNTYNAME":"屏東縣","TOWNNAME":"恆春鎮","MARKTYPE":"993","Class":"303"},"geometry":{"x":120.84721322658137,"y":21.925536427494539}},{"attributes":{"OBJECTID":16236,"LANDMARKID":"1001300000746","LANDMARKCO":"303","LANDMARKNA":"龍鑾潭車岸賞鳥區停車場","LANDMARKAD":"1001304","ADDRESS":"屏東縣恆春鎮龍鑾潭路","TEL":" ","COUNTYNAME":"屏東縣","TOWNNAME":"恆春鎮","MARKTYPE":"993","Class":"303"},"geometry":{"x":120.73522839968636,"y":21.978354364867076}},{"attributes":{"OBJECTID":16237,"LANDMARKID":"1001300000747","LANDMARKCO":"303","LANDMARKNA":"龍鑾潭南岸賞腦區停車場","LANDMARKAD":"1001304","ADDRESS":"屏東縣恆春鎮龍鑾潭路","TEL":" ","COUNTYNAME":"屏東縣","TOWNNAME":"恆春鎮","MARKTYPE":"993","Class":"303"},"geometry":{"x":120.74879049037628,"y":21.969562623088454}},{"attributes":{"OBJECTID":16238,"LANDMARKID":"1001300000748","LANDMARKCO":"303","LANDMARKNA":"鵝鑾鼻公園停車場","LANDMARKAD":"1001304","ADDRESS":"屏東縣恆春鎮鵝鑾鼻路","TEL":" ","COUNTYNAME":"屏東縣","TOWNNAME":"恆春鎮","MARKTYPE":"993","Class":"303"},"geometry":{"x":120.85527694103784,"y":21.901318942643819}},{"attributes":{"OBJECTID":16239,"LANDMARKID":"1001300000749","LANDMARKCO":"303","LANDMARKNA":"瓊麻工業歷史展示區停車場","LANDMARKAD":"1001304","ADDRESS":"屏東縣恆春鎮瓊麻場路","TEL":" ","COUNTYNAME":"屏東縣","TOWNNAME":"恆春鎮","MARKTYPE":"993","Class":"303"},"geometry":{"x":120.74128752025371,"y":21.964245477498523}},{"attributes":{"OBJECTID":16240,"LANDMARKID":"1001300000750","LANDMARKCO":"303","LANDMARKNA":"社頂自然公園停車場","LANDMARKAD":"1001304","ADDRESS":"屏東縣恆春鎮社頂路","TEL":" ","COUNTYNAME":"屏東縣","TOWNNAME":"恆春鎮","MARKTYPE":"993","Class":"303"},"geometry":{"x":120.81833881465438,"y":21.956826890734472}},{"attributes":{"OBJECTID":16241,"LANDMARKID":"1001300000751","LANDMARKCO":"303","LANDMARKNA":"龍鑾潭公園停車場","LANDMARKAD":"1001304","ADDRESS":"屏東縣恆春鎮龍鑾潭路","TEL":" ","COUNTYNAME":"屏東縣","TOWNNAME":"恆春鎮","MARKTYPE":"993","Class":"303"},"geometry":{"x":120.7350302996247,"y":21.976740567999581}},{"attributes":{"OBJECTID":16242,"LANDMARKID":"1001300000846","LANDMARKCO":"402","LANDMARKNA":"中華電信-恆春服務中心","LANDMARKAD":"1001304","ADDRESS":"屏東縣恆春鎮省北路64號","TEL":"(08)744-0371","COUNTYNAME":"屏東縣","TOWNNAME":"恆春鎮","MARKTYPE":"994","Class":"4"},"geometry":{"x":120.74430175241329,"y":22.010578916013213}},{"attributes":{"OBJECTID":16243,"LANDMARKID":"1001300000847","LANDMARKCO":"402","LANDMARKNA":"威寶電信-恆春省北特約服務中心","LANDMARKAD":"1001304","ADDRESS":"屏東縣恆春鎮省北路50號","TEL":"08-8881699","COUNTYNAME":"屏東縣","TOWNNAME":"恆春鎮","MARKTYPE":"994","Class":"4"},"geometry":{"x":120.74414840118223,"y":22.010126847495197}},{"attributes":{"OBJECTID":16244,"LANDMARKID":"1001300001400","LANDMARKCO":"604","LANDMARKNA":"海閣旅店","LANDMARKAD":"1001304","ADDRESS":"屏東縣恆春鎮南灣路62號","TEL":"08-8881335","COUNTYNAME":"屏東縣","TOWNNAME":"恆春鎮","MARKTYPE":"996","Class":"6"},"geometry":{"x":120.76707272970606,"y":21.959112637204441}},{"attributes":{"OBJECTID":16245,"LANDMARKID":"1001300001401","LANDMARKCO":"604","LANDMARKNA":"南灣渡假民宿","LANDMARKAD":"1001304","ADDRESS":"屏東縣恆春鎮南灣路林森巷9-5號","TEL":"08-8880123","COUNTYNAME":"屏東縣","TOWNNAME":"恆春鎮","MARKTYPE":"996","Class":"6"},"geometry":{"x":120.76927281015783,"y":21.95629274269109}},{"attributes":{"OBJECTID":16246,"LANDMARKID":"1001300001402","LANDMARKCO":"604","LANDMARKNA":"綠園休閒民宿","LANDMARKAD":"1001304","ADDRESS":"屏東縣恆春鎮恆西路77號","TEL":"08-8893151","COUNTYNAME":"屏東縣","TOWNNAME":"恆春鎮","MARKTYPE":"996","Class":"6"},"geometry":{"x":120.7381755192004,"y":22.001351370074541}},{"attributes":{"OBJECTID":16247,"LANDMARKID":"1001300001403","LANDMARKCO":"604","LANDMARKNA":"森山雅築","LANDMARKAD":"1001304","ADDRESS":"屏東縣恆春鎮恆南路9號","TEL":"08-8891161","COUNTYNAME":"屏東縣","TOWNNAME":"恆春鎮","MARKTYPE":"996","Class":"6"},"geometry":{"x":120.74993189153339,"y":21.987885213628662}},{"attributes":{"OBJECTID":16248,"LANDMARKID":"1001300001365","LANDMARKCO":"603","LANDMARKNA":"恆農假期渡假飯店","LANDMARKAD":"1001304","ADDRESS":"屏東縣恆春鎮山腳里恒南路11巷2弄6號","TEL":"08-8882868","COUNTYNAME":"屏東縣","TOWNNAME":"恆春鎮","MARKTYPE":"996","Class":"6"},"geometry":{"x":120.74361831917027,"y":22.000935123565029}},{"attributes":{"OBJECTID":16249,"LANDMARKID":"1001300001366","LANDMARKCO":"603","LANDMARKNA":"墾丁中信客棧","LANDMARKAD":"1001304","ADDRESS":"屏東縣恆春鎮恆公路1180號","TEL":"08-8896589","COUNTYNAME":"屏東縣","TOWNNAME":"恆春鎮","MARKTYPE":"996","Class":"6"},"geometry":{"x":120.74339055650394,"y":22.013579268887419}},{"attributes":{"OBJECTID":16250,"LANDMARKID":"1001300001367","LANDMARKCO":"603","LANDMARKNA":"墾丁假期渡假中心","LANDMARKAD":"1001304","ADDRESS":"屏東縣恆春鎮恆公路966號11-12樓","TEL":"08-8899999","COUNTYNAME":"屏東縣","TOWNNAME":"恆春鎮","MARKTYPE":"996","Class":"6"},"geometry":{"x":120.74063194622387,"y":22.008362828301077}},{"attributes":{"OBJECTID":16251,"LANDMARKID":"1001300001368","LANDMARKCO":"603","LANDMARKNA":"富悅大飯店","LANDMARKAD":"1001304","ADDRESS":"屏東縣恆春鎮恆南路117巷18號1-6樓","TEL":"08-8898888","COUNTYNAME":"屏東縣","TOWNNAME":"恆春鎮","MARKTYPE":"996","Class":"6"},"geometry":{"x":120.74466385926166,"y":21.996199402729932}},{"attributes":{"OBJECTID":16252,"LANDMARKID":"1001300001369","LANDMARKCO":"603","LANDMARKNA":"君王大飯店","LANDMARKAD":"1001304","ADDRESS":"屏東縣恆春鎮恆南路123號","TEL":"08-8892201","COUNTYNAME":"屏東縣","TOWNNAME":"恆春鎮","MARKTYPE":"996","Class":"6"},"geometry":{"x":120.74488441245236,"y":21.996450745842626}},{"attributes":{"OBJECTID":16253,"LANDMARKID":"1001300001370","LANDMARKCO":"603","LANDMARKNA":"恆春工商實習旅館","LANDMARKAD":"1001304","ADDRESS":"屏東縣恆春鎮恆南路38號","TEL":"08-8891937","COUNTYNAME":"屏東縣","TOWNNAME":"恆春鎮","MARKTYPE":"996","Class":"6"},"geometry":{"x":120.74688071095144,"y":21.992956838790338}},{"attributes":{"OBJECTID":16254,"LANDMARKID":"1001300001371","LANDMARKCO":"603","LANDMARKNA":"墾丁悠活渡假村","LANDMARKAD":"1001304","ADDRESS":"屏東縣恆春鎮萬里路27-8","TEL":"27-9號B1-3樓","COUNTYNAME":"屏東縣","TOWNNAME":"恆春鎮","MARKTYPE":"996","Class":"6"},"geometry":{"x":120.71402139636163,"y":21.986911292961391}},{"attributes":{"OBJECTID":16255,"LANDMARKID":"1001300001372","LANDMARKCO":"603","LANDMARKNA":"雅客之家渡假旅館","LANDMARKAD":"1001304","ADDRESS":"屏東縣恆春鎮墾丁里墾丁路237號","TEL":"08-8861272","COUNTYNAME":"屏東縣","TOWNNAME":"恆春鎮","MARKTYPE":"996","Class":"6"},"geometry":{"x":120.79705771161326,"y":21.94562257218459}},{"attributes":{"OBJECTID":16256,"LANDMARKID":"1001300001373","LANDMARKCO":"603","LANDMARKNA":"墾丁統茂高山青大飯店","LANDMARKAD":"1001304","ADDRESS":"屏東縣恆春鎮墾丁里墾丁路271號","TEL":"08-8861231","COUNTYNAME":"屏東縣","TOWNNAME":"恆春鎮","MARKTYPE":"996","Class":"6"},"geometry":{"x":120.7959058875372,"y":21.945529400817851}},{"attributes":{"OBJECTID":16257,"LANDMARKID":"1001300001374","LANDMARKCO":"603","LANDMARKNA":"墾丁夏都沙灘酒店","LANDMARKAD":"1001304","ADDRESS":"屏東縣恆春鎮墾丁里墾丁路451號","TEL":"08-8862345","COUNTYNAME":"屏東縣","TOWNNAME":"恆春鎮","MARKTYPE":"996","Class":"6"},"geometry":{"x":120.79138521875318,"y":21.945344452325411}},{"attributes":{"OBJECTID":16258,"LANDMARKID":"1001300001375","LANDMARKCO":"603","LANDMARKNA":"歐克山莊","LANDMARKAD":"1001304","ADDRESS":"屏東縣恆春鎮鵝鑾里船帆路1000號","TEL":"08-8861601","COUNTYNAME":"屏東縣","TOWNNAME":"恆春鎮","MARKTYPE":"996","Class":"6"},"geometry":{"x":120.81812732412355,"y":21.936523406005474}},{"attributes":{"OBJECTID":16259,"LANDMARKID":"1001300001376","LANDMARKCO":"603","LANDMARKNA":"統一墾丁渡假村","LANDMARKAD":"1001304","ADDRESS":"屏東縣恆春鎮鵝鑾里鵝鑾路230號1-2樓","TEL":"08-8851078","COUNTYNAME":"屏東縣","TOWNNAME":"恆春鎮","MARKTYPE":"996","Class":"6"},"geometry":{"x":120.85156717838969,"y":21.906019873083309}},{"attributes":{"OBJECTID":16260,"LANDMARKID":"1001300001377","LANDMARKCO":"603","LANDMARKNA":"墾丁天鵝湖飯店","LANDMARKAD":"1001304","ADDRESS":"屏東縣恆春鎮南灣路500號","TEL":"08-8891234","COUNTYNAME":"屏東縣","TOWNNAME":"恆春鎮","MARKTYPE":"996","Class":"6"},"geometry":{"x":120.75619811795677,"y":21.970673267773901}},{"attributes":{"OBJECTID":16261,"LANDMARKID":"1001300001378","LANDMARKCO":"603","LANDMARKNA":"隆德旅客之家","LANDMARKAD":"1001304","ADDRESS":"屏東縣恆春鎮城北里中正路143號","TEL":"08-8892701","COUNTYNAME":"屏東縣","TOWNNAME":"恆春鎮","MARKTYPE":"996","Class":"6"},"geometry":{"x":120.74397418421916,"y":22.004616915580641}},{"attributes":{"OBJECTID":16262,"LANDMARKID":"1001300001379","LANDMARKCO":"603","LANDMARKNA":"縣城旅遊之家","LANDMARKAD":"1001304","ADDRESS":"屏東縣恆春鎮城北里中正路152號","TEL":"08-8892801","COUNTYNAME":"屏東縣","TOWNNAME":"恆春鎮","MARKTYPE":"996","Class":"6"},"geometry":{"x":120.74420598363766,"y":22.004798275236098}},{"attributes":{"OBJECTID":16263,"LANDMARKID":"1001300001380","LANDMARKCO":"603","LANDMARKNA":"恆賓旅社","LANDMARKAD":"1001304","ADDRESS":"屏東縣恆春鎮城西里中山路129號","TEL":"08-8892636","COUNTYNAME":"屏東縣","TOWNNAME":"恆春鎮","MARKTYPE":"996","Class":"6"},"geometry":{"x":120.74342471906493,"y":22.003892653098376}},{"attributes":{"OBJECTID":16264,"LANDMARKID":"1001300001381","LANDMARKCO":"603","LANDMARKNA":"馬爾地夫大飯店","LANDMARKAD":"1001304","ADDRESS":"屏東縣恆春鎮省北路40巷69號","TEL":"08-8898999","COUNTYNAME":"屏東縣","TOWNNAME":"恆春鎮","MARKTYPE":"996","Class":"6"},"geometry":{"x":120.74652365769327,"y":22.009497646583558}},{"attributes":{"OBJECTID":16265,"LANDMARKID":"1001300001382","LANDMARKCO":"603","LANDMARKNA":"鴻賓山莊","LANDMARKAD":"1001304","ADDRESS":"屏東縣恆春鎮墾丁里墾丁路130號","TEL":"08-8861003","COUNTYNAME":"屏東縣","TOWNNAME":"恆春鎮","MARKTYPE":"996","Class":"6"},"geometry":{"x":120.79942098103999,"y":21.94526364858508}},{"attributes":{"OBJECTID":16266,"LANDMARKID":"1001300001383","LANDMARKCO":"604","LANDMARKNA":"風喬民宿","LANDMARKAD":"1001304","ADDRESS":"屏東縣恆春鎮砂尾路21-2號","TEL":"08-8867696","COUNTYNAME":"屏東縣","TOWNNAME":"恆春鎮","MARKTYPE":"996","Class":"6"},"geometry":{"x":120.73942128245666,"y":21.958725372792077}},{"attributes":{"OBJECTID":16267,"LANDMARKID":"1001300001384","LANDMARKCO":"604","LANDMARKNA":"海庭民宿","LANDMARKAD":"1001304","ADDRESS":"屏東縣恆春鎮砂尾路21-3號","TEL":"08-8867215","COUNTYNAME":"屏東縣","TOWNNAME":"恆春鎮","MARKTYPE":"996","Class":"6"},"geometry":{"x":120.73943129383919,"y":21.958635085679632}},{"attributes":{"OBJECTID":16268,"LANDMARKID":"1001300001385","LANDMARKCO":"604","LANDMARKNA":"幸運草渡假山莊民宿","LANDMARKAD":"1001304","ADDRESS":"屏東縣恆春鎮坪頂路190號","TEL":"08-8899251","COUNTYNAME":"屏東縣","TOWNNAME":"恆春鎮","MARKTYPE":"996","Class":"6"},"geometry":{"x":120.72436918294015,"y":21.997269389460556}},{"attributes":{"OBJECTID":16269,"LANDMARKID":"1001300001386","LANDMARKCO":"604","LANDMARKNA":"丁香雅築民宿","LANDMARKAD":"1001304","ADDRESS":"屏東縣恆春鎮坪頂路200號","TEL":"08-8895074","COUNTYNAME":"屏東縣","TOWNNAME":"恆春鎮","MARKTYPE":"996","Class":"6"},"geometry":{"x":120.72392368636189,"y":21.99726789150251}},{"attributes":{"OBJECTID":16270,"LANDMARKID":"1001300001387","LANDMARKCO":"604","LANDMARKNA":"鞍山民宿","LANDMARKAD":"1001304","ADDRESS":"屏東縣恆春鎮南灣路466號","TEL":"08-8880849","COUNTYNAME":"屏東縣","TOWNNAME":"恆春鎮","MARKTYPE":"996","Class":"6"},"geometry":{"x":120.75664372807341,"y":21.969229500629663}},{"attributes":{"OBJECTID":16271,"LANDMARKID":"1001300001388","LANDMARKCO":"604","LANDMARKNA":"董媽媽小築民宿","LANDMARKAD":"1001304","ADDRESS":"屏東縣恆春鎮南灣路鞍山巷66號","TEL":"08-8881657","COUNTYNAME":"屏東縣","TOWNNAME":"恆春鎮","MARKTYPE":"996","Class":"6"},"geometry":{"x":120.76661643802433,"y":21.95940154782571}},{"attributes":{"OBJECTID":16272,"LANDMARKID":"1001300001389","LANDMARKCO":"604","LANDMARKNA":"墾丁湖濱民宿","LANDMARKAD":"1001304","ADDRESS":"屏東縣恆春鎮南灣路龍鑾巷100號","TEL":"08-8881888","COUNTYNAME":"屏東縣","TOWNNAME":"恆春鎮","MARKTYPE":"996","Class":"6"},"geometry":{"x":120.76588908565374,"y":21.959760752451338}},{"attributes":{"OBJECTID":16273,"LANDMARKID":"1001300001390","LANDMARKCO":"604","LANDMARKNA":"僑勇民宿","LANDMARKAD":"1001304","ADDRESS":"屏東縣恆春鎮省北路1巷1弄12號","TEL":"08-8883973","COUNTYNAME":"屏東縣","TOWNNAME":"恆春鎮","MARKTYPE":"996","Class":"6"},"geometry":{"x":120.74313595744772,"y":22.008859229081313}},{"attributes":{"OBJECTID":16274,"LANDMARKID":"1001300001391","LANDMARKCO":"604","LANDMARKNA":"上仁民宿","LANDMARKAD":"1001304","ADDRESS":"屏東縣恆春鎮省北路2段93號","TEL":"08-8883490","COUNTYNAME":"屏東縣","TOWNNAME":"恆春鎮","MARKTYPE":"996","Class":"6"},"geometry":{"x":120.7405503856684,"y":22.029086654398764}},{"attributes":{"OBJECTID":16275,"LANDMARKID":"1001300001392","LANDMARKCO":"604","LANDMARKNA":"大樹房民宿","LANDMARKAD":"1001304","ADDRESS":"屏東縣恆春鎮砂尾路21-1號","TEL":"08-8866723","COUNTYNAME":"屏東縣","TOWNNAME":"恆春鎮","MARKTYPE":"996","Class":"6"},"geometry":{"x":120.73941160032558,"y":21.958725342077596}},{"attributes":{"OBJECTID":16276,"LANDMARKID":"1001300001393","LANDMARKCO":"604","LANDMARKNA":"恆春古城民宿","LANDMARKAD":"1001304","ADDRESS":"屏東縣恆春鎮省北路41巷17號","TEL":"08-8893328","COUNTYNAME":"屏東縣","TOWNNAME":"恆春鎮","MARKTYPE":"996","Class":"6"},"geometry":{"x":120.74339324018989,"y":22.010034169032313}},{"attributes":{"OBJECTID":16277,"LANDMARKID":"1001300001394","LANDMARKCO":"604","LANDMARKNA":"溫馨的家民宿","LANDMARKAD":"1001304","ADDRESS":"屏東縣恆春鎮德和路160巷3弄28號","TEL":"08-8891003","COUNTYNAME":"屏東縣","TOWNNAME":"恆春鎮","MARKTYPE":"996","Class":"6"},"geometry":{"x":120.72710927180057,"y":21.997454508324715}},{"attributes":{"OBJECTID":16278,"LANDMARKID":"1001300001395","LANDMARKCO":"604","LANDMARKNA":"一佛園山莊民宿","LANDMARKAD":"1001304","ADDRESS":"屏東縣恆春鎮德和路735號","TEL":"08-8881763","COUNTYNAME":"屏東縣","TOWNNAME":"恆春鎮","MARKTYPE":"996","Class":"6"},"geometry":{"x":120.72028741036146,"y":21.994550762420147}},{"attributes":{"OBJECTID":16279,"LANDMARKID":"1001300001396","LANDMARKCO":"604","LANDMARKNA":"瑪雅之家","LANDMARKAD":"1001304","ADDRESS":"屏東縣恆春鎮墾丁路330-6號","TEL":"08-8861925","COUNTYNAME":"屏東縣","TOWNNAME":"恆春鎮","MARKTYPE":"996","Class":"6"},"geometry":{"x":120.79041786796493,"y":21.949767610825102}},{"attributes":{"OBJECTID":16280,"LANDMARKID":"1001300001397","LANDMARKCO":"604","LANDMARKNA":"墾丁灰面鷲民宿","LANDMARKAD":"1001304","ADDRESS":"屏東縣恆春鎮龍泉路198巷15號","TEL":"08-8899396","COUNTYNAME":"屏東縣","TOWNNAME":"恆春鎮","MARKTYPE":"996","Class":"6"},"geometry":{"x":120.7280351312095,"y":21.983905260333668}},{"attributes":{"OBJECTID":16281,"LANDMARKID":"1001300001398","LANDMARKCO":"604","LANDMARKNA":"綠野仙蹤民宿","LANDMARKAD":"1001304","ADDRESS":"屏東縣恆春鎮龍泉路3巷10號","TEL":"08-8883811","COUNTYNAME":"屏東縣","TOWNNAME":"恆春鎮","MARKTYPE":"996","Class":"6"},"geometry":{"x":120.74016026649073,"y":21.98771986024208}},{"attributes":{"OBJECTID":16282,"LANDMARKID":"1001300001399","LANDMARKCO":"604","LANDMARKNA":"蛋糕屋民宿","LANDMARKAD":"1001304","ADDRESS":"屏東縣恆春鎮坪頂路16號","TEL":"08-8882233","COUNTYNAME":"屏東縣","TOWNNAME":"恆春鎮","MARKTYPE":"996","Class":"6"},"geometry":{"x":120.72796868139748,"y":21.996730192996793}},{"attributes":{"OBJECTID":16283,"LANDMARKID":"1001300001281","LANDMARKCO":"601","LANDMARKNA":"墾丁凱撒大飯店","LANDMARKAD":"1001304","ADDRESS":"屏東縣恆春鎮墾丁路6號","TEL":"08-886-1888","COUNTYNAME":"屏東縣","TOWNNAME":"恆春鎮","MARKTYPE":"996","Class":"6"},"geometry":{"x":120.80524910958553,"y":21.941924854328779}},{"attributes":{"OBJECTID":16284,"LANDMARKID":"1001300001282","LANDMARKCO":"601","LANDMARKNA":"墾丁福華渡假飯店","LANDMARKAD":"1001304","ADDRESS":"屏東縣恆春鎮墾丁路2號","TEL":"08-886-2323","COUNTYNAME":"屏東縣","TOWNNAME":"恆春鎮","MARKTYPE":"996","Class":"6"},"geometry":{"x":120.80591733602267,"y":21.941528517372927}},{"attributes":{"OBJECTID":16285,"LANDMARKID":"1001300001283","LANDMARKCO":"602","LANDMARKNA":"墾丁賓館","LANDMARKAD":"1001304","ADDRESS":"屏東縣恆春鎮墾丁里公園路101號","TEL":"08-886-1370","COUNTYNAME":"屏東縣","TOWNNAME":"恆春鎮","MARKTYPE":"996","Class":"6"},"geometry":{"x":120.81189660464364,"y":21.960152962703212}},{"attributes":{"OBJECTID":16286,"LANDMARKID":"1001300001191","LANDMARKCO":"503","LANDMARKNA":"龍磐草原","LANDMARKAD":"1001304","ADDRESS":"屏東縣恆春鎮","TEL":" ","COUNTYNAME":"屏東縣","TOWNNAME":"恆春鎮","MARKTYPE":"995","Class":"5"},"geometry":{"x":120.84760619503582,"y":21.925571328356956}},{"attributes":{"OBJECTID":16287,"LANDMARKID":"1001300001192","LANDMARKCO":"503","LANDMARKNA":"鵝鑾鼻燈塔","LANDMARKAD":"1001304","ADDRESS":"屏東縣恆春鎮燈塔路90號","TEL":"08-8851111","COUNTYNAME":"屏東縣","TOWNNAME":"恆春鎮","MARKTYPE":"995","Class":"5"},"geometry":{"x":120.85208617348373,"y":21.902086097445554}},{"attributes":{"OBJECTID":16288,"LANDMARKID":"1001300001212","LANDMARKCO":"505","LANDMARKNA":"墾丁色彈休閒廣場","LANDMARKAD":"1001304","ADDRESS":"屏東縣恆春鎮南灣路516號","TEL":"08-8898001","COUNTYNAME":"屏東縣","TOWNNAME":"恆春鎮","MARKTYPE":"995","Class":"5"},"geometry":{"x":120.75604038085014,"y":21.971382509882293}},{"attributes":{"OBJECTID":16289,"LANDMARKID":"1001300001275","LANDMARKCO":"511","LANDMARKNA":"墾丁夜市大街","LANDMARKAD":"1001304","ADDRESS":"屏東縣恆春鎮","TEL":" ","COUNTYNAME":"屏東縣","TOWNNAME":"恆春鎮","MARKTYPE":"995","Class":"5"},"geometry":{"x":120.79638237726196,"y":21.946082771579423}},{"attributes":{"OBJECTID":16290,"LANDMARKID":"1001300001270","LANDMARKCO":"509","LANDMARKNA":"墾丁海水浴場","LANDMARKAD":"1001304","ADDRESS":"屏東縣恆春鎮墾丁路596號","TEL":" ","COUNTYNAME":"屏東縣","TOWNNAME":"恆春鎮","MARKTYPE":"995","Class":"5"},"geometry":{"x":120.7868905794826,"y":21.945155374248454}},{"attributes":{"OBJECTID":16291,"LANDMARKID":"1001300001189","LANDMARKCO":"503","LANDMARKNA":"龍坑珊瑚礁區","LANDMARKAD":"1001304","ADDRESS":"屏東縣恆春鎮","TEL":" ","COUNTYNAME":"屏東縣","TOWNNAME":"恆春鎮","MARKTYPE":"995","Class":"5"},"geometry":{"x":120.85876264364875,"y":21.904723925340456}},{"attributes":{"OBJECTID":16292,"LANDMARKID":"1001300001213","LANDMARKCO":"505","LANDMARKNA":"恆春熱帶植物園","LANDMARKAD":"1001304","ADDRESS":"屏東縣恆春鎮公園路203號","TEL":" ","COUNTYNAME":"屏東縣","TOWNNAME":"恆春鎮","MARKTYPE":"995","Class":"5"},"geometry":{"x":120.8112611901275,"y":21.960039153905399}},{"attributes":{"OBJECTID":16293,"LANDMARKID":"1001300001214","LANDMARKCO":"505","LANDMARKNA":"墾丁水世界","LANDMARKAD":"1001304","ADDRESS":"屏東縣恆春鎮墾丁里墾丁路2號","TEL":" ","COUNTYNAME":"屏東縣","TOWNNAME":"恆春鎮","MARKTYPE":"995","Class":"5"},"geometry":{"x":120.80763814861706,"y":21.94039588815647}},{"attributes":{"OBJECTID":16294,"LANDMARKID":"1001300001269","LANDMARKCO":"509","LANDMARKNA":"小灣海水浴場","LANDMARKAD":"1001304","ADDRESS":"屏東縣恆春鎮","TEL":" ","COUNTYNAME":"屏東縣","TOWNNAME":"恆春鎮","MARKTYPE":"995","Class":"5"},"geometry":{"x":120.80483009106621,"y":21.941472147145458}},{"attributes":{"OBJECTID":16295,"LANDMARKID":"1001300001190","LANDMARKCO":"503","LANDMARKNA":"南灣遊憩區","LANDMARKAD":"1001304","ADDRESS":"屏東縣恆春鎮","TEL":" ","COUNTYNAME":"屏東縣","TOWNNAME":"恆春鎮","MARKTYPE":"995","Class":"5"},"geometry":{"x":120.76305908766459,"y":21.959444241257252}},{"attributes":{"OBJECTID":16296,"LANDMARKID":"1000800000724","LANDMARKCO":"405","LANDMARKNA":"中油加油站-清境娜嚕灣站","LANDMARKAD":"1000813","ADDRESS":"南投縣仁愛鄉大同村仁和路207號之6","TEL":"049-2920866","COUNTYNAME":"南投縣","TOWNNAME":"仁愛鄉","MARKTYPE":"994","Class":"4"},"geometry":{"x":121.19663271185338,"y":24.103899237588347}},{"attributes":{"OBJECTID":16297,"LANDMARKID":"1000800000725","LANDMARKCO":"405","LANDMARKNA":"中油加油站-霧社站(中油直營)","LANDMARKAD":"1000813","ADDRESS":"南投縣仁愛鄉大同村仁和路14號","TEL":"049-2802275","COUNTYNAME":"南投縣","TOWNNAME":"仁愛鄉","MARKTYPE":"994","Class":"4"},"geometry":{"x":121.13229785102114,"y":24.022349123531392}},{"attributes":{"OBJECTID":16298,"LANDMARKID":"1000800000886","LANDMARKCO":"507","LANDMARKNA":"曲冰遺址","LANDMARKAD":"1000813","ADDRESS":"南投縣仁愛鄉萬豐村曲冰段584地號","TEL":" ","COUNTYNAME":"南投縣","TOWNNAME":"仁愛鄉","MARKTYPE":"995","Class":"5"},"geometry":{"x":121.1055117449539,"y":23.993418366902205}},{"attributes":{"OBJECTID":16299,"LANDMARKID":"1000800000869","LANDMARKCO":"506","LANDMARKNA":"瑞岩高山茶園","LANDMARKAD":"1000813","ADDRESS":"南投縣仁愛鄉發祥村瑞岩部落","TEL":"049-2731489","COUNTYNAME":"南投縣","TOWNNAME":"仁愛鄉","MARKTYPE":"995","Class":"5"},"geometry":{"x":121.15346794270241,"y":24.130227023601094}},{"attributes":{"OBJECTID":16300,"LANDMARKID":"1000800000870","LANDMARKCO":"506","LANDMARKNA":"清境農場","LANDMARKAD":"1000813","ADDRESS":"南投縣仁愛鄉大同村仁和路170號","TEL":"049-2802222","COUNTYNAME":"南投縣","TOWNNAME":"仁愛鄉","MARKTYPE":"995","Class":"5"},"geometry":{"x":121.15833099543266,"y":24.045725189650319}},{"attributes":{"OBJECTID":16301,"LANDMARKID":"1000800000871","LANDMARKCO":"506","LANDMARKNA":"惠蓀林場","LANDMARKAD":"1000813","ADDRESS":"南投縣仁愛鄉新生村山林巷1號","TEL":"049-2941041","COUNTYNAME":"南投縣","TOWNNAME":"仁愛鄉","MARKTYPE":"995","Class":"5"},"geometry":{"x":121.03215446434983,"y":24.089716092504748}},{"attributes":{"OBJECTID":16302,"LANDMARKID":"1000800000872","LANDMARKCO":"506","LANDMARKNA":"清境小瑞士花園","LANDMARKAD":"1000813","ADDRESS":"南投縣仁愛鄉大同村仁和路170號","TEL":"049-2802748","COUNTYNAME":"南投縣","TOWNNAME":"仁愛鄉","MARKTYPE":"995","Class":"5"},"geometry":{"x":121.15829867402219,"y":24.045779109326393}},{"attributes":{"OBJECTID":16303,"LANDMARKID":"1000800000926","LANDMARKCO":"512","LANDMARKNA":"霧社旅遊服務中心","LANDMARKAD":"1000813","ADDRESS":"南投縣仁愛鄉仁和路2號","TEL":"049-2802205","COUNTYNAME":"南投縣","TOWNNAME":"仁愛鄉","MARKTYPE":"995","Class":"5"},"geometry":{"x":121.13088312025194,"y":24.017819501036534}},{"attributes":{"OBJECTID":16304,"LANDMARKID":"1000800001407","LANDMARKCO":"605","LANDMARKNA":"廬山警光山莊","LANDMARKAD":"1000813","ADDRESS":"南投縣仁愛鄉精英村榮華巷45號","TEL":"049-2802358","COUNTYNAME":"南投縣","TOWNNAME":"仁愛鄉","MARKTYPE":"996","Class":"6"},"geometry":{"x":121.19565884624413,"y":24.030904692175337}},{"attributes":{"OBJECTID":16305,"LANDMARKID":"1000800000761","LANDMARKCO":"408","LANDMARKNA":"郵局-仁愛霧社郵局","LANDMARKAD":"1000813","ADDRESS":"南投縣仁愛鄉仁和路83號","TEL":"(049)2802-246","COUNTYNAME":"南投縣","TOWNNAME":"仁愛鄉","MARKTYPE":"994","Class":"4"},"geometry":{"x":121.1327411335028,"y":24.023326195456519}},{"attributes":{"OBJECTID":16306,"LANDMARKID":"1000800000762","LANDMARKCO":"408","LANDMARKNA":"郵局-仁愛萬大郵局","LANDMARKAD":"1000813","ADDRESS":"南投縣仁愛鄉大安路38號","TEL":"(049)2974-133","COUNTYNAME":"南投縣","TOWNNAME":"仁愛鄉","MARKTYPE":"994","Class":"4"},"geometry":{"x":121.15140089133023,"y":23.958031697883293}},{"attributes":{"OBJECTID":16307,"LANDMARKID":"1000800000812","LANDMARKCO":"409","LANDMARKNA":"仁愛鄉農會","LANDMARKAD":"1000813","ADDRESS":"南投縣仁愛鄉大同村仁和路150號","TEL":"049-28022","COUNTYNAME":"南投縣","TOWNNAME":"仁愛鄉","MARKTYPE":"994","Class":"4"},"geometry":{"x":121.13318527709684,"y":24.023461809274579}},{"attributes":{"OBJECTID":16308,"LANDMARKID":"1000800000243","LANDMARKCO":"108","LANDMARKNA":"南投縣仁愛鄉公所","LANDMARKAD":"1000813","ADDRESS":"南投縣仁愛鄉大同村仁和路29號","TEL":"049-2802534","COUNTYNAME":"南投縣","TOWNNAME":"仁愛鄉","MARKTYPE":"991","Class":"1"},"geometry":{"x":121.13352274474668,"y":24.024564222965857}},{"attributes":{"OBJECTID":16309,"LANDMARKID":"1000800000155","LANDMARKCO":"107","LANDMARKNA":"南投縣消防局仁愛消防分隊","LANDMARKAD":"1000813","ADDRESS":"南投縣仁愛鄉仁和路91號","TEL":"049-2802712","COUNTYNAME":"南投縣","TOWNNAME":"仁愛鄉","MARKTYPE":"991","Class":"1"},"geometry":{"x":121.13477137546904,"y":24.026006760438932}},{"attributes":{"OBJECTID":16310,"LANDMARKID":"1000800000156","LANDMARKCO":"107","LANDMARKNA":"南投縣政府警察局親愛派出所","LANDMARKAD":"1000813","ADDRESS":"南投縣仁愛鄉親愛村高平路4號","TEL":"049-2974245","COUNTYNAME":"南投縣","TOWNNAME":"仁愛鄉","MARKTYPE":"991","Class":"1"},"geometry":{"x":121.1095064089921,"y":23.966612746406629}},{"attributes":{"OBJECTID":16311,"LANDMARKID":"1000800000157","LANDMARKCO":"107","LANDMARKNA":"南投縣政府警察局中原派出所","LANDMARKAD":"1000813","ADDRESS":"南投縣仁愛鄉互助村中華路3號","TEL":"049-2941073","COUNTYNAME":"南投縣","TOWNNAME":"仁愛鄉","MARKTYPE":"991","Class":"1"},"geometry":{"x":120.97772581508413,"y":24.067872784667305}},{"attributes":{"OBJECTID":16312,"LANDMARKID":"1000800000158","LANDMARKCO":"107","LANDMARKNA":"南投縣政府警察局南豐派出所","LANDMARKAD":"1000813","ADDRESS":"南投縣仁愛鄉南豐村中正路86號","TEL":"049-2920085","COUNTYNAME":"南投縣","TOWNNAME":"仁愛鄉","MARKTYPE":"991","Class":"1"},"geometry":{"x":121.09814067165058,"y":24.010594749560262}},{"attributes":{"OBJECTID":16313,"LANDMARKID":"1000800000159","LANDMARKCO":"107","LANDMARKNA":"南投縣政府警察局紅香派出所","LANDMARKAD":"1000813","ADDRESS":"南投縣仁愛鄉發祥村仁盛路22號","TEL":"049-2955187","COUNTYNAME":"南投縣","TOWNNAME":"仁愛鄉","MARKTYPE":"991","Class":"1"},"geometry":{"x":121.1742900531173,"y":24.164025920578734}},{"attributes":{"OBJECTID":16314,"LANDMARKID":"1000800000160","LANDMARKCO":"107","LANDMARKNA":"南投縣政府警察局松岡派出所","LANDMARKAD":"1000813","ADDRESS":"南投縣仁愛鄉大同村仁和路135號","TEL":"049-2802395","COUNTYNAME":"南投縣","TOWNNAME":"仁愛鄉","MARKTYPE":"991","Class":"1"},"geometry":{"x":121.16741547838201,"y":24.074553682943538}},{"attributes":{"OBJECTID":16315,"LANDMARKID":"1000800000161","LANDMARKCO":"107","LANDMARKNA":"南投縣政府警察局霧社派出所","LANDMARKAD":"1000813","ADDRESS":"南投縣仁愛鄉大同村仁和路87號","TEL":"049-2802520","COUNTYNAME":"南投縣","TOWNNAME":"仁愛鄉","MARKTYPE":"991","Class":"1"},"geometry":{"x":121.13172139138629,"y":24.032420637790413}},{"attributes":{"OBJECTID":16316,"LANDMARKID":"1000800000111","LANDMARKCO":"106","LANDMARKNA":"南投縣仁愛鄉戶政事務所","LANDMARKAD":"1000813","ADDRESS":"南投縣仁愛鄉大同村6鄰仁和路89號","TEL":"049-2802541","COUNTYNAME":"南投縣","TOWNNAME":"仁愛鄉","MARKTYPE":"991","Class":"1"},"geometry":{"x":121.15047416037561,"y":24.02725707105003}},{"attributes":{"OBJECTID":16317,"LANDMARKID":"1000800000087","LANDMARKCO":"103","LANDMARKNA":"南投縣仁愛鄉鄉民代表會","LANDMARKAD":"1000813","ADDRESS":"南投縣仁愛鄉大同村仁和路29號","TEL":"049-2925631","COUNTYNAME":"南投縣","TOWNNAME":"仁愛鄉","MARKTYPE":"991","Class":"1"},"geometry":{"x":121.13337341841108,"y":24.023661528805516}},{"attributes":{"OBJECTID":16318,"LANDMARKID":"1000800000088","LANDMARKCO":"103","LANDMARKNA":"南投縣仁愛鄉衛生所","LANDMARKAD":"1000813","ADDRESS":"南投縣仁愛鄉大同村五福巷17號","TEL":"049-2802341","COUNTYNAME":"南投縣","TOWNNAME":"仁愛鄉","MARKTYPE":"991","Class":"1"},"geometry":{"x":121.13230009405436,"y":24.021403614467541}},{"attributes":{"OBJECTID":16319,"LANDMARKID":"1000800000140","LANDMARKCO":"107","LANDMARKNA":"南投縣警察局仁愛分局","LANDMARKAD":"1000813","ADDRESS":"南投縣仁愛鄉大同村信義巷28號","TEL":"049-2802204","COUNTYNAME":"南投縣","TOWNNAME":"仁愛鄉","MARKTYPE":"991","Class":"1"},"geometry":{"x":121.13376713616256,"y":24.02528615748005}},{"attributes":{"OBJECTID":16320,"LANDMARKID":"1000800000141","LANDMARKCO":"107","LANDMARKNA":"南投縣警察局翠巒派出所","LANDMARKAD":"1000813","ADDRESS":"南投縣仁愛鄉力行村翠巒路23號","TEL":"04-25960040","COUNTYNAME":"南投縣","TOWNNAME":"仁愛鄉","MARKTYPE":"991","Class":"1"},"geometry":{"x":121.19605527376025,"y":24.180794358975927}},{"attributes":{"OBJECTID":16321,"LANDMARKID":"1000800000142","LANDMARKCO":"107","LANDMARKNA":"南投縣政府警察局春陽派出所","LANDMARKAD":"1000813","ADDRESS":"南投縣仁愛鄉春陽村永樂巷57號","TEL":"049-2802396","COUNTYNAME":"南投縣","TOWNNAME":"仁愛鄉","MARKTYPE":"991","Class":"1"},"geometry":{"x":121.15105503407969,"y":24.027617109755212}},{"attributes":{"OBJECTID":16322,"LANDMARKID":"1000800000143","LANDMARKCO":"107","LANDMARKNA":"南投縣政府警察局萬豐派出所","LANDMARKAD":"1000813","ADDRESS":"南投縣仁愛鄉萬豐村清華巷77號","TEL":"049-2974110","COUNTYNAME":"南投縣","TOWNNAME":"仁愛鄉","MARKTYPE":"991","Class":"1"},"geometry":{"x":121.08167649065146,"y":23.95082848093465}},{"attributes":{"OBJECTID":16323,"LANDMARKID":"1000800000144","LANDMARKCO":"107","LANDMARKNA":"南投縣政府警察局瑞岩派出所","LANDMARKAD":"1000813","ADDRESS":"南投縣仁愛鄉發祥村瑞和路43號","TEL":"049-2955185","COUNTYNAME":"南投縣","TOWNNAME":"仁愛鄉","MARKTYPE":"991","Class":"1"},"geometry":{"x":121.1636111897872,"y":24.116813739635777}},{"attributes":{"OBJECTID":16324,"LANDMARKID":"1000800000145","LANDMARKCO":"107","LANDMARKNA":"南投縣警察局榮興派出所","LANDMARKAD":"1000813","ADDRESS":"南投縣仁愛鄉榮興村6鄰碧綠巷24號","TEL":"04-25991064","COUNTYNAME":"南投縣","TOWNNAME":"仁愛鄉","MARKTYPE":"991","Class":"1"},"geometry":{"x":121.27397336472538,"y":24.122614600527591}},{"attributes":{"OBJECTID":16325,"LANDMARKID":"1000800000146","LANDMARKCO":"107","LANDMARKNA":"南投縣政府警察局清流派出所","LANDMARKAD":"1000813","ADDRESS":"南投縣仁愛鄉互助村明月巷50號","TEL":"049-2941076","COUNTYNAME":"南投縣","TOWNNAME":"仁愛鄉","MARKTYPE":"991","Class":"1"},"geometry":{"x":120.95381885543168,"y":24.068318807771146}},{"attributes":{"OBJECTID":16326,"LANDMARKID":"1000800000147","LANDMARKCO":"107","LANDMARKNA":"南投縣政府警察局過坑派出所","LANDMARKAD":"1000813","ADDRESS":"南投縣仁愛鄉中正村平等巷118號","TEL":"049-2925753","COUNTYNAME":"南投縣","TOWNNAME":"仁愛鄉","MARKTYPE":"991","Class":"1"},"geometry":{"x":120.99017783054498,"y":23.911661845165828}},{"attributes":{"OBJECTID":16327,"LANDMARKID":"1000800000148","LANDMARKCO":"107","LANDMARKNA":"南投縣政府警察局眉原派出所","LANDMARKAD":"1000813","ADDRESS":"南投縣仁愛鄉新生村山林巷93號","TEL":"049-2941075","COUNTYNAME":"南投縣","TOWNNAME":"仁愛鄉","MARKTYPE":"991","Class":"1"},"geometry":{"x":120.98431401754063,"y":24.071846262173878}},{"attributes":{"OBJECTID":16328,"LANDMARKID":"1000800000149","LANDMARKCO":"107","LANDMARKNA":"南投縣政府警察局平靜派出所","LANDMARKAD":"1000813","ADDRESS":"南投縣仁愛鄉精英村法觀路18號","TEL":"049-2970196","COUNTYNAME":"南投縣","TOWNNAME":"仁愛鄉","MARKTYPE":"991","Class":"1"},"geometry":{"x":121.19766035102805,"y":24.059077462456901}},{"attributes":{"OBJECTID":16329,"LANDMARKID":"1000800000150","LANDMARKCO":"107","LANDMARKNA":"南投縣政府警察局靜觀派出所","LANDMARKAD":"1000813","ADDRESS":"南投縣仁愛鄉合作村平生路24號","TEL":"049-2970195","COUNTYNAME":"南投縣","TOWNNAME":"仁愛鄉","MARKTYPE":"991","Class":"1"},"geometry":{"x":121.22066213460691,"y":24.082160236584322}},{"attributes":{"OBJECTID":16330,"LANDMARKID":"1000800000151","LANDMARKCO":"107","LANDMARKNA":"南投縣警察局華崗派出所","LANDMARKAD":"1000813","ADDRESS":"南投縣仁愛鄉力行村華岡路1號","TEL":"04-25960200","COUNTYNAME":"南投縣","TOWNNAME":"仁愛鄉","MARKTYPE":"991","Class":"1"},"geometry":{"x":121.2281765084695,"y":24.187703714082097}},{"attributes":{"OBJECTID":16331,"LANDMARKID":"1000800000152","LANDMARKCO":"107","LANDMARKNA":"南投縣政府警察局望洋派出所","LANDMARKAD":"1000813","ADDRESS":"南投縣仁愛鄉力行村新望洋68號","TEL":"049-2955210","COUNTYNAME":"南投縣","TOWNNAME":"仁愛鄉","MARKTYPE":"991","Class":"1"},"geometry":{"x":121.19797098226366,"y":24.144224112603723}},{"attributes":{"OBJECTID":16332,"LANDMARKID":"1000800000153","LANDMARKCO":"107","LANDMARKNA":"南投縣政府警察局廬山派出所","LANDMARKAD":"1000813","ADDRESS":"南投縣仁愛鄉精英村榮華巷43號","TEL":"049-2802521","COUNTYNAME":"南投縣","TOWNNAME":"仁愛鄉","MARKTYPE":"991","Class":"1"},"geometry":{"x":121.17502431158761,"y":24.035809467412648}},{"attributes":{"OBJECTID":16333,"LANDMARKID":"1000800000154","LANDMARKCO":"107","LANDMARKNA":"南投縣政府警察局武界派出所","LANDMARKAD":"1000813","ADDRESS":"南投縣仁愛鄉法治村界山巷4號","TEL":"049-2977001","COUNTYNAME":"南投縣","TOWNNAME":"仁愛鄉","MARKTYPE":"991","Class":"1"},"geometry":{"x":121.03969334811244,"y":23.916261878717524}},{"attributes":{"OBJECTID":16334,"LANDMARKID":"1000800000461","LANDMARKCO":"205","LANDMARKNA":"泰雅渡假村泰雅文物館","LANDMARKAD":"1000813","ADDRESS":"南投縣仁愛鄉","TEL":"049-2461311","COUNTYNAME":"南投縣","TOWNNAME":"仁愛鄉","MARKTYPE":"992","Class":"2"},"geometry":{"x":120.94376813143614,"y":24.069484053022599}},{"attributes":{"OBJECTID":16335,"LANDMARKID":"1000800000478","LANDMARKCO":"206","LANDMARKNA":"南投縣自然史教育館","LANDMARKAD":"1000813","ADDRESS":"南投縣仁愛鄉大同村山農巷27號","TEL":" ","COUNTYNAME":"南投縣","TOWNNAME":"仁愛鄉","MARKTYPE":"992","Class":"2"},"geometry":{"x":121.15522452038833,"y":24.046106658688224}},{"attributes":{"OBJECTID":16336,"LANDMARKID":"1000800000460","LANDMARKCO":"204","LANDMARKNA":"南投縣立圖書館仁愛分館","LANDMARKAD":"1000813","ADDRESS":"南投縣仁愛鄉大同村仁和路29號","TEL":" ","COUNTYNAME":"南投縣","TOWNNAME":"仁愛鄉","MARKTYPE":"992","Class":"2"},"geometry":{"x":121.13356178994715,"y":24.02284374489631}},{"attributes":{"OBJECTID":16337,"LANDMARKID":"1000800000276","LANDMARKCO":"203","LANDMARKNA":"縣立親愛國小","LANDMARKAD":"1000813","ADDRESS":"南投縣仁愛鄉親愛村高平路3號","TEL":"049-2974033","COUNTYNAME":"南投縣","TOWNNAME":"仁愛鄉","MARKTYPE":"992","Class":"2"},"geometry":{"x":121.10945721875805,"y":23.967967256653189}},{"attributes":{"OBJECTID":16338,"LANDMARKID":"1000800000277","LANDMARKCO":"203","LANDMARKNA":"縣立親愛國小萬大分校","LANDMARKAD":"1000813","ADDRESS":"南投縣仁愛鄉親愛村大安路87號","TEL":"049-2974032","COUNTYNAME":"南投縣","TOWNNAME":"仁愛鄉","MARKTYPE":"992","Class":"2"},"geometry":{"x":121.1278886456973,"y":23.974184134266274}},{"attributes":{"OBJECTID":16339,"LANDMARKID":"1000800000278","LANDMARKCO":"203","LANDMARKNA":"縣立互助國小","LANDMARKAD":"1000813","ADDRESS":"南投縣仁愛鄉互助村中華路1號","TEL":"049-2941016","COUNTYNAME":"南投縣","TOWNNAME":"仁愛鄉","MARKTYPE":"992","Class":"2"},"geometry":{"x":120.96955443189871,"y":24.063536816940388}},{"attributes":{"OBJECTID":16340,"LANDMARKID":"1000800000279","LANDMARKCO":"203","LANDMARKNA":"縣立紅葉國小","LANDMARKAD":"1000813","ADDRESS":"南投縣仁愛鄉發祥村仁盛路70號","TEL":"049-2955075","COUNTYNAME":"南投縣","TOWNNAME":"仁愛鄉","MARKTYPE":"992","Class":"2"},"geometry":{"x":121.17659012383233,"y":24.160231464184491}},{"attributes":{"OBJECTID":16341,"LANDMARKID":"1000800000280","LANDMARKCO":"203","LANDMARKNA":"縣立南豐國小","LANDMARKAD":"1000813","ADDRESS":"南投縣仁愛鄉南豐村楓林路3號","TEL":"049-2920037","COUNTYNAME":"南投縣","TOWNNAME":"仁愛鄉","MARKTYPE":"992","Class":"2"},"geometry":{"x":121.07882784085153,"y":24.000583127640269}},{"attributes":{"OBJECTID":16342,"LANDMARKID":"1000800000261","LANDMARKCO":"202","LANDMARKNA":"國立仁愛高農","LANDMARKAD":"1000813","ADDRESS":"南投縣仁愛鄉大同村山農巷27號","TEL":"049-2802619","COUNTYNAME":"南投縣","TOWNNAME":"仁愛鄉","MARKTYPE":"992","Class":"2"},"geometry":{"x":121.13383459679999,"y":24.02185481788046}},{"attributes":{"OBJECTID":16343,"LANDMARKID":"1000800000262","LANDMARKCO":"203","LANDMARKNA":"縣立仁愛國中","LANDMARKAD":"1000813","ADDRESS":"南投縣仁愛鄉大同村信義巷28號","TEL":"049-2802206","COUNTYNAME":"南投縣","TOWNNAME":"仁愛鄉","MARKTYPE":"992","Class":"2"},"geometry":{"x":121.14186619686032,"y":24.031870620455383}},{"attributes":{"OBJECTID":16344,"LANDMARKID":"1000800000263","LANDMARKCO":"203","LANDMARKNA":"縣立廬山國小","LANDMARKAD":"1000813","ADDRESS":"南投縣仁愛鄉精英村中華巷19號","TEL":"049-2970385","COUNTYNAME":"南投縣","TOWNNAME":"仁愛鄉","MARKTYPE":"992","Class":"2"},"geometry":{"x":121.18649525693684,"y":24.0348925385942}},{"attributes":{"OBJECTID":16345,"LANDMARKID":"1000800000264","LANDMARKCO":"203","LANDMARKNA":"縣立萬豐國小","LANDMARKAD":"1000813","ADDRESS":"南投縣仁愛鄉萬豐村清華巷8號","TEL":"049-2974123","COUNTYNAME":"南投縣","TOWNNAME":"仁愛鄉","MARKTYPE":"992","Class":"2"},"geometry":{"x":121.07674206655804,"y":23.947580089191792}},{"attributes":{"OBJECTID":16346,"LANDMARKID":"1000800000265","LANDMARKCO":"203","LANDMARKNA":"縣立清境國小","LANDMARKAD":"1000813","ADDRESS":"南投縣仁愛鄉定遠新村24號","TEL":"049-2802572","COUNTYNAME":"南投縣","TOWNNAME":"仁愛鄉","MARKTYPE":"992","Class":"2"},"geometry":{"x":121.15928186353905,"y":24.044584309227947}},{"attributes":{"OBJECTID":16347,"LANDMARKID":"1000800000266","LANDMARKCO":"203","LANDMARKNA":"縣立仁愛國小","LANDMARKAD":"1000813","ADDRESS":"南投縣仁愛鄉大同村山農巷5號","TEL":"049-2802373","COUNTYNAME":"南投縣","TOWNNAME":"仁愛鄉","MARKTYPE":"992","Class":"2"},"geometry":{"x":121.1335962360678,"y":24.020681393791005}},{"attributes":{"OBJECTID":16348,"LANDMARKID":"1000800000267","LANDMARKCO":"203","LANDMARKNA":"縣立紅葉國小梅林分班","LANDMARKAD":"1000813","ADDRESS":"南投縣仁愛鄉發祥村慈峰巷40號","TEL":"049-2955567","COUNTYNAME":"南投縣","TOWNNAME":"仁愛鄉","MARKTYPE":"992","Class":"2"},"geometry":{"x":121.1843114699372,"y":24.131238690935987}},{"attributes":{"OBJECTID":16349,"LANDMARKID":"1000800000268","LANDMARKCO":"203","LANDMARKNA":"縣立合作國小","LANDMARKAD":"1000813","ADDRESS":"南投縣仁愛鄉合作村平生路23號","TEL":"049-2970063","COUNTYNAME":"南投縣","TOWNNAME":"仁愛鄉","MARKTYPE":"992","Class":"2"},"geometry":{"x":121.21733206658045,"y":24.086138760123912}},{"attributes":{"OBJECTID":16350,"LANDMARKID":"1000800000269","LANDMARKCO":"203","LANDMARKNA":"縣立中正國小","LANDMARKAD":"1000813","ADDRESS":"南投縣仁愛鄉中正村平等巷114號","TEL":"049-2925114","COUNTYNAME":"南投縣","TOWNNAME":"仁愛鄉","MARKTYPE":"992","Class":"2"},"geometry":{"x":120.99054125916331,"y":23.910217141260418}},{"attributes":{"OBJECTID":16351,"LANDMARKID":"1000800000270","LANDMARKCO":"203","LANDMARKNA":"縣立平靜國小","LANDMARKAD":"1000813","ADDRESS":"南投縣仁愛鄉精英村法觀路17號","TEL":"049-2970053","COUNTYNAME":"南投縣","TOWNNAME":"仁愛鄉","MARKTYPE":"992","Class":"2"},"geometry":{"x":121.19165273872015,"y":24.059262822155986}},{"attributes":{"OBJECTID":16352,"LANDMARKID":"1000800000271","LANDMARKCO":"203","LANDMARKNA":"縣立春陽國小","LANDMARKAD":"1000813","ADDRESS":"南投縣仁愛鄉春陽村永樂巷58號","TEL":"049-2802573","COUNTYNAME":"南投縣","TOWNNAME":"仁愛鄉","MARKTYPE":"992","Class":"2"},"geometry":{"x":121.15087807440112,"y":24.027617458401703}},{"attributes":{"OBJECTID":16353,"LANDMARKID":"1000800000272","LANDMARKCO":"203","LANDMARKNA":"縣立法治國小","LANDMARKAD":"1000813","ADDRESS":"南投縣仁愛鄉法治村界山巷6號","TEL":"049-2977168","COUNTYNAME":"南投縣","TOWNNAME":"仁愛鄉","MARKTYPE":"992","Class":"2"},"geometry":{"x":121.04661838202107,"y":23.916349792715994}},{"attributes":{"OBJECTID":16354,"LANDMARKID":"1000800000273","LANDMARKCO":"203","LANDMARKNA":"縣立力行國小","LANDMARKAD":"1000813","ADDRESS":"南投縣仁愛鄉力行村新望洋67號","TEL":"049-2955078","COUNTYNAME":"南投縣","TOWNNAME":"仁愛鄉","MARKTYPE":"992","Class":"2"},"geometry":{"x":121.1886462249539,"y":24.148206699073562}},{"attributes":{"OBJECTID":16355,"LANDMARKID":"1000800000274","LANDMARKCO":"203","LANDMARKNA":"縣立力行國小翠巒分校","LANDMARKAD":"1000813","ADDRESS":"南投縣仁愛鄉力行村翠巒路26號","TEL":"04-25960165","COUNTYNAME":"南投縣","TOWNNAME":"仁愛鄉","MARKTYPE":"992","Class":"2"},"geometry":{"x":121.19964931756118,"y":24.179885670786465}},{"attributes":{"OBJECTID":16356,"LANDMARKID":"1000800000275","LANDMARKCO":"203","LANDMARKNA":"縣立發祥國小","LANDMARKAD":"1000813","ADDRESS":"南投縣仁愛鄉發祥村瑞和路41號","TEL":"049-2955030","COUNTYNAME":"南投縣","TOWNNAME":"仁愛鄉","MARKTYPE":"992","Class":"2"},"geometry":{"x":121.16079011813724,"y":24.116365358676973}},{"attributes":{"OBJECTID":16357,"LANDMARKID":"1000800000510","LANDMARKCO":"303","LANDMARKNA":"惠蓀森林遊樂區停車場","LANDMARKAD":"1000813","ADDRESS":"南投縣仁愛鄉","TEL":"049-2941041","COUNTYNAME":"南投縣","TOWNNAME":"仁愛鄉","MARKTYPE":"993","Class":"303"},"geometry":{"x":121.03371064995095,"y":24.091181439064123}},{"attributes":{"OBJECTID":16358,"LANDMARKID":"1000800000511","LANDMARKCO":"303","LANDMARKNA":"翠峰停車場","LANDMARKAD":"1000813","ADDRESS":"南投縣仁愛鄉","TEL":" ","COUNTYNAME":"南投縣","TOWNNAME":"仁愛鄉","MARKTYPE":"993","Class":"303"},"geometry":{"x":121.22192524732469,"y":23.978923727950221}},{"attributes":{"OBJECTID":16359,"LANDMARKID":"1000800000512","LANDMARKCO":"303","LANDMARKNA":"清境農場停車場","LANDMARKAD":"1000813","ADDRESS":"南投縣仁愛鄉","TEL":" ","COUNTYNAME":"南投縣","TOWNNAME":"仁愛鄉","MARKTYPE":"993","Class":"303"},"geometry":{"x":121.15760416578263,"y":24.044579996367496}},{"attributes":{"OBJECTID":16360,"LANDMARKID":"1000800000513","LANDMARKCO":"303","LANDMARKNA":"清境農場停車場","LANDMARKAD":"1000813","ADDRESS":"南投縣仁愛鄉定遠巷25號","TEL":"049-2802222","COUNTYNAME":"南投縣","TOWNNAME":"仁愛鄉","MARKTYPE":"993","Class":"303"},"geometry":{"x":121.16337714200789,"y":24.058861968242468}},{"attributes":{"OBJECTID":16361,"LANDMARKID":"1000800000514","LANDMARKCO":"303","LANDMARKNA":"奧萬大森林遊樂區停車場","LANDMARKAD":"1000813","ADDRESS":"南投縣仁愛鄉大安路153號","TEL":"049-2974511","COUNTYNAME":"南投縣","TOWNNAME":"仁愛鄉","MARKTYPE":"993","Class":"303"},"geometry":{"x":121.17497430368475,"y":23.954321679646331}},{"attributes":{"OBJECTID":16362,"LANDMARKID":"1000800000515","LANDMARKCO":"303","LANDMARKNA":"廬山立體停車場","LANDMARKAD":"1000813","ADDRESS":"南投縣仁愛鄉","TEL":" ","COUNTYNAME":"南投縣","TOWNNAME":"仁愛鄉","MARKTYPE":"993","Class":"303"},"geometry":{"x":121.18574574671501,"y":24.022521705194606}},{"attributes":{"OBJECTID":16363,"LANDMARKID":"1000800000516","LANDMARKCO":"303","LANDMARKNA":"廬山溫泉風景區停車場","LANDMARKAD":"1000813","ADDRESS":"南投縣仁愛鄉","TEL":" ","COUNTYNAME":"南投縣","TOWNNAME":"仁愛鄉","MARKTYPE":"993","Class":"303"},"geometry":{"x":121.18669527368426,"y":24.022864887414947}},{"attributes":{"OBJECTID":16364,"LANDMARKID":"1000800000517","LANDMARKCO":"303","LANDMARKNA":"鳶峰停車場","LANDMARKAD":"1000813","ADDRESS":"南投縣仁愛鄉","TEL":" ","COUNTYNAME":"南投縣","TOWNNAME":"仁愛鄉","MARKTYPE":"993","Class":"303"},"geometry":{"x":121.23718338427955,"y":24.117998990290783}},{"attributes":{"OBJECTID":16365,"LANDMARKID":"1000800000518","LANDMARKCO":"303","LANDMARKNA":"武嶺停車場","LANDMARKAD":"1000813","ADDRESS":"南投縣仁愛鄉","TEL":" ","COUNTYNAME":"南投縣","TOWNNAME":"仁愛鄉","MARKTYPE":"993","Class":"303"},"geometry":{"x":121.27592702802312,"y":24.137392925844097}},{"attributes":{"OBJECTID":16366,"LANDMARKID":"1000800000519","LANDMARKCO":"303","LANDMARKNA":"小風口南向停車場","LANDMARKAD":"1000813","ADDRESS":"南投縣仁愛鄉","TEL":" ","COUNTYNAME":"南投縣","TOWNNAME":"仁愛鄉","MARKTYPE":"993","Class":"303"},"geometry":{"x":121.28712985145533,"y":24.161631331478411}},{"attributes":{"OBJECTID":16367,"LANDMARKID":"1000800000520","LANDMARKCO":"303","LANDMARKNA":"縣立停車場","LANDMARKAD":"1000813","ADDRESS":"南投縣仁愛鄉","TEL":" ","COUNTYNAME":"南投縣","TOWNNAME":"仁愛鄉","MARKTYPE":"993","Class":"303"},"geometry":{"x":121.13324046432353,"y":24.032362909329176}},{"attributes":{"OBJECTID":16368,"LANDMARKID":"1000800000521","LANDMARKCO":"303","LANDMARKNA":"霧峰風景區停車場","LANDMARKAD":"1000813","ADDRESS":"南投縣仁愛鄉","TEL":" ","COUNTYNAME":"南投縣","TOWNNAME":"仁愛鄉","MARKTYPE":"993","Class":"303"},"geometry":{"x":121.13695242547006,"y":24.019654326179566}},{"attributes":{"OBJECTID":16369,"LANDMARKID":"1000800000522","LANDMARKCO":"303","LANDMARKNA":"昆陽遊憩區停車場","LANDMARKAD":"1000813","ADDRESS":"南投縣仁愛鄉昆陽台14甲32K","TEL":" ","COUNTYNAME":"南投縣","TOWNNAME":"仁愛鄉","MARKTYPE":"993","Class":"303"},"geometry":{"x":121.22370365294788,"y":24.214001809621823}},{"attributes":{"OBJECTID":16370,"LANDMARKID":"1000800000621","LANDMARKCO":"402","LANDMARKNA":"中華電信-霧社服務中心","LANDMARKAD":"1000813","ADDRESS":"南投縣仁愛鄉大同村仁和路12號","TEL":"(049)280-2201","COUNTYNAME":"南投縣","TOWNNAME":"仁愛鄉","MARKTYPE":"994","Class":"4"},"geometry":{"x":121.1312893385613,"y":24.018969446616989}},{"attributes":{"OBJECTID":16371,"LANDMARKID":"1000800001151","LANDMARKCO":"604","LANDMARKNA":"淳境景觀休閒山莊","LANDMARKAD":"1000813","ADDRESS":"南投縣仁愛鄉大同村仁和路221-2號","TEL":"049-2802058","COUNTYNAME":"南投縣","TOWNNAME":"仁愛鄉","MARKTYPE":"996","Class":"6"},"geometry":{"x":121.16678045868291,"y":24.068568949760351}},{"attributes":{"OBJECTID":16372,"LANDMARKID":"1000800001152","LANDMARKCO":"604","LANDMARKNA":"陶夢園民宿","LANDMARKAD":"1000813","ADDRESS":"南投縣仁愛鄉大同村仁和路224號","TEL":"049-2803853","COUNTYNAME":"南投縣","TOWNNAME":"仁愛鄉","MARKTYPE":"996","Class":"6"},"geometry":{"x":121.16760125358407,"y":24.067632052384948}},{"attributes":{"OBJECTID":16373,"LANDMARKID":"1000800001153","LANDMARKCO":"604","LANDMARKNA":"清境農場楓葉山莊","LANDMARKAD":"1000813","ADDRESS":"南投縣仁愛鄉大同村仁和路226-9號","TEL":"049-2803772","COUNTYNAME":"南投縣","TOWNNAME":"仁愛鄉","MARKTYPE":"996","Class":"6"},"geometry":{"x":121.16663396045814,"y":24.060626109161188}},{"attributes":{"OBJECTID":16374,"LANDMARKID":"1000800001154","LANDMARKCO":"604","LANDMARKNA":"竣悅空中花園民宿","LANDMARKAD":"1000813","ADDRESS":"南投縣仁愛鄉大同村仁和路228號","TEL":"049-2803838","COUNTYNAME":"南投縣","TOWNNAME":"仁愛鄉","MARKTYPE":"996","Class":"6"},"geometry":{"x":121.16687241952991,"y":24.074864848332123}},{"attributes":{"OBJECTID":16375,"LANDMARKID":"1000800001155","LANDMARKCO":"604","LANDMARKNA":"雲頂休閒山莊","LANDMARKAD":"1000813","ADDRESS":"南投縣仁愛鄉大同村仁和路182-2號","TEL":"049-2801299","COUNTYNAME":"南投縣","TOWNNAME":"仁愛鄉","MARKTYPE":"996","Class":"6"},"geometry":{"x":121.15506510398802,"y":24.050918773811301}},{"attributes":{"OBJECTID":16376,"LANDMARKID":"1000800001156","LANDMARKCO":"604","LANDMARKNA":"清境天星渡假民宿","LANDMARKAD":"1000813","ADDRESS":"南投縣仁愛鄉大同村仁和路182-3號","TEL":"049-2801098","COUNTYNAME":"南投縣","TOWNNAME":"仁愛鄉","MARKTYPE":"996","Class":"6"},"geometry":{"x":121.15606069988119,"y":24.050578559193159}},{"attributes":{"OBJECTID":16377,"LANDMARKID":"1000800001157","LANDMARKCO":"604","LANDMARKNA":"清境宿霧山宛","LANDMARKAD":"1000813","ADDRESS":"南投縣仁愛鄉大同村仁和路198號","TEL":"0963-317143","COUNTYNAME":"南投縣","TOWNNAME":"仁愛鄉","MARKTYPE":"996","Class":"6"},"geometry":{"x":121.16725988737065,"y":24.059789426417431}},{"attributes":{"OBJECTID":16378,"LANDMARKID":"1000800001158","LANDMARKCO":"604","LANDMARKNA":"珂之幄山莊","LANDMARKAD":"1000813","ADDRESS":"南投縣仁愛鄉大同村仁和路206-11號","TEL":"049-2802388","COUNTYNAME":"南投縣","TOWNNAME":"仁愛鄉","MARKTYPE":"996","Class":"6"},"geometry":{"x":121.16772828746613,"y":24.06210191364783}},{"attributes":{"OBJECTID":16379,"LANDMARKID":"1000800001159","LANDMARKCO":"604","LANDMARKNA":"清境農場立鷹山民宿","LANDMARKAD":"1000813","ADDRESS":"南投縣仁愛鄉大同村仁和路206-1號","TEL":"049-2803822","COUNTYNAME":"南投縣","TOWNNAME":"仁愛鄉","MARKTYPE":"996","Class":"6"},"geometry":{"x":121.16758180591734,"y":24.062502073715155}},{"attributes":{"OBJECTID":16380,"LANDMARKID":"1000800001160","LANDMARKCO":"604","LANDMARKNA":"清境家園景觀山莊","LANDMARKAD":"1000813","ADDRESS":"南投縣仁愛鄉大同村仁和路206-2號","TEL":"049-2803293","COUNTYNAME":"南投縣","TOWNNAME":"仁愛鄉","MARKTYPE":"996","Class":"6"},"geometry":{"x":121.16897879256118,"y":24.066021537552661}},{"attributes":{"OBJECTID":16381,"LANDMARKID":"1000800001161","LANDMARKCO":"604","LANDMARKNA":"嵐庭雅築民宿","LANDMARKAD":"1000813","ADDRESS":"南投縣仁愛鄉大同村仁和路206-3號","TEL":"049-2803856","COUNTYNAME":"南投縣","TOWNNAME":"仁愛鄉","MARKTYPE":"996","Class":"6"},"geometry":{"x":121.16807801642052,"y":24.06620452951676}},{"attributes":{"OBJECTID":16382,"LANDMARKID":"1000800001162","LANDMARKCO":"604","LANDMARKNA":"娜嚕彎渡假景觀木屋民宿","LANDMARKAD":"1000813","ADDRESS":"南投縣仁愛鄉大同村仁和路206號","TEL":"049-2803099","COUNTYNAME":"南投縣","TOWNNAME":"仁愛鄉","MARKTYPE":"996","Class":"6"},"geometry":{"x":121.16791784895086,"y":24.062531705804926}},{"attributes":{"OBJECTID":16383,"LANDMARKID":"1000800001163","LANDMARKCO":"604","LANDMARKNA":"景聖山莊","LANDMARKAD":"1000813","ADDRESS":"南投縣仁愛鄉大同村仁和路207-2號","TEL":"049-2803826","COUNTYNAME":"南投縣","TOWNNAME":"仁愛鄉","MARKTYPE":"996","Class":"6"},"geometry":{"x":121.16679410838994,"y":24.061968934466272}},{"attributes":{"OBJECTID":16384,"LANDMARKID":"1000800001164","LANDMARKCO":"604","LANDMARKNA":"嵐山小鎮","LANDMARKAD":"1000813","ADDRESS":"南投縣仁愛鄉大同村仁和路210-1號","TEL":"0925-135627","COUNTYNAME":"南投縣","TOWNNAME":"仁愛鄉","MARKTYPE":"996","Class":"6"},"geometry":{"x":121.16816965836485,"y":24.069949429391841}},{"attributes":{"OBJECTID":16385,"LANDMARKID":"1000800001165","LANDMARKCO":"604","LANDMARKNA":"海怪景觀民宿","LANDMARKAD":"1000813","ADDRESS":"南投縣仁愛鄉大同村仁和路210-2號","TEL":"049-2803005","COUNTYNAME":"南投縣","TOWNNAME":"仁愛鄉","MARKTYPE":"996","Class":"6"},"geometry":{"x":121.16883633796688,"y":24.072480694334608}},{"attributes":{"OBJECTID":16386,"LANDMARKID":"1000800001166","LANDMARKCO":"604","LANDMARKNA":"挪威森林民宿","LANDMARKAD":"1000813","ADDRESS":"南投縣仁愛鄉大同村仁和路210-5號","TEL":"049-2803822","COUNTYNAME":"南投縣","TOWNNAME":"仁愛鄉","MARKTYPE":"996","Class":"6"},"geometry":{"x":121.16829400741702,"y":24.07222829254432}},{"attributes":{"OBJECTID":16387,"LANDMARKID":"1000800001167","LANDMARKCO":"604","LANDMARKNA":"雲上太陽","LANDMARKAD":"1000813","ADDRESS":"南投縣仁愛鄉大同村仁和路210-6號","TEL":"049-2802668","COUNTYNAME":"南投縣","TOWNNAME":"仁愛鄉","MARKTYPE":"996","Class":"6"},"geometry":{"x":121.16761616269606,"y":24.07033903624804}},{"attributes":{"OBJECTID":16388,"LANDMARKID":"1000800001168","LANDMARKCO":"604","LANDMARKNA":"清境驛站民宿","LANDMARKAD":"1000813","ADDRESS":"南投縣仁愛鄉大同村仁和路210號","TEL":"049-2801850","COUNTYNAME":"南投縣","TOWNNAME":"仁愛鄉","MARKTYPE":"996","Class":"6"},"geometry":{"x":121.16779125889231,"y":24.068403844143919}},{"attributes":{"OBJECTID":16389,"LANDMARKID":"1000800001169","LANDMARKCO":"604","LANDMARKNA":"名人渡假村","LANDMARKAD":"1000813","ADDRESS":"南投縣仁愛鄉大同村仁和路216-1號","TEL":"049-2802841","COUNTYNAME":"南投縣","TOWNNAME":"仁愛鄉","MARKTYPE":"996","Class":"6"},"geometry":{"x":121.16722227997212,"y":24.064876467386231}},{"attributes":{"OBJECTID":16390,"LANDMARKID":"1000800001170","LANDMARKCO":"604","LANDMARKNA":"二楞子渡假山莊","LANDMARKAD":"1000813","ADDRESS":"南投縣仁愛鄉大同村仁和路216-2號","TEL":"049-2802841","COUNTYNAME":"南投縣","TOWNNAME":"仁愛鄉","MARKTYPE":"996","Class":"6"},"geometry":{"x":121.19964575824349,"y":24.107979926219148}},{"attributes":{"OBJECTID":16391,"LANDMARKID":"1000800001171","LANDMARKCO":"604","LANDMARKNA":"牧羊人民宿","LANDMARKAD":"1000813","ADDRESS":"南投縣仁愛鄉大同村仁和路216號","TEL":"049-2803125","COUNTYNAME":"南投縣","TOWNNAME":"仁愛鄉","MARKTYPE":"996","Class":"6"},"geometry":{"x":121.1672838339526,"y":24.068852399693977}},{"attributes":{"OBJECTID":16392,"LANDMARKID":"1000800001172","LANDMARKCO":"604","LANDMARKNA":"雲海景觀渡假山莊","LANDMARKAD":"1000813","ADDRESS":"南投縣仁愛鄉大同村仁和路217-2號","TEL":"049-2803889","COUNTYNAME":"南投縣","TOWNNAME":"仁愛鄉","MARKTYPE":"996","Class":"6"},"geometry":{"x":121.16633644645388,"y":24.065010432513656}},{"attributes":{"OBJECTID":16393,"LANDMARKID":"1000800001173","LANDMARKCO":"604","LANDMARKNA":"黃慶果園民宿","LANDMARKAD":"1000813","ADDRESS":"南投縣仁愛鄉大同村仁和路217-3號","TEL":"049-2802678","COUNTYNAME":"南投縣","TOWNNAME":"仁愛鄉","MARKTYPE":"996","Class":"6"},"geometry":{"x":121.16661665336919,"y":24.065169127714469}},{"attributes":{"OBJECTID":16394,"LANDMARKID":"1000800001174","LANDMARKCO":"604","LANDMARKNA":"珍谷渡假山莊","LANDMARKAD":"1000813","ADDRESS":"南投縣仁愛鄉大同村仁和路218-1號","TEL":"049-2802196","COUNTYNAME":"南投縣","TOWNNAME":"仁愛鄉","MARKTYPE":"996","Class":"6"},"geometry":{"x":121.16785764294035,"y":24.064382771390477}},{"attributes":{"OBJECTID":16395,"LANDMARKID":"1000800001175","LANDMARKCO":"604","LANDMARKNA":"長白山農場","LANDMARKAD":"1000813","ADDRESS":"南投縣仁愛鄉大同村仁和路218號","TEL":"049-2802998","COUNTYNAME":"南投縣","TOWNNAME":"仁愛鄉","MARKTYPE":"996","Class":"6"},"geometry":{"x":121.16806568154682,"y":24.062402542976411}},{"attributes":{"OBJECTID":16396,"LANDMARKID":"1000800001176","LANDMARKCO":"604","LANDMARKNA":"清境青青草原客棧","LANDMARKAD":"1000813","ADDRESS":"南投縣仁愛鄉大同村仁和路179-5號","TEL":"049-2801001","COUNTYNAME":"南投縣","TOWNNAME":"仁愛鄉","MARKTYPE":"996","Class":"6"},"geometry":{"x":121.16562785485715,"y":24.059778201542191}},{"attributes":{"OBJECTID":16397,"LANDMARKID":"1000800001177","LANDMARKCO":"604","LANDMARKNA":"阿彬民宿","LANDMARKAD":"1000813","ADDRESS":"南投縣仁愛鄉大同村仁和路206-5號","TEL":"0937-277913","COUNTYNAME":"南投縣","TOWNNAME":"仁愛鄉","MARKTYPE":"996","Class":"6"},"geometry":{"x":121.19636704439694,"y":24.104118615723625}},{"attributes":{"OBJECTID":16398,"LANDMARKID":"1000800001178","LANDMARKCO":"604","LANDMARKNA":"清境魯媽媽","LANDMARKAD":"1000813","ADDRESS":"南投縣仁愛鄉大同村仁和路210之2之1號","TEL":"049-2803876","COUNTYNAME":"南投縣","TOWNNAME":"仁愛鄉","MARKTYPE":"996","Class":"6"},"geometry":{"x":121.13011771245525,"y":24.017573104559244}},{"attributes":{"OBJECTID":16399,"LANDMARKID":"1000800001179","LANDMARKCO":"604","LANDMARKNA":"見晴民宿","LANDMARKAD":"1000813","ADDRESS":"南投縣仁愛鄉大同村定遠新村18-1-1號","TEL":"049-2803162","COUNTYNAME":"南投縣","TOWNNAME":"仁愛鄉","MARKTYPE":"996","Class":"6"},"geometry":{"x":121.15822335071672,"y":24.041953340520969}},{"attributes":{"OBJECTID":16400,"LANDMARKID":"1000800001180","LANDMARKCO":"604","LANDMARKNA":"緣園民宿","LANDMARKAD":"1000813","ADDRESS":"南投縣仁愛鄉大同村定遠新村18-3號","TEL":"049-2801070","COUNTYNAME":"南投縣","TOWNNAME":"仁愛鄉","MARKTYPE":"996","Class":"6"},"geometry":{"x":121.1581831715045,"y":24.041807382145116}}]}