{"displayFieldName":"COUNTYNAME","fieldAliases":{"OBJECTID":"OBJECTID","LANDMARKID":"LANDMARKID","LANDMARKCO":"LANDMARKCO","LANDMARKNA":"LANDMARKNA","LANDMARKAD":"LANDMARKAD","ADDRESS":"ADDRESS","TEL":"TEL","COUNTYNAME":"COUNTYNAME","TOWNNAME":"TOWNNAME","MARKTYPE":"MARKTYPE","Class":"Class"},"geometryType":"esriGeometryPoint","spatialReference":{"wkid":4326},"fields":[{"name":"OBJECTID","type":"esriFieldTypeOID","alias":"OBJECTID"},{"name":"LANDMARKID","type":"esriFieldTypeString","alias":"LANDMARKID","length":15},{"name":"LANDMARKCO","type":"esriFieldTypeString","alias":"LANDMARKCO","length":15},{"name":"LANDMARKNA","type":"esriFieldTypeString","alias":"LANDMARKNA","length":50},{"name":"LANDMARKAD","type":"esriFieldTypeString","alias":"LANDMARKAD","length":15},{"name":"ADDRESS","type":"esriFieldTypeString","alias":"ADDRESS","length":56},{"name":"TEL","type":"esriFieldTypeString","alias":"TEL","length":36},{"name":"COUNTYNAME","type":"esriFieldTypeString","alias":"COUNTYNAME","length":15},{"name":"TOWNNAME","type":"esriFieldTypeString","alias":"TOWNNAME","length":13},{"name":"MARKTYPE","type":"esriFieldTypeString","alias":"MARKTYPE","length":12},{"name":"Class","type":"esriFieldTypeString","alias":"Class","length":5}],"features":[{"attributes":{"OBJECTID":16601,"LANDMARKID":"1000800000702","LANDMARKCO":"405","LANDMARKNA":"台亞加油站-草屯交流道站（台塑）","LANDMARKAD":"1000803","ADDRESS":"南投縣草屯鎮博愛路1132號","TEL":"(049)230-1546","COUNTYNAME":"南投縣","TOWNNAME":"草屯鎮","MARKTYPE":"994","Class":"4"},"geometry":{"x":120.6665596240627,"y":23.993619691170252}},{"attributes":{"OBJECTID":16602,"LANDMARKID":"1000800000703","LANDMARKCO":"405","LANDMARKNA":"鯨世界加油站-上林站(台塑)","LANDMARKAD":"1000803","ADDRESS":"南投縣草屯鎮草溪路469號","TEL":"049-2370200","COUNTYNAME":"南投縣","TOWNNAME":"草屯鎮","MARKTYPE":"994","Class":"4"},"geometry":{"x":120.67594078752144,"y":23.963458948011159}},{"attributes":{"OBJECTID":16603,"LANDMARKID":"1000800000001","LANDMARKCO":"101","LANDMARKNA":"國立台灣工藝研究所","LANDMARKAD":"1000803","ADDRESS":"南投縣草屯鎮中正路573號","TEL":"049-2334141","COUNTYNAME":"南投縣","TOWNNAME":"草屯鎮","MARKTYPE":"991","Class":"1"},"geometry":{"x":120.69220135703466,"y":23.980008031894187}},{"attributes":{"OBJECTID":16604,"LANDMARKID":"1000800000241","LANDMARKCO":"108","LANDMARKNA":"南投縣草屯鎮公所","LANDMARKAD":"1000803","ADDRESS":"南投縣草屯鎮中山里草鞋墩一街8號","TEL":"049-2338161","COUNTYNAME":"南投縣","TOWNNAME":"草屯鎮","MARKTYPE":"991","Class":"1"},"geometry":{"x":120.68072312003743,"y":23.973657307695085}},{"attributes":{"OBJECTID":16605,"LANDMARKID":"1000800000083","LANDMARKCO":"103","LANDMARKNA":"南投縣草屯鎮衛生所","LANDMARKAD":"1000803","ADDRESS":"南投縣草屯鎮炎峰里碧山路50號","TEL":"049-2362023","COUNTYNAME":"南投縣","TOWNNAME":"草屯鎮","MARKTYPE":"991","Class":"1"},"geometry":{"x":120.68637602770393,"y":23.978037500077075}},{"attributes":{"OBJECTID":16606,"LANDMARKID":"1000800000084","LANDMARKCO":"103","LANDMARKNA":"南投縣草屯鎮民代表會","LANDMARKAD":"1000803","ADDRESS":"南投縣草屯鎮草溪路888號","TEL":"049-2333410","COUNTYNAME":"南投縣","TOWNNAME":"草屯鎮","MARKTYPE":"991","Class":"1"},"geometry":{"x":120.68029389303399,"y":23.973342221285861}},{"attributes":{"OBJECTID":16607,"LANDMARKID":"1000800000132","LANDMARKCO":"107","LANDMARKNA":"南投縣消防局草屯消防分隊","LANDMARKAD":"1000803","ADDRESS":"南投縣草屯鎮碧山南路185號","TEL":"049-2362063","COUNTYNAME":"南投縣","TOWNNAME":"草屯鎮","MARKTYPE":"991","Class":"1"},"geometry":{"x":120.67697987206797,"y":23.977721138532697}},{"attributes":{"OBJECTID":16608,"LANDMARKID":"1000800000133","LANDMARKCO":"107","LANDMARKNA":"南投縣政府警察局草屯分局","LANDMARKAD":"1000803","ADDRESS":"南投縣草屯鎮炎峰里中正路603號","TEL":"049-2362002","COUNTYNAME":"南投縣","TOWNNAME":"草屯鎮","MARKTYPE":"991","Class":"1"},"geometry":{"x":120.68639438243336,"y":23.978717537538625}},{"attributes":{"OBJECTID":16609,"LANDMARKID":"1000800000134","LANDMARKCO":"107","LANDMARKNA":"南投縣政府警察局雙冬派出所","LANDMARKAD":"1000803","ADDRESS":"南投縣草屯鎮雙冬里中正路46號","TEL":"049-2571222","COUNTYNAME":"南投縣","TOWNNAME":"草屯鎮","MARKTYPE":"991","Class":"1"},"geometry":{"x":120.79149614612395,"y":23.983650524251345}},{"attributes":{"OBJECTID":16610,"LANDMARKID":"1000800000135","LANDMARKCO":"107","LANDMARKNA":"南投縣政府警察局復興派出所","LANDMARKAD":"1000803","ADDRESS":"南投縣草屯鎮復興里碧山路755號","TEL":"049-2334783","COUNTYNAME":"南投縣","TOWNNAME":"草屯鎮","MARKTYPE":"991","Class":"1"},"geometry":{"x":120.66773450420943,"y":23.97583927406972}},{"attributes":{"OBJECTID":16611,"LANDMARKID":"1000800000136","LANDMARKCO":"107","LANDMARKNA":"南投縣政府警察局豐城派出所","LANDMARKAD":"1000803","ADDRESS":"南投縣草屯鎮土城里中正路216號","TEL":"049-2552223","COUNTYNAME":"南投縣","TOWNNAME":"草屯鎮","MARKTYPE":"991","Class":"1"},"geometry":{"x":120.74193435661347,"y":23.984487409665132}},{"attributes":{"OBJECTID":16612,"LANDMARKID":"1000800000137","LANDMARKCO":"107","LANDMARKNA":"南投縣政府警察局新光派出所","LANDMARKAD":"1000803","ADDRESS":"南投縣草屯鎮新庄里芬草路150號","TEL":"049-2321224","COUNTYNAME":"南投縣","TOWNNAME":"草屯鎮","MARKTYPE":"991","Class":"1"},"geometry":{"x":120.67103471527048,"y":23.992430377864181}},{"attributes":{"OBJECTID":16613,"LANDMARKID":"1000800000138","LANDMARKCO":"107","LANDMARKNA":"南投縣政府警察局草屯派出所","LANDMARKAD":"1000803","ADDRESS":"南投縣草屯鎮中山里太平路二段235號","TEL":"049-2362066","COUNTYNAME":"南投縣","TOWNNAME":"草屯鎮","MARKTYPE":"991","Class":"1"},"geometry":{"x":120.68355639428336,"y":23.975107418312398}},{"attributes":{"OBJECTID":16614,"LANDMARKID":"1000800000139","LANDMARKCO":"107","LANDMARKNA":"南投縣警察局中正派出所","LANDMARKAD":"1000803","ADDRESS":"南投縣草屯鎮炎峰里中正路603號","TEL":"049-2306200","COUNTYNAME":"南投縣","TOWNNAME":"草屯鎮","MARKTYPE":"991","Class":"1"},"geometry":{"x":120.68639438243336,"y":23.978717537538625}},{"attributes":{"OBJECTID":16615,"LANDMARKID":"1000800000107","LANDMARKCO":"106","LANDMARKNA":"南投縣草屯鎮戶政事務所","LANDMARKAD":"1000803","ADDRESS":"南投縣草屯鎮富寮里玉峰街2號","TEL":"049-2333434","COUNTYNAME":"南投縣","TOWNNAME":"草屯鎮","MARKTYPE":"991","Class":"1"},"geometry":{"x":120.68878191252691,"y":23.979752398931421}},{"attributes":{"OBJECTID":16616,"LANDMARKID":"1000800000098","LANDMARKCO":"105","LANDMARKNA":"南投縣草屯地政事務所","LANDMARKAD":"1000803","ADDRESS":"南投縣草屯鎮中正路579之1號","TEL":"049-2334128","COUNTYNAME":"南投縣","TOWNNAME":"草屯鎮","MARKTYPE":"991","Class":"1"},"geometry":{"x":120.68896315243398,"y":23.979237109940339}},{"attributes":{"OBJECTID":16617,"LANDMARKID":"1000800000002","LANDMARKCO":"101","LANDMARKNA":"林務局南投林區管理處","LANDMARKAD":"1000803","ADDRESS":"南投縣草屯鎮史館路456號","TEL":"049-2365226","COUNTYNAME":"南投縣","TOWNNAME":"草屯鎮","MARKTYPE":"991","Class":"1"},"geometry":{"x":120.66769319098232,"y":23.990239186208694}},{"attributes":{"OBJECTID":16618,"LANDMARKID":"1000800000003","LANDMARKCO":"101","LANDMARKNA":"職業訓練局草屯就業服務台","LANDMARKAD":"1000803","ADDRESS":"南投縣草屯鎮草鞋墩一街8號","TEL":"049-2310955","COUNTYNAME":"南投縣","TOWNNAME":"草屯鎮","MARKTYPE":"991","Class":"1"},"geometry":{"x":120.68072312003743,"y":23.973657307695085}},{"attributes":{"OBJECTID":16619,"LANDMARKID":"1000800000184","LANDMARKCO":"107","LANDMARKNA":"南投縣政府警察局上林派出所","LANDMARKAD":"1000803","ADDRESS":"南投縣草屯鎮上林里草溪路136之11","TEL":"049-2329309","COUNTYNAME":"南投縣","TOWNNAME":"草屯鎮","MARKTYPE":"991","Class":"1"},"geometry":{"x":120.67187686817304,"y":23.958180592715074}},{"attributes":{"OBJECTID":16620,"LANDMARKID":"1000800000004","LANDMARKCO":"101","LANDMARKNA":"台灣省山地建設協會","LANDMARKAD":"1000803","ADDRESS":"南投縣草屯鎮","TEL":" ","COUNTYNAME":"南投縣","TOWNNAME":"草屯鎮","MARKTYPE":"991","Class":"1"},"geometry":{"x":120.68512244364908,"y":23.959470916803365}},{"attributes":{"OBJECTID":16621,"LANDMARKID":"1000800000467","LANDMARKCO":"205","LANDMARKNA":"稻草工藝文化館","LANDMARKAD":"1000803","ADDRESS":"南投縣草屯鎮中正路571之6號","TEL":"049-2338161","COUNTYNAME":"南投縣","TOWNNAME":"草屯鎮","MARKTYPE":"992","Class":"2"},"geometry":{"x":120.69270032662601,"y":23.979450061778888}},{"attributes":{"OBJECTID":16622,"LANDMARKID":"1000800000468","LANDMARKCO":"205","LANDMARKNA":"台灣手工藝研究中心","LANDMARKAD":"1000803","ADDRESS":"南投縣草屯鎮中正路573號","TEL":" ","COUNTYNAME":"南投縣","TOWNNAME":"草屯鎮","MARKTYPE":"992","Class":"2"},"geometry":{"x":120.69213242260543,"y":23.980073568854678}},{"attributes":{"OBJECTID":16623,"LANDMARKID":"1000800000457","LANDMARKCO":"204","LANDMARKNA":"南投縣立圖書館草屯分館","LANDMARKAD":"1000803","ADDRESS":"南投縣草屯鎮玉峰街2之1號","TEL":" ","COUNTYNAME":"南投縣","TOWNNAME":"草屯鎮","MARKTYPE":"992","Class":"2"},"geometry":{"x":120.6881214665943,"y":23.980393218673559}},{"attributes":{"OBJECTID":16624,"LANDMARKID":"1000800000326","LANDMARKCO":"203","LANDMARKNA":"縣立平林國小","LANDMARKAD":"1000803","ADDRESS":"南投縣草屯鎮平林里平學路120號","TEL":"049-2571761","COUNTYNAME":"南投縣","TOWNNAME":"草屯鎮","MARKTYPE":"992","Class":"2"},"geometry":{"x":120.76254878950196,"y":23.992386020928141}},{"attributes":{"OBJECTID":16625,"LANDMARKID":"1000800000327","LANDMARKCO":"203","LANDMARKNA":"縣立中原國小","LANDMARKAD":"1000803","ADDRESS":"南投縣草屯鎮中原里坪腳巷20號","TEL":"049-2554631","COUNTYNAME":"南投縣","TOWNNAME":"草屯鎮","MARKTYPE":"992","Class":"2"},"geometry":{"x":120.66193514713113,"y":23.95227311578795}},{"attributes":{"OBJECTID":16626,"LANDMARKID":"1000800000258","LANDMARKCO":"202","LANDMARKNA":"縣立旭光高中","LANDMARKAD":"1000803","ADDRESS":"南投縣草屯鎮中正路568之23號","TEL":"049-2560934","COUNTYNAME":"南投縣","TOWNNAME":"草屯鎮","MARKTYPE":"992","Class":"2"},"geometry":{"x":120.69477128431041,"y":23.980057609209556}},{"attributes":{"OBJECTID":16627,"LANDMARKID":"1000800000259","LANDMARKCO":"202","LANDMARKNA":"國立草屯商工","LANDMARKAD":"1000803","ADDRESS":"南投縣草屯鎮中正路574號","TEL":"049-2362082","COUNTYNAME":"南投縣","TOWNNAME":"草屯鎮","MARKTYPE":"992","Class":"2"},"geometry":{"x":120.69107630913821,"y":23.980701379188055}},{"attributes":{"OBJECTID":16628,"LANDMARKID":"1000800000260","LANDMARKCO":"202","LANDMARKNA":"私立同德家商","LANDMARKAD":"1000803","ADDRESS":"南投縣草屯鎮中正路培英巷8號","TEL":"049-2553109","COUNTYNAME":"南投縣","TOWNNAME":"草屯鎮","MARKTYPE":"992","Class":"2"},"geometry":{"x":120.81227500799622,"y":23.998358388335216}},{"attributes":{"OBJECTID":16629,"LANDMARKID":"1000800000281","LANDMARKCO":"203","LANDMARKNA":"縣立草屯國中","LANDMARKAD":"1000803","ADDRESS":"南投縣草屯鎮炎峰里虎山路808號","TEL":"049-2362050","COUNTYNAME":"南投縣","TOWNNAME":"草屯鎮","MARKTYPE":"992","Class":"2"},"geometry":{"x":120.68647121759507,"y":23.977247694355224}},{"attributes":{"OBJECTID":16630,"LANDMARKID":"1000800000282","LANDMARKCO":"203","LANDMARKNA":"縣立日新國中","LANDMARKAD":"1000803","ADDRESS":"南投縣草屯鎮新豐里稻香路45號","TEL":"049-2333480","COUNTYNAME":"南投縣","TOWNNAME":"草屯鎮","MARKTYPE":"992","Class":"2"},"geometry":{"x":120.67700451835849,"y":23.99530119392006}},{"attributes":{"OBJECTID":16631,"LANDMARKID":"1000800000283","LANDMARKCO":"203","LANDMARKNA":"縣立僑光國小","LANDMARKAD":"1000803","ADDRESS":"南投縣草屯鎮稻香路20-2號","TEL":"049-2333684","COUNTYNAME":"南投縣","TOWNNAME":"草屯鎮","MARKTYPE":"992","Class":"2"},"geometry":{"x":120.68647273014378,"y":23.993287698369162}},{"attributes":{"OBJECTID":16632,"LANDMARKID":"1000800000284","LANDMARKCO":"203","LANDMARKNA":"縣立雙冬國小","LANDMARKAD":"1000803","ADDRESS":"南投縣草屯鎮雙冬里中正路34號","TEL":"049-2571362","COUNTYNAME":"南投縣","TOWNNAME":"草屯鎮","MARKTYPE":"992","Class":"2"},"geometry":{"x":120.7962051837379,"y":23.984269307110402}},{"attributes":{"OBJECTID":16633,"LANDMARKID":"1000800000285","LANDMARKCO":"203","LANDMARKNA":"縣立新庄國小","LANDMARKAD":"1000803","ADDRESS":"南投縣草屯鎮新庄里芬草路219號","TEL":"049-2333104","COUNTYNAME":"南投縣","TOWNNAME":"草屯鎮","MARKTYPE":"992","Class":"2"},"geometry":{"x":120.66796402578709,"y":23.99546977297047}},{"attributes":{"OBJECTID":16634,"LANDMARKID":"1000800000286","LANDMARKCO":"203","LANDMARKNA":"縣立碧峰國小","LANDMARKAD":"1000803","ADDRESS":"南投縣草屯鎮碧峰里立人路439號","TEL":"049-2334304","COUNTYNAME":"南投縣","TOWNNAME":"草屯鎮","MARKTYPE":"992","Class":"2"},"geometry":{"x":120.66570019681643,"y":23.969170915221934}},{"attributes":{"OBJECTID":16635,"LANDMARKID":"1000800000287","LANDMARKCO":"203","LANDMARKNA":"縣立敦和國小","LANDMARKAD":"1000803","ADDRESS":"南投縣草屯鎮敦和路72-6號","TEL":"049-2365074","COUNTYNAME":"南投縣","TOWNNAME":"草屯鎮","MARKTYPE":"992","Class":"2"},"geometry":{"x":120.6775539515572,"y":23.981642347909336}},{"attributes":{"OBJECTID":16636,"LANDMARKID":"1000800000288","LANDMARKCO":"203","LANDMARKNA":"縣立土城國小","LANDMARKAD":"1000803","ADDRESS":"南投縣草屯鎮土城里中正路189號","TEL":"049-2552024","COUNTYNAME":"南投縣","TOWNNAME":"草屯鎮","MARKTYPE":"992","Class":"2"},"geometry":{"x":120.74282541405493,"y":23.983958905691367}},{"attributes":{"OBJECTID":16637,"LANDMARKID":"1000800000289","LANDMARKCO":"203","LANDMARKNA":"縣立富功國小","LANDMARKAD":"1000803","ADDRESS":"南投縣草屯鎮富寮里中正路567號","TEL":"049-2569213","COUNTYNAME":"南投縣","TOWNNAME":"草屯鎮","MARKTYPE":"992","Class":"2"},"geometry":{"x":120.69824220525452,"y":23.979688967044126}},{"attributes":{"OBJECTID":16638,"LANDMARKID":"1000800000290","LANDMARKCO":"203","LANDMARKNA":"縣立炎峰國小","LANDMARKAD":"1000803","ADDRESS":"南投縣草屯鎮中興路101號","TEL":"049-2333221","COUNTYNAME":"南投縣","TOWNNAME":"草屯鎮","MARKTYPE":"992","Class":"2"},"geometry":{"x":120.68465096832958,"y":23.97455967113472}},{"attributes":{"OBJECTID":16639,"LANDMARKID":"1000800000291","LANDMARKCO":"203","LANDMARKNA":"縣立草屯國小","LANDMARKAD":"1000803","ADDRESS":"南投縣草屯鎮玉峰里玉屏路210號","TEL":"049-2362007","COUNTYNAME":"南投縣","TOWNNAME":"草屯鎮","MARKTYPE":"992","Class":"2"},"geometry":{"x":120.68721500560852,"y":23.981239212804848}},{"attributes":{"OBJECTID":16640,"LANDMARKID":"1000800000292","LANDMARKCO":"203","LANDMARKNA":"縣立坪頂國小","LANDMARKAD":"1000803","ADDRESS":"南投縣草屯鎮坪頂里南坪路40號","TEL":"049-2552074","COUNTYNAME":"南投縣","TOWNNAME":"草屯鎮","MARKTYPE":"992","Class":"2"},"geometry":{"x":120.73910393818316,"y":23.968017324411587}},{"attributes":{"OBJECTID":16641,"LANDMARKID":"1000800000293","LANDMARKCO":"203","LANDMARKNA":"縣立虎山國小","LANDMARKAD":"1000803","ADDRESS":"南投縣草屯鎮新生路76號","TEL":"049-2339107","COUNTYNAME":"南投縣","TOWNNAME":"草屯鎮","MARKTYPE":"992","Class":"2"},"geometry":{"x":120.68452249903287,"y":23.962819406656525}},{"attributes":{"OBJECTID":16642,"LANDMARKID":"1000800000246","LANDMARKCO":"201","LANDMARKNA":"南開技術學院","LANDMARKAD":"1000803","ADDRESS":"南投縣草屯鎮中正路568號","TEL":"049-2563489","COUNTYNAME":"南投縣","TOWNNAME":"草屯鎮","MARKTYPE":"992","Class":"2"},"geometry":{"x":120.69677558935474,"y":23.981011583298752}},{"attributes":{"OBJECTID":16643,"LANDMARKID":"1000800000254","LANDMARKCO":"202","LANDMARKNA":"私立培英工商","LANDMARKAD":"1000803","ADDRESS":"南投縣草屯鎮","TEL":" ","COUNTYNAME":"南投縣","TOWNNAME":"草屯鎮","MARKTYPE":"992","Class":"2"},"geometry":{"x":120.6952832903162,"y":23.99958046735005}},{"attributes":{"OBJECTID":16644,"LANDMARKID":"1000800000325","LANDMARKCO":"203","LANDMARKNA":"縣立北投國小","LANDMARKAD":"1000803","ADDRESS":"南投縣草屯鎮北投里文教巷43號","TEL":"049-2333614","COUNTYNAME":"南投縣","TOWNNAME":"草屯鎮","MARKTYPE":"992","Class":"2"},"geometry":{"x":120.65808004487012,"y":23.986774429354917}},{"attributes":{"OBJECTID":16645,"LANDMARKID":"1000800000504","LANDMARKCO":"303","LANDMARKNA":"草屯鎮廣停三停車場","LANDMARKAD":"1000803","ADDRESS":"南投縣草屯鎮大成街","TEL":" ","COUNTYNAME":"南投縣","TOWNNAME":"草屯鎮","MARKTYPE":"993","Class":"303"},"geometry":{"x":120.68804397748714,"y":23.977526278414352}},{"attributes":{"OBJECTID":16646,"LANDMARKID":"1000800000505","LANDMARKCO":"303","LANDMARKNA":"草屯鎮廣停三停車場","LANDMARKAD":"1000803","ADDRESS":"南投縣草屯鎮大成街","TEL":" ","COUNTYNAME":"南投縣","TOWNNAME":"草屯鎮","MARKTYPE":"993","Class":"303"},"geometry":{"x":120.68807293075254,"y":23.978772301819756}},{"attributes":{"OBJECTID":16647,"LANDMARKID":"1000800000580","LANDMARKCO":"308","LANDMARKNA":"國3-草屯交流道-南下","LANDMARKAD":"1000803","ADDRESS":"南投縣草屯鎮","TEL":" ","COUNTYNAME":"南投縣","TOWNNAME":"草屯鎮","MARKTYPE":"993","Class":"308"},"geometry":{"x":120.65120291308995,"y":24.004117853882086}},{"attributes":{"OBJECTID":16648,"LANDMARKID":"1000800000581","LANDMARKCO":"308","LANDMARKNA":"國3-中興系統交流道-北上","LANDMARKAD":"1000803","ADDRESS":"南投縣草屯鎮","TEL":" ","COUNTYNAME":"南投縣","TOWNNAME":"草屯鎮","MARKTYPE":"993","Class":"308"},"geometry":{"x":120.65198405944454,"y":23.962070562121003}},{"attributes":{"OBJECTID":16649,"LANDMARKID":"1000800000582","LANDMARKCO":"308","LANDMARKNA":"國3-南投交流道-北上","LANDMARKAD":"1000803","ADDRESS":"南投縣草屯鎮","TEL":" ","COUNTYNAME":"南投縣","TOWNNAME":"草屯鎮","MARKTYPE":"993","Class":"308"},"geometry":{"x":120.66702039070169,"y":23.951857736490304}},{"attributes":{"OBJECTID":16650,"LANDMARKID":"1000800000583","LANDMARKCO":"308","LANDMARKNA":"國3-草屯交流道-北上","LANDMARKAD":"1000803","ADDRESS":"南投縣草屯鎮","TEL":" ","COUNTYNAME":"南投縣","TOWNNAME":"草屯鎮","MARKTYPE":"993","Class":"308"},"geometry":{"x":120.65450301615063,"y":24.007402708154867}},{"attributes":{"OBJECTID":16651,"LANDMARKID":"1000800000584","LANDMARKCO":"308","LANDMARKNA":"國3-中興系統交流道-南下","LANDMARKAD":"1000803","ADDRESS":"南投縣草屯鎮","TEL":" ","COUNTYNAME":"南投縣","TOWNNAME":"草屯鎮","MARKTYPE":"993","Class":"308"},"geometry":{"x":120.65610866344974,"y":23.957282905008185}},{"attributes":{"OBJECTID":16652,"LANDMARKID":"1000800000585","LANDMARKCO":"308","LANDMARKNA":"台76-中興系統交流道-西行","LANDMARKAD":"1000803","ADDRESS":" ","TEL":" ","COUNTYNAME":"南投縣","TOWNNAME":"草屯鎮","MARKTYPE":"993","Class":"308"},"geometry":{"x":120.65311416074404,"y":23.956836328429091}},{"attributes":{"OBJECTID":16653,"LANDMARKID":"1000800000586","LANDMARKCO":"308","LANDMARKNA":"台63-草屯一交流道-北上","LANDMARKAD":"1000803","ADDRESS":"南投縣草屯鎮","TEL":" ","COUNTYNAME":"南投縣","TOWNNAME":"草屯鎮","MARKTYPE":"993","Class":"308"},"geometry":{"x":120.67811912928656,"y":24.008047304394882}},{"attributes":{"OBJECTID":16654,"LANDMARKID":"1000800000587","LANDMARKCO":"308","LANDMARKNA":"台63-草屯二交流道-北上","LANDMARKAD":"1000803","ADDRESS":"南投縣草屯鎮","TEL":" ","COUNTYNAME":"南投縣","TOWNNAME":"草屯鎮","MARKTYPE":"993","Class":"308"},"geometry":{"x":120.66336605851112,"y":23.998205259718066}},{"attributes":{"OBJECTID":16655,"LANDMARKID":"1000800000588","LANDMARKCO":"308","LANDMARKNA":"台63-草屯端-北上","LANDMARKAD":"1000803","ADDRESS":"南投縣草屯鎮","TEL":" ","COUNTYNAME":"南投縣","TOWNNAME":"草屯鎮","MARKTYPE":"993","Class":"308"},"geometry":{"x":120.65387145044818,"y":23.983172441331753}},{"attributes":{"OBJECTID":16656,"LANDMARKID":"1000800000589","LANDMARKCO":"308","LANDMARKNA":"國6-東草屯交流道-西行","LANDMARKAD":"1000803","ADDRESS":" ","TEL":" ","COUNTYNAME":"南投縣","TOWNNAME":"草屯鎮","MARKTYPE":"993","Class":"308"},"geometry":{"x":120.71910133698451,"y":24.005712917698052}},{"attributes":{"OBJECTID":16657,"LANDMARKID":"1000800000493","LANDMARKCO":"302","LANDMARKNA":"國光客運草屯站","LANDMARKAD":"1000803","ADDRESS":"南投縣草屯鎮中興路61號","TEL":"(049)298-2131","COUNTYNAME":"南投縣","TOWNNAME":"草屯鎮","MARKTYPE":"993","Class":"302"},"geometry":{"x":120.68218013671476,"y":23.974880332443661}},{"attributes":{"OBJECTID":16658,"LANDMARKID":"1000800000494","LANDMARKCO":"302","LANDMARKNA":"南投汽車客運草屯站","LANDMARKAD":"1000803","ADDRESS":"南投縣草屯鎮太平路二段236號","TEL":" ","COUNTYNAME":"南投縣","TOWNNAME":"草屯鎮","MARKTYPE":"993","Class":"302"},"geometry":{"x":120.68299844186316,"y":23.976900137558346}},{"attributes":{"OBJECTID":16659,"LANDMARKID":"1000800000495","LANDMARKCO":"302","LANDMARKNA":"彰化汽車客運草屯站","LANDMARKAD":"1000803","ADDRESS":"南投縣草屯鎮太平路二段236號","TEL":" ","COUNTYNAME":"南投縣","TOWNNAME":"草屯鎮","MARKTYPE":"993","Class":"302"},"geometry":{"x":120.68259382866778,"y":23.976768032799054}},{"attributes":{"OBJECTID":16660,"LANDMARKID":"1000800000496","LANDMARKCO":"302","LANDMARKNA":"統聯客運-草屯站-代售處","LANDMARKAD":"1000803","ADDRESS":"南投縣草屯鎮中興路97號","TEL":"連絡電話:049-23","COUNTYNAME":"南投縣","TOWNNAME":"草屯鎮","MARKTYPE":"993","Class":"302"},"geometry":{"x":120.68329625804489,"y":23.974471578529105}},{"attributes":{"OBJECTID":16661,"LANDMARKID":"1000800000497","LANDMARKCO":"303","LANDMARKNA":"大成街平面戶外停車場","LANDMARKAD":"1000803","ADDRESS":"南投縣草屯鎮大成街","TEL":" ","COUNTYNAME":"南投縣","TOWNNAME":"草屯鎮","MARKTYPE":"993","Class":"303"},"geometry":{"x":120.68830392579873,"y":23.976625209594353}},{"attributes":{"OBJECTID":16662,"LANDMARKID":"1000800000498","LANDMARKCO":"303","LANDMARKNA":"公有立體停車場","LANDMARKAD":"1000803","ADDRESS":"南投縣草屯鎮","TEL":" ","COUNTYNAME":"南投縣","TOWNNAME":"草屯鎮","MARKTYPE":"993","Class":"303"},"geometry":{"x":120.6855245695206,"y":23.975764729924073}},{"attributes":{"OBJECTID":16663,"LANDMARKID":"1000800000499","LANDMARKCO":"303","LANDMARKNA":"草屯鎮立體停車場","LANDMARKAD":"1000803","ADDRESS":"南投縣草屯鎮虎山路","TEL":" ","COUNTYNAME":"南投縣","TOWNNAME":"草屯鎮","MARKTYPE":"993","Class":"303"},"geometry":{"x":120.68260089693878,"y":23.968953792545726}},{"attributes":{"OBJECTID":16664,"LANDMARKID":"1000800000500","LANDMARKCO":"303","LANDMARKNA":"草屯鎮廣停一停車場","LANDMARKAD":"1000803","ADDRESS":"南投縣草屯鎮御富路","TEL":" ","COUNTYNAME":"南投縣","TOWNNAME":"草屯鎮","MARKTYPE":"993","Class":"303"},"geometry":{"x":120.6762060219896,"y":23.979006530010928}},{"attributes":{"OBJECTID":16665,"LANDMARKID":"1000800000501","LANDMARKCO":"303","LANDMARKNA":"草屯鎮廣停五停車場","LANDMARKAD":"1000803","ADDRESS":"南投縣草屯鎮虎山路","TEL":" ","COUNTYNAME":"南投縣","TOWNNAME":"草屯鎮","MARKTYPE":"993","Class":"303"},"geometry":{"x":120.68570549447352,"y":23.977238275790604}},{"attributes":{"OBJECTID":16666,"LANDMARKID":"1000800000502","LANDMARKCO":"303","LANDMARKNA":"永固停車場-草屯站","LANDMARKAD":"1000803","ADDRESS":"南投縣草屯鎮和興街55號","TEL":"02-2355792","COUNTYNAME":"南投縣","TOWNNAME":"草屯鎮","MARKTYPE":"993","Class":"303"},"geometry":{"x":120.68484837693599,"y":23.976078191912151}},{"attributes":{"OBJECTID":16667,"LANDMARKID":"1000800000503","LANDMARKCO":"303","LANDMARKNA":"Times(普客二四停車場)-佳瑪草屯停車場","LANDMARKAD":"1000803","ADDRESS":"南投縣草屯鎮中山街210號","TEL":" ","COUNTYNAME":"南投縣","TOWNNAME":"草屯鎮","MARKTYPE":"993","Class":"303"},"geometry":{"x":120.68312683813322,"y":23.978661404871154}},{"attributes":{"OBJECTID":16668,"LANDMARKID":"1000800000631","LANDMARKCO":"402","LANDMARKNA":"中華電信-草屯服務中心","LANDMARKAD":"1000803","ADDRESS":"南投縣草屯鎮中正路629號","TEL":"(049)231-9076","COUNTYNAME":"南投縣","TOWNNAME":"草屯鎮","MARKTYPE":"994","Class":"4"},"geometry":{"x":120.68526245503951,"y":23.978803700926953}},{"attributes":{"OBJECTID":16669,"LANDMARKID":"1000800000632","LANDMARKCO":"402","LANDMARKNA":"中華電信-草屯成功特約服務中心","LANDMARKAD":"1000803","ADDRESS":"南投縣草屯鎮成功路一段163號","TEL":"049-2305659","COUNTYNAME":"南投縣","TOWNNAME":"草屯鎮","MARKTYPE":"994","Class":"4"},"geometry":{"x":120.68005686159638,"y":23.978233902361499}},{"attributes":{"OBJECTID":16670,"LANDMARKID":"1000800000633","LANDMARKCO":"402","LANDMARKNA":"威寶電信-草屯中正二特約服務中心","LANDMARKAD":"1000803","ADDRESS":"南投縣草屯鎮中正路701號","TEL":"049-2357533","COUNTYNAME":"南投縣","TOWNNAME":"草屯鎮","MARKTYPE":"994","Class":"4"},"geometry":{"x":120.68432158031086,"y":23.980298741619841}},{"attributes":{"OBJECTID":16671,"LANDMARKID":"1000800001119","LANDMARKCO":"604","LANDMARKNA":"嵐園民宿","LANDMARKAD":"1000803","ADDRESS":"南投縣草屯鎮加老里281-33巷7號","TEL":"049-2330746","COUNTYNAME":"南投縣","TOWNNAME":"草屯鎮","MARKTYPE":"996","Class":"6"},"geometry":{"x":120.65796376656949,"y":24.000466464173417}},{"attributes":{"OBJECTID":16672,"LANDMARKID":"1000800001120","LANDMARKCO":"604","LANDMARKNA":"青松民宿","LANDMARKAD":"1000803","ADDRESS":"南投縣草屯鎮博愛街1235號","TEL":"049-2354318","COUNTYNAME":"南投縣","TOWNNAME":"草屯鎮","MARKTYPE":"996","Class":"6"},"geometry":{"x":120.67093695690647,"y":23.988489281929954}},{"attributes":{"OBJECTID":16673,"LANDMARKID":"1000800001003","LANDMARKCO":"603","LANDMARKNA":"紐芬堡汽車旅館","LANDMARKAD":"1000803","ADDRESS":"南投縣草屯鎮中正路1756號","TEL":"049-2569966","COUNTYNAME":"南投縣","TOWNNAME":"草屯鎮","MARKTYPE":"996","Class":"6"},"geometry":{"x":120.69430744349482,"y":24.002950133028293}},{"attributes":{"OBJECTID":16674,"LANDMARKID":"1000800001004","LANDMARKCO":"603","LANDMARKNA":"環球旅社","LANDMARKAD":"1000803","ADDRESS":"南投縣草屯鎮中正路609號","TEL":"049-2330397","COUNTYNAME":"南投縣","TOWNNAME":"草屯鎮","MARKTYPE":"996","Class":"6"},"geometry":{"x":120.68610740532279,"y":23.978843280818797}},{"attributes":{"OBJECTID":16675,"LANDMARKID":"1000800001005","LANDMARKCO":"603","LANDMARKNA":"好聖地汽車旅館","LANDMARKAD":"1000803","ADDRESS":"南投縣草屯鎮博愛路289號","TEL":"049-2302509","COUNTYNAME":"南投縣","TOWNNAME":"草屯鎮","MARKTYPE":"996","Class":"6"},"geometry":{"x":120.688562833376,"y":23.983949252455734}},{"attributes":{"OBJECTID":16676,"LANDMARKID":"1000800001006","LANDMARKCO":"603","LANDMARKNA":"皇冠賓館","LANDMARKAD":"1000803","ADDRESS":"南投縣草屯鎮明正里明正巷22號","TEL":"049-2355459","COUNTYNAME":"南投縣","TOWNNAME":"草屯鎮","MARKTYPE":"996","Class":"6"},"geometry":{"x":120.68376604682452,"y":23.980738887747684}},{"attributes":{"OBJECTID":16677,"LANDMARKID":"1000800001007","LANDMARKCO":"603","LANDMARKNA":"佳樂庭園汽車旅館","LANDMARKAD":"1000803","ADDRESS":"南投縣草屯鎮芬草路日新巷87號","TEL":"049-2313601","COUNTYNAME":"南投縣","TOWNNAME":"草屯鎮","MARKTYPE":"996","Class":"6"},"geometry":{"x":120.66999053631739,"y":23.994940640248629}},{"attributes":{"OBJECTID":16678,"LANDMARKID":"1000800001008","LANDMARKCO":"603","LANDMARKNA":"京王大飯店","LANDMARKAD":"1000803","ADDRESS":"南投縣草屯鎮中山里草溪路1003號","TEL":"049-2353415","COUNTYNAME":"南投縣","TOWNNAME":"草屯鎮","MARKTYPE":"996","Class":"6"},"geometry":{"x":120.68131548823764,"y":23.976689292409084}},{"attributes":{"OBJECTID":16679,"LANDMARKID":"1000800001009","LANDMARKCO":"603","LANDMARKNA":"曼哈頓汽車旅館","LANDMARKAD":"1000803","ADDRESS":"南投縣草屯鎮登輝路212號","TEL":"049-2354009","COUNTYNAME":"南投縣","TOWNNAME":"草屯鎮","MARKTYPE":"996","Class":"6"},"geometry":{"x":120.69295921796068,"y":23.988750388026425}},{"attributes":{"OBJECTID":16680,"LANDMARKID":"1000800001010","LANDMARKCO":"603","LANDMARKNA":"東洲大旅社","LANDMARKAD":"1000803","ADDRESS":"南投縣草屯鎮碧山路65號","TEL":"049-2333106","COUNTYNAME":"南投縣","TOWNNAME":"草屯鎮","MARKTYPE":"996","Class":"6"},"geometry":{"x":120.68549329933899,"y":23.977811396578645}},{"attributes":{"OBJECTID":16681,"LANDMARKID":"1000800001011","LANDMARKCO":"603","LANDMARKNA":"梅山屋旅社","LANDMARKAD":"1000803","ADDRESS":"南投縣草屯鎮碧山路95號","TEL":"049-2333125","COUNTYNAME":"南投縣","TOWNNAME":"草屯鎮","MARKTYPE":"996","Class":"6"},"geometry":{"x":120.68463827141558,"y":23.977825945339038}},{"attributes":{"OBJECTID":16682,"LANDMARKID":"1000800001012","LANDMARKCO":"603","LANDMARKNA":"山月景緻旅館","LANDMARKAD":"1000803","ADDRESS":"南投縣草屯鎮新豐里中正路1155號","TEL":"049-2381177","COUNTYNAME":"南投縣","TOWNNAME":"草屯鎮","MARKTYPE":"996","Class":"6"},"geometry":{"x":120.68751697180988,"y":23.99165620490211}},{"attributes":{"OBJECTID":16683,"LANDMARKID":"1000800001115","LANDMARKCO":"604","LANDMARKNA":"欣晴山莊民宿","LANDMARKAD":"1000803","ADDRESS":"南投縣草屯鎮平林里平學路31巷10號","TEL":"049-2571199","COUNTYNAME":"南投縣","TOWNNAME":"草屯鎮","MARKTYPE":"996","Class":"6"},"geometry":{"x":120.7747948930632,"y":23.985363015407867}},{"attributes":{"OBJECTID":16684,"LANDMARKID":"1000800001116","LANDMARKCO":"604","LANDMARKNA":"吉府村民宿","LANDMARKAD":"1000803","ADDRESS":"南投縣草屯鎮坪林里健行路18號","TEL":"049-2571556","COUNTYNAME":"南投縣","TOWNNAME":"草屯鎮","MARKTYPE":"996","Class":"6"},"geometry":{"x":120.76237462820173,"y":23.986182186417249}},{"attributes":{"OBJECTID":16685,"LANDMARKID":"1000800001117","LANDMARKCO":"604","LANDMARKNA":"米蘇拉民宿","LANDMARKAD":"1000803","ADDRESS":"南投縣草屯鎮省府路331巷86弄20號","TEL":"049-2390277","COUNTYNAME":"南投縣","TOWNNAME":"草屯鎮","MARKTYPE":"996","Class":"6"},"geometry":{"x":120.67457880714909,"y":23.952903847497243}},{"attributes":{"OBJECTID":16686,"LANDMARKID":"1000800001118","LANDMARKCO":"604","LANDMARKNA":"居安原木屋民宿","LANDMARKAD":"1000803","ADDRESS":"南投縣草屯鎮碧興路一段376號","TEL":"049-2380289","COUNTYNAME":"南投縣","TOWNNAME":"草屯鎮","MARKTYPE":"996","Class":"6"},"geometry":{"x":120.65531650349453,"y":23.961711458777117}},{"attributes":{"OBJECTID":16687,"LANDMARKID":"1000800000925","LANDMARKCO":"511","LANDMARKNA":"草鞋墩人文觀光夜市","LANDMARKAD":"1000803","ADDRESS":"南投縣草屯鎮","TEL":" ","COUNTYNAME":"南投縣","TOWNNAME":"草屯鎮","MARKTYPE":"995","Class":"5"},"geometry":{"x":120.6873261230002,"y":23.988575195492558}},{"attributes":{"OBJECTID":16688,"LANDMARKID":"1000800000691","LANDMARKCO":"405","LANDMARKNA":"統一速邁樂加油站-埔里二站加油站(中油)","LANDMARKAD":"1000802","ADDRESS":"南投縣埔里鎮信義路1115號","TEL":" ","COUNTYNAME":"南投縣","TOWNNAME":"埔里鎮","MARKTYPE":"994","Class":"4"},"geometry":{"x":120.95379278319086,"y":23.969996642156158}},{"attributes":{"OBJECTID":16689,"LANDMARKID":"1000800000692","LANDMARKCO":"405","LANDMARKNA":"山隆加油站-埔里站(中油)","LANDMARKAD":"1000802","ADDRESS":"南投縣埔里鎮中山路4段172號","TEL":"049-2915577","COUNTYNAME":"南投縣","TOWNNAME":"埔里鎮","MARKTYPE":"994","Class":"4"},"geometry":{"x":120.92805542774671,"y":23.971657053234686}},{"attributes":{"OBJECTID":16690,"LANDMARKID":"1000800000693","LANDMARKCO":"405","LANDMARKNA":"中油加油站-虎山站","LANDMARKAD":"1000802","ADDRESS":"南投縣埔里鎮中山路1段308號","TEL":"04-999008","COUNTYNAME":"南投縣","TOWNNAME":"埔里鎮","MARKTYPE":"994","Class":"4"},"geometry":{"x":120.97961687220787,"y":23.974311850827348}},{"attributes":{"OBJECTID":16691,"LANDMARKID":"1000800000694","LANDMARKCO":"405","LANDMARKNA":"中油加油站-北基愛蘭交流道站","LANDMARKAD":"1000802","ADDRESS":"南投縣埔里鎮中山路四段2號之5","TEL":"037-2918321","COUNTYNAME":"南投縣","TOWNNAME":"埔里鎮","MARKTYPE":"994","Class":"4"},"geometry":{"x":120.94423660494452,"y":23.966787878418863}},{"attributes":{"OBJECTID":16692,"LANDMARKID":"1000800000695","LANDMARKCO":"405","LANDMARKNA":"中油加油站-中潭站","LANDMARKAD":"1000802","ADDRESS":"南投縣埔里鎮南村里中山路四段81號","TEL":"049-2918363","COUNTYNAME":"南投縣","TOWNNAME":"埔里鎮","MARKTYPE":"994","Class":"4"},"geometry":{"x":120.93570519599544,"y":23.965296849770745}},{"attributes":{"OBJECTID":16693,"LANDMARKID":"1000800000696","LANDMARKCO":"405","LANDMARKNA":"中油加油站-埔里站(中油直營)","LANDMARKAD":"1000802","ADDRESS":"南投縣埔里鎮中山路三段172號","TEL":"049-2982403","COUNTYNAME":"南投縣","TOWNNAME":"埔里鎮","MARKTYPE":"994","Class":"4"},"geometry":{"x":120.96179764758196,"y":23.967864227397282}},{"attributes":{"OBJECTID":16694,"LANDMARKID":"1000800000697","LANDMARKCO":"405","LANDMARKNA":"統一速邁樂加油站-埔里加油站(中油)","LANDMARKAD":"1000802","ADDRESS":"南投縣埔里鎮信義路668號","TEL":" ","COUNTYNAME":"南投縣","TOWNNAME":"埔里鎮","MARKTYPE":"994","Class":"4"},"geometry":{"x":120.96509720519484,"y":23.973511220296608}},{"attributes":{"OBJECTID":16695,"LANDMARKID":"1000800000698","LANDMARKCO":"405","LANDMARKNA":"中油加油站-埔里中山路站(中油直營)","LANDMARKAD":"1000802","ADDRESS":"南投縣埔里鎮中山路二段141號","TEL":"049-2982844","COUNTYNAME":"南投縣","TOWNNAME":"埔里鎮","MARKTYPE":"994","Class":"4"},"geometry":{"x":120.97228857752371,"y":23.96864106652556}},{"attributes":{"OBJECTID":16696,"LANDMARKID":"1000800000699","LANDMARKCO":"405","LANDMARKNA":"中油加油站-巨大站","LANDMARKAD":"1000802","ADDRESS":"南投縣埔里鎮桃米路4-5號","TEL":"049-2917859","COUNTYNAME":"南投縣","TOWNNAME":"埔里鎮","MARKTYPE":"994","Class":"4"},"geometry":{"x":120.9414962743808,"y":23.955909511992662}},{"attributes":{"OBJECTID":16697,"LANDMARKID":"1000800000629","LANDMARKCO":"402","LANDMARKNA":"亞太行動寬頻電信-埔里中正加盟服務中心","LANDMARKAD":"1000802","ADDRESS":"南投縣埔里鎮中正路456號","TEL":"049-2988470","COUNTYNAME":"南投縣","TOWNNAME":"埔里鎮","MARKTYPE":"994","Class":"4"},"geometry":{"x":120.96612873000497,"y":23.966748703383313}},{"attributes":{"OBJECTID":16698,"LANDMARKID":"1000800000630","LANDMARKCO":"402","LANDMARKNA":"亞太行動寬頻電信-埔里南昌加盟服務中心","LANDMARKAD":"1000802","ADDRESS":"南投縣埔里鎮南昌街293號","TEL":"049-2993680","COUNTYNAME":"南投縣","TOWNNAME":"埔里鎮","MARKTYPE":"994","Class":"4"},"geometry":{"x":120.96276793337718,"y":23.967099979770122}},{"attributes":{"OBJECTID":16699,"LANDMARKID":"1000800000590","LANDMARKCO":"401","LANDMARKNA":"財團法人埔里基督教醫院","LANDMARKAD":"1000802","ADDRESS":"南投縣埔里鎮鐵山路1號","TEL":"049-2912151","COUNTYNAME":"南投縣","TOWNNAME":"埔里鎮","MARKTYPE":"994","Class":"4"},"geometry":{"x":120.94682761605942,"y":23.970888156056368}},{"attributes":{"OBJECTID":16700,"LANDMARKID":"1000800000591","LANDMARKCO":"401","LANDMARKNA":"埔里榮民醫院","LANDMARKAD":"1000802","ADDRESS":"南投縣埔里鎮榮光路1號","TEL":"049-2998911","COUNTYNAME":"南投縣","TOWNNAME":"埔里鎮","MARKTYPE":"994","Class":"4"},"geometry":{"x":120.99634433884592,"y":23.974418085022819}},{"attributes":{"OBJECTID":16701,"LANDMARKID":"1000800000867","LANDMARKCO":"506","LANDMARKNA":"赤崁頂休閒農場","LANDMARKAD":"1000802","ADDRESS":"南投縣埔里鎮大城里公城路37號","TEL":"049-2931882","COUNTYNAME":"南投縣","TOWNNAME":"埔里鎮","MARKTYPE":"995","Class":"5"},"geometry":{"x":120.94065318142,"y":23.995251985576207}},{"attributes":{"OBJECTID":16702,"LANDMARKID":"1000800000868","LANDMARKCO":"506","LANDMARKNA":"麒麟休閒農場","LANDMARKAD":"1000802","ADDRESS":"南投縣埔里鎮麒麟里武界路31號","TEL":"049-2992593","COUNTYNAME":"南投縣","TOWNNAME":"埔里鎮","MARKTYPE":"995","Class":"5"},"geometry":{"x":120.98266185492093,"y":23.925459710275344}},{"attributes":{"OBJECTID":16703,"LANDMARKID":"1000800000770","LANDMARKCO":"408","LANDMARKNA":"郵局-埔里郵局","LANDMARKAD":"1000802","ADDRESS":"南投縣埔里鎮南昌街284號","TEL":"(049)2982-124","COUNTYNAME":"南投縣","TOWNNAME":"埔里鎮","MARKTYPE":"994","Class":"4"},"geometry":{"x":120.96221169236952,"y":23.967721347745414}},{"attributes":{"OBJECTID":16704,"LANDMARKID":"1000800000771","LANDMARKCO":"408","LANDMARKNA":"郵局-埔里北平街郵局","LANDMARKAD":"1000802","ADDRESS":"南投縣埔里鎮北平街131號","TEL":"(049)2984-374","COUNTYNAME":"南投縣","TOWNNAME":"埔里鎮","MARKTYPE":"994","Class":"4"},"geometry":{"x":120.96757243348816,"y":23.966154266818851}},{"attributes":{"OBJECTID":16705,"LANDMARKID":"1000800000772","LANDMARKCO":"408","LANDMARKNA":"郵局-埔里崎下郵局","LANDMARKAD":"1000802","ADDRESS":"南投縣埔里鎮中山路3段648號","TEL":"(049)2915-224","COUNTYNAME":"南投縣","TOWNNAME":"埔里鎮","MARKTYPE":"994","Class":"4"},"geometry":{"x":120.94855129620483,"y":23.971218524772379}},{"attributes":{"OBJECTID":16706,"LANDMARKID":"1000800000773","LANDMARKCO":"408","LANDMARKNA":"郵局-埔里大坪頂郵局","LANDMARKAD":"1000802","ADDRESS":"南投縣埔里鎮西安路3段249巷2號","TEL":"(049)2932-846","COUNTYNAME":"南投縣","TOWNNAME":"埔里鎮","MARKTYPE":"994","Class":"4"},"geometry":{"x":120.92521615150721,"y":24.037577178868812}},{"attributes":{"OBJECTID":16707,"LANDMARKID":"1000800000774","LANDMARKCO":"408","LANDMARKNA":"郵局-埔里第三市場郵局","LANDMARKAD":"1000802","ADDRESS":"南投縣埔里鎮東榮路77號","TEL":"(049)2989-320","COUNTYNAME":"南投縣","TOWNNAME":"埔里鎮","MARKTYPE":"994","Class":"4"},"geometry":{"x":120.96689047357566,"y":23.963174121275511}},{"attributes":{"OBJECTID":16708,"LANDMARKID":"1000800000775","LANDMARKCO":"408","LANDMARKNA":"郵局-埔里中心碑郵局","LANDMARKAD":"1000802","ADDRESS":"南投縣埔里鎮和平東路490號","TEL":"(049)2989-848","COUNTYNAME":"南投縣","TOWNNAME":"埔里鎮","MARKTYPE":"994","Class":"4"},"geometry":{"x":120.97680060376615,"y":23.971656355620983}},{"attributes":{"OBJECTID":16709,"LANDMARKID":"1000800000776","LANDMARKCO":"408","LANDMARKNA":"郵局-埔里南光郵局","LANDMARKAD":"1000802","ADDRESS":"南投縣埔里鎮中正路265號","TEL":"(049)2986-494","COUNTYNAME":"南投縣","TOWNNAME":"埔里鎮","MARKTYPE":"994","Class":"4"},"geometry":{"x":120.97060484641504,"y":23.961790299650978}},{"attributes":{"OBJECTID":16710,"LANDMARKID":"1000800000807","LANDMARKCO":"409","LANDMARKNA":"南投縣埔里鎮農會","LANDMARKAD":"1000802","ADDRESS":"南投縣埔里鎮西安路一段6號","TEL":"049-2991005","COUNTYNAME":"南投縣","TOWNNAME":"埔里鎮","MARKTYPE":"994","Class":"4"},"geometry":{"x":120.96417493195921,"y":23.963712620526092}},{"attributes":{"OBJECTID":16711,"LANDMARKID":"1000800000808","LANDMARKCO":"409","LANDMARKNA":"埔里魚市場","LANDMARKAD":"1000802","ADDRESS":"埔里鎮南門里南盛街88號","TEL":"049-982437　","COUNTYNAME":"南投縣","TOWNNAME":"埔里鎮","MARKTYPE":"994","Class":"4"},"geometry":{"x":120.9675363297103,"y":23.962423531100114}},{"attributes":{"OBJECTID":16712,"LANDMARKID":"1000800000637","LANDMARKCO":"404","LANDMARKNA":"台灣省自來水埔里營運所","LANDMARKAD":"1000802","ADDRESS":"南投縣埔里鎮大城路9號","TEL":" ","COUNTYNAME":"南投縣","TOWNNAME":"埔里鎮","MARKTYPE":"994","Class":"4"},"geometry":{"x":120.95869910851604,"y":23.969051609232455}},{"attributes":{"OBJECTID":16713,"LANDMARKID":"1000800000731","LANDMARKCO":"406","LANDMARKNA":"仁愛公園","LANDMARKAD":"1000802","ADDRESS":"南投縣埔里鎮","TEL":" ","COUNTYNAME":"南投縣","TOWNNAME":"埔里鎮","MARKTYPE":"994","Class":"4"},"geometry":{"x":120.96434886387951,"y":23.967861423460118}},{"attributes":{"OBJECTID":16714,"LANDMARKID":"1000800000732","LANDMARKCO":"406","LANDMARKNA":"牛耳石雕公園","LANDMARKAD":"1000802","ADDRESS":"南投縣埔里鎮","TEL":" ","COUNTYNAME":"南投縣","TOWNNAME":"埔里鎮","MARKTYPE":"994","Class":"4"},"geometry":{"x":120.94288141403285,"y":23.964760870719083}},{"attributes":{"OBJECTID":16715,"LANDMARKID":"1000800000689","LANDMARKCO":"405","LANDMARKNA":"福懋加油站-埔里站(台塑)","LANDMARKAD":"1000802","ADDRESS":"南投縣埔里鎮樹人路225號","TEL":"049-2422678","COUNTYNAME":"南投縣","TOWNNAME":"埔里鎮","MARKTYPE":"994","Class":"4"},"geometry":{"x":120.97281188464956,"y":23.959776962131134}},{"attributes":{"OBJECTID":16716,"LANDMARKID":"1000800000690","LANDMARKCO":"405","LANDMARKNA":"台塑加油站-清德站(台塑)","LANDMARKAD":"1000802","ADDRESS":"南投縣國姓鄉柑林村中山路二段203號","TEL":"049-2720339","COUNTYNAME":"南投縣","TOWNNAME":"埔里鎮","MARKTYPE":"994","Class":"4"},"geometry":{"x":120.97035777259227,"y":23.967660252131378}},{"attributes":{"OBJECTID":16717,"LANDMARKID":"1000800000175","LANDMARKCO":"107","LANDMARKNA":"南投縣政府警察局桃米派出所","LANDMARKAD":"1000802","ADDRESS":"南投縣埔里鎮桃米里桃米巷48號","TEL":"049-2913832","COUNTYNAME":"南投縣","TOWNNAME":"埔里鎮","MARKTYPE":"991","Class":"1"},"geometry":{"x":120.9289104186243,"y":23.941895525948084}},{"attributes":{"OBJECTID":16718,"LANDMARKID":"1000800000176","LANDMARKCO":"107","LANDMARKNA":"南投縣政府警察局埔里派出所","LANDMARKAD":"1000802","ADDRESS":"南投縣埔里鎮信義路868之4號","TEL":"049-2917139","COUNTYNAME":"南投縣","TOWNNAME":"埔里鎮","MARKTYPE":"991","Class":"1"},"geometry":{"x":120.9697448142817,"y":23.966740013756375}},{"attributes":{"OBJECTID":16719,"LANDMARKID":"1000800000239","LANDMARKCO":"108","LANDMARKNA":"南投縣埔里鎮公所","LANDMARKAD":"1000802","ADDRESS":"南投縣埔里鎮中山路二段239號","TEL":"049-2984040","COUNTYNAME":"南投縣","TOWNNAME":"埔里鎮","MARKTYPE":"991","Class":"1"},"geometry":{"x":120.96939605748403,"y":23.966427527102145}},{"attributes":{"OBJECTID":16720,"LANDMARKID":"1000800000081","LANDMARKCO":"103","LANDMARKNA":"南投縣埔里鎮鎮民代表會","LANDMARKAD":"1000802","ADDRESS":"南投縣埔里鎮北辰街110號","TEL":"049-2989801","COUNTYNAME":"南投縣","TOWNNAME":"埔里鎮","MARKTYPE":"991","Class":"1"},"geometry":{"x":120.96954607232888,"y":23.966376978442003}},{"attributes":{"OBJECTID":16721,"LANDMARKID":"1000800000082","LANDMARKCO":"103","LANDMARKNA":"南投縣埔里鎮衛生所","LANDMARKAD":"1000802","ADDRESS":"南投縣埔里鎮中山路二段256號","TEL":"049-2982157","COUNTYNAME":"南投縣","TOWNNAME":"埔里鎮","MARKTYPE":"991","Class":"1"},"geometry":{"x":120.96860657693556,"y":23.966997366726027}},{"attributes":{"OBJECTID":16722,"LANDMARKID":"1000800000177","LANDMARKCO":"107","LANDMARKNA":"南投縣消防局第二消防大隊部","LANDMARKAD":"1000802","ADDRESS":"南投縣埔里鎮南環路600號","TEL":"049-2982014","COUNTYNAME":"南投縣","TOWNNAME":"埔里鎮","MARKTYPE":"991","Class":"1"},"geometry":{"x":120.95635577756643,"y":23.958167188573896}},{"attributes":{"OBJECTID":16723,"LANDMARKID":"1000800000178","LANDMARKCO":"107","LANDMARKNA":"南投縣消防局埔里消防分隊","LANDMARKAD":"1000802","ADDRESS":"南投縣埔里鎮南環路600號","TEL":"049-2982014","COUNTYNAME":"南投縣","TOWNNAME":"埔里鎮","MARKTYPE":"991","Class":"1"},"geometry":{"x":120.95635577756643,"y":23.958167188573896}},{"attributes":{"OBJECTID":16724,"LANDMARKID":"1000800000179","LANDMARKCO":"107","LANDMARKNA":"南投縣警察局埔里分局","LANDMARKAD":"1000802","ADDRESS":"南投縣埔里鎮南環路646號","TEL":"049-2982429","COUNTYNAME":"南投縣","TOWNNAME":"埔里鎮","MARKTYPE":"991","Class":"1"},"geometry":{"x":120.95547618782621,"y":23.959697765331448}},{"attributes":{"OBJECTID":16725,"LANDMARKID":"1000800000180","LANDMARKCO":"107","LANDMARKNA":"南投縣政府警察局鯉潭派出所","LANDMARKAD":"1000802","ADDRESS":"南投縣埔里鎮蜈蚣里中山路一段319號","TEL":"049-2987829","COUNTYNAME":"南投縣","TOWNNAME":"埔里鎮","MARKTYPE":"991","Class":"1"},"geometry":{"x":120.98669655413447,"y":23.97599701083152}},{"attributes":{"OBJECTID":16726,"LANDMARKID":"1000800000181","LANDMARKCO":"107","LANDMARKNA":"南投縣政府警察局合成派出所","LANDMARKAD":"1000802","ADDRESS":"南投縣埔里鎮合成里西安路三段225號","TEL":"049-2931587","COUNTYNAME":"南投縣","TOWNNAME":"埔里鎮","MARKTYPE":"991","Class":"1"},"geometry":{"x":120.92483634388971,"y":24.036648264314316}},{"attributes":{"OBJECTID":16727,"LANDMARKID":"1000800000182","LANDMARKCO":"107","LANDMARKNA":"南投縣政府警察局史港派出所","LANDMARKAD":"1000802","ADDRESS":"南投縣埔里鎮牛眠里西安路二段355號","TEL":"049-2931692","COUNTYNAME":"南投縣","TOWNNAME":"埔里鎮","MARKTYPE":"991","Class":"1"},"geometry":{"x":120.96337644804791,"y":24.000737515677404}},{"attributes":{"OBJECTID":16728,"LANDMARKID":"1000800000183","LANDMARKCO":"107","LANDMARKNA":"南投縣政府警察局愛蘭派出所","LANDMARKAD":"1000802","ADDRESS":"南投縣埔里鎮鐵山里鐵山路118號","TEL":"049-2912334","COUNTYNAME":"南投縣","TOWNNAME":"埔里鎮","MARKTYPE":"991","Class":"1"},"geometry":{"x":120.94350566365765,"y":23.974497646461458}},{"attributes":{"OBJECTID":16729,"LANDMARKID":"1000800000108","LANDMARKCO":"106","LANDMARKNA":"南投縣埔里鎮戶政事務所","LANDMARKAD":"1000802","ADDRESS":"南投縣埔里鎮中山路二段246號","TEL":"049-2984294","COUNTYNAME":"南投縣","TOWNNAME":"埔里鎮","MARKTYPE":"991","Class":"1"},"geometry":{"x":120.9692665340546,"y":23.967187500564471}},{"attributes":{"OBJECTID":16730,"LANDMARKID":"1000800000097","LANDMARKCO":"105","LANDMARKNA":"南投縣埔里地政事務所","LANDMARKAD":"1000802","ADDRESS":"南投縣埔里鎮中山路二段248號","TEL":"049-2983980","COUNTYNAME":"南投縣","TOWNNAME":"埔里鎮","MARKTYPE":"991","Class":"1"},"geometry":{"x":120.96906648414938,"y":23.967387460953073}},{"attributes":{"OBJECTID":16731,"LANDMARKID":"1000800000005","LANDMARKCO":"101","LANDMARKNA":"台中區監理所南投監理站埔里分站","LANDMARKAD":"1000802","ADDRESS":"南投縣埔里鎮博愛路9號","TEL":"049-2980404","COUNTYNAME":"南投縣","TOWNNAME":"埔里鎮","MARKTYPE":"991","Class":"1"},"geometry":{"x":120.97363665061587,"y":23.96669720696972}},{"attributes":{"OBJECTID":16732,"LANDMARKID":"1000800000090","LANDMARKCO":"104","LANDMARKNA":"中區國稅局埔里稽徵所","LANDMARKAD":"1000802","ADDRESS":"南投縣埔里鎮中山路2段252號3、4F","TEL":"049-2990991","COUNTYNAME":"南投縣","TOWNNAME":"埔里鎮","MARKTYPE":"991","Class":"1"},"geometry":{"x":120.96859650158515,"y":23.967307364927546}},{"attributes":{"OBJECTID":16733,"LANDMARKID":"1000800000006","LANDMARKCO":"101","LANDMARKNA":"台灣南投地方法院埔里簡易庭","LANDMARKAD":"1000802","ADDRESS":"南投縣埔里鎮清新里南環路640號","TEL":"049-2995544","COUNTYNAME":"南投縣","TOWNNAME":"埔里鎮","MARKTYPE":"991","Class":"1"},"geometry":{"x":120.95575625568235,"y":23.95950701693128}},{"attributes":{"OBJECTID":16734,"LANDMARKID":"1000800000007","LANDMARKCO":"101","LANDMARKNA":"職業訓練局埔里就業服務台","LANDMARKAD":"1000802","ADDRESS":"南投縣埔里鎮八德路17號","TEL":"049-2990978","COUNTYNAME":"南投縣","TOWNNAME":"埔里鎮","MARKTYPE":"991","Class":"1"},"geometry":{"x":120.97078632035655,"y":23.970937219904886}},{"attributes":{"OBJECTID":16735,"LANDMARKID":"1000800000089","LANDMARKCO":"104","LANDMARKNA":"南投縣政府稅務局埔里分處","LANDMARKAD":"1000802","ADDRESS":"南投縣埔里鎮中山路二段250號","TEL":"0800-493457","COUNTYNAME":"南投縣","TOWNNAME":"埔里鎮","MARKTYPE":"991","Class":"1"},"geometry":{"x":120.96879644901199,"y":23.967527405971371}},{"attributes":{"OBJECTID":16736,"LANDMARKID":"1000800000080","LANDMARKCO":"103","LANDMARKNA":"南投縣綜合性身心障礙福利復健中心","LANDMARKAD":"1000802","ADDRESS":"南投縣埔里鎮八德路17號","TEL":"049-2421525","COUNTYNAME":"南投縣","TOWNNAME":"埔里鎮","MARKTYPE":"991","Class":"1"},"geometry":{"x":120.97078632035655,"y":23.970937219904886}},{"attributes":{"OBJECTID":16737,"LANDMARKID":"1000800000462","LANDMARKCO":"205","LANDMARKNA":"木生昆蟲博物館","LANDMARKAD":"1000802","ADDRESS":"南投縣埔里鎮南村路6之2號","TEL":"049-2913311","COUNTYNAME":"南投縣","TOWNNAME":"埔里鎮","MARKTYPE":"992","Class":"2"},"geometry":{"x":120.94548897836864,"y":23.964647709757351}},{"attributes":{"OBJECTID":16738,"LANDMARKID":"1000800000463","LANDMARKCO":"205","LANDMARKNA":"龍南天然漆博物館","LANDMARKAD":"1000802","ADDRESS":"南投縣埔里鎮北平街211之1號","TEL":"049-2982076","COUNTYNAME":"南投縣","TOWNNAME":"埔里鎮","MARKTYPE":"992","Class":"2"},"geometry":{"x":120.96561443357832,"y":23.96767035568929}},{"attributes":{"OBJECTID":16739,"LANDMARKID":"1000800000464","LANDMARKCO":"205","LANDMARKNA":"埔里紙產業文化館","LANDMARKAD":"1000802","ADDRESS":"埔里鎮鐵山里鐵山路310號","TEL":"049-2913037","COUNTYNAME":"南投縣","TOWNNAME":"埔里鎮","MARKTYPE":"992","Class":"2"},"geometry":{"x":120.93860378768723,"y":23.975849990189378}},{"attributes":{"OBJECTID":16740,"LANDMARKID":"1000800000465","LANDMARKCO":"205","LANDMARKNA":"木生昆蟲博物館","LANDMARKAD":"1000802","ADDRESS":"南投縣埔里鎮南村里南村路6之2號","TEL":" ","COUNTYNAME":"南投縣","TOWNNAME":"埔里鎮","MARKTYPE":"992","Class":"2"},"geometry":{"x":120.94588615681081,"y":23.964186037724247}},{"attributes":{"OBJECTID":16741,"LANDMARKID":"1000800000466","LANDMARKCO":"205","LANDMARKNA":"埔里酒廠酒文物館","LANDMARKAD":"1000802","ADDRESS":"南投縣埔里鎮中山路三段219號","TEL":" ","COUNTYNAME":"南投縣","TOWNNAME":"埔里鎮","MARKTYPE":"992","Class":"2"},"geometry":{"x":120.96091393359343,"y":23.967580786520401}},{"attributes":{"OBJECTID":16742,"LANDMARKID":"1000800000479","LANDMARKCO":"207","LANDMARKNA":"林淵美術館","LANDMARKAD":"1000802","ADDRESS":"南投縣埔里鎮中山路四段1之1號","TEL":" ","COUNTYNAME":"南投縣","TOWNNAME":"埔里鎮","MARKTYPE":"992","Class":"2"},"geometry":{"x":120.9441491373492,"y":23.9661556995359}},{"attributes":{"OBJECTID":16743,"LANDMARKID":"1000800000458","LANDMARKCO":"204","LANDMARKNA":"南投縣立圖書館埔里分館","LANDMARKAD":"1000802","ADDRESS":"南投縣埔里鎮北安里六合路178之1號","TEL":" ","COUNTYNAME":"南投縣","TOWNNAME":"埔里鎮","MARKTYPE":"992","Class":"2"},"geometry":{"x":120.97124426225217,"y":23.97010898304065}},{"attributes":{"OBJECTID":16744,"LANDMARKID":"1000800000255","LANDMARKCO":"202","LANDMARKNA":"國立埔里高中","LANDMARKAD":"1000802","ADDRESS":"南投縣埔里鎮鐵山路1之6號","TEL":"049-2982055","COUNTYNAME":"南投縣","TOWNNAME":"埔里鎮","MARKTYPE":"992","Class":"2"},"geometry":{"x":120.94579560059762,"y":23.971967441933248}},{"attributes":{"OBJECTID":16745,"LANDMARKID":"1000800000256","LANDMARKCO":"202","LANDMARKNA":"國立埔里高工","LANDMARKAD":"1000802","ADDRESS":"南投縣埔里鎮中山路一段435號","TEL":"049-2982225","COUNTYNAME":"南投縣","TOWNNAME":"埔里鎮","MARKTYPE":"992","Class":"2"},"geometry":{"x":120.9784862029168,"y":23.972177058908599}},{"attributes":{"OBJECTID":16746,"LANDMARKID":"1000800000257","LANDMARKCO":"202","LANDMARKNA":"國立暨大附中","LANDMARKAD":"1000802","ADDRESS":"南投縣埔里鎮鐵山路1之6號","TEL":"049-2912542","COUNTYNAME":"南投縣","TOWNNAME":"埔里鎮","MARKTYPE":"992","Class":"2"},"geometry":{"x":120.94579560059762,"y":23.971967441933248}},{"attributes":{"OBJECTID":16747,"LANDMARKID":"1000800000307","LANDMARKCO":"203","LANDMARKNA":"縣立大成國中","LANDMARKAD":"1000802","ADDRESS":"南投縣埔里鎮大城路169號","TEL":"049-2915550","COUNTYNAME":"南投縣","TOWNNAME":"埔里鎮","MARKTYPE":"992","Class":"2"},"geometry":{"x":120.95243571225613,"y":23.972017733405423}},{"attributes":{"OBJECTID":16748,"LANDMARKID":"1000800000308","LANDMARKCO":"203","LANDMARKNA":"縣立埔里國中","LANDMARKAD":"1000802","ADDRESS":"南投縣埔里鎮西安路一段193號","TEL":"049-2982055","COUNTYNAME":"南投縣","TOWNNAME":"埔里鎮","MARKTYPE":"992","Class":"2"},"geometry":{"x":120.96869618104159,"y":23.968637386186433}},{"attributes":{"OBJECTID":16749,"LANDMARKID":"1000800000309","LANDMARKCO":"203","LANDMARKNA":"縣立宏仁國中","LANDMARKAD":"1000802","ADDRESS":"南投縣埔里鎮東門里公園路20號","TEL":"049-2982548","COUNTYNAME":"南投縣","TOWNNAME":"埔里鎮","MARKTYPE":"992","Class":"2"},"geometry":{"x":120.97211654326014,"y":23.961637467252391}},{"attributes":{"OBJECTID":16750,"LANDMARKID":"1000800000310","LANDMARKCO":"203","LANDMARKNA":"私立均頭國中小學","LANDMARKAD":"1000802","ADDRESS":"南投縣埔里鎮水頭路48號","TEL":"049-2980723","COUNTYNAME":"南投縣","TOWNNAME":"埔里鎮","MARKTYPE":"992","Class":"2"},"geometry":{"x":120.97350624665985,"y":23.949227185735207}},{"attributes":{"OBJECTID":16751,"LANDMARKID":"1000800000311","LANDMARKCO":"203","LANDMARKNA":"縣立麒麟國小","LANDMARKAD":"1000802","ADDRESS":"南投縣埔里鎮麒麟里武界路7號","TEL":"049-2925941","COUNTYNAME":"南投縣","TOWNNAME":"埔里鎮","MARKTYPE":"992","Class":"2"},"geometry":{"x":120.99004645611407,"y":23.930397037962141}},{"attributes":{"OBJECTID":16752,"LANDMARKID":"1000800000312","LANDMARKCO":"203","LANDMARKNA":"縣立溪南國小","LANDMARKAD":"1000802","ADDRESS":"南投縣埔里鎮溪南里珠生路68號","TEL":"049-2904517","COUNTYNAME":"南投縣","TOWNNAME":"埔里鎮","MARKTYPE":"992","Class":"2"},"geometry":{"x":120.95534621047105,"y":23.948517726789625}},{"attributes":{"OBJECTID":16753,"LANDMARKID":"1000800000313","LANDMARKCO":"203","LANDMARKNA":"縣立鐘靈國小","LANDMARKAD":"1000802","ADDRESS":"南投縣埔里鎮種瓜路123之2號","TEL":"049-2912603","COUNTYNAME":"南投縣","TOWNNAME":"埔里鎮","MARKTYPE":"992","Class":"2"},"geometry":{"x":120.89186462883859,"y":23.957987098183587}},{"attributes":{"OBJECTID":16754,"LANDMARKID":"1000800000314","LANDMARKCO":"203","LANDMARKNA":"縣立愛蘭國小","LANDMARKAD":"1000802","ADDRESS":"南投縣埔里鎮愛蘭里鐵山路7號","TEL":"049-2912514","COUNTYNAME":"南投縣","TOWNNAME":"埔里鎮","MARKTYPE":"992","Class":"2"},"geometry":{"x":120.94069551386274,"y":23.97471766704648}},{"attributes":{"OBJECTID":16755,"LANDMARKID":"1000800000315","LANDMARKCO":"203","LANDMARKNA":"縣立中峰國小","LANDMARKAD":"1000802","ADDRESS":"南投縣埔里鎮中山路一段228號","TEL":"049-2982542","COUNTYNAME":"南投縣","TOWNNAME":"埔里鎮","MARKTYPE":"992","Class":"2"},"geometry":{"x":120.98427647620898,"y":23.976487057942535}},{"attributes":{"OBJECTID":16756,"LANDMARKID":"1000800000316","LANDMARKCO":"203","LANDMARKNA":"縣立大成國小","LANDMARKAD":"1000802","ADDRESS":"南投縣埔里鎮中山路三段565號","TEL":"049-2916517","COUNTYNAME":"南投縣","TOWNNAME":"埔里鎮","MARKTYPE":"992","Class":"2"},"geometry":{"x":120.95132648238558,"y":23.969907385120869}},{"attributes":{"OBJECTID":16757,"LANDMARKID":"1000800000317","LANDMARKCO":"203","LANDMARKNA":"縣立南光國小","LANDMARKAD":"1000802","ADDRESS":"南投縣埔里鎮杷城里中正路251號","TEL":"049-2982025","COUNTYNAME":"南投縣","TOWNNAME":"埔里鎮","MARKTYPE":"992","Class":"2"},"geometry":{"x":120.9703560409077,"y":23.961027136708914}},{"attributes":{"OBJECTID":16758,"LANDMARKID":"1000800000318","LANDMARKCO":"203","LANDMARKNA":"縣立水尾國小","LANDMARKAD":"1000802","ADDRESS":"南投縣埔里鎮一新里永豐路92號","TEL":"049-2932506","COUNTYNAME":"南投縣","TOWNNAME":"埔里鎮","MARKTYPE":"992","Class":"2"},"geometry":{"x":120.92977588800775,"y":23.998637886642641}},{"attributes":{"OBJECTID":16759,"LANDMARKID":"1000800000319","LANDMARKCO":"203","LANDMARKNA":"縣立忠孝國小","LANDMARKAD":"1000802","ADDRESS":"南投縣埔里鎮牛眠里守城路28號","TEL":"049-2930582","COUNTYNAME":"南投縣","TOWNNAME":"埔里鎮","MARKTYPE":"992","Class":"2"},"geometry":{"x":120.97982632850113,"y":23.990997241632286}},{"attributes":{"OBJECTID":16760,"LANDMARKID":"1000800000320","LANDMARKCO":"203","LANDMARKNA":"縣立太平國小","LANDMARKAD":"1000802","ADDRESS":"南投縣埔里鎮西安路三段167巷35號","TEL":"049-2931385","COUNTYNAME":"南投縣","TOWNNAME":"埔里鎮","MARKTYPE":"992","Class":"2"},"geometry":{"x":120.92127576314233,"y":24.026467911039155}},{"attributes":{"OBJECTID":16761,"LANDMARKID":"1000800000321","LANDMARKCO":"203","LANDMARKNA":"縣立埔里國小","LANDMARKAD":"1000802","ADDRESS":"南投縣埔里鎮西門里西康路127號","TEL":"049*2982034","COUNTYNAME":"南投縣","TOWNNAME":"埔里鎮","MARKTYPE":"992","Class":"2"},"geometry":{"x":120.96635631010047,"y":23.967997519477414}},{"attributes":{"OBJECTID":16762,"LANDMARKID":"1000800000322","LANDMARKCO":"203","LANDMARKNA":"縣立育英國小","LANDMARKAD":"1000802","ADDRESS":"南投縣埔里鎮清新里育英街20號","TEL":"049-2982144","COUNTYNAME":"南投縣","TOWNNAME":"埔里鎮","MARKTYPE":"992","Class":"2"},"geometry":{"x":120.96168631234002,"y":23.962277102725981}},{"attributes":{"OBJECTID":16763,"LANDMARKID":"1000800000323","LANDMARKCO":"203","LANDMARKNA":"縣立桃源國小","LANDMARKAD":"1000802","ADDRESS":"南投縣埔里鎮桃米里桃米巷68號","TEL":"049-2913450","COUNTYNAME":"南投縣","TOWNNAME":"埔里鎮","MARKTYPE":"992","Class":"2"},"geometry":{"x":120.92584638117424,"y":23.9421473688021}},{"attributes":{"OBJECTID":16764,"LANDMARKID":"1000800000324","LANDMARKCO":"203","LANDMARKNA":"縣立史港國小","LANDMARKAD":"1000802","ADDRESS":"南投縣埔里鎮史港里獅子路9號","TEL":"049-2931521","COUNTYNAME":"南投縣","TOWNNAME":"埔里鎮","MARKTYPE":"992","Class":"2"},"geometry":{"x":120.95699617904191,"y":24.012547370161261}},{"attributes":{"OBJECTID":16765,"LANDMARKID":"1000800000245","LANDMARKCO":"201","LANDMARKNA":"國立暨南國際大學","LANDMARKAD":"1000802","ADDRESS":"南投縣埔里鎮大學路1號","TEL":"049-2910960","COUNTYNAME":"南投縣","TOWNNAME":"埔里鎮","MARKTYPE":"992","Class":"2"},"geometry":{"x":120.93084604430146,"y":23.951147089968462}},{"attributes":{"OBJECTID":16766,"LANDMARKID":"1000800000578","LANDMARKCO":"308","LANDMARKNA":"國6-愛蘭交流道 -東行","LANDMARKAD":"1000802","ADDRESS":"南投縣埔里鎮","TEL":" ","COUNTYNAME":"南投縣","TOWNNAME":"埔里鎮","MARKTYPE":"993","Class":"308"},"geometry":{"x":120.92667281414967,"y":23.980286177811521}},{"attributes":{"OBJECTID":16767,"LANDMARKID":"1000800000579","LANDMARKCO":"308","LANDMARKNA":"國6-愛蘭交流道 -西行","LANDMARKAD":"1000802","ADDRESS":"南投縣埔里鎮","TEL":" ","COUNTYNAME":"南投縣","TOWNNAME":"埔里鎮","MARKTYPE":"993","Class":"308"},"geometry":{"x":120.92627070627356,"y":23.981414455231139}},{"attributes":{"OBJECTID":16768,"LANDMARKID":"1000800000491","LANDMARKCO":"302","LANDMARKNA":"國光汽車客運埔里站","LANDMARKAD":"1000802","ADDRESS":"南投縣埔里鎮南投縣埔里鎮中正路338號","TEL":" ","COUNTYNAME":"南投縣","TOWNNAME":"埔里鎮","MARKTYPE":"993","Class":"302"},"geometry":{"x":120.96935014376153,"y":23.962959412861995}},{"attributes":{"OBJECTID":16769,"LANDMARKID":"1000800000492","LANDMARKCO":"302","LANDMARKNA":"國光汽車客運埔里站","LANDMARKAD":"1000802","ADDRESS":"545南投縣埔里鎮中正路338號","TEL":"|","COUNTYNAME":"南投縣","TOWNNAME":"埔里鎮","MARKTYPE":"993","Class":"302"},"geometry":{"x":120.96919153795334,"y":23.963613737853603}},{"attributes":{"OBJECTID":16770,"LANDMARKID":"1000800000506","LANDMARKCO":"303","LANDMARKNA":"廣興紙寮停車場","LANDMARKAD":"1000802","ADDRESS":"南投縣埔里鎮鐵山路310號","TEL":"049-2913037","COUNTYNAME":"南投縣","TOWNNAME":"埔里鎮","MARKTYPE":"993","Class":"303"},"geometry":{"x":120.93879258357725,"y":23.975973004560611}},{"attributes":{"OBJECTID":16771,"LANDMARKID":"1000800000507","LANDMARKCO":"303","LANDMARKNA":"牛耳藝術渡假村停車場","LANDMARKAD":"1000802","ADDRESS":"南投縣埔里鎮中山路四段1號","TEL":"049-2912248","COUNTYNAME":"南投縣","TOWNNAME":"埔里鎮","MARKTYPE":"993","Class":"303"},"geometry":{"x":120.94395348142586,"y":23.964788872134065}},{"attributes":{"OBJECTID":16772,"LANDMARKID":"1000800000508","LANDMARKCO":"303","LANDMARKNA":"埔里第三市場停車場","LANDMARKAD":"1000802","ADDRESS":"南投縣埔里鎮南昌街28號","TEL":" ","COUNTYNAME":"南投縣","TOWNNAME":"埔里鎮","MARKTYPE":"993","Class":"303"},"geometry":{"x":120.96665174461286,"y":23.964261804708542}},{"attributes":{"OBJECTID":16773,"LANDMARKID":"1000800000509","LANDMARKCO":"303","LANDMARKNA":"永固停車場-埔里站","LANDMARKAD":"1000802","ADDRESS":"南投縣埔里鎮南昌街28號","TEL":"02-2900465","COUNTYNAME":"南投縣","TOWNNAME":"埔里鎮","MARKTYPE":"993","Class":"303"},"geometry":{"x":120.96903661047598,"y":23.96274156902663}},{"attributes":{"OBJECTID":16774,"LANDMARKID":"1000800000625","LANDMARKCO":"402","LANDMARKNA":"中華電信-埔里服務中心","LANDMARKAD":"1000802","ADDRESS":"南投縣埔里鎮中正路443號","TEL":"(049)299-4525","COUNTYNAME":"南投縣","TOWNNAME":"埔里鎮","MARKTYPE":"994","Class":"4"},"geometry":{"x":120.96631523884272,"y":23.9657284744614}},{"attributes":{"OBJECTID":16775,"LANDMARKID":"1000800000626","LANDMARKCO":"402","LANDMARKNA":"威寶電信-埔里南昌特約服務中心","LANDMARKAD":"1000802","ADDRESS":"南投縣埔里鎮南昌街279號","TEL":"049-2988008","COUNTYNAME":"南投縣","TOWNNAME":"埔里鎮","MARKTYPE":"994","Class":"4"},"geometry":{"x":120.96318067000561,"y":23.967046036176718}},{"attributes":{"OBJECTID":16776,"LANDMARKID":"1000800000627","LANDMARKCO":"402","LANDMARKNA":"威寶電信-埔里中正特約服務中心","LANDMARKAD":"1000802","ADDRESS":"南投縣埔里鎮中正路455號","TEL":"049-2988878","COUNTYNAME":"南投縣","TOWNNAME":"埔里鎮","MARKTYPE":"994","Class":"4"},"geometry":{"x":120.96595148331195,"y":23.966071439301686}},{"attributes":{"OBJECTID":16777,"LANDMARKID":"1000800000628","LANDMARKCO":"402","LANDMARKNA":"中華電信-埔里中正特約服務中心","LANDMARKAD":"1000802","ADDRESS":"南投縣埔里鎮中正路374號","TEL":"049-2997799","COUNTYNAME":"南投縣","TOWNNAME":"埔里鎮","MARKTYPE":"994","Class":"4"},"geometry":{"x":120.9683559100437,"y":23.96425842991103}},{"attributes":{"OBJECTID":16778,"LANDMARKID":"1000800001002","LANDMARKCO":"603","LANDMARKNA":"箱根溫泉生活館","LANDMARKAD":"1000802","ADDRESS":"南投縣埔里鎮中山路一段62號","TEL":"049-2920899","COUNTYNAME":"南投縣","TOWNNAME":"埔里鎮","MARKTYPE":"996","Class":"6"},"geometry":{"x":121.0374670775859,"y":23.996553772680816}},{"attributes":{"OBJECTID":16779,"LANDMARKID":"1000800001121","LANDMARKCO":"604","LANDMARKNA":"溫莎堡民宿","LANDMARKAD":"1000802","ADDRESS":"南投縣埔里鎮同聲里新生路92巷5-12號","TEL":"049-2902458","COUNTYNAME":"南投縣","TOWNNAME":"埔里鎮","MARKTYPE":"996","Class":"6"},"geometry":{"x":120.96108256358585,"y":23.957008794408527}},{"attributes":{"OBJECTID":16780,"LANDMARKID":"1000800001122","LANDMARKCO":"604","LANDMARKNA":"松園民宿","LANDMARKAD":"1000802","ADDRESS":"南投縣埔里鎮牛眠里內埔路15巷60號","TEL":"049-2993098","COUNTYNAME":"南投縣","TOWNNAME":"埔里鎮","MARKTYPE":"996","Class":"6"},"geometry":{"x":120.99789295951634,"y":23.983073083670199}},{"attributes":{"OBJECTID":16781,"LANDMARKID":"1000800001123","LANDMARKCO":"604","LANDMARKNA":"松濤園","LANDMARKAD":"1000802","ADDRESS":"南投縣埔里鎮溪南里水墻巷25號","TEL":"049-2911291","COUNTYNAME":"南投縣","TOWNNAME":"埔里鎮","MARKTYPE":"996","Class":"6"},"geometry":{"x":120.94374981122245,"y":23.944880849747467}},{"attributes":{"OBJECTID":16782,"LANDMARKID":"1000800001124","LANDMARKCO":"604","LANDMARKNA":"別有天地民宿","LANDMARKAD":"1000802","ADDRESS":"南投縣埔里鎮桃米里水上巷3-3號","TEL":"049-2913825","COUNTYNAME":"南投縣","TOWNNAME":"埔里鎮","MARKTYPE":"996","Class":"6"},"geometry":{"x":120.92461079695428,"y":23.939237262981617}},{"attributes":{"OBJECTID":16783,"LANDMARKID":"1000800001125","LANDMARKCO":"604","LANDMARKNA":"挑米農莊民宿","LANDMARKAD":"1000802","ADDRESS":"南投縣埔里鎮桃米里桃米巷29-7號","TEL":"049-2913389","COUNTYNAME":"南投縣","TOWNNAME":"埔里鎮","MARKTYPE":"996","Class":"6"},"geometry":{"x":120.9309093922776,"y":23.94280723268934}},{"attributes":{"OBJECTID":16784,"LANDMARKID":"1000800001126","LANDMARKCO":"604","LANDMARKNA":"埔里明珠民宿","LANDMARKAD":"1000802","ADDRESS":"南投縣埔里鎮蜈蚣里中山路一段62-3號","TEL":"049-2920895","COUNTYNAME":"南投縣","TOWNNAME":"埔里鎮","MARKTYPE":"996","Class":"6"},"geometry":{"x":121.03843578267929,"y":23.997081507878491}},{"attributes":{"OBJECTID":16785,"LANDMARKID":"1000800001127","LANDMARKCO":"604","LANDMARKNA":"埔里山城民宿","LANDMARKAD":"1000802","ADDRESS":"南投縣埔里鎮蜈蚣里中山路一段62-5號","TEL":"049-2920895","COUNTYNAME":"南投縣","TOWNNAME":"埔里鎮","MARKTYPE":"996","Class":"6"},"geometry":{"x":121.03848478145851,"y":23.997072495806798}},{"attributes":{"OBJECTID":16786,"LANDMARKID":"1000800001013","LANDMARKCO":"603","LANDMARKNA":"金谷豐別館","LANDMARKAD":"1000802","ADDRESS":"南投縣埔里鎮南昌街289號","TEL":"049-2984047","COUNTYNAME":"南投縣","TOWNNAME":"埔里鎮","MARKTYPE":"996","Class":"6"},"geometry":{"x":120.96309186808926,"y":23.967130561850883}},{"attributes":{"OBJECTID":16787,"LANDMARKID":"1000800001014","LANDMARKCO":"603","LANDMARKNA":"照陽旅社","LANDMARKAD":"1000802","ADDRESS":"南投縣埔里鎮中正路386號","TEL":"049-2983975","COUNTYNAME":"南投縣","TOWNNAME":"埔里鎮","MARKTYPE":"996","Class":"6"},"geometry":{"x":120.9681926221965,"y":23.964608973838235}},{"attributes":{"OBJECTID":16788,"LANDMARKID":"1000800001015","LANDMARKCO":"603","LANDMARKNA":"永樂園旅社","LANDMARKAD":"1000802","ADDRESS":"南投縣埔里鎮西安路一段83號","TEL":"049-2996101","COUNTYNAME":"南投縣","TOWNNAME":"埔里鎮","MARKTYPE":"996","Class":"6"},"geometry":{"x":120.96505776205299,"y":23.965177104955274}},{"attributes":{"OBJECTID":16789,"LANDMARKID":"1000800001016","LANDMARKCO":"603","LANDMARKNA":"天一大飯店","LANDMARKAD":"1000802","ADDRESS":"南投縣埔里鎮西安路一段89號","TEL":"049-2998100-2","COUNTYNAME":"南投縣","TOWNNAME":"埔里鎮","MARKTYPE":"996","Class":"6"},"geometry":{"x":120.965244384314,"y":23.965321663651071}},{"attributes":{"OBJECTID":16790,"LANDMARKID":"1000800001017","LANDMARKCO":"603","LANDMARKNA":"鎮寶大飯店","LANDMARKAD":"1000802","ADDRESS":"南投縣埔里鎮忠孝路299號","TEL":"049-2903333","COUNTYNAME":"南投縣","TOWNNAME":"埔里鎮","MARKTYPE":"996","Class":"6"},"geometry":{"x":120.97433380822623,"y":23.965070677399567}},{"attributes":{"OBJECTID":16791,"LANDMARKID":"1000800001018","LANDMARKCO":"603","LANDMARKNA":"東峰大旅社","LANDMARKAD":"1000802","ADDRESS":"南投縣埔里鎮東榮路103號","TEL":"049-2982287","COUNTYNAME":"南投縣","TOWNNAME":"埔里鎮","MARKTYPE":"996","Class":"6"},"geometry":{"x":120.96737687745808,"y":23.963561196115059}},{"attributes":{"OBJECTID":16792,"LANDMARKID":"1000800001019","LANDMARKCO":"603","LANDMARKNA":"東京旅社","LANDMARKAD":"1000802","ADDRESS":"南投縣埔里鎮東榮路113號","TEL":"049-2982556","COUNTYNAME":"南投縣","TOWNNAME":"埔里鎮","MARKTYPE":"996","Class":"6"},"geometry":{"x":120.96762303741917,"y":23.963940543737291}},{"attributes":{"OBJECTID":16793,"LANDMARKID":"1000800001020","LANDMARKCO":"603","LANDMARKNA":"金山大飯店","LANDMARKAD":"1000802","ADDRESS":"南投縣埔里鎮東榮路127號","TEL":"049-2982311","COUNTYNAME":"南投縣","TOWNNAME":"埔里鎮","MARKTYPE":"996","Class":"6"},"geometry":{"x":120.96785875564046,"y":23.96415735380614}},{"attributes":{"OBJECTID":16794,"LANDMARKID":"1000800001021","LANDMARKCO":"603","LANDMARKNA":"山王大飯店","LANDMARKAD":"1000802","ADDRESS":"南投縣埔里鎮中山路二段399號","TEL":"049-2900111","COUNTYNAME":"南投縣","TOWNNAME":"埔里鎮","MARKTYPE":"996","Class":"6"},"geometry":{"x":120.9653826470098,"y":23.964021461398399}},{"attributes":{"OBJECTID":16795,"LANDMARKID":"1000800001022","LANDMARKCO":"603","LANDMARKNA":"東美旅社","LANDMARKAD":"1000802","ADDRESS":"南投縣埔里鎮中正路379號","TEL":"049-2982314","COUNTYNAME":"南投縣","TOWNNAME":"埔里鎮","MARKTYPE":"996","Class":"6"},"geometry":{"x":120.96790781919854,"y":23.964292818295082}},{"attributes":{"OBJECTID":16796,"LANDMARKID":"1000800001023","LANDMARKCO":"603","LANDMARKNA":"亞締商務旅店","LANDMARKAD":"1000802","ADDRESS":"南投縣埔里鎮信義路701號","TEL":"049-2985777","COUNTYNAME":"南投縣","TOWNNAME":"埔里鎮","MARKTYPE":"996","Class":"6"},"geometry":{"x":120.9641518083003,"y":23.972842829387268}},{"attributes":{"OBJECTID":16797,"LANDMARKID":"1000800001024","LANDMARKCO":"603","LANDMARKNA":"天水蓮大飯店","LANDMARKAD":"1000802","ADDRESS":"南投縣埔里鎮鯉魚二巷20號","TEL":"049-2903411","COUNTYNAME":"南投縣","TOWNNAME":"埔里鎮","MARKTYPE":"996","Class":"6"},"geometry":{"x":120.99701287065965,"y":23.962508086458271}},{"attributes":{"OBJECTID":16798,"LANDMARKID":"1000800001025","LANDMARKCO":"603","LANDMARKNA":"天泉溫泉會館","LANDMARKAD":"1000802","ADDRESS":"南投縣埔里鎮鯉魚路37-1號","TEL":"049-2988187","COUNTYNAME":"南投縣","TOWNNAME":"埔里鎮","MARKTYPE":"996","Class":"6"},"geometry":{"x":120.99962661716887,"y":23.958291233293458}},{"attributes":{"OBJECTID":16799,"LANDMARKID":"1000800001052","LANDMARKCO":"604","LANDMARKNA":"宏觀山居","LANDMARKAD":"1000802","ADDRESS":"南投縣埔里鎮桃米里水上巷56號","TEL":"049-2914902","COUNTYNAME":"南投縣","TOWNNAME":"埔里鎮","MARKTYPE":"996","Class":"6"},"geometry":{"x":120.90119539862602,"y":23.928706193058581}},{"attributes":{"OBJECTID":16800,"LANDMARKID":"1000800001053","LANDMARKCO":"604","LANDMARKNA":"水之香","LANDMARKAD":"1000802","ADDRESS":"南投縣埔里鎮桃米里桃米巷11-2號","TEL":"049-2914366","COUNTYNAME":"南投縣","TOWNNAME":"埔里鎮","MARKTYPE":"996","Class":"6"},"geometry":{"x":120.93669051582391,"y":23.942765487896267}}]}