{"displayFieldName":"COUNTYNAME","fieldAliases":{"OBJECTID":"OBJECTID","LANDMARKID":"LANDMARKID","LANDMARKCO":"LANDMARKCO","LANDMARKNA":"LANDMARKNA","LANDMARKAD":"LANDMARKAD","ADDRESS":"ADDRESS","TEL":"TEL","COUNTYNAME":"COUNTYNAME","TOWNNAME":"TOWNNAME","MARKTYPE":"MARKTYPE","Class":"Class"},"geometryType":"esriGeometryPoint","spatialReference":{"wkid":4326},"fields":[{"name":"OBJECTID","type":"esriFieldTypeOID","alias":"OBJECTID"},{"name":"LANDMARKID","type":"esriFieldTypeString","alias":"LANDMARKID","length":15},{"name":"LANDMARKCO","type":"esriFieldTypeString","alias":"LANDMARKCO","length":15},{"name":"LANDMARKNA","type":"esriFieldTypeString","alias":"LANDMARKNA","length":50},{"name":"LANDMARKAD","type":"esriFieldTypeString","alias":"LANDMARKAD","length":15},{"name":"ADDRESS","type":"esriFieldTypeString","alias":"ADDRESS","length":56},{"name":"TEL","type":"esriFieldTypeString","alias":"TEL","length":36},{"name":"COUNTYNAME","type":"esriFieldTypeString","alias":"COUNTYNAME","length":15},{"name":"TOWNNAME","type":"esriFieldTypeString","alias":"TOWNNAME","length":13},{"name":"MARKTYPE","type":"esriFieldTypeString","alias":"MARKTYPE","length":12},{"name":"Class","type":"esriFieldTypeString","alias":"Class","length":5}],"features":[{"attributes":{"OBJECTID":16401,"LANDMARKID":"1000800001181","LANDMARKCO":"604","LANDMARKNA":"清境普羅旺斯玫瑰花園","LANDMARKAD":"1000813","ADDRESS":"南投縣仁愛鄉大同村定遠新村24-1號","TEL":"049-2803990","COUNTYNAME":"南投縣","TOWNNAME":"仁愛鄉","MARKTYPE":"996","Class":"6"},"geometry":{"x":121.15818626081197,"y":24.041551378913692}},{"attributes":{"OBJECTID":16402,"LANDMARKID":"1000800001182","LANDMARKCO":"604","LANDMARKNA":"雲濛仙境民宿","LANDMARKAD":"1000813","ADDRESS":"南投縣仁愛鄉大同村榮光巷9號","TEL":"049-2803208","COUNTYNAME":"南投縣","TOWNNAME":"仁愛鄉","MARKTYPE":"996","Class":"6"},"geometry":{"x":121.15462531036185,"y":24.042761218910972}},{"attributes":{"OBJECTID":16403,"LANDMARKID":"1000800001183","LANDMARKCO":"604","LANDMARKNA":"美燕坊民宿","LANDMARKAD":"1000813","ADDRESS":"南投縣仁愛鄉春陽村永樂巷29-1號","TEL":"049-2803022","COUNTYNAME":"南投縣","TOWNNAME":"仁愛鄉","MARKTYPE":"996","Class":"6"},"geometry":{"x":121.14877023057842,"y":24.026937577475589}},{"attributes":{"OBJECTID":16404,"LANDMARKID":"1000800001184","LANDMARKCO":"604","LANDMARKNA":"瑪莉溫泉休閒農莊","LANDMARKAD":"1000813","ADDRESS":"南投縣仁愛鄉春陽村虎門巷100號","TEL":"0919-695384","COUNTYNAME":"南投縣","TOWNNAME":"仁愛鄉","MARKTYPE":"996","Class":"6"},"geometry":{"x":121.15419893205812,"y":24.033012649466286}},{"attributes":{"OBJECTID":16405,"LANDMARKID":"1000800001185","LANDMARKCO":"604","LANDMARKNA":"山景民宿","LANDMARKAD":"1000813","ADDRESS":"南投縣仁愛鄉春陽村虎門巷61-3號","TEL":"049-2801465","COUNTYNAME":"南投縣","TOWNNAME":"仁愛鄉","MARKTYPE":"996","Class":"6"},"geometry":{"x":121.16070272470581,"y":24.028360606650292}},{"attributes":{"OBJECTID":16406,"LANDMARKID":"1000800001186","LANDMARKCO":"604","LANDMARKNA":"野百合溫泉民宿","LANDMARKAD":"1000813","ADDRESS":"南投縣仁愛鄉春陽村虎門巷96號","TEL":"049-2801478","COUNTYNAME":"南投縣","TOWNNAME":"仁愛鄉","MARKTYPE":"996","Class":"6"},"geometry":{"x":121.16565177966481,"y":24.023611177298587}},{"attributes":{"OBJECTID":16407,"LANDMARKID":"1000800001187","LANDMARKCO":"604","LANDMARKNA":"曉園民宿","LANDMARKAD":"1000813","ADDRESS":"南投縣仁愛鄉新生村山林巷1-3號","TEL":"0939-954236","COUNTYNAME":"南投縣","TOWNNAME":"仁愛鄉","MARKTYPE":"996","Class":"6"},"geometry":{"x":120.98588486721593,"y":24.078988330285053}},{"attributes":{"OBJECTID":16408,"LANDMARKID":"1000800001188","LANDMARKCO":"604","LANDMARKNA":"維也納民宿","LANDMARKAD":"1000813","ADDRESS":"南投縣仁愛鄉大同村定遠新村29號","TEL":"049-2803192","COUNTYNAME":"南投縣","TOWNNAME":"仁愛鄉","MARKTYPE":"996","Class":"6"},"geometry":{"x":121.15842864425856,"y":24.045784974102148}},{"attributes":{"OBJECTID":16409,"LANDMARKID":"1000800001189","LANDMARKCO":"604","LANDMARKNA":"雲舞樓民宿","LANDMARKAD":"1000813","ADDRESS":"南投縣仁愛鄉大同村定遠新村32-1號","TEL":"049-2803700","COUNTYNAME":"南投縣","TOWNNAME":"仁愛鄉","MARKTYPE":"996","Class":"6"},"geometry":{"x":121.15738486119956,"y":24.040416204165048}},{"attributes":{"OBJECTID":16410,"LANDMARKID":"1000800001190","LANDMARKCO":"604","LANDMARKNA":"夏都民宿","LANDMARKAD":"1000813","ADDRESS":"南投縣仁愛鄉大同村定遠新村32號","TEL":"049-2803366","COUNTYNAME":"南投縣","TOWNNAME":"仁愛鄉","MARKTYPE":"996","Class":"6"},"geometry":{"x":121.15717828485799,"y":24.039944415946664}},{"attributes":{"OBJECTID":16411,"LANDMARKID":"1000800001191","LANDMARKCO":"604","LANDMARKNA":"清境歐鄉美邸山莊","LANDMARKAD":"1000813","ADDRESS":"南投縣仁愛鄉大同村定遠新村35號","TEL":"049-2803620","COUNTYNAME":"南投縣","TOWNNAME":"仁愛鄉","MARKTYPE":"996","Class":"6"},"geometry":{"x":121.15637914723345,"y":24.039010233797562}},{"attributes":{"OBJECTID":16412,"LANDMARKID":"1000800001192","LANDMARKCO":"604","LANDMARKNA":"清境山林茶舍","LANDMARKAD":"1000813","ADDRESS":"南投縣仁愛鄉大同村信義巷32-1號","TEL":"049-2802885","COUNTYNAME":"南投縣","TOWNNAME":"仁愛鄉","MARKTYPE":"996","Class":"6"},"geometry":{"x":121.13991721416433,"y":24.028899137864357}},{"attributes":{"OBJECTID":16413,"LANDMARKID":"1000800001193","LANDMARKCO":"604","LANDMARKNA":"清境天祥民宿","LANDMARKAD":"1000813","ADDRESS":"南投縣仁愛鄉大同村信義巷36-1號","TEL":"049-2801567","COUNTYNAME":"南投縣","TOWNNAME":"仁愛鄉","MARKTYPE":"996","Class":"6"},"geometry":{"x":121.14540146527182,"y":24.036525167293831}},{"attributes":{"OBJECTID":16414,"LANDMARKID":"1000800001194","LANDMARKCO":"604","LANDMARKNA":"以馬內利農莊","LANDMARKAD":"1000813","ADDRESS":"南投縣仁愛鄉大同村信義巷37號","TEL":"049-2801077","COUNTYNAME":"南投縣","TOWNNAME":"仁愛鄉","MARKTYPE":"996","Class":"6"},"geometry":{"x":121.14593156669534,"y":24.037498663365024}},{"attributes":{"OBJECTID":16415,"LANDMARKID":"1000800001195","LANDMARKCO":"604","LANDMARKNA":"瑪格麗特花園","LANDMARKAD":"1000813","ADDRESS":"南投縣仁愛鄉大同村信義巷39-1號","TEL":"049-2803824","COUNTYNAME":"南投縣","TOWNNAME":"仁愛鄉","MARKTYPE":"996","Class":"6"},"geometry":{"x":121.15420489629388,"y":24.032982642890556}},{"attributes":{"OBJECTID":16416,"LANDMARKID":"1000800001196","LANDMARKCO":"604","LANDMARKNA":"桂園湯民宿","LANDMARKAD":"1000813","ADDRESS":"南投縣仁愛鄉精英村榮華巷120號","TEL":"049-2236621","COUNTYNAME":"南投縣","TOWNNAME":"仁愛鄉","MARKTYPE":"996","Class":"6"},"geometry":{"x":121.18454205653082,"y":24.020885622533658}},{"attributes":{"OBJECTID":16417,"LANDMARKID":"1000800001197","LANDMARKCO":"604","LANDMARKNA":"觀月山莊","LANDMARKAD":"1000813","ADDRESS":"南投縣仁愛鄉精英村榮華巷152號","TEL":"049-2420532","COUNTYNAME":"南投縣","TOWNNAME":"仁愛鄉","MARKTYPE":"996","Class":"6"},"geometry":{"x":121.1257176403406,"y":24.008273485443503}},{"attributes":{"OBJECTID":16418,"LANDMARKID":"1000800001198","LANDMARKCO":"604","LANDMARKNA":"森喜泉民宿","LANDMARKAD":"1000813","ADDRESS":"南投縣仁愛鄉精英村榮華巷155號","TEL":"0931-525689","COUNTYNAME":"南投縣","TOWNNAME":"仁愛鄉","MARKTYPE":"996","Class":"6"},"geometry":{"x":121.18465193733769,"y":24.018023489591183}},{"attributes":{"OBJECTID":16419,"LANDMARKID":"1000800001199","LANDMARKCO":"604","LANDMARKNA":"仙境民宿","LANDMARKAD":"1000813","ADDRESS":"南投縣仁愛鄉精英村榮華巷40-1號","TEL":"049-2803633","COUNTYNAME":"南投縣","TOWNNAME":"仁愛鄉","MARKTYPE":"996","Class":"6"},"geometry":{"x":121.18971141694009,"y":24.02177305712825}},{"attributes":{"OBJECTID":16420,"LANDMARKID":"1000800001200","LANDMARKCO":"604","LANDMARKNA":"華崗高海拔避暑渡假村","LANDMARKAD":"1000813","ADDRESS":"南投縣仁愛鄉翠華村華崗97-2號","TEL":"04-25960067","COUNTYNAME":"南投縣","TOWNNAME":"仁愛鄉","MARKTYPE":"996","Class":"6"},"geometry":{"x":121.22724477220754,"y":24.190453743556848}},{"attributes":{"OBJECTID":16421,"LANDMARKID":"1000800001201","LANDMARKCO":"604","LANDMARKNA":"露比生態景觀渡假農莊民宿","LANDMARKAD":"1000813","ADDRESS":"南投縣仁愛鄉大同村高峰巷1-2號","TEL":"049-2803425","COUNTYNAME":"南投縣","TOWNNAME":"仁愛鄉","MARKTYPE":"996","Class":"6"},"geometry":{"x":121.12586244716776,"y":24.008793366870414}},{"attributes":{"OBJECTID":16422,"LANDMARKID":"1000800001202","LANDMARKCO":"604","LANDMARKNA":"山海觀","LANDMARKAD":"1000813","ADDRESS":"南投縣仁愛鄉大同村高峰巷14號","TEL":"049-2802111","COUNTYNAME":"南投縣","TOWNNAME":"仁愛鄉","MARKTYPE":"996","Class":"6"},"geometry":{"x":121.12999642193924,"y":24.015303207401754}},{"attributes":{"OBJECTID":16423,"LANDMARKID":"1000800001203","LANDMARKCO":"604","LANDMARKNA":"水擺夷風味民宿","LANDMARKAD":"1000813","ADDRESS":"南投縣仁愛鄉大同村博望巷21-1號","TEL":"049-2802026","COUNTYNAME":"南投縣","TOWNNAME":"仁愛鄉","MARKTYPE":"996","Class":"6"},"geometry":{"x":121.17079503592745,"y":24.068959572189417}},{"attributes":{"OBJECTID":16424,"LANDMARKID":"1000800001204","LANDMARKCO":"604","LANDMARKNA":"滇緬的家","LANDMARKAD":"1000813","ADDRESS":"南投縣仁愛鄉大同村博望巷26號","TEL":"049-2802095","COUNTYNAME":"南投縣","TOWNNAME":"仁愛鄉","MARKTYPE":"996","Class":"6"},"geometry":{"x":121.16996986671731,"y":24.068842490346139}},{"attributes":{"OBJECTID":16425,"LANDMARKID":"1000800001205","LANDMARKCO":"604","LANDMARKNA":"星光流域","LANDMARKAD":"1000813","ADDRESS":"南投縣仁愛鄉大同村博望巷30-1號","TEL":"049-2802410","COUNTYNAME":"南投縣","TOWNNAME":"仁愛鄉","MARKTYPE":"996","Class":"6"},"geometry":{"x":121.17215911330156,"y":24.070279042981738}},{"attributes":{"OBJECTID":16426,"LANDMARKID":"1000800001206","LANDMARKCO":"604","LANDMARKNA":"31民宿","LANDMARKAD":"1000813","ADDRESS":"南投縣仁愛鄉大同村博望巷31號","TEL":"049-2800123","COUNTYNAME":"南投縣","TOWNNAME":"仁愛鄉","MARKTYPE":"996","Class":"6"},"geometry":{"x":121.17042042697224,"y":24.069767989282351}},{"attributes":{"OBJECTID":16427,"LANDMARKID":"1000800001207","LANDMARKCO":"604","LANDMARKNA":"觀星園民宿","LANDMARKAD":"1000813","ADDRESS":"南投縣仁愛鄉大同村博望巷96號","TEL":"0932-786201","COUNTYNAME":"南投縣","TOWNNAME":"仁愛鄉","MARKTYPE":"996","Class":"6"},"geometry":{"x":121.17121337173883,"y":24.072502104383972}},{"attributes":{"OBJECTID":16428,"LANDMARKID":"1000800001208","LANDMARKCO":"604","LANDMARKNA":"豐田農場","LANDMARKAD":"1000813","ADDRESS":"南投縣仁愛鄉大同村博望巷9-6號","TEL":"049-2802838","COUNTYNAME":"南投縣","TOWNNAME":"仁愛鄉","MARKTYPE":"996","Class":"6"},"geometry":{"x":121.17125308454997,"y":24.071768060048576}},{"attributes":{"OBJECTID":16429,"LANDMARKID":"1000800001209","LANDMARKCO":"604","LANDMARKNA":"聚彩園","LANDMARKAD":"1000813","ADDRESS":"南投縣仁愛鄉大同村博望巷98號","TEL":"049-2803410","COUNTYNAME":"南投縣","TOWNNAME":"仁愛鄉","MARKTYPE":"996","Class":"6"},"geometry":{"x":121.17148250441589,"y":24.074857802372641}},{"attributes":{"OBJECTID":16430,"LANDMARKID":"1000800001210","LANDMARKCO":"604","LANDMARKNA":"清境小築","LANDMARKAD":"1000813","ADDRESS":"南投縣仁愛鄉大同村壽亭巷14號","TEL":"0955-102108","COUNTYNAME":"南投縣","TOWNNAME":"仁愛鄉","MARKTYPE":"996","Class":"6"},"geometry":{"x":121.16078440473501,"y":24.04082052015027}},{"attributes":{"OBJECTID":16431,"LANDMARKID":"1000800001211","LANDMARKCO":"604","LANDMARKNA":"春大地","LANDMARKAD":"1000813","ADDRESS":"南投縣仁愛鄉大同村壽亭巷20-1號","TEL":"049-2801606","COUNTYNAME":"南投縣","TOWNNAME":"仁愛鄉","MARKTYPE":"996","Class":"6"},"geometry":{"x":121.15840277017993,"y":24.038370001656407}},{"attributes":{"OBJECTID":16432,"LANDMARKID":"1000800001212","LANDMARKCO":"604","LANDMARKNA":"盧森堡民宿","LANDMARKAD":"1000813","ADDRESS":"南投縣仁愛鄉大同村壽亭巷28號","TEL":"049-2801511","COUNTYNAME":"南投縣","TOWNNAME":"仁愛鄉","MARKTYPE":"996","Class":"6"},"geometry":{"x":121.15456301024867,"y":24.035013281988153}},{"attributes":{"OBJECTID":16433,"LANDMARKID":"1000800001213","LANDMARKCO":"604","LANDMARKNA":"歐風小鎮","LANDMARKAD":"1000813","ADDRESS":"南投縣仁愛鄉大同村壽亭巷35號","TEL":"049-2803008","COUNTYNAME":"南投縣","TOWNNAME":"仁愛鄉","MARKTYPE":"996","Class":"6"},"geometry":{"x":121.158344688375,"y":24.04026606171648}},{"attributes":{"OBJECTID":16434,"LANDMARKID":"1000800001214","LANDMARKCO":"604","LANDMARKNA":"安弟休閒民宿","LANDMARKAD":"1000813","ADDRESS":"南投縣仁愛鄉大同村壽亭巷25-1號","TEL":"049-2803066","COUNTYNAME":"南投縣","TOWNNAME":"仁愛鄉","MARKTYPE":"996","Class":"6"},"geometry":{"x":121.1597033723216,"y":24.041967650942169}},{"attributes":{"OBJECTID":16435,"LANDMARKID":"1000800001215","LANDMARKCO":"604","LANDMARKNA":"人間清境民宿","LANDMARKAD":"1000813","ADDRESS":"南投縣仁愛鄉大同村榮光巷15-1號","TEL":"049-2803919","COUNTYNAME":"南投縣","TOWNNAME":"仁愛鄉","MARKTYPE":"996","Class":"6"},"geometry":{"x":121.16092388086328,"y":24.042373372715087}},{"attributes":{"OBJECTID":16436,"LANDMARKID":"1000800001216","LANDMARKCO":"604","LANDMARKNA":"清境茲心園凱達格蘭農莊民宿","LANDMARKAD":"1000813","ADDRESS":"南投縣仁愛鄉大同村榮光巷36-1號","TEL":"049-2801376","COUNTYNAME":"南投縣","TOWNNAME":"仁愛鄉","MARKTYPE":"996","Class":"6"},"geometry":{"x":121.14869404530967,"y":24.038928650444891}},{"attributes":{"OBJECTID":16437,"LANDMARKID":"1000800001217","LANDMARKCO":"604","LANDMARKNA":"清境西雅圖景觀山莊民宿","LANDMARKAD":"1000813","ADDRESS":"南投縣仁愛鄉大同村榮光巷39號","TEL":"0912-971717","COUNTYNAME":"南投縣","TOWNNAME":"仁愛鄉","MARKTYPE":"996","Class":"6"},"geometry":{"x":121.14863647607218,"y":24.037393707197083}},{"attributes":{"OBJECTID":16438,"LANDMARKID":"1000800001218","LANDMARKCO":"604","LANDMARKNA":"清境觀湖四季民宿","LANDMARKAD":"1000813","ADDRESS":"南投縣仁愛鄉大同村榮光巷40-2號","TEL":"0937-354233","COUNTYNAME":"南投縣","TOWNNAME":"仁愛鄉","MARKTYPE":"996","Class":"6"},"geometry":{"x":121.15004498228873,"y":24.035901029131789}},{"attributes":{"OBJECTID":16439,"LANDMARKID":"1000800001219","LANDMARKCO":"604","LANDMARKNA":"明琴清境山莊","LANDMARKAD":"1000813","ADDRESS":"南投縣仁愛鄉大同村榮光巷43-1號","TEL":"049-2803888","COUNTYNAME":"南投縣","TOWNNAME":"仁愛鄉","MARKTYPE":"996","Class":"6"},"geometry":{"x":121.15054582089856,"y":24.036815538102893}},{"attributes":{"OBJECTID":16440,"LANDMARKID":"1000800001220","LANDMARKCO":"604","LANDMARKNA":"玉暉莊民宿","LANDMARKAD":"1000813","ADDRESS":"南投縣仁愛鄉大同村榮光巷46-2號","TEL":"049-2803789","COUNTYNAME":"南投縣","TOWNNAME":"仁愛鄉","MARKTYPE":"996","Class":"6"},"geometry":{"x":121.1558140072914,"y":24.038604810536942}},{"attributes":{"OBJECTID":16441,"LANDMARKID":"1000800001221","LANDMARKCO":"604","LANDMARKNA":"雲南風情民宿","LANDMARKAD":"1000813","ADDRESS":"南投縣仁愛鄉大同村榮光巷50-1號","TEL":"049-2803577","COUNTYNAME":"南投縣","TOWNNAME":"仁愛鄉","MARKTYPE":"996","Class":"6"},"geometry":{"x":121.15402585869288,"y":24.039608823655122}},{"attributes":{"OBJECTID":16442,"LANDMARKID":"1000800001222","LANDMARKCO":"604","LANDMARKNA":"陽光花園山莊","LANDMARKAD":"1000813","ADDRESS":"南投縣仁愛鄉大同村榮光巷50號","TEL":"049-2803768","COUNTYNAME":"南投縣","TOWNNAME":"仁愛鄉","MARKTYPE":"996","Class":"6"},"geometry":{"x":121.15563942164931,"y":24.040068987587439}},{"attributes":{"OBJECTID":16443,"LANDMARKID":"1000800001223","LANDMARKCO":"604","LANDMARKNA":"摘星花園山莊","LANDMARKAD":"1000813","ADDRESS":"南投縣仁愛鄉大同村榮光巷51號","TEL":"049-2802946","COUNTYNAME":"南投縣","TOWNNAME":"仁愛鄉","MARKTYPE":"996","Class":"6"},"geometry":{"x":121.15413929918967,"y":24.035260709548364}},{"attributes":{"OBJECTID":16444,"LANDMARKID":"1000800001224","LANDMARKCO":"604","LANDMARKNA":"清境白雲渡假山莊","LANDMARKAD":"1000813","ADDRESS":"南投縣仁愛鄉大同村榮光巷8-2號","TEL":"049-2803999","COUNTYNAME":"南投縣","TOWNNAME":"仁愛鄉","MARKTYPE":"996","Class":"6"},"geometry":{"x":121.15374112191695,"y":24.042609109615587}},{"attributes":{"OBJECTID":16445,"LANDMARKID":"1000800001225","LANDMARKCO":"604","LANDMARKNA":"佛羅倫斯渡假山莊","LANDMARKAD":"1000813","ADDRESS":"南投縣仁愛鄉大同村榮光巷8-3號","TEL":"0937-291571","COUNTYNAME":"南投縣","TOWNNAME":"仁愛鄉","MARKTYPE":"996","Class":"6"},"geometry":{"x":121.15333884461751,"y":24.038507512787902}},{"attributes":{"OBJECTID":16446,"LANDMARKID":"1000800001226","LANDMARKCO":"604","LANDMARKNA":"春天花園城堡","LANDMARKAD":"1000813","ADDRESS":"南投縣仁愛鄉大同村榮光巷8-8號","TEL":"049-0803559","COUNTYNAME":"南投縣","TOWNNAME":"仁愛鄉","MARKTYPE":"996","Class":"6"},"geometry":{"x":121.15534721452917,"y":24.040730488990629}},{"attributes":{"OBJECTID":16447,"LANDMARKID":"1000800001227","LANDMARKCO":"604","LANDMARKNA":"空中花園民宿","LANDMARKAD":"1000813","ADDRESS":"南投縣仁愛鄉大同村榮光巷8號","TEL":"049-2802166","COUNTYNAME":"南投縣","TOWNNAME":"仁愛鄉","MARKTYPE":"996","Class":"6"},"geometry":{"x":121.15537622645721,"y":24.040739459268384}},{"attributes":{"OBJECTID":16448,"LANDMARKID":"1000800001228","LANDMARKCO":"604","LANDMARKNA":"清境雲之瀑","LANDMARKAD":"1000813","ADDRESS":"南投縣仁愛鄉大同村信義巷79號","TEL":"049-2803695","COUNTYNAME":"南投縣","TOWNNAME":"仁愛鄉","MARKTYPE":"996","Class":"6"},"geometry":{"x":121.14846246224133,"y":24.042068875543912}},{"attributes":{"OBJECTID":16449,"LANDMARKID":"1000800001229","LANDMARKCO":"604","LANDMARKNA":"玉泉園民宿","LANDMARKAD":"1000813","ADDRESS":"南投縣仁愛鄉南豐村松原巷100號","TEL":"049-2920000","COUNTYNAME":"南投縣","TOWNNAME":"仁愛鄉","MARKTYPE":"996","Class":"6"},"geometry":{"x":121.08900905442854,"y":24.012643003174507}},{"attributes":{"OBJECTID":16450,"LANDMARKID":"1000800001230","LANDMARKCO":"604","LANDMARKNA":"來福居民宿","LANDMARKAD":"1000813","ADDRESS":"南投縣仁愛鄉大同村定遠新村18-7號","TEL":"049-2803131","COUNTYNAME":"南投縣","TOWNNAME":"仁愛鄉","MARKTYPE":"996","Class":"6"},"geometry":{"x":121.15832221762545,"y":24.046253237619656}},{"attributes":{"OBJECTID":16451,"LANDMARKID":"1000800001231","LANDMARKCO":"604","LANDMARKNA":"湘晴休閒木屋","LANDMARKAD":"1000813","ADDRESS":"南投縣仁愛鄉大同村定遠新村18-9號","TEL":"049-2803901","COUNTYNAME":"南投縣","TOWNNAME":"仁愛鄉","MARKTYPE":"996","Class":"6"},"geometry":{"x":121.15822428352327,"y":24.046308338445098}},{"attributes":{"OBJECTID":16452,"LANDMARKID":"1000800001232","LANDMARKCO":"604","LANDMARKNA":"清境君仕坦丁堡","LANDMARKAD":"1000813","ADDRESS":"南投縣仁愛鄉大同村榮光巷8-4號","TEL":"049-2803820","COUNTYNAME":"南投縣","TOWNNAME":"仁愛鄉","MARKTYPE":"996","Class":"6"},"geometry":{"x":121.15539619278671,"y":24.040711439407936}},{"attributes":{"OBJECTID":16453,"LANDMARKID":"1000800001233","LANDMARKCO":"604","LANDMARKNA":"日初雲來","LANDMARKAD":"1000813","ADDRESS":"南投縣仁愛鄉大同村榮光巷8-9號","TEL":"049-2801699","COUNTYNAME":"南投縣","TOWNNAME":"仁愛鄉","MARKTYPE":"996","Class":"6"},"geometry":{"x":121.15521923488869,"y":24.040748618182629}},{"attributes":{"OBJECTID":16454,"LANDMARKID":"1000800000999","LANDMARKCO":"603","LANDMARKNA":"霧櫻大飯店","LANDMARKAD":"1000813","ADDRESS":"南投縣仁愛鄉大同村仁和路71號","TEL":"049-2802360","COUNTYNAME":"南投縣","TOWNNAME":"仁愛鄉","MARKTYPE":"996","Class":"6"},"geometry":{"x":121.13223353143803,"y":24.022741634269764}},{"attributes":{"OBJECTID":16455,"LANDMARKID":"1000800001000","LANDMARKCO":"603","LANDMARKNA":"泰雅渡假村","LANDMARKAD":"1000813","ADDRESS":"南投縣仁愛鄉互助村清風路45號","TEL":"049-2461311","COUNTYNAME":"南投縣","TOWNNAME":"仁愛鄉","MARKTYPE":"996","Class":"6"},"geometry":{"x":120.94135290939303,"y":24.066865037988283}},{"attributes":{"OBJECTID":16456,"LANDMARKID":"1000800000834","LANDMARKCO":"503","LANDMARKNA":"翠峰風景特定區","LANDMARKAD":"1000813","ADDRESS":"南投縣仁愛鄉","TEL":" ","COUNTYNAME":"南投縣","TOWNNAME":"仁愛鄉","MARKTYPE":"995","Class":"5"},"geometry":{"x":121.1977598278156,"y":24.10410217780807}},{"attributes":{"OBJECTID":16457,"LANDMARKID":"1000800000893","LANDMARKCO":"508","LANDMARKNA":"春陽溫泉山莊","LANDMARKAD":"1000813","ADDRESS":"南投縣仁愛鄉春陽村虎門巷62號","TEL":"049-2801259","COUNTYNAME":"南投縣","TOWNNAME":"仁愛鄉","MARKTYPE":"995","Class":"5"},"geometry":{"x":121.15758747436436,"y":24.028189859269872}},{"attributes":{"OBJECTID":16458,"LANDMARKID":"1000800000894","LANDMARKCO":"508","LANDMARKNA":"春陽溫泉(春陽部落)","LANDMARKAD":"1000813","ADDRESS":"南投縣仁愛鄉","TEL":" ","COUNTYNAME":"南投縣","TOWNNAME":"仁愛鄉","MARKTYPE":"995","Class":"5"},"geometry":{"x":121.1660890740165,"y":24.024922800315064}},{"attributes":{"OBJECTID":16459,"LANDMARKID":"1000800000895","LANDMARKCO":"508","LANDMARKNA":"綠楊景觀溫泉山莊","LANDMARKAD":"1000813","ADDRESS":"南投縣仁愛鄉仁和路208號","TEL":"049-2803358","COUNTYNAME":"南投縣","TOWNNAME":"仁愛鄉","MARKTYPE":"995","Class":"5"},"geometry":{"x":121.16853144841845,"y":24.061979610072683}},{"attributes":{"OBJECTID":16460,"LANDMARKID":"1000800000896","LANDMARKCO":"508","LANDMARKNA":"紅香溫泉(紅香部落)","LANDMARKAD":"1000813","ADDRESS":"南投縣仁愛鄉","TEL":" ","COUNTYNAME":"南投縣","TOWNNAME":"仁愛鄉","MARKTYPE":"995","Class":"5"},"geometry":{"x":121.17967324654741,"y":24.162812779196766}},{"attributes":{"OBJECTID":16461,"LANDMARKID":"1000800000897","LANDMARKCO":"508","LANDMARKNA":"櫻宿溫泉會館","LANDMARKAD":"1000813","ADDRESS":"南投縣仁愛鄉精英村榮華巷27之1號","TEL":"049-2802018","COUNTYNAME":"南投縣","TOWNNAME":"仁愛鄉","MARKTYPE":"995","Class":"5"},"geometry":{"x":121.18240778501966,"y":24.02107312699729}},{"attributes":{"OBJECTID":16462,"LANDMARKID":"1000800000898","LANDMARKCO":"508","LANDMARKNA":"奧萬大溫泉","LANDMARKAD":"1000813","ADDRESS":"南投縣仁愛鄉","TEL":" ","COUNTYNAME":"南投縣","TOWNNAME":"仁愛鄉","MARKTYPE":"995","Class":"5"},"geometry":{"x":121.18557659754478,"y":23.943665797095772}},{"attributes":{"OBJECTID":16463,"LANDMARKID":"1000800000899","LANDMARKCO":"508","LANDMARKNA":"清溪溫泉會館","LANDMARKAD":"1000813","ADDRESS":"南投縣仁愛鄉精英村榮華巷37號","TEL":"049-2802528","COUNTYNAME":"南投縣","TOWNNAME":"仁愛鄉","MARKTYPE":"995","Class":"5"},"geometry":{"x":121.1852326415985,"y":24.021495793547377}},{"attributes":{"OBJECTID":16464,"LANDMARKID":"1000800000900","LANDMARKCO":"508","LANDMARKNA":"名廬假期大飯店","LANDMARKAD":"1000813","ADDRESS":"南投縣仁愛鄉廬山溫泉9號","TEL":"049-2801341","COUNTYNAME":"南投縣","TOWNNAME":"仁愛鄉","MARKTYPE":"995","Class":"5"},"geometry":{"x":121.18569882340846,"y":24.022509127061944}},{"attributes":{"OBJECTID":16465,"LANDMARKID":"1000800000901","LANDMARKCO":"508","LANDMARKNA":"閤家溫泉會館","LANDMARKAD":"1000813","ADDRESS":"南投縣仁愛鄉精英村榮華巷37之2號","TEL":"049-2801087","COUNTYNAME":"南投縣","TOWNNAME":"仁愛鄉","MARKTYPE":"995","Class":"5"},"geometry":{"x":121.18554961563115,"y":24.021560860532606}},{"attributes":{"OBJECTID":16466,"LANDMARKID":"1000800000902","LANDMARKCO":"508","LANDMARKNA":"小境家旅店","LANDMARKAD":"1000813","ADDRESS":"南投縣仁愛鄉精英村榮華巷37之1號","TEL":"049-2802555","COUNTYNAME":"南投縣","TOWNNAME":"仁愛鄉","MARKTYPE":"995","Class":"5"},"geometry":{"x":121.18571474781379,"y":24.021599671625797}},{"attributes":{"OBJECTID":16467,"LANDMARKID":"1000800000903","LANDMARKCO":"508","LANDMARKNA":"三友別館","LANDMARKAD":"1000813","ADDRESS":"南投縣仁愛鄉精英村榮華巷11號","TEL":"049-2802002","COUNTYNAME":"南投縣","TOWNNAME":"仁愛鄉","MARKTYPE":"995","Class":"5"},"geometry":{"x":121.18648148525412,"y":24.022598364284395}},{"attributes":{"OBJECTID":16468,"LANDMARKID":"1000800000904","LANDMARKCO":"508","LANDMARKNA":"廬山園游泳池大飯店","LANDMARKAD":"1000813","ADDRESS":"南投縣仁愛鄉精英村榮華巷12號","TEL":"049-2802367","COUNTYNAME":"南投縣","TOWNNAME":"仁愛鄉","MARKTYPE":"995","Class":"5"},"geometry":{"x":121.18663692676841,"y":24.022617851254275}},{"attributes":{"OBJECTID":16469,"LANDMARKID":"1000800000905","LANDMARKCO":"508","LANDMARKNA":"廬山玉池溫泉館","LANDMARKAD":"1000813","ADDRESS":"南投縣仁愛鄉精英村榮華巷25之1號","TEL":"049-2802290","COUNTYNAME":"南投縣","TOWNNAME":"仁愛鄉","MARKTYPE":"995","Class":"5"},"geometry":{"x":121.18768439470189,"y":24.023395242277392}},{"attributes":{"OBJECTID":16470,"LANDMARKID":"1000800000906","LANDMARKCO":"508","LANDMARKNA":"蘆山溫泉","LANDMARKAD":"1000813","ADDRESS":"南投縣仁愛鄉","TEL":" ","COUNTYNAME":"南投縣","TOWNNAME":"仁愛鄉","MARKTYPE":"995","Class":"5"},"geometry":{"x":121.18718718293354,"y":24.022324249779341}},{"attributes":{"OBJECTID":16471,"LANDMARKID":"1000800000907","LANDMARKCO":"508","LANDMARKNA":"正揚大飯店","LANDMARKAD":"1000813","ADDRESS":"南投縣仁愛鄉精英村榮華巷9之1號","TEL":"049-2802557","COUNTYNAME":"南投縣","TOWNNAME":"仁愛鄉","MARKTYPE":"995","Class":"5"},"geometry":{"x":121.18786710931951,"y":24.022347310666554}},{"attributes":{"OBJECTID":16472,"LANDMARKID":"1000800000908","LANDMARKCO":"508","LANDMARKNA":"天廬大飯店","LANDMARKAD":"1000813","ADDRESS":"南投縣仁愛鄉精英村榮華巷24號","TEL":"049-2802288","COUNTYNAME":"南投縣","TOWNNAME":"仁愛鄉","MARKTYPE":"995","Class":"5"},"geometry":{"x":121.18843041381459,"y":24.02415546079467}},{"attributes":{"OBJECTID":16473,"LANDMARKID":"1000800000909","LANDMARKCO":"508","LANDMARKNA":"廬山警光山莊","LANDMARKAD":"1000813","ADDRESS":"南投縣仁愛鄉精英村榮華巷45號","TEL":"049-2802529","COUNTYNAME":"南投縣","TOWNNAME":"仁愛鄉","MARKTYPE":"995","Class":"5"},"geometry":{"x":121.18966598886971,"y":24.023756595114481}},{"attributes":{"OBJECTID":16474,"LANDMARKID":"1000800000910","LANDMARKCO":"508","LANDMARKNA":"萬大南溪溫泉","LANDMARKAD":"1000813","ADDRESS":"南投縣仁愛鄉","TEL":" ","COUNTYNAME":"南投縣","TOWNNAME":"仁愛鄉","MARKTYPE":"995","Class":"5"},"geometry":{"x":121.19940617469645,"y":23.939180708481896}},{"attributes":{"OBJECTID":16475,"LANDMARKID":"1000800000911","LANDMARKCO":"508","LANDMARKNA":"精英溫泉","LANDMARKAD":"1000813","ADDRESS":"南投縣仁愛鄉","TEL":" ","COUNTYNAME":"南投縣","TOWNNAME":"仁愛鄉","MARKTYPE":"995","Class":"5"},"geometry":{"x":121.21176909817237,"y":24.031343303990571}},{"attributes":{"OBJECTID":16476,"LANDMARKID":"1000800000825","LANDMARKCO":"503","LANDMARKNA":"飛羚瀑布","LANDMARKAD":"1000813","ADDRESS":"南投縣仁愛鄉","TEL":" ","COUNTYNAME":"南投縣","TOWNNAME":"仁愛鄉","MARKTYPE":"995","Class":"5"},"geometry":{"x":121.10978192358149,"y":24.036543993363136}},{"attributes":{"OBJECTID":16477,"LANDMARKID":"1000800000826","LANDMARKCO":"503","LANDMARKNA":"南山瀑布","LANDMARKAD":"1000813","ADDRESS":"南投縣仁愛鄉","TEL":" ","COUNTYNAME":"南投縣","TOWNNAME":"仁愛鄉","MARKTYPE":"995","Class":"5"},"geometry":{"x":121.11689417975994,"y":24.025543219936505}},{"attributes":{"OBJECTID":16478,"LANDMARKID":"1000800000827","LANDMARKCO":"503","LANDMARKNA":"萬大水庫","LANDMARKAD":"1000813","ADDRESS":"南投縣仁愛鄉","TEL":" ","COUNTYNAME":"南投縣","TOWNNAME":"仁愛鄉","MARKTYPE":"995","Class":"5"},"geometry":{"x":121.15031838876544,"y":24.003583048964483}},{"attributes":{"OBJECTID":16479,"LANDMARKID":"1000800000828","LANDMARKCO":"503","LANDMARKNA":"玉麗瀑布","LANDMARKAD":"1000813","ADDRESS":"南投縣仁愛鄉","TEL":" ","COUNTYNAME":"南投縣","TOWNNAME":"仁愛鄉","MARKTYPE":"995","Class":"5"},"geometry":{"x":121.11916215892816,"y":24.006625381657919}},{"attributes":{"OBJECTID":16480,"LANDMARKID":"1000800000829","LANDMARKCO":"503","LANDMARKNA":"能高瀑布","LANDMARKAD":"1000813","ADDRESS":"南投縣仁愛鄉","TEL":" ","COUNTYNAME":"南投縣","TOWNNAME":"仁愛鄉","MARKTYPE":"995","Class":"5"},"geometry":{"x":121.0746525125568,"y":24.015924353383806}},{"attributes":{"OBJECTID":16481,"LANDMARKID":"1000800000830","LANDMARKCO":"503","LANDMARKNA":"觀音瀑布","LANDMARKAD":"1000813","ADDRESS":"南投縣仁愛鄉","TEL":" ","COUNTYNAME":"南投縣","TOWNNAME":"仁愛鄉","MARKTYPE":"995","Class":"5"},"geometry":{"x":121.09101973826682,"y":23.999558474348134}},{"attributes":{"OBJECTID":16482,"LANDMARKID":"1000800000831","LANDMARKCO":"503","LANDMARKNA":"大南邊瀑布","LANDMARKAD":"1000813","ADDRESS":"南投縣仁愛鄉","TEL":" ","COUNTYNAME":"南投縣","TOWNNAME":"仁愛鄉","MARKTYPE":"995","Class":"5"},"geometry":{"x":121.02408097251195,"y":23.939205659489353}},{"attributes":{"OBJECTID":16483,"LANDMARKID":"1000800000832","LANDMARKCO":"503","LANDMARKNA":"良久瀑布","LANDMARKAD":"1000813","ADDRESS":"南投縣仁愛鄉","TEL":" ","COUNTYNAME":"南投縣","TOWNNAME":"仁愛鄉","MARKTYPE":"995","Class":"5"},"geometry":{"x":121.12508918411915,"y":23.889277571094858}},{"attributes":{"OBJECTID":16484,"LANDMARKID":"1000800000833","LANDMARKCO":"503","LANDMARKNA":"雙龍瀑布","LANDMARKAD":"1000813","ADDRESS":"南投縣仁愛鄉","TEL":" ","COUNTYNAME":"南投縣","TOWNNAME":"仁愛鄉","MARKTYPE":"995","Class":"5"},"geometry":{"x":121.05655954031691,"y":23.838961862905727}},{"attributes":{"OBJECTID":16485,"LANDMARKID":"1000800000851","LANDMARKCO":"504","LANDMARKNA":"奧萬大森林遊樂區","LANDMARKAD":"1000813","ADDRESS":"南投縣仁愛鄉親愛村大安路153號","TEL":" ","COUNTYNAME":"南投縣","TOWNNAME":"仁愛鄉","MARKTYPE":"995","Class":"5"},"geometry":{"x":121.17716972424255,"y":23.953403799794902}},{"attributes":{"OBJECTID":16486,"LANDMARKID":"1000800000852","LANDMARKCO":"504","LANDMARKNA":"惠蓀林場森林遊樂區","LANDMARKAD":"1000813","ADDRESS":"南投縣仁愛鄉新生村山林巷1號","TEL":" ","COUNTYNAME":"南投縣","TOWNNAME":"仁愛鄉","MARKTYPE":"995","Class":"5"},"geometry":{"x":121.03446595389084,"y":24.087930441479092}},{"attributes":{"OBJECTID":16487,"LANDMARKID":"1000800000835","LANDMARKCO":"503","LANDMARKNA":"霧社風景特定區","LANDMARKAD":"1000813","ADDRESS":"南投縣仁愛鄉仁和路2號","TEL":" ","COUNTYNAME":"南投縣","TOWNNAME":"仁愛鄉","MARKTYPE":"995","Class":"5"},"geometry":{"x":121.13091938592714,"y":24.01790713336197}},{"attributes":{"OBJECTID":16488,"LANDMARKID":"1000800000836","LANDMARKCO":"503","LANDMARKNA":"廬山溫泉風景特定區","LANDMARKAD":"1000813","ADDRESS":"南投縣仁愛鄉","TEL":" ","COUNTYNAME":"南投縣","TOWNNAME":"仁愛鄉","MARKTYPE":"995","Class":"5"},"geometry":{"x":121.19152280024771,"y":24.040578099727952}},{"attributes":{"OBJECTID":16489,"LANDMARKID":"1000800000837","LANDMARKCO":"503","LANDMARKNA":"合歡山風景遊憩區","LANDMARKAD":"1000813","ADDRESS":"南投縣仁愛鄉","TEL":" ","COUNTYNAME":"南投縣","TOWNNAME":"仁愛鄉","MARKTYPE":"995","Class":"5"},"geometry":{"x":121.30814964106,"y":24.188324433636133}},{"attributes":{"OBJECTID":16490,"LANDMARKID":"1000800000865","LANDMARKCO":"505","LANDMARKNA":"泰雅渡假村","LANDMARKAD":"1000813","ADDRESS":"南投縣國姓鄉互助村清風路45號","TEL":" ","COUNTYNAME":"南投縣","TOWNNAME":"仁愛鄉","MARKTYPE":"995","Class":"5"},"geometry":{"x":120.94130824927944,"y":24.066833527787381}},{"attributes":{"OBJECTID":16491,"LANDMARKID":"1000800000932","LANDMARKCO":"513","LANDMARKNA":"奇萊主山","LANDMARKAD":"1000813","ADDRESS":"南投縣仁愛鄉","TEL":" ","COUNTYNAME":"南投縣","TOWNNAME":"仁愛鄉","MARKTYPE":"995","Class":"5"},"geometry":{"x":121.32325720955563,"y":24.085993797846484}},{"attributes":{"OBJECTID":16492,"LANDMARKID":"1000800000933","LANDMARKCO":"513","LANDMARKNA":"北合歡山","LANDMARKAD":"1000813","ADDRESS":"南投縣仁愛鄉","TEL":" ","COUNTYNAME":"南投縣","TOWNNAME":"仁愛鄉","MARKTYPE":"995","Class":"5"},"geometry":{"x":121.28160240101752,"y":24.181491730998562}},{"attributes":{"OBJECTID":16493,"LANDMARKID":"1000800000934","LANDMARKCO":"513","LANDMARKNA":"合歡山東峰","LANDMARKAD":"1000813","ADDRESS":"南投縣仁愛鄉","TEL":" ","COUNTYNAME":"南投縣","TOWNNAME":"仁愛鄉","MARKTYPE":"995","Class":"5"},"geometry":{"x":121.28105212832683,"y":24.135669029649652}},{"attributes":{"OBJECTID":16494,"LANDMARKID":"1000800000935","LANDMARKCO":"513","LANDMARKNA":"合歡山","LANDMARKAD":"1000813","ADDRESS":"南投縣仁愛鄉","TEL":" ","COUNTYNAME":"南投縣","TOWNNAME":"仁愛鄉","MARKTYPE":"995","Class":"5"},"geometry":{"x":121.27118512872089,"y":24.142628460283909}},{"attributes":{"OBJECTID":16495,"LANDMARKID":"1000800000936","LANDMARKCO":"513","LANDMARKNA":"畢祿山","LANDMARKAD":"1000813","ADDRESS":"南投縣仁愛鄉","TEL":" ","COUNTYNAME":"南投縣","TOWNNAME":"仁愛鄉","MARKTYPE":"995","Class":"5"},"geometry":{"x":121.34718791255811,"y":24.213568856794385}},{"attributes":{"OBJECTID":16496,"LANDMARKID":"1000800000937","LANDMARKCO":"513","LANDMARKNA":"奇萊主山南峰","LANDMARKAD":"1000813","ADDRESS":"南投縣仁愛鄉","TEL":" ","COUNTYNAME":"南投縣","TOWNNAME":"仁愛鄉","MARKTYPE":"995","Class":"5"},"geometry":{"x":121.27982235318893,"y":24.061210579711037}},{"attributes":{"OBJECTID":16497,"LANDMARKID":"1000800000938","LANDMARKCO":"513","LANDMARKNA":"卓社大山","LANDMARKAD":"1000813","ADDRESS":"南投縣仁愛鄉","TEL":" ","COUNTYNAME":"南投縣","TOWNNAME":"仁愛鄉","MARKTYPE":"995","Class":"5"},"geometry":{"x":121.11583013749446,"y":23.834560714819006}},{"attributes":{"OBJECTID":16498,"LANDMARKID":"1000800000939","LANDMARKCO":"513","LANDMARKNA":"干卓萬山","LANDMARKAD":"1000813","ADDRESS":"南投縣仁愛鄉","TEL":" ","COUNTYNAME":"南投縣","TOWNNAME":"仁愛鄉","MARKTYPE":"995","Class":"5"},"geometry":{"x":121.1390023309453,"y":23.876035232687542}},{"attributes":{"OBJECTID":16499,"LANDMARKID":"1000800000940","LANDMARKCO":"513","LANDMARKNA":"牧山","LANDMARKAD":"1000813","ADDRESS":"南投縣仁愛鄉","TEL":" ","COUNTYNAME":"南投縣","TOWNNAME":"仁愛鄉","MARKTYPE":"995","Class":"5"},"geometry":{"x":121.16022696658875,"y":23.862883167480113}},{"attributes":{"OBJECTID":16500,"LANDMARKID":"1000800000941","LANDMARKCO":"513","LANDMARKNA":"西合歡山","LANDMARKAD":"1000813","ADDRESS":"南投縣仁愛鄉","TEL":" ","COUNTYNAME":"南投縣","TOWNNAME":"仁愛鄉","MARKTYPE":"995","Class":"5"},"geometry":{"x":121.24453972564191,"y":24.177611755899282}},{"attributes":{"OBJECTID":16501,"LANDMARKID":"1000800000942","LANDMARKCO":"513","LANDMARKNA":"白石山","LANDMARKAD":"1000813","ADDRESS":"南投縣仁愛鄉","TEL":" ","COUNTYNAME":"南投縣","TOWNNAME":"仁愛鄉","MARKTYPE":"995","Class":"5"},"geometry":{"x":121.27479860409873,"y":23.907533131505065}},{"attributes":{"OBJECTID":16502,"LANDMARKID":"1000800000943","LANDMARKCO":"513","LANDMARKNA":"光頭山","LANDMARKAD":"1000813","ADDRESS":"南投縣仁愛鄉","TEL":" ","COUNTYNAME":"南投縣","TOWNNAME":"仁愛鄉","MARKTYPE":"995","Class":"5"},"geometry":{"x":121.27196483572712,"y":23.937986768986107}},{"attributes":{"OBJECTID":16503,"LANDMARKID":"1000800000721","LANDMARKCO":"405","LANDMARKNA":"中油加油站-長流站","LANDMARKAD":"1000810","ADDRESS":"南投縣國姓鄉大長路577-13號","TEL":"049-2431897","COUNTYNAME":"南投縣","TOWNNAME":"國姓鄉","MARKTYPE":"994","Class":"4"},"geometry":{"x":120.87652912587701,"y":24.063733366451455}},{"attributes":{"OBJECTID":16504,"LANDMARKID":"1000800000722","LANDMARKCO":"405","LANDMARKNA":"中油加油站-宏益站","LANDMARKAD":"1000810","ADDRESS":"南投縣國姓鄉國姓村國姓路462-12號","TEL":"049-2721020","COUNTYNAME":"南投縣","TOWNNAME":"國姓鄉","MARKTYPE":"994","Class":"4"},"geometry":{"x":120.85205698837981,"y":24.035963056056261}},{"attributes":{"OBJECTID":16505,"LANDMARKID":"1000800000723","LANDMARKCO":"405","LANDMARKNA":"中油加油站-國姓站(中油直營)","LANDMARKAD":"1000810","ADDRESS":"南投縣國姓鄉福龜村中正路一段55號","TEL":"049-2721240","COUNTYNAME":"南投縣","TOWNNAME":"國姓鄉","MARKTYPE":"994","Class":"4"},"geometry":{"x":120.82745679308572,"y":24.023927913199529}},{"attributes":{"OBJECTID":16506,"LANDMARKID":"1000800000887","LANDMARKCO":"507","LANDMARKNA":"國姓鄉北港溪石橋(糯米橋)","LANDMARKAD":"1000810","ADDRESS":"南投縣國姓鄉北港村第10鄰","TEL":" ","COUNTYNAME":"南投縣","TOWNNAME":"國姓鄉","MARKTYPE":"995","Class":"5"},"geometry":{"x":120.90775450891202,"y":24.061005841341949}},{"attributes":{"OBJECTID":16507,"LANDMARKID":"1000800000758","LANDMARKCO":"408","LANDMARKNA":"郵局-國姓郵局","LANDMARKAD":"1000810","ADDRESS":"南投縣國姓鄉中興路303號","TEL":"(049)2724-543","COUNTYNAME":"南投縣","TOWNNAME":"國姓鄉","MARKTYPE":"994","Class":"4"},"geometry":{"x":120.85444632671877,"y":24.038483667984931}},{"attributes":{"OBJECTID":16508,"LANDMARKID":"1000800000759","LANDMARKCO":"408","LANDMARKNA":"郵局-國姓北山郵局","LANDMARKAD":"1000810","ADDRESS":"南投縣國姓鄉中正路4段168號","TEL":"(049)2451-432","COUNTYNAME":"南投縣","TOWNNAME":"國姓鄉","MARKTYPE":"994","Class":"4"},"geometry":{"x":120.87110366598527,"y":23.982900476330563}},{"attributes":{"OBJECTID":16509,"LANDMARKID":"1000800000760","LANDMARKCO":"408","LANDMARKNA":"郵局-國姓長流郵局","LANDMARKAD":"1000810","ADDRESS":"南投縣國姓鄉大長路345-1號","TEL":"(049)2431-187","COUNTYNAME":"南投縣","TOWNNAME":"國姓鄉","MARKTYPE":"994","Class":"4"},"geometry":{"x":120.87582789390812,"y":24.070593747501469}},{"attributes":{"OBJECTID":16510,"LANDMARKID":"1000800000813","LANDMARKCO":"409","LANDMARKNA":"南投縣國姓鄉農會","LANDMARKAD":"1000810","ADDRESS":"南投縣國姓鄉柑林村中正路二段357號","TEL":"049-2721510","COUNTYNAME":"南投縣","TOWNNAME":"國姓鄉","MARKTYPE":"994","Class":"4"},"geometry":{"x":120.85197760177481,"y":23.997934009027492}},{"attributes":{"OBJECTID":16511,"LANDMARKID":"1000800000720","LANDMARKCO":"405","LANDMARKNA":"台塑加油站-北山站(台塑)","LANDMARKAD":"1000810","ADDRESS":"南投縣國姓鄉北山村中正路四段48-2號","TEL":"049-2452277","COUNTYNAME":"南投縣","TOWNNAME":"國姓鄉","MARKTYPE":"994","Class":"4"},"geometry":{"x":120.86843967451759,"y":23.982844620822963}},{"attributes":{"OBJECTID":16512,"LANDMARKID":"1000800000242","LANDMARKCO":"108","LANDMARKNA":"南投縣國姓鄉公所","LANDMARKAD":"1000810","ADDRESS":"南投縣國姓鄉石門村國姓路267號","TEL":"049-2721002","COUNTYNAME":"南投縣","TOWNNAME":"國姓鄉","MARKTYPE":"991","Class":"1"},"geometry":{"x":120.85754562030259,"y":24.039828822952185}},{"attributes":{"OBJECTID":16513,"LANDMARKID":"1000800000085","LANDMARKCO":"103","LANDMARKNA":"南投縣國姓鄉衛生所","LANDMARKAD":"1000810","ADDRESS":"南投縣國姓鄉民族街42號","TEL":"049-2721009","COUNTYNAME":"南投縣","TOWNNAME":"國姓鄉","MARKTYPE":"991","Class":"1"},"geometry":{"x":120.85471471383217,"y":24.037838808307164}},{"attributes":{"OBJECTID":16514,"LANDMARKID":"1000800000086","LANDMARKCO":"103","LANDMARKNA":"南投縣國姓鄉民代表會","LANDMARKAD":"1000810","ADDRESS":"南投縣國姓鄉石門村國姓路267號","TEL":"049-2721367","COUNTYNAME":"南投縣","TOWNNAME":"國姓鄉","MARKTYPE":"991","Class":"1"},"geometry":{"x":120.85754562030259,"y":24.039828822952185}},{"attributes":{"OBJECTID":16515,"LANDMARKID":"1000800000126","LANDMARKCO":"107","LANDMARKNA":"南投縣消防局國姓消防分隊","LANDMARKAD":"1000810","ADDRESS":"南投縣國姓鄉中興路171號","TEL":"049-2721354","COUNTYNAME":"南投縣","TOWNNAME":"國姓鄉","MARKTYPE":"991","Class":"1"},"geometry":{"x":120.85612505380456,"y":24.040327495150251}},{"attributes":{"OBJECTID":16516,"LANDMARKID":"1000800000127","LANDMARKCO":"107","LANDMARKNA":"南投縣政府警察局梅林派出所","LANDMARKAD":"1000810","ADDRESS":"南投縣國姓鄉北港村國姓路48號","TEL":"049-2461041","COUNTYNAME":"南投縣","TOWNNAME":"國姓鄉","MARKTYPE":"991","Class":"1"},"geometry":{"x":120.91219505666383,"y":24.057907584596137}},{"attributes":{"OBJECTID":16517,"LANDMARKID":"1000800000128","LANDMARKCO":"107","LANDMARKNA":"南投縣政府警察局長流派出所","LANDMARKAD":"1000810","ADDRESS":"南投縣國姓鄉長流村大長路351號","TEL":"049-2431040","COUNTYNAME":"南投縣","TOWNNAME":"國姓鄉","MARKTYPE":"991","Class":"1"},"geometry":{"x":120.87671642067934,"y":24.072468352210031}},{"attributes":{"OBJECTID":16518,"LANDMARKID":"1000800000129","LANDMARKCO":"107","LANDMARKNA":"南投縣政府警察局長壽派出所","LANDMARKAD":"1000810","ADDRESS":"南投縣國姓鄉福龜村中正路一段157號","TEL":"049-2721130","COUNTYNAME":"南投縣","TOWNNAME":"國姓鄉","MARKTYPE":"991","Class":"1"},"geometry":{"x":120.81951477755504,"y":24.012457041955091}},{"attributes":{"OBJECTID":16519,"LANDMARKID":"1000800000130","LANDMARKCO":"107","LANDMARKNA":"南投縣政府警察局北山派出所","LANDMARKAD":"1000810","ADDRESS":"南投縣國姓鄉北山村中正路四段159號","TEL":"049-2451181","COUNTYNAME":"南投縣","TOWNNAME":"國姓鄉","MARKTYPE":"991","Class":"1"},"geometry":{"x":120.87262586838446,"y":23.981357294178032}},{"attributes":{"OBJECTID":16520,"LANDMARKID":"1000800000131","LANDMARKCO":"107","LANDMARKNA":"南投縣政府警察局國姓分駐所","LANDMARKAD":"1000810","ADDRESS":"南投縣國姓鄉石門村國姓路265號","TEL":"049-2721232","COUNTYNAME":"南投縣","TOWNNAME":"國姓鄉","MARKTYPE":"991","Class":"1"},"geometry":{"x":120.85765527903945,"y":24.040138925235045}},{"attributes":{"OBJECTID":16521,"LANDMARKID":"1000800000110","LANDMARKCO":"106","LANDMARKNA":"南投縣國姓鄉戶政事務所","LANDMARKAD":"1000810","ADDRESS":"南投縣國姓鄉國姓路267之1號","TEL":"049-2721331","COUNTYNAME":"南投縣","TOWNNAME":"國姓鄉","MARKTYPE":"991","Class":"1"},"geometry":{"x":120.85756552094669,"y":24.039918841322738}},{"attributes":{"OBJECTID":16522,"LANDMARKID":"1000800000459","LANDMARKCO":"204","LANDMARKNA":"南投縣立圖書館國姓分館","LANDMARKAD":"1000810","ADDRESS":"南投縣國姓鄉石門村國姓路226之42號","TEL":" ","COUNTYNAME":"南投縣","TOWNNAME":"國姓鄉","MARKTYPE":"992","Class":"2"},"geometry":{"x":120.85911291897261,"y":24.043601076890734}},{"attributes":{"OBJECTID":16523,"LANDMARKID":"1000800000294","LANDMARKCO":"203","LANDMARKNA":"縣立國姓國中","LANDMARKAD":"1000810","ADDRESS":"南投縣國姓鄉石門村國姓路237號","TEL":"049-2721144","COUNTYNAME":"南投縣","TOWNNAME":"國姓鄉","MARKTYPE":"992","Class":"2"},"geometry":{"x":120.85856602124035,"y":24.042247173906144}},{"attributes":{"OBJECTID":16524,"LANDMARKID":"1000800000295","LANDMARKCO":"203","LANDMARKNA":"縣立北山國中","LANDMARKAD":"1000810","ADDRESS":"南投縣國姓鄉中正路四段157號","TEL":"049-2451028","COUNTYNAME":"南投縣","TOWNNAME":"國姓鄉","MARKTYPE":"992","Class":"2"},"geometry":{"x":120.87367400335503,"y":23.980498160425235}},{"attributes":{"OBJECTID":16525,"LANDMARKID":"1000800000296","LANDMARKCO":"203","LANDMARKNA":"縣立北梅國中","LANDMARKAD":"1000810","ADDRESS":"南投縣國姓鄉北港村國姓路62號","TEL":"049-2461004","COUNTYNAME":"南投縣","TOWNNAME":"國姓鄉","MARKTYPE":"992","Class":"2"},"geometry":{"x":120.91292565559374,"y":24.05703800208509}},{"attributes":{"OBJECTID":16526,"LANDMARKID":"1000800000297","LANDMARKCO":"203","LANDMARKNA":"縣立福龜國小","LANDMARKAD":"1000810","ADDRESS":"南投縣國姓鄉福龜村長壽巷83號","TEL":"049-2721019","COUNTYNAME":"南投縣","TOWNNAME":"國姓鄉","MARKTYPE":"992","Class":"2"},"geometry":{"x":120.82301630548415,"y":24.011367877720559}},{"attributes":{"OBJECTID":16527,"LANDMARKID":"1000800000298","LANDMARKCO":"203","LANDMARKNA":"縣立長流國小","LANDMARKAD":"1000810","ADDRESS":"南投縣國姓鄉長流村大長路559號","TEL":"049-2431006","COUNTYNAME":"南投縣","TOWNNAME":"國姓鄉","MARKTYPE":"992","Class":"2"},"geometry":{"x":120.87635400289858,"y":24.066658059295818}},{"attributes":{"OBJECTID":16528,"LANDMARKID":"1000800000299","LANDMARKCO":"203","LANDMARKNA":"縣立長福國小","LANDMARKAD":"1000810","ADDRESS":"南投縣國姓鄉長福村大長路71號","TEL":"049-2431295","COUNTYNAME":"南投縣","TOWNNAME":"國姓鄉","MARKTYPE":"992","Class":"2"},"geometry":{"x":120.88802575096258,"y":24.092708373725998}},{"attributes":{"OBJECTID":16529,"LANDMARKID":"1000800000300","LANDMARKCO":"203","LANDMARKNA":"縣立育樂國小","LANDMARKAD":"1000810","ADDRESS":"南投縣國姓鄉柑林村中正路二段223號","TEL":"049-2721274","COUNTYNAME":"南投縣","TOWNNAME":"國姓鄉","MARKTYPE":"992","Class":"2"},"geometry":{"x":120.84589593974788,"y":24.017268425178496}},{"attributes":{"OBJECTID":16530,"LANDMARKID":"1000800000301","LANDMARKCO":"203","LANDMARKNA":"縣立乾峰國小","LANDMARKAD":"1000810","ADDRESS":"南投縣國姓鄉乾溝村中西巷3號","TEL":"049-2721385","COUNTYNAME":"南投縣","TOWNNAME":"國姓鄉","MARKTYPE":"992","Class":"2"},"geometry":{"x":120.82442661361885,"y":24.027809501047201}},{"attributes":{"OBJECTID":16531,"LANDMARKID":"1000800000302","LANDMARKCO":"203","LANDMARKNA":"縣立南港國小","LANDMARKAD":"1000810","ADDRESS":"南投縣國姓鄉南港路112之8號","TEL":"049-2451937","COUNTYNAME":"南投縣","TOWNNAME":"國姓鄉","MARKTYPE":"992","Class":"2"},"geometry":{"x":120.8692963149998,"y":23.950339219266667}},{"attributes":{"OBJECTID":16532,"LANDMARKID":"1000800000303","LANDMARKCO":"203","LANDMARKNA":"縣立國姓國小","LANDMARKAD":"1000810","ADDRESS":"南投縣國姓鄉石門村國姓路311號","TEL":"049-2721018","COUNTYNAME":"南投縣","TOWNNAME":"國姓鄉","MARKTYPE":"992","Class":"2"},"geometry":{"x":120.85709660157627,"y":24.038938404349299}},{"attributes":{"OBJECTID":16533,"LANDMARKID":"1000800000304","LANDMARKCO":"203","LANDMARKNA":"縣立北港國小","LANDMARKAD":"1000810","ADDRESS":"南投縣國姓鄉北港村國姓路63號","TEL":"049-2461345","COUNTYNAME":"南投縣","TOWNNAME":"國姓鄉","MARKTYPE":"992","Class":"2"},"geometry":{"x":120.91039522403283,"y":24.057618179816195}},{"attributes":{"OBJECTID":16534,"LANDMARKID":"1000800000305","LANDMARKCO":"203","LANDMARKNA":"縣立港源國小","LANDMARKAD":"1000810","ADDRESS":"南投縣國姓鄉南港村港頭巷60號","TEL":"049-2451933","COUNTYNAME":"南投縣","TOWNNAME":"國姓鄉","MARKTYPE":"992","Class":"2"},"geometry":{"x":120.86602641778812,"y":23.928008835742709}},{"attributes":{"OBJECTID":16535,"LANDMARKID":"1000800000306","LANDMARKCO":"203","LANDMARKNA":"縣立北山國小","LANDMARKAD":"1000810","ADDRESS":"南投縣國姓鄉中正路119之1號","TEL":"049-2451935","COUNTYNAME":"南投縣","TOWNNAME":"國姓鄉","MARKTYPE":"992","Class":"2"},"geometry":{"x":120.87671576150491,"y":23.980690686744122}},{"attributes":{"OBJECTID":16536,"LANDMARKID":"1000800000620","LANDMARKCO":"402","LANDMARKNA":"中華電信-國姓服務中心","LANDMARKAD":"1000810","ADDRESS":"南投縣國姓鄉國姓村國姓路462號","TEL":"(049)272-1081","COUNTYNAME":"南投縣","TOWNNAME":"國姓鄉","MARKTYPE":"994","Class":"4"},"geometry":{"x":120.85207134622753,"y":24.036038723720779}},{"attributes":{"OBJECTID":16537,"LANDMARKID":"1000800001145","LANDMARKCO":"604","LANDMARKNA":"咖啡有樂町懷谷木屋","LANDMARKAD":"1000810","ADDRESS":"南投縣國姓鄉北港村北原路15-3號","TEL":"049-2461838","COUNTYNAME":"南投縣","TOWNNAME":"國姓鄉","MARKTYPE":"996","Class":"6"},"geometry":{"x":120.94043928655761,"y":24.059879684865468}},{"attributes":{"OBJECTID":16538,"LANDMARKID":"1000800001146","LANDMARKCO":"604","LANDMARKNA":"喬園山莊","LANDMARKAD":"1000810","ADDRESS":"南投縣國姓鄉南港村南港路鳳鳴巷4-2號","TEL":"049-2452311","COUNTYNAME":"南投縣","TOWNNAME":"國姓鄉","MARKTYPE":"996","Class":"6"},"geometry":{"x":120.87050050895606,"y":23.964379967314578}},{"attributes":{"OBJECTID":16539,"LANDMARKID":"1000800001147","LANDMARKCO":"604","LANDMARKNA":"千甲農莊","LANDMARKAD":"1000810","ADDRESS":"南投縣國姓鄉大石村昌榮巷1-1號","TEL":"049-2450243","COUNTYNAME":"南投縣","TOWNNAME":"國姓鄉","MARKTYPE":"996","Class":"6"},"geometry":{"x":120.86781162747586,"y":23.980103064096301}},{"attributes":{"OBJECTID":16540,"LANDMARKID":"1000800001148","LANDMARKCO":"604","LANDMARKNA":"南投第一關","LANDMARKAD":"1000810","ADDRESS":"南投縣國姓鄉北山村種瓜巷29-1號","TEL":"049-2450199","COUNTYNAME":"南投縣","TOWNNAME":"國姓鄉","MARKTYPE":"996","Class":"6"},"geometry":{"x":120.88140622763927,"y":23.968603732696195}},{"attributes":{"OBJECTID":16541,"LANDMARKID":"1000800001149","LANDMARKCO":"604","LANDMARKNA":"清泉谷休閒山莊","LANDMARKAD":"1000810","ADDRESS":"南投縣國姓鄉北山村種瓜巷6號","TEL":"049-2452442","COUNTYNAME":"南投縣","TOWNNAME":"國姓鄉","MARKTYPE":"996","Class":"6"},"geometry":{"x":120.88331257674243,"y":23.972135193348254}},{"attributes":{"OBJECTID":16542,"LANDMARKID":"1000800001150","LANDMARKCO":"604","LANDMARKNA":"梅庄","LANDMARKAD":"1000810","ADDRESS":"南投縣國姓鄉北港村長北路47-13號","TEL":"049-2462238","COUNTYNAME":"南投縣","TOWNNAME":"國姓鄉","MARKTYPE":"996","Class":"6"},"geometry":{"x":120.90322398887463,"y":24.061015356175886}},{"attributes":{"OBJECTID":16543,"LANDMARKID":"1000800001001","LANDMARKCO":"603","LANDMARKNA":"假期汽車旅館","LANDMARKAD":"1000810","ADDRESS":"南投縣國姓鄉福龜村中正路1段330號","TEL":"049-2722712","COUNTYNAME":"南投縣","TOWNNAME":"國姓鄉","MARKTYPE":"996","Class":"6"},"geometry":{"x":120.81688897924138,"y":24.004964483733108}},{"attributes":{"OBJECTID":16544,"LANDMARKID":"1000800001128","LANDMARKCO":"604","LANDMARKNA":"茄苳休閒民宿","LANDMARKAD":"1000810","ADDRESS":"南投縣國姓鄉北港村長北路74-10號","TEL":"049-2461102","COUNTYNAME":"南投縣","TOWNNAME":"國姓鄉","MARKTYPE":"996","Class":"6"},"geometry":{"x":120.88859520181431,"y":24.061957059314885}},{"attributes":{"OBJECTID":16545,"LANDMARKID":"1000800001129","LANDMARKCO":"604","LANDMARKNA":"神仙島民宿","LANDMARKAD":"1000810","ADDRESS":"南投縣國姓鄉北港村北原路58-9號","TEL":"049-2461189","COUNTYNAME":"南投縣","TOWNNAME":"國姓鄉","MARKTYPE":"996","Class":"6"},"geometry":{"x":120.92634681659142,"y":24.060163779886704}},{"attributes":{"OBJECTID":16546,"LANDMARKID":"1000800001130","LANDMARKCO":"604","LANDMARKNA":"鄉村民宿","LANDMARKAD":"1000810","ADDRESS":"南投縣國姓鄉北港村北原路59-1號","TEL":"049-2461773","COUNTYNAME":"南投縣","TOWNNAME":"國姓鄉","MARKTYPE":"996","Class":"6"},"geometry":{"x":120.92839355334587,"y":24.058936373931562}},{"attributes":{"OBJECTID":16547,"LANDMARKID":"1000800001131","LANDMARKCO":"604","LANDMARKNA":"後頭厝","LANDMARKAD":"1000810","ADDRESS":"南投縣國姓鄉北港村北原路30-9號","TEL":"049-246278","COUNTYNAME":"南投縣","TOWNNAME":"國姓鄉","MARKTYPE":"996","Class":"6"},"geometry":{"x":120.93257221272368,"y":24.059426477322692}},{"attributes":{"OBJECTID":16548,"LANDMARKID":"1000800001132","LANDMARKCO":"604","LANDMARKNA":"梅之林休閒渡假山莊","LANDMARKAD":"1000810","ADDRESS":"南投縣國姓鄉北港村北原路34-2號","TEL":"049-2462166","COUNTYNAME":"南投縣","TOWNNAME":"國姓鄉","MARKTYPE":"996","Class":"6"},"geometry":{"x":120.93550999348327,"y":24.063229194502775}},{"attributes":{"OBJECTID":16549,"LANDMARKID":"1000800001133","LANDMARKCO":"604","LANDMARKNA":"國姓世外桃源","LANDMARKAD":"1000810","ADDRESS":"南投縣國姓鄉北港村北原路55-10號","TEL":"0911-320000","COUNTYNAME":"南投縣","TOWNNAME":"國姓鄉","MARKTYPE":"996","Class":"6"},"geometry":{"x":120.93337932787634,"y":24.058676499711655}},{"attributes":{"OBJECTID":16550,"LANDMARKID":"1000800001134","LANDMARKCO":"604","LANDMARKNA":"春天民宿","LANDMARKAD":"1000810","ADDRESS":"南投縣國姓鄉北港村長北路69號","TEL":"04-23132046","COUNTYNAME":"南投縣","TOWNNAME":"國姓鄉","MARKTYPE":"996","Class":"6"},"geometry":{"x":120.89157292302274,"y":24.063060893739422}},{"attributes":{"OBJECTID":16551,"LANDMARKID":"1000800001135","LANDMARKCO":"604","LANDMARKNA":"惜福民宿","LANDMARKAD":"1000810","ADDRESS":"南投縣國姓鄉長流村大長路594-1號","TEL":"049-2432048","COUNTYNAME":"南投縣","TOWNNAME":"國姓鄉","MARKTYPE":"996","Class":"6"},"geometry":{"x":120.87587425175771,"y":24.057250817552031}},{"attributes":{"OBJECTID":16552,"LANDMARKID":"1000800001136","LANDMARKCO":"604","LANDMARKNA":"國姓大平民宿","LANDMARKAD":"1000810","ADDRESS":"南投縣國姓鄉長福村大長路129號","TEL":"049-2431082","COUNTYNAME":"南投縣","TOWNNAME":"國姓鄉","MARKTYPE":"996","Class":"6"},"geometry":{"x":120.88514650225575,"y":24.090785171992138}},{"attributes":{"OBJECTID":16553,"LANDMARKID":"1000800001137","LANDMARKCO":"604","LANDMARKNA":"紫薇園休閒農莊","LANDMARKAD":"1000810","ADDRESS":"南投縣國姓鄉南港村港頭巷47號","TEL":"049-2451852","COUNTYNAME":"南投縣","TOWNNAME":"國姓鄉","MARKTYPE":"996","Class":"6"},"geometry":{"x":120.8624282084935,"y":23.923069378416297}},{"attributes":{"OBJECTID":16554,"LANDMARKID":"1000800001138","LANDMARKCO":"604","LANDMARKNA":"地球村農家民宿","LANDMARKAD":"1000810","ADDRESS":"南投縣國姓鄉北港村長北路128號","TEL":"049-2462052","COUNTYNAME":"南投縣","TOWNNAME":"國姓鄉","MARKTYPE":"996","Class":"6"},"geometry":{"x":120.87984172367834,"y":24.051972647647315}},{"attributes":{"OBJECTID":16555,"LANDMARKID":"1000800001139","LANDMARKCO":"604","LANDMARKNA":"綠色大地民宿","LANDMARKAD":"1000810","ADDRESS":"南投縣國姓鄉大石村中正路三段224-6號","TEL":"049-2451999","COUNTYNAME":"南投縣","TOWNNAME":"國姓鄉","MARKTYPE":"996","Class":"6"},"geometry":{"x":120.86007973695052,"y":23.987241137946345}},{"attributes":{"OBJECTID":16556,"LANDMARKID":"1000800001140","LANDMARKCO":"604","LANDMARKNA":"逸和園","LANDMARKAD":"1000810","ADDRESS":"南投縣國姓鄉大旗村福旗巷59號","TEL":"049-2722538","COUNTYNAME":"南投縣","TOWNNAME":"國姓鄉","MARKTYPE":"996","Class":"6"},"geometry":{"x":120.86207697592306,"y":24.049031354587509}},{"attributes":{"OBJECTID":16557,"LANDMARKID":"1000800001141","LANDMARKCO":"604","LANDMARKNA":"玉門關民宿","LANDMARKAD":"1000810","ADDRESS":"南投縣國姓鄉北山村種瓜巷29號","TEL":"049-2450199","COUNTYNAME":"南投縣","TOWNNAME":"國姓鄉","MARKTYPE":"996","Class":"6"},"geometry":{"x":120.88196366931055,"y":23.968296881415334}},{"attributes":{"OBJECTID":16558,"LANDMARKID":"1000800001142","LANDMARKCO":"604","LANDMARKNA":"田園花卉民宿","LANDMARKAD":"1000810","ADDRESS":"南投縣國姓鄉北港村長北路53-11號","TEL":"049-2462366","COUNTYNAME":"南投縣","TOWNNAME":"國姓鄉","MARKTYPE":"996","Class":"6"},"geometry":{"x":120.89888166470693,"y":24.060229815912326}},{"attributes":{"OBJECTID":16559,"LANDMARKID":"1000800001143","LANDMARKCO":"604","LANDMARKNA":"水中月民宿","LANDMARKAD":"1000810","ADDRESS":"南投縣國姓鄉北港村長北路117-1號","TEL":"049-2462331","COUNTYNAME":"南投縣","TOWNNAME":"國姓鄉","MARKTYPE":"996","Class":"6"},"geometry":{"x":120.88324460425544,"y":24.05297799542906}},{"attributes":{"OBJECTID":16560,"LANDMARKID":"1000800001144","LANDMARKCO":"604","LANDMARKNA":"雲出岫民宿","LANDMARKAD":"1000810","ADDRESS":"南投縣國姓鄉大石村昌榮巷60號","TEL":"049-2450880","COUNTYNAME":"南投縣","TOWNNAME":"國姓鄉","MARKTYPE":"996","Class":"6"},"geometry":{"x":120.84879613671468,"y":23.997497002139596}},{"attributes":{"OBJECTID":16561,"LANDMARKID":"1000800000892","LANDMARKCO":"508","LANDMARKNA":"北港溪溫泉山莊","LANDMARKAD":"1000810","ADDRESS":"南投縣國姓鄉北原路34之1號","TEL":"049-2461776","COUNTYNAME":"南投縣","TOWNNAME":"國姓鄉","MARKTYPE":"995","Class":"5"},"geometry":{"x":120.93528890440956,"y":24.063053937902691}},{"attributes":{"OBJECTID":16562,"LANDMARKID":"1000800000839","LANDMARKCO":"503","LANDMARKNA":"芙蓉谷瀑布","LANDMARKAD":"1000810","ADDRESS":"南投縣國姓鄉","TEL":" ","COUNTYNAME":"南投縣","TOWNNAME":"國姓鄉","MARKTYPE":"995","Class":"5"},"geometry":{"x":120.93622935115673,"y":24.091609165480307}},{"attributes":{"OBJECTID":16563,"LANDMARKID":"1000800000704","LANDMARKCO":"405","LANDMARKNA":"中油加油站-東閔路站","LANDMARKAD":"1000803","ADDRESS":"南投縣草屯鎮省府路201號","TEL":"04-92352388","COUNTYNAME":"南投縣","TOWNNAME":"草屯鎮","MARKTYPE":"994","Class":"4"},"geometry":{"x":120.68037848072163,"y":23.955005577227087}},{"attributes":{"OBJECTID":16564,"LANDMARKID":"1000800000705","LANDMARKCO":"405","LANDMARKNA":"中油加油站-藝術村站","LANDMARKAD":"1000803","ADDRESS":"南投縣草屯鎮坪林里平峰路66號","TEL":"049-2572789","COUNTYNAME":"南投縣","TOWNNAME":"草屯鎮","MARKTYPE":"994","Class":"4"},"geometry":{"x":120.76658018889722,"y":23.992671174222409}},{"attributes":{"OBJECTID":16565,"LANDMARKID":"1000800000706","LANDMARKCO":"405","LANDMARKNA":"中油加油站-碧山站","LANDMARKAD":"1000803","ADDRESS":"南投縣草屯鎮碧山路709號","TEL":"049-2305409","COUNTYNAME":"南投縣","TOWNNAME":"草屯鎮","MARKTYPE":"994","Class":"4"},"geometry":{"x":120.67208063939086,"y":23.977117711271333}},{"attributes":{"OBJECTID":16566,"LANDMARKID":"1000800000707","LANDMARKCO":"405","LANDMARKNA":"台灣優力加油站-草屯站(中油)","LANDMARKAD":"1000803","ADDRESS":"南投縣草屯鎮富寮里中正路406號之78","TEL":"049-2565941","COUNTYNAME":"南投縣","TOWNNAME":"草屯鎮","MARKTYPE":"994","Class":"4"},"geometry":{"x":120.70544227910213,"y":23.977516193274049}},{"attributes":{"OBJECTID":16567,"LANDMARKID":"1000800000708","LANDMARKCO":"405","LANDMARKNA":"中油加油站-中興站","LANDMARKAD":"1000803","ADDRESS":"南投縣草屯鎮省府路439號","TEL":"049-2392929","COUNTYNAME":"南投縣","TOWNNAME":"草屯鎮","MARKTYPE":"994","Class":"4"},"geometry":{"x":120.67287868680835,"y":23.956472454554934}},{"attributes":{"OBJECTID":16568,"LANDMARKID":"1000800000709","LANDMARKCO":"405","LANDMARKNA":"山隆加油站-中興站(中油)","LANDMARKAD":"1000803","ADDRESS":"南投縣草屯鎮省府路386號","TEL":"(049)237-1040","COUNTYNAME":"南投縣","TOWNNAME":"草屯鎮","MARKTYPE":"994","Class":"4"},"geometry":{"x":120.6752021994446,"y":23.955360233574204}},{"attributes":{"OBJECTID":16569,"LANDMARKID":"1000800000710","LANDMARKCO":"405","LANDMARKNA":"中油加油站-草屯新豐站(中油直營)","LANDMARKAD":"1000803","ADDRESS":"南投縣草屯鎮中正路1615號","TEL":"049-2333704","COUNTYNAME":"南投縣","TOWNNAME":"草屯鎮","MARKTYPE":"994","Class":"4"},"geometry":{"x":120.68964991531156,"y":23.99975959729252}},{"attributes":{"OBJECTID":16570,"LANDMARKID":"1000800000711","LANDMARKCO":"405","LANDMARKNA":"中油加油站-草溪路站","LANDMARKAD":"1000803","ADDRESS":"南投縣草屯鎮草溪路154之37號","TEL":"049-2312170","COUNTYNAME":"南投縣","TOWNNAME":"草屯鎮","MARKTYPE":"994","Class":"4"},"geometry":{"x":120.67220891908403,"y":23.958760982297516}},{"attributes":{"OBJECTID":16571,"LANDMARKID":"1000800000712","LANDMARKCO":"405","LANDMARKNA":"中油加油站-中宏站","LANDMARKAD":"1000803","ADDRESS":"南投縣草屯鎮中正路434號","TEL":"049-2569919","COUNTYNAME":"南投縣","TOWNNAME":"草屯鎮","MARKTYPE":"994","Class":"4"},"geometry":{"x":120.70883657685471,"y":23.977413010748226}},{"attributes":{"OBJECTID":16572,"LANDMARKID":"1000800000713","LANDMARKCO":"405","LANDMARKNA":"中油加油站-新林站","LANDMARKAD":"1000803","ADDRESS":"南投縣草屯鎮成功路一段1號","TEL":"049-2307084","COUNTYNAME":"南投縣","TOWNNAME":"草屯鎮","MARKTYPE":"994","Class":"4"},"geometry":{"x":120.67986918065824,"y":23.974577432104024}},{"attributes":{"OBJECTID":16573,"LANDMARKID":"1000800000714","LANDMARKCO":"405","LANDMARKNA":"中油加油站-草屯站(中油直營)","LANDMARKAD":"1000803","ADDRESS":"南投縣草屯鎮玉峰里中正路880號","TEL":"049-2362049","COUNTYNAME":"南投縣","TOWNNAME":"草屯鎮","MARKTYPE":"994","Class":"4"},"geometry":{"x":120.68672476345029,"y":23.984759895584311}},{"attributes":{"OBJECTID":16574,"LANDMARKID":"1000800000715","LANDMARKCO":"405","LANDMARKNA":"山隆加油站-新厝站(中油)","LANDMARKAD":"1000803","ADDRESS":"南投縣草屯鎮新厝里中興路378號","TEL":"(049)231-8921","COUNTYNAME":"南投縣","TOWNNAME":"草屯鎮","MARKTYPE":"994","Class":"4"},"geometry":{"x":120.68949824098813,"y":23.976151289642921}},{"attributes":{"OBJECTID":16575,"LANDMARKID":"1000800000716","LANDMARKCO":"405","LANDMARKNA":"中油加油站-成功路站","LANDMARKAD":"1000803","ADDRESS":"南投縣草屯鎮新豐里成功路一段716號","TEL":"049-2338634","COUNTYNAME":"南投縣","TOWNNAME":"草屯鎮","MARKTYPE":"994","Class":"4"},"geometry":{"x":120.68462351352127,"y":23.988862743882944}},{"attributes":{"OBJECTID":16576,"LANDMARKID":"1000800000717","LANDMARKCO":"405","LANDMARKNA":"中油加油站-龍泰站","LANDMARKAD":"1000803","ADDRESS":"南投縣草屯鎮中正路1322號","TEL":"049-2568460","COUNTYNAME":"南投縣","TOWNNAME":"草屯鎮","MARKTYPE":"994","Class":"4"},"geometry":{"x":120.68910164537149,"y":23.995008486345135}},{"attributes":{"OBJECTID":16577,"LANDMARKID":"1000800000718","LANDMARKCO":"405","LANDMARKNA":"山隆加油站-草屯站(中油)","LANDMARKAD":"1000803","ADDRESS":"南投縣草屯鎮敦和里博愛路642號","TEL":"(049)230-4685","COUNTYNAME":"南投縣","TOWNNAME":"草屯鎮","MARKTYPE":"994","Class":"4"},"geometry":{"x":120.67924298887087,"y":23.987071790715273}},{"attributes":{"OBJECTID":16578,"LANDMARKID":"1000800000719","LANDMARKCO":"405","LANDMARKNA":"中油加油站-好又多站","LANDMARKAD":"1000803","ADDRESS":"南投縣草屯鎮新豐路703號","TEL":"04-92318936","COUNTYNAME":"南投縣","TOWNNAME":"草屯鎮","MARKTYPE":"994","Class":"4"},"geometry":{"x":120.67635873720123,"y":24.00472281120819}},{"attributes":{"OBJECTID":16579,"LANDMARKID":"1000800000617","LANDMARKCO":"402","LANDMARKNA":"My Phone台灣大哥大-草屯中正直營服務中心","LANDMARKAD":"1000803","ADDRESS":"南投縣草屯鎮中正路859號","TEL":"0809-000-166","COUNTYNAME":"南投縣","TOWNNAME":"草屯鎮","MARKTYPE":"994","Class":"4"},"geometry":{"x":120.68575262051662,"y":23.983853168015152}},{"attributes":{"OBJECTID":16580,"LANDMARKID":"1000800000618","LANDMARKCO":"402","LANDMARKNA":"亞太行動寬頻電信-草屯中正加盟服務中心","LANDMARKAD":"1000803","ADDRESS":"南投縣草屯鎮中正路709號","TEL":"049-2320982","COUNTYNAME":"南投縣","TOWNNAME":"草屯鎮","MARKTYPE":"994","Class":"4"},"geometry":{"x":120.68435022605443,"y":23.980470385605617}},{"attributes":{"OBJECTID":16581,"LANDMARKID":"1000800000619","LANDMARKCO":"402","LANDMARKNA":"亞太行動寬頻電信-草屯中興加盟服務中心","LANDMARKAD":"1000803","ADDRESS":"南投縣草屯鎮中興路132號","TEL":"049-2320885","COUNTYNAME":"南投縣","TOWNNAME":"草屯鎮","MARKTYPE":"994","Class":"4"},"geometry":{"x":120.68400354865295,"y":23.974220531608964}},{"attributes":{"OBJECTID":16582,"LANDMARKID":"1000800000595","LANDMARKCO":"401","LANDMARKNA":"佑民醫院","LANDMARKAD":"1000803","ADDRESS":"南投縣草屯鎮太平路一段200號","TEL":"049-2358151","COUNTYNAME":"南投縣","TOWNNAME":"草屯鎮","MARKTYPE":"994","Class":"4"},"geometry":{"x":120.681904368952,"y":23.96050176988183}},{"attributes":{"OBJECTID":16583,"LANDMARKID":"1000800000596","LANDMARKCO":"401","LANDMARKNA":"曾漢棋綜合醫院","LANDMARKAD":"1000803","ADDRESS":"南投縣草屯鎮虎山路915號","TEL":"049-2314149","COUNTYNAME":"南投縣","TOWNNAME":"草屯鎮","MARKTYPE":"994","Class":"4"},"geometry":{"x":120.68577481890752,"y":23.978525849308358}},{"attributes":{"OBJECTID":16584,"LANDMARKID":"1000800000597","LANDMARKCO":"401","LANDMARKNA":"行政院衛生署草屯療養院","LANDMARKAD":"1000803","ADDRESS":"南投縣草屯鎮玉屏路161號","TEL":"049-2550800","COUNTYNAME":"南投縣","TOWNNAME":"草屯鎮","MARKTYPE":"994","Class":"4"},"geometry":{"x":120.70455429618751,"y":23.990588890420742}},{"attributes":{"OBJECTID":16585,"LANDMARKID":"1000800000888","LANDMARKCO":"507","LANDMARKNA":"月眉厝龍德廟","LANDMARKAD":"1000803","ADDRESS":"南投縣草屯鎮碧峰里碧山路1158號","TEL":" ","COUNTYNAME":"南投縣","TOWNNAME":"草屯鎮","MARKTYPE":"995","Class":"5"},"geometry":{"x":120.65201236381772,"y":23.973049903708258}},{"attributes":{"OBJECTID":16586,"LANDMARKID":"1000800000889","LANDMARKCO":"507","LANDMARKNA":"草屯燉倫堂","LANDMARKAD":"1000803","ADDRESS":"南投縣草屯鎮茄老里13鄰芬草路335號","TEL":" ","COUNTYNAME":"南投縣","TOWNNAME":"草屯鎮","MARKTYPE":"995","Class":"5"},"geometry":{"x":120.64831304617493,"y":24.007871177392694}},{"attributes":{"OBJECTID":16587,"LANDMARKID":"1000800000890","LANDMARKCO":"507","LANDMARKNA":"登瀛書院","LANDMARKAD":"1000803","ADDRESS":"南投縣草屯鎮新庄里史館路文昌巷30號","TEL":" ","COUNTYNAME":"南投縣","TOWNNAME":"草屯鎮","MARKTYPE":"995","Class":"5"},"geometry":{"x":120.66587706849516,"y":23.990093510313482}},{"attributes":{"OBJECTID":16588,"LANDMARKID":"1000800000754","LANDMARKCO":"408","LANDMARKNA":"郵局-草屯南埔郵局","LANDMARKAD":"1000803","ADDRESS":"南投縣草屯鎮中正路286-5號。","TEL":"(049)2569-991","COUNTYNAME":"南投縣","TOWNNAME":"草屯鎮","MARKTYPE":"994","Class":"4"},"geometry":{"x":120.72041207452452,"y":23.979330079628124}},{"attributes":{"OBJECTID":16589,"LANDMARKID":"1000800000755","LANDMARKCO":"408","LANDMARKNA":"郵局-草屯郵局","LANDMARKAD":"1000803","ADDRESS":"南投縣草屯鎮中正路606號","TEL":"(049)2333-461","COUNTYNAME":"南投縣","TOWNNAME":"草屯鎮","MARKTYPE":"994","Class":"4"},"geometry":{"x":120.68617182765084,"y":23.979087196772227}},{"attributes":{"OBJECTID":16590,"LANDMARKID":"1000800000756","LANDMARKCO":"408","LANDMARKNA":"郵局-草屯大觀郵局","LANDMARKAD":"1000803","ADDRESS":"南投縣草屯鎮博愛路449號。","TEL":"(049)2330-214","COUNTYNAME":"南投縣","TOWNNAME":"草屯鎮","MARKTYPE":"994","Class":"4"},"geometry":{"x":120.68533951975573,"y":23.982811201155688}},{"attributes":{"OBJECTID":16591,"LANDMARKID":"1000800000757","LANDMARKCO":"408","LANDMARKNA":"郵局-草屯碧山郵局","LANDMARKAD":"1000803","ADDRESS":"南投縣草屯鎮碧山南路20號","TEL":"(049)2313-135","COUNTYNAME":"南投縣","TOWNNAME":"草屯鎮","MARKTYPE":"994","Class":"4"},"geometry":{"x":120.6808095763636,"y":23.977949601183951}},{"attributes":{"OBJECTID":16592,"LANDMARKID":"1000800000814","LANDMARKCO":"409","LANDMARKNA":"南投縣草屯鎮農會","LANDMARKAD":"1000803","ADDRESS":"南投縣草屯鎮草溪路1061號","TEL":"049-2333151","COUNTYNAME":"南投縣","TOWNNAME":"草屯鎮","MARKTYPE":"994","Class":"4"},"geometry":{"x":120.68198140761039,"y":23.977879809135846}},{"attributes":{"OBJECTID":16593,"LANDMARKID":"1000800000635","LANDMARKCO":"404","LANDMARKNA":"台灣自來水草屯營運所","LANDMARKAD":"1000803","ADDRESS":"南投縣草屯鎮博愛路6號","TEL":"049-2563505","COUNTYNAME":"南投縣","TOWNNAME":"草屯鎮","MARKTYPE":"994","Class":"4"},"geometry":{"x":120.71180602170477,"y":23.989926825808521}},{"attributes":{"OBJECTID":16594,"LANDMARKID":"1000800000636","LANDMARKCO":"404","LANDMARKNA":"台灣省自來水草屯營運所","LANDMARKAD":"1000803","ADDRESS":"南投縣草屯鎮博愛路6號","TEL":" ","COUNTYNAME":"南投縣","TOWNNAME":"草屯鎮","MARKTYPE":"994","Class":"4"},"geometry":{"x":120.69284338923948,"y":23.981681834527073}},{"attributes":{"OBJECTID":16595,"LANDMARKID":"1000800000634","LANDMARKCO":"403","LANDMARKNA":"台灣電力公司南投區營業處","LANDMARKAD":"1000803","ADDRESS":"南投縣草屯鎮太平路一段42號","TEL":" ","COUNTYNAME":"南投縣","TOWNNAME":"草屯鎮","MARKTYPE":"994","Class":"4"},"geometry":{"x":120.68127972560207,"y":23.957118322132956}},{"attributes":{"OBJECTID":16596,"LANDMARKID":"1000800000729","LANDMARKCO":"406","LANDMARKNA":"中山公園","LANDMARKAD":"1000803","ADDRESS":"南投縣草屯鎮","TEL":" ","COUNTYNAME":"南投縣","TOWNNAME":"草屯鎮","MARKTYPE":"994","Class":"4"},"geometry":{"x":120.68970899923821,"y":23.981383599662767}},{"attributes":{"OBJECTID":16597,"LANDMARKID":"1000800000730","LANDMARKCO":"406","LANDMARKNA":"長青公園","LANDMARKAD":"1000803","ADDRESS":"南投縣草屯鎮","TEL":" ","COUNTYNAME":"南投縣","TOWNNAME":"草屯鎮","MARKTYPE":"994","Class":"4"},"geometry":{"x":120.69126468025635,"y":23.978417870120058}},{"attributes":{"OBJECTID":16598,"LANDMARKID":"1000800000753","LANDMARKCO":"407","LANDMARKNA":"三商百貨草屯店","LANDMARKAD":"1000803","ADDRESS":"南投縣草屯鎮太平路二段303號","TEL":"049-2322521","COUNTYNAME":"南投縣","TOWNNAME":"草屯鎮","MARKTYPE":"994","Class":"4"},"geometry":{"x":120.68365168101008,"y":23.977037615524679}},{"attributes":{"OBJECTID":16599,"LANDMARKID":"1000800000700","LANDMARKCO":"405","LANDMARKNA":"台塑加油站-長益站(台塑)","LANDMARKAD":"1000803","ADDRESS":"南投縣草屯鎮御史里御富路537號","TEL":"049-2550484","COUNTYNAME":"南投縣","TOWNNAME":"草屯鎮","MARKTYPE":"994","Class":"4"},"geometry":{"x":120.69104815876253,"y":23.996038416342962}},{"attributes":{"OBJECTID":16600,"LANDMARKID":"1000800000701","LANDMARKCO":"405","LANDMARKNA":"台亞加油站-南投交流道站（台塑）","LANDMARKAD":"1000803","ADDRESS":"南投縣草屯鎮碧洲里碧興路1段25號","TEL":"(049)230-1218","COUNTYNAME":"南投縣","TOWNNAME":"草屯鎮","MARKTYPE":"994","Class":"4"},"geometry":{"x":120.66276854434633,"y":23.95300203112955}}]}