{"displayFieldName":"COUNTYNAME","fieldAliases":{"OBJECTID":"OBJECTID","LANDMARKID":"LANDMARKID","LANDMARKCO":"LANDMARKCO","LANDMARKNA":"LANDMARKNA","LANDMARKAD":"LANDMARKAD","ADDRESS":"ADDRESS","TEL":"TEL","COUNTYNAME":"COUNTYNAME","TOWNNAME":"TOWNNAME","MARKTYPE":"MARKTYPE","Class":"Class"},"geometryType":"esriGeometryPoint","spatialReference":{"wkid":4326},"fields":[{"name":"OBJECTID","type":"esriFieldTypeOID","alias":"OBJECTID"},{"name":"LANDMARKID","type":"esriFieldTypeString","alias":"LANDMARKID","length":15},{"name":"LANDMARKCO","type":"esriFieldTypeString","alias":"LANDMARKCO","length":15},{"name":"LANDMARKNA","type":"esriFieldTypeString","alias":"LANDMARKNA","length":50},{"name":"LANDMARKAD","type":"esriFieldTypeString","alias":"LANDMARKAD","length":15},{"name":"ADDRESS","type":"esriFieldTypeString","alias":"ADDRESS","length":56},{"name":"TEL","type":"esriFieldTypeString","alias":"TEL","length":36},{"name":"COUNTYNAME","type":"esriFieldTypeString","alias":"COUNTYNAME","length":15},{"name":"TOWNNAME","type":"esriFieldTypeString","alias":"TOWNNAME","length":13},{"name":"MARKTYPE","type":"esriFieldTypeString","alias":"MARKTYPE","length":12},{"name":"Class","type":"esriFieldTypeString","alias":"Class","length":5}],"features":[{"attributes":{"OBJECTID":18401,"LANDMARKID":"1000500000848","LANDMARKCO":"603","LANDMARKNA":"中興旅社","LANDMARKAD":"1000510","ADDRESS":"苗栗縣銅鑼鄉銅鑼村新興路4號","TEL":"037-981429","COUNTYNAME":"苗栗縣","TOWNNAME":"銅鑼鄉","MARKTYPE":"996","Class":"6"},"geometry":{"x":120.78796979965669,"y":24.486230696476891}},{"attributes":{"OBJECTID":18402,"LANDMARKID":"1000500000624","LANDMARKCO":"405","LANDMARKNA":"中油加油站-新發站","LANDMARKAD":"1000502","ADDRESS":"苗栗縣苑裡鎮西勢里西勢46-1號","TEL":"03-7869628","COUNTYNAME":"苗栗縣","TOWNNAME":"苑裡鎮","MARKTYPE":"994","Class":"4"},"geometry":{"x":120.6474335132269,"y":24.44233760755808}},{"attributes":{"OBJECTID":18403,"LANDMARKID":"1000500000625","LANDMARKCO":"405","LANDMARKNA":"中油加油站-苑北站","LANDMARKAD":"1000502","ADDRESS":"苗栗縣苑裡鎮苑北里苑港5-4號","TEL":"03-7860635","COUNTYNAME":"苗栗縣","TOWNNAME":"苑裡鎮","MARKTYPE":"994","Class":"4"},"geometry":{"x":120.65812078151366,"y":24.451933878741354}},{"attributes":{"OBJECTID":18404,"LANDMARKID":"1000500000626","LANDMARKCO":"405","LANDMARKNA":"中油加油站-苑裡站(中油直營)","LANDMARKAD":"1000502","ADDRESS":"苗栗縣苑裡鎮中山路19號","TEL":"037-866747","COUNTYNAME":"苗栗縣","TOWNNAME":"苑裡鎮","MARKTYPE":"994","Class":"4"},"geometry":{"x":120.64971661323138,"y":24.43939085374037}},{"attributes":{"OBJECTID":18405,"LANDMARKID":"1000500000627","LANDMARKCO":"405","LANDMARKNA":"中油加油站-山腳站(刷卡自助)(中油直營)","LANDMARKAD":"1000502","ADDRESS":"苗栗縣苑裡鎮舊社里158號","TEL":"037-745074","COUNTYNAME":"苗栗縣","TOWNNAME":"苑裡鎮","MARKTYPE":"994","Class":"4"},"geometry":{"x":120.68137227991737,"y":24.418944778514351}},{"attributes":{"OBJECTID":18406,"LANDMARKID":"1000500000628","LANDMARKCO":"405","LANDMARKNA":"中油加油站-名成站","LANDMARKAD":"1000502","ADDRESS":"苗栗縣苑裡鎮世界路一段25號","TEL":"037-868008","COUNTYNAME":"苗栗縣","TOWNNAME":"苑裡鎮","MARKTYPE":"994","Class":"4"},"geometry":{"x":120.65607952145224,"y":24.440908249511551}},{"attributes":{"OBJECTID":18407,"LANDMARKID":"1000500000600","LANDMARKCO":"402","LANDMARKNA":"亞太行動寬頻電信-苑裡和平加盟服務中心","LANDMARKAD":"1000502","ADDRESS":"苗栗縣苑裡鎮和平路136號","TEL":"03-7857827","COUNTYNAME":"苗栗縣","TOWNNAME":"苑裡鎮","MARKTYPE":"994","Class":"4"},"geometry":{"x":120.65335167590216,"y":24.441567354847685}},{"attributes":{"OBJECTID":18408,"LANDMARKID":"1000500000554","LANDMARKCO":"401","LANDMARKNA":"苑裡李綜合醫院","LANDMARKAD":"1000502","ADDRESS":"苗栗縣苑裡鎮和平路168號","TEL":"037-862387","COUNTYNAME":"苗栗縣","TOWNNAME":"苑裡鎮","MARKTYPE":"994","Class":"4"},"geometry":{"x":120.65278157027456,"y":24.441829239165418}},{"attributes":{"OBJECTID":18409,"LANDMARKID":"1000500000555","LANDMARKCO":"401","LANDMARKNA":"邱綜合醫院","LANDMARKAD":"1000502","ADDRESS":"苗栗縣苑裡鎮為公路16號","TEL":"037-862121","COUNTYNAME":"苗栗縣","TOWNNAME":"苑裡鎮","MARKTYPE":"994","Class":"4"},"geometry":{"x":120.65459331793312,"y":24.442379275509424}},{"attributes":{"OBJECTID":18410,"LANDMARKID":"1000500000754","LANDMARKCO":"408","LANDMARKNA":"郵局-苑裡郵局","LANDMARKAD":"1000502","ADDRESS":"苗栗縣苑裡鎮忠勇街15號","TEL":"(037)861-075","COUNTYNAME":"苗栗縣","TOWNNAME":"苑裡鎮","MARKTYPE":"994","Class":"4"},"geometry":{"x":120.65347996941038,"y":24.441677686374756}},{"attributes":{"OBJECTID":18411,"LANDMARKID":"1000500000755","LANDMARKCO":"408","LANDMARKNA":"郵局-苑裡山腳郵局","LANDMARKAD":"1000502","ADDRESS":"苗栗縣苑裡鎮舊社里63號","TEL":"(037)741-514","COUNTYNAME":"苗栗縣","TOWNNAME":"苑裡鎮","MARKTYPE":"994","Class":"4"},"geometry":{"x":120.65123417859206,"y":24.442691926787568}},{"attributes":{"OBJECTID":18412,"LANDMARKID":"1000500000756","LANDMARKCO":"408","LANDMARKNA":"郵局-苑裡社苓郵局","LANDMARKAD":"1000502","ADDRESS":"苗栗縣苑裡鎮社苓里90-5號","TEL":"(037)741-142","COUNTYNAME":"苗栗縣","TOWNNAME":"苑裡鎮","MARKTYPE":"994","Class":"4"},"geometry":{"x":120.68478619932655,"y":24.415822107314096}},{"attributes":{"OBJECTID":18413,"LANDMARKID":"1000500000767","LANDMARKCO":"409","LANDMARKNA":"苗栗縣苑裡鎮農會","LANDMARKAD":"1000502","ADDRESS":"苗栗縣苑裡鎮為公路65號","TEL":"037-862141","COUNTYNAME":"苗栗縣","TOWNNAME":"苑裡鎮","MARKTYPE":"994","Class":"4"},"geometry":{"x":120.65262047029341,"y":24.442827689879945}},{"attributes":{"OBJECTID":18414,"LANDMARKID":"1000500000768","LANDMARKCO":"409","LANDMARKNA":"通苑區漁會","LANDMARKAD":"1000502","ADDRESS":"苗栗縣苑裡鎮中山路133號","TEL":"037-861171","COUNTYNAME":"苗栗縣","TOWNNAME":"苑裡鎮","MARKTYPE":"994","Class":"4"},"geometry":{"x":120.65079136797246,"y":24.441895904860537}},{"attributes":{"OBJECTID":18415,"LANDMARKID":"1000500000623","LANDMARKCO":"405","LANDMARKNA":"台塑加油站-允用站(台塑)","LANDMARKAD":"1000502","ADDRESS":"苗栗縣苑裡鎮房裡里南房69-5號","TEL":"03-7869196","COUNTYNAME":"苗栗縣","TOWNNAME":"苑裡鎮","MARKTYPE":"994","Class":"4"},"geometry":{"x":120.64543704577243,"y":24.430439338840927}},{"attributes":{"OBJECTID":18416,"LANDMARKID":"1000500000076","LANDMARKCO":"106","LANDMARKNA":"苗栗縣苑裡鎮戶政事務所","LANDMARKAD":"1000502","ADDRESS":"苗栗縣苑裡鎮苑南里7鄰建國路51之1號","TEL":"037-861474","COUNTYNAME":"苗栗縣","TOWNNAME":"苑裡鎮","MARKTYPE":"991","Class":"1"},"geometry":{"x":120.6534813043852,"y":24.443728575267222}},{"attributes":{"OBJECTID":18417,"LANDMARKID":"1000500000170","LANDMARKCO":"107","LANDMARKNA":"苗栗縣警察局苑裡分駐所","LANDMARKAD":"1000502","ADDRESS":"苗栗縣苑裡鎮天下路84號","TEL":"037-861024","COUNTYNAME":"苗栗縣","TOWNNAME":"苑裡鎮","MARKTYPE":"991","Class":"1"},"geometry":{"x":120.65360015097733,"y":24.443638829845256}},{"attributes":{"OBJECTID":18418,"LANDMARKID":"1000500000171","LANDMARKCO":"107","LANDMARKNA":"苗栗縣消防局苑裡消防分隊","LANDMARKAD":"1000502","ADDRESS":"苗栗縣苑裡鎮天下路82號之2","TEL":"037-862010","COUNTYNAME":"苗栗縣","TOWNNAME":"苑裡鎮","MARKTYPE":"991","Class":"1"},"geometry":{"x":120.65343198994337,"y":24.443728349415377}},{"attributes":{"OBJECTID":18419,"LANDMARKID":"1000500000194","LANDMARKCO":"108","LANDMARKNA":"苗栗縣苑裡鎮公所","LANDMARKAD":"1000502","ADDRESS":"苗栗縣苑裡鎮信義路1號","TEL":"037-862100","COUNTYNAME":"苗栗縣","TOWNNAME":"苑裡鎮","MARKTYPE":"991","Class":"1"},"geometry":{"x":120.65294363045378,"y":24.43966307665071}},{"attributes":{"OBJECTID":18420,"LANDMARKID":"1000500000028","LANDMARKCO":"103","LANDMARKNA":"苗栗縣苑裡鎮鎮民代表會","LANDMARKAD":"1000502","ADDRESS":"苗栗縣苑裡鎮信義路1號3樓","TEL":"037-861047","COUNTYNAME":"苗栗縣","TOWNNAME":"苑裡鎮","MARKTYPE":"991","Class":"1"},"geometry":{"x":120.65319955864318,"y":24.439754539973382}},{"attributes":{"OBJECTID":18421,"LANDMARKID":"1000500000172","LANDMARKCO":"107","LANDMARKNA":"苗栗縣警察局社苓派出所","LANDMARKAD":"1000502","ADDRESS":"苗栗縣苑裡鎮社苓里7鄰77號","TEL":"037-742508","COUNTYNAME":"苗栗縣","TOWNNAME":"苑裡鎮","MARKTYPE":"991","Class":"1"},"geometry":{"x":120.67584540071805,"y":24.399355760054803}},{"attributes":{"OBJECTID":18422,"LANDMARKID":"1000500000173","LANDMARKCO":"107","LANDMARKNA":"苗栗縣警察局山腳派出所","LANDMARKAD":"1000502","ADDRESS":"苗栗縣苑裡鎮山腳里389號","TEL":"037-740217","COUNTYNAME":"苗栗縣","TOWNNAME":"苑裡鎮","MARKTYPE":"991","Class":"1"},"geometry":{"x":120.6863594583108,"y":24.414906486053148}},{"attributes":{"OBJECTID":18423,"LANDMARKID":"1000500000029","LANDMARKCO":"103","LANDMARKNA":"苗栗縣苑裡鎮衛生所","LANDMARKAD":"1000502","ADDRESS":"苗栗縣苑裡鎮客庄里公民街16號","TEL":"037-869595","COUNTYNAME":"苗栗縣","TOWNNAME":"苑裡鎮","MARKTYPE":"991","Class":"1"},"geometry":{"x":120.6515791316579,"y":24.440295234602608}},{"attributes":{"OBJECTID":18424,"LANDMARKID":"1000500000415","LANDMARKCO":"205","LANDMARKNA":"苑裡藺草文化館","LANDMARKAD":"1000502","ADDRESS":"苗栗縣苑裡鎮山腳里灣麗路99號","TEL":"037-741319","COUNTYNAME":"苗栗縣","TOWNNAME":"苑裡鎮","MARKTYPE":"992","Class":"2"},"geometry":{"x":120.68581406420221,"y":24.414246280746195}},{"attributes":{"OBJECTID":18425,"LANDMARKID":"1000500000416","LANDMARKCO":"205","LANDMARKNA":"心雕居‧陳炯輝紀念館","LANDMARKAD":"1000502","ADDRESS":"苗栗縣苑裡鎮出水路64號","TEL":"037-869825","COUNTYNAME":"苗栗縣","TOWNNAME":"苑裡鎮","MARKTYPE":"992","Class":"2"},"geometry":{"x":120.6448558686749,"y":24.454989363678063}},{"attributes":{"OBJECTID":18426,"LANDMARKID":"1000500000408","LANDMARKCO":"204","LANDMARKNA":"苗栗縣立圖書館苑裡分館","LANDMARKAD":"1000502","ADDRESS":"苗栗縣苑裡鎮信義路1號","TEL":" ","COUNTYNAME":"苗栗縣","TOWNNAME":"苑裡鎮","MARKTYPE":"992","Class":"2"},"geometry":{"x":120.65313014234219,"y":24.439361284808541}},{"attributes":{"OBJECTID":18427,"LANDMARKID":"1000500000264","LANDMARKCO":"203","LANDMARKNA":"縣立苑裡國小","LANDMARKAD":"1000502","ADDRESS":"苗栗縣苑裡鎮中山路307號","TEL":"037-861013","COUNTYNAME":"苗栗縣","TOWNNAME":"苑裡鎮","MARKTYPE":"992","Class":"2"},"geometry":{"x":120.65459619588785,"y":24.448248140250708}},{"attributes":{"OBJECTID":18428,"LANDMARKID":"1000500000265","LANDMARKCO":"203","LANDMARKNA":"縣立客庄國小","LANDMARKAD":"1000502","ADDRESS":"苗栗縣苑裡鎮新興路21號","TEL":"037-865646","COUNTYNAME":"苗栗縣","TOWNNAME":"苑裡鎮","MARKTYPE":"992","Class":"2"},"geometry":{"x":120.65474629061129,"y":24.438678153556175}},{"attributes":{"OBJECTID":18429,"LANDMARKID":"1000500000226","LANDMARKCO":"202","LANDMARKNA":"縣立苑裡高中","LANDMARKAD":"1000502","ADDRESS":"苗栗縣苑裡鎮客庄里1鄰2號","TEL":"037-861042","COUNTYNAME":"苗栗縣","TOWNNAME":"苑裡鎮","MARKTYPE":"992","Class":"2"},"geometry":{"x":120.66366726400688,"y":24.437706257879984}},{"attributes":{"OBJECTID":18430,"LANDMARKID":"1000500000227","LANDMARKCO":"202","LANDMARKNA":"國立苑裡高中","LANDMARKAD":"1000502","ADDRESS":"苗栗縣苑裡鎮育才街100號","TEL":"037-868680","COUNTYNAME":"苗栗縣","TOWNNAME":"苑裡鎮","MARKTYPE":"992","Class":"2"},"geometry":{"x":120.65368287932149,"y":24.4475216435264}},{"attributes":{"OBJECTID":18431,"LANDMARKID":"1000500000228","LANDMARKCO":"202","LANDMARKNA":"私立龍德家商","LANDMARKAD":"1000502","ADDRESS":"苗栗縣苑裡鎮南房75之1號","TEL":"037-851277","COUNTYNAME":"苗栗縣","TOWNNAME":"苑裡鎮","MARKTYPE":"992","Class":"2"},"geometry":{"x":120.6431468035625,"y":24.429440695061871}},{"attributes":{"OBJECTID":18432,"LANDMARKID":"1000500000229","LANDMARKCO":"202","LANDMARKNA":"縣立苑裡高中附設國中部","LANDMARKAD":"1000502","ADDRESS":"苗栗縣苑裡鎮客庄里一鄰2號","TEL":"037861042","COUNTYNAME":"苗栗縣","TOWNNAME":"苑裡鎮","MARKTYPE":"992","Class":"2"},"geometry":{"x":120.66383396493423,"y":24.437887579535172}},{"attributes":{"OBJECTID":18433,"LANDMARKID":"1000500000256","LANDMARKCO":"203","LANDMARKNA":"縣立致民國中","LANDMARKAD":"1000502","ADDRESS":"苗栗縣苑裡鎮舊社里9鄰96之1號","TEL":"037-744788","COUNTYNAME":"苗栗縣","TOWNNAME":"苑裡鎮","MARKTYPE":"992","Class":"2"},"geometry":{"x":120.68523328285355,"y":24.418699778784205}},{"attributes":{"OBJECTID":18434,"LANDMARKID":"1000500000257","LANDMARKCO":"203","LANDMARKNA":"縣立中正國小","LANDMARKAD":"1000502","ADDRESS":"苗栗縣苑裡鎮中正里111號","TEL":"037-861244","COUNTYNAME":"苗栗縣","TOWNNAME":"苑裡鎮","MARKTYPE":"992","Class":"2"},"geometry":{"x":120.6613351812224,"y":24.428847467851558}},{"attributes":{"OBJECTID":18435,"LANDMARKID":"1000500000258","LANDMARKCO":"203","LANDMARKNA":"縣立文苑國小","LANDMARKAD":"1000502","ADDRESS":"苗栗縣苑裡鎮房裡里2鄰14號","TEL":"037-861410","COUNTYNAME":"苗栗縣","TOWNNAME":"苑裡鎮","MARKTYPE":"992","Class":"2"},"geometry":{"x":120.64669820123947,"y":24.433784700477805}},{"attributes":{"OBJECTID":18436,"LANDMARKID":"1000500000259","LANDMARKCO":"203","LANDMARKNA":"縣立山腳國小","LANDMARKAD":"1000502","ADDRESS":"苗栗縣苑裡鎮舊社里47號","TEL":"037-45024","COUNTYNAME":"苗栗縣","TOWNNAME":"苑裡鎮","MARKTYPE":"992","Class":"2"},"geometry":{"x":120.68505023694328,"y":24.416441771449012}},{"attributes":{"OBJECTID":18437,"LANDMARKID":"1000500000260","LANDMARKCO":"203","LANDMARKNA":"縣立中山國小","LANDMARKAD":"1000502","ADDRESS":"苗栗縣苑裡鎮社苓里4鄰51之1號","TEL":"037-743564","COUNTYNAME":"苗栗縣","TOWNNAME":"苑裡鎮","MARKTYPE":"992","Class":"2"},"geometry":{"x":120.67615748692212,"y":24.398093027177495}},{"attributes":{"OBJECTID":18438,"LANDMARKID":"1000500000261","LANDMARKCO":"203","LANDMARKNA":"縣立藍田國小","LANDMARKAD":"1000502","ADDRESS":"苗栗縣苑裡鎮泰田里62號","TEL":"037-743504","COUNTYNAME":"苗栗縣","TOWNNAME":"苑裡鎮","MARKTYPE":"992","Class":"2"},"geometry":{"x":120.69609601861447,"y":24.38919644780519}},{"attributes":{"OBJECTID":18439,"LANDMARKID":"1000500000262","LANDMARKCO":"203","LANDMARKNA":"縣立林森國小","LANDMARKAD":"1000502","ADDRESS":"苗栗縣苑裡鎮水坡里70號","TEL":"037-861084","COUNTYNAME":"苗栗縣","TOWNNAME":"苑裡鎮","MARKTYPE":"992","Class":"2"},"geometry":{"x":120.67927712300416,"y":24.438189089795792}},{"attributes":{"OBJECTID":18440,"LANDMARKID":"1000500000263","LANDMARKCO":"203","LANDMARKNA":"縣立蕉埔國小","LANDMARKAD":"1000502","ADDRESS":"苗栗縣苑裡鎮蕉埔里8鄰87之2號","TEL":"037-741574","COUNTYNAME":"苗栗縣","TOWNNAME":"苑裡鎮","MARKTYPE":"992","Class":"2"},"geometry":{"x":120.71323186077825,"y":24.413067204372133}},{"attributes":{"OBJECTID":18441,"LANDMARKID":"1000500000479","LANDMARKCO":"305","LANDMARKNA":"海岸漁港","LANDMARKAD":"1000502","ADDRESS":"苗栗縣苑裡鎮海岸里","TEL":" ","COUNTYNAME":"苗栗縣","TOWNNAME":"苑裡鎮","MARKTYPE":"993","Class":"305"},"geometry":{"x":120.63220155338782,"y":24.44748997250041}},{"attributes":{"OBJECTID":18442,"LANDMARKID":"1000500000480","LANDMARKCO":"305","LANDMARKNA":"苑裡漁港","LANDMARKAD":"1000502","ADDRESS":"苗栗縣苑裡鎮苑港里","TEL":" ","COUNTYNAME":"苗栗縣","TOWNNAME":"苑裡鎮","MARKTYPE":"993","Class":"305"},"geometry":{"x":120.64639829250758,"y":24.460155901438892}},{"attributes":{"OBJECTID":18443,"LANDMARKID":"1000500000477","LANDMARKCO":"303","LANDMARKNA":"台灣少林寺停車場","LANDMARKAD":"1000502","ADDRESS":"苗栗縣苑裡鎮石鎮里火炎山1號","TEL":"037-740373","COUNTYNAME":"苗栗縣","TOWNNAME":"苑裡鎮","MARKTYPE":"993","Class":"303"},"geometry":{"x":120.70160387483465,"y":24.410610751938684}},{"attributes":{"OBJECTID":18444,"LANDMARKID":"1000500000478","LANDMARKCO":"303","LANDMARKNA":"台灣少林寺停車場","LANDMARKAD":"1000502","ADDRESS":"苗栗縣苑裡鎮石鎮里火炎山1號","TEL":"037-740373","COUNTYNAME":"苗栗縣","TOWNNAME":"苑裡鎮","MARKTYPE":"993","Class":"303"},"geometry":{"x":120.70255252732417,"y":24.411979376059584}},{"attributes":{"OBJECTID":18445,"LANDMARKID":"1000500000544","LANDMARKCO":"308","LANDMARKNA":"國3-苑裡交流道-北上","LANDMARKAD":"1000502","ADDRESS":"苗栗縣苑裡鎮","TEL":" ","COUNTYNAME":"苗栗縣","TOWNNAME":"苑裡鎮","MARKTYPE":"993","Class":"308"},"geometry":{"x":120.67019114018167,"y":24.398969716649088}},{"attributes":{"OBJECTID":18446,"LANDMARKID":"1000500000545","LANDMARKCO":"308","LANDMARKNA":"台61-140線平交匝道-北上","LANDMARKAD":"1000502","ADDRESS":" ","TEL":" ","COUNTYNAME":"苗栗縣","TOWNNAME":"苑裡鎮","MARKTYPE":"993","Class":"308"},"geometry":{"x":120.63326905838643,"y":24.433957488683859}},{"attributes":{"OBJECTID":18447,"LANDMARKID":"1000500000546","LANDMARKCO":"308","LANDMARKNA":"台61-苑裡交流道-北上","LANDMARKAD":"1000502","ADDRESS":" ","TEL":" ","COUNTYNAME":"苗栗縣","TOWNNAME":"苑裡鎮","MARKTYPE":"993","Class":"308"},"geometry":{"x":120.65390323092676,"y":24.461781191595929}},{"attributes":{"OBJECTID":18448,"LANDMARKID":"1000500000437","LANDMARKCO":"301","LANDMARKNA":"苑裡火車站","LANDMARKAD":"1000502","ADDRESS":"苗栗縣苑裡鎮中山路165號","TEL":"037-851013","COUNTYNAME":"苗栗縣","TOWNNAME":"苑裡鎮","MARKTYPE":"993","Class":"301"},"geometry":{"x":120.6513276550842,"y":24.443580973044831}},{"attributes":{"OBJECTID":18449,"LANDMARKID":"1000500000601","LANDMARKCO":"402","LANDMARKNA":"中華電信-苑裡中山特約服務中心","LANDMARKAD":"1000502","ADDRESS":"苗栗縣苑裡鎮中山路123號","TEL":"037-868855","COUNTYNAME":"苗栗縣","TOWNNAME":"苑裡鎮","MARKTYPE":"994","Class":"4"},"geometry":{"x":120.65068264334812,"y":24.441195653343772}},{"attributes":{"OBJECTID":18450,"LANDMARKID":"1000500000602","LANDMARKCO":"402","LANDMARKNA":"中華電信-苑裡服務中心","LANDMARKAD":"1000502","ADDRESS":"苗栗縣苑裡鎮忠勇街17號","TEL":"(037)862-912","COUNTYNAME":"苗栗縣","TOWNNAME":"苑裡鎮","MARKTYPE":"994","Class":"4"},"geometry":{"x":120.6537502849885,"y":24.44192830516409}},{"attributes":{"OBJECTID":18451,"LANDMARKID":"1000500000844","LANDMARKCO":"603","LANDMARKNA":"國泰大旅社","LANDMARKAD":"1000502","ADDRESS":"苗栗縣苑裡鎮中山路182號","TEL":"037-861058","COUNTYNAME":"苗栗縣","TOWNNAME":"苑裡鎮","MARKTYPE":"996","Class":"6"},"geometry":{"x":120.65222511496407,"y":24.444176208261901}},{"attributes":{"OBJECTID":18452,"LANDMARKID":"1000500000845","LANDMARKCO":"603","LANDMARKNA":"遠東大旅社","LANDMARKAD":"1000502","ADDRESS":"苗栗縣苑裡鎮中山路69號","TEL":"037-861130","COUNTYNAME":"苗栗縣","TOWNNAME":"苑裡鎮","MARKTYPE":"996","Class":"6"},"geometry":{"x":120.65028367050559,"y":24.440095731918934}},{"attributes":{"OBJECTID":18453,"LANDMARKID":"1000500000797","LANDMARKCO":"505","LANDMARKNA":"火炎山溫泉遊樂區","LANDMARKAD":"1000502","ADDRESS":"苗栗縣苑裡鎮石鎮里火炎山1號","TEL":"037-740373","COUNTYNAME":"苗栗縣","TOWNNAME":"苑裡鎮","MARKTYPE":"995","Class":"5"},"geometry":{"x":120.70139348309836,"y":24.409992499980333}},{"attributes":{"OBJECTID":18454,"LANDMARKID":"1000500000798","LANDMARKCO":"505","LANDMARKNA":"台灣少林寺","LANDMARKAD":"1000502","ADDRESS":"苗栗縣苑裡鎮石鎮里火炎山1號","TEL":" ","COUNTYNAME":"苗栗縣","TOWNNAME":"苑裡鎮","MARKTYPE":"995","Class":"5"},"geometry":{"x":120.70179597091912,"y":24.411385099881851}},{"attributes":{"OBJECTID":18455,"LANDMARKID":"1000500000830","LANDMARKCO":"510","LANDMARKNA":"全國花園高爾夫球場","LANDMARKAD":"1000502","ADDRESS":"苗栗縣苑裡鎮石鎮里1鄰1-1號","TEL":"037-743377","COUNTYNAME":"苗栗縣","TOWNNAME":"苑裡鎮","MARKTYPE":"995","Class":"5"},"geometry":{"x":120.72163596836413,"y":24.393762775017692}},{"attributes":{"OBJECTID":18456,"LANDMARKID":"1000500000796","LANDMARKCO":"504","LANDMARKNA":"觀霧森林遊樂區","LANDMARKAD":"1000518","ADDRESS":"新竹縣五峰鄉與苗栗縣泰安鄉交界處","TEL":" ","COUNTYNAME":"苗栗縣","TOWNNAME":"泰安鄉","MARKTYPE":"995","Class":"5"},"geometry":{"x":121.11612569044468,"y":24.502020326164345}},{"attributes":{"OBJECTID":18457,"LANDMARKID":"1000500000785","LANDMARKCO":"502","LANDMARKNA":"雪霸國家公園","LANDMARKAD":"1000518","ADDRESS":"苗栗縣大湖鄉富興村尾坪100號","TEL":"037-996100","COUNTYNAME":"苗栗縣","TOWNNAME":"泰安鄉","MARKTYPE":"995","Class":"5"},"geometry":{"x":121.15143230483926,"y":24.461668007819487}},{"attributes":{"OBJECTID":18458,"LANDMARKID":"1000500000950","LANDMARKCO":"605","LANDMARKNA":"警光山莊","LANDMARKAD":"1000518","ADDRESS":"苗栗縣泰安鄉錦水村18號","TEL":"037-941175","COUNTYNAME":"苗栗縣","TOWNNAME":"泰安鄉","MARKTYPE":"996","Class":"6"},"geometry":{"x":120.97744429762898,"y":24.471864740074579}},{"attributes":{"OBJECTID":18459,"LANDMARKID":"1000500000759","LANDMARKCO":"408","LANDMARKNA":"郵局-泰安郵局","LANDMARKAD":"1000518","ADDRESS":"苗栗縣泰安鄉清安村洗水坑23號","TEL":"(037)941-035","COUNTYNAME":"苗栗縣","TOWNNAME":"泰安鄉","MARKTYPE":"994","Class":"4"},"geometry":{"x":120.90549361550342,"y":24.446300796871967}},{"attributes":{"OBJECTID":18460,"LANDMARKID":"1000500000015","LANDMARKCO":"101","LANDMARKNA":"林務局新竹林區管理處","LANDMARKAD":"1000518","ADDRESS":"苗栗縣泰安鄉梅園村觀霧8號","TEL":"037-272913","COUNTYNAME":"苗栗縣","TOWNNAME":"泰安鄉","MARKTYPE":"991","Class":"1"},"geometry":{"x":121.11509766750419,"y":24.504302641771826}},{"attributes":{"OBJECTID":18461,"LANDMARKID":"1000500000077","LANDMARKCO":"106","LANDMARKNA":"苗栗縣泰安鄉戶政事務所","LANDMARKAD":"1000518","ADDRESS":"苗栗縣泰安鄉清安村1鄰洗水坑19號2樓","TEL":"037-941058","COUNTYNAME":"苗栗縣","TOWNNAME":"泰安鄉","MARKTYPE":"991","Class":"1"},"geometry":{"x":120.90567728403084,"y":24.446442112189363}},{"attributes":{"OBJECTID":18462,"LANDMARKID":"1000500000156","LANDMARKCO":"107","LANDMARKNA":"苗栗縣警察局士林派出所","LANDMARKAD":"1000518","ADDRESS":"苗栗縣泰安鄉土林村7鄰63號","TEL":"037-962037","COUNTYNAME":"苗栗縣","TOWNNAME":"泰安鄉","MARKTYPE":"991","Class":"1"},"geometry":{"x":120.93463982979372,"y":24.34334549621132}},{"attributes":{"OBJECTID":18463,"LANDMARKID":"1000500000157","LANDMARKCO":"107","LANDMARKNA":"苗栗縣警察局觀霧派出所","LANDMARKAD":"1000518","ADDRESS":"苗栗縣泰安鄉梅園村觀霧1號","TEL":"037-273038","COUNTYNAME":"苗栗縣","TOWNNAME":"泰安鄉","MARKTYPE":"991","Class":"1"},"geometry":{"x":121.11499185287776,"y":24.507192071928792}},{"attributes":{"OBJECTID":18464,"LANDMARKID":"1000500000158","LANDMARKCO":"107","LANDMARKNA":"苗栗縣警察局虎山派出所","LANDMARKAD":"1000518","ADDRESS":"苗栗縣泰安鄉錦水村5鄰26號","TEL":"037-941217","COUNTYNAME":"苗栗縣","TOWNNAME":"泰安鄉","MARKTYPE":"991","Class":"1"},"geometry":{"x":120.94367139295551,"y":24.467860528044838}},{"attributes":{"OBJECTID":18465,"LANDMARKID":"1000500000159","LANDMARKCO":"107","LANDMARKNA":"苗栗縣警察局新興派出所","LANDMARKAD":"1000518","ADDRESS":"苗栗縣泰安鄉中興村6鄰35號","TEL":"037-992351","COUNTYNAME":"苗栗縣","TOWNNAME":"泰安鄉","MARKTYPE":"991","Class":"1"},"geometry":{"x":120.93494841888399,"y":24.413592365171251}},{"attributes":{"OBJECTID":18466,"LANDMARKID":"1000500000160","LANDMARKCO":"107","LANDMARKNA":"苗栗縣警察局大興派出所","LANDMARKAD":"1000518","ADDRESS":"苗栗縣泰安鄉大興村24號","TEL":"037-992349","COUNTYNAME":"苗栗縣","TOWNNAME":"泰安鄉","MARKTYPE":"991","Class":"1"},"geometry":{"x":120.91098919987348,"y":24.424415946506578}},{"attributes":{"OBJECTID":18467,"LANDMARKID":"1000500000161","LANDMARKCO":"107","LANDMARKNA":"苗栗縣警察局八卦派出所","LANDMARKAD":"1000518","ADDRESS":"苗栗縣泰安鄉八卦村5鄰25號","TEL":"037-941137","COUNTYNAME":"苗栗縣","TOWNNAME":"泰安鄉","MARKTYPE":"991","Class":"1"},"geometry":{"x":120.92427038474561,"y":24.494126731316918}},{"attributes":{"OBJECTID":18468,"LANDMARKID":"1000500000162","LANDMARKCO":"107","LANDMARKNA":"苗栗縣警察局泰安分駐所","LANDMARKAD":"1000518","ADDRESS":"苗栗縣泰安鄉清安村1鄰19號","TEL":"037-941057","COUNTYNAME":"苗栗縣","TOWNNAME":"泰安鄉","MARKTYPE":"991","Class":"1"},"geometry":{"x":120.91573485140613,"y":24.467215784012939}},{"attributes":{"OBJECTID":18469,"LANDMARKID":"1000500000163","LANDMARKCO":"107","LANDMARKNA":"苗栗縣警察局松安派出所","LANDMARKAD":"1000518","ADDRESS":"苗栗縣泰安鄉梅園村32號","TEL":"037-962132","COUNTYNAME":"苗栗縣","TOWNNAME":"泰安鄉","MARKTYPE":"991","Class":"1"},"geometry":{"x":120.98068465730161,"y":24.401686017688007}},{"attributes":{"OBJECTID":18470,"LANDMARKID":"1000500000164","LANDMARKCO":"107","LANDMARKNA":"苗栗縣警察局永安派出所","LANDMARKAD":"1000518","ADDRESS":"苗栗縣泰安鄉象鼻村大安40號","TEL":"037-962242","COUNTYNAME":"苗栗縣","TOWNNAME":"泰安鄉","MARKTYPE":"991","Class":"1"},"geometry":{"x":120.97082258005003,"y":24.369902189001881}},{"attributes":{"OBJECTID":18471,"LANDMARKID":"1000500000165","LANDMARKCO":"107","LANDMARKNA":"苗栗縣警察局龍山派出所","LANDMARKAD":"1000518","ADDRESS":"苗栗縣泰安鄉錦水村10鄰橫龍山52號","TEL":"037-941136","COUNTYNAME":"苗栗縣","TOWNNAME":"泰安鄉","MARKTYPE":"991","Class":"1"},"geometry":{"x":120.97053320300664,"y":24.469944283556757}},{"attributes":{"OBJECTID":18472,"LANDMARKID":"1000500000166","LANDMARKCO":"107","LANDMARKNA":"苗栗縣警察局大安派出所","LANDMARKAD":"1000518","ADDRESS":"苗栗縣泰安鄉象鼻村23號","TEL":"037-962241","COUNTYNAME":"苗栗縣","TOWNNAME":"泰安鄉","MARKTYPE":"991","Class":"1"},"geometry":{"x":120.97591634766097,"y":24.380467047180474}},{"attributes":{"OBJECTID":18473,"LANDMARKID":"1000500000167","LANDMARKCO":"107","LANDMARKNA":"苗栗縣警察局梅園派出所","LANDMARKAD":"1000518","ADDRESS":"苗栗縣泰安鄉梅園村6鄰天狗32號","TEL":"037-962131","COUNTYNAME":"苗栗縣","TOWNNAME":"泰安鄉","MARKTYPE":"991","Class":"1"},"geometry":{"x":120.9704027352378,"y":24.39355833484543}},{"attributes":{"OBJECTID":18474,"LANDMARKID":"1000500000168","LANDMARKCO":"107","LANDMARKNA":"苗栗縣警察局象鼻派出所","LANDMARKAD":"1000518","ADDRESS":"苗栗縣泰安鄉象鼻村1鄰象鼻12號","TEL":"037-962243","COUNTYNAME":"苗栗縣","TOWNNAME":"泰安鄉","MARKTYPE":"991","Class":"1"},"geometry":{"x":120.95941758800112,"y":24.370170461531437}},{"attributes":{"OBJECTID":18475,"LANDMARKID":"1000500000169","LANDMARKCO":"107","LANDMARKNA":"苗栗縣警察局中興派出所","LANDMARKAD":"1000518","ADDRESS":"苗栗縣泰安鄉中興村9號","TEL":"037-992350","COUNTYNAME":"苗栗縣","TOWNNAME":"泰安鄉","MARKTYPE":"991","Class":"1"},"geometry":{"x":120.92140149255208,"y":24.397243605915776}},{"attributes":{"OBJECTID":18476,"LANDMARKID":"1000500000024","LANDMARKCO":"103","LANDMARKNA":"苗栗縣泰安鄉衛生所","LANDMARKAD":"1000518","ADDRESS":"苗栗縣泰安鄉清安村72號","TEL":"037-941054","COUNTYNAME":"苗栗縣","TOWNNAME":"泰安鄉","MARKTYPE":"991","Class":"1"},"geometry":{"x":120.90618910431695,"y":24.447165071598441}},{"attributes":{"OBJECTID":18477,"LANDMARKID":"1000500000195","LANDMARKCO":"108","LANDMARKNA":"苗栗縣泰安鄉公所","LANDMARKAD":"1000518","ADDRESS":"苗栗縣泰安鄉清安村洗水坑69號","TEL":"037-941025","COUNTYNAME":"苗栗縣","TOWNNAME":"泰安鄉","MARKTYPE":"991","Class":"1"},"geometry":{"x":120.90648513943903,"y":24.447075148729496}},{"attributes":{"OBJECTID":18478,"LANDMARKID":"1000500000025","LANDMARKCO":"103","LANDMARKNA":"苗栗縣泰安鄉民代表會","LANDMARKAD":"1000518","ADDRESS":"苗栗縣泰安鄉清安村69號2樓","TEL":"037-941056","COUNTYNAME":"苗栗縣","TOWNNAME":"泰安鄉","MARKTYPE":"991","Class":"1"},"geometry":{"x":120.90651472995592,"y":24.447075185081722}},{"attributes":{"OBJECTID":18479,"LANDMARKID":"1000500000407","LANDMARKCO":"204","LANDMARKNA":"苗栗縣立圖書館泰安分館","LANDMARKAD":"1000518","ADDRESS":"苗栗縣泰安鄉清安村2鄰69號","TEL":" ","COUNTYNAME":"苗栗縣","TOWNNAME":"泰安鄉","MARKTYPE":"992","Class":"2"},"geometry":{"x":120.90656280020609,"y":24.446978805404221}},{"attributes":{"OBJECTID":18480,"LANDMARKID":"1000500000274","LANDMARKCO":"203","LANDMARKNA":"縣立象鼻國小","LANDMARKAD":"1000518","ADDRESS":"苗栗縣泰安鄉象鼻村1鄰4號","TEL":"037-962270","COUNTYNAME":"苗栗縣","TOWNNAME":"泰安鄉","MARKTYPE":"992","Class":"2"},"geometry":{"x":120.94668633970325,"y":24.359422348584829}},{"attributes":{"OBJECTID":18481,"LANDMARKID":"1000500000275","LANDMARKCO":"203","LANDMARKNA":"縣立梅園國小","LANDMARKAD":"1000518","ADDRESS":"苗栗縣泰安鄉梅園村3鄰38號","TEL":"037-962146","COUNTYNAME":"苗栗縣","TOWNNAME":"泰安鄉","MARKTYPE":"992","Class":"2"},"geometry":{"x":120.97123189715707,"y":24.388592641537656}},{"attributes":{"OBJECTID":18482,"LANDMARKID":"1000500000276","LANDMARKCO":"203","LANDMARKNA":"縣立泰安國(中)小","LANDMARKAD":"1000518","ADDRESS":"苗栗縣泰安鄉大興村32之1號","TEL":"037-991224","COUNTYNAME":"苗栗縣","TOWNNAME":"泰安鄉","MARKTYPE":"992","Class":"2"},"geometry":{"x":120.90882102937115,"y":24.422065807531158}},{"attributes":{"OBJECTID":18483,"LANDMARKID":"1000500000277","LANDMARKCO":"203","LANDMARKNA":"縣立汶水國小","LANDMARKAD":"1000518","ADDRESS":"苗栗縣泰安鄉錦水村4鄰12號","TEL":"037-941037","COUNTYNAME":"苗栗縣","TOWNNAME":"泰安鄉","MARKTYPE":"992","Class":"2"},"geometry":{"x":120.94015036032722,"y":24.4656919540943}},{"attributes":{"OBJECTID":18484,"LANDMARKID":"1000500000278","LANDMARKCO":"203","LANDMARKNA":"縣立泰興國小","LANDMARKAD":"1000518","ADDRESS":"苗栗縣泰安鄉長橋2號","TEL":"037-992852","COUNTYNAME":"苗栗縣","TOWNNAME":"泰安鄉","MARKTYPE":"992","Class":"2"},"geometry":{"x":120.92104819748866,"y":24.394534506890157}},{"attributes":{"OBJECTID":18485,"LANDMARKID":"1000500000279","LANDMARKCO":"203","LANDMARKNA":"縣立清安國小","LANDMARKAD":"1000518","ADDRESS":"苗栗縣泰安鄉清安村6鄰洗水坑122號","TEL":"037-941027","COUNTYNAME":"苗栗縣","TOWNNAME":"泰安鄉","MARKTYPE":"992","Class":"2"},"geometry":{"x":120.92618739392289,"y":24.439953105949602}},{"attributes":{"OBJECTID":18486,"LANDMARKID":"1000500000280","LANDMARKCO":"203","LANDMARKNA":"縣立汶水國小八卦分班","LANDMARKAD":"1000518","ADDRESS":"苗栗縣泰安鄉八卦村3鄰八卦力50號","TEL":"037-941157","COUNTYNAME":"苗栗縣","TOWNNAME":"泰安鄉","MARKTYPE":"992","Class":"2"},"geometry":{"x":120.93280860141375,"y":24.489706543534815}},{"attributes":{"OBJECTID":18487,"LANDMARKID":"1000500000281","LANDMARKCO":"203","LANDMARKNA":"縣立清水國小(廢)","LANDMARKAD":"1000518","ADDRESS":"苗栗縣泰安鄉","TEL":" ","COUNTYNAME":"苗栗縣","TOWNNAME":"泰安鄉","MARKTYPE":"992","Class":"2"},"geometry":{"x":120.90719627916246,"y":24.44779834698879}},{"attributes":{"OBJECTID":18488,"LANDMARKID":"1000500000282","LANDMARKCO":"203","LANDMARKNA":"縣立泰安國中","LANDMARKAD":"1000518","ADDRESS":"苗栗縣泰安鄉大興村32之1號","TEL":"037-991224","COUNTYNAME":"苗栗縣","TOWNNAME":"泰安鄉","MARKTYPE":"992","Class":"2"},"geometry":{"x":120.9129845376501,"y":24.420624400645593}},{"attributes":{"OBJECTID":18489,"LANDMARKID":"1000500000473","LANDMARKCO":"303","LANDMARKNA":"步道入口停車場","LANDMARKAD":"1000518","ADDRESS":"苗栗縣泰安鄉","TEL":" ","COUNTYNAME":"苗栗縣","TOWNNAME":"泰安鄉","MARKTYPE":"993","Class":"303"},"geometry":{"x":120.97725949196111,"y":24.471361267851233}},{"attributes":{"OBJECTID":18490,"LANDMARKID":"1000500000474","LANDMARKCO":"303","LANDMARKNA":"觀霧森林遊樂區停車場","LANDMARKAD":"1000518","ADDRESS":"苗栗縣泰安鄉","TEL":" ","COUNTYNAME":"苗栗縣","TOWNNAME":"泰安鄉","MARKTYPE":"993","Class":"303"},"geometry":{"x":121.11477357069926,"y":24.504945948729379}},{"attributes":{"OBJECTID":18491,"LANDMARKID":"1000500000921","LANDMARKCO":"604","LANDMARKNA":"達拉灣民宿","LANDMARKAD":"1000518","ADDRESS":"苗栗縣泰安鄉士林村5鄰馬那邦32-1號","TEL":"037-962349","COUNTYNAME":"苗栗縣","TOWNNAME":"泰安鄉","MARKTYPE":"996","Class":"6"},"geometry":{"x":120.93128994371298,"y":24.349180409943024}},{"attributes":{"OBJECTID":18492,"LANDMARKID":"1000500000922","LANDMARKCO":"604","LANDMARKNA":"比浩民宿","LANDMARKAD":"1000518","ADDRESS":"苗栗縣泰安鄉士林村6鄰馬那邦42-2號","TEL":"037-962036","COUNTYNAME":"苗栗縣","TOWNNAME":"泰安鄉","MARKTYPE":"996","Class":"6"},"geometry":{"x":120.93152953103254,"y":24.3453155182623}},{"attributes":{"OBJECTID":18493,"LANDMARKID":"1000500000923","LANDMARKCO":"604","LANDMARKNA":"天然居","LANDMARKAD":"1000518","ADDRESS":"苗栗縣泰安鄉清安村3鄰小南角20號","TEL":"037-941609","COUNTYNAME":"苗栗縣","TOWNNAME":"泰安鄉","MARKTYPE":"996","Class":"6"},"geometry":{"x":120.91505688785215,"y":24.433501735937227}},{"attributes":{"OBJECTID":18494,"LANDMARKID":"1000500000924","LANDMARKCO":"604","LANDMARKNA":"楚留香民宿","LANDMARKAD":"1000518","ADDRESS":"苗栗縣泰安鄉清安村洗水坑114號","TEL":"037-941730","COUNTYNAME":"苗栗縣","TOWNNAME":"泰安鄉","MARKTYPE":"996","Class":"6"},"geometry":{"x":120.91923323565,"y":24.442866468315202}},{"attributes":{"OBJECTID":18495,"LANDMARKID":"1000500000925","LANDMARKCO":"604","LANDMARKNA":"泰安民宿","LANDMARKAD":"1000518","ADDRESS":"苗栗縣泰安鄉錦水村10鄰59-1號","TEL":"037-941438","COUNTYNAME":"苗栗縣","TOWNNAME":"泰安鄉","MARKTYPE":"996","Class":"6"},"geometry":{"x":120.96613790987853,"y":24.469782596449601}},{"attributes":{"OBJECTID":18496,"LANDMARKID":"1000500000926","LANDMARKCO":"604","LANDMARKNA":"馬力十族","LANDMARKAD":"1000518","ADDRESS":"苗栗縣泰安鄉錦水村12鄰92號","TEL":"037-941110","COUNTYNAME":"苗栗縣","TOWNNAME":"泰安鄉","MARKTYPE":"996","Class":"6"},"geometry":{"x":120.94170899127074,"y":24.47224209172526}},{"attributes":{"OBJECTID":18497,"LANDMARKID":"1000500000927","LANDMARKCO":"604","LANDMARKNA":"泰雅風情","LANDMARKAD":"1000518","ADDRESS":"苗栗縣泰安鄉錦水村4鄰圓墩5號","TEL":"037-941128","COUNTYNAME":"苗栗縣","TOWNNAME":"泰安鄉","MARKTYPE":"996","Class":"6"},"geometry":{"x":120.93883038069274,"y":24.465171200453444}},{"attributes":{"OBJECTID":18498,"LANDMARKID":"1000500000928","LANDMARKCO":"604","LANDMARKNA":"雅筑居民宿","LANDMARKAD":"1000518","ADDRESS":"苗栗縣泰安鄉錦水村7鄰圓墩63-3號","TEL":"037-941582","COUNTYNAME":"苗栗縣","TOWNNAME":"泰安鄉","MARKTYPE":"996","Class":"6"},"geometry":{"x":120.94560135237441,"y":24.465396496131184}},{"attributes":{"OBJECTID":18499,"LANDMARKID":"1000500000929","LANDMARKCO":"604","LANDMARKNA":"友泰民宿溫泉館","LANDMARKAD":"1000518","ADDRESS":"苗栗縣泰安鄉錦水村圓墩46-2號","TEL":"037-941868","COUNTYNAME":"苗栗縣","TOWNNAME":"泰安鄉","MARKTYPE":"996","Class":"6"},"geometry":{"x":120.94738571548605,"y":24.467351132895232}},{"attributes":{"OBJECTID":18500,"LANDMARKID":"1000500000820","LANDMARKCO":"508","LANDMARKNA":"騰龍溫泉山莊","LANDMARKAD":"1000518","ADDRESS":"苗栗縣泰安鄉錦水村橫龍山5號","TEL":"037-941002","COUNTYNAME":"苗栗縣","TOWNNAME":"泰安鄉","MARKTYPE":"995","Class":"5"},"geometry":{"x":120.96620551076498,"y":24.466433164911724}},{"attributes":{"OBJECTID":18501,"LANDMARKID":"1000500000821","LANDMARKCO":"508","LANDMARKNA":"錦水溫泉飯店","LANDMARKAD":"1000518","ADDRESS":"苗栗縣泰安鄉錦水村72號","TEL":"037-941333","COUNTYNAME":"苗栗縣","TOWNNAME":"泰安鄉","MARKTYPE":"995","Class":"5"},"geometry":{"x":120.96744018313426,"y":24.468353104639142}},{"attributes":{"OBJECTID":18502,"LANDMARKID":"1000500000822","LANDMARKCO":"508","LANDMARKNA":"虎山溫泉","LANDMARKAD":"1000518","ADDRESS":"苗栗縣泰安鄉","TEL":" ","COUNTYNAME":"苗栗縣","TOWNNAME":"泰安鄉","MARKTYPE":"995","Class":"5"},"geometry":{"x":120.940284365078,"y":24.468012652495243}},{"attributes":{"OBJECTID":18503,"LANDMARKID":"1000500000823","LANDMARKCO":"508","LANDMARKNA":"虎山溫泉大飯店","LANDMARKAD":"1000518","ADDRESS":"苗栗縣泰安鄉錦水村圓墩73之1號","TEL":"037-941001","COUNTYNAME":"苗栗縣","TOWNNAME":"泰安鄉","MARKTYPE":"995","Class":"5"},"geometry":{"x":120.94049820117699,"y":24.468366736708717}},{"attributes":{"OBJECTID":18504,"LANDMARKID":"1000500000824","LANDMARKCO":"508","LANDMARKNA":"友泰民宿溫泉館","LANDMARKAD":"1000518","ADDRESS":"苗栗縣泰安鄉錦水村6鄰圓敦46之2號","TEL":"037-941868","COUNTYNAME":"苗栗縣","TOWNNAME":"泰安鄉","MARKTYPE":"995","Class":"5"},"geometry":{"x":120.94740200513654,"y":24.467346492230494}},{"attributes":{"OBJECTID":18505,"LANDMARKID":"1000500000825","LANDMARKCO":"508","LANDMARKNA":"泰安川上溫泉(砂浴)","LANDMARKAD":"1000518","ADDRESS":"苗栗縣泰安鄉錦水村橫龍山68之2號","TEL":"037-941928","COUNTYNAME":"苗栗縣","TOWNNAME":"泰安鄉","MARKTYPE":"995","Class":"5"},"geometry":{"x":120.95460935748751,"y":24.467167523094808}},{"attributes":{"OBJECTID":18506,"LANDMARKID":"1000500000826","LANDMARKCO":"508","LANDMARKNA":"泰安湯悅溫泉會館","LANDMARKAD":"1000518","ADDRESS":"苗栗縣泰安鄉錦水村橫龍山45號","TEL":"037-941941","COUNTYNAME":"苗栗縣","TOWNNAME":"泰安鄉","MARKTYPE":"995","Class":"5"},"geometry":{"x":120.96916391466296,"y":24.469795624748752}},{"attributes":{"OBJECTID":18507,"LANDMARKID":"1000500000827","LANDMARKCO":"508","LANDMARKNA":"竹美山閣溫泉會館","LANDMARKAD":"1000518","ADDRESS":"苗栗縣泰安鄉錦水村橫龍山35之1號","TEL":"037-941889","COUNTYNAME":"苗栗縣","TOWNNAME":"泰安鄉","MARKTYPE":"995","Class":"5"},"geometry":{"x":120.97130478257482,"y":24.469942298469352}},{"attributes":{"OBJECTID":18508,"LANDMARKID":"1000500000828","LANDMARKCO":"508","LANDMARKNA":"日出溫泉渡假飯店","LANDMARKAD":"1000518","ADDRESS":"苗栗縣泰安鄉錦水村橫龍山34號","TEL":"037-941988","COUNTYNAME":"苗栗縣","TOWNNAME":"泰安鄉","MARKTYPE":"995","Class":"5"},"geometry":{"x":120.97150908882294,"y":24.46973774132811}},{"attributes":{"OBJECTID":18509,"LANDMARKID":"1000500000786","LANDMARKCO":"503","LANDMARKNA":"水雲瀑布","LANDMARKAD":"1000518","ADDRESS":"苗栗縣南庄鄉","TEL":" ","COUNTYNAME":"苗栗縣","TOWNNAME":"泰安鄉","MARKTYPE":"995","Class":"5"},"geometry":{"x":120.99988354486392,"y":24.470040246282835}},{"attributes":{"OBJECTID":18510,"LANDMARKID":"1000500000787","LANDMARKCO":"503","LANDMARKNA":"泰安溫泉風景區","LANDMARKAD":"1000518","ADDRESS":"苗栗縣泰安鄉錦水村","TEL":" ","COUNTYNAME":"苗栗縣","TOWNNAME":"泰安鄉","MARKTYPE":"995","Class":"5"},"geometry":{"x":120.97677643692796,"y":24.47073899926496}},{"attributes":{"OBJECTID":18511,"LANDMARKID":"1000500000834","LANDMARKCO":"513","LANDMARKNA":"雪山北峰","LANDMARKAD":"1000518","ADDRESS":"苗栗縣泰安鄉","TEL":" ","COUNTYNAME":"苗栗縣","TOWNNAME":"泰安鄉","MARKTYPE":"995","Class":"5"},"geometry":{"x":121.24041701148934,"y":24.41472710744377}},{"attributes":{"OBJECTID":18512,"LANDMARKID":"1000500000835","LANDMARKCO":"513","LANDMARKNA":"大雪山","LANDMARKAD":"1000518","ADDRESS":"苗栗縣泰安鄉","TEL":" ","COUNTYNAME":"苗栗縣","TOWNNAME":"泰安鄉","MARKTYPE":"995","Class":"5"},"geometry":{"x":121.12119631086578,"y":24.330754035425251}},{"attributes":{"OBJECTID":18513,"LANDMARKID":"1000500000836","LANDMARKCO":"513","LANDMARKNA":"小霸尖山","LANDMARKAD":"1000518","ADDRESS":"苗栗縣泰安鄉","TEL":" ","COUNTYNAME":"苗栗縣","TOWNNAME":"泰安鄉","MARKTYPE":"995","Class":"5"},"geometry":{"x":121.25206361035298,"y":24.455573223053065}},{"attributes":{"OBJECTID":18514,"LANDMARKID":"1000500000837","LANDMARKCO":"513","LANDMARKNA":"火石山","LANDMARKAD":"1000518","ADDRESS":"苗栗縣泰安鄉","TEL":" ","COUNTYNAME":"苗栗縣","TOWNNAME":"泰安鄉","MARKTYPE":"995","Class":"5"},"geometry":{"x":121.17507342888297,"y":24.381925802559817}},{"attributes":{"OBJECTID":18515,"LANDMARKID":"1000500000838","LANDMARKCO":"513","LANDMARKNA":"伊澤山","LANDMARKAD":"1000518","ADDRESS":"苗栗縣泰安鄉","TEL":" ","COUNTYNAME":"苗栗縣","TOWNNAME":"泰安鄉","MARKTYPE":"995","Class":"5"},"geometry":{"x":121.24361925327355,"y":24.469988912208986}},{"attributes":{"OBJECTID":18516,"LANDMARKID":"1000500000839","LANDMARKCO":"513","LANDMARKNA":"中雪山","LANDMARKAD":"1000518","ADDRESS":"苗栗縣泰安鄉","TEL":" ","COUNTYNAME":"苗栗縣","TOWNNAME":"泰安鄉","MARKTYPE":"995","Class":"5"},"geometry":{"x":121.07806734632291,"y":24.336481319166939}},{"attributes":{"OBJECTID":18517,"LANDMARKID":"1000500000840","LANDMARKCO":"513","LANDMARKNA":"加利山","LANDMARKAD":"1000518","ADDRESS":"苗栗縣泰安鄉","TEL":" ","COUNTYNAME":"苗栗縣","TOWNNAME":"泰安鄉","MARKTYPE":"995","Class":"5"},"geometry":{"x":121.21621663595717,"y":24.459502533859165}},{"attributes":{"OBJECTID":18518,"LANDMARKID":"1000500000841","LANDMARKCO":"513","LANDMARKNA":"馬那邦山","LANDMARKAD":"1000518","ADDRESS":"苗栗縣泰安鄉","TEL":" ","COUNTYNAME":"苗栗縣","TOWNNAME":"泰安鄉","MARKTYPE":"995","Class":"5"},"geometry":{"x":120.91422658706401,"y":24.368762231384547}},{"attributes":{"OBJECTID":18519,"LANDMARKID":"1000500000629","LANDMARKCO":"405","LANDMARKNA":"中油加油站-汶水站","LANDMARKAD":"1000508","ADDRESS":"苗栗縣大湖鄉富興村水尾41號","TEL":"03-7990511","COUNTYNAME":"苗栗縣","TOWNNAME":"大湖鄉","MARKTYPE":"994","Class":"4"},"geometry":{"x":120.87381054486185,"y":24.448822251168561}},{"attributes":{"OBJECTID":18520,"LANDMARKID":"1000500000630","LANDMARKCO":"405","LANDMARKNA":"中油加油站-大湖站(中油直營)","LANDMARKAD":"1000508","ADDRESS":"苗栗縣大湖鄉富興村2-1號","TEL":"03-7991072","COUNTYNAME":"苗栗縣","TOWNNAME":"大湖鄉","MARKTYPE":"994","Class":"4"},"geometry":{"x":120.86773625324645,"y":24.428248610063417}},{"attributes":{"OBJECTID":18521,"LANDMARKID":"1000500000553","LANDMARKCO":"401","LANDMARKNA":"大順醫院","LANDMARKAD":"1000508","ADDRESS":"苗栗縣大湖鄉大湖村中正路48之5號","TEL":"037-997666","COUNTYNAME":"苗栗縣","TOWNNAME":"大湖鄉","MARKTYPE":"994","Class":"4"},"geometry":{"x":120.86797733034834,"y":24.422307378736821}},{"attributes":{"OBJECTID":18522,"LANDMARKID":"1000500000809","LANDMARKCO":"506","LANDMARKNA":"石門休閒農場","LANDMARKAD":"1000508","ADDRESS":"苗栗縣大湖鄉栗林村15鄰八份14號","TEL":"037-951305","COUNTYNAME":"苗栗縣","TOWNNAME":"大湖鄉","MARKTYPE":"995","Class":"5"},"geometry":{"x":120.84387113775482,"y":24.363092759394757}},{"attributes":{"OBJECTID":18523,"LANDMARKID":"1000500000810","LANDMARKCO":"506","LANDMARKNA":"石門柑橘觀光果園","LANDMARKAD":"1000508","ADDRESS":"苗栗縣大湖鄉栗林村15鄰八份13號","TEL":"037-951629","COUNTYNAME":"苗栗縣","TOWNNAME":"大湖鄉","MARKTYPE":"995","Class":"5"},"geometry":{"x":120.87221633255811,"y":24.430207770005588}},{"attributes":{"OBJECTID":18524,"LANDMARKID":"1000500000811","LANDMARKCO":"506","LANDMARKNA":"雲洞山觀光果園","LANDMARKAD":"1000508","ADDRESS":"苗栗縣大湖鄉栗林村9鄰姜麻園13號","TEL":"037-951522","COUNTYNAME":"苗栗縣","TOWNNAME":"大湖鄉","MARKTYPE":"995","Class":"5"},"geometry":{"x":120.86786497731005,"y":24.431500228023165}},{"attributes":{"OBJECTID":18525,"LANDMARKID":"1000500000812","LANDMARKCO":"506","LANDMARKNA":"大湖觀光果園","LANDMARKAD":"1000508","ADDRESS":"苗栗縣大湖鄉明湖村中原路16號","TEL":"037-993232","COUNTYNAME":"苗栗縣","TOWNNAME":"大湖鄉","MARKTYPE":"995","Class":"5"},"geometry":{"x":120.86552988201572,"y":24.42769832106443}},{"attributes":{"OBJECTID":18526,"LANDMARKID":"1000500000760","LANDMARKCO":"408","LANDMARKNA":"郵局-大湖郵局","LANDMARKAD":"1000508","ADDRESS":"苗栗縣大湖鄉中正路42號","TEL":"(037)991-047","COUNTYNAME":"苗栗縣","TOWNNAME":"大湖鄉","MARKTYPE":"994","Class":"4"},"geometry":{"x":120.86801896551158,"y":24.422255260479137}},{"attributes":{"OBJECTID":18527,"LANDMARKID":"1000500000763","LANDMARKCO":"409","LANDMARKNA":"苗栗縣大湖鄉農會","LANDMARKAD":"1000508","ADDRESS":"苗栗縣大湖鄉明湖村中原路16號","TEL":"037-997075","COUNTYNAME":"苗栗縣","TOWNNAME":"大湖鄉","MARKTYPE":"994","Class":"4"},"geometry":{"x":120.86542690562604,"y":24.422899282625536}},{"attributes":{"OBJECTID":18528,"LANDMARKID":"1000500000764","LANDMARKCO":"409","LANDMARKNA":"大湖地區農會","LANDMARKAD":"1000508","ADDRESS":"苗栗縣大湖鄉富興村八寮灣2-7號","TEL":"037-99707","COUNTYNAME":"苗栗縣","TOWNNAME":"大湖鄉","MARKTYPE":"994","Class":"4"},"geometry":{"x":120.86810391997957,"y":24.428816334823896}},{"attributes":{"OBJECTID":18529,"LANDMARKID":"1000500000016","LANDMARKCO":"101","LANDMARKNA":"林務局新竹林區管理處大湖工作站","LANDMARKAD":"1000508","ADDRESS":"苗栗縣大湖鄉民生路127號","TEL":"03-7991009","COUNTYNAME":"苗栗縣","TOWNNAME":"大湖鄉","MARKTYPE":"991","Class":"1"},"geometry":{"x":120.86792414834585,"y":24.425557784897915}},{"attributes":{"OBJECTID":18530,"LANDMARKID":"1000500000072","LANDMARKCO":"106","LANDMARKNA":"苗栗縣大湖鄉戶政事務所","LANDMARKAD":"1000508","ADDRESS":"苗栗縣大湖鄉明湖村13鄰中原路56號","TEL":"037-992114","COUNTYNAME":"苗栗縣","TOWNNAME":"大湖鄉","MARKTYPE":"991","Class":"1"},"geometry":{"x":120.86612908584775,"y":24.424293036937883}},{"attributes":{"OBJECTID":18531,"LANDMARKID":"1000500000184","LANDMARKCO":"107","LANDMARKNA":"苗栗縣警察局大湖分局","LANDMARKAD":"1000508","ADDRESS":"苗栗縣大湖鄉明湖村中正路78號","TEL":"037-991006","COUNTYNAME":"苗栗縣","TOWNNAME":"大湖鄉","MARKTYPE":"991","Class":"1"},"geometry":{"x":120.86626014142648,"y":24.422938907583291}},{"attributes":{"OBJECTID":18532,"LANDMARKID":"1000500000185","LANDMARKCO":"107","LANDMARKNA":"苗栗縣警察局大湖派出所","LANDMARKAD":"1000508","ADDRESS":"苗栗縣大湖鄉大湖村5鄰中正路78號","TEL":"037-991041","COUNTYNAME":"苗栗縣","TOWNNAME":"大湖鄉","MARKTYPE":"991","Class":"1"},"geometry":{"x":120.86626014142648,"y":24.422938907583291}},{"attributes":{"OBJECTID":18533,"LANDMARKID":"1000500000186","LANDMARKCO":"107","LANDMARKNA":"苗栗縣警察局南湖派出所","LANDMARKAD":"1000508","ADDRESS":"苗栗縣大湖鄉南湖村7鄰南昌路132號","TEL":"037-991547","COUNTYNAME":"苗栗縣","TOWNNAME":"大湖鄉","MARKTYPE":"991","Class":"1"},"geometry":{"x":120.86614385529273,"y":24.402894159611311}},{"attributes":{"OBJECTID":18534,"LANDMARKID":"1000500000187","LANDMARKCO":"107","LANDMARKNA":"苗栗縣消防局大湖消防分隊","LANDMARKAD":"1000508","ADDRESS":"苗栗縣大湖鄉中正路76號","TEL":"037-991182","COUNTYNAME":"苗栗縣","TOWNNAME":"大湖鄉","MARKTYPE":"991","Class":"1"},"geometry":{"x":120.86646741901207,"y":24.422848983287814}},{"attributes":{"OBJECTID":18535,"LANDMARKID":"1000500000020","LANDMARKCO":"103","LANDMARKNA":"苗栗縣大湖鄉衛生所","LANDMARKAD":"1000508","ADDRESS":"苗栗縣大湖鄉明湖村中原路87號","TEL":"037-991034","COUNTYNAME":"苗栗縣","TOWNNAME":"大湖鄉","MARKTYPE":"991","Class":"1"},"geometry":{"x":120.86571490171036,"y":24.424292303415228}},{"attributes":{"OBJECTID":18536,"LANDMARKID":"1000500000190","LANDMARKCO":"108","LANDMARKNA":"苗栗縣大湖鄉公所","LANDMARKAD":"1000508","ADDRESS":"苗栗縣大湖鄉明湖村中正路80號","TEL":"037-991111","COUNTYNAME":"苗栗縣","TOWNNAME":"大湖鄉","MARKTYPE":"991","Class":"1"},"geometry":{"x":120.8660530535367,"y":24.422938542057118}},{"attributes":{"OBJECTID":18537,"LANDMARKID":"1000500000021","LANDMARKCO":"103","LANDMARKNA":"苗栗縣大湖鄉民代表會","LANDMARKAD":"1000508","ADDRESS":"苗栗縣大湖鄉中正路80號2樓","TEL":"037-991024","COUNTYNAME":"苗栗縣","TOWNNAME":"大湖鄉","MARKTYPE":"991","Class":"1"},"geometry":{"x":120.86606291481836,"y":24.42293855891057}},{"attributes":{"OBJECTID":18538,"LANDMARKID":"1000500000188","LANDMARKCO":"107","LANDMARKNA":"苗栗縣警察局校林派出所","LANDMARKAD":"1000508","ADDRESS":"苗栗縣大湖鄉栗林村5鄰4份62之1號","TEL":"037-951337","COUNTYNAME":"苗栗縣","TOWNNAME":"大湖鄉","MARKTYPE":"991","Class":"1"},"geometry":{"x":120.84191677118373,"y":24.372441002972028}},{"attributes":{"OBJECTID":18539,"LANDMARKID":"1000500000189","LANDMARKCO":"107","LANDMARKNA":"國家公園警察大隊雪霸國家公園","LANDMARKAD":"1000508","ADDRESS":"苗栗縣大湖鄉富興村水尾坪99號","TEL":"037-996280","COUNTYNAME":"苗栗縣","TOWNNAME":"大湖鄉","MARKTYPE":"991","Class":"1"},"geometry":{"x":120.86954420046895,"y":24.431788222099478}},{"attributes":{"OBJECTID":18540,"LANDMARKID":"1000500000071","LANDMARKCO":"105","LANDMARKNA":"苗栗縣大湖地政事務所","LANDMARKAD":"1000508","ADDRESS":"苗栗縣大湖鄉明湖村博愛路35號","TEL":"037-994101","COUNTYNAME":"苗栗縣","TOWNNAME":"大湖鄉","MARKTYPE":"991","Class":"1"},"geometry":{"x":120.86620931105539,"y":24.423661144142969}},{"attributes":{"OBJECTID":18541,"LANDMARKID":"1000500000412","LANDMARKCO":"204","LANDMARKNA":"苗栗縣立圖書館大湖分館","LANDMARKAD":"1000508","ADDRESS":"苗栗縣大湖鄉大湖村民族路40之2號","TEL":" ","COUNTYNAME":"苗栗縣","TOWNNAME":"大湖鄉","MARKTYPE":"992","Class":"2"},"geometry":{"x":120.86950899294044,"y":24.423240080066776}},{"attributes":{"OBJECTID":18542,"LANDMARKID":"1000500000240","LANDMARKCO":"203","LANDMARKNA":"縣立大湖國小","LANDMARKAD":"1000508","ADDRESS":"苗栗縣大湖鄉中正路育英巷11號","TEL":"037-991008","COUNTYNAME":"苗栗縣","TOWNNAME":"大湖鄉","MARKTYPE":"992","Class":"2"},"geometry":{"x":120.87039215737482,"y":24.421496555025456}},{"attributes":{"OBJECTID":18543,"LANDMARKID":"1000500000241","LANDMARKCO":"203","LANDMARKNA":"縣立南湖國小","LANDMARKAD":"1000508","ADDRESS":"苗栗縣大湖鄉義和村南昌路5號","TEL":"037-991462","COUNTYNAME":"苗栗縣","TOWNNAME":"大湖鄉","MARKTYPE":"992","Class":"2"},"geometry":{"x":120.86630602740965,"y":24.398018738245227}},{"attributes":{"OBJECTID":18544,"LANDMARKID":"1000500000231","LANDMARKCO":"202","LANDMARKNA":"國立大湖農工","LANDMARKAD":"1000508","ADDRESS":"苗栗縣大湖鄉大寮村竹高屋68號","TEL":"037-992216","COUNTYNAME":"苗栗縣","TOWNNAME":"大湖鄉","MARKTYPE":"992","Class":"2"},"geometry":{"x":120.86108602852173,"y":24.4201356758823}},{"attributes":{"OBJECTID":18545,"LANDMARKID":"1000500000232","LANDMARKCO":"203","LANDMARKNA":"縣立大湖國中","LANDMARKAD":"1000508","ADDRESS":"苗栗縣大湖鄉靜湖村80號","TEL":"037-991022","COUNTYNAME":"苗栗縣","TOWNNAME":"大湖鄉","MARKTYPE":"992","Class":"2"},"geometry":{"x":120.8711954264068,"y":24.426915363221806}},{"attributes":{"OBJECTID":18546,"LANDMARKID":"1000500000233","LANDMARKCO":"203","LANDMARKNA":"縣立南湖國中","LANDMARKAD":"1000508","ADDRESS":"苗栗縣大湖鄉義和村12號","TEL":"037-992956","COUNTYNAME":"苗栗縣","TOWNNAME":"大湖鄉","MARKTYPE":"992","Class":"2"},"geometry":{"x":120.86794344142891,"y":24.397657977261467}},{"attributes":{"OBJECTID":18547,"LANDMARKID":"1000500000234","LANDMARKCO":"203","LANDMARKNA":"縣立新開國小","LANDMARKAD":"1000508","ADDRESS":"苗栗縣大湖鄉新開村25號","TEL":"037-950210","COUNTYNAME":"苗栗縣","TOWNNAME":"大湖鄉","MARKTYPE":"992","Class":"2"},"geometry":{"x":120.82627600898316,"y":24.348046455935314}},{"attributes":{"OBJECTID":18548,"LANDMARKID":"1000500000235","LANDMARKCO":"203","LANDMARKNA":"縣立栗林國小","LANDMARKAD":"1000508","ADDRESS":"苗栗縣大湖鄉栗林村四份61號","TEL":"037-951335","COUNTYNAME":"苗栗縣","TOWNNAME":"大湖鄉","MARKTYPE":"992","Class":"2"},"geometry":{"x":120.8429681632401,"y":24.37379755815353}},{"attributes":{"OBJECTID":18549,"LANDMARKID":"1000500000236","LANDMARKCO":"203","LANDMARKNA":"縣立東興國小","LANDMARKAD":"1000508","ADDRESS":"苗栗縣大湖鄉東興村下湖37號","TEL":"037-992815","COUNTYNAME":"苗栗縣","TOWNNAME":"大湖鄉","MARKTYPE":"992","Class":"2"},"geometry":{"x":120.88251199867742,"y":24.380605380534767}},{"attributes":{"OBJECTID":18550,"LANDMARKID":"1000500000237","LANDMARKCO":"203","LANDMARKNA":"縣立大南國小","LANDMARKAD":"1000508","ADDRESS":"苗栗縣大湖鄉大南村大南勢15號","TEL":"037-992813","COUNTYNAME":"苗栗縣","TOWNNAME":"大湖鄉","MARKTYPE":"992","Class":"2"},"geometry":{"x":120.90227269622491,"y":24.410325110722273}},{"attributes":{"OBJECTID":18551,"LANDMARKID":"1000500000238","LANDMARKCO":"203","LANDMARKNA":"縣立華興國小","LANDMARKAD":"1000508","ADDRESS":"苗栗縣大湖鄉富興村水尾2號","TEL":"037-991326","COUNTYNAME":"苗栗縣","TOWNNAME":"大湖鄉","MARKTYPE":"992","Class":"2"},"geometry":{"x":120.87454064427209,"y":24.444164094365796}},{"attributes":{"OBJECTID":18552,"LANDMARKID":"1000500000239","LANDMARKCO":"203","LANDMARKNA":"縣立武榮國小","LANDMARKAD":"1000508","ADDRESS":"苗栗縣大湖鄉義和村淋漓坪77號","TEL":"037-992816","COUNTYNAME":"苗栗縣","TOWNNAME":"大湖鄉","MARKTYPE":"992","Class":"2"},"geometry":{"x":120.86747383977165,"y":24.382849434084356}},{"attributes":{"OBJECTID":18553,"LANDMARKID":"1000500000441","LANDMARKCO":"302","LANDMARKNA":"新竹汽車客運大湖站","LANDMARKAD":"1000508","ADDRESS":"苗栗縣大湖鄉信義路15號之1","TEL":" ","COUNTYNAME":"苗栗縣","TOWNNAME":"大湖鄉","MARKTYPE":"993","Class":"302"},"geometry":{"x":120.87074906643387,"y":24.426039263369123}},{"attributes":{"OBJECTID":18554,"LANDMARKID":"1000500000462","LANDMARKCO":"303","LANDMARKNA":"雲洞山休閒農業區停車場","LANDMARKAD":"1000508","ADDRESS":"苗栗縣大湖鄉","TEL":" ","COUNTYNAME":"苗栗縣","TOWNNAME":"大湖鄉","MARKTYPE":"993","Class":"303"},"geometry":{"x":120.82509790874676,"y":24.387692326035033}},{"attributes":{"OBJECTID":18555,"LANDMARKID":"1000500000463","LANDMARKCO":"303","LANDMARKNA":"雪霸停車場","LANDMARKAD":"1000508","ADDRESS":"苗栗縣大湖鄉","TEL":" ","COUNTYNAME":"苗栗縣","TOWNNAME":"大湖鄉","MARKTYPE":"993","Class":"303"},"geometry":{"x":120.87492900624952,"y":24.454661027774929}},{"attributes":{"OBJECTID":18556,"LANDMARKID":"1000500000464","LANDMARKCO":"303","LANDMARKNA":"第二停車場","LANDMARKAD":"1000508","ADDRESS":"苗栗縣大湖鄉","TEL":" ","COUNTYNAME":"苗栗縣","TOWNNAME":"大湖鄉","MARKTYPE":"993","Class":"303"},"geometry":{"x":120.89042139089291,"y":24.374330641075719}},{"attributes":{"OBJECTID":18557,"LANDMARKID":"1000500000465","LANDMARKCO":"303","LANDMARKNA":"第三停車場","LANDMARKAD":"1000508","ADDRESS":"苗栗縣大湖鄉","TEL":" ","COUNTYNAME":"苗栗縣","TOWNNAME":"大湖鄉","MARKTYPE":"993","Class":"303"},"geometry":{"x":120.89647551279435,"y":24.377402786386192}},{"attributes":{"OBJECTID":18558,"LANDMARKID":"1000500000466","LANDMARKCO":"303","LANDMARKNA":"大湖鄉雲洞山停車場","LANDMARKAD":"1000508","ADDRESS":"苗栗縣大湖鄉東林村","TEL":" ","COUNTYNAME":"苗栗縣","TOWNNAME":"大湖鄉","MARKTYPE":"993","Class":"303"},"geometry":{"x":120.86708217137338,"y":24.426942138476704}},{"attributes":{"OBJECTID":18559,"LANDMARKID":"1000500000930","LANDMARKCO":"604","LANDMARKNA":"儷舍民宿","LANDMARKAD":"1000508","ADDRESS":"苗栗縣大湖鄉南湖村南昌路護安巷58-11號","TEL":"037-996377","COUNTYNAME":"苗栗縣","TOWNNAME":"大湖鄉","MARKTYPE":"996","Class":"6"},"geometry":{"x":120.86849225289319,"y":24.401686671773223}},{"attributes":{"OBJECTID":18560,"LANDMARKID":"1000500000931","LANDMARKCO":"604","LANDMARKNA":"大窩渡假山莊","LANDMARKAD":"1000508","ADDRESS":"苗栗縣大湖鄉大寮村大窩11號","TEL":"037-996088","COUNTYNAME":"苗栗縣","TOWNNAME":"大湖鄉","MARKTYPE":"996","Class":"6"},"geometry":{"x":120.87482646115785,"y":24.404339250471903}},{"attributes":{"OBJECTID":18561,"LANDMARKID":"1000500000932","LANDMARKCO":"604","LANDMARKNA":"富錸民宿","LANDMARKAD":"1000508","ADDRESS":"苗栗縣大湖鄉東興村上湖99號","TEL":"037-997966","COUNTYNAME":"苗栗縣","TOWNNAME":"大湖鄉","MARKTYPE":"996","Class":"6"},"geometry":{"x":120.89189123579325,"y":24.37867723590184}},{"attributes":{"OBJECTID":18562,"LANDMARKID":"1000500000933","LANDMARKCO":"604","LANDMARKNA":"馬拉邦山莊","LANDMARKAD":"1000508","ADDRESS":"苗栗縣大湖鄉東興村上湖87號","TEL":"037-996869","COUNTYNAME":"苗栗縣","TOWNNAME":"大湖鄉","MARKTYPE":"996","Class":"6"},"geometry":{"x":120.90016579072946,"y":24.364155184400641}},{"attributes":{"OBJECTID":18563,"LANDMARKID":"1000500000934","LANDMARKCO":"604","LANDMARKNA":"山水居","LANDMARKAD":"1000508","ADDRESS":"苗栗縣大湖鄉栗林村佛陀山路5-3號","TEL":"0928-250191","COUNTYNAME":"苗栗縣","TOWNNAME":"大湖鄉","MARKTYPE":"996","Class":"6"},"geometry":{"x":120.83289841123462,"y":24.377730676611904}},{"attributes":{"OBJECTID":18564,"LANDMARKID":"1000500000935","LANDMARKCO":"604","LANDMARKNA":"菊園","LANDMARKAD":"1000508","ADDRESS":"苗栗縣大湖鄉栗林村薑麻園13號","TEL":"037-951522","COUNTYNAME":"苗栗縣","TOWNNAME":"大湖鄉","MARKTYPE":"996","Class":"6"},"geometry":{"x":120.8242952677607,"y":24.387364493674148}},{"attributes":{"OBJECTID":18565,"LANDMARKID":"1000500000936","LANDMARKCO":"604","LANDMARKNA":"馨享士宸","LANDMARKAD":"1000508","ADDRESS":"苗栗縣大湖鄉新開村十份11-1號","TEL":"037-951177","COUNTYNAME":"苗栗縣","TOWNNAME":"大湖鄉","MARKTYPE":"996","Class":"6"},"geometry":{"x":120.78139686865006,"y":24.349628289465013}},{"attributes":{"OBJECTID":18566,"LANDMARKID":"1000500000937","LANDMARKCO":"604","LANDMARKNA":"湖畔花時間","LANDMARKAD":"1000508","ADDRESS":"苗栗縣大湖鄉義和村淋漓坪126號","TEL":"037-996795","COUNTYNAME":"苗栗縣","TOWNNAME":"大湖鄉","MARKTYPE":"996","Class":"6"},"geometry":{"x":120.8603305728181,"y":24.387409929376954}},{"attributes":{"OBJECTID":18567,"LANDMARKID":"1000500000843","LANDMARKCO":"603","LANDMARKNA":"錦興旅社","LANDMARKAD":"1000508","ADDRESS":"苗栗縣大湖鄉大湖村民生路62號之7","TEL":"037-991116","COUNTYNAME":"苗栗縣","TOWNNAME":"大湖鄉","MARKTYPE":"996","Class":"6"},"geometry":{"x":120.86699282000214,"y":24.423347362520158}},{"attributes":{"OBJECTID":18568,"LANDMARKID":"1000500000819","LANDMARKCO":"508","LANDMARKNA":"石壁溫泉山莊","LANDMARKAD":"1000508","ADDRESS":"苗栗縣大湖鄉法雲寺5之3號","TEL":"037-990413","COUNTYNAME":"苗栗縣","TOWNNAME":"大湖鄉","MARKTYPE":"995","Class":"5"},"geometry":{"x":120.87439578368098,"y":24.454614286725221}},{"attributes":{"OBJECTID":18569,"LANDMARKID":"1000500000613","LANDMARKCO":"405","LANDMARKNA":"中油加油站-裕源站","LANDMARKAD":"1000513","ADDRESS":"苗栗縣三義鄉西湖村伯公坑56號","TEL":"03--874996","COUNTYNAME":"苗栗縣","TOWNNAME":"三義鄉","MARKTYPE":"994","Class":"4"},"geometry":{"x":120.74961196750449,"y":24.377551079174157}},{"attributes":{"OBJECTID":18570,"LANDMARKID":"1000500000614","LANDMARKCO":"405","LANDMARKNA":"中油加油站-車亭站","LANDMARKAD":"1000513","ADDRESS":"苗栗縣三義鄉西湖村下湖5-9號","TEL":"037-875000","COUNTYNAME":"苗栗縣","TOWNNAME":"三義鄉","MARKTYPE":"994","Class":"4"},"geometry":{"x":120.76557509481005,"y":24.379950781941975}},{"attributes":{"OBJECTID":18571,"LANDMARKID":"1000500000615","LANDMARKCO":"405","LANDMARKNA":"中油加油站-三義站(中油直營)","LANDMARKAD":"1000513","ADDRESS":"苗栗縣三義鄉廣義村中正路146號","TEL":"03-7872204","COUNTYNAME":"苗栗縣","TOWNNAME":"三義鄉","MARKTYPE":"994","Class":"4"},"geometry":{"x":120.77023425650309,"y":24.412098053830793}},{"attributes":{"OBJECTID":18572,"LANDMARKID":"1000500000813","LANDMARKCO":"507","LANDMARKNA":"勝興火車站","LANDMARKAD":"1000513","ADDRESS":"苗栗縣三義鄉勝興村89號","TEL":" ","COUNTYNAME":"苗栗縣","TOWNNAME":"三義鄉","MARKTYPE":"995","Class":"5"},"geometry":{"x":120.78213434941534,"y":24.387186917648911}},{"attributes":{"OBJECTID":18573,"LANDMARKID":"1000500000758","LANDMARKCO":"408","LANDMARKNA":"郵局-三義郵局","LANDMARKAD":"1000513","ADDRESS":"苗栗縣三義鄉中正路101號","TEL":"(037)872-142","COUNTYNAME":"苗栗縣","TOWNNAME":"三義鄉","MARKTYPE":"994","Class":"4"},"geometry":{"x":120.772549275055,"y":24.414293567859637}},{"attributes":{"OBJECTID":18574,"LANDMARKID":"1000500000765","LANDMARKCO":"409","LANDMARKNA":"苗栗縣三義鄉農會","LANDMARKAD":"1000513","ADDRESS":"苗栗縣三義鄉廣盛村中正路80號","TEL":"037-872001","COUNTYNAME":"苗栗縣","TOWNNAME":"三義鄉","MARKTYPE":"994","Class":"4"},"geometry":{"x":120.7733000744537,"y":24.41742763592482}},{"attributes":{"OBJECTID":18575,"LANDMARKID":"1000500000616","LANDMARKCO":"405","LANDMARKNA":"台塑加油站-火炎山站(台塑)","LANDMARKAD":"1000513","ADDRESS":"苗栗縣三義鄉西湖村伯公坑36-2號","TEL":"03-7870633","COUNTYNAME":"苗栗縣","TOWNNAME":"三義鄉","MARKTYPE":"994","Class":"4"},"geometry":{"x":120.74415564608084,"y":24.367676727046383}},{"attributes":{"OBJECTID":18576,"LANDMARKID":"1000500000183","LANDMARKCO":"107","LANDMARKNA":"苗栗縣消防局三義消防分隊","LANDMARKAD":"1000513","ADDRESS":"苗栗縣三義鄉復興路69號","TEL":"037-872119","COUNTYNAME":"苗栗縣","TOWNNAME":"三義鄉","MARKTYPE":"991","Class":"1"},"geometry":{"x":120.77013887510837,"y":24.412709871289767}},{"attributes":{"OBJECTID":18577,"LANDMARKID":"1000500000018","LANDMARKCO":"103","LANDMARKNA":"苗栗縣三義鄉衛生所","LANDMARKAD":"1000513","ADDRESS":"苗栗縣三義鄉廣盛村復興路45號","TEL":"037-872014","COUNTYNAME":"苗栗縣","TOWNNAME":"三義鄉","MARKTYPE":"991","Class":"1"},"geometry":{"x":120.77086561970164,"y":24.41352469090436}},{"attributes":{"OBJECTID":18578,"LANDMARKID":"1000500000191","LANDMARKCO":"108","LANDMARKNA":"苗栗縣三義鄉公所","LANDMARKAD":"1000513","ADDRESS":"苗栗縣三義鄉廣盛村復興路30號","TEL":"037-872801","COUNTYNAME":"苗栗縣","TOWNNAME":"三義鄉","MARKTYPE":"991","Class":"1"},"geometry":{"x":120.77021710516777,"y":24.412890690050816}},{"attributes":{"OBJECTID":18579,"LANDMARKID":"1000500000019","LANDMARKCO":"103","LANDMARKNA":"苗栗縣三義鄉民代表會","LANDMARKAD":"1000513","ADDRESS":"苗栗縣三義鄉復興路30號","TEL":"037-872069","COUNTYNAME":"苗栗縣","TOWNNAME":"三義鄉","MARKTYPE":"991","Class":"1"},"geometry":{"x":120.77026608120954,"y":24.412981129728678}},{"attributes":{"OBJECTID":18580,"LANDMARKID":"1000500000017","LANDMARKCO":"101","LANDMARKNA":"水利署中區水資源局鯉管中心","LANDMARKAD":"1000513","ADDRESS":"苗栗縣三義鄉鯉魚村三櫃106號","TEL":"037-881250","COUNTYNAME":"苗栗縣","TOWNNAME":"三義鄉","MARKTYPE":"991","Class":"1"},"geometry":{"x":120.77322527356419,"y":24.336509468255723}},{"attributes":{"OBJECTID":18581,"LANDMARKID":"1000500000073","LANDMARKCO":"106","LANDMARKNA":"苗栗縣三義鄉戶政事務所","LANDMARKAD":"1000513","ADDRESS":"苗栗縣三義鄉廣盛村7鄰廣盛83號","TEL":"037-872004","COUNTYNAME":"苗栗縣","TOWNNAME":"三義鄉","MARKTYPE":"991","Class":"1"},"geometry":{"x":120.77029598959204,"y":24.412890929847681}},{"attributes":{"OBJECTID":18582,"LANDMARKID":"1000500000180","LANDMARKCO":"107","LANDMARKNA":"苗栗縣警察局鯉魚派出所","LANDMARKAD":"1000513","ADDRESS":"苗栗縣三義鄉鯉魚口54之1號","TEL":"037-881040","COUNTYNAME":"苗栗縣","TOWNNAME":"三義鄉","MARKTYPE":"991","Class":"1"},"geometry":{"x":120.73676827701549,"y":24.356946316481345}},{"attributes":{"OBJECTID":18583,"LANDMARKID":"1000500000181","LANDMARKCO":"107","LANDMARKNA":"苗栗縣警察局龍騰派出所","LANDMARKAD":"1000513","ADDRESS":"苗栗縣三義鄉西湖村伯公坑41號","TEL":"037-872396","COUNTYNAME":"苗栗縣","TOWNNAME":"三義鄉","MARKTYPE":"991","Class":"1"},"geometry":{"x":120.74192098320808,"y":24.36787966013484}},{"attributes":{"OBJECTID":18584,"LANDMARKID":"1000500000182","LANDMARKCO":"107","LANDMARKNA":"苗栗縣警察局三義分駐所","LANDMARKAD":"1000513","ADDRESS":"苗栗縣三義鄉廣盛村90號","TEL":"037-872003","COUNTYNAME":"苗栗縣","TOWNNAME":"三義鄉","MARKTYPE":"991","Class":"1"},"geometry":{"x":120.76972473371501,"y":24.4127086126027}},{"attributes":{"OBJECTID":18585,"LANDMARKID":"1000500000413","LANDMARKCO":"205","LANDMARKNA":"三義木雕博物館","LANDMARKAD":"1000513","ADDRESS":"苗栗縣三義鄉廣盛村廣聲新城88號","TEL":"(037)876-009","COUNTYNAME":"苗栗縣","TOWNNAME":"三義鄉","MARKTYPE":"992","Class":"2"},"geometry":{"x":120.76111471581029,"y":24.405965679669869}},{"attributes":{"OBJECTID":18586,"LANDMARKID":"1000500000414","LANDMARKCO":"205","LANDMARKNA":"台灣藝術博物館","LANDMARKAD":"1000513","ADDRESS":"苗栗縣三義鄉水美路95號","TEL":" ","COUNTYNAME":"苗栗縣","TOWNNAME":"三義鄉","MARKTYPE":"992","Class":"2"},"geometry":{"x":120.76017267176576,"y":24.397085081366406}},{"attributes":{"OBJECTID":18587,"LANDMARKID":"1000500000410","LANDMARKCO":"204","LANDMARKNA":"苗栗縣立圖書館三義分館","LANDMARKAD":"1000513","ADDRESS":"苗栗縣三義鄉新生路9之21號","TEL":" ","COUNTYNAME":"苗栗縣","TOWNNAME":"三義鄉","MARKTYPE":"992","Class":"2"},"geometry":{"x":120.77352007323509,"y":24.414616856258604}},{"attributes":{"OBJECTID":18588,"LANDMARKID":"1000500000242","LANDMARKCO":"203","LANDMARKNA":"縣立三義國中","LANDMARKAD":"1000513","ADDRESS":"苗栗縣三義鄉廣盛村122號","TEL":"037-872015","COUNTYNAME":"苗栗縣","TOWNNAME":"三義鄉","MARKTYPE":"992","Class":"2"},"geometry":{"x":120.76558751198641,"y":24.410176345688658}},{"attributes":{"OBJECTID":18589,"LANDMARKID":"1000500000243","LANDMARKCO":"203","LANDMARKNA":"縣立僑成國小","LANDMARKAD":"1000513","ADDRESS":"苗栗縣三義鄉勝興村二份220號","TEL":"037-872041","COUNTYNAME":"苗栗縣","TOWNNAME":"三義鄉","MARKTYPE":"992","Class":"2"},"geometry":{"x":120.76552458718027,"y":24.401688845470158}},{"attributes":{"OBJECTID":18590,"LANDMARKID":"1000500000244","LANDMARKCO":"203","LANDMARKNA":"縣立建中國小","LANDMARKAD":"1000513","ADDRESS":"苗栗縣三義鄉廣盛村80號","TEL":"037-872007","COUNTYNAME":"苗栗縣","TOWNNAME":"三義鄉","MARKTYPE":"992","Class":"2"},"geometry":{"x":120.76954769844669,"y":24.413972135251804}},{"attributes":{"OBJECTID":18591,"LANDMARKID":"1000500000245","LANDMARKCO":"203","LANDMARKNA":"縣立鯉魚國小","LANDMARKAD":"1000513","ADDRESS":"苗栗縣三義鄉鯉魚村上山下24號","TEL":"037-881154","COUNTYNAME":"苗栗縣","TOWNNAME":"三義鄉","MARKTYPE":"992","Class":"2"},"geometry":{"x":120.7668515010988,"y":24.344083063109704}},{"attributes":{"OBJECTID":18592,"LANDMARKID":"1000500000246","LANDMARKCO":"203","LANDMARKNA":"縣立育英國小","LANDMARKAD":"1000513","ADDRESS":"苗栗縣三義鄉西湖村上湖63號","TEL":"037-872934","COUNTYNAME":"苗栗縣","TOWNNAME":"三義鄉","MARKTYPE":"992","Class":"2"},"geometry":{"x":120.75925892654683,"y":24.382807210659127}},{"attributes":{"OBJECTID":18593,"LANDMARKID":"1000500000247","LANDMARKCO":"203","LANDMARKNA":"縣立育英國小龍騰分校","LANDMARKAD":"1000513","ADDRESS":"苗栗縣三義鄉龍騰村外庄49號","TEL":"037-881153","COUNTYNAME":"苗栗縣","TOWNNAME":"三義鄉","MARKTYPE":"992","Class":"2"},"geometry":{"x":120.77675325480146,"y":24.357463355155947}},{"attributes":{"OBJECTID":18594,"LANDMARKID":"1000500000551","LANDMARKCO":"308","LANDMARKNA":"國1-三義交流道-北上","LANDMARKAD":"1000513","ADDRESS":"苗栗縣三義鄉","TEL":" ","COUNTYNAME":"苗栗縣","TOWNNAME":"三義鄉","MARKTYPE":"993","Class":"308"},"geometry":{"x":120.75954163499921,"y":24.394004228009038}},{"attributes":{"OBJECTID":18595,"LANDMARKID":"1000500000552","LANDMARKCO":"308","LANDMARKNA":"國1-三義交流道-南下","LANDMARKAD":"1000513","ADDRESS":"苗栗縣三義鄉","TEL":" ","COUNTYNAME":"苗栗縣","TOWNNAME":"三義鄉","MARKTYPE":"993","Class":"308"},"geometry":{"x":120.75674313745479,"y":24.391432729679465}},{"attributes":{"OBJECTID":18596,"LANDMARKID":"1000500000467","LANDMARKCO":"303","LANDMARKNA":"三義鄉公有停車場","LANDMARKAD":"1000513","ADDRESS":"苗栗縣三義鄉","TEL":" ","COUNTYNAME":"苗栗縣","TOWNNAME":"三義鄉","MARKTYPE":"993","Class":"303"},"geometry":{"x":120.77123142203902,"y":24.413844638300013}},{"attributes":{"OBJECTID":18597,"LANDMARKID":"1000500000468","LANDMARKCO":"303","LANDMARKNA":"勝興村停車場","LANDMARKAD":"1000513","ADDRESS":"苗栗縣三義鄉","TEL":" ","COUNTYNAME":"苗栗縣","TOWNNAME":"三義鄉","MARKTYPE":"993","Class":"303"},"geometry":{"x":120.77832491769942,"y":24.393951199632379}},{"attributes":{"OBJECTID":18598,"LANDMARKID":"1000500000469","LANDMARKCO":"303","LANDMARKNA":"雙潭觀光農園停車場","LANDMARKAD":"1000513","ADDRESS":"苗栗縣三義鄉","TEL":" ","COUNTYNAME":"苗栗縣","TOWNNAME":"三義鄉","MARKTYPE":"993","Class":"303"},"geometry":{"x":120.8055801845171,"y":24.384143670512113}},{"attributes":{"OBJECTID":18599,"LANDMARKID":"1000500000470","LANDMARKCO":"303","LANDMARKNA":"三義鄉水尾溪坤慶橋下停車場","LANDMARKAD":"1000513","ADDRESS":"苗栗縣三義鄉廣盛村","TEL":" ","COUNTYNAME":"苗栗縣","TOWNNAME":"三義鄉","MARKTYPE":"993","Class":"303"},"geometry":{"x":120.77034422928018,"y":24.412037294522445}},{"attributes":{"OBJECTID":18600,"LANDMARKID":"1000500000438","LANDMARKCO":"301","LANDMARKNA":"勝興火車站(閒)","LANDMARKAD":"1000513","ADDRESS":"苗栗縣三義鄉","TEL":" ","COUNTYNAME":"苗栗縣","TOWNNAME":"三義鄉","MARKTYPE":"993","Class":"301"},"geometry":{"x":120.78185045661746,"y":24.387976450355538}}]}