{"displayFieldName":"COUNTYNAME","fieldAliases":{"OBJECTID":"OBJECTID","LANDMARKID":"LANDMARKID","LANDMARKCO":"LANDMARKCO","LANDMARKNA":"LANDMARKNA","LANDMARKAD":"LANDMARKAD","ADDRESS":"ADDRESS","TEL":"TEL","COUNTYNAME":"COUNTYNAME","TOWNNAME":"TOWNNAME","MARKTYPE":"MARKTYPE","Class":"Class"},"geometryType":"esriGeometryPoint","spatialReference":{"wkid":102443},"fields":[{"name":"OBJECTID","type":"esriFieldTypeOID","alias":"OBJECTID"},{"name":"LANDMARKID","type":"esriFieldTypeString","alias":"LANDMARKID","length":15},{"name":"LANDMARKCO","type":"esriFieldTypeString","alias":"LANDMARKCO","length":15},{"name":"LANDMARKNA","type":"esriFieldTypeString","alias":"LANDMARKNA","length":50},{"name":"LANDMARKAD","type":"esriFieldTypeString","alias":"LANDMARKAD","length":15},{"name":"ADDRESS","type":"esriFieldTypeString","alias":"ADDRESS","length":56},{"name":"TEL","type":"esriFieldTypeString","alias":"TEL","length":36},{"name":"COUNTYNAME","type":"esriFieldTypeString","alias":"COUNTYNAME","length":15},{"name":"TOWNNAME","type":"esriFieldTypeString","alias":"TOWNNAME","length":13},{"name":"MARKTYPE","type":"esriFieldTypeString","alias":"MARKTYPE","length":12},{"name":"Class","type":"esriFieldTypeString","alias":"Class","length":5}],"features":[{"attributes":{"OBJECTID":24601,"LANDMARKID":"1001500000715","LANDMARKCO":"408","LANDMARKNA":"郵局-富里郵局","LANDMARKAD":"1001510","ADDRESS":"花蓮縣富里鄉中山路169號","TEL":"(03)8831-053","COUNTYNAME":"花蓮縣","TOWNNAME":"富里鄉","MARKTYPE":"994","Class":"4"},"geometry":{"x":275415.49770000018,"y":2563850.4221999999}},{"attributes":{"OBJECTID":24602,"LANDMARKID":"1001500000716","LANDMARKCO":"408","LANDMARKNA":"郵局-富里東里郵局","LANDMARKAD":"1001510","ADDRESS":"花蓮縣富里鄉東里村道化路9號","TEL":"(03)8861-601","COUNTYNAME":"花蓮縣","TOWNNAME":"富里鄉","MARKTYPE":"994","Class":"4"},"geometry":{"x":275415.49770000018,"y":2563850.4221999999}},{"attributes":{"OBJECTID":24603,"LANDMARKID":"1001500000718","LANDMARKCO":"409","LANDMARKNA":"花蓮縣富里鄉農會","LANDMARKAD":"1001510","ADDRESS":"花蓮縣富里鄉中山路135號","TEL":"03-8832111","COUNTYNAME":"花蓮縣","TOWNNAME":"富里鄉","MARKTYPE":"994","Class":"4"},"geometry":{"x":274335.36029999983,"y":2560563.1437999997}},{"attributes":{"OBJECTID":24604,"LANDMARKID":"1001500000639","LANDMARKCO":"405","LANDMARKNA":"台塑加油站-富麗站(台塑)","LANDMARKAD":"1001510","ADDRESS":"花蓮縣富里鄉竹田村2鄰東竹30號-9","TEL":"03-8821988","COUNTYNAME":"花蓮縣","TOWNNAME":"富里鄉","MARKTYPE":"994","Class":"4"},"geometry":{"x":278867.96490000002,"y":2568986.1515999995}},{"attributes":{"OBJECTID":24605,"LANDMARKID":"1001500000239","LANDMARKCO":"108","LANDMARKNA":"花蓮縣富里鄉公所","LANDMARKAD":"1001510","ADDRESS":"花蓮縣富里鄉中山路376號","TEL":"03-8831111","COUNTYNAME":"花蓮縣","TOWNNAME":"富里鄉","MARKTYPE":"991","Class":"1"},"geometry":{"x":275607.42750000022,"y":2564239.9853000008}},{"attributes":{"OBJECTID":24606,"LANDMARKID":"1001500000089","LANDMARKCO":"103","LANDMARKNA":"花蓮縣富里鄉民代表會","LANDMARKAD":"1001510","ADDRESS":"花連縣富里鄉富里村中山路180號","TEL":"03-8831528","COUNTYNAME":"花蓮縣","TOWNNAME":"富里鄉","MARKTYPE":"991","Class":"1"},"geometry":{"x":275404.09669999965,"y":2563739.8485000003}},{"attributes":{"OBJECTID":24607,"LANDMARKID":"1001500000112","LANDMARKCO":"107","LANDMARKNA":"花蓮縣消防局東里消防分隊","LANDMARKAD":"1001510","ADDRESS":"花蓮縣富里鄉東里村大莊路52號","TEL":"03-8861119","COUNTYNAME":"花蓮縣","TOWNNAME":"富里鄉","MARKTYPE":"991","Class":"1"},"geometry":{"x":283151.27390000038,"y":2575509.5883000009}},{"attributes":{"OBJECTID":24608,"LANDMARKID":"1001500000113","LANDMARKCO":"107","LANDMARKNA":"花蓮縣消防局富里消防分隊","LANDMARKAD":"1001510","ADDRESS":"花蓮縣富里鄉富里村中山路142號","TEL":"03-8831009","COUNTYNAME":"花蓮縣","TOWNNAME":"富里鄉","MARKTYPE":"991","Class":"1"},"geometry":{"x":275344.10950000025,"y":2563439.9514000006}},{"attributes":{"OBJECTID":24609,"LANDMARKID":"1001500000111","LANDMARKCO":"106","LANDMARKNA":"花蓮縣富里鄉戶政事務所","LANDMARKAD":"1001510","ADDRESS":"花蓮縣富里鄉富里村21鄰中山路144號","TEL":"03-8831529","COUNTYNAME":"花蓮縣","TOWNNAME":"富里鄉","MARKTYPE":"991","Class":"1"},"geometry":{"x":275346.12650000025,"y":2563449.9480000008}},{"attributes":{"OBJECTID":24610,"LANDMARKID":"1001500000088","LANDMARKCO":"103","LANDMARKNA":"花蓮縣富里鄉衛生所","LANDMARKAD":"1001510","ADDRESS":"花蓮縣富里鄉中山路203號","TEL":"03-8831029","COUNTYNAME":"花蓮縣","TOWNNAME":"富里鄉","MARKTYPE":"991","Class":"1"},"geometry":{"x":275656.44539999962,"y":2564249.9010000005}},{"attributes":{"OBJECTID":24611,"LANDMARKID":"1001500000114","LANDMARKCO":"107","LANDMARKNA":"花蓮縣警察局東里派出所","LANDMARKAD":"1001510","ADDRESS":"花蓮縣富里鄉東里村大莊38號","TEL":"03-8861114","COUNTYNAME":"花蓮縣","TOWNNAME":"富里鄉","MARKTYPE":"991","Class":"1"},"geometry":{"x":281403.51719999965,"y":2574089.7075999994}},{"attributes":{"OBJECTID":24612,"LANDMARKID":"1001500000115","LANDMARKCO":"107","LANDMARKNA":"花蓮縣警察局學田派出所","LANDMARKAD":"1001510","ADDRESS":"花蓮縣富里鄉學田村民權1之1號","TEL":"03-8831434","COUNTYNAME":"花蓮縣","TOWNNAME":"富里鄉","MARKTYPE":"991","Class":"1"},"geometry":{"x":273554.22580000013,"y":2561669.6446000002}},{"attributes":{"OBJECTID":24613,"LANDMARKID":"1001500000116","LANDMARKCO":"107","LANDMARKNA":"花蓮縣警察局富里分駐所","LANDMARKAD":"1001510","ADDRESS":"花蓮縣富里鄉富里中山路132號","TEL":"03-8831078","COUNTYNAME":"花蓮縣","TOWNNAME":"富里鄉","MARKTYPE":"991","Class":"1"},"geometry":{"x":275342.07550000027,"y":2563419.9549000002}},{"attributes":{"OBJECTID":24614,"LANDMARKID":"1001500000117","LANDMARKCO":"107","LANDMARKNA":"花蓮縣警察局竹田派出所","LANDMARKAD":"1001510","ADDRESS":"花蓮縣富里鄉竹田村竹田40號","TEL":"03-8821044","COUNTYNAME":"花蓮縣","TOWNNAME":"富里鄉","MARKTYPE":"991","Class":"1"},"geometry":{"x":278932.49849999975,"y":2568559.5848999992}},{"attributes":{"OBJECTID":24615,"LANDMARKID":"1001500000118","LANDMARKCO":"107","LANDMARKNA":"花蓮縣警察局永豐派出所","LANDMARKAD":"1001510","ADDRESS":"花蓮縣富里鄉豐南村永豐93之4號","TEL":"03-8832669","COUNTYNAME":"花蓮縣","TOWNNAME":"富里鄉","MARKTYPE":"991","Class":"1"},"geometry":{"x":277258.20870000031,"y":2561339.5767999999}},{"attributes":{"OBJECTID":24616,"LANDMARKID":"1001500000402","LANDMARKCO":"204","LANDMARKNA":"花蓮縣立圖書館富里分館","LANDMARKAD":"1001510","ADDRESS":"花蓮縣富里鄉永安街123之2號","TEL":" ","COUNTYNAME":"花蓮縣","TOWNNAME":"富里鄉","MARKTYPE":"992","Class":"2"},"geometry":{"x":275598.64659999963,"y":2563411.8803000003}},{"attributes":{"OBJECTID":24617,"LANDMARKID":"1001500000389","LANDMARKCO":"203","LANDMARKNA":"縣立東里國中","LANDMARKAD":"1001510","ADDRESS":"花蓮縣富里鄉東里村道化路82號","TEL":"03-8861174","COUNTYNAME":"花蓮縣","TOWNNAME":"富里鄉","MARKTYPE":"992","Class":"2"},"geometry":{"x":280949.3973000003,"y":2573419.4779000003}},{"attributes":{"OBJECTID":24618,"LANDMARKID":"1001500000390","LANDMARKCO":"203","LANDMARKNA":"縣立富里國小","LANDMARKAD":"1001510","ADDRESS":"花蓮縣富里鄉富里村永安街52號","TEL":"03-8831043","COUNTYNAME":"花蓮縣","TOWNNAME":"富里鄉","MARKTYPE":"992","Class":"2"},"geometry":{"x":275498.46480000019,"y":2563339.6890999991}},{"attributes":{"OBJECTID":24619,"LANDMARKID":"1001500000391","LANDMARKCO":"203","LANDMARKNA":"縣立學田國小","LANDMARKAD":"1001510","ADDRESS":"花蓮縣富里鄉學田村光明路1號","TEL":"03-8831324","COUNTYNAME":"花蓮縣","TOWNNAME":"富里鄉","MARKTYPE":"992","Class":"2"},"geometry":{"x":273266.40699999966,"y":2561479.6550999992}},{"attributes":{"OBJECTID":24620,"LANDMARKID":"1001500000392","LANDMARKCO":"203","LANDMARKNA":"縣立東里國小","LANDMARKAD":"1001510","ADDRESS":"花蓮縣富里鄉東里村道化路74號","TEL":"03-8861161","COUNTYNAME":"花蓮縣","TOWNNAME":"富里鄉","MARKTYPE":"992","Class":"2"},"geometry":{"x":281005.34020000044,"y":2573699.9502000008}},{"attributes":{"OBJECTID":24621,"LANDMARKID":"1001500000393","LANDMARKCO":"203","LANDMARKNA":"縣立富北國中","LANDMARKAD":"1001510","ADDRESS":"花蓮縣富里鄉新興村1鄰8號","TEL":"03-8821134","COUNTYNAME":"花蓮縣","TOWNNAME":"富里鄉","MARKTYPE":"992","Class":"2"},"geometry":{"x":278658.0848000003,"y":2569269.5664000008}},{"attributes":{"OBJECTID":24622,"LANDMARKID":"1001500000394","LANDMARKCO":"203","LANDMARKNA":"縣立富里國中","LANDMARKAD":"1001510","ADDRESS":"花蓮縣富里鄉永安路173號","TEL":"03-8830006","COUNTYNAME":"花蓮縣","TOWNNAME":"富里鄉","MARKTYPE":"992","Class":"2"},"geometry":{"x":275543.02830000035,"y":2563699.6109999996}},{"attributes":{"OBJECTID":24623,"LANDMARKID":"1001500000395","LANDMARKCO":"203","LANDMARKNA":"縣立明里國小","LANDMARKAD":"1001510","ADDRESS":"花蓮縣富里鄉明里村1鄰16號","TEL":"03-8846003","COUNTYNAME":"花蓮縣","TOWNNAME":"富里鄉","MARKTYPE":"992","Class":"2"},"geometry":{"x":275505.23670000024,"y":2566589.6673000008}},{"attributes":{"OBJECTID":24624,"LANDMARKID":"1001500000396","LANDMARKCO":"203","LANDMARKNA":"縣立吳江國小","LANDMARKAD":"1001510","ADDRESS":"花蓮縣富里鄉吳江村52號","TEL":"03-8861242","COUNTYNAME":"花蓮縣","TOWNNAME":"富里鄉","MARKTYPE":"992","Class":"2"},"geometry":{"x":282990.29030000046,"y":2575209.9488999993}},{"attributes":{"OBJECTID":24625,"LANDMARKID":"1001500000397","LANDMARKCO":"203","LANDMARKNA":"縣立富南國小","LANDMARKAD":"1001510","ADDRESS":"花蓮縣富里鄉富南村82號","TEL":"03-8832656","COUNTYNAME":"花蓮縣","TOWNNAME":"富里鄉","MARKTYPE":"992","Class":"2"},"geometry":{"x":274612.29499999993,"y":2561399.7595000006}},{"attributes":{"OBJECTID":24626,"LANDMARKID":"1001500000398","LANDMARKCO":"203","LANDMARKNA":"縣立永豐國小","LANDMARKAD":"1001510","ADDRESS":"花蓮縣富里鄉永豐村84號","TEL":"03-8831195","COUNTYNAME":"花蓮縣","TOWNNAME":"富里鄉","MARKTYPE":"992","Class":"2"},"geometry":{"x":277317.33719999995,"y":2561409.9865000006}},{"attributes":{"OBJECTID":24627,"LANDMARKID":"1001500000399","LANDMARKCO":"203","LANDMARKNA":"縣立東竹國小","LANDMARKAD":"1001510","ADDRESS":"花蓮縣富里鄉竹田村富里3號","TEL":"03-8821514","COUNTYNAME":"花蓮縣","TOWNNAME":"富里鄉","MARKTYPE":"992","Class":"2"},"geometry":{"x":278596.06639999989,"y":2568029.6906000003}},{"attributes":{"OBJECTID":24628,"LANDMARKID":"1001500000400","LANDMARKCO":"203","LANDMARKNA":"縣立萬寧國小","LANDMARKAD":"1001510","ADDRESS":"花蓮縣富里鄉萬寧村鎮寧108號","TEL":"03-8861211","COUNTYNAME":"花蓮縣","TOWNNAME":"富里鄉","MARKTYPE":"992","Class":"2"},"geometry":{"x":280484.19359999988,"y":2572399.8595000003}},{"attributes":{"OBJECTID":24629,"LANDMARKID":"1001500000401","LANDMARKCO":"203","LANDMARKNA":"縣立羅山國小","LANDMARKAD":"1001510","ADDRESS":"花蓮縣富里鄉","TEL":" ","COUNTYNAME":"花蓮縣","TOWNNAME":"富里鄉","MARKTYPE":"992","Class":"2"},"geometry":{"x":278344.40560000017,"y":2566669.6371999998}},{"attributes":{"OBJECTID":24630,"LANDMARKID":"1001500000456","LANDMARKCO":"302","LANDMARKNA":"花蓮汽車客運富里站","LANDMARKAD":"1001510","ADDRESS":"花蓮縣富里鄉","TEL":" ","COUNTYNAME":"花蓮縣","TOWNNAME":"富里鄉","MARKTYPE":"993","Class":"302"},"geometry":{"x":273937.40450000018,"y":2559431.4423999991}},{"attributes":{"OBJECTID":24631,"LANDMARKID":"1001500000518","LANDMARKCO":"303","LANDMARKNA":"羅山瀑布停車場","LANDMARKAD":"1001510","ADDRESS":"花蓮縣富里鄉","TEL":" ","COUNTYNAME":"花蓮縣","TOWNNAME":"富里鄉","MARKTYPE":"993","Class":"303"},"geometry":{"x":279886.14429999981,"y":2564588.3731999993}},{"attributes":{"OBJECTID":24632,"LANDMARKID":"1001500000451","LANDMARKCO":"301","LANDMARKNA":"安通火車站(閒)","LANDMARKAD":"1001510","ADDRESS":"花蓮縣富里鄉","TEL":" ","COUNTYNAME":"花蓮縣","TOWNNAME":"富里鄉","MARKTYPE":"993","Class":"301"},"geometry":{"x":284035.22649999987,"y":2577261.7934000008}},{"attributes":{"OBJECTID":24633,"LANDMARKID":"1001500000452","LANDMARKCO":"301","LANDMARKNA":"富南火車站(閒)","LANDMARKAD":"1001510","ADDRESS":"花蓮縣富里鄉","TEL":" ","COUNTYNAME":"花蓮縣","TOWNNAME":"富里鄉","MARKTYPE":"993","Class":"301"},"geometry":{"x":274531.93070000038,"y":2562047.8291999996}},{"attributes":{"OBJECTID":24634,"LANDMARKID":"1001500000453","LANDMARKCO":"301","LANDMARKNA":"東里火車站","LANDMARKAD":"1001510","ADDRESS":"花蓮縣富里鄉大莊路211號","TEL":"03-8861005","COUNTYNAME":"花蓮縣","TOWNNAME":"富里鄉","MARKTYPE":"993","Class":"301"},"geometry":{"x":281419.37959999964,"y":2574253.8783}},{"attributes":{"OBJECTID":24635,"LANDMARKID":"1001500000454","LANDMARKCO":"301","LANDMARKNA":"東竹火車站","LANDMARKAD":"1001510","ADDRESS":"花蓮縣富里鄉新興村26號","TEL":"03-8821504","COUNTYNAME":"花蓮縣","TOWNNAME":"富里鄉","MARKTYPE":"993","Class":"301"},"geometry":{"x":278475.52759999968,"y":2569363.4763999991}},{"attributes":{"OBJECTID":24636,"LANDMARKID":"1001500000455","LANDMARKCO":"301","LANDMARKNA":"富里火車站","LANDMARKAD":"1001510","ADDRESS":"花蓮縣富里鄉車站街56號","TEL":"03-8831771","COUNTYNAME":"花蓮縣","TOWNNAME":"富里鄉","MARKTYPE":"993","Class":"301"},"geometry":{"x":275467.73819999956,"y":2564162.7603999991}},{"attributes":{"OBJECTID":24637,"LANDMARKID":"1001500000558","LANDMARKCO":"402","LANDMARKNA":"中華電信-富里服務中心","LANDMARKAD":"1001510","ADDRESS":"花蓮縣富里鄉中山路304號","TEL":"123或0800-080-123","COUNTYNAME":"花蓮縣","TOWNNAME":"富里鄉","MARKTYPE":"994","Class":"4"},"geometry":{"x":275464.53789999988,"y":2563860.3884999994}},{"attributes":{"OBJECTID":24638,"LANDMARKID":"1001500000929","LANDMARKCO":"604","LANDMARKNA":"東籬居民宿","LANDMARKAD":"1001510","ADDRESS":"花蓮縣富里鄉東里村湧泉路8號","TEL":"03-8884078","COUNTYNAME":"花蓮縣","TOWNNAME":"富里鄉","MARKTYPE":"996","Class":"6"},"geometry":{"x":281149.68319999985,"y":2573823.8522999994}},{"attributes":{"OBJECTID":24639,"LANDMARKID":"1001500000930","LANDMARKCO":"604","LANDMARKNA":"奇巧民宿","LANDMARKAD":"1001510","ADDRESS":"花蓮縣富里鄉竹田村富田39-3號","TEL":"03-8821825","COUNTYNAME":"花蓮縣","TOWNNAME":"富里鄉","MARKTYPE":"996","Class":"6"},"geometry":{"x":278928.69400000013,"y":2567883.7656999994}},{"attributes":{"OBJECTID":24640,"LANDMARKID":"1001500000931","LANDMARKCO":"604","LANDMARKNA":"鐵掌櫃茶舍民宿","LANDMARKAD":"1001510","ADDRESS":"花蓮縣富里鄉竹田村雲閩26號","TEL":"03-8821670","COUNTYNAME":"花蓮縣","TOWNNAME":"富里鄉","MARKTYPE":"996","Class":"6"},"geometry":{"x":282032.71499999985,"y":2568712.6854999997}},{"attributes":{"OBJECTID":24641,"LANDMARKID":"1001500000932","LANDMARKCO":"604","LANDMARKNA":"彭大媽客家食堂民宿","LANDMARKAD":"1001510","ADDRESS":"花蓮縣富里鄉竹田村雲閩36號","TEL":"03-8821559","COUNTYNAME":"花蓮縣","TOWNNAME":"富里鄉","MARKTYPE":"996","Class":"6"},"geometry":{"x":282233.16270000022,"y":2568610.9757000003}},{"attributes":{"OBJECTID":24642,"LANDMARKID":"1001500000933","LANDMARKCO":"604","LANDMARKNA":"益順休閒農莊民宿","LANDMARKAD":"1001510","ADDRESS":"花蓮縣富里鄉竹田村雲閩15號","TEL":"03-8821123","COUNTYNAME":"花蓮縣","TOWNNAME":"富里鄉","MARKTYPE":"996","Class":"6"},"geometry":{"x":281832.62689999957,"y":2568655.8250999991}},{"attributes":{"OBJECTID":24643,"LANDMARKID":"1001500000934","LANDMARKCO":"604","LANDMARKNA":"忘憂園民宿","LANDMARKAD":"1001510","ADDRESS":"花蓮縣富里鄉竹田村雲閩33號","TEL":"03-8821368","COUNTYNAME":"花蓮縣","TOWNNAME":"富里鄉","MARKTYPE":"996","Class":"6"},"geometry":{"x":281766.71549999993,"y":2568922.148}},{"attributes":{"OBJECTID":24644,"LANDMARKID":"1001500000926","LANDMARKCO":"603","LANDMARKNA":"富臨旅社","LANDMARKAD":"1001510","ADDRESS":"花蓮縣富里鄉中山路176號","TEL":"03-8831218","COUNTYNAME":"花蓮縣","TOWNNAME":"富里鄉","MARKTYPE":"996","Class":"6"},"geometry":{"x":275358.89279999956,"y":2563518.3245999999}},{"attributes":{"OBJECTID":24645,"LANDMARKID":"1000400000473","LANDMARKCO":"405","LANDMARKNA":"中油加油站-新慰站","LANDMARKAD":"1000406","ADDRESS":"新竹縣湖口鄉鳳凰村8鄰新興路780號","TEL":"035-5905772","COUNTYNAME":"新竹縣","TOWNNAME":"新豐鄉","MARKTYPE":"994","Class":"4"},"geometry":{"x":251119.99909999967,"y":2752764.7346000001}},{"attributes":{"OBJECTID":24646,"LANDMARKID":"1000400000474","LANDMARKCO":"405","LANDMARKNA":"中油加油站-山崎站","LANDMARKAD":"1000406","ADDRESS":"新竹縣新豐鄉建興路一段196-13號","TEL":"03-5594919","COUNTYNAME":"新竹縣","TOWNNAME":"新豐鄉","MARKTYPE":"994","Class":"4"},"geometry":{"x":249396.34929999989,"y":2752264.2375000007}},{"attributes":{"OBJECTID":24647,"LANDMARKID":"1000400000475","LANDMARKCO":"405","LANDMARKNA":"中油加油站-新庄子站(中油直營)","LANDMARKAD":"1000406","ADDRESS":"新竹縣新豐鄉重興村新庄路429號","TEL":"035-593274","COUNTYNAME":"新竹縣","TOWNNAME":"新豐鄉","MARKTYPE":"994","Class":"4"},"geometry":{"x":248277.73080000002,"y":2755475.3076000009}},{"attributes":{"OBJECTID":24648,"LANDMARKID":"1000400000413","LANDMARKCO":"402","LANDMARKNA":"亞太行動寬頻電信-新竹新豐加盟服務中心","LANDMARKAD":"1000406","ADDRESS":"新竹縣新豐鄉新興路53號","TEL":"03-5590919","COUNTYNAME":"新竹縣","TOWNNAME":"新豐鄉","MARKTYPE":"994","Class":"4"},"geometry":{"x":249245.98759999964,"y":2750928.0095000006}},{"attributes":{"OBJECTID":24649,"LANDMARKID":"1000400000544","LANDMARKCO":"408","LANDMARKNA":"郵局-新豐郵局","LANDMARKAD":"1000406","ADDRESS":"新竹縣新豐鄉振興街12號","TEL":"(03)5593-544","COUNTYNAME":"新竹縣","TOWNNAME":"新豐鄉","MARKTYPE":"994","Class":"4"},"geometry":{"x":248679.9952999996,"y":2755058.0168999992}},{"attributes":{"OBJECTID":24650,"LANDMARKID":"1000400000545","LANDMARKCO":"408","LANDMARKNA":"郵局-新豐山崎郵局","LANDMARKAD":"1000406","ADDRESS":"新竹縣新豐鄉泰安街26號","TEL":"(03)5593-914","COUNTYNAME":"新竹縣","TOWNNAME":"新豐鄉","MARKTYPE":"994","Class":"4"},"geometry":{"x":249452.99969999958,"y":2751323.0091999993}},{"attributes":{"OBJECTID":24651,"LANDMARKID":"1000400000571","LANDMARKCO":"409","LANDMARKNA":"新豐辦事處","LANDMARKAD":"1000406","ADDRESS":"新竹縣新豐鄉重新村新庄路299號","TEL":"03-5594540","COUNTYNAME":"新竹縣","TOWNNAME":"新豐鄉","MARKTYPE":"994","Class":"4"},"geometry":{"x":248484.65840000007,"y":2755114.0282000005}},{"attributes":{"OBJECTID":24652,"LANDMARKID":"1000400000572","LANDMARKCO":"409","LANDMARKNA":"新豐鄉農會","LANDMARKAD":"1000406","ADDRESS":"新竹縣新豐鄉重興村永寧街36號","TEL":"03-557636","COUNTYNAME":"新竹縣","TOWNNAME":"新豐鄉","MARKTYPE":"994","Class":"4"},"geometry":{"x":248420.8666000003,"y":2755306.3204999994}},{"attributes":{"OBJECTID":24653,"LANDMARKID":"1000400000519","LANDMARKCO":"406","LANDMARKNA":"中興公園","LANDMARKAD":"1000406","ADDRESS":"新竹縣新豐鄉","TEL":" ","COUNTYNAME":"新竹縣","TOWNNAME":"新豐鄉","MARKTYPE":"994","Class":"4"},"geometry":{"x":249712.71640000027,"y":2752079.1206}},{"attributes":{"OBJECTID":24654,"LANDMARKID":"1000400000520","LANDMARKCO":"406","LANDMARKNA":"新豐公園","LANDMARKAD":"1000406","ADDRESS":"新竹縣新豐鄉","TEL":" ","COUNTYNAME":"新竹縣","TOWNNAME":"新豐鄉","MARKTYPE":"994","Class":"4"},"geometry":{"x":249802.28969999962,"y":2752336.3184999991}},{"attributes":{"OBJECTID":24655,"LANDMARKID":"1000400000476","LANDMARKCO":"405","LANDMARKNA":"台塑加油站-紅樹林站(台塑)","LANDMARKAD":"1000406","ADDRESS":"新竹縣新豐鄉鳳坑村坑子口575-2號","TEL":"03-5575286","COUNTYNAME":"新竹縣","TOWNNAME":"新豐鄉","MARKTYPE":"994","Class":"4"},"geometry":{"x":248258.65899999999,"y":2754811.4039999992}},{"attributes":{"OBJECTID":24656,"LANDMARKID":"1000400000049","LANDMARKCO":"103","LANDMARKNA":"新竹縣新豐鄉衛生所","LANDMARKAD":"1000406","ADDRESS":"新竹縣新豐鄉建興路二段748巷25號","TEL":"035-591150","COUNTYNAME":"新竹縣","TOWNNAME":"新豐鄉","MARKTYPE":"991","Class":"1"},"geometry":{"x":248697.99729999993,"y":2754730.0186000001}},{"attributes":{"OBJECTID":24657,"LANDMARKID":"1000400000145","LANDMARKCO":"107","LANDMARKNA":"新竹縣消防局新豐消防分隊","LANDMARKAD":"1000406","ADDRESS":"新竹縣新豐鄉建興路二段788-1號","TEL":"035-593340","COUNTYNAME":"新竹縣","TOWNNAME":"新豐鄉","MARKTYPE":"991","Class":"1"},"geometry":{"x":248702.98500000034,"y":2754860.0190999992}},{"attributes":{"OBJECTID":24658,"LANDMARKID":"1000400000155","LANDMARKCO":"108","LANDMARKNA":"新竹縣新豐鄉公所","LANDMARKAD":"1000406","ADDRESS":"新竹縣新豐鄉重興村新市路93號","TEL":"03-5591116","COUNTYNAME":"新竹縣","TOWNNAME":"新豐鄉","MARKTYPE":"991","Class":"1"},"geometry":{"x":248529.11359999981,"y":2754761.4331}},{"attributes":{"OBJECTID":24659,"LANDMARKID":"1000400000048","LANDMARKCO":"103","LANDMARKNA":"新竹縣新豐鄉鄉民代表會","LANDMARKAD":"1000406","ADDRESS":"新竹縣新豐鄉新市路93號3樓","TEL":"03-5590626","COUNTYNAME":"新竹縣","TOWNNAME":"新豐鄉","MARKTYPE":"991","Class":"1"},"geometry":{"x":248529.11359999981,"y":2754761.4331}},{"attributes":{"OBJECTID":24660,"LANDMARKID":"1000400000061","LANDMARKCO":"106","LANDMARKNA":"新竹縣新豐鄉戶政事務所","LANDMARKAD":"1000406","ADDRESS":"新竹縣新豐鄉重興村11鄰建興路二段792巷6號","TEL":"035-591776","COUNTYNAME":"新竹縣","TOWNNAME":"新豐鄉","MARKTYPE":"991","Class":"1"},"geometry":{"x":249380.95660000015,"y":2752930.8805}},{"attributes":{"OBJECTID":24661,"LANDMARKID":"1000400000142","LANDMARKCO":"107","LANDMARKNA":"新竹縣警察局山崎派出所","LANDMARKAD":"1000406","ADDRESS":"新竹縣新豐鄉松林村松林路8號","TEL":"03-5592736","COUNTYNAME":"新竹縣","TOWNNAME":"新豐鄉","MARKTYPE":"991","Class":"1"},"geometry":{"x":249615.99849999975,"y":2751370.0146999992}},{"attributes":{"OBJECTID":24662,"LANDMARKID":"1000400000143","LANDMARKCO":"107","LANDMARKNA":"新竹縣警察局新豐分駐所","LANDMARKAD":"1000406","ADDRESS":"新竹縣新豐鄉重興村建與路二段788號","TEL":"035-594052","COUNTYNAME":"新竹縣","TOWNNAME":"新豐鄉","MARKTYPE":"991","Class":"1"},"geometry":{"x":248709.99069999997,"y":2754800.0197000001}},{"attributes":{"OBJECTID":24663,"LANDMARKID":"1000400000144","LANDMARKCO":"107","LANDMARKNA":"新竹縣警察局後湖派出所","LANDMARKAD":"1000406","ADDRESS":"新竹縣新豐鄉後湖村六鄰115號","TEL":"035-680164","COUNTYNAME":"新竹縣","TOWNNAME":"新豐鄉","MARKTYPE":"991","Class":"1"},"geometry":{"x":251037.01850000024,"y":2758329.9953000005}},{"attributes":{"OBJECTID":24664,"LANDMARKID":"1000400000303","LANDMARKCO":"204","LANDMARKNA":"新竹縣立圖書館新豐分館","LANDMARKAD":"1000406","ADDRESS":"新竹縣新豐鄉建興路二段明德巷24號","TEL":" ","COUNTYNAME":"新竹縣","TOWNNAME":"新豐鄉","MARKTYPE":"992","Class":"2"},"geometry":{"x":248743.17109999992,"y":2754846.8528000005}},{"attributes":{"OBJECTID":24665,"LANDMARKID":"1000400000272","LANDMARKCO":"203","LANDMARKNA":"縣立新豐國小","LANDMARKAD":"1000406","ADDRESS":"新竹縣新豐鄉重興村明德巷13號","TEL":"035-592081","COUNTYNAME":"新竹縣","TOWNNAME":"新豐鄉","MARKTYPE":"992","Class":"2"},"geometry":{"x":248805.99399999995,"y":2754770.0284000002}},{"attributes":{"OBJECTID":24666,"LANDMARKID":"1000400000175","LANDMARKCO":"202","LANDMARKNA":"私立忠信高中","LANDMARKAD":"1000406","ADDRESS":"新竹縣新豐鄉忠信街178號","TEL":"03-5595775","COUNTYNAME":"新竹縣","TOWNNAME":"新豐鄉","MARKTYPE":"992","Class":"2"},"geometry":{"x":250225.21150000021,"y":2752641.2667999994}},{"attributes":{"OBJECTID":24667,"LANDMARKID":"1000400000273","LANDMARKCO":"203","LANDMARKNA":"縣立新豐國中","LANDMARKAD":"1000406","ADDRESS":"新竹縣新豐鄉成德街36號","TEL":"035-596573","COUNTYNAME":"新竹縣","TOWNNAME":"新豐鄉","MARKTYPE":"992","Class":"2"},"geometry":{"x":249085.14419999998,"y":2754939.1240999997}},{"attributes":{"OBJECTID":24668,"LANDMARKID":"1000400000274","LANDMARKCO":"203","LANDMARKNA":"縣立忠孝國中","LANDMARKAD":"1000406","ADDRESS":"新竹縣新豐鄉員山村孝六街1號","TEL":"035-572555","COUNTYNAME":"新竹縣","TOWNNAME":"新豐鄉","MARKTYPE":"992","Class":"2"},"geometry":{"x":249926.05910000019,"y":2752410.6213000007}},{"attributes":{"OBJECTID":24669,"LANDMARKID":"1000400000176","LANDMARKCO":"202","LANDMARKNA":"私立仰德高中","LANDMARKAD":"1000406","ADDRESS":"新竹縣新豐鄉員山村133號","TEL":"03-5592158","COUNTYNAME":"新竹縣","TOWNNAME":"新豐鄉","MARKTYPE":"992","Class":"2"},"geometry":{"x":250621.0027999999,"y":2752610.0061000008}},{"attributes":{"OBJECTID":24670,"LANDMARKID":"1000400000265","LANDMARKCO":"203","LANDMARKNA":"縣立精華國中","LANDMARKAD":"1000406","ADDRESS":"新竹縣新豐鄉後湖村8鄰166號","TEL":"035-689491","COUNTYNAME":"新竹縣","TOWNNAME":"新豐鄉","MARKTYPE":"992","Class":"2"},"geometry":{"x":251890.01779999956,"y":2757599.9817999993}},{"attributes":{"OBJECTID":24671,"LANDMARKID":"1000400000266","LANDMARKCO":"203","LANDMARKNA":"縣立山崎國小","LANDMARKAD":"1000406","ADDRESS":"新竹縣湖口鄉員山村291號","TEL":"035-592714","COUNTYNAME":"新竹縣","TOWNNAME":"新豐鄉","MARKTYPE":"992","Class":"2"},"geometry":{"x":249845.99980000034,"y":2751640.0107000005}},{"attributes":{"OBJECTID":24672,"LANDMARKID":"1000400000267","LANDMARKCO":"203","LANDMARKNA":"縣立福興國小","LANDMARKAD":"1000406","ADDRESS":"新竹縣新豐鄉後湖村108號","TEL":"035-680964","COUNTYNAME":"新竹縣","TOWNNAME":"新豐鄉","MARKTYPE":"992","Class":"2"},"geometry":{"x":250950.01829999965,"y":2758350.0015999991}},{"attributes":{"OBJECTID":24673,"LANDMARKID":"1000400000268","LANDMARKCO":"203","LANDMARKNA":"縣立福龍國小","LANDMARKAD":"1000406","ADDRESS":"新竹縣新豐鄉福興村113號","TEL":"035-993140","COUNTYNAME":"新竹縣","TOWNNAME":"新豐鄉","MARKTYPE":"992","Class":"2"},"geometry":{"x":253621.06900000013,"y":2758039.9439000003}},{"attributes":{"OBJECTID":24674,"LANDMARKID":"1000400000269","LANDMARKCO":"203","LANDMARKNA":"縣立埔和國小","LANDMARKAD":"1000406","ADDRESS":"新竹縣新豐鄉埔和村466號","TEL":"035-680096","COUNTYNAME":"新竹縣","TOWNNAME":"新豐鄉","MARKTYPE":"992","Class":"2"},"geometry":{"x":248180.97950000037,"y":2757010.0286999997}},{"attributes":{"OBJECTID":24675,"LANDMARKID":"1000400000270","LANDMARKCO":"203","LANDMARKNA":"縣立瑞興國小","LANDMARKAD":"1000406","ADDRESS":"新竹縣新豐鄉瑞興村63號","TEL":"035-680490","COUNTYNAME":"新竹縣","TOWNNAME":"新豐鄉","MARKTYPE":"992","Class":"2"},"geometry":{"x":250995.00349999964,"y":2755979.9985000007}},{"attributes":{"OBJECTID":24676,"LANDMARKID":"1000400000271","LANDMARKCO":"203","LANDMARKNA":"縣立松林國小","LANDMARKAD":"1000406","ADDRESS":"新竹縣新豐鄉松林街99號","TEL":"03-5573601","COUNTYNAME":"新竹縣","TOWNNAME":"新豐鄉","MARKTYPE":"992","Class":"2"},"geometry":{"x":249066.58220000006,"y":2751265.9844000004}},{"attributes":{"OBJECTID":24677,"LANDMARKID":"1000400000359","LANDMARKCO":"305","LANDMARKNA":"蚵殼漁港","LANDMARKAD":"1000406","ADDRESS":"新竹縣新豐鄉","TEL":" ","COUNTYNAME":"新竹縣","TOWNNAME":"新豐鄉","MARKTYPE":"993","Class":"305"},"geometry":{"x":248700.79559999984,"y":2758902.4658000004}},{"attributes":{"OBJECTID":24678,"LANDMARKID":"1000400000360","LANDMARKCO":"305","LANDMARKNA":"鳳港漁港","LANDMARKAD":"1000406","ADDRESS":"新竹縣新豐鄉","TEL":" ","COUNTYNAME":"新竹縣","TOWNNAME":"新豐鄉","MARKTYPE":"993","Class":"305"},"geometry":{"x":246578.80939999968,"y":2755189.4688000008}},{"attributes":{"OBJECTID":24679,"LANDMARKID":"1000400000340","LANDMARKCO":"303","LANDMARKNA":"紅毛港遊憩區停車場","LANDMARKAD":"1000406","ADDRESS":"新竹縣新豐鄉","TEL":" ","COUNTYNAME":"新竹縣","TOWNNAME":"新豐鄉","MARKTYPE":"993","Class":"303"},"geometry":{"x":247090.55989999976,"y":2755796.7782000005}},{"attributes":{"OBJECTID":24680,"LANDMARKID":"1000400000341","LANDMARKCO":"303","LANDMARKNA":"小叮噹科學遊樂區停車場","LANDMARKAD":"1000406","ADDRESS":"新竹縣新豐鄉","TEL":" ","COUNTYNAME":"新竹縣","TOWNNAME":"新豐鄉","MARKTYPE":"993","Class":"303"},"geometry":{"x":247915.93230000045,"y":2751232.4788000006}},{"attributes":{"OBJECTID":24681,"LANDMARKID":"1000400000342","LANDMARKCO":"303","LANDMARKNA":"天德堂停車場","LANDMARKAD":"1000406","ADDRESS":"新竹縣新豐鄉","TEL":" ","COUNTYNAME":"新竹縣","TOWNNAME":"新豐鄉","MARKTYPE":"993","Class":"303"},"geometry":{"x":247944.17899999954,"y":2751048.5125999991}},{"attributes":{"OBJECTID":24682,"LANDMARKID":"1000400000318","LANDMARKCO":"301","LANDMARKNA":"新豐火車站","LANDMARKAD":"1000406","ADDRESS":"新竹縣新豐鄉員山村新興路202號","TEL":"03-5596314","COUNTYNAME":"新竹縣","TOWNNAME":"新豐鄉","MARKTYPE":"993","Class":"301"},"geometry":{"x":249677.71160000004,"y":2751357.1050000004}},{"attributes":{"OBJECTID":24683,"LANDMARKID":"1000400000409","LANDMARKCO":"402","LANDMARKNA":"中華電信-新豐服務中心","LANDMARKAD":"1000406","ADDRESS":"新竹縣新豐鄉建興路一段201巷9-1號","TEL":"123或0800-080-123","COUNTYNAME":"新竹縣","TOWNNAME":"新豐鄉","MARKTYPE":"994","Class":"4"},"geometry":{"x":249285.98819999956,"y":2752159.0159000009}},{"attributes":{"OBJECTID":24684,"LANDMARKID":"1000400000410","LANDMARKCO":"402","LANDMARKNA":"威寶電信-新豐新興特約服務中心","LANDMARKAD":"1000406","ADDRESS":"新竹縣新豐鄉松林村6鄰新興路13號","TEL":"03-5572794","COUNTYNAME":"新竹縣","TOWNNAME":"新豐鄉","MARKTYPE":"994","Class":"4"},"geometry":{"x":249187.99330000021,"y":2750816.0103999991}},{"attributes":{"OBJECTID":24685,"LANDMARKID":"1000400000411","LANDMARKCO":"402","LANDMARKNA":"大眾電信-新豐專賣店","LANDMARKAD":"1000406","ADDRESS":"新竹縣新豐鄉員山村新興路221號","TEL":"03-5579552","COUNTYNAME":"新竹縣","TOWNNAME":"新豐鄉","MARKTYPE":"994","Class":"4"},"geometry":{"x":249621.99839999992,"y":2751374.0149000008}},{"attributes":{"OBJECTID":24686,"LANDMARKID":"1000400000412","LANDMARKCO":"402","LANDMARKNA":"大眾電信(震旦通訊)-新豐站前店","LANDMARKAD":"1000406","ADDRESS":"新竹縣新豐鄉新興路269號1-","TEL":"03-5599223","COUNTYNAME":"新竹縣","TOWNNAME":"新豐鄉","MARKTYPE":"994","Class":"4"},"geometry":{"x":249729.99749999959,"y":2751446.0088999998}},{"attributes":{"OBJECTID":24687,"LANDMARKID":"1000400000667","LANDMARKCO":"603","LANDMARKNA":"新豐旅社","LANDMARKAD":"1000406","ADDRESS":"新竹縣新豐鄉振興街26號","TEL":"03-5575170","COUNTYNAME":"新竹縣","TOWNNAME":"新豐鄉","MARKTYPE":"996","Class":"6"},"geometry":{"x":248687.6584999999,"y":2755069.8156000003}},{"attributes":{"OBJECTID":24688,"LANDMARKID":"1000400000668","LANDMARKCO":"603","LANDMARKNA":"青葉大旅館","LANDMARKAD":"1000406","ADDRESS":"新竹縣新豐鄉員山村學府路130號8樓","TEL":"03-5592175-7","COUNTYNAME":"新竹縣","TOWNNAME":"新豐鄉","MARKTYPE":"996","Class":"6"},"geometry":{"x":249639.06230000034,"y":2751490.9847999997}},{"attributes":{"OBJECTID":24689,"LANDMARKID":"1000400000669","LANDMARKCO":"603","LANDMARKNA":"春城汽車旅館","LANDMARKAD":"1000406","ADDRESS":"新竹縣新豐鄉中興路176號","TEL":"03-5573377","COUNTYNAME":"新竹縣","TOWNNAME":"新豐鄉","MARKTYPE":"996","Class":"6"},"geometry":{"x":249599.99670000002,"y":2752047.0142999999}},{"attributes":{"OBJECTID":24690,"LANDMARKID":"1000400000670","LANDMARKCO":"603","LANDMARKNA":"哈思美汽車旅館","LANDMARKAD":"1000406","ADDRESS":"新竹縣新豐鄉埔和村6鄰埔頂145-10號","TEL":"03-5686119","COUNTYNAME":"新竹縣","TOWNNAME":"新豐鄉","MARKTYPE":"996","Class":"6"},"geometry":{"x":249871.99780000001,"y":2757396.0109999999}},{"attributes":{"OBJECTID":24691,"LANDMARKID":"1000400000637","LANDMARKCO":"509","LANDMARKNA":"新豐海水浴場","LANDMARKAD":"1000406","ADDRESS":"新竹縣新豐鄉","TEL":" ","COUNTYNAME":"新竹縣","TOWNNAME":"新豐鄉","MARKTYPE":"995","Class":"5"},"geometry":{"x":246925.62870000023,"y":2757203.4763999991}},{"attributes":{"OBJECTID":24692,"LANDMARKID":"1000400000602","LANDMARKCO":"505","LANDMARKNA":"小叮噹科學遊樂區","LANDMARKAD":"1000406","ADDRESS":"新竹縣新豐鄉上坑村坑子口102之1號","TEL":" ","COUNTYNAME":"新竹縣","TOWNNAME":"新豐鄉","MARKTYPE":"995","Class":"5"},"geometry":{"x":248024.76489999983,"y":2751459.6728000008}},{"attributes":{"OBJECTID":24693,"LANDMARKID":"1000400000638","LANDMARKCO":"510","LANDMARKNA":"新豐高爾夫球場","LANDMARKAD":"1000406","ADDRESS":"新竹縣新豐竹上競村坑子口104號","TEL":"03-5596140","COUNTYNAME":"新竹縣","TOWNNAME":"新豐鄉","MARKTYPE":"995","Class":"5"},"geometry":{"x":248169.13169999979,"y":2752435.9795999993}},{"attributes":{"OBJECTID":24694,"LANDMARKID":"1000400000458","LANDMARKCO":"405","LANDMARKNA":"中油加油站-鳳崎站","LANDMARKAD":"1000405","ADDRESS":"新竹縣湖口鄉鳳山村望高樓6-16號","TEL":"03-5981233","COUNTYNAME":"新竹縣","TOWNNAME":"湖口鄉","MARKTYPE":"994","Class":"4"},"geometry":{"x":249628.15139999986,"y":2750890.3704000004}},{"attributes":{"OBJECTID":24695,"LANDMARKID":"1000400000459","LANDMARKCO":"405","LANDMARKNA":"中油加油站-和興站","LANDMARKAD":"1000405","ADDRESS":"新竹縣湖口鄉中山路三段126號","TEL":"03-5902056","COUNTYNAME":"新竹縣","TOWNNAME":"湖口鄉","MARKTYPE":"994","Class":"4"},"geometry":{"x":255082.42300000042,"y":2755849.7927000001}},{"attributes":{"OBJECTID":24696,"LANDMARKID":"1000400000460","LANDMARKCO":"405","LANDMARKNA":"中油加油站-君朋站","LANDMARKAD":"1000405","ADDRESS":"新竹縣湖口鄉中勢村中平路一段280號","TEL":"03-5995668","COUNTYNAME":"新竹縣","TOWNNAME":"湖口鄉","MARKTYPE":"994","Class":"4"},"geometry":{"x":255420.71899999958,"y":2754775.8248999994}},{"attributes":{"OBJECTID":24697,"LANDMARKID":"1000400000461","LANDMARKCO":"405","LANDMARKNA":"中油加油站-信勢站","LANDMARKAD":"1000405","ADDRESS":"新竹縣湖口鄉信勢村25鄰成功路485號","TEL":"03-5993678","COUNTYNAME":"新竹縣","TOWNNAME":"湖口鄉","MARKTYPE":"994","Class":"4"},"geometry":{"x":253766.43989999965,"y":2754384.1686000004}},{"attributes":{"OBJECTID":24698,"LANDMARKID":"1000400000462","LANDMARKCO":"405","LANDMARKNA":"中油加油站-新崎站","LANDMARKAD":"1000405","ADDRESS":"新竹縣湖口鄉中山路一段391號","TEL":"03-6993085","COUNTYNAME":"新竹縣","TOWNNAME":"湖口鄉","MARKTYPE":"994","Class":"4"},"geometry":{"x":254191.56429999974,"y":2754071.3559000008}},{"attributes":{"OBJECTID":24699,"LANDMARKID":"1000400000463","LANDMARKCO":"405","LANDMARKNA":"中油加油站-順興站(中油直營)","LANDMARKAD":"1000405","ADDRESS":"新竹縣湖口鄉湖南村十二鄰八德路一段396號","TEL":"03-5693680","COUNTYNAME":"新竹縣","TOWNNAME":"湖口鄉","MARKTYPE":"994","Class":"4"},"geometry":{"x":253643.99409999978,"y":2752515.9130000006}},{"attributes":{"OBJECTID":24700,"LANDMARKID":"1000400000464","LANDMARKCO":"405","LANDMARKNA":"中油加油站-湖口站(中油直營)","LANDMARKAD":"1000405","ADDRESS":"新竹縣湖口鄉湖鏡村251-1號","TEL":"03-5690155","COUNTYNAME":"新竹縣","TOWNNAME":"湖口鄉","MARKTYPE":"994","Class":"4"},"geometry":{"x":255557.22709999979,"y":2752299.0195000004}},{"attributes":{"OBJECTID":24701,"LANDMARKID":"1000400000465","LANDMARKCO":"405","LANDMARKNA":"中油加油站-聖豐站","LANDMARKAD":"1000405","ADDRESS":"新竹縣湖口鄉波羅汶村波羅汶44-78號","TEL":"03-5986716","COUNTYNAME":"新竹縣","TOWNNAME":"湖口鄉","MARKTYPE":"994","Class":"4"},"geometry":{"x":251816.16480000038,"y":2751918.9002}},{"attributes":{"OBJECTID":24702,"LANDMARKID":"1000400000466","LANDMARKCO":"405","LANDMARKNA":"中油加油站-長安站(中油直營)","LANDMARKAD":"1000405","ADDRESS":"新竹縣湖口鄉湖口村八德路二段461號","TEL":"03-5696829","COUNTYNAME":"新竹縣","TOWNNAME":"湖口鄉","MARKTYPE":"994","Class":"4"},"geometry":{"x":257919.97080000024,"y":2753088.6254999992}},{"attributes":{"OBJECTID":24703,"LANDMARKID":"1000400000467","LANDMARKCO":"405","LANDMARKNA":"中油加油站-亞當翌站","LANDMARKAD":"1000405","ADDRESS":"新竹縣湖口鄉湖口村八德路二段386號","TEL":"03-5694606","COUNTYNAME":"新竹縣","TOWNNAME":"湖口鄉","MARKTYPE":"994","Class":"4"},"geometry":{"x":256737.52500000037,"y":2752526.6749000009}},{"attributes":{"OBJECTID":24704,"LANDMARKID":"1000400000468","LANDMARKCO":"405","LANDMARKNA":"台灣優力加油站-湖口站(中油)","LANDMARKAD":"1000405","ADDRESS":"新竹縣湖口鄉八德路一段378號","TEL":"03-5694120","COUNTYNAME":"新竹縣","TOWNNAME":"湖口鄉","MARKTYPE":"994","Class":"4"},"geometry":{"x":253548.91579999961,"y":2752547.0365999993}},{"attributes":{"OBJECTID":24705,"LANDMARKID":"1000400000469","LANDMARKCO":"405","LANDMARKNA":"中油加油站-新湖口站(中油直營)","LANDMARKAD":"1000405","ADDRESS":"新竹縣湖口鄉中正路二段20號","TEL":"03-5991267","COUNTYNAME":"新竹縣","TOWNNAME":"湖口鄉","MARKTYPE":"994","Class":"4"},"geometry":{"x":254836.01690000016,"y":2754330.5797000006}},{"attributes":{"OBJECTID":24706,"LANDMARKID":"1000400000470","LANDMARKCO":"405","LANDMARKNA":"中油加油站-新豐站(中油直營)","LANDMARKAD":"1000405","ADDRESS":"新竹縣湖口鄉新興路330號","TEL":"035-592308","COUNTYNAME":"新竹縣","TOWNNAME":"湖口鄉","MARKTYPE":"994","Class":"4"},"geometry":{"x":250069.31630000006,"y":2751695.8770000003}},{"attributes":{"OBJECTID":24707,"LANDMARKID":"1000400000471","LANDMARKCO":"405","LANDMARKNA":"中油加油站-北海站","LANDMARKAD":"1000405","ADDRESS":"新竹縣湖口鄉鳳凰村10鄰16號","TEL":"03-5985001","COUNTYNAME":"新竹縣","TOWNNAME":"湖口鄉","MARKTYPE":"994","Class":"4"},"geometry":{"x":252274.85690000001,"y":2752001.3146000002}},{"attributes":{"OBJECTID":24708,"LANDMARKID":"1000400000472","LANDMARKCO":"405","LANDMARKNA":"中油加油站-北海第二站","LANDMARKAD":"1000405","ADDRESS":"新竹縣湖口鄉波羅村波羅44之73號","TEL":"03-5986110","COUNTYNAME":"新竹縣","TOWNNAME":"湖口鄉","MARKTYPE":"994","Class":"4"},"geometry":{"x":252578.28569999989,"y":2752233.9592000004}},{"attributes":{"OBJECTID":24709,"LANDMARKID":"1000400000408","LANDMARKCO":"402","LANDMARKNA":"亞太行動寬頻電信-湖口中山加盟服務中心","LANDMARKAD":"1000405","ADDRESS":"新竹縣湖口鄉中山路二段132號","TEL":"03-6993608","COUNTYNAME":"新竹縣","TOWNNAME":"湖口鄉","MARKTYPE":"994","Class":"4"},"geometry":{"x":254452.0728000002,"y":2754926.9278999995}},{"attributes":{"OBJECTID":24710,"LANDMARKID":"1000400000394","LANDMARKCO":"401","LANDMARKNA":"財團法人天主教湖口仁慈醫院","LANDMARKAD":"1000405","ADDRESS":"新竹縣湖口鄉忠孝路29號","TEL":"03-5993500","COUNTYNAME":"新竹縣","TOWNNAME":"湖口鄉","MARKTYPE":"994","Class":"4"},"geometry":{"x":254612.01740000024,"y":2754753.9638999999}},{"attributes":{"OBJECTID":24711,"LANDMARKID":"1000400000603","LANDMARKCO":"506","LANDMARKNA":"海梨觀光果園","LANDMARKAD":"1000405","ADDRESS":"新竹縣湖口鄉","TEL":" ","COUNTYNAME":"新竹縣","TOWNNAME":"湖口鄉","MARKTYPE":"995","Class":"5"},"geometry":{"x":254520.25530000031,"y":2755563.8267999999}},{"attributes":{"OBJECTID":24712,"LANDMARKID":"1000400000604","LANDMARKCO":"506","LANDMARKNA":"湖口鄉觀光茶園","LANDMARKAD":"1000405","ADDRESS":"新竹縣湖口鄉民族街49號","TEL":"035-996155","COUNTYNAME":"新竹縣","TOWNNAME":"湖口鄉","MARKTYPE":"995","Class":"5"},"geometry":{"x":254840.27570000011,"y":2755570.4640999995}},{"attributes":{"OBJECTID":24713,"LANDMARKID":"1000400000538","LANDMARKCO":"408","LANDMARKNA":"郵局-湖口郵局","LANDMARKAD":"1000405","ADDRESS":"新竹縣湖口鄉忠孝路26號","TEL":"(03)5992-036","COUNTYNAME":"新竹縣","TOWNNAME":"湖口鄉","MARKTYPE":"994","Class":"4"},"geometry":{"x":254669.51900000032,"y":2754754.6994000003}},{"attributes":{"OBJECTID":24714,"LANDMARKID":"1000400000539","LANDMARKCO":"408","LANDMARKNA":"郵局-湖口鐵騎郵局","LANDMARKAD":"1000405","ADDRESS":"新竹縣湖口鄉勝利路1段慈光9號","TEL":"(03)5982-347","COUNTYNAME":"新竹縣","TOWNNAME":"湖口鄉","MARKTYPE":"994","Class":"4"},"geometry":{"x":253559.8432,"y":2751257.9035}},{"attributes":{"OBJECTID":24715,"LANDMARKID":"1000400000540","LANDMARKCO":"408","LANDMARKNA":"郵局-湖口鳳凰郵局","LANDMARKAD":"1000405","ADDRESS":"新竹縣湖口鄉勝利路2段90-1號","TEL":"(03)5982-403","COUNTYNAME":"新竹縣","TOWNNAME":"湖口鄉","MARKTYPE":"994","Class":"4"},"geometry":{"x":252659.82060000021,"y":2750582.3099000007}},{"attributes":{"OBJECTID":24716,"LANDMARKID":"1000400000541","LANDMARKCO":"408","LANDMARKNA":"郵局-湖口新工郵局","LANDMARKAD":"1000405","ADDRESS":"新竹縣湖口鄉大勇路6號","TEL":"(03)5981-274","COUNTYNAME":"新竹縣","TOWNNAME":"湖口鄉","MARKTYPE":"994","Class":"4"},"geometry":{"x":251475.37849999964,"y":2751469.7789999992}},{"attributes":{"OBJECTID":24717,"LANDMARKID":"1000400000542","LANDMARKCO":"408","LANDMARKNA":"郵局-湖口長安郵局","LANDMARKAD":"1000405","ADDRESS":"新竹縣湖口鄉長嶺村八德路3段30號","TEL":"(03)5690-105","COUNTYNAME":"新竹縣","TOWNNAME":"湖口鄉","MARKTYPE":"994","Class":"4"},"geometry":{"x":259107.00179999974,"y":2753452.9177000001}},{"attributes":{"OBJECTID":24718,"LANDMARKID":"1000400000543","LANDMARKCO":"408","LANDMARKNA":"郵局-湖口德盛郵局","LANDMARKAD":"1000405","ADDRESS":"新竹縣湖口鄉成功路146號","TEL":"(03)5900-094","COUNTYNAME":"新竹縣","TOWNNAME":"湖口鄉","MARKTYPE":"994","Class":"4"},"geometry":{"x":254319.9888000004,"y":2755172.5095000006}},{"attributes":{"OBJECTID":24719,"LANDMARKID":"1000400000573","LANDMARKCO":"409","LANDMARKNA":"湖口鄉農會","LANDMARKAD":"1000405","ADDRESS":"新竹縣湖口鄉民族街109號","TEL":"03-5996155","COUNTYNAME":"新竹縣","TOWNNAME":"湖口鄉","MARKTYPE":"994","Class":"4"},"geometry":{"x":254594.00710000005,"y":2755030.9741999991}},{"attributes":{"OBJECTID":24720,"LANDMARKID":"1000400000430","LANDMARKCO":"404","LANDMARKNA":"台灣省自來水湖口營運所","LANDMARKAD":"1000405","ADDRESS":"新竹縣湖口鄉仁興路3號","TEL":" ","COUNTYNAME":"新竹縣","TOWNNAME":"湖口鄉","MARKTYPE":"994","Class":"4"},"geometry":{"x":251309.25729999971,"y":2751947.0133999996}},{"attributes":{"OBJECTID":24721,"LANDMARKID":"1000400000521","LANDMARKCO":"406","LANDMARKNA":"中華公園","LANDMARKAD":"1000405","ADDRESS":"新竹縣湖口鄉","TEL":" ","COUNTYNAME":"新竹縣","TOWNNAME":"湖口鄉","MARKTYPE":"994","Class":"4"},"geometry":{"x":251376.96129999962,"y":2751639.2432000004}},{"attributes":{"OBJECTID":24722,"LANDMARKID":"1000400000522","LANDMARKCO":"406","LANDMARKNA":"華興公園","LANDMARKAD":"1000405","ADDRESS":"新竹縣湖口鄉","TEL":" ","COUNTYNAME":"新竹縣","TOWNNAME":"湖口鄉","MARKTYPE":"994","Class":"4"},"geometry":{"x":251835.69749999978,"y":2751608.2444000002}},{"attributes":{"OBJECTID":24723,"LANDMARKID":"1000400000523","LANDMARKCO":"406","LANDMARKNA":"中興公園","LANDMARKAD":"1000405","ADDRESS":"新竹縣湖口鄉","TEL":" ","COUNTYNAME":"新竹縣","TOWNNAME":"湖口鄉","MARKTYPE":"994","Class":"4"},"geometry":{"x":251451.94319999963,"y":2751887.7280000001}},{"attributes":{"OBJECTID":24724,"LANDMARKID":"1000400000454","LANDMARKCO":"405","LANDMARKNA":"台亞加油站-湖口南下站（台塑）","LANDMARKAD":"1000405","ADDRESS":"新竹縣湖口鄉鳳山村鳳山崎路6之6號","TEL":"(03)598-6164","COUNTYNAME":"新竹縣","TOWNNAME":"湖口鄉","MARKTYPE":"994","Class":"4"},"geometry":{"x":250979.34659999982,"y":2750151.2565000001}},{"attributes":{"OBJECTID":24725,"LANDMARKID":"1000400000455","LANDMARKCO":"405","LANDMARKNA":"台亞加油站-湖口北上站（台塑）","LANDMARKAD":"1000405","ADDRESS":"新竹縣湖口鄉鳳山村竹高屋路38之2號","TEL":"(03)598-6184","COUNTYNAME":"新竹縣","TOWNNAME":"湖口鄉","MARKTYPE":"994","Class":"4"},"geometry":{"x":250951.86330000032,"y":2750041.1883000005}},{"attributes":{"OBJECTID":24726,"LANDMARKID":"1000400000456","LANDMARKCO":"405","LANDMARKNA":"台塑加油站-波羅文站(台塑)","LANDMARKAD":"1000405","ADDRESS":"新竹縣湖口鄉成功路869號","TEL":"03-5990861","COUNTYNAME":"新竹縣","TOWNNAME":"湖口鄉","MARKTYPE":"994","Class":"4"},"geometry":{"x":252382.78309999965,"y":2753693.1370999999}},{"attributes":{"OBJECTID":24727,"LANDMARKID":"1000400000457","LANDMARKCO":"405","LANDMARKNA":"台亞加油站-湖口站(台塑)","LANDMARKAD":"1000405","ADDRESS":"新竹縣湖口鄉湖南村八德路一段638號","TEL":"03-5695296","COUNTYNAME":"新竹縣","TOWNNAME":"湖口鄉","MARKTYPE":"994","Class":"4"},"geometry":{"x":255036.93809999991,"y":2752183.7178000007}},{"attributes":{"OBJECTID":24728,"LANDMARKID":"1000400000062","LANDMARKCO":"106","LANDMARKNA":"新竹縣湖口鄉戶政事務所","LANDMARKAD":"1000405","ADDRESS":"新竹縣湖口鄉成功路119巷8號","TEL":"03-5991199","COUNTYNAME":"新竹縣","TOWNNAME":"湖口鄉","MARKTYPE":"991","Class":"1"},"geometry":{"x":254428.06049999967,"y":2754889.9398999996}},{"attributes":{"OBJECTID":24729,"LANDMARKID":"1000400000156","LANDMARKCO":"108","LANDMARKNA":"新竹縣湖口鄉公所","LANDMARKAD":"1000405","ADDRESS":"新竹縣湖口鄉中央街1號","TEL":"035-993911","COUNTYNAME":"新竹縣","TOWNNAME":"湖口鄉","MARKTYPE":"991","Class":"1"},"geometry":{"x":254730.02329999954,"y":2754769.9280999992}},{"attributes":{"OBJECTID":24730,"LANDMARKID":"1000400000043","LANDMARKCO":"103","LANDMARKNA":"新竹縣湖口鄉鄉民代表會","LANDMARKAD":"1000405","ADDRESS":"新竹縣湖口鄉中央街1號5樓","TEL":"03-5992474","COUNTYNAME":"新竹縣","TOWNNAME":"湖口鄉","MARKTYPE":"991","Class":"1"},"geometry":{"x":254841.04849999957,"y":2754839.9839999992}},{"attributes":{"OBJECTID":24731,"LANDMARKID":"1000400000044","LANDMARKCO":"103","LANDMARKNA":"新竹縣湖口鄉衛生所","LANDMARKAD":"1000405","ADDRESS":"新竹縣湖口鄉中興街36號","TEL":"035-992654","COUNTYNAME":"新竹縣","TOWNNAME":"湖口鄉","MARKTYPE":"991","Class":"1"},"geometry":{"x":254846.03799999971,"y":2754809.9822000004}},{"attributes":{"OBJECTID":24732,"LANDMARKID":"1000400000150","LANDMARKCO":"107","LANDMARKNA":"新竹縣警察局湖口分駐所","LANDMARKAD":"1000405","ADDRESS":"新竹縣湖口鄉孝勢村中山路二段114號","TEL":"035-992034","COUNTYNAME":"新竹縣","TOWNNAME":"湖口鄉","MARKTYPE":"991","Class":"1"},"geometry":{"x":254433.06379999965,"y":2754899.9383000005}},{"attributes":{"OBJECTID":24733,"LANDMARKID":"1000400000001","LANDMARKCO":"101","LANDMARKNA":"職業訓練局新竹工業區就業服務中心","LANDMARKAD":"1000405","ADDRESS":"新竹縣湖口鄉中華路22號","TEL":"03-5981940","COUNTYNAME":"新竹縣","TOWNNAME":"湖口鄉","MARKTYPE":"991","Class":"1"},"geometry":{"x":251002.0206000004,"y":2751599.9979999997}},{"attributes":{"OBJECTID":24734,"LANDMARKID":"1000400000151","LANDMARKCO":"107","LANDMARKNA":"新竹縣消防局湖口消防分隊","LANDMARKAD":"1000405","ADDRESS":"新竹縣湖口鄉成功路109號","TEL":"035-992454","COUNTYNAME":"新竹縣","TOWNNAME":"湖口鄉","MARKTYPE":"991","Class":"1"},"geometry":{"x":254401.30829999968,"y":2755223.0484999996}},{"attributes":{"OBJECTID":24735,"LANDMARKID":"1000400000152","LANDMARKCO":"107","LANDMARKNA":"新竹縣消防局新工消防分隊","LANDMARKAD":"1000405","ADDRESS":"新竹縣湖口鄉文化路156號","TEL":"03-5981674","COUNTYNAME":"新竹縣","TOWNNAME":"湖口鄉","MARKTYPE":"991","Class":"1"},"geometry":{"x":251737.63260000013,"y":2751575.3719999995}},{"attributes":{"OBJECTID":24736,"LANDMARKID":"1000400000153","LANDMARKCO":"107","LANDMARKNA":"新竹縣警察局湖鏡派出所","LANDMARKAD":"1000405","ADDRESS":"新竹縣湖口鄉八德路二段142巷11號","TEL":"03-5690646","COUNTYNAME":"新竹縣","TOWNNAME":"湖口鄉","MARKTYPE":"991","Class":"1"},"geometry":{"x":255957.93769999966,"y":2752259.1511000004}},{"attributes":{"OBJECTID":24737,"LANDMARKID":"1000400000154","LANDMARKCO":"107","LANDMARKNA":"新竹縣警察局新工派出所","LANDMARKAD":"1000405","ADDRESS":"新竹縣湖口鄉鳳凰村文化路146號","TEL":"035-981561","COUNTYNAME":"新竹縣","TOWNNAME":"湖口鄉","MARKTYPE":"991","Class":"1"},"geometry":{"x":251722.83079999965,"y":2751563.3237999994}},{"attributes":{"OBJECTID":24738,"LANDMARKID":"1000400000060","LANDMARKCO":"105","LANDMARKNA":"新竹縣新湖地政事務所","LANDMARKAD":"1000405","ADDRESS":"新竹縣湖口鄉成功路105號","TEL":"035-903588","COUNTYNAME":"新竹縣","TOWNNAME":"湖口鄉","MARKTYPE":"991","Class":"1"},"geometry":{"x":254436.41830000002,"y":2755252.3871999998}},{"attributes":{"OBJECTID":24739,"LANDMARKID":"1000400000045","LANDMARKCO":"103","LANDMARKNA":"新竹縣教育會","LANDMARKAD":"1000405","ADDRESS":"新竹縣湖口鄉成功路360號","TEL":"03-5592714","COUNTYNAME":"新竹縣","TOWNNAME":"湖口鄉","MARKTYPE":"991","Class":"1"},"geometry":{"x":253918.55020000041,"y":2754605.5441999994}},{"attributes":{"OBJECTID":24740,"LANDMARKID":"1000400000302","LANDMARKCO":"204","LANDMARKNA":"新竹縣立圖書館湖口分館","LANDMARKAD":"1000405","ADDRESS":"新竹縣湖口鄉孝勢村忠孝路15號","TEL":" ","COUNTYNAME":"新竹縣","TOWNNAME":"湖口鄉","MARKTYPE":"992","Class":"2"},"geometry":{"x":254453.92650000006,"y":2754882.2699999996}},{"attributes":{"OBJECTID":24741,"LANDMARKID":"1000400000288","LANDMARKCO":"203","LANDMARKNA":"縣立中正國中","LANDMARKAD":"1000405","ADDRESS":"新竹縣湖口鄉鳳凰村仁興路2號","TEL":"035-981067","COUNTYNAME":"新竹縣","TOWNNAME":"湖口鄉","MARKTYPE":"992","Class":"2"},"geometry":{"x":251818.02049999963,"y":2751779.9915999994}},{"attributes":{"OBJECTID":24742,"LANDMARKID":"1000400000289","LANDMARKCO":"203","LANDMARKNA":"縣立華興國小","LANDMARKAD":"1000405","ADDRESS":"新竹縣湖口鄉文化路171號","TEL":"035-981789","COUNTYNAME":"新竹縣","TOWNNAME":"湖口鄉","MARKTYPE":"992","Class":"2"},"geometry":{"x":252029.0345999999,"y":2751859.9992999993}},{"attributes":{"OBJECTID":24743,"LANDMARKID":"1000400000290","LANDMARKCO":"203","LANDMARKNA":"縣立中興國小","LANDMARKAD":"1000405","ADDRESS":"新竹縣湖口鄉鳳凰村吉祥街43號","TEL":"035-982043","COUNTYNAME":"新竹縣","TOWNNAME":"湖口鄉","MARKTYPE":"992","Class":"2"},"geometry":{"x":252866.05790000036,"y":2750979.9964000005}},{"attributes":{"OBJECTID":24744,"LANDMARKID":"1000400000291","LANDMARKCO":"203","LANDMARKNA":"縣立和興國小","LANDMARKAD":"1000405","ADDRESS":"新竹縣湖口鄉和興村德興路930號","TEL":"035-992094","COUNTYNAME":"新竹縣","TOWNNAME":"湖口鄉","MARKTYPE":"992","Class":"2"},"geometry":{"x":253930.06840000022,"y":2757710.0080999993}},{"attributes":{"OBJECTID":24745,"LANDMARKID":"1000400000292","LANDMARKCO":"203","LANDMARKNA":"縣立新湖國中","LANDMARKAD":"1000405","ADDRESS":"新竹縣湖口鄉新湖路200號","TEL":"035-992159#31","COUNTYNAME":"新竹縣","TOWNNAME":"湖口鄉","MARKTYPE":"992","Class":"2"},"geometry":{"x":253624.10929999966,"y":2755082.5933999997}},{"attributes":{"OBJECTID":24746,"LANDMARKID":"1000400000293","LANDMARKCO":"203","LANDMARKNA":"縣立新湖國小","LANDMARKAD":"1000405","ADDRESS":"新竹縣湖口鄉民族街222號","TEL":"035-992062","COUNTYNAME":"新竹縣","TOWNNAME":"湖口鄉","MARKTYPE":"992","Class":"2"},"geometry":{"x":254808.84960000031,"y":2755345.2452000007}},{"attributes":{"OBJECTID":24747,"LANDMARKID":"1000400000294","LANDMARKCO":"203","LANDMARKNA":"縣立信勢國小","LANDMARKAD":"1000405","ADDRESS":"新竹縣湖口鄉信勢村成功路360號","TEL":"035-992133","COUNTYNAME":"新竹縣","TOWNNAME":"湖口鄉","MARKTYPE":"992","Class":"2"},"geometry":{"x":253918.55020000041,"y":2754605.5441999994}},{"attributes":{"OBJECTID":24748,"LANDMARKID":"1000400000170","LANDMARKCO":"201","LANDMARKNA":"中國科技大學新竹校區","LANDMARKAD":"1000405","ADDRESS":"新竹縣湖口鄉中山路三段530號","TEL":"03-6991111","COUNTYNAME":"新竹縣","TOWNNAME":"湖口鄉","MARKTYPE":"992","Class":"2"},"geometry":{"x":255677.39140000008,"y":2756818.0715999994}},{"attributes":{"OBJECTID":24749,"LANDMARKID":"1000400000171","LANDMARKCO":"202","LANDMARKNA":"縣立湖口中學","LANDMARKAD":"1000405","ADDRESS":"新竹縣湖口鄉中勢村14之2號","TEL":"035-690772","COUNTYNAME":"新竹縣","TOWNNAME":"湖口鄉","MARKTYPE":"992","Class":"2"},"geometry":{"x":255435.08220000006,"y":2753679.9683999997}},{"attributes":{"OBJECTID":24750,"LANDMARKID":"1000400000172","LANDMARKCO":"202","LANDMARKNA":"縣立湖口高中","LANDMARKAD":"1000405","ADDRESS":"新竹縣湖口鄉中正村14之2號","TEL":"035-690717","COUNTYNAME":"新竹縣","TOWNNAME":"湖口鄉","MARKTYPE":"992","Class":"2"},"geometry":{"x":255375.08829999994,"y":2753389.9920000006}},{"attributes":{"OBJECTID":24751,"LANDMARKID":"1000400000173","LANDMARKCO":"202","LANDMARKNA":"縣立湖口高中附設國中部","LANDMARKAD":"1000405","ADDRESS":"新竹縣湖口鄉中正村14之2號","TEL":"035-690717","COUNTYNAME":"新竹縣","TOWNNAME":"湖口鄉","MARKTYPE":"992","Class":"2"},"geometry":{"x":255378.09219999984,"y":2753399.9909000006}},{"attributes":{"OBJECTID":24752,"LANDMARKID":"1000400000286","LANDMARKCO":"203","LANDMARKNA":"縣立長安國小","LANDMARKAD":"1000405","ADDRESS":"新竹縣湖口鄉長安村11鄰1號","TEL":"035-690596","COUNTYNAME":"新竹縣","TOWNNAME":"湖口鄉","MARKTYPE":"992","Class":"2"},"geometry":{"x":259627.07940000016,"y":2753279.9494000003}},{"attributes":{"OBJECTID":24753,"LANDMARKID":"1000400000287","LANDMARKCO":"203","LANDMARKNA":"縣立湖口國小","LANDMARKAD":"1000405","ADDRESS":"新竹縣湖口鄉湖口村26號","TEL":"035-692403","COUNTYNAME":"新竹縣","TOWNNAME":"湖口鄉","MARKTYPE":"992","Class":"2"},"geometry":{"x":256126.02599999961,"y":2752299.9072999991}},{"attributes":{"OBJECTID":24754,"LANDMARKID":"1000400000367","LANDMARKCO":"308","LANDMARKNA":"國1-湖口交流道-北上","LANDMARKAD":"1000405","ADDRESS":"新竹縣湖口鄉","TEL":" ","COUNTYNAME":"新竹縣","TOWNNAME":"湖口鄉","MARKTYPE":"993","Class":"308"},"geometry":{"x":253152.41349999979,"y":2752026.3841999993}},{"attributes":{"OBJECTID":24755,"LANDMARKID":"1000400000368","LANDMARKCO":"308","LANDMARKNA":"湖口服務區","LANDMARKAD":"1000405","ADDRESS":" ","TEL":" ","COUNTYNAME":"新竹縣","TOWNNAME":"湖口鄉","MARKTYPE":"993","Class":"308"},"geometry":{"x":251041.57239999995,"y":2750204.0046999995}},{"attributes":{"OBJECTID":24756,"LANDMARKID":"1000400000369","LANDMARKCO":"308","LANDMARKNA":"國1-湖口交流道-南下","LANDMARKAD":"1000405","ADDRESS":"新竹縣湖口鄉","TEL":" ","COUNTYNAME":"新竹縣","TOWNNAME":"湖口鄉","MARKTYPE":"993","Class":"308"},"geometry":{"x":252745.87629999965,"y":2752005.3223999999}},{"attributes":{"OBJECTID":24757,"LANDMARKID":"1000400000336","LANDMARKCO":"303","LANDMARKNA":"湖口公有停車場","LANDMARKAD":"1000405","ADDRESS":"新竹縣湖口鄉","TEL":" ","COUNTYNAME":"新竹縣","TOWNNAME":"湖口鄉","MARKTYPE":"993","Class":"303"},"geometry":{"x":254937.8563000001,"y":2754893.8613000009}},{"attributes":{"OBJECTID":24758,"LANDMARKID":"1000400000337","LANDMARKCO":"303","LANDMARKNA":"湖口第一停車場","LANDMARKAD":"1000405","ADDRESS":"新竹縣湖口鄉","TEL":" ","COUNTYNAME":"新竹縣","TOWNNAME":"湖口鄉","MARKTYPE":"993","Class":"303"},"geometry":{"x":254483.11820000038,"y":2755096.6568}},{"attributes":{"OBJECTID":24759,"LANDMARKID":"1000400000338","LANDMARKCO":"303","LANDMARKNA":"口湖都市計畫停車場","LANDMARKAD":"1000405","ADDRESS":"新竹縣湖口鄉","TEL":" ","COUNTYNAME":"新竹縣","TOWNNAME":"湖口鄉","MARKTYPE":"993","Class":"303"},"geometry":{"x":256461.46839999966,"y":2753469.3987000007}},{"attributes":{"OBJECTID":24760,"LANDMARKID":"1000400000319","LANDMARKCO":"301","LANDMARKNA":"湖口火車站","LANDMARKAD":"1000405","ADDRESS":"新竹縣湖口鄉仁勢村中山路二段121號","TEL":"03-5992192","COUNTYNAME":"新竹縣","TOWNNAME":"湖口鄉","MARKTYPE":"993","Class":"301"},"geometry":{"x":254450.61000000034,"y":2755020.7490999997}},{"attributes":{"OBJECTID":24761,"LANDMARKID":"1000400000414","LANDMARKCO":"402","LANDMARKNA":"中華電信-湖口服務中心","LANDMARKAD":"1000405","ADDRESS":"新竹縣湖口鄉中央街20號","TEL":"123或0800-080-123","COUNTYNAME":"新竹縣","TOWNNAME":"湖口鄉","MARKTYPE":"994","Class":"4"},"geometry":{"x":254824.0466,"y":2754834.9900000002}},{"attributes":{"OBJECTID":24762,"LANDMARKID":"1000400000415","LANDMARKCO":"402","LANDMARKNA":"大眾電信(震旦通訊)-湖口中正店","LANDMARKAD":"1000405","ADDRESS":"新竹縣湖口鄉中正路一段41號","TEL":"03-5990499","COUNTYNAME":"新竹縣","TOWNNAME":"湖口鄉","MARKTYPE":"994","Class":"4"},"geometry":{"x":254581.0859000003,"y":2754959.9785999991}},{"attributes":{"OBJECTID":24763,"LANDMARKID":"1000400000662","LANDMARKCO":"603","LANDMARKNA":"雀之巢汽車旅館","LANDMARKAD":"1000405","ADDRESS":"新竹縣湖口鄉信義村王爺壟12-31號","TEL":"03-5903828","COUNTYNAME":"新竹縣","TOWNNAME":"湖口鄉","MARKTYPE":"996","Class":"6"},"geometry":{"x":255235.87810000032,"y":2754327.3593000006}},{"attributes":{"OBJECTID":24764,"LANDMARKID":"1000400000663","LANDMARKCO":"603","LANDMARKNA":"金都大旅社","LANDMARKAD":"1000405","ADDRESS":"新竹縣湖口鄉民生街108號","TEL":"03-5996255","COUNTYNAME":"新竹縣","TOWNNAME":"湖口鄉","MARKTYPE":"996","Class":"6"},"geometry":{"x":254770.33279999997,"y":2755011.2204}},{"attributes":{"OBJECTID":24765,"LANDMARKID":"1000400000664","LANDMARKCO":"603","LANDMARKNA":"浙大旅社","LANDMARKAD":"1000405","ADDRESS":"新竹縣湖口鄉鳳山村勝利路二段288號","TEL":"03-5982119","COUNTYNAME":"新竹縣","TOWNNAME":"湖口鄉","MARKTYPE":"996","Class":"6"},"geometry":{"x":251782.00820000004,"y":2749841.9964000005}},{"attributes":{"OBJECTID":24766,"LANDMARKID":"1000400000665","LANDMARKCO":"603","LANDMARKNA":"富國旅社","LANDMARKAD":"1000405","ADDRESS":"新竹縣湖口鄉達生路2號","TEL":"03-5992101","COUNTYNAME":"新竹縣","TOWNNAME":"湖口鄉","MARKTYPE":"996","Class":"6"},"geometry":{"x":254579.03969999962,"y":2755128.9791999999}},{"attributes":{"OBJECTID":24767,"LANDMARKID":"1000400000666","LANDMARKCO":"603","LANDMARKNA":"龍宮大旅社","LANDMARKAD":"1000405","ADDRESS":"新竹縣湖口鄉和愛路50號","TEL":"03-5992173","COUNTYNAME":"新竹縣","TOWNNAME":"湖口鄉","MARKTYPE":"996","Class":"6"},"geometry":{"x":254782.05250000022,"y":2755161.0045999996}},{"attributes":{"OBJECTID":24768,"LANDMARKID":"1000400000639","LANDMARKCO":"510","LANDMARKNA":"再興高爾夫球場","LANDMARKAD":"1000405","ADDRESS":"新竹縣湖口鄉長安村10鄰南窩50號","TEL":"03-5692318","COUNTYNAME":"新竹縣","TOWNNAME":"湖口鄉","MARKTYPE":"995","Class":"5"},"geometry":{"x":258768.93969999999,"y":2752880.8863999993}},{"attributes":{"OBJECTID":24769,"LANDMARKID":"1000400000640","LANDMARKCO":"510","LANDMARKNA":"長安高爾夫球場","LANDMARKAD":"1000405","ADDRESS":"新竹縣湖口鄉長安村南窩4鄰1號","TEL":"03-5693458","COUNTYNAME":"新竹縣","TOWNNAME":"湖口鄉","MARKTYPE":"995","Class":"5"},"geometry":{"x":261471.39049999975,"y":2752082.1412000004}},{"attributes":{"OBJECTID":24770,"LANDMARKID":"1000400000576","LANDMARKCO":"410","LANDMARKNA":"湖口老街","LANDMARKAD":"1000405","ADDRESS":"新竹縣湖口鄉","TEL":" ","COUNTYNAME":"新竹縣","TOWNNAME":"湖口鄉","MARKTYPE":"994","Class":"4"},"geometry":{"x":255664.91349999979,"y":2752095.0911999997}},{"attributes":{"OBJECTID":24771,"LANDMARKID":"1000400000477","LANDMARKCO":"405","LANDMARKNA":"中油加油站-北新站","LANDMARKAD":"1000403","ADDRESS":"新竹縣新埔鎮文山里文山路亞東段1020號","TEL":"03-5889630","COUNTYNAME":"新竹縣","TOWNNAME":"新埔鎮","MARKTYPE":"994","Class":"4"},"geometry":{"x":254972.3507000003,"y":2746652.8063999992}},{"attributes":{"OBJECTID":24772,"LANDMARKID":"1000400000478","LANDMARKCO":"405","LANDMARKNA":"中油加油站-長源站","LANDMARKAD":"1000403","ADDRESS":"新竹縣新埔鎮下寮里下枋寮107號","TEL":"03-5896269","COUNTYNAME":"新竹縣","TOWNNAME":"新埔鎮","MARKTYPE":"994","Class":"4"},"geometry":{"x":252466.74729999993,"y":2748978.5249000005}},{"attributes":{"OBJECTID":24773,"LANDMARKID":"1000400000479","LANDMARKCO":"405","LANDMARKNA":"中油加油站-新埔站(中油直營)","LANDMARKAD":"1000403","ADDRESS":"新竹縣新埔鎮中正路902號","TEL":"035-882174","COUNTYNAME":"新竹縣","TOWNNAME":"新埔鎮","MARKTYPE":"994","Class":"4"},"geometry":{"x":256931.0708999997,"y":2746693.3943000007}},{"attributes":{"OBJECTID":24774,"LANDMARKID":"1000400000480","LANDMARKCO":"405","LANDMARKNA":"中油加油站-枋寮站","LANDMARKAD":"1000403","ADDRESS":"新竹縣新埔鎮下寮里義民路三段426巷7號","TEL":"03-5888262","COUNTYNAME":"新竹縣","TOWNNAME":"新埔鎮","MARKTYPE":"994","Class":"4"},"geometry":{"x":253475.94610000029,"y":2748509.8247999996}},{"attributes":{"OBJECTID":24775,"LANDMARKID":"1000400000481","LANDMARKCO":"405","LANDMARKNA":"統一速邁樂加油站-新埔加油站(中油)","LANDMARKAD":"1000403","ADDRESS":"新竹縣新埔鎮新關路五埔段938號","TEL":" ","COUNTYNAME":"新竹縣","TOWNNAME":"新埔鎮","MARKTYPE":"994","Class":"4"},"geometry":{"x":259669.42239999957,"y":2746007.1487000007}},{"attributes":{"OBJECTID":24776,"LANDMARKID":"1000400000618","LANDMARKCO":"507","LANDMARKNA":"新埔上枋寮劉宅","LANDMARKAD":"1000403","ADDRESS":"新竹縣新埔鎮上寮里238號","TEL":" ","COUNTYNAME":"新竹縣","TOWNNAME":"新埔鎮","MARKTYPE":"995","Class":"5"},"geometry":{"x":255726.56159999967,"y":2747632.3013000004}},{"attributes":{"OBJECTID":24777,"LANDMARKID":"1000400000619","LANDMARKCO":"507","LANDMARKNA":"新埔劉家祠","LANDMARKAD":"1000403","ADDRESS":"新竹縣新埔鎮新生里和平街104號","TEL":" ","COUNTYNAME":"新竹縣","TOWNNAME":"新埔鎮","MARKTYPE":"995","Class":"5"},"geometry":{"x":257827.73500000034,"y":2746669.4827999994}},{"attributes":{"OBJECTID":24778,"LANDMARKID":"1000400000620","LANDMARKCO":"507","LANDMARKNA":"新埔潘宅","LANDMARKAD":"1000403","ADDRESS":"新竹縣新埔鎮新生里和平街90號","TEL":" ","COUNTYNAME":"新竹縣","TOWNNAME":"新埔鎮","MARKTYPE":"995","Class":"5"},"geometry":{"x":257689.22860000003,"y":2746667.6183000002}},{"attributes":{"OBJECTID":24779,"LANDMARKID":"1000400000621","LANDMARKCO":"507","LANDMARKNA":"新埔褒忠亭","LANDMARKAD":"1000403","ADDRESS":"新竹縣新埔鎮下寮里43號","TEL":" ","COUNTYNAME":"新竹縣","TOWNNAME":"新埔鎮","MARKTYPE":"995","Class":"5"},"geometry":{"x":255513.21239999961,"y":2747701.5530999992}},{"attributes":{"OBJECTID":24780,"LANDMARKID":"1000400000605","LANDMARKCO":"506","LANDMARKNA":"新埔鎮觀光果園","LANDMARKAD":"1000403","ADDRESS":"新竹縣新埔鎮中正路615號","TEL":"035-882065","COUNTYNAME":"新竹縣","TOWNNAME":"新埔鎮","MARKTYPE":"995","Class":"5"},"geometry":{"x":253970.73209999967,"y":2748582.9673999995}},{"attributes":{"OBJECTID":24781,"LANDMARKID":"1000400000546","LANDMARKCO":"408","LANDMARKNA":"郵局-新埔郵局","LANDMARKAD":"1000403","ADDRESS":"新竹縣新埔鎮中正路210號","TEL":"(03)5882-134","COUNTYNAME":"新竹縣","TOWNNAME":"新埔鎮","MARKTYPE":"994","Class":"4"},"geometry":{"x":258386.15739999991,"y":2746655.8628000002}},{"attributes":{"OBJECTID":24782,"LANDMARKID":"1000400000547","LANDMARKCO":"408","LANDMARKNA":"郵局-新埔中正郵局","LANDMARKAD":"1000403","ADDRESS":"新竹縣新埔鎮中正路411號","TEL":"(03)5882-644","COUNTYNAME":"新竹縣","TOWNNAME":"新埔鎮","MARKTYPE":"994","Class":"4"},"geometry":{"x":257650.46190000046,"y":2746716.7717000004}},{"attributes":{"OBJECTID":24783,"LANDMARKID":"1000400000548","LANDMARKCO":"408","LANDMARKNA":"郵局-新埔遠東郵局","LANDMARKAD":"1000403","ADDRESS":"新竹縣新埔鎮文山路亞東段742號","TEL":"(03)5886-391","COUNTYNAME":"新竹縣","TOWNNAME":"新埔鎮","MARKTYPE":"994","Class":"4"},"geometry":{"x":255443.09090000018,"y":2746541.8278999999}},{"attributes":{"OBJECTID":24784,"LANDMARKID":"1000400000570","LANDMARKCO":"409","LANDMARKNA":"新竹縣新埔鎮農會","LANDMARKAD":"1000403","ADDRESS":"新竹縣新埔鎮中正路582號","TEL":"03-5882002","COUNTYNAME":"新竹縣","TOWNNAME":"新埔鎮","MARKTYPE":"994","Class":"4"},"geometry":{"x":257576.2050999999,"y":2746739.1340999994}},{"attributes":{"OBJECTID":24785,"LANDMARKID":"1000400000429","LANDMARKCO":"404","LANDMARKNA":"台灣省自來水新埔營運所","LANDMARKAD":"1000403","ADDRESS":"新竹縣新埔鎮上樟路一段158巷23號","TEL":" ","COUNTYNAME":"新竹縣","TOWNNAME":"新埔鎮","MARKTYPE":"994","Class":"4"},"geometry":{"x":258121.77740000002,"y":2746951.3684}},{"attributes":{"OBJECTID":24786,"LANDMARKID":"1000400000515","LANDMARKCO":"406","LANDMARKNA":"新埔鎮立運動公園","LANDMARKAD":"1000403","ADDRESS":"新竹縣新埔鎮","TEL":" ","COUNTYNAME":"新竹縣","TOWNNAME":"新埔鎮","MARKTYPE":"994","Class":"4"},"geometry":{"x":258457.15830000024,"y":2747018.6121999994}},{"attributes":{"OBJECTID":24787,"LANDMARKID":"1000400000516","LANDMARKCO":"406","LANDMARKNA":"鳳山溪河濱運動公園","LANDMARKAD":"1000403","ADDRESS":"新竹縣新埔鎮","TEL":" ","COUNTYNAME":"新竹縣","TOWNNAME":"新埔鎮","MARKTYPE":"994","Class":"4"},"geometry":{"x":257008.23539999966,"y":2746199.3562000003}},{"attributes":{"OBJECTID":24788,"LANDMARKID":"1000400000517","LANDMARKCO":"406","LANDMARKNA":"鎮運動公園","LANDMARKAD":"1000403","ADDRESS":"新竹縣新埔鎮","TEL":" ","COUNTYNAME":"新竹縣","TOWNNAME":"新埔鎮","MARKTYPE":"994","Class":"4"},"geometry":{"x":258257.81659999955,"y":2746856.2679999992}},{"attributes":{"OBJECTID":24789,"LANDMARKID":"1000400000518","LANDMARKCO":"406","LANDMARKNA":"新埔公園","LANDMARKAD":"1000403","ADDRESS":"新竹縣新埔鎮","TEL":" ","COUNTYNAME":"新竹縣","TOWNNAME":"新埔鎮","MARKTYPE":"994","Class":"4"},"geometry":{"x":257319.88929999992,"y":2746943.6368000004}},{"attributes":{"OBJECTID":24790,"LANDMARKID":"1000400000482","LANDMARKCO":"405","LANDMARKNA":"全國加油站-新埔站（台塑）","LANDMARKAD":"1000403","ADDRESS":"新竹縣新埔鎮五埔里新關路五埔段963號","TEL":"03-5886463","COUNTYNAME":"新竹縣","TOWNNAME":"新埔鎮","MARKTYPE":"994","Class":"4"},"geometry":{"x":258854.70739999972,"y":2746350.9231000002}},{"attributes":{"OBJECTID":24791,"LANDMARKID":"1000400000483","LANDMARKCO":"405","LANDMARKNA":"台塑加油站-新關站(台塑)","LANDMARKAD":"1000403","ADDRESS":"新竹縣新埔鎮文山里文山路亞東段871號","TEL":"03-5892224","COUNTYNAME":"新竹縣","TOWNNAME":"新埔鎮","MARKTYPE":"994","Class":"4"},"geometry":{"x":254825.17289999966,"y":2746637.9436000008}},{"attributes":{"OBJECTID":24792,"LANDMARKID":"1000400000484","LANDMARKCO":"405","LANDMARKNA":"台塑加油站-大象站(台塑)","LANDMARKAD":"1000403","ADDRESS":"新竹縣新埔鄉文山路犛頭山段652號","TEL":"03-5888859","COUNTYNAME":"新竹縣","TOWNNAME":"新埔鎮","MARKTYPE":"994","Class":"4"},"geometry":{"x":253369.33380000014,"y":2747083.9282000009}},{"attributes":{"OBJECTID":24793,"LANDMARKID":"1000400000157","LANDMARKCO":"108","LANDMARKNA":"新竹縣新埔鎮公所","LANDMARKAD":"1000403","ADDRESS":"新竹縣新埔鎮中正路776號","TEL":"03-5881311","COUNTYNAME":"新竹縣","TOWNNAME":"新埔鎮","MARKTYPE":"991","Class":"1"},"geometry":{"x":257222.34130000044,"y":2746725.4439000003}},{"attributes":{"OBJECTID":24794,"LANDMARKID":"1000400000046","LANDMARKCO":"103","LANDMARKNA":"新竹縣新埔鎮鎮民代表會","LANDMARKAD":"1000403","ADDRESS":"新竹縣新埔鎮中正路766號","TEL":"03-5882057","COUNTYNAME":"新竹縣","TOWNNAME":"新埔鎮","MARKTYPE":"991","Class":"1"},"geometry":{"x":257242.03980000038,"y":2746722.5336000007}},{"attributes":{"OBJECTID":24795,"LANDMARKID":"1000400000047","LANDMARKCO":"103","LANDMARKNA":"新竹縣新埔鎮衛生所","LANDMARKAD":"1000403","ADDRESS":"新竹縣新埔鎮中正路758號","TEL":"03-5882017","COUNTYNAME":"新竹縣","TOWNNAME":"新埔鎮","MARKTYPE":"991","Class":"1"},"geometry":{"x":257263.03749999963,"y":2746718.0724999998}},{"attributes":{"OBJECTID":24796,"LANDMARKID":"1000400000146","LANDMARKCO":"107","LANDMARKNA":"新竹縣消防局新埔消防分隊","LANDMARKAD":"1000403","ADDRESS":"新竹縣新埔鎮中正路475號","TEL":"03-5882187","COUNTYNAME":"新竹縣","TOWNNAME":"新埔鎮","MARKTYPE":"991","Class":"1"},"geometry":{"x":257527.13549999986,"y":2746681.2766999993}},{"attributes":{"OBJECTID":24797,"LANDMARKID":"1000400000147","LANDMARKCO":"107","LANDMARKNA":"新竹縣警察局新埔分局","LANDMARKAD":"1000403","ADDRESS":"新竹縣新埔鎮中正路475號","TEL":"03-5882004","COUNTYNAME":"新竹縣","TOWNNAME":"新埔鎮","MARKTYPE":"991","Class":"1"},"geometry":{"x":257527.13549999986,"y":2746681.2766999993}},{"attributes":{"OBJECTID":24798,"LANDMARKID":"1000400000148","LANDMARKCO":"107","LANDMARKNA":"新竹縣警察局新埔派出所","LANDMARKAD":"1000403","ADDRESS":"新竹縣新埔鎮中正路475號","TEL":"03-5882034","COUNTYNAME":"新竹縣","TOWNNAME":"新埔鎮","MARKTYPE":"991","Class":"1"},"geometry":{"x":257527.13549999986,"y":2746681.2766999993}},{"attributes":{"OBJECTID":24799,"LANDMARKID":"1000400000149","LANDMARKCO":"107","LANDMARKNA":"新竹縣警察局寶石派出所","LANDMARKAD":"1000403","ADDRESS":"新竹縣新埔鎮寶石里文德路2段599號","TEL":"03-5882064","COUNTYNAME":"新竹縣","TOWNNAME":"新埔鎮","MARKTYPE":"991","Class":"1"},"geometry":{"x":257850.6286000004,"y":2745444.7583000008}},{"attributes":{"OBJECTID":24800,"LANDMARKID":"1000400000064","LANDMARKCO":"106","LANDMARKNA":"新竹縣新埔鎮戶政事務所","LANDMARKAD":"1000403","ADDRESS":"新竹縣新埔鎮廣和路8號","TEL":"03-5882424","COUNTYNAME":"新竹縣","TOWNNAME":"新埔鎮","MARKTYPE":"991","Class":"1"},"geometry":{"x":257624.02479999978,"y":2746658.5749999993}}]}