{"displayFieldName":"COUNTYNAME","fieldAliases":{"OBJECTID":"OBJECTID","LANDMARKID":"LANDMARKID","LANDMARKCO":"LANDMARKCO","LANDMARKNA":"LANDMARKNA","LANDMARKAD":"LANDMARKAD","ADDRESS":"ADDRESS","TEL":"TEL","COUNTYNAME":"COUNTYNAME","TOWNNAME":"TOWNNAME","MARKTYPE":"MARKTYPE","Class":"Class"},"geometryType":"esriGeometryPoint","spatialReference":{"wkid":102443},"fields":[{"name":"OBJECTID","type":"esriFieldTypeOID","alias":"OBJECTID"},{"name":"LANDMARKID","type":"esriFieldTypeString","alias":"LANDMARKID","length":15},{"name":"LANDMARKCO","type":"esriFieldTypeString","alias":"LANDMARKCO","length":15},{"name":"LANDMARKNA","type":"esriFieldTypeString","alias":"LANDMARKNA","length":50},{"name":"LANDMARKAD","type":"esriFieldTypeString","alias":"LANDMARKAD","length":15},{"name":"ADDRESS","type":"esriFieldTypeString","alias":"ADDRESS","length":56},{"name":"TEL","type":"esriFieldTypeString","alias":"TEL","length":36},{"name":"COUNTYNAME","type":"esriFieldTypeString","alias":"COUNTYNAME","length":15},{"name":"TOWNNAME","type":"esriFieldTypeString","alias":"TOWNNAME","length":13},{"name":"MARKTYPE","type":"esriFieldTypeString","alias":"MARKTYPE","length":12},{"name":"Class","type":"esriFieldTypeString","alias":"Class","length":5}],"features":[{"attributes":{"OBJECTID":14201,"LANDMARKID":"1001900000159","LANDMARKCO":"202","LANDMARKNA":"私立曉明女中","LANDMARKAD":"1001905","ADDRESS":"台中市大雅路452號","TEL":"04-22921175","COUNTYNAME":"台中市","TOWNNAME":"北區","MARKTYPE":"992","Class":"2"},"geometry":{"x":216846.58519999962,"y":2673699.8469999991}},{"attributes":{"OBJECTID":14202,"LANDMARKID":"1001900000160","LANDMARKCO":"202","LANDMARKNA":"國立台中一中","LANDMARKAD":"1001905","ADDRESS":"台中市育才街2號","TEL":"04-22226081","COUNTYNAME":"台中市","TOWNNAME":"北區","MARKTYPE":"992","Class":"2"},"geometry":{"x":218190.1464999998,"y":2671579.8112000003}},{"attributes":{"OBJECTID":14203,"LANDMARKID":"1001900000161","LANDMARKCO":"202","LANDMARKNA":"國立台中二中","LANDMARKAD":"1001905","ADDRESS":"台中市英士路109號","TEL":"04-22021521","COUNTYNAME":"台中市","TOWNNAME":"北區","MARKTYPE":"992","Class":"2"},"geometry":{"x":216993.57569999993,"y":2672027.1338999998}},{"attributes":{"OBJECTID":14204,"LANDMARKID":"1001900000162","LANDMARKCO":"202","LANDMARKNA":"私立光華高工","LANDMARKAD":"1001905","ADDRESS":"台中市進化路515號","TEL":"04-22333984","COUNTYNAME":"台中市","TOWNNAME":"北區","MARKTYPE":"992","Class":"2"},"geometry":{"x":218917.13989999983,"y":2672614.8125}},{"attributes":{"OBJECTID":14205,"LANDMARKID":"1001900000163","LANDMARKCO":"202","LANDMARKNA":"私立曉明女中附設國中部","LANDMARKAD":"1001905","ADDRESS":"台中市大雅路452號","TEL":"04-22921175","COUNTYNAME":"台中市","TOWNNAME":"北區","MARKTYPE":"992","Class":"2"},"geometry":{"x":216846.58519999962,"y":2673699.8469999991}},{"attributes":{"OBJECTID":14206,"LANDMARKID":"1001900000213","LANDMARKCO":"203","LANDMARKNA":"市立雙十國中","LANDMARKAD":"1001905","ADDRESS":"台中市力行路258號","TEL":"04-22334445","COUNTYNAME":"台中市","TOWNNAME":"北區","MARKTYPE":"992","Class":"2"},"geometry":{"x":218597.53120000008,"y":2671970.8495000005}},{"attributes":{"OBJECTID":14207,"LANDMARKID":"1001900000214","LANDMARKCO":"203","LANDMARKNA":"市立五權國中","LANDMARKAD":"1001905","ADDRESS":"台中市英才路1號","TEL":"04-22012180","COUNTYNAME":"台中市","TOWNNAME":"北區","MARKTYPE":"992","Class":"2"},"geometry":{"x":217311.81840000022,"y":2672270.3811000008}},{"attributes":{"OBJECTID":14208,"LANDMARKID":"1001900000215","LANDMARKCO":"203","LANDMARKNA":"市立太平國小","LANDMARKAD":"1001905","ADDRESS":"台中市太平路74號","TEL":"04-22211101","COUNTYNAME":"台中市","TOWNNAME":"北區","MARKTYPE":"992","Class":"2"},"geometry":{"x":217686.89269999973,"y":2671589.0791999996}},{"attributes":{"OBJECTID":14209,"LANDMARKID":"1001900000216","LANDMARKCO":"203","LANDMARKNA":"市立省三國小","LANDMARKAD":"1001905","ADDRESS":"台中市健行路350號","TEL":"04-22318092","COUNTYNAME":"台中市","TOWNNAME":"北區","MARKTYPE":"992","Class":"2"},"geometry":{"x":217876.70170000009,"y":2672717.8914999999}},{"attributes":{"OBJECTID":14210,"LANDMARKID":"1001900000217","LANDMARKCO":"203","LANDMARKNA":"市立健行國小","LANDMARKAD":"1001905","ADDRESS":"台中市健行路666號","TEL":"04-22038064","COUNTYNAME":"台中市","TOWNNAME":"北區","MARKTYPE":"992","Class":"2"},"geometry":{"x":216747.40940000024,"y":2672713.0054000001}},{"attributes":{"OBJECTID":14211,"LANDMARKID":"1001900000218","LANDMARKCO":"203","LANDMARKNA":"市立賴厝國小","LANDMARKAD":"1001905","ADDRESS":"台中市漢口路四段168號","TEL":"04-22302388","COUNTYNAME":"台中市","TOWNNAME":"北區","MARKTYPE":"992","Class":"2"},"geometry":{"x":217352.51929999981,"y":2673505.1182000004}},{"attributes":{"OBJECTID":14212,"LANDMARKID":"1001900000219","LANDMARKCO":"203","LANDMARKNA":"市立篤行國小","LANDMARKAD":"1001905","ADDRESS":"台中市篤行路321號","TEL":"04-22013483","COUNTYNAME":"台中市","TOWNNAME":"北區","MARKTYPE":"992","Class":"2"},"geometry":{"x":216771.08660000004,"y":2672251.4740999993}},{"attributes":{"OBJECTID":14213,"LANDMARKID":"1001900000220","LANDMARKCO":"203","LANDMARKNA":"私立育仁小學","LANDMARKAD":"1001905","ADDRESS":"台中市錦祥里雙十路二段50號","TEL":"04-22327675","COUNTYNAME":"台中市","TOWNNAME":"北區","MARKTYPE":"992","Class":"2"},"geometry":{"x":218567.52190000005,"y":2672440.6152999997}},{"attributes":{"OBJECTID":14214,"LANDMARKID":"1001900000221","LANDMARKCO":"203","LANDMARKNA":"台中教育大學附小","LANDMARKAD":"1001905","ADDRESS":"台中市民權路220號","TEL":"04-22224269","COUNTYNAME":"台中市","TOWNNAME":"北區","MARKTYPE":"992","Class":"2"},"geometry":{"x":216702.5036000004,"y":2671091.7437999994}},{"attributes":{"OBJECTID":14215,"LANDMARKID":"1001900000141","LANDMARKCO":"201","LANDMARKNA":"中國醫藥大學","LANDMARKAD":"1001905","ADDRESS":"台中市學士路91號","TEL":"04-22053366","COUNTYNAME":"台中市","TOWNNAME":"北區","MARKTYPE":"992","Class":"2"},"geometry":{"x":217593.73639999982,"y":2672374.4225999992}},{"attributes":{"OBJECTID":14216,"LANDMARKID":"1001900000157","LANDMARKCO":"202","LANDMARKNA":"私立新民高中","LANDMARKAD":"1001905","ADDRESS":"台中市三民路三段289號","TEL":"04-22334105","COUNTYNAME":"台中市","TOWNNAME":"北區","MARKTYPE":"992","Class":"2"},"geometry":{"x":218147.4095999999,"y":2672550.1079999991}},{"attributes":{"OBJECTID":14217,"LANDMARKID":"1001900000158","LANDMARKCO":"202","LANDMARKNA":"私立新民高中附設國中部","LANDMARKAD":"1001905","ADDRESS":"台中市三民路三段289號","TEL":"04-22334105","COUNTYNAME":"台中市","TOWNNAME":"北區","MARKTYPE":"992","Class":"2"},"geometry":{"x":218137.38709999993,"y":2672560.0855999999}},{"attributes":{"OBJECTID":14218,"LANDMARKID":"1001900000142","LANDMARKCO":"201","LANDMARKNA":"國立台中技術學院","LANDMARKAD":"1001905","ADDRESS":"台中市三民路三段129號","TEL":"04-22211181","COUNTYNAME":"台中市","TOWNNAME":"北區","MARKTYPE":"992","Class":"2"},"geometry":{"x":217817.82309999969,"y":2671750.6462999992}},{"attributes":{"OBJECTID":14219,"LANDMARKID":"1001900000143","LANDMARKCO":"201","LANDMARKNA":"國立台中技術學院附空中商專","LANDMARKAD":"1001905","ADDRESS":"台中市三民路三段129號","TEL":"04-22260620","COUNTYNAME":"台中市","TOWNNAME":"北區","MARKTYPE":"992","Class":"2"},"geometry":{"x":217806.75519999955,"y":2671780.6212000009}},{"attributes":{"OBJECTID":14220,"LANDMARKID":"1001900000144","LANDMARKCO":"201","LANDMARKNA":"私立曉明長春大學","LANDMARKAD":"1001905","ADDRESS":"台中市","TEL":" ","COUNTYNAME":"台中市","TOWNNAME":"北區","MARKTYPE":"992","Class":"2"},"geometry":{"x":216968.85960000008,"y":2673580.6484999992}},{"attributes":{"OBJECTID":14221,"LANDMARKID":"1001900000145","LANDMARKCO":"201","LANDMARKNA":"私立天主教教理研究院","LANDMARKAD":"1001905","ADDRESS":"台中市","TEL":" ","COUNTYNAME":"台中市","TOWNNAME":"北區","MARKTYPE":"992","Class":"2"},"geometry":{"x":217441.75549999997,"y":2673010.4312999994}},{"attributes":{"OBJECTID":14222,"LANDMARKID":"1001900000464","LANDMARKCO":"303","LANDMARKNA":"植物園停車場","LANDMARKAD":"1001905","ADDRESS":" ","TEL":"04-23226940","COUNTYNAME":"台中市","TOWNNAME":"北區","MARKTYPE":"993","Class":"303"},"geometry":{"x":216253.75480000023,"y":2672453.5835999995}},{"attributes":{"OBJECTID":14223,"LANDMARKID":"1001900000465","LANDMARKCO":"303","LANDMARKNA":"武昌停車場","LANDMARKAD":"1001905","ADDRESS":" ","TEL":" ","COUNTYNAME":"台中市","TOWNNAME":"北區","MARKTYPE":"993","Class":"303"},"geometry":{"x":216283.02589999977,"y":2673829.0697000008}},{"attributes":{"OBJECTID":14224,"LANDMARKID":"1001900000466","LANDMARKCO":"303","LANDMARKNA":"遊覽車停車場","LANDMARKAD":"1001905","ADDRESS":" ","TEL":"04-23226940","COUNTYNAME":"台中市","TOWNNAME":"北區","MARKTYPE":"993","Class":"303"},"geometry":{"x":216252.79459999967,"y":2672473.4447000008}},{"attributes":{"OBJECTID":14225,"LANDMARKID":"1001900000467","LANDMARKCO":"303","LANDMARKNA":"中德停車場","LANDMARKAD":"1001905","ADDRESS":" ","TEL":" ","COUNTYNAME":"台中市","TOWNNAME":"北區","MARKTYPE":"993","Class":"303"},"geometry":{"x":216411.51939999964,"y":2673466.0771999992}},{"attributes":{"OBJECTID":14226,"LANDMARKID":"1001900000468","LANDMARKCO":"303","LANDMARKNA":"鼎壹大飯店停車場","LANDMARKAD":"1001905","ADDRESS":"台中市北屯區麻園西街52號","TEL":"04-22952266","COUNTYNAME":"台中市","TOWNNAME":"北區","MARKTYPE":"993","Class":"303"},"geometry":{"x":216833.83899999969,"y":2674395.6369000003}},{"attributes":{"OBJECTID":14227,"LANDMARKID":"1001900000469","LANDMARKCO":"303","LANDMARKNA":"梅村大飯店停車場","LANDMARKAD":"1001905","ADDRESS":" ","TEL":"04-22010133","COUNTYNAME":"台中市","TOWNNAME":"北區","MARKTYPE":"993","Class":"303"},"geometry":{"x":217033.79430000018,"y":2673111.6999999993}},{"attributes":{"OBJECTID":14228,"LANDMARKID":"1001900000470","LANDMARKCO":"303","LANDMARKNA":"嘉豪大飯店停車場","LANDMARKAD":"1001905","ADDRESS":"台中市北區成功路437號","TEL":"04-22212186","COUNTYNAME":"台中市","TOWNNAME":"北區","MARKTYPE":"993","Class":"303"},"geometry":{"x":217042.72470000014,"y":2671336.0151000004}},{"attributes":{"OBJECTID":14229,"LANDMARKID":"1001900000471","LANDMARKCO":"303","LANDMARKNA":"仁美大飯店停車場","LANDMARKAD":"1001905","ADDRESS":" ","TEL":"04-22062730","COUNTYNAME":"台中市","TOWNNAME":"北區","MARKTYPE":"993","Class":"303"},"geometry":{"x":217180.29530000035,"y":2672651.5443999991}},{"attributes":{"OBJECTID":14230,"LANDMARKID":"1001900000472","LANDMARKCO":"303","LANDMARKNA":"中華停車場","LANDMARKAD":"1001905","ADDRESS":" ","TEL":" ","COUNTYNAME":"台中市","TOWNNAME":"北區","MARKTYPE":"993","Class":"303"},"geometry":{"x":217268.46640000027,"y":2671372.4225999992}},{"attributes":{"OBJECTID":14231,"LANDMARKID":"1001900000473","LANDMARKCO":"303","LANDMARKNA":"大功圓保齡球館立體停車場","LANDMARKAD":"1001905","ADDRESS":" ","TEL":"04-22011100","COUNTYNAME":"台中市","TOWNNAME":"北區","MARKTYPE":"993","Class":"303"},"geometry":{"x":217345.57940000016,"y":2671668.0019000005}},{"attributes":{"OBJECTID":14232,"LANDMARKID":"1001900000474","LANDMARKCO":"303","LANDMARKNA":"正豪大飯店停車場","LANDMARKAD":"1001905","ADDRESS":" ","TEL":"04-22023990","COUNTYNAME":"台中市","TOWNNAME":"北區","MARKTYPE":"993","Class":"303"},"geometry":{"x":217374.82760000043,"y":2671904.7949999999}},{"attributes":{"OBJECTID":14233,"LANDMARKID":"1001900000475","LANDMARKCO":"303","LANDMARKNA":"金滿家大飯店停車場","LANDMARKAD":"1001905","ADDRESS":" ","TEL":"04-22012526","COUNTYNAME":"台中市","TOWNNAME":"北區","MARKTYPE":"993","Class":"303"},"geometry":{"x":217517.50659999996,"y":2672095.2218999993}},{"attributes":{"OBJECTID":14234,"LANDMARKID":"1001900000476","LANDMARKCO":"303","LANDMARKNA":"元帥大飯店停車場","LANDMARKAD":"1001905","ADDRESS":" ","TEL":"04-22026181","COUNTYNAME":"台中市","TOWNNAME":"北區","MARKTYPE":"993","Class":"303"},"geometry":{"x":217518.13040000014,"y":2671927.8157000002}},{"attributes":{"OBJECTID":14235,"LANDMARKID":"1001900000477","LANDMARKCO":"303","LANDMARKNA":"富比世大飯店停車場","LANDMARKAD":"1001905","ADDRESS":" ","TEL":"04-22058811","COUNTYNAME":"台中市","TOWNNAME":"北區","MARKTYPE":"993","Class":"303"},"geometry":{"x":217559.18969999999,"y":2672738.0171000008}},{"attributes":{"OBJECTID":14236,"LANDMARKID":"1001900000478","LANDMARKCO":"303","LANDMARKNA":"中國醫藥學院地下停車場","LANDMARKAD":"1001905","ADDRESS":" ","TEL":" ","COUNTYNAME":"台中市","TOWNNAME":"北區","MARKTYPE":"993","Class":"303"},"geometry":{"x":217596.86969999969,"y":2672400.0166999996}},{"attributes":{"OBJECTID":14237,"LANDMARKID":"1001900000479","LANDMARKCO":"303","LANDMARKNA":"福音街停車場","LANDMARKAD":"1001905","ADDRESS":" ","TEL":" ","COUNTYNAME":"台中市","TOWNNAME":"北區","MARKTYPE":"993","Class":"303"},"geometry":{"x":217602.2882000003,"y":2671310.8698999994}},{"attributes":{"OBJECTID":14238,"LANDMARKID":"1001900000480","LANDMARKCO":"303","LANDMARKNA":"中正公園地下停車場","LANDMARKAD":"1001905","ADDRESS":" ","TEL":"04-22329745","COUNTYNAME":"台中市","TOWNNAME":"北區","MARKTYPE":"993","Class":"303"},"geometry":{"x":217615.53639999963,"y":2672490.4905999992}},{"attributes":{"OBJECTID":14239,"LANDMARKID":"1001900000481","LANDMARKCO":"303","LANDMARKNA":"永興停車場","LANDMARKAD":"1001905","ADDRESS":" ","TEL":" ","COUNTYNAME":"台中市","TOWNNAME":"北區","MARKTYPE":"993","Class":"303"},"geometry":{"x":217686.85929999966,"y":2673332.8004000001}},{"attributes":{"OBJECTID":14240,"LANDMARKID":"1001900000482","LANDMARKCO":"303","LANDMARKNA":"台中中山堂停車場","LANDMARKAD":"1001905","ADDRESS":" ","TEL":"04-22303100","COUNTYNAME":"台中市","TOWNNAME":"北區","MARKTYPE":"993","Class":"303"},"geometry":{"x":217798.93269999977,"y":2672159.1125000007}},{"attributes":{"OBJECTID":14241,"LANDMARKID":"1001900000483","LANDMARKCO":"303","LANDMARKNA":"中山公園停車場","LANDMARKAD":"1001905","ADDRESS":"台中市北區公園路37之1號","TEL":"04-22224174","COUNTYNAME":"台中市","TOWNNAME":"北區","MARKTYPE":"993","Class":"303"},"geometry":{"x":217765.72699999996,"y":2671170.0122999996}},{"attributes":{"OBJECTID":14242,"LANDMARKID":"1001900000484","LANDMARKCO":"303","LANDMARKNA":"五義街邊停車場","LANDMARKAD":"1001905","ADDRESS":" ","TEL":" ","COUNTYNAME":"台中市","TOWNNAME":"北區","MARKTYPE":"993","Class":"303"},"geometry":{"x":217824.96949999966,"y":2672222.0865000002}},{"attributes":{"OBJECTID":14243,"LANDMARKID":"1001900000485","LANDMARKCO":"303","LANDMARKNA":"中山堂南側停車場","LANDMARKAD":"1001905","ADDRESS":" ","TEL":" ","COUNTYNAME":"台中市","TOWNNAME":"北區","MARKTYPE":"993","Class":"303"},"geometry":{"x":217825.26429999992,"y":2672090.2989000008}},{"attributes":{"OBJECTID":14244,"LANDMARKID":"1001900000486","LANDMARKCO":"303","LANDMARKNA":"台灣體育學院排球館停車場","LANDMARKAD":"1001905","ADDRESS":" ","TEL":" ","COUNTYNAME":"台中市","TOWNNAME":"北區","MARKTYPE":"993","Class":"303"},"geometry":{"x":218191.10580000002,"y":2671472.0990999993}},{"attributes":{"OBJECTID":14245,"LANDMARKID":"1001900000487","LANDMARKCO":"303","LANDMARKNA":"金華停車場","LANDMARKAD":"1001905","ADDRESS":" ","TEL":" ","COUNTYNAME":"台中市","TOWNNAME":"北區","MARKTYPE":"993","Class":"303"},"geometry":{"x":218660.26209999993,"y":2672299.7868000008}},{"attributes":{"OBJECTID":14246,"LANDMARKID":"1001900000488","LANDMARKCO":"303","LANDMARKNA":"建成停車場","LANDMARKAD":"1001905","ADDRESS":" ","TEL":" ","COUNTYNAME":"台中市","TOWNNAME":"北區","MARKTYPE":"993","Class":"303"},"geometry":{"x":219429.52689999994,"y":2672226.9242000002}},{"attributes":{"OBJECTID":14247,"LANDMARKID":"1001900000489","LANDMARKCO":"303","LANDMARKNA":"自來水公司停車場","LANDMARKAD":"1001905","ADDRESS":" ","TEL":" ","COUNTYNAME":"台中市","TOWNNAME":"北區","MARKTYPE":"993","Class":"303"},"geometry":{"x":218387.62669999991,"y":2671658.1272999998}},{"attributes":{"OBJECTID":14248,"LANDMARKID":"1001900000490","LANDMARKCO":"303","LANDMARKNA":"中山公園地下停車場","LANDMARKAD":"1001905","ADDRESS":"台中市北區公園路8之1號","TEL":" ","COUNTYNAME":"台中市","TOWNNAME":"北區","MARKTYPE":"993","Class":"303"},"geometry":{"x":217698.08189999964,"y":2671065.7164999992}},{"attributes":{"OBJECTID":14249,"LANDMARKID":"1001900000491","LANDMARKCO":"303","LANDMARKNA":"玉雪立體停車場","LANDMARKAD":"1001905","ADDRESS":"台中市北區育才北路69號","TEL":" ","COUNTYNAME":"台中市","TOWNNAME":"北區","MARKTYPE":"993","Class":"303"},"geometry":{"x":217933.88129999954,"y":2671998.8411999997}},{"attributes":{"OBJECTID":14250,"LANDMARKID":"1001900000492","LANDMARKCO":"303","LANDMARKNA":"高苑立體停車場","LANDMARKAD":"1001905","ADDRESS":"台中市北區中正路343號","TEL":" ","COUNTYNAME":"台中市","TOWNNAME":"北區","MARKTYPE":"993","Class":"303"},"geometry":{"x":217048.20579999965,"y":2671169.8114}},{"attributes":{"OBJECTID":14251,"LANDMARKID":"1001900000493","LANDMARKCO":"303","LANDMARKNA":"精武停車場","LANDMARKAD":"1001905","ADDRESS":"台中市北區","TEL":" ","COUNTYNAME":"台中市","TOWNNAME":"北區","MARKTYPE":"993","Class":"303"},"geometry":{"x":218306.84190000035,"y":2671316.8351000007}},{"attributes":{"OBJECTID":14252,"LANDMARKID":"1001900000494","LANDMARKCO":"303","LANDMARKNA":"中興嘟嘟房停車場-寶盛加盟-台中北平站","LANDMARKAD":"1001905","ADDRESS":"台中市北區山西路與北平路口","TEL":" ","COUNTYNAME":"台中市","TOWNNAME":"北區","MARKTYPE":"993","Class":"303"},"geometry":{"x":217088.3591,"y":2674059.4821000006}},{"attributes":{"OBJECTID":14253,"LANDMARKID":"1001900000603","LANDMARKCO":"402","LANDMARKNA":"中華電信-北台中服務中心","LANDMARKAD":"1001905","ADDRESS":"台中市大雅路231號","TEL":"123或0800-080-123","COUNTYNAME":"台中市","TOWNNAME":"北區","MARKTYPE":"994","Class":"4"},"geometry":{"x":216935.76360000018,"y":2673006.5748999994}},{"attributes":{"OBJECTID":14254,"LANDMARKID":"1001900000604","LANDMARKCO":"402","LANDMARKNA":"中華電信-力行服務中心","LANDMARKAD":"1001905","ADDRESS":"台中市北區進化路322號","TEL":"123或0800-080-123","COUNTYNAME":"台中市","TOWNNAME":"北區","MARKTYPE":"994","Class":"4"},"geometry":{"x":218988.90359999985,"y":2672021.0952000003}},{"attributes":{"OBJECTID":14255,"LANDMARKID":"1001900000605","LANDMARKCO":"402","LANDMARKNA":"中華電信-台中中友特約服務中心","LANDMARKAD":"1001905","ADDRESS":"台中市育才北路48號1號","TEL":"04-22203388","COUNTYNAME":"台中市","TOWNNAME":"北區","MARKTYPE":"994","Class":"4"},"geometry":{"x":218192.99000000022,"y":2671983.2115000002}},{"attributes":{"OBJECTID":14256,"LANDMARKID":"1001900000606","LANDMARKCO":"402","LANDMARKNA":"中華電信-台中崇德特約服務中心","LANDMARKAD":"1001905","ADDRESS":"台中市崇德路一段462號","TEL":"04-22317755","COUNTYNAME":"台中市","TOWNNAME":"北區","MARKTYPE":"994","Class":"4"},"geometry":{"x":218020.39940000046,"y":2673169.4557000007}},{"attributes":{"OBJECTID":14257,"LANDMARKID":"1001900000607","LANDMARKCO":"402","LANDMARKNA":"遠傳電信-台中文心門市","LANDMARKAD":"1001905","ADDRESS":"台中市北區大雅路660號","TEL":" ","COUNTYNAME":"台中市","TOWNNAME":"北區","MARKTYPE":"994","Class":"4"},"geometry":{"x":216642.73149999976,"y":2674250.5478000008}},{"attributes":{"OBJECTID":14258,"LANDMARKID":"1001900000608","LANDMARKCO":"402","LANDMARKNA":"威寶電信-台中西屯二特約服務中心","LANDMARKAD":"1001905","ADDRESS":"台中市北區西屯路一段387號","TEL":"04-23201161","COUNTYNAME":"台中市","TOWNNAME":"北區","MARKTYPE":"994","Class":"4"},"geometry":{"x":215896.9132000003,"y":2672943.1301000006}},{"attributes":{"OBJECTID":14259,"LANDMARKID":"1001900000609","LANDMARKCO":"402","LANDMARKNA":"威寶電信-台中健行特約服務中心","LANDMARKAD":"1001905","ADDRESS":"台中市北區健行路438號","TEL":"04-22353417","COUNTYNAME":"台中市","TOWNNAME":"北區","MARKTYPE":"994","Class":"4"},"geometry":{"x":217610.75899999961,"y":2672701.1718000006}},{"attributes":{"OBJECTID":14260,"LANDMARKID":"1001900000610","LANDMARKCO":"402","LANDMARKNA":"威寶電信-台中大雅特約服務中心","LANDMARKAD":"1001905","ADDRESS":"台中市大雅路253號","TEL":"04-22086468","COUNTYNAME":"台中市","TOWNNAME":"北區","MARKTYPE":"994","Class":"4"},"geometry":{"x":216895.43080000021,"y":2673149.4810000006}},{"attributes":{"OBJECTID":14261,"LANDMARKID":"1001900000611","LANDMARKCO":"402","LANDMARKNA":"威寶電信-台中崇德特約服務中心","LANDMARKAD":"1001905","ADDRESS":"台中市崇德路一段540號","TEL":"04-22358135","COUNTYNAME":"台中市","TOWNNAME":"北區","MARKTYPE":"994","Class":"4"},"geometry":{"x":218021.32880000025,"y":2673508.4563999996}},{"attributes":{"OBJECTID":14262,"LANDMARKID":"1001900000612","LANDMARKCO":"402","LANDMARKNA":"大眾電信(震旦通訊)-台中大雅店","LANDMARKAD":"1001905","ADDRESS":"台中市大雅路295號","TEL":"04-22081622","COUNTYNAME":"台中市","TOWNNAME":"北區","MARKTYPE":"994","Class":"4"},"geometry":{"x":216859.90479999967,"y":2673253.3966000006}},{"attributes":{"OBJECTID":14263,"LANDMARKID":"1001900000613","LANDMARKCO":"402","LANDMARKNA":"中華電信-台中西屯特約服務中心","LANDMARKAD":"1001905","ADDRESS":"台中市西屯路一段345號","TEL":"04-23295599","COUNTYNAME":"台中市","TOWNNAME":"北區","MARKTYPE":"994","Class":"4"},"geometry":{"x":216004.90699999966,"y":2672805.9025999997}},{"attributes":{"OBJECTID":14264,"LANDMARKID":"1001900000614","LANDMARKCO":"402","LANDMARKNA":"威寶電信-台中三民直營服務中心","LANDMARKAD":"1001905","ADDRESS":"台中市北區三民路3段146-1號","TEL":" ","COUNTYNAME":"台中市","TOWNNAME":"北區","MARKTYPE":"994","Class":"4"},"geometry":{"x":217971.87829999998,"y":2671826.5802999996}},{"attributes":{"OBJECTID":14265,"LANDMARKID":"1001900001072","LANDMARKCO":"603","LANDMARKNA":"鹿王旅館","LANDMARKAD":"1001905","ADDRESS":"台中市健行路590號4-7樓","TEL":"04-22056871","COUNTYNAME":"台中市","TOWNNAME":"北區","MARKTYPE":"996","Class":"6"},"geometry":{"x":217164.06180000026,"y":2672681.3000000007}},{"attributes":{"OBJECTID":14266,"LANDMARKID":"1001900001073","LANDMARKCO":"603","LANDMARKNA":"高苑旅館(中山店)","LANDMARKAD":"1001905","ADDRESS":"台中市中山路444號","TEL":"原子街20","COUNTYNAME":"台中市","TOWNNAME":"北區","MARKTYPE":"996","Class":"6"},"geometry":{"x":216901.25739999954,"y":2671267.4517999999}},{"attributes":{"OBJECTID":14267,"LANDMARKID":"1001900001074","LANDMARKCO":"603","LANDMARKNA":"太吉利旅社","LANDMARKAD":"1001905","ADDRESS":"台中市五常街30號","TEL":"04-22018607","COUNTYNAME":"台中市","TOWNNAME":"北區","MARKTYPE":"996","Class":"6"},"geometry":{"x":217590.06479999982,"y":2672055.2566999998}},{"attributes":{"OBJECTID":14268,"LANDMARKID":"1001900001075","LANDMARKCO":"603","LANDMARKNA":"富比世大飯店","LANDMARKAD":"1001905","ADDRESS":"台中市學士路181號B1-7樓","TEL":"04-22059911","COUNTYNAME":"台中市","TOWNNAME":"北區","MARKTYPE":"996","Class":"6"},"geometry":{"x":217567.58619999979,"y":2672751.1024999991}},{"attributes":{"OBJECTID":14269,"LANDMARKID":"1001900001076","LANDMARKCO":"603","LANDMARKNA":"北海大飯店","LANDMARKAD":"1001905","ADDRESS":"台中市大雅路184之4號","TEL":"04-22054161","COUNTYNAME":"台中市","TOWNNAME":"北區","MARKTYPE":"996","Class":"6"},"geometry":{"x":217062.34240000043,"y":2672726.8184999991}},{"attributes":{"OBJECTID":14270,"LANDMARKID":"1001900001077","LANDMARKCO":"603","LANDMARKNA":"新福大商務飯店","LANDMARKAD":"1001905","ADDRESS":"台中市崇德路1段647號","TEL":"04-22359311","COUNTYNAME":"台中市","TOWNNAME":"北區","MARKTYPE":"996","Class":"6"},"geometry":{"x":217995.03500000015,"y":2673702.3629999999}},{"attributes":{"OBJECTID":14271,"LANDMARKID":"1001900001078","LANDMARKCO":"603","LANDMARKNA":"論情汽車旅館","LANDMARKAD":"1001905","ADDRESS":"台中市文昌東三街2-8號","TEL":"04-22326818","COUNTYNAME":"台中市","TOWNNAME":"北區","MARKTYPE":"996","Class":"6"},"geometry":{"x":217497.74990000017,"y":2673640.4129000008}},{"attributes":{"OBJECTID":14272,"LANDMARKID":"1001900001079","LANDMARKCO":"603","LANDMARKNA":"正豪大飯店","LANDMARKAD":"1001905","ADDRESS":"台中市五權路317號1","TEL":"6-12樓","COUNTYNAME":"台中市","TOWNNAME":"北區","MARKTYPE":"996","Class":"6"},"geometry":{"x":217352.45359999966,"y":2671911.2329999991}},{"attributes":{"OBJECTID":14273,"LANDMARKID":"1001900001080","LANDMARKCO":"603","LANDMARKNA":"第一俱樂部 (元帥)","LANDMARKAD":"1001905","ADDRESS":"台中市五權路334號1、3、4、5樓","TEL":"04-22026181","COUNTYNAME":"台中市","TOWNNAME":"北區","MARKTYPE":"996","Class":"6"},"geometry":{"x":217518.46229999978,"y":2671908.6129000001}},{"attributes":{"OBJECTID":14274,"LANDMARKID":"1001900001081","LANDMARKCO":"603","LANDMARKNA":"聯欣大飯店","LANDMARKAD":"1001905","ADDRESS":"台中市五權路356號1-4樓","TEL":"04-22024141","COUNTYNAME":"台中市","TOWNNAME":"北區","MARKTYPE":"996","Class":"6"},"geometry":{"x":217564.39439999964,"y":2671938.0709000006}},{"attributes":{"OBJECTID":14275,"LANDMARKID":"1001900001082","LANDMARKCO":"603","LANDMARKNA":"皇家大飯店","LANDMARKAD":"1001905","ADDRESS":"台中市五權路377號4至5樓","TEL":"04-22013456","COUNTYNAME":"台中市","TOWNNAME":"北區","MARKTYPE":"996","Class":"6"},"geometry":{"x":217559.96339999977,"y":2671996.0592}},{"attributes":{"OBJECTID":14276,"LANDMARKID":"1001900001083","LANDMARKCO":"603","LANDMARKNA":"大陽大飯店","LANDMARKAD":"1001905","ADDRESS":"台中市公園路188號1","TEL":"8-9樓","COUNTYNAME":"台中市","TOWNNAME":"北區","MARKTYPE":"996","Class":"6"},"geometry":{"x":217232.71700000018,"y":2671796.6102000009}},{"attributes":{"OBJECTID":14277,"LANDMARKID":"1001900001084","LANDMARKCO":"603","LANDMARKNA":"金沙汽車旅館","LANDMARKAD":"1001905","ADDRESS":"台中市太平路201號","TEL":"04-22083388","COUNTYNAME":"台中市","TOWNNAME":"北區","MARKTYPE":"996","Class":"6"},"geometry":{"x":217317.92169999983,"y":2671707.1536999997}},{"attributes":{"OBJECTID":14278,"LANDMARKID":"1001900001085","LANDMARKCO":"603","LANDMARKNA":"儷金商務旅館","LANDMARKAD":"1001905","ADDRESS":"台中市太原路1段520號","TEL":"04-22083916","COUNTYNAME":"台中市","TOWNNAME":"北區","MARKTYPE":"996","Class":"6"},"geometry":{"x":216626.77869999968,"y":2673307.5153000001}},{"attributes":{"OBJECTID":14279,"LANDMARKID":"1001900001086","LANDMARKCO":"603","LANDMARKNA":"黃石公園汽車旅館","LANDMARKAD":"1001905","ADDRESS":"台中市太原路2段3號","TEL":"04-22963229","COUNTYNAME":"台中市","TOWNNAME":"北區","MARKTYPE":"996","Class":"6"},"geometry":{"x":216956.60479999986,"y":2673382.6217}},{"attributes":{"OBJECTID":14280,"LANDMARKID":"1001900001087","LANDMARKCO":"603","LANDMARKNA":"夏都汽車旅館","LANDMARKAD":"1001905","ADDRESS":"台中市太原路2段68號","TEL":"04-22367788","COUNTYNAME":"台中市","TOWNNAME":"北區","MARKTYPE":"996","Class":"6"},"geometry":{"x":217139.78390000015,"y":2673305.3878000006}},{"attributes":{"OBJECTID":14281,"LANDMARKID":"1001900001088","LANDMARKCO":"603","LANDMARKNA":"水準賓館","LANDMARKAD":"1001905","ADDRESS":"台中市柳川西路4段1號10樓","TEL":"04-22011200","COUNTYNAME":"台中市","TOWNNAME":"北區","MARKTYPE":"996","Class":"6"},"geometry":{"x":217309.48149999976,"y":2671591.1359999999}},{"attributes":{"OBJECTID":14282,"LANDMARKID":"1001900001089","LANDMARKCO":"603","LANDMARKNA":"車王大飯店","LANDMARKAD":"1001905","ADDRESS":"台中市柳川東路4段13號6","TEL":"7樓及湖北街36之11號1","COUNTYNAME":"台中市","TOWNNAME":"北區","MARKTYPE":"996","Class":"6"},"geometry":{"x":217373.48670000024,"y":2671589.2828000002}},{"attributes":{"OBJECTID":14283,"LANDMARKID":"1001900001090","LANDMARKCO":"603","LANDMARKNA":"百老匯賓館","LANDMARKAD":"1001905","ADDRESS":"台中市原子街127巷21-1號4樓","TEL":"04-22027979","COUNTYNAME":"台中市","TOWNNAME":"北區","MARKTYPE":"996","Class":"6"},"geometry":{"x":217109.48629999999,"y":2671588.3275000006}},{"attributes":{"OBJECTID":14284,"LANDMARKID":"1001900001091","LANDMARKCO":"603","LANDMARKNA":"麗心汽車旅館","LANDMARKAD":"1001905","ADDRESS":"台中市陝西路117號","TEL":"04-22983377","COUNTYNAME":"台中市","TOWNNAME":"北區","MARKTYPE":"996","Class":"6"},"geometry":{"x":216276.96549999993,"y":2674151.3544999994}},{"attributes":{"OBJECTID":14285,"LANDMARKID":"1001900001092","LANDMARKCO":"603","LANDMARKNA":"仁美大飯店","LANDMARKAD":"1001905","ADDRESS":"台中市健行路585號","TEL":"04-22062730","COUNTYNAME":"台中市","TOWNNAME":"北區","MARKTYPE":"996","Class":"6"},"geometry":{"x":217184.83179999981,"y":2672669.4949999992}},{"attributes":{"OBJECTID":14286,"LANDMARKID":"1001900001093","LANDMARKCO":"603","LANDMARKNA":"皇邸商務旅館","LANDMARKAD":"1001905","ADDRESS":"台中市華美街2段312號","TEL":"04-22927676","COUNTYNAME":"台中市","TOWNNAME":"北區","MARKTYPE":"996","Class":"6"},"geometry":{"x":216365.83499999996,"y":2674206.5649999995}},{"attributes":{"OBJECTID":14287,"LANDMARKID":"1001900001094","LANDMARKCO":"603","LANDMARKNA":"梅村大飯店","LANDMARKAD":"1001905","ADDRESS":"台中市進化北路431號","TEL":"04-22010133","COUNTYNAME":"台中市","TOWNNAME":"北區","MARKTYPE":"996","Class":"6"},"geometry":{"x":217068.51850000024,"y":2673112.2246000003}},{"attributes":{"OBJECTID":14288,"LANDMARKID":"1001900001095","LANDMARKCO":"603","LANDMARKNA":"鷺江大飯店","LANDMARKAD":"1001905","ADDRESS":"台中市大雅路30號","TEL":"04-22014300","COUNTYNAME":"台中市","TOWNNAME":"北區","MARKTYPE":"996","Class":"6"},"geometry":{"x":217226.44749999978,"y":2671913.5957999993}},{"attributes":{"OBJECTID":14289,"LANDMARKID":"1001900001096","LANDMARKCO":"603","LANDMARKNA":"怡東商務旅館","LANDMARKAD":"1001905","ADDRESS":"台中市文昌一街10號","TEL":"04-22923578","COUNTYNAME":"台中市","TOWNNAME":"北區","MARKTYPE":"996","Class":"6"},"geometry":{"x":216967.99729999993,"y":2674136.6433000006}},{"attributes":{"OBJECTID":14290,"LANDMARKID":"1001900001097","LANDMARKCO":"603","LANDMARKNA":"愛麗西施旅館","LANDMARKAD":"1001905","ADDRESS":"台中市進化路632號","TEL":"04-22300598","COUNTYNAME":"台中市","TOWNNAME":"北區","MARKTYPE":"996","Class":"6"},"geometry":{"x":218967.55530000012,"y":2672796.0457000006}},{"attributes":{"OBJECTID":14291,"LANDMARKID":"1001900001098","LANDMARKCO":"603","LANDMARKNA":"簡愛汽車旅館","LANDMARKAD":"1001905","ADDRESS":"台中市山西路1段86號","TEL":"04-22927878","COUNTYNAME":"台中市","TOWNNAME":"北區","MARKTYPE":"996","Class":"6"},"geometry":{"x":217018.36170000024,"y":2673487.1067999993}},{"attributes":{"OBJECTID":14292,"LANDMARKID":"1001900001099","LANDMARKCO":"603","LANDMARKNA":"高苑旅館(中正店)","LANDMARKAD":"1001905","ADDRESS":"台中市中正路392號","TEL":"04-22261566","COUNTYNAME":"台中市","TOWNNAME":"北區","MARKTYPE":"996","Class":"6"},"geometry":{"x":217022.55119999964,"y":2671252.1280000005}},{"attributes":{"OBJECTID":14293,"LANDMARKID":"1001900001100","LANDMARKCO":"603","LANDMARKNA":"優勝美地汽車旅館","LANDMARKAD":"1001905","ADDRESS":"台中市中華路2段197號","TEL":"04-22051199","COUNTYNAME":"台中市","TOWNNAME":"北區","MARKTYPE":"996","Class":"6"},"geometry":{"x":217677.39829999954,"y":2671937.3279999997}},{"attributes":{"OBJECTID":14294,"LANDMARKID":"1001900001101","LANDMARKCO":"603","LANDMARKNA":"金滿家大飯店","LANDMARKAD":"1001905","ADDRESS":"台中市五義街167號","TEL":"04-22012526","COUNTYNAME":"台中市","TOWNNAME":"北區","MARKTYPE":"996","Class":"6"},"geometry":{"x":217524.75129999965,"y":2672089.6257000007}},{"attributes":{"OBJECTID":14295,"LANDMARKID":"1001900001102","LANDMARKCO":"603","LANDMARKNA":"嘉濱大飯店","LANDMARKAD":"1001905","ADDRESS":"台中市五權路276號","TEL":"04-22022175","COUNTYNAME":"台中市","TOWNNAME":"北區","MARKTYPE":"996","Class":"6"},"geometry":{"x":217289.6436999999,"y":2671828.0888}},{"attributes":{"OBJECTID":14296,"LANDMARKID":"1001900001103","LANDMARKCO":"603","LANDMARKNA":"蜜雪兒汽車旅館","LANDMARKAD":"1001905","ADDRESS":"台中市文昌東一街107號","TEL":"04-22986161","COUNTYNAME":"台中市","TOWNNAME":"北區","MARKTYPE":"996","Class":"6"},"geometry":{"x":217170.64230000041,"y":2673674.4574999996}},{"attributes":{"OBJECTID":14297,"LANDMARKID":"1001900001104","LANDMARKCO":"603","LANDMARKNA":"嘉豪大飯店","LANDMARKAD":"1001905","ADDRESS":"台中市成功路437號","TEL":"04-22212186","COUNTYNAME":"台中市","TOWNNAME":"北區","MARKTYPE":"996","Class":"6"},"geometry":{"x":217022.32650000043,"y":2671349.1274999995}},{"attributes":{"OBJECTID":14298,"LANDMARKID":"1001900001105","LANDMARKCO":"603","LANDMARKNA":"東圓賓館","LANDMARKAD":"1001905","ADDRESS":"台中市成功路443號","TEL":"04-22270237","COUNTYNAME":"台中市","TOWNNAME":"北區","MARKTYPE":"996","Class":"6"},"geometry":{"x":217013.29619999975,"y":2671362.1065999996}},{"attributes":{"OBJECTID":14299,"LANDMARKID":"1001900001106","LANDMARKCO":"603","LANDMARKNA":"金座大飯店","LANDMARKAD":"1001905","ADDRESS":"台中市成功路469號","TEL":"04-22020505","COUNTYNAME":"台中市","TOWNNAME":"北區","MARKTYPE":"996","Class":"6"},"geometry":{"x":216934.84229999967,"y":2671434.5807000007}},{"attributes":{"OBJECTID":14300,"LANDMARKID":"1001900001107","LANDMARKCO":"603","LANDMARKNA":"沃夫汽車旅館","LANDMARKAD":"1001905","ADDRESS":"台中市漢口路3段96之5號","TEL":"04-22926015","COUNTYNAME":"台中市","TOWNNAME":"北區","MARKTYPE":"996","Class":"6"},"geometry":{"x":216448.99940000009,"y":2673521.0954}},{"attributes":{"OBJECTID":14301,"LANDMARKID":"1001900001036","LANDMARKCO":"601","LANDMARKNA":"通豪大飯店","LANDMARKAD":"1001905","ADDRESS":"台中市大雅路431號","TEL":"04-2295-6789","COUNTYNAME":"台中市","TOWNNAME":"北區","MARKTYPE":"996","Class":"6"},"geometry":{"x":216699.73350000009,"y":2673634.0208999999}},{"attributes":{"OBJECTID":14302,"LANDMARKID":"1001900001031","LANDMARKCO":"511","LANDMARKNA":"學士夜市","LANDMARKAD":"1001905","ADDRESS":"台中市北區","TEL":" ","COUNTYNAME":"台中市","TOWNNAME":"北區","MARKTYPE":"995","Class":"5"},"geometry":{"x":217600.23479999974,"y":2673097.2186999992}},{"attributes":{"OBJECTID":14303,"LANDMARKID":"1001900000757","LANDMARKCO":"405","LANDMARKNA":"中油加油站-忠明圓環站","LANDMARKAD":"1001904","ADDRESS":"台中市西區忠明南路14號","TEL":"04-23252807","COUNTYNAME":"台中市","TOWNNAME":"西區","MARKTYPE":"994","Class":"4"},"geometry":{"x":215357.15660000034,"y":2672403.3592000008}},{"attributes":{"OBJECTID":14304,"LANDMARKID":"1001900000758","LANDMARKCO":"405","LANDMARKNA":"中油加油站-仁山站","LANDMARKAD":"1001904","ADDRESS":"台中市西區忠明南路434號","TEL":"04-23723706","COUNTYNAME":"台中市","TOWNNAME":"西區","MARKTYPE":"994","Class":"4"},"geometry":{"x":215144.74050000031,"y":2669923.1270000003}},{"attributes":{"OBJECTID":14305,"LANDMARKID":"1001900000759","LANDMARKCO":"405","LANDMARKNA":"中油加油站-五權路站","LANDMARKAD":"1001904","ADDRESS":"台中市西區五權路2-210號","TEL":"04-23755291","COUNTYNAME":"台中市","TOWNNAME":"西區","MARKTYPE":"994","Class":"4"},"geometry":{"x":216139.1043999996,"y":2669827.6976999994}},{"attributes":{"OBJECTID":14306,"LANDMARKID":"1001900000760","LANDMARKCO":"405","LANDMARKNA":"中油加油站-重光站","LANDMARKAD":"1001904","ADDRESS":"台中市西區向上路一段272號","TEL":"04-23020562","COUNTYNAME":"台中市","TOWNNAME":"西區","MARKTYPE":"994","Class":"4"},"geometry":{"x":215191.85969999991,"y":2671336.9681000002}},{"attributes":{"OBJECTID":14307,"LANDMARKID":"1001900000761","LANDMARKCO":"405","LANDMARKNA":"中油加油站-向上路站(中油直營)","LANDMARKAD":"1001904","ADDRESS":"台中市西區向上路一段27號","TEL":"04-23011800","COUNTYNAME":"台中市","TOWNNAME":"西區","MARKTYPE":"994","Class":"4"},"geometry":{"x":216244.93829999957,"y":2671284.8411999997}},{"attributes":{"OBJECTID":14308,"LANDMARKID":"1001900000762","LANDMARKCO":"405","LANDMARKNA":"中油加油站-民族路站","LANDMARKAD":"1001904","ADDRESS":"台中市西區五權路105號","TEL":"04-22027088","COUNTYNAME":"台中市","TOWNNAME":"西區","MARKTYPE":"994","Class":"4"},"geometry":{"x":216665.4785000002,"y":2671276.1981000006}},{"attributes":{"OBJECTID":14309,"LANDMARKID":"1001900000601","LANDMARKCO":"402","LANDMARKNA":"亞太行動寬頻電信-公益一店加盟服務中心","LANDMARKAD":"1001904","ADDRESS":"台中市西區中興里公益路102號","TEL":"04-23269080","COUNTYNAME":"台中市","TOWNNAME":"西區","MARKTYPE":"994","Class":"4"},"geometry":{"x":215589.72429999989,"y":2671791.0739999991}},{"attributes":{"OBJECTID":14310,"LANDMARKID":"1001900000602","LANDMARKCO":"402","LANDMARKNA":"亞太行動寬頻電信-台中市","LANDMARKAD":"1001904","ADDRESS":"台中市英才路458號","TEL":" ","COUNTYNAME":"台中市","TOWNNAME":"西區","MARKTYPE":"994","Class":"4"},"geometry":{"x":216049.30539999995,"y":2671967.4975000005}},{"attributes":{"OBJECTID":14311,"LANDMARKID":"1001900000560","LANDMARKCO":"401","LANDMARKNA":"台中仁愛之家附設靜和醫院","LANDMARKAD":"1001904","ADDRESS":"台中市吉龍里南屯路一段158號","TEL":"04-23711129","COUNTYNAME":"台中市","TOWNNAME":"西區","MARKTYPE":"994","Class":"4"},"geometry":{"x":215417.95029999968,"y":2669852.3541999999}},{"attributes":{"OBJECTID":14312,"LANDMARKID":"1001900000561","LANDMARKCO":"401","LANDMARKNA":"行政院衛生署台中醫院","LANDMARKAD":"1001904","ADDRESS":"台中市三民路一段199號","TEL":"04-22294411","COUNTYNAME":"台中市","TOWNNAME":"西區","MARKTYPE":"994","Class":"4"},"geometry":{"x":217137.7293999996,"y":2670560.3935000002}},{"attributes":{"OBJECTID":14313,"LANDMARKID":"1001900000562","LANDMARKCO":"401","LANDMARKNA":"中山醫學大學附設醫院中港分院","LANDMARKAD":"1001904","ADDRESS":"台中市台中港路一段23號","TEL":"04-22015111","COUNTYNAME":"台中市","TOWNNAME":"西區","MARKTYPE":"994","Class":"4"},"geometry":{"x":216683.7089999998,"y":2671491.6546}},{"attributes":{"OBJECTID":14314,"LANDMARKID":"1001900000563","LANDMARKCO":"401","LANDMARKNA":"林森醫院","LANDMARKAD":"1001904","ADDRESS":"台中市三民路一段152之1號","TEL":"04-22227800","COUNTYNAME":"台中市","TOWNNAME":"西區","MARKTYPE":"994","Class":"4"},"geometry":{"x":216771.34269999992,"y":2670110.2042999994}},{"attributes":{"OBJECTID":14315,"LANDMARKID":"1001900000980","LANDMARKCO":"410","LANDMARKNA":"廣三崇光百貨","LANDMARKAD":"1001904","ADDRESS":"台中市台中港路一段299號","TEL":" ","COUNTYNAME":"台中市","TOWNNAME":"西區","MARKTYPE":"994","Class":"4"},"geometry":{"x":215611.58129999973,"y":2672249.1709000003}},{"attributes":{"OBJECTID":14316,"LANDMARKID":"1001900000954","LANDMARKCO":"408","LANDMARKNA":"郵局-台中中正路郵局","LANDMARKAD":"1001904","ADDRESS":"台中市中正路451號","TEL":"(04)2203-5080","COUNTYNAME":"台中市","TOWNNAME":"西區","MARKTYPE":"994","Class":"4"},"geometry":{"x":216856.30769999977,"y":2671356.3997000009}},{"attributes":{"OBJECTID":14317,"LANDMARKID":"1001900000955","LANDMARKCO":"408","LANDMARKNA":"郵局-台中法院郵局","LANDMARKAD":"1001904","ADDRESS":"台中市自由路1段91號(法院內)","TEL":"(04)2224-2784","COUNTYNAME":"台中市","TOWNNAME":"西區","MARKTYPE":"994","Class":"4"},"geometry":{"x":217027.66820000019,"y":2669971.1464000009}},{"attributes":{"OBJECTID":14318,"LANDMARKID":"1001900000956","LANDMARKCO":"408","LANDMARKNA":"郵局-台中公益路郵局","LANDMARKAD":"1001904","ADDRESS":"台中市公益路193號","TEL":"(04)2302-0271","COUNTYNAME":"台中市","TOWNNAME":"西區","MARKTYPE":"994","Class":"4"},"geometry":{"x":215526.82589999959,"y":2671749.6117000002}},{"attributes":{"OBJECTID":14319,"LANDMARKID":"1001900000957","LANDMARKCO":"408","LANDMARKNA":"郵局-台中大全街郵局","LANDMARKAD":"1001904","ADDRESS":"台中市大全街42號","TEL":"(04)2371-2528","COUNTYNAME":"台中市","TOWNNAME":"西區","MARKTYPE":"994","Class":"4"},"geometry":{"x":216569.99629999977,"y":2670138.3986000009}},{"attributes":{"OBJECTID":14320,"LANDMARKID":"1001900000958","LANDMARKCO":"408","LANDMARKNA":"郵局-台中英才郵局","LANDMARKAD":"1001904","ADDRESS":"台中市民生路200號","TEL":"(04)2302-2484","COUNTYNAME":"台中市","TOWNNAME":"西區","MARKTYPE":"994","Class":"4"},"geometry":{"x":216041.94649999961,"y":2671083.4874000009}},{"attributes":{"OBJECTID":14321,"LANDMARKID":"1001900000976","LANDMARKCO":"409","LANDMARKNA":"台中市農會","LANDMARKAD":"1001904","ADDRESS":"台中市西區向上路一段95號","TEL":"04-23027786","COUNTYNAME":"台中市","TOWNNAME":"西區","MARKTYPE":"994","Class":"4"},"geometry":{"x":215785.46399999969,"y":2671287.0266999993}},{"attributes":{"OBJECTID":14322,"LANDMARKID":"1001900000856","LANDMARKCO":"406","LANDMARKNA":"忠誠公園","LANDMARKAD":"1001904","ADDRESS":"台中市西屯區","TEL":" ","COUNTYNAME":"台中市","TOWNNAME":"西區","MARKTYPE":"994","Class":"4"},"geometry":{"x":215722.50050000008,"y":2672859.5056999996}},{"attributes":{"OBJECTID":14323,"LANDMARKID":"1001900000857","LANDMARKCO":"406","LANDMARKNA":"忠明公園","LANDMARKAD":"1001904","ADDRESS":"台中市西屯區","TEL":" ","COUNTYNAME":"台中市","TOWNNAME":"西區","MARKTYPE":"994","Class":"4"},"geometry":{"x":215442.30140000023,"y":2672145.8559000008}},{"attributes":{"OBJECTID":14324,"LANDMARKID":"1001900000858","LANDMARKCO":"406","LANDMARKNA":"公益公園","LANDMARKAD":"1001904","ADDRESS":"台中市南屯區","TEL":" ","COUNTYNAME":"台中市","TOWNNAME":"西區","MARKTYPE":"994","Class":"4"},"geometry":{"x":215224.1222000001,"y":2671728.1456000004}},{"attributes":{"OBJECTID":14325,"LANDMARKID":"1001900000859","LANDMARKCO":"406","LANDMARKNA":"大益公園","LANDMARKAD":"1001904","ADDRESS":"台中市南屯區","TEL":" ","COUNTYNAME":"台中市","TOWNNAME":"西區","MARKTYPE":"994","Class":"4"},"geometry":{"x":214711.82870000042,"y":2671531.2813000008}},{"attributes":{"OBJECTID":14326,"LANDMARKID":"1001900000860","LANDMARKCO":"406","LANDMARKNA":"民龍公園","LANDMARKAD":"1001904","ADDRESS":"台中市西區","TEL":" ","COUNTYNAME":"台中市","TOWNNAME":"西區","MARKTYPE":"994","Class":"4"},"geometry":{"x":216434.98259999976,"y":2671945.5601000004}},{"attributes":{"OBJECTID":14327,"LANDMARKID":"1001900000861","LANDMARKCO":"406","LANDMARKNA":"自立公園","LANDMARKAD":"1001904","ADDRESS":"台中市西區","TEL":" ","COUNTYNAME":"台中市","TOWNNAME":"西區","MARKTYPE":"994","Class":"4"},"geometry":{"x":216567.49129999988,"y":2670620.4028999992}},{"attributes":{"OBJECTID":14328,"LANDMARKID":"1001900000862","LANDMARKCO":"406","LANDMARKNA":"忠勤公園","LANDMARKAD":"1001904","ADDRESS":"台中市西區","TEL":" ","COUNTYNAME":"台中市","TOWNNAME":"西區","MARKTYPE":"994","Class":"4"},"geometry":{"x":216420.43340000045,"y":2670838.6581999995}},{"attributes":{"OBJECTID":14329,"LANDMARKID":"1001900000914","LANDMARKCO":"407","LANDMARKNA":"LV專賣店","LANDMARKAD":"1001904","ADDRESS":"台中市西屯區台中港路一段315號","TEL":"04-22587828","COUNTYNAME":"台中市","TOWNNAME":"西區","MARKTYPE":"994","Class":"4"},"geometry":{"x":215594.13480000012,"y":2672326.9217000008}},{"attributes":{"OBJECTID":14330,"LANDMARKID":"1001900000915","LANDMARKCO":"407","LANDMARKNA":"小北百貨","LANDMARKAD":"1001904","ADDRESS":"台中市公民里五權路1-27號","TEL":"04-23729671","COUNTYNAME":"台中市","TOWNNAME":"西區","MARKTYPE":"994","Class":"4"},"geometry":{"x":216000.4645999996,"y":2670383.0519999992}},{"attributes":{"OBJECTID":14331,"LANDMARKID":"1001900000916","LANDMARKCO":"407","LANDMARKNA":"漢神百貨台中店","LANDMARKAD":"1001904","ADDRESS":"台中市中華路一段1之1號","TEL":" ","COUNTYNAME":"台中市","TOWNNAME":"西區","MARKTYPE":"994","Class":"4"},"geometry":{"x":216713.74780000001,"y":2670725.3484000005}},{"attributes":{"OBJECTID":14332,"LANDMARKID":"1001900000917","LANDMARKCO":"407","LANDMARKNA":"先施百貨","LANDMARKAD":"1001904","ADDRESS":"台中市台中港路一段201號","TEL":"04-23299595","COUNTYNAME":"台中市","TOWNNAME":"西區","MARKTYPE":"994","Class":"4"},"geometry":{"x":216012.60419999994,"y":2672058.4152000006}},{"attributes":{"OBJECTID":14333,"LANDMARKID":"1001900000918","LANDMARKCO":"407","LANDMARKNA":"誠品Eslite","LANDMARKAD":"1001904","ADDRESS":"台中市公益路68號3F","TEL":"04-23266085","COUNTYNAME":"台中市","TOWNNAME":"西區","MARKTYPE":"994","Class":"4"},"geometry":{"x":215840.97449999955,"y":2671819.3263000008}},{"attributes":{"OBJECTID":14334,"LANDMARKID":"1001900000919","LANDMARKCO":"407","LANDMARKNA":"誠品Eslite","LANDMARKAD":"1001904","ADDRESS":"台中市公益路68號2F","TEL":"04-2326-6085","COUNTYNAME":"台中市","TOWNNAME":"西區","MARKTYPE":"994","Class":"4"},"geometry":{"x":215840.97449999955,"y":2671819.3263000008}},{"attributes":{"OBJECTID":14335,"LANDMARKID":"1001900000810","LANDMARKCO":"405","LANDMARKNA":"全國加油站-五權路站站（台塑）","LANDMARKAD":"1001904","ADDRESS":"台中市西區五權路1之208號","TEL":"04-23717658","COUNTYNAME":"台中市","TOWNNAME":"西區","MARKTYPE":"994","Class":"4"},"geometry":{"x":215987.64520000014,"y":2670293.1954999994}},{"attributes":{"OBJECTID":14336,"LANDMARKID":"1001900000811","LANDMARKCO":"405","LANDMARKNA":"西歐加油站-三民西路站（台塑）","LANDMARKAD":"1001904","ADDRESS":"台中市三民西路70號","TEL":"04-23756491","COUNTYNAME":"台中市","TOWNNAME":"西區","MARKTYPE":"994","Class":"4"},"geometry":{"x":216030.34869999997,"y":2669592.8808999993}},{"attributes":{"OBJECTID":14337,"LANDMARKID":"1001900000009","LANDMARKCO":"101","LANDMARKNA":"職業訓練局台中區就業服務中心","LANDMARKAD":"1001904","ADDRESS":"台中市市府路6號","TEL":"04-22225153","COUNTYNAME":"台中市","TOWNNAME":"西區","MARKTYPE":"991","Class":"1"},"geometry":{"x":217115.32459999993,"y":2670120.3489999995}},{"attributes":{"OBJECTID":14338,"LANDMARKID":"1001900000046","LANDMARKCO":"103","LANDMARKNA":"台中市審計室","LANDMARKAD":"1001904","ADDRESS":"台中市民生路160號","TEL":"04-23020073","COUNTYNAME":"台中市","TOWNNAME":"西區","MARKTYPE":"991","Class":"1"},"geometry":{"x":216282.20720000006,"y":2671096.2169000003}},{"attributes":{"OBJECTID":14339,"LANDMARKID":"1001900000047","LANDMARKCO":"103","LANDMARKNA":"台中市區車輛行車事故鑑定委員","LANDMARKAD":"1001904","ADDRESS":"台中市自由路一段150號7樓","TEL":"04-22252068","COUNTYNAME":"台中市","TOWNNAME":"西區","MARKTYPE":"991","Class":"1"},"geometry":{"x":217452.01769999973,"y":2670276.7468999997}},{"attributes":{"OBJECTID":14340,"LANDMARKID":"1001900000048","LANDMARKCO":"103","LANDMARKNA":"台中市政府文化局","LANDMARKAD":"1001904","ADDRESS":"台中市英才路600號","TEL":"04-23727311","COUNTYNAME":"台中市","TOWNNAME":"西區","MARKTYPE":"991","Class":"1"},"geometry":{"x":216023.86809999961,"y":2670738.2357000001}},{"attributes":{"OBJECTID":14341,"LANDMARKID":"1001900000057","LANDMARKCO":"104","LANDMARKNA":"中區國稅局","LANDMARKAD":"1001904","ADDRESS":"臺中市民生路168號","TEL":"04-23051111","COUNTYNAME":"台中市","TOWNNAME":"西區","MARKTYPE":"991","Class":"1"},"geometry":{"x":216188.56489999965,"y":2671148.4348000009}},{"attributes":{"OBJECTID":14342,"LANDMARKID":"1001900000044","LANDMARKCO":"103","LANDMARKNA":"台中市政府","LANDMARKAD":"1001904","ADDRESS":"台中市民權路99號","TEL":"04-22289111","COUNTYNAME":"台中市","TOWNNAME":"西區","MARKTYPE":"991","Class":"1"},"geometry":{"x":217272.89379999973,"y":2670386.4264000002}},{"attributes":{"OBJECTID":14343,"LANDMARKID":"1001900000010","LANDMARKCO":"101","LANDMARKNA":"台灣台中地方法院","LANDMARKAD":"1001904","ADDRESS":"台中市自由路一段91號","TEL":"04-22232311","COUNTYNAME":"台中市","TOWNNAME":"西區","MARKTYPE":"991","Class":"1"},"geometry":{"x":217027.37909999955,"y":2669970.7837000005}},{"attributes":{"OBJECTID":14344,"LANDMARKID":"1001900000011","LANDMARKCO":"101","LANDMARKNA":"調查局台中市調查站","LANDMARKAD":"1001904","ADDRESS":"台中市英才路525號","TEL":"04-23023166","COUNTYNAME":"台中市","TOWNNAME":"西區","MARKTYPE":"991","Class":"1"},"geometry":{"x":216050.26350000035,"y":2671253.3301999997}},{"attributes":{"OBJECTID":14345,"LANDMARKID":"1001900000126","LANDMARKCO":"108","LANDMARKNA":"台中市西區公所","LANDMARKAD":"1001904","ADDRESS":"台中市金山路11號","TEL":"04-22245200","COUNTYNAME":"台中市","TOWNNAME":"西區","MARKTYPE":"991","Class":"1"},"geometry":{"x":216579.80319999997,"y":2670697.8430000003}},{"attributes":{"OBJECTID":14346,"LANDMARKID":"1001900000087","LANDMARKCO":"107","LANDMARKNA":"台中市警察局民權派出所","LANDMARKAD":"1001904","ADDRESS":"台中市民權路258號","TEL":"04-22012710","COUNTYNAME":"台中市","TOWNNAME":"西區","MARKTYPE":"991","Class":"1"},"geometry":{"x":216541.24299999978,"y":2671255.8740999997}},{"attributes":{"OBJECTID":14347,"LANDMARKID":"1001900000045","LANDMARKCO":"103","LANDMARKNA":"台中市政府民政局","LANDMARKAD":"1001904","ADDRESS":"台中市民權路99號","TEL":"04)22288215","COUNTYNAME":"台中市","TOWNNAME":"西區","MARKTYPE":"991","Class":"1"},"geometry":{"x":217272.89379999973,"y":2670386.4264000002}},{"attributes":{"OBJECTID":14348,"LANDMARKID":"1001900000060","LANDMARKCO":"105","LANDMARKNA":"台中市政府地政局","LANDMARKAD":"1001904","ADDRESS":"台中市民權路99號","TEL":"04-22288222","COUNTYNAME":"台中市","TOWNNAME":"西區","MARKTYPE":"991","Class":"1"},"geometry":{"x":217272.89379999973,"y":2670386.4264000002}},{"attributes":{"OBJECTID":14349,"LANDMARKID":"1001900000013","LANDMARKCO":"101","LANDMARKNA":"新聞局地方新聞處","LANDMARKAD":"1001904","ADDRESS":"台中市自由路一段150號","TEL":"04-22210840","COUNTYNAME":"台中市","TOWNNAME":"西區","MARKTYPE":"991","Class":"1"},"geometry":{"x":217452.01769999973,"y":2670276.7468999997}},{"attributes":{"OBJECTID":14350,"LANDMARKID":"1001900000014","LANDMARKCO":"101","LANDMARKNA":"國有財產局台灣中區辦事處","LANDMARKAD":"1001904","ADDRESS":"台中市民生路168號3、4樓","TEL":"04-23025353","COUNTYNAME":"台中市","TOWNNAME":"西區","MARKTYPE":"991","Class":"1"},"geometry":{"x":216188.56489999965,"y":2671148.4348000009}},{"attributes":{"OBJECTID":14351,"LANDMARKID":"1001900000039","LANDMARKCO":"103","LANDMARKNA":"台中市選舉委員會","LANDMARKAD":"1001904","ADDRESS":"台中市自由路1段150號5F、8F及9F","TEL":"04-22245080","COUNTYNAME":"台中市","TOWNNAME":"西區","MARKTYPE":"991","Class":"1"},"geometry":{"x":217452.01769999973,"y":2670276.7468999997}},{"attributes":{"OBJECTID":14352,"LANDMARKID":"1001900000012","LANDMARKCO":"101","LANDMARKNA":"台中地方法院","LANDMARKAD":"1001904","ADDRESS":"台中市自由路一段91號","TEL":"04-22232311","COUNTYNAME":"台中市","TOWNNAME":"西區","MARKTYPE":"991","Class":"1"},"geometry":{"x":217027.37909999955,"y":2669970.7837000005}},{"attributes":{"OBJECTID":14353,"LANDMARKID":"1001900000042","LANDMARKCO":"103","LANDMARKNA":"台中市議會","LANDMARKAD":"1001904","ADDRESS":"台中市民權路101號","TEL":"04-22217911","COUNTYNAME":"台中市","TOWNNAME":"西區","MARKTYPE":"991","Class":"1"},"geometry":{"x":217199.30829999968,"y":2670503.8025000002}},{"attributes":{"OBJECTID":14354,"LANDMARKID":"1001900000043","LANDMARKCO":"103","LANDMARKNA":"台中市政府建設處","LANDMARKAD":"1001904","ADDRESS":"台中市民權路99號","TEL":"04-22289111","COUNTYNAME":"台中市","TOWNNAME":"西區","MARKTYPE":"991","Class":"1"},"geometry":{"x":217272.89379999973,"y":2670386.4264000002}},{"attributes":{"OBJECTID":14355,"LANDMARKID":"1001900000058","LANDMARKCO":"104","LANDMARKNA":"臺中市地方稅務局民權分局","LANDMARKAD":"1001904","ADDRESS":"台中市民權路99-1號","TEL":"04-22296181","COUNTYNAME":"台中市","TOWNNAME":"西區","MARKTYPE":"991","Class":"1"},"geometry":{"x":217247.52259999979,"y":2670451.5535000004}},{"attributes":{"OBJECTID":14356,"LANDMARKID":"1001900000049","LANDMARKCO":"103","LANDMARKNA":"營建署台中市第二工務所","LANDMARKAD":"1001904","ADDRESS":"台中市民生路412號","TEL":"04-23012407","COUNTYNAME":"台中市","TOWNNAME":"西區","MARKTYPE":"991","Class":"1"},"geometry":{"x":215509.61770000029,"y":2671062.5415000003}},{"attributes":{"OBJECTID":14357,"LANDMARKID":"1001900000050","LANDMARKCO":"103","LANDMARKNA":"台中市西區衛生所","LANDMARKAD":"1001904","ADDRESS":"台中市民權路105號","TEL":"04-22223811","COUNTYNAME":"台中市","TOWNNAME":"西區","MARKTYPE":"991","Class":"1"},"geometry":{"x":217064.10680000018,"y":2670693.5554000009}},{"attributes":{"OBJECTID":14358,"LANDMARKID":"1001900000084","LANDMARKCO":"107","LANDMARKNA":"台中市警察局第一分局","LANDMARKAD":"1001904","ADDRESS":"台中市三民路一段178號","TEL":"04-22223725","COUNTYNAME":"台中市","TOWNNAME":"西區","MARKTYPE":"991","Class":"1"},"geometry":{"x":217050.41069999989,"y":2670390.1973999999}},{"attributes":{"OBJECTID":14359,"LANDMARKID":"1001900000085","LANDMARKCO":"107","LANDMARKNA":"台中市警察局公益派出所","LANDMARKAD":"1001904","ADDRESS":"台中市精誠二十三街30號","TEL":"04-24727640","COUNTYNAME":"台中市","TOWNNAME":"西區","MARKTYPE":"991","Class":"1"},"geometry":{"x":215550.79920000024,"y":2671760.6698000003}},{"attributes":{"OBJECTID":14360,"LANDMARKID":"1001900000086","LANDMARKCO":"107","LANDMARKNA":"台中市警察局西區分駐所","LANDMARKAD":"1001904","ADDRESS":"台中市三民路一段178號","TEL":"04-22222632","COUNTYNAME":"台中市","TOWNNAME":"西區","MARKTYPE":"991","Class":"1"},"geometry":{"x":217047.41060000006,"y":2670390.1904000007}},{"attributes":{"OBJECTID":14361,"LANDMARKID":"1001900000069","LANDMARKCO":"106","LANDMARKNA":"台中市西區戶政事務所","LANDMARKAD":"1001904","ADDRESS":"台中市三民路一段158號7F","TEL":"04-22247300","COUNTYNAME":"台中市","TOWNNAME":"西區","MARKTYPE":"991","Class":"1"},"geometry":{"x":216893.73419999983,"y":2670250.4916999992}},{"attributes":{"OBJECTID":14362,"LANDMARKID":"1001900000061","LANDMARKCO":"105","LANDMARKNA":"台中市中山地政事務所","LANDMARKAD":"1001904","ADDRESS":"臺中市三民路一段158號","TEL":"04-22242195","COUNTYNAME":"台中市","TOWNNAME":"西區","MARKTYPE":"991","Class":"1"},"geometry":{"x":217204.34350000042,"y":2670420.5526999999}},{"attributes":{"OBJECTID":14363,"LANDMARKID":"1001900000282","LANDMARKCO":"205","LANDMARKNA":"中國民間美術博物館","LANDMARKAD":"1001904","ADDRESS":"台中市西區華美西街一段65號","TEL":"04-23162066","COUNTYNAME":"台中市","TOWNNAME":"西區","MARKTYPE":"992","Class":"2"},"geometry":{"x":215313.64950000029,"y":2672117.4638}},{"attributes":{"OBJECTID":14364,"LANDMARKID":"1001900000283","LANDMARKCO":"205","LANDMARKNA":"國立自然科學博物館","LANDMARKAD":"1001904","ADDRESS":"台中市北區館前路1號","TEL":" ","COUNTYNAME":"台中市","TOWNNAME":"西區","MARKTYPE":"992","Class":"2"},"geometry":{"x":216096.54260000028,"y":2672353.5497999992}},{"attributes":{"OBJECTID":14365,"LANDMARKID":"1001900000292","LANDMARKCO":"207","LANDMARKNA":"國立台灣美術館","LANDMARKAD":"1001904","ADDRESS":"台中市西區五權西路一段2號","TEL":" ","COUNTYNAME":"台中市","TOWNNAME":"西區","MARKTYPE":"992","Class":"2"},"geometry":{"x":215806.9020999996,"y":2670740.9207000006}},{"attributes":{"OBJECTID":14366,"LANDMARKID":"1001900000293","LANDMARKCO":"207","LANDMARKNA":"新美畫廊","LANDMARKAD":"1001904","ADDRESS":"台中市西區林森路133號","TEL":" ","COUNTYNAME":"台中市","TOWNNAME":"西區","MARKTYPE":"992","Class":"2"},"geometry":{"x":216536.94249999989,"y":2670262.8138999995}},{"attributes":{"OBJECTID":14367,"LANDMARKID":"1001900000294","LANDMARKCO":"207","LANDMARKNA":"台中市政府文化局大墩藝廊","LANDMARKAD":"1001904","ADDRESS":"台中市西區英才路600號B1","TEL":" ","COUNTYNAME":"台中市","TOWNNAME":"西區","MARKTYPE":"992","Class":"2"},"geometry":{"x":216003.57980000041,"y":2670706.8027999997}},{"attributes":{"OBJECTID":14368,"LANDMARKID":"1001900000277","LANDMARKCO":"204","LANDMARKNA":"台中市立圖書館西區分館","LANDMARKAD":"1001904","ADDRESS":"台中市西區精誠路256號","TEL":" ","COUNTYNAME":"台中市","TOWNNAME":"西區","MARKTYPE":"992","Class":"2"},"geometry":{"x":214936.95179999992,"y":2671630.6676000003}},{"attributes":{"OBJECTID":14369,"LANDMARKID":"1001900000291","LANDMARKCO":"206","LANDMARKNA":"台中市立文化中心—陳列館","LANDMARKAD":"1001904","ADDRESS":"台中市西區英才路600號","TEL":" ","COUNTYNAME":"台中市","TOWNNAME":"西區","MARKTYPE":"992","Class":"2"},"geometry":{"x":216012.30860000011,"y":2670709.9346999992}},{"attributes":{"OBJECTID":14370,"LANDMARKID":"1001900000198","LANDMARKCO":"203","LANDMARKNA":"市立光明國中","LANDMARKAD":"1001904","ADDRESS":"台中市自由路一段75號","TEL":"04-23756287","COUNTYNAME":"台中市","TOWNNAME":"西區","MARKTYPE":"992","Class":"2"},"geometry":{"x":216800.44199999981,"y":2669760.2777999993}},{"attributes":{"OBJECTID":14371,"LANDMARKID":"1001900000199","LANDMARKCO":"203","LANDMARKNA":"市立向上國中","LANDMARKAD":"1001904","ADDRESS":"台中市美村路一段389號","TEL":"04-23726085","COUNTYNAME":"台中市","TOWNNAME":"西區","MARKTYPE":"992","Class":"2"},"geometry":{"x":215767.55179999955,"y":2670940.5120999999}},{"attributes":{"OBJECTID":14372,"LANDMARKID":"1001900000166","LANDMARKCO":"202","LANDMARKNA":"國立台中女中","LANDMARKAD":"1001904","ADDRESS":"台中市自由路一段95號","TEL":"04-22205108","COUNTYNAME":"台中市","TOWNNAME":"西區","MARKTYPE":"992","Class":"2"},"geometry":{"x":217209.67530000024,"y":2670112.2095999997}},{"attributes":{"OBJECTID":14373,"LANDMARKID":"1001900000167","LANDMARKCO":"202","LANDMARKNA":"市立忠明高中","LANDMARKAD":"1001904","ADDRESS":"台中市博館路166號","TEL":"04-23224690","COUNTYNAME":"台中市","TOWNNAME":"西區","MARKTYPE":"992","Class":"2"},"geometry":{"x":215827.7154000001,"y":2672548.2311000004}},{"attributes":{"OBJECTID":14374,"LANDMARKID":"1001900000191","LANDMARKCO":"203","LANDMARKNA":"市立居仁國中","LANDMARKAD":"1001904","ADDRESS":"台中市自由路一段97號","TEL":"04-22223620","COUNTYNAME":"台中市","TOWNNAME":"西區","MARKTYPE":"992","Class":"2"},"geometry":{"x":217347.76180000044,"y":2670242.2381999996}},{"attributes":{"OBJECTID":14375,"LANDMARKID":"1001900000192","LANDMARKCO":"203","LANDMARKNA":"市立忠明國小","LANDMARKAD":"1001904","ADDRESS":"台中市台中港路一段414號","TEL":"04-23172860","COUNTYNAME":"台中市","TOWNNAME":"西區","MARKTYPE":"992","Class":"2"},"geometry":{"x":215361.07880000025,"y":2672542.4036999997}},{"attributes":{"OBJECTID":14376,"LANDMARKID":"1001900000193","LANDMARKCO":"203","LANDMARKNA":"市立大同國小","LANDMARKAD":"1001904","ADDRESS":"台中市自由路一段138號","TEL":"04-22222311","COUNTYNAME":"台中市","TOWNNAME":"西區","MARKTYPE":"992","Class":"2"},"geometry":{"x":217298.67899999954,"y":2670082.8372000009}},{"attributes":{"OBJECTID":14377,"LANDMARKID":"1001900000194","LANDMARKCO":"203","LANDMARKNA":"市立大勇國小","LANDMARKAD":"1001904","ADDRESS":"台中市忠明南路515號","TEL":"04-23755959","COUNTYNAME":"台中市","TOWNNAME":"西區","MARKTYPE":"992","Class":"2"},"geometry":{"x":215220.12260000035,"y":2669960.8757000007}},{"attributes":{"OBJECTID":14378,"LANDMARKID":"1001900000195","LANDMARKCO":"203","LANDMARKNA":"市立忠信國小","LANDMARKAD":"1001904","ADDRESS":"台中市林森路155號","TEL":"04-23724464","COUNTYNAME":"台中市","TOWNNAME":"西區","MARKTYPE":"992","Class":"2"},"geometry":{"x":216316.32760000043,"y":2670489.2459999993}},{"attributes":{"OBJECTID":14379,"LANDMARKID":"1001900000196","LANDMARKCO":"203","LANDMARKNA":"市立中正國小","LANDMARKAD":"1001904","ADDRESS":"台中市英才路423號","TEL":"04-23212041","COUNTYNAME":"台中市","TOWNNAME":"西區","MARKTYPE":"992","Class":"2"},"geometry":{"x":216125.97599999979,"y":2671964.7274999991}},{"attributes":{"OBJECTID":14380,"LANDMARKID":"1001900000136","LANDMARKCO":"201","LANDMARKNA":"中台神學院","LANDMARKAD":"1001904","ADDRESS":"台中市林森路36號","TEL":"04-23780510","COUNTYNAME":"台中市","TOWNNAME":"西區","MARKTYPE":"992","Class":"2"},"geometry":{"x":216719.16679999977,"y":2670161.4978}},{"attributes":{"OBJECTID":14381,"LANDMARKID":"1001900000137","LANDMARKCO":"201","LANDMARKNA":"國立台中教育大學","LANDMARKAD":"1001904","ADDRESS":"台中市民生路140號","TEL":"04-22263181","COUNTYNAME":"台中市","TOWNNAME":"西區","MARKTYPE":"992","Class":"2"},"geometry":{"x":216644.23070000019,"y":2670943.8624000009}},{"attributes":{"OBJECTID":14382,"LANDMARKID":"1001900000197","LANDMARKCO":"203","LANDMARKNA":"市立忠孝國小","LANDMARKAD":"1001904","ADDRESS":"台中市三民路一段171號","TEL":"04-22242161","COUNTYNAME":"台中市","TOWNNAME":"西區","MARKTYPE":"992","Class":"2"},"geometry":{"x":216822.54760000017,"y":2670330.3259999994}},{"attributes":{"OBJECTID":14383,"LANDMARKID":"1001900000138","LANDMARKCO":"201","LANDMARKNA":"國立台中護理專科學校","LANDMARKAD":"1001904","ADDRESS":"台中市三民路一段193號","TEL":"04-22223867","COUNTYNAME":"台中市","TOWNNAME":"西區","MARKTYPE":"992","Class":"2"},"geometry":{"x":217028.63640000019,"y":2670600.1453000009}},{"attributes":{"OBJECTID":14384,"LANDMARKID":"1001900000318","LANDMARKCO":"302","LANDMARKNA":"統聯客運-中山站-自營站","LANDMARKAD":"1001904","ADDRESS":"台中市西區台中港路一段78號","TEL":"連絡電話:092598","COUNTYNAME":"台中市","TOWNNAME":"西區","MARKTYPE":"993","Class":"302"},"geometry":{"x":216667.40429999959,"y":2671599.9509999994}},{"attributes":{"OBJECTID":14385,"LANDMARKID":"1001900000319","LANDMARKCO":"302","LANDMARKNA":"統聯汽車客運中山站","LANDMARKAD":"1001904","ADDRESS":"台中市西區台中港路一段78號","TEL":" ","COUNTYNAME":"台中市","TOWNNAME":"西區","MARKTYPE":"993","Class":"302"},"geometry":{"x":216558.10259999987,"y":2671791.2773000002}},{"attributes":{"OBJECTID":14386,"LANDMARKID":"1001900000320","LANDMARKCO":"303","LANDMARKNA":"地下停車場","LANDMARKAD":"1001904","ADDRESS":" ","TEL":"04-24715680","COUNTYNAME":"台中市","TOWNNAME":"西區","MARKTYPE":"993","Class":"303"},"geometry":{"x":214457.28550000023,"y":2671304.1498000007}},{"attributes":{"OBJECTID":14387,"LANDMARKID":"1001900000321","LANDMARKCO":"303","LANDMARKNA":"萬壽棒球場停車場","LANDMARKAD":"1001904","ADDRESS":" ","TEL":"04-24720658","COUNTYNAME":"台中市","TOWNNAME":"西區","MARKTYPE":"993","Class":"303"},"geometry":{"x":214536.98950000014,"y":2671280.6861000005}},{"attributes":{"OBJECTID":14388,"LANDMARKID":"1001900000322","LANDMARKCO":"303","LANDMARKNA":"大益停車場","LANDMARKAD":"1001904","ADDRESS":"台中市向上路一段、大忠街交叉口","TEL":" ","COUNTYNAME":"台中市","TOWNNAME":"西區","MARKTYPE":"993","Class":"303"},"geometry":{"x":215103.23919999972,"y":2671301.3103999998}},{"attributes":{"OBJECTID":14389,"LANDMARKID":"1001900000323","LANDMARKCO":"303","LANDMARKNA":"土庫停車場","LANDMARKAD":"1001904","ADDRESS":"台中市西區存中街42號","TEL":" ","COUNTYNAME":"台中市","TOWNNAME":"西區","MARKTYPE":"993","Class":"303"},"geometry":{"x":215196.89940000046,"y":2670728.7697000001}},{"attributes":{"OBJECTID":14390,"LANDMARKID":"1001900000324","LANDMARKCO":"303","LANDMARKNA":"太原停車場","LANDMARKAD":"1001904","ADDRESS":"台中市西屯區太原路","TEL":" ","COUNTYNAME":"台中市","TOWNNAME":"西區","MARKTYPE":"993","Class":"303"},"geometry":{"x":215396.86679999996,"y":2672917.3165000007}},{"attributes":{"OBJECTID":14391,"LANDMARKID":"1001900000325","LANDMARKCO":"303","LANDMARKNA":"美村停車場","LANDMARKAD":"1001904","ADDRESS":"台中市西區存中街1號","TEL":" ","COUNTYNAME":"台中市","TOWNNAME":"西區","MARKTYPE":"993","Class":"303"},"geometry":{"x":215595.64599999972,"y":2670721.3639000002}},{"attributes":{"OBJECTID":14392,"LANDMARKID":"1001900000326","LANDMARKCO":"303","LANDMARKNA":"忠明公園地下停車場","LANDMARKAD":"1001904","ADDRESS":" ","TEL":"04-23251167","COUNTYNAME":"台中市","TOWNNAME":"西區","MARKTYPE":"993","Class":"303"},"geometry":{"x":215470.19330000039,"y":2672136.9531999994}},{"attributes":{"OBJECTID":14393,"LANDMARKID":"1001900000327","LANDMARKCO":"303","LANDMARKNA":"吉龍停車場","LANDMARKAD":"1001904","ADDRESS":"台中市美村路","TEL":" ","COUNTYNAME":"台中市","TOWNNAME":"西區","MARKTYPE":"993","Class":"303"},"geometry":{"x":215633.51350000035,"y":2669731.5519999992}},{"attributes":{"OBJECTID":14394,"LANDMARKID":"1001900000328","LANDMARKCO":"303","LANDMARKNA":"國立台灣美術館停車場","LANDMARKAD":"1001904","ADDRESS":"台中市西區五權西路一段2號","TEL":"04-23723552","COUNTYNAME":"台中市","TOWNNAME":"西區","MARKTYPE":"993","Class":"303"},"geometry":{"x":215627.81769999955,"y":2670718.3806999996}},{"attributes":{"OBJECTID":14395,"LANDMARKID":"1001900000329","LANDMARKCO":"303","LANDMARKNA":"廣三SOGO立體停車場","LANDMARKAD":"1001904","ADDRESS":" ","TEL":" ","COUNTYNAME":"台中市","TOWNNAME":"西區","MARKTYPE":"993","Class":"303"},"geometry":{"x":215585.80790000036,"y":2672260.2945000008}},{"attributes":{"OBJECTID":14396,"LANDMARKID":"1001900000330","LANDMARKCO":"303","LANDMARKNA":"台中金典酒店停車場","LANDMARKAD":"1001904","ADDRESS":" ","TEL":"04-23288000","COUNTYNAME":"台中市","TOWNNAME":"西區","MARKTYPE":"993","Class":"303"},"geometry":{"x":215777.86099999957,"y":2672372.7610999998}},{"attributes":{"OBJECTID":14397,"LANDMARKID":"1001900000331","LANDMARKCO":"303","LANDMARKNA":"易泊網台中中興站","LANDMARKAD":"1001904","ADDRESS":" ","TEL":" ","COUNTYNAME":"台中市","TOWNNAME":"西區","MARKTYPE":"993","Class":"303"},"geometry":{"x":215760.76279999968,"y":2672100.2171}},{"attributes":{"OBJECTID":14398,"LANDMARKID":"1001900000332","LANDMARKCO":"303","LANDMARKNA":"晶品大飯店停車場","LANDMARKAD":"1001904","ADDRESS":"台中市西區向上路一段95號11樓","TEL":"04-23028008","COUNTYNAME":"台中市","TOWNNAME":"西區","MARKTYPE":"993","Class":"303"},"geometry":{"x":215808.03569999989,"y":2671296.0569000002}},{"attributes":{"OBJECTID":14399,"LANDMARKID":"1001900000333","LANDMARKCO":"303","LANDMARKNA":"大廣三立體停車場","LANDMARKAD":"1001904","ADDRESS":" ","TEL":" ","COUNTYNAME":"台中市","TOWNNAME":"西區","MARKTYPE":"993","Class":"303"},"geometry":{"x":215858.80169999972,"y":2671827.7545999996}},{"attributes":{"OBJECTID":14400,"LANDMARKID":"1001900000334","LANDMARKCO":"303","LANDMARKNA":"易泊網台中科博館站","LANDMARKAD":"1001904","ADDRESS":" ","TEL":" ","COUNTYNAME":"台中市","TOWNNAME":"西區","MARKTYPE":"993","Class":"303"},"geometry":{"x":215955.86529999971,"y":2672469.4242000002}}]}