{"displayFieldName":"COUNTYNAME","fieldAliases":{"OBJECTID":"OBJECTID","LANDMARKID":"LANDMARKID","LANDMARKCO":"LANDMARKCO","LANDMARKNA":"LANDMARKNA","LANDMARKAD":"LANDMARKAD","ADDRESS":"ADDRESS","TEL":"TEL","COUNTYNAME":"COUNTYNAME","TOWNNAME":"TOWNNAME","MARKTYPE":"MARKTYPE","Class":"Class"},"geometryType":"esriGeometryPoint","spatialReference":{"wkid":4326},"fields":[{"name":"OBJECTID","type":"esriFieldTypeOID","alias":"OBJECTID"},{"name":"LANDMARKID","type":"esriFieldTypeString","alias":"LANDMARKID","length":15},{"name":"LANDMARKCO","type":"esriFieldTypeString","alias":"LANDMARKCO","length":15},{"name":"LANDMARKNA","type":"esriFieldTypeString","alias":"LANDMARKNA","length":50},{"name":"LANDMARKAD","type":"esriFieldTypeString","alias":"LANDMARKAD","length":15},{"name":"ADDRESS","type":"esriFieldTypeString","alias":"ADDRESS","length":56},{"name":"TEL","type":"esriFieldTypeString","alias":"TEL","length":36},{"name":"COUNTYNAME","type":"esriFieldTypeString","alias":"COUNTYNAME","length":15},{"name":"TOWNNAME","type":"esriFieldTypeString","alias":"TOWNNAME","length":13},{"name":"MARKTYPE","type":"esriFieldTypeString","alias":"MARKTYPE","length":12},{"name":"Class","type":"esriFieldTypeString","alias":"Class","length":5}],"features":[{"attributes":{"OBJECTID":10401,"LANDMARKID":"1001100000566","LANDMARKCO":"203","LANDMARKNA":"縣立東山國中","LANDMARKAD":"1001106","ADDRESS":"台南市東山區東中村青葉路一段132號","TEL":"06-6802175","COUNTYNAME":"台南市","TOWNNAME":"東山區","MARKTYPE":"992","Class":"2"},"geometry":{"x":120.40334067033963,"y":23.316442967177}},{"attributes":{"OBJECTID":10402,"LANDMARKID":"1001100000567","LANDMARKCO":"203","LANDMARKNA":"縣立東山國小","LANDMARKAD":"1001106","ADDRESS":"台南市東山區東中村青葉路二段49號","TEL":"06-6802274","COUNTYNAME":"台南市","TOWNNAME":"東山區","MARKTYPE":"992","Class":"2"},"geometry":{"x":120.40453879602595,"y":23.323314882928489}},{"attributes":{"OBJECTID":10403,"LANDMARKID":"1001100000360","LANDMARKCO":"202","LANDMARKNA":"私立華濟永安高中","LANDMARKAD":"1001106","ADDRESS":"台南市東山區聖賢村頂窩65號","TEL":"06-6323134","COUNTYNAME":"台南市","TOWNNAME":"東山區","MARKTYPE":"992","Class":"2"},"geometry":{"x":120.33936190586975,"y":23.306704718718667}},{"attributes":{"OBJECTID":10404,"LANDMARKID":"1001100000560","LANDMARKCO":"203","LANDMARKNA":"縣立東原國中","LANDMARKAD":"1001106","ADDRESS":"台南市東山區東原村70號","TEL":"06-6861009","COUNTYNAME":"台南市","TOWNNAME":"東山區","MARKTYPE":"992","Class":"2"},"geometry":{"x":120.45166313760963,"y":23.272827066916538}},{"attributes":{"OBJECTID":10405,"LANDMARKID":"1001100000561","LANDMARKCO":"203","LANDMARKNA":"縣立聖賢國小","LANDMARKAD":"1001106","ADDRESS":"台南市東山區聖賢村田尾29號","TEL":"06-6353170","COUNTYNAME":"台南市","TOWNNAME":"東山區","MARKTYPE":"992","Class":"2"},"geometry":{"x":120.36252364428493,"y":23.305630438655566}},{"attributes":{"OBJECTID":10406,"LANDMARKID":"1001100000562","LANDMARKCO":"203","LANDMARKNA":"縣立東河國小","LANDMARKAD":"1001106","ADDRESS":"台南市東山區東河村15號","TEL":"06-6231149","COUNTYNAME":"台南市","TOWNNAME":"東山區","MARKTYPE":"992","Class":"2"},"geometry":{"x":120.38637946067034,"y":23.294343120979736}},{"attributes":{"OBJECTID":10407,"LANDMARKID":"1001100000563","LANDMARKCO":"203","LANDMARKNA":"縣立水雲國小","LANDMARKAD":"1001106","ADDRESS":"台南市東山區","TEL":" ","COUNTYNAME":"台南市","TOWNNAME":"東山區","MARKTYPE":"992","Class":"2"},"geometry":{"x":120.41563109672848,"y":23.279380018986096}},{"attributes":{"OBJECTID":10408,"LANDMARKID":"1001100000564","LANDMARKCO":"203","LANDMARKNA":"縣立東原國小","LANDMARKAD":"1001106","ADDRESS":"台南市東山區東原村23鄰8號","TEL":"06-6861042","COUNTYNAME":"台南市","TOWNNAME":"東山區","MARKTYPE":"992","Class":"2"},"geometry":{"x":120.44652466664832,"y":23.265947677217866}},{"attributes":{"OBJECTID":10409,"LANDMARKID":"1001100000565","LANDMARKCO":"203","LANDMARKNA":"縣立青山國小","LANDMARKAD":"1001106","ADDRESS":"台南市東山區青山村16號","TEL":"06-6861041","COUNTYNAME":"台南市","TOWNNAME":"東山區","MARKTYPE":"992","Class":"2"},"geometry":{"x":120.46716653502993,"y":23.28037139252503}},{"attributes":{"OBJECTID":10410,"LANDMARKID":"1001100000778","LANDMARKCO":"308","LANDMARKNA":"東山服務區","LANDMARKAD":"1001106","ADDRESS":" ","TEL":" ","COUNTYNAME":"台南市","TOWNNAME":"東山區","MARKTYPE":"993","Class":"308"},"geometry":{"x":120.39787497860307,"y":23.288506039467052}},{"attributes":{"OBJECTID":10411,"LANDMARKID":"1001100000725","LANDMARKCO":"303","LANDMARKNA":"停四停車場","LANDMARKAD":"1001106","ADDRESS":"台南市東山區","TEL":" ","COUNTYNAME":"台南市","TOWNNAME":"東山區","MARKTYPE":"993","Class":"303"},"geometry":{"x":120.40362930103581,"y":23.32275055100375}},{"attributes":{"OBJECTID":10412,"LANDMARKID":"1001100000855","LANDMARKCO":"402","LANDMARKNA":"中華電信-東原服務中心","LANDMARKAD":"1001106","ADDRESS":"台南市東山區東原村瓦厝1-3號","TEL":"06)686-1004","COUNTYNAME":"台南市","TOWNNAME":"東山區","MARKTYPE":"994","Class":"4"},"geometry":{"x":120.44825311711851,"y":23.269309695583065}},{"attributes":{"OBJECTID":10413,"LANDMARKID":"1001100001312","LANDMARKCO":"503","LANDMARKNA":"高原咖啡生態園區","LANDMARKAD":"1001106","ADDRESS":"台南市東山區高原村","TEL":"06-6862710","COUNTYNAME":"台南市","TOWNNAME":"東山區","MARKTYPE":"995","Class":"5"},"geometry":{"x":120.51023861464891,"y":23.285692196110286}},{"attributes":{"OBJECTID":10414,"LANDMARKID":"1001100001313","LANDMARKCO":"503","LANDMARKNA":"曾文之眼","LANDMARKAD":"1001106","ADDRESS":"台南市東山區大洋41之30號","TEL":"06-5753251","COUNTYNAME":"台南市","TOWNNAME":"東山區","MARKTYPE":"995","Class":"5"},"geometry":{"x":120.51943726274493,"y":23.241551476227546}},{"attributes":{"OBJECTID":10415,"LANDMARKID":"1001100001353","LANDMARKCO":"510","LANDMARKNA":"永安高爾夫球場","LANDMARKAD":"1001106","ADDRESS":"台南市東山區東原村斑芝花坑39號","TEL":"06-6862208","COUNTYNAME":"台南市","TOWNNAME":"東山區","MARKTYPE":"995","Class":"5"},"geometry":{"x":120.44934522021494,"y":23.286300565783971}},{"attributes":{"OBJECTID":10416,"LANDMARKID":"1001100001055","LANDMARKCO":"405","LANDMARKNA":"中油加油站-柳營站(中油直營)","LANDMARKAD":"1001104","ADDRESS":"台南市柳營區柳營路三段300號","TEL":"06-6222041","COUNTYNAME":"台南市","TOWNNAME":"柳營區","MARKTYPE":"994","Class":"4"},"geometry":{"x":120.31270669766607,"y":23.291935161956292}},{"attributes":{"OBJECTID":10417,"LANDMARKID":"1001100001056","LANDMARKCO":"405","LANDMARKNA":"台糖加油站-太康站(中油)","LANDMARKAD":"1001104","ADDRESS":"台南市柳營區太康村200號","TEL":" ","COUNTYNAME":"台南市","TOWNNAME":"柳營區","MARKTYPE":"994","Class":"4"},"geometry":{"x":120.33394744261197,"y":23.286058660417382}},{"attributes":{"OBJECTID":10418,"LANDMARKID":"1001100001057","LANDMARKCO":"405","LANDMARKNA":"中油加油站-果毅站","LANDMARKAD":"1001104","ADDRESS":"台南市柳營區果毅村60-12號","TEL":"06-6233838","COUNTYNAME":"台南市","TOWNNAME":"柳營區","MARKTYPE":"994","Class":"4"},"geometry":{"x":120.37381141432104,"y":23.258752607000382}},{"attributes":{"OBJECTID":10419,"LANDMARKID":"1001100001058","LANDMARKCO":"405","LANDMARKNA":"中油加油站-安福站","LANDMARKAD":"1001104","ADDRESS":"台南市柳營區士林村柳營路二段353號","TEL":"06-6225967","COUNTYNAME":"台南市","TOWNNAME":"柳營區","MARKTYPE":"994","Class":"4"},"geometry":{"x":120.31170441408851,"y":23.283198639264175}},{"attributes":{"OBJECTID":10420,"LANDMARKID":"1001100000835","LANDMARKCO":"401","LANDMARKNA":"財團法人奇美醫院-柳營分院","LANDMARKAD":"1001104","ADDRESS":"台南市柳營區太康村201號","TEL":"06-6226999","COUNTYNAME":"台南市","TOWNNAME":"柳營區","MARKTYPE":"994","Class":"4"},"geometry":{"x":120.32538233143106,"y":23.288575951522663}},{"attributes":{"OBJECTID":10421,"LANDMARKID":"1001100001222","LANDMARKCO":"408","LANDMARKNA":"郵局-柳營郵局","LANDMARKAD":"1001104","ADDRESS":"台南市柳營區士林村柳營路1段745號","TEL":"(06)6220-503","COUNTYNAME":"台南市","TOWNNAME":"柳營區","MARKTYPE":"994","Class":"4"},"geometry":{"x":120.31290713238855,"y":23.27434094192061}},{"attributes":{"OBJECTID":10422,"LANDMARKID":"1001100001223","LANDMARKCO":"408","LANDMARKNA":"郵局-柳營重溪郵局","LANDMARKAD":"1001104","ADDRESS":"台南市柳營區重溪村12-4號","TEL":"(06)6234-187","COUNTYNAME":"台南市","TOWNNAME":"柳營區","MARKTYPE":"994","Class":"4"},"geometry":{"x":120.36632870908367,"y":23.288073942255433}},{"attributes":{"OBJECTID":10423,"LANDMARKID":"1001100001273","LANDMARKCO":"409","LANDMARKNA":"柳營區農會","LANDMARKAD":"1001104","ADDRESS":"台南市柳營區柳營路二段77號","TEL":"06-687211","COUNTYNAME":"台南市","TOWNNAME":"柳營區","MARKTYPE":"994","Class":"4"},"geometry":{"x":120.31168507590729,"y":23.27893058713499}},{"attributes":{"OBJECTID":10424,"LANDMARKID":"1001100000072","LANDMARKCO":"103","LANDMARKNA":"台南市柳營區鄉民代表會","LANDMARKAD":"1001104","ADDRESS":"台南市柳營區士賢街2號","TEL":"06-6220195","COUNTYNAME":"台南市","TOWNNAME":"柳營區","MARKTYPE":"991","Class":"1"},"geometry":{"x":120.30683046476726,"y":23.277672120060881}},{"attributes":{"OBJECTID":10425,"LANDMARKID":"1001100000312","LANDMARKCO":"108","LANDMARKNA":"台南市柳營區公所","LANDMARKAD":"1001104","ADDRESS":"台南市柳營區柳營路2段59號","TEL":"06-6221245","COUNTYNAME":"台南市","TOWNNAME":"柳營區","MARKTYPE":"991","Class":"1"},"geometry":{"x":120.31122879193592,"y":23.278137811076547}},{"attributes":{"OBJECTID":10426,"LANDMARKID":"1001100000266","LANDMARKCO":"107","LANDMARKNA":"台南市消防局柳營消防分隊","LANDMARKAD":"1001104","ADDRESS":"台南市柳營區士林村博愛街20號","TEL":"06-6220179","COUNTYNAME":"台南市","TOWNNAME":"柳營區","MARKTYPE":"991","Class":"1"},"geometry":{"x":120.31140379501063,"y":23.278229649004871}},{"attributes":{"OBJECTID":10427,"LANDMARKID":"1001100000116","LANDMARKCO":"106","LANDMARKNA":"台南市柳營區戶政事務所","LANDMARKAD":"1001104","ADDRESS":"台南市柳營區博愛街2號","TEL":"06-6220744","COUNTYNAME":"台南市","TOWNNAME":"柳營區","MARKTYPE":"991","Class":"1"},"geometry":{"x":120.31156110590493,"y":23.278140727615249}},{"attributes":{"OBJECTID":10428,"LANDMARKID":"1001100000265","LANDMARKCO":"107","LANDMARKNA":"台南市警察局柳營分駐所","LANDMARKAD":"1001104","ADDRESS":"台南市柳營區士林村柳營路一段785號","TEL":"06-6223424","COUNTYNAME":"台南市","TOWNNAME":"柳營區","MARKTYPE":"991","Class":"1"},"geometry":{"x":120.31241572199039,"y":23.276342248817375}},{"attributes":{"OBJECTID":10429,"LANDMARKID":"1001100000009","LANDMARKCO":"101","LANDMARKNA":"台灣台南地方法院柳營簡易庭","LANDMARKAD":"1001104","ADDRESS":"台南市柳營區人和村酒精80號","TEL":"06-6225180","COUNTYNAME":"台南市","TOWNNAME":"柳營區","MARKTYPE":"991","Class":"1"},"geometry":{"x":120.30838590115771,"y":23.288780424707767}},{"attributes":{"OBJECTID":10430,"LANDMARKID":"1001100000071","LANDMARKCO":"103","LANDMARKNA":"台南市柳營區衛生所","LANDMARKAD":"1001104","ADDRESS":"台南市柳營區士林村54之5號","TEL":"06-6220464","COUNTYNAME":"台南市","TOWNNAME":"柳營區","MARKTYPE":"991","Class":"1"},"geometry":{"x":120.31272890518609,"y":23.275351673787913}},{"attributes":{"OBJECTID":10431,"LANDMARKID":"1001100000276","LANDMARKCO":"107","LANDMARKNA":"台南市警察局重溪派出所","LANDMARKAD":"1001104","ADDRESS":"台南市柳營區篤農村229號","TEL":"06-6231664","COUNTYNAME":"台南市","TOWNNAME":"柳營區","MARKTYPE":"991","Class":"1"},"geometry":{"x":120.36711903833456,"y":23.290023226613179}},{"attributes":{"OBJECTID":10432,"LANDMARKID":"1001100000277","LANDMARKCO":"107","LANDMARKNA":"台南市警察局果毅派出所","LANDMARKAD":"1001104","ADDRESS":"台南市柳營區神農村296號","TEL":"06-6231514","COUNTYNAME":"台南市","TOWNNAME":"柳營區","MARKTYPE":"991","Class":"1"},"geometry":{"x":120.36898488819737,"y":23.256897990071781}},{"attributes":{"OBJECTID":10433,"LANDMARKID":"1001100000633","LANDMARKCO":"204","LANDMARKNA":"台南市立圖書館柳營分館","LANDMARKAD":"1001104","ADDRESS":"台南市柳營區士林村92之1號","TEL":" ","COUNTYNAME":"台南市","TOWNNAME":"柳營區","MARKTYPE":"992","Class":"2"},"geometry":{"x":120.31182677997067,"y":23.278555630636514}},{"attributes":{"OBJECTID":10434,"LANDMARKID":"1001100000573","LANDMARKCO":"203","LANDMARKNA":"縣立柳營國小","LANDMARKAD":"1001104","ADDRESS":"台南市柳營區士林村柳營路一段755號","TEL":"06-6222124","COUNTYNAME":"台南市","TOWNNAME":"柳營區","MARKTYPE":"992","Class":"2"},"geometry":{"x":120.31247772093801,"y":23.274627121174674}},{"attributes":{"OBJECTID":10435,"LANDMARKID":"1001100000356","LANDMARKCO":"202","LANDMARKNA":"私立新榮高中","LANDMARKAD":"1001104","ADDRESS":"台南市柳營區光福村132之12號","TEL":"06-6222222","COUNTYNAME":"台南市","TOWNNAME":"柳營區","MARKTYPE":"992","Class":"2"},"geometry":{"x":120.3161666112648,"y":23.268597085749573}},{"attributes":{"OBJECTID":10436,"LANDMARKID":"1001100000357","LANDMARKCO":"202","LANDMARKNA":"私立鳳和高中","LANDMARKAD":"1001104","ADDRESS":"台南市柳營區中山東路二段1330號","TEL":"06-6224886","COUNTYNAME":"台南市","TOWNNAME":"柳營區","MARKTYPE":"992","Class":"2"},"geometry":{"x":120.32599371729162,"y":23.279560203960187}},{"attributes":{"OBJECTID":10437,"LANDMARKID":"1001100000358","LANDMARKCO":"202","LANDMARKNA":"私立新榮高中附設國中部","LANDMARKAD":"1001104","ADDRESS":"台南市柳營區光福村132之12號","TEL":"06-6222222","COUNTYNAME":"台南市","TOWNNAME":"柳營區","MARKTYPE":"992","Class":"2"},"geometry":{"x":120.31611497839617,"y":23.268867541801171}},{"attributes":{"OBJECTID":10438,"LANDMARKID":"1001100000359","LANDMARKCO":"202","LANDMARKNA":"私立鳳和高中附設國中部","LANDMARKAD":"1001104","ADDRESS":"台南市柳營區中山東路二段1330號","TEL":"06-6224886","COUNTYNAME":"台南市","TOWNNAME":"柳營區","MARKTYPE":"992","Class":"2"},"geometry":{"x":120.32600349157808,"y":23.27956028748013}},{"attributes":{"OBJECTID":10439,"LANDMARKID":"1001100000568","LANDMARKCO":"203","LANDMARKNA":"縣立柳營國中","LANDMARKAD":"1001104","ADDRESS":"台南市柳營區東昇村中山東路二段956號","TEL":"06-6223209","COUNTYNAME":"台南市","TOWNNAME":"柳營區","MARKTYPE":"992","Class":"2"},"geometry":{"x":120.33190363258423,"y":23.279948158306453}},{"attributes":{"OBJECTID":10440,"LANDMARKID":"1001100000569","LANDMARKCO":"203","LANDMARKNA":"縣立太康國小","LANDMARKAD":"1001104","ADDRESS":"台南市柳營區太康村4之1號","TEL":"06-6220684","COUNTYNAME":"台南市","TOWNNAME":"柳營區","MARKTYPE":"992","Class":"2"},"geometry":{"x":120.32952096633748,"y":23.290143571886166}},{"attributes":{"OBJECTID":10441,"LANDMARKID":"1001100000570","LANDMARKCO":"203","LANDMARKNA":"縣立重溪國小","LANDMARKAD":"1001104","ADDRESS":"台南市柳營區重溪村1號","TEL":"06-6231824","COUNTYNAME":"台南市","TOWNNAME":"柳營區","MARKTYPE":"992","Class":"2"},"geometry":{"x":120.3647957864958,"y":23.286223056202196}},{"attributes":{"OBJECTID":10442,"LANDMARKID":"1001100000571","LANDMARKCO":"203","LANDMARKNA":"縣立果毅國小","LANDMARKAD":"1001104","ADDRESS":"台南市柳營區果毅村61號","TEL":"06-6231310","COUNTYNAME":"台南市","TOWNNAME":"柳營區","MARKTYPE":"992","Class":"2"},"geometry":{"x":120.37234641488517,"y":23.257986253288358}},{"attributes":{"OBJECTID":10443,"LANDMARKID":"1001100000572","LANDMARKCO":"203","LANDMARKNA":"縣立新山國小","LANDMARKAD":"1001104","ADDRESS":"台南市柳營區旭山村新吉庄28之1號","TEL":"06-6231140","COUNTYNAME":"台南市","TOWNNAME":"柳營區","MARKTYPE":"992","Class":"2"},"geometry":{"x":120.38788594596869,"y":23.26645200273197}},{"attributes":{"OBJECTID":10444,"LANDMARKID":"1001100000342","LANDMARKCO":"201","LANDMARKNA":"敏惠醫護管理專科學校","LANDMARKAD":"1001104","ADDRESS":"台南市柳營區中山東路二段1116號","TEL":"06-6226111","COUNTYNAME":"台南市","TOWNNAME":"柳營區","MARKTYPE":"992","Class":"2"},"geometry":{"x":120.32955068559023,"y":23.279669057166313}},{"attributes":{"OBJECTID":10445,"LANDMARKID":"1001100000724","LANDMARKCO":"303","LANDMARKNA":"台糖新營總廠光山埤水庫風景區停","LANDMARKAD":"1001104","ADDRESS":"台南市柳營區旭山村60號","TEL":" ","COUNTYNAME":"台南市","TOWNNAME":"柳營區","MARKTYPE":"993","Class":"303"},"geometry":{"x":120.39413314521555,"y":23.264113548631691}},{"attributes":{"OBJECTID":10446,"LANDMARKID":"1001100000673","LANDMARKCO":"301","LANDMARKNA":"柳營火車站","LANDMARKAD":"1001104","ADDRESS":"台南市新營區中營里中山路1號","TEL":" ","COUNTYNAME":"台南市","TOWNNAME":"柳營區","MARKTYPE":"993","Class":"301"},"geometry":{"x":120.32253028459152,"y":23.277501853754195}},{"attributes":{"OBJECTID":10447,"LANDMARKID":"1001100001310","LANDMARKCO":"503","LANDMARKNA":"大康綠色隧道","LANDMARKAD":"1001104","ADDRESS":"台南市柳營區","TEL":" ","COUNTYNAME":"台南市","TOWNNAME":"柳營區","MARKTYPE":"995","Class":"5"},"geometry":{"x":120.32739846297774,"y":23.291212279685947}},{"attributes":{"OBJECTID":10448,"LANDMARKID":"1001100001311","LANDMARKCO":"503","LANDMARKNA":"尖山埤風景特定區","LANDMARKAD":"1001104","ADDRESS":"台南市柳營區旭山村60號","TEL":" ","COUNTYNAME":"台南市","TOWNNAME":"柳營區","MARKTYPE":"995","Class":"5"},"geometry":{"x":120.39134863737257,"y":23.260043276446247}},{"attributes":{"OBJECTID":10449,"LANDMARKID":"1001100001059","LANDMARKCO":"405","LANDMARKNA":"中油加油站-佳億站","LANDMARKAD":"1001113","ADDRESS":"台南市學甲區平西里西平寮12號","TEL":"06-7821291","COUNTYNAME":"台南市","TOWNNAME":"學甲區","MARKTYPE":"994","Class":"4"},"geometry":{"x":120.21248810736715,"y":23.26072565130686}},{"attributes":{"OBJECTID":10450,"LANDMARKID":"1001100001060","LANDMARKCO":"405","LANDMARKNA":"中油加油站-學甲中正路站(中油直營)","LANDMARKAD":"1001113","ADDRESS":"台南市學甲區中正路645號","TEL":"06-7837900","COUNTYNAME":"台南市","TOWNNAME":"學甲區","MARKTYPE":"994","Class":"4"},"geometry":{"x":120.18920322926199,"y":23.244110674875412}},{"attributes":{"OBJECTID":10451,"LANDMARKID":"1001100001061","LANDMARKCO":"405","LANDMARKNA":"中油加油站-學甲站(中油直營)","LANDMARKAD":"1001113","ADDRESS":"台南市學甲區華宗路311號","TEL":"06-7832264","COUNTYNAME":"台南市","TOWNNAME":"學甲區","MARKTYPE":"994","Class":"4"},"geometry":{"x":120.18258846949988,"y":23.229835637013618}},{"attributes":{"OBJECTID":10452,"LANDMARKID":"1001100001062","LANDMARKCO":"405","LANDMARKNA":"中油加油站-夢公園站","LANDMARKAD":"1001113","ADDRESS":"台南市學甲區中山路187號","TEL":"06-7831222","COUNTYNAME":"台南市","TOWNNAME":"學甲區","MARKTYPE":"994","Class":"4"},"geometry":{"x":120.17538979007624,"y":23.235646097689393}},{"attributes":{"OBJECTID":10453,"LANDMARKID":"1001100001221","LANDMARKCO":"408","LANDMARKNA":"郵局-學甲郵局","LANDMARKAD":"1001113","ADDRESS":"台南市學甲區中正路318號","TEL":"(06)7833-378","COUNTYNAME":"台南市","TOWNNAME":"學甲區","MARKTYPE":"994","Class":"4"},"geometry":{"x":120.18091082789689,"y":23.235163920731601}},{"attributes":{"OBJECTID":10454,"LANDMARKID":"1001100001274","LANDMARKCO":"409","LANDMARKNA":"台南市學甲區農會","LANDMARKAD":"1001113","ADDRESS":"台南市學甲區中正路267號","TEL":"06-7832105","COUNTYNAME":"台南市","TOWNNAME":"學甲區","MARKTYPE":"994","Class":"4"},"geometry":{"x":120.18013026358027,"y":23.234276059608288}},{"attributes":{"OBJECTID":10455,"LANDMARKID":"1001100001148","LANDMARKCO":"406","LANDMARKNA":"兒童公園","LANDMARKAD":"1001113","ADDRESS":"台南市學甲區","TEL":" ","COUNTYNAME":"台南市","TOWNNAME":"學甲區","MARKTYPE":"994","Class":"4"},"geometry":{"x":120.17765685044031,"y":23.228315223463756}},{"attributes":{"OBJECTID":10456,"LANDMARKID":"1001100001149","LANDMARKCO":"406","LANDMARKNA":"華宗公園","LANDMARKAD":"1001113","ADDRESS":"台南市學甲區","TEL":" ","COUNTYNAME":"台南市","TOWNNAME":"學甲區","MARKTYPE":"994","Class":"4"},"geometry":{"x":120.18149036202642,"y":23.229176466585578}},{"attributes":{"OBJECTID":10457,"LANDMARKID":"1001100000909","LANDMARKCO":"404","LANDMARKNA":"台灣省自來水學甲服務所","LANDMARKAD":"1001113","ADDRESS":"台南市學甲區華宗路258號","TEL":" ","COUNTYNAME":"台南市","TOWNNAME":"學甲區","MARKTYPE":"994","Class":"4"},"geometry":{"x":120.18337092426883,"y":23.227781070807929}},{"attributes":{"OBJECTID":10458,"LANDMARKID":"1001100000074","LANDMARKCO":"103","LANDMARKNA":"台南市學甲區衛生所","LANDMARKAD":"1001113","ADDRESS":"台南市學甲區建國路38號","TEL":"06-7833359","COUNTYNAME":"台南市","TOWNNAME":"學甲區","MARKTYPE":"991","Class":"1"},"geometry":{"x":120.18193558893294,"y":23.230388218066029}},{"attributes":{"OBJECTID":10459,"LANDMARKID":"1001100000313","LANDMARKCO":"108","LANDMARKNA":"台南市學甲區公所","LANDMARKAD":"1001113","ADDRESS":"台南市學甲區華宗路313號","TEL":"06-7832100","COUNTYNAME":"台南市","TOWNNAME":"學甲區","MARKTYPE":"991","Class":"1"},"geometry":{"x":120.18239368722357,"y":23.230483286677757}},{"attributes":{"OBJECTID":10460,"LANDMARKID":"1001100000119","LANDMARKCO":"106","LANDMARKNA":"台南市學甲區戶政事務所","LANDMARKAD":"1001113","ADDRESS":"台南市學甲區百福里1鄰華宗路313號","TEL":"06-7833844","COUNTYNAME":"台南市","TOWNNAME":"學甲區","MARKTYPE":"991","Class":"1"},"geometry":{"x":120.18240345750836,"y":23.230483388972196}},{"attributes":{"OBJECTID":10461,"LANDMARKID":"1001100000075","LANDMARKCO":"103","LANDMARKNA":"台南市學甲區鎮民代表會","LANDMARKAD":"1001113","ADDRESS":"台南市學甲區建國路36號","TEL":"06-7833270","COUNTYNAME":"台南市","TOWNNAME":"學甲區","MARKTYPE":"991","Class":"1"},"geometry":{"x":120.18243496742524,"y":23.230303114189937}},{"attributes":{"OBJECTID":10462,"LANDMARKID":"1001100000270","LANDMARKCO":"107","LANDMARKNA":"台南市警察局學甲派出所","LANDMARKAD":"1001113","ADDRESS":"台南市學甲區百福里華宗路294號","TEL":"06-7833208","COUNTYNAME":"台南市","TOWNNAME":"學甲區","MARKTYPE":"991","Class":"1"},"geometry":{"x":120.18288439428834,"y":23.230307788239326}},{"attributes":{"OBJECTID":10463,"LANDMARKID":"1001100000271","LANDMARKCO":"107","LANDMARKNA":"台南市警察局學甲分局","LANDMARKAD":"1001113","ADDRESS":"台南市學甲區百福里華宗路294號","TEL":"06-7832701","COUNTYNAME":"台南市","TOWNNAME":"學甲區","MARKTYPE":"991","Class":"1"},"geometry":{"x":120.18297232581162,"y":23.230308702263851}},{"attributes":{"OBJECTID":10464,"LANDMARKID":"1001100000272","LANDMARKCO":"107","LANDMARKNA":"台南市警察局中浯派出所","LANDMARKAD":"1001113","ADDRESS":"台南市學甲區光明里中洲287號","TEL":"06-7833907","COUNTYNAME":"台南市","TOWNNAME":"學甲區","MARKTYPE":"991","Class":"1"},"geometry":{"x":120.15637747897358,"y":23.244697924728168}},{"attributes":{"OBJECTID":10465,"LANDMARKID":"1001100000076","LANDMARKCO":"103","LANDMARKNA":"台南市學甲區垃圾衛生掩埋場","LANDMARKAD":"1001113","ADDRESS":"台南市學甲區一秀里154號之44","TEL":"06-7839940","COUNTYNAME":"台南市","TOWNNAME":"學甲區","MARKTYPE":"991","Class":"1"},"geometry":{"x":120.17245933361681,"y":23.241349040166874}},{"attributes":{"OBJECTID":10466,"LANDMARKID":"1001100000267","LANDMARKCO":"107","LANDMARKNA":"台南市警察局頂洲派出所","LANDMARKAD":"1001113","ADDRESS":"台南市學甲區頂洲里110之1號","TEL":"06-7810040","COUNTYNAME":"台南市","TOWNNAME":"學甲區","MARKTYPE":"991","Class":"1"},"geometry":{"x":120.20170340560099,"y":23.287379257514615}},{"attributes":{"OBJECTID":10467,"LANDMARKID":"1001100000268","LANDMARKCO":"107","LANDMARKNA":"台南市警察局宅港派出所","LANDMARKAD":"1001113","ADDRESS":"台南市學甲區宅港里4鄰52號","TEL":"06-7833904","COUNTYNAME":"台南市","TOWNNAME":"學甲區","MARKTYPE":"991","Class":"1"},"geometry":{"x":120.20319177442593,"y":23.258484791500251}},{"attributes":{"OBJECTID":10468,"LANDMARKID":"1001100000269","LANDMARKCO":"107","LANDMARKNA":"台南市消防局學甲消防分隊","LANDMARKAD":"1001113","ADDRESS":"台南市學甲區達明里山寮58之3號","TEL":"06-7832966","COUNTYNAME":"台南市","TOWNNAME":"學甲區","MARKTYPE":"991","Class":"1"},"geometry":{"x":120.20657641794209,"y":23.237194561120599}},{"attributes":{"OBJECTID":10469,"LANDMARKID":"1001100000664","LANDMARKCO":"205","LANDMARKNA":"台南市學甲慈濟宮文物館","LANDMARKAD":"1001113","ADDRESS":"台南市學甲區濟生路170號","TEL":" ","COUNTYNAME":"台南市","TOWNNAME":"學甲區","MARKTYPE":"992","Class":"2"},"geometry":{"x":120.17761685599125,"y":23.23600835472649}},{"attributes":{"OBJECTID":10470,"LANDMARKID":"1001100000636","LANDMARKCO":"204","LANDMARKNA":"台南市立圖書館學甲分館","LANDMARKAD":"1001113","ADDRESS":"台南市學甲區建國路38號","TEL":" ","COUNTYNAME":"台南市","TOWNNAME":"學甲區","MARKTYPE":"992","Class":"2"},"geometry":{"x":120.18193795611451,"y":23.230372075109305}},{"attributes":{"OBJECTID":10471,"LANDMARKID":"1001100000361","LANDMARKCO":"202","LANDMARKNA":"私立天仁工商","LANDMARKAD":"1001113","ADDRESS":"台南市學甲區天水路30號","TEL":"06-7833255","COUNTYNAME":"台南市","TOWNNAME":"學甲區","MARKTYPE":"992","Class":"2"},"geometry":{"x":120.17892023338169,"y":23.23822721407009}},{"attributes":{"OBJECTID":10472,"LANDMARKID":"1001100000541","LANDMARKCO":"203","LANDMARKNA":"縣立學甲國中","LANDMARKAD":"1001113","ADDRESS":"台南市學甲區華宗路540號","TEL":"06-7832128","COUNTYNAME":"台南市","TOWNNAME":"學甲區","MARKTYPE":"992","Class":"2"},"geometry":{"x":120.18450715930199,"y":23.237624322607441}},{"attributes":{"OBJECTID":10473,"LANDMARKID":"1001100000542","LANDMARKCO":"203","LANDMARKNA":"縣立東陽國小","LANDMARKAD":"1001113","ADDRESS":"台南市學甲區華宗路260號","TEL":"06-7833322","COUNTYNAME":"台南市","TOWNNAME":"學甲區","MARKTYPE":"992","Class":"2"},"geometry":{"x":120.1837314163873,"y":23.228947614716351}},{"attributes":{"OBJECTID":10474,"LANDMARKID":"1001100000543","LANDMARKCO":"203","LANDMARKNA":"縣立中洲國小","LANDMARKAD":"1001113","ADDRESS":"台南市學甲區光華里645號","TEL":"06-7833214","COUNTYNAME":"台南市","TOWNNAME":"學甲區","MARKTYPE":"992","Class":"2"},"geometry":{"x":120.15994993442631,"y":23.245804917032778}},{"attributes":{"OBJECTID":10475,"LANDMARKID":"1001100000544","LANDMARKCO":"203","LANDMARKNA":"縣立學甲國小","LANDMARKAD":"1001113","ADDRESS":"台南市學甲區一秀里30號","TEL":"06-7833229","COUNTYNAME":"台南市","TOWNNAME":"學甲區","MARKTYPE":"992","Class":"2"},"geometry":{"x":120.17498380527374,"y":23.237312133396877}},{"attributes":{"OBJECTID":10476,"LANDMARKID":"1001100000545","LANDMARKCO":"203","LANDMARKNA":"縣立頂洲國小","LANDMARKAD":"1001113","ADDRESS":"台南市學甲區頂洲里108號","TEL":"06-7810231","COUNTYNAME":"台南市","TOWNNAME":"學甲區","MARKTYPE":"992","Class":"2"},"geometry":{"x":120.20125486593545,"y":23.287284390968491}},{"attributes":{"OBJECTID":10477,"LANDMARKID":"1001100000546","LANDMARKCO":"203","LANDMARKNA":"縣立宅港國小","LANDMARKAD":"1001113","ADDRESS":"台南市學甲區宅港里13號","TEL":"06-7833227","COUNTYNAME":"台南市","TOWNNAME":"學甲區","MARKTYPE":"992","Class":"2"},"geometry":{"x":120.20370392406456,"y":23.257587060521995}},{"attributes":{"OBJECTID":10478,"LANDMARKID":"1001100000721","LANDMARKCO":"303","LANDMARKNA":"學甲區公所停車場","LANDMARKAD":"1001113","ADDRESS":"台南市學甲區華宗路313號","TEL":" ","COUNTYNAME":"台南市","TOWNNAME":"學甲區","MARKTYPE":"993","Class":"303"},"geometry":{"x":120.18248322416424,"y":23.230195901121473}},{"attributes":{"OBJECTID":10479,"LANDMARKID":"1001100000722","LANDMARKCO":"303","LANDMARKNA":"頑皮世界野生動物園停車場","LANDMARKAD":"1001113","ADDRESS":"台南市學甲區頂洲里75-25號","TEL":"06-7810000","COUNTYNAME":"台南市","TOWNNAME":"學甲區","MARKTYPE":"993","Class":"303"},"geometry":{"x":120.20916057271654,"y":23.283613585288155}},{"attributes":{"OBJECTID":10480,"LANDMARKID":"1001100000723","LANDMARKCO":"303","LANDMARKNA":"中正路停車場","LANDMARKAD":"1001113","ADDRESS":"台南市學甲區中正路","TEL":" ","COUNTYNAME":"台南市","TOWNNAME":"學甲區","MARKTYPE":"993","Class":"303"},"geometry":{"x":120.19132062736043,"y":23.24490085220647}},{"attributes":{"OBJECTID":10481,"LANDMARKID":"1001100000856","LANDMARKCO":"402","LANDMARKNA":"中華電信-學甲服務中心","LANDMARKAD":"1001113","ADDRESS":"台南市學甲區中正路320號","TEL":"(06)744-1442","COUNTYNAME":"台南市","TOWNNAME":"學甲區","MARKTYPE":"994","Class":"4"},"geometry":{"x":120.18086556638437,"y":23.235206684852681}},{"attributes":{"OBJECTID":10482,"LANDMARKID":"1001100001314","LANDMARKCO":"505","LANDMARKNA":"頑皮世界野生動物園","LANDMARKAD":"1001113","ADDRESS":"台南市學甲區三慶里頂洲75之25號","TEL":"06-7810000","COUNTYNAME":"台南市","TOWNNAME":"學甲區","MARKTYPE":"995","Class":"5"},"geometry":{"x":120.2094940908736,"y":23.281550414763593}},{"attributes":{"OBJECTID":10483,"LANDMARKID":"1001100001045","LANDMARKCO":"405","LANDMARKNA":"中油加油站-下營站(中油直營)","LANDMARKAD":"1001108","ADDRESS":"台南市下營區中山路一段386號","TEL":"06-6892054","COUNTYNAME":"台南市","TOWNNAME":"下營區","MARKTYPE":"994","Class":"4"},"geometry":{"x":120.26967786453758,"y":23.238531046293428}},{"attributes":{"OBJECTID":10484,"LANDMARKID":"1001100001046","LANDMARKCO":"405","LANDMARKNA":"中油加油站-營農站","LANDMARKAD":"1001108","ADDRESS":"台南市下營區公園路412號","TEL":"06-6790412","COUNTYNAME":"台南市","TOWNNAME":"下營區","MARKTYPE":"994","Class":"4"},"geometry":{"x":120.25127472803831,"y":23.233382112791812}},{"attributes":{"OBJECTID":10485,"LANDMARKID":"1001100001047","LANDMARKCO":"405","LANDMARKNA":"中油加油站-永信站","LANDMARKAD":"1001108","ADDRESS":"台南市下營區中營村中營1283號","TEL":"06-6893820","COUNTYNAME":"台南市","TOWNNAME":"下營區","MARKTYPE":"994","Class":"4"},"geometry":{"x":120.26999937555902,"y":23.217149628917142}},{"attributes":{"OBJECTID":10486,"LANDMARKID":"1001100001217","LANDMARKCO":"408","LANDMARKNA":"郵局-下營郵局","LANDMARKAD":"1001108","ADDRESS":"台南市下營區慈惠街129號","TEL":"(06)6899-482","COUNTYNAME":"台南市","TOWNNAME":"下營區","MARKTYPE":"994","Class":"4"},"geometry":{"x":120.26549549042542,"y":23.235984585974727}},{"attributes":{"OBJECTID":10487,"LANDMARKID":"1001100001218","LANDMARKCO":"408","LANDMARKNA":"郵局-下營中營郵局","LANDMARKAD":"1001108","ADDRESS":"台南市下營區中營村893號","TEL":"(06)6792-647","COUNTYNAME":"台南市","TOWNNAME":"下營區","MARKTYPE":"994","Class":"4"},"geometry":{"x":120.276330975427,"y":23.21500719846172}},{"attributes":{"OBJECTID":10488,"LANDMARKID":"1001100001277","LANDMARKCO":"409","LANDMARKNA":"台南市下營區農會","LANDMARKAD":"1001108","ADDRESS":"台南市下營區下營村中山路一段133號","TEL":"06-6892116","COUNTYNAME":"台南市","TOWNNAME":"下營區","MARKTYPE":"994","Class":"4"},"geometry":{"x":120.26338257836476,"y":23.235572530009939}},{"attributes":{"OBJECTID":10489,"LANDMARKID":"1001100001151","LANDMARKCO":"406","LANDMARKNA":"大埤公園","LANDMARKAD":"1001108","ADDRESS":"台南市下營區","TEL":" ","COUNTYNAME":"台南市","TOWNNAME":"下營區","MARKTYPE":"994","Class":"4"},"geometry":{"x":120.24740269314738,"y":23.227575343709269}},{"attributes":{"OBJECTID":10490,"LANDMARKID":"1001100001152","LANDMARKCO":"406","LANDMARKNA":"武承恩公園","LANDMARKAD":"1001108","ADDRESS":"台南市下營區","TEL":" ","COUNTYNAME":"台南市","TOWNNAME":"下營區","MARKTYPE":"994","Class":"4"},"geometry":{"x":120.26118309241807,"y":23.232653800136802}},{"attributes":{"OBJECTID":10491,"LANDMARKID":"1001100001153","LANDMARKCO":"406","LANDMARKNA":"紅毛厝公園","LANDMARKAD":"1001108","ADDRESS":"台南市下營區","TEL":" ","COUNTYNAME":"台南市","TOWNNAME":"下營區","MARKTYPE":"994","Class":"4"},"geometry":{"x":120.26743364913116,"y":23.243110913064282}},{"attributes":{"OBJECTID":10492,"LANDMARKID":"1001100000069","LANDMARKCO":"103","LANDMARKNA":"台南市下營區衛生所","LANDMARKAD":"1001108","ADDRESS":"台南市下營區中山路二段137號","TEL":"06-6892149","COUNTYNAME":"台南市","TOWNNAME":"下營區","MARKTYPE":"991","Class":"1"},"geometry":{"x":120.26395114680408,"y":23.227536000211874}},{"attributes":{"OBJECTID":10493,"LANDMARKID":"1001100000315","LANDMARKCO":"108","LANDMARKNA":"台南市下營區公所","LANDMARKAD":"1001108","ADDRESS":"台南市下營區中山路一段170號","TEL":"06-6892104","COUNTYNAME":"台南市","TOWNNAME":"下營區","MARKTYPE":"991","Class":"1"},"geometry":{"x":120.2643396072572,"y":23.235485988461576}},{"attributes":{"OBJECTID":10494,"LANDMARKID":"1001100000118","LANDMARKCO":"106","LANDMARKNA":"台南市下營區戶政事務所","LANDMARKAD":"1001108","ADDRESS":"台南市下營區人和一街15號","TEL":"06-6892480","COUNTYNAME":"台南市","TOWNNAME":"下營區","MARKTYPE":"991","Class":"1"},"geometry":{"x":120.26592976871652,"y":23.236223204478943}},{"attributes":{"OBJECTID":10495,"LANDMARKID":"1001100000252","LANDMARKCO":"107","LANDMARKNA":"台南市消防局下營消防分隊","LANDMARKAD":"1001108","ADDRESS":"台南市下營區新興村中山路一段228號","TEL":"06-6892482","COUNTYNAME":"台南市","TOWNNAME":"下營區","MARKTYPE":"991","Class":"1"},"geometry":{"x":120.2670495274886,"y":23.236581878964433}},{"attributes":{"OBJECTID":10496,"LANDMARKID":"1001100000253","LANDMARKCO":"107","LANDMARKNA":"台南市警察局下營分駐所","LANDMARKAD":"1001108","ADDRESS":"台南市下營區新興村中山路一段226號","TEL":"06-6892032","COUNTYNAME":"台南市","TOWNNAME":"下營區","MARKTYPE":"991","Class":"1"},"geometry":{"x":120.26742861557462,"y":23.236766017420759}},{"attributes":{"OBJECTID":10497,"LANDMARKID":"1001100000254","LANDMARKCO":"107","LANDMARKNA":"台南市警察局賀建派出所","LANDMARKAD":"1001108","ADDRESS":"台南市下營區賀建村麻豆寮2號","TEL":"06-6892483","COUNTYNAME":"台南市","TOWNNAME":"下營區","MARKTYPE":"991","Class":"1"},"geometry":{"x":120.29454997121506,"y":23.252960387757977}},{"attributes":{"OBJECTID":10498,"LANDMARKID":"1001100000255","LANDMARKCO":"107","LANDMARKNA":"台南市警察局茅港派出所","LANDMARKAD":"1001108","ADDRESS":"台南市下營區茅港村茅港尾298號","TEL":"06-6892454","COUNTYNAME":"台南市","TOWNNAME":"下營區","MARKTYPE":"991","Class":"1"},"geometry":{"x":120.28190059905056,"y":23.216969434723953}},{"attributes":{"OBJECTID":10499,"LANDMARKID":"1001100000256","LANDMARKCO":"107","LANDMARKNA":"台南市消防局下營消防分隊","LANDMARKAD":"1001108","ADDRESS":"台南市下營區賀建村洲子66號","TEL":"06-6892482?","COUNTYNAME":"台南市","TOWNNAME":"下營區","MARKTYPE":"991","Class":"1"},"geometry":{"x":120.28352237245213,"y":23.245506309549476}},{"attributes":{"OBJECTID":10500,"LANDMARKID":"1001100000637","LANDMARKCO":"204","LANDMARKNA":"台南市立圖書館下營分館","LANDMARKAD":"1001108","ADDRESS":"台南市下營區文化街117號","TEL":" ","COUNTYNAME":"台南市","TOWNNAME":"下營區","MARKTYPE":"992","Class":"2"},"geometry":{"x":120.26308529850374,"y":23.234847433639896}},{"attributes":{"OBJECTID":10501,"LANDMARKID":"1001100000547","LANDMARKCO":"203","LANDMARKNA":"縣立下營國中","LANDMARKAD":"1001108","ADDRESS":"台南市下營區中山路一段412號","TEL":"06-6895909","COUNTYNAME":"台南市","TOWNNAME":"下營區","MARKTYPE":"992","Class":"2"},"geometry":{"x":120.27174830649473,"y":23.238508971328837}},{"attributes":{"OBJECTID":10502,"LANDMARKID":"1001100000548","LANDMARKCO":"203","LANDMARKNA":"縣立下營國小","LANDMARKAD":"1001108","ADDRESS":"臺南縣下營區仁里村13鄰中山路二段72號","TEL":"06-6892181","COUNTYNAME":"台南市","TOWNNAME":"下營區","MARKTYPE":"992","Class":"2"},"geometry":{"x":120.26121897343512,"y":23.2308644239411}},{"attributes":{"OBJECTID":10503,"LANDMARKID":"1001100000549","LANDMARKCO":"203","LANDMARKNA":"縣立東興國小","LANDMARKAD":"1001108","ADDRESS":"台南市下營區新興村東興一街112號","TEL":"06-6892478","COUNTYNAME":"台南市","TOWNNAME":"下營區","MARKTYPE":"992","Class":"2"},"geometry":{"x":120.26733702106708,"y":23.239383845896974}},{"attributes":{"OBJECTID":10504,"LANDMARKID":"1001100000550","LANDMARKCO":"203","LANDMARKNA":"縣立大屯國小","LANDMARKAD":"1001108","ADDRESS":"台南市下營區大屯村4之1號","TEL":"06-6892001","COUNTYNAME":"台南市","TOWNNAME":"下營區","MARKTYPE":"992","Class":"2"},"geometry":{"x":120.24027913357412,"y":23.23402160452309}},{"attributes":{"OBJECTID":10505,"LANDMARKID":"1001100000551","LANDMARKCO":"203","LANDMARKNA":"縣立甲中國小","LANDMARKAD":"1001108","ADDRESS":"台南市下營區甲中村71號","TEL":"06-6897481","COUNTYNAME":"台南市","TOWNNAME":"下營區","MARKTYPE":"992","Class":"2"},"geometry":{"x":120.2724888109508,"y":23.250151525557587}},{"attributes":{"OBJECTID":10506,"LANDMARKID":"1001100000552","LANDMARKCO":"203","LANDMARKNA":"縣立中營國小","LANDMARKAD":"1001108","ADDRESS":"台南市下營區開化村270號","TEL":"06-6892600","COUNTYNAME":"台南市","TOWNNAME":"下營區","MARKTYPE":"992","Class":"2"},"geometry":{"x":120.27626469797876,"y":23.213150718987283}},{"attributes":{"OBJECTID":10507,"LANDMARKID":"1001100000553","LANDMARKCO":"203","LANDMARKNA":"縣立賀建國小","LANDMARKAD":"1001108","ADDRESS":"台南市下營區賀建村麻豆寮49號","TEL":"06-6891109","COUNTYNAME":"台南市","TOWNNAME":"下營區","MARKTYPE":"992","Class":"2"},"geometry":{"x":120.29648637811376,"y":23.254693496100341}},{"attributes":{"OBJECTID":10508,"LANDMARKID":"1001100000718","LANDMARKCO":"303","LANDMARKNA":"停車場二","LANDMARKAD":"1001108","ADDRESS":"台南市下營區","TEL":" ","COUNTYNAME":"台南市","TOWNNAME":"下營區","MARKTYPE":"993","Class":"303"},"geometry":{"x":120.25226685586394,"y":23.230210438077187}},{"attributes":{"OBJECTID":10509,"LANDMARKID":"1001100000719","LANDMARKCO":"303","LANDMARKNA":"停車場一","LANDMARKAD":"1001108","ADDRESS":"台南市下營區中山路二段","TEL":" ","COUNTYNAME":"台南市","TOWNNAME":"下營區","MARKTYPE":"993","Class":"303"},"geometry":{"x":120.26898422033659,"y":23.237819117492034}},{"attributes":{"OBJECTID":10510,"LANDMARKID":"1001100000720","LANDMARKCO":"303","LANDMARKNA":"下營上帝瑁停車場","LANDMARKAD":"1001108","ADDRESS":"台南市下營區中山路二段","TEL":" ","COUNTYNAME":"台南市","TOWNNAME":"下營區","MARKTYPE":"993","Class":"303"},"geometry":{"x":120.27007248128912,"y":23.239138551517858}},{"attributes":{"OBJECTID":10511,"LANDMARKID":"1001100000857","LANDMARKCO":"402","LANDMARKNA":"中華電信-下營服務中心","LANDMARKAD":"1001108","ADDRESS":"台南市下營區中山路一段257號","TEL":"(06)689-2000","COUNTYNAME":"台南市","TOWNNAME":"下營區","MARKTYPE":"994","Class":"4"},"geometry":{"x":120.26634435033598,"y":23.236961551276554}},{"attributes":{"OBJECTID":10512,"LANDMARKID":"1001100001427","LANDMARKCO":"605","LANDMARKNA":"下營上帝廟","LANDMARKAD":"1001108","ADDRESS":"台南市下營區","TEL":" ","COUNTYNAME":"台南市","TOWNNAME":"下營區","MARKTYPE":"996","Class":"6"},"geometry":{"x":120.26082305351426,"y":23.234979219661586}},{"attributes":{"OBJECTID":10513,"LANDMARKID":"1001100001428","LANDMARKCO":"605","LANDMARKNA":"老人活動中心","LANDMARKAD":"1001108","ADDRESS":"台南市下營區","TEL":" ","COUNTYNAME":"台南市","TOWNNAME":"下營區","MARKTYPE":"996","Class":"6"},"geometry":{"x":120.26252319584991,"y":23.229433841619755}},{"attributes":{"OBJECTID":10514,"LANDMARKID":"1001100001429","LANDMARKCO":"605","LANDMARKNA":"代進宮","LANDMARKAD":"1001108","ADDRESS":"台南市下營區","TEL":" ","COUNTYNAME":"台南市","TOWNNAME":"下營區","MARKTYPE":"996","Class":"6"},"geometry":{"x":120.26533299133089,"y":23.210533029371344}},{"attributes":{"OBJECTID":10515,"LANDMARKID":"1001100001430","LANDMARKCO":"605","LANDMARKNA":"活動中心","LANDMARKAD":"1001108","ADDRESS":"台南市下營區","TEL":" ","COUNTYNAME":"台南市","TOWNNAME":"下營區","MARKTYPE":"996","Class":"6"},"geometry":{"x":120.26329161687248,"y":23.208515643998528}},{"attributes":{"OBJECTID":10516,"LANDMARKID":"1001100001431","LANDMARKCO":"605","LANDMARKNA":"代天府","LANDMARKAD":"1001108","ADDRESS":"台南市下營區","TEL":" ","COUNTYNAME":"台南市","TOWNNAME":"下營區","MARKTYPE":"996","Class":"6"},"geometry":{"x":120.26305484043539,"y":23.208201472624697}},{"attributes":{"OBJECTID":10517,"LANDMARKID":"1001100001053","LANDMARKCO":"405","LANDMARKNA":"山隆加油站-六甲站(中油)","LANDMARKAD":"1001109","ADDRESS":"台南市六甲區龜港村2鄰龜仔港21號","TEL":"(06)698-8940","COUNTYNAME":"台南市","TOWNNAME":"六甲區","MARKTYPE":"994","Class":"4"},"geometry":{"x":120.30744231141628,"y":23.260790706664384}},{"attributes":{"OBJECTID":10518,"LANDMARKID":"1001100001054","LANDMARKCO":"405","LANDMARKNA":"中油加油站-六甲站(中油直營)","LANDMARKAD":"1001109","ADDRESS":"台南市六甲區水林村中山路446號","TEL":"06-6982404","COUNTYNAME":"台南市","TOWNNAME":"六甲區","MARKTYPE":"994","Class":"4"},"geometry":{"x":120.34143453066579,"y":23.233190568716296}},{"attributes":{"OBJECTID":10519,"LANDMARKID":"1001100001219","LANDMARKCO":"408","LANDMARKNA":"郵局-六甲郵局","LANDMARKAD":"1001109","ADDRESS":"台南市六甲區民生街2號","TEL":"(06)6994-661","COUNTYNAME":"台南市","TOWNNAME":"六甲區","MARKTYPE":"994","Class":"4"},"geometry":{"x":120.35162226619261,"y":23.227015768004144}},{"attributes":{"OBJECTID":10520,"LANDMARKID":"1001100001276","LANDMARKCO":"409","LANDMARKNA":"台南市六甲區農會","LANDMARKAD":"1001109","ADDRESS":"台南市六甲區建國街13號","TEL":"06-6983621-7","COUNTYNAME":"台南市","TOWNNAME":"六甲區","MARKTYPE":"994","Class":"4"},"geometry":{"x":120.35219126955309,"y":23.231991621309398}},{"attributes":{"OBJECTID":10521,"LANDMARKID":"1001100001150","LANDMARKCO":"406","LANDMARKNA":"七甲公園","LANDMARKAD":"1001109","ADDRESS":"台南市六甲區","TEL":" ","COUNTYNAME":"台南市","TOWNNAME":"六甲區","MARKTYPE":"994","Class":"4"},"geometry":{"x":120.34501797798396,"y":23.222208222394539}},{"attributes":{"OBJECTID":10522,"LANDMARKID":"1001100001035","LANDMARKCO":"405","LANDMARKNA":"台塑加油站-嘉南站(台塑)","LANDMARKAD":"1001109","ADDRESS":"台南市六甲區龜港村龜子港248號","TEL":"06-6985773","COUNTYNAME":"台南市","TOWNNAME":"六甲區","MARKTYPE":"994","Class":"4"},"geometry":{"x":120.31265400236995,"y":23.25642145234362}},{"attributes":{"OBJECTID":10523,"LANDMARKID":"1001100000070","LANDMARKCO":"103","LANDMARKNA":"台南市六甲區衛生所","LANDMARKAD":"1001109","ADDRESS":"台南市六甲區中華路110號","TEL":"06-6982013","COUNTYNAME":"台南市","TOWNNAME":"六甲區","MARKTYPE":"991","Class":"1"},"geometry":{"x":120.34646369888985,"y":23.224567683587399}},{"attributes":{"OBJECTID":10524,"LANDMARKID":"1001100000117","LANDMARKCO":"106","LANDMARKNA":"台南市六甲區戶政事務所","LANDMARKAD":"1001109","ADDRESS":"台南市六甲區水林村4鄰中山路212號","TEL":"06-6982408","COUNTYNAME":"台南市","TOWNNAME":"六甲區","MARKTYPE":"991","Class":"1"},"geometry":{"x":120.34667556163771,"y":23.23206438789828}},{"attributes":{"OBJECTID":10525,"LANDMARKID":"1001100000257","LANDMARKCO":"107","LANDMARKNA":"台南市警察局六甲分駐所","LANDMARKAD":"1001109","ADDRESS":"台南市六甲區水林村中山路210號","TEL":"06-6982139","COUNTYNAME":"台南市","TOWNNAME":"六甲區","MARKTYPE":"991","Class":"1"},"geometry":{"x":120.34738174941796,"y":23.231787786222657}},{"attributes":{"OBJECTID":10526,"LANDMARKID":"1001100000314","LANDMARKCO":"108","LANDMARKNA":"台南市六甲區公所","LANDMARKAD":"1001109","ADDRESS":"台南市六甲區中山路202號","TEL":"06-6982001","COUNTYNAME":"台南市","TOWNNAME":"六甲區","MARKTYPE":"991","Class":"1"},"geometry":{"x":120.34749899874784,"y":23.231788759755496}},{"attributes":{"OBJECTID":10527,"LANDMARKID":"1001100000284","LANDMARKCO":"107","LANDMARKNA":"台南市消防局六甲消防分隊","LANDMARKAD":"1001109","ADDRESS":"台南市六甲區中山路208號","TEL":"06-6982529","COUNTYNAME":"台南市","TOWNNAME":"六甲區","MARKTYPE":"991","Class":"1"},"geometry":{"x":120.34750876862945,"y":23.231788840950831}},{"attributes":{"OBJECTID":10528,"LANDMARKID":"1001100000068","LANDMARKCO":"103","LANDMARKNA":"台南市六甲區鄉民代表會","LANDMARKAD":"1001109","ADDRESS":"台南市六甲區中山路202號","TEL":"06-6982140","COUNTYNAME":"台南市","TOWNNAME":"六甲區","MARKTYPE":"991","Class":"1"},"geometry":{"x":120.3493704644098,"y":23.231262461839083}},{"attributes":{"OBJECTID":10529,"LANDMARKID":"1001100000010","LANDMARKCO":"101","LANDMARKNA":"國防部台南監獄","LANDMARKAD":"1001109","ADDRESS":"台南市六甲區曾文街161號","TEL":"06-6981103","COUNTYNAME":"台南市","TOWNNAME":"六甲區","MARKTYPE":"991","Class":"1"},"geometry":{"x":120.38653834902361,"y":23.235016748111949}},{"attributes":{"OBJECTID":10530,"LANDMARKID":"1001100000258","LANDMARKCO":"107","LANDMARKNA":"台南市警察局鳳林派出所","LANDMARKAD":"1001109","ADDRESS":"台南市六甲區中社村林鳳營154號","TEL":"06-6982390","COUNTYNAME":"台南市","TOWNNAME":"六甲區","MARKTYPE":"991","Class":"1"},"geometry":{"x":120.32065735015149,"y":23.242153947727616}},{"attributes":{"OBJECTID":10531,"LANDMARKID":"1001100000259","LANDMARKCO":"107","LANDMARKNA":"台南市警察局王爺派出所","LANDMARKAD":"1001109","ADDRESS":"台南市六甲區王爺村王爺宮15號","TEL":"06-6981834","COUNTYNAME":"台南市","TOWNNAME":"六甲區","MARKTYPE":"991","Class":"1"},"geometry":{"x":120.39990014707274,"y":23.221080206878394}},{"attributes":{"OBJECTID":10532,"LANDMARKID":"1001100000260","LANDMARKCO":"107","LANDMARKNA":"台南市警察局大丘派出所","LANDMARKAD":"1001109","ADDRESS":"台南市六甲區大丘村大丘園5號","TEL":"06-6981835","COUNTYNAME":"台南市","TOWNNAME":"六甲區","MARKTYPE":"991","Class":"1"},"geometry":{"x":120.43679472101364,"y":23.21985435290058}},{"attributes":{"OBJECTID":10533,"LANDMARKID":"1001100000635","LANDMARKCO":"204","LANDMARKNA":"台南市立圖書館六甲分館","LANDMARKAD":"1001109","ADDRESS":"台南市六甲區中山路202號4樓","TEL":" ","COUNTYNAME":"台南市","TOWNNAME":"六甲區","MARKTYPE":"992","Class":"2"},"geometry":{"x":120.3474870355454,"y":23.231856953905965}},{"attributes":{"OBJECTID":10534,"LANDMARKID":"1001100000554","LANDMARKCO":"203","LANDMARKNA":"縣立六甲國中","LANDMARKAD":"1001109","ADDRESS":"台南市六甲區民權街43號","TEL":"06-6982400","COUNTYNAME":"台南市","TOWNNAME":"六甲區","MARKTYPE":"992","Class":"2"},"geometry":{"x":120.34866341586397,"y":23.226831892228354}},{"attributes":{"OBJECTID":10535,"LANDMARKID":"1001100000555","LANDMARKCO":"203","LANDMARKNA":"縣立六甲國小","LANDMARKAD":"1001109","ADDRESS":"台南市六甲區中正路319號","TEL":"06-6982041","COUNTYNAME":"台南市","TOWNNAME":"六甲區","MARKTYPE":"992","Class":"2"},"geometry":{"x":120.35000012023387,"y":23.226018724262318}},{"attributes":{"OBJECTID":10536,"LANDMARKID":"1001100000556","LANDMARKCO":"203","LANDMARKNA":"縣立嘉南國小","LANDMARKAD":"1001109","ADDRESS":"台南市官田區龍湖村珊瑚路301號","TEL":"06-6982491","COUNTYNAME":"台南市","TOWNNAME":"六甲區","MARKTYPE":"992","Class":"2"},"geometry":{"x":120.36490538941995,"y":23.217234251192174}},{"attributes":{"OBJECTID":10537,"LANDMARKID":"1001100000557","LANDMARKCO":"203","LANDMARKNA":"縣立林鳳國小","LANDMARKAD":"1001109","ADDRESS":"台南市六甲區中社村林鳳營240號","TEL":"06-6983583","COUNTYNAME":"台南市","TOWNNAME":"六甲區","MARKTYPE":"992","Class":"2"},"geometry":{"x":120.31757102681522,"y":23.240604178512573}},{"attributes":{"OBJECTID":10538,"LANDMARKID":"1001100000558","LANDMARKCO":"203","LANDMARKNA":"縣立湖東國小","LANDMARKAD":"1001109","ADDRESS":"台南市六甲區王爺村24號","TEL":"06-6981054","COUNTYNAME":"台南市","TOWNNAME":"六甲區","MARKTYPE":"992","Class":"2"},"geometry":{"x":120.40049627014457,"y":23.222157764855481}},{"attributes":{"OBJECTID":10539,"LANDMARKID":"1001100000559","LANDMARKCO":"203","LANDMARKNA":"縣立六甲國小大丘分校","LANDMARKAD":"1001109","ADDRESS":"台南市六甲區","TEL":" ","COUNTYNAME":"台南市","TOWNNAME":"六甲區","MARKTYPE":"992","Class":"2"},"geometry":{"x":120.4373663300681,"y":23.21904575884658}},{"attributes":{"OBJECTID":10540,"LANDMARKID":"1001100000674","LANDMARKCO":"301","LANDMARKNA":"林鳳營火車站","LANDMARKAD":"1001109","ADDRESS":"台南市六甲區","TEL":" ","COUNTYNAME":"台南市","TOWNNAME":"六甲區","MARKTYPE":"993","Class":"301"},"geometry":{"x":120.32092673812424,"y":23.242616882217146}},{"attributes":{"OBJECTID":10541,"LANDMARKID":"1001100000858","LANDMARKCO":"402","LANDMARKNA":"中華電信-六甲服務中心","LANDMARKAD":"1001109","ADDRESS":"台南市六甲區建國街67號","TEL":"(06)698-2500","COUNTYNAME":"台南市","TOWNNAME":"六甲區","MARKTYPE":"994","Class":"4"},"geometry":{"x":120.35215515690973,"y":23.231558966355554}},{"attributes":{"OBJECTID":10542,"LANDMARKID":"1001100001048","LANDMARKCO":"405","LANDMARKNA":"中油加油站-將軍港站","LANDMARKAD":"1001116","ADDRESS":"台南市將軍區平沙村168號","TEL":"06-7930707","COUNTYNAME":"台南市","TOWNNAME":"將軍區","MARKTYPE":"994","Class":"4"},"geometry":{"x":120.0846615392868,"y":23.210422970525116}},{"attributes":{"OBJECTID":10543,"LANDMARKID":"1001100001049","LANDMARKCO":"405","LANDMARKNA":"中油加油站-將軍農會站","LANDMARKAD":"1001116","ADDRESS":"台南市將軍區長榮村180之30號","TEL":"06-7944628","COUNTYNAME":"台南市","TOWNNAME":"將軍區","MARKTYPE":"994","Class":"4"},"geometry":{"x":120.16369922434363,"y":23.188326824603273}},{"attributes":{"OBJECTID":10544,"LANDMARKID":"1001100001050","LANDMARKCO":"405","LANDMARKNA":"中油加油站-將軍交流道站","LANDMARKAD":"1001116","ADDRESS":"台南市將軍區長沙村長沙139號","TEL":"06-7931730","COUNTYNAME":"台南市","TOWNNAME":"將軍區","MARKTYPE":"994","Class":"4"},"geometry":{"x":120.16368197100635,"y":23.188206716242792}},{"attributes":{"OBJECTID":10545,"LANDMARKID":"1001100001051","LANDMARKCO":"405","LANDMARKNA":"中油加油站-馬沙溝站","LANDMARKAD":"1001116","ADDRESS":"台南市將軍區平沙村平沙170號","TEL":"06-7931747","COUNTYNAME":"台南市","TOWNNAME":"將軍區","MARKTYPE":"994","Class":"4"},"geometry":{"x":120.08434205034867,"y":23.210673911547961}},{"attributes":{"OBJECTID":10546,"LANDMARKID":"1001100001052","LANDMARKCO":"405","LANDMARKNA":"中油加油站-將軍站(中油直營)","LANDMARKAD":"1001116","ADDRESS":"台南市將軍區忠興村忠興162-1號","TEL":"06-7942205","COUNTYNAME":"台南市","TOWNNAME":"將軍區","MARKTYPE":"994","Class":"4"},"geometry":{"x":120.1589292255526,"y":23.203946298336064}},{"attributes":{"OBJECTID":10547,"LANDMARKID":"1001100001220","LANDMARKCO":"408","LANDMARKNA":"郵局-將軍郵局","LANDMARKAD":"1001116","ADDRESS":"台南市將軍區西華村1-1號","TEL":"(06)7942-049","COUNTYNAME":"台南市","TOWNNAME":"將軍區","MARKTYPE":"994","Class":"4"},"geometry":{"x":120.1570103233914,"y":23.199243869446281}},{"attributes":{"OBJECTID":10548,"LANDMARKID":"1001100001275","LANDMARKCO":"409","LANDMARKNA":"台南市將軍區農會","LANDMARKAD":"1001116","ADDRESS":"台南市將軍區忠興村189號","TEL":"06-7942201","COUNTYNAME":"台南市","TOWNNAME":"將軍區","MARKTYPE":"994","Class":"4"},"geometry":{"x":120.15846425062436,"y":23.20002645392638}},{"attributes":{"OBJECTID":10549,"LANDMARKID":"1001100000261","LANDMARKCO":"107","LANDMARKNA":"台南市警察局鯤鯓派出所","LANDMARKAD":"1001116","ADDRESS":"台南市將軍區鯤鯓村鯤鯓95號","TEL":"06-7920204","COUNTYNAME":"台南市","TOWNNAME":"將軍區","MARKTYPE":"991","Class":"1"},"geometry":{"x":120.08827703201123,"y":23.189605675154144}},{"attributes":{"OBJECTID":10550,"LANDMARKID":"1001100000262","LANDMARKCO":"107","LANDMARKNA":"台南市警察局將富派出所","LANDMARKAD":"1001116","ADDRESS":"台南市將軍區將富村將富50號","TEL":"06-7942664","COUNTYNAME":"台南市","TOWNNAME":"將軍區","MARKTYPE":"991","Class":"1"},"geometry":{"x":120.13609061478243,"y":23.215793550236231}},{"attributes":{"OBJECTID":10551,"LANDMARKID":"1001100000263","LANDMARKCO":"107","LANDMARKNA":"台南市消防局將軍消防分隊","LANDMARKAD":"1001116","ADDRESS":"台南市將軍區西華村1之15號","TEL":"06-7942404","COUNTYNAME":"台南市","TOWNNAME":"將軍區","MARKTYPE":"991","Class":"1"},"geometry":{"x":120.15670324164407,"y":23.199823366492062}},{"attributes":{"OBJECTID":10552,"LANDMARKID":"1001100000264","LANDMARKCO":"107","LANDMARKNA":"台南市警察局將軍分駐所","LANDMARKAD":"1001116","ADDRESS":"台南市將軍區忠興村6號","TEL":"06-7942182","COUNTYNAME":"台南市","TOWNNAME":"將軍區","MARKTYPE":"991","Class":"1"},"geometry":{"x":120.15795506873386,"y":23.198933762980548}},{"attributes":{"OBJECTID":10553,"LANDMARKID":"1001100000067","LANDMARKCO":"103","LANDMARKNA":"台南市將軍區鄉民代表會","LANDMARKAD":"1001116","ADDRESS":"台南市將軍區忠興村190號之2","TEL":"06-7942029","COUNTYNAME":"台南市","TOWNNAME":"將軍區","MARKTYPE":"991","Class":"1"},"geometry":{"x":120.15823494063184,"y":23.199207662626399}},{"attributes":{"OBJECTID":10554,"LANDMARKID":"1001100000310","LANDMARKCO":"108","LANDMARKNA":"台南市將軍區公所","LANDMARKAD":"1001116","ADDRESS":"台南市將軍區忠興村190號","TEL":"06-7942104","COUNTYNAME":"台南市","TOWNNAME":"將軍區","MARKTYPE":"991","Class":"1"},"geometry":{"x":120.15845218511522,"y":23.199014499152891}},{"attributes":{"OBJECTID":10555,"LANDMARKID":"1001100000114","LANDMARKCO":"106","LANDMARKNA":"台南市將軍區戶政事務所","LANDMARKAD":"1001116","ADDRESS":"台南市將軍區忠興村20鄰忠興212之1號","TEL":"06-7942154","COUNTYNAME":"台南市","TOWNNAME":"將軍區","MARKTYPE":"991","Class":"1"},"geometry":{"x":120.15912841696074,"y":23.198841127226629}},{"attributes":{"OBJECTID":10556,"LANDMARKID":"1001100000283","LANDMARKCO":"107","LANDMARKNA":"台南市警察局苓和派出所","LANDMARKAD":"1001116","ADDRESS":"台南市將軍區苓和村苓和100號","TEL":"06-7942855","COUNTYNAME":"台南市","TOWNNAME":"將軍區","MARKTYPE":"991","Class":"1"},"geometry":{"x":120.16457648515274,"y":23.219006101511308}},{"attributes":{"OBJECTID":10557,"LANDMARKID":"1001100000631","LANDMARKCO":"204","LANDMARKNA":"台南市立圖書館將軍分館","LANDMARKAD":"1001116","ADDRESS":"台南市將軍區忠興村190號","TEL":" ","COUNTYNAME":"台南市","TOWNNAME":"將軍區","MARKTYPE":"992","Class":"2"},"geometry":{"x":120.15847556829874,"y":23.19913433000718}},{"attributes":{"OBJECTID":10558,"LANDMARKID":"1001100000577","LANDMARKCO":"203","LANDMARKNA":"縣立將軍國中","LANDMARKAD":"1001116","ADDRESS":"台南市將軍區嘉昌村1之1號","TEL":"06-7942042","COUNTYNAME":"台南市","TOWNNAME":"將軍區","MARKTYPE":"992","Class":"2"},"geometry":{"x":120.14999639282595,"y":23.206734010476698}},{"attributes":{"OBJECTID":10559,"LANDMARKID":"1001100000578","LANDMARKCO":"203","LANDMARKNA":"縣立鯤鯓國小","LANDMARKAD":"1001116","ADDRESS":"台南市將軍區鯤溟村6號","TEL":"06-7920185","COUNTYNAME":"台南市","TOWNNAME":"將軍區","MARKTYPE":"992","Class":"2"},"geometry":{"x":120.08873192952123,"y":23.188527442337751}},{"attributes":{"OBJECTID":10560,"LANDMARKID":"1001100000579","LANDMARKCO":"203","LANDMARKNA":"縣立長平國小","LANDMARKAD":"1001116","ADDRESS":"台南市將軍區長沙村132之2號","TEL":"06-7931146","COUNTYNAME":"台南市","TOWNNAME":"將軍區","MARKTYPE":"992","Class":"2"},"geometry":{"x":120.10663028016747,"y":23.218960892929566}},{"attributes":{"OBJECTID":10561,"LANDMARKID":"1001100000580","LANDMARKCO":"203","LANDMARKNA":"縣立廣山國小","LANDMARKAD":"1001116","ADDRESS":"台南市將軍區","TEL":" ","COUNTYNAME":"台南市","TOWNNAME":"將軍區","MARKTYPE":"992","Class":"2"},"geometry":{"x":120.1179741679522,"y":23.220290277491092}},{"attributes":{"OBJECTID":10562,"LANDMARKID":"1001100000581","LANDMARKCO":"203","LANDMARKNA":"縣立將軍國小","LANDMARKAD":"1001116","ADDRESS":"台南市將軍區將貴村58號","TEL":"06-7942034","COUNTYNAME":"台南市","TOWNNAME":"將軍區","MARKTYPE":"992","Class":"2"},"geometry":{"x":120.13602011634359,"y":23.214438260020515}},{"attributes":{"OBJECTID":10563,"LANDMARKID":"1001100000582","LANDMARKCO":"203","LANDMARKNA":"縣立漚汪國小","LANDMARKAD":"1001116","ADDRESS":"台南市將軍區長榮村4號","TEL":"06-7942012","COUNTYNAME":"台南市","TOWNNAME":"將軍區","MARKTYPE":"992","Class":"2"},"geometry":{"x":120.15998723417448,"y":23.198127891550676}},{"attributes":{"OBJECTID":10564,"LANDMARKID":"1001100000583","LANDMARKCO":"203","LANDMARKNA":"縣立苓和國小","LANDMARKAD":"1001116","ADDRESS":"台南市將軍區苓和村132號","TEL":"06-7942031","COUNTYNAME":"台南市","TOWNNAME":"將軍區","MARKTYPE":"992","Class":"2"},"geometry":{"x":120.16140520326857,"y":23.220070654467413}},{"attributes":{"OBJECTID":10565,"LANDMARKID":"1001100000738","LANDMARKCO":"305","LANDMARKNA":"將軍漁港","LANDMARKAD":"1001116","ADDRESS":"台南市將軍區","TEL":" ","COUNTYNAME":"台南市","TOWNNAME":"將軍區","MARKTYPE":"993","Class":"305"},"geometry":{"x":120.0837318680677,"y":23.235278659425273}},{"attributes":{"OBJECTID":10566,"LANDMARKID":"1001100000762","LANDMARKCO":"308","LANDMARKNA":"台61-將軍交流道-北上","LANDMARKAD":"1001116","ADDRESS":" ","TEL":" ","COUNTYNAME":"台南市","TOWNNAME":"將軍區","MARKTYPE":"993","Class":"308"},"geometry":{"x":120.10035980298602,"y":23.216019332854678}},{"attributes":{"OBJECTID":10567,"LANDMARKID":"1001100000763","LANDMARKCO":"308","LANDMARKNA":"台61-將軍交流道-南下","LANDMARKAD":"1001116","ADDRESS":" ","TEL":" ","COUNTYNAME":"台南市","TOWNNAME":"將軍區","MARKTYPE":"993","Class":"308"},"geometry":{"x":120.09722448935381,"y":23.207466324709205}},{"attributes":{"OBJECTID":10568,"LANDMARKID":"1001100000717","LANDMARKCO":"303","LANDMARKNA":"馬沙溝濱海遊樂區停車場","LANDMARKAD":"1001116","ADDRESS":"台南市將軍區平沙村140號","TEL":"06-7930937","COUNTYNAME":"台南市","TOWNNAME":"將軍區","MARKTYPE":"993","Class":"303"},"geometry":{"x":120.08385488082692,"y":23.218352353919329}},{"attributes":{"OBJECTID":10569,"LANDMARKID":"1001100000854","LANDMARKCO":"402","LANDMARKNA":"中華電信-將軍服務中心","LANDMARKAD":"1001116","ADDRESS":"台南市將軍區忠興村187號","TEL":"(06)744-3802","COUNTYNAME":"台南市","TOWNNAME":"將軍區","MARKTYPE":"994","Class":"4"},"geometry":{"x":120.15843139028139,"y":23.200576593108369}},{"attributes":{"OBJECTID":10570,"LANDMARKID":"1001100001351","LANDMARKCO":"509","LANDMARKNA":"馬沙溝海水浴場","LANDMARKAD":"1001116","ADDRESS":"台南市將軍區平沙村140號","TEL":" ","COUNTYNAME":"台南市","TOWNNAME":"將軍區","MARKTYPE":"995","Class":"5"},"geometry":{"x":120.08325608705803,"y":23.216204739528557}},{"attributes":{"OBJECTID":10571,"LANDMARKID":"1001100001028","LANDMARKCO":"405","LANDMARKNA":"中油加油站-新中站(中油直營)","LANDMARKAD":"1001110","ADDRESS":"台南市官田區渡頭村三塊厝7-66號","TEL":"06-6901002","COUNTYNAME":"台南市","TOWNNAME":"官田區","MARKTYPE":"994","Class":"4"},"geometry":{"x":120.34107369475723,"y":23.164519619060112}},{"attributes":{"OBJECTID":10572,"LANDMARKID":"1001100001029","LANDMARKCO":"405","LANDMARKNA":"中油加油站-官田站(中油直營)","LANDMARKAD":"1001110","ADDRESS":"台南市官田區官田村官田259-5號","TEL":"06-6903301","COUNTYNAME":"台南市","TOWNNAME":"官田區","MARKTYPE":"994","Class":"4"},"geometry":{"x":120.33743212658834,"y":23.179741399811725}},{"attributes":{"OBJECTID":10573,"LANDMARKID":"1001100001030","LANDMARKCO":"405","LANDMARKNA":"中油加油站-隆田站(中油直營)","LANDMARKAD":"1001110","ADDRESS":"台南市官田區隆本村中華路二段23號","TEL":"06-5791257","COUNTYNAME":"台南市","TOWNNAME":"官田區","MARKTYPE":"994","Class":"4"},"geometry":{"x":120.31635219877489,"y":23.199387665771276}},{"attributes":{"OBJECTID":10574,"LANDMARKID":"1001100001031","LANDMARKCO":"405","LANDMARKNA":"中油加油站-上準站","LANDMARKAD":"1001110","ADDRESS":"台南市官田區隆本村中華路一段二八七號","TEL":"06-5792097","COUNTYNAME":"台南市","TOWNNAME":"官田區","MARKTYPE":"994","Class":"4"},"geometry":{"x":120.32642673185308,"y":23.190939148318542}},{"attributes":{"OBJECTID":10575,"LANDMARKID":"1001100001032","LANDMARKCO":"405","LANDMARKNA":"中油加油站-南部站","LANDMARKAD":"1001110","ADDRESS":"台南市官田區南部村南部154號之8","TEL":"06-5795861","COUNTYNAME":"台南市","TOWNNAME":"官田區","MARKTYPE":"994","Class":"4"},"geometry":{"x":120.30832673167092,"y":23.214135247917248}},{"attributes":{"OBJECTID":10576,"LANDMARKID":"1001100001033","LANDMARKCO":"405","LANDMARKNA":"中油加油站-官田工業區站(中油直營)","LANDMARKAD":"1001110","ADDRESS":"台南市官田區二鎮村工業路23-1號","TEL":"06-6987265","COUNTYNAME":"台南市","TOWNNAME":"官田區","MARKTYPE":"994","Class":"4"},"geometry":{"x":120.32328406512478,"y":23.210504623940288}},{"attributes":{"OBJECTID":10577,"LANDMARKID":"1001100001034","LANDMARKCO":"405","LANDMARKNA":"中油加油站-烏山頭交流道站(中油直營)","LANDMARKAD":"1001110","ADDRESS":"台南市官田區嘉南村嘉南78-15號","TEL":"06-6990026","COUNTYNAME":"台南市","TOWNNAME":"官田區","MARKTYPE":"994","Class":"4"},"geometry":{"x":120.35816759237451,"y":23.212463062778678}},{"attributes":{"OBJECTID":10578,"LANDMARKID":"1001100001360","LANDMARKCO":"512","LANDMARKNA":"烏山頭水庫風景區管理處","LANDMARKAD":"1001110","ADDRESS":"台南市官田區嘉南村69之1號","TEL":"06-6981935","COUNTYNAME":"台南市","TOWNNAME":"官田區","MARKTYPE":"995","Class":"5"},"geometry":{"x":120.37219502658883,"y":23.197216389719596}},{"attributes":{"OBJECTID":10579,"LANDMARKID":"1001100001213","LANDMARKCO":"408","LANDMARKNA":"郵局-官田新中郵局","LANDMARKAD":"1001110","ADDRESS":"台南市官田區渡頭村300號","TEL":"(06)6902-074","COUNTYNAME":"台南市","TOWNNAME":"官田區","MARKTYPE":"994","Class":"4"},"geometry":{"x":120.34174512170082,"y":23.1589223954389}},{"attributes":{"OBJECTID":10580,"LANDMARKID":"1001100001214","LANDMARKCO":"408","LANDMARKNA":"郵局-官田隆田郵局","LANDMARKAD":"1001110","ADDRESS":"台南市官田區勝利路2號","TEL":"(06)5791-112","COUNTYNAME":"台南市","TOWNNAME":"官田區","MARKTYPE":"994","Class":"4"},"geometry":{"x":120.31453320621641,"y":23.193195876393727}},{"attributes":{"OBJECTID":10581,"LANDMARKID":"1001100001215","LANDMARKCO":"408","LANDMARKNA":"郵局-官田營區郵局","LANDMARKAD":"1001110","ADDRESS":"台南市官田區官田村279號(營區內)","TEL":"(06)6901-815","COUNTYNAME":"台南市","TOWNNAME":"官田區","MARKTYPE":"994","Class":"4"},"geometry":{"x":120.34065540416427,"y":23.189622478020237}},{"attributes":{"OBJECTID":10582,"LANDMARKID":"1001100001216","LANDMARKCO":"408","LANDMARKNA":"郵局-官田工業區郵局","LANDMARKAD":"1001110","ADDRESS":"台南市官田區二鎮村工業路23號(官田工業區內)","TEL":"(06)6986-810","COUNTYNAME":"台南市","TOWNNAME":"官田區","MARKTYPE":"994","Class":"4"},"geometry":{"x":120.32315097987585,"y":23.21012406819311}},{"attributes":{"OBJECTID":10583,"LANDMARKID":"1001100001278","LANDMARKCO":"409","LANDMARKNA":"台南市官田區農會","LANDMARKAD":"1001110","ADDRESS":"台南市官田區隆田村文化街25號","TEL":"06-5791221","COUNTYNAME":"台南市","TOWNNAME":"官田區","MARKTYPE":"994","Class":"4"},"geometry":{"x":120.31890415017546,"y":23.194640604426603}},{"attributes":{"OBJECTID":10584,"LANDMARKID":"1001100001156","LANDMARKCO":"406","LANDMARKNA":"官田區體育公園","LANDMARKAD":"1001110","ADDRESS":"台南市官田區","TEL":" ","COUNTYNAME":"台南市","TOWNNAME":"官田區","MARKTYPE":"994","Class":"4"},"geometry":{"x":120.31469944140585,"y":23.188559324442419}},{"attributes":{"OBJECTID":10585,"LANDMARKID":"1001100000910","LANDMARKCO":"404","LANDMARKNA":"台灣省自來水烏山頭給水廠","LANDMARKAD":"1001110","ADDRESS":"台南市官田區嘉南村68號","TEL":" ","COUNTYNAME":"台南市","TOWNNAME":"官田區","MARKTYPE":"994","Class":"4"},"geometry":{"x":120.36567752933426,"y":23.20740277174988}},{"attributes":{"OBJECTID":10586,"LANDMARKID":"1001100001154","LANDMARKCO":"406","LANDMARKNA":"靜態公園","LANDMARKAD":"1001110","ADDRESS":"台南市官田區","TEL":" ","COUNTYNAME":"台南市","TOWNNAME":"官田區","MARKTYPE":"994","Class":"4"},"geometry":{"x":120.36904062377833,"y":23.209683281144358}},{"attributes":{"OBJECTID":10587,"LANDMARKID":"1001100001155","LANDMARKCO":"406","LANDMARKNA":"中正公園","LANDMARKAD":"1001110","ADDRESS":"台南市官田區","TEL":" ","COUNTYNAME":"台南市","TOWNNAME":"官田區","MARKTYPE":"994","Class":"4"},"geometry":{"x":120.37142727556204,"y":23.197331917381021}},{"attributes":{"OBJECTID":10588,"LANDMARKID":"1001100001036","LANDMARKCO":"405","LANDMARKNA":"福懋加油站-官田站(台塑)","LANDMARKAD":"1001110","ADDRESS":"台南市官田區南_村三結義21-2號","TEL":"06-5793348","COUNTYNAME":"台南市","TOWNNAME":"官田區","MARKTYPE":"994","Class":"4"},"geometry":{"x":120.35693646583805,"y":23.196960593160686}},{"attributes":{"OBJECTID":10589,"LANDMARKID":"1001100000278","LANDMARKCO":"107","LANDMARKNA":"台南市警察局官田分駐所","LANDMARKAD":"1001110","ADDRESS":"台南市官田區隆田村中山路一段131號","TEL":"06-5791800","COUNTYNAME":"台南市","TOWNNAME":"官田區","MARKTYPE":"991","Class":"1"},"geometry":{"x":120.31150539223162,"y":23.192896908795849}},{"attributes":{"OBJECTID":10590,"LANDMARKID":"1001100000115","LANDMARKCO":"106","LANDMARKNA":"台南市官田區戶政事務所","LANDMARKAD":"1001110","ADDRESS":"台南市官田區隆田村22鄰信義街一段237號","TEL":"06-5791740","COUNTYNAME":"台南市","TOWNNAME":"官田區","MARKTYPE":"991","Class":"1"},"geometry":{"x":120.31358685823268,"y":23.192824791267459}},{"attributes":{"OBJECTID":10591,"LANDMARKID":"1001100000311","LANDMARKCO":"108","LANDMARKNA":"台南市官田區公所","LANDMARKAD":"1001110","ADDRESS":"台南市官田區中山路一段132號","TEL":"06-5791118","COUNTYNAME":"台南市","TOWNNAME":"官田區","MARKTYPE":"991","Class":"1"},"geometry":{"x":120.31405393205894,"y":23.192997334445483}},{"attributes":{"OBJECTID":10592,"LANDMARKID":"1001100000065","LANDMARKCO":"103","LANDMARKNA":"台南市官田區衛生所","LANDMARKAD":"1001110","ADDRESS":"台南市官田區隆田村中山路一段128號","TEL":"06-5791493","COUNTYNAME":"台南市","TOWNNAME":"官田區","MARKTYPE":"991","Class":"1"},"geometry":{"x":120.31485581454604,"y":23.19291401797712}},{"attributes":{"OBJECTID":10593,"LANDMARKID":"1001100000066","LANDMARKCO":"103","LANDMARKNA":"台南市官田區鄉民代表會","LANDMARKAD":"1001110","ADDRESS":"台南市官田區隆田村中山路一段132-1號","TEL":"06-5791760","COUNTYNAME":"台南市","TOWNNAME":"官田區","MARKTYPE":"991","Class":"1"},"geometry":{"x":120.31538327692566,"y":23.192918609837331}},{"attributes":{"OBJECTID":10594,"LANDMARKID":"1001100000282","LANDMARKCO":"107","LANDMARKNA":"台南市消防局官田消防分隊","LANDMARKAD":"1001110","ADDRESS":"台南市官田區工業路24號","TEL":"06-6987282","COUNTYNAME":"台南市","TOWNNAME":"官田區","MARKTYPE":"991","Class":"1"},"geometry":{"x":120.3225053542037,"y":23.211275156474287}},{"attributes":{"OBJECTID":10595,"LANDMARKID":"1001100000011","LANDMARKCO":"101","LANDMARKNA":"工業局官田工業區服務中心","LANDMARKAD":"1001110","ADDRESS":"台南市官田區二鎮村工業路21號","TEL":"06-6981189","COUNTYNAME":"台南市","TOWNNAME":"官田區","MARKTYPE":"991","Class":"1"},"geometry":{"x":120.32268099264499,"y":23.206581056580571}},{"attributes":{"OBJECTID":10596,"LANDMARKID":"1001100000279","LANDMARKCO":"107","LANDMARKNA":"台南市警察局拔林派出所","LANDMARKAD":"1001110","ADDRESS":"台南市官田區拔林村74號","TEL":"06-6901362","COUNTYNAME":"台南市","TOWNNAME":"官田區","MARKTYPE":"991","Class":"1"},"geometry":{"x":120.32350270946672,"y":23.171912633491299}},{"attributes":{"OBJECTID":10597,"LANDMARKID":"1001100000280","LANDMARKCO":"107","LANDMARKNA":"台南市警察局官鎮派出所","LANDMARKAD":"1001110","ADDRESS":"台南市官田區官田村官田383號","TEL":"06-6901160","COUNTYNAME":"台南市","TOWNNAME":"官田區","MARKTYPE":"991","Class":"1"},"geometry":{"x":120.33910483696908,"y":23.187776964212606}},{"attributes":{"OBJECTID":10598,"LANDMARKID":"1001100000281","LANDMARKCO":"107","LANDMARKNA":"台南市警察局湖山派出所","LANDMARKAD":"1001110","ADDRESS":"台南市官田區嘉南村嘉南41號","TEL":"06-6982533","COUNTYNAME":"台南市","TOWNNAME":"官田區","MARKTYPE":"991","Class":"1"},"geometry":{"x":120.36392138186447,"y":23.214517265848563}},{"attributes":{"OBJECTID":10599,"LANDMARKID":"1001100000632","LANDMARKCO":"204","LANDMARKNA":"台南市立圖書館官田分館","LANDMARKAD":"1001110","ADDRESS":"台南市官田區隆田村中山路一段129號","TEL":" ","COUNTYNAME":"台南市","TOWNNAME":"官田區","MARKTYPE":"992","Class":"2"},"geometry":{"x":120.31377098772883,"y":23.192770507263308}},{"attributes":{"OBJECTID":10600,"LANDMARKID":"1001100000592","LANDMARKCO":"203","LANDMARKNA":"縣立隆田國小","LANDMARKAD":"1001110","ADDRESS":"台南市官田區隆田村中山路一段127號","TEL":"06-5791047","COUNTYNAME":"台南市","TOWNNAME":"官田區","MARKTYPE":"992","Class":"2"},"geometry":{"x":120.3145554234479,"y":23.191286015304836}}]}