{"displayFieldName":"COUNTYNAME","fieldAliases":{"OBJECTID":"OBJECTID","LANDMARKID":"LANDMARKID","LANDMARKCO":"LANDMARKCO","LANDMARKNA":"LANDMARKNA","LANDMARKAD":"LANDMARKAD","ADDRESS":"ADDRESS","TEL":"TEL","COUNTYNAME":"COUNTYNAME","TOWNNAME":"TOWNNAME","MARKTYPE":"MARKTYPE","Class":"Class"},"geometryType":"esriGeometryPoint","spatialReference":{"wkid":4326},"fields":[{"name":"OBJECTID","type":"esriFieldTypeOID","alias":"OBJECTID"},{"name":"LANDMARKID","type":"esriFieldTypeString","alias":"LANDMARKID","length":15},{"name":"LANDMARKCO","type":"esriFieldTypeString","alias":"LANDMARKCO","length":15},{"name":"LANDMARKNA","type":"esriFieldTypeString","alias":"LANDMARKNA","length":50},{"name":"LANDMARKAD","type":"esriFieldTypeString","alias":"LANDMARKAD","length":15},{"name":"ADDRESS","type":"esriFieldTypeString","alias":"ADDRESS","length":56},{"name":"TEL","type":"esriFieldTypeString","alias":"TEL","length":36},{"name":"COUNTYNAME","type":"esriFieldTypeString","alias":"COUNTYNAME","length":15},{"name":"TOWNNAME","type":"esriFieldTypeString","alias":"TOWNNAME","length":13},{"name":"MARKTYPE","type":"esriFieldTypeString","alias":"MARKTYPE","length":12},{"name":"Class","type":"esriFieldTypeString","alias":"Class","length":5}],"features":[{"attributes":{"OBJECTID":26001,"LANDMARKID":"1001000000068","LANDMARKCO":"104","LANDMARKNA":"南區國稅局民雄稽徵所","LANDMARKAD":"1001005","ADDRESS":"嘉義縣民雄鄉文隆村建國路二段263之1號","TEL":"05-2062141","COUNTYNAME":"嘉義縣","TOWNNAME":"民雄鄉","MARKTYPE":"991","Class":"1"},"geometry":{"x":120.43239921663074,"y":23.542343565218804}},{"attributes":{"OBJECTID":26002,"LANDMARKID":"1001000000142","LANDMARKCO":"107","LANDMARKNA":"嘉義縣警察局豐收派出所","LANDMARKAD":"1001005","ADDRESS":"嘉義縣民雄鄉豐收村5鄰48號","TEL":"05-2262732","COUNTYNAME":"嘉義縣","TOWNNAME":"民雄鄉","MARKTYPE":"991","Class":"1"},"geometry":{"x":120.44973893361569,"y":23.562595210352278}},{"attributes":{"OBJECTID":26003,"LANDMARKID":"1001000000143","LANDMARKCO":"107","LANDMARKNA":"嘉義縣警察局菁埔派出所","LANDMARKAD":"1001005","ADDRESS":"嘉義縣民雄鄉菁埔村138號","TEL":"05-2263510","COUNTYNAME":"嘉義縣","TOWNNAME":"民雄鄉","MARKTYPE":"991","Class":"1"},"geometry":{"x":120.39883326989829,"y":23.556263784075675}},{"attributes":{"OBJECTID":26004,"LANDMARKID":"1001000000144","LANDMARKCO":"107","LANDMARKNA":"嘉義縣警察局北斗派出所","LANDMARKAD":"1001005","ADDRESS":"嘉義縣民雄鄉北斗村17號","TEL":"05-2213731","COUNTYNAME":"嘉義縣","TOWNNAME":"民雄鄉","MARKTYPE":"991","Class":"1"},"geometry":{"x":120.45759536361069,"y":23.534357640422083}},{"attributes":{"OBJECTID":26005,"LANDMARKID":"1001000000145","LANDMARKCO":"107","LANDMARKNA":"嘉義縣警察局民興派出所","LANDMARKAD":"1001005","ADDRESS":"嘉義縣民雄鄉中村江厝店10號","TEL":"05-2213735","COUNTYNAME":"嘉義縣","TOWNNAME":"民雄鄉","MARKTYPE":"991","Class":"1"},"geometry":{"x":120.42124108198946,"y":23.525738227694106}},{"attributes":{"OBJECTID":26006,"LANDMARKID":"1001000000146","LANDMARKCO":"107","LANDMARKNA":"嘉義縣消防局第二消防大隊部","LANDMARKAD":"1001005","ADDRESS":"嘉義縣民雄鄉建國二路2段261號","TEL":"05-2062119","COUNTYNAME":"嘉義縣","TOWNNAME":"民雄鄉","MARKTYPE":"991","Class":"1"},"geometry":{"x":120.43038904892538,"y":23.555392670686214}},{"attributes":{"OBJECTID":26007,"LANDMARKID":"1001000000455","LANDMARKCO":"204","LANDMARKNA":"嘉義縣立圖書館民雄分館","LANDMARKAD":"1001005","ADDRESS":"嘉義縣民雄鄉民族路43之1號","TEL":" ","COUNTYNAME":"嘉義縣","TOWNNAME":"民雄鄉","MARKTYPE":"992","Class":"2"},"geometry":{"x":120.42859476887149,"y":23.555449159698743}},{"attributes":{"OBJECTID":26008,"LANDMARKID":"1001000000464","LANDMARKCO":"205","LANDMARKNA":"國家廣播文物館","LANDMARKAD":"1001005","ADDRESS":"嘉義縣民雄鄉民權路74號","TEL":" ","COUNTYNAME":"嘉義縣","TOWNNAME":"民雄鄉","MARKTYPE":"992","Class":"2"},"geometry":{"x":120.4291697425305,"y":23.564292573780325}},{"attributes":{"OBJECTID":26009,"LANDMARKID":"1001000000465","LANDMARKCO":"205","LANDMARKNA":"嘉義酒類文物館","LANDMARKAD":"1001005","ADDRESS":"嘉義縣民雄鄉中山路4號","TEL":" ","COUNTYNAME":"嘉義縣","TOWNNAME":"民雄鄉","MARKTYPE":"992","Class":"2"},"geometry":{"x":120.44436412201841,"y":23.520668761489617}},{"attributes":{"OBJECTID":26010,"LANDMARKID":"1001000000234","LANDMARKCO":"202","LANDMARKNA":"私立協同高中","LANDMARKAD":"1001005","ADDRESS":"嘉義縣民雄鄉建國路二段31號","TEL":"05-2213045","COUNTYNAME":"嘉義縣","TOWNNAME":"民雄鄉","MARKTYPE":"992","Class":"2"},"geometry":{"x":120.43419722768094,"y":23.531699972091289}},{"attributes":{"OBJECTID":26011,"LANDMARKID":"1001000000235","LANDMARKCO":"202","LANDMARKNA":"私立協志高職","LANDMARKAD":"1001005","ADDRESS":"嘉義縣民雄鄉建國路二段285巷11號","TEL":"05-2264264","COUNTYNAME":"嘉義縣","TOWNNAME":"民雄鄉","MARKTYPE":"992","Class":"2"},"geometry":{"x":120.4311746901739,"y":23.548949093983126}},{"attributes":{"OBJECTID":26012,"LANDMARKID":"1001000000236","LANDMARKCO":"202","LANDMARKNA":"私立協同高中附設國中部","LANDMARKAD":"1001005","ADDRESS":"嘉義縣民雄鄉建國路二段31號","TEL":"05-2213045","COUNTYNAME":"嘉義縣","TOWNNAME":"民雄鄉","MARKTYPE":"992","Class":"2"},"geometry":{"x":120.43419722768094,"y":23.531699972091289}},{"attributes":{"OBJECTID":26013,"LANDMARKID":"1001000000321","LANDMARKCO":"203","LANDMARKNA":"縣立大吉國中","LANDMARKAD":"1001005","ADDRESS":"嘉義縣民雄鄉大崎村內埔仔2之1號","TEL":"05-2211651","COUNTYNAME":"嘉義縣","TOWNNAME":"民雄鄉","MARKTYPE":"992","Class":"2"},"geometry":{"x":120.48740564778615,"y":23.515561095686291}},{"attributes":{"OBJECTID":26014,"LANDMARKID":"1001000000322","LANDMARKCO":"203","LANDMARKNA":"縣立民雄國中","LANDMARKAD":"1001005","ADDRESS":"嘉義縣民雄鄉西安村西安路147號","TEL":"05-2262527","COUNTYNAME":"嘉義縣","TOWNNAME":"民雄鄉","MARKTYPE":"992","Class":"2"},"geometry":{"x":120.4206836786681,"y":23.557481450560122}},{"attributes":{"OBJECTID":26015,"LANDMARKID":"1001000000323","LANDMARKCO":"203","LANDMARKNA":"縣立三興國小","LANDMARKAD":"1001005","ADDRESS":"嘉義縣民雄鄉三興村陳厝寮55號","TEL":"05-2720042","COUNTYNAME":"嘉義縣","TOWNNAME":"民雄鄉","MARKTYPE":"992","Class":"2"},"geometry":{"x":120.48185300402555,"y":23.557881157370634}},{"attributes":{"OBJECTID":26016,"LANDMARKID":"1001000000324","LANDMARKCO":"203","LANDMARKNA":"縣立民雄國小","LANDMARKAD":"1001005","ADDRESS":"嘉義縣民雄鄉中樂村民族路43號","TEL":"05-2262022","COUNTYNAME":"嘉義縣","TOWNNAME":"民雄鄉","MARKTYPE":"992","Class":"2"},"geometry":{"x":120.42939191106383,"y":23.555142759315327}},{"attributes":{"OBJECTID":26017,"LANDMARKID":"1001000000325","LANDMARKCO":"203","LANDMARKNA":"縣立福樂國小","LANDMARKAD":"1001005","ADDRESS":"嘉義縣民雄鄉福樂村光明二街191號","TEL":"05-2206112","COUNTYNAME":"嘉義縣","TOWNNAME":"民雄鄉","MARKTYPE":"992","Class":"2"},"geometry":{"x":120.45174708661439,"y":23.528992992198461}},{"attributes":{"OBJECTID":26018,"LANDMARKID":"1001000000224","LANDMARKCO":"201","LANDMARKNA":"吳鳳技術學院","LANDMARKAD":"1001005","ADDRESS":"嘉義縣民雄鄉建國路二段117號","TEL":"05-2267124","COUNTYNAME":"嘉義縣","TOWNNAME":"民雄鄉","MARKTYPE":"992","Class":"2"},"geometry":{"x":120.43420332567297,"y":23.535389994666193}},{"attributes":{"OBJECTID":26019,"LANDMARKID":"1001000000233","LANDMARKCO":"202","LANDMARKNA":"國立民雄農工","LANDMARKAD":"1001005","ADDRESS":"嘉義縣民雄鄉文隆村81號","TEL":"05-2267120","COUNTYNAME":"嘉義縣","TOWNNAME":"民雄鄉","MARKTYPE":"992","Class":"2"},"geometry":{"x":120.42512549075531,"y":23.539832905490286}},{"attributes":{"OBJECTID":26020,"LANDMARKID":"1001000000326","LANDMARKCO":"203","LANDMARKNA":"縣立東榮國小","LANDMARKAD":"1001005","ADDRESS":"嘉義縣民雄鄉頂崙村105號","TEL":"05-2262076","COUNTYNAME":"嘉義縣","TOWNNAME":"民雄鄉","MARKTYPE":"992","Class":"2"},"geometry":{"x":120.43469737921585,"y":23.558112706473068}},{"attributes":{"OBJECTID":26021,"LANDMARKID":"1001000000327","LANDMARKCO":"203","LANDMARKNA":"縣立菁埔國小","LANDMARKAD":"1001005","ADDRESS":"嘉義縣民雄鄉菁埔村130之3號","TEL":"05-2262581","COUNTYNAME":"嘉義縣","TOWNNAME":"民雄鄉","MARKTYPE":"992","Class":"2"},"geometry":{"x":120.39726026465644,"y":23.557967289526744}},{"attributes":{"OBJECTID":26022,"LANDMARKID":"1001000000328","LANDMARKCO":"203","LANDMARKNA":"縣立興中國小","LANDMARKAD":"1001005","ADDRESS":"嘉義縣民雄鄉興中村30號","TEL":"05-2214725","COUNTYNAME":"嘉義縣","TOWNNAME":"民雄鄉","MARKTYPE":"992","Class":"2"},"geometry":{"x":120.41990168771949,"y":23.527985701138068}},{"attributes":{"OBJECTID":26023,"LANDMARKID":"1001000000329","LANDMARKCO":"203","LANDMARKNA":"縣立松山國小","LANDMARKAD":"1001005","ADDRESS":"嘉義縣民雄鄉松山村松仔腳43之1號","TEL":"05-2721831","COUNTYNAME":"嘉義縣","TOWNNAME":"民雄鄉","MARKTYPE":"992","Class":"2"},"geometry":{"x":120.47502893930152,"y":23.540731312383382}},{"attributes":{"OBJECTID":26024,"LANDMARKID":"1001000000330","LANDMARKCO":"203","LANDMARKNA":"縣立大崎國小","LANDMARKAD":"1001005","ADDRESS":"嘉義縣民雄鄉秀林村66號","TEL":"05-2212871","COUNTYNAME":"嘉義縣","TOWNNAME":"民雄鄉","MARKTYPE":"992","Class":"2"},"geometry":{"x":120.47225034319435,"y":23.511736014646075}},{"attributes":{"OBJECTID":26025,"LANDMARKID":"1001000000331","LANDMARKCO":"203","LANDMARKNA":"縣立秀林國小","LANDMARKAD":"1001005","ADDRESS":"嘉義縣民雄鄉北斗村北勢仔17號","TEL":"05-2210782","COUNTYNAME":"嘉義縣","TOWNNAME":"民雄鄉","MARKTYPE":"992","Class":"2"},"geometry":{"x":120.45616851781843,"y":23.533986481660062}},{"attributes":{"OBJECTID":26026,"LANDMARKID":"1001000000225","LANDMARKCO":"201","LANDMARKNA":"國立中正大學","LANDMARKAD":"1001005","ADDRESS":"嘉義縣民雄鄉三興村160號","TEL":"05-2720411","COUNTYNAME":"嘉義縣","TOWNNAME":"民雄鄉","MARKTYPE":"992","Class":"2"},"geometry":{"x":120.47216999138463,"y":23.562763625697524}},{"attributes":{"OBJECTID":26027,"LANDMARKID":"1001000000226","LANDMARKCO":"201","LANDMARKNA":"國立嘉義大學民雄校區","LANDMARKAD":"1001005","ADDRESS":"嘉義縣民雄鄉文隆村鴨母85號","TEL":"05-2263411","COUNTYNAME":"嘉義縣","TOWNNAME":"民雄鄉","MARKTYPE":"992","Class":"2"},"geometry":{"x":120.42374826580783,"y":23.544167337127053}},{"attributes":{"OBJECTID":26028,"LANDMARKID":"1001000000538","LANDMARKCO":"308","LANDMARKNA":"國3-竹崎交流道-北上","LANDMARKAD":"1001005","ADDRESS":"嘉義縣民雄鄉","TEL":" ","COUNTYNAME":"嘉義縣","TOWNNAME":"民雄鄉","MARKTYPE":"993","Class":"308"},"geometry":{"x":120.48518904109763,"y":23.522729548772936}},{"attributes":{"OBJECTID":26029,"LANDMARKID":"1001000000511","LANDMARKCO":"303","LANDMARKNA":"民雄鄉運動公園附設停車場","LANDMARKAD":"1001005","ADDRESS":"嘉義縣民雄鄉西安路112號1樓","TEL":" ","COUNTYNAME":"嘉義縣","TOWNNAME":"民雄鄉","MARKTYPE":"993","Class":"303"},"geometry":{"x":120.42302813984324,"y":23.557405589412454}},{"attributes":{"OBJECTID":26030,"LANDMARKID":"1001000000512","LANDMARKCO":"303","LANDMARKNA":"民雄鄉第二十三公墓附設停車場","LANDMARKAD":"1001005","ADDRESS":"嘉義縣民雄鄉建國路355之1l號","TEL":" ","COUNTYNAME":"嘉義縣","TOWNNAME":"民雄鄉","MARKTYPE":"993","Class":"303"},"geometry":{"x":120.4333743934402,"y":23.557131789723606}},{"attributes":{"OBJECTID":26031,"LANDMARKID":"1001000000485","LANDMARKCO":"301","LANDMARKNA":"民雄火車站","LANDMARKAD":"1001005","ADDRESS":"嘉義縣民雄鄉東榮村和平路2號","TEL":"05-2264272","COUNTYNAME":"嘉義縣","TOWNNAME":"民雄鄉","MARKTYPE":"993","Class":"301"},"geometry":{"x":120.43141873134319,"y":23.554974739211694}},{"attributes":{"OBJECTID":26032,"LANDMARKID":"1001000000582","LANDMARKCO":"402","LANDMARKNA":"中華電信-民雄服務中心","LANDMARKAD":"1001005","ADDRESS":"嘉義縣民雄鄉保生街291號","TEL":"(05)244-0005","COUNTYNAME":"嘉義縣","TOWNNAME":"民雄鄉","MARKTYPE":"994","Class":"4"},"geometry":{"x":120.42524839818978,"y":23.557685736973994}},{"attributes":{"OBJECTID":26033,"LANDMARKID":"1001000000583","LANDMARKCO":"402","LANDMARKNA":"中華電信-民雄頭橋特約服務中心","LANDMARKAD":"1001005","ADDRESS":"嘉義縣民雄鄉興南村頭橋29號","TEL":"05-2207168","COUNTYNAME":"嘉義縣","TOWNNAME":"民雄鄉","MARKTYPE":"994","Class":"4"},"geometry":{"x":120.43925820679627,"y":23.523423971030045}},{"attributes":{"OBJECTID":26034,"LANDMARKID":"1001000000584","LANDMARKCO":"402","LANDMARKNA":"威寶電信-民雄東榮特約服務中心","LANDMARKAD":"1001005","ADDRESS":"嘉義縣民雄鄉東榮路6號","TEL":"05-2268292","COUNTYNAME":"嘉義縣","TOWNNAME":"民雄鄉","MARKTYPE":"994","Class":"4"},"geometry":{"x":120.43328301464126,"y":23.557417253304816}},{"attributes":{"OBJECTID":26035,"LANDMARKID":"1001000000890","LANDMARKCO":"604","LANDMARKNA":"悅來居","LANDMARKAD":"1001005","ADDRESS":"嘉義縣民雄鄉秀林村75-3號","TEL":"05-2131558","COUNTYNAME":"嘉義縣","TOWNNAME":"民雄鄉","MARKTYPE":"996","Class":"6"},"geometry":{"x":120.47395864268189,"y":23.516495945443307}},{"attributes":{"OBJECTID":26036,"LANDMARKID":"1001000000861","LANDMARKCO":"603","LANDMARKNA":"瀧鳳大旅社","LANDMARKAD":"1001005","ADDRESS":"嘉義縣民雄鄉雙福村建國路三段126號","TEL":"05-2216562","COUNTYNAME":"嘉義縣","TOWNNAME":"民雄鄉","MARKTYPE":"996","Class":"6"},"geometry":{"x":120.43989218024086,"y":23.5225706877116}},{"attributes":{"OBJECTID":26037,"LANDMARKID":"1001000000862","LANDMARKCO":"603","LANDMARKNA":"湯野精品旅館(民雄館)","LANDMARKAD":"1001005","ADDRESS":"嘉義縣民雄鄉建國路一段20號","TEL":"05-2261122","COUNTYNAME":"嘉義縣","TOWNNAME":"民雄鄉","MARKTYPE":"996","Class":"6"},"geometry":{"x":120.43405349892396,"y":23.555272665672334}},{"attributes":{"OBJECTID":26038,"LANDMARKID":"1001000000825","LANDMARKCO":"511","LANDMARKNA":"民雄夜市","LANDMARKAD":"1001005","ADDRESS":"嘉義縣民雄鄉","TEL":" ","COUNTYNAME":"嘉義縣","TOWNNAME":"民雄鄉","MARKTYPE":"995","Class":"5"},"geometry":{"x":120.42531934348141,"y":23.558215298013057}},{"attributes":{"OBJECTID":26039,"LANDMARKID":"1001000000659","LANDMARKCO":"405","LANDMARKNA":"中油加油站-六腳站(中油直營)","LANDMARKAD":"1001008","ADDRESS":"嘉義縣六腳鄉六腳村六腳路2-15號","TEL":"05-3781175","COUNTYNAME":"嘉義縣","TOWNNAME":"六腳鄉","MARKTYPE":"994","Class":"4"},"geometry":{"x":120.25772384584928,"y":23.512744403157907}},{"attributes":{"OBJECTID":26040,"LANDMARKID":"1001000000660","LANDMARKCO":"405","LANDMARKNA":"中油加油站-蒜頭站(中油直營)","LANDMARKAD":"1001008","ADDRESS":"嘉義縣六腳鄉蒜頭村1-15號","TEL":"05-3802944","COUNTYNAME":"嘉義縣","TOWNNAME":"六腳鄉","MARKTYPE":"994","Class":"4"},"geometry":{"x":120.29308387638171,"y":23.495740533992947}},{"attributes":{"OBJECTID":26041,"LANDMARKID":"1001000000661","LANDMARKCO":"405","LANDMARKNA":"中油加油站-六美站","LANDMARKAD":"1001008","ADDRESS":"嘉義縣六腳鄉六斗村10鄰六斗尾236號","TEL":"05-7812373","COUNTYNAME":"嘉義縣","TOWNNAME":"六腳鄉","MARKTYPE":"994","Class":"4"},"geometry":{"x":120.29533871000345,"y":23.546960848047657}},{"attributes":{"OBJECTID":26042,"LANDMARKID":"1001000000816","LANDMARKCO":"507","LANDMARKNA":"王得祿墓","LANDMARKAD":"1001008","ADDRESS":"嘉義縣六腳鄉雙涵村東北邊農地上","TEL":" ","COUNTYNAME":"嘉義縣","TOWNNAME":"六腳鄉","MARKTYPE":"995","Class":"5"},"geometry":{"x":120.30727718963456,"y":23.52247861957742}},{"attributes":{"OBJECTID":26043,"LANDMARKID":"1001000000740","LANDMARKCO":"408","LANDMARKNA":"郵局-六腳蒜頭郵局","LANDMARKAD":"1001008","ADDRESS":"嘉義縣六腳鄉蒜頭村126之1號","TEL":"(05)3802-029","COUNTYNAME":"嘉義縣","TOWNNAME":"六腳鄉","MARKTYPE":"994","Class":"4"},"geometry":{"x":120.29216885305608,"y":23.493192351748469}},{"attributes":{"OBJECTID":26044,"LANDMARKID":"1001000000765","LANDMARKCO":"409","LANDMARKNA":"嘉義縣六腳鄉農會","LANDMARKAD":"1001008","ADDRESS":"嘉義縣六腳鄉蒜頭村7之20號","TEL":"05-3802816","COUNTYNAME":"嘉義縣","TOWNNAME":"六腳鄉","MARKTYPE":"994","Class":"4"},"geometry":{"x":120.29180403225622,"y":23.492330001515157}},{"attributes":{"OBJECTID":26045,"LANDMARKID":"1001000000598","LANDMARKCO":"404","LANDMARKNA":"台灣省自來水六腳營運所","LANDMARKAD":"1001008","ADDRESS":"嘉義縣六腳鄉潭乾村22號","TEL":" ","COUNTYNAME":"嘉義縣","TOWNNAME":"六腳鄉","MARKTYPE":"994","Class":"4"},"geometry":{"x":120.28003576539317,"y":23.505399498848185}},{"attributes":{"OBJECTID":26046,"LANDMARKID":"1001000000057","LANDMARKCO":"103","LANDMARKNA":"嘉義縣六腳鄉衛生所","LANDMARKAD":"1001008","ADDRESS":"嘉義縣六腳鄉蒜頭村73之1號","TEL":"05-3802016","COUNTYNAME":"嘉義縣","TOWNNAME":"六腳鄉","MARKTYPE":"991","Class":"1"},"geometry":{"x":120.29022926087887,"y":23.493772188562211}},{"attributes":{"OBJECTID":26047,"LANDMARKID":"1001000000215","LANDMARKCO":"108","LANDMARKNA":"嘉義縣六腳鄉公所","LANDMARKAD":"1001008","ADDRESS":"嘉義縣六腳鄉蒜頭村73號","TEL":"05-3801121","COUNTYNAME":"嘉義縣","TOWNNAME":"六腳鄉","MARKTYPE":"991","Class":"1"},"geometry":{"x":120.29100954910088,"y":23.49405019020762}},{"attributes":{"OBJECTID":26048,"LANDMARKID":"1001000000055","LANDMARKCO":"103","LANDMARKNA":"六腳鄉衛生所古林村基層保健中心","LANDMARKAD":"1001008","ADDRESS":"嘉義縣六腳鄉古林村164號","TEL":"05-3791906","COUNTYNAME":"嘉義縣","TOWNNAME":"六腳鄉","MARKTYPE":"991","Class":"1"},"geometry":{"x":120.22542107266774,"y":23.484158972589228}},{"attributes":{"OBJECTID":26049,"LANDMARKID":"1001000000056","LANDMARKCO":"103","LANDMARKNA":"嘉義縣六腳鄉民代表會","LANDMARKAD":"1001008","ADDRESS":"嘉義縣六腳鄉蒜頭村73號","TEL":"05-3803982","COUNTYNAME":"嘉義縣","TOWNNAME":"六腳鄉","MARKTYPE":"991","Class":"1"},"geometry":{"x":120.29051026649421,"y":23.494045645816644}},{"attributes":{"OBJECTID":26050,"LANDMARKID":"1001000000133","LANDMARKCO":"107","LANDMARKNA":"嘉義縣警察局六美派出所","LANDMARKAD":"1001008","ADDRESS":"嘉義縣六腳鄉港美村28號","TEL":"05-3802244","COUNTYNAME":"嘉義縣","TOWNNAME":"六腳鄉","MARKTYPE":"991","Class":"1"},"geometry":{"x":120.28900352353131,"y":23.53024089343306}},{"attributes":{"OBJECTID":26051,"LANDMARKID":"1001000000134","LANDMARKCO":"107","LANDMARKNA":"嘉義縣警察局北美派出所","LANDMARKAD":"1001008","ADDRESS":"嘉義縣六腳鄉崙陽村183號","TEL":"05-7811105","COUNTYNAME":"嘉義縣","TOWNNAME":"六腳鄉","MARKTYPE":"991","Class":"1"},"geometry":{"x":120.29785083553399,"y":23.552044818271554}},{"attributes":{"OBJECTID":26052,"LANDMARKID":"1001000000135","LANDMARKCO":"107","LANDMARKNA":"嘉義縣警察局永竹派出所","LANDMARKAD":"1001008","ADDRESS":"嘉義縣六腳鄉竹本村9號","TEL":"05-3780845","COUNTYNAME":"嘉義縣","TOWNNAME":"六腳鄉","MARKTYPE":"991","Class":"1"},"geometry":{"x":120.26439772313593,"y":23.525794169786295}},{"attributes":{"OBJECTID":26053,"LANDMARKID":"1001000000136","LANDMARKCO":"107","LANDMARKNA":"嘉義縣警察局六家派出所","LANDMARKAD":"1001008","ADDRESS":"嘉義縣六腳鄉六腳村5號","TEL":"05-3780843","COUNTYNAME":"嘉義縣","TOWNNAME":"六腳鄉","MARKTYPE":"991","Class":"1"},"geometry":{"x":120.25427397235913,"y":23.506337084012124}},{"attributes":{"OBJECTID":26054,"LANDMARKID":"1001000000137","LANDMARKCO":"107","LANDMARKNA":"嘉義縣警察局六腳分駐所","LANDMARKAD":"1001008","ADDRESS":"嘉義縣六腳鄉蒜頭村75號","TEL":"05-3802008","COUNTYNAME":"嘉義縣","TOWNNAME":"六腳鄉","MARKTYPE":"991","Class":"1"},"geometry":{"x":120.29150662770071,"y":23.492429327150358}},{"attributes":{"OBJECTID":26055,"LANDMARKID":"1001000000138","LANDMARKCO":"107","LANDMARKNA":"嘉義縣消防局六腳消防分隊","LANDMARKAD":"1001008","ADDRESS":"嘉義縣六腳鄉蒜頭村73之2號","TEL":"05-3802274","COUNTYNAME":"嘉義縣","TOWNNAME":"六腳鄉","MARKTYPE":"991","Class":"1"},"geometry":{"x":120.29152620634844,"y":23.492429505558206}},{"attributes":{"OBJECTID":26056,"LANDMARKID":"1001000000087","LANDMARKCO":"106","LANDMARKNA":"嘉義縣六腳鄉戶政事務所","LANDMARKAD":"1001008","ADDRESS":"嘉義縣六腳鄉蒜頭村178號","TEL":"05-3802204","COUNTYNAME":"嘉義縣","TOWNNAME":"六腳鄉","MARKTYPE":"991","Class":"1"},"geometry":{"x":120.29151945067302,"y":23.49306153824709}},{"attributes":{"OBJECTID":26057,"LANDMARKID":"1001000000058","LANDMARKCO":"103","LANDMARKNA":"六腳鄉第六公園化公墓殯儀館","LANDMARKAD":"1001008","ADDRESS":"嘉義縣六腳鄉雙涵村83之5號","TEL":"05-3800608","COUNTYNAME":"嘉義縣","TOWNNAME":"六腳鄉","MARKTYPE":"991","Class":"1"},"geometry":{"x":120.29258114266071,"y":23.504249409322274}},{"attributes":{"OBJECTID":26058,"LANDMARKID":"1001000000456","LANDMARKCO":"204","LANDMARKNA":"嘉義縣立圖書館六腳分館","LANDMARKAD":"1001008","ADDRESS":"嘉義縣六腳鄉蒜頭村73號","TEL":" ","COUNTYNAME":"嘉義縣","TOWNNAME":"六腳鄉","MARKTYPE":"992","Class":"2"},"geometry":{"x":120.29292900660579,"y":23.495163194946191}},{"attributes":{"OBJECTID":26059,"LANDMARKID":"1001000000320","LANDMARKCO":"203","LANDMARKNA":"縣立六嘉國中","LANDMARKAD":"1001008","ADDRESS":"嘉義縣六腳鄉蒜頭村樹仁路1號","TEL":"05-3801215","COUNTYNAME":"嘉義縣","TOWNNAME":"六腳鄉","MARKTYPE":"992","Class":"2"},"geometry":{"x":120.2916494508428,"y":23.500499405304794}},{"attributes":{"OBJECTID":26060,"LANDMARKID":"1001000000237","LANDMARKCO":"202","LANDMARKNA":"私立明華高中","LANDMARKAD":"1001008","ADDRESS":"嘉義縣六腳鄉六南村223之25號","TEL":"05-3703071","COUNTYNAME":"嘉義縣","TOWNNAME":"六腳鄉","MARKTYPE":"992","Class":"2"},"geometry":{"x":120.24872058132533,"y":23.491772734964975}},{"attributes":{"OBJECTID":26061,"LANDMARKID":"1001000000308","LANDMARKCO":"203","LANDMARKNA":"縣立六合國中","LANDMARKAD":"1001008","ADDRESS":"嘉義縣六腳鄉六腳村3之1號","TEL":"05-3780804","COUNTYNAME":"嘉義縣","TOWNNAME":"六腳鄉","MARKTYPE":"992","Class":"2"},"geometry":{"x":120.25491915271301,"y":23.508690952517888}},{"attributes":{"OBJECTID":26062,"LANDMARKID":"1001000000309","LANDMARKCO":"203","LANDMARKNA":"縣立六腳國小","LANDMARKAD":"1001008","ADDRESS":"嘉義縣六腳鄉六腳村105號","TEL":"05-3781403","COUNTYNAME":"嘉義縣","TOWNNAME":"六腳鄉","MARKTYPE":"992","Class":"2"},"geometry":{"x":120.25206489451911,"y":23.509128435285916}},{"attributes":{"OBJECTID":26063,"LANDMARKID":"1001000000310","LANDMARKCO":"203","LANDMARKNA":"縣立新生國小","LANDMARKAD":"1001008","ADDRESS":"嘉義縣六腳鄉竹本村111號","TEL":"05-3780043","COUNTYNAME":"嘉義縣","TOWNNAME":"六腳鄉","MARKTYPE":"992","Class":"2"},"geometry":{"x":120.26179636576025,"y":23.532645243138614}},{"attributes":{"OBJECTID":26064,"LANDMARKID":"1001000000311","LANDMARKCO":"203","LANDMARKNA":"縣立北美國小","LANDMARKAD":"1001008","ADDRESS":"嘉義縣六腳鄉崙陽村122號","TEL":"05-7811429","COUNTYNAME":"嘉義縣","TOWNNAME":"六腳鄉","MARKTYPE":"992","Class":"2"},"geometry":{"x":120.30360864580032,"y":23.557760267308797}},{"attributes":{"OBJECTID":26065,"LANDMARKID":"1001000000312","LANDMARKCO":"203","LANDMARKNA":"縣立蒜頭國小","LANDMARKAD":"1001008","ADDRESS":"嘉義縣六腳鄉蒜頭村188號","TEL":"05-3802025","COUNTYNAME":"嘉義縣","TOWNNAME":"六腳鄉","MARKTYPE":"992","Class":"2"},"geometry":{"x":120.29294897547811,"y":23.493964864264701}},{"attributes":{"OBJECTID":26066,"LANDMARKID":"1001000000313","LANDMARKCO":"203","LANDMARKNA":"縣立六美國小","LANDMARKAD":"1001008","ADDRESS":"嘉義縣六腳鄉六斗村31號","TEL":"05-7812708","COUNTYNAME":"嘉義縣","TOWNNAME":"六腳鄉","MARKTYPE":"992","Class":"2"},"geometry":{"x":120.29354361592895,"y":23.539840970408186}},{"attributes":{"OBJECTID":26067,"LANDMARKID":"1001000000314","LANDMARKCO":"203","LANDMARKNA":"縣立蒜南國小","LANDMARKAD":"1001008","ADDRESS":"嘉義縣六腳鄉工廠村5號","TEL":"05-3802505","COUNTYNAME":"嘉義縣","TOWNNAME":"六腳鄉","MARKTYPE":"992","Class":"2"},"geometry":{"x":120.29951240383515,"y":23.480183530939243}},{"attributes":{"OBJECTID":26068,"LANDMARKID":"1001000000315","LANDMARKCO":"203","LANDMARKNA":"縣立灣內國小","LANDMARKAD":"1001008","ADDRESS":"嘉義縣六腳鄉灣南村6號","TEL":"05-3802306","COUNTYNAME":"嘉義縣","TOWNNAME":"六腳鄉","MARKTYPE":"992","Class":"2"},"geometry":{"x":120.31264489408096,"y":23.500284397366002}},{"attributes":{"OBJECTID":26069,"LANDMARKID":"1001000000316","LANDMARKCO":"203","LANDMARKNA":"縣立更寮國小","LANDMARKAD":"1001008","ADDRESS":"嘉義縣六腳鄉更寮村19號","TEL":"05-3796309","COUNTYNAME":"嘉義縣","TOWNNAME":"六腳鄉","MARKTYPE":"992","Class":"2"},"geometry":{"x":120.24003474836493,"y":23.482970299379513}},{"attributes":{"OBJECTID":26070,"LANDMARKID":"1001000000317","LANDMARKCO":"203","LANDMARKNA":"縣立蒜頭國小潭墘分校","LANDMARKAD":"1001008","ADDRESS":"嘉義縣六腳鄉潭墘村50之1號","TEL":"05-3802500","COUNTYNAME":"嘉義縣","TOWNNAME":"六腳鄉","MARKTYPE":"992","Class":"2"},"geometry":{"x":120.27806563064341,"y":23.508249316668703}},{"attributes":{"OBJECTID":26071,"LANDMARKID":"1001000000318","LANDMARKCO":"203","LANDMARKNA":"縣立六腳國小崩山分校","LANDMARKAD":"1001008","ADDRESS":"嘉義縣六腳鄉崩山村78之3號","TEL":"05-3780143","COUNTYNAME":"嘉義縣","TOWNNAME":"六腳鄉","MARKTYPE":"992","Class":"2"},"geometry":{"x":120.22517147306404,"y":23.499055369090669}},{"attributes":{"OBJECTID":26072,"LANDMARKID":"1001000000319","LANDMARKCO":"203","LANDMARKNA":"縣立六美國小三義分班","LANDMARKAD":"1001008","ADDRESS":"嘉義縣六腳鄉三義村78號","TEL":"05-3804887","COUNTYNAME":"嘉義縣","TOWNNAME":"六腳鄉","MARKTYPE":"992","Class":"2"},"geometry":{"x":120.28708164660148,"y":23.520845160916856}},{"attributes":{"OBJECTID":26073,"LANDMARKID":"1001000000513","LANDMARKCO":"303","LANDMARKNA":"六腳鄉廣停車場","LANDMARKAD":"1001008","ADDRESS":"嘉義縣六腳鄉蒜頭村","TEL":" ","COUNTYNAME":"嘉義縣","TOWNNAME":"六腳鄉","MARKTYPE":"993","Class":"303"},"geometry":{"x":120.29087776050659,"y":23.493599249860708}},{"attributes":{"OBJECTID":26074,"LANDMARKID":"1001000000585","LANDMARKCO":"402","LANDMARKNA":"中華電信-蒜頭服務中心","LANDMARKAD":"1001008","ADDRESS":"嘉義縣六腳鄉蒜頭村126號","TEL":"(05)344-0037","COUNTYNAME":"嘉義縣","TOWNNAME":"六腳鄉","MARKTYPE":"994","Class":"4"},"geometry":{"x":120.29211259683042,"y":23.492491096428935}},{"attributes":{"OBJECTID":26075,"LANDMARKID":"1001000000891","LANDMARKCO":"604","LANDMARKNA":"蟀哥農家民宿","LANDMARKAD":"1001008","ADDRESS":"嘉義縣六腳鄉六腳村10號","TEL":"05-3781234","COUNTYNAME":"嘉義縣","TOWNNAME":"六腳鄉","MARKTYPE":"996","Class":"6"},"geometry":{"x":120.25411931219671,"y":23.505031499584859}},{"attributes":{"OBJECTID":26076,"LANDMARKID":"1001000000844","LANDMARKCO":"603","LANDMARKNA":"意文大飯店","LANDMARKAD":"1001008","ADDRESS":"嘉義縣六腳鄉蘇厝寮11之7號","TEL":"05-7812331","COUNTYNAME":"嘉義縣","TOWNNAME":"六腳鄉","MARKTYPE":"996","Class":"6"},"geometry":{"x":120.30072067130347,"y":23.561173313164069}},{"attributes":{"OBJECTID":26077,"LANDMARKID":"1001000000605","LANDMARKCO":"405","LANDMARKNA":"中油加油站-灣橋站(中油直營)","LANDMARKAD":"1001014","ADDRESS":"嘉義縣竹崎鄉灣橋村埤堂1號","TEL":"05-2791918","COUNTYNAME":"嘉義縣","TOWNNAME":"竹崎鄉","MARKTYPE":"994","Class":"4"},"geometry":{"x":120.49794539424019,"y":23.494534560508793}},{"attributes":{"OBJECTID":26078,"LANDMARKID":"1001000000606","LANDMARKCO":"405","LANDMARKNA":"中油加油站-石卓站(中油直營)","LANDMARKAD":"1001014","ADDRESS":"嘉義縣竹崎鄉中和村永和1-1號","TEL":"05-2561944","COUNTYNAME":"嘉義縣","TOWNNAME":"竹崎鄉","MARKTYPE":"994","Class":"4"},"geometry":{"x":120.6894212030459,"y":23.464609156304839}},{"attributes":{"OBJECTID":26079,"LANDMARKID":"1001000000607","LANDMARKCO":"405","LANDMARKNA":"中油加油站-竹崎站(中油直營)","LANDMARKAD":"1001014","ADDRESS":"嘉義縣竹崎鄉和平村田寮52號","TEL":"05-2611714","COUNTYNAME":"嘉義縣","TOWNNAME":"竹崎鄉","MARKTYPE":"994","Class":"4"},"geometry":{"x":120.54788706371588,"y":23.515836387725361}},{"attributes":{"OBJECTID":26080,"LANDMARKID":"1001000000608","LANDMARKCO":"405","LANDMARKNA":"中油加油站-鹿滿站","LANDMARKAD":"1001014","ADDRESS":"嘉義縣竹崎鄉鹿滿村鹿鳴路100-1號","TEL":"05-2614678","COUNTYNAME":"嘉義縣","TOWNNAME":"竹崎鄉","MARKTYPE":"994","Class":"4"},"geometry":{"x":120.52970399323945,"y":23.497956906073398}},{"attributes":{"OBJECTID":26081,"LANDMARKID":"1001000000569","LANDMARKCO":"401","LANDMARKNA":"灣橋榮民醫院","LANDMARKAD":"1001014","ADDRESS":"嘉義縣竹崎鄉灣橋村石麻園38號","TEL":"05-2791072","COUNTYNAME":"嘉義縣","TOWNNAME":"竹崎鄉","MARKTYPE":"994","Class":"4"},"geometry":{"x":120.50634332894109,"y":23.487785423226377}},{"attributes":{"OBJECTID":26082,"LANDMARKID":"1001000000834","LANDMARKCO":"513","LANDMARKNA":"奮起湖","LANDMARKAD":"1001014","ADDRESS":"嘉義縣竹崎鄉","TEL":" ","COUNTYNAME":"嘉義縣","TOWNNAME":"竹崎鄉","MARKTYPE":"995","Class":"5"},"geometry":{"x":120.69596228707606,"y":23.50396000798095}},{"attributes":{"OBJECTID":26083,"LANDMARKID":"1001000000718","LANDMARKCO":"408","LANDMARKNA":"郵局-竹崎郵局","LANDMARKAD":"1001014","ADDRESS":"嘉義縣竹崎鄉中山路68號","TEL":"(05)2611-042","COUNTYNAME":"嘉義縣","TOWNNAME":"竹崎鄉","MARKTYPE":"994","Class":"4"},"geometry":{"x":120.55098576657711,"y":23.523408566503708}},{"attributes":{"OBJECTID":26084,"LANDMARKID":"1001000000719","LANDMARKCO":"408","LANDMARKNA":"郵局-竹崎內埔郵局","LANDMARKAD":"1001014","ADDRESS":"嘉義縣竹崎鄉內埔村元興路127號","TEL":"(05)2541-305","COUNTYNAME":"嘉義縣","TOWNNAME":"竹崎鄉","MARKTYPE":"994","Class":"4"},"geometry":{"x":120.55856283517112,"y":23.485267378487723}},{"attributes":{"OBJECTID":26085,"LANDMARKID":"1001000000720","LANDMARKCO":"408","LANDMARKNA":"郵局-竹崎灣橋郵局","LANDMARKAD":"1001014","ADDRESS":"嘉義縣竹崎鄉灣橋村五間厝3-1號","TEL":"(05)2790-279","COUNTYNAME":"嘉義縣","TOWNNAME":"竹崎鄉","MARKTYPE":"994","Class":"4"},"geometry":{"x":120.50163665886548,"y":23.492839014289114}},{"attributes":{"OBJECTID":26086,"LANDMARKID":"1001000000775","LANDMARKCO":"409","LANDMARKNA":"嘉義縣竹崎鄉農會","LANDMARKAD":"1001014","ADDRESS":"嘉義縣竹崎鄉竹崎村中山路111號","TEL":"05-2612120-4","COUNTYNAME":"嘉義縣","TOWNNAME":"竹崎鄉","MARKTYPE":"994","Class":"4"},"geometry":{"x":120.55094307912618,"y":23.521923429974553}},{"attributes":{"OBJECTID":26087,"LANDMARKID":"1001000000603","LANDMARKCO":"404","LANDMARKNA":"台灣省自來水竹崎營運所","LANDMARKAD":"1001014","ADDRESS":"嘉義縣竹崎鄉義崎3之2號","TEL":" ","COUNTYNAME":"嘉義縣","TOWNNAME":"竹崎鄉","MARKTYPE":"994","Class":"4"},"geometry":{"x":120.55823456087899,"y":23.52097704430053}},{"attributes":{"OBJECTID":26088,"LANDMARKID":"1001000000717","LANDMARKCO":"406","LANDMARKNA":"竹崎親水公園","LANDMARKAD":"1001014","ADDRESS":"嘉義縣竹崎鄉","TEL":" ","COUNTYNAME":"嘉義縣","TOWNNAME":"竹崎鄉","MARKTYPE":"994","Class":"4"},"geometry":{"x":120.54732115272176,"y":23.523776889901352}},{"attributes":{"OBJECTID":26089,"LANDMARKID":"1001000000604","LANDMARKCO":"405","LANDMARKNA":"福懋加油站-竹崎站(台塑)","LANDMARKAD":"1001014","ADDRESS":"嘉義縣竹崎鄉和平村7鄰坑仔坪161-3號","TEL":"05-2616090","COUNTYNAME":"嘉義縣","TOWNNAME":"竹崎鄉","MARKTYPE":"994","Class":"4"},"geometry":{"x":120.54759992486228,"y":23.514557325316439}},{"attributes":{"OBJECTID":26090,"LANDMARKID":"1001000000002","LANDMARKCO":"101","LANDMARKNA":"林務局嘉義林區管理處奮起湖工做站","LANDMARKAD":"1001014","ADDRESS":"嘉義縣竹崎鄉中和村奮起湖97號","TEL":"05-2561027","COUNTYNAME":"嘉義縣","TOWNNAME":"竹崎鄉","MARKTYPE":"991","Class":"1"},"geometry":{"x":120.69336808792515,"y":23.504926958625759}},{"attributes":{"OBJECTID":26091,"LANDMARKID":"1001000000051","LANDMARKCO":"103","LANDMARKNA":"嘉義縣竹崎鄉衛生所","LANDMARKAD":"1001014","ADDRESS":"嘉義縣竹崎鄉竹崎村文化路19-1號","TEL":"05-2611264","COUNTYNAME":"嘉義縣","TOWNNAME":"竹崎鄉","MARKTYPE":"991","Class":"1"},"geometry":{"x":120.55197508770775,"y":23.521522526181148}},{"attributes":{"OBJECTID":26092,"LANDMARKID":"1001000000219","LANDMARKCO":"108","LANDMARKNA":"嘉義縣竹崎鄉公所","LANDMARKAD":"1001014","ADDRESS":"嘉義縣竹崎鄉中山路59號","TEL":"05-2611010","COUNTYNAME":"嘉義縣","TOWNNAME":"竹崎鄉","MARKTYPE":"991","Class":"1"},"geometry":{"x":120.55122907550225,"y":23.52312037754567}},{"attributes":{"OBJECTID":26093,"LANDMARKID":"1001000000052","LANDMARKCO":"103","LANDMARKNA":"嘉義縣竹崎鄉民代表會","LANDMARKAD":"1001014","ADDRESS":"嘉義縣竹崎鄉中山路59之1號","TEL":"05-2612489","COUNTYNAME":"嘉義縣","TOWNNAME":"竹崎鄉","MARKTYPE":"991","Class":"1"},"geometry":{"x":120.55107989062368,"y":23.522879946830084}},{"attributes":{"OBJECTID":26094,"LANDMARKID":"1001000000109","LANDMARKCO":"107","LANDMARKNA":"嘉義縣警察局竹崎分局","LANDMARKAD":"1001014","ADDRESS":"嘉義縣竹崎鄉竹崎村中山路72號","TEL":"05-2611089","COUNTYNAME":"嘉義縣","TOWNNAME":"竹崎鄉","MARKTYPE":"991","Class":"1"},"geometry":{"x":120.55079904394283,"y":23.523129136188128}},{"attributes":{"OBJECTID":26095,"LANDMARKID":"1001000000110","LANDMARKCO":"107","LANDMARKNA":"嘉義縣警察局中和派出所","LANDMARKAD":"1001014","ADDRESS":"嘉義縣竹崎鄉中和村奮起湖24號","TEL":"05-2561054","COUNTYNAME":"嘉義縣","TOWNNAME":"竹崎鄉","MARKTYPE":"991","Class":"1"},"geometry":{"x":120.69679710618567,"y":23.502191425829682}},{"attributes":{"OBJECTID":26096,"LANDMARKID":"1001000000111","LANDMARKCO":"107","LANDMARKNA":"嘉義縣警察局內埔派出所","LANDMARKAD":"1001014","ADDRESS":"嘉義縣竹崎鄉內埔村元興路112號","TEL":"05-2541040","COUNTYNAME":"嘉義縣","TOWNNAME":"竹崎鄉","MARKTYPE":"991","Class":"1"},"geometry":{"x":120.55932635165425,"y":23.485069639196553}},{"attributes":{"OBJECTID":26097,"LANDMARKID":"1001000000112","LANDMARKCO":"107","LANDMARKNA":"嘉義縣警察局鹿滿派出所","LANDMARKAD":"1001014","ADDRESS":"嘉義縣竹崎鄉鹿滿村鹿鳴路56號","TEL":"05-2611255","COUNTYNAME":"嘉義縣","TOWNNAME":"竹崎鄉","MARKTYPE":"991","Class":"1"},"geometry":{"x":120.53223954571246,"y":23.497951892385913}},{"attributes":{"OBJECTID":26098,"LANDMARKID":"1001000000113","LANDMARKCO":"107","LANDMARKNA":"嘉義縣警察局竹崎派出所","LANDMARKAD":"1001014","ADDRESS":"嘉義縣竹崎鄉竹崎村中山路72號","TEL":"05-2611336","COUNTYNAME":"嘉義縣","TOWNNAME":"竹崎鄉","MARKTYPE":"991","Class":"1"},"geometry":{"x":120.55079904394283,"y":23.523129136188128}},{"attributes":{"OBJECTID":26099,"LANDMARKID":"1001000000114","LANDMARKCO":"107","LANDMARKNA":"嘉義縣消防局竹崎消防分隊","LANDMARKAD":"1001014","ADDRESS":"嘉義縣竹崎鄉竹崎村舊車站79號","TEL":"05-2611257","COUNTYNAME":"嘉義縣","TOWNNAME":"竹崎鄉","MARKTYPE":"991","Class":"1"},"geometry":{"x":120.55559847151571,"y":23.526086951419231}},{"attributes":{"OBJECTID":26100,"LANDMARKID":"1001000000115","LANDMARKCO":"107","LANDMARKNA":"嘉義縣消防局奮起湖消防分隊","LANDMARKAD":"1001014","ADDRESS":"嘉義縣竹崎鄉中和村奮起湖215號之1","TEL":"05-2561746","COUNTYNAME":"嘉義縣","TOWNNAME":"竹崎鄉","MARKTYPE":"991","Class":"1"},"geometry":{"x":120.69829841180716,"y":23.501628916094084}},{"attributes":{"OBJECTID":26101,"LANDMARKID":"1001000000091","LANDMARKCO":"106","LANDMARKNA":"嘉義縣竹崎鄉戶政事務所","LANDMARKAD":"1001014","ADDRESS":"嘉義縣竹崎鄉竹崎村20鄰中山路70號","TEL":"05-2611072","COUNTYNAME":"嘉義縣","TOWNNAME":"竹崎鄉","MARKTYPE":"991","Class":"1"},"geometry":{"x":120.55096836408032,"y":23.523329626196169}},{"attributes":{"OBJECTID":26102,"LANDMARKID":"1001000000070","LANDMARKCO":"105","LANDMARKNA":"嘉義縣竹崎地政事務所","LANDMARKAD":"1001014","ADDRESS":"嘉義縣竹崎鄉和平村坑仔坪163號","TEL":"05-2614835","COUNTYNAME":"嘉義縣","TOWNNAME":"竹崎鄉","MARKTYPE":"991","Class":"1"},"geometry":{"x":120.54734348786725,"y":23.51363718195881}},{"attributes":{"OBJECTID":26103,"LANDMARKID":"1001000000097","LANDMARKCO":"107","LANDMARKNA":"嘉義縣警察局仁和派出所","LANDMARKAD":"1001014","ADDRESS":"嘉義縣竹崎鄉獅埜村火炭埔8號","TEL":"05-2110056","COUNTYNAME":"嘉義縣","TOWNNAME":"竹崎鄉","MARKTYPE":"991","Class":"1"},"geometry":{"x":120.49109735626014,"y":23.512076778483305}},{"attributes":{"OBJECTID":26104,"LANDMARKID":"1001000000098","LANDMARKCO":"107","LANDMARKNA":"嘉義縣警察局龍山派出所","LANDMARKAD":"1001014","ADDRESS":"嘉義縣竹崎鄉龍山村瓦庴埔5號","TEL":"05-2611256","COUNTYNAME":"嘉義縣","TOWNNAME":"竹崎鄉","MARKTYPE":"991","Class":"1"},"geometry":{"x":120.57553050823654,"y":23.518554696412128}},{"attributes":{"OBJECTID":26105,"LANDMARKID":"1001000000099","LANDMARKCO":"107","LANDMARKNA":"嘉義縣警察局復金派出所","LANDMARKAD":"1001014","ADDRESS":"嘉義縣竹崎鄉復金村8鄰52號","TEL":"05-2611254","COUNTYNAME":"嘉義縣","TOWNNAME":"竹崎鄉","MARKTYPE":"991","Class":"1"},"geometry":{"x":120.57016276573306,"y":23.525945069789447}},{"attributes":{"OBJECTID":26106,"LANDMARKID":"1001000000100","LANDMARKCO":"107","LANDMARKNA":"嘉義縣警察局仁壽派出所","LANDMARKAD":"1001014","ADDRESS":"嘉義縣竹崎鄉仁壽村2鄰30號","TEL":"05-2501454","COUNTYNAME":"嘉義縣","TOWNNAME":"竹崎鄉","MARKTYPE":"991","Class":"1"},"geometry":{"x":120.6448270864469,"y":23.532182328785936}},{"attributes":{"OBJECTID":26107,"LANDMARKID":"1001000000460","LANDMARKCO":"204","LANDMARKNA":"嘉義縣立圖書館竹崎分館","LANDMARKAD":"1001014","ADDRESS":"嘉義縣竹崎鄉和平村坑仔坪163號4樓","TEL":" ","COUNTYNAME":"嘉義縣","TOWNNAME":"竹崎鄉","MARKTYPE":"992","Class":"2"},"geometry":{"x":120.55131269235434,"y":23.523420988855488}},{"attributes":{"OBJECTID":26108,"LANDMARKID":"1001000000269","LANDMARKCO":"203","LANDMARKNA":"縣立文光國小","LANDMARKAD":"1001014","ADDRESS":"嘉義縣竹崎鄉緞繻村外埔5號","TEL":"05-2630317","COUNTYNAME":"嘉義縣","TOWNNAME":"竹崎鄉","MARKTYPE":"992","Class":"2"},"geometry":{"x":120.59376813521099,"y":23.523935083802382}},{"attributes":{"OBJECTID":26109,"LANDMARKID":"1001000000270","LANDMARKCO":"203","LANDMARKNA":"縣立中興國小","LANDMARKAD":"1001014","ADDRESS":"嘉義縣竹崎鄉中和村石棹10號","TEL":"05-2561021","COUNTYNAME":"嘉義縣","TOWNNAME":"竹崎鄉","MARKTYPE":"992","Class":"2"},"geometry":{"x":120.69703260763632,"y":23.477664964244585}},{"attributes":{"OBJECTID":26110,"LANDMARKID":"1001000000242","LANDMARKCO":"202","LANDMARKNA":"縣立竹崎高中","LANDMARKAD":"1001014","ADDRESS":"嘉義縣竹崎鄉竹崎村文化路23號","TEL":"05-2611006","COUNTYNAME":"嘉義縣","TOWNNAME":"竹崎鄉","MARKTYPE":"992","Class":"2"},"geometry":{"x":120.55311549406122,"y":23.521407797657076}},{"attributes":{"OBJECTID":26111,"LANDMARKID":"1001000000243","LANDMARKCO":"203","LANDMARKNA":"縣立昇平國中","LANDMARKAD":"1001014","ADDRESS":"嘉義縣竹崎鄉內埔村元興路138號","TEL":"05-2541041","COUNTYNAME":"嘉義縣","TOWNNAME":"竹崎鄉","MARKTYPE":"992","Class":"2"},"geometry":{"x":120.55744792034299,"y":23.484592212942019}},{"attributes":{"OBJECTID":26112,"LANDMARKID":"1001000000244","LANDMARKCO":"203","LANDMARKNA":"縣立竹崎國中","LANDMARKAD":"1001014","ADDRESS":"嘉義縣竹崎鄉竹崎村文化路23號","TEL":"05-2611008","COUNTYNAME":"嘉義縣","TOWNNAME":"竹崎鄉","MARKTYPE":"992","Class":"2"},"geometry":{"x":120.55311549406122,"y":23.521407797657076}},{"attributes":{"OBJECTID":26113,"LANDMARKID":"1001000000245","LANDMARKCO":"203","LANDMARKNA":"縣立內埔國小","LANDMARKAD":"1001014","ADDRESS":"嘉義縣竹崎鄉內埔村元興路2號","TEL":"05-2541005","COUNTYNAME":"嘉義縣","TOWNNAME":"竹崎鄉","MARKTYPE":"992","Class":"2"},"geometry":{"x":120.5620951656858,"y":23.485439595874581}},{"attributes":{"OBJECTID":26114,"LANDMARKID":"1001000000246","LANDMARKCO":"203","LANDMARKNA":"縣立竹崎國小","LANDMARKAD":"1001014","ADDRESS":"嘉義縣竹崎鄉竹崎村文化路28號","TEL":"05-2615511","COUNTYNAME":"嘉義縣","TOWNNAME":"竹崎鄉","MARKTYPE":"992","Class":"2"},"geometry":{"x":120.55277832911987,"y":23.520566830223082}},{"attributes":{"OBJECTID":26115,"LANDMARKID":"1001000000247","LANDMARKCO":"203","LANDMARKNA":"縣立培英國小","LANDMARKAD":"1001014","ADDRESS":"嘉義縣竹崎鄉茄苳仔24號","TEL":"05-2581033","COUNTYNAME":"嘉義縣","TOWNNAME":"竹崎鄉","MARKTYPE":"992","Class":"2"},"geometry":{"x":120.65591621991106,"y":23.48560762536906}},{"attributes":{"OBJECTID":26116,"LANDMARKID":"1001000000248","LANDMARKCO":"203","LANDMARKNA":"縣立鹿滿國小","LANDMARKAD":"1001014","ADDRESS":"嘉義縣竹崎鄉鹿滿村鹿鳴路2號","TEL":"05-2611472","COUNTYNAME":"嘉義縣","TOWNNAME":"竹崎鄉","MARKTYPE":"992","Class":"2"},"geometry":{"x":120.53438633224764,"y":23.49886997916272}},{"attributes":{"OBJECTID":26117,"LANDMARKID":"1001000000249","LANDMARKCO":"203","LANDMARKNA":"縣立中和國小","LANDMARKAD":"1001014","ADDRESS":"嘉義縣竹崎鄉中和村奮起湖215號","TEL":"05-2561013","COUNTYNAME":"嘉義縣","TOWNNAME":"竹崎鄉","MARKTYPE":"992","Class":"2"},"geometry":{"x":120.69829841180716,"y":23.501628916094084}},{"attributes":{"OBJECTID":26118,"LANDMARKID":"1001000000250","LANDMARKCO":"203","LANDMARKNA":"縣立龍山國小金獅分校","LANDMARKAD":"1001014","ADDRESS":"嘉義縣竹崎鄉東湖仔81號","TEL":"05-2566217","COUNTYNAME":"嘉義縣","TOWNNAME":"竹崎鄉","MARKTYPE":"992","Class":"2"},"geometry":{"x":120.61331037566703,"y":23.520042305840526}},{"attributes":{"OBJECTID":26119,"LANDMARKID":"1001000000251","LANDMARKCO":"203","LANDMARKNA":"縣立圓崇國小","LANDMARKAD":"1001014","ADDRESS":"嘉義縣竹崎鄉灣橋村387巷28號","TEL":"05-2790508","COUNTYNAME":"嘉義縣","TOWNNAME":"竹崎鄉","MARKTYPE":"992","Class":"2"},"geometry":{"x":120.50400441542369,"y":23.490352975073264}},{"attributes":{"OBJECTID":26120,"LANDMARKID":"1001000000252","LANDMARKCO":"203","LANDMARKNA":"縣立光華國小","LANDMARKAD":"1001014","ADDRESS":"嘉義縣竹崎鄉光華村4鄰10號","TEL":"05-2561074","COUNTYNAME":"嘉義縣","TOWNNAME":"竹崎鄉","MARKTYPE":"992","Class":"2"},"geometry":{"x":120.67028488328705,"y":23.472731166691357}},{"attributes":{"OBJECTID":26121,"LANDMARKID":"1001000000253","LANDMARKCO":"203","LANDMARKNA":"縣立沙坑國小","LANDMARKAD":"1001014","ADDRESS":"嘉義縣竹崎鄉沙坑村57之2號","TEL":"05-2611244","COUNTYNAME":"嘉義縣","TOWNNAME":"竹崎鄉","MARKTYPE":"992","Class":"2"},"geometry":{"x":120.52040011000832,"y":23.530586516425718}},{"attributes":{"OBJECTID":26122,"LANDMARKID":"1001000000254","LANDMARKCO":"203","LANDMARKNA":"縣立桃源國小","LANDMARKAD":"1001014","ADDRESS":"嘉義縣竹崎鄉桃源村7鄰78號","TEL":"05-2541077","COUNTYNAME":"嘉義縣","TOWNNAME":"竹崎鄉","MARKTYPE":"992","Class":"2"},"geometry":{"x":120.58594557601113,"y":23.473528521907383}},{"attributes":{"OBJECTID":26123,"LANDMARKID":"1001000000255","LANDMARKCO":"203","LANDMARKNA":"縣立義仁國小","LANDMARKAD":"1001014","ADDRESS":"嘉義縣竹崎鄉義和村22號","TEL":"05-2110534","COUNTYNAME":"嘉義縣","TOWNNAME":"竹崎鄉","MARKTYPE":"992","Class":"2"},"geometry":{"x":120.49951961743133,"y":23.507860195117317}},{"attributes":{"OBJECTID":26124,"LANDMARKID":"1001000000256","LANDMARKCO":"203","LANDMARKNA":"縣立龍山國小","LANDMARKAD":"1001014","ADDRESS":"嘉義縣竹崎鄉龍山村水道70號","TEL":"05-2612843","COUNTYNAME":"嘉義縣","TOWNNAME":"竹崎鄉","MARKTYPE":"992","Class":"2"},"geometry":{"x":120.59128891256567,"y":23.518240527058477}},{"attributes":{"OBJECTID":26125,"LANDMARKID":"1001000000257","LANDMARKCO":"203","LANDMARKNA":"縣立義仁國小獅埜分校","LANDMARKAD":"1001014","ADDRESS":"嘉義縣竹崎鄉獅埜村8鄰8之5號","TEL":"05-2110340","COUNTYNAME":"嘉義縣","TOWNNAME":"竹崎鄉","MARKTYPE":"992","Class":"2"},"geometry":{"x":120.50607124437211,"y":23.523948585977276}},{"attributes":{"OBJECTID":26126,"LANDMARKID":"1001000000258","LANDMARKCO":"203","LANDMARKNA":"縣立仁壽國小","LANDMARKAD":"1001014","ADDRESS":"嘉義縣竹崎鄉","TEL":" ","COUNTYNAME":"嘉義縣","TOWNNAME":"竹崎鄉","MARKTYPE":"992","Class":"2"},"geometry":{"x":120.64276179075648,"y":23.53335313598026}},{"attributes":{"OBJECTID":26127,"LANDMARKID":"1001000000259","LANDMARKCO":"203","LANDMARKNA":"縣立仁壽國小仁光分校","LANDMARKAD":"1001014","ADDRESS":"嘉義縣竹崎鄉","TEL":" ","COUNTYNAME":"嘉義縣","TOWNNAME":"竹崎鄉","MARKTYPE":"992","Class":"2"},"geometry":{"x":120.66009081674532,"y":23.503955379361408}},{"attributes":{"OBJECTID":26128,"LANDMARKID":"1001000000260","LANDMARKCO":"203","LANDMARKNA":"縣立龍山國小文峰分校","LANDMARKAD":"1001014","ADDRESS":"嘉義縣竹崎鄉","TEL":" ","COUNTYNAME":"嘉義縣","TOWNNAME":"竹崎鄉","MARKTYPE":"992","Class":"2"},"geometry":{"x":120.62495306726015,"y":23.501800598854402}},{"attributes":{"OBJECTID":26129,"LANDMARKID":"1001000000498","LANDMARKCO":"303","LANDMARKNA":"觀音瀑布停車場","LANDMARKAD":"1001014","ADDRESS":"嘉義縣竹崎鄉","TEL":" ","COUNTYNAME":"嘉義縣","TOWNNAME":"竹崎鄉","MARKTYPE":"993","Class":"303"},"geometry":{"x":120.60152794107961,"y":23.509677070577283}},{"attributes":{"OBJECTID":26130,"LANDMARKID":"1001000000499","LANDMARKCO":"303","LANDMARKNA":"奮起湖第三停車場","LANDMARKAD":"1001014","ADDRESS":"嘉義縣竹崎鄉","TEL":" ","COUNTYNAME":"嘉義縣","TOWNNAME":"竹崎鄉","MARKTYPE":"993","Class":"303"},"geometry":{"x":120.69777880709475,"y":23.503352521108173}},{"attributes":{"OBJECTID":26131,"LANDMARKID":"1001000000500","LANDMARKCO":"303","LANDMARKNA":"奮起湖第二停車場","LANDMARKAD":"1001014","ADDRESS":"嘉義縣竹崎鄉","TEL":" ","COUNTYNAME":"嘉義縣","TOWNNAME":"竹崎鄉","MARKTYPE":"993","Class":"303"},"geometry":{"x":120.69479693409306,"y":23.506003854225256}},{"attributes":{"OBJECTID":26132,"LANDMARKID":"1001000000501","LANDMARKCO":"303","LANDMARKNA":"奮起湖停車場","LANDMARKAD":"1001014","ADDRESS":"嘉義縣竹崎鄉","TEL":" ","COUNTYNAME":"嘉義縣","TOWNNAME":"竹崎鄉","MARKTYPE":"993","Class":"303"},"geometry":{"x":120.69373936270358,"y":23.505322744545186}},{"attributes":{"OBJECTID":26133,"LANDMARKID":"1001000000477","LANDMARKCO":"301","LANDMARKNA":"竹崎火車站","LANDMARKAD":"1001014","ADDRESS":"嘉義縣竹崎鄉","TEL":" ","COUNTYNAME":"嘉義縣","TOWNNAME":"竹崎鄉","MARKTYPE":"993","Class":"301"},"geometry":{"x":120.55347608940232,"y":23.525790378273641}},{"attributes":{"OBJECTID":26134,"LANDMARKID":"1001000000478","LANDMARKCO":"301","LANDMARKNA":"獨立山火車站","LANDMARKAD":"1001014","ADDRESS":"嘉義縣竹崎鄉","TEL":" ","COUNTYNAME":"嘉義縣","TOWNNAME":"竹崎鄉","MARKTYPE":"993","Class":"301"},"geometry":{"x":120.60733078353907,"y":23.538699190876418}},{"attributes":{"OBJECTID":26135,"LANDMARKID":"1001000000479","LANDMARKCO":"301","LANDMARKNA":"樟腦寮火車站","LANDMARKAD":"1001014","ADDRESS":"嘉義縣竹崎鄉","TEL":" ","COUNTYNAME":"嘉義縣","TOWNNAME":"竹崎鄉","MARKTYPE":"993","Class":"301"},"geometry":{"x":120.60236760125636,"y":23.532819833336816}},{"attributes":{"OBJECTID":26136,"LANDMARKID":"1001000000480","LANDMARKCO":"301","LANDMARKNA":"交力坪火車站","LANDMARKAD":"1001014","ADDRESS":"嘉義縣竹崎鄉","TEL":" ","COUNTYNAME":"嘉義縣","TOWNNAME":"竹崎鄉","MARKTYPE":"993","Class":"301"},"geometry":{"x":120.64381947771757,"y":23.531642643236172}},{"attributes":{"OBJECTID":26137,"LANDMARKID":"1001000000481","LANDMARKCO":"301","LANDMARKNA":"水社寮火車站","LANDMARKAD":"1001014","ADDRESS":"嘉義縣竹崎鄉","TEL":" ","COUNTYNAME":"嘉義縣","TOWNNAME":"竹崎鄉","MARKTYPE":"993","Class":"301"},"geometry":{"x":120.65979435006606,"y":23.504349850076757}},{"attributes":{"OBJECTID":26138,"LANDMARKID":"1001000000482","LANDMARKCO":"301","LANDMARKNA":"奮起湖火車站","LANDMARKAD":"1001014","ADDRESS":"嘉義縣竹崎鄉","TEL":" ","COUNTYNAME":"嘉義縣","TOWNNAME":"竹崎鄉","MARKTYPE":"993","Class":"301"},"geometry":{"x":120.69497656392349,"y":23.504734415039348}},{"attributes":{"OBJECTID":26139,"LANDMARKID":"1001000000570","LANDMARKCO":"402","LANDMARKNA":"中華電信-竹崎服務中心","LANDMARKAD":"1001014","ADDRESS":"嘉義縣竹崎鄉和平村坑仔坪160號","TEL":"(05)244-3465","COUNTYNAME":"嘉義縣","TOWNNAME":"竹崎鄉","MARKTYPE":"994","Class":"4"},"geometry":{"x":120.54827561644035,"y":23.516005421894359}},{"attributes":{"OBJECTID":26140,"LANDMARKID":"1001000000896","LANDMARKCO":"604","LANDMARKNA":"雅竹居民宿","LANDMARKAD":"1001014","ADDRESS":"嘉義縣竹崎鄉中和村石卓6號","TEL":"05-2501006","COUNTYNAME":"嘉義縣","TOWNNAME":"竹崎鄉","MARKTYPE":"996","Class":"6"},"geometry":{"x":120.70118379298448,"y":23.478313343480604}},{"attributes":{"OBJECTID":26141,"LANDMARKID":"1001000000897","LANDMARKCO":"604","LANDMARKNA":"名陽園民宿","LANDMARKAD":"1001014","ADDRESS":"嘉義縣竹崎鄉中和村石卓15號","TEL":"05-2561305","COUNTYNAME":"嘉義縣","TOWNNAME":"竹崎鄉","MARKTYPE":"996","Class":"6"},"geometry":{"x":120.70252841013431,"y":23.476154914926088}},{"attributes":{"OBJECTID":26142,"LANDMARKID":"1001000000898","LANDMARKCO":"604","LANDMARKNA":"湘庭民宿","LANDMARKAD":"1001014","ADDRESS":"嘉義縣竹崎鄉中和村石卓13-1號","TEL":"05-2561125","COUNTYNAME":"嘉義縣","TOWNNAME":"竹崎鄉","MARKTYPE":"996","Class":"6"},"geometry":{"x":120.70103512845483,"y":23.476718058593548}},{"attributes":{"OBJECTID":26143,"LANDMARKID":"1001000000899","LANDMARKCO":"604","LANDMARKNA":"茗苑民宿","LANDMARKAD":"1001014","ADDRESS":"嘉義縣竹崎鄉中和村石卓13號","TEL":"05-2561637","COUNTYNAME":"嘉義縣","TOWNNAME":"竹崎鄉","MARKTYPE":"996","Class":"6"},"geometry":{"x":120.70116918104327,"y":23.476695314995556}},{"attributes":{"OBJECTID":26144,"LANDMARKID":"1001000000900","LANDMARKCO":"604","LANDMARKNA":"石園民宿","LANDMARKAD":"1001014","ADDRESS":"嘉義縣竹崎鄉中和村石卓15-1號","TEL":"05-2562333","COUNTYNAME":"嘉義縣","TOWNNAME":"竹崎鄉","MARKTYPE":"996","Class":"6"},"geometry":{"x":120.70306546248037,"y":23.476133617994734}},{"attributes":{"OBJECTID":26145,"LANDMARKID":"1001000000901","LANDMARKCO":"604","LANDMARKNA":"長青居","LANDMARKAD":"1001014","ADDRESS":"嘉義縣竹崎鄉中和村石卓16號","TEL":"05-2561603","COUNTYNAME":"嘉義縣","TOWNNAME":"竹崎鄉","MARKTYPE":"996","Class":"6"},"geometry":{"x":120.70318408250404,"y":23.475856844419457}},{"attributes":{"OBJECTID":26146,"LANDMARKID":"1001000000902","LANDMARKCO":"604","LANDMARKNA":"青葉農產民宿","LANDMARKAD":"1001014","ADDRESS":"嘉義縣竹崎鄉中和村石卓27-1號","TEL":"05-2561598","COUNTYNAME":"嘉義縣","TOWNNAME":"竹崎鄉","MARKTYPE":"996","Class":"6"},"geometry":{"x":120.69476883688772,"y":23.474466704767131}},{"attributes":{"OBJECTID":26147,"LANDMARKID":"1001000000903","LANDMARKCO":"604","LANDMARKNA":"天一民宿","LANDMARKAD":"1001014","ADDRESS":"嘉義縣竹崎鄉中和村石卓25-2號","TEL":"05-2562629","COUNTYNAME":"嘉義縣","TOWNNAME":"竹崎鄉","MARKTYPE":"996","Class":"6"},"geometry":{"x":120.69456576916265,"y":23.477706306754708}},{"attributes":{"OBJECTID":26148,"LANDMARKID":"1001000000904","LANDMARKCO":"604","LANDMARKNA":"源發製茶民宿","LANDMARKAD":"1001014","ADDRESS":"嘉義縣阿里山鄉樂野村樂野118-2號","TEL":"05-2561212","COUNTYNAME":"嘉義縣","TOWNNAME":"竹崎鄉","MARKTYPE":"996","Class":"6"},"geometry":{"x":120.6788807628884,"y":23.460912344541828}},{"attributes":{"OBJECTID":26149,"LANDMARKID":"1001000000905","LANDMARKCO":"604","LANDMARKNA":"湘泉休閒民宿","LANDMARKAD":"1001014","ADDRESS":"嘉義縣竹崎鄉光華村9號","TEL":"05-2561643","COUNTYNAME":"嘉義縣","TOWNNAME":"竹崎鄉","MARKTYPE":"996","Class":"6"},"geometry":{"x":120.68077796822168,"y":23.486124525182024}},{"attributes":{"OBJECTID":26150,"LANDMARKID":"1001000000906","LANDMARKCO":"604","LANDMARKNA":"雲龍小築","LANDMARKAD":"1001014","ADDRESS":"嘉義縣竹崎鄉中和村石卓1號","TEL":"05-2562216","COUNTYNAME":"嘉義縣","TOWNNAME":"竹崎鄉","MARKTYPE":"996","Class":"6"},"geometry":{"x":120.70205881171324,"y":23.486640018686977}},{"attributes":{"OBJECTID":26151,"LANDMARKID":"1001000000907","LANDMARKCO":"604","LANDMARKNA":"竺園","LANDMARKAD":"1001014","ADDRESS":"嘉義縣竹崎鄉中和村石卓2-7號","TEL":"05-2562565","COUNTYNAME":"嘉義縣","TOWNNAME":"竹崎鄉","MARKTYPE":"996","Class":"6"},"geometry":{"x":120.69904322013895,"y":23.481780596092658}},{"attributes":{"OBJECTID":26152,"LANDMARKID":"1001000000908","LANDMARKCO":"604","LANDMARKNA":"禾自然","LANDMARKAD":"1001014","ADDRESS":"嘉義縣竹崎鄉中和村石卓2號","TEL":"05-2561657","COUNTYNAME":"嘉義縣","TOWNNAME":"竹崎鄉","MARKTYPE":"996","Class":"6"},"geometry":{"x":120.70067130359924,"y":23.482636360685632}},{"attributes":{"OBJECTID":26153,"LANDMARKID":"1001000000909","LANDMARKCO":"604","LANDMARKNA":"耀崧民宿","LANDMARKAD":"1001014","ADDRESS":"嘉義縣竹崎鄉中和村石卓3號","TEL":"05-2561666","COUNTYNAME":"嘉義縣","TOWNNAME":"竹崎鄉","MARKTYPE":"996","Class":"6"},"geometry":{"x":120.70446949676207,"y":23.479350286085495}},{"attributes":{"OBJECTID":26154,"LANDMARKID":"1001000000910","LANDMARKCO":"604","LANDMARKNA":"淵明居山庄","LANDMARKAD":"1001014","ADDRESS":"嘉義縣竹崎鄉中和村石卓4號","TEL":"05-2561066","COUNTYNAME":"嘉義縣","TOWNNAME":"竹崎鄉","MARKTYPE":"996","Class":"6"},"geometry":{"x":120.70465252667712,"y":23.479337632287233}},{"attributes":{"OBJECTID":26155,"LANDMARKID":"1001000000911","LANDMARKCO":"604","LANDMARKNA":"茶香花園民宿","LANDMARKAD":"1001014","ADDRESS":"嘉義縣番路鄉公田村1鄰龍頭9號","TEL":"05-2586396","COUNTYNAME":"嘉義縣","TOWNNAME":"竹崎鄉","MARKTYPE":"996","Class":"6"},"geometry":{"x":120.67787578648877,"y":23.455092272051321}},{"attributes":{"OBJECTID":26156,"LANDMARKID":"1001000000845","LANDMARKCO":"603","LANDMARKNA":"六福賓館","LANDMARKAD":"1001014","ADDRESS":"嘉義縣竹崎鄉中和村奮起湖185號之1","TEL":"05-2561776","COUNTYNAME":"嘉義縣","TOWNNAME":"竹崎鄉","MARKTYPE":"996","Class":"6"},"geometry":{"x":120.69818436655564,"y":23.503494936832876}},{"attributes":{"OBJECTID":26157,"LANDMARKID":"1001000000846","LANDMARKCO":"603","LANDMARKNA":"么妹山莊","LANDMARKAD":"1001014","ADDRESS":"嘉義縣竹崎鄉中和村奮起湖218號","TEL":"05-2561363","COUNTYNAME":"嘉義縣","TOWNNAME":"竹崎鄉","MARKTYPE":"996","Class":"6"},"geometry":{"x":120.70461869719678,"y":23.502913571361898}},{"attributes":{"OBJECTID":26158,"LANDMARKID":"1001000000847","LANDMARKCO":"603","LANDMARKNA":"龍雲山莊","LANDMARKAD":"1001014","ADDRESS":"嘉義縣竹崎鄉中和村石棹1號1-2樓","TEL":"05-2561016","COUNTYNAME":"嘉義縣","TOWNNAME":"竹崎鄉","MARKTYPE":"996","Class":"6"},"geometry":{"x":120.70324726752575,"y":23.48801222065179}},{"attributes":{"OBJECTID":26159,"LANDMARKID":"1001000000848","LANDMARKCO":"603","LANDMARKNA":"雅湖山莊","LANDMARKAD":"1001014","ADDRESS":"嘉義縣竹崎鄉中和村奮起湖112號之1","TEL":"05-2561097","COUNTYNAME":"嘉義縣","TOWNNAME":"竹崎鄉","MARKTYPE":"996","Class":"6"},"geometry":{"x":120.69447672341697,"y":23.504456276503195}},{"attributes":{"OBJECTID":26160,"LANDMARKID":"1001000000849","LANDMARKCO":"603","LANDMARKNA":"白雲山莊","LANDMARKAD":"1001014","ADDRESS":"嘉義縣竹崎鄉中和村奮起湖148號","TEL":"05-2561012","COUNTYNAME":"嘉義縣","TOWNNAME":"竹崎鄉","MARKTYPE":"996","Class":"6"},"geometry":{"x":120.69492372601043,"y":23.505198497733002}},{"attributes":{"OBJECTID":26161,"LANDMARKID":"1001000000850","LANDMARKCO":"603","LANDMARKNA":"奮起湖大飯店","LANDMARKAD":"1001014","ADDRESS":"嘉義縣竹崎鄉中和村奮起湖178-1號","TEL":"05-2561888","COUNTYNAME":"嘉義縣","TOWNNAME":"竹崎鄉","MARKTYPE":"996","Class":"6"},"geometry":{"x":120.69547189520239,"y":23.5052367633843}},{"attributes":{"OBJECTID":26162,"LANDMARKID":"1001000000851","LANDMARKCO":"603","LANDMARKNA":"群峰山莊","LANDMARKAD":"1001014","ADDRESS":"嘉義縣竹崎鄉中和村奮起湖190號","TEL":"05-2561326","COUNTYNAME":"嘉義縣","TOWNNAME":"竹崎鄉","MARKTYPE":"996","Class":"6"},"geometry":{"x":120.6968924774153,"y":23.505070732268898}},{"attributes":{"OBJECTID":26163,"LANDMARKID":"1001000000852","LANDMARKCO":"603","LANDMARKNA":"水社寮驛棧","LANDMARKAD":"1001014","ADDRESS":"嘉義縣竹崎鄉仁壽村水社寮17號","TEL":"05-2501887","COUNTYNAME":"嘉義縣","TOWNNAME":"竹崎鄉","MARKTYPE":"996","Class":"6"},"geometry":{"x":120.65960667348909,"y":23.504802093802425}},{"attributes":{"OBJECTID":26164,"LANDMARKID":"1001000000893","LANDMARKCO":"604","LANDMARKNA":"竹耕園民宿","LANDMARKAD":"1001014","ADDRESS":"嘉義縣竹崎鄉灣橋村田尾20號","TEL":"05-2790565","COUNTYNAME":"嘉義縣","TOWNNAME":"竹崎鄉","MARKTYPE":"996","Class":"6"},"geometry":{"x":120.48600596507227,"y":23.500151209683668}},{"attributes":{"OBJECTID":26165,"LANDMARKID":"1001000000894","LANDMARKCO":"604","LANDMARKNA":"綠野仙蹤休閒民宿","LANDMARKAD":"1001014","ADDRESS":"嘉義縣竹崎鄉光華村2鄰頂笨仔22-1號","TEL":"05-2561929","COUNTYNAME":"嘉義縣","TOWNNAME":"竹崎鄉","MARKTYPE":"996","Class":"6"},"geometry":{"x":120.67419470954498,"y":23.478701600935345}},{"attributes":{"OBJECTID":26166,"LANDMARKID":"1001000000895","LANDMARKCO":"604","LANDMARKNA":"東鈺民宿","LANDMARKAD":"1001014","ADDRESS":"嘉義縣竹崎鄉中和村石棹4-1號","TEL":"05-2561758","COUNTYNAME":"嘉義縣","TOWNNAME":"竹崎鄉","MARKTYPE":"996","Class":"6"},"geometry":{"x":120.70383267976291,"y":23.479914449680049}},{"attributes":{"OBJECTID":26167,"LANDMARKID":"1001000000801","LANDMARKCO":"505","LANDMARKNA":"畚箕湖文史工作室","LANDMARKAD":"1001014","ADDRESS":"嘉義縣竹崎鄉中和村奮起湖141號","TEL":"05-2562388","COUNTYNAME":"嘉義縣","TOWNNAME":"竹崎鄉","MARKTYPE":"995","Class":"5"},"geometry":{"x":120.69466022568727,"y":23.504773689238863}},{"attributes":{"OBJECTID":26168,"LANDMARKID":"1001000000793","LANDMARKCO":"503","LANDMARKNA":"桃源瀑布","LANDMARKAD":"1001014","ADDRESS":"嘉義縣竹崎鄉","TEL":" ","COUNTYNAME":"嘉義縣","TOWNNAME":"竹崎鄉","MARKTYPE":"995","Class":"5"},"geometry":{"x":120.58688399090097,"y":23.477002069395404}},{"attributes":{"OBJECTID":26169,"LANDMARKID":"1001000000794","LANDMARKCO":"503","LANDMARKNA":"觀音瀑布風景區","LANDMARKAD":"1001014","ADDRESS":"嘉義縣竹崎鄉文峰村溪心寮1號","TEL":" ","COUNTYNAME":"嘉義縣","TOWNNAME":"竹崎鄉","MARKTYPE":"995","Class":"5"},"geometry":{"x":120.61812837053935,"y":23.506406979848137}},{"attributes":{"OBJECTID":26170,"LANDMARKID":"1001000000612","LANDMARKCO":"405","LANDMARKNA":"中油加油站-南新站","LANDMARKAD":"1001001","ADDRESS":"嘉義縣太保市南新村中山路一段97號","TEL":"05-2379628","COUNTYNAME":"嘉義縣","TOWNNAME":"太保市","MARKTYPE":"994","Class":"4"},"geometry":{"x":120.38621170902643,"y":23.496048079722566}},{"attributes":{"OBJECTID":26171,"LANDMARKID":"1001000000613","LANDMARKCO":"405","LANDMARKNA":"中油加油站-南亞站站","LANDMARKAD":"1001001","ADDRESS":"嘉義縣太保市南新里北港路二段109號","TEL":"05-2376388","COUNTYNAME":"嘉義縣","TOWNNAME":"太保市","MARKTYPE":"994","Class":"4"},"geometry":{"x":120.37989770880047,"y":23.496776162499913}},{"attributes":{"OBJECTID":26172,"LANDMARKID":"1001000000614","LANDMARKCO":"405","LANDMARKNA":"中油加油站-太保站(中油直營)","LANDMARKAD":"1001001","ADDRESS":"嘉義縣太保市春珠里春珠178號","TEL":"05-3711635","COUNTYNAME":"嘉義縣","TOWNNAME":"太保市","MARKTYPE":"994","Class":"4"},"geometry":{"x":120.3390894036242,"y":23.452555690816833}},{"attributes":{"OBJECTID":26173,"LANDMARKID":"1001000000615","LANDMARKCO":"405","LANDMARKNA":"台糖加油站-嘉保站(中油)","LANDMARKAD":"1001001","ADDRESS":"嘉義縣太保市嘉朴東路一段116號","TEL":"05-2382331","COUNTYNAME":"嘉義縣","TOWNNAME":"太保市","MARKTYPE":"994","Class":"4"},"geometry":{"x":120.29880836803447,"y":23.459043932653238}},{"attributes":{"OBJECTID":26174,"LANDMARKID":"1001000000616","LANDMARKCO":"405","LANDMARKNA":"中油加油站-新埤站","LANDMARKAD":"1001001","ADDRESS":"嘉義縣太保市舊埤里新埤7號之21","TEL":"05-3612407","COUNTYNAME":"嘉義縣","TOWNNAME":"太保市","MARKTYPE":"994","Class":"4"},"geometry":{"x":120.332857526564,"y":23.491168907172128}},{"attributes":{"OBJECTID":26175,"LANDMARKID":"1001000000617","LANDMARKCO":"405","LANDMARKNA":"中油加油站-嘉保站(中油直營)","LANDMARKAD":"1001001","ADDRESS":"嘉義縣太保市安仁里嘉朴東路1段116號","TEL":"05-3623558","COUNTYNAME":"嘉義縣","TOWNNAME":"太保市","MARKTYPE":"994","Class":"4"},"geometry":{"x":120.29885748250872,"y":23.459168468607999}},{"attributes":{"OBJECTID":26176,"LANDMARKID":"1001000000618","LANDMARKCO":"405","LANDMARKNA":"台糖加油站-祥和站(中油)","LANDMARKAD":"1001001","ADDRESS":"嘉義縣太保市嘉朴東路一段21號","TEL":"05-3623706","COUNTYNAME":"嘉義縣","TOWNNAME":"太保市","MARKTYPE":"994","Class":"4"},"geometry":{"x":120.29306777344509,"y":23.460585551209597}},{"attributes":{"OBJECTID":26177,"LANDMARKID":"1001000000722","LANDMARKCO":"408","LANDMARKNA":"郵局-太保南新郵局","LANDMARKAD":"1001001","ADDRESS":"嘉義縣太保市北新里中山路1段470號","TEL":"(05)2372-244","COUNTYNAME":"嘉義縣","TOWNNAME":"太保市","MARKTYPE":"994","Class":"4"},"geometry":{"x":120.37932494840479,"y":23.498513969785517}},{"attributes":{"OBJECTID":26178,"LANDMARKID":"1001000000723","LANDMARKCO":"408","LANDMARKNA":"郵局-太保郵局","LANDMARKAD":"1001001","ADDRESS":"嘉義縣太保市後潭里439之2號","TEL":"(05)3711-040","COUNTYNAME":"嘉義縣","TOWNNAME":"太保市","MARKTYPE":"994","Class":"4"},"geometry":{"x":120.34079830622609,"y":23.452759148317003}},{"attributes":{"OBJECTID":26179,"LANDMARKID":"1001000000724","LANDMARKCO":"408","LANDMARKNA":"郵局-太保嘉太郵局","LANDMARKAD":"1001001","ADDRESS":"嘉義縣太保市嘉太工業區中興路1號","TEL":"(05)2381-562","COUNTYNAME":"嘉義縣","TOWNNAME":"太保市","MARKTYPE":"994","Class":"4"},"geometry":{"x":120.3627797362354,"y":23.508595905990489}},{"attributes":{"OBJECTID":26180,"LANDMARKID":"1001000000773","LANDMARKCO":"409","LANDMARKNA":"嘉義縣太保市農會","LANDMARKAD":"1001001","ADDRESS":"嘉義縣太保市太保里58號","TEL":"05-3711101-5","COUNTYNAME":"嘉義縣","TOWNNAME":"太保市","MARKTYPE":"994","Class":"4"},"geometry":{"x":120.33267368476241,"y":23.459338378709752}},{"attributes":{"OBJECTID":26181,"LANDMARKID":"1001000000715","LANDMARKCO":"406","LANDMARKNA":"農村文物公園","LANDMARKAD":"1001001","ADDRESS":"嘉義縣太保市","TEL":" ","COUNTYNAME":"嘉義縣","TOWNNAME":"太保市","MARKTYPE":"994","Class":"4"},"geometry":{"x":120.38751221416619,"y":23.496885896723938}},{"attributes":{"OBJECTID":26182,"LANDMARKID":"1001000000619","LANDMARKCO":"405","LANDMARKNA":"福懋加油站-南亞站(台塑)","LANDMARKAD":"1001001","ADDRESS":"嘉義縣太保市北港路二段203-1號","TEL":"05-2376725","COUNTYNAME":"嘉義縣","TOWNNAME":"太保市","MARKTYPE":"994","Class":"4"},"geometry":{"x":120.37590550673036,"y":23.497474339205198}},{"attributes":{"OBJECTID":26183,"LANDMARKID":"1001000000620","LANDMARKCO":"405","LANDMARKNA":"福懋加油站-太保站(台塑)","LANDMARKAD":"1001001","ADDRESS":"嘉義縣太保市春珠里8鄰春珠170號","TEL":"05-3717540","COUNTYNAME":"嘉義縣","TOWNNAME":"太保市","MARKTYPE":"994","Class":"4"},"geometry":{"x":120.33646767745915,"y":23.453032376428034}},{"attributes":{"OBJECTID":26184,"LANDMARKID":"1001000000621","LANDMARKCO":"405","LANDMARKNA":"台亞加油站-嘉太站（台塑）","LANDMARKAD":"1001001","ADDRESS":"嘉義縣太保市北港路二段701號","TEL":"(05)238-6363","COUNTYNAME":"嘉義縣","TOWNNAME":"太保市","MARKTYPE":"994","Class":"4"},"geometry":{"x":120.36489974831329,"y":23.5056060275551}},{"attributes":{"OBJECTID":26185,"LANDMARKID":"1001000000093","LANDMARKCO":"107","LANDMARKNA":"嘉義縣警察局新埤派出所","LANDMARKAD":"1001001","ADDRESS":"嘉義縣太保市舊埤里新埤9號","TEL":"05-3612280","COUNTYNAME":"嘉義縣","TOWNNAME":"太保市","MARKTYPE":"991","Class":"1"},"geometry":{"x":120.33289166478166,"y":23.490966846461376}},{"attributes":{"OBJECTID":26186,"LANDMARKID":"1001000000094","LANDMARKCO":"107","LANDMARKNA":"嘉義縣警察局南新派出所","LANDMARKAD":"1001001","ADDRESS":"嘉義縣太保市南新里北港路二段50號","TEL":"05-2373022","COUNTYNAME":"嘉義縣","TOWNNAME":"太保市","MARKTYPE":"991","Class":"1"},"geometry":{"x":120.38317196320726,"y":23.496627208586244}},{"attributes":{"OBJECTID":26187,"LANDMARKID":"1001000000092","LANDMARKCO":"106","LANDMARKNA":"嘉義縣太保市戶政事務所","LANDMARKAD":"1001001","ADDRESS":"嘉義縣太保市太保里1鄰太保22號","TEL":"05-3711081","COUNTYNAME":"嘉義縣","TOWNNAME":"太保市","MARKTYPE":"991","Class":"1"},"geometry":{"x":120.33200424751021,"y":23.454343036547566}},{"attributes":{"OBJECTID":26188,"LANDMARKID":"1001000000003","LANDMARKCO":"101","LANDMARKNA":"工業局嘉太工業區服務中心","LANDMARKAD":"1001001","ADDRESS":"嘉義縣太保市中興路21號","TEL":"05-2376844","COUNTYNAME":"嘉義縣","TOWNNAME":"太保市","MARKTYPE":"991","Class":"1"},"geometry":{"x":120.35583903444788,"y":23.508968000996411}},{"attributes":{"OBJECTID":26189,"LANDMARKID":"1001000000047","LANDMARKCO":"103","LANDMARKNA":"嘉義縣政府衛生局","LANDMARKAD":"1001001","ADDRESS":"嘉義縣太保市祥和二路東段3號","TEL":"05-3620600","COUNTYNAME":"嘉義縣","TOWNNAME":"太保市","MARKTYPE":"991","Class":"1"},"geometry":{"x":120.29293144667986,"y":23.457562219029036}},{"attributes":{"OBJECTID":26190,"LANDMARKID":"1001000000095","LANDMARKCO":"107","LANDMARKNA":"嘉義縣警察局總局","LANDMARKAD":"1001001","ADDRESS":"嘉義縣太保市安仁里祥和一路東段3號","TEL":"05-3620200","COUNTYNAME":"嘉義縣","TOWNNAME":"太保市","MARKTYPE":"991","Class":"1"},"geometry":{"x":120.29486947732242,"y":23.458644394709747}},{"attributes":{"OBJECTID":26191,"LANDMARKID":"1001000000096","LANDMARKCO":"107","LANDMARKNA":"嘉義縣消防局","LANDMARKAD":"1001001","ADDRESS":"嘉義縣太保市祥和二路東段6號","TEL":"05-3620233","COUNTYNAME":"嘉義縣","TOWNNAME":"太保市","MARKTYPE":"991","Class":"1"},"geometry":{"x":120.29364897499825,"y":23.456890202880242}},{"attributes":{"OBJECTID":26192,"LANDMARKID":"1001000000071","LANDMARKCO":"105","LANDMARKNA":"嘉義縣政府地政局","LANDMARKAD":"1001001","ADDRESS":"嘉義縣太保市祥和新村祥和一路東段1號","TEL":"05-3620123#431","COUNTYNAME":"嘉義縣","TOWNNAME":"太保市","MARKTYPE":"991","Class":"1"},"geometry":{"x":120.29294549203073,"y":23.458992940779286}},{"attributes":{"OBJECTID":26193,"LANDMARKID":"1001000000048","LANDMARKCO":"103","LANDMARKNA":"嘉義縣政府","LANDMARKAD":"1001001","ADDRESS":"嘉義縣太保市祥和新村祥和一路東段1號","TEL":"05-3620123","COUNTYNAME":"嘉義縣","TOWNNAME":"太保市","MARKTYPE":"991","Class":"1"},"geometry":{"x":120.29294549203073,"y":23.458992940779286}},{"attributes":{"OBJECTID":26194,"LANDMARKID":"1001000000069","LANDMARKCO":"104","LANDMARKNA":"南區國稅局嘉義縣分局","LANDMARKAD":"1001001","ADDRESS":"嘉義縣太保市祥和二路東段5號4樓","TEL":"05-3621010","COUNTYNAME":"嘉義縣","TOWNNAME":"太保市","MARKTYPE":"991","Class":"1"},"geometry":{"x":120.2939168095357,"y":23.457417394043802}},{"attributes":{"OBJECTID":26195,"LANDMARKID":"1001000000049","LANDMARKCO":"103","LANDMARKNA":"嘉義縣文化基金會","LANDMARKAD":"1001001","ADDRESS":"嘉義縣太保市祥和一路東段1號2F","TEL":"05-3621088","COUNTYNAME":"嘉義縣","TOWNNAME":"太保市","MARKTYPE":"991","Class":"1"},"geometry":{"x":120.29294549203073,"y":23.458992940779286}},{"attributes":{"OBJECTID":26196,"LANDMARKID":"1001000000050","LANDMARKCO":"103","LANDMARKNA":"嘉義縣太保市衛生所","LANDMARKAD":"1001001","ADDRESS":"嘉義縣太保市後潭里443號","TEL":"05-3711273","COUNTYNAME":"嘉義縣","TOWNNAME":"太保市","MARKTYPE":"991","Class":"1"},"geometry":{"x":120.33946406510398,"y":23.452899445484082}},{"attributes":{"OBJECTID":26197,"LANDMARKID":"1001000000220","LANDMARKCO":"108","LANDMARKNA":"嘉義縣太保市公所","LANDMARKAD":"1001001","ADDRESS":"嘉義縣太保市太保里66號","TEL":"05-3711106","COUNTYNAME":"嘉義縣","TOWNNAME":"太保市","MARKTYPE":"991","Class":"1"},"geometry":{"x":120.33277758934827,"y":23.459740749851775}},{"attributes":{"OBJECTID":26198,"LANDMARKID":"1001000000045","LANDMARKCO":"103","LANDMARKNA":"嘉義縣太保市民代表會","LANDMARKAD":"1001001","ADDRESS":"嘉義縣太保市太保里65號","TEL":"05-3711522","COUNTYNAME":"嘉義縣","TOWNNAME":"太保市","MARKTYPE":"991","Class":"1"},"geometry":{"x":120.33298493979233,"y":23.459561923926987}},{"attributes":{"OBJECTID":26199,"LANDMARKID":"1001000000101","LANDMARKCO":"107","LANDMARKNA":"嘉義縣警察局太保分駐所","LANDMARKAD":"1001001","ADDRESS":"嘉義縣太保市太保里23號","TEL":"05-3711555","COUNTYNAME":"嘉義縣","TOWNNAME":"太保市","MARKTYPE":"991","Class":"1"},"geometry":{"x":120.33209239381156,"y":23.454046113380524}},{"attributes":{"OBJECTID":26200,"LANDMARKID":"1001000000102","LANDMARKCO":"107","LANDMARKNA":"嘉義縣消防局太保消防分隊","LANDMARKAD":"1001001","ADDRESS":"嘉義縣太保市太保里22號","TEL":"05-3711202","COUNTYNAME":"嘉義縣","TOWNNAME":"太保市","MARKTYPE":"991","Class":"1"},"geometry":{"x":120.33220005086569,"y":23.454047034712531}}]}