{"displayFieldName":"COUNTYNAME","fieldAliases":{"OBJECTID":"OBJECTID","LANDMARKID":"LANDMARKID","LANDMARKCO":"LANDMARKCO","LANDMARKNA":"LANDMARKNA","LANDMARKAD":"LANDMARKAD","ADDRESS":"ADDRESS","TEL":"TEL","COUNTYNAME":"COUNTYNAME","TOWNNAME":"TOWNNAME","MARKTYPE":"MARKTYPE","Class":"Class"},"geometryType":"esriGeometryPoint","spatialReference":{"wkid":102443},"fields":[{"name":"OBJECTID","type":"esriFieldTypeOID","alias":"OBJECTID"},{"name":"LANDMARKID","type":"esriFieldTypeString","alias":"LANDMARKID","length":15},{"name":"LANDMARKCO","type":"esriFieldTypeString","alias":"LANDMARKCO","length":15},{"name":"LANDMARKNA","type":"esriFieldTypeString","alias":"LANDMARKNA","length":50},{"name":"LANDMARKAD","type":"esriFieldTypeString","alias":"LANDMARKAD","length":15},{"name":"ADDRESS","type":"esriFieldTypeString","alias":"ADDRESS","length":56},{"name":"TEL","type":"esriFieldTypeString","alias":"TEL","length":36},{"name":"COUNTYNAME","type":"esriFieldTypeString","alias":"COUNTYNAME","length":15},{"name":"TOWNNAME","type":"esriFieldTypeString","alias":"TOWNNAME","length":13},{"name":"MARKTYPE","type":"esriFieldTypeString","alias":"MARKTYPE","length":12},{"name":"Class","type":"esriFieldTypeString","alias":"Class","length":5}],"features":[{"attributes":{"OBJECTID":3401,"LANDMARKID":"1001400000183","LANDMARKCO":"107","LANDMARKNA":"台東縣警察局建蘭派出所","LANDMARKAD":"1001416","ADDRESS":"台東縣蘭嶼鄉紅頭村建蘭村50號","TEL":"089-732560","COUNTYNAME":"台東縣","TOWNNAME":"蘭嶼鄉","MARKTYPE":"991","Class":"1"},"geometry":{"x":307209.07679999992,"y":2436449.4881999996}},{"attributes":{"OBJECTID":3402,"LANDMARKID":"1001400000184","LANDMARKCO":"107","LANDMARKNA":"台東縣警察局東清派出所","LANDMARKAD":"1001416","ADDRESS":"台東縣蘭嶼鄉東清村東清3號","TEL":"089-732975","COUNTYNAME":"台東縣","TOWNNAME":"蘭嶼鄉","MARKTYPE":"991","Class":"1"},"geometry":{"x":308318.64379999973,"y":2439989.5699000005}},{"attributes":{"OBJECTID":3403,"LANDMARKID":"1001400000185","LANDMARKCO":"107","LANDMARKNA":"台東縣警察局朗島派出所","LANDMARKAD":"1001416","ADDRESS":"台東縣蘭嶼鄉朗島村13號","TEL":"089-732131","COUNTYNAME":"台東縣","TOWNNAME":"蘭嶼鄉","MARKTYPE":"991","Class":"1"},"geometry":{"x":304598.30069999956,"y":2442349.5440999996}},{"attributes":{"OBJECTID":3404,"LANDMARKID":"1001400000186","LANDMARKCO":"107","LANDMARKNA":"台東縣警察局蘭嶼分駐所","LANDMARKAD":"1001416","ADDRESS":"台東縣蘭嶼鄉椰油村椰油31號","TEL":"089-732011","COUNTYNAME":"台東縣","TOWNNAME":"蘭嶼鄉","MARKTYPE":"991","Class":"1"},"geometry":{"x":302849.06130000018,"y":2439199.6919999998}},{"attributes":{"OBJECTID":3405,"LANDMARKID":"1001400000095","LANDMARKCO":"106","LANDMARKNA":"台東縣蘭嶼鄉戶政事務所","LANDMARKAD":"1001416","ADDRESS":"台東縣蘭嶼鄉1鄰椰油32號","TEL":"089-732015","COUNTYNAME":"台東縣","TOWNNAME":"蘭嶼鄉","MARKTYPE":"991","Class":"1"},"geometry":{"x":302668.85699999984,"y":2440359.3274000008}},{"attributes":{"OBJECTID":3406,"LANDMARKID":"1001400000045","LANDMARKCO":"103","LANDMARKNA":"台東縣蘭嶼鄉鄉民代表會","LANDMARKAD":"1001416","ADDRESS":"台東縣蘭嶼鄉忠孝街171號","TEL":"089-732030","COUNTYNAME":"台東縣","TOWNNAME":"蘭嶼鄉","MARKTYPE":"991","Class":"1"},"geometry":{"x":302539.02209999971,"y":2440109.7610999998}},{"attributes":{"OBJECTID":3407,"LANDMARKID":"1001400000387","LANDMARKCO":"204","LANDMARKNA":"台東縣立圖書館蘭嶼分館","LANDMARKAD":"1001416","ADDRESS":"台東縣蘭嶼鄉椰油街84號","TEL":" ","COUNTYNAME":"台東縣","TOWNNAME":"蘭嶼鄉","MARKTYPE":"992","Class":"2"},"geometry":{"x":302725.56149999984,"y":2439424.0956999995}},{"attributes":{"OBJECTID":3408,"LANDMARKID":"1001400000226","LANDMARKCO":"202","LANDMARKNA":"縣立蘭嶼高中","LANDMARKAD":"1001416","ADDRESS":"台東縣蘭嶼鄉椰油村37號","TEL":"089-732016","COUNTYNAME":"台東縣","TOWNNAME":"蘭嶼鄉","MARKTYPE":"992","Class":"2"},"geometry":{"x":302909.69070000015,"y":2439079.4920000006}},{"attributes":{"OBJECTID":3409,"LANDMARKID":"1001400000227","LANDMARKCO":"203","LANDMARKNA":"縣立東清國小","LANDMARKAD":"1001416","ADDRESS":"台東縣蘭嶼鄉東清村1號","TEL":"089-732989","COUNTYNAME":"台東縣","TOWNNAME":"蘭嶼鄉","MARKTYPE":"992","Class":"2"},"geometry":{"x":308296.53280000016,"y":2439959.6516999993}},{"attributes":{"OBJECTID":3410,"LANDMARKID":"1001400000228","LANDMARKCO":"203","LANDMARKNA":"縣立蘭嶼國小","LANDMARKAD":"1001416","ADDRESS":"台東縣蘭嶼鄉紅頭村1之1號","TEL":"089-731576","COUNTYNAME":"台東縣","TOWNNAME":"蘭嶼鄉","MARKTYPE":"992","Class":"2"},"geometry":{"x":307082.2592000002,"y":2436499.9476999994}},{"attributes":{"OBJECTID":3411,"LANDMARKID":"1001400000229","LANDMARKCO":"203","LANDMARKNA":"縣立朗島國小","LANDMARKAD":"1001416","ADDRESS":"台東縣蘭嶼鄉朗島村17號","TEL":"089-732019","COUNTYNAME":"台東縣","TOWNNAME":"蘭嶼鄉","MARKTYPE":"992","Class":"2"},"geometry":{"x":304285.40620000008,"y":2442379.6370999999}},{"attributes":{"OBJECTID":3412,"LANDMARKID":"1001400000230","LANDMARKCO":"203","LANDMARKNA":"縣立椰油國小","LANDMARKAD":"1001416","ADDRESS":"台東縣蘭嶼鄉椰油村忠孝街1號","TEL":"089-732017","COUNTYNAME":"台東縣","TOWNNAME":"蘭嶼鄉","MARKTYPE":"992","Class":"2"},"geometry":{"x":303381.24270000029,"y":2438639.8355}},{"attributes":{"OBJECTID":3413,"LANDMARKID":"1001400000231","LANDMARKCO":"203","LANDMARKNA":"縣立東清國小野銀分校","LANDMARKAD":"1001416","ADDRESS":"台東縣蘭嶼鄉","TEL":" ","COUNTYNAME":"台東縣","TOWNNAME":"蘭嶼鄉","MARKTYPE":"992","Class":"2"},"geometry":{"x":308337.18209999986,"y":2438019.5267999992}},{"attributes":{"OBJECTID":3414,"LANDMARKID":"1001400000457","LANDMARKCO":"304","LANDMARKNA":"蘭嶼輔助站蘭嶼機場","LANDMARKAD":"1001416","ADDRESS":"台東縣蘭嶼鄉紅頭村漁人151號","TEL":" ","COUNTYNAME":"台東縣","TOWNNAME":"蘭嶼鄉","MARKTYPE":"993","Class":"304"},"geometry":{"x":305388.63279999979,"y":2436626.3389999997}},{"attributes":{"OBJECTID":3415,"LANDMARKID":"1000100001934","LANDMARKCO":"405","LANDMARKNA":"中油加油站-石門站","LANDMARKAD":"1000122","ADDRESS":"新北市石門區中央路1-15號","TEL":"02-26382721","COUNTYNAME":"新北市","TOWNNAME":"石門區","MARKTYPE":"994","Class":"4"},"geometry":{"x":306657.85539999977,"y":2798145.1678999998}},{"attributes":{"OBJECTID":3416,"LANDMARKID":"1000100002588","LANDMARKCO":"506","LANDMARKNA":"灣潭百香果觀光果園","LANDMARKAD":"1000122","ADDRESS":"新北市石門區","TEL":" ","COUNTYNAME":"新北市","TOWNNAME":"石門區","MARKTYPE":"995","Class":"5"},"geometry":{"x":308014.25090000033,"y":2798079.3890000004}},{"attributes":{"OBJECTID":3417,"LANDMARKID":"1000100002478","LANDMARKCO":"501","LANDMARKNA":"北海岸觀音山國家風景區","LANDMARKAD":"1000122","ADDRESS":"新北市石門區德茂村下員坑33之6號","TEL":"02-26364503","COUNTYNAME":"新北市","TOWNNAME":"石門區","MARKTYPE":"995","Class":"5"},"geometry":{"x":301880.90170000028,"y":2797422.5701000001}},{"attributes":{"OBJECTID":3418,"LANDMARKID":"1000100002726","LANDMARKCO":"512","LANDMARKNA":"北海岸觀音山國家風景區管理處","LANDMARKAD":"1000122","ADDRESS":"新北市石門區德茂村下員坑33之6號","TEL":"02-26364503","COUNTYNAME":"新北市","TOWNNAME":"石門區","MARKTYPE":"995","Class":"5"},"geometry":{"x":301866.35560000036,"y":2797426.6520000007}},{"attributes":{"OBJECTID":3419,"LANDMARKID":"1000100002435","LANDMARKCO":"408","LANDMARKNA":"郵局-石門郵局","LANDMARKAD":"1000122","ADDRESS":"新北市石門區中山路80號","TEL":"(02)2638-1210","COUNTYNAME":"新北市","TOWNNAME":"石門區","MARKTYPE":"994","Class":"4"},"geometry":{"x":307215.74100000039,"y":2798236.5292000007}},{"attributes":{"OBJECTID":3420,"LANDMARKID":"1000100002446","LANDMARKCO":"409","LANDMARKNA":"新北市石門區農會","LANDMARKAD":"1000122","ADDRESS":"新北市石門區中央路2號","TEL":"02-26381005","COUNTYNAME":"新北市","TOWNNAME":"石門區","MARKTYPE":"994","Class":"4"},"geometry":{"x":306742.05900000036,"y":2798114.2655999996}},{"attributes":{"OBJECTID":3421,"LANDMARKID":"1000100002238","LANDMARKCO":"406","LANDMARKNA":"老梅公園","LANDMARKAD":"1000122","ADDRESS":"新北市石門區","TEL":" ","COUNTYNAME":"新北市","TOWNNAME":"石門區","MARKTYPE":"994","Class":"4"},"geometry":{"x":304478.22190000024,"y":2798110.0963000003}},{"attributes":{"OBJECTID":3422,"LANDMARKID":"1000100000114","LANDMARKCO":"103","LANDMARKNA":"新北市石門區衛生所","LANDMARKAD":"1000122","ADDRESS":"新北市石門區中山路28之1號","TEL":"02-26381007","COUNTYNAME":"新北市","TOWNNAME":"石門區","MARKTYPE":"991","Class":"1"},"geometry":{"x":307042.9916000003,"y":2798029.0258000009}},{"attributes":{"OBJECTID":3423,"LANDMARKID":"1000100000410","LANDMARKCO":"108","LANDMARKNA":"新北市石門區公所","LANDMARKAD":"1000122","ADDRESS":"新北市石門區尖鹿村中山路66號","TEL":"02-26381721","COUNTYNAME":"新北市","TOWNNAME":"石門區","MARKTYPE":"991","Class":"1"},"geometry":{"x":307326.32010000013,"y":2798069.0064000003}},{"attributes":{"OBJECTID":3424,"LANDMARKID":"1000100000361","LANDMARKCO":"107","LANDMARKNA":"新北市消防局石門分隊","LANDMARKAD":"1000122","ADDRESS":"新北市石門區中山路64之1號","TEL":"02-26381619","COUNTYNAME":"新北市","TOWNNAME":"石門區","MARKTYPE":"991","Class":"1"},"geometry":{"x":307242.93429999985,"y":2797989.3604000006}},{"attributes":{"OBJECTID":3425,"LANDMARKID":"1000100000362","LANDMARKCO":"107","LANDMARKNA":"新北市政府警察局老梅派出所","LANDMARKAD":"1000122","ADDRESS":"新北市石門區老梅村老梅路26號","TEL":"02-26381272","COUNTYNAME":"新北市","TOWNNAME":"石門區","MARKTYPE":"991","Class":"1"},"geometry":{"x":304981.34559999965,"y":2797909.4748}},{"attributes":{"OBJECTID":3426,"LANDMARKID":"1000100000363","LANDMARKCO":"107","LANDMARKNA":"新北市政府警察局石門分駐所","LANDMARKAD":"1000122","ADDRESS":"新北市石門區尖鹿村中山路64號","TEL":"02-26381244","COUNTYNAME":"新北市","TOWNNAME":"石門區","MARKTYPE":"991","Class":"1"},"geometry":{"x":307215.42700000014,"y":2798109.4757000003}},{"attributes":{"OBJECTID":3427,"LANDMARKID":"1000100000148","LANDMARKCO":"106","LANDMARKNA":"新北市石門區戶政事務所","LANDMARKAD":"1000122","ADDRESS":"新北市石門區尖鹿村3鄰中山路66號","TEL":"02-26381307","COUNTYNAME":"新北市","TOWNNAME":"石門區","MARKTYPE":"991","Class":"1"},"geometry":{"x":307326.32010000013,"y":2798069.0064000003}},{"attributes":{"OBJECTID":3428,"LANDMARKID":"1000100000115","LANDMARKCO":"103","LANDMARKNA":"新北市石門區鄉民代表會","LANDMARKAD":"1000122","ADDRESS":"新北市石門區尖鹿村中山路66號2樓","TEL":"02-26381003","COUNTYNAME":"新北市","TOWNNAME":"石門區","MARKTYPE":"991","Class":"1"},"geometry":{"x":307326.32010000013,"y":2798069.0064000003}},{"attributes":{"OBJECTID":3429,"LANDMARKID":"1000100000364","LANDMARKCO":"107","LANDMARKNA":"新北市政府警察局乾華派出所","LANDMARKAD":"1000122","ADDRESS":"新北市石門區草里村阿里荖14之1號","TEL":"02-26381274","COUNTYNAME":"新北市","TOWNNAME":"石門區","MARKTYPE":"991","Class":"1"},"geometry":{"x":311133.48749999981,"y":2796749.4565999992}},{"attributes":{"OBJECTID":3430,"LANDMARKID":"1000100000123","LANDMARKCO":"104","LANDMARKNA":"關稅總局富貴角燈塔","LANDMARKAD":"1000122","ADDRESS":"新北市石門區楓林1號","TEL":"02-26381049","COUNTYNAME":"新北市","TOWNNAME":"石門區","MARKTYPE":"991","Class":"1"},"geometry":{"x":304032.31379999965,"y":2798942.9521999992}},{"attributes":{"OBJECTID":3431,"LANDMARKID":"1000100000832","LANDMARKCO":"204","LANDMARKNA":"新北市立圖書館石門分館","LANDMARKAD":"1000122","ADDRESS":"新北市石門區尖鹿村中央路9之3號","TEL":" ","COUNTYNAME":"新北市","TOWNNAME":"石門區","MARKTYPE":"992","Class":"2"},"geometry":{"x":307287.49019999988,"y":2798082.2260999996}},{"attributes":{"OBJECTID":3432,"LANDMARKID":"1000100000755","LANDMARKCO":"203","LANDMARKNA":"縣立石門國中","LANDMARKAD":"1000122","ADDRESS":"新北市石門區中央路1之9號","TEL":"02-26381340","COUNTYNAME":"新北市","TOWNNAME":"石門區","MARKTYPE":"992","Class":"2"},"geometry":{"x":306849.4720999999,"y":2798169.8395000007}},{"attributes":{"OBJECTID":3433,"LANDMARKID":"1000100000756","LANDMARKCO":"203","LANDMARKNA":"縣立石門國小","LANDMARKAD":"1000122","ADDRESS":"新北市石門區尖鹿村中央路9號","TEL":"02-26381263","COUNTYNAME":"新北市","TOWNNAME":"石門區","MARKTYPE":"992","Class":"2"},"geometry":{"x":307157.07070000004,"y":2798269.7210000008}},{"attributes":{"OBJECTID":3434,"LANDMARKID":"1000100000757","LANDMARKCO":"203","LANDMARKNA":"縣立老梅國小","LANDMARKAD":"1000122","ADDRESS":"新北市石門區老梅村老梅路10號","TEL":"02-26381258","COUNTYNAME":"新北市","TOWNNAME":"石門區","MARKTYPE":"992","Class":"2"},"geometry":{"x":304921.23099999968,"y":2797889.7193}},{"attributes":{"OBJECTID":3435,"LANDMARKID":"1000100000758","LANDMARKCO":"203","LANDMARKNA":"縣立乾華國小草里分校","LANDMARKAD":"1000122","ADDRESS":"新北市石門區","TEL":" ","COUNTYNAME":"新北市","TOWNNAME":"石門區","MARKTYPE":"992","Class":"2"},"geometry":{"x":311111.83910000045,"y":2796829.5537999999}},{"attributes":{"OBJECTID":3436,"LANDMARKID":"1000100000759","LANDMARKCO":"203","LANDMARKNA":"縣立石門國小山溪分班","LANDMARKAD":"1000122","ADDRESS":"新北市石門區","TEL":" ","COUNTYNAME":"新北市","TOWNNAME":"石門區","MARKTYPE":"992","Class":"2"},"geometry":{"x":306998.48790000007,"y":2795069.2364000008}},{"attributes":{"OBJECTID":3437,"LANDMARKID":"1000100000760","LANDMARKCO":"203","LANDMARKNA":"縣立乾華國小","LANDMARKAD":"1000122","ADDRESS":"新北市石門區茂林村茂林社區74號","TEL":"02-26381269","COUNTYNAME":"新北市","TOWNNAME":"石門區","MARKTYPE":"992","Class":"2"},"geometry":{"x":309695.09819999989,"y":2795679.648}},{"attributes":{"OBJECTID":3438,"LANDMARKID":"1000100001452","LANDMARKCO":"305","LANDMARKNA":"石門漁港","LANDMARKAD":"1000122","ADDRESS":"新北市石門區","TEL":" ","COUNTYNAME":"新北市","TOWNNAME":"石門區","MARKTYPE":"993","Class":"305"},"geometry":{"x":307109.73759999964,"y":2798591.9776000008}},{"attributes":{"OBJECTID":3439,"LANDMARKID":"1000100001453","LANDMARKCO":"305","LANDMARKNA":"富基漁港","LANDMARKAD":"1000122","ADDRESS":"新北市石門區","TEL":" ","COUNTYNAME":"新北市","TOWNNAME":"石門區","MARKTYPE":"993","Class":"305"},"geometry":{"x":303797.37689999957,"y":2798455.534}},{"attributes":{"OBJECTID":3440,"LANDMARKID":"1000100001257","LANDMARKCO":"303","LANDMARKNA":"麟山鼻遊憩區大型車第二停車場","LANDMARKAD":"1000122","ADDRESS":" ","TEL":" ","COUNTYNAME":"新北市","TOWNNAME":"石門區","MARKTYPE":"993","Class":"303"},"geometry":{"x":301799.89020000026,"y":2797260.6491999999}},{"attributes":{"OBJECTID":3441,"LANDMARKID":"1000100001258","LANDMARKCO":"303","LANDMARKNA":"麟山鼻遊憩區小型車停車場","LANDMARKAD":"1000122","ADDRESS":" ","TEL":" ","COUNTYNAME":"新北市","TOWNNAME":"石門區","MARKTYPE":"993","Class":"303"},"geometry":{"x":302276.48020000011,"y":2797195.2317999993}},{"attributes":{"OBJECTID":3442,"LANDMARKID":"1000100001259","LANDMARKCO":"303","LANDMARKNA":"富基漁港停車場","LANDMARKAD":"1000122","ADDRESS":" ","TEL":" ","COUNTYNAME":"新北市","TOWNNAME":"石門區","MARKTYPE":"993","Class":"303"},"geometry":{"x":304068.51159999985,"y":2798307.2981000002}},{"attributes":{"OBJECTID":3443,"LANDMARKID":"1000100001260","LANDMARKCO":"303","LANDMARKNA":"順天聖母廟停車場","LANDMARKAD":"1000122","ADDRESS":" ","TEL":" ","COUNTYNAME":"新北市","TOWNNAME":"石門區","MARKTYPE":"993","Class":"303"},"geometry":{"x":307102.42459999956,"y":2792832.5953000002}},{"attributes":{"OBJECTID":3444,"LANDMARKID":"1000100001261","LANDMARKCO":"303","LANDMARKNA":"茂林停車場","LANDMARKAD":"1000122","ADDRESS":"新北市石門區","TEL":" ","COUNTYNAME":"新北市","TOWNNAME":"石門區","MARKTYPE":"993","Class":"303"},"geometry":{"x":309958.85020000022,"y":2796140.1601}},{"attributes":{"OBJECTID":3445,"LANDMARKID":"1000100001262","LANDMARKCO":"303","LANDMARKNA":"老梅公園停車場","LANDMARKAD":"1000122","ADDRESS":"新北市石門區","TEL":" ","COUNTYNAME":"新北市","TOWNNAME":"石門區","MARKTYPE":"993","Class":"303"},"geometry":{"x":304484.12339999992,"y":2798030.8414999992}},{"attributes":{"OBJECTID":3446,"LANDMARKID":"1000100001263","LANDMARKCO":"303","LANDMARKNA":"白沙灣旅遊服務中心停車場","LANDMARKAD":"1000122","ADDRESS":"新北市石門區德茂村33之6號","TEL":" ","COUNTYNAME":"新北市","TOWNNAME":"石門區","MARKTYPE":"993","Class":"303"},"geometry":{"x":302561.70529999956,"y":2797576.1875999998}},{"attributes":{"OBJECTID":3447,"LANDMARKID":"1000100001264","LANDMARKCO":"303","LANDMARKNA":"石門洞遊樂區停車場","LANDMARKAD":"1000122","ADDRESS":"新北市石門區","TEL":" ","COUNTYNAME":"新北市","TOWNNAME":"石門區","MARKTYPE":"993","Class":"303"},"geometry":{"x":307293.75820000004,"y":2798768.0624000002}},{"attributes":{"OBJECTID":3448,"LANDMARKID":"1000100002862","LANDMARKCO":"603","LANDMARKNA":"加州旅館","LANDMARKAD":"1000122","ADDRESS":"新北市石門區中央路4之3號","TEL":"02-26382310","COUNTYNAME":"新北市","TOWNNAME":"石門區","MARKTYPE":"996","Class":"6"},"geometry":{"x":306940.85919999983,"y":2798145.0735999998}},{"attributes":{"OBJECTID":3449,"LANDMARKID":"1000100002500","LANDMARKCO":"503","LANDMARKNA":"麟山鼻","LANDMARKAD":"1000122","ADDRESS":"新北市石門區","TEL":" ","COUNTYNAME":"新北市","TOWNNAME":"石門區","MARKTYPE":"995","Class":"5"},"geometry":{"x":301424.40380000044,"y":2797948.6838000007}},{"attributes":{"OBJECTID":3450,"LANDMARKID":"1000100002501","LANDMARKCO":"503","LANDMARKNA":"富貴角","LANDMARKAD":"1000122","ADDRESS":"新北市石門區","TEL":" ","COUNTYNAME":"新北市","TOWNNAME":"石門區","MARKTYPE":"995","Class":"5"},"geometry":{"x":304125.10120000038,"y":2799049.6061000004}},{"attributes":{"OBJECTID":3451,"LANDMARKID":"1000100002567","LANDMARKCO":"504","LANDMARKNA":"青山瀑布步道","LANDMARKAD":"1000122","ADDRESS":"新北市石門區","TEL":" ","COUNTYNAME":"新北市","TOWNNAME":"石門區","MARKTYPE":"995","Class":"5"},"geometry":{"x":306300.00879999995,"y":2793229.216}},{"attributes":{"OBJECTID":3452,"LANDMARKID":"1000100002502","LANDMARKCO":"503","LANDMARKNA":"石門拱橋","LANDMARKAD":"1000122","ADDRESS":"新北市石門區","TEL":" ","COUNTYNAME":"新北市","TOWNNAME":"石門區","MARKTYPE":"995","Class":"5"},"geometry":{"x":307283.98550000042,"y":2798849.1700999998}},{"attributes":{"OBJECTID":3453,"LANDMARKID":"1000100002680","LANDMARKCO":"509","LANDMARKNA":"白沙灣海水浴場","LANDMARKAD":"1000122","ADDRESS":"新北市石門區德茂村八甲1之2號","TEL":" ","COUNTYNAME":"新北市","TOWNNAME":"石門區","MARKTYPE":"995","Class":"5"},"geometry":{"x":302680.48639999982,"y":2797514.9337000009}},{"attributes":{"OBJECTID":3454,"LANDMARKID":"1000100002503","LANDMARKCO":"503","LANDMARKNA":"北海岸風景特定區","LANDMARKAD":"1000122","ADDRESS":"新北市石門區下員坑33之6號","TEL":" ","COUNTYNAME":"新北市","TOWNNAME":"石門區","MARKTYPE":"995","Class":"5"},"geometry":{"x":301874.28849999979,"y":2797423.9547000006}},{"attributes":{"OBJECTID":3455,"LANDMARKID":"1000100002504","LANDMARKCO":"503","LANDMARKNA":"石門洞風景特定區","LANDMARKAD":"1000122","ADDRESS":"新北市石門區","TEL":" ","COUNTYNAME":"新北市","TOWNNAME":"石門區","MARKTYPE":"995","Class":"5"},"geometry":{"x":307283.57809999958,"y":2798673.1212000009}},{"attributes":{"OBJECTID":3456,"LANDMARKID":"1000100002699","LANDMARKCO":"510","LANDMARKNA":"濱海高爾夫球場","LANDMARKAD":"1000122","ADDRESS":"新北市石門區尖鹿村尖子路10號","TEL":"02-26380679","COUNTYNAME":"新北市","TOWNNAME":"石門區","MARKTYPE":"995","Class":"5"},"geometry":{"x":308000.58540000021,"y":2797035.9395000003}},{"attributes":{"OBJECTID":3457,"LANDMARKID":"1000100002700","LANDMARKCO":"510","LANDMARKNA":"北海高爾夫球場","LANDMARKAD":"1000122","ADDRESS":"新北市石門區草里村草埔尾5號","TEL":"02-2638-2930","COUNTYNAME":"新北市","TOWNNAME":"石門區","MARKTYPE":"995","Class":"5"},"geometry":{"x":310607.53569999989,"y":2796517.3791000005}},{"attributes":{"OBJECTID":3458,"LANDMARKID":"1000100001931","LANDMARKCO":"405","LANDMARKNA":"中油加油站-北海站","LANDMARKAD":"1000121","ADDRESS":"新北市三芝區北海路二段167號","TEL":"02-26366767","COUNTYNAME":"新北市","TOWNNAME":"三芝區","MARKTYPE":"994","Class":"4"},"geometry":{"x":300638.09370000008,"y":2795588.1794000007}},{"attributes":{"OBJECTID":3459,"LANDMARKID":"1000100001932","LANDMARKCO":"405","LANDMARKNA":"中油加油站-南海站","LANDMARKAD":"1000121","ADDRESS":"新北市三芝區北海路二段168號","TEL":"02-26366868","COUNTYNAME":"新北市","TOWNNAME":"三芝區","MARKTYPE":"994","Class":"4"},"geometry":{"x":300637.21019999962,"y":2795571.6744999997}},{"attributes":{"OBJECTID":3460,"LANDMARKID":"1000100001933","LANDMARKCO":"405","LANDMARKNA":"中油加油站-三芝站(中油直營)","LANDMARKAD":"1000121","ADDRESS":"新北市三芝區埔頭村埔頭15號","TEL":"02-26362403","COUNTYNAME":"新北市","TOWNNAME":"三芝區","MARKTYPE":"994","Class":"4"},"geometry":{"x":298793.84700000007,"y":2795017.6102000009}},{"attributes":{"OBJECTID":3461,"LANDMARKID":"1000100001600","LANDMARKCO":"401","LANDMARKNA":"台安醫院","LANDMARKAD":"1000121","ADDRESS":"新北市三芝區楓子林路42之5號","TEL":"02-26371600","COUNTYNAME":"新北市","TOWNNAME":"三芝區","MARKTYPE":"994","Class":"4"},"geometry":{"x":300011.60659999959,"y":2788960.7814000007}},{"attributes":{"OBJECTID":3462,"LANDMARKID":"1000100002434","LANDMARKCO":"408","LANDMARKNA":"郵局-三芝郵局","LANDMARKAD":"1000121","ADDRESS":"新北市三芝區淡金路2段17號","TEL":"(02)2636-2040","COUNTYNAME":"新北市","TOWNNAME":"三芝區","MARKTYPE":"994","Class":"4"},"geometry":{"x":300651.54860000033,"y":2794597.4689000007}},{"attributes":{"OBJECTID":3463,"LANDMARKID":"1000100002447","LANDMARKCO":"409","LANDMARKNA":"新北市三芝區農會","LANDMARKAD":"1000121","ADDRESS":"新北市三芝區中山路一段6號","TEL":"02-26363111","COUNTYNAME":"新北市","TOWNNAME":"三芝區","MARKTYPE":"994","Class":"4"},"geometry":{"x":300420.6277999999,"y":2794543.2085999995}},{"attributes":{"OBJECTID":3464,"LANDMARKID":"1000100002239","LANDMARKCO":"406","LANDMARKNA":"中央公園","LANDMARKAD":"1000121","ADDRESS":"新北市三芝區","TEL":" ","COUNTYNAME":"新北市","TOWNNAME":"三芝區","MARKTYPE":"994","Class":"4"},"geometry":{"x":297749.70029999968,"y":2793232.4385000002}},{"attributes":{"OBJECTID":3465,"LANDMARKID":"1000100002240","LANDMARKCO":"406","LANDMARKNA":"兒三公園","LANDMARKAD":"1000121","ADDRESS":"新北市三芝區","TEL":" ","COUNTYNAME":"新北市","TOWNNAME":"三芝區","MARKTYPE":"994","Class":"4"},"geometry":{"x":300858.29779999983,"y":2794666.1129000001}},{"attributes":{"OBJECTID":3466,"LANDMARKID":"1000100002241","LANDMARKCO":"406","LANDMARKNA":"海濱公園","LANDMARKAD":"1000121","ADDRESS":"新北市三芝區","TEL":" ","COUNTYNAME":"新北市","TOWNNAME":"三芝區","MARKTYPE":"994","Class":"4"},"geometry":{"x":297653.16559999995,"y":2793957.1863000002}},{"attributes":{"OBJECTID":3467,"LANDMARKID":"1000100002242","LANDMARKCO":"406","LANDMARKNA":"芝蘭公園","LANDMARKAD":"1000121","ADDRESS":"新北市三芝區","TEL":" ","COUNTYNAME":"新北市","TOWNNAME":"三芝區","MARKTYPE":"994","Class":"4"},"geometry":{"x":297639.04040000029,"y":2793927.7726000007}},{"attributes":{"OBJECTID":3468,"LANDMARKID":"1000100002243","LANDMARKCO":"406","LANDMARKNA":"景觀公園","LANDMARKAD":"1000121","ADDRESS":"新北市三芝區","TEL":" ","COUNTYNAME":"新北市","TOWNNAME":"三芝區","MARKTYPE":"994","Class":"4"},"geometry":{"x":297679.02589999977,"y":2793460.4467999991}},{"attributes":{"OBJECTID":3469,"LANDMARKID":"1000100001937","LANDMARKCO":"405","LANDMARKNA":"台塑加油站-大嘉好站(台塑)","LANDMARKAD":"1000121","ADDRESS":"新北市三芝區錫板村14-32號","TEL":"02-26364295","COUNTYNAME":"新北市","TOWNNAME":"三芝區","MARKTYPE":"994","Class":"4"},"geometry":{"x":297927.9796000002,"y":2794181.3209000006}},{"attributes":{"OBJECTID":3470,"LANDMARKID":"1000100000116","LANDMARKCO":"103","LANDMARKNA":"新北市三芝區衛生所","LANDMARKAD":"1000121","ADDRESS":"新北市三芝區中山路一段12號","TEL":"02-26362007","COUNTYNAME":"新北市","TOWNNAME":"三芝區","MARKTYPE":"991","Class":"1"},"geometry":{"x":300445.1409,"y":2794509.7562000006}},{"attributes":{"OBJECTID":3471,"LANDMARKID":"1000100000411","LANDMARKCO":"108","LANDMARKNA":"新北市三芝區公所","LANDMARKAD":"1000121","ADDRESS":"新北市三芝區中山路一段32號","TEL":"02-26362111","COUNTYNAME":"新北市","TOWNNAME":"三芝區","MARKTYPE":"991","Class":"1"},"geometry":{"x":300491.96860000025,"y":2794459.5819000006}},{"attributes":{"OBJECTID":3472,"LANDMARKID":"1000100000117","LANDMARKCO":"103","LANDMARKNA":"新北市三芝區鄉民代表會","LANDMARKAD":"1000121","ADDRESS":"新北市三芝區中山路一段32號3樓","TEL":"02-26360168","COUNTYNAME":"新北市","TOWNNAME":"三芝區","MARKTYPE":"991","Class":"1"},"geometry":{"x":299793.02109999955,"y":2794259.0734000001}},{"attributes":{"OBJECTID":3473,"LANDMARKID":"1000100000359","LANDMARKCO":"107","LANDMARKNA":"新北市消防局三芝分隊","LANDMARKAD":"1000121","ADDRESS":"新北市三芝區中山路一段10號","TEL":"02-26362457","COUNTYNAME":"新北市","TOWNNAME":"三芝區","MARKTYPE":"991","Class":"1"},"geometry":{"x":300451.1799999997,"y":2794519.7336999997}},{"attributes":{"OBJECTID":3474,"LANDMARKID":"1000100000360","LANDMARKCO":"107","LANDMARKNA":"新北市政府警察局三芝分駐所","LANDMARKAD":"1000121","ADDRESS":"新北市三芝區埔頭村育英街27號","TEL":"02-26362049","COUNTYNAME":"新北市","TOWNNAME":"三芝區","MARKTYPE":"991","Class":"1"},"geometry":{"x":300562.17669999972,"y":2794509.3194999993}},{"attributes":{"OBJECTID":3475,"LANDMARKID":"1000100000149","LANDMARKCO":"106","LANDMARKNA":"新北市三芝區戶政事務所","LANDMARKAD":"1000121","ADDRESS":"新北市三芝區埔頭村12鄰育英街29號","TEL":"02-26362889","COUNTYNAME":"新北市","TOWNNAME":"三芝區","MARKTYPE":"991","Class":"1"},"geometry":{"x":300530.68159999978,"y":2794379.4377999995}},{"attributes":{"OBJECTID":3476,"LANDMARKID":"1000100000356","LANDMARKCO":"107","LANDMARKNA":"新北市政府警察局後厝派出所","LANDMARKAD":"1000121","ADDRESS":"新北市三芝區後厝村北勢子45-32號","TEL":"02-26362052","COUNTYNAME":"新北市","TOWNNAME":"三芝區","MARKTYPE":"991","Class":"1"},"geometry":{"x":297352.35570000019,"y":2793699.8245999999}},{"attributes":{"OBJECTID":3477,"LANDMARKID":"1000100000357","LANDMARKCO":"107","LANDMARKNA":"新北市政府警察局埔濱派出所","LANDMARKAD":"1000121","ADDRESS":"新北市三芝區興華村田心子1號","TEL":"02-26367849","COUNTYNAME":"新北市","TOWNNAME":"三芝區","MARKTYPE":"991","Class":"1"},"geometry":{"x":301013.59360000025,"y":2790029.7370999996}},{"attributes":{"OBJECTID":3478,"LANDMARKID":"1000100000358","LANDMARKCO":"107","LANDMARKNA":"新北市政府警察局興華派出所","LANDMARKAD":"1000121","ADDRESS":"新北市三芝區興華村田心子1號","TEL":"02-26371851","COUNTYNAME":"新北市","TOWNNAME":"三芝區","MARKTYPE":"991","Class":"1"},"geometry":{"x":300581.99880000018,"y":2788599.2838000003}},{"attributes":{"OBJECTID":3479,"LANDMARKID":"1000100000908","LANDMARKCO":"205","LANDMARKNA":"李天祿布袋戲文物館","LANDMARKAD":"1000121","ADDRESS":"新北市三芝區芝柏山莊芝柏路26號","TEL":" ","COUNTYNAME":"新北市","TOWNNAME":"三芝區","MARKTYPE":"992","Class":"2"},"geometry":{"x":301611.86390000023,"y":2794200.6550999992}},{"attributes":{"OBJECTID":3480,"LANDMARKID":"1000100000833","LANDMARKCO":"204","LANDMARKNA":"新北市立圖書館三芝分館","LANDMARKAD":"1000121","ADDRESS":"新北市三芝區淡金路一段37號","TEL":" ","COUNTYNAME":"新北市","TOWNNAME":"三芝區","MARKTYPE":"992","Class":"2"},"geometry":{"x":300497.72869999986,"y":2794277.7426999994}},{"attributes":{"OBJECTID":3481,"LANDMARKID":"1000100000750","LANDMARKCO":"203","LANDMARKNA":"縣立三芝國中","LANDMARKAD":"1000121","ADDRESS":"新北市三芝區淡金路一段38號","TEL":"02-26361807","COUNTYNAME":"新北市","TOWNNAME":"三芝區","MARKTYPE":"992","Class":"2"},"geometry":{"x":300538.65519999992,"y":2794639.4066000003}},{"attributes":{"OBJECTID":3482,"LANDMARKID":"1000100000751","LANDMARKCO":"203","LANDMARKNA":"縣立三芝國小","LANDMARKAD":"1000121","ADDRESS":"新北市三芝區埔頭村育英街22號","TEL":"02-26362005","COUNTYNAME":"新北市","TOWNNAME":"三芝區","MARKTYPE":"992","Class":"2"},"geometry":{"x":300645.79050000012,"y":2794399.0075000003}},{"attributes":{"OBJECTID":3483,"LANDMARKID":"1000100000752","LANDMARKCO":"203","LANDMARKNA":"縣立三芝國小陽住分校","LANDMARKAD":"1000121","ADDRESS":"新北市三芝區","TEL":" ","COUNTYNAME":"新北市","TOWNNAME":"三芝區","MARKTYPE":"992","Class":"2"},"geometry":{"x":299314.70540000033,"y":2792289.8102000002}},{"attributes":{"OBJECTID":3484,"LANDMARKID":"1000100000753","LANDMARKCO":"203","LANDMARKNA":"縣立興華國小","LANDMARKAD":"1000121","ADDRESS":"新北市三芝區興華村5號","TEL":"02-26371336","COUNTYNAME":"新北市","TOWNNAME":"三芝區","MARKTYPE":"992","Class":"2"},"geometry":{"x":300538.47670000046,"y":2788459.4461000003}},{"attributes":{"OBJECTID":3485,"LANDMARKID":"1000100000754","LANDMARKCO":"203","LANDMARKNA":"縣立橫山國小","LANDMARKAD":"1000121","ADDRESS":"新北市三芝區橫山村86號","TEL":"02-26362473","COUNTYNAME":"新北市","TOWNNAME":"三芝區","MARKTYPE":"992","Class":"2"},"geometry":{"x":303442.13350000046,"y":2794528.9628999997}},{"attributes":{"OBJECTID":3486,"LANDMARKID":"1000100000449","LANDMARKCO":"201","LANDMARKNA":"中國生產中心品質學院","LANDMARKAD":"1000121","ADDRESS":"新北市三芝區","TEL":" ","COUNTYNAME":"新北市","TOWNNAME":"三芝區","MARKTYPE":"992","Class":"2"},"geometry":{"x":305069.6810999997,"y":2793559.1455000006}},{"attributes":{"OBJECTID":3487,"LANDMARKID":"1000100001250","LANDMARKCO":"303","LANDMARKNA":"三芝熱帶嶼活力渡假村停車場","LANDMARKAD":"1000121","ADDRESS":" ","TEL":"02-26368111","COUNTYNAME":"新北市","TOWNNAME":"三芝區","MARKTYPE":"993","Class":"303"},"geometry":{"x":299133.6771999998,"y":2794553.4293000009}},{"attributes":{"OBJECTID":3488,"LANDMARKID":"1000100001251","LANDMARKCO":"303","LANDMARKNA":"二子坪停車場","LANDMARKAD":"1000121","ADDRESS":" ","TEL":" ","COUNTYNAME":"新北市","TOWNNAME":"三芝區","MARKTYPE":"993","Class":"303"},"geometry":{"x":303010.79590000026,"y":2786479.1633000001}},{"attributes":{"OBJECTID":3489,"LANDMARKID":"1000100001252","LANDMARKCO":"303","LANDMARKNA":"停一立體停車場","LANDMARKAD":"1000121","ADDRESS":"新北市三芝區埔頭村","TEL":" ","COUNTYNAME":"新北市","TOWNNAME":"三芝區","MARKTYPE":"993","Class":"303"},"geometry":{"x":300799.48500000034,"y":2794565.6753000002}},{"attributes":{"OBJECTID":3490,"LANDMARKID":"1000100001253","LANDMARKCO":"303","LANDMARKNA":"停二立體停車場","LANDMARKAD":"1000121","ADDRESS":"新北市三芝區埔坪里中正村","TEL":" ","COUNTYNAME":"新北市","TOWNNAME":"三芝區","MARKTYPE":"993","Class":"303"},"geometry":{"x":300691.43719999958,"y":2794078.4472000003}},{"attributes":{"OBJECTID":3491,"LANDMARKID":"1000100001254","LANDMARKCO":"303","LANDMARKNA":"中山立體停車場","LANDMARKAD":"1000121","ADDRESS":"新北市三芝區","TEL":" ","COUNTYNAME":"新北市","TOWNNAME":"三芝區","MARKTYPE":"993","Class":"303"},"geometry":{"x":300442.42069999967,"y":2794570.4688000008}},{"attributes":{"OBJECTID":3492,"LANDMARKID":"1000100001255","LANDMARKCO":"303","LANDMARKNA":"鞍部停車場","LANDMARKAD":"1000121","ADDRESS":"新北市三芝區","TEL":" ","COUNTYNAME":"新北市","TOWNNAME":"三芝區","MARKTYPE":"993","Class":"303"},"geometry":{"x":303277.63740000036,"y":2786192.1414000001}},{"attributes":{"OBJECTID":3493,"LANDMARKID":"1000100001256","LANDMARKCO":"303","LANDMARKNA":"大屯山自然公園停車場","LANDMARKAD":"1000121","ADDRESS":"新北市三芝區","TEL":" ","COUNTYNAME":"新北市","TOWNNAME":"三芝區","MARKTYPE":"993","Class":"303"},"geometry":{"x":302618.86980000045,"y":2786487.6209999993}},{"attributes":{"OBJECTID":3494,"LANDMARKID":"1000100002863","LANDMARKCO":"603","LANDMARKNA":"富祥旅社","LANDMARKAD":"1000121","ADDRESS":"新北市三芝區中山路1段47號","TEL":"02-26367037","COUNTYNAME":"新北市","TOWNNAME":"三芝區","MARKTYPE":"996","Class":"6"},"geometry":{"x":300399.84399999958,"y":2794391.7730999999}},{"attributes":{"OBJECTID":3495,"LANDMARKID":"1000100002948","LANDMARKCO":"604","LANDMARKNA":"可洛可呆民宿","LANDMARKAD":"1000121","ADDRESS":"新北市三芝區茂長村芝柏路34號","TEL":"02-26363466","COUNTYNAME":"新北市","TOWNNAME":"三芝區","MARKTYPE":"996","Class":"6"},"geometry":{"x":301593.77869999968,"y":2794202.1439999994}},{"attributes":{"OBJECTID":3496,"LANDMARKID":"1000100002949","LANDMARKCO":"604","LANDMARKNA":"四個孩子民宿","LANDMARKAD":"1000121","ADDRESS":"新北市三芝區茂長村芝柏路85號","TEL":"02-26362877","COUNTYNAME":"新北市","TOWNNAME":"三芝區","MARKTYPE":"996","Class":"6"},"geometry":{"x":301495.03139999975,"y":2794350.0645000003}},{"attributes":{"OBJECTID":3497,"LANDMARKID":"1000100002506","LANDMARKCO":"503","LANDMARKNA":"淺水灣","LANDMARKAD":"1000121","ADDRESS":"新北市三芝區","TEL":" ","COUNTYNAME":"新北市","TOWNNAME":"三芝區","MARKTYPE":"995","Class":"5"},"geometry":{"x":297119.83019999973,"y":2793639.9850999992}},{"attributes":{"OBJECTID":3498,"LANDMARKID":"1000100002507","LANDMARKCO":"503","LANDMARKNA":"大屯山自然公園","LANDMARKAD":"1000121","ADDRESS":"新北市三芝區興華村車埕路53之2號","TEL":" ","COUNTYNAME":"新北市","TOWNNAME":"三芝區","MARKTYPE":"995","Class":"5"},"geometry":{"x":302633.30109999981,"y":2786676.6693999991}},{"attributes":{"OBJECTID":3499,"LANDMARKID":"1000100001935","LANDMARKCO":"405","LANDMARKNA":"中油加油站-金農站","LANDMARKAD":"1000127","ADDRESS":"新北市金山區中華路117巷1-23號","TEL":"02-24985474","COUNTYNAME":"新北市","TOWNNAME":"金山區","MARKTYPE":"994","Class":"4"},"geometry":{"x":313611.40280000027,"y":2790688.7294999994}},{"attributes":{"OBJECTID":3500,"LANDMARKID":"1000100001936","LANDMARKCO":"405","LANDMARKNA":"中油加油站-金山站(中油直營)","LANDMARKAD":"1000127","ADDRESS":"新北市金山區中山路385號","TEL":"02-24982553","COUNTYNAME":"新北市","TOWNNAME":"金山區","MARKTYPE":"994","Class":"4"},"geometry":{"x":314135.18219999969,"y":2790572.4616}},{"attributes":{"OBJECTID":3501,"LANDMARKID":"1000100001594","LANDMARKCO":"401","LANDMARKNA":"財團法人北海岸金山醫院","LANDMARKAD":"1000127","ADDRESS":"新北市金山區南勢51號","TEL":"02-24989898","COUNTYNAME":"新北市","TOWNNAME":"金山區","MARKTYPE":"994","Class":"4"},"geometry":{"x":313360.75960000046,"y":2790248.5698000006}},{"attributes":{"OBJECTID":3502,"LANDMARKID":"1000100000916","LANDMARKCO":"207","LANDMARKNA":"朱銘美術館","LANDMARKAD":"1000127","ADDRESS":"新北市金山區西勢路2號","TEL":"02-24989940","COUNTYNAME":"新北市","TOWNNAME":"金山區","MARKTYPE":"992","Class":"2"},"geometry":{"x":311456.97279999964,"y":2792804.2917999998}},{"attributes":{"OBJECTID":3503,"LANDMARKID":"1000100002436","LANDMARKCO":"408","LANDMARKNA":"郵局-金山郵局","LANDMARKAD":"1000127","ADDRESS":"新北市金山區中山路97號","TEL":"(02)2498-2140","COUNTYNAME":"新北市","TOWNNAME":"金山區","MARKTYPE":"994","Class":"4"},"geometry":{"x":314487.59910000023,"y":2790160.3376000002}},{"attributes":{"OBJECTID":3504,"LANDMARKID":"1000100002444","LANDMARKCO":"409","LANDMARKNA":"新北市金山地區農會","LANDMARKAD":"1000127","ADDRESS":"新北市金山區中山路267號","TEL":"02-24981100","COUNTYNAME":"新北市","TOWNNAME":"金山區","MARKTYPE":"994","Class":"4"},"geometry":{"x":314095.5521999998,"y":2790643.1831999999}},{"attributes":{"OBJECTID":3505,"LANDMARKID":"1000100002445","LANDMARKCO":"409","LANDMARKNA":"金山區漁會","LANDMARKAD":"1000127","ADDRESS":"新北市金山區磺港村磺港路54號","TEL":"02-24981141","COUNTYNAME":"新北市","TOWNNAME":"金山區","MARKTYPE":"994","Class":"4"},"geometry":{"x":315279.55080000032,"y":2791364.6527999993}},{"attributes":{"OBJECTID":3506,"LANDMARKID":"1000100002235","LANDMARKCO":"406","LANDMARKNA":"濱海植物園","LANDMARKAD":"1000127","ADDRESS":"新北市金山區","TEL":" ","COUNTYNAME":"新北市","TOWNNAME":"金山區","MARKTYPE":"994","Class":"4"},"geometry":{"x":314296.83550000004,"y":2791679.3101000004}},{"attributes":{"OBJECTID":3507,"LANDMARKID":"1000100002236","LANDMARKCO":"406","LANDMARKNA":"中正公園","LANDMARKAD":"1000127","ADDRESS":"新北市金山區","TEL":" ","COUNTYNAME":"新北市","TOWNNAME":"金山區","MARKTYPE":"994","Class":"4"},"geometry":{"x":315633.35219999962,"y":2791231.9756000005}},{"attributes":{"OBJECTID":3508,"LANDMARKID":"1000100002237","LANDMARKCO":"406","LANDMARKNA":"海濱公園","LANDMARKAD":"1000127","ADDRESS":"新北市金山區","TEL":" ","COUNTYNAME":"新北市","TOWNNAME":"金山區","MARKTYPE":"994","Class":"4"},"geometry":{"x":315508.38669999968,"y":2791148.5252999999}},{"attributes":{"OBJECTID":3509,"LANDMARKID":"1000100000113","LANDMARKCO":"103","LANDMARKNA":"新北市金山區衛生所","LANDMARKAD":"1000127","ADDRESS":"新北市金山區民生路59號","TEL":"02-24982778","COUNTYNAME":"新北市","TOWNNAME":"金山區","MARKTYPE":"991","Class":"1"},"geometry":{"x":314621.58150000032,"y":2790358.8364000004}},{"attributes":{"OBJECTID":3510,"LANDMARKID":"1000100000412","LANDMARKCO":"108","LANDMARKNA":"新北市金山區公所","LANDMARKAD":"1000127","ADDRESS":"新北市金山區金美村中正路11號","TEL":"02-24985965","COUNTYNAME":"新北市","TOWNNAME":"金山區","MARKTYPE":"991","Class":"1"},"geometry":{"x":314138.29810000025,"y":2790509.8058000002}},{"attributes":{"OBJECTID":3511,"LANDMARKID":"1000100000001","LANDMARKCO":"101","LANDMARKNA":"金山社區醫學訓練中心","LANDMARKAD":"1000127","ADDRESS":"新北市金山區民生路59號","TEL":"02-24982778","COUNTYNAME":"新北市","TOWNNAME":"金山區","MARKTYPE":"991","Class":"1"},"geometry":{"x":314616.62920000032,"y":2790368.8599999994}},{"attributes":{"OBJECTID":3512,"LANDMARKID":"1000100000112","LANDMARKCO":"103","LANDMARKNA":"新北市金山區鄉民代表會","LANDMARKAD":"1000127","ADDRESS":"新北市金山區五湖村龜子山路8號3樓","TEL":"02-24982235","COUNTYNAME":"新北市","TOWNNAME":"金山區","MARKTYPE":"991","Class":"1"},"geometry":{"x":314698.7603000002,"y":2790089.8079000004}},{"attributes":{"OBJECTID":3513,"LANDMARKID":"1000100000353","LANDMARKCO":"107","LANDMARKNA":"新北市政府警察局金山分局","LANDMARKAD":"1000127","ADDRESS":"新北市金山區大同村民生路65號","TEL":"02-24986544","COUNTYNAME":"新北市","TOWNNAME":"金山區","MARKTYPE":"991","Class":"1"},"geometry":{"x":314593.53419999965,"y":2790348.9702000003}},{"attributes":{"OBJECTID":3514,"LANDMARKID":"1000100000354","LANDMARKCO":"107","LANDMARKNA":"新北市政府警察局中角派出所","LANDMARKAD":"1000127","ADDRESS":"新北市金山區萬壽村海興路87號","TEL":"02-24982136","COUNTYNAME":"新北市","TOWNNAME":"金山區","MARKTYPE":"991","Class":"1"},"geometry":{"x":313883.18659999967,"y":2793029.6853}},{"attributes":{"OBJECTID":3515,"LANDMARKID":"1000100000355","LANDMARKCO":"107","LANDMARKNA":"新北市政府警察局金山派出所","LANDMARKAD":"1000127","ADDRESS":"新北市金山區大同村民生路65號","TEL":"02-24982009","COUNTYNAME":"新北市","TOWNNAME":"金山區","MARKTYPE":"991","Class":"1"},"geometry":{"x":314593.53419999965,"y":2790348.9702000003}},{"attributes":{"OBJECTID":3516,"LANDMARKID":"1000100000150","LANDMARKCO":"106","LANDMARKNA":"新北市金山區戶政事務所","LANDMARKAD":"1000127","ADDRESS":"新北市金山區大同村1鄰民生路67號","TEL":"02-24982059","COUNTYNAME":"新北市","TOWNNAME":"金山區","MARKTYPE":"991","Class":"1"},"geometry":{"x":314556.43939999957,"y":2790329.1469999999}},{"attributes":{"OBJECTID":3517,"LANDMARKID":"1000100000351","LANDMARKCO":"107","LANDMARKNA":"新北市消防局金山分隊","LANDMARKAD":"1000127","ADDRESS":"新北市金山區五湖村南勢54號","TEL":"02-24982519","COUNTYNAME":"新北市","TOWNNAME":"金山區","MARKTYPE":"991","Class":"1"},"geometry":{"x":313455.8777999999,"y":2790419.0726999994}},{"attributes":{"OBJECTID":3518,"LANDMARKID":"1000100000352","LANDMARKCO":"107","LANDMARKNA":"新北市政府警察局重光派出所","LANDMARKAD":"1000127","ADDRESS":"新北市金山區重和村茅埔頭8號","TEL":"02-24982470","COUNTYNAME":"新北市","TOWNNAME":"金山區","MARKTYPE":"991","Class":"1"},"geometry":{"x":310750.14410000015,"y":2789859.9605}},{"attributes":{"OBJECTID":3519,"LANDMARKID":"1000100000002","LANDMARKCO":"101","LANDMARKNA":"金山區公害防治中心","LANDMARKAD":"1000127","ADDRESS":"新北市金山區","TEL":" ","COUNTYNAME":"新北市","TOWNNAME":"金山區","MARKTYPE":"991","Class":"1"},"geometry":{"x":313774.2873999998,"y":2790718.8871999998}},{"attributes":{"OBJECTID":3520,"LANDMARKID":"1000100000831","LANDMARKCO":"204","LANDMARKNA":"新北市立圖書館金山分館","LANDMARKAD":"1000127","ADDRESS":"新北市金山區五湖村龜子路8號","TEL":" ","COUNTYNAME":"新北市","TOWNNAME":"金山區","MARKTYPE":"992","Class":"2"},"geometry":{"x":314440.57160000037,"y":2790121.2500999998}},{"attributes":{"OBJECTID":3521,"LANDMARKID":"1000100000465","LANDMARKCO":"202","LANDMARKNA":"縣立金山高中","LANDMARKAD":"1000127","ADDRESS":"新北市金山區文化二路2號","TEL":"02-24982028","COUNTYNAME":"新北市","TOWNNAME":"金山區","MARKTYPE":"992","Class":"2"},"geometry":{"x":314239.81539999973,"y":2790829.3247999996}},{"attributes":{"OBJECTID":3522,"LANDMARKID":"1000100000745","LANDMARKCO":"203","LANDMARKNA":"縣立金山國小","LANDMARKAD":"1000127","ADDRESS":"新北市金山區美田村金包里街180號","TEL":"02-24981125","COUNTYNAME":"新北市","TOWNNAME":"金山區","MARKTYPE":"992","Class":"2"},"geometry":{"x":314164.2452999996,"y":2790709.6829000004}},{"attributes":{"OBJECTID":3523,"LANDMARKID":"1000100000746","LANDMARKCO":"203","LANDMARKNA":"縣立中角國小","LANDMARKAD":"1000127","ADDRESS":"新北市金山區萬壽村海興路49號","TEL":"02-24987413","COUNTYNAME":"新北市","TOWNNAME":"金山區","MARKTYPE":"992","Class":"2"},"geometry":{"x":313534.6819000002,"y":2792508.6999999993}},{"attributes":{"OBJECTID":3524,"LANDMARKID":"1000100000747","LANDMARKCO":"203","LANDMARKNA":"縣立三和國小兩湖分校","LANDMARKAD":"1000127","ADDRESS":"新北市金山區","TEL":" ","COUNTYNAME":"新北市","TOWNNAME":"金山區","MARKTYPE":"992","Class":"2"},"geometry":{"x":310015.65979999956,"y":2791719.4816999994}},{"attributes":{"OBJECTID":3525,"LANDMARKID":"1000100000748","LANDMARKCO":"203","LANDMARKNA":"縣立三和國小","LANDMARKAD":"1000127","ADDRESS":"新北市金山區重和村10鄰38號","TEL":"02-24982417","COUNTYNAME":"新北市","TOWNNAME":"金山區","MARKTYPE":"992","Class":"2"},"geometry":{"x":310719.10979999974,"y":2790158.8416000009}},{"attributes":{"OBJECTID":3526,"LANDMARKID":"1000100000749","LANDMARKCO":"203","LANDMARKNA":"縣立金美國小","LANDMARKAD":"1000127","ADDRESS":"新北市金山區","TEL":"02-24986503","COUNTYNAME":"新北市","TOWNNAME":"金山區","MARKTYPE":"992","Class":"2"},"geometry":{"x":314099.68310000002,"y":2790379.9886000007}},{"attributes":{"OBJECTID":3527,"LANDMARKID":"1000100001454","LANDMARKCO":"305","LANDMARKNA":"永興漁港","LANDMARKAD":"1000127","ADDRESS":"新北市金山區","TEL":" ","COUNTYNAME":"新北市","TOWNNAME":"金山區","MARKTYPE":"993","Class":"305"},"geometry":{"x":312626.67700000014,"y":2796238.7832999993}},{"attributes":{"OBJECTID":3528,"LANDMARKID":"1000100001455","LANDMARKCO":"305","LANDMARKNA":"磺港漁港","LANDMARKAD":"1000127","ADDRESS":"新北市金山區","TEL":" ","COUNTYNAME":"新北市","TOWNNAME":"金山區","MARKTYPE":"993","Class":"305"},"geometry":{"x":315223.30379999988,"y":2791401.5636999998}},{"attributes":{"OBJECTID":3529,"LANDMARKID":"1000100001456","LANDMARKCO":"305","LANDMARKNA":"水尾漁港","LANDMARKAD":"1000127","ADDRESS":"新北市金山區","TEL":" ","COUNTYNAME":"新北市","TOWNNAME":"金山區","MARKTYPE":"993","Class":"305"},"geometry":{"x":315581.82210000046,"y":2790858.2796}},{"attributes":{"OBJECTID":3530,"LANDMARKID":"1000100000954","LANDMARKCO":"302","LANDMARKNA":"國光汽車客運金山站","LANDMARKAD":"1000127","ADDRESS":"新北市金山區和平村中山路114號","TEL":" ","COUNTYNAME":"新北市","TOWNNAME":"金山區","MARKTYPE":"993","Class":"302"},"geometry":{"x":314385.50700000022,"y":2790313.3932000007}},{"attributes":{"OBJECTID":3531,"LANDMARKID":"1000100001242","LANDMARKCO":"303","LANDMARKNA":"上磺溪停車場","LANDMARKAD":"1000127","ADDRESS":" ","TEL":" ","COUNTYNAME":"新北市","TOWNNAME":"金山區","MARKTYPE":"993","Class":"303"},"geometry":{"x":308778.39859999996,"y":2785632.0095000006}},{"attributes":{"OBJECTID":3532,"LANDMARKID":"1000100001243","LANDMARKCO":"303","LANDMARKNA":"金山免費停車場","LANDMARKAD":"1000127","ADDRESS":" ","TEL":" ","COUNTYNAME":"新北市","TOWNNAME":"金山區","MARKTYPE":"993","Class":"303"},"geometry":{"x":310114.20409999974,"y":2788409.5042000003}},{"attributes":{"OBJECTID":3533,"LANDMARKID":"1000100001244","LANDMARKCO":"303","LANDMARKNA":"跳石海岸停車場","LANDMARKAD":"1000127","ADDRESS":" ","TEL":" ","COUNTYNAME":"新北市","TOWNNAME":"金山區","MARKTYPE":"993","Class":"303"},"geometry":{"x":313743.40350000001,"y":2794757.1834999993}},{"attributes":{"OBJECTID":3534,"LANDMARKID":"1000100001245","LANDMARKCO":"303","LANDMARKNA":"中山堂停車場","LANDMARKAD":"1000127","ADDRESS":" ","TEL":" ","COUNTYNAME":"新北市","TOWNNAME":"金山區","MARKTYPE":"993","Class":"303"},"geometry":{"x":314646.43209999986,"y":2790409.7260999996}},{"attributes":{"OBJECTID":3535,"LANDMARKID":"1000100001246","LANDMARKCO":"303","LANDMARKNA":"第一停車場","LANDMARKAD":"1000127","ADDRESS":" ","TEL":"02-24985966","COUNTYNAME":"新北市","TOWNNAME":"金山區","MARKTYPE":"993","Class":"303"},"geometry":{"x":315126.75219999999,"y":2790540.1918000001}},{"attributes":{"OBJECTID":3536,"LANDMARKID":"1000100001247","LANDMARKCO":"303","LANDMARKNA":"金山海濱公園停車場","LANDMARKAD":"1000127","ADDRESS":"新北市金山區金包里","TEL":" ","COUNTYNAME":"新北市","TOWNNAME":"金山區","MARKTYPE":"993","Class":"303"},"geometry":{"x":314787.48809999973,"y":2791137.9349000007}},{"attributes":{"OBJECTID":3537,"LANDMARKID":"1000100001248","LANDMARKCO":"303","LANDMARKNA":"忠孝收費停車場","LANDMARKAD":"1000127","ADDRESS":"新北市金山區","TEL":" ","COUNTYNAME":"新北市","TOWNNAME":"金山區","MARKTYPE":"993","Class":"303"},"geometry":{"x":314207.62530000042,"y":2790356.6509000007}},{"attributes":{"OBJECTID":3538,"LANDMARKID":"1000100001249","LANDMARKCO":"303","LANDMARKNA":"金山青年活動中心停車場","LANDMARKAD":"1000127","ADDRESS":"新北市金山區青年路1號","TEL":" ","COUNTYNAME":"新北市","TOWNNAME":"金山區","MARKTYPE":"993","Class":"303"},"geometry":{"x":314566.96160000004,"y":2791002.5875000004}},{"attributes":{"OBJECTID":3539,"LANDMARKID":"1000100002864","LANDMARKCO":"603","LANDMARKNA":"怡美賓館","LANDMARKAD":"1000127","ADDRESS":"新北市金山區民生路206號","TEL":"02-24982212","COUNTYNAME":"新北市","TOWNNAME":"金山區","MARKTYPE":"996","Class":"6"},"geometry":{"x":314558.28170000017,"y":2790387.4151000008}},{"attributes":{"OBJECTID":3540,"LANDMARKID":"1000100002865","LANDMARKCO":"603","LANDMARKNA":"陽明山天籟溫泉會館","LANDMARKAD":"1000127","ADDRESS":"新北市金山區重和村名流路1-6","TEL":"1-7","COUNTYNAME":"新北市","TOWNNAME":"金山區","MARKTYPE":"996","Class":"6"},"geometry":{"x":310313.35900000017,"y":2788657.8452000003}},{"attributes":{"OBJECTID":3541,"LANDMARKID":"1000100002505","LANDMARKCO":"503","LANDMARKNA":"金山風景區","LANDMARKAD":"1000127","ADDRESS":"新北市金山區","TEL":" ","COUNTYNAME":"新北市","TOWNNAME":"金山區","MARKTYPE":"995","Class":"5"},"geometry":{"x":315515.3574000001,"y":2791222.7059000004}},{"attributes":{"OBJECTID":3542,"LANDMARKID":"1000100002638","LANDMARKCO":"508","LANDMARKNA":"奇峰石溫泉山莊","LANDMARKAD":"1000127","ADDRESS":"新北市金山區重和村28之3號","TEL":"02-24080829","COUNTYNAME":"新北市","TOWNNAME":"金山區","MARKTYPE":"995","Class":"5"},"geometry":{"x":310166.25270000007,"y":2789156.5244999994}},{"attributes":{"OBJECTID":3543,"LANDMARKID":"1000100002639","LANDMARKCO":"508","LANDMARKNA":"天籟溫泉會館","LANDMARKAD":"1000127","ADDRESS":"新北市金山區重和村名流路1之7號","TEL":"02-24080000","COUNTYNAME":"新北市","TOWNNAME":"金山區","MARKTYPE":"995","Class":"5"},"geometry":{"x":309930.7089999998,"y":2788282.9184000008}},{"attributes":{"OBJECTID":3544,"LANDMARKID":"1000100002640","LANDMARKCO":"508","LANDMARKNA":"陽明山水會館","LANDMARKAD":"1000127","ADDRESS":"新北市金山區重和村林口33號之3","TEL":"02-24080001","COUNTYNAME":"新北市","TOWNNAME":"金山區","MARKTYPE":"995","Class":"5"},"geometry":{"x":309851.03149999958,"y":2788693.7781000007}},{"attributes":{"OBJECTID":3545,"LANDMARKID":"1000100002641","LANDMARKCO":"508","LANDMARKNA":"金山溫泉健身館","LANDMARKAD":"1000127","ADDRESS":"新北市金山區青年路1號","TEL":"02-24981191","COUNTYNAME":"新北市","TOWNNAME":"金山區","MARKTYPE":"995","Class":"5"},"geometry":{"x":314832.33160000015,"y":2791139.7053999994}},{"attributes":{"OBJECTID":3546,"LANDMARKID":"1000100002642","LANDMARKCO":"508","LANDMARKNA":"磺港社區公共浴室","LANDMARKAD":"1000127","ADDRESS":"新北市金山區","TEL":" ","COUNTYNAME":"新北市","TOWNNAME":"金山區","MARKTYPE":"995","Class":"5"},"geometry":{"x":314892.9534,"y":2791168.9219000004}},{"attributes":{"OBJECTID":3547,"LANDMARKID":"1000100002643","LANDMARKCO":"508","LANDMARKNA":"舊金山總督溫泉","LANDMARKAD":"1000127","ADDRESS":"新北市金山區民生路196號","TEL":"02-24082628","COUNTYNAME":"新北市","TOWNNAME":"金山區","MARKTYPE":"995","Class":"5"},"geometry":{"x":315082.05429999996,"y":2790539.4613000005}},{"attributes":{"OBJECTID":3548,"LANDMARKID":"1000100002679","LANDMARKCO":"509","LANDMARKNA":"新金山海水浴場","LANDMARKAD":"1000127","ADDRESS":"新北市金山區青年路1號","TEL":" ","COUNTYNAME":"新北市","TOWNNAME":"金山區","MARKTYPE":"995","Class":"5"},"geometry":{"x":314841.51269999985,"y":2791442.1700999998}},{"attributes":{"OBJECTID":3549,"LANDMARKID":"1000100002568","LANDMARKCO":"505","LANDMARKNA":"達樂花園(停)","LANDMARKAD":"1000127","ADDRESS":"新北市金山區南勢湖50號","TEL":" ","COUNTYNAME":"新北市","TOWNNAME":"金山區","MARKTYPE":"995","Class":"5"},"geometry":{"x":311102.55250000022,"y":2789604.7160999998}},{"attributes":{"OBJECTID":3550,"LANDMARKID":"1000100002510","LANDMARKCO":"503","LANDMARKNA":"跳石海岸風景特定區","LANDMARKAD":"1000127","ADDRESS":"新北市金山區","TEL":" ","COUNTYNAME":"新北市","TOWNNAME":"金山區","MARKTYPE":"995","Class":"5"},"geometry":{"x":313835.02049999963,"y":2794606.6901999991}},{"attributes":{"OBJECTID":3551,"LANDMARKID":"1000100002634","LANDMARKCO":"508","LANDMARKNA":"八煙溫泉會館","LANDMARKAD":"1000127","ADDRESS":" ","TEL":" ","COUNTYNAME":"新北市","TOWNNAME":"金山區","MARKTYPE":"995","Class":"5"},"geometry":{"x":310261.12420000043,"y":2789316.3255000003}},{"attributes":{"OBJECTID":3552,"LANDMARKID":"1000100002635","LANDMARKCO":"508","LANDMARKNA":"名流湯村","LANDMARKAD":"1000127","ADDRESS":" ","TEL":" ","COUNTYNAME":"新北市","TOWNNAME":"金山區","MARKTYPE":"995","Class":"5"},"geometry":{"x":310467.85429999977,"y":2788851.9476999994}},{"attributes":{"OBJECTID":3553,"LANDMARKID":"1000100002636","LANDMARKCO":"508","LANDMARKNA":"哈啦雙泉會館","LANDMARKAD":"1000127","ADDRESS":" ","TEL":" ","COUNTYNAME":"新北市","TOWNNAME":"金山區","MARKTYPE":"995","Class":"5"},"geometry":{"x":313587.35140000004,"y":2790549.7389000002}},{"attributes":{"OBJECTID":3554,"LANDMARKID":"1000100001922","LANDMARKCO":"405","LANDMARKNA":"中油加油站-中華淡水站","LANDMARKAD":"1000110","ADDRESS":"新北市淡水區民權路41號","TEL":"02-8976-9488","COUNTYNAME":"新北市","TOWNNAME":"淡水區","MARKTYPE":"994","Class":"4"},"geometry":{"x":296406.60130000021,"y":2781259.8794999998}},{"attributes":{"OBJECTID":3555,"LANDMARKID":"1000100001923","LANDMARKCO":"405","LANDMARKNA":"中油加油站-竹圍站","LANDMARKAD":"1000110","ADDRESS":"新北市淡水區民權路86號","TEL":"02-28097273","COUNTYNAME":"新北市","TOWNNAME":"淡水區","MARKTYPE":"994","Class":"4"},"geometry":{"x":296323.11550000031,"y":2781431.7907999996}},{"attributes":{"OBJECTID":3556,"LANDMARKID":"1000100001924","LANDMARKCO":"405","LANDMARKNA":"中油加油站-淡海新市鎮站(中油直營)","LANDMARKAD":"1000110","ADDRESS":"新北市淡水區埤島里二鄰淡金路2段599號","TEL":"02-26228923","COUNTYNAME":"新北市","TOWNNAME":"淡水區","MARKTYPE":"994","Class":"4"},"geometry":{"x":295031.33710000012,"y":2786983.9060999993}},{"attributes":{"OBJECTID":3557,"LANDMARKID":"1000100001925","LANDMARKCO":"405","LANDMARKNA":"中油加油站-永秦站","LANDMARKAD":"1000110","ADDRESS":"新北市淡水區中正東路36號","TEL":"02-2626-2139","COUNTYNAME":"新北市","TOWNNAME":"淡水區","MARKTYPE":"994","Class":"4"},"geometry":{"x":295298.14099999983,"y":2784180.0152000003}},{"attributes":{"OBJECTID":3558,"LANDMARKID":"1000100001926","LANDMARKCO":"405","LANDMARKNA":"中油加油站-登輝站","LANDMARKAD":"1000110","ADDRESS":"新北市淡水區淡金路三段446號","TEL":"02-26229133","COUNTYNAME":"新北市","TOWNNAME":"淡水區","MARKTYPE":"994","Class":"4"},"geometry":{"x":295216.68939999957,"y":2788252.1712999996}},{"attributes":{"OBJECTID":3559,"LANDMARKID":"1000100001927","LANDMARKCO":"405","LANDMARKNA":"中油加油站-淡水站(中油直營)","LANDMARKAD":"1000110","ADDRESS":"新北市淡水區中正東路1號","TEL":"02-26212343","COUNTYNAME":"新北市","TOWNNAME":"淡水區","MARKTYPE":"994","Class":"4"},"geometry":{"x":295363.26269999985,"y":2784124.6802999992}},{"attributes":{"OBJECTID":3560,"LANDMARKID":"1000100001928","LANDMARKCO":"405","LANDMARKNA":"中油加油站-東來站","LANDMARKAD":"1000110","ADDRESS":"新北市淡水區淡金路一段69號","TEL":"02-26257676","COUNTYNAME":"新北市","TOWNNAME":"淡水區","MARKTYPE":"994","Class":"4"},"geometry":{"x":296033.44230000023,"y":2785295.6788999997}},{"attributes":{"OBJECTID":3561,"LANDMARKID":"1000100001595","LANDMARKCO":"401","LANDMARKNA":"泓安醫院","LANDMARKAD":"1000110","ADDRESS":"新北市淡水區下圭柔山91巷2號","TEL":"02-26232681","COUNTYNAME":"新北市","TOWNNAME":"淡水區","MARKTYPE":"994","Class":"4"},"geometry":{"x":294127.14659999963,"y":2789204.1478000004}},{"attributes":{"OBJECTID":3562,"LANDMARKID":"1000100001596","LANDMARKCO":"401","LANDMARKNA":"北新醫院","LANDMARKAD":"1000110","ADDRESS":"新北市淡水區忠寮里演戲埔腳1之2號","TEL":"02-26209199","COUNTYNAME":"新北市","TOWNNAME":"淡水區","MARKTYPE":"994","Class":"4"},"geometry":{"x":297962.85560000036,"y":2787316.5373}},{"attributes":{"OBJECTID":3563,"LANDMARKID":"1000100001597","LANDMARKCO":"401","LANDMARKNA":"長青醫院","LANDMARKAD":"1000110","ADDRESS":"新北市淡水區樹興里糞箕湖1之5號","TEL":"02-86260561","COUNTYNAME":"新北市","TOWNNAME":"淡水區","MARKTYPE":"994","Class":"4"},"geometry":{"x":298654.7779000001,"y":2784849.2398000006}},{"attributes":{"OBJECTID":3564,"LANDMARKID":"1000100001598","LANDMARKCO":"401","LANDMARKNA":"公祥醫院","LANDMARKAD":"1000110","ADDRESS":"新北市淡水區中山路38號","TEL":"02-26217637","COUNTYNAME":"新北市","TOWNNAME":"淡水區","MARKTYPE":"994","Class":"4"},"geometry":{"x":294799.10010000039,"y":2784649.0890999995}},{"attributes":{"OBJECTID":3565,"LANDMARKID":"1000100001599","LANDMARKCO":"401","LANDMARKNA":"馬偕紀念醫院淡水分院","LANDMARKAD":"1000110","ADDRESS":"新北市淡水區民生路45號","TEL":"02-28094661","COUNTYNAME":"新北市","TOWNNAME":"淡水區","MARKTYPE":"994","Class":"4"},"geometry":{"x":296560.09929999989,"y":2781269.7729000002}},{"attributes":{"OBJECTID":3566,"LANDMARKID":"1000100002476","LANDMARKCO":"410","LANDMARKNA":"淡水漁人碼頭","LANDMARKAD":"1000110","ADDRESS":"新北市淡水區觀海路135號","TEL":" ","COUNTYNAME":"新北市","TOWNNAME":"淡水區","MARKTYPE":"994","Class":"4"},"geometry":{"x":292041.28039999958,"y":2785916.1497000009}},{"attributes":{"OBJECTID":3567,"LANDMARKID":"1000100002477","LANDMARKCO":"410","LANDMARKNA":"淡水老街","LANDMARKAD":"1000110","ADDRESS":"新北市淡水區中正路","TEL":" ","COUNTYNAME":"新北市","TOWNNAME":"淡水區","MARKTYPE":"994","Class":"4"},"geometry":{"x":294355.41330000013,"y":2784682.0117000006}},{"attributes":{"OBJECTID":3568,"LANDMARKID":"1000100002600","LANDMARKCO":"507","LANDMARKNA":"淡水紅毛城","LANDMARKAD":"1000110","ADDRESS":"新北市淡水區文化里中正路28巷1號","TEL":" ","COUNTYNAME":"新北市","TOWNNAME":"淡水區","MARKTYPE":"995","Class":"5"},"geometry":{"x":293632.93269999977,"y":2785273.1481999997}},{"attributes":{"OBJECTID":3569,"LANDMARKID":"1000100002601","LANDMARKCO":"507","LANDMARKNA":"淡水古蹟園區","LANDMARKAD":"1000110","ADDRESS":"包括紅毛城、馬偕之路、小白宮、滬尾砲台等18個景點","TEL":" ","COUNTYNAME":"新北市","TOWNNAME":"淡水區","MARKTYPE":"995","Class":"5"},"geometry":{"x":293698.89979999978,"y":2785269.8123000003}},{"attributes":{"OBJECTID":3570,"LANDMARKID":"1000100002602","LANDMARKCO":"507","LANDMARKNA":"淡水紅毛城","LANDMARKAD":"1000110","ADDRESS":"新北市淡水區文化里中正路28巷1號","TEL":"02-26231001","COUNTYNAME":"新北市","TOWNNAME":"淡水區","MARKTYPE":"995","Class":"5"},"geometry":{"x":293632.93269999977,"y":2785273.1481999997}},{"attributes":{"OBJECTID":3571,"LANDMARKID":"1000100002603","LANDMARKCO":"507","LANDMARKNA":"理學堂大書院","LANDMARKAD":"1000110","ADDRESS":"新北市淡水區文化里真理街32號","TEL":" ","COUNTYNAME":"新北市","TOWNNAME":"淡水區","MARKTYPE":"995","Class":"5"},"geometry":{"x":293745.77450000029,"y":2785441.6221999992}},{"attributes":{"OBJECTID":3572,"LANDMARKID":"1000100002604","LANDMARKCO":"507","LANDMARKNA":"滬尾砲台","LANDMARKAD":"1000110","ADDRESS":"新北市淡水區油車里油車口4號","TEL":" ","COUNTYNAME":"新北市","TOWNNAME":"淡水區","MARKTYPE":"995","Class":"5"},"geometry":{"x":295845.32070000004,"y":2783814.1855999995}},{"attributes":{"OBJECTID":3573,"LANDMARKID":"1000100002605","LANDMARKCO":"507","LANDMARKNA":"鄞山寺(汀州會館)","LANDMARKAD":"1000110","ADDRESS":"新北市淡水區鄧公里鄧公路15號","TEL":" ","COUNTYNAME":"新北市","TOWNNAME":"淡水區","MARKTYPE":"995","Class":"5"},"geometry":{"x":295281.03870000038,"y":2784714.2957000006}},{"attributes":{"OBJECTID":3574,"LANDMARKID":"1000100002606","LANDMARKCO":"507","LANDMARKNA":"前清淡水總稅務司官邸","LANDMARKAD":"1000110","ADDRESS":"新北市淡水區真理街15號","TEL":" ","COUNTYNAME":"新北市","TOWNNAME":"淡水區","MARKTYPE":"995","Class":"5"},"geometry":{"x":293811.72719999962,"y":2785145.6812999994}},{"attributes":{"OBJECTID":3575,"LANDMARKID":"1000100002607","LANDMARKCO":"507","LANDMARKNA":"馬偕墓","LANDMARKAD":"1000110","ADDRESS":"新北市淡水區文化里真理街26號","TEL":" ","COUNTYNAME":"新北市","TOWNNAME":"淡水區","MARKTYPE":"995","Class":"5"},"geometry":{"x":293919.71779999975,"y":2785433.2068000007}},{"attributes":{"OBJECTID":3576,"LANDMARKID":"1000100002608","LANDMARKCO":"507","LANDMARKNA":"淡水福佑宮","LANDMARKAD":"1000110","ADDRESS":"新北市淡水區民安里中正路200號","TEL":" ","COUNTYNAME":"新北市","TOWNNAME":"淡水區","MARKTYPE":"995","Class":"5"},"geometry":{"x":294325.84210000001,"y":2784739.3344999999}},{"attributes":{"OBJECTID":3577,"LANDMARKID":"1000100002609","LANDMARKCO":"507","LANDMARKNA":"淡水龍山寺","LANDMARKAD":"1000110","ADDRESS":"新北市淡水區清文里中山路95巷22號","TEL":" ","COUNTYNAME":"新北市","TOWNNAME":"淡水區","MARKTYPE":"995","Class":"5"},"geometry":{"x":294548.36039999966,"y":2784709.6510000005}},{"attributes":{"OBJECTID":3578,"LANDMARKID":"1000100002610","LANDMARKCO":"507","LANDMARKNA":"淡水外僑墓園","LANDMARKAD":"1000110","ADDRESS":"新北市淡水區真理街3巷","TEL":" ","COUNTYNAME":"新北市","TOWNNAME":"淡水區","MARKTYPE":"995","Class":"5"},"geometry":{"x":293942.86510000005,"y":2785447.2590999994}},{"attributes":{"OBJECTID":3579,"LANDMARKID":"1000100002611","LANDMARKCO":"507","LANDMARKNA":"淡水禮拜堂","LANDMARKAD":"1000110","ADDRESS":"新北市淡水區馬偕街8號","TEL":" ","COUNTYNAME":"新北市","TOWNNAME":"淡水區","MARKTYPE":"995","Class":"5"},"geometry":{"x":294182.57749999966,"y":2784893.0658}},{"attributes":{"OBJECTID":3580,"LANDMARKID":"1000100002612","LANDMARKCO":"507","LANDMARKNA":"滬尾偕醫館","LANDMARKAD":"1000110","ADDRESS":"新北市淡水區馬偕街6號","TEL":" ","COUNTYNAME":"新北市","TOWNNAME":"淡水區","MARKTYPE":"995","Class":"5"},"geometry":{"x":294203.71279999986,"y":2784881.8158}},{"attributes":{"OBJECTID":3581,"LANDMARKID":"1000100002613","LANDMARKCO":"507","LANDMARKNA":"滬尾湖南勇古墓","LANDMARKAD":"1000110","ADDRESS":"新北市淡水區中正東路與竿蓁二街交叉口","TEL":" ","COUNTYNAME":"新北市","TOWNNAME":"淡水區","MARKTYPE":"995","Class":"5"},"geometry":{"x":295644.20349999983,"y":2783893.5131999999}},{"attributes":{"OBJECTID":3582,"LANDMARKID":"1000100002587","LANDMARKCO":"506","LANDMARKNA":"桶柑觀光果園","LANDMARKAD":"1000110","ADDRESS":"新北市淡水區中正路44號　","TEL":"02-26202290#5","COUNTYNAME":"新北市","TOWNNAME":"淡水區","MARKTYPE":"995","Class":"5"},"geometry":{"x":298276.80989999976,"y":2785971.9285000004}},{"attributes":{"OBJECTID":3583,"LANDMARKID":"1000100002614","LANDMARKCO":"507","LANDMARKNA":"原英商嘉士洋行倉庫","LANDMARKAD":"1000110","ADDRESS":"新北市淡水區鼻頭街22號","TEL":" ","COUNTYNAME":"新北市","TOWNNAME":"淡水區","MARKTYPE":"995","Class":"5"},"geometry":{"x":295195.78500000015,"y":2784282.8767000008}},{"attributes":{"OBJECTID":3584,"LANDMARKID":"1000100002427","LANDMARKCO":"408","LANDMARKNA":"郵局-淡水郵局","LANDMARKAD":"1000110","ADDRESS":"新北市淡水區中正路203號","TEL":"(02)2621-2054","COUNTYNAME":"新北市","TOWNNAME":"淡水區","MARKTYPE":"994","Class":"4"},"geometry":{"x":294104.89879999962,"y":2784895.9971999992}},{"attributes":{"OBJECTID":3585,"LANDMARKID":"1000100002428","LANDMARKCO":"408","LANDMARKNA":"郵局-淡江大學郵局","LANDMARKAD":"1000110","ADDRESS":"新北市淡水區英專路151號(淡江大學內)","TEL":"(02)2622-6674","COUNTYNAME":"新北市","TOWNNAME":"淡水區","MARKTYPE":"994","Class":"4"},"geometry":{"x":295208.27269999962,"y":2785084.4280999992}},{"attributes":{"OBJECTID":3586,"LANDMARKID":"1000100002429","LANDMARKCO":"408","LANDMARKNA":"郵局-淡水竹圍郵局","LANDMARKAD":"1000110","ADDRESS":"新北市淡水區民權路75號","TEL":"(02)2809-7051","COUNTYNAME":"新北市","TOWNNAME":"淡水區","MARKTYPE":"994","Class":"4"},"geometry":{"x":296369.33559999987,"y":2781230.3092999998}},{"attributes":{"OBJECTID":3587,"LANDMARKID":"1000100002430","LANDMARKCO":"408","LANDMARKNA":"郵局-淡水水碓郵局","LANDMARKAD":"1000110","ADDRESS":"新北市淡水區大忠街9、11號","TEL":"(02)2622-1053","COUNTYNAME":"新北市","TOWNNAME":"淡水區","MARKTYPE":"994","Class":"4"},"geometry":{"x":294690.75659999996,"y":2785355.3982999995}},{"attributes":{"OBJECTID":3588,"LANDMARKID":"1000100002431","LANDMARKCO":"408","LANDMARKNA":"郵局-淡水中興郵局","LANDMARKAD":"1000110","ADDRESS":"新北市淡水區學府路29、31、33號","TEL":"(02)2622-3820","COUNTYNAME":"新北市","TOWNNAME":"淡水區","MARKTYPE":"994","Class":"4"},"geometry":{"x":295132.49959999975,"y":2784559.6162999999}},{"attributes":{"OBJECTID":3589,"LANDMARKID":"1000100002432","LANDMARKCO":"408","LANDMARKNA":"郵局-淡水義山郵局","LANDMARKAD":"1000110","ADDRESS":"新北市淡水區淡金路3段209號","TEL":"(02)2622-6316","COUNTYNAME":"新北市","TOWNNAME":"淡水區","MARKTYPE":"994","Class":"4"},"geometry":{"x":295195.70500000007,"y":2788078.7862}},{"attributes":{"OBJECTID":3590,"LANDMARKID":"1000100002433","LANDMARKCO":"408","LANDMARKNA":"郵局-淡水紅樹林郵局","LANDMARKAD":"1000110","ADDRESS":"新北市淡水區中正東路2段61號","TEL":"(02)8809-7357","COUNTYNAME":"新北市","TOWNNAME":"淡水區","MARKTYPE":"994","Class":"4"},"geometry":{"x":296346.90880000032,"y":2782971.5551999994}},{"attributes":{"OBJECTID":3591,"LANDMARKID":"1000100002448","LANDMARKCO":"409","LANDMARKNA":"新北市淡水區農會","LANDMARKAD":"1000110","ADDRESS":"新北市淡水區中正路42之1號","TEL":"02-26202290","COUNTYNAME":"新北市","TOWNNAME":"淡水區","MARKTYPE":"994","Class":"4"},"geometry":{"x":294724.45909999963,"y":2784624.6279000007}},{"attributes":{"OBJECTID":3592,"LANDMARKID":"1000100002449","LANDMARKCO":"409","LANDMARKNA":"淡水區漁會","LANDMARKAD":"1000110","ADDRESS":"淡水區觀海路199號","TEL":"02-2805-5000","COUNTYNAME":"新北市","TOWNNAME":"淡水區","MARKTYPE":"994","Class":"4"},"geometry":{"x":291430.64030000009,"y":2786185.7337999996}},{"attributes":{"OBJECTID":3593,"LANDMARKID":"1000100002450","LANDMARKCO":"409","LANDMARKNA":"淡水魚市場","LANDMARKAD":"1000110","ADDRESS":"新北市淡水區觀海路199號","TEL":"02-2805000","COUNTYNAME":"新北市","TOWNNAME":"淡水區","MARKTYPE":"994","Class":"4"},"geometry":{"x":291442.13049999997,"y":2786281.5124999993}},{"attributes":{"OBJECTID":3594,"LANDMARKID":"1000100002244","LANDMARKCO":"406","LANDMARKNA":"淡水河堤親水公園","LANDMARKAD":"1000110","ADDRESS":"新北市淡水區","TEL":" ","COUNTYNAME":"新北市","TOWNNAME":"淡水區","MARKTYPE":"994","Class":"4"},"geometry":{"x":293720.46630000044,"y":2785114.8123000003}},{"attributes":{"OBJECTID":3595,"LANDMARKID":"1000100001883","LANDMARKCO":"404","LANDMARKNA":"台灣省自來水淡水營運所","LANDMARKAD":"1000110","ADDRESS":"新北市淡水區仁愛街17號","TEL":" ","COUNTYNAME":"新北市","TOWNNAME":"淡水區","MARKTYPE":"994","Class":"4"},"geometry":{"x":295094.7890999997,"y":2784756.6972000003}},{"attributes":{"OBJECTID":3596,"LANDMARKID":"1000100002245","LANDMARKCO":"406","LANDMARKNA":"仙洞公園","LANDMARKAD":"1000110","ADDRESS":"新北市淡水區","TEL":" ","COUNTYNAME":"新北市","TOWNNAME":"淡水區","MARKTYPE":"994","Class":"4"},"geometry":{"x":298648.24629999977,"y":2788263.2149}},{"attributes":{"OBJECTID":3597,"LANDMARKID":"1000100002246","LANDMARKCO":"406","LANDMARKNA":"河濱公園","LANDMARKAD":"1000110","ADDRESS":"新北市淡水區","TEL":" ","COUNTYNAME":"新北市","TOWNNAME":"淡水區","MARKTYPE":"994","Class":"4"},"geometry":{"x":293726.44730000012,"y":2785123.0963000003}},{"attributes":{"OBJECTID":3598,"LANDMARKID":"1000100002247","LANDMARKCO":"406","LANDMARKNA":"捷運公園","LANDMARKAD":"1000110","ADDRESS":"新北市淡水區","TEL":" ","COUNTYNAME":"新北市","TOWNNAME":"淡水區","MARKTYPE":"994","Class":"4"},"geometry":{"x":294289.57760000043,"y":2784688.5010000002}},{"attributes":{"OBJECTID":3599,"LANDMARKID":"1000100001929","LANDMARKCO":"405","LANDMARKNA":"台塑加油站-新埔站(台塑)","LANDMARKAD":"1000110","ADDRESS":"新北市淡水區淡金路四段496號","TEL":"02-28013101","COUNTYNAME":"新北市","TOWNNAME":"淡水區","MARKTYPE":"994","Class":"4"},"geometry":{"x":295562.23510000017,"y":2791046.4033000004}},{"attributes":{"OBJECTID":3600,"LANDMARKID":"1000100001930","LANDMARKCO":"405","LANDMARKNA":"全國加油站-淡海站（台塑）","LANDMARKAD":"1000110","ADDRESS":"新北市淡水區淡金路132號","TEL":"02-86262302","COUNTYNAME":"新北市","TOWNNAME":"淡水區","MARKTYPE":"994","Class":"4"},"geometry":{"x":296194.42229999974,"y":2784096.5489000008}}]}