{"displayFieldName":"COUNTYNAME","fieldAliases":{"OBJECTID":"OBJECTID","LANDMARKID":"LANDMARKID","LANDMARKCO":"LANDMARKCO","LANDMARKNA":"LANDMARKNA","LANDMARKAD":"LANDMARKAD","ADDRESS":"ADDRESS","TEL":"TEL","COUNTYNAME":"COUNTYNAME","TOWNNAME":"TOWNNAME","MARKTYPE":"MARKTYPE","Class":"Class"},"geometryType":"esriGeometryPoint","spatialReference":{"wkid":102443},"fields":[{"name":"OBJECTID","type":"esriFieldTypeOID","alias":"OBJECTID"},{"name":"LANDMARKID","type":"esriFieldTypeString","alias":"LANDMARKID","length":15},{"name":"LANDMARKCO","type":"esriFieldTypeString","alias":"LANDMARKCO","length":15},{"name":"LANDMARKNA","type":"esriFieldTypeString","alias":"LANDMARKNA","length":50},{"name":"LANDMARKAD","type":"esriFieldTypeString","alias":"LANDMARKAD","length":15},{"name":"ADDRESS","type":"esriFieldTypeString","alias":"ADDRESS","length":56},{"name":"TEL","type":"esriFieldTypeString","alias":"TEL","length":36},{"name":"COUNTYNAME","type":"esriFieldTypeString","alias":"COUNTYNAME","length":15},{"name":"TOWNNAME","type":"esriFieldTypeString","alias":"TOWNNAME","length":13},{"name":"MARKTYPE","type":"esriFieldTypeString","alias":"MARKTYPE","length":12},{"name":"Class","type":"esriFieldTypeString","alias":"Class","length":5}],"features":[{"attributes":{"OBJECTID":601,"LANDMARKID":"1000900000351","LANDMARKCO":"203","LANDMARKNA":"縣立石龜國小","LANDMARKAD":"1000902","ADDRESS":"雲林縣斗南鎮石龜里南生路1號","TEL":"05-5972354","COUNTYNAME":"雲林縣","TOWNNAME":"斗南鎮","MARKTYPE":"992","Class":"2"},"geometry":{"x":197214.3200000003,"y":2615436.0069999993}},{"attributes":{"OBJECTID":602,"LANDMARKID":"1000900000352","LANDMARKCO":"203","LANDMARKNA":"縣立大東國小","LANDMARKAD":"1000902","ADDRESS":"雲林縣斗南鎮新崙里港漧路1號","TEL":"05-5972434","COUNTYNAME":"雲林縣","TOWNNAME":"斗南鎮","MARKTYPE":"992","Class":"2"},"geometry":{"x":193466.45949999988,"y":2619280.5182000007}},{"attributes":{"OBJECTID":603,"LANDMARKID":"1000900000353","LANDMARKCO":"203","LANDMARKNA":"縣立重光國小","LANDMARKAD":"1000902","ADDRESS":"雲林縣斗南鎮將軍里溫厝1號","TEL":"05-5972454","COUNTYNAME":"雲林縣","TOWNNAME":"斗南鎮","MARKTYPE":"992","Class":"2"},"geometry":{"x":200148.29169999994,"y":2617170.0780999996}},{"attributes":{"OBJECTID":604,"LANDMARKID":"1000900000354","LANDMARKCO":"203","LANDMARKNA":"國立雲林特殊教育學校","LANDMARKAD":"1000902","ADDRESS":"雲林縣斗南鎮新崙路100號","TEL":"05-5969241","COUNTYNAME":"雲林縣","TOWNNAME":"斗南鎮","MARKTYPE":"992","Class":"2"},"geometry":{"x":191954.9020999996,"y":2619764.2129999995}},{"attributes":{"OBJECTID":605,"LANDMARKID":"1000900000522","LANDMARKCO":"303","LANDMARKNA":"斗南鎮停一立體停車場","LANDMARKAD":"1000902","ADDRESS":"雲林縣斗南鎮延平路二段266號","TEL":" ","COUNTYNAME":"雲林縣","TOWNNAME":"斗南鎮","MARKTYPE":"993","Class":"303"},"geometry":{"x":197014.85240000021,"y":2621376.6217999998}},{"attributes":{"OBJECTID":606,"LANDMARKID":"1000900000545","LANDMARKCO":"308","LANDMARKNA":"國1-斗南交流道-南下","LANDMARKAD":"1000902","ADDRESS":"雲林縣斗南鎮","TEL":" ","COUNTYNAME":"雲林縣","TOWNNAME":"斗南鎮","MARKTYPE":"993","Class":"308"},"geometry":{"x":195996.81379999965,"y":2620976.9320999999}},{"attributes":{"OBJECTID":607,"LANDMARKID":"1000900000546","LANDMARKCO":"308","LANDMARKNA":"國1-雲林系統交流道-北上","LANDMARKAD":"1000902","ADDRESS":"雲林縣大埤鄉","TEL":" ","COUNTYNAME":"雲林縣","TOWNNAME":"斗南鎮","MARKTYPE":"993","Class":"308"},"geometry":{"x":194828.41669999994,"y":2618790.8500999995}},{"attributes":{"OBJECTID":608,"LANDMARKID":"1000900000547","LANDMARKCO":"308","LANDMARKNA":"國1-斗南交流道-北上","LANDMARKAD":"1000902","ADDRESS":"雲林縣斗南鎮","TEL":" ","COUNTYNAME":"雲林縣","TOWNNAME":"斗南鎮","MARKTYPE":"993","Class":"308"},"geometry":{"x":196238.5290000001,"y":2621378.9045000002}},{"attributes":{"OBJECTID":609,"LANDMARKID":"1000900000510","LANDMARKCO":"302","LANDMARKNA":"台西汽車客運斗南站","LANDMARKAD":"1000902","ADDRESS":"雲林縣斗南鎮南昌路","TEL":" ","COUNTYNAME":"雲林縣","TOWNNAME":"斗南鎮","MARKTYPE":"993","Class":"302"},"geometry":{"x":196766.08169999998,"y":2618903.7289000005}},{"attributes":{"OBJECTID":610,"LANDMARKID":"1000900000521","LANDMARKCO":"303","LANDMARKNA":"斗南火車站停車場","LANDMARKAD":"1000902","ADDRESS":"雲林縣斗南鎮中山路","TEL":" ","COUNTYNAME":"雲林縣","TOWNNAME":"斗南鎮","MARKTYPE":"993","Class":"303"},"geometry":{"x":197024.78369999956,"y":2618946.3004999999}},{"attributes":{"OBJECTID":611,"LANDMARKID":"1000900000503","LANDMARKCO":"301","LANDMARKNA":"斗南火車站","LANDMARKAD":"1000902","ADDRESS":"雲林縣斗南鎮南昌里中山路2號","TEL":"05-5972039","COUNTYNAME":"雲林縣","TOWNNAME":"斗南鎮","MARKTYPE":"993","Class":"301"},"geometry":{"x":197041.52309999987,"y":2618892.4416000005}},{"attributes":{"OBJECTID":612,"LANDMARKID":"1000900000504","LANDMARKCO":"301","LANDMARKNA":"石龜火車站","LANDMARKAD":"1000902","ADDRESS":"雲林縣斗南鎮","TEL":" ","COUNTYNAME":"雲林縣","TOWNNAME":"斗南鎮","MARKTYPE":"993","Class":"301"},"geometry":{"x":196030.97950000037,"y":2615231.1141999997}},{"attributes":{"OBJECTID":613,"LANDMARKID":"1000900000602","LANDMARKCO":"402","LANDMARKNA":"威寶電信-斗南中山特約服務中心","LANDMARKAD":"1000902","ADDRESS":"雲林縣斗南鎮中山路46號","TEL":"05-5967197","COUNTYNAME":"雲林縣","TOWNNAME":"斗南鎮","MARKTYPE":"994","Class":"4"},"geometry":{"x":196944.08550000004,"y":2619071.7750000004}},{"attributes":{"OBJECTID":614,"LANDMARKID":"1000900000886","LANDMARKCO":"603","LANDMARKNA":"南光旅社","LANDMARKAD":"1000902","ADDRESS":"雲林縣斗南鎮中正路93號","TEL":"05-5972158","COUNTYNAME":"雲林縣","TOWNNAME":"斗南鎮","MARKTYPE":"996","Class":"6"},"geometry":{"x":196878.26999999955,"y":2619328.5308999997}},{"attributes":{"OBJECTID":615,"LANDMARKID":"1000900000887","LANDMARKCO":"603","LANDMARKNA":"清龍旅社","LANDMARKAD":"1000902","ADDRESS":"雲林縣斗南鎮民權路15號","TEL":"05-5976047","COUNTYNAME":"雲林縣","TOWNNAME":"斗南鎮","MARKTYPE":"996","Class":"6"},"geometry":{"x":196883.34439999983,"y":2619000.5534000006}},{"attributes":{"OBJECTID":616,"LANDMARKID":"1000900000888","LANDMARKCO":"603","LANDMARKNA":"南美大旅社","LANDMARKAD":"1000902","ADDRESS":"雲林縣斗南鎮民權路26號","TEL":"05-5973188","COUNTYNAME":"雲林縣","TOWNNAME":"斗南鎮","MARKTYPE":"996","Class":"6"},"geometry":{"x":196842.31159999967,"y":2619009.4035999998}},{"attributes":{"OBJECTID":617,"LANDMARKID":"1000900000889","LANDMARKCO":"603","LANDMARKNA":"佳賓大旅社","LANDMARKAD":"1000902","ADDRESS":"雲林縣斗南鎮新興街203號","TEL":"05-5973138-9","COUNTYNAME":"雲林縣","TOWNNAME":"斗南鎮","MARKTYPE":"996","Class":"6"},"geometry":{"x":196670.25310000032,"y":2619025.8138999995}},{"attributes":{"OBJECTID":618,"LANDMARKID":"1000900000890","LANDMARKCO":"603","LANDMARKNA":"天元小築商務旅館","LANDMARKAD":"1000902","ADDRESS":"雲林縣斗南鎮雲林路三段647巷1號","TEL":"05-5971984","COUNTYNAME":"雲林縣","TOWNNAME":"斗南鎮","MARKTYPE":"996","Class":"6"},"geometry":{"x":199031.55090000015,"y":2620479.0969999991}},{"attributes":{"OBJECTID":619,"LANDMARKID":"1000900000891","LANDMARKCO":"603","LANDMARKNA":"他里霧大旅社","LANDMARKAD":"1000902","ADDRESS":"雲林縣斗南鎮順安街65號","TEL":"05-5973178","COUNTYNAME":"雲林縣","TOWNNAME":"斗南鎮","MARKTYPE":"996","Class":"6"},"geometry":{"x":196741.3152999999,"y":2619008.0343999993}},{"attributes":{"OBJECTID":620,"LANDMARKID":"1000900000892","LANDMARKCO":"603","LANDMARKNA":"山櫻花汽車旅館","LANDMARKAD":"1000902","ADDRESS":"雲林縣斗南鎮新生一路59號","TEL":"05-5952888","COUNTYNAME":"雲林縣","TOWNNAME":"斗南鎮","MARKTYPE":"996","Class":"6"},"geometry":{"x":197327.96839999966,"y":2620058.0903999992}},{"attributes":{"OBJECTID":621,"LANDMARKID":"1000900000893","LANDMARKCO":"603","LANDMARKNA":"海悅汽車旅館","LANDMARKAD":"1000902","ADDRESS":"雲林縣斗南鎮長安路2段36號","TEL":"05-5960022","COUNTYNAME":"雲林縣","TOWNNAME":"斗南鎮","MARKTYPE":"996","Class":"6"},"geometry":{"x":196276.96520000044,"y":2618832.4125999995}},{"attributes":{"OBJECTID":622,"LANDMARKID":"1000900000738","LANDMARKCO":"405","LANDMARKNA":"中油加油站-三條崙站","LANDMARKAD":"1000918","ADDRESS":"雲林縣四湖鄉崙北村海青路196號","TEL":"05-7721002","COUNTYNAME":"雲林縣","TOWNNAME":"四湖鄉","MARKTYPE":"994","Class":"4"},"geometry":{"x":175586.02969999984,"y":2616971.0984000005}},{"attributes":{"OBJECTID":623,"LANDMARKID":"1000900000739","LANDMARKCO":"405","LANDMARKNA":"中油加油站-四湖站(中油直營)","LANDMARKAD":"1000918","ADDRESS":"雲林縣四湖鄉施湖村中山西路199號","TEL":"05-7872053","COUNTYNAME":"雲林縣","TOWNNAME":"四湖鄉","MARKTYPE":"994","Class":"4"},"geometry":{"x":170486.55159999989,"y":2615078.0398999993}},{"attributes":{"OBJECTID":624,"LANDMARKID":"1000900000740","LANDMARKCO":"405","LANDMARKNA":"中油加油站-四湖(東站)站","LANDMARKAD":"1000918","ADDRESS":"雲林縣四湖鄉四湖村中正路353號","TEL":"05-7876859","COUNTYNAME":"雲林縣","TOWNNAME":"四湖鄉","MARKTYPE":"994","Class":"4"},"geometry":{"x":170998.59210000001,"y":2614935.7030999996}},{"attributes":{"OBJECTID":625,"LANDMARKID":"1000900000783","LANDMARKCO":"408","LANDMARKNA":"郵局-四湖郵局","LANDMARKAD":"1000918","ADDRESS":"雲林縣四湖鄉中正路347號","TEL":"(05)7872-045","COUNTYNAME":"雲林縣","TOWNNAME":"四湖鄉","MARKTYPE":"994","Class":"4"},"geometry":{"x":171009.79079999961,"y":2614977.4484999999}},{"attributes":{"OBJECTID":626,"LANDMARKID":"1000900000840","LANDMARKCO":"409","LANDMARKNA":"雲林縣四湖鄉農會","LANDMARKAD":"1000918","ADDRESS":"雲林縣四湖鄉湖西村中山西路94號","TEL":"05-7872008","COUNTYNAME":"雲林縣","TOWNNAME":"四湖鄉","MARKTYPE":"994","Class":"4"},"geometry":{"x":170902.87280000001,"y":2615116.7747000009}},{"attributes":{"OBJECTID":627,"LANDMARKID":"1000900000764","LANDMARKCO":"406","LANDMARKNA":"海青公園","LANDMARKAD":"1000918","ADDRESS":"雲林縣四湖鄉","TEL":" ","COUNTYNAME":"雲林縣","TOWNNAME":"四湖鄉","MARKTYPE":"994","Class":"4"},"geometry":{"x":163663.07830000017,"y":2617266.5351}},{"attributes":{"OBJECTID":628,"LANDMARKID":"1000900000741","LANDMARKCO":"405","LANDMARKNA":"台塑加油站-威盛站(台塑)","LANDMARKAD":"1000918","ADDRESS":"雲林縣四湖鄉施湖村中正路頂湖巷48號","TEL":"05-7872193","COUNTYNAME":"雲林縣","TOWNNAME":"四湖鄉","MARKTYPE":"994","Class":"4"},"geometry":{"x":170580.42750000022,"y":2616098.4639999997}},{"attributes":{"OBJECTID":629,"LANDMARKID":"1000900000235","LANDMARKCO":"108","LANDMARKNA":"雲林縣四湖鄉公所","LANDMARKAD":"1000918","ADDRESS":"雲林縣四湖鄉湖西村中山西路44號","TEL":"05-7872001","COUNTYNAME":"雲林縣","TOWNNAME":"四湖鄉","MARKTYPE":"991","Class":"1"},"geometry":{"x":170861.54260000028,"y":2615159.8695}},{"attributes":{"OBJECTID":630,"LANDMARKID":"1000900000052","LANDMARKCO":"103","LANDMARKNA":"雲林縣四湖鄉鄉民代表會","LANDMARKAD":"1000918","ADDRESS":"雲林縣四湖鄉中山西路44號","TEL":"05-7872083","COUNTYNAME":"雲林縣","TOWNNAME":"四湖鄉","MARKTYPE":"991","Class":"1"},"geometry":{"x":170861.54260000028,"y":2615159.8695}},{"attributes":{"OBJECTID":631,"LANDMARKID":"1000900000053","LANDMARKCO":"103","LANDMARKNA":"雲林縣四湖鄉衛生所","LANDMARKAD":"1000918","ADDRESS":"雲林縣四湖鄉中山西路118號","TEL":"05-7872890","COUNTYNAME":"雲林縣","TOWNNAME":"四湖鄉","MARKTYPE":"991","Class":"1"},"geometry":{"x":170593.33939999994,"y":2615133.7196999993}},{"attributes":{"OBJECTID":632,"LANDMARKID":"1000900000177","LANDMARKCO":"107","LANDMARKNA":"雲林縣消防局四湖消防分隊","LANDMARKAD":"1000918","ADDRESS":"雲林縣四湖鄉中山西路203號","TEL":"05-7872474","COUNTYNAME":"雲林縣","TOWNNAME":"四湖鄉","MARKTYPE":"991","Class":"1"},"geometry":{"x":170421.53220000025,"y":2615077.4549000002}},{"attributes":{"OBJECTID":633,"LANDMARKID":"1000900000178","LANDMARKCO":"107","LANDMARKNA":"雲林縣警察局飛沙派出所","LANDMARKAD":"1000918","ADDRESS":"雲林縣四湖鄉飛沙村大同路70號","TEL":"05-7723235","COUNTYNAME":"雲林縣","TOWNNAME":"四湖鄉","MARKTYPE":"991","Class":"1"},"geometry":{"x":165950.74519999977,"y":2615758.4942000005}},{"attributes":{"OBJECTID":634,"LANDMARKID":"1000900000179","LANDMARKCO":"107","LANDMARKNA":"雲林縣警察局林厝派出所","LANDMARKAD":"1000918","ADDRESS":"雲林縣四湖鄉林東村中華路25號","TEL":"05-7721265","COUNTYNAME":"雲林縣","TOWNNAME":"四湖鄉","MARKTYPE":"991","Class":"1"},"geometry":{"x":166175.75210000016,"y":2618913.3735000007}},{"attributes":{"OBJECTID":635,"LANDMARKID":"1000900000180","LANDMARKCO":"107","LANDMARKNA":"雲林縣警察局三崙派出所","LANDMARKAD":"1000918","ADDRESS":"雲林縣四湖鄉崙北村中山路54號","TEL":"05-7721270","COUNTYNAME":"雲林縣","TOWNNAME":"四湖鄉","MARKTYPE":"991","Class":"1"},"geometry":{"x":164029.41999999993,"y":2616798.8399999999}},{"attributes":{"OBJECTID":636,"LANDMARKID":"1000900000181","LANDMARKCO":"107","LANDMARKNA":"雲林縣警察局四湖分駐所","LANDMARKAD":"1000918","ADDRESS":"雲林縣四湖鄉施湖村中山西路205號","TEL":"05-7872031","COUNTYNAME":"雲林縣","TOWNNAME":"四湖鄉","MARKTYPE":"991","Class":"1"},"geometry":{"x":170405.10950000025,"y":2615075.7243000008}},{"attributes":{"OBJECTID":637,"LANDMARKID":"1000900000125","LANDMARKCO":"106","LANDMARKNA":"雲林縣四湖鄉戶政事務所","LANDMARKAD":"1000918","ADDRESS":"雲林縣四湖鄉施湖村9鄰中湖街23號","TEL":"05-7872313","COUNTYNAME":"雲林縣","TOWNNAME":"四湖鄉","MARKTYPE":"991","Class":"1"},"geometry":{"x":170487.39719999954,"y":2614982.7693000007}},{"attributes":{"OBJECTID":638,"LANDMARKID":"1000900000030","LANDMARKCO":"101","LANDMARKNA":"林業試驗所中埔分所四湖工作站","LANDMARKAD":"1000918","ADDRESS":"雲林縣四湖鄉林厝村中華路62巷80號","TEL":"05-7724411","COUNTYNAME":"雲林縣","TOWNNAME":"四湖鄉","MARKTYPE":"991","Class":"1"},"geometry":{"x":164621.94739999995,"y":2619522.0135999992}},{"attributes":{"OBJECTID":639,"LANDMARKID":"1000900000046","LANDMARKCO":"103","LANDMARKNA":"四湖鄉垃圾衛生掩埋場","LANDMARKAD":"1000918","ADDRESS":"雲林縣四湖鄉林厝段地號4694號","TEL":"05-7723810","COUNTYNAME":"雲林縣","TOWNNAME":"四湖鄉","MARKTYPE":"991","Class":"1"},"geometry":{"x":164765.15620000008,"y":2620040.2608000003}},{"attributes":{"OBJECTID":640,"LANDMARKID":"1000900000494","LANDMARKCO":"204","LANDMARKNA":"雲林縣立圖書館四湖分館","LANDMARKAD":"1000918","ADDRESS":"雲林縣四湖鄉關聖路87號","TEL":" ","COUNTYNAME":"雲林縣","TOWNNAME":"四湖鄉","MARKTYPE":"992","Class":"2"},"geometry":{"x":171114.51539999992,"y":2615268.2589999996}},{"attributes":{"OBJECTID":641,"LANDMARKID":"1000900000267","LANDMARKCO":"202","LANDMARKNA":"私立文生高中","LANDMARKAD":"1000918","ADDRESS":"雲林縣四湖鄉中正路509號","TEL":"05-7872024","COUNTYNAME":"雲林縣","TOWNNAME":"四湖鄉","MARKTYPE":"992","Class":"2"},"geometry":{"x":171187.15770000033,"y":2614468.1412000004}},{"attributes":{"OBJECTID":642,"LANDMARKID":"1000900000268","LANDMARKCO":"202","LANDMARKNA":"私立文生高中附設國中部","LANDMARKAD":"1000918","ADDRESS":"雲林縣四湖鄉中正路509號","TEL":"05-7872024","COUNTYNAME":"雲林縣","TOWNNAME":"四湖鄉","MARKTYPE":"992","Class":"2"},"geometry":{"x":171187.15770000033,"y":2614468.1412000004}},{"attributes":{"OBJECTID":643,"LANDMARKID":"1000900000355","LANDMARKCO":"203","LANDMARKNA":"縣立飛沙國中","LANDMARKAD":"1000918","ADDRESS":"雲林縣四湖鄉飛沙村大同路81號","TEL":"05-7723218","COUNTYNAME":"雲林縣","TOWNNAME":"四湖鄉","MARKTYPE":"992","Class":"2"},"geometry":{"x":165596.75590000022,"y":2615769.8021000009}},{"attributes":{"OBJECTID":644,"LANDMARKID":"1000900000356","LANDMARKCO":"203","LANDMARKNA":"縣立四湖國中","LANDMARKAD":"1000918","ADDRESS":"雲林縣四湖鄉湖西村中正路766號","TEL":"05-7871963","COUNTYNAME":"雲林縣","TOWNNAME":"四湖鄉","MARKTYPE":"992","Class":"2"},"geometry":{"x":170995.07010000013,"y":2614173.1958000008}},{"attributes":{"OBJECTID":645,"LANDMARKID":"1000900000357","LANDMARKCO":"203","LANDMARKNA":"縣立內湖國小","LANDMARKAD":"1000918","ADDRESS":"雲林縣四湖鄉內湖村三塊厝123號","TEL":"05-7872054","COUNTYNAME":"雲林縣","TOWNNAME":"四湖鄉","MARKTYPE":"992","Class":"2"},"geometry":{"x":167825.00349999964,"y":2614283.3320000004}},{"attributes":{"OBJECTID":646,"LANDMARKID":"1000900000358","LANDMARKCO":"203","LANDMARKNA":"縣立鹿場國小","LANDMARKAD":"1000918","ADDRESS":"雲林縣四湖鄉鹿場村中鹿場路27號","TEL":"05-7872454","COUNTYNAME":"雲林縣","TOWNNAME":"四湖鄉","MARKTYPE":"992","Class":"2"},"geometry":{"x":172730.09619999956,"y":2613416.4338000007}},{"attributes":{"OBJECTID":647,"LANDMARKID":"1000900000359","LANDMARKCO":"203","LANDMARKNA":"縣立飛沙國小","LANDMARKAD":"1000918","ADDRESS":"雲林縣四湖鄉飛沙村大同路26號","TEL":"05-7723688","COUNTYNAME":"雲林縣","TOWNNAME":"四湖鄉","MARKTYPE":"992","Class":"2"},"geometry":{"x":166069.75480000023,"y":2615739.5329999998}},{"attributes":{"OBJECTID":648,"LANDMARKID":"1000900000360","LANDMARKCO":"203","LANDMARKNA":"縣立四湖國小","LANDMARKAD":"1000918","ADDRESS":"雲林縣四湖鄉四湖村中山東路37號","TEL":"05-7872100","COUNTYNAME":"雲林縣","TOWNNAME":"四湖鄉","MARKTYPE":"992","Class":"2"},"geometry":{"x":171279.80379999988,"y":2614996.4105999991}},{"attributes":{"OBJECTID":649,"LANDMARKID":"1000900000361","LANDMARKCO":"203","LANDMARKNA":"縣立林厝國小","LANDMARKAD":"1000918","ADDRESS":"雲林縣四湖鄉林東村中華路1號","TEL":"05-7721320","COUNTYNAME":"雲林縣","TOWNNAME":"四湖鄉","MARKTYPE":"992","Class":"2"},"geometry":{"x":166244.17750000022,"y":2618626.7566}},{"attributes":{"OBJECTID":650,"LANDMARKID":"1000900000362","LANDMARKCO":"203","LANDMARKNA":"縣立東光國小","LANDMARKAD":"1000918","ADDRESS":"雲林縣四湖鄉溪底村成功路11號","TEL":"05-7821728","COUNTYNAME":"雲林縣","TOWNNAME":"四湖鄉","MARKTYPE":"992","Class":"2"},"geometry":{"x":175755.23759999964,"y":2616666.0606999993}},{"attributes":{"OBJECTID":651,"LANDMARKID":"1000900000363","LANDMARKCO":"203","LANDMARKNA":"縣立三崙國小","LANDMARKAD":"1000918","ADDRESS":"雲林縣四湖鄉崙南村延平南路18號","TEL":"05-7721044","COUNTYNAME":"雲林縣","TOWNNAME":"四湖鄉","MARKTYPE":"992","Class":"2"},"geometry":{"x":163899.43960000016,"y":2616705.4213999994}},{"attributes":{"OBJECTID":652,"LANDMARKID":"1000900000364","LANDMARKCO":"203","LANDMARKNA":"縣立建華國小","LANDMARKAD":"1000918","ADDRESS":"雲林縣四湖鄉羊稠村建華路35號","TEL":"05-7875635","COUNTYNAME":"雲林縣","TOWNNAME":"四湖鄉","MARKTYPE":"992","Class":"2"},"geometry":{"x":168431.28430000041,"y":2615370.3833000008}},{"attributes":{"OBJECTID":653,"LANDMARKID":"1000900000365","LANDMARKCO":"203","LANDMARKNA":"縣立南光國小","LANDMARKAD":"1000918","ADDRESS":"雲林縣四湖鄉蔡厝村蔡厝路90號","TEL":"05-7872434","COUNTYNAME":"雲林縣","TOWNNAME":"四湖鄉","MARKTYPE":"992","Class":"2"},"geometry":{"x":170318.91370000038,"y":2612274.2787999995}},{"attributes":{"OBJECTID":654,"LANDMARKID":"1000900000366","LANDMARKCO":"203","LANDMARKNA":"縣立明德國小","LANDMARKAD":"1000918","ADDRESS":"雲林縣四湖鄉溪尾村溪尾30號","TEL":"05-7872450","COUNTYNAME":"雲林縣","TOWNNAME":"四湖鄉","MARKTYPE":"992","Class":"2"},"geometry":{"x":168335.9944000002,"y":2616801.3066000007}},{"attributes":{"OBJECTID":655,"LANDMARKID":"1000900000367","LANDMARKCO":"203","LANDMARKNA":"縣立建陽國小","LANDMARKAD":"1000918","ADDRESS":"雲林縣四湖鄉箔子村箔子寮333號","TEL":"05-7721851","COUNTYNAME":"雲林縣","TOWNNAME":"四湖鄉","MARKTYPE":"992","Class":"2"},"geometry":{"x":163454.72479999997,"y":2614721.0803999994}},{"attributes":{"OBJECTID":656,"LANDMARKID":"1000900000368","LANDMARKCO":"203","LANDMARKNA":"縣立湖寮國小","LANDMARKAD":"1000918","ADDRESS":"雲林縣四湖鄉","TEL":" ","COUNTYNAME":"雲林縣","TOWNNAME":"四湖鄉","MARKTYPE":"992","Class":"2"},"geometry":{"x":169241.42960000038,"y":2612590.1579}},{"attributes":{"OBJECTID":657,"LANDMARKID":"1000900000537","LANDMARKCO":"305","LANDMARKNA":"三條崙漁港","LANDMARKAD":"1000918","ADDRESS":"雲林縣四湖鄉","TEL":" ","COUNTYNAME":"雲林縣","TOWNNAME":"四湖鄉","MARKTYPE":"993","Class":"305"},"geometry":{"x":163484.58490000013,"y":2617270.0244999994}},{"attributes":{"OBJECTID":658,"LANDMARKID":"1000900000538","LANDMARKCO":"305","LANDMARKNA":"箔子寮漁港","LANDMARKAD":"1000918","ADDRESS":"雲林縣四湖鄉","TEL":" ","COUNTYNAME":"雲林縣","TOWNNAME":"四湖鄉","MARKTYPE":"993","Class":"305"},"geometry":{"x":162248.13040000014,"y":2613187.6232999992}},{"attributes":{"OBJECTID":659,"LANDMARKID":"1000900000539","LANDMARKCO":"308","LANDMARKNA":"台78-台西交流道-東行","LANDMARKAD":"1000918","ADDRESS":" ","TEL":" ","COUNTYNAME":"雲林縣","TOWNNAME":"四湖鄉","MARKTYPE":"993","Class":"308"},"geometry":{"x":166172.84769999981,"y":2621110.9509999994}},{"attributes":{"OBJECTID":660,"LANDMARKID":"1000900000540","LANDMARKCO":"308","LANDMARKNA":"台78-台西交流道-東行","LANDMARKAD":"1000918","ADDRESS":" ","TEL":" ","COUNTYNAME":"雲林縣","TOWNNAME":"四湖鄉","MARKTYPE":"993","Class":"308"},"geometry":{"x":166214.08150000032,"y":2621115.8658000007}},{"attributes":{"OBJECTID":661,"LANDMARKID":"1000900000541","LANDMARKCO":"308","LANDMARKNA":"台61-四湖交流道-南下","LANDMARKAD":"1000918","ADDRESS":" ","TEL":" ","COUNTYNAME":"雲林縣","TOWNNAME":"四湖鄉","MARKTYPE":"993","Class":"308"},"geometry":{"x":165534.02460000012,"y":2615295.0908000004}},{"attributes":{"OBJECTID":662,"LANDMARKID":"1000900000542","LANDMARKCO":"308","LANDMARKNA":"台61-四湖交流道-北上","LANDMARKAD":"1000918","ADDRESS":" ","TEL":" ","COUNTYNAME":"雲林縣","TOWNNAME":"四湖鄉","MARKTYPE":"993","Class":"308"},"geometry":{"x":165286.84889999963,"y":2616233.3613000009}},{"attributes":{"OBJECTID":663,"LANDMARKID":"1000900000543","LANDMARKCO":"308","LANDMARKNA":"台61-台西交流道-南下","LANDMARKAD":"1000918","ADDRESS":" ","TEL":" ","COUNTYNAME":"雲林縣","TOWNNAME":"四湖鄉","MARKTYPE":"993","Class":"308"},"geometry":{"x":166001.54989999998,"y":2620934.4669000003}},{"attributes":{"OBJECTID":664,"LANDMARKID":"1000900000544","LANDMARKCO":"308","LANDMARKNA":"台61-台西交流道-北上","LANDMARKAD":"1000918","ADDRESS":" ","TEL":" ","COUNTYNAME":"雲林縣","TOWNNAME":"四湖鄉","MARKTYPE":"993","Class":"308"},"geometry":{"x":166157.5756000001,"y":2621260.1590999998}},{"attributes":{"OBJECTID":665,"LANDMARKID":"1000900000603","LANDMARKCO":"402","LANDMARKNA":"中華電信-四湖服務中心","LANDMARKAD":"1000918","ADDRESS":"雲林縣四湖鄉中山東路5號","TEL":"(05)787-1003","COUNTYNAME":"雲林縣","TOWNNAME":"四湖鄉","MARKTYPE":"994","Class":"4"},"geometry":{"x":171714.63260000013,"y":2615004.1870000008}},{"attributes":{"OBJECTID":666,"LANDMARKID":"1000900000735","LANDMARKCO":"405","LANDMARKNA":"中油加油站-東庄站","LANDMARKAD":"1000917","ADDRESS":"雲林縣元長鄉東興路56號","TEL":"05-7861611","COUNTYNAME":"雲林縣","TOWNNAME":"元長鄉","MARKTYPE":"994","Class":"4"},"geometry":{"x":182082.48419999983,"y":2613016.2465000004}},{"attributes":{"OBJECTID":667,"LANDMARKID":"1000900000736","LANDMARKCO":"405","LANDMARKNA":"中油加油站-元長站(中油直營)","LANDMARKAD":"1000917","ADDRESS":"雲林縣元長鄉長南村中山路4號","TEL":"05-7882170","COUNTYNAME":"雲林縣","TOWNNAME":"元長鄉","MARKTYPE":"994","Class":"4"},"geometry":{"x":179936.94570000004,"y":2616091.5667000003}},{"attributes":{"OBJECTID":668,"LANDMARKID":"1000900000737","LANDMARKCO":"405","LANDMARKNA":"中油加油站-信吉站","LANDMARKAD":"1000917","ADDRESS":"雲林縣元長鄉後湖村溪底1-100號","TEL":"05-7885133","COUNTYNAME":"雲林縣","TOWNNAME":"元長鄉","MARKTYPE":"994","Class":"4"},"geometry":{"x":180713.16490000021,"y":2620290.6327}},{"attributes":{"OBJECTID":669,"LANDMARKID":"1000900000784","LANDMARKCO":"408","LANDMARKNA":"郵局-元長郵局","LANDMARKAD":"1000917","ADDRESS":"雲林縣元長鄉仁愛路3號","TEL":"(05)7882-054","COUNTYNAME":"雲林縣","TOWNNAME":"元長鄉","MARKTYPE":"994","Class":"4"},"geometry":{"x":180007.01939999964,"y":2616372.6048000008}},{"attributes":{"OBJECTID":670,"LANDMARKID":"1000900000839","LANDMARKCO":"409","LANDMARKNA":"雲林縣元長鄉農會","LANDMARKAD":"1000917","ADDRESS":"雲林縣元長鄉長南村中山路42號","TEL":"05-7882116","COUNTYNAME":"雲林縣","TOWNNAME":"元長鄉","MARKTYPE":"994","Class":"4"},"geometry":{"x":177442.52770000044,"y":2616759.7168000005}},{"attributes":{"OBJECTID":671,"LANDMARKID":"1000900000666","LANDMARKCO":"405","LANDMARKNA":"福懋加油站-元長站(台塑)","LANDMARKAD":"1000917","ADDRESS":"雲林縣元長鄉長南村中山路5號","TEL":"05-7888692","COUNTYNAME":"雲林縣","TOWNNAME":"元長鄉","MARKTYPE":"994","Class":"4"},"geometry":{"x":179889.64429999981,"y":2615996.0510000009}},{"attributes":{"OBJECTID":672,"LANDMARKID":"1000900000048","LANDMARKCO":"103","LANDMARKNA":"雲林縣元長鄉鄉民代表會","LANDMARKAD":"1000917","ADDRESS":"雲林縣元長鄉長南村仁愛路2號","TEL":"05-7882090","COUNTYNAME":"雲林縣","TOWNNAME":"元長鄉","MARKTYPE":"991","Class":"1"},"geometry":{"x":180040.66920000035,"y":2616400.1846999992}},{"attributes":{"OBJECTID":673,"LANDMARKID":"1000900000242","LANDMARKCO":"108","LANDMARKNA":"雲林縣元長鄉公所","LANDMARKAD":"1000917","ADDRESS":"雲林縣元長鄉長南村仁愛街2號","TEL":"05-7882221~3","COUNTYNAME":"雲林縣","TOWNNAME":"元長鄉","MARKTYPE":"991","Class":"1"},"geometry":{"x":180105.28729999997,"y":2616394.3648000006}},{"attributes":{"OBJECTID":674,"LANDMARKID":"1000900000047","LANDMARKCO":"103","LANDMARKNA":"雲林縣元長鄉衛生所","LANDMARKAD":"1000917","ADDRESS":"雲林縣元長鄉元中路8號","TEL":"05-7882004","COUNTYNAME":"雲林縣","TOWNNAME":"元長鄉","MARKTYPE":"991","Class":"1"},"geometry":{"x":180047.62519999966,"y":2616418.7531000003}},{"attributes":{"OBJECTID":675,"LANDMARKID":"1000900000139","LANDMARKCO":"107","LANDMARKNA":"雲林縣消防局元長消防分隊","LANDMARKAD":"1000917","ADDRESS":"雲林縣元長鄉中山路124號","TEL":"05-7882019","COUNTYNAME":"雲林縣","TOWNNAME":"元長鄉","MARKTYPE":"991","Class":"1"},"geometry":{"x":179968.4132000003,"y":2616880.2096999995}},{"attributes":{"OBJECTID":676,"LANDMARKID":"1000900000140","LANDMARKCO":"107","LANDMARKNA":"雲林縣警察局鹿寮派出所","LANDMARKAD":"1000917","ADDRESS":"雲林縣元長鄉瓦嗂村中央路19號","TEL":"05-7983725","COUNTYNAME":"雲林縣","TOWNNAME":"元長鄉","MARKTYPE":"991","Class":"1"},"geometry":{"x":184736.63609999977,"y":2615258.7424999997}},{"attributes":{"OBJECTID":677,"LANDMARKID":"1000900000141","LANDMARKCO":"107","LANDMARKNA":"雲林縣警察局元長分駐所","LANDMARKAD":"1000917","ADDRESS":"雲林縣元長鄉長北村中山路124之2號","TEL":"05-7882009","COUNTYNAME":"雲林縣","TOWNNAME":"元長鄉","MARKTYPE":"991","Class":"1"},"geometry":{"x":179916.38260000013,"y":2616908.6905000005}},{"attributes":{"OBJECTID":678,"LANDMARKID":"1000900000124","LANDMARKCO":"106","LANDMARKNA":"雲林縣元長鄉戶政事務所","LANDMARKAD":"1000917","ADDRESS":"雲林縣元長鄉長北村24鄰中山路124之1號","TEL":"05-7882014","COUNTYNAME":"雲林縣","TOWNNAME":"元長鄉","MARKTYPE":"991","Class":"1"},"geometry":{"x":179919.82589999959,"y":2616897.4230000004}},{"attributes":{"OBJECTID":679,"LANDMARKID":"1000900000049","LANDMARKCO":"103","LANDMARKNA":"宗源公墓殯儀館","LANDMARKAD":"1000917","ADDRESS":"雲林縣元長鄉仁愛街2號","TEL":"05-7882222","COUNTYNAME":"雲林縣","TOWNNAME":"元長鄉","MARKTYPE":"991","Class":"1"},"geometry":{"x":180105.28729999997,"y":2616394.3648000006}},{"attributes":{"OBJECTID":680,"LANDMARKID":"1000900000142","LANDMARKCO":"107","LANDMARKNA":"雲林縣警察局客厝派出所","LANDMARKAD":"1000917","ADDRESS":"雲林縣元長鄉客厝村客庴63號","TEL":"05-7882764","COUNTYNAME":"雲林縣","TOWNNAME":"元長鄉","MARKTYPE":"991","Class":"1"},"geometry":{"x":182376.15770000033,"y":2614140.5423000008}},{"attributes":{"OBJECTID":681,"LANDMARKID":"1000900000493","LANDMARKCO":"204","LANDMARKNA":"雲林縣立圖書館元長分館","LANDMARKAD":"1000917","ADDRESS":"雲林縣元長鄉長南村仁愛街2號","TEL":" ","COUNTYNAME":"雲林縣","TOWNNAME":"元長鄉","MARKTYPE":"992","Class":"2"},"geometry":{"x":180123.0625,"y":2616406.0795000009}},{"attributes":{"OBJECTID":682,"LANDMARKID":"1000900000319","LANDMARKCO":"203","LANDMARKNA":"縣立元長國中","LANDMARKAD":"1000917","ADDRESS":"雲林縣元長鄉元南路16號","TEL":"05-7882012","COUNTYNAME":"雲林縣","TOWNNAME":"元長鄉","MARKTYPE":"992","Class":"2"},"geometry":{"x":180278.31549999956,"y":2615951.1196999997}},{"attributes":{"OBJECTID":683,"LANDMARKID":"1000900000320","LANDMARKCO":"203","LANDMARKNA":"縣立元長國小","LANDMARKAD":"1000917","ADDRESS":"雲林縣元長鄉長南村元西路76號","TEL":"05-7882017","COUNTYNAME":"雲林縣","TOWNNAME":"元長鄉","MARKTYPE":"992","Class":"2"},"geometry":{"x":179529.56680000015,"y":2616677.7934000008}},{"attributes":{"OBJECTID":684,"LANDMARKID":"1000900000321","LANDMARKCO":"203","LANDMARKNA":"縣立新生國小","LANDMARKAD":"1000917","ADDRESS":"雲林縣元長鄉瓦搖村新生路11號","TEL":"05-7983093","COUNTYNAME":"雲林縣","TOWNNAME":"元長鄉","MARKTYPE":"992","Class":"2"},"geometry":{"x":184596.83239999972,"y":2615046.3011000007}},{"attributes":{"OBJECTID":685,"LANDMARKID":"1000900000322","LANDMARKCO":"203","LANDMARKNA":"縣立仁德國小","LANDMARKAD":"1000917","ADDRESS":"雲林縣元長鄉內寮村內寮路6號","TEL":"05-7861976","COUNTYNAME":"雲林縣","TOWNNAME":"元長鄉","MARKTYPE":"992","Class":"2"},"geometry":{"x":183813.50650000013,"y":2612830.6477000006}},{"attributes":{"OBJECTID":686,"LANDMARKID":"1000900000323","LANDMARKCO":"203","LANDMARKNA":"縣立仁德國小崙仔分校","LANDMARKAD":"1000917","ADDRESS":"雲林縣元長鄉崙仔村安北路78之1號","TEL":"05-7861411","COUNTYNAME":"雲林縣","TOWNNAME":"元長鄉","MARKTYPE":"992","Class":"2"},"geometry":{"x":184130.9804999996,"y":2611100.8356999997}},{"attributes":{"OBJECTID":687,"LANDMARKID":"1000900000324","LANDMARKCO":"203","LANDMARKNA":"縣立信義國小","LANDMARKAD":"1000917","ADDRESS":"雲林縣元長鄉五塊村北水路8號","TEL":"05-7882712","COUNTYNAME":"雲林縣","TOWNNAME":"元長鄉","MARKTYPE":"992","Class":"2"},"geometry":{"x":176583.30819999985,"y":2617201.3151999991}},{"attributes":{"OBJECTID":688,"LANDMARKID":"1000900000325","LANDMARKCO":"203","LANDMARKNA":"縣立山內國小","LANDMARKAD":"1000917","ADDRESS":"雲林縣元長鄉山內村南山路3號","TEL":"05-7882152","COUNTYNAME":"雲林縣","TOWNNAME":"元長鄉","MARKTYPE":"992","Class":"2"},"geometry":{"x":179846.50719999988,"y":2619610.5373}},{"attributes":{"OBJECTID":689,"LANDMARKID":"1000900000326","LANDMARKCO":"203","LANDMARKNA":"縣立新生國小鹿北分班","LANDMARKAD":"1000917","ADDRESS":"雲林縣元長鄉鹿北村明鹿路49號","TEL":"05-7983834","COUNTYNAME":"雲林縣","TOWNNAME":"元長鄉","MARKTYPE":"992","Class":"2"},"geometry":{"x":186440.84080000035,"y":2616130.8917999994}},{"attributes":{"OBJECTID":690,"LANDMARKID":"1000900000327","LANDMARKCO":"203","LANDMARKNA":"縣立忠孝國小","LANDMARKAD":"1000917","ADDRESS":"雲林縣元長鄉龍岩村148號","TEL":"05-7882096","COUNTYNAME":"雲林縣","TOWNNAME":"元長鄉","MARKTYPE":"992","Class":"2"},"geometry":{"x":180087.97559999954,"y":2613260.4820000008}},{"attributes":{"OBJECTID":691,"LANDMARKID":"1000900000328","LANDMARKCO":"203","LANDMARKNA":"縣立和平國小","LANDMARKAD":"1000917","ADDRESS":"雲林縣元長鄉子茂村4號","TEL":"05-7882684","COUNTYNAME":"雲林縣","TOWNNAME":"元長鄉","MARKTYPE":"992","Class":"2"},"geometry":{"x":182254.58270000014,"y":2617341.2320000008}},{"attributes":{"OBJECTID":692,"LANDMARKID":"1000900000329","LANDMARKCO":"203","LANDMARKNA":"縣立客厝國小","LANDMARKAD":"1000917","ADDRESS":"雲林縣元長鄉頂寮村11號","TEL":"05-7882718","COUNTYNAME":"雲林縣","TOWNNAME":"元長鄉","MARKTYPE":"992","Class":"2"},"geometry":{"x":182091.90529999975,"y":2613980.5406999998}},{"attributes":{"OBJECTID":693,"LANDMARKID":"1000900000330","LANDMARKCO":"203","LANDMARKNA":"縣立仁愛國小","LANDMARKAD":"1000917","ADDRESS":"雲林縣元長鄉潭西村潭內路1號","TEL":"05-7882710","COUNTYNAME":"雲林縣","TOWNNAME":"元長鄉","MARKTYPE":"992","Class":"2"},"geometry":{"x":177482.76819999982,"y":2615460.1773000006}},{"attributes":{"OBJECTID":694,"LANDMARKID":"1000900000571","LANDMARKCO":"308","LANDMARKNA":"台78-元長交流道-東行","LANDMARKAD":"1000917","ADDRESS":"雲林縣元長鄉","TEL":" ","COUNTYNAME":"雲林縣","TOWNNAME":"元長鄉","MARKTYPE":"993","Class":"308"},"geometry":{"x":181079.63540000003,"y":2620459.4545000009}},{"attributes":{"OBJECTID":695,"LANDMARKID":"1000900000572","LANDMARKCO":"308","LANDMARKNA":"台78-元長交流道-西行","LANDMARKAD":"1000917","ADDRESS":"雲林縣元長鄉","TEL":" ","COUNTYNAME":"雲林縣","TOWNNAME":"元長鄉","MARKTYPE":"993","Class":"308"},"geometry":{"x":180576.20010000002,"y":2620597.8333000001}},{"attributes":{"OBJECTID":696,"LANDMARKID":"1000900000638","LANDMARKCO":"402","LANDMARKNA":"中華電信-元長服務中心","LANDMARKAD":"1000917","ADDRESS":"雲林縣元長鄉長南村仁愛路1號","TEL":"(05)788-1003","COUNTYNAME":"雲林縣","TOWNNAME":"元長鄉","MARKTYPE":"994","Class":"4"},"geometry":{"x":180051.9347000001,"y":2616444.2316999994}},{"attributes":{"OBJECTID":697,"LANDMARKID":"1000900000664","LANDMARKCO":"405","LANDMARKNA":"中油加油站-公準站","LANDMARKAD":"1000908","ADDRESS":"雲林縣大埤鄉延平路3段12號","TEL":"055-916636","COUNTYNAME":"雲林縣","TOWNNAME":"大埤鄉","MARKTYPE":"994","Class":"4"},"geometry":{"x":196299.93640000001,"y":2617540.7843999993}},{"attributes":{"OBJECTID":698,"LANDMARKID":"1000900000665","LANDMARKCO":"405","LANDMARKNA":"中油加油站-大埤站(中油直營)","LANDMARKAD":"1000908","ADDRESS":"雲林縣大埤鄉南和村大埤路543號","TEL":"05-5912494","COUNTYNAME":"雲林縣","TOWNNAME":"大埤鄉","MARKTYPE":"994","Class":"4"},"geometry":{"x":192317.7407999998,"y":2615938.5760999992}},{"attributes":{"OBJECTID":699,"LANDMARKID":"1000900000855","LANDMARKCO":"507","LANDMARKNA":"大埤三山國王廟","LANDMARKAD":"1000908","ADDRESS":"雲林縣大埤鄉大德村新街20號","TEL":"05-5912327","COUNTYNAME":"雲林縣","TOWNNAME":"大埤鄉","MARKTYPE":"995","Class":"5"},"geometry":{"x":191061.09580000024,"y":2613829.2449999992}},{"attributes":{"OBJECTID":700,"LANDMARKID":"1000900000814","LANDMARKCO":"408","LANDMARKNA":"郵局-大埤郵局","LANDMARKAD":"1000908","ADDRESS":"雲林縣大埤鄉中山路6號","TEL":"(05)5912-209","COUNTYNAME":"雲林縣","TOWNNAME":"大埤鄉","MARKTYPE":"994","Class":"4"},"geometry":{"x":192033.51690000016,"y":2615884.5192000009}},{"attributes":{"OBJECTID":701,"LANDMARKID":"1000900000821","LANDMARKCO":"409","LANDMARKNA":"雲林縣大埤鄉農會","LANDMARKAD":"1000908","ADDRESS":"雲林縣大埤鄉北和村中山路2號","TEL":"05-5913631","COUNTYNAME":"雲林縣","TOWNNAME":"大埤鄉","MARKTYPE":"994","Class":"4"},"geometry":{"x":191795.95430000033,"y":2615900.8892000001}},{"attributes":{"OBJECTID":702,"LANDMARKID":"1000900000667","LANDMARKCO":"405","LANDMARKNA":"福懋加油站-大埤站(台塑)","LANDMARKAD":"1000908","ADDRESS":"雲林縣大埤鄉大埤路546號","TEL":"05-5918321","COUNTYNAME":"雲林縣","TOWNNAME":"大埤鄉","MARKTYPE":"994","Class":"4"},"geometry":{"x":192265.00820000004,"y":2615949.1810999997}},{"attributes":{"OBJECTID":703,"LANDMARKID":"1000900000136","LANDMARKCO":"107","LANDMARKNA":"雲林縣警察局大埤分駐所","LANDMARKAD":"1000908","ADDRESS":"雲林縣大埤鄉北和村中山路10號","TEL":"05-5912040","COUNTYNAME":"雲林縣","TOWNNAME":"大埤鄉","MARKTYPE":"991","Class":"1"},"geometry":{"x":191712.41540000029,"y":2615910.3709999993}},{"attributes":{"OBJECTID":704,"LANDMARKID":"1000900000031","LANDMARKCO":"101","LANDMARKNA":"怡然基層保健中心","LANDMARKAD":"1000908","ADDRESS":"雲林縣大埤鄉三民路1號之1","TEL":"05-5915716","COUNTYNAME":"雲林縣","TOWNNAME":"大埤鄉","MARKTYPE":"991","Class":"1"},"geometry":{"x":189229.54590000026,"y":2614960.6851000004}},{"attributes":{"OBJECTID":705,"LANDMARKID":"1000900000243","LANDMARKCO":"108","LANDMARKNA":"雲林縣大埤鄉公所","LANDMARKAD":"1000908","ADDRESS":"雲林縣大埤鄉中山路8號","TEL":"05-5912116","COUNTYNAME":"雲林縣","TOWNNAME":"大埤鄉","MARKTYPE":"991","Class":"1"},"geometry":{"x":191974.06359999999,"y":2615915.3726000004}},{"attributes":{"OBJECTID":706,"LANDMARKID":"1000900000044","LANDMARKCO":"103","LANDMARKNA":"雲林縣大埤鄉鄉民代表會","LANDMARKAD":"1000908","ADDRESS":"雲林縣大埤鄉中山路8號","TEL":"05-5912019","COUNTYNAME":"雲林縣","TOWNNAME":"大埤鄉","MARKTYPE":"991","Class":"1"},"geometry":{"x":191974.06359999999,"y":2615915.3726000004}},{"attributes":{"OBJECTID":707,"LANDMARKID":"1000900000045","LANDMARKCO":"103","LANDMARKNA":"雲林縣大埤鄉衛生所","LANDMARKAD":"1000908","ADDRESS":"雲林縣大埤鄉中山路4號","TEL":"05-5912214","COUNTYNAME":"雲林縣","TOWNNAME":"大埤鄉","MARKTYPE":"991","Class":"1"},"geometry":{"x":192054.92889999971,"y":2615896.6242999993}},{"attributes":{"OBJECTID":708,"LANDMARKID":"1000900000137","LANDMARKCO":"107","LANDMARKNA":"雲林縣消防局大埤消防分隊","LANDMARKAD":"1000908","ADDRESS":"雲林縣大埤鄉中正路2號","TEL":"05-5912009","COUNTYNAME":"雲林縣","TOWNNAME":"大埤鄉","MARKTYPE":"991","Class":"1"},"geometry":{"x":192026.55119999964,"y":2615823.0814999994}},{"attributes":{"OBJECTID":709,"LANDMARKID":"1000900000138","LANDMARKCO":"107","LANDMARKNA":"雲林縣警察局怡美派出所","LANDMARKAD":"1000908","ADDRESS":"雲林縣大埤鄉怡然村怡美路56號","TEL":"05-5912060","COUNTYNAME":"雲林縣","TOWNNAME":"大埤鄉","MARKTYPE":"991","Class":"1"},"geometry":{"x":189247.50140000042,"y":2615029}},{"attributes":{"OBJECTID":710,"LANDMARKID":"1000900000126","LANDMARKCO":"106","LANDMARKNA":"雲林縣大埤鄉戶政事務所","LANDMARKAD":"1000908","ADDRESS":"雲林縣大埤鄉北和村10鄰中山路102號","TEL":"05-5912244","COUNTYNAME":"雲林縣","TOWNNAME":"大埤鄉","MARKTYPE":"991","Class":"1"},"geometry":{"x":191715.43180000037,"y":2615951.2630000003}},{"attributes":{"OBJECTID":711,"LANDMARKID":"1000900000032","LANDMARKCO":"101","LANDMARKNA":"工業局豐田兼元長工業區服務中","LANDMARKAD":"1000908","ADDRESS":"雲林縣大埤鄉嘉興村豐田路67號","TEL":"05-5912130","COUNTYNAME":"雲林縣","TOWNNAME":"大埤鄉","MARKTYPE":"991","Class":"1"},"geometry":{"x":195691.68800000008,"y":2615581.3142000008}},{"attributes":{"OBJECTID":712,"LANDMARKID":"1000900000135","LANDMARKCO":"107","LANDMARKNA":"國公路第四警察隊斗南分隊","LANDMARKAD":"1000908","ADDRESS":"雲林縣大埤鄉尚義村頂巷80之1號","TEL":"05-5912884","COUNTYNAME":"雲林縣","TOWNNAME":"大埤鄉","MARKTYPE":"991","Class":"1"},"geometry":{"x":193366.14389999956,"y":2615670.1838000007}},{"attributes":{"OBJECTID":713,"LANDMARKID":"1000900000492","LANDMARKCO":"204","LANDMARKNA":"雲林縣立圖書館大埤分館","LANDMARKAD":"1000908","ADDRESS":"雲林縣大埤鄉北和村中山路1號","TEL":" ","COUNTYNAME":"雲林縣","TOWNNAME":"大埤鄉","MARKTYPE":"992","Class":"2"},"geometry":{"x":192044.32899999991,"y":2615854.4780999999}},{"attributes":{"OBJECTID":714,"LANDMARKID":"1000900000314","LANDMARKCO":"203","LANDMARKNA":"縣立大埤國中","LANDMARKAD":"1000908","ADDRESS":"雲林縣大埤鄉南和村民權路80號","TEL":"05-5912051#103","COUNTYNAME":"雲林縣","TOWNNAME":"大埤鄉","MARKTYPE":"992","Class":"2"},"geometry":{"x":191801.74729999993,"y":2615482.2927999999}},{"attributes":{"OBJECTID":715,"LANDMARKID":"1000900000315","LANDMARKCO":"203","LANDMARKNA":"縣立大埤國小","LANDMARKAD":"1000908","ADDRESS":"雲林縣大埤鄉南和村中正路23號","TEL":"05-5912007","COUNTYNAME":"雲林縣","TOWNNAME":"大埤鄉","MARKTYPE":"992","Class":"2"},"geometry":{"x":192064.9550999999,"y":2615812.0942000002}},{"attributes":{"OBJECTID":716,"LANDMARKID":"1000900000316","LANDMARKCO":"203","LANDMARKNA":"縣立舊庄國小","LANDMARKAD":"1000908","ADDRESS":"雲林縣大埤鄉怡然村怡然路92號","TEL":"05-5912094","COUNTYNAME":"雲林縣","TOWNNAME":"大埤鄉","MARKTYPE":"992","Class":"2"},"geometry":{"x":188945.35900000017,"y":2614598.1004000008}},{"attributes":{"OBJECTID":717,"LANDMARKID":"1000900000317","LANDMARKCO":"203","LANDMARKNA":"縣立仁和國小","LANDMARKAD":"1000908","ADDRESS":"雲林縣大埤鄉豐岡村仁和路4號","TEL":"05-5912454","COUNTYNAME":"雲林縣","TOWNNAME":"大埤鄉","MARKTYPE":"992","Class":"2"},"geometry":{"x":191083.44230000023,"y":2617750.0931000002}},{"attributes":{"OBJECTID":718,"LANDMARKID":"1000900000318","LANDMARKCO":"203","LANDMARKNA":"縣立嘉興國小","LANDMARKAD":"1000908","ADDRESS":"雲林縣大埤鄉嘉興村嘉興路65號","TEL":"05-5912434","COUNTYNAME":"雲林縣","TOWNNAME":"大埤鄉","MARKTYPE":"992","Class":"2"},"geometry":{"x":194867.95909999963,"y":2616070.4916999992}},{"attributes":{"OBJECTID":719,"LANDMARKID":"1000900000270","LANDMARKCO":"202","LANDMARKNA":"私立崇先高中","LANDMARKAD":"1000908","ADDRESS":"雲林縣大埤鄉尚義村6號","TEL":"05-5912217","COUNTYNAME":"雲林縣","TOWNNAME":"大埤鄉","MARKTYPE":"992","Class":"2"},"geometry":{"x":195119.7081000004,"y":2614290.3960999995}},{"attributes":{"OBJECTID":720,"LANDMARKID":"1000900000271","LANDMARKCO":"202","LANDMARKNA":"私立崇先高中附設國中部","LANDMARKAD":"1000908","ADDRESS":"雲林縣大埤鄉尚義村6號","TEL":"05-5912217","COUNTYNAME":"雲林縣","TOWNNAME":"大埤鄉","MARKTYPE":"992","Class":"2"},"geometry":{"x":195119.7081000004,"y":2614290.3960999995}},{"attributes":{"OBJECTID":721,"LANDMARKID":"1000900000313","LANDMARKCO":"203","LANDMARKNA":"縣立聯美國小","LANDMARKAD":"1000908","ADDRESS":"雲林縣大埤鄉聯美村饒平路1號","TEL":"05-5912224","COUNTYNAME":"雲林縣","TOWNNAME":"大埤鄉","MARKTYPE":"992","Class":"2"},"geometry":{"x":188807.96219999995,"y":2616400.0820000004}},{"attributes":{"OBJECTID":722,"LANDMARKID":"1000900000573","LANDMARKCO":"308","LANDMARKNA":"斗南收費站","LANDMARKAD":"1000908","ADDRESS":" ","TEL":" ","COUNTYNAME":"雲林縣","TOWNNAME":"大埤鄉","MARKTYPE":"993","Class":"308"},"geometry":{"x":193341.82340000011,"y":2615676.6380000003}},{"attributes":{"OBJECTID":723,"LANDMARKID":"1000900000574","LANDMARKCO":"308","LANDMARKNA":"國1-雲林系統交流道-南下","LANDMARKAD":"1000908","ADDRESS":"雲林縣大埤鄉","TEL":" ","COUNTYNAME":"雲林縣","TOWNNAME":"大埤鄉","MARKTYPE":"993","Class":"308"},"geometry":{"x":194296.30119999964,"y":2617992.8682000004}},{"attributes":{"OBJECTID":724,"LANDMARKID":"1000900000575","LANDMARKCO":"308","LANDMARKNA":"台78-雲林系統交流道-西行","LANDMARKAD":"1000908","ADDRESS":"雲林縣大埤鄉","TEL":" ","COUNTYNAME":"雲林縣","TOWNNAME":"大埤鄉","MARKTYPE":"993","Class":"308"},"geometry":{"x":194290.56460000016,"y":2618742.8714000005}},{"attributes":{"OBJECTID":725,"LANDMARKID":"1000900000576","LANDMARKCO":"308","LANDMARKNA":"台78-雲林系統交流道-東行","LANDMARKAD":"1000908","ADDRESS":"雲林縣大埤鄉","TEL":" ","COUNTYNAME":"雲林縣","TOWNNAME":"大埤鄉","MARKTYPE":"993","Class":"308"},"geometry":{"x":194880.30769999977,"y":2617955.5633000005}},{"attributes":{"OBJECTID":726,"LANDMARKID":"1000900000577","LANDMARKCO":"308","LANDMARKNA":"台78-斗南交流道-西行","LANDMARKAD":"1000908","ADDRESS":"雲林縣大埤鄉","TEL":" ","COUNTYNAME":"雲林縣","TOWNNAME":"大埤鄉","MARKTYPE":"993","Class":"308"},"geometry":{"x":195979.25050000008,"y":2617259.2053999994}},{"attributes":{"OBJECTID":727,"LANDMARKID":"1000900000637","LANDMARKCO":"402","LANDMARKNA":"中華電信-大埤服務中心","LANDMARKAD":"1000908","ADDRESS":"雲林縣大埤鄉中正路21號","TEL":"(05)591-2716","COUNTYNAME":"雲林縣","TOWNNAME":"大埤鄉","MARKTYPE":"994","Class":"4"},"geometry":{"x":192077.78280000016,"y":2615817.6952}},{"attributes":{"OBJECTID":728,"LANDMARKID":"1000900000668","LANDMARKCO":"405","LANDMARKNA":"中油加油站-永光站","LANDMARKAD":"1000907","ADDRESS":"雲林縣古坑鄉光昌路205巷13-1號","TEL":"055-825522","COUNTYNAME":"雲林縣","TOWNNAME":"古坑鄉","MARKTYPE":"994","Class":"4"},"geometry":{"x":204065.47950000037,"y":2613780.0598000009}},{"attributes":{"OBJECTID":729,"LANDMARKID":"1000900000669","LANDMARKCO":"405","LANDMARKNA":"中油加油站-古坑站(中油直營)","LANDMARKAD":"1000907","ADDRESS":"雲林縣古坑鄉西平村中山路291號","TEL":"05-5821534","COUNTYNAME":"雲林縣","TOWNNAME":"古坑鄉","MARKTYPE":"994","Class":"4"},"geometry":{"x":205151.08810000028,"y":2616365.2555999998}},{"attributes":{"OBJECTID":730,"LANDMARKID":"1000900000670","LANDMARKCO":"405","LANDMARKNA":"中油加油站-東和站(中油直營)","LANDMARKAD":"1000907","ADDRESS":"雲林縣古坑鄉東和村12鄰廣濟路122號","TEL":"05-5264966","COUNTYNAME":"雲林縣","TOWNNAME":"古坑鄉","MARKTYPE":"994","Class":"4"},"geometry":{"x":206509.15820000041,"y":2619775.8902000003}},{"attributes":{"OBJECTID":731,"LANDMARKID":"1000900000847","LANDMARKCO":"503","LANDMARKNA":"華山咖啡休閒風景區","LANDMARKAD":"1000907","ADDRESS":"雲林縣古坑鄉","TEL":" ","COUNTYNAME":"雲林縣","TOWNNAME":"古坑鄉","MARKTYPE":"995","Class":"5"},"geometry":{"x":208372.15689999983,"y":2610502.9953000005}},{"attributes":{"OBJECTID":732,"LANDMARKID":"1000900000848","LANDMARKCO":"503","LANDMARKNA":"草嶺風景區","LANDMARKAD":"1000907","ADDRESS":"雲林縣古坑鄉","TEL":" ","COUNTYNAME":"雲林縣","TOWNNAME":"古坑鄉","MARKTYPE":"995","Class":"5"},"geometry":{"x":218842.57969999965,"y":2608503.3507000003}},{"attributes":{"OBJECTID":733,"LANDMARKID":"1000900000849","LANDMARKCO":"505","LANDMARKNA":"劍湖山世界","LANDMARKAD":"1000907","ADDRESS":"雲林縣古坑鄉永光村大湖口67號","TEL":" ","COUNTYNAME":"雲林縣","TOWNNAME":"古坑鄉","MARKTYPE":"995","Class":"5"},"geometry":{"x":207081.1054999996,"y":2612550.2969000004}},{"attributes":{"OBJECTID":734,"LANDMARKID":"1000900000851","LANDMARKCO":"506","LANDMARKNA":"荷包山果園","LANDMARKAD":"1000907","ADDRESS":"雲林縣古坑鄉","TEL":" ","COUNTYNAME":"雲林縣","TOWNNAME":"古坑鄉","MARKTYPE":"995","Class":"5"},"geometry":{"x":202904.79829999991,"y":2618990.2675000001}},{"attributes":{"OBJECTID":735,"LANDMARKID":"1000900000811","LANDMARKCO":"408","LANDMARKNA":"郵局-古坑郵局","LANDMARKAD":"1000907","ADDRESS":"雲林縣古坑鄉中山路123號","TEL":"(05)5821-027","COUNTYNAME":"雲林縣","TOWNNAME":"古坑鄉","MARKTYPE":"994","Class":"4"},"geometry":{"x":205313.95949999988,"y":2615729.2819999997}},{"attributes":{"OBJECTID":736,"LANDMARKID":"1000900000812","LANDMARKCO":"408","LANDMARKNA":"郵局-古坑東和郵局","LANDMARKAD":"1000907","ADDRESS":"雲林縣古坑鄉文化路96號","TEL":"(05)5261-446","COUNTYNAME":"雲林縣","TOWNNAME":"古坑鄉","MARKTYPE":"994","Class":"4"},"geometry":{"x":206051.88300000038,"y":2620059.7574000005}},{"attributes":{"OBJECTID":737,"LANDMARKID":"1000900000813","LANDMARKCO":"408","LANDMARKNA":"郵局-古坑草嶺郵局","LANDMARKAD":"1000907","ADDRESS":"雲林縣古坑鄉草嶺村37-29號","TEL":"(05)5831-287","COUNTYNAME":"雲林縣","TOWNNAME":"古坑鄉","MARKTYPE":"994","Class":"4"},"geometry":{"x":218771.12509999983,"y":2609042.4834000003}},{"attributes":{"OBJECTID":738,"LANDMARKID":"1000900000822","LANDMARKCO":"409","LANDMARKNA":"雲林縣古坑鄉農會","LANDMARKAD":"1000907","ADDRESS":"雲林縣古坑鄉古坑村中山路50號","TEL":"05-5823102","COUNTYNAME":"雲林縣","TOWNNAME":"古坑鄉","MARKTYPE":"994","Class":"4"},"geometry":{"x":205352.56680000015,"y":2615632.5927000009}},{"attributes":{"OBJECTID":739,"LANDMARKID":"1000900000658","LANDMARKCO":"404","LANDMARKNA":"台灣省自來水古坑營運所","LANDMARKAD":"1000907","ADDRESS":"雲林縣古坑鄉朝陽村中山路270號","TEL":" ","COUNTYNAME":"雲林縣","TOWNNAME":"古坑鄉","MARKTYPE":"994","Class":"4"},"geometry":{"x":205213.76989999972,"y":2616364.0077999998}},{"attributes":{"OBJECTID":740,"LANDMARKID":"1000900000775","LANDMARKCO":"406","LANDMARKNA":"石頭公園","LANDMARKAD":"1000907","ADDRESS":"雲林縣古坑鄉","TEL":" ","COUNTYNAME":"雲林縣","TOWNNAME":"古坑鄉","MARKTYPE":"994","Class":"4"},"geometry":{"x":208038.68290000036,"y":2615812.9419999998}},{"attributes":{"OBJECTID":741,"LANDMARKID":"1000900000659","LANDMARKCO":"405","LANDMARKNA":"福懋加油站-古坑站(台塑)","LANDMARKAD":"1000907","ADDRESS":"雲林縣古坑鄉朝陽村中山路278號","TEL":"05-0582030","COUNTYNAME":"雲林縣","TOWNNAME":"古坑鄉","MARKTYPE":"994","Class":"4"},"geometry":{"x":205170.80389999971,"y":2616457.6700999998}},{"attributes":{"OBJECTID":742,"LANDMARKID":"1000900000130","LANDMARKCO":"107","LANDMARKNA":"雲林縣警察局樟湖派出所","LANDMARKAD":"1000907","ADDRESS":"雲林縣古坑鄉樟湖村樟湖14號","TEL":"05-5811151","COUNTYNAME":"雲林縣","TOWNNAME":"古坑鄉","MARKTYPE":"991","Class":"1"},"geometry":{"x":213595.31769999955,"y":2612890.4079999998}},{"attributes":{"OBJECTID":743,"LANDMARKID":"1000900000244","LANDMARKCO":"108","LANDMARKNA":"雲林縣古坑鄉公所","LANDMARKAD":"1000907","ADDRESS":"雲林縣古坑鄉古坑村中山路40號","TEL":"05-5826320","COUNTYNAME":"雲林縣","TOWNNAME":"古坑鄉","MARKTYPE":"991","Class":"1"},"geometry":{"x":205311.80360000022,"y":2615518.1382999998}},{"attributes":{"OBJECTID":744,"LANDMARKID":"1000900000043","LANDMARKCO":"103","LANDMARKNA":"雲林縣古坑鄉衛生所","LANDMARKAD":"1000907","ADDRESS":"雲林縣古坑鄉中山路391號","TEL":"05-5821132","COUNTYNAME":"雲林縣","TOWNNAME":"古坑鄉","MARKTYPE":"991","Class":"1"},"geometry":{"x":205105.68719999958,"y":2616786.7367000002}},{"attributes":{"OBJECTID":745,"LANDMARKID":"1000900000131","LANDMARKCO":"107","LANDMARKNA":"雲林縣消防局古坑消防分隊","LANDMARKAD":"1000907","ADDRESS":"雲林縣古坑鄉中山路393號","TEL":"05-5821537","COUNTYNAME":"雲林縣","TOWNNAME":"古坑鄉","MARKTYPE":"991","Class":"1"},"geometry":{"x":205101.77979999967,"y":2616811.8446999993}},{"attributes":{"OBJECTID":746,"LANDMARKID":"1000900000132","LANDMARKCO":"107","LANDMARKNA":"雲林縣警察局東和派出所","LANDMARKAD":"1000907","ADDRESS":"雲林縣古坑鄉東和村文化路137號","TEL":"05-5260642","COUNTYNAME":"雲林縣","TOWNNAME":"古坑鄉","MARKTYPE":"991","Class":"1"},"geometry":{"x":205917.15330000035,"y":2620138.7397000007}},{"attributes":{"OBJECTID":747,"LANDMARKID":"1000900000133","LANDMARKCO":"107","LANDMARKNA":"雲林縣警察局永光派出所","LANDMARKAD":"1000907","ADDRESS":"雲林縣古坑鄉永光村光昌路58號","TEL":"05-5821354","COUNTYNAME":"雲林縣","TOWNNAME":"古坑鄉","MARKTYPE":"991","Class":"1"},"geometry":{"x":204487.46889999975,"y":2613495.2650000006}},{"attributes":{"OBJECTID":748,"LANDMARKID":"1000900000134","LANDMARKCO":"107","LANDMARKNA":"雲林縣警察局古坑分駐所","LANDMARKAD":"1000907","ADDRESS":"雲林縣古坑鄉中山路393號之1","TEL":"05-5821324","COUNTYNAME":"雲林縣","TOWNNAME":"古坑鄉","MARKTYPE":"991","Class":"1"},"geometry":{"x":205101.77979999967,"y":2616811.8446999993}},{"attributes":{"OBJECTID":749,"LANDMARKID":"1000900000127","LANDMARKCO":"106","LANDMARKNA":"雲林縣古坑鄉戶政事務所","LANDMARKAD":"1000907","ADDRESS":"雲林縣古坑鄉中華路36號","TEL":"05-5821274","COUNTYNAME":"雲林縣","TOWNNAME":"古坑鄉","MARKTYPE":"991","Class":"1"},"geometry":{"x":205345.06280000042,"y":2615502.1801999994}},{"attributes":{"OBJECTID":750,"LANDMARKID":"1000900000128","LANDMARKCO":"107","LANDMARKNA":"雲林縣警察局華山派出所","LANDMARKAD":"1000907","ADDRESS":"雲林縣古坑鄉華山村華山路50號","TEL":"05-5901317","COUNTYNAME":"雲林縣","TOWNNAME":"古坑鄉","MARKTYPE":"991","Class":"1"},"geometry":{"x":208471.45760000031,"y":2610360.4217000008}},{"attributes":{"OBJECTID":751,"LANDMARKID":"1000900000129","LANDMARKCO":"107","LANDMARKNA":"雲林縣警察局草嶺派出所","LANDMARKAD":"1000907","ADDRESS":"雲林縣古坑鄉草嶺村草嶺路38號","TEL":"05-5831009","COUNTYNAME":"雲林縣","TOWNNAME":"古坑鄉","MARKTYPE":"991","Class":"1"},"geometry":{"x":216110.84300000034,"y":2611140.3057000004}},{"attributes":{"OBJECTID":752,"LANDMARKID":"1000900000498","LANDMARKCO":"205","LANDMARKNA":"劍湖山世界博物館","LANDMARKAD":"1000907","ADDRESS":"雲林縣古坑鄉永光村大湖口67號","TEL":"05-5825789","COUNTYNAME":"雲林縣","TOWNNAME":"古坑鄉","MARKTYPE":"992","Class":"2"},"geometry":{"x":207088.35869999975,"y":2612761.5555000007}},{"attributes":{"OBJECTID":753,"LANDMARKID":"1000900000491","LANDMARKCO":"204","LANDMARKNA":"雲林縣立圖書館古坑分館","LANDMARKAD":"1000907","ADDRESS":"雲林縣古坑鄉古坑村中山路31號","TEL":" ","COUNTYNAME":"雲林縣","TOWNNAME":"古坑鄉","MARKTYPE":"992","Class":"2"},"geometry":{"x":205238.79409999959,"y":2615451.0020000003}},{"attributes":{"OBJECTID":754,"LANDMARKID":"1000900000331","LANDMARKCO":"203","LANDMARKNA":"縣立溝壩國小","LANDMARKAD":"1000907","ADDRESS":"雲林縣斗六市仁義路93號","TEL":"05-5220734","COUNTYNAME":"雲林縣","TOWNNAME":"古坑鄉","MARKTYPE":"992","Class":"2"},"geometry":{"x":202851.41629999969,"y":2618980.5508999992}},{"attributes":{"OBJECTID":755,"LANDMARKID":"1000900000332","LANDMARKCO":"203","LANDMARKNA":"縣立永光國小","LANDMARKAD":"1000907","ADDRESS":"雲林縣古坑鄉永光村文昌路84號","TEL":"05-5821057","COUNTYNAME":"雲林縣","TOWNNAME":"古坑鄉","MARKTYPE":"992","Class":"2"},"geometry":{"x":204539.60979999974,"y":2613690.5446000006}},{"attributes":{"OBJECTID":756,"LANDMARKID":"1000900000333","LANDMARKCO":"203","LANDMARKNA":"縣立古坑國小","LANDMARKAD":"1000907","ADDRESS":"雲林縣古坑鄉朝陽路3號","TEL":"05-5821024","COUNTYNAME":"雲林縣","TOWNNAME":"古坑鄉","MARKTYPE":"992","Class":"2"},"geometry":{"x":205746.80099999998,"y":2615780.7347999997}},{"attributes":{"OBJECTID":757,"LANDMARKID":"1000900000334","LANDMARKCO":"203","LANDMARKNA":"縣立東和國中","LANDMARKAD":"1000907","ADDRESS":"雲林縣古坑鄉東和村文化路130號","TEL":"05-5263200","COUNTYNAME":"雲林縣","TOWNNAME":"古坑鄉","MARKTYPE":"992","Class":"2"},"geometry":{"x":205931.14809999987,"y":2620335.9293000009}},{"attributes":{"OBJECTID":758,"LANDMARKID":"1000900000335","LANDMARKCO":"203","LANDMARKNA":"縣立古坑國中","LANDMARKAD":"1000907","ADDRESS":"雲林縣古坑鄉朝陽村朝陽路2號","TEL":"05-5822201","COUNTYNAME":"雲林縣","TOWNNAME":"古坑鄉","MARKTYPE":"992","Class":"2"},"geometry":{"x":205824.00310000032,"y":2615911.2666999996}},{"attributes":{"OBJECTID":759,"LANDMARKID":"1000900000336","LANDMARKCO":"203","LANDMARKNA":"縣立東和國小","LANDMARKAD":"1000907","ADDRESS":"雲林縣古坑鄉東和村文化路120號","TEL":"05-5263153","COUNTYNAME":"雲林縣","TOWNNAME":"古坑鄉","MARKTYPE":"992","Class":"2"},"geometry":{"x":206005.21100000013,"y":2620195.9662999995}},{"attributes":{"OBJECTID":760,"LANDMARKID":"1000900000337","LANDMARKCO":"203","LANDMARKNA":"縣立新光國小","LANDMARKAD":"1000907","ADDRESS":"雲林縣古坑鄉新庄村新庄1之1號","TEL":"05-5260572","COUNTYNAME":"雲林縣","TOWNNAME":"古坑鄉","MARKTYPE":"992","Class":"2"},"geometry":{"x":207826.02249999996,"y":2620421.9667000007}},{"attributes":{"OBJECTID":761,"LANDMARKID":"1000900000338","LANDMARKCO":"203","LANDMARKNA":"縣立樟湖國小","LANDMARKAD":"1000907","ADDRESS":"雲林縣古坑鄉樟湖村樟湖28號","TEL":"05-5811044","COUNTYNAME":"雲林縣","TOWNNAME":"古坑鄉","MARKTYPE":"992","Class":"2"},"geometry":{"x":213512.31790000014,"y":2612781.7206999995}},{"attributes":{"OBJECTID":762,"LANDMARKID":"1000900000339","LANDMARKCO":"203","LANDMARKNA":"縣立山峰國小","LANDMARKAD":"1000907","ADDRESS":"雲林縣古坑鄉荷苞村山峰路17號","TEL":"05-5822075","COUNTYNAME":"雲林縣","TOWNNAME":"古坑鄉","MARKTYPE":"992","Class":"2"},"geometry":{"x":210741.97860000003,"y":2614170.3773999996}},{"attributes":{"OBJECTID":763,"LANDMARKID":"1000900000340","LANDMARKCO":"203","LANDMARKNA":"縣立華南國小","LANDMARKAD":"1000907","ADDRESS":"雲林縣古坑鄉華南村28號","TEL":"05-5901529","COUNTYNAME":"雲林縣","TOWNNAME":"古坑鄉","MARKTYPE":"992","Class":"2"},"geometry":{"x":206590.38989999983,"y":2610380.7491999995}},{"attributes":{"OBJECTID":764,"LANDMARKID":"1000900000341","LANDMARKCO":"203","LANDMARKNA":"縣立華山國小","LANDMARKAD":"1000907","ADDRESS":"雲林縣古坑鄉華山村41號","TEL":"05-5901243","COUNTYNAME":"雲林縣","TOWNNAME":"古坑鄉","MARKTYPE":"992","Class":"2"},"geometry":{"x":208813.68489999976,"y":2610280.5844999999}},{"attributes":{"OBJECTID":765,"LANDMARKID":"1000900000342","LANDMARKCO":"203","LANDMARKNA":"縣立草嶺國小","LANDMARKAD":"1000907","ADDRESS":"雲林縣古坑鄉草嶺村83號","TEL":"05-5831010","COUNTYNAME":"雲林縣","TOWNNAME":"古坑鄉","MARKTYPE":"992","Class":"2"},"geometry":{"x":218591.48209999967,"y":2611000.1328999996}},{"attributes":{"OBJECTID":766,"LANDMARKID":"1000900000343","LANDMARKCO":"203","LANDMARKNA":"縣立桂林國小","LANDMARKAD":"1000907","ADDRESS":"雲林縣古坑鄉桂林村95號","TEL":"05-5901048","COUNTYNAME":"雲林縣","TOWNNAME":"古坑鄉","MARKTYPE":"992","Class":"2"},"geometry":{"x":209946.64549999963,"y":2612140.5523000006}},{"attributes":{"OBJECTID":767,"LANDMARKID":"1000900000344","LANDMARKCO":"203","LANDMARKNA":"縣立水碓國小","LANDMARKAD":"1000907","ADDRESS":"雲林縣古坑鄉水碓村97號","TEL":"05-5821049","COUNTYNAME":"雲林縣","TOWNNAME":"古坑鄉","MARKTYPE":"992","Class":"2"},"geometry":{"x":205538.48359999992,"y":2617730.0836999994}},{"attributes":{"OBJECTID":768,"LANDMARKID":"1000900000345","LANDMARKCO":"203","LANDMARKNA":"縣立興昌國小","LANDMARKAD":"1000907","ADDRESS":"雲林縣古坑鄉崁腳村南昌路6號","TEL":"05-5821060","COUNTYNAME":"雲林縣","TOWNNAME":"古坑鄉","MARKTYPE":"992","Class":"2"},"geometry":{"x":202794.71609999985,"y":2612120.4373000003}},{"attributes":{"OBJECTID":769,"LANDMARKID":"1000900000346","LANDMARKCO":"203","LANDMARKNA":"縣立棋山國小","LANDMARKAD":"1000907","ADDRESS":"雲林縣古坑鄉棋盤村棋山路49號","TEL":"05-5263673","COUNTYNAME":"雲林縣","TOWNNAME":"古坑鄉","MARKTYPE":"992","Class":"2"},"geometry":{"x":209600.91009999998,"y":2620350.3210000005}},{"attributes":{"OBJECTID":770,"LANDMARKID":"1000900000518","LANDMARKCO":"303","LANDMARKNA":"劍湖山世界停車場","LANDMARKAD":"1000907","ADDRESS":"雲林縣古坑鄉永光村大湖口67號","TEL":" ","COUNTYNAME":"雲林縣","TOWNNAME":"古坑鄉","MARKTYPE":"993","Class":"303"},"geometry":{"x":207221.04559999984,"y":2612611.9622000009}},{"attributes":{"OBJECTID":771,"LANDMARKID":"1000900000565","LANDMARKCO":"308","LANDMARKNA":"古坑服務區","LANDMARKAD":"1000907","ADDRESS":" ","TEL":" ","COUNTYNAME":"雲林縣","TOWNNAME":"古坑鄉","MARKTYPE":"993","Class":"308"},"geometry":{"x":203242.46600000001,"y":2611962.6849000007}},{"attributes":{"OBJECTID":772,"LANDMARKID":"1000900000566","LANDMARKCO":"308","LANDMARKNA":"古坑收費站","LANDMARKAD":"1000907","ADDRESS":" ","TEL":" ","COUNTYNAME":"雲林縣","TOWNNAME":"古坑鄉","MARKTYPE":"993","Class":"308"},"geometry":{"x":205760.1679999996,"y":2613694.2866999991}},{"attributes":{"OBJECTID":773,"LANDMARKID":"1000900000567","LANDMARKCO":"308","LANDMARKNA":"台78-古坑系統交流道-西行","LANDMARKAD":"1000907","ADDRESS":"雲林縣古坑鄉","TEL":" ","COUNTYNAME":"雲林縣","TOWNNAME":"古坑鄉","MARKTYPE":"993","Class":"308"},"geometry":{"x":206008.25879999995,"y":2618056.6504999995}},{"attributes":{"OBJECTID":774,"LANDMARKID":"1000900000568","LANDMARKCO":"308","LANDMARKNA":"國3-古坑系統交流道-北上","LANDMARKAD":"1000907","ADDRESS":"雲林縣古坑鄉","TEL":" ","COUNTYNAME":"雲林縣","TOWNNAME":"古坑鄉","MARKTYPE":"993","Class":"308"},"geometry":{"x":206750.24890000001,"y":2618288.8239999991}},{"attributes":{"OBJECTID":775,"LANDMARKID":"1000900000569","LANDMARKCO":"308","LANDMARKNA":"國3-古坑系統交流道-南下","LANDMARKAD":"1000907","ADDRESS":"雲林縣古坑鄉","TEL":" ","COUNTYNAME":"雲林縣","TOWNNAME":"古坑鄉","MARKTYPE":"993","Class":"308"},"geometry":{"x":206443.50600000005,"y":2617800.6938000005}},{"attributes":{"OBJECTID":776,"LANDMARKID":"1000900000570","LANDMARKCO":"308","LANDMARKNA":"台78-古坑交流道-東行","LANDMARKAD":"1000907","ADDRESS":"雲林縣斗六市","TEL":" ","COUNTYNAME":"雲林縣","TOWNNAME":"古坑鄉","MARKTYPE":"993","Class":"308"},"geometry":{"x":203046.48390000034,"y":2618579.5628999993}},{"attributes":{"OBJECTID":777,"LANDMARKID":"1000900000636","LANDMARKCO":"402","LANDMARKNA":"中華電信-古坑服務中心","LANDMARKAD":"1000907","ADDRESS":"雲林縣古坑鄉中華路25號","TEL":"(05)582-2500","COUNTYNAME":"雲林縣","TOWNNAME":"古坑鄉","MARKTYPE":"994","Class":"4"},"geometry":{"x":205294.77979999967,"y":2615480.2260999996}},{"attributes":{"OBJECTID":778,"LANDMARKID":"1000900000951","LANDMARKCO":"604","LANDMARKNA":"山峰民宿","LANDMARKAD":"1000907","ADDRESS":"雲林縣古坑鄉荷苞村山峰路4-6號","TEL":"05-5825721","COUNTYNAME":"雲林縣","TOWNNAME":"古坑鄉","MARKTYPE":"996","Class":"6"},"geometry":{"x":210912.12339999992,"y":2614125.2570999991}},{"attributes":{"OBJECTID":779,"LANDMARKID":"1000900000952","LANDMARKCO":"604","LANDMARKNA":"海宴休閒民宿","LANDMARKAD":"1000907","ADDRESS":"雲林縣古坑鄉桂林村桃源路1-8號","TEL":"05-5900218","COUNTYNAME":"雲林縣","TOWNNAME":"古坑鄉","MARKTYPE":"996","Class":"6"},"geometry":{"x":209553.65840000007,"y":2610511.2495000008}},{"attributes":{"OBJECTID":780,"LANDMARKID":"1000900000953","LANDMARKCO":"604","LANDMARKNA":"桃源莊民宿","LANDMARKAD":"1000907","ADDRESS":"雲林縣古坑鄉桂林村桃源路22-6號","TEL":"05-5901003","COUNTYNAME":"雲林縣","TOWNNAME":"古坑鄉","MARKTYPE":"996","Class":"6"},"geometry":{"x":208278.77909999993,"y":2611100.0877999999}},{"attributes":{"OBJECTID":781,"LANDMARKID":"1000900000954","LANDMARKCO":"604","LANDMARKNA":"明心園民宿","LANDMARKAD":"1000907","ADDRESS":"雲林縣古坑鄉桂林村桃源路4號","TEL":"05-5901124","COUNTYNAME":"雲林縣","TOWNNAME":"古坑鄉","MARKTYPE":"996","Class":"6"},"geometry":{"x":208842.98080000002,"y":2611000.5727999993}},{"attributes":{"OBJECTID":782,"LANDMARKID":"1000900000955","LANDMARKCO":"604","LANDMARKNA":"林家山莊","LANDMARKAD":"1000907","ADDRESS":"雲林縣古坑鄉草嶺村草嶺路23號","TEL":"05-5831128","COUNTYNAME":"雲林縣","TOWNNAME":"古坑鄉","MARKTYPE":"996","Class":"6"},"geometry":{"x":218731.88559999969,"y":2608742.8147999998}},{"attributes":{"OBJECTID":783,"LANDMARKID":"1000900000956","LANDMARKCO":"604","LANDMARKNA":"華芳民宿","LANDMARKAD":"1000907","ADDRESS":"雲林縣古坑鄉華山村華山49-2號","TEL":"05-5901736","COUNTYNAME":"雲林縣","TOWNNAME":"古坑鄉","MARKTYPE":"996","Class":"6"},"geometry":{"x":208694.8936999999,"y":2610180.9617999997}},{"attributes":{"OBJECTID":784,"LANDMARKID":"1000900000921","LANDMARKCO":"603","LANDMARKNA":"劍湖山王子大飯店","LANDMARKAD":"1000907","ADDRESS":"雲林縣古坑鄉永光村大湖口67號","TEL":"05-5828111","COUNTYNAME":"雲林縣","TOWNNAME":"古坑鄉","MARKTYPE":"996","Class":"6"},"geometry":{"x":207102.36670000013,"y":2612542.5598000009}},{"attributes":{"OBJECTID":785,"LANDMARKID":"1000900000922","LANDMARKCO":"604","LANDMARKNA":"和欣民宿","LANDMARKAD":"1000907","ADDRESS":"雲林縣古坑鄉文淵路1-150號","TEL":"05-5826999","COUNTYNAME":"雲林縣","TOWNNAME":"古坑鄉","MARKTYPE":"996","Class":"6"},"geometry":{"x":205944.17449999973,"y":2614449.4843000006}},{"attributes":{"OBJECTID":786,"LANDMARKID":"1000900000923","LANDMARKCO":"604","LANDMARKNA":"蓮園休閒民宿","LANDMARKAD":"1000907","ADDRESS":"雲林縣古坑鄉古坑村朝陽路1-285號","TEL":"05-5829829","COUNTYNAME":"雲林縣","TOWNNAME":"古坑鄉","MARKTYPE":"996","Class":"6"},"geometry":{"x":208020.83499999996,"y":2615765.7175999992}},{"attributes":{"OBJECTID":787,"LANDMARKID":"1000900000924","LANDMARKCO":"604","LANDMARKNA":"石頭公園休閒民宿","LANDMARKAD":"1000907","ADDRESS":"雲林縣古坑鄉古坑村朝陽路1-286號","TEL":"05-5824548","COUNTYNAME":"雲林縣","TOWNNAME":"古坑鄉","MARKTYPE":"996","Class":"6"},"geometry":{"x":207968.59009999968,"y":2615850.5670999996}},{"attributes":{"OBJECTID":788,"LANDMARKID":"1000900000925","LANDMARKCO":"604","LANDMARKNA":"涵園休閒民宿","LANDMARKAD":"1000907","ADDRESS":"雲林縣古坑鄉古坑村朝陽路1-287號","TEL":"05-5824548","COUNTYNAME":"雲林縣","TOWNNAME":"古坑鄉","MARKTYPE":"996","Class":"6"},"geometry":{"x":208082.69099999964,"y":2615815.0774000008}},{"attributes":{"OBJECTID":789,"LANDMARKID":"1000900000926","LANDMARKCO":"604","LANDMARKNA":"大湖山莊民宿","LANDMARKAD":"1000907","ADDRESS":"雲林縣古坑鄉永光村大湖口42-5號","TEL":"05-5826639","COUNTYNAME":"雲林縣","TOWNNAME":"古坑鄉","MARKTYPE":"996","Class":"6"},"geometry":{"x":206125.30150000006,"y":2611639.1986999996}},{"attributes":{"OBJECTID":790,"LANDMARKID":"1000900000927","LANDMARKCO":"604","LANDMARKNA":"望民宿","LANDMARKAD":"1000907","ADDRESS":"雲林縣古坑鄉永光村光華路167號","TEL":"05-5824612","COUNTYNAME":"雲林縣","TOWNNAME":"古坑鄉","MARKTYPE":"996","Class":"6"},"geometry":{"x":205167.32710000034,"y":2612859.7335999999}},{"attributes":{"OBJECTID":791,"LANDMARKID":"1000900000928","LANDMARKCO":"604","LANDMARKNA":"樸園民宿","LANDMARKAD":"1000907","ADDRESS":"雲林縣古坑鄉永昌村光昌路247號","TEL":"05-5897755","COUNTYNAME":"雲林縣","TOWNNAME":"古坑鄉","MARKTYPE":"996","Class":"6"},"geometry":{"x":203828.7444000002,"y":2614263.0900999997}},{"attributes":{"OBJECTID":792,"LANDMARKID":"1000900000929","LANDMARKCO":"604","LANDMARKNA":"悅來鄉民宿","LANDMARKAD":"1000907","ADDRESS":"雲林縣古坑鄉桂林村桃源8-5號","TEL":"05-5900326","COUNTYNAME":"雲林縣","TOWNNAME":"古坑鄉","MARKTYPE":"996","Class":"6"},"geometry":{"x":208702.43960000016,"y":2610982.2656999994}},{"attributes":{"OBJECTID":793,"LANDMARKID":"1000900000930","LANDMARKCO":"604","LANDMARKNA":"山中茅廬","LANDMARKAD":"1000907","ADDRESS":"雲林縣古坑鄉華山村華山69-10號","TEL":"05-5901700","COUNTYNAME":"雲林縣","TOWNNAME":"古坑鄉","MARKTYPE":"996","Class":"6"},"geometry":{"x":208405.55520000029,"y":2610018.2367000002}},{"attributes":{"OBJECTID":794,"LANDMARKID":"1000900000931","LANDMARKCO":"604","LANDMARKNA":"茗豐民宿","LANDMARKAD":"1000907","ADDRESS":"雲林縣古坑鄉華山村華山89號","TEL":"05-5901368","COUNTYNAME":"雲林縣","TOWNNAME":"古坑鄉","MARKTYPE":"996","Class":"6"},"geometry":{"x":207881.57760000043,"y":2610625.3588999994}},{"attributes":{"OBJECTID":795,"LANDMARKID":"1000900000932","LANDMARKCO":"604","LANDMARKNA":"華麗山景民宿","LANDMARKAD":"1000907","ADDRESS":"雲林縣古坑鄉華山村華山109號","TEL":"05-5901408","COUNTYNAME":"雲林縣","TOWNNAME":"古坑鄉","MARKTYPE":"996","Class":"6"},"geometry":{"x":207109.17879999988,"y":2611068.5928000007}},{"attributes":{"OBJECTID":796,"LANDMARKID":"1000900000933","LANDMARKCO":"604","LANDMARKNA":"茶園居","LANDMARKAD":"1000907","ADDRESS":"雲林縣古坑鄉華山村華山41-1號","TEL":"05-5900361","COUNTYNAME":"雲林縣","TOWNNAME":"古坑鄉","MARKTYPE":"996","Class":"6"},"geometry":{"x":208725.67360000033,"y":2610284.3361000009}},{"attributes":{"OBJECTID":797,"LANDMARKID":"1000900000934","LANDMARKCO":"604","LANDMARKNA":"天秀山莊","LANDMARKAD":"1000907","ADDRESS":"雲林縣古坑鄉華山村華山19-6號","TEL":"05-5901978","COUNTYNAME":"雲林縣","TOWNNAME":"古坑鄉","MARKTYPE":"996","Class":"6"},"geometry":{"x":209316.53000000026,"y":2610028.4004999995}},{"attributes":{"OBJECTID":798,"LANDMARKID":"1000900000935","LANDMARKCO":"604","LANDMARKNA":"關華山休閒民宿","LANDMARKAD":"1000907","ADDRESS":"雲林縣古坑鄉華山村華山34-1號","TEL":"05-5901873","COUNTYNAME":"雲林縣","TOWNNAME":"古坑鄉","MARKTYPE":"996","Class":"6"},"geometry":{"x":208968.97979999986,"y":2610175.2211000007}},{"attributes":{"OBJECTID":799,"LANDMARKID":"1000900000936","LANDMARKCO":"604","LANDMARKNA":"華山禾園","LANDMARKAD":"1000907","ADDRESS":"雲林縣古坑鄉華山村華山77號","TEL":"05-5901667","COUNTYNAME":"雲林縣","TOWNNAME":"古坑鄉","MARKTYPE":"996","Class":"6"},"geometry":{"x":208339.37150000036,"y":2610390.0456000008}},{"attributes":{"OBJECTID":800,"LANDMARKID":"1000900000937","LANDMARKCO":"604","LANDMARKNA":"佳華民宿","LANDMARKAD":"1000907","ADDRESS":"雲林縣古坑鄉華山村華山32-2號","TEL":"05-5901668","COUNTYNAME":"雲林縣","TOWNNAME":"古坑鄉","MARKTYPE":"996","Class":"6"},"geometry":{"x":208921.19680000003,"y":2610146.0892999992}}]}