{"displayFieldName":"COUNTYNAME","fieldAliases":{"OBJECTID":"OBJECTID","LANDMARKID":"LANDMARKID","LANDMARKCO":"LANDMARKCO","LANDMARKNA":"LANDMARKNA","LANDMARKAD":"LANDMARKAD","ADDRESS":"ADDRESS","TEL":"TEL","COUNTYNAME":"COUNTYNAME","TOWNNAME":"TOWNNAME","MARKTYPE":"MARKTYPE","Class":"Class"},"geometryType":"esriGeometryPoint","spatialReference":{"wkid":4326},"fields":[{"name":"OBJECTID","type":"esriFieldTypeOID","alias":"OBJECTID"},{"name":"LANDMARKID","type":"esriFieldTypeString","alias":"LANDMARKID","length":15},{"name":"LANDMARKCO","type":"esriFieldTypeString","alias":"LANDMARKCO","length":15},{"name":"LANDMARKNA","type":"esriFieldTypeString","alias":"LANDMARKNA","length":50},{"name":"LANDMARKAD","type":"esriFieldTypeString","alias":"LANDMARKAD","length":15},{"name":"ADDRESS","type":"esriFieldTypeString","alias":"ADDRESS","length":56},{"name":"TEL","type":"esriFieldTypeString","alias":"TEL","length":36},{"name":"COUNTYNAME","type":"esriFieldTypeString","alias":"COUNTYNAME","length":15},{"name":"TOWNNAME","type":"esriFieldTypeString","alias":"TOWNNAME","length":13},{"name":"MARKTYPE","type":"esriFieldTypeString","alias":"MARKTYPE","length":12},{"name":"Class","type":"esriFieldTypeString","alias":"Class","length":5}],"features":[{"attributes":{"OBJECTID":8001,"LANDMARKID":"6300000002188","LANDMARKCO":"402","LANDMARKNA":"亞太行動寬頻電信-松山東興加盟服務中心","LANDMARKAD":"6300001","ADDRESS":"台北市松山區東興路28號","TEL":"02-27470505","COUNTYNAME":"台北市","TOWNNAME":"松山區","MARKTYPE":"994","Class":"4"},"geometry":{"x":121.56553818032029,"y":25.048495899544054}},{"attributes":{"OBJECTID":8002,"LANDMARKID":"6300000002116","LANDMARKCO":"401","LANDMARKNA":"財團法人長庚紀念醫院","LANDMARKAD":"6300001","ADDRESS":"台北市松山區敦化北路199號","TEL":"02-27135211","COUNTYNAME":"台北市","TOWNNAME":"松山區","MARKTYPE":"994","Class":"4"},"geometry":{"x":121.5496298208744,"y":25.055504612858872}},{"attributes":{"OBJECTID":8003,"LANDMARKID":"6300000002117","LANDMARKCO":"401","LANDMARKNA":"國軍松山總醫院","LANDMARKAD":"6300001","ADDRESS":"台北市松山區健康路131號","TEL":"02-27642151","COUNTYNAME":"台北市","TOWNNAME":"松山區","MARKTYPE":"994","Class":"4"},"geometry":{"x":121.5577058540638,"y":25.053895604029719}},{"attributes":{"OBJECTID":8004,"LANDMARKID":"6300000002118","LANDMARKCO":"401","LANDMARKNA":"博仁綜合醫院","LANDMARKAD":"6300001","ADDRESS":"台北市松山區光復北路66號","TEL":"02-25786677","COUNTYNAME":"台北市","TOWNNAME":"松山區","MARKTYPE":"994","Class":"4"},"geometry":{"x":121.55771159965549,"y":25.049895966924417}},{"attributes":{"OBJECTID":8005,"LANDMARKID":"6300000002119","LANDMARKCO":"401","LANDMARKNA":"松山醫院","LANDMARKAD":"6300001","ADDRESS":"台北市松山區南京東路五段324號1樓","TEL":"02-27616534","COUNTYNAME":"台北市","TOWNNAME":"松山區","MARKTYPE":"994","Class":"4"},"geometry":{"x":121.56825483564189,"y":25.051085805967837}},{"attributes":{"OBJECTID":8006,"LANDMARKID":"6300000002120","LANDMARKCO":"401","LANDMARKNA":"財團法人基督復臨安息日會臺安醫院","LANDMARKAD":"6300001","ADDRESS":"台北市松山區八德路二段424號","TEL":"02-27718151","COUNTYNAME":"台北市","TOWNNAME":"松山區","MARKTYPE":"994","Class":"4"},"geometry":{"x":121.54728888370362,"y":25.048055671634582}},{"attributes":{"OBJECTID":8007,"LANDMARKID":"6300000002121","LANDMARKCO":"401","LANDMARKNA":"培靈醫院","LANDMARKAD":"6300001","ADDRESS":"台北市松山區八德路四段355號","TEL":"02-27606116","COUNTYNAME":"台北市","TOWNNAME":"松山區","MARKTYPE":"994","Class":"4"},"geometry":{"x":121.56830162555788,"y":25.049397225555403}},{"attributes":{"OBJECTID":8008,"LANDMARKID":"6300000001892","LANDMARKCO":"306","LANDMARKNA":"松山機場捷運站-出口3","LANDMARKAD":"6300001","ADDRESS":" ","TEL":" ","COUNTYNAME":"台北市","TOWNNAME":"松山區","MARKTYPE":"993","Class":"306"},"geometry":{"x":121.55211305316776,"y":25.062832445491001}},{"attributes":{"OBJECTID":8009,"LANDMARKID":"6300000001893","LANDMARKCO":"306","LANDMARKNA":"松山機場捷運站-出口1","LANDMARKAD":"6300001","ADDRESS":" ","TEL":" ","COUNTYNAME":"台北市","TOWNNAME":"松山區","MARKTYPE":"993","Class":"306"},"geometry":{"x":121.55235983643848,"y":25.063475870294557}},{"attributes":{"OBJECTID":8010,"LANDMARKID":"6300000001894","LANDMARKCO":"306","LANDMARKNA":"松山機場捷運站-出口2","LANDMARKAD":"6300001","ADDRESS":" ","TEL":" ","COUNTYNAME":"台北市","TOWNNAME":"松山區","MARKTYPE":"993","Class":"306"},"geometry":{"x":121.5513732984259,"y":25.063488268811025}},{"attributes":{"OBJECTID":8011,"LANDMARKID":"6300000003103","LANDMARKCO":"410","LANDMARKNA":"台北小巨蛋","LANDMARKAD":"6300001","ADDRESS":"台北市松山區南京東路四段2號","TEL":"02-218-12345　　　　","COUNTYNAME":"台北市","TOWNNAME":"松山區","MARKTYPE":"994","Class":"4"},"geometry":{"x":121.54973392340098,"y":25.051550429490703}},{"attributes":{"OBJECTID":8012,"LANDMARKID":"6300000003366","LANDMARKCO":"512","LANDMARKNA":"中華民國鐵道觀光推廣協會","LANDMARKAD":"6300001","ADDRESS":"台北市復興南路一段43號4樓","TEL":"02-28773099","COUNTYNAME":"台北市","TOWNNAME":"松山區","MARKTYPE":"995","Class":"5"},"geometry":{"x":121.54414006855058,"y":25.045712291376287}},{"attributes":{"OBJECTID":8013,"LANDMARKID":"6300000002658","LANDMARKCO":"406","LANDMARKNA":"敦化公園","LANDMARKAD":"6300001","ADDRESS":"台北市松山區","TEL":" ","COUNTYNAME":"台北市","TOWNNAME":"松山區","MARKTYPE":"994","Class":"4"},"geometry":{"x":121.5517885869492,"y":25.060931667123405}},{"attributes":{"OBJECTID":8014,"LANDMARKID":"6300000002659","LANDMARKCO":"406","LANDMARKNA":"敦中公園","LANDMARKAD":"6300001","ADDRESS":"台北市松山區","TEL":" ","COUNTYNAME":"台北市","TOWNNAME":"松山區","MARKTYPE":"994","Class":"4"},"geometry":{"x":121.54584155132245,"y":25.049879018457347}},{"attributes":{"OBJECTID":8015,"LANDMARKID":"6300000002660","LANDMARKCO":"406","LANDMARKNA":"敦中公園","LANDMARKAD":"6300001","ADDRESS":"台北市松山區","TEL":" ","COUNTYNAME":"台北市","TOWNNAME":"松山區","MARKTYPE":"994","Class":"4"},"geometry":{"x":121.54581621261676,"y":25.046985919210634}},{"attributes":{"OBJECTID":8016,"LANDMARKID":"6300000002661","LANDMARKCO":"406","LANDMARKNA":"敦化公園","LANDMARKAD":"6300001","ADDRESS":"台北市松山區","TEL":" ","COUNTYNAME":"台北市","TOWNNAME":"松山區","MARKTYPE":"994","Class":"4"},"geometry":{"x":121.55055154008031,"y":25.046431395368387}},{"attributes":{"OBJECTID":8017,"LANDMARKID":"6300000002908","LANDMARKCO":"407","LANDMARKNA":"微風廣場","LANDMARKAD":"6300001","ADDRESS":"台北市松山區復興南路一段39號","TEL":" ","COUNTYNAME":"台北市","TOWNNAME":"松山區","MARKTYPE":"994","Class":"4"},"geometry":{"x":121.54413750631311,"y":25.046119739993323}},{"attributes":{"OBJECTID":8018,"LANDMARKID":"6300000002990","LANDMARKCO":"408","LANDMARKNA":"郵局-台北松山郵局","LANDMARKAD":"6300001","ADDRESS":"台北市松山區八德路4段626號","TEL":"(02)2767-4928","COUNTYNAME":"台北市","TOWNNAME":"松山區","MARKTYPE":"994","Class":"4"},"geometry":{"x":121.57422238400508,"y":25.049833460151248}},{"attributes":{"OBJECTID":8019,"LANDMARKID":"6300000002991","LANDMARKCO":"408","LANDMARKNA":"郵局-台北光復郵局","LANDMARKAD":"6300001","ADDRESS":"台北市松山區八德路3段240號","TEL":"(02)2570-1157","COUNTYNAME":"台北市","TOWNNAME":"松山區","MARKTYPE":"994","Class":"4"},"geometry":{"x":121.55764407926783,"y":25.047910309161523}},{"attributes":{"OBJECTID":8020,"LANDMARKID":"6300000002992","LANDMARKCO":"408","LANDMARKNA":"郵局-台北延壽郵局","LANDMARKAD":"6300001","ADDRESS":"台北市松山區民生東路5段12號","TEL":"(02)2756-7232","COUNTYNAME":"台北市","TOWNNAME":"松山區","MARKTYPE":"994","Class":"4"},"geometry":{"x":121.55600432972619,"y":25.058169462995718}},{"attributes":{"OBJECTID":8021,"LANDMARKID":"6300000002993","LANDMARKCO":"408","LANDMARKNA":"郵局-台北軍機場郵局","LANDMARKAD":"6300001","ADDRESS":"台北市松山區民權東路4段121號(軍用機場內)","TEL":"(02)2713-4939","COUNTYNAME":"台北市","TOWNNAME":"松山區","MARKTYPE":"994","Class":"4"},"geometry":{"x":121.55584678600329,"y":25.062161007697583}},{"attributes":{"OBJECTID":8022,"LANDMARKID":"6300000002994","LANDMARKCO":"408","LANDMARKNA":"郵局-台北體育場郵局","LANDMARKAD":"6300001","ADDRESS":"台北市松山區南京東路3段346號後棟","TEL":"(02)2752-5760","COUNTYNAME":"台北市","TOWNNAME":"松山區","MARKTYPE":"994","Class":"4"},"geometry":{"x":121.54810056551642,"y":25.051561650356096}},{"attributes":{"OBJECTID":8023,"LANDMARKID":"6300000002995","LANDMARKCO":"408","LANDMARKNA":"郵局-台北民生郵局","LANDMARKAD":"6300001","ADDRESS":"台北市松山區民生東路5段191號","TEL":"(02)2766-2575","COUNTYNAME":"台北市","TOWNNAME":"松山區","MARKTYPE":"994","Class":"4"},"geometry":{"x":121.56545645475377,"y":25.059185743400572}},{"attributes":{"OBJECTID":8024,"LANDMARKID":"6300000002996","LANDMARKCO":"408","LANDMARKNA":"郵局-台北榮星郵局","LANDMARKAD":"6300001","ADDRESS":"台北市松山區民權東路3段124之1號","TEL":"(02)2712-7615","COUNTYNAME":"台北市","TOWNNAME":"松山區","MARKTYPE":"994","Class":"4"},"geometry":{"x":121.54583304330293,"y":25.061823990841802}},{"attributes":{"OBJECTID":8025,"LANDMARKID":"6300000002997","LANDMARKCO":"408","LANDMARKNA":"郵局-台北台塑郵局","LANDMARKAD":"6300001","ADDRESS":"台北市松山區民生東路4段54號","TEL":"(02)2719-3473","COUNTYNAME":"台北市","TOWNNAME":"松山區","MARKTYPE":"994","Class":"4"},"geometry":{"x":121.55105470969687,"y":25.05774329937147}},{"attributes":{"OBJECTID":8026,"LANDMARKID":"6300000002998","LANDMARKCO":"408","LANDMARKNA":"郵局-松山機場郵局","LANDMARKAD":"6300001","ADDRESS":"台北市松山區敦化北路340-9號(松山機場內)","TEL":"(02)2713-3365","COUNTYNAME":"台北市","TOWNNAME":"松山區","MARKTYPE":"994","Class":"4"},"geometry":{"x":121.57424408339411,"y":25.049816277179563}},{"attributes":{"OBJECTID":8027,"LANDMARKID":"6300000002999","LANDMARKCO":"408","LANDMARKNA":"郵局-台北西松郵局","LANDMARKAD":"6300001","ADDRESS":"台北市松山區南京東路5段311號","TEL":"(02)2769-7535","COUNTYNAME":"台北市","TOWNNAME":"松山區","MARKTYPE":"994","Class":"4"},"geometry":{"x":121.56663191665622,"y":25.051504640266938}},{"attributes":{"OBJECTID":8028,"LANDMARKID":"6300000003095","LANDMARKCO":"409","LANDMARKNA":"台北市松山區農會","LANDMARKAD":"6300001","ADDRESS":"台北市松山區八德路4段656之1號","TEL":"02-27531013","COUNTYNAME":"台北市","TOWNNAME":"松山區","MARKTYPE":"994","Class":"4"},"geometry":{"x":121.57549807861612,"y":25.049836021941392}},{"attributes":{"OBJECTID":8029,"LANDMARKID":"6300000002391","LANDMARKCO":"404","LANDMARKNA":"台北自來水事業處東區營業分處","LANDMARKAD":"6300001","ADDRESS":"臺北市八德路四段688號345樓","TEL":"02-27456123","COUNTYNAME":"台北市","TOWNNAME":"松山區","MARKTYPE":"994","Class":"4"},"geometry":{"x":121.57690053051824,"y":25.049853928338358}},{"attributes":{"OBJECTID":8030,"LANDMARKID":"6300000002392","LANDMARKCO":"404","LANDMARKNA":"台北自來水事業處東區營業分處","LANDMARKAD":"6300001","ADDRESS":"台北市松山區八德路四段688號3樓","TEL":" ","COUNTYNAME":"台北市","TOWNNAME":"松山區","MARKTYPE":"994","Class":"4"},"geometry":{"x":121.5769433325338,"y":25.049816940393015}},{"attributes":{"OBJECTID":8031,"LANDMARKID":"6300000002662","LANDMARKCO":"406","LANDMARKNA":"迎風河濱公園","LANDMARKAD":"6300001","ADDRESS":"台北市松山區","TEL":" ","COUNTYNAME":"台北市","TOWNNAME":"松山區","MARKTYPE":"994","Class":"4"},"geometry":{"x":121.55808044005731,"y":25.073449008669808}},{"attributes":{"OBJECTID":8032,"LANDMARKID":"6300000002663","LANDMARKCO":"406","LANDMARKNA":"撫遠公園","LANDMARKAD":"6300001","ADDRESS":"台北市松山區","TEL":" ","COUNTYNAME":"台北市","TOWNNAME":"松山區","MARKTYPE":"994","Class":"4"},"geometry":{"x":121.56693901118136,"y":25.064351489229814}},{"attributes":{"OBJECTID":8033,"LANDMARKID":"6300000002664","LANDMARKCO":"406","LANDMARKNA":"三民公園","LANDMARKAD":"6300001","ADDRESS":"台北市松山區","TEL":" ","COUNTYNAME":"台北市","TOWNNAME":"松山區","MARKTYPE":"994","Class":"4"},"geometry":{"x":121.56820780957061,"y":25.062202732930341}},{"attributes":{"OBJECTID":8034,"LANDMARKID":"6300000002665","LANDMARKCO":"406","LANDMARKNA":"運動公園","LANDMARKAD":"6300001","ADDRESS":"台北市松山區","TEL":" ","COUNTYNAME":"台北市","TOWNNAME":"松山區","MARKTYPE":"994","Class":"4"},"geometry":{"x":121.56065483874283,"y":25.061934556866984}},{"attributes":{"OBJECTID":8035,"LANDMARKID":"6300000002666","LANDMARKCO":"406","LANDMARKNA":"民權公園","LANDMARKAD":"6300001","ADDRESS":"台北市松山區","TEL":" ","COUNTYNAME":"台北市","TOWNNAME":"松山區","MARKTYPE":"994","Class":"4"},"geometry":{"x":121.55862976811672,"y":25.061638096967226}},{"attributes":{"OBJECTID":8036,"LANDMARKID":"6300000002667","LANDMARKCO":"406","LANDMARKNA":"長春一號公園","LANDMARKAD":"6300001","ADDRESS":"台北市松山區","TEL":" ","COUNTYNAME":"台北市","TOWNNAME":"松山區","MARKTYPE":"994","Class":"4"},"geometry":{"x":121.54742928732323,"y":25.06074296611197}},{"attributes":{"OBJECTID":8037,"LANDMARKID":"6300000002668","LANDMARKCO":"406","LANDMARKNA":"新中公園","LANDMARKAD":"6300001","ADDRESS":"台北市松山區","TEL":" ","COUNTYNAME":"台北市","TOWNNAME":"松山區","MARKTYPE":"994","Class":"4"},"geometry":{"x":121.56085971171028,"y":25.060557755386672}},{"attributes":{"OBJECTID":8038,"LANDMARKID":"6300000002669","LANDMARKCO":"406","LANDMARKNA":"富錦二號公園","LANDMARKAD":"6300001","ADDRESS":"台北市松山區","TEL":" ","COUNTYNAME":"台北市","TOWNNAME":"松山區","MARKTYPE":"994","Class":"4"},"geometry":{"x":121.55893735743088,"y":25.06039106758282}},{"attributes":{"OBJECTID":8039,"LANDMARKID":"6300000002670","LANDMARKCO":"406","LANDMARKNA":"富民公園","LANDMARKAD":"6300001","ADDRESS":"台北市松山區","TEL":" ","COUNTYNAME":"台北市","TOWNNAME":"松山區","MARKTYPE":"994","Class":"4"},"geometry":{"x":121.56509044916361,"y":25.060256879197283}},{"attributes":{"OBJECTID":8040,"LANDMARKID":"6300000002671","LANDMARKCO":"406","LANDMARKNA":"富錦一號公園","LANDMARKAD":"6300001","ADDRESS":"台北市松山區","TEL":" ","COUNTYNAME":"台北市","TOWNNAME":"松山區","MARKTYPE":"994","Class":"4"},"geometry":{"x":121.55945410473444,"y":25.059618461799765}},{"attributes":{"OBJECTID":8041,"LANDMARKID":"6300000002672","LANDMARKCO":"406","LANDMARKNA":"長春二號公園","LANDMARKAD":"6300001","ADDRESS":"台北市松山區","TEL":" ","COUNTYNAME":"台北市","TOWNNAME":"松山區","MARKTYPE":"994","Class":"4"},"geometry":{"x":121.54640320811366,"y":25.05964137396202}},{"attributes":{"OBJECTID":8042,"LANDMARKID":"6300000002673","LANDMARKCO":"406","LANDMARKNA":"富錦四號公園","LANDMARKAD":"6300001","ADDRESS":"台北市松山區","TEL":" ","COUNTYNAME":"台北市","TOWNNAME":"松山區","MARKTYPE":"994","Class":"4"},"geometry":{"x":121.55224751266155,"y":25.059053338756698}},{"attributes":{"OBJECTID":8043,"LANDMARKID":"6300000002674","LANDMARKCO":"406","LANDMARKNA":"富錦三號公園","LANDMARKAD":"6300001","ADDRESS":"台北市松山區","TEL":" ","COUNTYNAME":"台北市","TOWNNAME":"松山區","MARKTYPE":"994","Class":"4"},"geometry":{"x":121.55895342414506,"y":25.058940871209526}},{"attributes":{"OBJECTID":8044,"LANDMARKID":"6300000002675","LANDMARKCO":"406","LANDMARKNA":"新東公園","LANDMARKAD":"6300001","ADDRESS":"台北市松山區","TEL":" ","COUNTYNAME":"台北市","TOWNNAME":"松山區","MARKTYPE":"994","Class":"4"},"geometry":{"x":121.568491879549,"y":25.0588330314418}},{"attributes":{"OBJECTID":8045,"LANDMARKID":"6300000002676","LANDMARKCO":"406","LANDMARKNA":"長春三號公園","LANDMARKAD":"6300001","ADDRESS":"台北市松山區","TEL":" ","COUNTYNAME":"台北市","TOWNNAME":"松山區","MARKTYPE":"994","Class":"4"},"geometry":{"x":121.5477177481944,"y":25.058653745687881}},{"attributes":{"OBJECTID":8046,"LANDMARKID":"6300000002677","LANDMARKCO":"406","LANDMARKNA":"富錦五號公園","LANDMARKAD":"6300001","ADDRESS":"台北市松山區","TEL":" ","COUNTYNAME":"台北市","TOWNNAME":"松山區","MARKTYPE":"994","Class":"4"},"geometry":{"x":121.55324851198765,"y":25.058322588524586}},{"attributes":{"OBJECTID":8047,"LANDMARKID":"6300000002678","LANDMARKCO":"406","LANDMARKNA":"民生公園","LANDMARKAD":"6300001","ADDRESS":"台北市松山區","TEL":" ","COUNTYNAME":"台北市","TOWNNAME":"松山區","MARKTYPE":"994","Class":"4"},"geometry":{"x":121.55797092819157,"y":25.057418778275036}},{"attributes":{"OBJECTID":8048,"LANDMARKID":"6300000002679","LANDMARKCO":"406","LANDMARKNA":"延壽二號公園","LANDMARKAD":"6300001","ADDRESS":"台北市松山區","TEL":" ","COUNTYNAME":"台北市","TOWNNAME":"松山區","MARKTYPE":"994","Class":"4"},"geometry":{"x":121.55273633020234,"y":25.057344104611385}},{"attributes":{"OBJECTID":8049,"LANDMARKID":"6300000002680","LANDMARKCO":"406","LANDMARKNA":"延壽三號公園","LANDMARKAD":"6300001","ADDRESS":"台北市松山區","TEL":" ","COUNTYNAME":"台北市","TOWNNAME":"松山區","MARKTYPE":"994","Class":"4"},"geometry":{"x":121.55189103430246,"y":25.056857742349536}},{"attributes":{"OBJECTID":8050,"LANDMARKID":"6300000002681","LANDMARKCO":"406","LANDMARKNA":"中央公園","LANDMARKAD":"6300001","ADDRESS":"台北市松山區","TEL":" ","COUNTYNAME":"台北市","TOWNNAME":"松山區","MARKTYPE":"994","Class":"4"},"geometry":{"x":121.5582722923648,"y":25.056769429981884}},{"attributes":{"OBJECTID":8051,"LANDMARKID":"6300000002682","LANDMARKCO":"406","LANDMARKNA":"鵬程公園","LANDMARKAD":"6300001","ADDRESS":"台北市松山區","TEL":" ","COUNTYNAME":"台北市","TOWNNAME":"松山區","MARKTYPE":"994","Class":"4"},"geometry":{"x":121.5686798738095,"y":25.055569724786199}},{"attributes":{"OBJECTID":8052,"LANDMARKID":"6300000002683","LANDMARKCO":"406","LANDMARKNA":"婦聯公園","LANDMARKAD":"6300001","ADDRESS":"台北市松山區","TEL":" ","COUNTYNAME":"台北市","TOWNNAME":"松山區","MARKTYPE":"994","Class":"4"},"geometry":{"x":121.55974773529991,"y":25.054701048539027}},{"attributes":{"OBJECTID":8053,"LANDMARKID":"6300000002684","LANDMARKCO":"406","LANDMARKNA":"健康公園","LANDMARKAD":"6300001","ADDRESS":"台北市松山區","TEL":" ","COUNTYNAME":"台北市","TOWNNAME":"松山區","MARKTYPE":"994","Class":"4"},"geometry":{"x":121.56881856014331,"y":25.054124477071849}},{"attributes":{"OBJECTID":8054,"LANDMARKID":"6300000002685","LANDMARKCO":"406","LANDMARKNA":"西林公園","LANDMARKAD":"6300001","ADDRESS":"台北市松山區","TEL":" ","COUNTYNAME":"台北市","TOWNNAME":"松山區","MARKTYPE":"994","Class":"4"},"geometry":{"x":121.56433157058935,"y":25.053897453698127}},{"attributes":{"OBJECTID":8055,"LANDMARKID":"6300000002686","LANDMARKCO":"406","LANDMARKNA":"長壽公園","LANDMARKAD":"6300001","ADDRESS":"台北市松山區","TEL":" ","COUNTYNAME":"台北市","TOWNNAME":"松山區","MARKTYPE":"994","Class":"4"},"geometry":{"x":121.55888572305271,"y":25.053574364276546}},{"attributes":{"OBJECTID":8056,"LANDMARKID":"6300000002687","LANDMARKCO":"406","LANDMARKNA":"北寧公園","LANDMARKAD":"6300001","ADDRESS":"台北市松山區","TEL":" ","COUNTYNAME":"台北市","TOWNNAME":"松山區","MARKTYPE":"994","Class":"4"},"geometry":{"x":121.55250298235163,"y":25.053484321151455}},{"attributes":{"OBJECTID":8057,"LANDMARKID":"6300000002688","LANDMARKCO":"406","LANDMARKNA":"慶城公園","LANDMARKAD":"6300001","ADDRESS":"台北市松山區","TEL":" ","COUNTYNAME":"台北市","TOWNNAME":"松山區","MARKTYPE":"994","Class":"4"},"geometry":{"x":121.54624713656575,"y":25.053377534728384}},{"attributes":{"OBJECTID":8058,"LANDMARKID":"6300000002689","LANDMARKCO":"406","LANDMARKNA":"寶清公園","LANDMARKAD":"6300001","ADDRESS":"台北市松山區","TEL":" ","COUNTYNAME":"台北市","TOWNNAME":"松山區","MARKTYPE":"994","Class":"4"},"geometry":{"x":121.56771212596915,"y":25.05211502586457}},{"attributes":{"OBJECTID":8059,"LANDMARKID":"6300000002690","LANDMARKCO":"406","LANDMARKNA":"吉祥公園","LANDMARKAD":"6300001","ADDRESS":"台北市松山區","TEL":" ","COUNTYNAME":"台北市","TOWNNAME":"松山區","MARKTYPE":"994","Class":"4"},"geometry":{"x":121.56406769049801,"y":25.05045599886509}},{"attributes":{"OBJECTID":8060,"LANDMARKID":"6300000002691","LANDMARKCO":"406","LANDMARKNA":"美仁公園","LANDMARKAD":"6300001","ADDRESS":"台北市松山區","TEL":" ","COUNTYNAME":"台北市","TOWNNAME":"松山區","MARKTYPE":"994","Class":"4"},"geometry":{"x":121.5534479032594,"y":25.050148507443311}},{"attributes":{"OBJECTID":8061,"LANDMARKID":"6300000002692","LANDMARKCO":"406","LANDMARKNA":"市立體育場","LANDMARKAD":"6300001","ADDRESS":"台北市松山區南京東路四段10號","TEL":" ","COUNTYNAME":"台北市","TOWNNAME":"松山區","MARKTYPE":"994","Class":"4"},"geometry":{"x":121.55092934867386,"y":25.049890783018672}},{"attributes":{"OBJECTID":8062,"LANDMARKID":"6300000002693","LANDMARKCO":"406","LANDMARKNA":"仁吉公園","LANDMARKAD":"6300001","ADDRESS":"台北市松山區","TEL":" ","COUNTYNAME":"台北市","TOWNNAME":"松山區","MARKTYPE":"994","Class":"4"},"geometry":{"x":121.55357934510721,"y":25.047856989018719}},{"attributes":{"OBJECTID":8063,"LANDMARKID":"6300000002694","LANDMARKCO":"406","LANDMARKNA":"復源公園","LANDMARKAD":"6300001","ADDRESS":"台北市松山區","TEL":" ","COUNTYNAME":"台北市","TOWNNAME":"松山區","MARKTYPE":"994","Class":"4"},"geometry":{"x":121.5544479889605,"y":25.046527044711421}},{"attributes":{"OBJECTID":8064,"LANDMARKID":"6300000002900","LANDMARKCO":"407","LANDMARKNA":"att","LANDMARKAD":"6300001","ADDRESS":"臺北市南京東路三段285號","TEL":"02-27175187","COUNTYNAME":"台北市","TOWNNAME":"松山區","MARKTYPE":"994","Class":"4"},"geometry":{"x":121.54585193804249,"y":25.052003614144102}},{"attributes":{"OBJECTID":8065,"LANDMARKID":"6300000002901","LANDMARKCO":"407","LANDMARKNA":"環亞生活購物廣場","LANDMARKAD":"6300001","ADDRESS":"台北市松山區南京東路三段337號","TEL":"02-27153777","COUNTYNAME":"台北市","TOWNNAME":"松山區","MARKTYPE":"994","Class":"4"},"geometry":{"x":121.54800778147002,"y":25.051959575519035}},{"attributes":{"OBJECTID":8066,"LANDMARKID":"6300000002902","LANDMARKCO":"407","LANDMARKNA":"京華城","LANDMARKAD":"6300001","ADDRESS":"台北市松山區八德路四段138號","TEL":"02-37621888","COUNTYNAME":"台北市","TOWNNAME":"松山區","MARKTYPE":"994","Class":"4"},"geometry":{"x":121.56240800145036,"y":25.048531758195665}},{"attributes":{"OBJECTID":8067,"LANDMARKID":"6300000002903","LANDMARKCO":"407","LANDMARKNA":"環亞百貨購物中心敦北廣場","LANDMARKAD":"6300001","ADDRESS":"台北市松山區南京東路三段337號","TEL":" ","COUNTYNAME":"台北市","TOWNNAME":"松山區","MARKTYPE":"994","Class":"4"},"geometry":{"x":121.54800778147002,"y":25.051959575519035}},{"attributes":{"OBJECTID":8068,"LANDMARKID":"6300000002904","LANDMARKCO":"407","LANDMARKNA":"誠品Eslite","LANDMARKAD":"6300001","ADDRESS":"台北市八德路四段138號10F","TEL":"02-3762-1570","COUNTYNAME":"台北市","TOWNNAME":"松山區","MARKTYPE":"994","Class":"4"},"geometry":{"x":121.56240800145036,"y":25.048531758195665}},{"attributes":{"OBJECTID":8069,"LANDMARKID":"6300000002905","LANDMARKCO":"407","LANDMARKNA":"LV專賣店","LANDMARKAD":"6300001","ADDRESS":"台北市松山區復興北路97號1樓之C座","TEL":"02-27186128","COUNTYNAME":"台北市","TOWNNAME":"松山區","MARKTYPE":"994","Class":"4"},"geometry":{"x":121.54429785006069,"y":25.052605239247374}},{"attributes":{"OBJECTID":8070,"LANDMARKID":"6300000002906","LANDMARKCO":"407","LANDMARKNA":"Gucci專賣店","LANDMARKAD":"6300001","ADDRESS":"台北市松山區復興南路1段39號","TEL":"02-66008888","COUNTYNAME":"台北市","TOWNNAME":"松山區","MARKTYPE":"994","Class":"4"},"geometry":{"x":121.54413750631311,"y":25.046119739993323}},{"attributes":{"OBJECTID":8071,"LANDMARKID":"6300000002907","LANDMARKCO":"407","LANDMARKNA":"Coach專賣店","LANDMARKAD":"6300001","ADDRESS":"台北市松山區復興南路1段39號","TEL":"02-66008888","COUNTYNAME":"台北市","TOWNNAME":"松山區","MARKTYPE":"994","Class":"4"},"geometry":{"x":121.54413750631311,"y":25.046119739993323}},{"attributes":{"OBJECTID":8072,"LANDMARKID":"6300000002432","LANDMARKCO":"405","LANDMARKNA":"全國加油站-撫遠站（台塑）","LANDMARKAD":"6300001","ADDRESS":"台北市松山區塔悠路99號","TEL":"02-27670389","COUNTYNAME":"台北市","TOWNNAME":"松山區","MARKTYPE":"994","Class":"4"},"geometry":{"x":121.57018280043678,"y":25.053861014681502}},{"attributes":{"OBJECTID":8073,"LANDMARKID":"6300000002433","LANDMARKCO":"405","LANDMARKNA":"台亞加油站-松山機場站(台塑)","LANDMARKAD":"6300001","ADDRESS":"台北市松山區敦化北路342-1號","TEL":" ","COUNTYNAME":"台北市","TOWNNAME":"松山區","MARKTYPE":"994","Class":"4"},"geometry":{"x":121.55058223961531,"y":25.062655790237113}},{"attributes":{"OBJECTID":8074,"LANDMARKID":"6300000000281","LANDMARKCO":"107","LANDMARKNA":"台北市政府警察局三民派出所","LANDMARKAD":"6300001","ADDRESS":"台北市松山區三民路163之1號","TEL":"02-27621708","COUNTYNAME":"台北市","TOWNNAME":"松山區","MARKTYPE":"991","Class":"1"},"geometry":{"x":121.56306763891793,"y":25.05916629057657}},{"attributes":{"OBJECTID":8075,"LANDMARKID":"6300000000282","LANDMARKCO":"107","LANDMARKNA":"台北市政府警察局中崙派出所","LANDMARKAD":"6300001","ADDRESS":"台北市松山區長安東路2段229-1號","TEL":"02-27711239","COUNTYNAME":"台北市","TOWNNAME":"松山區","MARKTYPE":"991","Class":"1"},"geometry":{"x":121.54589456402567,"y":25.048398835990803}},{"attributes":{"OBJECTID":8076,"LANDMARKID":"6300000000283","LANDMARKCO":"107","LANDMARKNA":"內政部警政署空中警察隊松山機場","LANDMARKAD":"6300001","ADDRESS":"台北市松山區精忠里敦化北路340之15號","TEL":"02-27155584","COUNTYNAME":"台北市","TOWNNAME":"松山區","MARKTYPE":"991","Class":"1"},"geometry":{"x":121.55488261652468,"y":25.064342626589735}},{"attributes":{"OBJECTID":8077,"LANDMARKID":"6300000000144","LANDMARKCO":"103","LANDMARKNA":"台北市監理處","LANDMARKAD":"6300001","ADDRESS":"台北市松山區八德路四段21號","TEL":"02-27630155","COUNTYNAME":"台北市","TOWNNAME":"松山區","MARKTYPE":"991","Class":"1"},"geometry":{"x":121.5590299924371,"y":25.048458768621927}},{"attributes":{"OBJECTID":8078,"LANDMARKID":"6300000000020","LANDMARKCO":"101","LANDMARKNA":"內政部營建署","LANDMARKAD":"6300001","ADDRESS":"台北市松山區八德路二段342號","TEL":"02-87712345","COUNTYNAME":"台北市","TOWNNAME":"松山區","MARKTYPE":"991","Class":"1"},"geometry":{"x":121.54443128996476,"y":25.047564311954261}},{"attributes":{"OBJECTID":8079,"LANDMARKID":"6300000000196","LANDMARKCO":"106","LANDMARKNA":"台北市松山區戶政事務所","LANDMARKAD":"6300001","ADDRESS":"台北市松山區慈祐里18鄰八德路四段692號4樓","TEL":"02-27533043","COUNTYNAME":"台北市","TOWNNAME":"松山區","MARKTYPE":"991","Class":"1"},"geometry":{"x":121.5771886111409,"y":25.049846021969863}},{"attributes":{"OBJECTID":8080,"LANDMARKID":"6300000000273","LANDMARKCO":"107","LANDMARKNA":"台北市政府警察局松山分局","LANDMARKAD":"6300001","ADDRESS":"台北市松山區美仁里南京東路四段12號","TEL":"02-25792281","COUNTYNAME":"台北市","TOWNNAME":"松山區","MARKTYPE":"991","Class":"1"},"geometry":{"x":121.55262032985011,"y":25.051432335670508}},{"attributes":{"OBJECTID":8081,"LANDMARKID":"6300000000274","LANDMARKCO":"107","LANDMARKNA":"台北市政府警察局民有派出所","LANDMARKAD":"6300001","ADDRESS":"台北市松山區民有里民權東路三段162號","TEL":"02-27123638","COUNTYNAME":"台北市","TOWNNAME":"松山區","MARKTYPE":"991","Class":"1"},"geometry":{"x":121.5480845987727,"y":25.061763445865171}},{"attributes":{"OBJECTID":8082,"LANDMARKID":"6300000000275","LANDMARKCO":"107","LANDMARKNA":"台北市政府警察局東社派出所","LANDMARKAD":"6300001","ADDRESS":"台北市松山區精忠里敦化北路199巷5號之1","TEL":"02-27135253","COUNTYNAME":"台北市","TOWNNAME":"松山區","MARKTYPE":"991","Class":"1"},"geometry":{"x":121.55154104862511,"y":25.056988092074359}},{"attributes":{"OBJECTID":8083,"LANDMARKID":"6300000000276","LANDMARKCO":"107","LANDMARKNA":"台北市政府警察局松山派出所","LANDMARKAD":"6300001","ADDRESS":"台北市松山區慈祐里八德路四段692號","TEL":"02-27670446","COUNTYNAME":"台北市","TOWNNAME":"松山區","MARKTYPE":"991","Class":"1"},"geometry":{"x":121.5771886111409,"y":25.049846021969863}},{"attributes":{"OBJECTID":8084,"LANDMARKID":"6300000000277","LANDMARKCO":"107","LANDMARKNA":"台北市消防局八德消防分隊","LANDMARKAD":"6300001","ADDRESS":"台北市松山區八德路四段162號","TEL":"02-27694642","COUNTYNAME":"台北市","TOWNNAME":"松山區","MARKTYPE":"991","Class":"1"},"geometry":{"x":121.56300380210949,"y":25.048590442398666}},{"attributes":{"OBJECTID":8085,"LANDMARKID":"6300000000278","LANDMARKCO":"107","LANDMARKNA":"台北市消防局松山消防分隊","LANDMARKAD":"6300001","ADDRESS":"台北市松山區八德路4段162號","TEL":"02-27694642","COUNTYNAME":"台北市","TOWNNAME":"松山區","MARKTYPE":"991","Class":"1"},"geometry":{"x":121.56300380210949,"y":25.048590442398666}},{"attributes":{"OBJECTID":8086,"LANDMARKID":"6300000000279","LANDMARKCO":"107","LANDMARKNA":"台北市消防局中崙消防分隊","LANDMARKAD":"6300001","ADDRESS":"台北市松山區長安東路二段229號","TEL":"02-87737055","COUNTYNAME":"台北市","TOWNNAME":"松山區","MARKTYPE":"991","Class":"1"},"geometry":{"x":121.54585841980345,"y":25.048374274358704}},{"attributes":{"OBJECTID":8087,"LANDMARKID":"6300000000280","LANDMARKCO":"107","LANDMARKNA":"台北市消防局第三救災救護大隊","LANDMARKAD":"6300001","ADDRESS":"台北市松山區長安東路2段229號","TEL":"02-87736909","COUNTYNAME":"台北市","TOWNNAME":"松山區","MARKTYPE":"991","Class":"1"},"geometry":{"x":121.54585841980345,"y":25.048374274358704}},{"attributes":{"OBJECTID":8088,"LANDMARKID":"6300000000145","LANDMARKCO":"103","LANDMARKNA":"台北市松山區健康服務中心","LANDMARKAD":"6300001","ADDRESS":"台北市松山區八德路四段692號6樓","TEL":"02-27671757","COUNTYNAME":"台北市","TOWNNAME":"松山區","MARKTYPE":"991","Class":"1"},"geometry":{"x":121.5771886111409,"y":25.049846021969863}},{"attributes":{"OBJECTID":8089,"LANDMARKID":"6300000000372","LANDMARKCO":"108","LANDMARKNA":"台北市松山區公所","LANDMARKAD":"6300001","ADDRESS":"台北市松山區八德路四段692號7-11樓","TEL":"02-87878787","COUNTYNAME":"台北市","TOWNNAME":"松山區","MARKTYPE":"991","Class":"1"},"geometry":{"x":121.5771886111409,"y":25.049846021969863}},{"attributes":{"OBJECTID":8090,"LANDMARKID":"6300000000021","LANDMARKCO":"101","LANDMARKNA":"交通部運輸研究所","LANDMARKAD":"6300001","ADDRESS":"台北市松山區敦化北路240號","TEL":"02-23496789","COUNTYNAME":"台北市","TOWNNAME":"松山區","MARKTYPE":"991","Class":"1"},"geometry":{"x":121.54950078501723,"y":25.060067009912906}},{"attributes":{"OBJECTID":8091,"LANDMARKID":"6300000000022","LANDMARKCO":"101","LANDMARKNA":"交通部民用航空局","LANDMARKAD":"6300001","ADDRESS":"台北市松山區敦化北路340號","TEL":"02-23496280","COUNTYNAME":"台北市","TOWNNAME":"松山區","MARKTYPE":"991","Class":"1"},"geometry":{"x":121.55200393457631,"y":25.06182141136166}},{"attributes":{"OBJECTID":8092,"LANDMARKID":"6300000000143","LANDMARKCO":"103","LANDMARKNA":"台北市政府社會局殘障福利服務中心","LANDMARKAD":"6300001","ADDRESS":"台北市松山區民生東路五段163之1號2樓","TEL":"02-27621608","COUNTYNAME":"台北市","TOWNNAME":"松山區","MARKTYPE":"991","Class":"1"},"geometry":{"x":121.56281220788618,"y":25.059143399572207}},{"attributes":{"OBJECTID":8093,"LANDMARKID":"6300000000800","LANDMARKCO":"205","LANDMARKNA":"震旦藝術博物館","LANDMARKAD":"6300001","ADDRESS":"台北市松山區健康路156號11樓","TEL":"02-66006955","COUNTYNAME":"台北市","TOWNNAME":"松山區","MARKTYPE":"992","Class":"2"},"geometry":{"x":121.55737905093211,"y":25.053506160345314}},{"attributes":{"OBJECTID":8094,"LANDMARKID":"6300000000801","LANDMARKCO":"205","LANDMARKNA":"魏錦源樂器博物館","LANDMARKAD":"6300001","ADDRESS":"台北市松山區八德路四段181巷17弄9之1號","TEL":"02-25777757","COUNTYNAME":"台北市","TOWNNAME":"松山區","MARKTYPE":"992","Class":"2"},"geometry":{"x":121.56355787862552,"y":25.048946421521173}},{"attributes":{"OBJECTID":8095,"LANDMARKID":"6300000000802","LANDMARKCO":"205","LANDMARKNA":"土地改革紀念館","LANDMARKAD":"6300001","ADDRESS":"台北市松山區敦化南路一段1號10樓","TEL":" ","COUNTYNAME":"台北市","TOWNNAME":"松山區","MARKTYPE":"992","Class":"2"},"geometry":{"x":121.54940345495011,"y":25.047678810976723}},{"attributes":{"OBJECTID":8096,"LANDMARKID":"6300000000741","LANDMARKCO":"204","LANDMARKNA":"台北市立圖書館松山分館","LANDMARKAD":"6300001","ADDRESS":"台北市松山區八德路四段688號2-8樓","TEL":" ","COUNTYNAME":"台北市","TOWNNAME":"松山區","MARKTYPE":"992","Class":"2"},"geometry":{"x":121.57691443372408,"y":25.049819981324568}},{"attributes":{"OBJECTID":8097,"LANDMARKID":"6300000000742","LANDMARKCO":"204","LANDMARKNA":"台北市立圖書館民生分館","LANDMARKAD":"6300001","ADDRESS":"台北市松山區敦化北路199巷5號4-5樓","TEL":" ","COUNTYNAME":"台北市","TOWNNAME":"松山區","MARKTYPE":"992","Class":"2"},"geometry":{"x":121.5515491819702,"y":25.056983719380138}},{"attributes":{"OBJECTID":8098,"LANDMARKID":"6300000000743","LANDMARKCO":"204","LANDMARKNA":"台北市立圖書館三民分館","LANDMARKAD":"6300001","ADDRESS":"台北市松山區民生東路五段163之1號5-6樓","TEL":" ","COUNTYNAME":"台北市","TOWNNAME":"松山區","MARKTYPE":"992","Class":"2"},"geometry":{"x":121.56300592250925,"y":25.059147285836932}},{"attributes":{"OBJECTID":8099,"LANDMARKID":"6300000000744","LANDMARKCO":"204","LANDMARKNA":"台北市立圖書館中崙分館","LANDMARKAD":"6300001","ADDRESS":"台北市松山區長安東路二段229號7-10樓","TEL":" ","COUNTYNAME":"台北市","TOWNNAME":"松山區","MARKTYPE":"992","Class":"2"},"geometry":{"x":121.54586517343402,"y":25.04837150862317}},{"attributes":{"OBJECTID":8100,"LANDMARKID":"6300000000745","LANDMARKCO":"204","LANDMARKNA":"台北市立圖書館啟明分館","LANDMARKAD":"6300001","ADDRESS":"台北市松山區敦化北路155巷76號","TEL":" ","COUNTYNAME":"台北市","TOWNNAME":"松山區","MARKTYPE":"992","Class":"2"},"geometry":{"x":121.55149862094027,"y":25.054311676237745}},{"attributes":{"OBJECTID":8101,"LANDMARKID":"6300000000823","LANDMARKCO":"206","LANDMARKNA":"台北市立社會教育館","LANDMARKAD":"6300001","ADDRESS":"台北市八德路三段25號","TEL":" ","COUNTYNAME":"台北市","TOWNNAME":"松山區","MARKTYPE":"992","Class":"2"},"geometry":{"x":121.55087852612309,"y":25.048314206610588}},{"attributes":{"OBJECTID":8102,"LANDMARKID":"6300000000464","LANDMARKCO":"202","LANDMARKNA":"私立育達家商","LANDMARKAD":"6300001","ADDRESS":"台北市松山區南京東路四段120巷31號","TEL":"02-25789177","COUNTYNAME":"台北市","TOWNNAME":"松山區","MARKTYPE":"992","Class":"2"},"geometry":{"x":121.55573010433945,"y":25.050262910884705}},{"attributes":{"OBJECTID":8103,"LANDMARKID":"6300000000607","LANDMARKCO":"203","LANDMARKNA":"市立西松國小","LANDMARKAD":"6300001","ADDRESS":"台北市松山區東光里三民路5號","TEL":"02-27609220","COUNTYNAME":"台北市","TOWNNAME":"松山區","MARKTYPE":"992","Class":"2"},"geometry":{"x":121.56294803304218,"y":25.052757327889484}},{"attributes":{"OBJECTID":8104,"LANDMARKID":"6300000000608","LANDMARKCO":"203","LANDMARKNA":"市立民族國小","LANDMARKAD":"6300001","ADDRESS":"台北市松山區民生東路四段97巷7號","TEL":"02-27124872","COUNTYNAME":"台北市","TOWNNAME":"松山區","MARKTYPE":"992","Class":"2"},"geometry":{"x":121.55137502331203,"y":25.059483316363998}},{"attributes":{"OBJECTID":8105,"LANDMARKID":"6300000000465","LANDMARKCO":"202","LANDMARKNA":"私立育達高職","LANDMARKAD":"6300001","ADDRESS":"台北市松山區寧安街12號","TEL":"02-25706767","COUNTYNAME":"台北市","TOWNNAME":"松山區","MARKTYPE":"992","Class":"2"},"geometry":{"x":121.55436464106512,"y":25.049633082148592}},{"attributes":{"OBJECTID":8106,"LANDMARKID":"6300000000466","LANDMARKCO":"202","LANDMARKNA":"市立西松高中","LANDMARKAD":"6300001","ADDRESS":"台北市松山區健康路325巷7號","TEL":"02-25286618","COUNTYNAME":"台北市","TOWNNAME":"松山區","MARKTYPE":"992","Class":"2"},"geometry":{"x":121.56710291153971,"y":25.055570278187947}},{"attributes":{"OBJECTID":8107,"LANDMARKID":"6300000000467","LANDMARKCO":"202","LANDMARKNA":"市立中崙高中","LANDMARKAD":"6300001","ADDRESS":"台北市松山區八德路四段101號","TEL":"02-27535316","COUNTYNAME":"台北市","TOWNNAME":"松山區","MARKTYPE":"992","Class":"2"},"geometry":{"x":121.56101903328403,"y":25.048637877943278}},{"attributes":{"OBJECTID":8108,"LANDMARKID":"6300000000597","LANDMARKCO":"203","LANDMARKNA":"市立介壽國中","LANDMARKAD":"6300001","ADDRESS":"台北市松山區延壽街401號","TEL":"02-27674496","COUNTYNAME":"台北市","TOWNNAME":"松山區","MARKTYPE":"992","Class":"2"},"geometry":{"x":121.55653722579227,"y":25.056402716588373}},{"attributes":{"OBJECTID":8109,"LANDMARKID":"6300000000598","LANDMARKCO":"203","LANDMARKNA":"市立敦化國中","LANDMARKAD":"6300001","ADDRESS":"台北市松山區南京東路三段300號","TEL":"02-87717890","COUNTYNAME":"台北市","TOWNNAME":"松山區","MARKTYPE":"992","Class":"2"},"geometry":{"x":121.54680372058853,"y":25.051515861198226}},{"attributes":{"OBJECTID":8110,"LANDMARKID":"6300000000599","LANDMARKCO":"203","LANDMARKNA":"市立中山國中","LANDMARKAD":"6300001","ADDRESS":"台北市松山區復興北路361巷7號","TEL":"02-27126701","COUNTYNAME":"台北市","TOWNNAME":"松山區","MARKTYPE":"992","Class":"2"},"geometry":{"x":121.54554679655793,"y":25.060535108586432}},{"attributes":{"OBJECTID":8111,"LANDMARKID":"6300000000600","LANDMARKCO":"203","LANDMARKNA":"市立民生國中","LANDMARKAD":"6300001","ADDRESS":"台北市松山區新東街30巷1號","TEL":"02-27653433","COUNTYNAME":"台北市","TOWNNAME":"松山區","MARKTYPE":"992","Class":"2"},"geometry":{"x":121.56756603361924,"y":25.059859592412487}},{"attributes":{"OBJECTID":8112,"LANDMARKID":"6300000000601","LANDMARKCO":"203","LANDMARKNA":"市立松山國小","LANDMARKAD":"6300001","ADDRESS":"台北市松山區八德路四段746號","TEL":"02-27672907","COUNTYNAME":"台北市","TOWNNAME":"松山區","MARKTYPE":"992","Class":"2"},"geometry":{"x":121.57894984044324,"y":25.051127302694685}},{"attributes":{"OBJECTID":8113,"LANDMARKID":"6300000000602","LANDMARKCO":"203","LANDMARKNA":"市立三民國小","LANDMARKAD":"6300001","ADDRESS":"台北市松山區莊敬里民權東路五段1號","TEL":"02-27611288","COUNTYNAME":"台北市","TOWNNAME":"松山區","MARKTYPE":"992","Class":"2"},"geometry":{"x":121.56429333556447,"y":25.063273024516675}},{"attributes":{"OBJECTID":8114,"LANDMARKID":"6300000000603","LANDMARKCO":"203","LANDMARKNA":"市立民權國小","LANDMARKAD":"6300001","ADDRESS":"台北市松山區民權東路四段200號","TEL":"02-27652327","COUNTYNAME":"台北市","TOWNNAME":"松山區","MARKTYPE":"992","Class":"2"},"geometry":{"x":121.56230829475061,"y":25.062503396386095}},{"attributes":{"OBJECTID":8115,"LANDMARKID":"6300000000604","LANDMARKCO":"203","LANDMARKNA":"市立健康國小","LANDMARKAD":"6300001","ADDRESS":"台北市松山區延壽街168號","TEL":"02-25282814","COUNTYNAME":"台北市","TOWNNAME":"松山區","MARKTYPE":"992","Class":"2"},"geometry":{"x":121.56293219034262,"y":25.056614646523965}},{"attributes":{"OBJECTID":8116,"LANDMARKID":"6300000000605","LANDMARKCO":"203","LANDMARKNA":"市立民生國小","LANDMARKAD":"6300001","ADDRESS":"台北市松山區敦化北路199巷18號","TEL":"02-27130397","COUNTYNAME":"台北市","TOWNNAME":"松山區","MARKTYPE":"992","Class":"2"},"geometry":{"x":121.55205301091102,"y":25.056501279254086}},{"attributes":{"OBJECTID":8117,"LANDMARKID":"6300000000606","LANDMARKCO":"203","LANDMARKNA":"市立敦化國小","LANDMARKAD":"6300001","ADDRESS":"台北市松山區中正里敦化北路2號","TEL":"02-27414065","COUNTYNAME":"台北市","TOWNNAME":"松山區","MARKTYPE":"992","Class":"2"},"geometry":{"x":121.54855341030982,"y":25.049098168199553}},{"attributes":{"OBJECTID":8118,"LANDMARKID":"6300000000406","LANDMARKCO":"201","LANDMARKNA":"法光佛教文化研究所","LANDMARKAD":"6300001","ADDRESS":"台北市光復北路60巷20號","TEL":"02-25783623","COUNTYNAME":"台北市","TOWNNAME":"松山區","MARKTYPE":"992","Class":"2"},"geometry":{"x":121.55711214041668,"y":25.049810222734294}},{"attributes":{"OBJECTID":8119,"LANDMARKID":"6300000000463","LANDMARKCO":"202","LANDMARKNA":"捷運中山國中站","LANDMARKAD":"6300001","ADDRESS":"台北市中山區","TEL":"0800033068","COUNTYNAME":"台北市","TOWNNAME":"松山區","MARKTYPE":"992","Class":"2"},"geometry":{"x":121.54422843275138,"y":25.061942978358342}},{"attributes":{"OBJECTID":8120,"LANDMARKID":"6300000001318","LANDMARKCO":"303","LANDMARKNA":"松山堤防旁停車場","LANDMARKAD":"6300001","ADDRESS":"台北市中山區","TEL":" ","COUNTYNAME":"台北市","TOWNNAME":"松山區","MARKTYPE":"993","Class":"303"},"geometry":{"x":121.55076242785486,"y":25.073720295256859}},{"attributes":{"OBJECTID":8121,"LANDMARKID":"6300000002070","LANDMARKCO":"308","LANDMARKNA":"國1-堤頂交流道-南下","LANDMARKAD":"6300001","ADDRESS":"台北市內湖區","TEL":" ","COUNTYNAME":"台北市","TOWNNAME":"松山區","MARKTYPE":"993","Class":"308"},"geometry":{"x":121.57043888041092,"y":25.071290006477675}},{"attributes":{"OBJECTID":8122,"LANDMARKID":"6300000001891","LANDMARKCO":"306","LANDMARKNA":"南京東路捷運站-出口","LANDMARKAD":"6300001","ADDRESS":" ","TEL":" ","COUNTYNAME":"台北市","TOWNNAME":"松山區","MARKTYPE":"993","Class":"306"},"geometry":{"x":121.54454577026631,"y":25.052452764832243}},{"attributes":{"OBJECTID":8123,"LANDMARKID":"6300000000854","LANDMARKCO":"302","LANDMARKNA":"飛狗巴士","LANDMARKAD":"6300001","ADDRESS":"台北市松山區八德路4段731號之1","TEL":"|","COUNTYNAME":"台北市","TOWNNAME":"松山區","MARKTYPE":"993","Class":"302"},"geometry":{"x":121.57752613104171,"y":25.050215384589769}},{"attributes":{"OBJECTID":8124,"LANDMARKID":"6300000002069","LANDMARKCO":"308","LANDMARKNA":"下塔悠出口匝道","LANDMARKAD":"6300001","ADDRESS":"台北市松山區","TEL":" ","COUNTYNAME":"台北市","TOWNNAME":"松山區","MARKTYPE":"993","Class":"308"},"geometry":{"x":121.55996467694534,"y":25.07185357868552}},{"attributes":{"OBJECTID":8125,"LANDMARKID":"6300000000855","LANDMARKCO":"302","LANDMARKNA":"大有巴士","LANDMARKAD":"6300001","ADDRESS":"台北市松山區濱江街886巷8號","TEL":" ","COUNTYNAME":"台北市","TOWNNAME":"松山區","MARKTYPE":"993","Class":"302"},"geometry":{"x":121.56568478481057,"y":25.070447488447101}},{"attributes":{"OBJECTID":8126,"LANDMARKID":"6300000001874","LANDMARKCO":"304","LANDMARKNA":"台北國際航空站-松山機場","LANDMARKAD":"6300001","ADDRESS":"台北市松山區台北市敦化北路340之9號","TEL":" ","COUNTYNAME":"台北市","TOWNNAME":"松山區","MARKTYPE":"993","Class":"304"},"geometry":{"x":121.55228296510442,"y":25.063901826256824}},{"attributes":{"OBJECTID":8127,"LANDMARKID":"6300000001319","LANDMARKCO":"303","LANDMARKNA":"微風廣場地下停車場","LANDMARKAD":"6300001","ADDRESS":" ","TEL":" ","COUNTYNAME":"台北市","TOWNNAME":"松山區","MARKTYPE":"993","Class":"303"},"geometry":{"x":121.54490027296238,"y":25.045466874918166}},{"attributes":{"OBJECTID":8128,"LANDMARKID":"6300000001320","LANDMARKCO":"303","LANDMARKNA":"元順停車場","LANDMARKAD":"6300001","ADDRESS":" ","TEL":" ","COUNTYNAME":"台北市","TOWNNAME":"松山區","MARKTYPE":"993","Class":"303"},"geometry":{"x":121.54444008092682,"y":25.05925695740822}},{"attributes":{"OBJECTID":8129,"LANDMARKID":"6300000001321","LANDMARKCO":"303","LANDMARKNA":"富升停車場","LANDMARKAD":"6300001","ADDRESS":" ","TEL":" ","COUNTYNAME":"台北市","TOWNNAME":"松山區","MARKTYPE":"993","Class":"303"},"geometry":{"x":121.54676543411439,"y":25.064675861684453}},{"attributes":{"OBJECTID":8130,"LANDMARKID":"6300000001322","LANDMARKCO":"303","LANDMARKNA":"通泰商業大樓停車場","LANDMARKAD":"6300001","ADDRESS":"台北市松山區慶城街28號B2樓","TEL":" ","COUNTYNAME":"台北市","TOWNNAME":"松山區","MARKTYPE":"993","Class":"303"},"geometry":{"x":121.54603816334732,"y":25.054105774576886}},{"attributes":{"OBJECTID":8131,"LANDMARKID":"6300000001323","LANDMARKCO":"303","LANDMARKNA":"中國人壽敦北大樓停車場","LANDMARKAD":"6300001","ADDRESS":" ","TEL":" ","COUNTYNAME":"台北市","TOWNNAME":"松山區","MARKTYPE":"993","Class":"303"},"geometry":{"x":121.54860069146334,"y":25.054281013046111}},{"attributes":{"OBJECTID":8132,"LANDMARKID":"6300000001324","LANDMARKCO":"303","LANDMARKNA":"台北市立體育場田徑場平面式停車場","LANDMARKAD":"6300001","ADDRESS":"台北市松山區敦化北路5號","TEL":" ","COUNTYNAME":"台北市","TOWNNAME":"松山區","MARKTYPE":"993","Class":"303"},"geometry":{"x":121.54937491613586,"y":25.049668266604623}},{"attributes":{"OBJECTID":8133,"LANDMARKID":"6300000001325","LANDMARKCO":"303","LANDMARKNA":"中興嘟嘟房停車場-台北巨蛋站","LANDMARKAD":"6300001","ADDRESS":"台北市松山區南京東路四段2號B1","TEL":"02-25789698","COUNTYNAME":"台北市","TOWNNAME":"松山區","MARKTYPE":"993","Class":"303"},"geometry":{"x":121.54951148568784,"y":25.051517414521641}},{"attributes":{"OBJECTID":8134,"LANDMARKID":"6300000001326","LANDMARKCO":"303","LANDMARKNA":"復旦停車場","LANDMARKAD":"6300001","ADDRESS":" ","TEL":" ","COUNTYNAME":"台北市","TOWNNAME":"松山區","MARKTYPE":"993","Class":"303"},"geometry":{"x":121.54960824893054,"y":25.045173290976713}},{"attributes":{"OBJECTID":8135,"LANDMARKID":"6300000001327","LANDMARKCO":"303","LANDMARKNA":"松山機場停車場","LANDMARKAD":"6300001","ADDRESS":" ","TEL":" ","COUNTYNAME":"台北市","TOWNNAME":"松山區","MARKTYPE":"993","Class":"303"},"geometry":{"x":121.55248834151793,"y":25.062024980523915}},{"attributes":{"OBJECTID":8136,"LANDMARKID":"6300000001328","LANDMARKCO":"303","LANDMARKNA":"松山機場停車場","LANDMARKAD":"6300001","ADDRESS":" ","TEL":"02-87703456","COUNTYNAME":"台北市","TOWNNAME":"松山區","MARKTYPE":"993","Class":"303"},"geometry":{"x":121.55182925572922,"y":25.062435290915136}},{"attributes":{"OBJECTID":8137,"LANDMARKID":"6300000001329","LANDMARKCO":"303","LANDMARKNA":"中興嘟嘟房停車場-延吉站","LANDMARKAD":"6300001","ADDRESS":"台北市松山區八德路三段106巷13號","TEL":"02-25782640","COUNTYNAME":"台北市","TOWNNAME":"松山區","MARKTYPE":"993","Class":"303"},"geometry":{"x":121.55380074316622,"y":25.047577097694276}},{"attributes":{"OBJECTID":8138,"LANDMARKID":"6300000001330","LANDMARKCO":"303","LANDMARKNA":"立成市民大道站停車場","LANDMARKAD":"6300001","ADDRESS":" ","TEL":" ","COUNTYNAME":"台北市","TOWNNAME":"松山區","MARKTYPE":"993","Class":"303"},"geometry":{"x":121.55453639882204,"y":25.044755545030519}},{"attributes":{"OBJECTID":8139,"LANDMARKID":"6300000001331","LANDMARKCO":"303","LANDMARKNA":"遠航大樓停車場","LANDMARKAD":"6300001","ADDRESS":" ","TEL":" ","COUNTYNAME":"台北市","TOWNNAME":"松山區","MARKTYPE":"993","Class":"303"},"geometry":{"x":121.55475676460033,"y":25.062208840143281}},{"attributes":{"OBJECTID":8140,"LANDMARKID":"6300000001332","LANDMARKCO":"303","LANDMARKNA":"台北市監理處平面停車場","LANDMARKAD":"6300001","ADDRESS":"台北市松山區八德路四段21號","TEL":"02-30155620","COUNTYNAME":"台北市","TOWNNAME":"松山區","MARKTYPE":"993","Class":"303"},"geometry":{"x":121.55851553150742,"y":25.04915350069713}},{"attributes":{"OBJECTID":8141,"LANDMARKID":"6300000001333","LANDMARKCO":"303","LANDMARKNA":"光復北路立體停車場","LANDMARKAD":"6300001","ADDRESS":"台北市松山區八德路四段17巷9號","TEL":"02-27693414","COUNTYNAME":"台北市","TOWNNAME":"松山區","MARKTYPE":"993","Class":"303"},"geometry":{"x":121.5584481263036,"y":25.049180013992498}},{"attributes":{"OBJECTID":8142,"LANDMARKID":"6300000001334","LANDMARKCO":"303","LANDMARKNA":"民權公園附設地下停車場","LANDMARKAD":"6300001","ADDRESS":"台北市松山區民權東路四段180號","TEL":"02-27655004","COUNTYNAME":"台北市","TOWNNAME":"松山區","MARKTYPE":"993","Class":"303"},"geometry":{"x":121.55893509225866,"y":25.06135183469598}},{"attributes":{"OBJECTID":8143,"LANDMARKID":"6300000001335","LANDMARKCO":"303","LANDMARKNA":"大台北瓦斯大樓停車場","LANDMARKAD":"6300001","ADDRESS":"台北市松山區光復北路11巷35號","TEL":" ","COUNTYNAME":"台北市","TOWNNAME":"松山區","MARKTYPE":"993","Class":"303"},"geometry":{"x":121.5590866553773,"y":25.050085124738803}},{"attributes":{"OBJECTID":8144,"LANDMARKID":"6300000001336","LANDMARKCO":"303","LANDMARKNA":"中崙高中地下停車場","LANDMARKAD":"6300001","ADDRESS":"台北市松山區八德路四段101號","TEL":"02-25284969","COUNTYNAME":"台北市","TOWNNAME":"松山區","MARKTYPE":"993","Class":"303"},"geometry":{"x":121.5611317471563,"y":25.048646602142671}},{"attributes":{"OBJECTID":8145,"LANDMARKID":"6300000001337","LANDMARKCO":"303","LANDMARKNA":"京華城地下停車場","LANDMARKAD":"6300001","ADDRESS":" ","TEL":" ","COUNTYNAME":"台北市","TOWNNAME":"松山區","MARKTYPE":"993","Class":"303"},"geometry":{"x":121.56149216371482,"y":25.048078353138134}},{"attributes":{"OBJECTID":8146,"LANDMARKID":"6300000001338","LANDMARKCO":"303","LANDMARKNA":"偶戲博物館地下停車場","LANDMARKAD":"6300001","ADDRESS":" ","TEL":"02-25286483","COUNTYNAME":"台北市","TOWNNAME":"松山區","MARKTYPE":"993","Class":"303"},"geometry":{"x":121.56208635457236,"y":25.047154411343726}},{"attributes":{"OBJECTID":8147,"LANDMARKID":"6300000001339","LANDMARKCO":"303","LANDMARKNA":"民生社區活動中心地下停車場","LANDMARKAD":"6300001","ADDRESS":"台北市松山區民生東路五段163號地下室","TEL":"02-27479637","COUNTYNAME":"台北市","TOWNNAME":"松山區","MARKTYPE":"993","Class":"303"},"geometry":{"x":121.56300585212749,"y":25.059832927891797}},{"attributes":{"OBJECTID":8148,"LANDMARKID":"6300000001340","LANDMARKCO":"303","LANDMARKNA":"永固停車場-三民站","LANDMARKAD":"6300001","ADDRESS":"台北市松山區三民路9號","TEL":"02-2745-8757","COUNTYNAME":"台北市","TOWNNAME":"松山區","MARKTYPE":"993","Class":"303"},"geometry":{"x":121.56369038214403,"y":25.053517332755003}},{"attributes":{"OBJECTID":8149,"LANDMARKID":"6300000001341","LANDMARKCO":"303","LANDMARKNA":"帝國立體停車場","LANDMARKAD":"6300001","ADDRESS":"台北市松山區健康路325巷5弄11號","TEL":" ","COUNTYNAME":"台北市","TOWNNAME":"松山區","MARKTYPE":"993","Class":"303"},"geometry":{"x":121.56572775436757,"y":25.054497602792292}},{"attributes":{"OBJECTID":8150,"LANDMARKID":"6300000001342","LANDMARKCO":"303","LANDMARKNA":"撫遠拖吊車輛放置場","LANDMARKAD":"6300001","ADDRESS":"新北市松山區塔悠街、撫遠街交叉口","TEL":" ","COUNTYNAME":"台北市","TOWNNAME":"松山區","MARKTYPE":"993","Class":"303"},"geometry":{"x":121.56700907843981,"y":25.067769791390837}},{"attributes":{"OBJECTID":8151,"LANDMARKID":"6300000001343","LANDMARKCO":"303","LANDMARKNA":"微風廣場停車場","LANDMARKAD":"6300001","ADDRESS":" ","TEL":" ","COUNTYNAME":"台北市","TOWNNAME":"松山區","MARKTYPE":"993","Class":"303"},"geometry":{"x":121.54577453369319,"y":25.045369607767579}},{"attributes":{"OBJECTID":8152,"LANDMARKID":"6300000001344","LANDMARKCO":"303","LANDMARKNA":"吉祥臨時平面停車場","LANDMARKAD":"6300001","ADDRESS":"台北市松山區光復北路11巷81號","TEL":" ","COUNTYNAME":"台北市","TOWNNAME":"松山區","MARKTYPE":"993","Class":"303"},"geometry":{"x":121.56104174566704,"y":25.050277429230139}},{"attributes":{"OBJECTID":8153,"LANDMARKID":"6300000001345","LANDMARKCO":"303","LANDMARKNA":"亞太駐車聯盟八德站停車場","LANDMARKAD":"6300001","ADDRESS":"台北市松山區八德路四段790號B1","TEL":"02-26536894","COUNTYNAME":"台北市","TOWNNAME":"松山區","MARKTYPE":"993","Class":"303"},"geometry":{"x":121.57744457439918,"y":25.049905350632159}},{"attributes":{"OBJECTID":8154,"LANDMARKID":"6300000001346","LANDMARKCO":"303","LANDMARKNA":"中興嘟嘟房停車場-中興站","LANDMARKAD":"6300001","ADDRESS":"台北市松山區長安東路二段251號","TEL":"(02)2752-3951","COUNTYNAME":"台北市","TOWNNAME":"松山區","MARKTYPE":"993","Class":"303"},"geometry":{"x":121.54490197506335,"y":25.048429165380512}},{"attributes":{"OBJECTID":8155,"LANDMARKID":"6300000001347","LANDMARKCO":"303","LANDMARKNA":"中興嘟嘟房停車場-長春站","LANDMARKAD":"6300001","ADDRESS":"台北市長春路445號_","TEL":"(02)2547-4701","COUNTYNAME":"台北市","TOWNNAME":"松山區","MARKTYPE":"993","Class":"303"},"geometry":{"x":121.54787614024701,"y":25.054575754866359}},{"attributes":{"OBJECTID":8156,"LANDMARKID":"6300000001348","LANDMARKCO":"303","LANDMARKNA":"中興嘟嘟房停車場-光復北站","LANDMARKAD":"6300001","ADDRESS":"台北市松山區光復北路11巷81號_","TEL":"(02)2742-2608","COUNTYNAME":"台北市","TOWNNAME":"松山區","MARKTYPE":"993","Class":"303"},"geometry":{"x":121.56155934441433,"y":25.050335192960485}},{"attributes":{"OBJECTID":8157,"LANDMARKID":"6300000001349","LANDMARKCO":"303","LANDMARKNA":"八德立體停車場","LANDMARKAD":"6300001","ADDRESS":"台北市松山區八德路四段568號","TEL":" ","COUNTYNAME":"台北市","TOWNNAME":"松山區","MARKTYPE":"993","Class":"303"},"geometry":{"x":121.5718626824077,"y":25.049745874817635}},{"attributes":{"OBJECTID":8158,"LANDMARKID":"6300000001350","LANDMARKCO":"303","LANDMARKNA":"八德停車場","LANDMARKAD":"6300001","ADDRESS":"台北市松山區八德路348號","TEL":" ","COUNTYNAME":"台北市","TOWNNAME":"松山區","MARKTYPE":"993","Class":"303"},"geometry":{"x":121.56838367470328,"y":25.049079739576673}},{"attributes":{"OBJECTID":8159,"LANDMARKID":"6300000001351","LANDMARKCO":"303","LANDMARKNA":"力霸大飯店收費停車場","LANDMARKAD":"6300001","ADDRESS":"台北市松山區南京東路五段32號","TEL":" ","COUNTYNAME":"台北市","TOWNNAME":"松山區","MARKTYPE":"993","Class":"303"},"geometry":{"x":121.55935972084305,"y":25.051305050194209}},{"attributes":{"OBJECTID":8160,"LANDMARKID":"6300000001352","LANDMARKCO":"303","LANDMARKNA":"三民停車場","LANDMARKAD":"6300001","ADDRESS":"台北市松山區三民路9號","TEL":" ","COUNTYNAME":"台北市","TOWNNAME":"松山區","MARKTYPE":"993","Class":"303"},"geometry":{"x":121.56366038391408,"y":25.052171993829088}},{"attributes":{"OBJECTID":8161,"LANDMARKID":"6300000001353","LANDMARKCO":"303","LANDMARKNA":"中泰賓館停車場","LANDMARKAD":"6300001","ADDRESS":"台北市松山區敦化北路166號","TEL":" ","COUNTYNAME":"台北市","TOWNNAME":"松山區","MARKTYPE":"993","Class":"303"},"geometry":{"x":121.54855828370522,"y":25.055758833736345}},{"attributes":{"OBJECTID":8162,"LANDMARKID":"6300000001354","LANDMARKCO":"303","LANDMARKNA":"中崙停車場","LANDMARKAD":"6300001","ADDRESS":"台北市松山區敦化段二小段183地號","TEL":" ","COUNTYNAME":"台北市","TOWNNAME":"松山區","MARKTYPE":"993","Class":"303"},"geometry":{"x":121.54991996565666,"y":25.058806661163821}},{"attributes":{"OBJECTID":8163,"LANDMARKID":"6300000001355","LANDMARKCO":"303","LANDMARKNA":"中興百貨公司收費停車場","LANDMARKAD":"6300001","ADDRESS":"台北市松山區復興北路15號","TEL":" ","COUNTYNAME":"台北市","TOWNNAME":"松山區","MARKTYPE":"993","Class":"303"},"geometry":{"x":121.54420096776367,"y":25.048750696487609}},{"attributes":{"OBJECTID":8164,"LANDMARKID":"6300000001356","LANDMARKCO":"303","LANDMARKNA":"兄弟飯店停車場","LANDMARKAD":"6300001","ADDRESS":"台北市松山區南京東路三段255號","TEL":" ","COUNTYNAME":"台北市","TOWNNAME":"松山區","MARKTYPE":"993","Class":"303"},"geometry":{"x":121.5446492926412,"y":25.052038547315462}},{"attributes":{"OBJECTID":8165,"LANDMARKID":"6300000001357","LANDMARKCO":"303","LANDMARKNA":"北寧路地下停車場","LANDMARKAD":"6300001","ADDRESS":"台北市松山區八德路三段25號B1","TEL":" ","COUNTYNAME":"台北市","TOWNNAME":"松山區","MARKTYPE":"993","Class":"303"},"geometry":{"x":121.55203217446861,"y":25.048336478220122}},{"attributes":{"OBJECTID":8166,"LANDMARKID":"6300000001358","LANDMARKCO":"303","LANDMARKNA":"台北市立體育場立體式停車場","LANDMARKAD":"6300001","ADDRESS":"台北市松山區南京東路四段10號","TEL":" ","COUNTYNAME":"台北市","TOWNNAME":"松山區","MARKTYPE":"993","Class":"303"},"geometry":{"x":121.5519828168549,"y":25.051317089581566}},{"attributes":{"OBJECTID":8167,"LANDMARKID":"6300000001359","LANDMARKCO":"303","LANDMARKNA":"台安醫院收費停車場","LANDMARKAD":"6300001","ADDRESS":"台北市松山區八德路二段424號","TEL":" ","COUNTYNAME":"台北市","TOWNNAME":"松山區","MARKTYPE":"993","Class":"303"},"geometry":{"x":121.54729180691156,"y":25.048055587737739}},{"attributes":{"OBJECTID":8168,"LANDMARKID":"6300000001360","LANDMARKCO":"303","LANDMARKNA":"台塑大樓停車場","LANDMARKAD":"6300001","ADDRESS":"台北市松山區敦化北路201號","TEL":" ","COUNTYNAME":"台北市","TOWNNAME":"松山區","MARKTYPE":"993","Class":"303"},"geometry":{"x":121.5494319547107,"y":25.05661070919912}},{"attributes":{"OBJECTID":8169,"LANDMARKID":"6300000001361","LANDMARKCO":"303","LANDMARKNA":"民生立體停車場","LANDMARKAD":"6300001","ADDRESS":"台北市松山區民生東路五段84號","TEL":" ","COUNTYNAME":"台北市","TOWNNAME":"松山區","MARKTYPE":"993","Class":"303"},"geometry":{"x":121.5594917833975,"y":25.058423551756459}},{"attributes":{"OBJECTID":8170,"LANDMARKID":"6300000001362","LANDMARKCO":"303","LANDMARKNA":"民生東路四段臨時平面停車場","LANDMARKAD":"6300001","ADDRESS":"台北市松山區民生東路四段80巷15弄","TEL":" ","COUNTYNAME":"台北市","TOWNNAME":"松山區","MARKTYPE":"993","Class":"303"},"geometry":{"x":121.55311449846981,"y":25.05631914148708}},{"attributes":{"OBJECTID":8171,"LANDMARKID":"6300000001363","LANDMARKCO":"303","LANDMARKNA":"光復停車場","LANDMARKAD":"6300001","ADDRESS":"台北市松山區八德路四段130號","TEL":" ","COUNTYNAME":"台北市","TOWNNAME":"松山區","MARKTYPE":"993","Class":"303"},"geometry":{"x":121.56172738228221,"y":25.04839012941353}},{"attributes":{"OBJECTID":8172,"LANDMARKID":"6300000001364","LANDMARKCO":"303","LANDMARKNA":"西松高中地下停車場","LANDMARKAD":"6300001","ADDRESS":"台北市松山區健康路325巷19弄1號B1","TEL":" ","COUNTYNAME":"台北市","TOWNNAME":"松山區","MARKTYPE":"993","Class":"303"},"geometry":{"x":121.56705174215922,"y":25.056051512246487}},{"attributes":{"OBJECTID":8173,"LANDMARKID":"6300000001365","LANDMARKCO":"303","LANDMARKNA":"宏林收費停車場","LANDMARKAD":"6300001","ADDRESS":"台北市松山區南京東四段137號B1","TEL":" ","COUNTYNAME":"台北市","TOWNNAME":"松山區","MARKTYPE":"993","Class":"303"},"geometry":{"x":121.55575426483341,"y":25.051728461538502}},{"attributes":{"OBJECTID":8174,"LANDMARKID":"6300000001366","LANDMARKCO":"303","LANDMARKNA":"宏泰世界大樓計時停車場","LANDMARKAD":"6300001","ADDRESS":"台北市松山區敦化北路168號B2","TEL":" ","COUNTYNAME":"台北市","TOWNNAME":"松山區","MARKTYPE":"993","Class":"303"},"geometry":{"x":121.54825605525295,"y":25.056299149867051}},{"attributes":{"OBJECTID":8175,"LANDMARKID":"6300000001367","LANDMARKCO":"303","LANDMARKNA":"亞太駐車聯盟民生站停車場","LANDMARKAD":"6300001","ADDRESS":"台北市松山區民生東路五段141號B1","TEL":" ","COUNTYNAME":"台北市","TOWNNAME":"松山區","MARKTYPE":"993","Class":"303"},"geometry":{"x":121.56179924606673,"y":25.059015713862983}},{"attributes":{"OBJECTID":8176,"LANDMARKID":"6300000001368","LANDMARKCO":"303","LANDMARKNA":"亞太駐車聯盟民生總站停車場","LANDMARKAD":"6300001","ADDRESS":"台北市松山區民生東路四段69號B1","TEL":" ","COUNTYNAME":"台北市","TOWNNAME":"松山區","MARKTYPE":"993","Class":"303"},"geometry":{"x":121.55116582802796,"y":25.058031955014862}},{"attributes":{"OBJECTID":8177,"LANDMARKID":"6300000001369","LANDMARKCO":"303","LANDMARKNA":"亞太濱江停車場","LANDMARKAD":"6300001","ADDRESS":"台北市松山區濱江街866巷23號","TEL":" ","COUNTYNAME":"台北市","TOWNNAME":"松山區","MARKTYPE":"993","Class":"303"},"geometry":{"x":121.55960154635459,"y":25.07092460081104}},{"attributes":{"OBJECTID":8178,"LANDMARKID":"6300000001370","LANDMARKCO":"303","LANDMARKNA":"延壽國宅停車場","LANDMARKAD":"6300001","ADDRESS":"台北市松山區三民路62巷B1","TEL":" ","COUNTYNAME":"台北市","TOWNNAME":"松山區","MARKTYPE":"993","Class":"303"},"geometry":{"x":121.56438099138671,"y":25.054721179632399}},{"attributes":{"OBJECTID":8179,"LANDMARKID":"6300000001371","LANDMARKCO":"303","LANDMARKNA":"松山機場停車場","LANDMARKAD":"6300001","ADDRESS":"台北市松山區敦化北路340號","TEL":" ","COUNTYNAME":"台北市","TOWNNAME":"松山區","MARKTYPE":"993","Class":"303"},"geometry":{"x":121.55199773431431,"y":25.061818846072029}},{"attributes":{"OBJECTID":8180,"LANDMARKID":"6300000001372","LANDMARKCO":"303","LANDMARKNA":"長興利停車場","LANDMARKAD":"6300001","ADDRESS":"台北市松山區敦化北路166號","TEL":" ","COUNTYNAME":"台北市","TOWNNAME":"松山區","MARKTYPE":"993","Class":"303"},"geometry":{"x":121.54855745650897,"y":25.055758027878547}},{"attributes":{"OBJECTID":8181,"LANDMARKID":"6300000001373","LANDMARKCO":"303","LANDMARKNA":"健康國小地下停車場","LANDMARKAD":"6300001","ADDRESS":"台北市松山區延壽路168號B2","TEL":" ","COUNTYNAME":"台北市","TOWNNAME":"松山區","MARKTYPE":"993","Class":"303"},"geometry":{"x":121.56340053678703,"y":25.056599203927728}},{"attributes":{"OBJECTID":8182,"LANDMARKID":"6300000001374","LANDMARKCO":"303","LANDMARKNA":"國軍松山醫院附設停車場","LANDMARKAD":"6300001","ADDRESS":"台北市松山區健康路131號","TEL":" ","COUNTYNAME":"台北市","TOWNNAME":"松山區","MARKTYPE":"993","Class":"303"},"geometry":{"x":121.55772220972065,"y":25.053926855472042}},{"attributes":{"OBJECTID":8183,"LANDMARKID":"6300000001375","LANDMARKCO":"303","LANDMARKNA":"揚昇商業大樓停車場","LANDMARKAD":"6300001","ADDRESS":"台北市松山區復興北路57號B3樓","TEL":" ","COUNTYNAME":"台北市","TOWNNAME":"松山區","MARKTYPE":"993","Class":"303"},"geometry":{"x":121.54424107969837,"y":25.050460525368148}},{"attributes":{"OBJECTID":8184,"LANDMARKID":"6300000001376","LANDMARKCO":"303","LANDMARKNA":"敦化立體停車大廈","LANDMARKAD":"6300001","ADDRESS":"台北市松山區八德路三段99巷1號","TEL":" ","COUNTYNAME":"台北市","TOWNNAME":"松山區","MARKTYPE":"993","Class":"303"},"geometry":{"x":121.55368556254797,"y":25.048665357639504}},{"attributes":{"OBJECTID":8185,"LANDMARKID":"6300000001377","LANDMARKCO":"303","LANDMARKNA":"敦化翠苑社區停車場","LANDMARKAD":"6300001","ADDRESS":"台北市松山區敦化北路199巷8號","TEL":" ","COUNTYNAME":"台北市","TOWNNAME":"松山區","MARKTYPE":"993","Class":"303"},"geometry":{"x":121.55059100471958,"y":25.055955034288342}},{"attributes":{"OBJECTID":8186,"LANDMARKID":"6300000001378","LANDMARKCO":"303","LANDMARKNA":"敦南停車場","LANDMARKAD":"6300001","ADDRESS":"台北市松山區","TEL":" ","COUNTYNAME":"台北市","TOWNNAME":"松山區","MARKTYPE":"993","Class":"303"},"geometry":{"x":121.54931685756145,"y":25.052219801818786}},{"attributes":{"OBJECTID":8187,"LANDMARKID":"6300000001379","LANDMARKCO":"303","LANDMARKNA":"榮浦車庫南京站停車場","LANDMARKAD":"6300001","ADDRESS":"台北市松山區光復北路100巷15號","TEL":" ","COUNTYNAME":"台北市","TOWNNAME":"松山區","MARKTYPE":"993","Class":"303"},"geometry":{"x":121.55701840919102,"y":25.050622786021858}},{"attributes":{"OBJECTID":8188,"LANDMARKID":"6300000001380","LANDMARKCO":"303","LANDMARKNA":"福華長春店地下室停車場","LANDMARKAD":"6300001","ADDRESS":"台北市松山區長春路343號B2","TEL":" ","COUNTYNAME":"台北市","TOWNNAME":"松山區","MARKTYPE":"993","Class":"303"},"geometry":{"x":121.54514608740843,"y":25.054678233213981}},{"attributes":{"OBJECTID":8189,"LANDMARKID":"6300000001381","LANDMARKCO":"303","LANDMARKNA":"撫遠停車場","LANDMARKAD":"6300001","ADDRESS":"台北市松山區撫遠街419之1號","TEL":" ","COUNTYNAME":"台北市","TOWNNAME":"松山區","MARKTYPE":"993","Class":"303"},"geometry":{"x":121.5654642210859,"y":25.066639838669659}},{"attributes":{"OBJECTID":8190,"LANDMARKID":"6300000001382","LANDMARKCO":"303","LANDMARKNA":"環亞世界停車場","LANDMARKAD":"6300001","ADDRESS":"台北市松山區敦化北路100號","TEL":" ","COUNTYNAME":"台北市","TOWNNAME":"松山區","MARKTYPE":"993","Class":"303"},"geometry":{"x":121.54857955223039,"y":25.052798042450956}},{"attributes":{"OBJECTID":8191,"LANDMARKID":"6300000001383","LANDMARKCO":"303","LANDMARKNA":"台聯濱江街停車場","LANDMARKAD":"6300001","ADDRESS":"台北市松山區濱江段四小段41地號","TEL":" ","COUNTYNAME":"台北市","TOWNNAME":"松山區","MARKTYPE":"993","Class":"303"},"geometry":{"x":121.55025747870256,"y":25.071657050365847}},{"attributes":{"OBJECTID":8192,"LANDMARKID":"6300000001384","LANDMARKCO":"303","LANDMARKNA":"西華大飯店客用停車場","LANDMARKAD":"6300001","ADDRESS":"台北市松山區民生東路三段111號","TEL":" ","COUNTYNAME":"台北市","TOWNNAME":"松山區","MARKTYPE":"993","Class":"303"},"geometry":{"x":121.54586350662495,"y":25.058045235620952}},{"attributes":{"OBJECTID":8193,"LANDMARKID":"6300000001385","LANDMARKCO":"303","LANDMARKNA":"金和興復旦停車場","LANDMARKAD":"6300001","ADDRESS":"台北市松山區敦化段三小段349地號","TEL":" ","COUNTYNAME":"台北市","TOWNNAME":"松山區","MARKTYPE":"993","Class":"303"},"geometry":{"x":121.54828077763578,"y":25.048988743537986}},{"attributes":{"OBJECTID":8194,"LANDMARKID":"6300000001386","LANDMARKCO":"303","LANDMARKNA":"鴻構大樓計時收費停車場","LANDMARKAD":"6300001","ADDRESS":"台北市松山區民生東路三段109號B1樓","TEL":" ","COUNTYNAME":"台北市","TOWNNAME":"松山區","MARKTYPE":"993","Class":"303"},"geometry":{"x":121.5450175311761,"y":25.058130848225971}},{"attributes":{"OBJECTID":8195,"LANDMARKID":"6300000001387","LANDMARKCO":"303","LANDMARKNA":"聯通中興停車場","LANDMARKAD":"6300001","ADDRESS":"台北市松山區復興南路1號B2樓","TEL":" ","COUNTYNAME":"台北市","TOWNNAME":"松山區","MARKTYPE":"993","Class":"303"},"geometry":{"x":121.54415245678342,"y":25.047335082785612}},{"attributes":{"OBJECTID":8196,"LANDMARKID":"6300000001388","LANDMARKCO":"303","LANDMARKNA":"應安停車場-敦北場","LANDMARKAD":"6300001","ADDRESS":"台北市松山區敦化北路165巷21號","TEL":"0980-933205","COUNTYNAME":"台北市","TOWNNAME":"松山區","MARKTYPE":"993","Class":"303"},"geometry":{"x":121.55122228352306,"y":25.054853547961702}},{"attributes":{"OBJECTID":8197,"LANDMARKID":"6300000001389","LANDMARKCO":"303","LANDMARKNA":"應安停車場-延壽場","LANDMARKAD":"6300001","ADDRESS":"台北市松山區健康路325巷24弄9號對面空地","TEL":"02-25284915","COUNTYNAME":"台北市","TOWNNAME":"松山區","MARKTYPE":"993","Class":"303"},"geometry":{"x":121.56752721289909,"y":25.057121793378162}},{"attributes":{"OBJECTID":8198,"LANDMARKID":"6300000001390","LANDMARKCO":"303","LANDMARKNA":"永固停車場-威京站","LANDMARKAD":"6300001","ADDRESS":"台北市松山區東興路12號B1","TEL":"02-27473806","COUNTYNAME":"台北市","TOWNNAME":"松山區","MARKTYPE":"993","Class":"303"},"geometry":{"x":121.56530967247556,"y":25.050364678663971}},{"attributes":{"OBJECTID":8199,"LANDMARKID":"6300000001391","LANDMARKCO":"303","LANDMARKNA":"永固停車場-八德站","LANDMARKAD":"6300001","ADDRESS":"台北市松山區八德路四段106巷內空地","TEL":"02-27612781","COUNTYNAME":"台北市","TOWNNAME":"松山區","MARKTYPE":"993","Class":"303"},"geometry":{"x":121.56110182589204,"y":25.048282648449277}},{"attributes":{"OBJECTID":8200,"LANDMARKID":"6300000001392","LANDMARKCO":"303","LANDMARKNA":"永固停車場-南京二","LANDMARKAD":"6300001","ADDRESS":"台北市南京東路五段161號地下室3.4.5","TEL":"02-37655730","COUNTYNAME":"台北市","TOWNNAME":"松山區","MARKTYPE":"993","Class":"303"},"geometry":{"x":121.56232552926249,"y":25.051650486678842}}]}