{"displayFieldName":"COUNTYNAME","fieldAliases":{"OBJECTID":"OBJECTID","LANDMARKID":"LANDMARKID","LANDMARKCO":"LANDMARKCO","LANDMARKNA":"LANDMARKNA","LANDMARKAD":"LANDMARKAD","ADDRESS":"ADDRESS","TEL":"TEL","COUNTYNAME":"COUNTYNAME","TOWNNAME":"TOWNNAME","MARKTYPE":"MARKTYPE","Class":"Class"},"geometryType":"esriGeometryPoint","spatialReference":{"wkid":4326},"fields":[{"name":"OBJECTID","type":"esriFieldTypeOID","alias":"OBJECTID"},{"name":"LANDMARKID","type":"esriFieldTypeString","alias":"LANDMARKID","length":15},{"name":"LANDMARKCO","type":"esriFieldTypeString","alias":"LANDMARKCO","length":15},{"name":"LANDMARKNA","type":"esriFieldTypeString","alias":"LANDMARKNA","length":50},{"name":"LANDMARKAD","type":"esriFieldTypeString","alias":"LANDMARKAD","length":15},{"name":"ADDRESS","type":"esriFieldTypeString","alias":"ADDRESS","length":56},{"name":"TEL","type":"esriFieldTypeString","alias":"TEL","length":36},{"name":"COUNTYNAME","type":"esriFieldTypeString","alias":"COUNTYNAME","length":15},{"name":"TOWNNAME","type":"esriFieldTypeString","alias":"TOWNNAME","length":13},{"name":"MARKTYPE","type":"esriFieldTypeString","alias":"MARKTYPE","length":12},{"name":"Class","type":"esriFieldTypeString","alias":"Class","length":5}],"features":[{"attributes":{"OBJECTID":13201,"LANDMARKID":"1000600001110","LANDMARKCO":"406","LANDMARKNA":"五五公園","LANDMARKAD":"1000617","ADDRESS":"台中市龍井區","TEL":" ","COUNTYNAME":"台中市","TOWNNAME":"龍井區","MARKTYPE":"994","Class":"4"},"geometry":{"x":120.56313017872849,"y":24.196864996783567}},{"attributes":{"OBJECTID":13202,"LANDMARKID":"1000600001079","LANDMARKCO":"405","LANDMARKNA":"鯨世界加油站-龍井站(台塑)","LANDMARKAD":"1000617","ADDRESS":"台中市龍井區龍津村中華路二段15號","TEL":" ","COUNTYNAME":"台中市","TOWNNAME":"龍井區","MARKTYPE":"994","Class":"4"},"geometry":{"x":120.53612816305201,"y":24.19550514432148}},{"attributes":{"OBJECTID":13203,"LANDMARKID":"1000600000143","LANDMARKCO":"107","LANDMARKNA":"台中市消防局梨份分隊","LANDMARKAD":"1000617","ADDRESS":"台中市龍井區新興路104巷12號","TEL":"04-26318251","COUNTYNAME":"台中市","TOWNNAME":"龍井區","MARKTYPE":"991","Class":"1"},"geometry":{"x":120.58368522539489,"y":24.182792981419102}},{"attributes":{"OBJECTID":13204,"LANDMARKID":"1000600000144","LANDMARKCO":"107","LANDMARKNA":"台中市警察局龍東派出所","LANDMARKAD":"1000617","ADDRESS":"台中市龍井區龍東村茄投路67號","TEL":"04-26397043","COUNTYNAME":"台中市","TOWNNAME":"龍井區","MARKTYPE":"991","Class":"1"},"geometry":{"x":120.530424418067,"y":24.178667289267217}},{"attributes":{"OBJECTID":13205,"LANDMARKID":"1000600000145","LANDMARKCO":"107","LANDMARKNA":"台中市警察局犁份派出所","LANDMARKAD":"1000617","ADDRESS":"台中市龍井區新庄村遊園南路194號","TEL":"04-26312719","COUNTYNAME":"台中市","TOWNNAME":"龍井區","MARKTYPE":"991","Class":"1"},"geometry":{"x":120.58401091789692,"y":24.182627266256798}},{"attributes":{"OBJECTID":13206,"LANDMARKID":"1000600000146","LANDMARKCO":"107","LANDMARKNA":"台中市警察局龍津派出所","LANDMARKAD":"1000617","ADDRESS":"台中市龍井區龍津村中央路一段165巷36號","TEL":"04-26396084","COUNTYNAME":"台中市","TOWNNAME":"龍井區","MARKTYPE":"991","Class":"1"},"geometry":{"x":120.52328785872425,"y":24.200767040900288}},{"attributes":{"OBJECTID":13207,"LANDMARKID":"1000600000044","LANDMARKCO":"103","LANDMARKNA":"台中市龍井區鄉民代表會","LANDMARKAD":"1000617","ADDRESS":"臺中縣龍井區沙田路四段247號","TEL":"04-26353744","COUNTYNAME":"台中市","TOWNNAME":"龍井區","MARKTYPE":"991","Class":"1"},"geometry":{"x":120.54577942204638,"y":24.192710153643329}},{"attributes":{"OBJECTID":13208,"LANDMARKID":"1000600000263","LANDMARKCO":"108","LANDMARKNA":"台中市龍井區公所","LANDMARKAD":"1000617","ADDRESS":"台中市龍井區沙田路四段247號","TEL":"04-26352411","COUNTYNAME":"台中市","TOWNNAME":"龍井區","MARKTYPE":"991","Class":"1"},"geometry":{"x":120.54566770228917,"y":24.191806561412644}},{"attributes":{"OBJECTID":13209,"LANDMARKID":"1000600000141","LANDMARKCO":"107","LANDMARKNA":"台中市警察局龍井分駐所","LANDMARKAD":"1000617","ADDRESS":"臺中縣龍井區竹坑村沙田路4段245號","TEL":"04-26353054","COUNTYNAME":"台中市","TOWNNAME":"龍井區","MARKTYPE":"991","Class":"1"},"geometry":{"x":120.54565849900111,"y":24.191716214369052}},{"attributes":{"OBJECTID":13210,"LANDMARKID":"1000600000142","LANDMARKCO":"107","LANDMARKNA":"台中市警察局麗水派出所","LANDMARKAD":"1000617","ADDRESS":"臺中縣龍井區福田村臨港東路2段317號","TEL":"04-26395994","COUNTYNAME":"台中市","TOWNNAME":"龍井區","MARKTYPE":"991","Class":"1"},"geometry":{"x":120.52299090516307,"y":24.194173932287576}},{"attributes":{"OBJECTID":13211,"LANDMARKID":"1000600000117","LANDMARKCO":"106","LANDMARKNA":"台中市龍井區戶政事務所","LANDMARKAD":"1000617","ADDRESS":"臺中縣龍井區龍泉村沙田路四段257號","TEL":"04-26353644","COUNTYNAME":"台中市","TOWNNAME":"龍井區","MARKTYPE":"991","Class":"1"},"geometry":{"x":120.54565785923681,"y":24.191806503178832}},{"attributes":{"OBJECTID":13212,"LANDMARKID":"1000600000140","LANDMARKCO":"107","LANDMARKNA":"台中市消防局龍井分隊","LANDMARKAD":"1000617","ADDRESS":"台中市龍井區沙田路四段183號","TEL":"04-26352894","COUNTYNAME":"台中市","TOWNNAME":"龍井區","MARKTYPE":"991","Class":"1"},"geometry":{"x":120.54558295558566,"y":24.191264329704634}},{"attributes":{"OBJECTID":13213,"LANDMARKID":"1000600000042","LANDMARKCO":"103","LANDMARKNA":"台中市龍井區衛生所","LANDMARKAD":"1000617","ADDRESS":"台中市龍井區竹坑村沙田路四段243號","TEL":"04-26352228","COUNTYNAME":"台中市","TOWNNAME":"龍井區","MARKTYPE":"991","Class":"1"},"geometry":{"x":120.54560992642814,"y":24.191625661477037}},{"attributes":{"OBJECTID":13214,"LANDMARKID":"1000600000545","LANDMARKCO":"204","LANDMARKNA":"台中市立圖書館龍井分館","LANDMARKAD":"1000617","ADDRESS":"台中市龍井區龍泉村觀光路2號","TEL":" ","COUNTYNAME":"台中市","TOWNNAME":"龍井區","MARKTYPE":"992","Class":"2"},"geometry":{"x":120.54483868230415,"y":24.192345202017581}},{"attributes":{"OBJECTID":13215,"LANDMARKID":"1000600000429","LANDMARKCO":"203","LANDMARKNA":"縣立龍港國小","LANDMARKAD":"1000617","ADDRESS":"台中市龍井區麗水村三港路1號","TEL":"04-26395586","COUNTYNAME":"台中市","TOWNNAME":"龍井區","MARKTYPE":"992","Class":"2"},"geometry":{"x":120.50101404535364,"y":24.198980196807739}},{"attributes":{"OBJECTID":13216,"LANDMARKID":"1000600000430","LANDMARKCO":"203","LANDMARKNA":"縣立四箴國中","LANDMARKAD":"1000617","ADDRESS":"台中市龍井區中沙路2號","TEL":"04-26314606#10","COUNTYNAME":"台中市","TOWNNAME":"龍井區","MARKTYPE":"992","Class":"2"},"geometry":{"x":120.57650549830763,"y":24.179455130093412}},{"attributes":{"OBJECTID":13217,"LANDMARKID":"1000600000431","LANDMARKCO":"203","LANDMARKNA":"縣立龍井國中","LANDMARKAD":"1000617","ADDRESS":"台中市龍井區觀光路9號","TEL":"04-26353344","COUNTYNAME":"台中市","TOWNNAME":"龍井區","MARKTYPE":"992","Class":"2"},"geometry":{"x":120.54355026168594,"y":24.191912032291956}},{"attributes":{"OBJECTID":13218,"LANDMARKID":"1000600000432","LANDMARKCO":"203","LANDMARKNA":"縣立龍峰國小","LANDMARKAD":"1000617","ADDRESS":"台中市龍井區新庄村中沙路2號","TEL":"04-26314707","COUNTYNAME":"台中市","TOWNNAME":"龍井區","MARKTYPE":"992","Class":"2"},"geometry":{"x":120.57650549830763,"y":24.179455130093412}},{"attributes":{"OBJECTID":13219,"LANDMARKID":"1000600000433","LANDMARKCO":"203","LANDMARKNA":"縣立龍井國小","LANDMARKAD":"1000617","ADDRESS":"台中市龍井區龍西村龍門路51號","TEL":"04-26397131","COUNTYNAME":"台中市","TOWNNAME":"龍井區","MARKTYPE":"992","Class":"2"},"geometry":{"x":120.52929620075889,"y":24.184031688013452}},{"attributes":{"OBJECTID":13220,"LANDMARKID":"1000600000434","LANDMARKCO":"203","LANDMARKNA":"縣立龍泉國小","LANDMARKAD":"1000617","ADDRESS":"台中市龍井區龍泉村龍新路162號","TEL":"04-26353340","COUNTYNAME":"台中市","TOWNNAME":"龍井區","MARKTYPE":"992","Class":"2"},"geometry":{"x":120.5476833113145,"y":24.196179954181936}},{"attributes":{"OBJECTID":13221,"LANDMARKID":"1000600000435","LANDMARKCO":"203","LANDMARKNA":"縣立龍津國中","LANDMARKAD":"1000617","ADDRESS":"台中市龍井區中央路一段165巷50號","TEL":"04-26304536","COUNTYNAME":"台中市","TOWNNAME":"龍井區","MARKTYPE":"992","Class":"2"},"geometry":{"x":120.52214773348896,"y":24.20456088032654}},{"attributes":{"OBJECTID":13222,"LANDMARKID":"1000600000436","LANDMARKCO":"203","LANDMARKNA":"縣立龍津國小","LANDMARKAD":"1000617","ADDRESS":"台中市龍井區龍津村中央路一段165巷50號","TEL":"04-26393394","COUNTYNAME":"台中市","TOWNNAME":"龍井區","MARKTYPE":"992","Class":"2"},"geometry":{"x":120.52170947522515,"y":24.201217345316294}},{"attributes":{"OBJECTID":13223,"LANDMARKID":"1000600000437","LANDMARKCO":"203","LANDMARKNA":"縣立龍海國小","LANDMARKAD":"1000617","ADDRESS":"台中市龍井區忠和村中央路3段206號","TEL":"04-26393334","COUNTYNAME":"台中市","TOWNNAME":"龍井區","MARKTYPE":"992","Class":"2"},"geometry":{"x":120.52681808745159,"y":24.216220189605846}},{"attributes":{"OBJECTID":13224,"LANDMARKID":"1000600000438","LANDMARKCO":"203","LANDMARKNA":"縣立龍山國小","LANDMARKAD":"1000617","ADDRESS":"台中市龍井區沙田路六段239號","TEL":"04-26352454","COUNTYNAME":"台中市","TOWNNAME":"龍井區","MARKTYPE":"992","Class":"2"},"geometry":{"x":120.55067155138406,"y":24.213670302212822}},{"attributes":{"OBJECTID":13225,"LANDMARKID":"1000600000752","LANDMARKCO":"308","LANDMARKNA":"國3-龍井交流道-南下","LANDMARKAD":"1000617","ADDRESS":"台中市龍井區","TEL":" ","COUNTYNAME":"台中市","TOWNNAME":"龍井區","MARKTYPE":"993","Class":"308"},"geometry":{"x":120.56891388437445,"y":24.193365634649876}},{"attributes":{"OBJECTID":13226,"LANDMARKID":"1000600000753","LANDMARKCO":"308","LANDMARKNA":"台61-龍井交流道-南下","LANDMARKAD":"1000617","ADDRESS":" ","TEL":" ","COUNTYNAME":"台中市","TOWNNAME":"龍井區","MARKTYPE":"993","Class":"308"},"geometry":{"x":120.52069532802479,"y":24.213963942420381}},{"attributes":{"OBJECTID":13227,"LANDMARKID":"1000600000588","LANDMARKCO":"301","LANDMARKNA":"龍井火車站","LANDMARKAD":"1000617","ADDRESS":"台中市龍井區龍新路1號","TEL":"04-26355578","COUNTYNAME":"台中市","TOWNNAME":"龍井區","MARKTYPE":"993","Class":"301"},"geometry":{"x":120.54329558429096,"y":24.197610399821372}},{"attributes":{"OBJECTID":13228,"LANDMARKID":"1000600000883","LANDMARKCO":"402","LANDMARKNA":"威寶電信-龍井新興特約服務中心","LANDMARKAD":"1000617","ADDRESS":"台中市龍井區新興路91之3號","TEL":"04-26526298","COUNTYNAME":"台中市","TOWNNAME":"龍井區","MARKTYPE":"994","Class":"4"},"geometry":{"x":120.58443963121846,"y":24.181812905912686}},{"attributes":{"OBJECTID":13229,"LANDMARKID":"1000600000884","LANDMARKCO":"402","LANDMARKNA":"大眾電信(震旦通訊)-台中東海店","LANDMARKAD":"1000617","ADDRESS":"台中市龍井區新興路20-2號","TEL":"04-26520441","COUNTYNAME":"台中市","TOWNNAME":"龍井區","MARKTYPE":"994","Class":"4"},"geometry":{"x":120.58953378687126,"y":24.180949582644029}},{"attributes":{"OBJECTID":13230,"LANDMARKID":"1000600000885","LANDMARKCO":"402","LANDMARKNA":"大眾電信-東海專賣店","LANDMARKAD":"1000617","ADDRESS":"台中市龍井區中港路東園巷4弄1號","TEL":"0968-544246","COUNTYNAME":"台中市","TOWNNAME":"龍井區","MARKTYPE":"994","Class":"4"},"geometry":{"x":120.59282691220007,"y":24.18278917708977}},{"attributes":{"OBJECTID":13231,"LANDMARKID":"1000600001441","LANDMARKCO":"604","LANDMARKNA":"雅筑民宿","LANDMARKAD":"1000617","ADDRESS":"台中市龍井區東海村遠東街207巷11號","TEL":"04-26320008","COUNTYNAME":"台中市","TOWNNAME":"龍井區","MARKTYPE":"996","Class":"6"},"geometry":{"x":120.59702826767776,"y":24.189128064475653}},{"attributes":{"OBJECTID":13232,"LANDMARKID":"1000600001325","LANDMARKCO":"511","LANDMARKNA":"東海夜市","LANDMARKAD":"1000617","ADDRESS":"台中市龍井區","TEL":" ","COUNTYNAME":"台中市","TOWNNAME":"龍井區","MARKTYPE":"995","Class":"5"},"geometry":{"x":120.5922628444885,"y":24.181417905915513}},{"attributes":{"OBJECTID":13233,"LANDMARKID":"1000600001080","LANDMARKCO":"405","LANDMARKNA":"台灣優力加油站-新社站(中油)","LANDMARKAD":"1000611","ADDRESS":"台中市新社區中和街五段35號","TEL":"04-25826472","COUNTYNAME":"台中市","TOWNNAME":"新社區","MARKTYPE":"994","Class":"4"},"geometry":{"x":120.80914254321742,"y":24.250976072994682}},{"attributes":{"OBJECTID":13234,"LANDMARKID":"1000600001081","LANDMARKCO":"405","LANDMARKNA":"中油加油站-新社站(中油直營)","LANDMARKAD":"1000611","ADDRESS":"台中市新社區中正村中和街五段58號","TEL":"04-25819102","COUNTYNAME":"台中市","TOWNNAME":"新社區","MARKTYPE":"994","Class":"4"},"geometry":{"x":120.80872752669194,"y":24.250151674414258}},{"attributes":{"OBJECTID":13235,"LANDMARKID":"1000600001082","LANDMARKCO":"405","LANDMARKNA":"統一速邁樂加油站-新社加油站(中油)","LANDMARKAD":"1000611","ADDRESS":"台中市新社區中興村中興嶺425號","TEL":" ","COUNTYNAME":"台中市","TOWNNAME":"新社區","MARKTYPE":"994","Class":"4"},"geometry":{"x":120.79563643336731,"y":24.210569660302301}},{"attributes":{"OBJECTID":13236,"LANDMARKID":"1000600001288","LANDMARKCO":"506","LANDMARKNA":"中興休閒農場","LANDMARKAD":"1000611","ADDRESS":"台中市新社區中和村中興街158號","TEL":"04-25931135","COUNTYNAME":"台中市","TOWNNAME":"新社區","MARKTYPE":"995","Class":"5"},"geometry":{"x":120.82916433121645,"y":24.157584850322817}},{"attributes":{"OBJECTID":13237,"LANDMARKID":"1000600001289","LANDMARKCO":"506","LANDMARKNA":"安石園茶園","LANDMARKAD":"1000611","ADDRESS":"台中市新社區崑山村崑南街95之6號","TEL":"04-25814302","COUNTYNAME":"台中市","TOWNNAME":"新社區","MARKTYPE":"995","Class":"5"},"geometry":{"x":120.78445914490062,"y":24.239460339259015}},{"attributes":{"OBJECTID":13238,"LANDMARKID":"1000600001181","LANDMARKCO":"408","LANDMARKNA":"郵局-新社中興嶺郵局","LANDMARKAD":"1000611","ADDRESS":"台中市新社區中興嶺173號","TEL":"(04)2581-2382","COUNTYNAME":"台中市","TOWNNAME":"新社區","MARKTYPE":"994","Class":"4"},"geometry":{"x":120.79402536686182,"y":24.205949281423351}},{"attributes":{"OBJECTID":13239,"LANDMARKID":"1000600001240","LANDMARKCO":"409","LANDMARKNA":"新社區農會","LANDMARKAD":"1000611","ADDRESS":"台中市新社區新社村中和街四段226號","TEL":"04-258115","COUNTYNAME":"台中市","TOWNNAME":"新社區","MARKTYPE":"994","Class":"4"},"geometry":{"x":120.808198854606,"y":24.243765429307636}},{"attributes":{"OBJECTID":13240,"LANDMARKID":"1000600000150","LANDMARKCO":"107","LANDMARKNA":"台中市消防局新社分隊","LANDMARKAD":"1000611","ADDRESS":"台中市新社區興安路1號","TEL":"04-25816754","COUNTYNAME":"台中市","TOWNNAME":"新社區","MARKTYPE":"991","Class":"1"},"geometry":{"x":120.80613002862327,"y":24.237774813399653}},{"attributes":{"OBJECTID":13241,"LANDMARKID":"1000600000023","LANDMARKCO":"101","LANDMARKNA":"種苗改良繁殖場","LANDMARKAD":"1000611","ADDRESS":"台中市新社區大南村興中街46號","TEL":"04-25811311","COUNTYNAME":"台中市","TOWNNAME":"新社區","MARKTYPE":"991","Class":"1"},"geometry":{"x":120.80409734154318,"y":24.228285315369686}},{"attributes":{"OBJECTID":13242,"LANDMARKID":"1000600000262","LANDMARKCO":"108","LANDMARKNA":"台中市新社區公所","LANDMARKAD":"1000611","ADDRESS":"臺中縣新社區復盛村興社街二段28之1號","TEL":"04-25811111","COUNTYNAME":"台中市","TOWNNAME":"新社區","MARKTYPE":"991","Class":"1"},"geometry":{"x":120.8195893702359,"y":24.211876757000908}},{"attributes":{"OBJECTID":13243,"LANDMARKID":"1000600000043","LANDMARKCO":"103","LANDMARKNA":"台中市新社區鄉民代表會","LANDMARKAD":"1000611","ADDRESS":"臺中縣新社區復盛村興社街二段28-1號","TEL":"04-25811950","COUNTYNAME":"台中市","TOWNNAME":"新社區","MARKTYPE":"991","Class":"1"},"geometry":{"x":120.81059507570909,"y":24.241033068966583}},{"attributes":{"OBJECTID":13244,"LANDMARKID":"1000600000147","LANDMARKCO":"107","LANDMARKNA":"台中市警察局東興派出所","LANDMARKAD":"1000611","ADDRESS":"台中市新社區東興村興社街一段285號","TEL":"04-25811476","COUNTYNAME":"台中市","TOWNNAME":"新社區","MARKTYPE":"991","Class":"1"},"geometry":{"x":120.82118102469531,"y":24.20673380901755}},{"attributes":{"OBJECTID":13245,"LANDMARKID":"1000600000148","LANDMARKCO":"107","LANDMARKNA":"台中市警察局永源派出所","LANDMARKAD":"1000611","ADDRESS":"台中市新社區永源村中和街一段20號","TEL":"04-25811475","COUNTYNAME":"台中市","TOWNNAME":"新社區","MARKTYPE":"991","Class":"1"},"geometry":{"x":120.79215548299022,"y":24.219426893734653}},{"attributes":{"OBJECTID":13246,"LANDMARKID":"1000600000149","LANDMARKCO":"107","LANDMARKNA":"台中市警察局新社分駐所","LANDMARKAD":"1000611","ADDRESS":"臺中縣新社區復盛村興社街2段28之3號","TEL":"04-25811401","COUNTYNAME":"台中市","TOWNNAME":"新社區","MARKTYPE":"991","Class":"1"},"geometry":{"x":120.80858200333657,"y":24.243827101201521}},{"attributes":{"OBJECTID":13247,"LANDMARKID":"1000600000116","LANDMARKCO":"106","LANDMARKNA":"台中市新社區戶政事務所","LANDMARKAD":"1000611","ADDRESS":"台中市新社區新社村6鄰中和街四段207號","TEL":"04-25811420","COUNTYNAME":"台中市","TOWNNAME":"新社區","MARKTYPE":"991","Class":"1"},"geometry":{"x":120.80893570505971,"y":24.244098868533108}},{"attributes":{"OBJECTID":13248,"LANDMARKID":"1000600000036","LANDMARKCO":"103","LANDMARKNA":"台中市新社區衛生所","LANDMARKAD":"1000611","ADDRESS":"台中市新社區興社街四段1號","TEL":"04-25813514","COUNTYNAME":"台中市","TOWNNAME":"新社區","MARKTYPE":"991","Class":"1"},"geometry":{"x":120.80873592549757,"y":24.241750755062032}},{"attributes":{"OBJECTID":13249,"LANDMARKID":"1000600000153","LANDMARKCO":"107","LANDMARKNA":"台中市警察局福中派出所","LANDMARKAD":"1000611","ADDRESS":"台中市新社區福興村美林45號","TEL":"04-25941364","COUNTYNAME":"台中市","TOWNNAME":"新社區","MARKTYPE":"991","Class":"1"},"geometry":{"x":120.86480400694394,"y":24.15919287856747}},{"attributes":{"OBJECTID":13250,"LANDMARKID":"1000600000543","LANDMARKCO":"204","LANDMARKNA":"台中市立圖書館新社分館","LANDMARKAD":"1000611","ADDRESS":"台中市新社區新社村興社街四段1巷1號","TEL":" ","COUNTYNAME":"台中市","TOWNNAME":"新社區","MARKTYPE":"992","Class":"2"},"geometry":{"x":120.80977244284566,"y":24.240638060207424}},{"attributes":{"OBJECTID":13251,"LANDMARKID":"1000600000424","LANDMARKCO":"203","LANDMARKNA":"縣立崑山國小","LANDMARKAD":"1000611","ADDRESS":"台中市新社區崑山村崑南街87號","TEL":"04-25812496","COUNTYNAME":"台中市","TOWNNAME":"新社區","MARKTYPE":"992","Class":"2"},"geometry":{"x":120.78742280972301,"y":24.241452936746189}},{"attributes":{"OBJECTID":13252,"LANDMARKID":"1000600000425","LANDMARKCO":"203","LANDMARKNA":"縣立大南國小","LANDMARKAD":"1000611","ADDRESS":"台中市新社區大南村興中街47號","TEL":"04-25811574","COUNTYNAME":"台中市","TOWNNAME":"新社區","MARKTYPE":"992","Class":"2"},"geometry":{"x":120.80430046076167,"y":24.229737656973519}},{"attributes":{"OBJECTID":13253,"LANDMARKID":"1000600000426","LANDMARKCO":"203","LANDMARKNA":"縣立新社國小","LANDMARKAD":"1000611","ADDRESS":"台中市新社區新社村興社街394號","TEL":"04-25811204","COUNTYNAME":"台中市","TOWNNAME":"新社區","MARKTYPE":"992","Class":"2"},"geometry":{"x":120.81107679552122,"y":24.241305144170745}},{"attributes":{"OBJECTID":13254,"LANDMARKID":"1000600000427","LANDMARKCO":"203","LANDMARKNA":"縣立協成國小","LANDMARKAD":"1000611","ADDRESS":"台中市新社區協成村興義街219號","TEL":"04-25813437","COUNTYNAME":"台中市","TOWNNAME":"新社區","MARKTYPE":"992","Class":"2"},"geometry":{"x":120.81306623515292,"y":24.193993105846328}},{"attributes":{"OBJECTID":13255,"LANDMARKID":"1000600000428","LANDMARKCO":"203","LANDMARKNA":"縣立中和國小","LANDMARKAD":"1000611","ADDRESS":"台中市新社區中和村中興街129號","TEL":"04-25931001","COUNTYNAME":"台中市","TOWNNAME":"新社區","MARKTYPE":"992","Class":"2"},"geometry":{"x":120.82836739860082,"y":24.156840964700613}},{"attributes":{"OBJECTID":13256,"LANDMARKID":"1000600000300","LANDMARKCO":"202","LANDMARKNA":"縣立新社高中","LANDMARKAD":"1000611","ADDRESS":"台中市新社區復興村中和街三段國中巷10號","TEL":"04-25812116","COUNTYNAME":"台中市","TOWNNAME":"新社區","MARKTYPE":"992","Class":"2"},"geometry":{"x":120.80710570175803,"y":24.237506413935971}},{"attributes":{"OBJECTID":13257,"LANDMARKID":"1000600000418","LANDMARKCO":"203","LANDMARKNA":"縣立新社國中","LANDMARKAD":"1000611","ADDRESS":"台中市新社區中和街三段國中巷10號","TEL":"04-25812116","COUNTYNAME":"台中市","TOWNNAME":"新社區","MARKTYPE":"992","Class":"2"},"geometry":{"x":120.80909075824803,"y":24.238862288584144}},{"attributes":{"OBJECTID":13258,"LANDMARKID":"1000600000419","LANDMARKCO":"203","LANDMARKNA":"縣立新社高中附設國中部","LANDMARKAD":"1000611","ADDRESS":"台中市新社區中和街三段國中巷10號","TEL":"04-25812116","COUNTYNAME":"台中市","TOWNNAME":"新社區","MARKTYPE":"992","Class":"2"},"geometry":{"x":120.80718366120375,"y":24.2377774899367}},{"attributes":{"OBJECTID":13259,"LANDMARKID":"1000600000420","LANDMARKCO":"203","LANDMARKNA":"縣立福民國小","LANDMARKAD":"1000611","ADDRESS":"台中市和平區東關路三段和興巷60號","TEL":"04-25942670","COUNTYNAME":"台中市","TOWNNAME":"新社區","MARKTYPE":"992","Class":"2"},"geometry":{"x":120.881203670937,"y":24.163450027923201}},{"attributes":{"OBJECTID":13260,"LANDMARKID":"1000600000421","LANDMARKCO":"203","LANDMARKNA":"縣立東興國小","LANDMARKAD":"1000611","ADDRESS":"台中市新社區東興村興社街一段國校巷13號","TEL":"04-25811467","COUNTYNAME":"台中市","TOWNNAME":"新社區","MARKTYPE":"992","Class":"2"},"geometry":{"x":120.81896649135493,"y":24.206551309170468}},{"attributes":{"OBJECTID":13261,"LANDMARKID":"1000600000422","LANDMARKCO":"203","LANDMARKNA":"縣立石岡國中","LANDMARKAD":"1000611","ADDRESS":"台中市石岡區梅子村國中巷1號","TEL":"04-25814190","COUNTYNAME":"台中市","TOWNNAME":"新社區","MARKTYPE":"992","Class":"2"},"geometry":{"x":120.79669064570261,"y":24.267290402763258}},{"attributes":{"OBJECTID":13262,"LANDMARKID":"1000600000423","LANDMARKCO":"203","LANDMARKNA":"縣立大林國小","LANDMARKAD":"1000611","ADDRESS":"台中市新社區福興村美林38號","TEL":"04-25941995","COUNTYNAME":"台中市","TOWNNAME":"新社區","MARKTYPE":"992","Class":"2"},"geometry":{"x":120.8637697429002,"y":24.159645011018309}},{"attributes":{"OBJECTID":13263,"LANDMARKID":"1000600001433","LANDMARKCO":"604","LANDMARKNA":"天籟園","LANDMARKAD":"1000611","ADDRESS":"台中市新社區永源村中和街一段6巷18號","TEL":"04-25821366","COUNTYNAME":"台中市","TOWNNAME":"新社區","MARKTYPE":"996","Class":"6"},"geometry":{"x":120.7905549961495,"y":24.218503375030316}},{"attributes":{"OBJECTID":13264,"LANDMARKID":"1000600001434","LANDMARKCO":"604","LANDMARKNA":"木佃軒","LANDMARKAD":"1000611","ADDRESS":"台中市新社區永源村中和街一段6巷9號","TEL":"04-25810777","COUNTYNAME":"台中市","TOWNNAME":"新社區","MARKTYPE":"996","Class":"6"},"geometry":{"x":120.79023282415888,"y":24.218605931325957}},{"attributes":{"OBJECTID":13265,"LANDMARKID":"1000600001435","LANDMARKCO":"604","LANDMARKNA":"芊芸居","LANDMARKAD":"1000611","ADDRESS":"台中市新社區永源村中和街一段山腳巷55-1號","TEL":"04-25820034","COUNTYNAME":"台中市","TOWNNAME":"新社區","MARKTYPE":"996","Class":"6"},"geometry":{"x":120.78901203657513,"y":24.220029244759555}},{"attributes":{"OBJECTID":13266,"LANDMARKID":"1000600001436","LANDMARKCO":"604","LANDMARKNA":"花田民宿","LANDMARKAD":"1000611","ADDRESS":"台中市新社區大南村興中街17-6號","TEL":"04-25823777","COUNTYNAME":"台中市","TOWNNAME":"新社區","MARKTYPE":"996","Class":"6"},"geometry":{"x":120.80490713056064,"y":24.224980787061561}},{"attributes":{"OBJECTID":13267,"LANDMARKID":"1000600001437","LANDMARKCO":"604","LANDMARKNA":"荷蘭風情民宿","LANDMARKAD":"1000611","ADDRESS":"台中市新社區協成村華豐街59號","TEL":"04-25825852","COUNTYNAME":"台中市","TOWNNAME":"新社區","MARKTYPE":"996","Class":"6"},"geometry":{"x":120.81570164430865,"y":24.203919320801379}},{"attributes":{"OBJECTID":13268,"LANDMARKID":"1000600001438","LANDMARKCO":"604","LANDMARKNA":"震川民宿","LANDMARKAD":"1000611","ADDRESS":"台中市新社區協成村協中街165號","TEL":"04-25820492","COUNTYNAME":"台中市","TOWNNAME":"新社區","MARKTYPE":"996","Class":"6"},"geometry":{"x":120.80847396423323,"y":24.191005495688007}},{"attributes":{"OBJECTID":13269,"LANDMARKID":"1000600001439","LANDMARKCO":"604","LANDMARKNA":"安石園民宿","LANDMARKAD":"1000611","ADDRESS":"台中市新社區崑山村崑南街95-6號","TEL":"04-25814302","COUNTYNAME":"台中市","TOWNNAME":"新社區","MARKTYPE":"996","Class":"6"},"geometry":{"x":120.78814034318437,"y":24.24899435831308}},{"attributes":{"OBJECTID":13270,"LANDMARKID":"1000600001440","LANDMARKCO":"604","LANDMARKNA":"日出映象民宿","LANDMARKAD":"1000611","ADDRESS":"台中市新社區永源村水井街1巷28號","TEL":"04-25821658","COUNTYNAME":"台中市","TOWNNAME":"新社區","MARKTYPE":"996","Class":"6"},"geometry":{"x":120.77496694187479,"y":24.21881897557105}},{"attributes":{"OBJECTID":13271,"LANDMARKID":"1000600001264","LANDMARKCO":"503","LANDMARKNA":"新社莊園","LANDMARKAD":"1000611","ADDRESS":"台中市新社區協中街65號","TEL":"04-25825628","COUNTYNAME":"台中市","TOWNNAME":"新社區","MARKTYPE":"995","Class":"5"},"geometry":{"x":120.81263541415997,"y":24.189309000995486}},{"attributes":{"OBJECTID":13272,"LANDMARKID":"1000600001265","LANDMARKCO":"504","LANDMARKNA":"薰衣草森林‧新社店","LANDMARKAD":"1000611","ADDRESS":"台中市新社區中興街20號","TEL":"04-25931066","COUNTYNAME":"台中市","TOWNNAME":"新社區","MARKTYPE":"995","Class":"5"},"geometry":{"x":120.84134338219499,"y":24.1285705378044}},{"attributes":{"OBJECTID":13273,"LANDMARKID":"1000600001083","LANDMARKCO":"405","LANDMARKNA":"中油加油站-國祥站","LANDMARKAD":"1000616","ADDRESS":"台中市大肚區沙田路一段158號","TEL":"04-26936989","COUNTYNAME":"台中市","TOWNNAME":"大肚區","MARKTYPE":"994","Class":"4"},"geometry":{"x":120.57460822247138,"y":24.11967970042604}},{"attributes":{"OBJECTID":13274,"LANDMARKID":"1000600001084","LANDMARKCO":"405","LANDMARKNA":"山隆加油站-大肚站(中油)","LANDMARKAD":"1000616","ADDRESS":"台中市大肚區沙田路三段247號","TEL":"(04)2699-7315","COUNTYNAME":"台中市","TOWNNAME":"大肚區","MARKTYPE":"994","Class":"4"},"geometry":{"x":120.54344390081505,"y":24.159709983340754}},{"attributes":{"OBJECTID":13275,"LANDMARKID":"1000600001085","LANDMARKCO":"405","LANDMARKNA":"中油加油站-山隆大肚","LANDMARKAD":"1000616","ADDRESS":"台中市大肚區頂街村沙田路三段247號","TEL":"04-26997315","COUNTYNAME":"台中市","TOWNNAME":"大肚區","MARKTYPE":"994","Class":"4"},"geometry":{"x":120.54346697099747,"y":24.159653942230253}},{"attributes":{"OBJECTID":13276,"LANDMARKID":"1000600001086","LANDMARKCO":"405","LANDMARKNA":"中油加油站-大肚站(中油直營)","LANDMARKAD":"1000616","ADDRESS":"台中市大肚區新興村沙田路二段222號","TEL":"04-26992502","COUNTYNAME":"台中市","TOWNNAME":"大肚區","MARKTYPE":"994","Class":"4"},"geometry":{"x":120.54977706562913,"y":24.140229721544259}},{"attributes":{"OBJECTID":13277,"LANDMARKID":"1000600001087","LANDMARKCO":"405","LANDMARKNA":"北基加油站-昆泰站(中油)","LANDMARKAD":"1000616","ADDRESS":"台中市大肚區中蔗路2-56號","TEL":"(04)2691-0620","COUNTYNAME":"台中市","TOWNNAME":"大肚區","MARKTYPE":"994","Class":"4"},"geometry":{"x":120.5823230221629,"y":24.168064020828741}},{"attributes":{"OBJECTID":13278,"LANDMARKID":"1000600001088","LANDMARKCO":"405","LANDMARKNA":"中油加油站-中田站","LANDMARKAD":"1000616","ADDRESS":"台中市大肚區社腳村沙田路一段935號","TEL":"04-26998987","COUNTYNAME":"台中市","TOWNNAME":"大肚區","MARKTYPE":"994","Class":"4"},"geometry":{"x":120.55374068915843,"y":24.132675714708942}},{"attributes":{"OBJECTID":13279,"LANDMARKID":"1000600001089","LANDMARKCO":"405","LANDMARKNA":"中油加油站-台鹽追分站","LANDMARKAD":"1000616","ADDRESS":"台中市大肚區王田村沙田路一段167號","TEL":"04-26935081","COUNTYNAME":"台中市","TOWNNAME":"大肚區","MARKTYPE":"994","Class":"4"},"geometry":{"x":120.57464731684323,"y":24.119264178422387}},{"attributes":{"OBJECTID":13280,"LANDMARKID":"1000600001302","LANDMARKCO":"507","LANDMARKNA":"磺溪書院","LANDMARKAD":"1000616","ADDRESS":"台中市大肚區磺溪村文昌路60號","TEL":" ","COUNTYNAME":"台中市","TOWNNAME":"大肚區","MARKTYPE":"995","Class":"5"},"geometry":{"x":120.5392295981047,"y":24.149877815350255}},{"attributes":{"OBJECTID":13281,"LANDMARKID":"1000600001182","LANDMARKCO":"408","LANDMARKNA":"郵局-大肚郵局","LANDMARKAD":"1000616","ADDRESS":"台中市大肚區沙田路2段666號","TEL":"(04)2699-7555","COUNTYNAME":"台中市","TOWNNAME":"大肚區","MARKTYPE":"994","Class":"4"},"geometry":{"x":120.54527016587539,"y":24.15164853604103}},{"attributes":{"OBJECTID":13282,"LANDMARKID":"1000600001183","LANDMARKCO":"408","LANDMARKNA":"郵局-大肚福山郵局","LANDMARKAD":"1000616","ADDRESS":"台中市大肚區沙田路1段564-5號","TEL":"(04)2693-1955","COUNTYNAME":"台中市","TOWNNAME":"大肚區","MARKTYPE":"994","Class":"4"},"geometry":{"x":120.56171493102697,"y":24.125313808124641}},{"attributes":{"OBJECTID":13283,"LANDMARKID":"1000600001184","LANDMARKCO":"408","LANDMARKNA":"郵局-大肚蔗郵局","LANDMARKAD":"1000616","ADDRESS":"台中市大肚區遊園路二段65、67號","TEL":"(04)2691-2475","COUNTYNAME":"台中市","TOWNNAME":"大肚區","MARKTYPE":"994","Class":"4"},"geometry":{"x":120.57958985082665,"y":24.170406079316596}},{"attributes":{"OBJECTID":13284,"LANDMARKID":"1000600001239","LANDMARKCO":"409","LANDMARKNA":"台中市大肚區農會","LANDMARKAD":"1000616","ADDRESS":"台中市大肚區大肚村沙田路二段683號","TEL":"04-26991161","COUNTYNAME":"台中市","TOWNNAME":"大肚區","MARKTYPE":"994","Class":"4"},"geometry":{"x":120.54485024220998,"y":24.152090481998979}},{"attributes":{"OBJECTID":13285,"LANDMARKID":"1000600001109","LANDMARKCO":"406","LANDMARKNA":"大肚區環保運動公園","LANDMARKAD":"1000616","ADDRESS":"台中市大肚區","TEL":" ","COUNTYNAME":"台中市","TOWNNAME":"大肚區","MARKTYPE":"994","Class":"4"},"geometry":{"x":120.55360440560676,"y":24.158242055258736}},{"attributes":{"OBJECTID":13286,"LANDMARKID":"1000600001102","LANDMARKCO":"405","LANDMARKNA":"全國加油站-大肚站（台塑）","LANDMARKAD":"1000616","ADDRESS":"台中市大肚區沙田路二段249號","TEL":"04-26991803","COUNTYNAME":"台中市","TOWNNAME":"大肚區","MARKTYPE":"994","Class":"4"},"geometry":{"x":120.54898556417571,"y":24.140723311832726}},{"attributes":{"OBJECTID":13287,"LANDMARKID":"1000600000261","LANDMARKCO":"108","LANDMARKNA":"台中市大肚區公所","LANDMARKAD":"1000616","ADDRESS":"台中市大肚區頂街村大德六街30號","TEL":"04-26991105","COUNTYNAME":"台中市","TOWNNAME":"大肚區","MARKTYPE":"991","Class":"1"},"geometry":{"x":120.54540310286667,"y":24.15135424128308}},{"attributes":{"OBJECTID":13288,"LANDMARKID":"1000600000037","LANDMARKCO":"103","LANDMARKNA":"台中市大肚區公所垃圾處理場","LANDMARKAD":"1000616","ADDRESS":"台中市大肚區華山路388號","TEL":"04-26997046","COUNTYNAME":"台中市","TOWNNAME":"大肚區","MARKTYPE":"991","Class":"1"},"geometry":{"x":120.55252708900761,"y":24.158556184995014}},{"attributes":{"OBJECTID":13289,"LANDMARKID":"1000600000038","LANDMARKCO":"103","LANDMARKNA":"台中市大肚區衛生所","LANDMARKAD":"1000616","ADDRESS":"台中市大肚區榮華街1號","TEL":"04-26992111","COUNTYNAME":"台中市","TOWNNAME":"大肚區","MARKTYPE":"991","Class":"1"},"geometry":{"x":120.54477981119403,"y":24.155090434236634}},{"attributes":{"OBJECTID":13290,"LANDMARKID":"1000600000024","LANDMARKCO":"101","LANDMARKNA":"台中區監理所","LANDMARKAD":"1000616","ADDRESS":"台中市大肚區遊園路一段2號","TEL":"04-26912011","COUNTYNAME":"台中市","TOWNNAME":"大肚區","MARKTYPE":"991","Class":"1"},"geometry":{"x":120.57236562143972,"y":24.155583150284805}},{"attributes":{"OBJECTID":13291,"LANDMARKID":"1000600000035","LANDMARKCO":"103","LANDMARKNA":"台中市大肚區鄉民代表會","LANDMARKAD":"1000616","ADDRESS":"台中市大肚區沙田路二段646號","TEL":"04-26992049","COUNTYNAME":"台中市","TOWNNAME":"大肚區","MARKTYPE":"991","Class":"1"},"geometry":{"x":120.54542406121388,"y":24.151173780019878}},{"attributes":{"OBJECTID":13292,"LANDMARKID":"1000600000151","LANDMARKCO":"107","LANDMARKNA":"台中市警察局追分派出所","LANDMARKAD":"1000616","ADDRESS":"台中市大肚區王田村沙田路一段209號","TEL":"04-26932108","COUNTYNAME":"台中市","TOWNNAME":"大肚區","MARKTYPE":"991","Class":"1"},"geometry":{"x":120.5701108498376,"y":24.121538057352204}},{"attributes":{"OBJECTID":13293,"LANDMARKID":"1000600000152","LANDMARKCO":"107","LANDMARKNA":"台中市警察局大肚分駐所","LANDMARKAD":"1000616","ADDRESS":"台中市大肚區頂街村沙田路三段38號","TEL":"04-26992167","COUNTYNAME":"台中市","TOWNNAME":"大肚區","MARKTYPE":"991","Class":"1"},"geometry":{"x":120.54426426975922,"y":24.155148043894798}},{"attributes":{"OBJECTID":13294,"LANDMARKID":"1000600000115","LANDMARKCO":"106","LANDMARKNA":"台中市大肚區戶政事務所","LANDMARKAD":"1000616","ADDRESS":"台中市大肚區頂街村14鄰沙田路三段38之1號","TEL":"04-26997881","COUNTYNAME":"台中市","TOWNNAME":"大肚區","MARKTYPE":"991","Class":"1"},"geometry":{"x":120.54423538917301,"y":24.155057578014517}},{"attributes":{"OBJECTID":13295,"LANDMARKID":"1000600000154","LANDMARKCO":"107","LANDMARKNA":"台中市消防局大肚分隊","LANDMARKAD":"1000616","ADDRESS":"台中市大肚區沙田路三段40號","TEL":"04-26992064","COUNTYNAME":"台中市","TOWNNAME":"大肚區","MARKTYPE":"991","Class":"1"},"geometry":{"x":120.54424330805448,"y":24.15532850486813}},{"attributes":{"OBJECTID":13296,"LANDMARKID":"1000600000544","LANDMARKCO":"204","LANDMARKNA":"台中市立圖書館大肚分館","LANDMARKAD":"1000616","ADDRESS":"台中市大肚區頂街村華山路151號","TEL":" ","COUNTYNAME":"台中市","TOWNNAME":"大肚區","MARKTYPE":"992","Class":"2"},"geometry":{"x":120.54752934619161,"y":24.155344439337814}},{"attributes":{"OBJECTID":13297,"LANDMARKID":"1000600000439","LANDMARKCO":"203","LANDMARKNA":"縣立瑞井國小","LANDMARKAD":"1000616","ADDRESS":"台中市大肚區華山路680號","TEL":"04-26912550","COUNTYNAME":"台中市","TOWNNAME":"大肚區","MARKTYPE":"992","Class":"2"},"geometry":{"x":120.56849023353502,"y":24.159640167960188}},{"attributes":{"OBJECTID":13298,"LANDMARKID":"1000600000440","LANDMARKCO":"203","LANDMARKNA":"縣立瑞峰國小","LANDMARKAD":"1000616","ADDRESS":"台中市大肚區太平路1號","TEL":"04-26911291","COUNTYNAME":"台中市","TOWNNAME":"大肚區","MARKTYPE":"992","Class":"2"},"geometry":{"x":120.57337529621067,"y":24.169132655642443}},{"attributes":{"OBJECTID":13299,"LANDMARKID":"1000600000441","LANDMARKCO":"203","LANDMARKNA":"縣立大道國中","LANDMARKAD":"1000616","ADDRESS":"台中市大肚區仁德路60號","TEL":"04-26992028","COUNTYNAME":"台中市","TOWNNAME":"大肚區","MARKTYPE":"992","Class":"2"},"geometry":{"x":120.54983009532027,"y":24.14702638104281}},{"attributes":{"OBJECTID":13300,"LANDMARKID":"1000600000442","LANDMARKCO":"203","LANDMARKNA":"縣立大肚國小","LANDMARKAD":"1000616","ADDRESS":"台中市大肚區頂街村華山路77號","TEL":"04-26992016","COUNTYNAME":"台中市","TOWNNAME":"大肚區","MARKTYPE":"992","Class":"2"},"geometry":{"x":120.54631702802811,"y":24.154589163746152}},{"attributes":{"OBJECTID":13301,"LANDMARKID":"1000600000443","LANDMARKCO":"203","LANDMARKNA":"縣立山陽國小","LANDMARKAD":"1000616","ADDRESS":"台中市大肚區榮華街630號","TEL":"04-26983117","COUNTYNAME":"台中市","TOWNNAME":"大肚區","MARKTYPE":"992","Class":"2"},"geometry":{"x":120.54466004386668,"y":24.163476942610551}},{"attributes":{"OBJECTID":13302,"LANDMARKID":"1000600000444","LANDMARKCO":"203","LANDMARKNA":"縣立大忠國小","LANDMARKAD":"1000616","ADDRESS":"台中市大肚區沙田路一段854巷24號","TEL":"04-26993693","COUNTYNAME":"台中市","TOWNNAME":"大肚區","MARKTYPE":"992","Class":"2"},"geometry":{"x":120.5564344219419,"y":24.134411447309276}},{"attributes":{"OBJECTID":13303,"LANDMARKID":"1000600000445","LANDMARKCO":"203","LANDMARKNA":"縣立永順國小","LANDMARKAD":"1000616","ADDRESS":"台中市大肚區永順村文昌路2段586號","TEL":"04-26992461","COUNTYNAME":"台中市","TOWNNAME":"大肚區","MARKTYPE":"992","Class":"2"},"geometry":{"x":120.53306113781018,"y":24.158545152512982}},{"attributes":{"OBJECTID":13304,"LANDMARKID":"1000600000446","LANDMARKCO":"203","LANDMARKNA":"縣立追分國小","LANDMARKAD":"1000616","ADDRESS":"台中市大肚區沙田路一段364號","TEL":"04-26932604","COUNTYNAME":"台中市","TOWNNAME":"大肚區","MARKTYPE":"992","Class":"2"},"geometry":{"x":120.56861995041024,"y":24.122259827755808}},{"attributes":{"OBJECTID":13305,"LANDMARKID":"1000600000754","LANDMARKCO":"308","LANDMARKNA":"國1-王田交流道-西行","LANDMARKAD":"1000616","ADDRESS":"台中市大肚區","TEL":" ","COUNTYNAME":"台中市","TOWNNAME":"大肚區","MARKTYPE":"993","Class":"308"},"geometry":{"x":120.5757221344513,"y":24.118527266371146}},{"attributes":{"OBJECTID":13306,"LANDMARKID":"1000600000586","LANDMARKCO":"301","LANDMARKNA":"大肚火車站","LANDMARKAD":"1000616","ADDRESS":"台中市大肚區平和街121號","TEL":"04-26992523","COUNTYNAME":"台中市","TOWNNAME":"大肚區","MARKTYPE":"993","Class":"301"},"geometry":{"x":120.54230433804319,"y":24.15401675622488}},{"attributes":{"OBJECTID":13307,"LANDMARKID":"1000600000587","LANDMARKCO":"301","LANDMARKNA":"追分火車站","LANDMARKAD":"1000616","ADDRESS":"台中市大肚區王田村追分街13號","TEL":"04-26933106","COUNTYNAME":"台中市","TOWNNAME":"大肚區","MARKTYPE":"993","Class":"301"},"geometry":{"x":120.56996173478638,"y":24.120452447286738}},{"attributes":{"OBJECTID":13308,"LANDMARKID":"1000600000882","LANDMARKCO":"402","LANDMARKNA":"中華電信-大肚服務中心","LANDMARKAD":"1000616","ADDRESS":"台中市大肚區榮華街3號","TEL":"123或0800-080-123","COUNTYNAME":"台中市","TOWNNAME":"大肚區","MARKTYPE":"994","Class":"4"},"geometry":{"x":120.544646919778,"y":24.155304538215034}},{"attributes":{"OBJECTID":13309,"LANDMARKID":"1000600001090","LANDMARKCO":"405","LANDMARKNA":"中油加油站-太平長億路站(中油直營)","LANDMARKAD":"1000619","ADDRESS":"台中市太平區太平路137號","TEL":"04-22709613","COUNTYNAME":"台中市","TOWNNAME":"太平區","MARKTYPE":"994","Class":"4"},"geometry":{"x":120.72116788027431,"y":24.119961210857095}},{"attributes":{"OBJECTID":13310,"LANDMARKID":"1000600001091","LANDMARKCO":"405","LANDMARKNA":"中油加油站-新平站","LANDMARKAD":"1000619","ADDRESS":"台中市太平區東平路828號","TEL":"04-22758731","COUNTYNAME":"台中市","TOWNNAME":"太平區","MARKTYPE":"994","Class":"4"},"geometry":{"x":120.71586730494066,"y":24.13364774990233}},{"attributes":{"OBJECTID":13311,"LANDMARKID":"1000600001092","LANDMARKCO":"405","LANDMARKNA":"中油加油站-勁強站","LANDMARKAD":"1000619","ADDRESS":"台中市太平區永豐路300號","TEL":"04-22737591","COUNTYNAME":"台中市","TOWNNAME":"太平區","MARKTYPE":"994","Class":"4"},"geometry":{"x":120.70380430529111,"y":24.115137666723605}},{"attributes":{"OBJECTID":13312,"LANDMARKID":"1000600001093","LANDMARKCO":"405","LANDMARKNA":"中油加油站-東平站","LANDMARKAD":"1000619","ADDRESS":"台中市太平區東平路85號","TEL":"04-22753528","COUNTYNAME":"台中市","TOWNNAME":"太平區","MARKTYPE":"994","Class":"4"},"geometry":{"x":120.73394291093611,"y":24.13430094726235}},{"attributes":{"OBJECTID":13313,"LANDMARKID":"1000600001094","LANDMARKCO":"405","LANDMARKNA":"中油加油站-金旺站","LANDMARKAD":"1000619","ADDRESS":"台中市太平區東平里中山路一段116號","TEL":"04-22753778","COUNTYNAME":"台中市","TOWNNAME":"太平區","MARKTYPE":"994","Class":"4"},"geometry":{"x":120.7325789212119,"y":24.137716807170147}},{"attributes":{"OBJECTID":13314,"LANDMARKID":"1000600001095","LANDMARKCO":"405","LANDMARKNA":"中油加油站-車籠埔","LANDMARKAD":"1000619","ADDRESS":"台中市太平區興隆里光興路835號","TEL":"04-22708233","COUNTYNAME":"台中市","TOWNNAME":"太平區","MARKTYPE":"994","Class":"4"},"geometry":{"x":120.73072772784846,"y":24.112465879239686}},{"attributes":{"OBJECTID":13315,"LANDMARKID":"1000600001096","LANDMARKCO":"405","LANDMARKNA":"中油加油站-太平站(中油直營)","LANDMARKAD":"1000619","ADDRESS":"台中市太平區太平里太平路651號","TEL":"04-22787508","COUNTYNAME":"台中市","TOWNNAME":"太平區","MARKTYPE":"994","Class":"4"},"geometry":{"x":120.7106390305976,"y":24.126764441244369}},{"attributes":{"OBJECTID":13316,"LANDMARKID":"1000600001097","LANDMARKCO":"405","LANDMARKNA":"中油加油站-樹德站","LANDMARKAD":"1000619","ADDRESS":"台中市太平區樹德路255號","TEL":"04-23955685","COUNTYNAME":"台中市","TOWNNAME":"太平區","MARKTYPE":"994","Class":"4"},"geometry":{"x":120.71234934933968,"y":24.157454999802457}},{"attributes":{"OBJECTID":13317,"LANDMARKID":"1000600001098","LANDMARKCO":"405","LANDMARKNA":"中油加油站-新益站","LANDMARKAD":"1000619","ADDRESS":"台中市太平區東平里東平路198號","TEL":"04-22781722","COUNTYNAME":"台中市","TOWNNAME":"太平區","MARKTYPE":"994","Class":"4"},"geometry":{"x":120.73076289554749,"y":24.135071968861084}},{"attributes":{"OBJECTID":13318,"LANDMARKID":"1000600001099","LANDMARKCO":"405","LANDMARKNA":"中油加油站-台灣優力永豐路","LANDMARKAD":"1000619","ADDRESS":"台中市太平區永豐路223號","TEL":"04-22794025","COUNTYNAME":"台中市","TOWNNAME":"太平區","MARKTYPE":"994","Class":"4"},"geometry":{"x":120.70737417059709,"y":24.119230550146792}},{"attributes":{"OBJECTID":13319,"LANDMARKID":"1000600001100","LANDMARKCO":"405","LANDMARKNA":"中油加油站-德隆站","LANDMARKAD":"1000619","ADDRESS":"台中市太平區光隆里光德路500號","TEL":"04-22705629","COUNTYNAME":"台中市","TOWNNAME":"太平區","MARKTYPE":"994","Class":"4"},"geometry":{"x":120.72535324744905,"y":24.109079493000248}},{"attributes":{"OBJECTID":13320,"LANDMARKID":"1000600001101","LANDMARKCO":"405","LANDMARKNA":"中油加油站-坪林站","LANDMARKAD":"1000619","ADDRESS":"台中市太平區中山路二段229號","TEL":"04-23930205","COUNTYNAME":"台中市","TOWNNAME":"太平區","MARKTYPE":"994","Class":"4"},"geometry":{"x":120.73139374949561,"y":24.150119533764574}},{"attributes":{"OBJECTID":13321,"LANDMARKID":"1000600000877","LANDMARKCO":"402","LANDMARKNA":"My Phone台灣大哥大-台中太平直營服務中心","LANDMARKAD":"1000619","ADDRESS":"台中市太平區樹孝路69號","TEL":"0809-000-166","COUNTYNAME":"台中市","TOWNNAME":"太平區","MARKTYPE":"994","Class":"4"},"geometry":{"x":120.71670268205253,"y":24.151548831231754}},{"attributes":{"OBJECTID":13322,"LANDMARKID":"1000600000878","LANDMARKCO":"402","LANDMARKNA":"亞太行動寬頻電信-台中太平加盟服務中心","LANDMARKAD":"1000619","ADDRESS":"台中市太平區新福里中山路四段161號","TEL":"04-23959509","COUNTYNAME":"台中市","TOWNNAME":"太平區","MARKTYPE":"994","Class":"4"},"geometry":{"x":120.73411943741387,"y":24.149427408864053}},{"attributes":{"OBJECTID":13323,"LANDMARKID":"1000600000879","LANDMARKCO":"402","LANDMARKNA":"亞太行動寬頻電信-太平中興加盟服務中心","LANDMARKAD":"1000619","ADDRESS":"台中市太平區太平路626號","TEL":"04-23515158","COUNTYNAME":"台中市","TOWNNAME":"太平區","MARKTYPE":"994","Class":"4"},"geometry":{"x":120.71218375402181,"y":24.126350480278447}},{"attributes":{"OBJECTID":13324,"LANDMARKID":"1000600000880","LANDMARKCO":"402","LANDMARKNA":"亞太行動寬頻電信-太平中山加盟服務中心","LANDMARKAD":"1000619","ADDRESS":"台中市太平區中山路3段198號","TEL":"04-22752435","COUNTYNAME":"台中市","TOWNNAME":"太平區","MARKTYPE":"994","Class":"4"},"geometry":{"x":120.70245374881038,"y":24.148194840771435}},{"attributes":{"OBJECTID":13325,"LANDMARKID":"1000600000881","LANDMARKCO":"402","LANDMARKNA":"亞太行動寬頻電信-太平東平加盟服務中心","LANDMARKAD":"1000619","ADDRESS":"台中市太平區東平路610號","TEL":"04-23511569","COUNTYNAME":"台中市","TOWNNAME":"太平區","MARKTYPE":"994","Class":"4"},"geometry":{"x":120.72102395097211,"y":24.133844052804331}},{"attributes":{"OBJECTID":13326,"LANDMARKID":"1000600000755","LANDMARKCO":"401","LANDMARKNA":"太平澄清醫院","LANDMARKAD":"1000619","ADDRESS":"台中市太平區中興路92號","TEL":"04-22789900","COUNTYNAME":"台中市","TOWNNAME":"太平區","MARKTYPE":"994","Class":"4"},"geometry":{"x":120.71556360644719,"y":24.127387265449748}},{"attributes":{"OBJECTID":13327,"LANDMARKID":"1000600000756","LANDMARKCO":"401","LANDMARKNA":"國軍台中總醫院附設民眾診療服務處","LANDMARKAD":"1000619","ADDRESS":"台中市太平區中山路二段348號","TEL":"04-23934191","COUNTYNAME":"台中市","TOWNNAME":"太平區","MARKTYPE":"994","Class":"4"},"geometry":{"x":120.72978527847613,"y":24.150438356291136}},{"attributes":{"OBJECTID":13328,"LANDMARKID":"1000600000757","LANDMARKCO":"401","LANDMARKNA":"賢德醫院","LANDMARKAD":"1000619","ADDRESS":"台中市太平區宜欣里宜昌路420號","TEL":"04-22732551","COUNTYNAME":"台中市","TOWNNAME":"太平區","MARKTYPE":"994","Class":"4"},"geometry":{"x":120.71420999584483,"y":24.145034568135589}},{"attributes":{"OBJECTID":13329,"LANDMARKID":"1000600001303","LANDMARKCO":"507","LANDMARKNA":"吳鸞旂墓園","LANDMARKAD":"1000619","ADDRESS":"台中市太平區車籠埔小段10地號","TEL":" ","COUNTYNAME":"台中市","TOWNNAME":"太平區","MARKTYPE":"995","Class":"5"},"geometry":{"x":120.73681748385989,"y":24.122879315561892}},{"attributes":{"OBJECTID":13330,"LANDMARKID":"1000600001185","LANDMARKCO":"408","LANDMARKNA":"郵局-太平長億郵局","LANDMARKAD":"1000619","ADDRESS":"台中市太平區長億一街53號","TEL":"(04)2270-2910","COUNTYNAME":"台中市","TOWNNAME":"太平區","MARKTYPE":"994","Class":"4"},"geometry":{"x":120.71978510221554,"y":24.11992531353123}},{"attributes":{"OBJECTID":13331,"LANDMARKID":"1000600001186","LANDMARKCO":"408","LANDMARKNA":"郵局-太平竹仔坑郵局","LANDMARKAD":"1000619","ADDRESS":"台中市太平區光興路517號","TEL":"(04)2271-0932","COUNTYNAME":"台中市","TOWNNAME":"太平區","MARKTYPE":"994","Class":"4"},"geometry":{"x":120.72887280509855,"y":24.105189038105948}},{"attributes":{"OBJECTID":13332,"LANDMARKID":"1000600001187","LANDMARKCO":"408","LANDMARKNA":"郵局-太平郵局","LANDMARKAD":"1000619","ADDRESS":"台中市太平區中興東路25號","TEL":"(04)2279-0919","COUNTYNAME":"台中市","TOWNNAME":"太平區","MARKTYPE":"994","Class":"4"},"geometry":{"x":120.71961130224588,"y":24.130109799285762}},{"attributes":{"OBJECTID":13333,"LANDMARKID":"1000600001188","LANDMARKCO":"408","LANDMARKNA":"郵局-太平永豐路郵局","LANDMARKAD":"1000619","ADDRESS":"台中市太平區永豐路338號","TEL":"(04)2278-2575","COUNTYNAME":"台中市","TOWNNAME":"太平區","MARKTYPE":"994","Class":"4"},"geometry":{"x":120.70354787463768,"y":24.113891010855916}},{"attributes":{"OBJECTID":13334,"LANDMARKID":"1000600001189","LANDMARKCO":"408","LANDMARKNA":"郵局-太平坪林郵局","LANDMARKAD":"1000619","ADDRESS":"台中市太平區中山路1段325號","TEL":"(04)2392-2841","COUNTYNAME":"台中市","TOWNNAME":"太平區","MARKTYPE":"994","Class":"4"},"geometry":{"x":120.7341826971703,"y":24.145074554882939}},{"attributes":{"OBJECTID":13335,"LANDMARKID":"1000600001190","LANDMARKCO":"408","LANDMARKNA":"郵局-太平宜欣郵局","LANDMARKAD":"1000619","ADDRESS":"台中市太平區中山路4段27號","TEL":"(04)2398-0539","COUNTYNAME":"台中市","TOWNNAME":"太平區","MARKTYPE":"994","Class":"4"},"geometry":{"x":120.71255938245049,"y":24.149733808405319}},{"attributes":{"OBJECTID":13336,"LANDMARKID":"1000600001238","LANDMARKCO":"409","LANDMARKNA":"太平區農會","LANDMARKAD":"1000619","ADDRESS":"台中市太平區太平路483號","TEL":"04-2278114","COUNTYNAME":"台中市","TOWNNAME":"太平區","MARKTYPE":"994","Class":"4"},"geometry":{"x":120.71468523818938,"y":24.12439530793608}},{"attributes":{"OBJECTID":13337,"LANDMARKID":"1000600001105","LANDMARKCO":"406","LANDMARKNA":"立德公園","LANDMARKAD":"1000619","ADDRESS":"台中市太平區","TEL":" ","COUNTYNAME":"台中市","TOWNNAME":"太平區","MARKTYPE":"994","Class":"4"},"geometry":{"x":120.71363220666413,"y":24.152578203194693}},{"attributes":{"OBJECTID":13338,"LANDMARKID":"1000600001106","LANDMARKCO":"406","LANDMARKNA":"太平運動公園","LANDMARKAD":"1000619","ADDRESS":"台中市太平區","TEL":" ","COUNTYNAME":"台中市","TOWNNAME":"太平區","MARKTYPE":"994","Class":"4"},"geometry":{"x":120.72481711671826,"y":24.146418422576609}},{"attributes":{"OBJECTID":13339,"LANDMARKID":"1000600001107","LANDMARKCO":"406","LANDMARKNA":"福平公園","LANDMARKAD":"1000619","ADDRESS":"台中市太平區","TEL":" ","COUNTYNAME":"台中市","TOWNNAME":"太平區","MARKTYPE":"994","Class":"4"},"geometry":{"x":120.72433766323037,"y":24.126336794603716}},{"attributes":{"OBJECTID":13340,"LANDMARKID":"1000600001108","LANDMARKCO":"406","LANDMARKNA":"宜樂公園","LANDMARKAD":"1000619","ADDRESS":"台中市太平區","TEL":" ","COUNTYNAME":"台中市","TOWNNAME":"太平區","MARKTYPE":"994","Class":"4"},"geometry":{"x":120.71278294190458,"y":24.144050754305628}},{"attributes":{"OBJECTID":13341,"LANDMARKID":"1000600001103","LANDMARKCO":"405","LANDMARKNA":"全國加油站-太平站（台塑）","LANDMARKAD":"1000619","ADDRESS":"台中市太平區中山路四段20號","TEL":"04-23957332","COUNTYNAME":"台中市","TOWNNAME":"太平區","MARKTYPE":"994","Class":"4"},"geometry":{"x":120.71311891702408,"y":24.14994687968931}},{"attributes":{"OBJECTID":13342,"LANDMARKID":"1000600001104","LANDMARKCO":"405","LANDMARKNA":"台亞加油站-宜欣站（台塑）","LANDMARKAD":"1000619","ADDRESS":"台中市太平區樹孝路6號","TEL":"(04)2391-1834","COUNTYNAME":"台中市","TOWNNAME":"太平區","MARKTYPE":"994","Class":"4"},"geometry":{"x":120.7165113522336,"y":24.149656731809696}},{"attributes":{"OBJECTID":13343,"LANDMARKID":"1000600000265","LANDMARKCO":"108","LANDMARKNA":"台中市太平區公所","LANDMARKAD":"1000619","ADDRESS":"台中市太平區中平路144號","TEL":"04-22794157","COUNTYNAME":"台中市","TOWNNAME":"太平區","MARKTYPE":"991","Class":"1"},"geometry":{"x":120.71836170938751,"y":24.126489554276667}},{"attributes":{"OBJECTID":13344,"LANDMARKID":"1000600000039","LANDMARKCO":"103","LANDMARKNA":"台中市太平區市民代表會","LANDMARKAD":"1000619","ADDRESS":"台中市太平區中平路144號","TEL":"04-22796003","COUNTYNAME":"台中市","TOWNNAME":"太平區","MARKTYPE":"991","Class":"1"},"geometry":{"x":120.71836170938751,"y":24.126489554276667}},{"attributes":{"OBJECTID":13345,"LANDMARKID":"1000600000040","LANDMARKCO":"103","LANDMARKNA":"台中市太平區體育會","LANDMARKAD":"1000619","ADDRESS":"台中市太平區中興東路99號","TEL":"04-22760991","COUNTYNAME":"台中市","TOWNNAME":"太平區","MARKTYPE":"991","Class":"1"},"geometry":{"x":120.72134506168275,"y":24.131010044311974}},{"attributes":{"OBJECTID":13346,"LANDMARKID":"1000600000159","LANDMARKCO":"107","LANDMARKNA":"台中市警察局宏龍派出所","LANDMARKAD":"1000619","ADDRESS":"台中市太平區光隆里光興路900號","TEL":"04-22702700","COUNTYNAME":"台中市","TOWNNAME":"太平區","MARKTYPE":"991","Class":"1"},"geometry":{"x":120.73049538567439,"y":24.110440849695649}},{"attributes":{"OBJECTID":13347,"LANDMARKID":"1000600000160","LANDMARKCO":"107","LANDMARKNA":"台中市警察局太平分駐所","LANDMARKAD":"1000619","ADDRESS":"台中市太平區中興東路21號","TEL":"04-22780418","COUNTYNAME":"台中市","TOWNNAME":"太平區","MARKTYPE":"991","Class":"1"},"geometry":{"x":120.71933496272516,"y":24.129901541617354}},{"attributes":{"OBJECTID":13348,"LANDMARKID":"1000600000094","LANDMARKCO":"105","LANDMARKNA":"台中市太平地政事務所","LANDMARKAD":"1000619","ADDRESS":"臺中縣太平區大源路1-19號","TEL":"04-23933800","COUNTYNAME":"台中市","TOWNNAME":"太平區","MARKTYPE":"991","Class":"1"},"geometry":{"x":120.72638276288504,"y":24.146863403799379}},{"attributes":{"OBJECTID":13349,"LANDMARKID":"1000600000155","LANDMARKCO":"107","LANDMARKNA":"台中市消防局太平分隊","LANDMARKAD":"1000619","ADDRESS":"台中市太平區中興東路46號","TEL":"04-22782282","COUNTYNAME":"台中市","TOWNNAME":"太平區","MARKTYPE":"991","Class":"1"},"geometry":{"x":120.71974900894196,"y":24.129237885193564}},{"attributes":{"OBJECTID":13350,"LANDMARKID":"1000600000156","LANDMARKCO":"107","LANDMARKNA":"台中市警察局坪林派出所","LANDMARKAD":"1000619","ADDRESS":"臺中縣太平區中山路1段215號","TEL":"04-23937396","COUNTYNAME":"台中市","TOWNNAME":"太平區","MARKTYPE":"991","Class":"1"},"geometry":{"x":120.7346159236742,"y":24.149271727748733}},{"attributes":{"OBJECTID":13351,"LANDMARKID":"1000600000157","LANDMARKCO":"107","LANDMARKNA":"台中市警察局頭汴派出所","LANDMARKAD":"1000619","ADDRESS":"台中市太平區長龍路2段11巷2號","TEL":"04-22704962","COUNTYNAME":"台中市","TOWNNAME":"太平區","MARKTYPE":"991","Class":"1"},"geometry":{"x":120.7570210445415,"y":24.118699593002496}},{"attributes":{"OBJECTID":13352,"LANDMARKID":"1000600000158","LANDMARKCO":"107","LANDMARKNA":"台中市警察局新平派出所","LANDMARKAD":"1000619","ADDRESS":"台中市太平區新平路三段72號","TEL":"04-23912446","COUNTYNAME":"台中市","TOWNNAME":"太平區","MARKTYPE":"991","Class":"1"},"geometry":{"x":120.72045679662207,"y":24.15041988070147}},{"attributes":{"OBJECTID":13353,"LANDMARKID":"1000600000041","LANDMARKCO":"103","LANDMARKNA":"台中市太平區衛生所","LANDMARKAD":"1000619","ADDRESS":"台中市太平區勤益里中山路1段213之1號","TEL":"04-23938083","COUNTYNAME":"台中市","TOWNNAME":"太平區","MARKTYPE":"991","Class":"1"},"geometry":{"x":120.71825427808054,"y":24.126308570367829}},{"attributes":{"OBJECTID":13354,"LANDMARKID":"1000600000568","LANDMARKCO":"205","LANDMARKNA":"古農莊民俗中心","LANDMARKAD":"1000619","ADDRESS":"台中市太平區光興路1378巷38號","TEL":"04-22705419","COUNTYNAME":"台中市","TOWNNAME":"太平區","MARKTYPE":"992","Class":"2"},"geometry":{"x":120.7341637612293,"y":24.117564831343064}},{"attributes":{"OBJECTID":13355,"LANDMARKID":"1000600000569","LANDMARKCO":"205","LANDMARKNA":"明梨園北管曲藝館","LANDMARKAD":"1000619","ADDRESS":"台中市太平區興隆里新坪80號","TEL":"04-22731193","COUNTYNAME":"台中市","TOWNNAME":"太平區","MARKTYPE":"992","Class":"2"},"geometry":{"x":120.73471875701772,"y":24.115796732782385}},{"attributes":{"OBJECTID":13356,"LANDMARKID":"1000600000542","LANDMARKCO":"204","LANDMARKNA":"台中市立圖書館太平分館","LANDMARKAD":"1000619","ADDRESS":"台中市太平區太平二街2之1號","TEL":" ","COUNTYNAME":"台中市","TOWNNAME":"太平區","MARKTYPE":"992","Class":"2"},"geometry":{"x":120.72173486859168,"y":24.119210271908308}},{"attributes":{"OBJECTID":13357,"LANDMARKID":"1000600000458","LANDMARKCO":"203","LANDMARKNA":"縣立光隆國小","LANDMARKAD":"1000619","ADDRESS":"台中市太平區光隆村光興路487巷5號","TEL":"04-22713625","COUNTYNAME":"台中市","TOWNNAME":"太平區","MARKTYPE":"992","Class":"2"},"geometry":{"x":120.7275531884746,"y":24.103211874167716}},{"attributes":{"OBJECTID":13358,"LANDMARKID":"1000600000459","LANDMARKCO":"203","LANDMARKNA":"縣立東平國小","LANDMARKAD":"1000619","ADDRESS":"台中市太平區中興東路213號","TEL":"04-22767834","COUNTYNAME":"台中市","TOWNNAME":"太平區","MARKTYPE":"992","Class":"2"},"geometry":{"x":120.72326528851507,"y":24.132908121751026}},{"attributes":{"OBJECTID":13359,"LANDMARKID":"1000600000460","LANDMARKCO":"203","LANDMARKNA":"縣立東汴國小","LANDMARKAD":"1000619","ADDRESS":"台中市太平區東汴里山田路100號","TEL":"04-22702664","COUNTYNAME":"台中市","TOWNNAME":"太平區","MARKTYPE":"992","Class":"2"},"geometry":{"x":120.79591437243897,"y":24.117492015181778}},{"attributes":{"OBJECTID":13360,"LANDMARKID":"1000600000461","LANDMARKCO":"203","LANDMARKNA":"縣立頭汴國小","LANDMARKAD":"1000619","ADDRESS":"台中市太平區頭汴里北田路20號","TEL":"04-22703129#82","COUNTYNAME":"台中市","TOWNNAME":"太平區","MARKTYPE":"992","Class":"2"},"geometry":{"x":120.75209644377324,"y":24.1229365645634}},{"attributes":{"OBJECTID":13361,"LANDMARKID":"1000600000462","LANDMARKCO":"203","LANDMARKNA":"縣立長億國小","LANDMARKAD":"1000619","ADDRESS":"台中市太平區長億六街一號","TEL":"04-22737653","COUNTYNAME":"台中市","TOWNNAME":"太平區","MARKTYPE":"992","Class":"2"},"geometry":{"x":120.72102702393923,"y":24.11295016232917}},{"attributes":{"OBJECTID":13362,"LANDMARKID":"1000600000463","LANDMARKCO":"203","LANDMARKNA":"縣立中華國小","LANDMARKAD":"1000619","ADDRESS":"台中市太平區大源路1之20號","TEL":"04-23920870","COUNTYNAME":"台中市","TOWNNAME":"太平區","MARKTYPE":"992","Class":"2"},"geometry":{"x":120.72606032744974,"y":24.147992171351397}},{"attributes":{"OBJECTID":13363,"LANDMARKID":"1000600000464","LANDMARKCO":"203","LANDMARKNA":"縣立車籠埔國小","LANDMARKAD":"1000619","ADDRESS":"台中市太平區光明路10-2號","TEL":"04-22763928","COUNTYNAME":"台中市","TOWNNAME":"太平區","MARKTYPE":"992","Class":"2"},"geometry":{"x":120.73298758180076,"y":24.109632028707633}},{"attributes":{"OBJECTID":13364,"LANDMARKID":"1000600000295","LANDMARKCO":"202","LANDMARKNA":"縣立長億高中","LANDMARKAD":"1000619","ADDRESS":"台中市太平區長億村長億六街1號","TEL":"04-22799267","COUNTYNAME":"台中市","TOWNNAME":"太平區","MARKTYPE":"992","Class":"2"},"geometry":{"x":120.72062728559293,"y":24.114098585739388}},{"attributes":{"OBJECTID":13365,"LANDMARKID":"1000600000296","LANDMARKCO":"202","LANDMARKNA":"私立慈明高中","LANDMARKAD":"1000619","ADDRESS":"台中市太平區光德路388號","TEL":"04-22713911","COUNTYNAME":"台中市","TOWNNAME":"太平區","MARKTYPE":"992","Class":"2"},"geometry":{"x":120.72448655340335,"y":24.10650018631004}},{"attributes":{"OBJECTID":13366,"LANDMARKID":"1000600000297","LANDMARKCO":"202","LANDMARKNA":"縣立長億高中附設國中部","LANDMARKAD":"1000619","ADDRESS":"台中市太平區長億里長億六街1號","TEL":"04-22799267","COUNTYNAME":"台中市","TOWNNAME":"太平區","MARKTYPE":"992","Class":"2"},"geometry":{"x":120.72062728559293,"y":24.114098585739388}},{"attributes":{"OBJECTID":13367,"LANDMARKID":"1000600000448","LANDMARKCO":"203","LANDMARKNA":"縣立中平國中","LANDMARKAD":"1000619","ADDRESS":"台中市太平區中平村太平路300號","TEL":"04-22767416","COUNTYNAME":"台中市","TOWNNAME":"太平區","MARKTYPE":"992","Class":"2"},"geometry":{"x":120.71904469450708,"y":24.123412696791672}},{"attributes":{"OBJECTID":13368,"LANDMARKID":"1000600000449","LANDMARKCO":"203","LANDMARKNA":"縣立新光國中","LANDMARKAD":"1000619","ADDRESS":"台中市太平區樹德九街139號","TEL":"04-23957597","COUNTYNAME":"台中市","TOWNNAME":"太平區","MARKTYPE":"992","Class":"2"},"geometry":{"x":120.70907382211257,"y":24.157668757265903}},{"attributes":{"OBJECTID":13369,"LANDMARKID":"1000600000450","LANDMARKCO":"203","LANDMARKNA":"縣立太平國小","LANDMARKAD":"1000619","ADDRESS":"台中市太平區中平里中興路35號","TEL":"04-22783631","COUNTYNAME":"台中市","TOWNNAME":"太平區","MARKTYPE":"992","Class":"2"},"geometry":{"x":120.71768039252898,"y":24.127833128494686}},{"attributes":{"OBJECTID":13370,"LANDMARKID":"1000600000451","LANDMARKCO":"203","LANDMARKNA":"縣立黃竹國小","LANDMARKAD":"1000619","ADDRESS":"台中市太平區黃竹村竹村路41號","TEL":"04-22715933","COUNTYNAME":"台中市","TOWNNAME":"太平區","MARKTYPE":"992","Class":"2"},"geometry":{"x":120.76458668424559,"y":24.079840462456584}},{"attributes":{"OBJECTID":13371,"LANDMARKID":"1000600000452","LANDMARKCO":"203","LANDMARKNA":"縣立坪林國小","LANDMARKAD":"1000619","ADDRESS":"台中市太平區坪林村坪林路45號","TEL":"04-23927677","COUNTYNAME":"台中市","TOWNNAME":"太平區","MARKTYPE":"992","Class":"2"},"geometry":{"x":120.73675588524701,"y":24.14497742419508}},{"attributes":{"OBJECTID":13372,"LANDMARKID":"1000600000453","LANDMARKCO":"203","LANDMARKNA":"縣立新光國小","LANDMARKAD":"1000619","ADDRESS":"台中市太平區新光里樹德一街136巷30號","TEL":"04-23956005","COUNTYNAME":"台中市","TOWNNAME":"太平區","MARKTYPE":"992","Class":"2"},"geometry":{"x":120.70654788951968,"y":24.152276987810122}},{"attributes":{"OBJECTID":13373,"LANDMARKID":"1000600000454","LANDMARKCO":"203","LANDMARKNA":"縣立建平國小","LANDMARKAD":"1000619","ADDRESS":"台中市太平區精美路201號","TEL":"04-22779532","COUNTYNAME":"台中市","TOWNNAME":"太平區","MARKTYPE":"992","Class":"2"},"geometry":{"x":120.72449199683069,"y":24.124178007605266}},{"attributes":{"OBJECTID":13374,"LANDMARKID":"1000600000455","LANDMARKCO":"203","LANDMARKNA":"縣立新平國小","LANDMARKAD":"1000619","ADDRESS":"台中市太平區樹孝路336巷9號","TEL":"04-23914533","COUNTYNAME":"台中市","TOWNNAME":"太平區","MARKTYPE":"992","Class":"2"},"geometry":{"x":120.71977905902111,"y":24.154907865993284}},{"attributes":{"OBJECTID":13375,"LANDMARKID":"1000600000272","LANDMARKCO":"201","LANDMARKNA":"國立勤益技術學院","LANDMARKAD":"1000619","ADDRESS":"台中市太平區中山路一段215巷35號","TEL":"04-23924505","COUNTYNAME":"台中市","TOWNNAME":"太平區","MARKTYPE":"992","Class":"2"},"geometry":{"x":120.72960110343308,"y":24.144658962889263}},{"attributes":{"OBJECTID":13376,"LANDMARKID":"1000600000456","LANDMARKCO":"203","LANDMARKNA":"縣立太平國中","LANDMARKAD":"1000619","ADDRESS":"台中市太平區中山路二段116號","TEL":"04-22702540","COUNTYNAME":"台中市","TOWNNAME":"太平區","MARKTYPE":"992","Class":"2"},"geometry":{"x":120.7340238943851,"y":24.147283205305669}},{"attributes":{"OBJECTID":13377,"LANDMARKID":"1000600000457","LANDMARKCO":"203","LANDMARKNA":"縣立宜欣國小","LANDMARKAD":"1000619","ADDRESS":"台中市太平區宜欣村新平路二段100號","TEL":"04-22701567","COUNTYNAME":"台中市","TOWNNAME":"太平區","MARKTYPE":"992","Class":"2"},"geometry":{"x":120.7154502485907,"y":24.139937665472988}},{"attributes":{"OBJECTID":13378,"LANDMARKID":"1000600000298","LANDMARKCO":"202","LANDMARKNA":"私立華盛頓高中","LANDMARKAD":"1000619","ADDRESS":"台中市太平區部仔路26號","TEL":"04-23934712","COUNTYNAME":"台中市","TOWNNAME":"太平區","MARKTYPE":"992","Class":"2"},"geometry":{"x":120.74533233476042,"y":24.158318573984712}},{"attributes":{"OBJECTID":13379,"LANDMARKID":"1000600000299","LANDMARKCO":"202","LANDMARKNA":"私立華盛頓高中附設國中部","LANDMARKAD":"1000619","ADDRESS":"台中市太平區部仔路26號","TEL":"04-23934712","COUNTYNAME":"台中市","TOWNNAME":"太平區","MARKTYPE":"992","Class":"2"},"geometry":{"x":120.74560895394978,"y":24.158048615969143}},{"attributes":{"OBJECTID":13380,"LANDMARKID":"1000600000447","LANDMARKCO":"203","LANDMARKNA":"縣立坪林國小坪廓分校","LANDMARKAD":"1000619","ADDRESS":"台中市太平區廓子坑路95號","TEL":"04-23924646","COUNTYNAME":"台中市","TOWNNAME":"太平區","MARKTYPE":"992","Class":"2"},"geometry":{"x":120.75663560220055,"y":24.156802270482562}},{"attributes":{"OBJECTID":13381,"LANDMARKID":"1000600000666","LANDMARKCO":"303","LANDMARKNA":"太平區中興立體停車場","LANDMARKAD":"1000619","ADDRESS":"台中市太平區中興東路77號","TEL":" ","COUNTYNAME":"台中市","TOWNNAME":"太平區","MARKTYPE":"993","Class":"303"},"geometry":{"x":120.72066721368792,"y":24.130639427758748}},{"attributes":{"OBJECTID":13382,"LANDMARKID":"1000600000667","LANDMARKCO":"303","LANDMARKNA":"宜欣停車場","LANDMARKAD":"1000619","ADDRESS":"台中市太平區宜欣路","TEL":" ","COUNTYNAME":"台中市","TOWNNAME":"太平區","MARKTYPE":"993","Class":"303"},"geometry":{"x":120.71664767422537,"y":24.143354457453164}},{"attributes":{"OBJECTID":13383,"LANDMARKID":"1000600000668","LANDMARKCO":"303","LANDMARKNA":"非洲觀光鱷魚養殖場停車場","LANDMARKAD":"1000619","ADDRESS":"台中市太平區長龍路三段268號","TEL":"04-22798155","COUNTYNAME":"台中市","TOWNNAME":"太平區","MARKTYPE":"993","Class":"303"},"geometry":{"x":120.774916423183,"y":24.103680082592085}},{"attributes":{"OBJECTID":13384,"LANDMARKID":"1000600000669","LANDMARKCO":"303","LANDMARKNA":"新平公有停車場","LANDMARKAD":"1000619","ADDRESS":"台中市太平區","TEL":" ","COUNTYNAME":"台中市","TOWNNAME":"太平區","MARKTYPE":"993","Class":"303"},"geometry":{"x":120.71592659697686,"y":24.149107520090336}},{"attributes":{"OBJECTID":13385,"LANDMARKID":"1000600000860","LANDMARKCO":"402","LANDMARKNA":"中華電信-太平中興特約服務中心","LANDMARKAD":"1000619","ADDRESS":"台中市太平區中興東路1號","TEL":"04-22777979","COUNTYNAME":"台中市","TOWNNAME":"太平區","MARKTYPE":"994","Class":"4"},"geometry":{"x":120.71866989415665,"y":24.129398143221767}},{"attributes":{"OBJECTID":13386,"LANDMARKID":"1000600000861","LANDMARKCO":"402","LANDMARKNA":"中華電信-太平服務中心","LANDMARKAD":"1000619","ADDRESS":"台中市太平區樹孝路25號","TEL":"123或0800-080-123","COUNTYNAME":"台中市","TOWNNAME":"太平區","MARKTYPE":"994","Class":"4"},"geometry":{"x":120.71573132424024,"y":24.149518841479622}},{"attributes":{"OBJECTID":13387,"LANDMARKID":"1000600000862","LANDMARKCO":"402","LANDMARKNA":"威寶電信-太平樹德特約服務中心","LANDMARKAD":"1000619","ADDRESS":"台中市太平區樹德路7號","TEL":"04-23956000","COUNTYNAME":"台中市","TOWNNAME":"太平區","MARKTYPE":"994","Class":"4"},"geometry":{"x":120.71030776702578,"y":24.149861106615433}},{"attributes":{"OBJECTID":13388,"LANDMARKID":"1000600000863","LANDMARKCO":"402","LANDMARKNA":"威寶電信-太平太平特約服務中心","LANDMARKAD":"1000619","ADDRESS":"台中市太平區太平路600號","TEL":"04-22758090","COUNTYNAME":"台中市","TOWNNAME":"太平區","MARKTYPE":"994","Class":"4"},"geometry":{"x":120.71252290145303,"y":24.125938737614252}},{"attributes":{"OBJECTID":13389,"LANDMARKID":"1000600000864","LANDMARKCO":"402","LANDMARKNA":"威寶電信-太平中山特約服務中心","LANDMARKAD":"1000619","ADDRESS":"台中市太平區中山路四段118號","TEL":"04-23952389","COUNTYNAME":"台中市","TOWNNAME":"太平區","MARKTYPE":"994","Class":"4"},"geometry":{"x":120.70499245583149,"y":24.148330370787448}},{"attributes":{"OBJECTID":13390,"LANDMARKID":"1000600000865","LANDMARKCO":"402","LANDMARKNA":"大眾電信-太平專賣店","LANDMARKAD":"1000619","ADDRESS":"台中市太平區中山路四段88號","TEL":"04-23955959","COUNTYNAME":"台中市","TOWNNAME":"太平區","MARKTYPE":"994","Class":"4"},"geometry":{"x":120.72015480095399,"y":24.149150377803284}},{"attributes":{"OBJECTID":13391,"LANDMARKID":"1000600000866","LANDMARKCO":"402","LANDMARKNA":"大眾電信(震旦通訊)-太平中興店","LANDMARKAD":"1000619","ADDRESS":"台中市太平區中興路132號","TEL":"04-22796688","COUNTYNAME":"台中市","TOWNNAME":"太平區","MARKTYPE":"994","Class":"4"},"geometry":{"x":120.71471167380942,"y":24.12695061330686}},{"attributes":{"OBJECTID":13392,"LANDMARKID":"1000600001263","LANDMARKCO":"503","LANDMARKNA":"仙女瀑布","LANDMARKAD":"1000619","ADDRESS":"台中市太平區","TEL":" ","COUNTYNAME":"台中市","TOWNNAME":"太平區","MARKTYPE":"995","Class":"5"},"geometry":{"x":120.82011611454769,"y":24.12215000239928}},{"attributes":{"OBJECTID":13393,"LANDMARKID":"1000600001287","LANDMARKCO":"505","LANDMARKNA":"非洲觀光鱷魚養殖場","LANDMARKAD":"1000619","ADDRESS":"台中市太平區長龍路三段268號","TEL":"04-22798155","COUNTYNAME":"台中市","TOWNNAME":"太平區","MARKTYPE":"995","Class":"5"},"geometry":{"x":120.77505063878297,"y":24.103701943548824}},{"attributes":{"OBJECTID":13394,"LANDMARKID":"1000600001323","LANDMARKCO":"510","LANDMARKNA":"鴻禧太平高爾夫球場","LANDMARKAD":"1000619","ADDRESS":"台中市太平區頭汴里北田路265巷9號","TEL":"04-22703470","COUNTYNAME":"台中市","TOWNNAME":"太平區","MARKTYPE":"995","Class":"5"},"geometry":{"x":120.76059413268908,"y":24.129318668982798}},{"attributes":{"OBJECTID":13395,"LANDMARKID":"1000600001049","LANDMARKCO":"405","LANDMARKNA":"中油加油站-南門橋站(中油直營)","LANDMARKAD":"1000620","ADDRESS":"台中市大里區西榮里中興路二段691號","TEL":"04-24826451","COUNTYNAME":"台中市","TOWNNAME":"大里區","MARKTYPE":"994","Class":"4"},"geometry":{"x":120.68929414385204,"y":24.117215957916276}},{"attributes":{"OBJECTID":13396,"LANDMARKID":"1000600001050","LANDMARKCO":"405","LANDMARKNA":"中油加油站-東湖站","LANDMARKAD":"1000620","ADDRESS":"台中市大里區中興路一段109-1號","TEL":"04-24951468","COUNTYNAME":"台中市","TOWNNAME":"大里區","MARKTYPE":"994","Class":"4"},"geometry":{"x":120.69709619435061,"y":24.083587820278343}},{"attributes":{"OBJECTID":13397,"LANDMARKID":"1000600001051","LANDMARKCO":"405","LANDMARKNA":"統一速邁樂加油站-大里三站(中油)","LANDMARKAD":"1000620","ADDRESS":"台中市大里區國中路285號","TEL":"04-24967506","COUNTYNAME":"台中市","TOWNNAME":"大里區","MARKTYPE":"994","Class":"4"},"geometry":{"x":120.68037532027283,"y":24.09552448968514}},{"attributes":{"OBJECTID":13398,"LANDMARKID":"1000600001052","LANDMARKCO":"405","LANDMARKNA":"中油加油站-明維站","LANDMARKAD":"1000620","ADDRESS":"台中市大里區大峰路135號","TEL":"04-24935936","COUNTYNAME":"台中市","TOWNNAME":"大里區","MARKTYPE":"994","Class":"4"},"geometry":{"x":120.68921562673226,"y":24.076399719521419}},{"attributes":{"OBJECTID":13399,"LANDMARKID":"1000600001053","LANDMARKCO":"405","LANDMARKNA":"中油加油站-西湖站","LANDMARKAD":"1000620","ADDRESS":"台中市大里區西湖里大峰路32號","TEL":"04-24924958","COUNTYNAME":"台中市","TOWNNAME":"大里區","MARKTYPE":"994","Class":"4"},"geometry":{"x":120.69009678251561,"y":24.075506507671093}},{"attributes":{"OBJECTID":13400,"LANDMARKID":"1000600001054","LANDMARKCO":"405","LANDMARKNA":"統一速邁樂加油站-大里加油站(中油)","LANDMARKAD":"1000620","ADDRESS":"台中市大里區中興路一段294號","TEL":" ","COUNTYNAME":"台中市","TOWNNAME":"大里區","MARKTYPE":"994","Class":"4"},"geometry":{"x":120.69574922905434,"y":24.088555657598953}}]}