{"displayFieldName":"COUNTYNAME","fieldAliases":{"OBJECTID":"OBJECTID","LANDMARKID":"LANDMARKID","LANDMARKCO":"LANDMARKCO","LANDMARKNA":"LANDMARKNA","LANDMARKAD":"LANDMARKAD","ADDRESS":"ADDRESS","TEL":"TEL","COUNTYNAME":"COUNTYNAME","TOWNNAME":"TOWNNAME","MARKTYPE":"MARKTYPE","Class":"Class"},"geometryType":"esriGeometryPoint","spatialReference":{"wkid":102443},"fields":[{"name":"OBJECTID","type":"esriFieldTypeOID","alias":"OBJECTID"},{"name":"LANDMARKID","type":"esriFieldTypeString","alias":"LANDMARKID","length":15},{"name":"LANDMARKCO","type":"esriFieldTypeString","alias":"LANDMARKCO","length":15},{"name":"LANDMARKNA","type":"esriFieldTypeString","alias":"LANDMARKNA","length":50},{"name":"LANDMARKAD","type":"esriFieldTypeString","alias":"LANDMARKAD","length":15},{"name":"ADDRESS","type":"esriFieldTypeString","alias":"ADDRESS","length":56},{"name":"TEL","type":"esriFieldTypeString","alias":"TEL","length":36},{"name":"COUNTYNAME","type":"esriFieldTypeString","alias":"COUNTYNAME","length":15},{"name":"TOWNNAME","type":"esriFieldTypeString","alias":"TOWNNAME","length":13},{"name":"MARKTYPE","type":"esriFieldTypeString","alias":"MARKTYPE","length":12},{"name":"Class","type":"esriFieldTypeString","alias":"Class","length":5}],"features":[{"attributes":{"OBJECTID":11001,"LANDMARKID":"1001100000017","LANDMARKCO":"101","LANDMARKNA":"台灣明德外役監獄","LANDMARKAD":"1001122","ADDRESS":"台南市山上區明德山莊1號","TEL":"06-5783498","COUNTYNAME":"台南市","TOWNNAME":"山上區","MARKTYPE":"991","Class":"1"},"geometry":{"x":188805.45770000014,"y":2555493.1071000006}},{"attributes":{"OBJECTID":11002,"LANDMARKID":"1001100000335","LANDMARKCO":"108","LANDMARKNA":"台南市山上區公所","LANDMARKAD":"1001122","ADDRESS":"台南市山上區南洲村325號","TEL":"06-5781801","COUNTYNAME":"台南市","TOWNNAME":"山上區","MARKTYPE":"991","Class":"1"},"geometry":{"x":183706.78280000016,"y":2555860.0325000007}},{"attributes":{"OBJECTID":11003,"LANDMARKID":"1001100000054","LANDMARKCO":"103","LANDMARKNA":"台南市山上區鄉民代表會","LANDMARKAD":"1001122","ADDRESS":"台南市山上區南洲村325號之1","TEL":"06-5781240","COUNTYNAME":"台南市","TOWNNAME":"山上區","MARKTYPE":"991","Class":"1"},"geometry":{"x":183747.95930000022,"y":2555820.2149999999}},{"attributes":{"OBJECTID":11004,"LANDMARKID":"1001100000055","LANDMARKCO":"103","LANDMARKNA":"台南市山上區衛生所","LANDMARKAD":"1001122","ADDRESS":"台南市山上區山上村201之15號","TEL":"06-5781013","COUNTYNAME":"台南市","TOWNNAME":"山上區","MARKTYPE":"991","Class":"1"},"geometry":{"x":183971.34769999981,"y":2555651.2086999994}},{"attributes":{"OBJECTID":11005,"LANDMARKID":"1001100000197","LANDMARKCO":"107","LANDMARKNA":"台南市警察局山上分駐所","LANDMARKAD":"1001122","ADDRESS":"台南市山上區山上村35號","TEL":"06-5781019","COUNTYNAME":"台南市","TOWNNAME":"山上區","MARKTYPE":"991","Class":"1"},"geometry":{"x":184245.17980000004,"y":2555381.1623}},{"attributes":{"OBJECTID":11006,"LANDMARKID":"1001100000198","LANDMARKCO":"107","LANDMARKNA":"台南市消防局山上消防分隊","LANDMARKAD":"1001122","ADDRESS":"台南市山上區35之1號","TEL":"06-5783328","COUNTYNAME":"台南市","TOWNNAME":"山上區","MARKTYPE":"991","Class":"1"},"geometry":{"x":184253.31159999967,"y":2555351.1980000008}},{"attributes":{"OBJECTID":11007,"LANDMARKID":"1001100000652","LANDMARKCO":"204","LANDMARKNA":"台南市立圖書館山上分館","LANDMARKAD":"1001122","ADDRESS":"台南市山上區南洲村53號","TEL":" ","COUNTYNAME":"台南市","TOWNNAME":"山上區","MARKTYPE":"992","Class":"2"},"geometry":{"x":183828.56450000033,"y":2555712.7755999994}},{"attributes":{"OBJECTID":11008,"LANDMARKID":"1001100000410","LANDMARKCO":"203","LANDMARKNA":"縣立山上國中","LANDMARKAD":"1001122","ADDRESS":"台南市山上區山上村130號","TEL":"06-5781023","COUNTYNAME":"台南市","TOWNNAME":"山上區","MARKTYPE":"992","Class":"2"},"geometry":{"x":184207.42279999983,"y":2555940.9845000003}},{"attributes":{"OBJECTID":11009,"LANDMARKID":"1001100000411","LANDMARKCO":"203","LANDMARKNA":"縣立山上國小","LANDMARKAD":"1001122","ADDRESS":"台南市山上區南洲村42號","TEL":"06-5781203","COUNTYNAME":"台南市","TOWNNAME":"山上區","MARKTYPE":"992","Class":"2"},"geometry":{"x":183948.61280000024,"y":2555591.1083000004}},{"attributes":{"OBJECTID":11010,"LANDMARKID":"1001100000881","LANDMARKCO":"402","LANDMARKNA":"中華電信-山上服務中心","LANDMARKAD":"1001122","ADDRESS":"台南市山上區南洲村381號","TEL":"(06)578-1744","COUNTYNAME":"台南市","TOWNNAME":"山上區","MARKTYPE":"994","Class":"4"},"geometry":{"x":183784.33160000015,"y":2555898.3143000007}},{"attributes":{"OBJECTID":11011,"LANDMARKID":"1001100000955","LANDMARKCO":"405","LANDMARKNA":"台灣優力加油站-安定站(中油)","LANDMARKAD":"1001121","ADDRESS":"台南市安定區安加村安定258-59號","TEL":"06-5976077","COUNTYNAME":"台南市","TOWNNAME":"安定區","MARKTYPE":"994","Class":"4"},"geometry":{"x":171846.6810999997,"y":2557198.477}},{"attributes":{"OBJECTID":11012,"LANDMARKID":"1001100000956","LANDMARKCO":"405","LANDMARKNA":"中油加油站-安定交流道站","LANDMARKAD":"1001121","ADDRESS":"台南市安定區安加村安定258之55號","TEL":"06-5920365","COUNTYNAME":"台南市","TOWNNAME":"安定區","MARKTYPE":"994","Class":"4"},"geometry":{"x":171740.53670000006,"y":2556650.4302999992}},{"attributes":{"OBJECTID":11013,"LANDMARKID":"1001100000957","LANDMARKCO":"405","LANDMARKNA":"山隆加油站-安定站(中油)","LANDMARKAD":"1001121","ADDRESS":"台南市安定區蘇厝村蘇厝３０４號之8","TEL":"06-5976971","COUNTYNAME":"台南市","TOWNNAME":"安定區","MARKTYPE":"994","Class":"4"},"geometry":{"x":173167.59750000015,"y":2558460.3786999993}},{"attributes":{"OBJECTID":11014,"LANDMARKID":"1001100000958","LANDMARKCO":"405","LANDMARKNA":"中油加油站-中油安定交流道站(中油直營)","LANDMARKAD":"1001121","ADDRESS":"台南市安定區安加村安定258-12號","TEL":"06-5921844","COUNTYNAME":"台南市","TOWNNAME":"安定區","MARKTYPE":"994","Class":"4"},"geometry":{"x":171662.34860000014,"y":2557051.0124999993}},{"attributes":{"OBJECTID":11015,"LANDMARKID":"1001100000959","LANDMARKCO":"405","LANDMARKNA":"中油加油站-陸路發站","LANDMARKAD":"1001121","ADDRESS":"台南市安定區中沙村沙崙49號","TEL":"06-5933855","COUNTYNAME":"台南市","TOWNNAME":"安定區","MARKTYPE":"994","Class":"4"},"geometry":{"x":168697.18659999967,"y":2552412.0687000006}},{"attributes":{"OBJECTID":11016,"LANDMARKID":"1001100000960","LANDMARKCO":"405","LANDMARKNA":"中油加油站-中崙站","LANDMARKAD":"1001121","ADDRESS":"台南市安定區中沙村中崙6號","TEL":"06-5931700","COUNTYNAME":"台南市","TOWNNAME":"安定區","MARKTYPE":"994","Class":"4"},"geometry":{"x":169258.55460000038,"y":2553196.4608999994}},{"attributes":{"OBJECTID":11017,"LANDMARKID":"1001100000961","LANDMARKCO":"405","LANDMARKNA":"中油加油站-海寮站","LANDMARKAD":"1001121","ADDRESS":"台南市安定區海寮村海寮7之10號","TEL":"06-5934180","COUNTYNAME":"台南市","TOWNNAME":"安定區","MARKTYPE":"994","Class":"4"},"geometry":{"x":169090.73120000027,"y":2554562.0584999993}},{"attributes":{"OBJECTID":11018,"LANDMARKID":"1001100001255","LANDMARKCO":"408","LANDMARKNA":"郵局-安定郵局","LANDMARKAD":"1001121","ADDRESS":"台南市安定區保西村449號","TEL":"(06)5922-086","COUNTYNAME":"台南市","TOWNNAME":"安定區","MARKTYPE":"994","Class":"4"},"geometry":{"x":171785.05810000002,"y":2557985.9557000007}},{"attributes":{"OBJECTID":11019,"LANDMARKID":"1001100001256","LANDMARKCO":"409","LANDMARKNA":"台南市安定區農會","LANDMARKAD":"1001121","ADDRESS":"台南市安定區安定村58號","TEL":"06-5922121","COUNTYNAME":"台南市","TOWNNAME":"安定區","MARKTYPE":"994","Class":"4"},"geometry":{"x":171850.71040000021,"y":2557988.6416999996}},{"attributes":{"OBJECTID":11020,"LANDMARKID":"1001100001162","LANDMARKCO":"406","LANDMARKNA":"蘇心林社區公園","LANDMARKAD":"1001121","ADDRESS":"台南市安定區","TEL":" ","COUNTYNAME":"台南市","TOWNNAME":"安定區","MARKTYPE":"994","Class":"4"},"geometry":{"x":173483.87650000025,"y":2558490.4781999998}},{"attributes":{"OBJECTID":11021,"LANDMARKID":"1001100001001","LANDMARKCO":"405","LANDMARKNA":"台亞加油站-安定交流道站（台塑）","LANDMARKAD":"1001121","ADDRESS":"台南市安定區安加村10鄰安定258之61號","TEL":"(06)597-6133","COUNTYNAME":"台南市","TOWNNAME":"安定區","MARKTYPE":"994","Class":"4"},"geometry":{"x":172069.22109999973,"y":2557247.1558999997}},{"attributes":{"OBJECTID":11022,"LANDMARKID":"1001100000140","LANDMARKCO":"107","LANDMARKNA":"台南市警察局海寮派出所","LANDMARKAD":"1001121","ADDRESS":"台南市安定區海寮村海寮126號","TEL":"06-5931251","COUNTYNAME":"台南市","TOWNNAME":"安定區","MARKTYPE":"991","Class":"1"},"geometry":{"x":169106.48589999974,"y":2555241.1294999998}},{"attributes":{"OBJECTID":11023,"LANDMARKID":"1001100000141","LANDMARKCO":"107","LANDMARKNA":"台南市警察局安定分駐所","LANDMARKAD":"1001121","ADDRESS":"台南市安定區保西村安定443號","TEL":"06-5922277","COUNTYNAME":"台南市","TOWNNAME":"安定區","MARKTYPE":"991","Class":"1"},"geometry":{"x":171762.30240000039,"y":2557905.0223999992}},{"attributes":{"OBJECTID":11024,"LANDMARKID":"1001100000137","LANDMARKCO":"106","LANDMARKNA":"台南市安定區戶政事務所","LANDMARKAD":"1001121","ADDRESS":"台南市安定區保西村12鄰安定443之1號","TEL":"06-5922228","COUNTYNAME":"台南市","TOWNNAME":"安定區","MARKTYPE":"991","Class":"1"},"geometry":{"x":171757.95490000024,"y":2557896.4919000007}},{"attributes":{"OBJECTID":11025,"LANDMARKID":"1001100000138","LANDMARKCO":"107","LANDMARKNA":"台南市警察局蘇厝派出所","LANDMARKAD":"1001121","ADDRESS":"台南市安定區蘇林村蘇厝70號","TEL":"06-5921514","COUNTYNAME":"台南市","TOWNNAME":"安定區","MARKTYPE":"991","Class":"1"},"geometry":{"x":173698.29640000034,"y":2558629.1685000006}},{"attributes":{"OBJECTID":11026,"LANDMARKID":"1001100000139","LANDMARKCO":"107","LANDMARKNA":"台南市警察局港口派出所","LANDMARKAD":"1001121","ADDRESS":"台南市安定區港南村1之13號","TEL":"06-5932235","COUNTYNAME":"台南市","TOWNNAME":"安定區","MARKTYPE":"991","Class":"1"},"geometry":{"x":170968.03450000007,"y":2554210.4388999995}},{"attributes":{"OBJECTID":11027,"LANDMARKID":"1001100000040","LANDMARKCO":"103","LANDMARKNA":"台南市政府安定重測區","LANDMARKAD":"1001121","ADDRESS":"台南市安定區","TEL":" ","COUNTYNAME":"台南市","TOWNNAME":"安定區","MARKTYPE":"991","Class":"1"},"geometry":{"x":171070.83860000037,"y":2556400.9221000001}},{"attributes":{"OBJECTID":11028,"LANDMARKID":"1001100000142","LANDMARKCO":"107","LANDMARKNA":"台南市消防局安定消防分隊","LANDMARKAD":"1001121","ADDRESS":"台南市安定區保西村443之2號","TEL":"06-5922301","COUNTYNAME":"台南市","TOWNNAME":"安定區","MARKTYPE":"991","Class":"1"},"geometry":{"x":171727.97670000046,"y":2557911.3350000009}},{"attributes":{"OBJECTID":11029,"LANDMARKID":"1001100000334","LANDMARKCO":"108","LANDMARKNA":"台南市安定區公所","LANDMARKAD":"1001121","ADDRESS":"台南市安定區安定村59號","TEL":"06-5921116","COUNTYNAME":"台南市","TOWNNAME":"安定區","MARKTYPE":"991","Class":"1"},"geometry":{"x":171831.07990000024,"y":2557890.3823000006}},{"attributes":{"OBJECTID":11030,"LANDMARKID":"1001100000041","LANDMARKCO":"103","LANDMARKNA":"台南市安定區鄉民代表會","LANDMARKAD":"1001121","ADDRESS":"台南市安定區安定村59號","TEL":"06-5922224","COUNTYNAME":"台南市","TOWNNAME":"安定區","MARKTYPE":"991","Class":"1"},"geometry":{"x":171847.76580000017,"y":2557950.4695999995}},{"attributes":{"OBJECTID":11031,"LANDMARKID":"1001100000042","LANDMARKCO":"103","LANDMARKNA":"台南市安定區衛生所","LANDMARKAD":"1001121","ADDRESS":"台南市安定區安定村59之1號","TEL":"06-5922022","COUNTYNAME":"台南市","TOWNNAME":"安定區","MARKTYPE":"991","Class":"1"},"geometry":{"x":171847.71349999961,"y":2557960.4693}},{"attributes":{"OBJECTID":11032,"LANDMARKID":"1001100000646","LANDMARKCO":"204","LANDMARKNA":"台南市立圖書館安定分館","LANDMARKAD":"1001121","ADDRESS":"台南市安定區安加村262之8號","TEL":" ","COUNTYNAME":"台南市","TOWNNAME":"安定區","MARKTYPE":"992","Class":"2"},"geometry":{"x":171556.16089999955,"y":2557161.6482999995}},{"attributes":{"OBJECTID":11033,"LANDMARKID":"1001100000458","LANDMARKCO":"203","LANDMARKNA":"縣立安定國中","LANDMARKAD":"1001121","ADDRESS":"台南市安定區安加村262之1號","TEL":"06-5922003#11","COUNTYNAME":"台南市","TOWNNAME":"安定區","MARKTYPE":"992","Class":"2"},"geometry":{"x":171487.32060000021,"y":2557230.0895000007}},{"attributes":{"OBJECTID":11034,"LANDMARKID":"1001100000459","LANDMARKCO":"203","LANDMARKNA":"縣立南興國小","LANDMARKAD":"1001121","ADDRESS":"台南市安定區六嘉村30號","TEL":"06-5931038","COUNTYNAME":"台南市","TOWNNAME":"安定區","MARKTYPE":"992","Class":"2"},"geometry":{"x":169912.39479999989,"y":2553410.9141000006}},{"attributes":{"OBJECTID":11035,"LANDMARKID":"1001100000460","LANDMARKCO":"203","LANDMARKNA":"縣立南安國小","LANDMARKAD":"1001121","ADDRESS":"台南市安定區南安村62號","TEL":"06-5922023","COUNTYNAME":"台南市","TOWNNAME":"安定區","MARKTYPE":"992","Class":"2"},"geometry":{"x":170617.25439999998,"y":2555400.0549999997}},{"attributes":{"OBJECTID":11036,"LANDMARKID":"1001100000461","LANDMARKCO":"203","LANDMARKNA":"縣立安定國小","LANDMARKAD":"1001121","ADDRESS":"台南市安定區安定村1號","TEL":"06-5922024","COUNTYNAME":"台南市","TOWNNAME":"安定區","MARKTYPE":"992","Class":"2"},"geometry":{"x":172821.10419999994,"y":2558191.0754000004}},{"attributes":{"OBJECTID":11037,"LANDMARKID":"1001100000816","LANDMARKCO":"308","LANDMARKNA":"國1-安定交流道-南下","LANDMARKAD":"1001121","ADDRESS":"台南市安定區","TEL":" ","COUNTYNAME":"台南市","TOWNNAME":"安定區","MARKTYPE":"993","Class":"308"},"geometry":{"x":172628.6277999999,"y":2557126.9389999993}},{"attributes":{"OBJECTID":11038,"LANDMARKID":"1001100000817","LANDMARKCO":"308","LANDMARKNA":"國8-新吉交流道-東行","LANDMARKAD":"1001121","ADDRESS":"台南市安定區","TEL":" ","COUNTYNAME":"台南市","TOWNNAME":"安定區","MARKTYPE":"993","Class":"308"},"geometry":{"x":169442.86089999974,"y":2554442.2736000009}},{"attributes":{"OBJECTID":11039,"LANDMARKID":"1001100000818","LANDMARKCO":"308","LANDMARKNA":"國1-安定交流道-北上","LANDMARKAD":"1001121","ADDRESS":"台南市安定區","TEL":" ","COUNTYNAME":"台南市","TOWNNAME":"安定區","MARKTYPE":"993","Class":"308"},"geometry":{"x":172452.83129999973,"y":2557821.5382000003}},{"attributes":{"OBJECTID":11040,"LANDMARKID":"1001100001420","LANDMARKCO":"605","LANDMARKNA":"南安宮","LANDMARKAD":"1001121","ADDRESS":"台南市安定區","TEL":" ","COUNTYNAME":"台南市","TOWNNAME":"安定區","MARKTYPE":"996","Class":"6"},"geometry":{"x":170782.68640000001,"y":2555784.4256999996}},{"attributes":{"OBJECTID":11041,"LANDMARKID":"1001100000992","LANDMARKCO":"405","LANDMARKNA":"台糖加油站-大營站(中油)","LANDMARKAD":"1001120","ADDRESS":"台南市新市區大營村1鄰大營1之11號","TEL":" ","COUNTYNAME":"台南市","TOWNNAME":"新市區","MARKTYPE":"994","Class":"4"},"geometry":{"x":180177.6046000002,"y":2556171.2840999998}},{"attributes":{"OBJECTID":11042,"LANDMARKID":"1001100000993","LANDMARKCO":"405","LANDMARKNA":"統一速邁樂加油站-南科本站加油站(中油)","LANDMARKAD":"1001120","ADDRESS":"台南市新市區社內村社內143之88號","TEL":" ","COUNTYNAME":"台南市","TOWNNAME":"新市區","MARKTYPE":"994","Class":"4"},"geometry":{"x":176274.6305999998,"y":2551967.8657000009}},{"attributes":{"OBJECTID":11043,"LANDMARKID":"1001100000994","LANDMARKCO":"405","LANDMARKNA":"中油加油站-新市二站(中油直營)","LANDMARKAD":"1001120","ADDRESS":"台南市新市區港墘村中山路10-16號","TEL":"06-5892960","COUNTYNAME":"台南市","TOWNNAME":"新市區","MARKTYPE":"994","Class":"4"},"geometry":{"x":178741.85599999968,"y":2553810.3281999994}},{"attributes":{"OBJECTID":11044,"LANDMARKID":"1001100000995","LANDMARKCO":"405","LANDMARKNA":"中油加油站-中油南科站(中油直營)","LANDMARKAD":"1001120","ADDRESS":"台南市新市區南科二路3號","TEL":"06-5051229","COUNTYNAME":"台南市","TOWNNAME":"新市區","MARKTYPE":"994","Class":"4"},"geometry":{"x":176985.21839999966,"y":2555139.2367000002}},{"attributes":{"OBJECTID":11045,"LANDMARKID":"1001100000996","LANDMARKCO":"405","LANDMARKNA":"台糖加油站-潭頂站(中油)","LANDMARKAD":"1001120","ADDRESS":"台南市新市區潭頂村潭頂542之1號","TEL":" ","COUNTYNAME":"台南市","TOWNNAME":"新市區","MARKTYPE":"994","Class":"4"},"geometry":{"x":180107.40500000026,"y":2552868.5636999998}},{"attributes":{"OBJECTID":11046,"LANDMARKID":"1001100000997","LANDMARKCO":"405","LANDMARKNA":"中油加油站-新市站(中油直營)","LANDMARKAD":"1001120","ADDRESS":"台南市新市區港墘村中山路156號","TEL":"06-5991020","COUNTYNAME":"台南市","TOWNNAME":"新市區","MARKTYPE":"994","Class":"4"},"geometry":{"x":178260.74870000035,"y":2552600.0349000003}},{"attributes":{"OBJECTID":11047,"LANDMARKID":"1001100000998","LANDMARKCO":"405","LANDMARKNA":"中油加油站-信一站","LANDMARKAD":"1001120","ADDRESS":"台南市新市區新和村中山路326號","TEL":"06-5997165","COUNTYNAME":"台南市","TOWNNAME":"新市區","MARKTYPE":"994","Class":"4"},"geometry":{"x":177169.15830000024,"y":2551871.6604999993}},{"attributes":{"OBJECTID":11048,"LANDMARKID":"1001100000999","LANDMARKCO":"405","LANDMARKNA":"中油加油站-新市中山站(中油直營)","LANDMARKAD":"1001120","ADDRESS":"台南市新市區永就村中山路227-3號","TEL":"06-5899588","COUNTYNAME":"台南市","TOWNNAME":"新市區","MARKTYPE":"994","Class":"4"},"geometry":{"x":177324.18400000036,"y":2551907.6633000001}},{"attributes":{"OBJECTID":11049,"LANDMARKID":"1001100001000","LANDMARKCO":"405","LANDMARKNA":"統一速邁樂加油站-新市站(中油)","LANDMARKAD":"1001120","ADDRESS":"台南市新市區中正路320號","TEL":"06-5893218","COUNTYNAME":"台南市","TOWNNAME":"新市區","MARKTYPE":"994","Class":"4"},"geometry":{"x":177491.04349999968,"y":2553183.1519000009}},{"attributes":{"OBJECTID":11050,"LANDMARKID":"1001100000904","LANDMARKCO":"402","LANDMARKNA":"亞太行動寬頻電信-新市仁愛加盟服務中心","LANDMARKAD":"1001120","ADDRESS":"台南市新市區仁愛街305號","TEL":"06-5999291","COUNTYNAME":"台南市","TOWNNAME":"新市區","MARKTYPE":"994","Class":"4"},"geometry":{"x":177647.56460000016,"y":2553061.0758999996}},{"attributes":{"OBJECTID":11051,"LANDMARKID":"1001100001329","LANDMARKCO":"507","LANDMARKNA":"道爺古墓","LANDMARKAD":"1001120","ADDRESS":"台南市新市區豐華村","TEL":"06-5051001","COUNTYNAME":"台南市","TOWNNAME":"新市區","MARKTYPE":"995","Class":"5"},"geometry":{"x":175511.81010000035,"y":2554750.2238999996}},{"attributes":{"OBJECTID":11052,"LANDMARKID":"1001100001239","LANDMARKCO":"408","LANDMARKNA":"郵局-新市郵局","LANDMARKAD":"1001120","ADDRESS":"台南市新市區仁愛街217號","TEL":"(06)5993-205","COUNTYNAME":"台南市","TOWNNAME":"新市區","MARKTYPE":"994","Class":"4"},"geometry":{"x":177597.57039999962,"y":2552852.8377999999}},{"attributes":{"OBJECTID":11053,"LANDMARKID":"1001100001240","LANDMARKCO":"408","LANDMARKNA":"郵局-新市南科園區郵局","LANDMARKAD":"1001120","ADDRESS":"台南市新市區南科六路6號","TEL":"(06)5052-678","COUNTYNAME":"台南市","TOWNNAME":"新市區","MARKTYPE":"994","Class":"4"},"geometry":{"x":176689.32390000019,"y":2555442.2888999991}},{"attributes":{"OBJECTID":11054,"LANDMARKID":"1001100001267","LANDMARKCO":"409","LANDMARKNA":"台南市新市區農會","LANDMARKAD":"1001120","ADDRESS":"台南市新市區新市村復興路1之1號","TEL":"06-5899888","COUNTYNAME":"台南市","TOWNNAME":"新市區","MARKTYPE":"994","Class":"4"},"geometry":{"x":177797.1007000003,"y":2553283.1054999996}},{"attributes":{"OBJECTID":11055,"LANDMARKID":"1001100001163","LANDMARKCO":"406","LANDMARKNA":"台電公園","LANDMARKAD":"1001120","ADDRESS":"台南市新市區","TEL":" ","COUNTYNAME":"台南市","TOWNNAME":"新市區","MARKTYPE":"994","Class":"4"},"geometry":{"x":176206.82650000043,"y":2555545.1271000002}},{"attributes":{"OBJECTID":11056,"LANDMARKID":"1001100001164","LANDMARKCO":"406","LANDMARKNA":"社港公園","LANDMARKAD":"1001120","ADDRESS":"台南市新市區","TEL":" ","COUNTYNAME":"台南市","TOWNNAME":"新市區","MARKTYPE":"994","Class":"4"},"geometry":{"x":176759.52500000037,"y":2552472.4473999999}},{"attributes":{"OBJECTID":11057,"LANDMARKID":"1001100001165","LANDMARKCO":"406","LANDMARKNA":"大營公園","LANDMARKAD":"1001120","ADDRESS":"台南市新市區","TEL":" ","COUNTYNAME":"台南市","TOWNNAME":"新市區","MARKTYPE":"994","Class":"4"},"geometry":{"x":179857.72259999998,"y":2555558.0618999992}},{"attributes":{"OBJECTID":11058,"LANDMARKID":"1001100000914","LANDMARKCO":"404","LANDMARKNA":"台灣省自來水潭頂給水廠","LANDMARKAD":"1001120","ADDRESS":"台南市新市區潭頂村544號","TEL":" ","COUNTYNAME":"台南市","TOWNNAME":"新市區","MARKTYPE":"994","Class":"4"},"geometry":{"x":179984.96169999987,"y":2552834.4111000001}},{"attributes":{"OBJECTID":11059,"LANDMARKID":"1001100000982","LANDMARKCO":"405","LANDMARKNA":"全國加油站-新市站（台塑）","LANDMARKAD":"1001120","ADDRESS":"台南市新市區中山路67號","TEL":"06-5995309","COUNTYNAME":"台南市","TOWNNAME":"新市區","MARKTYPE":"994","Class":"4"},"geometry":{"x":178563.43950000033,"y":2553128.3559000008}},{"attributes":{"OBJECTID":11060,"LANDMARKID":"1001100000983","LANDMARKCO":"405","LANDMARKNA":"台亞加油站-新市站（台塑）","LANDMARKAD":"1001120","ADDRESS":"台南市新市區港墘村中山路133號","TEL":"(06)599-8370","COUNTYNAME":"台南市","TOWNNAME":"新市區","MARKTYPE":"994","Class":"4"},"geometry":{"x":178332.57550000027,"y":2552582.7667999994}},{"attributes":{"OBJECTID":11061,"LANDMARKID":"1001100000099","LANDMARKCO":"104","LANDMARKNA":"關稅總局高雄關稅局台南科學園","LANDMARKAD":"1001120","ADDRESS":"台南市新市區南科三路13號2樓","TEL":"06-5051502","COUNTYNAME":"台南市","TOWNNAME":"新市區","MARKTYPE":"991","Class":"1"},"geometry":{"x":176568.05069999956,"y":2555354.5771999992}},{"attributes":{"OBJECTID":11062,"LANDMARKID":"1001100000039","LANDMARKCO":"103","LANDMARKNA":"台南市新市區鄉民代表會","LANDMARKAD":"1001120","ADDRESS":"台南市新市區中興街12號","TEL":"06-5996903","COUNTYNAME":"台南市","TOWNNAME":"新市區","MARKTYPE":"991","Class":"1"},"geometry":{"x":177777.82589999959,"y":2553205.8245000001}},{"attributes":{"OBJECTID":11063,"LANDMARKID":"1001100000333","LANDMARKCO":"108","LANDMARKNA":"台南市新巿鄉公所","LANDMARKAD":"1001120","ADDRESS":"台南市新市區中興街12號","TEL":"06-5994711","COUNTYNAME":"台南市","TOWNNAME":"新市區","MARKTYPE":"991","Class":"1"},"geometry":{"x":177777.82589999959,"y":2553205.8245000001}},{"attributes":{"OBJECTID":11064,"LANDMARKID":"1001100000146","LANDMARKCO":"107","LANDMARKNA":"台南市警察局新市分駐所","LANDMARKAD":"1001120","ADDRESS":"台南市新市區新市村復興路2號","TEL":"06-5993019","COUNTYNAME":"台南市","TOWNNAME":"新市區","MARKTYPE":"991","Class":"1"},"geometry":{"x":177834.15510000009,"y":2553268.3461000007}},{"attributes":{"OBJECTID":11065,"LANDMARKID":"1001100000136","LANDMARKCO":"106","LANDMARKNA":"台南市新市區戶政事務所","LANDMARKAD":"1001120","ADDRESS":"台南市新市區光華街242號","TEL":"06-5993582","COUNTYNAME":"台南市","TOWNNAME":"新市區","MARKTYPE":"991","Class":"1"},"geometry":{"x":177801.7463999996,"y":2553168.4398999996}},{"attributes":{"OBJECTID":11066,"LANDMARKID":"1001100000143","LANDMARKCO":"107","LANDMARKNA":"台南市消防局新市消防分隊","LANDMARKAD":"1001120","ADDRESS":"台南市新市區復興路4號","TEL":"06-5993119","COUNTYNAME":"台南市","TOWNNAME":"新市區","MARKTYPE":"991","Class":"1"},"geometry":{"x":177828.17520000041,"y":2553303.5672999993}},{"attributes":{"OBJECTID":11067,"LANDMARKID":"1001100000144","LANDMARKCO":"107","LANDMARKNA":"台南市警察局潭頂派出所","LANDMARKAD":"1001120","ADDRESS":"台南市新市區潭頂村潭頂398號","TEL":"06-5991934","COUNTYNAME":"台南市","TOWNNAME":"新市區","MARKTYPE":"991","Class":"1"},"geometry":{"x":180518.17729999963,"y":2552970.9009000007}},{"attributes":{"OBJECTID":11068,"LANDMARKID":"1001100000145","LANDMARKCO":"107","LANDMARKNA":"國公路警察局第四警察隊新市分隊","LANDMARKAD":"1001120","ADDRESS":"台南市新市區豐華村38之61號","TEL":"06-5993264","COUNTYNAME":"台南市","TOWNNAME":"新市區","MARKTYPE":"991","Class":"1"},"geometry":{"x":173148.41579999961,"y":2555361.3637000006}},{"attributes":{"OBJECTID":11069,"LANDMARKID":"1001100000018","LANDMARKCO":"101","LANDMARKNA":"台灣台南地方法院新市簡易庭","LANDMARKAD":"1001120","ADDRESS":"台南市新市區富強街12號","TEL":"06-5998959","COUNTYNAME":"台南市","TOWNNAME":"新市區","MARKTYPE":"991","Class":"1"},"geometry":{"x":177322.88760000002,"y":2552480.8964000009}},{"attributes":{"OBJECTID":11070,"LANDMARKID":"1001100000647","LANDMARKCO":"204","LANDMARKNA":"台南市立圖書館新市分館","LANDMARKAD":"1001120","ADDRESS":"台南市新市區民族路192號","TEL":" ","COUNTYNAME":"台南市","TOWNNAME":"新市區","MARKTYPE":"992","Class":"2"},"geometry":{"x":177858.81570000015,"y":2553284.9104999993}},{"attributes":{"OBJECTID":11071,"LANDMARKID":"1001100000456","LANDMARKCO":"203","LANDMARKNA":"縣立新市國中","LANDMARKAD":"1001120","ADDRESS":"台南市新市區民族路76號","TEL":"06-5991420","COUNTYNAME":"台南市","TOWNNAME":"新市區","MARKTYPE":"992","Class":"2"},"geometry":{"x":178331.42760000005,"y":2553731.2332000006}},{"attributes":{"OBJECTID":11072,"LANDMARKID":"1001100000457","LANDMARKCO":"203","LANDMARKNA":"縣立新市國小","LANDMARKAD":"1001120","ADDRESS":"台南市新市區中興街1號","TEL":"06-5992895","COUNTYNAME":"台南市","TOWNNAME":"新市區","MARKTYPE":"992","Class":"2"},"geometry":{"x":177841.05669999961,"y":2553201.6293000001}},{"attributes":{"OBJECTID":11073,"LANDMARKID":"1001100000336","LANDMARKCO":"201","LANDMARKNA":"遠東科技大學","LANDMARKAD":"1001120","ADDRESS":"台南市新市區中華路49號","TEL":"06-5979566","COUNTYNAME":"台南市","TOWNNAME":"新市區","MARKTYPE":"992","Class":"2"},"geometry":{"x":177736.30200000014,"y":2551635.4099000003}},{"attributes":{"OBJECTID":11074,"LANDMARKID":"1001100000453","LANDMARKCO":"203","LANDMARKNA":"國立南科國際實驗高級中學國中","LANDMARKAD":"1001120","ADDRESS":"台南市新市區大順六路12巷6號","TEL":"06-5052916","COUNTYNAME":"台南市","TOWNNAME":"新市區","MARKTYPE":"992","Class":"2"},"geometry":{"x":177421.59360000025,"y":2556131.2969000004}},{"attributes":{"OBJECTID":11075,"LANDMARKID":"1001100000454","LANDMARKCO":"203","LANDMARKNA":"國立南科國際實驗高級中學國小","LANDMARKAD":"1001120","ADDRESS":"台南市新市區大順六路12巷6號","TEL":"06-5052676","COUNTYNAME":"台南市","TOWNNAME":"新市區","MARKTYPE":"992","Class":"2"},"geometry":{"x":177311.78839999996,"y":2556090.7635999992}},{"attributes":{"OBJECTID":11076,"LANDMARKID":"1001100000455","LANDMARKCO":"203","LANDMARKNA":"縣立大社國小","LANDMARKAD":"1001120","ADDRESS":"台南市新市區大社村39號","TEL":"06-5991593","COUNTYNAME":"台南市","TOWNNAME":"新市區","MARKTYPE":"992","Class":"2"},"geometry":{"x":180290.63129999954,"y":2554060.0669}},{"attributes":{"OBJECTID":11077,"LANDMARKID":"1001100000806","LANDMARKCO":"308","LANDMARKNA":"新市收費站","LANDMARKAD":"1001120","ADDRESS":" ","TEL":" ","COUNTYNAME":"台南市","TOWNNAME":"新市區","MARKTYPE":"993","Class":"308"},"geometry":{"x":173155.93030000012,"y":2555080.6954999994}},{"attributes":{"OBJECTID":11078,"LANDMARKID":"1001100000807","LANDMARKCO":"308","LANDMARKNA":"國1-台南系統交流道-東行","LANDMARKAD":"1001120","ADDRESS":"台南市新市區","TEL":" ","COUNTYNAME":"台南市","TOWNNAME":"新市區","MARKTYPE":"993","Class":"308"},"geometry":{"x":173864.02479999978,"y":2553118.5698000006}},{"attributes":{"OBJECTID":11079,"LANDMARKID":"1001100000808","LANDMARKCO":"308","LANDMARKNA":"國1-台南系統交流道-北上","LANDMARKAD":"1001120","ADDRESS":"台南市新市區","TEL":" ","COUNTYNAME":"台南市","TOWNNAME":"新市區","MARKTYPE":"993","Class":"308"},"geometry":{"x":173431.43819999974,"y":2553599.8946000002}},{"attributes":{"OBJECTID":11080,"LANDMARKID":"1001100000809","LANDMARKCO":"308","LANDMARKNA":"國1-台南系統交流道-西行","LANDMARKAD":"1001120","ADDRESS":"台南市新市區","TEL":" ","COUNTYNAME":"台南市","TOWNNAME":"新市區","MARKTYPE":"993","Class":"308"},"geometry":{"x":172955.87310000043,"y":2553316.4166000001}},{"attributes":{"OBJECTID":11081,"LANDMARKID":"1001100000810","LANDMARKCO":"308","LANDMARKNA":"國8-新市交流道-北上","LANDMARKAD":"1001120","ADDRESS":"台南市新市區","TEL":" ","COUNTYNAME":"台南市","TOWNNAME":"新市區","MARKTYPE":"993","Class":"308"},"geometry":{"x":175718.56979999971,"y":2551888.8725000005}},{"attributes":{"OBJECTID":11082,"LANDMARKID":"1001100000811","LANDMARKCO":"308","LANDMARKNA":"國3-新化系統交流道-北上","LANDMARKAD":"1001120","ADDRESS":"台南市新市區","TEL":" ","COUNTYNAME":"台南市","TOWNNAME":"新市區","MARKTYPE":"993","Class":"308"},"geometry":{"x":180891.74689999968,"y":2551864.1906000003}},{"attributes":{"OBJECTID":11083,"LANDMARKID":"1001100000812","LANDMARKCO":"308","LANDMARKNA":"國3-新化系統交流道-西行","LANDMARKAD":"1001120","ADDRESS":"台南市新市區","TEL":" ","COUNTYNAME":"台南市","TOWNNAME":"新市區","MARKTYPE":"993","Class":"308"},"geometry":{"x":180064.39740000013,"y":2551592.4681000002}},{"attributes":{"OBJECTID":11084,"LANDMARKID":"1001100000813","LANDMARKCO":"308","LANDMARKNA":"國1-台南系統交流道-南下","LANDMARKAD":"1001120","ADDRESS":"台南市新市區","TEL":" ","COUNTYNAME":"台南市","TOWNNAME":"新市區","MARKTYPE":"993","Class":"308"},"geometry":{"x":173393.58899999969,"y":2552790.5556000005}},{"attributes":{"OBJECTID":11085,"LANDMARKID":"1001100000814","LANDMARKCO":"308","LANDMARKNA":"國8-新市交流道-南下","LANDMARKAD":"1001120","ADDRESS":"台南市新市區","TEL":" ","COUNTYNAME":"台南市","TOWNNAME":"新市區","MARKTYPE":"993","Class":"308"},"geometry":{"x":176381.29559999984,"y":2551320.1225000005}},{"attributes":{"OBJECTID":11086,"LANDMARKID":"1001100000815","LANDMARKCO":"308","LANDMARKNA":"國3-新化系統交流道-東行","LANDMARKAD":"1001120","ADDRESS":"台南市新市區","TEL":" ","COUNTYNAME":"台南市","TOWNNAME":"新市區","MARKTYPE":"993","Class":"308"},"geometry":{"x":181106.16100000031,"y":2551453.4182999991}},{"attributes":{"OBJECTID":11087,"LANDMARKID":"1001100000694","LANDMARKCO":"303","LANDMARKNA":"新市國小地下停車場","LANDMARKAD":"1001120","ADDRESS":"台南市新市區中興街1號","TEL":" ","COUNTYNAME":"台南市","TOWNNAME":"新市區","MARKTYPE":"993","Class":"303"},"geometry":{"x":177819.34970000014,"y":2553215.6350999996}},{"attributes":{"OBJECTID":11088,"LANDMARKID":"1001100000695","LANDMARKCO":"303","LANDMARKNA":"奇美面版四廠停車場","LANDMARKAD":"1001120","ADDRESS":"台南市新市區環西路一段","TEL":" ","COUNTYNAME":"台南市","TOWNNAME":"新市區","MARKTYPE":"993","Class":"303"},"geometry":{"x":176141.65510000009,"y":2554437.3214999996}},{"attributes":{"OBJECTID":11089,"LANDMARKID":"1001100000696","LANDMARKCO":"303","LANDMARKNA":"南鑫光電停車場","LANDMARKAD":"1001120","ADDRESS":"台南市新市區環西路一段","TEL":" ","COUNTYNAME":"台南市","TOWNNAME":"新市區","MARKTYPE":"993","Class":"303"},"geometry":{"x":176255.30470000021,"y":2554548.7697999999}},{"attributes":{"OBJECTID":11090,"LANDMARKID":"1001100000671","LANDMARKCO":"301","LANDMARKNA":"新市火車站","LANDMARKAD":"1001120","ADDRESS":"台南市新市區新和村中華路1號","TEL":" ","COUNTYNAME":"台南市","TOWNNAME":"新市區","MARKTYPE":"993","Class":"301"},"geometry":{"x":177241.25789999962,"y":2552015.3958000001}},{"attributes":{"OBJECTID":11091,"LANDMARKID":"1001100000890","LANDMARKCO":"402","LANDMARKNA":"中華電信-台南新市特約服務中心","LANDMARKAD":"1001120","ADDRESS":"台南市新市區仁愛街254號","TEL":"06-5998899","COUNTYNAME":"台南市","TOWNNAME":"新市區","MARKTYPE":"994","Class":"4"},"geometry":{"x":177628.46839999966,"y":2552873.9870999996}},{"attributes":{"OBJECTID":11092,"LANDMARKID":"1001100000891","LANDMARKCO":"402","LANDMARKNA":"威寶電信-新市中興特約服務中心","LANDMARKAD":"1001120","ADDRESS":"台南市新市區中興街31號","TEL":"06-5898299","COUNTYNAME":"台南市","TOWNNAME":"新市區","MARKTYPE":"994","Class":"4"},"geometry":{"x":177726.66280000005,"y":2553140.0777000003}},{"attributes":{"OBJECTID":11093,"LANDMARKID":"1001100001368","LANDMARKCO":"603","LANDMARKNA":"台南夏都花園酒店","LANDMARKAD":"1001120","ADDRESS":"台南市新市區大營村大營133號2樓","TEL":"06-5990055","COUNTYNAME":"台南市","TOWNNAME":"新市區","MARKTYPE":"996","Class":"6"},"geometry":{"x":179412.44710000046,"y":2555026.2767999992}},{"attributes":{"OBJECTID":11094,"LANDMARKID":"1001100001369","LANDMARKCO":"603","LANDMARKNA":"新大南科大飯店","LANDMARKAD":"1001120","ADDRESS":"台南市新市區中正路406號","TEL":"06-5899111","COUNTYNAME":"台南市","TOWNNAME":"新市區","MARKTYPE":"996","Class":"6"},"geometry":{"x":177756.98190000001,"y":2553281.2239999995}},{"attributes":{"OBJECTID":11095,"LANDMARKID":"1001100000984","LANDMARKCO":"405","LANDMARKNA":"中油加油站-三佳新化站","LANDMARKAD":"1001118","ADDRESS":"台南市新化區那拔里牧場1之15號","TEL":"06-5911466","COUNTYNAME":"台南市","TOWNNAME":"新化區","MARKTYPE":"994","Class":"4"},"geometry":{"x":179140.02639999986,"y":2546060.6126000006}},{"attributes":{"OBJECTID":11096,"LANDMARKID":"1001100000985","LANDMARKCO":"405","LANDMARKNA":"中油加油站-太山站","LANDMARKAD":"1001118","ADDRESS":"台南市新化區山腳里頂山腳53之6號","TEL":"06-5901931","COUNTYNAME":"台南市","TOWNNAME":"新化區","MARKTYPE":"994","Class":"4"},"geometry":{"x":179186.32409999985,"y":2546195.4030000009}},{"attributes":{"OBJECTID":11097,"LANDMARKID":"1001100000986","LANDMARKCO":"405","LANDMARKNA":"中油加油站-新化三站(中油直營)","LANDMARKAD":"1001118","ADDRESS":"台南市新化區山腳里頂山腳５３之６號","TEL":" ","COUNTYNAME":"台南市","TOWNNAME":"新化區","MARKTYPE":"994","Class":"4"},"geometry":{"x":179186.32409999985,"y":2546195.4030000009}},{"attributes":{"OBJECTID":11098,"LANDMARKID":"1001100000987","LANDMARKCO":"405","LANDMARKNA":"中油加油站-新化站(中油直營)","LANDMARKAD":"1001118","ADDRESS":"台南市新化區中山路575號","TEL":"06-5982150","COUNTYNAME":"台南市","TOWNNAME":"新化區","MARKTYPE":"994","Class":"4"},"geometry":{"x":178359.23539999966,"y":2548452.4885000009}},{"attributes":{"OBJECTID":11099,"LANDMARKID":"1001100000988","LANDMARKCO":"405","LANDMARKNA":"中油加油站-大川站","LANDMARKAD":"1001118","ADDRESS":"台南市新化區中山路76號","TEL":"06-5901931","COUNTYNAME":"台南市","TOWNNAME":"新化區","MARKTYPE":"994","Class":"4"},"geometry":{"x":179803.75339999981,"y":2549349.5571999997}},{"attributes":{"OBJECTID":11100,"LANDMARKID":"1001100000989","LANDMARKCO":"405","LANDMARKNA":"中油加油站-新化二站(中油直營)","LANDMARKAD":"1001118","ADDRESS":"台南市新化區中山路７６號","TEL":" ","COUNTYNAME":"台南市","TOWNNAME":"新化區","MARKTYPE":"994","Class":"4"},"geometry":{"x":179803.75339999981,"y":2549349.5571999997}},{"attributes":{"OBJECTID":11101,"LANDMARKID":"1001100000990","LANDMARKCO":"405","LANDMARKNA":"中油加油站-大新站","LANDMARKAD":"1001118","ADDRESS":"台南市新化區中山路788號","TEL":"06-5985758","COUNTYNAME":"台南市","TOWNNAME":"新化區","MARKTYPE":"994","Class":"4"},"geometry":{"x":177725.03940000013,"y":2548410.1804000009}},{"attributes":{"OBJECTID":11102,"LANDMARKID":"1001100000991","LANDMARKCO":"405","LANDMARKNA":"中油加油站-東新站","LANDMARKAD":"1001118","ADDRESS":"台南市新化區中正路1083號","TEL":"06-5981222","COUNTYNAME":"台南市","TOWNNAME":"新化區","MARKTYPE":"994","Class":"4"},"geometry":{"x":178239.17449999973,"y":2550389.2301000003}},{"attributes":{"OBJECTID":11103,"LANDMARKID":"1001100000892","LANDMARKCO":"402","LANDMARKNA":"亞太行動寬頻電信-新化中山加盟服務中心","LANDMARKAD":"1001118","ADDRESS":"台南市新化區中山路271號","TEL":"06-5903414","COUNTYNAME":"台南市","TOWNNAME":"新化區","MARKTYPE":"994","Class":"4"},"geometry":{"x":179011.70440000016,"y":2548416.8779000007}},{"attributes":{"OBJECTID":11104,"LANDMARKID":"1001100000819","LANDMARKCO":"401","LANDMARKNA":"行政院衛生署台南醫院新化分院","LANDMARKAD":"1001118","ADDRESS":"台南市新化區那拔里牧場72號","TEL":"06-5911929","COUNTYNAME":"台南市","TOWNNAME":"新化區","MARKTYPE":"994","Class":"4"},"geometry":{"x":182005.30310000014,"y":2551358.1479000002}},{"attributes":{"OBJECTID":11105,"LANDMARKID":"1001100000820","LANDMARKCO":"401","LANDMARKNA":"財團法人台灣省私立台南仁愛之家附設精","LANDMARKAD":"1001118","ADDRESS":"台南市新化區中山路20號","TEL":"06-5902336","COUNTYNAME":"台南市","TOWNNAME":"新化區","MARKTYPE":"994","Class":"4"},"geometry":{"x":180291.43200000003,"y":2550104.1534000002}},{"attributes":{"OBJECTID":11106,"LANDMARKID":"1001100001237","LANDMARKCO":"408","LANDMARKNA":"郵局-新化郵局","LANDMARKAD":"1001118","ADDRESS":"台南市新化區中正路312號","TEL":"(06)5905-061","COUNTYNAME":"台南市","TOWNNAME":"新化區","MARKTYPE":"994","Class":"4"},"geometry":{"x":179160.06929999962,"y":2548031.2418000009}},{"attributes":{"OBJECTID":11107,"LANDMARKID":"1001100001238","LANDMARKCO":"408","LANDMARKNA":"郵局-新化中山路郵局","LANDMARKAD":"1001118","ADDRESS":"台南市新化區中山路320號","TEL":"(06)5907-892","COUNTYNAME":"台南市","TOWNNAME":"新化區","MARKTYPE":"994","Class":"4"},"geometry":{"x":178928.73790000007,"y":2548409.4887000006}},{"attributes":{"OBJECTID":11108,"LANDMARKID":"1001100001268","LANDMARKCO":"409","LANDMARKNA":"台南市新化區農會","LANDMARKAD":"1001118","ADDRESS":"台南市新化區信義街450號","TEL":"06-5902400","COUNTYNAME":"台南市","TOWNNAME":"新化區","MARKTYPE":"994","Class":"4"},"geometry":{"x":178589.71030000038,"y":2548287.2523999996}},{"attributes":{"OBJECTID":11109,"LANDMARKID":"1001100000915","LANDMARKCO":"404","LANDMARKNA":"台灣省自來水新化服務所","LANDMARKAD":"1001118","ADDRESS":"台南市新化區中山路134號之1","TEL":" ","COUNTYNAME":"台南市","TOWNNAME":"新化區","MARKTYPE":"994","Class":"4"},"geometry":{"x":179327.7555999998,"y":2548700.5044}},{"attributes":{"OBJECTID":11110,"LANDMARKID":"1001100001166","LANDMARKCO":"406","LANDMARKNA":"體育公園","LANDMARKAD":"1001118","ADDRESS":" ","TEL":" ","COUNTYNAME":"台南市","TOWNNAME":"新化區","MARKTYPE":"994","Class":"4"},"geometry":{"x":178802.04700000025,"y":2547799.9421999995}},{"attributes":{"OBJECTID":11111,"LANDMARKID":"1001100000150","LANDMARKCO":"107","LANDMARKNA":"台南市警察局知義派出所","LANDMARKAD":"1001118","ADDRESS":"台南市新化區山腳里頂山腳182-1號","TEL":"06-5902949","COUNTYNAME":"台南市","TOWNNAME":"新化區","MARKTYPE":"991","Class":"1"},"geometry":{"x":179662.78679999989,"y":2546861.2906999998}},{"attributes":{"OBJECTID":11112,"LANDMARKID":"1001100000019","LANDMARKCO":"101","LANDMARKNA":"農業委員會畜產試驗所","LANDMARKAD":"1001118","ADDRESS":"台南市新化區那拔里牧場112號","TEL":"06-5911211","COUNTYNAME":"台南市","TOWNNAME":"新化區","MARKTYPE":"991","Class":"1"},"geometry":{"x":181262.72559999954,"y":2550960.6741000004}},{"attributes":{"OBJECTID":11113,"LANDMARKID":"1001100000149","LANDMARKCO":"107","LANDMARKNA":"台南市警察局唪口派出所","LANDMARKAD":"1001118","ADDRESS":"台南市新化區中山路660巷50號","TEL":"06-5982924","COUNTYNAME":"台南市","TOWNNAME":"新化區","MARKTYPE":"991","Class":"1"},"geometry":{"x":178056.57050000038,"y":2548669.4009000007}},{"attributes":{"OBJECTID":11114,"LANDMARKID":"1001100000100","LANDMARKCO":"104","LANDMARKNA":"南區國稅局新化稽徵所","LANDMARKAD":"1001118","ADDRESS":"台南市新化區中正路588號","TEL":"06-5978211","COUNTYNAME":"台南市","TOWNNAME":"新化區","MARKTYPE":"991","Class":"1"},"geometry":{"x":178806.83459999971,"y":2549165.2434}},{"attributes":{"OBJECTID":11115,"LANDMARKID":"1001100000147","LANDMARKCO":"107","LANDMARKNA":"台南市警察局新化分局","LANDMARKAD":"1001118","ADDRESS":"台南市新化區中興路827號","TEL":"06-5902003","COUNTYNAME":"台南市","TOWNNAME":"新化區","MARKTYPE":"991","Class":"1"},"geometry":{"x":179155.6763000004,"y":2548210.2141999993}},{"attributes":{"OBJECTID":11116,"LANDMARKID":"1001100000148","LANDMARKCO":"107","LANDMARKNA":"台南市消防局新化消防分隊","LANDMARKAD":"1001118","ADDRESS":"台南市新化區和平街51號","TEL":"06-5902920","COUNTYNAME":"台南市","TOWNNAME":"新化區","MARKTYPE":"991","Class":"1"},"geometry":{"x":179156.68790000025,"y":2548144.2190000005}},{"attributes":{"OBJECTID":11117,"LANDMARKID":"1001100000038","LANDMARKCO":"103","LANDMARKNA":"台南市新化區鎮民代表會","LANDMARKAD":"1001118","ADDRESS":"台南市新化區中山路130號","TEL":"06-5907829","COUNTYNAME":"台南市","TOWNNAME":"新化區","MARKTYPE":"991","Class":"1"},"geometry":{"x":179364.64340000041,"y":2548716.1926000006}},{"attributes":{"OBJECTID":11118,"LANDMARKID":"1001100000332","LANDMARKCO":"108","LANDMARKNA":"台南市新化區公所","LANDMARKAD":"1001118","ADDRESS":"台南市新化區中山路130號","TEL":"06-5905009","COUNTYNAME":"台南市","TOWNNAME":"新化區","MARKTYPE":"991","Class":"1"},"geometry":{"x":179364.64340000041,"y":2548716.1926000006}},{"attributes":{"OBJECTID":11119,"LANDMARKID":"1001100000165","LANDMARKCO":"107","LANDMARKNA":"台南市警察局新化派出所","LANDMARKAD":"1001118","ADDRESS":"台南市新化區中興路827號","TEL":"06-5901022","COUNTYNAME":"台南市","TOWNNAME":"新化區","MARKTYPE":"991","Class":"1"},"geometry":{"x":179155.6763000004,"y":2548210.2141999993}},{"attributes":{"OBJECTID":11120,"LANDMARKID":"1001100000020","LANDMARKCO":"101","LANDMARKNA":"農業委員會台南區農業改良場","LANDMARKAD":"1001118","ADDRESS":"台南市新化區牧場70號","TEL":"06-5912901","COUNTYNAME":"台南市","TOWNNAME":"新化區","MARKTYPE":"991","Class":"1"},"geometry":{"x":181833.0231999997,"y":2551310.6668999996}},{"attributes":{"OBJECTID":11121,"LANDMARKID":"1001100000164","LANDMARKCO":"107","LANDMARKNA":"台南市警察局那拔派出所","LANDMARKAD":"1001118","ADDRESS":"台南市新化區那拔里拔林75號","TEL":"06-5911051","COUNTYNAME":"台南市","TOWNNAME":"新化區","MARKTYPE":"991","Class":"1"},"geometry":{"x":183497.21399999969,"y":2551990.4447000008}},{"attributes":{"OBJECTID":11122,"LANDMARKID":"1001100000645","LANDMARKCO":"204","LANDMARKNA":"台南市立圖書館新化分館","LANDMARKAD":"1001118","ADDRESS":"台南市新化區中山路132號","TEL":" ","COUNTYNAME":"台南市","TOWNNAME":"新化區","MARKTYPE":"992","Class":"2"},"geometry":{"x":179368.36239999998,"y":2548718.1786000002}},{"attributes":{"OBJECTID":11123,"LANDMARKID":"1001100000377","LANDMARKCO":"202","LANDMARKNA":"國立新化高工","LANDMARKAD":"1001118","ADDRESS":"台南市新化區東榮里信義路54號","TEL":"06-5903994","COUNTYNAME":"台南市","TOWNNAME":"新化區","MARKTYPE":"992","Class":"2"},"geometry":{"x":180254.73269999959,"y":2548652.0196000002}},{"attributes":{"OBJECTID":11124,"LANDMARKID":"1001100000448","LANDMARKCO":"203","LANDMARKNA":"縣立新化國中","LANDMARKAD":"1001118","ADDRESS":"台南市新化區中興路722號","TEL":"06-5902269","COUNTYNAME":"台南市","TOWNNAME":"新化區","MARKTYPE":"992","Class":"2"},"geometry":{"x":179525.94689999986,"y":2548151.6154999994}},{"attributes":{"OBJECTID":11125,"LANDMARKID":"1001100000449","LANDMARKCO":"203","LANDMARKNA":"縣立大新國小","LANDMARKAD":"1001118","ADDRESS":"台南市新化區太平街176號","TEL":"06-5982953","COUNTYNAME":"台南市","TOWNNAME":"新化區","MARKTYPE":"992","Class":"2"},"geometry":{"x":178158.6074000001,"y":2548682.8897999991}},{"attributes":{"OBJECTID":11126,"LANDMARKID":"1001100000450","LANDMARKCO":"203","LANDMARKNA":"縣立正新國小","LANDMARKAD":"1001118","ADDRESS":"台南市新化區豐榮里正新路97號","TEL":"06-5973113","COUNTYNAME":"台南市","TOWNNAME":"新化區","MARKTYPE":"992","Class":"2"},"geometry":{"x":178558.84169999976,"y":2548101.0922999997}},{"attributes":{"OBJECTID":11127,"LANDMARKID":"1001100000451","LANDMARKCO":"203","LANDMARKNA":"縣立新化國小","LANDMARKAD":"1001118","ADDRESS":"台南市新化區中山路173號","TEL":"06-5901810","COUNTYNAME":"台南市","TOWNNAME":"新化區","MARKTYPE":"992","Class":"2"},"geometry":{"x":179387.19039999973,"y":2548621.2986999992}},{"attributes":{"OBJECTID":11128,"LANDMARKID":"1001100000452","LANDMARKCO":"203","LANDMARKNA":"縣立口碑國小","LANDMARKAD":"1001118","ADDRESS":"台南市新化區知義里口埤88號","TEL":"06-5901445","COUNTYNAME":"台南市","TOWNNAME":"新化區","MARKTYPE":"992","Class":"2"},"geometry":{"x":183250.23469999991,"y":2547237.7048000004}},{"attributes":{"OBJECTID":11129,"LANDMARKID":"1001100000378","LANDMARKCO":"202","LANDMARKNA":"國立新化高中","LANDMARKAD":"1001118","ADDRESS":"台南市新化區忠孝街2號","TEL":"06-5982065","COUNTYNAME":"台南市","TOWNNAME":"新化區","MARKTYPE":"992","Class":"2"},"geometry":{"x":179291.2742999997,"y":2548910.8402999993}},{"attributes":{"OBJECTID":11130,"LANDMARKID":"1001100000444","LANDMARKCO":"203","LANDMARKNA":"縣立那拔國小","LANDMARKAD":"1001118","ADDRESS":"台南市新化區那拔里54號","TEL":"06-5911591","COUNTYNAME":"台南市","TOWNNAME":"新化區","MARKTYPE":"992","Class":"2"},"geometry":{"x":183307.03749999963,"y":2552030.8673}},{"attributes":{"OBJECTID":11131,"LANDMARKID":"1001100000445","LANDMARKCO":"203","LANDMARKNA":"縣立礁坑國小","LANDMARKAD":"1001118","ADDRESS":"台南市新化區礁坑里36巷150號","TEL":"06-5901980","COUNTYNAME":"台南市","TOWNNAME":"新化區","MARKTYPE":"992","Class":"2"},"geometry":{"x":184733.12540000025,"y":2549240.9134999998}},{"attributes":{"OBJECTID":11132,"LANDMARKID":"1001100000446","LANDMARKCO":"203","LANDMARKNA":"縣立大坑國小","LANDMARKAD":"1001118","ADDRESS":"台南市新化區","TEL":" ","COUNTYNAME":"台南市","TOWNNAME":"新化區","MARKTYPE":"992","Class":"2"},"geometry":{"x":186643.37540000025,"y":2545180.6081000008}},{"attributes":{"OBJECTID":11133,"LANDMARKID":"1001100000447","LANDMARKCO":"203","LANDMARKNA":"國立台南啟聰學校(新化校區)","LANDMARKAD":"1001118","ADDRESS":"台南市新化區信義街52號","TEL":"06-5900504","COUNTYNAME":"台南市","TOWNNAME":"新化區","MARKTYPE":"992","Class":"2"},"geometry":{"x":180112.57739999983,"y":2548750.6842}},{"attributes":{"OBJECTID":11134,"LANDMARKID":"1001100000803","LANDMARKCO":"308","LANDMARKNA":"新化休息站","LANDMARKAD":"1001118","ADDRESS":" ","TEL":" ","COUNTYNAME":"台南市","TOWNNAME":"新化區","MARKTYPE":"993","Class":"308"},"geometry":{"x":181107.78100000042,"y":2547848.4828999992}},{"attributes":{"OBJECTID":11135,"LANDMARKID":"1001100000804","LANDMARKCO":"308","LANDMARKNA":"國3-新化系統交流道-南下","LANDMARKAD":"1001118","ADDRESS":"台南市新市區","TEL":" ","COUNTYNAME":"台南市","TOWNNAME":"新化區","MARKTYPE":"993","Class":"308"},"geometry":{"x":180562.35379999969,"y":2551203.3248999994}},{"attributes":{"OBJECTID":11136,"LANDMARKID":"1001100000805","LANDMARKCO":"308","LANDMARKNA":"國8-新化端-西行","LANDMARKAD":"1001118","ADDRESS":"台南市新化區","TEL":" ","COUNTYNAME":"台南市","TOWNNAME":"新化區","MARKTYPE":"993","Class":"308"},"geometry":{"x":181569.81329999957,"y":2551261.4110000003}},{"attributes":{"OBJECTID":11137,"LANDMARKID":"1001100000692","LANDMARKCO":"302","LANDMARKNA":"台南汽車客運新化站","LANDMARKAD":"1001118","ADDRESS":"台南市新化區","TEL":" ","COUNTYNAME":"台南市","TOWNNAME":"新化區","MARKTYPE":"993","Class":"302"},"geometry":{"x":179110.0859000003,"y":2547269.5656000003}},{"attributes":{"OBJECTID":11138,"LANDMARKID":"1001100000693","LANDMARKCO":"302","LANDMARKNA":"興南汽車客運新化站","LANDMARKAD":"1001118","ADDRESS":"台南市新化區中山路211號","TEL":" ","COUNTYNAME":"台南市","TOWNNAME":"新化區","MARKTYPE":"993","Class":"302"},"geometry":{"x":179230.63939999975,"y":2548469.0830000006}},{"attributes":{"OBJECTID":11139,"LANDMARKID":"1001100000893","LANDMARKCO":"402","LANDMARKNA":"中華電信-新化服務中心","LANDMARKAD":"1001118","ADDRESS":"台南市新化區大德路30號","TEL":"(06)544-8050","COUNTYNAME":"台南市","TOWNNAME":"新化區","MARKTYPE":"994","Class":"4"},"geometry":{"x":178572.84119999968,"y":2549408.1240999997}},{"attributes":{"OBJECTID":11140,"LANDMARKID":"1001100000894","LANDMARKCO":"402","LANDMARKNA":"中華電信-新化中正特約服務中心","LANDMARKAD":"1001118","ADDRESS":"台南市新化區中正路445號","TEL":"06-5908800","COUNTYNAME":"台南市","TOWNNAME":"新化區","MARKTYPE":"994","Class":"4"},"geometry":{"x":179073.56230000034,"y":2548447.1740000006}},{"attributes":{"OBJECTID":11141,"LANDMARKID":"1001100000895","LANDMARKCO":"402","LANDMARKNA":"威寶電信-新化中山特約服務中心","LANDMARKAD":"1001118","ADDRESS":"台南市新化區中山路229號","TEL":"06-5906657","COUNTYNAME":"台南市","TOWNNAME":"新化區","MARKTYPE":"994","Class":"4"},"geometry":{"x":179159.59049999993,"y":2548440.2326999996}},{"attributes":{"OBJECTID":11142,"LANDMARKID":"1001100001370","LANDMARKCO":"603","LANDMARKNA":"金龍溫泉大旅社","LANDMARKAD":"1001118","ADDRESS":"台南市新化區中興路626號","TEL":"06-5900889","COUNTYNAME":"台南市","TOWNNAME":"新化區","MARKTYPE":"996","Class":"6"},"geometry":{"x":179743.95170000009,"y":2548055.3077000007}},{"attributes":{"OBJECTID":11143,"LANDMARKID":"1001100001371","LANDMARKCO":"603","LANDMARKNA":"梅園大旅社","LANDMARKAD":"1001118","ADDRESS":"台南市新化區中山路180號","TEL":"06-5907160","COUNTYNAME":"台南市","TOWNNAME":"新化區","MARKTYPE":"996","Class":"6"},"geometry":{"x":179243.8097000001,"y":2548489.6232999992}},{"attributes":{"OBJECTID":11144,"LANDMARKID":"1001100001372","LANDMARKCO":"603","LANDMARKNA":"新化旅社","LANDMARKAD":"1001118","ADDRESS":"台南市新化區中山路358號","TEL":"06-5905089","COUNTYNAME":"台南市","TOWNNAME":"新化區","MARKTYPE":"996","Class":"6"},"geometry":{"x":178888.65280000027,"y":2548427.2988000009}},{"attributes":{"OBJECTID":11145,"LANDMARKID":"1001100001373","LANDMARKCO":"603","LANDMARKNA":"長榮汽車旅館","LANDMARKAD":"1001118","ADDRESS":"台南市新化區中山路70號","TEL":"06-5908901","COUNTYNAME":"台南市","TOWNNAME":"新化區","MARKTYPE":"996","Class":"6"},"geometry":{"x":179807.80269999988,"y":2549411.5730000008}},{"attributes":{"OBJECTID":11146,"LANDMARKID":"1001100001374","LANDMARKCO":"603","LANDMARKNA":"大新大旅社","LANDMARKAD":"1001118","ADDRESS":"台南市新化區正新路206號","TEL":"06-5905166","COUNTYNAME":"台南市","TOWNNAME":"新化區","MARKTYPE":"996","Class":"6"},"geometry":{"x":178568.87299999967,"y":2548381.1330999993}},{"attributes":{"OBJECTID":11147,"LANDMARKID":"1001100001375","LANDMARKCO":"603","LANDMARKNA":"逸町城旅社","LANDMARKAD":"1001118","ADDRESS":"台南市新化區那拔里那拔林221號","TEL":"06-5911879","COUNTYNAME":"台南市","TOWNNAME":"新化區","MARKTYPE":"996","Class":"6"},"geometry":{"x":183733.15919999965,"y":2552002.2276000008}},{"attributes":{"OBJECTID":11148,"LANDMARKID":"1001100001376","LANDMARKCO":"603","LANDMARKNA":"東北旅社","LANDMARKAD":"1001118","ADDRESS":"台南市新化區中山路286號","TEL":"06-5907356","COUNTYNAME":"台南市","TOWNNAME":"新化區","MARKTYPE":"996","Class":"6"},"geometry":{"x":179014.93709999975,"y":2548463.8899000008}},{"attributes":{"OBJECTID":11149,"LANDMARKID":"1001100001300","LANDMARKCO":"503","LANDMARKNA":"虎頭埤風景特定區","LANDMARKAD":"1001118","ADDRESS":"台南市新化區東榮里中興路42巷36號","TEL":" ","COUNTYNAME":"台南市","TOWNNAME":"新化區","MARKTYPE":"995","Class":"5"},"geometry":{"x":181855.40510000009,"y":2547326.7073999997}},{"attributes":{"OBJECTID":11150,"LANDMARKID":"1001100001315","LANDMARKCO":"505","LANDMARKNA":"大台南樂園","LANDMARKAD":"1001118","ADDRESS":"台南市新化區新和庄154號","TEL":" ","COUNTYNAME":"台南市","TOWNNAME":"新化區","MARKTYPE":"995","Class":"5"},"geometry":{"x":182717.20050000027,"y":2545977.9766000006}},{"attributes":{"OBJECTID":11151,"LANDMARKID":"1001100001316","LANDMARKCO":"505","LANDMARKNA":"九層嶺花園遊樂區","LANDMARKAD":"1001118","ADDRESS":"台南市新化區礁坑里九層嶺49之1號","TEL":" ","COUNTYNAME":"台南市","TOWNNAME":"新化區","MARKTYPE":"995","Class":"5"},"geometry":{"x":185867.46439999994,"y":2548434.8563000001}},{"attributes":{"OBJECTID":11152,"LANDMARKID":"1001100001355","LANDMARKCO":"510","LANDMARKNA":"台南高爾夫球場","LANDMARKAD":"1001118","ADDRESS":"台南市新化區礁坑里100號","TEL":"06-5901666","COUNTYNAME":"台南市","TOWNNAME":"新化區","MARKTYPE":"995","Class":"5"},"geometry":{"x":182489.32029999979,"y":2548461.2289000005}},{"attributes":{"OBJECTID":11153,"LANDMARKID":"1001100000964","LANDMARKCO":"405","LANDMARKNA":"中油加油站-旺位站","LANDMARKAD":"1001131","ADDRESS":"台南市永康區中正南路153號","TEL":"06-2822522","COUNTYNAME":"台南市","TOWNNAME":"永康區","MARKTYPE":"994","Class":"4"},"geometry":{"x":169786.85830000043,"y":2547080.5040000007}},{"attributes":{"OBJECTID":11154,"LANDMARKID":"1001100000965","LANDMARKCO":"405","LANDMARKNA":"中油加油站-加泓站","LANDMARKAD":"1001131","ADDRESS":"台南市永康區中正路353號","TEL":"06-2424576","COUNTYNAME":"台南市","TOWNNAME":"永康區","MARKTYPE":"994","Class":"4"},"geometry":{"x":172444.8984000003,"y":2548404.1119999997}},{"attributes":{"OBJECTID":11155,"LANDMARKID":"1001100000966","LANDMARKCO":"405","LANDMARKNA":"中油加油站-元大站(中油直營)","LANDMARKAD":"1001131","ADDRESS":"台南市永康區永大路一段69號","TEL":"06-2719856","COUNTYNAME":"台南市","TOWNNAME":"永康區","MARKTYPE":"994","Class":"4"},"geometry":{"x":173851.81489999965,"y":2544038.3716000002}},{"attributes":{"OBJECTID":11156,"LANDMARKID":"1001100000967","LANDMARKCO":"405","LANDMARKNA":"統一速邁樂加油站-永康加油站(中油)","LANDMARKAD":"1001131","ADDRESS":"台南市永康區中正北路735號","TEL":" ","COUNTYNAME":"台南市","TOWNNAME":"永康區","MARKTYPE":"994","Class":"4"},"geometry":{"x":174401.97910000011,"y":2549647.8783999998}},{"attributes":{"OBJECTID":11157,"LANDMARKID":"1001100000968","LANDMARKCO":"405","LANDMARKNA":"中油加油站-永康中山站","LANDMARKAD":"1001131","ADDRESS":"台南市永康區中山南路301號","TEL":"06-2030108","COUNTYNAME":"台南市","TOWNNAME":"永康區","MARKTYPE":"994","Class":"4"},"geometry":{"x":171845.95760000031,"y":2546342.8440000005}},{"attributes":{"OBJECTID":11158,"LANDMARKID":"1001100000969","LANDMARKCO":"405","LANDMARKNA":"中油加油站-崑山站","LANDMARKAD":"1001131","ADDRESS":"台南市永康區復興路28號","TEL":"06-2733592","COUNTYNAME":"台南市","TOWNNAME":"永康區","MARKTYPE":"994","Class":"4"},"geometry":{"x":173081.18780000042,"y":2544365.5720000006}},{"attributes":{"OBJECTID":11159,"LANDMARKID":"1001100000970","LANDMARKCO":"405","LANDMARKNA":"中油加油站-美吉站","LANDMARKAD":"1001131","ADDRESS":"台南市永康區中山南路428號","TEL":"06-2022123","COUNTYNAME":"台南市","TOWNNAME":"永康區","MARKTYPE":"994","Class":"4"},"geometry":{"x":171967.74760000035,"y":2546392.8972999994}},{"attributes":{"OBJECTID":11160,"LANDMARKID":"1001100000971","LANDMARKCO":"405","LANDMARKNA":"中油加油站-瑞曜站","LANDMARKAD":"1001131","ADDRESS":"台南市永康區二王里中山南路426號","TEL":"06-3027358","COUNTYNAME":"台南市","TOWNNAME":"永康區","MARKTYPE":"994","Class":"4"},"geometry":{"x":171961.17669999972,"y":2546389.2130999994}},{"attributes":{"OBJECTID":11161,"LANDMARKID":"1001100000972","LANDMARKCO":"405","LANDMARKNA":"中油加油站-東聖站","LANDMARKAD":"1001131","ADDRESS":"台南市永康區中正南路569-1號","TEL":"06-2421069","COUNTYNAME":"台南市","TOWNNAME":"永康區","MARKTYPE":"994","Class":"4"},"geometry":{"x":171140.4935999997,"y":2548491.7456999999}},{"attributes":{"OBJECTID":11162,"LANDMARKID":"1001100000973","LANDMARKCO":"405","LANDMARKNA":"中油加油站-中油永交站","LANDMARKAD":"1001131","ADDRESS":"台南市永康區中正北路319號","TEL":"06-2436250","COUNTYNAME":"台南市","TOWNNAME":"永康區","MARKTYPE":"994","Class":"4"},"geometry":{"x":172892.37440000009,"y":2549130.1888999995}},{"attributes":{"OBJECTID":11163,"LANDMARKID":"1001100000974","LANDMARKCO":"405","LANDMARKNA":"統一速邁樂加油站-永康二站加油站(中油)","LANDMARKAD":"1001131","ADDRESS":"台南市永康區中山北路498號","TEL":" ","COUNTYNAME":"台南市","TOWNNAME":"永康區","MARKTYPE":"994","Class":"4"},"geometry":{"x":175527.8311999999,"y":2547759.8003000002}},{"attributes":{"OBJECTID":11164,"LANDMARKID":"1001100000975","LANDMARKCO":"405","LANDMARKNA":"中油加油站-遠大站","LANDMARKAD":"1001131","ADDRESS":"台南市永康區民族路7號","TEL":"06-2738583","COUNTYNAME":"台南市","TOWNNAME":"永康區","MARKTYPE":"994","Class":"4"},"geometry":{"x":175538.15649999958,"y":2544549.7265000008}},{"attributes":{"OBJECTID":11165,"LANDMARKID":"1001100000976","LANDMARKCO":"405","LANDMARKNA":"中油加油站-大灣站(中油直營)","LANDMARKAD":"1001131","ADDRESS":"台南市永康區建國里復興路69號","TEL":"06-2724010","COUNTYNAME":"台南市","TOWNNAME":"永康區","MARKTYPE":"994","Class":"4"},"geometry":{"x":172995.93010000046,"y":2544284.8654999994}},{"attributes":{"OBJECTID":11166,"LANDMARKID":"1001100000977","LANDMARKCO":"405","LANDMARKNA":"中油加油站-永新站","LANDMARKAD":"1001131","ADDRESS":"台南市永康區新樹村中山北路768號","TEL":"06-2336911","COUNTYNAME":"台南市","TOWNNAME":"永康區","MARKTYPE":"994","Class":"4"},"geometry":{"x":176328.96760000009,"y":2547952.1559999995}},{"attributes":{"OBJECTID":11167,"LANDMARKID":"1001100000978","LANDMARKCO":"405","LANDMARKNA":"中油加油站-永康正大站","LANDMARKAD":"1001131","ADDRESS":"台南市永康區中正南路292號","TEL":"06-2423668","COUNTYNAME":"台南市","TOWNNAME":"永康區","MARKTYPE":"994","Class":"4"},"geometry":{"x":170645.71270000003,"y":2547854.3171999995}},{"attributes":{"OBJECTID":11168,"LANDMARKID":"1001100000979","LANDMARKCO":"405","LANDMARKNA":"中油加油站-永康六甲頂站","LANDMARKAD":"1001131","ADDRESS":"台南市永康區中正南路132號","TEL":"06-2826379","COUNTYNAME":"台南市","TOWNNAME":"永康區","MARKTYPE":"994","Class":"4"},"geometry":{"x":169702.72420000006,"y":2546950.8583000004}},{"attributes":{"OBJECTID":11169,"LANDMARKID":"1001100000980","LANDMARKCO":"405","LANDMARKNA":"中油加油站-土庫站","LANDMARKAD":"1001131","ADDRESS":"台南市永康區太子路700號","TEL":"06-2737215","COUNTYNAME":"台南市","TOWNNAME":"永康區","MARKTYPE":"994","Class":"4"},"geometry":{"x":173141.9402999999,"y":2543558.8194999993}},{"attributes":{"OBJECTID":11170,"LANDMARKID":"1001100000981","LANDMARKCO":"405","LANDMARKNA":"中油加油站-永康站(中油直營)","LANDMARKAD":"1001131","ADDRESS":"台南市永康區蔦松里中正北路348號","TEL":"06-2532240","COUNTYNAME":"台南市","TOWNNAME":"永康區","MARKTYPE":"994","Class":"4"},"geometry":{"x":173643.19419999979,"y":2549105.3884999994}},{"attributes":{"OBJECTID":11171,"LANDMARKID":"1001100000896","LANDMARKCO":"402","LANDMARKNA":"My Phone台灣大哥大-台南永康直營服務中心","LANDMARKAD":"1001131","ADDRESS":"台南市永康區中華路663號","TEL":"0809-000-166","COUNTYNAME":"台南市","TOWNNAME":"永康區","MARKTYPE":"994","Class":"4"},"geometry":{"x":170983.94739999995,"y":2546229.7399000004}},{"attributes":{"OBJECTID":11172,"LANDMARKID":"1001100000897","LANDMARKCO":"402","LANDMARKNA":"My Phone台灣大哥大-永康崑山直營服務中心","LANDMARKAD":"1001131","ADDRESS":"台南市永康區崑山里大灣路824號","TEL":" ","COUNTYNAME":"台南市","TOWNNAME":"永康區","MARKTYPE":"994","Class":"4"},"geometry":{"x":173955.88599999994,"y":2544499.3827999998}},{"attributes":{"OBJECTID":11173,"LANDMARKID":"1001100000898","LANDMARKCO":"402","LANDMARKNA":"My Phone台灣大哥大-永康－中山南","LANDMARKAD":"1001131","ADDRESS":"台南市永康區中山南路1070號","TEL":"06-2040338","COUNTYNAME":"台南市","TOWNNAME":"永康區","MARKTYPE":"994","Class":"4"},"geometry":{"x":173755.64979999978,"y":2547314.2973999996}},{"attributes":{"OBJECTID":11174,"LANDMARKID":"1001100000899","LANDMARKCO":"402","LANDMARKNA":"亞太行動寬頻電信-永康大灣加盟服務中心","LANDMARKAD":"1001131","ADDRESS":"台南市永康區大灣路352號","TEL":"06-2717120","COUNTYNAME":"台南市","TOWNNAME":"永康區","MARKTYPE":"994","Class":"4"},"geometry":{"x":174845.77610000037,"y":2545131.1029000003}},{"attributes":{"OBJECTID":11175,"LANDMARKID":"1001100000900","LANDMARKCO":"402","LANDMARKNA":"亞太行動寬頻電信-永康中華二加盟服務中心","LANDMARKAD":"1001131","ADDRESS":"台南市永康區中華路220號","TEL":"06-3121019","COUNTYNAME":"台南市","TOWNNAME":"永康區","MARKTYPE":"994","Class":"4"},"geometry":{"x":171631.90460000001,"y":2545069.1996999998}},{"attributes":{"OBJECTID":11176,"LANDMARKID":"1001100000901","LANDMARKCO":"402","LANDMARKNA":"亞太行動寬頻電信-永康中山南加盟服務中心","LANDMARKAD":"1001131","ADDRESS":"台南市永康區中山南路1024號","TEL":"06-2011555","COUNTYNAME":"台南市","TOWNNAME":"永康區","MARKTYPE":"994","Class":"4"},"geometry":{"x":173664.92119999975,"y":2547262.2861000001}},{"attributes":{"OBJECTID":11177,"LANDMARKID":"1001100000902","LANDMARKCO":"402","LANDMARKNA":"亞太行動寬頻電信-永康崑山加盟服務中心","LANDMARKAD":"1001131","ADDRESS":"台南市永康區崑山里大灣路928號","TEL":"06-2071136","COUNTYNAME":"台南市","TOWNNAME":"永康區","MARKTYPE":"994","Class":"4"},"geometry":{"x":173656.65099999961,"y":2544436.3223999999}},{"attributes":{"OBJECTID":11178,"LANDMARKID":"1001100000903","LANDMARKCO":"402","LANDMARKNA":"亞太行動寬頻電信-永康中正北加盟服務中心","LANDMARKAD":"1001131","ADDRESS":"台南市永康區中正北路31號","TEL":"06-2422911","COUNTYNAME":"台南市","TOWNNAME":"永康區","MARKTYPE":"994","Class":"4"},"geometry":{"x":171934.43640000001,"y":2549094.1586000007}},{"attributes":{"OBJECTID":11179,"LANDMARKID":"1001100000821","LANDMARKCO":"401","LANDMARKNA":"永達醫院","LANDMARKAD":"1001131","ADDRESS":"台南市永康區永大路二段1326號","TEL":"06-2311111","COUNTYNAME":"台南市","TOWNNAME":"永康區","MARKTYPE":"994","Class":"4"},"geometry":{"x":174304.45270000026,"y":2546934.2036000006}},{"attributes":{"OBJECTID":11180,"LANDMARKID":"1001100000822","LANDMARKCO":"401","LANDMARKNA":"晉生慢性病醫院","LANDMARKAD":"1001131","ADDRESS":"台南市永康區中山南路902巷7號","TEL":"06-2330003","COUNTYNAME":"台南市","TOWNNAME":"永康區","MARKTYPE":"994","Class":"4"},"geometry":{"x":173074.62229999993,"y":2546870.7193999998}},{"attributes":{"OBJECTID":11181,"LANDMARKID":"1001100000823","LANDMARKCO":"401","LANDMARKNA":"財團法人奇美醫院-永康院區","LANDMARKAD":"1001131","ADDRESS":"台南市永康區中華路901號","TEL":"06-2812811","COUNTYNAME":"台南市","TOWNNAME":"永康區","MARKTYPE":"994","Class":"4"},"geometry":{"x":170235.84379999992,"y":2546840.2938000001}},{"attributes":{"OBJECTID":11182,"LANDMARKID":"1001100000824","LANDMARKCO":"401","LANDMARKNA":"永康榮民醫院","LANDMARKAD":"1001131","ADDRESS":"台南市永康區復興里復興路427號","TEL":"06-3125101","COUNTYNAME":"台南市","TOWNNAME":"永康區","MARKTYPE":"994","Class":"4"},"geometry":{"x":172121.41299999971,"y":2544176.7786999997}},{"attributes":{"OBJECTID":11183,"LANDMARKID":"1001100001228","LANDMARKCO":"408","LANDMARKNA":"郵局-永康郵局","LANDMARKAD":"1001131","ADDRESS":"台南市永康區中山路78號","TEL":"(06)2332-501","COUNTYNAME":"台南市","TOWNNAME":"永康區","MARKTYPE":"994","Class":"4"},"geometry":{"x":173834.84920000006,"y":2547582.6952}},{"attributes":{"OBJECTID":11184,"LANDMARKID":"1001100001229","LANDMARKCO":"408","LANDMARKNA":"郵局-永康六甲頂郵局","LANDMARKAD":"1001131","ADDRESS":"台南市永康區中正南路158號","TEL":"(06)2829-564","COUNTYNAME":"台南市","TOWNNAME":"永康區","MARKTYPE":"994","Class":"4"},"geometry":{"x":169733.90589999966,"y":2546976.1346000005}},{"attributes":{"OBJECTID":11185,"LANDMARKID":"1001100001230","LANDMARKCO":"408","LANDMARKNA":"郵局-永康二王郵局","LANDMARKAD":"1001131","ADDRESS":"台南市永康區中山南路363號","TEL":"06-2329575","COUNTYNAME":"台南市","TOWNNAME":"永康區","MARKTYPE":"994","Class":"4"},"geometry":{"x":172680.21899999958,"y":2546787.6486000009}},{"attributes":{"OBJECTID":11186,"LANDMARKID":"1001100001231","LANDMARKCO":"408","LANDMARKNA":"郵局-永康大灣郵局","LANDMARKAD":"1001131","ADDRESS":"台南市永康區民族路244號","TEL":"(06)2713-784","COUNTYNAME":"台南市","TOWNNAME":"永康區","MARKTYPE":"994","Class":"4"},"geometry":{"x":175049.61199999973,"y":2545164.1246000007}},{"attributes":{"OBJECTID":11187,"LANDMARKID":"1001100001232","LANDMARKCO":"408","LANDMARKNA":"郵局-永康鹽行郵局","LANDMARKAD":"1001131","ADDRESS":"台南市永康區中正北路79號","TEL":"(06)2531-054","COUNTYNAME":"台南市","TOWNNAME":"永康區","MARKTYPE":"994","Class":"4"},"geometry":{"x":172105.40919999965,"y":2549098.568}},{"attributes":{"OBJECTID":11188,"LANDMARKID":"1001100001233","LANDMARKCO":"408","LANDMARKNA":"郵局-永康大橋郵局","LANDMARKAD":"1001131","ADDRESS":"台南市永康區中華路473號1F","TEL":"(06)2320-332","COUNTYNAME":"台南市","TOWNNAME":"永康區","MARKTYPE":"994","Class":"4"},"geometry":{"x":171272.89389999956,"y":2545740.7710999995}},{"attributes":{"OBJECTID":11189,"LANDMARKID":"1001100001234","LANDMARKCO":"408","LANDMARKNA":"郵局-永康崑山郵局","LANDMARKAD":"1001131","ADDRESS":"台南市永康區永大路2段3號","TEL":"(06)2715-182","COUNTYNAME":"台南市","TOWNNAME":"永康區","MARKTYPE":"994","Class":"4"},"geometry":{"x":174073.50439999998,"y":2544573.5379000008}},{"attributes":{"OBJECTID":11190,"LANDMARKID":"1001100001235","LANDMARKCO":"408","LANDMARKNA":"郵局-永康網寮郵局","LANDMARKAD":"1001131","ADDRESS":"台南市永康區小東路481號","TEL":"(06)3121-095","COUNTYNAME":"台南市","TOWNNAME":"永康區","MARKTYPE":"994","Class":"4"},"geometry":{"x":171593.93719999958,"y":2544347.6270000003}},{"attributes":{"OBJECTID":11191,"LANDMARKID":"1001100001236","LANDMARKCO":"408","LANDMARKNA":"郵局-永康王行郵局","LANDMARKAD":"1001131","ADDRESS":"台南市永康區永康工業區環工路6號","TEL":"(06)2338-750","COUNTYNAME":"台南市","TOWNNAME":"永康區","MARKTYPE":"994","Class":"4"},"geometry":{"x":175638.11459999997,"y":2549891.4177000001}},{"attributes":{"OBJECTID":11192,"LANDMARKID":"1001100001269","LANDMARKCO":"409","LANDMARKNA":"台南市永康區農會","LANDMARKAD":"1001131","ADDRESS":"台南市永康區中山南路635號","TEL":"06-2321121","COUNTYNAME":"台南市","TOWNNAME":"永康區","MARKTYPE":"994","Class":"4"},"geometry":{"x":173574.38829999976,"y":2547236.2827000003}},{"attributes":{"OBJECTID":11193,"LANDMARKID":"1001100001161","LANDMARKCO":"406","LANDMARKNA":"社區公園","LANDMARKAD":"1001131","ADDRESS":"台南市永康區","TEL":" ","COUNTYNAME":"台南市","TOWNNAME":"永康區","MARKTYPE":"994","Class":"4"},"geometry":{"x":170846.31099999975,"y":2546183.5480000004}},{"attributes":{"OBJECTID":11194,"LANDMARKID":"1001100000913","LANDMARKCO":"404","LANDMARKNA":"台灣省自來水永康服務所","LANDMARKAD":"1001131","ADDRESS":"台南市永康區中山南路316巷4號之1","TEL":" ","COUNTYNAME":"台南市","TOWNNAME":"永康區","MARKTYPE":"994","Class":"4"},"geometry":{"x":171887.66729999986,"y":2546210.4277999997}},{"attributes":{"OBJECTID":11195,"LANDMARKID":"1001100001160","LANDMARKCO":"406","LANDMARKNA":"永康區運動公園","LANDMARKAD":"1001131","ADDRESS":" ","TEL":" ","COUNTYNAME":"台南市","TOWNNAME":"永康區","MARKTYPE":"994","Class":"4"},"geometry":{"x":175467.15749999974,"y":2550672.9180999994}},{"attributes":{"OBJECTID":11196,"LANDMARKID":"1001100001179","LANDMARKCO":"407","LANDMARKNA":"小北百貨","LANDMARKAD":"1001131","ADDRESS":"台南市永康區中山南路70號?","TEL":"(06)2028880???","COUNTYNAME":"台南市","TOWNNAME":"永康區","MARKTYPE":"994","Class":"4"},"geometry":{"x":170916.59100000001,"y":2545890.8975000009}},{"attributes":{"OBJECTID":11197,"LANDMARKID":"1001100001002","LANDMARKCO":"405","LANDMARKNA":"台塑加油站-台亞鹽行站(台塑)","LANDMARKAD":"1001131","ADDRESS":"台南市永康區中正南路661號","TEL":"06-2432347","COUNTYNAME":"台南市","TOWNNAME":"永康區","MARKTYPE":"994","Class":"4"},"geometry":{"x":171456.22159999982,"y":2548763.8342000004}},{"attributes":{"OBJECTID":11198,"LANDMARKID":"1001100001003","LANDMARKCO":"405","LANDMARKNA":"台亞加油站-奇美站（台塑）","LANDMARKAD":"1001131","ADDRESS":"台南市永康區中華路995-1號","TEL":"(06)281-8655","COUNTYNAME":"台南市","TOWNNAME":"永康區","MARKTYPE":"994","Class":"4"},"geometry":{"x":169903.26240000036,"y":2547057.8374000005}},{"attributes":{"OBJECTID":11199,"LANDMARKID":"1001100001004","LANDMARKCO":"405","LANDMARKNA":"台亞加油站-鹽行站（台塑）","LANDMARKAD":"1001131","ADDRESS":"台南市永康區鹽行里中正南路661號","TEL":"(06)243-2347","COUNTYNAME":"台南市","TOWNNAME":"永康區","MARKTYPE":"994","Class":"4"},"geometry":{"x":171456.22159999982,"y":2548763.8342000004}},{"attributes":{"OBJECTID":11200,"LANDMARKID":"1001100001005","LANDMARKCO":"405","LANDMARKNA":"台塑加油站-久井站(台塑)","LANDMARKAD":"1001131","ADDRESS":"台南市永康區中華路1069號","TEL":"06-2829833","COUNTYNAME":"台南市","TOWNNAME":"永康區","MARKTYPE":"994","Class":"4"},"geometry":{"x":169152.15220000036,"y":2546985.3192999996}}]}