{"displayFieldName":"COUNTYNAME","fieldAliases":{"OBJECTID":"OBJECTID","LANDMARKID":"LANDMARKID","LANDMARKCO":"LANDMARKCO","LANDMARKNA":"LANDMARKNA","LANDMARKAD":"LANDMARKAD","ADDRESS":"ADDRESS","TEL":"TEL","COUNTYNAME":"COUNTYNAME","TOWNNAME":"TOWNNAME","MARKTYPE":"MARKTYPE","Class":"Class"},"geometryType":"esriGeometryPoint","spatialReference":{"wkid":102443},"fields":[{"name":"OBJECTID","type":"esriFieldTypeOID","alias":"OBJECTID"},{"name":"LANDMARKID","type":"esriFieldTypeString","alias":"LANDMARKID","length":15},{"name":"LANDMARKCO","type":"esriFieldTypeString","alias":"LANDMARKCO","length":15},{"name":"LANDMARKNA","type":"esriFieldTypeString","alias":"LANDMARKNA","length":50},{"name":"LANDMARKAD","type":"esriFieldTypeString","alias":"LANDMARKAD","length":15},{"name":"ADDRESS","type":"esriFieldTypeString","alias":"ADDRESS","length":56},{"name":"TEL","type":"esriFieldTypeString","alias":"TEL","length":36},{"name":"COUNTYNAME","type":"esriFieldTypeString","alias":"COUNTYNAME","length":15},{"name":"TOWNNAME","type":"esriFieldTypeString","alias":"TOWNNAME","length":13},{"name":"MARKTYPE","type":"esriFieldTypeString","alias":"MARKTYPE","length":12},{"name":"Class","type":"esriFieldTypeString","alias":"Class","length":5}],"features":[{"attributes":{"OBJECTID":5001,"LANDMARKID":"1000100001682","LANDMARKCO":"402","LANDMARKNA":"亞太行動寬頻電信-板橋民族加盟服務中心","LANDMARKAD":"1000101","ADDRESS":"新北市板橋區民族路121號","TEL":"02-29595000","COUNTYNAME":"新北市","TOWNNAME":"板橋區","MARKTYPE":"994","Class":"4"},"geometry":{"x":297148.99550000019,"y":2766762.8478999995}},{"attributes":{"OBJECTID":5002,"LANDMARKID":"1000100001683","LANDMARKCO":"402","LANDMARKNA":"亞太行動寬頻電信-板橋新海加盟服務中心","LANDMARKAD":"1000101","ADDRESS":"新北市板橋區新海路132號","TEL":"02-22588606","COUNTYNAME":"新北市","TOWNNAME":"板橋區","MARKTYPE":"994","Class":"4"},"geometry":{"x":296529.35360000003,"y":2768421.0772999991}},{"attributes":{"OBJECTID":5003,"LANDMARKID":"1000100001684","LANDMARKCO":"402","LANDMARKNA":"亞太行動寬頻電信-板橋中正加盟服務中心","LANDMARKAD":"1000101","ADDRESS":"新北市板橋區中正路150號","TEL":"02-29683026","COUNTYNAME":"新北市","TOWNNAME":"板橋區","MARKTYPE":"994","Class":"4"},"geometry":{"x":296103.00590000022,"y":2767691.5866999999}},{"attributes":{"OBJECTID":5004,"LANDMARKID":"1000100001620","LANDMARKCO":"401","LANDMARKNA":"板英醫院","LANDMARKAD":"1000101","ADDRESS":"新北市板橋區文化路一段267號","TEL":"02-82513923","COUNTYNAME":"新北市","TOWNNAME":"板橋區","MARKTYPE":"994","Class":"4"},"geometry":{"x":296890.68589999992,"y":2767903.7546999995}},{"attributes":{"OBJECTID":5005,"LANDMARKID":"1000100001621","LANDMARKCO":"401","LANDMARKNA":"板新醫院","LANDMARKAD":"1000101","ADDRESS":"新北市板橋區中正路189號","TEL":"02-29609955","COUNTYNAME":"新北市","TOWNNAME":"板橋區","MARKTYPE":"994","Class":"4"},"geometry":{"x":296066.07010000013,"y":2767721.7075999994}},{"attributes":{"OBJECTID":5006,"LANDMARKID":"1000100001622","LANDMARKCO":"401","LANDMARKNA":"德全醫院","LANDMARKAD":"1000101","ADDRESS":"新北市板橋區民權路11號","TEL":"02-29613212","COUNTYNAME":"新北市","TOWNNAME":"板橋區","MARKTYPE":"994","Class":"4"},"geometry":{"x":296714.68869999982,"y":2766981.4148999993}},{"attributes":{"OBJECTID":5007,"LANDMARKID":"1000100001623","LANDMARKCO":"401","LANDMARKNA":"中英醫院","LANDMARKAD":"1000101","ADDRESS":"新北市板橋區文化路一段196號","TEL":"02-22563584","COUNTYNAME":"新北市","TOWNNAME":"板橋區","MARKTYPE":"994","Class":"4"},"geometry":{"x":297057.16779999994,"y":2768060.1830000002}},{"attributes":{"OBJECTID":5008,"LANDMARKID":"1000100001624","LANDMARKCO":"401","LANDMARKNA":"蕭中正醫院","LANDMARKAD":"1000101","ADDRESS":"新北市板橋區南雅南路一段15之1號","TEL":"02-29685661","COUNTYNAME":"新北市","TOWNNAME":"板橋區","MARKTYPE":"994","Class":"4"},"geometry":{"x":296070.49679999985,"y":2766617.7068000007}},{"attributes":{"OBJECTID":5009,"LANDMARKID":"1000100001625","LANDMARKCO":"401","LANDMARKNA":"亞東紀念醫院","LANDMARKAD":"1000101","ADDRESS":"新北市板橋區南雅南路二段21號","TEL":"02-89667000","COUNTYNAME":"新北市","TOWNNAME":"板橋區","MARKTYPE":"994","Class":"4"},"geometry":{"x":295658.03320000041,"y":2765555.2267000005}},{"attributes":{"OBJECTID":5010,"LANDMARKID":"1000100001626","LANDMARKCO":"401","LANDMARKNA":"新北市立醫院-板橋院區","LANDMARKAD":"1000101","ADDRESS":"新北市板橋區英士路198號","TEL":"02-22575151","COUNTYNAME":"新北市","TOWNNAME":"板橋區","MARKTYPE":"994","Class":"4"},"geometry":{"x":296193.54750000034,"y":2768478.2704000007}},{"attributes":{"OBJECTID":5011,"LANDMARKID":"1000100001627","LANDMARKCO":"401","LANDMARKNA":"板橋國泰醫院","LANDMARKAD":"1000101","ADDRESS":"新北市板橋區福星里忠孝路5號","TEL":"02-29583333","COUNTYNAME":"新北市","TOWNNAME":"板橋區","MARKTYPE":"994","Class":"4"},"geometry":{"x":296422.72159999982,"y":2766068.4684999995}},{"attributes":{"OBJECTID":5012,"LANDMARKID":"1000100001628","LANDMARKCO":"401","LANDMARKNA":"板橋中興醫院","LANDMARKAD":"1000101","ADDRESS":"新北市板橋區福星里忠孝路15號","TEL":"02-29590707","COUNTYNAME":"新北市","TOWNNAME":"板橋區","MARKTYPE":"994","Class":"4"},"geometry":{"x":296461.74890000001,"y":2766076.3361000009}},{"attributes":{"OBJECTID":5013,"LANDMARKID":"1000100002621","LANDMARKCO":"507","LANDMARKNA":"林本源園邸","LANDMARKAD":"1000101","ADDRESS":"新北市板橋區劉芳里西門街42之65號","TEL":"02-29653061","COUNTYNAME":"新北市","TOWNNAME":"板橋區","MARKTYPE":"995","Class":"5"},"geometry":{"x":295957.59179999959,"y":2766914.3403999992}},{"attributes":{"OBJECTID":5014,"LANDMARKID":"1000100002622","LANDMARKCO":"507","LANDMARKNA":"大觀義學","LANDMARKAD":"1000101","ADDRESS":"新北市板橋區黃石里西門街5號","TEL":" ","COUNTYNAME":"新北市","TOWNNAME":"板橋區","MARKTYPE":"995","Class":"5"},"geometry":{"x":296033.03830000013,"y":2767202.7886999995}},{"attributes":{"OBJECTID":5015,"LANDMARKID":"1000100002623","LANDMARKCO":"507","LANDMARKNA":"枋橋建學碑","LANDMARKAD":"1000101","ADDRESS":"新北市板橋區文化路一段23號","TEL":" ","COUNTYNAME":"新北市","TOWNNAME":"板橋區","MARKTYPE":"995","Class":"5"},"geometry":{"x":296238.67229999974,"y":2767208.3113000002}},{"attributes":{"OBJECTID":5016,"LANDMARKID":"1000100002123","LANDMARKCO":"406","LANDMARKNA":"重慶公園","LANDMARKAD":"1000101","ADDRESS":"新北市板橋區","TEL":" ","COUNTYNAME":"新北市","TOWNNAME":"板橋區","MARKTYPE":"994","Class":"4"},"geometry":{"x":296865.8842000002,"y":2765858.7513999995}},{"attributes":{"OBJECTID":5017,"LANDMARKID":"1000100002291","LANDMARKCO":"408","LANDMARKNA":"郵局-板橋文化路郵局","LANDMARKAD":"1000101","ADDRESS":"新北市板橋區文化路1段395號","TEL":"(02)2257-0132","COUNTYNAME":"新北市","TOWNNAME":"板橋區","MARKTYPE":"994","Class":"4"},"geometry":{"x":297150.00850000046,"y":2768304.8302999996}},{"attributes":{"OBJECTID":5018,"LANDMARKID":"1000100002292","LANDMARKCO":"408","LANDMARKNA":"郵局-板橋大觀路郵局","LANDMARKAD":"1000101","ADDRESS":"新北市板橋區大觀路1段47號","TEL":"(02)2967-7792","COUNTYNAME":"新北市","TOWNNAME":"板橋區","MARKTYPE":"994","Class":"4"},"geometry":{"x":295242.8013000004,"y":2766709.6720000003}},{"attributes":{"OBJECTID":5019,"LANDMARKID":"1000100002293","LANDMARKCO":"408","LANDMARKNA":"郵局-板橋後埔郵局","LANDMARKAD":"1000101","ADDRESS":"新北市板橋區實踐路128號","TEL":"(02)2956-7536","COUNTYNAME":"新北市","TOWNNAME":"板橋區","MARKTYPE":"994","Class":"4"},"geometry":{"x":296569.0223000003,"y":2765247.9338000007}},{"attributes":{"OBJECTID":5020,"LANDMARKID":"1000100002294","LANDMARKCO":"408","LANDMARKNA":"郵局-板橋埔墘郵局","LANDMARKAD":"1000101","ADDRESS":"新北市板橋區中山路2段109號","TEL":"(02)2961-9785","COUNTYNAME":"新北市","TOWNNAME":"板橋區","MARKTYPE":"994","Class":"4"},"geometry":{"x":297893.94639999978,"y":2767669.1952999998}},{"attributes":{"OBJECTID":5021,"LANDMARKID":"1000100002295","LANDMARKCO":"408","LANDMARKNA":"郵局-板橋莒光郵局","LANDMARKAD":"1000101","ADDRESS":"新北市板橋區莒光路213號","TEL":"(02)2251-6574","COUNTYNAME":"新北市","TOWNNAME":"板橋區","MARKTYPE":"994","Class":"4"},"geometry":{"x":297860.29849999957,"y":2768407.3015999999}},{"attributes":{"OBJECTID":5022,"LANDMARKID":"1000100002296","LANDMARKCO":"408","LANDMARKNA":"郵局-板橋站前郵局","LANDMARKAD":"1000101","ADDRESS":"新北市板橋區府中路16號","TEL":"(02)2969-9837","COUNTYNAME":"新北市","TOWNNAME":"板橋區","MARKTYPE":"994","Class":"4"},"geometry":{"x":296441.55200000014,"y":2766941.3981999997}},{"attributes":{"OBJECTID":5023,"LANDMARKID":"1000100002297","LANDMARKCO":"408","LANDMARKNA":"郵局-板橋民族路郵局","LANDMARKAD":"1000101","ADDRESS":"新北市板橋區民族路263號","TEL":"(02)2952-6805","COUNTYNAME":"新北市","TOWNNAME":"板橋區","MARKTYPE":"994","Class":"4"},"geometry":{"x":297496.53689999972,"y":2766629.6182000004}},{"attributes":{"OBJECTID":5024,"LANDMARKID":"1000100002298","LANDMARKCO":"408","LANDMARKNA":"郵局-板橋中正路郵局","LANDMARKAD":"1000101","ADDRESS":"新北市板橋區中正路35號","TEL":"(02)2967-6806","COUNTYNAME":"新北市","TOWNNAME":"板橋區","MARKTYPE":"994","Class":"4"},"geometry":{"x":296040.73809999973,"y":2767304.8043000009}},{"attributes":{"OBJECTID":5025,"LANDMARKID":"1000100002299","LANDMARKCO":"408","LANDMARKNA":"郵局-板橋南雅郵局","LANDMARKAD":"1000101","ADDRESS":"新北市板橋區南雅南路1段123號","TEL":"(02)2966-4716","COUNTYNAME":"新北市","TOWNNAME":"板橋區","MARKTYPE":"994","Class":"4"},"geometry":{"x":295955.7106999997,"y":2766373.1611000001}},{"attributes":{"OBJECTID":5026,"LANDMARKID":"1000100002300","LANDMARKCO":"408","LANDMARKNA":"郵局-板橋國慶郵局","LANDMARKAD":"1000101","ADDRESS":"新北市板橋區國慶路132號","TEL":"(02)2964-5842","COUNTYNAME":"新北市","TOWNNAME":"板橋區","MARKTYPE":"994","Class":"4"},"geometry":{"x":296578.54970000032,"y":2765402.9013}},{"attributes":{"OBJECTID":5027,"LANDMARKID":"1000100002301","LANDMARKCO":"408","LANDMARKNA":"郵局-板橋新海郵局","LANDMARKAD":"1000101","ADDRESS":"新北市板橋區裕民街135號","TEL":"(02)2256-7944","COUNTYNAME":"新北市","TOWNNAME":"板橋區","MARKTYPE":"994","Class":"4"},"geometry":{"x":296323.84009999968,"y":2768872.7760000005}},{"attributes":{"OBJECTID":5028,"LANDMARKID":"1000100002302","LANDMARKCO":"408","LANDMARKNA":"郵局-板橋八甲郵局","LANDMARKAD":"1000101","ADDRESS":"新北市板橋區四川路2段123號1樓","TEL":"(02)8967-2293","COUNTYNAME":"新北市","TOWNNAME":"板橋區","MARKTYPE":"994","Class":"4"},"geometry":{"x":295541.86730000004,"y":2765190.6249000002}},{"attributes":{"OBJECTID":5029,"LANDMARKID":"1000100002303","LANDMARKCO":"408","LANDMARKNA":"郵局-板橋光復橋郵局","LANDMARKAD":"1000101","ADDRESS":"新北市板橋區中山路2段422-13號","TEL":"(02)2963-0620","COUNTYNAME":"新北市","TOWNNAME":"板橋區","MARKTYPE":"994","Class":"4"},"geometry":{"x":298821.75549999997,"y":2768229.8609999996}},{"attributes":{"OBJECTID":5030,"LANDMARKID":"1000100002304","LANDMARKCO":"408","LANDMARKNA":"郵局-板橋海山郵局","LANDMARKAD":"1000101","ADDRESS":"新北市板橋區漢生東路171號","TEL":"(02)2955-5800","COUNTYNAME":"新北市","TOWNNAME":"板橋區","MARKTYPE":"994","Class":"4"},"geometry":{"x":297385.43890000042,"y":2767216.9962000009}},{"attributes":{"OBJECTID":5031,"LANDMARKID":"1000100002305","LANDMARKCO":"408","LANDMARKNA":"郵局-板橋港尾郵局","LANDMARKAD":"1000101","ADDRESS":"新北市板橋區中正路332號","TEL":"(02)2968-9213","COUNTYNAME":"新北市","TOWNNAME":"板橋區","MARKTYPE":"994","Class":"4"},"geometry":{"x":295856.00569999963,"y":2768307.4747000001}},{"attributes":{"OBJECTID":5032,"LANDMARKID":"1000100002306","LANDMARKCO":"408","LANDMARKNA":"郵局-板橋江翠郵局","LANDMARKAD":"1000101","ADDRESS":"新北市板橋區仁化街40-1號","TEL":"(02)2253-4928","COUNTYNAME":"新北市","TOWNNAME":"板橋區","MARKTYPE":"994","Class":"4"},"geometry":{"x":297943.3646999998,"y":2769349.9793999996}},{"attributes":{"OBJECTID":5033,"LANDMARKID":"1000100002307","LANDMARKCO":"408","LANDMARKNA":"郵局-板橋漢生郵局","LANDMARKAD":"1000101","ADDRESS":"新北市板橋區國光路205號","TEL":"(02)2256-1119","COUNTYNAME":"新北市","TOWNNAME":"板橋區","MARKTYPE":"994","Class":"4"},"geometry":{"x":296621.74990000017,"y":2767922.7255000006}},{"attributes":{"OBJECTID":5034,"LANDMARKID":"1000100002308","LANDMARKCO":"408","LANDMARKNA":"郵局-板橋三民路郵局","LANDMARKAD":"1000101","ADDRESS":"新北市板橋區三民路1段120號","TEL":"(02)2951-8120","COUNTYNAME":"新北市","TOWNNAME":"板橋區","MARKTYPE":"994","Class":"4"},"geometry":{"x":298350.53490000032,"y":2768167.5464999992}},{"attributes":{"OBJECTID":5035,"LANDMARKID":"1000100002309","LANDMARKCO":"408","LANDMARKNA":"郵局-板橋浮洲郵局","LANDMARKAD":"1000101","ADDRESS":"新北市板橋區大觀路2段313號","TEL":"(02)2969-7993","COUNTYNAME":"新北市","TOWNNAME":"板橋區","MARKTYPE":"994","Class":"4"},"geometry":{"x":294590.47400000039,"y":2765687.9847999997}},{"attributes":{"OBJECTID":5036,"LANDMARKID":"1000100002310","LANDMARKCO":"408","LANDMARKNA":"郵局-新北市政府郵局","LANDMARKAD":"1000101","ADDRESS":"新北市板橋區中山路1段161號B1","TEL":"(02)8964-5399","COUNTYNAME":"新北市","TOWNNAME":"板橋區","MARKTYPE":"994","Class":"4"},"geometry":{"x":296996.36770000029,"y":2767195.4075000007}},{"attributes":{"OBJECTID":5037,"LANDMARKID":"1000100002311","LANDMARKCO":"408","LANDMARKNA":"郵局-板橋溪崑郵局","LANDMARKAD":"1000101","ADDRESS":"新北市板橋區金門街278號","TEL":"(02)2687-1194","COUNTYNAME":"新北市","TOWNNAME":"板橋區","MARKTYPE":"994","Class":"4"},"geometry":{"x":293363.0036000004,"y":2764308.4461000003}},{"attributes":{"OBJECTID":5038,"LANDMARKID":"1000100002472","LANDMARKCO":"409","LANDMARKNA":"新北市板橋區農會","LANDMARKAD":"1000101","ADDRESS":"新北市板橋區府中路29號","TEL":"02-89656868","COUNTYNAME":"新北市","TOWNNAME":"板橋區","MARKTYPE":"994","Class":"4"},"geometry":{"x":296274.8925999999,"y":2766765.2148000002}},{"attributes":{"OBJECTID":5039,"LANDMARKID":"1000100001862","LANDMARKCO":"404","LANDMARKNA":"台灣自來水板橋服務所","LANDMARKAD":"1000101","ADDRESS":"新北市板橋區三民路二段253號","TEL":"02-29612196","COUNTYNAME":"新北市","TOWNNAME":"板橋區","MARKTYPE":"994","Class":"4"},"geometry":{"x":298354.58660000004,"y":2767176.7377000004}},{"attributes":{"OBJECTID":5040,"LANDMARKID":"1000100001863","LANDMARKCO":"404","LANDMARKNA":"台灣省自來水板橋服務所","LANDMARKAD":"1000101","ADDRESS":"新北市板橋區三民路二段253號","TEL":" ","COUNTYNAME":"新北市","TOWNNAME":"板橋區","MARKTYPE":"994","Class":"4"},"geometry":{"x":298351.95920000039,"y":2767200.2633999996}},{"attributes":{"OBJECTID":5041,"LANDMARKID":"1000100001861","LANDMARKCO":"403","LANDMARKNA":"台灣電力公司北南區營業處","LANDMARKAD":"1000101","ADDRESS":"新北市板橋區四川路一段287號","TEL":" ","COUNTYNAME":"新北市","TOWNNAME":"板橋區","MARKTYPE":"994","Class":"4"},"geometry":{"x":296339.61500000022,"y":2765947.5671999995}},{"attributes":{"OBJECTID":5042,"LANDMARKID":"1000100002124","LANDMARKCO":"406","LANDMARKNA":"溪頭公園","LANDMARKAD":"1000101","ADDRESS":"新北市板橋區","TEL":" ","COUNTYNAME":"新北市","TOWNNAME":"板橋區","MARKTYPE":"994","Class":"4"},"geometry":{"x":297166.57139999978,"y":2769557.0939000007}},{"attributes":{"OBJECTID":5043,"LANDMARKID":"1000100002125","LANDMARKCO":"406","LANDMARKNA":"農村公園","LANDMARKAD":"1000101","ADDRESS":"新北市板橋區","TEL":" ","COUNTYNAME":"新北市","TOWNNAME":"板橋區","MARKTYPE":"994","Class":"4"},"geometry":{"x":297542.33640000038,"y":2769181.3026000001}},{"attributes":{"OBJECTID":5044,"LANDMARKID":"1000100002126","LANDMARKCO":"406","LANDMARKNA":"石雕公園","LANDMARKAD":"1000101","ADDRESS":"新北市板橋區","TEL":" ","COUNTYNAME":"新北市","TOWNNAME":"板橋區","MARKTYPE":"994","Class":"4"},"geometry":{"x":297422.43180000037,"y":2769117.1373999994}},{"attributes":{"OBJECTID":5045,"LANDMARKID":"1000100002127","LANDMARKCO":"406","LANDMARKNA":"茵園公園","LANDMARKAD":"1000101","ADDRESS":"新北市板橋區","TEL":" ","COUNTYNAME":"新北市","TOWNNAME":"板橋區","MARKTYPE":"994","Class":"4"},"geometry":{"x":295925.25540000014,"y":2768585.4440000001}},{"attributes":{"OBJECTID":5046,"LANDMARKID":"1000100002128","LANDMARKCO":"406","LANDMARKNA":"四維公園","LANDMARKAD":"1000101","ADDRESS":"新北市板橋區","TEL":" ","COUNTYNAME":"新北市","TOWNNAME":"板橋區","MARKTYPE":"994","Class":"4"},"geometry":{"x":296777.58609999996,"y":2768656.8087000009}},{"attributes":{"OBJECTID":5047,"LANDMARKID":"1000100002129","LANDMARKCO":"406","LANDMARKNA":"三號八德公園","LANDMARKAD":"1000101","ADDRESS":"新北市板橋區","TEL":" ","COUNTYNAME":"新北市","TOWNNAME":"板橋區","MARKTYPE":"994","Class":"4"},"geometry":{"x":298009.78320000041,"y":2768631.1969000008}},{"attributes":{"OBJECTID":5048,"LANDMARKID":"1000100002130","LANDMARKCO":"406","LANDMARKNA":"中山公園","LANDMARKAD":"1000101","ADDRESS":"新北市板橋區","TEL":" ","COUNTYNAME":"新北市","TOWNNAME":"板橋區","MARKTYPE":"994","Class":"4"},"geometry":{"x":297594.74480000045,"y":2768401.3729999997}},{"attributes":{"OBJECTID":5049,"LANDMARKID":"1000100002131","LANDMARKCO":"406","LANDMARKNA":"華江公園","LANDMARKAD":"1000101","ADDRESS":"新北市板橋區","TEL":" ","COUNTYNAME":"新北市","TOWNNAME":"板橋區","MARKTYPE":"994","Class":"4"},"geometry":{"x":297595.56579999998,"y":2768057.9297000002}},{"attributes":{"OBJECTID":5050,"LANDMARKID":"1000100002132","LANDMARKCO":"406","LANDMARKNA":"莊敬公園","LANDMARKAD":"1000101","ADDRESS":"新北市板橋區","TEL":" ","COUNTYNAME":"新北市","TOWNNAME":"板橋區","MARKTYPE":"994","Class":"4"},"geometry":{"x":297504.34480000008,"y":2768068.5665000007}},{"attributes":{"OBJECTID":5051,"LANDMARKID":"1000100002133","LANDMARKCO":"406","LANDMARKNA":"國光公園","LANDMARKAD":"1000101","ADDRESS":"新北市板橋區","TEL":" ","COUNTYNAME":"新北市","TOWNNAME":"板橋區","MARKTYPE":"994","Class":"4"},"geometry":{"x":295785.49700000044,"y":2768050.6053999998}},{"attributes":{"OBJECTID":5052,"LANDMARKID":"1000100002134","LANDMARKCO":"406","LANDMARKNA":"環河滑草公園","LANDMARKAD":"1000101","ADDRESS":"新北市板橋區","TEL":" ","COUNTYNAME":"新北市","TOWNNAME":"板橋區","MARKTYPE":"994","Class":"4"},"geometry":{"x":295487.47790000029,"y":2767759.3524999991}},{"attributes":{"OBJECTID":5053,"LANDMARKID":"1000100002135","LANDMARKCO":"406","LANDMARKNA":"民生公園","LANDMARKAD":"1000101","ADDRESS":"新北市板橋區","TEL":" ","COUNTYNAME":"新北市","TOWNNAME":"板橋區","MARKTYPE":"994","Class":"4"},"geometry":{"x":298054.67459999956,"y":2767379.6314000003}},{"attributes":{"OBJECTID":5054,"LANDMARKID":"1000100002136","LANDMARKCO":"406","LANDMARKNA":"板信公園","LANDMARKAD":"1000101","ADDRESS":"新北市板橋區","TEL":" ","COUNTYNAME":"新北市","TOWNNAME":"板橋區","MARKTYPE":"994","Class":"4"},"geometry":{"x":296112.03949999996,"y":2767242.5481000002}},{"attributes":{"OBJECTID":5055,"LANDMARKID":"1000100002137","LANDMARKCO":"406","LANDMARKNA":"站前公園","LANDMARKAD":"1000101","ADDRESS":"新北市板橋區","TEL":" ","COUNTYNAME":"新北市","TOWNNAME":"板橋區","MARKTYPE":"994","Class":"4"},"geometry":{"x":296306.13069999963,"y":2766882.0618999992}},{"attributes":{"OBJECTID":5056,"LANDMARKID":"1000100002138","LANDMARKCO":"406","LANDMARKNA":"介壽公園","LANDMARKAD":"1000101","ADDRESS":"新北市板橋區","TEL":" ","COUNTYNAME":"新北市","TOWNNAME":"板橋區","MARKTYPE":"994","Class":"4"},"geometry":{"x":296713.21659999993,"y":2766795.6324000005}},{"attributes":{"OBJECTID":5057,"LANDMARKID":"1000100002139","LANDMARKCO":"406","LANDMARKNA":"元智紀念公園","LANDMARKAD":"1000101","ADDRESS":"新北市板橋區","TEL":" ","COUNTYNAME":"新北市","TOWNNAME":"板橋區","MARKTYPE":"994","Class":"4"},"geometry":{"x":295653.64109999966,"y":2765771.7502999995}},{"attributes":{"OBJECTID":5058,"LANDMARKID":"1000100002140","LANDMARKCO":"406","LANDMARKNA":"環河公園","LANDMARKAD":"1000101","ADDRESS":"新北市板橋區","TEL":" ","COUNTYNAME":"新北市","TOWNNAME":"板橋區","MARKTYPE":"994","Class":"4"},"geometry":{"x":295491.38750000019,"y":2765715.4609999992}},{"attributes":{"OBJECTID":5059,"LANDMARKID":"1000100002141","LANDMARKCO":"406","LANDMARKNA":"忠孝公園","LANDMARKAD":"1000101","ADDRESS":"新北市板橋區","TEL":" ","COUNTYNAME":"新北市","TOWNNAME":"板橋區","MARKTYPE":"994","Class":"4"},"geometry":{"x":296450.45040000044,"y":2765445.7854999993}},{"attributes":{"OBJECTID":5060,"LANDMARKID":"1000100002142","LANDMARKCO":"406","LANDMARKNA":"五權公園","LANDMARKAD":"1000101","ADDRESS":"新北市板橋區","TEL":" ","COUNTYNAME":"新北市","TOWNNAME":"板橋區","MARKTYPE":"994","Class":"4"},"geometry":{"x":296904.14549999963,"y":2765021.4853000008}},{"attributes":{"OBJECTID":5061,"LANDMARKID":"1000100002143","LANDMARKCO":"406","LANDMARKNA":"廣福公園","LANDMARKAD":"1000101","ADDRESS":"新北市板橋區","TEL":" ","COUNTYNAME":"新北市","TOWNNAME":"板橋區","MARKTYPE":"994","Class":"4"},"geometry":{"x":296737.66739999969,"y":2764934.0870999992}},{"attributes":{"OBJECTID":5062,"LANDMARKID":"1000100002144","LANDMARKCO":"406","LANDMARKNA":"溪北公園","LANDMARKAD":"1000101","ADDRESS":"新北市板橋區","TEL":" ","COUNTYNAME":"新北市","TOWNNAME":"板橋區","MARKTYPE":"994","Class":"4"},"geometry":{"x":293534.69429999962,"y":2764653.4028999992}},{"attributes":{"OBJECTID":5063,"LANDMARKID":"1000100002145","LANDMARKCO":"406","LANDMARKNA":"扶輪公園","LANDMARKAD":"1000101","ADDRESS":"新北市板橋區","TEL":" ","COUNTYNAME":"新北市","TOWNNAME":"板橋區","MARKTYPE":"994","Class":"4"},"geometry":{"x":293090.90710000042,"y":2763635.8285000008}},{"attributes":{"OBJECTID":5064,"LANDMARKID":"1000100002146","LANDMARKCO":"406","LANDMARKNA":"和平公園","LANDMARKAD":"1000101","ADDRESS":"新北市板橋區","TEL":" ","COUNTYNAME":"新北市","TOWNNAME":"板橋區","MARKTYPE":"994","Class":"4"},"geometry":{"x":296907.09439999983,"y":2765563.8354000002}},{"attributes":{"OBJECTID":5065,"LANDMARKID":"1000100002147","LANDMARKCO":"406","LANDMARKNA":"信義公園","LANDMARKAD":"1000101","ADDRESS":"新北市板橋區","TEL":" ","COUNTYNAME":"新北市","TOWNNAME":"板橋區","MARKTYPE":"994","Class":"4"},"geometry":{"x":296198.03270000033,"y":2765007.9660999998}},{"attributes":{"OBJECTID":5066,"LANDMARKID":"1000100002148","LANDMARKCO":"406","LANDMARKNA":"光復公園","LANDMARKAD":"1000101","ADDRESS":"新北市板橋區","TEL":" ","COUNTYNAME":"新北市","TOWNNAME":"板橋區","MARKTYPE":"994","Class":"4"},"geometry":{"x":299158.2313000001,"y":2768557.1094000004}},{"attributes":{"OBJECTID":5067,"LANDMARKID":"1000100002149","LANDMARKCO":"406","LANDMARKNA":"板橋第二運動場","LANDMARKAD":"1000101","ADDRESS":"新北市板橋區","TEL":" ","COUNTYNAME":"新北市","TOWNNAME":"板橋區","MARKTYPE":"994","Class":"4"},"geometry":{"x":296264.59939999972,"y":2767335.4946999997}},{"attributes":{"OBJECTID":5068,"LANDMARKID":"1000100002150","LANDMARKCO":"406","LANDMARKNA":"浮洲運動公園","LANDMARKAD":"1000101","ADDRESS":"新北市板橋區浮洲里","TEL":" ","COUNTYNAME":"新北市","TOWNNAME":"板橋區","MARKTYPE":"994","Class":"4"},"geometry":{"x":295415.88480000012,"y":2767331.3742999993}},{"attributes":{"OBJECTID":5069,"LANDMARKID":"1000100002271","LANDMARKCO":"407","LANDMARKNA":"小北百貨","LANDMARKAD":"1000101","ADDRESS":"新北市板橋區長江路二段146-1號","TEL":"02-22577885_","COUNTYNAME":"新北市","TOWNNAME":"板橋區","MARKTYPE":"994","Class":"4"},"geometry":{"x":297048.68269999977,"y":2769384.5475999992}},{"attributes":{"OBJECTID":5070,"LANDMARKID":"1000100002272","LANDMARKCO":"407","LANDMARKNA":"遠東百貨","LANDMARKAD":"1000101","ADDRESS":"新北市板橋區中山路一段152號","TEL":"02-89525678","COUNTYNAME":"新北市","TOWNNAME":"板橋區","MARKTYPE":"994","Class":"4"},"geometry":{"x":296867.0083999997,"y":2767088.7064999994}},{"attributes":{"OBJECTID":5071,"LANDMARKID":"1000100002273","LANDMARKCO":"407","LANDMARKNA":"誠品Eslite","LANDMARKAD":"1000101","ADDRESS":"新北市板橋區中山路一段46號5F","TEL":"02-2959-8899","COUNTYNAME":"新北市","TOWNNAME":"板橋區","MARKTYPE":"994","Class":"4"},"geometry":{"x":296516.35610000044,"y":2766840.2813000008}},{"attributes":{"OBJECTID":5072,"LANDMARKID":"1000100002081","LANDMARKCO":"405","LANDMARKNA":"台亞加油站-板橋浮洲橋站（台塑）","LANDMARKAD":"1000101","ADDRESS":"新北市板橋區篤行路一段33號","TEL":"(02)8687-2061","COUNTYNAME":"新北市","TOWNNAME":"板橋區","MARKTYPE":"994","Class":"4"},"geometry":{"x":293629.27400000021,"y":2765205.7072999999}},{"attributes":{"OBJECTID":5073,"LANDMARKID":"1000100002082","LANDMARKCO":"405","LANDMARKNA":"全國加油站-板橋站（台塑）","LANDMARKAD":"1000101","ADDRESS":"新北市板橋區中山路一段238號","TEL":"02-29545525","COUNTYNAME":"新北市","TOWNNAME":"板橋區","MARKTYPE":"994","Class":"4"},"geometry":{"x":297548.49610000011,"y":2767429.8388999999}},{"attributes":{"OBJECTID":5074,"LANDMARKID":"1000100002083","LANDMARKCO":"405","LANDMARKNA":"台亞加油站-華江橋站（台塑）","LANDMARKAD":"1000101","ADDRESS":"新北市板橋區文化路二段612號","TEL":"(02)2254-2159","COUNTYNAME":"新北市","TOWNNAME":"板橋區","MARKTYPE":"994","Class":"4"},"geometry":{"x":298193.33430000022,"y":2769753.8955000006}},{"attributes":{"OBJECTID":5075,"LANDMARKID":"1000100002084","LANDMARKCO":"405","LANDMARKNA":"台亞加油站-板橋文化路站（台塑）","LANDMARKAD":"1000101","ADDRESS":"新北市板橋區文化路二段262號","TEL":"(02)8251-1038","COUNTYNAME":"新北市","TOWNNAME":"板橋區","MARKTYPE":"994","Class":"4"},"geometry":{"x":297572.55669999961,"y":2769021}},{"attributes":{"OBJECTID":5076,"LANDMARKID":"1000100000276","LANDMARKCO":"107","LANDMARKNA":"新北市消防局大觀分隊","LANDMARKAD":"1000101","ADDRESS":"新北市板橋區大觀路一段38巷1之3號","TEL":"02-29666144","COUNTYNAME":"新北市","TOWNNAME":"板橋區","MARKTYPE":"991","Class":"1"},"geometry":{"x":295071.49590000045,"y":2766309.3186000008}},{"attributes":{"OBJECTID":5077,"LANDMARKID":"1000100000277","LANDMARKCO":"107","LANDMARKNA":"新北市消防局板橋分隊","LANDMARKAD":"1000101","ADDRESS":"新北市板橋區民族路57號","TEL":"02-29554614","COUNTYNAME":"新北市","TOWNNAME":"板橋區","MARKTYPE":"991","Class":"1"},"geometry":{"x":296909.30520000029,"y":2766869.7100000009}},{"attributes":{"OBJECTID":5078,"LANDMARKID":"1000100000278","LANDMARKCO":"107","LANDMARKNA":"新北市消防局民生分隊","LANDMARKAD":"1000101","ADDRESS":"新北市板橋區民生路二段56之2號","TEL":"02-29563260","COUNTYNAME":"新北市","TOWNNAME":"板橋區","MARKTYPE":"991","Class":"1"},"geometry":{"x":297445.91629999969,"y":2767969.7789999992}},{"attributes":{"OBJECTID":5079,"LANDMARKID":"1000100000279","LANDMARKCO":"107","LANDMARKNA":"新北市政府警察局江翠派出所","LANDMARKAD":"1000101","ADDRESS":"新北市板橋區大同街14號","TEL":"02-22512588","COUNTYNAME":"新北市","TOWNNAME":"板橋區","MARKTYPE":"991","Class":"1"},"geometry":{"x":297752.36560000014,"y":2769349.6677000001}},{"attributes":{"OBJECTID":5080,"LANDMARKID":"1000100000075","LANDMARKCO":"103","LANDMARKNA":"新北市政府衛生局","LANDMARKAD":"1000101","ADDRESS":"新北市板橋區英士路192-1號","TEL":"02-22577155","COUNTYNAME":"新北市","TOWNNAME":"板橋區","MARKTYPE":"991","Class":"1"},"geometry":{"x":296236.63769999985,"y":2768444.1395999994}},{"attributes":{"OBJECTID":5081,"LANDMARKID":"1000100000076","LANDMARKCO":"103","LANDMARKNA":"新北市板橋巿衛生所","LANDMARKAD":"1000101","ADDRESS":"新北市板橋區英士路192號3樓","TEL":"02-22582384","COUNTYNAME":"新北市","TOWNNAME":"板橋區","MARKTYPE":"991","Class":"1"},"geometry":{"x":296255.66530000046,"y":2768437.4606999997}},{"attributes":{"OBJECTID":5082,"LANDMARKID":"1000100000419","LANDMARKCO":"108","LANDMARKNA":"新北市板橋區公所","LANDMARKAD":"1000101","ADDRESS":"新北市板橋區府中路30號","TEL":"02-29686911","COUNTYNAME":"新北市","TOWNNAME":"板橋區","MARKTYPE":"991","Class":"1"},"geometry":{"x":296340.5700000003,"y":2766923.5473999996}},{"attributes":{"OBJECTID":5083,"LANDMARKID":"1000100000077","LANDMARKCO":"103","LANDMARKNA":"新北市政府文化局","LANDMARKAD":"1000101","ADDRESS":"新北市板橋區中山路一段161號28樓","TEL":"02-29603456","COUNTYNAME":"新北市","TOWNNAME":"板橋區","MARKTYPE":"991","Class":"1"},"geometry":{"x":296996.20600000024,"y":2767195.8808999993}},{"attributes":{"OBJECTID":5084,"LANDMARKID":"1000100000021","LANDMARKCO":"101","LANDMARKNA":"國軍退除役官兵輔導委員會","LANDMARKAD":"1000101","ADDRESS":"新北市板橋區實踐路5號","TEL":"02-29530844","COUNTYNAME":"新北市","TOWNNAME":"板橋區","MARKTYPE":"991","Class":"1"},"geometry":{"x":296785.97350000031,"y":2766773.1882000007}},{"attributes":{"OBJECTID":5085,"LANDMARKID":"1000100000079","LANDMARKCO":"103","LANDMARKNA":"板橋區衛生所後埔保健站","LANDMARKAD":"1000101","ADDRESS":"新北市板橋區民族路8號","TEL":"02-29616459","COUNTYNAME":"新北市","TOWNNAME":"板橋區","MARKTYPE":"991","Class":"1"},"geometry":{"x":296596.94539999962,"y":2766925.7569999993}},{"attributes":{"OBJECTID":5086,"LANDMARKID":"1000100000080","LANDMARKCO":"103","LANDMARKNA":"新北市板橋區市民代表會","LANDMARKAD":"1000101","ADDRESS":"新北市板橋區府中路30號5樓","TEL":"02-29687825","COUNTYNAME":"新北市","TOWNNAME":"板橋區","MARKTYPE":"991","Class":"1"},"geometry":{"x":296340.5700000003,"y":2766923.5473999996}},{"attributes":{"OBJECTID":5087,"LANDMARKID":"1000100000081","LANDMARKCO":"103","LANDMARKNA":"新北市政府","LANDMARKAD":"1000101","ADDRESS":"新北市板橋區中山路一段161號","TEL":"02-29603456","COUNTYNAME":"新北市","TOWNNAME":"板橋區","MARKTYPE":"991","Class":"1"},"geometry":{"x":296996.20600000024,"y":2767195.8808999993}},{"attributes":{"OBJECTID":5088,"LANDMARKID":"1000100000280","LANDMARKCO":"107","LANDMARKNA":"新北市消防局新北市消防局","LANDMARKAD":"1000101","ADDRESS":"新北市板橋區莒光路161號","TEL":"02-22535110","COUNTYNAME":"新北市","TOWNNAME":"板橋區","MARKTYPE":"991","Class":"1"},"geometry":{"x":297829.89309999999,"y":2768552.4233999997}},{"attributes":{"OBJECTID":5089,"LANDMARKID":"1000100000281","LANDMARKCO":"107","LANDMARKNA":"新北市消防局莒光分隊","LANDMARKAD":"1000101","ADDRESS":"新北市板橋區莒光路161號","TEL":"02-22515614","COUNTYNAME":"新北市","TOWNNAME":"板橋區","MARKTYPE":"991","Class":"1"},"geometry":{"x":297829.89309999999,"y":2768552.4233999997}},{"attributes":{"OBJECTID":5090,"LANDMARKID":"1000100000282","LANDMARKCO":"107","LANDMARKNA":"新北市消防局海山分隊","LANDMARKAD":"1000101","ADDRESS":"新北市板橋區英士路151號","TEL":"02-22596285","COUNTYNAME":"新北市","TOWNNAME":"板橋區","MARKTYPE":"991","Class":"1"},"geometry":{"x":296419.69049999956,"y":2768519.0055}},{"attributes":{"OBJECTID":5091,"LANDMARKID":"1000100000283","LANDMARKCO":"107","LANDMARKNA":"新北市政府警察局","LANDMARKAD":"1000101","ADDRESS":"新北市板橋區府中路32號","TEL":"02-80725454","COUNTYNAME":"新北市","TOWNNAME":"板橋區","MARKTYPE":"991","Class":"1"},"geometry":{"x":296273.7137000002,"y":2766948.3800000008}},{"attributes":{"OBJECTID":5092,"LANDMARKID":"1000100000284","LANDMARKCO":"107","LANDMARKNA":"新北市政府警察局板橋分局","LANDMARKAD":"1000101","ADDRESS":"新北市板橋區挹秀里文化路一段52號","TEL":"02-29686111","COUNTYNAME":"新北市","TOWNNAME":"板橋區","MARKTYPE":"991","Class":"1"},"geometry":{"x":296437.78760000039,"y":2767232.2317999993}},{"attributes":{"OBJECTID":5093,"LANDMARKID":"1000100000285","LANDMARKCO":"107","LANDMARKNA":"新北市政府警察局沙崙派出所","LANDMARKAD":"1000101","ADDRESS":"新北市板橋區溪北里溪北路111號","TEL":"02-26812741","COUNTYNAME":"新北市","TOWNNAME":"板橋區","MARKTYPE":"991","Class":"1"},"geometry":{"x":293441.81649999972,"y":2764561.5667000003}},{"attributes":{"OBJECTID":5094,"LANDMARKID":"1000100000286","LANDMARKCO":"107","LANDMARKNA":"新北市政府警察局大觀派出所","LANDMARKAD":"1000101","ADDRESS":"新北市板橋區大安里大觀路二段127號","TEL":"02-22752477","COUNTYNAME":"新北市","TOWNNAME":"板橋區","MARKTYPE":"991","Class":"1"},"geometry":{"x":295014.28380000032,"y":2765989.3490999993}},{"attributes":{"OBJECTID":5095,"LANDMARKID":"1000100000287","LANDMARKCO":"107","LANDMARKNA":"新北市政府警察局後埔派出所","LANDMARKAD":"1000101","ADDRESS":"新北市板橋區福星里成都街22號","TEL":"02-29615964","COUNTYNAME":"新北市","TOWNNAME":"板橋區","MARKTYPE":"991","Class":"1"},"geometry":{"x":296517.0887000002,"y":2766387.3987000007}},{"attributes":{"OBJECTID":5096,"LANDMARKID":"1000100000288","LANDMARKCO":"107","LANDMARKNA":"新北市政府警察局板橋派出所","LANDMARKAD":"1000101","ADDRESS":"新北市板橋區挹秀里文化路一段52號","TEL":"02-29699446","COUNTYNAME":"新北市","TOWNNAME":"板橋區","MARKTYPE":"991","Class":"1"},"geometry":{"x":296437.78760000039,"y":2767232.2317999993}},{"attributes":{"OBJECTID":5097,"LANDMARKID":"1000100000289","LANDMARKCO":"107","LANDMARKNA":"新北市政府警察局海山分局","LANDMARKAD":"1000101","ADDRESS":"新北市板橋區漢生東路195號","TEL":"02-29640322","COUNTYNAME":"新北市","TOWNNAME":"板橋區","MARKTYPE":"991","Class":"1"},"geometry":{"x":297438.40670000017,"y":2767133.9734000005}},{"attributes":{"OBJECTID":5098,"LANDMARKID":"1000100000290","LANDMARKCO":"107","LANDMARKNA":"新北市政府警察局海山派出所","LANDMARKAD":"1000101","ADDRESS":"新北市板橋區漢生東路195號","TEL":"02-29574370","COUNTYNAME":"新北市","TOWNNAME":"板橋區","MARKTYPE":"991","Class":"1"},"geometry":{"x":297438.40670000017,"y":2767133.9734000005}},{"attributes":{"OBJECTID":5099,"LANDMARKID":"1000100000291","LANDMARKCO":"107","LANDMARKNA":"新北市政府警察局新海派出所","LANDMARKAD":"1000101","ADDRESS":"新北市板橋區英士路151號","TEL":"02-22586867","COUNTYNAME":"新北市","TOWNNAME":"板橋區","MARKTYPE":"991","Class":"1"},"geometry":{"x":296419.69049999956,"y":2768519.0055}},{"attributes":{"OBJECTID":5100,"LANDMARKID":"1000100000292","LANDMARKCO":"107","LANDMARKNA":"新北市政府警察局埔墘派出所","LANDMARKAD":"1000101","ADDRESS":"新北市板橋區中山路二段286號","TEL":"02-29558223","COUNTYNAME":"新北市","TOWNNAME":"板橋區","MARKTYPE":"991","Class":"1"},"geometry":{"x":298403.49289999995,"y":2767935.1556000002}},{"attributes":{"OBJECTID":5101,"LANDMARKID":"1000100000078","LANDMARKCO":"103","LANDMARKNA":"新北市政府民政局","LANDMARKAD":"1000101","ADDRESS":"新北市板橋區中山路一段161號14樓","TEL":"02-29603456","COUNTYNAME":"新北市","TOWNNAME":"板橋區","MARKTYPE":"991","Class":"1"},"geometry":{"x":296996.20600000024,"y":2767195.8808999993}},{"attributes":{"OBJECTID":5102,"LANDMARKID":"1000100000159","LANDMARKCO":"106","LANDMARKNA":"新北市板橋區戶政事務所","LANDMARKAD":"1000101","ADDRESS":"新北市板橋區中正路6號","TEL":"02-29655656","COUNTYNAME":"新北市","TOWNNAME":"板橋區","MARKTYPE":"991","Class":"1"},"geometry":{"x":296066.8284,"y":2767264.0198999997}},{"attributes":{"OBJECTID":5103,"LANDMARKID":"1000100000160","LANDMARKCO":"106","LANDMARKNA":"新北市板橋區戶政事務所海山辦","LANDMARKAD":"1000101","ADDRESS":"新北市板橋區9鄰漢生東路195之1號","TEL":"02-29580977","COUNTYNAME":"新北市","TOWNNAME":"板橋區","MARKTYPE":"991","Class":"1"},"geometry":{"x":297458.03849999979,"y":2767149.1182000004}},{"attributes":{"OBJECTID":5104,"LANDMARKID":"1000100000135","LANDMARKCO":"105","LANDMARKNA":"新北市政府地政局","LANDMARKAD":"1000101","ADDRESS":"新北市板橋區中山路一段161號23.24樓","TEL":"02-29603456","COUNTYNAME":"新北市","TOWNNAME":"板橋區","MARKTYPE":"991","Class":"1"},"geometry":{"x":296996.20600000024,"y":2767195.8808999993}},{"attributes":{"OBJECTID":5105,"LANDMARKID":"1000100000136","LANDMARKCO":"105","LANDMARKNA":"新北市板橋地政事務所","LANDMARKAD":"1000101","ADDRESS":"新北市板橋區實踐路1號","TEL":"02-29611126","COUNTYNAME":"新北市","TOWNNAME":"板橋區","MARKTYPE":"991","Class":"1"},"geometry":{"x":296779.1222000001,"y":2766815.8827}},{"attributes":{"OBJECTID":5106,"LANDMARKID":"1000100000129","LANDMARKCO":"104","LANDMARKNA":"北區國稅局新北市分局第一辦公","LANDMARKAD":"1000101","ADDRESS":"新北市板橋區重慶路260號4樓","TEL":"02-29553569","COUNTYNAME":"新北市","TOWNNAME":"板橋區","MARKTYPE":"991","Class":"1"},"geometry":{"x":296719.55819999985,"y":2765930.8370999992}},{"attributes":{"OBJECTID":5107,"LANDMARKID":"1000100000022","LANDMARKCO":"101","LANDMARKNA":"台灣板橋地方法院板橋簡易庭","LANDMARKAD":"1000101","ADDRESS":"新北市板橋區民生路一段30巷1號","TEL":"02-29617322","COUNTYNAME":"新北市","TOWNNAME":"板橋區","MARKTYPE":"991","Class":"1"},"geometry":{"x":298064.00850000046,"y":2767451.0614}},{"attributes":{"OBJECTID":5108,"LANDMARKID":"1000100000023","LANDMARKCO":"101","LANDMARKNA":"調查局新北市調查處","LANDMARKAD":"1000101","ADDRESS":"新北市板橋區漢生東路193巷2號","TEL":"02-29642121","COUNTYNAME":"新北市","TOWNNAME":"板橋區","MARKTYPE":"991","Class":"1"},"geometry":{"x":297539.83000000007,"y":2767197.2534999996}},{"attributes":{"OBJECTID":5109,"LANDMARKID":"1000100000074","LANDMARKCO":"103","LANDMARKNA":"新北市議會","LANDMARKAD":"1000101","ADDRESS":"新北市板橋區文化路二段166號","TEL":"02-22521212","COUNTYNAME":"新北市","TOWNNAME":"板橋區","MARKTYPE":"991","Class":"1"},"geometry":{"x":297523.63850000035,"y":2768853.6921999995}},{"attributes":{"OBJECTID":5110,"LANDMARKID":"1000100000024","LANDMARKCO":"101","LANDMARKNA":"職業訓練局板橋就業服務站","LANDMARKAD":"1000101","ADDRESS":"新北市板橋區漢生東路163號","TEL":"02-29598856","COUNTYNAME":"新北市","TOWNNAME":"板橋區","MARKTYPE":"991","Class":"1"},"geometry":{"x":297374.95349999983,"y":2767235.1155999992}},{"attributes":{"OBJECTID":5111,"LANDMARKID":"1000100000071","LANDMARKCO":"103","LANDMARKNA":"新北市政府環境保護局","LANDMARKAD":"1000101","ADDRESS":"新北市板橋區中山路一段161號26~27樓","TEL":"02-29603456","COUNTYNAME":"新北市","TOWNNAME":"板橋區","MARKTYPE":"991","Class":"1"},"geometry":{"x":296996.20600000024,"y":2767195.8808999993}},{"attributes":{"OBJECTID":5112,"LANDMARKID":"1000100000072","LANDMARKCO":"103","LANDMARKNA":"新北市政府社會局","LANDMARKAD":"1000101","ADDRESS":"新北市板橋區中山路一段161號25樓","TEL":"02-29603456","COUNTYNAME":"新北市","TOWNNAME":"板橋區","MARKTYPE":"991","Class":"1"},"geometry":{"x":296996.20600000024,"y":2767195.8808999993}},{"attributes":{"OBJECTID":5113,"LANDMARKID":"1000100000073","LANDMARKCO":"103","LANDMARKNA":"新北市審計室","LANDMARKAD":"1000101","ADDRESS":"新北市板橋區重慶路112號3樓","TEL":"02-29640947","COUNTYNAME":"新北市","TOWNNAME":"板橋區","MARKTYPE":"991","Class":"1"},"geometry":{"x":296639.83710000012,"y":2766440.3066000007}},{"attributes":{"OBJECTID":5114,"LANDMARKID":"1000100000025","LANDMARKCO":"101","LANDMARKNA":"交通部高速鐵路工程局","LANDMARKAD":"1000101","ADDRESS":"板橋區縣民大道二段7號9樓","TEL":"02-80723333","COUNTYNAME":"新北市","TOWNNAME":"板橋區","MARKTYPE":"991","Class":"1"},"geometry":{"x":296794.5131000001,"y":2767444.1279000007}},{"attributes":{"OBJECTID":5115,"LANDMARKID":"1000100000070","LANDMARKCO":"103","LANDMARKNA":"新北市立殯儀館","LANDMARKAD":"1000101","ADDRESS":"新北市板橋區中正路560號","TEL":"02-22571207","COUNTYNAME":"新北市","TOWNNAME":"板橋區","MARKTYPE":"991","Class":"1"},"geometry":{"x":296102.58640000038,"y":2769023.0984000005}},{"attributes":{"OBJECTID":5116,"LANDMARKID":"1000100000898","LANDMARKCO":"205","LANDMARKNA":"石尚礦物化石博物館","LANDMARKAD":"1000101","ADDRESS":"新北市板橋區文化路二段442號","TEL":"02-22578876","COUNTYNAME":"新北市","TOWNNAME":"板橋區","MARKTYPE":"992","Class":"2"},"geometry":{"x":297895.48029999994,"y":2769409.8920000009}},{"attributes":{"OBJECTID":5117,"LANDMARKID":"1000100000899","LANDMARKCO":"205","LANDMARKNA":"新北市現代陶瓷館","LANDMARKAD":"1000101","ADDRESS":"新北市板橋區莊敬路62號","TEL":" ","COUNTYNAME":"新北市","TOWNNAME":"板橋區","MARKTYPE":"992","Class":"2"},"geometry":{"x":297636.96059999987,"y":2768707.9982999992}},{"attributes":{"OBJECTID":5118,"LANDMARKID":"1000100000856","LANDMARKCO":"204","LANDMARKNA":"新北市立圖書館板橋分館","LANDMARKAD":"1000101","ADDRESS":"新北市板橋區文化路一段23號","TEL":" ","COUNTYNAME":"新北市","TOWNNAME":"板橋區","MARKTYPE":"992","Class":"2"},"geometry":{"x":296254.46399999969,"y":2767065.0784000009}},{"attributes":{"OBJECTID":5119,"LANDMARKID":"1000100000857","LANDMARKCO":"204","LANDMARKNA":"新北市立圖書館國光分館","LANDMARKAD":"1000101","ADDRESS":"新北市板橋區中正路375巷48號3樓","TEL":" ","COUNTYNAME":"新北市","TOWNNAME":"板橋區","MARKTYPE":"992","Class":"2"},"geometry":{"x":295839.23709999956,"y":2768138.0170000009}},{"attributes":{"OBJECTID":5120,"LANDMARKID":"1000100000858","LANDMARKCO":"204","LANDMARKNA":"新北市立圖書館四維分館","LANDMARKAD":"1000101","ADDRESS":"新北市板橋區陽明街166號","TEL":" ","COUNTYNAME":"新北市","TOWNNAME":"板橋區","MARKTYPE":"992","Class":"2"},"geometry":{"x":296782.39010000043,"y":2768534.1993000004}},{"attributes":{"OBJECTID":5121,"LANDMARKID":"1000100000859","LANDMARKCO":"204","LANDMARKNA":"新北市立圖書館民生分館","LANDMARKAD":"1000101","ADDRESS":"新北市板橋區民生路一段30號2樓","TEL":" ","COUNTYNAME":"新北市","TOWNNAME":"板橋區","MARKTYPE":"992","Class":"2"},"geometry":{"x":297901.77419999987,"y":2767390.9737999998}},{"attributes":{"OBJECTID":5122,"LANDMARKID":"1000100000860","LANDMARKCO":"204","LANDMARKNA":"新北市立圖書館忠孝分館","LANDMARKAD":"1000101","ADDRESS":"新北市板橋區國慶路149巷21弄16號","TEL":" ","COUNTYNAME":"新北市","TOWNNAME":"板橋區","MARKTYPE":"992","Class":"2"},"geometry":{"x":296507.94120000023,"y":2765532.9008000009}},{"attributes":{"OBJECTID":5123,"LANDMARKID":"1000100000861","LANDMARKCO":"204","LANDMARKNA":"新北市立圖書館溪北分館","LANDMARKAD":"1000101","ADDRESS":"新北市板橋區篤行路二段133號","TEL":" ","COUNTYNAME":"新北市","TOWNNAME":"板橋區","MARKTYPE":"992","Class":"2"},"geometry":{"x":293540.94120000023,"y":2764765.3044000007}},{"attributes":{"OBJECTID":5124,"LANDMARKID":"1000100000640","LANDMARKCO":"203","LANDMARKNA":"縣立中山國中","LANDMARKAD":"1000101","ADDRESS":"新北市板橋區中山路一段233號","TEL":"02-29552401","COUNTYNAME":"新北市","TOWNNAME":"板橋區","MARKTYPE":"992","Class":"2"},"geometry":{"x":297184.53490000032,"y":2767859.7149}},{"attributes":{"OBJECTID":5125,"LANDMARKID":"1000100000641","LANDMARKCO":"203","LANDMARKNA":"縣立光復國中","LANDMARKAD":"1000101","ADDRESS":"新北市板橋區光復街88號","TEL":"02-29582370","COUNTYNAME":"新北市","TOWNNAME":"板橋區","MARKTYPE":"992","Class":"2"},"geometry":{"x":298732.05929999985,"y":2767699.1915000007}},{"attributes":{"OBJECTID":5126,"LANDMARKID":"1000100000642","LANDMARKCO":"203","LANDMARKNA":"縣立文聖國小","LANDMARKAD":"1000101","ADDRESS":"新北市板橋區文聖街86號","TEL":"02-22530782","COUNTYNAME":"新北市","TOWNNAME":"板橋區","MARKTYPE":"992","Class":"2"},"geometry":{"x":298155.67250000034,"y":2769129.2367000002}},{"attributes":{"OBJECTID":5127,"LANDMARKID":"1000100000643","LANDMARKCO":"203","LANDMARKNA":"縣立埔墘國小","LANDMARKAD":"1000101","ADDRESS":"新北市板橋區成功路54號","TEL":"02-29616690","COUNTYNAME":"新北市","TOWNNAME":"板橋區","MARKTYPE":"992","Class":"2"},"geometry":{"x":297884.77940000035,"y":2767929.2235000003}},{"attributes":{"OBJECTID":5128,"LANDMARKID":"1000100000644","LANDMARKCO":"203","LANDMARKNA":"縣立重慶國小","LANDMARKAD":"1000101","ADDRESS":"新北市板橋區和平路100號","TEL":"02-29565592","COUNTYNAME":"新北市","TOWNNAME":"板橋區","MARKTYPE":"992","Class":"2"},"geometry":{"x":296759.09539999999,"y":2765269.2858000007}},{"attributes":{"OBJECTID":5129,"LANDMARKID":"1000100000645","LANDMARKCO":"203","LANDMARKNA":"縣立沙崙國小","LANDMARKAD":"1000101","ADDRESS":"新北市板橋區篤行路二段134號","TEL":"02-26812764","COUNTYNAME":"新北市","TOWNNAME":"板橋區","MARKTYPE":"992","Class":"2"},"geometry":{"x":293409.33069999982,"y":2764719.2962999996}},{"attributes":{"OBJECTID":5130,"LANDMARKID":"1000100000491","LANDMARKCO":"202","LANDMARKNA":"國立華僑中學","LANDMARKAD":"1000101","ADDRESS":"新北市板橋區大觀路一段32號","TEL":"02-29684131","COUNTYNAME":"新北市","TOWNNAME":"板橋區","MARKTYPE":"992","Class":"2"},"geometry":{"x":295179.66550000012,"y":2766686.3608999997}},{"attributes":{"OBJECTID":5131,"LANDMARKID":"1000100000492","LANDMARKCO":"202","LANDMARKNA":"私立光仁高中","LANDMARKAD":"1000101","ADDRESS":"新北市板橋區中山路二段255巷18號","TEL":"02-29545984","COUNTYNAME":"新北市","TOWNNAME":"板橋區","MARKTYPE":"992","Class":"2"},"geometry":{"x":298131.17679999955,"y":2767870.7229999993}},{"attributes":{"OBJECTID":5132,"LANDMARKID":"1000100000493","LANDMARKCO":"202","LANDMARKNA":"國立板橋高中","LANDMARKAD":"1000101","ADDRESS":"新北市板橋區文化路一段25號","TEL":"02-29602500","COUNTYNAME":"新北市","TOWNNAME":"板橋區","MARKTYPE":"992","Class":"2"},"geometry":{"x":296337.67850000039,"y":2767149.9879000001}},{"attributes":{"OBJECTID":5133,"LANDMARKID":"1000100000494","LANDMARKCO":"202","LANDMARKNA":"縣立海山高中","LANDMARKAD":"1000101","ADDRESS":"新北市板橋區漢生東路215號","TEL":"02-29517475","COUNTYNAME":"新北市","TOWNNAME":"板橋區","MARKTYPE":"992","Class":"2"},"geometry":{"x":297528.40429999959,"y":2766984.2782000005}},{"attributes":{"OBJECTID":5134,"LANDMARKID":"1000100000495","LANDMARKCO":"202","LANDMARKNA":"私立豫章工商","LANDMARKAD":"1000101","ADDRESS":"新北市板橋區四川路一段391號","TEL":"02-29519810","COUNTYNAME":"新北市","TOWNNAME":"板橋區","MARKTYPE":"992","Class":"2"},"geometry":{"x":296259.10769999959,"y":2765551.6290000007}},{"attributes":{"OBJECTID":5135,"LANDMARKID":"1000100000603","LANDMARKCO":"203","LANDMARKNA":"縣立溪崑國中","LANDMARKAD":"1000101","ADDRESS":"新北市板橋區大觀路三段50巷30號","TEL":"02-26852162","COUNTYNAME":"新北市","TOWNNAME":"板橋區","MARKTYPE":"992","Class":"2"},"geometry":{"x":293533.72649999987,"y":2765671.2456999999}},{"attributes":{"OBJECTID":5136,"LANDMARKID":"1000100000604","LANDMARKCO":"203","LANDMARKNA":"縣立板橋國中","LANDMARKAD":"1000101","ADDRESS":"新北市板橋區中正路437號","TEL":"02-29668279","COUNTYNAME":"新北市","TOWNNAME":"板橋區","MARKTYPE":"992","Class":"2"},"geometry":{"x":295834.88599999994,"y":2768512.3312999997}},{"attributes":{"OBJECTID":5137,"LANDMARKID":"1000100000605","LANDMARKCO":"203","LANDMARKNA":"縣立忠孝國中","LANDMARKAD":"1000101","ADDRESS":"新北市板橋區成都街30號","TEL":"02-29624746","COUNTYNAME":"新北市","TOWNNAME":"板橋區","MARKTYPE":"992","Class":"2"},"geometry":{"x":296597.73859999981,"y":2766392.9569000006}},{"attributes":{"OBJECTID":5138,"LANDMARKID":"1000100000606","LANDMARKCO":"203","LANDMARKNA":"縣立江翠國中","LANDMARKAD":"1000101","ADDRESS":"新北市板橋區松江街63號","TEL":"02-22513256","COUNTYNAME":"新北市","TOWNNAME":"板橋區","MARKTYPE":"992","Class":"2"},"geometry":{"x":297273.79839999974,"y":2769064.6719000004}},{"attributes":{"OBJECTID":5139,"LANDMARKID":"1000100000607","LANDMARKCO":"203","LANDMARKNA":"縣立重慶國中","LANDMARKAD":"1000101","ADDRESS":"新北市板橋區國慶路120號","TEL":"02-29625224","COUNTYNAME":"新北市","TOWNNAME":"板橋區","MARKTYPE":"992","Class":"2"},"geometry":{"x":296752.44409999996,"y":2765656.1425999999}},{"attributes":{"OBJECTID":5140,"LANDMARKID":"1000100000608","LANDMARKCO":"203","LANDMARKNA":"縣立新埔國中","LANDMARKAD":"1000101","ADDRESS":"新北市板橋區新海路181號","TEL":"02-22593912","COUNTYNAME":"新北市","TOWNNAME":"板橋區","MARKTYPE":"992","Class":"2"},"geometry":{"x":296240.94359999988,"y":2768558.0296}},{"attributes":{"OBJECTID":5141,"LANDMARKID":"1000100000609","LANDMARKCO":"203","LANDMARKNA":"縣立大觀國中","LANDMARKAD":"1000101","ADDRESS":"新北市板橋區僑中一街1號","TEL":"02-22722581","COUNTYNAME":"新北市","TOWNNAME":"板橋區","MARKTYPE":"992","Class":"2"},"geometry":{"x":295270.19990000036,"y":2767098.2826000005}},{"attributes":{"OBJECTID":5142,"LANDMARKID":"1000100000610","LANDMARKCO":"203","LANDMARKNA":"縣立信義國小","LANDMARKAD":"1000101","ADDRESS":"新北市板橋區四川路二段245巷60號","TEL":"02-29567817","COUNTYNAME":"新北市","TOWNNAME":"板橋區","MARKTYPE":"992","Class":"2"},"geometry":{"x":295710.3004999999,"y":2764938.6039000005}},{"attributes":{"OBJECTID":5143,"LANDMARKID":"1000100000611","LANDMARKCO":"203","LANDMARKNA":"縣立大觀國小","LANDMARKAD":"1000101","ADDRESS":"新北市板橋區大觀路一段30號","TEL":"02-29603373","COUNTYNAME":"新北市","TOWNNAME":"板橋區","MARKTYPE":"992","Class":"2"},"geometry":{"x":295354.59520000033,"y":2766805.7671000008}},{"attributes":{"OBJECTID":5144,"LANDMARKID":"1000100000612","LANDMARKCO":"203","LANDMARKNA":"縣立中山國小","LANDMARKAD":"1000101","ADDRESS":"新北市板橋區大觀路二段59巷31號","TEL":"02-22755313","COUNTYNAME":"新北市","TOWNNAME":"板橋區","MARKTYPE":"992","Class":"2"},"geometry":{"x":295189.80829999968,"y":2766107.2489999998}},{"attributes":{"OBJECTID":5145,"LANDMARKID":"1000100000613","LANDMARKCO":"203","LANDMARKNA":"縣立國光國小","LANDMARKAD":"1000101","ADDRESS":"新北市板橋區中正路325巷30號","TEL":"02-29680611","COUNTYNAME":"新北市","TOWNNAME":"板橋區","MARKTYPE":"992","Class":"2"},"geometry":{"x":295755.24940000009,"y":2768004.9919000007}},{"attributes":{"OBJECTID":5146,"LANDMARKID":"1000100000614","LANDMARKCO":"203","LANDMARKNA":"縣立板橋國小","LANDMARKAD":"1000101","ADDRESS":"新北市板橋區黃石里文化路一段23號","TEL":"02-29686834","COUNTYNAME":"新北市","TOWNNAME":"板橋區","MARKTYPE":"992","Class":"2"},"geometry":{"x":296251.36180000007,"y":2767057.7924000006}},{"attributes":{"OBJECTID":5147,"LANDMARKID":"1000100000615","LANDMARKCO":"203","LANDMARKNA":"縣立江翠國小","LANDMARKAD":"1000101","ADDRESS":"新北市板橋區松翠里文化路二段413號","TEL":"02-22526880","COUNTYNAME":"新北市","TOWNNAME":"板橋區","MARKTYPE":"992","Class":"2"},"geometry":{"x":297850.20359999966,"y":2769446.3128999993}},{"attributes":{"OBJECTID":5148,"LANDMARKID":"1000100000616","LANDMARKCO":"203","LANDMARKNA":"縣立忠孝國小","LANDMARKAD":"1000101","ADDRESS":"新北市板橋區成都街30號","TEL":"02-29591141","COUNTYNAME":"新北市","TOWNNAME":"板橋區","MARKTYPE":"992","Class":"2"},"geometry":{"x":296597.73859999981,"y":2766392.9569000006}},{"attributes":{"OBJECTID":5149,"LANDMARKID":"1000100000617","LANDMARKCO":"203","LANDMARKNA":"縣立溪洲國小","LANDMARKAD":"1000101","ADDRESS":"新北市板橋區金門街289號","TEL":"02-26834686","COUNTYNAME":"新北市","TOWNNAME":"板橋區","MARKTYPE":"992","Class":"2"},"geometry":{"x":293498.46229999978,"y":2764442.4614000004}},{"attributes":{"OBJECTID":5150,"LANDMARKID":"1000100000618","LANDMARKCO":"203","LANDMARKNA":"縣立文德國小","LANDMARKAD":"1000101","ADDRESS":"新北市板橋區新翠里英士路179號","TEL":"02-22577193","COUNTYNAME":"新北市","TOWNNAME":"板橋區","MARKTYPE":"992","Class":"2"},"geometry":{"x":296273.05319999997,"y":2768349.1111999992}},{"attributes":{"OBJECTID":5151,"LANDMARKID":"1000100000619","LANDMARKCO":"203","LANDMARKNA":"縣立後埔國小","LANDMARKAD":"1000101","ADDRESS":"新北市板橋區重慶路157號","TEL":"02-29614142","COUNTYNAME":"新北市","TOWNNAME":"板橋區","MARKTYPE":"992","Class":"2"},"geometry":{"x":296704.0756000001,"y":2766227.3648000006}},{"attributes":{"OBJECTID":5152,"LANDMARKID":"1000100000620","LANDMARKCO":"203","LANDMARKNA":"縣立莒光國小","LANDMARKAD":"1000101","ADDRESS":"新北市板橋區華翠里莒光路163號","TEL":"02-22517272","COUNTYNAME":"新北市","TOWNNAME":"板橋區","MARKTYPE":"992","Class":"2"},"geometry":{"x":297798.29760000017,"y":2768753.0844999999}},{"attributes":{"OBJECTID":5153,"LANDMARKID":"1000100000621","LANDMARKCO":"203","LANDMARKNA":"縣立新埔國小","LANDMARKAD":"1000101","ADDRESS":"新北市板橋區新翠里陽明街206號","TEL":"02-22571830","COUNTYNAME":"新北市","TOWNNAME":"板橋區","MARKTYPE":"992","Class":"2"},"geometry":{"x":296685.06560000032,"y":2768723.6666999999}},{"attributes":{"OBJECTID":5154,"LANDMARKID":"1000100000622","LANDMARKCO":"203","LANDMARKNA":"縣立實踐國小","LANDMARKAD":"1000101","ADDRESS":"新北市板橋區實踐路93巷51號","TEL":"02-29531233","COUNTYNAME":"新北市","TOWNNAME":"板橋區","MARKTYPE":"992","Class":"2"},"geometry":{"x":297076.92169999983,"y":2766413.4567000009}},{"attributes":{"OBJECTID":5155,"LANDMARKID":"1000100000623","LANDMARKCO":"203","LANDMARKNA":"縣立海山國小","LANDMARKAD":"1000101","ADDRESS":"新北市板橋區漢生東路280號","TEL":"02-29551650","COUNTYNAME":"新北市","TOWNNAME":"板橋區","MARKTYPE":"992","Class":"2"},"geometry":{"x":297530.1584999999,"y":2766917.6223000009}},{"attributes":{"OBJECTID":5156,"LANDMARKID":"1000100000441","LANDMARKCO":"201","LANDMARKNA":"國立台灣藝術大學","LANDMARKAD":"1000101","ADDRESS":"新北市板橋區大觀路一段59號","TEL":"02-22722181","COUNTYNAME":"新北市","TOWNNAME":"板橋區","MARKTYPE":"992","Class":"2"},"geometry":{"x":295175.88939999975,"y":2766504.3400999997}},{"attributes":{"OBJECTID":5157,"LANDMARKID":"1000100000442","LANDMARKCO":"201","LANDMARKNA":"亞東技術學院","LANDMARKAD":"1000101","ADDRESS":"新北市板橋區四川路二段58號","TEL":"02-77380145","COUNTYNAME":"新北市","TOWNNAME":"板橋區","MARKTYPE":"992","Class":"2"},"geometry":{"x":295738.52109999955,"y":2765319.3225999996}},{"attributes":{"OBJECTID":5158,"LANDMARKID":"1000100000443","LANDMARKCO":"201","LANDMARKNA":"致理技術學院","LANDMARKAD":"1000101","ADDRESS":"新北市板橋區文化路一段313號","TEL":"02-22576167","COUNTYNAME":"新北市","TOWNNAME":"板橋區","MARKTYPE":"992","Class":"2"},"geometry":{"x":296952.91949999984,"y":2768167.0488000009}},{"attributes":{"OBJECTID":5159,"LANDMARKID":"1000100001519","LANDMARKCO":"308","LANDMARKNA":"台64-板橋交流道-東行","LANDMARKAD":"1000101","ADDRESS":" ","TEL":" ","COUNTYNAME":"新北市","TOWNNAME":"板橋區","MARKTYPE":"993","Class":"308"},"geometry":{"x":297522.15919999965,"y":2767940.0033999998}},{"attributes":{"OBJECTID":5160,"LANDMARKID":"1000100001488","LANDMARKCO":"306","LANDMARKNA":"江子翠捷運站-出口1","LANDMARKAD":"1000101","ADDRESS":" ","TEL":" ","COUNTYNAME":"新北市","TOWNNAME":"板橋區","MARKTYPE":"993","Class":"306"},"geometry":{"x":297624.70469999965,"y":2769217.9449000005}},{"attributes":{"OBJECTID":5161,"LANDMARKID":"1000100001489","LANDMARKCO":"306","LANDMARKNA":"江子翠捷運站-出口2","LANDMARKAD":"1000101","ADDRESS":" ","TEL":" ","COUNTYNAME":"新北市","TOWNNAME":"板橋區","MARKTYPE":"993","Class":"306"},"geometry":{"x":297623.57930000033,"y":2769157.9312999994}},{"attributes":{"OBJECTID":5162,"LANDMARKID":"1000100001490","LANDMARKCO":"306","LANDMARKNA":"江子翠捷運站-出口3","LANDMARKAD":"1000101","ADDRESS":" ","TEL":" ","COUNTYNAME":"新北市","TOWNNAME":"板橋區","MARKTYPE":"993","Class":"306"},"geometry":{"x":297660.12430000026,"y":2769128.0825999994}},{"attributes":{"OBJECTID":5163,"LANDMARKID":"1000100001491","LANDMARKCO":"306","LANDMARKNA":"江子翠捷運站-出口4","LANDMARKAD":"1000101","ADDRESS":" ","TEL":" ","COUNTYNAME":"新北市","TOWNNAME":"板橋區","MARKTYPE":"993","Class":"306"},"geometry":{"x":297713.82550000027,"y":2769155.8422999997}},{"attributes":{"OBJECTID":5164,"LANDMARKID":"1000100001492","LANDMARKCO":"306","LANDMARKNA":"江子翠捷運站-出口5","LANDMARKAD":"1000101","ADDRESS":" ","TEL":" ","COUNTYNAME":"新北市","TOWNNAME":"板橋區","MARKTYPE":"993","Class":"306"},"geometry":{"x":297785.12789999973,"y":2769283.8712000009}},{"attributes":{"OBJECTID":5165,"LANDMARKID":"1000100001493","LANDMARKCO":"306","LANDMARKNA":"江子翠捷運站-出口6","LANDMARKAD":"1000101","ADDRESS":" ","TEL":" ","COUNTYNAME":"新北市","TOWNNAME":"板橋區","MARKTYPE":"993","Class":"306"},"geometry":{"x":297738.43869999982,"y":2769295.9463}},{"attributes":{"OBJECTID":5166,"LANDMARKID":"1000100001494","LANDMARKCO":"306","LANDMARKNA":"新埔捷運站-出口1","LANDMARKAD":"1000101","ADDRESS":" ","TEL":" ","COUNTYNAME":"新北市","TOWNNAME":"板橋區","MARKTYPE":"993","Class":"306"},"geometry":{"x":297176.94799999986,"y":2768410.5824999996}},{"attributes":{"OBJECTID":5167,"LANDMARKID":"1000100001495","LANDMARKCO":"306","LANDMARKNA":"新埔捷運站-出口2","LANDMARKAD":"1000101","ADDRESS":" ","TEL":" ","COUNTYNAME":"新北市","TOWNNAME":"板橋區","MARKTYPE":"993","Class":"306"},"geometry":{"x":297241.25789999962,"y":2768302.4024}},{"attributes":{"OBJECTID":5168,"LANDMARKID":"1000100001496","LANDMARKCO":"306","LANDMARKNA":"新埔捷運站-出口4","LANDMARKAD":"1000101","ADDRESS":" ","TEL":" ","COUNTYNAME":"新北市","TOWNNAME":"板橋區","MARKTYPE":"993","Class":"306"},"geometry":{"x":297294.66629999969,"y":2768444.2350999992}},{"attributes":{"OBJECTID":5169,"LANDMARKID":"1000100001497","LANDMARKCO":"306","LANDMARKNA":"新埔捷運站-出口5","LANDMARKAD":"1000101","ADDRESS":" ","TEL":" ","COUNTYNAME":"新北市","TOWNNAME":"板橋區","MARKTYPE":"993","Class":"306"},"geometry":{"x":297244.87009999994,"y":2768539.5164000001}},{"attributes":{"OBJECTID":5170,"LANDMARKID":"1000100001498","LANDMARKCO":"306","LANDMARKNA":"新埔捷運站-出口3","LANDMARKAD":"1000101","ADDRESS":" ","TEL":" ","COUNTYNAME":"新北市","TOWNNAME":"板橋區","MARKTYPE":"993","Class":"306"},"geometry":{"x":297298.11639999971,"y":2768391.4522999991}},{"attributes":{"OBJECTID":5171,"LANDMARKID":"1000100001499","LANDMARKCO":"306","LANDMARKNA":"板橋捷運站-出口1","LANDMARKAD":"1000101","ADDRESS":" ","TEL":" ","COUNTYNAME":"新北市","TOWNNAME":"板橋區","MARKTYPE":"993","Class":"306"},"geometry":{"x":296632.89169999957,"y":2767365.3841999993}},{"attributes":{"OBJECTID":5172,"LANDMARKID":"1000100001500","LANDMARKCO":"306","LANDMARKNA":"板橋捷運站-出口2","LANDMARKAD":"1000101","ADDRESS":" ","TEL":" ","COUNTYNAME":"新北市","TOWNNAME":"板橋區","MARKTYPE":"993","Class":"306"},"geometry":{"x":296705.90249999985,"y":2767322.6315000001}},{"attributes":{"OBJECTID":5173,"LANDMARKID":"1000100001501","LANDMARKCO":"306","LANDMARKNA":"板橋捷運站-出口3","LANDMARKAD":"1000101","ADDRESS":" ","TEL":" ","COUNTYNAME":"新北市","TOWNNAME":"板橋區","MARKTYPE":"993","Class":"306"},"geometry":{"x":296715.18090000004,"y":2767475.0372000001}},{"attributes":{"OBJECTID":5174,"LANDMARKID":"1000100001502","LANDMARKCO":"306","LANDMARKNA":"府中捷運站-出口1","LANDMARKAD":"1000101","ADDRESS":" ","TEL":" ","COUNTYNAME":"新北市","TOWNNAME":"板橋區","MARKTYPE":"993","Class":"306"},"geometry":{"x":296339.64570000023,"y":2766793.6028000005}},{"attributes":{"OBJECTID":5175,"LANDMARKID":"1000100001503","LANDMARKCO":"306","LANDMARKNA":"府中捷運站-出口2","LANDMARKAD":"1000101","ADDRESS":" ","TEL":" ","COUNTYNAME":"新北市","TOWNNAME":"板橋區","MARKTYPE":"993","Class":"306"},"geometry":{"x":296427.20449999999,"y":2766894.6515999995}},{"attributes":{"OBJECTID":5176,"LANDMARKID":"1000100001504","LANDMARKCO":"306","LANDMARKNA":"府中捷運站-出口3","LANDMARKAD":"1000101","ADDRESS":" ","TEL":" ","COUNTYNAME":"新北市","TOWNNAME":"板橋區","MARKTYPE":"993","Class":"306"},"geometry":{"x":296359.34480000008,"y":2766855.4154000003}},{"attributes":{"OBJECTID":5177,"LANDMARKID":"1000100001505","LANDMARKCO":"306","LANDMARKNA":"亞東醫院捷運站-出口1","LANDMARKAD":"1000101","ADDRESS":" ","TEL":" ","COUNTYNAME":"新北市","TOWNNAME":"板橋區","MARKTYPE":"993","Class":"306"},"geometry":{"x":295640.90620000008,"y":2765581.6656999998}},{"attributes":{"OBJECTID":5178,"LANDMARKID":"1000100001506","LANDMARKCO":"306","LANDMARKNA":"亞東醫院捷運站-出口2","LANDMARKAD":"1000101","ADDRESS":" ","TEL":" ","COUNTYNAME":"新北市","TOWNNAME":"板橋區","MARKTYPE":"993","Class":"306"},"geometry":{"x":295630.31419999991,"y":2765547.4728999995}},{"attributes":{"OBJECTID":5179,"LANDMARKID":"1000100001507","LANDMARKCO":"306","LANDMARKNA":"亞東醫院捷運站-出口3","LANDMARKAD":"1000101","ADDRESS":" ","TEL":" ","COUNTYNAME":"新北市","TOWNNAME":"板橋區","MARKTYPE":"993","Class":"306"},"geometry":{"x":295655.76209999993,"y":2765539.3583000004}},{"attributes":{"OBJECTID":5180,"LANDMARKID":"1000100001510","LANDMARKCO":"307","LANDMARKNA":"高鐵板橋站-東一出口","LANDMARKAD":"1000101","ADDRESS":" ","TEL":" ","COUNTYNAME":"新北市","TOWNNAME":"板橋區","MARKTYPE":"993","Class":"307"},"geometry":{"x":296874.63609999977,"y":2767503.8765999991}},{"attributes":{"OBJECTID":5181,"LANDMARKID":"1000100001511","LANDMARKCO":"307","LANDMARKNA":"高鐵板橋站-東二出口","LANDMARKAD":"1000101","ADDRESS":" ","TEL":" ","COUNTYNAME":"新北市","TOWNNAME":"板橋區","MARKTYPE":"993","Class":"307"},"geometry":{"x":296901.50669999979,"y":2767478.5552999992}},{"attributes":{"OBJECTID":5182,"LANDMARKID":"1000100001512","LANDMARKCO":"307","LANDMARKNA":"高鐵板橋站-南一出口","LANDMARKAD":"1000101","ADDRESS":" ","TEL":" ","COUNTYNAME":"新北市","TOWNNAME":"板橋區","MARKTYPE":"993","Class":"307"},"geometry":{"x":296863.64879999962,"y":2767424.0793999992}},{"attributes":{"OBJECTID":5183,"LANDMARKID":"1000100001513","LANDMARKCO":"307","LANDMARKNA":"高鐵板橋站-南二出口","LANDMARKAD":"1000101","ADDRESS":" ","TEL":" ","COUNTYNAME":"新北市","TOWNNAME":"板橋區","MARKTYPE":"993","Class":"307"},"geometry":{"x":296832.82390000019,"y":2767404.8311000001}},{"attributes":{"OBJECTID":5184,"LANDMARKID":"1000100001514","LANDMARKCO":"307","LANDMARKNA":"高鐵板橋站-南三出口","LANDMARKAD":"1000101","ADDRESS":" ","TEL":" ","COUNTYNAME":"新北市","TOWNNAME":"板橋區","MARKTYPE":"993","Class":"307"},"geometry":{"x":296809.93939999957,"y":2767377.3444999997}},{"attributes":{"OBJECTID":5185,"LANDMARKID":"1000100001515","LANDMARKCO":"307","LANDMARKNA":"高鐵板橋站-西出口","LANDMARKAD":"1000101","ADDRESS":" ","TEL":" ","COUNTYNAME":"新北市","TOWNNAME":"板橋區","MARKTYPE":"993","Class":"307"},"geometry":{"x":296746.60940000042,"y":2767353.0921999998}},{"attributes":{"OBJECTID":5186,"LANDMARKID":"1000100001516","LANDMARKCO":"307","LANDMARKNA":"高鐵板橋站-北三出口","LANDMARKAD":"1000101","ADDRESS":" ","TEL":" ","COUNTYNAME":"新北市","TOWNNAME":"板橋區","MARKTYPE":"993","Class":"307"},"geometry":{"x":296732.95390000008,"y":2767372.5670999996}},{"attributes":{"OBJECTID":5187,"LANDMARKID":"1000100001517","LANDMARKCO":"307","LANDMARKNA":"高鐵板橋站-北二出口","LANDMARKAD":"1000101","ADDRESS":" ","TEL":" ","COUNTYNAME":"新北市","TOWNNAME":"板橋區","MARKTYPE":"993","Class":"307"},"geometry":{"x":296748.89360000007,"y":2767466.4316000007}},{"attributes":{"OBJECTID":5188,"LANDMARKID":"1000100001518","LANDMARKCO":"307","LANDMARKNA":"高鐵板橋站-北一出口","LANDMARKAD":"1000101","ADDRESS":" ","TEL":" ","COUNTYNAME":"新北市","TOWNNAME":"板橋區","MARKTYPE":"993","Class":"307"},"geometry":{"x":296832.79150000028,"y":2767508.1673000008}},{"attributes":{"OBJECTID":5189,"LANDMARKID":"1000100000971","LANDMARKCO":"302","LANDMARKNA":"統聯客運-板橋站-代售處","LANDMARKAD":"1000101","ADDRESS":"新北市板橋區新站路66號","TEL":"連絡電話:02-896","COUNTYNAME":"新北市","TOWNNAME":"板橋區","MARKTYPE":"993","Class":"302"},"geometry":{"x":296916.55190000031,"y":2767544.5971000008}},{"attributes":{"OBJECTID":5190,"LANDMARKID":"1000100000972","LANDMARKCO":"302","LANDMARKNA":"日統客運-板橋站","LANDMARKAD":"1000101","ADDRESS":"板橋區新站路66號(國道客運站)","TEL":"02-22728529","COUNTYNAME":"新北市","TOWNNAME":"板橋區","MARKTYPE":"993","Class":"302"},"geometry":{"x":296916.55190000031,"y":2767544.5971000008}},{"attributes":{"OBJECTID":5191,"LANDMARKID":"1000100000973","LANDMARKCO":"302","LANDMARKNA":"阿囉哈客運-板橋站","LANDMARKAD":"1000101","ADDRESS":"新北市板橋區新站路66號","TEL":"(02)8968-1668","COUNTYNAME":"新北市","TOWNNAME":"板橋區","MARKTYPE":"993","Class":"302"},"geometry":{"x":296916.55190000031,"y":2767544.5971000008}},{"attributes":{"OBJECTID":5192,"LANDMARKID":"1000100000974","LANDMARKCO":"302","LANDMARKNA":"和欣客運-板橋轉運站","LANDMARKAD":"1000101","ADDRESS":"板橋區新站路66號(板橋火車站旁邊)","TEL":"(02)2968-0218","COUNTYNAME":"新北市","TOWNNAME":"板橋區","MARKTYPE":"993","Class":"302"},"geometry":{"x":296916.55190000031,"y":2767544.5971000008}},{"attributes":{"OBJECTID":5193,"LANDMARKID":"1000100000975","LANDMARKCO":"302","LANDMARKNA":"台北客運-五福站","LANDMARKAD":"1000101","ADDRESS":"板橋區萬板路810號之1","TEL":"2251-8420","COUNTYNAME":"新北市","TOWNNAME":"板橋區","MARKTYPE":"993","Class":"302"},"geometry":{"x":298684.95660000015,"y":2768877.2840999998}},{"attributes":{"OBJECTID":5194,"LANDMARKID":"1000100000976","LANDMARKCO":"302","LANDMARKNA":"台北客運-歡仔園站","LANDMARKAD":"1000101","ADDRESS":"板橋區僑中一街150號","TEL":"2969-7468","COUNTYNAME":"新北市","TOWNNAME":"板橋區","MARKTYPE":"993","Class":"302"},"geometry":{"x":294910.3200000003,"y":2767179.7580999993}},{"attributes":{"OBJECTID":5195,"LANDMARKID":"1000100000977","LANDMARKCO":"302","LANDMARKNA":"台北汽車客運五福新村站","LANDMARKAD":"1000101","ADDRESS":"新北市板橋區懷德街233巷23號","TEL":" ","COUNTYNAME":"新北市","TOWNNAME":"板橋區","MARKTYPE":"993","Class":"302"},"geometry":{"x":298511.58629999962,"y":2769056.5631000008}},{"attributes":{"OBJECTID":5196,"LANDMARKID":"1000100000978","LANDMARKCO":"302","LANDMARKNA":"台北汽車客運板前站","LANDMARKAD":"1000101","ADDRESS":"新北市板橋區中正路379巷76號","TEL":" ","COUNTYNAME":"新北市","TOWNNAME":"板橋區","MARKTYPE":"993","Class":"302"},"geometry":{"x":295819.25140000042,"y":2768214.3827}},{"attributes":{"OBJECTID":5197,"LANDMARKID":"1000100000979","LANDMARKCO":"302","LANDMARKNA":"台北汽車客運南雅站","LANDMARKAD":"1000101","ADDRESS":"新北市板橋區四川路二段130巷39弄3號","TEL":" ","COUNTYNAME":"新北市","TOWNNAME":"板橋區","MARKTYPE":"993","Class":"302"},"geometry":{"x":295356.76429999992,"y":2765238.0930000003}},{"attributes":{"OBJECTID":5198,"LANDMARKID":"1000100000980","LANDMARKCO":"302","LANDMARKNA":"台北汽車客運板後站","LANDMARKAD":"1000101","ADDRESS":"新北市板橋區和平路16號","TEL":" ","COUNTYNAME":"新北市","TOWNNAME":"板橋區","MARKTYPE":"993","Class":"302"},"geometry":{"x":296194.53519999981,"y":2765191.1238000002}},{"attributes":{"OBJECTID":5199,"LANDMARKID":"1000100000981","LANDMARKCO":"302","LANDMARKNA":"台北汽車客運歡仔園站","LANDMARKAD":"1000101","ADDRESS":"新北市板橋區僑中一街150號","TEL":" ","COUNTYNAME":"新北市","TOWNNAME":"板橋區","MARKTYPE":"993","Class":"302"},"geometry":{"x":295005.61670000013,"y":2767144.7916999999}},{"attributes":{"OBJECTID":5200,"LANDMARKID":"1000100000982","LANDMARKCO":"302","LANDMARKNA":"國光汽車客運板橋站","LANDMARKAD":"1000101","ADDRESS":"新北市板橋區民族路100號","TEL":" ","COUNTYNAME":"新北市","TOWNNAME":"板橋區","MARKTYPE":"993","Class":"302"},"geometry":{"x":296946.85639999993,"y":2766797.2763999999}}]}