{"displayFieldName":"COUNTYNAME","fieldAliases":{"OBJECTID":"OBJECTID","LANDMARKID":"LANDMARKID","LANDMARKCO":"LANDMARKCO","LANDMARKNA":"LANDMARKNA","LANDMARKAD":"LANDMARKAD","ADDRESS":"ADDRESS","TEL":"TEL","COUNTYNAME":"COUNTYNAME","TOWNNAME":"TOWNNAME","MARKTYPE":"MARKTYPE","Class":"Class"},"geometryType":"esriGeometryPoint","spatialReference":{"wkid":102443},"fields":[{"name":"OBJECTID","type":"esriFieldTypeOID","alias":"OBJECTID"},{"name":"LANDMARKID","type":"esriFieldTypeString","alias":"LANDMARKID","length":15},{"name":"LANDMARKCO","type":"esriFieldTypeString","alias":"LANDMARKCO","length":15},{"name":"LANDMARKNA","type":"esriFieldTypeString","alias":"LANDMARKNA","length":50},{"name":"LANDMARKAD","type":"esriFieldTypeString","alias":"LANDMARKAD","length":15},{"name":"ADDRESS","type":"esriFieldTypeString","alias":"ADDRESS","length":56},{"name":"TEL","type":"esriFieldTypeString","alias":"TEL","length":36},{"name":"COUNTYNAME","type":"esriFieldTypeString","alias":"COUNTYNAME","length":15},{"name":"TOWNNAME","type":"esriFieldTypeString","alias":"TOWNNAME","length":13},{"name":"MARKTYPE","type":"esriFieldTypeString","alias":"MARKTYPE","length":12},{"name":"Class","type":"esriFieldTypeString","alias":"Class","length":5}],"features":[{"attributes":{"OBJECTID":16001,"LANDMARKID":"1001300000422","LANDMARKCO":"203","LANDMARKNA":"縣立內獅國小和平分班(廢)","LANDMARKAD":"1001332","ADDRESS":"屏東縣獅子鄉","TEL":" ","COUNTYNAME":"屏東縣","TOWNNAME":"獅子鄉","MARKTYPE":"992","Class":"2"},"geometry":{"x":217051.63939999975,"y":2459290.5744000003}},{"attributes":{"OBJECTID":16002,"LANDMARKID":"1001300000423","LANDMARKCO":"203","LANDMARKNA":"縣立草埔國小內文分班","LANDMARKAD":"1001332","ADDRESS":"屏東縣獅子鄉內文村8號","TEL":"08-8700001","COUNTYNAME":"屏東縣","TOWNNAME":"獅子鄉","MARKTYPE":"992","Class":"2"},"geometry":{"x":234563.93499999959,"y":2457620.0347000007}},{"attributes":{"OBJECTID":16003,"LANDMARKID":"1001300000424","LANDMARKCO":"203","LANDMARKNA":"縣立內獅國小中心崙分班","LANDMARKAD":"1001332","ADDRESS":"屏東縣獅子鄉","TEL":" ","COUNTYNAME":"屏東縣","TOWNNAME":"獅子鄉","MARKTYPE":"992","Class":"2"},"geometry":{"x":216183.57490000036,"y":2461470.5598000009}},{"attributes":{"OBJECTID":16004,"LANDMARKID":"1001300000768","LANDMARKCO":"303","LANDMARKNA":"雙流森林遊樂區停車場","LANDMARKAD":"1001332","ADDRESS":"屏東縣獅子鄉同路村丹路23號","TEL":" ","COUNTYNAME":"屏東縣","TOWNNAME":"獅子鄉","MARKTYPE":"993","Class":"303"},"geometry":{"x":229015.23940000031,"y":2457627.9485999998}},{"attributes":{"OBJECTID":16005,"LANDMARKID":"1001300000695","LANDMARKCO":"301","LANDMARKNA":"枋山火車站","LANDMARKAD":"1001332","ADDRESS":"屏東縣獅子鄉","TEL":" ","COUNTYNAME":"屏東縣","TOWNNAME":"獅子鄉","MARKTYPE":"993","Class":"301"},"geometry":{"x":214924.34449999966,"y":2463173.4558000006}},{"attributes":{"OBJECTID":16006,"LANDMARKID":"1001300000696","LANDMARKCO":"301","LANDMARKNA":"枋野火車站","LANDMARKAD":"1001332","ADDRESS":"屏東縣獅子鄉內獅村內獅巷88號","TEL":"08-8761953","COUNTYNAME":"屏東縣","TOWNNAME":"獅子鄉","MARKTYPE":"993","Class":"301"},"geometry":{"x":220854.58849999961,"y":2464674.5088999998}},{"attributes":{"OBJECTID":16007,"LANDMARKID":"1001300001198","LANDMARKCO":"503","LANDMARKNA":"內獅瀑布(大門坑瀑布)","LANDMARKAD":"1001332","ADDRESS":"屏東縣獅子鄉","TEL":" ","COUNTYNAME":"屏東縣","TOWNNAME":"獅子鄉","MARKTYPE":"995","Class":"5"},"geometry":{"x":219130.35859999992,"y":2466437.2525999993}},{"attributes":{"OBJECTID":16008,"LANDMARKID":"1001300001199","LANDMARKCO":"503","LANDMARKNA":"丹路瀑布","LANDMARKAD":"1001332","ADDRESS":"屏東縣獅子鄉","TEL":" ","COUNTYNAME":"屏東縣","TOWNNAME":"獅子鄉","MARKTYPE":"995","Class":"5"},"geometry":{"x":222166.09059999976,"y":2458281.9170999993}},{"attributes":{"OBJECTID":16009,"LANDMARKID":"1001300001200","LANDMARKCO":"503","LANDMARKNA":"雙流瀑布","LANDMARKAD":"1001332","ADDRESS":"屏東縣牡丹鄉","TEL":" ","COUNTYNAME":"屏東縣","TOWNNAME":"獅子鄉","MARKTYPE":"995","Class":"5"},"geometry":{"x":231614.6671000002,"y":2458204.9945}},{"attributes":{"OBJECTID":16010,"LANDMARKID":"1001300001208","LANDMARKCO":"504","LANDMARKNA":"雙流森林遊樂區","LANDMARKAD":"1001332","ADDRESS":"屏東縣獅子鄉草埔村","TEL":" ","COUNTYNAME":"屏東縣","TOWNNAME":"獅子鄉","MARKTYPE":"995","Class":"5"},"geometry":{"x":228983.53469999973,"y":2457638.3837000001}},{"attributes":{"OBJECTID":16011,"LANDMARKID":"1001300001143","LANDMARKCO":"408","LANDMARKNA":"郵局-牡丹郵局","LANDMARKAD":"1001333","ADDRESS":"屏東縣牡丹鄉石門村石門路31-3號","TEL":"(08)8831-050","COUNTYNAME":"屏東縣","TOWNNAME":"牡丹鄉","MARKTYPE":"994","Class":"4"},"geometry":{"x":226643.25339999981,"y":2447443.2676999997}},{"attributes":{"OBJECTID":16012,"LANDMARKID":"1001300000901","LANDMARKCO":"404","LANDMARKNA":"台灣自來水牡丹給水廠","LANDMARKAD":"1001333","ADDRESS":"屏東縣牡丹鄉石門村石門路53-2號","TEL":"08-8831469","COUNTYNAME":"屏東縣","TOWNNAME":"牡丹鄉","MARKTYPE":"994","Class":"4"},"geometry":{"x":226593.78899999987,"y":2447560.0157999992}},{"attributes":{"OBJECTID":16013,"LANDMARKID":"1001300000902","LANDMARKCO":"404","LANDMARKNA":"台灣省自來水牡丹給水廠","LANDMARKAD":"1001333","ADDRESS":"屏東縣牡丹鄉石門村石門路35之2號","TEL":" ","COUNTYNAME":"屏東縣","TOWNNAME":"牡丹鄉","MARKTYPE":"994","Class":"4"},"geometry":{"x":226006.08069999982,"y":2447092.6142999995}},{"attributes":{"OBJECTID":16014,"LANDMARKID":"1001300001078","LANDMARKCO":"406","LANDMARKNA":"牡丹社事件紀念公園","LANDMARKAD":"1001333","ADDRESS":"屏東縣牡丹鄉","TEL":" ","COUNTYNAME":"屏東縣","TOWNNAME":"牡丹鄉","MARKTYPE":"994","Class":"4"},"geometry":{"x":225743.93850000016,"y":2446778.0803999994}},{"attributes":{"OBJECTID":16015,"LANDMARKID":"1001300000147","LANDMARKCO":"106","LANDMARKNA":"屏東縣牡丹鄉戶政事務所","LANDMARKAD":"1001333","ADDRESS":"屏東縣牡丹鄉石門村石門路188號","TEL":"08-8831025","COUNTYNAME":"屏東縣","TOWNNAME":"牡丹鄉","MARKTYPE":"991","Class":"1"},"geometry":{"x":226640.35819999967,"y":2447509.9631999992}},{"attributes":{"OBJECTID":16016,"LANDMARKID":"1001300000209","LANDMARKCO":"107","LANDMARKNA":"屏東縣警察局牡丹分駐所","LANDMARKAD":"1001333","ADDRESS":"屏東縣牡丹鄉石門村石門路32號","TEL":"08-8831110","COUNTYNAME":"屏東縣","TOWNNAME":"牡丹鄉","MARKTYPE":"991","Class":"1"},"geometry":{"x":226652.38800000027,"y":2447489.9811000004}},{"attributes":{"OBJECTID":16017,"LANDMARKID":"1001300000210","LANDMARKCO":"107","LANDMARKNA":"屏東縣警察局旭海派出所","LANDMARKAD":"1001333","ADDRESS":"屏東縣牡丹鄉旭海村旭海路1號","TEL":"08-8830200","COUNTYNAME":"屏東縣","TOWNNAME":"牡丹鄉","MARKTYPE":"991","Class":"1"},"geometry":{"x":238390.77570000011,"y":2455140.1068999991}},{"attributes":{"OBJECTID":16018,"LANDMARKID":"1001300000052","LANDMARKCO":"103","LANDMARKNA":"屏東縣牡丹鄉民代表會","LANDMARKAD":"1001333","ADDRESS":"屏東縣牡丹鄉石門路26號","TEL":"08-8831037","COUNTYNAME":"屏東縣","TOWNNAME":"牡丹鄉","MARKTYPE":"991","Class":"1"},"geometry":{"x":226709.31469999999,"y":2447550.0657000002}},{"attributes":{"OBJECTID":16019,"LANDMARKID":"1001300000053","LANDMARKCO":"103","LANDMARKNA":"屏東縣牡丹鄉衛生所","LANDMARKAD":"1001333","ADDRESS":"屏東縣牡丹鄉石門村19號","TEL":"08-8831013","COUNTYNAME":"屏東縣","TOWNNAME":"牡丹鄉","MARKTYPE":"991","Class":"1"},"geometry":{"x":226708.90259999968,"y":2447480.3150999993}},{"attributes":{"OBJECTID":16020,"LANDMARKID":"1001300000323","LANDMARKCO":"108","LANDMARKNA":"屏東縣牡丹鄉公所","LANDMARKAD":"1001333","ADDRESS":"屏東縣牡丹鄉石門村26號","TEL":"08-8831001","COUNTYNAME":"屏東縣","TOWNNAME":"牡丹鄉","MARKTYPE":"991","Class":"1"},"geometry":{"x":226710.75420000032,"y":2447580.3178000003}},{"attributes":{"OBJECTID":16021,"LANDMARKID":"1001300000673","LANDMARKCO":"205","LANDMARKNA":"恆春半島原住民手工藝館","LANDMARKAD":"1001333","ADDRESS":"屏東縣牡丹鄉東源村51號","TEL":"08-8830463","COUNTYNAME":"屏東縣","TOWNNAME":"牡丹鄉","MARKTYPE":"992","Class":"2"},"geometry":{"x":234604.46150000021,"y":2456190.6272999998}},{"attributes":{"OBJECTID":16022,"LANDMARKID":"1001300000658","LANDMARKCO":"204","LANDMARKNA":"屏東縣立圖書館牡丹中正分館","LANDMARKAD":"1001333","ADDRESS":"屏東縣牡丹鄉石門村32之1號","TEL":" ","COUNTYNAME":"屏東縣","TOWNNAME":"牡丹鄉","MARKTYPE":"992","Class":"2"},"geometry":{"x":226651.68169999961,"y":2447443.9958999995}},{"attributes":{"OBJECTID":16023,"LANDMARKID":"1001300000432","LANDMARKCO":"203","LANDMARKNA":"縣立牡林國小","LANDMARKAD":"1001333","ADDRESS":"屏東縣牡丹鄉四林村四林路80號","TEL":"08-8811175","COUNTYNAME":"屏東縣","TOWNNAME":"牡丹鄉","MARKTYPE":"992","Class":"2"},"geometry":{"x":230793.40369999968,"y":2441670.1093000006}},{"attributes":{"OBJECTID":16024,"LANDMARKID":"1001300000433","LANDMARKCO":"203","LANDMARKNA":"縣立石門國小","LANDMARKAD":"1001333","ADDRESS":"屏東縣牡丹鄉石門村石門路33號","TEL":"08-8831005","COUNTYNAME":"屏東縣","TOWNNAME":"牡丹鄉","MARKTYPE":"992","Class":"2"},"geometry":{"x":226532.37270000018,"y":2447499.8021000009}},{"attributes":{"OBJECTID":16025,"LANDMARKID":"1001300000434","LANDMARKCO":"203","LANDMARKNA":"縣立牡丹國小","LANDMARKAD":"1001333","ADDRESS":"屏東縣牡丹鄉牡丹村牡丹路93號","TEL":"08-8830065","COUNTYNAME":"屏東縣","TOWNNAME":"牡丹鄉","MARKTYPE":"992","Class":"2"},"geometry":{"x":233261.49729999993,"y":2453120.1815000009}},{"attributes":{"OBJECTID":16026,"LANDMARKID":"1001300000435","LANDMARKCO":"203","LANDMARKNA":"縣立高士國小","LANDMARKAD":"1001333","ADDRESS":"屏東縣牡丹鄉高士村高士路29號","TEL":"08-8810246","COUNTYNAME":"屏東縣","TOWNNAME":"牡丹鄉","MARKTYPE":"992","Class":"2"},"geometry":{"x":234214.37239999976,"y":2447380.0226000007}},{"attributes":{"OBJECTID":16027,"LANDMARKID":"1001300000436","LANDMARKCO":"203","LANDMARKNA":"縣立牡丹國中","LANDMARKAD":"1001333","ADDRESS":"屏東縣牡丹鄉石門村1之1號","TEL":"08-8831017","COUNTYNAME":"屏東縣","TOWNNAME":"牡丹鄉","MARKTYPE":"992","Class":"2"},"geometry":{"x":226849.75169999991,"y":2447890.0963000003}},{"attributes":{"OBJECTID":16028,"LANDMARKID":"1001300000437","LANDMARKCO":"203","LANDMARKNA":"縣立石門國小大梅分班","LANDMARKAD":"1001333","ADDRESS":"屏東縣牡丹鄉","TEL":" ","COUNTYNAME":"屏東縣","TOWNNAME":"牡丹鄉","MARKTYPE":"992","Class":"2"},"geometry":{"x":223916.68580000009,"y":2444840.4822000004}},{"attributes":{"OBJECTID":16029,"LANDMARKID":"1001300000438","LANDMARKCO":"203","LANDMARKNA":"縣立牡丹國小東源分校","LANDMARKAD":"1001333","ADDRESS":"屏東縣牡丹鄉","TEL":" ","COUNTYNAME":"屏東縣","TOWNNAME":"牡丹鄉","MARKTYPE":"992","Class":"2"},"geometry":{"x":234832.9550999999,"y":2456370.0185000002}},{"attributes":{"OBJECTID":16030,"LANDMARKID":"1001300000439","LANDMARKCO":"203","LANDMARKNA":"縣立牡丹國小旭海分班","LANDMARKAD":"1001333","ADDRESS":"屏東縣牡丹鄉","TEL":" ","COUNTYNAME":"屏東縣","TOWNNAME":"牡丹鄉","MARKTYPE":"992","Class":"2"},"geometry":{"x":237455.97269999981,"y":2454510.0541999992}},{"attributes":{"OBJECTID":16031,"LANDMARKID":"1001300000769","LANDMARKCO":"303","LANDMARKNA":"旭海草原停車場","LANDMARKAD":"1001333","ADDRESS":"屏東縣牡丹鄉","TEL":" ","COUNTYNAME":"屏東縣","TOWNNAME":"牡丹鄉","MARKTYPE":"993","Class":"303"},"geometry":{"x":238100.29700000025,"y":2456157.8928999994}},{"attributes":{"OBJECTID":16032,"LANDMARKID":"1001300001415","LANDMARKCO":"604","LANDMARKNA":"我家民宿","LANDMARKAD":"1001333","ADDRESS":"屏東縣牡丹鄉旭海村旭海路55號","TEL":"08-8830616","COUNTYNAME":"屏東縣","TOWNNAME":"牡丹鄉","MARKTYPE":"996","Class":"6"},"geometry":{"x":237749.88509999961,"y":2454930.0588000007}},{"attributes":{"OBJECTID":16033,"LANDMARKID":"1001300001416","LANDMARKCO":"604","LANDMARKNA":"牡丹灣民宿","LANDMARKAD":"1001333","ADDRESS":"屏東縣牡丹鄉旭海村旭海路85-1號","TEL":"08-8830888","COUNTYNAME":"屏東縣","TOWNNAME":"牡丹鄉","MARKTYPE":"996","Class":"6"},"geometry":{"x":237533.87719999999,"y":2454630.1164999995}},{"attributes":{"OBJECTID":16034,"LANDMARKID":"1001300001267","LANDMARKCO":"508","LANDMARKNA":"茴香戀戀溫泉會館","LANDMARKAD":"1001333","ADDRESS":"屏東縣車城鄉溫泉村大梅路1之16號","TEL":"08-8824900","COUNTYNAME":"屏東縣","TOWNNAME":"牡丹鄉","MARKTYPE":"995","Class":"5"},"geometry":{"x":223924.80429999996,"y":2444628.6548999995}},{"attributes":{"OBJECTID":16035,"LANDMARKID":"1001300001268","LANDMARKCO":"508","LANDMARKNA":"旭海溫泉(旭海公共浴室)","LANDMARKAD":"1001333","ADDRESS":"屏東縣牡丹鄉","TEL":" ","COUNTYNAME":"屏東縣","TOWNNAME":"牡丹鄉","MARKTYPE":"995","Class":"5"},"geometry":{"x":237349.91959999967,"y":2454545.2250999995}},{"attributes":{"OBJECTID":16036,"LANDMARKID":"1001300001209","LANDMARKCO":"504","LANDMARKNA":"四林格山自然景觀區","LANDMARKAD":"1001333","ADDRESS":"屏東縣牡丹鄉","TEL":" ","COUNTYNAME":"屏東縣","TOWNNAME":"牡丹鄉","MARKTYPE":"995","Class":"5"},"geometry":{"x":229592.55939999968,"y":2442338.6527999993}},{"attributes":{"OBJECTID":16037,"LANDMARKID":"1001300001210","LANDMARKCO":"504","LANDMARKNA":"東源遊樂區","LANDMARKAD":"1001333","ADDRESS":"屏東縣牡丹鄉","TEL":" ","COUNTYNAME":"屏東縣","TOWNNAME":"牡丹鄉","MARKTYPE":"995","Class":"5"},"geometry":{"x":235413.67509999964,"y":2456206.4529999997}},{"attributes":{"OBJECTID":16038,"LANDMARKID":"1001300001196","LANDMARKCO":"503","LANDMARKNA":"旭海大草原","LANDMARKAD":"1001333","ADDRESS":"屏東縣牡丹鄉","TEL":" ","COUNTYNAME":"屏東縣","TOWNNAME":"牡丹鄉","MARKTYPE":"995","Class":"5"},"geometry":{"x":238613.28280000016,"y":2456384.1217999998}},{"attributes":{"OBJECTID":16039,"LANDMARKID":"1001300001197","LANDMARKCO":"503","LANDMARKNA":"牡丹水庫","LANDMARKAD":"1001333","ADDRESS":"屏東縣牡丹鄉","TEL":" ","COUNTYNAME":"屏東縣","TOWNNAME":"牡丹鄉","MARKTYPE":"995","Class":"5"},"geometry":{"x":227802.99500000011,"y":2447841.9949999992}},{"attributes":{"OBJECTID":16040,"LANDMARKID":"1001300000910","LANDMARKCO":"405","LANDMARKNA":"中油加油站-大發站","LANDMARKAD":"1001323","ADDRESS":"屏東縣車城鄉福興村中山路2號","TEL":"08-8823817","COUNTYNAME":"屏東縣","TOWNNAME":"車城鄉","MARKTYPE":"994","Class":"4"},"geometry":{"x":220441.18649999984,"y":2441350.2935000006}},{"attributes":{"OBJECTID":16041,"LANDMARKID":"1001300001142","LANDMARKCO":"408","LANDMARKNA":"郵局-車城郵局","LANDMARKAD":"1001323","ADDRESS":"屏東縣車城鄉福興村中山路54號","TEL":"(08)8821-046","COUNTYNAME":"屏東縣","TOWNNAME":"車城鄉","MARKTYPE":"994","Class":"4"},"geometry":{"x":220470.68319999985,"y":2441750.5423000008}},{"attributes":{"OBJECTID":16042,"LANDMARKID":"1001300001164","LANDMARKCO":"409","LANDMARKNA":"屏東縣車城鄉農會","LANDMARKAD":"1001323","ADDRESS":"屏東縣車城鄉福興村中山路15號","TEL":"08-8821526","COUNTYNAME":"屏東縣","TOWNNAME":"車城鄉","MARKTYPE":"994","Class":"4"},"geometry":{"x":220464.21520000044,"y":2441493.3000000007}},{"attributes":{"OBJECTID":16043,"LANDMARKID":"1001300001077","LANDMARKCO":"406","LANDMARKNA":"四重溪公園","LANDMARKAD":"1001323","ADDRESS":"屏東縣車城鄉","TEL":" ","COUNTYNAME":"屏東縣","TOWNNAME":"車城鄉","MARKTYPE":"994","Class":"4"},"geometry":{"x":223876.12330000009,"y":2443931.7846000008}},{"attributes":{"OBJECTID":16044,"LANDMARKID":"1001300000911","LANDMARKCO":"405","LANDMARKNA":"台塑加油站-鑫德站(台塑)","LANDMARKAD":"1001323","ADDRESS":"屏東縣車城鄉新街村保新路80號","TEL":"08-8823377","COUNTYNAME":"屏東縣","TOWNNAME":"車城鄉","MARKTYPE":"994","Class":"4"},"geometry":{"x":220702.03029999975,"y":2440510.2284999993}},{"attributes":{"OBJECTID":16045,"LANDMARKID":"1001300000213","LANDMARKCO":"107","LANDMARKNA":"屏東縣警察局射寮派出所","LANDMARKAD":"1001323","ADDRESS":"屏東縣車城鄉射寮村射寮路168號","TEL":"08-8821785","COUNTYNAME":"屏東縣","TOWNNAME":"車城鄉","MARKTYPE":"991","Class":"1"},"geometry":{"x":219638.76850000024,"y":2439550.0637999997}},{"attributes":{"OBJECTID":16046,"LANDMARKID":"1001300000146","LANDMARKCO":"106","LANDMARKNA":"屏東縣車城鄉戶政事務所","LANDMARKAD":"1001323","ADDRESS":"屏東縣車城鄉福興村15鄰中山路17號","TEL":"08-8821974","COUNTYNAME":"屏東縣","TOWNNAME":"車城鄉","MARKTYPE":"991","Class":"1"},"geometry":{"x":220511.21829999983,"y":2441639.8277000003}},{"attributes":{"OBJECTID":16047,"LANDMARKID":"1001300000211","LANDMARKCO":"107","LANDMARKNA":"屏東縣警察局車城分駐所","LANDMARKAD":"1001323","ADDRESS":"屏東縣車城鄉福興村中山路17號","TEL":"08-8821152","COUNTYNAME":"屏東縣","TOWNNAME":"車城鄉","MARKTYPE":"991","Class":"1"},"geometry":{"x":220511.21829999983,"y":2441639.8277000003}},{"attributes":{"OBJECTID":16048,"LANDMARKID":"1001300000212","LANDMARKCO":"107","LANDMARKNA":"屏東縣警察局萬隆派出所","LANDMARKAD":"1001323","ADDRESS":"屏東縣萬隆村中山路63號","TEL":"08-7870611","COUNTYNAME":"屏東縣","TOWNNAME":"車城鄉","MARKTYPE":"991","Class":"1"},"geometry":{"x":220502.89960000012,"y":2441809.8122000005}},{"attributes":{"OBJECTID":16049,"LANDMARKID":"1001300000054","LANDMARKCO":"103","LANDMARKNA":"屏東縣車城鄉衛生所","LANDMARKAD":"1001323","ADDRESS":"屏東縣車城鄉福安村福安路2之30號","TEL":"08-8821300","COUNTYNAME":"屏東縣","TOWNNAME":"車城鄉","MARKTYPE":"991","Class":"1"},"geometry":{"x":220331.24179999996,"y":2441320.0309999995}},{"attributes":{"OBJECTID":16050,"LANDMARKID":"1001300000055","LANDMARKCO":"103","LANDMARKNA":"屏東縣車城鄉民代表會","LANDMARKAD":"1001323","ADDRESS":"屏東縣車城鄉中山路53號3F","TEL":"08-8821003","COUNTYNAME":"屏東縣","TOWNNAME":"車城鄉","MARKTYPE":"991","Class":"1"},"geometry":{"x":220521.97470000014,"y":2441769.8478999995}},{"attributes":{"OBJECTID":16051,"LANDMARKID":"1001300000322","LANDMARKCO":"108","LANDMARKNA":"屏東縣車城鄉公所","LANDMARKAD":"1001323","ADDRESS":"屏東縣車城鄉福興村中山路53號","TEL":"08-8821001","COUNTYNAME":"屏東縣","TOWNNAME":"車城鄉","MARKTYPE":"991","Class":"1"},"geometry":{"x":220521.97470000014,"y":2441769.8478999995}},{"attributes":{"OBJECTID":16052,"LANDMARKID":"1001300000674","LANDMARKCO":"205","LANDMARKNA":"國立海洋生物博物館","LANDMARKAD":"1001323","ADDRESS":"屏東縣車城鄉後灣路2號","TEL":"08-8824545","COUNTYNAME":"屏東縣","TOWNNAME":"車城鄉","MARKTYPE":"992","Class":"2"},"geometry":{"x":218889.33980000019,"y":2438766.9806999993}},{"attributes":{"OBJECTID":16053,"LANDMARKID":"1001300000657","LANDMARKCO":"204","LANDMARKNA":"屏東縣立圖書館車城分館","LANDMARKAD":"1001323","ADDRESS":"屏東縣車城鄉福興村仁愛路26號","TEL":" ","COUNTYNAME":"屏東縣","TOWNNAME":"車城鄉","MARKTYPE":"992","Class":"2"},"geometry":{"x":220594.47599999979,"y":2441626.9567000009}},{"attributes":{"OBJECTID":16054,"LANDMARKID":"1001300000440","LANDMARKCO":"203","LANDMARKNA":"縣立車城國中","LANDMARKAD":"1001323","ADDRESS":"屏東縣車城鄉新興路42號","TEL":"08-8821045","COUNTYNAME":"屏東縣","TOWNNAME":"車城鄉","MARKTYPE":"992","Class":"2"},"geometry":{"x":220742.19680000003,"y":2441660.2588999998}},{"attributes":{"OBJECTID":16055,"LANDMARKID":"1001300000441","LANDMARKCO":"203","LANDMARKNA":"縣立車城國小","LANDMARKAD":"1001323","ADDRESS":"屏東縣車城鄉福興村中山路66號","TEL":"08-8821006","COUNTYNAME":"屏東縣","TOWNNAME":"車城鄉","MARKTYPE":"992","Class":"2"},"geometry":{"x":220544.7845999999,"y":2441879.8905999996}},{"attributes":{"OBJECTID":16056,"LANDMARKID":"1001300000442","LANDMARKCO":"203","LANDMARKNA":"縣立溫泉國小","LANDMARKAD":"1001323","ADDRESS":"屏東縣車城鄉溫泉村文化路23號","TEL":"08-8821005","COUNTYNAME":"屏東縣","TOWNNAME":"車城鄉","MARKTYPE":"992","Class":"2"},"geometry":{"x":224075.15070000011,"y":2444200.0176999997}},{"attributes":{"OBJECTID":16057,"LANDMARKID":"1001300000443","LANDMARKCO":"203","LANDMARKNA":"縣立保力國小","LANDMARKAD":"1001323","ADDRESS":"屏東縣車城鄉保力村保力路30號","TEL":"08-8821009","COUNTYNAME":"屏東縣","TOWNNAME":"車城鄉","MARKTYPE":"992","Class":"2"},"geometry":{"x":221873.24289999995,"y":2439790.2171}},{"attributes":{"OBJECTID":16058,"LANDMARKID":"1001300000444","LANDMARKCO":"203","LANDMARKNA":"縣立射寮國小","LANDMARKAD":"1001323","ADDRESS":"屏東縣車城鄉埔墘村埔墘路38號","TEL":"08-8821010","COUNTYNAME":"屏東縣","TOWNNAME":"車城鄉","MARKTYPE":"992","Class":"2"},"geometry":{"x":220257.07919999957,"y":2439859.8964000009}},{"attributes":{"OBJECTID":16059,"LANDMARKID":"1001300000445","LANDMARKCO":"203","LANDMARKNA":"縣立保力國小竹社分班","LANDMARKAD":"1001323","ADDRESS":"屏東縣車城鄉","TEL":" ","COUNTYNAME":"屏東縣","TOWNNAME":"車城鄉","MARKTYPE":"992","Class":"2"},"geometry":{"x":226861.66619999986,"y":2441490.1275999993}},{"attributes":{"OBJECTID":16060,"LANDMARKID":"1001300000790","LANDMARKCO":"305","LANDMARKNA":"射寮漁港","LANDMARKAD":"1001323","ADDRESS":"屏東縣東城鎮","TEL":" ","COUNTYNAME":"屏東縣","TOWNNAME":"車城鄉","MARKTYPE":"993","Class":"305"},"geometry":{"x":219760.99349999987,"y":2439824.1169000007}},{"attributes":{"OBJECTID":16061,"LANDMARKID":"1001300000791","LANDMARKCO":"305","LANDMARKNA":"後灣漁港","LANDMARKAD":"1001323","ADDRESS":"屏東縣東城鎮","TEL":" ","COUNTYNAME":"屏東縣","TOWNNAME":"車城鄉","MARKTYPE":"993","Class":"305"},"geometry":{"x":218678.78390000015,"y":2438071.4675999992}},{"attributes":{"OBJECTID":16062,"LANDMARKID":"1001300000792","LANDMARKCO":"305","LANDMARKNA":"海口漁港","LANDMARKAD":"1001323","ADDRESS":"屏東縣車城鄉","TEL":" ","COUNTYNAME":"屏東縣","TOWNNAME":"車城鄉","MARKTYPE":"993","Class":"305"},"geometry":{"x":220761.74820000026,"y":2443703.3825000003}},{"attributes":{"OBJECTID":16063,"LANDMARKID":"1001300000770","LANDMARKCO":"303","LANDMARKNA":"石門古戰場停車場","LANDMARKAD":"1001323","ADDRESS":"屏東縣車城鄉","TEL":" ","COUNTYNAME":"屏東縣","TOWNNAME":"車城鄉","MARKTYPE":"993","Class":"303"},"geometry":{"x":225306.43809999991,"y":2445911.5441999994}},{"attributes":{"OBJECTID":16064,"LANDMARKID":"1001300000771","LANDMARKCO":"303","LANDMARKNA":"國立海洋生物博物館停車場","LANDMARKAD":"1001323","ADDRESS":"屏東縣車城鄉後灣路2號","TEL":"08-8824545","COUNTYNAME":"屏東縣","TOWNNAME":"車城鄉","MARKTYPE":"993","Class":"303"},"geometry":{"x":219176.69699999969,"y":2438679.0814999994}},{"attributes":{"OBJECTID":16065,"LANDMARKID":"1001300000772","LANDMARKCO":"303","LANDMARKNA":"南台灣溫泉大飯店停車場","LANDMARKAD":"1001323","ADDRESS":"屏東縣車城鄉溫泉路玉泉巷37號","TEL":"08-8822301","COUNTYNAME":"屏東縣","TOWNNAME":"車城鄉","MARKTYPE":"993","Class":"303"},"geometry":{"x":223700.80059999973,"y":2444009.8637000006}},{"attributes":{"OBJECTID":16066,"LANDMARKID":"1001300000773","LANDMARKCO":"303","LANDMARKNA":"溫泉公園停車場","LANDMARKAD":"1001323","ADDRESS":" ","TEL":" ","COUNTYNAME":"屏東縣","TOWNNAME":"車城鄉","MARKTYPE":"993","Class":"303"},"geometry":{"x":223933.78019999992,"y":2443986.9943000004}},{"attributes":{"OBJECTID":16067,"LANDMARKID":"1001300000774","LANDMARKCO":"303","LANDMARKNA":"合家歡停車場","LANDMARKAD":"1001323","ADDRESS":" ","TEL":" ","COUNTYNAME":"屏東縣","TOWNNAME":"車城鄉","MARKTYPE":"993","Class":"303"},"geometry":{"x":224284.97240000032,"y":2444206.1348000001}},{"attributes":{"OBJECTID":16068,"LANDMARKID":"1001300000775","LANDMARKCO":"303","LANDMARKNA":"後灣海博物館停車場","LANDMARKAD":"1001323","ADDRESS":"屏東縣車城鄉後灣路","TEL":" ","COUNTYNAME":"屏東縣","TOWNNAME":"車城鄉","MARKTYPE":"993","Class":"303"},"geometry":{"x":219848.44359999988,"y":2439891.6161000002}},{"attributes":{"OBJECTID":16069,"LANDMARKID":"1001300000776","LANDMARKCO":"303","LANDMARKNA":"海口沙漠停車場","LANDMARKAD":"1001323","ADDRESS":"屏東縣車城鄉","TEL":" ","COUNTYNAME":"屏東縣","TOWNNAME":"車城鄉","MARKTYPE":"993","Class":"303"},"geometry":{"x":219741.44259999972,"y":2443029.3992999997}},{"attributes":{"OBJECTID":16070,"LANDMARKID":"1001300001285","LANDMARKCO":"603","LANDMARKNA":"川酈溫泉渡假休閒旅館","LANDMARKAD":"1001323","ADDRESS":"屏東縣車城鄉溫泉村溫泉路文化巷4-1號","TEL":"08-8825940","COUNTYNAME":"屏東縣","TOWNNAME":"車城鄉","MARKTYPE":"996","Class":"6"},"geometry":{"x":224055.52699999977,"y":2444051.6246000007}},{"attributes":{"OBJECTID":16071,"LANDMARKID":"1001300001286","LANDMARKCO":"603","LANDMARKNA":"洺泉大旅社","LANDMARKAD":"1001323","ADDRESS":"屏東縣車城鄉溫泉村溫泉路玉泉巷2號","TEL":"08-8821725","COUNTYNAME":"屏東縣","TOWNNAME":"車城鄉","MARKTYPE":"996","Class":"6"},"geometry":{"x":223951.21420000028,"y":2443903.3687999994}},{"attributes":{"OBJECTID":16072,"LANDMARKID":"1001300001287","LANDMARKCO":"603","LANDMARKNA":"溫泉大旅社","LANDMARKAD":"1001323","ADDRESS":"屏東縣車城鄉溫泉村溫泉路玉泉巷4號","TEL":"08-8821925","COUNTYNAME":"屏東縣","TOWNNAME":"車城鄉","MARKTYPE":"996","Class":"6"},"geometry":{"x":223942.85620000027,"y":2443887.5357000008}},{"attributes":{"OBJECTID":16073,"LANDMARKID":"1001300001288","LANDMARKCO":"603","LANDMARKNA":"新溫泉渡假旅館","LANDMARKAD":"1001323","ADDRESS":"屏東縣車城鄉文化路1-10號","TEL":"08-8821597","COUNTYNAME":"屏東縣","TOWNNAME":"車城鄉","MARKTYPE":"996","Class":"6"},"geometry":{"x":224058.01180000044,"y":2444016.6367000006}},{"attributes":{"OBJECTID":16074,"LANDMARKID":"1001300001289","LANDMARKCO":"603","LANDMARKNA":"淵興旅社","LANDMARKAD":"1001323","ADDRESS":"屏東縣車城鄉福興村中山路16號","TEL":"08-8821069","COUNTYNAME":"屏東縣","TOWNNAME":"車城鄉","MARKTYPE":"996","Class":"6"},"geometry":{"x":220461.51889999956,"y":2441530.5262000002}},{"attributes":{"OBJECTID":16075,"LANDMARKID":"1001300001290","LANDMARKCO":"603","LANDMARKNA":"荷蘭?渡假飯店","LANDMARKAD":"1001323","ADDRESS":"屏東縣車城鄉仁愛路36號","TEL":"08-8823131","COUNTYNAME":"屏東縣","TOWNNAME":"車城鄉","MARKTYPE":"996","Class":"6"},"geometry":{"x":220613.72159999982,"y":2441730.2695000004}},{"attributes":{"OBJECTID":16076,"LANDMARKID":"1001300001291","LANDMARKCO":"603","LANDMARKNA":"墾丁六福莊","LANDMARKAD":"1001323","ADDRESS":"屏東縣車城鄉海口村海口路6-5號","TEL":"08-8825765","COUNTYNAME":"屏東縣","TOWNNAME":"車城鄉","MARKTYPE":"996","Class":"6"},"geometry":{"x":220743.84379999992,"y":2443510.5059999991}},{"attributes":{"OBJECTID":16077,"LANDMARKID":"1001300001292","LANDMARKCO":"603","LANDMARKNA":"清泉旅社","LANDMARKAD":"1001323","ADDRESS":"屏東縣車城鄉溫泉村文化路5號","TEL":"08-8824096","COUNTYNAME":"屏東縣","TOWNNAME":"車城鄉","MARKTYPE":"996","Class":"6"},"geometry":{"x":224013.9263000004,"y":2444080.1666000001}},{"attributes":{"OBJECTID":16078,"LANDMARKID":"1001300001293","LANDMARKCO":"603","LANDMARKNA":"新龜山別館","LANDMARKAD":"1001323","ADDRESS":"屏東縣車城鄉溫泉村溫泉路106號","TEL":"08-8822738","COUNTYNAME":"屏東縣","TOWNNAME":"車城鄉","MARKTYPE":"996","Class":"6"},"geometry":{"x":224037.64960000012,"y":2443940.2065999992}},{"attributes":{"OBJECTID":16079,"LANDMARKID":"1001300001294","LANDMARKCO":"603","LANDMARKNA":"車城福安旅館","LANDMARKAD":"1001323","ADDRESS":"屏東縣車城鄉福興村中正路88號","TEL":"08-8822499","COUNTYNAME":"屏東縣","TOWNNAME":"車城鄉","MARKTYPE":"996","Class":"6"},"geometry":{"x":220296.47910000011,"y":2441550.2155000009}},{"attributes":{"OBJECTID":16080,"LANDMARKID":"1001300001417","LANDMARKCO":"604","LANDMARKNA":"祥源渡假民宿","LANDMARKAD":"1001323","ADDRESS":"屏東縣車城鄉中山路8-12號","TEL":"08-8822886","COUNTYNAME":"屏東縣","TOWNNAME":"車城鄉","MARKTYPE":"996","Class":"6"},"geometry":{"x":220458.61280000024,"y":2441480.5207000002}},{"attributes":{"OBJECTID":16081,"LANDMARKID":"1001300001418","LANDMARKCO":"604","LANDMARKNA":"萬春溫泉民宿","LANDMARKAD":"1001323","ADDRESS":"屏東縣車城鄉溫泉村溫泉路227號","TEL":"08-8825328","COUNTYNAME":"屏東縣","TOWNNAME":"車城鄉","MARKTYPE":"996","Class":"6"},"geometry":{"x":224209.81149999984,"y":2444150.0162000004}},{"attributes":{"OBJECTID":16082,"LANDMARKID":"1001300001419","LANDMARKCO":"604","LANDMARKNA":"田園民宿","LANDMARKAD":"1001323","ADDRESS":"屏東縣車城鄉溫泉村溫泉路355號","TEL":"08-8821488","COUNTYNAME":"屏東縣","TOWNNAME":"車城鄉","MARKTYPE":"996","Class":"6"},"geometry":{"x":224524.69550000038,"y":2444530.0611000005}},{"attributes":{"OBJECTID":16083,"LANDMARKID":"1001300001420","LANDMARKCO":"604","LANDMARKNA":"梅竹民宿","LANDMARKAD":"1001323","ADDRESS":"屏東縣車城鄉福興村中正路6-1號","TEL":"08-8824665","COUNTYNAME":"屏東縣","TOWNNAME":"車城鄉","MARKTYPE":"996","Class":"6"},"geometry":{"x":220466.83330000006,"y":2441670.5351}},{"attributes":{"OBJECTID":16084,"LANDMARKID":"1001300001284","LANDMARKCO":"602","LANDMARKNA":"南臺灣大飯店","LANDMARKAD":"1001323","ADDRESS":"屏東縣車城鄉溫泉路玉泉巷37號","TEL":"08-882-2301","COUNTYNAME":"屏東縣","TOWNNAME":"車城鄉","MARKTYPE":"996","Class":"6"},"geometry":{"x":223706.35369999986,"y":2444003.0534000006}},{"attributes":{"OBJECTID":16085,"LANDMARKID":"1001300001216","LANDMARKCO":"505","LANDMARKNA":"國立海洋生物博物館珊瑚王國館","LANDMARKAD":"1001323","ADDRESS":"屏東縣車城鄉後灣路2號","TEL":"08-8824545","COUNTYNAME":"屏東縣","TOWNNAME":"車城鄉","MARKTYPE":"995","Class":"5"},"geometry":{"x":218693.81070000026,"y":2438774.6572999991}},{"attributes":{"OBJECTID":16086,"LANDMARKID":"1001300001217","LANDMARKCO":"505","LANDMARKNA":"國立海洋生物博物館台灣水域館","LANDMARKAD":"1001323","ADDRESS":"屏東縣車城鄉後灣路2號","TEL":"08-8824545","COUNTYNAME":"屏東縣","TOWNNAME":"車城鄉","MARKTYPE":"995","Class":"5"},"geometry":{"x":218719.66590000037,"y":2438664.4464999996}},{"attributes":{"OBJECTID":16087,"LANDMARKID":"1001300001218","LANDMARKCO":"505","LANDMARKNA":"國立海洋生物博物館世界水域館","LANDMARKAD":"1001323","ADDRESS":"屏東縣車城鄉後灣路2號","TEL":"08-8824545","COUNTYNAME":"屏東縣","TOWNNAME":"車城鄉","MARKTYPE":"995","Class":"5"},"geometry":{"x":218766.86050000042,"y":2438895.4409999996}},{"attributes":{"OBJECTID":16088,"LANDMARKID":"1001300001219","LANDMARKCO":"505","LANDMARKNA":"國立海洋生物博物館鯨魚親水廣場","LANDMARKAD":"1001323","ADDRESS":"屏東縣車城鄉後灣路2號","TEL":"08-8824545","COUNTYNAME":"屏東縣","TOWNNAME":"車城鄉","MARKTYPE":"995","Class":"5"},"geometry":{"x":218789.7918999996,"y":2438728.1445000004}},{"attributes":{"OBJECTID":16089,"LANDMARKID":"1001300001220","LANDMARKCO":"505","LANDMARKNA":"國立海洋生物博物館水族實驗中心","LANDMARKAD":"1001323","ADDRESS":"屏東縣車城鄉後灣路2號","TEL":"08-8824545","COUNTYNAME":"屏東縣","TOWNNAME":"車城鄉","MARKTYPE":"995","Class":"5"},"geometry":{"x":218875.5251000002,"y":2439231.7324000001}},{"attributes":{"OBJECTID":16090,"LANDMARKID":"1001300001221","LANDMARKCO":"505","LANDMARKNA":"國立海洋生物博物館太平洋親水廣場","LANDMARKAD":"1001323","ADDRESS":"屏東縣車城鄉後灣路2號","TEL":"08-8824545","COUNTYNAME":"屏東縣","TOWNNAME":"車城鄉","MARKTYPE":"995","Class":"5"},"geometry":{"x":218948.45770000014,"y":2438771.8057000004}},{"attributes":{"OBJECTID":16091,"LANDMARKID":"1001300001222","LANDMARKCO":"505","LANDMARKNA":"國立海洋生物博物館售票區","LANDMARKAD":"1001323","ADDRESS":"屏東縣車城鄉後灣路2號","TEL":"08-8824545","COUNTYNAME":"屏東縣","TOWNNAME":"車城鄉","MARKTYPE":"995","Class":"5"},"geometry":{"x":218948.73680000007,"y":2438806.2250999995}},{"attributes":{"OBJECTID":16092,"LANDMARKID":"1001300001258","LANDMARKCO":"508","LANDMARKNA":"南台灣溫泉大飯店","LANDMARKAD":"1001323","ADDRESS":"屏東縣車城鄉溫泉村玉泉巷37號","TEL":"08-8822301","COUNTYNAME":"屏東縣","TOWNNAME":"車城鄉","MARKTYPE":"995","Class":"5"},"geometry":{"x":223669.66590000037,"y":2444023.7215}},{"attributes":{"OBJECTID":16093,"LANDMARKID":"1001300001259","LANDMARKCO":"508","LANDMARKNA":"四鼎溪賓館","LANDMARKAD":"1001323","ADDRESS":"屏東縣車城鄉溫泉路玉泉巷39之2號","TEL":"08-8821311","COUNTYNAME":"屏東縣","TOWNNAME":"車城鄉","MARKTYPE":"995","Class":"5"},"geometry":{"x":223799.14070000034,"y":2443907.4726}},{"attributes":{"OBJECTID":16094,"LANDMARKID":"1001300001260","LANDMARKCO":"508","LANDMARKNA":"景福溫泉渡假山莊","LANDMARKAD":"1001323","ADDRESS":"屏屏東縣車城鄉溫泉村玉泉巷8號","TEL":"08-8821310","COUNTYNAME":"屏東縣","TOWNNAME":"車城鄉","MARKTYPE":"995","Class":"5"},"geometry":{"x":223912.61930000037,"y":2443871.8968000002}},{"attributes":{"OBJECTID":16095,"LANDMARKID":"1001300001261","LANDMARKCO":"508","LANDMARKNA":"四重溪溫泉大旅社","LANDMARKAD":"1001323","ADDRESS":"屏東縣車城鄉溫泉村玉泉巷4號","TEL":"08-8821925","COUNTYNAME":"屏東縣","TOWNNAME":"車城鄉","MARKTYPE":"995","Class":"5"},"geometry":{"x":223931.04399999976,"y":2443891.6894000005}},{"attributes":{"OBJECTID":16096,"LANDMARKID":"1001300001262","LANDMARKCO":"508","LANDMARKNA":"緣鄉溫泉餐廳","LANDMARKAD":"1001323","ADDRESS":"屏東縣車城鄉溫泉路85號","TEL":"08-8824071","COUNTYNAME":"屏東縣","TOWNNAME":"車城鄉","MARKTYPE":"995","Class":"5"},"geometry":{"x":223938.22620000038,"y":2443943.2798999995}},{"attributes":{"OBJECTID":16097,"LANDMARKID":"1001300001263","LANDMARKCO":"508","LANDMARKNA":"清泉溫泉山莊","LANDMARKAD":"1001323","ADDRESS":"屏東縣車城鄉文化路5號","TEL":"08-8824120","COUNTYNAME":"屏東縣","TOWNNAME":"車城鄉","MARKTYPE":"995","Class":"5"},"geometry":{"x":224018.34619999956,"y":2444087.5479000006}},{"attributes":{"OBJECTID":16098,"LANDMARKID":"1001300001264","LANDMARKCO":"508","LANDMARKNA":"新龜山露天溫泉別館","LANDMARKAD":"1001323","ADDRESS":"屏東縣車城鄉溫泉路106號","TEL":"08-8822738","COUNTYNAME":"屏東縣","TOWNNAME":"車城鄉","MARKTYPE":"995","Class":"5"},"geometry":{"x":224052.75329999998,"y":2443941.8739999998}},{"attributes":{"OBJECTID":16099,"LANDMARKID":"1001300001265","LANDMARKCO":"508","LANDMARKNA":"四重溪溫泉","LANDMARKAD":"1001323","ADDRESS":"屏東縣車城鄉溫泉村","TEL":" ","COUNTYNAME":"屏東縣","TOWNNAME":"車城鄉","MARKTYPE":"995","Class":"5"},"geometry":{"x":223675.47759999987,"y":2444184.9869999997}},{"attributes":{"OBJECTID":16100,"LANDMARKID":"1001300001266","LANDMARKCO":"508","LANDMARKNA":"陽光城堡度假飯店","LANDMARKAD":"1001323","ADDRESS":"屏東縣車城鄉溫泉路253號","TEL":"08-8823111","COUNTYNAME":"屏東縣","TOWNNAME":"車城鄉","MARKTYPE":"995","Class":"5"},"geometry":{"x":224273.79260000028,"y":2444194.5891999993}},{"attributes":{"OBJECTID":16101,"LANDMARKID":"1001300001271","LANDMARKCO":"510","LANDMARKNA":"大統立高爾夫球場","LANDMARKAD":"1001323","ADDRESS":"屏東縣車城鄉海口村尖山61號","TEL":"08-8823963","COUNTYNAME":"屏東縣","TOWNNAME":"車城鄉","MARKTYPE":"995","Class":"5"},"geometry":{"x":220007.33609999996,"y":2447987.0960000008}},{"attributes":{"OBJECTID":16102,"LANDMARKID":"1001300000912","LANDMARKCO":"405","LANDMARKNA":"中油加油站-桂豐站","LANDMARKAD":"1001324","ADDRESS":"屏東縣滿州鄉中山路15-2號","TEL":"08-8801823","COUNTYNAME":"屏東縣","TOWNNAME":"滿州鄉","MARKTYPE":"994","Class":"4"},"geometry":{"x":233221.2182,"y":2435389.7280000001}},{"attributes":{"OBJECTID":16103,"LANDMARKID":"1001300000913","LANDMARKCO":"405","LANDMARKNA":"中油加油站-滿州站(中油直營)","LANDMARKAD":"1001324","ADDRESS":"屏東縣滿州鄉永靖村新庄路150號","TEL":"08-8801713","COUNTYNAME":"屏東縣","TOWNNAME":"滿州鄉","MARKTYPE":"994","Class":"4"},"geometry":{"x":230594.08690000046,"y":2434179.6975999996}},{"attributes":{"OBJECTID":16104,"LANDMARKID":"1001300001241","LANDMARKCO":"506","LANDMARKNA":"老佛山休閒農場","LANDMARKAD":"1001324","ADDRESS":"屏東縣滿州鄉嚮林村佛山路66號","TEL":"08-8801620","COUNTYNAME":"屏東縣","TOWNNAME":"滿州鄉","MARKTYPE":"995","Class":"5"},"geometry":{"x":228870.7050999999,"y":2437747.6030999999}},{"attributes":{"OBJECTID":16105,"LANDMARKID":"1001300001145","LANDMARKCO":"408","LANDMARKNA":"郵局-滿州郵局","LANDMARKAD":"1001324","ADDRESS":"屏東縣滿州鄉中山路25號","TEL":"(08)8801-110","COUNTYNAME":"屏東縣","TOWNNAME":"滿州鄉","MARKTYPE":"994","Class":"4"},"geometry":{"x":233258.83160000015,"y":2435570.1973999999}},{"attributes":{"OBJECTID":16106,"LANDMARKID":"1001300001163","LANDMARKCO":"409","LANDMARKNA":"屏東縣滿州鄉農會","LANDMARKAD":"1001324","ADDRESS":"屏東縣滿州鄉滿州村中山路34號","TEL":"08-8801117","COUNTYNAME":"屏東縣","TOWNNAME":"滿州鄉","MARKTYPE":"994","Class":"4"},"geometry":{"x":233343.82199999969,"y":2435799.1458000001}},{"attributes":{"OBJECTID":16107,"LANDMARKID":"1001300001076","LANDMARKCO":"406","LANDMARKNA":"漁村公園","LANDMARKAD":"1001324","ADDRESS":"屏東縣滿州鄉","TEL":" ","COUNTYNAME":"屏東縣","TOWNNAME":"滿州鄉","MARKTYPE":"994","Class":"4"},"geometry":{"x":234185.52929999959,"y":2432358.2508000005}},{"attributes":{"OBJECTID":16108,"LANDMARKID":"1001300000214","LANDMARKCO":"107","LANDMARKNA":"屏東縣消防局滿州消防分隊","LANDMARKAD":"1001324","ADDRESS":"屏東縣滿州鄉中山路1號","TEL":"08-8802971","COUNTYNAME":"屏東縣","TOWNNAME":"滿州鄉","MARKTYPE":"991","Class":"1"},"geometry":{"x":233280.8953999998,"y":2435510.2207999993}},{"attributes":{"OBJECTID":16109,"LANDMARKID":"1001300000215","LANDMARKCO":"107","LANDMARKNA":"屏東縣警察局長樂派出所","LANDMARKAD":"1001324","ADDRESS":"屏東縣滿州鄉長樂村大公路33號","TEL":"08-8811141","COUNTYNAME":"屏東縣","TOWNNAME":"滿州鄉","MARKTYPE":"991","Class":"1"},"geometry":{"x":232277.96740000043,"y":2441900.0642000008}},{"attributes":{"OBJECTID":16110,"LANDMARKID":"1001300000159","LANDMARKCO":"106","LANDMARKNA":"屏東縣滿州鄉戶政事務所","LANDMARKAD":"1001324","ADDRESS":"屏東縣滿州鄉滿州村中山路3巷36號","TEL":"08-8801194","COUNTYNAME":"屏東縣","TOWNNAME":"滿州鄉","MARKTYPE":"991","Class":"1"},"geometry":{"x":233198.31769999955,"y":2435919.6327999998}},{"attributes":{"OBJECTID":16111,"LANDMARKID":"1001300000160","LANDMARKCO":"107","LANDMARKNA":"屏東縣警察局滿州分駐所","LANDMARKAD":"1001324","ADDRESS":"屏東縣滿州鄉滿州村中山路60號","TEL":"08-8801161","COUNTYNAME":"屏東縣","TOWNNAME":"滿州鄉","MARKTYPE":"991","Class":"1"},"geometry":{"x":233397.37260000035,"y":2435869.5384999998}},{"attributes":{"OBJECTID":16112,"LANDMARKID":"1001300000161","LANDMARKCO":"107","LANDMARKNA":"屏東縣警察局九棚派出所","LANDMARKAD":"1001324","ADDRESS":"屏東縣滿州鄉港仔村港仔路60號","TEL":"08-8810200","COUNTYNAME":"屏東縣","TOWNNAME":"滿州鄉","MARKTYPE":"991","Class":"1"},"geometry":{"x":237797.7070000004,"y":2448359.8498999998}},{"attributes":{"OBJECTID":16113,"LANDMARKID":"1001300000036","LANDMARKCO":"103","LANDMARKNA":"屏東縣滿州鄉衛生所","LANDMARKAD":"1001324","ADDRESS":"屏東縣滿州鄉中山路31號","TEL":"08-8801279","COUNTYNAME":"屏東縣","TOWNNAME":"滿州鄉","MARKTYPE":"991","Class":"1"},"geometry":{"x":233280.25760000013,"y":2435669.7202000003}},{"attributes":{"OBJECTID":16114,"LANDMARKID":"1001300000037","LANDMARKCO":"103","LANDMARKNA":"屏東縣滿州鄉鄉民代表會","LANDMARKAD":"1001324","ADDRESS":"屏東縣滿州鄉滿州村中山路43號","TEL":"08-8801109","COUNTYNAME":"屏東縣","TOWNNAME":"滿州鄉","MARKTYPE":"991","Class":"1"},"geometry":{"x":233336.36149999965,"y":2435879.7792000007}},{"attributes":{"OBJECTID":16115,"LANDMARKID":"1001300000337","LANDMARKCO":"108","LANDMARKNA":"屏東縣滿州鄉公所","LANDMARKAD":"1001324","ADDRESS":"屏東縣滿州鄉中山路43號","TEL":"08-8801105","COUNTYNAME":"屏東縣","TOWNNAME":"滿州鄉","MARKTYPE":"991","Class":"1"},"geometry":{"x":233336.36149999965,"y":2435879.7792000007}},{"attributes":{"OBJECTID":16116,"LANDMARKID":"1001300000666","LANDMARKCO":"204","LANDMARKNA":"屏東縣立圖書館滿州分館","LANDMARKAD":"1001324","ADDRESS":"屏東縣滿州鄉中山路145號","TEL":" ","COUNTYNAME":"屏東縣","TOWNNAME":"滿州鄉","MARKTYPE":"992","Class":"2"},"geometry":{"x":233227.83729999978,"y":2436267.7317999993}},{"attributes":{"OBJECTID":16117,"LANDMARKID":"1001300000446","LANDMARKCO":"203","LANDMARKNA":"縣立九棚國小","LANDMARKAD":"1001324","ADDRESS":"屏東縣滿州鄉九棚村九棚路1號","TEL":"08-8810065","COUNTYNAME":"屏東縣","TOWNNAME":"滿州鄉","MARKTYPE":"992","Class":"2"},"geometry":{"x":236963.79849999957,"y":2445800.1295999996}},{"attributes":{"OBJECTID":16118,"LANDMARKID":"1001300000447","LANDMARKCO":"203","LANDMARKNA":"縣立滿州國中","LANDMARKAD":"1001324","ADDRESS":"屏東縣滿州鄉文化路32號","TEL":"08-8801106","COUNTYNAME":"屏東縣","TOWNNAME":"滿州鄉","MARKTYPE":"992","Class":"2"},"geometry":{"x":233451.26559999958,"y":2436279.5947999991}},{"attributes":{"OBJECTID":16119,"LANDMARKID":"1001300000448","LANDMARKCO":"203","LANDMARKNA":"縣立滿州國小","LANDMARKAD":"1001324","ADDRESS":"屏東縣滿州鄉滿州村中山路39號","TEL":"08-8801162","COUNTYNAME":"屏東縣","TOWNNAME":"滿州鄉","MARKTYPE":"992","Class":"2"},"geometry":{"x":233286.42459999956,"y":2435819.7263999991}},{"attributes":{"OBJECTID":16120,"LANDMARKID":"1001300000449","LANDMARKCO":"203","LANDMARKNA":"縣立長樂國小","LANDMARKAD":"1001324","ADDRESS":"屏東縣滿州鄉長樂村大公路35號","TEL":"08-8811045","COUNTYNAME":"屏東縣","TOWNNAME":"滿州鄉","MARKTYPE":"992","Class":"2"},"geometry":{"x":232317.49650000036,"y":2441929.8586999997}},{"attributes":{"OBJECTID":16121,"LANDMARKID":"1001300000450","LANDMARKCO":"203","LANDMARKNA":"縣立永港國小","LANDMARKAD":"1001324","ADDRESS":"屏東縣滿州鄉永靖村新庄路25號","TEL":"08-8801125","COUNTYNAME":"屏東縣","TOWNNAME":"滿州鄉","MARKTYPE":"992","Class":"2"},"geometry":{"x":231144.44959999993,"y":2434199.5944999997}},{"attributes":{"OBJECTID":16122,"LANDMARKID":"1001300000451","LANDMARKCO":"203","LANDMARKNA":"縣立長樂國小八瑤分校","LANDMARKAD":"1001324","ADDRESS":"屏東縣滿州鄉","TEL":" ","COUNTYNAME":"屏東縣","TOWNNAME":"滿州鄉","MARKTYPE":"992","Class":"2"},"geometry":{"x":233535.75659999996,"y":2444870.1743999999}},{"attributes":{"OBJECTID":16123,"LANDMARKID":"1001300000452","LANDMARKCO":"203","LANDMARKNA":"縣立九棚國小港仔分校","LANDMARKAD":"1001324","ADDRESS":"屏東縣滿州鄉","TEL":" ","COUNTYNAME":"屏東縣","TOWNNAME":"滿州鄉","MARKTYPE":"992","Class":"2"},"geometry":{"x":238421.86280000024,"y":2448510.1333000008}},{"attributes":{"OBJECTID":16124,"LANDMARKID":"1001300000793","LANDMARKCO":"305","LANDMARKNA":"港仔漁港","LANDMARKAD":"1001324","ADDRESS":"屏東縣滿州鄉","TEL":" ","COUNTYNAME":"屏東縣","TOWNNAME":"滿州鄉","MARKTYPE":"993","Class":"305"},"geometry":{"x":239068.93979999982,"y":2448918.3311000001}},{"attributes":{"OBJECTID":16125,"LANDMARKID":"1001300000794","LANDMARKCO":"305","LANDMARKNA":"南仁漁港","LANDMARKAD":"1001324","ADDRESS":"屏東縣滿州鄉","TEL":" ","COUNTYNAME":"屏東縣","TOWNNAME":"滿州鄉","MARKTYPE":"993","Class":"305"},"geometry":{"x":238866.86490000039,"y":2443265.7128999997}},{"attributes":{"OBJECTID":16126,"LANDMARKID":"1001300000719","LANDMARKCO":"303","LANDMARKNA":"漁村公園停車場","LANDMARKAD":"1001324","ADDRESS":"屏東縣滿州鄉港口路","TEL":" ","COUNTYNAME":"屏東縣","TOWNNAME":"滿州鄉","MARKTYPE":"993","Class":"303"},"geometry":{"x":231696.61070000008,"y":2432672.2453000005}},{"attributes":{"OBJECTID":16127,"LANDMARKID":"1001300001363","LANDMARKCO":"603","LANDMARKNA":"小墾丁牛仔渡假村","LANDMARKAD":"1001324","ADDRESS":"屏東縣滿州鄉滿州村中山路205號","TEL":"08-8802880","COUNTYNAME":"屏東縣","TOWNNAME":"滿州鄉","MARKTYPE":"996","Class":"6"},"geometry":{"x":232668.84020000044,"y":2436480.1848000009}},{"attributes":{"OBJECTID":16128,"LANDMARKID":"1001300001364","LANDMARKCO":"603","LANDMARKNA":"翡翠山林休閒渡假山莊","LANDMARKAD":"1001324","ADDRESS":"屏東縣滿州鄉長樂村八瑤路45號","TEL":"08-8811999","COUNTYNAME":"屏東縣","TOWNNAME":"滿州鄉","MARKTYPE":"996","Class":"6"},"geometry":{"x":232583.71590000018,"y":2444280.0819000006}},{"attributes":{"OBJECTID":16129,"LANDMARKID":"1001300001404","LANDMARKCO":"604","LANDMARKNA":"山芙蓉民宿","LANDMARKAD":"1001324","ADDRESS":"屏東縣滿州鄉永靖村舊公路78巷8弄9號","TEL":"08-8801379","COUNTYNAME":"屏東縣","TOWNNAME":"滿州鄉","MARKTYPE":"996","Class":"6"},"geometry":{"x":232260.97719999962,"y":2434510.0543000009}},{"attributes":{"OBJECTID":16130,"LANDMARKID":"1001300001186","LANDMARKCO":"503","LANDMARKNA":"七孔瀑布","LANDMARKAD":"1001324","ADDRESS":"屏東縣滿州鄉","TEL":" ","COUNTYNAME":"屏東縣","TOWNNAME":"滿州鄉","MARKTYPE":"995","Class":"5"},"geometry":{"x":228995.35879999958,"y":2437870.8798999991}},{"attributes":{"OBJECTID":16131,"LANDMARKID":"1001300001187","LANDMARKCO":"503","LANDMARKNA":"南仁山生態保護區","LANDMARKAD":"1001324","ADDRESS":"屏東縣滿州鄉","TEL":" ","COUNTYNAME":"屏東縣","TOWNNAME":"滿州鄉","MARKTYPE":"995","Class":"5"},"geometry":{"x":233035.34619999956,"y":2442937.7389000002}},{"attributes":{"OBJECTID":16132,"LANDMARKID":"1001300001188","LANDMARKCO":"503","LANDMARKNA":"佳樂水風景區","LANDMARKAD":"1001324","ADDRESS":"屏東縣滿州鄉","TEL":" ","COUNTYNAME":"屏東縣","TOWNNAME":"滿州鄉","MARKTYPE":"995","Class":"5"},"geometry":{"x":236378.06130000018,"y":2433185.1175999995}},{"attributes":{"OBJECTID":16133,"LANDMARKID":"1001300000905","LANDMARKCO":"405","LANDMARKNA":"中油加油站-領航站","LANDMARKAD":"1001304","ADDRESS":"屏東縣恆春鎮省北路500號","TEL":"08-8895678","COUNTYNAME":"屏東縣","TOWNNAME":"恆春鎮","MARKTYPE":"994","Class":"4"},"geometry":{"x":223569.0915000001,"y":2435903.8798999991}},{"attributes":{"OBJECTID":16134,"LANDMARKID":"1001300000906","LANDMARKCO":"405","LANDMARKNA":"統一速邁樂加油站-恆春加油站(中油)","LANDMARKAD":"1001304","ADDRESS":"屏東縣恆春鎮山腳里恆南路6-6號","TEL":" ","COUNTYNAME":"屏東縣","TOWNNAME":"恆春鎮","MARKTYPE":"994","Class":"4"},"geometry":{"x":224070.67669999972,"y":2432285.1297999993}},{"attributes":{"OBJECTID":16135,"LANDMARKID":"1001300000907","LANDMARKCO":"405","LANDMARKNA":"中油加油站-墾丁站(中油直營)","LANDMARKAD":"1001304","ADDRESS":"屏東縣恆春鎮墾丁里墾丁路402號","TEL":"08-8861408","COUNTYNAME":"屏東縣","TOWNNAME":"恆春鎮","MARKTYPE":"994","Class":"4"},"geometry":{"x":228592.01150000002,"y":2427593.5988999996}},{"attributes":{"OBJECTID":16136,"LANDMARKID":"1001300000908","LANDMARKCO":"405","LANDMARKNA":"中油加油站-恆春站(中油直營)","LANDMARKAD":"1001304","ADDRESS":"屏東縣恆春鎮網沙里省北路7號","TEL":"08-8892635","COUNTYNAME":"屏東縣","TOWNNAME":"恆春鎮","MARKTYPE":"994","Class":"4"},"geometry":{"x":223513.14510000031,"y":2434609.9649}},{"attributes":{"OBJECTID":16137,"LANDMARKID":"1001300000909","LANDMARKCO":"405","LANDMARKNA":"統一速邁樂加油站-南灣加油站(中油)","LANDMARKAD":"1001304","ADDRESS":"屏東縣恆春鎮南灣里南灣路868號","TEL":" ","COUNTYNAME":"屏東縣","TOWNNAME":"恆春鎮","MARKTYPE":"994","Class":"4"},"geometry":{"x":224441.0661000004,"y":2431269.9992999993}},{"attributes":{"OBJECTID":16138,"LANDMARKID":"1001300000845","LANDMARKCO":"402","LANDMARKNA":"亞太行動寬頻電信-恆春省北加盟服務中心","LANDMARKAD":"1001304","ADDRESS":"屏東縣恆春鎮省北路67號","TEL":"08-8881851","COUNTYNAME":"屏東縣","TOWNNAME":"恆春鎮","MARKTYPE":"994","Class":"4"},"geometry":{"x":223567.58449999988,"y":2434750.4064000007}},{"attributes":{"OBJECTID":16139,"LANDMARKID":"1001300000842","LANDMARKCO":"401","LANDMARKNA":"恆春基督教醫院","LANDMARKAD":"1001304","ADDRESS":"屏東縣恆春鎮恆西路21號","TEL":" ","COUNTYNAME":"屏東縣","TOWNNAME":"恆春鎮","MARKTYPE":"994","Class":"4"},"geometry":{"x":223318.50939999986,"y":2433870.477}},{"attributes":{"OBJECTID":16140,"LANDMARKID":"1001300000843","LANDMARKCO":"401","LANDMARKNA":"南門醫院","LANDMARKAD":"1001304","ADDRESS":"屏東縣恆春鎮南門路10號","TEL":"08-8894568","COUNTYNAME":"屏東縣","TOWNNAME":"恆春鎮","MARKTYPE":"994","Class":"4"},"geometry":{"x":223710.84850000031,"y":2433670.1662000008}},{"attributes":{"OBJECTID":16141,"LANDMARKID":"1001300000844","LANDMARKCO":"401","LANDMARKNA":"行政院衛生署恆春旅遊醫院","LANDMARKAD":"1001304","ADDRESS":"屏東縣恆春鎮山腳里恆南路188號","TEL":"08-8892705","COUNTYNAME":"屏東縣","TOWNNAME":"恆春鎮","MARKTYPE":"994","Class":"4"},"geometry":{"x":223611.61830000021,"y":2433500.4833000004}},{"attributes":{"OBJECTID":16142,"LANDMARKID":"1001300001211","LANDMARKCO":"504","LANDMARKNA":"墾丁森林遊樂區","LANDMARKAD":"1001304","ADDRESS":"屏東縣恆春鎮墾丁村公園路201號","TEL":" ","COUNTYNAME":"屏東縣","TOWNNAME":"恆春鎮","MARKTYPE":"995","Class":"5"},"geometry":{"x":230578.84740000032,"y":2428987.2949000001}},{"attributes":{"OBJECTID":16143,"LANDMARKID":"1001300001245","LANDMARKCO":"507","LANDMARKNA":"恆春古城","LANDMARKAD":"1001304","ADDRESS":"屏東縣恆春鎮城南里，城北里，城西里","TEL":" ","COUNTYNAME":"屏東縣","TOWNNAME":"恆春鎮","MARKTYPE":"995","Class":"5"},"geometry":{"x":223817.81909999996,"y":2433925.1118999999}},{"attributes":{"OBJECTID":16144,"LANDMARKID":"1001300001244","LANDMARKCO":"506","LANDMARKNA":"恆春農場","LANDMARKAD":"1001304","ADDRESS":"屏東縣恆春鎮山腳里山腳路28之5號","TEL":"08-8892633","COUNTYNAME":"屏東縣","TOWNNAME":"恆春鎮","MARKTYPE":"995","Class":"5"},"geometry":{"x":225874.67740000039,"y":2432351.3987000007}},{"attributes":{"OBJECTID":16145,"LANDMARKID":"1001300001185","LANDMARKCO":"502","LANDMARKNA":"墾丁國家公園","LANDMARKAD":"1001304","ADDRESS":"屏東縣恆春鎮墾丁路596號","TEL":"08-8861321","COUNTYNAME":"屏東縣","TOWNNAME":"恆春鎮","MARKTYPE":"995","Class":"5"},"geometry":{"x":227316.92129999958,"y":2427815.7632999998}},{"attributes":{"OBJECTID":16146,"LANDMARKID":"1001300001276","LANDMARKCO":"512","LANDMARKNA":"墾丁國家公園管理處","LANDMARKAD":"1001304","ADDRESS":"屏東縣恆春鎮墾丁路596號","TEL":"08-8861321","COUNTYNAME":"屏東縣","TOWNNAME":"恆春鎮","MARKTYPE":"995","Class":"5"},"geometry":{"x":227340.53189999983,"y":2427969.5955999997}},{"attributes":{"OBJECTID":16147,"LANDMARKID":"1001300001086","LANDMARKCO":"406","LANDMARKNA":"貓鼻頭公園","LANDMARKAD":"1001304","ADDRESS":"屏東縣恆春鎮","TEL":" ","COUNTYNAME":"屏東縣","TOWNNAME":"恆春鎮","MARKTYPE":"994","Class":"4"},"geometry":{"x":223005.34530000016,"y":2424912.7675000001}},{"attributes":{"OBJECTID":16148,"LANDMARKID":"1001300001151","LANDMARKCO":"408","LANDMARKNA":"郵局-恆春墾丁郵局","LANDMARKAD":"1001304","ADDRESS":"屏東縣恆春鎮墾丁路332號","TEL":"(08)8861-442","COUNTYNAME":"屏東縣","TOWNNAME":"恆春鎮","MARKTYPE":"994","Class":"4"},"geometry":{"x":228790.77259999979,"y":2427590.0376999993}},{"attributes":{"OBJECTID":16149,"LANDMARKID":"1001300001152","LANDMARKCO":"408","LANDMARKNA":"郵局-恆春南門郵局","LANDMARKAD":"1001304","ADDRESS":"屏東縣恆春鎮中正路51號","TEL":"(08)8899-190","COUNTYNAME":"屏東縣","TOWNNAME":"恆春鎮","MARKTYPE":"994","Class":"4"},"geometry":{"x":223664.53149999958,"y":2433860.0921999998}},{"attributes":{"OBJECTID":16150,"LANDMARKID":"1001300001153","LANDMARKCO":"408","LANDMARKNA":"郵局-恆春郵局","LANDMARKAD":"1001304","ADDRESS":"屏東縣恆春鎮恆西路1巷32號","TEL":"(08)8898-053","COUNTYNAME":"屏東縣","TOWNNAME":"恆春鎮","MARKTYPE":"994","Class":"4"},"geometry":{"x":223377.79459999967,"y":2433751.3573000003}},{"attributes":{"OBJECTID":16151,"LANDMARKID":"1001300001154","LANDMARKCO":"408","LANDMARKNA":"郵局-恆春南灣郵局","LANDMARKAD":"1001304","ADDRESS":"屏東縣恆春鎮南灣路387號(台電核三廠)","TEL":"(08)8893-470轉","COUNTYNAME":"屏東縣","TOWNNAME":"恆春鎮","MARKTYPE":"994","Class":"4"},"geometry":{"x":224586.54640000034,"y":2429775.1764000002}},{"attributes":{"OBJECTID":16152,"LANDMARKID":"1001300001156","LANDMARKCO":"409","LANDMARKNA":"恆春區漁會","LANDMARKAD":"1001304","ADDRESS":"屏東縣恆春鎮大光里大光路79-66號","TEL":"08-8866078","COUNTYNAME":"屏東縣","TOWNNAME":"恆春鎮","MARKTYPE":"994","Class":"4"},"geometry":{"x":223561.11220000032,"y":2427520.4176000003}},{"attributes":{"OBJECTID":16153,"LANDMARKID":"1001300001157","LANDMARKCO":"409","LANDMARKNA":"恆春鎮農會","LANDMARKAD":"1001304","ADDRESS":"屏東縣恆春鎮山腳里恆南路11巷2弄6號2樓","TEL":"08-889208","COUNTYNAME":"屏東縣","TOWNNAME":"恆春鎮","MARKTYPE":"994","Class":"4"},"geometry":{"x":223839.66399999987,"y":2432703.9075000007}},{"attributes":{"OBJECTID":16154,"LANDMARKID":"1001300000903","LANDMARKCO":"404","LANDMARKNA":"台灣自來水恆春營運所","LANDMARKAD":"1001304","ADDRESS":"屏東縣恆春鎮龍泉路102號","TEL":"08-8892265","COUNTYNAME":"屏東縣","TOWNNAME":"恆春鎮","MARKTYPE":"994","Class":"4"},"geometry":{"x":222271.24969999958,"y":2432059.7852999996}},{"attributes":{"OBJECTID":16155,"LANDMARKID":"1001300000904","LANDMARKCO":"404","LANDMARKNA":"台灣省自來水恆春營運所","LANDMARKAD":"1001304","ADDRESS":"屏東縣恆春鎮龍泉路102號","TEL":" ","COUNTYNAME":"屏東縣","TOWNNAME":"恆春鎮","MARKTYPE":"994","Class":"4"},"geometry":{"x":221870.02400000021,"y":2431389.8298000004}},{"attributes":{"OBJECTID":16156,"LANDMARKID":"1001300001079","LANDMARKCO":"406","LANDMARKNA":"墾丁公園","LANDMARKAD":"1001304","ADDRESS":"屏東縣恆春鎮","TEL":" ","COUNTYNAME":"屏東縣","TOWNNAME":"恆春鎮","MARKTYPE":"994","Class":"4"},"geometry":{"x":230668.90050000045,"y":2429780.9257999994}},{"attributes":{"OBJECTID":16157,"LANDMARKID":"1001300001080","LANDMARKCO":"406","LANDMARKNA":"社頂自然公園","LANDMARKAD":"1001304","ADDRESS":"屏東縣恆春鎮","TEL":" ","COUNTYNAME":"屏東縣","TOWNNAME":"恆春鎮","MARKTYPE":"994","Class":"4"},"geometry":{"x":231423.06429999974,"y":2428802.8334999997}},{"attributes":{"OBJECTID":16158,"LANDMARKID":"1001300001081","LANDMARKCO":"406","LANDMARKNA":"鵝鑾鼻公園","LANDMARKAD":"1001304","ADDRESS":"屏東縣恆春鎮","TEL":" ","COUNTYNAME":"屏東縣","TOWNNAME":"恆春鎮","MARKTYPE":"994","Class":"4"},"geometry":{"x":234776.12650000025,"y":2422858.4838999994}},{"attributes":{"OBJECTID":16159,"LANDMARKID":"1001300001082","LANDMARKCO":"406","LANDMARKNA":"鵝鑾鼻礁林公園","LANDMARKAD":"1001304","ADDRESS":"屏東縣恆春鎮","TEL":" ","COUNTYNAME":"屏東縣","TOWNNAME":"恆春鎮","MARKTYPE":"994","Class":"4"},"geometry":{"x":234770.41490000021,"y":2422434.5836999994}},{"attributes":{"OBJECTID":16160,"LANDMARKID":"1001300001083","LANDMARKCO":"406","LANDMARKNA":"社頂公園","LANDMARKAD":"1001304","ADDRESS":"屏東縣恆春鎮","TEL":" ","COUNTYNAME":"屏東縣","TOWNNAME":"恆春鎮","MARKTYPE":"994","Class":"4"},"geometry":{"x":230696.89759999979,"y":2429118.4637000002}},{"attributes":{"OBJECTID":16161,"LANDMARKID":"1001300001084","LANDMARKCO":"406","LANDMARKNA":"龍鑾潭公園","LANDMARKAD":"1001304","ADDRESS":"屏東縣恆春鎮","TEL":" ","COUNTYNAME":"屏東縣","TOWNNAME":"恆春鎮","MARKTYPE":"994","Class":"4"},"geometry":{"x":222738.13030000031,"y":2430835.9930000007}},{"attributes":{"OBJECTID":16162,"LANDMARKID":"1001300001085","LANDMARKCO":"406","LANDMARKNA":"熱帶公園","LANDMARKAD":"1001304","ADDRESS":"屏東縣恆春鎮","TEL":" ","COUNTYNAME":"屏東縣","TOWNNAME":"恆春鎮","MARKTYPE":"994","Class":"4"},"geometry":{"x":234717.3853000002,"y":2422449.2635999992}},{"attributes":{"OBJECTID":16163,"LANDMARKID":"1001300000166","LANDMARKCO":"107","LANDMARKNA":"國家公園警察大隊墾丁國家公園","LANDMARKAD":"1001304","ADDRESS":"屏東縣恆春鎮墾丁路272號","TEL":"08-8861331","COUNTYNAME":"屏東縣","TOWNNAME":"恆春鎮","MARKTYPE":"991","Class":"1"},"geometry":{"x":228997.73469999991,"y":2427620.3135000002}},{"attributes":{"OBJECTID":16164,"LANDMARKID":"1001300000167","LANDMARKCO":"107","LANDMARKNA":"屏東縣警察局仁壽派出所","LANDMARKAD":"1001304","ADDRESS":"屏東縣恆春鎮仁壽里仁壽路117號","TEL":"08-8893247","COUNTYNAME":"屏東縣","TOWNNAME":"恆春鎮","MARKTYPE":"991","Class":"1"},"geometry":{"x":222935.61959999986,"y":2436570.3132000007}},{"attributes":{"OBJECTID":16165,"LANDMARKID":"1001300000030","LANDMARKCO":"101","LANDMARKNA":"農業委員會林業試驗所恆春分所","LANDMARKAD":"1001304","ADDRESS":"屏東縣恆春鎮公園路203號","TEL":"08-8861157","COUNTYNAME":"屏東縣","TOWNNAME":"恆春鎮","MARKTYPE":"991","Class":"1"},"geometry":{"x":230748.66309999954,"y":2429540.3216999993}},{"attributes":{"OBJECTID":16166,"LANDMARKID":"1001300000031","LANDMARKCO":"101","LANDMARKNA":"高雄區監理所恆春監理分站","LANDMARKAD":"1001304","ADDRESS":"屏東縣恆春鎮草埔路11號","TEL":"08-8892014","COUNTYNAME":"屏東縣","TOWNNAME":"恆春鎮","MARKTYPE":"991","Class":"1"},"geometry":{"x":223078.24940000009,"y":2434539.8199000005}},{"attributes":{"OBJECTID":16167,"LANDMARKID":"1001300000120","LANDMARKCO":"105","LANDMARKNA":"屏東縣恆春地政事務所","LANDMARKAD":"1001304","ADDRESS":"屏東縣恆春鎮城南里文化路77號","TEL":"08-8894247","COUNTYNAME":"屏東縣","TOWNNAME":"恆春鎮","MARKTYPE":"991","Class":"1"},"geometry":{"x":223879.32239999995,"y":2433890.1981000006}},{"attributes":{"OBJECTID":16168,"LANDMARKID":"1001300000158","LANDMARKCO":"106","LANDMARKNA":"屏東縣恆春鎮戶政事務所","LANDMARKAD":"1001304","ADDRESS":"屏東縣恆春鎮天文路66號","TEL":"08-8895713","COUNTYNAME":"屏東縣","TOWNNAME":"恆春鎮","MARKTYPE":"991","Class":"1"},"geometry":{"x":223730.27280000038,"y":2433919.9508999996}},{"attributes":{"OBJECTID":16169,"LANDMARKID":"1001300000162","LANDMARKCO":"107","LANDMARKNA":"屏東縣警察局恆春分局","LANDMARKAD":"1001304","ADDRESS":"屏東縣恆春鎮城南里中正路60號","TEL":"08-8892075","COUNTYNAME":"屏東縣","TOWNNAME":"恆春鎮","MARKTYPE":"991","Class":"1"},"geometry":{"x":223698.28949999996,"y":2433909.8976000007}},{"attributes":{"OBJECTID":16170,"LANDMARKID":"1001300000163","LANDMARKCO":"107","LANDMARKNA":"屏東縣警察局龍水派出所","LANDMARKAD":"1001304","ADDRESS":"屏東縣恆春鎮龍水里龍泉路260號","TEL":"08-8894172","COUNTYNAME":"屏東縣","TOWNNAME":"恆春鎮","MARKTYPE":"991","Class":"1"},"geometry":{"x":222094.22919999994,"y":2431449.8709999993}},{"attributes":{"OBJECTID":16171,"LANDMARKID":"1001300000164","LANDMARKCO":"107","LANDMARKNA":"屏東縣警察局墾丁派出所","LANDMARKAD":"1001304","ADDRESS":"屏東縣恆春鎮墾丁里墾丁路113號","TEL":"08-8861039","COUNTYNAME":"屏東縣","TOWNNAME":"恆春鎮","MARKTYPE":"991","Class":"1"},"geometry":{"x":229322.34889999963,"y":2427439.8585999999}},{"attributes":{"OBJECTID":16172,"LANDMARKID":"1001300000165","LANDMARKCO":"107","LANDMARKNA":"屏東縣警察局建民派出所","LANDMARKAD":"1001304","ADDRESS":"屏東縣恆春鎮城南里中正路60號","TEL":"08-8892587","COUNTYNAME":"屏東縣","TOWNNAME":"恆春鎮","MARKTYPE":"991","Class":"1"},"geometry":{"x":223698.28949999996,"y":2433909.8976000007}},{"attributes":{"OBJECTID":16173,"LANDMARKID":"1001300000034","LANDMARKCO":"103","LANDMARKNA":"屏東縣恆春鎮衛生所","LANDMARKAD":"1001304","ADDRESS":"屏東縣恆春鎮文化路78號","TEL":"08-8892140","COUNTYNAME":"屏東縣","TOWNNAME":"恆春鎮","MARKTYPE":"991","Class":"1"},"geometry":{"x":223863.23959999997,"y":2433940.1714999992}},{"attributes":{"OBJECTID":16174,"LANDMARKID":"1001300000035","LANDMARKCO":"103","LANDMARKNA":"屏東縣恆春鎮鎮民代表會","LANDMARKAD":"1001304","ADDRESS":"屏東縣恆春鎮天文路1號","TEL":"08-8892150","COUNTYNAME":"屏東縣","TOWNNAME":"恆春鎮","MARKTYPE":"991","Class":"1"},"geometry":{"x":223917.14059999958,"y":2433999.784}},{"attributes":{"OBJECTID":16175,"LANDMARKID":"1001300000336","LANDMARKCO":"108","LANDMARKNA":"屏東縣恆春鎮公所","LANDMARKAD":"1001304","ADDRESS":"屏東縣恆春鎮天文路1號","TEL":"08-8898112","COUNTYNAME":"屏東縣","TOWNNAME":"恆春鎮","MARKTYPE":"991","Class":"1"},"geometry":{"x":223917.14059999958,"y":2433999.784}},{"attributes":{"OBJECTID":16176,"LANDMARKID":"1001300000119","LANDMARKCO":"104","LANDMARKNA":"南區國稅局恆春稽徵所","LANDMARKAD":"1001304","ADDRESS":"屏東縣恆春鎮南門路98號2樓","TEL":"08-8892484","COUNTYNAME":"屏東縣","TOWNNAME":"恆春鎮","MARKTYPE":"991","Class":"1"},"geometry":{"x":223808.96169999987,"y":2433800.0823999997}},{"attributes":{"OBJECTID":16177,"LANDMARKID":"1001300000032","LANDMARKCO":"101","LANDMARKNA":"農業委員會畜產試驗所恆春分所","LANDMARKAD":"1001304","ADDRESS":"屏東縣恆春鎮牧場路1號","TEL":"08-8861341","COUNTYNAME":"屏東縣","TOWNNAME":"恆春鎮","MARKTYPE":"991","Class":"1"},"geometry":{"x":229997.06120000035,"y":2427679.6100999992}},{"attributes":{"OBJECTID":16178,"LANDMARKID":"1001300000033","LANDMARKCO":"101","LANDMARKNA":"林務局屏東林區管理處恆春工作站","LANDMARKAD":"1001304","ADDRESS":"屏東縣恆春鎮林森路29號","TEL":"08-8892031","COUNTYNAME":"屏東縣","TOWNNAME":"恆春鎮","MARKTYPE":"991","Class":"1"},"geometry":{"x":223789.12750000041,"y":2433700.0494999997}},{"attributes":{"OBJECTID":16179,"LANDMARKID":"1001300000118","LANDMARKCO":"104","LANDMARKNA":"屏東縣政府稅務局恆春分處","LANDMARKAD":"1001304","ADDRESS":"屏東縣恆春鎮南門路98號","TEL":"08-8895255","COUNTYNAME":"屏東縣","TOWNNAME":"恆春鎮","MARKTYPE":"991","Class":"1"},"geometry":{"x":223808.96169999987,"y":2433800.0823999997}},{"attributes":{"OBJECTID":16180,"LANDMARKID":"1001300000168","LANDMARKCO":"107","LANDMARKNA":"屏東縣消防局恆春消防分隊","LANDMARKAD":"1001304","ADDRESS":"屏東縣恆春鎮天文路56~60號","TEL":"08-8892959","COUNTYNAME":"屏東縣","TOWNNAME":"恆春鎮","MARKTYPE":"991","Class":"1"},"geometry":{"x":223743.91100000031,"y":2433940.2236000001}},{"attributes":{"OBJECTID":16181,"LANDMARKID":"1001300001421","LANDMARKCO":"605","LANDMARKNA":"屏東縣墾丁教師會館","LANDMARKAD":"1001304","ADDRESS":"屏東縣恆春鎮文化巷31號","TEL":"08-8861241","COUNTYNAME":"屏東縣","TOWNNAME":"恆春鎮","MARKTYPE":"996","Class":"6"},"geometry":{"x":229329.7285000002,"y":2427320.3686999995}},{"attributes":{"OBJECTID":16182,"LANDMARKID":"1001300000668","LANDMARKCO":"205","LANDMARKNA":"台電南部展示館","LANDMARKAD":"1001304","ADDRESS":"屏東縣恆春鎮大光路79之64號","TEL":"08-8867630","COUNTYNAME":"屏東縣","TOWNNAME":"恆春鎮","MARKTYPE":"992","Class":"2"},"geometry":{"x":223585.64460000023,"y":2427930.9082999993}},{"attributes":{"OBJECTID":16183,"LANDMARKID":"1001300000669","LANDMARKCO":"205","LANDMARKNA":"砂島貝殼砂展示館","LANDMARKAD":"1001304","ADDRESS":"屏東縣恆春鎮砂島路224號","TEL":" ","COUNTYNAME":"屏東縣","TOWNNAME":"恆春鎮","MARKTYPE":"992","Class":"2"},"geometry":{"x":234232.33449999988,"y":2423940.6341999993}},{"attributes":{"OBJECTID":16184,"LANDMARKID":"1001300000670","LANDMARKCO":"205","LANDMARKNA":"屏東縣自然史教育館","LANDMARKAD":"1001304","ADDRESS":"屏東縣恆春鎮墾丁路65號","TEL":" ","COUNTYNAME":"屏東縣","TOWNNAME":"恆春鎮","MARKTYPE":"992","Class":"2"},"geometry":{"x":229468.04330000002,"y":2427315.4926999994}},{"attributes":{"OBJECTID":16185,"LANDMARKID":"1001300000671","LANDMARKCO":"205","LANDMARKNA":"墾丁國家公園遊客中心文物陳列館","LANDMARKAD":"1001304","ADDRESS":"屏東縣恆春鎮墾丁路596號","TEL":" ","COUNTYNAME":"屏東縣","TOWNNAME":"恆春鎮","MARKTYPE":"992","Class":"2"},"geometry":{"x":227295.56039999984,"y":2427897.7967000008}},{"attributes":{"OBJECTID":16186,"LANDMARKID":"1001300000672","LANDMARKCO":"205","LANDMARKNA":"瓊麻工業歷史展示區","LANDMARKAD":"1001304","ADDRESS":"屏東縣恆春鎮草潭路4號","TEL":" ","COUNTYNAME":"屏東縣","TOWNNAME":"恆春鎮","MARKTYPE":"992","Class":"2"},"geometry":{"x":223764.09900000039,"y":2429956.4438000005}},{"attributes":{"OBJECTID":16187,"LANDMARKID":"1001300000667","LANDMARKCO":"204","LANDMARKNA":"屏東縣立圖書館恆春中山分館","LANDMARKAD":"1001304","ADDRESS":"屏東縣恆春鎮誠南里天文路3號","TEL":" ","COUNTYNAME":"屏東縣","TOWNNAME":"恆春鎮","MARKTYPE":"992","Class":"2"},"geometry":{"x":223843.60759999976,"y":2433991.0172000006}},{"attributes":{"OBJECTID":16188,"LANDMARKID":"1001300000376","LANDMARKCO":"203","LANDMARKNA":"縣立大光國小山海分校","LANDMARKAD":"1001304","ADDRESS":"屏東縣恆春鎮山海路86號","TEL":"08-8869026","COUNTYNAME":"屏東縣","TOWNNAME":"恆春鎮","MARKTYPE":"992","Class":"2"},"geometry":{"x":220565.83090000041,"y":2431830.2136000004}},{"attributes":{"OBJECTID":16189,"LANDMARKID":"1001300000377","LANDMARKCO":"203","LANDMARKNA":"縣立龍泉國小","LANDMARKAD":"1001304","ADDRESS":"屏東縣恆春鎮龍水里草潭路171號","TEL":"08-8866157","COUNTYNAME":"屏東縣","TOWNNAME":"恆春鎮","MARKTYPE":"992","Class":"2"},"geometry":{"x":222558.89209999982,"y":2430260.1783000007}},{"attributes":{"OBJECTID":16190,"LANDMARKID":"1001300000378","LANDMARKCO":"203","LANDMARKNA":"縣立恆春國小南灣分校","LANDMARKAD":"1001304","ADDRESS":"屏東縣恆春鎮南灣路仁愛巷87號","TEL":"08-8895590","COUNTYNAME":"屏東縣","TOWNNAME":"恆春鎮","MARKTYPE":"992","Class":"2"},"geometry":{"x":225060.67850000039,"y":2430090.0369000006}},{"attributes":{"OBJECTID":16191,"LANDMARKID":"1001300000379","LANDMARKCO":"203","LANDMARKNA":"縣立恆春國中","LANDMARKAD":"1001304","ADDRESS":"屏東縣恆春鎮文化路79號","TEL":"08-8892039","COUNTYNAME":"屏東縣","TOWNNAME":"恆春鎮","MARKTYPE":"992","Class":"2"},"geometry":{"x":223930.27269999962,"y":2433919.8057000004}},{"attributes":{"OBJECTID":16192,"LANDMARKID":"1001300000380","LANDMARKCO":"203","LANDMARKNA":"縣立恆春國小","LANDMARKAD":"1001304","ADDRESS":"屏東縣恆春鎮城北里北門路39巷26號","TEL":"08-8892035","COUNTYNAME":"屏東縣","TOWNNAME":"恆春鎮","MARKTYPE":"992","Class":"2"},"geometry":{"x":223838.16930000018,"y":2434290.1292000003}},{"attributes":{"OBJECTID":16193,"LANDMARKID":"1001300000381","LANDMARKCO":"203","LANDMARKNA":"縣立僑勇國小","LANDMARKAD":"1001304","ADDRESS":"屏東縣恆春鎮城北里西門路146號","TEL":"08-8892141","COUNTYNAME":"屏東縣","TOWNNAME":"恆春鎮","MARKTYPE":"992","Class":"2"},"geometry":{"x":223590.26470000017,"y":2434540.1975999996}},{"attributes":{"OBJECTID":16194,"LANDMARKID":"1001300000382","LANDMARKCO":"203","LANDMARKNA":"縣立水泉國小","LANDMARKAD":"1001304","ADDRESS":"屏東縣恆春鎮水泉里頂泉路1號","TEL":"08-8866208","COUNTYNAME":"屏東縣","TOWNNAME":"恆春鎮","MARKTYPE":"992","Class":"2"},"geometry":{"x":222368.93010000046,"y":2426989.8596000001}},{"attributes":{"OBJECTID":16195,"LANDMARKID":"1001300000383","LANDMARKCO":"203","LANDMARKNA":"縣立墾丁國小","LANDMARKAD":"1001304","ADDRESS":"屏東縣恆春鎮墾丁里墾丁路65號","TEL":"08-8861081","COUNTYNAME":"屏東縣","TOWNNAME":"恆春鎮","MARKTYPE":"992","Class":"2"},"geometry":{"x":229432.11830000021,"y":2427309.6250999998}},{"attributes":{"OBJECTID":16196,"LANDMARKID":"1001300000384","LANDMARKCO":"203","LANDMARKNA":"縣立大平國小","LANDMARKAD":"1001304","ADDRESS":"屏東縣恆春鎮頭溝里頭溝路161號","TEL":"08-8891584","COUNTYNAME":"屏東縣","TOWNNAME":"恆春鎮","MARKTYPE":"992","Class":"2"},"geometry":{"x":221169.08509999979,"y":2436159.9996000007}},{"attributes":{"OBJECTID":16197,"LANDMARKID":"1001300000385","LANDMARKCO":"203","LANDMARKNA":"縣立墾丁國小鵝鑾分校","LANDMARKAD":"1001304","ADDRESS":"屏東縣恆春鎮砂島路216號","TEL":"08-8851341","COUNTYNAME":"屏東縣","TOWNNAME":"恆春鎮","MARKTYPE":"992","Class":"2"},"geometry":{"x":234322.22400000039,"y":2423939.3625000007}},{"attributes":{"OBJECTID":16198,"LANDMARKID":"1001300000373","LANDMARKCO":"202","LANDMARKNA":"國立恆春工商","LANDMARKAD":"1001304","ADDRESS":"屏東縣恆春鎮恆南路38號","TEL":"08-8892010","COUNTYNAME":"屏東縣","TOWNNAME":"恆春鎮","MARKTYPE":"992","Class":"2"},"geometry":{"x":224126.61610000022,"y":2432890.3817999996}},{"attributes":{"OBJECTID":16199,"LANDMARKID":"1001300000374","LANDMARKCO":"203","LANDMARKNA":"縣立大光國小","LANDMARKAD":"1001304","ADDRESS":"屏東縣恆春鎮大光里8之6號","TEL":"08-8867064","COUNTYNAME":"屏東縣","TOWNNAME":"恆春鎮","MARKTYPE":"992","Class":"2"},"geometry":{"x":223112.76900000032,"y":2428180.1469999999}},{"attributes":{"OBJECTID":16200,"LANDMARKID":"1001300000375","LANDMARKCO":"203","LANDMARKNA":"縣立墾丁國小分校","LANDMARKAD":"1001304","ADDRESS":"屏東縣恆春鎮","TEL":" ","COUNTYNAME":"屏東縣","TOWNNAME":"恆春鎮","MARKTYPE":"992","Class":"2"},"geometry":{"x":230752.64479999989,"y":2428940.3274000008}}]}