{"displayFieldName":"COUNTYNAME","fieldAliases":{"OBJECTID":"OBJECTID","LANDMARKID":"LANDMARKID","LANDMARKCO":"LANDMARKCO","LANDMARKNA":"LANDMARKNA","LANDMARKAD":"LANDMARKAD","ADDRESS":"ADDRESS","TEL":"TEL","COUNTYNAME":"COUNTYNAME","TOWNNAME":"TOWNNAME","MARKTYPE":"MARKTYPE","Class":"Class"},"geometryType":"esriGeometryPoint","spatialReference":{"wkid":102443},"fields":[{"name":"OBJECTID","type":"esriFieldTypeOID","alias":"OBJECTID"},{"name":"LANDMARKID","type":"esriFieldTypeString","alias":"LANDMARKID","length":15},{"name":"LANDMARKCO","type":"esriFieldTypeString","alias":"LANDMARKCO","length":15},{"name":"LANDMARKNA","type":"esriFieldTypeString","alias":"LANDMARKNA","length":50},{"name":"LANDMARKAD","type":"esriFieldTypeString","alias":"LANDMARKAD","length":15},{"name":"ADDRESS","type":"esriFieldTypeString","alias":"ADDRESS","length":56},{"name":"TEL","type":"esriFieldTypeString","alias":"TEL","length":36},{"name":"COUNTYNAME","type":"esriFieldTypeString","alias":"COUNTYNAME","length":15},{"name":"TOWNNAME","type":"esriFieldTypeString","alias":"TOWNNAME","length":13},{"name":"MARKTYPE","type":"esriFieldTypeString","alias":"MARKTYPE","length":12},{"name":"Class","type":"esriFieldTypeString","alias":"Class","length":5}],"features":[{"attributes":{"OBJECTID":2201,"LANDMARKID":"1000300001031","LANDMARKCO":"405","LANDMARKNA":"中油加油站-大造站","LANDMARKAD":"1000304","ADDRESS":"桃園縣楊梅鎮上田里楊新路四段26號","TEL":"03-4752892","COUNTYNAME":"桃園市","TOWNNAME":"楊梅區","MARKTYPE":"994","Class":"4"},"geometry":{"x":262534.24509999994,"y":2758796.3356999997}},{"attributes":{"OBJECTID":2202,"LANDMARKID":"1000300001032","LANDMARKCO":"405","LANDMARKNA":"中油加油站-祐昌站","LANDMARKAD":"1000304","ADDRESS":"桃園縣楊梅鎮楊新路一段366號","TEL":"03-2889666","COUNTYNAME":"桃園市","TOWNNAME":"楊梅區","MARKTYPE":"994","Class":"4"},"geometry":{"x":264003.55200000014,"y":2756674.7849000003}},{"attributes":{"OBJECTID":2203,"LANDMARKID":"1000300001033","LANDMARKCO":"405","LANDMARKNA":"中油加油站-富岡站(中油直營)","LANDMARKAD":"1000304","ADDRESS":"桃園縣楊梅鎮民富路二段574號","TEL":"03-4722045","COUNTYNAME":"桃園市","TOWNNAME":"楊梅區","MARKTYPE":"994","Class":"4"},"geometry":{"x":259415.00299999956,"y":2758451.7267000005}},{"attributes":{"OBJECTID":2204,"LANDMARKID":"1000300001034","LANDMARKCO":"405","LANDMARKNA":"中油加油站-高榮站","LANDMARKAD":"1000304","ADDRESS":"桃園縣楊梅鎮高榮里北高上路一段558號","TEL":"03-4854681","COUNTYNAME":"桃園市","TOWNNAME":"楊梅區","MARKTYPE":"994","Class":"4"},"geometry":{"x":264900.21659999993,"y":2759743.9199999999}},{"attributes":{"OBJECTID":2205,"LANDMARKID":"1000300001035","LANDMARKCO":"405","LANDMARKNA":"中油加油站-幼獅站","LANDMARKAD":"1000304","ADDRESS":"桃園縣楊梅鎮高上路一段112號","TEL":"03-4642552","COUNTYNAME":"桃園市","TOWNNAME":"楊梅區","MARKTYPE":"994","Class":"4"},"geometry":{"x":266329.12839999981,"y":2759002.7506000008}},{"attributes":{"OBJECTID":2206,"LANDMARKID":"1000300001036","LANDMARKCO":"405","LANDMARKNA":"中油加油站-埔心站(中油直營)","LANDMARKAD":"1000304","ADDRESS":"桃園縣楊梅鎮中山北路二段308號","TEL":"03-4826370","COUNTYNAME":"桃園市","TOWNNAME":"楊梅區","MARKTYPE":"994","Class":"4"},"geometry":{"x":267652.05229999963,"y":2756053.5639999993}},{"attributes":{"OBJECTID":2207,"LANDMARKID":"1000300001037","LANDMARKCO":"405","LANDMARKNA":"中油加油站-幼獅工業區站","LANDMARKAD":"1000304","ADDRESS":"桃園縣楊梅鎮獅一路1號之6","TEL":"03-4644099","COUNTYNAME":"桃園市","TOWNNAME":"楊梅區","MARKTYPE":"994","Class":"4"},"geometry":{"x":267866.01300000027,"y":2757323.3509}},{"attributes":{"OBJECTID":2208,"LANDMARKID":"1000300001038","LANDMARKCO":"405","LANDMARKNA":"北基加油站-楊湖站(中油)","LANDMARKAD":"1000304","ADDRESS":"桃園縣楊梅鎮楊湖路2段231號","TEL":"(03)478-7818","COUNTYNAME":"桃園市","TOWNNAME":"楊梅區","MARKTYPE":"994","Class":"4"},"geometry":{"x":261625.12909999955,"y":2756057.4461000003}},{"attributes":{"OBJECTID":2209,"LANDMARKID":"1000300001039","LANDMARKCO":"405","LANDMARKNA":"中油加油站-金水美站","LANDMARKAD":"1000304","ADDRESS":"桃園縣楊梅鎮水美里民富路一段55號","TEL":"03-4789665","COUNTYNAME":"桃園市","TOWNNAME":"楊梅區","MARKTYPE":"994","Class":"4"},"geometry":{"x":263716.54050000012,"y":2756756.4024999999}},{"attributes":{"OBJECTID":2210,"LANDMARKID":"1000300001040","LANDMARKCO":"405","LANDMARKNA":"中油加油站-獅子王站(中油直營)","LANDMARKAD":"1000304","ADDRESS":"桃園縣楊梅鎮幼獅工業區獅二路16號","TEL":"03-4961585","COUNTYNAME":"桃園市","TOWNNAME":"楊梅區","MARKTYPE":"994","Class":"4"},"geometry":{"x":267342.79829999991,"y":2757309.9189999998}},{"attributes":{"OBJECTID":2211,"LANDMARKID":"1000300001041","LANDMARKCO":"405","LANDMARKNA":"中油加油站-萬通站","LANDMARKAD":"1000304","ADDRESS":"桃園縣楊梅鎮高榮里北高山頂27之7號","TEL":"03-4908898","COUNTYNAME":"桃園市","TOWNNAME":"楊梅區","MARKTYPE":"994","Class":"4"},"geometry":{"x":264754.77130000014,"y":2755545.6806000005}},{"attributes":{"OBJECTID":2212,"LANDMARKID":"1000300000848","LANDMARKCO":"402","LANDMARKNA":"My Phone台灣大哥大-楊梅大成直營服務中心","LANDMARKAD":"1000304","ADDRESS":"桃園縣楊梅鎮大成路140號","TEL":"0809-000-166","COUNTYNAME":"桃園市","TOWNNAME":"楊梅區","MARKTYPE":"994","Class":"4"},"geometry":{"x":264728.23819999956,"y":2755950.7217999995}},{"attributes":{"OBJECTID":2213,"LANDMARKID":"1000300000849","LANDMARKCO":"402","LANDMARKNA":"亞太行動寬頻電信-楊梅中興加盟服務中心","LANDMARKAD":"1000304","ADDRESS":"桃園縣楊梅鎮中興路42號","TEL":"03-4820333","COUNTYNAME":"桃園市","TOWNNAME":"楊梅區","MARKTYPE":"994","Class":"4"},"geometry":{"x":268614.77979999967,"y":2756735.9868999999}},{"attributes":{"OBJECTID":2214,"LANDMARKID":"1000300000850","LANDMARKCO":"402","LANDMARKNA":"亞太行動寬頻電信-楊梅中山加盟服務中心","LANDMARKAD":"1000304","ADDRESS":"桃園縣楊梅鎮中山路70號","TEL":"03-4756800","COUNTYNAME":"桃園市","TOWNNAME":"楊梅區","MARKTYPE":"994","Class":"4"},"geometry":{"x":264838.50140000042,"y":2755529.0558000002}},{"attributes":{"OBJECTID":2215,"LANDMARKID":"1000300000777","LANDMARKCO":"401","LANDMARKNA":"怡仁綜合醫院","LANDMARKAD":"1000304","ADDRESS":"桃園縣楊梅鎮楊新北路321巷30號","TEL":"03-4855566","COUNTYNAME":"桃園市","TOWNNAME":"楊梅區","MARKTYPE":"994","Class":"4"},"geometry":{"x":265699.20390000008,"y":2756562.5812999997}},{"attributes":{"OBJECTID":2216,"LANDMARKID":"1000300000778","LANDMARKCO":"401","LANDMARKNA":"天成醫院","LANDMARKAD":"1000304","ADDRESS":"桃園縣楊梅鎮新成路196號","TEL":" ","COUNTYNAME":"桃園市","TOWNNAME":"楊梅區","MARKTYPE":"994","Class":"4"},"geometry":{"x":264838.31879999954,"y":2755619.7399000004}},{"attributes":{"OBJECTID":2217,"LANDMARKID":"1000300000779","LANDMARKCO":"401","LANDMARKNA":"天成醫院","LANDMARKAD":"1000304","ADDRESS":"桃園縣楊梅鎮中山北路一段356號","TEL":"03-4782350","COUNTYNAME":"桃園市","TOWNNAME":"楊梅區","MARKTYPE":"994","Class":"4"},"geometry":{"x":265899.0421000002,"y":2755669.7908999994}},{"attributes":{"OBJECTID":2218,"LANDMARKID":"1000300001435","LANDMARKCO":"506","LANDMARKNA":"楊梅鎮觀光茶園","LANDMARKAD":"1000304","ADDRESS":"桃園縣楊梅鎮大成路2號","TEL":"03-4783685","COUNTYNAME":"桃園市","TOWNNAME":"楊梅區","MARKTYPE":"995","Class":"5"},"geometry":{"x":263701.8404000001,"y":2756149.8026000001}},{"attributes":{"OBJECTID":2219,"LANDMARKID":"1000300001356","LANDMARKCO":"408","LANDMARKNA":"郵局-楊梅郵局","LANDMARKAD":"1000304","ADDRESS":"桃園縣楊梅鎮大平街7號","TEL":"(03)4755-281","COUNTYNAME":"桃園市","TOWNNAME":"楊梅區","MARKTYPE":"994","Class":"4"},"geometry":{"x":264891,"y":2755882.7982999999}},{"attributes":{"OBJECTID":2220,"LANDMARKID":"1000300001357","LANDMARKCO":"408","LANDMARKNA":"郵局-楊梅大同郵局","LANDMARKAD":"1000304","ADDRESS":"桃園縣楊梅鎮中山北路1段168號","TEL":"(03)4758-624","COUNTYNAME":"桃園市","TOWNNAME":"楊梅區","MARKTYPE":"994","Class":"4"},"geometry":{"x":265481.17310000025,"y":2755606.2938000001}},{"attributes":{"OBJECTID":2221,"LANDMARKID":"1000300001358","LANDMARKCO":"408","LANDMARKNA":"郵局-楊梅富岡郵局","LANDMARKAD":"1000304","ADDRESS":"桃園縣楊梅鎮富岡里中華街48號","TEL":"(03)4721-475","COUNTYNAME":"桃園市","TOWNNAME":"楊梅區","MARKTYPE":"994","Class":"4"},"geometry":{"x":258245.79000000004,"y":2758600.3234999999}},{"attributes":{"OBJECTID":2222,"LANDMARKID":"1000300001359","LANDMARKCO":"408","LANDMARKNA":"郵局-楊梅埔心里郵局","LANDMARKAD":"1000304","ADDRESS":"桃園縣楊梅鎮中興路25號","TEL":"(03)4822-708","COUNTYNAME":"桃園市","TOWNNAME":"楊梅區","MARKTYPE":"994","Class":"4"},"geometry":{"x":268600.73959999997,"y":2756797.5743000004}},{"attributes":{"OBJECTID":2223,"LANDMARKID":"1000300001360","LANDMARKCO":"408","LANDMARKNA":"郵局-楊梅幼工郵局","LANDMARKAD":"1000304","ADDRESS":"桃園縣楊梅鎮獅二路2號(幼獅工業區管理中心內)","TEL":"(03)4641-924","COUNTYNAME":"桃園市","TOWNNAME":"楊梅區","MARKTYPE":"994","Class":"4"},"geometry":{"x":267684.61799999978,"y":2757593.3905999996}},{"attributes":{"OBJECTID":2224,"LANDMARKID":"1000300001361","LANDMARKCO":"408","LANDMARKNA":"郵局-楊梅高榮郵局","LANDMARKAD":"1000304","ADDRESS":"桃園縣楊梅鎮民族路5段551巷19號","TEL":"(03)4902-826","COUNTYNAME":"桃園市","TOWNNAME":"楊梅區","MARKTYPE":"994","Class":"4"},"geometry":{"x":266755.61440000031,"y":2761054.6096000001}},{"attributes":{"OBJECTID":2225,"LANDMARKID":"1000300001362","LANDMARKCO":"408","LANDMARKNA":"郵局-楊梅光華郵局","LANDMARKAD":"1000304","ADDRESS":"桃園縣楊梅鎮光華街53號","TEL":"(03)4789-853","COUNTYNAME":"桃園市","TOWNNAME":"楊梅區","MARKTYPE":"994","Class":"4"},"geometry":{"x":264635.35570000019,"y":2755583.3328000009}},{"attributes":{"OBJECTID":2226,"LANDMARKID":"1000300001363","LANDMARKCO":"408","LANDMARKNA":"郵局-楊梅秀才郵局","LANDMARKAD":"1000304","ADDRESS":"桃園縣楊梅鎮秀才路205號","TEL":"(03)4758-734","COUNTYNAME":"桃園市","TOWNNAME":"楊梅區","MARKTYPE":"994","Class":"4"},"geometry":{"x":264234.85360000003,"y":2754840.5416999999}},{"attributes":{"OBJECTID":2227,"LANDMARKID":"1000300001364","LANDMARKCO":"408","LANDMARKNA":"郵局-楊梅瑞塘郵局","LANDMARKAD":"1000304","ADDRESS":"桃園縣楊梅鎮萬大路116巷46、48、50號1樓","TEL":"(03)4829-957","COUNTYNAME":"桃園市","TOWNNAME":"楊梅區","MARKTYPE":"994","Class":"4"},"geometry":{"x":267818.61730000004,"y":2755789.2059000004}},{"attributes":{"OBJECTID":2228,"LANDMARKID":"1000300001384","LANDMARKCO":"409","LANDMARKNA":"桃園縣楊梅鎮農會","LANDMARKAD":"1000304","ADDRESS":"桃園縣楊梅鎮大模街9號","TEL":"03-4786135","COUNTYNAME":"桃園市","TOWNNAME":"楊梅區","MARKTYPE":"994","Class":"4"},"geometry":{"x":264645.28479999956,"y":2756127.8340000007}},{"attributes":{"OBJECTID":2229,"LANDMARKID":"1000300000938","LANDMARKCO":"404","LANDMARKNA":"台灣省自來水楊梅服務所","LANDMARKAD":"1000304","ADDRESS":"桃園縣楊梅鎮楊新路18巷2號","TEL":" ","COUNTYNAME":"桃園市","TOWNNAME":"楊梅區","MARKTYPE":"994","Class":"4"},"geometry":{"x":264878.62660000008,"y":2756209.5638999995}},{"attributes":{"OBJECTID":2230,"LANDMARKID":"1000300001250","LANDMARKCO":"406","LANDMARKNA":"湖濱公園","LANDMARKAD":"1000304","ADDRESS":"桃園縣楊梅鎮","TEL":" ","COUNTYNAME":"桃園市","TOWNNAME":"楊梅區","MARKTYPE":"994","Class":"4"},"geometry":{"x":267365.40919999965,"y":2753395.5091999993}},{"attributes":{"OBJECTID":2231,"LANDMARKID":"1000300001251","LANDMARKCO":"406","LANDMARKNA":"龜山公園","LANDMARKAD":"1000304","ADDRESS":"桃園縣楊梅鎮","TEL":" ","COUNTYNAME":"桃園市","TOWNNAME":"楊梅區","MARKTYPE":"994","Class":"4"},"geometry":{"x":265036.02379999962,"y":2755258.1754999999}},{"attributes":{"OBJECTID":2232,"LANDMARKID":"1000300001019","LANDMARKCO":"405","LANDMARKNA":"台亞加油站-聯安站（台塑）","LANDMARKAD":"1000304","ADDRESS":"桃園縣楊梅鎮中山南路997號","TEL":"(03)488-1770","COUNTYNAME":"桃園市","TOWNNAME":"楊梅區","MARKTYPE":"994","Class":"4"},"geometry":{"x":261106.42470000032,"y":2754191.6023999993}},{"attributes":{"OBJECTID":2233,"LANDMARKID":"1000300001020","LANDMARKCO":"405","LANDMARKNA":"台亞加油站-大平站（台塑）","LANDMARKAD":"1000304","ADDRESS":"桃園縣楊梅鎮大華街199號","TEL":"(03)485-3250","COUNTYNAME":"桃園市","TOWNNAME":"楊梅區","MARKTYPE":"994","Class":"4"},"geometry":{"x":264097.84310000017,"y":2755465.7873999998}},{"attributes":{"OBJECTID":2234,"LANDMARKID":"1000300001021","LANDMARKCO":"405","LANDMARKNA":"福懋加油站-楊梅站(台塑)","LANDMARKAD":"1000304","ADDRESS":"桃園縣楊梅鎮中山北路一段301號","TEL":"03-4753717","COUNTYNAME":"桃園市","TOWNNAME":"楊梅區","MARKTYPE":"994","Class":"4"},"geometry":{"x":265634.01229999959,"y":2755541.1665000003}},{"attributes":{"OBJECTID":2235,"LANDMARKID":"1000300000249","LANDMARKCO":"108","LANDMARKNA":"桃園縣楊梅鎮公所","LANDMARKAD":"1000304","ADDRESS":"桃園縣楊梅鎮大成路2號","TEL":"03-4783681~8","COUNTYNAME":"桃園市","TOWNNAME":"楊梅區","MARKTYPE":"991","Class":"1"},"geometry":{"x":264736.2416000003,"y":2755549.8540000003}},{"attributes":{"OBJECTID":2236,"LANDMARKID":"1000300000048","LANDMARKCO":"103","LANDMARKNA":"桃園縣楊梅鎮鎮民代表會","LANDMARKAD":"1000304","ADDRESS":"桃園縣楊梅鎮大華街3號","TEL":"03-4782131","COUNTYNAME":"桃園市","TOWNNAME":"楊梅區","MARKTYPE":"991","Class":"1"},"geometry":{"x":264756.28490000032,"y":2755589.8324999996}},{"attributes":{"OBJECTID":2237,"LANDMARKID":"1000300000154","LANDMARKCO":"107","LANDMARKNA":"桃園縣消防局楊梅消防分隊","LANDMARKAD":"1000304","ADDRESS":"桃園縣楊梅鎮新農街245巷20號","TEL":"03-4782294","COUNTYNAME":"桃園市","TOWNNAME":"楊梅區","MARKTYPE":"991","Class":"1"},"geometry":{"x":265400.26549999975,"y":2755869.7328999992}},{"attributes":{"OBJECTID":2238,"LANDMARKID":"1000300000155","LANDMARKCO":"107","LANDMARKNA":"桃園縣消防局幼獅消防分隊","LANDMARKAD":"1000304","ADDRESS":"桃園縣楊梅鎮幼獅路一段456號","TEL":"03-4641706","COUNTYNAME":"桃園市","TOWNNAME":"楊梅區","MARKTYPE":"991","Class":"1"},"geometry":{"x":267722.07500000019,"y":2757539.9483000003}},{"attributes":{"OBJECTID":2239,"LANDMARKID":"1000300000156","LANDMARKCO":"107","LANDMARKNA":"桃園縣政府警察局楊梅分局","LANDMARKAD":"1000304","ADDRESS":"桃園縣楊梅鎮紅梅里中山路123號","TEL":"03-4782274","COUNTYNAME":"桃園市","TOWNNAME":"楊梅區","MARKTYPE":"991","Class":"1"},"geometry":{"x":264794.15639999975,"y":2755469.7917999998}},{"attributes":{"OBJECTID":2240,"LANDMARKID":"1000300000157","LANDMARKCO":"107","LANDMARKNA":"桃園縣政府警察局幼獅派出所","LANDMARKAD":"1000304","ADDRESS":"桃園縣楊梅鎮青山里幼獅路一段458號","TEL":"03-4643521","COUNTYNAME":"桃園市","TOWNNAME":"楊梅區","MARKTYPE":"991","Class":"1"},"geometry":{"x":267754.3694000002,"y":2757459.9070999995}},{"attributes":{"OBJECTID":2241,"LANDMARKID":"1000300000158","LANDMARKCO":"107","LANDMARKNA":"桃園縣政府警察局上湖派出所","LANDMARKAD":"1000304","ADDRESS":"桃園縣楊梅鎮上湖里楊湖路三段239號","TEL":"03-4727925","COUNTYNAME":"桃園市","TOWNNAME":"楊梅區","MARKTYPE":"991","Class":"1"},"geometry":{"x":258644.0661000004,"y":2756039.8681000005}},{"attributes":{"OBJECTID":2242,"LANDMARKID":"1000300000159","LANDMARKCO":"107","LANDMARKNA":"桃園縣政府警察局富岡派出所","LANDMARKAD":"1000304","ADDRESS":"桃園縣楊梅鎮富岡里富源街22號","TEL":"03-4721794","COUNTYNAME":"桃園市","TOWNNAME":"楊梅區","MARKTYPE":"991","Class":"1"},"geometry":{"x":258294.09310000017,"y":2758549.9138999991}},{"attributes":{"OBJECTID":2243,"LANDMARKID":"1000300000160","LANDMARKCO":"107","LANDMARKNA":"桃園縣政府警察局草湳派出所","LANDMARKAD":"1000304","ADDRESS":"桃園縣楊梅鎮埔心里永美路237號","TEL":"03-4826278","COUNTYNAME":"桃園市","TOWNNAME":"楊梅區","MARKTYPE":"991","Class":"1"},"geometry":{"x":268395.04040000029,"y":2756589.7986999992}},{"attributes":{"OBJECTID":2244,"LANDMARKID":"1000300000161","LANDMARKCO":"107","LANDMARKNA":"桃園縣政府警察局楊梅派出所","LANDMARKAD":"1000304","ADDRESS":"桃園縣楊梅鎮紅梅里中山路123號","TEL":"03-4782007","COUNTYNAME":"桃園市","TOWNNAME":"楊梅區","MARKTYPE":"991","Class":"1"},"geometry":{"x":264792.1671000002,"y":2755479.7939999998}},{"attributes":{"OBJECTID":2245,"LANDMARKID":"1000300000162","LANDMARKCO":"107","LANDMARKNA":"國公路警察局第二警察隊楊梅分隊","LANDMARKAD":"1000304","ADDRESS":"桃園縣楊梅鎮校前路294號","TEL":"03-4782594","COUNTYNAME":"桃園市","TOWNNAME":"楊梅區","MARKTYPE":"991","Class":"1"},"geometry":{"x":264786.28849999979,"y":2754669.8014000002}},{"attributes":{"OBJECTID":2246,"LANDMARKID":"1000300000106","LANDMARKCO":"106","LANDMARKNA":"桃園縣楊梅鎮戶政事務所","LANDMARKAD":"1000304","ADDRESS":"桃園縣楊梅鎮校前路409號3樓","TEL":"03-4782324","COUNTYNAME":"桃園市","TOWNNAME":"楊梅區","MARKTYPE":"991","Class":"1"},"geometry":{"x":264747.12370000035,"y":2755439.8423999995}},{"attributes":{"OBJECTID":2247,"LANDMARKID":"1000300000091","LANDMARKCO":"105","LANDMARKNA":"桃園縣楊梅地政事務所","LANDMARKAD":"1000304","ADDRESS":"桃園縣楊梅鎮新成路48號7樓","TEL":"03-4783115","COUNTYNAME":"桃園市","TOWNNAME":"楊梅區","MARKTYPE":"991","Class":"1"},"geometry":{"x":264741.25239999965,"y":2755559.8487}},{"attributes":{"OBJECTID":2248,"LANDMARKID":"1000300000087","LANDMARKCO":"104","LANDMARKNA":"北區國稅局楊梅稽徵所","LANDMARKAD":"1000304","ADDRESS":"桃園縣楊梅鎮中山路212號2樓","TEL":"03-4750320","COUNTYNAME":"桃園市","TOWNNAME":"楊梅區","MARKTYPE":"991","Class":"1"},"geometry":{"x":264395.10020000022,"y":2755419.9206000008}},{"attributes":{"OBJECTID":2249,"LANDMARKID":"1000300000047","LANDMARKCO":"103","LANDMARKNA":"青年輔導委員會青年職業訓練中心","LANDMARKAD":"1000304","ADDRESS":"桃園縣楊梅鎮幼獅路二段3號","TEL":"03-4641162","COUNTYNAME":"桃園市","TOWNNAME":"楊梅區","MARKTYPE":"991","Class":"1"},"geometry":{"x":267473.37980000023,"y":2757779.9087000005}},{"attributes":{"OBJECTID":2250,"LANDMARKID":"1000300000030","LANDMARKCO":"101","LANDMARKNA":"勞工委員會職業訓練局","LANDMARKAD":"1000304","ADDRESS":"桃園縣楊梅鎮秀才路851號","TEL":"03-4855368","COUNTYNAME":"桃園市","TOWNNAME":"楊梅區","MARKTYPE":"991","Class":"1"},"geometry":{"x":263554.27610000037,"y":2753449.9268999994}},{"attributes":{"OBJECTID":2251,"LANDMARKID":"1000300000046","LANDMARKCO":"103","LANDMARKNA":"桃園縣楊梅鎮衛生所","LANDMARKAD":"1000304","ADDRESS":"桃園縣楊梅鎮校前路409號1~2樓","TEL":"03-4782248","COUNTYNAME":"桃園市","TOWNNAME":"楊梅區","MARKTYPE":"991","Class":"1"},"geometry":{"x":264780.23149999976,"y":2755539.8068000004}},{"attributes":{"OBJECTID":2252,"LANDMARKID":"1000300000031","LANDMARKCO":"101","LANDMARKNA":"工業局桃園幼獅工業區服務中心","LANDMARKAD":"1000304","ADDRESS":"桃園縣楊梅鎮埔心青山里獅二路2號","TEL":"03-4641074","COUNTYNAME":"桃園市","TOWNNAME":"楊梅區","MARKTYPE":"991","Class":"1"},"geometry":{"x":267672.12629999965,"y":2757579.6544000003}},{"attributes":{"OBJECTID":2253,"LANDMARKID":"1000300000561","LANDMARKCO":"205","LANDMARKNA":"郭元益糕餅博物館楊梅館","LANDMARKAD":"1000304","ADDRESS":"桃園縣楊梅鎮青年路9巷1號","TEL":"03-4643545","COUNTYNAME":"桃園市","TOWNNAME":"楊梅區","MARKTYPE":"992","Class":"2"},"geometry":{"x":266928.28469999973,"y":2757829.4033000004}},{"attributes":{"OBJECTID":2254,"LANDMARKID":"1000300000554","LANDMARKCO":"204","LANDMARKNA":"桃園縣立圖書館楊梅分館","LANDMARKAD":"1000304","ADDRESS":"桃園縣楊梅鎮光華街26號","TEL":" ","COUNTYNAME":"桃園市","TOWNNAME":"楊梅區","MARKTYPE":"992","Class":"2"},"geometry":{"x":264661.66220000014,"y":2755621.8768000007}},{"attributes":{"OBJECTID":2255,"LANDMARKID":"1000300000302","LANDMARKCO":"202","LANDMARKNA":"私立大華高中","LANDMARKAD":"1000304","ADDRESS":"桃園縣楊梅鎮三民路二段200號","TEL":"03-4825507","COUNTYNAME":"桃園市","TOWNNAME":"楊梅區","MARKTYPE":"992","Class":"2"},"geometry":{"x":267610.32120000012,"y":2752809.7422000002}},{"attributes":{"OBJECTID":2256,"LANDMARKID":"1000300000303","LANDMARKCO":"202","LANDMARKNA":"私立永平工商","LANDMARKAD":"1000304","ADDRESS":"桃園縣楊梅鎮永平路480號","TEL":"03-4822464","COUNTYNAME":"桃園市","TOWNNAME":"楊梅區","MARKTYPE":"992","Class":"2"},"geometry":{"x":267563.0047000004,"y":2756869.7954999991}},{"attributes":{"OBJECTID":2257,"LANDMARKID":"1000300000304","LANDMARKCO":"202","LANDMARKNA":"私立大華高中附設國中部","LANDMARKAD":"1000304","ADDRESS":"桃園縣楊梅鎮三民路二段200號","TEL":"03-4825507","COUNTYNAME":"桃園市","TOWNNAME":"楊梅區","MARKTYPE":"992","Class":"2"},"geometry":{"x":267615.32129999995,"y":2752809.7357999999}},{"attributes":{"OBJECTID":2258,"LANDMARKID":"1000300000336","LANDMARKCO":"203","LANDMARKNA":"縣立富岡國中","LANDMARKAD":"1000304","ADDRESS":"桃園縣楊梅鎮豐野里中正路456號","TEL":"03-4721113","COUNTYNAME":"桃園市","TOWNNAME":"楊梅區","MARKTYPE":"992","Class":"2"},"geometry":{"x":257510.14180000033,"y":2759269.8920000009}},{"attributes":{"OBJECTID":2259,"LANDMARKID":"1000300000337","LANDMARKCO":"203","LANDMARKNA":"縣立楊明國中","LANDMARKAD":"1000304","ADDRESS":"桃園縣楊梅鎮新農街337號","TEL":"03-4781525","COUNTYNAME":"桃園市","TOWNNAME":"楊梅區","MARKTYPE":"992","Class":"2"},"geometry":{"x":265629.02159999963,"y":2755959.7864999995}},{"attributes":{"OBJECTID":2260,"LANDMARKID":"1000300000338","LANDMARKCO":"203","LANDMARKNA":"縣立瑞原國中","LANDMARKAD":"1000304","ADDRESS":"桃園縣楊梅鎮民豐路69號","TEL":"03-4782242#11","COUNTYNAME":"桃園市","TOWNNAME":"楊梅區","MARKTYPE":"992","Class":"2"},"geometry":{"x":262384.1520999996,"y":2758259.9726}},{"attributes":{"OBJECTID":2261,"LANDMARKID":"1000300000339","LANDMARKCO":"203","LANDMARKNA":"縣立楊梅國中","LANDMARKAD":"1000304","ADDRESS":"桃園縣楊梅鎮校前路149號","TEL":"03-4782024","COUNTYNAME":"桃園市","TOWNNAME":"楊梅區","MARKTYPE":"992","Class":"2"},"geometry":{"x":264928.15510000009,"y":2755159.9481000006}},{"attributes":{"OBJECTID":2262,"LANDMARKID":"1000300000340","LANDMARKCO":"203","LANDMARKNA":"縣立楊明國小","LANDMARKAD":"1000304","ADDRESS":"桃園縣楊梅鎮中山北路一段390巷50號","TEL":"03-4754929","COUNTYNAME":"桃園市","TOWNNAME":"楊梅區","MARKTYPE":"992","Class":"2"},"geometry":{"x":266083.09190000035,"y":2756019.9043000005}},{"attributes":{"OBJECTID":2263,"LANDMARKID":"1000300000341","LANDMARKCO":"203","LANDMARKNA":"縣立富岡國小","LANDMARKAD":"1000304","ADDRESS":"桃園縣楊梅鎮豐野里中正路147號","TEL":"03-4721193","COUNTYNAME":"桃園市","TOWNNAME":"楊梅區","MARKTYPE":"992","Class":"2"},"geometry":{"x":258160.11079999991,"y":2758889.9941000007}},{"attributes":{"OBJECTID":2264,"LANDMARKID":"1000300000342","LANDMARKCO":"203","LANDMARKNA":"縣立瑞埔國小","LANDMARKAD":"1000304","ADDRESS":"桃園縣楊梅鎮埔心里中興路133號","TEL":"03-4822018","COUNTYNAME":"桃園市","TOWNNAME":"楊梅區","MARKTYPE":"992","Class":"2"},"geometry":{"x":268792.37939999998,"y":2756529.6369000003}},{"attributes":{"OBJECTID":2265,"LANDMARKID":"1000300000343","LANDMARKCO":"203","LANDMARKNA":"縣立四維國小","LANDMARKAD":"1000304","ADDRESS":"桃園縣楊梅鎮光華里文化街189巷30號","TEL":"03-4822704","COUNTYNAME":"桃園市","TOWNNAME":"楊梅區","MARKTYPE":"992","Class":"2"},"geometry":{"x":268686.1157999998,"y":2756029.7824000008}},{"attributes":{"OBJECTID":2266,"LANDMARKID":"1000300000344","LANDMARKCO":"203","LANDMARKNA":"縣立楊梅國小","LANDMARKAD":"1000304","ADDRESS":"桃園縣楊梅鎮校前路1號","TEL":"03-4782016","COUNTYNAME":"桃園市","TOWNNAME":"楊梅區","MARKTYPE":"992","Class":"2"},"geometry":{"x":264629.03770000022,"y":2755359.9685999993}},{"attributes":{"OBJECTID":2267,"LANDMARKID":"1000300000345","LANDMARKCO":"203","LANDMARKNA":"縣立高榮國小","LANDMARKAD":"1000304","ADDRESS":"桃園縣楊梅鎮高山里高上路一段1號","TEL":"03-4782314","COUNTYNAME":"桃園市","TOWNNAME":"楊梅區","MARKTYPE":"992","Class":"2"},"geometry":{"x":266557.0831000004,"y":2758780.0020000003}},{"attributes":{"OBJECTID":2268,"LANDMARKID":"1000300000346","LANDMARKCO":"203","LANDMARKNA":"縣立大同國小","LANDMARKAD":"1000304","ADDRESS":"桃園縣楊梅鎮楊新北路2巷45號","TEL":"03-4782249","COUNTYNAME":"桃園市","TOWNNAME":"楊梅區","MARKTYPE":"992","Class":"2"},"geometry":{"x":265029.24859999958,"y":2755859.8372000009}},{"attributes":{"OBJECTID":2269,"LANDMARKID":"1000300000347","LANDMARKCO":"203","LANDMARKNA":"縣立水美國小","LANDMARKAD":"1000304","ADDRESS":"桃園縣楊梅鎮水美里楊新路一段410號","TEL":"03-4782770","COUNTYNAME":"桃園市","TOWNNAME":"楊梅區","MARKTYPE":"992","Class":"2"},"geometry":{"x":263902.2686999999,"y":2756819.8537000008}},{"attributes":{"OBJECTID":2270,"LANDMARKID":"1000300000293","LANDMARKCO":"202","LANDMARKNA":"國立楊梅高中","LANDMARKAD":"1000304","ADDRESS":"桃園縣楊梅鎮南高山頂7之2號","TEL":"03-4757572","COUNTYNAME":"桃園市","TOWNNAME":"楊梅區","MARKTYPE":"992","Class":"2"},"geometry":{"x":265044.05360000022,"y":2757219.8191}},{"attributes":{"OBJECTID":2271,"LANDMARKID":"1000300000294","LANDMARKCO":"202","LANDMARKNA":"私立治平高中","LANDMARKAD":"1000304","ADDRESS":"桃園縣楊梅鎮埔心中興路137號","TEL":"03-4823636","COUNTYNAME":"桃園市","TOWNNAME":"楊梅區","MARKTYPE":"992","Class":"2"},"geometry":{"x":268970.28600000031,"y":2756459.7733999994}},{"attributes":{"OBJECTID":2272,"LANDMARKID":"1000300000295","LANDMARKCO":"202","LANDMARKNA":"私立治平高中附設國中部","LANDMARKAD":"1000304","ADDRESS":"桃園縣楊梅鎮埔心中興路137號","TEL":"03-4823636","COUNTYNAME":"桃園市","TOWNNAME":"楊梅區","MARKTYPE":"992","Class":"2"},"geometry":{"x":268979.28610000014,"y":2756459.7609999999}},{"attributes":{"OBJECTID":2273,"LANDMARKID":"1000300000383","LANDMARKCO":"203","LANDMARKNA":"縣立仁美國中","LANDMARKAD":"1000304","ADDRESS":"桃園縣楊梅鎮高榮里11鄰9之8號","TEL":"03-4641123","COUNTYNAME":"桃園市","TOWNNAME":"楊梅區","MARKTYPE":"992","Class":"2"},"geometry":{"x":268563.34420000017,"y":2757429.9464999996}},{"attributes":{"OBJECTID":2274,"LANDMARKID":"1000300000384","LANDMARKCO":"203","LANDMARKNA":"縣立瑞梅國小","LANDMARKAD":"1000304","ADDRESS":"桃園縣楊梅鎮梅溪里4鄰26號","TEL":"03-4825284","COUNTYNAME":"桃園市","TOWNNAME":"楊梅區","MARKTYPE":"992","Class":"2"},"geometry":{"x":267335.32120000012,"y":2755889.7342000008}},{"attributes":{"OBJECTID":2275,"LANDMARKID":"1000300000385","LANDMARKCO":"203","LANDMARKNA":"縣立瑞原國小","LANDMARKAD":"1000304","ADDRESS":"桃園縣楊梅鎮瑞原里7鄰60號","TEL":"03-4723280","COUNTYNAME":"桃園市","TOWNNAME":"楊梅區","MARKTYPE":"992","Class":"2"},"geometry":{"x":260534.09630000032,"y":2757599.8917999994}},{"attributes":{"OBJECTID":2276,"LANDMARKID":"1000300000386","LANDMARKCO":"203","LANDMARKNA":"縣立上田國小","LANDMARKAD":"1000304","ADDRESS":"桃園縣楊梅鎮上田里9鄰98號","TEL":"03-4782544","COUNTYNAME":"桃園市","TOWNNAME":"楊梅區","MARKTYPE":"992","Class":"2"},"geometry":{"x":262749.20710000023,"y":2758929.8929999992}},{"attributes":{"OBJECTID":2277,"LANDMARKID":"1000300000387","LANDMARKCO":"203","LANDMARKNA":"縣立上湖國小","LANDMARKAD":"1000304","ADDRESS":"桃園縣楊梅鎮上湖里14鄰60之1號","TEL":"03-4721640","COUNTYNAME":"桃園市","TOWNNAME":"楊梅區","MARKTYPE":"992","Class":"2"},"geometry":{"x":258556.07650000043,"y":2755749.9232999999}},{"attributes":{"OBJECTID":2278,"LANDMARKID":"1000300000388","LANDMARKCO":"203","LANDMARKNA":"縣立楊心國小","LANDMARKAD":"1000304","ADDRESS":"桃園縣楊梅鎮金華街100號","TEL":"03-4758680","COUNTYNAME":"桃園市","TOWNNAME":"楊梅區","MARKTYPE":"992","Class":"2"},"geometry":{"x":264487.25329999998,"y":2756179.8230000008}},{"attributes":{"OBJECTID":2279,"LANDMARKID":"1000300000389","LANDMARKCO":"203","LANDMARKNA":"桃園縣立楊光國(中)小","LANDMARKAD":"1000304","ADDRESS":"桃園縣楊梅鎮瑞溪路一段88號","TEL":"03-4827987","COUNTYNAME":"桃園市","TOWNNAME":"楊梅區","MARKTYPE":"992","Class":"2"},"geometry":{"x":267162.17800000031,"y":2755469.9520999994}},{"attributes":{"OBJECTID":2280,"LANDMARKID":"1000300000390","LANDMARKCO":"203","LANDMARKNA":"縣立瑞塘國小","LANDMARKAD":"1000304","ADDRESS":"桃園縣楊梅鎮瑞溪路二段100號","TEL":"03-4316360","COUNTYNAME":"桃園市","TOWNNAME":"楊梅區","MARKTYPE":"992","Class":"2"},"geometry":{"x":268168.37179999985,"y":2755609.7328999992}},{"attributes":{"OBJECTID":2281,"LANDMARKID":"1000300000711","LANDMARKCO":"308","LANDMARKNA":"楊梅收費站","LANDMARKAD":"1000304","ADDRESS":" ","TEL":" ","COUNTYNAME":"桃園市","TOWNNAME":"楊梅區","MARKTYPE":"993","Class":"308"},"geometry":{"x":264856.29590000026,"y":2754598.8615000006}},{"attributes":{"OBJECTID":2282,"LANDMARKID":"1000300000712","LANDMARKCO":"308","LANDMARKNA":"國1-平鎮系統交流道-南下","LANDMARKAD":"1000304","ADDRESS":"桃園縣平鎮市","TEL":" ","COUNTYNAME":"桃園市","TOWNNAME":"楊梅區","MARKTYPE":"993","Class":"308"},"geometry":{"x":268840.28550000023,"y":2758449.9575999994}},{"attributes":{"OBJECTID":2283,"LANDMARKID":"1000300000713","LANDMARKCO":"308","LANDMARKNA":"國1-幼獅交流道-北上","LANDMARKAD":"1000304","ADDRESS":"桃園縣楊梅鎮","TEL":" ","COUNTYNAME":"桃園市","TOWNNAME":"楊梅區","MARKTYPE":"993","Class":"308"},"geometry":{"x":267364.88910000026,"y":2757521.7886999995}},{"attributes":{"OBJECTID":2284,"LANDMARKID":"1000300000714","LANDMARKCO":"308","LANDMARKNA":"國1-楊梅交流道-南下","LANDMARKAD":"1000304","ADDRESS":"桃園縣楊梅鎮","TEL":" ","COUNTYNAME":"桃園市","TOWNNAME":"楊梅區","MARKTYPE":"993","Class":"308"},"geometry":{"x":266513.20459999982,"y":2755514.4343999997}},{"attributes":{"OBJECTID":2285,"LANDMARKID":"1000300000715","LANDMARKCO":"308","LANDMARKNA":"國1-幼獅交流道-南下","LANDMARKAD":"1000304","ADDRESS":"桃園縣楊梅鎮","TEL":" ","COUNTYNAME":"桃園市","TOWNNAME":"楊梅區","MARKTYPE":"993","Class":"308"},"geometry":{"x":267151.18969999999,"y":2757341.1400000006}},{"attributes":{"OBJECTID":2286,"LANDMARKID":"1000300000716","LANDMARKCO":"308","LANDMARKNA":"國1-楊梅交流道-北上","LANDMARKAD":"1000304","ADDRESS":"桃園縣楊梅鎮","TEL":" ","COUNTYNAME":"桃園市","TOWNNAME":"楊梅區","MARKTYPE":"993","Class":"308"},"geometry":{"x":266713.57259999961,"y":2755944.4748}},{"attributes":{"OBJECTID":2287,"LANDMARKID":"1000300000583","LANDMARKCO":"302","LANDMARKNA":"新竹汽車客運楊梅站","LANDMARKAD":"1000304","ADDRESS":"桃園縣楊梅鎮大平街86號","TEL":" ","COUNTYNAME":"桃園市","TOWNNAME":"楊梅區","MARKTYPE":"993","Class":"302"},"geometry":{"x":264629.54430000018,"y":2755923.4049999993}},{"attributes":{"OBJECTID":2288,"LANDMARKID":"1000300000687","LANDMARKCO":"303","LANDMARKNA":"愛買吉安停車場","LANDMARKAD":"1000304","ADDRESS":"桃園縣楊梅鎮中山北路二段23巷6號","TEL":" ","COUNTYNAME":"桃園市","TOWNNAME":"楊梅區","MARKTYPE":"993","Class":"303"},"geometry":{"x":266966.82380000036,"y":2755512.1249000002}},{"attributes":{"OBJECTID":2289,"LANDMARKID":"1000300000688","LANDMARKCO":"303","LANDMARKNA":"光復街立體停車場","LANDMARKAD":"1000304","ADDRESS":"桃園縣楊梅鎮光復北街20號","TEL":" ","COUNTYNAME":"桃園市","TOWNNAME":"楊梅區","MARKTYPE":"993","Class":"303"},"geometry":{"x":264822.24600000028,"y":2756025.8475000001}},{"attributes":{"OBJECTID":2290,"LANDMARKID":"1000300000689","LANDMARKCO":"303","LANDMARKNA":"矮坪子停車場","LANDMARKAD":"1000304","ADDRESS":"桃園縣楊梅鎮","TEL":" ","COUNTYNAME":"桃園市","TOWNNAME":"楊梅區","MARKTYPE":"993","Class":"303"},"geometry":{"x":267855.63439999986,"y":2754644.8041999992}},{"attributes":{"OBJECTID":2291,"LANDMARKID":"1000300000690","LANDMARKCO":"303","LANDMARKNA":"怡仁綜合醫院停車場","LANDMARKAD":"1000304","ADDRESS":"桃園縣楊梅鎮楊新北路321巷30號","TEL":"03-4855566~81","COUNTYNAME":"桃園市","TOWNNAME":"楊梅區","MARKTYPE":"993","Class":"303"},"geometry":{"x":265617.57749999966,"y":2756575.8954000007}},{"attributes":{"OBJECTID":2292,"LANDMARKID":"1000300000691","LANDMARKCO":"303","LANDMARKNA":"台灣聯通停車場-楊梅場","LANDMARKAD":"1000304","ADDRESS":"桃園縣楊梅鎮中山北路一段94-1號前","TEL":" ","COUNTYNAME":"桃園市","TOWNNAME":"楊梅區","MARKTYPE":"993","Class":"303"},"geometry":{"x":265305.40309999976,"y":2755573.1963999998}},{"attributes":{"OBJECTID":2293,"LANDMARKID":"1000300000692","LANDMARKCO":"303","LANDMARKNA":"中興嘟嘟房停車場-楊梅站","LANDMARKAD":"1000304","ADDRESS":"桃園縣楊梅鎮環東路491號(收費處)","TEL":"03-4884963","COUNTYNAME":"桃園市","TOWNNAME":"楊梅區","MARKTYPE":"993","Class":"303"},"geometry":{"x":265905.64769999962,"y":2755629.4285000004}},{"attributes":{"OBJECTID":2294,"LANDMARKID":"1000300000580","LANDMARKCO":"301","LANDMARKNA":"富岡火車站","LANDMARKAD":"1000304","ADDRESS":"桃園縣楊梅鎮富岡里成功路37號","TEL":"03-4723754","COUNTYNAME":"桃園市","TOWNNAME":"楊梅區","MARKTYPE":"993","Class":"301"},"geometry":{"x":258396.57799999975,"y":2758515.4318000004}},{"attributes":{"OBJECTID":2295,"LANDMARKID":"1000300000581","LANDMARKCO":"301","LANDMARKNA":"埔心火車站","LANDMARKAD":"1000304","ADDRESS":"桃園縣楊梅鎮埔心里永美路208號","TEL":"03-4827100","COUNTYNAME":"桃園市","TOWNNAME":"楊梅區","MARKTYPE":"993","Class":"301"},"geometry":{"x":268555.88320000004,"y":2756896.0536000002}},{"attributes":{"OBJECTID":2296,"LANDMARKID":"1000300000582","LANDMARKCO":"301","LANDMARKNA":"楊梅火車站","LANDMARKAD":"1000304","ADDRESS":"桃園縣楊梅鎮楊梅里大成路256號","TEL":"03-4782893","COUNTYNAME":"桃園市","TOWNNAME":"楊梅區","MARKTYPE":"993","Class":"301"},"geometry":{"x":264752.38410000037,"y":2756281.7138999999}},{"attributes":{"OBJECTID":2297,"LANDMARKID":"1000300000926","LANDMARKCO":"402","LANDMARKNA":"中華電信-楊梅埔心特約服務中心","LANDMARKAD":"1000304","ADDRESS":"桃園縣楊梅鎮中興路19號","TEL":"03-4821100","COUNTYNAME":"桃園市","TOWNNAME":"楊梅區","MARKTYPE":"994","Class":"4"},"geometry":{"x":268596.69930000044,"y":2756797.6850000005}},{"attributes":{"OBJECTID":2298,"LANDMARKID":"1000300000927","LANDMARKCO":"402","LANDMARKNA":"威寶電信-楊梅大成特約服務中心","LANDMARKAD":"1000304","ADDRESS":"桃園縣楊梅鎮大成路136號","TEL":"03-4789778","COUNTYNAME":"桃園市","TOWNNAME":"楊梅區","MARKTYPE":"994","Class":"4"},"geometry":{"x":264729.34929999989,"y":2755940.6468000002}},{"attributes":{"OBJECTID":2299,"LANDMARKID":"1000300000928","LANDMARKCO":"402","LANDMARKNA":"大眾電信(震旦通訊)-楊梅大成店","LANDMARKAD":"1000304","ADDRESS":"桃園縣楊梅鎮大成路155號","TEL":"03-4883123","COUNTYNAME":"桃園市","TOWNNAME":"楊梅區","MARKTYPE":"994","Class":"4"},"geometry":{"x":264707.32859999966,"y":2756009.8723000009}},{"attributes":{"OBJECTID":2300,"LANDMARKID":"1000300000929","LANDMARKCO":"402","LANDMARKNA":"大眾電信-楊梅專賣店","LANDMARKAD":"1000304","ADDRESS":"桃園縣楊梅鎮新成路23號","TEL":"966551001","COUNTYNAME":"桃園市","TOWNNAME":"楊梅區","MARKTYPE":"994","Class":"4"},"geometry":{"x":264847.33210000023,"y":2756102.0252}},{"attributes":{"OBJECTID":2301,"LANDMARKID":"1000300001640","LANDMARKCO":"603","LANDMARKNA":"華洋旅社","LANDMARKAD":"1000304","ADDRESS":"桃園縣楊梅鎮大成路114號2-3樓","TEL":"03-4782355","COUNTYNAME":"桃園市","TOWNNAME":"楊梅區","MARKTYPE":"996","Class":"6"},"geometry":{"x":264728.76999999955,"y":2755887.4816999994}},{"attributes":{"OBJECTID":2302,"LANDMARKID":"1000300001641","LANDMARKCO":"603","LANDMARKNA":"壽樂大飯店","LANDMARKAD":"1000304","ADDRESS":"桃園縣楊梅鎮大成路48號2-3樓","TEL":"03-4783133","COUNTYNAME":"桃園市","TOWNNAME":"楊梅區","MARKTYPE":"996","Class":"6"},"geometry":{"x":264722.60809999984,"y":2755740.1699999999}},{"attributes":{"OBJECTID":2303,"LANDMARKID":"1000300001642","LANDMARKCO":"603","LANDMARKNA":"麗景花園MOTEL","LANDMARKAD":"1000304","ADDRESS":"桃園縣楊梅鎮中山北路一段494巷100號2樓","TEL":"03-4754653","COUNTYNAME":"桃園市","TOWNNAME":"楊梅區","MARKTYPE":"996","Class":"6"},"geometry":{"x":266256.86390000023,"y":2756002.1297999993}},{"attributes":{"OBJECTID":2304,"LANDMARKID":"1000300001643","LANDMARKCO":"603","LANDMARKNA":"統帥賓館","LANDMARKAD":"1000304","ADDRESS":"桃園縣楊梅鎮日新街2-1號2樓","TEL":"03-4311081","COUNTYNAME":"桃園市","TOWNNAME":"楊梅區","MARKTYPE":"996","Class":"6"},"geometry":{"x":268673.26360000018,"y":2756836.7836000007}},{"attributes":{"OBJECTID":2305,"LANDMARKID":"1000300001644","LANDMARKCO":"603","LANDMARKNA":"亞洲旅社","LANDMARKAD":"1000304","ADDRESS":"桃園縣楊梅鎮日新街2號2-3樓","TEL":"03-4822420","COUNTYNAME":"桃園市","TOWNNAME":"楊梅區","MARKTYPE":"996","Class":"6"},"geometry":{"x":268673.26360000018,"y":2756836.7836000007}},{"attributes":{"OBJECTID":2306,"LANDMARKID":"1000300001645","LANDMARKCO":"603","LANDMARKNA":"龍觀旅館","LANDMARKAD":"1000304","ADDRESS":"桃園縣楊梅鎮永美路221號","TEL":"03-4822359","COUNTYNAME":"桃園市","TOWNNAME":"楊梅區","MARKTYPE":"996","Class":"6"},"geometry":{"x":268598.11340000015,"y":2756843.3184999991}},{"attributes":{"OBJECTID":2307,"LANDMARKID":"1000300001646","LANDMARKCO":"603","LANDMARKNA":"愛月旅社","LANDMARKAD":"1000304","ADDRESS":"桃園縣楊梅鎮光復街15號2-3樓","TEL":"03-4782367","COUNTYNAME":"桃園市","TOWNNAME":"楊梅區","MARKTYPE":"996","Class":"6"},"geometry":{"x":264671.46910000034,"y":2756029.8092}},{"attributes":{"OBJECTID":2308,"LANDMARKID":"1000300001647","LANDMARKCO":"603","LANDMARKNA":"尋夢園汽車旅館","LANDMARKAD":"1000304","ADDRESS":"桃園縣楊梅鎮新農街209巷2號B1-1樓","TEL":"03-4788585-6","COUNTYNAME":"桃園市","TOWNNAME":"楊梅區","MARKTYPE":"996","Class":"6"},"geometry":{"x":265336.37509999983,"y":2755845.557}},{"attributes":{"OBJECTID":2309,"LANDMARKID":"1000300001648","LANDMARKCO":"603","LANDMARKNA":"園夢旅社","LANDMARKAD":"1000304","ADDRESS":"桃園縣楊梅鎮新農街6號7樓","TEL":"03-4750292","COUNTYNAME":"桃園市","TOWNNAME":"楊梅區","MARKTYPE":"996","Class":"6"},"geometry":{"x":264809.88499999978,"y":2755707.7171}},{"attributes":{"OBJECTID":2310,"LANDMARKID":"1000300001649","LANDMARKCO":"603","LANDMARKNA":"來來大旅社","LANDMARKAD":"1000304","ADDRESS":"桃園縣楊梅鎮楊新路45號3樓","TEL":"03-4783131","COUNTYNAME":"桃園市","TOWNNAME":"楊梅區","MARKTYPE":"996","Class":"6"},"geometry":{"x":264823.79619999975,"y":2756157.1841000002}},{"attributes":{"OBJECTID":2311,"LANDMARKID":"1000300001427","LANDMARKCO":"505","LANDMARKNA":"味全埔心牧場","LANDMARKAD":"1000304","ADDRESS":"桃園縣楊梅鎮高榮里3之1號","TEL":" ","COUNTYNAME":"桃園市","TOWNNAME":"楊梅區","MARKTYPE":"995","Class":"5"},"geometry":{"x":267768.66459999979,"y":2757566.5418999996}},{"attributes":{"OBJECTID":2312,"LANDMARKID":"1000300001455","LANDMARKCO":"510","LANDMARKNA":"楊梅高爾夫球場","LANDMARKAD":"1000304","ADDRESS":"桃園縣楊梅鎮東流里13鄰崩坡73號","TEL":"03-4780541","COUNTYNAME":"桃園市","TOWNNAME":"楊梅區","MARKTYPE":"995","Class":"5"},"geometry":{"x":262744.33260000031,"y":2753036.1186999995}},{"attributes":{"OBJECTID":2313,"LANDMARKID":"1000300001456","LANDMARKCO":"510","LANDMARKNA":"揚昇高爾夫球場北側出入口","LANDMARKAD":"1000304","ADDRESS":"桃園縣楊梅鎮揚昇路256號","TEL":"03-4780099","COUNTYNAME":"桃園市","TOWNNAME":"楊梅區","MARKTYPE":"995","Class":"5"},"geometry":{"x":265045.58640000038,"y":2753595.4859999996}},{"attributes":{"OBJECTID":2314,"LANDMARKID":"1000300001457","LANDMARKCO":"510","LANDMARKNA":"揚昇高爾夫球場南側出入口","LANDMARKAD":"1000304","ADDRESS":"桃園縣楊梅鎮揚昇路256號","TEL":"03-4780099","COUNTYNAME":"桃園市","TOWNNAME":"楊梅區","MARKTYPE":"995","Class":"5"},"geometry":{"x":265809.48010000028,"y":2752428.8971999995}},{"attributes":{"OBJECTID":2315,"LANDMARKID":"1000300001458","LANDMARKCO":"510","LANDMARKNA":"揚昇高爾夫球場","LANDMARKAD":"1000304","ADDRESS":"桃園縣楊梅鎮揚昇路256號","TEL":"03-4780099","COUNTYNAME":"桃園市","TOWNNAME":"楊梅區","MARKTYPE":"995","Class":"5"},"geometry":{"x":265875.76219999976,"y":2752534.5625}},{"attributes":{"OBJECTID":2316,"LANDMARKID":"1000300000971","LANDMARKCO":"405","LANDMARKNA":"中油加油站-九如站","LANDMARKAD":"1000303","ADDRESS":"桃園縣大溪鎮仁和路2段573號","TEL":"03-3806000","COUNTYNAME":"桃園市","TOWNNAME":"大溪區","MARKTYPE":"994","Class":"4"},"geometry":{"x":275758.82550000027,"y":2755923.1214000005}},{"attributes":{"OBJECTID":2317,"LANDMARKID":"1000300000972","LANDMARKCO":"405","LANDMARKNA":"中油加油站-一德站","LANDMARKAD":"1000303","ADDRESS":"桃園縣大溪鎮康莊路473號","TEL":"03-3873018","COUNTYNAME":"桃園市","TOWNNAME":"大溪區","MARKTYPE":"994","Class":"4"},"geometry":{"x":278930.22750000004,"y":2751702.8666999992}},{"attributes":{"OBJECTID":2318,"LANDMARKID":"1000300000973","LANDMARKCO":"405","LANDMARKNA":"中油加油站-立眾站","LANDMARKAD":"1000303","ADDRESS":"桃園縣大溪鎮信義路1275號","TEL":"03-3875499","COUNTYNAME":"桃園市","TOWNNAME":"大溪區","MARKTYPE":"994","Class":"4"},"geometry":{"x":281174.11400000006,"y":2754138.0866}},{"attributes":{"OBJECTID":2319,"LANDMARKID":"1000300000974","LANDMARKCO":"405","LANDMARKNA":"山隆加油站-大溪站(中油)","LANDMARKAD":"1000303","ADDRESS":"桃園縣大溪鎮南興25號之20","TEL":"03-3074683","COUNTYNAME":"桃園市","TOWNNAME":"大溪區","MARKTYPE":"994","Class":"4"},"geometry":{"x":276708.64159999974,"y":2754907.0746999998}},{"attributes":{"OBJECTID":2320,"LANDMARKID":"1000300000975","LANDMARKCO":"405","LANDMARKNA":"中油加油站-功宏站","LANDMARKAD":"1000303","ADDRESS":"桃園縣大溪鎮瑞源里石園路279號","TEL":"03-3805426","COUNTYNAME":"桃園市","TOWNNAME":"大溪區","MARKTYPE":"994","Class":"4"},"geometry":{"x":276585.43910000008,"y":2751933.5326000005}},{"attributes":{"OBJECTID":2321,"LANDMARKID":"1000300000976","LANDMARKCO":"405","LANDMARKNA":"中油加油站-瑞興站","LANDMARKAD":"1000303","ADDRESS":"桃園縣大溪鄉瑞源里石園路279號","TEL":"03-3805426","COUNTYNAME":"桃園市","TOWNNAME":"大溪區","MARKTYPE":"994","Class":"4"},"geometry":{"x":276600.63740000036,"y":2751931.6064999998}},{"attributes":{"OBJECTID":2322,"LANDMARKID":"1000300000977","LANDMARKCO":"405","LANDMARKNA":"中油加油站-泉好站","LANDMARKAD":"1000303","ADDRESS":"桃園縣大溪鄉員林路二段201號","TEL":"03-3070788","COUNTYNAME":"桃園市","TOWNNAME":"大溪區","MARKTYPE":"994","Class":"4"},"geometry":{"x":277309.04110000003,"y":2753337.0293000005}},{"attributes":{"OBJECTID":2323,"LANDMARKID":"1000300000978","LANDMARKCO":"405","LANDMARKNA":"中油加油站-觀音山站","LANDMARKAD":"1000303","ADDRESS":"桃園縣大溪鎮月眉里月眉93號","TEL":"03-3871822","COUNTYNAME":"桃園市","TOWNNAME":"大溪區","MARKTYPE":"994","Class":"4"},"geometry":{"x":278988.32079999987,"y":2753353.5368000008}},{"attributes":{"OBJECTID":2324,"LANDMARKID":"1000300000979","LANDMARKCO":"405","LANDMARKNA":"中油加油站-石門水庫站(中油直營)","LANDMARKAD":"1000303","ADDRESS":"桃園縣大溪鎮溪義和里州山腳32-6號","TEL":"03-4712264","COUNTYNAME":"桃園市","TOWNNAME":"大溪區","MARKTYPE":"994","Class":"4"},"geometry":{"x":275789.17119999975,"y":2745899.1228999998}},{"attributes":{"OBJECTID":2325,"LANDMARKID":"1000300000980","LANDMARKCO":"405","LANDMARKNA":"中油加油站-士香站","LANDMARKAD":"1000303","ADDRESS":"桃園縣大溪鎮員林路一段226號","TEL":"03-3809358","COUNTYNAME":"桃園市","TOWNNAME":"大溪區","MARKTYPE":"994","Class":"4"},"geometry":{"x":278005.00050000008,"y":2754256.0303000007}},{"attributes":{"OBJECTID":2326,"LANDMARKID":"1000300000981","LANDMARKCO":"405","LANDMARKNA":"中油加油站-興榮站","LANDMARKAD":"1000303","ADDRESS":"桃園縣大溪鎮南興里13鄰南興30-16號","TEL":"03-3806378","COUNTYNAME":"桃園市","TOWNNAME":"大溪區","MARKTYPE":"994","Class":"4"},"geometry":{"x":276704.90380000044,"y":2755030.9078000002}},{"attributes":{"OBJECTID":2327,"LANDMARKID":"1000300000982","LANDMARKCO":"405","LANDMARKNA":"中油加油站-慈湖站(中油直營)","LANDMARKAD":"1000303","ADDRESS":"桃園縣大溪鎮復興路一段970號","TEL":"03-3881410","COUNTYNAME":"桃園市","TOWNNAME":"大溪區","MARKTYPE":"994","Class":"4"},"geometry":{"x":278804.8515999997,"y":2748759.7334000003}},{"attributes":{"OBJECTID":2328,"LANDMARKID":"1000300000983","LANDMARKCO":"405","LANDMARKNA":"中油加油站-南興站","LANDMARKAD":"1000303","ADDRESS":"桃園縣大溪鎮南興里三塊厝13-2號","TEL":"03-3891362","COUNTYNAME":"桃園市","TOWNNAME":"大溪區","MARKTYPE":"994","Class":"4"},"geometry":{"x":276447.4319000002,"y":2754310.9134}},{"attributes":{"OBJECTID":2329,"LANDMARKID":"1000300000930","LANDMARKCO":"402","LANDMARKNA":"亞太行動寬頻電信-大溪慈湖加盟服務中心","LANDMARKAD":"1000303","ADDRESS":"桃園縣大溪鎮慈湖路95號","TEL":"03-3881088","COUNTYNAME":"桃園市","TOWNNAME":"大溪區","MARKTYPE":"994","Class":"4"},"geometry":{"x":279204.12150000036,"y":2752726.1122999992}},{"attributes":{"OBJECTID":2330,"LANDMARKID":"1000300001478","LANDMARKCO":"513","LANDMARKNA":"石門水庫風景區","LANDMARKAD":"1000303","ADDRESS":"桃園縣大溪鎮","TEL":" ","COUNTYNAME":"桃園市","TOWNNAME":"大溪區","MARKTYPE":"995","Class":"5"},"geometry":{"x":275005.91260000039,"y":2744911.7202000003}},{"attributes":{"OBJECTID":2331,"LANDMARKID":"1000300001441","LANDMARKCO":"507","LANDMARKNA":"李騰芳古宅","LANDMARKAD":"1000303","ADDRESS":"桃園縣大溪鎮月眉里月眉路15號","TEL":" ","COUNTYNAME":"桃園市","TOWNNAME":"大溪區","MARKTYPE":"995","Class":"5"},"geometry":{"x":280075.06709999964,"y":2753703.1948000006}},{"attributes":{"OBJECTID":2332,"LANDMARKID":"1000300001442","LANDMARKCO":"507","LANDMARKNA":"大溪齋明寺","LANDMARKAD":"1000303","ADDRESS":"桃園縣大溪鎮員林里齋明街153號","TEL":" ","COUNTYNAME":"桃園市","TOWNNAME":"大溪區","MARKTYPE":"995","Class":"5"},"geometry":{"x":277863.75619999971,"y":2753756.0120999999}},{"attributes":{"OBJECTID":2333,"LANDMARKID":"1000300001443","LANDMARKCO":"507","LANDMARKNA":"蓮座山觀音寺","LANDMARKAD":"1000303","ADDRESS":"桃園縣大溪鎮康安里22鄰下崁49號","TEL":" ","COUNTYNAME":"桃園市","TOWNNAME":"大溪區","MARKTYPE":"995","Class":"5"},"geometry":{"x":278751.74220000021,"y":2753495.8383000009}},{"attributes":{"OBJECTID":2334,"LANDMARKID":"1000300001433","LANDMARKCO":"506","LANDMARKNA":"綜合觀光果園","LANDMARKAD":"1000303","ADDRESS":"桃園縣大溪鎮永福里23鄰110之1號","TEL":"03-3875559","COUNTYNAME":"桃園市","TOWNNAME":"大溪區","MARKTYPE":"995","Class":"5"},"geometry":{"x":281222.18200000003,"y":2751426.8780000005}},{"attributes":{"OBJECTID":2335,"LANDMARKID":"1000300001440","LANDMARKCO":"507","LANDMARKNA":"龍山寺","LANDMARKAD":"1000303","ADDRESS":"桃園縣大溪鎮永福里12鄰25號","TEL":"03-3875881","COUNTYNAME":"桃園市","TOWNNAME":"大溪區","MARKTYPE":"995","Class":"5"},"geometry":{"x":282721.8172000004,"y":2754179.6245000008}},{"attributes":{"OBJECTID":2336,"LANDMARKID":"1000300001376","LANDMARKCO":"408","LANDMARKNA":"郵局-大溪郵局","LANDMARKAD":"1000303","ADDRESS":"桃園縣大溪鎮康莊路210號","TEL":"(03)3882-141","COUNTYNAME":"桃園市","TOWNNAME":"大溪區","MARKTYPE":"994","Class":"4"},"geometry":{"x":279130.40859999973,"y":2752453.8275000006}},{"attributes":{"OBJECTID":2337,"LANDMARKID":"1000300001377","LANDMARKCO":"408","LANDMARKNA":"郵局-大溪僑愛郵局","LANDMARKAD":"1000303","ADDRESS":"桃園縣大溪鎮介壽路42、44號","TEL":"(03)3801-694","COUNTYNAME":"桃園市","TOWNNAME":"大溪區","MARKTYPE":"994","Class":"4"},"geometry":{"x":279779.33530000038,"y":2757226.2215999998}},{"attributes":{"OBJECTID":2338,"LANDMARKID":"1000300001378","LANDMARKCO":"408","LANDMARKNA":"郵局-大溪崎頂郵局","LANDMARKAD":"1000303","ADDRESS":"桃園縣大溪鎮介壽路890號","TEL":"(03)3801-742","COUNTYNAME":"桃園市","TOWNNAME":"大溪區","MARKTYPE":"994","Class":"4"},"geometry":{"x":278663.11990000028,"y":2754765.4885000009}},{"attributes":{"OBJECTID":2339,"LANDMARKID":"1000300001379","LANDMARKCO":"408","LANDMARKNA":"郵局-大溪員樹林郵局","LANDMARKAD":"1000303","ADDRESS":"桃園縣大溪鎮齋明街1號","TEL":"(03)3801-300","COUNTYNAME":"桃園市","TOWNNAME":"大溪區","MARKTYPE":"994","Class":"4"},"geometry":{"x":277286.51460000034,"y":2753156.9363000002}},{"attributes":{"OBJECTID":2340,"LANDMARKID":"1000300001380","LANDMARKCO":"408","LANDMARKNA":"郵局-大溪南興郵局","LANDMARKAD":"1000303","ADDRESS":"桃園縣大溪鎮仁和路2段126號","TEL":"(03)3801-520","COUNTYNAME":"桃園市","TOWNNAME":"大溪區","MARKTYPE":"994","Class":"4"},"geometry":{"x":276959.58359999955,"y":2755102.7872000001}},{"attributes":{"OBJECTID":2341,"LANDMARKID":"1000300001381","LANDMARKCO":"409","LANDMARKNA":"桃園縣大溪鎮農會","LANDMARKAD":"1000303","ADDRESS":"桃園縣大溪鎮福仁里民生路1號","TEL":"03-3871122","COUNTYNAME":"桃園市","TOWNNAME":"大溪區","MARKTYPE":"994","Class":"4"},"geometry":{"x":279143.25059999991,"y":2752915.1448999997}},{"attributes":{"OBJECTID":2342,"LANDMARKID":"1000300000941","LANDMARKCO":"404","LANDMARKNA":"台灣省自來水大溪營運所","LANDMARKAD":"1000303","ADDRESS":"桃園縣大溪鎮文化路211巷5號","TEL":" ","COUNTYNAME":"桃園市","TOWNNAME":"大溪區","MARKTYPE":"994","Class":"4"},"geometry":{"x":279295.28849999979,"y":2752152.2452000007}},{"attributes":{"OBJECTID":2343,"LANDMARKID":"1000300001261","LANDMARKCO":"406","LANDMARKNA":"中正公園","LANDMARKAD":"1000303","ADDRESS":"桃園縣大溪鎮","TEL":" ","COUNTYNAME":"桃園市","TOWNNAME":"大溪區","MARKTYPE":"994","Class":"4"},"geometry":{"x":278779.61550000031,"y":2752980.3794999998}},{"attributes":{"OBJECTID":2344,"LANDMARKID":"1000300001262","LANDMARKCO":"406","LANDMARKNA":"七里坡公園","LANDMARKAD":"1000303","ADDRESS":"桃園縣大溪鎮","TEL":" ","COUNTYNAME":"桃園市","TOWNNAME":"大溪區","MARKTYPE":"994","Class":"4"},"geometry":{"x":280540.8713999996,"y":2753077.5720000006}},{"attributes":{"OBJECTID":2345,"LANDMARKID":"1000300001263","LANDMARKCO":"406","LANDMARKNA":"溪州公園","LANDMARKAD":"1000303","ADDRESS":"桃園縣大溪鎮","TEL":" ","COUNTYNAME":"桃園市","TOWNNAME":"大溪區","MARKTYPE":"994","Class":"4"},"geometry":{"x":275617.18180000037,"y":2745534.8126999997}},{"attributes":{"OBJECTID":2346,"LANDMARKID":"1000300001264","LANDMARKCO":"406","LANDMARKNA":"欒樹林公園","LANDMARKAD":"1000303","ADDRESS":"桃園縣大溪鎮","TEL":" ","COUNTYNAME":"桃園市","TOWNNAME":"大溪區","MARKTYPE":"994","Class":"4"},"geometry":{"x":275573.44680000003,"y":2745493.7340999991}},{"attributes":{"OBJECTID":2347,"LANDMARKID":"1000300001265","LANDMARKCO":"406","LANDMARKNA":"社區公園","LANDMARKAD":"1000303","ADDRESS":"桃園縣大溪鎮","TEL":" ","COUNTYNAME":"桃園市","TOWNNAME":"大溪區","MARKTYPE":"994","Class":"4"},"geometry":{"x":281488.15340000018,"y":2746316.1265999991}},{"attributes":{"OBJECTID":2348,"LANDMARKID":"1000300001266","LANDMARKCO":"406","LANDMARKNA":"瑞興社區公園","LANDMARKAD":"1000303","ADDRESS":"桃園縣大溪鎮","TEL":" ","COUNTYNAME":"桃園市","TOWNNAME":"大溪區","MARKTYPE":"994","Class":"4"},"geometry":{"x":280795.62380000018,"y":2756940.6666000001}},{"attributes":{"OBJECTID":2349,"LANDMARKID":"1000300001267","LANDMARKCO":"406","LANDMARKNA":"大溪埔頂公園","LANDMARKAD":"1000303","ADDRESS":"桃園縣大溪鎮","TEL":" ","COUNTYNAME":"桃園市","TOWNNAME":"大溪區","MARKTYPE":"994","Class":"4"},"geometry":{"x":278486.25100000016,"y":2755674.8863999993}},{"attributes":{"OBJECTID":2350,"LANDMARKID":"1000300000963","LANDMARKCO":"405","LANDMARKNA":"台塑加油站-埔頂站(台塑)","LANDMARKAD":"1000303","ADDRESS":"桃園縣大溪鎮介壽路1145號","TEL":"03-3807351","COUNTYNAME":"桃園市","TOWNNAME":"大溪區","MARKTYPE":"994","Class":"4"},"geometry":{"x":278679.96310000028,"y":2754855.3072999995}},{"attributes":{"OBJECTID":2351,"LANDMARKID":"1000300000964","LANDMARKCO":"405","LANDMARKNA":"全國加油站-大溪站（台塑）","LANDMARKAD":"1000303","ADDRESS":"桃園縣大溪鎮員林路一段467號","TEL":"03-3891923","COUNTYNAME":"桃園市","TOWNNAME":"大溪區","MARKTYPE":"994","Class":"4"},"geometry":{"x":277657.40990000032,"y":2753841.8592000008}},{"attributes":{"OBJECTID":2352,"LANDMARKID":"1000300000965","LANDMARKCO":"405","LANDMARKNA":"台塑加油站-仁善站(台塑)","LANDMARKAD":"1000303","ADDRESS":"桃園縣大溪鎮埔頂路二段191號","TEL":"03-3070668","COUNTYNAME":"桃園市","TOWNNAME":"大溪區","MARKTYPE":"994","Class":"4"},"geometry":{"x":278255.35149999987,"y":2755951.5131000001}},{"attributes":{"OBJECTID":2353,"LANDMARKID":"1000300000966","LANDMARKCO":"405","LANDMARKNA":"台亞加油站-大溪站（台塑）","LANDMARKAD":"1000303","ADDRESS":"桃園縣大溪鎮復興路208號","TEL":"(03)387-7272","COUNTYNAME":"桃園市","TOWNNAME":"大溪區","MARKTYPE":"994","Class":"4"},"geometry":{"x":279623.67540000007,"y":2752278.4399999995}},{"attributes":{"OBJECTID":2354,"LANDMARKID":"1000300000967","LANDMARKCO":"405","LANDMARKNA":"台塑加油站-六合站(台塑)","LANDMARKAD":"1000303","ADDRESS":"桃園縣大溪鎮仁和路二段550號","TEL":"03-3806000","COUNTYNAME":"桃園市","TOWNNAME":"大溪區","MARKTYPE":"994","Class":"4"},"geometry":{"x":275775.68780000042,"y":2755942.7818}},{"attributes":{"OBJECTID":2355,"LANDMARKID":"1000300000968","LANDMARKCO":"405","LANDMARKNA":"台亞加油站-石門水庫站（台塑）","LANDMARKAD":"1000303","ADDRESS":"桃園縣大溪鎮康莊路三段80號","TEL":"(03)387-9628","COUNTYNAME":"桃園市","TOWNNAME":"大溪區","MARKTYPE":"994","Class":"4"},"geometry":{"x":278552.57890000008,"y":2750247.0833000001}},{"attributes":{"OBJECTID":2356,"LANDMARKID":"1000300000969","LANDMARKCO":"405","LANDMARKNA":"台亞加油站-仁愛站（台塑）","LANDMARKAD":"1000303","ADDRESS":"桃園縣大溪鎮仁和路一段335號","TEL":"(03)380-1793","COUNTYNAME":"桃園市","TOWNNAME":"大溪區","MARKTYPE":"994","Class":"4"},"geometry":{"x":277375.48950000014,"y":2755007.4230000004}},{"attributes":{"OBJECTID":2357,"LANDMARKID":"1000300000970","LANDMARKCO":"405","LANDMARKNA":"全國加油站-大溪交流道站（台塑）","LANDMARKAD":"1000303","ADDRESS":"桃園縣大溪鎮南興里16鄰南興10-3號","TEL":"03-3801198","COUNTYNAME":"桃園市","TOWNNAME":"大溪區","MARKTYPE":"994","Class":"4"},"geometry":{"x":276850.93730000034,"y":2754221.2374000009}},{"attributes":{"OBJECTID":2358,"LANDMARKID":"1000300001260","LANDMARKCO":"406","LANDMARKNA":"慈湖紀念雕塑公園","LANDMARKAD":"1000303","ADDRESS":"桃園縣大溪鎮復興路一段1097號","TEL":"03-3883552","COUNTYNAME":"桃園市","TOWNNAME":"大溪區","MARKTYPE":"994","Class":"4"},"geometry":{"x":279628.00140000042,"y":2748142.7732999995}},{"attributes":{"OBJECTID":2359,"LANDMARKID":"1000300000043","LANDMARKCO":"103","LANDMARKNA":"桃園縣區車輛行車事故鑑定委員","LANDMARKAD":"1000303","ADDRESS":"桃園市介壽路416號五樓","TEL":"03-3625782","COUNTYNAME":"桃園市","TOWNNAME":"大溪區","MARKTYPE":"991","Class":"1"},"geometry":{"x":279182.24820000026,"y":2756080.0069999993}},{"attributes":{"OBJECTID":2360,"LANDMARKID":"1000300000251","LANDMARKCO":"108","LANDMARKNA":"桃園縣大溪鎮公所","LANDMARKAD":"1000303","ADDRESS":"桃園縣大溪鎮普濟路11號","TEL":"03-3882201#200","COUNTYNAME":"桃園市","TOWNNAME":"大溪區","MARKTYPE":"991","Class":"1"},"geometry":{"x":278995.02460000012,"y":2752589.8255000003}},{"attributes":{"OBJECTID":2361,"LANDMARKID":"1000300000044","LANDMARKCO":"103","LANDMARKNA":"桃園縣大溪鎮鎮民代表會","LANDMARKAD":"1000303","ADDRESS":"桃園縣大溪鎮普濟路11號","TEL":"03-3882135","COUNTYNAME":"桃園市","TOWNNAME":"大溪區","MARKTYPE":"991","Class":"1"},"geometry":{"x":279014.02450000029,"y":2752589.7853999995}},{"attributes":{"OBJECTID":2362,"LANDMARKID":"1000300000140","LANDMARKCO":"107","LANDMARKNA":"桃園縣消防局圳頂消防分隊","LANDMARKAD":"1000303","ADDRESS":"桃園縣大溪鎮介壽路740號","TEL":"03-3891892","COUNTYNAME":"桃園市","TOWNNAME":"大溪區","MARKTYPE":"991","Class":"1"},"geometry":{"x":279190.12079999968,"y":2756019.9902999997}},{"attributes":{"OBJECTID":2363,"LANDMARKID":"1000300000141","LANDMARKCO":"107","LANDMARKNA":"桃園縣政府警察局大溪分局","LANDMARKAD":"1000303","ADDRESS":"桃園縣大溪鎮興和里普濟路9號","TEL":"03-3883851","COUNTYNAME":"桃園市","TOWNNAME":"大溪區","MARKTYPE":"991","Class":"1"},"geometry":{"x":279004.56759999972,"y":2752539.8068000004}},{"attributes":{"OBJECTID":2364,"LANDMARKID":"1000300000142","LANDMARKCO":"107","LANDMARKNA":"桃園縣政府警察局三元派出所","LANDMARKAD":"1000303","ADDRESS":"桃園縣大溪鎮員林里員林路三段40號","TEL":"03-3801040","COUNTYNAME":"桃園市","TOWNNAME":"大溪區","MARKTYPE":"991","Class":"1"},"geometry":{"x":276837.36280000024,"y":2752759.6690999996}},{"attributes":{"OBJECTID":2365,"LANDMARKID":"1000300000143","LANDMARKCO":"107","LANDMARKNA":"桃園縣政府警察局內柵派出所","LANDMARKAD":"1000303","ADDRESS":"桃園縣大溪鎮康安里內柵路一段56號","TEL":"03-3883849","COUNTYNAME":"桃園市","TOWNNAME":"大溪區","MARKTYPE":"991","Class":"1"},"geometry":{"x":278428.2564000003,"y":2750239.8509}},{"attributes":{"OBJECTID":2366,"LANDMARKID":"1000300000144","LANDMARKCO":"107","LANDMARKNA":"桃園縣政府警察局南雅派出所","LANDMARKAD":"1000303","ADDRESS":"桃園縣大溪鎮康莊路181號","TEL":"03-3883720","COUNTYNAME":"桃園市","TOWNNAME":"大溪區","MARKTYPE":"991","Class":"1"},"geometry":{"x":279004.54650000017,"y":2752529.8068000004}},{"attributes":{"OBJECTID":2367,"LANDMARKID":"1000300000145","LANDMARKCO":"107","LANDMARKNA":"桃園縣政府警察局警備隊","LANDMARKAD":"1000303","ADDRESS":"桃園縣大溪鎮興和里普濟路9號","TEL":"03-3883213","COUNTYNAME":"桃園市","TOWNNAME":"大溪區","MARKTYPE":"991","Class":"1"},"geometry":{"x":279004.54650000017,"y":2752529.8068000004}},{"attributes":{"OBJECTID":2368,"LANDMARKID":"1000300000109","LANDMARKCO":"106","LANDMARKNA":"桃園縣大溪鎮戶政事務所","LANDMARKAD":"1000303","ADDRESS":"桃園縣大溪鎮康莊路181號4樓","TEL":"03-3883184","COUNTYNAME":"桃園市","TOWNNAME":"大溪區","MARKTYPE":"991","Class":"1"},"geometry":{"x":279109.04040000029,"y":2752289.5862000007}},{"attributes":{"OBJECTID":2369,"LANDMARKID":"1000300000090","LANDMARKCO":"105","LANDMARKNA":"桃園縣大溪地政事務所","LANDMARKAD":"1000303","ADDRESS":"桃園縣大溪鎮康莊路95號","TEL":"03-3874211","COUNTYNAME":"桃園市","TOWNNAME":"大溪區","MARKTYPE":"991","Class":"1"},"geometry":{"x":279129.29930000007,"y":2752719.5418999996}},{"attributes":{"OBJECTID":2370,"LANDMARKID":"1000300000089","LANDMARKCO":"104","LANDMARKNA":"北區國稅局大溪稽徵所第一辦公","LANDMARKAD":"1000303","ADDRESS":"桃園縣大溪鎮員林路一段16號","TEL":"03-3900265","COUNTYNAME":"桃園市","TOWNNAME":"大溪區","MARKTYPE":"991","Class":"1"},"geometry":{"x":278683.34690000024,"y":2754589.8838999998}},{"attributes":{"OBJECTID":2371,"LANDMARKID":"1000300000032","LANDMARKCO":"101","LANDMARKNA":"林務局新竹林區管理處大溪工作站","LANDMARKAD":"1000303","ADDRESS":"桃園縣大溪鎮復興路51號","TEL":"03-3882038","COUNTYNAME":"桃園市","TOWNNAME":"大溪區","MARKTYPE":"991","Class":"1"},"geometry":{"x":279321.52979999967,"y":2752519.7274999991}},{"attributes":{"OBJECTID":2372,"LANDMARKID":"1000300000088","LANDMARKCO":"104","LANDMARKNA":"桃園縣政府地方稅務局大溪分局","LANDMARKAD":"1000303","ADDRESS":"桃園縣大溪鎮員林路1段16號2樓","TEL":"03-3800072","COUNTYNAME":"桃園市","TOWNNAME":"大溪區","MARKTYPE":"991","Class":"1"},"geometry":{"x":278678.34690000024,"y":2754589.8944000006}},{"attributes":{"OBJECTID":2373,"LANDMARKID":"1000300000045","LANDMARKCO":"103","LANDMARKNA":"桃園縣大溪鎮衛生所","LANDMARKAD":"1000303","ADDRESS":"桃園縣大溪鎮仁愛路1號","TEL":"03-3882401","COUNTYNAME":"桃園市","TOWNNAME":"大溪區","MARKTYPE":"991","Class":"1"},"geometry":{"x":278849.28160000034,"y":2753019.5437000003}},{"attributes":{"OBJECTID":2374,"LANDMARKID":"1000300000133","LANDMARKCO":"107","LANDMARKNA":"桃園縣消防局大溪消防分隊","LANDMARKAD":"1000303","ADDRESS":"桃園縣大溪鎮月眉里15鄰100號","TEL":"03-3882058","COUNTYNAME":"桃園市","TOWNNAME":"大溪區","MARKTYPE":"991","Class":"1"},"geometry":{"x":279676.28079999983,"y":2752709.5637999997}},{"attributes":{"OBJECTID":2375,"LANDMARKID":"1000300000134","LANDMARKCO":"107","LANDMARKNA":"桃園縣政府警察局中新派出所","LANDMARKAD":"1000303","ADDRESS":"桃園縣大溪鎮中新里13鄰8號","TEL":"03-3801853","COUNTYNAME":"桃園市","TOWNNAME":"大溪區","MARKTYPE":"991","Class":"1"},"geometry":{"x":282153.66559999995,"y":2758099.6102000009}},{"attributes":{"OBJECTID":2376,"LANDMARKID":"1000300000135","LANDMARKCO":"107","LANDMARKNA":"桃園縣政府警察局百吉派出所","LANDMARKAD":"1000303","ADDRESS":"桃園縣大溪鎮復興里4鄰復興路二段209號","TEL":"03-3885884","COUNTYNAME":"桃園市","TOWNNAME":"大溪區","MARKTYPE":"991","Class":"1"},"geometry":{"x":281566.49670000002,"y":2746339.7394999992}},{"attributes":{"OBJECTID":2377,"LANDMARKID":"1000300000136","LANDMARKCO":"107","LANDMARKNA":"桃園縣政府警察局三層派出所","LANDMARKAD":"1000303","ADDRESS":"桃園縣大溪鎮福安里18鄰7號","TEL":"03-3882349","COUNTYNAME":"桃園市","TOWNNAME":"大溪區","MARKTYPE":"991","Class":"1"},"geometry":{"x":279782.32220000029,"y":2749959.9517000001}},{"attributes":{"OBJECTID":2378,"LANDMARKID":"1000300000137","LANDMARKCO":"107","LANDMARKNA":"桃園縣政府警察局永福派出所","LANDMARKAD":"1000303","ADDRESS":"桃園縣大溪鎮永福里12鄰66號","TEL":"03-3875802","COUNTYNAME":"桃園市","TOWNNAME":"大溪區","MARKTYPE":"991","Class":"1"},"geometry":{"x":282595.55209999997,"y":2754049.9094999991}},{"attributes":{"OBJECTID":2379,"LANDMARKID":"1000300000138","LANDMARKCO":"107","LANDMARKNA":"桃園縣政府警察局福安派出所","LANDMARKAD":"1000303","ADDRESS":"桃園縣大溪鎮福安里12鄰猴洞坑112之2號","TEL":"03-3888767","COUNTYNAME":"桃園市","TOWNNAME":"大溪區","MARKTYPE":"991","Class":"1"},"geometry":{"x":280182.64410000015,"y":2748259.6985999998}},{"attributes":{"OBJECTID":2380,"LANDMARKID":"1000300000139","LANDMARKCO":"107","LANDMARKNA":"桃園縣政府警察局栗子園駐在所","LANDMARKAD":"1000303","ADDRESS":"桃園縣大溪鎮瑞興里栗子園5之6號","TEL":"03-3806268","COUNTYNAME":"桃園市","TOWNNAME":"大溪區","MARKTYPE":"991","Class":"1"},"geometry":{"x":278267.59640000015,"y":2753789.5920000002}},{"attributes":{"OBJECTID":2381,"LANDMARKID":"1000300000560","LANDMARKCO":"205","LANDMARKNA":"大溪鎮展示館","LANDMARKAD":"1000303","ADDRESS":"桃園縣大溪鎮仁愛路2之1號2樓","TEL":" ","COUNTYNAME":"桃園市","TOWNNAME":"大溪區","MARKTYPE":"992","Class":"2"},"geometry":{"x":278868.79480000027,"y":2752976.4348000009}},{"attributes":{"OBJECTID":2382,"LANDMARKID":"1000300000556","LANDMARKCO":"204","LANDMARKNA":"桃園縣立圖書館大溪分館","LANDMARKAD":"1000303","ADDRESS":"桃園縣大溪鎮普濟路11號3樓","TEL":" ","COUNTYNAME":"桃園市","TOWNNAME":"大溪區","MARKTYPE":"992","Class":"2"},"geometry":{"x":279014.67580000032,"y":2752566.3997000009}},{"attributes":{"OBJECTID":2383,"LANDMARKID":"1000300000301","LANDMARKCO":"202","LANDMARKNA":"私立至善工商","LANDMARKAD":"1000303","ADDRESS":"桃園縣大溪鎮康莊路645號","TEL":"03-3887528","COUNTYNAME":"桃園市","TOWNNAME":"大溪區","MARKTYPE":"992","Class":"2"},"geometry":{"x":278742.12640000042,"y":2751099.7761000004}},{"attributes":{"OBJECTID":2384,"LANDMARKID":"1000300000348","LANDMARKCO":"203","LANDMARKNA":"縣立大溪國中","LANDMARKAD":"1000303","ADDRESS":"桃園縣大溪鎮民權東路210號","TEL":"03-3882024","COUNTYNAME":"桃園市","TOWNNAME":"大溪區","MARKTYPE":"992","Class":"2"},"geometry":{"x":279930.40739999991,"y":2752459.6187999994}},{"attributes":{"OBJECTID":2385,"LANDMARKID":"1000300000349","LANDMARKCO":"203","LANDMARKNA":"縣立大漢國中","LANDMARKAD":"1000303","ADDRESS":"桃園縣大溪鎮康莊路641號","TEL":"03-3883307","COUNTYNAME":"桃園市","TOWNNAME":"大溪區","MARKTYPE":"992","Class":"2"},"geometry":{"x":278884.4411000004,"y":2751249.4782999996}},{"attributes":{"OBJECTID":2386,"LANDMARKID":"1000300000350","LANDMARKCO":"203","LANDMARKNA":"縣立仁善國小","LANDMARKAD":"1000303","ADDRESS":"桃園縣大溪鎮仁善里埔頂路二段109號","TEL":"03-3801710","COUNTYNAME":"桃園市","TOWNNAME":"大溪區","MARKTYPE":"992","Class":"2"},"geometry":{"x":278152.09570000041,"y":2755699.8197000008}},{"attributes":{"OBJECTID":2387,"LANDMARKID":"1000300000351","LANDMARKCO":"203","LANDMARKNA":"縣立永福國小","LANDMARKAD":"1000303","ADDRESS":"桃園縣大溪鎮永福里信義路十二鄰1165號","TEL":"03-3883709","COUNTYNAME":"桃園市","TOWNNAME":"大溪區","MARKTYPE":"992","Class":"2"},"geometry":{"x":282890.34009999968,"y":2753959.8748000003}},{"attributes":{"OBJECTID":2388,"LANDMARKID":"1000300000352","LANDMARKCO":"203","LANDMARKNA":"縣立南興國小","LANDMARKAD":"1000303","ADDRESS":"桃園縣大溪鎮仁和路二段135號","TEL":"03-3801721","COUNTYNAME":"桃園市","TOWNNAME":"大溪區","MARKTYPE":"992","Class":"2"},"geometry":{"x":276968.57299999986,"y":2755019.9509999994}},{"attributes":{"OBJECTID":2389,"LANDMARKID":"1000300000353","LANDMARKCO":"203","LANDMARKNA":"縣立僑愛國小","LANDMARKAD":"1000303","ADDRESS":"桃園縣大溪鎮仁義里介壽路214號","TEL":"03-3801896","COUNTYNAME":"桃園市","TOWNNAME":"大溪區","MARKTYPE":"992","Class":"2"},"geometry":{"x":279500.35049999971,"y":2757049.9221999999}},{"attributes":{"OBJECTID":2390,"LANDMARKID":"1000300000354","LANDMARKCO":"203","LANDMARKNA":"縣立田心國小","LANDMARKAD":"1000303","ADDRESS":"桃園縣大溪鎮文化路120號","TEL":"03-3872008","COUNTYNAME":"桃園市","TOWNNAME":"大溪區","MARKTYPE":"992","Class":"2"},"geometry":{"x":279499.10850000009,"y":2752629.9448000006}},{"attributes":{"OBJECTID":2391,"LANDMARKID":"1000300000355","LANDMARKCO":"203","LANDMARKNA":"縣立內柵國小","LANDMARKAD":"1000303","ADDRESS":"桃園縣大溪鎮義和里安和路38號","TEL":"03-3882461","COUNTYNAME":"桃園市","TOWNNAME":"大溪區","MARKTYPE":"992","Class":"2"},"geometry":{"x":278508.0036000004,"y":2749809.6874000002}},{"attributes":{"OBJECTID":2392,"LANDMARKID":"1000300000356","LANDMARKCO":"203","LANDMARKNA":"縣立員樹林國小","LANDMARKAD":"1000303","ADDRESS":"桃園縣大溪鎮員林路二段450號","TEL":"03-3801502","COUNTYNAME":"桃園市","TOWNNAME":"大溪區","MARKTYPE":"992","Class":"2"},"geometry":{"x":276845.57760000043,"y":2752869.6530000009}},{"attributes":{"OBJECTID":2393,"LANDMARKID":"1000300000357","LANDMARKCO":"203","LANDMARKNA":"縣立大溪國小","LANDMARKAD":"1000303","ADDRESS":"桃園縣大溪鎮登龍路19號","TEL":"03-3882040","COUNTYNAME":"桃園市","TOWNNAME":"大溪區","MARKTYPE":"992","Class":"2"},"geometry":{"x":278951.36629999988,"y":2753059.9160999991}},{"attributes":{"OBJECTID":2394,"LANDMARKID":"1000300000358","LANDMARKCO":"203","LANDMARKNA":"縣立仁和國中","LANDMARKAD":"1000303","ADDRESS":"桃園縣大溪鎮仁愛里廟前6之1號","TEL":"03-3906626","COUNTYNAME":"桃園市","TOWNNAME":"大溪區","MARKTYPE":"992","Class":"2"},"geometry":{"x":277588.05260000005,"y":2754139.8355}},{"attributes":{"OBJECTID":2395,"LANDMARKID":"1000300000359","LANDMARKCO":"203","LANDMARKNA":"縣立中興國小","LANDMARKAD":"1000303","ADDRESS":"桃園縣大溪鎮瑞興里1鄰6號","TEL":"03-3801394","COUNTYNAME":"桃園市","TOWNNAME":"大溪區","MARKTYPE":"992","Class":"2"},"geometry":{"x":281337.12270000018,"y":2757559.5649999995}},{"attributes":{"OBJECTID":2396,"LANDMARKID":"1000300000360","LANDMARKCO":"203","LANDMARKNA":"縣立瑞祥國小","LANDMARKAD":"1000303","ADDRESS":"桃園縣大溪鎮瑞源里59號","TEL":"03-3801197","COUNTYNAME":"桃園市","TOWNNAME":"大溪區","MARKTYPE":"992","Class":"2"},"geometry":{"x":275582.27280000038,"y":2751179.9355999995}},{"attributes":{"OBJECTID":2397,"LANDMARKID":"1000300000361","LANDMARKCO":"203","LANDMARKNA":"縣立美華國小","LANDMARKAD":"1000303","ADDRESS":"桃園縣大溪鎮美華里15鄰15號","TEL":"03-3882403","COUNTYNAME":"桃園市","TOWNNAME":"大溪區","MARKTYPE":"992","Class":"2"},"geometry":{"x":280810.17410000041,"y":2752659.5217000004}},{"attributes":{"OBJECTID":2398,"LANDMARKID":"1000300000362","LANDMARKCO":"203","LANDMARKNA":"縣立福安國小","LANDMARKAD":"1000303","ADDRESS":"桃園縣大溪鎮福安里16鄰16號","TEL":"03-3882374","COUNTYNAME":"桃園市","TOWNNAME":"大溪區","MARKTYPE":"992","Class":"2"},"geometry":{"x":279195.09669999965,"y":2749239.4181999993}},{"attributes":{"OBJECTID":2399,"LANDMARKID":"1000300000363","LANDMARKCO":"203","LANDMARKNA":"縣立百吉國小","LANDMARKAD":"1000303","ADDRESS":"桃園縣大溪鎮復興里百吉街2號","TEL":"03-3883956","COUNTYNAME":"桃園市","TOWNNAME":"大溪區","MARKTYPE":"992","Class":"2"},"geometry":{"x":281422.3356999997,"y":2746269.4313999992}},{"attributes":{"OBJECTID":2400,"LANDMARKID":"1000300000255","LANDMARKCO":"201","LANDMARKNA":"國立中正理工學院","LANDMARKAD":"1000303","ADDRESS":"桃園縣大溪鎮員樹林中正嶺","TEL":"03-3895149","COUNTYNAME":"桃園市","TOWNNAME":"大溪區","MARKTYPE":"992","Class":"2"},"geometry":{"x":277234.55530000012,"y":2752239.9901999999}}]}