{"displayFieldName":"COUNTYNAME","fieldAliases":{"OBJECTID":"OBJECTID","LANDMARKID":"LANDMARKID","LANDMARKCO":"LANDMARKCO","LANDMARKNA":"LANDMARKNA","LANDMARKAD":"LANDMARKAD","ADDRESS":"ADDRESS","TEL":"TEL","COUNTYNAME":"COUNTYNAME","TOWNNAME":"TOWNNAME","MARKTYPE":"MARKTYPE","Class":"Class"},"geometryType":"esriGeometryPoint","spatialReference":{"wkid":102443},"fields":[{"name":"OBJECTID","type":"esriFieldTypeOID","alias":"OBJECTID"},{"name":"LANDMARKID","type":"esriFieldTypeString","alias":"LANDMARKID","length":15},{"name":"LANDMARKCO","type":"esriFieldTypeString","alias":"LANDMARKCO","length":15},{"name":"LANDMARKNA","type":"esriFieldTypeString","alias":"LANDMARKNA","length":50},{"name":"LANDMARKAD","type":"esriFieldTypeString","alias":"LANDMARKAD","length":15},{"name":"ADDRESS","type":"esriFieldTypeString","alias":"ADDRESS","length":56},{"name":"TEL","type":"esriFieldTypeString","alias":"TEL","length":36},{"name":"COUNTYNAME","type":"esriFieldTypeString","alias":"COUNTYNAME","length":15},{"name":"TOWNNAME","type":"esriFieldTypeString","alias":"TOWNNAME","length":13},{"name":"MARKTYPE","type":"esriFieldTypeString","alias":"MARKTYPE","length":12},{"name":"Class","type":"esriFieldTypeString","alias":"Class","length":5}],"features":[{"attributes":{"OBJECTID":20201,"LANDMARKID":"1001200000803","LANDMARKCO":"402","LANDMARKNA":"亞太行動寬頻電信-鳳山青年加盟服務中心","LANDMARKAD":"1001201","ADDRESS":"高雄市鳳山區青年路二段433號","TEL":"07-7777968","COUNTYNAME":"高雄市","TOWNNAME":"鳳山區","MARKTYPE":"994","Class":"4"},"geometry":{"x":183257.71719999984,"y":2505081.2972999997}},{"attributes":{"OBJECTID":20202,"LANDMARKID":"1001200000804","LANDMARKCO":"402","LANDMARKNA":"亞太行動寬頻電信-鳳山五甲一加盟服務中心","LANDMARKAD":"1001201","ADDRESS":"高雄市鳳山區五甲一路215號","TEL":"07-7903366","COUNTYNAME":"高雄市","TOWNNAME":"鳳山區","MARKTYPE":"994","Class":"4"},"geometry":{"x":183672.27599999961,"y":2502116.9532999992}},{"attributes":{"OBJECTID":20203,"LANDMARKID":"1001200000805","LANDMARKCO":"402","LANDMARKNA":"亞太行動寬頻電信-鳳山五甲二加盟服務中心","LANDMARKAD":"1001201","ADDRESS":"高雄市鳳山區五甲二路486號","TEL":"07-7682399","COUNTYNAME":"高雄市","TOWNNAME":"鳳山區","MARKTYPE":"994","Class":"4"},"geometry":{"x":181575.28839999996,"y":2499835.1493999995}},{"attributes":{"OBJECTID":20204,"LANDMARKID":"1001200000806","LANDMARKCO":"402","LANDMARKNA":"亞太行動寬頻電信-鳳山光遠加盟服務中心","LANDMARKAD":"1001201","ADDRESS":"高雄市鳳山區光遠路352號","TEL":"07-7403333","COUNTYNAME":"高雄市","TOWNNAME":"鳳山區","MARKTYPE":"994","Class":"4"},"geometry":{"x":184111.31350000016,"y":2503027.9158999994}},{"attributes":{"OBJECTID":20205,"LANDMARKID":"1001200000739","LANDMARKCO":"401","LANDMARKNA":"惠德醫院","LANDMARKAD":"1001201","ADDRESS":"高雄市鳳山區福祥街81號","TEL":"07-8126000","COUNTYNAME":"高雄市","TOWNNAME":"鳳山區","MARKTYPE":"994","Class":"4"},"geometry":{"x":180612.52859999985,"y":2499263.1663000006}},{"attributes":{"OBJECTID":20206,"LANDMARKID":"1001200000740","LANDMARKCO":"401","LANDMARKNA":"馬光中醫醫院","LANDMARKAD":"1001201","ADDRESS":"高雄市鳳山區維新路126號1、2F","TEL":"07-7437003","COUNTYNAME":"高雄市","TOWNNAME":"鳳山區","MARKTYPE":"994","Class":"4"},"geometry":{"x":184341.43919999991,"y":2502867.1649999991}},{"attributes":{"OBJECTID":20207,"LANDMARKID":"1001200000741","LANDMARKCO":"401","LANDMARKNA":"杏和醫院","LANDMARKAD":"1001201","ADDRESS":"高雄市鳳山區五甲二路389號","TEL":"07-7613111","COUNTYNAME":"高雄市","TOWNNAME":"鳳山區","MARKTYPE":"994","Class":"4"},"geometry":{"x":181645.93699999992,"y":2499850.8505000006}},{"attributes":{"OBJECTID":20208,"LANDMARKID":"1001200000742","LANDMARKCO":"401","LANDMARKNA":"高雄市立鳳山醫院","LANDMARKAD":"1001201","ADDRESS":"高雄市鳳山區經武路42號","TEL":"07-7418151","COUNTYNAME":"高雄市","TOWNNAME":"鳳山區","MARKTYPE":"994","Class":"4"},"geometry":{"x":184485.60209999979,"y":2503300.6839000005}},{"attributes":{"OBJECTID":20209,"LANDMARKID":"1001200000743","LANDMARKCO":"401","LANDMARKNA":"仁惠婦幼醫院","LANDMARKAD":"1001201","ADDRESS":"高雄市鳳山區自由路81號","TEL":"07-7104397","COUNTYNAME":"高雄市","TOWNNAME":"鳳山區","MARKTYPE":"994","Class":"4"},"geometry":{"x":183498.62509999983,"y":2502990.1327999998}},{"attributes":{"OBJECTID":20210,"LANDMARKID":"1001200000744","LANDMARKCO":"401","LANDMARKNA":"宏亞醫院","LANDMARKAD":"1001201","ADDRESS":"高雄市鳳山區鳳山區五甲三路10巷1號","TEL":"07-8119123","COUNTYNAME":"高雄市","TOWNNAME":"鳳山區","MARKTYPE":"994","Class":"4"},"geometry":{"x":180918.16179999989,"y":2499410.1653000005}},{"attributes":{"OBJECTID":20211,"LANDMARKID":"1001200000745","LANDMARKCO":"401","LANDMARKNA":"大東醫院","LANDMARKAD":"1001201","ADDRESS":"高雄市鳳山區光遠路171-2號","TEL":"07-7463762","COUNTYNAME":"高雄市","TOWNNAME":"鳳山區","MARKTYPE":"994","Class":"4"},"geometry":{"x":184423.8273,"y":2502940.4250000007}},{"attributes":{"OBJECTID":20212,"LANDMARKID":"1001200000746","LANDMARKCO":"401","LANDMARKNA":"優生婦產科醫院","LANDMARKAD":"1001201","ADDRESS":"高雄市鳳山區自由路189號","TEL":"07-7478629","COUNTYNAME":"高雄市","TOWNNAME":"鳳山區","MARKTYPE":"994","Class":"4"},"geometry":{"x":183199.80350000039,"y":2502950.0755000003}},{"attributes":{"OBJECTID":20213,"LANDMARKID":"1001200000747","LANDMARKCO":"401","LANDMARKNA":"新高鳳醫院","LANDMARKAD":"1001201","ADDRESS":"高雄市鳳山區光遠路360號","TEL":"07-7472320","COUNTYNAME":"高雄市","TOWNNAME":"鳳山區","MARKTYPE":"994","Class":"4"},"geometry":{"x":184081.40220000036,"y":2503040.182}},{"attributes":{"OBJECTID":20214,"LANDMARKID":"1001200001265","LANDMARKCO":"507","LANDMARKNA":"鳳山縣城殘蹟","LANDMARKAD":"1001201","ADDRESS":"高雄市鳳山區鳳岡里曹公路25之3號","TEL":" ","COUNTYNAME":"高雄市","TOWNNAME":"鳳山區","MARKTYPE":"995","Class":"5"},"geometry":{"x":183919.3228000002,"y":2503186.6805000007}},{"attributes":{"OBJECTID":20215,"LANDMARKID":"1001200001266","LANDMARKCO":"507","LANDMARKNA":"鳳儀書院","LANDMARKAD":"1001201","ADDRESS":"高雄市鳳山區鳳崗里中正路129巷3弄12號","TEL":" ","COUNTYNAME":"高雄市","TOWNNAME":"鳳山區","MARKTYPE":"995","Class":"5"},"geometry":{"x":184174.03359999973,"y":2503167.9024}},{"attributes":{"OBJECTID":20216,"LANDMARKID":"1001200001044","LANDMARKCO":"408","LANDMARKNA":"郵局-鳳山中山東路郵局","LANDMARKAD":"1001201","ADDRESS":"高雄市鳳山區中山東路86-2號","TEL":"(07)7462-446轉","COUNTYNAME":"高雄市","TOWNNAME":"鳳山區","MARKTYPE":"994","Class":"4"},"geometry":{"x":185415.34179999959,"y":2502839.3355}},{"attributes":{"OBJECTID":20217,"LANDMARKID":"1001200001045","LANDMARKCO":"408","LANDMARKNA":"郵局-陸軍官校郵局","LANDMARKAD":"1001201","ADDRESS":"高雄市鳳山區維武路1號(陸軍官校內)","TEL":"(07)7414-947","COUNTYNAME":"高雄市","TOWNNAME":"鳳山區","MARKTYPE":"994","Class":"4"},"geometry":{"x":185405.67860000022,"y":2502782.7511999998}},{"attributes":{"OBJECTID":20218,"LANDMARKID":"1001200001046","LANDMARKCO":"408","LANDMARKNA":"郵局-澄清湖郵局","LANDMARKAD":"1001201","ADDRESS":"高雄市鳳山區青年路2段634、636號","TEL":"(07)767-0929","COUNTYNAME":"高雄市","TOWNNAME":"鳳山區","MARKTYPE":"994","Class":"4"},"geometry":{"x":182942.18439999968,"y":2505385.0734000001}},{"attributes":{"OBJECTID":20219,"LANDMARKID":"1001200001047","LANDMARKCO":"408","LANDMARKNA":"郵局-鳳山縣府郵局","LANDMARKAD":"1001201","ADDRESS":"高雄市鳳山區光復路2段132號(高雄市政府內)","TEL":"(07)7420-218","COUNTYNAME":"高雄市","TOWNNAME":"鳳山區","MARKTYPE":"994","Class":"4"},"geometry":{"x":182548.08420000039,"y":2503430.1602999996}},{"attributes":{"OBJECTID":20220,"LANDMARKID":"1001200001048","LANDMARKCO":"408","LANDMARKNA":"郵局-鳳山文山郵局","LANDMARKAD":"1001201","ADDRESS":"高雄市鳳山區文衡路236號","TEL":"(07)7768-544","COUNTYNAME":"高雄市","TOWNNAME":"鳳山區","MARKTYPE":"994","Class":"4"},"geometry":{"x":183836.71399999969,"y":2504377.1027000006}},{"attributes":{"OBJECTID":20221,"LANDMARKID":"1001200001049","LANDMARKCO":"408","LANDMARKNA":"郵局-鳳山中山路郵局","LANDMARKAD":"1001201","ADDRESS":"高雄市鳳山區大東一路122、124號","TEL":"(07)7466-936","COUNTYNAME":"高雄市","TOWNNAME":"鳳山區","MARKTYPE":"994","Class":"4"},"geometry":{"x":184308.9243999999,"y":2502562.9530999996}},{"attributes":{"OBJECTID":20222,"LANDMARKID":"1001200001050","LANDMARKCO":"408","LANDMARKNA":"郵局-鳳山五甲郵局","LANDMARKAD":"1001201","ADDRESS":"高雄市鳳山區五甲三路45號","TEL":"(07)8217-661","COUNTYNAME":"高雄市","TOWNNAME":"鳳山區","MARKTYPE":"994","Class":"4"},"geometry":{"x":180824.23319999967,"y":2499306.4938999992}},{"attributes":{"OBJECTID":20223,"LANDMARKID":"1001200001051","LANDMARKCO":"408","LANDMARKNA":"郵局-鳳山工協郵局","LANDMARKAD":"1001201","ADDRESS":"高雄市鳳山區勝利路50號","TEL":"(07)7013-235","COUNTYNAME":"高雄市","TOWNNAME":"鳳山區","MARKTYPE":"994","Class":"4"},"geometry":{"x":185711.12409999967,"y":2503862.7368999999}},{"attributes":{"OBJECTID":20224,"LANDMARKID":"1001200001052","LANDMARKCO":"408","LANDMARKNA":"郵局-鳳山一甲郵局","LANDMARKAD":"1001201","ADDRESS":"高雄市鳳山區五甲二路87、89、91號","TEL":"(07)7111-930","COUNTYNAME":"高雄市","TOWNNAME":"鳳山區","MARKTYPE":"994","Class":"4"},"geometry":{"x":182325.71740000043,"y":2500373.2709999997}},{"attributes":{"OBJECTID":20225,"LANDMARKID":"1001200001053","LANDMARKCO":"408","LANDMARKNA":"郵局-鳳山鳳松路郵局","LANDMARKAD":"1001201","ADDRESS":"高雄市鳳山區鳳松路11號","TEL":"(07)7425-490","COUNTYNAME":"高雄市","TOWNNAME":"鳳山區","MARKTYPE":"994","Class":"4"},"geometry":{"x":184313.07290000003,"y":2503728.5252999999}},{"attributes":{"OBJECTID":20226,"LANDMARKID":"1001200001054","LANDMARKCO":"408","LANDMARKNA":"郵局-鳳山新甲郵局","LANDMARKAD":"1001201","ADDRESS":"高雄市鳳山區大明路39、41號","TEL":"(07)7660-079","COUNTYNAME":"高雄市","TOWNNAME":"鳳山區","MARKTYPE":"994","Class":"4"},"geometry":{"x":182328.74220000021,"y":2500978.8677999992}},{"attributes":{"OBJECTID":20227,"LANDMARKID":"1001200001055","LANDMARKCO":"408","LANDMARKNA":"郵局-鳳山新富郵局","LANDMARKAD":"1001201","ADDRESS":"高雄市鳳山區新富路391號","TEL":"(07)7632-485","COUNTYNAME":"高雄市","TOWNNAME":"鳳山區","MARKTYPE":"994","Class":"4"},"geometry":{"x":183050.61139999982,"y":2501947.0377999991}},{"attributes":{"OBJECTID":20228,"LANDMARKID":"1001200001056","LANDMARKCO":"408","LANDMARKNA":"郵局-鳳山三民路郵局","LANDMARKAD":"1001201","ADDRESS":"高雄市鳳山區三民路289號","TEL":"(07)7452-124","COUNTYNAME":"高雄市","TOWNNAME":"鳳山區","MARKTYPE":"994","Class":"4"},"geometry":{"x":184010.57160000037,"y":2502989.7315999996}},{"attributes":{"OBJECTID":20229,"LANDMARKID":"1001200001057","LANDMARKCO":"408","LANDMARKNA":"郵局-鳳山中崙郵局","LANDMARKAD":"1001201","ADDRESS":"高雄市鳳山區中崙路576號","TEL":"(07)7536-919","COUNTYNAME":"高雄市","TOWNNAME":"鳳山區","MARKTYPE":"994","Class":"4"},"geometry":{"x":183295.7918999996,"y":2500360.7633999996}},{"attributes":{"OBJECTID":20230,"LANDMARKID":"1001200001058","LANDMARKCO":"408","LANDMARKNA":"郵局-鳳山過埤郵局","LANDMARKAD":"1001201","ADDRESS":"高雄市鳳山區過埤路114號","TEL":"(07)7921-753","COUNTYNAME":"高雄市","TOWNNAME":"鳳山區","MARKTYPE":"994","Class":"4"},"geometry":{"x":184658.11000000034,"y":2499058.9263000004}},{"attributes":{"OBJECTID":20231,"LANDMARKID":"1001200001059","LANDMARKCO":"408","LANDMARKNA":"郵局-鳳山鎮北郵局","LANDMARKAD":"1001201","ADDRESS":"高雄市鳳山區經武路166、168號","TEL":"(07)7901-455","COUNTYNAME":"高雄市","TOWNNAME":"鳳山區","MARKTYPE":"994","Class":"4"},"geometry":{"x":184644.12600000016,"y":2504133.7925000004}},{"attributes":{"OBJECTID":20232,"LANDMARKID":"1001200001202","LANDMARKCO":"409","LANDMARKNA":"高雄市農會","LANDMARKAD":"1001201","ADDRESS":"高雄市鳳山區中山西路316號","TEL":"07-741415","COUNTYNAME":"高雄市","TOWNNAME":"鳳山區","MARKTYPE":"994","Class":"4"},"geometry":{"x":182503.67640000023,"y":2503331.9401999991}},{"attributes":{"OBJECTID":20233,"LANDMARKID":"1001200001203","LANDMARKCO":"409","LANDMARKNA":"鳳山區農會","LANDMARKAD":"1001201","ADDRESS":"高雄市鳳山區維新路124號","TEL":"07-746313","COUNTYNAME":"高雄市","TOWNNAME":"鳳山區","MARKTYPE":"994","Class":"4"},"geometry":{"x":184325.45839999989,"y":2502852.8416000009}},{"attributes":{"OBJECTID":20234,"LANDMARKID":"1001200001204","LANDMARKCO":"409","LANDMARKNA":"鳳山區農會-五甲分部","LANDMARKAD":"1001201","ADDRESS":"高雄市鳳山區南成里南和街21號","TEL":"07-831-28","COUNTYNAME":"高雄市","TOWNNAME":"鳳山區","MARKTYPE":"994","Class":"4"},"geometry":{"x":181540.63779999968,"y":2499681.7882000003}},{"attributes":{"OBJECTID":20235,"LANDMARKID":"1001200001205","LANDMARKCO":"409","LANDMARKNA":"鳳山區農會-老爺分部","LANDMARKAD":"1001201","ADDRESS":"高雄市鳳山區富甲里華興街37號","TEL":"07-771-31","COUNTYNAME":"高雄市","TOWNNAME":"鳳山區","MARKTYPE":"994","Class":"4"},"geometry":{"x":181823.6950000003,"y":2500511.0088}},{"attributes":{"OBJECTID":20236,"LANDMARKID":"1001200001206","LANDMARKCO":"409","LANDMARKNA":"鳳山區農會-市場分部","LANDMARKAD":"1001201","ADDRESS":"高雄市鳳山區和興里五甲一路451號","TEL":"07-765-37","COUNTYNAME":"高雄市","TOWNNAME":"鳳山區","MARKTYPE":"994","Class":"4"},"geometry":{"x":183466.15409999993,"y":2501782.8763999995}},{"attributes":{"OBJECTID":20237,"LANDMARKID":"1001200001207","LANDMARKCO":"409","LANDMARKNA":"鳳山區農會-文山分部","LANDMARKAD":"1001201","ADDRESS":"高雄市鳳山區文山里文衡路354號","TEL":"07-748-11","COUNTYNAME":"高雄市","TOWNNAME":"鳳山區","MARKTYPE":"994","Class":"4"},"geometry":{"x":183673.4813000001,"y":2504594.7137000002}},{"attributes":{"OBJECTID":20238,"LANDMARKID":"1001200001208","LANDMARKCO":"409","LANDMARKNA":"鳳山區農會-鎮北分部","LANDMARKAD":"1001201","ADDRESS":"高雄市鳳山區鎮北里力行路114號","TEL":"07-740-43","COUNTYNAME":"高雄市","TOWNNAME":"鳳山區","MARKTYPE":"994","Class":"4"},"geometry":{"x":184973.02329999954,"y":2504436.0932999998}},{"attributes":{"OBJECTID":20239,"LANDMARKID":"1001200001209","LANDMARKCO":"409","LANDMARKNA":"鳳山區農會-過埤分部","LANDMARKAD":"1001201","ADDRESS":"高雄市鳳山區過埤里過埤路156號","TEL":"07-792-22","COUNTYNAME":"高雄市","TOWNNAME":"鳳山區","MARKTYPE":"994","Class":"4"},"geometry":{"x":184553.33179999981,"y":2499073.8780000005}},{"attributes":{"OBJECTID":20240,"LANDMARKID":"1001200001000","LANDMARKCO":"406","LANDMARKNA":"五福公園","LANDMARKAD":"1001201","ADDRESS":"高雄市鳳山區","TEL":" ","COUNTYNAME":"高雄市","TOWNNAME":"鳳山區","MARKTYPE":"994","Class":"4"},"geometry":{"x":180860.02460000012,"y":2498918.2963999994}},{"attributes":{"OBJECTID":20241,"LANDMARKID":"1001200001001","LANDMARKCO":"406","LANDMARKNA":"五甲公園","LANDMARKAD":"1001201","ADDRESS":"高雄市鳳山區","TEL":" ","COUNTYNAME":"高雄市","TOWNNAME":"鳳山區","MARKTYPE":"994","Class":"4"},"geometry":{"x":180940.94299999997,"y":2499813.1958000008}},{"attributes":{"OBJECTID":20242,"LANDMARKID":"1001200001002","LANDMARKCO":"406","LANDMARKNA":"鳳山區運動公園","LANDMARKAD":"1001201","ADDRESS":"高雄市鳳山區","TEL":" ","COUNTYNAME":"高雄市","TOWNNAME":"鳳山區","MARKTYPE":"994","Class":"4"},"geometry":{"x":182155.77500000037,"y":2501858.2036000006}},{"attributes":{"OBJECTID":20243,"LANDMARKID":"1001200001003","LANDMARKCO":"406","LANDMARKNA":"新甲兒童公園","LANDMARKAD":"1001201","ADDRESS":"高雄市鳳山區","TEL":" ","COUNTYNAME":"高雄市","TOWNNAME":"鳳山區","MARKTYPE":"994","Class":"4"},"geometry":{"x":182488.7444000002,"y":2501012.8154000007}},{"attributes":{"OBJECTID":20244,"LANDMARKID":"1001200001004","LANDMARKCO":"406","LANDMARKNA":"青年公園","LANDMARKAD":"1001201","ADDRESS":"高雄市鳳山區","TEL":" ","COUNTYNAME":"高雄市","TOWNNAME":"鳳山區","MARKTYPE":"994","Class":"4"},"geometry":{"x":183038.55420000013,"y":2503444.5702999998}},{"attributes":{"OBJECTID":20245,"LANDMARKID":"1001200000820","LANDMARKCO":"403","LANDMARKNA":"台灣電力公司鳳山區營業處","LANDMARKAD":"1001201","ADDRESS":"高雄市鳳山區高雄市鳳山區青年路一段100號","TEL":" ","COUNTYNAME":"高雄市","TOWNNAME":"鳳山區","MARKTYPE":"994","Class":"4"},"geometry":{"x":183149.50850000046,"y":2502376.2644999996}},{"attributes":{"OBJECTID":20246,"LANDMARKID":"1001200000993","LANDMARKCO":"406","LANDMARKNA":"自由兒童公園","LANDMARKAD":"1001201","ADDRESS":"高雄市鳳山區","TEL":" ","COUNTYNAME":"高雄市","TOWNNAME":"鳳山區","MARKTYPE":"994","Class":"4"},"geometry":{"x":183194.87700000033,"y":2502762.7279000003}},{"attributes":{"OBJECTID":20247,"LANDMARKID":"1001200000994","LANDMARKCO":"406","LANDMARKNA":"光華兒童公園","LANDMARKAD":"1001201","ADDRESS":"高雄市鳳山區","TEL":" ","COUNTYNAME":"高雄市","TOWNNAME":"鳳山區","MARKTYPE":"994","Class":"4"},"geometry":{"x":183346.69199999981,"y":2502546.8929999992}},{"attributes":{"OBJECTID":20248,"LANDMARKID":"1001200000995","LANDMARKCO":"406","LANDMARKNA":"鳳西運動公園","LANDMARKAD":"1001201","ADDRESS":"高雄市鳳山區","TEL":" ","COUNTYNAME":"高雄市","TOWNNAME":"鳳山區","MARKTYPE":"994","Class":"4"},"geometry":{"x":183519.35470000003,"y":2502666.2401999999}},{"attributes":{"OBJECTID":20249,"LANDMARKID":"1001200000996","LANDMARKCO":"406","LANDMARKNA":"八仙公園","LANDMARKAD":"1001201","ADDRESS":"高雄市鳳山區","TEL":" ","COUNTYNAME":"高雄市","TOWNNAME":"鳳山區","MARKTYPE":"994","Class":"4"},"geometry":{"x":183806.75850000046,"y":2501909.3288000003}},{"attributes":{"OBJECTID":20250,"LANDMARKID":"1001200000997","LANDMARKCO":"406","LANDMARKNA":"南門公園","LANDMARKAD":"1001201","ADDRESS":"高雄市鳳山區","TEL":" ","COUNTYNAME":"高雄市","TOWNNAME":"鳳山區","MARKTYPE":"994","Class":"4"},"geometry":{"x":184081.77489999961,"y":2502391.9706999995}},{"attributes":{"OBJECTID":20251,"LANDMARKID":"1001200000998","LANDMARKCO":"406","LANDMARKNA":"誠義兒童公園","LANDMARKAD":"1001201","ADDRESS":"高雄市鳳山區","TEL":" ","COUNTYNAME":"高雄市","TOWNNAME":"鳳山區","MARKTYPE":"994","Class":"4"},"geometry":{"x":184152.12390000001,"y":2501890.7556999996}},{"attributes":{"OBJECTID":20252,"LANDMARKID":"1001200000999","LANDMARKCO":"406","LANDMARKNA":"中山公園","LANDMARKAD":"1001201","ADDRESS":"高雄市鳳山區","TEL":" ","COUNTYNAME":"高雄市","TOWNNAME":"鳳山區","MARKTYPE":"994","Class":"4"},"geometry":{"x":184288.7220999999,"y":2501548.5393000003}},{"attributes":{"OBJECTID":20253,"LANDMARKID":"1001200000821","LANDMARKCO":"404","LANDMARKNA":"台灣省自來水鳳山服務所","LANDMARKAD":"1001201","ADDRESS":"高雄市鳳山區光復路11號","TEL":" ","COUNTYNAME":"高雄市","TOWNNAME":"鳳山區","MARKTYPE":"994","Class":"4"},"geometry":{"x":184376.06219999958,"y":2503289.8300000001}},{"attributes":{"OBJECTID":20254,"LANDMARKID":"1001200001005","LANDMARKCO":"406","LANDMARKNA":"中正公園","LANDMARKAD":"1001201","ADDRESS":"高雄市鳳山區","TEL":" ","COUNTYNAME":"高雄市","TOWNNAME":"鳳山區","MARKTYPE":"994","Class":"4"},"geometry":{"x":184649.4179999996,"y":2503187.4644000009}},{"attributes":{"OBJECTID":20255,"LANDMARKID":"1001200001006","LANDMARKCO":"406","LANDMARKNA":"瑞興兒童公園","LANDMARKAD":"1001201","ADDRESS":"高雄市鳳山區","TEL":" ","COUNTYNAME":"高雄市","TOWNNAME":"鳳山區","MARKTYPE":"994","Class":"4"},"geometry":{"x":184955.17320000008,"y":2503282.5142999999}},{"attributes":{"OBJECTID":20256,"LANDMARKID":"1001200001007","LANDMARKCO":"406","LANDMARKNA":"黃埔公園","LANDMARKAD":"1001201","ADDRESS":"高雄市鳳山區","TEL":" ","COUNTYNAME":"高雄市","TOWNNAME":"鳳山區","MARKTYPE":"994","Class":"4"},"geometry":{"x":185028.53309999965,"y":2502609.1854999997}},{"attributes":{"OBJECTID":20257,"LANDMARKID":"1001200001008","LANDMARKCO":"406","LANDMARKNA":"海光兒童公園","LANDMARKAD":"1001201","ADDRESS":"高雄市鳳山區","TEL":" ","COUNTYNAME":"高雄市","TOWNNAME":"鳳山區","MARKTYPE":"994","Class":"4"},"geometry":{"x":185047.0159,"y":2503663.3402999993}},{"attributes":{"OBJECTID":20258,"LANDMARKID":"1001200001009","LANDMARKCO":"406","LANDMARKNA":"自強公園","LANDMARKAD":"1001201","ADDRESS":"高雄市鳳山區","TEL":" ","COUNTYNAME":"高雄市","TOWNNAME":"鳳山區","MARKTYPE":"994","Class":"4"},"geometry":{"x":185436.47979999986,"y":2503891.0270000007}},{"attributes":{"OBJECTID":20259,"LANDMARKID":"1001200001010","LANDMARKCO":"406","LANDMARKNA":"海鳳社區公園","LANDMARKAD":"1001201","ADDRESS":"高雄市鳳山區","TEL":" ","COUNTYNAME":"高雄市","TOWNNAME":"鳳山區","MARKTYPE":"994","Class":"4"},"geometry":{"x":185692.10649999976,"y":2503728.6798999999}},{"attributes":{"OBJECTID":20260,"LANDMARKID":"1001200001011","LANDMARKCO":"406","LANDMARKNA":"海風公園","LANDMARKAD":"1001201","ADDRESS":"高雄市鳳山區","TEL":" ","COUNTYNAME":"高雄市","TOWNNAME":"鳳山區","MARKTYPE":"994","Class":"4"},"geometry":{"x":185849.45380000025,"y":2503818.9680000003}},{"attributes":{"OBJECTID":20261,"LANDMARKID":"1001200001012","LANDMARKCO":"406","LANDMARKNA":"文福兒童公園","LANDMARKAD":"1001201","ADDRESS":" ","TEL":" ","COUNTYNAME":"高雄市","TOWNNAME":"鳳山區","MARKTYPE":"994","Class":"4"},"geometry":{"x":182965.99050000031,"y":2504220.3191999998}},{"attributes":{"OBJECTID":20262,"LANDMARKID":"1001200001013","LANDMARKCO":"406","LANDMARKNA":"中正公園","LANDMARKAD":"1001201","ADDRESS":" ","TEL":" ","COUNTYNAME":"高雄市","TOWNNAME":"鳳山區","MARKTYPE":"994","Class":"4"},"geometry":{"x":184599.87150000036,"y":2502964.8523999993}},{"attributes":{"OBJECTID":20263,"LANDMARKID":"1001200001040","LANDMARKCO":"407","LANDMARKNA":"小北百貨","LANDMARKAD":"1001201","ADDRESS":"高雄市鳳山區中山東路180","TEL":"(07)7015578","COUNTYNAME":"高雄市","TOWNNAME":"鳳山區","MARKTYPE":"994","Class":"4"},"geometry":{"x":185779.82330000028,"y":2502994.6111999992}},{"attributes":{"OBJECTID":20264,"LANDMARKID":"1001200001041","LANDMARKCO":"407","LANDMARKNA":"小北百貨","LANDMARKAD":"1001201","ADDRESS":"高雄市鳳山區青年路二段419號","TEL":"(07)7801163???","COUNTYNAME":"高雄市","TOWNNAME":"鳳山區","MARKTYPE":"994","Class":"4"},"geometry":{"x":183307.97339999955,"y":2505023.4980999995}},{"attributes":{"OBJECTID":20265,"LANDMARKID":"1001200001042","LANDMARKCO":"407","LANDMARKNA":"小北百貨","LANDMARKAD":"1001201","ADDRESS":"高雄市鳳山區新甲里新富路430號1樓?","TEL":"(07)7673612???","COUNTYNAME":"高雄市","TOWNNAME":"鳳山區","MARKTYPE":"994","Class":"4"},"geometry":{"x":182688.82110000029,"y":2501575.1224000007}},{"attributes":{"OBJECTID":20266,"LANDMARKID":"1001200001043","LANDMARKCO":"407","LANDMARKNA":"小北百貨","LANDMARKAD":"1001201","ADDRESS":"高雄市鳳山區南華路185號","TEL":"(07)7673612","COUNTYNAME":"高雄市","TOWNNAME":"鳳山區","MARKTYPE":"994","Class":"4"},"geometry":{"x":181813.00219999999,"y":2500602.3632999994}},{"attributes":{"OBJECTID":20267,"LANDMARKID":"1001200000977","LANDMARKCO":"405","LANDMARKNA":"全國加油站-鳳山站（台塑）","LANDMARKAD":"1001201","ADDRESS":"高雄市鳳山區中山西路218號","TEL":"07-7100668","COUNTYNAME":"高雄市","TOWNNAME":"鳳山區","MARKTYPE":"994","Class":"4"},"geometry":{"x":183084.84250000026,"y":2503217.7291999999}},{"attributes":{"OBJECTID":20268,"LANDMARKID":"1001200000978","LANDMARKCO":"405","LANDMARKNA":"台亞加油站-中安站（台塑）","LANDMARKAD":"1001201","ADDRESS":"高雄市鳳山區中安路709號","TEL":"(07)792-4555","COUNTYNAME":"高雄市","TOWNNAME":"鳳山區","MARKTYPE":"994","Class":"4"},"geometry":{"x":184235.20540000033,"y":2498476.6883000005}},{"attributes":{"OBJECTID":20269,"LANDMARKID":"1001200000979","LANDMARKCO":"405","LANDMARKNA":"台塑加油站-華豐站(台塑)","LANDMARKAD":"1001201","ADDRESS":"高雄市鳳山區鳳南路286號","TEL":"07-7245767","COUNTYNAME":"高雄市","TOWNNAME":"鳳山區","MARKTYPE":"994","Class":"4"},"geometry":{"x":181607.03670000006,"y":2500452.8158999998}},{"attributes":{"OBJECTID":20270,"LANDMARKID":"1001200000980","LANDMARKCO":"405","LANDMARKNA":"台亞加油站-老爺站（台塑）","LANDMARKAD":"1001201","ADDRESS":"高雄市鳳山區五甲一路667號","TEL":"(07)755-1114","COUNTYNAME":"高雄市","TOWNNAME":"鳳山區","MARKTYPE":"994","Class":"4"},"geometry":{"x":183479.95579999965,"y":2501801.943}},{"attributes":{"OBJECTID":20271,"LANDMARKID":"1001200000981","LANDMARKCO":"405","LANDMARKNA":"鯨世界加油站-五甲站(台塑)","LANDMARKAD":"1001201","ADDRESS":"高雄市鳳山區五甲二路138號","TEL":" ","COUNTYNAME":"高雄市","TOWNNAME":"鳳山區","MARKTYPE":"994","Class":"4"},"geometry":{"x":182439.15429999959,"y":2500489.8298000004}},{"attributes":{"OBJECTID":20272,"LANDMARKID":"1001200000982","LANDMARKCO":"405","LANDMARKNA":"台塑加油站-高旗站(台塑)","LANDMARKAD":"1001201","ADDRESS":"高雄市鳳山區鳳仁路92-1號","TEL":"07-7105686","COUNTYNAME":"高雄市","TOWNNAME":"鳳山區","MARKTYPE":"994","Class":"4"},"geometry":{"x":185280.70100000035,"y":2504154.0647999998}},{"attributes":{"OBJECTID":20273,"LANDMARKID":"1001200000047","LANDMARKCO":"103","LANDMARKNA":"高雄市鳳山巿衛生所","LANDMARKAD":"1001201","ADDRESS":"高雄市鳳山區經武路34巷2號","TEL":"07-7430437","COUNTYNAME":"高雄市","TOWNNAME":"鳳山區","MARKTYPE":"991","Class":"1"},"geometry":{"x":181618.80370000005,"y":2499880.7329999991}},{"attributes":{"OBJECTID":20274,"LANDMARKID":"1001200000048","LANDMARKCO":"103","LANDMARKNA":"高雄市鳳山區市民代表會","LANDMARKAD":"1001201","ADDRESS":"高雄市鳳山區經武路28巷1號","TEL":"07-7460462","COUNTYNAME":"高雄市","TOWNNAME":"鳳山區","MARKTYPE":"991","Class":"1"},"geometry":{"x":184490.05599999987,"y":2503120.7119999994}},{"attributes":{"OBJECTID":20275,"LANDMARKID":"1001200000139","LANDMARKCO":"106","LANDMARKNA":"高雄市鳳山區第一戶政事務所","LANDMARKAD":"1001201","ADDRESS":"高雄市鳳山區經武路34巷1號","TEL":"07-7429784","COUNTYNAME":"高雄市","TOWNNAME":"鳳山區","MARKTYPE":"991","Class":"1"},"geometry":{"x":184515.79920000024,"y":2503180.8222000003}},{"attributes":{"OBJECTID":20276,"LANDMARKID":"1001200000166","LANDMARKCO":"107","LANDMARKNA":"高雄市消防局第一消防大隊部","LANDMARKAD":"1001201","ADDRESS":"高雄市鳳山區經武路36號","TEL":"07-7991107","COUNTYNAME":"高雄市","TOWNNAME":"鳳山區","MARKTYPE":"991","Class":"1"},"geometry":{"x":181601.71470000036,"y":2499900.6567000002}},{"attributes":{"OBJECTID":20277,"LANDMARKID":"1001200000167","LANDMARKCO":"107","LANDMARKNA":"高雄市政府警察局五甲派出所","LANDMARKAD":"1001201","ADDRESS":"高雄市鳳山區五甲二路472號","TEL":"07-7615839","COUNTYNAME":"高雄市","TOWNNAME":"鳳山區","MARKTYPE":"991","Class":"1"},"geometry":{"x":181617.80370000005,"y":2499880.7284999993}},{"attributes":{"OBJECTID":20278,"LANDMARKID":"1001200000140","LANDMARKCO":"106","LANDMARKNA":"高雄市鳳山區第二戶政事務所","LANDMARKAD":"1001201","ADDRESS":"高雄市鳳山區五甲二路472號四樓","TEL":"07-7511841","COUNTYNAME":"高雄市","TOWNNAME":"鳳山區","MARKTYPE":"991","Class":"1"},"geometry":{"x":181634.75879999995,"y":2499890.8040999994}},{"attributes":{"OBJECTID":20279,"LANDMARKID":"1001200000022","LANDMARKCO":"101","LANDMARKNA":"高雄區監理所","LANDMARKAD":"1001201","ADDRESS":"高雄市鳳山區武營路361號","TEL":"07-7711101","COUNTYNAME":"高雄市","TOWNNAME":"鳳山區","MARKTYPE":"991","Class":"1"},"geometry":{"x":181657.93539999984,"y":2501920.8713000007}},{"attributes":{"OBJECTID":20280,"LANDMARKID":"1001200000165","LANDMARKCO":"107","LANDMARKNA":"高雄市政府警察局忠孝派出所","LANDMARKAD":"1001201","ADDRESS":"高雄市鳳山區光復路二段188號","TEL":"07-7402658","COUNTYNAME":"高雄市","TOWNNAME":"鳳山區","MARKTYPE":"991","Class":"1"},"geometry":{"x":182321.01150000002,"y":2503441.2411000002}},{"attributes":{"OBJECTID":20281,"LANDMARKID":"1001200000045","LANDMARKCO":"103","LANDMARKNA":"高雄市政府民政局","LANDMARKAD":"1001201","ADDRESS":"高雄市鳳山區光復路二段132號","TEL":"07-7477611","COUNTYNAME":"高雄市","TOWNNAME":"鳳山區","MARKTYPE":"991","Class":"1"},"geometry":{"x":182543.09860000014,"y":2503420.9563999996}},{"attributes":{"OBJECTID":20282,"LANDMARKID":"1001200000046","LANDMARKCO":"103","LANDMARKNA":"高雄市政府","LANDMARKAD":"1001201","ADDRESS":"高雄市鳳山區光復路二段132號","TEL":"07-7477611","COUNTYNAME":"高雄市","TOWNNAME":"鳳山區","MARKTYPE":"991","Class":"1"},"geometry":{"x":182543.09860000014,"y":2503420.9563999996}},{"attributes":{"OBJECTID":20283,"LANDMARKID":"1001200000110","LANDMARKCO":"105","LANDMARKNA":"高雄市政府地政局","LANDMARKAD":"1001201","ADDRESS":"高雄市鳳山區光復路二段132號","TEL":"07-7477611","COUNTYNAME":"高雄市","TOWNNAME":"鳳山區","MARKTYPE":"991","Class":"1"},"geometry":{"x":182544.09860000014,"y":2503420.9607999995}},{"attributes":{"OBJECTID":20284,"LANDMARKID":"1001200000023","LANDMARKCO":"101","LANDMARKNA":"教育部高雄市聯絡處","LANDMARKAD":"1001201","ADDRESS":"高雄市鳳山區光復路二段130號之1","TEL":"07-7400674","COUNTYNAME":"高雄市","TOWNNAME":"鳳山區","MARKTYPE":"991","Class":"1"},"geometry":{"x":182639.14209999982,"y":2503410.1195999999}},{"attributes":{"OBJECTID":20285,"LANDMARKID":"1001200000168","LANDMARKCO":"107","LANDMARKNA":"高雄市消防局五甲消防分隊","LANDMARKAD":"1001201","ADDRESS":"高雄市鳳山區南正二路472號","TEL":"07-7130696","COUNTYNAME":"高雄市","TOWNNAME":"鳳山區","MARKTYPE":"991","Class":"1"},"geometry":{"x":182754.8861999996,"y":2500700.6812999994}},{"attributes":{"OBJECTID":20286,"LANDMARKID":"1001200000044","LANDMARKCO":"103","LANDMARKNA":"高雄市議會","LANDMARKAD":"1001201","ADDRESS":"高雄市鳳山區國泰路二段156號","TEL":"07-7470171","COUNTYNAME":"高雄市","TOWNNAME":"鳳山區","MARKTYPE":"991","Class":"1"},"geometry":{"x":182825.34829999972,"y":2502440.9553999994}},{"attributes":{"OBJECTID":20287,"LANDMARKID":"1001200000107","LANDMARKCO":"104","LANDMARKNA":"高雄市稅捐稽徵處","LANDMARKAD":"1001201","ADDRESS":"高雄市鳳山區國泰路二段136號","TEL":"07-7410141","COUNTYNAME":"高雄市","TOWNNAME":"鳳山區","MARKTYPE":"991","Class":"1"},"geometry":{"x":182903.56659999955,"y":2502390.0441999994}},{"attributes":{"OBJECTID":20288,"LANDMARKID":"1001200000169","LANDMARKCO":"107","LANDMARKNA":"高雄市政府警察局新甲派出所","LANDMARKAD":"1001201","ADDRESS":"高雄市鳳山區國光里新富路383號","TEL":"07-7636944","COUNTYNAME":"高雄市","TOWNNAME":"鳳山區","MARKTYPE":"991","Class":"1"},"geometry":{"x":182942.88669999968,"y":2501930.2281999998}},{"attributes":{"OBJECTID":20289,"LANDMARKID":"1001200000024","LANDMARKCO":"101","LANDMARKNA":"高雄市調查站","LANDMARKAD":"1001201","ADDRESS":"高雄市鳳山區青年路一段99號","TEL":"07-7462123","COUNTYNAME":"高雄市","TOWNNAME":"鳳山區","MARKTYPE":"991","Class":"1"},"geometry":{"x":183075.25850000046,"y":2502460.7954999991}},{"attributes":{"OBJECTID":20290,"LANDMARKID":"1001200000025","LANDMARKCO":"101","LANDMARKNA":"台灣高雄地方法院鳳山簡易庭","LANDMARKAD":"1001201","ADDRESS":"高雄市鳳山區國泰路二段96號","TEL":"07-7432027","COUNTYNAME":"高雄市","TOWNNAME":"鳳山區","MARKTYPE":"991","Class":"1"},"geometry":{"x":183098.78839999996,"y":2502260.9042000007}},{"attributes":{"OBJECTID":20291,"LANDMARKID":"1001200000109","LANDMARKCO":"105","LANDMARKNA":"高雄市鳳山地政事務所","LANDMARKAD":"1001201","ADDRESS":"高雄市鳳山區中山西路154之6號","TEL":"07-7400111","COUNTYNAME":"高雄市","TOWNNAME":"鳳山區","MARKTYPE":"991","Class":"1"},"geometry":{"x":183288.75619999971,"y":2503190.4668000005}},{"attributes":{"OBJECTID":20292,"LANDMARKID":"1001200000026","LANDMARKCO":"101","LANDMARKNA":"鳳山憲兵隊","LANDMARKAD":"1001201","ADDRESS":"高雄市鳳山區自由路100號","TEL":"07-7465550","COUNTYNAME":"高雄市","TOWNNAME":"鳳山區","MARKTYPE":"991","Class":"1"},"geometry":{"x":183420.5390999997,"y":2503011.0405000001}},{"attributes":{"OBJECTID":20293,"LANDMARKID":"1001200000027","LANDMARKCO":"101","LANDMARKNA":"行政院環境保護署南區環境督察大隊","LANDMARKAD":"1001201","ADDRESS":"高雄市鳳山區八德路323號","TEL":"07-7760000","COUNTYNAME":"高雄市","TOWNNAME":"鳳山區","MARKTYPE":"991","Class":"1"},"geometry":{"x":183646.57070000004,"y":2504540.7497000005}},{"attributes":{"OBJECTID":20294,"LANDMARKID":"1001200000028","LANDMARKCO":"101","LANDMARKNA":"高雄市後備指揮部","LANDMARKAD":"1001201","ADDRESS":"高雄市鳳山區和平路102號","TEL":"07-7470126","COUNTYNAME":"高雄市","TOWNNAME":"鳳山區","MARKTYPE":"991","Class":"1"},"geometry":{"x":183846.08090000041,"y":2503730.3920000009}},{"attributes":{"OBJECTID":20295,"LANDMARKID":"1001200000108","LANDMARKCO":"104","LANDMARKNA":"南區國稅局高雄市分局","LANDMARKAD":"1001201","ADDRESS":"高雄市鳳山區曹公路55之1號","TEL":"07-7404001","COUNTYNAME":"高雄市","TOWNNAME":"鳳山區","MARKTYPE":"991","Class":"1"},"geometry":{"x":183888.48000000045,"y":2503330.5809000004}},{"attributes":{"OBJECTID":20296,"LANDMARKID":"1001200000298","LANDMARKCO":"108","LANDMARKNA":"高雄市鳳山巿公所","LANDMARKAD":"1001201","ADDRESS":"高雄市鳳山區經武路30號","TEL":"07-7422111","COUNTYNAME":"高雄市","TOWNNAME":"鳳山區","MARKTYPE":"991","Class":"1"},"geometry":{"x":183921.01520000026,"y":2503130.727}},{"attributes":{"OBJECTID":20297,"LANDMARKID":"1001200000156","LANDMARKCO":"107","LANDMARKNA":"高雄市政府警察局總局","LANDMARKAD":"1001201","ADDRESS":"高雄市鳳山區光遠路388號","TEL":"07-7460105","COUNTYNAME":"高雄市","TOWNNAME":"鳳山區","MARKTYPE":"991","Class":"1"},"geometry":{"x":183984.36000000034,"y":2503051.0002999995}},{"attributes":{"OBJECTID":20298,"LANDMARKID":"1001200000157","LANDMARKCO":"107","LANDMARKNA":"高雄市政府警察局成功派出所","LANDMARKAD":"1001201","ADDRESS":"高雄市鳳山區誠正里中山東路16號","TEL":"07-7462453","COUNTYNAME":"高雄市","TOWNNAME":"鳳山區","MARKTYPE":"991","Class":"1"},"geometry":{"x":184080.89599999972,"y":2502850.1889999993}},{"attributes":{"OBJECTID":20299,"LANDMARKID":"1001200000029","LANDMARKCO":"101","LANDMARKNA":"內政部土地重劃工程處","LANDMARKAD":"1001201","ADDRESS":"高雄市鳳山區鳳崗路1號之8","TEL":"07-7100437","COUNTYNAME":"高雄市","TOWNNAME":"鳳山區","MARKTYPE":"991","Class":"1"},"geometry":{"x":184229.69120000023,"y":2503280.8176000006}},{"attributes":{"OBJECTID":20300,"LANDMARKID":"1001200000154","LANDMARKCO":"107","LANDMARKNA":"高雄市消防局鳳山消防分隊","LANDMARKAD":"1001201","ADDRESS":"高雄市鳳山區經武路36號","TEL":"07-7469595","COUNTYNAME":"高雄市","TOWNNAME":"鳳山區","MARKTYPE":"991","Class":"1"},"geometry":{"x":184469.7564000003,"y":2503190.6250999998}},{"attributes":{"OBJECTID":20301,"LANDMARKID":"1001200000155","LANDMARKCO":"107","LANDMARKNA":"高雄市消防局","LANDMARKAD":"1001201","ADDRESS":"高雄市鳳山區鳳頂路360號","TEL":"07-7926119","COUNTYNAME":"高雄市","TOWNNAME":"鳳山區","MARKTYPE":"991","Class":"1"},"geometry":{"x":184469.7564000003,"y":2503190.6250999998}},{"attributes":{"OBJECTID":20302,"LANDMARKID":"1001200000030","LANDMARKCO":"101","LANDMARKNA":"內政部國土測繪中心南區第二測","LANDMARKAD":"1001201","ADDRESS":"高雄市鳳山區王生明路123號1樓","TEL":"07-7192723","COUNTYNAME":"高雄市","TOWNNAME":"鳳山區","MARKTYPE":"991","Class":"1"},"geometry":{"x":184476.8470999999,"y":2502320.6666000001}},{"attributes":{"OBJECTID":20303,"LANDMARKID":"1001200000159","LANDMARKCO":"107","LANDMARKNA":"高雄市政府警察局鳳山分局","LANDMARKAD":"1001201","ADDRESS":"高雄市鳳山區新興里經武路36號","TEL":"07-7456110","COUNTYNAME":"高雄市","TOWNNAME":"鳳山區","MARKTYPE":"991","Class":"1"},"geometry":{"x":184498.7564000003,"y":2503190.7492999993}},{"attributes":{"OBJECTID":20304,"LANDMARKID":"1001200000160","LANDMARKCO":"107","LANDMARKNA":"高雄市政府警察局鳳崗派出所","LANDMARKAD":"1001201","ADDRESS":"高雄市鳳山區縣衙里曹公路23號","TEL":"07-7412244","COUNTYNAME":"高雄市","TOWNNAME":"鳳山區","MARKTYPE":"991","Class":"1"},"geometry":{"x":184498.7564000003,"y":2503190.7492999993}},{"attributes":{"OBJECTID":20305,"LANDMARKID":"1001200000161","LANDMARKCO":"107","LANDMARKNA":"高雄市政府警察局文山派出所","LANDMARKAD":"1001201","ADDRESS":"高雄市鳳山區文山里鳳松路127號","TEL":"07-7324341","COUNTYNAME":"高雄市","TOWNNAME":"鳳山區","MARKTYPE":"991","Class":"1"},"geometry":{"x":184587.87530000042,"y":2504701.1028000005}},{"attributes":{"OBJECTID":20306,"LANDMARKID":"1001200000031","LANDMARKCO":"101","LANDMARKNA":"職業訓練局鳳山就業服務站","LANDMARKAD":"1001201","ADDRESS":"高雄市鳳山區中山西路235號","TEL":"07-7410243","COUNTYNAME":"高雄市","TOWNNAME":"鳳山區","MARKTYPE":"991","Class":"1"},"geometry":{"x":184855.99029999971,"y":2502521.0622000005}},{"attributes":{"OBJECTID":20307,"LANDMARKID":"1001200000032","LANDMARKCO":"101","LANDMARKNA":"國軍退除役官兵輔導委員會","LANDMARKAD":"1001201","ADDRESS":"高雄市鳳山區勝利路2巷20號之1","TEL":"07-7035590","COUNTYNAME":"高雄市","TOWNNAME":"鳳山區","MARKTYPE":"991","Class":"1"},"geometry":{"x":185574.96800000034,"y":2503210.4532999992}},{"attributes":{"OBJECTID":20308,"LANDMARKID":"1001200000043","LANDMARKCO":"103","LANDMARKNA":"高雄市工商(業)發展投資策進會","LANDMARKAD":"1001201","ADDRESS":"高雄市鳳山區光復路二段132號","TEL":"07-7460411","COUNTYNAME":"高雄市","TOWNNAME":"鳳山區","MARKTYPE":"991","Class":"1"},"geometry":{"x":182543.09860000014,"y":2503420.9563999996}},{"attributes":{"OBJECTID":20309,"LANDMARKID":"1001200000158","LANDMARKCO":"107","LANDMARKNA":"高雄市政府警察局埤頂派出所","LANDMARKAD":"1001201","ADDRESS":"高雄市鳳山區埤頂里埤頂路67號","TEL":"07-7013272","COUNTYNAME":"高雄市","TOWNNAME":"鳳山區","MARKTYPE":"991","Class":"1"},"geometry":{"x":186364.49739999976,"y":2503320.1686000004}},{"attributes":{"OBJECTID":20310,"LANDMARKID":"1001200000595","LANDMARKCO":"204","LANDMARKNA":"高雄市立圖書館鳳山第二分館","LANDMARKAD":"1001201","ADDRESS":"高雄市鳳山區自強一路119巷75號","TEL":" ","COUNTYNAME":"高雄市","TOWNNAME":"鳳山區","MARKTYPE":"992","Class":"2"},"geometry":{"x":180844.75119999982,"y":2498975.5387999993}},{"attributes":{"OBJECTID":20311,"LANDMARKID":"1001200000596","LANDMARKCO":"204","LANDMARKNA":"高雄市立圖書館鳳山分館","LANDMARKAD":"1001201","ADDRESS":"高雄市鳳山區林森路141號","TEL":" ","COUNTYNAME":"高雄市","TOWNNAME":"鳳山區","MARKTYPE":"992","Class":"2"},"geometry":{"x":181440.80250000022,"y":2499473.7357999999}},{"attributes":{"OBJECTID":20312,"LANDMARKID":"1001200000597","LANDMARKCO":"204","LANDMARKNA":"國父紀念館","LANDMARKAD":"1001201","ADDRESS":" ","TEL":" ","COUNTYNAME":"高雄市","TOWNNAME":"鳳山區","MARKTYPE":"992","Class":"2"},"geometry":{"x":184548.83530000038,"y":2503087.9710000008}},{"attributes":{"OBJECTID":20313,"LANDMARKID":"1001200000334","LANDMARKCO":"202","LANDMARKNA":"縣立福誠高中","LANDMARKAD":"1001201","ADDRESS":"高雄市鳳山區五甲三路176號","TEL":"07-8224646","COUNTYNAME":"高雄市","TOWNNAME":"鳳山區","MARKTYPE":"992","Class":"2"},"geometry":{"x":180441.2220999999,"y":2499090.6043999996}},{"attributes":{"OBJECTID":20314,"LANDMARKID":"1001200000335","LANDMARKCO":"202","LANDMARKNA":"私立正義高中","LANDMARKAD":"1001201","ADDRESS":"高雄市鳳山區五甲二路南江街183號","TEL":"07-7225529","COUNTYNAME":"高雄市","TOWNNAME":"鳳山區","MARKTYPE":"992","Class":"2"},"geometry":{"x":182164.72890000045,"y":2500510.6030000001}},{"attributes":{"OBJECTID":20315,"LANDMARKID":"1001200000336","LANDMARKCO":"202","LANDMARKNA":"國立鳳新高中","LANDMARKAD":"1001201","ADDRESS":"高雄市鳳山區新富路257號","TEL":"07-7233461","COUNTYNAME":"高雄市","TOWNNAME":"鳳山區","MARKTYPE":"992","Class":"2"},"geometry":{"x":182434.67839999963,"y":2501670.5138000008}},{"attributes":{"OBJECTID":20316,"LANDMARKID":"1001200000337","LANDMARKCO":"202","LANDMARKNA":"國立鳳山高中","LANDMARKAD":"1001201","ADDRESS":"高雄市鳳山區光復路二段130號","TEL":"07-7429109","COUNTYNAME":"高雄市","TOWNNAME":"鳳山區","MARKTYPE":"992","Class":"2"},"geometry":{"x":182750.78969999962,"y":2503570.6045999993}},{"attributes":{"OBJECTID":20317,"LANDMARKID":"1001200000338","LANDMARKCO":"202","LANDMARKNA":"國立鳳山商工","LANDMARKAD":"1001201","ADDRESS":"高雄市鳳山區文衡路51號","TEL":"07-7462602","COUNTYNAME":"高雄市","TOWNNAME":"鳳山區","MARKTYPE":"992","Class":"2"},"geometry":{"x":183853.54590000026,"y":2503930.4185000006}},{"attributes":{"OBJECTID":20318,"LANDMARKID":"1001200000339","LANDMARKCO":"202","LANDMARKNA":"私立高旗工家","LANDMARKAD":"1001201","ADDRESS":"高雄市鳳山區鳳仁路90號","TEL":"07-7424323","COUNTYNAME":"高雄市","TOWNNAME":"鳳山區","MARKTYPE":"992","Class":"2"},"geometry":{"x":185127.81799999997,"y":2504170.9667000007}},{"attributes":{"OBJECTID":20319,"LANDMARKID":"1001200000340","LANDMARKCO":"202","LANDMARKNA":"私立正義高中附設國中部","LANDMARKAD":"1001201","ADDRESS":"高雄市鳳山區五甲二路南江街183號","TEL":"07-7225529","COUNTYNAME":"高雄市","TOWNNAME":"鳳山區","MARKTYPE":"992","Class":"2"},"geometry":{"x":182172.77309999987,"y":2500500.6385999992}},{"attributes":{"OBJECTID":20320,"LANDMARKID":"1001200000369","LANDMARKCO":"203","LANDMARKNA":"縣立五甲國中","LANDMARKAD":"1001201","ADDRESS":"高雄市鳳山區龍成路111號","TEL":"07-8316478","COUNTYNAME":"高雄市","TOWNNAME":"鳳山區","MARKTYPE":"992","Class":"2"},"geometry":{"x":180927.32010000013,"y":2499990.1974999998}},{"attributes":{"OBJECTID":20321,"LANDMARKID":"1001200000370","LANDMARKCO":"203","LANDMARKNA":"縣立鳳甲國中","LANDMARKAD":"1001201","ADDRESS":"高雄市鳳山區輜汽路300號","TEL":"07-7675300","COUNTYNAME":"高雄市","TOWNNAME":"鳳山區","MARKTYPE":"992","Class":"2"},"geometry":{"x":182395.93240000028,"y":2501920.3368999995}},{"attributes":{"OBJECTID":20322,"LANDMARKID":"1001200000371","LANDMARKCO":"203","LANDMARKNA":"縣立忠孝國中","LANDMARKAD":"1001201","ADDRESS":"高雄市鳳山區國泰路二段81號","TEL":"07-7635252","COUNTYNAME":"高雄市","TOWNNAME":"鳳山區","MARKTYPE":"992","Class":"2"},"geometry":{"x":182841.78670000006,"y":2502341.0274999999}},{"attributes":{"OBJECTID":20323,"LANDMARKID":"1001200000372","LANDMARKCO":"203","LANDMARKNA":"縣立青年國中","LANDMARKAD":"1001201","ADDRESS":"高雄市鳳山區青年路二段89號","TEL":"07-7190419","COUNTYNAME":"高雄市","TOWNNAME":"鳳山區","MARKTYPE":"992","Class":"2"},"geometry":{"x":183049.78490000032,"y":2503570.6609000005}},{"attributes":{"OBJECTID":20324,"LANDMARKID":"1001200000373","LANDMARKCO":"203","LANDMARKNA":"縣立鳳西國中","LANDMARKAD":"1001201","ADDRESS":"高雄市鳳山區興中里光華路69號","TEL":"07-7463452","COUNTYNAME":"高雄市","TOWNNAME":"鳳山區","MARKTYPE":"992","Class":"2"},"geometry":{"x":183495.64599999972,"y":2502370.1349999998}},{"attributes":{"OBJECTID":20325,"LANDMARKID":"1001200000374","LANDMARKCO":"203","LANDMARKNA":"縣立鳳山國中","LANDMARKAD":"1001201","ADDRESS":"高雄市鳳山區中山東路227號","TEL":"07-7462774","COUNTYNAME":"高雄市","TOWNNAME":"鳳山區","MARKTYPE":"992","Class":"2"},"geometry":{"x":185402.55920000002,"y":2503000.9386}},{"attributes":{"OBJECTID":20326,"LANDMARKID":"1001200000375","LANDMARKCO":"203","LANDMARKNA":"縣立中崙國中","LANDMARKAD":"1001201","ADDRESS":"高雄市鳳山區中崙二路487號","TEL":"07-7538686","COUNTYNAME":"高雄市","TOWNNAME":"鳳山區","MARKTYPE":"992","Class":"2"},"geometry":{"x":183522.6651999997,"y":2500520.2868000008}},{"attributes":{"OBJECTID":20327,"LANDMARKID":"1001200000376","LANDMARKCO":"203","LANDMARKNA":"縣立福誠國小","LANDMARKAD":"1001201","ADDRESS":"高雄市鳳山區忠誠路145號","TEL":"07-8120152","COUNTYNAME":"高雄市","TOWNNAME":"鳳山區","MARKTYPE":"992","Class":"2"},"geometry":{"x":180560.70079999976,"y":2499821.1335000005}},{"attributes":{"OBJECTID":20328,"LANDMARKID":"1001200000377","LANDMARKCO":"203","LANDMARKNA":"縣立五福國小","LANDMARKAD":"1001201","ADDRESS":"高雄市鳳山區五福里福德街145號","TEL":"07-8211864","COUNTYNAME":"高雄市","TOWNNAME":"鳳山區","MARKTYPE":"992","Class":"2"},"geometry":{"x":180697.71690000035,"y":2498980.4704}},{"attributes":{"OBJECTID":20329,"LANDMARKID":"1001200000378","LANDMARKCO":"203","LANDMARKNA":"縣立五甲國小","LANDMARKAD":"1001201","ADDRESS":"高雄市鳳山區五甲二路424號","TEL":"07-7619494","COUNTYNAME":"高雄市","TOWNNAME":"鳳山區","MARKTYPE":"992","Class":"2"},"geometry":{"x":181589.2686999999,"y":2500000.6011999995}},{"attributes":{"OBJECTID":20330,"LANDMARKID":"1001200000379","LANDMARKCO":"203","LANDMARKNA":"縣立南成國小","LANDMARKAD":"1001201","ADDRESS":"高雄市鳳山區南成里南和街101號","TEL":"07-8215354","COUNTYNAME":"高雄市","TOWNNAME":"鳳山區","MARKTYPE":"992","Class":"2"},"geometry":{"x":181715.85730000027,"y":2499561.1714999992}},{"attributes":{"OBJECTID":20331,"LANDMARKID":"1001200000380","LANDMARKCO":"203","LANDMARKNA":"縣立正義國小","LANDMARKAD":"1001201","ADDRESS":"高雄市鳳山區南昌街55號","TEL":"07-7714440","COUNTYNAME":"高雄市","TOWNNAME":"鳳山區","MARKTYPE":"992","Class":"2"},"geometry":{"x":182094.28689999972,"y":2500610.2910999991}},{"attributes":{"OBJECTID":20332,"LANDMARKID":"1001200000381","LANDMARKCO":"203","LANDMARKNA":"縣立新甲國小","LANDMARKAD":"1001201","ADDRESS":"高雄市鳳山區新甲里新富路255號","TEL":"07-7174693#10","COUNTYNAME":"高雄市","TOWNNAME":"鳳山區","MARKTYPE":"992","Class":"2"},"geometry":{"x":182175.81120000035,"y":2501640.6341999993}},{"attributes":{"OBJECTID":20333,"LANDMARKID":"1001200000382","LANDMARKCO":"203","LANDMARKNA":"縣立忠孝國小","LANDMARKAD":"1001201","ADDRESS":"高雄市鳳山區國光里新富路630號","TEL":"07-7632257","COUNTYNAME":"高雄市","TOWNNAME":"鳳山區","MARKTYPE":"992","Class":"2"},"geometry":{"x":183207.70419999957,"y":2502050.1309999991}},{"attributes":{"OBJECTID":20334,"LANDMARKID":"1001200000383","LANDMARKCO":"203","LANDMARKNA":"縣立中崙國小","LANDMARKAD":"1001201","ADDRESS":"高雄市鳳山區中崙四路25號","TEL":"07-7552307","COUNTYNAME":"高雄市","TOWNNAME":"鳳山區","MARKTYPE":"992","Class":"2"},"geometry":{"x":183217.12409999967,"y":2500030.2127999999}},{"attributes":{"OBJECTID":20335,"LANDMARKID":"1001200000384","LANDMARKCO":"203","LANDMARKNA":"縣立中山國小","LANDMARKAD":"1001201","ADDRESS":"高雄市鳳山區光復路一段120巷8號","TEL":"07-7458021","COUNTYNAME":"高雄市","TOWNNAME":"鳳山區","MARKTYPE":"992","Class":"2"},"geometry":{"x":183256.74560000002,"y":2503500.3215999994}},{"attributes":{"OBJECTID":20336,"LANDMARKID":"1001200000385","LANDMARKCO":"203","LANDMARKNA":"縣立文德國小","LANDMARKAD":"1001201","ADDRESS":"高雄市鳳山區文衡路356號","TEL":"07-7478723","COUNTYNAME":"高雄市","TOWNNAME":"鳳山區","MARKTYPE":"992","Class":"2"},"geometry":{"x":183568.00719999988,"y":2504670.4088000003}},{"attributes":{"OBJECTID":20337,"LANDMARKID":"1001200000386","LANDMARKCO":"203","LANDMARKNA":"縣立鳳山國小","LANDMARKAD":"1001201","ADDRESS":"高雄市鳳山區興仁里中山路231號","TEL":"07-7419119","COUNTYNAME":"高雄市","TOWNNAME":"鳳山區","MARKTYPE":"992","Class":"2"},"geometry":{"x":183795.85329999961,"y":2502860.1919999998}},{"attributes":{"OBJECTID":20338,"LANDMARKID":"1001200000387","LANDMARKCO":"203","LANDMARKNA":"縣立曹公國小","LANDMARKAD":"1001201","ADDRESS":"高雄市鳳山區曹公路6號","TEL":"07-7460449","COUNTYNAME":"高雄市","TOWNNAME":"鳳山區","MARKTYPE":"992","Class":"2"},"geometry":{"x":184016.99590000045,"y":2503211.1352999993}},{"attributes":{"OBJECTID":20339,"LANDMARKID":"1001200000388","LANDMARKCO":"203","LANDMARKNA":"縣立鳳西國小","LANDMARKAD":"1001201","ADDRESS":"高雄市鳳山區光華東路100號","TEL":"07-7417655","COUNTYNAME":"高雄市","TOWNNAME":"鳳山區","MARKTYPE":"992","Class":"2"},"geometry":{"x":184027.8217000002,"y":2502021.2043999992}},{"attributes":{"OBJECTID":20340,"LANDMARKID":"1001200000389","LANDMARKCO":"203","LANDMARKNA":"縣立文山國小","LANDMARKAD":"1001201","ADDRESS":"高雄市鳳山區鳳松路25巷20號","TEL":"07-7460444","COUNTYNAME":"高雄市","TOWNNAME":"鳳山區","MARKTYPE":"992","Class":"2"},"geometry":{"x":184156.6922000004,"y":2503820.4982999992}},{"attributes":{"OBJECTID":20341,"LANDMARKID":"1001200000390","LANDMARKCO":"203","LANDMARKNA":"縣立過埤國小","LANDMARKAD":"1001201","ADDRESS":"高雄市鳳山區過埤路176號","TEL":"07-7920257","COUNTYNAME":"高雄市","TOWNNAME":"鳳山區","MARKTYPE":"992","Class":"2"},"geometry":{"x":184389.02070000023,"y":2499130.3521999996}},{"attributes":{"OBJECTID":20342,"LANDMARKID":"1001200000391","LANDMARKCO":"203","LANDMARKNA":"縣立大東國小","LANDMARKAD":"1001201","ADDRESS":"高雄市鳳山區三民里光遠路161號","TEL":"07-7462344","COUNTYNAME":"高雄市","TOWNNAME":"鳳山區","MARKTYPE":"992","Class":"2"},"geometry":{"x":184533.89520000014,"y":2502850.9050999992}},{"attributes":{"OBJECTID":20343,"LANDMARKID":"1001200000392","LANDMARKCO":"203","LANDMARKNA":"縣立鎮北國小","LANDMARKAD":"1001201","ADDRESS":"高雄市鳳山區鎮北里鳳北路170號","TEL":"07-7311709","COUNTYNAME":"高雄市","TOWNNAME":"鳳山區","MARKTYPE":"992","Class":"2"},"geometry":{"x":185046.54399999976,"y":2504850.6109999996}},{"attributes":{"OBJECTID":20344,"LANDMARKID":"1001200000393","LANDMARKCO":"203","LANDMARKNA":"縣立瑞興國小","LANDMARKAD":"1001201","ADDRESS":"高雄市鳳山區博愛路271號","TEL":"07-7412963","COUNTYNAME":"高雄市","TOWNNAME":"鳳山區","MARKTYPE":"992","Class":"2"},"geometry":{"x":185074.08600000013,"y":2503420.7553000003}},{"attributes":{"OBJECTID":20345,"LANDMARKID":"1001200000394","LANDMARKCO":"203","LANDMARKNA":"縣立中正國小","LANDMARKAD":"1001201","ADDRESS":"高雄市鳳山區勝利路2號","TEL":"07-7012831","COUNTYNAME":"高雄市","TOWNNAME":"鳳山區","MARKTYPE":"992","Class":"2"},"geometry":{"x":185736.83930000011,"y":2503241.1338}},{"attributes":{"OBJECTID":20346,"LANDMARKID":"1001200000304","LANDMARKCO":"201","LANDMARKNA":"中正國防幹部預備學校","LANDMARKAD":"1001201","ADDRESS":"高雄市鳳山區凱旋路1號","TEL":"07-7414188","COUNTYNAME":"高雄市","TOWNNAME":"鳳山區","MARKTYPE":"992","Class":"2"},"geometry":{"x":184117.38870000001,"y":2500890.3800000008}},{"attributes":{"OBJECTID":20347,"LANDMARKID":"1001200000305","LANDMARKCO":"201","LANDMARKNA":"陸軍軍官學校","LANDMARKAD":"1001201","ADDRESS":"高雄市鳳山區維武路1號","TEL":"07-7462151","COUNTYNAME":"高雄市","TOWNNAME":"鳳山區","MARKTYPE":"992","Class":"2"},"geometry":{"x":184818.63920000009,"y":2502060.9087000005}},{"attributes":{"OBJECTID":20348,"LANDMARKID":"1001200000368","LANDMARKCO":"203","LANDMARKNA":"縣立誠正國小","LANDMARKAD":"1001201","ADDRESS":"高雄市鳳山區黃埔新村國校巷78號","TEL":"07-7463417","COUNTYNAME":"高雄市","TOWNNAME":"鳳山區","MARKTYPE":"992","Class":"2"},"geometry":{"x":184609.88370000012,"y":2501930.0243999995}},{"attributes":{"OBJECTID":20349,"LANDMARKID":"1001200000702","LANDMARKCO":"308","LANDMARKNA":"國1-五甲系統交流道-北上","LANDMARKAD":"1001201","ADDRESS":"高雄市鳳山區","TEL":" ","COUNTYNAME":"高雄市","TOWNNAME":"鳳山區","MARKTYPE":"993","Class":"308"},"geometry":{"x":182397.50679999962,"y":2500591.8098000009}},{"attributes":{"OBJECTID":20350,"LANDMARKID":"1001200000703","LANDMARKCO":"308","LANDMARKNA":"國1-五甲交流道-南下","LANDMARKAD":"1001201","ADDRESS":"高雄市鳳山區","TEL":" ","COUNTYNAME":"高雄市","TOWNNAME":"鳳山區","MARKTYPE":"993","Class":"308"},"geometry":{"x":181936.8498999998,"y":2499550.0669999998}},{"attributes":{"OBJECTID":20351,"LANDMARKID":"1001200000704","LANDMARKCO":"308","LANDMARKNA":"台88-五甲系統交流道-東行","LANDMARKAD":"1001201","ADDRESS":" ","TEL":" ","COUNTYNAME":"高雄市","TOWNNAME":"鳳山區","MARKTYPE":"993","Class":"308"},"geometry":{"x":182304.96609999985,"y":2499927.2464000005}},{"attributes":{"OBJECTID":20352,"LANDMARKID":"1001200000705","LANDMARKCO":"308","LANDMARKNA":"台88-鳳山交流道-西行","LANDMARKAD":"1001201","ADDRESS":" ","TEL":" ","COUNTYNAME":"高雄市","TOWNNAME":"鳳山區","MARKTYPE":"993","Class":"308"},"geometry":{"x":183927.9104000004,"y":2499079.6455000006}},{"attributes":{"OBJECTID":20353,"LANDMARKID":"1001200000706","LANDMARKCO":"308","LANDMARKNA":"台88-鳳山交流道-東行","LANDMARKAD":"1001201","ADDRESS":" ","TEL":" ","COUNTYNAME":"高雄市","TOWNNAME":"鳳山區","MARKTYPE":"993","Class":"308"},"geometry":{"x":184190.40099999961,"y":2499031.7273999993}},{"attributes":{"OBJECTID":20354,"LANDMARKID":"1001200000691","LANDMARKCO":"306","LANDMARKNA":"鳳山捷運站-出口1","LANDMARKAD":"1001201","ADDRESS":" ","TEL":" ","COUNTYNAME":"高雄市","TOWNNAME":"鳳山區","MARKTYPE":"993","Class":"306"},"geometry":{"x":183798.82120000012,"y":2502987.2193999998}},{"attributes":{"OBJECTID":20355,"LANDMARKID":"1001200000692","LANDMARKCO":"306","LANDMARKNA":"鳳山西捷運站-出口1","LANDMARKAD":"1001201","ADDRESS":" ","TEL":" ","COUNTYNAME":"高雄市","TOWNNAME":"鳳山區","MARKTYPE":"993","Class":"306"},"geometry":{"x":182916.63049999997,"y":2502886.2107999995}},{"attributes":{"OBJECTID":20356,"LANDMARKID":"1001200000693","LANDMARKCO":"306","LANDMARKNA":"鳳山西捷運站-出口2","LANDMARKAD":"1001201","ADDRESS":" ","TEL":" ","COUNTYNAME":"高雄市","TOWNNAME":"鳳山區","MARKTYPE":"993","Class":"306"},"geometry":{"x":183082.88839999959,"y":2502913.9011000004}},{"attributes":{"OBJECTID":20357,"LANDMARKID":"1001200000694","LANDMARKCO":"306","LANDMARKNA":"鳳山捷運站-出口2","LANDMARKAD":"1001201","ADDRESS":" ","TEL":" ","COUNTYNAME":"高雄市","TOWNNAME":"鳳山區","MARKTYPE":"993","Class":"306"},"geometry":{"x":183794.39290000033,"y":2503036.0002999995}},{"attributes":{"OBJECTID":20358,"LANDMARKID":"1001200000695","LANDMARKCO":"306","LANDMARKNA":"大東捷運站-出口1","LANDMARKAD":"1001201","ADDRESS":" ","TEL":" ","COUNTYNAME":"高雄市","TOWNNAME":"鳳山區","MARKTYPE":"993","Class":"306"},"geometry":{"x":184576.54330000002,"y":2502956.6802999992}},{"attributes":{"OBJECTID":20359,"LANDMARKID":"1001200000696","LANDMARKCO":"306","LANDMARKNA":"大東捷運站-出口2","LANDMARKAD":"1001201","ADDRESS":" ","TEL":" ","COUNTYNAME":"高雄市","TOWNNAME":"鳳山區","MARKTYPE":"993","Class":"306"},"geometry":{"x":184501.66980000027,"y":2502909.3345999997}},{"attributes":{"OBJECTID":20360,"LANDMARKID":"1001200000697","LANDMARKCO":"308","LANDMARKNA":"瑞隆路出口匝道","LANDMARKAD":"1001201","ADDRESS":"高雄市鳳山區","TEL":" ","COUNTYNAME":"高雄市","TOWNNAME":"鳳山區","MARKTYPE":"993","Class":"308"},"geometry":{"x":182211.83899999969,"y":2500948.2810999993}},{"attributes":{"OBJECTID":20361,"LANDMARKID":"1001200000617","LANDMARKCO":"302","LANDMARKNA":"高雄汽車客運鳳山站","LANDMARKAD":"1001201","ADDRESS":"高雄市鳳山區中山路138號","TEL":" ","COUNTYNAME":"高雄市","TOWNNAME":"鳳山區","MARKTYPE":"993","Class":"302"},"geometry":{"x":183945.77369999979,"y":2502791.5044999998}},{"attributes":{"OBJECTID":20362,"LANDMARKID":"1001200000618","LANDMARKCO":"302","LANDMARKNA":"高雄汽車客運公司","LANDMARKAD":"1001201","ADDRESS":"高雄市鳳山區中山路138號1樓","TEL":" ","COUNTYNAME":"高雄市","TOWNNAME":"鳳山區","MARKTYPE":"993","Class":"302"},"geometry":{"x":184050.6129999999,"y":2502653.3140999991}},{"attributes":{"OBJECTID":20363,"LANDMARKID":"1001200000669","LANDMARKCO":"303","LANDMARKNA":"鳳山火車站停車場","LANDMARKAD":"1001201","ADDRESS":"高雄市鳳山區曹公路","TEL":" ","COUNTYNAME":"高雄市","TOWNNAME":"鳳山區","MARKTYPE":"993","Class":"303"},"geometry":{"x":183996.18630000018,"y":2503582.7992000002}},{"attributes":{"OBJECTID":20364,"LANDMARKID":"1001200000670","LANDMARKCO":"303","LANDMARKNA":"中山公園停車場","LANDMARKAD":"1001201","ADDRESS":"高雄市鳳山區","TEL":" ","COUNTYNAME":"高雄市","TOWNNAME":"鳳山區","MARKTYPE":"993","Class":"303"},"geometry":{"x":184173.04910000041,"y":2501704.2238999996}},{"attributes":{"OBJECTID":20365,"LANDMARKID":"1001200000671","LANDMARKCO":"303","LANDMARKNA":"鳳山區公所停車場","LANDMARKAD":"1001201","ADDRESS":"高雄市鳳山區精武路","TEL":"07-7422111","COUNTYNAME":"高雄市","TOWNNAME":"鳳山區","MARKTYPE":"993","Class":"303"},"geometry":{"x":184458.0504999999,"y":2503144.5130000003}},{"attributes":{"OBJECTID":20366,"LANDMARKID":"1001200000672","LANDMARKCO":"303","LANDMARKNA":"國泰大樓旁停車場","LANDMARKAD":"1001201","ADDRESS":"高雄市鳳山區光遠路","TEL":" ","COUNTYNAME":"高雄市","TOWNNAME":"鳳山區","MARKTYPE":"993","Class":"303"},"geometry":{"x":184537.27759999968,"y":2503043.2586000003}},{"attributes":{"OBJECTID":20367,"LANDMARKID":"1001200000673","LANDMARKCO":"303","LANDMARKNA":"中正公園停車場","LANDMARKAD":"1001201","ADDRESS":"高雄市新興里鳳山區精武路","TEL":" ","COUNTYNAME":"高雄市","TOWNNAME":"鳳山區","MARKTYPE":"993","Class":"303"},"geometry":{"x":184505.30099999998,"y":2503260.2137000002}},{"attributes":{"OBJECTID":20368,"LANDMARKID":"1001200000674","LANDMARKCO":"303","LANDMARKNA":"縣政府停車場","LANDMARKAD":"1001201","ADDRESS":"高雄市鳳山區","TEL":" ","COUNTYNAME":"高雄市","TOWNNAME":"鳳山區","MARKTYPE":"993","Class":"303"},"geometry":{"x":182382.91260000039,"y":2503504.4788000006}},{"attributes":{"OBJECTID":20369,"LANDMARKID":"1001200000675","LANDMARKCO":"303","LANDMARKNA":"鳳山收費停車場","LANDMARKAD":"1001201","ADDRESS":"高雄市鳳山區","TEL":" ","COUNTYNAME":"高雄市","TOWNNAME":"鳳山區","MARKTYPE":"993","Class":"303"},"geometry":{"x":183766.66089999955,"y":2502992.8741999995}},{"attributes":{"OBJECTID":20370,"LANDMARKID":"1001200000616","LANDMARKCO":"301","LANDMARKNA":"鳳山火車站","LANDMARKAD":"1001201","ADDRESS":"高雄市鳳山區曹公路68號","TEL":"07-7460423","COUNTYNAME":"高雄市","TOWNNAME":"鳳山區","MARKTYPE":"993","Class":"301"},"geometry":{"x":183966.35170000046,"y":2503626.1179000009}},{"attributes":{"OBJECTID":20371,"LANDMARKID":"1001200000771","LANDMARKCO":"402","LANDMARKNA":"中華電信-鳳山青年特約服務中心","LANDMARKAD":"1001201","ADDRESS":"高雄市鳳山區青年路二段284號","TEL":"07-7767488","COUNTYNAME":"高雄市","TOWNNAME":"鳳山區","MARKTYPE":"994","Class":"4"},"geometry":{"x":183307.24909999967,"y":2504540.2591999993}},{"attributes":{"OBJECTID":20372,"LANDMARKID":"1001200000772","LANDMARKCO":"402","LANDMARKNA":"中華電信-鳳山鳳西特約服務中心","LANDMARKAD":"1001201","ADDRESS":"高雄市鳳山區五甲一路118號","TEL":"07-7109088","COUNTYNAME":"高雄市","TOWNNAME":"鳳山區","MARKTYPE":"994","Class":"4"},"geometry":{"x":183859.26860000007,"y":2502410.5997000001}},{"attributes":{"OBJECTID":20373,"LANDMARKID":"1001200000773","LANDMARKCO":"402","LANDMARKNA":"中華電信-五甲服務中心","LANDMARKAD":"1001201","ADDRESS":"高雄市鳳山區五甲二路280號","TEL":"123或0800-080-123","COUNTYNAME":"高雄市","TOWNNAME":"鳳山區","MARKTYPE":"994","Class":"4"},"geometry":{"x":182001.74199999962,"y":2500176.7068000007}},{"attributes":{"OBJECTID":20374,"LANDMARKID":"1001200000774","LANDMARKCO":"402","LANDMARKNA":"中華電信-五甲鎮南特約服務中心","LANDMARKAD":"1001201","ADDRESS":"高雄市鳳山區五甲二路638號","TEL":"07-8126966","COUNTYNAME":"高雄市","TOWNNAME":"鳳山區","MARKTYPE":"994","Class":"4"},"geometry":{"x":181248.21509999968,"y":2499676.4238000009}},{"attributes":{"OBJECTID":20375,"LANDMARKID":"1001200000775","LANDMARKCO":"402","LANDMARKNA":"中華電信-鳳山光遠特約服務中心","LANDMARKAD":"1001201","ADDRESS":"高雄市鳳山區光遠路2號","TEL":"07-7429488","COUNTYNAME":"高雄市","TOWNNAME":"鳳山區","MARKTYPE":"994","Class":"4"},"geometry":{"x":185033.64639999997,"y":2502674.7805000003}},{"attributes":{"OBJECTID":20376,"LANDMARKID":"1001200000776","LANDMARKCO":"402","LANDMARKNA":"中華電信-鳳山海洋特約服務中心","LANDMARKAD":"1001201","ADDRESS":"高雄市鳳山區海洋二路146號","TEL":"07-7636344","COUNTYNAME":"高雄市","TOWNNAME":"鳳山區","MARKTYPE":"994","Class":"4"},"geometry":{"x":183029.5279000001,"y":2501523.7068000007}},{"attributes":{"OBJECTID":20377,"LANDMARKID":"1001200000777","LANDMARKCO":"402","LANDMARKNA":"中華電信-曹公服務中心","LANDMARKAD":"1001201","ADDRESS":"高雄市鳳山區曹公路25號","TEL":"(07)344-7463","COUNTYNAME":"高雄市","TOWNNAME":"鳳山區","MARKTYPE":"994","Class":"4"},"geometry":{"x":183925.45500000007,"y":2503180.0811000001}},{"attributes":{"OBJECTID":20378,"LANDMARKID":"1001200000778","LANDMARKCO":"402","LANDMARKNA":"中華電信-鳳山營運處服務中心","LANDMARKAD":"1001201","ADDRESS":"高雄市鳳山區經武路58號","TEL":"123或0800-080-123","COUNTYNAME":"高雄市","TOWNNAME":"鳳山區","MARKTYPE":"994","Class":"4"},"geometry":{"x":184632.94419999979,"y":2503934.2522}},{"attributes":{"OBJECTID":20379,"LANDMARKID":"1001200000779","LANDMARKCO":"402","LANDMARKNA":"中華電信-桂林服務中心","LANDMARKAD":"1001201","ADDRESS":"高雄市鳳山區鳳頂路61號","TEL":"(07)344-7468","COUNTYNAME":"高雄市","TOWNNAME":"鳳山區","MARKTYPE":"994","Class":"4"},"geometry":{"x":184037.6799999997,"y":2498638.2657999992}},{"attributes":{"OBJECTID":20380,"LANDMARKID":"1001200000780","LANDMARKCO":"402","LANDMARKNA":"遠傳電信-鳳山門市","LANDMARKAD":"1001201","ADDRESS":"高雄市鳳山區中山西路262號","TEL":" ","COUNTYNAME":"高雄市","TOWNNAME":"鳳山區","MARKTYPE":"994","Class":"4"},"geometry":{"x":182685.62530000042,"y":2503268.1162999999}},{"attributes":{"OBJECTID":20381,"LANDMARKID":"1001200000781","LANDMARKCO":"402","LANDMARKNA":"遠傳電信-鳳山光遠門市","LANDMARKAD":"1001201","ADDRESS":"高雄市鳳山區光遠路116號","TEL":" ","COUNTYNAME":"高雄市","TOWNNAME":"鳳山區","MARKTYPE":"994","Class":"4"},"geometry":{"x":184759.89049999975,"y":2502845.5289999992}},{"attributes":{"OBJECTID":20382,"LANDMARKID":"1001200000782","LANDMARKCO":"402","LANDMARKNA":"大眾電信(震旦通訊)-鳳山中山店","LANDMARKAD":"1001201","ADDRESS":"高雄市鳳山區中山路146-4號","TEL":"07-7101370","COUNTYNAME":"高雄市","TOWNNAME":"鳳山區","MARKTYPE":"994","Class":"4"},"geometry":{"x":183893.38210000005,"y":2502927.4998000003}},{"attributes":{"OBJECTID":20383,"LANDMARKID":"1001200000783","LANDMARKCO":"402","LANDMARKNA":"大眾電信(震旦通訊)-鳳山五甲店","LANDMARKAD":"1001201","ADDRESS":"高雄市鳳山區五甲二路538號","TEL":"07-7687606","COUNTYNAME":"高雄市","TOWNNAME":"鳳山區","MARKTYPE":"994","Class":"4"},"geometry":{"x":181471.23359999992,"y":2499772.4781999998}},{"attributes":{"OBJECTID":20384,"LANDMARKID":"1001200000784","LANDMARKCO":"402","LANDMARKNA":"大眾電信(震旦通訊)-鳳山軍校店","LANDMARKAD":"1001201","ADDRESS":"高雄市鳳山區王生明路200號","TEL":"07-7199666","COUNTYNAME":"高雄市","TOWNNAME":"鳳山區","MARKTYPE":"994","Class":"4"},"geometry":{"x":184524.19159999955,"y":2502393.5228000004}},{"attributes":{"OBJECTID":20385,"LANDMARKID":"1001200000785","LANDMARKCO":"402","LANDMARKNA":"大眾電信-鳳頂專賣店","LANDMARKAD":"1001201","ADDRESS":"高雄市鳳山區保生路168號","TEL":"07-7963311","COUNTYNAME":"高雄市","TOWNNAME":"鳳山區","MARKTYPE":"994","Class":"4"},"geometry":{"x":183993.64439999964,"y":2499357.2632999998}},{"attributes":{"OBJECTID":20386,"LANDMARKID":"1001200001379","LANDMARKCO":"603","LANDMARKNA":"友誼別館","LANDMARKAD":"1001201","ADDRESS":"高雄市鳳山區中山東路380巷63號","TEL":"07-7013527","COUNTYNAME":"高雄市","TOWNNAME":"鳳山區","MARKTYPE":"996","Class":"6"},"geometry":{"x":186497.55580000021,"y":2503120.1209999993}},{"attributes":{"OBJECTID":20387,"LANDMARKID":"1001200001380","LANDMARKCO":"603","LANDMARKNA":"金屋大旅社","LANDMARKAD":"1001201","ADDRESS":"高雄市鳳山區新生街58巷4-5號","TEL":"07-7462108","COUNTYNAME":"高雄市","TOWNNAME":"鳳山區","MARKTYPE":"996","Class":"6"},"geometry":{"x":183663.83100000024,"y":2503499.5655000005}},{"attributes":{"OBJECTID":20388,"LANDMARKID":"1001200001381","LANDMARKCO":"603","LANDMARKNA":"康橋大飯店-五甲店","LANDMARKAD":"1001201","ADDRESS":"高雄市鳳山區福德街143巷20","TEL":"22號","COUNTYNAME":"高雄市","TOWNNAME":"鳳山區","MARKTYPE":"996","Class":"6"},"geometry":{"x":180793.23209999967,"y":2499046.0505999997}},{"attributes":{"OBJECTID":20389,"LANDMARKID":"1001200001382","LANDMARKCO":"603","LANDMARKNA":"金銀島汽車旅館-新富店","LANDMARKAD":"1001201","ADDRESS":"高雄市鳳山區大明路223號","TEL":"07-7638933","COUNTYNAME":"高雄市","TOWNNAME":"鳳山區","MARKTYPE":"996","Class":"6"},"geometry":{"x":182294.55090000015,"y":2501482.4156999998}},{"attributes":{"OBJECTID":20390,"LANDMARKID":"1001200001383","LANDMARKCO":"603","LANDMARKNA":"簡愛汽車旅館","LANDMARKAD":"1001201","ADDRESS":"高雄市鳳山區錦田路161號","TEL":"07-8419999","COUNTYNAME":"高雄市","TOWNNAME":"鳳山區","MARKTYPE":"996","Class":"6"},"geometry":{"x":181899.55599999987,"y":2499506.3314999994}},{"attributes":{"OBJECTID":20391,"LANDMARKID":"1001200001384","LANDMARKCO":"603","LANDMARKNA":"新棋大旅社","LANDMARKAD":"1001201","ADDRESS":"高雄市鳳山區錦田路226號","TEL":"07-8217407","COUNTYNAME":"高雄市","TOWNNAME":"鳳山區","MARKTYPE":"996","Class":"6"},"geometry":{"x":181233.51169999968,"y":2499619.6179000009}},{"attributes":{"OBJECTID":20392,"LANDMARKID":"1001200001385","LANDMARKCO":"603","LANDMARKNA":"克來大飯店","LANDMARKAD":"1001201","ADDRESS":"高雄市鳳山區五甲一路130號","TEL":"07-7469692","COUNTYNAME":"高雄市","TOWNNAME":"鳳山區","MARKTYPE":"996","Class":"6"},"geometry":{"x":183840.86699999962,"y":2502391.443}},{"attributes":{"OBJECTID":20393,"LANDMARKID":"1001200001386","LANDMARKCO":"603","LANDMARKNA":"春天藝術大飯店 (豪盈)","LANDMARKAD":"1001201","ADDRESS":"高雄市鳳山區五甲一路364號1-7樓","TEL":"07-7631027","COUNTYNAME":"高雄市","TOWNNAME":"鳳山區","MARKTYPE":"996","Class":"6"},"geometry":{"x":183260.94940000027,"y":2501542.0581}},{"attributes":{"OBJECTID":20394,"LANDMARKID":"1001200001387","LANDMARKCO":"603","LANDMARKNA":"高興大旅社","LANDMARKAD":"1001201","ADDRESS":"高雄市鳳山區五甲一路39號","TEL":"07-7463232","COUNTYNAME":"高雄市","TOWNNAME":"鳳山區","MARKTYPE":"996","Class":"6"},"geometry":{"x":184000.21009999979,"y":2502527.0905000009}},{"attributes":{"OBJECTID":20395,"LANDMARKID":"1001200001388","LANDMARKCO":"603","LANDMARKNA":"麗都大旅社","LANDMARKAD":"1001201","ADDRESS":"高雄市鳳山區五甲一路86號","TEL":"07-7465026","COUNTYNAME":"高雄市","TOWNNAME":"鳳山區","MARKTYPE":"996","Class":"6"},"geometry":{"x":183913.54800000042,"y":2502484.1261999998}},{"attributes":{"OBJECTID":20396,"LANDMARKID":"1001200001389","LANDMARKCO":"603","LANDMARKNA":"麗馨汽車旅館","LANDMARKAD":"1001201","ADDRESS":"高雄市鳳山區文鳳路96號","TEL":"07-7775036","COUNTYNAME":"高雄市","TOWNNAME":"鳳山區","MARKTYPE":"996","Class":"6"},"geometry":{"x":183093.35720000044,"y":2504873.3758000005}},{"attributes":{"OBJECTID":20397,"LANDMARKID":"1001200001390","LANDMARKCO":"603","LANDMARKNA":"新鎔大旅社","LANDMARKAD":"1001201","ADDRESS":"高雄市鳳山區文衡路18號","TEL":"07-7462536","COUNTYNAME":"高雄市","TOWNNAME":"鳳山區","MARKTYPE":"996","Class":"6"},"geometry":{"x":184000.06599999964,"y":2503760.2101000007}},{"attributes":{"OBJECTID":20398,"LANDMARKID":"1001200001391","LANDMARKCO":"603","LANDMARKNA":"麗園大旅社","LANDMARKAD":"1001201","ADDRESS":"高雄市鳳山區自由路12號","TEL":"07-7462186-2","COUNTYNAME":"高雄市","TOWNNAME":"鳳山區","MARKTYPE":"996","Class":"6"},"geometry":{"x":183662.08690000046,"y":2503022.5286999997}},{"attributes":{"OBJECTID":20399,"LANDMARKID":"1001200001392","LANDMARKCO":"603","LANDMARKNA":"五甲賓館","LANDMARKAD":"1001201","ADDRESS":"高雄市鳳山區自強二路1號3-5樓","TEL":"07-8317171","COUNTYNAME":"高雄市","TOWNNAME":"鳳山區","MARKTYPE":"996","Class":"6"},"geometry":{"x":180918.11070000008,"y":2499423.2448999994}},{"attributes":{"OBJECTID":20400,"LANDMARKID":"1001200001393","LANDMARKCO":"603","LANDMARKNA":"西子灣汽車旅館","LANDMARKAD":"1001201","ADDRESS":"高雄市鳳山區和平路36號","TEL":"07-7482220","COUNTYNAME":"高雄市","TOWNNAME":"鳳山區","MARKTYPE":"996","Class":"6"},"geometry":{"x":184170.60080000013,"y":2503689.7687999997}}]}