{"displayFieldName":"COUNTYNAME","fieldAliases":{"OBJECTID":"OBJECTID","LANDMARKID":"LANDMARKID","LANDMARKCO":"LANDMARKCO","LANDMARKNA":"LANDMARKNA","LANDMARKAD":"LANDMARKAD","ADDRESS":"ADDRESS","TEL":"TEL","COUNTYNAME":"COUNTYNAME","TOWNNAME":"TOWNNAME","MARKTYPE":"MARKTYPE","Class":"Class"},"geometryType":"esriGeometryPoint","spatialReference":{"wkid":102443},"fields":[{"name":"OBJECTID","type":"esriFieldTypeOID","alias":"OBJECTID"},{"name":"LANDMARKID","type":"esriFieldTypeString","alias":"LANDMARKID","length":15},{"name":"LANDMARKCO","type":"esriFieldTypeString","alias":"LANDMARKCO","length":15},{"name":"LANDMARKNA","type":"esriFieldTypeString","alias":"LANDMARKNA","length":50},{"name":"LANDMARKAD","type":"esriFieldTypeString","alias":"LANDMARKAD","length":15},{"name":"ADDRESS","type":"esriFieldTypeString","alias":"ADDRESS","length":56},{"name":"TEL","type":"esriFieldTypeString","alias":"TEL","length":36},{"name":"COUNTYNAME","type":"esriFieldTypeString","alias":"COUNTYNAME","length":15},{"name":"TOWNNAME","type":"esriFieldTypeString","alias":"TOWNNAME","length":13},{"name":"MARKTYPE","type":"esriFieldTypeString","alias":"MARKTYPE","length":12},{"name":"Class","type":"esriFieldTypeString","alias":"Class","length":5}],"features":[{"attributes":{"OBJECTID":15201,"LANDMARKID":"1001300000973","LANDMARKCO":"405","LANDMARKNA":"台亞加油站-大屏東站（台塑）","LANDMARKAD":"1001301","ADDRESS":"屏東市和生路二段596號","TEL":"(08)751-0913","COUNTYNAME":"屏東縣","TOWNNAME":"屏東市","MARKTYPE":"994","Class":"4"},"geometry":{"x":195305.33889999986,"y":2506261.6980000008}},{"attributes":{"OBJECTID":15202,"LANDMARKID":"1001300000974","LANDMARKCO":"405","LANDMARKNA":"台亞加油站-同泰興站(台塑)","LANDMARKAD":"1001301","ADDRESS":"屏東縣屏東市海豐路2號之16","TEL":"08-7360203","COUNTYNAME":"屏東縣","TOWNNAME":"屏東市","MARKTYPE":"994","Class":"4"},"geometry":{"x":199706.7209999999,"y":2511218.6073000003}},{"attributes":{"OBJECTID":15203,"LANDMARKID":"1001300000002","LANDMARKCO":"101","LANDMARKNA":"高雄區監理所屏東監理站","LANDMARKAD":"1001301","ADDRESS":"屏東縣屏東市忠孝路222號","TEL":"08-7666736","COUNTYNAME":"屏東縣","TOWNNAME":"屏東市","MARKTYPE":"991","Class":"1"},"geometry":{"x":197493.66089999955,"y":2510330.0331999995}},{"attributes":{"OBJECTID":15204,"LANDMARKID":"1001300000265","LANDMARKCO":"107","LANDMARKNA":"屏東縣警察局海豐派出所","LANDMARKAD":"1001301","ADDRESS":"屏東縣屏東市三山里海豐街18號","TEL":"08-7367704","COUNTYNAME":"屏東縣","TOWNNAME":"屏東市","MARKTYPE":"991","Class":"1"},"geometry":{"x":199546.40380000044,"y":2511020.2072000001}},{"attributes":{"OBJECTID":15205,"LANDMARKID":"1001300000266","LANDMARKCO":"107","LANDMARKNA":"屏東縣警察局崇蘭派出所","LANDMARKAD":"1001301","ADDRESS":"屏東縣屏東市迪化街48號","TEL":"08-7656206","COUNTYNAME":"屏東縣","TOWNNAME":"屏東市","MARKTYPE":"991","Class":"1"},"geometry":{"x":196634.99739999976,"y":2509620.0326000005}},{"attributes":{"OBJECTID":15206,"LANDMARKID":"1001300000003","LANDMARKCO":"101","LANDMARKNA":"水利署第七河川局","LANDMARKAD":"1001301","ADDRESS":"屏東縣屏東市建國路291號","TEL":"08-7554502","COUNTYNAME":"屏東縣","TOWNNAME":"屏東市","MARKTYPE":"991","Class":"1"},"geometry":{"x":195832.61490000039,"y":2507270.2551000006}},{"attributes":{"OBJECTID":15207,"LANDMARKID":"1001300000004","LANDMARKCO":"101","LANDMARKNA":"水利署南區水資源局第二辦公處","LANDMARKAD":"1001301","ADDRESS":"屏東縣屏東市建國路291號","TEL":"08-7557077","COUNTYNAME":"屏東縣","TOWNNAME":"屏東市","MARKTYPE":"991","Class":"1"},"geometry":{"x":195834.61479999963,"y":2507270.2621999998}},{"attributes":{"OBJECTID":15208,"LANDMARKID":"1001300000095","LANDMARKCO":"103","LANDMARKNA":"屏東縣議會","LANDMARKAD":"1001301","ADDRESS":"屏東縣屏東市忠孝路223號","TEL":"08-7348861","COUNTYNAME":"屏東縣","TOWNNAME":"屏東市","MARKTYPE":"991","Class":"1"},"geometry":{"x":197451.10580000002,"y":2509112.1359000001}},{"attributes":{"OBJECTID":15209,"LANDMARKID":"1001300000005","LANDMARKCO":"101","LANDMARKNA":"台灣屏東地方法院屏東簡易庭","LANDMARKAD":"1001301","ADDRESS":"屏東縣屏東市合作街47號","TEL":"08-7550670","COUNTYNAME":"屏東縣","TOWNNAME":"屏東市","MARKTYPE":"991","Class":"1"},"geometry":{"x":196962.55549999978,"y":2506181.4732000008}},{"attributes":{"OBJECTID":15210,"LANDMARKID":"1001300000006","LANDMARKCO":"101","LANDMARKNA":"台灣屏東地方法院檢察署","LANDMARKAD":"1001301","ADDRESS":"屏東縣屏東市棒球路11號","TEL":"08-7535211","COUNTYNAME":"屏東縣","TOWNNAME":"屏東市","MARKTYPE":"991","Class":"1"},"geometry":{"x":196870.17229999974,"y":2506312.1431000009}},{"attributes":{"OBJECTID":15211,"LANDMARKID":"1001300000007","LANDMARKCO":"101","LANDMARKNA":"調查局屏東縣調查站","LANDMARKAD":"1001301","ADDRESS":"屏東縣屏東市合作街51號","TEL":"08-7539800","COUNTYNAME":"屏東縣","TOWNNAME":"屏東市","MARKTYPE":"991","Class":"1"},"geometry":{"x":196950.79839999974,"y":2506111.4323999994}},{"attributes":{"OBJECTID":15212,"LANDMARKID":"1001300000124","LANDMARKCO":"105","LANDMARKNA":"屏東縣政府地政局","LANDMARKAD":"1001301","ADDRESS":"屏東縣屏東市自由路527號","TEL":"08-7320415#0","COUNTYNAME":"屏東縣","TOWNNAME":"屏東市","MARKTYPE":"991","Class":"1"},"geometry":{"x":197385.58910000045,"y":2509261.9102999996}},{"attributes":{"OBJECTID":15213,"LANDMARKID":"1001300000125","LANDMARKCO":"105","LANDMARKNA":"屏東縣屏東地政事務所","LANDMARKAD":"1001301","ADDRESS":"屏東縣屏東市自由路529號","TEL":"08-7325253","COUNTYNAME":"屏東縣","TOWNNAME":"屏東市","MARKTYPE":"991","Class":"1"},"geometry":{"x":197269.57290000003,"y":2509261.5099999998}},{"attributes":{"OBJECTID":15214,"LANDMARKID":"1001300000096","LANDMARKCO":"103","LANDMARKNA":"屏東縣政府民政處","LANDMARKAD":"1001301","ADDRESS":"屏東縣屏東市自由路527號","TEL":"08-7337842","COUNTYNAME":"屏東縣","TOWNNAME":"屏東市","MARKTYPE":"991","Class":"1"},"geometry":{"x":197385.58910000045,"y":2509261.9102999996}},{"attributes":{"OBJECTID":15215,"LANDMARKID":"1001300000134","LANDMARKCO":"106","LANDMARKNA":"屏東縣屏東市戶政事務所","LANDMARKAD":"1001301","ADDRESS":"屏東縣屏東市自由路531號","TEL":"08-7322539","COUNTYNAME":"屏東縣","TOWNNAME":"屏東市","MARKTYPE":"991","Class":"1"},"geometry":{"x":197270.64199999999,"y":2509241.5136999991}},{"attributes":{"OBJECTID":15216,"LANDMARKID":"1001300000253","LANDMARKCO":"107","LANDMARKNA":"屏東縣消防局","LANDMARKAD":"1001301","ADDRESS":"屏東縣屏東市和興里忠孝路226號","TEL":"08-7662911","COUNTYNAME":"屏東縣","TOWNNAME":"屏東市","MARKTYPE":"991","Class":"1"},"geometry":{"x":197629.93439999968,"y":2510391.7515999991}},{"attributes":{"OBJECTID":15217,"LANDMARKID":"1001300000254","LANDMARKCO":"107","LANDMARKNA":"屏東縣消防局第一消防大隊部","LANDMARKAD":"1001301","ADDRESS":"屏東縣屏東市勝利東路47號2樓","TEL":"08-7360163#6901","COUNTYNAME":"屏東縣","TOWNNAME":"屏東市","MARKTYPE":"991","Class":"1"},"geometry":{"x":198470.79590000026,"y":2508591.7124000005}},{"attributes":{"OBJECTID":15218,"LANDMARKID":"1001300000255","LANDMARKCO":"107","LANDMARKNA":"屏東縣消防局屏東消防分隊","LANDMARKAD":"1001301","ADDRESS":"屏東縣屏東市勝利東路47號","TEL":"08-7360163","COUNTYNAME":"屏東縣","TOWNNAME":"屏東市","MARKTYPE":"991","Class":"1"},"geometry":{"x":198470.79590000026,"y":2508591.7124000005}},{"attributes":{"OBJECTID":15219,"LANDMARKID":"1001300000256","LANDMARKCO":"107","LANDMARKNA":"屏東縣警察局","LANDMARKAD":"1001301","ADDRESS":"屏東縣屏東市中正路119號","TEL":"08-7322156","COUNTYNAME":"屏東縣","TOWNNAME":"屏東市","MARKTYPE":"991","Class":"1"},"geometry":{"x":197489.70239999983,"y":2508301.2950999998}},{"attributes":{"OBJECTID":15220,"LANDMARKID":"1001300000257","LANDMARKCO":"107","LANDMARKNA":"屏東縣警察局屏東分局","LANDMARKAD":"1001301","ADDRESS":"屏東縣屏東市武廟里永福路19號","TEL":"08-7322075","COUNTYNAME":"屏東縣","TOWNNAME":"屏東市","MARKTYPE":"991","Class":"1"},"geometry":{"x":197323.71030000038,"y":2507991.7114000004}},{"attributes":{"OBJECTID":15221,"LANDMARKID":"1001300000258","LANDMARKCO":"107","LANDMARKNA":"屏東縣警察局大同派出所","LANDMARKAD":"1001301","ADDRESS":"屏東縣屏東市清進巷208號","TEL":"08-7555413","COUNTYNAME":"屏東縣","TOWNNAME":"屏東市","MARKTYPE":"991","Class":"1"},"geometry":{"x":195046.30989999976,"y":2505931.7809999995}},{"attributes":{"OBJECTID":15222,"LANDMARKID":"1001300000259","LANDMARKCO":"107","LANDMARKNA":"屏東縣警察局建國派出所","LANDMARKAD":"1001301","ADDRESS":"屏東縣屏東市一心里復興路243號","TEL":"08-7522978","COUNTYNAME":"屏東縣","TOWNNAME":"屏東市","MARKTYPE":"991","Class":"1"},"geometry":{"x":197415.54810000025,"y":2507112.0384999998}},{"attributes":{"OBJECTID":15223,"LANDMARKID":"1001300000260","LANDMARKCO":"107","LANDMARKNA":"屏東縣警察局民和派出所","LANDMARKAD":"1001301","ADDRESS":"屏東縣屏東市長春里民生路40號","TEL":"08-7223077","COUNTYNAME":"屏東縣","TOWNNAME":"屏東市","MARKTYPE":"991","Class":"1"},"geometry":{"x":198416.14250000007,"y":2507561.5384}},{"attributes":{"OBJECTID":15224,"LANDMARKID":"1001300000261","LANDMARKCO":"107","LANDMARKNA":"屏東縣警察局公館派出所","LANDMARKAD":"1001301","ADDRESS":"屏東縣屏東市龍華里龍華路157號","TEL":"08-7527484","COUNTYNAME":"屏東縣","TOWNNAME":"屏東市","MARKTYPE":"991","Class":"1"},"geometry":{"x":196803.6333999997,"y":2504001.9409999996}},{"attributes":{"OBJECTID":15225,"LANDMARKID":"1001300000262","LANDMARKCO":"107","LANDMARKNA":"屏東縣警察局民族派出所","LANDMARKAD":"1001301","ADDRESS":"屏東縣屏東市崇禮里民族路152號","TEL":"08-7322072","COUNTYNAME":"屏東縣","TOWNNAME":"屏東市","MARKTYPE":"991","Class":"1"},"geometry":{"x":196947.93690000009,"y":2507921.4003999997}},{"attributes":{"OBJECTID":15226,"LANDMARKID":"1001300000263","LANDMARKCO":"107","LANDMARKNA":"屏東縣警察局歸來派出所","LANDMARKAD":"1001301","ADDRESS":"屏東縣屏東市湖南里民生東路94號","TEL":"08-7224416","COUNTYNAME":"屏東縣","TOWNNAME":"屏東市","MARKTYPE":"991","Class":"1"},"geometry":{"x":199637.1688000001,"y":2506941.8000000007}},{"attributes":{"OBJECTID":15227,"LANDMARKID":"1001300000264","LANDMARKCO":"107","LANDMARKNA":"屏東縣警察局民生派出所","LANDMARKAD":"1001301","ADDRESS":"屏東縣屏東市慶春里北平路30號","TEL":"08-7322646","COUNTYNAME":"屏東縣","TOWNNAME":"屏東市","MARKTYPE":"991","Class":"1"},"geometry":{"x":197437.14130000025,"y":2508482.0950000007}},{"attributes":{"OBJECTID":15228,"LANDMARKID":"1001300000093","LANDMARKCO":"103","LANDMARKNA":"屏東縣政府衛生局","LANDMARKAD":"1001301","ADDRESS":"屏東縣屏東市自由路272號","TEL":"08-7370002","COUNTYNAME":"屏東縣","TOWNNAME":"屏東市","MARKTYPE":"991","Class":"1"},"geometry":{"x":198252.42370000016,"y":2508401.9422999993}},{"attributes":{"OBJECTID":15229,"LANDMARKID":"1001300000094","LANDMARKCO":"103","LANDMARKNA":"屏東縣屏東巿衛生所","LANDMARKAD":"1001301","ADDRESS":"屏東縣屏東市建國路92號","TEL":"08-7538701","COUNTYNAME":"屏東縣","TOWNNAME":"屏東市","MARKTYPE":"991","Class":"1"},"geometry":{"x":196811.98900000006,"y":2507291.9298}},{"attributes":{"OBJECTID":15230,"LANDMARKID":"1001300000312","LANDMARKCO":"108","LANDMARKNA":"屏東縣屏東巿公所","LANDMARKAD":"1001301","ADDRESS":"屏東縣屏東市台糖街61號","TEL":"08-7560101","COUNTYNAME":"屏東縣","TOWNNAME":"屏東市","MARKTYPE":"991","Class":"1"},"geometry":{"x":197739.90739999991,"y":2507012.1673000008}},{"attributes":{"OBJECTID":15231,"LANDMARKID":"1001300000008","LANDMARKCO":"101","LANDMARKNA":"台灣屏東地方法院","LANDMARKAD":"1001301","ADDRESS":"屏東縣屏東市棒球路9號","TEL":"08-7550611","COUNTYNAME":"屏東縣","TOWNNAME":"屏東市","MARKTYPE":"991","Class":"1"},"geometry":{"x":196902.06780000031,"y":2506341.2596000005}},{"attributes":{"OBJECTID":15232,"LANDMARKID":"1001300000091","LANDMARKCO":"103","LANDMARKNA":"屏東縣政府文化局","LANDMARKAD":"1001301","ADDRESS":"屏東縣屏東市大連路69號","TEL":"08-7360331","COUNTYNAME":"屏東縣","TOWNNAME":"屏東市","MARKTYPE":"991","Class":"1"},"geometry":{"x":198552.99010000005,"y":2508841.9860999994}},{"attributes":{"OBJECTID":15233,"LANDMARKID":"1001300000092","LANDMARKCO":"103","LANDMARKNA":"屏東縣立慢性病防治所","LANDMARKAD":"1001301","ADDRESS":"屏東縣屏東市自由路272號","TEL":"08-7363475","COUNTYNAME":"屏東縣","TOWNNAME":"屏東市","MARKTYPE":"991","Class":"1"},"geometry":{"x":198252.42370000016,"y":2508401.9422999993}},{"attributes":{"OBJECTID":15234,"LANDMARKID":"1001300000009","LANDMARKCO":"101","LANDMARKNA":"工業局屏東工業區服務中心","LANDMARKAD":"1001301","ADDRESS":"屏東縣屏東市工業一路5號","TEL":"08-7220698","COUNTYNAME":"屏東縣","TOWNNAME":"屏東市","MARKTYPE":"991","Class":"1"},"geometry":{"x":198649.62000000011,"y":2507101.3691000007}},{"attributes":{"OBJECTID":15235,"LANDMARKID":"1001300000112","LANDMARKCO":"104","LANDMARKNA":"屏東縣政府稅務局","LANDMARKAD":"1001301","ADDRESS":"屏東縣屏東市北平路24號","TEL":"08-7338104","COUNTYNAME":"屏東縣","TOWNNAME":"屏東市","MARKTYPE":"991","Class":"1"},"geometry":{"x":197546.14059999958,"y":2508481.4854000006}},{"attributes":{"OBJECTID":15236,"LANDMARKID":"1001300000113","LANDMARKCO":"104","LANDMARKNA":"南區國稅局屏東縣分局","LANDMARKAD":"1001301","ADDRESS":"屏東市北興街55號","TEL":"08-7311166","COUNTYNAME":"屏東縣","TOWNNAME":"屏東市","MARKTYPE":"991","Class":"1"},"geometry":{"x":198058.46829999983,"y":2509931.2661000006}},{"attributes":{"OBJECTID":15237,"LANDMARKID":"1001300000010","LANDMARKCO":"101","LANDMARKNA":"內政部國土測繪中心東區測量隊","LANDMARKAD":"1001301","ADDRESS":"屏東市自由路529號3樓","TEL":"08-7655346","COUNTYNAME":"屏東縣","TOWNNAME":"屏東市","MARKTYPE":"991","Class":"1"},"geometry":{"x":197269.57290000003,"y":2509261.5099999998}},{"attributes":{"OBJECTID":15238,"LANDMARKID":"1001300000089","LANDMARKCO":"103","LANDMARKNA":"屏東縣屏東市市民代表會","LANDMARKAD":"1001301","ADDRESS":"屏東縣屏東市林森路123號","TEL":"08-7322049","COUNTYNAME":"屏東縣","TOWNNAME":"屏東市","MARKTYPE":"991","Class":"1"},"geometry":{"x":197583.01150000002,"y":2508211.6155999992}},{"attributes":{"OBJECTID":15239,"LANDMARKID":"1001300000090","LANDMARKCO":"103","LANDMARKNA":"屏東縣家畜疾病防治所","LANDMARKAD":"1001301","ADDRESS":"屏東縣屏東市豐田里民學路58巷23號","TEL":"08-7224427","COUNTYNAME":"屏東縣","TOWNNAME":"屏東市","MARKTYPE":"991","Class":"1"},"geometry":{"x":199142.83899999969,"y":2508272.0480000004}},{"attributes":{"OBJECTID":15240,"LANDMARKID":"1001300000011","LANDMARKCO":"101","LANDMARKNA":"勞工委員會職業訓練局","LANDMARKAD":"1001301","ADDRESS":"屏東縣屏東市復興路446號","TEL":"08-7559955","COUNTYNAME":"屏東縣","TOWNNAME":"屏東市","MARKTYPE":"991","Class":"1"},"geometry":{"x":197223.01279999968,"y":2506361.3820999991}},{"attributes":{"OBJECTID":15241,"LANDMARKID":"1001300000012","LANDMARKCO":"101","LANDMARKNA":"國軍退除役官兵輔導委員會","LANDMARKAD":"1001301","ADDRESS":"屏東縣屏東市建國路300之1號","TEL":"08-7522717","COUNTYNAME":"屏東縣","TOWNNAME":"屏東市","MARKTYPE":"991","Class":"1"},"geometry":{"x":195671.28210000042,"y":2507201.9483000003}},{"attributes":{"OBJECTID":15242,"LANDMARKID":"1001300000087","LANDMARKCO":"103","LANDMARKNA":"屏東縣立老人文康活動中心","LANDMARKAD":"1001301","ADDRESS":"屏東縣屏東市華正路95號","TEL":"08-7385181","COUNTYNAME":"屏東縣","TOWNNAME":"屏東市","MARKTYPE":"991","Class":"1"},"geometry":{"x":198701.87270000018,"y":2509491.5170000009}},{"attributes":{"OBJECTID":15243,"LANDMARKID":"1001300000088","LANDMARKCO":"103","LANDMARKNA":"屏東縣環境保護局","LANDMARKAD":"1001301","ADDRESS":"屏東縣屏東市自由路71號","TEL":"08-7351911","COUNTYNAME":"屏東縣","TOWNNAME":"屏東市","MARKTYPE":"991","Class":"1"},"geometry":{"x":197131.50349999964,"y":2507432.0440999996}},{"attributes":{"OBJECTID":15244,"LANDMARKID":"1001300000013","LANDMARKCO":"101","LANDMARKNA":"林務局屏東林區管理處","LANDMARKAD":"1001301","ADDRESS":"屏東市民興路39號","TEL":"08-7236941","COUNTYNAME":"屏東縣","TOWNNAME":"屏東市","MARKTYPE":"991","Class":"1"},"geometry":{"x":198928.48790000007,"y":2507141.3464000002}},{"attributes":{"OBJECTID":15245,"LANDMARKID":"1001300000084","LANDMARKCO":"103","LANDMARKNA":"屏東縣審計室","LANDMARKAD":"1001301","ADDRESS":"屏東縣屏東市信義路155號","TEL":"08-7349812","COUNTYNAME":"屏東縣","TOWNNAME":"屏東市","MARKTYPE":"991","Class":"1"},"geometry":{"x":197493.13269999996,"y":2508791.2995999996}},{"attributes":{"OBJECTID":15246,"LANDMARKID":"1001300000085","LANDMARKCO":"103","LANDMARKNA":"屏東縣政府","LANDMARKAD":"1001301","ADDRESS":"屏東縣屏東市自由路527號","TEL":"08-7320415","COUNTYNAME":"屏東縣","TOWNNAME":"屏東市","MARKTYPE":"991","Class":"1"},"geometry":{"x":197385.58910000045,"y":2509261.9102999996}},{"attributes":{"OBJECTID":15247,"LANDMARKID":"1001300000086","LANDMARKCO":"103","LANDMARKNA":"屏東縣選舉委員會","LANDMARKAD":"1001301","ADDRESS":"屏東縣屏東市太原一路36號","TEL":"08-7341440","COUNTYNAME":"屏東縣","TOWNNAME":"屏東市","MARKTYPE":"991","Class":"1"},"geometry":{"x":197268.12550000008,"y":2509101.5050000008}},{"attributes":{"OBJECTID":15248,"LANDMARKID":"1001300000014","LANDMARKCO":"101","LANDMARKNA":"農糧署屏東辦事處","LANDMARKAD":"1001301","ADDRESS":"屏東縣屏東市中山路44號","TEL":"08-7322171","COUNTYNAME":"屏東縣","TOWNNAME":"屏東市","MARKTYPE":"991","Class":"1"},"geometry":{"x":197219.4682,"y":2508061.3516000006}},{"attributes":{"OBJECTID":15249,"LANDMARKID":"1001300000015","LANDMARKCO":"101","LANDMARKNA":"屏東憲兵隊","LANDMARKAD":"1001301","ADDRESS":"屏東縣屏東市信義路135號","TEL":"08-7338585","COUNTYNAME":"屏東縣","TOWNNAME":"屏東市","MARKTYPE":"991","Class":"1"},"geometry":{"x":197125.11689999979,"y":2508182.0110999998}},{"attributes":{"OBJECTID":15250,"LANDMARKID":"1001300000016","LANDMARKCO":"101","LANDMARKNA":"營建署屏東工務所","LANDMARKAD":"1001301","ADDRESS":"屏東縣屏東市清寧街177號","TEL":"08-7554175","COUNTYNAME":"屏東縣","TOWNNAME":"屏東市","MARKTYPE":"991","Class":"1"},"geometry":{"x":195680.1838999996,"y":2506921.9837999996}},{"attributes":{"OBJECTID":15251,"LANDMARKID":"1001300000083","LANDMARKCO":"103","LANDMARKNA":"屏東市殯儀館","LANDMARKAD":"1001301","ADDRESS":"屏東市瑞光里民生東路11巷11號","TEL":"08-7221261","COUNTYNAME":"屏東縣","TOWNNAME":"屏東市","MARKTYPE":"991","Class":"1"},"geometry":{"x":200163.88900000043,"y":2506411.6561999992}},{"attributes":{"OBJECTID":15252,"LANDMARKID":"1001300000017","LANDMARKCO":"101","LANDMARKNA":"國有財產局台灣南區辦事處屏東分處","LANDMARKAD":"1001301","ADDRESS":"屏東市林森路48號","TEL":"08-7666760","COUNTYNAME":"屏東縣","TOWNNAME":"屏東市","MARKTYPE":"991","Class":"1"},"geometry":{"x":198030.26400000043,"y":2508142.1651000008}},{"attributes":{"OBJECTID":15253,"LANDMARKID":"1001300000679","LANDMARKCO":"205","LANDMARKNA":"屏東縣政府文化局排灣族雕刻館","LANDMARKAD":"1001301","ADDRESS":"屏東縣屏東市大連路69號4樓","TEL":" ","COUNTYNAME":"屏東縣","TOWNNAME":"屏東市","MARKTYPE":"992","Class":"2"},"geometry":{"x":198536.12239999976,"y":2508819.2574000005}},{"attributes":{"OBJECTID":15254,"LANDMARKID":"1001300000642","LANDMARKCO":"204","LANDMARKNA":"屏東縣立圖書館屏東復興分館","LANDMARKAD":"1001301","ADDRESS":"屏東縣屏東市建南路162號","TEL":" ","COUNTYNAME":"屏東縣","TOWNNAME":"屏東市","MARKTYPE":"992","Class":"2"},"geometry":{"x":196691.31900000013,"y":2506772.1098999996}},{"attributes":{"OBJECTID":15255,"LANDMARKID":"1001300000684","LANDMARKCO":"207","LANDMARKNA":"屏東縣政府文化局中正藝術館","LANDMARKAD":"1001301","ADDRESS":"屏東縣屏東市和平路427號","TEL":" ","COUNTYNAME":"屏東縣","TOWNNAME":"屏東市","MARKTYPE":"992","Class":"2"},"geometry":{"x":196319.10209999979,"y":2508566.6328999996}},{"attributes":{"OBJECTID":15256,"LANDMARKID":"1001300000359","LANDMARKCO":"202","LANDMARKNA":"私立屏榮高中","LANDMARKAD":"1001301","ADDRESS":"屏東縣屏東市豐田里民學路100號","TEL":"08-7223409","COUNTYNAME":"屏東縣","TOWNNAME":"屏東市","MARKTYPE":"992","Class":"2"},"geometry":{"x":199040.24289999995,"y":2508300.4560000002}},{"attributes":{"OBJECTID":15257,"LANDMARKID":"1001300000554","LANDMARKCO":"203","LANDMARKNA":"縣立至正國中","LANDMARKAD":"1001301","ADDRESS":"屏東縣屏東市公裕街300號","TEL":"08-7669394","COUNTYNAME":"屏東縣","TOWNNAME":"屏東市","MARKTYPE":"992","Class":"2"},"geometry":{"x":197911.59869999997,"y":2510040.4896000009}},{"attributes":{"OBJECTID":15258,"LANDMARKID":"1001300000555","LANDMARKCO":"203","LANDMARKNA":"縣立公正國中","LANDMARKAD":"1001301","ADDRESS":"屏東縣屏東市公興路11號","TEL":"08-7522097","COUNTYNAME":"屏東縣","TOWNNAME":"屏東市","MARKTYPE":"992","Class":"2"},"geometry":{"x":196988.47670000046,"y":2504540.3314999994}},{"attributes":{"OBJECTID":15259,"LANDMARKID":"1001300000556","LANDMARKCO":"203","LANDMARKNA":"縣立中正國中","LANDMARKAD":"1001301","ADDRESS":"屏東縣屏東市民學路2號","TEL":"08-7226387","COUNTYNAME":"屏東縣","TOWNNAME":"屏東市","MARKTYPE":"992","Class":"2"},"geometry":{"x":199559.80640000012,"y":2508130.2815000005}},{"attributes":{"OBJECTID":15260,"LANDMARKID":"1001300000557","LANDMARKCO":"203","LANDMARKNA":"縣立鶴聲國中","LANDMARKAD":"1001301","ADDRESS":"屏東縣屏東市大武路225號","TEL":"08-7520591","COUNTYNAME":"屏東縣","TOWNNAME":"屏東市","MARKTYPE":"992","Class":"2"},"geometry":{"x":195684.66839999985,"y":2506640.7535999995}},{"attributes":{"OBJECTID":15261,"LANDMARKID":"1001300000558","LANDMARKCO":"203","LANDMARKNA":"縣立大同國小","LANDMARKAD":"1001301","ADDRESS":"屏東縣屏東市安鎮里建國路202號","TEL":"08-7524115","COUNTYNAME":"屏東縣","TOWNNAME":"屏東市","MARKTYPE":"992","Class":"2"},"geometry":{"x":196209.04949999973,"y":2507430.5743000004}},{"attributes":{"OBJECTID":15262,"LANDMARKID":"1001300000559","LANDMARKCO":"203","LANDMARKNA":"縣立鶴聲國小","LANDMARKAD":"1001301","ADDRESS":"屏東縣屏東市崇武里建國路121號","TEL":"08-7521207","COUNTYNAME":"屏東縣","TOWNNAME":"屏東市","MARKTYPE":"992","Class":"2"},"geometry":{"x":196522.92619999964,"y":2507180.6708000004}},{"attributes":{"OBJECTID":15263,"LANDMARKID":"1001300000560","LANDMARKCO":"203","LANDMARKNA":"縣立忠孝國小","LANDMARKAD":"1001301","ADDRESS":"屏東縣屏東市建豐路204號","TEL":"08-7371939","COUNTYNAME":"屏東縣","TOWNNAME":"屏東市","MARKTYPE":"992","Class":"2"},"geometry":{"x":198993.16770000011,"y":2508630.2953999992}},{"attributes":{"OBJECTID":15264,"LANDMARKID":"1001300000561","LANDMARKCO":"203","LANDMARKNA":"縣立海豐國小","LANDMARKAD":"1001301","ADDRESS":"屏東縣屏東市三山里海豐街3號","TEL":"08-7367023","COUNTYNAME":"屏東縣","TOWNNAME":"屏東市","MARKTYPE":"992","Class":"2"},"geometry":{"x":199371.6026999997,"y":2510960.5757999998}},{"attributes":{"OBJECTID":15265,"LANDMARKID":"1001300000562","LANDMARKCO":"203","LANDMARKNA":"縣立瑞光國小","LANDMARKAD":"1001301","ADDRESS":"屏東縣屏東市興豐路86號","TEL":"08-7383012","COUNTYNAME":"屏東縣","TOWNNAME":"屏東市","MARKTYPE":"992","Class":"2"},"geometry":{"x":199615.99799999967,"y":2508990.4604000002}},{"attributes":{"OBJECTID":15266,"LANDMARKID":"1001300000563","LANDMARKCO":"203","LANDMARKNA":"縣立歸來國小","LANDMARKAD":"1001301","ADDRESS":"屏東縣屏東市湖西里歸國巷1號","TEL":"08-7223241","COUNTYNAME":"屏東縣","TOWNNAME":"屏東市","MARKTYPE":"992","Class":"2"},"geometry":{"x":199533.84640000015,"y":2506580.2124000005}},{"attributes":{"OBJECTID":15267,"LANDMARKID":"1001300000350","LANDMARKCO":"202","LANDMARKNA":"國立屏東女中","LANDMARKAD":"1001301","ADDRESS":"屏東縣屏東市仁愛路94號","TEL":"08-7360234","COUNTYNAME":"屏東縣","TOWNNAME":"屏東市","MARKTYPE":"992","Class":"2"},"geometry":{"x":198026.39190000016,"y":2508412.1483999994}},{"attributes":{"OBJECTID":15268,"LANDMARKID":"1001300000351","LANDMARKCO":"202","LANDMARKNA":"縣立大同高中","LANDMARKAD":"1001301","ADDRESS":"屏東縣屏東市和平路429號","TEL":"08-7664050","COUNTYNAME":"屏東縣","TOWNNAME":"屏東市","MARKTYPE":"992","Class":"2"},"geometry":{"x":196329.33469999954,"y":2508732.2288000006}},{"attributes":{"OBJECTID":15269,"LANDMARKID":"1001300000352","LANDMARKCO":"202","LANDMARKNA":"國立屏東高中","LANDMARKAD":"1001301","ADDRESS":"屏東縣屏東市忠孝路231號","TEL":"08-7667053","COUNTYNAME":"屏東縣","TOWNNAME":"屏東市","MARKTYPE":"992","Class":"2"},"geometry":{"x":197476.46750000026,"y":2509622.2160999998}},{"attributes":{"OBJECTID":15270,"LANDMARKID":"1001300000353","LANDMARKCO":"202","LANDMARKNA":"私立陸興高中","LANDMARKAD":"1001301","ADDRESS":"屏東縣屏東市豐田里廣東路150號","TEL":"08-7225836","COUNTYNAME":"屏東縣","TOWNNAME":"屏東市","MARKTYPE":"992","Class":"2"},"geometry":{"x":198648.60280000046,"y":2508341.3518000003}},{"attributes":{"OBJECTID":15271,"LANDMARKID":"1001300000354","LANDMARKCO":"202","LANDMARKNA":"私立民生家商","LANDMARKAD":"1001301","ADDRESS":"屏東縣屏東市民生東路12號","TEL":"08-7223029","COUNTYNAME":"屏東縣","TOWNNAME":"屏東市","MARKTYPE":"992","Class":"2"},"geometry":{"x":200008.3387000002,"y":2506582.0807000007}},{"attributes":{"OBJECTID":15272,"LANDMARKID":"1001300000355","LANDMARKCO":"202","LANDMARKNA":"國立屏東高工","LANDMARKAD":"1001301","ADDRESS":"屏東縣屏東市建國路25號","TEL":"08-7523781","COUNTYNAME":"屏東縣","TOWNNAME":"屏東市","MARKTYPE":"992","Class":"2"},"geometry":{"x":197202.68520000018,"y":2507071.3045000006}},{"attributes":{"OBJECTID":15273,"LANDMARKID":"1001300000356","LANDMARKCO":"202","LANDMARKNA":"私立華洲工家","LANDMARKAD":"1001301","ADDRESS":"屏東縣屏東市歸仁路63巷99號","TEL":"08-7521516","COUNTYNAME":"屏東縣","TOWNNAME":"屏東市","MARKTYPE":"992","Class":"2"},"geometry":{"x":198581.1668999996,"y":2506012.1117000002}},{"attributes":{"OBJECTID":15274,"LANDMARKID":"1001300000357","LANDMARKCO":"202","LANDMARKNA":"縣立大同高中附設國中部","LANDMARKAD":"1001301","ADDRESS":"屏東縣屏東市和平路429號","TEL":"08-7664050","COUNTYNAME":"屏東縣","TOWNNAME":"屏東市","MARKTYPE":"992","Class":"2"},"geometry":{"x":196329.33469999954,"y":2508732.2288000006}},{"attributes":{"OBJECTID":15275,"LANDMARKID":"1001300000358","LANDMARKCO":"202","LANDMARKNA":"私立陸興高中附設國中部","LANDMARKAD":"1001301","ADDRESS":"屏東縣屏東市豐田里廣東路150號","TEL":"08-7225836","COUNTYNAME":"屏東縣","TOWNNAME":"屏東市","MARKTYPE":"992","Class":"2"},"geometry":{"x":198648.60280000046,"y":2508341.3518000003}},{"attributes":{"OBJECTID":15276,"LANDMARKID":"1001300000564","LANDMARKCO":"203","LANDMARKNA":"縣立明正國中","LANDMARKAD":"1001301","ADDRESS":"屏東縣屏東市大連路70號","TEL":"08-7363078","COUNTYNAME":"屏東縣","TOWNNAME":"屏東市","MARKTYPE":"992","Class":"2"},"geometry":{"x":198379.71989999991,"y":2508921.4013}},{"attributes":{"OBJECTID":15277,"LANDMARKID":"1001300000565","LANDMARKCO":"203","LANDMARKNA":"縣立唐榮國小","LANDMARKAD":"1001301","ADDRESS":"屏東縣屏東市崇禮里中山路41號","TEL":"08-7322306","COUNTYNAME":"屏東縣","TOWNNAME":"屏東市","MARKTYPE":"992","Class":"2"},"geometry":{"x":197102.64049999975,"y":2508011.9368999992}},{"attributes":{"OBJECTID":15278,"LANDMARKID":"1001300000566","LANDMARKCO":"203","LANDMARKNA":"縣立仁愛國小","LANDMARKAD":"1001301","ADDRESS":"屏東縣屏東市華山里仁愛路98號","TEL":"08-7361114","COUNTYNAME":"屏東縣","TOWNNAME":"屏東市","MARKTYPE":"992","Class":"2"},"geometry":{"x":198082.84740000032,"y":2508571.3668000009}},{"attributes":{"OBJECTID":15279,"LANDMARKID":"1001300000567","LANDMARKCO":"203","LANDMARKNA":"縣立公館國小","LANDMARKAD":"1001301","ADDRESS":"屏東縣屏東市龍華里公華街182號","TEL":"08-7522205","COUNTYNAME":"屏東縣","TOWNNAME":"屏東市","MARKTYPE":"992","Class":"2"},"geometry":{"x":196772.76400000043,"y":2504271.8299000002}},{"attributes":{"OBJECTID":15280,"LANDMARKID":"1001300000568","LANDMARKCO":"203","LANDMARKNA":"縣立凌雲國小","LANDMARKAD":"1001301","ADDRESS":"屏東縣屏東市鵬程里光大巷61號","TEL":"08-7659025","COUNTYNAME":"屏東縣","TOWNNAME":"屏東市","MARKTYPE":"992","Class":"2"},"geometry":{"x":193140.81639999989,"y":2507322.1250999998}},{"attributes":{"OBJECTID":15281,"LANDMARKID":"1001300000569","LANDMARKCO":"203","LANDMARKNA":"縣立民和國小","LANDMARKAD":"1001301","ADDRESS":"屏東縣屏東市自立路213號","TEL":"08-7229210","COUNTYNAME":"屏東縣","TOWNNAME":"屏東市","MARKTYPE":"992","Class":"2"},"geometry":{"x":198189.03359999973,"y":2507901.7344000004}},{"attributes":{"OBJECTID":15282,"LANDMARKID":"1001300000570","LANDMARKCO":"203","LANDMARKNA":"縣立建國國小","LANDMARKAD":"1001301","ADDRESS":"屏東縣屏東市萬年里建興路36號","TEL":"08-7521464","COUNTYNAME":"屏東縣","TOWNNAME":"屏東市","MARKTYPE":"992","Class":"2"},"geometry":{"x":197238.84949999955,"y":2507331.4257999994}},{"attributes":{"OBJECTID":15283,"LANDMARKID":"1001300000571","LANDMARKCO":"203","LANDMARKNA":"縣立和平國小","LANDMARKAD":"1001301","ADDRESS":"屏東縣屏東市中正里華正路80號","TEL":"08-7364440","COUNTYNAME":"屏東縣","TOWNNAME":"屏東市","MARKTYPE":"992","Class":"2"},"geometry":{"x":198796.18219999969,"y":2509711.8301999997}},{"attributes":{"OBJECTID":15284,"LANDMARKID":"1001300000572","LANDMARKCO":"203","LANDMARKNA":"縣立崇蘭國小","LANDMARKAD":"1001301","ADDRESS":"屏東縣屏東市廣東路1259號","TEL":"08-7333477","COUNTYNAME":"屏東縣","TOWNNAME":"屏東市","MARKTYPE":"992","Class":"2"},"geometry":{"x":196257.10720000044,"y":2509411.9672999997}},{"attributes":{"OBJECTID":15285,"LANDMARKID":"1001300000573","LANDMARKCO":"203","LANDMARKNA":"國立屏東教育大學附設實驗國民","LANDMARKAD":"1001301","ADDRESS":"屏東縣屏東市廣東路20號","TEL":"08-7220451","COUNTYNAME":"屏東縣","TOWNNAME":"屏東市","MARKTYPE":"992","Class":"2"},"geometry":{"x":198494.56900000013,"y":2507731.8029999994}},{"attributes":{"OBJECTID":15286,"LANDMARKID":"1001300000574","LANDMARKCO":"203","LANDMARKNA":"縣立中正國小","LANDMARKAD":"1001301","ADDRESS":"屏東縣屏東市文明里蘇州街75號","TEL":"08-7324113","COUNTYNAME":"屏東縣","TOWNNAME":"屏東市","MARKTYPE":"992","Class":"2"},"geometry":{"x":197400.11539999954,"y":2508181.9711000007}},{"attributes":{"OBJECTID":15287,"LANDMARKID":"1001300000575","LANDMARKCO":"203","LANDMARKNA":"縣立勝利國小","LANDMARKAD":"1001301","ADDRESS":"屏東縣屏東市勝利里蘭州街2號","TEL":"08-7652038","COUNTYNAME":"屏東縣","TOWNNAME":"屏東市","MARKTYPE":"992","Class":"2"},"geometry":{"x":197156.43759999983,"y":2509012.1086999997}},{"attributes":{"OBJECTID":15288,"LANDMARKID":"1001300000576","LANDMARKCO":"203","LANDMARKNA":"縣立信義國小","LANDMARKAD":"1001301","ADDRESS":"屏東縣屏東市信義路262號","TEL":"08-7383628","COUNTYNAME":"屏東縣","TOWNNAME":"屏東市","MARKTYPE":"992","Class":"2"},"geometry":{"x":197798.75389999989,"y":2509521.3611999992}},{"attributes":{"OBJECTID":15289,"LANDMARKID":"1001300000343","LANDMARKCO":"201","LANDMARKNA":"國立屏東商業技術學院","LANDMARKAD":"1001301","ADDRESS":"屏東縣屏東市民生東路51號","TEL":"08-7238700","COUNTYNAME":"屏東縣","TOWNNAME":"屏東市","MARKTYPE":"992","Class":"2"},"geometry":{"x":199627.21779999975,"y":2506311.7737000007}},{"attributes":{"OBJECTID":15290,"LANDMARKID":"1001300000344","LANDMARKCO":"201","LANDMARKNA":"國立屏東教育大學林森校區","LANDMARKAD":"1001301","ADDRESS":"屏東縣屏東市林森路1號","TEL":"08-7226141","COUNTYNAME":"屏東縣","TOWNNAME":"屏東市","MARKTYPE":"992","Class":"2"},"geometry":{"x":198808.41629999969,"y":2507791.8915999997}},{"attributes":{"OBJECTID":15291,"LANDMARKID":"1001300000345","LANDMARKCO":"201","LANDMARKNA":"國立屏東教育大學民生校區","LANDMARKAD":"1001301","ADDRESS":"屏東縣屏東市民生路4之18號","TEL":"08-7226141","COUNTYNAME":"屏東縣","TOWNNAME":"屏東市","MARKTYPE":"992","Class":"2"},"geometry":{"x":199076.92989999987,"y":2507321.8384000007}},{"attributes":{"OBJECTID":15292,"LANDMARKID":"1001300000577","LANDMARKCO":"203","LANDMARKNA":"縣立前進國小","LANDMARKAD":"1001301","ADDRESS":"屏東縣屏東市建國路405巷100弄39號","TEL":"08-7523291","COUNTYNAME":"屏東縣","TOWNNAME":"屏東市","MARKTYPE":"992","Class":"2"},"geometry":{"x":195184.22300000023,"y":2506151.0220999997}},{"attributes":{"OBJECTID":15293,"LANDMARKID":"1001300000578","LANDMARKCO":"203","LANDMARKNA":"縣立復興國小","LANDMARKAD":"1001301","ADDRESS":"屏東縣屏東市永安里復興南路376號","TEL":"08-7525402","COUNTYNAME":"屏東縣","TOWNNAME":"屏東市","MARKTYPE":"992","Class":"2"},"geometry":{"x":197167.52120000031,"y":2506680.9257999994}},{"attributes":{"OBJECTID":15294,"LANDMARKID":"1001300000710","LANDMARKCO":"302","LANDMARKNA":"統聯客運-屏東站-自營站","LANDMARKAD":"1001301","ADDRESS":"屏東縣屏東市光復路104號","TEL":"連絡電話:08-732","COUNTYNAME":"屏東縣","TOWNNAME":"屏東市","MARKTYPE":"993","Class":"302"},"geometry":{"x":197101.3245000001,"y":2507811.9710000008}},{"attributes":{"OBJECTID":15295,"LANDMARKID":"1001300000711","LANDMARKCO":"302","LANDMARKNA":"國光汽車客運屏東站","LANDMARKAD":"1001301","ADDRESS":"屏東縣屏東市中山路3號","TEL":" ","COUNTYNAME":"屏東縣","TOWNNAME":"屏東市","MARKTYPE":"993","Class":"302"},"geometry":{"x":197169.37689999957,"y":2507847.0876000002}},{"attributes":{"OBJECTID":15296,"LANDMARKID":"1001300000783","LANDMARKCO":"304","LANDMARKNA":"屏東航空站-屏東機場","LANDMARKAD":"1001301","ADDRESS":"屏東縣屏東市勝利路300號","TEL":" ","COUNTYNAME":"屏東縣","TOWNNAME":"屏東市","MARKTYPE":"993","Class":"304"},"geometry":{"x":195521.53239999991,"y":2508690.4447000008}},{"attributes":{"OBJECTID":15297,"LANDMARKID":"1001300000760","LANDMARKCO":"303","LANDMARKNA":"安和醫院停車場","LANDMARKAD":"1001301","ADDRESS":"屏東縣屏東市自由路598號","TEL":"08-7651828","COUNTYNAME":"屏東縣","TOWNNAME":"屏東市","MARKTYPE":"993","Class":"303"},"geometry":{"x":196947.48340000026,"y":2509326.6194000002}},{"attributes":{"OBJECTID":15298,"LANDMARKID":"1001300000761","LANDMARKCO":"303","LANDMARKNA":"屏東航空站停車場","LANDMARKAD":"1001301","ADDRESS":"屏東縣屏東市忠孝路699號","TEL":" ","COUNTYNAME":"屏東縣","TOWNNAME":"屏東市","MARKTYPE":"993","Class":"303"},"geometry":{"x":197733.53940000013,"y":2511805.6155999992}},{"attributes":{"OBJECTID":15299,"LANDMARKID":"1001300000762","LANDMARKCO":"303","LANDMARKNA":"屏東市立體停車場","LANDMARKAD":"1001301","ADDRESS":"屏東縣屏東市中華路","TEL":" ","COUNTYNAME":"屏東縣","TOWNNAME":"屏東市","MARKTYPE":"993","Class":"303"},"geometry":{"x":197589.57550000027,"y":2508238.9217000008}},{"attributes":{"OBJECTID":15300,"LANDMARKID":"1001300000763","LANDMARKCO":"303","LANDMARKNA":"屏東社福綜合館停車場","LANDMARKAD":"1001301","ADDRESS":"屏東縣屏東市","TEL":" ","COUNTYNAME":"屏東縣","TOWNNAME":"屏東市","MARKTYPE":"993","Class":"303"},"geometry":{"x":198754.56909999996,"y":2509552.6623999998}},{"attributes":{"OBJECTID":15301,"LANDMARKID":"1001300000685","LANDMARKCO":"301","LANDMARKNA":"歸來火車站","LANDMARKAD":"1001301","ADDRESS":"屏東縣屏東市","TEL":" ","COUNTYNAME":"屏東縣","TOWNNAME":"屏東市","MARKTYPE":"993","Class":"301"},"geometry":{"x":198911.26049999986,"y":2505889.7048000004}},{"attributes":{"OBJECTID":15302,"LANDMARKID":"1001300000686","LANDMARKCO":"301","LANDMARKNA":"屏東火車站","LANDMARKAD":"1001301","ADDRESS":"屏東縣屏東市光復路43號","TEL":"08-7655240","COUNTYNAME":"屏東縣","TOWNNAME":"屏東市","MARKTYPE":"993","Class":"301"},"geometry":{"x":197196.4319000002,"y":2507750.6124000009}},{"attributes":{"OBJECTID":15303,"LANDMARKID":"1001300000687","LANDMARKCO":"301","LANDMARKNA":"六塊厝火車站","LANDMARKAD":"1001301","ADDRESS":"屏東縣屏東市","TEL":" ","COUNTYNAME":"屏東縣","TOWNNAME":"屏東市","MARKTYPE":"993","Class":"301"},"geometry":{"x":195013.66930000018,"y":2507399.5486999992}},{"attributes":{"OBJECTID":15304,"LANDMARKID":"1001300000868","LANDMARKCO":"402","LANDMARKNA":"中華電信-屏東服務中心","LANDMARKAD":"1001301","ADDRESS":"屏東縣屏東市民生路343號","TEL":"123或0800-080-123","COUNTYNAME":"屏東縣","TOWNNAME":"屏東市","MARKTYPE":"994","Class":"4"},"geometry":{"x":197571.55200000014,"y":2507901.3299000002}},{"attributes":{"OBJECTID":15305,"LANDMARKID":"1001300000869","LANDMARKCO":"402","LANDMARKNA":"中華電信-屏東博愛特約服務中心","LANDMARKAD":"1001301","ADDRESS":"屏東縣屏東市自由路667號","TEL":"08-7345088","COUNTYNAME":"屏東縣","TOWNNAME":"屏東市","MARKTYPE":"994","Class":"4"},"geometry":{"x":196699.06730000023,"y":2509271.2640000004}},{"attributes":{"OBJECTID":15306,"LANDMARKID":"1001300000870","LANDMARKCO":"402","LANDMARKNA":"中華電信-建國服務中心","LANDMARKAD":"1001301","ADDRESS":"屏東縣屏東市棒球路10號","TEL":"(08)744-0371","COUNTYNAME":"屏東縣","TOWNNAME":"屏東市","MARKTYPE":"994","Class":"4"},"geometry":{"x":197178.07689999975,"y":2506501.9659000002}},{"attributes":{"OBJECTID":15307,"LANDMARKID":"1001300000871","LANDMARKCO":"402","LANDMARKNA":"中華電信-屏東陸興特約服務中心","LANDMARKAD":"1001301","ADDRESS":"屏東縣屏東市廣東路108號","TEL":"08-7223488","COUNTYNAME":"屏東縣","TOWNNAME":"屏東市","MARKTYPE":"994","Class":"4"},"geometry":{"x":198587.74289999995,"y":2508151.8599999994}},{"attributes":{"OBJECTID":15308,"LANDMARKID":"1001300000872","LANDMARKCO":"402","LANDMARKNA":"遠傳電信-屏東門市","LANDMARKAD":"1001301","ADDRESS":"屏東市中華路4號","TEL":" ","COUNTYNAME":"屏東縣","TOWNNAME":"屏東市","MARKTYPE":"994","Class":"4"},"geometry":{"x":197551.31170000043,"y":2507971.2603999991}},{"attributes":{"OBJECTID":15309,"LANDMARKID":"1001300000873","LANDMARKCO":"402","LANDMARKNA":"遠傳電信-屏東民生門市","LANDMARKAD":"1001301","ADDRESS":"屏東市民生路22號","TEL":" ","COUNTYNAME":"屏東縣","TOWNNAME":"屏東市","MARKTYPE":"994","Class":"4"},"geometry":{"x":198479.79360000044,"y":2507521.5031000003}},{"attributes":{"OBJECTID":15310,"LANDMARKID":"1001300000874","LANDMARKCO":"402","LANDMARKNA":"威寶電信-屏東民生直營服務中心","LANDMARKAD":"1001301","ADDRESS":"屏東縣屏東市民生路214號","TEL":" ","COUNTYNAME":"屏東縣","TOWNNAME":"屏東市","MARKTYPE":"994","Class":"4"},"geometry":{"x":197883.78980000038,"y":2507831.4195000008}},{"attributes":{"OBJECTID":15311,"LANDMARKID":"1001300000875","LANDMARKCO":"402","LANDMARKNA":"威寶電信-屏東自由二特約服務中心","LANDMARKAD":"1001301","ADDRESS":"屏東市自由路665號","TEL":"08-7665252","COUNTYNAME":"屏東縣","TOWNNAME":"屏東市","MARKTYPE":"994","Class":"4"},"geometry":{"x":196713.06740000006,"y":2509271.3128999993}},{"attributes":{"OBJECTID":15312,"LANDMARKID":"1001300000876","LANDMARKCO":"402","LANDMARKNA":"威寶電信-屏東廣東特約服務中心","LANDMARKAD":"1001301","ADDRESS":"屏東縣屏東市廣東路618號","TEL":"08-7363735","COUNTYNAME":"屏東縣","TOWNNAME":"屏東市","MARKTYPE":"994","Class":"4"},"geometry":{"x":198409.74500000011,"y":2509381.2458999995}},{"attributes":{"OBJECTID":15313,"LANDMARKID":"1001300000877","LANDMARKCO":"402","LANDMARKNA":"威寶電信-屏東民生特約服務中心","LANDMARKAD":"1001301","ADDRESS":"屏東市民生路63號","TEL":"08-7217124","COUNTYNAME":"屏東縣","TOWNNAME":"屏東市","MARKTYPE":"994","Class":"4"},"geometry":{"x":198874.69840000011,"y":2507241.8704000004}},{"attributes":{"OBJECTID":15314,"LANDMARKID":"1001300001326","LANDMARKCO":"603","LANDMARKNA":"薇風精品汽車旅館","LANDMARKAD":"1001301","ADDRESS":"屏東縣屏東市大豐路3巷1號","TEL":"08-7557766","COUNTYNAME":"屏東縣","TOWNNAME":"屏東市","MARKTYPE":"996","Class":"6"},"geometry":{"x":195829.04879999999,"y":2507558.9227000009}},{"attributes":{"OBJECTID":15315,"LANDMARKID":"1001300001327","LANDMARKCO":"603","LANDMARKNA":"中華別館","LANDMARKAD":"1001301","ADDRESS":"屏東縣屏東市光明街76號","TEL":"08-7522012","COUNTYNAME":"屏東縣","TOWNNAME":"屏東市","MARKTYPE":"996","Class":"6"},"geometry":{"x":196876.02159999963,"y":2507478.9482000005}},{"attributes":{"OBJECTID":15316,"LANDMARKID":"1001300001328","LANDMARKCO":"603","LANDMARKNA":"富門大飯店","LANDMARKAD":"1001301","ADDRESS":"屏東縣屏東市建南路6號","TEL":"08-7536800","COUNTYNAME":"屏東縣","TOWNNAME":"屏東市","MARKTYPE":"996","Class":"6"},"geometry":{"x":196418.77120000031,"y":2505984.852}},{"attributes":{"OBJECTID":15317,"LANDMARKID":"1001300001329","LANDMARKCO":"603","LANDMARKNA":"樂樂商務汽車旅館","LANDMARKAD":"1001301","ADDRESS":"屏東縣屏東市廣東路1110號1-4樓","TEL":"08-7660966","COUNTYNAME":"屏東縣","TOWNNAME":"屏東市","MARKTYPE":"996","Class":"6"},"geometry":{"x":196909.30169999972,"y":2509792.9079}},{"attributes":{"OBJECTID":15318,"LANDMARKID":"1001300001330","LANDMARKCO":"603","LANDMARKNA":"歐悅精品汽車旅館-屏東館","LANDMARKAD":"1001301","ADDRESS":"屏東縣屏東市建國路479號","TEL":"08-7555222","COUNTYNAME":"屏東縣","TOWNNAME":"屏東市","MARKTYPE":"996","Class":"6"},"geometry":{"x":192973.07579999976,"y":2505536.0647}},{"attributes":{"OBJECTID":15319,"LANDMARKID":"1001300001331","LANDMARKCO":"603","LANDMARKNA":"安愛愛汽車旅館","LANDMARKAD":"1001301","ADDRESS":"屏東縣屏東市民生東路59號","TEL":"08-7235777","COUNTYNAME":"屏東縣","TOWNNAME":"屏東市","MARKTYPE":"996","Class":"6"},"geometry":{"x":199765.41390000004,"y":2506688.4208000004}},{"attributes":{"OBJECTID":15320,"LANDMARKID":"1001300001332","LANDMARKCO":"603","LANDMARKNA":"進成賓館","LANDMARKAD":"1001301","ADDRESS":"屏東縣屏東市上海路11號","TEL":"08-7322939","COUNTYNAME":"屏東縣","TOWNNAME":"屏東市","MARKTYPE":"996","Class":"6"},"geometry":{"x":197443.93090000004,"y":2507791.8754999992}},{"attributes":{"OBJECTID":15321,"LANDMARKID":"1001300001333","LANDMARKCO":"603","LANDMARKNA":"米蘭村汽車旅館","LANDMARKAD":"1001301","ADDRESS":"屏東縣屏東市大連路32號","TEL":"08-7370677","COUNTYNAME":"屏東縣","TOWNNAME":"屏東市","MARKTYPE":"996","Class":"6"},"geometry":{"x":199318.90539999958,"y":2509331.4176000003}},{"attributes":{"OBJECTID":15322,"LANDMARKID":"1001300001334","LANDMARKCO":"603","LANDMARKNA":"情爽汽機車旅館","LANDMARKAD":"1001301","ADDRESS":"屏東縣屏東市大豐路88號","TEL":"08-7553840","COUNTYNAME":"屏東縣","TOWNNAME":"屏東市","MARKTYPE":"996","Class":"6"},"geometry":{"x":195916.63769999985,"y":2507571.5489000008}},{"attributes":{"OBJECTID":15323,"LANDMARKID":"1001300001335","LANDMARKCO":"603","LANDMARKNA":"如家客棧","LANDMARKAD":"1001301","ADDRESS":"屏東縣屏東市中山路媽祖巷2號","TEL":"08-7337739","COUNTYNAME":"屏東縣","TOWNNAME":"屏東市","MARKTYPE":"996","Class":"6"},"geometry":{"x":197245.82930000033,"y":2507821.1926000006}},{"attributes":{"OBJECTID":15324,"LANDMARKID":"1001300001336","LANDMARKCO":"603","LANDMARKNA":"新生旅社","LANDMARKAD":"1001301","ADDRESS":"屏東縣屏東市中正路20號","TEL":"08-7323521","COUNTYNAME":"屏東縣","TOWNNAME":"屏東市","MARKTYPE":"996","Class":"6"},"geometry":{"x":197494.96789999958,"y":2508071.0668000001}},{"attributes":{"OBJECTID":15325,"LANDMARKID":"1001300001337","LANDMARKCO":"603","LANDMARKNA":"綠洲大旅社","LANDMARKAD":"1001301","ADDRESS":"屏東縣屏東市仁愛路9-1號","TEL":"08-7325176","COUNTYNAME":"屏東縣","TOWNNAME":"屏東市","MARKTYPE":"996","Class":"6"},"geometry":{"x":197726.28600000031,"y":2507671.8637000006}},{"attributes":{"OBJECTID":15326,"LANDMARKID":"1001300001338","LANDMARKCO":"603","LANDMARKNA":"荷蘭村汽車旅館","LANDMARKAD":"1001301","ADDRESS":"屏東縣屏東市公正四街132號","TEL":"08-7667869","COUNTYNAME":"屏東縣","TOWNNAME":"屏東市","MARKTYPE":"996","Class":"6"},"geometry":{"x":197202.54580000043,"y":2509441.0247000009}},{"attributes":{"OBJECTID":15327,"LANDMARKID":"1001300001339","LANDMARKCO":"603","LANDMARKNA":"新屏東旅社","LANDMARKAD":"1001301","ADDRESS":"屏東縣屏東市公勇路63號","TEL":"08-7526717","COUNTYNAME":"屏東縣","TOWNNAME":"屏東市","MARKTYPE":"996","Class":"6"},"geometry":{"x":197178.28509999998,"y":2507671.9522999991}},{"attributes":{"OBJECTID":15328,"LANDMARKID":"1001300001340","LANDMARKCO":"603","LANDMARKNA":"富光大飯店","LANDMARKAD":"1001301","ADDRESS":"屏東縣屏東市公園路19-7號","TEL":"08-7345656","COUNTYNAME":"屏東縣","TOWNNAME":"屏東市","MARKTYPE":"996","Class":"6"},"geometry":{"x":197891.50860000029,"y":2508221.4422999993}},{"attributes":{"OBJECTID":15329,"LANDMARKID":"1001300001341","LANDMARKCO":"603","LANDMARKNA":"一品大旅社","LANDMARKAD":"1001301","ADDRESS":"屏東縣屏東市民生路179號","TEL":"08-7228178","COUNTYNAME":"屏東縣","TOWNNAME":"屏東市","MARKTYPE":"996","Class":"6"},"geometry":{"x":198099.25289999973,"y":2507681.1831999999}},{"attributes":{"OBJECTID":15330,"LANDMARKID":"1001300001342","LANDMARKCO":"603","LANDMARKNA":"民族大飯店","LANDMARKAD":"1001301","ADDRESS":"屏東縣屏東市民族路134號","TEL":"08-7325121","COUNTYNAME":"屏東縣","TOWNNAME":"屏東市","MARKTYPE":"996","Class":"6"},"geometry":{"x":197001.51919999998,"y":2507911.3364000004}},{"attributes":{"OBJECTID":15331,"LANDMARKID":"1001300001343","LANDMARKCO":"603","LANDMARKNA":"台輪大旅社","LANDMARKAD":"1001301","ADDRESS":"屏東縣屏東市民族路159-1號","TEL":"08-7322108","COUNTYNAME":"屏東縣","TOWNNAME":"屏東市","MARKTYPE":"996","Class":"6"},"geometry":{"x":197268.72559999954,"y":2507851.2717000004}},{"attributes":{"OBJECTID":15332,"LANDMARKID":"1001300001344","LANDMARKCO":"603","LANDMARKNA":"鑽石大旅社","LANDMARKAD":"1001301","ADDRESS":"屏東縣屏東市光復路112-1號","TEL":"08-7324298","COUNTYNAME":"屏東縣","TOWNNAME":"屏東市","MARKTYPE":"996","Class":"6"},"geometry":{"x":197052.83100000024,"y":2507821.5142999999}},{"attributes":{"OBJECTID":15333,"LANDMARKID":"1001300001345","LANDMARKCO":"603","LANDMARKNA":"東星大飯店","LANDMARKAD":"1001301","ADDRESS":"屏東縣屏東市光復路18號","TEL":"08-7330088","COUNTYNAME":"屏東縣","TOWNNAME":"屏東市","MARKTYPE":"996","Class":"6"},"geometry":{"x":197472.97609999962,"y":2507761.9790000003}},{"attributes":{"OBJECTID":15334,"LANDMARKID":"1001300001346","LANDMARKCO":"603","LANDMARKNA":"飛馬大飯店","LANDMARKAD":"1001301","ADDRESS":"屏東縣屏東市光復路60號","TEL":"08-7326111","COUNTYNAME":"屏東縣","TOWNNAME":"屏東市","MARKTYPE":"996","Class":"6"},"geometry":{"x":197294.96690000035,"y":2507781.3621999994}},{"attributes":{"OBJECTID":15335,"LANDMARKID":"1001300001347","LANDMARKCO":"603","LANDMARKNA":"坤園大飯店","LANDMARKAD":"1001301","ADDRESS":"屏東縣屏東市杭州街41號","TEL":"08-7331300","COUNTYNAME":"屏東縣","TOWNNAME":"屏東市","MARKTYPE":"996","Class":"6"},"geometry":{"x":197716.50889999978,"y":2508221.8232000005}},{"attributes":{"OBJECTID":15336,"LANDMARKID":"1001300001348","LANDMARKCO":"603","LANDMARKNA":"子琪大飯店","LANDMARKAD":"1001301","ADDRESS":"屏東縣屏東市林森路100號","TEL":"08-7337933","COUNTYNAME":"屏東縣","TOWNNAME":"屏東市","MARKTYPE":"996","Class":"6"},"geometry":{"x":197736.61160000041,"y":2508191.8920000009}},{"attributes":{"OBJECTID":15337,"LANDMARKID":"1001300001349","LANDMARKCO":"603","LANDMARKNA":"金龍大旅社","LANDMARKAD":"1001301","ADDRESS":"屏東縣屏東市林森路116號","TEL":"08-7324245","COUNTYNAME":"屏東縣","TOWNNAME":"屏東市","MARKTYPE":"996","Class":"6"},"geometry":{"x":197665.54330000002,"y":2508211.6486000009}},{"attributes":{"OBJECTID":15338,"LANDMARKID":"1001300001350","LANDMARKCO":"603","LANDMARKNA":"萬國旅社","LANDMARKAD":"1001301","ADDRESS":"屏東縣屏東市林森路68號","TEL":"08-7322657","COUNTYNAME":"屏東縣","TOWNNAME":"屏東市","MARKTYPE":"996","Class":"6"},"geometry":{"x":197851.74760000035,"y":2508151.3066000007}},{"attributes":{"OBJECTID":15339,"LANDMARKID":"1001300001351","LANDMARKCO":"603","LANDMARKNA":"建國旅社","LANDMARKAD":"1001301","ADDRESS":"屏東縣屏東市建國路107號","TEL":"08-7531888","COUNTYNAME":"屏東縣","TOWNNAME":"屏東市","MARKTYPE":"996","Class":"6"},"geometry":{"x":196761.64140000008,"y":2507261.5044999998}},{"attributes":{"OBJECTID":15340,"LANDMARKID":"1001300001352","LANDMARKCO":"603","LANDMARKNA":"海德堡旅館","LANDMARKAD":"1001301","ADDRESS":"屏東縣屏東市建華三街1號1-3樓","TEL":"08-7518866","COUNTYNAME":"屏東縣","TOWNNAME":"屏東市","MARKTYPE":"996","Class":"6"},"geometry":{"x":196991.94629999995,"y":2507461.3105999995}},{"attributes":{"OBJECTID":15341,"LANDMARKID":"1001300001353","LANDMARKCO":"603","LANDMARKNA":"阿曼城市汽車旅館","LANDMARKAD":"1001301","ADDRESS":"屏東縣屏東市崇仁街22號","TEL":"25號","COUNTYNAME":"屏東縣","TOWNNAME":"屏東市","MARKTYPE":"996","Class":"6"},"geometry":{"x":196814.65170000028,"y":2509411.6634}},{"attributes":{"OBJECTID":15342,"LANDMARKID":"1001300001354","LANDMARKCO":"603","LANDMARKNA":"怡東大飯店","LANDMARKAD":"1001301","ADDRESS":"屏東縣屏東市復興路25號9-10樓","TEL":"08-7323666","COUNTYNAME":"屏東縣","TOWNNAME":"屏東市","MARKTYPE":"996","Class":"6"},"geometry":{"x":197556.01109999977,"y":2507751.2800999992}},{"attributes":{"OBJECTID":15343,"LANDMARKID":"1001300001355","LANDMARKCO":"603","LANDMARKNA":"東和旅社","LANDMARKAD":"1001301","ADDRESS":"屏東縣屏東市福建路35號","TEL":"08-7324156","COUNTYNAME":"屏東縣","TOWNNAME":"屏東市","MARKTYPE":"996","Class":"6"},"geometry":{"x":197722.00389999989,"y":2508061.8455999997}},{"attributes":{"OBJECTID":15344,"LANDMARKID":"1001300001273","LANDMARKCO":"511","LANDMARKNA":"屏東夜市(民族路夜市)","LANDMARKAD":"1001301","ADDRESS":"屏東縣屏東市","TEL":" ","COUNTYNAME":"屏東縣","TOWNNAME":"屏東市","MARKTYPE":"995","Class":"5"},"geometry":{"x":197591.20779999997,"y":2507807.7072999999}},{"attributes":{"OBJECTID":15345,"LANDMARKID":"1001300000975","LANDMARKCO":"405","LANDMARKNA":"中油加油站-一陽站","LANDMARKAD":"1001313","ADDRESS":"屏東縣內埔鄉美和村學人路76號","TEL":"08-7780403","COUNTYNAME":"屏東縣","TOWNNAME":"內埔鄉","MARKTYPE":"994","Class":"4"},"geometry":{"x":204490.48070000019,"y":2499461.6261999998}},{"attributes":{"OBJECTID":15346,"LANDMARKID":"1001300000976","LANDMARKCO":"405","LANDMARKNA":"統一速邁樂加油站-內埔加油站(中油)","LANDMARKAD":"1001313","ADDRESS":"屏東縣內埔鄉豐田村中正路452號","TEL":" ","COUNTYNAME":"屏東縣","TOWNNAME":"內埔鄉","MARKTYPE":"994","Class":"4"},"geometry":{"x":202834.84049999993,"y":2503981.8859999999}},{"attributes":{"OBJECTID":15347,"LANDMARKID":"1001300000977","LANDMARKCO":"405","LANDMARKNA":"中油加油站-百達站","LANDMARKAD":"1001313","ADDRESS":"屏東縣內埔鄉內田村復興路145號","TEL":"08-7798388","COUNTYNAME":"屏東縣","TOWNNAME":"內埔鄉","MARKTYPE":"994","Class":"4"},"geometry":{"x":204794.82120000012,"y":2500972.2905999999}},{"attributes":{"OBJECTID":15348,"LANDMARKID":"1001300000978","LANDMARKCO":"405","LANDMARKNA":"中油加油站-內埔站(中油直營)","LANDMARKAD":"1001313","ADDRESS":"屏東縣內埔鄉東寧村南寧路422號","TEL":"08-7792077","COUNTYNAME":"屏東縣","TOWNNAME":"內埔鄉","MARKTYPE":"994","Class":"4"},"geometry":{"x":204556.43520000018,"y":2502561.8543999996}},{"attributes":{"OBJECTID":15349,"LANDMARKID":"1001300000979","LANDMARKCO":"405","LANDMARKNA":"中油加油站-神農站","LANDMARKAD":"1001313","ADDRESS":"屏東縣內埔鄉昇華路259號","TEL":"08-7784759","COUNTYNAME":"屏東縣","TOWNNAME":"內埔鄉","MARKTYPE":"994","Class":"4"},"geometry":{"x":207570.50090000033,"y":2502861.4317000005}},{"attributes":{"OBJECTID":15350,"LANDMARKID":"1001300000980","LANDMARKCO":"405","LANDMARKNA":"千越加油站-內埔站(中油)","LANDMARKAD":"1001313","ADDRESS":"屏東縣內埔鄉中正路168號","TEL":"08-779-6565","COUNTYNAME":"屏東縣","TOWNNAME":"內埔鄉","MARKTYPE":"994","Class":"4"},"geometry":{"x":203455.9868999999,"y":2503322.0175999999}},{"attributes":{"OBJECTID":15351,"LANDMARKID":"1001300000981","LANDMARKCO":"405","LANDMARKNA":"中油加油站-豐田站","LANDMARKAD":"1001313","ADDRESS":"屏東縣內埔鄉豐田村中正路467號","TEL":"08-7792998","COUNTYNAME":"屏東縣","TOWNNAME":"內埔鄉","MARKTYPE":"994","Class":"4"},"geometry":{"x":202804.08579999954,"y":2503901.7898999993}},{"attributes":{"OBJECTID":15352,"LANDMARKID":"1001300000982","LANDMARKCO":"405","LANDMARKNA":"中油加油站-水門站(中油直營)","LANDMARKAD":"1001313","ADDRESS":"屏東縣內埔鄉水門村中山路1號","TEL":"08-7991585","COUNTYNAME":"屏東縣","TOWNNAME":"內埔鄉","MARKTYPE":"994","Class":"4"},"geometry":{"x":212803.29420000035,"y":2511621.6955999993}},{"attributes":{"OBJECTID":15353,"LANDMARKID":"1001300000983","LANDMARKCO":"405","LANDMARKNA":"中油加油站-龍泉站","LANDMARKAD":"1001313","ADDRESS":"屏東縣內埔鄉大新村大新路66號","TEL":"08-7700122","COUNTYNAME":"屏東縣","TOWNNAME":"內埔鄉","MARKTYPE":"994","Class":"4"},"geometry":{"x":208138.66199999955,"y":2507741.4721000008}},{"attributes":{"OBJECTID":15354,"LANDMARKID":"1001300000878","LANDMARKCO":"402","LANDMARKNA":"亞太行動寬頻電信-內埔廣濟加盟服務中心","LANDMARKAD":"1001313","ADDRESS":"屏東縣內埔鄉廣濟路267號","TEL":"08-7690852","COUNTYNAME":"屏東縣","TOWNNAME":"內埔鄉","MARKTYPE":"994","Class":"4"},"geometry":{"x":205402.62980000023,"y":2501721.6920999996}},{"attributes":{"OBJECTID":15355,"LANDMARKID":"1001300000819","LANDMARKCO":"401","LANDMARKNA":"龍泉榮民醫院","LANDMARKAD":"1001313","ADDRESS":"屏東縣內埔鄉龍潭村昭勝路安平一巷1號","TEL":"08-7702212","COUNTYNAME":"屏東縣","TOWNNAME":"內埔鄉","MARKTYPE":"994","Class":"4"},"geometry":{"x":208780.89549999963,"y":2508390.4607999995}},{"attributes":{"OBJECTID":15356,"LANDMARKID":"1001300001256","LANDMARKCO":"507","LANDMARKNA":"六堆天后宮","LANDMARKAD":"1001313","ADDRESS":"屏東縣內埔鄉內田村廣濟路164號","TEL":" ","COUNTYNAME":"屏東縣","TOWNNAME":"內埔鄉","MARKTYPE":"995","Class":"5"},"geometry":{"x":204455.77969999984,"y":2501160.4017999992}},{"attributes":{"OBJECTID":15357,"LANDMARKID":"1001300001257","LANDMARKCO":"507","LANDMARKNA":"新北勢庄東柵門","LANDMARKAD":"1001313","ADDRESS":"屏東縣內埔鄉豐田村新北勢段981地號","TEL":" ","COUNTYNAME":"屏東縣","TOWNNAME":"內埔鄉","MARKTYPE":"995","Class":"5"},"geometry":{"x":203026.41870000027,"y":2503390.0355999991}},{"attributes":{"OBJECTID":15358,"LANDMARKID":"1001300001121","LANDMARKCO":"408","LANDMARKNA":"郵局-內埔水門郵局","LANDMARKAD":"1001313","ADDRESS":"屏東縣內埔鄉水門村育英路1號","TEL":"(08)7991-145","COUNTYNAME":"屏東縣","TOWNNAME":"內埔鄉","MARKTYPE":"994","Class":"4"},"geometry":{"x":213546.61550000031,"y":2512191.1830000002}},{"attributes":{"OBJECTID":15359,"LANDMARKID":"1001300001122","LANDMARKCO":"408","LANDMARKNA":"郵局-內埔郵局","LANDMARKAD":"1001313","ADDRESS":"屏東縣內埔鄉內埔村文化路277號","TEL":"(08)7782-887","COUNTYNAME":"屏東縣","TOWNNAME":"內埔鄉","MARKTYPE":"994","Class":"4"},"geometry":{"x":205508.60780000035,"y":2501421.1732000001}},{"attributes":{"OBJECTID":15360,"LANDMARKID":"1001300001123","LANDMARKCO":"408","LANDMARKNA":"郵局-內埔龍泉郵局","LANDMARKAD":"1001313","ADDRESS":"屏東縣內埔鄉龍潭村昭勝路265號","TEL":"(08)7701-221","COUNTYNAME":"屏東縣","TOWNNAME":"內埔鄉","MARKTYPE":"994","Class":"4"},"geometry":{"x":208964.28050000034,"y":2508311.1894000005}},{"attributes":{"OBJECTID":15361,"LANDMARKID":"1001300001124","LANDMARKCO":"408","LANDMARKNA":"郵局-內埔豐田郵局","LANDMARKAD":"1001313","ADDRESS":"屏東縣內埔鄉豐田村中正路310號","TEL":"(08)7782-229","COUNTYNAME":"屏東縣","TOWNNAME":"內埔鄉","MARKTYPE":"994","Class":"4"},"geometry":{"x":203147.64829999954,"y":2503561.8044000007}},{"attributes":{"OBJECTID":15362,"LANDMARKID":"1001300001125","LANDMARKCO":"408","LANDMARKNA":"郵局-內埔學府郵局","LANDMARKAD":"1001313","ADDRESS":"屏東縣內埔鄉老埤村學府路1號(屏東科技大學內)","TEL":"(08)7700-625","COUNTYNAME":"屏東縣","TOWNNAME":"內埔鄉","MARKTYPE":"994","Class":"4"},"geometry":{"x":208484.30109999981,"y":2504611.466}},{"attributes":{"OBJECTID":15363,"LANDMARKID":"1001300001126","LANDMARKCO":"408","LANDMARKNA":"郵局-內埔建興郵局","LANDMARKAD":"1001313","ADDRESS":"屏東縣內埔鄉建興村100號(屏東榮家內)","TEL":"(08)7702-444","COUNTYNAME":"屏東縣","TOWNNAME":"內埔鄉","MARKTYPE":"994","Class":"4"},"geometry":{"x":206297.36539999954,"y":2506220.4965000004}},{"attributes":{"OBJECTID":15364,"LANDMARKID":"1001300001175","LANDMARKCO":"409","LANDMARKNA":"屏東縣內埔鄉農會","LANDMARKAD":"1001313","ADDRESS":"屏東縣內埔鄉東寧村平昌街1號","TEL":"08-7783251-5","COUNTYNAME":"屏東縣","TOWNNAME":"內埔鄉","MARKTYPE":"994","Class":"4"},"geometry":{"x":204520.9534,"y":2501892.7114000004}},{"attributes":{"OBJECTID":15365,"LANDMARKID":"1001300000135","LANDMARKCO":"106","LANDMARKNA":"屏東縣瑪家鄉戶政事務所","LANDMARKAD":"1001313","ADDRESS":"屏東縣瑪家鄉北葉村1鄰風景1號","TEL":"08-7991483","COUNTYNAME":"屏東縣","TOWNNAME":"內埔鄉","MARKTYPE":"991","Class":"1"},"geometry":{"x":213700.64250000007,"y":2512180.5504999999}},{"attributes":{"OBJECTID":15366,"LANDMARKID":"1001300000251","LANDMARKCO":"107","LANDMARKNA":"屏東縣警察局新北勢派出所","LANDMARKAD":"1001313","ADDRESS":"屏東縣內埔鄉豐田村新中路79號","TEL":"08-7792804","COUNTYNAME":"屏東縣","TOWNNAME":"內埔鄉","MARKTYPE":"991","Class":"1"},"geometry":{"x":203030.38289999962,"y":2503340.4477999993}},{"attributes":{"OBJECTID":15367,"LANDMARKID":"1001300000136","LANDMARKCO":"106","LANDMARKNA":"屏東縣內埔鄉戶政事務所","LANDMARKAD":"1001313","ADDRESS":"屏東縣內埔鄉內埔村35鄰廣濟路24號","TEL":"08-7792707","COUNTYNAME":"屏東縣","TOWNNAME":"內埔鄉","MARKTYPE":"991","Class":"1"},"geometry":{"x":205462.31570000015,"y":2501371.0386999995}},{"attributes":{"OBJECTID":15368,"LANDMARKID":"1001300000244","LANDMARKCO":"107","LANDMARKNA":"屏東縣消防局內埔消防分隊","LANDMARKAD":"1001313","ADDRESS":"屏東縣內埔鄉內田村廣濟路209號","TEL":"08-7792184","COUNTYNAME":"屏東縣","TOWNNAME":"內埔鄉","MARKTYPE":"991","Class":"1"},"geometry":{"x":205423.67559999973,"y":2501591.7594000008}},{"attributes":{"OBJECTID":15369,"LANDMARKID":"1001300000245","LANDMARKCO":"107","LANDMARKNA":"屏東縣消防局龍泉消防分隊","LANDMARKAD":"1001313","ADDRESS":"屏東縣內埔鄉龍泉村中勝路308號","TEL":"08-7705079","COUNTYNAME":"屏東縣","TOWNNAME":"內埔鄉","MARKTYPE":"991","Class":"1"},"geometry":{"x":208928.67260000017,"y":2507741.3458999991}},{"attributes":{"OBJECTID":15370,"LANDMARKID":"1001300000246","LANDMARKCO":"107","LANDMARKNA":"屏東縣警察局內埔分局","LANDMARKAD":"1001313","ADDRESS":"屏東縣內埔鄉內埔村中興路158號","TEL":"08-7796801","COUNTYNAME":"屏東縣","TOWNNAME":"內埔鄉","MARKTYPE":"991","Class":"1"},"geometry":{"x":205761.04169999994,"y":2501471.0765000004}},{"attributes":{"OBJECTID":15371,"LANDMARKID":"1001300000247","LANDMARKCO":"107","LANDMARKNA":"屏東縣警察局水門派出所","LANDMARKAD":"1001313","ADDRESS":"屏東縣內埔鄉水門村中山路269號","TEL":"08-7991149","COUNTYNAME":"屏東縣","TOWNNAME":"內埔鄉","MARKTYPE":"991","Class":"1"},"geometry":{"x":213466.14529999997,"y":2512001.9284000006}},{"attributes":{"OBJECTID":15372,"LANDMARKID":"1001300000248","LANDMARKCO":"107","LANDMARKNA":"屏東縣警察局龍泉派出所","LANDMARKAD":"1001313","ADDRESS":"屏東縣內埔鄉龍泉村原勝路76號","TEL":"08-7701744","COUNTYNAME":"屏東縣","TOWNNAME":"內埔鄉","MARKTYPE":"991","Class":"1"},"geometry":{"x":208918.92619999964,"y":2507711.3219000008}},{"attributes":{"OBJECTID":15373,"LANDMARKID":"1001300000249","LANDMARKCO":"107","LANDMARKNA":"屏東縣警察局新東勢派出所","LANDMARKAD":"1001313","ADDRESS":"屏東縣內埔鄉東勢村嘉應路82號","TEL":"08-7794617","COUNTYNAME":"屏東縣","TOWNNAME":"內埔鄉","MARKTYPE":"991","Class":"1"},"geometry":{"x":205862.8853000002,"y":2503991.6000999995}},{"attributes":{"OBJECTID":15374,"LANDMARKID":"1001300000250","LANDMARKCO":"107","LANDMARKNA":"屏東縣警察局內埔派出所","LANDMARKAD":"1001313","ADDRESS":"屏東縣內埔鄉內埔村中興路158號","TEL":"08-7792801","COUNTYNAME":"屏東縣","TOWNNAME":"內埔鄉","MARKTYPE":"991","Class":"1"},"geometry":{"x":205761.04169999994,"y":2501471.0765000004}},{"attributes":{"OBJECTID":15375,"LANDMARKID":"1001300000081","LANDMARKCO":"103","LANDMARKNA":"屏東縣內埔鄉衛生所","LANDMARKAD":"1001313","ADDRESS":"屏東縣內埔鄉內埔村中興路191號","TEL":"08-7792414","COUNTYNAME":"屏東縣","TOWNNAME":"內埔鄉","MARKTYPE":"991","Class":"1"},"geometry":{"x":205694.15710000042,"y":2501431.7109999992}},{"attributes":{"OBJECTID":15376,"LANDMARKID":"1001300000082","LANDMARKCO":"103","LANDMARKNA":"屏東縣內埔鄉民代表會","LANDMARKAD":"1001313","ADDRESS":"屏東縣內埔鄉內埔村廣濟路26號","TEL":"08-7792264","COUNTYNAME":"屏東縣","TOWNNAME":"內埔鄉","MARKTYPE":"991","Class":"1"},"geometry":{"x":205491.28650000039,"y":2501381.1228999998}},{"attributes":{"OBJECTID":15377,"LANDMARKID":"1001300000314","LANDMARKCO":"108","LANDMARKNA":"屏東縣內埔鄉公所","LANDMARKAD":"1001313","ADDRESS":"屏東縣內埔鄉內埔村廣濟路26號","TEL":"08-7792001","COUNTYNAME":"屏東縣","TOWNNAME":"內埔鄉","MARKTYPE":"991","Class":"1"},"geometry":{"x":205491.28650000039,"y":2501381.1228999998}},{"attributes":{"OBJECTID":15378,"LANDMARKID":"1001300000018","LANDMARKCO":"101","LANDMARKNA":"工業局內埔工業區服務中心","LANDMARKAD":"1001313","ADDRESS":"屏東縣內埔鄉豐田村建國路4號","TEL":"08-7782702","COUNTYNAME":"屏東縣","TOWNNAME":"內埔鄉","MARKTYPE":"991","Class":"1"},"geometry":{"x":202851.05680000037,"y":2504222.0195000004}},{"attributes":{"OBJECTID":15379,"LANDMARKID":"1001300000252","LANDMARKCO":"107","LANDMARKNA":"屏東縣警察局三民派出所","LANDMARKAD":"1001313","ADDRESS":"屏東縣內埔鄉三和村三和巷15號","TEL":"08-7992571","COUNTYNAME":"屏東縣","TOWNNAME":"內埔鄉","MARKTYPE":"991","Class":"1"},"geometry":{"x":209723.35840000026,"y":2511360.6635999996}},{"attributes":{"OBJECTID":15380,"LANDMARKID":"1001300000080","LANDMARKCO":"103","LANDMARKNA":"屏東縣瑪家鄉鄉民代表會","LANDMARKAD":"1001313","ADDRESS":"屏東縣瑪家鄉北葉村85號","TEL":"08-7991113","COUNTYNAME":"屏東縣","TOWNNAME":"內埔鄉","MARKTYPE":"991","Class":"1"},"geometry":{"x":213995.36610000022,"y":2511990.5700000003}},{"attributes":{"OBJECTID":15381,"LANDMARKID":"1001300000313","LANDMARKCO":"108","LANDMARKNA":"屏東縣瑪家鄉公所","LANDMARKAD":"1001313","ADDRESS":"屏東縣瑪家鄉北葉村風景巷85號","TEL":"08-7992009","COUNTYNAME":"屏東縣","TOWNNAME":"內埔鄉","MARKTYPE":"991","Class":"1"},"geometry":{"x":213972.87990000006,"y":2512080.5152000003}},{"attributes":{"OBJECTID":15382,"LANDMARKID":"1001300000019","LANDMARKCO":"101","LANDMARKNA":"國軍退除役官兵輔導委員會","LANDMARKAD":"1001313","ADDRESS":"屏東縣內埔鄉建興村100號","TEL":"08-7701621","COUNTYNAME":"屏東縣","TOWNNAME":"內埔鄉","MARKTYPE":"991","Class":"1"},"geometry":{"x":206290.90020000003,"y":2506240.7359999996}},{"attributes":{"OBJECTID":15383,"LANDMARKID":"1001300000676","LANDMARKCO":"205","LANDMARKNA":"劉活山地石板屋民俗文物館","LANDMARKAD":"1001313","ADDRESS":"屏東縣內埔鄉中興路14號","TEL":"08-7784580","COUNTYNAME":"屏東縣","TOWNNAME":"內埔鄉","MARKTYPE":"992","Class":"2"},"geometry":{"x":205598.03129999992,"y":2501109.7090000007}},{"attributes":{"OBJECTID":15384,"LANDMARKID":"1001300000677","LANDMARKCO":"205","LANDMARKNA":"屏東科技大學農機具陳列館","LANDMARKAD":"1001313","ADDRESS":"屏東縣內埔鄉學府路1號","TEL":"08-7703202","COUNTYNAME":"屏東縣","TOWNNAME":"內埔鄉","MARKTYPE":"992","Class":"2"},"geometry":{"x":208484.08899999969,"y":2504568.5764000006}},{"attributes":{"OBJECTID":15385,"LANDMARKID":"1001300000645","LANDMARKCO":"204","LANDMARKNA":"屏東縣立圖書館內埔中正分館","LANDMARKAD":"1001313","ADDRESS":"屏東縣內埔鄉內埔村廣濟路26號","TEL":" ","COUNTYNAME":"屏東縣","TOWNNAME":"內埔鄉","MARKTYPE":"992","Class":"2"},"geometry":{"x":205540.20779999997,"y":2501393.0547000002}},{"attributes":{"OBJECTID":15386,"LANDMARKID":"1001300000539","LANDMARKCO":"203","LANDMARKNA":"縣立佳義國小","LANDMARKAD":"1001313","ADDRESS":"屏東縣瑪家鄉佳義村泰平巷12號","TEL":"08-7990038","COUNTYNAME":"屏東縣","TOWNNAME":"內埔鄉","MARKTYPE":"992","Class":"2"},"geometry":{"x":212048.85639999993,"y":2505940.0514000002}},{"attributes":{"OBJECTID":15387,"LANDMARKID":"1001300000360","LANDMARKCO":"202","LANDMARKNA":"私立美和高中","LANDMARKAD":"1001313","ADDRESS":"屏東縣內埔鄉美和村學人路323號","TEL":"08-7792045","COUNTYNAME":"屏東縣","TOWNNAME":"內埔鄉","MARKTYPE":"992","Class":"2"},"geometry":{"x":204676.18340000045,"y":2500181.2588999998}},{"attributes":{"OBJECTID":15388,"LANDMARKID":"1001300000361","LANDMARKCO":"202","LANDMARKNA":"國立內埔農工","LANDMARKAD":"1001313","ADDRESS":"屏東縣內埔鄉水門村成功路83號","TEL":"08-7991103","COUNTYNAME":"屏東縣","TOWNNAME":"內埔鄉","MARKTYPE":"992","Class":"2"},"geometry":{"x":213252.64290000033,"y":2512101.4135999996}},{"attributes":{"OBJECTID":15389,"LANDMARKID":"1001300000362","LANDMARKCO":"202","LANDMARKNA":"私立美和高中附設國中部","LANDMARKAD":"1001313","ADDRESS":"屏東縣內埔鄉美和村學人路323號","TEL":"08-7792045","COUNTYNAME":"屏東縣","TOWNNAME":"內埔鄉","MARKTYPE":"992","Class":"2"},"geometry":{"x":204676.18340000045,"y":2500181.2588999998}},{"attributes":{"OBJECTID":15390,"LANDMARKID":"1001300000519","LANDMARKCO":"203","LANDMARKNA":"縣立內埔國中","LANDMARKAD":"1001313","ADDRESS":"屏東縣內埔鄉文化路262號","TEL":"08-7783866","COUNTYNAME":"屏東縣","TOWNNAME":"內埔鄉","MARKTYPE":"992","Class":"2"},"geometry":{"x":205846.53199999966,"y":2501301.3231000006}},{"attributes":{"OBJECTID":15391,"LANDMARKID":"1001300000520","LANDMARKCO":"203","LANDMARKNA":"縣立崇文國中","LANDMARKAD":"1001313","ADDRESS":"屏東縣內埔鄉龍潭村昭勝路438號","TEL":"08-7701864","COUNTYNAME":"屏東縣","TOWNNAME":"內埔鄉","MARKTYPE":"992","Class":"2"},"geometry":{"x":209114.4534,"y":2508751.8378999997}},{"attributes":{"OBJECTID":15392,"LANDMARKID":"1001300000521","LANDMARKCO":"203","LANDMARKNA":"縣立東勢國小","LANDMARKAD":"1001313","ADDRESS":"屏東縣內埔鄉東勢村大同路三段20號","TEL":"08-7792449","COUNTYNAME":"屏東縣","TOWNNAME":"內埔鄉","MARKTYPE":"992","Class":"2"},"geometry":{"x":206224.32589999959,"y":2504151.8127999995}},{"attributes":{"OBJECTID":15393,"LANDMARKID":"1001300000522","LANDMARKCO":"203","LANDMARKNA":"縣立新生國小","LANDMARKAD":"1001313","ADDRESS":"屏東縣內埔鄉大新村大新路109號","TEL":"08-7701044","COUNTYNAME":"屏東縣","TOWNNAME":"內埔鄉","MARKTYPE":"992","Class":"2"},"geometry":{"x":207963.47790000029,"y":2507501.8377}},{"attributes":{"OBJECTID":15394,"LANDMARKID":"1001300000523","LANDMARKCO":"203","LANDMARKNA":"縣立東寧國小","LANDMARKAD":"1001313","ADDRESS":"屏東縣內埔鄉自強路85號","TEL":"08-7785563","COUNTYNAME":"屏東縣","TOWNNAME":"內埔鄉","MARKTYPE":"992","Class":"2"},"geometry":{"x":205065.04580000043,"y":2501771.5474999994}},{"attributes":{"OBJECTID":15395,"LANDMARKID":"1001300000524","LANDMARKCO":"203","LANDMARKNA":"縣立黎明國小","LANDMARKAD":"1001313","ADDRESS":"屏東縣內埔鄉黎明村西淇路177號","TEL":"08-7701200","COUNTYNAME":"屏東縣","TOWNNAME":"內埔鄉","MARKTYPE":"992","Class":"2"},"geometry":{"x":208578.29860000033,"y":2509731.9335999992}},{"attributes":{"OBJECTID":15396,"LANDMARKID":"1001300000525","LANDMARKCO":"203","LANDMARKNA":"縣立育英國小","LANDMARKAD":"1001313","ADDRESS":"屏東縣內埔鄉興南村育文路73號","TEL":"08-7793004","COUNTYNAME":"屏東縣","TOWNNAME":"內埔鄉","MARKTYPE":"992","Class":"2"},"geometry":{"x":206980.22599999979,"y":2502341.2836000007}},{"attributes":{"OBJECTID":15397,"LANDMARKID":"1001300000526","LANDMARKCO":"203","LANDMARKNA":"縣立富田國小","LANDMARKAD":"1001313","ADDRESS":"屏東縣內埔鄉富田村里仁路202號","TEL":"08-7791034","COUNTYNAME":"屏東縣","TOWNNAME":"內埔鄉","MARKTYPE":"992","Class":"2"},"geometry":{"x":202756.80790000036,"y":2501831.7518000007}},{"attributes":{"OBJECTID":15398,"LANDMARKID":"1001300000527","LANDMARKCO":"203","LANDMARKNA":"縣立榮華國小","LANDMARKAD":"1001313","ADDRESS":"屏東縣內埔鄉建興村建興路216號","TEL":"08-7701104","COUNTYNAME":"屏東縣","TOWNNAME":"內埔鄉","MARKTYPE":"992","Class":"2"},"geometry":{"x":205248.7731999997,"y":2506801.4551999997}},{"attributes":{"OBJECTID":15399,"LANDMARKID":"1001300000528","LANDMARKCO":"203","LANDMARKNA":"縣立崇文國小","LANDMARKAD":"1001313","ADDRESS":"屏東縣內埔鄉龍泉村原勝路6號","TEL":"08-7701004","COUNTYNAME":"屏東縣","TOWNNAME":"內埔鄉","MARKTYPE":"992","Class":"2"},"geometry":{"x":208917.62540000025,"y":2507451.3183999993}},{"attributes":{"OBJECTID":15400,"LANDMARKID":"1001300000529","LANDMARKCO":"203","LANDMARKNA":"縣立隘寮國小","LANDMARKAD":"1001313","ADDRESS":"屏東縣內埔鄉清涼路二段238號","TEL":"08-7991036","COUNTYNAME":"屏東縣","TOWNNAME":"內埔鄉","MARKTYPE":"992","Class":"2"},"geometry":{"x":212575.13970000017,"y":2511371.8620999996}}]}