{"displayFieldName":"COUNTYNAME","fieldAliases":{"OBJECTID":"OBJECTID","LANDMARKID":"LANDMARKID","LANDMARKCO":"LANDMARKCO","LANDMARKNA":"LANDMARKNA","LANDMARKAD":"LANDMARKAD","ADDRESS":"ADDRESS","TEL":"TEL","COUNTYNAME":"COUNTYNAME","TOWNNAME":"TOWNNAME","MARKTYPE":"MARKTYPE","Class":"Class"},"geometryType":"esriGeometryPoint","spatialReference":{"wkid":4326},"fields":[{"name":"OBJECTID","type":"esriFieldTypeOID","alias":"OBJECTID"},{"name":"LANDMARKID","type":"esriFieldTypeString","alias":"LANDMARKID","length":15},{"name":"LANDMARKCO","type":"esriFieldTypeString","alias":"LANDMARKCO","length":15},{"name":"LANDMARKNA","type":"esriFieldTypeString","alias":"LANDMARKNA","length":50},{"name":"LANDMARKAD","type":"esriFieldTypeString","alias":"LANDMARKAD","length":15},{"name":"ADDRESS","type":"esriFieldTypeString","alias":"ADDRESS","length":56},{"name":"TEL","type":"esriFieldTypeString","alias":"TEL","length":36},{"name":"COUNTYNAME","type":"esriFieldTypeString","alias":"COUNTYNAME","length":15},{"name":"TOWNNAME","type":"esriFieldTypeString","alias":"TOWNNAME","length":13},{"name":"MARKTYPE","type":"esriFieldTypeString","alias":"MARKTYPE","length":12},{"name":"Class","type":"esriFieldTypeString","alias":"Class","length":5}],"features":[{"attributes":{"OBJECTID":15401,"LANDMARKID":"1001300000530","LANDMARKCO":"203","LANDMARKNA":"縣立豐田國小","LANDMARKAD":"1001313","ADDRESS":"屏東縣內埔鄉豐田村新中路49號","TEL":"08-7791003","COUNTYNAME":"屏東縣","TOWNNAME":"內埔鄉","MARKTYPE":"992","Class":"2"},"geometry":{"x":120.54062990274672,"y":22.626532882024751}},{"attributes":{"OBJECTID":15402,"LANDMARKID":"1001300000531","LANDMARKCO":"203","LANDMARKNA":"縣立泰安國小","LANDMARKAD":"1001313","ADDRESS":"屏東縣內埔鄉老埤村壽比路116號","TEL":"08-7783031","COUNTYNAME":"屏東縣","TOWNNAME":"內埔鄉","MARKTYPE":"992","Class":"2"},"geometry":{"x":120.59431243324374,"y":22.630831328022047}},{"attributes":{"OBJECTID":15403,"LANDMARKID":"1001300000532","LANDMARKCO":"203","LANDMARKNA":"縣立內埔國小","LANDMARKAD":"1001313","ADDRESS":"屏東縣內埔鄉內埔村廣濟路2號","TEL":"08-7792055","COUNTYNAME":"屏東縣","TOWNNAME":"內埔鄉","MARKTYPE":"992","Class":"2"},"geometry":{"x":120.56593636532163,"y":22.609984635351843}},{"attributes":{"OBJECTID":15404,"LANDMARKID":"1001300000533","LANDMARKCO":"203","LANDMARKNA":"縣立僑智國小","LANDMARKAD":"1001313","ADDRESS":"屏東縣內埔鄉美和村學人路55號","TEL":"08-7792544","COUNTYNAME":"屏東縣","TOWNNAME":"內埔鄉","MARKTYPE":"992","Class":"2"},"geometry":{"x":120.55664002543925,"y":22.594965212825258}},{"attributes":{"OBJECTID":15405,"LANDMARKID":"1001300000341","LANDMARKCO":"201","LANDMARKNA":"美和技術學院","LANDMARKAD":"1001313","ADDRESS":"屏東縣內埔鄉屏光路23號","TEL":"08-7799821","COUNTYNAME":"屏東縣","TOWNNAME":"內埔鄉","MARKTYPE":"992","Class":"2"},"geometry":{"x":120.56072560826176,"y":22.603649770152305}},{"attributes":{"OBJECTID":15406,"LANDMARKID":"1001300000342","LANDMARKCO":"201","LANDMARKNA":"國立屏東科技大學","LANDMARKAD":"1001313","ADDRESS":"屏東縣內埔鄉學府路1號","TEL":"08-7703202","COUNTYNAME":"屏東縣","TOWNNAME":"內埔鄉","MARKTYPE":"992","Class":"2"},"geometry":{"x":120.59607597330269,"y":22.641221095012114}},{"attributes":{"OBJECTID":15407,"LANDMARKID":"1001300000534","LANDMARKCO":"203","LANDMARKNA":"縣立瑪家國中","LANDMARKAD":"1001313","ADDRESS":"屏東縣瑪家鄉三和村三和巷16號","TEL":"08-7994343","COUNTYNAME":"屏東縣","TOWNNAME":"內埔鄉","MARKTYPE":"992","Class":"2"},"geometry":{"x":120.60972292712108,"y":22.702201864650561}},{"attributes":{"OBJECTID":15408,"LANDMARKID":"1001300000535","LANDMARKCO":"203","LANDMARKNA":"縣立北葉國小","LANDMARKAD":"1001313","ADDRESS":"屏東縣瑪家鄉北葉村風景巷1號","TEL":"08-7991649","COUNTYNAME":"屏東縣","TOWNNAME":"內埔鄉","MARKTYPE":"992","Class":"2"},"geometry":{"x":120.64569541519572,"y":22.705626379458163}},{"attributes":{"OBJECTID":15409,"LANDMARKID":"1001300000536","LANDMARKCO":"203","LANDMARKNA":"縣立黎明國小分校","LANDMARKAD":"1001313","ADDRESS":"屏東縣內埔鄉","TEL":" ","COUNTYNAME":"屏東縣","TOWNNAME":"內埔鄉","MARKTYPE":"992","Class":"2"},"geometry":{"x":120.63314867085339,"y":22.700995517857923}},{"attributes":{"OBJECTID":15410,"LANDMARKID":"1001300000709","LANDMARKCO":"302","LANDMARKNA":"屏東汽車客運三地門站","LANDMARKAD":"1001313","ADDRESS":"屏東縣內埔鄉中山路181號","TEL":" ","COUNTYNAME":"屏東縣","TOWNNAME":"內埔鄉","MARKTYPE":"993","Class":"302"},"geometry":{"x":120.64085281698311,"y":22.706061082831866}},{"attributes":{"OBJECTID":15411,"LANDMARKID":"1001300000759","LANDMARKCO":"303","LANDMARKNA":"內埔鄉停車場","LANDMARKAD":"1001313","ADDRESS":"屏東縣內埔鄉仁和路","TEL":" ","COUNTYNAME":"屏東縣","TOWNNAME":"內埔鄉","MARKTYPE":"993","Class":"303"},"geometry":{"x":120.56768932659419,"y":22.611319409633364}},{"attributes":{"OBJECTID":15412,"LANDMARKID":"1001300000879","LANDMARKCO":"402","LANDMARKNA":"中華電信-內埔服務中心","LANDMARKAD":"1001313","ADDRESS":"屏東縣內埔鄉南寧路192號","TEL":"(08)744-5001","COUNTYNAME":"屏東縣","TOWNNAME":"內埔鄉","MARKTYPE":"994","Class":"4"},"geometry":{"x":120.56221724187886,"y":22.6198157701509}},{"attributes":{"OBJECTID":15413,"LANDMARKID":"1001300000880","LANDMARKCO":"402","LANDMARKNA":"威寶電信-內埔廣濟特約服務中心","LANDMARKAD":"1001313","ADDRESS":"屏東縣內埔鄉廣濟路167號","TEL":"08-7791008","COUNTYNAME":"屏東縣","TOWNNAME":"內埔鄉","MARKTYPE":"994","Class":"4"},"geometry":{"x":120.56658235037222,"y":22.612968356299753}},{"attributes":{"OBJECTID":15414,"LANDMARKID":"1001300001318","LANDMARKCO":"603","LANDMARKNA":"清峰旅社","LANDMARKAD":"1001313","ADDRESS":"屏東縣內埔鄉水門村自立路125號","TEL":"08-7991119","COUNTYNAME":"屏東縣","TOWNNAME":"內埔鄉","MARKTYPE":"996","Class":"6"},"geometry":{"x":120.64442642618,"y":22.709717223093488}},{"attributes":{"OBJECTID":15415,"LANDMARKID":"1001300001319","LANDMARKCO":"603","LANDMARKNA":"樺園汽車旅館","LANDMARKAD":"1001313","ADDRESS":"屏東縣內埔鄉東寧村自強路150號1樓","TEL":"08-7789321","COUNTYNAME":"屏東縣","TOWNNAME":"內埔鄉","MARKTYPE":"996","Class":"6"},"geometry":{"x":120.56226887818605,"y":22.616564918127107}},{"attributes":{"OBJECTID":15416,"LANDMARKID":"1001300001320","LANDMARKCO":"603","LANDMARKNA":"榮山旅社","LANDMARKAD":"1001313","ADDRESS":"屏東縣內埔鄉東寧村南寧路159號","TEL":"08-7792166","COUNTYNAME":"屏東縣","TOWNNAME":"內埔鄉","MARKTYPE":"996","Class":"6"},"geometry":{"x":120.56275719714105,"y":22.619186564736623}},{"attributes":{"OBJECTID":15417,"LANDMARKID":"1001300001321","LANDMARKCO":"603","LANDMARKNA":"親家大旅社","LANDMARKAD":"1001313","ADDRESS":"屏東縣內埔鄉美和村學人路133號1樓","TEL":"08-7694828","COUNTYNAME":"屏東縣","TOWNNAME":"內埔鄉","MARKTYPE":"996","Class":"6"},"geometry":{"x":120.55799523045422,"y":22.596688590609176}},{"attributes":{"OBJECTID":15418,"LANDMARKID":"1001300001322","LANDMARKCO":"603","LANDMARKNA":"新展旅社","LANDMARKAD":"1001313","ADDRESS":"屏東縣內埔鄉大新村大新路399號","TEL":"08-7705566","COUNTYNAME":"屏東縣","TOWNNAME":"內埔鄉","MARKTYPE":"996","Class":"6"},"geometry":{"x":120.58725001086357,"y":22.668920234500064}},{"attributes":{"OBJECTID":15419,"LANDMARKID":"1001300001323","LANDMARKCO":"603","LANDMARKNA":"六福大旅社","LANDMARKAD":"1001313","ADDRESS":"屏東縣內埔鄉中林村中林路1185號","TEL":"08-7701141","COUNTYNAME":"屏東縣","TOWNNAME":"內埔鄉","MARKTYPE":"996","Class":"6"},"geometry":{"x":120.59879320882099,"y":22.661093630782606}},{"attributes":{"OBJECTID":15420,"LANDMARKID":"1001300001324","LANDMARKCO":"603","LANDMARKNA":"夢汽車旅館","LANDMARKAD":"1001313","ADDRESS":"屏東縣內埔鄉內田村永光路7號","TEL":"08-7781628","COUNTYNAME":"屏東縣","TOWNNAME":"內埔鄉","MARKTYPE":"996","Class":"6"},"geometry":{"x":120.56399348685022,"y":22.608709753689116}},{"attributes":{"OBJECTID":15421,"LANDMARKID":"1001300001325","LANDMARKCO":"603","LANDMARKNA":"屏山旅社","LANDMARKAD":"1001313","ADDRESS":"屏東縣內埔鄉水門村中山路339號","TEL":"08-7991803","COUNTYNAME":"屏東縣","TOWNNAME":"內埔鄉","MARKTYPE":"996","Class":"6"},"geometry":{"x":120.64606448088217,"y":22.709068808981513}},{"attributes":{"OBJECTID":15422,"LANDMARKID":"1001300000984","LANDMARKCO":"405","LANDMARKNA":"中油加油站-麟洛站(中油直營)","LANDMARKAD":"1001307","ADDRESS":"屏東縣麟洛鄉麟蹄村中山路64號","TEL":"08-7233148","COUNTYNAME":"屏東縣","TOWNNAME":"麟洛鄉","MARKTYPE":"994","Class":"4"},"geometry":{"x":120.52818302495145,"y":22.648866962271814}},{"attributes":{"OBJECTID":15423,"LANDMARKID":"1001300000818","LANDMARKCO":"401","LANDMARKNA":"屏安醫院","LANDMARKAD":"1001307","ADDRESS":"屏東縣麟洛鄉麟蹄村中山路160之1號","TEL":"08-7211777","COUNTYNAME":"屏東縣","TOWNNAME":"麟洛鄉","MARKTYPE":"994","Class":"4"},"geometry":{"x":120.52812395383057,"y":22.650422243716807}},{"attributes":{"OBJECTID":15424,"LANDMARKID":"1001300001117","LANDMARKCO":"408","LANDMARKNA":"郵局-麟洛郵局","LANDMARKAD":"1001307","ADDRESS":"屏東縣麟洛鄉麟蹄村中山路292號","TEL":"(08)7222-712","COUNTYNAME":"屏東縣","TOWNNAME":"麟洛鄉","MARKTYPE":"994","Class":"4"},"geometry":{"x":120.52370730202482,"y":22.653121912619145}},{"attributes":{"OBJECTID":15425,"LANDMARKID":"1001300001177","LANDMARKCO":"409","LANDMARKNA":"屏東縣麟洛鄉農會","LANDMARKAD":"1001307","ADDRESS":"屏東縣麟洛鄉麟趾村中正路31號","TEL":"08-7222475","COUNTYNAME":"屏東縣","TOWNNAME":"麟洛鄉","MARKTYPE":"994","Class":"4"},"geometry":{"x":120.52591925865258,"y":22.650263276434281}},{"attributes":{"OBJECTID":15426,"LANDMARKID":"1001300000985","LANDMARKCO":"405","LANDMARKNA":"台亞加油站-麟洛交流道站（台塑）","LANDMARKAD":"1001307","ADDRESS":"屏東縣麟洛鄉麟址村中山路27號","TEL":"(08)722-5611","COUNTYNAME":"屏東縣","TOWNNAME":"麟洛鄉","MARKTYPE":"994","Class":"4"},"geometry":{"x":120.53350229766077,"y":22.643033882678235}},{"attributes":{"OBJECTID":15427,"LANDMARKID":"1001300000986","LANDMARKCO":"405","LANDMARKNA":"全國加油站-麟洛站(台塑)","LANDMARKAD":"1001307","ADDRESS":"屏東縣麟洛鄉中山路747號","TEL":"0911383248","COUNTYNAME":"屏東縣","TOWNNAME":"麟洛鄉","MARKTYPE":"994","Class":"4"},"geometry":{"x":120.51716994580927,"y":22.656443146840271}},{"attributes":{"OBJECTID":15428,"LANDMARKID":"1001300001059","LANDMARKCO":"406","LANDMARKNA":"溼地公園","LANDMARKAD":"1001307","ADDRESS":" ","TEL":" ","COUNTYNAME":"屏東縣","TOWNNAME":"麟洛鄉","MARKTYPE":"994","Class":"4"},"geometry":{"x":120.55222523577316,"y":22.656099297806108}},{"attributes":{"OBJECTID":15429,"LANDMARKID":"1001300000137","LANDMARKCO":"106","LANDMARKNA":"屏東縣麟洛鄉戶政事務所","LANDMARKAD":"1001307","ADDRESS":"屏東縣麟洛鄉麟趾村1鄰中山路437之1號","TEL":"08-7221804","COUNTYNAME":"屏東縣","TOWNNAME":"麟洛鄉","MARKTYPE":"991","Class":"1"},"geometry":{"x":120.52498479915837,"y":22.652048060695925}},{"attributes":{"OBJECTID":15430,"LANDMARKID":"1001300000239","LANDMARKCO":"107","LANDMARKNA":"屏東縣警察局麟洛分駐所","LANDMARKAD":"1001307","ADDRESS":"屏東縣麟洛鄉麟趾村中山路437號","TEL":"08-7221528","COUNTYNAME":"屏東縣","TOWNNAME":"麟洛鄉","MARKTYPE":"991","Class":"1"},"geometry":{"x":120.52491669005725,"y":22.652047657439887}},{"attributes":{"OBJECTID":15431,"LANDMARKID":"1001300000079","LANDMARKCO":"103","LANDMARKNA":"屏東縣麟洛鄉衛生所","LANDMARKAD":"1001307","ADDRESS":"屏東縣麟洛鄉麟蹄村中山路156-1號","TEL":"08-7221152","COUNTYNAME":"屏東縣","TOWNNAME":"麟洛鄉","MARKTYPE":"991","Class":"1"},"geometry":{"x":120.52751179012287,"y":22.651061331927554}},{"attributes":{"OBJECTID":15432,"LANDMARKID":"1001300000315","LANDMARKCO":"108","LANDMARKNA":"屏東縣麟洛鄉公所","LANDMARKAD":"1001307","ADDRESS":"屏東縣麟洛鄉麟蹄村中山路158號","TEL":"08-7222553","COUNTYNAME":"屏東縣","TOWNNAME":"麟洛鄉","MARKTYPE":"991","Class":"1"},"geometry":{"x":120.52724183379479,"y":22.650698500100521}},{"attributes":{"OBJECTID":15433,"LANDMARKID":"1001300000072","LANDMARKCO":"103","LANDMARKNA":"屏東縣麟洛鄉民代表會","LANDMARKAD":"1001307","ADDRESS":"屏東縣麟洛鄉麟蹄村中山路158號","TEL":"08-7222635","COUNTYNAME":"屏東縣","TOWNNAME":"麟洛鄉","MARKTYPE":"991","Class":"1"},"geometry":{"x":120.52724183379479,"y":22.650698500100521}},{"attributes":{"OBJECTID":15434,"LANDMARKID":"1001300000020","LANDMARKCO":"101","LANDMARKNA":"農業委員會屏東種苗研究中心","LANDMARKAD":"1001307","ADDRESS":"屏東縣麟洛鄉信義路29號","TEL":"08-7235755","COUNTYNAME":"屏東縣","TOWNNAME":"麟洛鄉","MARKTYPE":"991","Class":"1"},"geometry":{"x":120.53904870888464,"y":22.642960125555934}},{"attributes":{"OBJECTID":15435,"LANDMARKID":"1001300000644","LANDMARKCO":"204","LANDMARKNA":"屏東縣立圖書館麟洛分館","LANDMARKAD":"1001307","ADDRESS":"屏東縣麟洛鄉麟蹢村中山路158號","TEL":" ","COUNTYNAME":"屏東縣","TOWNNAME":"麟洛鄉","MARKTYPE":"992","Class":"2"},"geometry":{"x":120.52750873109703,"y":22.650296683449959}},{"attributes":{"OBJECTID":15436,"LANDMARKID":"1001300000537","LANDMARKCO":"203","LANDMARKNA":"縣立麟洛國中","LANDMARKAD":"1001307","ADDRESS":"屏東縣麟洛鄉中山路2號","TEL":"08-7222812","COUNTYNAME":"屏東縣","TOWNNAME":"麟洛鄉","MARKTYPE":"992","Class":"2"},"geometry":{"x":120.53628583937532,"y":22.641507268855943}},{"attributes":{"OBJECTID":15437,"LANDMARKID":"1001300000538","LANDMARKCO":"203","LANDMARKNA":"縣立麟洛國小","LANDMARKAD":"1001307","ADDRESS":"屏東縣麟洛鄉麟趾村中華路86號","TEL":"08-7221670","COUNTYNAME":"屏東縣","TOWNNAME":"麟洛鄉","MARKTYPE":"992","Class":"2"},"geometry":{"x":120.5224468694158,"y":22.647607814461427}},{"attributes":{"OBJECTID":15438,"LANDMARKID":"1001300000340","LANDMARKCO":"201","LANDMARKNA":"永達技術學院","LANDMARKAD":"1001307","ADDRESS":"屏東縣麟洛鄉中山路316號","TEL":"08-7233733","COUNTYNAME":"屏東縣","TOWNNAME":"麟洛鄉","MARKTYPE":"992","Class":"2"},"geometry":{"x":120.52308585681102,"y":22.653662334544919}},{"attributes":{"OBJECTID":15439,"LANDMARKID":"1001300000803","LANDMARKCO":"308","LANDMARKNA":"國3-麟洛交流道-北上","LANDMARKAD":"1001307","ADDRESS":"屏東縣內埔鄉","TEL":" ","COUNTYNAME":"屏東縣","TOWNNAME":"麟洛鄉","MARKTYPE":"993","Class":"308"},"geometry":{"x":120.54310223330972,"y":22.646882800729678}},{"attributes":{"OBJECTID":15440,"LANDMARKID":"1001300000708","LANDMARKCO":"302","LANDMARKNA":"統聯客運-麟洛站-自營站","LANDMARKAD":"1001307","ADDRESS":"屏東縣麟洛鄉中山路340號","TEL":"連絡電話:08-721","COUNTYNAME":"屏東縣","TOWNNAME":"麟洛鄉","MARKTYPE":"993","Class":"302"},"geometry":{"x":120.52005675337924,"y":22.655189045397336}},{"attributes":{"OBJECTID":15441,"LANDMARKID":"1001300000764","LANDMARKCO":"303","LANDMARKNA":"中山路停車場","LANDMARKAD":"1001307","ADDRESS":"屏東縣麟洛鄉中山路","TEL":" ","COUNTYNAME":"屏東縣","TOWNNAME":"麟洛鄉","MARKTYPE":"993","Class":"303"},"geometry":{"x":120.51039580544055,"y":22.631796867170898}},{"attributes":{"OBJECTID":15442,"LANDMARKID":"1001300000688","LANDMARKCO":"301","LANDMARKNA":"麟洛火車站","LANDMARKAD":"1001307","ADDRESS":"屏東縣麟洛鄉","TEL":" ","COUNTYNAME":"屏東縣","TOWNNAME":"麟洛鄉","MARKTYPE":"993","Class":"301"},"geometry":{"x":120.51416959785314,"y":22.635080605852348}},{"attributes":{"OBJECTID":15443,"LANDMARKID":"1001300001118","LANDMARKCO":"408","LANDMARKNA":"郵局-泰武郵局","LANDMARKAD":"1001329","ADDRESS":"屏東縣泰武鄉佳平村佳平巷102號","TEL":"(08)7832-817","COUNTYNAME":"屏東縣","TOWNNAME":"泰武鄉","MARKTYPE":"994","Class":"4"},"geometry":{"x":120.63101933122033,"y":22.591392130961239}},{"attributes":{"OBJECTID":15444,"LANDMARKID":"1001300000240","LANDMARKCO":"107","LANDMARKNA":"屏東縣警察局武潭派出所","LANDMARKAD":"1001329","ADDRESS":"屏東縣泰武鄉武潭村潭中巷55號","TEL":"08-7833995","COUNTYNAME":"屏東縣","TOWNNAME":"泰武鄉","MARKTYPE":"991","Class":"1"},"geometry":{"x":120.63234036785671,"y":22.57780875778187}},{"attributes":{"OBJECTID":15445,"LANDMARKID":"1001300000241","LANDMARKCO":"107","LANDMARKNA":"屏東縣警察局泰武分駐所","LANDMARKAD":"1001329","ADDRESS":"屏東縣泰武鄉佳平村佳平巷1號","TEL":"08-7833038","COUNTYNAME":"屏東縣","TOWNNAME":"泰武鄉","MARKTYPE":"991","Class":"1"},"geometry":{"x":120.62879893229216,"y":22.591715768101864}},{"attributes":{"OBJECTID":15446,"LANDMARKID":"1001300000242","LANDMARKCO":"107","LANDMARKNA":"屏東縣警察局忠孝派出所","LANDMARKAD":"1001329","ADDRESS":"屏東縣泰武鄉泰武村良武巷101號","TEL":"08-7920001","COUNTYNAME":"屏東縣","TOWNNAME":"泰武鄉","MARKTYPE":"991","Class":"1"},"geometry":{"x":120.66475946617432,"y":22.588181882071019}},{"attributes":{"OBJECTID":15447,"LANDMARKID":"1001300000243","LANDMARKCO":"107","LANDMARKNA":"屏東縣警察局榮和派出所","LANDMARKAD":"1001329","ADDRESS":"屏東縣泰武鄉平和村太和巷18號","TEL":"08-7850477","COUNTYNAME":"屏東縣","TOWNNAME":"泰武鄉","MARKTYPE":"991","Class":"1"},"geometry":{"x":120.62923678028399,"y":22.552613197340762}},{"attributes":{"OBJECTID":15448,"LANDMARKID":"1001300000138","LANDMARKCO":"106","LANDMARKNA":"屏東縣泰武鄉戶政事務所","LANDMARKAD":"1001329","ADDRESS":"屏東縣泰武鄉佳平村1鄰佳平巷1號","TEL":"08-7831027","COUNTYNAME":"屏東縣","TOWNNAME":"泰武鄉","MARKTYPE":"991","Class":"1"},"geometry":{"x":120.63179719431439,"y":22.591804438528296}},{"attributes":{"OBJECTID":15449,"LANDMARKID":"1001300000238","LANDMARKCO":"107","LANDMARKNA":"屏東縣警察局萬順派出所","LANDMARKAD":"1001329","ADDRESS":"屏東縣泰武鄉萬安村萬安巷2號","TEL":"08-7830121","COUNTYNAME":"屏東縣","TOWNNAME":"泰武鄉","MARKTYPE":"991","Class":"1"},"geometry":{"x":120.64130353052775,"y":22.62641746034592}},{"attributes":{"OBJECTID":15450,"LANDMARKID":"1001300000077","LANDMARKCO":"103","LANDMARKNA":"屏東縣泰武鄉衛生所","LANDMARKAD":"1001329","ADDRESS":"屏東縣泰武鄉佳平村179號","TEL":"08-7832059","COUNTYNAME":"屏東縣","TOWNNAME":"泰武鄉","MARKTYPE":"991","Class":"1"},"geometry":{"x":120.65481905509715,"y":22.569369697093506}},{"attributes":{"OBJECTID":15451,"LANDMARKID":"1001300000078","LANDMARKCO":"103","LANDMARKNA":"屏東縣泰武鄉鄉民代表會","LANDMARKAD":"1001329","ADDRESS":"屏東縣泰武鄉佳平村169號","TEL":"08-7833027","COUNTYNAME":"屏東縣","TOWNNAME":"泰武鄉","MARKTYPE":"991","Class":"1"},"geometry":{"x":120.63276927766681,"y":22.591899200873094}},{"attributes":{"OBJECTID":15452,"LANDMARKID":"1001300000316","LANDMARKCO":"108","LANDMARKNA":"屏東縣泰武鄉公所","LANDMARKAD":"1001329","ADDRESS":"屏東縣泰武鄉佳平村169號","TEL":"08-7832435","COUNTYNAME":"屏東縣","TOWNNAME":"泰武鄉","MARKTYPE":"991","Class":"1"},"geometry":{"x":120.63276927766681,"y":22.591899200873094}},{"attributes":{"OBJECTID":15453,"LANDMARKID":"1001300000643","LANDMARKCO":"204","LANDMARKNA":"屏東縣立圖書館泰武分館","LANDMARKAD":"1001329","ADDRESS":"屏東縣泰武鄉佳平村169號","TEL":" ","COUNTYNAME":"屏東縣","TOWNNAME":"泰武鄉","MARKTYPE":"992","Class":"2"},"geometry":{"x":120.63215667256033,"y":22.591855877730257}},{"attributes":{"OBJECTID":15454,"LANDMARKID":"1001300000540","LANDMARKCO":"203","LANDMARKNA":"縣立泰武國小","LANDMARKAD":"1001329","ADDRESS":"屏東縣泰武鄉泰武村良武巷1號","TEL":"08-7920063","COUNTYNAME":"屏東縣","TOWNNAME":"泰武鄉","MARKTYPE":"992","Class":"2"},"geometry":{"x":120.66490070145527,"y":22.585744077411704}},{"attributes":{"OBJECTID":15455,"LANDMARKID":"1001300000541","LANDMARKCO":"203","LANDMARKNA":"縣立武潭國小","LANDMARKAD":"1001329","ADDRESS":"屏東縣泰武鄉武潭村潭中巷45號","TEL":"08-7833179","COUNTYNAME":"屏東縣","TOWNNAME":"泰武鄉","MARKTYPE":"992","Class":"2"},"geometry":{"x":120.6345024037263,"y":22.578453470837065}},{"attributes":{"OBJECTID":15456,"LANDMARKID":"1001300000542","LANDMARKCO":"203","LANDMARKNA":"縣立武潭國小平和分校","LANDMARKAD":"1001329","ADDRESS":"屏東縣泰武鄉平和村太和巷1號","TEL":"08-7851265","COUNTYNAME":"屏東縣","TOWNNAME":"泰武鄉","MARKTYPE":"992","Class":"2"},"geometry":{"x":120.63174552239199,"y":22.553972978187069}},{"attributes":{"OBJECTID":15457,"LANDMARKID":"1001300000543","LANDMARKCO":"203","LANDMARKNA":"縣立泰武國中","LANDMARKAD":"1001329","ADDRESS":"屏東縣泰武鄉佳平路120號","TEL":"08-7831025","COUNTYNAME":"屏東縣","TOWNNAME":"泰武鄉","MARKTYPE":"992","Class":"2"},"geometry":{"x":120.63328902025792,"y":22.591540347702825}},{"attributes":{"OBJECTID":15458,"LANDMARKID":"1001300000544","LANDMARKCO":"203","LANDMARKNA":"縣立萬安國小","LANDMARKAD":"1001329","ADDRESS":"屏東縣泰武鄉萬安村萬安路1號","TEL":"08-7831902","COUNTYNAME":"屏東縣","TOWNNAME":"泰武鄉","MARKTYPE":"992","Class":"2"},"geometry":{"x":120.6380329634663,"y":22.626770288034159}},{"attributes":{"OBJECTID":15459,"LANDMARKID":"1001300000545","LANDMARKCO":"203","LANDMARKNA":"縣立泰武國小佳平分校","LANDMARKAD":"1001329","ADDRESS":"屏東縣泰武鄉佳平村118號","TEL":"08-7833198","COUNTYNAME":"屏東縣","TOWNNAME":"泰武鄉","MARKTYPE":"992","Class":"2"},"geometry":{"x":120.63232856512171,"y":22.591084399533838}},{"attributes":{"OBJECTID":15460,"LANDMARKID":"1001300000546","LANDMARKCO":"203","LANDMARKNA":"縣立瑪仕國小分校","LANDMARKAD":"1001329","ADDRESS":"屏東縣泰武鄉","TEL":" ","COUNTYNAME":"屏東縣","TOWNNAME":"泰武鄉","MARKTYPE":"992","Class":"2"},"geometry":{"x":120.63109439063838,"y":22.611127671094813}},{"attributes":{"OBJECTID":15461,"LANDMARKID":"1001300000547","LANDMARKCO":"203","LANDMARKNA":"縣立泰武國小佳興分校(廢)","LANDMARKAD":"1001329","ADDRESS":"屏東縣泰武鄉","TEL":" ","COUNTYNAME":"屏東縣","TOWNNAME":"泰武鄉","MARKTYPE":"992","Class":"2"},"geometry":{"x":120.66142320078031,"y":22.569109068513789}},{"attributes":{"OBJECTID":15462,"LANDMARKID":"1001300000765","LANDMARKCO":"303","LANDMARKNA":"屏東縣泰武鄉所停車場","LANDMARKAD":"1001329","ADDRESS":"屏東縣泰武鄉佳平路169號","TEL":" ","COUNTYNAME":"屏東縣","TOWNNAME":"泰武鄉","MARKTYPE":"993","Class":"303"},"geometry":{"x":120.63307819140543,"y":22.592117197969518}},{"attributes":{"OBJECTID":15463,"LANDMARKID":"1001300001206","LANDMARKCO":"503","LANDMARKNA":"神祕谷","LANDMARKAD":"1001329","ADDRESS":"屏東縣泰武鄉","TEL":" ","COUNTYNAME":"屏東縣","TOWNNAME":"泰武鄉","MARKTYPE":"995","Class":"5"},"geometry":{"x":120.71884958746033,"y":22.591328412101667}},{"attributes":{"OBJECTID":15464,"LANDMARKID":"1001300001207","LANDMARKCO":"503","LANDMARKNA":"小神祕谷(鴛鴦谷)","LANDMARKAD":"1001329","ADDRESS":"屏東縣泰武鄉","TEL":" ","COUNTYNAME":"屏東縣","TOWNNAME":"泰武鄉","MARKTYPE":"995","Class":"5"},"geometry":{"x":120.71220959968275,"y":22.613591926768269}},{"attributes":{"OBJECTID":15465,"LANDMARKID":"1001300001280","LANDMARKCO":"513","LANDMARKNA":"大武山","LANDMARKAD":"1001329","ADDRESS":"屏東縣泰武鄉","TEL":" ","COUNTYNAME":"屏東縣","TOWNNAME":"泰武鄉","MARKTYPE":"995","Class":"5"},"geometry":{"x":120.76139775548378,"y":22.627042061668206}},{"attributes":{"OBJECTID":15466,"LANDMARKID":"1001300000987","LANDMARKCO":"405","LANDMARKNA":"統一速邁樂加油站-潮州加油站(中油)","LANDMARKAD":"1001314","ADDRESS":"屏東縣竹田鄉竹南村潮州路90號","TEL":" ","COUNTYNAME":"屏東縣","TOWNNAME":"竹田鄉","MARKTYPE":"994","Class":"4"},"geometry":{"x":120.53970922416626,"y":22.566108209381568}},{"attributes":{"OBJECTID":15467,"LANDMARKID":"1001300000988","LANDMARKCO":"405","LANDMARKNA":"山隆加油站-鳳鳴(中油)","LANDMARKAD":"1001314","ADDRESS":"屏東縣竹田鄉泗州村連成路27號","TEL":"08-7896225","COUNTYNAME":"屏東縣","TOWNNAME":"竹田鄉","MARKTYPE":"994","Class":"4"},"geometry":{"x":120.5213604717049,"y":22.570176750494259}},{"attributes":{"OBJECTID":15468,"LANDMARKID":"1001300000989","LANDMARKCO":"405","LANDMARKNA":"山隆加油站-竹田站(中油)","LANDMARKAD":"1001314","ADDRESS":"屏東縣竹田鄉二崙村忠義路15號","TEL":"(08)771-2688","COUNTYNAME":"屏東縣","TOWNNAME":"竹田鄉","MARKTYPE":"994","Class":"4"},"geometry":{"x":120.55354353047005,"y":22.589718297382298}},{"attributes":{"OBJECTID":15469,"LANDMARKID":"1001300000990","LANDMARKCO":"405","LANDMARKNA":"中油加油站-竹田站(中油直營)","LANDMARKAD":"1001314","ADDRESS":"屏東縣竹田鄉泗州村連成路6-4號","TEL":"08-7894179","COUNTYNAME":"屏東縣","TOWNNAME":"竹田鄉","MARKTYPE":"994","Class":"4"},"geometry":{"x":120.52361598133872,"y":22.568862901040337}},{"attributes":{"OBJECTID":15470,"LANDMARKID":"1001300000991","LANDMARKCO":"405","LANDMARKNA":"中油加油站-大潮州站","LANDMARKAD":"1001314","ADDRESS":"屏東縣竹田鄉大成路33號","TEL":"08-7896331","COUNTYNAME":"屏東縣","TOWNNAME":"竹田鄉","MARKTYPE":"994","Class":"4"},"geometry":{"x":120.51639978388131,"y":22.574534483417548}},{"attributes":{"OBJECTID":15471,"LANDMARKID":"1001300001119","LANDMARKCO":"408","LANDMARKNA":"郵局-竹田郵局","LANDMARKAD":"1001314","ADDRESS":"屏東縣竹田鄉竹田村中山路28號","TEL":"(08)7712-347","COUNTYNAME":"屏東縣","TOWNNAME":"竹田鄉","MARKTYPE":"994","Class":"4"},"geometry":{"x":120.54296827467549,"y":22.5866190814784}},{"attributes":{"OBJECTID":15472,"LANDMARKID":"1001300001120","LANDMARKCO":"408","LANDMARKNA":"郵局-竹田西勢郵局","LANDMARKAD":"1001314","ADDRESS":"屏東縣竹田鄉西勢村光明路12-2號","TEL":"(08)7797-644","COUNTYNAME":"屏東縣","TOWNNAME":"竹田鄉","MARKTYPE":"994","Class":"4"},"geometry":{"x":120.52453262922936,"y":22.621157335988176}},{"attributes":{"OBJECTID":15473,"LANDMARKID":"1001300001176","LANDMARKCO":"409","LANDMARKNA":"屏東縣竹田鄉農會","LANDMARKAD":"1001314","ADDRESS":"屏東縣竹田鄉履豊村豊明路6號","TEL":"08-7712064","COUNTYNAME":"屏東縣","TOWNNAME":"竹田鄉","MARKTYPE":"994","Class":"4"},"geometry":{"x":120.54085392219939,"y":22.586735347266902}},{"attributes":{"OBJECTID":15474,"LANDMARKID":"1001300001057","LANDMARKCO":"406","LANDMARKNA":"縣立運動公園","LANDMARKAD":"1001314","ADDRESS":"屏東縣竹田鄉","TEL":" ","COUNTYNAME":"屏東縣","TOWNNAME":"竹田鄉","MARKTYPE":"994","Class":"4"},"geometry":{"x":120.53500200971425,"y":22.636815977163348}},{"attributes":{"OBJECTID":15475,"LANDMARKID":"1001300001058","LANDMARKCO":"406","LANDMARKNA":"屏東運動公園","LANDMARKAD":"1001314","ADDRESS":"屏東縣竹田鄉","TEL":" ","COUNTYNAME":"屏東縣","TOWNNAME":"竹田鄉","MARKTYPE":"994","Class":"4"},"geometry":{"x":120.53442855967914,"y":22.636710998518289}},{"attributes":{"OBJECTID":15476,"LANDMARKID":"1001300000021","LANDMARKCO":"101","LANDMARKNA":"台灣台東看守所","LANDMARKAD":"1001314","ADDRESS":"屏東縣竹田鄉永豐路130號","TEL":"08-7780439","COUNTYNAME":"屏東縣","TOWNNAME":"竹田鄉","MARKTYPE":"991","Class":"1"},"geometry":{"x":120.53078956151741,"y":22.631467104619439}},{"attributes":{"OBJECTID":15477,"LANDMARKID":"1001300000139","LANDMARKCO":"106","LANDMARKNA":"屏東縣竹田鄉戶政事務所","LANDMARKAD":"1001314","ADDRESS":"屏東縣竹田鄉竹田村1鄰中正路113號","TEL":"08-7710894","COUNTYNAME":"屏東縣","TOWNNAME":"竹田鄉","MARKTYPE":"991","Class":"1"},"geometry":{"x":120.54374535857427,"y":22.584636686058648}},{"attributes":{"OBJECTID":15478,"LANDMARKID":"1001300000235","LANDMARKCO":"107","LANDMARKNA":"屏東縣警察局泗洲派出所","LANDMARKAD":"1001314","ADDRESS":"屏東縣竹田鄉泗州村洲中路44號","TEL":"08-7892582","COUNTYNAME":"屏東縣","TOWNNAME":"竹田鄉","MARKTYPE":"991","Class":"1"},"geometry":{"x":120.52434069816833,"y":22.573743584883541}},{"attributes":{"OBJECTID":15479,"LANDMARKID":"1001300000236","LANDMARKCO":"107","LANDMARKNA":"屏東縣警察局西勢派出所","LANDMARKAD":"1001314","ADDRESS":"屏東縣竹田鄉西勢村龍門路58號","TEL":"08-7792844","COUNTYNAME":"屏東縣","TOWNNAME":"竹田鄉","MARKTYPE":"991","Class":"1"},"geometry":{"x":120.5243756599106,"y":22.617817207539993}},{"attributes":{"OBJECTID":15480,"LANDMARKID":"1001300000237","LANDMARKCO":"107","LANDMARKNA":"屏東縣警察局竹田分駐所","LANDMARKAD":"1001314","ADDRESS":"屏東縣竹田鄉竹田村中正路111號","TEL":"08-7710734","COUNTYNAME":"屏東縣","TOWNNAME":"竹田鄉","MARKTYPE":"991","Class":"1"},"geometry":{"x":120.54387237883493,"y":22.584547096139804}},{"attributes":{"OBJECTID":15481,"LANDMARKID":"1001300000070","LANDMARKCO":"103","LANDMARKNA":"屏東縣竹田鄉衛生所","LANDMARKAD":"1001314","ADDRESS":"屏東縣竹田鄉竹田村中正路25號","TEL":"08-7712434","COUNTYNAME":"屏東縣","TOWNNAME":"竹田鄉","MARKTYPE":"991","Class":"1"},"geometry":{"x":120.54323030335851,"y":22.583188810554869}},{"attributes":{"OBJECTID":15482,"LANDMARKID":"1001300000071","LANDMARKCO":"103","LANDMARKNA":"屏東縣竹田鄉民代表會","LANDMARKAD":"1001314","ADDRESS":"屏東縣竹田鄉中正路123號","TEL":"08-7710600","COUNTYNAME":"屏東縣","TOWNNAME":"竹田鄉","MARKTYPE":"991","Class":"1"},"geometry":{"x":120.54399761537421,"y":22.584728429366944}},{"attributes":{"OBJECTID":15483,"LANDMARKID":"1001300000329","LANDMARKCO":"108","LANDMARKNA":"屏東縣竹田鄉公所","LANDMARKAD":"1001314","ADDRESS":"屏東縣竹田鄉竹田村中正路123號","TEL":"08-7711550","COUNTYNAME":"屏東縣","TOWNNAME":"竹田鄉","MARKTYPE":"991","Class":"1"},"geometry":{"x":120.54399761537421,"y":22.584728429366944}},{"attributes":{"OBJECTID":15484,"LANDMARKID":"1001300000022","LANDMARKCO":"101","LANDMARKNA":"台灣屏東看守所","LANDMARKAD":"1001314","ADDRESS":"屏東縣竹田鄉永豐村永豐路130號","TEL":"08-7780439","COUNTYNAME":"屏東縣","TOWNNAME":"竹田鄉","MARKTYPE":"991","Class":"1"},"geometry":{"x":120.53078956151741,"y":22.631467104619439}},{"attributes":{"OBJECTID":15485,"LANDMARKID":"1001300000023","LANDMARKCO":"101","LANDMARKNA":"台灣屏東監獄","LANDMARKAD":"1001314","ADDRESS":"屏東縣竹田鄉永豐村永豐路132號","TEL":"08-7785438","COUNTYNAME":"屏東縣","TOWNNAME":"竹田鄉","MARKTYPE":"991","Class":"1"},"geometry":{"x":120.53234725584163,"y":22.632740547965238}},{"attributes":{"OBJECTID":15486,"LANDMARKID":"1001300000024","LANDMARKCO":"101","LANDMARKNA":"台灣屏東少年觀護所","LANDMARKAD":"1001314","ADDRESS":"屏東縣竹田鄉永豐路130號","TEL":"08-7785708","COUNTYNAME":"屏東縣","TOWNNAME":"竹田鄉","MARKTYPE":"991","Class":"1"},"geometry":{"x":120.53078956151741,"y":22.631467104619439}},{"attributes":{"OBJECTID":15487,"LANDMARKID":"1001300000678","LANDMARKCO":"205","LANDMARKNA":"屏東縣客家文物館","LANDMARKAD":"1001314","ADDRESS":"屏東縣竹田鄉龍門路97號","TEL":"08-7694722","COUNTYNAME":"屏東縣","TOWNNAME":"竹田鄉","MARKTYPE":"992","Class":"2"},"geometry":{"x":120.5231353654795,"y":22.61763062548485}},{"attributes":{"OBJECTID":15488,"LANDMARKID":"1001300000654","LANDMARKCO":"204","LANDMARKNA":"屏東縣立圖書館竹田分館","LANDMARKAD":"1001314","ADDRESS":"屏東縣竹田鄉竹田村中山路26號","TEL":" ","COUNTYNAME":"屏東縣","TOWNNAME":"竹田鄉","MARKTYPE":"992","Class":"2"},"geometry":{"x":120.54116965548423,"y":22.587408378749739}},{"attributes":{"OBJECTID":15489,"LANDMARKID":"1001300000548","LANDMARKCO":"203","LANDMARKNA":"縣立萬新國中","LANDMARKAD":"1001314","ADDRESS":"屏東縣萬丹鄉新鐘路8號","TEL":"08-7764363","COUNTYNAME":"屏東縣","TOWNNAME":"竹田鄉","MARKTYPE":"992","Class":"2"},"geometry":{"x":120.49216575347383,"y":22.561800815283284}},{"attributes":{"OBJECTID":15490,"LANDMARKID":"1001300000549","LANDMARKCO":"203","LANDMARKNA":"縣立竹田國中","LANDMARKAD":"1001314","ADDRESS":"屏東縣竹田鄉西勢村龍門路26號","TEL":"08-7792024","COUNTYNAME":"屏東縣","TOWNNAME":"竹田鄉","MARKTYPE":"992","Class":"2"},"geometry":{"x":120.52348237881809,"y":22.616186347724209}},{"attributes":{"OBJECTID":15491,"LANDMARKID":"1001300000550","LANDMARKCO":"203","LANDMARKNA":"縣立竹田國小","LANDMARKAD":"1001314","ADDRESS":"屏東縣竹田鄉竹田村公正路35號","TEL":"08-7710834","COUNTYNAME":"屏東縣","TOWNNAME":"竹田鄉","MARKTYPE":"992","Class":"2"},"geometry":{"x":120.54402040821394,"y":22.582832055282925}},{"attributes":{"OBJECTID":15492,"LANDMARKID":"1001300000551","LANDMARKCO":"203","LANDMARKNA":"縣立西勢國小","LANDMARKAD":"1001314","ADDRESS":"屏東縣竹田鄉西勢村光明路8之1號","TEL":"08-7793474","COUNTYNAME":"屏東縣","TOWNNAME":"竹田鄉","MARKTYPE":"992","Class":"2"},"geometry":{"x":120.5256458302499,"y":22.621248247336197}},{"attributes":{"OBJECTID":15493,"LANDMARKID":"1001300000552","LANDMARKCO":"203","LANDMARKNA":"縣立大明國小","LANDMARKAD":"1001314","ADDRESS":"屏東縣竹田鄉泗林村洲中路40號","TEL":"08-7887780","COUNTYNAME":"屏東縣","TOWNNAME":"竹田鄉","MARKTYPE":"992","Class":"2"},"geometry":{"x":120.52508663292284,"y":22.575545952314851}},{"attributes":{"OBJECTID":15494,"LANDMARKID":"1001300000553","LANDMARKCO":"203","LANDMARKNA":"縣立大明國小鳳明分班","LANDMARKAD":"1001314","ADDRESS":"屏東縣竹田鄉","TEL":" ","COUNTYNAME":"屏東縣","TOWNNAME":"竹田鄉","MARKTYPE":"992","Class":"2"},"geometry":{"x":120.5117683119295,"y":22.571525135323487}},{"attributes":{"OBJECTID":15495,"LANDMARKID":"1001300000804","LANDMARKCO":"308","LANDMARKNA":"竹田收費站","LANDMARKAD":"1001314","ADDRESS":" ","TEL":" ","COUNTYNAME":"屏東縣","TOWNNAME":"竹田鄉","MARKTYPE":"993","Class":"308"},"geometry":{"x":120.52921230938489,"y":22.605865243987143}},{"attributes":{"OBJECTID":15496,"LANDMARKID":"1001300000805","LANDMARKCO":"308","LANDMARKNA":"國3-麟洛交流道-南下","LANDMARKAD":"1001314","ADDRESS":"屏東縣內埔鄉","TEL":" ","COUNTYNAME":"屏東縣","TOWNNAME":"竹田鄉","MARKTYPE":"993","Class":"308"},"geometry":{"x":120.53451467273594,"y":22.63126146529282}},{"attributes":{"OBJECTID":15497,"LANDMARKID":"1001300000806","LANDMARKCO":"308","LANDMARKNA":"國3-竹田系統交流道-南下","LANDMARKAD":"1001314","ADDRESS":"屏東縣竹田鄉","TEL":" ","COUNTYNAME":"屏東縣","TOWNNAME":"竹田鄉","MARKTYPE":"993","Class":"308"},"geometry":{"x":120.52803099965038,"y":22.568212265229498}},{"attributes":{"OBJECTID":15498,"LANDMARKID":"1001300000807","LANDMARKCO":"308","LANDMARKNA":"國3-竹田系統交流道-北上","LANDMARKAD":"1001314","ADDRESS":"屏東縣竹田鄉","TEL":" ","COUNTYNAME":"屏東縣","TOWNNAME":"竹田鄉","MARKTYPE":"993","Class":"308"},"geometry":{"x":120.52788624765068,"y":22.57435925916446}},{"attributes":{"OBJECTID":15499,"LANDMARKID":"1001300000808","LANDMARKCO":"308","LANDMARKNA":"台88-竹田系統交流道-西行","LANDMARKAD":"1001314","ADDRESS":" ","TEL":" ","COUNTYNAME":"屏東縣","TOWNNAME":"竹田鄉","MARKTYPE":"993","Class":"308"},"geometry":{"x":120.52354716792549,"y":22.570711992494029}},{"attributes":{"OBJECTID":15500,"LANDMARKID":"1001300000809","LANDMARKCO":"308","LANDMARKNA":"台88-竹田系統交流道-東行","LANDMARKAD":"1001314","ADDRESS":" ","TEL":" ","COUNTYNAME":"屏東縣","TOWNNAME":"竹田鄉","MARKTYPE":"993","Class":"308"},"geometry":{"x":120.53452766490361,"y":22.570950386294829}},{"attributes":{"OBJECTID":15501,"LANDMARKID":"1001300000810","LANDMARKCO":"308","LANDMARKNA":"台88-竹田端-西行","LANDMARKAD":"1001314","ADDRESS":" ","TEL":" ","COUNTYNAME":"屏東縣","TOWNNAME":"竹田鄉","MARKTYPE":"993","Class":"308"},"geometry":{"x":120.53967085470198,"y":22.569239769706893}},{"attributes":{"OBJECTID":15502,"LANDMARKID":"1001300000811","LANDMARKCO":"308","LANDMARKNA":"台88-竹田端-西行","LANDMARKAD":"1001314","ADDRESS":" ","TEL":" ","COUNTYNAME":"屏東縣","TOWNNAME":"竹田鄉","MARKTYPE":"993","Class":"308"},"geometry":{"x":120.53963959864556,"y":22.569199005393628}},{"attributes":{"OBJECTID":15503,"LANDMARKID":"1001300000703","LANDMARKCO":"301","LANDMARKNA":"西勢火車站","LANDMARKAD":"1001314","ADDRESS":"屏東縣竹田鄉西勢村西豐路2號","TEL":"08-7784521","COUNTYNAME":"屏東縣","TOWNNAME":"竹田鄉","MARKTYPE":"993","Class":"301"},"geometry":{"x":120.52660125286934,"y":22.61645489595924}},{"attributes":{"OBJECTID":15504,"LANDMARKID":"1001300000704","LANDMARKCO":"301","LANDMARKNA":"竹田火車站","LANDMARKAD":"1001314","ADDRESS":"屏東縣竹田鄉","TEL":" ","COUNTYNAME":"屏東縣","TOWNNAME":"竹田鄉","MARKTYPE":"993","Class":"301"},"geometry":{"x":120.53994694005254,"y":22.586257657750092}},{"attributes":{"OBJECTID":15505,"LANDMARKID":"1001300001311","LANDMARKCO":"603","LANDMARKNA":"金興旅社","LANDMARKAD":"1001314","ADDRESS":"屏東縣竹田鄉大湖村大明路37-13號","TEL":"08-7881953","COUNTYNAME":"屏東縣","TOWNNAME":"竹田鄉","MARKTYPE":"996","Class":"6"},"geometry":{"x":120.5176980278633,"y":22.574623710499388}},{"attributes":{"OBJECTID":15506,"LANDMARKID":"1001300000961","LANDMARKCO":"405","LANDMARKNA":"中油加油站-萬巒站(中油直營)","LANDMARKAD":"1001312","ADDRESS":"屏東縣萬巒鄉萬巒村中正路5-2號","TEL":"08-7811648","COUNTYNAME":"屏東縣","TOWNNAME":"萬巒鄉","MARKTYPE":"994","Class":"4"},"geometry":{"x":120.56403027512853,"y":22.570328195875391}},{"attributes":{"OBJECTID":15507,"LANDMARKID":"1001300000962","LANDMARKCO":"405","LANDMARKNA":"台糖加油站-來義站(中油)","LANDMARKAD":"1001312","ADDRESS":"屏東縣萬巒鄉新置村新隆路75之26號","TEL":" ","COUNTYNAME":"屏東縣","TOWNNAME":"萬巒鄉","MARKTYPE":"994","Class":"4"},"geometry":{"x":120.62268545900362,"y":22.527126690133304}},{"attributes":{"OBJECTID":15508,"LANDMARKID":"1001300001250","LANDMARKCO":"507","LANDMARKNA":"萬金天主教堂(萬金聖母聖殿)","LANDMARKAD":"1001312","ADDRESS":"屏東縣萬巒鄉萬金村萬興路24號","TEL":" ","COUNTYNAME":"屏東縣","TOWNNAME":"萬巒鄉","MARKTYPE":"995","Class":"5"},"geometry":{"x":120.61094785938914,"y":22.595468649754778}},{"attributes":{"OBJECTID":15509,"LANDMARKID":"1001300001139","LANDMARKCO":"408","LANDMARKNA":"郵局-萬巒郵局","LANDMARKAD":"1001312","ADDRESS":"屏東縣萬巒鄉萬和村中正路10號","TEL":"(08)7812-784","COUNTYNAME":"屏東縣","TOWNNAME":"萬巒鄉","MARKTYPE":"994","Class":"4"},"geometry":{"x":120.56577041879676,"y":22.571150360744827}},{"attributes":{"OBJECTID":15510,"LANDMARKID":"1001300001165","LANDMARKCO":"409","LANDMARKNA":"萬巒地區農會","LANDMARKAD":"1001312","ADDRESS":"屏東縣萬巒鄉萬和村褒忠路9號","TEL":"08-7912023","COUNTYNAME":"屏東縣","TOWNNAME":"萬巒鄉","MARKTYPE":"994","Class":"4"},"geometry":{"x":120.57306999705214,"y":22.571708942571924}},{"attributes":{"OBJECTID":15511,"LANDMARKID":"1001300001060","LANDMARKCO":"406","LANDMARKNA":"佳男公園","LANDMARKAD":"1001312","ADDRESS":"屏東縣萬巒鄉","TEL":" ","COUNTYNAME":"屏東縣","TOWNNAME":"萬巒鄉","MARKTYPE":"994","Class":"4"},"geometry":{"x":120.60136265439948,"y":22.568044100990463}},{"attributes":{"OBJECTID":15512,"LANDMARKID":"1001300001061","LANDMARKCO":"406","LANDMARKNA":"五溝社區公園","LANDMARKAD":"1001312","ADDRESS":"屏東縣萬巒鄉","TEL":" ","COUNTYNAME":"屏東縣","TOWNNAME":"萬巒鄉","MARKTYPE":"994","Class":"4"},"geometry":{"x":120.59875432307183,"y":22.588494268334212}},{"attributes":{"OBJECTID":15513,"LANDMARKID":"1001300000152","LANDMARKCO":"106","LANDMARKNA":"屏東縣萬巒鄉戶政事務所","LANDMARKAD":"1001312","ADDRESS":"屏東縣萬巒鄉萬巒村9鄰褒忠路124號","TEL":"08-7811824","COUNTYNAME":"屏東縣","TOWNNAME":"萬巒鄉","MARKTYPE":"991","Class":"1"},"geometry":{"x":120.56909474497787,"y":22.573599119483411}},{"attributes":{"OBJECTID":15514,"LANDMARKID":"1001300000186","LANDMARKCO":"107","LANDMARKNA":"屏東縣警察局赤山派出所","LANDMARKAD":"1001312","ADDRESS":"屏東縣萬巒鄉赤山村東山路110號","TEL":"08-7833451","COUNTYNAME":"屏東縣","TOWNNAME":"萬巒鄉","MARKTYPE":"991","Class":"1"},"geometry":{"x":120.61154697941745,"y":22.588603120713639}},{"attributes":{"OBJECTID":15515,"LANDMARKID":"1001300000187","LANDMARKCO":"107","LANDMARKNA":"屏東縣警察局佳佐派出所","LANDMARKAD":"1001312","ADDRESS":"屏東縣萬巒鄉佳和村佳興路30號","TEL":"08-7831114","COUNTYNAME":"屏東縣","TOWNNAME":"萬巒鄉","MARKTYPE":"991","Class":"1"},"geometry":{"x":120.59686277079869,"y":22.572948236732252}},{"attributes":{"OBJECTID":15516,"LANDMARKID":"1001300000188","LANDMARKCO":"107","LANDMARKNA":"屏東縣警察局萬巒分駐所","LANDMARKAD":"1001312","ADDRESS":"屏東縣萬巒鄉萬巒村褒忠路167號","TEL":"08-7811320","COUNTYNAME":"屏東縣","TOWNNAME":"萬巒鄉","MARKTYPE":"991","Class":"1"},"geometry":{"x":120.56895000333272,"y":22.573417721344914}},{"attributes":{"OBJECTID":15517,"LANDMARKID":"1001300000073","LANDMARKCO":"103","LANDMARKNA":"屏東縣萬巒鄉衛生所","LANDMARKAD":"1001312","ADDRESS":"屏東縣萬巒鄉萬全村褒忠路14-2號","TEL":"08-7811794","COUNTYNAME":"屏東縣","TOWNNAME":"萬巒鄉","MARKTYPE":"991","Class":"1"},"geometry":{"x":120.57450477983272,"y":22.571716552099097}},{"attributes":{"OBJECTID":15518,"LANDMARKID":"1001300000074","LANDMARKCO":"103","LANDMARKNA":"屏東縣萬巒鄉鄉民代表會","LANDMARKAD":"1001312","ADDRESS":"屏東縣萬巒鄉萬和村中正路36號","TEL":"08-7812243","COUNTYNAME":"屏東縣","TOWNNAME":"萬巒鄉","MARKTYPE":"991","Class":"1"},"geometry":{"x":120.56782761763323,"y":22.572508581583442}},{"attributes":{"OBJECTID":15519,"LANDMARKID":"1001300000330","LANDMARKCO":"108","LANDMARKNA":"屏東縣萬巒鄉公所","LANDMARKAD":"1001312","ADDRESS":"屏東縣萬巒鄉萬和村中正路36號","TEL":"08-7812460","COUNTYNAME":"屏東縣","TOWNNAME":"萬巒鄉","MARKTYPE":"991","Class":"1"},"geometry":{"x":120.56782761763323,"y":22.572508581583442}},{"attributes":{"OBJECTID":15520,"LANDMARKID":"1001300000653","LANDMARKCO":"204","LANDMARKNA":"屏東縣立圖書館萬巒分館","LANDMARKAD":"1001312","ADDRESS":"屏東縣萬巒鄉萬和村中正路24號","TEL":" ","COUNTYNAME":"屏東縣","TOWNNAME":"萬巒鄉","MARKTYPE":"992","Class":"2"},"geometry":{"x":120.56738538102722,"y":22.572321646854984}},{"attributes":{"OBJECTID":15521,"LANDMARKID":"1001300000366","LANDMARKCO":"202","LANDMARKNA":"縣立來義中學","LANDMARKAD":"1001312","ADDRESS":"屏東縣來義鄉古樓村中正路147號","TEL":"08-7850086","COUNTYNAME":"屏東縣","TOWNNAME":"萬巒鄉","MARKTYPE":"992","Class":"2"},"geometry":{"x":120.62996907877216,"y":22.525604460418169}},{"attributes":{"OBJECTID":15522,"LANDMARKID":"1001300000468","LANDMARKCO":"203","LANDMARKNA":"縣立萬巒國中","LANDMARKAD":"1001312","ADDRESS":"屏東縣萬巒鄉萬和村褒忠路5號","TEL":"08-7812537","COUNTYNAME":"屏東縣","TOWNNAME":"萬巒鄉","MARKTYPE":"992","Class":"2"},"geometry":{"x":120.57472314608155,"y":22.570995218088594}},{"attributes":{"OBJECTID":15523,"LANDMARKID":"1001300000469","LANDMARKCO":"203","LANDMARKNA":"縣立中興國小","LANDMARKAD":"1001312","ADDRESS":"屏東縣萬巒鄉新置村中興路27號","TEL":"08-7832300","COUNTYNAME":"屏東縣","TOWNNAME":"萬巒鄉","MARKTYPE":"992","Class":"2"},"geometry":{"x":120.61230091173907,"y":22.549050633679176}},{"attributes":{"OBJECTID":15524,"LANDMARKID":"1001300000470","LANDMARKCO":"203","LANDMARKNA":"縣立五溝國小","LANDMARKAD":"1001312","ADDRESS":"屏東縣萬巒鄉五溝村西盛路89號","TEL":"08-7832285","COUNTYNAME":"屏東縣","TOWNNAME":"萬巒鄉","MARKTYPE":"992","Class":"2"},"geometry":{"x":120.59397718171535,"y":22.590822231415572}},{"attributes":{"OBJECTID":15525,"LANDMARKID":"1001300000471","LANDMARKCO":"203","LANDMARKNA":"縣立佳佐國小","LANDMARKAD":"1001312","ADDRESS":"屏東縣萬巒鄉佳和村佳興路59號","TEL":"08-7832018","COUNTYNAME":"屏東縣","TOWNNAME":"萬巒鄉","MARKTYPE":"992","Class":"2"},"geometry":{"x":120.5955427052282,"y":22.57113539801129}},{"attributes":{"OBJECTID":15526,"LANDMARKID":"1001300000472","LANDMARKCO":"203","LANDMARKNA":"縣立赤山國小","LANDMARKAD":"1001312","ADDRESS":"屏東縣萬巒鄉赤山村建興路40號","TEL":"08-7832205","COUNTYNAME":"屏東縣","TOWNNAME":"萬巒鄉","MARKTYPE":"992","Class":"2"},"geometry":{"x":120.61400542030695,"y":22.591769126195974}},{"attributes":{"OBJECTID":15527,"LANDMARKID":"1001300000473","LANDMARKCO":"203","LANDMARKNA":"縣立萬巒國小","LANDMARKAD":"1001312","ADDRESS":"屏東縣萬巒鄉萬全村堡忠路28號","TEL":"08-7811627","COUNTYNAME":"屏東縣","TOWNNAME":"萬巒鄉","MARKTYPE":"992","Class":"2"},"geometry":{"x":120.57291801467342,"y":22.57251188166526}},{"attributes":{"OBJECTID":15528,"LANDMARKID":"1001300000955","LANDMARKCO":"405","LANDMARKNA":"中油加油站-大富站","LANDMARKAD":"1001305","ADDRESS":"屏東縣萬丹鄉中興路二段60號","TEL":"08-7763316","COUNTYNAME":"屏東縣","TOWNNAME":"萬丹鄉","MARKTYPE":"994","Class":"4"},"geometry":{"x":120.48096954120706,"y":22.573605189245747}},{"attributes":{"OBJECTID":15529,"LANDMARKID":"1001300000956","LANDMARKCO":"405","LANDMARKNA":"台糖加油站-萬泰站(中油)","LANDMARKAD":"1001305","ADDRESS":"屏東縣萬丹鄉萬後村和平西路167號","TEL":" ","COUNTYNAME":"屏東縣","TOWNNAME":"萬丹鄉","MARKTYPE":"994","Class":"4"},"geometry":{"x":120.48417809820947,"y":22.589872887173559}},{"attributes":{"OBJECTID":15530,"LANDMARKID":"1001300000957","LANDMARKCO":"405","LANDMARKNA":"中油加油站-萬丹站(中油直營)","LANDMARKAD":"1001305","ADDRESS":"屏東縣萬丹鄉萬丹路一段399號","TEL":"08-7772142","COUNTYNAME":"屏東縣","TOWNNAME":"萬丹鄉","MARKTYPE":"994","Class":"4"},"geometry":{"x":120.48853884696919,"y":22.593413976286314}},{"attributes":{"OBJECTID":15531,"LANDMARKID":"1001300000958","LANDMARKCO":"405","LANDMARKNA":"中油加油站-社皮站","LANDMARKAD":"1001305","ADDRESS":"屏東縣萬丹鄉社口村社口村社口路39號之10","TEL":"08-7070202","COUNTYNAME":"屏東縣","TOWNNAME":"萬丹鄉","MARKTYPE":"994","Class":"4"},"geometry":{"x":120.46870110895837,"y":22.612384780894885}},{"attributes":{"OBJECTID":15532,"LANDMARKID":"1001300000959","LANDMARKCO":"405","LANDMARKNA":"中油加油站-萬興站","LANDMARKAD":"1001305","ADDRESS":"屏東縣萬丹鄉四維村丹榮路983號","TEL":"08-7776699","COUNTYNAME":"屏東縣","TOWNNAME":"萬丹鄉","MARKTYPE":"994","Class":"4"},"geometry":{"x":120.48855960814802,"y":22.602000851433818}},{"attributes":{"OBJECTID":15533,"LANDMARKID":"1001300000960","LANDMARKCO":"405","LANDMARKNA":"中油加油站-宜興站","LANDMARKAD":"1001305","ADDRESS":"屏東縣萬丹鄉磚寮村47號","TEL":"08-7073456","COUNTYNAME":"屏東縣","TOWNNAME":"萬丹鄉","MARKTYPE":"994","Class":"4"},"geometry":{"x":120.46320026252815,"y":22.622412052544494}},{"attributes":{"OBJECTID":15534,"LANDMARKID":"1001300000862","LANDMARKCO":"402","LANDMARKNA":"亞太行動寬頻電信-屏東萬丹加盟服務中心","LANDMARKAD":"1001305","ADDRESS":"屏東縣萬丹鄉萬丹路一段362號","TEL":"08-7779595","COUNTYNAME":"屏東縣","TOWNNAME":"萬丹鄉","MARKTYPE":"994","Class":"4"},"geometry":{"x":120.48919904654642,"y":22.590337675105602}},{"attributes":{"OBJECTID":15535,"LANDMARKID":"1001300001140","LANDMARKCO":"408","LANDMARKNA":"郵局-萬丹郵局","LANDMARKAD":"1001305","ADDRESS":"屏東縣萬丹鄉萬全村萬丹路1段402號","TEL":"(08)7772-251","COUNTYNAME":"屏東縣","TOWNNAME":"萬丹鄉","MARKTYPE":"994","Class":"4"},"geometry":{"x":120.48916454091616,"y":22.591059971461004}},{"attributes":{"OBJECTID":15536,"LANDMARKID":"1001300001141","LANDMARKCO":"408","LANDMARKNA":"郵局-萬丹社皮郵局","LANDMARKAD":"1001305","ADDRESS":"屏東縣萬丹鄉社皮村社皮2-7號","TEL":"(08)7076-110","COUNTYNAME":"屏東縣","TOWNNAME":"萬丹鄉","MARKTYPE":"994","Class":"4"},"geometry":{"x":120.46977713069489,"y":22.615420164035349}},{"attributes":{"OBJECTID":15537,"LANDMARKID":"1001300000953","LANDMARKCO":"405","LANDMARKNA":"福懋加油站-萬丹站(台塑)","LANDMARKAD":"1001305","ADDRESS":"屏東縣萬丹鄉中興路二段251號","TEL":"08-7775231","COUNTYNAME":"屏東縣","TOWNNAME":"萬丹鄉","MARKTYPE":"994","Class":"4"},"geometry":{"x":120.48127058767011,"y":22.575052126481683}},{"attributes":{"OBJECTID":15538,"LANDMARKID":"1001300000954","LANDMARKCO":"405","LANDMARKNA":"台亞加油站-萬丹站（台塑）","LANDMARKAD":"1001305","ADDRESS":"屏東縣萬丹鄉丹榮路536號","TEL":"(08)776-1608","COUNTYNAME":"屏東縣","TOWNNAME":"萬丹鄉","MARKTYPE":"994","Class":"4"},"geometry":{"x":120.49347117039167,"y":22.586473571729957}},{"attributes":{"OBJECTID":15539,"LANDMARKID":"1001300000193","LANDMARKCO":"107","LANDMARKNA":"屏東縣消防局萬丹消防分隊","LANDMARKAD":"1001305","ADDRESS":"屏東縣萬丹鄉萬全村和平東路997號","TEL":"08-7772674","COUNTYNAME":"屏東縣","TOWNNAME":"萬丹鄉","MARKTYPE":"991","Class":"1"},"geometry":{"x":120.49029166381048,"y":22.587174780788583}},{"attributes":{"OBJECTID":15540,"LANDMARKID":"1001300000075","LANDMARKCO":"103","LANDMARKNA":"屏東縣萬丹鄉衛生所","LANDMARKAD":"1001305","ADDRESS":"屏東縣萬丹鄉四維村萬丹路5號","TEL":"08-7772049","COUNTYNAME":"屏東縣","TOWNNAME":"萬丹鄉","MARKTYPE":"991","Class":"1"},"geometry":{"x":120.48850919230921,"y":22.59566140296408}},{"attributes":{"OBJECTID":15541,"LANDMARKID":"1001300000151","LANDMARKCO":"106","LANDMARKNA":"屏東縣萬丹鄉戶政事務所","LANDMARKAD":"1001305","ADDRESS":"屏東縣萬丹鄉和平西路159號","TEL":"08-7772850","COUNTYNAME":"屏東縣","TOWNNAME":"萬丹鄉","MARKTYPE":"991","Class":"1"},"geometry":{"x":120.4845141960735,"y":22.589151510660301}},{"attributes":{"OBJECTID":15542,"LANDMARKID":"1001300000189","LANDMARKCO":"107","LANDMARKNA":"屏東縣警察局新鐘派出所","LANDMARKAD":"1001305","ADDRESS":"屏東縣萬丹鄉新鐘村新鐘路64號","TEL":"08-7772254","COUNTYNAME":"屏東縣","TOWNNAME":"萬丹鄉","MARKTYPE":"991","Class":"1"},"geometry":{"x":120.48582952085795,"y":22.561796133546888}},{"attributes":{"OBJECTID":15543,"LANDMARKID":"1001300000328","LANDMARKCO":"108","LANDMARKNA":"屏東縣萬丹鄉公所","LANDMARKAD":"1001305","ADDRESS":"屏東縣萬丹鄉和平西路155號","TEL":"08-7772111","COUNTYNAME":"屏東縣","TOWNNAME":"萬丹鄉","MARKTYPE":"991","Class":"1"},"geometry":{"x":120.48503733891431,"y":22.589425798522427}},{"attributes":{"OBJECTID":15544,"LANDMARKID":"1001300000076","LANDMARKCO":"103","LANDMARKNA":"屏東縣萬丹鄉鄉民代表會","LANDMARKAD":"1001305","ADDRESS":"屏東縣萬丹鄉和平西路155號","TEL":"08-7772054","COUNTYNAME":"屏東縣","TOWNNAME":"萬丹鄉","MARKTYPE":"991","Class":"1"},"geometry":{"x":120.48503733891431,"y":22.589425798522427}},{"attributes":{"OBJECTID":15545,"LANDMARKID":"1001300000190","LANDMARKCO":"107","LANDMARKNA":"屏東縣警察局社皮派出所","LANDMARKAD":"1001305","ADDRESS":"屏東縣萬丹鄉社口村40號","TEL":"08-7073044","COUNTYNAME":"屏東縣","TOWNNAME":"萬丹鄉","MARKTYPE":"991","Class":"1"},"geometry":{"x":120.46828988671075,"y":22.61410681174436}},{"attributes":{"OBJECTID":15546,"LANDMARKID":"1001300000191","LANDMARKCO":"107","LANDMARKNA":"屏東縣警察局萬丹分駐所","LANDMARKAD":"1001305","ADDRESS":"屏東縣萬丹鄉萬安村萬丹街136號","TEL":"08-7772004","COUNTYNAME":"屏東縣","TOWNNAME":"萬丹鄉","MARKTYPE":"991","Class":"1"},"geometry":{"x":120.48989227133161,"y":22.587262555473892}},{"attributes":{"OBJECTID":15547,"LANDMARKID":"1001300000652","LANDMARKCO":"204","LANDMARKNA":"屏東縣立圖書館萬丹分館","LANDMARKAD":"1001305","ADDRESS":"屏東縣萬丹鄉萬後村和平西路157號","TEL":" ","COUNTYNAME":"屏東縣","TOWNNAME":"萬丹鄉","MARKTYPE":"992","Class":"2"},"geometry":{"x":120.48575790916463,"y":22.589379334519162}},{"attributes":{"OBJECTID":15548,"LANDMARKID":"1001300000474","LANDMARKCO":"203","LANDMARKNA":"縣立萬丹國中","LANDMARKAD":"1001305","ADDRESS":"屏東縣萬丹鄉四維村萬丹路45號","TEL":"08-7772020","COUNTYNAME":"屏東縣","TOWNNAME":"萬丹鄉","MARKTYPE":"992","Class":"2"},"geometry":{"x":120.48769527926589,"y":22.596559318592625}},{"attributes":{"OBJECTID":15549,"LANDMARKID":"1001300000475","LANDMARKCO":"203","LANDMARKNA":"縣立興華國小","LANDMARKAD":"1001305","ADDRESS":"屏東縣萬丹鄉崙頂村崙頂路123號","TEL":"08-7761481","COUNTYNAME":"屏東縣","TOWNNAME":"萬丹鄉","MARKTYPE":"992","Class":"2"},"geometry":{"x":120.46231829255346,"y":22.592862965204631}},{"attributes":{"OBJECTID":15550,"LANDMARKID":"1001300000476","LANDMARKCO":"203","LANDMARKNA":"縣立廣安國小","LANDMARKAD":"1001305","ADDRESS":"屏東縣萬丹鄉萬丹路350巷39弄8號","TEL":"08-7772444","COUNTYNAME":"屏東縣","TOWNNAME":"萬丹鄉","MARKTYPE":"992","Class":"2"},"geometry":{"x":120.4901864296378,"y":22.615350637751458}},{"attributes":{"OBJECTID":15551,"LANDMARKID":"1001300000477","LANDMARKCO":"203","LANDMARKNA":"縣立興化國小","LANDMARKAD":"1001305","ADDRESS":"屏東縣萬丹鄉興國路52號","TEL":"08-7050390","COUNTYNAME":"屏東縣","TOWNNAME":"萬丹鄉","MARKTYPE":"992","Class":"2"},"geometry":{"x":120.49956777709444,"y":22.549646969268647}},{"attributes":{"OBJECTID":15552,"LANDMARKID":"1001300000478","LANDMARKCO":"203","LANDMARKNA":"縣立萬丹國小竹林分校","LANDMARKAD":"1001305","ADDRESS":"屏東縣萬丹鄉竹林路351號","TEL":"08-7779187","COUNTYNAME":"屏東縣","TOWNNAME":"萬丹鄉","MARKTYPE":"992","Class":"2"},"geometry":{"x":120.51063603982477,"y":22.605945991044877}},{"attributes":{"OBJECTID":15553,"LANDMARKID":"1001300000479","LANDMARKCO":"203","LANDMARKNA":"縣立萬丹國小","LANDMARKAD":"1001305","ADDRESS":"屏東縣萬丹鄉寶厝村萬新路1497號","TEL":"08-7772014","COUNTYNAME":"屏東縣","TOWNNAME":"萬丹鄉","MARKTYPE":"992","Class":"2"},"geometry":{"x":120.48869449815062,"y":22.582576747372517}},{"attributes":{"OBJECTID":15554,"LANDMARKID":"1001300000480","LANDMARKCO":"203","LANDMARKNA":"縣立新庄國小","LANDMARKAD":"1001305","ADDRESS":"屏東縣萬丹鄉新庄村43號","TEL":"08-7772230","COUNTYNAME":"屏東縣","TOWNNAME":"萬丹鄉","MARKTYPE":"992","Class":"2"},"geometry":{"x":120.48042218580004,"y":22.562763702715237}},{"attributes":{"OBJECTID":15555,"LANDMARKID":"1001300000481","LANDMARKCO":"203","LANDMARKNA":"縣立四維國小","LANDMARKAD":"1001305","ADDRESS":"屏東縣萬丹鄉四維村下本縣部81號","TEL":"08-7761987","COUNTYNAME":"屏東縣","TOWNNAME":"萬丹鄉","MARKTYPE":"992","Class":"2"},"geometry":{"x":120.49000457065003,"y":22.594668634487761}},{"attributes":{"OBJECTID":15556,"LANDMARKID":"1001300000482","LANDMARKCO":"203","LANDMARKNA":"縣立萬丹國小","LANDMARKAD":"1001305","ADDRESS":"屏東縣萬丹鄉寶厝村中興路354號","TEL":"08-7772014","COUNTYNAME":"屏東縣","TOWNNAME":"萬丹鄉","MARKTYPE":"992","Class":"2"},"geometry":{"x":120.4882880465846,"y":22.583106991777452}},{"attributes":{"OBJECTID":15557,"LANDMARKID":"1001300000483","LANDMARKCO":"203","LANDMARKNA":"縣立新興國小","LANDMARKAD":"1001305","ADDRESS":"屏東縣萬丹鄉灣內村井仔頭47之10號","TEL":"08-7772144","COUNTYNAME":"屏東縣","TOWNNAME":"萬丹鄉","MARKTYPE":"992","Class":"2"},"geometry":{"x":120.45834818634019,"y":22.570810177901024}},{"attributes":{"OBJECTID":15558,"LANDMARKID":"1001300000484","LANDMARKCO":"203","LANDMARKNA":"縣立社皮國小","LANDMARKAD":"1001305","ADDRESS":"屏東縣萬丹鄉社口村社口路73號","TEL":"08-7072161","COUNTYNAME":"屏東縣","TOWNNAME":"萬丹鄉","MARKTYPE":"992","Class":"2"},"geometry":{"x":120.46852889427933,"y":22.614650255624873}},{"attributes":{"OBJECTID":15559,"LANDMARKID":"1001300000801","LANDMARKCO":"308","LANDMARKNA":"台88-萬丹交流道-西行","LANDMARKAD":"1001305","ADDRESS":" ","TEL":" ","COUNTYNAME":"屏東縣","TOWNNAME":"萬丹鄉","MARKTYPE":"993","Class":"308"},"geometry":{"x":120.47498656810529,"y":22.572967905949824}},{"attributes":{"OBJECTID":15560,"LANDMARKID":"1001300000802","LANDMARKCO":"308","LANDMARKNA":"台88-萬丹交流道-東行","LANDMARKAD":"1001305","ADDRESS":" ","TEL":" ","COUNTYNAME":"屏東縣","TOWNNAME":"萬丹鄉","MARKTYPE":"993","Class":"308"},"geometry":{"x":120.48233862836994,"y":22.568305527632752}},{"attributes":{"OBJECTID":15561,"LANDMARKID":"1001300000860","LANDMARKCO":"402","LANDMARKNA":"中華電信-萬丹服務中心","LANDMARKAD":"1001305","ADDRESS":"屏東縣萬丹鄉萬丹路一段406號","TEL":"(08)777-5501","COUNTYNAME":"屏東縣","TOWNNAME":"萬丹鄉","MARKTYPE":"994","Class":"4"},"geometry":{"x":120.4891729338969,"y":22.591240645951085}},{"attributes":{"OBJECTID":15562,"LANDMARKID":"1001300000861","LANDMARKCO":"402","LANDMARKNA":"威寶電信-萬丹萬丹特約服務中心","LANDMARKAD":"1001305","ADDRESS":"屏東縣萬丹鄉萬丹路一段141號","TEL":"08-7764842","COUNTYNAME":"屏東縣","TOWNNAME":"萬丹鄉","MARKTYPE":"994","Class":"4"},"geometry":{"x":120.48961150849192,"y":22.587089182458467}},{"attributes":{"OBJECTID":15563,"LANDMARKID":"1001300001312","LANDMARKCO":"603","LANDMARKNA":"廣安旅社","LANDMARKAD":"1001305","ADDRESS":"屏東縣萬丹鄉廣安村萬丹路二段425號","TEL":"08-7772204","COUNTYNAME":"屏東縣","TOWNNAME":"萬丹鄉","MARKTYPE":"996","Class":"6"},"geometry":{"x":120.48572409566138,"y":22.610923846086241}},{"attributes":{"OBJECTID":15564,"LANDMARKID":"1001300000963","LANDMARKCO":"405","LANDMARKNA":"中油加油站-潮星站(中油直營)","LANDMARKAD":"1001302","ADDRESS":"屏東縣潮州鎮三星里潮州路730號","TEL":"08-7894008","COUNTYNAME":"屏東縣","TOWNNAME":"潮州鎮","MARKTYPE":"994","Class":"4"},"geometry":{"x":120.55564038440288,"y":22.545288665589773}},{"attributes":{"OBJECTID":15565,"LANDMARKID":"1001300000964","LANDMARKCO":"405","LANDMARKNA":"中油加油站-潮州站(中油直營)","LANDMARKAD":"1001302","ADDRESS":"屏東縣潮州鎮三和里延平路217號","TEL":"08-7882044","COUNTYNAME":"屏東縣","TOWNNAME":"潮州鎮","MARKTYPE":"994","Class":"4"},"geometry":{"x":120.53997598703263,"y":22.556897903407958}},{"attributes":{"OBJECTID":15566,"LANDMARKID":"1001300000965","LANDMARKCO":"405","LANDMARKNA":"中油加油站-合順站","LANDMARKAD":"1001302","ADDRESS":"屏東縣潮州鎮介壽路348號","TEL":"08-7805688","COUNTYNAME":"屏東縣","TOWNNAME":"潮州鎮","MARKTYPE":"994","Class":"4"},"geometry":{"x":120.53337740902279,"y":22.537518483206906}},{"attributes":{"OBJECTID":15567,"LANDMARKID":"1001300000966","LANDMARKCO":"405","LANDMARKNA":"中油加油站-大同站","LANDMARKAD":"1001302","ADDRESS":"屏東縣潮州鎮大同路271號","TEL":"08-7883307","COUNTYNAME":"屏東縣","TOWNNAME":"潮州鎮","MARKTYPE":"994","Class":"4"},"geometry":{"x":120.52335951579654,"y":22.541316251443796}},{"attributes":{"OBJECTID":15568,"LANDMARKID":"1001300000967","LANDMARKCO":"405","LANDMARKNA":"中油加油站-潮來站","LANDMARKAD":"1001302","ADDRESS":"屏東縣潮州鎮潮義路590號","TEL":"08-7811250","COUNTYNAME":"屏東縣","TOWNNAME":"潮州鎮","MARKTYPE":"994","Class":"4"},"geometry":{"x":120.57205029601434,"y":22.548590998621041}},{"attributes":{"OBJECTID":15569,"LANDMARKID":"1001300000968","LANDMARKCO":"405","LANDMARKNA":"中油加油站-亞柏潮州站(中油直營)","LANDMARKAD":"1001302","ADDRESS":"屏東縣潮州鎮延平路342號","TEL":"08-7893982","COUNTYNAME":"屏東縣","TOWNNAME":"潮州鎮","MARKTYPE":"994","Class":"4"},"geometry":{"x":120.54012836592203,"y":22.56024032410615}},{"attributes":{"OBJECTID":15570,"LANDMARKID":"1001300000863","LANDMARKCO":"402","LANDMARKNA":"亞太行動寬頻電信-潮州介壽加盟服務中心","LANDMARKAD":"1001302","ADDRESS":"屏東縣潮州鎮永春里介壽路24號","TEL":"08-7883933","COUNTYNAME":"屏東縣","TOWNNAME":"潮州鎮","MARKTYPE":"994","Class":"4"},"geometry":{"x":120.53673426438748,"y":22.545417842807524}},{"attributes":{"OBJECTID":15571,"LANDMARKID":"1001300000864","LANDMARKCO":"402","LANDMARKNA":"亞太行動寬頻電信-潮州延平加盟服務中心","LANDMARKAD":"1001302","ADDRESS":"屏東縣潮州鎮延平路107號","TEL":"08-7807878","COUNTYNAME":"屏東縣","TOWNNAME":"潮州鎮","MARKTYPE":"994","Class":"4"},"geometry":{"x":120.54016496922137,"y":22.554189656028733}},{"attributes":{"OBJECTID":15572,"LANDMARKID":"1001300000832","LANDMARKCO":"401","LANDMARKNA":"永生中醫醫院","LANDMARKAD":"1001302","ADDRESS":"屏東縣潮州鎮長興路60號","TEL":"08-7883600","COUNTYNAME":"屏東縣","TOWNNAME":"潮州鎮","MARKTYPE":"994","Class":"4"},"geometry":{"x":120.54067870394564,"y":22.551573564912204}},{"attributes":{"OBJECTID":15573,"LANDMARKID":"1001300000833","LANDMARKCO":"401","LANDMARKNA":"茂隆骨科醫院","LANDMARKAD":"1001302","ADDRESS":"屏東縣潮州鎮朝昇路322號","TEL":"08-7801915","COUNTYNAME":"屏東縣","TOWNNAME":"潮州鎮","MARKTYPE":"994","Class":"4"},"geometry":{"x":120.5392178771976,"y":22.556171054070536}},{"attributes":{"OBJECTID":15574,"LANDMARKID":"1001300000834","LANDMARKCO":"401","LANDMARKNA":"六愛醫院","LANDMARKAD":"1001302","ADDRESS":"屏東縣潮州鎮新生里中山路168號","TEL":"08-7896868","COUNTYNAME":"屏東縣","TOWNNAME":"潮州鎮","MARKTYPE":"994","Class":"4"},"geometry":{"x":120.53879584521518,"y":22.549674293360823}},{"attributes":{"OBJECTID":15575,"LANDMARKID":"1001300000835","LANDMARKCO":"401","LANDMARKNA":"全民醫院","LANDMARKAD":"1001302","ADDRESS":"屏東縣潮州鎮四維路162號","TEL":"08-7800888","COUNTYNAME":"屏東縣","TOWNNAME":"潮州鎮","MARKTYPE":"994","Class":"4"},"geometry":{"x":120.54697223067072,"y":22.554031839027125}},{"attributes":{"OBJECTID":15576,"LANDMARKID":"1001300001240","LANDMARKCO":"506","LANDMARKNA":"農民教育休閒農場","LANDMARKAD":"1001302","ADDRESS":"屏東縣潮州鎮新生里中山路182號","TEL":"08-7882001","COUNTYNAME":"屏東縣","TOWNNAME":"潮州鎮","MARKTYPE":"995","Class":"5"},"geometry":{"x":120.53673772668415,"y":22.547052282310869}},{"attributes":{"OBJECTID":15577,"LANDMARKID":"1001300001133","LANDMARKCO":"408","LANDMARKNA":"郵局-潮州郵局","LANDMARKAD":"1001302","ADDRESS":"屏東縣潮州鎮光春路13號","TEL":"(08)7884-650","COUNTYNAME":"屏東縣","TOWNNAME":"潮州鎮","MARKTYPE":"994","Class":"4"},"geometry":{"x":120.53718690802263,"y":22.544607677631184}},{"attributes":{"OBJECTID":15578,"LANDMARKID":"1001300001134","LANDMARKCO":"408","LANDMARKNA":"郵局-潮州新生路郵局","LANDMARKAD":"1001302","ADDRESS":"屏東縣潮州鎮新生路115號","TEL":"(08)7882-934","COUNTYNAME":"屏東縣","TOWNNAME":"潮州鎮","MARKTYPE":"994","Class":"4"},"geometry":{"x":120.53848314563733,"y":22.551298107109009}},{"attributes":{"OBJECTID":15579,"LANDMARKID":"1001300001135","LANDMARKCO":"408","LANDMARKNA":"郵局-潮州南進路郵局","LANDMARKAD":"1001302","ADDRESS":"屏東縣潮州鎮長興路1-13號","TEL":"(08)788-0525","COUNTYNAME":"屏東縣","TOWNNAME":"潮州鎮","MARKTYPE":"994","Class":"4"},"geometry":{"x":120.5437054664027,"y":22.551131357935834}},{"attributes":{"OBJECTID":15580,"LANDMARKID":"1001300001168","LANDMARKCO":"409","LANDMARKNA":"潮州鎮農會","LANDMARKAD":"1001302","ADDRESS":"屏東縣潮州鎮新生里中山路117號","TEL":"08-7882001","COUNTYNAME":"屏東縣","TOWNNAME":"潮州鎮","MARKTYPE":"994","Class":"4"},"geometry":{"x":120.53978937796187,"y":22.549401095418482}},{"attributes":{"OBJECTID":15581,"LANDMARKID":"1001300001062","LANDMARKCO":"406","LANDMARKNA":"潮州運動公園","LANDMARKAD":"1001302","ADDRESS":"屏東縣潮州鎮","TEL":" ","COUNTYNAME":"屏東縣","TOWNNAME":"潮州鎮","MARKTYPE":"994","Class":"4"},"geometry":{"x":120.5485870951173,"y":22.544456452407211}},{"attributes":{"OBJECTID":15582,"LANDMARKID":"1001300001063","LANDMARKCO":"406","LANDMARKNA":"中山公園","LANDMARKAD":"1001302","ADDRESS":"屏東縣潮州鎮","TEL":" ","COUNTYNAME":"屏東縣","TOWNNAME":"潮州鎮","MARKTYPE":"994","Class":"4"},"geometry":{"x":120.55094807554033,"y":22.546011185702593}},{"attributes":{"OBJECTID":15583,"LANDMARKID":"1001300001064","LANDMARKCO":"406","LANDMARKNA":"兒童公園","LANDMARKAD":"1001302","ADDRESS":"屏東縣潮州鎮","TEL":" ","COUNTYNAME":"屏東縣","TOWNNAME":"潮州鎮","MARKTYPE":"994","Class":"4"},"geometry":{"x":120.54230304948071,"y":22.558174341103975}},{"attributes":{"OBJECTID":15584,"LANDMARKID":"1001300001065","LANDMARKCO":"406","LANDMARKNA":"運動公園","LANDMARKAD":"1001302","ADDRESS":"屏東縣潮州鎮","TEL":" ","COUNTYNAME":"屏東縣","TOWNNAME":"潮州鎮","MARKTYPE":"994","Class":"4"},"geometry":{"x":120.54831754725872,"y":22.544836306839599}},{"attributes":{"OBJECTID":15585,"LANDMARKID":"1001300001066","LANDMARKCO":"406","LANDMARKNA":"河濱公園","LANDMARKAD":"1001302","ADDRESS":"屏東縣潮州鎮","TEL":" ","COUNTYNAME":"屏東縣","TOWNNAME":"潮州鎮","MARKTYPE":"994","Class":"4"},"geometry":{"x":120.54012269019118,"y":22.546191493580647}},{"attributes":{"OBJECTID":15586,"LANDMARKID":"1001300000950","LANDMARKCO":"405","LANDMARKNA":"福懋加油站-潮州站(台塑)","LANDMARKAD":"1001302","ADDRESS":"屏東縣潮州鎮光春路222號","TEL":"08-7899401","COUNTYNAME":"屏東縣","TOWNNAME":"潮州鎮","MARKTYPE":"994","Class":"4"},"geometry":{"x":120.5390905282671,"y":22.538497604507434}},{"attributes":{"OBJECTID":15587,"LANDMARKID":"1001300000951","LANDMARKCO":"405","LANDMARKNA":"台塑加油站-鼎鋒站(台塑)","LANDMARKAD":"1001302","ADDRESS":"屏東縣潮州鎮光復路255號","TEL":"08-7861395","COUNTYNAME":"屏東縣","TOWNNAME":"潮州鎮","MARKTYPE":"994","Class":"4"},"geometry":{"x":120.53547162965539,"y":22.53449068558707}},{"attributes":{"OBJECTID":15588,"LANDMARKID":"1001300000952","LANDMARKCO":"405","LANDMARKNA":"台亞加油站-潮萬站（台塑）","LANDMARKAD":"1001302","ADDRESS":"屏東縣潮州鎮潮州路1211號","TEL":"(08)788-0745","COUNTYNAME":"屏東縣","TOWNNAME":"潮州鎮","MARKTYPE":"994","Class":"4"},"geometry":{"x":120.55404740320104,"y":22.561092246239738}},{"attributes":{"OBJECTID":15589,"LANDMARKID":"1001300000149","LANDMARKCO":"106","LANDMARKNA":"屏東縣潮州鎮戶政事務所","LANDMARKAD":"1001302","ADDRESS":"屏東縣潮州鎮光華里16鄰中山路12號","TEL":"08-7882704","COUNTYNAME":"屏東縣","TOWNNAME":"潮州鎮","MARKTYPE":"991","Class":"1"},"geometry":{"x":120.54491126911832,"y":22.550317497364652}},{"attributes":{"OBJECTID":15590,"LANDMARKID":"1001300000115","LANDMARKCO":"104","LANDMARKNA":"南區國稅局潮州稽徵所","LANDMARKAD":"1001302","ADDRESS":"屏東縣潮州鎮光華里永康街66號","TEL":"08-7899871","COUNTYNAME":"屏東縣","TOWNNAME":"潮州鎮","MARKTYPE":"991","Class":"1"},"geometry":{"x":120.54469668244528,"y":22.546162015069157}},{"attributes":{"OBJECTID":15591,"LANDMARKID":"1001300000194","LANDMARKCO":"107","LANDMARKNA":"屏東縣消防局第二消防大隊部","LANDMARKAD":"1001302","ADDRESS":"屏東縣潮州鎮文化路191號","TEL":"08-7802723","COUNTYNAME":"屏東縣","TOWNNAME":"潮州鎮","MARKTYPE":"991","Class":"1"},"geometry":{"x":120.54351904189404,"y":22.557813278960726}},{"attributes":{"OBJECTID":15592,"LANDMARKID":"1001300000195","LANDMARKCO":"107","LANDMARKNA":"屏東縣消防局潮州消防分隊","LANDMARKAD":"1001302","ADDRESS":"屏東縣潮州鎮文化路191號","TEL":"08-7882079","COUNTYNAME":"屏東縣","TOWNNAME":"潮州鎮","MARKTYPE":"991","Class":"1"},"geometry":{"x":120.54351904189404,"y":22.557813278960726}},{"attributes":{"OBJECTID":15593,"LANDMARKID":"1001300000196","LANDMARKCO":"107","LANDMARKNA":"屏東縣警察局潮州分局","LANDMARKAD":"1001302","ADDRESS":"屏東縣潮州鎮光華里中山路12號","TEL":"08-7882020","COUNTYNAME":"屏東縣","TOWNNAME":"潮州鎮","MARKTYPE":"991","Class":"1"},"geometry":{"x":120.54491126911832,"y":22.550317497364652}},{"attributes":{"OBJECTID":15594,"LANDMARKID":"1001300000197","LANDMARKCO":"107","LANDMARKNA":"屏東縣警察局四林派出所","LANDMARKAD":"1001302","ADDRESS":"屏東縣潮州鎮泗林里明倫路15號","TEL":"08-7882767","COUNTYNAME":"屏東縣","TOWNNAME":"潮州鎮","MARKTYPE":"991","Class":"1"},"geometry":{"x":120.56718957275226,"y":22.545502304903401}},{"attributes":{"OBJECTID":15595,"LANDMARKID":"1001300000198","LANDMARKCO":"107","LANDMARKNA":"屏東縣警察局光華派出所","LANDMARKAD":"1001302","ADDRESS":"屏東縣潮州鎮光華里中山路12號","TEL":"08-7884265","COUNTYNAME":"屏東縣","TOWNNAME":"潮州鎮","MARKTYPE":"991","Class":"1"},"geometry":{"x":120.54491126911832,"y":22.550317497364652}},{"attributes":{"OBJECTID":15596,"LANDMARKID":"1001300000199","LANDMARKCO":"107","LANDMARKNA":"屏東縣警察局中山路派出所","LANDMARKAD":"1001302","ADDRESS":"屏東縣潮州鎮新生里新生路81號","TEL":"08-7882347","COUNTYNAME":"屏東縣","TOWNNAME":"潮州鎮","MARKTYPE":"991","Class":"1"},"geometry":{"x":120.53839189976354,"y":22.549672007539137}},{"attributes":{"OBJECTID":15597,"LANDMARKID":"1001300000066","LANDMARKCO":"103","LANDMARKNA":"屏東縣潮州鎮衛生所","LANDMARKAD":"1001302","ADDRESS":"屏東縣潮州鎮永坤路107號","TEL":"08-7882131","COUNTYNAME":"屏東縣","TOWNNAME":"潮州鎮","MARKTYPE":"991","Class":"1"},"geometry":{"x":120.54224827604023,"y":22.553019586638921}},{"attributes":{"OBJECTID":15598,"LANDMARKID":"1001300000122","LANDMARKCO":"105","LANDMARKNA":"屏東縣潮州地政事務所","LANDMARKAD":"1001302","ADDRESS":"屏東縣潮州鎮四維路20號","TEL":"08-7895238","COUNTYNAME":"屏東縣","TOWNNAME":"潮州鎮","MARKTYPE":"991","Class":"1"},"geometry":{"x":120.54485056436305,"y":22.550678398427475}},{"attributes":{"OBJECTID":15599,"LANDMARKID":"1001300000067","LANDMARKCO":"103","LANDMARKNA":"屏東縣潮州鎮民代表會","LANDMARKAD":"1001302","ADDRESS":"屏東縣潮州鎮中山路38號","TEL":"08-7882425","COUNTYNAME":"屏東縣","TOWNNAME":"潮州鎮","MARKTYPE":"991","Class":"1"},"geometry":{"x":120.54285301511979,"y":22.549952496133908}},{"attributes":{"OBJECTID":15600,"LANDMARKID":"1001300000327","LANDMARKCO":"108","LANDMARKNA":"屏東縣潮州鎮公所","LANDMARKAD":"1001302","ADDRESS":"屏東縣潮州鎮中山路38號","TEL":"08-7882371","COUNTYNAME":"屏東縣","TOWNNAME":"潮州鎮","MARKTYPE":"991","Class":"1"},"geometry":{"x":120.54285301511979,"y":22.549952496133908}}]}