{"displayFieldName":"COUNTYNAME","fieldAliases":{"OBJECTID":"OBJECTID","LANDMARKID":"LANDMARKID","LANDMARKCO":"LANDMARKCO","LANDMARKNA":"LANDMARKNA","LANDMARKAD":"LANDMARKAD","ADDRESS":"ADDRESS","TEL":"TEL","COUNTYNAME":"COUNTYNAME","TOWNNAME":"TOWNNAME","MARKTYPE":"MARKTYPE","Class":"Class"},"geometryType":"esriGeometryPoint","spatialReference":{"wkid":102443},"fields":[{"name":"OBJECTID","type":"esriFieldTypeOID","alias":"OBJECTID"},{"name":"LANDMARKID","type":"esriFieldTypeString","alias":"LANDMARKID","length":15},{"name":"LANDMARKCO","type":"esriFieldTypeString","alias":"LANDMARKCO","length":15},{"name":"LANDMARKNA","type":"esriFieldTypeString","alias":"LANDMARKNA","length":50},{"name":"LANDMARKAD","type":"esriFieldTypeString","alias":"LANDMARKAD","length":15},{"name":"ADDRESS","type":"esriFieldTypeString","alias":"ADDRESS","length":56},{"name":"TEL","type":"esriFieldTypeString","alias":"TEL","length":36},{"name":"COUNTYNAME","type":"esriFieldTypeString","alias":"COUNTYNAME","length":15},{"name":"TOWNNAME","type":"esriFieldTypeString","alias":"TOWNNAME","length":13},{"name":"MARKTYPE","type":"esriFieldTypeString","alias":"MARKTYPE","length":12},{"name":"Class","type":"esriFieldTypeString","alias":"Class","length":5}],"features":[{"attributes":{"OBJECTID":23601,"LANDMARKID":"1001500000868","LANDMARKCO":"603","LANDMARKNA":"東岸精緻商務旅館","LANDMARKAD":"1001501","ADDRESS":"花蓮縣花蓮市延平街45號","TEL":"03-8332889","COUNTYNAME":"花蓮縣","TOWNNAME":"花蓮市","MARKTYPE":"996","Class":"6"},"geometry":{"x":311324.47699999996,"y":2653418.8522999994}},{"attributes":{"OBJECTID":23602,"LANDMARKID":"1001500000869","LANDMARKCO":"603","LANDMARKNA":"安樺商務飯店","LANDMARKAD":"1001501","ADDRESS":"花蓮縣花蓮市忠孝街65號","TEL":"03-8327777","COUNTYNAME":"花蓮縣","TOWNNAME":"花蓮市","MARKTYPE":"996","Class":"6"},"geometry":{"x":311660.13750000019,"y":2652343.8535999991}},{"attributes":{"OBJECTID":23603,"LANDMARKID":"1001500000870","LANDMARKCO":"603","LANDMARKNA":"大統商務賓館","LANDMARKAD":"1001501","ADDRESS":"花蓮縣花蓮市南京街155號","TEL":"03-8342166-8","COUNTYNAME":"花蓮縣","TOWNNAME":"花蓮市","MARKTYPE":"996","Class":"6"},"geometry":{"x":311616.90130000003,"y":2652287.8280999996}},{"attributes":{"OBJECTID":23604,"LANDMARKID":"1001500000871","LANDMARKCO":"603","LANDMARKNA":"仁愛別館","LANDMARKAD":"1001501","ADDRESS":"花蓮縣花蓮市南京街192號","TEL":"03-8356156-8","COUNTYNAME":"花蓮縣","TOWNNAME":"花蓮市","MARKTYPE":"996","Class":"6"},"geometry":{"x":311608.80260000005,"y":2652264.8629000001}},{"attributes":{"OBJECTID":23605,"LANDMARKID":"1001500000872","LANDMARKCO":"603","LANDMARKNA":"旅路汽車旅館","LANDMARKAD":"1001501","ADDRESS":"花蓮縣花蓮市重慶路255號","TEL":"03-8311199","COUNTYNAME":"花蓮縣","TOWNNAME":"花蓮市","MARKTYPE":"996","Class":"6"},"geometry":{"x":311584.33339999989,"y":2651847.9737}},{"attributes":{"OBJECTID":23606,"LANDMARKID":"1001500000873","LANDMARKCO":"603","LANDMARKNA":"洄瀾客棧","LANDMARKAD":"1001501","ADDRESS":"花蓮縣花蓮市海岸路11號","TEL":"03-8227188","COUNTYNAME":"花蓮縣","TOWNNAME":"花蓮市","MARKTYPE":"996","Class":"6"},"geometry":{"x":313904.88080000039,"y":2653824.8920000009}},{"attributes":{"OBJECTID":23607,"LANDMARKID":"1001500000874","LANDMARKCO":"603","LANDMARKNA":"華王大飯店","LANDMARKAD":"1001501","ADDRESS":"花蓮縣花蓮市軒轅路18號","TEL":"03-8323195","COUNTYNAME":"花蓮縣","TOWNNAME":"花蓮市","MARKTYPE":"996","Class":"6"},"geometry":{"x":312267.13219999988,"y":2652419.6657999996}},{"attributes":{"OBJECTID":23608,"LANDMARKID":"1001500000875","LANDMARKCO":"603","LANDMARKNA":"瑪亞旅店","LANDMARKAD":"1001501","ADDRESS":"花蓮縣花蓮市福建街516號","TEL":"03-8326171","COUNTYNAME":"花蓮縣","TOWNNAME":"花蓮市","MARKTYPE":"996","Class":"6"},"geometry":{"x":312185.31120000035,"y":2652459.7982000001}},{"attributes":{"OBJECTID":23609,"LANDMARKID":"1001500000876","LANDMARKCO":"603","LANDMARKNA":"瑞翔飯店","LANDMARKAD":"1001501","ADDRESS":"花蓮縣花蓮市國聯三路79號","TEL":"03-8356178","COUNTYNAME":"花蓮縣","TOWNNAME":"花蓮市","MARKTYPE":"996","Class":"6"},"geometry":{"x":311562.71800000034,"y":2654091.0262000002}},{"attributes":{"OBJECTID":23610,"LANDMARKID":"1001500000877","LANDMARKCO":"603","LANDMARKNA":"今日大飯店","LANDMARKAD":"1001501","ADDRESS":"花蓮縣花蓮市軒轅路8號","TEL":"03-8325189","COUNTYNAME":"花蓮縣","TOWNNAME":"花蓮市","MARKTYPE":"996","Class":"6"},"geometry":{"x":312257.22400000039,"y":2652363.7146000005}},{"attributes":{"OBJECTID":23611,"LANDMARKID":"1001500000878","LANDMARKCO":"603","LANDMARKNA":"麗格休閒飯店","LANDMARKAD":"1001501","ADDRESS":"花蓮縣花蓮市商校街258號","TEL":"03-8353010","COUNTYNAME":"花蓮縣","TOWNNAME":"花蓮市","MARKTYPE":"996","Class":"6"},"geometry":{"x":310932.28720000014,"y":2653681.3178000003}},{"attributes":{"OBJECTID":23612,"LANDMARKID":"1001500000879","LANDMARKCO":"603","LANDMARKNA":"雅筑汽車商務旅館","LANDMARKAD":"1001501","ADDRESS":"花蓮縣花蓮市國盛一街25號","TEL":"03-8347755","COUNTYNAME":"花蓮縣","TOWNNAME":"花蓮市","MARKTYPE":"996","Class":"6"},"geometry":{"x":311702.35989999957,"y":2654008.6378000006}},{"attributes":{"OBJECTID":23613,"LANDMARKID":"1001500000880","LANDMARKCO":"603","LANDMARKNA":"多羅滿精品汽車旅館","LANDMARKAD":"1001501","ADDRESS":"花蓮縣花蓮市國興一街123號","TEL":"03-8316622","COUNTYNAME":"花蓮縣","TOWNNAME":"花蓮市","MARKTYPE":"996","Class":"6"},"geometry":{"x":311466.79910000041,"y":2654725.4263000004}},{"attributes":{"OBJECTID":23614,"LANDMARKID":"1001500000881","LANDMARKCO":"603","LANDMARKNA":"國廣興大飯店(國興店)","LANDMARKAD":"1001501","ADDRESS":"花蓮縣花蓮市國興一街36號","TEL":"03-8338882","COUNTYNAME":"花蓮縣","TOWNNAME":"花蓮市","MARKTYPE":"996","Class":"6"},"geometry":{"x":311450.35340000037,"y":2654621.4967999998}},{"attributes":{"OBJECTID":23615,"LANDMARKID":"1001500000882","LANDMARKCO":"603","LANDMARKNA":"花蓮香城大飯店","LANDMARKAD":"1001501","ADDRESS":"花蓮縣花蓮市國興二街19號","TEL":"03-8353355","COUNTYNAME":"花蓮縣","TOWNNAME":"花蓮市","MARKTYPE":"996","Class":"6"},"geometry":{"x":311499.42839999963,"y":2654331.2920999993}},{"attributes":{"OBJECTID":23616,"LANDMARKID":"1001500000883","LANDMARKCO":"603","LANDMARKNA":"福大旅館","LANDMARKAD":"1001501","ADDRESS":"花蓮縣花蓮市國興二街72號","TEL":"03-8340854","COUNTYNAME":"花蓮縣","TOWNNAME":"花蓮市","MARKTYPE":"996","Class":"6"},"geometry":{"x":311349.89919999987,"y":2654133.9384000003}},{"attributes":{"OBJECTID":23617,"LANDMARKID":"1001500000884","LANDMARKCO":"603","LANDMARKNA":"新宿飯店","LANDMARKAD":"1001501","ADDRESS":"花蓮縣花蓮市國聯一路103號","TEL":"03-8322415","COUNTYNAME":"花蓮縣","TOWNNAME":"花蓮市","MARKTYPE":"996","Class":"6"},"geometry":{"x":311319.00189999957,"y":2654156.8641999997}},{"attributes":{"OBJECTID":23618,"LANDMARKID":"1001500000885","LANDMARKCO":"603","LANDMARKNA":"綠園飯店","LANDMARKAD":"1001501","ADDRESS":"花蓮縣花蓮市國聯一路131號","TEL":"03-8333335","COUNTYNAME":"花蓮縣","TOWNNAME":"花蓮市","MARKTYPE":"996","Class":"6"},"geometry":{"x":311261.71580000035,"y":2654090.1090999991}},{"attributes":{"OBJECTID":23619,"LANDMARKID":"1001500000886","LANDMARKCO":"603","LANDMARKNA":"永祺飯店","LANDMARKAD":"1001501","ADDRESS":"花蓮縣花蓮市國聯一路139號","TEL":"03-8356111-2","COUNTYNAME":"花蓮縣","TOWNNAME":"花蓮市","MARKTYPE":"996","Class":"6"},"geometry":{"x":311242.63049999997,"y":2654070.1906000003}},{"attributes":{"OBJECTID":23620,"LANDMARKID":"1001500000887","LANDMARKCO":"603","LANDMARKNA":"花蓮馥麗生活旅店","LANDMARKAD":"1001501","ADDRESS":"花蓮縣花蓮市三民街46-1號","TEL":"03-8320000","COUNTYNAME":"花蓮縣","TOWNNAME":"花蓮市","MARKTYPE":"996","Class":"6"},"geometry":{"x":312029.86400000006,"y":2652895.4652999993}},{"attributes":{"OBJECTID":23621,"LANDMARKID":"1001500000888","LANDMARKCO":"603","LANDMARKNA":"福隆大飯店","LANDMARKAD":"1001501","ADDRESS":"花蓮縣花蓮市大同街29號","TEL":"03-8353366","COUNTYNAME":"花蓮縣","TOWNNAME":"花蓮市","MARKTYPE":"996","Class":"6"},"geometry":{"x":311624.17939999979,"y":2652968.9967}},{"attributes":{"OBJECTID":23622,"LANDMARKID":"1001500000889","LANDMARKCO":"603","LANDMARKNA":"佳佳旅館","LANDMARKAD":"1001501","ADDRESS":"花蓮縣花蓮市大同街32-1號","TEL":"03-8236106","COUNTYNAME":"花蓮縣","TOWNNAME":"花蓮市","MARKTYPE":"996","Class":"6"},"geometry":{"x":311660.20100000035,"y":2652973.8419000003}},{"attributes":{"OBJECTID":23623,"LANDMARKID":"1001500000890","LANDMARKCO":"603","LANDMARKNA":"大新大旅社","LANDMARKAD":"1001501","ADDRESS":"花蓮縣花蓮市中山路101號","TEL":"03-8322125","COUNTYNAME":"花蓮縣","TOWNNAME":"花蓮市","MARKTYPE":"996","Class":"6"},"geometry":{"x":312150.00420000032,"y":2652388.9511999991}},{"attributes":{"OBJECTID":23624,"LANDMARKID":"1001500000891","LANDMARKCO":"603","LANDMARKNA":"華心大飯店","LANDMARKAD":"1001501","ADDRESS":"花蓮縣花蓮市中山路154號2-9樓","TEL":"03-8354113","COUNTYNAME":"花蓮縣","TOWNNAME":"花蓮市","MARKTYPE":"996","Class":"6"},"geometry":{"x":311997.15199999977,"y":2652654.6124000009}},{"attributes":{"OBJECTID":23625,"LANDMARKID":"1001500000892","LANDMARKCO":"603","LANDMARKNA":"岱怡大飯店","LANDMARKAD":"1001501","ADDRESS":"花蓮縣花蓮市中山路341號","TEL":"03-8358181","COUNTYNAME":"花蓮縣","TOWNNAME":"花蓮市","MARKTYPE":"996","Class":"6"},"geometry":{"x":311695.09729999956,"y":2653024.6862000003}},{"attributes":{"OBJECTID":23626,"LANDMARKID":"1001500000893","LANDMARKCO":"603","LANDMARKNA":"明水園飯店","LANDMARKAD":"1001501","ADDRESS":"花蓮縣花蓮市國聯一路201號","TEL":"03-8361116-20","COUNTYNAME":"花蓮縣","TOWNNAME":"花蓮市","MARKTYPE":"996","Class":"6"},"geometry":{"x":311131.12399999984,"y":2653951.6665000003}},{"attributes":{"OBJECTID":23627,"LANDMARKID":"1001500000894","LANDMARKCO":"603","LANDMARKNA":"仟台大飯店","LANDMARKAD":"1001501","ADDRESS":"花蓮縣花蓮市國聯一路83-1號3-4樓","TEL":"03-8330121","COUNTYNAME":"花蓮縣","TOWNNAME":"花蓮市","MARKTYPE":"996","Class":"6"},"geometry":{"x":311346.17729999963,"y":2654198.9542999994}},{"attributes":{"OBJECTID":23628,"LANDMARKID":"1001500000895","LANDMARKCO":"603","LANDMARKNA":"青葉旅館","LANDMARKAD":"1001501","ADDRESS":"花蓮縣花蓮市國聯一路83號3-5樓","TEL":"03-8330186","COUNTYNAME":"花蓮縣","TOWNNAME":"花蓮市","MARKTYPE":"996","Class":"6"},"geometry":{"x":311364.30140000023,"y":2654227.8768000007}},{"attributes":{"OBJECTID":23629,"LANDMARKID":"1001500000896","LANDMARKCO":"603","LANDMARKNA":"青葉大飯店","LANDMARKAD":"1001501","ADDRESS":"花蓮縣花蓮市國聯一路83號6-9樓","TEL":"03-8330186","COUNTYNAME":"花蓮縣","TOWNNAME":"花蓮市","MARKTYPE":"996","Class":"6"},"geometry":{"x":311364.30140000023,"y":2654227.8768000007}},{"attributes":{"OBJECTID":23630,"LANDMARKID":"1001500000897","LANDMARKCO":"603","LANDMARKNA":"千台大飯店","LANDMARKAD":"1001501","ADDRESS":"花蓮縣花蓮市國聯一路85號1-2樓","TEL":"03-8330123","COUNTYNAME":"花蓮縣","TOWNNAME":"花蓮市","MARKTYPE":"996","Class":"6"},"geometry":{"x":311343.16870000027,"y":2654196.9671999998}},{"attributes":{"OBJECTID":23631,"LANDMARKID":"1001500000898","LANDMARKCO":"603","LANDMARKNA":"富堡汽車旅館","LANDMARKAD":"1001501","ADDRESS":"花蓮縣花蓮市國聯二路101號","TEL":"03-8332888","COUNTYNAME":"花蓮縣","TOWNNAME":"花蓮市","MARKTYPE":"996","Class":"6"},"geometry":{"x":311342.14620000031,"y":2653957.9715}},{"attributes":{"OBJECTID":23632,"LANDMARKID":"1001500000899","LANDMARKCO":"603","LANDMARKNA":"富國大飯店","LANDMARKAD":"1001501","ADDRESS":"花蓮縣花蓮市國聯二路15號","TEL":"03-8351151","COUNTYNAME":"花蓮縣","TOWNNAME":"花蓮市","MARKTYPE":"996","Class":"6"},"geometry":{"x":311531.17310000025,"y":2654197.1615999993}},{"attributes":{"OBJECTID":23633,"LANDMARKID":"1001500000900","LANDMARKCO":"603","LANDMARKNA":"海洋飯店","LANDMARKAD":"1001501","ADDRESS":"花蓮縣花蓮市國聯三路58號","TEL":"03-8336169","COUNTYNAME":"花蓮縣","TOWNNAME":"花蓮市","MARKTYPE":"996","Class":"6"},"geometry":{"x":311502.75700000022,"y":2654100.2835000008}},{"attributes":{"OBJECTID":23634,"LANDMARKID":"1001500000901","LANDMARKCO":"603","LANDMARKNA":"山水飯店","LANDMARKAD":"1001501","ADDRESS":"花蓮縣花蓮市國聯三路73號","TEL":"03-8336571-2","COUNTYNAME":"花蓮縣","TOWNNAME":"花蓮市","MARKTYPE":"996","Class":"6"},"geometry":{"x":311549.75679999962,"y":2654100.0818000007}},{"attributes":{"OBJECTID":23635,"LANDMARKID":"1001500000902","LANDMARKCO":"603","LANDMARKNA":"合歡大飯店","LANDMARKAD":"1001501","ADDRESS":"花蓮縣花蓮市國聯五路105號","TEL":"03-8350171-5","COUNTYNAME":"花蓮縣","TOWNNAME":"花蓮市","MARKTYPE":"996","Class":"6"},"geometry":{"x":311568.09269999992,"y":2654252.9974000007}},{"attributes":{"OBJECTID":23636,"LANDMARKID":"1001500000903","LANDMARKCO":"603","LANDMARKNA":"五洲商務旅館","LANDMARKAD":"1001501","ADDRESS":"花蓮縣花蓮市中山路84號","TEL":"03-8332292","COUNTYNAME":"花蓮縣","TOWNNAME":"花蓮市","MARKTYPE":"996","Class":"6"},"geometry":{"x":312177.06429999974,"y":2652402.8340000007}},{"attributes":{"OBJECTID":23637,"LANDMARKID":"1001500000904","LANDMARKCO":"603","LANDMARKNA":"東榮汽車旅館","LANDMARKAD":"1001501","ADDRESS":"花蓮縣花蓮市中央路四段460號","TEL":"03-8560079","COUNTYNAME":"花蓮縣","TOWNNAME":"花蓮市","MARKTYPE":"996","Class":"6"},"geometry":{"x":311081.18800000008,"y":2655431.8568999991}},{"attributes":{"OBJECTID":23638,"LANDMARKID":"1001500000905","LANDMARKCO":"603","LANDMARKNA":"采盈汽車旅館","LANDMARKAD":"1001501","ADDRESS":"花蓮縣花蓮市中正路169巷60號","TEL":"03-8359566","COUNTYNAME":"花蓮縣","TOWNNAME":"花蓮市","MARKTYPE":"996","Class":"6"},"geometry":{"x":310829.16220000014,"y":2652113.7832999993}},{"attributes":{"OBJECTID":23639,"LANDMARKID":"1001500000906","LANDMARKCO":"603","LANDMARKNA":"新格商務汽車飯店","LANDMARKAD":"1001501","ADDRESS":"花蓮縣花蓮市中正路280號","TEL":"03-8356131","COUNTYNAME":"花蓮縣","TOWNNAME":"花蓮市","MARKTYPE":"996","Class":"6"},"geometry":{"x":311195.42939999979,"y":2652177.4261000007}},{"attributes":{"OBJECTID":23640,"LANDMARKID":"1001500000907","LANDMARKCO":"603","LANDMARKNA":"六福客棧","LANDMARKAD":"1001501","ADDRESS":"花蓮縣花蓮市中正路336巷1弄1號","TEL":"03-8333815","COUNTYNAME":"花蓮縣","TOWNNAME":"花蓮市","MARKTYPE":"996","Class":"6"},"geometry":{"x":311323.64169999957,"y":2652226.8786999993}},{"attributes":{"OBJECTID":23641,"LANDMARKID":"1001500000908","LANDMARKCO":"603","LANDMARKNA":"世良旅館","LANDMARKAD":"1001501","ADDRESS":"花蓮縣花蓮市中正路336巷2弄1號","TEL":"03-8357878","COUNTYNAME":"花蓮縣","TOWNNAME":"花蓮市","MARKTYPE":"996","Class":"6"},"geometry":{"x":311335.68859999999,"y":2652237.8271999992}},{"attributes":{"OBJECTID":23642,"LANDMARKID":"1001500000909","LANDMARKCO":"603","LANDMARKNA":"美琪大飯店","LANDMARKAD":"1001501","ADDRESS":"花蓮縣花蓮市中正路396號","TEL":"03-8326161","COUNTYNAME":"花蓮縣","TOWNNAME":"花蓮市","MARKTYPE":"996","Class":"6"},"geometry":{"x":311435.17599999998,"y":2652352.6073000003}},{"attributes":{"OBJECTID":23643,"LANDMARKID":"1001500000910","LANDMARKCO":"603","LANDMARKNA":"禧福飯店","LANDMARKAD":"1001501","ADDRESS":"花蓮縣花蓮市中正路489號","TEL":"03-8336655","COUNTYNAME":"花蓮縣","TOWNNAME":"花蓮市","MARKTYPE":"996","Class":"6"},"geometry":{"x":311639.60209999979,"y":2652526.9361000005}},{"attributes":{"OBJECTID":23644,"LANDMARKID":"1001500000911","LANDMARKCO":"603","LANDMARKNA":"漫波大飯店","LANDMARKAD":"1001501","ADDRESS":"花蓮縣花蓮市國聯五路192號","TEL":"03-8350011","COUNTYNAME":"花蓮縣","TOWNNAME":"花蓮市","MARKTYPE":"996","Class":"6"},"geometry":{"x":311549.05030000024,"y":2654476.0790999997}},{"attributes":{"OBJECTID":23645,"LANDMARKID":"1001500000912","LANDMARKCO":"603","LANDMARKNA":"國廣興大飯店","LANDMARKAD":"1001501","ADDRESS":"花蓮縣花蓮市國聯五路223號","TEL":"03-8338882","COUNTYNAME":"花蓮縣","TOWNNAME":"花蓮市","MARKTYPE":"996","Class":"6"},"geometry":{"x":311491.34860000014,"y":2654620.3210000005}},{"attributes":{"OBJECTID":23646,"LANDMARKID":"1001500000913","LANDMARKCO":"603","LANDMARKNA":"國廣興大飯店(國聯店)","LANDMARKAD":"1001501","ADDRESS":"花蓮縣花蓮市國聯五路238號","TEL":"03-8338882","COUNTYNAME":"花蓮縣","TOWNNAME":"花蓮市","MARKTYPE":"996","Class":"6"},"geometry":{"x":311515.2882000003,"y":2654606.2182999998}},{"attributes":{"OBJECTID":23647,"LANDMARKID":"1001500000914","LANDMARKCO":"603","LANDMARKNA":"花蓮那魯灣旅店","LANDMARKAD":"1001501","ADDRESS":"花蓮縣花蓮市國聯五路7-3號","TEL":"03-8354833","COUNTYNAME":"花蓮縣","TOWNNAME":"花蓮市","MARKTYPE":"996","Class":"6"},"geometry":{"x":311642.04250000045,"y":2653934.8971999995}},{"attributes":{"OBJECTID":23648,"LANDMARKID":"1001500000915","LANDMARKCO":"603","LANDMARKNA":"大使商務飯店","LANDMARKAD":"1001501","ADDRESS":"花蓮縣花蓮市中正路495號","TEL":"03-8351131","COUNTYNAME":"花蓮縣","TOWNNAME":"花蓮市","MARKTYPE":"996","Class":"6"},"geometry":{"x":311672.71779999975,"y":2652553.7938000001}},{"attributes":{"OBJECTID":23649,"LANDMARKID":"1001500000916","LANDMARKCO":"603","LANDMARKNA":"藍天麗池飯店","LANDMARKAD":"1001501","ADDRESS":"花蓮縣花蓮市中正路590號","TEL":"03-8336686","COUNTYNAME":"花蓮縣","TOWNNAME":"花蓮市","MARKTYPE":"996","Class":"6"},"geometry":{"x":312094.55200000014,"y":2652823.1854999997}},{"attributes":{"OBJECTID":23650,"LANDMARKID":"1001500000917","LANDMARKCO":"603","LANDMARKNA":"冠倫汽車大飯店","LANDMARKAD":"1001501","ADDRESS":"花蓮縣花蓮市中美路67號","TEL":"03-8236926","COUNTYNAME":"花蓮縣","TOWNNAME":"花蓮市","MARKTYPE":"996","Class":"6"},"geometry":{"x":313273.4254999999,"y":2653719.9398999996}},{"attributes":{"OBJECTID":23651,"LANDMARKID":"1001500000918","LANDMARKCO":"603","LANDMARKNA":"麗星大飯店","LANDMARKAD":"1001501","ADDRESS":"花蓮縣花蓮市中山路589號","TEL":"03-8347411","COUNTYNAME":"花蓮縣","TOWNNAME":"花蓮市","MARKTYPE":"996","Class":"6"},"geometry":{"x":311086.05190000031,"y":2653861.8641999997}},{"attributes":{"OBJECTID":23652,"LANDMARKID":"1001500000919","LANDMARKCO":"603","LANDMARKNA":"花蓮海悅酒店","LANDMARKAD":"1001501","ADDRESS":"花蓮縣花蓮市民德里民權路5號","TEL":"03-8338158","COUNTYNAME":"花蓮縣","TOWNNAME":"花蓮市","MARKTYPE":"996","Class":"6"},"geometry":{"x":313120.57390000019,"y":2653138.6254999992}},{"attributes":{"OBJECTID":23653,"LANDMARKID":"1001500001087","LANDMARKCO":"604","LANDMARKNA":"傾城之戀民宿","LANDMARKAD":"1001501","ADDRESS":"花蓮縣花蓮市介智街91號","TEL":"0919-355697","COUNTYNAME":"花蓮縣","TOWNNAME":"花蓮市","MARKTYPE":"996","Class":"6"},"geometry":{"x":308175.0270999996,"y":2654778.0534000006}},{"attributes":{"OBJECTID":23654,"LANDMARKID":"1001500001088","LANDMARKCO":"604","LANDMARKNA":"樸風民宿","LANDMARKAD":"1001501","ADDRESS":"花蓮縣花蓮市建華路83巷15號","TEL":"03-8560225","COUNTYNAME":"花蓮縣","TOWNNAME":"花蓮市","MARKTYPE":"996","Class":"6"},"geometry":{"x":308814.08409999963,"y":2654548.898}},{"attributes":{"OBJECTID":23655,"LANDMARKID":"1001500001089","LANDMARKCO":"604","LANDMARKNA":"安妮公主民宿","LANDMARKAD":"1001501","ADDRESS":"花蓮縣花蓮市建華路83巷17號","TEL":"03-8573850","COUNTYNAME":"花蓮縣","TOWNNAME":"花蓮市","MARKTYPE":"996","Class":"6"},"geometry":{"x":308809.09240000043,"y":2654550.9184000008}},{"attributes":{"OBJECTID":23656,"LANDMARKID":"1001500001090","LANDMARKCO":"604","LANDMARKNA":"後山仙境民宿","LANDMARKAD":"1001501","ADDRESS":"花蓮縣花蓮市建華路83巷9號","TEL":"03-8461905","COUNTYNAME":"花蓮縣","TOWNNAME":"花蓮市","MARKTYPE":"996","Class":"6"},"geometry":{"x":308827.05099999998,"y":2654540.8446999993}},{"attributes":{"OBJECTID":23657,"LANDMARKID":"1001500001091","LANDMARKCO":"604","LANDMARKNA":"童話民宿","LANDMARKAD":"1001501","ADDRESS":"花蓮縣花蓮市建華路89巷10號","TEL":"03-8576087","COUNTYNAME":"花蓮縣","TOWNNAME":"花蓮市","MARKTYPE":"996","Class":"6"},"geometry":{"x":308873.23510000017,"y":2654585.6552000009}},{"attributes":{"OBJECTID":23658,"LANDMARKID":"1001500001092","LANDMARKCO":"604","LANDMARKNA":"漾品屋民宿","LANDMARKAD":"1001501","ADDRESS":"花蓮縣花蓮市民權九街3號","TEL":"03-8227237","COUNTYNAME":"花蓮縣","TOWNNAME":"花蓮市","MARKTYPE":"996","Class":"6"},"geometry":{"x":313868.03249999974,"y":2653857.7997999992}},{"attributes":{"OBJECTID":23659,"LANDMARKID":"1001500001093","LANDMARKCO":"604","LANDMARKNA":"紅驛民宿","LANDMARKAD":"1001501","ADDRESS":"花蓮縣花蓮市建興街110巷4弄8號","TEL":"03-8564971","COUNTYNAME":"花蓮縣","TOWNNAME":"花蓮市","MARKTYPE":"996","Class":"6"},"geometry":{"x":308578.44319999963,"y":2654635.7064999994}},{"attributes":{"OBJECTID":23660,"LANDMARKID":"1001500001094","LANDMARKCO":"604","LANDMARKNA":"碧海樓民宿","LANDMARKAD":"1001501","ADDRESS":"花蓮縣花蓮市建興街38號","TEL":"03-8610197","COUNTYNAME":"花蓮縣","TOWNNAME":"花蓮市","MARKTYPE":"996","Class":"6"},"geometry":{"x":308515.09939999972,"y":2654488.9703000002}},{"attributes":{"OBJECTID":23661,"LANDMARKID":"1001500001095","LANDMARKCO":"604","LANDMARKNA":"雲天樓民宿","LANDMARKAD":"1001501","ADDRESS":"花蓮縣花蓮市建興街56號","TEL":"03-8460121","COUNTYNAME":"花蓮縣","TOWNNAME":"花蓮市","MARKTYPE":"996","Class":"6"},"geometry":{"x":308504.23400000017,"y":2654520.8640000001}},{"attributes":{"OBJECTID":23662,"LANDMARKID":"1001500001096","LANDMARKCO":"604","LANDMARKNA":"香草園民宿","LANDMARKAD":"1001501","ADDRESS":"花蓮縣花蓮市重慶路398巷3號","TEL":"03-8327154","COUNTYNAME":"花蓮縣","TOWNNAME":"花蓮市","MARKTYPE":"996","Class":"6"},"geometry":{"x":311817.72649999987,"y":2651940.1813999992}},{"attributes":{"OBJECTID":23663,"LANDMARKID":"1001500001097","LANDMARKCO":"604","LANDMARKNA":"被浪打到民宿","LANDMARKAD":"1001501","ADDRESS":"花蓮縣花蓮市海濱街12號","TEL":"0938-888918","COUNTYNAME":"花蓮縣","TOWNNAME":"花蓮市","MARKTYPE":"996","Class":"6"},"geometry":{"x":312475.1398,"y":2652037.0012999997}},{"attributes":{"OBJECTID":23664,"LANDMARKID":"1001500001098","LANDMARKCO":"604","LANDMARKNA":"家麗堡精緻民宿","LANDMARKAD":"1001501","ADDRESS":"花蓮縣花蓮市富強路189號","TEL":"03-8563036","COUNTYNAME":"花蓮縣","TOWNNAME":"花蓮市","MARKTYPE":"996","Class":"6"},"geometry":{"x":310845.5195000004,"y":2654966.6638999991}},{"attributes":{"OBJECTID":23665,"LANDMARKID":"1001500001099","LANDMARKCO":"604","LANDMARKNA":"堤堤民宿","LANDMARKAD":"1001501","ADDRESS":"花蓮縣花蓮市富裕一街122號","TEL":"03-8572430","COUNTYNAME":"花蓮縣","TOWNNAME":"花蓮市","MARKTYPE":"996","Class":"6"},"geometry":{"x":310708.07880000025,"y":2654554.0569000002}},{"attributes":{"OBJECTID":23666,"LANDMARKID":"1001500001100","LANDMARKCO":"604","LANDMARKNA":"翠峰","LANDMARKAD":"1001501","ADDRESS":"花蓮縣花蓮市富裕五街11號","TEL":"03-8561513","COUNTYNAME":"花蓮縣","TOWNNAME":"花蓮市","MARKTYPE":"996","Class":"6"},"geometry":{"x":310789.1063000001,"y":2654489.9143000003}},{"attributes":{"OBJECTID":23667,"LANDMARKID":"1001500001101","LANDMARKCO":"604","LANDMARKNA":"柏園民宿","LANDMARKAD":"1001501","ADDRESS":"花蓮縣花蓮市富裕五街66號","TEL":"03-8567847","COUNTYNAME":"花蓮縣","TOWNNAME":"花蓮市","MARKTYPE":"996","Class":"6"},"geometry":{"x":310930.76360000018,"y":2654716.3073999994}},{"attributes":{"OBJECTID":23668,"LANDMARKID":"1001500001102","LANDMARKCO":"604","LANDMARKNA":"雲想家民宿","LANDMARKAD":"1001501","ADDRESS":"花蓮縣花蓮市府前路122號","TEL":"03-8236002","COUNTYNAME":"花蓮縣","TOWNNAME":"花蓮市","MARKTYPE":"996","Class":"6"},"geometry":{"x":313258.36550000031,"y":2654014.0002999995}},{"attributes":{"OBJECTID":23669,"LANDMARKID":"1001500001103","LANDMARKCO":"604","LANDMARKNA":"聞海民宿","LANDMARKAD":"1001501","ADDRESS":"花蓮縣花蓮市海濱街16號","TEL":"03-8333338","COUNTYNAME":"花蓮縣","TOWNNAME":"花蓮市","MARKTYPE":"996","Class":"6"},"geometry":{"x":312510.29220000003,"y":2652071.8482000008}},{"attributes":{"OBJECTID":23670,"LANDMARKID":"1001500001104","LANDMARKCO":"604","LANDMARKNA":"五餅二魚看海民宿","LANDMARKAD":"1001501","ADDRESS":"花蓮縣花蓮市海濱街18號","TEL":"03-8354967","COUNTYNAME":"花蓮縣","TOWNNAME":"花蓮市","MARKTYPE":"996","Class":"6"},"geometry":{"x":312514.31840000022,"y":2652077.8307000007}},{"attributes":{"OBJECTID":23671,"LANDMARKID":"1001500001105","LANDMARKCO":"604","LANDMARKNA":"東之戀民宿","LANDMARKAD":"1001501","ADDRESS":"花蓮縣花蓮市國民七街10號","TEL":"03-8326842","COUNTYNAME":"花蓮縣","TOWNNAME":"花蓮市","MARKTYPE":"996","Class":"6"},"geometry":{"x":311451.18589999992,"y":2654200.5045999996}},{"attributes":{"OBJECTID":23672,"LANDMARKID":"1001500001106","LANDMARKCO":"604","LANDMARKNA":"坐看雲起民宿","LANDMARKAD":"1001501","ADDRESS":"花蓮縣花蓮市國民八街100號","TEL":"0920-777114","COUNTYNAME":"花蓮縣","TOWNNAME":"花蓮市","MARKTYPE":"996","Class":"6"},"geometry":{"x":311866.98080000002,"y":2654459.9225999992}},{"attributes":{"OBJECTID":23673,"LANDMARKID":"1001500001107","LANDMARKCO":"604","LANDMARKNA":"觀月民宿","LANDMARKAD":"1001501","ADDRESS":"花蓮縣花蓮市國民八街92號","TEL":"0937-980069","COUNTYNAME":"花蓮縣","TOWNNAME":"花蓮市","MARKTYPE":"996","Class":"6"},"geometry":{"x":311849.96360000037,"y":2654455.9959999993}},{"attributes":{"OBJECTID":23674,"LANDMARKID":"1001500001108","LANDMARKCO":"604","LANDMARKNA":"玫瑰花園","LANDMARKAD":"1001501","ADDRESS":"花蓮縣花蓮市公園路7-1號","TEL":"0937-532828","COUNTYNAME":"花蓮縣","TOWNNAME":"花蓮市","MARKTYPE":"996","Class":"6"},"geometry":{"x":312183.09140000027,"y":2652639.8078000005}},{"attributes":{"OBJECTID":23675,"LANDMARKID":"1001500001109","LANDMARKCO":"604","LANDMARKNA":"雀兒喜花園民宿","LANDMARKAD":"1001501","ADDRESS":"花蓮縣花蓮市化道路148號","TEL":"03-8237488","COUNTYNAME":"花蓮縣","TOWNNAME":"花蓮市","MARKTYPE":"996","Class":"6"},"geometry":{"x":313311.30059999973,"y":2655230.9878000002}},{"attributes":{"OBJECTID":23676,"LANDMARKID":"1001500001110","LANDMARKCO":"604","LANDMARKNA":"松露民宿","LANDMARKAD":"1001501","ADDRESS":"花蓮縣花蓮市民德一街21-3號","TEL":"03-8339885","COUNTYNAME":"花蓮縣","TOWNNAME":"花蓮市","MARKTYPE":"996","Class":"6"},"geometry":{"x":313067.32629999984,"y":2653309.8596999999}},{"attributes":{"OBJECTID":23677,"LANDMARKID":"1001500001111","LANDMARKCO":"604","LANDMARKNA":"希望海民宿","LANDMARKAD":"1001501","ADDRESS":"花蓮縣花蓮市民德四街3號","TEL":"03-8328502","COUNTYNAME":"花蓮縣","TOWNNAME":"花蓮市","MARKTYPE":"996","Class":"6"},"geometry":{"x":313046.60539999977,"y":2653145.9507999998}},{"attributes":{"OBJECTID":23678,"LANDMARKID":"1001500001112","LANDMARKCO":"604","LANDMARKNA":"花賞民宿","LANDMARKAD":"1001501","ADDRESS":"花蓮縣花蓮市富裕六街22號","TEL":"03-8577580","COUNTYNAME":"花蓮縣","TOWNNAME":"花蓮市","MARKTYPE":"996","Class":"6"},"geometry":{"x":310767.2631000001,"y":2654527.0068999995}},{"attributes":{"OBJECTID":23679,"LANDMARKID":"1001500001113","LANDMARKCO":"604","LANDMARKNA":"菁華河畔民宿","LANDMARKAD":"1001501","ADDRESS":"花蓮縣花蓮市菁華街35巷1弄18號","TEL":"03-8340888","COUNTYNAME":"花蓮縣","TOWNNAME":"花蓮市","MARKTYPE":"996","Class":"6"},"geometry":{"x":312623.23400000017,"y":2653059.3322000001}},{"attributes":{"OBJECTID":23680,"LANDMARKID":"1001500001114","LANDMARKCO":"604","LANDMARKNA":"菁華溪畔~夏慕尼民宿","LANDMARKAD":"1001501","ADDRESS":"花蓮縣花蓮市菁華街35巷1弄9號","TEL":"03-8310099","COUNTYNAME":"花蓮縣","TOWNNAME":"花蓮市","MARKTYPE":"996","Class":"6"},"geometry":{"x":312644.26860000007,"y":2653067.2402999997}},{"attributes":{"OBJECTID":23681,"LANDMARKID":"1001500001115","LANDMARKCO":"604","LANDMARKNA":"香屋民宿","LANDMARKAD":"1001501","ADDRESS":"花蓮縣花蓮市華廈街54巷16號","TEL":"03-8234246","COUNTYNAME":"花蓮縣","TOWNNAME":"花蓮市","MARKTYPE":"996","Class":"6"},"geometry":{"x":313218.15950000007,"y":2655732.1471999995}},{"attributes":{"OBJECTID":23682,"LANDMARKID":"1001500001116","LANDMARKCO":"604","LANDMARKNA":"眠月樓民宿","LANDMARKAD":"1001501","ADDRESS":"花蓮縣花蓮市華泰街69號","TEL":"0919-908622","COUNTYNAME":"花蓮縣","TOWNNAME":"花蓮市","MARKTYPE":"996","Class":"6"},"geometry":{"x":313314.26979999989,"y":2655757.9686999992}},{"attributes":{"OBJECTID":23683,"LANDMARKID":"1001500001117","LANDMARKCO":"604","LANDMARKNA":"瑛瑛的秘密花園民宿","LANDMARKAD":"1001501","ADDRESS":"花蓮縣花蓮市華興街11巷1號","TEL":"03-8325013","COUNTYNAME":"花蓮縣","TOWNNAME":"花蓮市","MARKTYPE":"996","Class":"6"},"geometry":{"x":313127.1314000003,"y":2655418.5546000004}},{"attributes":{"OBJECTID":23684,"LANDMARKID":"1001500001118","LANDMARKCO":"604","LANDMARKNA":"五號小築民宿","LANDMARKAD":"1001501","ADDRESS":"花蓮縣花蓮市華興街11巷5號","TEL":"03-8233290","COUNTYNAME":"花蓮縣","TOWNNAME":"花蓮市","MARKTYPE":"996","Class":"6"},"geometry":{"x":313120.09179999959,"y":2655409.5855999999}},{"attributes":{"OBJECTID":23685,"LANDMARKID":"1001500001119","LANDMARKCO":"604","LANDMARKNA":"海豚小築民宿","LANDMARKAD":"1001501","ADDRESS":"花蓮縣花蓮市華興街11巷7號","TEL":"03-8352060","COUNTYNAME":"花蓮縣","TOWNNAME":"花蓮市","MARKTYPE":"996","Class":"6"},"geometry":{"x":313116.0652999999,"y":2655403.6032999996}},{"attributes":{"OBJECTID":23686,"LANDMARKID":"1001500001120","LANDMARKCO":"604","LANDMARKNA":"美麗家民宿","LANDMARKAD":"1001501","ADDRESS":"花蓮縣花蓮市國民八街96號","TEL":"0918-030310","COUNTYNAME":"花蓮縣","TOWNNAME":"花蓮市","MARKTYPE":"996","Class":"6"},"geometry":{"x":311855.96789999958,"y":2654456.9701000005}},{"attributes":{"OBJECTID":23687,"LANDMARKID":"1001500001121","LANDMARKCO":"604","LANDMARKNA":"橘子天空民宿","LANDMARKAD":"1001501","ADDRESS":"花蓮縣花蓮市順興路129號","TEL":"0932-012769","COUNTYNAME":"花蓮縣","TOWNNAME":"花蓮市","MARKTYPE":"996","Class":"6"},"geometry":{"x":313516.28100000042,"y":2654611.0931000002}},{"attributes":{"OBJECTID":23688,"LANDMARKID":"1001500001122","LANDMARKCO":"604","LANDMARKNA":"海洋之星民宿","LANDMARKAD":"1001501","ADDRESS":"花蓮縣花蓮市民權四街15號","TEL":"03-8324232","COUNTYNAME":"花蓮縣","TOWNNAME":"花蓮市","MARKTYPE":"996","Class":"6"},"geometry":{"x":313166.0421000002,"y":2653325.4192999993}},{"attributes":{"OBJECTID":23689,"LANDMARKID":"1001500001123","LANDMARKCO":"604","LANDMARKNA":"張三ㄟ厝民宿","LANDMARKAD":"1001501","ADDRESS":"花蓮縣花蓮市自由街102號","TEL":"03-8337482","COUNTYNAME":"花蓮縣","TOWNNAME":"花蓮市","MARKTYPE":"996","Class":"6"},"geometry":{"x":311688.58880000003,"y":2652523.7256000005}},{"attributes":{"OBJECTID":23690,"LANDMARKID":"1001500001124","LANDMARKCO":"604","LANDMARKNA":"東風雅舍民宿","LANDMARKAD":"1001501","ADDRESS":"花蓮縣花蓮市自由街116號","TEL":"03-8329303","COUNTYNAME":"花蓮縣","TOWNNAME":"花蓮市","MARKTYPE":"996","Class":"6"},"geometry":{"x":311641.86409999989,"y":2652587.9264000002}},{"attributes":{"OBJECTID":23691,"LANDMARKID":"1001500001125","LANDMARKCO":"604","LANDMARKNA":"星宿海民宿","LANDMARKAD":"1001501","ADDRESS":"花蓮縣花蓮市自強街19號","TEL":"03-8357077","COUNTYNAME":"花蓮縣","TOWNNAME":"花蓮市","MARKTYPE":"996","Class":"6"},"geometry":{"x":312702.37390000001,"y":2652475.9984000009}},{"attributes":{"OBJECTID":23692,"LANDMARKID":"1001500001126","LANDMARKCO":"604","LANDMARKNA":"平川里民宿","LANDMARKAD":"1001501","ADDRESS":"花蓮縣花蓮市佐倉街265號","TEL":"03-8463211","COUNTYNAME":"花蓮縣","TOWNNAME":"花蓮市","MARKTYPE":"996","Class":"6"},"geometry":{"x":309091.09979999997,"y":2657014.8785999995}},{"attributes":{"OBJECTID":23693,"LANDMARKID":"1001500001127","LANDMARKCO":"604","LANDMARKNA":"客至軒民宿","LANDMARKAD":"1001501","ADDRESS":"花蓮縣花蓮市府前路122-1號","TEL":"03-8232292","COUNTYNAME":"花蓮縣","TOWNNAME":"花蓮市","MARKTYPE":"996","Class":"6"},"geometry":{"x":313255.39199999999,"y":2654020.0133999996}},{"attributes":{"OBJECTID":23694,"LANDMARKID":"1001500001128","LANDMARKCO":"604","LANDMARKNA":"幸福屋民宿","LANDMARKAD":"1001501","ADDRESS":"花蓮縣花蓮市國民八街98號","TEL":"0939-407033","COUNTYNAME":"花蓮縣","TOWNNAME":"花蓮市","MARKTYPE":"996","Class":"6"},"geometry":{"x":311860.97219999973,"y":2654457.9484999999}},{"attributes":{"OBJECTID":23695,"LANDMARKID":"1001500001129","LANDMARKCO":"604","LANDMARKNA":"偕安民宿","LANDMARKAD":"1001501","ADDRESS":"花蓮縣花蓮市國民18號","TEL":"03-8331995","COUNTYNAME":"花蓮縣","TOWNNAME":"花蓮市","MARKTYPE":"996","Class":"6"},"geometry":{"x":311866,"y":2654847.9153000005}},{"attributes":{"OBJECTID":23696,"LANDMARKID":"1001500001130","LANDMARKCO":"604","LANDMARKNA":"藍天白雲民宿","LANDMARKAD":"1001501","ADDRESS":"花蓮縣花蓮市國盛二街9-3號","TEL":"03-8349952","COUNTYNAME":"花蓮縣","TOWNNAME":"花蓮市","MARKTYPE":"996","Class":"6"},"geometry":{"x":311762.07919999957,"y":2653943.3806999996}},{"attributes":{"OBJECTID":23697,"LANDMARKID":"1001500001131","LANDMARKCO":"604","LANDMARKNA":"美樂地民宿","LANDMARKAD":"1001501","ADDRESS":"花蓮縣花蓮市民德一街13號","TEL":"03-8310505","COUNTYNAME":"花蓮縣","TOWNNAME":"花蓮市","MARKTYPE":"996","Class":"6"},"geometry":{"x":313026.15479999967,"y":2653269.8012000006}},{"attributes":{"OBJECTID":23698,"LANDMARKID":"1001500001132","LANDMARKCO":"604","LANDMARKNA":"海角樂園溫馨民宿","LANDMARKAD":"1001501","ADDRESS":"花蓮縣花蓮市中山路16巷22號","TEL":"03-8562222","COUNTYNAME":"花蓮縣","TOWNNAME":"花蓮市","MARKTYPE":"996","Class":"6"},"geometry":{"x":312490.2313000001,"y":2652135.9297000002}},{"attributes":{"OBJECTID":23699,"LANDMARKID":"1001500001133","LANDMARKCO":"604","LANDMARKNA":"向晴民宿","LANDMARKAD":"1001501","ADDRESS":"花蓮縣花蓮市中山路411巷12弄1號","TEL":"03-8362775","COUNTYNAME":"花蓮縣","TOWNNAME":"花蓮市","MARKTYPE":"996","Class":"6"},"geometry":{"x":311478.01819999982,"y":2653238.4067000002}},{"attributes":{"OBJECTID":23700,"LANDMARKID":"1001500001134","LANDMARKCO":"604","LANDMARKNA":"涵星民宿","LANDMARKAD":"1001501","ADDRESS":"花蓮縣花蓮市中山路411巷12弄3號","TEL":"03-8360499","COUNTYNAME":"花蓮縣","TOWNNAME":"花蓮市","MARKTYPE":"996","Class":"6"},"geometry":{"x":311482.02670000028,"y":2653240.3895999994}},{"attributes":{"OBJECTID":23701,"LANDMARKID":"1001500001135","LANDMARKCO":"604","LANDMARKNA":"潘朵拉的希望城堡民宿","LANDMARKAD":"1001501","ADDRESS":"花蓮縣花蓮市中山路411巷16號","TEL":"03-8330010","COUNTYNAME":"花蓮縣","TOWNNAME":"花蓮市","MARKTYPE":"996","Class":"6"},"geometry":{"x":311470.98390000034,"y":2653230.4368999992}},{"attributes":{"OBJECTID":23702,"LANDMARKID":"1001500001136","LANDMARKCO":"604","LANDMARKNA":"椰風時尚民宿","LANDMARKAD":"1001501","ADDRESS":"花蓮縣花蓮市中山路411巷18號","TEL":"03-8651895","COUNTYNAME":"花蓮縣","TOWNNAME":"花蓮市","MARKTYPE":"996","Class":"6"},"geometry":{"x":311468.00109999999,"y":2653234.4496999998}},{"attributes":{"OBJECTID":23703,"LANDMARKID":"1001500001137","LANDMARKCO":"604","LANDMARKNA":"水上民宿","LANDMARKAD":"1001501","ADDRESS":"花蓮縣花蓮市中山路525巷2弄12號","TEL":"03-8338419","COUNTYNAME":"花蓮縣","TOWNNAME":"花蓮市","MARKTYPE":"996","Class":"6"},"geometry":{"x":311244.08849999961,"y":2653562.1958000008}},{"attributes":{"OBJECTID":23704,"LANDMARKID":"1001500001138","LANDMARKCO":"604","LANDMARKNA":"微風民宿","LANDMARKAD":"1001501","ADDRESS":"花蓮縣花蓮市中山路525巷2弄15號","TEL":"03-8359455","COUNTYNAME":"花蓮縣","TOWNNAME":"花蓮市","MARKTYPE":"996","Class":"6"},"geometry":{"x":311233.13549999986,"y":2653573.2424999997}},{"attributes":{"OBJECTID":23705,"LANDMARKID":"1001500001139","LANDMARKCO":"604","LANDMARKNA":"江君府民宿","LANDMARKAD":"1001501","ADDRESS":"花蓮縣花蓮市中山路525巷2弄3-1號","TEL":"03-8361952","COUNTYNAME":"花蓮縣","TOWNNAME":"花蓮市","MARKTYPE":"996","Class":"6"},"geometry":{"x":311227.03299999982,"y":2653549.2686000001}},{"attributes":{"OBJECTID":23706,"LANDMARKID":"1001500001140","LANDMARKCO":"604","LANDMARKNA":"1家6民宿","LANDMARKAD":"1001501","ADDRESS":"花蓮縣花蓮市中山路525巷2弄7-6號","TEL":"03-8320425","COUNTYNAME":"花蓮縣","TOWNNAME":"花蓮市","MARKTYPE":"996","Class":"6"},"geometry":{"x":311305.86620000005,"y":2653509.9319000002}},{"attributes":{"OBJECTID":23707,"LANDMARKID":"1001500001141","LANDMARKCO":"604","LANDMARKNA":"街角民宿","LANDMARKAD":"1001501","ADDRESS":"花蓮縣花蓮市中山路560號","TEL":"03-8575118","COUNTYNAME":"花蓮縣","TOWNNAME":"花蓮市","MARKTYPE":"996","Class":"6"},"geometry":{"x":310831.19400000013,"y":2654274.7357999999}},{"attributes":{"OBJECTID":23708,"LANDMARKID":"1001500001142","LANDMARKCO":"604","LANDMARKNA":"春綠小築民宿","LANDMARKAD":"1001501","ADDRESS":"花蓮縣花蓮市府前路308-5號","TEL":"0915-953688","COUNTYNAME":"花蓮縣","TOWNNAME":"花蓮市","MARKTYPE":"996","Class":"6"},"geometry":{"x":313285.7790000001,"y":2654722.8671000004}},{"attributes":{"OBJECTID":23709,"LANDMARKID":"1001500001143","LANDMARKCO":"604","LANDMARKNA":"山姊妹之屋民宿","LANDMARKAD":"1001501","ADDRESS":"花蓮縣花蓮市府前路318號","TEL":"03-8220597","COUNTYNAME":"花蓮縣","TOWNNAME":"花蓮市","MARKTYPE":"996","Class":"6"},"geometry":{"x":313270.92920000013,"y":2654756.9326000009}},{"attributes":{"OBJECTID":23710,"LANDMARKID":"1001500001144","LANDMARKCO":"604","LANDMARKNA":"何家民宿","LANDMARKAD":"1001501","ADDRESS":"花蓮縣花蓮市府前路524號","TEL":"03-8223382","COUNTYNAME":"花蓮縣","TOWNNAME":"花蓮市","MARKTYPE":"996","Class":"6"},"geometry":{"x":313093.65149999969,"y":2655309.7019999996}},{"attributes":{"OBJECTID":23711,"LANDMARKID":"1001500001145","LANDMARKCO":"604","LANDMARKNA":"海洋四季民宿","LANDMARKAD":"1001501","ADDRESS":"花蓮縣花蓮市延平街53號","TEL":"03-8311158","COUNTYNAME":"花蓮縣","TOWNNAME":"花蓮市","MARKTYPE":"996","Class":"6"},"geometry":{"x":311296.49010000005,"y":2653421.9719999991}},{"attributes":{"OBJECTID":23712,"LANDMARKID":"1001500001146","LANDMARKCO":"604","LANDMARKNA":"水上雅居民宿","LANDMARKAD":"1001501","ADDRESS":"花蓮縣花蓮市延平街80巷19號","TEL":"03-8338419","COUNTYNAME":"花蓮縣","TOWNNAME":"花蓮市","MARKTYPE":"996","Class":"6"},"geometry":{"x":311205.97329999972,"y":2653535.3585000001}},{"attributes":{"OBJECTID":23713,"LANDMARKID":"1001500001147","LANDMARKCO":"604","LANDMARKNA":"戀戀楓情民宿","LANDMARKAD":"1001501","ADDRESS":"花蓮縣花蓮市明心街1-35號","TEL":"03-8360996","COUNTYNAME":"花蓮縣","TOWNNAME":"花蓮市","MARKTYPE":"996","Class":"6"},"geometry":{"x":311607.73180000018,"y":2653478.8443999998}},{"attributes":{"OBJECTID":23714,"LANDMARKID":"1001500001148","LANDMARKCO":"604","LANDMARKNA":"花田厝民宿","LANDMARKAD":"1001501","ADDRESS":"花蓮縣花蓮市明心街1-40號","TEL":"03-8337655","COUNTYNAME":"花蓮縣","TOWNNAME":"花蓮市","MARKTYPE":"996","Class":"6"},"geometry":{"x":311612.98089999985,"y":2653536.8219000008}},{"attributes":{"OBJECTID":23715,"LANDMARKID":"1001500001149","LANDMARKCO":"604","LANDMARKNA":"花舍民宿","LANDMARKAD":"1001501","ADDRESS":"花蓮縣花蓮市明智街78號","TEL":"03-8310601","COUNTYNAME":"花蓮縣","TOWNNAME":"花蓮市","MARKTYPE":"996","Class":"6"},"geometry":{"x":311582.86930000037,"y":2653510.9511999991}},{"attributes":{"OBJECTID":23716,"LANDMARKID":"1001500001150","LANDMARKCO":"604","LANDMARKNA":"春天民宿","LANDMARKAD":"1001501","ADDRESS":"花蓮縣花蓮市明智街88號","TEL":"03-8320314","COUNTYNAME":"花蓮縣","TOWNNAME":"花蓮市","MARKTYPE":"996","Class":"6"},"geometry":{"x":311564.94240000006,"y":2653528.0281000007}},{"attributes":{"OBJECTID":23717,"LANDMARKID":"1001500001151","LANDMARKCO":"604","LANDMARKNA":"花蓮101民宿","LANDMARKAD":"1001501","ADDRESS":"花蓮縣花蓮市國盛八街101號","TEL":"03-8360341","COUNTYNAME":"花蓮縣","TOWNNAME":"花蓮市","MARKTYPE":"996","Class":"6"},"geometry":{"x":311708.7762000002,"y":2654720.5987}},{"attributes":{"OBJECTID":23718,"LANDMARKID":"1001500001152","LANDMARKCO":"604","LANDMARKNA":"6號美宿館民宿","LANDMARKAD":"1001501","ADDRESS":"花蓮縣花蓮市國盛八街95號","TEL":"03-8322426","COUNTYNAME":"花蓮縣","TOWNNAME":"花蓮市","MARKTYPE":"996","Class":"6"},"geometry":{"x":311720.75459999964,"y":2654715.5471999999}},{"attributes":{"OBJECTID":23719,"LANDMARKID":"1001500001153","LANDMARKCO":"604","LANDMARKNA":"悠遊97民宿","LANDMARKAD":"1001501","ADDRESS":"花蓮縣花蓮市國盛八街97號","TEL":"03-8360341","COUNTYNAME":"花蓮縣","TOWNNAME":"花蓮市","MARKTYPE":"996","Class":"6"},"geometry":{"x":311716.75899999961,"y":2654716.5644000005}},{"attributes":{"OBJECTID":23720,"LANDMARKID":"1001500001154","LANDMARKCO":"604","LANDMARKNA":"樂活99民宿","LANDMARKAD":"1001501","ADDRESS":"花蓮縣花蓮市國盛八街99號","TEL":"03-8360341","COUNTYNAME":"花蓮縣","TOWNNAME":"花蓮市","MARKTYPE":"996","Class":"6"},"geometry":{"x":311712.7675999999,"y":2654718.5814999994}},{"attributes":{"OBJECTID":23721,"LANDMARKID":"1001500001155","LANDMARKCO":"604","LANDMARKNA":"花蓮曼波民宿","LANDMARKAD":"1001501","ADDRESS":"花蓮縣花蓮市國盛五街9號","TEL":"0913-601802","COUNTYNAME":"花蓮縣","TOWNNAME":"花蓮市","MARKTYPE":"996","Class":"6"},"geometry":{"x":311917.73440000042,"y":2654403.9210000001}},{"attributes":{"OBJECTID":23722,"LANDMARKID":"1001500001156","LANDMARKCO":"604","LANDMARKNA":"迴音谷森林民宿","LANDMARKAD":"1001501","ADDRESS":"花蓮縣花蓮市國福街289巷168弄21號","TEL":"03-8580999","COUNTYNAME":"花蓮縣","TOWNNAME":"花蓮市","MARKTYPE":"996","Class":"6"},"geometry":{"x":308808.16980000027,"y":2657030.8806999996}},{"attributes":{"OBJECTID":23723,"LANDMARKID":"1001500001157","LANDMARKCO":"604","LANDMARKNA":"溫馨貝殼家民宿","LANDMARKAD":"1001501","ADDRESS":"花蓮縣花蓮市順興路141號","TEL":"03-8233620","COUNTYNAME":"花蓮縣","TOWNNAME":"花蓮市","MARKTYPE":"996","Class":"6"},"geometry":{"x":313490.37000000011,"y":2654631.2079000007}},{"attributes":{"OBJECTID":23724,"LANDMARKID":"1001500001158","LANDMARKCO":"604","LANDMARKNA":"松館民宿","LANDMARKAD":"1001501","ADDRESS":"花蓮縣花蓮市順興路295號","TEL":"03-8220776","COUNTYNAME":"花蓮縣","TOWNNAME":"花蓮市","MARKTYPE":"996","Class":"6"},"geometry":{"x":313363.8359000003,"y":2654736.7676999997}},{"attributes":{"OBJECTID":23725,"LANDMARKID":"1001500001159","LANDMARKCO":"604","LANDMARKNA":"林館民宿","LANDMARKAD":"1001501","ADDRESS":"花蓮縣花蓮市順興路297號","TEL":"03-8220779","COUNTYNAME":"花蓮縣","TOWNNAME":"花蓮市","MARKTYPE":"996","Class":"6"},"geometry":{"x":313358.85360000003,"y":2654740.7897999994}},{"attributes":{"OBJECTID":23726,"LANDMARKID":"1001500001160","LANDMARKCO":"604","LANDMARKNA":"小阿姨的家民宿","LANDMARKAD":"1001501","ADDRESS":"花蓮縣花蓮市順興路303號","TEL":"03-8233501","COUNTYNAME":"花蓮縣","TOWNNAME":"花蓮市","MARKTYPE":"996","Class":"6"},"geometry":{"x":313345.90230000019,"y":2654751.8469999991}},{"attributes":{"OBJECTID":23727,"LANDMARKID":"1001500001161","LANDMARKCO":"604","LANDMARKNA":"韓舍民宿","LANDMARKAD":"1001501","ADDRESS":"花蓮縣花蓮市福建街150巷29號","TEL":"03-8351148","COUNTYNAME":"花蓮縣","TOWNNAME":"花蓮市","MARKTYPE":"996","Class":"6"},"geometry":{"x":311250.72439999972,"y":2651631.2015000004}},{"attributes":{"OBJECTID":23728,"LANDMARKID":"1001500001162","LANDMARKCO":"604","LANDMARKNA":"福安度假民宿","LANDMARKAD":"1001501","ADDRESS":"花蓮縣花蓮市福建街229巷18號","TEL":"03-8353127","COUNTYNAME":"花蓮縣","TOWNNAME":"花蓮市","MARKTYPE":"996","Class":"6"},"geometry":{"x":311390.87060000002,"y":2651973.8025000002}},{"attributes":{"OBJECTID":23729,"LANDMARKID":"1001500001163","LANDMARKCO":"604","LANDMARKNA":"海濱民宿","LANDMARKAD":"1001501","ADDRESS":"花蓮縣花蓮市福建街271號","TEL":"03-8321060","COUNTYNAME":"花蓮縣","TOWNNAME":"花蓮市","MARKTYPE":"996","Class":"6"},"geometry":{"x":311494.9216,"y":2651985.3571000006}},{"attributes":{"OBJECTID":23730,"LANDMARKID":"1001500001164","LANDMARKCO":"604","LANDMARKNA":"翔翔民宿","LANDMARKAD":"1001501","ADDRESS":"花蓮縣花蓮市中山路一段138巷15-3號","TEL":"03-8463127","COUNTYNAME":"花蓮縣","TOWNNAME":"花蓮市","MARKTYPE":"996","Class":"6"},"geometry":{"x":310278.02089999989,"y":2655084.6765000001}},{"attributes":{"OBJECTID":23731,"LANDMARKID":"1001500001165","LANDMARKCO":"604","LANDMARKNA":"雲宿","LANDMARKAD":"1001501","ADDRESS":"花蓮縣花蓮市明智街90號","TEL":"03-8339352","COUNTYNAME":"花蓮縣","TOWNNAME":"花蓮市","MARKTYPE":"996","Class":"6"},"geometry":{"x":311558.97670000046,"y":2653536.0537999999}},{"attributes":{"OBJECTID":23732,"LANDMARKID":"1001500001166","LANDMARKCO":"604","LANDMARKNA":"美那多民宿","LANDMARKAD":"1001501","ADDRESS":"花蓮縣花蓮市福建街64號","TEL":"03-8350699","COUNTYNAME":"花蓮縣","TOWNNAME":"花蓮市","MARKTYPE":"996","Class":"6"},"geometry":{"x":310952.34410000034,"y":2651541.2719000001}},{"attributes":{"OBJECTID":23733,"LANDMARKID":"1001500001167","LANDMARKCO":"604","LANDMARKNA":"德興運動家民宿","LANDMARKAD":"1001501","ADDRESS":"花蓮縣花蓮市中山路一段229號","TEL":"03-8576162","COUNTYNAME":"花蓮縣","TOWNNAME":"花蓮市","MARKTYPE":"996","Class":"6"},"geometry":{"x":309889.3013000004,"y":2655526.9320999999}},{"attributes":{"OBJECTID":23734,"LANDMARKID":"1001500001168","LANDMARKCO":"604","LANDMARKNA":"牛車驛站民宿","LANDMARKAD":"1001501","ADDRESS":"花蓮縣花蓮市中正路336巷3號","TEL":"03-8350878","COUNTYNAME":"花蓮縣","TOWNNAME":"花蓮市","MARKTYPE":"996","Class":"6"},"geometry":{"x":311385.43589999992,"y":2652179.8202}},{"attributes":{"OBJECTID":23735,"LANDMARKID":"1001500001169","LANDMARKCO":"604","LANDMARKNA":"雅歌民宿","LANDMARKAD":"1001501","ADDRESS":"花蓮縣花蓮市中正路89巷31號","TEL":"0936-069747","COUNTYNAME":"花蓮縣","TOWNNAME":"花蓮市","MARKTYPE":"996","Class":"6"},"geometry":{"x":310638.53959999979,"y":2651894.4012000002}},{"attributes":{"OBJECTID":23736,"LANDMARKID":"1001500001170","LANDMARKCO":"604","LANDMARKNA":"逍遙居透天民宿","LANDMARKAD":"1001501","ADDRESS":"花蓮縣花蓮市中美三街8巷11號","TEL":"0925-929779","COUNTYNAME":"花蓮縣","TOWNNAME":"花蓮市","MARKTYPE":"996","Class":"6"},"geometry":{"x":313286.62839999981,"y":2653765.8816}},{"attributes":{"OBJECTID":23737,"LANDMARKID":"1001500001171","LANDMARKCO":"604","LANDMARKNA":"法采時光風格民宿","LANDMARKAD":"1001501","ADDRESS":"花蓮縣花蓮市中華路269號","TEL":"03-8311990","COUNTYNAME":"花蓮縣","TOWNNAME":"花蓮市","MARKTYPE":"996","Class":"6"},"geometry":{"x":311094.04040000029,"y":2652393.8524999991}},{"attributes":{"OBJECTID":23738,"LANDMARKID":"1001500001172","LANDMARKCO":"604","LANDMARKNA":"約在這裡民宿","LANDMARKAD":"1001501","ADDRESS":"花蓮縣花蓮市東興一街1-2號","TEL":"03-8234218","COUNTYNAME":"花蓮縣","TOWNNAME":"花蓮市","MARKTYPE":"996","Class":"6"},"geometry":{"x":314282.37849999964,"y":2655166.4417000003}},{"attributes":{"OBJECTID":23739,"LANDMARKID":"1001500001173","LANDMARKCO":"604","LANDMARKNA":"甜蜜小築民宿","LANDMARKAD":"1001501","ADDRESS":"花蓮縣花蓮市東興一街92-2號","TEL":"0916-304003","COUNTYNAME":"花蓮縣","TOWNNAME":"花蓮市","MARKTYPE":"996","Class":"6"},"geometry":{"x":314292.85989999957,"y":2655358.3884999994}},{"attributes":{"OBJECTID":23740,"LANDMARKID":"1001500001174","LANDMARKCO":"604","LANDMARKNA":"花香民宿","LANDMARKAD":"1001501","ADDRESS":"花蓮縣花蓮市東興一街92號","TEL":"03-8224653","COUNTYNAME":"花蓮縣","TOWNNAME":"花蓮市","MARKTYPE":"996","Class":"6"},"geometry":{"x":314293.81950000022,"y":2655349.3841999993}},{"attributes":{"OBJECTID":23741,"LANDMARKID":"1001500001175","LANDMARKCO":"604","LANDMARKNA":"綠野民宿","LANDMARKAD":"1001501","ADDRESS":"花蓮縣花蓮市林政街19巷1弄26號","TEL":"03-8311155","COUNTYNAME":"花蓮縣","TOWNNAME":"花蓮市","MARKTYPE":"996","Class":"6"},"geometry":{"x":310723.05570000038,"y":2652939.0270000007}},{"attributes":{"OBJECTID":23742,"LANDMARKID":"1001500001176","LANDMARKCO":"604","LANDMARKNA":"悅園民宿","LANDMARKAD":"1001501","ADDRESS":"花蓮縣花蓮市林森路115巷1號","TEL":"03-8358759","COUNTYNAME":"花蓮縣","TOWNNAME":"花蓮市","MARKTYPE":"996","Class":"6"},"geometry":{"x":310906.04119999986,"y":2652628.4517000001}},{"attributes":{"OBJECTID":23743,"LANDMARKID":"1001500001177","LANDMARKCO":"604","LANDMARKNA":"柏雅民宿","LANDMARKAD":"1001501","ADDRESS":"花蓮縣花蓮市林森路210-3號","TEL":"03-8322508","COUNTYNAME":"花蓮縣","TOWNNAME":"花蓮市","MARKTYPE":"996","Class":"6"},"geometry":{"x":311488.29079999961,"y":2652994.3684}},{"attributes":{"OBJECTID":23744,"LANDMARKID":"1001500001178","LANDMARKCO":"604","LANDMARKNA":"展奇園民宿","LANDMARKAD":"1001501","ADDRESS":"花蓮縣花蓮市國興三街75號","TEL":"03-8332733","COUNTYNAME":"花蓮縣","TOWNNAME":"花蓮市","MARKTYPE":"996","Class":"6"},"geometry":{"x":311386.28270000033,"y":2653915.7883000001}},{"attributes":{"OBJECTID":23745,"LANDMARKID":"1001500001179","LANDMARKCO":"604","LANDMARKNA":"新藝術空間民宿","LANDMARKAD":"1001501","ADDRESS":"花蓮縣花蓮市國興五街215號","TEL":"03-8336730","COUNTYNAME":"花蓮縣","TOWNNAME":"花蓮市","MARKTYPE":"996","Class":"6"},"geometry":{"x":311132.57440000027,"y":2653749.6658999994}},{"attributes":{"OBJECTID":23746,"LANDMARKID":"1001500001180","LANDMARKCO":"604","LANDMARKNA":"雅斯朵民宿","LANDMARKAD":"1001501","ADDRESS":"花蓮縣花蓮市國興四街2巷16號","TEL":"03-8326561","COUNTYNAME":"花蓮縣","TOWNNAME":"花蓮市","MARKTYPE":"996","Class":"6"},"geometry":{"x":311512.33229999989,"y":2654001.2423999999}},{"attributes":{"OBJECTID":23747,"LANDMARKID":"1001500001181","LANDMARKCO":"604","LANDMARKNA":"洄瀾的家民宿","LANDMARKAD":"1001501","ADDRESS":"花蓮縣花蓮市國興四街2巷18號","TEL":"0937-976489","COUNTYNAME":"花蓮縣","TOWNNAME":"花蓮市","MARKTYPE":"996","Class":"6"},"geometry":{"x":311507.34949999955,"y":2654005.2638000008}},{"attributes":{"OBJECTID":23748,"LANDMARKID":"1001500001182","LANDMARKCO":"604","LANDMARKNA":"生活故事民宿","LANDMARKAD":"1001501","ADDRESS":"花蓮縣花蓮市國興四街2巷2號","TEL":"03-8325980","COUNTYNAME":"花蓮縣","TOWNNAME":"花蓮市","MARKTYPE":"996","Class":"6"},"geometry":{"x":311533.25480000023,"y":2653983.1526999995}},{"attributes":{"OBJECTID":23749,"LANDMARKID":"1001500001183","LANDMARKCO":"604","LANDMARKNA":"城市花園民宿","LANDMARKAD":"1001501","ADDRESS":"花蓮縣花蓮市國興四街2巷6號","TEL":"03-8332221","COUNTYNAME":"花蓮縣","TOWNNAME":"花蓮市","MARKTYPE":"996","Class":"6"},"geometry":{"x":311529.26769999973,"y":2653986.1698000003}},{"attributes":{"OBJECTID":23750,"LANDMARKID":"1001500001184","LANDMARKCO":"604","LANDMARKNA":"意思風情民宿","LANDMARKAD":"1001501","ADDRESS":"花蓮縣花蓮市國興四街2巷8號","TEL":"03-8350723","COUNTYNAME":"花蓮縣","TOWNNAME":"花蓮市","MARKTYPE":"996","Class":"6"},"geometry":{"x":311526.28060000017,"y":2653989.1826000009}},{"attributes":{"OBJECTID":23751,"LANDMARKID":"1001500001185","LANDMARKCO":"604","LANDMARKNA":"阡豪民宿","LANDMARKAD":"1001501","ADDRESS":"花蓮縣花蓮市廣東街198號","TEL":"03-8360610","COUNTYNAME":"花蓮縣","TOWNNAME":"花蓮市","MARKTYPE":"996","Class":"6"},"geometry":{"x":311718.07990000024,"y":2652022.6102000009}},{"attributes":{"OBJECTID":23752,"LANDMARKID":"1001500001186","LANDMARKCO":"604","LANDMARKNA":"花蓮好好玩","LANDMARKAD":"1001501","ADDRESS":"花蓮縣花蓮市德安一街215巷5號","TEL":"03-8355645","COUNTYNAME":"花蓮縣","TOWNNAME":"花蓮市","MARKTYPE":"996","Class":"6"},"geometry":{"x":310481.19419999979,"y":2652048.8761999998}},{"attributes":{"OBJECTID":23753,"LANDMARKID":"1001500001187","LANDMARKCO":"604","LANDMARKNA":"麥可民宿","LANDMARKAD":"1001501","ADDRESS":"花蓮縣花蓮市豐村116-40號","TEL":"03-8564793","COUNTYNAME":"花蓮縣","TOWNNAME":"花蓮市","MARKTYPE":"996","Class":"6"},"geometry":{"x":310453.40110000037,"y":2655859.9211999997}},{"attributes":{"OBJECTID":23754,"LANDMARKID":"1001500001188","LANDMARKCO":"604","LANDMARKNA":"光之影民宿","LANDMARKAD":"1001501","ADDRESS":"花蓮縣花蓮市豐村21-36號","TEL":"03-8462191","COUNTYNAME":"花蓮縣","TOWNNAME":"花蓮市","MARKTYPE":"996","Class":"6"},"geometry":{"x":311338.80300000031,"y":2655341.9633000009}},{"attributes":{"OBJECTID":23755,"LANDMARKID":"1001500001189","LANDMARKCO":"604","LANDMARKNA":"世外桃園溫馨別墅民宿","LANDMARKAD":"1001501","ADDRESS":"花蓮縣花蓮市豐村36-10號","TEL":"03-8579214","COUNTYNAME":"花蓮縣","TOWNNAME":"花蓮市","MARKTYPE":"996","Class":"6"},"geometry":{"x":311225.27390000038,"y":2655217.2421000004}},{"attributes":{"OBJECTID":23756,"LANDMARKID":"1001500001190","LANDMARKCO":"604","LANDMARKNA":"異國風情民宿","LANDMARKAD":"1001501","ADDRESS":"花蓮縣花蓮市豐村51-9號","TEL":"03-8562512","COUNTYNAME":"花蓮縣","TOWNNAME":"花蓮市","MARKTYPE":"996","Class":"6"},"geometry":{"x":311180.85929999966,"y":2655354.4318000004}},{"attributes":{"OBJECTID":23757,"LANDMARKID":"1001500001191","LANDMARKCO":"604","LANDMARKNA":"薇雅花苑民宿","LANDMARKAD":"1001501","ADDRESS":"花蓮縣花蓮市中華路426號","TEL":"03-8359655","COUNTYNAME":"花蓮縣","TOWNNAME":"花蓮市","MARKTYPE":"996","Class":"6"},"geometry":{"x":310481.18740000017,"y":2652354.8706999999}},{"attributes":{"OBJECTID":23758,"LANDMARKID":"1001500001192","LANDMARKCO":"604","LANDMARKNA":"樣子民宿","LANDMARKAD":"1001501","ADDRESS":"花蓮縣花蓮市林森路305巷37號","TEL":"03-8334847","COUNTYNAME":"花蓮縣","TOWNNAME":"花蓮市","MARKTYPE":"996","Class":"6"},"geometry":{"x":311221.13939999975,"y":2653032.2994999997}},{"attributes":{"OBJECTID":23759,"LANDMARKID":"1001500001193","LANDMARKCO":"604","LANDMARKNA":"發現民宿","LANDMARKAD":"1001501","ADDRESS":"花蓮縣花蓮市國聯二路105號","TEL":"03-8557470","COUNTYNAME":"花蓮縣","TOWNNAME":"花蓮市","MARKTYPE":"996","Class":"6"},"geometry":{"x":311322.04389999993,"y":2653932.8512999993}},{"attributes":{"OBJECTID":23760,"LANDMARKID":"1001500001194","LANDMARKCO":"604","LANDMARKNA":"阿里巴巴運動休閒民宿","LANDMARKAD":"1001501","ADDRESS":"花蓮縣花蓮市中順街132號","TEL":"03-8339715","COUNTYNAME":"花蓮縣","TOWNNAME":"花蓮市","MARKTYPE":"996","Class":"6"},"geometry":{"x":310630.33690000046,"y":2651846.4357999992}},{"attributes":{"OBJECTID":23761,"LANDMARKID":"1001500001195","LANDMARKCO":"604","LANDMARKNA":"亮麗屋民宿","LANDMARKAD":"1001501","ADDRESS":"花蓮縣花蓮市中順街152號","TEL":"03-8331031","COUNTYNAME":"花蓮縣","TOWNNAME":"花蓮市","MARKTYPE":"996","Class":"6"},"geometry":{"x":310607.45969999954,"y":2651875.5325000007}},{"attributes":{"OBJECTID":23762,"LANDMARKID":"1001500001196","LANDMARKCO":"604","LANDMARKNA":"彩風之美民宿","LANDMARKAD":"1001501","ADDRESS":"花蓮縣花蓮市中順街29號","TEL":"03-8311667","COUNTYNAME":"花蓮縣","TOWNNAME":"花蓮市","MARKTYPE":"996","Class":"6"},"geometry":{"x":310868.43850000016,"y":2651563.6279000007}},{"attributes":{"OBJECTID":23763,"LANDMARKID":"1001500001197","LANDMARKCO":"604","LANDMARKNA":"楓樺民宿","LANDMARKAD":"1001501","ADDRESS":"花蓮縣花蓮市中福路205號","TEL":"03-8326605","COUNTYNAME":"花蓮縣","TOWNNAME":"花蓮市","MARKTYPE":"996","Class":"6"},"geometry":{"x":311095.86479999963,"y":2652279.8502999991}},{"attributes":{"OBJECTID":23764,"LANDMARKID":"1001500001198","LANDMARKCO":"604","LANDMARKNA":"美崙遊記民宿","LANDMARKAD":"1001501","ADDRESS":"花蓮縣花蓮市中興路179號","TEL":"03-8560578","COUNTYNAME":"花蓮縣","TOWNNAME":"花蓮市","MARKTYPE":"996","Class":"6"},"geometry":{"x":313587.87430000026,"y":2654744.7756999992}},{"attributes":{"OBJECTID":23765,"LANDMARKID":"1001500001199","LANDMARKCO":"604","LANDMARKNA":"藍海民宿","LANDMARKAD":"1001501","ADDRESS":"花蓮縣花蓮市中興路66號","TEL":"03-8222879","COUNTYNAME":"花蓮縣","TOWNNAME":"花蓮市","MARKTYPE":"996","Class":"6"},"geometry":{"x":314199.39419999998,"y":2654331.8259999994}},{"attributes":{"OBJECTID":23766,"LANDMARKID":"1001500001200","LANDMARKCO":"604","LANDMARKNA":"溫馨小棧民宿","LANDMARKAD":"1001501","ADDRESS":"花蓮縣花蓮市仁和街12號","TEL":"03-8579113","COUNTYNAME":"花蓮縣","TOWNNAME":"花蓮市","MARKTYPE":"996","Class":"6"},"geometry":{"x":310250.15560000017,"y":2652417.8372000009}},{"attributes":{"OBJECTID":23767,"LANDMARKID":"1001500001201","LANDMARKCO":"604","LANDMARKNA":"浪漫滿屋民宿","LANDMARKAD":"1001501","ADDRESS":"花蓮縣花蓮市仁和街13號","TEL":"03-8573881","COUNTYNAME":"花蓮縣","TOWNNAME":"花蓮市","MARKTYPE":"996","Class":"6"},"geometry":{"x":310252.17659999989,"y":2652422.8288000003}},{"attributes":{"OBJECTID":23768,"LANDMARKID":"1001500001202","LANDMARKCO":"604","LANDMARKNA":"海棠之家民宿","LANDMARKAD":"1001501","ADDRESS":"花蓮縣花蓮市林園一街15號","TEL":"0912-027856","COUNTYNAME":"花蓮縣","TOWNNAME":"花蓮市","MARKTYPE":"996","Class":"6"},"geometry":{"x":314280.92279999983,"y":2655372.4419999998}},{"attributes":{"OBJECTID":23769,"LANDMARKID":"1001500001203","LANDMARKCO":"604","LANDMARKNA":"海天依舍民宿","LANDMARKAD":"1001501","ADDRESS":"花蓮縣花蓮市林園一街3號","TEL":"03-8225205","COUNTYNAME":"花蓮縣","TOWNNAME":"花蓮市","MARKTYPE":"996","Class":"6"},"geometry":{"x":314312.95399999991,"y":2655379.2982999999}},{"attributes":{"OBJECTID":23770,"LANDMARKID":"1001500001204","LANDMARKCO":"604","LANDMARKNA":"雅緻小築民宿","LANDMARKAD":"1001501","ADDRESS":"花蓮縣花蓮市林園一街7號","TEL":"0921-975762","COUNTYNAME":"花蓮縣","TOWNNAME":"花蓮市","MARKTYPE":"996","Class":"6"},"geometry":{"x":314300.93159999978,"y":2655374.3522999994}},{"attributes":{"OBJECTID":23771,"LANDMARKID":"1001500001205","LANDMARKCO":"604","LANDMARKNA":"遠慮園民宿","LANDMARKAD":"1001501","ADDRESS":"花蓮縣花蓮市林園三街38號","TEL":"03-8230438","COUNTYNAME":"花蓮縣","TOWNNAME":"花蓮市","MARKTYPE":"996","Class":"6"},"geometry":{"x":314183.01460000034,"y":2655700.8747000005}},{"attributes":{"OBJECTID":23772,"LANDMARKID":"1001500001206","LANDMARKCO":"604","LANDMARKNA":"信義之家","LANDMARKAD":"1001501","ADDRESS":"花蓮縣花蓮市信義街17-1號3樓","TEL":"03-8330620","COUNTYNAME":"花蓮縣","TOWNNAME":"花蓮市","MARKTYPE":"996","Class":"6"},"geometry":{"x":311583.36500000022,"y":2652162.9721000008}},{"attributes":{"OBJECTID":23773,"LANDMARKID":"1001500001207","LANDMARKCO":"604","LANDMARKNA":"馨憶精緻民宿","LANDMARKAD":"1001501","ADDRESS":"花蓮縣花蓮市南京街218號","TEL":"03-8358767","COUNTYNAME":"花蓮縣","TOWNNAME":"花蓮市","MARKTYPE":"996","Class":"6"},"geometry":{"x":311663.94840000011,"y":2652299.8372000009}},{"attributes":{"OBJECTID":23774,"LANDMARKID":"1001500001208","LANDMARKCO":"604","LANDMARKNA":"小熊森林民宿","LANDMARKAD":"1001501","ADDRESS":"花蓮縣花蓮市南京街57巷7號","TEL":"03-8356353","COUNTYNAME":"花蓮縣","TOWNNAME":"花蓮市","MARKTYPE":"996","Class":"6"},"geometry":{"x":311314.15039999969,"y":2652111.9192999993}},{"attributes":{"OBJECTID":23775,"LANDMARKID":"1001500001209","LANDMARKCO":"604","LANDMARKNA":"情定花蓮民宿","LANDMARKAD":"1001501","ADDRESS":"花蓮縣花蓮市建中街30號","TEL":"03-8333119","COUNTYNAME":"花蓮縣","TOWNNAME":"花蓮市","MARKTYPE":"996","Class":"6"},"geometry":{"x":311112.88399999961,"y":2653514.7555}},{"attributes":{"OBJECTID":23776,"LANDMARKID":"1001500001210","LANDMARKCO":"604","LANDMARKNA":"阿美客青年民宿","LANDMARKAD":"1001501","ADDRESS":"花蓮縣花蓮市國聯二路68號","TEL":"03-8362756","COUNTYNAME":"花蓮縣","TOWNNAME":"花蓮市","MARKTYPE":"996","Class":"6"},"geometry":{"x":311363.55250000022,"y":2654052.8798999991}},{"attributes":{"OBJECTID":23777,"LANDMARKID":"1001500001211","LANDMARKCO":"604","LANDMARKNA":"漫遊舍民宿","LANDMARKAD":"1001501","ADDRESS":"花蓮縣花蓮市國聯二路82-1號","TEL":"03-8359623","COUNTYNAME":"花蓮縣","TOWNNAME":"花蓮市","MARKTYPE":"996","Class":"6"},"geometry":{"x":311336.43290000036,"y":2654024.9959999993}},{"attributes":{"OBJECTID":23778,"LANDMARKID":"1001500001212","LANDMARKCO":"604","LANDMARKNA":"旅行者之家民宿","LANDMARKAD":"1001501","ADDRESS":"花蓮縣花蓮市國聯二路82號","TEL":"03-8352868","COUNTYNAME":"花蓮縣","TOWNNAME":"花蓮市","MARKTYPE":"996","Class":"6"},"geometry":{"x":311338.44570000004,"y":2654027.9874000009}},{"attributes":{"OBJECTID":23779,"LANDMARKID":"1001500001213","LANDMARKCO":"604","LANDMARKNA":"飛航家民宿","LANDMARKAD":"1001501","ADDRESS":"花蓮縣花蓮市康樂街2-1號","TEL":"03-8310658","COUNTYNAME":"花蓮縣","TOWNNAME":"花蓮市","MARKTYPE":"996","Class":"6"},"geometry":{"x":312594.87090000045,"y":2652282.4737}},{"attributes":{"OBJECTID":23780,"LANDMARKID":"1001500001214","LANDMARKCO":"604","LANDMARKNA":"白色風車民宿","LANDMARKAD":"1001501","ADDRESS":"花蓮縣花蓮市康樂街3巷2號","TEL":"03-8333147","COUNTYNAME":"花蓮縣","TOWNNAME":"花蓮市","MARKTYPE":"996","Class":"6"},"geometry":{"x":312567.84059999976,"y":2652275.5916000009}},{"attributes":{"OBJECTID":23781,"LANDMARKID":"1001500001215","LANDMARKCO":"604","LANDMARKNA":"春天花園民宿","LANDMARKAD":"1001501","ADDRESS":"花蓮縣花蓮市球崙一路269號","TEL":"0920-720119","COUNTYNAME":"花蓮縣","TOWNNAME":"花蓮市","MARKTYPE":"996","Class":"6"},"geometry":{"x":313310.10929999966,"y":2655802.9811000004}},{"attributes":{"OBJECTID":23782,"LANDMARKID":"1001500001216","LANDMARKCO":"604","LANDMARKNA":"水明漾民宿","LANDMARKAD":"1001501","ADDRESS":"花蓮縣花蓮市球崙一路297-1號","TEL":"0925-398500","COUNTYNAME":"花蓮縣","TOWNNAME":"花蓮市","MARKTYPE":"996","Class":"6"},"geometry":{"x":313276.52070000023,"y":2655894.8836000003}},{"attributes":{"OBJECTID":23783,"LANDMARKID":"1001500001217","LANDMARKCO":"604","LANDMARKNA":"慕境民宿","LANDMARKAD":"1001501","ADDRESS":"花蓮縣花蓮市球崙一路297-2號","TEL":"0919-080532","COUNTYNAME":"花蓮縣","TOWNNAME":"花蓮市","MARKTYPE":"996","Class":"6"},"geometry":{"x":313274.53839999996,"y":2655898.8923000004}},{"attributes":{"OBJECTID":23784,"LANDMARKID":"1001500001218","LANDMARKCO":"604","LANDMARKNA":"花簷巧隅精緻民宿","LANDMARKAD":"1001501","ADDRESS":"花蓮縣花蓮市球崙二路13號","TEL":"03-8239515","COUNTYNAME":"花蓮縣","TOWNNAME":"花蓮市","MARKTYPE":"996","Class":"6"},"geometry":{"x":313265.72059999965,"y":2655324.9433999993}},{"attributes":{"OBJECTID":23785,"LANDMARKID":"1001500001219","LANDMARKCO":"604","LANDMARKNA":"輕景小築民宿","LANDMARKAD":"1001501","ADDRESS":"花蓮縣吉安鄉勝安村慈惠四街18巷1號","TEL":"03-8535927","COUNTYNAME":"花蓮縣","TOWNNAME":"花蓮市","MARKTYPE":"996","Class":"6"},"geometry":{"x":310111.78610000014,"y":2652567.2340999991}},{"attributes":{"OBJECTID":23786,"LANDMARKID":"1001500001220","LANDMARKCO":"604","LANDMARKNA":"來花蓮玩民宿","LANDMARKAD":"1001501","ADDRESS":"花蓮縣吉安鄉勝安村慈惠四街18巷3號","TEL":"03-8530326","COUNTYNAME":"花蓮縣","TOWNNAME":"花蓮市","MARKTYPE":"996","Class":"6"},"geometry":{"x":310114.81120000035,"y":2652573.2215}},{"attributes":{"OBJECTID":23787,"LANDMARKID":"1001500001221","LANDMARKCO":"604","LANDMARKNA":"東方之星民宿","LANDMARKAD":"1001501","ADDRESS":"花蓮縣花蓮市仁和街7號","TEL":"03-8510428","COUNTYNAME":"花蓮縣","TOWNNAME":"花蓮市","MARKTYPE":"996","Class":"6"},"geometry":{"x":310239.06340000033,"y":2652395.8838}},{"attributes":{"OBJECTID":23788,"LANDMARKID":"1001500001222","LANDMARKCO":"604","LANDMARKNA":"禾楓民宿","LANDMARKAD":"1001501","ADDRESS":"花蓮縣花蓮市建成街110巷19號","TEL":"0919-908280","COUNTYNAME":"花蓮縣","TOWNNAME":"花蓮市","MARKTYPE":"996","Class":"6"},"geometry":{"x":307960.52950000018,"y":2654655.9222999997}},{"attributes":{"OBJECTID":23789,"LANDMARKID":"1001500001223","LANDMARKCO":"604","LANDMARKNA":"雲水小築市區民宿","LANDMARKAD":"1001501","ADDRESS":"花蓮縣花蓮市博愛街178-10號","TEL":"03-8346546","COUNTYNAME":"花蓮縣","TOWNNAME":"花蓮市","MARKTYPE":"996","Class":"6"},"geometry":{"x":311553.77610000037,"y":2652874.0876000002}},{"attributes":{"OBJECTID":23790,"LANDMARKID":"1001500001224","LANDMARKCO":"604","LANDMARKNA":"翰林居民宿","LANDMARKAD":"1001501","ADDRESS":"花蓮縣花蓮市富吉路2號","TEL":"03-8465682","COUNTYNAME":"花蓮縣","TOWNNAME":"花蓮市","MARKTYPE":"996","Class":"6"},"geometry":{"x":310950.01939999964,"y":2654541.2255000006}},{"attributes":{"OBJECTID":23791,"LANDMARKID":"1001500001225","LANDMARKCO":"604","LANDMARKNA":"一心居民宿","LANDMARKAD":"1001501","ADDRESS":"花蓮縣花蓮市富吉路39號","TEL":"03-8574008","COUNTYNAME":"花蓮縣","TOWNNAME":"花蓮市","MARKTYPE":"996","Class":"6"},"geometry":{"x":310831.07670000009,"y":2654554.7306999993}},{"attributes":{"OBJECTID":23792,"LANDMARKID":"1001500001226","LANDMARKCO":"604","LANDMARKNA":"太陽花民宿","LANDMARKAD":"1001501","ADDRESS":"花蓮縣花蓮市富吉路94號","TEL":"03-8562284","COUNTYNAME":"花蓮縣","TOWNNAME":"花蓮市","MARKTYPE":"996","Class":"6"},"geometry":{"x":310710.49380000029,"y":2654652.0467000008}},{"attributes":{"OBJECTID":23793,"LANDMARKID":"1001500001227","LANDMARKCO":"604","LANDMARKNA":"碧雲莊麗澤居優質民宿","LANDMARKAD":"1001501","ADDRESS":"花蓮縣花蓮市建成街148號","TEL":"03-8460375","COUNTYNAME":"花蓮縣","TOWNNAME":"花蓮市","MARKTYPE":"996","Class":"6"},"geometry":{"x":307981.13609999977,"y":2654805.8389999997}},{"attributes":{"OBJECTID":23794,"LANDMARKID":"1001500001228","LANDMARKCO":"604","LANDMARKNA":"青年民宿","LANDMARKAD":"1001501","ADDRESS":"花蓮縣花蓮市建國路206號","TEL":"03-8352515","COUNTYNAME":"花蓮縣","TOWNNAME":"花蓮市","MARKTYPE":"996","Class":"6"},"geometry":{"x":311130.38100000005,"y":2653396.6809}},{"attributes":{"OBJECTID":23795,"LANDMARKID":"1001500001229","LANDMARKCO":"604","LANDMARKNA":"夢田信箱田園民宿","LANDMARKAD":"1001501","ADDRESS":"花蓮縣花蓮市建國路二段122巷21號","TEL":"03-8578011","COUNTYNAME":"花蓮縣","TOWNNAME":"花蓮市","MARKTYPE":"996","Class":"6"},"geometry":{"x":309121.56439999957,"y":2654358.8002000004}},{"attributes":{"OBJECTID":23796,"LANDMARKID":"1001500001230","LANDMARKCO":"604","LANDMARKNA":"夢想地圖民宿","LANDMARKAD":"1001501","ADDRESS":"花蓮縣花蓮市建國路二段122巷25號","TEL":"03-8578011","COUNTYNAME":"花蓮縣","TOWNNAME":"花蓮市","MARKTYPE":"996","Class":"6"},"geometry":{"x":309167.47740000021,"y":2654337.6107999999}},{"attributes":{"OBJECTID":23797,"LANDMARKID":"1001500001231","LANDMARKCO":"604","LANDMARKNA":"采雲間民宿","LANDMARKAD":"1001501","ADDRESS":"花蓮縣花蓮市建華路71號","TEL":"0933-463581","COUNTYNAME":"花蓮縣","TOWNNAME":"花蓮市","MARKTYPE":"996","Class":"6"},"geometry":{"x":308850.1699000001,"y":2654505.7550000008}},{"attributes":{"OBJECTID":23798,"LANDMARKID":"1001500001232","LANDMARKCO":"604","LANDMARKNA":"晶品民宿","LANDMARKAD":"1001501","ADDRESS":"花蓮縣花蓮市建華路75號","TEL":"03-561506","COUNTYNAME":"花蓮縣","TOWNNAME":"花蓮市","MARKTYPE":"996","Class":"6"},"geometry":{"x":308852.22319999989,"y":2654518.7466000002}},{"attributes":{"OBJECTID":23799,"LANDMARKID":"1001500001233","LANDMARKCO":"604","LANDMARKNA":"大寶的民宿","LANDMARKAD":"1001501","ADDRESS":"花蓮縣花蓮市建華路77號","TEL":"03-8566139","COUNTYNAME":"花蓮縣","TOWNNAME":"花蓮市","MARKTYPE":"996","Class":"6"},"geometry":{"x":308855.2396999998,"y":2654522.7342000008}},{"attributes":{"OBJECTID":23800,"LANDMARKID":"1001500001234","LANDMARKCO":"604","LANDMARKNA":"恬楓民宿","LANDMARKAD":"1001501","ADDRESS":"花蓮縣花蓮市建華路79號","TEL":"03-8566139","COUNTYNAME":"花蓮縣","TOWNNAME":"花蓮市","MARKTYPE":"996","Class":"6"},"geometry":{"x":308857.25609999988,"y":2654526.7259999998}}]}