{"displayFieldName":"COUNTYNAME","fieldAliases":{"OBJECTID":"OBJECTID","LANDMARKID":"LANDMARKID","LANDMARKCO":"LANDMARKCO","LANDMARKNA":"LANDMARKNA","LANDMARKAD":"LANDMARKAD","ADDRESS":"ADDRESS","TEL":"TEL","COUNTYNAME":"COUNTYNAME","TOWNNAME":"TOWNNAME","MARKTYPE":"MARKTYPE","Class":"Class"},"geometryType":"esriGeometryPoint","spatialReference":{"wkid":102443},"fields":[{"name":"OBJECTID","type":"esriFieldTypeOID","alias":"OBJECTID"},{"name":"LANDMARKID","type":"esriFieldTypeString","alias":"LANDMARKID","length":15},{"name":"LANDMARKCO","type":"esriFieldTypeString","alias":"LANDMARKCO","length":15},{"name":"LANDMARKNA","type":"esriFieldTypeString","alias":"LANDMARKNA","length":50},{"name":"LANDMARKAD","type":"esriFieldTypeString","alias":"LANDMARKAD","length":15},{"name":"ADDRESS","type":"esriFieldTypeString","alias":"ADDRESS","length":56},{"name":"TEL","type":"esriFieldTypeString","alias":"TEL","length":36},{"name":"COUNTYNAME","type":"esriFieldTypeString","alias":"COUNTYNAME","length":15},{"name":"TOWNNAME","type":"esriFieldTypeString","alias":"TOWNNAME","length":13},{"name":"MARKTYPE","type":"esriFieldTypeString","alias":"MARKTYPE","length":12},{"name":"Class","type":"esriFieldTypeString","alias":"Class","length":5}],"features":[{"attributes":{"OBJECTID":8201,"LANDMARKID":"6300000001393","LANDMARKCO":"303","LANDMARKNA":"永固停車場-南京三","LANDMARKAD":"6300001","ADDRESS":"台北市南京東路五段188號地下5樓","TEL":"02-27423061","COUNTYNAME":"台北市","TOWNNAME":"松山區","MARKTYPE":"993","Class":"303"},"geometry":{"x":306873.48450000025,"y":2771568.6424000002}},{"attributes":{"OBJECTID":8202,"LANDMARKID":"6300000001394","LANDMARKCO":"303","LANDMARKNA":"永固停車場-八德二","LANDMARKAD":"6300001","ADDRESS":"台北市八德路二段437巷2弄11號右側空地","TEL":"02-27216303","COUNTYNAME":"台北市","TOWNNAME":"松山區","MARKTYPE":"993","Class":"303"},"geometry":{"x":305114.79079999961,"y":2771261.7076999992}},{"attributes":{"OBJECTID":8203,"LANDMARKID":"6300000001395","LANDMARKCO":"303","LANDMARKNA":"Times(普客二四停車場)-東寧路停車場","LANDMARKAD":"6300001","ADDRESS":"台北市松山區東寧路21號","TEL":" ","COUNTYNAME":"台北市","TOWNNAME":"松山區","MARKTYPE":"993","Class":"303"},"geometry":{"x":306810.69170000032,"y":2771181.5152000003}},{"attributes":{"OBJECTID":8204,"LANDMARKID":"6300000001396","LANDMARKCO":"303","LANDMARKNA":"Times(普客二四停車場)-慶城街停車場","LANDMARKAD":"6300001","ADDRESS":"台北市松山區慶城街與長春路口","TEL":" ","COUNTYNAME":"台北市","TOWNNAME":"松山區","MARKTYPE":"993","Class":"303"},"geometry":{"x":305087.68730000034,"y":2771918.1059000008}},{"attributes":{"OBJECTID":8205,"LANDMARKID":"6300000001397","LANDMARKCO":"303","LANDMARKNA":"Times(普客二四停車場)-民權敦化停車場","LANDMARKAD":"6300001","ADDRESS":"北市松山區敦化北路240號旁","TEL":" ","COUNTYNAME":"台北市","TOWNNAME":"松山區","MARKTYPE":"993","Class":"303"},"geometry":{"x":305445.19820000045,"y":2772557.0267999992}},{"attributes":{"OBJECTID":8206,"LANDMARKID":"6300000001398","LANDMARKCO":"303","LANDMARKNA":"Times(普客二四停車場)-民權敦化2號停","LANDMARKAD":"6300001","ADDRESS":"台北市松山區敦化北路244巷旁","TEL":" ","COUNTYNAME":"台北市","TOWNNAME":"松山區","MARKTYPE":"993","Class":"303"},"geometry":{"x":305476.4757000003,"y":2772626.9201999996}},{"attributes":{"OBJECTID":8207,"LANDMARKID":"6300000001399","LANDMARKCO":"303","LANDMARKNA":"台灣聯通停車場-前膽場","LANDMARKAD":"6300001","ADDRESS":"台北市南京東路五段1號","TEL":" ","COUNTYNAME":"台北市","TOWNNAME":"松山區","MARKTYPE":"993","Class":"303"},"geometry":{"x":306245.46899999958,"y":2771634.6719000004}},{"attributes":{"OBJECTID":8208,"LANDMARKID":"6300000001400","LANDMARKCO":"303","LANDMARKNA":"台灣聯通停車場-八德場","LANDMARKAD":"6300001","ADDRESS":"台北市八德路四段245巷32弄9號","TEL":" ","COUNTYNAME":"台北市","TOWNNAME":"松山區","MARKTYPE":"993","Class":"303"},"geometry":{"x":306926.42920000013,"y":2771424.4824999999}},{"attributes":{"OBJECTID":8209,"LANDMARKID":"6300000001401","LANDMARKCO":"303","LANDMARKNA":"台灣聯通停車場-東興場","LANDMARKAD":"6300001","ADDRESS":"台北市八德路四段312號","TEL":" ","COUNTYNAME":"台北市","TOWNNAME":"松山區","MARKTYPE":"993","Class":"303"},"geometry":{"x":307192.00999999978,"y":2771327.1823999994}},{"attributes":{"OBJECTID":8210,"LANDMARKID":"6300000001402","LANDMARKCO":"303","LANDMARKNA":"台灣聯通停車場-新高場","LANDMARKAD":"6300001","ADDRESS":"台北市南京東路四段162號B1","TEL":" ","COUNTYNAME":"台北市","TOWNNAME":"松山區","MARKTYPE":"993","Class":"303"},"geometry":{"x":306084.93369999994,"y":2771586.7102000006}},{"attributes":{"OBJECTID":8211,"LANDMARKID":"6300000001403","LANDMARKCO":"303","LANDMARKNA":"台灣聯通停車場-大千場","LANDMARKAD":"6300001","ADDRESS":"台北市南京東路五段108號B1~B2","TEL":" ","COUNTYNAME":"台北市","TOWNNAME":"松山區","MARKTYPE":"993","Class":"303"},"geometry":{"x":306720.51659999974,"y":2771564.1009999998}},{"attributes":{"OBJECTID":8212,"LANDMARKID":"6300000001404","LANDMARKCO":"303","LANDMARKNA":"台灣聯通停車場-博仁醫院場","LANDMARKAD":"6300001","ADDRESS":"台北市光復北路66、68號","TEL":" ","COUNTYNAME":"台北市","TOWNNAME":"松山區","MARKTYPE":"993","Class":"303"},"geometry":{"x":306270.59370000008,"y":2771432.0810000002}},{"attributes":{"OBJECTID":8213,"LANDMARKID":"6300000002211","LANDMARKCO":"402","LANDMARKNA":"中華電信-台北八德特約服務中心","LANDMARKAD":"6300001","ADDRESS":"台北市八德路三段108號","TEL":"02-25709797","COUNTYNAME":"台北市","TOWNNAME":"松山區","MARKTYPE":"994","Class":"4"},"geometry":{"x":305874.38329999987,"y":2771215.6089999992}},{"attributes":{"OBJECTID":8214,"LANDMARKID":"6300000002212","LANDMARKCO":"402","LANDMARKNA":"中華電信-台北饒河特約服務中心","LANDMARKAD":"6300001","ADDRESS":"台北市松山區八德路四段676號","TEL":"02-27697070","COUNTYNAME":"台北市","TOWNNAME":"松山區","MARKTYPE":"994","Class":"4"},"geometry":{"x":308158.25289999973,"y":2771425.4159999993}},{"attributes":{"OBJECTID":8215,"LANDMARKID":"6300000002213","LANDMARKCO":"402","LANDMARKNA":"中華電信-台北民生東特約服務中心","LANDMARKAD":"6300001","ADDRESS":"台北市松山區民生東路五段122號","TEL":"02-27662007","COUNTYNAME":"台北市","TOWNNAME":"松山區","MARKTYPE":"994","Class":"4"},"geometry":{"x":306613.11160000041,"y":2772383.0056999996}},{"attributes":{"OBJECTID":8216,"LANDMARKID":"6300000002214","LANDMARKCO":"402","LANDMARKNA":"遠傳電信-台北八德門市","LANDMARKAD":"6300001","ADDRESS":"台北市松山區八德路三段187號","TEL":" ","COUNTYNAME":"台北市","TOWNNAME":"松山區","MARKTYPE":"994","Class":"4"},"geometry":{"x":306099.4263000004,"y":2771226.8341000006}},{"attributes":{"OBJECTID":8217,"LANDMARKID":"6300000002215","LANDMARKCO":"402","LANDMARKNA":"遠傳電信-松山門市","LANDMARKAD":"6300001","ADDRESS":"台北市松山區八德路四段668號","TEL":" ","COUNTYNAME":"台北市","TOWNNAME":"松山區","MARKTYPE":"994","Class":"4"},"geometry":{"x":308137.24859999958,"y":2771424.5054000001}},{"attributes":{"OBJECTID":8218,"LANDMARKID":"6300000002216","LANDMARKCO":"402","LANDMARKNA":"威寶電信-台北三民特約服務中心","LANDMARKAD":"6300001","ADDRESS":"台北市松山區三民路149號","TEL":"02-27494185","COUNTYNAME":"台北市","TOWNNAME":"松山區","MARKTYPE":"994","Class":"4"},"geometry":{"x":306808.00580000039,"y":2772665.1904000007}},{"attributes":{"OBJECTID":8219,"LANDMARKID":"6300000002217","LANDMARKCO":"402","LANDMARKNA":"威寶電信-台北八德特約服務中心","LANDMARKAD":"6300001","ADDRESS":"台北市松山區八德路三段237號","TEL":"02-25784233","COUNTYNAME":"台北市","TOWNNAME":"松山區","MARKTYPE":"994","Class":"4"},"geometry":{"x":306233.47860000003,"y":2771239.2827000003}},{"attributes":{"OBJECTID":8220,"LANDMARKID":"6300000002218","LANDMARKCO":"402","LANDMARKNA":"大眾電信(震旦通訊)-台北八德三店","LANDMARKAD":"6300001","ADDRESS":"台北市八德路四段248號","TEL":"02-25287670","COUNTYNAME":"台北市","TOWNNAME":"松山區","MARKTYPE":"994","Class":"4"},"geometry":{"x":307098.77199999988,"y":2771311.1697000004}},{"attributes":{"OBJECTID":8221,"LANDMARKID":"6300000002219","LANDMARKCO":"402","LANDMARKNA":"大眾電信-八德店","LANDMARKAD":"6300001","ADDRESS":"台北市松山區八德路四段165號","TEL":"0968-544792","COUNTYNAME":"台北市","TOWNNAME":"松山區","MARKTYPE":"994","Class":"4"},"geometry":{"x":306785.73579999991,"y":2771302.3100000005}},{"attributes":{"OBJECTID":8222,"LANDMARKID":"6300000002220","LANDMARKCO":"402","LANDMARKNA":"大眾電信-長春專賣店","LANDMARKAD":"6300001","ADDRESS":"台北市松山區長春路472號","TEL":"02-27182358","COUNTYNAME":"台北市","TOWNNAME":"松山區","MARKTYPE":"994","Class":"4"},"geometry":{"x":305127.72429999989,"y":2771913.2248999998}},{"attributes":{"OBJECTID":8223,"LANDMARKID":"6300000002221","LANDMARKCO":"402","LANDMARKNA":"大眾電信(皇家通訊)-立揚通訊行","LANDMARKAD":"6300001","ADDRESS":"台北市松山區南京東路五段35號","TEL":"02-27562009","COUNTYNAME":"台北市","TOWNNAME":"松山區","MARKTYPE":"994","Class":"4"},"geometry":{"x":306350.79260000028,"y":2771623.9473999999}},{"attributes":{"OBJECTID":8224,"LANDMARKID":"6300000002222","LANDMARKCO":"402","LANDMARKNA":"大眾電信-南京專賣店","LANDMARKAD":"6300001","ADDRESS":"台北市松山區南京東路五段35號","TEL":"968388777","COUNTYNAME":"台北市","TOWNNAME":"松山區","MARKTYPE":"994","Class":"4"},"geometry":{"x":306350.79260000028,"y":2771623.9473999999}},{"attributes":{"OBJECTID":8225,"LANDMARKID":"6300000002223","LANDMARKCO":"402","LANDMARKNA":"大眾電信(皇家通訊)-藍芽通訊行","LANDMARKAD":"6300001","ADDRESS":"台北市松山區南京東路五段45號","TEL":"02-27460602","COUNTYNAME":"台北市","TOWNNAME":"松山區","MARKTYPE":"994","Class":"4"},"geometry":{"x":306361.80910000019,"y":2771627.9019000009}},{"attributes":{"OBJECTID":8226,"LANDMARKID":"6300000002224","LANDMARKCO":"402","LANDMARKNA":"大眾電信(震旦通訊)-台北台安店","LANDMARKAD":"6300001","ADDRESS":"台北市長安東路二段294號","TEL":"02-87713322","COUNTYNAME":"台北市","TOWNNAME":"松山區","MARKTYPE":"994","Class":"4"},"geometry":{"x":305030.40350000001,"y":2771218.6275999993}},{"attributes":{"OBJECTID":8227,"LANDMARKID":"6300000002225","LANDMARKCO":"402","LANDMARKNA":"大眾電信(震旦通訊)-台北民生店","LANDMARKAD":"6300001","ADDRESS":"台北市民生東路五段190-1號","TEL":"02-27682522","COUNTYNAME":"台北市","TOWNNAME":"松山區","MARKTYPE":"994","Class":"4"},"geometry":{"x":306924.62689999957,"y":2772416.9465999994}},{"attributes":{"OBJECTID":8228,"LANDMARKID":"6300000003475","LANDMARKCO":"603","LANDMARKNA":"一等好旅店","LANDMARKAD":"6300001","ADDRESS":"台北市松山區八德路四段624巷2號B1-1樓","TEL":"4號2-6樓","COUNTYNAME":"台北市","TOWNNAME":"松山區","MARKTYPE":"996","Class":"6"},"geometry":{"x":307920.12480000034,"y":2771395.2401000001}},{"attributes":{"OBJECTID":8229,"LANDMARKID":"6300000003476","LANDMARKCO":"603","LANDMARKNA":"台北商旅慶城館","LANDMARKAD":"6300001","ADDRESS":"台北市松山區慶城街12號","TEL":"02-87127589","COUNTYNAME":"台北市","TOWNNAME":"松山區","MARKTYPE":"996","Class":"6"},"geometry":{"x":304997.07610000018,"y":2771752.7519000005}},{"attributes":{"OBJECTID":8230,"LANDMARKID":"6300000003477","LANDMARKCO":"603","LANDMARKNA":"二人世界旅店","LANDMARKAD":"6300001","ADDRESS":"台北市松山區八德路四段626號3樓","TEL":"02-27635889","COUNTYNAME":"台北市","TOWNNAME":"松山區","MARKTYPE":"996","Class":"6"},"geometry":{"x":307939.23089999985,"y":2771420.159}},{"attributes":{"OBJECTID":8231,"LANDMARKID":"6300000003478","LANDMARKCO":"603","LANDMARKNA":"友華賓館","LANDMARKAD":"6300001","ADDRESS":"台北市松山區八德路四段656號6樓","TEL":"02-27630505","COUNTYNAME":"台北市","TOWNNAME":"松山區","MARKTYPE":"996","Class":"6"},"geometry":{"x":308061.23979999963,"y":2771422.8289000001}},{"attributes":{"OBJECTID":8232,"LANDMARKID":"6300000003479","LANDMARKCO":"603","LANDMARKNA":"立建賓館","LANDMARKAD":"6300001","ADDRESS":"台北市松山區八德路四段656號7-8樓","TEL":"02-27691135-9","COUNTYNAME":"台北市","TOWNNAME":"松山區","MARKTYPE":"996","Class":"6"},"geometry":{"x":308061.23979999963,"y":2771422.8289000001}},{"attributes":{"OBJECTID":8233,"LANDMARKID":"6300000003480","LANDMARKCO":"603","LANDMARKNA":"松興旅社","LANDMARKAD":"6300001","ADDRESS":"台北市松山區八德路四段717號2-3樓","TEL":"02-27675277","COUNTYNAME":"台北市","TOWNNAME":"松山區","MARKTYPE":"996","Class":"6"},"geometry":{"x":308229.10309999995,"y":2771463.1084000003}},{"attributes":{"OBJECTID":8234,"LANDMARKID":"6300000003481","LANDMARKCO":"603","LANDMARKNA":"長春精品旅館","LANDMARKAD":"6300001","ADDRESS":"台北市松山區慶城街29號","TEL":"02-27188268","COUNTYNAME":"台北市","TOWNNAME":"松山區","MARKTYPE":"996","Class":"6"},"geometry":{"x":305050.54710000008,"y":2771869.5362999998}},{"attributes":{"OBJECTID":8235,"LANDMARKID":"6300000003482","LANDMARKCO":"603","LANDMARKNA":"萬事達飯店","LANDMARKAD":"6300001","ADDRESS":"台北市松山區長安東路2段219號12樓","TEL":"02-27528168","COUNTYNAME":"台北市","TOWNNAME":"松山區","MARKTYPE":"996","Class":"6"},"geometry":{"x":304975.50459999964,"y":2771243.8487}},{"attributes":{"OBJECTID":8236,"LANDMARKID":"6300000003483","LANDMARKCO":"603","LANDMARKNA":"碧瑤大飯店","LANDMARKAD":"6300001","ADDRESS":"台北市松山區八德路二段367號1-10樓","TEL":"02-27813121","COUNTYNAME":"台北市","TOWNNAME":"松山區","MARKTYPE":"996","Class":"6"},"geometry":{"x":304958.2873999998,"y":2771189.9179999996}},{"attributes":{"OBJECTID":8237,"LANDMARKID":"6300000003484","LANDMARKCO":"603","LANDMARKNA":"喬美旅店","LANDMARKAD":"6300001","ADDRESS":"台北市松山區八德路四段16號1-7樓","TEL":"02-27630555","COUNTYNAME":"台北市","TOWNNAME":"松山區","MARKTYPE":"996","Class":"6"},"geometry":{"x":306353.42810000014,"y":2771227.9418000001}},{"attributes":{"OBJECTID":8238,"LANDMARKID":"6300000003485","LANDMARKCO":"603","LANDMARKNA":"蒲園飯店","LANDMARKAD":"6300001","ADDRESS":"台北市松山區八德路四段176號B2-7樓","TEL":"02-27530772","COUNTYNAME":"台北市","TOWNNAME":"松山區","MARKTYPE":"996","Class":"6"},"geometry":{"x":306851.62310000043,"y":2771275.0359000005}},{"attributes":{"OBJECTID":8239,"LANDMARKID":"6300000003486","LANDMARKCO":"603","LANDMARKNA":"朝日大飯店","LANDMARKAD":"6300001","ADDRESS":"台北市松山區八德路四段213號1-7樓","TEL":"02-27603399","COUNTYNAME":"台北市","TOWNNAME":"松山區","MARKTYPE":"996","Class":"6"},"geometry":{"x":306921.81030000001,"y":2771320.9086000007}},{"attributes":{"OBJECTID":8240,"LANDMARKID":"6300000003487","LANDMARKCO":"603","LANDMARKNA":"晶光賓館","LANDMARKAD":"6300001","ADDRESS":"台北市松山區八德路四段453巷12號8-9樓","TEL":"02-27688832","COUNTYNAME":"台北市","TOWNNAME":"松山區","MARKTYPE":"996","Class":"6"},"geometry":{"x":307548.18149999995,"y":2771479.6249000002}},{"attributes":{"OBJECTID":8241,"LANDMARKID":"6300000003488","LANDMARKCO":"603","LANDMARKNA":"金夜賓館","LANDMARKAD":"6300001","ADDRESS":"台北市松山區八德路四段484號3-5樓","TEL":"02-27622955","COUNTYNAME":"台北市","TOWNNAME":"松山區","MARKTYPE":"996","Class":"6"},"geometry":{"x":307537.11569999997,"y":2771393.6769999992}},{"attributes":{"OBJECTID":8242,"LANDMARKID":"6300000003489","LANDMARKCO":"603","LANDMARKNA":"小雅旅店","LANDMARKAD":"6300001","ADDRESS":"台北市松山區八德路四段616號5樓","TEL":"02-27631122","COUNTYNAME":"台北市","TOWNNAME":"松山區","MARKTYPE":"996","Class":"6"},"geometry":{"x":307878.22219999973,"y":2771418.4177999999}},{"attributes":{"OBJECTID":8243,"LANDMARKID":"6300000003490","LANDMARKCO":"603","LANDMARKNA":"豪城大飯店 (松山店)","LANDMARKAD":"6300001","ADDRESS":"台北市松山區八德路四段624巷1號1-9樓","TEL":"02-27693969","COUNTYNAME":"台北市","TOWNNAME":"松山區","MARKTYPE":"996","Class":"6"},"geometry":{"x":307934.12480000034,"y":2771395.1807000004}},{"attributes":{"OBJECTID":8244,"LANDMARKID":"6300000003491","LANDMARKCO":"603","LANDMARKNA":"大來商旅","LANDMARKAD":"6300001","ADDRESS":"台北市松山區長春路432號1-7樓","TEL":"02-27160011","COUNTYNAME":"台北市","TOWNNAME":"松山區","MARKTYPE":"996","Class":"6"},"geometry":{"x":304977.74089999963,"y":2771917.8297000006}},{"attributes":{"OBJECTID":8245,"LANDMARKID":"6300000003492","LANDMARKCO":"603","LANDMARKNA":"雅柏精緻旅館","LANDMARKAD":"6300001","ADDRESS":"台北市松山區南京東路五段325號","TEL":"02-27645858","COUNTYNAME":"台北市","TOWNNAME":"松山區","MARKTYPE":"996","Class":"6"},"geometry":{"x":307216.71850000042,"y":2771606.8413999993}},{"attributes":{"OBJECTID":8246,"LANDMARKID":"6300000003493","LANDMARKCO":"603","LANDMARKNA":"惠安賓館","LANDMARKAD":"6300001","ADDRESS":"台北市松山區南京東路五段363號2-4樓","TEL":"02-27679151-2","COUNTYNAME":"台北市","TOWNNAME":"松山區","MARKTYPE":"996","Class":"6"},"geometry":{"x":307359.70940000005,"y":2771604.2413999997}},{"attributes":{"OBJECTID":8247,"LANDMARKID":"6300000003494","LANDMARKCO":"603","LANDMARKNA":"東華飯店","LANDMARKAD":"6300001","ADDRESS":"台北市松山區南京東路四段156號1-11樓","TEL":"02-25796162","COUNTYNAME":"台北市","TOWNNAME":"松山區","MARKTYPE":"996","Class":"6"},"geometry":{"x":306127.61649999954,"y":2771580.7129999995}},{"attributes":{"OBJECTID":8248,"LANDMARKID":"6300000003495","LANDMARKCO":"603","LANDMARKNA":"皇都飯店","LANDMARKAD":"6300001","ADDRESS":"台北市松山區南京東路四段55-1號B1-10樓","TEL":"02-87121988","COUNTYNAME":"台北市","TOWNNAME":"松山區","MARKTYPE":"996","Class":"6"},"geometry":{"x":305735.84329999983,"y":2771635.0278999992}},{"attributes":{"OBJECTID":8249,"LANDMARKID":"6300000003496","LANDMARKCO":"603","LANDMARKNA":"台北馥敦飯店-復北館","LANDMARKAD":"6300001","ADDRESS":"台北市松山區復興北路315號1-7樓","TEL":"02-27138181","COUNTYNAME":"台北市","TOWNNAME":"松山區","MARKTYPE":"996","Class":"6"},"geometry":{"x":304928.3331000004,"y":2772430.8935000002}},{"attributes":{"OBJECTID":8250,"LANDMARKID":"6300000003497","LANDMARKCO":"603","LANDMARKNA":"王朝大酒店","LANDMARKAD":"6300001","ADDRESS":"台北市松山區敦化北路100號","TEL":"02-27197199","COUNTYNAME":"台北市","TOWNNAME":"松山區","MARKTYPE":"996","Class":"6"},"geometry":{"x":305350.00989999995,"y":2771737.4561000001}},{"attributes":{"OBJECTID":8251,"LANDMARKID":"6300000003379","LANDMARKCO":"601","LANDMARKNA":"兄弟大飯店","LANDMARKAD":"6300001","ADDRESS":"台北市松山區南京東路3段255號","TEL":"02-2712-3456","COUNTYNAME":"台北市","TOWNNAME":"松山區","MARKTYPE":"996","Class":"6"},"geometry":{"x":304952.90460000001,"y":2771650.9346999992}},{"attributes":{"OBJECTID":8252,"LANDMARKID":"6300000003380","LANDMARKCO":"601","LANDMARKNA":"西華大飯店","LANDMARKAD":"6300001","ADDRESS":"台北市松山區民生東路3段111號","TEL":"02-2718-1188","COUNTYNAME":"台北市","TOWNNAME":"松山區","MARKTYPE":"996","Class":"6"},"geometry":{"x":305072.11309999973,"y":2772317.4441999998}},{"attributes":{"OBJECTID":8253,"LANDMARKID":"6300000003348","LANDMARKCO":"511","LANDMARKNA":"饒河街觀光夜市","LANDMARKAD":"6300001","ADDRESS":"台北市松山區饒河街","TEL":" ","COUNTYNAME":"台北市","TOWNNAME":"松山區","MARKTYPE":"995","Class":"5"},"geometry":{"x":307818.34750000015,"y":2771467.2681000009}},{"attributes":{"OBJECTID":8254,"LANDMARKID":"6300000003349","LANDMARKCO":"511","LANDMARKNA":"松山玉市","LANDMARKAD":"6300001","ADDRESS":"台北市松山區","TEL":" ","COUNTYNAME":"台北市","TOWNNAME":"松山區","MARKTYPE":"995","Class":"5"},"geometry":{"x":308170.47869999986,"y":2771475.5272000004}},{"attributes":{"OBJECTID":8255,"LANDMARKID":"6300000002434","LANDMARKCO":"405","LANDMARKNA":"中油加油站-南港站(刷卡自助)(中油直營)","LANDMARKAD":"6300009","ADDRESS":"台北市南港區南港路二段50號","TEL":"02-27822408","COUNTYNAME":"台北市","TOWNNAME":"南港區","MARKTYPE":"994","Class":"4"},"geometry":{"x":310998.14439999964,"y":2771909.6169000007}},{"attributes":{"OBJECTID":8256,"LANDMARKID":"6300000002435","LANDMARKCO":"405","LANDMARKNA":"中油加油站-聯成站","LANDMARKAD":"6300009","ADDRESS":"台北市南港區忠孝東路六段226號","TEL":"02-27883748","COUNTYNAME":"台北市","TOWNNAME":"南港區","MARKTYPE":"994","Class":"4"},"geometry":{"x":309285.91420000046,"y":2771294.6969000008}},{"attributes":{"OBJECTID":8257,"LANDMARKID":"6300000002207","LANDMARKCO":"402","LANDMARKNA":"My Phone台灣大哥大-南港南港II<註一>","LANDMARKAD":"6300009","ADDRESS":"台北市南港區南港路二段28號","TEL":"(02)27855077","COUNTYNAME":"台北市","TOWNNAME":"南港區","MARKTYPE":"994","Class":"4"},"geometry":{"x":311080.7293999996,"y":2771921.8363000005}},{"attributes":{"OBJECTID":8258,"LANDMARKID":"6300000002208","LANDMARKCO":"402","LANDMARKNA":"My Phone台灣大哥大-南港忠孝","LANDMARKAD":"6300009","ADDRESS":"台北市南港區忠孝東路7段616號","TEL":"(02)6615-1188","COUNTYNAME":"台北市","TOWNNAME":"南港區","MARKTYPE":"994","Class":"4"},"geometry":{"x":312129.10140000004,"y":2771786.1460999995}},{"attributes":{"OBJECTID":8259,"LANDMARKID":"6300000002209","LANDMARKCO":"402","LANDMARKNA":"My Phone台灣大哥大-台北昆陽直營服務中心","LANDMARKAD":"6300009","ADDRESS":"台北市南港區忠孝東路6段378號","TEL":" ","COUNTYNAME":"台北市","TOWNNAME":"南港區","MARKTYPE":"994","Class":"4"},"geometry":{"x":309728.24390000012,"y":2771422.8838}},{"attributes":{"OBJECTID":8260,"LANDMARKID":"6300000002210","LANDMARKCO":"402","LANDMARKNA":"亞太行動寬頻電信-南港中研加盟服務中心","LANDMARKAD":"6300009","ADDRESS":"台北市南港區忠孝東路7段616號","TEL":"02-66153388","COUNTYNAME":"台北市","TOWNNAME":"南港區","MARKTYPE":"994","Class":"4"},"geometry":{"x":312129.10140000004,"y":2771786.1460999995}},{"attributes":{"OBJECTID":8261,"LANDMARKID":"6300000002112","LANDMARKCO":"401","LANDMARKNA":"資生堂醫院","LANDMARKAD":"6300009","ADDRESS":"台北市南港區新民街64號","TEL":"02-27837841","COUNTYNAME":"台北市","TOWNNAME":"南港區","MARKTYPE":"994","Class":"4"},"geometry":{"x":311700.15160000045,"y":2772103.8164000008}},{"attributes":{"OBJECTID":8262,"LANDMARKID":"6300000002113","LANDMARKCO":"401","LANDMARKNA":"台北市立聯合醫院-忠孝院區(忠孝醫院)","LANDMARKAD":"6300009","ADDRESS":"台北市南港區同德路87號","TEL":"02-27861288","COUNTYNAME":"台北市","TOWNNAME":"南港區","MARKTYPE":"994","Class":"4"},"geometry":{"x":309154.9570000004,"y":2771041.9903999995}},{"attributes":{"OBJECTID":8263,"LANDMARKID":"6300000001875","LANDMARKCO":"306","LANDMARKNA":"南港軟體園區捷運站-出口1","LANDMARKAD":"6300009","ADDRESS":" ","TEL":" ","COUNTYNAME":"台北市","TOWNNAME":"南港區","MARKTYPE":"993","Class":"306"},"geometry":{"x":312142.1651999997,"y":2772614.3927999996}},{"attributes":{"OBJECTID":8264,"LANDMARKID":"6300000001876","LANDMARKCO":"306","LANDMARKNA":"南港軟體園區捷運站-出口2","LANDMARKAD":"6300009","ADDRESS":" ","TEL":" ","COUNTYNAME":"台北市","TOWNNAME":"南港區","MARKTYPE":"993","Class":"306"},"geometry":{"x":312194.64250000007,"y":2772587.3310000002}},{"attributes":{"OBJECTID":8265,"LANDMARKID":"6300000001877","LANDMARKCO":"306","LANDMARKNA":"南港展覽館捷運站-出口1","LANDMARKAD":"6300009","ADDRESS":" ","TEL":" ","COUNTYNAME":"台北市","TOWNNAME":"南港區","MARKTYPE":"993","Class":"306"},"geometry":{"x":312266.61400000006,"y":2772145.8158}},{"attributes":{"OBJECTID":8266,"LANDMARKID":"6300000001878","LANDMARKCO":"306","LANDMARKNA":"南港展覽館捷運站-出口4","LANDMARKAD":"6300009","ADDRESS":" ","TEL":" ","COUNTYNAME":"台北市","TOWNNAME":"南港區","MARKTYPE":"993","Class":"306"},"geometry":{"x":312379.1018000003,"y":2772054.2835000008}},{"attributes":{"OBJECTID":8267,"LANDMARKID":"6300000001879","LANDMARKCO":"306","LANDMARKNA":"南港展覽館捷運站-出口2","LANDMARKAD":"6300009","ADDRESS":" ","TEL":" ","COUNTYNAME":"台北市","TOWNNAME":"南港區","MARKTYPE":"993","Class":"306"},"geometry":{"x":312278.88920000009,"y":2772048.1646999996}},{"attributes":{"OBJECTID":8268,"LANDMARKID":"6300000001880","LANDMARKCO":"306","LANDMARKNA":"南港展覽館捷運站-出口3","LANDMARKAD":"6300009","ADDRESS":" ","TEL":" ","COUNTYNAME":"台北市","TOWNNAME":"南港區","MARKTYPE":"993","Class":"306"},"geometry":{"x":312374.17989999987,"y":2772027.8487999998}},{"attributes":{"OBJECTID":8269,"LANDMARKID":"6300000003159","LANDMARKCO":"506","LANDMARKNA":"南港區果園","LANDMARKAD":"6300009","ADDRESS":"台北市南港區九如里研究路三段","TEL":"02-27823989","COUNTYNAME":"台北市","TOWNNAME":"南港區","MARKTYPE":"995","Class":"5"},"geometry":{"x":312141.75779999979,"y":2769735.3158999998}},{"attributes":{"OBJECTID":8270,"LANDMARKID":"6300000003160","LANDMARKCO":"506","LANDMARKNA":"寶樹堂茶莊","LANDMARKAD":"6300009","ADDRESS":"台北市南港區舊庄街二段334號","TEL":"02-27835790","COUNTYNAME":"台北市","TOWNNAME":"南港區","MARKTYPE":"995","Class":"5"},"geometry":{"x":316668.94809999969,"y":2768855.1015000008}},{"attributes":{"OBJECTID":8271,"LANDMARKID":"6300000003000","LANDMARKCO":"408","LANDMARKNA":"郵局-南港昆陽郵局","LANDMARKAD":"6300009","ADDRESS":"台北市南港區忠孝東路6段400號","TEL":"(02)2651-4945","COUNTYNAME":"台北市","TOWNNAME":"南港區","MARKTYPE":"994","Class":"4"},"geometry":{"x":309797.32290000003,"y":2771440.5857999995}},{"attributes":{"OBJECTID":8272,"LANDMARKID":"6300000003001","LANDMARKCO":"408","LANDMARKNA":"郵局-中研院郵局","LANDMARKAD":"6300009","ADDRESS":"台北市南港區研究院路2段108號","TEL":"(02)2782-3553","COUNTYNAME":"台北市","TOWNNAME":"南港區","MARKTYPE":"994","Class":"4"},"geometry":{"x":312212.56790000014,"y":2770657.7962999996}},{"attributes":{"OBJECTID":8273,"LANDMARKID":"6300000003002","LANDMARKCO":"408","LANDMARKNA":"郵局-南港港三郵局","LANDMARKAD":"6300009","ADDRESS":"台北市南港區南港路3段184號","TEL":"(02)2783-1409","COUNTYNAME":"台北市","TOWNNAME":"南港區","MARKTYPE":"994","Class":"4"},"geometry":{"x":309230.17860000022,"y":2771792.6066999994}},{"attributes":{"OBJECTID":8274,"LANDMARKID":"6300000003003","LANDMARKCO":"408","LANDMARKNA":"郵局-南港富康郵局","LANDMARKAD":"6300009","ADDRESS":"台北市南港區研究院路1段44號","TEL":"(02)2783-7204","COUNTYNAME":"台北市","TOWNNAME":"南港區","MARKTYPE":"994","Class":"4"},"geometry":{"x":312173.35099999979,"y":2771840.9489999991}},{"attributes":{"OBJECTID":8275,"LANDMARKID":"6300000003004","LANDMARKCO":"408","LANDMARKNA":"郵局-南港同德郵局","LANDMARKAD":"6300009","ADDRESS":"台北市南港區同德路85巷2號","TEL":"(02)2653-4350","COUNTYNAME":"台北市","TOWNNAME":"南港區","MARKTYPE":"994","Class":"4"},"geometry":{"x":309089.87770000007,"y":2771030.0208999999}},{"attributes":{"OBJECTID":8276,"LANDMARKID":"6300000003005","LANDMARKCO":"408","LANDMARKNA":"郵局-南港郵局","LANDMARKAD":"6300009","ADDRESS":"台北市南港區南港路2段78號","TEL":"(02)2783-9345","COUNTYNAME":"台北市","TOWNNAME":"南港區","MARKTYPE":"994","Class":"4"},"geometry":{"x":310893.57479999959,"y":2771887.6767999995}},{"attributes":{"OBJECTID":8277,"LANDMARKID":"6300000003006","LANDMARKCO":"408","LANDMARKNA":"郵局-南港福德郵局","LANDMARKAD":"6300009","ADDRESS":"台北市南港區福德街314號","TEL":"(02)2785-1709","COUNTYNAME":"台北市","TOWNNAME":"南港區","MARKTYPE":"994","Class":"4"},"geometry":{"x":309307.25299999956,"y":2770271.3013000004}},{"attributes":{"OBJECTID":8278,"LANDMARKID":"6300000003007","LANDMARKCO":"408","LANDMARKNA":"郵局-南港後山埤郵局","LANDMARKAD":"6300009","ADDRESS":"台北市南港區忠孝東路5段994號","TEL":"(02)2786-7814","COUNTYNAME":"台北市","TOWNNAME":"南港區","MARKTYPE":"994","Class":"4"},"geometry":{"x":308802.26730000041,"y":2770888.0570999999}},{"attributes":{"OBJECTID":8279,"LANDMARKID":"6300000003008","LANDMARKCO":"408","LANDMARKNA":"郵局-南港軟體園區郵局","LANDMARKAD":"6300009","ADDRESS":"台北市南港區園區街3-2號H棟1樓","TEL":"(02)2785-5033","COUNTYNAME":"台北市","TOWNNAME":"南港區","MARKTYPE":"994","Class":"4"},"geometry":{"x":311742.16579999961,"y":2772414.6245000008}},{"attributes":{"OBJECTID":8280,"LANDMARKID":"6300000003009","LANDMARKCO":"408","LANDMARKNA":"郵局-南港聯勤郵局","LANDMARKAD":"6300009","ADDRESS":"台北市南港區忠孝東路6段360號","TEL":"(02)2785-1929","COUNTYNAME":"台北市","TOWNNAME":"南港區","MARKTYPE":"994","Class":"4"},"geometry":{"x":309682.03550000023,"y":2771402.2192000002}},{"attributes":{"OBJECTID":8281,"LANDMARKID":"6300000003094","LANDMARKCO":"409","LANDMARKNA":"台北市南港區農會","LANDMARKAD":"6300009","ADDRESS":"台北市南港區南港路一段173號","TEL":"02-27836121","COUNTYNAME":"台北市","TOWNNAME":"南港區","MARKTYPE":"994","Class":"4"},"geometry":{"x":311892.80069999956,"y":2772008.4199000001}},{"attributes":{"OBJECTID":8282,"LANDMARKID":"6300000002634","LANDMARKCO":"406","LANDMARKNA":"興南公園","LANDMARKAD":"6300009","ADDRESS":"台北市南港區","TEL":" ","COUNTYNAME":"台北市","TOWNNAME":"南港區","MARKTYPE":"994","Class":"4"},"geometry":{"x":310919.8245000001,"y":2772266.6688000001}},{"attributes":{"OBJECTID":8283,"LANDMARKID":"6300000002635","LANDMARKCO":"406","LANDMARKNA":"宜佳公園","LANDMARKAD":"6300009","ADDRESS":"台北市南港區","TEL":" ","COUNTYNAME":"台北市","TOWNNAME":"南港區","MARKTYPE":"994","Class":"4"},"geometry":{"x":310621.44759999961,"y":2772223.6095000003}},{"attributes":{"OBJECTID":8284,"LANDMARKID":"6300000002636","LANDMARKCO":"406","LANDMARKNA":"興華公園","LANDMARKAD":"6300009","ADDRESS":"台北市南港區","TEL":" ","COUNTYNAME":"台北市","TOWNNAME":"南港區","MARKTYPE":"994","Class":"4"},"geometry":{"x":310996.60950000025,"y":2772209.8153000008}},{"attributes":{"OBJECTID":8285,"LANDMARKID":"6300000002637","LANDMARKCO":"406","LANDMARKNA":"向陽公園","LANDMARKAD":"6300009","ADDRESS":"台北市南港區","TEL":" ","COUNTYNAME":"台北市","TOWNNAME":"南港區","MARKTYPE":"994","Class":"4"},"geometry":{"x":309845.54590000026,"y":2772168.1760000009}},{"attributes":{"OBJECTID":8286,"LANDMARKID":"6300000002638","LANDMARKCO":"406","LANDMARKNA":"重陽公園","LANDMARKAD":"6300009","ADDRESS":"台北市南港區","TEL":" ","COUNTYNAME":"台北市","TOWNNAME":"南港區","MARKTYPE":"994","Class":"4"},"geometry":{"x":310436.42599999998,"y":2772138.1396999992}},{"attributes":{"OBJECTID":8287,"LANDMARKID":"6300000002639","LANDMARKCO":"406","LANDMARKNA":"興港公園","LANDMARKAD":"6300009","ADDRESS":"台北市南港區","TEL":" ","COUNTYNAME":"台北市","TOWNNAME":"南港區","MARKTYPE":"994","Class":"4"},"geometry":{"x":311823.72620000038,"y":2772059.7522}},{"attributes":{"OBJECTID":8288,"LANDMARKID":"6300000002640","LANDMARKCO":"406","LANDMARKNA":"東新公園","LANDMARKAD":"6300009","ADDRESS":"台北市南港區","TEL":" ","COUNTYNAME":"台北市","TOWNNAME":"南港區","MARKTYPE":"994","Class":"4"},"geometry":{"x":310907.9168999996,"y":2771995.8103}},{"attributes":{"OBJECTID":8289,"LANDMARKID":"6300000002641","LANDMARKCO":"406","LANDMARKNA":"東明公園","LANDMARKAD":"6300009","ADDRESS":"台北市南港區","TEL":" ","COUNTYNAME":"台北市","TOWNNAME":"南港區","MARKTYPE":"994","Class":"4"},"geometry":{"x":310564.89690000005,"y":2771985.5007000007}},{"attributes":{"OBJECTID":8290,"LANDMARKID":"6300000002642","LANDMARKCO":"406","LANDMARKNA":"南興公園","LANDMARKAD":"6300009","ADDRESS":"台北市南港區","TEL":" ","COUNTYNAME":"台北市","TOWNNAME":"南港區","MARKTYPE":"994","Class":"4"},"geometry":{"x":311234.46040000021,"y":2771901.7876999993}},{"attributes":{"OBJECTID":8291,"LANDMARKID":"6300000002643","LANDMARKCO":"406","LANDMARKNA":"新富公園","LANDMARKAD":"6300009","ADDRESS":"台北市南港區","TEL":" ","COUNTYNAME":"台北市","TOWNNAME":"南港區","MARKTYPE":"994","Class":"4"},"geometry":{"x":312230.55140000023,"y":2771785.1138000004}},{"attributes":{"OBJECTID":8292,"LANDMARKID":"6300000002644","LANDMARKCO":"406","LANDMARKNA":"新勝公園","LANDMARKAD":"6300009","ADDRESS":"台北市南港區","TEL":" ","COUNTYNAME":"台北市","TOWNNAME":"南港區","MARKTYPE":"994","Class":"4"},"geometry":{"x":309857.47690000013,"y":2771324.7204}},{"attributes":{"OBJECTID":8293,"LANDMARKID":"6300000002645","LANDMARKCO":"406","LANDMARKNA":"成德公園","LANDMARKAD":"6300009","ADDRESS":"台北市南港區","TEL":" ","COUNTYNAME":"台北市","TOWNNAME":"南港區","MARKTYPE":"994","Class":"4"},"geometry":{"x":309400.38630000036,"y":2771267.9506999999}},{"attributes":{"OBJECTID":8294,"LANDMARKID":"6300000002646","LANDMARKCO":"406","LANDMARKNA":"六福公園","LANDMARKAD":"6300009","ADDRESS":"台北市南港區","TEL":" ","COUNTYNAME":"台北市","TOWNNAME":"南港區","MARKTYPE":"994","Class":"4"},"geometry":{"x":312219.38609999977,"y":2771168.5057999995}},{"attributes":{"OBJECTID":8295,"LANDMARKID":"6300000002647","LANDMARKCO":"406","LANDMARKNA":"中研公園","LANDMARKAD":"6300009","ADDRESS":"台北市南港區","TEL":" ","COUNTYNAME":"台北市","TOWNNAME":"南港區","MARKTYPE":"994","Class":"4"},"geometry":{"x":311867.76960000023,"y":2771108.3482000008}},{"attributes":{"OBJECTID":8296,"LANDMARKID":"6300000002648","LANDMARKCO":"406","LANDMARKNA":"聯成公園","LANDMARKAD":"6300009","ADDRESS":"台北市南港區","TEL":" ","COUNTYNAME":"台北市","TOWNNAME":"南港區","MARKTYPE":"994","Class":"4"},"geometry":{"x":309266.70949999988,"y":2771064.7445}},{"attributes":{"OBJECTID":8297,"LANDMARKID":"6300000002649","LANDMARKCO":"406","LANDMARKNA":"萬福公園","LANDMARKAD":"6300009","ADDRESS":"台北市南港區","TEL":" ","COUNTYNAME":"台北市","TOWNNAME":"南港區","MARKTYPE":"994","Class":"4"},"geometry":{"x":308975.25200000033,"y":2771026.2136000004}},{"attributes":{"OBJECTID":8298,"LANDMARKID":"6300000002650","LANDMARKCO":"406","LANDMARKNA":"福山公園","LANDMARKAD":"6300009","ADDRESS":"台北市南港區","TEL":" ","COUNTYNAME":"台北市","TOWNNAME":"南港區","MARKTYPE":"994","Class":"4"},"geometry":{"x":312346.06780000031,"y":2770893.1004000008}},{"attributes":{"OBJECTID":8299,"LANDMARKID":"6300000002651","LANDMARKCO":"406","LANDMARKNA":"自忠公園","LANDMARKAD":"6300009","ADDRESS":"台北市南港區","TEL":" ","COUNTYNAME":"台北市","TOWNNAME":"南港區","MARKTYPE":"994","Class":"4"},"geometry":{"x":308664.7352,"y":2770890.8541000001}},{"attributes":{"OBJECTID":8300,"LANDMARKID":"6300000002652","LANDMARKCO":"406","LANDMARKNA":"南港一號公園","LANDMARKAD":"6300009","ADDRESS":"台北市南港區","TEL":" ","COUNTYNAME":"台北市","TOWNNAME":"南港區","MARKTYPE":"994","Class":"4"},"geometry":{"x":309696.70550000016,"y":2770729.1455000006}},{"attributes":{"OBJECTID":8301,"LANDMARKID":"6300000002653","LANDMARKCO":"406","LANDMARKNA":"玉成公園","LANDMARKAD":"6300009","ADDRESS":"台北市南港區","TEL":" ","COUNTYNAME":"台北市","TOWNNAME":"南港區","MARKTYPE":"994","Class":"4"},"geometry":{"x":309091.41839999985,"y":2770609.9748999998}},{"attributes":{"OBJECTID":8302,"LANDMARKID":"6300000002654","LANDMARKCO":"406","LANDMARKNA":"舊莊公園","LANDMARKAD":"6300009","ADDRESS":"台北市南港區","TEL":" ","COUNTYNAME":"台北市","TOWNNAME":"南港區","MARKTYPE":"994","Class":"4"},"geometry":{"x":312592.59949999955,"y":2770508.9174000006}},{"attributes":{"OBJECTID":8303,"LANDMARKID":"6300000002655","LANDMARKCO":"406","LANDMARKNA":"胡適公園","LANDMARKAD":"6300009","ADDRESS":"台北市南港區","TEL":" ","COUNTYNAME":"台北市","TOWNNAME":"南港區","MARKTYPE":"994","Class":"4"},"geometry":{"x":312353.16069999989,"y":2770460.2835000008}},{"attributes":{"OBJECTID":8304,"LANDMARKID":"6300000002656","LANDMARKCO":"406","LANDMARKNA":"理想公園","LANDMARKAD":"6300009","ADDRESS":"台北市南港區","TEL":" ","COUNTYNAME":"台北市","TOWNNAME":"南港區","MARKTYPE":"994","Class":"4"},"geometry":{"x":312734.41739999969,"y":2770338.9815999996}},{"attributes":{"OBJECTID":8305,"LANDMARKID":"6300000002657","LANDMARKCO":"406","LANDMARKNA":"九如公園","LANDMARKAD":"6300009","ADDRESS":"台北市南港區","TEL":" ","COUNTYNAME":"台北市","TOWNNAME":"南港區","MARKTYPE":"994","Class":"4"},"geometry":{"x":312156.37990000006,"y":2770180.1225000005}},{"attributes":{"OBJECTID":8306,"LANDMARKID":"6300000002436","LANDMARKCO":"405","LANDMARKNA":"全國加油站-南港站（台塑）","LANDMARKAD":"6300009","ADDRESS":"台北市南港區南港路三段49號","TEL":"02-27828306","COUNTYNAME":"台北市","TOWNNAME":"南港區","MARKTYPE":"994","Class":"4"},"geometry":{"x":309534.50439999998,"y":2771810.1317999996}},{"attributes":{"OBJECTID":8307,"LANDMARKID":"6300000000025","LANDMARKCO":"101","LANDMARKNA":"中國鋼鐵股份有限公司台北辦事處","LANDMARKAD":"6300009","ADDRESS":"台北市信義路五段七號101大樓二十八樓A室","TEL":"02-8758-0000","COUNTYNAME":"台北市","TOWNNAME":"南港區","MARKTYPE":"991","Class":"1"},"geometry":{"x":311926.35429999977,"y":2772368.7962999996}},{"attributes":{"OBJECTID":8308,"LANDMARKID":"6300000000172","LANDMARKCO":"104","LANDMARKNA":"台北市國稅局南港稽徵所","LANDMARKAD":"6300009","ADDRESS":"台北市南港區南港路一段360號5樓","TEL":"02-27833151","COUNTYNAME":"台北市","TOWNNAME":"南港區","MARKTYPE":"991","Class":"1"},"geometry":{"x":311221.37060000002,"y":2771954.2122000009}},{"attributes":{"OBJECTID":8309,"LANDMARKID":"6300000000023","LANDMARKCO":"101","LANDMARKNA":"衛生署藥物食品檢驗局","LANDMARKAD":"6300009","ADDRESS":"台北市南港區昆陽街161之2號","TEL":"02-26531318","COUNTYNAME":"台北市","TOWNNAME":"南港區","MARKTYPE":"991","Class":"1"},"geometry":{"x":309981.06709999964,"y":2771325.7583000008}},{"attributes":{"OBJECTID":8310,"LANDMARKID":"6300000000024","LANDMARKCO":"101","LANDMARKNA":"中央研究院","LANDMARKAD":"6300009","ADDRESS":"台北市南港區研究院路二段128號","TEL":"02-27822120-9","COUNTYNAME":"台北市","TOWNNAME":"南港區","MARKTYPE":"991","Class":"1"},"geometry":{"x":312226.55319999997,"y":2770573.5066999998}},{"attributes":{"OBJECTID":8311,"LANDMARKID":"6300000000195","LANDMARKCO":"106","LANDMARKNA":"台北市南港區戶政事務所","LANDMARKAD":"6300009","ADDRESS":"台北市南港區南港里23鄰南港路一段360號4樓","TEL":"02-27825196","COUNTYNAME":"台北市","TOWNNAME":"南港區","MARKTYPE":"991","Class":"1"},"geometry":{"x":311221.37060000002,"y":2771954.2122000009}},{"attributes":{"OBJECTID":8312,"LANDMARKID":"6300000000284","LANDMARKCO":"107","LANDMARKNA":"台北市政府警察局南港分局","LANDMARKAD":"6300009","ADDRESS":"台北市南港區向陽路150號","TEL":"02-27839110","COUNTYNAME":"台北市","TOWNNAME":"南港區","MARKTYPE":"991","Class":"1"},"geometry":{"x":310024.50609999988,"y":2772026.5555000007}},{"attributes":{"OBJECTID":8313,"LANDMARKID":"6300000000285","LANDMARKCO":"107","LANDMARKNA":"台北市政府警察局玉成派出所","LANDMARKAD":"6300009","ADDRESS":"台北市南港區向陽路150號","TEL":"02-27886958","COUNTYNAME":"台北市","TOWNNAME":"南港區","MARKTYPE":"991","Class":"1"},"geometry":{"x":310024.50609999988,"y":2772026.5555000007}},{"attributes":{"OBJECTID":8314,"LANDMARKID":"6300000000286","LANDMARKCO":"107","LANDMARKNA":"台北市政府警察局舊莊派出所","LANDMARKAD":"6300009","ADDRESS":"台北市南港區舊莊街一段213號","TEL":"02-27822492","COUNTYNAME":"台北市","TOWNNAME":"南港區","MARKTYPE":"991","Class":"1"},"geometry":{"x":312821.71289999969,"y":2770185.3607999999}},{"attributes":{"OBJECTID":8315,"LANDMARKID":"6300000000287","LANDMARKCO":"107","LANDMARKNA":"台北市政府警察局同德派出所","LANDMARKAD":"6300009","ADDRESS":"台北市南港區同德路83號","TEL":"02-27867201","COUNTYNAME":"台北市","TOWNNAME":"南港區","MARKTYPE":"991","Class":"1"},"geometry":{"x":309093.12629999965,"y":2771008.0067999996}},{"attributes":{"OBJECTID":8316,"LANDMARKID":"6300000000288","LANDMARKCO":"107","LANDMARKNA":"台北市消防局南港消防分隊","LANDMARKAD":"6300009","ADDRESS":"台北市南港區興中路6號","TEL":"02-27837757","COUNTYNAME":"台北市","TOWNNAME":"南港區","MARKTYPE":"991","Class":"1"},"geometry":{"x":311280.12959999964,"y":2771969.9485999998}},{"attributes":{"OBJECTID":8317,"LANDMARKID":"6300000000289","LANDMARKCO":"107","LANDMARKNA":"台北市消防局南湖消防中隊","LANDMARKAD":"6300009","ADDRESS":"台北市南港區興中路6號","TEL":"02-27883995","COUNTYNAME":"台北市","TOWNNAME":"南港區","MARKTYPE":"991","Class":"1"},"geometry":{"x":311280.12959999964,"y":2771969.9485999998}},{"attributes":{"OBJECTID":8318,"LANDMARKID":"6300000000142","LANDMARKCO":"103","LANDMARKNA":"台北市南港區健康服務中心","LANDMARKAD":"6300009","ADDRESS":"台北市南港區南港路一段360號7樓","TEL":"02-27825220","COUNTYNAME":"台北市","TOWNNAME":"南港區","MARKTYPE":"991","Class":"1"},"geometry":{"x":311221.37060000002,"y":2771954.2122000009}},{"attributes":{"OBJECTID":8319,"LANDMARKID":"6300000000371","LANDMARKCO":"108","LANDMARKNA":"台北市南港區公所","LANDMARKAD":"6300009","ADDRESS":"台北市南港區南港路一段360號","TEL":"02-27831343","COUNTYNAME":"台北市","TOWNNAME":"南港區","MARKTYPE":"991","Class":"1"},"geometry":{"x":311221.37060000002,"y":2771954.2122000009}},{"attributes":{"OBJECTID":8320,"LANDMARKID":"6300000000026","LANDMARKCO":"101","LANDMARKNA":"中央研究院歷史語言研究所","LANDMARKAD":"6300009","ADDRESS":"台北市南港區研究院路二段130號5樓","TEL":"02-27829555","COUNTYNAME":"台北市","TOWNNAME":"南港區","MARKTYPE":"991","Class":"1"},"geometry":{"x":312281.77290000021,"y":2770348.2613999993}},{"attributes":{"OBJECTID":8321,"LANDMARKID":"6300000000027","LANDMARKCO":"101","LANDMARKNA":"中央研究院胡適紀念館","LANDMARKAD":"6300009","ADDRESS":"台北市南港區研究院路二段128號","TEL":"02-27821147","COUNTYNAME":"台北市","TOWNNAME":"南港區","MARKTYPE":"991","Class":"1"},"geometry":{"x":312226.55319999997,"y":2770573.5066999998}},{"attributes":{"OBJECTID":8322,"LANDMARKID":"6300000000141","LANDMARKCO":"103","LANDMARKNA":"台北市南港運動中心","LANDMARKAD":"6300009","ADDRESS":"台北市南港區玉成街69號","TEL":"02-26532279","COUNTYNAME":"台北市","TOWNNAME":"南港區","MARKTYPE":"991","Class":"1"},"geometry":{"x":308693.14489999972,"y":2771320.0208000001}},{"attributes":{"OBJECTID":8323,"LANDMARKID":"6300000000290","LANDMARKCO":"107","LANDMARKNA":"台北市政府警察局南港派出所","LANDMARKAD":"6300009","ADDRESS":"台北市南港區興中街12巷2號","TEL":"02-27830476","COUNTYNAME":"台北市","TOWNNAME":"南港區","MARKTYPE":"991","Class":"1"},"geometry":{"x":311741.29820000008,"y":2772049.6410000008}},{"attributes":{"OBJECTID":8324,"LANDMARKID":"6300000000803","LANDMARKCO":"205","LANDMARKNA":"中央研究院民族學研究所博物館","LANDMARKAD":"6300009","ADDRESS":"台北市南港區研究院路二段128號","TEL":" ","COUNTYNAME":"台北市","TOWNNAME":"南港區","MARKTYPE":"992","Class":"2"},"geometry":{"x":312181.44299999997,"y":2770283.3791000005}},{"attributes":{"OBJECTID":8325,"LANDMARKID":"6300000000751","LANDMARKCO":"204","LANDMARKNA":"台北市立圖書館南港分館","LANDMARKAD":"6300009","ADDRESS":"台北市南港區南港路一段287巷4弄10號2~3樓","TEL":" ","COUNTYNAME":"台北市","TOWNNAME":"南港區","MARKTYPE":"992","Class":"2"},"geometry":{"x":311344.47350000031,"y":2771854.6943999995}},{"attributes":{"OBJECTID":8326,"LANDMARKID":"6300000000752","LANDMARKCO":"204","LANDMARKNA":"台北市立圖書館龍華民眾閱覽室","LANDMARKAD":"6300009","ADDRESS":"台北市南港區同德路100號2樓之1","TEL":" ","COUNTYNAME":"台北市","TOWNNAME":"南港區","MARKTYPE":"992","Class":"2"},"geometry":{"x":309148.49949999992,"y":2771057.8893999998}},{"attributes":{"OBJECTID":8327,"LANDMARKID":"6300000000460","LANDMARKCO":"202","LANDMARKNA":"市立南港高中","LANDMARKAD":"6300009","ADDRESS":"台北市南港區向陽路21號","TEL":"02-27837863","COUNTYNAME":"台北市","TOWNNAME":"南港區","MARKTYPE":"992","Class":"2"},"geometry":{"x":310041.1481999997,"y":2771722.7382999994}},{"attributes":{"OBJECTID":8328,"LANDMARKID":"6300000000461","LANDMARKCO":"202","LANDMARKNA":"市立南港高工","LANDMARKAD":"6300009","ADDRESS":"台北市南港區興中路29號","TEL":"02-27825432","COUNTYNAME":"台北市","TOWNNAME":"南港區","MARKTYPE":"992","Class":"2"},"geometry":{"x":311263.79449999984,"y":2772154.2656999994}},{"attributes":{"OBJECTID":8329,"LANDMARKID":"6300000000462","LANDMARKCO":"202","LANDMARKNA":"市立育成高中","LANDMARKAD":"6300009","ADDRESS":"台北市南港區重陽路366號","TEL":"02-26530475","COUNTYNAME":"台北市","TOWNNAME":"南港區","MARKTYPE":"992","Class":"2"},"geometry":{"x":311461.83270000014,"y":2772415.8764999993}},{"attributes":{"OBJECTID":8330,"LANDMARKID":"6300000000609","LANDMARKCO":"203","LANDMARKNA":"市立成德國中","LANDMARKAD":"6300009","ADDRESS":"台北市南港區東新街108巷23號","TEL":"02-26515636","COUNTYNAME":"台北市","TOWNNAME":"南港區","MARKTYPE":"992","Class":"2"},"geometry":{"x":309312.61060000025,"y":2770897.0164000001}},{"attributes":{"OBJECTID":8331,"LANDMARKID":"6300000000610","LANDMARKCO":"203","LANDMARKNA":"市立誠正國中","LANDMARKAD":"6300009","ADDRESS":"台北市南港區富康街1巷24號","TEL":"02-27828094","COUNTYNAME":"台北市","TOWNNAME":"南港區","MARKTYPE":"992","Class":"2"},"geometry":{"x":312430.92760000005,"y":2771913.2980000004}},{"attributes":{"OBJECTID":8332,"LANDMARKID":"6300000000611","LANDMARKCO":"203","LANDMARKNA":"市立玉成國小","LANDMARKAD":"6300009","ADDRESS":"台北市南港區西新里向陽路31號","TEL":"02-27828046","COUNTYNAME":"台北市","TOWNNAME":"南港區","MARKTYPE":"992","Class":"2"},"geometry":{"x":310010.40890000015,"y":2771848.1174999997}},{"attributes":{"OBJECTID":8333,"LANDMARKID":"6300000000612","LANDMARKCO":"203","LANDMARKNA":"市立修德國小","LANDMARKAD":"6300009","ADDRESS":"台北市南港區東新街118巷86號","TEL":"02-27880500","COUNTYNAME":"台北市","TOWNNAME":"南港區","MARKTYPE":"992","Class":"2"},"geometry":{"x":309498.00059999991,"y":2770951.6766999997}},{"attributes":{"OBJECTID":8334,"LANDMARKID":"6300000000613","LANDMARKCO":"203","LANDMARKNA":"市立成德國小","LANDMARKAD":"6300009","ADDRESS":"台北市南港區聯成里東新街65號","TEL":"02-27851376","COUNTYNAME":"台北市","TOWNNAME":"南港區","MARKTYPE":"992","Class":"2"},"geometry":{"x":309219.02020000014,"y":2771099.6724999994}},{"attributes":{"OBJECTID":8335,"LANDMARKID":"6300000000614","LANDMARKCO":"203","LANDMARKNA":"市立南港國小","LANDMARKAD":"6300009","ADDRESS":"台北市南港區三重里南港路一段38號","TEL":"02-27833550","COUNTYNAME":"台北市","TOWNNAME":"南港區","MARKTYPE":"992","Class":"2"},"geometry":{"x":312134.71600000001,"y":2772051.6248000003}},{"attributes":{"OBJECTID":8336,"LANDMARKID":"6300000000615","LANDMARKCO":"203","LANDMARKNA":"市立東新國小","LANDMARKAD":"6300009","ADDRESS":"台北市南港區東新里興南街62號","TEL":"02-27837577","COUNTYNAME":"台北市","TOWNNAME":"南港區","MARKTYPE":"992","Class":"2"},"geometry":{"x":310744.22140000015,"y":2772136.0901999995}},{"attributes":{"OBJECTID":8337,"LANDMARKID":"6300000000616","LANDMARKCO":"203","LANDMARKNA":"市立舊莊國小","LANDMARKAD":"6300009","ADDRESS":"台北市南港區舊莊里舊莊街一段100號","TEL":"02-27821418","COUNTYNAME":"台北市","TOWNNAME":"南港區","MARKTYPE":"992","Class":"2"},"geometry":{"x":312521.8563000001,"y":2770380.9444999993}},{"attributes":{"OBJECTID":8338,"LANDMARKID":"6300000000617","LANDMARKCO":"203","LANDMARKNA":"市立胡適國小","LANDMARKAD":"6300009","ADDRESS":"台北市南港區中研里舊莊街一段1號","TEL":"02-27824949","COUNTYNAME":"台北市","TOWNNAME":"南港區","MARKTYPE":"992","Class":"2"},"geometry":{"x":312281.74480000045,"y":2770615.5051000006}},{"attributes":{"OBJECTID":8339,"LANDMARKID":"6300000000407","LANDMARKCO":"201","LANDMARKNA":"中華技術學院","LANDMARKAD":"6300009","ADDRESS":"台北市南港區研究院路三段245號","TEL":"02-27821683","COUNTYNAME":"台北市","TOWNNAME":"南港區","MARKTYPE":"992","Class":"2"},"geometry":{"x":311549.6305999998,"y":2769636.5375999995}},{"attributes":{"OBJECTID":8340,"LANDMARKID":"6300000001316","LANDMARKCO":"303","LANDMARKNA":"向陽停車場","LANDMARKAD":"6300009","ADDRESS":"台北市南港區向陽路145之1號","TEL":" ","COUNTYNAME":"台北市","TOWNNAME":"南港區","MARKTYPE":"993","Class":"303"},"geometry":{"x":310053.25140000042,"y":2771850.4778000005}},{"attributes":{"OBJECTID":8341,"LANDMARKID":"6300000001317","LANDMARKCO":"303","LANDMARKNA":"成德立體停車場","LANDMARKAD":"6300009","ADDRESS":"台北市南港區成福路1號","TEL":" ","COUNTYNAME":"台北市","TOWNNAME":"南港區","MARKTYPE":"993","Class":"303"},"geometry":{"x":309496.17949999962,"y":2770296.7787999995}},{"attributes":{"OBJECTID":8342,"LANDMARKID":"6300000002065","LANDMARKCO":"308","LANDMARKNA":"南深路出口匝道","LANDMARKAD":"6300009","ADDRESS":"台北市南港區","TEL":" ","COUNTYNAME":"台北市","TOWNNAME":"南港區","MARKTYPE":"993","Class":"308"},"geometry":{"x":312695.18049999978,"y":2769883.3772999998}},{"attributes":{"OBJECTID":8343,"LANDMARKID":"6300000002066","LANDMARKCO":"308","LANDMARKNA":"南深路出口匝道","LANDMARKAD":"6300009","ADDRESS":"台北市南港區","TEL":" ","COUNTYNAME":"台北市","TOWNNAME":"南港區","MARKTYPE":"993","Class":"308"},"geometry":{"x":312182.11390000023,"y":2769562.1998999994}},{"attributes":{"OBJECTID":8344,"LANDMARKID":"6300000002067","LANDMARKCO":"308","LANDMARKNA":"國5-南港系統交流道-北上","LANDMARKAD":"6300009","ADDRESS":"台北市南港區","TEL":" ","COUNTYNAME":"台北市","TOWNNAME":"南港區","MARKTYPE":"993","Class":"308"},"geometry":{"x":312810.21239999961,"y":2769966.1669999994}},{"attributes":{"OBJECTID":8345,"LANDMARKID":"6300000002068","LANDMARKCO":"308","LANDMARKNA":"國5-南港系統交流道-南下","LANDMARKAD":"6300009","ADDRESS":"台北市南港區","TEL":" ","COUNTYNAME":"台北市","TOWNNAME":"南港區","MARKTYPE":"993","Class":"308"},"geometry":{"x":312429.56400000025,"y":2769808.0283000004}},{"attributes":{"OBJECTID":8346,"LANDMARKID":"6300000001881","LANDMARKCO":"306","LANDMARKNA":"昆陽捷運站-出口4","LANDMARKAD":"6300009","ADDRESS":" ","TEL":" ","COUNTYNAME":"台北市","TOWNNAME":"南港區","MARKTYPE":"993","Class":"306"},"geometry":{"x":309929.97539999988,"y":2771508.1565000005}},{"attributes":{"OBJECTID":8347,"LANDMARKID":"6300000001882","LANDMARKCO":"306","LANDMARKNA":"昆陽捷運站-出口1","LANDMARKAD":"6300009","ADDRESS":" ","TEL":" ","COUNTYNAME":"台北市","TOWNNAME":"南港區","MARKTYPE":"993","Class":"306"},"geometry":{"x":309801.62689999957,"y":2771479.7891000006}},{"attributes":{"OBJECTID":8348,"LANDMARKID":"6300000001883","LANDMARKCO":"306","LANDMARKNA":"昆陽捷運站-出口3","LANDMARKAD":"6300009","ADDRESS":" ","TEL":" ","COUNTYNAME":"台北市","TOWNNAME":"南港區","MARKTYPE":"993","Class":"306"},"geometry":{"x":309902.10560000036,"y":2771513.6454000007}},{"attributes":{"OBJECTID":8349,"LANDMARKID":"6300000001884","LANDMARKCO":"306","LANDMARKNA":"昆陽捷運站-出口2","LANDMARKAD":"6300009","ADDRESS":" ","TEL":" ","COUNTYNAME":"台北市","TOWNNAME":"南港區","MARKTYPE":"993","Class":"306"},"geometry":{"x":309820.89719999954,"y":2771494.9069999997}},{"attributes":{"OBJECTID":8350,"LANDMARKID":"6300000001885","LANDMARKCO":"306","LANDMARKNA":"後山埤捷運站-出口3","LANDMARKAD":"6300009","ADDRESS":" ","TEL":" ","COUNTYNAME":"台北市","TOWNNAME":"南港區","MARKTYPE":"993","Class":"306"},"geometry":{"x":308844.18809999991,"y":2770916.7588}},{"attributes":{"OBJECTID":8351,"LANDMARKID":"6300000001886","LANDMARKCO":"306","LANDMARKNA":"後山埤捷運站-出口4","LANDMARKAD":"6300009","ADDRESS":" ","TEL":" ","COUNTYNAME":"台北市","TOWNNAME":"南港區","MARKTYPE":"993","Class":"306"},"geometry":{"x":308774.00580000039,"y":2770959.6327}},{"attributes":{"OBJECTID":8352,"LANDMARKID":"6300000001887","LANDMARKCO":"306","LANDMARKNA":"南港捷運站-出口1","LANDMARKAD":"6300009","ADDRESS":" ","TEL":" ","COUNTYNAME":"台北市","TOWNNAME":"南港區","MARKTYPE":"993","Class":"306"},"geometry":{"x":311212.43070000038,"y":2771745.9802999999}},{"attributes":{"OBJECTID":8353,"LANDMARKID":"6300000001888","LANDMARKCO":"306","LANDMARKNA":"南港捷運站-出口2","LANDMARKAD":"6300009","ADDRESS":" ","TEL":" ","COUNTYNAME":"台北市","TOWNNAME":"南港區","MARKTYPE":"993","Class":"306"},"geometry":{"x":311435.90780000016,"y":2771733.1236000005}},{"attributes":{"OBJECTID":8354,"LANDMARKID":"6300000001889","LANDMARKCO":"306","LANDMARKNA":"南港捷運站-出口3","LANDMARKAD":"6300009","ADDRESS":" ","TEL":" ","COUNTYNAME":"台北市","TOWNNAME":"南港區","MARKTYPE":"993","Class":"306"},"geometry":{"x":311424.04789999966,"y":2771844.7777999993}},{"attributes":{"OBJECTID":8355,"LANDMARKID":"6300000001890","LANDMARKCO":"306","LANDMARKNA":"南港捷運站-出口4","LANDMARKAD":"6300009","ADDRESS":" ","TEL":" ","COUNTYNAME":"台北市","TOWNNAME":"南港區","MARKTYPE":"993","Class":"306"},"geometry":{"x":311204.98550000042,"y":2771809.5135999992}},{"attributes":{"OBJECTID":8356,"LANDMARKID":"6300000000856","LANDMARKCO":"302","LANDMARKNA":"台北客運-中華站","LANDMARKAD":"6300009","ADDRESS":"台北市南港區研究院路三段168號","TEL":"2653-7067","COUNTYNAME":"台北市","TOWNNAME":"南港區","MARKTYPE":"993","Class":"302"},"geometry":{"x":311650.57430000044,"y":2769653.7388000004}},{"attributes":{"OBJECTID":8357,"LANDMARKID":"6300000000857","LANDMARKCO":"302","LANDMARKNA":"大有巴士","LANDMARKAD":"6300009","ADDRESS":"115台北市南港區研究院路3段168號","TEL":"|","COUNTYNAME":"台北市","TOWNNAME":"南港區","MARKTYPE":"993","Class":"302"},"geometry":{"x":311650.57430000044,"y":2769653.7388000004}},{"attributes":{"OBJECTID":8358,"LANDMARKID":"6300000000858","LANDMARKCO":"302","LANDMARKNA":"大有巴士舊庄站","LANDMARKAD":"6300009","ADDRESS":"台北市南港區舊庄街二段17號","TEL":" ","COUNTYNAME":"台北市","TOWNNAME":"南港區","MARKTYPE":"993","Class":"302"},"geometry":{"x":313291.9665000001,"y":2770071.3972999994}},{"attributes":{"OBJECTID":8359,"LANDMARKID":"6300000000859","LANDMARKCO":"302","LANDMARKNA":"大有巴士松山商職站","LANDMARKAD":"6300009","ADDRESS":"台北市南港區成福路272號","TEL":" ","COUNTYNAME":"台北市","TOWNNAME":"南港區","MARKTYPE":"993","Class":"302"},"geometry":{"x":309595.1771999998,"y":2770030.4990999997}},{"attributes":{"OBJECTID":8360,"LANDMARKID":"6300000000860","LANDMARKCO":"302","LANDMARKNA":"大有巴士凌雲五村站","LANDMARKAD":"6300009","ADDRESS":"台北市南港區研究院路三段168號","TEL":" ","COUNTYNAME":"台北市","TOWNNAME":"南港區","MARKTYPE":"993","Class":"302"},"geometry":{"x":312024.59219999984,"y":2769771.1026000008}},{"attributes":{"OBJECTID":8361,"LANDMARKID":"6300000001292","LANDMARKCO":"303","LANDMARKNA":"金和興停車場","LANDMARKAD":"6300009","ADDRESS":"台北市南港區玉成街","TEL":" ","COUNTYNAME":"台北市","TOWNNAME":"南港區","MARKTYPE":"993","Class":"303"},"geometry":{"x":309058.08110000007,"y":2770724.4132000003}},{"attributes":{"OBJECTID":8362,"LANDMARKID":"6300000001293","LANDMARKCO":"303","LANDMARKNA":"忠孝醫院地下停車場","LANDMARKAD":"6300009","ADDRESS":"台北市南港區同德路87號B1樓","TEL":" ","COUNTYNAME":"台北市","TOWNNAME":"南港區","MARKTYPE":"993","Class":"303"},"geometry":{"x":309096.78969999962,"y":2771074.8128999993}},{"attributes":{"OBJECTID":8363,"LANDMARKID":"6300000001294","LANDMARKCO":"303","LANDMARKNA":"中視地下停車場","LANDMARKAD":"6300009","ADDRESS":"台北市南港區重陽路120號","TEL":" ","COUNTYNAME":"台北市","TOWNNAME":"南港區","MARKTYPE":"993","Class":"303"},"geometry":{"x":310478.7276999997,"y":2772178.6136000007}},{"attributes":{"OBJECTID":8364,"LANDMARKID":"6300000001295","LANDMARKCO":"303","LANDMARKNA":"一心停車場","LANDMARKAD":"6300009","ADDRESS":"台北市南港區","TEL":" ","COUNTYNAME":"台北市","TOWNNAME":"南港區","MARKTYPE":"993","Class":"303"},"geometry":{"x":310826.88279999979,"y":2771871.6668999996}},{"attributes":{"OBJECTID":8365,"LANDMARKID":"6300000001296","LANDMARKCO":"303","LANDMARKNA":"家樂福南港店平面停車場","LANDMARKAD":"6300009","ADDRESS":"台北市南港區南港路二段","TEL":" ","COUNTYNAME":"台北市","TOWNNAME":"南港區","MARKTYPE":"993","Class":"303"},"geometry":{"x":311029.79640000034,"y":2772015.9466999993}},{"attributes":{"OBJECTID":8366,"LANDMARKID":"6300000001297","LANDMARKCO":"303","LANDMARKNA":"松山570k01、507k02廣場停車場","LANDMARKAD":"6300009","ADDRESS":"台北市南港區忠孝東路","TEL":" ","COUNTYNAME":"台北市","TOWNNAME":"南港區","MARKTYPE":"993","Class":"303"},"geometry":{"x":311100.79629999958,"y":2771870.9842000008}},{"attributes":{"OBJECTID":8367,"LANDMARKID":"6300000001298","LANDMARKCO":"303","LANDMARKNA":"南港區行政中心地下停車場","LANDMARKAD":"6300009","ADDRESS":"台北市南港區南港路一段360號B1樓","TEL":" ","COUNTYNAME":"台北市","TOWNNAME":"南港區","MARKTYPE":"993","Class":"303"},"geometry":{"x":311242.34640000015,"y":2771955.773}},{"attributes":{"OBJECTID":8368,"LANDMARKID":"6300000001299","LANDMARKCO":"303","LANDMARKNA":"南港經貿園區R16平面停車場","LANDMARKAD":"6300009","ADDRESS":"台北市南港區惠民街21號","TEL":" ","COUNTYNAME":"台北市","TOWNNAME":"南港區","MARKTYPE":"993","Class":"303"},"geometry":{"x":311627.7723000003,"y":2772150.8274000008}},{"attributes":{"OBJECTID":8369,"LANDMARKID":"6300000001300","LANDMARKCO":"303","LANDMARKNA":"永雄停車場","LANDMARKAD":"6300009","ADDRESS":"台北市南港區園區街44號旁空地","TEL":" ","COUNTYNAME":"台北市","TOWNNAME":"南港區","MARKTYPE":"993","Class":"303"},"geometry":{"x":311823.15620000008,"y":2772493.0225000009}},{"attributes":{"OBJECTID":8370,"LANDMARKID":"6300000001301","LANDMARKCO":"303","LANDMARKNA":"南港經貿園區C11平面停車場","LANDMARKAD":"6300009","ADDRESS":"台北市南港區三重路19之7號","TEL":" ","COUNTYNAME":"台北市","TOWNNAME":"南港區","MARKTYPE":"993","Class":"303"},"geometry":{"x":312002.42520000041,"y":2772380.0182000007}},{"attributes":{"OBJECTID":8371,"LANDMARKID":"6300000001302","LANDMARKCO":"303","LANDMARKNA":"胡適公園停車場","LANDMARKAD":"6300009","ADDRESS":"台北市南港區研究院路三段","TEL":" ","COUNTYNAME":"台北市","TOWNNAME":"南港區","MARKTYPE":"993","Class":"303"},"geometry":{"x":312283.70600000024,"y":2770508.1297999993}},{"attributes":{"OBJECTID":8372,"LANDMARKID":"6300000001303","LANDMARKCO":"303","LANDMARKNA":"南港經貿園區平面停車場","LANDMARKAD":"6300009","ADDRESS":"台北市南港區","TEL":" ","COUNTYNAME":"台北市","TOWNNAME":"南港區","MARKTYPE":"993","Class":"303"},"geometry":{"x":312182.69049999956,"y":2772187.6785000004}},{"attributes":{"OBJECTID":8373,"LANDMARKID":"6300000001304","LANDMARKCO":"303","LANDMARKNA":"南港經貿園區C11平面停車場","LANDMARKAD":"6300009","ADDRESS":"台北市南港區三重路","TEL":" ","COUNTYNAME":"台北市","TOWNNAME":"南港區","MARKTYPE":"993","Class":"303"},"geometry":{"x":311880.85429999977,"y":2772165.9050999992}},{"attributes":{"OBJECTID":8374,"LANDMARKID":"6300000001305","LANDMARKCO":"303","LANDMARKNA":"北市立忠孝醫院地下停車場","LANDMARKAD":"6300009","ADDRESS":"台北市南港區同德路57號B2樓","TEL":" ","COUNTYNAME":"台北市","TOWNNAME":"南港區","MARKTYPE":"993","Class":"303"},"geometry":{"x":309020.39309999999,"y":2770967.4061999992}},{"attributes":{"OBJECTID":8375,"LANDMARKID":"6300000001306","LANDMARKCO":"303","LANDMARKNA":"南港研究院路停車場","LANDMARKAD":"6300009","ADDRESS":"台北市南港區研究院路2段84向南側","TEL":" ","COUNTYNAME":"台北市","TOWNNAME":"南港區","MARKTYPE":"993","Class":"303"},"geometry":{"x":312082.98720000032,"y":2770932.1964999996}},{"attributes":{"OBJECTID":8376,"LANDMARKID":"6300000001307","LANDMARKCO":"303","LANDMARKNA":"南港公園平面停車場","LANDMARKAD":"6300009","ADDRESS":"台北市南港區東新街170號","TEL":" ","COUNTYNAME":"台北市","TOWNNAME":"南港區","MARKTYPE":"993","Class":"303"},"geometry":{"x":309657.65309999976,"y":2771004.1543000005}},{"attributes":{"OBJECTID":8377,"LANDMARKID":"6300000001308","LANDMARKCO":"303","LANDMARKNA":"南港遠東科學園區停車場","LANDMARKAD":"6300009","ADDRESS":"台北市南港區南港路三段50巷1之33號","TEL":" ","COUNTYNAME":"台北市","TOWNNAME":"南港區","MARKTYPE":"993","Class":"303"},"geometry":{"x":309694.98510000017,"y":2771976.5338000003}},{"attributes":{"OBJECTID":8378,"LANDMARKID":"6300000001309","LANDMARKCO":"303","LANDMARKNA":"興中立體停車場","LANDMARKAD":"6300009","ADDRESS":"台北市南港區興中路44巷1號","TEL":" ","COUNTYNAME":"台北市","TOWNNAME":"南港區","MARKTYPE":"993","Class":"303"},"geometry":{"x":311238.99710000027,"y":2772130.0260000005}},{"attributes":{"OBJECTID":8379,"LANDMARKID":"6300000001310","LANDMARKCO":"303","LANDMARKNA":"南港經貿園區R16平面停車場","LANDMARKAD":"6300009","ADDRESS":"台北市南港區","TEL":" ","COUNTYNAME":"台北市","TOWNNAME":"南港區","MARKTYPE":"993","Class":"303"},"geometry":{"x":311723.20170000009,"y":2772181.8889000006}},{"attributes":{"OBJECTID":8380,"LANDMARKID":"6300000001311","LANDMARKCO":"303","LANDMARKNA":"福山平面停車場","LANDMARKAD":"6300009","ADDRESS":"台北市南港區研究院路2段37巷","TEL":" ","COUNTYNAME":"台北市","TOWNNAME":"南港區","MARKTYPE":"993","Class":"303"},"geometry":{"x":312099.01709999982,"y":2771003.1301000006}},{"attributes":{"OBJECTID":8381,"LANDMARKID":"6300000001312","LANDMARKCO":"303","LANDMARKNA":"應安停車場-南港場","LANDMARKAD":"6300009","ADDRESS":"台北市南港區興南街166號對面空地","TEL":"0980-933203　","COUNTYNAME":"台北市","TOWNNAME":"南港區","MARKTYPE":"993","Class":"303"},"geometry":{"x":310324.60340000037,"y":2771949.1031999998}},{"attributes":{"OBJECTID":8382,"LANDMARKID":"6300000001313","LANDMARKCO":"303","LANDMARKNA":"永固停車場-南港站","LANDMARKAD":"6300009","ADDRESS":"台北市南港區新民街37號旁空地","TEL":" ","COUNTYNAME":"台北市","TOWNNAME":"南港區","MARKTYPE":"993","Class":"303"},"geometry":{"x":311792.72499999963,"y":2772103.7885999996}},{"attributes":{"OBJECTID":8383,"LANDMARKID":"6300000001314","LANDMARKCO":"303","LANDMARKNA":"永固停車場-南港二","LANDMARKAD":"6300009","ADDRESS":"台北市南港區新民街37號旁空地","TEL":"02-27828831","COUNTYNAME":"台北市","TOWNNAME":"南港區","MARKTYPE":"993","Class":"303"},"geometry":{"x":311792.72499999963,"y":2772103.7885999996}},{"attributes":{"OBJECTID":8384,"LANDMARKID":"6300000001315","LANDMARKCO":"303","LANDMARKNA":"中興嘟嘟房停車場-南港經貿站","LANDMARKAD":"6300009","ADDRESS":"經貿二路105巷與經貿一路交叉口旁空地","TEL":"02-27836308","COUNTYNAME":"台北市","TOWNNAME":"南港區","MARKTYPE":"993","Class":"303"},"geometry":{"x":312112.38320000004,"y":2772629.7597000003}},{"attributes":{"OBJECTID":8385,"LANDMARKID":"6300000000836","LANDMARKCO":"301","LANDMARKNA":"南港火車站","LANDMARKAD":"6300009","ADDRESS":"臺北市南港區南港路1段313號","TEL":"02-27838645","COUNTYNAME":"台北市","TOWNNAME":"南港區","MARKTYPE":"993","Class":"301"},"geometry":{"x":311290.2611999996,"y":2771840.8397000004}},{"attributes":{"OBJECTID":8386,"LANDMARKID":"6300000002137","LANDMARKCO":"402","LANDMARKNA":"中華電信-台北後山埤特約服務中心","LANDMARKAD":"6300009","ADDRESS":"台北市南港區忠孝東路五段998號","TEL":"02-27886622","COUNTYNAME":"台北市","TOWNNAME":"南港區","MARKTYPE":"994","Class":"4"},"geometry":{"x":308817.28859999962,"y":2770892.9923999999}},{"attributes":{"OBJECTID":8387,"LANDMARKID":"6300000002138","LANDMARKCO":"402","LANDMARKNA":"中華電信-南港服務中心","LANDMARKAD":"6300009","ADDRESS":"台北市南港路一段356號","TEL":" ","COUNTYNAME":"台北市","TOWNNAME":"南港區","MARKTYPE":"994","Class":"4"},"geometry":{"x":311383.05069999956,"y":2771994.9934999999}},{"attributes":{"OBJECTID":8388,"LANDMARKID":"6300000002139","LANDMARKCO":"402","LANDMARKNA":"威寶電信-台北南港特約服務中心","LANDMARKAD":"6300009","ADDRESS":"台北市南港區南港里南港路一段125號","TEL":"02-26547812","COUNTYNAME":"台北市","TOWNNAME":"南港區","MARKTYPE":"994","Class":"4"},"geometry":{"x":311975.12579999957,"y":2772011.8502999991}},{"attributes":{"OBJECTID":8389,"LANDMARKID":"6300000002140","LANDMARKCO":"402","LANDMARKNA":"大眾電信(震旦通訊)-台北忠孝二店","LANDMARKAD":"6300009","ADDRESS":"台北市忠孝東路五段811號","TEL":"02-26533522","COUNTYNAME":"台北市","TOWNNAME":"南港區","MARKTYPE":"994","Class":"4"},"geometry":{"x":308738.13920000009,"y":2770858.3331000004}},{"attributes":{"OBJECTID":8390,"LANDMARKID":"6300000002141","LANDMARKCO":"402","LANDMARKNA":"大眾電信-南港專賣店","LANDMARKAD":"6300009","ADDRESS":"台北市南港區南港路一段159號","TEL":"02-27892900","COUNTYNAME":"台北市","TOWNNAME":"南港區","MARKTYPE":"994","Class":"4"},"geometry":{"x":311900.17590000015,"y":2772021.9214999992}},{"attributes":{"OBJECTID":8391,"LANDMARKID":"6300000002142","LANDMARKCO":"402","LANDMARKNA":"大眾電信(震旦通訊)-台北南港店","LANDMARKAD":"6300009","ADDRESS":"台北市南港路三段5號","TEL":"02-26548208","COUNTYNAME":"台北市","TOWNNAME":"南港區","MARKTYPE":"994","Class":"4"},"geometry":{"x":309741.60800000001,"y":2771892.8179000001}},{"attributes":{"OBJECTID":8392,"LANDMARKID":"6300000003552","LANDMARKCO":"603","LANDMARKNA":"豪祥大旅社","LANDMARKAD":"6300009","ADDRESS":"台北市南港區中坡北路110號B2-6樓","TEL":"02-27854117","COUNTYNAME":"台北市","TOWNNAME":"南港區","MARKTYPE":"996","Class":"6"},"geometry":{"x":308560.71810000017,"y":2771299.8896999992}},{"attributes":{"OBJECTID":8393,"LANDMARKID":"6300000003553","LANDMARKCO":"603","LANDMARKNA":"新建發旅社","LANDMARKAD":"6300009","ADDRESS":"台北市南港區東南街38號1-2樓","TEL":"02-27834439","COUNTYNAME":"台北市","TOWNNAME":"南港區","MARKTYPE":"996","Class":"6"},"geometry":{"x":311766.84119999968,"y":2771948.5254999995}},{"attributes":{"OBJECTID":8394,"LANDMARKID":"6300000003554","LANDMARKCO":"603","LANDMARKNA":"香港大旅社","LANDMARKAD":"6300009","ADDRESS":"台北市南港區南港路一段214號2-3樓","TEL":"02-27834575","COUNTYNAME":"台北市","TOWNNAME":"南港區","MARKTYPE":"996","Class":"6"},"geometry":{"x":311611.18530000001,"y":2772023.9658000004}},{"attributes":{"OBJECTID":8395,"LANDMARKID":"6300000003555","LANDMARKCO":"603","LANDMARKNA":"南港安樂旅社","LANDMARKAD":"6300009","ADDRESS":"台北市南港區南港路一段229號2-3樓","TEL":"02-26511797","COUNTYNAME":"台北市","TOWNNAME":"南港區","MARKTYPE":"996","Class":"6"},"geometry":{"x":311622.08600000013,"y":2772001.9166000001}},{"attributes":{"OBJECTID":8396,"LANDMARKID":"6300000003556","LANDMARKCO":"603","LANDMARKNA":"法皇商務旅館","LANDMARKAD":"6300009","ADDRESS":"台北市南港區重陽路122號","TEL":"02-27890505","COUNTYNAME":"台北市","TOWNNAME":"南港區","MARKTYPE":"996","Class":"6"},"geometry":{"x":310532.64639999997,"y":2772209.7898999993}},{"attributes":{"OBJECTID":8397,"LANDMARKID":"6300000003557","LANDMARKCO":"603","LANDMARKNA":"威斯堡精品旅館","LANDMARKAD":"6300009","ADDRESS":"台北市南港區重陽路57巷15號","TEL":"02-26510101","COUNTYNAME":"台北市","TOWNNAME":"南港區","MARKTYPE":"996","Class":"6"},"geometry":{"x":310181.33210000023,"y":2772138.1089999992}},{"attributes":{"OBJECTID":8398,"LANDMARKID":"6300000002423","LANDMARKCO":"405","LANDMARKNA":"山隆加油站-華中站(中油)","LANDMARKAD":"6300007","ADDRESS":"台北市萬華區萬大路388號","TEL":"(02)2337-8460","COUNTYNAME":"台北市","TOWNNAME":"萬華區","MARKTYPE":"994","Class":"4"},"geometry":{"x":300331.02440000046,"y":2768294.8238999993}},{"attributes":{"OBJECTID":8399,"LANDMARKID":"6300000002424","LANDMARKCO":"405","LANDMARKNA":"山隆加油站-萬大站(中油)","LANDMARKAD":"6300007","ADDRESS":"台北市萬華區萬大路207號","TEL":"(02)2337-5690","COUNTYNAME":"台北市","TOWNNAME":"萬華區","MARKTYPE":"994","Class":"4"},"geometry":{"x":300521.96800000034,"y":2768879.3397000004}},{"attributes":{"OBJECTID":8400,"LANDMARKID":"6300000002425","LANDMARKCO":"405","LANDMARKNA":"中油加油站-環河南路站(中油直營)","LANDMARKAD":"6300007","ADDRESS":"台北市萬華區環河南路二段274之2及177之1","TEL":"02-23040528","COUNTYNAME":"台北市","TOWNNAME":"萬華區","MARKTYPE":"994","Class":"4"},"geometry":{"x":299637.20949999988,"y":2769503.4141000006}}]}