{"displayFieldName":"COUNTYNAME","fieldAliases":{"OBJECTID":"OBJECTID","LANDMARKID":"LANDMARKID","LANDMARKCO":"LANDMARKCO","LANDMARKNA":"LANDMARKNA","LANDMARKAD":"LANDMARKAD","ADDRESS":"ADDRESS","TEL":"TEL","COUNTYNAME":"COUNTYNAME","TOWNNAME":"TOWNNAME","MARKTYPE":"MARKTYPE","Class":"Class"},"geometryType":"esriGeometryPoint","spatialReference":{"wkid":102443},"fields":[{"name":"OBJECTID","type":"esriFieldTypeOID","alias":"OBJECTID"},{"name":"LANDMARKID","type":"esriFieldTypeString","alias":"LANDMARKID","length":15},{"name":"LANDMARKCO","type":"esriFieldTypeString","alias":"LANDMARKCO","length":15},{"name":"LANDMARKNA","type":"esriFieldTypeString","alias":"LANDMARKNA","length":50},{"name":"LANDMARKAD","type":"esriFieldTypeString","alias":"LANDMARKAD","length":15},{"name":"ADDRESS","type":"esriFieldTypeString","alias":"ADDRESS","length":56},{"name":"TEL","type":"esriFieldTypeString","alias":"TEL","length":36},{"name":"COUNTYNAME","type":"esriFieldTypeString","alias":"COUNTYNAME","length":15},{"name":"TOWNNAME","type":"esriFieldTypeString","alias":"TOWNNAME","length":13},{"name":"MARKTYPE","type":"esriFieldTypeString","alias":"MARKTYPE","length":12},{"name":"Class","type":"esriFieldTypeString","alias":"Class","length":5}],"features":[{"attributes":{"OBJECTID":21401,"LANDMARKID":"6400000000172","LANDMARKCO":"107","LANDMARKNA":"高雄市政府警察局自強路派出所","LANDMARKAD":"6400007","ADDRESS":"高雄市前金區社東里自強二路63號","TEL":"07-2910188","COUNTYNAME":"高雄市","TOWNNAME":"前金區","MARKTYPE":"991","Class":"1"},"geometry":{"x":177598.67009999976,"y":2502808.8619999997}},{"attributes":{"OBJECTID":21402,"LANDMARKID":"6400000000173","LANDMARKCO":"107","LANDMARKNA":"高雄市政府警察局前金分駐所","LANDMARKAD":"6400007","ADDRESS":"高雄市前金區東金里中正四路174號","TEL":"07-2212901","COUNTYNAME":"高雄市","TOWNNAME":"前金區","MARKTYPE":"991","Class":"1"},"geometry":{"x":177488.09350000042,"y":2503400.3248999994}},{"attributes":{"OBJECTID":21403,"LANDMARKID":"6400000000174","LANDMARKCO":"107","LANDMARKNA":"高雄市消防局前金消防分隊","LANDMARKAD":"6400007","ADDRESS":"高雄市前金區中正四路191號2樓","TEL":"07-2613836","COUNTYNAME":"高雄市","TOWNNAME":"前金區","MARKTYPE":"991","Class":"1"},"geometry":{"x":177459.73190000001,"y":2503329.5461999997}},{"attributes":{"OBJECTID":21404,"LANDMARKID":"6400000000119","LANDMARKCO":"106","LANDMARKNA":"高雄市前金區戶政事務所","LANDMARKAD":"6400007","ADDRESS":"高雄市前金區林投里10鄰自強二路169號","TEL":"07-2911091","COUNTYNAME":"高雄市","TOWNNAME":"前金區","MARKTYPE":"991","Class":"1"},"geometry":{"x":177455.82409999985,"y":2503213.5344999991}},{"attributes":{"OBJECTID":21405,"LANDMARKID":"6400000000021","LANDMARKCO":"101","LANDMARKNA":"經濟部國際貿易局高雄辦事處","LANDMARKAD":"6400007","ADDRESS":"高雄市前金區中正四路103號2樓","TEL":"07-2711171~7","COUNTYNAME":"高雄市","TOWNNAME":"前金區","MARKTYPE":"991","Class":"1"},"geometry":{"x":177863.27329999954,"y":2503467.7474000007}},{"attributes":{"OBJECTID":21406,"LANDMARKID":"6400000000022","LANDMARKCO":"101","LANDMARKNA":"台灣高雄地方法院高雄簡易庭","LANDMARKAD":"6400007","ADDRESS":"高雄市前金區河東路188號","TEL":"07-2161225","COUNTYNAME":"高雄市","TOWNNAME":"前金區","MARKTYPE":"991","Class":"1"},"geometry":{"x":176966.60080000013,"y":2503066.5691999998}},{"attributes":{"OBJECTID":21407,"LANDMARKID":"6400000000023","LANDMARKCO":"101","LANDMARKNA":"台灣高雄地方法院","LANDMARKAD":"6400007","ADDRESS":"高雄市前金區河東路188號","TEL":"07-2161418","COUNTYNAME":"高雄市","TOWNNAME":"前金區","MARKTYPE":"991","Class":"1"},"geometry":{"x":176966.60080000013,"y":2503066.5691999998}},{"attributes":{"OBJECTID":21408,"LANDMARKID":"6400000000024","LANDMARKCO":"101","LANDMARKNA":"調查局高雄市調查站","LANDMARKAD":"6400007","ADDRESS":"高雄市前金區中正四路226號","TEL":"07-2711131","COUNTYNAME":"高雄市","TOWNNAME":"前金區","MARKTYPE":"991","Class":"1"},"geometry":{"x":177307.9029000001,"y":2503332.8258999996}},{"attributes":{"OBJECTID":21409,"LANDMARKID":"6400000000073","LANDMARKCO":"103","LANDMARKNA":"高雄市議會","LANDMARKAD":"6400007","ADDRESS":"高雄市前金區中正四路192號","TEL":"07-2828191","COUNTYNAME":"高雄市","TOWNNAME":"前金區","MARKTYPE":"991","Class":"1"},"geometry":{"x":177375.29739999957,"y":2503355.1458000001}},{"attributes":{"OBJECTID":21410,"LANDMARKID":"6400000000074","LANDMARKCO":"103","LANDMARKNA":"高雄市文獻委員會","LANDMARKAD":"6400007","ADDRESS":"高雄市前金區中正四路211號5樓之3","TEL":"07-2150913","COUNTYNAME":"高雄市","TOWNNAME":"前金區","MARKTYPE":"991","Class":"1"},"geometry":{"x":177321.76850000024,"y":2503278.8916999996}},{"attributes":{"OBJECTID":21411,"LANDMARKID":"6400000000075","LANDMARKCO":"103","LANDMARKNA":"高雄市觀護志工協進會","LANDMARKAD":"6400007","ADDRESS":"高雄市前金區中正四路245號9樓","TEL":"07-2152565轉380","COUNTYNAME":"高雄市","TOWNNAME":"前金區","MARKTYPE":"991","Class":"1"},"geometry":{"x":177235.90799999982,"y":2503249.4837999996}},{"attributes":{"OBJECTID":21412,"LANDMARKID":"6400000000413","LANDMARKCO":"204","LANDMARKNA":"高雄市立智障兒童玩具圖書館","LANDMARKAD":"6400007","ADDRESS":"高雄市前金區民生二路39號","TEL":" ","COUNTYNAME":"高雄市","TOWNNAME":"前金區","MARKTYPE":"992","Class":"2"},"geometry":{"x":177951.64360000007,"y":2503065.8663999997}},{"attributes":{"OBJECTID":21413,"LANDMARKID":"6400000000414","LANDMARKCO":"204","LANDMARKNA":"高雄市立圖書館","LANDMARKAD":"6400007","ADDRESS":"高雄市前金區民生二路80號","TEL":" ","COUNTYNAME":"高雄市","TOWNNAME":"前金區","MARKTYPE":"992","Class":"2"},"geometry":{"x":177716.05620000046,"y":2503054.8058000002}},{"attributes":{"OBJECTID":21414,"LANDMARKID":"6400000000415","LANDMARKCO":"204","LANDMARKNA":"高雄市立圖書館前金閱覽區室","LANDMARKAD":"6400007","ADDRESS":"高雄市前金區民生二路39號","TEL":" ","COUNTYNAME":"高雄市","TOWNNAME":"前金區","MARKTYPE":"992","Class":"2"},"geometry":{"x":177701.23479999974,"y":2502973.3954000007}},{"attributes":{"OBJECTID":21415,"LANDMARKID":"6400000000263","LANDMARKCO":"202","LANDMARKNA":"市立高雄女中","LANDMARKAD":"6400007","ADDRESS":"高雄市前金區五福三路122號","TEL":"07-2115418","COUNTYNAME":"高雄市","TOWNNAME":"前金區","MARKTYPE":"992","Class":"2"},"geometry":{"x":177294.55769999977,"y":2502482.7831999995}},{"attributes":{"OBJECTID":21416,"LANDMARKID":"6400000000336","LANDMARKCO":"203","LANDMARKNA":"市立前金國中","LANDMARKAD":"6400007","ADDRESS":"高雄市前金區六合二路278號","TEL":"07-2725981","COUNTYNAME":"高雄市","TOWNNAME":"前金區","MARKTYPE":"992","Class":"2"},"geometry":{"x":177064.7098000003,"y":2503417.0299999993}},{"attributes":{"OBJECTID":21417,"LANDMARKID":"6400000000337","LANDMARKCO":"203","LANDMARKNA":"市立七賢國中","LANDMARKAD":"6400007","ADDRESS":"高雄市前金區河南二路196號","TEL":"07-2810946","COUNTYNAME":"高雄市","TOWNNAME":"前金區","MARKTYPE":"992","Class":"2"},"geometry":{"x":176754.53859999962,"y":2503738.1581999995}},{"attributes":{"OBJECTID":21418,"LANDMARKID":"6400000000338","LANDMARKCO":"203","LANDMARKNA":"市立前金國小","LANDMARKAD":"6400007","ADDRESS":"高雄市前金區大同二路61號","TEL":"07-2829001","COUNTYNAME":"高雄市","TOWNNAME":"前金區","MARKTYPE":"992","Class":"2"},"geometry":{"x":177419.24220000021,"y":2503082.3610999994}},{"attributes":{"OBJECTID":21419,"LANDMARKID":"6400000000339","LANDMARKCO":"203","LANDMARKNA":"市立建國國小","LANDMARKAD":"6400007","ADDRESS":"高雄市前金區自立二路111號","TEL":"07-2860128","COUNTYNAME":"高雄市","TOWNNAME":"前金區","MARKTYPE":"992","Class":"2"},"geometry":{"x":177827.07899999991,"y":2503746.8199000005}},{"attributes":{"OBJECTID":21420,"LANDMARKID":"6400000000235","LANDMARKCO":"201","LANDMARKNA":"私立基督教書院","LANDMARKAD":"6400007","ADDRESS":"高雄市前金區河東路8號4樓之2","TEL":"07-2812754","COUNTYNAME":"高雄市","TOWNNAME":"前金區","MARKTYPE":"992","Class":"2"},"geometry":{"x":177133.06479999982,"y":2502564.3761999998}},{"attributes":{"OBJECTID":21421,"LANDMARKID":"6400000000629","LANDMARKCO":"306","LANDMARKNA":"市議會捷運站-出口1","LANDMARKAD":"6400007","ADDRESS":" ","TEL":" ","COUNTYNAME":"高雄市","TOWNNAME":"前金區","MARKTYPE":"993","Class":"306"},"geometry":{"x":177387.42009999976,"y":2503388.0353999995}},{"attributes":{"OBJECTID":21422,"LANDMARKID":"6400000000630","LANDMARKCO":"306","LANDMARKNA":"市議會捷運站-出口2","LANDMARKAD":"6400007","ADDRESS":" ","TEL":" ","COUNTYNAME":"高雄市","TOWNNAME":"前金區","MARKTYPE":"993","Class":"306"},"geometry":{"x":177396.45050000027,"y":2503319.1205000002}},{"attributes":{"OBJECTID":21423,"LANDMARKID":"6400000000631","LANDMARKCO":"306","LANDMARKNA":"市議會捷運站-出口3","LANDMARKAD":"6400007","ADDRESS":" ","TEL":" ","COUNTYNAME":"高雄市","TOWNNAME":"前金區","MARKTYPE":"993","Class":"306"},"geometry":{"x":177558.18919999991,"y":2503376.7770000007}},{"attributes":{"OBJECTID":21424,"LANDMARKID":"6400000000632","LANDMARKCO":"306","LANDMARKNA":"市議會捷運站-出口4","LANDMARKAD":"6400007","ADDRESS":" ","TEL":" ","COUNTYNAME":"高雄市","TOWNNAME":"前金區","MARKTYPE":"993","Class":"306"},"geometry":{"x":177546.65909999982,"y":2503408.1886}},{"attributes":{"OBJECTID":21425,"LANDMARKID":"6400000000633","LANDMARKCO":"306","LANDMARKNA":"中央公園捷運站-出口1","LANDMARKAD":"6400007","ADDRESS":" ","TEL":" ","COUNTYNAME":"高雄市","TOWNNAME":"前金區","MARKTYPE":"993","Class":"306"},"geometry":{"x":178085.94620000012,"y":2502918.9662999995}},{"attributes":{"OBJECTID":21426,"LANDMARKID":"6400000000508","LANDMARKCO":"303","LANDMARKNA":"十號公園地下停車場","LANDMARKAD":"6400007","ADDRESS":"高雄市前金區文武一街65號","TEL":" ","COUNTYNAME":"高雄市","TOWNNAME":"前金區","MARKTYPE":"993","Class":"303"},"geometry":{"x":177444.17949999962,"y":2503679.4875000007}},{"attributes":{"OBJECTID":21427,"LANDMARKID":"6400000000509","LANDMARKCO":"303","LANDMARKNA":"大立伊勢丹停車場","LANDMARKAD":"6400007","ADDRESS":"高雄市前金區五福三路57號","TEL":" ","COUNTYNAME":"高雄市","TOWNNAME":"前金區","MARKTYPE":"993","Class":"303"},"geometry":{"x":177818.9486999996,"y":2502569.5187999997}},{"attributes":{"OBJECTID":21428,"LANDMARKID":"6400000000510","LANDMARKCO":"303","LANDMARKNA":"大同醫院附設停車場","LANDMARKAD":"6400007","ADDRESS":"高雄市前金區中華三路68號","TEL":" ","COUNTYNAME":"高雄市","TOWNNAME":"前金區","MARKTYPE":"993","Class":"303"},"geometry":{"x":177728.62629999965,"y":2503195.6506999992}},{"attributes":{"OBJECTID":21429,"LANDMARKID":"6400000000511","LANDMARKCO":"303","LANDMARKNA":"新漢來集團停車場","LANDMARKAD":"6400007","ADDRESS":"高雄市前金區成功一路266號B4-7樓","TEL":" ","COUNTYNAME":"高雄市","TOWNNAME":"前金區","MARKTYPE":"993","Class":"303"},"geometry":{"x":177633.93250000011,"y":2502273.2192000002}},{"attributes":{"OBJECTID":21430,"LANDMARKID":"6400000000512","LANDMARKCO":"303","LANDMARKNA":"Times(普客二四停車場)-高雄新堀江停車場","LANDMARKAD":"6400007","ADDRESS":"高雄市前金區中山二路569號旁","TEL":" ","COUNTYNAME":"高雄市","TOWNNAME":"前金區","MARKTYPE":"993","Class":"303"},"geometry":{"x":178148.18379999977,"y":2502586.5281000007}},{"attributes":{"OBJECTID":21431,"LANDMARKID":"6400000000862","LANDMARKCO":"402","LANDMARKNA":"中華電信-高雄中正特約服務中心","LANDMARKAD":"6400007","ADDRESS":"高雄市前金區中正四路190號","TEL":"07-2164988","COUNTYNAME":"高雄市","TOWNNAME":"前金區","MARKTYPE":"994","Class":"4"},"geometry":{"x":177432.32600000035,"y":2503382.1663000006}},{"attributes":{"OBJECTID":21432,"LANDMARKID":"6400000000863","LANDMARKCO":"402","LANDMARKNA":"中華電信-高雄中華特約服務中心","LANDMARKAD":"6400007","ADDRESS":"高雄市中華三路228號","TEL":"07-2851288","COUNTYNAME":"高雄市","TOWNNAME":"前金區","MARKTYPE":"994","Class":"4"},"geometry":{"x":177474.77170000039,"y":2503903.3539000005}},{"attributes":{"OBJECTID":21433,"LANDMARKID":"6400000000864","LANDMARKCO":"402","LANDMARKNA":"中華電信-高雄成功特約服務中心","LANDMARKAD":"6400007","ADDRESS":"高雄市苓雅區成功一路273號","TEL":"07-2824888","COUNTYNAME":"高雄市","TOWNNAME":"前金區","MARKTYPE":"994","Class":"4"},"geometry":{"x":177463.53519999981,"y":2502415.3344999999}},{"attributes":{"OBJECTID":21434,"LANDMARKID":"6400000000865","LANDMARKCO":"402","LANDMARKNA":"威寶電信-高雄成功特約服務中心","LANDMARKAD":"6400007","ADDRESS":"高雄市苓雅區成功一路279號","TEL":"07-2411151","COUNTYNAME":"高雄市","TOWNNAME":"前金區","MARKTYPE":"994","Class":"4"},"geometry":{"x":177527.47269999981,"y":2502427.2819999997}},{"attributes":{"OBJECTID":21435,"LANDMARKID":"6400000000866","LANDMARKCO":"402","LANDMARKNA":"威寶電信-高雄中華特約服務中心","LANDMARKAD":"6400007","ADDRESS":"高雄市前金區中華三路154號","TEL":"07-2850662","COUNTYNAME":"高雄市","TOWNNAME":"前金區","MARKTYPE":"994","Class":"4"},"geometry":{"x":177562.53529999964,"y":2503644.4204999991}},{"attributes":{"OBJECTID":21436,"LANDMARKID":"6400000000867","LANDMARKCO":"402","LANDMARKNA":"大眾電信(震旦通訊)-高雄中華店","LANDMARKAD":"6400007","ADDRESS":"高雄市前金區中華三路251號","TEL":"07-2315555","COUNTYNAME":"高雄市","TOWNNAME":"前金區","MARKTYPE":"994","Class":"4"},"geometry":{"x":177394.3273,"y":2503996.9725000001}},{"attributes":{"OBJECTID":21437,"LANDMARKID":"6400000000868","LANDMARKCO":"402","LANDMARKNA":"大眾電信-高雄成功店","LANDMARKAD":"6400007","ADDRESS":"高雄市前金區成功一路282-1號","TEL":"07-2513838","COUNTYNAME":"高雄市","TOWNNAME":"前金區","MARKTYPE":"994","Class":"4"},"geometry":{"x":177592.65610000025,"y":2502388.5903999992}},{"attributes":{"OBJECTID":21438,"LANDMARKID":"6400000001266","LANDMARKCO":"603","LANDMARKNA":"喜悅大飯店","LANDMARKAD":"6400007","ADDRESS":"高雄市前金區七賢二路178號","TEL":"07-2863033","COUNTYNAME":"高雄市","TOWNNAME":"前金區","MARKTYPE":"996","Class":"6"},"geometry":{"x":177626.93439999968,"y":2503867.7183999997}},{"attributes":{"OBJECTID":21439,"LANDMARKID":"6400000001267","LANDMARKCO":"603","LANDMARKNA":"熱海別館","LANDMARKAD":"6400007","ADDRESS":"高雄市前金區七賢二路195號","TEL":"07-2112151-4","COUNTYNAME":"高雄市","TOWNNAME":"前金區","MARKTYPE":"996","Class":"6"},"geometry":{"x":177467.9824000001,"y":2503762.3286000006}},{"attributes":{"OBJECTID":21440,"LANDMARKID":"6400000001268","LANDMARKCO":"603","LANDMARKNA":"悅世界商務旅館","LANDMARKAD":"6400007","ADDRESS":"高雄市前金區七賢二路201-3號1-12樓","TEL":"07-2712131-5","COUNTYNAME":"高雄市","TOWNNAME":"前金區","MARKTYPE":"996","Class":"6"},"geometry":{"x":177448.02520000003,"y":2503753.2339999992}},{"attributes":{"OBJECTID":21441,"LANDMARKID":"6400000001269","LANDMARKCO":"603","LANDMARKNA":"莎蔓莎旅館","LANDMARKAD":"6400007","ADDRESS":"高雄市前金區五福三路79號12樓之1","TEL":"2","COUNTYNAME":"高雄市","TOWNNAME":"前金區","MARKTYPE":"996","Class":"6"},"geometry":{"x":177654.09279999975,"y":2502507.8807999995}},{"attributes":{"OBJECTID":21442,"LANDMARKID":"6400000001270","LANDMARKCO":"603","LANDMARKNA":"崧泰賓館","LANDMARKAD":"6400007","ADDRESS":"高雄市前金區五福三路79號6-7樓","TEL":"07-2153468","COUNTYNAME":"高雄市","TOWNNAME":"前金區","MARKTYPE":"996","Class":"6"},"geometry":{"x":177654.09279999975,"y":2502507.8807999995}},{"attributes":{"OBJECTID":21443,"LANDMARKID":"6400000001271","LANDMARKCO":"603","LANDMARKNA":"薇薇大旅社","LANDMARKAD":"6400007","ADDRESS":"高雄市前金區六合二路160號7樓","TEL":"07-2411702","COUNTYNAME":"高雄市","TOWNNAME":"前金區","MARKTYPE":"996","Class":"6"},"geometry":{"x":177496.88219999988,"y":2503571.1096000001}},{"attributes":{"OBJECTID":21444,"LANDMARKID":"6400000001272","LANDMARKCO":"603","LANDMARKNA":"金皇后大旅社","LANDMARKAD":"6400007","ADDRESS":"高雄市前金區六合二路160號8樓","TEL":"07-2511998","COUNTYNAME":"高雄市","TOWNNAME":"前金區","MARKTYPE":"996","Class":"6"},"geometry":{"x":177496.88219999988,"y":2503571.1096000001}},{"attributes":{"OBJECTID":21445,"LANDMARKID":"6400000001273","LANDMARKCO":"603","LANDMARKNA":"東都大旅社","LANDMARKAD":"6400007","ADDRESS":"高雄市前金區六合二路163號之1","TEL":"07-2712121","COUNTYNAME":"高雄市","TOWNNAME":"前金區","MARKTYPE":"996","Class":"6"},"geometry":{"x":177504.60520000011,"y":2503533.1531000007}},{"attributes":{"OBJECTID":21446,"LANDMARKID":"6400000001274","LANDMARKCO":"603","LANDMARKNA":"我家飯店","LANDMARKAD":"6400007","ADDRESS":"高雄市前金區文武二街18號","TEL":"07-2015605","COUNTYNAME":"高雄市","TOWNNAME":"前金區","MARKTYPE":"996","Class":"6"},"geometry":{"x":177806.75889999978,"y":2502673.2445999999}},{"attributes":{"OBJECTID":21447,"LANDMARKID":"6400000001275","LANDMARKCO":"603","LANDMARKNA":"凱莎琳庭園大飯店","LANDMARKAD":"6400007","ADDRESS":"高雄市前金區文武三街145號","TEL":"07-2152158","COUNTYNAME":"高雄市","TOWNNAME":"前金區","MARKTYPE":"996","Class":"6"},"geometry":{"x":177851.28409999982,"y":2502466.4612000007}},{"attributes":{"OBJECTID":21448,"LANDMARKID":"6400000001276","LANDMARKCO":"603","LANDMARKNA":"華一大飯店","LANDMARKAD":"6400007","ADDRESS":"高雄市前金區市中一路229號","TEL":"07-2219911","COUNTYNAME":"高雄市","TOWNNAME":"前金區","MARKTYPE":"996","Class":"6"},"geometry":{"x":176936.94180000015,"y":2503561.1635999996}},{"attributes":{"OBJECTID":21449,"LANDMARKID":"6400000001277","LANDMARKCO":"603","LANDMARKNA":"統茂休閒旅館","LANDMARKAD":"6400007","ADDRESS":"高雄市前金區七賢二路394號","TEL":"07-2822151","COUNTYNAME":"高雄市","TOWNNAME":"前金區","MARKTYPE":"996","Class":"6"},"geometry":{"x":176881.75669999979,"y":2503601.2664999999}},{"attributes":{"OBJECTID":21450,"LANDMARKID":"6400000001278","LANDMARKCO":"603","LANDMARKNA":"帝王大飯店","LANDMARKAD":"6400007","ADDRESS":"高雄市前金區中華三路17號","TEL":"07-2316170-9","COUNTYNAME":"高雄市","TOWNNAME":"前金區","MARKTYPE":"996","Class":"6"},"geometry":{"x":177827.39549999963,"y":2502750.3419000003}},{"attributes":{"OBJECTID":21451,"LANDMARKID":"6400000001279","LANDMARKCO":"603","LANDMARKNA":"蝴蝶谷賓館","LANDMARKAD":"6400007","ADDRESS":"高雄市前金區中華三路189號","TEL":"07-2112133","COUNTYNAME":"高雄市","TOWNNAME":"前金區","MARKTYPE":"996","Class":"6"},"geometry":{"x":177489.19539999962,"y":2503716.0732000005}},{"attributes":{"OBJECTID":21452,"LANDMARKID":"6400000001280","LANDMARKCO":"603","LANDMARKNA":"城市之星商旅\u2500大立漢神館","LANDMARKAD":"6400007","ADDRESS":"高雄市前金區中華四路290號","TEL":"07-9667799","COUNTYNAME":"高雄市","TOWNNAME":"前金區","MARKTYPE":"996","Class":"6"},"geometry":{"x":178024.75200000033,"y":2502367.2774999999}},{"attributes":{"OBJECTID":21453,"LANDMARKID":"6400000001281","LANDMARKCO":"603","LANDMARKNA":"御宿大飯店","LANDMARKAD":"6400007","ADDRESS":"高雄市前金區五福三路102號","TEL":"07-2511818","COUNTYNAME":"高雄市","TOWNNAME":"前金區","MARKTYPE":"996","Class":"6"},"geometry":{"x":177581.90909999982,"y":2502546.5395999998}},{"attributes":{"OBJECTID":21454,"LANDMARKID":"6400000001282","LANDMARKCO":"603","LANDMARKNA":"愛丁堡賓館","LANDMARKAD":"6400007","ADDRESS":"高雄市前金區市中一路242之26-37號7-9樓","TEL":"07-2418241","COUNTYNAME":"高雄市","TOWNNAME":"前金區","MARKTYPE":"996","Class":"6"},"geometry":{"x":176950.61689999979,"y":2503629.2289000005}},{"attributes":{"OBJECTID":21455,"LANDMARKID":"6400000001283","LANDMARKCO":"603","LANDMARKNA":"河堤大飯店","LANDMARKAD":"6400007","ADDRESS":"高雄市前金區光復二街191號","TEL":"07-2411171-7","COUNTYNAME":"高雄市","TOWNNAME":"前金區","MARKTYPE":"996","Class":"6"},"geometry":{"x":177150.70770000014,"y":2502590.2101000007}},{"attributes":{"OBJECTID":21456,"LANDMARKID":"6400000001284","LANDMARKCO":"603","LANDMARKNA":"自強旅館","LANDMARKAD":"6400007","ADDRESS":"高雄市前金區自強三路277號","TEL":"07-2829191","COUNTYNAME":"高雄市","TOWNNAME":"前金區","MARKTYPE":"996","Class":"6"},"geometry":{"x":177716.23390000034,"y":2502478.1743000001}},{"attributes":{"OBJECTID":21457,"LANDMARKID":"6400000001285","LANDMARKCO":"603","LANDMARKNA":"亞歌旅社","LANDMARKAD":"6400007","ADDRESS":"高雄市前金區明星街155號","TEL":"07-2862933","COUNTYNAME":"高雄市","TOWNNAME":"前金區","MARKTYPE":"996","Class":"6"},"geometry":{"x":177664.99480000045,"y":2503758.9052000009}},{"attributes":{"OBJECTID":21458,"LANDMARKID":"6400000001286","LANDMARKCO":"603","LANDMARKNA":"南海大飯店","LANDMARKAD":"6400007","ADDRESS":"高雄市前金區新盛一街10號","TEL":"07-2870191","COUNTYNAME":"高雄市","TOWNNAME":"前金區","MARKTYPE":"996","Class":"6"},"geometry":{"x":177704.69429999962,"y":2503515.0995000005}},{"attributes":{"OBJECTID":21459,"LANDMARKID":"6400000001287","LANDMARKCO":"603","LANDMARKNA":"愛迪亞賓館","LANDMARKAD":"6400007","ADDRESS":"高雄市前金區新盛一街53號之1至之3","TEL":"07-2824343","COUNTYNAME":"高雄市","TOWNNAME":"前金區","MARKTYPE":"996","Class":"6"},"geometry":{"x":177623.41139999963,"y":2503670.7084999997}},{"attributes":{"OBJECTID":21460,"LANDMARKID":"6400000001288","LANDMARKCO":"603","LANDMARKNA":"薆王大飯店","LANDMARKAD":"6400007","ADDRESS":"高雄市前金區新盛一街55號","TEL":"07-2213341","COUNTYNAME":"高雄市","TOWNNAME":"前金區","MARKTYPE":"996","Class":"6"},"geometry":{"x":177620.35470000003,"y":2503682.6941}},{"attributes":{"OBJECTID":21461,"LANDMARKID":"6400000001289","LANDMARKCO":"603","LANDMARKNA":"河堤大飯店 -成功館","LANDMARKAD":"6400007","ADDRESS":"高雄市苓雅區成功一路265號2~6樓","TEL":"07-2727161","COUNTYNAME":"高雄市","TOWNNAME":"前金區","MARKTYPE":"996","Class":"6"},"geometry":{"x":177552.72780000046,"y":2502373.4014999997}},{"attributes":{"OBJECTID":21462,"LANDMARKID":"6400000001290","LANDMARKCO":"603","LANDMARKNA":"熱群優質商務旅店","LANDMARKAD":"6400007","ADDRESS":"高雄市前金區榮安街35號1-7樓","TEL":"07-2813456","COUNTYNAME":"高雄市","TOWNNAME":"前金區","MARKTYPE":"996","Class":"6"},"geometry":{"x":177425.76989999972,"y":2503596.1283999998}},{"attributes":{"OBJECTID":21463,"LANDMARKID":"6400000001226","LANDMARKCO":"601","LANDMARKNA":"華園大飯店","LANDMARKAD":"6400007","ADDRESS":"高雄市前金區六合二路279號","TEL":"07-241-0123","COUNTYNAME":"高雄市","TOWNNAME":"前金區","MARKTYPE":"996","Class":"6"},"geometry":{"x":177117.24920000043,"y":2503399.0303000007}},{"attributes":{"OBJECTID":21464,"LANDMARKID":"6400000001227","LANDMARKCO":"601","LANDMARKNA":"高雄國賓大飯店","LANDMARKAD":"6400007","ADDRESS":"高雄市前金區民生二路202號","TEL":"07-211-5211","COUNTYNAME":"高雄市","TOWNNAME":"前金區","MARKTYPE":"996","Class":"6"},"geometry":{"x":177252.76219999976,"y":2502885.3278000001}},{"attributes":{"OBJECTID":21465,"LANDMARKID":"6400000001228","LANDMARKCO":"601","LANDMARKNA":"漢來大飯店","LANDMARKAD":"6400007","ADDRESS":"高雄市前金區成功一路266號","TEL":"07-216-1766","COUNTYNAME":"高雄市","TOWNNAME":"前金區","MARKTYPE":"996","Class":"6"},"geometry":{"x":177631.60360000003,"y":2502303.7813000008}},{"attributes":{"OBJECTID":21466,"LANDMARKID":"6400000001184","LANDMARKCO":"503","LANDMARKNA":"愛河景觀親水公園","LANDMARKAD":"6400007","ADDRESS":"高雄市前金區","TEL":" ","COUNTYNAME":"高雄市","TOWNNAME":"前金區","MARKTYPE":"995","Class":"5"},"geometry":{"x":176825.4768000003,"y":2503291.1750000007}},{"attributes":{"OBJECTID":21467,"LANDMARKID":"6400000001175","LANDMARKCO":"410","LANDMARKNA":"城市光廊","LANDMARKAD":"6400007","ADDRESS":"高雄市前金區","TEL":" ","COUNTYNAME":"高雄市","TOWNNAME":"前金區","MARKTYPE":"994","Class":"4"},"geometry":{"x":177917.9140999997,"y":2502740.0175000001}},{"attributes":{"OBJECTID":21468,"LANDMARKID":"6400000000970","LANDMARKCO":"405","LANDMARKNA":"台灣優力加油站-七賢站(中油)","LANDMARKAD":"6400001","ADDRESS":"高雄市鹽埕區興華街19號","TEL":"07-5214436","COUNTYNAME":"高雄市","TOWNNAME":"鹽埕區","MARKTYPE":"994","Class":"4"},"geometry":{"x":176509.83980000019,"y":2503493.2338999994}},{"attributes":{"OBJECTID":21469,"LANDMARKID":"6400000000971","LANDMARKCO":"405","LANDMARKNA":"中油加油站-鹽埕站(中油自營)","LANDMARKAD":"6400001","ADDRESS":"高雄市鹽埕區建國四路311號","TEL":"07-5337470","COUNTYNAME":"高雄市","TOWNNAME":"鹽埕區","MARKTYPE":"994","Class":"4"},"geometry":{"x":176275.9581000004,"y":2503551.4891999997}},{"attributes":{"OBJECTID":21470,"LANDMARKID":"6400000000972","LANDMARKCO":"405","LANDMARKNA":"中油加油站-大義街站(刷卡自助)(中油直營)","LANDMARKAD":"6400001","ADDRESS":"高雄市鹽埕區大義街56-1號","TEL":"07-5518163","COUNTYNAME":"高雄市","TOWNNAME":"鹽埕區","MARKTYPE":"994","Class":"4"},"geometry":{"x":176613.84979999997,"y":2502475.7037000004}},{"attributes":{"OBJECTID":21471,"LANDMARKID":"6400000001461","LANDMARKCO":"605","LANDMARKNA":"高雄國軍英雄館","LANDMARKAD":"6400001","ADDRESS":"高雄市苓雅區五福三路145號","TEL":"07-2516417","COUNTYNAME":"高雄市","TOWNNAME":"鹽埕區","MARKTYPE":"996","Class":"6"},"geometry":{"x":177013.2435999997,"y":2502477.3434999995}},{"attributes":{"OBJECTID":21472,"LANDMARKID":"6400000001141","LANDMARKCO":"408","LANDMARKNA":"郵局-高雄新樂郵局","LANDMARKAD":"6400001","ADDRESS":"高雄市鹽埕區建國四路154號","TEL":"(07)5514-590","COUNTYNAME":"高雄市","TOWNNAME":"鹽埕區","MARKTYPE":"994","Class":"4"},"geometry":{"x":176093.19689999986,"y":2503104.2420000006}},{"attributes":{"OBJECTID":21473,"LANDMARKID":"6400000001142","LANDMARKCO":"408","LANDMARKNA":"郵局-鹽埕郵局","LANDMARKAD":"6400001","ADDRESS":"高雄市鹽埕區五福四路133號","TEL":"(07)5510-421","COUNTYNAME":"高雄市","TOWNNAME":"鹽埕區","MARKTYPE":"994","Class":"4"},"geometry":{"x":176429.57919999957,"y":2502716.4924999997}},{"attributes":{"OBJECTID":21474,"LANDMARKID":"6400000001143","LANDMARKCO":"408","LANDMARKNA":"郵局-高雄府北郵局","LANDMARKAD":"6400001","ADDRESS":"高雄市鹽埕區七賢二路470號","TEL":"(07)5613-431","COUNTYNAME":"高雄市","TOWNNAME":"鹽埕區","MARKTYPE":"994","Class":"4"},"geometry":{"x":176448.00789999962,"y":2503450.5669999998}},{"attributes":{"OBJECTID":21475,"LANDMARKID":"6400000000072","LANDMARKCO":"103","LANDMARKNA":"高雄市鹽埕區衛生所","LANDMARKAD":"6400001","ADDRESS":"高雄市鹽埕區大仁路6號3樓","TEL":"07-5513494","COUNTYNAME":"高雄市","TOWNNAME":"鹽埕區","MARKTYPE":"991","Class":"1"},"geometry":{"x":176684.67100000009,"y":2502911.5947999991}},{"attributes":{"OBJECTID":21476,"LANDMARKID":"6400000000226","LANDMARKCO":"108","LANDMARKNA":"高雄市鹽埕區公所","LANDMARKAD":"6400001","ADDRESS":"高雄市鹽埕區大仁路6號9樓","TEL":"07-5513316","COUNTYNAME":"高雄市","TOWNNAME":"鹽埕區","MARKTYPE":"991","Class":"1"},"geometry":{"x":176684.67100000009,"y":2502911.5947999991}},{"attributes":{"OBJECTID":21477,"LANDMARKID":"6400000000159","LANDMARKCO":"107","LANDMARKNA":"高雄市政府警察局鹽埕分局","LANDMARKAD":"6400001","ADDRESS":"高雄市鹽埕區慈愛里建國四路337號","TEL":"07-5513424","COUNTYNAME":"高雄市","TOWNNAME":"鹽埕區","MARKTYPE":"991","Class":"1"},"geometry":{"x":176311.11149999965,"y":2503620.7785}},{"attributes":{"OBJECTID":21478,"LANDMARKID":"6400000000160","LANDMARKCO":"107","LANDMARKNA":"高雄市政府警察局建國四路派出","LANDMARKAD":"6400001","ADDRESS":"高雄市鹽埕區陸橋里建國四路337號","TEL":"07-5512832","COUNTYNAME":"高雄市","TOWNNAME":"鹽埕區","MARKTYPE":"991","Class":"1"},"geometry":{"x":176311.11149999965,"y":2503620.7785}},{"attributes":{"OBJECTID":21479,"LANDMARKID":"6400000000161","LANDMARKCO":"107","LANDMARKNA":"高雄市政府警察局五福四路派出","LANDMARKAD":"6400001","ADDRESS":"高雄市鹽埕區河濱里五福四路107號","TEL":"07-5512968","COUNTYNAME":"高雄市","TOWNNAME":"鹽埕區","MARKTYPE":"991","Class":"1"},"geometry":{"x":176523.16839999985,"y":2502662.1919}},{"attributes":{"OBJECTID":21480,"LANDMARKID":"6400000000162","LANDMARKCO":"107","LANDMARKNA":"高雄市政府警察局七賢路派出所","LANDMARKAD":"6400001","ADDRESS":"高雄市鹽埕區中原里七賢三路170號","TEL":"07-5513534","COUNTYNAME":"高雄市","TOWNNAME":"鹽埕區","MARKTYPE":"991","Class":"1"},"geometry":{"x":176295.80549999978,"y":2503192.4689000007}},{"attributes":{"OBJECTID":21481,"LANDMARKID":"6400000000109","LANDMARKCO":"105","LANDMARKNA":"高雄市鹽埕地政事務所","LANDMARKAD":"6400001","ADDRESS":"高雄市鹽埕區新樂街214號5-6樓","TEL":"07-5216680","COUNTYNAME":"高雄市","TOWNNAME":"鹽埕區","MARKTYPE":"991","Class":"1"},"geometry":{"x":176154.42069999967,"y":2503041.7873999998}},{"attributes":{"OBJECTID":21482,"LANDMARKID":"6400000000118","LANDMARKCO":"106","LANDMARKNA":"高雄市鹽埕區戶政事務所","LANDMARKAD":"6400001","ADDRESS":"高雄市鹽埕區大仁路6號7樓","TEL":"07-5615030","COUNTYNAME":"高雄市","TOWNNAME":"鹽埕區","MARKTYPE":"991","Class":"1"},"geometry":{"x":176684.67100000009,"y":2502911.5947999991}},{"attributes":{"OBJECTID":21483,"LANDMARKID":"6400000000098","LANDMARKCO":"104","LANDMARKNA":"高雄市國稅局鹽埕稽徵所","LANDMARKAD":"6400001","ADDRESS":"高雄市鹽埕區大仁路6號","TEL":"07-5337257","COUNTYNAME":"高雄市","TOWNNAME":"鹽埕區","MARKTYPE":"991","Class":"1"},"geometry":{"x":176684.67100000009,"y":2502911.5947999991}},{"attributes":{"OBJECTID":21484,"LANDMARKID":"6400000000068","LANDMARKCO":"103","LANDMARKNA":"高雄市選舉委員會","LANDMARKAD":"6400001","ADDRESS":"高雄市鹽埕區必忠街277號","TEL":"07-5213206","COUNTYNAME":"高雄市","TOWNNAME":"鹽埕區","MARKTYPE":"991","Class":"1"},"geometry":{"x":175887.2396999998,"y":2502875.8856000006}},{"attributes":{"OBJECTID":21485,"LANDMARKID":"6400000000026","LANDMARKCO":"101","LANDMARKNA":"海洋巡防總局南部地區機動海巡查緝隊","LANDMARKAD":"6400001","ADDRESS":"高雄市鼓山區蓬來路32號","TEL":"07-5514141","COUNTYNAME":"高雄市","TOWNNAME":"鹽埕區","MARKTYPE":"991","Class":"1"},"geometry":{"x":175908.48390000034,"y":2502430.7456}},{"attributes":{"OBJECTID":21486,"LANDMARKID":"6400000000422","LANDMARKCO":"205","LANDMARKNA":"高雄市立歷史博物館","LANDMARKAD":"6400001","ADDRESS":"高雄市鹽埕區中正四路272號","TEL":" ","COUNTYNAME":"高雄市","TOWNNAME":"鹽埕區","MARKTYPE":"992","Class":"2"},"geometry":{"x":176704.13949999958,"y":2503108.4419999998}},{"attributes":{"OBJECTID":21487,"LANDMARKID":"6400000000412","LANDMARKCO":"204","LANDMARKNA":"高雄市立圖書館鹽埕分館","LANDMARKAD":"6400001","ADDRESS":"高雄市鹽埕區大仁路179號5-6樓","TEL":" ","COUNTYNAME":"高雄市","TOWNNAME":"鹽埕區","MARKTYPE":"992","Class":"2"},"geometry":{"x":176199.90089999977,"y":2503112.5900999997}},{"attributes":{"OBJECTID":21488,"LANDMARKID":"6400000000342","LANDMARKCO":"203","LANDMARKNA":"市立忠孝國小","LANDMARKAD":"6400001","ADDRESS":"高雄市鹽埕區大智路71號","TEL":"07-5514887","COUNTYNAME":"高雄市","TOWNNAME":"鹽埕區","MARKTYPE":"992","Class":"2"},"geometry":{"x":176513.94620000012,"y":2502540.9046999998}},{"attributes":{"OBJECTID":21489,"LANDMARKID":"6400000000343","LANDMARKCO":"203","LANDMARKNA":"市立鹽埕國中","LANDMARKAD":"6400001","ADDRESS":"高雄市鹽埕區新樂街46號","TEL":"07-5211283","COUNTYNAME":"高雄市","TOWNNAME":"鹽埕區","MARKTYPE":"992","Class":"2"},"geometry":{"x":176798.9952999996,"y":2502782.1417999994}},{"attributes":{"OBJECTID":21490,"LANDMARKID":"6400000000344","LANDMARKCO":"203","LANDMARKNA":"市立鹽埕國小","LANDMARKAD":"6400001","ADDRESS":"高雄市鹽埕區五福四路183號","TEL":"07-5210626","COUNTYNAME":"高雄市","TOWNNAME":"鹽埕區","MARKTYPE":"992","Class":"2"},"geometry":{"x":176285.93329999968,"y":2502793.4283000007}},{"attributes":{"OBJECTID":21491,"LANDMARKID":"6400000000345","LANDMARKCO":"203","LANDMARKNA":"市立光榮國小","LANDMARKAD":"6400001","ADDRESS":"高雄市鹽埕區大智路150號","TEL":"07-5514549","COUNTYNAME":"高雄市","TOWNNAME":"鹽埕區","MARKTYPE":"992","Class":"2"},"geometry":{"x":176736.19919999968,"y":2502781.8413999993}},{"attributes":{"OBJECTID":21492,"LANDMARKID":"6400000000583","LANDMARKCO":"305","LANDMARKNA":"高雄港","LANDMARKAD":"6400001","ADDRESS":"高雄市鼓山區","TEL":" ","COUNTYNAME":"高雄市","TOWNNAME":"鹽埕區","MARKTYPE":"993","Class":"305"},"geometry":{"x":175958.36639999971,"y":2502603.6882000007}},{"attributes":{"OBJECTID":21493,"LANDMARKID":"6400000000625","LANDMARKCO":"306","LANDMARKNA":"鹽埕埔捷運站-出口1","LANDMARKAD":"6400001","ADDRESS":" ","TEL":" ","COUNTYNAME":"高雄市","TOWNNAME":"鹽埕區","MARKTYPE":"993","Class":"306"},"geometry":{"x":176340.03799999971,"y":2502745.2723999992}},{"attributes":{"OBJECTID":21494,"LANDMARKID":"6400000000626","LANDMARKCO":"306","LANDMARKNA":"鹽埕埔捷運站-出口2","LANDMARKAD":"6400001","ADDRESS":" ","TEL":" ","COUNTYNAME":"高雄市","TOWNNAME":"鹽埕區","MARKTYPE":"993","Class":"306"},"geometry":{"x":176436.29129999969,"y":2502896.9118000008}},{"attributes":{"OBJECTID":21495,"LANDMARKID":"6400000000627","LANDMARKCO":"306","LANDMARKNA":"鹽埕埔捷運站-出口3","LANDMARKAD":"6400001","ADDRESS":" ","TEL":" ","COUNTYNAME":"高雄市","TOWNNAME":"鹽埕區","MARKTYPE":"993","Class":"306"},"geometry":{"x":176407.4439000003,"y":2502845.4301999994}},{"attributes":{"OBJECTID":21496,"LANDMARKID":"6400000000628","LANDMARKCO":"306","LANDMARKNA":"鹽埕埔捷運站-出口4","LANDMARKAD":"6400001","ADDRESS":" ","TEL":" ","COUNTYNAME":"高雄市","TOWNNAME":"鹽埕區","MARKTYPE":"993","Class":"306"},"geometry":{"x":176393.31639999989,"y":2502817.4089000002}},{"attributes":{"OBJECTID":21497,"LANDMARKID":"6400000000505","LANDMARKCO":"303","LANDMARKNA":"高雄市鹽埕示範市場地下停車場","LANDMARKAD":"6400001","ADDRESS":"高雄市鹽埕區大仁路179號B1樓","TEL":" ","COUNTYNAME":"高雄市","TOWNNAME":"鹽埕區","MARKTYPE":"993","Class":"303"},"geometry":{"x":176180.10830000043,"y":2503127.7985999994}},{"attributes":{"OBJECTID":21498,"LANDMARKID":"6400000000506","LANDMARKCO":"303","LANDMARKNA":"公有鹽埕立體停車場","LANDMARKAD":"6400001","ADDRESS":"高雄市鹽埕區大仁路10號","TEL":" ","COUNTYNAME":"高雄市","TOWNNAME":"鹽埕區","MARKTYPE":"993","Class":"303"},"geometry":{"x":176640.80829999968,"y":2502950.9552999996}},{"attributes":{"OBJECTID":21499,"LANDMARKID":"6400000000507","LANDMARKCO":"303","LANDMARKNA":"高雄市鹽埕示範市場地下停車場","LANDMARKAD":"6400001","ADDRESS":"高雄市鹽埕區大仁路179號","TEL":" ","COUNTYNAME":"高雄市","TOWNNAME":"鹽埕區","MARKTYPE":"993","Class":"303"},"geometry":{"x":176082.44689999986,"y":2502910.3067000005}},{"attributes":{"OBJECTID":21500,"LANDMARKID":"6400000000860","LANDMARKCO":"402","LANDMARKNA":"中華電信-鹽埕服務中心","LANDMARKAD":"6400001","ADDRESS":"高雄市鹽埕區大仁路90號","TEL":"123或0800-080-123","COUNTYNAME":"高雄市","TOWNNAME":"鹽埕區","MARKTYPE":"994","Class":"4"},"geometry":{"x":176440.57699999958,"y":2503024.5383000001}},{"attributes":{"OBJECTID":21501,"LANDMARKID":"6400000000861","LANDMARKCO":"402","LANDMARKNA":"威寶電信-高雄五福特約服務中心","LANDMARKAD":"6400001","ADDRESS":"高雄市鹽埕區五福四路82號","TEL":"07-5311044","COUNTYNAME":"高雄市","TOWNNAME":"鹽埕區","MARKTYPE":"994","Class":"4"},"geometry":{"x":176702.98000000045,"y":2502608.5859999992}},{"attributes":{"OBJECTID":21502,"LANDMARKID":"6400000001291","LANDMARKCO":"603","LANDMARKNA":"立倫旅社","LANDMARKAD":"6400001","ADDRESS":"高雄市鹽埕區河西路154號","TEL":"07-5218317","COUNTYNAME":"高雄市","TOWNNAME":"鹽埕區","MARKTYPE":"996","Class":"6"},"geometry":{"x":176557.45390000008,"y":2503556.9535000008}},{"attributes":{"OBJECTID":21503,"LANDMARKID":"6400000001292","LANDMARKCO":"603","LANDMARKNA":"華后大飯店","LANDMARKAD":"6400001","ADDRESS":"高雄市鹽埕區公園二路219號","TEL":"07-5518251","COUNTYNAME":"高雄市","TOWNNAME":"鹽埕區","MARKTYPE":"996","Class":"6"},"geometry":{"x":175931.79980000015,"y":2502718.5776000004}},{"attributes":{"OBJECTID":21504,"LANDMARKID":"6400000001293","LANDMARKCO":"603","LANDMARKNA":"新東京賓館","LANDMARKAD":"6400001","ADDRESS":"高雄市鹽埕區建國四路119號","TEL":"07-5513251-6","COUNTYNAME":"高雄市","TOWNNAME":"鹽埕區","MARKTYPE":"996","Class":"6"},"geometry":{"x":175942.49110000022,"y":2502889.9936999995}},{"attributes":{"OBJECTID":21505,"LANDMARKID":"6400000001294","LANDMARKCO":"603","LANDMARKNA":"大目鮪商務旅店","LANDMARKAD":"6400001","ADDRESS":"高雄市鹽埕區莒光街198號1~7樓","TEL":"07-5215477","COUNTYNAME":"高雄市","TOWNNAME":"鹽埕區","MARKTYPE":"996","Class":"6"},"geometry":{"x":176546.03610000014,"y":2502925.2166000009}},{"attributes":{"OBJECTID":21506,"LANDMARKID":"6400000001295","LANDMARKCO":"603","LANDMARKNA":"中正大飯店","LANDMARKAD":"6400001","ADDRESS":"高雄市鹽埕區大仁路7號","TEL":"07-5212266","COUNTYNAME":"高雄市","TOWNNAME":"鹽埕區","MARKTYPE":"996","Class":"6"},"geometry":{"x":176654.87110000011,"y":2502863.2019999996}},{"attributes":{"OBJECTID":21507,"LANDMARKID":"6400000001296","LANDMARKCO":"603","LANDMARKNA":"帝后大飯店","LANDMARKAD":"6400001","ADDRESS":"高雄市鹽埕區大公路21號","TEL":"07-5212211","COUNTYNAME":"高雄市","TOWNNAME":"鹽埕區","MARKTYPE":"996","Class":"6"},"geometry":{"x":176467.19230000023,"y":2503104.6662000008}},{"attributes":{"OBJECTID":21508,"LANDMARKID":"6400000001297","LANDMARKCO":"603","LANDMARKNA":"文賓大飯店","LANDMARKAD":"6400001","ADDRESS":"高雄市鹽埕區大勇路22號1-4樓","TEL":"07-5612346","COUNTYNAME":"高雄市","TOWNNAME":"鹽埕區","MARKTYPE":"996","Class":"6"},"geometry":{"x":176268.08800000045,"y":2502512.0994000006}},{"attributes":{"OBJECTID":21509,"LANDMARKID":"6400000001298","LANDMARKCO":"603","LANDMARKNA":"群登大飯店","LANDMARKAD":"6400001","ADDRESS":"高雄市鹽埕區府北路50號2-9樓","TEL":"07-5325901","COUNTYNAME":"高雄市","TOWNNAME":"鹽埕區","MARKTYPE":"996","Class":"6"},"geometry":{"x":176564.11710000038,"y":2503428.1245000008}},{"attributes":{"OBJECTID":21510,"LANDMARKID":"6400000001299","LANDMARKCO":"603","LANDMARKNA":"老企寶旅館","LANDMARKAD":"6400001","ADDRESS":"高雄市鹽埕區新樂街121號","TEL":"07-5612396","COUNTYNAME":"高雄市","TOWNNAME":"鹽埕區","MARKTYPE":"996","Class":"6"},"geometry":{"x":176524.13119999971,"y":2502809.9465999994}},{"attributes":{"OBJECTID":21511,"LANDMARKID":"6400000001300","LANDMARKCO":"603","LANDMARKNA":"宮賓大旅社","LANDMARKAD":"6400001","ADDRESS":"高雄市鹽埕區新樂街252號","TEL":"07-5514284-6","COUNTYNAME":"高雄市","TOWNNAME":"鹽埕區","MARKTYPE":"996","Class":"6"},"geometry":{"x":175889.23819999956,"y":2503096.6381000001}},{"attributes":{"OBJECTID":21512,"LANDMARKID":"6400000001301","LANDMARKCO":"603","LANDMARKNA":"瑞賓大旅社","LANDMARKAD":"6400001","ADDRESS":"高雄市鹽埕區興華街14號","TEL":"07-5511206","COUNTYNAME":"高雄市","TOWNNAME":"鹽埕區","MARKTYPE":"996","Class":"6"},"geometry":{"x":176537.66619999986,"y":2503521.9976000004}},{"attributes":{"OBJECTID":21513,"LANDMARKID":"6400000001302","LANDMARKCO":"603","LANDMARKNA":"聖淘沙賓館","LANDMARKAD":"6400001","ADDRESS":"高雄市鹽埕區七賢二路423號10-12樓","TEL":"07-5335158","COUNTYNAME":"高雄市","TOWNNAME":"鹽埕區","MARKTYPE":"996","Class":"6"},"geometry":{"x":176573.04509999976,"y":2503443.1673000008}},{"attributes":{"OBJECTID":21514,"LANDMARKID":"6400000001303","LANDMARKCO":"603","LANDMARKNA":"僑星大飯店","LANDMARKAD":"6400001","ADDRESS":"高雄市鹽埕區七賢三路278號","TEL":"07-5519292","COUNTYNAME":"高雄市","TOWNNAME":"鹽埕區","MARKTYPE":"996","Class":"6"},"geometry":{"x":176514.67740000039,"y":2503618.8802000005}},{"attributes":{"OBJECTID":21515,"LANDMARKID":"6400000001304","LANDMARKCO":"603","LANDMARKNA":"高雄漢王洲際飯店","LANDMARKAD":"6400001","ADDRESS":"高雄市鹽埕區七賢三路98號","TEL":"07-5313131-60","COUNTYNAME":"高雄市","TOWNNAME":"鹽埕區","MARKTYPE":"996","Class":"6"},"geometry":{"x":176171.9578999998,"y":2502946.6219999995}},{"attributes":{"OBJECTID":21516,"LANDMARKID":"6400000001305","LANDMARKCO":"603","LANDMARKNA":"高雄中信大飯店","LANDMARKAD":"6400001","ADDRESS":"高雄市鹽埕區大仁路43號1-11樓","TEL":"07-5217111","COUNTYNAME":"高雄市","TOWNNAME":"鹽埕區","MARKTYPE":"996","Class":"6"},"geometry":{"x":176565.62229999993,"y":2502916.1457000002}},{"attributes":{"OBJECTID":21517,"LANDMARKID":"6400000001306","LANDMARKCO":"603","LANDMARKNA":"新北斗旅社","LANDMARKAD":"6400001","ADDRESS":"高雄市鹽埕區北斗街16號","TEL":"07-5515476","COUNTYNAME":"高雄市","TOWNNAME":"鹽埕區","MARKTYPE":"996","Class":"6"},"geometry":{"x":176468.33229999989,"y":2503690.6576000005}},{"attributes":{"OBJECTID":21518,"LANDMARKID":"6400000001307","LANDMARKCO":"603","LANDMARKNA":"永都大旅社","LANDMARKAD":"6400001","ADDRESS":"高雄市鹽埕區北斗街18號","TEL":"07-5514117","COUNTYNAME":"高雄市","TOWNNAME":"鹽埕區","MARKTYPE":"996","Class":"6"},"geometry":{"x":176463.3228000002,"y":2503692.6335000005}},{"attributes":{"OBJECTID":21519,"LANDMARKID":"6400000001308","LANDMARKCO":"603","LANDMARKNA":"國際大旅社","LANDMARKAD":"6400001","ADDRESS":"高雄市鹽埕區建國四路266號","TEL":"07-5515667","COUNTYNAME":"高雄市","TOWNNAME":"鹽埕區","MARKTYPE":"996","Class":"6"},"geometry":{"x":176326.92640000023,"y":2503568.3545999993}},{"attributes":{"OBJECTID":21520,"LANDMARKID":"6400000001224","LANDMARKCO":"601","LANDMARKNA":"華王大飯店","LANDMARKAD":"6400001","ADDRESS":"高雄市鹽埕區五福四路42號","TEL":"07-551-8211","COUNTYNAME":"高雄市","TOWNNAME":"鹽埕區","MARKTYPE":"996","Class":"6"},"geometry":{"x":176804.7620000001,"y":2502578.9263000004}},{"attributes":{"OBJECTID":21521,"LANDMARKID":"6400000001183","LANDMARKCO":"503","LANDMARKNA":"真愛碼頭","LANDMARKAD":"6400001","ADDRESS":" ","TEL":" ","COUNTYNAME":"高雄市","TOWNNAME":"鹽埕區","MARKTYPE":"995","Class":"5"},"geometry":{"x":176956.28749999963,"y":2502309.3149999995}},{"attributes":{"OBJECTID":21522,"LANDMARKID":"6400000000973","LANDMARKCO":"405","LANDMARKNA":"中油加油站-四維三路站(中油直營)","LANDMARKAD":"6400008","ADDRESS":"高雄市苓雅區永定街93號","TEL":"07-3330396","COUNTYNAME":"高雄市","TOWNNAME":"苓雅區","MARKTYPE":"994","Class":"4"},"geometry":{"x":179204.63049999997,"y":2502291.4400999993}},{"attributes":{"OBJECTID":21523,"LANDMARKID":"6400000000974","LANDMARKCO":"405","LANDMARKNA":"中油加油站-允利站","LANDMARKAD":"6400008","ADDRESS":"高雄市苓雅區輜汽路69號","TEL":"07-7261191","COUNTYNAME":"高雄市","TOWNNAME":"苓雅區","MARKTYPE":"994","Class":"4"},"geometry":{"x":181756.40160000045,"y":2501977.3337999992}},{"attributes":{"OBJECTID":21524,"LANDMARKID":"6400000000975","LANDMARKCO":"405","LANDMARKNA":"中油加油站-三多二路站(中油直營)","LANDMARKAD":"6400008","ADDRESS":"高雄市苓雅區三多二路80號","TEL":"07-7618709","COUNTYNAME":"高雄市","TOWNNAME":"苓雅區","MARKTYPE":"994","Class":"4"},"geometry":{"x":180805.97879999969,"y":2502529.2080000006}},{"attributes":{"OBJECTID":21525,"LANDMARKID":"6400000000976","LANDMARKCO":"405","LANDMARKNA":"中油加油站-光華站","LANDMARKAD":"6400008","ADDRESS":"高雄市苓雅區三多二路330號","TEL":"07-3336168","COUNTYNAME":"高雄市","TOWNNAME":"苓雅區","MARKTYPE":"994","Class":"4"},"geometry":{"x":179757.20749999955,"y":2502167.3473000005}},{"attributes":{"OBJECTID":21526,"LANDMARKID":"6400000000977","LANDMARKCO":"405","LANDMARKNA":"中油加油站-建國一路站(刷卡自助)(中油直營)","LANDMARKAD":"6400008","ADDRESS":"高雄市苓雅區建國一路142號","TEL":"07-7518715","COUNTYNAME":"高雄市","TOWNNAME":"苓雅區","MARKTYPE":"994","Class":"4"},"geometry":{"x":181132.65840000007,"y":2503767.3853999991}},{"attributes":{"OBJECTID":21527,"LANDMARKID":"6400000000978","LANDMARKCO":"405","LANDMARKNA":"中油加油站-國慶站","LANDMARKAD":"6400008","ADDRESS":"高雄市苓雅區中正一路332號","TEL":"07-7219612","COUNTYNAME":"高雄市","TOWNNAME":"苓雅區","MARKTYPE":"994","Class":"4"},"geometry":{"x":180748.95260000043,"y":2503458.9494000003}},{"attributes":{"OBJECTID":21528,"LANDMARKID":"6400000000979","LANDMARKCO":"405","LANDMARKNA":"中油加油站-三多三路站(中油直營)","LANDMARKAD":"6400008","ADDRESS":"高雄市苓雅區三多三路264號","TEL":"07-3335774","COUNTYNAME":"高雄市","TOWNNAME":"苓雅區","MARKTYPE":"994","Class":"4"},"geometry":{"x":178590.77670000028,"y":2501757.5771999992}},{"attributes":{"OBJECTID":21529,"LANDMARKID":"6400000000980","LANDMARKCO":"405","LANDMARKNA":"中油加油站-青年路站(中油直營)","LANDMARKAD":"6400008","ADDRESS":"高雄市苓雅區民權一路105號","TEL":"07-3352549","COUNTYNAME":"高雄市","TOWNNAME":"苓雅區","MARKTYPE":"994","Class":"4"},"geometry":{"x":179259.20559999999,"y":2502696.6863000002}},{"attributes":{"OBJECTID":21530,"LANDMARKID":"6400000000981","LANDMARKCO":"405","LANDMARKNA":"中油加油站-高鳳站(中油直營)","LANDMARKAD":"6400008","ADDRESS":"高雄市苓雅區建國一路3號","TEL":"07-7491901","COUNTYNAME":"高雄市","TOWNNAME":"苓雅區","MARKTYPE":"994","Class":"4"},"geometry":{"x":182414.63609999977,"y":2503263.7071000002}},{"attributes":{"OBJECTID":21531,"LANDMARKID":"6400000000855","LANDMARKCO":"402","LANDMARKNA":"My Phone台灣大哥大-高雄三信直營服務中心","LANDMARKAD":"6400008","ADDRESS":"高雄市苓雅區三多一路279號","TEL":"0809-000-166","COUNTYNAME":"高雄市","TOWNNAME":"苓雅區","MARKTYPE":"994","Class":"4"},"geometry":{"x":181076.74959999975,"y":2502577.8176000006}},{"attributes":{"OBJECTID":21532,"LANDMARKID":"6400000000856","LANDMARKCO":"402","LANDMARKNA":"My Phone台灣大哥大-高雄三多直營服務中心","LANDMARKAD":"6400008","ADDRESS":"高雄市苓雅區三多三路214-12號","TEL":"0809-000-166","COUNTYNAME":"高雄市","TOWNNAME":"苓雅區","MARKTYPE":"994","Class":"4"},"geometry":{"x":178830.32290000003,"y":2501841.0346000008}},{"attributes":{"OBJECTID":21533,"LANDMARKID":"6400000000857","LANDMARKCO":"402","LANDMARKNA":"My Phone台灣大哥大-高雄苓雅直營服務中心","LANDMARKAD":"6400008","ADDRESS":"高雄市苓雅區廣州一街149號","TEL":"0809-000-166","COUNTYNAME":"高雄市","TOWNNAME":"苓雅區","MARKTYPE":"994","Class":"4"},"geometry":{"x":179711.42430000007,"y":2503047.1085999999}},{"attributes":{"OBJECTID":21534,"LANDMARKID":"6400000000858","LANDMARKCO":"402","LANDMARKNA":"亞太行動寬頻電信-高雄青年加盟服務中心","LANDMARKAD":"6400008","ADDRESS":"高雄市苓雅區青年一路137號","TEL":"07-3348686","COUNTYNAME":"高雄市","TOWNNAME":"苓雅區","MARKTYPE":"994","Class":"4"},"geometry":{"x":179033.94039999973,"y":2502629.6313000005}},{"attributes":{"OBJECTID":21535,"LANDMARKID":"6400000000859","LANDMARKCO":"402","LANDMARKNA":"亞太行動寬頻電信-光華三多加盟服務中心","LANDMARKAD":"6400008","ADDRESS":"高雄市苓雅區三多二路256號","TEL":"07-7279757","COUNTYNAME":"高雄市","TOWNNAME":"苓雅區","MARKTYPE":"994","Class":"4"},"geometry":{"x":179897.01570000034,"y":2502212.6658999994}},{"attributes":{"OBJECTID":21536,"LANDMARKID":"6400000000737","LANDMARKCO":"401","LANDMARKNA":"聖和醫院","LANDMARKAD":"6400008","ADDRESS":"高雄市前金區青年二路6號","TEL":"07-2514117","COUNTYNAME":"高雄市","TOWNNAME":"苓雅區","MARKTYPE":"994","Class":"4"},"geometry":{"x":178211.68290000036,"y":2502380.8038999997}},{"attributes":{"OBJECTID":21537,"LANDMARKID":"6400000000738","LANDMARKCO":"401","LANDMARKNA":"高雄市立中醫醫院","LANDMARKAD":"6400008","ADDRESS":"高雄市苓雅區福成街6號","TEL":"07-7613186","COUNTYNAME":"高雄市","TOWNNAME":"苓雅區","MARKTYPE":"994","Class":"4"},"geometry":{"x":180671.69759999961,"y":2502983.2647999991}},{"attributes":{"OBJECTID":21538,"LANDMARKID":"6400000000739","LANDMARKCO":"401","LANDMARKNA":"濟代中醫醫院","LANDMARKAD":"6400008","ADDRESS":"高雄市苓雅區苓雅二路207號","TEL":"07-3318986","COUNTYNAME":"高雄市","TOWNNAME":"苓雅區","MARKTYPE":"994","Class":"4"},"geometry":{"x":177631.83249999955,"y":2501947.7827000003}},{"attributes":{"OBJECTID":21539,"LANDMARKID":"6400000000740","LANDMARKCO":"401","LANDMARKNA":"高雄市立凱旋醫院","LANDMARKAD":"6400008","ADDRESS":"高雄市苓雅區凱旋二路130號","TEL":"07-7513171","COUNTYNAME":"高雄市","TOWNNAME":"苓雅區","MARKTYPE":"994","Class":"4"},"geometry":{"x":180515.91339999996,"y":2502936.8585000001}},{"attributes":{"OBJECTID":21540,"LANDMARKID":"6400000000741","LANDMARKCO":"401","LANDMARKNA":"阮綜合醫院","LANDMARKAD":"6400008","ADDRESS":"高雄市苓雅區成功一路162號","TEL":"07-3351121","COUNTYNAME":"高雄市","TOWNNAME":"苓雅區","MARKTYPE":"994","Class":"4"},"geometry":{"x":177768.11459999997,"y":2501887.0793999992}},{"attributes":{"OBJECTID":21541,"LANDMARKID":"6400000000742","LANDMARKCO":"401","LANDMARKNA":"聖和醫院","LANDMARKAD":"6400008","ADDRESS":"高雄市前金區青年二路6號","TEL":"07-2514117","COUNTYNAME":"高雄市","TOWNNAME":"苓雅區","MARKTYPE":"994","Class":"4"},"geometry":{"x":178211.68290000036,"y":2502380.807}},{"attributes":{"OBJECTID":21542,"LANDMARKID":"6400000000743","LANDMARKCO":"401","LANDMARKNA":"國軍高雄總醫院","LANDMARKAD":"6400008","ADDRESS":"高雄市苓雅區中正一路2號","TEL":"07-7496751","COUNTYNAME":"高雄市","TOWNNAME":"苓雅區","MARKTYPE":"994","Class":"4"},"geometry":{"x":182222.71789999958,"y":2502973.8085999992}},{"attributes":{"OBJECTID":21543,"LANDMARKID":"6400000000744","LANDMARKCO":"401","LANDMARKNA":"乃榮醫院","LANDMARKAD":"6400008","ADDRESS":"高雄市苓雅區三多二路226號","TEL":"07-7613151","COUNTYNAME":"高雄市","TOWNNAME":"苓雅區","MARKTYPE":"994","Class":"4"},"geometry":{"x":179993.89159999974,"y":2502240.1090999991}},{"attributes":{"OBJECTID":21544,"LANDMARKID":"6400000000745","LANDMARKCO":"401","LANDMARKNA":"高雄市立民生醫院","LANDMARKAD":"6400008","ADDRESS":"高雄市苓雅區凱旋二路134號","TEL":"07-7511131","COUNTYNAME":"高雄市","TOWNNAME":"苓雅區","MARKTYPE":"994","Class":"4"},"geometry":{"x":180386.75040000025,"y":2503280.2653000001}},{"attributes":{"OBJECTID":21545,"LANDMARKID":"6400000000746","LANDMARKCO":"401","LANDMARKNA":"財團法人高雄基督教信義醫院","LANDMARKAD":"6400008","ADDRESS":"高雄市苓雅區華新街86號","TEL":"07-3321111","COUNTYNAME":"高雄市","TOWNNAME":"苓雅區","MARKTYPE":"994","Class":"4"},"geometry":{"x":177659.56039999984,"y":2501697.9234999996}},{"attributes":{"OBJECTID":21546,"LANDMARKID":"6400000000747","LANDMARKCO":"401","LANDMARKNA":"財團法人天主教聖功醫院","LANDMARKAD":"6400008","ADDRESS":"高雄市苓雅區建國一路352號","TEL":"07-2238153","COUNTYNAME":"高雄市","TOWNNAME":"苓雅區","MARKTYPE":"994","Class":"4"},"geometry":{"x":180506.71119999979,"y":2503816.8041999992}},{"attributes":{"OBJECTID":21547,"LANDMARKID":"6400000000748","LANDMARKCO":"401","LANDMARKNA":"邱外科醫院","LANDMARKAD":"6400008","ADDRESS":"高雄市苓雅區成功一路137號","TEL":"07-3335131","COUNTYNAME":"高雄市","TOWNNAME":"苓雅區","MARKTYPE":"994","Class":"4"},"geometry":{"x":177761.59570000041,"y":2501785.0485999994}},{"attributes":{"OBJECTID":21548,"LANDMARKID":"6400000001222","LANDMARKCO":"513","LANDMARKNA":"三多商圈","LANDMARKAD":"6400008","ADDRESS":"高雄市苓雅區","TEL":" ","COUNTYNAME":"高雄市","TOWNNAME":"苓雅區","MARKTYPE":"995","Class":"5"},"geometry":{"x":178544.29129999969,"y":2501719.8036000002}},{"attributes":{"OBJECTID":21549,"LANDMARKID":"6400000001174","LANDMARKCO":"410","LANDMARKNA":"高雄85大樓","LANDMARKAD":"6400008","ADDRESS":"高雄市苓雅區自強三路1號","TEL":" ","COUNTYNAME":"高雄市","TOWNNAME":"苓雅區","MARKTYPE":"994","Class":"4"},"geometry":{"x":178048.7564000003,"y":2501514.9570000004}},{"attributes":{"OBJECTID":21550,"LANDMARKID":"6400000001197","LANDMARKCO":"507","LANDMARKNA":"陳中和墓","LANDMARKAD":"6400008","ADDRESS":"高雄市苓雅區福安路326號","TEL":" ","COUNTYNAME":"高雄市","TOWNNAME":"苓雅區","MARKTYPE":"995","Class":"5"},"geometry":{"x":180792.69070000015,"y":2503132.8040999994}},{"attributes":{"OBJECTID":21551,"LANDMARKID":"6400000001056","LANDMARKCO":"407","LANDMARKNA":"誠品Eslite","LANDMARKAD":"6400008","ADDRESS":"高雄市苓雅區和平一路218號10F","TEL":"07-222-0800","COUNTYNAME":"高雄市","TOWNNAME":"苓雅區","MARKTYPE":"994","Class":"4"},"geometry":{"x":179904.78340000007,"y":2503529.6604999993}},{"attributes":{"OBJECTID":21552,"LANDMARKID":"6400000001057","LANDMARKCO":"407","LANDMARKNA":"誠品Eslite","LANDMARKAD":"6400008","ADDRESS":"高雄市苓雅區三多四路21號17F","TEL":"07-331-3102","COUNTYNAME":"高雄市","TOWNNAME":"苓雅區","MARKTYPE":"994","Class":"4"},"geometry":{"x":178454.28830000013,"y":2501680.8308000006}},{"attributes":{"OBJECTID":21553,"LANDMARKID":"6400000001133","LANDMARKCO":"408","LANDMARKNA":"郵局-苓雅郵局","LANDMARKAD":"6400008","ADDRESS":"高雄市苓雅區成功一路134號","TEL":"(07)3330-818","COUNTYNAME":"高雄市","TOWNNAME":"苓雅區","MARKTYPE":"994","Class":"4"},"geometry":{"x":177800.57620000001,"y":2501789.2357999999}},{"attributes":{"OBJECTID":21554,"LANDMARKID":"6400000001134","LANDMARKCO":"408","LANDMARKNA":"郵局-高雄市府郵局","LANDMARKAD":"6400008","ADDRESS":"高雄市苓雅區四維三路2號(市政大樓1樓)","TEL":"(07)3318-950","COUNTYNAME":"高雄市","TOWNNAME":"苓雅區","MARKTYPE":"994","Class":"4"},"geometry":{"x":179296.55819999985,"y":2502403.5328000002}},{"attributes":{"OBJECTID":21555,"LANDMARKID":"6400000001135","LANDMARKCO":"408","LANDMARKNA":"郵局-高雄師大郵局","LANDMARKAD":"6400008","ADDRESS":"高雄市苓雅區和平一路116號(高雄師範大學內)","TEL":"(07)7511-343","COUNTYNAME":"高雄市","TOWNNAME":"苓雅區","MARKTYPE":"994","Class":"4"},"geometry":{"x":180090.19570000004,"y":2503095.2259999998}},{"attributes":{"OBJECTID":21556,"LANDMARKID":"6400000001136","LANDMARKCO":"408","LANDMARKNA":"郵局-高雄五塊厝郵局","LANDMARKAD":"6400008","ADDRESS":"高雄市苓雅區三多一路237號","TEL":"(07)7614-810","COUNTYNAME":"高雄市","TOWNNAME":"苓雅區","MARKTYPE":"994","Class":"4"},"geometry":{"x":181160.62359999958,"y":2502606.1984000001}},{"attributes":{"OBJECTID":21557,"LANDMARKID":"6400000001137","LANDMARKCO":"408","LANDMARKNA":"郵局-高雄正言郵局","LANDMARKAD":"6400008","ADDRESS":"高雄市苓雅區中正一路322號","TEL":"(07)7518-290","COUNTYNAME":"高雄市","TOWNNAME":"苓雅區","MARKTYPE":"994","Class":"4"},"geometry":{"x":180794.95669999998,"y":2503454.8227999993}},{"attributes":{"OBJECTID":21558,"LANDMARKID":"6400000001138","LANDMARKCO":"408","LANDMARKNA":"郵局-高雄林華郵局","LANDMARKAD":"6400008","ADDRESS":"高雄市苓雅區三多二路249號","TEL":"(07)7716-170","COUNTYNAME":"高雄市","TOWNNAME":"苓雅區","MARKTYPE":"994","Class":"4"},"geometry":{"x":180177.77209999971,"y":2502265.6447000001}},{"attributes":{"OBJECTID":21559,"LANDMARKID":"6400000001139","LANDMARKCO":"408","LANDMARKNA":"郵局-高雄武廟郵局","LANDMARKAD":"6400008","ADDRESS":"高雄市苓雅區武廟路83號","TEL":"(07)7233-650","COUNTYNAME":"高雄市","TOWNNAME":"苓雅區","MARKTYPE":"994","Class":"4"},"geometry":{"x":181101.99309999961,"y":2503531.9100000001}},{"attributes":{"OBJECTID":21560,"LANDMARKID":"6400000001140","LANDMARKCO":"408","LANDMARKNA":"郵局-高雄文化中心郵局","LANDMARKAD":"6400008","ADDRESS":"高雄市苓雅區光華一路148-30號","TEL":"(07)7152-673","COUNTYNAME":"高雄市","TOWNNAME":"苓雅區","MARKTYPE":"994","Class":"4"},"geometry":{"x":179710.5959999999,"y":2502702.1147000007}},{"attributes":{"OBJECTID":21561,"LANDMARKID":"6400000001038","LANDMARKCO":"406","LANDMARKNA":"凱旋公園","LANDMARKAD":"6400008","ADDRESS":"高雄市苓雅區","TEL":" ","COUNTYNAME":"高雄市","TOWNNAME":"苓雅區","MARKTYPE":"994","Class":"4"},"geometry":{"x":180374.81879999954,"y":2503379.1567000002}},{"attributes":{"OBJECTID":21562,"LANDMARKID":"6400000001050","LANDMARKCO":"407","LANDMARKNA":"建台大丸百貨高雄店","LANDMARKAD":"6400008","ADDRESS":"高雄市自強一路7號","TEL":"07-5666000","COUNTYNAME":"高雄市","TOWNNAME":"苓雅區","MARKTYPE":"994","Class":"4"},"geometry":{"x":178039.2977,"y":2501514.7651000004}},{"attributes":{"OBJECTID":21563,"LANDMARKID":"6400000001051","LANDMARKCO":"407","LANDMARKNA":"大統百貨和平店","LANDMARKAD":"6400008","ADDRESS":"高雄市苓雅區和平一路218號7樓","TEL":"07-2255791","COUNTYNAME":"高雄市","TOWNNAME":"苓雅區","MARKTYPE":"994","Class":"4"},"geometry":{"x":180276.35599999968,"y":2502478.0186000001}},{"attributes":{"OBJECTID":21564,"LANDMARKID":"6400000001052","LANDMARKCO":"407","LANDMARKNA":"小北百貨","LANDMARKAD":"6400008","ADDRESS":"高雄市苓雅區英明里二聖一路58號1樓_","TEL":"07-7248127","COUNTYNAME":"高雄市","TOWNNAME":"苓雅區","MARKTYPE":"994","Class":"4"},"geometry":{"x":180645.48759999964,"y":2501512.4340000004}},{"attributes":{"OBJECTID":21565,"LANDMARKID":"6400000001053","LANDMARKCO":"407","LANDMARKNA":"遠東百貨","LANDMARKAD":"6400008","ADDRESS":"高雄市三多四路21號","TEL":"07-9728888","COUNTYNAME":"高雄市","TOWNNAME":"苓雅區","MARKTYPE":"994","Class":"4"},"geometry":{"x":178454.28830000013,"y":2501680.8308000006}},{"attributes":{"OBJECTID":21566,"LANDMARKID":"6400000001054","LANDMARKCO":"407","LANDMARKNA":"三商百貨","LANDMARKAD":"6400008","ADDRESS":"高雄市苓雅區三多一路335號","TEL":"07-7718970","COUNTYNAME":"高雄市","TOWNNAME":"苓雅區","MARKTYPE":"994","Class":"4"},"geometry":{"x":180927.51260000002,"y":2502522.3986000009}},{"attributes":{"OBJECTID":21567,"LANDMARKID":"6400000001055","LANDMARKCO":"407","LANDMARKNA":"小北百貨-高雄自強店","LANDMARKAD":"6400008","ADDRESS":"高雄市自強路25-1號?","TEL":"(07) 2692330????","COUNTYNAME":"高雄市","TOWNNAME":"苓雅區","MARKTYPE":"994","Class":"4"},"geometry":{"x":178013.69849999994,"y":2501657.4896000009}},{"attributes":{"OBJECTID":21568,"LANDMARKID":"6400000000982","LANDMARKCO":"405","LANDMARKNA":"全國加油站-三多站（台塑）","LANDMARKAD":"6400008","ADDRESS":"高雄市苓雅區三多二路197號","TEL":"07-7516401","COUNTYNAME":"高雄市","TOWNNAME":"苓雅區","MARKTYPE":"994","Class":"4"},"geometry":{"x":180363.19000000041,"y":2502326.5007000007}},{"attributes":{"OBJECTID":21569,"LANDMARKID":"6400000000163","LANDMARKCO":"107","LANDMARKNA":"高雄市政府警察局福德二路派出","LANDMARKAD":"6400008","ADDRESS":"高雄市苓雅區正文里福德二路77號","TEL":"07-7233343","COUNTYNAME":"高雄市","TOWNNAME":"苓雅區","MARKTYPE":"991","Class":"1"},"geometry":{"x":180927.69240000006,"y":2503820.1243999992}},{"attributes":{"OBJECTID":21570,"LANDMARKID":"6400000000069","LANDMARKCO":"103","LANDMARKNA":"高雄市政府家畜衛生檢驗所","LANDMARKAD":"6400008","ADDRESS":"高雄市苓雅區憲政路242巷5號","TEL":"07-2249733","COUNTYNAME":"高雄市","TOWNNAME":"苓雅區","MARKTYPE":"991","Class":"1"},"geometry":{"x":180381.49019999988,"y":2504260.2258000001}},{"attributes":{"OBJECTID":21571,"LANDMARKID":"6400000000070","LANDMARKCO":"103","LANDMARKNA":"高雄市政府衛生局","LANDMARKAD":"6400008","ADDRESS":"高雄市苓雅區凱旋二路132號","TEL":"07-7134000","COUNTYNAME":"高雄市","TOWNNAME":"苓雅區","MARKTYPE":"991","Class":"1"},"geometry":{"x":180614.33849999961,"y":2503090.0113999993}},{"attributes":{"OBJECTID":21572,"LANDMARKID":"6400000000071","LANDMARKCO":"103","LANDMARKNA":"高雄市苓雅區衛生所","LANDMARKAD":"6400008","ADDRESS":"高雄市苓雅區民權一路85號3樓","TEL":"07-5360559","COUNTYNAME":"高雄市","TOWNNAME":"苓雅區","MARKTYPE":"991","Class":"1"},"geometry":{"x":179301.45500000007,"y":2502574.8055000007}},{"attributes":{"OBJECTID":21573,"LANDMARKID":"6400000000225","LANDMARKCO":"108","LANDMARKNA":"高雄市苓雅區公所","LANDMARKAD":"6400008","ADDRESS":"高雄市苓雅區民權一路85號4樓","TEL":"07-3322351","COUNTYNAME":"高雄市","TOWNNAME":"苓雅區","MARKTYPE":"991","Class":"1"},"geometry":{"x":179301.45500000007,"y":2502574.8055000007}},{"attributes":{"OBJECTID":21574,"LANDMARKID":"6400000000067","LANDMARKCO":"103","LANDMARKNA":"高雄市政府文化局","LANDMARKAD":"6400008","ADDRESS":"高雄市五福一路67號","TEL":"07-2225136","COUNTYNAME":"高雄市","TOWNNAME":"苓雅區","MARKTYPE":"991","Class":"1"},"geometry":{"x":179794.55640000012,"y":2503280.4242000002}},{"attributes":{"OBJECTID":21575,"LANDMARKID":"6400000000149","LANDMARKCO":"107","LANDMARKNA":"高雄市政府警察局苓雅分局","LANDMARKAD":"6400008","ADDRESS":"高雄市苓雅區仁政里苓雅一路367號","TEL":"07-3353760","COUNTYNAME":"高雄市","TOWNNAME":"苓雅區","MARKTYPE":"991","Class":"1"},"geometry":{"x":178410.39499999955,"y":2502187.1580999997}},{"attributes":{"OBJECTID":21576,"LANDMARKID":"6400000000150","LANDMARKCO":"107","LANDMARKNA":"高雄市政府警察局凱旋路派出所","LANDMARKAD":"6400008","ADDRESS":"高雄市苓雅區凱旋里凱旋二路145號","TEL":"07-2236222","COUNTYNAME":"高雄市","TOWNNAME":"苓雅區","MARKTYPE":"991","Class":"1"},"geometry":{"x":180273.48060000036,"y":2503409.3056000005}},{"attributes":{"OBJECTID":21577,"LANDMARKID":"6400000000151","LANDMARKCO":"107","LANDMARKNA":"高雄市政府警察局三多路派出所","LANDMARKAD":"6400008","ADDRESS":"高雄市苓雅區福祥里三多一路168號","TEL":"07-7615655","COUNTYNAME":"高雄市","TOWNNAME":"苓雅區","MARKTYPE":"991","Class":"1"},"geometry":{"x":181136.23429999966,"y":2502649.3324999996}},{"attributes":{"OBJECTID":21578,"LANDMARKID":"6400000000152","LANDMARKCO":"107","LANDMARKNA":"高雄市政府警察局民權路派出所","LANDMARKAD":"6400008","ADDRESS":"高雄市苓雅區普天里四維二路369號","TEL":"07-3333631","COUNTYNAME":"高雄市","TOWNNAME":"苓雅區","MARKTYPE":"991","Class":"1"},"geometry":{"x":179452.05420000013,"y":2502377.5}},{"attributes":{"OBJECTID":21579,"LANDMARKID":"6400000000153","LANDMARKCO":"107","LANDMARKNA":"高雄市政府警察局成功路派出所","LANDMARKAD":"6400008","ADDRESS":"高雄市苓雅區城北里成功一路136號","TEL":"07-3334793","COUNTYNAME":"高雄市","TOWNNAME":"苓雅區","MARKTYPE":"991","Class":"1"},"geometry":{"x":177795.84339999966,"y":2501805.4635000005}},{"attributes":{"OBJECTID":21580,"LANDMARKID":"6400000000154","LANDMARKCO":"107","LANDMARKNA":"內政部入出國及移民署","LANDMARKAD":"6400008","ADDRESS":"高雄市苓雅區海邊路33號","TEL":"07-2692807","COUNTYNAME":"高雄市","TOWNNAME":"苓雅區","MARKTYPE":"991","Class":"1"},"geometry":{"x":177378.13690000027,"y":2502030.1865999997}},{"attributes":{"OBJECTID":21581,"LANDMARKID":"6400000000155","LANDMARKCO":"107","LANDMARKNA":"高雄市消防局南區消防大隊","LANDMARKAD":"6400008","ADDRESS":"高雄市苓雅區三多一路162號4樓","TEL":"07-7224065","COUNTYNAME":"高雄市","TOWNNAME":"苓雅區","MARKTYPE":"991","Class":"1"},"geometry":{"x":181184.73280000035,"y":2502669.2643999998}},{"attributes":{"OBJECTID":21582,"LANDMARKID":"6400000000156","LANDMARKCO":"107","LANDMARKNA":"高雄市消防局南二消防中隊","LANDMARKAD":"6400008","ADDRESS":"高雄市苓雅區三多一路162號3樓","TEL":"07-7254374","COUNTYNAME":"高雄市","TOWNNAME":"苓雅區","MARKTYPE":"991","Class":"1"},"geometry":{"x":181184.73280000035,"y":2502669.2643999998}},{"attributes":{"OBJECTID":21583,"LANDMARKID":"6400000000157","LANDMARKCO":"107","LANDMARKNA":"高雄市消防局苓雅分隊","LANDMARKAD":"6400008","ADDRESS":"高雄市苓雅區三多一路162號","TEL":"07-7254374","COUNTYNAME":"高雄市","TOWNNAME":"苓雅區","MARKTYPE":"991","Class":"1"},"geometry":{"x":181184.73280000035,"y":2502669.2643999998}},{"attributes":{"OBJECTID":21584,"LANDMARKID":"6400000000107","LANDMARKCO":"105","LANDMARKNA":"高雄市政府地政處","LANDMARKAD":"6400008","ADDRESS":"高雄市苓雅區四維三路2號7樓","TEL":"07-3373449","COUNTYNAME":"高雄市","TOWNNAME":"苓雅區","MARKTYPE":"991","Class":"1"},"geometry":{"x":179296.83829999994,"y":2502403.7840999998}},{"attributes":{"OBJECTID":21585,"LANDMARKID":"6400000000108","LANDMARKCO":"105","LANDMARKNA":"高雄市政府地政處土地開發總隊","LANDMARKAD":"6400008","ADDRESS":"高雄市苓雅區四維三路2號7樓","TEL":"07-3368333","COUNTYNAME":"高雄市","TOWNNAME":"苓雅區","MARKTYPE":"991","Class":"1"},"geometry":{"x":179296.83829999994,"y":2502403.7840999998}},{"attributes":{"OBJECTID":21586,"LANDMARKID":"6400000000066","LANDMARKCO":"103","LANDMARKNA":"高雄市政府民政局","LANDMARKAD":"6400008","ADDRESS":"高雄市苓雅區晴朗里5鄰四維三路2號9樓","TEL":"07-3307162","COUNTYNAME":"高雄市","TOWNNAME":"苓雅區","MARKTYPE":"991","Class":"1"},"geometry":{"x":179296.83829999994,"y":2502403.7840999998}},{"attributes":{"OBJECTID":21587,"LANDMARKID":"6400000000120","LANDMARKCO":"106","LANDMARKNA":"高雄市苓雅區戶政事務所","LANDMARKAD":"6400008","ADDRESS":"高雄市苓雅區民權一路85號2樓","TEL":"07-3302232","COUNTYNAME":"高雄市","TOWNNAME":"苓雅區","MARKTYPE":"991","Class":"1"},"geometry":{"x":179301.45500000007,"y":2502574.8055000007}},{"attributes":{"OBJECTID":21588,"LANDMARKID":"6400000000027","LANDMARKCO":"101","LANDMARKNA":"標準檢驗局高雄分局","LANDMARKAD":"6400008","ADDRESS":"高雄市苓雅區海邊路50號","TEL":"07-2511151","COUNTYNAME":"高雄市","TOWNNAME":"苓雅區","MARKTYPE":"991","Class":"1"},"geometry":{"x":177372.83000000007,"y":2502243.1614999995}},{"attributes":{"OBJECTID":21589,"LANDMARKID":"6400000000100","LANDMARKCO":"104","LANDMARKNA":"高雄市國稅局","LANDMARKAD":"6400008","ADDRESS":"高雄市苓雅區廣州一街148號","TEL":"07-7256600","COUNTYNAME":"高雄市","TOWNNAME":"苓雅區","MARKTYPE":"991","Class":"1"},"geometry":{"x":179857.09020000044,"y":2502722.7237}},{"attributes":{"OBJECTID":21590,"LANDMARKID":"6400000000028","LANDMARKCO":"101","LANDMARKNA":"高雄市監理處南區分處","LANDMARKAD":"6400008","ADDRESS":"高雄市苓雅區安康路22號","TEL":"07-2257812","COUNTYNAME":"高雄市","TOWNNAME":"苓雅區","MARKTYPE":"991","Class":"1"},"geometry":{"x":180149.68130000029,"y":2504287.7221000008}},{"attributes":{"OBJECTID":21591,"LANDMARKID":"6400000000099","LANDMARKCO":"104","LANDMARKNA":"高雄市國稅局苓雅稽徵所","LANDMARKAD":"6400008","ADDRESS":"高雄市苓雅區民權一路85號8樓","TEL":"07-3302058","COUNTYNAME":"高雄市","TOWNNAME":"苓雅區","MARKTYPE":"991","Class":"1"},"geometry":{"x":179301.45500000007,"y":2502574.8055000007}},{"attributes":{"OBJECTID":21592,"LANDMARKID":"6400000000060","LANDMARKCO":"103","LANDMARKNA":"高雄市政府","LANDMARKAD":"6400008","ADDRESS":"高雄市苓雅區四維三路2號","TEL":"07-3368333","COUNTYNAME":"高雄市","TOWNNAME":"苓雅區","MARKTYPE":"991","Class":"1"},"geometry":{"x":179296.83829999994,"y":2502403.7840999998}},{"attributes":{"OBJECTID":21593,"LANDMARKID":"6400000000061","LANDMARKCO":"103","LANDMARKNA":"高雄市輪船股份有限公司","LANDMARKAD":"6400008","ADDRESS":"高雄市苓雅區建軍路2號","TEL":"07-7496747","COUNTYNAME":"高雄市","TOWNNAME":"苓雅區","MARKTYPE":"991","Class":"1"},"geometry":{"x":182503.6353000002,"y":2502910.0382000003}},{"attributes":{"OBJECTID":21594,"LANDMARKID":"6400000000062","LANDMARKCO":"103","LANDMARKNA":"高雄市政府性侵害防治中心","LANDMARKAD":"6400008","ADDRESS":"高雄市苓雅區民權一路85號10樓","TEL":"07-5355920","COUNTYNAME":"高雄市","TOWNNAME":"苓雅區","MARKTYPE":"991","Class":"1"},"geometry":{"x":179301.45500000007,"y":2502574.8055000007}},{"attributes":{"OBJECTID":21595,"LANDMARKID":"6400000000063","LANDMARKCO":"103","LANDMARKNA":"高雄市政府家庭暴力性侵害防治中心","LANDMARKAD":"6400008","ADDRESS":"高雄市苓雅區民權一路85號10樓","TEL":"07-5355920","COUNTYNAME":"高雄市","TOWNNAME":"苓雅區","MARKTYPE":"991","Class":"1"},"geometry":{"x":179301.45500000007,"y":2502574.8055000007}},{"attributes":{"OBJECTID":21596,"LANDMARKID":"6400000000064","LANDMARKCO":"103","LANDMARKNA":"高雄市政府訴願審議委員會","LANDMARKAD":"6400008","ADDRESS":"高雄市四維三路2號3F","TEL":"07-3373704","COUNTYNAME":"高雄市","TOWNNAME":"苓雅區","MARKTYPE":"991","Class":"1"},"geometry":{"x":179296.83829999994,"y":2502403.7840999998}},{"attributes":{"OBJECTID":21597,"LANDMARKID":"6400000000065","LANDMARKCO":"103","LANDMARKNA":"高雄市都市計畫委員會","LANDMARKAD":"6400008","ADDRESS":"高雄市苓雅區四維三路2號6樓","TEL":"07-3373260","COUNTYNAME":"高雄市","TOWNNAME":"苓雅區","MARKTYPE":"991","Class":"1"},"geometry":{"x":179296.83829999994,"y":2502403.7840999998}},{"attributes":{"OBJECTID":21598,"LANDMARKID":"6400000000029","LANDMARKCO":"101","LANDMARKNA":"環境保護局苓雅區清潔隊","LANDMARKAD":"6400008","ADDRESS":"高雄市苓雅區三多二路102號","TEL":"07-7132650","COUNTYNAME":"高雄市","TOWNNAME":"苓雅區","MARKTYPE":"991","Class":"1"},"geometry":{"x":180338.1436999999,"y":2502360.3167000003}},{"attributes":{"OBJECTID":21599,"LANDMARKID":"6400000000059","LANDMARKCO":"103","LANDMARKNA":"高雄市政府捷運工程局","LANDMARKAD":"6400008","ADDRESS":"高雄市苓雅區四維三路2號10樓","TEL":"07-3373719","COUNTYNAME":"高雄市","TOWNNAME":"苓雅區","MARKTYPE":"991","Class":"1"},"geometry":{"x":179296.83829999994,"y":2502403.7840999998}},{"attributes":{"OBJECTID":21600,"LANDMARKID":"6400000000030","LANDMARKCO":"101","LANDMARKNA":"農業委員會動植物防疫檢疫局","LANDMARKAD":"6400008","ADDRESS":"高雄市小港區苓雅區海邊路31號1樓，5樓","TEL":"07-5360070","COUNTYNAME":"高雄市","TOWNNAME":"苓雅區","MARKTYPE":"991","Class":"1"},"geometry":{"x":177287.76140000019,"y":2502270.5077999998}}]}