{"displayFieldName":"COUNTYNAME","fieldAliases":{"OBJECTID":"OBJECTID","LANDMARKID":"LANDMARKID","LANDMARKCO":"LANDMARKCO","LANDMARKNA":"LANDMARKNA","LANDMARKAD":"LANDMARKAD","ADDRESS":"ADDRESS","TEL":"TEL","COUNTYNAME":"COUNTYNAME","TOWNNAME":"TOWNNAME","MARKTYPE":"MARKTYPE","Class":"Class"},"geometryType":"esriGeometryPoint","spatialReference":{"wkid":102443},"fields":[{"name":"OBJECTID","type":"esriFieldTypeOID","alias":"OBJECTID"},{"name":"LANDMARKID","type":"esriFieldTypeString","alias":"LANDMARKID","length":15},{"name":"LANDMARKCO","type":"esriFieldTypeString","alias":"LANDMARKCO","length":15},{"name":"LANDMARKNA","type":"esriFieldTypeString","alias":"LANDMARKNA","length":50},{"name":"LANDMARKAD","type":"esriFieldTypeString","alias":"LANDMARKAD","length":15},{"name":"ADDRESS","type":"esriFieldTypeString","alias":"ADDRESS","length":56},{"name":"TEL","type":"esriFieldTypeString","alias":"TEL","length":36},{"name":"COUNTYNAME","type":"esriFieldTypeString","alias":"COUNTYNAME","length":15},{"name":"TOWNNAME","type":"esriFieldTypeString","alias":"TOWNNAME","length":13},{"name":"MARKTYPE","type":"esriFieldTypeString","alias":"MARKTYPE","length":12},{"name":"Class","type":"esriFieldTypeString","alias":"Class","length":5}],"features":[{"attributes":{"OBJECTID":21201,"LANDMARKID":"6400000000552","LANDMARKCO":"303","LANDMARKNA":"高雄市立美術館停車場","LANDMARKAD":"6400002","ADDRESS":"高雄市鼓山區","TEL":"07-5550331","COUNTYNAME":"高雄市","TOWNNAME":"鼓山區","MARKTYPE":"993","Class":"303"},"geometry":{"x":176757.53010000009,"y":2506274.1381999999}},{"attributes":{"OBJECTID":21202,"LANDMARKID":"6400000000553","LANDMARKCO":"303","LANDMARKNA":"高雄市立美術館停車場","LANDMARKAD":"6400002","ADDRESS":"高雄市鼓山區","TEL":"07-5550331","COUNTYNAME":"高雄市","TOWNNAME":"鼓山區","MARKTYPE":"993","Class":"303"},"geometry":{"x":176371.14410000015,"y":2506278.5767999999}},{"attributes":{"OBJECTID":21203,"LANDMARKID":"6400000000554","LANDMARKCO":"303","LANDMARKNA":"國立中山大學收費停車場","LANDMARKAD":"6400002","ADDRESS":"高雄市鼓山區蓮海路70號","TEL":" ","COUNTYNAME":"高雄市","TOWNNAME":"鼓山區","MARKTYPE":"993","Class":"303"},"geometry":{"x":174565.74799999967,"y":2502157.0222999994}},{"attributes":{"OBJECTID":21204,"LANDMARKID":"6400000000683","LANDMARKCO":"306","LANDMARKNA":"西子灣捷運站-出口1","LANDMARKAD":"6400002","ADDRESS":" ","TEL":" ","COUNTYNAME":"高雄市","TOWNNAME":"鼓山區","MARKTYPE":"993","Class":"306"},"geometry":{"x":175306.72809999995,"y":2502612.2414999995}},{"attributes":{"OBJECTID":21205,"LANDMARKID":"6400000000684","LANDMARKCO":"306","LANDMARKNA":"西子灣捷運站-出口2","LANDMARKAD":"6400002","ADDRESS":" ","TEL":" ","COUNTYNAME":"高雄市","TOWNNAME":"鼓山區","MARKTYPE":"993","Class":"306"},"geometry":{"x":175499.73460000008,"y":2502563.9050999992}},{"attributes":{"OBJECTID":21206,"LANDMARKID":"6400000000685","LANDMARKCO":"306","LANDMARKNA":"凹子底捷運站-出口1","LANDMARKAD":"6400002","ADDRESS":" ","TEL":" ","COUNTYNAME":"高雄市","TOWNNAME":"鼓山區","MARKTYPE":"993","Class":"306"},"geometry":{"x":178347.9813000001,"y":2506488.8764999993}},{"attributes":{"OBJECTID":21207,"LANDMARKID":"6400000000686","LANDMARKCO":"306","LANDMARKNA":"凹子底捷運站-出口4","LANDMARKAD":"6400002","ADDRESS":" ","TEL":" ","COUNTYNAME":"高雄市","TOWNNAME":"鼓山區","MARKTYPE":"993","Class":"306"},"geometry":{"x":178323.50090000033,"y":2506654.9683999997}},{"attributes":{"OBJECTID":21208,"LANDMARKID":"6400000000687","LANDMARKCO":"306","LANDMARKNA":"巨蛋捷運站-出口2","LANDMARKAD":"6400002","ADDRESS":" ","TEL":" ","COUNTYNAME":"高雄市","TOWNNAME":"鼓山區","MARKTYPE":"993","Class":"306"},"geometry":{"x":178367.28949999996,"y":2507431.9708999991}},{"attributes":{"OBJECTID":21209,"LANDMARKID":"6400000000546","LANDMARKCO":"303","LANDMARKNA":"壽山步道口停車場","LANDMARKAD":"6400002","ADDRESS":"高雄市鼓山區","TEL":" ","COUNTYNAME":"高雄市","TOWNNAME":"鼓山區","MARKTYPE":"993","Class":"303"},"geometry":{"x":175305.55030000024,"y":2505875.2907999996}},{"attributes":{"OBJECTID":21210,"LANDMARKID":"6400000000547","LANDMARKCO":"303","LANDMARKNA":"忠烈祠停車場","LANDMARKAD":"6400002","ADDRESS":"高雄市鼓山區","TEL":" ","COUNTYNAME":"高雄市","TOWNNAME":"鼓山區","MARKTYPE":"993","Class":"303"},"geometry":{"x":175417.03100000042,"y":2502980.4769000001}},{"attributes":{"OBJECTID":21211,"LANDMARKID":"6400000000548","LANDMARKCO":"303","LANDMARKNA":"壽山公園停車場","LANDMARKAD":"6400002","ADDRESS":"高雄市鼓山區","TEL":" ","COUNTYNAME":"高雄市","TOWNNAME":"鼓山區","MARKTYPE":"993","Class":"303"},"geometry":{"x":175412.67659999989,"y":2503269.9876000006}},{"attributes":{"OBJECTID":21212,"LANDMARKID":"6400000000549","LANDMARKCO":"303","LANDMARKNA":"高雄市立聯合醫院美術館院區停車場","LANDMARKAD":"6400002","ADDRESS":"高雄市美術館路","TEL":" ","COUNTYNAME":"高雄市","TOWNNAME":"鼓山區","MARKTYPE":"993","Class":"303"},"geometry":{"x":177068.18659999967,"y":2506270.5159000009}},{"attributes":{"OBJECTID":21213,"LANDMARKID":"6400000000428","LANDMARKCO":"301","LANDMARKNA":"鼓山車站","LANDMARKAD":"6400002","ADDRESS":"高雄市鼓山區鐵路街3號","TEL":"07-5514006","COUNTYNAME":"高雄市","TOWNNAME":"鼓山區","MARKTYPE":"993","Class":"301"},"geometry":{"x":176064.92750000022,"y":2504826.3944000006}},{"attributes":{"OBJECTID":21214,"LANDMARKID":"6400000000429","LANDMARKCO":"301","LANDMARKNA":"高雄港車站","LANDMARKAD":"6400002","ADDRESS":"高雄市鼓山區鼓山一路32號","TEL":"03-9771429","COUNTYNAME":"高雄市","TOWNNAME":"鼓山區","MARKTYPE":"993","Class":"301"},"geometry":{"x":175513.67470000032,"y":2502562.0741000008}},{"attributes":{"OBJECTID":21215,"LANDMARKID":"6400000000812","LANDMARKCO":"402","LANDMARKNA":"中華電信-高雄西子灣特約服務中心","LANDMARKAD":"6400002","ADDRESS":"高雄市鼓山區臨海二路20號","TEL":"07-5314988","COUNTYNAME":"高雄市","TOWNNAME":"鼓山區","MARKTYPE":"994","Class":"4"},"geometry":{"x":175337.54260000028,"y":2502625.7522}},{"attributes":{"OBJECTID":21216,"LANDMARKID":"6400000000813","LANDMARKCO":"402","LANDMARKNA":"中華電信-文信服務中心","LANDMARKAD":"6400002","ADDRESS":"高雄市文信路262號","TEL":"123或0800-080-123","COUNTYNAME":"高雄市","TOWNNAME":"鼓山區","MARKTYPE":"994","Class":"4"},"geometry":{"x":177918.54879999999,"y":2507331.6698000003}},{"attributes":{"OBJECTID":21217,"LANDMARKID":"6400000000814","LANDMARKCO":"402","LANDMARKNA":"遠傳電信-高雄華榮門市","LANDMARKAD":"6400002","ADDRESS":"高雄市鼓山區華榮路307號","TEL":" ","COUNTYNAME":"高雄市","TOWNNAME":"鼓山區","MARKTYPE":"994","Class":"4"},"geometry":{"x":177709.56799999997,"y":2507540.0346000008}},{"attributes":{"OBJECTID":21218,"LANDMARKID":"6400000000815","LANDMARKCO":"402","LANDMARKNA":"威寶電信-高雄裕誠特約服務中心","LANDMARKAD":"6400002","ADDRESS":"高雄市鼓山區裕誠路1107號","TEL":"07-5557737","COUNTYNAME":"高雄市","TOWNNAME":"鼓山區","MARKTYPE":"994","Class":"4"},"geometry":{"x":177920.16189999972,"y":2507413.6775000002}},{"attributes":{"OBJECTID":21219,"LANDMARKID":"6400000000816","LANDMARKCO":"402","LANDMARKNA":"大眾電信(震旦通訊)-高雄文信店","LANDMARKAD":"6400002","ADDRESS":"高雄市明倫路442號1.","TEL":"07-5505538","COUNTYNAME":"高雄市","TOWNNAME":"鼓山區","MARKTYPE":"994","Class":"4"},"geometry":{"x":177847.7341,"y":2507292.3355999999}},{"attributes":{"OBJECTID":21220,"LANDMARKID":"6400000001383","LANDMARKCO":"603","LANDMARKNA":"御宿汽車旅館明誠館","LANDMARKAD":"6400002","ADDRESS":"高雄市鼓山區龍勝路333號","TEL":"07-5505501","COUNTYNAME":"高雄市","TOWNNAME":"鼓山區","MARKTYPE":"996","Class":"6"},"geometry":{"x":177625.45110000018,"y":2506909.9489999991}},{"attributes":{"OBJECTID":21221,"LANDMARKID":"6400000001384","LANDMARKCO":"603","LANDMARKNA":"日光花園汽車旅館","LANDMARKAD":"6400002","ADDRESS":"高雄市鼓山區美術東四路333號","TEL":"07-5552788","COUNTYNAME":"高雄市","TOWNNAME":"鼓山區","MARKTYPE":"996","Class":"6"},"geometry":{"x":177050.56269999966,"y":2507078.2162999995}},{"attributes":{"OBJECTID":21222,"LANDMARKID":"6400000001385","LANDMARKCO":"603","LANDMARKNA":"伊甸風情精品旅店","LANDMARKAD":"6400002","ADDRESS":"高雄市鼓山區裕誠路1685號1-3樓","TEL":"07-9740888","COUNTYNAME":"高雄市","TOWNNAME":"鼓山區","MARKTYPE":"996","Class":"6"},"geometry":{"x":177487.16119999997,"y":2506800.3516000006}},{"attributes":{"OBJECTID":21223,"LANDMARKID":"6400000001386","LANDMARKCO":"603","LANDMARKNA":"四季汽車旅館","LANDMARKAD":"6400002","ADDRESS":"高雄市鼓山區裕誠路1789號1-3樓","TEL":"07-5523322","COUNTYNAME":"高雄市","TOWNNAME":"鼓山區","MARKTYPE":"996","Class":"6"},"geometry":{"x":177478.86830000021,"y":2506651.3122000005}},{"attributes":{"OBJECTID":21224,"LANDMARKID":"6400000001387","LANDMARKCO":"603","LANDMARKNA":"壽山旅社","LANDMARKAD":"6400002","ADDRESS":"高雄市鼓山區鼓山一路49號","TEL":"07-5514696","COUNTYNAME":"高雄市","TOWNNAME":"鼓山區","MARKTYPE":"996","Class":"6"},"geometry":{"x":175604.08849999961,"y":2502820.6498000007}},{"attributes":{"OBJECTID":21225,"LANDMARKID":"6400000001388","LANDMARKCO":"603","LANDMARKNA":"環球旅社","LANDMARKAD":"6400002","ADDRESS":"高雄市鼓山區鼓南街38號","TEL":"07-5214217-0","COUNTYNAME":"高雄市","TOWNNAME":"鼓山區","MARKTYPE":"996","Class":"6"},"geometry":{"x":175129.32100000046,"y":2502467.1334000006}},{"attributes":{"OBJECTID":21226,"LANDMARKID":"6400000001389","LANDMARKCO":"603","LANDMARKNA":"統一渡假村\u2500西子灣海景商務飯店","LANDMARKAD":"6400002","ADDRESS":"高雄市鼓山區哨船街14號","TEL":"07-5336676","COUNTYNAME":"高雄市","TOWNNAME":"鼓山區","MARKTYPE":"996","Class":"6"},"geometry":{"x":174857.86089999974,"y":2502254.2141999993}},{"attributes":{"OBJECTID":21227,"LANDMARKID":"6400000001390","LANDMARKCO":"603","LANDMARKNA":"御宿汽車旅館","LANDMARKAD":"6400002","ADDRESS":"高雄市鼓山區文信路311號","TEL":"07-5532236","COUNTYNAME":"高雄市","TOWNNAME":"鼓山區","MARKTYPE":"996","Class":"6"},"geometry":{"x":178027.91909999959,"y":2507253.1853999998}},{"attributes":{"OBJECTID":21228,"LANDMARKID":"6400000001391","LANDMARKCO":"603","LANDMARKNA":"春天商務旅館 (明誠店)","LANDMARKAD":"6400002","ADDRESS":"高雄市鼓山區明誠四路25號","TEL":"07-5526626","COUNTYNAME":"高雄市","TOWNNAME":"鼓山區","MARKTYPE":"996","Class":"6"},"geometry":{"x":177146.70249999966,"y":2506897.0949000008}},{"attributes":{"OBJECTID":21229,"LANDMARKID":"6400000001392","LANDMARKCO":"603","LANDMARKNA":"西悠飯店","LANDMARKAD":"6400002","ADDRESS":"高雄市鼓山區中華一路453號1至11樓","TEL":"07-5525388","COUNTYNAME":"高雄市","TOWNNAME":"鼓山區","MARKTYPE":"996","Class":"6"},"geometry":{"x":177293.6202999996,"y":2506298.4459000006}},{"attributes":{"OBJECTID":21230,"LANDMARKID":"6400000001211","LANDMARKCO":"511","LANDMARKNA":"內惟夜市","LANDMARKAD":"6400002","ADDRESS":"高雄市鼓山區","TEL":" ","COUNTYNAME":"高雄市","TOWNNAME":"鼓山區","MARKTYPE":"995","Class":"5"},"geometry":{"x":176066.78110000025,"y":2506857.6596000008}},{"attributes":{"OBJECTID":21231,"LANDMARKID":"6400000001179","LANDMARKCO":"503","LANDMARKNA":"柴山自然公園","LANDMARKAD":"6400002","ADDRESS":"高雄市鼓山區","TEL":" ","COUNTYNAME":"高雄市","TOWNNAME":"鼓山區","MARKTYPE":"995","Class":"5"},"geometry":{"x":174424.90060000028,"y":2506285.1228}},{"attributes":{"OBJECTID":21232,"LANDMARKID":"6400000001203","LANDMARKCO":"509","LANDMARKNA":"西子灣海水浴場","LANDMARKAD":"6400002","ADDRESS":"高雄市鼓山區蓮海路51號","TEL":" ","COUNTYNAME":"高雄市","TOWNNAME":"鼓山區","MARKTYPE":"995","Class":"5"},"geometry":{"x":174424.90890000015,"y":2502956.9031000007}},{"attributes":{"OBJECTID":21233,"LANDMARKID":"6400000001180","LANDMARKCO":"503","LANDMARKNA":"萬壽山風景區","LANDMARKAD":"6400002","ADDRESS":"高雄市鼓山區","TEL":" ","COUNTYNAME":"高雄市","TOWNNAME":"鼓山區","MARKTYPE":"995","Class":"5"},"geometry":{"x":175831.81240000017,"y":2504085.1651000008}},{"attributes":{"OBJECTID":21234,"LANDMARKID":"6400000001181","LANDMARKCO":"503","LANDMARKNA":"萬壽山公園風景區","LANDMARKAD":"6400002","ADDRESS":"高雄市鼓山區","TEL":" ","COUNTYNAME":"高雄市","TOWNNAME":"鼓山區","MARKTYPE":"995","Class":"5"},"geometry":{"x":175692.70289999992,"y":2503270.8336999994}},{"attributes":{"OBJECTID":21235,"LANDMARKID":"6400000001182","LANDMARKCO":"503","LANDMARKNA":"高雄漁人碼頭","LANDMARKAD":"6400002","ADDRESS":"高雄市鼓山區蓬萊路17號(","TEL":"07-5215559","COUNTYNAME":"高雄市","TOWNNAME":"鼓山區","MARKTYPE":"995","Class":"5"},"geometry":{"x":175817.01130000036,"y":2502335.1657999996}},{"attributes":{"OBJECTID":21236,"LANDMARKID":"6400000000967","LANDMARKCO":"405","LANDMARKNA":"中油加油站-林森二路站(中油直營)","LANDMARKAD":"6400006","ADDRESS":"高雄市新興區新田路82號","TEL":"07-2819638","COUNTYNAME":"高雄市","TOWNNAME":"新興區","MARKTYPE":"994","Class":"4"},"geometry":{"x":178634.1202999996,"y":2502714.4430999998}},{"attributes":{"OBJECTID":21237,"LANDMARKID":"6400000000968","LANDMARKCO":"405","LANDMARKNA":"中油加油站-中正二路站(刷卡自助)(中油直營)","LANDMARKAD":"6400006","ADDRESS":"高雄市新興區中正二路166號","TEL":"07-2241235","COUNTYNAME":"高雄市","TOWNNAME":"新興區","MARKTYPE":"994","Class":"4"},"geometry":{"x":179803.52029999997,"y":2503552.5529999994}},{"attributes":{"OBJECTID":21238,"LANDMARKID":"6400000000969","LANDMARKCO":"405","LANDMARKNA":"中油加油站-中正三路站(中油直營)","LANDMARKAD":"6400006","ADDRESS":"高雄市新興區中正三路9號","TEL":"07-2261045","COUNTYNAME":"高雄市","TOWNNAME":"新興區","MARKTYPE":"994","Class":"4"},"geometry":{"x":179127.99880000018,"y":2503531.4068}},{"attributes":{"OBJECTID":21239,"LANDMARKID":"6400000000869","LANDMARKCO":"402","LANDMARKNA":"My Phone台灣大哥大-高雄林森直營服務中心","LANDMARKAD":"6400006","ADDRESS":"高雄市新興區林森一路243-1號","TEL":"0809-000-166","COUNTYNAME":"高雄市","TOWNNAME":"新興區","MARKTYPE":"994","Class":"4"},"geometry":{"x":178538.18200000003,"y":2504024.9618999995}},{"attributes":{"OBJECTID":21240,"LANDMARKID":"6400000000870","LANDMARKCO":"402","LANDMARKNA":"亞太行動寬頻電信-高雄五福加盟服務中心","LANDMARKAD":"6400006","ADDRESS":"高雄市新興區林森一路14號","TEL":"07-2154567","COUNTYNAME":"高雄市","TOWNNAME":"新興區","MARKTYPE":"994","Class":"4"},"geometry":{"x":178553.59240000043,"y":2502921.0602000002}},{"attributes":{"OBJECTID":21241,"LANDMARKID":"6400000000871","LANDMARKCO":"402","LANDMARKNA":"亞太行動寬頻電信-高雄林森加盟服務中心","LANDMARKAD":"6400006","ADDRESS":"高雄市新興區林森一路227號","TEL":"07-2363333","COUNTYNAME":"高雄市","TOWNNAME":"新興區","MARKTYPE":"994","Class":"4"},"geometry":{"x":178527.81269999966,"y":2503889.9134}},{"attributes":{"OBJECTID":21242,"LANDMARKID":"6400000000872","LANDMARKCO":"402","LANDMARKNA":"亞太行動寬頻電信-高雄民族加盟服務中心","LANDMARKAD":"6400006","ADDRESS":"高雄市新興區民族二路131號","TEL":"07-2382111","COUNTYNAME":"高雄市","TOWNNAME":"新興區","MARKTYPE":"994","Class":"4"},"geometry":{"x":179429.71949999966,"y":2503880.4346999992}},{"attributes":{"OBJECTID":21243,"LANDMARKID":"6400000000731","LANDMARKCO":"401","LANDMARKNA":"惠仁醫院","LANDMARKAD":"6400006","ADDRESS":"高雄市新興區中山一路67之2號","TEL":"07-2010196","COUNTYNAME":"高雄市","TOWNNAME":"新興區","MARKTYPE":"994","Class":"4"},"geometry":{"x":178195.91750000045,"y":2503466.7129999995}},{"attributes":{"OBJECTID":21244,"LANDMARKID":"6400000000732","LANDMARKCO":"401","LANDMARKNA":"蕭志文醫院","LANDMARKAD":"6400006","ADDRESS":"高雄市新興區七賢一路102號","TEL":"07-2240252","COUNTYNAME":"高雄市","TOWNNAME":"新興區","MARKTYPE":"994","Class":"4"},"geometry":{"x":179521.68809999991,"y":2503912.2167000007}},{"attributes":{"OBJECTID":21245,"LANDMARKID":"6400000000733","LANDMARKCO":"401","LANDMARKNA":"靜和醫院","LANDMARKAD":"6400006","ADDRESS":"高雄市新興區民族二路178號","TEL":"07-2229612","COUNTYNAME":"高雄市","TOWNNAME":"新興區","MARKTYPE":"994","Class":"4"},"geometry":{"x":179501.97219999973,"y":2504158.1194000002}},{"attributes":{"OBJECTID":21246,"LANDMARKID":"6400000000734","LANDMARKCO":"401","LANDMARKNA":"大千醫院","LANDMARKAD":"6400006","ADDRESS":"高雄市新興區中正三路1之11號","TEL":"07-2267799","COUNTYNAME":"高雄市","TOWNNAME":"新興區","MARKTYPE":"994","Class":"4"},"geometry":{"x":179357.66079999972,"y":2503520.7919999994}},{"attributes":{"OBJECTID":21247,"LANDMARKID":"6400000000735","LANDMARKCO":"401","LANDMARKNA":"新華醫院","LANDMARKAD":"6400006","ADDRESS":"高雄市新興區七賢二路97號","TEL":"07-2876080","COUNTYNAME":"高雄市","TOWNNAME":"新興區","MARKTYPE":"994","Class":"4"},"geometry":{"x":177873.7452999996,"y":2503906.5296999998}},{"attributes":{"OBJECTID":21248,"LANDMARKID":"6400000000736","LANDMARKCO":"401","LANDMARKNA":"原祿骨科醫院","LANDMARKAD":"6400006","ADDRESS":"高雄市新興區中正三路52號","TEL":"07-2371013","COUNTYNAME":"高雄市","TOWNNAME":"新興區","MARKTYPE":"994","Class":"4"},"geometry":{"x":178983.70839999989,"y":2503602.3786999993}},{"attributes":{"OBJECTID":21249,"LANDMARKID":"6400000001176","LANDMARKCO":"410","LANDMARKNA":"新堀江商店街","LANDMARKAD":"6400006","ADDRESS":"高雄市新興區仁智街、文化路","TEL":" ","COUNTYNAME":"高雄市","TOWNNAME":"新興區","MARKTYPE":"994","Class":"4"},"geometry":{"x":178255.40240000002,"y":2502690.3359999992}},{"attributes":{"OBJECTID":21250,"LANDMARKID":"6400000001218","LANDMARKCO":"512","LANDMARKNA":"觀光局高雄國際機場旅客服務中心","LANDMARKAD":"6400006","ADDRESS":"高雄市中山四路2號","TEL":"07-8057888","COUNTYNAME":"高雄市","TOWNNAME":"新興區","MARKTYPE":"995","Class":"5"},"geometry":{"x":178169.37710000016,"y":2503631.3113000002}},{"attributes":{"OBJECTID":21251,"LANDMARKID":"6400000001129","LANDMARKCO":"408","LANDMARKNA":"郵局-新興郵局","LANDMARKAD":"6400006","ADDRESS":"高雄市新興區中正三路177號","TEL":"(07)2212-591","COUNTYNAME":"高雄市","TOWNNAME":"新興區","MARKTYPE":"994","Class":"4"},"geometry":{"x":178404.83090000041,"y":2503578.3487}},{"attributes":{"OBJECTID":21252,"LANDMARKID":"6400000001130","LANDMARKCO":"408","LANDMARKNA":"郵局-高雄青年郵局","LANDMARKAD":"6400006","ADDRESS":"高雄市新興區復興二路171號","TEL":"(07)2825-716","COUNTYNAME":"高雄市","TOWNNAME":"新興區","MARKTYPE":"994","Class":"4"},"geometry":{"x":178885.58710000012,"y":2502922.2752999999}},{"attributes":{"OBJECTID":21253,"LANDMARKID":"6400000001131","LANDMARKCO":"408","LANDMARKNA":"郵局-高雄順昌郵局","LANDMARKAD":"6400006","ADDRESS":"高雄市新興區七賢一路104號","TEL":"(07)2223-287","COUNTYNAME":"高雄市","TOWNNAME":"新興區","MARKTYPE":"994","Class":"4"},"geometry":{"x":179515.6743999999,"y":2503915.1925000008}},{"attributes":{"OBJECTID":21254,"LANDMARKID":"6400000001132","LANDMARKCO":"408","LANDMARKNA":"郵局-高雄新田郵局","LANDMARKAD":"6400006","ADDRESS":"高雄市新興區新田路133號","TEL":"(07)2158-772","COUNTYNAME":"高雄市","TOWNNAME":"新興區","MARKTYPE":"994","Class":"4"},"geometry":{"x":178432.58069999982,"y":2502615.5051000006}},{"attributes":{"OBJECTID":21255,"LANDMARKID":"6400000001058","LANDMARKCO":"407","LANDMARKNA":"小北百貨","LANDMARKAD":"6400006","ADDRESS":"高雄市新興區民生一路1號","TEL":"07-2291252","COUNTYNAME":"高雄市","TOWNNAME":"新興區","MARKTYPE":"994","Class":"4"},"geometry":{"x":179448.88709999993,"y":2503275.4661999997}},{"attributes":{"OBJECTID":21256,"LANDMARKID":"6400000000076","LANDMARKCO":"103","LANDMARKNA":"高雄市新興區衛生所","LANDMARKAD":"6400006","ADDRESS":"高雄市新興區中正三路25號4樓","TEL":"07-2294121","COUNTYNAME":"高雄市","TOWNNAME":"新興區","MARKTYPE":"991","Class":"1"},"geometry":{"x":179062.78760000039,"y":2503534.0055}},{"attributes":{"OBJECTID":21257,"LANDMARKID":"6400000000224","LANDMARKCO":"108","LANDMARKNA":"高雄市新興區公所","LANDMARKAD":"6400006","ADDRESS":"高雄市新興區中正三路34號4樓","TEL":"07-2386113","COUNTYNAME":"高雄市","TOWNNAME":"新興區","MARKTYPE":"991","Class":"1"},"geometry":{"x":179073.02400000021,"y":2503595.0462999996}},{"attributes":{"OBJECTID":21258,"LANDMARKID":"6400000000164","LANDMARKCO":"107","LANDMARKNA":"高雄市政府警察局新興分局","LANDMARKAD":"6400006","ADDRESS":"高雄市新興區東坡里中山一路100號","TEL":"07-2212057","COUNTYNAME":"高雄市","TOWNNAME":"新興區","MARKTYPE":"991","Class":"1"},"geometry":{"x":178273.81979999971,"y":2503555.3248999994}},{"attributes":{"OBJECTID":21259,"LANDMARKID":"6400000000165","LANDMARKCO":"107","LANDMARKNA":"高雄市政府警察局五福二路派出","LANDMARKAD":"6400006","ADDRESS":"高雄市新興區玉衡里五福二路222號","TEL":"07-2316481","COUNTYNAME":"高雄市","TOWNNAME":"新興區","MARKTYPE":"991","Class":"1"},"geometry":{"x":178349.93769999966,"y":2502816.3618999999}},{"attributes":{"OBJECTID":21260,"LANDMARKID":"6400000000166","LANDMARKCO":"107","LANDMARKNA":"高雄市政府警察局中正三路派出","LANDMARKAD":"6400006","ADDRESS":"高雄市新興區光耀里中正三路3號","TEL":"07-2270189","COUNTYNAME":"高雄市","TOWNNAME":"新興區","MARKTYPE":"991","Class":"1"},"geometry":{"x":179210.31049999967,"y":2503528.3647000007}},{"attributes":{"OBJECTID":21261,"LANDMARKID":"6400000000167","LANDMARKCO":"107","LANDMARKNA":"高雄市政府警察局中山路派出所","LANDMARKAD":"6400006","ADDRESS":"高雄市新興區東坡里中山一路100號","TEL":"07-2211209","COUNTYNAME":"高雄市","TOWNNAME":"新興區","MARKTYPE":"991","Class":"1"},"geometry":{"x":178273.81979999971,"y":2503555.3248999994}},{"attributes":{"OBJECTID":21262,"LANDMARKID":"6400000000168","LANDMARKCO":"107","LANDMARKNA":"高雄市消防局","LANDMARKAD":"6400006","ADDRESS":"高雄市新興區中正三路25號7、8、9樓","TEL":"07-2271055","COUNTYNAME":"高雄市","TOWNNAME":"新興區","MARKTYPE":"991","Class":"1"},"geometry":{"x":179062.78760000039,"y":2503534.0055}},{"attributes":{"OBJECTID":21263,"LANDMARKID":"6400000000169","LANDMARKCO":"107","LANDMARKNA":"高雄市消防局南區第一中隊","LANDMARKAD":"6400006","ADDRESS":"高雄市新興區中正三路3號","TEL":"07-2265662","COUNTYNAME":"高雄市","TOWNNAME":"新興區","MARKTYPE":"991","Class":"1"},"geometry":{"x":179210.31049999967,"y":2503528.3647000007}},{"attributes":{"OBJECTID":21264,"LANDMARKID":"6400000000170","LANDMARKCO":"107","LANDMARKNA":"高雄市消防局新興消防分隊","LANDMARKAD":"6400006","ADDRESS":"高雄市新興區中正三路3號","TEL":"07-2265662","COUNTYNAME":"高雄市","TOWNNAME":"新興區","MARKTYPE":"991","Class":"1"},"geometry":{"x":179210.31049999967,"y":2503528.3647000007}},{"attributes":{"OBJECTID":21265,"LANDMARKID":"6400000000116","LANDMARKCO":"106","LANDMARKNA":"高雄市新興區戶政事務所","LANDMARKAD":"6400006","ADDRESS":"高雄市新興區中正三路34號2樓","TEL":"07-2364015","COUNTYNAME":"高雄市","TOWNNAME":"新興區","MARKTYPE":"991","Class":"1"},"geometry":{"x":179073.02400000021,"y":2503595.0462999996}},{"attributes":{"OBJECTID":21266,"LANDMARKID":"6400000000096","LANDMARKCO":"104","LANDMARKNA":"高雄市稅捐處","LANDMARKAD":"6400006","ADDRESS":"高雄市新興區中正三路25號","TEL":"07-2293151","COUNTYNAME":"高雄市","TOWNNAME":"新興區","MARKTYPE":"991","Class":"1"},"geometry":{"x":179062.78760000039,"y":2503534.0055}},{"attributes":{"OBJECTID":21267,"LANDMARKID":"6400000000097","LANDMARKCO":"104","LANDMARKNA":"高雄市國稅局新興稽徵所","LANDMARKAD":"6400006","ADDRESS":"高雄市新興區中正三路34號8樓","TEL":"07-2367261","COUNTYNAME":"高雄市","TOWNNAME":"新興區","MARKTYPE":"991","Class":"1"},"geometry":{"x":179073.02400000021,"y":2503595.0462999996}},{"attributes":{"OBJECTID":21268,"LANDMARKID":"6400000000010","LANDMARKCO":"101","LANDMARKNA":"新聞局駐高雄郵局核驗中心","LANDMARKAD":"6400006","ADDRESS":"高雄市新興區中正三路179號2樓","TEL":"07-2314876","COUNTYNAME":"高雄市","TOWNNAME":"新興區","MARKTYPE":"991","Class":"1"},"geometry":{"x":178371.08669999987,"y":2503580.4408}},{"attributes":{"OBJECTID":21269,"LANDMARKID":"6400000000011","LANDMARKCO":"101","LANDMARKNA":"農糧署高雄辦事處","LANDMARKAD":"6400006","ADDRESS":"高雄市新興區六合一路113號","TEL":"07-2361181","COUNTYNAME":"高雄市","TOWNNAME":"新興區","MARKTYPE":"991","Class":"1"},"geometry":{"x":178499.98099999968,"y":2503777.0435000006}},{"attributes":{"OBJECTID":21270,"LANDMARKID":"6400000000012","LANDMARKCO":"101","LANDMARKNA":"國有財產局台灣南區辦事處","LANDMARKAD":"6400006","ADDRESS":"高雄市新興區中正三路25號18樓","TEL":"07-2293670","COUNTYNAME":"高雄市","TOWNNAME":"新興區","MARKTYPE":"991","Class":"1"},"geometry":{"x":179062.78760000039,"y":2503534.0055}},{"attributes":{"OBJECTID":21271,"LANDMARKID":"6400000000013","LANDMARKCO":"101","LANDMARKNA":"營建署市鄉規劃局市南區規劃隊","LANDMARKAD":"6400006","ADDRESS":"高雄市新興區五福二路200號5樓","TEL":"07-2319260","COUNTYNAME":"高雄市","TOWNNAME":"新興區","MARKTYPE":"991","Class":"1"},"geometry":{"x":178569.09690000024,"y":2502893.3859999999}},{"attributes":{"OBJECTID":21272,"LANDMARKID":"6400000000014","LANDMARKCO":"101","LANDMARKNA":"勞工委員會南區勞動檢查所","LANDMARKAD":"6400006","ADDRESS":"高雄市新興區七賢一路386號11樓","TEL":"07-2354861","COUNTYNAME":"高雄市","TOWNNAME":"新興區","MARKTYPE":"991","Class":"1"},"geometry":{"x":178821.92279999983,"y":2503969.2031999994}},{"attributes":{"OBJECTID":21273,"LANDMARKID":"6400000000110","LANDMARKCO":"105","LANDMARKNA":"高雄市新興地政事務所","LANDMARKAD":"6400006","ADDRESS":"高雄市新興區中正3路34號6-7樓","TEL":"07-2385026","COUNTYNAME":"高雄市","TOWNNAME":"新興區","MARKTYPE":"991","Class":"1"},"geometry":{"x":179047.67019999959,"y":2503610.6787999999}},{"attributes":{"OBJECTID":21274,"LANDMARKID":"6400000000426","LANDMARKCO":"207","LANDMARKNA":"山美術館","LANDMARKAD":"6400006","ADDRESS":"高雄市中正三路55號29樓","TEL":" ","COUNTYNAME":"高雄市","TOWNNAME":"新興區","MARKTYPE":"992","Class":"2"},"geometry":{"x":178901.36209999956,"y":2503566.2566999998}},{"attributes":{"OBJECTID":21275,"LANDMARKID":"6400000000416","LANDMARKCO":"204","LANDMARKNA":"高雄市立圖書館新興分館","LANDMARKAD":"6400006","ADDRESS":"高雄市新興區中正三路34號3樓","TEL":" ","COUNTYNAME":"高雄市","TOWNNAME":"新興區","MARKTYPE":"992","Class":"2"},"geometry":{"x":179073.4523,"y":2503596.6561999992}},{"attributes":{"OBJECTID":21276,"LANDMARKID":"6400000000417","LANDMARKCO":"204","LANDMARKNA":"高雄市立圖書館新興民眾閱覽室","LANDMARKAD":"6400006","ADDRESS":"高雄市新興區民生一路271號","TEL":" ","COUNTYNAME":"高雄市","TOWNNAME":"新興區","MARKTYPE":"992","Class":"2"},"geometry":{"x":178737.77139999997,"y":2503159.7877999991}},{"attributes":{"OBJECTID":21277,"LANDMARKID":"6400000000264","LANDMARKCO":"202","LANDMARKNA":"市立新興高中","LANDMARKAD":"6400006","ADDRESS":"高雄市新興區五福二路218號","TEL":"07-2727127","COUNTYNAME":"高雄市","TOWNNAME":"新興區","MARKTYPE":"992","Class":"2"},"geometry":{"x":178458.87299999967,"y":2502860.6213000007}},{"attributes":{"OBJECTID":21278,"LANDMARKID":"6400000000265","LANDMARKCO":"202","LANDMARKNA":"市立高雄高商","LANDMARKAD":"6400006","ADDRESS":"高雄市新興區五福二路3號","TEL":"07-2269975","COUNTYNAME":"高雄市","TOWNNAME":"新興區","MARKTYPE":"992","Class":"2"},"geometry":{"x":179020.7050999999,"y":2503004.8168000001}},{"attributes":{"OBJECTID":21279,"LANDMARKID":"6400000000332","LANDMARKCO":"203","LANDMARKNA":"市立七賢國小","LANDMARKAD":"6400006","ADDRESS":"高雄市新興區七賢一路393號","TEL":"07-2351150","COUNTYNAME":"高雄市","TOWNNAME":"新興區","MARKTYPE":"992","Class":"2"},"geometry":{"x":178764.4160000002,"y":2503926.9354999997}},{"attributes":{"OBJECTID":21280,"LANDMARKID":"6400000000333","LANDMARKCO":"203","LANDMARKNA":"市立大同國小","LANDMARKAD":"6400006","ADDRESS":"高雄市新興區大同一路231號","TEL":"07-2823039","COUNTYNAME":"高雄市","TOWNNAME":"新興區","MARKTYPE":"992","Class":"2"},"geometry":{"x":177886.47039999999,"y":2503256.8565999996}},{"attributes":{"OBJECTID":21281,"LANDMARKID":"6400000000334","LANDMARKCO":"203","LANDMARKNA":"市立信義國小","LANDMARKAD":"6400006","ADDRESS":"高雄市新興區中正三路32號","TEL":"07-2365163","COUNTYNAME":"高雄市","TOWNNAME":"新興區","MARKTYPE":"992","Class":"2"},"geometry":{"x":179177.43840000033,"y":2503657.5297999997}},{"attributes":{"OBJECTID":21282,"LANDMARKID":"6400000000335","LANDMARKCO":"203","LANDMARKNA":"市立新興國小","LANDMARKAD":"6400006","ADDRESS":"高雄市新興區民生一路321號","TEL":"07-2218461","COUNTYNAME":"高雄市","TOWNNAME":"新興區","MARKTYPE":"992","Class":"2"},"geometry":{"x":178516.02500000037,"y":2503042.1316999998}},{"attributes":{"OBJECTID":21283,"LANDMARKID":"6400000000634","LANDMARKCO":"306","LANDMARKNA":"美麗島捷運站-出口4","LANDMARKAD":"6400006","ADDRESS":" ","TEL":" ","COUNTYNAME":"高雄市","TOWNNAME":"新興區","MARKTYPE":"993","Class":"306"},"geometry":{"x":178306.52660000045,"y":2503674.5656000003}},{"attributes":{"OBJECTID":21284,"LANDMARKID":"6400000000635","LANDMARKCO":"306","LANDMARKNA":"美麗島捷運站-出口5","LANDMARKAD":"6400006","ADDRESS":" ","TEL":" ","COUNTYNAME":"高雄市","TOWNNAME":"新興區","MARKTYPE":"993","Class":"306"},"geometry":{"x":178370.81900000013,"y":2503610.3292999994}},{"attributes":{"OBJECTID":21285,"LANDMARKID":"6400000000636","LANDMARKCO":"306","LANDMARKNA":"美麗島捷運站-出口6","LANDMARKAD":"6400006","ADDRESS":" ","TEL":" ","COUNTYNAME":"高雄市","TOWNNAME":"新興區","MARKTYPE":"993","Class":"306"},"geometry":{"x":178494.05319999997,"y":2503602.1059000008}},{"attributes":{"OBJECTID":21286,"LANDMARKID":"6400000000637","LANDMARKCO":"306","LANDMARKNA":"美麗島捷運站-出口7","LANDMARKAD":"6400006","ADDRESS":" ","TEL":" ","COUNTYNAME":"高雄市","TOWNNAME":"新興區","MARKTYPE":"993","Class":"306"},"geometry":{"x":178372.28789999988,"y":2503638.3351000007}},{"attributes":{"OBJECTID":21287,"LANDMARKID":"6400000000638","LANDMARKCO":"306","LANDMARKNA":"美麗島捷運站-出口8","LANDMARKAD":"6400006","ADDRESS":" ","TEL":" ","COUNTYNAME":"高雄市","TOWNNAME":"新興區","MARKTYPE":"993","Class":"306"},"geometry":{"x":178497.92590000015,"y":2503629.3228999991}},{"attributes":{"OBJECTID":21288,"LANDMARKID":"6400000000639","LANDMARKCO":"306","LANDMARKNA":"美麗島捷運站-出口9","LANDMARKAD":"6400006","ADDRESS":" ","TEL":" ","COUNTYNAME":"高雄市","TOWNNAME":"新興區","MARKTYPE":"993","Class":"306"},"geometry":{"x":178236.68269999977,"y":2503727.0362}},{"attributes":{"OBJECTID":21289,"LANDMARKID":"6400000000640","LANDMARKCO":"306","LANDMARKNA":"美麗島捷運站-出口10","LANDMARKAD":"6400006","ADDRESS":" ","TEL":" ","COUNTYNAME":"高雄市","TOWNNAME":"新興區","MARKTYPE":"993","Class":"306"},"geometry":{"x":178272.6958999997,"y":2503724.0051000006}},{"attributes":{"OBJECTID":21290,"LANDMARKID":"6400000000641","LANDMARKCO":"306","LANDMARKNA":"美麗島捷運站-出口11","LANDMARKAD":"6400006","ADDRESS":" ","TEL":" ","COUNTYNAME":"高雄市","TOWNNAME":"新興區","MARKTYPE":"993","Class":"306"},"geometry":{"x":178241.24239999987,"y":2503778.2555999998}},{"attributes":{"OBJECTID":21291,"LANDMARKID":"6400000000642","LANDMARKCO":"306","LANDMARKNA":"美麗島捷運站-出口1","LANDMARKAD":"6400006","ADDRESS":" ","TEL":" ","COUNTYNAME":"高雄市","TOWNNAME":"新興區","MARKTYPE":"993","Class":"306"},"geometry":{"x":178188.95160000026,"y":2503670.0144999996}},{"attributes":{"OBJECTID":21292,"LANDMARKID":"6400000000643","LANDMARKCO":"306","LANDMARKNA":"美麗島捷運站-出口2","LANDMARKAD":"6400006","ADDRESS":" ","TEL":" ","COUNTYNAME":"高雄市","TOWNNAME":"新興區","MARKTYPE":"993","Class":"306"},"geometry":{"x":178199.73379999958,"y":2503588.4682}},{"attributes":{"OBJECTID":21293,"LANDMARKID":"6400000000644","LANDMARKCO":"306","LANDMARKNA":"美麗島捷運站-出口3","LANDMARKAD":"6400006","ADDRESS":" ","TEL":" ","COUNTYNAME":"高雄市","TOWNNAME":"新興區","MARKTYPE":"993","Class":"306"},"geometry":{"x":178298.14680000022,"y":2503584.9298}},{"attributes":{"OBJECTID":21294,"LANDMARKID":"6400000000645","LANDMARKCO":"306","LANDMARKNA":"信義國小捷運站-出口1","LANDMARKAD":"6400006","ADDRESS":" ","TEL":" ","COUNTYNAME":"高雄市","TOWNNAME":"新興區","MARKTYPE":"993","Class":"306"},"geometry":{"x":179125.69259999972,"y":2503592.8475000001}},{"attributes":{"OBJECTID":21295,"LANDMARKID":"6400000000646","LANDMARKCO":"306","LANDMARKNA":"信義國小捷運站-出口2","LANDMARKAD":"6400006","ADDRESS":" ","TEL":" ","COUNTYNAME":"高雄市","TOWNNAME":"新興區","MARKTYPE":"993","Class":"306"},"geometry":{"x":179206.25530000031,"y":2503585.2469999995}},{"attributes":{"OBJECTID":21296,"LANDMARKID":"6400000000647","LANDMARKCO":"306","LANDMARKNA":"信義國小捷運站-出口3","LANDMARKAD":"6400006","ADDRESS":" ","TEL":" ","COUNTYNAME":"高雄市","TOWNNAME":"新興區","MARKTYPE":"993","Class":"306"},"geometry":{"x":179123.71910000034,"y":2503540.3807999995}},{"attributes":{"OBJECTID":21297,"LANDMARKID":"6400000000648","LANDMARKCO":"306","LANDMARKNA":"信義國小捷運站-出口4","LANDMARKAD":"6400006","ADDRESS":" ","TEL":" ","COUNTYNAME":"高雄市","TOWNNAME":"新興區","MARKTYPE":"993","Class":"306"},"geometry":{"x":179295.94550000038,"y":2503534.6883000005}},{"attributes":{"OBJECTID":21298,"LANDMARKID":"6400000000649","LANDMARKCO":"306","LANDMARKNA":"信義國小捷運站-出口5","LANDMARKAD":"6400006","ADDRESS":" ","TEL":" ","COUNTYNAME":"高雄市","TOWNNAME":"新興區","MARKTYPE":"993","Class":"306"},"geometry":{"x":179301.64230000041,"y":2503568.6945999991}},{"attributes":{"OBJECTID":21299,"LANDMARKID":"6400000000650","LANDMARKCO":"306","LANDMARKNA":"文化中心捷運站-出口1","LANDMARKAD":"6400006","ADDRESS":" ","TEL":" ","COUNTYNAME":"高雄市","TOWNNAME":"新興區","MARKTYPE":"993","Class":"306"},"geometry":{"x":179759.99660000019,"y":2503531.8606000002}},{"attributes":{"OBJECTID":21300,"LANDMARKID":"6400000000651","LANDMARKCO":"306","LANDMARKNA":"中央公園捷運站-出口2","LANDMARKAD":"6400006","ADDRESS":" ","TEL":" ","COUNTYNAME":"高雄市","TOWNNAME":"新興區","MARKTYPE":"993","Class":"306"},"geometry":{"x":178174.6361999996,"y":2502794.7298000008}},{"attributes":{"OBJECTID":21301,"LANDMARKID":"6400000000652","LANDMARKCO":"306","LANDMARKNA":"中央公園捷運站-出口3","LANDMARKAD":"6400006","ADDRESS":" ","TEL":" ","COUNTYNAME":"高雄市","TOWNNAME":"新興區","MARKTYPE":"993","Class":"306"},"geometry":{"x":178203.04899999965,"y":2503027.8463000003}},{"attributes":{"OBJECTID":21302,"LANDMARKID":"6400000000496","LANDMARKCO":"303","LANDMARKNA":"大通大飯店停車場","LANDMARKAD":"6400006","ADDRESS":"高雄市新興區大同一路205號","TEL":"07-2161760","COUNTYNAME":"高雄市","TOWNNAME":"新興區","MARKTYPE":"993","Class":"303"},"geometry":{"x":178059.68890000042,"y":2503322.3544999994}},{"attributes":{"OBJECTID":21303,"LANDMARKID":"6400000000497","LANDMARKCO":"303","LANDMARKNA":"私人停車場","LANDMARKAD":"6400006","ADDRESS":"高雄市新興區","TEL":" ","COUNTYNAME":"高雄市","TOWNNAME":"新興區","MARKTYPE":"993","Class":"303"},"geometry":{"x":178171.63879999984,"y":2503725.8680000007}},{"attributes":{"OBJECTID":21304,"LANDMARKID":"6400000000498","LANDMARKCO":"303","LANDMARKNA":"新興停車場","LANDMARKAD":"6400006","ADDRESS":"高雄市新興區林森二路219號","TEL":" ","COUNTYNAME":"高雄市","TOWNNAME":"新興區","MARKTYPE":"993","Class":"303"},"geometry":{"x":178632.57589999959,"y":2502577.5808000006}},{"attributes":{"OBJECTID":21305,"LANDMARKID":"6400000000499","LANDMARKCO":"303","LANDMARKNA":"六合錦田停車場","LANDMARKAD":"6400006","ADDRESS":"高雄市新興區六合一路78號","TEL":" ","COUNTYNAME":"高雄市","TOWNNAME":"新興區","MARKTYPE":"993","Class":"303"},"geometry":{"x":179097.1651999997,"y":2503763.3949999996}},{"attributes":{"OBJECTID":21306,"LANDMARKID":"6400000000500","LANDMARKCO":"303","LANDMARKNA":"公有十一號公園地下停車場","LANDMARKAD":"6400006","ADDRESS":"高雄市新興區忠孝一路331號","TEL":" ","COUNTYNAME":"高雄市","TOWNNAME":"新興區","MARKTYPE":"993","Class":"303"},"geometry":{"x":178653.99340000004,"y":2503881.9448000006}},{"attributes":{"OBJECTID":21307,"LANDMARKID":"6400000000501","LANDMARKCO":"303","LANDMARKNA":"公有民權路輕鋼架立體停車場","LANDMARKAD":"6400006","ADDRESS":"高雄市新興區民權一路221號","TEL":" ","COUNTYNAME":"高雄市","TOWNNAME":"新興區","MARKTYPE":"993","Class":"303"},"geometry":{"x":179223.5959999999,"y":2502770.1403999999}},{"attributes":{"OBJECTID":21308,"LANDMARKID":"6400000000502","LANDMARKCO":"303","LANDMARKNA":"財稅大樓地下停車場","LANDMARKAD":"6400006","ADDRESS":"高雄市新興區中正三路25號","TEL":" ","COUNTYNAME":"高雄市","TOWNNAME":"新興區","MARKTYPE":"993","Class":"303"},"geometry":{"x":179066.49469999969,"y":2503544.5549999997}},{"attributes":{"OBJECTID":21309,"LANDMARKID":"6400000000503","LANDMARKCO":"303","LANDMARKNA":"貳拾肆小時停車場","LANDMARKAD":"6400006","ADDRESS":"高雄市新興區民主橫路61號","TEL":" ","COUNTYNAME":"高雄市","TOWNNAME":"新興區","MARKTYPE":"993","Class":"303"},"geometry":{"x":178161.65130000003,"y":2503842.0288999993}},{"attributes":{"OBJECTID":21310,"LANDMARKID":"6400000000504","LANDMARKCO":"303","LANDMARKNA":"Times(普客二四停車場)-高雄錦田路停車場","LANDMARKAD":"6400006","ADDRESS":"高雄市新興區錦田路38號旁","TEL":" ","COUNTYNAME":"高雄市","TOWNNAME":"新興區","MARKTYPE":"993","Class":"303"},"geometry":{"x":179104.71879999992,"y":2503410.9230000004}},{"attributes":{"OBJECTID":21311,"LANDMARKID":"6400000000873","LANDMARKCO":"402","LANDMARKNA":"中華電信-高雄新興特約服務中心","LANDMARKAD":"6400006","ADDRESS":"高雄市新興區林森一路199號","TEL":"07-2350998","COUNTYNAME":"高雄市","TOWNNAME":"新興區","MARKTYPE":"994","Class":"4"},"geometry":{"x":178519.09539999999,"y":2503735.8827999998}},{"attributes":{"OBJECTID":21312,"LANDMARKID":"6400000000874","LANDMARKCO":"402","LANDMARKNA":"中華電信-高雄六合特約服務中心","LANDMARKAD":"6400006","ADDRESS":"高雄市六合路130號","TEL":"07-2294488","COUNTYNAME":"高雄市","TOWNNAME":"新興區","MARKTYPE":"994","Class":"4"},"geometry":{"x":179639.13630000036,"y":2503724.7672000006}},{"attributes":{"OBJECTID":21313,"LANDMARKID":"6400000000875","LANDMARKCO":"402","LANDMARKNA":"中華電信-高雄營運處林森服務中心","LANDMARKAD":"6400006","ADDRESS":"高雄市林森一路230號","TEL":"123或0800-080-123","COUNTYNAME":"高雄市","TOWNNAME":"新興區","MARKTYPE":"994","Class":"4"},"geometry":{"x":178590.89080000017,"y":2503873.2113000005}},{"attributes":{"OBJECTID":21314,"LANDMARKID":"6400000000876","LANDMARKCO":"402","LANDMARKNA":"中華電信-高雄新崛江特約服務中心","LANDMARKAD":"6400006","ADDRESS":"高雄市新興區新田路128號","TEL":"07-2169688","COUNTYNAME":"高雄市","TOWNNAME":"新興區","MARKTYPE":"994","Class":"4"},"geometry":{"x":178391.95380000025,"y":2502629.3084999993}},{"attributes":{"OBJECTID":21315,"LANDMARKID":"6400000000877","LANDMARKCO":"402","LANDMARKNA":"遠傳電信-林森門市","LANDMARKAD":"6400006","ADDRESS":"高雄市林森一路196號","TEL":" ","COUNTYNAME":"高雄市","TOWNNAME":"新興區","MARKTYPE":"994","Class":"4"},"geometry":{"x":178559.16509999987,"y":2503721.0699000005}},{"attributes":{"OBJECTID":21316,"LANDMARKID":"6400000000878","LANDMARKCO":"402","LANDMARKNA":"遠傳電信-南區維修中心","LANDMARKAD":"6400006","ADDRESS":"高雄市林森一路196號","TEL":" ","COUNTYNAME":"高雄市","TOWNNAME":"新興區","MARKTYPE":"994","Class":"4"},"geometry":{"x":178559.16509999987,"y":2503721.0699000005}},{"attributes":{"OBJECTID":21317,"LANDMARKID":"6400000000879","LANDMARKCO":"402","LANDMARKNA":"威寶電信-高雄新田特約服務中心","LANDMARKAD":"6400006","ADDRESS":"高雄市新興區新田路161號","TEL":"07-2211271","COUNTYNAME":"高雄市","TOWNNAME":"新興區","MARKTYPE":"994","Class":"4"},"geometry":{"x":178363.6978000002,"y":2502590.1830000002}},{"attributes":{"OBJECTID":21318,"LANDMARKID":"6400000000880","LANDMARKCO":"402","LANDMARKNA":"威寶電信-高雄六合特約服務中心","LANDMARKAD":"6400006","ADDRESS":"高雄市新興區六合一路39之9號","TEL":"07-2363770","COUNTYNAME":"高雄市","TOWNNAME":"新興區","MARKTYPE":"994","Class":"4"},"geometry":{"x":179205.14950000029,"y":2503722.0843000002}},{"attributes":{"OBJECTID":21319,"LANDMARKID":"6400000000881","LANDMARKCO":"402","LANDMARKNA":"威寶電信-高雄林森特約服務中心","LANDMARKAD":"6400006","ADDRESS":"高雄市新興區林森一路190號","TEL":"07-2361777","COUNTYNAME":"高雄市","TOWNNAME":"新興區","MARKTYPE":"994","Class":"4"},"geometry":{"x":178552.37530000042,"y":2503676.0382000003}},{"attributes":{"OBJECTID":21320,"LANDMARKID":"6400000000882","LANDMARKCO":"402","LANDMARKNA":"大眾電信(震旦通訊)-高雄青年店","LANDMARKAD":"6400006","ADDRESS":"高雄市青年一路326號","TEL":"07-2151161","COUNTYNAME":"高雄市","TOWNNAME":"新興區","MARKTYPE":"994","Class":"4"},"geometry":{"x":178681.91100000031,"y":2502544.3344999999}},{"attributes":{"OBJECTID":21321,"LANDMARKID":"6400000000883","LANDMARKCO":"402","LANDMARKNA":"大眾電信(震旦通訊)-高雄新興店","LANDMARKAD":"6400006","ADDRESS":"高雄市林森一路155號","TEL":"07-2610050","COUNTYNAME":"高雄市","TOWNNAME":"新興區","MARKTYPE":"994","Class":"4"},"geometry":{"x":178493.08359999955,"y":2503430.7678999994}},{"attributes":{"OBJECTID":21322,"LANDMARKID":"6400000000884","LANDMARKCO":"402","LANDMARKNA":"大眾電信(震旦通訊)-高雄林森店","LANDMARKAD":"6400006","ADDRESS":"高雄市林森一路246號","TEL":"07-2350911","COUNTYNAME":"高雄市","TOWNNAME":"新興區","MARKTYPE":"994","Class":"4"},"geometry":{"x":178580.04160000011,"y":2504055.1608000007}},{"attributes":{"OBJECTID":21323,"LANDMARKID":"6400000000885","LANDMARKCO":"402","LANDMARKNA":"大眾電信-志邦通訊","LANDMARKAD":"6400006","ADDRESS":"高雄市新興區六合一路57之5號","TEL":"07-2356245","COUNTYNAME":"高雄市","TOWNNAME":"新興區","MARKTYPE":"994","Class":"4"},"geometry":{"x":178863.03189999983,"y":2503749.1509000007}},{"attributes":{"OBJECTID":21324,"LANDMARKID":"6400000000886","LANDMARKCO":"402","LANDMARKNA":"大眾電信-六合專賣店","LANDMARKAD":"6400006","ADDRESS":"高雄市新興區六合一路57之5號","TEL":"07-2356245","COUNTYNAME":"高雄市","TOWNNAME":"新興區","MARKTYPE":"994","Class":"4"},"geometry":{"x":178863.03189999983,"y":2503749.1509000007}},{"attributes":{"OBJECTID":21325,"LANDMARKID":"6400000000887","LANDMARKCO":"402","LANDMARKNA":"大眾電信-以中電信企業社","LANDMARKAD":"6400006","ADDRESS":"高雄市新興區林森一路194之1號","TEL":"07-2350677","COUNTYNAME":"高雄市","TOWNNAME":"新興區","MARKTYPE":"994","Class":"4"},"geometry":{"x":178550.27259999979,"y":2503698.0284000002}},{"attributes":{"OBJECTID":21326,"LANDMARKID":"6400000001309","LANDMARKCO":"603","LANDMARKNA":"銀座賓館","LANDMARKAD":"6400006","ADDRESS":"高雄市新興區六合二路10號12樓","TEL":"07-2888199","COUNTYNAME":"高雄市","TOWNNAME":"新興區","MARKTYPE":"996","Class":"6"},"geometry":{"x":178203.29949999973,"y":2503811.5741000008}},{"attributes":{"OBJECTID":21327,"LANDMARKID":"6400000001310","LANDMARKCO":"603","LANDMARKNA":"大益大飯店","LANDMARKAD":"6400006","ADDRESS":"高雄市新興區大同一路177號","TEL":"07-2312141-8","COUNTYNAME":"高雄市","TOWNNAME":"新興區","MARKTYPE":"996","Class":"6"},"geometry":{"x":178008.61050000042,"y":2503225.1883000005}},{"attributes":{"OBJECTID":21328,"LANDMARKID":"6400000001311","LANDMARKCO":"603","LANDMARKNA":"大通大飯店","LANDMARKAD":"6400006","ADDRESS":"高雄市新興區大同一路205號1-11樓","TEL":"07-2160673","COUNTYNAME":"高雄市","TOWNNAME":"新興區","MARKTYPE":"996","Class":"6"},"geometry":{"x":178066.5904000001,"y":2503323.1092000008}},{"attributes":{"OBJECTID":21329,"LANDMARKID":"6400000001312","LANDMARKCO":"603","LANDMARKNA":"愛的賓館","LANDMARKAD":"6400006","ADDRESS":"高雄市新興區中山一路240號11樓","TEL":"07-2373100","COUNTYNAME":"高雄市","TOWNNAME":"新興區","MARKTYPE":"996","Class":"6"},"geometry":{"x":178308.57799999975,"y":2503941.2313000001}},{"attributes":{"OBJECTID":21330,"LANDMARKID":"6400000001313","LANDMARKCO":"603","LANDMARKNA":"凱得來大飯店","LANDMARKAD":"6400006","ADDRESS":"高雄市新興區中山一路257號","TEL":"07-2889131-8","COUNTYNAME":"高雄市","TOWNNAME":"新興區","MARKTYPE":"996","Class":"6"},"geometry":{"x":178245.00219999999,"y":2504063.9332999997}},{"attributes":{"OBJECTID":21331,"LANDMARKID":"6400000001314","LANDMARKCO":"603","LANDMARKNA":"六合大旅社","LANDMARKAD":"6400006","ADDRESS":"高雄市新興區六合二路30號","TEL":"07-2867161","COUNTYNAME":"高雄市","TOWNNAME":"新興區","MARKTYPE":"996","Class":"6"},"geometry":{"x":178132.81259999983,"y":2503796.4134999998}},{"attributes":{"OBJECTID":21332,"LANDMARKID":"6400000001315","LANDMARKCO":"603","LANDMARKNA":"澳克大飯店","LANDMARKAD":"6400006","ADDRESS":"高雄市新興區民主路12號","TEL":"07-2870151","COUNTYNAME":"高雄市","TOWNNAME":"新興區","MARKTYPE":"996","Class":"6"},"geometry":{"x":178113.91459999979,"y":2503869.318}},{"attributes":{"OBJECTID":21333,"LANDMARKID":"6400000001316","LANDMARKCO":"603","LANDMARKNA":"九福大飯店","LANDMARKAD":"6400006","ADDRESS":"高雄市新興區民主路16號1-8樓","TEL":"07-2872131","COUNTYNAME":"高雄市","TOWNNAME":"新興區","MARKTYPE":"996","Class":"6"},"geometry":{"x":178073.9765999997,"y":2503856.1303000003}},{"attributes":{"OBJECTID":21334,"LANDMARKID":"6400000001317","LANDMARKCO":"603","LANDMARKNA":"佶莉大飯店","LANDMARKAD":"6400006","ADDRESS":"高雄市新興區民主路18號","TEL":"07-2417091","COUNTYNAME":"高雄市","TOWNNAME":"新興區","MARKTYPE":"996","Class":"6"},"geometry":{"x":178053.56379999965,"y":2503849.0412000008}},{"attributes":{"OBJECTID":21335,"LANDMARKID":"6400000001318","LANDMARKCO":"603","LANDMARKNA":"金月仙賓館","LANDMARKAD":"6400006","ADDRESS":"高雄市新興區民主路26號4樓","TEL":"07-2883117","COUNTYNAME":"高雄市","TOWNNAME":"新興區","MARKTYPE":"996","Class":"6"},"geometry":{"x":178040.58739999961,"y":2503845.3254000004}},{"attributes":{"OBJECTID":21336,"LANDMARKID":"6400000001319","LANDMARKCO":"603","LANDMARKNA":"儷都賓館","LANDMARKAD":"6400006","ADDRESS":"高雄市新興區民主路26號5樓","TEL":"07-2868181","COUNTYNAME":"高雄市","TOWNNAME":"新興區","MARKTYPE":"996","Class":"6"},"geometry":{"x":178040.58739999961,"y":2503845.3254000004}},{"attributes":{"OBJECTID":21337,"LANDMARKID":"6400000001320","LANDMARKCO":"603","LANDMARKNA":"上陞商務旅館","LANDMARKAD":"6400006","ADDRESS":"高雄市新興區民主橫路11號","TEL":"07-2855568","COUNTYNAME":"高雄市","TOWNNAME":"新興區","MARKTYPE":"996","Class":"6"},"geometry":{"x":178162.60580000002,"y":2503840.5534000006}},{"attributes":{"OBJECTID":21338,"LANDMARKID":"6400000001321","LANDMARKCO":"603","LANDMARKNA":"康橋大飯店-南華店","LANDMARKAD":"6400006","ADDRESS":"高雄市新興區南華路136號","TEL":"07-9685566","COUNTYNAME":"高雄市","TOWNNAME":"新興區","MARKTYPE":"996","Class":"6"},"geometry":{"x":178349.59130000044,"y":2503843.0900999997}},{"attributes":{"OBJECTID":21339,"LANDMARKID":"6400000001322","LANDMARKCO":"603","LANDMARKNA":"梅花大飯店","LANDMARKAD":"6400006","ADDRESS":"高雄市新興區南華路188號","TEL":"07-2373141","COUNTYNAME":"高雄市","TOWNNAME":"新興區","MARKTYPE":"996","Class":"6"},"geometry":{"x":178368.90759999957,"y":2504083.1739000008}},{"attributes":{"OBJECTID":21340,"LANDMARKID":"6400000001323","LANDMARKCO":"603","LANDMARKNA":"天佑大飯店","LANDMARKAD":"6400006","ADDRESS":"高雄市新興區中山一路29號","TEL":"07-2414101","COUNTYNAME":"高雄市","TOWNNAME":"新興區","MARKTYPE":"996","Class":"6"},"geometry":{"x":178171.69189999998,"y":2503301.6028000005}},{"attributes":{"OBJECTID":21341,"LANDMARKID":"6400000001324","LANDMARKCO":"603","LANDMARKNA":"綠園大旅社","LANDMARKAD":"6400006","ADDRESS":"高雄市新興區民主橫路39-1號","TEL":"07-2866078","COUNTYNAME":"高雄市","TOWNNAME":"新興區","MARKTYPE":"996","Class":"6"},"geometry":{"x":178156.50999999978,"y":2503955.5181000009}},{"attributes":{"OBJECTID":21342,"LANDMARKID":"6400000001325","LANDMARKCO":"603","LANDMARKNA":"松柏大飯店","LANDMARKAD":"6400006","ADDRESS":"高雄市新興區和平一路219號","TEL":"07-2232251","COUNTYNAME":"高雄市","TOWNNAME":"新興區","MARKTYPE":"996","Class":"6"},"geometry":{"x":179814.45120000001,"y":2503655.2589999996}},{"attributes":{"OBJECTID":21343,"LANDMARKID":"6400000001326","LANDMARKCO":"603","LANDMARKNA":"玉都大飯店","LANDMARKAD":"6400006","ADDRESS":"高雄市新興區南台橫路31號2-8樓","TEL":"07-2860911","COUNTYNAME":"高雄市","TOWNNAME":"新興區","MARKTYPE":"996","Class":"6"},"geometry":{"x":178004.03239999991,"y":2504058.1467000004}},{"attributes":{"OBJECTID":21344,"LANDMARKID":"6400000001327","LANDMARKCO":"603","LANDMARKNA":"河堤精品旅店","LANDMARKAD":"6400006","ADDRESS":"高雄市新興區八德二路94號1~10樓","TEL":"07-2885111","COUNTYNAME":"高雄市","TOWNNAME":"新興區","MARKTYPE":"996","Class":"6"},"geometry":{"x":177802.76049999986,"y":2504115.1984000001}},{"attributes":{"OBJECTID":21345,"LANDMARKID":"6400000001328","LANDMARKCO":"603","LANDMARKNA":"假期商務飯店(忠孝店)","LANDMARKAD":"6400006","ADDRESS":"高雄市新興區忠孝一路482號","TEL":"07-2355555","COUNTYNAME":"高雄市","TOWNNAME":"新興區","MARKTYPE":"996","Class":"6"},"geometry":{"x":178718.02180000022,"y":2504058.4694999997}},{"attributes":{"OBJECTID":21346,"LANDMARKID":"6400000001329","LANDMARKCO":"603","LANDMARKNA":"金石大飯店","LANDMARKAD":"6400006","ADDRESS":"高雄市新興區明星街32號","TEL":"07-2887171","COUNTYNAME":"高雄市","TOWNNAME":"新興區","MARKTYPE":"996","Class":"6"},"geometry":{"x":178063.65710000042,"y":2503924.0819000006}},{"attributes":{"OBJECTID":21347,"LANDMARKID":"6400000001330","LANDMARKCO":"603","LANDMARKNA":"儂來旅館","LANDMARKAD":"6400006","ADDRESS":"高雄市新興區林森一路267號3樓","TEL":"07-2364747","COUNTYNAME":"高雄市","TOWNNAME":"新興區","MARKTYPE":"996","Class":"6"},"geometry":{"x":178550.92239999957,"y":2504174.0182000007}},{"attributes":{"OBJECTID":21348,"LANDMARKID":"6400000001331","LANDMARKCO":"603","LANDMARKNA":"金馬大飯店","LANDMARKAD":"6400006","ADDRESS":"高雄市新興區河南二路12號","TEL":"07-2865141-7","COUNTYNAME":"高雄市","TOWNNAME":"新興區","MARKTYPE":"996","Class":"6"},"geometry":{"x":178141.74780000001,"y":2504212.4419999998}},{"attributes":{"OBJECTID":21349,"LANDMARKID":"6400000001332","LANDMARKCO":"603","LANDMARKNA":"嵩山大飯店","LANDMARKAD":"6400006","ADDRESS":"高雄市新興區七賢一路100號","TEL":"07-2262266","COUNTYNAME":"高雄市","TOWNNAME":"新興區","MARKTYPE":"996","Class":"6"},"geometry":{"x":179529.68800000008,"y":2503912.2570999991}},{"attributes":{"OBJECTID":21350,"LANDMARKID":"6400000001333","LANDMARKCO":"603","LANDMARKNA":"龍成飯店一瑞谷店","LANDMARKAD":"6400006","ADDRESS":"高雄市新興區七賢一路75號","TEL":"07-2240501","COUNTYNAME":"高雄市","TOWNNAME":"新興區","MARKTYPE":"996","Class":"6"},"geometry":{"x":179584.96310000028,"y":2503852.5114999991}},{"attributes":{"OBJECTID":21351,"LANDMARKID":"6400000001334","LANDMARKCO":"603","LANDMARKNA":"高雄尊龍大飯店","LANDMARKAD":"6400006","ADDRESS":"高雄市新興區七賢二路11號","TEL":"07-2862008","COUNTYNAME":"高雄市","TOWNNAME":"新興區","MARKTYPE":"996","Class":"6"},"geometry":{"x":178194.42019999959,"y":2503974.6960000005}},{"attributes":{"OBJECTID":21352,"LANDMARKID":"6400000001335","LANDMARKCO":"603","LANDMARKNA":"舜鈺旅館","LANDMARKAD":"6400006","ADDRESS":"高雄市新興區八德一路392號","TEL":"07-2356989","COUNTYNAME":"高雄市","TOWNNAME":"新興區","MARKTYPE":"996","Class":"6"},"geometry":{"x":178324.56130000018,"y":2504158.3061999995}},{"attributes":{"OBJECTID":21353,"LANDMARKID":"6400000001336","LANDMARKCO":"603","LANDMARKNA":"黃帝大飯店","LANDMARKAD":"6400006","ADDRESS":"高雄市新興區八德二路10號","TEL":"07-2863011-23","COUNTYNAME":"高雄市","TOWNNAME":"新興區","MARKTYPE":"996","Class":"6"},"geometry":{"x":178202.93429999985,"y":2504172.7292999998}},{"attributes":{"OBJECTID":21354,"LANDMARKID":"6400000001337","LANDMARKCO":"603","LANDMARKNA":"假期商務飯店(中正店)","LANDMARKAD":"6400006","ADDRESS":"高雄市新興區中正四路72號","TEL":"07-2887751","COUNTYNAME":"高雄市","TOWNNAME":"新興區","MARKTYPE":"996","Class":"6"},"geometry":{"x":177967.86780000012,"y":2503572.9832000006}},{"attributes":{"OBJECTID":21355,"LANDMARKID":"6400000001338","LANDMARKCO":"603","LANDMARKNA":"麗景酒店","LANDMARKAD":"6400006","ADDRESS":"高雄市新興區五福一路106號1-11樓","TEL":"07-2261000","COUNTYNAME":"高雄市","TOWNNAME":"新興區","MARKTYPE":"996","Class":"6"},"geometry":{"x":179397.75030000042,"y":2503193.9868999999}},{"attributes":{"OBJECTID":21356,"LANDMARKID":"6400000001339","LANDMARKCO":"603","LANDMARKNA":"城市之星商旅\u2500新崛江館","LANDMARKAD":"6400006","ADDRESS":"高雄市新興區五福二路198號","TEL":"07-9695599","COUNTYNAME":"高雄市","TOWNNAME":"新興區","MARKTYPE":"996","Class":"6"},"geometry":{"x":178587.6902999999,"y":2502900.2226999998}},{"attributes":{"OBJECTID":21357,"LANDMARKID":"6400000001340","LANDMARKCO":"603","LANDMARKNA":"三華大飯店","LANDMARKAD":"6400006","ADDRESS":"高雄市新興區六合一路92號","TEL":"07-2392222","COUNTYNAME":"高雄市","TOWNNAME":"新興區","MARKTYPE":"996","Class":"6"},"geometry":{"x":178919.89219999965,"y":2503778.0857999995}},{"attributes":{"OBJECTID":21358,"LANDMARKID":"6400000001341","LANDMARKCO":"603","LANDMARKNA":"世國大飯店","LANDMARKAD":"6400006","ADDRESS":"高雄市新興區民主橫路64號","TEL":"07-2876151","COUNTYNAME":"高雄市","TOWNNAME":"新興區","MARKTYPE":"996","Class":"6"},"geometry":{"x":178191.07770000026,"y":2504047.6804000009}},{"attributes":{"OBJECTID":21359,"LANDMARKID":"6400000001342","LANDMARKCO":"603","LANDMARKNA":"假日大旅館","LANDMARKAD":"6400006","ADDRESS":"高雄市新興區民主橫路74號4-5樓","TEL":"07-2865921","COUNTYNAME":"高雄市","TOWNNAME":"新興區","MARKTYPE":"996","Class":"6"},"geometry":{"x":178194.84310000017,"y":2504097.6980000008}},{"attributes":{"OBJECTID":21360,"LANDMARKID":"6400000001343","LANDMARKCO":"603","LANDMARKNA":"春天商務旅館","LANDMARKAD":"6400006","ADDRESS":"高雄市新興區民族二路72號","TEL":"07-2232788","COUNTYNAME":"高雄市","TOWNNAME":"新興區","MARKTYPE":"996","Class":"6"},"geometry":{"x":179496.875,"y":2503781.1124000009}},{"attributes":{"OBJECTID":21361,"LANDMARKID":"6400000001344","LANDMARKCO":"603","LANDMARKNA":"首相賓館","LANDMARKAD":"6400006","ADDRESS":"高雄市新興區自立一路66之6號6樓","TEL":"07-2888777","COUNTYNAME":"高雄市","TOWNNAME":"新興區","MARKTYPE":"996","Class":"6"},"geometry":{"x":177803.59069999959,"y":2504151.2022999991}},{"attributes":{"OBJECTID":21362,"LANDMARKID":"6400000001345","LANDMARKCO":"603","LANDMARKNA":"來來商務旅館","LANDMARKAD":"6400006","ADDRESS":"高雄市新興區自立二路8號","TEL":"07-2151089","COUNTYNAME":"高雄市","TOWNNAME":"新興區","MARKTYPE":"996","Class":"6"},"geometry":{"x":178035.32299999986,"y":2503381.3071999997}},{"attributes":{"OBJECTID":21363,"LANDMARKID":"6400000001346","LANDMARKCO":"603","LANDMARKNA":"西北大旅社","LANDMARKAD":"6400006","ADDRESS":"高雄市新興區八德二路27號","TEL":"07-2859900","COUNTYNAME":"高雄市","TOWNNAME":"新興區","MARKTYPE":"996","Class":"6"},"geometry":{"x":178097.63219999988,"y":2504142.2415999994}},{"attributes":{"OBJECTID":21364,"LANDMARKID":"6400000001225","LANDMARKCO":"601","LANDMARKNA":"高雄福華大飯店","LANDMARKAD":"6400006","ADDRESS":"高雄市新興區七賢一路311號","TEL":"07-236-2323","COUNTYNAME":"高雄市","TOWNNAME":"新興區","MARKTYPE":"996","Class":"6"},"geometry":{"x":178879.68510000035,"y":2503916.2216999996}},{"attributes":{"OBJECTID":21365,"LANDMARKID":"6400000001212","LANDMARKCO":"511","LANDMARKNA":"六合夜市","LANDMARKAD":"6400006","ADDRESS":"高雄市新興區六合一路","TEL":" ","COUNTYNAME":"高雄市","TOWNNAME":"新興區","MARKTYPE":"995","Class":"5"},"geometry":{"x":178114.62370000035,"y":2503771.9447000008}},{"attributes":{"OBJECTID":21366,"LANDMARKID":"6400000001213","LANDMARKCO":"511","LANDMARKNA":"南華觀光夜市(新興夜市)","LANDMARKAD":"6400006","ADDRESS":"高雄市新興區南華路","TEL":" ","COUNTYNAME":"高雄市","TOWNNAME":"新興區","MARKTYPE":"995","Class":"5"},"geometry":{"x":178332.43680000026,"y":2503441.7659000009}},{"attributes":{"OBJECTID":21367,"LANDMARKID":"6400000000961","LANDMARKCO":"405","LANDMARKNA":"中油加油站-中正四路站(中油直營)","LANDMARKAD":"6400007","ADDRESS":"高雄市前金區中正四路251號","TEL":"07-2212453","COUNTYNAME":"高雄市","TOWNNAME":"前金區","MARKTYPE":"994","Class":"4"},"geometry":{"x":177162.41069999989,"y":2503218.6116000004}},{"attributes":{"OBJECTID":21368,"LANDMARKID":"6400000000962","LANDMARKCO":"405","LANDMARKNA":"中油加油站-中華三路站(中油直營)","LANDMARKAD":"6400007","ADDRESS":"高雄市前金區中華三路136號","TEL":"07-2851354","COUNTYNAME":"高雄市","TOWNNAME":"前金區","MARKTYPE":"994","Class":"4"},"geometry":{"x":177603.89769999962,"y":2503525.9846999999}},{"attributes":{"OBJECTID":21369,"LANDMARKID":"6400000000963","LANDMARKCO":"405","LANDMARKNA":"中油加油站-運河南路站(中油直營)","LANDMARKAD":"6400007","ADDRESS":"高雄市前金區河南二路87號","TEL":"07-2850458","COUNTYNAME":"高雄市","TOWNNAME":"前金區","MARKTYPE":"994","Class":"4"},"geometry":{"x":177569.36099999957,"y":2504043.8176000006}},{"attributes":{"OBJECTID":21370,"LANDMARKID":"6400000000964","LANDMARKCO":"405","LANDMARKNA":"中油加油站-大眾站","LANDMARKAD":"6400007","ADDRESS":"高雄市苓雅區中山二路497號","TEL":"07-5370069","COUNTYNAME":"高雄市","TOWNNAME":"前金區","MARKTYPE":"994","Class":"4"},"geometry":{"x":178170.05429999996,"y":2502547.0589000005}},{"attributes":{"OBJECTID":21371,"LANDMARKID":"6400000000965","LANDMARKCO":"405","LANDMARKNA":"中油加油站-成功一路站(中油直營)","LANDMARKAD":"6400007","ADDRESS":"高雄市前金區成功一路384號","TEL":"07-2218734","COUNTYNAME":"高雄市","TOWNNAME":"前金區","MARKTYPE":"994","Class":"4"},"geometry":{"x":177449.87619999982,"y":2502768.6117000002}},{"attributes":{"OBJECTID":21372,"LANDMARKID":"6400000000966","LANDMARKCO":"405","LANDMARKNA":"中油加油站-中山二路站(中油直營)","LANDMARKAD":"6400007","ADDRESS":"高雄市前金區中山二路569號","TEL":"07-2317441","COUNTYNAME":"高雄市","TOWNNAME":"前金區","MARKTYPE":"994","Class":"4"},"geometry":{"x":178152.93599999975,"y":2502573.8741999995}},{"attributes":{"OBJECTID":21373,"LANDMARKID":"6400000000888","LANDMARKCO":"402","LANDMARKNA":"My Phone台灣大哥大-高雄五福直營服務中心","LANDMARKAD":"6400007","ADDRESS":"高雄市前金區五福三路27號","TEL":" ","COUNTYNAME":"高雄市","TOWNNAME":"前金區","MARKTYPE":"994","Class":"4"},"geometry":{"x":177970.64290000033,"y":2502603.0197000001}},{"attributes":{"OBJECTID":21374,"LANDMARKID":"6400000000889","LANDMARKCO":"402","LANDMARKNA":"亞太行動寬頻電信-高雄中華加盟服務中心","LANDMARKAD":"6400007","ADDRESS":"高雄市前金區中華三路237號","TEL":"07-2413026","COUNTYNAME":"高雄市","TOWNNAME":"前金區","MARKTYPE":"994","Class":"4"},"geometry":{"x":177419.68740000017,"y":2503921.0892999992}},{"attributes":{"OBJECTID":21375,"LANDMARKID":"6400000000890","LANDMARKCO":"402","LANDMARKNA":"亞太行動寬頻電信-高雄市","LANDMARKAD":"6400007","ADDRESS":"高雄市前金區中華三路7號","TEL":" ","COUNTYNAME":"高雄市","TOWNNAME":"前金區","MARKTYPE":"994","Class":"4"},"geometry":{"x":177845.61209999956,"y":2502704.4242000002}},{"attributes":{"OBJECTID":21376,"LANDMARKID":"6400000000727","LANDMARKCO":"401","LANDMARKNA":"重仁骨科醫院","LANDMARKAD":"6400007","ADDRESS":"高雄市前金區中華三路247號","TEL":"07-2813136","COUNTYNAME":"高雄市","TOWNNAME":"前金區","MARKTYPE":"994","Class":"4"},"geometry":{"x":177402.45529999956,"y":2503970.0076000001}},{"attributes":{"OBJECTID":21377,"LANDMARKID":"6400000000728","LANDMARKCO":"401","LANDMARKNA":"健新醫院","LANDMARKAD":"6400007","ADDRESS":"高雄市前金區七賢二路295號","TEL":"07-2613866","COUNTYNAME":"高雄市","TOWNNAME":"前金區","MARKTYPE":"994","Class":"4"},"geometry":{"x":177104.59520000033,"y":2503633.9595999997}},{"attributes":{"OBJECTID":21378,"LANDMARKID":"6400000000729","LANDMARKCO":"401","LANDMARKNA":"吉田耳鼻喉科醫院","LANDMARKAD":"6400007","ADDRESS":"高雄市前金區自強一路63號","TEL":"07-2113167","COUNTYNAME":"高雄市","TOWNNAME":"前金區","MARKTYPE":"994","Class":"4"},"geometry":{"x":177320.74340000004,"y":2503601.6265999991}},{"attributes":{"OBJECTID":21379,"LANDMARKID":"6400000000730","LANDMARKCO":"401","LANDMARKNA":"高雄市立中醫醫院","LANDMARKAD":"6400007","ADDRESS":"高雄市前金區中華三路68號","TEL":"07-2163186","COUNTYNAME":"高雄市","TOWNNAME":"前金區","MARKTYPE":"994","Class":"4"},"geometry":{"x":177765.06879999954,"y":2503127.0375999995}},{"attributes":{"OBJECTID":21380,"LANDMARKID":"6400000001177","LANDMARKCO":"410","LANDMARKNA":"城市光廊","LANDMARKAD":"6400007","ADDRESS":"高雄市前金區中華三路6號","TEL":" ","COUNTYNAME":"高雄市","TOWNNAME":"前金區","MARKTYPE":"994","Class":"4"},"geometry":{"x":177973.36060000025,"y":2502781.2760000005}},{"attributes":{"OBJECTID":21381,"LANDMARKID":"6400000001216","LANDMARKCO":"512","LANDMARKNA":"交通部觀光局旅遊服務中心高雄服務處","LANDMARKAD":"6400007","ADDRESS":"高雄市中正四路235號5樓之1","TEL":"07-2811513","COUNTYNAME":"高雄市","TOWNNAME":"前金區","MARKTYPE":"995","Class":"5"},"geometry":{"x":177264.98159999959,"y":2503268.1357000005}},{"attributes":{"OBJECTID":21382,"LANDMARKID":"6400000001217","LANDMARKCO":"512","LANDMARKNA":"高雄市旅行商業同業公會","LANDMARKAD":"6400007","ADDRESS":"高雄市市中一路167號5樓","TEL":"07-2413881　","COUNTYNAME":"高雄市","TOWNNAME":"前金區","MARKTYPE":"995","Class":"5"},"geometry":{"x":177137.23369999975,"y":2503085.2026000004}},{"attributes":{"OBJECTID":21383,"LANDMARKID":"6400000001126","LANDMARKCO":"408","LANDMARKNA":"郵局-前金郵局","LANDMARKAD":"6400007","ADDRESS":"高雄市前金區中正四路182號","TEL":"(07)2714-866","COUNTYNAME":"高雄市","TOWNNAME":"前金區","MARKTYPE":"994","Class":"4"},"geometry":{"x":177457.28309999965,"y":2503391.2846000008}},{"attributes":{"OBJECTID":21384,"LANDMARKID":"6400000001127","LANDMARKCO":"408","LANDMARKNA":"郵局-高雄社東郵局","LANDMARKAD":"6400007","ADDRESS":"高雄市前金區自強二路104之1號","TEL":"(07)2726-714","COUNTYNAME":"高雄市","TOWNNAME":"前金區","MARKTYPE":"994","Class":"4"},"geometry":{"x":177551.42580000032,"y":2503052.3816999998}},{"attributes":{"OBJECTID":21385,"LANDMARKID":"6400000001128","LANDMARKCO":"408","LANDMARKNA":"郵局-高雄地方法院郵局","LANDMARKAD":"6400007","ADDRESS":"高雄市前金區市中一路171號(高雄地院內)","TEL":"(07)2168-291","COUNTYNAME":"高雄市","TOWNNAME":"前金區","MARKTYPE":"994","Class":"4"},"geometry":{"x":177072.81419999991,"y":2503149.0403000005}},{"attributes":{"OBJECTID":21386,"LANDMARKID":"6400000001059","LANDMARKCO":"407","LANDMARKNA":"漢神百貨","LANDMARKAD":"6400007","ADDRESS":"高雄市前金區成功一路266-1號","TEL":"07-2157266","COUNTYNAME":"高雄市","TOWNNAME":"前金區","MARKTYPE":"994","Class":"4"},"geometry":{"x":177631.85240000021,"y":2502304.0325000007}},{"attributes":{"OBJECTID":21387,"LANDMARKID":"6400000001060","LANDMARKCO":"407","LANDMARKNA":"大立伊勢丹百貨","LANDMARKAD":"6400007","ADDRESS":"高雄市前金區五福三路59號","TEL":"07-2613060","COUNTYNAME":"高雄市","TOWNNAME":"前金區","MARKTYPE":"994","Class":"4"},"geometry":{"x":177796.31709999964,"y":2502555.4520999994}},{"attributes":{"OBJECTID":21388,"LANDMARKID":"6400000001061","LANDMARKCO":"407","LANDMARKNA":"先施百貨","LANDMARKAD":"6400007","ADDRESS":"高雄市前金區成功一路266號3樓","TEL":"07-2728918","COUNTYNAME":"高雄市","TOWNNAME":"前金區","MARKTYPE":"994","Class":"4"},"geometry":{"x":177631.85240000021,"y":2502304.0325000007}},{"attributes":{"OBJECTID":21389,"LANDMARKID":"6400000001062","LANDMARKCO":"407","LANDMARKNA":"誠品Eslite","LANDMARKAD":"6400007","ADDRESS":"高雄市前金區五福三路57號7F","TEL":"07-251-2595","COUNTYNAME":"高雄市","TOWNNAME":"前金區","MARKTYPE":"994","Class":"4"},"geometry":{"x":177796.31709999964,"y":2502555.4520999994}},{"attributes":{"OBJECTID":21390,"LANDMARKID":"6400000001063","LANDMARKCO":"407","LANDMARKNA":"LV專賣店","LANDMARKAD":"6400007","ADDRESS":"高雄市前金區成功一路266號之1","TEL":"07-2519938","COUNTYNAME":"高雄市","TOWNNAME":"前金區","MARKTYPE":"994","Class":"4"},"geometry":{"x":177631.85240000021,"y":2502304.0325000007}},{"attributes":{"OBJECTID":21391,"LANDMARKID":"6400000000158","LANDMARKCO":"107","LANDMARKNA":"內政部入出國及移民署","LANDMARKAD":"6400007","ADDRESS":"高雄市前金區成功一路436號","TEL":"07-2211829","COUNTYNAME":"高雄市","TOWNNAME":"前金區","MARKTYPE":"991","Class":"1"},"geometry":{"x":177205.0959999999,"y":2503430.0874000005}},{"attributes":{"OBJECTID":21392,"LANDMARKID":"6400000000015","LANDMARKCO":"101","LANDMARKNA":"外交部領事事務局高雄辦事處","LANDMARKAD":"6400007","ADDRESS":"高雄市前金區成功一路436號","TEL":"07-2110605","COUNTYNAME":"高雄市","TOWNNAME":"前金區","MARKTYPE":"991","Class":"1"},"geometry":{"x":177205.0959999999,"y":2503430.0874000005}},{"attributes":{"OBJECTID":21393,"LANDMARKID":"6400000000016","LANDMARKCO":"101","LANDMARKNA":"南部聯合服務中心","LANDMARKAD":"6400007","ADDRESS":"高雄市前金區成功一路436號","TEL":"07-2712300","COUNTYNAME":"高雄市","TOWNNAME":"前金區","MARKTYPE":"991","Class":"1"},"geometry":{"x":177205.0959999999,"y":2503430.0874000005}},{"attributes":{"OBJECTID":21394,"LANDMARKID":"6400000000017","LANDMARKCO":"101","LANDMARKNA":"經濟部中小企業處南區服務中心","LANDMARKAD":"6400007","ADDRESS":"高雄市前金區成功一路436號9樓","TEL":"07-2710900*211","COUNTYNAME":"高雄市","TOWNNAME":"前金區","MARKTYPE":"991","Class":"1"},"geometry":{"x":177205.0959999999,"y":2503430.0874000005}},{"attributes":{"OBJECTID":21395,"LANDMARKID":"6400000000018","LANDMARKCO":"101","LANDMARKNA":"經濟部高雄服務中心","LANDMARKAD":"6400007","ADDRESS":"高雄市前金區成功一路436號9樓","TEL":"07-2710900","COUNTYNAME":"高雄市","TOWNNAME":"前金區","MARKTYPE":"991","Class":"1"},"geometry":{"x":177205.0959999999,"y":2503430.0874000005}},{"attributes":{"OBJECTID":21396,"LANDMARKID":"6400000000019","LANDMARKCO":"101","LANDMARKNA":"經濟部智慧財產局","LANDMARKAD":"6400007","ADDRESS":"高雄市前金區成功一路436號","TEL":"07-2711922","COUNTYNAME":"高雄市","TOWNNAME":"前金區","MARKTYPE":"991","Class":"1"},"geometry":{"x":177205.0959999999,"y":2503430.0874000005}},{"attributes":{"OBJECTID":21397,"LANDMARKID":"6400000000020","LANDMARKCO":"101","LANDMARKNA":"台灣更生保護會高雄分會","LANDMARKAD":"6400007","ADDRESS":"高雄市前金區中正四路245號2樓","TEL":"07-2010925","COUNTYNAME":"高雄市","TOWNNAME":"前金區","MARKTYPE":"991","Class":"1"},"geometry":{"x":177235.90799999982,"y":2503249.4837999996}},{"attributes":{"OBJECTID":21398,"LANDMARKID":"6400000000223","LANDMARKCO":"108","LANDMARKNA":"高雄市前金區公所","LANDMARKAD":"6400007","ADDRESS":"高雄市前金區自強二路169號","TEL":"07-2723133","COUNTYNAME":"高雄市","TOWNNAME":"前金區","MARKTYPE":"991","Class":"1"},"geometry":{"x":177455.82409999985,"y":2503213.5344999991}},{"attributes":{"OBJECTID":21399,"LANDMARKID":"6400000000025","LANDMARKCO":"101","LANDMARKNA":"高雄憲兵隊","LANDMARKAD":"6400007","ADDRESS":"高雄市六合二路217號","TEL":"07-2715469","COUNTYNAME":"高雄市","TOWNNAME":"前金區","MARKTYPE":"991","Class":"1"},"geometry":{"x":177256.35250000004,"y":2503448.5810000002}},{"attributes":{"OBJECTID":21400,"LANDMARKID":"6400000000171","LANDMARKCO":"107","LANDMARKNA":"高雄市政府警察局總局","LANDMARKAD":"6400007","ADDRESS":"高雄市前金區後金里中正四路260號","TEL":"07-2155555","COUNTYNAME":"高雄市","TOWNNAME":"前金區","MARKTYPE":"991","Class":"1"},"geometry":{"x":177141.18169999961,"y":2503275.3940999992}}]}