{"displayFieldName":"COUNTYNAME","fieldAliases":{"OBJECTID":"OBJECTID","LANDMARKID":"LANDMARKID","LANDMARKCO":"LANDMARKCO","LANDMARKNA":"LANDMARKNA","LANDMARKAD":"LANDMARKAD","ADDRESS":"ADDRESS","TEL":"TEL","COUNTYNAME":"COUNTYNAME","TOWNNAME":"TOWNNAME","MARKTYPE":"MARKTYPE","Class":"Class"},"geometryType":"esriGeometryPoint","spatialReference":{"wkid":4326},"fields":[{"name":"OBJECTID","type":"esriFieldTypeOID","alias":"OBJECTID"},{"name":"LANDMARKID","type":"esriFieldTypeString","alias":"LANDMARKID","length":15},{"name":"LANDMARKCO","type":"esriFieldTypeString","alias":"LANDMARKCO","length":15},{"name":"LANDMARKNA","type":"esriFieldTypeString","alias":"LANDMARKNA","length":50},{"name":"LANDMARKAD","type":"esriFieldTypeString","alias":"LANDMARKAD","length":15},{"name":"ADDRESS","type":"esriFieldTypeString","alias":"ADDRESS","length":56},{"name":"TEL","type":"esriFieldTypeString","alias":"TEL","length":36},{"name":"COUNTYNAME","type":"esriFieldTypeString","alias":"COUNTYNAME","length":15},{"name":"TOWNNAME","type":"esriFieldTypeString","alias":"TOWNNAME","length":13},{"name":"MARKTYPE","type":"esriFieldTypeString","alias":"MARKTYPE","length":12},{"name":"Class","type":"esriFieldTypeString","alias":"Class","length":5}],"features":[{"attributes":{"OBJECTID":17201,"LANDMARKID":"1000800000864","LANDMARKCO":"505","LANDMARKNA":"蓮華池藥用植物園","LANDMARKAD":"1000809","ADDRESS":"南投縣魚池鄉五城村華榮巷43號","TEL":" ","COUNTYNAME":"南投縣","TOWNNAME":"魚池鄉","MARKTYPE":"995","Class":"5"},"geometry":{"x":120.89178207294272,"y":23.924524449611393}},{"attributes":{"OBJECTID":17202,"LANDMARKID":"1000800000663","LANDMARKCO":"405","LANDMARKNA":"中油加油站-陞泰站","LANDMARKAD":"1000806","ADDRESS":"南投縣名間鄉濁水村員集路40-36號","TEL":"049-2737711","COUNTYNAME":"南投縣","TOWNNAME":"名間鄉","MARKTYPE":"994","Class":"4"},"geometry":{"x":120.70336044599641,"y":23.83577517713212}},{"attributes":{"OBJECTID":17203,"LANDMARKID":"1000800000664","LANDMARKCO":"405","LANDMARKNA":"中油加油站-彰南路站","LANDMARKAD":"1000806","ADDRESS":"南投縣名間鄉東湖村彰南路335-3號","TEL":"049-738311","COUNTYNAME":"南投縣","TOWNNAME":"名間鄉","MARKTYPE":"994","Class":"4"},"geometry":{"x":120.69302389947708,"y":23.864207393834928}},{"attributes":{"OBJECTID":17204,"LANDMARKID":"1000800000665","LANDMARKCO":"405","LANDMARKNA":"中油加油站-冠遠站","LANDMARKAD":"1000806","ADDRESS":"南投縣名間鄉出林虎路一段146號","TEL":"049-2739913","COUNTYNAME":"南投縣","TOWNNAME":"名間鄉","MARKTYPE":"994","Class":"4"},"geometry":{"x":120.66530085977625,"y":23.849479996582151}},{"attributes":{"OBJECTID":17205,"LANDMARKID":"1000800000666","LANDMARKCO":"405","LANDMARKNA":"台糖加油站-南新站(中油)","LANDMARKAD":"1000806","ADDRESS":"南投縣名間鄉新街村彰南路357之39號","TEL":" ","COUNTYNAME":"南投縣","TOWNNAME":"名間鄉","MARKTYPE":"994","Class":"4"},"geometry":{"x":120.69286834246637,"y":23.871893241572817}},{"attributes":{"OBJECTID":17206,"LANDMARKID":"1000800000667","LANDMARKCO":"405","LANDMARKNA":"中油加油站-名間站(中油直營)","LANDMARKAD":"1000806","ADDRESS":"南投縣名間鄉中正村南雅街151號","TEL":"049-2732629","COUNTYNAME":"南投縣","TOWNNAME":"名間鄉","MARKTYPE":"994","Class":"4"},"geometry":{"x":120.70182561808362,"y":23.838913543220023}},{"attributes":{"OBJECTID":17207,"LANDMARKID":"1000800000668","LANDMARKCO":"405","LANDMARKNA":"中油加油站-通丞站","LANDMARKAD":"1000806","ADDRESS":"南投縣名間鄉名松路二段35號","TEL":"049-2580388","COUNTYNAME":"南投縣","TOWNNAME":"名間鄉","MARKTYPE":"994","Class":"4"},"geometry":{"x":120.63978319910026,"y":23.832754320792649}},{"attributes":{"OBJECTID":17208,"LANDMARKID":"1000800000669","LANDMARKCO":"405","LANDMARKNA":"中油加油站-日動站","LANDMARKAD":"1000806","ADDRESS":"南投縣名間鄉名松路二段750號","TEL":"049-2272682","COUNTYNAME":"南投縣","TOWNNAME":"名間鄉","MARKTYPE":"994","Class":"4"},"geometry":{"x":120.62929782742522,"y":23.855894257737297}},{"attributes":{"OBJECTID":17209,"LANDMARKID":"1000800000598","LANDMARKCO":"401","LANDMARKNA":"泰宜婦幼醫院","LANDMARKAD":"1000806","ADDRESS":"南投縣名間鄉新街村彰南路571之1號","TEL":"049-2227787","COUNTYNAME":"南投縣","TOWNNAME":"名間鄉","MARKTYPE":"994","Class":"4"},"geometry":{"x":120.69108363579841,"y":23.881982825079294}},{"attributes":{"OBJECTID":17210,"LANDMARKID":"1000800000885","LANDMARKCO":"507","LANDMARKNA":"永濟義渡","LANDMARKAD":"1000806","ADDRESS":"南投縣名間鄉濁水村福興宮左側巷口與竹山鎮社寮紫南宮","TEL":" ","COUNTYNAME":"南投縣","TOWNNAME":"名間鄉","MARKTYPE":"995","Class":"5"},"geometry":{"x":120.71447008812291,"y":23.859262694791688}},{"attributes":{"OBJECTID":17211,"LANDMARKID":"1000800000873","LANDMARKCO":"506","LANDMARKNA":"芳露蘋果園","LANDMARKAD":"1000806","ADDRESS":"南投縣名間鄉員集路46巷41號","TEL":"049-2731563","COUNTYNAME":"南投縣","TOWNNAME":"名間鄉","MARKTYPE":"995","Class":"5"},"geometry":{"x":120.70003130696556,"y":23.834634297194622}},{"attributes":{"OBJECTID":17212,"LANDMARKID":"1000800000930","LANDMARKCO":"512","LANDMARKNA":"交通部觀光局八卦山風景區管理所","LANDMARKAD":"1000806","ADDRESS":"南投縣名間鄉名松路二段181號","TEL":"049-2580525","COUNTYNAME":"南投縣","TOWNNAME":"名間鄉","MARKTYPE":"995","Class":"5"},"geometry":{"x":120.6385705858286,"y":23.833386265956552}},{"attributes":{"OBJECTID":17213,"LANDMARKID":"1000800000931","LANDMARKCO":"512","LANDMARKNA":"松柏嶺旅遊服務中心","LANDMARKAD":"1000806","ADDRESS":"南投縣名間鄉名松路二段181號","TEL":"049-2580525","COUNTYNAME":"南投縣","TOWNNAME":"名間鄉","MARKTYPE":"995","Class":"5"},"geometry":{"x":120.63333564377618,"y":23.838092990138104}},{"attributes":{"OBJECTID":17214,"LANDMARKID":"1000800000884","LANDMARKCO":"507","LANDMARKNA":"受天宮","LANDMARKAD":"1000806","ADDRESS":"南投縣名間鄉松山街118號","TEL":"049-2581008","COUNTYNAME":"南投縣","TOWNNAME":"名間鄉","MARKTYPE":"995","Class":"5"},"geometry":{"x":120.6278554047766,"y":23.83725711084638}},{"attributes":{"OBJECTID":17215,"LANDMARKID":"1000800000786","LANDMARKCO":"408","LANDMARKNA":"郵局-名間郵局","LANDMARKAD":"1000806","ADDRESS":"南投縣名間鄉南雅街65號","TEL":"(049)2732-040","COUNTYNAME":"南投縣","TOWNNAME":"名間鄉","MARKTYPE":"994","Class":"4"},"geometry":{"x":120.70194250082977,"y":23.836584420953802}},{"attributes":{"OBJECTID":17216,"LANDMARKID":"1000800000787","LANDMARKCO":"408","LANDMARKNA":"郵局-名間松嶺郵局","LANDMARKAD":"1000806","ADDRESS":"南投縣名間鄉名松路2段212號","TEL":"(049)2581-453","COUNTYNAME":"南投縣","TOWNNAME":"名間鄉","MARKTYPE":"994","Class":"4"},"geometry":{"x":120.63582302562524,"y":23.834530227830779}},{"attributes":{"OBJECTID":17217,"LANDMARKID":"1000800000788","LANDMARKCO":"408","LANDMARKNA":"郵局-名間新街郵局","LANDMARKAD":"1000806","ADDRESS":"南投縣名間鄉彰南路405-5號","TEL":"(049)2232-305","COUNTYNAME":"南投縣","TOWNNAME":"名間鄉","MARKTYPE":"994","Class":"4"},"geometry":{"x":120.69321184279666,"y":23.877696713906573}},{"attributes":{"OBJECTID":17218,"LANDMARKID":"1000800000789","LANDMARKCO":"408","LANDMARKNA":"郵局-名間大庄郵局","LANDMARKAD":"1000806","ADDRESS":"南投縣名間鄉南田路125號","TEL":"(049)2271-184","COUNTYNAME":"南投縣","TOWNNAME":"名間鄉","MARKTYPE":"994","Class":"4"},"geometry":{"x":120.65492987408246,"y":23.873536015828787}},{"attributes":{"OBJECTID":17219,"LANDMARKID":"1000800000801","LANDMARKCO":"409","LANDMARKNA":"南投縣名間鄉農會","LANDMARKAD":"1000806","ADDRESS":"南投縣名間鄉中正村彰南路26號","TEL":"049-2732111","COUNTYNAME":"南投縣","TOWNNAME":"名間鄉","MARKTYPE":"994","Class":"4"},"geometry":{"x":120.70292315877398,"y":23.838299850872406}},{"attributes":{"OBJECTID":17220,"LANDMARKID":"1000800000641","LANDMARKCO":"404","LANDMARKNA":"台灣省自來水名間營運所","LANDMARKAD":"1000806","ADDRESS":"南投縣名間鄉新街村客庄巷1號","TEL":" ","COUNTYNAME":"南投縣","TOWNNAME":"名間鄉","MARKTYPE":"994","Class":"4"},"geometry":{"x":120.69487626349625,"y":23.876885693578558}},{"attributes":{"OBJECTID":17221,"LANDMARKID":"1000800000747","LANDMARKCO":"406","LANDMARKNA":"名間運動公園","LANDMARKAD":"1000806","ADDRESS":"南投縣名間鄉","TEL":" ","COUNTYNAME":"南投縣","TOWNNAME":"名間鄉","MARKTYPE":"994","Class":"4"},"geometry":{"x":120.69510774153623,"y":23.844506079150843}},{"attributes":{"OBJECTID":17222,"LANDMARKID":"1000800000661","LANDMARKCO":"405","LANDMARKNA":"福懋加油站-名間站(台塑)","LANDMARKAD":"1000806","ADDRESS":"南投縣名間鄉彰南路103號","TEL":"049-2735407","COUNTYNAME":"南投縣","TOWNNAME":"名間鄉","MARKTYPE":"994","Class":"4"},"geometry":{"x":120.70012074621303,"y":23.84117332468788}},{"attributes":{"OBJECTID":17223,"LANDMARKID":"1000800000662","LANDMARKCO":"405","LANDMARKNA":"台塑加油站-合成站(台塑)","LANDMARKAD":"1000806","ADDRESS":"南投縣名間鄉濁水村名水路三段191號","TEL":"049-2732101","COUNTYNAME":"南投縣","TOWNNAME":"名間鄉","MARKTYPE":"994","Class":"4"},"geometry":{"x":120.72518661562658,"y":23.835249888871932}},{"attributes":{"OBJECTID":17224,"LANDMARKID":"1000800000237","LANDMARKCO":"108","LANDMARKNA":"南投縣名間鄉公所","LANDMARKAD":"1000806","ADDRESS":"南投縣名間鄉中正村彰南路40號","TEL":"049-2732116","COUNTYNAME":"南投縣","TOWNNAME":"名間鄉","MARKTYPE":"991","Class":"1"},"geometry":{"x":120.70297158656857,"y":23.838337331628367}},{"attributes":{"OBJECTID":17225,"LANDMARKID":"1000800000057","LANDMARKCO":"103","LANDMARKNA":"南投縣名間鄉民代表會","LANDMARKAD":"1000806","ADDRESS":"南投縣名間鄉彰南路40號","TEL":"049-2732136","COUNTYNAME":"南投縣","TOWNNAME":"名間鄉","MARKTYPE":"991","Class":"1"},"geometry":{"x":120.70297158656857,"y":23.838337331628367}},{"attributes":{"OBJECTID":17226,"LANDMARKID":"1000800000058","LANDMARKCO":"103","LANDMARKNA":"南投縣名間鄉衛生所","LANDMARKAD":"1000806","ADDRESS":"南投縣名間鄉彰南路42號","TEL":"049-2732135","COUNTYNAME":"南投縣","TOWNNAME":"名間鄉","MARKTYPE":"991","Class":"1"},"geometry":{"x":120.7029311763808,"y":23.838517253302584}},{"attributes":{"OBJECTID":17227,"LANDMARKID":"1000800000185","LANDMARKCO":"107","LANDMARKNA":"南投縣消防局名間消防分隊","LANDMARKAD":"1000806","ADDRESS":"南投縣名間鄉彰南路44號","TEL":"049-2732204","COUNTYNAME":"南投縣","TOWNNAME":"名間鄉","MARKTYPE":"991","Class":"1"},"geometry":{"x":120.7027511603322,"y":23.838522288801936}},{"attributes":{"OBJECTID":17228,"LANDMARKID":"1000800000186","LANDMARKCO":"107","LANDMARKNA":"南投縣政府警察局永和派出所","LANDMARKAD":"1000806","ADDRESS":"南投縣名間鄉大庄村南田路138號","TEL":"049-2271002","COUNTYNAME":"南投縣","TOWNNAME":"名間鄉","MARKTYPE":"991","Class":"1"},"geometry":{"x":120.65411129574342,"y":23.874239960604534}},{"attributes":{"OBJECTID":17229,"LANDMARKID":"1000800000187","LANDMARKCO":"107","LANDMARKNA":"南投縣政府警察局赤水派出所","LANDMARKAD":"1000806","ADDRESS":"南投縣名間鄉赤水村南田路291號","TEL":"049-2271159","COUNTYNAME":"南投縣","TOWNNAME":"名間鄉","MARKTYPE":"991","Class":"1"},"geometry":{"x":120.62941200473732,"y":23.857190898603644}},{"attributes":{"OBJECTID":17230,"LANDMARKID":"1000800000188","LANDMARKCO":"107","LANDMARKNA":"南投縣政府警察局崁峰派出所","LANDMARKAD":"1000806","ADDRESS":"南投縣名間鄉崁腳村名松路一段309號","TEL":"049-2582138","COUNTYNAME":"南投縣","TOWNNAME":"名間鄉","MARKTYPE":"991","Class":"1"},"geometry":{"x":120.66125158304102,"y":23.835287266377595}},{"attributes":{"OBJECTID":17231,"LANDMARKID":"1000800000189","LANDMARKCO":"107","LANDMARKNA":"南投縣政府警察局名間分駐所","LANDMARKAD":"1000806","ADDRESS":"南投縣名間鄉中正村彰南路30號","TEL":"049-2732149","COUNTYNAME":"南投縣","TOWNNAME":"名間鄉","MARKTYPE":"991","Class":"1"},"geometry":{"x":120.7037034817252,"y":23.837508739780176}},{"attributes":{"OBJECTID":17232,"LANDMARKID":"1000800000190","LANDMARKCO":"107","LANDMARKNA":"南投縣政府警察局新佳派出所","LANDMARKAD":"1000806","ADDRESS":"南投縣名間鄉新街村彰南路422號","TEL":"049-2225160","COUNTYNAME":"南投縣","TOWNNAME":"名間鄉","MARKTYPE":"991","Class":"1"},"geometry":{"x":120.69365497805038,"y":23.878490927493779}},{"attributes":{"OBJECTID":17233,"LANDMARKID":"1000800000105","LANDMARKCO":"106","LANDMARKNA":"南投縣名間鄉戶政事務所","LANDMARKAD":"1000806","ADDRESS":"南投縣名間鄉中正村3鄰彰南路42號之1","TEL":"049-2732454","COUNTYNAME":"南投縣","TOWNNAME":"名間鄉","MARKTYPE":"991","Class":"1"},"geometry":{"x":120.7029311763808,"y":23.838517253302584}},{"attributes":{"OBJECTID":17234,"LANDMARKID":"1000800000038","LANDMARKCO":"101","LANDMARKNA":"職業訓練局名間就業服務台","LANDMARKAD":"1000806","ADDRESS":"南投縣名間鄉中正村彰南路26號","TEL":"049-2736481","COUNTYNAME":"南投縣","TOWNNAME":"名間鄉","MARKTYPE":"991","Class":"1"},"geometry":{"x":120.70429498142964,"y":23.836849876036229}},{"attributes":{"OBJECTID":17235,"LANDMARKID":"1000800000039","LANDMARKCO":"101","LANDMARKNA":"水利署中區水資源局","LANDMARKAD":"1000806","ADDRESS":"南投縣名間鄉名松路一段76號","TEL":"049-2736717","COUNTYNAME":"南投縣","TOWNNAME":"名間鄉","MARKTYPE":"991","Class":"1"},"geometry":{"x":120.69376518964125,"y":23.842291142869136}},{"attributes":{"OBJECTID":17236,"LANDMARKID":"1000800000451","LANDMARKCO":"204","LANDMARKNA":"南投縣立圖書館名間分館","LANDMARKAD":"1000806","ADDRESS":"南投縣名間鄉中正村彰南路42之2號","TEL":" ","COUNTYNAME":"南投縣","TOWNNAME":"名間鄉","MARKTYPE":"992","Class":"2"},"geometry":{"x":120.70223392813226,"y":23.839231036204275}},{"attributes":{"OBJECTID":17237,"LANDMARKID":"1000800000419","LANDMARKCO":"203","LANDMARKNA":"縣立名崗國小","LANDMARKAD":"1000806","ADDRESS":"南投縣名間鄉大坑村南田路222號","TEL":"049-2271864","COUNTYNAME":"南投縣","TOWNNAME":"名間鄉","MARKTYPE":"992","Class":"2"},"geometry":{"x":120.64629967091277,"y":23.870174902916968}},{"attributes":{"OBJECTID":17238,"LANDMARKID":"1000800000420","LANDMARKCO":"203","LANDMARKNA":"縣立三光國中","LANDMARKAD":"1000806","ADDRESS":"南投縣名間鄉新光村名山路50號","TEL":"049-2732074","COUNTYNAME":"南投縣","TOWNNAME":"名間鄉","MARKTYPE":"992","Class":"2"},"geometry":{"x":120.66841898837161,"y":23.850096922375478}},{"attributes":{"OBJECTID":17239,"LANDMARKID":"1000800000421","LANDMARKCO":"203","LANDMARKNA":"縣立名間國中","LANDMARKAD":"1000806","ADDRESS":"南投縣名間鄉中山村彰南路237號","TEL":"049-2732046","COUNTYNAME":"南投縣","TOWNNAME":"名間鄉","MARKTYPE":"992","Class":"2"},"geometry":{"x":120.69486463656699,"y":23.845307791425274}},{"attributes":{"OBJECTID":17240,"LANDMARKID":"1000800000422","LANDMARKCO":"203","LANDMARKNA":"縣立新民國小","LANDMARKAD":"1000806","ADDRESS":"南投縣名間鄉新民村新民巷43號","TEL":"049-2732514","COUNTYNAME":"南投縣","TOWNNAME":"名間鄉","MARKTYPE":"992","Class":"2"},"geometry":{"x":120.68720218759113,"y":23.82130917485761}},{"attributes":{"OBJECTID":17241,"LANDMARKID":"1000800000423","LANDMARKCO":"203","LANDMARKNA":"縣立僑興國小","LANDMARKAD":"1000806","ADDRESS":"南投縣名間鄉東湖村彰南路259號","TEL":"049-2732340","COUNTYNAME":"南投縣","TOWNNAME":"名間鄉","MARKTYPE":"992","Class":"2"},"geometry":{"x":120.69423522772797,"y":23.8589420789576}},{"attributes":{"OBJECTID":17242,"LANDMARKID":"1000800000424","LANDMARKCO":"203","LANDMARKNA":"縣立新街國小","LANDMARKAD":"1000806","ADDRESS":"南投縣名間鄉新街村彰南路375號","TEL":"049-2223534","COUNTYNAME":"南投縣","TOWNNAME":"名間鄉","MARKTYPE":"992","Class":"2"},"geometry":{"x":120.69256420367714,"y":23.876038753708876}},{"attributes":{"OBJECTID":17243,"LANDMARKID":"1000800000425","LANDMARKCO":"203","LANDMARKNA":"縣立田豐國小","LANDMARKAD":"1000806","ADDRESS":"南投縣名間鄉田仔村田仔巷40號","TEL":"049-2271509","COUNTYNAME":"南投縣","TOWNNAME":"名間鄉","MARKTYPE":"992","Class":"2"},"geometry":{"x":120.67619378431785,"y":23.870599473280652}},{"attributes":{"OBJECTID":17244,"LANDMARKID":"1000800000426","LANDMARKCO":"203","LANDMARKNA":"縣立中山國小","LANDMARKAD":"1000806","ADDRESS":"南投縣名間鄉名松路一段294號","TEL":"049-2582335","COUNTYNAME":"南投縣","TOWNNAME":"名間鄉","MARKTYPE":"992","Class":"2"},"geometry":{"x":120.66185451121689,"y":23.836938590755487}},{"attributes":{"OBJECTID":17245,"LANDMARKID":"1000800000427","LANDMARKCO":"203","LANDMARKNA":"縣立弓鞋國小","LANDMARKAD":"1000806","ADDRESS":"南投縣名間鄉名松路二段580號","TEL":"049-2581322","COUNTYNAME":"南投縣","TOWNNAME":"名間鄉","MARKTYPE":"992","Class":"2"},"geometry":{"x":120.63118597179047,"y":23.84190846829464}},{"attributes":{"OBJECTID":17246,"LANDMARKID":"1000800000428","LANDMARKCO":"203","LANDMARKNA":"縣立名間國小","LANDMARKAD":"1000806","ADDRESS":"南投縣名間鄉中山村彰南路220號","TEL":"049-2732024","COUNTYNAME":"南投縣","TOWNNAME":"名間鄉","MARKTYPE":"992","Class":"2"},"geometry":{"x":120.69794530313061,"y":23.845028376429859}},{"attributes":{"OBJECTID":17247,"LANDMARKID":"1000800000575","LANDMARKCO":"308","LANDMARKNA":"名間收費站","LANDMARKAD":"1000806","ADDRESS":" ","TEL":" ","COUNTYNAME":"南投縣","TOWNNAME":"名間鄉","MARKTYPE":"993","Class":"308"},"geometry":{"x":120.70708178049415,"y":23.875383300065469}},{"attributes":{"OBJECTID":17248,"LANDMARKID":"1000800000576","LANDMARKCO":"308","LANDMARKNA":"國3-名間交流道-北上","LANDMARKAD":"1000806","ADDRESS":"南投縣名間鄉","TEL":" ","COUNTYNAME":"南投縣","TOWNNAME":"名間鄉","MARKTYPE":"993","Class":"308"},"geometry":{"x":120.70261891941038,"y":23.855097237917875}},{"attributes":{"OBJECTID":17249,"LANDMARKID":"1000800000577","LANDMARKCO":"308","LANDMARKNA":"國3-名間交流道-南下","LANDMARKAD":"1000806","ADDRESS":"南投縣名間鄉","TEL":" ","COUNTYNAME":"南投縣","TOWNNAME":"名間鄉","MARKTYPE":"993","Class":"308"},"geometry":{"x":120.70327071673607,"y":23.849382830406583}},{"attributes":{"OBJECTID":17250,"LANDMARKID":"1000800000550","LANDMARKCO":"303","LANDMARKNA":"松柏嶺受天宮停車場","LANDMARKAD":"1000806","ADDRESS":"南投縣名間鄉松山街118號","TEL":" ","COUNTYNAME":"南投縣","TOWNNAME":"名間鄉","MARKTYPE":"993","Class":"303"},"geometry":{"x":120.63121765917637,"y":23.831918454152046}},{"attributes":{"OBJECTID":17251,"LANDMARKID":"1000800000551","LANDMARKCO":"303","LANDMARKNA":"名間鄉立體停車場","LANDMARKAD":"1000806","ADDRESS":"南投縣名間鄉","TEL":" ","COUNTYNAME":"南投縣","TOWNNAME":"名間鄉","MARKTYPE":"993","Class":"303"},"geometry":{"x":120.70106648332303,"y":23.836585396259615}},{"attributes":{"OBJECTID":17252,"LANDMARKID":"1000800000552","LANDMARKCO":"303","LANDMARKNA":"小型車停車場","LANDMARKAD":"1000806","ADDRESS":"南投縣名間鄉","TEL":" ","COUNTYNAME":"南投縣","TOWNNAME":"名間鄉","MARKTYPE":"993","Class":"303"},"geometry":{"x":120.62975310121496,"y":23.839833700283304}},{"attributes":{"OBJECTID":17253,"LANDMARKID":"1000800000480","LANDMARKCO":"301","LANDMARKNA":"濁水火車站","LANDMARKAD":"1000806","ADDRESS":"南投縣名間鄉","TEL":" ","COUNTYNAME":"南投縣","TOWNNAME":"名間鄉","MARKTYPE":"993","Class":"301"},"geometry":{"x":120.70470283681527,"y":23.83461334376095}},{"attributes":{"OBJECTID":17254,"LANDMARKID":"1000800000608","LANDMARKCO":"402","LANDMARKNA":"中華電信-名間服務中心","LANDMARKAD":"1000806","ADDRESS":"南投縣名間鄉彰南路34號","TEL":"(049)273-3444","COUNTYNAME":"南投縣","TOWNNAME":"名間鄉","MARKTYPE":"994","Class":"4"},"geometry":{"x":120.70336008218867,"y":23.837857701468462}},{"attributes":{"OBJECTID":17255,"LANDMARKID":"1000800001405","LANDMARKCO":"604","LANDMARKNA":"無患子的故鄉","LANDMARKAD":"1000806","ADDRESS":"南投縣名間鄉三崙村弓鞋巷25-7號","TEL":"049-2583212","COUNTYNAME":"南投縣","TOWNNAME":"名間鄉","MARKTYPE":"996","Class":"6"},"geometry":{"x":120.62545307153091,"y":23.84963317434034}},{"attributes":{"OBJECTID":17256,"LANDMARKID":"1000800001406","LANDMARKCO":"604","LANDMARKNA":"京麟文化園區","LANDMARKAD":"1000806","ADDRESS":"南投縣名間鄉大坑村大廈巷66-66號","TEL":"049-2730637","COUNTYNAME":"南投縣","TOWNNAME":"名間鄉","MARKTYPE":"996","Class":"6"},"geometry":{"x":120.66100619010588,"y":23.866977979834374}},{"attributes":{"OBJECTID":17257,"LANDMARKID":"1000800000960","LANDMARKCO":"603","LANDMARKNA":"宏和旅社","LANDMARKAD":"1000806","ADDRESS":"南投縣名間鄉南雅村南雅街60號","TEL":"049-2732607","COUNTYNAME":"南投縣","TOWNNAME":"名間鄉","MARKTYPE":"996","Class":"6"},"geometry":{"x":120.70245348366029,"y":23.836469009277284}},{"attributes":{"OBJECTID":17258,"LANDMARKID":"1000800000961","LANDMARKCO":"603","LANDMARKNA":"晴海汽車旅館","LANDMARKAD":"1000806","ADDRESS":"南投縣名間鄉新街村彰南路556號","TEL":"049-2205555","COUNTYNAME":"南投縣","TOWNNAME":"名間鄉","MARKTYPE":"996","Class":"6"},"geometry":{"x":120.69240158788844,"y":23.881540095516385}},{"attributes":{"OBJECTID":17259,"LANDMARKID":"1000800001402","LANDMARKCO":"604","LANDMARKNA":"享茶園","LANDMARKAD":"1000806","ADDRESS":"南投縣名間鄉竹園村名松路二段758號","TEL":"049-2270227","COUNTYNAME":"南投縣","TOWNNAME":"名間鄉","MARKTYPE":"996","Class":"6"},"geometry":{"x":120.62942084847354,"y":23.856346675828394}},{"attributes":{"OBJECTID":17260,"LANDMARKID":"1000800001403","LANDMARKCO":"604","LANDMARKNA":"茶米香民宿","LANDMARKAD":"1000806","ADDRESS":"南投縣名間鄉松山村松嶺街237-1號","TEL":"049-2581426","COUNTYNAME":"南投縣","TOWNNAME":"名間鄉","MARKTYPE":"996","Class":"6"},"geometry":{"x":120.6286130336883,"y":23.83988177225412}},{"attributes":{"OBJECTID":17261,"LANDMARKID":"1000800001404","LANDMARKCO":"604","LANDMARKNA":"新民民宿","LANDMARKAD":"1000806","ADDRESS":"南投縣名間鄉新民村員集路185-3號","TEL":"049-2736831","COUNTYNAME":"南投縣","TOWNNAME":"名間鄉","MARKTYPE":"996","Class":"6"},"geometry":{"x":120.68424941820821,"y":23.824366264495804}},{"attributes":{"OBJECTID":17262,"LANDMARKID":"1000800000922","LANDMARKCO":"510","LANDMARKNA":"南投(松柏嶺)高爾夫球場","LANDMARKAD":"1000806","ADDRESS":"南投縣名間鄉炭寮村崁頂巷36之1號","TEL":"049-2732126","COUNTYNAME":"南投縣","TOWNNAME":"名間鄉","MARKTYPE":"995","Class":"5"},"geometry":{"x":120.66132612213994,"y":23.815383577369669}},{"attributes":{"OBJECTID":17263,"LANDMARKID":"1000800000656","LANDMARKCO":"405","LANDMARKNA":"台灣優力加油站-集集站(中油)","LANDMARKAD":"1000805","ADDRESS":"南投縣集集鎮名水路二段208號","TEL":"049-2763906","COUNTYNAME":"南投縣","TOWNNAME":"集集鎮","MARKTYPE":"994","Class":"4"},"geometry":{"x":120.78538871550921,"y":23.822250195048916}},{"attributes":{"OBJECTID":17264,"LANDMARKID":"1000800000657","LANDMARKCO":"405","LANDMARKNA":"中油加油站-集集站(中油直營)","LANDMARKAD":"1000805","ADDRESS":"南投縣集集鎮林尾里民生路317號","TEL":"049-2763894","COUNTYNAME":"南投縣","TOWNNAME":"集集鎮","MARKTYPE":"994","Class":"4"},"geometry":{"x":120.77526720301319,"y":23.825932455551911}},{"attributes":{"OBJECTID":17265,"LANDMARKID":"1000800000881","LANDMARKCO":"507","LANDMARKNA":"明新書院","LANDMARKAD":"1000805","ADDRESS":"南投縣集集鎮永昌里東昌巷4號","TEL":" ","COUNTYNAME":"南投縣","TOWNNAME":"集集鎮","MARKTYPE":"995","Class":"5"},"geometry":{"x":120.79717861242646,"y":23.826869664219622}},{"attributes":{"OBJECTID":17266,"LANDMARKID":"1000800000785","LANDMARKCO":"408","LANDMARKNA":"郵局-集集郵局","LANDMARKAD":"1000805","ADDRESS":"南投縣集集鎮民生路110-1號","TEL":"(049)2762-527","COUNTYNAME":"南投縣","TOWNNAME":"集集鎮","MARKTYPE":"994","Class":"4"},"geometry":{"x":120.78567950942525,"y":23.828569271424875}},{"attributes":{"OBJECTID":17267,"LANDMARKID":"1000800000802","LANDMARKCO":"409","LANDMARKNA":"南投縣集集鎮農會","LANDMARKAD":"1000805","ADDRESS":"南投縣集集鎮民生路113號","TEL":"049-2761700","COUNTYNAME":"南投縣","TOWNNAME":"集集鎮","MARKTYPE":"994","Class":"4"},"geometry":{"x":120.75110437814219,"y":23.83421384084409}},{"attributes":{"OBJECTID":17268,"LANDMARKID":"1000800000052","LANDMARKCO":"103","LANDMARKNA":"南投縣集集鎮衛生所","LANDMARKAD":"1000805","ADDRESS":"南投縣集集鎮民生路106號","TEL":"049-2762015","COUNTYNAME":"南投縣","TOWNNAME":"集集鎮","MARKTYPE":"991","Class":"1"},"geometry":{"x":120.78664495489188,"y":23.828817696666732}},{"attributes":{"OBJECTID":17269,"LANDMARKID":"1000800000234","LANDMARKCO":"108","LANDMARKNA":"南投縣集集鎮公所","LANDMARKAD":"1000805","ADDRESS":"南投縣集集鎮民生路61號","TEL":"049-2761084","COUNTYNAME":"南投縣","TOWNNAME":"集集鎮","MARKTYPE":"991","Class":"1"},"geometry":{"x":120.78652554466686,"y":23.828457532003906}},{"attributes":{"OBJECTID":17270,"LANDMARKID":"1000800000051","LANDMARKCO":"103","LANDMARKNA":"南投縣集集鎮鎮民代表會","LANDMARKAD":"1000805","ADDRESS":"南投縣集集鎮民生路59號","TEL":"049-2762078","COUNTYNAME":"南投縣","TOWNNAME":"集集鎮","MARKTYPE":"991","Class":"1"},"geometry":{"x":120.78672536441645,"y":23.828567808823305}},{"attributes":{"OBJECTID":17271,"LANDMARKID":"1000800000216","LANDMARKCO":"107","LANDMARKNA":"南投縣消防局集集消防分隊","LANDMARKAD":"1000805","ADDRESS":"南投縣集集鎮中山街1號","TEL":"049-2762004","COUNTYNAME":"南投縣","TOWNNAME":"集集鎮","MARKTYPE":"991","Class":"1"},"geometry":{"x":120.78698557742207,"y":23.828438168359163}},{"attributes":{"OBJECTID":17272,"LANDMARKID":"1000800000217","LANDMARKCO":"107","LANDMARKNA":"南投縣政府警察局集集分局","LANDMARKAD":"1000805","ADDRESS":"南投縣集集鎮吳厝里民生路63號","TEL":"049-2762702","COUNTYNAME":"南投縣","TOWNNAME":"集集鎮","MARKTYPE":"991","Class":"1"},"geometry":{"x":120.78622575587463,"y":23.828327116372371}},{"attributes":{"OBJECTID":17273,"LANDMARKID":"1000800000218","LANDMARKCO":"107","LANDMARKNA":"南投縣警察局集集派出所","LANDMARKAD":"1000805","ADDRESS":"南投縣集集鎮吳厝里民生路63號","TEL":"049-2760828","COUNTYNAME":"南投縣","TOWNNAME":"集集鎮","MARKTYPE":"991","Class":"1"},"geometry":{"x":120.78622575587463,"y":23.828327116372371}},{"attributes":{"OBJECTID":17274,"LANDMARKID":"1000800000101","LANDMARKCO":"106","LANDMARKNA":"南投縣集集鎮戶政事務所","LANDMARKAD":"1000805","ADDRESS":"南投縣集集鎮育才街168號","TEL":"049-2762414","COUNTYNAME":"南投縣","TOWNNAME":"集集鎮","MARKTYPE":"991","Class":"1"},"geometry":{"x":120.78632634565049,"y":23.827967255538571}},{"attributes":{"OBJECTID":17275,"LANDMARKID":"1000800000040","LANDMARKCO":"101","LANDMARKNA":"水利署中區水資源局","LANDMARKAD":"1000805","ADDRESS":"南投縣集集鎮劉厝巷30號","TEL":"049-2764031","COUNTYNAME":"南投縣","TOWNNAME":"集集鎮","MARKTYPE":"991","Class":"1"},"geometry":{"x":120.76508414644218,"y":23.820838784093475}},{"attributes":{"OBJECTID":17276,"LANDMARKID":"1000800000041","LANDMARKCO":"101","LANDMARKNA":"集集水文觀測站","LANDMARKAD":"1000805","ADDRESS":"南投縣集集鎮集集加油站旁","TEL":" ","COUNTYNAME":"南投縣","TOWNNAME":"集集鎮","MARKTYPE":"991","Class":"1"},"geometry":{"x":120.77492386278469,"y":23.826441676939023}},{"attributes":{"OBJECTID":17277,"LANDMARKID":"1000800000469","LANDMARKCO":"205","LANDMARKNA":"集集鐵路文物館","LANDMARKAD":"1000805","ADDRESS":"南投縣集集鎮民生路75號","TEL":"049-2761084","COUNTYNAME":"南投縣","TOWNNAME":"集集鎮","MARKTYPE":"992","Class":"2"},"geometry":{"x":120.78464732943603,"y":23.826506272631107}},{"attributes":{"OBJECTID":17278,"LANDMARKID":"1000800000456","LANDMARKCO":"204","LANDMARKNA":"南投縣立圖書館集集分館","LANDMARKAD":"1000805","ADDRESS":"南投縣集集鎮民生路2之6號","TEL":" ","COUNTYNAME":"南投縣","TOWNNAME":"集集鎮","MARKTYPE":"992","Class":"2"},"geometry":{"x":120.78668861147126,"y":23.828116094122144}},{"attributes":{"OBJECTID":17279,"LANDMARKID":"1000800000339","LANDMARKCO":"203","LANDMARKNA":"縣立集集國小","LANDMARKAD":"1000805","ADDRESS":"南投縣集集鎮集中巷17號","TEL":"049-2762027","COUNTYNAME":"南投縣","TOWNNAME":"集集鎮","MARKTYPE":"992","Class":"2"},"geometry":{"x":120.78676848596108,"y":23.827358431702848}},{"attributes":{"OBJECTID":17280,"LANDMARKID":"1000800000340","LANDMARKCO":"203","LANDMARKNA":"縣立富山國小","LANDMARKAD":"1000805","ADDRESS":"南投縣集集鎮富山里大坪巷24號","TEL":"049-2762454","COUNTYNAME":"南投縣","TOWNNAME":"集集鎮","MARKTYPE":"992","Class":"2"},"geometry":{"x":120.8197354323927,"y":23.825503679707385}},{"attributes":{"OBJECTID":17281,"LANDMARKID":"1000800000341","LANDMARKCO":"203","LANDMARKNA":"縣立集集國中","LANDMARKAD":"1000805","ADDRESS":"南投縣集集鎮集集里成功路200號","TEL":"049-2762013","COUNTYNAME":"南投縣","TOWNNAME":"集集鎮","MARKTYPE":"992","Class":"2"},"geometry":{"x":120.78450410727183,"y":23.832098598495914}},{"attributes":{"OBJECTID":17282,"LANDMARKID":"1000800000342","LANDMARKCO":"203","LANDMARKNA":"縣立隘寮國小","LANDMARKAD":"1000805","ADDRESS":"南投縣集集鎮田寮里田寮巷4號","TEL":"049-2781154","COUNTYNAME":"南投縣","TOWNNAME":"集集鎮","MARKTYPE":"992","Class":"2"},"geometry":{"x":120.75061231190656,"y":23.832827949398219}},{"attributes":{"OBJECTID":17283,"LANDMARKID":"1000800000343","LANDMARKCO":"203","LANDMARKNA":"縣立永昌國小","LANDMARKAD":"1000805","ADDRESS":"南投縣集集鎮永昌里東昌巷4號","TEL":"049-2762524","COUNTYNAME":"南投縣","TOWNNAME":"集集鎮","MARKTYPE":"992","Class":"2"},"geometry":{"x":120.79987334180203,"y":23.827160420925129}},{"attributes":{"OBJECTID":17284,"LANDMARKID":"1000800000344","LANDMARKCO":"203","LANDMARKNA":"縣立和平國小","LANDMARKAD":"1000805","ADDRESS":"南投縣集集鎮和平里集集街178號","TEL":"049-2762036","COUNTYNAME":"南投縣","TOWNNAME":"集集鎮","MARKTYPE":"992","Class":"2"},"geometry":{"x":120.78079427174841,"y":23.829197297677094}},{"attributes":{"OBJECTID":17285,"LANDMARKID":"1000800000548","LANDMARKCO":"303","LANDMARKNA":"集集鎮公有停車場","LANDMARKAD":"1000805","ADDRESS":"南投縣集集鎮","TEL":" ","COUNTYNAME":"南投縣","TOWNNAME":"集集鎮","MARKTYPE":"993","Class":"303"},"geometry":{"x":120.78629272633914,"y":23.826610112388924}},{"attributes":{"OBJECTID":17286,"LANDMARKID":"1000800000549","LANDMARKCO":"303","LANDMARKNA":"南投集集停車場","LANDMARKAD":"1000805","ADDRESS":"南投縣集集鎮集中巷17號","TEL":" ","COUNTYNAME":"南投縣","TOWNNAME":"集集鎮","MARKTYPE":"993","Class":"303"},"geometry":{"x":120.78812711002548,"y":23.828224538368573}},{"attributes":{"OBJECTID":17287,"LANDMARKID":"1000800000483","LANDMARKCO":"301","LANDMARKNA":"集集火車站","LANDMARKAD":"1000805","ADDRESS":"南投縣集集鎮民生路75號","TEL":"(049)276-2549","COUNTYNAME":"南投縣","TOWNNAME":"集集鎮","MARKTYPE":"993","Class":"301"},"geometry":{"x":120.78489827114332,"y":23.826457782889705}},{"attributes":{"OBJECTID":17288,"LANDMARKID":"1000800000484","LANDMARKCO":"301","LANDMARKNA":"龍泉火車站","LANDMARKAD":"1000805","ADDRESS":"南投縣集集鎮","TEL":" ","COUNTYNAME":"南投縣","TOWNNAME":"集集鎮","MARKTYPE":"993","Class":"301"},"geometry":{"x":120.75067173389813,"y":23.835071406954217}},{"attributes":{"OBJECTID":17289,"LANDMARKID":"1000800000607","LANDMARKCO":"402","LANDMARKNA":"中華電信-集集服務中心","LANDMARKAD":"1000805","ADDRESS":"南投縣集集鎮民生路110之2號","TEL":"(049)276-2548","COUNTYNAME":"南投縣","TOWNNAME":"集集鎮","MARKTYPE":"994","Class":"4"},"geometry":{"x":120.78589486455142,"y":23.828750465180754}},{"attributes":{"OBJECTID":17290,"LANDMARKID":"1000800001332","LANDMARKCO":"604","LANDMARKNA":"集集八張民宿","LANDMARKAD":"1000805","ADDRESS":"南投縣集集鎮八張里民生路13-1號","TEL":"049-2764082","COUNTYNAME":"南投縣","TOWNNAME":"集集鎮","MARKTYPE":"996","Class":"6"},"geometry":{"x":120.79289589841099,"y":23.828026697014451}},{"attributes":{"OBJECTID":17291,"LANDMARKID":"1000800001333","LANDMARKCO":"604","LANDMARKNA":"春風民宿","LANDMARKAD":"1000805","ADDRESS":"南投縣集集鎮田寮里龍泉巷1號","TEL":"049-2781392","COUNTYNAME":"南投縣","TOWNNAME":"集集鎮","MARKTYPE":"996","Class":"6"},"geometry":{"x":120.7510860612244,"y":23.834529572272221}},{"attributes":{"OBJECTID":17292,"LANDMARKID":"1000800001334","LANDMARKCO":"604","LANDMARKNA":"林尾虹橋","LANDMARKAD":"1000805","ADDRESS":"南投縣集集鎮林尾里林尾路542號","TEL":"049-2762346","COUNTYNAME":"南投縣","TOWNNAME":"集集鎮","MARKTYPE":"996","Class":"6"},"geometry":{"x":120.77062109604329,"y":23.823245624964876}},{"attributes":{"OBJECTID":17293,"LANDMARKID":"1000800001335","LANDMARKCO":"604","LANDMARKNA":"棕梠泉民宿","LANDMARKAD":"1000805","ADDRESS":"南投縣集集鎮林尾里公館巷60號","TEL":"049-2762199","COUNTYNAME":"南投縣","TOWNNAME":"集集鎮","MARKTYPE":"996","Class":"6"},"geometry":{"x":120.77310116054325,"y":23.825569477052721}},{"attributes":{"OBJECTID":17294,"LANDMARKID":"1000800001336","LANDMARKCO":"604","LANDMARKNA":"我的咖啡屋民宿","LANDMARKAD":"1000805","ADDRESS":"南投縣集集鎮初中一街310號","TEL":"049-2760934","COUNTYNAME":"南投縣","TOWNNAME":"集集鎮","MARKTYPE":"996","Class":"6"},"geometry":{"x":120.78195535881602,"y":23.829745654937419}},{"attributes":{"OBJECTID":17295,"LANDMARKID":"1000800001337","LANDMARKCO":"604","LANDMARKNA":"集集農場民宿","LANDMARKAD":"1000805","ADDRESS":"南投縣集集鎮集集里環山街270巷42號","TEL":"049-2762466","COUNTYNAME":"南投縣","TOWNNAME":"集集鎮","MARKTYPE":"996","Class":"6"},"geometry":{"x":120.78729974435376,"y":23.838565798277525}},{"attributes":{"OBJECTID":17296,"LANDMARKID":"1000800001338","LANDMARKCO":"604","LANDMARKNA":"虫二雅舍民宿","LANDMARKAD":"1000805","ADDRESS":"南投縣集集鎮集集里成功九街56號","TEL":"049-2764980","COUNTYNAME":"南投縣","TOWNNAME":"集集鎮","MARKTYPE":"996","Class":"6"},"geometry":{"x":120.78307569590082,"y":23.830742082773572}},{"attributes":{"OBJECTID":17297,"LANDMARKID":"1000800001339","LANDMARKCO":"604","LANDMARKNA":"轉彎民宿","LANDMARKAD":"1000805","ADDRESS":"南投縣集集鎮集集里環山街327號","TEL":"0937-709432","COUNTYNAME":"南投縣","TOWNNAME":"集集鎮","MARKTYPE":"996","Class":"6"},"geometry":{"x":120.78506318087751,"y":23.833696443266895}},{"attributes":{"OBJECTID":17298,"LANDMARKID":"1000800001340","LANDMARKCO":"604","LANDMARKNA":"喜莉臨民宿","LANDMARKAD":"1000805","ADDRESS":"南投縣集集鎮和平里中集二街11號","TEL":"0933-554125","COUNTYNAME":"南投縣","TOWNNAME":"集集鎮","MARKTYPE":"996","Class":"6"},"geometry":{"x":120.77810175774655,"y":23.828537678431157}},{"attributes":{"OBJECTID":17299,"LANDMARKID":"1000800001341","LANDMARKCO":"604","LANDMARKNA":"新傳家堡民宿","LANDMARKAD":"1000805","ADDRESS":"南投縣集集鎮和平里中集二街9號","TEL":"0919-007185","COUNTYNAME":"南投縣","TOWNNAME":"集集鎮","MARKTYPE":"996","Class":"6"},"geometry":{"x":120.77820028411755,"y":23.82842960517446}},{"attributes":{"OBJECTID":17300,"LANDMARKID":"1000800000861","LANDMARKCO":"505","LANDMARKNA":"添興窯陶藝村","LANDMARKAD":"1000805","ADDRESS":"南投縣集集鎮田寮里楓林巷10號","TEL":"(049)278-1130","COUNTYNAME":"南投縣","TOWNNAME":"集集鎮","MARKTYPE":"995","Class":"5"},"geometry":{"x":120.75521587480071,"y":23.83284439087879}},{"attributes":{"OBJECTID":17301,"LANDMARKID":"1000800000819","LANDMARKCO":"503","LANDMARKNA":"集集綠色隧道","LANDMARKAD":"1000805","ADDRESS":"南投縣集集鎮","TEL":" ","COUNTYNAME":"南投縣","TOWNNAME":"集集鎮","MARKTYPE":"995","Class":"5"},"geometry":{"x":120.74548999256412,"y":23.83606596806246}},{"attributes":{"OBJECTID":17302,"LANDMARKID":"1000800000860","LANDMARKCO":"505","LANDMARKNA":"台灣特有生物研究保育中心","LANDMARKAD":"1000805","ADDRESS":"南投縣集集鎮民生東路1號","TEL":"(049)276-1331","COUNTYNAME":"南投縣","TOWNNAME":"集集鎮","MARKTYPE":"995","Class":"5"},"geometry":{"x":120.80144868564557,"y":23.829281781847534}},{"attributes":{"OBJECTID":17303,"LANDMARKID":"1000800000658","LANDMARKCO":"405","LANDMARKNA":"中油加油站-水里站(中油直營)","LANDMARKAD":"1000811","ADDRESS":"南投縣水里鄉南光村民生路7-1號","TEL":"049-2770244","COUNTYNAME":"南投縣","TOWNNAME":"水里鄉","MARKTYPE":"994","Class":"4"},"geometry":{"x":120.85776671605721,"y":23.808594108619413}},{"attributes":{"OBJECTID":17304,"LANDMARKID":"1000800000659","LANDMARKCO":"405","LANDMARKNA":"中油加油站-南光站","LANDMARKAD":"1000811","ADDRESS":"南投縣水里鄉中山路一段128號","TEL":"049-2777558","COUNTYNAME":"南投縣","TOWNNAME":"水里鄉","MARKTYPE":"994","Class":"4"},"geometry":{"x":120.85465260485884,"y":23.807004062453675}},{"attributes":{"OBJECTID":17305,"LANDMARKID":"1000800000660","LANDMARKCO":"405","LANDMARKNA":"中油加油站-明潭站","LANDMARKAD":"1000811","ADDRESS":"南投縣水里鄉中山路246號","TEL":"049-2777985","COUNTYNAME":"南投縣","TOWNNAME":"水里鄉","MARKTYPE":"994","Class":"4"},"geometry":{"x":120.85042092049547,"y":23.811180462330835}},{"attributes":{"OBJECTID":17306,"LANDMARKID":"1000800000606","LANDMARKCO":"402","LANDMARKNA":"亞太行動寬頻電信-水里民生加盟服務中心","LANDMARKAD":"1000811","ADDRESS":"南投縣水里鄉中央村民生路367號","TEL":"049-2770985","COUNTYNAME":"南投縣","TOWNNAME":"水里鄉","MARKTYPE":"994","Class":"4"},"geometry":{"x":120.85426311789499,"y":23.816470448061107}},{"attributes":{"OBJECTID":17307,"LANDMARKID":"1000800000874","LANDMARKCO":"506","LANDMARKNA":"上安觀光水果園","LANDMARKAD":"1000811","ADDRESS":"南投縣水里鄉頂崁村","TEL":" ","COUNTYNAME":"南投縣","TOWNNAME":"水里鄉","MARKTYPE":"995","Class":"5"},"geometry":{"x":120.86027057743361,"y":23.805646481232888}},{"attributes":{"OBJECTID":17308,"LANDMARKID":"1000800000816","LANDMARKCO":"502","LANDMARKNA":"玉山國家公園","LANDMARKAD":"1000811","ADDRESS":"南投縣水里鄉中山路一段300號","TEL":"049-2773121","COUNTYNAME":"南投縣","TOWNNAME":"水里鄉","MARKTYPE":"995","Class":"5"},"geometry":{"x":120.85028713243877,"y":23.813016685968428}},{"attributes":{"OBJECTID":17309,"LANDMARKID":"1000800000927","LANDMARKCO":"512","LANDMARKNA":"玉山國家公園管理處","LANDMARKAD":"1000811","ADDRESS":"南投縣水里鄉中山路一段300號","TEL":"049-2773121","COUNTYNAME":"南投縣","TOWNNAME":"水里鄉","MARKTYPE":"995","Class":"5"},"geometry":{"x":120.85027284008191,"y":23.813099904965828}},{"attributes":{"OBJECTID":17310,"LANDMARKID":"1000800000781","LANDMARKCO":"408","LANDMARKNA":"郵局-水里郵局","LANDMARKAD":"1000811","ADDRESS":"南投縣水里鄉民生路156-1號","TEL":"(049)2770-132","COUNTYNAME":"南投縣","TOWNNAME":"水里鄉","MARKTYPE":"994","Class":"4"},"geometry":{"x":120.85407539084541,"y":23.817211305230085}},{"attributes":{"OBJECTID":17311,"LANDMARKID":"1000800000782","LANDMARKCO":"408","LANDMARKNA":"郵局-水里北埔郵局","LANDMARKAD":"1000811","ADDRESS":"南投縣水里鄉民生路23-1號","TEL":"(049)2770-951","COUNTYNAME":"南投縣","TOWNNAME":"水里鄉","MARKTYPE":"994","Class":"4"},"geometry":{"x":120.85560981144164,"y":23.811281122439251}},{"attributes":{"OBJECTID":17312,"LANDMARKID":"1000800000804","LANDMARKCO":"409","LANDMARKNA":"南投縣水里鄉農會","LANDMARKAD":"1000811","ADDRESS":"南投縣水里鄉農富村民生路158號","TEL":"049-2772101-6","COUNTYNAME":"南投縣","TOWNNAME":"水里鄉","MARKTYPE":"994","Class":"4"},"geometry":{"x":120.85456071704577,"y":23.81634037878619}},{"attributes":{"OBJECTID":17313,"LANDMARKID":"1000800000642","LANDMARKCO":"404","LANDMARKNA":"台灣省自來水水里營運所","LANDMARKAD":"1000811","ADDRESS":"南投縣水里鄉民生路4巷3號","TEL":" ","COUNTYNAME":"南投縣","TOWNNAME":"水里鄉","MARKTYPE":"994","Class":"4"},"geometry":{"x":120.85553026844879,"y":23.815541202331733}},{"attributes":{"OBJECTID":17314,"LANDMARKID":"1000800000748","LANDMARKCO":"406","LANDMARKNA":"兒童公園","LANDMARKAD":"1000811","ADDRESS":"南投縣水里鄉","TEL":" ","COUNTYNAME":"南投縣","TOWNNAME":"水里鄉","MARKTYPE":"994","Class":"4"},"geometry":{"x":120.85242474739535,"y":23.811383862173894}},{"attributes":{"OBJECTID":17315,"LANDMARKID":"1000800000233","LANDMARKCO":"108","LANDMARKNA":"南投縣水里鄉公所","LANDMARKAD":"1000811","ADDRESS":"南投縣水里鄉民生路34號","TEL":"049-2772141","COUNTYNAME":"南投縣","TOWNNAME":"水里鄉","MARKTYPE":"991","Class":"1"},"geometry":{"x":120.85610646143792,"y":23.811287473053788}},{"attributes":{"OBJECTID":17316,"LANDMARKID":"1000800000053","LANDMARKCO":"103","LANDMARKNA":"南投縣水里鄉鄉民代表會","LANDMARKAD":"1000811","ADDRESS":"南投縣水里鄉中山路一段236號","TEL":"049-2770016","COUNTYNAME":"南投縣","TOWNNAME":"水里鄉","MARKTYPE":"991","Class":"1"},"geometry":{"x":120.85065474174125,"y":23.810007593176795}},{"attributes":{"OBJECTID":17317,"LANDMARKID":"1000800000054","LANDMARKCO":"103","LANDMARKNA":"南投縣水里鄉衛生所","LANDMARKAD":"1000811","ADDRESS":"南投縣水里鄉博愛街125號","TEL":"049-2770079","COUNTYNAME":"南投縣","TOWNNAME":"水里鄉","MARKTYPE":"991","Class":"1"},"geometry":{"x":120.8490041991578,"y":23.810458712430588}},{"attributes":{"OBJECTID":17318,"LANDMARKID":"1000800000219","LANDMARKCO":"107","LANDMARKNA":"南投縣消防局水里消防分隊","LANDMARKAD":"1000811","ADDRESS":"南投縣水里鄉中山路一段238號","TEL":"049-2770440","COUNTYNAME":"南投縣","TOWNNAME":"水里鄉","MARKTYPE":"991","Class":"1"},"geometry":{"x":120.8505041789178,"y":23.810497446548958}},{"attributes":{"OBJECTID":17319,"LANDMARKID":"1000800000220","LANDMARKCO":"107","LANDMARKNA":"南投縣政府警察局郡坑派出所","LANDMARKAD":"1000811","ADDRESS":"南投縣水里鄉群坑村郡坑巷26號","TEL":"049-2821481","COUNTYNAME":"南投縣","TOWNNAME":"水里鄉","MARKTYPE":"991","Class":"1"},"geometry":{"x":120.8592139581872,"y":23.744177761738758}},{"attributes":{"OBJECTID":17320,"LANDMARKID":"1000800000221","LANDMARKCO":"107","LANDMARKNA":"南投縣政府警察局玉峰派出所","LANDMARKAD":"1000811","ADDRESS":"南投縣水里鄉玉峰村仁愛路1號","TEL":"049-2772643","COUNTYNAME":"南投縣","TOWNNAME":"水里鄉","MARKTYPE":"991","Class":"1"},"geometry":{"x":120.83749389369902,"y":23.804998419959318}},{"attributes":{"OBJECTID":17321,"LANDMARKID":"1000800000222","LANDMARKCO":"107","LANDMARKNA":"南投縣政府警察局車埕派出所","LANDMARKAD":"1000811","ADDRESS":"南投縣水里鄉車埕村民權巷108號","TEL":"049-2771154","COUNTYNAME":"南投縣","TOWNNAME":"水里鄉","MARKTYPE":"991","Class":"1"},"geometry":{"x":120.86645600561199,"y":23.833969203441523}},{"attributes":{"OBJECTID":17322,"LANDMARKID":"1000800000223","LANDMARKCO":"107","LANDMARKNA":"南投縣政府警察局水里分駐所","LANDMARKAD":"1000811","ADDRESS":"南投縣水里鄉水里村民權路86號","TEL":"049-2770117","COUNTYNAME":"南投縣","TOWNNAME":"水里鄉","MARKTYPE":"991","Class":"1"},"geometry":{"x":120.85388461785374,"y":23.818488011145131}},{"attributes":{"OBJECTID":17323,"LANDMARKID":"1000800000224","LANDMARKCO":"107","LANDMARKNA":"國家公園警察大隊玉山國家公園","LANDMARKAD":"1000811","ADDRESS":"南投縣水里鄉中山路一段300號","TEL":"049-2775110","COUNTYNAME":"南投縣","TOWNNAME":"水里鄉","MARKTYPE":"991","Class":"1"},"geometry":{"x":120.84991495743839,"y":23.81258960139348}},{"attributes":{"OBJECTID":17324,"LANDMARKID":"1000800000100","LANDMARKCO":"106","LANDMARKNA":"南投縣水里鄉戶政事務所","LANDMARKAD":"1000811","ADDRESS":"南投縣水里鄉博愛街123號","TEL":"049-2770874","COUNTYNAME":"南投縣","TOWNNAME":"水里鄉","MARKTYPE":"991","Class":"1"},"geometry":{"x":120.84918405122036,"y":23.810588888306611}},{"attributes":{"OBJECTID":17325,"LANDMARKID":"1000800000099","LANDMARKCO":"105","LANDMARKNA":"南投縣水里地政事務所","LANDMARKAD":"1000811","ADDRESS":"南投縣水里鄉民族街3巷15號","TEL":"049-2772135","COUNTYNAME":"南投縣","TOWNNAME":"水里鄉","MARKTYPE":"991","Class":"1"},"geometry":{"x":120.85431361602478,"y":23.811058416698923}},{"attributes":{"OBJECTID":17326,"LANDMARKID":"1000800000042","LANDMARKCO":"101","LANDMARKNA":"林務局南投林區管理處丹大工作站","LANDMARKAD":"1000811","ADDRESS":"南投縣水里鄉民和村忠信巷1之8號","TEL":"049-2741396","COUNTYNAME":"南投縣","TOWNNAME":"水里鄉","MARKTYPE":"991","Class":"1"},"geometry":{"x":120.933636221276,"y":23.789747087659073}},{"attributes":{"OBJECTID":17327,"LANDMARKID":"1000800000043","LANDMARKCO":"101","LANDMARKNA":"職業訓練局水里就業服務台","LANDMARKAD":"1000811","ADDRESS":"南投縣水里鄉民生路34號","TEL":"049-2771693","COUNTYNAME":"南投縣","TOWNNAME":"水里鄉","MARKTYPE":"991","Class":"1"},"geometry":{"x":120.85610646143792,"y":23.811287473053788}},{"attributes":{"OBJECTID":17328,"LANDMARKID":"1000800000044","LANDMARKCO":"101","LANDMARKNA":"林務局南投林區管理處水里工作站","LANDMARKAD":"1000811","ADDRESS":"南投縣水里鄉民生路50號","TEL":"049-2772677","COUNTYNAME":"南投縣","TOWNNAME":"水里鄉","MARKTYPE":"991","Class":"1"},"geometry":{"x":120.85612541565108,"y":23.812237489499697}},{"attributes":{"OBJECTID":17329,"LANDMARKID":"1000800000225","LANDMARKCO":"107","LANDMARKNA":"集集分局水里分駐所","LANDMARKAD":"1000811","ADDRESS":"南投縣水里鄉博愛街86號","TEL":"049-2770117","COUNTYNAME":"南投縣","TOWNNAME":"水里鄉","MARKTYPE":"991","Class":"1"},"geometry":{"x":120.84921663589905,"y":23.811128919010159}},{"attributes":{"OBJECTID":17330,"LANDMARKID":"1000800000470","LANDMARKCO":"205","LANDMARKNA":"梅子博物館","LANDMARKAD":"1000811","ADDRESS":"南投縣水里鄉頂崁村頂崁巷34之6號","TEL":"049-2774198","COUNTYNAME":"南投縣","TOWNNAME":"水里鄉","MARKTYPE":"992","Class":"2"},"geometry":{"x":120.86425255806057,"y":23.799570711176305}},{"attributes":{"OBJECTID":17331,"LANDMARKID":"1000800000471","LANDMARKCO":"205","LANDMARKNA":"車埕木業展示館","LANDMARKAD":"1000811","ADDRESS":"南投縣水里鄉車埕村民權巷101號","TEL":"049-2772873","COUNTYNAME":"南投縣","TOWNNAME":"水里鄉","MARKTYPE":"992","Class":"2"},"geometry":{"x":120.86544968686081,"y":23.834969238805101}},{"attributes":{"OBJECTID":17332,"LANDMARKID":"1000800000472","LANDMARKCO":"205","LANDMARKNA":"玉山國家公園管理處文物陳列館","LANDMARKAD":"1000811","ADDRESS":"南投縣水里鄉中山路一段300號","TEL":" ","COUNTYNAME":"南投縣","TOWNNAME":"水里鄉","MARKTYPE":"992","Class":"2"},"geometry":{"x":120.85032370236728,"y":23.812905838508232}},{"attributes":{"OBJECTID":17333,"LANDMARKID":"1000800000455","LANDMARKCO":"204","LANDMARKNA":"南投縣立圖書館水里分館","LANDMARKAD":"1000811","ADDRESS":"南投縣水里鄉中山路一段236號","TEL":" ","COUNTYNAME":"南投縣","TOWNNAME":"水里鄉","MARKTYPE":"992","Class":"2"},"geometry":{"x":120.85049950157362,"y":23.810075492129968}},{"attributes":{"OBJECTID":17334,"LANDMARKID":"1000800000345","LANDMARKCO":"203","LANDMARKNA":"縣立新山國小(廢)","LANDMARKAD":"1000811","ADDRESS":"南投縣水里鄉新山村香蕉巷3號","TEL":"049-2770508","COUNTYNAME":"南投縣","TOWNNAME":"水里鄉","MARKTYPE":"992","Class":"2"},"geometry":{"x":120.86666089389422,"y":23.769026936061209}},{"attributes":{"OBJECTID":17335,"LANDMARKID":"1000800000253","LANDMARKCO":"202","LANDMARKNA":"國立水里商工","LANDMARKAD":"1000811","ADDRESS":"南投縣水里鄉南湖路1號","TEL":"049-2870666","COUNTYNAME":"南投縣","TOWNNAME":"水里鄉","MARKTYPE":"992","Class":"2"},"geometry":{"x":120.85254409225206,"y":23.80504941009222}},{"attributes":{"OBJECTID":17336,"LANDMARKID":"1000800000328","LANDMARKCO":"203","LANDMARKNA":"縣立水里國中","LANDMARKAD":"1000811","ADDRESS":"南投縣水里鄉民生路2號","TEL":"049-2770134","COUNTYNAME":"南投縣","TOWNNAME":"水里鄉","MARKTYPE":"992","Class":"2"},"geometry":{"x":120.85652376086698,"y":23.81096786078513}},{"attributes":{"OBJECTID":17337,"LANDMARKID":"1000800000329","LANDMARKCO":"203","LANDMARKNA":"縣立民和國中","LANDMARKAD":"1000811","ADDRESS":"南投縣水里鄉民和村忠信巷116號","TEL":"049-2741138","COUNTYNAME":"南投縣","TOWNNAME":"水里鄉","MARKTYPE":"992","Class":"2"},"geometry":{"x":120.91669570365902,"y":23.798716973342096}},{"attributes":{"OBJECTID":17338,"LANDMARKID":"1000800000330","LANDMARKCO":"203","LANDMARKNA":"縣立興隆國小","LANDMARKAD":"1000811","ADDRESS":"南投縣水里鄉興隆村林朋巷105號","TEL":"049-2772590","COUNTYNAME":"南投縣","TOWNNAME":"水里鄉","MARKTYPE":"992","Class":"2"},"geometry":{"x":120.85565437525871,"y":23.765957050046339}},{"attributes":{"OBJECTID":17339,"LANDMARKID":"1000800000331","LANDMARKCO":"203","LANDMARKNA":"縣立新興國小","LANDMARKAD":"1000811","ADDRESS":"南投縣水里鄉新興村新興巷15號","TEL":"049-2811187","COUNTYNAME":"南投縣","TOWNNAME":"水里鄉","MARKTYPE":"992","Class":"2"},"geometry":{"x":120.87065590603538,"y":23.884087981039023}},{"attributes":{"OBJECTID":17340,"LANDMARKID":"1000800000332","LANDMARKCO":"203","LANDMARKNA":"縣立永興國小","LANDMARKAD":"1000811","ADDRESS":"南投縣水里鄉永興村林朋巷148號","TEL":"049-2772545","COUNTYNAME":"南投縣","TOWNNAME":"水里鄉","MARKTYPE":"992","Class":"2"},"geometry":{"x":120.86362524199654,"y":23.784689198583091}},{"attributes":{"OBJECTID":17341,"LANDMARKID":"1000800000333","LANDMARKCO":"203","LANDMARKNA":"縣立玉峰國小","LANDMARKAD":"1000811","ADDRESS":"南投縣水里鄉玉峰村仁愛路3號","TEL":"049-2772274","COUNTYNAME":"南投縣","TOWNNAME":"水里鄉","MARKTYPE":"992","Class":"2"},"geometry":{"x":120.83757646647682,"y":23.805708507843764}},{"attributes":{"OBJECTID":17342,"LANDMARKID":"1000800000334","LANDMARKCO":"203","LANDMARKNA":"縣立水里國小","LANDMARKAD":"1000811","ADDRESS":"南投縣水里鄉南光村民族街61號","TEL":"049-2770014","COUNTYNAME":"南投縣","TOWNNAME":"水里鄉","MARKTYPE":"992","Class":"2"},"geometry":{"x":120.8547847605826,"y":23.810038860512655}},{"attributes":{"OBJECTID":17343,"LANDMARKID":"1000800000335","LANDMARKCO":"203","LANDMARKNA":"縣立車埕國小","LANDMARKAD":"1000811","ADDRESS":"南投縣水里鄉車埕村民權巷127號","TEL":"049-2771447","COUNTYNAME":"南投縣","TOWNNAME":"水里鄉","MARKTYPE":"992","Class":"2"},"geometry":{"x":120.86572565546589,"y":23.831528569452075}},{"attributes":{"OBJECTID":17344,"LANDMARKID":"1000800000336","LANDMARKCO":"203","LANDMARKNA":"縣立成城國小","LANDMARKAD":"1000811","ADDRESS":"南投縣水里鄉新城村民權路1巷31號","TEL":"049-2773242","COUNTYNAME":"南投縣","TOWNNAME":"水里鄉","MARKTYPE":"992","Class":"2"},"geometry":{"x":120.84842640841876,"y":23.819658146303521}},{"attributes":{"OBJECTID":17345,"LANDMARKID":"1000800000337","LANDMARKCO":"203","LANDMARKNA":"縣立郡坑國小","LANDMARKAD":"1000811","ADDRESS":"南投縣水里鄉上安村安村巷125號","TEL":"049-2821421","COUNTYNAME":"南投縣","TOWNNAME":"水里鄉","MARKTYPE":"992","Class":"2"},"geometry":{"x":120.8557255493365,"y":23.737117115964153}},{"attributes":{"OBJECTID":17346,"LANDMARKID":"1000800000338","LANDMARKCO":"203","LANDMARKNA":"縣立民和國小","LANDMARKAD":"1000811","ADDRESS":"南投縣水里鄉民和村忠信巷14號","TEL":"049-2741140","COUNTYNAME":"南投縣","TOWNNAME":"水里鄉","MARKTYPE":"992","Class":"2"},"geometry":{"x":120.9325962985865,"y":23.795137862568751}},{"attributes":{"OBJECTID":17347,"LANDMARKID":"1000800000553","LANDMARKCO":"303","LANDMARKNA":"水里鄉公共停車場","LANDMARKAD":"1000811","ADDRESS":"南投縣水里鄉中正路和民生路交叉路口","TEL":" ","COUNTYNAME":"南投縣","TOWNNAME":"水里鄉","MARKTYPE":"993","Class":"303"},"geometry":{"x":120.85444277419454,"y":23.815696831071048}},{"attributes":{"OBJECTID":17348,"LANDMARKID":"1000800000554","LANDMARKCO":"303","LANDMARKNA":"車埕停車場","LANDMARKAD":"1000811","ADDRESS":"南投縣水里鄉","TEL":" ","COUNTYNAME":"南投縣","TOWNNAME":"水里鄉","MARKTYPE":"993","Class":"303"},"geometry":{"x":120.86742432815447,"y":23.834158992413265}},{"attributes":{"OBJECTID":17349,"LANDMARKID":"1000800000555","LANDMARKCO":"303","LANDMARKNA":"水里鄉公共造產停車場","LANDMARKAD":"1000811","ADDRESS":"南投縣水里鄉","TEL":" ","COUNTYNAME":"南投縣","TOWNNAME":"水里鄉","MARKTYPE":"993","Class":"303"},"geometry":{"x":120.83370410493818,"y":23.827029839360112}},{"attributes":{"OBJECTID":17350,"LANDMARKID":"1000800000556","LANDMARKCO":"303","LANDMARKNA":"玉山國家公園管理處停車場","LANDMARKAD":"1000811","ADDRESS":"南投縣水里鄉中山路一段300號","TEL":" ","COUNTYNAME":"南投縣","TOWNNAME":"水里鄉","MARKTYPE":"993","Class":"303"},"geometry":{"x":120.85100156455248,"y":23.815085160314847}},{"attributes":{"OBJECTID":17351,"LANDMARKID":"1000800000481","LANDMARKCO":"301","LANDMARKNA":"水里火車站","LANDMARKAD":"1000811","ADDRESS":"南投縣水里鄉民權路92號","TEL":" ","COUNTYNAME":"南投縣","TOWNNAME":"水里鄉","MARKTYPE":"993","Class":"301"},"geometry":{"x":120.85347190526252,"y":23.818548484732208}},{"attributes":{"OBJECTID":17352,"LANDMARKID":"1000800000482","LANDMARKCO":"301","LANDMARKNA":"車埕火車站","LANDMARKAD":"1000811","ADDRESS":"南投縣水里鄉","TEL":" ","COUNTYNAME":"南投縣","TOWNNAME":"水里鄉","MARKTYPE":"993","Class":"301"},"geometry":{"x":120.86566491481273,"y":23.832366220799042}},{"attributes":{"OBJECTID":17353,"LANDMARKID":"1000800000605","LANDMARKCO":"402","LANDMARKNA":"中華電信-水里服務中心","LANDMARKAD":"1000811","ADDRESS":"南投縣水里鄉民族街4巷20號","TEL":"(049)277-2012","COUNTYNAME":"南投縣","TOWNNAME":"水里鄉","MARKTYPE":"994","Class":"4"},"geometry":{"x":120.85415348458878,"y":23.812195044189924}},{"attributes":{"OBJECTID":17354,"LANDMARKID":"1000800001324","LANDMARKCO":"604","LANDMARKNA":"九芎坪","LANDMARKAD":"1000811","ADDRESS":"南投縣水里鄉上安村安村巷91-1號","TEL":"049-2821198","COUNTYNAME":"南投縣","TOWNNAME":"水里鄉","MARKTYPE":"996","Class":"6"},"geometry":{"x":120.8578957638147,"y":23.732618239352956}},{"attributes":{"OBJECTID":17355,"LANDMARKID":"1000800001325","LANDMARKCO":"604","LANDMARKNA":"采荷莊","LANDMARKAD":"1000811","ADDRESS":"南投縣水里鄉頂崁村頂崁巷45-5號","TEL":"049-2776419","COUNTYNAME":"南投縣","TOWNNAME":"水里鄉","MARKTYPE":"996","Class":"6"},"geometry":{"x":120.86480988882217,"y":23.802885881809829}},{"attributes":{"OBJECTID":17356,"LANDMARKID":"1000800000980","LANDMARKCO":"603","LANDMARKNA":"東方大旅社","LANDMARKAD":"1000811","ADDRESS":"南投縣水里鄉水里村民權路64號","TEL":"049-2772126","COUNTYNAME":"南投縣","TOWNNAME":"水里鄉","MARKTYPE":"996","Class":"6"},"geometry":{"x":120.85452862155846,"y":23.818399209886493}},{"attributes":{"OBJECTID":17357,"LANDMARKID":"1000800000981","LANDMARKCO":"603","LANDMARKNA":"東海旅社","LANDMARKAD":"1000811","ADDRESS":"南投縣水里鄉農富村民權路63號","TEL":"049-2770212","COUNTYNAME":"南投縣","TOWNNAME":"水里鄉","MARKTYPE":"996","Class":"6"},"geometry":{"x":120.85317597620994,"y":23.81757493564287}},{"attributes":{"OBJECTID":17358,"LANDMARKID":"1000800000982","LANDMARKCO":"603","LANDMARKNA":"環泰大旅社","LANDMARKAD":"1000811","ADDRESS":"南投縣水里鄉農富村民權路83號","TEL":"049-2772137","COUNTYNAME":"南投縣","TOWNNAME":"水里鄉","MARKTYPE":"996","Class":"6"},"geometry":{"x":120.85248975630586,"y":23.817206081906317}},{"attributes":{"OBJECTID":17359,"LANDMARKID":"1000800000983","LANDMARKCO":"603","LANDMARKNA":"經濟旅社","LANDMARKAD":"1000811","ADDRESS":"南投縣水里鄉城中村市場巷49號","TEL":"049-2770031","COUNTYNAME":"南投縣","TOWNNAME":"水里鄉","MARKTYPE":"996","Class":"6"},"geometry":{"x":120.85242003445941,"y":23.816266853786303}},{"attributes":{"OBJECTID":17360,"LANDMARKID":"1000800000984","LANDMARKCO":"603","LANDMARKNA":"成功旅社","LANDMARKAD":"1000811","ADDRESS":"南投縣水里鄉城中村市場巷50號","TEL":"049-2770021","COUNTYNAME":"南投縣","TOWNNAME":"水里鄉","MARKTYPE":"996","Class":"6"},"geometry":{"x":120.85140961798005,"y":23.816030138794201}},{"attributes":{"OBJECTID":17361,"LANDMARKID":"1000800000985","LANDMARKCO":"603","LANDMARKNA":"寶島旅社","LANDMARKAD":"1000811","ADDRESS":"南投縣水里鄉城中村市場巷52號","TEL":"049-2770159","COUNTYNAME":"南投縣","TOWNNAME":"水里鄉","MARKTYPE":"996","Class":"6"},"geometry":{"x":120.85138988481249,"y":23.816075249686623}},{"attributes":{"OBJECTID":17362,"LANDMARKID":"1000800000986","LANDMARKCO":"603","LANDMARKNA":"亞洲旅社","LANDMARKAD":"1000811","ADDRESS":"南投縣水里鄉新城村民權路264號","TEL":"049-2772151","COUNTYNAME":"南投縣","TOWNNAME":"水里鄉","MARKTYPE":"996","Class":"6"},"geometry":{"x":120.85173439132731,"y":23.817033067701008}},{"attributes":{"OBJECTID":17363,"LANDMARKID":"1000800000987","LANDMARKCO":"603","LANDMARKNA":"水里旅社","LANDMARKAD":"1000811","ADDRESS":"南投縣水里鄉新城村民權路388號","TEL":"049-2770842","COUNTYNAME":"南投縣","TOWNNAME":"水里鄉","MARKTYPE":"996","Class":"6"},"geometry":{"x":120.84866073365087,"y":23.81770705583796}},{"attributes":{"OBJECTID":17364,"LANDMARKID":"1000800000988","LANDMARKCO":"603","LANDMARKNA":"建成旅社","LANDMARKAD":"1000811","ADDRESS":"南投縣水里鄉新城村民權路390號","TEL":"049-2770651","COUNTYNAME":"南投縣","TOWNNAME":"水里鄉","MARKTYPE":"996","Class":"6"},"geometry":{"x":120.8486116373834,"y":23.817715989563961}},{"attributes":{"OBJECTID":17365,"LANDMARKID":"1000800000989","LANDMARKCO":"603","LANDMARKNA":"鴻賓大旅社","LANDMARKAD":"1000811","ADDRESS":"南投縣水里鄉農富村民生路140號","TEL":"049-2772110","COUNTYNAME":"南投縣","TOWNNAME":"水里鄉","MARKTYPE":"996","Class":"6"},"geometry":{"x":120.85445386547879,"y":23.816710499618498}},{"attributes":{"OBJECTID":17366,"LANDMARKID":"1000800000990","LANDMARKCO":"603","LANDMARKNA":"龍江大飯店","LANDMARKAD":"1000811","ADDRESS":"南投縣水里鄉農富村民生路174號","TEL":"049-2772161","COUNTYNAME":"南投縣","TOWNNAME":"水里鄉","MARKTYPE":"996","Class":"6"},"geometry":{"x":120.85390198683764,"y":23.817711761586999}},{"attributes":{"OBJECTID":17367,"LANDMARKID":"1000800001313","LANDMARKCO":"604","LANDMARKNA":"老五民宿","LANDMARKAD":"1000811","ADDRESS":"南投縣水里鄉上安村安村巷101-7號","TEL":"049-2821005","COUNTYNAME":"南投縣","TOWNNAME":"水里鄉","MARKTYPE":"996","Class":"6"},"geometry":{"x":120.8528977289583,"y":23.7324231843549}},{"attributes":{"OBJECTID":17368,"LANDMARKID":"1000800001314","LANDMARKCO":"604","LANDMARKNA":"右昇民宿","LANDMARKAD":"1000811","ADDRESS":"南投縣水里鄉車埕村民權巷9號","TEL":"049-2772880","COUNTYNAME":"南投縣","TOWNNAME":"水里鄉","MARKTYPE":"996","Class":"6"},"geometry":{"x":120.86513318315362,"y":23.832837846684548}},{"attributes":{"OBJECTID":17369,"LANDMARKID":"1000800001315","LANDMARKCO":"604","LANDMARKNA":"車埕民宿","LANDMARKAD":"1000811","ADDRESS":"南投縣水里鄉車埕村民權巷57號","TEL":"049-2776559","COUNTYNAME":"南投縣","TOWNNAME":"水里鄉","MARKTYPE":"996","Class":"6"},"geometry":{"x":120.86497753857488,"y":23.833541893330779}},{"attributes":{"OBJECTID":17370,"LANDMARKID":"1000800001316","LANDMARKCO":"604","LANDMARKNA":"車埕酒莊民宿","LANDMARKAD":"1000811","ADDRESS":"南投縣水里鄉車埕村民權巷118號","TEL":"049-2870399","COUNTYNAME":"南投縣","TOWNNAME":"水里鄉","MARKTYPE":"996","Class":"6"},"geometry":{"x":120.86702802398025,"y":23.83408481652766}},{"attributes":{"OBJECTID":17371,"LANDMARKID":"1000800001317","LANDMARKCO":"604","LANDMARKNA":"檜木林民宿","LANDMARKAD":"1000811","ADDRESS":"南投縣水里鄉頂崁村頂崁巷35-6號","TEL":"049-2770329","COUNTYNAME":"南投縣","TOWNNAME":"水里鄉","MARKTYPE":"996","Class":"6"},"geometry":{"x":120.86319590438055,"y":23.799092631829282}},{"attributes":{"OBJECTID":17372,"LANDMARKID":"1000800001318","LANDMARKCO":"604","LANDMARKNA":"峰林山莊民宿","LANDMARKAD":"1000811","ADDRESS":"南投縣水里鄉頂崁村頂崁巷35-5號","TEL":"049-2770329","COUNTYNAME":"南投縣","TOWNNAME":"水里鄉","MARKTYPE":"996","Class":"6"},"geometry":{"x":120.86329345609434,"y":23.799372728658934}},{"attributes":{"OBJECTID":17373,"LANDMARKID":"1000800001319","LANDMARKCO":"604","LANDMARKNA":"松之園","LANDMARKAD":"1000811","ADDRESS":"南投縣水里鄉頂崁村頂崁巷45-2號","TEL":"0932-080777","COUNTYNAME":"南投縣","TOWNNAME":"水里鄉","MARKTYPE":"996","Class":"6"},"geometry":{"x":120.86625372259211,"y":23.802472661791274}},{"attributes":{"OBJECTID":17374,"LANDMARKID":"1000800001320","LANDMARKCO":"604","LANDMARKNA":"禪之園","LANDMARKAD":"1000811","ADDRESS":"南投縣水里鄉頂崁村頂崁巷45-7號","TEL":"049-2871279","COUNTYNAME":"南投縣","TOWNNAME":"水里鄉","MARKTYPE":"996","Class":"6"},"geometry":{"x":120.86591039730894,"y":23.802390797682637}},{"attributes":{"OBJECTID":17375,"LANDMARKID":"1000800001321","LANDMARKCO":"604","LANDMARKNA":"理事長的家","LANDMARKAD":"1000811","ADDRESS":"南投縣水里鄉新城村民權路7巷2-2號","TEL":"049-2775757","COUNTYNAME":"南投縣","TOWNNAME":"水里鄉","MARKTYPE":"996","Class":"6"},"geometry":{"x":120.84561275851232,"y":23.821333759378916}},{"attributes":{"OBJECTID":17376,"LANDMARKID":"1000800001322","LANDMARKCO":"604","LANDMARKNA":"二坪山莊","LANDMARKAD":"1000811","ADDRESS":"南投縣水里鄉鉅工村二坪巷2-6號","TEL":"049-2770936","COUNTYNAME":"南投縣","TOWNNAME":"水里鄉","MARKTYPE":"996","Class":"6"},"geometry":{"x":120.86047269997994,"y":23.814260321533659}},{"attributes":{"OBJECTID":17377,"LANDMARKID":"1000800001323","LANDMARKCO":"604","LANDMARKNA":"雨社山休閒山莊","LANDMARKAD":"1000811","ADDRESS":"南投縣水里鄉頂崁村大平巷26號","TEL":"049-2777118","COUNTYNAME":"南投縣","TOWNNAME":"水里鄉","MARKTYPE":"996","Class":"6"},"geometry":{"x":120.8837956853001,"y":23.798710693972183}},{"attributes":{"OBJECTID":17378,"LANDMARKID":"1000800000817","LANDMARKCO":"503","LANDMARKNA":"明潭水庫","LANDMARKAD":"1000811","ADDRESS":"南投縣水里鄉","TEL":" ","COUNTYNAME":"南投縣","TOWNNAME":"水里鄉","MARKTYPE":"995","Class":"5"},"geometry":{"x":120.86731775761737,"y":23.837588454787699}},{"attributes":{"OBJECTID":17379,"LANDMARKID":"1000800000818","LANDMARKCO":"503","LANDMARKNA":"明湖水庫(明潭)","LANDMARKAD":"1000811","ADDRESS":"南投縣水里鄉","TEL":" ","COUNTYNAME":"南投縣","TOWNNAME":"水里鄉","MARKTYPE":"995","Class":"5"},"geometry":{"x":120.86943463759518,"y":23.858222025366423}},{"attributes":{"OBJECTID":17380,"LANDMARKID":"1000800000654","LANDMARKCO":"405","LANDMARKNA":"中油加油站-溪頭站(中油直營)","LANDMARKAD":"1000807","ADDRESS":"南投縣鹿谷鄉內湖村興產路4-5號","TEL":"049-2612126","COUNTYNAME":"南投縣","TOWNNAME":"鹿谷鄉","MARKTYPE":"994","Class":"4"},"geometry":{"x":120.79534334748956,"y":23.675419243742528}},{"attributes":{"OBJECTID":17381,"LANDMARKID":"1000800000655","LANDMARKCO":"405","LANDMARKNA":"中油加油站-鹿谷站(中油直營)","LANDMARKAD":"1000807","ADDRESS":"南投縣鹿谷鄉鹿谷村中正路二段137號","TEL":"049-2752874","COUNTYNAME":"南投縣","TOWNNAME":"鹿谷鄉","MARKTYPE":"994","Class":"4"},"geometry":{"x":120.75082626068925,"y":23.748743547199705}},{"attributes":{"OBJECTID":17382,"LANDMARKID":"1000800000880","LANDMARKCO":"507","LANDMARKNA":"林鳳池舉人墓","LANDMARKAD":"1000807","ADDRESS":"南投縣鹿谷鄉初鄉村中村巷23號","TEL":" ","COUNTYNAME":"南投縣","TOWNNAME":"鹿谷鄉","MARKTYPE":"995","Class":"5"},"geometry":{"x":120.73951198425036,"y":23.772374426738434}},{"attributes":{"OBJECTID":17383,"LANDMARKID":"1000800000875","LANDMARKCO":"506","LANDMARKNA":"鳳凰休閒農場","LANDMARKAD":"1000807","ADDRESS":"南投縣鹿谷鄉彰雅村凍頂巷16-2號","TEL":"049-2752217","COUNTYNAME":"南投縣","TOWNNAME":"鹿谷鄉","MARKTYPE":"995","Class":"5"},"geometry":{"x":120.78503665385483,"y":23.731737831565656}},{"attributes":{"OBJECTID":17384,"LANDMARKID":"1000800000783","LANDMARKCO":"408","LANDMARKNA":"郵局-鹿谷郵局","LANDMARKAD":"1000807","ADDRESS":"南投縣鹿谷鄉中正路2段115號","TEL":"(049)2752-434","COUNTYNAME":"南投縣","TOWNNAME":"鹿谷鄉","MARKTYPE":"994","Class":"4"},"geometry":{"x":120.75054038727708,"y":23.749118943959402}},{"attributes":{"OBJECTID":17385,"LANDMARKID":"1000800000784","LANDMARKCO":"408","LANDMARKNA":"郵局-鹿谷清水郵局","LANDMARKAD":"1000807","ADDRESS":"南投縣鹿谷鄉清水村仁愛路103號","TEL":"(049)2671-800","COUNTYNAME":"南投縣","TOWNNAME":"鹿谷鄉","MARKTYPE":"994","Class":"4"},"geometry":{"x":120.78857780906903,"y":23.795798470862387}},{"attributes":{"OBJECTID":17386,"LANDMARKID":"1000800000803","LANDMARKCO":"409","LANDMARKNA":"南投縣鹿谷鄉農會","LANDMARKAD":"1000807","ADDRESS":"南投縣鹿谷鄉鹿谷村中正路二段77號","TEL":"049-2752100-4","COUNTYNAME":"南投縣","TOWNNAME":"鹿谷鄉","MARKTYPE":"994","Class":"4"},"geometry":{"x":120.74996490539179,"y":23.750331823210683}},{"attributes":{"OBJECTID":17387,"LANDMARKID":"1000800000749","LANDMARKCO":"406","LANDMARKNA":"靖山公園","LANDMARKAD":"1000807","ADDRESS":"南投縣鹿谷鄉","TEL":" ","COUNTYNAME":"南投縣","TOWNNAME":"鹿谷鄉","MARKTYPE":"994","Class":"4"},"geometry":{"x":120.74152404076888,"y":23.764486877364803}},{"attributes":{"OBJECTID":17388,"LANDMARKID":"1000800000230","LANDMARKCO":"107","LANDMARKNA":"南投縣消防局鹿谷消防分隊","LANDMARKAD":"1000807","ADDRESS":"南投縣鹿谷鄉彰雅村中正路一段92號","TEL":"049-2752151","COUNTYNAME":"南投縣","TOWNNAME":"鹿谷鄉","MARKTYPE":"991","Class":"1"},"geometry":{"x":120.76085946485772,"y":23.7386510049169}},{"attributes":{"OBJECTID":17389,"LANDMARKID":"1000800000231","LANDMARKCO":"107","LANDMARKNA":"南投縣政府警察局鹿谷分駐所","LANDMARKAD":"1000807","ADDRESS":"南投縣鹿谷鄉鹿谷村中正路二段76之6號","TEL":"049-2752040","COUNTYNAME":"南投縣","TOWNNAME":"鹿谷鄉","MARKTYPE":"991","Class":"1"},"geometry":{"x":120.7542467521026,"y":23.745772607887275}},{"attributes":{"OBJECTID":17390,"LANDMARKID":"1000800000232","LANDMARKCO":"108","LANDMARKNA":"南投縣鹿谷鄉公所","LANDMARKAD":"1000807","ADDRESS":"南投縣鹿谷鄉鹿谷村中正路二段73號","TEL":"049-2755720","COUNTYNAME":"南投縣","TOWNNAME":"鹿谷鄉","MARKTYPE":"991","Class":"1"},"geometry":{"x":120.75328425846732,"y":23.74571776618998}},{"attributes":{"OBJECTID":17391,"LANDMARKID":"1000800000050","LANDMARKCO":"103","LANDMARKNA":"南投縣鹿谷鄉鄉民代表會","LANDMARKAD":"1000807","ADDRESS":"南投縣鹿谷鄉中正路二段75號","TEL":"049-2752004","COUNTYNAME":"南投縣","TOWNNAME":"鹿谷鄉","MARKTYPE":"991","Class":"1"},"geometry":{"x":120.75343382627837,"y":23.745948004278663}},{"attributes":{"OBJECTID":17392,"LANDMARKID":"1000800000226","LANDMARKCO":"107","LANDMARKNA":"南投縣政府警察局溪頭派出所","LANDMARKAD":"1000807","ADDRESS":"南投縣鹿谷鄉內湖村興產路1之20號","TEL":"049-2612173","COUNTYNAME":"南投縣","TOWNNAME":"鹿谷鄉","MARKTYPE":"991","Class":"1"},"geometry":{"x":120.79537504394796,"y":23.673258188163196}},{"attributes":{"OBJECTID":17393,"LANDMARKID":"1000800000227","LANDMARKCO":"107","LANDMARKNA":"南投縣政府警察局秀峰派出所","LANDMARKAD":"1000807","ADDRESS":"南投縣鹿谷鄉秀峰村仁愛路174號","TEL":"049-2671930","COUNTYNAME":"南投縣","TOWNNAME":"鹿谷鄉","MARKTYPE":"991","Class":"1"},"geometry":{"x":120.77597269847669,"y":23.780088371528215}},{"attributes":{"OBJECTID":17394,"LANDMARKID":"1000800000228","LANDMARKCO":"107","LANDMARKNA":"南投縣政府警察局竹林派出所","LANDMARKAD":"1000807","ADDRESS":"南投縣鹿谷鄉竹林村光復路106號","TEL":"049-2676142","COUNTYNAME":"南投縣","TOWNNAME":"鹿谷鄉","MARKTYPE":"991","Class":"1"},"geometry":{"x":120.75560325068844,"y":23.726827033272102}},{"attributes":{"OBJECTID":17395,"LANDMARKID":"1000800000229","LANDMARKCO":"107","LANDMARKNA":"南投縣政府警察局鳳凰派出所","LANDMARKAD":"1000807","ADDRESS":"南投縣鹿谷鄉鳳凰村新進巷1號","TEL":"049-2751102","COUNTYNAME":"南投縣","TOWNNAME":"鹿谷鄉","MARKTYPE":"991","Class":"1"},"geometry":{"x":120.78395414340196,"y":23.734857825628549}},{"attributes":{"OBJECTID":17396,"LANDMARKID":"1000800000102","LANDMARKCO":"106","LANDMARKNA":"南投縣鹿谷鄉戶政事務所","LANDMARKAD":"1000807","ADDRESS":"南投縣鹿谷鄉中正路二段71號","TEL":"049-2752505","COUNTYNAME":"南投縣","TOWNNAME":"鹿谷鄉","MARKTYPE":"991","Class":"1"},"geometry":{"x":120.75352437284562,"y":23.745658148810683}},{"attributes":{"OBJECTID":17397,"LANDMARKID":"1000800000454","LANDMARKCO":"204","LANDMARKNA":"南投縣立圖書館鹿谷分館","LANDMARKAD":"1000807","ADDRESS":"南投縣鹿谷鄉廣興村興產路96之4號","TEL":" ","COUNTYNAME":"南投縣","TOWNNAME":"鹿谷鄉","MARKTYPE":"992","Class":"2"},"geometry":{"x":120.76500909650071,"y":23.735594394458577}},{"attributes":{"OBJECTID":17398,"LANDMARKID":"1000800000346","LANDMARKCO":"203","LANDMARKNA":"縣立瑞峰國中","LANDMARKAD":"1000807","ADDRESS":"南投縣鹿谷鄉仁愛路154之1號","TEL":"049-2671712","COUNTYNAME":"南投縣","TOWNNAME":"鹿谷鄉","MARKTYPE":"992","Class":"2"},"geometry":{"x":120.77485323835124,"y":23.782540817332343}},{"attributes":{"OBJECTID":17399,"LANDMARKID":"1000800000347","LANDMARKCO":"203","LANDMARKNA":"縣立鹿谷國中","LANDMARKAD":"1000807","ADDRESS":"南投縣鹿谷鄉彰雅村仁義路94之1號","TEL":"049-2752001","COUNTYNAME":"南投縣","TOWNNAME":"鹿谷鄉","MARKTYPE":"992","Class":"2"},"geometry":{"x":120.75857469304104,"y":23.74828733443902}},{"attributes":{"OBJECTID":17400,"LANDMARKID":"1000800000348","LANDMARKCO":"203","LANDMARKNA":"縣立瑞田國小","LANDMARKAD":"1000807","ADDRESS":"南投縣鹿谷鄉瑞田村仁愛路80號","TEL":"049-2671284","COUNTYNAME":"南投縣","TOWNNAME":"鹿谷鄉","MARKTYPE":"992","Class":"2"},"geometry":{"x":120.78894252439908,"y":23.802557031414867}}]}