{"displayFieldName":"COUNTYNAME","fieldAliases":{"OBJECTID":"OBJECTID","LANDMARKID":"LANDMARKID","LANDMARKCO":"LANDMARKCO","LANDMARKNA":"LANDMARKNA","LANDMARKAD":"LANDMARKAD","ADDRESS":"ADDRESS","TEL":"TEL","COUNTYNAME":"COUNTYNAME","TOWNNAME":"TOWNNAME","MARKTYPE":"MARKTYPE","Class":"Class"},"geometryType":"esriGeometryPoint","spatialReference":{"wkid":102443},"fields":[{"name":"OBJECTID","type":"esriFieldTypeOID","alias":"OBJECTID"},{"name":"LANDMARKID","type":"esriFieldTypeString","alias":"LANDMARKID","length":15},{"name":"LANDMARKCO","type":"esriFieldTypeString","alias":"LANDMARKCO","length":15},{"name":"LANDMARKNA","type":"esriFieldTypeString","alias":"LANDMARKNA","length":50},{"name":"LANDMARKAD","type":"esriFieldTypeString","alias":"LANDMARKAD","length":15},{"name":"ADDRESS","type":"esriFieldTypeString","alias":"ADDRESS","length":56},{"name":"TEL","type":"esriFieldTypeString","alias":"TEL","length":36},{"name":"COUNTYNAME","type":"esriFieldTypeString","alias":"COUNTYNAME","length":15},{"name":"TOWNNAME","type":"esriFieldTypeString","alias":"TOWNNAME","length":13},{"name":"MARKTYPE","type":"esriFieldTypeString","alias":"MARKTYPE","length":12},{"name":"Class","type":"esriFieldTypeString","alias":"Class","length":5}],"features":[{"attributes":{"OBJECTID":4801,"LANDMARKID":"1000100001657","LANDMARKCO":"402","LANDMARKNA":"遠傳電信-新莊新泰門市","LANDMARKAD":"1000105","ADDRESS":"新北市新莊區新泰路264號","TEL":" ","COUNTYNAME":"新北市","TOWNNAME":"新莊區","MARKTYPE":"994","Class":"4"},"geometry":{"x":295012.48390000034,"y":2770305.4690000005}},{"attributes":{"OBJECTID":4802,"LANDMARKID":"1000100001658","LANDMARKCO":"402","LANDMARKNA":"威寶電信-新莊輔大特約服務中心","LANDMARKAD":"1000105","ADDRESS":"新北市新莊區中正路581號","TEL":"02-29021909","COUNTYNAME":"新北市","TOWNNAME":"新莊區","MARKTYPE":"994","Class":"4"},"geometry":{"x":293836.67599999998,"y":2769442.6673000008}},{"attributes":{"OBJECTID":4803,"LANDMARKID":"1000100001659","LANDMARKCO":"402","LANDMARKNA":"威寶電信-新莊幸福二特約服務中心","LANDMARKAD":"1000105","ADDRESS":"新北市新莊區幸福路665號","TEL":"02-29923200","COUNTYNAME":"新北市","TOWNNAME":"新莊區","MARKTYPE":"994","Class":"4"},"geometry":{"x":295481.70370000042,"y":2771294.7566}},{"attributes":{"OBJECTID":4804,"LANDMARKID":"1000100001660","LANDMARKCO":"402","LANDMARKNA":"威寶電信-新莊民安西特約服務中心","LANDMARKAD":"1000105","ADDRESS":"新北市新莊區民安西路210號","TEL":"02-22058214","COUNTYNAME":"新北市","TOWNNAME":"新莊區","MARKTYPE":"994","Class":"4"},"geometry":{"x":292984.35369999986,"y":2767495.7279000003}},{"attributes":{"OBJECTID":4805,"LANDMARKID":"1000100001661","LANDMARKCO":"402","LANDMARKNA":"威寶電信-新莊幸福特約服務中心","LANDMARKAD":"1000105","ADDRESS":"新北市新莊區幸福路18號","TEL":"02-22778550","COUNTYNAME":"新北市","TOWNNAME":"新莊區","MARKTYPE":"994","Class":"4"},"geometry":{"x":296314.87330000009,"y":2771343.7780000009}},{"attributes":{"OBJECTID":4806,"LANDMARKID":"1000100001662","LANDMARKCO":"402","LANDMARKNA":"大眾電信(傑昇通信)-幸福店","LANDMARKAD":"1000105","ADDRESS":"新北市新莊巿幸福路24號","TEL":"02-29900880","COUNTYNAME":"新北市","TOWNNAME":"新莊區","MARKTYPE":"994","Class":"4"},"geometry":{"x":296300.87660000008,"y":2771344.8254000004}},{"attributes":{"OBJECTID":4807,"LANDMARKID":"1000100001663","LANDMARKCO":"402","LANDMARKNA":"大眾電信-新莊店","LANDMARKAD":"1000105","ADDRESS":"新北市新莊區中正路279號","TEL":"0968-544182","COUNTYNAME":"新北市","TOWNNAME":"新莊區","MARKTYPE":"994","Class":"4"},"geometry":{"x":295325.7237999998,"y":2769762.3632999994}},{"attributes":{"OBJECTID":4808,"LANDMARKID":"1000100001664","LANDMARKCO":"402","LANDMARKNA":"大眾電信(震旦通訊)-新莊中正二店","LANDMARKAD":"1000105","ADDRESS":"新北市新莊區中正路481號","TEL":"02-29085588","COUNTYNAME":"新北市","TOWNNAME":"新莊區","MARKTYPE":"994","Class":"4"},"geometry":{"x":294535.11340000015,"y":2769576.2113000005}},{"attributes":{"OBJECTID":4809,"LANDMARKID":"1000100001665","LANDMARKCO":"402","LANDMARKNA":"大眾電信(皇家通訊)-新莊亞太","LANDMARKAD":"1000105","ADDRESS":"新北市新莊區中華路一段60號","TEL":"02-89928992","COUNTYNAME":"新北市","TOWNNAME":"新莊區","MARKTYPE":"994","Class":"4"},"geometry":{"x":295623.90350000001,"y":2770123.2961999997}},{"attributes":{"OBJECTID":4810,"LANDMARKID":"1000100001666","LANDMARKCO":"402","LANDMARKNA":"大眾電信(震旦通訊)-新莊中港店","LANDMARKAD":"1000105","ADDRESS":"新北市新莊區中港路333號","TEL":"02-29934939","COUNTYNAME":"新北市","TOWNNAME":"新莊區","MARKTYPE":"994","Class":"4"},"geometry":{"x":295639.28880000021,"y":2770862.2343000006}},{"attributes":{"OBJECTID":4811,"LANDMARKID":"1000100001667","LANDMARKCO":"402","LANDMARKNA":"大眾電信(震旦通訊)-新莊公園店","LANDMARKAD":"1000105","ADDRESS":"新北市新莊區公園路9號","TEL":"02-89935178","COUNTYNAME":"新北市","TOWNNAME":"新莊區","MARKTYPE":"994","Class":"4"},"geometry":{"x":295142.95870000031,"y":2770141.9649999999}},{"attributes":{"OBJECTID":4812,"LANDMARKID":"1000100001668","LANDMARKCO":"402","LANDMARKNA":"大眾電信(震旦通訊)-新莊民安店","LANDMARKAD":"1000105","ADDRESS":"新北市新莊區民安路145號","TEL":"02-22080828","COUNTYNAME":"新北市","TOWNNAME":"新莊區","MARKTYPE":"994","Class":"4"},"geometry":{"x":292928.59559999965,"y":2768495.8939999994}},{"attributes":{"OBJECTID":4813,"LANDMARKID":"1000100001669","LANDMARKCO":"402","LANDMARKNA":"大眾電信(震旦通訊)-新莊幸福店","LANDMARKAD":"1000105","ADDRESS":"新北市新莊區幸福路771號1.","TEL":"02-29917785","COUNTYNAME":"新北市","TOWNNAME":"新莊區","MARKTYPE":"994","Class":"4"},"geometry":{"x":295099.6557,"y":2771280.1711999997}},{"attributes":{"OBJECTID":4814,"LANDMARKID":"1000100001670","LANDMARKCO":"402","LANDMARKNA":"大眾電信-富國專賣店","LANDMARKAD":"1000105","ADDRESS":"新北市新莊區富國路121號","TEL":"0966-727-005","COUNTYNAME":"新北市","TOWNNAME":"新莊區","MARKTYPE":"994","Class":"4"},"geometry":{"x":292826.87090000045,"y":2768583.3363000005}},{"attributes":{"OBJECTID":4815,"LANDMARKID":"1000100001671","LANDMARKCO":"402","LANDMARKNA":"大眾電信(傑昇通信)-新莊富國店","LANDMARKAD":"1000105","ADDRESS":"新北市新莊區富國路150號","TEL":"02-2208-3585","COUNTYNAME":"新北市","TOWNNAME":"新莊區","MARKTYPE":"994","Class":"4"},"geometry":{"x":292697.93829999957,"y":2768605.7396000009}},{"attributes":{"OBJECTID":4816,"LANDMARKID":"1000100001672","LANDMARKCO":"402","LANDMARKNA":"大眾電信(傑昇通信)-新泰店","LANDMARKAD":"1000105","ADDRESS":"新莊區新泰路232號","TEL":"02-2994-2277","COUNTYNAME":"新北市","TOWNNAME":"新莊區","MARKTYPE":"994","Class":"4"},"geometry":{"x":295064.17379999999,"y":2770211.2985999994}},{"attributes":{"OBJECTID":4817,"LANDMARKID":"1000100001673","LANDMARKCO":"402","LANDMARKNA":"威寶電信-新莊中華特約服務中心","LANDMARKAD":"1000105","ADDRESS":"新北市新莊區中華路一段48號","TEL":"02-29939063","COUNTYNAME":"新北市","TOWNNAME":"新莊區","MARKTYPE":"994","Class":"4"},"geometry":{"x":295617.79339999985,"y":2770074.4079}},{"attributes":{"OBJECTID":4818,"LANDMARKID":"1000100002789","LANDMARKCO":"603","LANDMARKNA":"馥華大觀商旅","LANDMARKAD":"1000105","ADDRESS":"新北市新莊區大觀街60號","TEL":"02-89911278","COUNTYNAME":"新北市","TOWNNAME":"新莊區","MARKTYPE":"996","Class":"6"},"geometry":{"x":295798.6286000004,"y":2769865.0006000008}},{"attributes":{"OBJECTID":4819,"LANDMARKID":"1000100002790","LANDMARKCO":"603","LANDMARKNA":"花蝶商務旅館","LANDMARKAD":"1000105","ADDRESS":"新北市新莊區中港路572號2至5樓","TEL":"02-22779601","COUNTYNAME":"新北市","TOWNNAME":"新莊區","MARKTYPE":"996","Class":"6"},"geometry":{"x":295551.22910000011,"y":2771767.5178999994}},{"attributes":{"OBJECTID":4820,"LANDMARKID":"1000100002791","LANDMARKCO":"603","LANDMARKNA":"新莊客旅","LANDMARKAD":"1000105","ADDRESS":"新北市新莊區中華路1段103號、103號2樓及103號3樓（3","TEL":"02-22776599","COUNTYNAME":"新北市","TOWNNAME":"新莊區","MARKTYPE":"996","Class":"6"},"geometry":{"x":295668.79580000043,"y":2770706.1391000003}},{"attributes":{"OBJECTID":4821,"LANDMARKID":"1000100002792","LANDMARKCO":"603","LANDMARKNA":"珈多利汽車旅館","LANDMARKAD":"1000105","ADDRESS":"新北市新莊區中榮街55號(代表號)","TEL":"02-29989766","COUNTYNAME":"新北市","TOWNNAME":"新莊區","MARKTYPE":"996","Class":"6"},"geometry":{"x":295048.98660000041,"y":2771688.3350000009}},{"attributes":{"OBJECTID":4822,"LANDMARKID":"1000100002793","LANDMARKCO":"603","LANDMARKNA":"香奈爾汽車旅館 (新莊店)","LANDMARKAD":"1000105","ADDRESS":"新北市新莊區後港一路187號","TEL":"02-29065555","COUNTYNAME":"新北市","TOWNNAME":"新莊區","MARKTYPE":"996","Class":"6"},"geometry":{"x":293766.27099999972,"y":2769008.8961999994}},{"attributes":{"OBJECTID":4823,"LANDMARKID":"1000100002794","LANDMARKCO":"603","LANDMARKNA":"雅緹汽車旅館","LANDMARKAD":"1000105","ADDRESS":"新北市新莊區復興路3段8號","TEL":"02-22761818","COUNTYNAME":"新北市","TOWNNAME":"新莊區","MARKTYPE":"996","Class":"6"},"geometry":{"x":296517.03579999972,"y":2770775.0979999993}},{"attributes":{"OBJECTID":4824,"LANDMARKID":"1000100002795","LANDMARKCO":"603","LANDMARKNA":"海天賓館","LANDMARKAD":"1000105","ADDRESS":"新北市新莊區新泰路44號1至2樓","TEL":"02-29925030","COUNTYNAME":"新北市","TOWNNAME":"新莊區","MARKTYPE":"996","Class":"6"},"geometry":{"x":295359.40199999977,"y":2769665.2514999993}},{"attributes":{"OBJECTID":4825,"LANDMARKID":"1000100002796","LANDMARKCO":"603","LANDMARKNA":"海園旅社","LANDMARKAD":"1000105","ADDRESS":"新北市新莊區新莊路757號2至3樓","TEL":"02-22018511","COUNTYNAME":"新北市","TOWNNAME":"新莊區","MARKTYPE":"996","Class":"6"},"geometry":{"x":294667.81730000023,"y":2769484.6929000001}},{"attributes":{"OBJECTID":4826,"LANDMARKID":"1000100002797","LANDMARKCO":"603","LANDMARKNA":"卡莫精品旅館","LANDMARKAD":"1000105","ADDRESS":"新北市新莊區新樹路242號","TEL":"02-22051111","COUNTYNAME":"新北市","TOWNNAME":"新莊區","MARKTYPE":"996","Class":"6"},"geometry":{"x":293703.80719999969,"y":2767945.2147000004}},{"attributes":{"OBJECTID":4827,"LANDMARKID":"1000100002711","LANDMARKCO":"511","LANDMARKNA":"新莊夜市","LANDMARKAD":"1000105","ADDRESS":"新北市新莊區新莊路","TEL":" ","COUNTYNAME":"新北市","TOWNNAME":"新莊區","MARKTYPE":"995","Class":"5"},"geometry":{"x":295377.49469999969,"y":2769560.5736999996}},{"attributes":{"OBJECTID":4828,"LANDMARKID":"1000100002712","LANDMARKCO":"511","LANDMARKNA":"新莊花市","LANDMARKAD":"1000105","ADDRESS":"新北市新莊區","TEL":" ","COUNTYNAME":"新北市","TOWNNAME":"新莊區","MARKTYPE":"995","Class":"5"},"geometry":{"x":296433.84030000027,"y":2771425.1436000001}},{"attributes":{"OBJECTID":4829,"LANDMARKID":"1000100002319","LANDMARKCO":"408","LANDMARKNA":"郵局-平溪郵局","LANDMARKAD":"1000124","ADDRESS":"新北市平溪區平溪街42號","TEL":"(02)2495-1062","COUNTYNAME":"新北市","TOWNNAME":"平溪區","MARKTYPE":"994","Class":"4"},"geometry":{"x":324525.98959999997,"y":2768858.8245999999}},{"attributes":{"OBJECTID":4830,"LANDMARKID":"1000100002471","LANDMARKCO":"409","LANDMARKNA":"新北市平溪區農會","LANDMARKAD":"1000124","ADDRESS":"新北市平溪區嶺腳村中華街15號","TEL":"02-24951051-2","COUNTYNAME":"新北市","TOWNNAME":"平溪區","MARKTYPE":"994","Class":"4"},"geometry":{"x":324653.30250000022,"y":2768690.1833999995}},{"attributes":{"OBJECTID":4831,"LANDMARKID":"1000100000421","LANDMARKCO":"108","LANDMARKNA":"新北市平溪區公所","LANDMARKAD":"1000124","ADDRESS":"新北市平溪區平溪村平溪街45號","TEL":"02-24951510","COUNTYNAME":"新北市","TOWNNAME":"平溪區","MARKTYPE":"991","Class":"1"},"geometry":{"x":324472.98350000009,"y":2768929.0092999991}},{"attributes":{"OBJECTID":4832,"LANDMARKID":"1000100000265","LANDMARKCO":"107","LANDMARKNA":"新北市消防局平溪分隊","LANDMARKAD":"1000124","ADDRESS":"新北市平溪區平溪村平溪街47號","TEL":"02-24951119","COUNTYNAME":"新北市","TOWNNAME":"平溪區","MARKTYPE":"991","Class":"1"},"geometry":{"x":323793.59999999963,"y":2769779.6312000006}},{"attributes":{"OBJECTID":4833,"LANDMARKID":"1000100000266","LANDMARKCO":"107","LANDMARKNA":"新北市政府警察局十分派出所","LANDMARKAD":"1000124","ADDRESS":"新北市平溪區十分村十分街283號","TEL":"02-24958128","COUNTYNAME":"新北市","TOWNNAME":"平溪區","MARKTYPE":"991","Class":"1"},"geometry":{"x":328684.40020000003,"y":2771168.8451000005}},{"attributes":{"OBJECTID":4834,"LANDMARKID":"1000100000267","LANDMARKCO":"107","LANDMARKNA":"新北市政府警察局平溪分駐所","LANDMARKAD":"1000124","ADDRESS":"新北市平溪區平溪村平溪街43號","TEL":"02-24951063","COUNTYNAME":"新北市","TOWNNAME":"平溪區","MARKTYPE":"991","Class":"1"},"geometry":{"x":324423.54870000016,"y":2768849.2785999998}},{"attributes":{"OBJECTID":4835,"LANDMARKID":"1000100000162","LANDMARKCO":"106","LANDMARKNA":"新北市平溪區戶政事務所","LANDMARKAD":"1000124","ADDRESS":"新北市平溪區平溪村3鄰平溪街43號","TEL":"02-24951076","COUNTYNAME":"新北市","TOWNNAME":"平溪區","MARKTYPE":"991","Class":"1"},"geometry":{"x":324407.54910000041,"y":2768849.3657000009}},{"attributes":{"OBJECTID":4836,"LANDMARKID":"1000100000017","LANDMARKCO":"101","LANDMARKNA":"平溪區清潔隊環保專線","LANDMARKAD":"1000124","ADDRESS":"新北市平溪區平溪街45號","TEL":"02-24952137","COUNTYNAME":"新北市","TOWNNAME":"平溪區","MARKTYPE":"991","Class":"1"},"geometry":{"x":324493.03770000022,"y":2768938.9000000004}},{"attributes":{"OBJECTID":4837,"LANDMARKID":"1000100000084","LANDMARKCO":"103","LANDMARKNA":"新北市平溪區衛生所","LANDMARKAD":"1000124","ADDRESS":"新北市平溪區中華街61號","TEL":"02-24951015","COUNTYNAME":"新北市","TOWNNAME":"平溪區","MARKTYPE":"991","Class":"1"},"geometry":{"x":324609.56900000013,"y":2768729.8002000004}},{"attributes":{"OBJECTID":4838,"LANDMARKID":"1000100000085","LANDMARKCO":"103","LANDMARKNA":"新北市平溪區鄉民代表會","LANDMARKAD":"1000124","ADDRESS":"新北市平溪區平溪村公園街17號3樓","TEL":"02-24951037","COUNTYNAME":"新北市","TOWNNAME":"平溪區","MARKTYPE":"991","Class":"1"},"geometry":{"x":324091.50179999974,"y":2768839.5616999995}},{"attributes":{"OBJECTID":4839,"LANDMARKID":"1000100000268","LANDMARKCO":"107","LANDMARKNA":"新北市政府警察局東勢格派出所","LANDMARKAD":"1000124","ADDRESS":"新北市平溪區東勢村東勢格1號","TEL":"02-24951379","COUNTYNAME":"新北市","TOWNNAME":"平溪區","MARKTYPE":"991","Class":"1"},"geometry":{"x":325735.68929999974,"y":2766599.8372000009}},{"attributes":{"OBJECTID":4840,"LANDMARKID":"1000100000018","LANDMARKCO":"101","LANDMARKNA":"中央氣象局火燒寮測候站","LANDMARKAD":"1000124","ADDRESS":"新北市平溪區東勢村(東勢分校對面)","TEL":" ","COUNTYNAME":"新北市","TOWNNAME":"平溪區","MARKTYPE":"991","Class":"1"},"geometry":{"x":325422.79690000042,"y":2766128.4835999999}},{"attributes":{"OBJECTID":4841,"LANDMARKID":"1000100000901","LANDMARKCO":"205","LANDMARKNA":"台灣煤礦博物館","LANDMARKAD":"1000124","ADDRESS":"新北市平溪區新寮村頂寮子5號","TEL":"02-24958680","COUNTYNAME":"新北市","TOWNNAME":"平溪區","MARKTYPE":"992","Class":"2"},"geometry":{"x":328056.91110000014,"y":2771837.0332999993}},{"attributes":{"OBJECTID":4842,"LANDMARKID":"1000100000853","LANDMARKCO":"204","LANDMARKNA":"新北市立圖書館平溪分館","LANDMARKAD":"1000124","ADDRESS":"新北市平溪區公園街17號1樓","TEL":" ","COUNTYNAME":"新北市","TOWNNAME":"平溪區","MARKTYPE":"992","Class":"2"},"geometry":{"x":324503.87839999981,"y":2768742.4397999998}},{"attributes":{"OBJECTID":4843,"LANDMARKID":"1000100000662","LANDMARKCO":"203","LANDMARKNA":"縣立十分國小","LANDMARKAD":"1000124","ADDRESS":"新北市平溪區十分村十分街157號","TEL":"02-24958305","COUNTYNAME":"新北市","TOWNNAME":"平溪區","MARKTYPE":"992","Class":"2"},"geometry":{"x":328497.33220000006,"y":2770849.9319000002}},{"attributes":{"OBJECTID":4844,"LANDMARKID":"1000100000663","LANDMARKCO":"203","LANDMARKNA":"縣立平溪國小","LANDMARKAD":"1000124","ADDRESS":"新北市平溪區平溪街56號","TEL":"02-24951038","COUNTYNAME":"新北市","TOWNNAME":"平溪區","MARKTYPE":"992","Class":"2"},"geometry":{"x":324424.41999999993,"y":2769009.2738000005}},{"attributes":{"OBJECTID":4845,"LANDMARKID":"1000100000664","LANDMARKCO":"203","LANDMARKNA":"縣立菁桐國小","LANDMARKAD":"1000124","ADDRESS":"新北市平溪區菁桐街45號","TEL":"02-24951009","COUNTYNAME":"新北市","TOWNNAME":"平溪區","MARKTYPE":"992","Class":"2"},"geometry":{"x":323365.55920000002,"y":2768538.9583999999}},{"attributes":{"OBJECTID":4846,"LANDMARKID":"1000100000665","LANDMARKCO":"203","LANDMARKNA":"縣立平溪國中","LANDMARKAD":"1000124","ADDRESS":"新北市平溪區石底街92號","TEL":"02-24951010","COUNTYNAME":"新北市","TOWNNAME":"平溪區","MARKTYPE":"992","Class":"2"},"geometry":{"x":323999.24930000026,"y":2768668.5555000007}},{"attributes":{"OBJECTID":4847,"LANDMARKID":"1000100000666","LANDMARKCO":"203","LANDMARKNA":"縣立平溪國小東勢分校","LANDMARKAD":"1000124","ADDRESS":"新北市平溪區","TEL":" ","COUNTYNAME":"新北市","TOWNNAME":"平溪區","MARKTYPE":"992","Class":"2"},"geometry":{"x":325383.01809999999,"y":2766168.7028000001}},{"attributes":{"OBJECTID":4848,"LANDMARKID":"1000100000667","LANDMARKCO":"203","LANDMARKNA":"縣立十分國小平湖分校","LANDMARKAD":"1000124","ADDRESS":"新北市平溪區","TEL":" ","COUNTYNAME":"新北市","TOWNNAME":"平溪區","MARKTYPE":"992","Class":"2"},"geometry":{"x":328732.42069999967,"y":2769018.6405999996}},{"attributes":{"OBJECTID":4849,"LANDMARKID":"1000100001039","LANDMARKCO":"303","LANDMARKNA":"十分瀑布停車場","LANDMARKAD":"1000124","ADDRESS":"新北市平溪區","TEL":" ","COUNTYNAME":"新北市","TOWNNAME":"平溪區","MARKTYPE":"993","Class":"303"},"geometry":{"x":329612.1425999999,"y":2771420.9377999995}},{"attributes":{"OBJECTID":4850,"LANDMARKID":"1000100001040","LANDMARKCO":"303","LANDMARKNA":"平溪停三停車場","LANDMARKAD":"1000124","ADDRESS":"新北市平溪區南山村十分觀光大穚","TEL":" ","COUNTYNAME":"新北市","TOWNNAME":"平溪區","MARKTYPE":"993","Class":"303"},"geometry":{"x":328813.41849999968,"y":2771096.9951000009}},{"attributes":{"OBJECTID":4851,"LANDMARKID":"1000100001041","LANDMARKCO":"303","LANDMARKNA":"台灣煤礦博物館停車場","LANDMARKAD":"1000124","ADDRESS":"新北市平溪區新寮村頂寮子","TEL":"02-24958680","COUNTYNAME":"新北市","TOWNNAME":"平溪區","MARKTYPE":"993","Class":"303"},"geometry":{"x":328057.71789999958,"y":2771781.6308999993}},{"attributes":{"OBJECTID":4852,"LANDMARKID":"1000100001042","LANDMARKCO":"303","LANDMARKNA":"十分停車場","LANDMARKAD":"1000124","ADDRESS":"新北市平溪區南山村十分觀光大穚旁","TEL":" ","COUNTYNAME":"新北市","TOWNNAME":"平溪區","MARKTYPE":"993","Class":"303"},"geometry":{"x":328936.66509999987,"y":2771204.2947000004}},{"attributes":{"OBJECTID":4853,"LANDMARKID":"1000100001043","LANDMARKCO":"303","LANDMARKNA":"大眾爺廟旁停車場","LANDMARKAD":"1000124","ADDRESS":"新北市平溪區南山村南山坪136號","TEL":"02-24958409","COUNTYNAME":"新北市","TOWNNAME":"平溪區","MARKTYPE":"993","Class":"303"},"geometry":{"x":329278.00409999955,"y":2771529.5080999993}},{"attributes":{"OBJECTID":4854,"LANDMARKID":"1000100001044","LANDMARKCO":"303","LANDMARKNA":"平湖森林遊樂區停車場","LANDMARKAD":"1000124","ADDRESS":"新北市平溪區平湖村","TEL":" ","COUNTYNAME":"新北市","TOWNNAME":"平溪區","MARKTYPE":"993","Class":"303"},"geometry":{"x":329852.27520000003,"y":2769189.3092999998}},{"attributes":{"OBJECTID":4855,"LANDMARKID":"1000100001045","LANDMARKCO":"303","LANDMARKNA":"野人谷風景特定區停車場","LANDMARKAD":"1000124","ADDRESS":"新北市平溪區","TEL":" ","COUNTYNAME":"新北市","TOWNNAME":"平溪區","MARKTYPE":"993","Class":"303"},"geometry":{"x":330113.74450000003,"y":2772175.8025000002}},{"attributes":{"OBJECTID":4856,"LANDMARKID":"1000100001046","LANDMARKCO":"303","LANDMARKNA":"平溪停三停車場","LANDMARKAD":"1000124","ADDRESS":"新北市平溪區南山村","TEL":" ","COUNTYNAME":"新北市","TOWNNAME":"平溪區","MARKTYPE":"993","Class":"303"},"geometry":{"x":329612.39410000015,"y":2773239.8173999991}},{"attributes":{"OBJECTID":4857,"LANDMARKID":"1000100000918","LANDMARKCO":"301","LANDMARKNA":"大華火車站","LANDMARKAD":"1000124","ADDRESS":"新北市平溪區","TEL":" ","COUNTYNAME":"新北市","TOWNNAME":"平溪區","MARKTYPE":"993","Class":"301"},"geometry":{"x":330458.88509999961,"y":2771547.5573999994}},{"attributes":{"OBJECTID":4858,"LANDMARKID":"1000100000919","LANDMARKCO":"301","LANDMARKNA":"菁桐火車站","LANDMARKAD":"1000124","ADDRESS":"新北市平溪區","TEL":" ","COUNTYNAME":"新北市","TOWNNAME":"平溪區","MARKTYPE":"993","Class":"301"},"geometry":{"x":323042.75270000007,"y":2768639.9666000009}},{"attributes":{"OBJECTID":4859,"LANDMARKID":"1000100000920","LANDMARKCO":"301","LANDMARKNA":"嶺腳火車站","LANDMARKAD":"1000124","ADDRESS":"新北市平溪區","TEL":" ","COUNTYNAME":"新北市","TOWNNAME":"平溪區","MARKTYPE":"993","Class":"301"},"geometry":{"x":325517.50210000016,"y":2769299.8596000001}},{"attributes":{"OBJECTID":4860,"LANDMARKID":"1000100000921","LANDMARKCO":"301","LANDMARKNA":"平溪火車站","LANDMARKAD":"1000124","ADDRESS":"新北市平溪區","TEL":" ","COUNTYNAME":"新北市","TOWNNAME":"平溪區","MARKTYPE":"993","Class":"301"},"geometry":{"x":324656.68620000035,"y":2768781.9916999992}},{"attributes":{"OBJECTID":4861,"LANDMARKID":"1000100000922","LANDMARKCO":"301","LANDMARKNA":"望古火車站","LANDMARKAD":"1000124","ADDRESS":"新北市平溪區","TEL":" ","COUNTYNAME":"新北市","TOWNNAME":"平溪區","MARKTYPE":"993","Class":"301"},"geometry":{"x":327038.25229999982,"y":2769809.7161999997}},{"attributes":{"OBJECTID":4862,"LANDMARKID":"1000100000923","LANDMARKCO":"301","LANDMARKNA":"十分火車站","LANDMARKAD":"1000124","ADDRESS":"新北市平溪區","TEL":" ","COUNTYNAME":"新北市","TOWNNAME":"平溪區","MARKTYPE":"993","Class":"301"},"geometry":{"x":328229.81280000042,"y":2770554.3563000001}},{"attributes":{"OBJECTID":4863,"LANDMARKID":"1000100002788","LANDMARKCO":"603","LANDMARKNA":"河灣渡假村","LANDMARKAD":"1000124","ADDRESS":"新北市平溪區十分街273之1號2樓","TEL":"02-24958325","COUNTYNAME":"新北市","TOWNNAME":"平溪區","MARKTYPE":"996","Class":"6"},"geometry":{"x":328471.90710000042,"y":2770925.2926000003}},{"attributes":{"OBJECTID":4864,"LANDMARKID":"1000100002561","LANDMARKCO":"504","LANDMARKNA":"十分瀑布","LANDMARKAD":"1000124","ADDRESS":"新北市平溪區","TEL":" ","COUNTYNAME":"新北市","TOWNNAME":"平溪區","MARKTYPE":"995","Class":"5"},"geometry":{"x":329437.93329999968,"y":2771403.4493000004}},{"attributes":{"OBJECTID":4865,"LANDMARKID":"1000100002562","LANDMARKCO":"504","LANDMARKNA":"平湖森林遊樂區入口","LANDMARKAD":"1000124","ADDRESS":"新北市平溪區","TEL":" ","COUNTYNAME":"新北市","TOWNNAME":"平溪區","MARKTYPE":"995","Class":"5"},"geometry":{"x":329825.00329999998,"y":2769197.2662000004}},{"attributes":{"OBJECTID":4866,"LANDMARKID":"1000100002563","LANDMARKCO":"504","LANDMARKNA":"平湖森林遊樂區","LANDMARKAD":"1000124","ADDRESS":"新北市平溪區","TEL":" ","COUNTYNAME":"新北市","TOWNNAME":"平溪區","MARKTYPE":"995","Class":"5"},"geometry":{"x":330640.90830000024,"y":2769733.5394000001}},{"attributes":{"OBJECTID":4867,"LANDMARKID":"1000100002525","LANDMARKCO":"503","LANDMARKNA":"冬瓜寮坑步道(建源步道)","LANDMARKAD":"1000124","ADDRESS":"步道入口位於平溪國中對面","TEL":" ","COUNTYNAME":"新北市","TOWNNAME":"平溪區","MARKTYPE":"995","Class":"5"},"geometry":{"x":324009.80020000041,"y":2768522.8302999996}},{"attributes":{"OBJECTID":4868,"LANDMARKID":"1000100002575","LANDMARKCO":"505","LANDMARKNA":"野人谷桃花源渡假村","LANDMARKAD":"1000124","ADDRESS":"新北市平溪區新寮村16號","TEL":" ","COUNTYNAME":"新北市","TOWNNAME":"平溪區","MARKTYPE":"995","Class":"5"},"geometry":{"x":330609.05059999973,"y":2772231.1656999998}},{"attributes":{"OBJECTID":4869,"LANDMARKID":"1000100002526","LANDMARKCO":"503","LANDMARKNA":"十分瀑布風景特定區","LANDMARKAD":"1000124","ADDRESS":"新北市平溪區南山村南山坪136號","TEL":" ","COUNTYNAME":"新北市","TOWNNAME":"平溪區","MARKTYPE":"995","Class":"5"},"geometry":{"x":328993.56089999992,"y":2771245.8929999992}},{"attributes":{"OBJECTID":4870,"LANDMARKID":"1000100002527","LANDMARKCO":"503","LANDMARKNA":"野人谷風景特定區","LANDMARKAD":"1000124","ADDRESS":"新北市平溪區新寮村16號","TEL":" ","COUNTYNAME":"新北市","TOWNNAME":"平溪區","MARKTYPE":"995","Class":"5"},"geometry":{"x":330174.29370000027,"y":2772188.6261}},{"attributes":{"OBJECTID":4871,"LANDMARKID":"1000100002078","LANDMARKCO":"405","LANDMARKNA":"中油加油站-中華永貞站","LANDMARKAD":"1000104","ADDRESS":"新北市永和區中和路601號","TEL":"02-22324282","COUNTYNAME":"新北市","TOWNNAME":"永和區","MARKTYPE":"994","Class":"4"},"geometry":{"x":301714.79339999985,"y":2766355.4840999991}},{"attributes":{"OBJECTID":4872,"LANDMARKID":"1000100002079","LANDMARKCO":"405","LANDMARKNA":"中油加油站-永和站","LANDMARKAD":"1000104","ADDRESS":"新北市永和區中和路573號","TEL":"02-29281516","COUNTYNAME":"新北市","TOWNNAME":"永和區","MARKTYPE":"994","Class":"4"},"geometry":{"x":301656.35819999967,"y":2766293.2647999991}},{"attributes":{"OBJECTID":4873,"LANDMARKID":"1000100002080","LANDMARKCO":"405","LANDMARKNA":"中油加油站-永和永利路站(中油直營)","LANDMARKAD":"1000104","ADDRESS":"新北市永和區永利路69號","TEL":"02-29212541","COUNTYNAME":"新北市","TOWNNAME":"永和區","MARKTYPE":"994","Class":"4"},"geometry":{"x":302453.07050000038,"y":2766428.3169}},{"attributes":{"OBJECTID":4874,"LANDMARKID":"1000100001633","LANDMARKCO":"402","LANDMARKNA":"My Phone台灣大哥大-永和福和直營服務中心","LANDMARKAD":"1000104","ADDRESS":"新北市永和區福和路137號","TEL":"0809-000-166","COUNTYNAME":"新北市","TOWNNAME":"永和區","MARKTYPE":"994","Class":"4"},"geometry":{"x":302609.91889999993,"y":2766732.3168000001}},{"attributes":{"OBJECTID":4875,"LANDMARKID":"1000100001634","LANDMARKCO":"402","LANDMARKNA":"亞太行動寬頻電信-永和竹林加盟服務中心","LANDMARKAD":"1000104","ADDRESS":"新北市永和區竹林路99號","TEL":"02-89253917","COUNTYNAME":"新北市","TOWNNAME":"永和區","MARKTYPE":"994","Class":"4"},"geometry":{"x":302462.41480000038,"y":2767216.8742999993}},{"attributes":{"OBJECTID":4876,"LANDMARKID":"1000100001635","LANDMARKCO":"402","LANDMARKNA":"亞太行動寬頻電信-新北市","LANDMARKAD":"1000104","ADDRESS":"新北市永和區永和路二段208號","TEL":" ","COUNTYNAME":"新北市","TOWNNAME":"永和區","MARKTYPE":"994","Class":"4"},"geometry":{"x":302053.03050000034,"y":2767422.2959000003}},{"attributes":{"OBJECTID":4877,"LANDMARKID":"1000100001629","LANDMARKCO":"401","LANDMARKNA":"財團法人天主教耕莘醫院永和分院","LANDMARKAD":"1000104","ADDRESS":"新北市永和區中興街80號","TEL":"02-29251302","COUNTYNAME":"新北市","TOWNNAME":"永和區","MARKTYPE":"994","Class":"4"},"geometry":{"x":302269.32440000027,"y":2767192.5416999999}},{"attributes":{"OBJECTID":4878,"LANDMARKID":"1000100001630","LANDMARKCO":"401","LANDMARKNA":"永和振興醫院","LANDMARKAD":"1000104","ADDRESS":"新北市永和區信義路18號","TEL":"02-29221161","COUNTYNAME":"新北市","TOWNNAME":"永和區","MARKTYPE":"994","Class":"4"},"geometry":{"x":301896.49820000026,"y":2767237.8953000009}},{"attributes":{"OBJECTID":4879,"LANDMARKID":"1000100001631","LANDMARKCO":"401","LANDMARKNA":"永和復康醫院","LANDMARKAD":"1000104","ADDRESS":"新北市永和區中和路577號","TEL":"02-29240925","COUNTYNAME":"新北市","TOWNNAME":"永和區","MARKTYPE":"994","Class":"4"},"geometry":{"x":301679.47279999964,"y":2766307.6699000001}},{"attributes":{"OBJECTID":4880,"LANDMARKID":"1000100001632","LANDMARKCO":"401","LANDMARKNA":"柯瑞祥婦產科醫院","LANDMARKAD":"1000104","ADDRESS":"新北市永和區福和路278號","TEL":"02-29235133","COUNTYNAME":"新北市","TOWNNAME":"永和區","MARKTYPE":"994","Class":"4"},"geometry":{"x":302271.86440000031,"y":2766718.5409999993}},{"attributes":{"OBJECTID":4881,"LANDMARKID":"1000100002620","LANDMARKCO":"507","LANDMARKNA":"永和網溪別墅","LANDMARKAD":"1000104","ADDRESS":"新北市永和區博愛街7號","TEL":" ","COUNTYNAME":"新北市","TOWNNAME":"永和區","MARKTYPE":"995","Class":"5"},"geometry":{"x":302151.3984000003,"y":2767645.4773999993}},{"attributes":{"OBJECTID":4882,"LANDMARKID":"1000100002312","LANDMARKCO":"408","LANDMARKNA":"郵局-永和郵局","LANDMARKAD":"1000104","ADDRESS":"新北市永和區中興街1號","TEL":"(02)2925-2563","COUNTYNAME":"新北市","TOWNNAME":"永和區","MARKTYPE":"994","Class":"4"},"geometry":{"x":302026.49000000022,"y":2767235.4057999998}},{"attributes":{"OBJECTID":4883,"LANDMARKID":"1000100002313","LANDMARKCO":"408","LANDMARKNA":"郵局-永和福和郵局","LANDMARKAD":"1000104","ADDRESS":"新北市永和區福和路154號","TEL":"(02)8928-9702","COUNTYNAME":"新北市","TOWNNAME":"永和區","MARKTYPE":"994","Class":"4"},"geometry":{"x":302658.0307,"y":2766761.1359999999}},{"attributes":{"OBJECTID":4884,"LANDMARKID":"1000100002314","LANDMARKCO":"408","LANDMARKNA":"郵局-永和永貞郵局","LANDMARKAD":"1000104","ADDRESS":"新北市永和區自由街53號","TEL":"(02)2923-3714","COUNTYNAME":"新北市","TOWNNAME":"永和區","MARKTYPE":"994","Class":"4"},"geometry":{"x":301862.03330000024,"y":2766498.9790000003}},{"attributes":{"OBJECTID":4885,"LANDMARKID":"1000100002315","LANDMARKCO":"408","LANDMARKNA":"郵局-永和中正路郵局","LANDMARKAD":"1000104","ADDRESS":"新北市永和區中正路91號","TEL":"(02)8943-3227","COUNTYNAME":"新北市","TOWNNAME":"永和區","MARKTYPE":"994","Class":"4"},"geometry":{"x":302014.15510000009,"y":2765564.4794999994}},{"attributes":{"OBJECTID":4886,"LANDMARKID":"1000100002316","LANDMARKCO":"408","LANDMARKNA":"郵局-永和秀朗郵局","LANDMARKAD":"1000104","ADDRESS":"新北市永和區永亨路178號","TEL":"(02)8660-8859","COUNTYNAME":"新北市","TOWNNAME":"永和區","MARKTYPE":"994","Class":"4"},"geometry":{"x":303074.09970000014,"y":2766163.6982000005}},{"attributes":{"OBJECTID":4887,"LANDMARKID":"1000100002317","LANDMARKCO":"408","LANDMARKNA":"郵局-永和中山路郵局","LANDMARKAD":"1000104","ADDRESS":"新北市永和區中山路1段249號","TEL":"(02)2929-2695","COUNTYNAME":"新北市","TOWNNAME":"永和區","MARKTYPE":"994","Class":"4"},"geometry":{"x":301249.8320000004,"y":2766710.1829000004}},{"attributes":{"OBJECTID":4888,"LANDMARKID":"1000100002318","LANDMARKCO":"408","LANDMARKNA":"郵局-永和永安郵局","LANDMARKAD":"1000104","ADDRESS":"新北市永和區安樂路270號","TEL":"(02)2927-4138","COUNTYNAME":"新北市","TOWNNAME":"永和區","MARKTYPE":"994","Class":"4"},"geometry":{"x":301939.55879999977,"y":2766330.7495000008}},{"attributes":{"OBJECTID":4889,"LANDMARKID":"1000100001864","LANDMARKCO":"404","LANDMARKNA":"台灣自來水北區工程處","LANDMARKAD":"1000104","ADDRESS":"新北市永和區水源街52號","TEL":"02-29282999","COUNTYNAME":"新北市","TOWNNAME":"永和區","MARKTYPE":"994","Class":"4"},"geometry":{"x":301484.68900000025,"y":2766356.3917999994}},{"attributes":{"OBJECTID":4890,"LANDMARKID":"1000100002151","LANDMARKCO":"406","LANDMARKNA":"福和運動公園","LANDMARKAD":"1000104","ADDRESS":"新北市永和區","TEL":" ","COUNTYNAME":"新北市","TOWNNAME":"永和區","MARKTYPE":"994","Class":"4"},"geometry":{"x":303361.40890000015,"y":2766781.1797000002}},{"attributes":{"OBJECTID":4891,"LANDMARKID":"1000100002152","LANDMARKCO":"406","LANDMARKNA":"仁愛公園","LANDMARKAD":"1000104","ADDRESS":"新北市永和區","TEL":" ","COUNTYNAME":"新北市","TOWNNAME":"永和區","MARKTYPE":"994","Class":"4"},"geometry":{"x":301132.33990000002,"y":2767096.8603000008}},{"attributes":{"OBJECTID":4892,"LANDMARKID":"1000100002153","LANDMARKCO":"406","LANDMARKNA":"福和公園","LANDMARKAD":"1000104","ADDRESS":"新北市永和區","TEL":" ","COUNTYNAME":"新北市","TOWNNAME":"永和區","MARKTYPE":"994","Class":"4"},"geometry":{"x":302746.13069999963,"y":2766206.6173999999}},{"attributes":{"OBJECTID":4893,"LANDMARKID":"1000100002154","LANDMARKCO":"406","LANDMARKNA":"中正公園","LANDMARKAD":"1000104","ADDRESS":"新北市永和區","TEL":" ","COUNTYNAME":"新北市","TOWNNAME":"永和區","MARKTYPE":"994","Class":"4"},"geometry":{"x":300990.54229999986,"y":2767521.8084999993}},{"attributes":{"OBJECTID":4894,"LANDMARKID":"1000100002269","LANDMARKCO":"407","LANDMARKNA":"小北百貨","LANDMARKAD":"1000104","ADDRESS":"新北市永和區竹林路21號","TEL":"02-89254638","COUNTYNAME":"新北市","TOWNNAME":"永和區","MARKTYPE":"994","Class":"4"},"geometry":{"x":302180.96679999959,"y":2767532.1187999994}},{"attributes":{"OBJECTID":4895,"LANDMARKID":"1000100002270","LANDMARKCO":"407","LANDMARKNA":"誠品Eslite","LANDMARKAD":"1000104","ADDRESS":"新北市永和區中山路一段238號B1","TEL":"02-8231-5061","COUNTYNAME":"新北市","TOWNNAME":"永和區","MARKTYPE":"994","Class":"4"},"geometry":{"x":301239.92300000042,"y":2766740.7352000009}},{"attributes":{"OBJECTID":4896,"LANDMARKID":"1000100000275","LANDMARKCO":"107","LANDMARKNA":"新北市消防局永和分隊","LANDMARKAD":"1000104","ADDRESS":"新北市永和區警光街1-1號","TEL":"02-29214784","COUNTYNAME":"新北市","TOWNNAME":"永和區","MARKTYPE":"991","Class":"1"},"geometry":{"x":302525.49370000046,"y":2766929.6410000008}},{"attributes":{"OBJECTID":4897,"LANDMARKID":"1000100000082","LANDMARKCO":"103","LANDMARKNA":"新北市永和巿衛生所","LANDMARKAD":"1000104","ADDRESS":"新北市永和區秀朗路一段137號","TEL":"02-32332780","COUNTYNAME":"新北市","TOWNNAME":"永和區","MARKTYPE":"991","Class":"1"},"geometry":{"x":302107.72819999978,"y":2766426.4780000001}},{"attributes":{"OBJECTID":4898,"LANDMARKID":"1000100000420","LANDMARKCO":"108","LANDMARKNA":"新北市永和區公所","LANDMARKAD":"1000104","ADDRESS":"新北市永和區竹林路200號","TEL":"02-29282828","COUNTYNAME":"新北市","TOWNNAME":"永和區","MARKTYPE":"991","Class":"1"},"geometry":{"x":302521.29540000018,"y":2766893.5758999996}},{"attributes":{"OBJECTID":4899,"LANDMARKID":"1000100000083","LANDMARKCO":"103","LANDMARKNA":"新北市永和區市民代表會","LANDMARKAD":"1000104","ADDRESS":"新北市永和區竹林路200號4樓","TEL":"02-29215585","COUNTYNAME":"新北市","TOWNNAME":"永和區","MARKTYPE":"991","Class":"1"},"geometry":{"x":302521.29540000018,"y":2766893.5758999996}},{"attributes":{"OBJECTID":4900,"LANDMARKID":"1000100000269","LANDMARKCO":"107","LANDMARKNA":"新北市消防局永利分隊","LANDMARKAD":"1000104","ADDRESS":"新北市永和區永利路73號2樓","TEL":"02-29280206","COUNTYNAME":"新北市","TOWNNAME":"永和區","MARKTYPE":"991","Class":"1"},"geometry":{"x":302604.05119999964,"y":2766290.1404999997}},{"attributes":{"OBJECTID":4901,"LANDMARKID":"1000100000270","LANDMARKCO":"107","LANDMARKNA":"新北市政府警察局永和分局","LANDMARKAD":"1000104","ADDRESS":"新北市永和區豫溪里竹林路198號","TEL":"02-29213119","COUNTYNAME":"新北市","TOWNNAME":"永和區","MARKTYPE":"991","Class":"1"},"geometry":{"x":302523.46079999954,"y":2766936.3010000009}},{"attributes":{"OBJECTID":4902,"LANDMARKID":"1000100000271","LANDMARKCO":"107","LANDMARKNA":"新北市政府警察局得和派出所","LANDMARKAD":"1000104","ADDRESS":"新北市永和區潭墘里安樂路140號","TEL":"02-29451969","COUNTYNAME":"新北市","TOWNNAME":"永和區","MARKTYPE":"991","Class":"1"},"geometry":{"x":301910.30429999996,"y":2765909.2523999996}},{"attributes":{"OBJECTID":4903,"LANDMARKID":"1000100000272","LANDMARKCO":"107","LANDMARKNA":"新北市政府警察局中正橋派出所","LANDMARKAD":"1000104","ADDRESS":"新北市永和區頂溪里永和路二段303號","TEL":"02-29215119","COUNTYNAME":"新北市","TOWNNAME":"永和區","MARKTYPE":"991","Class":"1"},"geometry":{"x":302059.33229999989,"y":2767690.7885999996}},{"attributes":{"OBJECTID":4904,"LANDMARKID":"1000100000273","LANDMARKCO":"107","LANDMARKNA":"新北市政府警察局秀朗派出所","LANDMARKAD":"1000104","ADDRESS":"新北市永和區秀和里永利路73號","TEL":"02-29251130","COUNTYNAME":"新北市","TOWNNAME":"永和區","MARKTYPE":"991","Class":"1"},"geometry":{"x":302604.05119999964,"y":2766290.1404999997}},{"attributes":{"OBJECTID":4905,"LANDMARKID":"1000100000274","LANDMARKCO":"107","LANDMARKNA":"新北市政府警察局永和派出所","LANDMARKAD":"1000104","ADDRESS":"新北市永和區永安里安樂路344號","TEL":"02-29214229","COUNTYNAME":"新北市","TOWNNAME":"永和區","MARKTYPE":"991","Class":"1"},"geometry":{"x":301934.31379999965,"y":2766566.0388999991}},{"attributes":{"OBJECTID":4906,"LANDMARKID":"1000100000161","LANDMARKCO":"106","LANDMARKNA":"新北市永和區戶政事務所","LANDMARKAD":"1000104","ADDRESS":"新北市永和區竹林路200-1號","TEL":"02-29291276","COUNTYNAME":"新北市","TOWNNAME":"永和區","MARKTYPE":"991","Class":"1"},"geometry":{"x":302493.93510000035,"y":2766865.3707999997}},{"attributes":{"OBJECTID":4907,"LANDMARKID":"1000100000019","LANDMARKCO":"101","LANDMARKNA":"原子能委員會","LANDMARKAD":"1000104","ADDRESS":"新北市永和區成功路一段80號2-8樓","TEL":"02-82317919","COUNTYNAME":"新北市","TOWNNAME":"永和區","MARKTYPE":"991","Class":"1"},"geometry":{"x":303172.12349999975,"y":2766247.4204999991}},{"attributes":{"OBJECTID":4908,"LANDMARKID":"1000100000020","LANDMARKCO":"101","LANDMARKNA":"原子能委員會放射性物料管理局","LANDMARKAD":"1000104","ADDRESS":"新北市永和區成功路一段80號3樓","TEL":"02-82317919","COUNTYNAME":"新北市","TOWNNAME":"永和區","MARKTYPE":"991","Class":"1"},"geometry":{"x":303172.12349999975,"y":2766247.4204999991}},{"attributes":{"OBJECTID":4909,"LANDMARKID":"1000100000293","LANDMARKCO":"107","LANDMARKNA":"新北市政府警察局新生派出所","LANDMARKAD":"1000104","ADDRESS":"234新北市永和區忠義里新生路36號","TEL":"0229217119","COUNTYNAME":"新北市","TOWNNAME":"永和區","MARKTYPE":"991","Class":"1"},"geometry":{"x":301275.93020000029,"y":2767622.0865000002}},{"attributes":{"OBJECTID":4910,"LANDMARKID":"1000100000900","LANDMARKCO":"205","LANDMARKNA":"世界宗教博物館","LANDMARKAD":"1000104","ADDRESS":"新北市永和區中山路一段236號7樓","TEL":"02-82316118","COUNTYNAME":"新北市","TOWNNAME":"永和區","MARKTYPE":"992","Class":"2"},"geometry":{"x":301245.35259999987,"y":2766752.6674000006}},{"attributes":{"OBJECTID":4911,"LANDMARKID":"1000100000917","LANDMARKCO":"207","LANDMARKNA":"楊三郎美術館","LANDMARKAD":"1000104","ADDRESS":"新北市永和區博愛街7號","TEL":" ","COUNTYNAME":"新北市","TOWNNAME":"永和區","MARKTYPE":"992","Class":"2"},"geometry":{"x":302170.04540000018,"y":2767626.6488000005}},{"attributes":{"OBJECTID":4912,"LANDMARKID":"1000100000854","LANDMARKCO":"204","LANDMARKNA":"新北市立圖書館永和分館","LANDMARKAD":"1000104","ADDRESS":"新北市永和區國光路2號","TEL":" ","COUNTYNAME":"新北市","TOWNNAME":"永和區","MARKTYPE":"992","Class":"2"},"geometry":{"x":302514.42540000007,"y":2766825.5692999996}},{"attributes":{"OBJECTID":4913,"LANDMARKID":"1000100000855","LANDMARKCO":"204","LANDMARKNA":"新北市立圖書館永和親子閱覽室","LANDMARKAD":"1000104","ADDRESS":"新北市永和區保安路132號2樓","TEL":" ","COUNTYNAME":"新北市","TOWNNAME":"永和區","MARKTYPE":"992","Class":"2"},"geometry":{"x":301355.44919999968,"y":2767578.6400000006}},{"attributes":{"OBJECTID":4914,"LANDMARKID":"1000100000482","LANDMARKCO":"202","LANDMARKNA":"私立金甌女子高中永和分部","LANDMARKAD":"1000104","ADDRESS":"新北市永和區博愛街36號","TEL":"02-29281514","COUNTYNAME":"新北市","TOWNNAME":"永和區","MARKTYPE":"992","Class":"2"},"geometry":{"x":302411.34109999985,"y":2767624.5776000004}},{"attributes":{"OBJECTID":4915,"LANDMARKID":"1000100000483","LANDMARKCO":"202","LANDMARKNA":"縣立永平中學","LANDMARKAD":"1000104","ADDRESS":"新北市永和區永平路205號","TEL":"02-22319670","COUNTYNAME":"新北市","TOWNNAME":"永和區","MARKTYPE":"992","Class":"2"},"geometry":{"x":301337.66590000037,"y":2767064.6563000008}},{"attributes":{"OBJECTID":4916,"LANDMARKID":"1000100000484","LANDMARKCO":"202","LANDMARKNA":"私立智光商工","LANDMARKAD":"1000104","ADDRESS":"新北市永和區中正路100號","TEL":"02-29432491","COUNTYNAME":"新北市","TOWNNAME":"永和區","MARKTYPE":"992","Class":"2"},"geometry":{"x":301913.49610000011,"y":2765398.1674000006}},{"attributes":{"OBJECTID":4917,"LANDMARKID":"1000100000485","LANDMARKCO":"202","LANDMARKNA":"私立復興商工","LANDMARKAD":"1000104","ADDRESS":"新北市永和區秀朗路一段201號","TEL":"02-29262121","COUNTYNAME":"新北市","TOWNNAME":"永和區","MARKTYPE":"992","Class":"2"},"geometry":{"x":302346.25310000032,"y":2766263.7590999994}},{"attributes":{"OBJECTID":4918,"LANDMARKID":"1000100000649","LANDMARKCO":"203","LANDMARKNA":"縣立福和國中","LANDMARKAD":"1000104","ADDRESS":"新北市永和區永利路71號","TEL":"02-29261836","COUNTYNAME":"新北市","TOWNNAME":"永和區","MARKTYPE":"992","Class":"2"},"geometry":{"x":302574.48259999976,"y":2766320.8926999997}},{"attributes":{"OBJECTID":4919,"LANDMARKID":"1000100000650","LANDMARKCO":"203","LANDMARKNA":"縣立永和國中","LANDMARKAD":"1000104","ADDRESS":"新北市永和區國中路111號","TEL":"02-29214209","COUNTYNAME":"新北市","TOWNNAME":"永和區","MARKTYPE":"992","Class":"2"},"geometry":{"x":302821.93549999967,"y":2766620.0475999992}},{"attributes":{"OBJECTID":4920,"LANDMARKID":"1000100000651","LANDMARKCO":"203","LANDMARKNA":"縣立頂溪國小","LANDMARKAD":"1000104","ADDRESS":"新北市永和區文化路133號","TEL":"02-29212058","COUNTYNAME":"新北市","TOWNNAME":"永和區","MARKTYPE":"992","Class":"2"},"geometry":{"x":301633.54059999995,"y":2767593.6349999998}},{"attributes":{"OBJECTID":4921,"LANDMARKID":"1000100000652","LANDMARKCO":"203","LANDMARKNA":"私立及人國小","LANDMARKAD":"1000104","ADDRESS":"新北市永和區文化路172號","TEL":"02-29212145","COUNTYNAME":"新北市","TOWNNAME":"永和區","MARKTYPE":"992","Class":"2"},"geometry":{"x":301679.5689000003,"y":2767609.9890000001}},{"attributes":{"OBJECTID":4922,"LANDMARKID":"1000100000653","LANDMARKCO":"203","LANDMARKNA":"私立竹林國小","LANDMARKAD":"1000104","ADDRESS":"新北市永和區竹林路34號","TEL":"02-29243919","COUNTYNAME":"新北市","TOWNNAME":"永和區","MARKTYPE":"992","Class":"2"},"geometry":{"x":302211.86450000014,"y":2767482.1269000005}},{"attributes":{"OBJECTID":4923,"LANDMARKID":"1000100000654","LANDMARKCO":"203","LANDMARKNA":"縣立網溪國小","LANDMARKAD":"1000104","ADDRESS":"新北市永和區竹林路79號","TEL":"02-29214470","COUNTYNAME":"新北市","TOWNNAME":"永和區","MARKTYPE":"992","Class":"2"},"geometry":{"x":302417.92650000006,"y":2767309.7714000009}},{"attributes":{"OBJECTID":4924,"LANDMARKID":"1000100000655","LANDMARKCO":"203","LANDMARKNA":"縣立永和國小","LANDMARKAD":"1000104","ADDRESS":"新北市永和區秀朗路一段120號","TEL":"02-29213160","COUNTYNAME":"新北市","TOWNNAME":"永和區","MARKTYPE":"992","Class":"2"},"geometry":{"x":302184.24469999969,"y":2766276.6809}},{"attributes":{"OBJECTID":4925,"LANDMARKID":"1000100000656","LANDMARKCO":"203","LANDMARKNA":"縣立永平國小","LANDMARKAD":"1000104","ADDRESS":"新北市永和區保生路25號","TEL":"02-29293666","COUNTYNAME":"新北市","TOWNNAME":"永和區","MARKTYPE":"992","Class":"2"},"geometry":{"x":301044.8004999999,"y":2766764.9352000002}},{"attributes":{"OBJECTID":4926,"LANDMARKID":"1000100000657","LANDMARKCO":"203","LANDMARKNA":"縣立秀朗國小","LANDMARKAD":"1000104","ADDRESS":"新北市永和區得和路200號","TEL":"02-29420451","COUNTYNAME":"新北市","TOWNNAME":"永和區","MARKTYPE":"992","Class":"2"},"geometry":{"x":302619.80439999979,"y":2765842.9947999995}},{"attributes":{"OBJECTID":4927,"LANDMARKID":"1000100000658","LANDMARKCO":"203","LANDMARKNA":"私立育才國小","LANDMARKAD":"1000104","ADDRESS":"新北市永和區福和路125巷20號","TEL":"02-29214630","COUNTYNAME":"新北市","TOWNNAME":"永和區","MARKTYPE":"992","Class":"2"},"geometry":{"x":302652.65029999986,"y":2766660.0862000007}},{"attributes":{"OBJECTID":4928,"LANDMARKID":"1000100001508","LANDMARKCO":"306","LANDMARKNA":"頂溪捷運站-出口1","LANDMARKAD":"1000104","ADDRESS":" ","TEL":" ","COUNTYNAME":"新北市","TOWNNAME":"永和區","MARKTYPE":"993","Class":"306"},"geometry":{"x":302011.67050000001,"y":2767286.352}},{"attributes":{"OBJECTID":4929,"LANDMARKID":"1000100001509","LANDMARKCO":"306","LANDMARKNA":"頂溪捷運站-出口2","LANDMARKAD":"1000104","ADDRESS":" ","TEL":" ","COUNTYNAME":"新北市","TOWNNAME":"永和區","MARKTYPE":"993","Class":"306"},"geometry":{"x":301992.95949999988,"y":2767381.7906999998}},{"attributes":{"OBJECTID":4930,"LANDMARKID":"1000100001049","LANDMARKCO":"303","LANDMARKNA":"仁愛公園地下停車場","LANDMARKAD":"1000104","ADDRESS":"新北市永和區仁愛路","TEL":" ","COUNTYNAME":"新北市","TOWNNAME":"永和區","MARKTYPE":"993","Class":"303"},"geometry":{"x":301080.19189999998,"y":2766995.6566000003}},{"attributes":{"OBJECTID":4931,"LANDMARKID":"1000100001050","LANDMARKCO":"303","LANDMARKNA":"太平洋百貨停車場","LANDMARKAD":"1000104","ADDRESS":"新北市永和區中山路一段238號","TEL":" ","COUNTYNAME":"新北市","TOWNNAME":"永和區","MARKTYPE":"993","Class":"303"},"geometry":{"x":301222.25019999966,"y":2766735.8026000001}},{"attributes":{"OBJECTID":4932,"LANDMARKID":"1000100001051","LANDMARKCO":"303","LANDMARKNA":"中正河濱公園停車場(一)","LANDMARKAD":"1000104","ADDRESS":" ","TEL":" ","COUNTYNAME":"新北市","TOWNNAME":"永和區","MARKTYPE":"993","Class":"303"},"geometry":{"x":301710.71580000035,"y":2768163.2592999991}},{"attributes":{"OBJECTID":4933,"LANDMARKID":"1000100001052","LANDMARKCO":"303","LANDMARKNA":"中正河濱公園停車場(二)","LANDMARKAD":"1000104","ADDRESS":" ","TEL":" ","COUNTYNAME":"新北市","TOWNNAME":"永和區","MARKTYPE":"993","Class":"303"},"geometry":{"x":301889.51620000042,"y":2768108.6449999996}},{"attributes":{"OBJECTID":4934,"LANDMARKID":"1000100001053","LANDMARKCO":"303","LANDMARKNA":"河堤停車場","LANDMARKAD":"1000104","ADDRESS":"新北市永和區中正橋","TEL":" ","COUNTYNAME":"新北市","TOWNNAME":"永和區","MARKTYPE":"993","Class":"303"},"geometry":{"x":301921.52070000023,"y":2767970.0442999993}},{"attributes":{"OBJECTID":4935,"LANDMARKID":"1000100001054","LANDMARKCO":"303","LANDMARKNA":"中正停車場","LANDMARKAD":"1000104","ADDRESS":"新北市永和區中正橋","TEL":" ","COUNTYNAME":"新北市","TOWNNAME":"永和區","MARKTYPE":"993","Class":"303"},"geometry":{"x":301890.08739999961,"y":2768051.1183000002}},{"attributes":{"OBJECTID":4936,"LANDMARKID":"1000100001055","LANDMARKCO":"303","LANDMARKNA":"華信停車場","LANDMARKAD":"1000104","ADDRESS":"新北市永和區中正橋","TEL":" ","COUNTYNAME":"新北市","TOWNNAME":"永和區","MARKTYPE":"993","Class":"303"},"geometry":{"x":302047.07569999993,"y":2768084.0654000007}},{"attributes":{"OBJECTID":4937,"LANDMARKID":"1000100001056","LANDMARKCO":"303","LANDMARKNA":"永和國小地下停車場","LANDMARKAD":"1000104","ADDRESS":" ","TEL":" ","COUNTYNAME":"新北市","TOWNNAME":"永和區","MARKTYPE":"993","Class":"303"},"geometry":{"x":302219.24230000004,"y":2766091.7256000005}},{"attributes":{"OBJECTID":4938,"LANDMARKID":"1000100001057","LANDMARKCO":"303","LANDMARKNA":"福和國中地下停車場","LANDMARKAD":"1000104","ADDRESS":" ","TEL":" ","COUNTYNAME":"新北市","TOWNNAME":"永和區","MARKTYPE":"993","Class":"303"},"geometry":{"x":302781.5175999999,"y":2766407.1174999997}},{"attributes":{"OBJECTID":4939,"LANDMARKID":"1000100001058","LANDMARKCO":"303","LANDMARKNA":"行政院原子能委員會大樓地下停車場","LANDMARKAD":"1000104","ADDRESS":"新北市永和區","TEL":" ","COUNTYNAME":"新北市","TOWNNAME":"永和區","MARKTYPE":"993","Class":"303"},"geometry":{"x":303118.50100000016,"y":2766208.8226999994}},{"attributes":{"OBJECTID":4940,"LANDMARKID":"1000100001059","LANDMARKCO":"303","LANDMARKNA":"中興嘟嘟房停車場-博客加盟-永安站","LANDMARKAD":"1000104","ADDRESS":"新北市永和區中和路499號B2","TEL":" ","COUNTYNAME":"新北市","TOWNNAME":"永和區","MARKTYPE":"993","Class":"303"},"geometry":{"x":301539.04349999968,"y":2766131.3955000006}},{"attributes":{"OBJECTID":4941,"LANDMARKID":"1000100001060","LANDMARKCO":"303","LANDMARKNA":"中正停車場","LANDMARKAD":"1000104","ADDRESS":"新北市永和區","TEL":" ","COUNTYNAME":"新北市","TOWNNAME":"永和區","MARKTYPE":"993","Class":"303"},"geometry":{"x":302008.22759999987,"y":2767961.4552999996}},{"attributes":{"OBJECTID":4942,"LANDMARKID":"1000100001061","LANDMARKCO":"303","LANDMARKNA":"永和區公有停車場","LANDMARKAD":"1000104","ADDRESS":"新北市永和區","TEL":" ","COUNTYNAME":"新北市","TOWNNAME":"永和區","MARKTYPE":"993","Class":"303"},"geometry":{"x":300934.74370000046,"y":2767113.0033}},{"attributes":{"OBJECTID":4943,"LANDMARKID":"1000100001062","LANDMARKCO":"303","LANDMARKNA":"秀朗國小操場地下停車場","LANDMARKAD":"1000104","ADDRESS":"新北市永和區得和路200號","TEL":" ","COUNTYNAME":"新北市","TOWNNAME":"永和區","MARKTYPE":"993","Class":"303"},"geometry":{"x":302593.44350000005,"y":2765842.3759000003}},{"attributes":{"OBJECTID":4944,"LANDMARKID":"1000100001063","LANDMARKCO":"303","LANDMARKNA":"仁愛公園路外停車場","LANDMARKAD":"1000104","ADDRESS":"新北市永和區","TEL":" ","COUNTYNAME":"新北市","TOWNNAME":"永和區","MARKTYPE":"993","Class":"303"},"geometry":{"x":301153.60659999959,"y":2767051.8546999991}},{"attributes":{"OBJECTID":4945,"LANDMARKID":"1000100001064","LANDMARKCO":"303","LANDMARKNA":"公一公園停車場","LANDMARKAD":"1000104","ADDRESS":"新北市永和區保順里保生路","TEL":" ","COUNTYNAME":"新北市","TOWNNAME":"永和區","MARKTYPE":"993","Class":"303"},"geometry":{"x":300982.28359999973,"y":2767242.9586999994}},{"attributes":{"OBJECTID":4946,"LANDMARKID":"1000100001065","LANDMARKCO":"303","LANDMARKNA":"永和國小地下停車場","LANDMARKAD":"1000104","ADDRESS":"新北市永和區秀朗路一段120號","TEL":" ","COUNTYNAME":"新北市","TOWNNAME":"永和區","MARKTYPE":"993","Class":"303"},"geometry":{"x":302146.01520000026,"y":2766223.1016000006}},{"attributes":{"OBJECTID":4947,"LANDMARKID":"1000100001066","LANDMARKCO":"303","LANDMARKNA":"河提停車場","LANDMARKAD":"1000104","ADDRESS":"新北市永和區環河西路一段臨8號","TEL":" ","COUNTYNAME":"新北市","TOWNNAME":"永和區","MARKTYPE":"993","Class":"303"},"geometry":{"x":301517.88169999979,"y":2767835.7413999997}},{"attributes":{"OBJECTID":4948,"LANDMARKID":"1000100001067","LANDMARKCO":"303","LANDMARKNA":"保生路臨時停車場","LANDMARKAD":"1000104","ADDRESS":"新北市永和區保生路55之2號","TEL":" ","COUNTYNAME":"新北市","TOWNNAME":"永和區","MARKTYPE":"993","Class":"303"},"geometry":{"x":300934.69560000021,"y":2767002.8883999996}},{"attributes":{"OBJECTID":4949,"LANDMARKID":"1000100001068","LANDMARKCO":"303","LANDMARKNA":"常春藤紅厝住宅地下停車場","LANDMARKAD":"1000104","ADDRESS":"新北市永和區永亨路100號B1樓","TEL":" ","COUNTYNAME":"新北市","TOWNNAME":"永和區","MARKTYPE":"993","Class":"303"},"geometry":{"x":302823.01520000026,"y":2766388.9714000002}},{"attributes":{"OBJECTID":4950,"LANDMARKID":"1000100001069","LANDMARKCO":"303","LANDMARKNA":"福和國中操場地下停車場","LANDMARKAD":"1000104","ADDRESS":"新北市永和區永利路71號","TEL":" ","COUNTYNAME":"新北市","TOWNNAME":"永和區","MARKTYPE":"993","Class":"303"},"geometry":{"x":302529.65799999982,"y":2766359.1490000002}},{"attributes":{"OBJECTID":4951,"LANDMARKID":"1000100001070","LANDMARKCO":"303","LANDMARKNA":"Times(普客二四停車場)-永和中山路停車","LANDMARKAD":"1000104","ADDRESS":"永和區中山路一段、保生路口","TEL":" ","COUNTYNAME":"新北市","TOWNNAME":"永和區","MARKTYPE":"993","Class":"303"},"geometry":{"x":301197.92420000024,"y":2766656.8252000008}},{"attributes":{"OBJECTID":4952,"LANDMARKID":"1000100001071","LANDMARKCO":"303","LANDMARKNA":"台灣聯通停車場-永一場","LANDMARKAD":"1000104","ADDRESS":"新北市永和區永和路二段116號B1","TEL":" ","COUNTYNAME":"新北市","TOWNNAME":"永和區","MARKTYPE":"993","Class":"303"},"geometry":{"x":302009.04430000018,"y":2767197.0873000007}},{"attributes":{"OBJECTID":4953,"LANDMARKID":"1000100001636","LANDMARKCO":"402","LANDMARKNA":"中華電信-永和中山特約服務中心","LANDMARKAD":"1000104","ADDRESS":"新北市永和區中山路一段210號","TEL":"02-29232020","COUNTYNAME":"新北市","TOWNNAME":"永和區","MARKTYPE":"994","Class":"4"},"geometry":{"x":301338.12789999973,"y":2766830.8961999994}},{"attributes":{"OBJECTID":4954,"LANDMARKID":"1000100001637","LANDMARKCO":"402","LANDMARKNA":"中華電信-永和中正特約服務中心","LANDMARKAD":"1000104","ADDRESS":"新北市永和區中正路127號","TEL":"02-29417879","COUNTYNAME":"新北市","TOWNNAME":"永和區","MARKTYPE":"994","Class":"4"},"geometry":{"x":302070.2703999998,"y":2765639.2617000006}},{"attributes":{"OBJECTID":4955,"LANDMARKID":"1000100001638","LANDMARKCO":"402","LANDMARKNA":"中華電信-福和服務中心","LANDMARKAD":"1000104","ADDRESS":"新北市永和區永利路322巷29號","TEL":"123或0800-080-123","COUNTYNAME":"新北市","TOWNNAME":"永和區","MARKTYPE":"994","Class":"4"},"geometry":{"x":303019.18460000027,"y":2766185.9111000001}},{"attributes":{"OBJECTID":4956,"LANDMARKID":"1000100001639","LANDMARKCO":"402","LANDMARKNA":"中華電信-雙和服務中心","LANDMARKAD":"1000104","ADDRESS":"新北市永和區國光路8號","TEL":"123或0800-080-123","COUNTYNAME":"新北市","TOWNNAME":"永和區","MARKTYPE":"994","Class":"4"},"geometry":{"x":302423.09949999955,"y":2766825.9620999992}},{"attributes":{"OBJECTID":4957,"LANDMARKID":"1000100001640","LANDMARKCO":"402","LANDMARKNA":"中華電信-永和得和特約服務中心","LANDMARKAD":"1000104","ADDRESS":"新北市永和區得和路393號","TEL":"02-29236033","COUNTYNAME":"新北市","TOWNNAME":"永和區","MARKTYPE":"994","Class":"4"},"geometry":{"x":303029.92370000016,"y":2765810.8740999997}},{"attributes":{"OBJECTID":4958,"LANDMARKID":"1000100001641","LANDMARKCO":"402","LANDMARKNA":"遠傳電信-永和竹林門市","LANDMARKAD":"1000104","ADDRESS":"新北市永和區竹林路222號","TEL":" ","COUNTYNAME":"新北市","TOWNNAME":"永和區","MARKTYPE":"994","Class":"4"},"geometry":{"x":302560.03019999992,"y":2766761.5129000004}},{"attributes":{"OBJECTID":4959,"LANDMARKID":"1000100001642","LANDMARKCO":"402","LANDMARKNA":"遠傳電信-永和門市","LANDMARKAD":"1000104","ADDRESS":"新北市永和區永和路一段55號","TEL":" ","COUNTYNAME":"新北市","TOWNNAME":"永和區","MARKTYPE":"994","Class":"4"},"geometry":{"x":301765.48120000027,"y":2766617.3445999995}},{"attributes":{"OBJECTID":4960,"LANDMARKID":"1000100001643","LANDMARKCO":"402","LANDMARKNA":"威寶電信-永和頂溪直營服務中心","LANDMARKAD":"1000104","ADDRESS":"新北市永和區永和路二段83號","TEL":" ","COUNTYNAME":"新北市","TOWNNAME":"永和區","MARKTYPE":"994","Class":"4"},"geometry":{"x":301953.12569999974,"y":2767139.6845999993}},{"attributes":{"OBJECTID":4961,"LANDMARKID":"1000100001644","LANDMARKCO":"402","LANDMARKNA":"威寶電信-永和竹林特約服務中心","LANDMARKAD":"1000104","ADDRESS":"新北市永和區竹林路117號","TEL":"02-89256822","COUNTYNAME":"新北市","TOWNNAME":"永和區","MARKTYPE":"994","Class":"4"},"geometry":{"x":302479.22670000046,"y":2767167.8140999991}},{"attributes":{"OBJECTID":4962,"LANDMARKID":"1000100001645","LANDMARKCO":"402","LANDMARKNA":"大眾電信(傑昇通信)-永二店","LANDMARKAD":"1000104","ADDRESS":"新北市永和巿中山路一段257號","TEL":"02-89232656","COUNTYNAME":"新北市","TOWNNAME":"永和區","MARKTYPE":"994","Class":"4"},"geometry":{"x":301232.77579999994,"y":2766695.2467999998}},{"attributes":{"OBJECTID":4963,"LANDMARKID":"1000100001646","LANDMARKCO":"402","LANDMARKNA":"大眾電信(傑昇通信)-永一店","LANDMARKAD":"1000104","ADDRESS":"新北市永和巿永和路二段101號","TEL":"02-3233-7373","COUNTYNAME":"新北市","TOWNNAME":"永和區","MARKTYPE":"994","Class":"4"},"geometry":{"x":301961.25090000033,"y":2767172.6537999995}},{"attributes":{"OBJECTID":4964,"LANDMARKID":"1000100001647","LANDMARKCO":"402","LANDMARKNA":"大眾電信(傑昇通信)-永三店","LANDMARKAD":"1000104","ADDRESS":"新北市永和巿永和路二段28號","TEL":"02-22325959","COUNTYNAME":"新北市","TOWNNAME":"永和區","MARKTYPE":"994","Class":"4"},"geometry":{"x":301956.87650000025,"y":2767029.6747999992}},{"attributes":{"OBJECTID":4965,"LANDMARKID":"1000100001648","LANDMARKCO":"402","LANDMARKNA":"大眾電信(震旦通訊)-永和中山店","LANDMARKAD":"1000104","ADDRESS":"新北市永和區中山路一段7號","TEL":"02-89231869","COUNTYNAME":"新北市","TOWNNAME":"永和區","MARKTYPE":"994","Class":"4"},"geometry":{"x":301892.81180000026,"y":2767012.9179999996}},{"attributes":{"OBJECTID":4966,"LANDMARKID":"1000100001649","LANDMARKCO":"402","LANDMARKNA":"大眾電信(震旦通訊)-永和智光店","LANDMARKAD":"1000104","ADDRESS":"新北市永和區中正路74號","TEL":"02-29437331","COUNTYNAME":"新北市","TOWNNAME":"永和區","MARKTYPE":"994","Class":"4"},"geometry":{"x":301857.24830000009,"y":2765325.0151000004}},{"attributes":{"OBJECTID":4967,"LANDMARKID":"1000100001650","LANDMARKCO":"402","LANDMARKNA":"大眾電信-永和專賣店","LANDMARKAD":"1000104","ADDRESS":"新北市永和區中和路437號","TEL":"02-86604680","COUNTYNAME":"新北市","TOWNNAME":"永和區","MARKTYPE":"994","Class":"4"},"geometry":{"x":301430.43900000025,"y":2765990.5625999998}},{"attributes":{"OBJECTID":4968,"LANDMARKID":"1000100001651","LANDMARKCO":"402","LANDMARKNA":"大眾電信(震旦通訊)-永和永和三店","LANDMARKAD":"1000104","ADDRESS":"新北市永和區永和路二段116號","TEL":"02-89218009","COUNTYNAME":"新北市","TOWNNAME":"永和區","MARKTYPE":"994","Class":"4"},"geometry":{"x":302001.40259999968,"y":2767212.5011999998}},{"attributes":{"OBJECTID":4969,"LANDMARKID":"1000100001652","LANDMARKCO":"402","LANDMARKNA":"大眾電信-台北永貞專賣店","LANDMARKAD":"1000104","ADDRESS":"新北市永和區永貞路160號","TEL":"0966-698831","COUNTYNAME":"新北市","TOWNNAME":"永和區","MARKTYPE":"994","Class":"4"},"geometry":{"x":302244.71030000038,"y":2766370.6535999998}},{"attributes":{"OBJECTID":4970,"LANDMARKID":"1000100002798","LANDMARKCO":"603","LANDMARKNA":"鴻嘉旅社","LANDMARKAD":"1000104","ADDRESS":"新北市永和區自強路8巷2號","TEL":"02-29234288","COUNTYNAME":"新北市","TOWNNAME":"永和區","MARKTYPE":"996","Class":"6"},"geometry":{"x":301946.37980000023,"y":2766742.1761000007}},{"attributes":{"OBJECTID":4971,"LANDMARKID":"1000100002799","LANDMARKCO":"603","LANDMARKNA":"星達賓館","LANDMARKAD":"1000104","ADDRESS":"新北市永和區中正路680巷1號3至4樓","TEL":"02-29225835","COUNTYNAME":"新北市","TOWNNAME":"永和區","MARKTYPE":"996","Class":"6"},"geometry":{"x":302166.66469999962,"y":2766910.7184999995}},{"attributes":{"OBJECTID":4972,"LANDMARKID":"1000100002800","LANDMARKCO":"603","LANDMARKNA":"御庭汽車旅館","LANDMARKAD":"1000104","ADDRESS":"新北市永和區保順路27號","TEL":"02-22323103","COUNTYNAME":"新北市","TOWNNAME":"永和區","MARKTYPE":"996","Class":"6"},"geometry":{"x":300829.56850000005,"y":2767008.9001000002}},{"attributes":{"OBJECTID":4973,"LANDMARKID":"1000100002801","LANDMARKCO":"603","LANDMARKNA":"愛摩兒時尚旅館","LANDMARKAD":"1000104","ADDRESS":"新北市永和區仁愛路316號","TEL":"02-89217721","COUNTYNAME":"新北市","TOWNNAME":"永和區","MARKTYPE":"996","Class":"6"},"geometry":{"x":300703.02520000003,"y":2766749.7809999995}},{"attributes":{"OBJECTID":4974,"LANDMARKID":"1000100002802","LANDMARKCO":"603","LANDMARKNA":"柯達大飯店(永和店)","LANDMARKAD":"1000104","ADDRESS":"新北市永和區永和路1段103號","TEL":"02-29239999","COUNTYNAME":"新北市","TOWNNAME":"永和區","MARKTYPE":"996","Class":"6"},"geometry":{"x":301851.92420000024,"y":2766734.0172000006}},{"attributes":{"OBJECTID":4975,"LANDMARKID":"1000100002803","LANDMARKCO":"603","LANDMARKNA":"千代賓館","LANDMARKAD":"1000104","ADDRESS":"新北市永和區永和路1段23號1至3樓","TEL":"02-29212510","COUNTYNAME":"新北市","TOWNNAME":"永和區","MARKTYPE":"996","Class":"6"},"geometry":{"x":301769.12540000025,"y":2766523.3308000006}},{"attributes":{"OBJECTID":4976,"LANDMARKID":"1000100002804","LANDMARKCO":"603","LANDMARKNA":"新中信賓館","LANDMARKAD":"1000104","ADDRESS":"新北市永和區竹林路41號7至9樓","TEL":"02-29291824","COUNTYNAME":"新北市","TOWNNAME":"永和區","MARKTYPE":"996","Class":"6"},"geometry":{"x":302276.11149999965,"y":2767444.5155999996}},{"attributes":{"OBJECTID":4977,"LANDMARKID":"1000100002805","LANDMARKCO":"603","LANDMARKNA":"風雅頌精品汽車旅館","LANDMARKAD":"1000104","ADDRESS":"新北市永和區竹林路70號1至4樓","TEL":"02-29251665","COUNTYNAME":"新北市","TOWNNAME":"永和區","MARKTYPE":"996","Class":"6"},"geometry":{"x":302361.83279999997,"y":2767325.1921999995}},{"attributes":{"OBJECTID":4978,"LANDMARKID":"1000100002806","LANDMARKCO":"603","LANDMARKNA":"香香大旅社","LANDMARKAD":"1000104","ADDRESS":"新北市永和區竹林路73號5及8樓","TEL":"02-29229911","COUNTYNAME":"新北市","TOWNNAME":"永和區","MARKTYPE":"996","Class":"6"},"geometry":{"x":302360.97829999961,"y":2767363.1953999996}},{"attributes":{"OBJECTID":4979,"LANDMARKID":"1000100002807","LANDMARKCO":"603","LANDMARKNA":"龍鳳大旅社","LANDMARKAD":"1000104","ADDRESS":"新北市永和區復興街1巷2號","TEL":"02-29212771","COUNTYNAME":"新北市","TOWNNAME":"永和區","MARKTYPE":"996","Class":"6"},"geometry":{"x":302049.79810000025,"y":2767316.3170999996}},{"attributes":{"OBJECTID":4980,"LANDMARKID":"1000100002808","LANDMARKCO":"603","LANDMARKNA":"嘉家賓館","LANDMARKAD":"1000104","ADDRESS":"新北市永和區福和路292號5樓(含5樓之1)至6樓及294號5","TEL":"02-29297029","COUNTYNAME":"新北市","TOWNNAME":"永和區","MARKTYPE":"996","Class":"6"},"geometry":{"x":302221.8376000002,"y":2766711.7364000008}},{"attributes":{"OBJECTID":4981,"LANDMARKID":"1000100002809","LANDMARKCO":"603","LANDMARKNA":"青獅大飯店","LANDMARKAD":"1000104","ADDRESS":"新北市永和區中山路1段51號4至6樓","TEL":"02-29284435","COUNTYNAME":"新北市","TOWNNAME":"永和區","MARKTYPE":"996","Class":"6"},"geometry":{"x":301774.91770000011,"y":2767040.3044000007}},{"attributes":{"OBJECTID":4982,"LANDMARKID":"1000100002709","LANDMARKCO":"511","LANDMARKNA":"樂華夜市","LANDMARKAD":"1000104","ADDRESS":"新北市永和區","TEL":" ","COUNTYNAME":"新北市","TOWNNAME":"永和區","MARKTYPE":"995","Class":"5"},"geometry":{"x":301776.2117999997,"y":2766838.4578000009}},{"attributes":{"OBJECTID":4983,"LANDMARKID":"1000100002710","LANDMARKCO":"511","LANDMARKNA":"永和夜市","LANDMARKAD":"1000104","ADDRESS":"新北市永和區","TEL":" ","COUNTYNAME":"新北市","TOWNNAME":"永和區","MARKTYPE":"995","Class":"5"},"geometry":{"x":302000.49029999971,"y":2767542.4373000003}},{"attributes":{"OBJECTID":4984,"LANDMARKID":"1000100002085","LANDMARKCO":"405","LANDMARKNA":"台灣優力加油站-遠東站(中油)","LANDMARKAD":"1000101","ADDRESS":"新北市板橋區四川路二段橋頭6號","TEL":"02-89673985","COUNTYNAME":"新北市","TOWNNAME":"板橋區","MARKTYPE":"994","Class":"4"},"geometry":{"x":296093.22950000037,"y":2765495.5353999995}},{"attributes":{"OBJECTID":4985,"LANDMARKID":"1000100002086","LANDMARKCO":"405","LANDMARKNA":"中油加油站-中華三民站","LANDMARKAD":"1000101","ADDRESS":"新北市板橋區三民路一段129-2號","TEL":"02-8951-2658","COUNTYNAME":"新北市","TOWNNAME":"板橋區","MARKTYPE":"994","Class":"4"},"geometry":{"x":298389.30860000011,"y":2768159.5285}},{"attributes":{"OBJECTID":4986,"LANDMARKID":"1000100002087","LANDMARKCO":"405","LANDMARKNA":"中油加油站-埔墘站(中油直營)","LANDMARKAD":"1000101","ADDRESS":"新北市板橋區中山路二段320號","TEL":"02-29553436","COUNTYNAME":"新北市","TOWNNAME":"板橋區","MARKTYPE":"994","Class":"4"},"geometry":{"x":298542.0708999997,"y":2768005.9796999991}},{"attributes":{"OBJECTID":4987,"LANDMARKID":"1000100002088","LANDMARKCO":"405","LANDMARKNA":"中油加油站-光仁站","LANDMARKAD":"1000101","ADDRESS":"新北市板橋區三民路一段106號","TEL":"02-89530336","COUNTYNAME":"新北市","TOWNNAME":"板橋區","MARKTYPE":"994","Class":"4"},"geometry":{"x":298336.74540000036,"y":2768200.2166000009}},{"attributes":{"OBJECTID":4988,"LANDMARKID":"1000100002089","LANDMARKCO":"405","LANDMARKNA":"中油加油站-北基新海站","LANDMARKAD":"1000101","ADDRESS":"新北市板橋區新海路137號","TEL":"02-22568588","COUNTYNAME":"新北市","TOWNNAME":"板橋區","MARKTYPE":"994","Class":"4"},"geometry":{"x":296488.08729999978,"y":2768444.4202999994}},{"attributes":{"OBJECTID":4989,"LANDMARKID":"1000100002090","LANDMARKCO":"405","LANDMARKNA":"中油加油站-民生陸橋東站(中油直營)","LANDMARKAD":"1000101","ADDRESS":"新北市板橋區民生路二段臨56-1號","TEL":"02-29542603","COUNTYNAME":"新北市","TOWNNAME":"板橋區","MARKTYPE":"994","Class":"4"},"geometry":{"x":297658.24670000002,"y":2767670.7821999993}},{"attributes":{"OBJECTID":4990,"LANDMARKID":"1000100002091","LANDMARKCO":"405","LANDMARKNA":"中油加油站-民生陸橋西站(中油直營)","LANDMARKAD":"1000101","ADDRESS":"新北市板橋區民生路二段臨89-6號","TEL":"02-22582349","COUNTYNAME":"新北市","TOWNNAME":"板橋區","MARKTYPE":"994","Class":"4"},"geometry":{"x":297644.30229999963,"y":2767699.7935000006}},{"attributes":{"OBJECTID":4991,"LANDMARKID":"1000100002092","LANDMARKCO":"405","LANDMARKNA":"中油加油站-正隆站","LANDMARKAD":"1000101","ADDRESS":"新北市板橋區三民路二段257號","TEL":"02-29529260","COUNTYNAME":"新北市","TOWNNAME":"板橋區","MARKTYPE":"994","Class":"4"},"geometry":{"x":298371.95689999964,"y":2767151.2712999992}},{"attributes":{"OBJECTID":4992,"LANDMARKID":"1000100002093","LANDMARKCO":"405","LANDMARKNA":"中油加油站-板橋民族路站(刷卡自助)(中油直營)","LANDMARKAD":"1000101","ADDRESS":"新北市板橋區民族路90號","TEL":"02-29536247","COUNTYNAME":"新北市","TOWNNAME":"板橋區","MARKTYPE":"994","Class":"4"},"geometry":{"x":296775.84779999964,"y":2766870.7193999998}},{"attributes":{"OBJECTID":4993,"LANDMARKID":"1000100001674","LANDMARKCO":"402","LANDMARKNA":"My Phone台灣大哥大-板橋新站直營服務中心","LANDMARKAD":"1000101","ADDRESS":"新北市板橋區文化路一段112號","TEL":" ","COUNTYNAME":"新北市","TOWNNAME":"板橋區","MARKTYPE":"994","Class":"4"},"geometry":{"x":296921.62079999968,"y":2767884.6524999999}},{"attributes":{"OBJECTID":4994,"LANDMARKID":"1000100001675","LANDMARKCO":"402","LANDMARKNA":"My Phone台灣大哥大-板橋民族直營服務中心","LANDMARKAD":"1000101","ADDRESS":"新北市板橋區民族路33號","TEL":" ","COUNTYNAME":"新北市","TOWNNAME":"板橋區","MARKTYPE":"994","Class":"4"},"geometry":{"x":296657.53839999996,"y":2766937.6098999996}},{"attributes":{"OBJECTID":4995,"LANDMARKID":"1000100001676","LANDMARKCO":"402","LANDMARKNA":"亞太行動寬頻電信-板橋四川加盟服務中心","LANDMARKAD":"1000101","ADDRESS":"新北市板橋區四川路1段223號","TEL":"02-29617026","COUNTYNAME":"新北市","TOWNNAME":"板橋區","MARKTYPE":"994","Class":"4"},"geometry":{"x":296443.16280000005,"y":2766211.3956000004}},{"attributes":{"OBJECTID":4996,"LANDMARKID":"1000100001677","LANDMARKCO":"402","LANDMARKNA":"亞太行動寬頻電信-板橋南雅南加盟服務中心","LANDMARKAD":"1000101","ADDRESS":"新北市板橋區南雅南路一段64號","TEL":"02-29657868","COUNTYNAME":"新北市","TOWNNAME":"板橋區","MARKTYPE":"994","Class":"4"},"geometry":{"x":295965.95930000022,"y":2766447.1224000007}},{"attributes":{"OBJECTID":4997,"LANDMARKID":"1000100001678","LANDMARKCO":"402","LANDMARKNA":"亞太行動寬頻電信-板橋雙十加盟服務中心","LANDMARKAD":"1000101","ADDRESS":"新北市板橋區雙十路2段57號","TEL":"02-82596063","COUNTYNAME":"新北市","TOWNNAME":"板橋區","MARKTYPE":"994","Class":"4"},"geometry":{"x":298074.57980000041,"y":2768795.5218000002}},{"attributes":{"OBJECTID":4998,"LANDMARKID":"1000100001679","LANDMARKCO":"402","LANDMARKNA":"亞太行動寬頻電信-板橋篤行加盟服務中心","LANDMARKAD":"1000101","ADDRESS":"新北市板橋區篤行路3段76號","TEL":"02-26751355","COUNTYNAME":"新北市","TOWNNAME":"板橋區","MARKTYPE":"994","Class":"4"},"geometry":{"x":293088.68499999959,"y":2764216.4294000007}},{"attributes":{"OBJECTID":4999,"LANDMARKID":"1000100001680","LANDMARKCO":"402","LANDMARKNA":"亞太行動寬頻電信-板橋中山加盟服務中心","LANDMARKAD":"1000101","ADDRESS":"新北市板橋區中山路1段123號","TEL":"02-29643131","COUNTYNAME":"新北市","TOWNNAME":"板橋區","MARKTYPE":"994","Class":"4"},"geometry":{"x":296648.79079999961,"y":2767011.6397999991}},{"attributes":{"OBJECTID":5000,"LANDMARKID":"1000100001681","LANDMARKCO":"402","LANDMARKNA":"亞太行動寬頻電信-新北市","LANDMARKAD":"1000101","ADDRESS":"新北市板橋區文化路一段289號","TEL":" ","COUNTYNAME":"新北市","TOWNNAME":"板橋區","MARKTYPE":"994","Class":"4"},"geometry":{"x":296919.8060999997,"y":2767938.6587000005}}]}