{"displayFieldName":"COUNTYNAME","fieldAliases":{"OBJECTID":"OBJECTID","LANDMARKID":"LANDMARKID","LANDMARKCO":"LANDMARKCO","LANDMARKNA":"LANDMARKNA","LANDMARKAD":"LANDMARKAD","ADDRESS":"ADDRESS","TEL":"TEL","COUNTYNAME":"COUNTYNAME","TOWNNAME":"TOWNNAME","MARKTYPE":"MARKTYPE","Class":"Class"},"geometryType":"esriGeometryPoint","spatialReference":{"wkid":102443},"fields":[{"name":"OBJECTID","type":"esriFieldTypeOID","alias":"OBJECTID"},{"name":"LANDMARKID","type":"esriFieldTypeString","alias":"LANDMARKID","length":15},{"name":"LANDMARKCO","type":"esriFieldTypeString","alias":"LANDMARKCO","length":15},{"name":"LANDMARKNA","type":"esriFieldTypeString","alias":"LANDMARKNA","length":50},{"name":"LANDMARKAD","type":"esriFieldTypeString","alias":"LANDMARKAD","length":15},{"name":"ADDRESS","type":"esriFieldTypeString","alias":"ADDRESS","length":56},{"name":"TEL","type":"esriFieldTypeString","alias":"TEL","length":36},{"name":"COUNTYNAME","type":"esriFieldTypeString","alias":"COUNTYNAME","length":15},{"name":"TOWNNAME","type":"esriFieldTypeString","alias":"TOWNNAME","length":13},{"name":"MARKTYPE","type":"esriFieldTypeString","alias":"MARKTYPE","length":12},{"name":"Class","type":"esriFieldTypeString","alias":"Class","length":5}],"features":[{"attributes":{"OBJECTID":6001,"LANDMARKID":"1000100002012","LANDMARKCO":"405","LANDMARKNA":"台亞加油站-碧潭站（台塑）","LANDMARKAD":"1000106","ADDRESS":"新北市新店區安康路一段35號","TEL":"(02)2212-3127","COUNTYNAME":"新北市","TOWNNAME":"新店區","MARKTYPE":"994","Class":"4"},"geometry":{"x":303654.94959999993,"y":2761537.4299999997}},{"attributes":{"OBJECTID":6002,"LANDMARKID":"1000100002013","LANDMARKCO":"405","LANDMARKNA":"全國加油站-安和站(台塑)","LANDMARKAD":"1000106","ADDRESS":"新北市新店區安和路二段121號","TEL":"0927-811818","COUNTYNAME":"新北市","TOWNNAME":"新店區","MARKTYPE":"994","Class":"4"},"geometry":{"x":302458.55300000031,"y":2762894.2465000004}},{"attributes":{"OBJECTID":6003,"LANDMARKID":"1000100000041","LANDMARKCO":"101","LANDMARKNA":"國史館","LANDMARKAD":"1000106","ADDRESS":"新北市新店區北宜路二段406號","TEL":"02-22175500","COUNTYNAME":"新北市","TOWNNAME":"新店區","MARKTYPE":"991","Class":"1"},"geometry":{"x":307388.91189999972,"y":2760888.9387999997}},{"attributes":{"OBJECTID":6004,"LANDMARKID":"1000100000054","LANDMARKCO":"103","LANDMARKNA":"新北市新店巿衛生所","LANDMARKAD":"1000106","ADDRESS":"新北市新店區北新路一段88巷11號","TEL":"02-29113984","COUNTYNAME":"新北市","TOWNNAME":"新店區","MARKTYPE":"991","Class":"1"},"geometry":{"x":304827.27859999985,"y":2762261.9915999994}},{"attributes":{"OBJECTID":6005,"LANDMARKID":"1000100000428","LANDMARKCO":"108","LANDMARKNA":"新北市新店區公所","LANDMARKAD":"1000106","ADDRESS":"新北市新店區北新路一段80號","TEL":"02-29112281","COUNTYNAME":"新北市","TOWNNAME":"新店區","MARKTYPE":"991","Class":"1"},"geometry":{"x":304679.72279999964,"y":2762262.8336999994}},{"attributes":{"OBJECTID":6006,"LANDMARKID":"1000100000053","LANDMARKCO":"103","LANDMARKNA":"新北市新店區市民代表會","LANDMARKAD":"1000106","ADDRESS":"新北市新店區北新路一段80號3樓","TEL":"02-29111884","COUNTYNAME":"新北市","TOWNNAME":"新店區","MARKTYPE":"991","Class":"1"},"geometry":{"x":304679.72279999964,"y":2762262.8336999994}},{"attributes":{"OBJECTID":6007,"LANDMARKID":"1000100000040","LANDMARKCO":"101","LANDMARKNA":"經濟部水利署新店辦公室","LANDMARKAD":"1000106","ADDRESS":"新北市新店區安和路三段76號","TEL":"02-89415026","COUNTYNAME":"新北市","TOWNNAME":"新店區","MARKTYPE":"991","Class":"1"},"geometry":{"x":302291.9243999999,"y":2764075.8725000005}},{"attributes":{"OBJECTID":6008,"LANDMARKID":"1000100000204","LANDMARKCO":"107","LANDMARKNA":"新北市消防局新店分隊","LANDMARKAD":"1000106","ADDRESS":"新北市新店區行政街2號","TEL":"02-29117947","COUNTYNAME":"新北市","TOWNNAME":"新店區","MARKTYPE":"991","Class":"1"},"geometry":{"x":304733.03419999965,"y":2762248.8747000005}},{"attributes":{"OBJECTID":6009,"LANDMARKID":"1000100000205","LANDMARKCO":"107","LANDMARKNA":"新北市消防局直潭分隊","LANDMARKAD":"1000106","ADDRESS":"新北市新店區直潭十街25號","TEL":"02-26660170","COUNTYNAME":"新北市","TOWNNAME":"新店區","MARKTYPE":"991","Class":"1"},"geometry":{"x":303961.77049999963,"y":2759081.1674000006}},{"attributes":{"OBJECTID":6010,"LANDMARKID":"1000100000206","LANDMARKCO":"107","LANDMARKNA":"新北市消防局安康分隊","LANDMARKAD":"1000106","ADDRESS":"新北市新店區安康路三段2號2樓","TEL":"02-22141860","COUNTYNAME":"新北市","TOWNNAME":"新店區","MARKTYPE":"991","Class":"1"},"geometry":{"x":299857.83719999995,"y":2760752.9245999996}},{"attributes":{"OBJECTID":6011,"LANDMARKID":"1000100000207","LANDMARKCO":"107","LANDMARKNA":"新北市政府警察局新店分局","LANDMARKAD":"1000106","ADDRESS":"新北市新店區五峰里北新路一段86號","TEL":"02-29111170","COUNTYNAME":"新北市","TOWNNAME":"新店區","MARKTYPE":"991","Class":"1"},"geometry":{"x":304692.21910000034,"y":2762297.8532999996}},{"attributes":{"OBJECTID":6012,"LANDMARKID":"1000100000208","LANDMARKCO":"107","LANDMARKNA":"新北市政府警察局龜山派出所","LANDMARKAD":"1000106","ADDRESS":"新北市新店區龜山里新烏路三段152號","TEL":"02-26667560","COUNTYNAME":"新北市","TOWNNAME":"新店區","MARKTYPE":"991","Class":"1"},"geometry":{"x":305741.09009999968,"y":2755096.8178000003}},{"attributes":{"OBJECTID":6013,"LANDMARKID":"1000100000209","LANDMARKCO":"107","LANDMARKNA":"新北市政府警察局雙城派出所","LANDMARKAD":"1000106","ADDRESS":"新北市新店區雙城里安康路三段209號","TEL":"02-22159265","COUNTYNAME":"新北市","TOWNNAME":"新店區","MARKTYPE":"991","Class":"1"},"geometry":{"x":299259.90390000027,"y":2760516.2577999998}},{"attributes":{"OBJECTID":6014,"LANDMARKID":"1000100000210","LANDMARKCO":"107","LANDMARKNA":"新北市政府警察局屈尺派出所","LANDMARKAD":"1000106","ADDRESS":"新北市新店區屈尺里屈尺路95號","TEL":"02-26667439","COUNTYNAME":"新北市","TOWNNAME":"新店區","MARKTYPE":"991","Class":"1"},"geometry":{"x":305098.13360000029,"y":2757388.3417000007}},{"attributes":{"OBJECTID":6015,"LANDMARKID":"1000100000211","LANDMARKCO":"107","LANDMARKNA":"新北市政府警察局青潭派出所","LANDMARKAD":"1000106","ADDRESS":"新北市新店區員潭里北宜路二段417號","TEL":"02-22171146","COUNTYNAME":"新北市","TOWNNAME":"新店區","MARKTYPE":"991","Class":"1"},"geometry":{"x":306546.46850000042,"y":2760862.2562000006}},{"attributes":{"OBJECTID":6016,"LANDMARKID":"1000100000212","LANDMARKCO":"107","LANDMARKNA":"新北市政府警察局安康派出所","LANDMARKAD":"1000106","ADDRESS":"新北市新店區公崙里安康路二段70號","TEL":"02-22121173","COUNTYNAME":"新北市","TOWNNAME":"新店區","MARKTYPE":"991","Class":"1"},"geometry":{"x":301953.62239999976,"y":2761852.8039999995}},{"attributes":{"OBJECTID":6017,"LANDMARKID":"1000100000213","LANDMARKCO":"107","LANDMARKNA":"新北市政府警察局頂城派出所","LANDMARKAD":"1000106","ADDRESS":"新北市新店區太平里碧潭路75號2樓","TEL":"02-22118023","COUNTYNAME":"新北市","TOWNNAME":"新店區","MARKTYPE":"991","Class":"1"},"geometry":{"x":303957.1671000002,"y":2761121.1988999993}},{"attributes":{"OBJECTID":6018,"LANDMARKID":"1000100000214","LANDMARKCO":"107","LANDMARKNA":"新北市政府警察局直潭派出所","LANDMARKAD":"1000106","ADDRESS":"新北市新店區直潭里直潭十街27號","TEL":"02-26667324","COUNTYNAME":"新北市","TOWNNAME":"新店區","MARKTYPE":"991","Class":"1"},"geometry":{"x":303985.0223000003,"y":2759073.0061000008}},{"attributes":{"OBJECTID":6019,"LANDMARKID":"1000100000215","LANDMARKCO":"107","LANDMARKNA":"新北市政府警察局江陵派出所","LANDMARKAD":"1000106","ADDRESS":"新北市新店區明德里北新路二段183號","TEL":"02-29112165","COUNTYNAME":"新北市","TOWNNAME":"新店區","MARKTYPE":"991","Class":"1"},"geometry":{"x":304783.89969999995,"y":2763390.4100000001}},{"attributes":{"OBJECTID":6020,"LANDMARKID":"1000100000216","LANDMARKCO":"107","LANDMARKNA":"新北市政府警察局碧潭派出所","LANDMARKAD":"1000106","ADDRESS":"新北市新店區新生里北新路一段129號","TEL":"02-29171178","COUNTYNAME":"新北市","TOWNNAME":"新店區","MARKTYPE":"991","Class":"1"},"geometry":{"x":304464.25690000039,"y":2761768.4989999998}},{"attributes":{"OBJECTID":6021,"LANDMARKID":"1000100000168","LANDMARKCO":"106","LANDMARKNA":"新北市新店區戶政事務所","LANDMARKAD":"1000106","ADDRESS":"新北市新店區中興里7鄰行政街2號2樓","TEL":"02-29147675","COUNTYNAME":"新北市","TOWNNAME":"新店區","MARKTYPE":"991","Class":"1"},"geometry":{"x":304733.03419999965,"y":2762248.8747000005}},{"attributes":{"OBJECTID":6022,"LANDMARKID":"1000100000132","LANDMARKCO":"105","LANDMARKNA":"新北市新店地政事務所","LANDMARKAD":"1000106","ADDRESS":"新北市新店區行政街8號","TEL":"02-29172969","COUNTYNAME":"新北市","TOWNNAME":"新店區","MARKTYPE":"991","Class":"1"},"geometry":{"x":304764.39140000008,"y":2762216.7346999999}},{"attributes":{"OBJECTID":6023,"LANDMARKID":"1000100000042","LANDMARKCO":"101","LANDMARKNA":"法務部調查局","LANDMARKAD":"1000106","ADDRESS":"新北市新店區中華路74號","TEL":"02-29188888","COUNTYNAME":"新北市","TOWNNAME":"新店區","MARKTYPE":"991","Class":"1"},"geometry":{"x":304398.67009999976,"y":2762543.2506000008}},{"attributes":{"OBJECTID":6024,"LANDMARKID":"1000100000131","LANDMARKCO":"104","LANDMARKNA":"北區國稅局新店稽徵所第一辦公","LANDMARKAD":"1000106","ADDRESS":"新北市新店區行政街11號","TEL":"02-29161202","COUNTYNAME":"新北市","TOWNNAME":"新店區","MARKTYPE":"991","Class":"1"},"geometry":{"x":304768.73770000041,"y":2762245.0273000002}},{"attributes":{"OBJECTID":6025,"LANDMARKID":"1000100000043","LANDMARKCO":"101","LANDMARKNA":"台灣板橋地方法院新店簡易庭","LANDMARKAD":"1000106","ADDRESS":"新北市新店區中興路一段248號","TEL":"02-89193866","COUNTYNAME":"新北市","TOWNNAME":"新店區","MARKTYPE":"991","Class":"1"},"geometry":{"x":304973.34399999958,"y":2762150.1859000009}},{"attributes":{"OBJECTID":6026,"LANDMARKID":"1000100000044","LANDMARKCO":"101","LANDMARKNA":"台北翡翠水庫管理局","LANDMARKAD":"1000106","ADDRESS":"新北市新店區新烏路三段43號","TEL":"02-26667811","COUNTYNAME":"新北市","TOWNNAME":"新店區","MARKTYPE":"991","Class":"1"},"geometry":{"x":305986.87530000042,"y":2755336.2673000004}},{"attributes":{"OBJECTID":6027,"LANDMARKID":"1000100000045","LANDMARKCO":"101","LANDMARKNA":"調查局幹部訓練所","LANDMARKAD":"1000106","ADDRESS":"新北市新店區北宜路二段295號","TEL":"02-22173412","COUNTYNAME":"新北市","TOWNNAME":"新店區","MARKTYPE":"991","Class":"1"},"geometry":{"x":306195.97900000028,"y":2760785.7865999993}},{"attributes":{"OBJECTID":6028,"LANDMARKID":"1000100000046","LANDMARKCO":"101","LANDMARKNA":"行政院主計處人員訓練中心","LANDMARKAD":"1000106","ADDRESS":"新北市新店區新烏路二段126號","TEL":"02-26665520","COUNTYNAME":"新北市","TOWNNAME":"新店區","MARKTYPE":"991","Class":"1"},"geometry":{"x":305486.70150000043,"y":2757125.5133999996}},{"attributes":{"OBJECTID":6029,"LANDMARKID":"1000100000219","LANDMARKCO":"107","LANDMARKNA":"新北市警察局直潭派出所","LANDMARKAD":"1000106","ADDRESS":"新北市新店區直潭里直潭十街27號","TEL":"02-26667324","COUNTYNAME":"新北市","TOWNNAME":"新店區","MARKTYPE":"991","Class":"1"},"geometry":{"x":303985.0223000003,"y":2759073.0061000008}},{"attributes":{"OBJECTID":6030,"LANDMARKID":"1000100000047","LANDMARKCO":"101","LANDMARKNA":"家庭暴力及性侵害防治委員會","LANDMARKAD":"1000106","ADDRESS":"新北市新店區北新路三段200號12樓","TEL":"02-89127331","COUNTYNAME":"新北市","TOWNNAME":"新店區","MARKTYPE":"991","Class":"1"},"geometry":{"x":304670.97039999999,"y":2764085.8780000005}},{"attributes":{"OBJECTID":6031,"LANDMARKID":"1000100000048","LANDMARKCO":"101","LANDMARKNA":"內政部空中勤務總隊","LANDMARKAD":"1000106","ADDRESS":"新北市新店區北新路三段200號10樓","TEL":"02-89111100","COUNTYNAME":"新北市","TOWNNAME":"新店區","MARKTYPE":"991","Class":"1"},"geometry":{"x":304670.97039999999,"y":2764085.8780000005}},{"attributes":{"OBJECTID":6032,"LANDMARKID":"1000100000217","LANDMARKCO":"107","LANDMARKNA":"內政部消防署","LANDMARKAD":"1000106","ADDRESS":"新北市新店區北新路三段200號8F","TEL":"02-8195-9119","COUNTYNAME":"新北市","TOWNNAME":"新店區","MARKTYPE":"991","Class":"1"},"geometry":{"x":304670.97039999999,"y":2764085.8780000005}},{"attributes":{"OBJECTID":6033,"LANDMARKID":"1000100000218","LANDMARKCO":"107","LANDMARKNA":"新北市消防局新北市第四大隊部","LANDMARKAD":"1000106","ADDRESS":"新北市深坑區文山路1段35號4樓","TEL":"02-26646936","COUNTYNAME":"新北市","TOWNNAME":"新店區","MARKTYPE":"991","Class":"1"},"geometry":{"x":304746.14039999992,"y":2762229.7888999991}},{"attributes":{"OBJECTID":6034,"LANDMARKID":"1000100000049","LANDMARKCO":"101","LANDMARKNA":"財政部資料庫","LANDMARKAD":"1000106","ADDRESS":"新北市新店區屈尺路","TEL":" ","COUNTYNAME":"新北市","TOWNNAME":"新店區","MARKTYPE":"991","Class":"1"},"geometry":{"x":305365.14350000024,"y":2757309.6329999994}},{"attributes":{"OBJECTID":6035,"LANDMARKID":"1000100000896","LANDMARKCO":"205","LANDMARKNA":"台北懷舊博物館","LANDMARKAD":"1000106","ADDRESS":"新北市新店區建國路164號","TEL":"02-29435596","COUNTYNAME":"新北市","TOWNNAME":"新店區","MARKTYPE":"992","Class":"2"},"geometry":{"x":304352.64690000005,"y":2763636.3807999995}},{"attributes":{"OBJECTID":6036,"LANDMARKID":"1000100000867","LANDMARKCO":"204","LANDMARKNA":"新北市立圖書館新店分館","LANDMARKAD":"1000106","ADDRESS":"新北市新店區民族路7號","TEL":" ","COUNTYNAME":"新北市","TOWNNAME":"新店區","MARKTYPE":"992","Class":"2"},"geometry":{"x":304735.05179999955,"y":2763523.9979999997}},{"attributes":{"OBJECTID":6037,"LANDMARKID":"1000100000868","LANDMARKCO":"204","LANDMARKNA":"新北市立圖書館北新分館","LANDMARKAD":"1000106","ADDRESS":"新北市新店區北新路一段92號2樓","TEL":" ","COUNTYNAME":"新北市","TOWNNAME":"新店區","MARKTYPE":"992","Class":"2"},"geometry":{"x":304681.86110000033,"y":2762236.2083999999}},{"attributes":{"OBJECTID":6038,"LANDMARKID":"1000100000869","LANDMARKCO":"204","LANDMARKNA":"新北市立圖書館寶興分館","LANDMARKAD":"1000106","ADDRESS":"新北市新店區寶中路65巷59號","TEL":" ","COUNTYNAME":"新北市","TOWNNAME":"新店區","MARKTYPE":"992","Class":"2"},"geometry":{"x":305182.45480000041,"y":2763773.9199000001}},{"attributes":{"OBJECTID":6039,"LANDMARKID":"1000100000870","LANDMARKCO":"204","LANDMARKNA":"新北市立圖書館碧潭分館","LANDMARKAD":"1000106","ADDRESS":"新北市新店區新店路207號4樓","TEL":" ","COUNTYNAME":"新北市","TOWNNAME":"新店區","MARKTYPE":"992","Class":"2"},"geometry":{"x":304249.78579999972,"y":2760739.2798999995}},{"attributes":{"OBJECTID":6040,"LANDMARKID":"1000100000871","LANDMARKCO":"204","LANDMARKNA":"新北市立圖書館日興圖分館","LANDMARKAD":"1000106","ADDRESS":"新北市新店區安康路三段530號","TEL":" ","COUNTYNAME":"新北市","TOWNNAME":"新店區","MARKTYPE":"992","Class":"2"},"geometry":{"x":298412.13320000004,"y":2759871.7650000006}},{"attributes":{"OBJECTID":6041,"LANDMARKID":"1000100000872","LANDMARKCO":"204","LANDMARKNA":"新北市立圖書館百忍閱覽室","LANDMARKAD":"1000106","ADDRESS":"新北市新店區自由街2號3樓","TEL":" ","COUNTYNAME":"新北市","TOWNNAME":"新店區","MARKTYPE":"992","Class":"2"},"geometry":{"x":304090.96320000011,"y":2763144.6188999992}},{"attributes":{"OBJECTID":6042,"LANDMARKID":"1000100000873","LANDMARKCO":"204","LANDMARKNA":"新北市立圖書館福民閱覽室","LANDMARKAD":"1000106","ADDRESS":"新北市新店區福園街8巷1號3樓","TEL":" ","COUNTYNAME":"新北市","TOWNNAME":"新店區","MARKTYPE":"992","Class":"2"},"geometry":{"x":303882.06280000042,"y":2762895.2024000008}},{"attributes":{"OBJECTID":6043,"LANDMARKID":"1000100000874","LANDMARKCO":"204","LANDMARKNA":"新北市立圖書館中正閱覽室","LANDMARKAD":"1000106","ADDRESS":"新北市新店區中正路275巷17之1號","TEL":" ","COUNTYNAME":"新北市","TOWNNAME":"新店區","MARKTYPE":"992","Class":"2"},"geometry":{"x":304330.18070000038,"y":2762949.3003000002}},{"attributes":{"OBJECTID":6044,"LANDMARKID":"1000100000875","LANDMARKCO":"204","LANDMARKNA":"新北市立圖書館仁愛閱覽室","LANDMARKAD":"1000106","ADDRESS":"新北市新店區建國路58號2樓","TEL":" ","COUNTYNAME":"新北市","TOWNNAME":"新店區","MARKTYPE":"992","Class":"2"},"geometry":{"x":304554.84900000039,"y":2763181.3534999993}},{"attributes":{"OBJECTID":6045,"LANDMARKID":"1000100000876","LANDMARKCO":"204","LANDMARKNA":"新北市立圖書館德安閱覽室","LANDMARKAD":"1000106","ADDRESS":"新北市新店區安康路二段183巷13之4號3樓","TEL":" ","COUNTYNAME":"新北市","TOWNNAME":"新店區","MARKTYPE":"992","Class":"2"},"geometry":{"x":301477.64350000024,"y":2761270.9785999991}},{"attributes":{"OBJECTID":6046,"LANDMARKID":"1000100000877","LANDMARKCO":"204","LANDMARKNA":"新北市立圖書館青潭閱覽室","LANDMARKAD":"1000106","ADDRESS":"新北市新店區北宜路二段391巷2之1號2樓","TEL":" ","COUNTYNAME":"新北市","TOWNNAME":"新店區","MARKTYPE":"992","Class":"2"},"geometry":{"x":306610.1213999996,"y":2760907.4576999992}},{"attributes":{"OBJECTID":6047,"LANDMARKID":"1000100000878","LANDMARKCO":"204","LANDMARKNA":"新北市立圖書館中央分館","LANDMARKAD":"1000106","ADDRESS":"新北市新店區中央路五街60號2樓","TEL":" ","COUNTYNAME":"新北市","TOWNNAME":"新店區","MARKTYPE":"992","Class":"2"},"geometry":{"x":303280.0736999996,"y":2763134.2245000005}},{"attributes":{"OBJECTID":6048,"LANDMARKID":"1000100000595","LANDMARKCO":"203","LANDMARKNA":"縣立青潭國小","LANDMARKAD":"1000106","ADDRESS":"新北市新店區北宜路二段82巷2號","TEL":"02-22173146","COUNTYNAME":"新北市","TOWNNAME":"新店區","MARKTYPE":"992","Class":"2"},"geometry":{"x":305844.24930000026,"y":2760659.9120000005}},{"attributes":{"OBJECTID":6049,"LANDMARKID":"1000100000596","LANDMARKCO":"203","LANDMARKNA":"縣立大豐國小","LANDMARKAD":"1000106","ADDRESS":"新北市新店區民族路10號","TEL":"02-22197110","COUNTYNAME":"新北市","TOWNNAME":"新店區","MARKTYPE":"992","Class":"2"},"geometry":{"x":304291.10390000045,"y":2763449.3524999991}},{"attributes":{"OBJECTID":6050,"LANDMARKID":"1000100000597","LANDMARKCO":"203","LANDMARKNA":"縣立安坑國小","LANDMARKAD":"1000106","ADDRESS":"新北市新店區安康路二段85巷44號","TEL":"02-29118016","COUNTYNAME":"新北市","TOWNNAME":"新店區","MARKTYPE":"992","Class":"2"},"geometry":{"x":301848.1325000003,"y":2761559.1077999994}},{"attributes":{"OBJECTID":6051,"LANDMARKID":"1000100000598","LANDMARKCO":"203","LANDMARKNA":"縣立新店國小","LANDMARKAD":"1000106","ADDRESS":"新北市新店區國校里國校路67號","TEL":"02-29103483","COUNTYNAME":"新北市","TOWNNAME":"新店區","MARKTYPE":"992","Class":"2"},"geometry":{"x":304459.21729999967,"y":2760709.8400999997}},{"attributes":{"OBJECTID":6052,"LANDMARKID":"1000100000436","LANDMARKCO":"201","LANDMARKNA":"耕莘護理專科學校新店校區","LANDMARKAD":"1000106","ADDRESS":"新北市新店區民族路112號","TEL":"02-22191131","COUNTYNAME":"新北市","TOWNNAME":"新店區","MARKTYPE":"992","Class":"2"},"geometry":{"x":304057.49260000046,"y":2763239.1760000009}},{"attributes":{"OBJECTID":6053,"LANDMARKID":"1000100000496","LANDMARKCO":"202","LANDMARKNA":"私立崇光女中","LANDMARKAD":"1000106","ADDRESS":"新北市新店區三民路18號","TEL":"02-29112544","COUNTYNAME":"新北市","TOWNNAME":"新店區","MARKTYPE":"992","Class":"2"},"geometry":{"x":304427.68670000043,"y":2762758.7401999999}},{"attributes":{"OBJECTID":6054,"LANDMARKID":"1000100000497","LANDMARKCO":"202","LANDMARKNA":"國立新店高中","LANDMARKAD":"1000106","ADDRESS":"新北市新店區中央路93號","TEL":"02-22193700","COUNTYNAME":"新北市","TOWNNAME":"新店區","MARKTYPE":"992","Class":"2"},"geometry":{"x":303692.57330000028,"y":2763180.9804999996}},{"attributes":{"OBJECTID":6055,"LANDMARKID":"1000100000498","LANDMARKCO":"202","LANDMARKNA":"私立及人高中","LANDMARKAD":"1000106","ADDRESS":"新北市新店區安興路1號","TEL":"02-22112581","COUNTYNAME":"新北市","TOWNNAME":"新店區","MARKTYPE":"992","Class":"2"},"geometry":{"x":301987.42229999974,"y":2762141.4853000008}},{"attributes":{"OBJECTID":6056,"LANDMARKID":"1000100000499","LANDMARKCO":"202","LANDMARKNA":"縣立安康高中","LANDMARKAD":"1000106","ADDRESS":"新北市新店區安興路25號","TEL":"02-22111743","COUNTYNAME":"新北市","TOWNNAME":"新店區","MARKTYPE":"992","Class":"2"},"geometry":{"x":301991.65689999983,"y":2762421.2291999999}},{"attributes":{"OBJECTID":6057,"LANDMARKID":"1000100000500","LANDMARKCO":"202","LANDMARKNA":"私立能仁家商","LANDMARKAD":"1000106","ADDRESS":"新北市新店區文中路53巷10號","TEL":"02-29182399","COUNTYNAME":"新北市","TOWNNAME":"新店區","MARKTYPE":"992","Class":"2"},"geometry":{"x":304571.20799999963,"y":2761113.7422000002}},{"attributes":{"OBJECTID":6058,"LANDMARKID":"1000100000501","LANDMARKCO":"202","LANDMARKNA":"私立南強工商","LANDMARKAD":"1000106","ADDRESS":"新北市新店區文化路42號","TEL":"02-29112096","COUNTYNAME":"新北市","TOWNNAME":"新店區","MARKTYPE":"992","Class":"2"},"geometry":{"x":305005.88680000044,"y":2763768.6021999996}},{"attributes":{"OBJECTID":6059,"LANDMARKID":"1000100000502","LANDMARKCO":"202","LANDMARKNA":"私立莊敬工家","LANDMARKAD":"1000106","ADDRESS":"新北市新店區民生路45號","TEL":"02-22188956","COUNTYNAME":"新北市","TOWNNAME":"新店區","MARKTYPE":"992","Class":"2"},"geometry":{"x":303731.77850000001,"y":2764304.3950999994}},{"attributes":{"OBJECTID":6060,"LANDMARKID":"1000100000503","LANDMARKCO":"202","LANDMARKNA":"私立開明工商","LANDMARKAD":"1000106","ADDRESS":"新北市新店區寶中路49號","TEL":"02-29111664","COUNTYNAME":"新北市","TOWNNAME":"新店區","MARKTYPE":"992","Class":"2"},"geometry":{"x":305146.72970000003,"y":2763672.7566999998}},{"attributes":{"OBJECTID":6061,"LANDMARKID":"1000100000580","LANDMARKCO":"203","LANDMARKNA":"縣立五峰國中","LANDMARKAD":"1000106","ADDRESS":"新北市新店區中興路一段253號","TEL":"02-29114887","COUNTYNAME":"新北市","TOWNNAME":"新店區","MARKTYPE":"992","Class":"2"},"geometry":{"x":304927.53859999962,"y":2762162.2828000002}},{"attributes":{"OBJECTID":6062,"LANDMARKID":"1000100000581","LANDMARKCO":"203","LANDMARKNA":"縣立文山國中","LANDMARKAD":"1000106","ADDRESS":"新北市新店區文中路38號","TEL":"02-29142467","COUNTYNAME":"新北市","TOWNNAME":"新店區","MARKTYPE":"992","Class":"2"},"geometry":{"x":304442.01510000043,"y":2761094.9414000008}},{"attributes":{"OBJECTID":6063,"LANDMARKID":"1000100000582","LANDMARKCO":"203","LANDMARKNA":"私立康橋國(中)小","LANDMARKAD":"1000106","ADDRESS":"[231]新北市新店區華城路800號","TEL":"02-22166000","COUNTYNAME":"新北市","TOWNNAME":"新店區","MARKTYPE":"992","Class":"2"},"geometry":{"x":300298.36099999957,"y":2755965.3762999997}},{"attributes":{"OBJECTID":6064,"LANDMARKID":"1000100000583","LANDMARKCO":"203","LANDMARKNA":"縣立安康高中(國中部)","LANDMARKAD":"1000106","ADDRESS":"新北市新店區安興路25號","TEL":"02-22111743","COUNTYNAME":"新北市","TOWNNAME":"新店區","MARKTYPE":"992","Class":"2"},"geometry":{"x":301991.65689999983,"y":2762421.2291999999}},{"attributes":{"OBJECTID":6065,"LANDMARKID":"1000100000584","LANDMARKCO":"203","LANDMARKNA":"私立康橋國中小學","LANDMARKAD":"1000106","ADDRESS":"新北市新店區華城路800號","TEL":"02-22166000","COUNTYNAME":"新北市","TOWNNAME":"新店區","MARKTYPE":"992","Class":"2"},"geometry":{"x":300298.36099999957,"y":2755965.3762999997}},{"attributes":{"OBJECTID":6066,"LANDMARKID":"1000100000585","LANDMARKCO":"203","LANDMARKNA":"縣立中正國小","LANDMARKAD":"1000106","ADDRESS":"新北市新店區三民路36號","TEL":"02-29143765","COUNTYNAME":"新北市","TOWNNAME":"新店區","MARKTYPE":"992","Class":"2"},"geometry":{"x":304182.22559999954,"y":2762754.1026000008}},{"attributes":{"OBJECTID":6067,"LANDMARKID":"1000100000586","LANDMARKCO":"203","LANDMARKNA":"縣立雙峰國小","LANDMARKAD":"1000106","ADDRESS":"新北市新店區北宜路三段66號","TEL":"02-22171802","COUNTYNAME":"新北市","TOWNNAME":"新店區","MARKTYPE":"992","Class":"2"},"geometry":{"x":308112.06649999972,"y":2760523.0330999997}},{"attributes":{"OBJECTID":6068,"LANDMARKID":"1000100000587","LANDMARKCO":"203","LANDMARKNA":"縣立新和國小","LANDMARKAD":"1000106","ADDRESS":"新北市新店區安和路三段100號","TEL":"02-29400170","COUNTYNAME":"新北市","TOWNNAME":"新店區","MARKTYPE":"992","Class":"2"},"geometry":{"x":302312.40350000001,"y":2764172.8962999992}},{"attributes":{"OBJECTID":6069,"LANDMARKID":"1000100000588","LANDMARKCO":"203","LANDMARKNA":"縣立雙城國小","LANDMARKAD":"1000106","ADDRESS":"新北市新店區安康路三段322號","TEL":"02-22156511","COUNTYNAME":"新北市","TOWNNAME":"新店區","MARKTYPE":"992","Class":"2"},"geometry":{"x":299131.53039999958,"y":2760556.6666000001}},{"attributes":{"OBJECTID":6070,"LANDMARKID":"1000100000589","LANDMARKCO":"203","LANDMARKNA":"縣立屈尺國小","LANDMARKAD":"1000106","ADDRESS":"新北市新店區屈尺路55號","TEL":"02-26667490","COUNTYNAME":"新北市","TOWNNAME":"新店區","MARKTYPE":"992","Class":"2"},"geometry":{"x":305176.0820000004,"y":2757304.7369999997}},{"attributes":{"OBJECTID":6071,"LANDMARKID":"1000100000590","LANDMARKCO":"203","LANDMARKNA":"縣立直潭國小","LANDMARKAD":"1000106","ADDRESS":"新北市新店區直潭路92號","TEL":"02-26667278","COUNTYNAME":"新北市","TOWNNAME":"新店區","MARKTYPE":"992","Class":"2"},"geometry":{"x":303659.77369999979,"y":2758994.3220000006}},{"attributes":{"OBJECTID":6072,"LANDMARKID":"1000100000591","LANDMARKCO":"203","LANDMARKNA":"縣立龜山國小","LANDMARKAD":"1000106","ADDRESS":"新北市新店區新烏路三段99巷10號","TEL":"02-26667317","COUNTYNAME":"新北市","TOWNNAME":"新店區","MARKTYPE":"992","Class":"2"},"geometry":{"x":305887.02419999987,"y":2755057.6455000006}},{"attributes":{"OBJECTID":6073,"LANDMARKID":"1000100000592","LANDMARKCO":"203","LANDMARKNA":"縣立北新國小","LANDMARKAD":"1000106","ADDRESS":"新北市新店區寶橋路8號","TEL":"02-29189300","COUNTYNAME":"新北市","TOWNNAME":"新店區","MARKTYPE":"992","Class":"2"},"geometry":{"x":304913.66789999977,"y":2762974.6205000002}},{"attributes":{"OBJECTID":6074,"LANDMARKID":"1000100000593","LANDMARKCO":"203","LANDMARKNA":"縣立安坑國小","LANDMARKAD":"1000106","ADDRESS":"新北市新店區安忠路36號","TEL":"02-22110560","COUNTYNAME":"新北市","TOWNNAME":"新店區","MARKTYPE":"992","Class":"2"},"geometry":{"x":301915.80920000002,"y":2761589.4582000002}},{"attributes":{"OBJECTID":6075,"LANDMARKID":"1000100000437","LANDMARKCO":"201","LANDMARKNA":"景文科技大學","LANDMARKAD":"1000106","ADDRESS":"新北市新店區安忠路99號","TEL":"02-82122000","COUNTYNAME":"新北市","TOWNNAME":"新店區","MARKTYPE":"992","Class":"2"},"geometry":{"x":301427.35390000045,"y":2760555.7421000004}},{"attributes":{"OBJECTID":6076,"LANDMARKID":"1000100000594","LANDMARKCO":"203","LANDMARKNA":"縣立直潭國小分校","LANDMARKAD":"1000106","ADDRESS":"新北市新店區","TEL":" ","COUNTYNAME":"新北市","TOWNNAME":"新店區","MARKTYPE":"992","Class":"2"},"geometry":{"x":303339.22640000004,"y":2757939.8775999993}},{"attributes":{"OBJECTID":6077,"LANDMARKID":"1000100001154","LANDMARKCO":"303","LANDMARKNA":"馬公友誼公園","LANDMARKAD":"1000106","ADDRESS":"新北市新店區北新路一段","TEL":" ","COUNTYNAME":"新北市","TOWNNAME":"新店區","MARKTYPE":"993","Class":"303"},"geometry":{"x":304908.56089999992,"y":2762576.4118000008}},{"attributes":{"OBJECTID":6078,"LANDMARKID":"1000100001155","LANDMARKCO":"303","LANDMARKNA":"馬公友誼公園","LANDMARKAD":"1000106","ADDRESS":"新北市新店區北新路一段","TEL":" ","COUNTYNAME":"新北市","TOWNNAME":"新店區","MARKTYPE":"993","Class":"303"},"geometry":{"x":304993.02630000003,"y":2762572.4452}},{"attributes":{"OBJECTID":6079,"LANDMARKID":"1000100001527","LANDMARKCO":"308","LANDMARKNA":"國3-新店交流道-南下","LANDMARKAD":"1000106","ADDRESS":"新北市新店區","TEL":" ","COUNTYNAME":"新北市","TOWNNAME":"新店區","MARKTYPE":"993","Class":"308"},"geometry":{"x":305723.86230000015,"y":2762785.0637999997}},{"attributes":{"OBJECTID":6080,"LANDMARKID":"1000100001528","LANDMARKCO":"308","LANDMARKNA":"國3-安坑交流道-北上","LANDMARKAD":"1000106","ADDRESS":"新北市新店區","TEL":" ","COUNTYNAME":"新北市","TOWNNAME":"新店區","MARKTYPE":"993","Class":"308"},"geometry":{"x":303329.79760000017,"y":2762013.0524000004}},{"attributes":{"OBJECTID":6081,"LANDMARKID":"1000100001529","LANDMARKCO":"308","LANDMARKNA":"國3-新店交流道-北上","LANDMARKAD":"1000106","ADDRESS":"新北市新店區","TEL":" ","COUNTYNAME":"新北市","TOWNNAME":"新店區","MARKTYPE":"993","Class":"308"},"geometry":{"x":306070.3574000001,"y":2763018.6062000003}},{"attributes":{"OBJECTID":6082,"LANDMARKID":"1000100001530","LANDMARKCO":"308","LANDMARKNA":"國3-安坑交流道-南下","LANDMARKAD":"1000106","ADDRESS":"新北市新店區","TEL":" ","COUNTYNAME":"新北市","TOWNNAME":"新店區","MARKTYPE":"993","Class":"308"},"geometry":{"x":302776.48259999976,"y":2762784.3133000005}},{"attributes":{"OBJECTID":6083,"LANDMARKID":"1000100001478","LANDMARKCO":"306","LANDMARKNA":"小碧潭捷運站-出口2","LANDMARKAD":"1000106","ADDRESS":" ","TEL":" ","COUNTYNAME":"新北市","TOWNNAME":"新店區","MARKTYPE":"993","Class":"306"},"geometry":{"x":303472.04420000035,"y":2762859.1327}},{"attributes":{"OBJECTID":6084,"LANDMARKID":"1000100001479","LANDMARKCO":"306","LANDMARKNA":"小碧潭捷運站-出口1","LANDMARKAD":"1000106","ADDRESS":" ","TEL":" ","COUNTYNAME":"新北市","TOWNNAME":"新店區","MARKTYPE":"993","Class":"306"},"geometry":{"x":303478.62619999982,"y":2762765.6055999994}},{"attributes":{"OBJECTID":6085,"LANDMARKID":"1000100001480","LANDMARKCO":"306","LANDMARKNA":"新店捷運站-出口","LANDMARKAD":"1000106","ADDRESS":" ","TEL":" ","COUNTYNAME":"新北市","TOWNNAME":"新店區","MARKTYPE":"993","Class":"306"},"geometry":{"x":304310.33999999985,"y":2761251.7653000001}},{"attributes":{"OBJECTID":6086,"LANDMARKID":"1000100001481","LANDMARKCO":"306","LANDMARKNA":"新店區公所捷運站-出口1","LANDMARKAD":"1000106","ADDRESS":" ","TEL":" ","COUNTYNAME":"新北市","TOWNNAME":"新店區","MARKTYPE":"993","Class":"306"},"geometry":{"x":304595.43319999985,"y":2762278.7229999993}},{"attributes":{"OBJECTID":6087,"LANDMARKID":"1000100001482","LANDMARKCO":"306","LANDMARKNA":"新店區公所捷運站-出口2","LANDMARKAD":"1000106","ADDRESS":" ","TEL":" ","COUNTYNAME":"新北市","TOWNNAME":"新店區","MARKTYPE":"993","Class":"306"},"geometry":{"x":304725.52869999968,"y":2762318.1733999997}},{"attributes":{"OBJECTID":6088,"LANDMARKID":"1000100001483","LANDMARKCO":"306","LANDMARKNA":"七張捷運站-出口1","LANDMARKAD":"1000106","ADDRESS":" ","TEL":" ","COUNTYNAME":"新北市","TOWNNAME":"新店區","MARKTYPE":"993","Class":"306"},"geometry":{"x":304818.89639999997,"y":2763112.0307}},{"attributes":{"OBJECTID":6089,"LANDMARKID":"1000100001484","LANDMARKCO":"306","LANDMARKNA":"大坪林捷運站-出口1","LANDMARKAD":"1000106","ADDRESS":" ","TEL":" ","COUNTYNAME":"新北市","TOWNNAME":"新店區","MARKTYPE":"993","Class":"306"},"geometry":{"x":304597.78660000023,"y":2763985.0592999998}},{"attributes":{"OBJECTID":6090,"LANDMARKID":"1000100001485","LANDMARKCO":"306","LANDMARKNA":"大坪林捷運站-出口2","LANDMARKAD":"1000106","ADDRESS":" ","TEL":" ","COUNTYNAME":"新北市","TOWNNAME":"新店區","MARKTYPE":"993","Class":"306"},"geometry":{"x":304687.98149999976,"y":2763924.5185000002}},{"attributes":{"OBJECTID":6091,"LANDMARKID":"1000100001486","LANDMARKCO":"306","LANDMARKNA":"大坪林捷運站-出口3","LANDMARKAD":"1000106","ADDRESS":" ","TEL":" ","COUNTYNAME":"新北市","TOWNNAME":"新店區","MARKTYPE":"993","Class":"306"},"geometry":{"x":304665.75079999957,"y":2764018.4517000001}},{"attributes":{"OBJECTID":6092,"LANDMARKID":"1000100001487","LANDMARKCO":"306","LANDMARKNA":"大坪林捷運站-出口4","LANDMARKAD":"1000106","ADDRESS":" ","TEL":" ","COUNTYNAME":"新北市","TOWNNAME":"新店區","MARKTYPE":"993","Class":"306"},"geometry":{"x":304659.21850000042,"y":2764074.2438999992}},{"attributes":{"OBJECTID":6093,"LANDMARKID":"1000100000969","LANDMARKCO":"302","LANDMARKNA":"新店汽車客運新店站","LANDMARKAD":"1000106","ADDRESS":"新北市新店區環河路106號","TEL":" ","COUNTYNAME":"新北市","TOWNNAME":"新店區","MARKTYPE":"993","Class":"302"},"geometry":{"x":304224.35699999984,"y":2762246.0504999999}},{"attributes":{"OBJECTID":6094,"LANDMARKID":"1000100000970","LANDMARKCO":"302","LANDMARKNA":"台北汽車客運新店站","LANDMARKAD":"1000106","ADDRESS":"新北市新店區安祥路102之1號","TEL":" ","COUNTYNAME":"新北市","TOWNNAME":"新店區","MARKTYPE":"993","Class":"302"},"geometry":{"x":298822.55429999996,"y":2761476.6339999996}},{"attributes":{"OBJECTID":6095,"LANDMARKID":"1000100001128","LANDMARKCO":"303","LANDMARKNA":"小碧潭中安橋下停車場","LANDMARKAD":"1000106","ADDRESS":"新北市新店區環河路","TEL":" ","COUNTYNAME":"新北市","TOWNNAME":"新店區","MARKTYPE":"993","Class":"303"},"geometry":{"x":303211.80389999971,"y":2762922.3642999995}},{"attributes":{"OBJECTID":6096,"LANDMARKID":"1000100001129","LANDMARKCO":"303","LANDMARKNA":"碧潭高爾夫停車場","LANDMARKAD":"1000106","ADDRESS":"新北市新店區溪洲路旁","TEL":" ","COUNTYNAME":"新北市","TOWNNAME":"新店區","MARKTYPE":"993","Class":"303"},"geometry":{"x":303669.85479999986,"y":2761743.1550999992}},{"attributes":{"OBJECTID":6097,"LANDMARKID":"1000100001130","LANDMARKCO":"303","LANDMARKNA":"新店環河路停車場","LANDMARKAD":"1000106","ADDRESS":"新北市新店區環河路西側新店溪旁","TEL":" ","COUNTYNAME":"新北市","TOWNNAME":"新店區","MARKTYPE":"993","Class":"303"},"geometry":{"x":304132.85020000022,"y":2761956.1871000007}},{"attributes":{"OBJECTID":6098,"LANDMARKID":"1000100001131","LANDMARKCO":"303","LANDMARKNA":"碧潭停車場","LANDMARKAD":"1000106","ADDRESS":"新北市新店區碧潭渡船頭旁","TEL":"02-29131184","COUNTYNAME":"新北市","TOWNNAME":"新店區","MARKTYPE":"993","Class":"303"},"geometry":{"x":304280.13460000046,"y":2760614.6870000008}},{"attributes":{"OBJECTID":6099,"LANDMARKID":"1000100001132","LANDMARKCO":"303","LANDMARKNA":"捷運新店線新店站停車場","LANDMARKAD":"1000106","ADDRESS":"新北市新店區北宜路一段2號","TEL":" ","COUNTYNAME":"新北市","TOWNNAME":"新店區","MARKTYPE":"993","Class":"303"},"geometry":{"x":304280.51599999983,"y":2761153.8269999996}},{"attributes":{"OBJECTID":6100,"LANDMARKID":"1000100001133","LANDMARKCO":"303","LANDMARKNA":"行政街五峰國中旁停車場","LANDMARKAD":"1000106","ADDRESS":"新北市新店區行政街","TEL":" ","COUNTYNAME":"新北市","TOWNNAME":"新店區","MARKTYPE":"993","Class":"303"},"geometry":{"x":304876.45550000016,"y":2762120.2791000009}},{"attributes":{"OBJECTID":6101,"LANDMARKID":"1000100001134","LANDMARKCO":"303","LANDMARKNA":"翡翠水庫停車場二","LANDMARKAD":"1000106","ADDRESS":"新北市新店區","TEL":" ","COUNTYNAME":"新北市","TOWNNAME":"新店區","MARKTYPE":"993","Class":"303"},"geometry":{"x":308032.95069999993,"y":2756064.1347000003}},{"attributes":{"OBJECTID":6102,"LANDMARKID":"1000100001135","LANDMARKCO":"303","LANDMARKNA":"翡翠水庫停車場一","LANDMARKAD":"1000106","ADDRESS":"新北市新店區","TEL":" ","COUNTYNAME":"新北市","TOWNNAME":"新店區","MARKTYPE":"993","Class":"303"},"geometry":{"x":308416.00679999962,"y":2756074.3157000002}},{"attributes":{"OBJECTID":6103,"LANDMARKID":"1000100001136","LANDMARKCO":"303","LANDMARKNA":"中興嘟嘟房停車場-新站矽谷站","LANDMARKAD":"1000106","ADDRESS":"新北市新店區北新路3段205號B3","TEL":"8913-1088","COUNTYNAME":"新北市","TOWNNAME":"新店區","MARKTYPE":"993","Class":"303"},"geometry":{"x":304591.27869999968,"y":2764150.0255999994}},{"attributes":{"OBJECTID":6104,"LANDMARKID":"1000100001137","LANDMARKCO":"303","LANDMARKNA":"三民公有收費停車場","LANDMARKAD":"1000106","ADDRESS":"新北市新店區","TEL":" ","COUNTYNAME":"新北市","TOWNNAME":"新店區","MARKTYPE":"993","Class":"303"},"geometry":{"x":304246.78299999982,"y":2762662.1227000002}},{"attributes":{"OBJECTID":6105,"LANDMARKID":"1000100001138","LANDMARKCO":"303","LANDMARKNA":"小碧潭口安橋下停車場","LANDMARKAD":"1000106","ADDRESS":"新北市新店區中央里環河路","TEL":" ","COUNTYNAME":"新北市","TOWNNAME":"新店區","MARKTYPE":"993","Class":"303"},"geometry":{"x":304160.9375,"y":2762063.9545000009}},{"attributes":{"OBJECTID":6106,"LANDMARKID":"1000100001139","LANDMARKCO":"303","LANDMARKNA":"公七地下停車場","LANDMARKAD":"1000106","ADDRESS":"新北市新店區中正里三民路","TEL":" ","COUNTYNAME":"新北市","TOWNNAME":"新店區","MARKTYPE":"993","Class":"303"},"geometry":{"x":304010.88159999996,"y":2762847.2696000002}},{"attributes":{"OBJECTID":6107,"LANDMARKID":"1000100001140","LANDMARKCO":"303","LANDMARKNA":"公十地下停車場","LANDMARKAD":"1000106","ADDRESS":"新北市新店區五峰里北新路","TEL":" ","COUNTYNAME":"新北市","TOWNNAME":"新店區","MARKTYPE":"993","Class":"303"},"geometry":{"x":304829.29710000008,"y":2762731.6956999991}},{"attributes":{"OBJECTID":6108,"LANDMARKID":"1000100001141","LANDMARKCO":"303","LANDMARKNA":"太平運動公園停車場","LANDMARKAD":"1000106","ADDRESS":"新北市新店區太平里太平路","TEL":" ","COUNTYNAME":"新北市","TOWNNAME":"新店區","MARKTYPE":"993","Class":"303"},"geometry":{"x":303884.90780000016,"y":2761257.9277999997}},{"attributes":{"OBJECTID":6109,"LANDMARKID":"1000100001142","LANDMARKCO":"303","LANDMARKNA":"安康路二段二六四巷停車場","LANDMARKAD":"1000106","ADDRESS":"新北市新店區得安里安康路","TEL":" ","COUNTYNAME":"新北市","TOWNNAME":"新店區","MARKTYPE":"993","Class":"303"},"geometry":{"x":300885.37050000019,"y":2761186.9737}},{"attributes":{"OBJECTID":6110,"LANDMARKID":"1000100001143","LANDMARKCO":"303","LANDMARKNA":"行政街五峰國中旁停車場","LANDMARKAD":"1000106","ADDRESS":"新北市新店區五峰里行政街","TEL":" ","COUNTYNAME":"新北市","TOWNNAME":"新店區","MARKTYPE":"993","Class":"303"},"geometry":{"x":304895.74899999984,"y":2762160.7260999996}},{"attributes":{"OBJECTID":6111,"LANDMARKID":"1000100001144","LANDMARKCO":"303","LANDMARKNA":"亞太駐車聯盟新店站停車場","LANDMARKAD":"1000106","ADDRESS":"新北市新店區中正路四維巷2弄B2","TEL":" ","COUNTYNAME":"新北市","TOWNNAME":"新店區","MARKTYPE":"993","Class":"303"},"geometry":{"x":303923.60730000027,"y":2764637.2348999996}},{"attributes":{"OBJECTID":6112,"LANDMARKID":"1000100001145","LANDMARKCO":"303","LANDMARKNA":"停一立體停車場","LANDMARKAD":"1000106","ADDRESS":"新北市新店區匝道里寶橋路","TEL":" ","COUNTYNAME":"新北市","TOWNNAME":"新店區","MARKTYPE":"993","Class":"303"},"geometry":{"x":305169.88489999995,"y":2763208.2525999993}},{"attributes":{"OBJECTID":6113,"LANDMARKID":"1000100001146","LANDMARKCO":"303","LANDMARKNA":"新店公三地下停車場","LANDMARKAD":"1000106","ADDRESS":"新北市新店區仁愛里民族路","TEL":" ","COUNTYNAME":"新北市","TOWNNAME":"新店區","MARKTYPE":"993","Class":"303"},"geometry":{"x":304239.47190000024,"y":2763297.4605}},{"attributes":{"OBJECTID":6114,"LANDMARKID":"1000100001147","LANDMARKCO":"303","LANDMARKNA":"碧潭風景區渡船頭停車場","LANDMARKAD":"1000106","ADDRESS":"新北市新店區太平里碧潭路","TEL":" ","COUNTYNAME":"新北市","TOWNNAME":"新店區","MARKTYPE":"993","Class":"303"},"geometry":{"x":304001.23199999984,"y":2761174.4989}},{"attributes":{"OBJECTID":6115,"LANDMARKID":"1000100001148","LANDMARKCO":"303","LANDMARKNA":"豐公二停車場","LANDMARKAD":"1000106","ADDRESS":"新北市新店區甘張路","TEL":" ","COUNTYNAME":"新北市","TOWNNAME":"新店區","MARKTYPE":"993","Class":"303"},"geometry":{"x":304137.18939999957,"y":2763660.4055000003}},{"attributes":{"OBJECTID":6116,"LANDMARKID":"1000100001149","LANDMARKCO":"303","LANDMARKNA":"應安停車場-新店場","LANDMARKAD":"1000106","ADDRESS":"新北市新店區二十張路143之1號","TEL":"02-27546661","COUNTYNAME":"新北市","TOWNNAME":"新店區","MARKTYPE":"993","Class":"303"},"geometry":{"x":304047.13889999967,"y":2763546.1077999994}},{"attributes":{"OBJECTID":6117,"LANDMARKID":"1000100001150","LANDMARKCO":"303","LANDMARKNA":"Times(普客二四停車場)-新店碧潭停車場","LANDMARKAD":"1000106","ADDRESS":"北縣新店區太平路15號旁空地","TEL":" ","COUNTYNAME":"新北市","TOWNNAME":"新店區","MARKTYPE":"993","Class":"303"},"geometry":{"x":303900.53079999983,"y":2761235.7829}},{"attributes":{"OBJECTID":6118,"LANDMARKID":"1000100001151","LANDMARKCO":"303","LANDMARKNA":"台灣聯通停車場-渡船頭","LANDMARKAD":"1000106","ADDRESS":"新北市新店區新店路67號旁","TEL":" ","COUNTYNAME":"新北市","TOWNNAME":"新店區","MARKTYPE":"993","Class":"303"},"geometry":{"x":304217.20139999967,"y":2761034.6318999995}},{"attributes":{"OBJECTID":6119,"LANDMARKID":"1000100001152","LANDMARKCO":"303","LANDMARKNA":"台灣聯通停車場-東岸場","LANDMARKAD":"1000106","ADDRESS":"新北市新店區環河路29巷5號旁","TEL":" ","COUNTYNAME":"新北市","TOWNNAME":"新店區","MARKTYPE":"993","Class":"303"},"geometry":{"x":304239.10850000009,"y":2761554.6703999992}},{"attributes":{"OBJECTID":6120,"LANDMARKID":"1000100001153","LANDMARKCO":"303","LANDMARKNA":"台灣聯通停車場-西岸場","LANDMARKAD":"1000106","ADDRESS":"新北市新店區溪洲路31號旁","TEL":" ","COUNTYNAME":"新北市","TOWNNAME":"新店區","MARKTYPE":"993","Class":"303"},"geometry":{"x":303669.90909999982,"y":2761743.6459999997}},{"attributes":{"OBJECTID":6121,"LANDMARKID":"1000100001733","LANDMARKCO":"402","LANDMARKNA":"中華電信-新店服務中心","LANDMARKAD":"1000106","ADDRESS":"新北市新店區北新路一段72號","TEL":"123或0800-080-123","COUNTYNAME":"新北市","TOWNNAME":"新店區","MARKTYPE":"994","Class":"4"},"geometry":{"x":304672.1453999998,"y":2762229.9680000003}},{"attributes":{"OBJECTID":6122,"LANDMARKID":"1000100001734","LANDMARKCO":"402","LANDMARKNA":"中華電信-新店中正特約服務中心","LANDMARKAD":"1000106","ADDRESS":"新北市新店區中正路342號","TEL":"02-29105656","COUNTYNAME":"新北市","TOWNNAME":"新店區","MARKTYPE":"994","Class":"4"},"geometry":{"x":304172.08059999999,"y":2763135.8286000006}},{"attributes":{"OBJECTID":6123,"LANDMARKID":"1000100001735","LANDMARKCO":"402","LANDMARKNA":"中華電信-新店七張特約服務中心","LANDMARKAD":"1000106","ADDRESS":"新北市新店區北新路二段163號","TEL":"02-29116767","COUNTYNAME":"新北市","TOWNNAME":"新店區","MARKTYPE":"994","Class":"4"},"geometry":{"x":304795.56350000016,"y":2763258.5766000003}},{"attributes":{"OBJECTID":6124,"LANDMARKID":"1000100001736","LANDMARKCO":"402","LANDMARKNA":"中華電信-新店北新特約服務中心","LANDMARKAD":"1000106","ADDRESS":"新北市新店區北新路三段150號","TEL":"02-89145888","COUNTYNAME":"新北市","TOWNNAME":"新店區","MARKTYPE":"994","Class":"4"},"geometry":{"x":304676.85030000005,"y":2763944.9242000002}},{"attributes":{"OBJECTID":6125,"LANDMARKID":"1000100001737","LANDMARKCO":"402","LANDMARKNA":"中華電信-安康服務中心","LANDMARKAD":"1000106","ADDRESS":"新北市新店區安康路二段337號","TEL":"123或0800-080-123","COUNTYNAME":"新北市","TOWNNAME":"新店區","MARKTYPE":"994","Class":"4"},"geometry":{"x":300324.13520000037,"y":2760983.5832000002}},{"attributes":{"OBJECTID":6126,"LANDMARKID":"1000100001738","LANDMARKCO":"402","LANDMARKNA":"中華電信-全球工業總部服務中心","LANDMARKAD":"1000106","ADDRESS":"新北市新店區寶橋路235巷6弄2號","TEL":"123或0800-080-123","COUNTYNAME":"新北市","TOWNNAME":"新店區","MARKTYPE":"994","Class":"4"},"geometry":{"x":305764.10039999988,"y":2763699.0477000009}},{"attributes":{"OBJECTID":6127,"LANDMARKID":"1000100001739","LANDMARKCO":"402","LANDMARKNA":"遠傳電信-台北新店門市","LANDMARKAD":"1000106","ADDRESS":"新北市新店區北新路一段263號","TEL":" ","COUNTYNAME":"新北市","TOWNNAME":"新店區","MARKTYPE":"994","Class":"4"},"geometry":{"x":304612.11710000038,"y":2762166.2122000009}},{"attributes":{"OBJECTID":6128,"LANDMARKID":"1000100001740","LANDMARKCO":"402","LANDMARKNA":"遠傳電信-台北北新門市","LANDMARKAD":"1000106","ADDRESS":"新北市新店區北新路二段200號","TEL":" ","COUNTYNAME":"新北市","TOWNNAME":"新店區","MARKTYPE":"994","Class":"4"},"geometry":{"x":304827.79550000001,"y":2763316.4475999996}},{"attributes":{"OBJECTID":6129,"LANDMARKID":"1000100001741","LANDMARKCO":"402","LANDMARKNA":"威寶電信-新店中正直營服務中心","LANDMARKAD":"1000106","ADDRESS":"新北市新店區中正路145號","TEL":" ","COUNTYNAME":"新北市","TOWNNAME":"新店區","MARKTYPE":"994","Class":"4"},"geometry":{"x":304668.94859999977,"y":2762738.9757000003}},{"attributes":{"OBJECTID":6130,"LANDMARKID":"1000100001742","LANDMARKCO":"402","LANDMARKNA":"威寶電信-新店安康特約服務中心","LANDMARKAD":"1000106","ADDRESS":"新北市新店區安康路二段34號","TEL":"02-86669491","COUNTYNAME":"新北市","TOWNNAME":"新店區","MARKTYPE":"994","Class":"4"},"geometry":{"x":302065.14690000005,"y":2761870.3397000004}},{"attributes":{"OBJECTID":6131,"LANDMARKID":"1000100001743","LANDMARKCO":"402","LANDMARKNA":"威寶電信-新店北新特約服務中心","LANDMARKAD":"1000106","ADDRESS":"新北市新店區北新路一段257號","TEL":"(02)29176565","COUNTYNAME":"新北市","TOWNNAME":"新店區","MARKTYPE":"994","Class":"4"},"geometry":{"x":304607.06130000018,"y":2762152.2324000001}},{"attributes":{"OBJECTID":6132,"LANDMARKID":"1000100001744","LANDMARKCO":"402","LANDMARKNA":"大眾電信(傑昇通信)-北新店","LANDMARKAD":"1000106","ADDRESS":"新北市新店巿北新路二段198號","TEL":"02-29133107","COUNTYNAME":"新北市","TOWNNAME":"新店區","MARKTYPE":"994","Class":"4"},"geometry":{"x":304827.74749999959,"y":2763304.4477999993}},{"attributes":{"OBJECTID":6133,"LANDMARKID":"1000100001745","LANDMARKCO":"402","LANDMARKNA":"大眾電信(震旦通訊)-新店北新二店","LANDMARKAD":"1000106","ADDRESS":"新北市新店區北新路二段190號","TEL":"02-29150110","COUNTYNAME":"新北市","TOWNNAME":"新店區","MARKTYPE":"994","Class":"4"},"geometry":{"x":304827.65539999958,"y":2763281.4482000005}},{"attributes":{"OBJECTID":6134,"LANDMARKID":"1000100001746","LANDMARKCO":"402","LANDMARKNA":"大眾電信-新店專賣店","LANDMARKAD":"1000106","ADDRESS":"新店區北新路二段52號","TEL":"02-86650808","COUNTYNAME":"新北市","TOWNNAME":"新店區","MARKTYPE":"994","Class":"4"},"geometry":{"x":304831.10489999969,"y":2762778.4442999996}},{"attributes":{"OBJECTID":6135,"LANDMARKID":"1000100002774","LANDMARKCO":"603","LANDMARKNA":"黎明旅館","LANDMARKAD":"1000106","ADDRESS":"新北市新店區北新路3段51之1號4樓","TEL":"02-29119188","COUNTYNAME":"新北市","TOWNNAME":"新店區","MARKTYPE":"996","Class":"6"},"geometry":{"x":304705.48849999998,"y":2763740.5099999998}},{"attributes":{"OBJECTID":6136,"LANDMARKID":"1000100002775","LANDMARKCO":"603","LANDMARKNA":"碧潭飯店","LANDMARKAD":"1000106","ADDRESS":"新北市新店區碧潭路121號","TEL":"02-22116055","COUNTYNAME":"新北市","TOWNNAME":"新店區","MARKTYPE":"996","Class":"6"},"geometry":{"x":303936.15500000026,"y":2761307.6830000002}},{"attributes":{"OBJECTID":6137,"LANDMARKID":"1000100002776","LANDMARKCO":"603","LANDMARKNA":"快樂旅社","LANDMARKAD":"1000106","ADDRESS":"新北市新店區寶元路1段1號","TEL":"02-29112077","COUNTYNAME":"新北市","TOWNNAME":"新店區","MARKTYPE":"996","Class":"6"},"geometry":{"x":304637.56180000026,"y":2764488.0711000003}},{"attributes":{"OBJECTID":6138,"LANDMARKID":"1000100002777","LANDMARKCO":"603","LANDMARKNA":"涵碧莊旅社","LANDMARKAD":"1000106","ADDRESS":"新北市新店區太平路6號","TEL":"02-22121810","COUNTYNAME":"新北市","TOWNNAME":"新店區","MARKTYPE":"996","Class":"6"},"geometry":{"x":303959.96019999962,"y":2761204.5942000002}},{"attributes":{"OBJECTID":6139,"LANDMARKID":"1000100002778","LANDMARKCO":"603","LANDMARKNA":"萬家旅社","LANDMARKAD":"1000106","ADDRESS":"新北市新店區光明街78號","TEL":"02-29111006","COUNTYNAME":"新北市","TOWNNAME":"新店區","MARKTYPE":"996","Class":"6"},"geometry":{"x":304402.72449999955,"y":2761451.9441999998}},{"attributes":{"OBJECTID":6140,"LANDMARKID":"1000100002779","LANDMARKCO":"603","LANDMARKNA":"新店中信商務會館","LANDMARKAD":"1000106","ADDRESS":"新北市新店區中興路3段219之2號1至10樓","TEL":"02-29106600","COUNTYNAME":"新北市","TOWNNAME":"新店區","MARKTYPE":"996","Class":"6"},"geometry":{"x":304846.78220000025,"y":2763928.3617000002}},{"attributes":{"OBJECTID":6141,"LANDMARKID":"1000100002780","LANDMARKCO":"603","LANDMARKNA":"安盛商務旅館","LANDMARKAD":"1000106","ADDRESS":"新北市新店區二十張路31號","TEL":"02-29101477","COUNTYNAME":"新北市","TOWNNAME":"新店區","MARKTYPE":"996","Class":"6"},"geometry":{"x":304374.4654000001,"y":2763848.0170000009}},{"attributes":{"OBJECTID":6142,"LANDMARKID":"1000100002781","LANDMARKCO":"603","LANDMARKNA":"加州旅社","LANDMARKAD":"1000106","ADDRESS":"新北市新店區北新路1段1號","TEL":"02-29111119","COUNTYNAME":"新北市","TOWNNAME":"新店區","MARKTYPE":"996","Class":"6"},"geometry":{"x":304268.19830000028,"y":2761319.4773999993}},{"attributes":{"OBJECTID":6143,"LANDMARKID":"1000100002782","LANDMARKCO":"603","LANDMARKNA":"愛家旅館","LANDMARKAD":"1000106","ADDRESS":"新北市新店區北新路2段108號7樓","TEL":"02-29121111","COUNTYNAME":"新北市","TOWNNAME":"新店區","MARKTYPE":"996","Class":"6"},"geometry":{"x":304574.22499999963,"y":2761942.3631999996}},{"attributes":{"OBJECTID":6144,"LANDMARKID":"1000100002783","LANDMARKCO":"603","LANDMARKNA":"唯愛汽車旅館","LANDMARKAD":"1000106","ADDRESS":"新北市新店區永業路46號","TEL":"02-86661699","COUNTYNAME":"新北市","TOWNNAME":"新店區","MARKTYPE":"996","Class":"6"},"geometry":{"x":303695.60580000002,"y":2760806.5379000008}},{"attributes":{"OBJECTID":6145,"LANDMARKID":"1000100002784","LANDMARKCO":"603","LANDMARKNA":"伊士曼旅社","LANDMARKAD":"1000106","ADDRESS":"新北市新店區光明街34號","TEL":"02-29111818","COUNTYNAME":"新北市","TOWNNAME":"新店區","MARKTYPE":"996","Class":"6"},"geometry":{"x":304366.3320000004,"y":2761353.0886000004}},{"attributes":{"OBJECTID":6146,"LANDMARKID":"1000100002785","LANDMARKCO":"603","LANDMARKNA":"龍山旅社","LANDMARKAD":"1000106","ADDRESS":"新北市新店區光明街52號","TEL":"02-29111800","COUNTYNAME":"新北市","TOWNNAME":"新店區","MARKTYPE":"996","Class":"6"},"geometry":{"x":304380.48259999976,"y":2761391.0325000007}},{"attributes":{"OBJECTID":6147,"LANDMARKID":"1000100002728","LANDMARKCO":"602","LANDMARKNA":"美麗春天大飯店","LANDMARKAD":"1000106","ADDRESS":"新北市新店區太平路9號","TEL":"02-8666-9999","COUNTYNAME":"新北市","TOWNNAME":"新店區","MARKTYPE":"996","Class":"6"},"geometry":{"x":303937.99949999992,"y":2761214.6806000005}},{"attributes":{"OBJECTID":6148,"LANDMARKID":"1000100002729","LANDMARKCO":"602","LANDMARKNA":"碧特弗大飯店","LANDMARKAD":"1000106","ADDRESS":"新北市新店區太平路8號","TEL":"02-8666-9999","COUNTYNAME":"新北市","TOWNNAME":"新店區","MARKTYPE":"996","Class":"6"},"geometry":{"x":303946.0231999997,"y":2761220.6490000002}},{"attributes":{"OBJECTID":6149,"LANDMARKID":"1000100002730","LANDMARKCO":"602","LANDMARKNA":"麗景四季飯店","LANDMARKAD":"1000106","ADDRESS":"新北市新店區碧潭路77巷2號","TEL":"02-8212-1100","COUNTYNAME":"新北市","TOWNNAME":"新店區","MARKTYPE":"996","Class":"6"},"geometry":{"x":303970.50939999986,"y":2761185.3850999996}},{"attributes":{"OBJECTID":6150,"LANDMARKID":"1000100002530","LANDMARKCO":"503","LANDMARKNA":"銀河洞","LANDMARKAD":"1000106","ADDRESS":"新北市新店區","TEL":" ","COUNTYNAME":"新北市","TOWNNAME":"新店區","MARKTYPE":"995","Class":"5"},"geometry":{"x":308860.81309999991,"y":2761319.7619000003}},{"attributes":{"OBJECTID":6151,"LANDMARKID":"1000100002624","LANDMARKCO":"508","LANDMARKNA":"達觀溫泉會館","LANDMARKAD":"1000106","ADDRESS":"新北市新店區達觀路12號","TEL":"02-22135333","COUNTYNAME":"新北市","TOWNNAME":"新店區","MARKTYPE":"995","Class":"5"},"geometry":{"x":300949.39329999965,"y":2759376.0577000007}},{"attributes":{"OBJECTID":6152,"LANDMARKID":"1000100002625","LANDMARKCO":"508","LANDMARKNA":"三好米水舞精品溫泉會館","LANDMARKAD":"1000106","ADDRESS":"新北市新店區新烏路三段寶島巷3號","TEL":"02-26668181","COUNTYNAME":"新北市","TOWNNAME":"新店區","MARKTYPE":"995","Class":"5"},"geometry":{"x":305758.01800000016,"y":2754719.7750000004}},{"attributes":{"OBJECTID":6153,"LANDMARKID":"1000100002531","LANDMARKCO":"503","LANDMARKNA":"濛濛湖","LANDMARKAD":"1000106","ADDRESS":"新北市新店區","TEL":" ","COUNTYNAME":"新北市","TOWNNAME":"新店區","MARKTYPE":"995","Class":"5"},"geometry":{"x":304042.05750000011,"y":2756839.5223999992}},{"attributes":{"OBJECTID":6154,"LANDMARKID":"1000100002577","LANDMARKCO":"505","LANDMARKNA":"湖山原野樂園","LANDMARKAD":"1000106","ADDRESS":"新北市新店區松林路46號","TEL":" ","COUNTYNAME":"新北市","TOWNNAME":"新店區","MARKTYPE":"995","Class":"5"},"geometry":{"x":305060.61930000037,"y":2756261.9868000001}},{"attributes":{"OBJECTID":6155,"LANDMARKID":"1000100002701","LANDMARKCO":"510","LANDMARKNA":"景文高爾夫練習場","LANDMARKAD":"1000106","ADDRESS":"新北市新店區安忠路25之2號","TEL":"02-22110310","COUNTYNAME":"新北市","TOWNNAME":"新店區","MARKTYPE":"995","Class":"5"},"geometry":{"x":301941.12519999966,"y":2761582.8820999991}},{"attributes":{"OBJECTID":6156,"LANDMARKID":"1000100002702","LANDMARKCO":"510","LANDMARKNA":"碧潭高爾夫練習場","LANDMARKAD":"1000106","ADDRESS":"新北市新店區溪洲路121號","TEL":"02-22110391","COUNTYNAME":"新北市","TOWNNAME":"新店區","MARKTYPE":"995","Class":"5"},"geometry":{"x":303679.8208999997,"y":2761731.8859000001}},{"attributes":{"OBJECTID":6157,"LANDMARKID":"1000100002703","LANDMARKCO":"510","LANDMARKNA":"大新店高爾夫練習場","LANDMARKAD":"1000106","ADDRESS":"新北市新店區環河路112-1號","TEL":"02-29102233","COUNTYNAME":"新北市","TOWNNAME":"新店區","MARKTYPE":"995","Class":"5"},"geometry":{"x":303909.2220999999,"y":2762376.5493000001}},{"attributes":{"OBJECTID":6158,"LANDMARKID":"1000100002036","LANDMARKCO":"405","LANDMARKNA":"中油加油站-坪林站(中油直營)","LANDMARKAD":"1000120","ADDRESS":"新北市坪林區坪林村水柳腳188-1號","TEL":"02-26656081","COUNTYNAME":"新北市","TOWNNAME":"坪林區","MARKTYPE":"994","Class":"4"},"geometry":{"x":321951.23089999985,"y":2762297.5401000008}},{"attributes":{"OBJECTID":6159,"LANDMARKID":"1000100002581","LANDMARKCO":"506","LANDMARKNA":"青山農場","LANDMARKAD":"1000120","ADDRESS":"新北市坪林區石槽村48之1號","TEL":"02-26656165","COUNTYNAME":"新北市","TOWNNAME":"坪林區","MARKTYPE":"995","Class":"5"},"geometry":{"x":324393.68609999958,"y":2754363.6875}},{"attributes":{"OBJECTID":6160,"LANDMARKID":"1000100002347","LANDMARKCO":"408","LANDMARKNA":"郵局-坪林郵局","LANDMARKAD":"1000120","ADDRESS":"新北市坪林區坪林村水柳腳45號","TEL":"(02)2665-6214","COUNTYNAME":"新北市","TOWNNAME":"坪林區","MARKTYPE":"994","Class":"4"},"geometry":{"x":321725.08710000012,"y":2758747.6842}},{"attributes":{"OBJECTID":6161,"LANDMARKID":"1000100002467","LANDMARKCO":"409","LANDMARKNA":"新北市坪林區農會","LANDMARKAD":"1000120","ADDRESS":"新北市坪林區坪林街103號","TEL":"02-26657227-8","COUNTYNAME":"新北市","TOWNNAME":"坪林區","MARKTYPE":"994","Class":"4"},"geometry":{"x":321866.52699999977,"y":2758911.4279999994}},{"attributes":{"OBJECTID":6162,"LANDMARKID":"1000100000220","LANDMARKCO":"107","LANDMARKNA":"新北市消防局坪林分隊","LANDMARKAD":"1000120","ADDRESS":"新北市坪林區坪林村國中路1號","TEL":"02-26656119","COUNTYNAME":"新北市","TOWNNAME":"坪林區","MARKTYPE":"991","Class":"1"},"geometry":{"x":321963.31560000032,"y":2758949.2466000002}},{"attributes":{"OBJECTID":6163,"LANDMARKID":"1000100000051","LANDMARKCO":"103","LANDMARKNA":"新北市坪林區衛生所","LANDMARKAD":"1000120","ADDRESS":"新北市坪林區坪林街104號","TEL":"02-26656272","COUNTYNAME":"新北市","TOWNNAME":"坪林區","MARKTYPE":"991","Class":"1"},"geometry":{"x":321858.50999999978,"y":2758869.8040999994}},{"attributes":{"OBJECTID":6164,"LANDMARKID":"1000100000427","LANDMARKCO":"108","LANDMARKNA":"新北市坪林區公所","LANDMARKAD":"1000120","ADDRESS":"新北市坪林區坪林村坪林街101號","TEL":"02-26657251","COUNTYNAME":"新北市","TOWNNAME":"坪林區","MARKTYPE":"991","Class":"1"},"geometry":{"x":321819.73749999981,"y":2759029.9987000003}},{"attributes":{"OBJECTID":6165,"LANDMARKID":"1000100000052","LANDMARKCO":"103","LANDMARKNA":"新北市坪林區鄉民代表會","LANDMARKAD":"1000120","ADDRESS":"新北市坪林區坪林街101號3樓","TEL":"02-26656203","COUNTYNAME":"新北市","TOWNNAME":"坪林區","MARKTYPE":"991","Class":"1"},"geometry":{"x":321864.30059999973,"y":2758829.7738000005}},{"attributes":{"OBJECTID":6166,"LANDMARKID":"1000100000221","LANDMARKCO":"107","LANDMARKNA":"新北市政府警察局石槽派出所","LANDMARKAD":"1000120","ADDRESS":"新北市坪林區石槽村石槽街40號","TEL":"02-26656343","COUNTYNAME":"新北市","TOWNNAME":"坪林區","MARKTYPE":"991","Class":"1"},"geometry":{"x":325444.54860000033,"y":2753958.7405999992}},{"attributes":{"OBJECTID":6167,"LANDMARKID":"1000100000222","LANDMARKCO":"107","LANDMARKNA":"新北市政府警察局漁光派出所","LANDMARKAD":"1000120","ADDRESS":"新北市坪林區漁光村大舌湖24號","TEL":"02-26656910","COUNTYNAME":"新北市","TOWNNAME":"坪林區","MARKTYPE":"991","Class":"1"},"geometry":{"x":324372.56300000008,"y":2761959.7656999994}},{"attributes":{"OBJECTID":6168,"LANDMARKID":"1000100000223","LANDMARKCO":"107","LANDMARKNA":"新北市政府警察局坪林分駐所","LANDMARKAD":"1000120","ADDRESS":"新北市坪林區坪林村坪林街106號","TEL":"02-26656281","COUNTYNAME":"新北市","TOWNNAME":"坪林區","MARKTYPE":"991","Class":"1"},"geometry":{"x":321589.56390000042,"y":2758879.7444000002}},{"attributes":{"OBJECTID":6169,"LANDMARKID":"1000100000224","LANDMARKCO":"107","LANDMARKNA":"新北市政府警察局闊瀨派出所","LANDMARKAD":"1000120","ADDRESS":"新北市坪林區漁光村楣子寮20號","TEL":"02-26657041","COUNTYNAME":"新北市","TOWNNAME":"坪林區","MARKTYPE":"991","Class":"1"},"geometry":{"x":327785.42709999997,"y":2762249.4782999996}},{"attributes":{"OBJECTID":6170,"LANDMARKID":"1000100000225","LANDMARKCO":"107","LANDMARKNA":"新北市政府警察局金溪派出所","LANDMARKAD":"1000120","ADDRESS":"新北市坪林區粗窟村金瓜寮23-1號","TEL":"02-26656487","COUNTYNAME":"新北市","TOWNNAME":"坪林區","MARKTYPE":"991","Class":"1"},"geometry":{"x":319023.14630000014,"y":2756748.6017000005}},{"attributes":{"OBJECTID":6171,"LANDMARKID":"1000100000174","LANDMARKCO":"106","LANDMARKNA":"新北市坪林區戶政事務所","LANDMARKAD":"1000120","ADDRESS":"新北市坪林區坪林村2鄰坪林106之1號","TEL":"02-26656231","COUNTYNAME":"新北市","TOWNNAME":"坪林區","MARKTYPE":"991","Class":"1"},"geometry":{"x":321616.09420000017,"y":2758789.6060000006}},{"attributes":{"OBJECTID":6172,"LANDMARKID":"1000100000050","LANDMARKCO":"101","LANDMARKNA":"台灣台北監獄坪林分監","LANDMARKAD":"1000120","ADDRESS":"新北市坪林區魚堀49號","TEL":"02-26656604","COUNTYNAME":"新北市","TOWNNAME":"坪林區","MARKTYPE":"991","Class":"1"},"geometry":{"x":321235.21789999958,"y":2757888.7000999991}},{"attributes":{"OBJECTID":6173,"LANDMARKID":"1000100000897","LANDMARKCO":"205","LANDMARKNA":"坪林茶葉博物館","LANDMARKAD":"1000120","ADDRESS":"新北市坪林區水德村水聳淒坑19之1號","TEL":" ","COUNTYNAME":"新北市","TOWNNAME":"坪林區","MARKTYPE":"992","Class":"2"},"geometry":{"x":321955.43950000033,"y":2758713.0379000008}},{"attributes":{"OBJECTID":6174,"LANDMARKID":"1000100000887","LANDMARKCO":"204","LANDMARKNA":"新北市立圖書館坪林分館","LANDMARKAD":"1000120","ADDRESS":"新北市坪林區國中路3號","TEL":" ","COUNTYNAME":"新北市","TOWNNAME":"坪林區","MARKTYPE":"992","Class":"2"},"geometry":{"x":321879.33839999977,"y":2758819.9933000002}},{"attributes":{"OBJECTID":6175,"LANDMARKID":"1000100000599","LANDMARKCO":"203","LANDMARKNA":"縣立坪林國中","LANDMARKAD":"1000120","ADDRESS":"新北市坪林區國中路4號","TEL":"02-26656210","COUNTYNAME":"新北市","TOWNNAME":"坪林區","MARKTYPE":"992","Class":"2"},"geometry":{"x":321941.99760000035,"y":2759079.3583000004}},{"attributes":{"OBJECTID":6176,"LANDMARKID":"1000100000600","LANDMARKCO":"203","LANDMARKNA":"縣立坪林國小金溪分校","LANDMARKAD":"1000120","ADDRESS":"新北市坪林區","TEL":" ","COUNTYNAME":"新北市","TOWNNAME":"坪林區","MARKTYPE":"992","Class":"2"},"geometry":{"x":318487.90979999956,"y":2755669.9101}},{"attributes":{"OBJECTID":6177,"LANDMARKID":"1000100000601","LANDMARKCO":"203","LANDMARKNA":"縣立漁光國小","LANDMARKAD":"1000120","ADDRESS":"新北市坪林區漁光村大舌湖35號","TEL":"02-26656508","COUNTYNAME":"新北市","TOWNNAME":"坪林區","MARKTYPE":"992","Class":"2"},"geometry":{"x":324394.04330000002,"y":2761679.6491}},{"attributes":{"OBJECTID":6178,"LANDMARKID":"1000100000602","LANDMARKCO":"203","LANDMARKNA":"縣立坪林國小","LANDMARKAD":"1000120","ADDRESS":"新北市坪林區坪林村坪林街114號","TEL":"02-26656213","COUNTYNAME":"新北市","TOWNNAME":"坪林區","MARKTYPE":"992","Class":"2"},"geometry":{"x":321808.10979999974,"y":2758908.5943}},{"attributes":{"OBJECTID":6179,"LANDMARKID":"1000100001531","LANDMARKCO":"308","LANDMARKNA":"國5-坪林交流道-北上","LANDMARKAD":"1000120","ADDRESS":"新北市坪林區","TEL":" ","COUNTYNAME":"新北市","TOWNNAME":"坪林區","MARKTYPE":"993","Class":"308"},"geometry":{"x":321851.57930000033,"y":2759752.6693999991}},{"attributes":{"OBJECTID":6180,"LANDMARKID":"1000100001532","LANDMARKCO":"308","LANDMARKNA":"國5-坪林交流道-南下","LANDMARKAD":"1000120","ADDRESS":"新北市坪林區","TEL":" ","COUNTYNAME":"新北市","TOWNNAME":"坪林區","MARKTYPE":"993","Class":"308"},"geometry":{"x":321905.4347000001,"y":2759549.9824999999}},{"attributes":{"OBJECTID":6181,"LANDMARKID":"1000100000991","LANDMARKCO":"302","LANDMARKNA":"新店汽車客運坪林站","LANDMARKAD":"1000120","ADDRESS":"新北市坪林區水柳腳路70號","TEL":" ","COUNTYNAME":"新北市","TOWNNAME":"坪林區","MARKTYPE":"993","Class":"302"},"geometry":{"x":321680.33359999955,"y":2758811.1525999997}},{"attributes":{"OBJECTID":6182,"LANDMARKID":"1000100001006","LANDMARKCO":"303","LANDMARKNA":"坪林區公共造產水柳腳立體停車場","LANDMARKAD":"1000120","ADDRESS":"新北市坪林區坪林村34之1號","TEL":" ","COUNTYNAME":"新北市","TOWNNAME":"坪林區","MARKTYPE":"993","Class":"303"},"geometry":{"x":321737.40479999967,"y":2758831.8772}},{"attributes":{"OBJECTID":6183,"LANDMARKID":"1000100001007","LANDMARKCO":"303","LANDMARKNA":"坪林立體停車場","LANDMARKAD":"1000120","ADDRESS":"新北市坪林區坪林村水柳腳路34之1號","TEL":" ","COUNTYNAME":"新北市","TOWNNAME":"坪林區","MARKTYPE":"993","Class":"303"},"geometry":{"x":321864.02869999968,"y":2762277.3377999999}},{"attributes":{"OBJECTID":6184,"LANDMARKID":"1000100002720","LANDMARKCO":"511","LANDMARKNA":"坪林區形象商圈","LANDMARKAD":"1000120","ADDRESS":"新北市坪林區","TEL":" ","COUNTYNAME":"新北市","TOWNNAME":"坪林區","MARKTYPE":"995","Class":"5"},"geometry":{"x":321554.23429999966,"y":2758745.0059999991}},{"attributes":{"OBJECTID":6185,"LANDMARKID":"1000100002028","LANDMARKCO":"405","LANDMARKNA":"中油加油站-中華成福站","LANDMARKAD":"1000109","ADDRESS":"新北市成福路318號","TEL":"02-22681188","COUNTYNAME":"新北市","TOWNNAME":"三峽區","MARKTYPE":"994","Class":"4"},"geometry":{"x":293369.62829999998,"y":2757366.3234000001}},{"attributes":{"OBJECTID":6186,"LANDMARKID":"1000100002029","LANDMARKCO":"405","LANDMARKNA":"中油加油站-三鶯站","LANDMARKAD":"1000109","ADDRESS":"新北市三峽區復興路316號","TEL":"02-26731177","COUNTYNAME":"新北市","TOWNNAME":"三峽區","MARKTYPE":"994","Class":"4"},"geometry":{"x":286879.23699999973,"y":2759080.4135999996}},{"attributes":{"OBJECTID":6187,"LANDMARKID":"1000100002030","LANDMARKCO":"405","LANDMARKNA":"中油加油站-宏福站","LANDMARKAD":"1000109","ADDRESS":"新北市三峽區介壽路一段550號","TEL":" ","COUNTYNAME":"新北市","TOWNNAME":"三峽區","MARKTYPE":"994","Class":"4"},"geometry":{"x":289124.47470000014,"y":2758463.4930000007}},{"attributes":{"OBJECTID":6188,"LANDMARKID":"1000100002031","LANDMARKCO":"405","LANDMARKNA":"中油加油站-大埔站(中油直營)","LANDMARKAD":"1000109","ADDRESS":"新北市三峽區中正路二段165號","TEL":"02-26710050","COUNTYNAME":"新北市","TOWNNAME":"三峽區","MARKTYPE":"994","Class":"4"},"geometry":{"x":286998.49490000028,"y":2756402.8487}},{"attributes":{"OBJECTID":6189,"LANDMARKID":"1000100002032","LANDMARKCO":"405","LANDMARKNA":"中油加油站-民盛站","LANDMARKAD":"1000109","ADDRESS":"新北市三峽區中正路2段362號","TEL":"02-86719299","COUNTYNAME":"新北市","TOWNNAME":"三峽區","MARKTYPE":"994","Class":"4"},"geometry":{"x":287000.1847000001,"y":2756700.4374000002}},{"attributes":{"OBJECTID":6190,"LANDMARKID":"1000100002033","LANDMARKCO":"405","LANDMARKNA":"中油加油站-溪南站","LANDMARKAD":"1000109","ADDRESS":"新北市三峽區介壽路一段385號","TEL":"02-8676-5801","COUNTYNAME":"新北市","TOWNNAME":"三峽區","MARKTYPE":"994","Class":"4"},"geometry":{"x":288752.3021999998,"y":2758208.1290000007}},{"attributes":{"OBJECTID":6191,"LANDMARKID":"1000100002034","LANDMARKCO":"405","LANDMARKNA":"中油加油站-清溪站","LANDMARKAD":"1000109","ADDRESS":"新北市三峽區溪東路89號","TEL":"02-86763311","COUNTYNAME":"新北市","TOWNNAME":"三峽區","MARKTYPE":"994","Class":"4"},"geometry":{"x":290246.39979999978,"y":2758693.1824999992}},{"attributes":{"OBJECTID":6192,"LANDMARKID":"1000100002035","LANDMARKCO":"405","LANDMARKNA":"中油加油站-三峽站(中油直營)","LANDMARKAD":"1000109","ADDRESS":"新北市三峽區介壽路一段193號","TEL":"02-26711123","COUNTYNAME":"新北市","TOWNNAME":"三峽區","MARKTYPE":"994","Class":"4"},"geometry":{"x":288163.78990000021,"y":2758186.7709999997}},{"attributes":{"OBJECTID":6193,"LANDMARKID":"1000100001571","LANDMARKCO":"401","LANDMARKNA":"三峽宏恩醫院","LANDMARKAD":"1000109","ADDRESS":"新北市三峽區大同路39之1號","TEL":"02-26746312","COUNTYNAME":"新北市","TOWNNAME":"三峽區","MARKTYPE":"994","Class":"4"},"geometry":{"x":288035.45679999981,"y":2757870.2663000003}},{"attributes":{"OBJECTID":6194,"LANDMARKID":"1000100001572","LANDMARKCO":"401","LANDMARKNA":"靜養醫院","LANDMARKAD":"1000109","ADDRESS":"新北市三峽區中山路459巷92號","TEL":"02-26710427","COUNTYNAME":"新北市","TOWNNAME":"三峽區","MARKTYPE":"994","Class":"4"},"geometry":{"x":286140.08239999972,"y":2758779.3964000009}},{"attributes":{"OBJECTID":6195,"LANDMARKID":"1000100001573","LANDMARKCO":"401","LANDMARKNA":"財團法人恩主公醫院","LANDMARKAD":"1000109","ADDRESS":"新北市三峽區復興路399號","TEL":"02-26723456","COUNTYNAME":"新北市","TOWNNAME":"三峽區","MARKTYPE":"994","Class":"4"},"geometry":{"x":286620.6671000002,"y":2758999.602}},{"attributes":{"OBJECTID":6196,"LANDMARKID":"1000100001574","LANDMARKCO":"401","LANDMARKNA":"文化醫院","LANDMARKAD":"1000109","ADDRESS":"新北市三峽區介壽路一段199號","TEL":"02-26732885","COUNTYNAME":"新北市","TOWNNAME":"三峽區","MARKTYPE":"994","Class":"4"},"geometry":{"x":288210.05850000028,"y":2758159.8498}},{"attributes":{"OBJECTID":6197,"LANDMARKID":"1000100002559","LANDMARKCO":"504","LANDMARKNA":"滿月圓森林遊樂區","LANDMARKAD":"1000109","ADDRESS":"新北市三峽區有木路174之1號","TEL":"02-26720046","COUNTYNAME":"新北市","TOWNNAME":"三峽區","MARKTYPE":"995","Class":"5"},"geometry":{"x":295062.48639999982,"y":2747421.5143999998}},{"attributes":{"OBJECTID":6198,"LANDMARKID":"1000100002438","LANDMARKCO":"408","LANDMARKNA":"郵局-三峽郵局","LANDMARKAD":"1000109","ADDRESS":"新北市三峽區民生街66號","TEL":"(02)2672-1173","COUNTYNAME":"新北市","TOWNNAME":"三峽區","MARKTYPE":"994","Class":"4"},"geometry":{"x":287839.34030000027,"y":2758741.1040000003}},{"attributes":{"OBJECTID":6199,"LANDMARKID":"1000100002439","LANDMARKCO":"408","LANDMARKNA":"郵局-三峽大埔郵局","LANDMARKAD":"1000109","ADDRESS":"新北市三峽區中正路2段269號","TEL":"(02)2671-1198","COUNTYNAME":"新北市","TOWNNAME":"三峽區","MARKTYPE":"994","Class":"4"},"geometry":{"x":287031.97119999956,"y":2756010.0888999999}},{"attributes":{"OBJECTID":6200,"LANDMARKID":"1000100002440","LANDMARKCO":"408","LANDMARKNA":"郵局-三峽中山郵局","LANDMARKAD":"1000109","ADDRESS":"新北市三峽區中山路11號","TEL":"(02)2671-1295","COUNTYNAME":"新北市","TOWNNAME":"三峽區","MARKTYPE":"994","Class":"4"},"geometry":{"x":287328.90759999957,"y":2758536.3143000007}}]}