{"displayFieldName":"COUNTYNAME","fieldAliases":{"OBJECTID":"OBJECTID","LANDMARKID":"LANDMARKID","LANDMARKCO":"LANDMARKCO","LANDMARKNA":"LANDMARKNA","LANDMARKAD":"LANDMARKAD","ADDRESS":"ADDRESS","TEL":"TEL","COUNTYNAME":"COUNTYNAME","TOWNNAME":"TOWNNAME","MARKTYPE":"MARKTYPE","Class":"Class"},"geometryType":"esriGeometryPoint","spatialReference":{"wkid":102443},"fields":[{"name":"OBJECTID","type":"esriFieldTypeOID","alias":"OBJECTID"},{"name":"LANDMARKID","type":"esriFieldTypeString","alias":"LANDMARKID","length":15},{"name":"LANDMARKCO","type":"esriFieldTypeString","alias":"LANDMARKCO","length":15},{"name":"LANDMARKNA","type":"esriFieldTypeString","alias":"LANDMARKNA","length":50},{"name":"LANDMARKAD","type":"esriFieldTypeString","alias":"LANDMARKAD","length":15},{"name":"ADDRESS","type":"esriFieldTypeString","alias":"ADDRESS","length":56},{"name":"TEL","type":"esriFieldTypeString","alias":"TEL","length":36},{"name":"COUNTYNAME","type":"esriFieldTypeString","alias":"COUNTYNAME","length":15},{"name":"TOWNNAME","type":"esriFieldTypeString","alias":"TOWNNAME","length":13},{"name":"MARKTYPE","type":"esriFieldTypeString","alias":"MARKTYPE","length":12},{"name":"Class","type":"esriFieldTypeString","alias":"Class","length":5}],"features":[{"attributes":{"OBJECTID":22801,"LANDMARKID":"1000200000932","LANDMARKCO":"604","LANDMARKNA":"菁仔地民宿","LANDMARKAD":"1000209","ADDRESS":"宜蘭縣五結鄉協和村親河路1段180巷72弄11號","TEL":"03-9504431","COUNTYNAME":"宜蘭縣","TOWNNAME":"五結鄉","MARKTYPE":"996","Class":"6"},"geometry":{"x":332827.45870000031,"y":2729655.9833000004}},{"attributes":{"OBJECTID":22802,"LANDMARKID":"1000200000933","LANDMARKCO":"604","LANDMARKNA":"古風城民宿","LANDMARKAD":"1000209","ADDRESS":"宜蘭縣五結鄉協和村親河路1段210號","TEL":"03-9603238","COUNTYNAME":"宜蘭縣","TOWNNAME":"五結鄉","MARKTYPE":"996","Class":"6"},"geometry":{"x":332765.2790000001,"y":2729318.3649000004}},{"attributes":{"OBJECTID":22803,"LANDMARKID":"1000200000934","LANDMARKCO":"604","LANDMARKNA":"虹橋畔民宿","LANDMARKAD":"1000209","ADDRESS":"宜蘭縣五結鄉協和村親河路1段218號","TEL":"03-9600888","COUNTYNAME":"宜蘭縣","TOWNNAME":"五結鄉","MARKTYPE":"996","Class":"6"},"geometry":{"x":332751.31510000024,"y":2729324.4481000006}},{"attributes":{"OBJECTID":22804,"LANDMARKID":"1000200000935","LANDMARKCO":"604","LANDMARKNA":"河堤畫境民宿","LANDMARKAD":"1000209","ADDRESS":"宜蘭縣五結鄉協和村親河路1段220-2號","TEL":"03-9503228","COUNTYNAME":"宜蘭縣","TOWNNAME":"五結鄉","MARKTYPE":"996","Class":"6"},"geometry":{"x":332733.34520000033,"y":2729329.5550999995}},{"attributes":{"OBJECTID":22805,"LANDMARKID":"1000200000936","LANDMARKCO":"604","LANDMARKNA":"緣賓民宿","LANDMARKAD":"1000209","ADDRESS":"宜蘭縣五結鄉協和村親河路1段220-5號","TEL":"0921-933815","COUNTYNAME":"宜蘭縣","TOWNNAME":"五結鄉","MARKTYPE":"996","Class":"6"},"geometry":{"x":332716.3574000001,"y":2729331.6563000008}},{"attributes":{"OBJECTID":22806,"LANDMARKID":"1000200000937","LANDMARKCO":"604","LANDMARKNA":"親河園民宿","LANDMARKAD":"1000209","ADDRESS":"宜蘭縣五結鄉協和村親河路1段220號","TEL":"0928-620079","COUNTYNAME":"宜蘭縣","TOWNNAME":"五結鄉","MARKTYPE":"996","Class":"6"},"geometry":{"x":332746.32710000034,"y":2729326.4778000005}},{"attributes":{"OBJECTID":22807,"LANDMARKID":"1000200000938","LANDMARKCO":"604","LANDMARKNA":"冬山河左岸民宿","LANDMARKAD":"1000209","ADDRESS":"宜蘭縣五結鄉協和村親河路2段103巷1弄10號","TEL":"03-9507500","COUNTYNAME":"宜蘭縣","TOWNNAME":"五結鄉","MARKTYPE":"996","Class":"6"},"geometry":{"x":331929.52080000006,"y":2729802.3045000006}},{"attributes":{"OBJECTID":22808,"LANDMARKID":"1000200000939","LANDMARKCO":"604","LANDMARKNA":"薰衣草?民宿","LANDMARKAD":"1000209","ADDRESS":"宜蘭縣五結鄉協和村親河路2段103巷1弄11號","TEL":"03-9501313","COUNTYNAME":"宜蘭縣","TOWNNAME":"五結鄉","MARKTYPE":"996","Class":"6"},"geometry":{"x":331934.61500000022,"y":2729818.2744999994}},{"attributes":{"OBJECTID":22809,"LANDMARKID":"1000200000940","LANDMARKCO":"604","LANDMARKNA":"親水畫境民宿","LANDMARKAD":"1000209","ADDRESS":"宜蘭縣五結鄉協和村親河路2段103巷1弄18號","TEL":"03-9509490","COUNTYNAME":"宜蘭縣","TOWNNAME":"五結鄉","MARKTYPE":"996","Class":"6"},"geometry":{"x":331947.50850000046,"y":2729800.1984000001}},{"attributes":{"OBJECTID":22810,"LANDMARKID":"1000200000941","LANDMARKCO":"604","LANDMARKNA":"晴天娃娃民宿","LANDMARKAD":"1000209","ADDRESS":"宜蘭縣五結鄉協和村親河路2段103巷1弄1號","TEL":"03-9507912","COUNTYNAME":"宜蘭縣","TOWNNAME":"五結鄉","MARKTYPE":"996","Class":"6"},"geometry":{"x":331910.62750000041,"y":2729820.4158999994}},{"attributes":{"OBJECTID":22811,"LANDMARKID":"1000200000942","LANDMARKCO":"604","LANDMARKNA":"熙緹歐風民宿","LANDMARKAD":"1000209","ADDRESS":"宜蘭縣五結鄉協和村親河路2段291巷51弄8號","TEL":"0930-857591","COUNTYNAME":"宜蘭縣","TOWNNAME":"五結鄉","MARKTYPE":"996","Class":"6"},"geometry":{"x":331248.26900000032,"y":2729618.3747000005}},{"attributes":{"OBJECTID":22812,"LANDMARKID":"1000200000943","LANDMARKCO":"604","LANDMARKNA":"念念不忘","LANDMARKAD":"1000209","ADDRESS":"宜蘭縣五結鄉協和村親河路2段103巷1弄20號","TEL":"03-9605606","COUNTYNAME":"宜蘭縣","TOWNNAME":"五結鄉","MARKTYPE":"996","Class":"6"},"geometry":{"x":331951.5083999997,"y":2729800.1747999992}},{"attributes":{"OBJECTID":22813,"LANDMARKID":"1000200000944","LANDMARKCO":"604","LANDMARKNA":"河風精緻?民宿","LANDMARKAD":"1000209","ADDRESS":"宜蘭縣五結鄉協和村親河路2段103巷1弄2號","TEL":"03-9501313","COUNTYNAME":"宜蘭縣","TOWNNAME":"五結鄉","MARKTYPE":"996","Class":"6"},"geometry":{"x":331915.52120000031,"y":2729802.3870999999}},{"attributes":{"OBJECTID":22814,"LANDMARKID":"1000200000945","LANDMARKCO":"604","LANDMARKNA":"浪漫滿屋民宿","LANDMARKAD":"1000209","ADDRESS":"宜蘭縣五結鄉協和村親河路2段103巷1弄3號","TEL":"03-9605606","COUNTYNAME":"宜蘭縣","TOWNNAME":"五結鄉","MARKTYPE":"996","Class":"6"},"geometry":{"x":331915.62729999982,"y":2729820.3864999991}},{"attributes":{"OBJECTID":22815,"LANDMARKID":"1000200000946","LANDMARKCO":"604","LANDMARKNA":"逗點休閒民宿","LANDMARKAD":"1000209","ADDRESS":"宜蘭縣五結鄉協和村親河路2段103巷1弄6號","TEL":"03-9508463","COUNTYNAME":"宜蘭縣","TOWNNAME":"五結鄉","MARKTYPE":"996","Class":"6"},"geometry":{"x":331920.52099999972,"y":2729802.3575999998}},{"attributes":{"OBJECTID":22816,"LANDMARKID":"1000200000947","LANDMARKCO":"604","LANDMARKNA":"依依不捨","LANDMARKAD":"1000209","ADDRESS":"宜蘭縣五結鄉協和村親河路2段103巷1弄7號","TEL":"03-9605606","COUNTYNAME":"宜蘭縣","TOWNNAME":"五結鄉","MARKTYPE":"996","Class":"6"},"geometry":{"x":331926.62110000011,"y":2729819.3215999994}},{"attributes":{"OBJECTID":22817,"LANDMARKID":"1000200000948","LANDMARKCO":"604","LANDMARKNA":"向日葵之民宿","LANDMARKAD":"1000209","ADDRESS":"宜蘭縣五結鄉協和村親河路2段103巷1弄8號","TEL":"03-9501313","COUNTYNAME":"宜蘭縣","TOWNNAME":"五結鄉","MARKTYPE":"996","Class":"6"},"geometry":{"x":331927.52080000006,"y":2729802.3162999991}},{"attributes":{"OBJECTID":22818,"LANDMARKID":"1000200000949","LANDMARKCO":"604","LANDMARKNA":"戀戀小棧英式民宿","LANDMARKAD":"1000209","ADDRESS":"宜蘭縣五結鄉協和村親河路2段103巷3弄11號","TEL":"03-9500863","COUNTYNAME":"宜蘭縣","TOWNNAME":"五結鄉","MARKTYPE":"996","Class":"6"},"geometry":{"x":331943.45550000016,"y":2729791.2223000005}},{"attributes":{"OBJECTID":22819,"LANDMARKID":"1000200000950","LANDMARKCO":"604","LANDMARKNA":"我家小屋民宿","LANDMARKAD":"1000209","ADDRESS":"宜蘭縣五結鄉協和村親河路2段103巷3弄13號","TEL":"03-9500863","COUNTYNAME":"宜蘭縣","TOWNNAME":"五結鄉","MARKTYPE":"996","Class":"6"},"geometry":{"x":331948.45529999956,"y":2729791.1928000003}},{"attributes":{"OBJECTID":22820,"LANDMARKID":"1000200000951","LANDMARKCO":"604","LANDMARKNA":"老船長","LANDMARKAD":"1000209","ADDRESS":"宜蘭縣五結鄉協和村親河路2段103巷3弄1號","TEL":"03-9600510","COUNTYNAME":"宜蘭縣","TOWNNAME":"五結鄉","MARKTYPE":"996","Class":"6"},"geometry":{"x":331918.46210000012,"y":2729792.3696999997}},{"attributes":{"OBJECTID":22821,"LANDMARKID":"1000200000952","LANDMARKCO":"604","LANDMARKNA":"一家人民宿","LANDMARKAD":"1000209","ADDRESS":"宜蘭縣五結鄉五結村國民路國全巷1弄11號","TEL":"03-9602799","COUNTYNAME":"宜蘭縣","TOWNNAME":"五結鄉","MARKTYPE":"996","Class":"6"},"geometry":{"x":330799.91069999989,"y":2731402.2910999991}},{"attributes":{"OBJECTID":22822,"LANDMARKID":"1000200000953","LANDMARKCO":"604","LANDMARKNA":"貝律民宿","LANDMARKAD":"1000209","ADDRESS":"宜蘭縣五結鄉成興村利寶路143號","TEL":"03-9604843","COUNTYNAME":"宜蘭縣","TOWNNAME":"五結鄉","MARKTYPE":"996","Class":"6"},"geometry":{"x":333671.21019999962,"y":2729001.9936999995}},{"attributes":{"OBJECTID":22823,"LANDMARKID":"1000200000954","LANDMARKCO":"604","LANDMARKNA":"王子與公主的家","LANDMARKAD":"1000209","ADDRESS":"宜蘭縣五結鄉孝威村五結路1段419巷100號","TEL":"03-9603465","COUNTYNAME":"宜蘭縣","TOWNNAME":"五結鄉","MARKTYPE":"996","Class":"6"},"geometry":{"x":332550.40730000008,"y":2731631.8858000003}},{"attributes":{"OBJECTID":22824,"LANDMARKID":"1000200000955","LANDMARKCO":"604","LANDMARKNA":"孝威豪華渡假民宿","LANDMARKAD":"1000209","ADDRESS":"宜蘭縣五結鄉孝威村五結路2段40號","TEL":"03-9501779","COUNTYNAME":"宜蘭縣","TOWNNAME":"五結鄉","MARKTYPE":"996","Class":"6"},"geometry":{"x":331929.24670000002,"y":2732217.2199000008}},{"attributes":{"OBJECTID":22825,"LANDMARKID":"1000200000956","LANDMARKCO":"604","LANDMARKNA":"戀戀小屋","LANDMARKAD":"1000209","ADDRESS":"宜蘭縣五結鄉協和村親河路2段103巷3弄7號","TEL":"03-9500863","COUNTYNAME":"宜蘭縣","TOWNNAME":"五結鄉","MARKTYPE":"996","Class":"6"},"geometry":{"x":331932.46169999987,"y":2729792.2872000001}},{"attributes":{"OBJECTID":22826,"LANDMARKID":"1000200000957","LANDMARKCO":"604","LANDMARKNA":"七里香民宿","LANDMARKAD":"1000209","ADDRESS":"宜蘭縣五結鄉協和村親河路2段198號","TEL":"0919-215809","COUNTYNAME":"宜蘭縣","TOWNNAME":"五結鄉","MARKTYPE":"996","Class":"6"},"geometry":{"x":331635.00519999955,"y":2729883.3855000008}},{"attributes":{"OBJECTID":22827,"LANDMARKID":"1000200000958","LANDMARKCO":"604","LANDMARKNA":"大姊的家民宿","LANDMARKAD":"1000209","ADDRESS":"宜蘭縣五結鄉協和村親河路2段218巷5號","TEL":"03-9500256","COUNTYNAME":"宜蘭縣","TOWNNAME":"五結鄉","MARKTYPE":"996","Class":"6"},"geometry":{"x":331588.08839999977,"y":2729897.6612}},{"attributes":{"OBJECTID":22828,"LANDMARKID":"1000200000959","LANDMARKCO":"604","LANDMARKNA":"好樂家民宿","LANDMARKAD":"1000209","ADDRESS":"宜蘭縣五結鄉協和村親河路2段269號","TEL":"03-9601667","COUNTYNAME":"宜蘭縣","TOWNNAME":"五結鄉","MARKTYPE":"996","Class":"6"},"geometry":{"x":331349.55460000038,"y":2729805.4129000008}},{"attributes":{"OBJECTID":22829,"LANDMARKID":"1000200000960","LANDMARKCO":"604","LANDMARKNA":"指月軒民宿","LANDMARKAD":"1000209","ADDRESS":"宜蘭縣五結鄉協和村親河路2段291巷51弄20號","TEL":"03-9606358","COUNTYNAME":"宜蘭縣","TOWNNAME":"五結鄉","MARKTYPE":"996","Class":"6"},"geometry":{"x":331301.23290000018,"y":2729613.7062999997}},{"attributes":{"OBJECTID":22830,"LANDMARKID":"1000200000961","LANDMARKCO":"604","LANDMARKNA":"喜樂的家民宿","LANDMARKAD":"1000209","ADDRESS":"宜蘭縣五結鄉協和村親河路2段291巷51弄22號","TEL":"03-9606091","COUNTYNAME":"宜蘭縣","TOWNNAME":"五結鄉","MARKTYPE":"996","Class":"6"},"geometry":{"x":331308.22690000013,"y":2729612.6654000003}},{"attributes":{"OBJECTID":22831,"LANDMARKID":"1000200000962","LANDMARKCO":"604","LANDMARKNA":"水雲山莊民宿","LANDMARKAD":"1000209","ADDRESS":"宜蘭縣五結鄉協和村親河路2段291巷51弄6號","TEL":"03-9508388","COUNTYNAME":"宜蘭縣","TOWNNAME":"五結鄉","MARKTYPE":"996","Class":"6"},"geometry":{"x":331238.28089999966,"y":2729620.4331}},{"attributes":{"OBJECTID":22832,"LANDMARKID":"1000200000963","LANDMARKCO":"604","LANDMARKNA":"地中海民宿","LANDMARKAD":"1000209","ADDRESS":"宜蘭縣五結鄉協和村協和路25之50號","TEL":"03-9605388","COUNTYNAME":"宜蘭縣","TOWNNAME":"五結鄉","MARKTYPE":"996","Class":"6"},"geometry":{"x":332310.11629999988,"y":2730211.7021999992}},{"attributes":{"OBJECTID":22833,"LANDMARKID":"1000200000964","LANDMARKCO":"604","LANDMARKNA":"夏日小徑民宿","LANDMARKAD":"1000209","ADDRESS":"宜蘭縣五結鄉協和村親河路2段103巷1弄16號","TEL":"03-9600669","COUNTYNAME":"宜蘭縣","TOWNNAME":"五結鄉","MARKTYPE":"996","Class":"6"},"geometry":{"x":331940.52049999963,"y":2729802.2396000009}},{"attributes":{"OBJECTID":22834,"LANDMARKID":"1000200000965","LANDMARKCO":"604","LANDMARKNA":"心適軒宜蘭民宿","LANDMARKAD":"1000209","ADDRESS":"宜蘭縣五結鄉錦眾村大眾北路15-7號","TEL":"03-9605596","COUNTYNAME":"宜蘭縣","TOWNNAME":"五結鄉","MARKTYPE":"996","Class":"6"},"geometry":{"x":332830.14360000007,"y":2732819.8460000008}},{"attributes":{"OBJECTID":22835,"LANDMARKID":"1000200000966","LANDMARKCO":"604","LANDMARKNA":"矜惜民宿","LANDMARKAD":"1000209","ADDRESS":"宜蘭縣五結鄉孝威村孝威南路23-30號","TEL":"03-9503427","COUNTYNAME":"宜蘭縣","TOWNNAME":"五結鄉","MARKTYPE":"996","Class":"6"},"geometry":{"x":332488.98560000025,"y":2730806.2837000005}},{"attributes":{"OBJECTID":22836,"LANDMARKID":"1000200000967","LANDMARKCO":"604","LANDMARKNA":"浮線發想之島","LANDMARKAD":"1000209","ADDRESS":"宜蘭縣五結鄉錦眾村五結路1段376巷2號","TEL":"03-9606090","COUNTYNAME":"宜蘭縣","TOWNNAME":"五結鄉","MARKTYPE":"996","Class":"6"},"geometry":{"x":334208.69070000015,"y":2731995.0236000009}},{"attributes":{"OBJECTID":22837,"LANDMARKID":"1000200000968","LANDMARKCO":"604","LANDMARKNA":"設計師的家休閒民宿","LANDMARKAD":"1000209","ADDRESS":"宜蘭縣五結鄉孝威村孝威一路138號","TEL":"03-9506568","COUNTYNAME":"宜蘭縣","TOWNNAME":"五結鄉","MARKTYPE":"996","Class":"6"},"geometry":{"x":331941.44699999969,"y":2732728.1370999999}},{"attributes":{"OBJECTID":22838,"LANDMARKID":"1000200000969","LANDMARKCO":"604","LANDMARKNA":"輕塵別院","LANDMARKAD":"1000209","ADDRESS":"宜蘭縣五結鄉大吉村三吉路22-18號","TEL":"03-9606668","COUNTYNAME":"宜蘭縣","TOWNNAME":"五結鄉","MARKTYPE":"996","Class":"6"},"geometry":{"x":330554.93169999961,"y":2732943.0316000003}},{"attributes":{"OBJECTID":22839,"LANDMARKID":"1000200000970","LANDMARKCO":"604","LANDMARKNA":"美麗人生民宿","LANDMARKAD":"1000209","ADDRESS":"宜蘭縣五結鄉大吉村大吉東路33巷6號","TEL":"02-82453778","COUNTYNAME":"宜蘭縣","TOWNNAME":"五結鄉","MARKTYPE":"996","Class":"6"},"geometry":{"x":331043.37420000043,"y":2731790.4978999998}},{"attributes":{"OBJECTID":22840,"LANDMARKID":"1000200000971","LANDMARKCO":"604","LANDMARKNA":"太和民宿","LANDMARKAD":"1000209","ADDRESS":"宜蘭縣五結鄉福興村福和二路117號","TEL":"03-9504792","COUNTYNAME":"宜蘭縣","TOWNNAME":"五結鄉","MARKTYPE":"996","Class":"6"},"geometry":{"x":330832.75289999973,"y":2730452.1313000005}},{"attributes":{"OBJECTID":22841,"LANDMARKID":"1000200000664","LANDMARKCO":"505","LANDMARKNA":"冬山河親水公園","LANDMARKAD":"1000209","ADDRESS":"宜蘭縣五結鄉親河路二段2號","TEL":" ","COUNTYNAME":"宜蘭縣","TOWNNAME":"五結鄉","MARKTYPE":"995","Class":"5"},"geometry":{"x":332192.59210000001,"y":2729723.3764999993}},{"attributes":{"OBJECTID":22842,"LANDMARKID":"1000200000723","LANDMARKCO":"510","LANDMARKNA":"羅東高爾夫練習場","LANDMARKAD":"1000209","ADDRESS":"宜蘭縣五結鄉三結西路32號","TEL":"039-506502","COUNTYNAME":"宜蘭縣","TOWNNAME":"五結鄉","MARKTYPE":"995","Class":"5"},"geometry":{"x":328483.19759999961,"y":2732960.7367000002}},{"attributes":{"OBJECTID":22843,"LANDMARKID":"1000200000513","LANDMARKCO":"405","LANDMARKNA":"中油加油站-大埔站","LANDMARKAD":"1000210","ADDRESS":"宜蘭縣三星鄉大埔路66之26號","TEL":"03-9899521","COUNTYNAME":"宜蘭縣","TOWNNAME":"三星鄉","MARKTYPE":"994","Class":"4"},"geometry":{"x":323345.77960000001,"y":2729411.5237000007}},{"attributes":{"OBJECTID":22844,"LANDMARKID":"1000200000514","LANDMARKCO":"405","LANDMARKNA":"中油加油站-億昌站","LANDMARKAD":"1000210","ADDRESS":"宜蘭縣三星鄉大洲路149號","TEL":"03-9559618","COUNTYNAME":"宜蘭縣","TOWNNAME":"三星鄉","MARKTYPE":"994","Class":"4"},"geometry":{"x":323682.5839999998,"y":2732542.4404000007}},{"attributes":{"OBJECTID":22845,"LANDMARKID":"1000200000515","LANDMARKCO":"405","LANDMARKNA":"中油加油站-三星站(中油直營)","LANDMARKAD":"1000210","ADDRESS":"宜蘭縣三星鄉三星路四段235號","TEL":"039-892219","COUNTYNAME":"宜蘭縣","TOWNNAME":"三星鄉","MARKTYPE":"994","Class":"4"},"geometry":{"x":316553.31649999972,"y":2729092.0056999996}},{"attributes":{"OBJECTID":22846,"LANDMARKID":"1000200000665","LANDMARKCO":"506","LANDMARKNA":"清水綜合觀光果園","LANDMARKAD":"1000210","ADDRESS":"宜蘭縣三星鄉雙賢村8鄰140號　　","TEL":"03-9893726","COUNTYNAME":"宜蘭縣","TOWNNAME":"三星鄉","MARKTYPE":"995","Class":"5"},"geometry":{"x":325776.69259999972,"y":2732432.3311999999}},{"attributes":{"OBJECTID":22847,"LANDMARKID":"1000200000616","LANDMARKCO":"408","LANDMARKNA":"郵局-三星郵局","LANDMARKAD":"1000210","ADDRESS":"宜蘭縣三星鄉太平路134號","TEL":"(03)9894-014","COUNTYNAME":"宜蘭縣","TOWNNAME":"三星鄉","MARKTYPE":"994","Class":"4"},"geometry":{"x":316095.56769999955,"y":2729012.4703000002}},{"attributes":{"OBJECTID":22848,"LANDMARKID":"1000200000621","LANDMARKCO":"409","LANDMARKNA":"宜蘭縣三星地區農會","LANDMARKAD":"1000210","ADDRESS":"宜蘭縣三星鄉中山路31號","TEL":"03-9893170-4","COUNTYNAME":"宜蘭縣","TOWNNAME":"三星鄉","MARKTYPE":"994","Class":"4"},"geometry":{"x":315763.1342000002,"y":2729153.1093000006}},{"attributes":{"OBJECTID":22849,"LANDMARKID":"1000200000503","LANDMARKCO":"404","LANDMARKNA":"台灣省自來水三星營運所","LANDMARKAD":"1000210","ADDRESS":"宜蘭縣三星鄉太平路67號","TEL":" ","COUNTYNAME":"宜蘭縣","TOWNNAME":"三星鄉","MARKTYPE":"994","Class":"4"},"geometry":{"x":316241.85340000037,"y":2729013.4113999996}},{"attributes":{"OBJECTID":22850,"LANDMARKID":"1000200000099","LANDMARKCO":"107","LANDMARKNA":"宜蘭縣消防局三星消防分隊","LANDMARKAD":"1000210","ADDRESS":"宜蘭縣三星鄉中山路7號之7","TEL":"03-9892271","COUNTYNAME":"宜蘭縣","TOWNNAME":"三星鄉","MARKTYPE":"991","Class":"1"},"geometry":{"x":316010.54829999991,"y":2729128.9521999992}},{"attributes":{"OBJECTID":22851,"LANDMARKID":"1000200000084","LANDMARKCO":"106","LANDMARKNA":"宜蘭縣三星鄉戶政事務所","LANDMARKAD":"1000210","ADDRESS":"宜蘭縣三星鄉義德村7鄰中山路7之6號","TEL":"039-892233","COUNTYNAME":"宜蘭縣","TOWNNAME":"三星鄉","MARKTYPE":"991","Class":"1"},"geometry":{"x":316025.31049999967,"y":2729078.8819999993}},{"attributes":{"OBJECTID":22852,"LANDMARKID":"1000200000036","LANDMARKCO":"103","LANDMARKNA":"宜蘭縣三星鄉鄉民代表會","LANDMARKAD":"1000210","ADDRESS":"宜蘭縣三星鄉成功路67之7號","TEL":"03-9892040","COUNTYNAME":"宜蘭縣","TOWNNAME":"三星鄉","MARKTYPE":"991","Class":"1"},"geometry":{"x":316337.09179999959,"y":2728418.7453000005}},{"attributes":{"OBJECTID":22853,"LANDMARKID":"1000200000189","LANDMARKCO":"108","LANDMARKNA":"宜蘭縣三星鄉公所","LANDMARKAD":"1000210","ADDRESS":"宜蘭縣三星鄉成功路67號","TEL":"03-9892018","COUNTYNAME":"宜蘭縣","TOWNNAME":"三星鄉","MARKTYPE":"991","Class":"1"},"geometry":{"x":316322.14199999999,"y":2728638.8165000007}},{"attributes":{"OBJECTID":22854,"LANDMARKID":"1000200000040","LANDMARKCO":"103","LANDMARKNA":"宜蘭縣三星鄉調解委員會","LANDMARKAD":"1000210","ADDRESS":"宜蘭縣三星鄉成功路67之2號","TEL":"03-9891604","COUNTYNAME":"宜蘭縣","TOWNNAME":"三星鄉","MARKTYPE":"991","Class":"1"},"geometry":{"x":316315.85570000019,"y":2728578.8465999998}},{"attributes":{"OBJECTID":22855,"LANDMARKID":"1000200000041","LANDMARKCO":"103","LANDMARKNA":"宜蘭縣三星鄉衛生所","LANDMARKAD":"1000210","ADDRESS":"宜蘭縣三星鄉三星路五段70號","TEL":"03-9892227","COUNTYNAME":"宜蘭縣","TOWNNAME":"三星鄉","MARKTYPE":"991","Class":"1"},"geometry":{"x":315769.25069999974,"y":2728968.7751000002}},{"attributes":{"OBJECTID":22856,"LANDMARKID":"1000200000093","LANDMARKCO":"107","LANDMARKNA":"宜蘭縣警察局三星分局","LANDMARKAD":"1000210","ADDRESS":"宜蘭縣三星鄉三星路5段6號","TEL":"03-9891564","COUNTYNAME":"宜蘭縣","TOWNNAME":"三星鄉","MARKTYPE":"991","Class":"1"},"geometry":{"x":316016.21559999976,"y":2729058.9252000004}},{"attributes":{"OBJECTID":22857,"LANDMARKID":"1000200000094","LANDMARKCO":"107","LANDMARKNA":"宜蘭縣警察局三星派出所","LANDMARKAD":"1000210","ADDRESS":"宜蘭縣三星鄉三星路5段6號","TEL":"03-9892561","COUNTYNAME":"宜蘭縣","TOWNNAME":"三星鄉","MARKTYPE":"991","Class":"1"},"geometry":{"x":316009.21580000035,"y":2729058.9584999997}},{"attributes":{"OBJECTID":22858,"LANDMARKID":"1000200000095","LANDMARKCO":"107","LANDMARKNA":"宜蘭縣警察局楓林派出所","LANDMARKAD":"1000210","ADDRESS":"宜蘭縣三星鄉桂林村萬德路100之1號","TEL":"03-9891798","COUNTYNAME":"宜蘭縣","TOWNNAME":"三星鄉","MARKTYPE":"991","Class":"1"},"geometry":{"x":316036.12660000008,"y":2730788.7952999994}},{"attributes":{"OBJECTID":22859,"LANDMARKID":"1000200000096","LANDMARKCO":"107","LANDMARKNA":"宜蘭縣警察局福山派出所","LANDMARKAD":"1000210","ADDRESS":"宜蘭縣三星鄉天福村三星路七段310號","TEL":"03-9893224","COUNTYNAME":"宜蘭縣","TOWNNAME":"三星鄉","MARKTYPE":"991","Class":"1"},"geometry":{"x":312902.43080000021,"y":2728479.0844000001}},{"attributes":{"OBJECTID":22860,"LANDMARKID":"1000200000097","LANDMARKCO":"107","LANDMARKNA":"宜蘭縣警察局大隱派出所","LANDMARKAD":"1000210","ADDRESS":"宜蘭縣三星鄉三星路2段350號","TEL":"03-9898910","COUNTYNAME":"宜蘭縣","TOWNNAME":"三星鄉","MARKTYPE":"991","Class":"1"},"geometry":{"x":321168.28029999975,"y":2729289.8112000003}},{"attributes":{"OBJECTID":22861,"LANDMARKID":"1000200000098","LANDMARKCO":"107","LANDMARKNA":"宜蘭縣警察局大洲派出所","LANDMARKAD":"1000210","ADDRESS":"宜蘭縣三星鄉上將路2段468號","TEL":"03-9573517","COUNTYNAME":"宜蘭縣","TOWNNAME":"三星鄉","MARKTYPE":"991","Class":"1"},"geometry":{"x":323850.3666000003,"y":2732078.9196000006}},{"attributes":{"OBJECTID":22862,"LANDMARKID":"1000200000026","LANDMARKCO":"101","LANDMARKNA":"台灣宜蘭監獄","LANDMARKAD":"1000210","ADDRESS":"宜蘭縣三星鄉安農新村1號","TEL":"03-9894166","COUNTYNAME":"宜蘭縣","TOWNNAME":"三星鄉","MARKTYPE":"991","Class":"1"},"geometry":{"x":318287.34279999975,"y":2728478.7957000006}},{"attributes":{"OBJECTID":22863,"LANDMARKID":"1000200000251","LANDMARKCO":"203","LANDMARKNA":"縣立憲明國小","LANDMARKAD":"1000210","ADDRESS":"宜蘭縣三星鄉天山村福山街119號","TEL":"03-9892049","COUNTYNAME":"宜蘭縣","TOWNNAME":"三星鄉","MARKTYPE":"992","Class":"2"},"geometry":{"x":312615.28010000009,"y":2728359.1217999998}},{"attributes":{"OBJECTID":22864,"LANDMARKID":"1000200000252","LANDMARKCO":"203","LANDMARKNA":"縣立萬富國小","LANDMARKAD":"1000210","ADDRESS":"宜蘭縣三星鄉萬富村萬富路5號","TEL":"03-9890564","COUNTYNAME":"宜蘭縣","TOWNNAME":"三星鄉","MARKTYPE":"992","Class":"2"},"geometry":{"x":319651.98770000041,"y":2730458.9301999994}},{"attributes":{"OBJECTID":22865,"LANDMARKID":"1000200000253","LANDMARKCO":"203","LANDMARKNA":"縣立大洲國小","LANDMARKAD":"1000210","ADDRESS":"宜蘭縣三星鄉大洲路162號","TEL":"03-9551547","COUNTYNAME":"宜蘭縣","TOWNNAME":"三星鄉","MARKTYPE":"992","Class":"2"},"geometry":{"x":323657.62530000042,"y":2731939.9440000001}},{"attributes":{"OBJECTID":22866,"LANDMARKID":"1000200000254","LANDMARKCO":"203","LANDMARKNA":"縣立大隱國小","LANDMARKAD":"1000210","ADDRESS":"宜蘭縣三星鄉大埔路129號","TEL":"03-9890155","COUNTYNAME":"宜蘭縣","TOWNNAME":"三星鄉","MARKTYPE":"992","Class":"2"},"geometry":{"x":322176.33640000038,"y":2729108.9548000004}},{"attributes":{"OBJECTID":22867,"LANDMARKID":"1000200000190","LANDMARKCO":"201","LANDMARKNA":"聖母醫護管理專科學校","LANDMARKAD":"1000210","ADDRESS":"宜蘭縣三星鄉三星路二段265巷100號","TEL":"03-9897396","COUNTYNAME":"宜蘭縣","TOWNNAME":"三星鄉","MARKTYPE":"992","Class":"2"},"geometry":{"x":321158.6026999997,"y":2728849.8687999994}},{"attributes":{"OBJECTID":22868,"LANDMARKID":"1000200000248","LANDMARKCO":"203","LANDMARKNA":"縣立三星國中","LANDMARKAD":"1000210","ADDRESS":"宜蘭縣三星鄉月眉村54號","TEL":"03-9982678","COUNTYNAME":"宜蘭縣","TOWNNAME":"三星鄉","MARKTYPE":"992","Class":"2"},"geometry":{"x":316101.73730000015,"y":2729169.8527000006}},{"attributes":{"OBJECTID":22869,"LANDMARKID":"1000200000249","LANDMARKCO":"203","LANDMARKNA":"縣立三星國小","LANDMARKAD":"1000210","ADDRESS":"宜蘭縣三星鄉義德街12號","TEL":"03-9892026","COUNTYNAME":"宜蘭縣","TOWNNAME":"三星鄉","MARKTYPE":"992","Class":"2"},"geometry":{"x":315842.1716,"y":2729049.7511}},{"attributes":{"OBJECTID":22870,"LANDMARKID":"1000200000250","LANDMARKCO":"203","LANDMARKNA":"縣立清水國小","LANDMARKAD":"1000210","ADDRESS":"宜蘭縣三星鄉","TEL":" ","COUNTYNAME":"宜蘭縣","TOWNNAME":"三星鄉","MARKTYPE":"992","Class":"2"},"geometry":{"x":310434.78139999975,"y":2726398.8900000006}},{"attributes":{"OBJECTID":22871,"LANDMARKID":"1000200000435","LANDMARKCO":"303","LANDMARKNA":"長埤湖風景區停車場","LANDMARKAD":"1000210","ADDRESS":"宜蘭縣三星鄉三星路八段","TEL":" ","COUNTYNAME":"宜蘭縣","TOWNNAME":"三星鄉","MARKTYPE":"993","Class":"303"},"geometry":{"x":311773.91330000013,"y":2726467.2397000007}},{"attributes":{"OBJECTID":22872,"LANDMARKID":"1000200000476","LANDMARKCO":"402","LANDMARKNA":"中華電信-三星服務中心","LANDMARKAD":"1000210","ADDRESS":"宜蘭縣三星鄉中山路26號","TEL":"(03)989-3891","COUNTYNAME":"宜蘭縣","TOWNNAME":"三星鄉","MARKTYPE":"994","Class":"4"},"geometry":{"x":316035.70320000034,"y":2729027.3074999992}},{"attributes":{"OBJECTID":22873,"LANDMARKID":"1000200000981","LANDMARKCO":"604","LANDMARKNA":"祥居雅舍民宿","LANDMARKAD":"1000210","ADDRESS":"宜蘭縣三星鄉大隱村大埔路50-9號","TEL":"03-9890996","COUNTYNAME":"宜蘭縣","TOWNNAME":"三星鄉","MARKTYPE":"996","Class":"6"},"geometry":{"x":322727.44749999978,"y":2729014.2639000006}},{"attributes":{"OBJECTID":22874,"LANDMARKID":"1000200000982","LANDMARKCO":"604","LANDMARKNA":"相思園民宿","LANDMARKAD":"1000210","ADDRESS":"宜蘭縣三星鄉大隱村大埔路108-19號","TEL":"03-9572828","COUNTYNAME":"宜蘭縣","TOWNNAME":"三星鄉","MARKTYPE":"996","Class":"6"},"geometry":{"x":322309.69139999989,"y":2730088.6359000001}},{"attributes":{"OBJECTID":22875,"LANDMARKID":"1000200000983","LANDMARKCO":"604","LANDMARKNA":"宜蘭雅軒居","LANDMARKAD":"1000210","ADDRESS":"宜蘭縣三星鄉大隱村大埔路106之35號","TEL":"03-9899390","COUNTYNAME":"宜蘭縣","TOWNNAME":"三星鄉","MARKTYPE":"996","Class":"6"},"geometry":{"x":322340.27329999954,"y":2730309.6074000001}},{"attributes":{"OBJECTID":22876,"LANDMARKID":"1000200000984","LANDMARKCO":"604","LANDMARKNA":"芯之園","LANDMARKAD":"1000210","ADDRESS":"宜蘭縣三星鄉大隱村三星路1段416巷7號","TEL":"03-9899902","COUNTYNAME":"宜蘭縣","TOWNNAME":"三星鄉","MARKTYPE":"996","Class":"6"},"geometry":{"x":322848.21329999994,"y":2729501.5393000003}},{"attributes":{"OBJECTID":22877,"LANDMARKID":"1000200000985","LANDMARKCO":"604","LANDMARKNA":"阿娟的家民宿","LANDMARKAD":"1000210","ADDRESS":"宜蘭縣三星鄉大洲村大洲路47-6號","TEL":"03-9531884","COUNTYNAME":"宜蘭縣","TOWNNAME":"三星鄉","MARKTYPE":"996","Class":"6"},"geometry":{"x":324127.26769999973,"y":2732083.9375999998}},{"attributes":{"OBJECTID":22878,"LANDMARKID":"1000200000986","LANDMARKCO":"604","LANDMARKNA":"品萱園民宿","LANDMARKAD":"1000210","ADDRESS":"宜蘭縣三星鄉大義村大義路43-6號","TEL":"03-9899000","COUNTYNAME":"宜蘭縣","TOWNNAME":"三星鄉","MARKTYPE":"996","Class":"6"},"geometry":{"x":322445.55649999995,"y":2730915.4794999994}},{"attributes":{"OBJECTID":22879,"LANDMARKID":"1000200000987","LANDMARKCO":"604","LANDMARKNA":"花檣渡假別墅","LANDMARKAD":"1000210","ADDRESS":"宜蘭縣三星鄉拱照村三星路三段188號","TEL":"03-9891828","COUNTYNAME":"宜蘭縣","TOWNNAME":"三星鄉","MARKTYPE":"996","Class":"6"},"geometry":{"x":319255.86290000007,"y":2729139.6115000006}},{"attributes":{"OBJECTID":22880,"LANDMARKID":"1000200000988","LANDMARKCO":"604","LANDMARKNA":"璞居","LANDMARKAD":"1000210","ADDRESS":"宜蘭縣三星鄉大義村大義路21-2號","TEL":"03-9898767","COUNTYNAME":"宜蘭縣","TOWNNAME":"三星鄉","MARKTYPE":"996","Class":"6"},"geometry":{"x":323043.05570000038,"y":2732140.6853999998}},{"attributes":{"OBJECTID":22881,"LANDMARKID":"1000200000989","LANDMARKCO":"604","LANDMARKNA":"愛之屋渡假別墅","LANDMARKAD":"1000210","ADDRESS":"宜蘭縣三星鄉尚武村中興路79之6號","TEL":"0933-880066","COUNTYNAME":"宜蘭縣","TOWNNAME":"三星鄉","MARKTYPE":"996","Class":"6"},"geometry":{"x":321184.5390999997,"y":2732283.3524999991}},{"attributes":{"OBJECTID":22882,"LANDMARKID":"1000200000990","LANDMARKCO":"604","LANDMARKNA":"北美鄉村渡假民宿","LANDMARKAD":"1000210","ADDRESS":"宜蘭縣三星鄉大隱村大埔路101-19號","TEL":"03-9890606","COUNTYNAME":"宜蘭縣","TOWNNAME":"三星鄉","MARKTYPE":"996","Class":"6"},"geometry":{"x":322568.77469999995,"y":2729870.0157999992}},{"attributes":{"OBJECTID":22883,"LANDMARKID":"1000200000991","LANDMARKCO":"604","LANDMARKNA":"泰田農莊","LANDMARKAD":"1000210","ADDRESS":"宜蘭縣三星鄉尾塹村尾塹路17-18號","TEL":"03-9543123","COUNTYNAME":"宜蘭縣","TOWNNAME":"三星鄉","MARKTYPE":"996","Class":"6"},"geometry":{"x":325579.17090000026,"y":2732182.3219000008}},{"attributes":{"OBJECTID":22884,"LANDMARKID":"1000200000992","LANDMARKCO":"604","LANDMARKNA":"花見鄉居渡假別墅","LANDMARKAD":"1000210","ADDRESS":"宜蘭縣三星鄉行健村光復路61-26號","TEL":"03-9898873","COUNTYNAME":"宜蘭縣","TOWNNAME":"三星鄉","MARKTYPE":"996","Class":"6"},"geometry":{"x":319966.26260000002,"y":2729643.6206}},{"attributes":{"OBJECTID":22885,"LANDMARKID":"1000200000993","LANDMARKCO":"604","LANDMARKNA":"聖卡羅民宿","LANDMARKAD":"1000210","ADDRESS":"宜蘭縣三星鄉尾塹村清洲路28-16號","TEL":"03-9557920","COUNTYNAME":"宜蘭縣","TOWNNAME":"三星鄉","MARKTYPE":"996","Class":"6"},"geometry":{"x":325131.95540000033,"y":2733265.9483000003}},{"attributes":{"OBJECTID":22886,"LANDMARKID":"1000200000994","LANDMARKCO":"604","LANDMARKNA":"明水露渡假民宿","LANDMARKAD":"1000210","ADDRESS":"宜蘭縣三星鄉行健村8鄰光復路128-33號","TEL":"03-9891349","COUNTYNAME":"宜蘭縣","TOWNNAME":"三星鄉","MARKTYPE":"996","Class":"6"},"geometry":{"x":318334.50980000012,"y":2729750.7213000003}},{"attributes":{"OBJECTID":22887,"LANDMARKID":"1000200000995","LANDMARKCO":"604","LANDMARKNA":"鄉間小棧","LANDMARKAD":"1000210","ADDRESS":"宜蘭縣三星鄉大隱村三星路一段562號","TEL":"03-9581565","COUNTYNAME":"宜蘭縣","TOWNNAME":"三星鄉","MARKTYPE":"996","Class":"6"},"geometry":{"x":322527.56869999971,"y":2729449.5357000008}},{"attributes":{"OBJECTID":22888,"LANDMARKID":"1000200000996","LANDMARKCO":"604","LANDMARKNA":"璀璨人生","LANDMARKAD":"1000210","ADDRESS":"宜蘭縣三星鄉大隱村大埔路102-7號","TEL":"03-9890731","COUNTYNAME":"宜蘭縣","TOWNNAME":"三星鄉","MARKTYPE":"996","Class":"6"},"geometry":{"x":322719.2845999999,"y":2730062.8535999991}},{"attributes":{"OBJECTID":22889,"LANDMARKID":"1000200000997","LANDMARKCO":"604","LANDMARKNA":"凡梨花休閒農場","LANDMARKAD":"1000210","ADDRESS":"宜蘭縣三星鄉大隱村大埔路1-18號","TEL":"03-9899233","COUNTYNAME":"宜蘭縣","TOWNNAME":"三星鄉","MARKTYPE":"996","Class":"6"},"geometry":{"x":323732.02450000029,"y":2729095.2774}},{"attributes":{"OBJECTID":22890,"LANDMARKID":"1000200000998","LANDMARKCO":"604","LANDMARKNA":"正統民宿","LANDMARKAD":"1000210","ADDRESS":"宜蘭縣三星鄉大隱村大埔路135-10號","TEL":"03-9898616","COUNTYNAME":"宜蘭縣","TOWNNAME":"三星鄉","MARKTYPE":"996","Class":"6"},"geometry":{"x":322326.80810000002,"y":2728720.8289999999}},{"attributes":{"OBJECTID":22891,"LANDMARKID":"1000200000999","LANDMARKCO":"604","LANDMARKNA":"唐樓雅築","LANDMARKAD":"1000210","ADDRESS":"宜蘭縣三星鄉中興路96-11號","TEL":"03-9611557","COUNTYNAME":"宜蘭縣","TOWNNAME":"三星鄉","MARKTYPE":"996","Class":"6"},"geometry":{"x":320842.15409999993,"y":2732019.8501999993}},{"attributes":{"OBJECTID":22892,"LANDMARKID":"1000200001000","LANDMARKCO":"604","LANDMARKNA":"美而美民宿","LANDMARKAD":"1000210","ADDRESS":"宜蘭縣三星鄉天福村3鄰福山街115號","TEL":"03-9891186","COUNTYNAME":"宜蘭縣","TOWNNAME":"三星鄉","MARKTYPE":"996","Class":"6"},"geometry":{"x":312952.85859999992,"y":2728454.8834000006}},{"attributes":{"OBJECTID":22893,"LANDMARKID":"1000200001001","LANDMARKCO":"604","LANDMARKNA":"眠腦教育民宿","LANDMARKAD":"1000210","ADDRESS":"宜蘭縣三星鄉天福村東興路32-1號","TEL":"03-9895566","COUNTYNAME":"宜蘭縣","TOWNNAME":"三星鄉","MARKTYPE":"996","Class":"6"},"geometry":{"x":312619.06909999996,"y":2728758.7645999994}},{"attributes":{"OBJECTID":22894,"LANDMARKID":"1000200000650","LANDMARKCO":"503","LANDMARKNA":"長埤湖風景區","LANDMARKAD":"1000210","ADDRESS":"宜蘭縣三星鄉員山村台七丙省道旁","TEL":" ","COUNTYNAME":"宜蘭縣","TOWNNAME":"三星鄉","MARKTYPE":"995","Class":"5"},"geometry":{"x":311781.14950000029,"y":2726465.1675000004}},{"attributes":{"OBJECTID":22895,"LANDMARKID":"1000200000662","LANDMARKCO":"505","LANDMARKNA":"信仁牧場","LANDMARKAD":"1000210","ADDRESS":"宜蘭縣三星鄉中興路87之1號","TEL":"03-9899551","COUNTYNAME":"宜蘭縣","TOWNNAME":"三星鄉","MARKTYPE":"995","Class":"5"},"geometry":{"x":321581.74710000027,"y":2731997.9540999997}},{"attributes":{"OBJECTID":22896,"LANDMARKID":"1000200000524","LANDMARKCO":"405","LANDMARKNA":"中油加油站-冬山站(中油直營)","LANDMARKAD":"1000208","ADDRESS":"宜蘭縣冬山鄉冬山路二段260號","TEL":"039-591316","COUNTYNAME":"宜蘭縣","TOWNNAME":"冬山鄉","MARKTYPE":"994","Class":"4"},"geometry":{"x":329674.66170000006,"y":2726314.2158000004}},{"attributes":{"OBJECTID":22897,"LANDMARKID":"1000200000525","LANDMARKCO":"405","LANDMARKNA":"中油加油站-九份站(中油直營)","LANDMARKAD":"1000208","ADDRESS":"宜蘭縣冬山鄉冬山路五段165號","TEL":"039-584810","COUNTYNAME":"宜蘭縣","TOWNNAME":"冬山鄉","MARKTYPE":"994","Class":"4"},"geometry":{"x":328147.6875,"y":2729085.3767000008}},{"attributes":{"OBJECTID":22898,"LANDMARKID":"1000200000668","LANDMARKCO":"506","LANDMARKNA":"大進觀光果園","LANDMARKAD":"1000208","ADDRESS":"宜蘭縣冬山鄉大進村大進路70之1號","TEL":"03-9517040","COUNTYNAME":"宜蘭縣","TOWNNAME":"冬山鄉","MARKTYPE":"995","Class":"5"},"geometry":{"x":321276.61400000006,"y":2724888.1786000002}},{"attributes":{"OBJECTID":22899,"LANDMARKID":"1000200000669","LANDMARKCO":"506","LANDMARKNA":"綠野茶園","LANDMARKAD":"1000208","ADDRESS":"宜蘭縣冬山鄉中山村83之2號","TEL":"03-9584888","COUNTYNAME":"宜蘭縣","TOWNNAME":"冬山鄉","MARKTYPE":"995","Class":"5"},"geometry":{"x":325030.06199999992,"y":2729990.4813000001}},{"attributes":{"OBJECTID":22900,"LANDMARKID":"1000200000670","LANDMARKCO":"506","LANDMARKNA":"松霖茶園","LANDMARKAD":"1000208","ADDRESS":"宜蘭縣冬山鄉中山村47之1號","TEL":"03-9585505","COUNTYNAME":"宜蘭縣","TOWNNAME":"冬山鄉","MARKTYPE":"995","Class":"5"},"geometry":{"x":325361.74629999977,"y":2730560.0728999991}},{"attributes":{"OBJECTID":22901,"LANDMARKID":"1000200000671","LANDMARKCO":"506","LANDMARKNA":"馨山茶園","LANDMARKAD":"1000208","ADDRESS":"宜蘭縣冬山鄉中山村83之2號","TEL":"03-9581869","COUNTYNAME":"宜蘭縣","TOWNNAME":"冬山鄉","MARKTYPE":"995","Class":"5"},"geometry":{"x":325022.04800000042,"y":2729945.7096999995}},{"attributes":{"OBJECTID":22902,"LANDMARKID":"1000200000672","LANDMARKCO":"506","LANDMARKNA":"圓茗緣觀光茶園","LANDMARKAD":"1000208","ADDRESS":"宜蘭縣冬山鄉中山村17之6號","TEL":"03-9589584","COUNTYNAME":"宜蘭縣","TOWNNAME":"冬山鄉","MARKTYPE":"995","Class":"5"},"geometry":{"x":324794.16720000003,"y":2729618.4564999994}},{"attributes":{"OBJECTID":22903,"LANDMARKID":"1000200000673","LANDMARKCO":"506","LANDMARKNA":"香格里拉休閒農場","LANDMARKAD":"1000208","ADDRESS":"宜蘭縣冬山鄉大進村大進路1之1號","TEL":"039-511456　","COUNTYNAME":"宜蘭縣","TOWNNAME":"冬山鄉","MARKTYPE":"995","Class":"5"},"geometry":{"x":323792.31759999972,"y":2725257.9974000007}},{"attributes":{"OBJECTID":22904,"LANDMARKID":"1000200000617","LANDMARKCO":"408","LANDMARKNA":"郵局-冬山郵局","LANDMARKAD":"1000208","ADDRESS":"宜蘭縣冬山鄉冬山路177號","TEL":"(03)9593-908","COUNTYNAME":"宜蘭縣","TOWNNAME":"冬山鄉","MARKTYPE":"994","Class":"4"},"geometry":{"x":330105.3331000004,"y":2725519.8840999994}},{"attributes":{"OBJECTID":22905,"LANDMARKID":"1000200000618","LANDMARKCO":"408","LANDMARKNA":"郵局-冬山群英郵局","LANDMARKAD":"1000208","ADDRESS":"宜蘭縣冬山鄉義成路3段482號","TEL":"(03)9588-842","COUNTYNAME":"宜蘭縣","TOWNNAME":"冬山鄉","MARKTYPE":"994","Class":"4"},"geometry":{"x":327737.65899999999,"y":2729140.5165999997}},{"attributes":{"OBJECTID":22906,"LANDMARKID":"1000200000620","LANDMARKCO":"409","LANDMARKNA":"宜蘭縣冬山鄉農會","LANDMARKAD":"1000208","ADDRESS":"宜蘭縣冬山鄉冬山路一段888號","TEL":"03-9591122","COUNTYNAME":"宜蘭縣","TOWNNAME":"冬山鄉","MARKTYPE":"994","Class":"4"},"geometry":{"x":330180.31689999998,"y":2725395.1314000003}},{"attributes":{"OBJECTID":22907,"LANDMARKID":"1000200000502","LANDMARKCO":"404","LANDMARKNA":"台灣省自來水冬山營運所","LANDMARKAD":"1000208","ADDRESS":"宜蘭縣冬山鄉丸山路259號","TEL":" ","COUNTYNAME":"宜蘭縣","TOWNNAME":"冬山鄉","MARKTYPE":"994","Class":"4"},"geometry":{"x":326778.08150000032,"y":2726195.5850000009}},{"attributes":{"OBJECTID":22908,"LANDMARKID":"1000200000575","LANDMARKCO":"406","LANDMARKNA":"樹林公園","LANDMARKAD":"1000208","ADDRESS":"宜蘭縣冬山鄉","TEL":" ","COUNTYNAME":"宜蘭縣","TOWNNAME":"冬山鄉","MARKTYPE":"994","Class":"4"},"geometry":{"x":325945.61639999971,"y":2723480.0921}},{"attributes":{"OBJECTID":22909,"LANDMARKID":"1000200000517","LANDMARKCO":"405","LANDMARKNA":"台塑加油站-冬瓜山站(台塑)","LANDMARKAD":"1000208","ADDRESS":"宜蘭縣冬山鄉冬山路一段1071號","TEL":"03-9590559","COUNTYNAME":"宜蘭縣","TOWNNAME":"冬山鄉","MARKTYPE":"994","Class":"4"},"geometry":{"x":330158.99230000004,"y":2725540.1115000006}},{"attributes":{"OBJECTID":22910,"LANDMARKID":"1000200000518","LANDMARKCO":"405","LANDMARKNA":"台塑加油站-新城站(台塑)","LANDMARKAD":"1000208","ADDRESS":"宜蘭縣冬山鄉冬山路一段420號","TEL":"03-9593701","COUNTYNAME":"宜蘭縣","TOWNNAME":"冬山鄉","MARKTYPE":"994","Class":"4"},"geometry":{"x":331889.27730000019,"y":2723601.8239999991}},{"attributes":{"OBJECTID":22911,"LANDMARKID":"1000200000519","LANDMARKCO":"405","LANDMARKNA":"台塑加油站-群英站(台塑)","LANDMARKAD":"1000208","ADDRESS":"宜蘭縣冬山鄉冬山路三段368號","TEL":"03-9588349","COUNTYNAME":"宜蘭縣","TOWNNAME":"冬山鄉","MARKTYPE":"994","Class":"4"},"geometry":{"x":328628.52689999994,"y":2728399.0413000006}},{"attributes":{"OBJECTID":22912,"LANDMARKID":"1000200000520","LANDMARKCO":"405","LANDMARKNA":"台塑加油站-八仙站(台塑)","LANDMARKAD":"1000208","ADDRESS":"宜蘭縣冬山鄉永美村冬山路三段379號","TEL":"03-9581182","COUNTYNAME":"宜蘭縣","TOWNNAME":"冬山鄉","MARKTYPE":"994","Class":"4"},"geometry":{"x":328608.23180000018,"y":2728335.7364000008}},{"attributes":{"OBJECTID":22913,"LANDMARKID":"1000200000521","LANDMARKCO":"405","LANDMARKNA":"台塑加油站-長宏站(台塑)","LANDMARKAD":"1000208","ADDRESS":"宜蘭縣冬山鄉廣興村廣興路1號","TEL":"03-9511577","COUNTYNAME":"宜蘭縣","TOWNNAME":"冬山鄉","MARKTYPE":"994","Class":"4"},"geometry":{"x":326288.98990000039,"y":2729579.0606999993}},{"attributes":{"OBJECTID":22914,"LANDMARKID":"1000200000187","LANDMARKCO":"108","LANDMARKNA":"宜蘭縣冬山鄉公所","LANDMARKAD":"1000208","ADDRESS":"宜蘭縣冬山鄉冬山路100號","TEL":"03-9591105","COUNTYNAME":"宜蘭縣","TOWNNAME":"冬山鄉","MARKTYPE":"991","Class":"1"},"geometry":{"x":330207.76640000008,"y":2725529.6643000003}},{"attributes":{"OBJECTID":22915,"LANDMARKID":"1000200000037","LANDMARKCO":"103","LANDMARKNA":"宜蘭縣冬山鄉鄉民代表會","LANDMARKAD":"1000208","ADDRESS":"宜蘭縣冬山鄉南興村冬山路100號","TEL":"03-9591261","COUNTYNAME":"宜蘭縣","TOWNNAME":"冬山鄉","MARKTYPE":"991","Class":"1"},"geometry":{"x":330207.76640000008,"y":2725529.6643000003}},{"attributes":{"OBJECTID":22916,"LANDMARKID":"1000200000083","LANDMARKCO":"106","LANDMARKNA":"宜蘭縣冬山鄉戶政事務所","LANDMARKAD":"1000208","ADDRESS":"宜蘭縣冬山鄉冬山村2鄰冬山路170號","TEL":"039-591437","COUNTYNAME":"宜蘭縣","TOWNNAME":"冬山鄉","MARKTYPE":"991","Class":"1"},"geometry":{"x":330074.88460000046,"y":2725548.8125999998}},{"attributes":{"OBJECTID":22917,"LANDMARKID":"1000200000085","LANDMARKCO":"107","LANDMARKNA":"宜蘭縣消防局冬山消防分隊","LANDMARKAD":"1000208","ADDRESS":"宜蘭縣冬山鄉冬山路166號","TEL":"03-9593119","COUNTYNAME":"宜蘭縣","TOWNNAME":"冬山鄉","MARKTYPE":"991","Class":"1"},"geometry":{"x":330129.82579999976,"y":2725538.4963000007}},{"attributes":{"OBJECTID":22918,"LANDMARKID":"1000200000038","LANDMARKCO":"103","LANDMARKNA":"宜蘭縣冬山鄉衛生所","LANDMARKAD":"1000208","ADDRESS":"宜蘭縣冬山鄉中正路16號","TEL":"03-9594772","COUNTYNAME":"宜蘭縣","TOWNNAME":"冬山鄉","MARKTYPE":"991","Class":"1"},"geometry":{"x":330114.74739999976,"y":2725698.5831000004}},{"attributes":{"OBJECTID":22919,"LANDMARKID":"1000200000086","LANDMARKCO":"107","LANDMARKNA":"宜蘭縣警察局廣興派出所","LANDMARKAD":"1000208","ADDRESS":"宜蘭縣冬山鄉廣興村廣興路193號","TEL":"039-512210","COUNTYNAME":"宜蘭縣","TOWNNAME":"冬山鄉","MARKTYPE":"991","Class":"1"},"geometry":{"x":325843.15039999969,"y":2729398.8278000001}},{"attributes":{"OBJECTID":22920,"LANDMARKID":"1000200000087","LANDMARKCO":"107","LANDMARKNA":"宜蘭縣警察局順安派出所","LANDMARKAD":"1000208","ADDRESS":"宜蘭縣冬山鄉順安村義成路二段394號","TEL":"039-581804","COUNTYNAME":"宜蘭縣","TOWNNAME":"冬山鄉","MARKTYPE":"991","Class":"1"},"geometry":{"x":327368.36479999963,"y":2727779.7601999994}},{"attributes":{"OBJECTID":22921,"LANDMARKID":"1000200000088","LANDMARKCO":"107","LANDMARKNA":"宜蘭縣警察局冬山分駐所","LANDMARKAD":"1000208","ADDRESS":"宜蘭縣冬山鄉冬山路168號","TEL":"03-9591651","COUNTYNAME":"宜蘭縣","TOWNNAME":"冬山鄉","MARKTYPE":"991","Class":"1"},"geometry":{"x":330192.82440000027,"y":2725539.7503999993}},{"attributes":{"OBJECTID":22922,"LANDMARKID":"1000200000326","LANDMARKCO":"204","LANDMARKNA":"宜蘭縣立圖書館冬山分館","LANDMARKAD":"1000208","ADDRESS":"宜蘭縣冬山鄉永興路2段17之1號","TEL":" ","COUNTYNAME":"宜蘭縣","TOWNNAME":"冬山鄉","MARKTYPE":"992","Class":"2"},"geometry":{"x":330076.26599999983,"y":2725672.6397999991}},{"attributes":{"OBJECTID":22923,"LANDMARKID":"1000200000207","LANDMARKCO":"202","LANDMARKNA":"國立羅東高工","LANDMARKAD":"1000208","ADDRESS":"宜蘭縣冬山鄉廣興路117號","TEL":"03-9514196","COUNTYNAME":"宜蘭縣","TOWNNAME":"冬山鄉","MARKTYPE":"992","Class":"2"},"geometry":{"x":325991.61029999983,"y":2729359.5590000004}},{"attributes":{"OBJECTID":22924,"LANDMARKID":"1000200000237","LANDMARKCO":"203","LANDMARKNA":"縣立順安國中","LANDMARKAD":"1000208","ADDRESS":"宜蘭縣冬山鄉永興路一段359號","TEL":"03-9581150","COUNTYNAME":"宜蘭縣","TOWNNAME":"冬山鄉","MARKTYPE":"992","Class":"2"},"geometry":{"x":327515.91669999994,"y":2727698.9383000005}},{"attributes":{"OBJECTID":22925,"LANDMARKID":"1000200000238","LANDMARKCO":"203","LANDMARKNA":"縣立冬山國中","LANDMARKAD":"1000208","ADDRESS":"宜蘭縣冬山鄉南興村照安路26號","TEL":"03-9592076#21","COUNTYNAME":"宜蘭縣","TOWNNAME":"冬山鄉","MARKTYPE":"992","Class":"2"},"geometry":{"x":330267.69379999954,"y":2725209.3289999999}},{"attributes":{"OBJECTID":22926,"LANDMARKID":"1000200000239","LANDMARKCO":"203","LANDMARKNA":"慈心華德福教育實驗國中小學","LANDMARKAD":"1000208","ADDRESS":"宜蘭縣冬山鄉照安路257號","TEL":"03-9596222","COUNTYNAME":"宜蘭縣","TOWNNAME":"冬山鄉","MARKTYPE":"992","Class":"2"},"geometry":{"x":330483.83499999996,"y":2724619.7238999996}},{"attributes":{"OBJECTID":22927,"LANDMARKID":"1000200000240","LANDMARKCO":"203","LANDMARKNA":"縣立武淵國小","LANDMARKAD":"1000208","ADDRESS":"宜蘭縣冬山鄉武淵村富農路二段350號","TEL":"03-9505971","COUNTYNAME":"宜蘭縣","TOWNNAME":"冬山鄉","MARKTYPE":"992","Class":"2"},"geometry":{"x":330819.30559999961,"y":2728529.2723999992}},{"attributes":{"OBJECTID":22928,"LANDMARKID":"1000200000241","LANDMARKCO":"203","LANDMARKNA":"縣立柯林國小","LANDMARKAD":"1000208","ADDRESS":"宜蘭縣冬山鄉柯林村光華路158號","TEL":"03-9511355","COUNTYNAME":"宜蘭縣","TOWNNAME":"冬山鄉","MARKTYPE":"992","Class":"2"},"geometry":{"x":324042.91640000045,"y":2730149.4409999996}},{"attributes":{"OBJECTID":22929,"LANDMARKID":"1000200000242","LANDMARKCO":"203","LANDMARKNA":"縣立廣興國小","LANDMARKAD":"1000208","ADDRESS":"宜蘭縣冬山鄉廣興村梅花路303號","TEL":"03-9513484","COUNTYNAME":"宜蘭縣","TOWNNAME":"冬山鄉","MARKTYPE":"992","Class":"2"},"geometry":{"x":325185.73849999998,"y":2728889.3696999997}},{"attributes":{"OBJECTID":22930,"LANDMARKID":"1000200000243","LANDMARKCO":"203","LANDMARKNA":"縣立順安國小","LANDMARKAD":"1000208","ADDRESS":"宜蘭縣冬山鄉永興路二段17號","TEL":"03-9583445","COUNTYNAME":"宜蘭縣","TOWNNAME":"冬山鄉","MARKTYPE":"992","Class":"2"},"geometry":{"x":327225.2555999998,"y":2727758.9947999995}},{"attributes":{"OBJECTID":22931,"LANDMARKID":"1000200000244","LANDMARKCO":"203","LANDMARKNA":"縣立冬山國小","LANDMARKAD":"1000208","ADDRESS":"宜蘭縣冬山鄉安平村安中路35號","TEL":"03-9593504","COUNTYNAME":"宜蘭縣","TOWNNAME":"冬山鄉","MARKTYPE":"992","Class":"2"},"geometry":{"x":330373.30040000007,"y":2725448.7092000004}},{"attributes":{"OBJECTID":22932,"LANDMARKID":"1000200000245","LANDMARKCO":"203","LANDMARKNA":"縣立東興國小","LANDMARKAD":"1000208","ADDRESS":"宜蘭縣冬山鄉東城路316號","TEL":"03-9594047","COUNTYNAME":"宜蘭縣","TOWNNAME":"冬山鄉","MARKTYPE":"992","Class":"2"},"geometry":{"x":331670.82039999962,"y":2724929.3457999993}},{"attributes":{"OBJECTID":22933,"LANDMARKID":"1000200000246","LANDMARKCO":"203","LANDMARKNA":"縣立大進國小","LANDMARKAD":"1000208","ADDRESS":"宜蘭縣冬山鄉大進村大進七路51號","TEL":"03-9512268","COUNTYNAME":"宜蘭縣","TOWNNAME":"冬山鄉","MARKTYPE":"992","Class":"2"},"geometry":{"x":322487.39230000041,"y":2725428.8961999994}},{"attributes":{"OBJECTID":22934,"LANDMARKID":"1000200000247","LANDMARKCO":"203","LANDMARKNA":"縣立順安國小中山分校","LANDMARKAD":"1000208","ADDRESS":"宜蘭縣冬山鄉中山村71號","TEL":"03-9581763","COUNTYNAME":"宜蘭縣","TOWNNAME":"冬山鄉","MARKTYPE":"992","Class":"2"},"geometry":{"x":325241.93910000008,"y":2724619.1926000006}},{"attributes":{"OBJECTID":22935,"LANDMARKID":"1000200000432","LANDMARKCO":"303","LANDMARKNA":"分洪堰風景區停車場","LANDMARKAD":"1000208","ADDRESS":"宜蘭縣冬山鄉安農溪旁","TEL":" ","COUNTYNAME":"宜蘭縣","TOWNNAME":"冬山鄉","MARKTYPE":"993","Class":"303"},"geometry":{"x":323673.93819999974,"y":2731278.6374999993}},{"attributes":{"OBJECTID":22936,"LANDMARKID":"1000200000433","LANDMARKCO":"303","LANDMARKNA":"廣興農場停車場","LANDMARKAD":"1000208","ADDRESS":"宜蘭縣冬山鄉光華三路","TEL":" ","COUNTYNAME":"宜蘭縣","TOWNNAME":"冬山鄉","MARKTYPE":"993","Class":"303"},"geometry":{"x":324236.23319999967,"y":2730934.9431999996}},{"attributes":{"OBJECTID":22937,"LANDMARKID":"1000200000434","LANDMARKCO":"303","LANDMARKNA":"新寮停車場","LANDMARKAD":"1000208","ADDRESS":"宜蘭縣冬山鄉","TEL":" ","COUNTYNAME":"宜蘭縣","TOWNNAME":"冬山鄉","MARKTYPE":"993","Class":"303"},"geometry":{"x":326167.65450000018,"y":2724279.3909000009}},{"attributes":{"OBJECTID":22938,"LANDMARKID":"1000200000353","LANDMARKCO":"301","LANDMARKNA":"冬山火車站","LANDMARKAD":"1000208","ADDRESS":"宜蘭縣冬山鄉冬山村中華路1號","TEL":"03-9594221","COUNTYNAME":"宜蘭縣","TOWNNAME":"冬山鄉","MARKTYPE":"993","Class":"301"},"geometry":{"x":330204.80389999971,"y":2725745.0492000002}},{"attributes":{"OBJECTID":22939,"LANDMARKID":"1000200000477","LANDMARKCO":"402","LANDMARKNA":"中華電信-冬山服務中心","LANDMARKAD":"1000208","ADDRESS":"宜蘭縣冬山鄉冬山路一段879號","TEL":"(03)954-9961","COUNTYNAME":"宜蘭縣","TOWNNAME":"冬山鄉","MARKTYPE":"994","Class":"4"},"geometry":{"x":330458.73170000035,"y":2725258.3993999995}},{"attributes":{"OBJECTID":22940,"LANDMARKID":"1000200001002","LANDMARKCO":"604","LANDMARKNA":"國民旅遊民宿","LANDMARKAD":"1000208","ADDRESS":"宜蘭縣冬山鄉梅花路744巷100弄79號","TEL":"03-9614644","COUNTYNAME":"宜蘭縣","TOWNNAME":"冬山鄉","MARKTYPE":"996","Class":"6"},"geometry":{"x":324098.48950000014,"y":2728346.2424999997}},{"attributes":{"OBJECTID":22941,"LANDMARKID":"1000200001003","LANDMARKCO":"604","LANDMARKNA":"克莉絲甜蜜小屋民宿","LANDMARKAD":"1000208","ADDRESS":"宜蘭縣冬山鄉武淵村武淵路13號","TEL":"03-9604934","COUNTYNAME":"宜蘭縣","TOWNNAME":"冬山鄉","MARKTYPE":"996","Class":"6"},"geometry":{"x":330835.5055999998,"y":2728420.8888000008}},{"attributes":{"OBJECTID":22942,"LANDMARKID":"1000200001004","LANDMARKCO":"604","LANDMARKNA":"天然民宿","LANDMARKAD":"1000208","ADDRESS":"宜蘭縣冬山鄉武淵村武淵路21號","TEL":"03-9505350","COUNTYNAME":"宜蘭縣","TOWNNAME":"冬山鄉","MARKTYPE":"996","Class":"6"},"geometry":{"x":330852.91610000003,"y":2728427.4238000009}},{"attributes":{"OBJECTID":22943,"LANDMARKID":"1000200001005","LANDMARKCO":"604","LANDMARKNA":"晴郁田園館","LANDMARKAD":"1000208","ADDRESS":"宜蘭縣冬山鄉武淵村珍珠一路287號","TEL":"03-9605828","COUNTYNAME":"宜蘭縣","TOWNNAME":"冬山鄉","MARKTYPE":"996","Class":"6"},"geometry":{"x":329901.30580000021,"y":2727652.6340999994}},{"attributes":{"OBJECTID":22944,"LANDMARKID":"1000200001006","LANDMARKCO":"604","LANDMARKNA":"琉璃仙境民宿","LANDMARKAD":"1000208","ADDRESS":"宜蘭縣冬山鄉信光路91號","TEL":"03-9565988","COUNTYNAME":"宜蘭縣","TOWNNAME":"冬山鄉","MARKTYPE":"996","Class":"6"},"geometry":{"x":328931.26300000027,"y":2727277.7095999997}},{"attributes":{"OBJECTID":22945,"LANDMARKID":"1000200001007","LANDMARKCO":"604","LANDMARKNA":"伊莎城堡民宿","LANDMARKAD":"1000208","ADDRESS":"宜蘭縣冬山鄉柯林村柯林一路383號","TEL":"03-9518986","COUNTYNAME":"宜蘭縣","TOWNNAME":"冬山鄉","MARKTYPE":"996","Class":"6"},"geometry":{"x":324402.94330000039,"y":2730762.4829999991}},{"attributes":{"OBJECTID":22946,"LANDMARKID":"1000200001008","LANDMARKCO":"604","LANDMARKNA":"安達魯西亞民宿","LANDMARKAD":"1000208","ADDRESS":"宜蘭縣冬山鄉梅花路926巷4弄2-1號","TEL":"0920-115926","COUNTYNAME":"宜蘭縣","TOWNNAME":"冬山鄉","MARKTYPE":"996","Class":"6"},"geometry":{"x":324148.69600000046,"y":2728193.9438000005}},{"attributes":{"OBJECTID":22947,"LANDMARKID":"1000200001009","LANDMARKCO":"604","LANDMARKNA":"香城園民宿","LANDMARKAD":"1000208","ADDRESS":"宜蘭縣冬山鄉東城里香城路311巷6弄2號","TEL":"03-9504219","COUNTYNAME":"宜蘭縣","TOWNNAME":"冬山鄉","MARKTYPE":"996","Class":"6"},"geometry":{"x":331460.54140000045,"y":2725093.6114000008}},{"attributes":{"OBJECTID":22948,"LANDMARKID":"1000200001010","LANDMARKCO":"604","LANDMARKNA":"柚香園民宿","LANDMARKAD":"1000208","ADDRESS":"宜蘭縣冬山鄉中山村舊寮路131巷28號","TEL":"0937-845429","COUNTYNAME":"宜蘭縣","TOWNNAME":"冬山鄉","MARKTYPE":"996","Class":"6"},"geometry":{"x":325070.71619999968,"y":2724671.9981999993}},{"attributes":{"OBJECTID":22949,"LANDMARKID":"1000200001011","LANDMARKCO":"604","LANDMARKNA":"春藤庭園民宿","LANDMARKAD":"1000208","ADDRESS":"宜蘭縣冬山鄉補城村補城路65巷65號","TEL":"03-9596767","COUNTYNAME":"宜蘭縣","TOWNNAME":"冬山鄉","MARKTYPE":"996","Class":"6"},"geometry":{"x":331714.04430000018,"y":2726587.2426999994}},{"attributes":{"OBJECTID":22950,"LANDMARKID":"1000200001012","LANDMARKCO":"604","LANDMARKNA":"晨露庄","LANDMARKAD":"1000208","ADDRESS":"宜蘭縣冬山鄉武淵村武罕五路363號","TEL":"03-9568492","COUNTYNAME":"宜蘭縣","TOWNNAME":"冬山鄉","MARKTYPE":"996","Class":"6"},"geometry":{"x":329921.05449999962,"y":2728786.5215000007}},{"attributes":{"OBJECTID":22951,"LANDMARKID":"1000200001013","LANDMARKCO":"604","LANDMARKNA":"緣道舍民宿","LANDMARKAD":"1000208","ADDRESS":"宜蘭縣冬山鄉柯林村境安二路156號","TEL":"03-9617911","COUNTYNAME":"宜蘭縣","TOWNNAME":"冬山鄉","MARKTYPE":"996","Class":"6"},"geometry":{"x":324483.26049999986,"y":2730110.0888999999}},{"attributes":{"OBJECTID":22952,"LANDMARKID":"1000200001014","LANDMARKCO":"604","LANDMARKNA":"清泉民宿","LANDMARKAD":"1000208","ADDRESS":"宜蘭縣冬山鄉鹿安路537號","TEL":"03-9518205","COUNTYNAME":"宜蘭縣","TOWNNAME":"冬山鄉","MARKTYPE":"996","Class":"6"},"geometry":{"x":326790.10919999983,"y":2728364.3660000004}},{"attributes":{"OBJECTID":22953,"LANDMARKID":"1000200001015","LANDMARKCO":"604","LANDMARKNA":"鹿埔鄉村民宿","LANDMARKAD":"1000208","ADDRESS":"宜蘭縣冬山鄉鹿埔村鹿埔路223號","TEL":"03-9584274","COUNTYNAME":"宜蘭縣","TOWNNAME":"冬山鄉","MARKTYPE":"996","Class":"6"},"geometry":{"x":325944.22919999994,"y":2727104.3461000007}},{"attributes":{"OBJECTID":22954,"LANDMARKID":"1000200001016","LANDMARKCO":"604","LANDMARKNA":"微笑橘子民宿","LANDMARKAD":"1000208","ADDRESS":"宜蘭縣冬山鄉群英村珍珠一路73號","TEL":"03-9601746","COUNTYNAME":"宜蘭縣","TOWNNAME":"冬山鄉","MARKTYPE":"996","Class":"6"},"geometry":{"x":329285.3328999998,"y":2727699.5409999993}},{"attributes":{"OBJECTID":22955,"LANDMARKID":"1000200001017","LANDMARKCO":"604","LANDMARKNA":"蜜之鄉民宿","LANDMARKAD":"1000208","ADDRESS":"宜蘭縣冬山鄉永美村永美路201號","TEL":"03-9586541","COUNTYNAME":"宜蘭縣","TOWNNAME":"冬山鄉","MARKTYPE":"996","Class":"6"},"geometry":{"x":328632.33029999956,"y":2727512.4891999997}},{"attributes":{"OBJECTID":22956,"LANDMARKID":"1000200001018","LANDMARKCO":"604","LANDMARKNA":"津園民宿","LANDMARKAD":"1000208","ADDRESS":"宜蘭縣冬山鄉武淵村武罕五路208號","TEL":"03-9501468","COUNTYNAME":"宜蘭縣","TOWNNAME":"冬山鄉","MARKTYPE":"996","Class":"6"},"geometry":{"x":330389.25239999965,"y":2728584.4453999996}},{"attributes":{"OBJECTID":22957,"LANDMARKID":"1000200001019","LANDMARKCO":"604","LANDMARKNA":"輕井澤民宿","LANDMARKAD":"1000208","ADDRESS":"宜蘭縣冬山鄉武淵村武罕五路365號","TEL":"03-9504886","COUNTYNAME":"宜蘭縣","TOWNNAME":"冬山鄉","MARKTYPE":"996","Class":"6"},"geometry":{"x":329880.2098000003,"y":2728554.9145999998}},{"attributes":{"OBJECTID":22958,"LANDMARKID":"1000200001020","LANDMARKCO":"604","LANDMARKNA":"蘭陽風情民宿","LANDMARKAD":"1000208","ADDRESS":"宜蘭縣冬山鄉群英村八仙二路38號","TEL":"03-9585311","COUNTYNAME":"宜蘭縣","TOWNNAME":"冬山鄉","MARKTYPE":"996","Class":"6"},"geometry":{"x":328945.05269999988,"y":2728397.7491999995}},{"attributes":{"OBJECTID":22959,"LANDMARKID":"1000200001021","LANDMARKCO":"604","LANDMARKNA":"田庄園民宿","LANDMARKAD":"1000208","ADDRESS":"宜蘭縣冬山鄉補城村11鄰建進一路161號","TEL":"03-9590557","COUNTYNAME":"宜蘭縣","TOWNNAME":"冬山鄉","MARKTYPE":"996","Class":"6"},"geometry":{"x":331106.41779999994,"y":2726594.2577}},{"attributes":{"OBJECTID":22960,"LANDMARKID":"1000200001022","LANDMARKCO":"604","LANDMARKNA":"紅磚屋民宿","LANDMARKAD":"1000208","ADDRESS":"宜蘭縣冬山鄉群英村八仙五路169號","TEL":"03-9500079","COUNTYNAME":"宜蘭縣","TOWNNAME":"冬山鄉","MARKTYPE":"996","Class":"6"},"geometry":{"x":329768.7536000004,"y":2727927.7092000004}},{"attributes":{"OBJECTID":22961,"LANDMARKID":"1000200001023","LANDMARKCO":"604","LANDMARKNA":"我家宜蘭民宿","LANDMARKAD":"1000208","ADDRESS":"宜蘭縣冬山鄉武淵村武罕三路58號","TEL":"03-9585650","COUNTYNAME":"宜蘭縣","TOWNNAME":"冬山鄉","MARKTYPE":"996","Class":"6"},"geometry":{"x":330618.48180000018,"y":2728327.9898000006}},{"attributes":{"OBJECTID":22962,"LANDMARKID":"1000200001024","LANDMARKCO":"604","LANDMARKNA":"和田家","LANDMARKAD":"1000208","ADDRESS":"宜蘭縣冬山鄉武淵村武罕三路29號","TEL":"0989-655121","COUNTYNAME":"宜蘭縣","TOWNNAME":"冬山鄉","MARKTYPE":"996","Class":"6"},"geometry":{"x":330683.0625,"y":2728251.5627999995}},{"attributes":{"OBJECTID":22963,"LANDMARKID":"1000200001025","LANDMARKCO":"604","LANDMARKNA":"松露民宿","LANDMARKAD":"1000208","ADDRESS":"宜蘭縣冬山鄉武淵村武罕五路361號","TEL":"03-9500938","COUNTYNAME":"宜蘭縣","TOWNNAME":"冬山鄉","MARKTYPE":"996","Class":"6"},"geometry":{"x":329906.42619999964,"y":2728553.1424000002}},{"attributes":{"OBJECTID":22964,"LANDMARKID":"1000200001026","LANDMARKCO":"604","LANDMARKNA":"松愛園美式鄉村風渡假民宿","LANDMARKAD":"1000208","ADDRESS":"宜蘭縣冬山鄉柯林村光華五路116號","TEL":"03-9519197","COUNTYNAME":"宜蘭縣","TOWNNAME":"冬山鄉","MARKTYPE":"996","Class":"6"},"geometry":{"x":324679.43510000035,"y":2730637.9400999993}},{"attributes":{"OBJECTID":22965,"LANDMARKID":"1000200001027","LANDMARKCO":"604","LANDMARKNA":"隨園民宿","LANDMARKAD":"1000208","ADDRESS":"宜蘭縣冬山鄉補城村保安一路208號","TEL":"03-9590154","COUNTYNAME":"宜蘭縣","TOWNNAME":"冬山鄉","MARKTYPE":"996","Class":"6"},"geometry":{"x":330805.84439999983,"y":2726465.4666000009}},{"attributes":{"OBJECTID":22966,"LANDMARKID":"1000200001028","LANDMARKCO":"604","LANDMARKNA":"家家民宿","LANDMARKAD":"1000208","ADDRESS":"宜蘭縣冬山鄉珍珠村珍珠五路109號","TEL":"03-9503828","COUNTYNAME":"宜蘭縣","TOWNNAME":"冬山鄉","MARKTYPE":"996","Class":"6"},"geometry":{"x":329951.10510000028,"y":2726947.2918999996}},{"attributes":{"OBJECTID":22967,"LANDMARKID":"1000200001029","LANDMARKCO":"604","LANDMARKNA":"迎曦民宿","LANDMARKAD":"1000208","ADDRESS":"宜蘭縣冬山鄉群英村2鄰八仙三路168號","TEL":"03-9506318","COUNTYNAME":"宜蘭縣","TOWNNAME":"冬山鄉","MARKTYPE":"996","Class":"6"},"geometry":{"x":329585.83849999961,"y":2728134.6155999992}},{"attributes":{"OBJECTID":22968,"LANDMARKID":"1000200001030","LANDMARKCO":"604","LANDMARKNA":"田老爺民宿","LANDMARKAD":"1000208","ADDRESS":"宜蘭縣冬山鄉珍珠村永鎮路11號","TEL":"03-9580747","COUNTYNAME":"宜蘭縣","TOWNNAME":"冬山鄉","MARKTYPE":"996","Class":"6"},"geometry":{"x":329339.49210000038,"y":2726896.7778999992}},{"attributes":{"OBJECTID":22969,"LANDMARKID":"1000200001031","LANDMARKCO":"604","LANDMARKNA":"河岸景觀民宿","LANDMARKAD":"1000208","ADDRESS":"宜蘭縣冬山鄉柯林村境安路281號","TEL":"03-9610077","COUNTYNAME":"宜蘭縣","TOWNNAME":"冬山鄉","MARKTYPE":"996","Class":"6"},"geometry":{"x":324998.93910000008,"y":2730603.5638999995}},{"attributes":{"OBJECTID":22970,"LANDMARKID":"1000200001032","LANDMARKCO":"604","LANDMARKNA":"吾居吾宿","LANDMARKAD":"1000208","ADDRESS":"宜蘭縣冬山鄉柯林村境安一路156巷2號","TEL":"03-9510158","COUNTYNAME":"宜蘭縣","TOWNNAME":"冬山鄉","MARKTYPE":"996","Class":"6"},"geometry":{"x":324950.19959999993,"y":2730330.3113000002}},{"attributes":{"OBJECTID":22971,"LANDMARKID":"1000200001033","LANDMARKCO":"604","LANDMARKNA":"親河民宿","LANDMARKAD":"1000208","ADDRESS":"宜蘭縣冬山鄉武淵村武淵二路6號","TEL":"03-9504278","COUNTYNAME":"宜蘭縣","TOWNNAME":"冬山鄉","MARKTYPE":"996","Class":"6"},"geometry":{"x":331895.15990000032,"y":2729739.1327}},{"attributes":{"OBJECTID":22972,"LANDMARKID":"1000200001034","LANDMARKCO":"604","LANDMARKNA":"衿日林鄉村別墅","LANDMARKAD":"1000208","ADDRESS":"宜蘭縣冬山鄉武淵村武淵三路116號","TEL":"03-9500236","COUNTYNAME":"宜蘭縣","TOWNNAME":"冬山鄉","MARKTYPE":"996","Class":"6"},"geometry":{"x":332166.7117999997,"y":2729616.9570000004}},{"attributes":{"OBJECTID":22973,"LANDMARKID":"1000200001035","LANDMARKCO":"604","LANDMARKNA":"翠堤春曉風箏民宿","LANDMARKAD":"1000208","ADDRESS":"宜蘭縣冬山鄉武淵村富堵路73號","TEL":"03-9591794","COUNTYNAME":"宜蘭縣","TOWNNAME":"冬山鄉","MARKTYPE":"996","Class":"6"},"geometry":{"x":331636.08499999996,"y":2728394.6871000007}},{"attributes":{"OBJECTID":22974,"LANDMARKID":"1000200001036","LANDMARKCO":"604","LANDMARKNA":"綠野仙蹤民宿","LANDMARKAD":"1000208","ADDRESS":"宜蘭縣冬山鄉中山村中山三路53號","TEL":"03-9582975","COUNTYNAME":"宜蘭縣","TOWNNAME":"冬山鄉","MARKTYPE":"996","Class":"6"},"geometry":{"x":325568.05580000021,"y":2725298.7359999996}},{"attributes":{"OBJECTID":22975,"LANDMARKID":"1000200001037","LANDMARKCO":"604","LANDMARKNA":"樂居生活","LANDMARKAD":"1000208","ADDRESS":"宜蘭縣冬山鄉柯林村安農三路151號","TEL":"03-9561778","COUNTYNAME":"宜蘭縣","TOWNNAME":"冬山鄉","MARKTYPE":"996","Class":"6"},"geometry":{"x":325237.94189999998,"y":2731696.3201000001}},{"attributes":{"OBJECTID":22976,"LANDMARKID":"1000200001038","LANDMARKCO":"604","LANDMARKNA":"綠堤民宿","LANDMARKAD":"1000208","ADDRESS":"宜蘭縣冬山鄉武淵村東五路75號","TEL":"03-9503958","COUNTYNAME":"宜蘭縣","TOWNNAME":"冬山鄉","MARKTYPE":"996","Class":"6"},"geometry":{"x":331311.90859999973,"y":2728933.0146999992}},{"attributes":{"OBJECTID":22977,"LANDMARKID":"1000200001039","LANDMARKCO":"604","LANDMARKNA":"伊彩園民宿","LANDMARKAD":"1000208","ADDRESS":"宜蘭縣冬山鄉珍珠村富農路一段323巷48號","TEL":"03-9590119","COUNTYNAME":"宜蘭縣","TOWNNAME":"冬山鄉","MARKTYPE":"996","Class":"6"},"geometry":{"x":330358.88229999971,"y":2726405.6146000009}},{"attributes":{"OBJECTID":22978,"LANDMARKID":"1000200001040","LANDMARKCO":"604","LANDMARKNA":"松樹園","LANDMARKAD":"1000208","ADDRESS":"宜蘭縣冬山鄉鹿埔村鹿埔路101巷119號","TEL":"03-9680168","COUNTYNAME":"宜蘭縣","TOWNNAME":"冬山鄉","MARKTYPE":"996","Class":"6"},"geometry":{"x":325711.59810000006,"y":2727131.3905999996}},{"attributes":{"OBJECTID":22979,"LANDMARKID":"1000200001041","LANDMARKCO":"604","LANDMARKNA":"希奇農莊","LANDMARKAD":"1000208","ADDRESS":"宜蘭縣冬山鄉廣興村廣興路529巷2弄51號","TEL":"03-9514483","COUNTYNAME":"宜蘭縣","TOWNNAME":"冬山鄉","MARKTYPE":"996","Class":"6"},"geometry":{"x":324843.81960000005,"y":2729058.4198000003}},{"attributes":{"OBJECTID":22980,"LANDMARKID":"1000200001042","LANDMARKCO":"604","LANDMARKNA":"魚雅築渡假民宿","LANDMARKAD":"1000208","ADDRESS":"宜蘭縣冬山鄉柯林村光華一路407號","TEL":"03-9516100","COUNTYNAME":"宜蘭縣","TOWNNAME":"冬山鄉","MARKTYPE":"996","Class":"6"},"geometry":{"x":323578.12409999967,"y":2730829.2215}},{"attributes":{"OBJECTID":22981,"LANDMARKID":"1000200001043","LANDMARKCO":"604","LANDMARKNA":"觀景樓花園民宿","LANDMARKAD":"1000208","ADDRESS":"宜蘭縣冬山鄉柯林村境安一路152號","TEL":"03-9613577","COUNTYNAME":"宜蘭縣","TOWNNAME":"冬山鄉","MARKTYPE":"996","Class":"6"},"geometry":{"x":324818.46600000001,"y":2730223.0927000009}},{"attributes":{"OBJECTID":22982,"LANDMARKID":"1000200001044","LANDMARKCO":"604","LANDMARKNA":"阿庚客棧","LANDMARKAD":"1000208","ADDRESS":"宜蘭縣冬山鄉珍珠村冬山路二段533號","TEL":"03-9589080","COUNTYNAME":"宜蘭縣","TOWNNAME":"冬山鄉","MARKTYPE":"996","Class":"6"},"geometry":{"x":329398.47640000004,"y":2726958.3622999992}},{"attributes":{"OBJECTID":22983,"LANDMARKID":"1000200001045","LANDMARKCO":"604","LANDMARKNA":"晴朗田園別墅","LANDMARKAD":"1000208","ADDRESS":"宜蘭縣冬山鄉珍珠村永鎮路125號","TEL":"03-9680426","COUNTYNAME":"宜蘭縣","TOWNNAME":"冬山鄉","MARKTYPE":"996","Class":"6"},"geometry":{"x":329103.41270000022,"y":2726828.2763}},{"attributes":{"OBJECTID":22984,"LANDMARKID":"1000200001046","LANDMARKCO":"604","LANDMARKNA":"快樂休閒果園","LANDMARKAD":"1000208","ADDRESS":"宜蘭縣冬山鄉中山村中山路666號","TEL":"03-9813386","COUNTYNAME":"宜蘭縣","TOWNNAME":"冬山鄉","MARKTYPE":"996","Class":"6"},"geometry":{"x":323826.16660000011,"y":2724406.5928000007}},{"attributes":{"OBJECTID":22985,"LANDMARKID":"1000200001047","LANDMARKCO":"604","LANDMARKNA":"歐香園","LANDMARKAD":"1000208","ADDRESS":"宜蘭縣冬山鄉珍珠村珍珠二路333號","TEL":"03-9508558","COUNTYNAME":"宜蘭縣","TOWNNAME":"冬山鄉","MARKTYPE":"996","Class":"6"},"geometry":{"x":330238.34889999963,"y":2727389.9700000007}},{"attributes":{"OBJECTID":22986,"LANDMARKID":"1000200001048","LANDMARKCO":"604","LANDMARKNA":"彩虹園民宿","LANDMARKAD":"1000208","ADDRESS":"宜蘭縣冬山鄉珍珠村珍珠三路76號","TEL":"03-9500382","COUNTYNAME":"宜蘭縣","TOWNNAME":"冬山鄉","MARKTYPE":"996","Class":"6"},"geometry":{"x":329595.87990000006,"y":2727166.3208000008}},{"attributes":{"OBJECTID":22987,"LANDMARKID":"1000200001049","LANDMARKCO":"604","LANDMARKNA":"芯園","LANDMARKAD":"1000208","ADDRESS":"宜蘭縣冬山鄉珍珠村富農路一段312巷120號","TEL":"03-9590565","COUNTYNAME":"宜蘭縣","TOWNNAME":"冬山鄉","MARKTYPE":"996","Class":"6"},"geometry":{"x":330671.76829999965,"y":2726286.2839000002}},{"attributes":{"OBJECTID":22988,"LANDMARKID":"1000200001050","LANDMARKCO":"604","LANDMARKNA":"我的夢中城堡民宿","LANDMARKAD":"1000208","ADDRESS":"宜蘭縣冬山鄉珍珠村富農路一段312巷92號","TEL":"03-9590565","COUNTYNAME":"宜蘭縣","TOWNNAME":"冬山鄉","MARKTYPE":"996","Class":"6"},"geometry":{"x":330647.57210000046,"y":2726291.9328000005}},{"attributes":{"OBJECTID":22989,"LANDMARKID":"1000200001051","LANDMARKCO":"604","LANDMARKNA":"富農民宿","LANDMARKAD":"1000208","ADDRESS":"宜蘭縣冬山鄉珍珠村富農路一段346巷60號","TEL":"03-9595156","COUNTYNAME":"宜蘭縣","TOWNNAME":"冬山鄉","MARKTYPE":"996","Class":"6"},"geometry":{"x":330674.13480000012,"y":2726396.0504999999}},{"attributes":{"OBJECTID":22990,"LANDMARKID":"1000200001052","LANDMARKCO":"604","LANDMARKNA":"情定珍珠民宿","LANDMARKAD":"1000208","ADDRESS":"宜蘭縣冬山鄉珍珠村富農路一段383巷37弄16號","TEL":"03-9591410","COUNTYNAME":"宜蘭縣","TOWNNAME":"冬山鄉","MARKTYPE":"996","Class":"6"},"geometry":{"x":330433.1902999999,"y":2726468.1576000005}},{"attributes":{"OBJECTID":22991,"LANDMARKID":"1000200001053","LANDMARKCO":"604","LANDMARKNA":"河畔森林城堡民宿","LANDMARKAD":"1000208","ADDRESS":"宜蘭縣冬山鄉珍珠村富農路一段383巷53號","TEL":"03-9560043","COUNTYNAME":"宜蘭縣","TOWNNAME":"冬山鄉","MARKTYPE":"996","Class":"6"},"geometry":{"x":330361.51439999975,"y":2726503.5295000002}},{"attributes":{"OBJECTID":22992,"LANDMARKID":"1000200001054","LANDMARKCO":"604","LANDMARKNA":"幸福盒子民宿","LANDMARKAD":"1000208","ADDRESS":"宜蘭縣冬山鄉得安村大埤二路216號","TEL":"03-9510805","COUNTYNAME":"宜蘭縣","TOWNNAME":"冬山鄉","MARKTYPE":"996","Class":"6"},"geometry":{"x":323817.46279999986,"y":2726852.7780000009}},{"attributes":{"OBJECTID":22993,"LANDMARKID":"1000200001055","LANDMARKCO":"604","LANDMARKNA":"竹鄉園民宿","LANDMARKAD":"1000208","ADDRESS":"宜蘭縣冬山鄉珍珠村富農路一段386號","TEL":"03-9594202","COUNTYNAME":"宜蘭縣","TOWNNAME":"冬山鄉","MARKTYPE":"996","Class":"6"},"geometry":{"x":330546.06979999971,"y":2726550.8979000002}},{"attributes":{"OBJECTID":22994,"LANDMARKID":"1000200001056","LANDMARKCO":"604","LANDMARKNA":"雅園民宿","LANDMARKAD":"1000208","ADDRESS":"宜蘭縣冬山鄉珍珠村富農路一段528號","TEL":"03-9594347","COUNTYNAME":"宜蘭縣","TOWNNAME":"冬山鄉","MARKTYPE":"996","Class":"6"},"geometry":{"x":330565.04129999969,"y":2726913.3162999991}},{"attributes":{"OBJECTID":22995,"LANDMARKID":"1000200001057","LANDMARKCO":"604","LANDMARKNA":"稻香村","LANDMARKAD":"1000208","ADDRESS":"宜蘭縣冬山鄉珍珠村富農路一段631號","TEL":"03-9591141","COUNTYNAME":"宜蘭縣","TOWNNAME":"冬山鄉","MARKTYPE":"996","Class":"6"},"geometry":{"x":330552.62959999964,"y":2727172.2815000005}},{"attributes":{"OBJECTID":22996,"LANDMARKID":"1000200001058","LANDMARKCO":"604","LANDMARKNA":"寬心小站民宿","LANDMARKAD":"1000208","ADDRESS":"宜蘭縣冬山鄉香城路311巷7弄7號","TEL":"03-9595341","COUNTYNAME":"宜蘭縣","TOWNNAME":"冬山鄉","MARKTYPE":"996","Class":"6"},"geometry":{"x":331378.83380000014,"y":2724992.7059000004}},{"attributes":{"OBJECTID":22997,"LANDMARKID":"1000200001059","LANDMARKCO":"604","LANDMARKNA":"梅花民宿","LANDMARKAD":"1000208","ADDRESS":"宜蘭縣冬山鄉得安村4鄰鹿得三路322號","TEL":"03-9612619","COUNTYNAME":"宜蘭縣","TOWNNAME":"冬山鄉","MARKTYPE":"996","Class":"6"},"geometry":{"x":323931.4040000001,"y":2727606.9597999994}},{"attributes":{"OBJECTID":22998,"LANDMARKID":"1000200001060","LANDMARKCO":"604","LANDMARKNA":"田野山莊民宿","LANDMARKAD":"1000208","ADDRESS":"宜蘭縣冬山鄉得安村4鄰鹿得路292號","TEL":"03-9510461","COUNTYNAME":"宜蘭縣","TOWNNAME":"冬山鄉","MARKTYPE":"996","Class":"6"},"geometry":{"x":324342.69039999973,"y":2727578.2729000002}},{"attributes":{"OBJECTID":22999,"LANDMARKID":"1000200001061","LANDMARKCO":"604","LANDMARKNA":"梅湖民宿","LANDMARKAD":"1000208","ADDRESS":"宜蘭縣冬山鄉得安村7鄰梅湖路85號","TEL":"03-9611338","COUNTYNAME":"宜蘭縣","TOWNNAME":"冬山鄉","MARKTYPE":"996","Class":"6"},"geometry":{"x":324062.83509999979,"y":2727124.8631999996}},{"attributes":{"OBJECTID":23000,"LANDMARKID":"1000200001062","LANDMARKCO":"604","LANDMARKNA":"夢幻休閒民宿","LANDMARKAD":"1000208","ADDRESS":"宜蘭縣冬山鄉中山村中山路316號","TEL":"03-9585839","COUNTYNAME":"宜蘭縣","TOWNNAME":"冬山鄉","MARKTYPE":"996","Class":"6"},"geometry":{"x":325185.59300000034,"y":2724900.6862000003}}]}