{"displayFieldName":"COUNTYNAME","fieldAliases":{"OBJECTID":"OBJECTID","LANDMARKID":"LANDMARKID","LANDMARKCO":"LANDMARKCO","LANDMARKNA":"LANDMARKNA","LANDMARKAD":"LANDMARKAD","ADDRESS":"ADDRESS","TEL":"TEL","COUNTYNAME":"COUNTYNAME","TOWNNAME":"TOWNNAME","MARKTYPE":"MARKTYPE","Class":"Class"},"geometryType":"esriGeometryPoint","spatialReference":{"wkid":102443},"fields":[{"name":"OBJECTID","type":"esriFieldTypeOID","alias":"OBJECTID"},{"name":"LANDMARKID","type":"esriFieldTypeString","alias":"LANDMARKID","length":15},{"name":"LANDMARKCO","type":"esriFieldTypeString","alias":"LANDMARKCO","length":15},{"name":"LANDMARKNA","type":"esriFieldTypeString","alias":"LANDMARKNA","length":50},{"name":"LANDMARKAD","type":"esriFieldTypeString","alias":"LANDMARKAD","length":15},{"name":"ADDRESS","type":"esriFieldTypeString","alias":"ADDRESS","length":56},{"name":"TEL","type":"esriFieldTypeString","alias":"TEL","length":36},{"name":"COUNTYNAME","type":"esriFieldTypeString","alias":"COUNTYNAME","length":15},{"name":"TOWNNAME","type":"esriFieldTypeString","alias":"TOWNNAME","length":13},{"name":"MARKTYPE","type":"esriFieldTypeString","alias":"MARKTYPE","length":12},{"name":"Class","type":"esriFieldTypeString","alias":"Class","length":5}],"features":[{"attributes":{"OBJECTID":9401,"LANDMARKID":"6300000002327","LANDMARKCO":"402","LANDMARKNA":"My Phone台灣大哥大-台北大安直營服務中心","LANDMARKAD":"6300003","ADDRESS":"台北市大安區基隆路二段172之3號","TEL":"0809-000-166","COUNTYNAME":"台北市","TOWNNAME":"大安區","MARKTYPE":"994","Class":"4"},"geometry":{"x":305610.50250000041,"y":2768470.7929999996}},{"attributes":{"OBJECTID":9402,"LANDMARKID":"6300000002328","LANDMARKCO":"402","LANDMARKNA":"My Phone台灣大哥大-台北頂好直營服務中心","LANDMARKAD":"6300003","ADDRESS":"台北市大安區忠孝東路四段71號","TEL":" ","COUNTYNAME":"台北市","TOWNNAME":"大安區","MARKTYPE":"994","Class":"4"},"geometry":{"x":305171.20170000009,"y":2770553.0653000008}},{"attributes":{"OBJECTID":9403,"LANDMARKID":"6300000002329","LANDMARKCO":"402","LANDMARKNA":"My Phone台灣大哥大-大安－復興南","LANDMARKAD":"6300003","ADDRESS":"台北市大安區復興南路二段47號","TEL":"02-2325-5011","COUNTYNAME":"台北市","TOWNNAME":"大安區","MARKTYPE":"994","Class":"4"},"geometry":{"x":304875.29260000028,"y":2769344.1528999992}},{"attributes":{"OBJECTID":9404,"LANDMARKID":"6300000002330","LANDMARKCO":"402","LANDMARKNA":"My Phone台灣大哥大-大安古亭","LANDMARKAD":"6300003","ADDRESS":"台北市羅斯福路二段113號","TEL":"(02)2368-0338","COUNTYNAME":"台北市","TOWNNAME":"大安區","MARKTYPE":"994","Class":"4"},"geometry":{"x":302952.93159999978,"y":2768581.0427999999}},{"attributes":{"OBJECTID":9405,"LANDMARKID":"6300000002331","LANDMARKCO":"402","LANDMARKNA":"亞太行動寬頻電信-大安通化加盟服務中心","LANDMARKAD":"6300003","ADDRESS":"台北市大安區通化街115號","TEL":"02-27357276","COUNTYNAME":"台北市","TOWNNAME":"大安區","MARKTYPE":"994","Class":"4"},"geometry":{"x":305918.74600000028,"y":2769150.4594000001}},{"attributes":{"OBJECTID":9406,"LANDMARKID":"6300000002332","LANDMARKCO":"402","LANDMARKNA":"亞太行動寬頻電信-台北八德加盟服務中心","LANDMARKAD":"6300003","ADDRESS":"台北市大安區八德路二段24號","TEL":"02-27773639","COUNTYNAME":"台北市","TOWNNAME":"大安區","MARKTYPE":"994","Class":"4"},"geometry":{"x":303936.12710000016,"y":2770838.5296999998}},{"attributes":{"OBJECTID":9407,"LANDMARKID":"6300000002333","LANDMARKCO":"402","LANDMARKNA":"亞太行動寬頻電信-台北市","LANDMARKAD":"6300003","ADDRESS":"台北市大安區光復南路88號","TEL":" ","COUNTYNAME":"台北市","TOWNNAME":"大安區","MARKTYPE":"994","Class":"4"},"geometry":{"x":306256.25009999983,"y":2770811.1951000001}},{"attributes":{"OBJECTID":9408,"LANDMARKID":"6300000002334","LANDMARKCO":"402","LANDMARKNA":"亞太行動寬頻電信-大安忠孝東加盟服務中心","LANDMARKAD":"6300003","ADDRESS":"台北市大安區忠孝東路四段216巷29號","TEL":"02-87716144","COUNTYNAME":"台北市","TOWNNAME":"大安區","MARKTYPE":"994","Class":"4"},"geometry":{"x":305810.41270000022,"y":2770299.8816999998}},{"attributes":{"OBJECTID":9409,"LANDMARKID":"6300000002086","LANDMARKCO":"401","LANDMARKNA":"財團法人中心診所醫院","LANDMARKAD":"6300003","ADDRESS":"台北市大安區忠孝東路四段77號","TEL":"02-27510221","COUNTYNAME":"台北市","TOWNNAME":"大安區","MARKTYPE":"994","Class":"4"},"geometry":{"x":305229.31900000013,"y":2770525.9109000005}},{"attributes":{"OBJECTID":9410,"LANDMARKID":"6300000002087","LANDMARKCO":"401","LANDMARKNA":"中山醫院","LANDMARKAD":"6300003","ADDRESS":"台北市大安區仁愛路四段112巷11號","TEL":"02-27081166","COUNTYNAME":"台北市","TOWNNAME":"大安區","MARKTYPE":"994","Class":"4"},"geometry":{"x":305472.19930000044,"y":2769937.9868000001}},{"attributes":{"OBJECTID":9411,"LANDMARKID":"6300000002088","LANDMARKCO":"401","LANDMARKNA":"財團法人宏恩綜合醫院","LANDMARKAD":"6300003","ADDRESS":"台北市大安區仁愛路四段71巷1號","TEL":"02-27713161","COUNTYNAME":"台北市","TOWNNAME":"大安區","MARKTYPE":"994","Class":"4"},"geometry":{"x":305202.06749999989,"y":2770151.9506999999}},{"attributes":{"OBJECTID":9412,"LANDMARKID":"6300000002089","LANDMARKCO":"401","LANDMARKNA":"國立台灣大學醫學院附設醫院-公館院區","LANDMARKAD":"6300003","ADDRESS":"台北市大安區基隆路三段155巷57號","TEL":"02-87339240","COUNTYNAME":"台北市","TOWNNAME":"大安區","MARKTYPE":"994","Class":"4"},"geometry":{"x":304893.16820000019,"y":2767467.1113000009}},{"attributes":{"OBJECTID":9413,"LANDMARKID":"6300000002090","LANDMARKCO":"401","LANDMARKNA":"秀傳醫院","LANDMARKAD":"6300003","ADDRESS":"台北市光復南路116巷1號","TEL":"02-27717172","COUNTYNAME":"台北市","TOWNNAME":"大安區","MARKTYPE":"994","Class":"4"},"geometry":{"x":306191.66139999963,"y":2770668.4609999992}},{"attributes":{"OBJECTID":9414,"LANDMARKID":"6300000002091","LANDMARKCO":"401","LANDMARKNA":"財團法人國泰綜合醫院","LANDMARKAD":"6300003","ADDRESS":"台北市大安區仁愛路四段280號","TEL":"02-27082121","COUNTYNAME":"台北市","TOWNNAME":"大安區","MARKTYPE":"994","Class":"4"},"geometry":{"x":305879.52529999986,"y":2770019.6043999996}},{"attributes":{"OBJECTID":9415,"LANDMARKID":"6300000002092","LANDMARKCO":"401","LANDMARKNA":"台北市立聯合醫院-仁愛院區(仁愛醫院)","LANDMARKAD":"6300003","ADDRESS":"台北市大安區仁愛路四段10號","TEL":"02-27093600","COUNTYNAME":"台北市","TOWNNAME":"大安區","MARKTYPE":"994","Class":"4"},"geometry":{"x":305024.60890000034,"y":2770055.4828999992}},{"attributes":{"OBJECTID":9416,"LANDMARKID":"6300000003322","LANDMARKCO":"511","LANDMARKNA":"師大夜市","LANDMARKAD":"6300003","ADDRESS":"台北市大安區龍泉街、師大路、雲河街等","TEL":" ","COUNTYNAME":"台北市","TOWNNAME":"大安區","MARKTYPE":"995","Class":"5"},"geometry":{"x":303435.01520000026,"y":2768568.9781999998}},{"attributes":{"OBJECTID":9417,"LANDMARKID":"6300000003107","LANDMARKCO":"410","LANDMARKNA":"誠品書店-台北敦南店","LANDMARKAD":"6300003","ADDRESS":"台北市敦化南路一段245號","TEL":"02-2775-5977","COUNTYNAME":"台北市","TOWNNAME":"大安區","MARKTYPE":"994","Class":"4"},"geometry":{"x":305427.34210000001,"y":2770223.1068999991}},{"attributes":{"OBJECTID":9418,"LANDMARKID":"6300000003108","LANDMARKCO":"410","LANDMARKNA":"遠企購物中心","LANDMARKAD":"6300003","ADDRESS":"台北市大安區敦化南路二段203號","TEL":"02-23786666","COUNTYNAME":"台北市","TOWNNAME":"大安區","MARKTYPE":"994","Class":"4"},"geometry":{"x":305474.17850000039,"y":2768802.2495000008}},{"attributes":{"OBJECTID":9419,"LANDMARKID":"6300000003252","LANDMARKCO":"507","LANDMARKNA":"台大校門","LANDMARKAD":"6300003","ADDRESS":"台北市大安區羅斯福路四段1號","TEL":" ","COUNTYNAME":"台北市","TOWNNAME":"大安區","MARKTYPE":"995","Class":"5"},"geometry":{"x":303865.58079999965,"y":2767764.3668000009}},{"attributes":{"OBJECTID":9420,"LANDMARKID":"6300000003253","LANDMARKCO":"507","LANDMARKNA":"台北工業學校紅樓","LANDMARKAD":"6300003","ADDRESS":"台北市大安區忠孝東路三段1號","TEL":" ","COUNTYNAME":"台北市","TOWNNAME":"大安區","MARKTYPE":"995","Class":"5"},"geometry":{"x":303878.62050000019,"y":2770647.8528000005}},{"attributes":{"OBJECTID":9421,"LANDMARKID":"6300000003254","LANDMARKCO":"507","LANDMARKNA":"台北監獄圍牆遺蹟","LANDMARKAD":"6300003","ADDRESS":"台北市大安區金山南路電信局邊牆","TEL":" ","COUNTYNAME":"台北市","TOWNNAME":"大安區","MARKTYPE":"995","Class":"5"},"geometry":{"x":303104.18649999984,"y":2769116.6710999999}},{"attributes":{"OBJECTID":9422,"LANDMARKID":"6300000003255","LANDMARKCO":"507","LANDMARKNA":"台灣大學原帝大校舍","LANDMARKAD":"6300003","ADDRESS":"台北市大安區羅斯福路四段1號","TEL":" ","COUNTYNAME":"台北市","TOWNNAME":"大安區","MARKTYPE":"995","Class":"5"},"geometry":{"x":303866.31219999958,"y":2767765.0810000002}},{"attributes":{"OBJECTID":9423,"LANDMARKID":"6300000003256","LANDMARKCO":"507","LANDMARKNA":"台灣師範大學原高等學校講堂","LANDMARKAD":"6300003","ADDRESS":"台北市大安區和平東路一段162號","TEL":" ","COUNTYNAME":"台北市","TOWNNAME":"大安區","MARKTYPE":"995","Class":"5"},"geometry":{"x":303243.6819000002,"y":2768806.7548999991}},{"attributes":{"OBJECTID":9424,"LANDMARKID":"6300000003257","LANDMARKCO":"507","LANDMARKNA":"紫藤廬","LANDMARKAD":"6300003","ADDRESS":"台北市大安區新生南路三段16巷1號","TEL":" ","COUNTYNAME":"台北市","TOWNNAME":"大安區","MARKTYPE":"995","Class":"5"},"geometry":{"x":303921.29289999977,"y":2768608.5734000001}},{"attributes":{"OBJECTID":9425,"LANDMARKID":"6300000003258","LANDMARKCO":"507","LANDMARKNA":"義方居古厝","LANDMARKAD":"6300003","ADDRESS":"台北市大安區基隆路3段155巷128號","TEL":" ","COUNTYNAME":"台北市","TOWNNAME":"大安區","MARKTYPE":"995","Class":"5"},"geometry":{"x":304790.97780000046,"y":2767762.0072000008}},{"attributes":{"OBJECTID":9426,"LANDMARKID":"6300000003259","LANDMARKCO":"507","LANDMARKNA":"芳蘭大厝","LANDMARKAD":"6300003","ADDRESS":"台北市大安區基隆路三段155巷174號","TEL":" ","COUNTYNAME":"台北市","TOWNNAME":"大安區","MARKTYPE":"995","Class":"5"},"geometry":{"x":304759.05570000038,"y":2767795.9858999997}},{"attributes":{"OBJECTID":9427,"LANDMARKID":"6300000003260","LANDMARKCO":"507","LANDMARKNA":"龍安坡黃宅濂讓居","LANDMARKAD":"6300003","ADDRESS":"台北市大安區和平東路二段76巷4號","TEL":" ","COUNTYNAME":"台北市","TOWNNAME":"大安區","MARKTYPE":"995","Class":"5"},"geometry":{"x":304410.4168999996,"y":2768633.4821000006}},{"attributes":{"OBJECTID":9428,"LANDMARKID":"6300000003367","LANDMARKCO":"512","LANDMARKNA":"中華民國觀光局","LANDMARKAD":"6300003","ADDRESS":"台北市忠孝東路四段290號9樓","TEL":"02-23491500","COUNTYNAME":"台北市","TOWNNAME":"大安區","MARKTYPE":"995","Class":"5"},"geometry":{"x":306123.75779999979,"y":2770445.7775999997}},{"attributes":{"OBJECTID":9429,"LANDMARKID":"6300000003368","LANDMARKCO":"512","LANDMARKNA":"觀光局旅遊服務中心台北服務處","LANDMARKAD":"6300003","ADDRESS":"台北市忠孝東路四段345號","TEL":"02-27698787","COUNTYNAME":"台北市","TOWNNAME":"大安區","MARKTYPE":"995","Class":"5"},"geometry":{"x":306247.18670000043,"y":2770447.7915000003}},{"attributes":{"OBJECTID":9430,"LANDMARKID":"6300000003369","LANDMARKCO":"512","LANDMARKNA":"中華民國旅遊資訊協會","LANDMARKAD":"6300003","ADDRESS":"台北市敦化南路一段270巷6號4樓之1","TEL":"02-27818387","COUNTYNAME":"台北市","TOWNNAME":"大安區","MARKTYPE":"995","Class":"5"},"geometry":{"x":305288.91019999981,"y":2770172.1603999995}},{"attributes":{"OBJECTID":9431,"LANDMARKID":"6300000002877","LANDMARKCO":"407","LANDMARKNA":"誠品Eslite","LANDMARKAD":"6300003","ADDRESS":"台北市敦化南路一段245號B2","TEL":"02-2775-5977","COUNTYNAME":"台北市","TOWNNAME":"大安區","MARKTYPE":"994","Class":"4"},"geometry":{"x":305427.16930000018,"y":2770222.9188000001}},{"attributes":{"OBJECTID":9432,"LANDMARKID":"6300000003060","LANDMARKCO":"408","LANDMARKNA":"郵局-台北青田郵局","LANDMARKAD":"6300003","ADDRESS":"台北市大安區和平東路1段155號","TEL":"(02)2321-4288","COUNTYNAME":"台北市","TOWNNAME":"大安區","MARKTYPE":"994","Class":"4"},"geometry":{"x":303603.68740000017,"y":2768826.7745999992}},{"attributes":{"OBJECTID":9433,"LANDMARKID":"6300000003061","LANDMARKCO":"408","LANDMARKNA":"郵局-台大郵局","LANDMARKAD":"6300003","ADDRESS":"台北市大安區羅斯福路4段1號(台灣大學內)","TEL":"(02)2363-3435","COUNTYNAME":"台北市","TOWNNAME":"大安區","MARKTYPE":"994","Class":"4"},"geometry":{"x":303865.13910000026,"y":2767764.8620999996}},{"attributes":{"OBJECTID":9434,"LANDMARKID":"6300000003062","LANDMARKCO":"408","LANDMARKNA":"郵局-台北仁愛路郵局","LANDMARKAD":"6300003","ADDRESS":"台北市大安區仁愛路3段47號","TEL":"(02)2771-1497","COUNTYNAME":"台北市","TOWNNAME":"大安區","MARKTYPE":"994","Class":"4"},"geometry":{"x":304049.10300000012,"y":2770162.1019000001}},{"attributes":{"OBJECTID":9435,"LANDMARKID":"6300000003063","LANDMARKCO":"408","LANDMARKNA":"郵局-台北三張犁郵局","LANDMARKAD":"6300003","ADDRESS":"台北市大安區信義路4段337號","TEL":"(02)2709-6837","COUNTYNAME":"台北市","TOWNNAME":"大安區","MARKTYPE":"994","Class":"4"},"geometry":{"x":306148.25200000033,"y":2769581.6646999996}},{"attributes":{"OBJECTID":9436,"LANDMARKID":"6300000003064","LANDMARKCO":"408","LANDMARKNA":"郵局-台北光武郵局","LANDMARKAD":"6300003","ADDRESS":"台北市大安區大安路1段52巷16號","TEL":"(02)2781-6693","COUNTYNAME":"台北市","TOWNNAME":"大安區","MARKTYPE":"994","Class":"4"},"geometry":{"x":305040.60230000038,"y":2770652.5965}},{"attributes":{"OBJECTID":9437,"LANDMARKID":"6300000003065","LANDMARKCO":"408","LANDMARKNA":"郵局-台北六張犁郵局","LANDMARKAD":"6300003","ADDRESS":"台北市大安區和平東路3段208號","TEL":"(02)2733-5532","COUNTYNAME":"台北市","TOWNNAME":"大安區","MARKTYPE":"994","Class":"4"},"geometry":{"x":305904.2648,"y":2768417.5333999991}},{"attributes":{"OBJECTID":9438,"LANDMARKID":"6300000003066","LANDMARKCO":"408","LANDMARKNA":"郵局-台北正義郵局","LANDMARKAD":"6300003","ADDRESS":"台北市大安區忠孝東路3段150號","TEL":"(02)2778-2422","COUNTYNAME":"台北市","TOWNNAME":"大安區","MARKTYPE":"994","Class":"4"},"geometry":{"x":304301.1492999997,"y":2770481.2047000006}},{"attributes":{"OBJECTID":9439,"LANDMARKID":"6300000003067","LANDMARKCO":"408","LANDMARKNA":"郵局-台灣科大郵局","LANDMARKAD":"6300003","ADDRESS":"台北市大安區基隆路4段43號(台灣科技大學內)","TEL":"(02)2733-1071","COUNTYNAME":"台北市","TOWNNAME":"大安區","MARKTYPE":"994","Class":"4"},"geometry":{"x":304566.16459999979,"y":2767408.3113000002}},{"attributes":{"OBJECTID":9440,"LANDMARKID":"6300000003068","LANDMARKCO":"408","LANDMARKNA":"郵局-台北金南郵局","LANDMARKAD":"6300003","ADDRESS":"台北市大安區愛國東路216號","TEL":"(02)2394-0804","COUNTYNAME":"台北市","TOWNNAME":"大安區","MARKTYPE":"994","Class":"4"},"geometry":{"x":302939.53660000023,"y":2769402.0848999992}},{"attributes":{"OBJECTID":9441,"LANDMARKID":"6300000003069","LANDMARKCO":"408","LANDMARKNA":"郵局-台北安和郵局","LANDMARKAD":"6300003","ADDRESS":"台北市大安區安和路2段61號","TEL":"(02)2704-9228","COUNTYNAME":"台北市","TOWNNAME":"大安區","MARKTYPE":"994","Class":"4"},"geometry":{"x":305764.12760000024,"y":2769305.9489999991}},{"attributes":{"OBJECTID":9442,"LANDMARKID":"6300000003070","LANDMARKCO":"408","LANDMARKNA":"郵局-台北敦南郵局","LANDMARKAD":"6300003","ADDRESS":"台北市大安區忠孝東路4段170巷9號","TEL":"(02)2771-5334","COUNTYNAME":"台北市","TOWNNAME":"大安區","MARKTYPE":"994","Class":"4"},"geometry":{"x":305591.78100000042,"y":2770389.6358000003}},{"attributes":{"OBJECTID":9443,"LANDMARKID":"6300000003071","LANDMARKCO":"408","LANDMARKNA":"郵局-台北大安郵局","LANDMARKAD":"6300003","ADDRESS":"台北市大安區信義路3段89號","TEL":"(02)2704-4318","COUNTYNAME":"台北市","TOWNNAME":"大安區","MARKTYPE":"994","Class":"4"},"geometry":{"x":304333.18429999985,"y":2769623.0873000007}},{"attributes":{"OBJECTID":9444,"LANDMARKID":"6300000003072","LANDMARKCO":"408","LANDMARKNA":"郵局-台北公館郵局","LANDMARKAD":"6300003","ADDRESS":"台北市大安區台北捷運公館站第3出入口B1","TEL":"(02)2365-9518","COUNTYNAME":"台北市","TOWNNAME":"大安區","MARKTYPE":"994","Class":"4"},"geometry":{"x":303909.32060000021,"y":2767567.2050000001}},{"attributes":{"OBJECTID":9445,"LANDMARKID":"6300000003073","LANDMARKCO":"408","LANDMARKNA":"郵局-台北師大郵局","LANDMARKAD":"6300003","ADDRESS":"台北市大安區和平東路1段162號(師範大學內)","TEL":"(02)2363-5053","COUNTYNAME":"台北市","TOWNNAME":"大安區","MARKTYPE":"994","Class":"4"},"geometry":{"x":303246.35340000037,"y":2768801.3881000001}},{"attributes":{"OBJECTID":9446,"LANDMARKID":"6300000003074","LANDMARKCO":"408","LANDMARKNA":"郵局-台北信維郵局","LANDMARKAD":"6300003","ADDRESS":"台北市大安區信義路4段74號","TEL":"(02)2707-7130","COUNTYNAME":"台北市","TOWNNAME":"大安區","MARKTYPE":"994","Class":"4"},"geometry":{"x":305142.42329999991,"y":2769561.0119000003}},{"attributes":{"OBJECTID":9447,"LANDMARKID":"6300000003075","LANDMARKCO":"408","LANDMARKNA":"郵局-台北光華郵局","LANDMARKAD":"6300003","ADDRESS":"台北市大安區新生北路1段7之2號","TEL":"(02)2741-0600","COUNTYNAME":"台北市","TOWNNAME":"大安區","MARKTYPE":"994","Class":"4"},"geometry":{"x":303795.36780000012,"y":2770852.0684999991}},{"attributes":{"OBJECTID":9448,"LANDMARKID":"6300000003076","LANDMARKCO":"408","LANDMARKNA":"郵局-台北成功郵局","LANDMARKAD":"6300003","ADDRESS":"台北市大安區四維路198巷38弄12號","TEL":"(02)2704-3862","COUNTYNAME":"台北市","TOWNNAME":"大安區","MARKTYPE":"994","Class":"4"},"geometry":{"x":305092.12370000035,"y":2768825.1967999991}},{"attributes":{"OBJECTID":9449,"LANDMARKID":"6300000003092","LANDMARKCO":"409","LANDMARKNA":"台北市大安區農會","LANDMARKAD":"6300003","ADDRESS":"台北市大安區和平東路3段228巷49號2樓","TEL":"02-27325237","COUNTYNAME":"台北市","TOWNNAME":"大安區","MARKTYPE":"994","Class":"4"},"geometry":{"x":305804.4868999999,"y":2768147.0832000002}},{"attributes":{"OBJECTID":9450,"LANDMARKID":"6300000003093","LANDMARKCO":"409","LANDMARKNA":"台北市農會","LANDMARKAD":"6300003","ADDRESS":"台北市大安區復興南路1段390號14號","TEL":"02-27070612","COUNTYNAME":"台北市","TOWNNAME":"大安區","MARKTYPE":"994","Class":"4"},"geometry":{"x":304832.4132000003,"y":2769634.4700000007}},{"attributes":{"OBJECTID":9451,"LANDMARKID":"6300000002399","LANDMARKCO":"404","LANDMARKNA":"台北自來水事業處","LANDMARKAD":"6300003","ADDRESS":"臺北市大安區長興街131號","TEL":"02-87335678","COUNTYNAME":"台北市","TOWNNAME":"大安區","MARKTYPE":"994","Class":"4"},"geometry":{"x":305823.50999999978,"y":2767170.4890000001}},{"attributes":{"OBJECTID":9452,"LANDMARKID":"6300000002400","LANDMARKCO":"404","LANDMARKNA":"台北自來水事業處本處","LANDMARKAD":"6300003","ADDRESS":"台北市大安區長興街131號","TEL":" ","COUNTYNAME":"台北市","TOWNNAME":"大安區","MARKTYPE":"994","Class":"4"},"geometry":{"x":305028.37480000034,"y":2767749.5545000006}},{"attributes":{"OBJECTID":9453,"LANDMARKID":"6300000002387","LANDMARKCO":"403","LANDMARKNA":"台灣電力公司北市區營業處","LANDMARKAD":"6300003","ADDRESS":"台北市大安區基隆路四段75號","TEL":" ","COUNTYNAME":"台北市","TOWNNAME":"大安區","MARKTYPE":"994","Class":"4"},"geometry":{"x":304459.28589999955,"y":2767263.7887999993}},{"attributes":{"OBJECTID":9454,"LANDMARKID":"6300000002817","LANDMARKCO":"406","LANDMARKNA":"永吉公園","LANDMARKAD":"6300003","ADDRESS":"台北市大安區","TEL":" ","COUNTYNAME":"台北市","TOWNNAME":"大安區","MARKTYPE":"994","Class":"4"},"geometry":{"x":306088.58389999997,"y":2770611.1055999994}},{"attributes":{"OBJECTID":9455,"LANDMARKID":"6300000002818","LANDMARKCO":"406","LANDMARKNA":"塯公圳公園","LANDMARKAD":"6300003","ADDRESS":"台北市大安區","TEL":" ","COUNTYNAME":"台北市","TOWNNAME":"大安區","MARKTYPE":"994","Class":"4"},"geometry":{"x":305152.95370000042,"y":2770526.3487999998}},{"attributes":{"OBJECTID":9456,"LANDMARKID":"6300000002819","LANDMARKCO":"406","LANDMARKNA":"民輝公園","LANDMARKAD":"6300003","ADDRESS":"台北市大安區","TEL":" ","COUNTYNAME":"台北市","TOWNNAME":"大安區","MARKTYPE":"994","Class":"4"},"geometry":{"x":303991.01319999993,"y":2770254.8149999995}},{"attributes":{"OBJECTID":9457,"LANDMARKID":"6300000002820","LANDMARKCO":"406","LANDMARKNA":"仁愛公園","LANDMARKAD":"6300003","ADDRESS":"台北市大安區","TEL":" ","COUNTYNAME":"台北市","TOWNNAME":"大安區","MARKTYPE":"994","Class":"4"},"geometry":{"x":305130.82990000024,"y":2769937.7957000006}},{"attributes":{"OBJECTID":9458,"LANDMARKID":"6300000002821","LANDMARKCO":"406","LANDMARKNA":"附中公園","LANDMARKAD":"6300003","ADDRESS":"台北市大安區","TEL":" ","COUNTYNAME":"台北市","TOWNNAME":"大安區","MARKTYPE":"994","Class":"4"},"geometry":{"x":304711.87040000036,"y":2769906.8214999996}},{"attributes":{"OBJECTID":9459,"LANDMARKID":"6300000002822","LANDMARKCO":"406","LANDMARKNA":"延吉公園","LANDMARKAD":"6300003","ADDRESS":"台北市大安區","TEL":" ","COUNTYNAME":"台北市","TOWNNAME":"大安區","MARKTYPE":"994","Class":"4"},"geometry":{"x":306115.07940000016,"y":2769856.8902000003}},{"attributes":{"OBJECTID":9460,"LANDMARKID":"6300000002823","LANDMARKCO":"406","LANDMARKNA":"東豐公園","LANDMARKAD":"6300003","ADDRESS":"台北市大安區","TEL":" ","COUNTYNAME":"台北市","TOWNNAME":"大安區","MARKTYPE":"994","Class":"4"},"geometry":{"x":304998.16889999993,"y":2769850.1320999991}},{"attributes":{"OBJECTID":9461,"LANDMARKID":"6300000002824","LANDMARKCO":"406","LANDMARKNA":"民榮公園","LANDMARKAD":"6300003","ADDRESS":"台北市大安區","TEL":" ","COUNTYNAME":"台北市","TOWNNAME":"大安區","MARKTYPE":"994","Class":"4"},"geometry":{"x":304015.15940000024,"y":2769792.2953999992}},{"attributes":{"OBJECTID":9462,"LANDMARKID":"6300000002825","LANDMARKCO":"406","LANDMARKNA":"德安公園","LANDMARKAD":"6300003","ADDRESS":"台北市大安區","TEL":" ","COUNTYNAME":"台北市","TOWNNAME":"大安區","MARKTYPE":"994","Class":"4"},"geometry":{"x":305285.95669999998,"y":2769745.9203999992}},{"attributes":{"OBJECTID":9463,"LANDMARKID":"6300000002826","LANDMARKCO":"406","LANDMARKNA":"敦安公園","LANDMARKAD":"6300003","ADDRESS":"台北市大安區","TEL":" ","COUNTYNAME":"台北市","TOWNNAME":"大安區","MARKTYPE":"994","Class":"4"},"geometry":{"x":305897.96449999977,"y":2769710.7455000002}},{"attributes":{"OBJECTID":9464,"LANDMARKID":"6300000002827","LANDMARKCO":"406","LANDMARKNA":"安祥公園","LANDMARKAD":"6300003","ADDRESS":"台北市大安區","TEL":" ","COUNTYNAME":"台北市","TOWNNAME":"大安區","MARKTYPE":"994","Class":"4"},"geometry":{"x":304752.02909999993,"y":2769708.3631999996}},{"attributes":{"OBJECTID":9465,"LANDMARKID":"6300000002828","LANDMARKCO":"406","LANDMARKNA":"和安公園","LANDMARKAD":"6300003","ADDRESS":"台北市大安區","TEL":" ","COUNTYNAME":"台北市","TOWNNAME":"大安區","MARKTYPE":"994","Class":"4"},"geometry":{"x":304992.17389999982,"y":2769704.9540999997}},{"attributes":{"OBJECTID":9466,"LANDMARKID":"6300000002829","LANDMARKCO":"406","LANDMARKNA":"仁慈公園","LANDMARKAD":"6300003","ADDRESS":"台北市大安區","TEL":" ","COUNTYNAME":"台北市","TOWNNAME":"大安區","MARKTYPE":"994","Class":"4"},"geometry":{"x":305066.32010000013,"y":2769662.8023000006}},{"attributes":{"OBJECTID":9467,"LANDMARKID":"6300000002830","LANDMARKCO":"406","LANDMARKNA":"交通公園","LANDMARKAD":"6300003","ADDRESS":"台北市大安區","TEL":" ","COUNTYNAME":"台北市","TOWNNAME":"大安區","MARKTYPE":"994","Class":"4"},"geometry":{"x":305963.93950000033,"y":2769437.0896000005}},{"attributes":{"OBJECTID":9468,"LANDMARKID":"6300000002831","LANDMARKCO":"406","LANDMARKNA":"平安公園","LANDMARKAD":"6300003","ADDRESS":"台北市大安區","TEL":" ","COUNTYNAME":"台北市","TOWNNAME":"大安區","MARKTYPE":"994","Class":"4"},"geometry":{"x":305426.33609999996,"y":2769416.7122000009}},{"attributes":{"OBJECTID":9469,"LANDMARKID":"6300000002832","LANDMARKCO":"406","LANDMARKNA":"永康公園","LANDMARKAD":"6300003","ADDRESS":"台北市大安區","TEL":" ","COUNTYNAME":"台北市","TOWNNAME":"大安區","MARKTYPE":"994","Class":"4"},"geometry":{"x":303472.70519999973,"y":2769397.9297000002}},{"attributes":{"OBJECTID":9470,"LANDMARKID":"6300000002833","LANDMARKCO":"406","LANDMARKNA":"四維公園","LANDMARKAD":"6300003","ADDRESS":"台北市大安區","TEL":" ","COUNTYNAME":"台北市","TOWNNAME":"大安區","MARKTYPE":"994","Class":"4"},"geometry":{"x":305027.15710000042,"y":2769279.1520000007}},{"attributes":{"OBJECTID":9471,"LANDMARKID":"6300000002834","LANDMARKCO":"406","LANDMARKNA":"龍圖公園","LANDMARKAD":"6300003","ADDRESS":"台北市大安區","TEL":" ","COUNTYNAME":"台北市","TOWNNAME":"大安區","MARKTYPE":"994","Class":"4"},"geometry":{"x":304651.94809999969,"y":2769258.5770999994}},{"attributes":{"OBJECTID":9472,"LANDMARKID":"6300000002835","LANDMARKCO":"406","LANDMARKNA":"居安公園","LANDMARKAD":"6300003","ADDRESS":"台北市大安區","TEL":" ","COUNTYNAME":"台北市","TOWNNAME":"大安區","MARKTYPE":"994","Class":"4"},"geometry":{"x":305441.02589999977,"y":2769168.4312999994}},{"attributes":{"OBJECTID":9473,"LANDMARKID":"6300000002836","LANDMARKCO":"406","LANDMARKNA":"金華公園","LANDMARKAD":"6300003","ADDRESS":"台北市大安區","TEL":" ","COUNTYNAME":"台北市","TOWNNAME":"大安區","MARKTYPE":"994","Class":"4"},"geometry":{"x":303611.56689999998,"y":2769163.4132000003}},{"attributes":{"OBJECTID":9474,"LANDMARKID":"6300000002837","LANDMARKCO":"406","LANDMARKNA":"開平公園","LANDMARKAD":"6300003","ADDRESS":"台北市大安區","TEL":" ","COUNTYNAME":"台北市","TOWNNAME":"大安區","MARKTYPE":"994","Class":"4"},"geometry":{"x":304739.94010000024,"y":2769126.5781999994}},{"attributes":{"OBJECTID":9475,"LANDMARKID":"6300000002838","LANDMARKCO":"406","LANDMARKNA":"安東公園","LANDMARKAD":"6300003","ADDRESS":"台北市大安區","TEL":" ","COUNTYNAME":"台北市","TOWNNAME":"大安區","MARKTYPE":"994","Class":"4"},"geometry":{"x":304976.26570000034,"y":2769098.3871999998}},{"attributes":{"OBJECTID":9476,"LANDMARKID":"6300000002839","LANDMARKCO":"406","LANDMARKNA":"大安森林公園","LANDMARKAD":"6300003","ADDRESS":"台北市大安區","TEL":" ","COUNTYNAME":"台北市","TOWNNAME":"大安區","MARKTYPE":"994","Class":"4"},"geometry":{"x":304115.90840000007,"y":2769030.7828000002}},{"attributes":{"OBJECTID":9477,"LANDMARKID":"6300000002840","LANDMARKCO":"406","LANDMARKNA":"文昌公園","LANDMARKAD":"6300003","ADDRESS":"台北市大安區","TEL":" ","COUNTYNAME":"台北市","TOWNNAME":"大安區","MARKTYPE":"994","Class":"4"},"geometry":{"x":306074.33050000016,"y":2769013.8789000008}},{"attributes":{"OBJECTID":9478,"LANDMARKID":"6300000002841","LANDMARKCO":"406","LANDMARKNA":"錦安公園","LANDMARKAD":"6300003","ADDRESS":"台北市大安區","TEL":" ","COUNTYNAME":"台北市","TOWNNAME":"大安區","MARKTYPE":"994","Class":"4"},"geometry":{"x":303277.58669999987,"y":2768981.4033000004}},{"attributes":{"OBJECTID":9479,"LANDMARKID":"6300000002842","LANDMARKCO":"406","LANDMARKNA":"龍新公園","LANDMARKAD":"6300003","ADDRESS":"台北市大安區","TEL":" ","COUNTYNAME":"台北市","TOWNNAME":"大安區","MARKTYPE":"994","Class":"4"},"geometry":{"x":304480.95540000033,"y":2768969.9024}},{"attributes":{"OBJECTID":9480,"LANDMARKID":"6300000002843","LANDMARKCO":"406","LANDMARKNA":"龍陣公園","LANDMARKAD":"6300003","ADDRESS":"台北市大安區","TEL":" ","COUNTYNAME":"台北市","TOWNNAME":"大安區","MARKTYPE":"994","Class":"4"},"geometry":{"x":304756.04179999977,"y":2768940.8335999995}},{"attributes":{"OBJECTID":9481,"LANDMARKID":"6300000002844","LANDMARKCO":"406","LANDMARKNA":"通化公園","LANDMARKAD":"6300003","ADDRESS":"台北市大安區","TEL":" ","COUNTYNAME":"台北市","TOWNNAME":"大安區","MARKTYPE":"994","Class":"4"},"geometry":{"x":305806.33800000045,"y":2768868.2968000006}},{"attributes":{"OBJECTID":9482,"LANDMARKID":"6300000002845","LANDMARKCO":"406","LANDMARKNA":"鳳雞公園","LANDMARKAD":"6300003","ADDRESS":"台北市大安區","TEL":" ","COUNTYNAME":"台北市","TOWNNAME":"大安區","MARKTYPE":"994","Class":"4"},"geometry":{"x":305328.60659999959,"y":2768820.9800000004}},{"attributes":{"OBJECTID":9483,"LANDMARKID":"6300000002846","LANDMARKCO":"406","LANDMARKNA":"瑞安公園","LANDMARKAD":"6300003","ADDRESS":"台北市大安區","TEL":" ","COUNTYNAME":"台北市","TOWNNAME":"大安區","MARKTYPE":"994","Class":"4"},"geometry":{"x":304454.11400000006,"y":2768792.0024999995}},{"attributes":{"OBJECTID":9484,"LANDMARKID":"6300000002847","LANDMARKCO":"406","LANDMARKNA":"龍生公園","LANDMARKAD":"6300003","ADDRESS":"台北市大安區","TEL":" ","COUNTYNAME":"台北市","TOWNNAME":"大安區","MARKTYPE":"994","Class":"4"},"geometry":{"x":304637.79420000035,"y":2768751.5209999997}},{"attributes":{"OBJECTID":9485,"LANDMARKID":"6300000002848","LANDMARKCO":"406","LANDMARKNA":"全安公園","LANDMARKAD":"6300003","ADDRESS":"台北市大安區","TEL":" ","COUNTYNAME":"台北市","TOWNNAME":"大安區","MARKTYPE":"994","Class":"4"},"geometry":{"x":305628.69259999972,"y":2768704.6829000004}},{"attributes":{"OBJECTID":9486,"LANDMARKID":"6300000002849","LANDMARKCO":"406","LANDMARKNA":"群賢公園","LANDMARKAD":"6300003","ADDRESS":"台北市大安區","TEL":" ","COUNTYNAME":"台北市","TOWNNAME":"大安區","MARKTYPE":"994","Class":"4"},"geometry":{"x":305143.75590000022,"y":2768698.2003000006}},{"attributes":{"OBJECTID":9487,"LANDMARKID":"6300000002850","LANDMARKCO":"406","LANDMARKNA":"和平公園","LANDMARKAD":"6300003","ADDRESS":"台北市大安區","TEL":" ","COUNTYNAME":"台北市","TOWNNAME":"大安區","MARKTYPE":"994","Class":"4"},"geometry":{"x":304758.24940000009,"y":2768482.932}},{"attributes":{"OBJECTID":9488,"LANDMARKID":"6300000002851","LANDMARKCO":"406","LANDMARKNA":"辛亥一號公園","LANDMARKAD":"6300003","ADDRESS":"台北市大安區","TEL":" ","COUNTYNAME":"台北市","TOWNNAME":"大安區","MARKTYPE":"994","Class":"4"},"geometry":{"x":303774.6063000001,"y":2768415.5678000003}},{"attributes":{"OBJECTID":9489,"LANDMARKID":"6300000002852","LANDMARKCO":"406","LANDMARKNA":"虎嘯公園","LANDMARKAD":"6300003","ADDRESS":"台北市大安區","TEL":" ","COUNTYNAME":"台北市","TOWNNAME":"大安區","MARKTYPE":"994","Class":"4"},"geometry":{"x":305458.76070000045,"y":2768414.6664000005}},{"attributes":{"OBJECTID":9490,"LANDMARKID":"6300000002853","LANDMARKCO":"406","LANDMARKNA":"敦親公園","LANDMARKAD":"6300003","ADDRESS":"台北市大安區","TEL":" ","COUNTYNAME":"台北市","TOWNNAME":"大安區","MARKTYPE":"994","Class":"4"},"geometry":{"x":304592.36170000024,"y":2768408.2722999994}},{"attributes":{"OBJECTID":9491,"LANDMARKID":"6300000002854","LANDMARKCO":"406","LANDMARKNA":"古莊公園","LANDMARKAD":"6300003","ADDRESS":"台北市大安區","TEL":" ","COUNTYNAME":"台北市","TOWNNAME":"大安區","MARKTYPE":"994","Class":"4"},"geometry":{"x":303205.20779999997,"y":2768369.3134000003}},{"attributes":{"OBJECTID":9492,"LANDMARKID":"6300000002855","LANDMARKCO":"406","LANDMARKNA":"嘉興公園","LANDMARKAD":"6300003","ADDRESS":"台北市大安區","TEL":" ","COUNTYNAME":"台北市","TOWNNAME":"大安區","MARKTYPE":"994","Class":"4"},"geometry":{"x":305707.42119999975,"y":2768268.4148999993}},{"attributes":{"OBJECTID":9493,"LANDMARKID":"6300000002856","LANDMARKCO":"406","LANDMARKNA":"黎孝公園","LANDMARKAD":"6300003","ADDRESS":"台北市大安區","TEL":" ","COUNTYNAME":"台北市","TOWNNAME":"大安區","MARKTYPE":"994","Class":"4"},"geometry":{"x":306106.34370000008,"y":2768089.9791999999}},{"attributes":{"OBJECTID":9494,"LANDMARKID":"6300000002857","LANDMARKCO":"406","LANDMARKNA":"溫州公園","LANDMARKAD":"6300003","ADDRESS":"台北市大安區","TEL":" ","COUNTYNAME":"台北市","TOWNNAME":"大安區","MARKTYPE":"994","Class":"4"},"geometry":{"x":303635.06940000039,"y":2767966.1124000009}},{"attributes":{"OBJECTID":9495,"LANDMARKID":"6300000002858","LANDMARKCO":"406","LANDMARKNA":"福州山公園","LANDMARKAD":"6300003","ADDRESS":"台北市大安區","TEL":" ","COUNTYNAME":"台北市","TOWNNAME":"大安區","MARKTYPE":"994","Class":"4"},"geometry":{"x":306009.65029999986,"y":2767610.2303999998}},{"attributes":{"OBJECTID":9496,"LANDMARKID":"6300000002859","LANDMARKCO":"406","LANDMARKNA":"臥龍公園","LANDMARKAD":"6300003","ADDRESS":"台北市大安區","TEL":" ","COUNTYNAME":"台北市","TOWNNAME":"大安區","MARKTYPE":"994","Class":"4"},"geometry":{"x":305703.66100000031,"y":2767608.5875000004}},{"attributes":{"OBJECTID":9497,"LANDMARKID":"6300000002860","LANDMARKCO":"407","LANDMARKNA":"ATT百貨","LANDMARKAD":"6300003","ADDRESS":"台北市信義區忠孝東路四段218號","TEL":" ","COUNTYNAME":"台北市","TOWNNAME":"大安區","MARKTYPE":"994","Class":"4"},"geometry":{"x":305828.38399999961,"y":2770458.5859999992}},{"attributes":{"OBJECTID":9498,"LANDMARKID":"6300000002861","LANDMARKCO":"407","LANDMARKNA":"att","LANDMARKAD":"6300003","ADDRESS":"臺北市忠孝東路四段148號","TEL":" ","COUNTYNAME":"台北市","TOWNNAME":"大安區","MARKTYPE":"994","Class":"4"},"geometry":{"x":305491.58490000013,"y":2770463.6570999995}},{"attributes":{"OBJECTID":9499,"LANDMARKID":"6300000002862","LANDMARKCO":"407","LANDMARKNA":"att","LANDMARKAD":"6300003","ADDRESS":"臺北市忠孝東路四段201號","TEL":" ","COUNTYNAME":"台北市","TOWNNAME":"大安區","MARKTYPE":"994","Class":"4"},"geometry":{"x":305678.28679999989,"y":2770506.7783000004}},{"attributes":{"OBJECTID":9500,"LANDMARKID":"6300000002863","LANDMARKCO":"407","LANDMARKNA":"太平洋SOGO百貨-台北忠孝館","LANDMARKAD":"6300003","ADDRESS":"台北市大安區忠孝東路4段45號","TEL":"02-27765555","COUNTYNAME":"台北市","TOWNNAME":"大安區","MARKTYPE":"994","Class":"4"},"geometry":{"x":304982.65020000003,"y":2770508.7470999993}},{"attributes":{"OBJECTID":9501,"LANDMARKID":"6300000002864","LANDMARKCO":"407","LANDMARKNA":"太平洋SOGO百貨-台北復興館","LANDMARKAD":"6300003","ADDRESS":"台北市大安區忠孝東路3段300號","TEL":"02-27765555","COUNTYNAME":"台北市","TOWNNAME":"大安區","MARKTYPE":"994","Class":"4"},"geometry":{"x":304805.18589999992,"y":2770488.7269000001}},{"attributes":{"OBJECTID":9502,"LANDMARKID":"6300000002865","LANDMARKCO":"407","LANDMARKNA":"太平洋SOGO百貨-敦化館","LANDMARKAD":"6300003","ADDRESS":"台北市大安區敦化南路1段246號","TEL":"02-27771371","COUNTYNAME":"台北市","TOWNNAME":"大安區","MARKTYPE":"994","Class":"4"},"geometry":{"x":305357.04879999999,"y":2770336.1415999997}},{"attributes":{"OBJECTID":9503,"LANDMARKID":"6300000002866","LANDMARKCO":"407","LANDMARKNA":"微風廣場","LANDMARKAD":"6300003","ADDRESS":"台北市大安區忠孝東路四段219號","TEL":"66396999","COUNTYNAME":"台北市","TOWNNAME":"大安區","MARKTYPE":"994","Class":"4"},"geometry":{"x":305754.06659999955,"y":2770504.9743000008}},{"attributes":{"OBJECTID":9504,"LANDMARKID":"6300000002867","LANDMARKCO":"407","LANDMARKNA":"統領百貨台北店","LANDMARKAD":"6300003","ADDRESS":"台北市大安區忠孝東路四段201號","TEL":" ","COUNTYNAME":"台北市","TOWNNAME":"大安區","MARKTYPE":"994","Class":"4"},"geometry":{"x":305678.28679999989,"y":2770506.7783000004}},{"attributes":{"OBJECTID":9505,"LANDMARKID":"6300000002868","LANDMARKCO":"407","LANDMARKNA":"明曜百貨","LANDMARKAD":"6300003","ADDRESS":"台北市大安區忠孝東路四段200號","TEL":"02-27771266","COUNTYNAME":"台北市","TOWNNAME":"大安區","MARKTYPE":"994","Class":"4"},"geometry":{"x":305713.75069999974,"y":2770458.3889000006}},{"attributes":{"OBJECTID":9506,"LANDMARKID":"6300000002869","LANDMARKCO":"407","LANDMARKNA":"遠企購物中心","LANDMARKAD":"6300003","ADDRESS":"台北市大安區敦化南路二段203號","TEL":"02-23786666","COUNTYNAME":"台北市","TOWNNAME":"大安區","MARKTYPE":"994","Class":"4"},"geometry":{"x":305474.17850000039,"y":2768802.2535999995}},{"attributes":{"OBJECTID":9507,"LANDMARKID":"6300000002870","LANDMARKCO":"407","LANDMARKNA":"微風廣場","LANDMARKAD":"6300003","ADDRESS":"台北市忠孝東路四段219號","TEL":"02-66396999","COUNTYNAME":"台北市","TOWNNAME":"大安區","MARKTYPE":"994","Class":"4"},"geometry":{"x":305754.06659999955,"y":2770504.9743000008}},{"attributes":{"OBJECTID":9508,"LANDMARKID":"6300000002871","LANDMARKCO":"407","LANDMARKNA":"誠品Eslite","LANDMARKAD":"6300003","ADDRESS":"台北市敦化南路一段245號B2\/B1\/GF\/1F\/2F","TEL":"02-2775-5977","COUNTYNAME":"台北市","TOWNNAME":"大安區","MARKTYPE":"994","Class":"4"},"geometry":{"x":305427.16930000018,"y":2770222.9188000001}},{"attributes":{"OBJECTID":9509,"LANDMARKID":"6300000002872","LANDMARKCO":"407","LANDMARKNA":"誠品Eslite","LANDMARKAD":"6300003","ADDRESS":"台北市新生南路三段98號2F\/1F\/B1\/B2","TEL":"02-2362-6132","COUNTYNAME":"台北市","TOWNNAME":"大安區","MARKTYPE":"994","Class":"4"},"geometry":{"x":303800.70239999983,"y":2767764.0150000006}},{"attributes":{"OBJECTID":9510,"LANDMARKID":"6300000002873","LANDMARKCO":"407","LANDMARKNA":"誠品Eslite","LANDMARKAD":"6300003","ADDRESS":"台北市忠孝東路四段45號12F","TEL":"02-2740-1399","COUNTYNAME":"台北市","TOWNNAME":"大安區","MARKTYPE":"994","Class":"4"},"geometry":{"x":304982.88669999968,"y":2770529.3289999999}},{"attributes":{"OBJECTID":9511,"LANDMARKID":"6300000002874","LANDMARKCO":"407","LANDMARKNA":"LV專賣店","LANDMARKAD":"6300003","ADDRESS":"台北市大安區敦化南路1段364號","TEL":"02-27051868","COUNTYNAME":"台北市","TOWNNAME":"大安區","MARKTYPE":"994","Class":"4"},"geometry":{"x":305346.20289999992,"y":2769646.7572000008}},{"attributes":{"OBJECTID":9512,"LANDMARKID":"6300000002875","LANDMARKCO":"407","LANDMARKNA":"Gucci專賣店","LANDMARKAD":"6300003","ADDRESS":"台北市大安區敦化南路1段246號1樓","TEL":"02-27112043","COUNTYNAME":"台北市","TOWNNAME":"大安區","MARKTYPE":"994","Class":"4"},"geometry":{"x":305343.28359999973,"y":2770336.0088999998}},{"attributes":{"OBJECTID":9513,"LANDMARKID":"6300000002876","LANDMARKCO":"407","LANDMARKNA":"Coach專賣店","LANDMARKAD":"6300003","ADDRESS":"台北市大安區敦化南路1段246號2樓","TEL":"02-27771317","COUNTYNAME":"台北市","TOWNNAME":"大安區","MARKTYPE":"994","Class":"4"},"geometry":{"x":305343.28359999973,"y":2770336.0088999998}},{"attributes":{"OBJECTID":9514,"LANDMARKID":"6300000000104","LANDMARKCO":"101","LANDMARKNA":"行政院原子能委員會資料室","LANDMARKAD":"6300003","ADDRESS":"台北市大安區基隆路四段144巷67號","TEL":"02-23634180","COUNTYNAME":"台北市","TOWNNAME":"大安區","MARKTYPE":"991","Class":"1"},"geometry":{"x":304308.62050000019,"y":2767579.2193999998}},{"attributes":{"OBJECTID":9515,"LANDMARKID":"6300000000213","LANDMARKCO":"107","LANDMARKNA":"台北市政府警察局敦化南路派出","LANDMARKAD":"6300003","ADDRESS":"台北市大安區仁長里敦化南路一段236巷26號","TEL":"02-27710400","COUNTYNAME":"台北市","TOWNNAME":"大安區","MARKTYPE":"991","Class":"1"},"geometry":{"x":305199.66069999989,"y":2770358.9596999995}},{"attributes":{"OBJECTID":9516,"LANDMARKID":"6300000000101","LANDMARKCO":"101","LANDMARKNA":"財政部國有財產局","LANDMARKAD":"6300003","ADDRESS":"台北市大安區光復南路116巷18號","TEL":"02-27718121","COUNTYNAME":"台北市","TOWNNAME":"大安區","MARKTYPE":"991","Class":"1"},"geometry":{"x":306226.54179999977,"y":2770639.3217999991}},{"attributes":{"OBJECTID":9517,"LANDMARKID":"6300000000102","LANDMARKCO":"101","LANDMARKNA":"台灣台北高等行政法院","LANDMARKAD":"6300003","ADDRESS":"台北市大安區和平東路三段1巷1號","TEL":"02-27027366","COUNTYNAME":"台北市","TOWNNAME":"大安區","MARKTYPE":"991","Class":"1"},"geometry":{"x":305182.14740000013,"y":2768701.3059999999}},{"attributes":{"OBJECTID":9518,"LANDMARKID":"6300000000103","LANDMARKCO":"101","LANDMARKNA":"調查局台北市調查處","LANDMARKAD":"6300003","ADDRESS":"台北市大安區基隆路二段176號","TEL":"02-27368721","COUNTYNAME":"台北市","TOWNNAME":"大安區","MARKTYPE":"991","Class":"1"},"geometry":{"x":305898.96920000017,"y":2768767.5499000009}},{"attributes":{"OBJECTID":9519,"LANDMARKID":"6300000000180","LANDMARKCO":"104","LANDMARKNA":"台北市國稅局大安稽徵所","LANDMARKAD":"6300003","ADDRESS":"台北市大安區新生南路二段86號6樓","TEL":"02-23587979","COUNTYNAME":"台北市","TOWNNAME":"大安區","MARKTYPE":"991","Class":"1"},"geometry":{"x":303942.75289999973,"y":2768827.5416999999}},{"attributes":{"OBJECTID":9520,"LANDMARKID":"6300000000093","LANDMARKCO":"101","LANDMARKNA":"經濟部智慧財產局","LANDMARKAD":"6300003","ADDRESS":"台北市大安區辛亥路二段185號3樓","TEL":"02-27380007","COUNTYNAME":"台北市","TOWNNAME":"大安區","MARKTYPE":"991","Class":"1"},"geometry":{"x":304651.84910000023,"y":2768290.9541999996}},{"attributes":{"OBJECTID":9521,"LANDMARKID":"6300000000094","LANDMARKCO":"101","LANDMARKNA":"國家科學委員會","LANDMARKAD":"6300003","ADDRESS":"台北市大安區和平東路二段106號","TEL":"02-27377992","COUNTYNAME":"台北市","TOWNNAME":"大安區","MARKTYPE":"991","Class":"1"},"geometry":{"x":304697.86139999982,"y":2768641.6334000006}},{"attributes":{"OBJECTID":9522,"LANDMARKID":"6300000000095","LANDMARKCO":"101","LANDMARKNA":"交通部觀光局","LANDMARKAD":"6300003","ADDRESS":"台北市大安區忠孝東路四段290號9樓","TEL":"02-23491500","COUNTYNAME":"台北市","TOWNNAME":"大安區","MARKTYPE":"991","Class":"1"},"geometry":{"x":306092.69049999956,"y":2770451.8773999996}},{"attributes":{"OBJECTID":9523,"LANDMARKID":"6300000000096","LANDMARKCO":"101","LANDMARKNA":"衛生署中央健康保險局","LANDMARKAD":"6300003","ADDRESS":"台北市大安區信義路三段140號","TEL":"02-27065866","COUNTYNAME":"台北市","TOWNNAME":"大安區","MARKTYPE":"991","Class":"1"},"geometry":{"x":304512.94639999978,"y":2769562.2390000001}},{"attributes":{"OBJECTID":9524,"LANDMARKID":"6300000000097","LANDMARKCO":"101","LANDMARKNA":"經濟部工業局","LANDMARKAD":"6300003","ADDRESS":"台北市大安區信義路三段41之3號","TEL":"02-27541255","COUNTYNAME":"台北市","TOWNNAME":"大安區","MARKTYPE":"991","Class":"1"},"geometry":{"x":304026.59630000032,"y":2769623.6959000006}},{"attributes":{"OBJECTID":9525,"LANDMARKID":"6300000000098","LANDMARKCO":"101","LANDMARKNA":"經濟部水利署台北辦公室","LANDMARKAD":"6300003","ADDRESS":"台北市大安區信義路三段41之3號9-12樓","TEL":"02-37073000","COUNTYNAME":"台北市","TOWNNAME":"大安區","MARKTYPE":"991","Class":"1"},"geometry":{"x":304026.59630000032,"y":2769623.6959000006}},{"attributes":{"OBJECTID":9526,"LANDMARKID":"6300000000099","LANDMARKCO":"101","LANDMARKNA":"行政院金融監督管理委員會證券","LANDMARKAD":"6300003","ADDRESS":"台北市大安區新生南路一段85號","TEL":"02-87735100","COUNTYNAME":"台北市","TOWNNAME":"大安區","MARKTYPE":"991","Class":"1"},"geometry":{"x":303792.51769999973,"y":2770510.0036999993}},{"attributes":{"OBJECTID":9527,"LANDMARKID":"6300000000100","LANDMARKCO":"101","LANDMARKNA":"交通部郵政總局","LANDMARKAD":"6300003","ADDRESS":"台北市大安區金山南路2段55號","TEL":"02-23214311","COUNTYNAME":"台北市","TOWNNAME":"大安區","MARKTYPE":"991","Class":"1"},"geometry":{"x":303201.47790000029,"y":2769459.6515999995}},{"attributes":{"OBJECTID":9528,"LANDMARKID":"6300000000181","LANDMARKCO":"105","LANDMARKNA":"台北市大安地政事務所","LANDMARKAD":"6300003","ADDRESS":"台北市大安區信義路4段335巷6號","TEL":"02-27548900","COUNTYNAME":"台北市","TOWNNAME":"大安區","MARKTYPE":"991","Class":"1"},"geometry":{"x":306153.0887000002,"y":2769636.6395999994}},{"attributes":{"OBJECTID":9529,"LANDMARKID":"6300000000202","LANDMARKCO":"106","LANDMARKNA":"台北市大安區戶政事務所","LANDMARKAD":"6300003","ADDRESS":"台北市大安區龍安里1鄰新生南路二段86號","TEL":"02-23587877","COUNTYNAME":"台北市","TOWNNAME":"大安區","MARKTYPE":"991","Class":"1"},"geometry":{"x":303942.75289999973,"y":2768827.5416999999}},{"attributes":{"OBJECTID":9530,"LANDMARKID":"6300000000203","LANDMARKCO":"107","LANDMARKNA":"台北市政府警察局大安分局","LANDMARKAD":"6300003","ADDRESS":"台北市大安區民炤里仁愛路三段2號","TEL":"02-23259850","COUNTYNAME":"台北市","TOWNNAME":"大安區","MARKTYPE":"991","Class":"1"},"geometry":{"x":303802.54040000029,"y":2770074.9737999998}},{"attributes":{"OBJECTID":9531,"LANDMARKID":"6300000000204","LANDMARKCO":"107","LANDMARKNA":"台北市政府警察局羅斯福路派出","LANDMARKAD":"6300003","ADDRESS":"台北市羅斯福路4段113巷13號","TEL":"02-27355761","COUNTYNAME":"台北市","TOWNNAME":"大安區","MARKTYPE":"991","Class":"1"},"geometry":{"x":304385.68859999999,"y":2767123.4179999996}},{"attributes":{"OBJECTID":9532,"LANDMARKID":"6300000000205","LANDMARKCO":"107","LANDMARKNA":"台北市政府警察局臥龍街派出所","LANDMARKAD":"6300003","ADDRESS":"台北市臥龍街185號","TEL":"02-27334439","COUNTYNAME":"台北市","TOWNNAME":"大安區","MARKTYPE":"991","Class":"1"},"geometry":{"x":305705.17100000009,"y":2767877.9652999993}},{"attributes":{"OBJECTID":9533,"LANDMARKID":"6300000000206","LANDMARKCO":"107","LANDMARKNA":"台北市政府警察局瑞安街派出所","LANDMARKAD":"6300003","ADDRESS":"台北市大安區住安里瑞安街23巷17號","TEL":"02-27054164","COUNTYNAME":"台北市","TOWNNAME":"大安區","MARKTYPE":"991","Class":"1"},"geometry":{"x":304999.04129999969,"y":2769337.0339000002}},{"attributes":{"OBJECTID":9534,"LANDMARKID":"6300000000207","LANDMARKCO":"107","LANDMARKNA":"台北市政府警察局和平東路派出","LANDMARKAD":"6300003","ADDRESS":"台北市大安區龍安里和平東路一段143號","TEL":"02-23218073","COUNTYNAME":"台北市","TOWNNAME":"大安區","MARKTYPE":"991","Class":"1"},"geometry":{"x":303540.11440000031,"y":2768831.1784000006}},{"attributes":{"OBJECTID":9535,"LANDMARKID":"6300000000208","LANDMARKCO":"107","LANDMARKNA":"台北市政府警察局新生南路派出","LANDMARKAD":"6300003","ADDRESS":"台北市大安區仁愛路三段2號","TEL":"02-23258611","COUNTYNAME":"台北市","TOWNNAME":"大安區","MARKTYPE":"991","Class":"1"},"geometry":{"x":303802.54040000029,"y":2770074.9737999998}},{"attributes":{"OBJECTID":9536,"LANDMARKID":"6300000000209","LANDMARKCO":"107","LANDMARKNA":"台北市政府警察局安和路派出所","LANDMARKAD":"6300003","ADDRESS":"台北市大安區義安里信義路四段216號","TEL":"02-27025232","COUNTYNAME":"台北市","TOWNNAME":"大安區","MARKTYPE":"991","Class":"1"},"geometry":{"x":305716.90510000009,"y":2769542.6415999997}},{"attributes":{"OBJECTID":9537,"LANDMARKID":"6300000000210","LANDMARKCO":"107","LANDMARKNA":"台北市消防局金華消防分隊","LANDMARKAD":"6300003","ADDRESS":"台北市大安區愛國東路79巷13號","TEL":"02-23917653","COUNTYNAME":"台北市","TOWNNAME":"大安區","MARKTYPE":"991","Class":"1"},"geometry":{"x":303262.87009999994,"y":2769497.0022}},{"attributes":{"OBJECTID":9538,"LANDMARKID":"6300000000211","LANDMARKCO":"107","LANDMARKNA":"台北市消防局安和消防分隊","LANDMARKAD":"6300003","ADDRESS":"台北市大安區安和路二段2號","TEL":"02-27094191","COUNTYNAME":"台北市","TOWNNAME":"大安區","MARKTYPE":"991","Class":"1"},"geometry":{"x":305730.9550999999,"y":2769531.8343000002}},{"attributes":{"OBJECTID":9539,"LANDMARKID":"6300000000212","LANDMARKCO":"107","LANDMARKNA":"台北市消防局大安消防中隊","LANDMARKAD":"6300003","ADDRESS":"台北市大安區復興南路二段92號5樓","TEL":"02-27084739","COUNTYNAME":"台北市","TOWNNAME":"大安區","MARKTYPE":"991","Class":"1"},"geometry":{"x":304826.42709999997,"y":2769225.8583000004}},{"attributes":{"OBJECTID":9540,"LANDMARKID":"6300000000118","LANDMARKCO":"103","LANDMARKNA":"台北市大安區健康服務中心","LANDMARKAD":"6300003","ADDRESS":"台北市大安區辛亥路三段15號","TEL":"02-27335831","COUNTYNAME":"台北市","TOWNNAME":"大安區","MARKTYPE":"991","Class":"1"},"geometry":{"x":304933.7603000002,"y":2768276.4425000008}},{"attributes":{"OBJECTID":9541,"LANDMARKID":"6300000000376","LANDMARKCO":"108","LANDMARKNA":"台北市大安區公所","LANDMARKAD":"6300003","ADDRESS":"台北市大安區新生南路二段86號8-9樓","TEL":"02-23511711","COUNTYNAME":"台北市","TOWNNAME":"大安區","MARKTYPE":"991","Class":"1"},"geometry":{"x":303942.75289999973,"y":2768827.5416999999}},{"attributes":{"OBJECTID":9542,"LANDMARKID":"6300000000106","LANDMARKCO":"101","LANDMARKNA":"國家地震工程研究中心","LANDMARKAD":"6300003","ADDRESS":"台北市大安區辛亥路三段200號","TEL":"02-66300888","COUNTYNAME":"台北市","TOWNNAME":"大安區","MARKTYPE":"991","Class":"1"},"geometry":{"x":305266.71279999986,"y":2767865.1092000008}},{"attributes":{"OBJECTID":9543,"LANDMARKID":"6300000000107","LANDMARKCO":"101","LANDMARKNA":"人事行政局公務人力發展中心","LANDMARKAD":"6300003","ADDRESS":"台北市大安區新生南路三段30號","TEL":"02-83691399","COUNTYNAME":"台北市","TOWNNAME":"大安區","MARKTYPE":"991","Class":"1"},"geometry":{"x":303922.97549999971,"y":2768449.6245000008}},{"attributes":{"OBJECTID":9544,"LANDMARKID":"6300000000108","LANDMARKCO":"101","LANDMARKNA":"林務局羅東林區管理處台北工作站","LANDMARKAD":"6300003","ADDRESS":"台北市潮州街61號之3","TEL":"02-23958886","COUNTYNAME":"台北市","TOWNNAME":"大安區","MARKTYPE":"991","Class":"1"},"geometry":{"x":302923.35190000013,"y":2769119.4023000002}},{"attributes":{"OBJECTID":9545,"LANDMARKID":"6300000000117","LANDMARKCO":"103","LANDMARKNA":"台北市第二殯儀館","LANDMARKAD":"6300003","ADDRESS":"台北市大安區辛亥路三段330號","TEL":"02-87329751","COUNTYNAME":"台北市","TOWNNAME":"大安區","MARKTYPE":"991","Class":"1"},"geometry":{"x":305816.47640000004,"y":2767414.9125999995}},{"attributes":{"OBJECTID":9546,"LANDMARKID":"6300000000105","LANDMARKCO":"101","LANDMARKNA":"國有財產局台灣北區辦事處","LANDMARKAD":"6300003","ADDRESS":"台北市忠孝東路四段290號3樓","TEL":"02-27814750","COUNTYNAME":"台北市","TOWNNAME":"大安區","MARKTYPE":"991","Class":"1"},"geometry":{"x":306092.69049999956,"y":2770451.8773999996}},{"attributes":{"OBJECTID":9547,"LANDMARKID":"6300000000773","LANDMARKCO":"205","LANDMARKNA":"國立台灣大學人類學系標本陳列室","LANDMARKAD":"6300003","ADDRESS":"台北市大安區羅斯福路四段1號","TEL":"02-23630231","COUNTYNAME":"台北市","TOWNNAME":"大安區","MARKTYPE":"992","Class":"2"},"geometry":{"x":303889.98120000027,"y":2767857.6301000006}},{"attributes":{"OBJECTID":9548,"LANDMARKID":"6300000000774","LANDMARKCO":"205","LANDMARKNA":"國立台灣大學農業陳列館","LANDMARKAD":"6300003","ADDRESS":"台北市大安區羅斯福路四段1號","TEL":"02-23627788","COUNTYNAME":"台北市","TOWNNAME":"大安區","MARKTYPE":"992","Class":"2"},"geometry":{"x":303923.12530000042,"y":2767891.5098999999}},{"attributes":{"OBJECTID":9549,"LANDMARKID":"6300000000775","LANDMARKCO":"205","LANDMARKNA":"資訊科學展示中心","LANDMARKAD":"6300003","ADDRESS":"台北市和平東路二段108號","TEL":" ","COUNTYNAME":"台北市","TOWNNAME":"大安區","MARKTYPE":"992","Class":"2"},"geometry":{"x":304753.28199999966,"y":2768626.2271999996}},{"attributes":{"OBJECTID":9550,"LANDMARKID":"6300000000776","LANDMARKCO":"205","LANDMARKNA":"國立台灣大學人類學系標本陳列館","LANDMARKAD":"6300003","ADDRESS":"台北市羅斯福路四段1號","TEL":" ","COUNTYNAME":"台北市","TOWNNAME":"大安區","MARKTYPE":"992","Class":"2"},"geometry":{"x":304055.04829999991,"y":2767669.4493000004}},{"attributes":{"OBJECTID":9551,"LANDMARKID":"6300000000777","LANDMARKCO":"205","LANDMARKNA":"台北市客家文化會館","LANDMARKAD":"6300003","ADDRESS":"台北市大安區信義路三段157巷11號","TEL":" ","COUNTYNAME":"台北市","TOWNNAME":"大安區","MARKTYPE":"992","Class":"2"},"geometry":{"x":304807.20179999992,"y":2769710.2662000004}},{"attributes":{"OBJECTID":9552,"LANDMARKID":"6300000000778","LANDMARKCO":"205","LANDMARKNA":"國立中央圖書館台灣分館民俗器物","LANDMARKAD":"6300003","ADDRESS":"台北市新生南路一段1號","TEL":" ","COUNTYNAME":"台北市","TOWNNAME":"大安區","MARKTYPE":"992","Class":"2"},"geometry":{"x":303809.93410000019,"y":2770767.7881000005}},{"attributes":{"OBJECTID":9553,"LANDMARKID":"6300000000779","LANDMARKCO":"205","LANDMARKNA":"國立教育資料館","LANDMARKAD":"6300003","ADDRESS":"台北市中正區和平東路一段181號","TEL":" ","COUNTYNAME":"台北市","TOWNNAME":"大安區","MARKTYPE":"992","Class":"2"},"geometry":{"x":303786.43969999999,"y":2768816.8241000008}},{"attributes":{"OBJECTID":9554,"LANDMARKID":"6300000000766","LANDMARKCO":"204","LANDMARKNA":"國立中央圖書館台北分館","LANDMARKAD":"6300003","ADDRESS":"台北市大安區新生南路一段1號","TEL":" ","COUNTYNAME":"台北市","TOWNNAME":"大安區","MARKTYPE":"992","Class":"2"},"geometry":{"x":303803.22979999986,"y":2770778.3726000004}},{"attributes":{"OBJECTID":9555,"LANDMARKID":"6300000000767","LANDMARKCO":"204","LANDMARKNA":"台北市立圖書館","LANDMARKAD":"6300003","ADDRESS":"台北市大安區建國南路二段125號","TEL":" ","COUNTYNAME":"台北市","TOWNNAME":"大安區","MARKTYPE":"992","Class":"2"},"geometry":{"x":304319.32139999978,"y":2769111.9267999995}},{"attributes":{"OBJECTID":9556,"LANDMARKID":"6300000000768","LANDMARKCO":"204","LANDMARKNA":"台北市立圖書館道藩分館","LANDMARKAD":"6300003","ADDRESS":"台北市大安區辛亥路三段11號3樓","TEL":" ","COUNTYNAME":"台北市","TOWNNAME":"大安區","MARKTYPE":"992","Class":"2"},"geometry":{"x":304962.15060000028,"y":2768277.8883999996}},{"attributes":{"OBJECTID":9557,"LANDMARKID":"6300000000769","LANDMARKCO":"204","LANDMARKNA":"台北市立圖書館大安分館","LANDMARKAD":"6300003","ADDRESS":"台北市大安區辛亥路三段223號4~5樓","TEL":" ","COUNTYNAME":"台北市","TOWNNAME":"大安區","MARKTYPE":"992","Class":"2"},"geometry":{"x":305606.48419999983,"y":2767669.7445999999}},{"attributes":{"OBJECTID":9558,"LANDMARKID":"6300000000770","LANDMARKCO":"204","LANDMARKNA":"台北市立圖書館延吉民眾閱覽室","LANDMARKAD":"6300003","ADDRESS":"台北市大安區延吉街236巷17號3~4樓","TEL":" ","COUNTYNAME":"台北市","TOWNNAME":"大安區","MARKTYPE":"992","Class":"2"},"geometry":{"x":305994.43809999991,"y":2769922.7423999999}},{"attributes":{"OBJECTID":9559,"LANDMARKID":"6300000000771","LANDMARKCO":"204","LANDMARKNA":"台北市立圖書館成功民眾閱覽室","LANDMARKAD":"6300003","ADDRESS":"台北市大安區和平東路二段311巷29號4樓","TEL":" ","COUNTYNAME":"台北市","TOWNNAME":"大安區","MARKTYPE":"992","Class":"2"},"geometry":{"x":305031.26750000007,"y":2768713.3083999995}},{"attributes":{"OBJECTID":9560,"LANDMARKID":"6300000000772","LANDMARKCO":"204","LANDMARKNA":"台北市立圖書館龍安民眾閱覽室","LANDMARKAD":"6300003","ADDRESS":"台北市大安區永康街60號3樓","TEL":" ","COUNTYNAME":"台北市","TOWNNAME":"大安區","MARKTYPE":"992","Class":"2"},"geometry":{"x":303425.99770000018,"y":2769037.7305999994}},{"attributes":{"OBJECTID":9561,"LANDMARKID":"6300000000832","LANDMARKCO":"207","LANDMARKNA":"李石樵美術館","LANDMARKAD":"6300003","ADDRESS":"台北市忠孝東路四段218之7號3樓","TEL":" ","COUNTYNAME":"台北市","TOWNNAME":"大安區","MARKTYPE":"992","Class":"2"},"geometry":{"x":305795.08270000014,"y":2770467.6393999998}},{"attributes":{"OBJECTID":9562,"LANDMARKID":"6300000000824","LANDMARKCO":"206","LANDMARKNA":"蒙藏文化中心","LANDMARKAD":"6300003","ADDRESS":"台北市青田街8巷3號","TEL":" ","COUNTYNAME":"台北市","TOWNNAME":"大安區","MARKTYPE":"992","Class":"2"},"geometry":{"x":303666.37849999964,"y":2768945.4639999997}},{"attributes":{"OBJECTID":9563,"LANDMARKID":"6300000000833","LANDMARKCO":"207","LANDMARKNA":"何創時書法藝術館","LANDMARKAD":"6300003","ADDRESS":"台北市金山南路二段222號B1樓","TEL":" ","COUNTYNAME":"台北市","TOWNNAME":"大安區","MARKTYPE":"992","Class":"2"},"geometry":{"x":303081.83430000022,"y":2768929.9146999996}},{"attributes":{"OBJECTID":9564,"LANDMARKID":"6300000000499","LANDMARKCO":"202","LANDMARKNA":"市立和平高中","LANDMARKAD":"6300003","ADDRESS":"台北市大安區芳和里臥龍街100號","TEL":"02-27324300","COUNTYNAME":"台北市","TOWNNAME":"大安區","MARKTYPE":"992","Class":"2"},"geometry":{"x":305321.02759999968,"y":2768049.6345000006}},{"attributes":{"OBJECTID":9565,"LANDMARKID":"6300000000500","LANDMARKCO":"202","LANDMARKNA":"私立開平餐飲學校","LANDMARKAD":"6300003","ADDRESS":"台北市大安區復興南路二段248巷24號","TEL":"02-27556939","COUNTYNAME":"台北市","TOWNNAME":"大安區","MARKTYPE":"992","Class":"2"},"geometry":{"x":304737.34489999991,"y":2769049.7153999992}},{"attributes":{"OBJECTID":9566,"LANDMARKID":"6300000000501","LANDMARKCO":"203","LANDMARKNA":"市立大安國中","LANDMARKAD":"6300003","ADDRESS":"台北市大安區龍雲里四維路156號","TEL":"02-27014620","COUNTYNAME":"台北市","TOWNNAME":"大安區","MARKTYPE":"992","Class":"2"},"geometry":{"x":305202.14809999987,"y":2769248.9700000007}},{"attributes":{"OBJECTID":9567,"LANDMARKID":"6300000000502","LANDMARKCO":"203","LANDMARKNA":"私立復興國中","LANDMARKAD":"6300003","ADDRESS":"台北市大安區敦化南路一段262號","TEL":"02-27119365","COUNTYNAME":"台北市","TOWNNAME":"大安區","MARKTYPE":"992","Class":"2"},"geometry":{"x":305338.17389999982,"y":2770239.5296}},{"attributes":{"OBJECTID":9568,"LANDMARKID":"6300000000503","LANDMARKCO":"203","LANDMARKNA":"市立幸安國小","LANDMARKAD":"6300003","ADDRESS":"台北市大安區民炤里仁愛路三段22號","TEL":"02-27074191","COUNTYNAME":"台北市","TOWNNAME":"大安區","MARKTYPE":"992","Class":"2"},"geometry":{"x":303973.37959999964,"y":2769979.4013999999}},{"attributes":{"OBJECTID":9569,"LANDMARKID":"6300000000504","LANDMARKCO":"203","LANDMARKNA":"私立復興小學","LANDMARKAD":"6300003","ADDRESS":"台北市大安區敦化南路一段262號","TEL":"02-27715859","COUNTYNAME":"台北市","TOWNNAME":"大安區","MARKTYPE":"992","Class":"2"},"geometry":{"x":305337.21449999977,"y":2770249.5335000008}},{"attributes":{"OBJECTID":9570,"LANDMARKID":"6300000000377","LANDMARKCO":"201","LANDMARKNA":"國立台灣師範大學","LANDMARKAD":"6300003","ADDRESS":"台北市大安區和平東路一段162號","TEL":"02-23625101","COUNTYNAME":"台北市","TOWNNAME":"大安區","MARKTYPE":"992","Class":"2"},"geometry":{"x":303139.31140000001,"y":2768729.4028999992}},{"attributes":{"OBJECTID":9571,"LANDMARKID":"6300000000493","LANDMARKCO":"202","LANDMARKNA":"私立金甌女中","LANDMARKAD":"6300003","ADDRESS":"台北市大安區光明里杭州南路二段1號","TEL":"02-23214765","COUNTYNAME":"台北市","TOWNNAME":"大安區","MARKTYPE":"992","Class":"2"},"geometry":{"x":302903.31010000035,"y":2769748.2205999997}},{"attributes":{"OBJECTID":9572,"LANDMARKID":"6300000000494","LANDMARKCO":"202","LANDMARKNA":"國立師大附中","LANDMARKAD":"6300003","ADDRESS":"台北市大安區和安里信義路三段143號","TEL":"02-27075133","COUNTYNAME":"台北市","TOWNNAME":"大安區","MARKTYPE":"992","Class":"2"},"geometry":{"x":304533.83930000011,"y":2769615.9006999992}},{"attributes":{"OBJECTID":9573,"LANDMARKID":"6300000000495","LANDMARKCO":"202","LANDMARKNA":"私立延平中學","LANDMARKAD":"6300003","ADDRESS":"台北市大安區建國南路一段275號","TEL":"02-27071478","COUNTYNAME":"台北市","TOWNNAME":"大安區","MARKTYPE":"992","Class":"2"},"geometry":{"x":304326.7564000003,"y":2769909.6078999992}},{"attributes":{"OBJECTID":9574,"LANDMARKID":"6300000000496","LANDMARKCO":"202","LANDMARKNA":"私立東方工商","LANDMARKAD":"6300003","ADDRESS":"台北市大安區信義路四段186巷8號","TEL":"02-27554616","COUNTYNAME":"台北市","TOWNNAME":"大安區","MARKTYPE":"992","Class":"2"},"geometry":{"x":305654.81149999984,"y":2769450.8946000002}},{"attributes":{"OBJECTID":9575,"LANDMARKID":"6300000000497","LANDMARKCO":"202","LANDMARKNA":"私立喬治工商","LANDMARKAD":"6300003","ADDRESS":"台北市大安區基隆路二段172號","TEL":"02-27366515","COUNTYNAME":"台北市","TOWNNAME":"大安區","MARKTYPE":"992","Class":"2"},"geometry":{"x":305988.33150000032,"y":2768832.9341000002}},{"attributes":{"OBJECTID":9576,"LANDMARKID":"6300000000498","LANDMARKCO":"202","LANDMARKNA":"市立大安高工","LANDMARKAD":"6300003","ADDRESS":"台北市大安區復興南路二段52號","TEL":"02-27091630","COUNTYNAME":"台北市","TOWNNAME":"大安區","MARKTYPE":"992","Class":"2"},"geometry":{"x":304828.38019999955,"y":2769428.3454999998}},{"attributes":{"OBJECTID":9577,"LANDMARKID":"6300000000505","LANDMARKCO":"203","LANDMARKNA":"市立仁愛國中","LANDMARKAD":"6300003","ADDRESS":"台北市大安區敦安里仁愛路四段130號","TEL":"02-27021841","COUNTYNAME":"台北市","TOWNNAME":"大安區","MARKTYPE":"992","Class":"2"},"geometry":{"x":305570.62619999982,"y":2770043.977}},{"attributes":{"OBJECTID":9578,"LANDMARKID":"6300000000506","LANDMARKCO":"203","LANDMARKNA":"私立立人中小學","LANDMARKAD":"6300003","ADDRESS":"台北市大安區安和路二段99號","TEL":"02-27381188","COUNTYNAME":"台北市","TOWNNAME":"大安區","MARKTYPE":"992","Class":"2"},"geometry":{"x":305696.44510000013,"y":2769191.2301000003}},{"attributes":{"OBJECTID":9579,"LANDMARKID":"6300000000507","LANDMARKCO":"203","LANDMARKNA":"市立懷生國中","LANDMARKAD":"6300003","ADDRESS":"台北市大安區忠孝東路三段248巷30號","TEL":"02-27215078","COUNTYNAME":"台北市","TOWNNAME":"大安區","MARKTYPE":"992","Class":"2"},"geometry":{"x":304613.37280000001,"y":2770356.8230000008}},{"attributes":{"OBJECTID":9580,"LANDMARKID":"6300000000508","LANDMARKCO":"203","LANDMARKNA":"市立芳和國中","LANDMARKAD":"6300003","ADDRESS":"台北市大安區芳和里臥龍街170號","TEL":"02-27351915","COUNTYNAME":"台北市","TOWNNAME":"大安區","MARKTYPE":"992","Class":"2"},"geometry":{"x":305541.29140000045,"y":2767961.8818999995}},{"attributes":{"OBJECTID":9581,"LANDMARKID":"6300000000509","LANDMARKCO":"203","LANDMARKNA":"市立金華國中","LANDMARKAD":"6300003","ADDRESS":"台北市大安區新生南路二段32號","TEL":"02-33931799","COUNTYNAME":"台北市","TOWNNAME":"大安區","MARKTYPE":"992","Class":"2"},"geometry":{"x":303801.03199999966,"y":2769338.4894999992}},{"attributes":{"OBJECTID":9582,"LANDMARKID":"6300000000510","LANDMARKCO":"203","LANDMARKNA":"市立民族國中","LANDMARKAD":"6300003","ADDRESS":"台北市大安區羅斯福路四段113巷13號","TEL":"02-27332934","COUNTYNAME":"台北市","TOWNNAME":"大安區","MARKTYPE":"992","Class":"2"},"geometry":{"x":304385.68859999999,"y":2767123.4179999996}},{"attributes":{"OBJECTID":9583,"LANDMARKID":"6300000000511","LANDMARKCO":"203","LANDMARKNA":"市立龍門國中","LANDMARKAD":"6300003","ADDRESS":"[106]台北市大安區建國南路二段269號","TEL":"02-27330299","COUNTYNAME":"台北市","TOWNNAME":"大安區","MARKTYPE":"992","Class":"2"},"geometry":{"x":304299.86610000022,"y":2768642.7393999994}},{"attributes":{"OBJECTID":9584,"LANDMARKID":"6300000000512","LANDMARKCO":"203","LANDMARKNA":"市立建安國小","LANDMARKAD":"6300003","ADDRESS":"台北市大安區龍雲里大安路二段99號","TEL":"02-27077119","COUNTYNAME":"台北市","TOWNNAME":"大安區","MARKTYPE":"992","Class":"2"},"geometry":{"x":305116.90670000017,"y":2769143.0640999991}},{"attributes":{"OBJECTID":9585,"LANDMARKID":"6300000000513","LANDMARKCO":"203","LANDMARKNA":"市立仁愛國小","LANDMARKAD":"6300003","ADDRESS":"台北市大安區芳和里安和路一段60號","TEL":"02-27095010","COUNTYNAME":"台北市","TOWNNAME":"大安區","MARKTYPE":"992","Class":"2"},"geometry":{"x":305743.86139999982,"y":2769854.7763}},{"attributes":{"OBJECTID":9586,"LANDMARKID":"6300000000514","LANDMARKCO":"203","LANDMARKNA":"私立新民小學","LANDMARKAD":"6300003","ADDRESS":"台北市大安區龍坡里辛亥路一段113號","TEL":"02-23637516","COUNTYNAME":"台北市","TOWNNAME":"大安區","MARKTYPE":"992","Class":"2"},"geometry":{"x":303677.41420000046,"y":2768361.7400000002}},{"attributes":{"OBJECTID":9587,"LANDMARKID":"6300000000515","LANDMARKCO":"203","LANDMARKNA":"國立台北師院附小","LANDMARKAD":"6300003","ADDRESS":"台北市大安區龍淵里和平東路二段94號","TEL":"02-27356186","COUNTYNAME":"台北市","TOWNNAME":"大安區","MARKTYPE":"992","Class":"2"},"geometry":{"x":304586.94010000024,"y":2768655.4536000006}},{"attributes":{"OBJECTID":9588,"LANDMARKID":"6300000000516","LANDMARKCO":"203","LANDMARKNA":"市立大安國小","LANDMARKAD":"6300003","ADDRESS":"台北市大安區芳和里臥龍街129號","TEL":"02-27322332","COUNTYNAME":"台北市","TOWNNAME":"大安區","MARKTYPE":"992","Class":"2"},"geometry":{"x":305473.49689999968,"y":2768049.7666999996}},{"attributes":{"OBJECTID":9589,"LANDMARKID":"6300000000517","LANDMARKCO":"203","LANDMARKNA":"市立公館國小","LANDMARKAD":"6300003","ADDRESS":"台北市大安區基隆路四段41巷68弄2號","TEL":"02-27351734","COUNTYNAME":"台北市","TOWNNAME":"大安區","MARKTYPE":"992","Class":"2"},"geometry":{"x":304792.79860000033,"y":2767262.2730999999}},{"attributes":{"OBJECTID":9590,"LANDMARKID":"6300000000518","LANDMARKCO":"203","LANDMARKNA":"市立金華國小","LANDMARKAD":"6300003","ADDRESS":"台北市大安區永康里愛國東路79巷11號","TEL":"02-23952462","COUNTYNAME":"台北市","TOWNNAME":"大安區","MARKTYPE":"992","Class":"2"},"geometry":{"x":303259.95050000027,"y":2769452.4238000009}},{"attributes":{"OBJECTID":9591,"LANDMARKID":"6300000000519","LANDMARKCO":"203","LANDMARKNA":"市立新生國小","LANDMARKAD":"6300003","ADDRESS":"台北市大安區新生南路二段36號","TEL":"02-23570886","COUNTYNAME":"台北市","TOWNNAME":"大安區","MARKTYPE":"992","Class":"2"},"geometry":{"x":303837.11479999963,"y":2769251.2034000009}},{"attributes":{"OBJECTID":9592,"LANDMARKID":"6300000000520","LANDMARKCO":"203","LANDMARKNA":"市立龍安國小","LANDMARKAD":"6300003","ADDRESS":"台北市大安區龍門里新生南路三段33號","TEL":"02-23632077","COUNTYNAME":"台北市","TOWNNAME":"大安區","MARKTYPE":"992","Class":"2"},"geometry":{"x":303978.4748999998,"y":2768536.4055000003}},{"attributes":{"OBJECTID":9593,"LANDMARKID":"6300000000521","LANDMARKCO":"203","LANDMARKNA":"市立古亭國小","LANDMARKAD":"6300003","ADDRESS":"台北市大安區古風里羅斯福路三段201號","TEL":"02-23639795","COUNTYNAME":"台北市","TOWNNAME":"大安區","MARKTYPE":"992","Class":"2"},"geometry":{"x":303337.74909999967,"y":2768170.9790000003}},{"attributes":{"OBJECTID":9594,"LANDMARKID":"6300000000388","LANDMARKCO":"201","LANDMARKNA":"國立台北師範學院","LANDMARKAD":"6300003","ADDRESS":"台北市大安區和平東路二段134號","TEL":"02-27321104","COUNTYNAME":"台北市","TOWNNAME":"大安區","MARKTYPE":"992","Class":"2"},"geometry":{"x":304973.96810000017,"y":2768613.3998000007}},{"attributes":{"OBJECTID":9595,"LANDMARKID":"6300000000389","LANDMARKCO":"201","LANDMARKNA":"國立台北科技大學","LANDMARKAD":"6300003","ADDRESS":"台北市大安區忠孝東路三段1號","TEL":"02-27712170","COUNTYNAME":"台北市","TOWNNAME":"大安區","MARKTYPE":"992","Class":"2"},"geometry":{"x":304037.52139999997,"y":2770559.3881000001}},{"attributes":{"OBJECTID":9596,"LANDMARKID":"6300000000390","LANDMARKCO":"201","LANDMARKNA":"國立台灣科技大學","LANDMARKAD":"6300003","ADDRESS":"台北市大安區基隆路四段43號","TEL":"02-27333141","COUNTYNAME":"台北市","TOWNNAME":"大安區","MARKTYPE":"992","Class":"2"},"geometry":{"x":304566.53760000039,"y":2767407.8098000009}},{"attributes":{"OBJECTID":9597,"LANDMARKID":"6300000000391","LANDMARKCO":"201","LANDMARKNA":"國立台灣大學","LANDMARKAD":"6300003","ADDRESS":"台北市大安區羅斯福路四段1號","TEL":"02-23630231","COUNTYNAME":"台北市","TOWNNAME":"大安區","MARKTYPE":"992","Class":"2"},"geometry":{"x":303865.26209999993,"y":2767764.3617000002}},{"attributes":{"OBJECTID":9598,"LANDMARKID":"6300000000392","LANDMARKCO":"201","LANDMARKNA":"國立台灣大學管理學院","LANDMARKAD":"6300003","ADDRESS":"台北市大安區羅斯福路四段1號","TEL":"02-23660950#11","COUNTYNAME":"台北市","TOWNNAME":"大安區","MARKTYPE":"992","Class":"2"},"geometry":{"x":303865.26209999993,"y":2767764.3617000002}},{"attributes":{"OBJECTID":9599,"LANDMARKID":"6300000000393","LANDMARKCO":"201","LANDMARKNA":"淡江大學台北校園","LANDMARKAD":"6300003","ADDRESS":"台北市大安區金華街199巷5號","TEL":"02-33933833","COUNTYNAME":"台北市","TOWNNAME":"大安區","MARKTYPE":"992","Class":"2"},"geometry":{"x":303317.2098000003,"y":2769335.5403000005}},{"attributes":{"OBJECTID":9600,"LANDMARKID":"6300000000394","LANDMARKCO":"201","LANDMARKNA":"國立政大企管中心","LANDMARKAD":"6300003","ADDRESS":"台北市大安區金華街187號4樓","TEL":"02-23419151","COUNTYNAME":"台北市","TOWNNAME":"大安區","MARKTYPE":"992","Class":"2"},"geometry":{"x":303246.73269999959,"y":2769217.2301000003}}]}