{"displayFieldName":"COUNTYNAME","fieldAliases":{"OBJECTID":"OBJECTID","LANDMARKID":"LANDMARKID","LANDMARKCO":"LANDMARKCO","LANDMARKNA":"LANDMARKNA","LANDMARKAD":"LANDMARKAD","ADDRESS":"ADDRESS","TEL":"TEL","COUNTYNAME":"COUNTYNAME","TOWNNAME":"TOWNNAME","MARKTYPE":"MARKTYPE","Class":"Class"},"geometryType":"esriGeometryPoint","spatialReference":{"wkid":4326},"fields":[{"name":"OBJECTID","type":"esriFieldTypeOID","alias":"OBJECTID"},{"name":"LANDMARKID","type":"esriFieldTypeString","alias":"LANDMARKID","length":15},{"name":"LANDMARKCO","type":"esriFieldTypeString","alias":"LANDMARKCO","length":15},{"name":"LANDMARKNA","type":"esriFieldTypeString","alias":"LANDMARKNA","length":50},{"name":"LANDMARKAD","type":"esriFieldTypeString","alias":"LANDMARKAD","length":15},{"name":"ADDRESS","type":"esriFieldTypeString","alias":"ADDRESS","length":56},{"name":"TEL","type":"esriFieldTypeString","alias":"TEL","length":36},{"name":"COUNTYNAME","type":"esriFieldTypeString","alias":"COUNTYNAME","length":15},{"name":"TOWNNAME","type":"esriFieldTypeString","alias":"TOWNNAME","length":13},{"name":"MARKTYPE","type":"esriFieldTypeString","alias":"MARKTYPE","length":12},{"name":"Class","type":"esriFieldTypeString","alias":"Class","length":5}],"features":[{"attributes":{"OBJECTID":7201,"LANDMARKID":"6300000001090","LANDMARKCO":"303","LANDMARKNA":"台北市立東湖平面停車場","LANDMARKAD":"6300010","ADDRESS":"台北市內湖區康樂街131號","TEL":"02-26342593","COUNTYNAME":"台北市","TOWNNAME":"內湖區","MARKTYPE":"993","Class":"303"},"geometry":{"x":121.61951974299299,"y":25.07227158143419}},{"attributes":{"OBJECTID":7202,"LANDMARKID":"6300000001091","LANDMARKCO":"303","LANDMARKNA":"東湖高爾夫練習場停車場","LANDMARKAD":"6300010","ADDRESS":"台北市內湖區康樂街186巷","TEL":" ","COUNTYNAME":"台北市","TOWNNAME":"內湖區","MARKTYPE":"993","Class":"303"},"geometry":{"x":121.62008125294471,"y":25.077631439633784}},{"attributes":{"OBJECTID":7203,"LANDMARKID":"6300000001092","LANDMARKCO":"303","LANDMARKNA":"三軍總醫院附設民診處收費停車場","LANDMARKAD":"6300010","ADDRESS":"台北市內湖區成功路二段325號","TEL":" ","COUNTYNAME":"台北市","TOWNNAME":"內湖區","MARKTYPE":"993","Class":"303"},"geometry":{"x":121.59149481631275,"y":25.071075491905532}},{"attributes":{"OBJECTID":7204,"LANDMARKID":"6300000001093","LANDMARKCO":"303","LANDMARKNA":"三軍總醫院停車場","LANDMARKAD":"6300010","ADDRESS":"台北市內湖區成功路二段325號","TEL":" ","COUNTYNAME":"台北市","TOWNNAME":"內湖區","MARKTYPE":"993","Class":"303"},"geometry":{"x":121.5940373068817,"y":25.070512272886091}},{"attributes":{"OBJECTID":7205,"LANDMARKID":"6300000001094","LANDMARKCO":"303","LANDMARKNA":"新明停車場","LANDMARKAD":"6300010","ADDRESS":"台北市內湖區新明路173號","TEL":" ","COUNTYNAME":"台北市","TOWNNAME":"內湖區","MARKTYPE":"993","Class":"303"},"geometry":{"x":121.58809318134728,"y":25.057487724111159}},{"attributes":{"OBJECTID":7206,"LANDMARKID":"6300000001095","LANDMARKCO":"303","LANDMARKNA":"內湖321K01平面停車場","LANDMARKAD":"6300010","ADDRESS":"台北市內湖區","TEL":" ","COUNTYNAME":"台北市","TOWNNAME":"內湖區","MARKTYPE":"993","Class":"303"},"geometry":{"x":121.61192311969405,"y":25.06999427805864}},{"attributes":{"OBJECTID":7207,"LANDMARKID":"6300000001096","LANDMARKCO":"303","LANDMARKNA":"內湖停車場","LANDMARKAD":"6300010","ADDRESS":"台北市內湖區成功路四段61巷","TEL":" ","COUNTYNAME":"台北市","TOWNNAME":"內湖區","MARKTYPE":"993","Class":"303"},"geometry":{"x":121.59247831118944,"y":25.081794149580094}},{"attributes":{"OBJECTID":7208,"LANDMARKID":"6300000001097","LANDMARKCO":"303","LANDMARKNA":"內湖港富平面停車場","LANDMARKAD":"6300010","ADDRESS":"台北市內湖區","TEL":" ","COUNTYNAME":"台北市","TOWNNAME":"內湖區","MARKTYPE":"993","Class":"303"},"geometry":{"x":121.57869038618374,"y":25.079857071539067}},{"attributes":{"OBJECTID":7209,"LANDMARKID":"6300000001098","LANDMARKCO":"303","LANDMARKNA":"文湖平面停車場","LANDMARKAD":"6300010","ADDRESS":"台北市內湖區文湖街21巷","TEL":" ","COUNTYNAME":"台北市","TOWNNAME":"內湖區","MARKTYPE":"993","Class":"303"},"geometry":{"x":121.56083906305662,"y":25.086320547128857}},{"attributes":{"OBJECTID":7210,"LANDMARKID":"6300000001099","LANDMARKCO":"303","LANDMARKNA":"文德停車場","LANDMARKAD":"6300010","ADDRESS":"台北市內湖區文德段二小段95之2地號","TEL":" ","COUNTYNAME":"台北市","TOWNNAME":"內湖區","MARKTYPE":"993","Class":"303"},"geometry":{"x":121.58056193786601,"y":25.103347472155956}},{"attributes":{"OBJECTID":7211,"LANDMARKID":"6300000001100","LANDMARKCO":"303","LANDMARKNA":"民權拖吊停車場","LANDMARKAD":"6300010","ADDRESS":"台北市內湖區文德段五小段296地號","TEL":" ","COUNTYNAME":"台北市","TOWNNAME":"內湖區","MARKTYPE":"993","Class":"303"},"geometry":{"x":121.58056210429352,"y":25.10334765206365}},{"attributes":{"OBJECTID":7212,"LANDMARKID":"6300000001101","LANDMARKCO":"303","LANDMARKNA":"石潭臨時平面停車場","LANDMARKAD":"6300010","ADDRESS":"台北市內湖區民權東路六段","TEL":" ","COUNTYNAME":"台北市","TOWNNAME":"內湖區","MARKTYPE":"993","Class":"303"},"geometry":{"x":121.58958412734997,"y":25.069478257431442}},{"attributes":{"OBJECTID":7213,"LANDMARKID":"6300000001102","LANDMARKCO":"303","LANDMARKNA":"成功停車場","LANDMARKAD":"6300010","ADDRESS":"台北市內湖區","TEL":" ","COUNTYNAME":"台北市","TOWNNAME":"內湖區","MARKTYPE":"993","Class":"303"},"geometry":{"x":121.59514737381399,"y":25.082954875011325}},{"attributes":{"OBJECTID":7214,"LANDMARKID":"6300000001103","LANDMARKCO":"303","LANDMARKNA":"西湖303K02平面停車場","LANDMARKAD":"6300010","ADDRESS":"台北市內湖區內湖路一小段285號","TEL":" ","COUNTYNAME":"台北市","TOWNNAME":"內湖區","MARKTYPE":"993","Class":"303"},"geometry":{"x":121.56535255495925,"y":25.082710162148253}},{"attributes":{"OBJECTID":7215,"LANDMARKID":"6300000001104","LANDMARKCO":"303","LANDMARKNA":"東湖平面停車場","LANDMARKAD":"6300010","ADDRESS":"台北市內湖區康樂街131號","TEL":" ","COUNTYNAME":"台北市","TOWNNAME":"內湖區","MARKTYPE":"993","Class":"303"},"geometry":{"x":121.61979620313453,"y":25.073921837728832}},{"attributes":{"OBJECTID":7216,"LANDMARKID":"6300000001105","LANDMARKCO":"303","LANDMARKNA":"金和興西湖站停車場","LANDMARKAD":"6300010","ADDRESS":"台北市內湖區","TEL":" ","COUNTYNAME":"台北市","TOWNNAME":"內湖區","MARKTYPE":"993","Class":"303"},"geometry":{"x":121.56326317933423,"y":25.087548461528488}},{"attributes":{"OBJECTID":7217,"LANDMARKID":"6300000001106","LANDMARKCO":"303","LANDMARKNA":"柏安有限公司內湖停車場","LANDMARKAD":"6300010","ADDRESS":"台北市內湖區成功路420巷26號","TEL":" ","COUNTYNAME":"台北市","TOWNNAME":"內湖區","MARKTYPE":"993","Class":"303"},"geometry":{"x":121.60846286891277,"y":25.075103137058825}},{"attributes":{"OBJECTID":7218,"LANDMARKID":"6300000001107","LANDMARKCO":"303","LANDMARKNA":"康寧平面停車場","LANDMARKAD":"6300010","ADDRESS":"台北市內湖區民權東路六段","TEL":" ","COUNTYNAME":"台北市","TOWNNAME":"內湖區","MARKTYPE":"993","Class":"303"},"geometry":{"x":121.60627193614312,"y":25.072673365566644}},{"attributes":{"OBJECTID":7219,"LANDMARKID":"6300000001108","LANDMARKCO":"303","LANDMARKNA":"湖興平面停車場","LANDMARKAD":"6300010","ADDRESS":"台北市內湖區","TEL":" ","COUNTYNAME":"台北市","TOWNNAME":"內湖區","MARKTYPE":"993","Class":"303"},"geometry":{"x":121.59048869241832,"y":25.067594031800152}},{"attributes":{"OBJECTID":7220,"LANDMARKID":"6300000001109","LANDMARKCO":"303","LANDMARKNA":"德安生活百貨附屬停車場","LANDMARKAD":"6300010","ADDRESS":"台北市內湖區成功路四段180號B2","TEL":" ","COUNTYNAME":"台北市","TOWNNAME":"內湖區","MARKTYPE":"993","Class":"303"},"geometry":{"x":121.59381918254918,"y":25.083441390001084}},{"attributes":{"OBJECTID":7221,"LANDMARKID":"6300000001110","LANDMARKCO":"303","LANDMARKNA":"西湖市場旁平面停車場","LANDMARKAD":"6300010","ADDRESS":"台北市內湖區內湖路一段285巷","TEL":" ","COUNTYNAME":"台北市","TOWNNAME":"內湖區","MARKTYPE":"993","Class":"303"},"geometry":{"x":121.56704748573843,"y":25.082641049302225}},{"attributes":{"OBJECTID":7222,"LANDMARKID":"6300000001111","LANDMARKCO":"303","LANDMARKNA":"馬場町紀念公園平面停車場","LANDMARKAD":"6300010","ADDRESS":"台北市內湖區","TEL":" ","COUNTYNAME":"台北市","TOWNNAME":"內湖區","MARKTYPE":"993","Class":"303"},"geometry":{"x":121.59961636410019,"y":25.063174710504793}},{"attributes":{"OBJECTID":7223,"LANDMARKID":"6300000001112","LANDMARKCO":"303","LANDMARKNA":"應安停車場-民權三場","LANDMARKAD":"6300010","ADDRESS":"台北市內湖區民權東路六段15巷105號對面","TEL":"0980-503051","COUNTYNAME":"台北市","TOWNNAME":"內湖區","MARKTYPE":"993","Class":"303"},"geometry":{"x":121.57836835400055,"y":25.068232779686628}},{"attributes":{"OBJECTID":7224,"LANDMARKID":"6300000001113","LANDMARKCO":"303","LANDMARKNA":"應安停車場-民權二場","LANDMARKAD":"6300010","ADDRESS":"台北市內湖區民權東路六段180巷42弄6-1號旁","TEL":"0980-503051","COUNTYNAME":"台北市","TOWNNAME":"內湖區","MARKTYPE":"993","Class":"303"},"geometry":{"x":121.5924174172809,"y":25.067377084908063}},{"attributes":{"OBJECTID":7225,"LANDMARKID":"6300000001114","LANDMARKCO":"303","LANDMARKNA":"應安停車場-民權東場","LANDMARKAD":"6300010","ADDRESS":"台北市內湖區民權東路六段186-8號旁","TEL":"0980-503051","COUNTYNAME":"台北市","TOWNNAME":"內湖區","MARKTYPE":"993","Class":"303"},"geometry":{"x":121.59364960340055,"y":25.068659163198866}},{"attributes":{"OBJECTID":7226,"LANDMARKID":"6300000001115","LANDMARKCO":"303","LANDMARKNA":"應安停車場-瑞湖場","LANDMARKAD":"6300010","ADDRESS":"台北市內湖區瑞湖街88號對面","TEL":"0980-503051　　","COUNTYNAME":"台北市","TOWNNAME":"內湖區","MARKTYPE":"993","Class":"303"},"geometry":{"x":121.57603770663673,"y":25.073442055824881}},{"attributes":{"OBJECTID":7227,"LANDMARKID":"6300000001116","LANDMARKCO":"303","LANDMARKNA":"應安停車場-洲子場","LANDMARKAD":"6300010","ADDRESS":"台北市內湖區洲子街86號中間空地","TEL":"0980-503051","COUNTYNAME":"台北市","TOWNNAME":"內湖區","MARKTYPE":"993","Class":"303"},"geometry":{"x":121.57131742154581,"y":25.079807881273727}},{"attributes":{"OBJECTID":7228,"LANDMARKID":"6300000001117","LANDMARKCO":"303","LANDMARKNA":"應安停車場-新內一場","LANDMARKAD":"6300010","ADDRESS":"台北市內湖區瑞光路316巷5號對面空地","TEL":"0980-503051","COUNTYNAME":"台北市","TOWNNAME":"內湖區","MARKTYPE":"993","Class":"303"},"geometry":{"x":121.5733886662823,"y":25.076216578112383}},{"attributes":{"OBJECTID":7229,"LANDMARKID":"6300000001118","LANDMARKCO":"303","LANDMARKNA":"永固停車場-創世紀","LANDMARKAD":"6300010","ADDRESS":"台北市內湖區洲子街118、120號B1~3","TEL":"02-26597502","COUNTYNAME":"台北市","TOWNNAME":"內湖區","MARKTYPE":"993","Class":"303"},"geometry":{"x":121.56854760974917,"y":25.080903886242201}},{"attributes":{"OBJECTID":7230,"LANDMARKID":"6300000001119","LANDMARKCO":"303","LANDMARKNA":"永固停車場-工研站","LANDMARKAD":"6300010","ADDRESS":"台北市內湖區基湖路35巷11號旁空地","TEL":" ","COUNTYNAME":"台北市","TOWNNAME":"內湖區","MARKTYPE":"993","Class":"303"},"geometry":{"x":121.56534243607203,"y":25.079832549933435}},{"attributes":{"OBJECTID":7231,"LANDMARKID":"6300000001120","LANDMARKCO":"303","LANDMARKNA":"永固停車場-中興站","LANDMARKAD":"6300010","ADDRESS":"台北市內湖區內湖路一段118號旁空地","TEL":" ","COUNTYNAME":"台北市","TOWNNAME":"內湖區","MARKTYPE":"993","Class":"303"},"geometry":{"x":121.56331606878543,"y":25.083192725911836}},{"attributes":{"OBJECTID":7232,"LANDMARKID":"6300000001121","LANDMARKCO":"303","LANDMARKNA":"永固停車場-元吉站","LANDMARKAD":"6300010","ADDRESS":"台北市內湖區基湖路3巷47號B1~2","TEL":"02-26589504","COUNTYNAME":"台北市","TOWNNAME":"內湖區","MARKTYPE":"993","Class":"303"},"geometry":{"x":121.56742162295188,"y":25.080647195185048}},{"attributes":{"OBJECTID":7233,"LANDMARKID":"6300000001122","LANDMARKCO":"303","LANDMARKNA":"永固停車場-中時站","LANDMARKAD":"6300010","ADDRESS":"台北市內湖區瑞光路26巷36弄6號(優仕咖啡對面空地)","TEL":" ","COUNTYNAME":"台北市","TOWNNAME":"內湖區","MARKTYPE":"993","Class":"303"},"geometry":{"x":121.58188483736693,"y":25.069383874717044}},{"attributes":{"OBJECTID":7234,"LANDMARKID":"6300000001123","LANDMARKCO":"303","LANDMARKNA":"永固停車場-內湖二","LANDMARKAD":"6300010","ADDRESS":"台北市內湖區內湖路一段318號B1~B3","TEL":"02-26271703","COUNTYNAME":"台北市","TOWNNAME":"內湖區","MARKTYPE":"993","Class":"303"},"geometry":{"x":121.56770262167863,"y":25.08199112074621}},{"attributes":{"OBJECTID":7235,"LANDMARKID":"6300000001124","LANDMARKCO":"303","LANDMARKNA":"永固停車場-洲子二","LANDMARKAD":"6300010","ADDRESS":"台北市內湖區洲子街60-62號B2","TEL":" ","COUNTYNAME":"台北市","TOWNNAME":"內湖區","MARKTYPE":"993","Class":"303"},"geometry":{"x":121.57250037282017,"y":25.079363006739758}},{"attributes":{"OBJECTID":7236,"LANDMARKID":"6300000001125","LANDMARKCO":"303","LANDMARKNA":"永固停車場-基湖二","LANDMARKAD":"6300010","ADDRESS":"台北市內湖區瑞光路618號B4","TEL":" ","COUNTYNAME":"台北市","TOWNNAME":"內湖區","MARKTYPE":"993","Class":"303"},"geometry":{"x":121.56544361928459,"y":25.080525163808893}},{"attributes":{"OBJECTID":7237,"LANDMARKID":"6300000001126","LANDMARKCO":"303","LANDMARKNA":"永固停車場-瑞光二","LANDMARKAD":"6300010","ADDRESS":"台北市內湖區瑞光路618號左側空地","TEL":" ","COUNTYNAME":"台北市","TOWNNAME":"內湖區","MARKTYPE":"993","Class":"303"},"geometry":{"x":121.56534597742551,"y":25.080550536129877}},{"attributes":{"OBJECTID":7238,"LANDMARKID":"6300000001127","LANDMARKCO":"303","LANDMARKNA":"永固停車場-雅典二","LANDMARKAD":"6300010","ADDRESS":"台北市內湖區瑞光路487巷24號B2-3","TEL":" ","COUNTYNAME":"台北市","TOWNNAME":"內湖區","MARKTYPE":"993","Class":"303"},"geometry":{"x":121.57734779585991,"y":25.074737966433752}},{"attributes":{"OBJECTID":7239,"LANDMARKID":"6300000001128","LANDMARKCO":"303","LANDMARKNA":"永固停車場-洲子四","LANDMARKAD":"6300010","ADDRESS":"台北市內湖區洲子街69號地下1、2層","TEL":" ","COUNTYNAME":"台北市","TOWNNAME":"內湖區","MARKTYPE":"993","Class":"303"},"geometry":{"x":121.57158018776701,"y":25.079971869697676}},{"attributes":{"OBJECTID":7240,"LANDMARKID":"6300000001129","LANDMARKCO":"303","LANDMARKNA":"永固停車場-基湖三","LANDMARKAD":"6300010","ADDRESS":"台北市內湖區堤頂大道2段413號旁空地","TEL":" ","COUNTYNAME":"台北市","TOWNNAME":"內湖區","MARKTYPE":"993","Class":"303"},"geometry":{"x":121.56277291141673,"y":25.080754787653429}},{"attributes":{"OBJECTID":7241,"LANDMARKID":"6300000001130","LANDMARKCO":"303","LANDMARKNA":"永固停車場-東京二","LANDMARKAD":"6300010","ADDRESS":"台北市內湖區堤頂大道二段183、185號B3~B4","TEL":"02-26578124","COUNTYNAME":"台北市","TOWNNAME":"內湖區","MARKTYPE":"993","Class":"303"},"geometry":{"x":121.56965829114702,"y":25.077440258780168}},{"attributes":{"OBJECTID":7242,"LANDMARKID":"6300000001131","LANDMARKCO":"303","LANDMARKNA":"永固停車場-學學站","LANDMARKAD":"6300010","ADDRESS":"台北市內湖區堤頂大道二段209號B1-B3","TEL":"02-26570865","COUNTYNAME":"台北市","TOWNNAME":"內湖區","MARKTYPE":"993","Class":"303"},"geometry":{"x":121.56769488235064,"y":25.077969150336848}},{"attributes":{"OBJECTID":7243,"LANDMARKID":"6300000001132","LANDMARKCO":"303","LANDMARKNA":"永固停車場-聯合二","LANDMARKAD":"6300010","ADDRESS":"台北市內湖區堤頂大道二段209號旁空地","TEL":"02-87526240","COUNTYNAME":"台北市","TOWNNAME":"內湖區","MARKTYPE":"993","Class":"303"},"geometry":{"x":121.5655674535174,"y":25.078964692922582}},{"attributes":{"OBJECTID":7244,"LANDMARKID":"6300000001133","LANDMARKCO":"303","LANDMARKNA":"永固停車場-瑞湖二","LANDMARKAD":"6300010","ADDRESS":"台北市內湖區瑞湖街21號地下1-3樓","TEL":"02-26599061","COUNTYNAME":"台北市","TOWNNAME":"內湖區","MARKTYPE":"993","Class":"303"},"geometry":{"x":121.57617718246139,"y":25.071834515193764}},{"attributes":{"OBJECTID":7245,"LANDMARKID":"6300000001134","LANDMARKCO":"303","LANDMARKNA":"永固停車場-基湖五","LANDMARKAD":"6300010","ADDRESS":"台北市內湖區堤頂大道2段407巷22號地下2及4層","TEL":" ","COUNTYNAME":"台北市","TOWNNAME":"內湖區","MARKTYPE":"993","Class":"303"},"geometry":{"x":121.56313060939527,"y":25.081344430989628}},{"attributes":{"OBJECTID":7246,"LANDMARKID":"6300000001135","LANDMARKCO":"303","LANDMARKNA":"永固停車場-大眾站","LANDMARKAD":"6300010","ADDRESS":"台北市內湖區陽光街300號地下一層B1","TEL":"02-87525110","COUNTYNAME":"台北市","TOWNNAME":"內湖區","MARKTYPE":"993","Class":"303"},"geometry":{"x":121.57406176835423,"y":25.072815977206734}},{"attributes":{"OBJECTID":7247,"LANDMARKID":"6300000001136","LANDMARKCO":"303","LANDMARKNA":"永固停車場-瑞光五","LANDMARKAD":"6300010","ADDRESS":"台北市內湖區瑞光路358巷30弄2號","TEL":" ","COUNTYNAME":"台北市","TOWNNAME":"內湖區","MARKTYPE":"993","Class":"303"},"geometry":{"x":121.57228309240345,"y":25.076525844969208}},{"attributes":{"OBJECTID":7248,"LANDMARKID":"6300000001137","LANDMARKCO":"303","LANDMARKNA":"台灣聯通停車場-瑞二場","LANDMARKAD":"6300010","ADDRESS":"台北市瑞光路407-423號B1","TEL":" ","COUNTYNAME":"台北市","TOWNNAME":"內湖區","MARKTYPE":"993","Class":"303"},"geometry":{"x":121.57165797174814,"y":25.078417570228972}},{"attributes":{"OBJECTID":7249,"LANDMARKID":"6300000001138","LANDMARKCO":"303","LANDMARKNA":"台灣聯通停車場-成功場","LANDMARKAD":"6300010","ADDRESS":"台北市成功路四段161號B3~B4","TEL":" ","COUNTYNAME":"台北市","TOWNNAME":"內湖區","MARKTYPE":"993","Class":"303"},"geometry":{"x":121.59439222989678,"y":25.083295187321312}},{"attributes":{"OBJECTID":7250,"LANDMARKID":"6300000001139","LANDMARKCO":"303","LANDMARKNA":"台灣聯通停車場-里昂場","LANDMARKAD":"6300010","ADDRESS":"台北市內湖區瑞光路406~412號B2","TEL":" ","COUNTYNAME":"台北市","TOWNNAME":"內湖區","MARKTYPE":"993","Class":"303"},"geometry":{"x":121.57054331727623,"y":25.078061859669933}},{"attributes":{"OBJECTID":7251,"LANDMARKID":"6300000001140","LANDMARKCO":"303","LANDMARKNA":"台灣聯通停車場-文德場","LANDMARKAD":"6300010","ADDRESS":"台北市內湖區文德路273號B1~B2","TEL":" ","COUNTYNAME":"台北市","TOWNNAME":"內湖區","MARKTYPE":"993","Class":"303"},"geometry":{"x":121.58886811974436,"y":25.079266166155236}},{"attributes":{"OBJECTID":7252,"LANDMARKID":"6300000001141","LANDMARKCO":"303","LANDMARKNA":"中興嘟嘟房停車場-西湖站","LANDMARKAD":"6300010","ADDRESS":"台北市內湖區內湖路一段、麗山街口","TEL":" ","COUNTYNAME":"台北市","TOWNNAME":"內湖區","MARKTYPE":"993","Class":"303"},"geometry":{"x":121.57279282149165,"y":25.081376878777117}},{"attributes":{"OBJECTID":7253,"LANDMARKID":"6300000001142","LANDMARKCO":"303","LANDMARKNA":"中興嘟嘟房停車場-內湖港墘站","LANDMARKAD":"6300010","ADDRESS":"台北市內湖區港墘路221巷33號B2-B3","TEL":"02-87512671","COUNTYNAME":"台北市","TOWNNAME":"內湖區","MARKTYPE":"993","Class":"303"},"geometry":{"x":121.57502662319712,"y":25.072783976142794}},{"attributes":{"OBJECTID":7254,"LANDMARKID":"6300000002237","LANDMARKCO":"402","LANDMARKNA":"中華電信-內湖西湖特約服務中心","LANDMARKAD":"6300010","ADDRESS":"台北市內湖區內湖路一段313號","TEL":"02-26570303","COUNTYNAME":"台北市","TOWNNAME":"內湖區","MARKTYPE":"994","Class":"4"},"geometry":{"x":121.56761891754984,"y":25.082318623659511}},{"attributes":{"OBJECTID":7255,"LANDMARKID":"6300000002238","LANDMARKCO":"402","LANDMARKNA":"中華電信-康寧服務中心","LANDMARKAD":"6300010","ADDRESS":"內湖區康寧路三段75巷22號","TEL":"123或0800-080-123","COUNTYNAME":"台北市","TOWNNAME":"內湖區","MARKTYPE":"994","Class":"4"},"geometry":{"x":121.60926850004016,"y":25.07252945020651}},{"attributes":{"OBJECTID":7256,"LANDMARKID":"6300000002239","LANDMARKCO":"402","LANDMARKNA":"中華電信-內湖德安特約服務中心","LANDMARKAD":"6300010","ADDRESS":"台北市內湖區成功路四段137號","TEL":"02-27906565","COUNTYNAME":"台北市","TOWNNAME":"內湖區","MARKTYPE":"994","Class":"4"},"geometry":{"x":121.59345713627545,"y":25.082746698797671}},{"attributes":{"OBJECTID":7257,"LANDMARKID":"6300000002240","LANDMARKCO":"402","LANDMARKNA":"中華電信-台北東湖特約服務中心","LANDMARKAD":"6300010","ADDRESS":"台北市內湖區東湖路136號","TEL":"02-26333131","COUNTYNAME":"台北市","TOWNNAME":"內湖區","MARKTYPE":"994","Class":"4"},"geometry":{"x":121.61681394312254,"y":25.067987555192133}},{"attributes":{"OBJECTID":7258,"LANDMARKID":"6300000002241","LANDMARKCO":"402","LANDMARKNA":"中華電信-內湖服務中心","LANDMARKAD":"6300010","ADDRESS":"台北市內湖路一段596號","TEL":"123或0800-080-123","COUNTYNAME":"台北市","TOWNNAME":"內湖區","MARKTYPE":"994","Class":"4"},"geometry":{"x":121.57787924113875,"y":25.078824537469622}},{"attributes":{"OBJECTID":7259,"LANDMARKID":"6300000002242","LANDMARKCO":"402","LANDMARKNA":"威寶電信-台北成功特約服務中心","LANDMARKAD":"6300010","ADDRESS":"台北市內湖區成功路3段93號","TEL":"02-27945994","COUNTYNAME":"台北市","TOWNNAME":"內湖區","MARKTYPE":"994","Class":"4"},"geometry":{"x":121.58983164439937,"y":25.078548465350242}},{"attributes":{"OBJECTID":7260,"LANDMARKID":"6300000002243","LANDMARKCO":"402","LANDMARKNA":"大眾電信(震旦通訊)-台北成功店","LANDMARKAD":"6300010","ADDRESS":"台北市內湖區成功路四段193號","TEL":"02-27948822","COUNTYNAME":"台北市","TOWNNAME":"內湖區","MARKTYPE":"994","Class":"4"},"geometry":{"x":121.595548625635,"y":25.084113265105124}},{"attributes":{"OBJECTID":7261,"LANDMARKID":"6300000002244","LANDMARKCO":"402","LANDMARKNA":"大眾電信-內湖專賣店","LANDMARKAD":"6300010","ADDRESS":"台北市內湖區港墘路58號","TEL":"0966-668336","COUNTYNAME":"台北市","TOWNNAME":"內湖區","MARKTYPE":"994","Class":"4"},"geometry":{"x":121.57808047954865,"y":25.0815855338383}},{"attributes":{"OBJECTID":7262,"LANDMARKID":"6300000002245","LANDMARKCO":"402","LANDMARKNA":"大眾電信(震旦通訊)-台北內湖店","LANDMARKAD":"6300010","ADDRESS":"台北市內湖路一段319號","TEL":"02-87518585","COUNTYNAME":"台北市","TOWNNAME":"內湖區","MARKTYPE":"994","Class":"4"},"geometry":{"x":121.56783699975,"y":25.082316955187192}},{"attributes":{"OBJECTID":7263,"LANDMARKID":"6300000002246","LANDMARKCO":"402","LANDMARKNA":"大眾電信-東湖專賣店","LANDMARKAD":"6300010","ADDRESS":"台北市東湖路24號","TEL":"02-26325917","COUNTYNAME":"台北市","TOWNNAME":"內湖區","MARKTYPE":"994","Class":"4"},"geometry":{"x":121.61285625096207,"y":25.068701558631247}},{"attributes":{"OBJECTID":7264,"LANDMARKID":"6300000002247","LANDMARKCO":"402","LANDMARKNA":"大眾電信(震旦通訊)-台北康寧店","LANDMARKAD":"6300010","ADDRESS":"台北市康寧路三段217巷1號","TEL":"02-26314499","COUNTYNAME":"台北市","TOWNNAME":"內湖區","MARKTYPE":"994","Class":"4"},"geometry":{"x":121.61225922213525,"y":25.068471753168623}},{"attributes":{"OBJECTID":7265,"LANDMARKID":"6300000002248","LANDMARKCO":"402","LANDMARKNA":"大眾電信(傑昇通信)-東湖店","LANDMARKAD":"6300010","ADDRESS":"台北市東湖路151 號","TEL":"02-26348677","COUNTYNAME":"台北市","TOWNNAME":"內湖區","MARKTYPE":"994","Class":"4"},"geometry":{"x":121.61731679509873,"y":25.06802237781481}},{"attributes":{"OBJECTID":7266,"LANDMARKID":"6300000003632","LANDMARKCO":"603","LANDMARKNA":"馥麗精品旅館","LANDMARKAD":"6300010","ADDRESS":"台北市內湖區內湖路1段325號1-5樓","TEL":"02-26586167","COUNTYNAME":"台北市","TOWNNAME":"內湖區","MARKTYPE":"996","Class":"6"},"geometry":{"x":121.56808456952012,"y":25.082287975778154}},{"attributes":{"OBJECTID":7267,"LANDMARKID":"6300000003633","LANDMARKCO":"603","LANDMARKNA":"麗湖大飯店","LANDMARKAD":"6300010","ADDRESS":"台北市內湖區成功路五段462號1","TEL":"3-14樓","COUNTYNAME":"台北市","TOWNNAME":"內湖區","MARKTYPE":"996","Class":"6"},"geometry":{"x":121.60632540553409,"y":25.073625571581253}},{"attributes":{"OBJECTID":7268,"LANDMARKID":"6300000003331","LANDMARKCO":"511","LANDMARKNA":"西寧市場花市街","LANDMARKAD":"6300010","ADDRESS":"台北市內湖區瑞光街","TEL":" ","COUNTYNAME":"台北市","TOWNNAME":"內湖區","MARKTYPE":"995","Class":"5"},"geometry":{"x":121.57405118523334,"y":25.077344205177724}},{"attributes":{"OBJECTID":7269,"LANDMARKID":"6300000003332","LANDMARKCO":"511","LANDMARKNA":"台北花市街","LANDMARKAD":"6300010","ADDRESS":"台北市內湖區","TEL":" ","COUNTYNAME":"台北市","TOWNNAME":"內湖區","MARKTYPE":"995","Class":"5"},"geometry":{"x":121.57416459616367,"y":25.076997519368586}},{"attributes":{"OBJECTID":7270,"LANDMARKID":"6300000003312","LANDMARKCO":"510","LANDMARKNA":"東湖高爾夫練習場","LANDMARKAD":"6300010","ADDRESS":"台北市內湖區康樂街186巷30號1樓","TEL":"02-26323877","COUNTYNAME":"台北市","TOWNNAME":"內湖區","MARKTYPE":"995","Class":"5"},"geometry":{"x":121.62017244044375,"y":25.076874076973418}},{"attributes":{"OBJECTID":7271,"LANDMARKID":"6300000002474","LANDMARKCO":"405","LANDMARKNA":"中油加油站-大直站(刷卡自助)(中油直營)","LANDMARKAD":"6300004","ADDRESS":"台北市中山區明水路661號","TEL":"02-25320154","COUNTYNAME":"台北市","TOWNNAME":"中山區","MARKTYPE":"994","Class":"4"},"geometry":{"x":121.55057447843565,"y":25.084315424605339}},{"attributes":{"OBJECTID":7272,"LANDMARKID":"6300000002475","LANDMARKCO":"405","LANDMARKNA":"中油加油站-長安站","LANDMARKAD":"6300004","ADDRESS":"台北市中山區長安東路二段34號","TEL":"02-25671667","COUNTYNAME":"台北市","TOWNNAME":"中山區","MARKTYPE":"994","Class":"4"},"geometry":{"x":121.53132492854431,"y":25.048363477584967}},{"attributes":{"OBJECTID":7273,"LANDMARKID":"6300000002476","LANDMARKCO":"405","LANDMARKNA":"中油加油站-新生北路站(中油直營)","LANDMARKAD":"6300004","ADDRESS":"台北市中山區新生北路二段71號","TEL":"02-25815206","COUNTYNAME":"台北市","TOWNNAME":"中山區","MARKTYPE":"994","Class":"4"},"geometry":{"x":121.52804955770982,"y":25.056545812980502}},{"attributes":{"OBJECTID":7274,"LANDMARKID":"6300000002477","LANDMARKCO":"405","LANDMARKNA":"中油加油站-中崙站(中油直營)","LANDMARKAD":"6300004","ADDRESS":"台北市中山區八德路二段214號","TEL":"02-27712548","COUNTYNAME":"台北市","TOWNNAME":"中山區","MARKTYPE":"994","Class":"4"},"geometry":{"x":121.53963236815711,"y":25.046377260108425}},{"attributes":{"OBJECTID":7275,"LANDMARKID":"6300000002478","LANDMARKCO":"405","LANDMARKNA":"中油加油站-建國北路站(刷卡自助)(中油直營)","LANDMARKAD":"6300004","ADDRESS":"台北市中山區建國北路三段91號之1","TEL":"02-25014338","COUNTYNAME":"台北市","TOWNNAME":"中山區","MARKTYPE":"994","Class":"4"},"geometry":{"x":121.53678457504144,"y":25.06570439994632}},{"attributes":{"OBJECTID":7276,"LANDMARKID":"6300000002479","LANDMARKCO":"405","LANDMARKNA":"中油加油站-濱江站","LANDMARKAD":"6300004","ADDRESS":"台北市中山區濱江街195號","TEL":"02-25058060","COUNTYNAME":"台北市","TOWNNAME":"中山區","MARKTYPE":"994","Class":"4"},"geometry":{"x":121.53953157627903,"y":25.072732697203751}},{"attributes":{"OBJECTID":7277,"LANDMARKID":"6300000002480","LANDMARKCO":"405","LANDMARKNA":"中油加油站-吉林路站(中油直營)","LANDMARKAD":"6300004","ADDRESS":"台北市中山區吉林路31號","TEL":"02-25417952","COUNTYNAME":"台北市","TOWNNAME":"中山區","MARKTYPE":"994","Class":"4"},"geometry":{"x":121.53018285613864,"y":25.050925292314876}},{"attributes":{"OBJECTID":7278,"LANDMARKID":"6300000002226","LANDMARKCO":"402","LANDMARKNA":"My Phone台灣大哥大-中山－北安","LANDMARKAD":"6300004","ADDRESS":"台北市中山區北安路618之3號","TEL":"02-85092759","COUNTYNAME":"台北市","TOWNNAME":"中山區","MARKTYPE":"994","Class":"4"},"geometry":{"x":121.54926091723861,"y":25.082483080699674}},{"attributes":{"OBJECTID":7279,"LANDMARKID":"6300000002227","LANDMARKCO":"402","LANDMARKNA":"My Phone台灣大哥大-中山－林森北","LANDMARKAD":"6300004","ADDRESS":"台北市中山區錦州街40號","TEL":"02-25612025","COUNTYNAME":"台北市","TOWNNAME":"中山區","MARKTYPE":"994","Class":"4"},"geometry":{"x":121.52533398481681,"y":25.060222600768537}},{"attributes":{"OBJECTID":7280,"LANDMARKID":"6300000002228","LANDMARKCO":"402","LANDMARKNA":"My Phone台灣大哥大-台北長春直營服務中心","LANDMARKAD":"6300004","ADDRESS":"台北市松山區長春路374號","TEL":" ","COUNTYNAME":"台北市","TOWNNAME":"中山區","MARKTYPE":"994","Class":"4"},"geometry":{"x":121.54299185336566,"y":25.054560201254901}},{"attributes":{"OBJECTID":7281,"LANDMARKID":"6300000002229","LANDMARKCO":"402","LANDMARKNA":"My Phone台灣大哥大-中山－長春","LANDMARKAD":"6300004","ADDRESS":"台北市中山區長春路188號","TEL":"02-25082000","COUNTYNAME":"台北市","TOWNNAME":"中山區","MARKTYPE":"994","Class":"4"},"geometry":{"x":121.53508270481727,"y":25.05466654084552}},{"attributes":{"OBJECTID":7282,"LANDMARKID":"6300000002230","LANDMARKCO":"402","LANDMARKNA":"My Phone台灣大哥大-台北南京東直營服務中心","LANDMARKAD":"6300004","ADDRESS":"台北市中山區南京東路2段204號","TEL":" ","COUNTYNAME":"台北市","TOWNNAME":"中山區","MARKTYPE":"994","Class":"4"},"geometry":{"x":121.53573399144342,"y":25.051808975990607}},{"attributes":{"OBJECTID":7283,"LANDMARKID":"6300000002231","LANDMARKCO":"402","LANDMARKNA":"My Phone台灣大哥大-大安光華","LANDMARKAD":"6300004","ADDRESS":"台北市八德路二段58號","TEL":"(02)2752-7129","COUNTYNAME":"台北市","TOWNNAME":"中山區","MARKTYPE":"994","Class":"4"},"geometry":{"x":121.53518491524261,"y":25.045150203749003}},{"attributes":{"OBJECTID":7284,"LANDMARKID":"6300000002232","LANDMARKCO":"402","LANDMARKNA":"My Phone台灣大哥大-台北農安直營服務中心","LANDMARKAD":"6300004","ADDRESS":"台北市中山區農安街19號","TEL":" ","COUNTYNAME":"台北市","TOWNNAME":"中山區","MARKTYPE":"994","Class":"4"},"geometry":{"x":121.52397367431834,"y":25.065043392612377}},{"attributes":{"OBJECTID":7285,"LANDMARKID":"6300000002233","LANDMARKCO":"402","LANDMARKNA":"My Phone台灣大哥大-中山\u2500龍江II","LANDMARKAD":"6300004","ADDRESS":"台北市中山區龍江路309號","TEL":"02-25043588","COUNTYNAME":"台北市","TOWNNAME":"中山區","MARKTYPE":"994","Class":"4"},"geometry":{"x":121.54087191787175,"y":25.061217047530146}},{"attributes":{"OBJECTID":7286,"LANDMARKID":"6300000002234","LANDMARKCO":"402","LANDMARKNA":"亞太行動寬頻電信-大直北安加盟服務中心","LANDMARKAD":"6300004","ADDRESS":"台北市中山區北安路520號","TEL":"02-25323708","COUNTYNAME":"台北市","TOWNNAME":"中山區","MARKTYPE":"994","Class":"4"},"geometry":{"x":121.54606624667453,"y":25.079688728763493}},{"attributes":{"OBJECTID":7287,"LANDMARKID":"6300000002235","LANDMARKCO":"402","LANDMARKNA":"亞太行動寬頻電信-台北市","LANDMARKAD":"6300004","ADDRESS":"台北市南京東路二段26號","TEL":" ","COUNTYNAME":"台北市","TOWNNAME":"中山區","MARKTYPE":"994","Class":"4"},"geometry":{"x":121.52911237659747,"y":25.051951291948079}},{"attributes":{"OBJECTID":7288,"LANDMARKID":"6300000002236","LANDMARKCO":"402","LANDMARKNA":"亞太行動寬頻電信-中山長春加盟服務中心","LANDMARKAD":"6300004","ADDRESS":"台北市中山區長春路146號","TEL":"02-25223235","COUNTYNAME":"台北市","TOWNNAME":"中山區","MARKTYPE":"994","Class":"4"},"geometry":{"x":121.53168368723374,"y":25.054726145735767}},{"attributes":{"OBJECTID":7289,"LANDMARKID":"6300000002107","LANDMARKCO":"401","LANDMARKNA":"協和婦女醫院","LANDMARKAD":"6300004","ADDRESS":"台北市中山區松江路85巷5號","TEL":"02-25072222","COUNTYNAME":"台北市","TOWNNAME":"中山區","MARKTYPE":"994","Class":"4"},"geometry":{"x":121.53394656949516,"y":25.050268997058549}},{"attributes":{"OBJECTID":7290,"LANDMARKID":"6300000002108","LANDMARKCO":"401","LANDMARKNA":"財團法人馬偕紀念醫院","LANDMARKAD":"6300004","ADDRESS":"台北市中山區中山北路二段92號","TEL":"02-25433535","COUNTYNAME":"台北市","TOWNNAME":"中山區","MARKTYPE":"994","Class":"4"},"geometry":{"x":121.5225672330904,"y":25.058887128176785}},{"attributes":{"OBJECTID":7291,"LANDMARKID":"6300000002109","LANDMARKCO":"401","LANDMARKNA":"泰安醫院","LANDMARKAD":"6300004","ADDRESS":"台北市中山區民權東路二段92巷2弄2號","TEL":"02-25375633","COUNTYNAME":"台北市","TOWNNAME":"中山區","MARKTYPE":"994","Class":"4"},"geometry":{"x":121.53156857646827,"y":25.061633413642891}},{"attributes":{"OBJECTID":7292,"LANDMARKID":"6300000002110","LANDMARKCO":"401","LANDMARKNA":"福全醫院","LANDMARKAD":"6300004","ADDRESS":"台北市中山區民權東路二段48號","TEL":"02-25630555","COUNTYNAME":"台北市","TOWNNAME":"中山區","MARKTYPE":"994","Class":"4"},"geometry":{"x":121.53052425145319,"y":25.062362268413665}},{"attributes":{"OBJECTID":7293,"LANDMARKID":"6300000002111","LANDMARKCO":"401","LANDMARKNA":"台北市立聯合醫院-林森(中醫)院區(慢性","LANDMARKAD":"6300004","ADDRESS":"台北市中山區林森北路530號","TEL":"02-25916681","COUNTYNAME":"台北市","TOWNNAME":"中山區","MARKTYPE":"994","Class":"4"},"geometry":{"x":121.5256049465771,"y":25.063526411111333}},{"attributes":{"OBJECTID":7294,"LANDMARKID":"6300000001987","LANDMARKCO":"306","LANDMARKNA":"劍南路捷運站-出口1","LANDMARKAD":"6300004","ADDRESS":" ","TEL":" ","COUNTYNAME":"台北市","TOWNNAME":"中山區","MARKTYPE":"993","Class":"306"},"geometry":{"x":121.5552808907231,"y":25.085451097865146}},{"attributes":{"OBJECTID":7295,"LANDMARKID":"6300000001988","LANDMARKCO":"306","LANDMARKNA":"劍南路捷運站-出口2","LANDMARKAD":"6300004","ADDRESS":" ","TEL":" ","COUNTYNAME":"台北市","TOWNNAME":"中山區","MARKTYPE":"993","Class":"306"},"geometry":{"x":121.55514349476611,"y":25.084591667278868}},{"attributes":{"OBJECTID":7296,"LANDMARKID":"6300000001989","LANDMARKCO":"306","LANDMARKNA":"劍南路捷運站-出口3","LANDMARKAD":"6300004","ADDRESS":" ","TEL":" ","COUNTYNAME":"台北市","TOWNNAME":"中山區","MARKTYPE":"993","Class":"306"},"geometry":{"x":121.55591033834659,"y":25.084386575523993}},{"attributes":{"OBJECTID":7297,"LANDMARKID":"6300000001990","LANDMARKCO":"306","LANDMARKNA":"大直捷運站-出口2","LANDMARKAD":"6300004","ADDRESS":" ","TEL":" ","COUNTYNAME":"台北市","TOWNNAME":"中山區","MARKTYPE":"993","Class":"306"},"geometry":{"x":121.54703493633924,"y":25.079681005904146}},{"attributes":{"OBJECTID":7298,"LANDMARKID":"6300000001991","LANDMARKCO":"306","LANDMARKNA":"大直捷運站-出口1","LANDMARKAD":"6300004","ADDRESS":" ","TEL":" ","COUNTYNAME":"台北市","TOWNNAME":"中山區","MARKTYPE":"993","Class":"306"},"geometry":{"x":121.54723665058867,"y":25.080131181184594}},{"attributes":{"OBJECTID":7299,"LANDMARKID":"6300000001992","LANDMARKCO":"306","LANDMARKNA":"大直捷運站-出口3","LANDMARKAD":"6300004","ADDRESS":" ","TEL":" ","COUNTYNAME":"台北市","TOWNNAME":"中山區","MARKTYPE":"993","Class":"306"},"geometry":{"x":121.5471560842563,"y":25.079349438616564}},{"attributes":{"OBJECTID":7300,"LANDMARKID":"6300000003101","LANDMARKCO":"410","LANDMARKNA":"美麗華","LANDMARKAD":"6300004","ADDRESS":"台北市中山區敬業三路20號","TEL":"02-21753456","COUNTYNAME":"台北市","TOWNNAME":"中山區","MARKTYPE":"994","Class":"4"},"geometry":{"x":121.55672623968961,"y":25.082923359585138}},{"attributes":{"OBJECTID":7301,"LANDMARKID":"6300000003190","LANDMARKCO":"507","LANDMARKNA":"圓山遺址","LANDMARKAD":"6300004","ADDRESS":"台北市中山區德惠段一小段160地號","TEL":" ","COUNTYNAME":"台北市","TOWNNAME":"中山區","MARKTYPE":"995","Class":"5"},"geometry":{"x":121.52144311906827,"y":25.074551802014998}},{"attributes":{"OBJECTID":7302,"LANDMARKID":"6300000003191","LANDMARKCO":"507","LANDMARKNA":"前美國駐台北領事館","LANDMARKAD":"6300004","ADDRESS":"台北市中山區中山北路二段18號","TEL":" ","COUNTYNAME":"台北市","TOWNNAME":"中山區","MARKTYPE":"995","Class":"5"},"geometry":{"x":121.52233176344951,"y":25.052756977102046}},{"attributes":{"OBJECTID":7303,"LANDMARKID":"6300000003192","LANDMARKCO":"507","LANDMARKNA":"台北第三高女(中山女中)","LANDMARKAD":"6300004","ADDRESS":"台北市中山區長安東路二段141號","TEL":" ","COUNTYNAME":"台北市","TOWNNAME":"中山區","MARKTYPE":"995","Class":"5"},"geometry":{"x":121.53748058543947,"y":25.048577111844423}},{"attributes":{"OBJECTID":7304,"LANDMARKID":"6300000003193","LANDMARKCO":"507","LANDMARKNA":"中山基督長老教會","LANDMARKAD":"6300004","ADDRESS":"台北市中山區林森北路62號","TEL":" ","COUNTYNAME":"台北市","TOWNNAME":"中山區","MARKTYPE":"995","Class":"5"},"geometry":{"x":121.52434109005202,"y":25.048956123579742}},{"attributes":{"OBJECTID":7305,"LANDMARKID":"6300000003194","LANDMARKCO":"507","LANDMARKNA":"台北市政府衛生局舊址","LANDMARKAD":"6300004","ADDRESS":"台北市中山區長安西路15號","TEL":" ","COUNTYNAME":"台北市","TOWNNAME":"中山區","MARKTYPE":"995","Class":"5"},"geometry":{"x":121.52067924137459,"y":25.050181317260687}},{"attributes":{"OBJECTID":7306,"LANDMARKID":"6300000003195","LANDMARKCO":"507","LANDMARKNA":"圓山別莊","LANDMARKAD":"6300004","ADDRESS":"台北市中山區中山北路三段181號","TEL":" ","COUNTYNAME":"台北市","TOWNNAME":"中山區","MARKTYPE":"995","Class":"5"},"geometry":{"x":121.52461845116396,"y":25.072733224321386}},{"attributes":{"OBJECTID":7307,"LANDMARKID":"6300000003196","LANDMARKCO":"507","LANDMARKNA":"臨濟護國禪寺","LANDMARKAD":"6300004","ADDRESS":"台北市中山區酒泉街五段27號","TEL":" ","COUNTYNAME":"台北市","TOWNNAME":"中山區","MARKTYPE":"995","Class":"5"},"geometry":{"x":121.52084155647485,"y":25.073020707859193}},{"attributes":{"OBJECTID":7308,"LANDMARKID":"6300000003197","LANDMARKCO":"507","LANDMARKNA":"松江詩園","LANDMARKAD":"6300004","ADDRESS":"台北市中山區","TEL":" ","COUNTYNAME":"台北市","TOWNNAME":"中山區","MARKTYPE":"995","Class":"5"},"geometry":{"x":121.53248673911789,"y":25.050344060424852}},{"attributes":{"OBJECTID":7309,"LANDMARKID":"6300000003198","LANDMARKCO":"507","LANDMARKNA":"忠烈祠","LANDMARKAD":"6300004","ADDRESS":"台北市中山區北安路","TEL":" ","COUNTYNAME":"台北市","TOWNNAME":"中山區","MARKTYPE":"995","Class":"5"},"geometry":{"x":121.53222248510362,"y":25.078811767039756}},{"attributes":{"OBJECTID":7310,"LANDMARKID":"6300000003199","LANDMARKCO":"507","LANDMARKNA":"建國啤酒廠","LANDMARKAD":"6300004","ADDRESS":"台北市八德路二段85號","TEL":" ","COUNTYNAME":"台北市","TOWNNAME":"中山區","MARKTYPE":"995","Class":"5"},"geometry":{"x":121.53524015041887,"y":25.046283736586037}},{"attributes":{"OBJECTID":7311,"LANDMARKID":"6300000003200","LANDMARKCO":"507","LANDMARKNA":"蔡瑞月舞蹈研究社","LANDMARKAD":"6300004","ADDRESS":"台北市中山區中山北路二段48巷8號","TEL":" ","COUNTYNAME":"台北市","TOWNNAME":"中山區","MARKTYPE":"995","Class":"5"},"geometry":{"x":121.5219600630913,"y":25.056049512626753}},{"attributes":{"OBJECTID":7312,"LANDMARKID":"6300000003363","LANDMARKCO":"512","LANDMARKNA":"台北市旅行商業同業公會","LANDMARKAD":"6300004","ADDRESS":"台北市中山區四平街20號6樓","TEL":"02-25312191","COUNTYNAME":"台北市","TOWNNAME":"中山區","MARKTYPE":"995","Class":"5"},"geometry":{"x":121.53103893738809,"y":25.053571722357592}},{"attributes":{"OBJECTID":7313,"LANDMARKID":"6300000003364","LANDMARKCO":"512","LANDMARKNA":"中華民國旅行業品質保障協會","LANDMARKAD":"6300004","ADDRESS":"台北市中山區長安東路二路78號11樓","TEL":"02-25068185","COUNTYNAME":"台北市","TOWNNAME":"中山區","MARKTYPE":"995","Class":"5"},"geometry":{"x":121.53381561851981,"y":25.048293091437529}},{"attributes":{"OBJECTID":7314,"LANDMARKID":"6300000003365","LANDMARKCO":"512","LANDMARKNA":"日本觀光振興會","LANDMARKAD":"6300004","ADDRESS":"台北市南京東路二段137號13樓","TEL":"02-25064231","COUNTYNAME":"台北市","TOWNNAME":"中山區","MARKTYPE":"995","Class":"5"},"geometry":{"x":121.53340367764676,"y":25.052224763126695}},{"attributes":{"OBJECTID":7315,"LANDMARKID":"6300000002931","LANDMARKCO":"408","LANDMARKNA":"郵局-台北中山郵局","LANDMARKAD":"6300004","ADDRESS":"台北市中山區中山北路1段142號","TEL":"(02)2542-6403","COUNTYNAME":"台北市","TOWNNAME":"中山區","MARKTYPE":"994","Class":"4"},"geometry":{"x":121.52214348186965,"y":25.051495457923238}},{"attributes":{"OBJECTID":7316,"LANDMARKID":"6300000002932","LANDMARKCO":"408","LANDMARKNA":"郵局-台北雙連郵局","LANDMARKAD":"6300004","ADDRESS":"台北市中山區中山北路2段96號","TEL":"(02)2541-4332","COUNTYNAME":"台北市","TOWNNAME":"中山區","MARKTYPE":"994","Class":"4"},"geometry":{"x":121.52267147350426,"y":25.059491323217674}},{"attributes":{"OBJECTID":7317,"LANDMARKID":"6300000002933","LANDMARKCO":"408","LANDMARKNA":"郵局-台北建北郵局","LANDMARKAD":"6300004","ADDRESS":"台北市中山區建國北路2段33號","TEL":"(02)2502-0944","COUNTYNAME":"台北市","TOWNNAME":"中山區","MARKTYPE":"994","Class":"4"},"geometry":{"x":121.53724658046433,"y":25.055040141404429}},{"attributes":{"OBJECTID":7318,"LANDMARKID":"6300000002934","LANDMARKCO":"408","LANDMARKNA":"郵局-台北中崙郵局","LANDMARKAD":"6300004","ADDRESS":"台北市中山區復興北路40號","TEL":"(02)2771-1401","COUNTYNAME":"台北市","TOWNNAME":"中山區","MARKTYPE":"994","Class":"4"},"geometry":{"x":121.54377205412136,"y":25.049334155457135}},{"attributes":{"OBJECTID":7319,"LANDMARKID":"6300000002935","LANDMARKCO":"408","LANDMARKNA":"郵局-台北大直郵局","LANDMARKAD":"6300004","ADDRESS":"台北市中山區北安路518巷14弄18號","TEL":"(02)2533-4543","COUNTYNAME":"台北市","TOWNNAME":"中山區","MARKTYPE":"994","Class":"4"},"geometry":{"x":121.54547556000422,"y":25.079034056304717}},{"attributes":{"OBJECTID":7320,"LANDMARKID":"6300000002936","LANDMARKCO":"408","LANDMARKNA":"郵局-台北長安郵局","LANDMARKAD":"6300004","ADDRESS":"台北市中山區長安東路2段97號","TEL":"(02)2506-8771","COUNTYNAME":"台北市","TOWNNAME":"中山區","MARKTYPE":"994","Class":"4"},"geometry":{"x":121.53487506038249,"y":25.048519954087602}},{"attributes":{"OBJECTID":7321,"LANDMARKID":"6300000002937","LANDMARKCO":"408","LANDMARKNA":"郵局-台北圓山郵局","LANDMARKAD":"6300004","ADDRESS":"台北市中山區林森北路573號","TEL":"(02)2592-1606","COUNTYNAME":"台北市","TOWNNAME":"中山區","MARKTYPE":"994","Class":"4"},"geometry":{"x":121.5258072617677,"y":25.065031235643946}},{"attributes":{"OBJECTID":7322,"LANDMARKID":"6300000002938","LANDMARKCO":"408","LANDMARKNA":"郵局-台北長春路郵局","LANDMARKAD":"6300004","ADDRESS":"台北市中山區長春路129號之2","TEL":"(02)2521-6967","COUNTYNAME":"台北市","TOWNNAME":"中山區","MARKTYPE":"994","Class":"4"},"geometry":{"x":121.53054585829305,"y":25.054950131033962}},{"attributes":{"OBJECTID":7323,"LANDMARKID":"6300000002939","LANDMARKCO":"408","LANDMARKNA":"郵局-台北民權郵局","LANDMARKAD":"6300004","ADDRESS":"台北市中山區民權西路22號","TEL":"(02)2571-6241","COUNTYNAME":"台北市","TOWNNAME":"中山區","MARKTYPE":"994","Class":"4"},"geometry":{"x":121.52169486746527,"y":25.062594107985234}},{"attributes":{"OBJECTID":7324,"LANDMARKID":"6300000002940","LANDMARKCO":"408","LANDMARKNA":"郵局-台北北安郵局","LANDMARKAD":"6300004","ADDRESS":"台北市中山區北安路630巷10號","TEL":"(02)2532-9100","COUNTYNAME":"台北市","TOWNNAME":"中山區","MARKTYPE":"994","Class":"4"},"geometry":{"x":121.54977791874498,"y":25.082650827074634}},{"attributes":{"OBJECTID":7325,"LANDMARKID":"6300000002941","LANDMARKCO":"408","LANDMARKNA":"郵局-台北興安郵局","LANDMARKAD":"6300004","ADDRESS":"台北市中山區復興北路210號","TEL":"(02)2504-3662","COUNTYNAME":"台北市","TOWNNAME":"中山區","MARKTYPE":"994","Class":"4"},"geometry":{"x":121.54390644330546,"y":25.056375032351188}},{"attributes":{"OBJECTID":7326,"LANDMARKID":"6300000002942","LANDMARKCO":"408","LANDMARKNA":"郵局-台北龍江路郵局","LANDMARKAD":"6300004","ADDRESS":"台北市中山區民族東路512巷23號","TEL":"(02)2501-6754","COUNTYNAME":"台北市","TOWNNAME":"中山區","MARKTYPE":"994","Class":"4"},"geometry":{"x":121.54210617062242,"y":25.066580891848901}},{"attributes":{"OBJECTID":7327,"LANDMARKID":"6300000002943","LANDMARKCO":"408","LANDMARKNA":"郵局-台北松江路郵局","LANDMARKAD":"6300004","ADDRESS":"台北市中山區松江路364號","TEL":"(02)2521-6681","COUNTYNAME":"台北市","TOWNNAME":"中山區","MARKTYPE":"994","Class":"4"},"geometry":{"x":121.53297941814388,"y":25.06213239915294}},{"attributes":{"OBJECTID":7328,"LANDMARKID":"6300000003099","LANDMARKCO":"409","LANDMARKNA":"臺北魚市","LANDMARKAD":"6300004","ADDRESS":"台北市民族東路410巷2弄18號","TEL":"02-25037165　","COUNTYNAME":"台北市","TOWNNAME":"中山區","MARKTYPE":"994","Class":"4"},"geometry":{"x":121.53689732739288,"y":25.066724932509448}},{"attributes":{"OBJECTID":7329,"LANDMARKID":"6300000003100","LANDMARKCO":"409","LANDMARKNA":"中山區農會","LANDMARKAD":"6300004","ADDRESS":"台北市吉林路144巷14號","TEL":"02-2541023","COUNTYNAME":"台北市","TOWNNAME":"中山區","MARKTYPE":"994","Class":"4"},"geometry":{"x":121.52958134914378,"y":25.055977159179474}},{"attributes":{"OBJECTID":7330,"LANDMARKID":"6300000002481","LANDMARKCO":"406","LANDMARKNA":"大直公園","LANDMARKAD":"6300004","ADDRESS":"台北市中山區","TEL":" ","COUNTYNAME":"台北市","TOWNNAME":"中山區","MARKTYPE":"994","Class":"4"},"geometry":{"x":121.54701641830266,"y":25.082698306592253}},{"attributes":{"OBJECTID":7331,"LANDMARKID":"6300000002482","LANDMARKCO":"406","LANDMARKNA":"長壽公園","LANDMARKAD":"6300004","ADDRESS":"台北市中山區","TEL":" ","COUNTYNAME":"台北市","TOWNNAME":"中山區","MARKTYPE":"994","Class":"4"},"geometry":{"x":121.52978527992192,"y":25.082216417576337}},{"attributes":{"OBJECTID":7332,"LANDMARKID":"6300000002483","LANDMARKCO":"406","LANDMARKNA":"培英公園","LANDMARKAD":"6300004","ADDRESS":"台北市中山區","TEL":" ","COUNTYNAME":"台北市","TOWNNAME":"中山區","MARKTYPE":"994","Class":"4"},"geometry":{"x":121.54499426372404,"y":25.082026622814201}},{"attributes":{"OBJECTID":7333,"LANDMARKID":"6300000002484","LANDMARKCO":"406","LANDMARKNA":"永直公園","LANDMARKAD":"6300004","ADDRESS":"台北市中山區","TEL":" ","COUNTYNAME":"台北市","TOWNNAME":"中山區","MARKTYPE":"994","Class":"4"},"geometry":{"x":121.55062541315112,"y":25.081488344453433}},{"attributes":{"OBJECTID":7334,"LANDMARKID":"6300000002485","LANDMARKCO":"406","LANDMARKNA":"劍潭公園","LANDMARKAD":"6300004","ADDRESS":"台北市中山區","TEL":" ","COUNTYNAME":"台北市","TOWNNAME":"中山區","MARKTYPE":"994","Class":"4"},"geometry":{"x":121.52512732910951,"y":25.07954412361784}},{"attributes":{"OBJECTID":7335,"LANDMARKID":"6300000002486","LANDMARKCO":"406","LANDMARKNA":"明水公園","LANDMARKAD":"6300004","ADDRESS":"台北市中山區","TEL":" ","COUNTYNAME":"台北市","TOWNNAME":"中山區","MARKTYPE":"994","Class":"4"},"geometry":{"x":121.54839266424284,"y":25.079150440929645}},{"attributes":{"OBJECTID":7336,"LANDMARKID":"6300000002487","LANDMARKCO":"406","LANDMARKNA":"永安公園","LANDMARKAD":"6300004","ADDRESS":"台北市中山區","TEL":" ","COUNTYNAME":"台北市","TOWNNAME":"中山區","MARKTYPE":"994","Class":"4"},"geometry":{"x":121.54533508466051,"y":25.079069388187513}},{"attributes":{"OBJECTID":7337,"LANDMARKID":"6300000002488","LANDMARKCO":"406","LANDMARKNA":"北安公園","LANDMARKAD":"6300004","ADDRESS":"台北市中山區","TEL":" ","COUNTYNAME":"台北市","TOWNNAME":"中山區","MARKTYPE":"994","Class":"4"},"geometry":{"x":121.52693049470398,"y":25.077126066650834}},{"attributes":{"OBJECTID":7338,"LANDMARKID":"6300000002489","LANDMARKCO":"406","LANDMARKNA":"美堤河濱公園","LANDMARKAD":"6300004","ADDRESS":"台北市中山區","TEL":" ","COUNTYNAME":"台北市","TOWNNAME":"中山區","MARKTYPE":"994","Class":"4"},"geometry":{"x":121.55873478081745,"y":25.074920801362314}},{"attributes":{"OBJECTID":7339,"LANDMARKID":"6300000002490","LANDMARKCO":"406","LANDMARKNA":"三號公園","LANDMARKAD":"6300004","ADDRESS":"台北市中山區","TEL":" ","COUNTYNAME":"台北市","TOWNNAME":"中山區","MARKTYPE":"994","Class":"4"},"geometry":{"x":121.5310396664084,"y":25.074970263214116}},{"attributes":{"OBJECTID":7340,"LANDMARKID":"6300000002491","LANDMARKCO":"406","LANDMARKNA":"大佳河濱公園","LANDMARKAD":"6300004","ADDRESS":"台北市中山區","TEL":" ","COUNTYNAME":"台北市","TOWNNAME":"中山區","MARKTYPE":"994","Class":"4"},"geometry":{"x":121.53771451096961,"y":25.073723139577002}},{"attributes":{"OBJECTID":7341,"LANDMARKID":"6300000002492","LANDMARKCO":"406","LANDMARKNA":"河濱公園","LANDMARKAD":"6300004","ADDRESS":"台北市中山區","TEL":" ","COUNTYNAME":"台北市","TOWNNAME":"中山區","MARKTYPE":"994","Class":"4"},"geometry":{"x":121.52680361015952,"y":25.073813860192598}},{"attributes":{"OBJECTID":7342,"LANDMARKID":"6300000002493","LANDMARKCO":"406","LANDMARKNA":"中山一號公園","LANDMARKAD":"6300004","ADDRESS":"台北市中山區","TEL":" ","COUNTYNAME":"台北市","TOWNNAME":"中山區","MARKTYPE":"994","Class":"4"},"geometry":{"x":121.52182783650353,"y":25.072467605388368}},{"attributes":{"OBJECTID":7343,"LANDMARKID":"6300000002494","LANDMARKCO":"406","LANDMARKNA":"中山美術公園","LANDMARKAD":"6300004","ADDRESS":"台北市中山區","TEL":" ","COUNTYNAME":"台北市","TOWNNAME":"中山區","MARKTYPE":"994","Class":"4"},"geometry":{"x":121.52449622903237,"y":25.070278005384438}},{"attributes":{"OBJECTID":7344,"LANDMARKID":"6300000002495","LANDMARKCO":"406","LANDMARKNA":"民族公園","LANDMARKAD":"6300004","ADDRESS":"台北市中山區","TEL":" ","COUNTYNAME":"台北市","TOWNNAME":"中山區","MARKTYPE":"994","Class":"4"},"geometry":{"x":121.52685864314371,"y":25.069456216372448}},{"attributes":{"OBJECTID":7345,"LANDMARKID":"6300000002496","LANDMARKCO":"406","LANDMARKNA":"新生公園","LANDMARKAD":"6300004","ADDRESS":"台北市中山區","TEL":" ","COUNTYNAME":"台北市","TOWNNAME":"中山區","MARKTYPE":"994","Class":"4"},"geometry":{"x":121.53193202111329,"y":25.069304718625443}},{"attributes":{"OBJECTID":7346,"LANDMARKID":"6300000002497","LANDMARKCO":"406","LANDMARKNA":"德惠公園","LANDMARKAD":"6300004","ADDRESS":"台北市中山區","TEL":" ","COUNTYNAME":"台北市","TOWNNAME":"中山區","MARKTYPE":"994","Class":"4"},"geometry":{"x":121.53164316041138,"y":25.067539266631357}},{"attributes":{"OBJECTID":7347,"LANDMARKID":"6300000002498","LANDMARKCO":"406","LANDMARKNA":"雙城兒童公園","LANDMARKAD":"6300004","ADDRESS":"台北市中山區","TEL":" ","COUNTYNAME":"台北市","TOWNNAME":"中山區","MARKTYPE":"994","Class":"4"},"geometry":{"x":121.52404460207848,"y":25.06729947170534}},{"attributes":{"OBJECTID":7348,"LANDMARKID":"6300000002499","LANDMARKCO":"406","LANDMARKNA":"雙城公園","LANDMARKAD":"6300004","ADDRESS":"台北市中山區","TEL":" ","COUNTYNAME":"台北市","TOWNNAME":"中山區","MARKTYPE":"994","Class":"4"},"geometry":{"x":121.52502206431141,"y":25.067307585140419}},{"attributes":{"OBJECTID":7349,"LANDMARKID":"6300000002500","LANDMARKCO":"406","LANDMARKNA":"新祿公園","LANDMARKAD":"6300004","ADDRESS":"台北市中山區","TEL":" ","COUNTYNAME":"台北市","TOWNNAME":"中山區","MARKTYPE":"994","Class":"4"},"geometry":{"x":121.52970737882278,"y":25.067185849123753}},{"attributes":{"OBJECTID":7350,"LANDMARKID":"6300000002501","LANDMARKCO":"406","LANDMARKNA":"下埤公園","LANDMARKAD":"6300004","ADDRESS":"台北市中山區","TEL":" ","COUNTYNAME":"台北市","TOWNNAME":"中山區","MARKTYPE":"994","Class":"4"},"geometry":{"x":121.54243713286637,"y":25.067122114808953}},{"attributes":{"OBJECTID":7351,"LANDMARKID":"6300000002502","LANDMARKCO":"406","LANDMARKNA":"農安公園","LANDMARKAD":"6300004","ADDRESS":"台北市中山區","TEL":" ","COUNTYNAME":"台北市","TOWNNAME":"中山區","MARKTYPE":"994","Class":"4"},"geometry":{"x":121.53540315214779,"y":25.065400393771494}},{"attributes":{"OBJECTID":7352,"LANDMARKID":"6300000002503","LANDMARKCO":"406","LANDMARKNA":"新喜公園","LANDMARKAD":"6300004","ADDRESS":"台北市中山區","TEL":" ","COUNTYNAME":"台北市","TOWNNAME":"中山區","MARKTYPE":"994","Class":"4"},"geometry":{"x":121.53227973292049,"y":25.065391542726147}},{"attributes":{"OBJECTID":7353,"LANDMARKID":"6300000002504","LANDMARKCO":"406","LANDMARKNA":"撫順公園","LANDMARKAD":"6300004","ADDRESS":"台北市中山區","TEL":" ","COUNTYNAME":"台北市","TOWNNAME":"中山區","MARKTYPE":"994","Class":"4"},"geometry":{"x":121.52194909261041,"y":25.064328412057119}},{"attributes":{"OBJECTID":7354,"LANDMARKID":"6300000002505","LANDMARKCO":"406","LANDMARKNA":"晴光公園","LANDMARKAD":"6300004","ADDRESS":"台北市中山區","TEL":" ","COUNTYNAME":"台北市","TOWNNAME":"中山區","MARKTYPE":"994","Class":"4"},"geometry":{"x":121.5241837015151,"y":25.063908885790443}},{"attributes":{"OBJECTID":7355,"LANDMARKID":"6300000002506","LANDMARKCO":"406","LANDMARKNA":"榮星公園","LANDMARKAD":"6300004","ADDRESS":"台北市中山區","TEL":" ","COUNTYNAME":"台北市","TOWNNAME":"中山區","MARKTYPE":"994","Class":"4"},"geometry":{"x":121.5391055514546,"y":25.063423201819266}},{"attributes":{"OBJECTID":7356,"LANDMARKID":"6300000002507","LANDMARKCO":"406","LANDMARKNA":"新壽公園","LANDMARKAD":"6300004","ADDRESS":"台北市中山區","TEL":" ","COUNTYNAME":"台北市","TOWNNAME":"中山區","MARKTYPE":"994","Class":"4"},"geometry":{"x":121.52999161721038,"y":25.063314213644741}},{"attributes":{"OBJECTID":7357,"LANDMARKID":"6300000002508","LANDMARKCO":"406","LANDMARKNA":"永靜公園","LANDMARKAD":"6300004","ADDRESS":"台北市中山區","TEL":" ","COUNTYNAME":"台北市","TOWNNAME":"中山區","MARKTYPE":"994","Class":"4"},"geometry":{"x":121.52178088612351,"y":25.061570605420513}},{"attributes":{"OBJECTID":7358,"LANDMARKID":"6300000002509","LANDMARKCO":"406","LANDMARKNA":"新興公園","LANDMARKAD":"6300004","ADDRESS":"台北市中山區","TEL":" ","COUNTYNAME":"台北市","TOWNNAME":"中山區","MARKTYPE":"994","Class":"4"},"geometry":{"x":121.52471044424122,"y":25.06151988654101}},{"attributes":{"OBJECTID":7359,"LANDMARKID":"6300000002510","LANDMARKCO":"406","LANDMARKNA":"江寧公園","LANDMARKAD":"6300004","ADDRESS":"台北市中山區","TEL":" ","COUNTYNAME":"台北市","TOWNNAME":"中山區","MARKTYPE":"994","Class":"4"},"geometry":{"x":121.53949969935788,"y":25.061274550934705}},{"attributes":{"OBJECTID":7360,"LANDMARKID":"6300000002511","LANDMARKCO":"406","LANDMARKNA":"錦州公園","LANDMARKAD":"6300004","ADDRESS":"台北市中山區","TEL":" ","COUNTYNAME":"台北市","TOWNNAME":"中山區","MARKTYPE":"994","Class":"4"},"geometry":{"x":121.52938948871069,"y":25.060595311942265}},{"attributes":{"OBJECTID":7361,"LANDMARKID":"6300000002512","LANDMARKCO":"406","LANDMARKNA":"錦北公園","LANDMARKAD":"6300004","ADDRESS":"台北市中山區","TEL":" ","COUNTYNAME":"台北市","TOWNNAME":"中山區","MARKTYPE":"994","Class":"4"},"geometry":{"x":121.53544991934176,"y":25.060488621020241}},{"attributes":{"OBJECTID":7362,"LANDMARKID":"6300000002513","LANDMARKCO":"406","LANDMARKNA":"龍江公園","LANDMARKAD":"6300004","ADDRESS":"台北市中山區","TEL":" ","COUNTYNAME":"台北市","TOWNNAME":"中山區","MARKTYPE":"994","Class":"4"},"geometry":{"x":121.54219336260704,"y":25.059811871687074}},{"attributes":{"OBJECTID":7363,"LANDMARKID":"6300000002514","LANDMARKCO":"406","LANDMARKNA":"松錦公園","LANDMARKAD":"6300004","ADDRESS":"台北市中山區","TEL":" ","COUNTYNAME":"台北市","TOWNNAME":"中山區","MARKTYPE":"994","Class":"4"},"geometry":{"x":121.53244923008769,"y":25.05950219823276}},{"attributes":{"OBJECTID":7364,"LANDMARKID":"6300000002515","LANDMARKCO":"406","LANDMARKNA":"民享公園","LANDMARKAD":"6300004","ADDRESS":"台北市中山區","TEL":" ","COUNTYNAME":"台北市","TOWNNAME":"中山區","MARKTYPE":"994","Class":"4"},"geometry":{"x":121.52108266310616,"y":25.059251337780818}},{"attributes":{"OBJECTID":7365,"LANDMARKID":"6300000002516","LANDMARKCO":"406","LANDMARKNA":"永盛公園","LANDMARKAD":"6300004","ADDRESS":"台北市中山區","TEL":" ","COUNTYNAME":"台北市","TOWNNAME":"中山區","MARKTYPE":"994","Class":"4"},"geometry":{"x":121.52483462781305,"y":25.058947809692675}},{"attributes":{"OBJECTID":7366,"LANDMARKID":"6300000002517","LANDMARKCO":"406","LANDMARKNA":"合江公園","LANDMARKAD":"6300004","ADDRESS":"台北市中山區","TEL":" ","COUNTYNAME":"台北市","TOWNNAME":"中山區","MARKTYPE":"994","Class":"4"},"geometry":{"x":121.5396068034749,"y":25.058605738825715}},{"attributes":{"OBJECTID":7367,"LANDMARKID":"6300000002518","LANDMARKCO":"406","LANDMARKNA":"中安公園","LANDMARKAD":"6300004","ADDRESS":"台北市中山區","TEL":" ","COUNTYNAME":"台北市","TOWNNAME":"中山區","MARKTYPE":"994","Class":"4"},"geometry":{"x":121.52419391939776,"y":25.056467070290797}},{"attributes":{"OBJECTID":7368,"LANDMARKID":"6300000002519","LANDMARKCO":"406","LANDMARKNA":"中吉公園","LANDMARKAD":"6300004","ADDRESS":"台北市中山區","TEL":" ","COUNTYNAME":"台北市","TOWNNAME":"中山區","MARKTYPE":"994","Class":"4"},"geometry":{"x":121.53187175540707,"y":25.056195183432678}},{"attributes":{"OBJECTID":7369,"LANDMARKID":"6300000002520","LANDMARKCO":"406","LANDMARKNA":"中原公園","LANDMARKAD":"6300004","ADDRESS":"台北市中山區","TEL":" ","COUNTYNAME":"台北市","TOWNNAME":"中山區","MARKTYPE":"994","Class":"4"},"geometry":{"x":121.52850246024397,"y":25.055869362153061}},{"attributes":{"OBJECTID":7370,"LANDMARKID":"6300000002521","LANDMARKCO":"406","LANDMARKNA":"興安公園","LANDMARKAD":"6300004","ADDRESS":"台北市中山區","TEL":" ","COUNTYNAME":"台北市","TOWNNAME":"中山區","MARKTYPE":"994","Class":"4"},"geometry":{"x":121.54175267293316,"y":25.055714321942766}},{"attributes":{"OBJECTID":7371,"LANDMARKID":"6300000002522","LANDMARKCO":"406","LANDMARKNA":"朱昌公園","LANDMARKAD":"6300004","ADDRESS":"台北市中山區","TEL":" ","COUNTYNAME":"台北市","TOWNNAME":"中山區","MARKTYPE":"994","Class":"4"},"geometry":{"x":121.53886901927088,"y":25.055429080555339}},{"attributes":{"OBJECTID":7372,"LANDMARKID":"6300000002523","LANDMARKCO":"406","LANDMARKNA":"復華公園","LANDMARKAD":"6300004","ADDRESS":"台北市中山區","TEL":" ","COUNTYNAME":"台北市","TOWNNAME":"中山區","MARKTYPE":"994","Class":"4"},"geometry":{"x":121.53993425964266,"y":25.053624630699566}},{"attributes":{"OBJECTID":7373,"LANDMARKID":"6300000002524","LANDMARKCO":"406","LANDMARKNA":"遼寧公園","LANDMARKAD":"6300004","ADDRESS":"台北市中山區","TEL":" ","COUNTYNAME":"台北市","TOWNNAME":"中山區","MARKTYPE":"994","Class":"4"},"geometry":{"x":121.54242850412227,"y":25.053597816023132}},{"attributes":{"OBJECTID":7374,"LANDMARKID":"6300000002525","LANDMARKCO":"406","LANDMARKNA":"一江公園","LANDMARKAD":"6300004","ADDRESS":"台北市中山區","TEL":" ","COUNTYNAME":"台北市","TOWNNAME":"中山區","MARKTYPE":"994","Class":"4"},"geometry":{"x":121.53131530676832,"y":25.053290532579059}},{"attributes":{"OBJECTID":7375,"LANDMARKID":"6300000002526","LANDMARKCO":"406","LANDMARKNA":"興國公園","LANDMARKAD":"6300004","ADDRESS":"台北市中山區","TEL":" ","COUNTYNAME":"台北市","TOWNNAME":"中山區","MARKTYPE":"994","Class":"4"},"geometry":{"x":121.54177205211367,"y":25.053197614765637}},{"attributes":{"OBJECTID":7376,"LANDMARKID":"6300000002527","LANDMARKCO":"406","LANDMARKNA":"仁德公園","LANDMARKAD":"6300004","ADDRESS":"台北市中山區","TEL":" ","COUNTYNAME":"台北市","TOWNNAME":"中山區","MARKTYPE":"994","Class":"4"},"geometry":{"x":121.52858023097812,"y":25.053209735144947}},{"attributes":{"OBJECTID":7377,"LANDMARKID":"6300000002528","LANDMARKCO":"406","LANDMARKNA":"四平公園","LANDMARKAD":"6300004","ADDRESS":"台北市中山區","TEL":" ","COUNTYNAME":"台北市","TOWNNAME":"中山區","MARKTYPE":"994","Class":"4"},"geometry":{"x":121.53443281325825,"y":25.053092856218825}},{"attributes":{"OBJECTID":7378,"LANDMARKID":"6300000002529","LANDMARKCO":"406","LANDMARKNA":"十五號公園","LANDMARKAD":"6300004","ADDRESS":"台北市中山區","TEL":" ","COUNTYNAME":"台北市","TOWNNAME":"中山區","MARKTYPE":"994","Class":"4"},"geometry":{"x":121.52492423719335,"y":25.053037831200879}},{"attributes":{"OBJECTID":7379,"LANDMARKID":"6300000002530","LANDMARKCO":"406","LANDMARKNA":"十四號公園","LANDMARKAD":"6300004","ADDRESS":"台北市中山區","TEL":" ","COUNTYNAME":"台北市","TOWNNAME":"中山區","MARKTYPE":"994","Class":"4"},"geometry":{"x":121.52651151486099,"y":25.053019056508113}},{"attributes":{"OBJECTID":7380,"LANDMARKID":"6300000002531","LANDMARKCO":"406","LANDMARKNA":"吉林公園","LANDMARKAD":"6300004","ADDRESS":"台北市中山區","TEL":" ","COUNTYNAME":"台北市","TOWNNAME":"中山區","MARKTYPE":"994","Class":"4"},"geometry":{"x":121.52908692490499,"y":25.050808450403657}},{"attributes":{"OBJECTID":7381,"LANDMARKID":"6300000002532","LANDMARKCO":"406","LANDMARKNA":"伊通公園","LANDMARKAD":"6300004","ADDRESS":"台北市中山區","TEL":" ","COUNTYNAME":"台北市","TOWNNAME":"中山區","MARKTYPE":"994","Class":"4"},"geometry":{"x":121.53472074263405,"y":25.050133068091331}},{"attributes":{"OBJECTID":7382,"LANDMARKID":"6300000002533","LANDMARKCO":"406","LANDMARKNA":"朱崙公園","LANDMARKAD":"6300004","ADDRESS":"台北市中山區","TEL":" ","COUNTYNAME":"台北市","TOWNNAME":"中山區","MARKTYPE":"994","Class":"4"},"geometry":{"x":121.54172291492979,"y":25.049303654144008}},{"attributes":{"OBJECTID":7383,"LANDMARKID":"6300000002534","LANDMARKCO":"406","LANDMARKNA":"中山三十三號公園","LANDMARKAD":"6300004","ADDRESS":"台北市中山區","TEL":" ","COUNTYNAME":"台北市","TOWNNAME":"中山區","MARKTYPE":"994","Class":"4"},"geometry":{"x":121.52336065094021,"y":25.048270662689173}},{"attributes":{"OBJECTID":7384,"LANDMARKID":"6300000002535","LANDMARKCO":"406","LANDMARKNA":"興雅公園","LANDMARKAD":"6300004","ADDRESS":"台北市中山區","TEL":" ","COUNTYNAME":"台北市","TOWNNAME":"中山區","MARKTYPE":"994","Class":"4"},"geometry":{"x":121.53178280364118,"y":25.047355097062983}},{"attributes":{"OBJECTID":7385,"LANDMARKID":"6300000002536","LANDMARKCO":"406","LANDMARKNA":"建興公園","LANDMARKAD":"6300004","ADDRESS":"台北市中山區","TEL":" ","COUNTYNAME":"台北市","TOWNNAME":"中山區","MARKTYPE":"994","Class":"4"},"geometry":{"x":121.53820898096185,"y":25.047140417571324}},{"attributes":{"OBJECTID":7386,"LANDMARKID":"6300000002537","LANDMARKCO":"406","LANDMARKNA":"中山足球場","LANDMARKAD":"6300004","ADDRESS":"台北市中山區玉門街1號","TEL":" ","COUNTYNAME":"台北市","TOWNNAME":"中山區","MARKTYPE":"994","Class":"4"},"geometry":{"x":121.52161665911883,"y":25.069475203369027}},{"attributes":{"OBJECTID":7387,"LANDMARKID":"6300000002538","LANDMARKCO":"406","LANDMARKNA":"中山二號公園","LANDMARKAD":"6300004","ADDRESS":"台北市中山區","TEL":" ","COUNTYNAME":"台北市","TOWNNAME":"中山區","MARKTYPE":"994","Class":"4"},"geometry":{"x":121.52437359083295,"y":25.070886798474216}},{"attributes":{"OBJECTID":7388,"LANDMARKID":"6300000002919","LANDMARKCO":"407","LANDMARKNA":"Coach專賣店","LANDMARKAD":"6300004","ADDRESS":"台北市中山區中山北路2段45號1樓之2","TEL":"02-25683518","COUNTYNAME":"台北市","TOWNNAME":"中山區","MARKTYPE":"994","Class":"4"},"geometry":{"x":121.52289983576217,"y":25.054624695293807}},{"attributes":{"OBJECTID":7389,"LANDMARKID":"6300000002920","LANDMARKCO":"407","LANDMARKNA":"美麗華","LANDMARKAD":"6300004","ADDRESS":"台北市中山區敬業三路20號","TEL":"02-21753456","COUNTYNAME":"台北市","TOWNNAME":"中山區","MARKTYPE":"994","Class":"4"},"geometry":{"x":121.55672623986112,"y":25.082923397502121}},{"attributes":{"OBJECTID":7390,"LANDMARKID":"6300000002921","LANDMARKCO":"407","LANDMARKNA":"欣欣百貨","LANDMARKAD":"6300004","ADDRESS":"台北市林森北路247號","TEL":"02-25212211","COUNTYNAME":"台北市","TOWNNAME":"中山區","MARKTYPE":"994","Class":"4"},"geometry":{"x":121.52556990945807,"y":25.054129274509997}},{"attributes":{"OBJECTID":7391,"LANDMARKID":"6300000002922","LANDMARKCO":"407","LANDMARKNA":"新光三越","LANDMARKAD":"6300004","ADDRESS":"台北市中山區南京西路12號","TEL":"2568-286","COUNTYNAME":"台北市","TOWNNAME":"中山區","MARKTYPE":"994","Class":"4"},"geometry":{"x":121.52125878298003,"y":25.052320982511485}},{"attributes":{"OBJECTID":7392,"LANDMARKID":"6300000002923","LANDMARKCO":"407","LANDMARKNA":"新光三越","LANDMARKAD":"6300004","ADDRESS":"台北市中山區南京西路14號","TEL":"2564-1111","COUNTYNAME":"台北市","TOWNNAME":"中山區","MARKTYPE":"994","Class":"4"},"geometry":{"x":121.52067803406401,"y":25.052428880867978}},{"attributes":{"OBJECTID":7393,"LANDMARKID":"6300000002924","LANDMARKCO":"407","LANDMARKNA":"新光三越","LANDMARKAD":"6300004","ADDRESS":"台北市中山區南京西路15號","TEL":"2564-1111","COUNTYNAME":"台北市","TOWNNAME":"中山區","MARKTYPE":"994","Class":"4"},"geometry":{"x":121.52098267737928,"y":25.052670506334135}},{"attributes":{"OBJECTID":7394,"LANDMARKID":"6300000002925","LANDMARKCO":"407","LANDMARKNA":"誠品Eslite","LANDMARKAD":"6300004","ADDRESS":"台北市大直街70號","TEL":"02-8509-6566","COUNTYNAME":"台北市","TOWNNAME":"中山區","MARKTYPE":"994","Class":"4"},"geometry":{"x":121.54623939830894,"y":25.083580799066567}},{"attributes":{"OBJECTID":7395,"LANDMARKID":"6300000002926","LANDMARKCO":"407","LANDMARKNA":"誠品Eslite","LANDMARKAD":"6300004","ADDRESS":"台北市中山北路二段18號","TEL":"02-2511-7476","COUNTYNAME":"台北市","TOWNNAME":"中山區","MARKTYPE":"994","Class":"4"},"geometry":{"x":121.52227005120199,"y":25.053242197702573}},{"attributes":{"OBJECTID":7396,"LANDMARKID":"6300000002927","LANDMARKCO":"407","LANDMARKNA":"誠品Eslite","LANDMARKAD":"6300004","ADDRESS":"臺北市中山區敬業三路20號","TEL":"02-2175-3616","COUNTYNAME":"台北市","TOWNNAME":"中山區","MARKTYPE":"994","Class":"4"},"geometry":{"x":121.55672623986112,"y":25.082923397502121}},{"attributes":{"OBJECTID":7397,"LANDMARKID":"6300000002928","LANDMARKCO":"407","LANDMARKNA":"LV專賣店","LANDMARKAD":"6300004","ADDRESS":"台北市中山區中山北路2段47號3樓","TEL":"02-25626118","COUNTYNAME":"台北市","TOWNNAME":"中山區","MARKTYPE":"994","Class":"4"},"geometry":{"x":121.52302443148096,"y":25.05450760936192}},{"attributes":{"OBJECTID":7398,"LANDMARKID":"6300000002929","LANDMARKCO":"407","LANDMARKNA":"Gucci專賣店","LANDMARKAD":"6300004","ADDRESS":"台北市中山區中山北路2段49號之3","TEL":"02-25643234","COUNTYNAME":"台北市","TOWNNAME":"中山區","MARKTYPE":"994","Class":"4"},"geometry":{"x":121.52291246061603,"y":25.05463479298357}},{"attributes":{"OBJECTID":7399,"LANDMARKID":"6300000002930","LANDMARKCO":"407","LANDMARKNA":"Coach專賣店","LANDMARKAD":"6300004","ADDRESS":"台北市中山區南京西路12號1樓","TEL":"02-25682868","COUNTYNAME":"台北市","TOWNNAME":"中山區","MARKTYPE":"994","Class":"4"},"geometry":{"x":121.52125878298003,"y":25.052320982511485}},{"attributes":{"OBJECTID":7400,"LANDMARKID":"6300000002428","LANDMARKCO":"405","LANDMARKNA":"西歐加油站-大直橋站（台塑）","LANDMARKAD":"6300004","ADDRESS":"台北市濱江街333號","TEL":"02-25033166","COUNTYNAME":"台北市","TOWNNAME":"中山區","MARKTYPE":"994","Class":"4"},"geometry":{"x":121.547681804367,"y":25.072482207073914}}]}