{"displayFieldName":"COUNTYNAME","fieldAliases":{"OBJECTID":"OBJECTID","LANDMARKID":"LANDMARKID","LANDMARKCO":"LANDMARKCO","LANDMARKNA":"LANDMARKNA","LANDMARKAD":"LANDMARKAD","ADDRESS":"ADDRESS","TEL":"TEL","COUNTYNAME":"COUNTYNAME","TOWNNAME":"TOWNNAME","MARKTYPE":"MARKTYPE","Class":"Class"},"geometryType":"esriGeometryPoint","spatialReference":{"wkid":102443},"fields":[{"name":"OBJECTID","type":"esriFieldTypeOID","alias":"OBJECTID"},{"name":"LANDMARKID","type":"esriFieldTypeString","alias":"LANDMARKID","length":15},{"name":"LANDMARKCO","type":"esriFieldTypeString","alias":"LANDMARKCO","length":15},{"name":"LANDMARKNA","type":"esriFieldTypeString","alias":"LANDMARKNA","length":50},{"name":"LANDMARKAD","type":"esriFieldTypeString","alias":"LANDMARKAD","length":15},{"name":"ADDRESS","type":"esriFieldTypeString","alias":"ADDRESS","length":56},{"name":"TEL","type":"esriFieldTypeString","alias":"TEL","length":36},{"name":"COUNTYNAME","type":"esriFieldTypeString","alias":"COUNTYNAME","length":15},{"name":"TOWNNAME","type":"esriFieldTypeString","alias":"TOWNNAME","length":13},{"name":"MARKTYPE","type":"esriFieldTypeString","alias":"MARKTYPE","length":12},{"name":"Class","type":"esriFieldTypeString","alias":"Class","length":5}],"features":[{"attributes":{"OBJECTID":26801,"LANDMARKID":"1002000000072","LANDMARKCO":"202","LANDMARKNA":"國立嘉義高商","LANDMARKAD":"1002001","ADDRESS":"嘉義市中山路7號","TEL":"05-2782421","COUNTYNAME":"嘉義市","TOWNNAME":"東區","MARKTYPE":"992","Class":"2"},"geometry":{"x":195128.76360000018,"y":2597810.9109000005}},{"attributes":{"OBJECTID":26802,"LANDMARKID":"1002000000073","LANDMARKCO":"202","LANDMARKNA":"國立嘉義家職","LANDMARKAD":"1002001","ADDRESS":"嘉義市市宅街57號","TEL":"05-2259640","COUNTYNAME":"嘉義市","TOWNNAME":"東區","MARKTYPE":"992","Class":"2"},"geometry":{"x":194682.9888000004,"y":2596811.068}},{"attributes":{"OBJECTID":26803,"LANDMARKID":"1002000000074","LANDMARKCO":"202","LANDMARKNA":"私立立仁女子工商","LANDMARKAD":"1002001","ADDRESS":"嘉義市立仁路235號","TEL":"05-2226420","COUNTYNAME":"嘉義市","TOWNNAME":"東區","MARKTYPE":"992","Class":"2"},"geometry":{"x":194769.29650000017,"y":2595680.6453000009}},{"attributes":{"OBJECTID":26804,"LANDMARKID":"1002000000075","LANDMARKCO":"202","LANDMARKNA":"國立華南高商","LANDMARKAD":"1002001","ADDRESS":"嘉義市光彩街69號","TEL":"05-2787140","COUNTYNAME":"嘉義市","TOWNNAME":"東區","MARKTYPE":"992","Class":"2"},"geometry":{"x":194739.43549999967,"y":2597432.2718000002}},{"attributes":{"OBJECTID":26805,"LANDMARKID":"1002000000076","LANDMARKCO":"202","LANDMARKNA":"私立東吳工家","LANDMARKAD":"1002001","ADDRESS":"嘉義市宣信街252號","TEL":"05-2246161","COUNTYNAME":"嘉義市","TOWNNAME":"東區","MARKTYPE":"992","Class":"2"},"geometry":{"x":194870.68319999985,"y":2596302.7819999997}},{"attributes":{"OBJECTID":26806,"LANDMARKID":"1002000000077","LANDMARKCO":"202","LANDMARKNA":"國立嘉義高工","LANDMARKAD":"1002001","ADDRESS":"嘉義市彌陀路174號","TEL":"05-2763060","COUNTYNAME":"嘉義市","TOWNNAME":"東區","MARKTYPE":"992","Class":"2"},"geometry":{"x":195256.97400000039,"y":2596666.0956999995}},{"attributes":{"OBJECTID":26807,"LANDMARKID":"1002000000078","LANDMARKCO":"202","LANDMARKNA":"私立大同高商","LANDMARKAD":"1002001","ADDRESS":"嘉義市彌陀路255號","TEL":"05-2251080","COUNTYNAME":"嘉義市","TOWNNAME":"東區","MARKTYPE":"992","Class":"2"},"geometry":{"x":195311.12160000019,"y":2596458.7972999997}},{"attributes":{"OBJECTID":26808,"LANDMARKID":"1002000000079","LANDMARKCO":"202","LANDMARKNA":"私立立仁高中","LANDMARKAD":"1002001","ADDRESS":"嘉義市立仁路235號","TEL":"05-2226420","COUNTYNAME":"嘉義市","TOWNNAME":"東區","MARKTYPE":"992","Class":"2"},"geometry":{"x":194769.29650000017,"y":2595680.6453000009}},{"attributes":{"OBJECTID":26809,"LANDMARKID":"1002000000080","LANDMARKCO":"203","LANDMARKNA":"市立大業國中","LANDMARKAD":"1002001","ADDRESS":"嘉義市大業街57號","TEL":"05-2285048","COUNTYNAME":"嘉義市","TOWNNAME":"東區","MARKTYPE":"992","Class":"2"},"geometry":{"x":194227.80819999985,"y":2595600.5130000003}},{"attributes":{"OBJECTID":26810,"LANDMARKID":"1002000000081","LANDMARKCO":"203","LANDMARKNA":"市立北興國中","LANDMARKAD":"1002001","ADDRESS":"嘉義市檜村里忠孝路394號","TEL":"05-2766601","COUNTYNAME":"嘉義市","TOWNNAME":"東區","MARKTYPE":"992","Class":"2"},"geometry":{"x":194280.34389999975,"y":2598700.1686000004}},{"attributes":{"OBJECTID":26811,"LANDMARKID":"1002000000082","LANDMARKCO":"203","LANDMARKNA":"市立蘭潭國中","LANDMARKAD":"1002001","ADDRESS":"嘉義市民權東路32號","TEL":"05-2773582","COUNTYNAME":"嘉義市","TOWNNAME":"東區","MARKTYPE":"992","Class":"2"},"geometry":{"x":197026.68620000035,"y":2597780.5691}},{"attributes":{"OBJECTID":26812,"LANDMARKID":"1002000000083","LANDMARKCO":"203","LANDMARKNA":"市立南興國中","LANDMARKAD":"1002001","ADDRESS":"嘉義市宣信街182號","TEL":"05-2224383","COUNTYNAME":"嘉義市","TOWNNAME":"東區","MARKTYPE":"992","Class":"2"},"geometry":{"x":195025.96740000043,"y":2596117.7979000006}},{"attributes":{"OBJECTID":26813,"LANDMARKID":"1002000000084","LANDMARKCO":"203","LANDMARKNA":"市立嘉義國中","LANDMARKAD":"1002001","ADDRESS":"嘉義市王田里圓福街86號","TEL":"05-2762983","COUNTYNAME":"嘉義市","TOWNNAME":"東區","MARKTYPE":"992","Class":"2"},"geometry":{"x":195323.0915000001,"y":2598308.3164000008}},{"attributes":{"OBJECTID":26814,"LANDMARKID":"1002000000085","LANDMARKCO":"203","LANDMARKNA":"私立輔仁國中","LANDMARKAD":"1002001","ADDRESS":"嘉義市吳鳳南路270號","TEL":"05-2281001","COUNTYNAME":"嘉義市","TOWNNAME":"東區","MARKTYPE":"992","Class":"2"},"geometry":{"x":194529.05059999973,"y":2595402.3307000007}},{"attributes":{"OBJECTID":26815,"LANDMARKID":"1002000000086","LANDMARKCO":"203","LANDMARKNA":"市立蘭潭國小","LANDMARKAD":"1002001","ADDRESS":"嘉義市小雅路419號","TEL":"05-2763492","COUNTYNAME":"嘉義市","TOWNNAME":"東區","MARKTYPE":"992","Class":"2"},"geometry":{"x":196012.12799999956,"y":2597016.0270000007}},{"attributes":{"OBJECTID":26816,"LANDMARKID":"1002000000087","LANDMARKCO":"203","LANDMARKNA":"市立民族國小","LANDMARKAD":"1002001","ADDRESS":"嘉義市民族路235號","TEL":"05-2222113","COUNTYNAME":"嘉義市","TOWNNAME":"東區","MARKTYPE":"992","Class":"2"},"geometry":{"x":194350.11029999983,"y":2597104.4549000002}},{"attributes":{"OBJECTID":26817,"LANDMARKID":"1002000000088","LANDMARKCO":"203","LANDMARKNA":"市立林森國小","LANDMARKAD":"1002001","ADDRESS":"嘉義市林森東路346號","TEL":"05-2762063","COUNTYNAME":"嘉義市","TOWNNAME":"東區","MARKTYPE":"992","Class":"2"},"geometry":{"x":195518.30840000045,"y":2598587.2879000008}},{"attributes":{"OBJECTID":26818,"LANDMARKID":"1002000000089","LANDMARKCO":"203","LANDMARKNA":"國立嘉義大學附小","LANDMARKAD":"1002001","ADDRESS":"嘉義市林森東路46號","TEL":"05-2788002","COUNTYNAME":"嘉義市","TOWNNAME":"東區","MARKTYPE":"992","Class":"2"},"geometry":{"x":194422.17650000006,"y":2598233.8831999991}},{"attributes":{"OBJECTID":26819,"LANDMARKID":"1002000000090","LANDMARKCO":"203","LANDMARKNA":"市立精忠國小","LANDMARKAD":"1002001","ADDRESS":"嘉義市林森東路840號","TEL":"05-2760474","COUNTYNAME":"嘉義市","TOWNNAME":"東區","MARKTYPE":"992","Class":"2"},"geometry":{"x":196899.36830000021,"y":2598926.6213000007}},{"attributes":{"OBJECTID":26820,"LANDMARKID":"1002000000091","LANDMARKCO":"203","LANDMARKNA":"市立崇文國小","LANDMARKAD":"1002001","ADDRESS":"嘉義市垂楊路241號","TEL":"05-2222310","COUNTYNAME":"嘉義市","TOWNNAME":"東區","MARKTYPE":"992","Class":"2"},"geometry":{"x":194106.82510000002,"y":2596822.0358000007}},{"attributes":{"OBJECTID":26821,"LANDMARKID":"1002000000092","LANDMARKCO":"203","LANDMARKNA":"市立宣信國小","LANDMARKAD":"1002001","ADDRESS":"嘉義市宣信街266號","TEL":"05-2223904","COUNTYNAME":"嘉義市","TOWNNAME":"東區","MARKTYPE":"992","Class":"2"},"geometry":{"x":194705.31699999981,"y":2596507.6564000007}},{"attributes":{"OBJECTID":26822,"LANDMARKID":"1002000000093","LANDMARKCO":"203","LANDMARKNA":"市立嘉北國小","LANDMARKAD":"1002001","ADDRESS":"嘉義市嘉北街65號","TEL":"05-2757091","COUNTYNAME":"嘉義市","TOWNNAME":"東區","MARKTYPE":"992","Class":"2"},"geometry":{"x":194343.81940000039,"y":2599039.1549999993}},{"attributes":{"OBJECTID":26823,"LANDMARKID":"1002000000094","LANDMARKCO":"203","LANDMARKNA":"市立興安國小","LANDMARKAD":"1002001","ADDRESS":"嘉義市興安街35號","TEL":"05-2232280","COUNTYNAME":"嘉義市","TOWNNAME":"東區","MARKTYPE":"992","Class":"2"},"geometry":{"x":194338.01279999968,"y":2595296.9350000005}},{"attributes":{"OBJECTID":26824,"LANDMARKID":"1002000000058","LANDMARKCO":"201","LANDMARKNA":"大同技術學院","LANDMARKAD":"1002001","ADDRESS":"嘉義市彌陀路253號","TEL":"05-2223134","COUNTYNAME":"嘉義市","TOWNNAME":"東區","MARKTYPE":"992","Class":"2"},"geometry":{"x":195342.79179999977,"y":2596383.6651000008}},{"attributes":{"OBJECTID":26825,"LANDMARKID":"1002000000059","LANDMARKCO":"201","LANDMARKNA":"國立嘉義大學蘭潭校區","LANDMARKAD":"1002001","ADDRESS":"嘉義市學府路300號","TEL":"05-2717000","COUNTYNAME":"嘉義市","TOWNNAME":"東區","MARKTYPE":"992","Class":"2"},"geometry":{"x":197236.54119999986,"y":2595732.8298000004}},{"attributes":{"OBJECTID":26826,"LANDMARKID":"1002000000060","LANDMARKCO":"201","LANDMARKNA":"國立嘉義大學林森校區","LANDMARKAD":"1002001","ADDRESS":"嘉義市林森東路151號","TEL":"05-2717000","COUNTYNAME":"嘉義市","TOWNNAME":"東區","MARKTYPE":"992","Class":"2"},"geometry":{"x":194793.98209999967,"y":2598380.2139999997}},{"attributes":{"OBJECTID":26827,"LANDMARKID":"1002000000061","LANDMARKCO":"201","LANDMARKNA":"崇仁醫護管理專科學校嘉義校區","LANDMARKAD":"1002001","ADDRESS":"嘉義市盧厝里紅毛埤217號","TEL":"05-2773932","COUNTYNAME":"嘉義市","TOWNNAME":"東區","MARKTYPE":"992","Class":"2"},"geometry":{"x":197147.13740000036,"y":2597430.5068999995}},{"attributes":{"OBJECTID":26828,"LANDMARKID":"1002000000065","LANDMARKCO":"202","LANDMARKNA":"私立稚暉工家","LANDMARKAD":"1002001","ADDRESS":"嘉義市東區","TEL":" ","COUNTYNAME":"嘉義市","TOWNNAME":"東區","MARKTYPE":"992","Class":"2"},"geometry":{"x":197567.39620000031,"y":2595300.2512999997}},{"attributes":{"OBJECTID":26829,"LANDMARKID":"1002000000095","LANDMARKCO":"203","LANDMARKNA":"市立林森國小分校","LANDMARKAD":"1002001","ADDRESS":"嘉義市東區","TEL":" ","COUNTYNAME":"嘉義市","TOWNNAME":"東區","MARKTYPE":"992","Class":"2"},"geometry":{"x":195072.90029999986,"y":2598510.4436000008}},{"attributes":{"OBJECTID":26830,"LANDMARKID":"1002000000057","LANDMARKCO":"201","LANDMARKNA":"私立協同神學院","LANDMARKAD":"1002001","ADDRESS":"嘉義市東區","TEL":" ","COUNTYNAME":"嘉義市","TOWNNAME":"東區","MARKTYPE":"992","Class":"2"},"geometry":{"x":195500.07820000034,"y":2597540.9868999999}},{"attributes":{"OBJECTID":26831,"LANDMARKID":"1002000000136","LANDMARKCO":"303","LANDMARKNA":"嘉義基督教醫院第二停車場","LANDMARKAD":"1002001","ADDRESS":"嘉義市東區忠孝路","TEL":" ","COUNTYNAME":"嘉義市","TOWNNAME":"東區","MARKTYPE":"993","Class":"303"},"geometry":{"x":193764.23199999984,"y":2599703.1782000009}},{"attributes":{"OBJECTID":26832,"LANDMARKID":"1002000000137","LANDMARKCO":"303","LANDMARKNA":"嘉義基督教醫院第一停車場","LANDMARKAD":"1002001","ADDRESS":"嘉義市東區忠孝路","TEL":" ","COUNTYNAME":"嘉義市","TOWNNAME":"東區","MARKTYPE":"993","Class":"303"},"geometry":{"x":193780.98259999976,"y":2599613.1523000002}},{"attributes":{"OBJECTID":26833,"LANDMARKID":"1002000000138","LANDMARKCO":"303","LANDMARKNA":"東市場地下停車場","LANDMARKAD":"1002001","ADDRESS":"嘉義市東區吳鳳北路與光彩街口","TEL":" ","COUNTYNAME":"嘉義市","TOWNNAME":"東區","MARKTYPE":"993","Class":"303"},"geometry":{"x":194172.40240000002,"y":2597416.8917999994}},{"attributes":{"OBJECTID":26834,"LANDMARKID":"1002000000139","LANDMARKCO":"303","LANDMARKNA":"民族國小停車場","LANDMARKAD":"1002001","ADDRESS":"嘉義市東區民族路","TEL":" ","COUNTYNAME":"嘉義市","TOWNNAME":"東區","MARKTYPE":"993","Class":"303"},"geometry":{"x":194340.06599999964,"y":2597120.0182000007}},{"attributes":{"OBJECTID":26835,"LANDMARKID":"1002000000140","LANDMARKCO":"303","LANDMARKNA":"綜合體育場停車場","LANDMARKAD":"1002001","ADDRESS":"嘉義市東區興業東路","TEL":" ","COUNTYNAME":"嘉義市","TOWNNAME":"東區","MARKTYPE":"993","Class":"303"},"geometry":{"x":194971.75169999991,"y":2596459.1833999995}},{"attributes":{"OBJECTID":26836,"LANDMARKID":"1002000000141","LANDMARKCO":"303","LANDMARKNA":"蘭潭五號停車場","LANDMARKAD":"1002001","ADDRESS":"嘉義市東區","TEL":" ","COUNTYNAME":"嘉義市","TOWNNAME":"東區","MARKTYPE":"993","Class":"303"},"geometry":{"x":197759.36010000017,"y":2596980.5170000009}},{"attributes":{"OBJECTID":26837,"LANDMARKID":"1002000000142","LANDMARKCO":"303","LANDMARKNA":"先天玉虛宮停車場","LANDMARKAD":"1002001","ADDRESS":"嘉義市東區盧厝里紅毛埤5之1號","TEL":"05-2762838","COUNTYNAME":"嘉義市","TOWNNAME":"東區","MARKTYPE":"993","Class":"303"},"geometry":{"x":199723.68690000009,"y":2596949.1328999996}},{"attributes":{"OBJECTID":26838,"LANDMARKID":"1002000000143","LANDMARKCO":"303","LANDMARKNA":"北門停車場","LANDMARKAD":"1002001","ADDRESS":"嘉義市東區","TEL":" ","COUNTYNAME":"嘉義市","TOWNNAME":"東區","MARKTYPE":"993","Class":"303"},"geometry":{"x":194199.01520000026,"y":2598434.1840000004}},{"attributes":{"OBJECTID":26839,"LANDMARKID":"1002000000115","LANDMARKCO":"301","LANDMARKNA":"北門火車站","LANDMARKAD":"1002001","ADDRESS":"嘉義市東區","TEL":" ","COUNTYNAME":"嘉義市","TOWNNAME":"東區","MARKTYPE":"993","Class":"301"},"geometry":{"x":194314.92210000008,"y":2598444.8643999994}},{"attributes":{"OBJECTID":26840,"LANDMARKID":"1002000000161","LANDMARKCO":"402","LANDMARKNA":"中華電信-嘉義民族特約服務中心","LANDMARKAD":"1002001","ADDRESS":"嘉義市民族路52號","TEL":"05-2712588","COUNTYNAME":"嘉義市","TOWNNAME":"東區","MARKTYPE":"994","Class":"4"},"geometry":{"x":194871.14180000033,"y":2597215.7708999999}},{"attributes":{"OBJECTID":26841,"LANDMARKID":"1002000000162","LANDMARKCO":"402","LANDMARKNA":"中華電信-光彩服務中心","LANDMARKAD":"1002001","ADDRESS":"嘉義市光彩街269號","TEL":"(05)244-4228","COUNTYNAME":"嘉義市","TOWNNAME":"東區","MARKTYPE":"994","Class":"4"},"geometry":{"x":193948.82980000041,"y":2597342.5074000005}},{"attributes":{"OBJECTID":26842,"LANDMARKID":"1002000000163","LANDMARKCO":"402","LANDMARKNA":"中華電信-嘉義後庄特約服務中心","LANDMARKAD":"1002001","ADDRESS":"嘉義市吳鳳南路691號","TEL":"05-2397588","COUNTYNAME":"嘉義市","TOWNNAME":"東區","MARKTYPE":"994","Class":"4"},"geometry":{"x":194800.32650000043,"y":2594705.5393000003}},{"attributes":{"OBJECTID":26843,"LANDMARKID":"1002000000164","LANDMARKCO":"402","LANDMARKNA":"中華電信-嘉義新生特約服務中心","LANDMARKAD":"1002001","ADDRESS":"嘉義市新生路794號","TEL":"05-2762238","COUNTYNAME":"嘉義市","TOWNNAME":"東區","MARKTYPE":"994","Class":"4"},"geometry":{"x":194358.50939999986,"y":2599271.9563999996}},{"attributes":{"OBJECTID":26844,"LANDMARKID":"1002000000165","LANDMARKCO":"402","LANDMARKNA":"威寶電信-嘉義吳鳳南特約服務中心","LANDMARKAD":"1002001","ADDRESS":"嘉義市東區吳鳳南路667號","TEL":"05-2301611","COUNTYNAME":"嘉義市","TOWNNAME":"東區","MARKTYPE":"994","Class":"4"},"geometry":{"x":194786.17260000017,"y":2594746.4861999992}},{"attributes":{"OBJECTID":26845,"LANDMARKID":"1002000000166","LANDMARKCO":"402","LANDMARKNA":"威寶電信-嘉義民族特約服務中心","LANDMARKAD":"1002001","ADDRESS":"嘉義市東區民族路81號","TEL":"(05)2711777","COUNTYNAME":"嘉義市","TOWNNAME":"東區","MARKTYPE":"994","Class":"4"},"geometry":{"x":194794.26570000034,"y":2597182.4822000004}},{"attributes":{"OBJECTID":26846,"LANDMARKID":"1002000000271","LANDMARKCO":"601","LANDMARKNA":"耐斯王子大飯店","LANDMARKAD":"1002001","ADDRESS":"嘉義市忠孝路600號","TEL":"05-2771999","COUNTYNAME":"嘉義市","TOWNNAME":"東區","MARKTYPE":"996","Class":"6"},"geometry":{"x":194083.12239999976,"y":2599373.9930000007}},{"attributes":{"OBJECTID":26847,"LANDMARKID":"1002000000256","LANDMARKCO":"505","LANDMARKNA":"耐斯數位玩國","LANDMARKAD":"1002001","ADDRESS":"嘉義市東區忠孝路600號","TEL":"05-2766123","COUNTYNAME":"嘉義市","TOWNNAME":"東區","MARKTYPE":"995","Class":"5"},"geometry":{"x":194084.63449999969,"y":2599357.8926999997}},{"attributes":{"OBJECTID":26848,"LANDMARKID":"1002000000268","LANDMARKCO":"511","LANDMARKNA":"嘉義夜市","LANDMARKAD":"1002001","ADDRESS":"嘉義市東區","TEL":" ","COUNTYNAME":"嘉義市","TOWNNAME":"東區","MARKTYPE":"995","Class":"5"},"geometry":{"x":193815.19749999978,"y":2597153.2382999994}},{"attributes":{"OBJECTID":26849,"LANDMARKID":"1002000000269","LANDMARKCO":"511","LANDMARKNA":"中正路二通休閒商店街","LANDMARKAD":"1002001","ADDRESS":"嘉義市東區中正路","TEL":" ","COUNTYNAME":"嘉義市","TOWNNAME":"東區","MARKTYPE":"995","Class":"5"},"geometry":{"x":194151.34329999983,"y":2597454.4998000003}},{"attributes":{"OBJECTID":26850,"LANDMARKID":"1002000000270","LANDMARKCO":"511","LANDMARKNA":"假日花市","LANDMARKAD":"1002001","ADDRESS":"嘉義市東區","TEL":" ","COUNTYNAME":"嘉義市","TOWNNAME":"東區","MARKTYPE":"995","Class":"5"},"geometry":{"x":193949.25850000046,"y":2598612.9715}},{"attributes":{"OBJECTID":26851,"LANDMARKID":"1002000000254","LANDMARKCO":"503","LANDMARKNA":"蘭潭風景特定區","LANDMARKAD":"1002001","ADDRESS":"嘉義市東區","TEL":" ","COUNTYNAME":"嘉義市","TOWNNAME":"東區","MARKTYPE":"995","Class":"5"},"geometry":{"x":196558.77290000021,"y":2597093.7169000003}},{"attributes":{"OBJECTID":26852,"LANDMARKID":"1002000000255","LANDMARKCO":"505","LANDMARKNA":"嘉義樹木園","LANDMARKAD":"1002001","ADDRESS":"嘉義市山仔頂276號","TEL":" ","COUNTYNAME":"嘉義市","TOWNNAME":"東區","MARKTYPE":"995","Class":"5"},"geometry":{"x":195639.00650000013,"y":2597866.2800999992}},{"attributes":{"OBJECTID":26853,"LANDMARKID":"1002000000196","LANDMARKCO":"405","LANDMARKNA":"中油加油站-博愛路站(中油直營)","LANDMARKAD":"1002002","ADDRESS":"嘉義市西區博愛路一段2號","TEL":"05-2762353","COUNTYNAME":"嘉義市","TOWNNAME":"西區","MARKTYPE":"994","Class":"4"},"geometry":{"x":194065.69269999955,"y":2598689.9888000004}},{"attributes":{"OBJECTID":26854,"LANDMARKID":"1002000000197","LANDMARKCO":"405","LANDMARKNA":"中油加油站-世賢路站","LANDMARKAD":"1002002","ADDRESS":"嘉義市世賢路三段256號","TEL":"05-2839599","COUNTYNAME":"嘉義市","TOWNNAME":"西區","MARKTYPE":"994","Class":"4"},"geometry":{"x":192180.95249999966,"y":2595400.6111999992}},{"attributes":{"OBJECTID":26855,"LANDMARKID":"1002000000198","LANDMARKCO":"405","LANDMARKNA":"中油加油站-中興路(嘉義市)","LANDMARKAD":"1002002","ADDRESS":"嘉義市中興路591號","TEL":"05-2363376","COUNTYNAME":"嘉義市","TOWNNAME":"西區","MARKTYPE":"994","Class":"4"},"geometry":{"x":191607.61419999972,"y":2597147.5395}},{"attributes":{"OBJECTID":26856,"LANDMARKID":"1002000000199","LANDMARKCO":"405","LANDMARKNA":"中油加油站-中興路站","LANDMARKAD":"1002002","ADDRESS":"嘉義市西區中興路591號一樓","TEL":"05-2363376","COUNTYNAME":"嘉義市","TOWNNAME":"西區","MARKTYPE":"994","Class":"4"},"geometry":{"x":191607.2854000004,"y":2597147.4945999999}},{"attributes":{"OBJECTID":26857,"LANDMARKID":"1002000000200","LANDMARKCO":"405","LANDMARKNA":"中油加油站-文化路站(中油直營)","LANDMARKAD":"1002002","ADDRESS":"嘉義市文化路11號","TEL":"05-2226551","COUNTYNAME":"嘉義市","TOWNNAME":"西區","MARKTYPE":"994","Class":"4"},"geometry":{"x":193813.09300000034,"y":2596940.5468000006}},{"attributes":{"OBJECTID":26858,"LANDMARKID":"1002000000201","LANDMARKCO":"405","LANDMARKNA":"中油加油站-北興站(中油直營)","LANDMARKAD":"1002002","ADDRESS":"嘉義市西區自由路436號","TEL":"05-2348070","COUNTYNAME":"嘉義市","TOWNNAME":"西區","MARKTYPE":"994","Class":"4"},"geometry":{"x":192123.47620000038,"y":2598885.5050000008}},{"attributes":{"OBJECTID":26859,"LANDMARKID":"1002000000202","LANDMARKCO":"405","LANDMARKNA":"中油加油站-湖子內路站","LANDMARKAD":"1002002","ADDRESS":"嘉義市西區湖子內路100號","TEL":"05-2833366","COUNTYNAME":"嘉義市","TOWNNAME":"西區","MARKTYPE":"994","Class":"4"},"geometry":{"x":193005.42580000032,"y":2594575.9453999996}},{"attributes":{"OBJECTID":26860,"LANDMARKID":"1002000000203","LANDMARKCO":"405","LANDMARKNA":"台灣優力加油站-世賢站(中油)","LANDMARKAD":"1002002","ADDRESS":"嘉義市世賢路一段1062號","TEL":"05-2383129","COUNTYNAME":"嘉義市","TOWNNAME":"西區","MARKTYPE":"994","Class":"4"},"geometry":{"x":191044.95079999976,"y":2598150.7194999997}},{"attributes":{"OBJECTID":26861,"LANDMARKID":"1002000000204","LANDMARKCO":"405","LANDMARKNA":"中油加油站-民生站","LANDMARKAD":"1002002","ADDRESS":"嘉義市新民路30號","TEL":"05-2854046","COUNTYNAME":"嘉義市","TOWNNAME":"西區","MARKTYPE":"994","Class":"4"},"geometry":{"x":192007.27359999996,"y":2594498.3954000007}},{"attributes":{"OBJECTID":26862,"LANDMARKID":"1002000000205","LANDMARKCO":"405","LANDMARKNA":"中油加油站-信義路站(中油直營)","LANDMARKAD":"1002002","ADDRESS":"嘉義市博愛路二段519號","TEL":" ","COUNTYNAME":"嘉義市","TOWNNAME":"西區","MARKTYPE":"994","Class":"4"},"geometry":{"x":191660.82309999969,"y":2596313.7215999998}},{"attributes":{"OBJECTID":26863,"LANDMARKID":"1002000000206","LANDMARKCO":"405","LANDMARKNA":"山隆加油站-嘉義站(中油)","LANDMARKAD":"1002002","ADDRESS":"嘉義市西區竹村里北港路1335-6號","TEL":"(05)238-1608","COUNTYNAME":"嘉義市","TOWNNAME":"西區","MARKTYPE":"994","Class":"4"},"geometry":{"x":188419.48780000024,"y":2598724.0731000006}},{"attributes":{"OBJECTID":26864,"LANDMARKID":"1002000000207","LANDMARKCO":"405","LANDMARKNA":"中油加油站-中油嘉交站(中油直營)","LANDMARKAD":"1002002","ADDRESS":"嘉義市北港路1158號","TEL":"05-2373211","COUNTYNAME":"嘉義市","TOWNNAME":"西區","MARKTYPE":"994","Class":"4"},"geometry":{"x":189090.4896999998,"y":2598751.7334000003}},{"attributes":{"OBJECTID":26865,"LANDMARKID":"1002000000208","LANDMARKCO":"405","LANDMARKNA":"中油加油站-興嘉站(中油直營)","LANDMARKAD":"1002002","ADDRESS":"嘉義市西區車店里上海路246號","TEL":"05-2353461","COUNTYNAME":"嘉義市","TOWNNAME":"西區","MARKTYPE":"994","Class":"4"},"geometry":{"x":192183.76339999959,"y":2596174.4827999994}},{"attributes":{"OBJECTID":26866,"LANDMARKID":"1002000000209","LANDMARKCO":"405","LANDMARKNA":"中油加油站-福隆站","LANDMARKAD":"1002002","ADDRESS":"嘉義市文化路799號","TEL":"05-2338261","COUNTYNAME":"嘉義市","TOWNNAME":"西區","MARKTYPE":"994","Class":"4"},"geometry":{"x":192915.0784,"y":2599670.9089000002}},{"attributes":{"OBJECTID":26867,"LANDMARKID":"1002000000210","LANDMARKCO":"405","LANDMARKNA":"中油加油站-興達站","LANDMARKAD":"1002002","ADDRESS":"嘉義市竹圍里建國路95號","TEL":"05-2345298","COUNTYNAME":"嘉義市","TOWNNAME":"西區","MARKTYPE":"994","Class":"4"},"geometry":{"x":192381.4924999997,"y":2598111.5974000003}},{"attributes":{"OBJECTID":26868,"LANDMARKID":"1002000000211","LANDMARKCO":"405","LANDMARKNA":"中油加油站-林森路站(中油直營)","LANDMARKAD":"1002002","ADDRESS":"嘉義市西區林森西路281號","TEL":"05-2279744","COUNTYNAME":"嘉義市","TOWNNAME":"西區","MARKTYPE":"994","Class":"4"},"geometry":{"x":193182.4040000001,"y":2597612.2370999996}},{"attributes":{"OBJECTID":26869,"LANDMARKID":"1002000000212","LANDMARKCO":"405","LANDMARKNA":"中油加油站-新民路站","LANDMARKAD":"1002002","ADDRESS":"嘉義市新民路906號","TEL":"05-2230819","COUNTYNAME":"嘉義市","TOWNNAME":"西區","MARKTYPE":"994","Class":"4"},"geometry":{"x":192751.66940000001,"y":2596855.0713999998}},{"attributes":{"OBJECTID":26870,"LANDMARKID":"1002000000213","LANDMARKCO":"405","LANDMARKNA":"中油加油站-港坪站","LANDMARKAD":"1002002","ADDRESS":"嘉義市港坪里世賢路2段446號","TEL":"05-2866897","COUNTYNAME":"嘉義市","TOWNNAME":"西區","MARKTYPE":"994","Class":"4"},"geometry":{"x":190863.63850000035,"y":2596662.6708000004}},{"attributes":{"OBJECTID":26871,"LANDMARKID":"1002000000214","LANDMARKCO":"405","LANDMARKNA":"統一速邁樂加油站-嘉義一站加油站(中油)","LANDMARKAD":"1002002","ADDRESS":"嘉義市湖內里新民路191號","TEL":"05-2350101","COUNTYNAME":"嘉義市","TOWNNAME":"西區","MARKTYPE":"994","Class":"4"},"geometry":{"x":192377.49770000018,"y":2594919.3697999995}},{"attributes":{"OBJECTID":26872,"LANDMARKID":"1002000000167","LANDMARKCO":"402","LANDMARKNA":"My Phone台灣大哥大-嘉義林森直營服務中心","LANDMARKAD":"1002002","ADDRESS":"嘉義市榮檜里林森西路185號","TEL":"0809-000-166","COUNTYNAME":"嘉義市","TOWNNAME":"西區","MARKTYPE":"994","Class":"4"},"geometry":{"x":193497.81799999997,"y":2597914.9528000001}},{"attributes":{"OBJECTID":26873,"LANDMARKID":"1002000000168","LANDMARKCO":"402","LANDMARKNA":"My Phone台灣大哥大-嘉義垂楊直營服務中心","LANDMARKAD":"1002002","ADDRESS":"嘉義市西區垂楊路636號","TEL":"0809-000-166","COUNTYNAME":"嘉義市","TOWNNAME":"西區","MARKTYPE":"994","Class":"4"},"geometry":{"x":193149.46300000045,"y":2596824.7212000005}},{"attributes":{"OBJECTID":26874,"LANDMARKID":"1002000000169","LANDMARKCO":"402","LANDMARKNA":"亞太行動寬頻電信-嘉義興業西加盟服務中心","LANDMARKAD":"1002002","ADDRESS":"嘉義市興業西路280號","TEL":"05-2361588","COUNTYNAME":"嘉義市","TOWNNAME":"西區","MARKTYPE":"994","Class":"4"},"geometry":{"x":192742.38269999996,"y":2596230.2540000007}},{"attributes":{"OBJECTID":26875,"LANDMARKID":"1002000000170","LANDMARKCO":"402","LANDMARKNA":"亞太行動寬頻電信-嘉義中興加盟服務中心","LANDMARKAD":"1002002","ADDRESS":"嘉義市中興路222號","TEL":"05-2326225","COUNTYNAME":"嘉義市","TOWNNAME":"西區","MARKTYPE":"994","Class":"4"},"geometry":{"x":192148.17279999983,"y":2597822.1279000007}},{"attributes":{"OBJECTID":26876,"LANDMARKID":"1002000000171","LANDMARKCO":"402","LANDMARKNA":"亞太行動寬頻電信-嘉義林森西加盟服務中心","LANDMARKAD":"1002002","ADDRESS":"嘉義市林森西路228號","TEL":"05-2169666","COUNTYNAME":"嘉義市","TOWNNAME":"西區","MARKTYPE":"994","Class":"4"},"geometry":{"x":193515.8356999997,"y":2597958.0175999999}},{"attributes":{"OBJECTID":26877,"LANDMARKID":"1002000000172","LANDMARKCO":"402","LANDMARKNA":"亞太行動寬頻電信-嘉義民生北加盟服務中心","LANDMARKAD":"1002002","ADDRESS":"嘉義市西區民生北路104號","TEL":"05-2282298","COUNTYNAME":"嘉義市","TOWNNAME":"西區","MARKTYPE":"994","Class":"4"},"geometry":{"x":193475.34819999989,"y":2597161.8751999997}},{"attributes":{"OBJECTID":26878,"LANDMARKID":"1002000000147","LANDMARKCO":"401","LANDMARKNA":"行政院衛生署嘉義醫院","LANDMARKAD":"1002002","ADDRESS":"嘉義市西區北港路312號","TEL":"05-2319090","COUNTYNAME":"嘉義市","TOWNNAME":"西區","MARKTYPE":"994","Class":"4"},"geometry":{"x":191674.68890000042,"y":2597665.1897}},{"attributes":{"OBJECTID":26879,"LANDMARKID":"1002000000148","LANDMARKCO":"401","LANDMARKNA":"盧亞人醫院","LANDMARKAD":"1002002","ADDRESS":"嘉義市民權路406號","TEL":"05-2248347","COUNTYNAME":"嘉義市","TOWNNAME":"西區","MARKTYPE":"994","Class":"4"},"geometry":{"x":193572.34480000008,"y":2597777.1457000002}},{"attributes":{"OBJECTID":26880,"LANDMARKID":"1002000000149","LANDMARKCO":"401","LANDMARKNA":"大仁醫院","LANDMARKAD":"1002002","ADDRESS":"嘉義市民族路666號","TEL":"05-2252617","COUNTYNAME":"嘉義市","TOWNNAME":"西區","MARKTYPE":"994","Class":"4"},"geometry":{"x":193224.74320000038,"y":2597060.0077999998}},{"attributes":{"OBJECTID":26881,"LANDMARKID":"1002000000150","LANDMARKCO":"401","LANDMARKNA":"世華醫院","LANDMARKAD":"1002002","ADDRESS":"嘉義市仁愛路365號","TEL":"05-2257525","COUNTYNAME":"嘉義市","TOWNNAME":"西區","MARKTYPE":"994","Class":"4"},"geometry":{"x":193008.70280000009,"y":2597070.1712999996}},{"attributes":{"OBJECTID":26882,"LANDMARKID":"1002000000151","LANDMARKCO":"401","LANDMARKNA":"陳仁德醫院","LANDMARKAD":"1002002","ADDRESS":"嘉義市林森西路285號","TEL":"05-2258279","COUNTYNAME":"嘉義市","TOWNNAME":"西區","MARKTYPE":"994","Class":"4"},"geometry":{"x":193127.97229999956,"y":2597566.6289000008}},{"attributes":{"OBJECTID":26883,"LANDMARKID":"1002000000152","LANDMARKCO":"401","LANDMARKNA":"祥太醫院","LANDMARKAD":"1002002","ADDRESS":"嘉義市延平街490號","TEL":"05-2230398","COUNTYNAME":"嘉義市","TOWNNAME":"西區","MARKTYPE":"994","Class":"4"},"geometry":{"x":192841.57610000018,"y":2597103.6262999997}},{"attributes":{"OBJECTID":26884,"LANDMARKID":"1002000000153","LANDMARKCO":"401","LANDMARKNA":"慶昇眼科醫院","LANDMARKAD":"1002002","ADDRESS":"嘉義市新榮路339之1號","TEL":"05-2252600","COUNTYNAME":"嘉義市","TOWNNAME":"西區","MARKTYPE":"994","Class":"4"},"geometry":{"x":193189.84090000018,"y":2597600.8684}},{"attributes":{"OBJECTID":26885,"LANDMARKID":"1002000000154","LANDMARKCO":"401","LANDMARKNA":"嘉義榮民醫院","LANDMARKAD":"1002002","ADDRESS":"嘉義市劉厝里世賢路二段600號","TEL":"05-2359630","COUNTYNAME":"嘉義市","TOWNNAME":"西區","MARKTYPE":"994","Class":"4"},"geometry":{"x":191051.60790000018,"y":2596176.3092}},{"attributes":{"OBJECTID":26886,"LANDMARKID":"1002000000266","LANDMARKCO":"511","LANDMARKNA":"嘉樂福夜市","LANDMARKAD":"1002002","ADDRESS":"嘉義市博愛路二段467號","TEL":" ","COUNTYNAME":"嘉義市","TOWNNAME":"西區","MARKTYPE":"995","Class":"5"},"geometry":{"x":191985.46839999966,"y":2596805.9796999991}},{"attributes":{"OBJECTID":26887,"LANDMARKID":"1002000000265","LANDMARKCO":"507","LANDMARKNA":"菸酒公賣局嘉義分局","LANDMARKAD":"1002002","ADDRESS":"嘉義市中山路659號","TEL":" ","COUNTYNAME":"嘉義市","TOWNNAME":"西區","MARKTYPE":"995","Class":"5"},"geometry":{"x":192863.7592000002,"y":2597234.5617999993}},{"attributes":{"OBJECTID":26888,"LANDMARKID":"1002000000232","LANDMARKCO":"408","LANDMARKNA":"郵局-嘉義站前郵局","LANDMARKAD":"1002002","ADDRESS":"嘉義市中正路647號","TEL":"(05)2242-021","COUNTYNAME":"嘉義市","TOWNNAME":"西區","MARKTYPE":"994","Class":"4"},"geometry":{"x":193137.67289999966,"y":2597385.6701999996}},{"attributes":{"OBJECTID":26889,"LANDMARKID":"1002000000233","LANDMARKCO":"408","LANDMARKNA":"郵局-嘉義民權路郵局","LANDMARKAD":"1002002","ADDRESS":"嘉義市民權路467號","TEL":"(05)2273-547","COUNTYNAME":"嘉義市","TOWNNAME":"西區","MARKTYPE":"994","Class":"4"},"geometry":{"x":193366.48429999966,"y":2597741.4506999999}},{"attributes":{"OBJECTID":26890,"LANDMARKID":"1002000000234","LANDMARKCO":"408","LANDMARKNA":"郵局-嘉義北社郵局","LANDMARKAD":"1002002","ADDRESS":"嘉義市北興街245號","TEL":"(05)2320-200","COUNTYNAME":"嘉義市","TOWNNAME":"西區","MARKTYPE":"994","Class":"4"},"geometry":{"x":192655.1043999996,"y":2598147.9995000008}},{"attributes":{"OBJECTID":26891,"LANDMARKID":"1002000000235","LANDMARKCO":"408","LANDMARKNA":"郵局-嘉義玉山郵局","LANDMARKAD":"1002002","ADDRESS":"嘉義市中興路672號","TEL":"(05)2860-153","COUNTYNAME":"嘉義市","TOWNNAME":"西區","MARKTYPE":"994","Class":"4"},"geometry":{"x":191655.96850000042,"y":2596699.4464999996}},{"attributes":{"OBJECTID":26892,"LANDMARKID":"1002000000236","LANDMARKCO":"408","LANDMARKNA":"郵局-嘉義福全郵局","LANDMARKAD":"1002002","ADDRESS":"嘉義市北港路55號","TEL":"(05)2334-064","COUNTYNAME":"嘉義市","TOWNNAME":"西區","MARKTYPE":"994","Class":"4"},"geometry":{"x":192299.12090000045,"y":2597220.7347999997}},{"attributes":{"OBJECTID":26893,"LANDMARKID":"1002000000237","LANDMARKCO":"408","LANDMARKNA":"郵局-嘉義成功街郵局","LANDMARKAD":"1002002","ADDRESS":"嘉義市成功街112號","TEL":"(05)2287-742","COUNTYNAME":"嘉義市","TOWNNAME":"西區","MARKTYPE":"994","Class":"4"},"geometry":{"x":193123.83380000014,"y":2596679.6303000003}},{"attributes":{"OBJECTID":26894,"LANDMARKID":"1002000000238","LANDMARKCO":"408","LANDMARKNA":"郵局-嘉義湖內郵局","LANDMARKAD":"1002002","ADDRESS":"嘉義市民生南路540號","TEL":"(05)2351-175","COUNTYNAME":"嘉義市","TOWNNAME":"西區","MARKTYPE":"994","Class":"4"},"geometry":{"x":193131.7220999999,"y":2595219.6789999995}},{"attributes":{"OBJECTID":26895,"LANDMARKID":"1002000000239","LANDMARKCO":"408","LANDMARKNA":"郵局-嘉義埤子頭郵局","LANDMARKAD":"1002002","ADDRESS":"嘉義市文化路456號","TEL":"(05)2323-660","COUNTYNAME":"嘉義市","TOWNNAME":"西區","MARKTYPE":"994","Class":"4"},"geometry":{"x":193482.85319999978,"y":2598520.8900000006}},{"attributes":{"OBJECTID":26896,"LANDMARKID":"1002000000240","LANDMARKCO":"408","LANDMARKNA":"郵局-嘉義興嘉郵局","LANDMARKAD":"1002002","ADDRESS":"嘉義市南京路409號","TEL":"(05)2355-047","COUNTYNAME":"嘉義市","TOWNNAME":"西區","MARKTYPE":"994","Class":"4"},"geometry":{"x":192381.61330000032,"y":2595865.0769999996}},{"attributes":{"OBJECTID":26897,"LANDMARKID":"1002000000241","LANDMARKCO":"408","LANDMARKNA":"郵局-嘉義保安郵局","LANDMARKAD":"1002002","ADDRESS":"嘉義市保安一路241號","TEL":"(05)2313-810","COUNTYNAME":"嘉義市","TOWNNAME":"西區","MARKTYPE":"994","Class":"4"},"geometry":{"x":192288.43759999983,"y":2598985.6646999996}},{"attributes":{"OBJECTID":26898,"LANDMARKID":"1002000000252","LANDMARKCO":"409","LANDMARKNA":"嘉義市農會信用部","LANDMARKAD":"1002002","ADDRESS":"嘉義市西區北港路251號","TEL":"05-2331637","COUNTYNAME":"嘉義市","TOWNNAME":"西區","MARKTYPE":"994","Class":"4"},"geometry":{"x":189456.82660000026,"y":2598547.6265999991}},{"attributes":{"OBJECTID":26899,"LANDMARKID":"1002000000253","LANDMARKCO":"409","LANDMARKNA":"嘉義縣農會","LANDMARKAD":"1002002","ADDRESS":"嘉義市博愛路二段459號","TEL":"05-2360311","COUNTYNAME":"嘉義市","TOWNNAME":"西區","MARKTYPE":"994","Class":"4"},"geometry":{"x":191931.12200000044,"y":2596659.1078999992}},{"attributes":{"OBJECTID":26900,"LANDMARKID":"1002000000219","LANDMARKCO":"406","LANDMARKNA":"中正公園","LANDMARKAD":"1002002","ADDRESS":"嘉義市西區","TEL":" ","COUNTYNAME":"嘉義市","TOWNNAME":"西區","MARKTYPE":"994","Class":"4"},"geometry":{"x":193585.24210000038,"y":2597697.4227000009}},{"attributes":{"OBJECTID":26901,"LANDMARKID":"1002000000220","LANDMARKCO":"406","LANDMARKNA":"市立運動公園","LANDMARKAD":"1002002","ADDRESS":"嘉義市西區","TEL":" ","COUNTYNAME":"嘉義市","TOWNNAME":"西區","MARKTYPE":"994","Class":"4"},"geometry":{"x":191006.92700000014,"y":2597334.7676999997}},{"attributes":{"OBJECTID":26902,"LANDMARKID":"1002000000221","LANDMARKCO":"406","LANDMARKNA":"興嘉公園","LANDMARKAD":"1002002","ADDRESS":"嘉義市西區","TEL":" ","COUNTYNAME":"嘉義市","TOWNNAME":"西區","MARKTYPE":"994","Class":"4"},"geometry":{"x":192293.92090000026,"y":2596255.5439999998}},{"attributes":{"OBJECTID":26903,"LANDMARKID":"1002000000229","LANDMARKCO":"407","LANDMARKNA":"三商百貨","LANDMARKAD":"1002002","ADDRESS":"嘉義市新榮路236號","TEL":"05-2282859","COUNTYNAME":"嘉義市","TOWNNAME":"西區","MARKTYPE":"994","Class":"4"},"geometry":{"x":193221.36880000029,"y":2597578.4937999994}},{"attributes":{"OBJECTID":26904,"LANDMARKID":"1002000000230","LANDMARKCO":"407","LANDMARKNA":"新光三越","LANDMARKAD":"1002002","ADDRESS":"嘉義市垂楊路726號","TEL":"222-4888","COUNTYNAME":"嘉義市","TOWNNAME":"西區","MARKTYPE":"994","Class":"4"},"geometry":{"x":192915.70120000001,"y":2596804.1729000006}},{"attributes":{"OBJECTID":26905,"LANDMARKID":"1002000000231","LANDMARKCO":"407","LANDMARKNA":"誠品Eslite","LANDMARKAD":"1002002","ADDRESS":"嘉義市垂楊路726號10F","TEL":"05-216-0050","COUNTYNAME":"嘉義市","TOWNNAME":"西區","MARKTYPE":"994","Class":"4"},"geometry":{"x":192915.70120000001,"y":2596804.1729000006}},{"attributes":{"OBJECTID":26906,"LANDMARKID":"1002000000215","LANDMARKCO":"405","LANDMARKNA":"福懋加油站-大嘉站(台塑)","LANDMARKAD":"1002002","ADDRESS":"嘉義市北港路530-15號","TEL":"05-2387576","COUNTYNAME":"嘉義市","TOWNNAME":"西區","MARKTYPE":"994","Class":"4"},"geometry":{"x":190777.90550000034,"y":2598148.3934000004}},{"attributes":{"OBJECTID":26907,"LANDMARKID":"1002000000216","LANDMARKCO":"405","LANDMARKNA":"福懋加油站-新民站(台塑)","LANDMARKAD":"1002002","ADDRESS":"嘉義市新民路51號","TEL":"05-2830358","COUNTYNAME":"嘉義市","TOWNNAME":"西區","MARKTYPE":"994","Class":"4"},"geometry":{"x":191952.70710000023,"y":2594504.6243999992}},{"attributes":{"OBJECTID":26908,"LANDMARKID":"1002000000217","LANDMARKCO":"405","LANDMARKNA":"台亞加油站-嘉安站（台塑）","LANDMARKAD":"1002002","ADDRESS":"嘉義市福全里北港路593號","TEL":"(05)237-0848","COUNTYNAME":"嘉義市","TOWNNAME":"西區","MARKTYPE":"994","Class":"4"},"geometry":{"x":190719.97620000038,"y":2598125.4097000007}},{"attributes":{"OBJECTID":26909,"LANDMARKID":"1002000000218","LANDMARKCO":"405","LANDMARKNA":"台亞加油站-嘉義交流道站（台塑）","LANDMARKAD":"1002002","ADDRESS":"嘉義市竹村里北港路1062號","TEL":"(05)238-6727","COUNTYNAME":"嘉義市","TOWNNAME":"西區","MARKTYPE":"994","Class":"4"},"geometry":{"x":188486.22479999997,"y":2598939.0587000009}},{"attributes":{"OBJECTID":26910,"LANDMARKID":"1002000000054","LANDMARKCO":"107","LANDMARKNA":"嘉義市消防局第一消防大隊","LANDMARKAD":"1002002","ADDRESS":"嘉義市德安路171號","TEL":"05-2330119","COUNTYNAME":"嘉義市","TOWNNAME":"西區","MARKTYPE":"991","Class":"1"},"geometry":{"x":191582.34999999963,"y":2597936.1346000005}},{"attributes":{"OBJECTID":26911,"LANDMARKID":"1002000000011","LANDMARKCO":"101","LANDMARKNA":"農業委員會林業試驗所中埔研究中心","LANDMARKAD":"1002002","ADDRESS":"嘉義市文化路432巷65號","TEL":"05-2311730","COUNTYNAME":"嘉義市","TOWNNAME":"西區","MARKTYPE":"991","Class":"1"},"geometry":{"x":193684.85890000034,"y":2598541.8179000001}},{"attributes":{"OBJECTID":26912,"LANDMARKID":"1002000000012","LANDMARKCO":"103","LANDMARKNA":"嘉義巿政府衛生局","LANDMARKAD":"1002002","ADDRESS":"嘉義市德明路1號","TEL":"05-2338066","COUNTYNAME":"嘉義市","TOWNNAME":"西區","MARKTYPE":"991","Class":"1"},"geometry":{"x":191896.57949999999,"y":2597546.2642000001}},{"attributes":{"OBJECTID":26913,"LANDMARKID":"1002000000055","LANDMARKCO":"108","LANDMARKNA":"嘉義市西區區公所","LANDMARKAD":"1002002","ADDRESS":"嘉義市錦州二街28號3樓","TEL":"05-2840851","COUNTYNAME":"嘉義市","TOWNNAME":"西區","MARKTYPE":"991","Class":"1"},"geometry":{"x":192318.54700000025,"y":2595834.0796000008}},{"attributes":{"OBJECTID":26914,"LANDMARKID":"1002000000010","LANDMARKCO":"101","LANDMARKNA":"嘉義憲兵隊","LANDMARKAD":"1002002","ADDRESS":"嘉義市垂楊路704號","TEL":"05-2258585","COUNTYNAME":"嘉義市","TOWNNAME":"西區","MARKTYPE":"991","Class":"1"},"geometry":{"x":193011.71740000043,"y":2596815.1914000008}},{"attributes":{"OBJECTID":26915,"LANDMARKID":"1002000000047","LANDMARKCO":"107","LANDMARKNA":"嘉義市警察局第一分局","LANDMARKAD":"1002002","ADDRESS":"嘉義市北港路280號","TEL":"05-2348006","COUNTYNAME":"嘉義市","TOWNNAME":"西區","MARKTYPE":"991","Class":"1"},"geometry":{"x":191943.55659999978,"y":2597492.9499999993}},{"attributes":{"OBJECTID":26916,"LANDMARKID":"1002000000048","LANDMARKCO":"107","LANDMARKNA":"嘉義市警察局長榮派出所","LANDMARKAD":"1002002","ADDRESS":"嘉義市中山路567號","TEL":"05-2222206","COUNTYNAME":"嘉義市","TOWNNAME":"西區","MARKTYPE":"991","Class":"1"},"geometry":{"x":193113.19990000036,"y":2597455.3255000003}},{"attributes":{"OBJECTID":26917,"LANDMARKID":"1002000000049","LANDMARKCO":"107","LANDMARKNA":"嘉義市警察局竹園派出所","LANDMARKAD":"1002002","ADDRESS":"嘉義市博愛路二段455號","TEL":"05-2356144","COUNTYNAME":"嘉義市","TOWNNAME":"西區","MARKTYPE":"991","Class":"1"},"geometry":{"x":192006.51900000032,"y":2596768.7081000004}},{"attributes":{"OBJECTID":26918,"LANDMARKID":"1002000000050","LANDMARKCO":"107","LANDMARKNA":"嘉義市警察局北鎮派出所","LANDMARKAD":"1002002","ADDRESS":"嘉義市北港路280號","TEL":"05-2322732","COUNTYNAME":"嘉義市","TOWNNAME":"西區","MARKTYPE":"991","Class":"1"},"geometry":{"x":191943.55659999978,"y":2597492.9499999993}},{"attributes":{"OBJECTID":26919,"LANDMARKID":"1002000000051","LANDMARKCO":"107","LANDMARKNA":"嘉義市警察局北興派出所","LANDMARKAD":"1002002","ADDRESS":"嘉義市博愛路一段506號","TEL":"05-2321294","COUNTYNAME":"嘉義市","TOWNNAME":"西區","MARKTYPE":"991","Class":"1"},"geometry":{"x":193028.74700000044,"y":2598106.4890000001}},{"attributes":{"OBJECTID":26920,"LANDMARKID":"1002000000052","LANDMARKCO":"107","LANDMARKNA":"嘉義市消防局德安消防分隊","LANDMARKAD":"1002002","ADDRESS":"嘉義市德安路171號","TEL":"05-2330119","COUNTYNAME":"嘉義市","TOWNNAME":"西區","MARKTYPE":"991","Class":"1"},"geometry":{"x":191582.34999999963,"y":2597936.1346000005}},{"attributes":{"OBJECTID":26921,"LANDMARKID":"1002000000053","LANDMARKCO":"107","LANDMARKNA":"嘉義市消防局湖內消防分隊","LANDMARKAD":"1002002","ADDRESS":"嘉義市南京路59號","TEL":"05-2832051","COUNTYNAME":"嘉義市","TOWNNAME":"西區","MARKTYPE":"991","Class":"1"},"geometry":{"x":192879.91660000011,"y":2594907.0612000003}},{"attributes":{"OBJECTID":26922,"LANDMARKID":"1002000000029","LANDMARKCO":"105","LANDMARKNA":"嘉義市嘉義地政事務所","LANDMARKAD":"1002002","ADDRESS":"嘉義市國華街245號8樓","TEL":"05-2246501","COUNTYNAME":"嘉義市","TOWNNAME":"西區","MARKTYPE":"991","Class":"1"},"geometry":{"x":193648.47719999962,"y":2597459.6962000001}},{"attributes":{"OBJECTID":26923,"LANDMARKID":"1002000000030","LANDMARKCO":"106","LANDMARKNA":"嘉義市西區戶政事務所","LANDMARKAD":"1002002","ADDRESS":"嘉義市錦州二街28號2樓","TEL":"05-2831823","COUNTYNAME":"嘉義市","TOWNNAME":"西區","MARKTYPE":"991","Class":"1"},"geometry":{"x":192318.54700000025,"y":2595834.0796000008}},{"attributes":{"OBJECTID":26924,"LANDMARKID":"1002000000013","LANDMARKCO":"103","LANDMARKNA":"嘉義市審計室","LANDMARKAD":"1002002","ADDRESS":"嘉義市新民路221巷78號","TEL":"05-2853488","COUNTYNAME":"嘉義市","TOWNNAME":"西區","MARKTYPE":"991","Class":"1"},"geometry":{"x":192053.18230000045,"y":2594764.4251000006}},{"attributes":{"OBJECTID":26925,"LANDMARKID":"1002000000014","LANDMARKCO":"103","LANDMARKNA":"嘉義市西區衛生所","LANDMARKAD":"1002002","ADDRESS":"嘉義市德明路1號","TEL":"05-2337355","COUNTYNAME":"嘉義市","TOWNNAME":"西區","MARKTYPE":"991","Class":"1"},"geometry":{"x":191896.57949999999,"y":2597546.2642000001}},{"attributes":{"OBJECTID":26926,"LANDMARKID":"1002000000046","LANDMARKCO":"107","LANDMARKNA":"嘉義市警察局八掌派出所","LANDMARKAD":"1002002","ADDRESS":"嘉義市世賢路451號","TEL":"05-2867110","COUNTYNAME":"嘉義市","TOWNNAME":"西區","MARKTYPE":"991","Class":"1"},"geometry":{"x":193516.51489999983,"y":2596811.0417999998}},{"attributes":{"OBJECTID":26927,"LANDMARKID":"1002000000015","LANDMARKCO":"103","LANDMARKNA":"嘉義市議會","LANDMARKAD":"1002002","ADDRESS":"嘉義市嘉義市北港路278號","TEL":"05-2812288","COUNTYNAME":"嘉義市","TOWNNAME":"西區","MARKTYPE":"991","Class":"1"},"geometry":{"x":191964.34850000031,"y":2597470.5320999995}},{"attributes":{"OBJECTID":26928,"LANDMARKID":"1002000000113","LANDMARKCO":"205","LANDMARKNA":"石頭資料館","LANDMARKAD":"1002002","ADDRESS":"嘉義市西區湖子內路366號","TEL":" ","COUNTYNAME":"嘉義市","TOWNNAME":"西區","MARKTYPE":"992","Class":"2"},"geometry":{"x":192840.32149999961,"y":2594038.3760000002}},{"attributes":{"OBJECTID":26929,"LANDMARKID":"1002000000110","LANDMARKCO":"204","LANDMARKNA":"嘉義市立圖書館世賢分館","LANDMARKAD":"1002002","ADDRESS":"嘉義市西區世賢路一段567號","TEL":" ","COUNTYNAME":"嘉義市","TOWNNAME":"西區","MARKTYPE":"992","Class":"2"},"geometry":{"x":191644.83069999982,"y":2598677.1947000008}},{"attributes":{"OBJECTID":26930,"LANDMARKID":"1002000000111","LANDMARKCO":"204","LANDMARKNA":"嘉義市立圖書館黃賓分館","LANDMARKAD":"1002002","ADDRESS":"嘉義市西區延平街328號","TEL":" ","COUNTYNAME":"嘉義市","TOWNNAME":"西區","MARKTYPE":"992","Class":"2"},"geometry":{"x":192861.48990000039,"y":2597083.9652999993}},{"attributes":{"OBJECTID":26931,"LANDMARKID":"1002000000063","LANDMARKCO":"202","LANDMARKNA":"市立玉山高中","LANDMARKAD":"1002002","ADDRESS":"嘉義市世賢路二段423號","TEL":"05-2357980","COUNTYNAME":"嘉義市","TOWNNAME":"西區","MARKTYPE":"992","Class":"2"},"geometry":{"x":191944.36760000046,"y":2596850.4627}},{"attributes":{"OBJECTID":26932,"LANDMARKID":"1002000000106","LANDMARKCO":"203","LANDMARKNA":"市立玉山國中","LANDMARKAD":"1002002","ADDRESS":"嘉義市世賢路二段423號","TEL":"05-2357980","COUNTYNAME":"嘉義市","TOWNNAME":"西區","MARKTYPE":"992","Class":"2"},"geometry":{"x":191920.28859999962,"y":2596870.3675999995}},{"attributes":{"OBJECTID":26933,"LANDMARKID":"1002000000107","LANDMARKCO":"203","LANDMARKNA":"市立民生國中","LANDMARKAD":"1002002","ADDRESS":"嘉義市新民路601號","TEL":"05-2855331","COUNTYNAME":"嘉義市","TOWNNAME":"西區","MARKTYPE":"992","Class":"2"},"geometry":{"x":192816.97530000005,"y":2595770.5527999997}},{"attributes":{"OBJECTID":26934,"LANDMARKID":"1002000000064","LANDMARKCO":"202","LANDMARKNA":"國立嘉義女中","LANDMARKAD":"1002002","ADDRESS":"嘉義市垂楊路243號","TEL":"05-2254603","COUNTYNAME":"嘉義市","TOWNNAME":"西區","MARKTYPE":"992","Class":"2"},"geometry":{"x":193849.40170000028,"y":2596835.1366000008}},{"attributes":{"OBJECTID":26935,"LANDMARKID":"1002000000096","LANDMARKCO":"203","LANDMARKNA":"市立北園國中","LANDMARKAD":"1002002","ADDRESS":"嘉義市北湖里北社尾路166巷12號","TEL":"05-2374673","COUNTYNAME":"嘉義市","TOWNNAME":"西區","MARKTYPE":"992","Class":"2"},"geometry":{"x":191438.13269999996,"y":2599233.9229000006}},{"attributes":{"OBJECTID":26936,"LANDMARKID":"1002000000097","LANDMARKCO":"203","LANDMARKNA":"市立博愛國小","LANDMARKAD":"1002002","ADDRESS":"嘉義市友愛路822號","TEL":"05-2322863","COUNTYNAME":"嘉義市","TOWNNAME":"西區","MARKTYPE":"992","Class":"2"},"geometry":{"x":193210.90589999966,"y":2598830.6854999997}},{"attributes":{"OBJECTID":26937,"LANDMARKID":"1002000000098","LANDMARKCO":"203","LANDMARKNA":"市立世賢國小","LANDMARKAD":"1002002","ADDRESS":"嘉義市世賢路一段687號","TEL":"05-2338264","COUNTYNAME":"嘉義市","TOWNNAME":"西區","MARKTYPE":"992","Class":"2"},"geometry":{"x":191563.3498999998,"y":2598582.7993000001}},{"attributes":{"OBJECTID":26938,"LANDMARKID":"1002000000099","LANDMARKCO":"203","LANDMARKNA":"市立北園國小","LANDMARKAD":"1002002","ADDRESS":"嘉義市北湖里北社尾路168號","TEL":"05-2371330","COUNTYNAME":"嘉義市","TOWNNAME":"西區","MARKTYPE":"992","Class":"2"},"geometry":{"x":191338.02890000027,"y":2599162.0231999997}},{"attributes":{"OBJECTID":26939,"LANDMARKID":"1002000000100","LANDMARKCO":"203","LANDMARKNA":"市立志航國小","LANDMARKAD":"1002002","ADDRESS":"嘉義市光路里世賢路四段141號","TEL":"05-2857924","COUNTYNAME":"嘉義市","TOWNNAME":"西區","MARKTYPE":"992","Class":"2"},"geometry":{"x":193302.20839999989,"y":2595570.4846999999}},{"attributes":{"OBJECTID":26940,"LANDMARKID":"1002000000101","LANDMARKCO":"203","LANDMARKNA":"市立大同國小","LANDMARKAD":"1002002","ADDRESS":"嘉義市成功街15號","TEL":"05-2222114","COUNTYNAME":"嘉義市","TOWNNAME":"西區","MARKTYPE":"992","Class":"2"},"geometry":{"x":193368.0839999998,"y":2596675.7249999996}},{"attributes":{"OBJECTID":26941,"LANDMARKID":"1002000000102","LANDMARKCO":"203","LANDMARKNA":"市立育人國小","LANDMARKAD":"1002002","ADDRESS":"嘉義市育人路211號","TEL":"05-2351595","COUNTYNAME":"嘉義市","TOWNNAME":"西區","MARKTYPE":"992","Class":"2"},"geometry":{"x":190357.71580000035,"y":2596755.6971000005}},{"attributes":{"OBJECTID":26942,"LANDMARKID":"1002000000103","LANDMARKCO":"203","LANDMARKNA":"市立垂楊國小","LANDMARKAD":"1002002","ADDRESS":"嘉義市垂楊路605號","TEL":"05-2853151","COUNTYNAME":"嘉義市","TOWNNAME":"西區","MARKTYPE":"992","Class":"2"},"geometry":{"x":192662.35010000039,"y":2596694.5460000001}},{"attributes":{"OBJECTID":26943,"LANDMARKID":"1002000000104","LANDMARKCO":"203","LANDMARKNA":"市立興嘉國小","LANDMARKAD":"1002002","ADDRESS":"嘉義市重慶路51號","TEL":"05-2860885","COUNTYNAME":"嘉義市","TOWNNAME":"西區","MARKTYPE":"992","Class":"2"},"geometry":{"x":192581.11450000014,"y":2595915.9927999992}},{"attributes":{"OBJECTID":26944,"LANDMARKID":"1002000000105","LANDMARKCO":"203","LANDMARKNA":"市立僑平國小","LANDMARKAD":"1002002","ADDRESS":"嘉義市德安路10號","TEL":"05-2333746","COUNTYNAME":"嘉義市","TOWNNAME":"西區","MARKTYPE":"992","Class":"2"},"geometry":{"x":192023.62750000041,"y":2598011.2567999996}},{"attributes":{"OBJECTID":26945,"LANDMARKID":"1002000000062","LANDMARKCO":"201","LANDMARKNA":"國立嘉義大學新民校區","LANDMARKAD":"1002002","ADDRESS":"嘉義市新民路580號","TEL":"05-2717000","COUNTYNAME":"嘉義市","TOWNNAME":"西區","MARKTYPE":"992","Class":"2"},"geometry":{"x":192911.94770000037,"y":2595747.6765999999}},{"attributes":{"OBJECTID":26946,"LANDMARKID":"1002000000108","LANDMARKCO":"203","LANDMARKNA":"市立港坪國小(籌)","LANDMARKAD":"1002002","ADDRESS":"嘉義市四維路與永春五街路口","TEL":"05-2254321","COUNTYNAME":"嘉義市","TOWNNAME":"西區","MARKTYPE":"992","Class":"2"},"geometry":{"x":190946.62519999966,"y":2597711.0095000006}},{"attributes":{"OBJECTID":26947,"LANDMARKID":"1002000000109","LANDMARKCO":"203","LANDMARKNA":"國立嘉義啟智學校","LANDMARKAD":"1002002","ADDRESS":"嘉義市世賢路二段123號","TEL":"05-2858549","COUNTYNAME":"嘉義市","TOWNNAME":"西區","MARKTYPE":"992","Class":"2"},"geometry":{"x":190855.6453999998,"y":2597580.6483999994}},{"attributes":{"OBJECTID":26948,"LANDMARKID":"1002000000145","LANDMARKCO":"308","LANDMARKNA":"國1-嘉義交流道-北上","LANDMARKAD":"1002002","ADDRESS":"嘉義市西區","TEL":" ","COUNTYNAME":"嘉義市","TOWNNAME":"西區","MARKTYPE":"993","Class":"308"},"geometry":{"x":188136.4327999996,"y":2599510.4795999993}},{"attributes":{"OBJECTID":26949,"LANDMARKID":"1002000000146","LANDMARKCO":"308","LANDMARKNA":"國1-嘉義交流道-南下","LANDMARKAD":"1002002","ADDRESS":"嘉義市西區","TEL":" ","COUNTYNAME":"嘉義市","TOWNNAME":"西區","MARKTYPE":"993","Class":"308"},"geometry":{"x":187625.87459999975,"y":2599089.2239999995}},{"attributes":{"OBJECTID":26950,"LANDMARKID":"1002000000118","LANDMARKCO":"302","LANDMARKNA":"統聯客運-嘉義站-自營站","LANDMARKAD":"1002002","ADDRESS":"嘉義市林森西路526號","TEL":"連絡電話:05-223","COUNTYNAME":"嘉義市","TOWNNAME":"西區","MARKTYPE":"993","Class":"302"},"geometry":{"x":193080.04800000042,"y":2597558.4804999996}},{"attributes":{"OBJECTID":26951,"LANDMARKID":"1002000000119","LANDMARKCO":"302","LANDMARKNA":"統聯客運-北港路站-自營站","LANDMARKAD":"1002002","ADDRESS":"嘉義市北港路1480號","TEL":"連絡電話:05-238","COUNTYNAME":"嘉義市","TOWNNAME":"西區","MARKTYPE":"993","Class":"302"},"geometry":{"x":188255.20639999956,"y":2599038.5465999991}},{"attributes":{"OBJECTID":26952,"LANDMARKID":"1002000000120","LANDMARKCO":"302","LANDMARKNA":"和欣客運-嘉義總站","LANDMARKAD":"1002002","ADDRESS":"嘉義市中山路520號","TEL":"(05)216-7765","COUNTYNAME":"嘉義市","TOWNNAME":"西區","MARKTYPE":"993","Class":"302"},"geometry":{"x":192984.38310000021,"y":2597471.1084000003}},{"attributes":{"OBJECTID":26953,"LANDMARKID":"1002000000121","LANDMARKCO":"302","LANDMARKNA":"和欣客運-嘉義交流道(代售)","LANDMARKAD":"1002002","ADDRESS":"嘉義市北港路1478號","TEL":"(05)237-6895","COUNTYNAME":"嘉義市","TOWNNAME":"西區","MARKTYPE":"993","Class":"302"},"geometry":{"x":188247.26090000011,"y":2599025.5129000004}},{"attributes":{"OBJECTID":26954,"LANDMARKID":"1002000000122","LANDMARKCO":"302","LANDMARKNA":"日統客運-嘉義站","LANDMARKAD":"1002002","ADDRESS":"嘉義市林森西路281號(台灣中油加油站)","TEL":"05-2236061","COUNTYNAME":"嘉義市","TOWNNAME":"西區","MARKTYPE":"993","Class":"302"},"geometry":{"x":193182.0354000004,"y":2597611.8710999992}},{"attributes":{"OBJECTID":26955,"LANDMARKID":"1002000000123","LANDMARKCO":"302","LANDMARKNA":"阿囉哈客運-嘉義北站","LANDMARKAD":"1002002","ADDRESS":"嘉義市北港路1430號之一","TEL":"(05)2375-005","COUNTYNAME":"嘉義市","TOWNNAME":"西區","MARKTYPE":"993","Class":"302"},"geometry":{"x":188356.50119999982,"y":2598968.9702000003}},{"attributes":{"OBJECTID":26956,"LANDMARKID":"1002000000124","LANDMARKCO":"302","LANDMARKNA":"阿囉哈客運-嘉義總站","LANDMARKAD":"1002002","ADDRESS":"嘉義市中山路605號","TEL":"(05)216-6000","COUNTYNAME":"嘉義市","TOWNNAME":"西區","MARKTYPE":"993","Class":"302"},"geometry":{"x":193012.54229999986,"y":2597430.2167000007}},{"attributes":{"OBJECTID":26957,"LANDMARKID":"1002000000125","LANDMARKCO":"302","LANDMARKNA":"嘉義汽車客運林森西站","LANDMARKAD":"1002002","ADDRESS":"嘉義市西區新榮路351號","TEL":" ","COUNTYNAME":"嘉義市","TOWNNAME":"西區","MARKTYPE":"993","Class":"302"},"geometry":{"x":193192.33420000039,"y":2597636.9713000003}},{"attributes":{"OBJECTID":26958,"LANDMARKID":"1002000000126","LANDMARKCO":"302","LANDMARKNA":"嘉義汽車客運嘉義總站","LANDMARKAD":"1002002","ADDRESS":"嘉義市西區中山路503號","TEL":" ","COUNTYNAME":"嘉義市","TOWNNAME":"西區","MARKTYPE":"993","Class":"302"},"geometry":{"x":193247.11870000046,"y":2597476.3631999996}},{"attributes":{"OBJECTID":26959,"LANDMARKID":"1002000000127","LANDMARKCO":"302","LANDMARKNA":"國光汽車客運嘉義站","LANDMARKAD":"1002002","ADDRESS":"嘉義市通運里中山路524號","TEL":" ","COUNTYNAME":"嘉義市","TOWNNAME":"西區","MARKTYPE":"993","Class":"302"},"geometry":{"x":192998.72339999955,"y":2597485.6022999994}},{"attributes":{"OBJECTID":26960,"LANDMARKID":"1002000000128","LANDMARKCO":"302","LANDMARKNA":"統聯汽車客運嘉義站","LANDMARKAD":"1002002","ADDRESS":"嘉義市西區林森西路526號","TEL":" ","COUNTYNAME":"嘉義市","TOWNNAME":"西區","MARKTYPE":"993","Class":"302"},"geometry":{"x":193076.33359999955,"y":2597570.1712999996}},{"attributes":{"OBJECTID":26961,"LANDMARKID":"1002000000129","LANDMARKCO":"302","LANDMARKNA":"國光汽車客運嘉義站","LANDMARKAD":"1002002","ADDRESS":"600嘉義市中山路524號","TEL":"|","COUNTYNAME":"嘉義市","TOWNNAME":"西區","MARKTYPE":"993","Class":"302"},"geometry":{"x":193002.98919999972,"y":2597494.4696999993}},{"attributes":{"OBJECTID":26962,"LANDMARKID":"1002000000130","LANDMARKCO":"303","LANDMARKNA":"友愛停車場","LANDMARKAD":"1002002","ADDRESS":"嘉義市西區友愛路","TEL":" ","COUNTYNAME":"嘉義市","TOWNNAME":"西區","MARKTYPE":"993","Class":"303"},"geometry":{"x":192118.98099999968,"y":2598117.9196000006}},{"attributes":{"OBJECTID":26963,"LANDMARKID":"1002000000131","LANDMARKCO":"303","LANDMARKNA":"北港路停車場","LANDMARKAD":"1002002","ADDRESS":"嘉義市西區友愛路","TEL":" ","COUNTYNAME":"嘉義市","TOWNNAME":"西區","MARKTYPE":"993","Class":"303"},"geometry":{"x":192148.20069999993,"y":2597282.0096000005}},{"attributes":{"OBJECTID":26964,"LANDMARKID":"1002000000132","LANDMARKCO":"303","LANDMARKNA":"拖吊停車場","LANDMARKAD":"1002002","ADDRESS":"嘉義市西區世賢路三段","TEL":" ","COUNTYNAME":"嘉義市","TOWNNAME":"西區","MARKTYPE":"993","Class":"303"},"geometry":{"x":192589.40780000016,"y":2595557.9989}},{"attributes":{"OBJECTID":26965,"LANDMARKID":"1002000000133","LANDMARKCO":"303","LANDMARKNA":"嘉義市中正公園地下停車場","LANDMARKAD":"1002002","ADDRESS":"嘉義市西區民權路與忠義街口","TEL":" ","COUNTYNAME":"嘉義市","TOWNNAME":"西區","MARKTYPE":"993","Class":"303"},"geometry":{"x":193545.15070000011,"y":2597749.6307999995}},{"attributes":{"OBJECTID":26966,"LANDMARKID":"1002000000134","LANDMARKCO":"303","LANDMARKNA":"西市場地下停車場","LANDMARKAD":"1002002","ADDRESS":"嘉義市西區忠義街與中山路口","TEL":" ","COUNTYNAME":"嘉義市","TOWNNAME":"西區","MARKTYPE":"993","Class":"303"},"geometry":{"x":193564.60290000029,"y":2597487.7229999993}},{"attributes":{"OBJECTID":26967,"LANDMARKID":"1002000000135","LANDMARKCO":"303","LANDMARKNA":"嘉義中信大飯店地下停車場","LANDMARKAD":"1002002","ADDRESS":"嘉義市西區文化路257號","TEL":"05-2292233","COUNTYNAME":"嘉義市","TOWNNAME":"西區","MARKTYPE":"993","Class":"303"},"geometry":{"x":193684.48199999984,"y":2597910.7622999996}},{"attributes":{"OBJECTID":26968,"LANDMARKID":"1002000000117","LANDMARKCO":"301","LANDMARKNA":"嘉義火車站","LANDMARKAD":"1002002","ADDRESS":"嘉義市西區中山路528號","TEL":"05-2228904","COUNTYNAME":"嘉義市","TOWNNAME":"西區","MARKTYPE":"993","Class":"301"},"geometry":{"x":192918.74199999962,"y":2597397.0149000008}},{"attributes":{"OBJECTID":26969,"LANDMARKID":"1002000000173","LANDMARKCO":"402","LANDMARKNA":"中華電信-嘉義營運處","LANDMARKAD":"1002002","ADDRESS":"嘉義市中興路322號","TEL":"123 或 0800501234","COUNTYNAME":"嘉義市","TOWNNAME":"西區","MARKTYPE":"994","Class":"4"},"geometry":{"x":191823.47039999999,"y":2597748.0965}},{"attributes":{"OBJECTID":26970,"LANDMARKID":"1002000000174","LANDMARKCO":"402","LANDMARKNA":"中華電信-嘉義興業特約服務中心","LANDMARKAD":"1002002","ADDRESS":"嘉義市西區興業西路421號","TEL":"05-2352658","COUNTYNAME":"嘉義市","TOWNNAME":"西區","MARKTYPE":"994","Class":"4"},"geometry":{"x":192311.65160000045,"y":2596162.7980000004}},{"attributes":{"OBJECTID":26971,"LANDMARKID":"1002000000175","LANDMARKCO":"402","LANDMARKNA":"遠傳電信-嘉義門市","LANDMARKAD":"1002002","ADDRESS":"嘉義市民生北路89號","TEL":" ","COUNTYNAME":"嘉義市","TOWNNAME":"西區","MARKTYPE":"994","Class":"4"},"geometry":{"x":193456.52909999993,"y":2597114.8066000007}},{"attributes":{"OBJECTID":26972,"LANDMARKID":"1002000000176","LANDMARKCO":"402","LANDMARKNA":"遠傳電信-嘉義中興門市","LANDMARKAD":"1002002","ADDRESS":"嘉義市中興路331號","TEL":" ","COUNTYNAME":"嘉義市","TOWNNAME":"西區","MARKTYPE":"994","Class":"4"},"geometry":{"x":191933.39059999958,"y":2597767.4049999993}},{"attributes":{"OBJECTID":26973,"LANDMARKID":"1002000000177","LANDMARKCO":"402","LANDMARKNA":"威寶電信-嘉義垂楊直營服務中心","LANDMARKAD":"1002002","ADDRESS":"嘉義市垂楊路510號","TEL":" ","COUNTYNAME":"嘉義市","TOWNNAME":"西區","MARKTYPE":"994","Class":"4"},"geometry":{"x":193507.33040000033,"y":2596859.0065000001}},{"attributes":{"OBJECTID":26974,"LANDMARKID":"1002000000178","LANDMARKCO":"402","LANDMARKNA":"威寶電信-嘉義民族二特約服務中心","LANDMARKAD":"1002002","ADDRESS":"嘉義市西區民族路708號","TEL":"05-2230472","COUNTYNAME":"嘉義市","TOWNNAME":"西區","MARKTYPE":"994","Class":"4"},"geometry":{"x":193123.77520000003,"y":2597051.6209999993}},{"attributes":{"OBJECTID":26975,"LANDMARKID":"1002000000179","LANDMARKCO":"402","LANDMARKNA":"威寶電信-嘉義興業西特約服務中心","LANDMARKAD":"1002002","ADDRESS":"嘉義市西區興業西路314號","TEL":"05-2844885","COUNTYNAME":"嘉義市","TOWNNAME":"西區","MARKTYPE":"994","Class":"4"},"geometry":{"x":192653.4143000003,"y":2596223.0204000007}},{"attributes":{"OBJECTID":26976,"LANDMARKID":"1002000000180","LANDMARKCO":"402","LANDMARKNA":"威寶電信-嘉義林森西特約服務中心","LANDMARKAD":"1002002","ADDRESS":"嘉義市東區林森西路412號","TEL":"05-2270986","COUNTYNAME":"嘉義市","TOWNNAME":"西區","MARKTYPE":"994","Class":"4"},"geometry":{"x":193269.96109999996,"y":2597780.8446999993}},{"attributes":{"OBJECTID":26977,"LANDMARKID":"1002000000267","LANDMARKCO":"511","LANDMARKNA":"嘉義文化路夜市","LANDMARKAD":"1002002","ADDRESS":"嘉義市東區","TEL":" ","COUNTYNAME":"嘉義市","TOWNNAME":"西區","MARKTYPE":"995","Class":"5"},"geometry":{"x":193793.60730000027,"y":2597366.5077999998}},{"attributes":{"OBJECTID":26978,"LANDMARKID":"1000700000930","LANDMARKCO":"405","LANDMARKNA":"中油加油站-全興工業區站","LANDMARKAD":"1000705","ADDRESS":"彰化縣和美鎮興工路262號之2","TEL":"04-7576398","COUNTYNAME":"彰化縣","TOWNNAME":"伸港鄉","MARKTYPE":"994","Class":"4"},"geometry":{"x":200207.74010000005,"y":2672498.0061000008}},{"attributes":{"OBJECTID":26979,"LANDMARKID":"1000700000931","LANDMARKCO":"405","LANDMARKNA":"統一速邁樂加油站-伸龍站(中油)","LANDMARKAD":"1000705","ADDRESS":"彰化縣伸港鄉海尾村濱二路488號","TEL":"04-7995855","COUNTYNAME":"彰化縣","TOWNNAME":"伸港鄉","MARKTYPE":"994","Class":"4"},"geometry":{"x":196596.69299999997,"y":2673478.9046999998}},{"attributes":{"OBJECTID":26980,"LANDMARKID":"1000700000932","LANDMARKCO":"405","LANDMARKNA":"中油加油站-泉興站","LANDMARKAD":"1000705","ADDRESS":"彰化縣伸港鄉中興路3段545號","TEL":"04-7987459","COUNTYNAME":"彰化縣","TOWNNAME":"伸港鄉","MARKTYPE":"994","Class":"4"},"geometry":{"x":198321.79930000007,"y":2673871.9618999995}},{"attributes":{"OBJECTID":26981,"LANDMARKID":"1000700000933","LANDMARKCO":"405","LANDMARKNA":"中油加油站-新港站","LANDMARKAD":"1000705","ADDRESS":"彰化縣伸港鄉大同村建國路33號","TEL":"04-7987488","COUNTYNAME":"彰化縣","TOWNNAME":"伸港鄉","MARKTYPE":"994","Class":"4"},"geometry":{"x":197807.56539999973,"y":2672839.9996000007}},{"attributes":{"OBJECTID":26982,"LANDMARKID":"1000700000934","LANDMARKCO":"405","LANDMARKNA":"中油加油站-伸港站(中油直營)","LANDMARKAD":"1000705","ADDRESS":"彰化縣伸港鄉新港村新港路95號","TEL":"04-7983424","COUNTYNAME":"彰化縣","TOWNNAME":"伸港鄉","MARKTYPE":"994","Class":"4"},"geometry":{"x":197923.79270000011,"y":2671048.8767000008}},{"attributes":{"OBJECTID":26983,"LANDMARKID":"1000700000693","LANDMARKCO":"401","LANDMARKNA":"伸港忠孝醫院","LANDMARKAD":"1000705","ADDRESS":"彰化縣伸港鄉新港村忠孝路30號","TEL":"04-7991618","COUNTYNAME":"彰化縣","TOWNNAME":"伸港鄉","MARKTYPE":"994","Class":"4"},"geometry":{"x":197746.41860000044,"y":2671582.9367999993}},{"attributes":{"OBJECTID":26984,"LANDMARKID":"1000700001092","LANDMARKCO":"506","LANDMARKNA":"彰化觀光果園","LANDMARKAD":"1000705","ADDRESS":"彰化縣伸港鄉","TEL":" ","COUNTYNAME":"彰化縣","TOWNNAME":"伸港鄉","MARKTYPE":"995","Class":"5"},"geometry":{"x":197958.68479999993,"y":2675778.6959000006}},{"attributes":{"OBJECTID":26985,"LANDMARKID":"1000700000986","LANDMARKCO":"408","LANDMARKNA":"郵局-伸港郵局","LANDMARKAD":"1000705","ADDRESS":"彰化縣伸港鄉中山路100號","TEL":"(04)7982-139","COUNTYNAME":"彰化縣","TOWNNAME":"伸港鄉","MARKTYPE":"994","Class":"4"},"geometry":{"x":197628.22329999972,"y":2671383.3546999991}},{"attributes":{"OBJECTID":26986,"LANDMARKID":"1000700000987","LANDMARKCO":"408","LANDMARKNA":"郵局-伸港全興郵局","LANDMARKAD":"1000705","ADDRESS":"彰化縣伸港鄉興工路67號","TEL":"(04)7990-818","COUNTYNAME":"彰化縣","TOWNNAME":"伸港鄉","MARKTYPE":"994","Class":"4"},"geometry":{"x":200310.46760000009,"y":2674099.9307000004}},{"attributes":{"OBJECTID":26987,"LANDMARKID":"1000700001070","LANDMARKCO":"409","LANDMARKNA":"彰化縣伸港鄉農會","LANDMARKAD":"1000705","ADDRESS":"彰化縣伸港鄉新港村中山東路135號","TEL":"04-7983191","COUNTYNAME":"彰化縣","TOWNNAME":"伸港鄉","MARKTYPE":"994","Class":"4"},"geometry":{"x":198118.90249999985,"y":2671450.0545000006}},{"attributes":{"OBJECTID":26988,"LANDMARKID":"1000700000261","LANDMARKCO":"108","LANDMARKNA":"彰化縣伸港鄉公所","LANDMARKAD":"1000705","ADDRESS":"彰化縣伸港鄉大同村中興路二段201號","TEL":"04-7982010","COUNTYNAME":"彰化縣","TOWNNAME":"伸港鄉","MARKTYPE":"991","Class":"1"},"geometry":{"x":197786.44149999972,"y":2672803.5726999994}},{"attributes":{"OBJECTID":26989,"LANDMARKID":"1000700000095","LANDMARKCO":"103","LANDMARKNA":"彰化縣伸港鄉衛生所","LANDMARKAD":"1000705","ADDRESS":"彰化縣伸港鄉新港村和平路9號","TEL":"04-7982034","COUNTYNAME":"彰化縣","TOWNNAME":"伸港鄉","MARKTYPE":"991","Class":"1"},"geometry":{"x":197635.70739999972,"y":2671449.7736000009}},{"attributes":{"OBJECTID":26990,"LANDMARKID":"1000700000096","LANDMARKCO":"103","LANDMARKNA":"彰化縣伸港鄉民代表會","LANDMARKAD":"1000705","ADDRESS":"彰化縣伸港鄉大同村中興路二段201號3樓","TEL":"04-7982085","COUNTYNAME":"彰化縣","TOWNNAME":"伸港鄉","MARKTYPE":"991","Class":"1"},"geometry":{"x":197786.44149999972,"y":2672803.5726999994}},{"attributes":{"OBJECTID":26991,"LANDMARKID":"1000700000247","LANDMARKCO":"107","LANDMARKNA":"彰化縣消防局伸港消防分隊","LANDMARKAD":"1000705","ADDRESS":"彰化縣伸港鄉新港村新港路497號","TEL":"04-7984595","COUNTYNAME":"彰化縣","TOWNNAME":"伸港鄉","MARKTYPE":"991","Class":"1"},"geometry":{"x":197830.27570000011,"y":2672080.9414000008}},{"attributes":{"OBJECTID":26992,"LANDMARKID":"1000700000248","LANDMARKCO":"107","LANDMARKNA":"彰化縣警察局伸港分駐所","LANDMARKAD":"1000705","ADDRESS":"彰化縣伸港鄉新巷村新港路310號","TEL":"04-7982044","COUNTYNAME":"彰化縣","TOWNNAME":"伸港鄉","MARKTYPE":"991","Class":"1"},"geometry":{"x":197809.57780000009,"y":2671598.6538999993}},{"attributes":{"OBJECTID":26993,"LANDMARKID":"1000700000116","LANDMARKCO":"106","LANDMARKNA":"彰化縣伸港鄉戶政事務所","LANDMARKAD":"1000705","ADDRESS":"彰化縣伸港鄉新港村忠孝東街50號","TEL":"04-7982394","COUNTYNAME":"彰化縣","TOWNNAME":"伸港鄉","MARKTYPE":"991","Class":"1"},"geometry":{"x":197936.34580000024,"y":2671580.4878000002}},{"attributes":{"OBJECTID":26994,"LANDMARKID":"1000700000001","LANDMARKCO":"101","LANDMARKNA":"工業局全興工業區服務中心","LANDMARKAD":"1000705","ADDRESS":"彰化縣伸港鄉興工路67號","TEL":"04-7980776","COUNTYNAME":"彰化縣","TOWNNAME":"伸港鄉","MARKTYPE":"991","Class":"1"},"geometry":{"x":200296.85089999996,"y":2674093.7301000003}},{"attributes":{"OBJECTID":26995,"LANDMARKID":"1000700000534","LANDMARKCO":"204","LANDMARKNA":"彰化縣立圖書館伸港分館","LANDMARKAD":"1000705","ADDRESS":"彰化縣伸港鄉新港村中正路89號","TEL":" ","COUNTYNAME":"彰化縣","TOWNNAME":"伸港鄉","MARKTYPE":"992","Class":"2"},"geometry":{"x":197643.66480000038,"y":2671419.1699999999}},{"attributes":{"OBJECTID":26996,"LANDMARKID":"1000700000514","LANDMARKCO":"203","LANDMARKNA":"縣立伸港國中","LANDMARKAD":"1000705","ADDRESS":"彰化縣伸港鄉新港路280巷101號","TEL":"04-7988611","COUNTYNAME":"彰化縣","TOWNNAME":"伸港鄉","MARKTYPE":"992","Class":"2"},"geometry":{"x":197699.68269999977,"y":2671655.1794000007}},{"attributes":{"OBJECTID":26997,"LANDMARKID":"1000700000515","LANDMARKCO":"203","LANDMARKNA":"縣立新港國小","LANDMARKAD":"1000705","ADDRESS":"彰化縣伸港鄉新港路256號","TEL":"04-7982310","COUNTYNAME":"彰化縣","TOWNNAME":"伸港鄉","MARKTYPE":"992","Class":"2"},"geometry":{"x":197825.01209999993,"y":2671507.5503000002}},{"attributes":{"OBJECTID":26998,"LANDMARKID":"1000700000516","LANDMARKCO":"203","LANDMARKNA":"縣立大同國小","LANDMARKAD":"1000705","ADDRESS":"彰化縣伸港鄉大同村彰新路七段724號","TEL":"04-7982307","COUNTYNAME":"彰化縣","TOWNNAME":"伸港鄉","MARKTYPE":"992","Class":"2"},"geometry":{"x":198368.94820000045,"y":2672834.3976000007}},{"attributes":{"OBJECTID":26999,"LANDMARKID":"1000700000517","LANDMARKCO":"203","LANDMARKNA":"縣立伸東國小","LANDMARKAD":"1000705","ADDRESS":"彰化縣伸港鄉七嘉村108號","TEL":"04-7982314","COUNTYNAME":"彰化縣","TOWNNAME":"伸港鄉","MARKTYPE":"992","Class":"2"},"geometry":{"x":198760.28839999996,"y":2671310.5098999999}},{"attributes":{"OBJECTID":27000,"LANDMARKID":"1000700000518","LANDMARKCO":"203","LANDMARKNA":"縣立伸仁國小","LANDMARKAD":"1000705","ADDRESS":"彰化縣伸港鄉泉厝村147之2號","TEL":"04-7982324","COUNTYNAME":"彰化縣","TOWNNAME":"伸港鄉","MARKTYPE":"992","Class":"2"},"geometry":{"x":196857.95120000001,"y":2671440.8006999996}}]}