{"displayFieldName":"COUNTYNAME","fieldAliases":{"OBJECTID":"OBJECTID","LANDMARKID":"LANDMARKID","LANDMARKCO":"LANDMARKCO","LANDMARKNA":"LANDMARKNA","LANDMARKAD":"LANDMARKAD","ADDRESS":"ADDRESS","TEL":"TEL","COUNTYNAME":"COUNTYNAME","TOWNNAME":"TOWNNAME","MARKTYPE":"MARKTYPE","Class":"Class"},"geometryType":"esriGeometryPoint","spatialReference":{"wkid":102443},"fields":[{"name":"OBJECTID","type":"esriFieldTypeOID","alias":"OBJECTID"},{"name":"LANDMARKID","type":"esriFieldTypeString","alias":"LANDMARKID","length":15},{"name":"LANDMARKCO","type":"esriFieldTypeString","alias":"LANDMARKCO","length":15},{"name":"LANDMARKNA","type":"esriFieldTypeString","alias":"LANDMARKNA","length":50},{"name":"LANDMARKAD","type":"esriFieldTypeString","alias":"LANDMARKAD","length":15},{"name":"ADDRESS","type":"esriFieldTypeString","alias":"ADDRESS","length":56},{"name":"TEL","type":"esriFieldTypeString","alias":"TEL","length":36},{"name":"COUNTYNAME","type":"esriFieldTypeString","alias":"COUNTYNAME","length":15},{"name":"TOWNNAME","type":"esriFieldTypeString","alias":"TOWNNAME","length":13},{"name":"MARKTYPE","type":"esriFieldTypeString","alias":"MARKTYPE","length":12},{"name":"Class","type":"esriFieldTypeString","alias":"Class","length":5}],"features":[{"attributes":{"OBJECTID":10601,"LANDMARKID":"1001100000355","LANDMARKCO":"202","LANDMARKNA":"私立陽明工商","LANDMARKAD":"1001110","ADDRESS":"台南市官田區官田村423號","TEL":"06-6901190","COUNTYNAME":"台南市","TOWNNAME":"官田區","MARKTYPE":"992","Class":"2"},"geometry":{"x":181273.93429999985,"y":2565680.4155999999}},{"attributes":{"OBJECTID":10602,"LANDMARKID":"1001100000574","LANDMARKCO":"203","LANDMARKNA":"縣立官田國中","LANDMARKAD":"1001110","ADDRESS":"台南市官田區隆田村三民路29號","TEL":"06-5791371","COUNTYNAME":"台南市","TOWNNAME":"官田區","MARKTYPE":"992","Class":"2"},"geometry":{"x":179870.36280000024,"y":2565500.5170000009}},{"attributes":{"OBJECTID":10603,"LANDMARKID":"1001100000575","LANDMARKCO":"203","LANDMARKNA":"縣立渡拔國小","LANDMARKAD":"1001110","ADDRESS":"台南市官田區拔林村77之1號","TEL":"06-6901908","COUNTYNAME":"台南市","TOWNNAME":"官田區","MARKTYPE":"992","Class":"2"},"geometry":{"x":181079.1018000003,"y":2563400.8840999994}},{"attributes":{"OBJECTID":10604,"LANDMARKID":"1001100000576","LANDMARKCO":"203","LANDMARKNA":"縣立官田國小","LANDMARKAD":"1001110","ADDRESS":"台南市官田區官田村11號","TEL":"06-6901195","COUNTYNAME":"台南市","TOWNNAME":"官田區","MARKTYPE":"992","Class":"2"},"geometry":{"x":182643.70799999963,"y":2565330.1843999997}},{"attributes":{"OBJECTID":10605,"LANDMARKID":"1001100000343","LANDMARKCO":"201","LANDMARKNA":"國立台南藝術大學","LANDMARKAD":"1001110","ADDRESS":"台南市官田區大崎村66號","TEL":"06-6930100","COUNTYNAME":"台南市","TOWNNAME":"官田區","MARKTYPE":"992","Class":"2"},"geometry":{"x":185805.93439999968,"y":2564970.3289000001}},{"attributes":{"OBJECTID":10606,"LANDMARKID":"1001100000712","LANDMARKCO":"303","LANDMARKNA":"烏山頭水庫風景區停車場","LANDMARKAD":"1001110","ADDRESS":"台南市官田區嘉南村68之2號","TEL":" ","COUNTYNAME":"台南市","TOWNNAME":"官田區","MARKTYPE":"993","Class":"303"},"geometry":{"x":184993.9422000004,"y":2567434.4301999994}},{"attributes":{"OBJECTID":10607,"LANDMARKID":"1001100000713","LANDMARKCO":"303","LANDMARKNA":"烏山頭水庫風景區停車場","LANDMARKAD":"1001110","ADDRESS":"台南市官田區嘉南村68之2號","TEL":"06-6982103","COUNTYNAME":"台南市","TOWNNAME":"官田區","MARKTYPE":"993","Class":"303"},"geometry":{"x":184947.74320000038,"y":2567495.9088000003}},{"attributes":{"OBJECTID":10608,"LANDMARKID":"1001100000764","LANDMARKCO":"308","LANDMARKNA":"台84-渡頭交流道-東行","LANDMARKAD":"1001110","ADDRESS":"台南市官田區","TEL":" ","COUNTYNAME":"台南市","TOWNNAME":"官田區","MARKTYPE":"993","Class":"308"},"geometry":{"x":182546.78170000017,"y":2562533.8762999997}},{"attributes":{"OBJECTID":10609,"LANDMARKID":"1001100000765","LANDMARKCO":"308","LANDMARKNA":"台84-渡頭交流道-東行","LANDMARKAD":"1001110","ADDRESS":"台南市官田區","TEL":" ","COUNTYNAME":"台南市","TOWNNAME":"官田區","MARKTYPE":"993","Class":"308"},"geometry":{"x":182551.09630000032,"y":2562544.3485000003}},{"attributes":{"OBJECTID":10610,"LANDMARKID":"1001100000766","LANDMARKCO":"308","LANDMARKNA":"台84-渡頭交流道-西行","LANDMARKAD":"1001110","ADDRESS":"台南市官田區","TEL":" ","COUNTYNAME":"台南市","TOWNNAME":"官田區","MARKTYPE":"993","Class":"308"},"geometry":{"x":182422.87280000001,"y":2562571.352}},{"attributes":{"OBJECTID":10611,"LANDMARKID":"1001100000767","LANDMARKCO":"308","LANDMARKNA":"台84-渡頭交流道-西行","LANDMARKAD":"1001110","ADDRESS":"台南市官田區","TEL":" ","COUNTYNAME":"台南市","TOWNNAME":"官田區","MARKTYPE":"993","Class":"308"},"geometry":{"x":182430.15639999975,"y":2562563.0386999995}},{"attributes":{"OBJECTID":10612,"LANDMARKID":"1001100000768","LANDMARKCO":"308","LANDMARKNA":"國3-官田系統交流道-北上","LANDMARKAD":"1001110","ADDRESS":"台南市官田區","TEL":" ","COUNTYNAME":"台南市","TOWNNAME":"官田區","MARKTYPE":"993","Class":"308"},"geometry":{"x":183841.19519999996,"y":2563298.2115000002}},{"attributes":{"OBJECTID":10613,"LANDMARKID":"1001100000769","LANDMARKCO":"308","LANDMARKNA":"國3-烏山頭交流道-南下","LANDMARKAD":"1001110","ADDRESS":"台南市官田區","TEL":" ","COUNTYNAME":"台南市","TOWNNAME":"官田區","MARKTYPE":"993","Class":"308"},"geometry":{"x":184041.01900000032,"y":2567856.7315999996}},{"attributes":{"OBJECTID":10614,"LANDMARKID":"1001100000770","LANDMARKCO":"308","LANDMARKNA":"國3-官田系統交流道-南下","LANDMARKAD":"1001110","ADDRESS":"台南市官田區","TEL":" ","COUNTYNAME":"台南市","TOWNNAME":"官田區","MARKTYPE":"993","Class":"308"},"geometry":{"x":183442.55850000028,"y":2562463.8837000001}},{"attributes":{"OBJECTID":10615,"LANDMARKID":"1001100000771","LANDMARKCO":"308","LANDMARKNA":"國3-烏山頭交流道-北上","LANDMARKAD":"1001110","ADDRESS":"台南市官田區","TEL":" ","COUNTYNAME":"台南市","TOWNNAME":"官田區","MARKTYPE":"993","Class":"308"},"geometry":{"x":184128.76779999956,"y":2568096.7331000008}},{"attributes":{"OBJECTID":10616,"LANDMARKID":"1001100000772","LANDMARKCO":"308","LANDMARKNA":"台84-官田系統交流道-東行","LANDMARKAD":"1001110","ADDRESS":" ","TEL":" ","COUNTYNAME":"台南市","TOWNNAME":"官田區","MARKTYPE":"993","Class":"308"},"geometry":{"x":184086.35769999959,"y":2562933.7844999991}},{"attributes":{"OBJECTID":10617,"LANDMARKID":"1001100000773","LANDMARKCO":"308","LANDMARKNA":"台84-官田系統交流道-西行","LANDMARKAD":"1001110","ADDRESS":" ","TEL":" ","COUNTYNAME":"台南市","TOWNNAME":"官田區","MARKTYPE":"993","Class":"308"},"geometry":{"x":183230.06979999971,"y":2562774.7377000004}},{"attributes":{"OBJECTID":10618,"LANDMARKID":"1001100000774","LANDMARKCO":"308","LANDMARKNA":"台84-西庄交流道-東行","LANDMARKAD":"1001110","ADDRESS":"台南市官田區","TEL":" ","COUNTYNAME":"台南市","TOWNNAME":"官田區","MARKTYPE":"993","Class":"308"},"geometry":{"x":177973.05659999978,"y":2564683.7578999996}},{"attributes":{"OBJECTID":10619,"LANDMARKID":"1001100000775","LANDMARKCO":"308","LANDMARKNA":"台84-西庄交流道-西行","LANDMARKAD":"1001110","ADDRESS":"台南市官田區","TEL":" ","COUNTYNAME":"台南市","TOWNNAME":"官田區","MARKTYPE":"993","Class":"308"},"geometry":{"x":177789.70529999956,"y":2564762.4771999996}},{"attributes":{"OBJECTID":10620,"LANDMARKID":"1001100000714","LANDMARKCO":"303","LANDMARKNA":"隆田酒廠停車場","LANDMARKAD":"1001110","ADDRESS":"台南市官田區中華路一段335號","TEL":"06-5794669","COUNTYNAME":"台南市","TOWNNAME":"官田區","MARKTYPE":"993","Class":"303"},"geometry":{"x":180545.34219999984,"y":2566195.3227999993}},{"attributes":{"OBJECTID":10621,"LANDMARKID":"1001100000715","LANDMARKCO":"303","LANDMARKNA":"官田區公有停車場","LANDMARKAD":"1001110","ADDRESS":"台南市官田區","TEL":" ","COUNTYNAME":"台南市","TOWNNAME":"官田區","MARKTYPE":"993","Class":"303"},"geometry":{"x":181588.01850000024,"y":2568700.2092000004}},{"attributes":{"OBJECTID":10622,"LANDMARKID":"1001100000716","LANDMARKCO":"303","LANDMARKNA":"烏山頭水庫風景區停車場","LANDMARKAD":"1001110","ADDRESS":"台南市官田區","TEL":" ","COUNTYNAME":"台南市","TOWNNAME":"官田區","MARKTYPE":"993","Class":"303"},"geometry":{"x":185595.32899999991,"y":2565996.4364999998}},{"attributes":{"OBJECTID":10623,"LANDMARKID":"1001100000675","LANDMARKCO":"301","LANDMARKNA":"隆田火車站","LANDMARKAD":"1001110","ADDRESS":"台南市官田區隆田村中山路一段1號","TEL":" ","COUNTYNAME":"台南市","TOWNNAME":"官田區","MARKTYPE":"993","Class":"301"},"geometry":{"x":180317.37200000044,"y":2565768.4462000001}},{"attributes":{"OBJECTID":10624,"LANDMARKID":"1001100000676","LANDMARKCO":"301","LANDMARKNA":"拔林火車站","LANDMARKAD":"1001110","ADDRESS":"台南市善化區","TEL":" ","COUNTYNAME":"台南市","TOWNNAME":"官田區","MARKTYPE":"993","Class":"301"},"geometry":{"x":180506.8404000001,"y":2563529.4299999997}},{"attributes":{"OBJECTID":10625,"LANDMARKID":"1001100001306","LANDMARKCO":"503","LANDMARKNA":"葫蘆埤風景區","LANDMARKAD":"1001110","ADDRESS":"台南市官田區","TEL":" ","COUNTYNAME":"台南市","TOWNNAME":"官田區","MARKTYPE":"995","Class":"5"},"geometry":{"x":177869.01370000001,"y":2566341.9224999994}},{"attributes":{"OBJECTID":10626,"LANDMARKID":"1001100001307","LANDMARKCO":"503","LANDMARKNA":"烏山頭水庫風景特定區","LANDMARKAD":"1001110","ADDRESS":"台南市官田區嘉南村68之2號","TEL":" ","COUNTYNAME":"台南市","TOWNNAME":"官田區","MARKTYPE":"995","Class":"5"},"geometry":{"x":185664.69450000022,"y":2566374.7896999996}},{"attributes":{"OBJECTID":10627,"LANDMARKID":"1001100001308","LANDMARKCO":"503","LANDMARKNA":"珊瑚潭風景區","LANDMARKAD":"1001110","ADDRESS":"台南市官田區嘉南村68之2號","TEL":" ","COUNTYNAME":"台南市","TOWNNAME":"官田區","MARKTYPE":"995","Class":"5"},"geometry":{"x":185665.17480000015,"y":2566371.6938000005}},{"attributes":{"OBJECTID":10628,"LANDMARKID":"1001100001352","LANDMARKCO":"510","LANDMARKNA":"嘉南高爾夫球場","LANDMARKAD":"1001110","ADDRESS":"台南市官田區社子村六雙21號","TEL":"06-6900800","COUNTYNAME":"台南市","TOWNNAME":"官田區","MARKTYPE":"995","Class":"5"},"geometry":{"x":185571.17750000022,"y":2563051.8173999991}},{"attributes":{"OBJECTID":10629,"LANDMARKID":"1001100001037","LANDMARKCO":"405","LANDMARKNA":"中油加油站-麻新站","LANDMARKAD":"1001107","ADDRESS":"台南市麻豆區苓子林30號","TEL":"06-5700308","COUNTYNAME":"台南市","TOWNNAME":"麻豆區","MARKTYPE":"994","Class":"4"},"geometry":{"x":171049.6763000004,"y":2564336.7625999991}},{"attributes":{"OBJECTID":10630,"LANDMARKID":"1001100001038","LANDMARKCO":"405","LANDMARKNA":"中油加油站-麻豆站(中油直營)","LANDMARKAD":"1001107","ADDRESS":"台南市麻豆區中山路13號","TEL":"06-5722254","COUNTYNAME":"台南市","TOWNNAME":"麻豆區","MARKTYPE":"994","Class":"4"},"geometry":{"x":172956.80709999986,"y":2564811.8061999995}},{"attributes":{"OBJECTID":10631,"LANDMARKID":"1001100001039","LANDMARKCO":"405","LANDMARKNA":"中油加油站-安業站(中油直營)","LANDMARKAD":"1001107","ADDRESS":"台南市麻豆區安東里安業275-6號","TEL":"06-5715348","COUNTYNAME":"台南市","TOWNNAME":"麻豆區","MARKTYPE":"994","Class":"4"},"geometry":{"x":172886.43819999974,"y":2562503.0899999999}},{"attributes":{"OBJECTID":10632,"LANDMARKID":"1001100001040","LANDMARKCO":"405","LANDMARKNA":"中油加油站-麻豆交流道站(中油直營)","LANDMARKAD":"1001107","ADDRESS":"台南市麻豆區麻口里麻豆口118號","TEL":"06-5704711","COUNTYNAME":"台南市","TOWNNAME":"麻豆區","MARKTYPE":"994","Class":"4"},"geometry":{"x":170186.93209999986,"y":2565183.8621999994}},{"attributes":{"OBJECTID":10633,"LANDMARKID":"1001100001041","LANDMARKCO":"405","LANDMARKNA":"台糖加油站-文正站(中油)","LANDMARKAD":"1001107","ADDRESS":"台南市麻豆區南勢里25鄰南勢86之8號","TEL":" ","COUNTYNAME":"台南市","TOWNNAME":"麻豆區","MARKTYPE":"994","Class":"4"},"geometry":{"x":175084.20079999976,"y":2565406.5239000004}},{"attributes":{"OBJECTID":10634,"LANDMARKID":"1001100001042","LANDMARKCO":"405","LANDMARKNA":"中油加油站-麻學站(中油直營)","LANDMARKAD":"1001107","ADDRESS":"台南市麻豆區大山里大山腳67-25號","TEL":"06-5700735","COUNTYNAME":"台南市","TOWNNAME":"麻豆區","MARKTYPE":"994","Class":"4"},"geometry":{"x":170085.41390000004,"y":2566035.3015000001}},{"attributes":{"OBJECTID":10635,"LANDMARKID":"1001100001043","LANDMARKCO":"405","LANDMARKNA":"中油加油站-興國站","LANDMARKAD":"1001107","ADDRESS":"台南市麻豆區中興里新生南路800號","TEL":"06-5719076","COUNTYNAME":"台南市","TOWNNAME":"麻豆區","MARKTYPE":"994","Class":"4"},"geometry":{"x":172901.8498999998,"y":2564040.3561000004}},{"attributes":{"OBJECTID":10636,"LANDMARKID":"1001100001044","LANDMARKCO":"405","LANDMARKNA":"台灣優力加油站-佳里站(中油)","LANDMARKAD":"1001107","ADDRESS":"台南市麻口鎮麻口里2-3號","TEL":"06-5703077","COUNTYNAME":"台南市","TOWNNAME":"麻豆區","MARKTYPE":"994","Class":"4"},"geometry":{"x":170292.52720000036,"y":2564120.2862}},{"attributes":{"OBJECTID":10637,"LANDMARKID":"1001100000849","LANDMARKCO":"402","LANDMARKNA":"亞太行動寬頻電信-麻豆中山加盟服務中心","LANDMARKAD":"1001107","ADDRESS":"台南市麻豆區中山路130號","TEL":"06-5723389","COUNTYNAME":"台南市","TOWNNAME":"麻豆區","MARKTYPE":"994","Class":"4"},"geometry":{"x":172555.47950000037,"y":2564867.6920999996}},{"attributes":{"OBJECTID":10638,"LANDMARKID":"1001100000836","LANDMARKCO":"401","LANDMARKNA":"財團法人台灣基督長老教會新樓醫院麻豆","LANDMARKAD":"1001107","ADDRESS":"台南市麻豆區小埤里苓子林20號","TEL":"06 5702228","COUNTYNAME":"台南市","TOWNNAME":"麻豆區","MARKTYPE":"994","Class":"4"},"geometry":{"x":171364.75870000012,"y":2564530.7359999996}},{"attributes":{"OBJECTID":10639,"LANDMARKID":"1001100001317","LANDMARKCO":"506","LANDMARKNA":"六公仔麻豆文旦","LANDMARKAD":"1001107","ADDRESS":"台南市麻豆區埤頭里","TEL":"06-5701059","COUNTYNAME":"台南市","TOWNNAME":"麻豆區","MARKTYPE":"995","Class":"5"},"geometry":{"x":170597.01680000033,"y":2565921.1128000002}},{"attributes":{"OBJECTID":10640,"LANDMARKID":"1001100001318","LANDMARKCO":"506","LANDMARKNA":"方博淺文旦園","LANDMARKAD":"1001107","ADDRESS":"台南市麻豆區安正里方厝寮1之5號","TEL":"06-5712263","COUNTYNAME":"台南市","TOWNNAME":"麻豆區","MARKTYPE":"995","Class":"5"},"geometry":{"x":173207.1035000002,"y":2565150.1262999997}},{"attributes":{"OBJECTID":10641,"LANDMARKID":"1001100001319","LANDMARKCO":"506","LANDMARKNA":"正庄麻豆林氏文旦","LANDMARKAD":"1001107","ADDRESS":"台南市麻豆區大埕里","TEL":"06-5722323","COUNTYNAME":"台南市","TOWNNAME":"麻豆區","MARKTYPE":"995","Class":"5"},"geometry":{"x":173294.62829999998,"y":2565802.0341999996}},{"attributes":{"OBJECTID":10642,"LANDMARKID":"1001100001327","LANDMARKCO":"507","LANDMARKNA":"麻豆代天府","LANDMARKAD":"1001107","ADDRESS":"台南市麻豆區南勢里關帝廟60號","TEL":" ","COUNTYNAME":"台南市","TOWNNAME":"麻豆區","MARKTYPE":"995","Class":"5"},"geometry":{"x":174334.45010000002,"y":2565547.4454999994}},{"attributes":{"OBJECTID":10643,"LANDMARKID":"1001100001328","LANDMARKCO":"507","LANDMARKNA":"麻豆總爺糖廠","LANDMARKAD":"1001107","ADDRESS":"台南市麻豆區南勢里總爺5號","TEL":" ","COUNTYNAME":"台南市","TOWNNAME":"麻豆區","MARKTYPE":"995","Class":"5"},"geometry":{"x":174954.05520000029,"y":2564845.1839000005}},{"attributes":{"OBJECTID":10644,"LANDMARKID":"1001100001207","LANDMARKCO":"408","LANDMARKNA":"郵局-麻豆郵局","LANDMARKAD":"1001107","ADDRESS":"台南市麻豆區興國路25號","TEL":"(06)5722-144","COUNTYNAME":"台南市","TOWNNAME":"麻豆區","MARKTYPE":"994","Class":"4"},"geometry":{"x":173028.72649999987,"y":2564588.3303999994}},{"attributes":{"OBJECTID":10645,"LANDMARKID":"1001100001208","LANDMARKCO":"408","LANDMARKNA":"郵局-麻豆總爺郵局","LANDMARKAD":"1001107","ADDRESS":"台南市麻豆區南勢里106號","TEL":"(06)5724-309","COUNTYNAME":"台南市","TOWNNAME":"麻豆區","MARKTYPE":"994","Class":"4"},"geometry":{"x":175019.64740000013,"y":2564857.0147999991}},{"attributes":{"OBJECTID":10646,"LANDMARKID":"1001100001209","LANDMARKCO":"408","LANDMARKNA":"郵局-麻豆新生郵局","LANDMARKAD":"1001107","ADDRESS":"台南市麻豆區新生南路17號","TEL":"(06)5711-943","COUNTYNAME":"台南市","TOWNNAME":"麻豆區","MARKTYPE":"994","Class":"4"},"geometry":{"x":172327.68499999959,"y":2564877.0430999994}},{"attributes":{"OBJECTID":10647,"LANDMARKID":"1001100001280","LANDMARKCO":"409","LANDMARKNA":"麻豆區農會","LANDMARKAD":"1001107","ADDRESS":"台南市麻豆區新生北路56號","TEL":"06-572230","COUNTYNAME":"台南市","TOWNNAME":"麻豆區","MARKTYPE":"994","Class":"4"},"geometry":{"x":172320.38200000022,"y":2565185.7927000001}},{"attributes":{"OBJECTID":10648,"LANDMARKID":"1001100001157","LANDMARKCO":"406","LANDMARKNA":"全民公園","LANDMARKAD":"1001107","ADDRESS":"台南市麻豆區","TEL":" ","COUNTYNAME":"台南市","TOWNNAME":"麻豆區","MARKTYPE":"994","Class":"4"},"geometry":{"x":173231.27379999962,"y":2565559.5669}},{"attributes":{"OBJECTID":10649,"LANDMARKID":"1001100000911","LANDMARKCO":"404","LANDMARKNA":"台灣省自來水麻豆服務所","LANDMARKAD":"1001107","ADDRESS":"台南市麻豆區興中路211號","TEL":" ","COUNTYNAME":"台南市","TOWNNAME":"麻豆區","MARKTYPE":"994","Class":"4"},"geometry":{"x":173876.82390000019,"y":2564876.9688000008}},{"attributes":{"OBJECTID":10650,"LANDMARKID":"1001100001181","LANDMARKCO":"407","LANDMARKNA":"小北百貨","LANDMARKAD":"1001107","ADDRESS":"台南市麻豆區忠孝路12-4號???","TEL":"(06)5718056???","COUNTYNAME":"台南市","TOWNNAME":"麻豆區","MARKTYPE":"994","Class":"4"},"geometry":{"x":173226.88410000037,"y":2564977.7818}},{"attributes":{"OBJECTID":10651,"LANDMARKID":"1001100001025","LANDMARKCO":"405","LANDMARKNA":"台亞加油站-麻豆交流道站（台塑）","LANDMARKAD":"1001107","ADDRESS":"台南市麻豆區小埤里苓子林1之2號","TEL":"(06)571-5286","COUNTYNAME":"台南市","TOWNNAME":"麻豆區","MARKTYPE":"994","Class":"4"},"geometry":{"x":171998.8685999997,"y":2564839.8485000003}},{"attributes":{"OBJECTID":10652,"LANDMARKID":"1001100000112","LANDMARKCO":"106","LANDMARKNA":"台南市麻豆區戶政事務所","LANDMARKAD":"1001107","ADDRESS":"台南市麻豆區中華街35號","TEL":"06-5722105","COUNTYNAME":"台南市","TOWNNAME":"麻豆區","MARKTYPE":"991","Class":"1"},"geometry":{"x":172942.1520999996,"y":2564640.0573999994}},{"attributes":{"OBJECTID":10653,"LANDMARKID":"1001100000107","LANDMARKCO":"105","LANDMARKNA":"台南市麻豆地政事務所","LANDMARKAD":"1001107","ADDRESS":"台南市麻豆區興國路26號","TEL":"06-5713417","COUNTYNAME":"台南市","TOWNNAME":"麻豆區","MARKTYPE":"991","Class":"1"},"geometry":{"x":172974.51350000035,"y":2564570.2248}},{"attributes":{"OBJECTID":10654,"LANDMARKID":"1001100001210","LANDMARKCO":"408","LANDMARKNA":"台南市麻豆郵局","LANDMARKAD":"1001107","ADDRESS":"台南市麻豆區興國路25號","TEL":"06-5722144","COUNTYNAME":"台南市","TOWNNAME":"麻豆區","MARKTYPE":"994","Class":"4"},"geometry":{"x":173025.3574000001,"y":2564600.4875000007}},{"attributes":{"OBJECTID":10655,"LANDMARKID":"1001100000291","LANDMARKCO":"107","LANDMARKNA":"台南市警察局麻豆分局","LANDMARKAD":"1001107","ADDRESS":"台南市麻豆區中興里興國路6號","TEL":"06-5722031","COUNTYNAME":"台南市","TOWNNAME":"麻豆區","MARKTYPE":"991","Class":"1"},"geometry":{"x":173034.96480000019,"y":2564790.5288999993}},{"attributes":{"OBJECTID":10656,"LANDMARKID":"1001100000292","LANDMARKCO":"107","LANDMARKNA":"台南市警察局麻豆派出所","LANDMARKAD":"1001107","ADDRESS":"台南市麻豆區中興里興國路6號","TEL":"06-5722104","COUNTYNAME":"台南市","TOWNNAME":"麻豆區","MARKTYPE":"991","Class":"1"},"geometry":{"x":173034.91309999954,"y":2564800.5286999997}},{"attributes":{"OBJECTID":10657,"LANDMARKID":"1001100000064","LANDMARKCO":"103","LANDMARKNA":"台南市麻豆區鎮民代表會","LANDMARKAD":"1001107","ADDRESS":"台南市麻豆區興國路11號3樓","TEL":"06-5722030","COUNTYNAME":"台南市","TOWNNAME":"麻豆區","MARKTYPE":"991","Class":"1"},"geometry":{"x":173046.68560000043,"y":2564730.5976999998}},{"attributes":{"OBJECTID":10658,"LANDMARKID":"1001100000289","LANDMARKCO":"107","LANDMARKNA":"台南市消防局第二消防大隊","LANDMARKAD":"1001107","ADDRESS":"台南市麻豆區興國路9號","TEL":"06-5718130","COUNTYNAME":"台南市","TOWNNAME":"麻豆區","MARKTYPE":"991","Class":"1"},"geometry":{"x":173067.42729999963,"y":2564780.7048000004}},{"attributes":{"OBJECTID":10659,"LANDMARKID":"1001100000290","LANDMARKCO":"107","LANDMARKNA":"台南市消防局麻豆消防分隊","LANDMARKAD":"1001107","ADDRESS":"台南市麻豆區興國路9號","TEL":"06-5722440","COUNTYNAME":"台南市","TOWNNAME":"麻豆區","MARKTYPE":"991","Class":"1"},"geometry":{"x":173067.42729999963,"y":2564780.7048000004}},{"attributes":{"OBJECTID":10660,"LANDMARKID":"1001100000012","LANDMARKCO":"101","LANDMARKNA":"嘉義區監理所麻豆監理站","LANDMARKAD":"1001107","ADDRESS":"台南市麻豆區北勢里新生北路551號","TEL":"06-5723181","COUNTYNAME":"台南市","TOWNNAME":"麻豆區","MARKTYPE":"991","Class":"1"},"geometry":{"x":173139.31830000039,"y":2565531.0515000001}},{"attributes":{"OBJECTID":10661,"LANDMARKID":"1001100000286","LANDMARKCO":"107","LANDMARKNA":"台南市警察局埤頭派出所","LANDMARKAD":"1001107","ADDRESS":"台南市麻豆區小埤里10鄰5號","TEL":"06-5701654","COUNTYNAME":"台南市","TOWNNAME":"麻豆區","MARKTYPE":"991","Class":"1"},"geometry":{"x":170900.45779999997,"y":2565701.2744999994}},{"attributes":{"OBJECTID":10662,"LANDMARKID":"1001100000287","LANDMARKCO":"107","LANDMARKNA":"台南市警察局安業派出所","LANDMARKAD":"1001107","ADDRESS":"台南市麻豆區安業里安業112號","TEL":"06-5722804","COUNTYNAME":"台南市","TOWNNAME":"麻豆區","MARKTYPE":"991","Class":"1"},"geometry":{"x":172716.64570000023,"y":2561970.4372000005}},{"attributes":{"OBJECTID":10663,"LANDMARKID":"1001100000288","LANDMARKCO":"107","LANDMARKNA":"台南市警察局總爺派出所","LANDMARKAD":"1001107","ADDRESS":"台南市麻豆區南勢里南勢93號","TEL":"06-5724310","COUNTYNAME":"台南市","TOWNNAME":"麻豆區","MARKTYPE":"991","Class":"1"},"geometry":{"x":174932.71530000027,"y":2564830.0473999996}},{"attributes":{"OBJECTID":10664,"LANDMARKID":"1001100000630","LANDMARKCO":"204","LANDMARKNA":"台南市立圖書館麻豆分館","LANDMARKAD":"1001107","ADDRESS":"台南市麻豆區興國路11號4樓","TEL":" ","COUNTYNAME":"台南市","TOWNNAME":"麻豆區","MARKTYPE":"992","Class":"2"},"geometry":{"x":173056.26360000018,"y":2564737.4767000005}},{"attributes":{"OBJECTID":10665,"LANDMARKID":"1001100000351","LANDMARKCO":"202","LANDMARKNA":"國立曾文家商","LANDMARKAD":"1001107","ADDRESS":"台南市麻豆區和平路9號","TEL":"06-5722079","COUNTYNAME":"台南市","TOWNNAME":"麻豆區","MARKTYPE":"992","Class":"2"},"geometry":{"x":172773.89269999973,"y":2564190.6680999994}},{"attributes":{"OBJECTID":10666,"LANDMARKID":"1001100000593","LANDMARKCO":"203","LANDMARKNA":"縣立培文國小","LANDMARKAD":"1001107","ADDRESS":"台南市麻豆區民生路37-8號","TEL":"06-5722169","COUNTYNAME":"台南市","TOWNNAME":"麻豆區","MARKTYPE":"992","Class":"2"},"geometry":{"x":172556.84630000032,"y":2564201.0207000002}},{"attributes":{"OBJECTID":10667,"LANDMARKID":"1001100000594","LANDMARKCO":"203","LANDMARKNA":"縣立麻豆國小","LANDMARKAD":"1001107","ADDRESS":"台南市麻豆區東角里文昌路18號","TEL":"06-5722145","COUNTYNAME":"台南市","TOWNNAME":"麻豆區","MARKTYPE":"992","Class":"2"},"geometry":{"x":173597.68159999978,"y":2565150.4859999996}},{"attributes":{"OBJECTID":10668,"LANDMARKID":"1001100000352","LANDMARKCO":"202","LANDMARKNA":"私立黎明高中","LANDMARKAD":"1001107","ADDRESS":"台南市麻豆區磚井里141號","TEL":"06-5825584","COUNTYNAME":"台南市","TOWNNAME":"麻豆區","MARKTYPE":"992","Class":"2"},"geometry":{"x":172942.44770000037,"y":2563660.0834999997}},{"attributes":{"OBJECTID":10669,"LANDMARKID":"1001100000353","LANDMARKCO":"202","LANDMARKNA":"國立曾文農工","LANDMARKAD":"1001107","ADDRESS":"台南市麻豆區南勢里南勢1號","TEL":"06-5721137","COUNTYNAME":"台南市","TOWNNAME":"麻豆區","MARKTYPE":"992","Class":"2"},"geometry":{"x":174515.54690000042,"y":2565370.8088000007}},{"attributes":{"OBJECTID":10670,"LANDMARKID":"1001100000354","LANDMARKCO":"202","LANDMARKNA":"私立黎明高中附設國中部","LANDMARKAD":"1001107","ADDRESS":"台南市麻豆區磚井里141號","TEL":"06-5825584","COUNTYNAME":"台南市","TOWNNAME":"麻豆區","MARKTYPE":"992","Class":"2"},"geometry":{"x":172956.49909999967,"y":2563650.1561999992}},{"attributes":{"OBJECTID":10671,"LANDMARKID":"1001100000584","LANDMARKCO":"203","LANDMARKNA":"縣立麻豆國中","LANDMARKAD":"1001107","ADDRESS":"台南市麻豆區南勢里36號","TEL":"06-5722492","COUNTYNAME":"台南市","TOWNNAME":"麻豆區","MARKTYPE":"992","Class":"2"},"geometry":{"x":174181.1333999997,"y":2564640.5731000006}},{"attributes":{"OBJECTID":10672,"LANDMARKID":"1001100000585","LANDMARKCO":"203","LANDMARKNA":"縣立港尾國小","LANDMARKAD":"1001107","ADDRESS":"台南市麻豆區港尾里港尾9號","TEL":"06-5701341","COUNTYNAME":"台南市","TOWNNAME":"麻豆區","MARKTYPE":"992","Class":"2"},"geometry":{"x":168854.52130000014,"y":2567230.9598999992}},{"attributes":{"OBJECTID":10673,"LANDMARKID":"1001100000586","LANDMARKCO":"203","LANDMARKNA":"縣立大山國小","LANDMARKAD":"1001107","ADDRESS":"台南市麻豆區大山里大山腳1號","TEL":"06-5701374","COUNTYNAME":"台南市","TOWNNAME":"麻豆區","MARKTYPE":"992","Class":"2"},"geometry":{"x":170243.89690000005,"y":2565740.8048}},{"attributes":{"OBJECTID":10674,"LANDMARKID":"1001100000587","LANDMARKCO":"203","LANDMARKNA":"縣立紀安國小","LANDMARKAD":"1001107","ADDRESS":"台南市麻豆區謝安里231號","TEL":"06-5722306","COUNTYNAME":"台南市","TOWNNAME":"麻豆區","MARKTYPE":"992","Class":"2"},"geometry":{"x":171897.20239999983,"y":2561250.6361999996}},{"attributes":{"OBJECTID":10675,"LANDMARKID":"1001100000588","LANDMARKCO":"203","LANDMARKNA":"縣立北勢國小","LANDMARKAD":"1001107","ADDRESS":"台南市麻豆區北勢里15號","TEL":"06-5722844","COUNTYNAME":"台南市","TOWNNAME":"麻豆區","MARKTYPE":"992","Class":"2"},"geometry":{"x":172219.64549999963,"y":2567200.6741000004}},{"attributes":{"OBJECTID":10676,"LANDMARKID":"1001100000589","LANDMARKCO":"203","LANDMARKNA":"縣立安業國小","LANDMARKAD":"1001107","ADDRESS":"台南市麻豆區安東里113號","TEL":"06-5722261","COUNTYNAME":"台南市","TOWNNAME":"麻豆區","MARKTYPE":"992","Class":"2"},"geometry":{"x":172796.89130000025,"y":2562230.8445999995}},{"attributes":{"OBJECTID":10677,"LANDMARKID":"1001100000590","LANDMARKCO":"203","LANDMARKNA":"縣立文正國小","LANDMARKAD":"1001107","ADDRESS":"台南市麻豆區南勢里86號","TEL":"06-5722168","COUNTYNAME":"台南市","TOWNNAME":"麻豆區","MARKTYPE":"992","Class":"2"},"geometry":{"x":174861.25090000033,"y":2565231.1151999999}},{"attributes":{"OBJECTID":10678,"LANDMARKID":"1001100000591","LANDMARKCO":"203","LANDMARKNA":"縣立總爺國小","LANDMARKAD":"1001107","ADDRESS":"台南市麻豆區總爺104號","TEL":"06-5725292","COUNTYNAME":"台南市","TOWNNAME":"麻豆區","MARKTYPE":"992","Class":"2"},"geometry":{"x":175239.59649999999,"y":2565160.1523000002}},{"attributes":{"OBJECTID":10679,"LANDMARKID":"1001100000344","LANDMARKCO":"201","LANDMARKNA":"致遠管理學院","LANDMARKAD":"1001107","ADDRESS":"台南市麻豆區南勢里87號之1","TEL":"06-5718888","COUNTYNAME":"台南市","TOWNNAME":"麻豆區","MARKTYPE":"992","Class":"2"},"geometry":{"x":175381.71999999974,"y":2565750.8497000001}},{"attributes":{"OBJECTID":10680,"LANDMARKID":"1001100000345","LANDMARKCO":"201","LANDMARKNA":"真理大學麻豆校區","LANDMARKAD":"1001107","ADDRESS":"台南市麻豆區北勢里北勢寮70之11號","TEL":"06-5703100","COUNTYNAME":"台南市","TOWNNAME":"麻豆區","MARKTYPE":"992","Class":"2"},"geometry":{"x":171017.90909999982,"y":2568810.2905999999}},{"attributes":{"OBJECTID":10681,"LANDMARKID":"1001100000776","LANDMARKCO":"308","LANDMARKNA":"國1-麻豆交流道-南下","LANDMARKAD":"1001107","ADDRESS":"台南市麻豆區","TEL":" ","COUNTYNAME":"台南市","TOWNNAME":"麻豆區","MARKTYPE":"993","Class":"308"},"geometry":{"x":171613.13269999996,"y":2564425.9430999998}},{"attributes":{"OBJECTID":10682,"LANDMARKID":"1001100000777","LANDMARKCO":"308","LANDMARKNA":"國1-麻豆交流道-北上","LANDMARKAD":"1001107","ADDRESS":"台南市麻豆區","TEL":" ","COUNTYNAME":"台南市","TOWNNAME":"麻豆區","MARKTYPE":"993","Class":"308"},"geometry":{"x":171797.50549999997,"y":2564899.8277000003}},{"attributes":{"OBJECTID":10683,"LANDMARKID":"1001100000688","LANDMARKCO":"302","LANDMARKNA":"興南汽車客運麻豆站","LANDMARKAD":"1001107","ADDRESS":"台南市麻豆區文昌路35號","TEL":" ","COUNTYNAME":"台南市","TOWNNAME":"麻豆區","MARKTYPE":"993","Class":"302"},"geometry":{"x":173555.07670000009,"y":2565397.8057000004}},{"attributes":{"OBJECTID":10684,"LANDMARKID":"1001100000710","LANDMARKCO":"303","LANDMARKNA":"麻豆區公所地下停車場","LANDMARKAD":"1001107","ADDRESS":"台南市麻豆區","TEL":" ","COUNTYNAME":"台南市","TOWNNAME":"麻豆區","MARKTYPE":"993","Class":"303"},"geometry":{"x":174114.00109999999,"y":2564969.8673}},{"attributes":{"OBJECTID":10685,"LANDMARKID":"1001100000711","LANDMARKCO":"303","LANDMARKNA":"南瀛總爺藝文中心停車場","LANDMARKAD":"1001107","ADDRESS":"台南市麻豆區","TEL":"06-5718123","COUNTYNAME":"台南市","TOWNNAME":"麻豆區","MARKTYPE":"993","Class":"303"},"geometry":{"x":175041.59590000007,"y":2564923.3627000004}},{"attributes":{"OBJECTID":10686,"LANDMARKID":"1001100000850","LANDMARKCO":"402","LANDMARKNA":"中華電信-麻豆興中特約服務中心","LANDMARKAD":"1001107","ADDRESS":"台南市麻豆區興中路169號","TEL":"06-5713388","COUNTYNAME":"台南市","TOWNNAME":"麻豆區","MARKTYPE":"994","Class":"4"},"geometry":{"x":173541.70069999993,"y":2564856.2744999994}},{"attributes":{"OBJECTID":10687,"LANDMARKID":"1001100000851","LANDMARKCO":"402","LANDMARKNA":"中華電信-麻豆服務中心","LANDMARKAD":"1001107","ADDRESS":"台南市麻豆區興國路23號","TEL":"123或0800-080-123","COUNTYNAME":"台南市","TOWNNAME":"麻豆區","MARKTYPE":"994","Class":"4"},"geometry":{"x":173024.42650000006,"y":2564634.6206999999}},{"attributes":{"OBJECTID":10688,"LANDMARKID":"1001100000852","LANDMARKCO":"402","LANDMARKNA":"威寶電信-麻豆中山特約服務中心","LANDMARKAD":"1001107","ADDRESS":"台南市麻豆區中山路163號","TEL":"06-5710455","COUNTYNAME":"台南市","TOWNNAME":"麻豆區","MARKTYPE":"994","Class":"4"},"geometry":{"x":172566.43410000019,"y":2564837.4630999994}},{"attributes":{"OBJECTID":10689,"LANDMARKID":"1001100001026","LANDMARKCO":"405","LANDMARKNA":"中油加油站-大楠西站","LANDMARKAD":"1001124","ADDRESS":"台南市楠西區油車15之30號","TEL":"06-5752020","COUNTYNAME":"台南市","TOWNNAME":"楠西區","MARKTYPE":"994","Class":"4"},"geometry":{"x":197718.83650000021,"y":2562154.1904000007}},{"attributes":{"OBJECTID":10690,"LANDMARKID":"1001100001027","LANDMARKCO":"405","LANDMARKNA":"中油加油站-楠西站(中油直營)","LANDMARKAD":"1001124","ADDRESS":"台南市楠西區東勢村中正路359號","TEL":"06-5751427","COUNTYNAME":"台南市","TOWNNAME":"楠西區","MARKTYPE":"994","Class":"4"},"geometry":{"x":197576.8236999996,"y":2563274.6776000001}},{"attributes":{"OBJECTID":10691,"LANDMARKID":"1001100001309","LANDMARKCO":"503","LANDMARKNA":"曾文水庫風景特定區","LANDMARKAD":"1001124","ADDRESS":"台南市楠西區密枝村70號","TEL":" ","COUNTYNAME":"台南市","TOWNNAME":"楠西區","MARKTYPE":"995","Class":"5"},"geometry":{"x":198756.44519999996,"y":2569034.9733000007}},{"attributes":{"OBJECTID":10692,"LANDMARKID":"1001100001211","LANDMARKCO":"408","LANDMARKNA":"郵局-楠西郵局","LANDMARKAD":"1001124","ADDRESS":"台南市楠西區東勢路117號","TEL":"(06)5751-043","COUNTYNAME":"台南市","TOWNNAME":"楠西區","MARKTYPE":"994","Class":"4"},"geometry":{"x":197380.06259999983,"y":2564020.9870999996}},{"attributes":{"OBJECTID":10693,"LANDMARKID":"1001100001212","LANDMARKCO":"408","LANDMARKNA":"郵局-曾文水庫郵局","LANDMARKAD":"1001124","ADDRESS":"台南市楠西區密枝村70號(曾文水庫管理局內)","TEL":"(06)5751-965","COUNTYNAME":"台南市","TOWNNAME":"楠西區","MARKTYPE":"994","Class":"4"},"geometry":{"x":198663.80229999963,"y":2568858.8673999999}},{"attributes":{"OBJECTID":10694,"LANDMARKID":"1001100001279","LANDMARKCO":"409","LANDMARKNA":"楠西鎮農會","LANDMARKAD":"1001124","ADDRESS":"台南市楠西區 楠西村中興南路66號","TEL":"06-5751612","COUNTYNAME":"台南市","TOWNNAME":"楠西區","MARKTYPE":"994","Class":"4"},"geometry":{"x":197193.21389999986,"y":2563977.3261999991}},{"attributes":{"OBJECTID":10695,"LANDMARKID":"1001100000285","LANDMARKCO":"107","LANDMARKNA":"台南市消防局楠西消防分隊","LANDMARKAD":"1001124","ADDRESS":"台南市楠西區信義路66巷3號","TEL":"06-5752260","COUNTYNAME":"台南市","TOWNNAME":"楠西區","MARKTYPE":"991","Class":"1"},"geometry":{"x":197641.31850000005,"y":2563640.9042000007}},{"attributes":{"OBJECTID":10696,"LANDMARKID":"1001100000309","LANDMARKCO":"108","LANDMARKNA":"台南市楠西區公所","LANDMARKAD":"1001124","ADDRESS":"台南市楠西區楠西村中正路230號","TEL":"06-5751615","COUNTYNAME":"台南市","TOWNNAME":"楠西區","MARKTYPE":"991","Class":"1"},"geometry":{"x":197388.99000000022,"y":2563648.0157999992}},{"attributes":{"OBJECTID":10697,"LANDMARKID":"1001100000113","LANDMARKCO":"106","LANDMARKNA":"台南市楠西區戶政事務所","LANDMARKAD":"1001124","ADDRESS":"台南市楠西區楠西村22鄰中正路232號","TEL":"06-5751082","COUNTYNAME":"台南市","TOWNNAME":"楠西區","MARKTYPE":"991","Class":"1"},"geometry":{"x":197400.22530000005,"y":2563638.0554000009}},{"attributes":{"OBJECTID":10698,"LANDMARKID":"1001100000056","LANDMARKCO":"103","LANDMARKNA":"台南市楠西區衛生所","LANDMARKAD":"1001124","ADDRESS":"台南市楠西區中正路226號","TEL":"06-5751006","COUNTYNAME":"台南市","TOWNNAME":"楠西區","MARKTYPE":"991","Class":"1"},"geometry":{"x":197375.76290000044,"y":2563684.9756000005}},{"attributes":{"OBJECTID":10699,"LANDMARKID":"1001100000057","LANDMARKCO":"103","LANDMARKNA":"台南市楠西區鄉民代表會","LANDMARKAD":"1001124","ADDRESS":"台南市楠西區中正路230號3樓","TEL":"06-5751088","COUNTYNAME":"台南市","TOWNNAME":"楠西區","MARKTYPE":"991","Class":"1"},"geometry":{"x":197388.99000000022,"y":2563648.0157999992}},{"attributes":{"OBJECTID":10700,"LANDMARKID":"1001100000183","LANDMARKCO":"107","LANDMARKNA":"台南市警察局鹿田派出所","LANDMARKAD":"1001124","ADDRESS":"台南市楠西區鹿田村3鄰鹿陶洋30號","TEL":"06-5751183","COUNTYNAME":"台南市","TOWNNAME":"楠西區","MARKTYPE":"991","Class":"1"},"geometry":{"x":197645.50409999955,"y":2561548.9448000006}},{"attributes":{"OBJECTID":10701,"LANDMARKID":"1001100000184","LANDMARKCO":"107","LANDMARKNA":"台南市警察局楠西分駐所","LANDMARKAD":"1001124","ADDRESS":"台南市楠西區楠西村224號","TEL":"06-5751252","COUNTYNAME":"台南市","TOWNNAME":"楠西區","MARKTYPE":"991","Class":"1"},"geometry":{"x":197370.14169999957,"y":2563690.9557000007}},{"attributes":{"OBJECTID":10702,"LANDMARKID":"1001100000013","LANDMARKCO":"101","LANDMARKNA":"水利署南區水資源局第一辦公處","LANDMARKAD":"1001124","ADDRESS":"台南市楠西區密枝村70號","TEL":"06-5753251","COUNTYNAME":"台南市","TOWNNAME":"楠西區","MARKTYPE":"991","Class":"1"},"geometry":{"x":198652.35030000005,"y":2568860.3878000006}},{"attributes":{"OBJECTID":10703,"LANDMARKID":"1001100000648","LANDMARKCO":"204","LANDMARKNA":"台南市立圖書館楠西分館","LANDMARKAD":"1001124","ADDRESS":"台南市楠西區東勢村中正路309號","TEL":" ","COUNTYNAME":"台南市","TOWNNAME":"楠西區","MARKTYPE":"992","Class":"2"},"geometry":{"x":197496.51070000045,"y":2563411.534}},{"attributes":{"OBJECTID":10704,"LANDMARKID":"1001100000595","LANDMARKCO":"203","LANDMARKNA":"楠西國中","LANDMARKAD":"1001124","ADDRESS":" ","TEL":" ","COUNTYNAME":"台南市","TOWNNAME":"楠西區","MARKTYPE":"992","Class":"2"},"geometry":{"x":197228.24739999976,"y":2563660.4540999997}},{"attributes":{"OBJECTID":10705,"LANDMARKID":"1001100000596","LANDMARKCO":"203","LANDMARKNA":"縣立楠西國中","LANDMARKAD":"1001124","ADDRESS":"台南市楠西區中興路107號","TEL":"06-5751712","COUNTYNAME":"台南市","TOWNNAME":"楠西區","MARKTYPE":"992","Class":"2"},"geometry":{"x":197281.0083999997,"y":2564509.6294}},{"attributes":{"OBJECTID":10706,"LANDMARKID":"1001100000597","LANDMARKCO":"203","LANDMARKNA":"縣立楠西國小","LANDMARKAD":"1001124","ADDRESS":"台南市楠西區楠西村四維路69號","TEL":"06-5751062","COUNTYNAME":"台南市","TOWNNAME":"楠西區","MARKTYPE":"992","Class":"2"},"geometry":{"x":197295.24039999954,"y":2563662.6910999995}},{"attributes":{"OBJECTID":10707,"LANDMARKID":"1001100000689","LANDMARKCO":"302","LANDMARKNA":"興南汽車客運楠西站","LANDMARKAD":"1001124","ADDRESS":"台南市楠西區民權路2號","TEL":" ","COUNTYNAME":"台南市","TOWNNAME":"楠西區","MARKTYPE":"993","Class":"302"},"geometry":{"x":197228.50580000039,"y":2564284.7063999996}},{"attributes":{"OBJECTID":10708,"LANDMARKID":"1001100000706","LANDMARKCO":"303","LANDMARKNA":"楠西區立體停車場","LANDMARKAD":"1001124","ADDRESS":"台南市楠西區民生路12號","TEL":" ","COUNTYNAME":"台南市","TOWNNAME":"楠西區","MARKTYPE":"993","Class":"303"},"geometry":{"x":197368.33990000002,"y":2563934.3428000007}},{"attributes":{"OBJECTID":10709,"LANDMARKID":"1001100000707","LANDMARKCO":"303","LANDMARKNA":"曾文水庫風景區停車場","LANDMARKAD":"1001124","ADDRESS":"台南市楠西區密技村70號","TEL":" ","COUNTYNAME":"台南市","TOWNNAME":"楠西區","MARKTYPE":"993","Class":"303"},"geometry":{"x":203105.27120000031,"y":2569369.2618000004}},{"attributes":{"OBJECTID":10710,"LANDMARKID":"1001100000708","LANDMARKCO":"303","LANDMARKNA":"梅嶺風景區竹仔圾公用停車場","LANDMARKAD":"1001124","ADDRESS":"台南市楠西區","TEL":" ","COUNTYNAME":"台南市","TOWNNAME":"楠西區","MARKTYPE":"993","Class":"303"},"geometry":{"x":203225.68460000027,"y":2563687.0655000005}},{"attributes":{"OBJECTID":10711,"LANDMARKID":"1001100000709","LANDMARKCO":"303","LANDMARKNA":"梅嶺風景區二層坪停車場","LANDMARKAD":"1001124","ADDRESS":"台南市楠西區","TEL":" ","COUNTYNAME":"台南市","TOWNNAME":"楠西區","MARKTYPE":"993","Class":"303"},"geometry":{"x":204678.89940000046,"y":2564487.2956000008}},{"attributes":{"OBJECTID":10712,"LANDMARKID":"1001100000853","LANDMARKCO":"402","LANDMARKNA":"中華電信-楠西服務中心","LANDMARKAD":"1001124","ADDRESS":"台南市楠西區茄拔路194號","TEL":"(06)575-2340","COUNTYNAME":"台南市","TOWNNAME":"楠西區","MARKTYPE":"994","Class":"4"},"geometry":{"x":197475.96590000018,"y":2563740.3224999998}},{"attributes":{"OBJECTID":10713,"LANDMARKID":"1001100001411","LANDMARKCO":"604","LANDMARKNA":"曾文民宿山莊","LANDMARKAD":"1001124","ADDRESS":"台南市楠西區楠西村民族路258","TEL":"260號","COUNTYNAME":"台南市","TOWNNAME":"楠西區","MARKTYPE":"996","Class":"6"},"geometry":{"x":197415.53780000005,"y":2564312.6973000001}},{"attributes":{"OBJECTID":10714,"LANDMARKID":"1001100001361","LANDMARKCO":"601","LANDMARKNA":"曾文.山芙蓉渡假大酒店","LANDMARKAD":"1001124","ADDRESS":"台南市楠西區密枝村密枝102之5號","TEL":"06-575-3333","COUNTYNAME":"台南市","TOWNNAME":"楠西區","MARKTYPE":"996","Class":"6"},"geometry":{"x":198919.21860000025,"y":2569206.3223000001}},{"attributes":{"OBJECTID":10715,"LANDMARKID":"1001100001333","LANDMARKCO":"508","LANDMARKNA":"龜丹溫泉","LANDMARKAD":"1001124","ADDRESS":"台南市楠西區","TEL":" ","COUNTYNAME":"台南市","TOWNNAME":"楠西區","MARKTYPE":"995","Class":"5"},"geometry":{"x":202687.45309999958,"y":2557871.0044}},{"attributes":{"OBJECTID":10716,"LANDMARKID":"1001100001298","LANDMARKCO":"503","LANDMARKNA":"梅嶺風景區","LANDMARKAD":"1001124","ADDRESS":"台南市楠西區","TEL":" ","COUNTYNAME":"台南市","TOWNNAME":"楠西區","MARKTYPE":"995","Class":"5"},"geometry":{"x":203880.82890000008,"y":2564436.3117999993}},{"attributes":{"OBJECTID":10717,"LANDMARKID":"1001100001299","LANDMARKCO":"503","LANDMARKNA":"曾文水庫風景特定區","LANDMARKAD":"1001124","ADDRESS":"台南市楠西區密枝村70號","TEL":" ","COUNTYNAME":"台南市","TOWNNAME":"楠西區","MARKTYPE":"995","Class":"5"},"geometry":{"x":198756.44519999996,"y":2569034.9768000003}},{"attributes":{"OBJECTID":10718,"LANDMARKID":"1001100000921","LANDMARKCO":"405","LANDMARKNA":"中油加油站-國賓站","LANDMARKAD":"1001112","ADDRESS":"台南市佳里區民安里同安寮1-9號","TEL":"06-7236995","COUNTYNAME":"台南市","TOWNNAME":"佳里區","MARKTYPE":"994","Class":"4"},"geometry":{"x":167372.88989999983,"y":2564048.1841000002}},{"attributes":{"OBJECTID":10719,"LANDMARKID":"1001100000922","LANDMARKCO":"405","LANDMARKNA":"中油加油站-佳興站","LANDMARKAD":"1001112","ADDRESS":"台南市佳里區興化里佳里興570-50號","TEL":"06-7266918","COUNTYNAME":"台南市","TOWNNAME":"佳里區","MARKTYPE":"994","Class":"4"},"geometry":{"x":166761.07010000013,"y":2565231.9091999996}},{"attributes":{"OBJECTID":10720,"LANDMARKID":"1001100000923","LANDMARKCO":"405","LANDMARKNA":"統一速邁樂加油站-佳里二站加油站(中油)","LANDMARKAD":"1001112","ADDRESS":"台南市佳里區新生路348號","TEL":" ","COUNTYNAME":"台南市","TOWNNAME":"佳里區","MARKTYPE":"994","Class":"4"},"geometry":{"x":165432.61359999981,"y":2562243.7082000002}},{"attributes":{"OBJECTID":10721,"LANDMARKID":"1001100000924","LANDMARKCO":"405","LANDMARKNA":"中油加油站-佳里站(中油直營)","LANDMARKAD":"1001112","ADDRESS":"台南市佳里區中山路480號","TEL":"06-7222269","COUNTYNAME":"台南市","TOWNNAME":"佳里區","MARKTYPE":"994","Class":"4"},"geometry":{"x":165833.33169999998,"y":2562809.9440000001}},{"attributes":{"OBJECTID":10722,"LANDMARKID":"1001100000925","LANDMARKCO":"405","LANDMARKNA":"統一速邁樂加油站-佳里本站加油站(中油)","LANDMARKAD":"1001112","ADDRESS":"台南市佳里區鎮山里鎮山94-78號","TEL":"06-7234821","COUNTYNAME":"台南市","TOWNNAME":"佳里區","MARKTYPE":"994","Class":"4"},"geometry":{"x":166495.52720000036,"y":2561331.6904000007}},{"attributes":{"OBJECTID":10723,"LANDMARKID":"1001100000926","LANDMARKCO":"405","LANDMARKNA":"中油加油站-佳里仁愛路站(中油直營)","LANDMARKAD":"1001112","ADDRESS":"台南市佳里區仁愛路67號","TEL":"06-7229504","COUNTYNAME":"台南市","TOWNNAME":"佳里區","MARKTYPE":"994","Class":"4"},"geometry":{"x":166518.26429999992,"y":2561258.0830000006}},{"attributes":{"OBJECTID":10724,"LANDMARKID":"1001100000873","LANDMARKCO":"402","LANDMARKNA":"亞太行動寬頻電信-佳里延平加盟服務中心","LANDMARKAD":"1001112","ADDRESS":"台南市佳里區延平路272號","TEL":"06-7223300","COUNTYNAME":"台南市","TOWNNAME":"佳里區","MARKTYPE":"994","Class":"4"},"geometry":{"x":165884.43869999982,"y":2562246.0381000005}},{"attributes":{"OBJECTID":10725,"LANDMARKID":"1001100000827","LANDMARKCO":"401","LANDMARKNA":"新生醫院","LANDMARKAD":"1001112","ADDRESS":"台南市佳里區新生路272號","TEL":"06-7223122","COUNTYNAME":"台南市","TOWNNAME":"佳里區","MARKTYPE":"994","Class":"4"},"geometry":{"x":165678.61120000016,"y":2562300.8770000003}},{"attributes":{"OBJECTID":10726,"LANDMARKID":"1001100000828","LANDMARKCO":"401","LANDMARKNA":"佳里醫院","LANDMARKAD":"1001112","ADDRESS":"台南市佳里區興化里606號","TEL":"06-7263333","COUNTYNAME":"台南市","TOWNNAME":"佳里區","MARKTYPE":"994","Class":"4"},"geometry":{"x":166485.21999999974,"y":2564650.5297999997}},{"attributes":{"OBJECTID":10727,"LANDMARKID":"1001100001330","LANDMARKCO":"507","LANDMARKNA":"佳里震興宮","LANDMARKAD":"1001112","ADDRESS":"台南市佳里區禮化里佳里興325號","TEL":" ","COUNTYNAME":"台南市","TOWNNAME":"佳里區","MARKTYPE":"995","Class":"5"},"geometry":{"x":165831.2472000001,"y":2562318.7204}},{"attributes":{"OBJECTID":10728,"LANDMARKID":"1001100001331","LANDMARKCO":"507","LANDMARKNA":"佳里金唐殿","LANDMARKAD":"1001112","ADDRESS":"台南市佳里區建南里中山路289號","TEL":" ","COUNTYNAME":"台南市","TOWNNAME":"佳里區","MARKTYPE":"995","Class":"5"},"geometry":{"x":166183.08189999964,"y":2564058.0647}},{"attributes":{"OBJECTID":10729,"LANDMARKID":"1001100001176","LANDMARKCO":"406","LANDMARKNA":"社區公園","LANDMARKAD":"1001112","ADDRESS":"台南市佳里區","TEL":" ","COUNTYNAME":"台南市","TOWNNAME":"佳里區","MARKTYPE":"994","Class":"4"},"geometry":{"x":165296.15490000043,"y":2562635.7981000002}},{"attributes":{"OBJECTID":10730,"LANDMARKID":"1001100001177","LANDMARKCO":"406","LANDMARKNA":"社區公園","LANDMARKAD":"1001112","ADDRESS":"台南市佳里區","TEL":" ","COUNTYNAME":"台南市","TOWNNAME":"佳里區","MARKTYPE":"994","Class":"4"},"geometry":{"x":165312.06689999998,"y":2562761.9857999999}},{"attributes":{"OBJECTID":10731,"LANDMARKID":"1001100001241","LANDMARKCO":"408","LANDMARKNA":"郵局-佳里郵局","LANDMARKAD":"1001112","ADDRESS":"台南市佳里區延平路375號","TEL":"(06)7222-075","COUNTYNAME":"台南市","TOWNNAME":"佳里區","MARKTYPE":"994","Class":"4"},"geometry":{"x":165843.78089999966,"y":2562633.9749999996}},{"attributes":{"OBJECTID":10732,"LANDMARKID":"1001100001242","LANDMARKCO":"408","LANDMARKNA":"郵局-佳里佳里興郵局","LANDMARKAD":"1001112","ADDRESS":"台南市佳里區興化里492-8號","TEL":"(06)7260-438","COUNTYNAME":"台南市","TOWNNAME":"佳里區","MARKTYPE":"994","Class":"4"},"geometry":{"x":166892.58949999977,"y":2565494.1081000008}},{"attributes":{"OBJECTID":10733,"LANDMARKID":"1001100001243","LANDMARKCO":"408","LANDMARKNA":"郵局-佳里中山路郵局","LANDMARKAD":"1001112","ADDRESS":"台南市佳里區中山路141號","TEL":"(06)7221-800","COUNTYNAME":"台南市","TOWNNAME":"佳里區","MARKTYPE":"994","Class":"4"},"geometry":{"x":165747.84100000001,"y":2561943.7707000002}},{"attributes":{"OBJECTID":10734,"LANDMARKID":"1001100001264","LANDMARKCO":"409","LANDMARKNA":"台南市佳里區農會","LANDMARKAD":"1001112","ADDRESS":"台南市佳里區和平街168號","TEL":"06-7223161","COUNTYNAME":"台南市","TOWNNAME":"佳里區","MARKTYPE":"994","Class":"4"},"geometry":{"x":165607.79030000046,"y":2562503.2982999999}},{"attributes":{"OBJECTID":10735,"LANDMARKID":"1001100001265","LANDMARKCO":"409","LANDMARKNA":"南縣區漁會","LANDMARKAD":"1001112","ADDRESS":"台南市佳里區進學路240號","TEL":"06-7222291?","COUNTYNAME":"台南市","TOWNNAME":"佳里區","MARKTYPE":"994","Class":"4"},"geometry":{"x":165654.54920000024,"y":2562717.8655999992}},{"attributes":{"OBJECTID":10736,"LANDMARKID":"1001100001266","LANDMARKCO":"409","LANDMARKNA":"佳里魚市場","LANDMARKAD":"1001112","ADDRESS":"台南市佳里區延平路229號","TEL":"06-7222054　","COUNTYNAME":"台南市","TOWNNAME":"佳里區","MARKTYPE":"994","Class":"4"},"geometry":{"x":165872.56030000001,"y":2562202.2982000001}},{"attributes":{"OBJECTID":10737,"LANDMARKID":"1001100001172","LANDMARKCO":"406","LANDMARKNA":"佳里運動公園","LANDMARKAD":"1001112","ADDRESS":"台南市佳里區","TEL":" ","COUNTYNAME":"台南市","TOWNNAME":"佳里區","MARKTYPE":"994","Class":"4"},"geometry":{"x":165468.97750000004,"y":2563314.1107000001}},{"attributes":{"OBJECTID":10738,"LANDMARKID":"1001100001173","LANDMARKCO":"406","LANDMARKNA":"黃東公園","LANDMARKAD":"1001112","ADDRESS":"台南市佳里區","TEL":" ","COUNTYNAME":"台南市","TOWNNAME":"佳里區","MARKTYPE":"994","Class":"4"},"geometry":{"x":165727.54619999975,"y":2562778.1779999994}},{"attributes":{"OBJECTID":10739,"LANDMARKID":"1001100001174","LANDMARKCO":"406","LANDMARKNA":"佳里中山公園","LANDMARKAD":"1001112","ADDRESS":"台南市佳里區","TEL":" ","COUNTYNAME":"台南市","TOWNNAME":"佳里區","MARKTYPE":"994","Class":"4"},"geometry":{"x":165838.30910000019,"y":2563240.8691000007}},{"attributes":{"OBJECTID":10740,"LANDMARKID":"1001100001175","LANDMARKCO":"406","LANDMARKNA":"中山公園","LANDMARKAD":"1001112","ADDRESS":"台南市佳里區","TEL":" ","COUNTYNAME":"台南市","TOWNNAME":"佳里區","MARKTYPE":"994","Class":"4"},"geometry":{"x":165838.42420000024,"y":2563240.8906999994}},{"attributes":{"OBJECTID":10741,"LANDMARKID":"1001100000920","LANDMARKCO":"404","LANDMARKNA":"台灣省自來水佳里服務所","LANDMARKAD":"1001112","ADDRESS":"台南市佳里區進學路139號","TEL":" ","COUNTYNAME":"台南市","TOWNNAME":"佳里區","MARKTYPE":"994","Class":"4"},"geometry":{"x":165883.89950000029,"y":2562646.2915000003}},{"attributes":{"OBJECTID":10742,"LANDMARKID":"1001100001178","LANDMARKCO":"407","LANDMARKNA":"三商百貨佳里店","LANDMARKAD":"1001112","ADDRESS":"台南市佳里區義民街238號","TEL":"06-7221510","COUNTYNAME":"台南市","TOWNNAME":"佳里區","MARKTYPE":"994","Class":"4"},"geometry":{"x":165657.02080000006,"y":2562396.5514000002}},{"attributes":{"OBJECTID":10743,"LANDMARKID":"1001100000927","LANDMARKCO":"405","LANDMARKNA":"福懋加油站-佳里站(台塑)","LANDMARKAD":"1001112","ADDRESS":"台南市佳里區安西里安西71-21號","TEL":"06-7236356","COUNTYNAME":"台南市","TOWNNAME":"佳里區","MARKTYPE":"994","Class":"4"},"geometry":{"x":164849.18169999961,"y":2563433.6362999994}},{"attributes":{"OBJECTID":10744,"LANDMARKID":"1001100000928","LANDMARKCO":"405","LANDMARKNA":"台塑加油站-久井佳里站(台塑)","LANDMARKAD":"1001112","ADDRESS":"台南市佳里區同安寮76-5號","TEL":"06-7236089","COUNTYNAME":"台南市","TOWNNAME":"佳里區","MARKTYPE":"994","Class":"4"},"geometry":{"x":167346.57749999966,"y":2562591.1397999991}},{"attributes":{"OBJECTID":10745,"LANDMARKID":"1001100000176","LANDMARKCO":"107","LANDMARKNA":"台南市警察局佳里派出所","LANDMARKAD":"1001112","ADDRESS":"台南市佳里區六安里忠孝路7號","TEL":"06-7224145","COUNTYNAME":"台南市","TOWNNAME":"佳里區","MARKTYPE":"991","Class":"1"},"geometry":{"x":165650.03699999955,"y":2562840.6995999999}},{"attributes":{"OBJECTID":10746,"LANDMARKID":"1001100000177","LANDMARKCO":"107","LANDMARKNA":"台南市警察局佳里分局","LANDMARKAD":"1001112","ADDRESS":"台南市佳里區六安里忠孝路7號","TEL":"06-7222012","COUNTYNAME":"台南市","TOWNNAME":"佳里區","MARKTYPE":"991","Class":"1"},"geometry":{"x":165652.03699999955,"y":2562840.7108999994}},{"attributes":{"OBJECTID":10747,"LANDMARKID":"1001100000132","LANDMARKCO":"106","LANDMARKNA":"台南市佳里區戶政事務所","LANDMARKAD":"1001112","ADDRESS":"台南市佳里區忠孝路17號","TEL":"06-7224172","COUNTYNAME":"台南市","TOWNNAME":"佳里區","MARKTYPE":"991","Class":"1"},"geometry":{"x":165692.09269999992,"y":2562830.9374000002}},{"attributes":{"OBJECTID":10748,"LANDMARKID":"1001100000327","LANDMARKCO":"108","LANDMARKNA":"台南市佳里區公所","LANDMARKAD":"1001112","ADDRESS":"台南市佳里區忠孝路5號","TEL":"06-7222127","COUNTYNAME":"台南市","TOWNNAME":"佳里區","MARKTYPE":"991","Class":"1"},"geometry":{"x":165749.0915000001,"y":2562831.2596000005}},{"attributes":{"OBJECTID":10749,"LANDMARKID":"1001100000102","LANDMARKCO":"105","LANDMARKNA":"台南市佳里地政事務所","LANDMARKAD":"1001112","ADDRESS":"台南市佳里區中山路417號","TEL":"06-7220404","COUNTYNAME":"台南市","TOWNNAME":"佳里區","MARKTYPE":"991","Class":"1"},"geometry":{"x":165769.14759999979,"y":2562821.3728999998}},{"attributes":{"OBJECTID":10750,"LANDMARKID":"1001100000058","LANDMARKCO":"103","LANDMARKNA":"台南市佳里區鎮民代表會","LANDMARKAD":"1001112","ADDRESS":"台南市佳里區中山路458號","TEL":"06-7222329","COUNTYNAME":"台南市","TOWNNAME":"佳里區","MARKTYPE":"991","Class":"1"},"geometry":{"x":165802.31620000023,"y":2562791.5602000002}},{"attributes":{"OBJECTID":10751,"LANDMARKID":"1001100000059","LANDMARKCO":"103","LANDMARKNA":"台南市佳里區衛生所","LANDMARKAD":"1001112","ADDRESS":"台南市佳里區進學路159號","TEL":"06-7224106","COUNTYNAME":"台南市","TOWNNAME":"佳里區","MARKTYPE":"991","Class":"1"},"geometry":{"x":165801.31350000016,"y":2562661.5642000008}},{"attributes":{"OBJECTID":10752,"LANDMARKID":"1001100000098","LANDMARKCO":"104","LANDMARKNA":"南區國稅局佳里稽徵所","LANDMARKAD":"1001112","ADDRESS":"台南市佳里區延平路125號1~7樓","TEL":"06-7230284","COUNTYNAME":"台南市","TOWNNAME":"佳里區","MARKTYPE":"991","Class":"1"},"geometry":{"x":165902.07230000012,"y":2561910.5438000001}},{"attributes":{"OBJECTID":10753,"LANDMARKID":"1001100000178","LANDMARKCO":"107","LANDMARKNA":"台南市警察局延平派出所","LANDMARKAD":"1001112","ADDRESS":"台南市佳里區頂部里10鄰118號","TEL":"06-7223094","COUNTYNAME":"台南市","TOWNNAME":"佳里區","MARKTYPE":"991","Class":"1"},"geometry":{"x":162868.52450000029,"y":2563691.0588000007}},{"attributes":{"OBJECTID":10754,"LANDMARKID":"1001100000179","LANDMARKCO":"107","LANDMARKNA":"台南市警察局塭內派出所","LANDMARKAD":"1001112","ADDRESS":"台南市佳里區龍安里8鄰84號","TEL":"06-7891415","COUNTYNAME":"台南市","TOWNNAME":"佳里區","MARKTYPE":"991","Class":"1"},"geometry":{"x":164429.86760000046,"y":2558260.3871999998}},{"attributes":{"OBJECTID":10755,"LANDMARKID":"1001100000180","LANDMARKCO":"107","LANDMARKNA":"台南市消防局佳里消防分隊","LANDMARKAD":"1001112","ADDRESS":"台南市佳里區722六安里六順路23號","TEL":"06-7224334","COUNTYNAME":"台南市","TOWNNAME":"佳里區","MARKTYPE":"991","Class":"1"},"geometry":{"x":165706.51769999973,"y":2563370.9995000008}},{"attributes":{"OBJECTID":10756,"LANDMARKID":"1001100000181","LANDMARKCO":"107","LANDMARKNA":"台南市警察局佳興派出所","LANDMARKAD":"1001112","ADDRESS":"台南市佳里區興化里6鄰441號","TEL":"06-7261404","COUNTYNAME":"台南市","TOWNNAME":"佳里區","MARKTYPE":"991","Class":"1"},"geometry":{"x":166893.11519999988,"y":2565591.1927000005}},{"attributes":{"OBJECTID":10757,"LANDMARKID":"1001100000182","LANDMARKCO":"107","LANDMARKNA":"台南市警察局子龍派出所","LANDMARKAD":"1001112","ADDRESS":"台南市佳里區子龍里5鄰96號","TEL":"06-7262290","COUNTYNAME":"台南市","TOWNNAME":"佳里區","MARKTYPE":"991","Class":"1"},"geometry":{"x":168925.3925999999,"y":2563871.4449000005}},{"attributes":{"OBJECTID":10758,"LANDMARKID":"1001100000658","LANDMARKCO":"205","LANDMARKNA":"北頭洋文化館","LANDMARKAD":"1001112","ADDRESS":"台南市佳里區海澄里66之1號","TEL":"06-7238661","COUNTYNAME":"台南市","TOWNNAME":"佳里區","MARKTYPE":"992","Class":"2"},"geometry":{"x":164298.66000000015,"y":2563636.8568999991}},{"attributes":{"OBJECTID":10759,"LANDMARKID":"1001100000650","LANDMARKCO":"204","LANDMARKNA":"台南市立圖書館佳里分館","LANDMARKAD":"1001112","ADDRESS":"台南市佳里區六安里安北路118號","TEL":" ","COUNTYNAME":"台南市","TOWNNAME":"佳里區","MARKTYPE":"992","Class":"2"},"geometry":{"x":165775.82430000044,"y":2563263.0397999994}},{"attributes":{"OBJECTID":10760,"LANDMARKID":"1001100000441","LANDMARKCO":"203","LANDMARKNA":"縣立佳里國中","LANDMARKAD":"1001112","ADDRESS":"台南市佳里區安南路523號","TEL":"06-7222304","COUNTYNAME":"台南市","TOWNNAME":"佳里區","MARKTYPE":"992","Class":"2"},"geometry":{"x":165006.69259999972,"y":2561980.3098000009}},{"attributes":{"OBJECTID":10761,"LANDMARKID":"1001100000442","LANDMARKCO":"203","LANDMARKNA":"縣立仁愛國小","LANDMARKAD":"1001112","ADDRESS":"台南市佳里區仁愛路307號","TEL":"06-7222227","COUNTYNAME":"台南市","TOWNNAME":"佳里區","MARKTYPE":"992","Class":"2"},"geometry":{"x":165965.70409999974,"y":2561490.9120000005}},{"attributes":{"OBJECTID":10762,"LANDMARKID":"1001100000443","LANDMARKCO":"203","LANDMARKNA":"縣立信義國小","LANDMARKAD":"1001112","ADDRESS":"台南市佳里區忠仁里信義一街336號","TEL":"06-7211918","COUNTYNAME":"台南市","TOWNNAME":"佳里區","MARKTYPE":"992","Class":"2"},"geometry":{"x":166269.16370000038,"y":2562200.9964000005}},{"attributes":{"OBJECTID":10763,"LANDMARKID":"1001100000379","LANDMARKCO":"202","LANDMARKNA":"國立北門高中","LANDMARKAD":"1001112","ADDRESS":"台南市佳里區六安里269號","TEL":"06-7222150","COUNTYNAME":"台南市","TOWNNAME":"佳里區","MARKTYPE":"992","Class":"2"},"geometry":{"x":165665.24940000009,"y":2563110.7759000007}},{"attributes":{"OBJECTID":10764,"LANDMARKID":"1001100000380","LANDMARKCO":"202","LANDMARKNA":"國立北門農工","LANDMARKAD":"1001112","ADDRESS":"台南市佳里區六安里117號","TEL":"06-7260148","COUNTYNAME":"台南市","TOWNNAME":"佳里區","MARKTYPE":"992","Class":"2"},"geometry":{"x":166126.63580000028,"y":2564140.1373999994}},{"attributes":{"OBJECTID":10765,"LANDMARKID":"1001100000434","LANDMARKCO":"203","LANDMARKNA":"縣立佳興國中","LANDMARKAD":"1001112","ADDRESS":"台南市佳里區民安里新宅34之1號","TEL":"06-7260291","COUNTYNAME":"台南市","TOWNNAME":"佳里區","MARKTYPE":"992","Class":"2"},"geometry":{"x":167687.53129999992,"y":2564770.8840999994}},{"attributes":{"OBJECTID":10766,"LANDMARKID":"1001100000435","LANDMARKCO":"203","LANDMARKNA":"縣立延平國小","LANDMARKAD":"1001112","ADDRESS":"台南市佳里區頂廓里136號","TEL":"06-7222311","COUNTYNAME":"台南市","TOWNNAME":"佳里區","MARKTYPE":"992","Class":"2"},"geometry":{"x":163307.36799999978,"y":2564330.2756999992}},{"attributes":{"OBJECTID":10767,"LANDMARKID":"1001100000436","LANDMARKCO":"203","LANDMARKNA":"縣立通興國小","LANDMARKAD":"1001112","ADDRESS":"台南市佳里區通興里埔頂5之1號","TEL":"06-7873531","COUNTYNAME":"台南市","TOWNNAME":"佳里區","MARKTYPE":"992","Class":"2"},"geometry":{"x":163734.92659999989,"y":2560541.2263999991}},{"attributes":{"OBJECTID":10768,"LANDMARKID":"1001100000437","LANDMARKCO":"203","LANDMARKNA":"縣立塭內國小","LANDMARKAD":"1001112","ADDRESS":"台南市佳里區龍安里40號","TEL":"06-7891054","COUNTYNAME":"台南市","TOWNNAME":"佳里區","MARKTYPE":"992","Class":"2"},"geometry":{"x":164501.59640000015,"y":2558440.7877999991}},{"attributes":{"OBJECTID":10769,"LANDMARKID":"1001100000438","LANDMARKCO":"203","LANDMARKNA":"縣立佳里國小","LANDMARKAD":"1001112","ADDRESS":"台南市佳里區安西里公園路445號","TEL":"06-7222031","COUNTYNAME":"台南市","TOWNNAME":"佳里區","MARKTYPE":"992","Class":"2"},"geometry":{"x":165215.84210000001,"y":2562701.4704}},{"attributes":{"OBJECTID":10770,"LANDMARKID":"1001100000439","LANDMARKCO":"203","LANDMARKNA":"縣立佳興國小","LANDMARKAD":"1001112","ADDRESS":"台南市佳里區佳化里214號","TEL":"06-7260311","COUNTYNAME":"台南市","TOWNNAME":"佳里區","MARKTYPE":"992","Class":"2"},"geometry":{"x":167277.44070000015,"y":2565530.1613999996}},{"attributes":{"OBJECTID":10771,"LANDMARKID":"1001100000440","LANDMARKCO":"203","LANDMARKNA":"縣立子龍國小","LANDMARKAD":"1001112","ADDRESS":"台南市佳里區三協里潭墘5號","TEL":"06-7262913","COUNTYNAME":"台南市","TOWNNAME":"佳里區","MARKTYPE":"992","Class":"2"},"geometry":{"x":168291.94710000046,"y":2563771.1009}},{"attributes":{"OBJECTID":10772,"LANDMARKID":"1001100000690","LANDMARKCO":"302","LANDMARKNA":"興南汽車客運佳里站","LANDMARKAD":"1001112","ADDRESS":"台南市佳里區中山路410號","TEL":"(06)722-4107","COUNTYNAME":"台南市","TOWNNAME":"佳里區","MARKTYPE":"993","Class":"302"},"geometry":{"x":165747.02869999968,"y":2562672.3339000009}},{"attributes":{"OBJECTID":10773,"LANDMARKID":"1001100000871","LANDMARKCO":"402","LANDMARKNA":"中華電信-佳里服務中心","LANDMARKAD":"1001112","ADDRESS":"台南市佳里區進學路256號","TEL":"(06)744-0421","COUNTYNAME":"台南市","TOWNNAME":"佳里區","MARKTYPE":"994","Class":"4"},"geometry":{"x":165614.71740000043,"y":2562716.5365999993}},{"attributes":{"OBJECTID":10774,"LANDMARKID":"1001100000872","LANDMARKCO":"402","LANDMARKNA":"威寶電信-佳里光復特約服務中心","LANDMARKAD":"1001112","ADDRESS":"台南市佳里區光復路24號","TEL":"(06)7216150","COUNTYNAME":"台南市","TOWNNAME":"佳里區","MARKTYPE":"994","Class":"4"},"geometry":{"x":165552.45839999989,"y":2561827.3796999995}},{"attributes":{"OBJECTID":10775,"LANDMARKID":"1001100000929","LANDMARKCO":"405","LANDMARKNA":"中油加油站-大內站(中油直營)","LANDMARKAD":"1001111","ADDRESS":"台南市大內區石城村石子瀨122-12號","TEL":"06-5761914","COUNTYNAME":"台南市","TOWNNAME":"大內區","MARKTYPE":"994","Class":"4"},"geometry":{"x":183911.45880000014,"y":2557846.8991999999}},{"attributes":{"OBJECTID":10776,"LANDMARKID":"1001100001244","LANDMARKCO":"408","LANDMARKNA":"郵局-大內郵局","LANDMARKAD":"1001111","ADDRESS":"台南市大內區大內村7-2號","TEL":"(06)5761-080","COUNTYNAME":"台南市","TOWNNAME":"大內區","MARKTYPE":"994","Class":"4"},"geometry":{"x":184468.19469999988,"y":2557557.7783000004}},{"attributes":{"OBJECTID":10777,"LANDMARKID":"1001100001263","LANDMARKCO":"409","LANDMARKNA":"台南市大內區農會","LANDMARKAD":"1001111","ADDRESS":"台南市大內區大內村1鄰9號","TEL":"06-5761016","COUNTYNAME":"台南市","TOWNNAME":"大內區","MARKTYPE":"994","Class":"4"},"geometry":{"x":184569.60769999959,"y":2557481.8859000001}},{"attributes":{"OBJECTID":10778,"LANDMARKID":"1001100000060","LANDMARKCO":"103","LANDMARKNA":"台南市大內區衛生所","LANDMARKAD":"1001111","ADDRESS":"台南市大內區大內村2號","TEL":"06-5764352","COUNTYNAME":"台南市","TOWNNAME":"大內區","MARKTYPE":"991","Class":"1"},"geometry":{"x":183282.41330000013,"y":2557790.6427999996}},{"attributes":{"OBJECTID":10779,"LANDMARKID":"1001100000133","LANDMARKCO":"106","LANDMARKNA":"台南市大內區戶政事務所","LANDMARKAD":"1001111","ADDRESS":"台南市大內區石城村8鄰石子瀨74號","TEL":"06-5761259","COUNTYNAME":"台南市","TOWNNAME":"大內區","MARKTYPE":"991","Class":"1"},"geometry":{"x":184254.73570000008,"y":2557829.1576000005}},{"attributes":{"OBJECTID":10780,"LANDMARKID":"1001100000172","LANDMARKCO":"107","LANDMARKNA":"台南市警察局頭社派出所","LANDMARKAD":"1001111","ADDRESS":"台南市大內區頭社村頭社60號","TEL":"06-5761564","COUNTYNAME":"台南市","TOWNNAME":"大內區","MARKTYPE":"991","Class":"1"},"geometry":{"x":187203.08469999954,"y":2560225.2988000009}},{"attributes":{"OBJECTID":10781,"LANDMARKID":"1001100000173","LANDMARKCO":"107","LANDMARKNA":"台南市警察局二溪派出所","LANDMARKAD":"1001111","ADDRESS":"台南市大內區二溪村二重溪150號","TEL":"06-5762017","COUNTYNAME":"台南市","TOWNNAME":"大內區","MARKTYPE":"991","Class":"1"},"geometry":{"x":187705.51699999999,"y":2557991.0561999995}},{"attributes":{"OBJECTID":10782,"LANDMARKID":"1001100000328","LANDMARKCO":"108","LANDMARKNA":"台南市大內區公所","LANDMARKAD":"1001111","ADDRESS":"台南市大內區大內村1號","TEL":"06-5761001","COUNTYNAME":"台南市","TOWNNAME":"大內區","MARKTYPE":"991","Class":"1"},"geometry":{"x":183293.85950000025,"y":2557690.6938000005}},{"attributes":{"OBJECTID":10783,"LANDMARKID":"1001100000174","LANDMARKCO":"107","LANDMARKNA":"台南市消防局大內消防分隊","LANDMARKAD":"1001111","ADDRESS":"台南市大內區石城村74號","TEL":"06-5761271","COUNTYNAME":"台南市","TOWNNAME":"大內區","MARKTYPE":"991","Class":"1"},"geometry":{"x":184226.27109999955,"y":2557821.0322999991}},{"attributes":{"OBJECTID":10784,"LANDMARKID":"1001100000175","LANDMARKCO":"107","LANDMARKNA":"台南市警察局大內分駐所","LANDMARKAD":"1001111","ADDRESS":"台南市大內區石城村石仔瀨74號","TEL":"06-5761039","COUNTYNAME":"台南市","TOWNNAME":"大內區","MARKTYPE":"991","Class":"1"},"geometry":{"x":184238.40299999993,"y":2557791.0856999997}},{"attributes":{"OBJECTID":10785,"LANDMARKID":"1001100000061","LANDMARKCO":"103","LANDMARKNA":"台南市大內區鄉民代表會","LANDMARKAD":"1001111","ADDRESS":"台南市大內區大內村1號之36，3樓","TEL":"06-5765426","COUNTYNAME":"台南市","TOWNNAME":"大內區","MARKTYPE":"991","Class":"1"},"geometry":{"x":184309.70999999996,"y":2557720.1454000007}},{"attributes":{"OBJECTID":10786,"LANDMARKID":"1001100000649","LANDMARKCO":"204","LANDMARKNA":"台南市立圖書館大內分館","LANDMARKAD":"1001111","ADDRESS":"台南市大內區大內村1之36號","TEL":" ","COUNTYNAME":"台南市","TOWNNAME":"大內區","MARKTYPE":"992","Class":"2"},"geometry":{"x":184261.01370000001,"y":2557567.0448000003}},{"attributes":{"OBJECTID":10787,"LANDMARKID":"1001100000426","LANDMARKCO":"203","LANDMARKNA":"大內國小","LANDMARKAD":"1001111","ADDRESS":" ","TEL":" ","COUNTYNAME":"台南市","TOWNNAME":"大內區","MARKTYPE":"992","Class":"2"},"geometry":{"x":183758.94000000041,"y":2557670.2274999991}},{"attributes":{"OBJECTID":10788,"LANDMARKID":"1001100000427","LANDMARKCO":"203","LANDMARKNA":"縣立大內國中","LANDMARKAD":"1001111","ADDRESS":"台南市大內區內江村319之1號","TEL":"06-5763301","COUNTYNAME":"台南市","TOWNNAME":"大內區","MARKTYPE":"992","Class":"2"},"geometry":{"x":184912.29700000025,"y":2556890.3078000005}},{"attributes":{"OBJECTID":10789,"LANDMARKID":"1001100000428","LANDMARKCO":"203","LANDMARKNA":"縣立大內國小","LANDMARKAD":"1001111","ADDRESS":"台南市大內區大內村63號","TEL":"06-5761007","COUNTYNAME":"台南市","TOWNNAME":"大內區","MARKTYPE":"992","Class":"2"},"geometry":{"x":184542.7536000004,"y":2557631.1738000009}},{"attributes":{"OBJECTID":10790,"LANDMARKID":"1001100000429","LANDMARKCO":"203","LANDMARKNA":"縣立頭社國小","LANDMARKAD":"1001111","ADDRESS":"台南市大內區","TEL":" ","COUNTYNAME":"台南市","TOWNNAME":"大內區","MARKTYPE":"992","Class":"2"},"geometry":{"x":186943.29710000008,"y":2560270.4044000003}},{"attributes":{"OBJECTID":10791,"LANDMARKID":"1001100000430","LANDMARKCO":"203","LANDMARKNA":"縣立二溪國小","LANDMARKAD":"1001111","ADDRESS":"台南市大內區二溪村154號","TEL":"06-5762001","COUNTYNAME":"台南市","TOWNNAME":"大內區","MARKTYPE":"992","Class":"2"},"geometry":{"x":187845.03880000021,"y":2557870.6425000001}},{"attributes":{"OBJECTID":10792,"LANDMARKID":"1001100000431","LANDMARKCO":"203","LANDMARKNA":"縣立鳴頭國小明山分校","LANDMARKAD":"1001111","ADDRESS":"台南市大內區","TEL":" ","COUNTYNAME":"台南市","TOWNNAME":"大內區","MARKTYPE":"992","Class":"2"},"geometry":{"x":189244.88929999992,"y":2562520.4598999992}},{"attributes":{"OBJECTID":10793,"LANDMARKID":"1001100000432","LANDMARKCO":"203","LANDMARKNA":"縣立鳴頭國小","LANDMARKAD":"1001111","ADDRESS":"台南市大內區","TEL":" ","COUNTYNAME":"台南市","TOWNNAME":"大內區","MARKTYPE":"992","Class":"2"},"geometry":{"x":190431.53899999987,"y":2560820.6711999997}},{"attributes":{"OBJECTID":10794,"LANDMARKID":"1001100000433","LANDMARKCO":"203","LANDMARKNA":"縣立鳴頭國小頂蘭分校","LANDMARKAD":"1001111","ADDRESS":"台南市大內區","TEL":" ","COUNTYNAME":"台南市","TOWNNAME":"大內區","MARKTYPE":"992","Class":"2"},"geometry":{"x":192428.09559999965,"y":2566160.5927000009}},{"attributes":{"OBJECTID":10795,"LANDMARKID":"1001100000791","LANDMARKCO":"308","LANDMARKNA":"台84-頭社交流道-西行","LANDMARKAD":"1001111","ADDRESS":" ","TEL":" ","COUNTYNAME":"台南市","TOWNNAME":"大內區","MARKTYPE":"993","Class":"308"},"geometry":{"x":186021.68609999958,"y":2559890.2204999998}},{"attributes":{"OBJECTID":10796,"LANDMARKID":"1001100000792","LANDMARKCO":"308","LANDMARKNA":"台84-頭社交流道-東行","LANDMARKAD":"1001111","ADDRESS":" ","TEL":" ","COUNTYNAME":"台南市","TOWNNAME":"大內區","MARKTYPE":"993","Class":"308"},"geometry":{"x":186466.89389999956,"y":2559867.6765000001}},{"attributes":{"OBJECTID":10797,"LANDMARKID":"1001100000793","LANDMARKCO":"308","LANDMARKNA":"台84-二溪交流道-西行","LANDMARKAD":"1001111","ADDRESS":" ","TEL":" ","COUNTYNAME":"台南市","TOWNNAME":"大內區","MARKTYPE":"993","Class":"308"},"geometry":{"x":188744.1967000002,"y":2560056.7376000006}},{"attributes":{"OBJECTID":10798,"LANDMARKID":"1001100000794","LANDMARKCO":"308","LANDMARKNA":"台84-二溪交流道-東行","LANDMARKAD":"1001111","ADDRESS":" ","TEL":" ","COUNTYNAME":"台南市","TOWNNAME":"大內區","MARKTYPE":"993","Class":"308"},"geometry":{"x":189290.10830000043,"y":2560062.6799999997}},{"attributes":{"OBJECTID":10799,"LANDMARKID":"1001100000704","LANDMARKCO":"303","LANDMARKNA":"大內公園停車場","LANDMARKAD":"1001111","ADDRESS":"台南市大內區頭社段","TEL":" ","COUNTYNAME":"台南市","TOWNNAME":"大內區","MARKTYPE":"993","Class":"303"},"geometry":{"x":190045.57639999967,"y":2559333.0098000001}},{"attributes":{"OBJECTID":10800,"LANDMARKID":"1001100000705","LANDMARKCO":"303","LANDMARKNA":"走馬瀨農場停車場","LANDMARKAD":"1001111","ADDRESS":"台南市大內區二溪村","TEL":" ","COUNTYNAME":"台南市","TOWNNAME":"大內區","MARKTYPE":"993","Class":"303"},"geometry":{"x":191122.15479999967,"y":2559447.1370000001}}]}