{"displayFieldName":"COUNTYNAME","fieldAliases":{"OBJECTID":"OBJECTID","LANDMARKID":"LANDMARKID","LANDMARKCO":"LANDMARKCO","LANDMARKNA":"LANDMARKNA","LANDMARKAD":"LANDMARKAD","ADDRESS":"ADDRESS","TEL":"TEL","COUNTYNAME":"COUNTYNAME","TOWNNAME":"TOWNNAME","MARKTYPE":"MARKTYPE","Class":"Class"},"geometryType":"esriGeometryPoint","spatialReference":{"wkid":102443},"fields":[{"name":"OBJECTID","type":"esriFieldTypeOID","alias":"OBJECTID"},{"name":"LANDMARKID","type":"esriFieldTypeString","alias":"LANDMARKID","length":15},{"name":"LANDMARKCO","type":"esriFieldTypeString","alias":"LANDMARKCO","length":15},{"name":"LANDMARKNA","type":"esriFieldTypeString","alias":"LANDMARKNA","length":50},{"name":"LANDMARKAD","type":"esriFieldTypeString","alias":"LANDMARKAD","length":15},{"name":"ADDRESS","type":"esriFieldTypeString","alias":"ADDRESS","length":56},{"name":"TEL","type":"esriFieldTypeString","alias":"TEL","length":36},{"name":"COUNTYNAME","type":"esriFieldTypeString","alias":"COUNTYNAME","length":15},{"name":"TOWNNAME","type":"esriFieldTypeString","alias":"TOWNNAME","length":13},{"name":"MARKTYPE","type":"esriFieldTypeString","alias":"MARKTYPE","length":12},{"name":"Class","type":"esriFieldTypeString","alias":"Class","length":5}],"features":[{"attributes":{"OBJECTID":20801,"LANDMARKID":"6400000000677","LANDMARKCO":"306","LANDMARKNA":"巨蛋捷運站-出口5","LANDMARKAD":"6400003","ADDRESS":" ","TEL":" ","COUNTYNAME":"高雄市","TOWNNAME":"左營區","MARKTYPE":"993","Class":"306"},"geometry":{"x":178386.92310000025,"y":2507565.8236999996}},{"attributes":{"OBJECTID":20802,"LANDMARKID":"6400000000678","LANDMARKCO":"306","LANDMARKNA":"巨蛋捷運站-出口3","LANDMARKAD":"6400003","ADDRESS":" ","TEL":" ","COUNTYNAME":"高雄市","TOWNNAME":"左營區","MARKTYPE":"993","Class":"306"},"geometry":{"x":178384.69049999956,"y":2507517.5009000003}},{"attributes":{"OBJECTID":20803,"LANDMARKID":"6400000000679","LANDMARKCO":"306","LANDMARKNA":"生態園區捷運站-出口1","LANDMARKAD":"6400003","ADDRESS":" ","TEL":" ","COUNTYNAME":"高雄市","TOWNNAME":"左營區","MARKTYPE":"993","Class":"306"},"geometry":{"x":178725.16280000005,"y":2508555.5122999996}},{"attributes":{"OBJECTID":20804,"LANDMARKID":"6400000000680","LANDMARKCO":"306","LANDMARKNA":"生態園區捷運站-出口2","LANDMARKAD":"6400003","ADDRESS":" ","TEL":" ","COUNTYNAME":"高雄市","TOWNNAME":"左營區","MARKTYPE":"993","Class":"306"},"geometry":{"x":178741.77780000027,"y":2508717.7271999996}},{"attributes":{"OBJECTID":20805,"LANDMARKID":"6400000000681","LANDMARKCO":"306","LANDMARKNA":"左營捷運站-出口1","LANDMARKAD":"6400003","ADDRESS":" ","TEL":" ","COUNTYNAME":"高雄市","TOWNNAME":"左營區","MARKTYPE":"993","Class":"306"},"geometry":{"x":178965.83090000041,"y":2509852.7146000005}},{"attributes":{"OBJECTID":20806,"LANDMARKID":"6400000000682","LANDMARKCO":"306","LANDMARKNA":"左營捷運站-出口2","LANDMARKAD":"6400003","ADDRESS":" ","TEL":" ","COUNTYNAME":"高雄市","TOWNNAME":"左營區","MARKTYPE":"993","Class":"306"},"geometry":{"x":178851.4578999998,"y":2509971.6056999993}},{"attributes":{"OBJECTID":20807,"LANDMARKID":"6400000000704","LANDMARKCO":"307","LANDMARKNA":"高鐵左營站(高雄站)-出口1","LANDMARKAD":"6400003","ADDRESS":" ","TEL":" ","COUNTYNAME":"高雄市","TOWNNAME":"左營區","MARKTYPE":"993","Class":"307"},"geometry":{"x":178972.50669999979,"y":2509850.4563999996}},{"attributes":{"OBJECTID":20808,"LANDMARKID":"6400000000705","LANDMARKCO":"307","LANDMARKNA":"高鐵左營站(高雄站)-出口2","LANDMARKAD":"6400003","ADDRESS":" ","TEL":" ","COUNTYNAME":"高雄市","TOWNNAME":"左營區","MARKTYPE":"993","Class":"307"},"geometry":{"x":178953.87750000041,"y":2509821.8511999995}},{"attributes":{"OBJECTID":20809,"LANDMARKID":"6400000000706","LANDMARKCO":"307","LANDMARKNA":"高鐵左營站(高雄站)-出口3","LANDMARKAD":"6400003","ADDRESS":" ","TEL":" ","COUNTYNAME":"高雄市","TOWNNAME":"左營區","MARKTYPE":"993","Class":"307"},"geometry":{"x":178863.48259999976,"y":2509734.2043999992}},{"attributes":{"OBJECTID":20810,"LANDMARKID":"6400000000707","LANDMARKCO":"307","LANDMARKNA":"高鐵左營站(高雄站)-出口4","LANDMARKAD":"6400003","ADDRESS":" ","TEL":" ","COUNTYNAME":"高雄市","TOWNNAME":"左營區","MARKTYPE":"993","Class":"307"},"geometry":{"x":178833.57919999957,"y":2509709.2990000006}},{"attributes":{"OBJECTID":20811,"LANDMARKID":"6400000000708","LANDMARKCO":"307","LANDMARKNA":"高鐵左營站(高雄站)-出口5","LANDMARKAD":"6400003","ADDRESS":" ","TEL":" ","COUNTYNAME":"高雄市","TOWNNAME":"左營區","MARKTYPE":"993","Class":"307"},"geometry":{"x":178713.3898,"y":2509646.5482999999}},{"attributes":{"OBJECTID":20812,"LANDMARKID":"6400000000439","LANDMARKCO":"302","LANDMARKNA":"統聯客運-左營站-自營站","LANDMARKAD":"6400003","ADDRESS":"高雄市左營區左營大路782號","TEL":"連絡電話:07-581","COUNTYNAME":"高雄市","TOWNNAME":"左營區","MARKTYPE":"993","Class":"302"},"geometry":{"x":178029.01020000037,"y":2510547.6180000007}},{"attributes":{"OBJECTID":20813,"LANDMARKID":"6400000000555","LANDMARKCO":"303","LANDMARKNA":"海功地下停車場","LANDMARKAD":"6400003","ADDRESS":"高雄市左營區海功路57號","TEL":"07-5820597","COUNTYNAME":"高雄市","TOWNNAME":"左營區","MARKTYPE":"993","Class":"303"},"geometry":{"x":177477.77529999986,"y":2510503.9119000006}},{"attributes":{"OBJECTID":20814,"LANDMARKID":"6400000000556","LANDMARKCO":"303","LANDMARKNA":"蓮池潭綜合遊樂園區停車場","LANDMARKAD":"6400003","ADDRESS":"高雄市左營區明潭路","TEL":" ","COUNTYNAME":"高雄市","TOWNNAME":"左營區","MARKTYPE":"993","Class":"303"},"geometry":{"x":178154.31439999957,"y":2510021.8750999998}},{"attributes":{"OBJECTID":20815,"LANDMARKID":"6400000000557","LANDMARKCO":"303","LANDMARKNA":"自由黃昏市場停車場","LANDMARKAD":"6400003","ADDRESS":"高雄市左營區孟子路","TEL":" ","COUNTYNAME":"高雄市","TOWNNAME":"左營區","MARKTYPE":"993","Class":"303"},"geometry":{"x":179216.5270999996,"y":2508357.0749999993}},{"attributes":{"OBJECTID":20816,"LANDMARKID":"6400000000558","LANDMARKCO":"303","LANDMARKNA":"左營高鐵立體停車場","LANDMARKAD":"6400003","ADDRESS":" ","TEL":" ","COUNTYNAME":"高雄市","TOWNNAME":"左營區","MARKTYPE":"993","Class":"303"},"geometry":{"x":178672.41420000046,"y":2509754.3819999993}},{"attributes":{"OBJECTID":20817,"LANDMARKID":"6400000000559","LANDMARKCO":"303","LANDMARKNA":"高雄榮民總醫院附設停車場","LANDMARKAD":"6400003","ADDRESS":"高雄市左營區大中一路386號","TEL":" ","COUNTYNAME":"高雄市","TOWNNAME":"左營區","MARKTYPE":"993","Class":"303"},"geometry":{"x":180460.19720000029,"y":2508853.5733000003}},{"attributes":{"OBJECTID":20818,"LANDMARKID":"6400000000560","LANDMARKCO":"303","LANDMARKNA":"蓮池潭行政中心停車場","LANDMARKAD":"6400003","ADDRESS":"高雄市左營區翠華路1435號","TEL":" ","COUNTYNAME":"高雄市","TOWNNAME":"左營區","MARKTYPE":"993","Class":"303"},"geometry":{"x":177901.69680000003,"y":2509025.1335000005}},{"attributes":{"OBJECTID":20819,"LANDMARKID":"6400000000431","LANDMARKCO":"301","LANDMARKNA":"新左營站","LANDMARKAD":"6400003","ADDRESS":"高雄市左營區尾北里菜公路1號","TEL":"07-5887825","COUNTYNAME":"高雄市","TOWNNAME":"左營區","MARKTYPE":"993","Class":"301"},"geometry":{"x":178753.45859999955,"y":2509772.5884000007}},{"attributes":{"OBJECTID":20820,"LANDMARKID":"6400000000432","LANDMARKCO":"301","LANDMARKNA":"左營火車站","LANDMARKAD":"6400003","ADDRESS":"高雄市左營區勝利路1號","TEL":" ","COUNTYNAME":"高雄市","TOWNNAME":"左營區","MARKTYPE":"993","Class":"301"},"geometry":{"x":177543.6409,"y":2508462.4934}},{"attributes":{"OBJECTID":20821,"LANDMARKID":"6400000000786","LANDMARKCO":"402","LANDMARKNA":"中華電信-高雄舊城特約服務中心","LANDMARKAD":"6400003","ADDRESS":"高雄市左營區左營大路114號","TEL":"07-5889488","COUNTYNAME":"高雄市","TOWNNAME":"左營區","MARKTYPE":"994","Class":"4"},"geometry":{"x":176913.83069999982,"y":2509331.2956000008}},{"attributes":{"OBJECTID":20822,"LANDMARKID":"6400000000787","LANDMARKCO":"402","LANDMARKNA":"中華電信-至聖服務中心","LANDMARKAD":"6400003","ADDRESS":"高雄市左營區至聖路200號","TEL":"123或0800-080-123","COUNTYNAME":"高雄市","TOWNNAME":"左營區","MARKTYPE":"994","Class":"4"},"geometry":{"x":178804.18479999993,"y":2506791.8114}},{"attributes":{"OBJECTID":20823,"LANDMARKID":"6400000000788","LANDMARKCO":"402","LANDMARKNA":"中華電信-高雄高鐵特約服務中心","LANDMARKAD":"6400003","ADDRESS":"高雄市左營區華夏路1170號","TEL":"07-3486828","COUNTYNAME":"高雄市","TOWNNAME":"左營區","MARKTYPE":"994","Class":"4"},"geometry":{"x":179043.54580000043,"y":2509481.5348000005}},{"attributes":{"OBJECTID":20824,"LANDMARKID":"6400000000789","LANDMARKCO":"402","LANDMARKNA":"中華電信-高雄華夏特約服務中心","LANDMARKAD":"6400003","ADDRESS":"高雄市左營區華夏路663號","TEL":"07-3433868","COUNTYNAME":"高雄市","TOWNNAME":"左營區","MARKTYPE":"994","Class":"4"},"geometry":{"x":178225.67140000034,"y":2508747.7421000004}},{"attributes":{"OBJECTID":20825,"LANDMARKID":"6400000000790","LANDMARKCO":"402","LANDMARKNA":"中華電信-左營服務中心","LANDMARKAD":"6400003","ADDRESS":"高雄市左營區實踐路45號","TEL":"123或0800-080-123","COUNTYNAME":"高雄市","TOWNNAME":"左營區","MARKTYPE":"994","Class":"4"},"geometry":{"x":177390.33999999985,"y":2510145.8164000008}},{"attributes":{"OBJECTID":20826,"LANDMARKID":"6400000000791","LANDMARKCO":"402","LANDMARKNA":"威寶電信-高雄富國特約服務務中心","LANDMARKAD":"6400003","ADDRESS":"高雄市左營區富國路81號","TEL":"07-5509160","COUNTYNAME":"高雄市","TOWNNAME":"左營區","MARKTYPE":"994","Class":"4"},"geometry":{"x":178720.54470000044,"y":2506714.4214999992}},{"attributes":{"OBJECTID":20827,"LANDMARKID":"6400000000792","LANDMARKCO":"402","LANDMARKNA":"威寶電信-高雄華夏特約服務中心","LANDMARKAD":"6400003","ADDRESS":"高雄市左營區華夏路729號","TEL":"07-3497977","COUNTYNAME":"高雄市","TOWNNAME":"左營區","MARKTYPE":"994","Class":"4"},"geometry":{"x":178308.60340000037,"y":2508857.1249000002}},{"attributes":{"OBJECTID":20828,"LANDMARKID":"6400000000793","LANDMARKCO":"402","LANDMARKNA":"威寶電信-高雄自由三特約服務中心","LANDMARKAD":"6400003","ADDRESS":"高雄市左營區自由三路292號","TEL":"07-3481818","COUNTYNAME":"高雄市","TOWNNAME":"左營區","MARKTYPE":"994","Class":"4"},"geometry":{"x":179324.07259999961,"y":2508352.5362}},{"attributes":{"OBJECTID":20829,"LANDMARKID":"6400000000794","LANDMARKCO":"402","LANDMARKNA":"威寶電信-高雄新庄特約服務中心","LANDMARKAD":"6400003","ADDRESS":"高雄市左營區新庄仔路512-1號","TEL":"05-5508050","COUNTYNAME":"高雄市","TOWNNAME":"左營區","MARKTYPE":"994","Class":"4"},"geometry":{"x":178491.73249999993,"y":2507905.6616999991}},{"attributes":{"OBJECTID":20830,"LANDMARKID":"6400000000795","LANDMARKCO":"402","LANDMARKNA":"威寶電信-高雄左營特約服務中心","LANDMARKAD":"6400003","ADDRESS":"高雄市左營區左營大路276號","TEL":"07-5886065","COUNTYNAME":"高雄市","TOWNNAME":"左營區","MARKTYPE":"994","Class":"4"},"geometry":{"x":177126.61710000038,"y":2509682.9371000007}},{"attributes":{"OBJECTID":20831,"LANDMARKID":"6400000000796","LANDMARKCO":"402","LANDMARKNA":"大眾電信(震旦通訊)-高雄左營店","LANDMARKAD":"6400003","ADDRESS":"高雄市左營區左營大路189號","TEL":"07-5856700","COUNTYNAME":"高雄市","TOWNNAME":"左營區","MARKTYPE":"994","Class":"4"},"geometry":{"x":177007.00009999983,"y":2509602.3654999994}},{"attributes":{"OBJECTID":20832,"LANDMARKID":"6400000000797","LANDMARKCO":"402","LANDMARKNA":"大眾電信-民族專賣店","LANDMARKAD":"6400003","ADDRESS":"高雄市左營區民族一路996號","TEL":"07-3472288","COUNTYNAME":"高雄市","TOWNNAME":"左營區","MARKTYPE":"994","Class":"4"},"geometry":{"x":180089.05350000039,"y":2508970.0988999996}},{"attributes":{"OBJECTID":20833,"LANDMARKID":"6400000000798","LANDMARKCO":"402","LANDMARKNA":"大眾電信-自由專賣店","LANDMARKAD":"6400003","ADDRESS":"高雄市左營區自由二路347號","TEL":"07-5590288","COUNTYNAME":"高雄市","TOWNNAME":"左營區","MARKTYPE":"994","Class":"4"},"geometry":{"x":178900.64979999978,"y":2507307.2473000009}},{"attributes":{"OBJECTID":20834,"LANDMARKID":"6400000000799","LANDMARKCO":"402","LANDMARKNA":"大眾電信(震旦通訊)-高雄自由店","LANDMARKAD":"6400003","ADDRESS":"高雄市自由二路98號","TEL":"07-5567558","COUNTYNAME":"高雄市","TOWNNAME":"左營區","MARKTYPE":"994","Class":"4"},"geometry":{"x":178991.22470000014,"y":2506782.3510999996}},{"attributes":{"OBJECTID":20835,"LANDMARKID":"6400000000800","LANDMARKCO":"402","LANDMARKNA":"威寶電信-高雄自由直營服務中心","LANDMARKAD":"6400003","ADDRESS":"高雄市左營區自由二路331號","TEL":" ","COUNTYNAME":"高雄市","TOWNNAME":"左營區","MARKTYPE":"994","Class":"4"},"geometry":{"x":178895.30989999976,"y":2507256.4863000009}},{"attributes":{"OBJECTID":20836,"LANDMARKID":"6400000001357","LANDMARKCO":"603","LANDMARKNA":"函館汽車旅館","LANDMARKAD":"6400003","ADDRESS":"高雄市左營區崇德路156號1","TEL":"2樓","COUNTYNAME":"高雄市","TOWNNAME":"左營區","MARKTYPE":"996","Class":"6"},"geometry":{"x":178743.40429999959,"y":2508388.0780999996}},{"attributes":{"OBJECTID":20837,"LANDMARKID":"6400000001358","LANDMARKCO":"603","LANDMARKNA":"順風大旅社","LANDMARKAD":"6400003","ADDRESS":"高雄市左營區部後街42巷113號","TEL":"07-5878768","COUNTYNAME":"高雄市","TOWNNAME":"左營區","MARKTYPE":"996","Class":"6"},"geometry":{"x":176838.71879999992,"y":2509640.5406999998}},{"attributes":{"OBJECTID":20838,"LANDMARKID":"6400000001359","LANDMARKCO":"603","LANDMARKNA":"萬隆大旅社","LANDMARKAD":"6400003","ADDRESS":"高雄市左營區左營大路16號之2","TEL":"07-5836741","COUNTYNAME":"高雄市","TOWNNAME":"左營區","MARKTYPE":"996","Class":"6"},"geometry":{"x":176820.49519999977,"y":2509116.8767000008}},{"attributes":{"OBJECTID":20839,"LANDMARKID":"6400000001360","LANDMARKCO":"603","LANDMARKNA":"春風時尚旅館","LANDMARKAD":"6400003","ADDRESS":"高雄市左營區重上街117號","TEL":"07-3453758","COUNTYNAME":"高雄市","TOWNNAME":"左營區","MARKTYPE":"996","Class":"6"},"geometry":{"x":178633.74959999975,"y":2508517.3126999997}},{"attributes":{"OBJECTID":20840,"LANDMARKID":"6400000001361","LANDMARKCO":"603","LANDMARKNA":"雪梨汽車旅館","LANDMARKAD":"6400003","ADDRESS":"高雄市左營區重和路77號1-2樓","TEL":"07-3423377","COUNTYNAME":"高雄市","TOWNNAME":"左營區","MARKTYPE":"996","Class":"6"},"geometry":{"x":179373.60099999979,"y":2509468.7391999997}},{"attributes":{"OBJECTID":20841,"LANDMARKID":"6400000001362","LANDMARKCO":"603","LANDMARKNA":"星光汽車旅館","LANDMARKAD":"6400003","ADDRESS":"高雄市左營區重信路428號1-3樓","TEL":"07-3416202","COUNTYNAME":"高雄市","TOWNNAME":"左營區","MARKTYPE":"996","Class":"6"},"geometry":{"x":179187.81269999966,"y":2509424.2047000006}},{"attributes":{"OBJECTID":20842,"LANDMARKID":"6400000001363","LANDMARKCO":"603","LANDMARKNA":"溫哥華汽車旅館","LANDMARKAD":"6400003","ADDRESS":"高雄市左營區重義路11號","TEL":"07-3459677","COUNTYNAME":"高雄市","TOWNNAME":"左營區","MARKTYPE":"996","Class":"6"},"geometry":{"x":179415.80960000027,"y":2509639.9344999995}},{"attributes":{"OBJECTID":20843,"LANDMARKID":"6400000001364","LANDMARKCO":"603","LANDMARKNA":"花鄉旅館","LANDMARKAD":"6400003","ADDRESS":"高雄市左營區文智路95號","TEL":"07-3470111","COUNTYNAME":"高雄市","TOWNNAME":"左營區","MARKTYPE":"996","Class":"6"},"geometry":{"x":177812.30640000012,"y":2508613.1409000009}},{"attributes":{"OBJECTID":20844,"LANDMARKID":"6400000001365","LANDMARKCO":"603","LANDMARKNA":"瑞和旅社","LANDMARKAD":"6400003","ADDRESS":"高雄市左營區左營大路419巷72弄10號","TEL":"07-5815679","COUNTYNAME":"高雄市","TOWNNAME":"左營區","MARKTYPE":"996","Class":"6"},"geometry":{"x":177360.44979999959,"y":2510122.6741000004}},{"attributes":{"OBJECTID":20845,"LANDMARKID":"6400000001366","LANDMARKCO":"603","LANDMARKNA":"上海旅社","LANDMARKAD":"6400003","ADDRESS":"高雄市左營區軍校路2巷28號之2","TEL":"07-5814491","COUNTYNAME":"高雄市","TOWNNAME":"左營區","MARKTYPE":"996","Class":"6"},"geometry":{"x":177318.88100000005,"y":2509934.4832000006}},{"attributes":{"OBJECTID":20846,"LANDMARKID":"6400000001367","LANDMARKCO":"603","LANDMARKNA":"萬美賓館","LANDMARKAD":"6400003","ADDRESS":"高雄市左營區左營大路14-9號","TEL":"07-5825888","COUNTYNAME":"高雄市","TOWNNAME":"左營區","MARKTYPE":"996","Class":"6"},"geometry":{"x":176829.89529999997,"y":2509108.8935000002}},{"attributes":{"OBJECTID":20847,"LANDMARKID":"6400000001368","LANDMARKCO":"603","LANDMARKNA":"富鈺商務旅館","LANDMARKAD":"6400003","ADDRESS":"高雄市左營區左營大路22號5-7樓","TEL":"07-5882797","COUNTYNAME":"高雄市","TOWNNAME":"左營區","MARKTYPE":"996","Class":"6"},"geometry":{"x":176828.87609999999,"y":2509112.8885999992}},{"attributes":{"OBJECTID":20848,"LANDMARKID":"6400000001369","LANDMARKCO":"603","LANDMARKNA":"五統大旅社","LANDMARKAD":"6400003","ADDRESS":"高雄市左營區左營大路272巷1號","TEL":"07-5817181-4","COUNTYNAME":"高雄市","TOWNNAME":"左營區","MARKTYPE":"996","Class":"6"},"geometry":{"x":177123.76040000003,"y":2509652.9233999997}},{"attributes":{"OBJECTID":20849,"LANDMARKID":"6400000001370","LANDMARKCO":"603","LANDMARKNA":"富山旅社","LANDMARKAD":"6400003","ADDRESS":"高雄市左營區左營大路288巷1號","TEL":"07-5815898","COUNTYNAME":"高雄市","TOWNNAME":"左營區","MARKTYPE":"996","Class":"6"},"geometry":{"x":177168.56450000033,"y":2509694.1372999996}},{"attributes":{"OBJECTID":20850,"LANDMARKID":"6400000001371","LANDMARKCO":"603","LANDMARKNA":"寶明大旅社","LANDMARKAD":"6400003","ADDRESS":"高雄市左營區左營大路381巷15號","TEL":"07-5833943","COUNTYNAME":"高雄市","TOWNNAME":"左營區","MARKTYPE":"996","Class":"6"},"geometry":{"x":177371.06149999984,"y":2509896.7315999996}},{"attributes":{"OBJECTID":20851,"LANDMARKID":"6400000001372","LANDMARKCO":"603","LANDMARKNA":"國泰旅社","LANDMARKAD":"6400003","ADDRESS":"高雄市左營區左營大路401巷33弄10號","TEL":"07-5822592","COUNTYNAME":"高雄市","TOWNNAME":"左營區","MARKTYPE":"996","Class":"6"},"geometry":{"x":177328.68090000004,"y":2509976.5297999997}},{"attributes":{"OBJECTID":20852,"LANDMARKID":"6400000001373","LANDMARKCO":"603","LANDMARKNA":"城都大旅社","LANDMARKAD":"6400003","ADDRESS":"高雄市左營區左營大路442巷8號","TEL":"07-5815066","COUNTYNAME":"高雄市","TOWNNAME":"左營區","MARKTYPE":"996","Class":"6"},"geometry":{"x":177462.18420000002,"y":2509871.1648999993}},{"attributes":{"OBJECTID":20853,"LANDMARKID":"6400000001374","LANDMARKCO":"603","LANDMARKNA":"華宮賓館","LANDMARKAD":"6400003","ADDRESS":"高雄市左營區左營大路646號","TEL":"07-5820135-9","COUNTYNAME":"高雄市","TOWNNAME":"左營區","MARKTYPE":"996","Class":"6"},"geometry":{"x":177849.73809999973,"y":2510271.2836000007}},{"attributes":{"OBJECTID":20854,"LANDMARKID":"6400000001375","LANDMARKCO":"603","LANDMARKNA":"金哈妮汽車旅館(歐洲旅館)","LANDMARKAD":"6400003","ADDRESS":"高雄市左營區正心街86號","TEL":"07-5561166","COUNTYNAME":"高雄市","TOWNNAME":"左營區","MARKTYPE":"996","Class":"6"},"geometry":{"x":178493.94680000003,"y":2507244.6854999997}},{"attributes":{"OBJECTID":20855,"LANDMARKID":"6400000001376","LANDMARKCO":"603","LANDMARKNA":"龍翔飯店","LANDMARKAD":"6400003","ADDRESS":"高雄市左營區立文路75號7-10樓","TEL":"07-5574769","COUNTYNAME":"高雄市","TOWNNAME":"左營區","MARKTYPE":"996","Class":"6"},"geometry":{"x":178572.73479999974,"y":2507290.0539999995}},{"attributes":{"OBJECTID":20856,"LANDMARKID":"6400000001377","LANDMARKCO":"603","LANDMARKNA":"榮林旅社","LANDMARKAD":"6400003","ADDRESS":"高雄市左營區西陵街7號","TEL":"07-5824750","COUNTYNAME":"高雄市","TOWNNAME":"左營區","MARKTYPE":"996","Class":"6"},"geometry":{"x":177034.91569999978,"y":2509718.4920000006}},{"attributes":{"OBJECTID":20857,"LANDMARKID":"6400000001378","LANDMARKCO":"603","LANDMARKNA":"黑貓大旅社","LANDMARKAD":"6400003","ADDRESS":"高雄市左營區勝利路87號","TEL":"07-5814622","COUNTYNAME":"高雄市","TOWNNAME":"左營區","MARKTYPE":"996","Class":"6"},"geometry":{"x":177328.72470000014,"y":2508834.5506999996}},{"attributes":{"OBJECTID":20858,"LANDMARKID":"6400000001379","LANDMARKCO":"603","LANDMARKNA":"蓮潭旅社","LANDMARKAD":"6400003","ADDRESS":"高雄市左營區蓮潭路39號","TEL":"07-5837751","COUNTYNAME":"高雄市","TOWNNAME":"左營區","MARKTYPE":"996","Class":"6"},"geometry":{"x":177294.94720000029,"y":2509305.3829999994}},{"attributes":{"OBJECTID":20859,"LANDMARKID":"6400000001380","LANDMARKCO":"603","LANDMARKNA":"舊城旅社","LANDMARKAD":"6400003","ADDRESS":"高雄市左營區蓮潭路40號","TEL":"07-5817848","COUNTYNAME":"高雄市","TOWNNAME":"左營區","MARKTYPE":"996","Class":"6"},"geometry":{"x":177297.93290000036,"y":2509308.3972999994}},{"attributes":{"OBJECTID":20860,"LANDMARKID":"6400000001381","LANDMARKCO":"603","LANDMARKNA":"蓮池大旅社","LANDMARKAD":"6400003","ADDRESS":"高雄市左營區蓮潭路5號","TEL":"07-5816228","COUNTYNAME":"高雄市","TOWNNAME":"左營區","MARKTYPE":"996","Class":"6"},"geometry":{"x":177197.60670000035,"y":2509070.2895999998}},{"attributes":{"OBJECTID":20861,"LANDMARKID":"6400000001382","LANDMARKCO":"603","LANDMARKNA":"愛情海汽車旅館","LANDMARKAD":"6400003","ADDRESS":"高雄市左營區文強路176號2-3樓","TEL":"07-3474955","COUNTYNAME":"高雄市","TOWNNAME":"左營區","MARKTYPE":"996","Class":"6"},"geometry":{"x":178769.84970000014,"y":2508494.6116000004}},{"attributes":{"OBJECTID":20862,"LANDMARKID":"6400000001188","LANDMARKCO":"503","LANDMARKNA":"蓮池潭風景區","LANDMARKAD":"6400003","ADDRESS":"高雄市左營區","TEL":" ","COUNTYNAME":"高雄市","TOWNNAME":"左營區","MARKTYPE":"995","Class":"5"},"geometry":{"x":177595.57440000027,"y":2509589.1334000006}},{"attributes":{"OBJECTID":20863,"LANDMARKID":"6400000001208","LANDMARKCO":"510","LANDMARKNA":"海軍左營高爾夫球場","LANDMARKAD":"6400003","ADDRESS":"高雄市左營區長壽路1號","TEL":"07-5836427","COUNTYNAME":"高雄市","TOWNNAME":"左營區","MARKTYPE":"995","Class":"5"},"geometry":{"x":176071.80470000021,"y":2510779.3724000007}},{"attributes":{"OBJECTID":20864,"LANDMARKID":"6400000001019","LANDMARKCO":"405","LANDMARKNA":"台灣優力加油站-十全站(中油)","LANDMARKAD":"6400005","ADDRESS":"高雄市三民區十全一路11號","TEL":"07-3134873","COUNTYNAME":"高雄市","TOWNNAME":"三民區","MARKTYPE":"994","Class":"4"},"geometry":{"x":179365.02410000004,"y":2505093.1670999993}},{"attributes":{"OBJECTID":20865,"LANDMARKID":"6400000001020","LANDMARKCO":"405","LANDMARKNA":"中油加油站-澄清湖站","LANDMARKAD":"6400005","ADDRESS":"高雄市三民區九如一路123號","TEL":"07-3892166","COUNTYNAME":"高雄市","TOWNNAME":"三民區","MARKTYPE":"994","Class":"4"},"geometry":{"x":182262.84219999984,"y":2504187.3018999994}},{"attributes":{"OBJECTID":20866,"LANDMARKID":"6400000001021","LANDMARKCO":"405","LANDMARKNA":"中油加油站-三越站","LANDMARKAD":"6400005","ADDRESS":"高雄市三民區九如一路82號","TEL":"07-3802692","COUNTYNAME":"高雄市","TOWNNAME":"三民區","MARKTYPE":"994","Class":"4"},"geometry":{"x":182360.84580000024,"y":2504220.6749000009}},{"attributes":{"OBJECTID":20867,"LANDMARKID":"6400000001022","LANDMARKCO":"405","LANDMARKNA":"中油加油站-天祥站","LANDMARKAD":"6400005","ADDRESS":"高雄市三民區天祥一路99號","TEL":"07-3472200","COUNTYNAME":"高雄市","TOWNNAME":"三民區","MARKTYPE":"994","Class":"4"},"geometry":{"x":180259.3228000002,"y":2507556.3182999995}},{"attributes":{"OBJECTID":20868,"LANDMARKID":"6400000001023","LANDMARKCO":"405","LANDMARKNA":"中油加油站-建國二路站(中油直營)","LANDMARKAD":"6400005","ADDRESS":"高雄市三民區建國二路66號","TEL":"07-2383484","COUNTYNAME":"高雄市","TOWNNAME":"三民區","MARKTYPE":"994","Class":"4"},"geometry":{"x":179151.13210000005,"y":2504340.5094000008}},{"attributes":{"OBJECTID":20869,"LANDMARKID":"6400000001024","LANDMARKCO":"405","LANDMARKNA":"中油加油站-大昌路站","LANDMARKAD":"6400005","ADDRESS":"高雄市三民區大昌二路299號","TEL":"07-3920291","COUNTYNAME":"高雄市","TOWNNAME":"三民區","MARKTYPE":"994","Class":"4"},"geometry":{"x":181316.28129999992,"y":2505369.9219000004}},{"attributes":{"OBJECTID":20870,"LANDMARKID":"6400000001025","LANDMARKCO":"405","LANDMARKNA":"中油加油站-山東街站(中油直營)","LANDMARKAD":"6400005","ADDRESS":"高雄市三民區山東街70號","TEL":"07-3118164","COUNTYNAME":"高雄市","TOWNNAME":"三民區","MARKTYPE":"994","Class":"4"},"geometry":{"x":179241.69560000021,"y":2504863.7913000006}},{"attributes":{"OBJECTID":20871,"LANDMARKID":"6400000001026","LANDMARKCO":"405","LANDMARKNA":"中油加油站-博愛站","LANDMARKAD":"6400005","ADDRESS":"高雄市三民區博愛一路335號","TEL":"07-3229254","COUNTYNAME":"高雄市","TOWNNAME":"三民區","MARKTYPE":"994","Class":"4"},"geometry":{"x":178370.55649999995,"y":2505693.5438999999}},{"attributes":{"OBJECTID":20872,"LANDMARKID":"6400000001027","LANDMARKCO":"405","LANDMARKNA":"中油加油站-自由站","LANDMARKAD":"6400005","ADDRESS":"高雄市三民區自由一路231號","TEL":"07-3863111","COUNTYNAME":"高雄市","TOWNNAME":"三民區","MARKTYPE":"994","Class":"4"},"geometry":{"x":178942.1074000001,"y":2505906.5380000006}},{"attributes":{"OBJECTID":20873,"LANDMARKID":"6400000001028","LANDMARKCO":"405","LANDMARKNA":"中油加油站-建工路站(刷卡自助)(中油直營)","LANDMARKAD":"6400005","ADDRESS":"高雄市三民區建工路566號","TEL":"07-3832928","COUNTYNAME":"高雄市","TOWNNAME":"三民區","MARKTYPE":"994","Class":"4"},"geometry":{"x":180593.17449999973,"y":2505720.5348000005}},{"attributes":{"OBJECTID":20874,"LANDMARKID":"6400000001029","LANDMARKCO":"405","LANDMARKNA":"中油加油站-三民站","LANDMARKAD":"6400005","ADDRESS":"高雄市三民區九如一路878號","TEL":"07-3893816","COUNTYNAME":"高雄市","TOWNNAME":"三民區","MARKTYPE":"994","Class":"4"},"geometry":{"x":179926.29119999986,"y":2504615.1153999995}},{"attributes":{"OBJECTID":20875,"LANDMARKID":"6400000001030","LANDMARKCO":"405","LANDMARKNA":"中油加油站-鼎山路站(中油直營)","LANDMARKAD":"6400005","ADDRESS":"高雄市三民區鼎山街373號","TEL":"07-3839681","COUNTYNAME":"高雄市","TOWNNAME":"三民區","MARKTYPE":"994","Class":"4"},"geometry":{"x":180305.72470000014,"y":2506501.5351999998}},{"attributes":{"OBJECTID":20876,"LANDMARKID":"6400000001031","LANDMARKCO":"405","LANDMARKNA":"中油加油站-金獅站","LANDMARKAD":"6400005","ADDRESS":"高雄市三民區鼎力路36號","TEL":"07-3508152","COUNTYNAME":"高雄市","TOWNNAME":"三民區","MARKTYPE":"994","Class":"4"},"geometry":{"x":180311.63200000022,"y":2507088.6785000004}},{"attributes":{"OBJECTID":20877,"LANDMARKID":"6400000001032","LANDMARKCO":"405","LANDMARKNA":"中油加油站-民族站","LANDMARKAD":"6400005","ADDRESS":"高雄市三民區民族一路418號","TEL":"07-3850731","COUNTYNAME":"高雄市","TOWNNAME":"三民區","MARKTYPE":"994","Class":"4"},"geometry":{"x":179660.40969999973,"y":2506064.2060000002}},{"attributes":{"OBJECTID":20878,"LANDMARKID":"6400000001033","LANDMARKCO":"405","LANDMARKNA":"中油加油站-覺民路站(中油直營)","LANDMARKAD":"6400005","ADDRESS":"高雄市三民區覺民路362號","TEL":"07-3869992","COUNTYNAME":"高雄市","TOWNNAME":"三民區","MARKTYPE":"994","Class":"4"},"geometry":{"x":181551.8021999998,"y":2504651.4898000006}},{"attributes":{"OBJECTID":20879,"LANDMARKID":"6400000001034","LANDMARKCO":"405","LANDMARKNA":"統一速邁樂加油站-自立加油站(中油)","LANDMARKAD":"6400005","ADDRESS":"高雄市自立一路333號","TEL":" ","COUNTYNAME":"高雄市","TOWNNAME":"三民區","MARKTYPE":"994","Class":"4"},"geometry":{"x":177672.18699999992,"y":2505144.2965999991}},{"attributes":{"OBJECTID":20880,"LANDMARKID":"6400000000843","LANDMARKCO":"402","LANDMARKNA":"My Phone台灣大哥大-高雄明誠直營服務中心","LANDMARKAD":"6400005","ADDRESS":"高雄市三民區河堤路288號","TEL":"0809-000-166","COUNTYNAME":"高雄市","TOWNNAME":"三民區","MARKTYPE":"994","Class":"4"},"geometry":{"x":179293.78199999966,"y":2506877.4253000002}},{"attributes":{"OBJECTID":20881,"LANDMARKID":"6400000000844","LANDMARKCO":"402","LANDMARKNA":"My Phone台灣大哥大-高雄自由直營服務中心","LANDMARKAD":"6400005","ADDRESS":"高雄市三民區德智里自由一路123號","TEL":" ","COUNTYNAME":"高雄市","TOWNNAME":"三民區","MARKTYPE":"994","Class":"4"},"geometry":{"x":178931.67489999998,"y":2505055.1106000002}},{"attributes":{"OBJECTID":20882,"LANDMARKID":"6400000000845","LANDMARKCO":"402","LANDMARKNA":"My Phone台灣大哥大-高雄覺民直營服務中心","LANDMARKAD":"6400005","ADDRESS":"高雄市三民區覺民路197號","TEL":"0809-000-166","COUNTYNAME":"高雄市","TOWNNAME":"三民區","MARKTYPE":"994","Class":"4"},"geometry":{"x":182163.80719999969,"y":2504491.5176999997}},{"attributes":{"OBJECTID":20883,"LANDMARKID":"6400000000846","LANDMARKCO":"402","LANDMARKNA":"亞太行動寬頻電信-高雄博愛加盟服務中心","LANDMARKAD":"6400005","ADDRESS":"高雄市三民區博愛一路145號","TEL":"07-3232233","COUNTYNAME":"高雄市","TOWNNAME":"三民區","MARKTYPE":"994","Class":"4"},"geometry":{"x":178334.5932,"y":2505168.3232000005}},{"attributes":{"OBJECTID":20884,"LANDMARKID":"6400000000847","LANDMARKCO":"402","LANDMARKNA":"亞太行動寬頻電信-高雄覺民加盟服務中心","LANDMARKAD":"6400005","ADDRESS":"高雄市三民區覺民路224號","TEL":"07-3838669","COUNTYNAME":"高雄市","TOWNNAME":"三民區","MARKTYPE":"994","Class":"4"},"geometry":{"x":182095.55989999976,"y":2504547.2149}},{"attributes":{"OBJECTID":20885,"LANDMARKID":"6400000000848","LANDMARKCO":"402","LANDMARKNA":"亞太行動寬頻電信-三民建工加盟服務中心","LANDMARKAD":"6400005","ADDRESS":"高雄市三民區建工路496號","TEL":"07-3987227","COUNTYNAME":"高雄市","TOWNNAME":"三民區","MARKTYPE":"994","Class":"4"},"geometry":{"x":180784.38480000012,"y":2505820.7216999996}},{"attributes":{"OBJECTID":20886,"LANDMARKID":"6400000000849","LANDMARKCO":"402","LANDMARKNA":"亞太行動寬頻電信-三民天祥加盟服務中心","LANDMARKAD":"6400005","ADDRESS":"高雄市三民區天祥一路207號","TEL":"07-3596659","COUNTYNAME":"高雄市","TOWNNAME":"三民區","MARKTYPE":"994","Class":"4"},"geometry":{"x":179892.42989999987,"y":2507658.5295000002}},{"attributes":{"OBJECTID":20887,"LANDMARKID":"6400000000850","LANDMARKCO":"402","LANDMARKNA":"亞太行動寬頻電信-高雄十全加盟服務中心","LANDMARKAD":"6400005","ADDRESS":"高雄市三民區十全一路72號","TEL":"07-3222698","COUNTYNAME":"高雄市","TOWNNAME":"三民區","MARKTYPE":"994","Class":"4"},"geometry":{"x":179282.67530000024,"y":2505146.4066000003}},{"attributes":{"OBJECTID":20888,"LANDMARKID":"6400000000851","LANDMARKCO":"402","LANDMARKNA":"亞太行動寬頻電信-高雄鼎山加盟服務中心","LANDMARKAD":"6400005","ADDRESS":"高雄市三民區鼎山街209號","TEL":"07-3598388","COUNTYNAME":"高雄市","TOWNNAME":"三民區","MARKTYPE":"994","Class":"4"},"geometry":{"x":180356.78270000033,"y":2506876.0590000004}},{"attributes":{"OBJECTID":20889,"LANDMARKID":"6400000000852","LANDMARKCO":"402","LANDMARKNA":"亞太行動寬頻電信-三民大昌二加盟服務中心","LANDMARKAD":"6400005","ADDRESS":"高雄市三民區大昌二路34號","TEL":"07-3814039","COUNTYNAME":"高雄市","TOWNNAME":"三民區","MARKTYPE":"994","Class":"4"},"geometry":{"x":181372.1668999996,"y":2504755.9645000007}},{"attributes":{"OBJECTID":20890,"LANDMARKID":"6400000000853","LANDMARKCO":"402","LANDMARKNA":"亞太行動寬頻電信-高雄九如加盟服務中心","LANDMARKAD":"6400005","ADDRESS":"高雄市三民區九如二路583號","TEL":"07-3131000","COUNTYNAME":"高雄市","TOWNNAME":"三民區","MARKTYPE":"994","Class":"4"},"geometry":{"x":177675.80190000031,"y":2504761.1514999997}},{"attributes":{"OBJECTID":20891,"LANDMARKID":"6400000000854","LANDMARKCO":"402","LANDMARKNA":"亞太行動寬頻電信-三民大昌加盟服務中心","LANDMARKAD":"6400005","ADDRESS":"高雄市三民區大昌一路2-1號","TEL":"07-3961008","COUNTYNAME":"高雄市","TOWNNAME":"三民區","MARKTYPE":"994","Class":"4"},"geometry":{"x":181034.6512000002,"y":2505982.5599000007}},{"attributes":{"OBJECTID":20892,"LANDMARKID":"6400000000765","LANDMARKCO":"401","LANDMARKNA":"聖和中醫醫院","LANDMARKAD":"6400005","ADDRESS":"高雄市三民區建國三路367號","TEL":"07-2862121","COUNTYNAME":"高雄市","TOWNNAME":"三民區","MARKTYPE":"994","Class":"4"},"geometry":{"x":177358.65809999965,"y":2504234.7897999994}},{"attributes":{"OBJECTID":20893,"LANDMARKID":"6400000000766","LANDMARKCO":"401","LANDMARKNA":"健生醫院","LANDMARKAD":"6400005","ADDRESS":"高雄市三民區九如二路68號","TEL":"07-3117877","COUNTYNAME":"高雄市","TOWNNAME":"三民區","MARKTYPE":"994","Class":"4"},"geometry":{"x":179260.02749999985,"y":2504671.3117999993}},{"attributes":{"OBJECTID":20894,"LANDMARKID":"6400000000767","LANDMARKCO":"401","LANDMARKNA":"高雄醫學院附設中和紀念醫院","LANDMARKAD":"6400005","ADDRESS":"高雄市三民區十全一路100號","TEL":"07-3121101","COUNTYNAME":"高雄市","TOWNNAME":"三民區","MARKTYPE":"994","Class":"4"},"geometry":{"x":179081.61840000004,"y":2505159.8000000007}},{"attributes":{"OBJECTID":20895,"LANDMARKID":"6400000000768","LANDMARKCO":"401","LANDMARKNA":"文雄醫院","LANDMARKAD":"6400005","ADDRESS":"高雄市三民區察哈爾二街132號","TEL":"07-3165275","COUNTYNAME":"高雄市","TOWNNAME":"三民區","MARKTYPE":"994","Class":"4"},"geometry":{"x":177984.57349999994,"y":2505481.0181000009}},{"attributes":{"OBJECTID":20896,"LANDMARKID":"6400000000769","LANDMARKCO":"401","LANDMARKNA":"宏明醫院","LANDMARKAD":"6400005","ADDRESS":"高雄市三民區建國三路415號","TEL":"07-2722451","COUNTYNAME":"高雄市","TOWNNAME":"三民區","MARKTYPE":"994","Class":"4"},"geometry":{"x":177184.92769999988,"y":2504179.3284000009}},{"attributes":{"OBJECTID":20897,"LANDMARKID":"6400000000770","LANDMARKCO":"401","LANDMARKNA":"新高鳳醫院","LANDMARKAD":"6400005","ADDRESS":"高雄市三民區莊敬路288號","TEL":"07-3828814","COUNTYNAME":"高雄市","TOWNNAME":"三民區","MARKTYPE":"994","Class":"4"},"geometry":{"x":179932.99990000017,"y":2505688.7540000007}},{"attributes":{"OBJECTID":20898,"LANDMARKID":"6400000000771","LANDMARKCO":"401","LANDMARKNA":"謝外科醫院","LANDMARKAD":"6400005","ADDRESS":"高雄市三民區河北一路330號","TEL":"07-2360121","COUNTYNAME":"高雄市","TOWNNAME":"三民區","MARKTYPE":"994","Class":"4"},"geometry":{"x":178376.62170000002,"y":2504238.1997999996}},{"attributes":{"OBJECTID":20899,"LANDMARKID":"6400000000772","LANDMARKCO":"401","LANDMARKNA":"南山醫院","LANDMARKAD":"6400005","ADDRESS":"高雄市三民區建國三路151號","TEL":"07-2882101","COUNTYNAME":"高雄市","TOWNNAME":"三民區","MARKTYPE":"994","Class":"4"},"geometry":{"x":177881.19639999978,"y":2504330.5580000002}},{"attributes":{"OBJECTID":20900,"LANDMARKID":"6400000000773","LANDMARKCO":"401","LANDMARKNA":"民族醫院","LANDMARKAD":"6400005","ADDRESS":"高雄市三民區民族一路880號","TEL":"07-3462802","COUNTYNAME":"高雄市","TOWNNAME":"三民區","MARKTYPE":"994","Class":"4"},"geometry":{"x":179860.04000000004,"y":2507743.3808999993}},{"attributes":{"OBJECTID":20901,"LANDMARKID":"6400000000774","LANDMARKCO":"401","LANDMARKNA":"德謙醫院","LANDMARKAD":"6400005","ADDRESS":"高雄市三民區九如二路18號","TEL":"07-3210981","COUNTYNAME":"高雄市","TOWNNAME":"三民區","MARKTYPE":"994","Class":"4"},"geometry":{"x":179408.09090000018,"y":2504657.9989}},{"attributes":{"OBJECTID":20902,"LANDMARKID":"6400000000775","LANDMARKCO":"401","LANDMARKNA":"愛仁醫院","LANDMARKAD":"6400005","ADDRESS":"高雄市三民區民族一路51號","TEL":"07-3115159","COUNTYNAME":"高雄市","TOWNNAME":"三民區","MARKTYPE":"994","Class":"4"},"geometry":{"x":179474.92300000042,"y":2504785.3005999997}},{"attributes":{"OBJECTID":20903,"LANDMARKID":"6400000000776","LANDMARKCO":"401","LANDMARKNA":"祐生醫院","LANDMARKAD":"6400005","ADDRESS":"高雄市三民區建國三路60號","TEL":"07-2866688","COUNTYNAME":"高雄市","TOWNNAME":"三民區","MARKTYPE":"994","Class":"4"},"geometry":{"x":177649.01449999958,"y":2504369.8125999998}},{"attributes":{"OBJECTID":20904,"LANDMARKID":"6400000000777","LANDMARKCO":"401","LANDMARKNA":"全民醫院","LANDMARKAD":"6400005","ADDRESS":"高雄市三民區九如二路505號","TEL":"07-3220066","COUNTYNAME":"高雄市","TOWNNAME":"三民區","MARKTYPE":"994","Class":"4"},"geometry":{"x":177907.71339999977,"y":2504740.6763000004}},{"attributes":{"OBJECTID":20905,"LANDMARKID":"6400000000778","LANDMARKCO":"401","LANDMARKNA":"四季台安醫院","LANDMARKAD":"6400005","ADDRESS":"高雄市三民區聯興路157號","TEL":"07-3983000","COUNTYNAME":"高雄市","TOWNNAME":"三民區","MARKTYPE":"994","Class":"4"},"geometry":{"x":179481.57720000017,"y":2506737.9947999995}},{"attributes":{"OBJECTID":20906,"LANDMARKID":"6400000001078","LANDMARKCO":"408","LANDMARKNA":"郵局-高雄站前郵局","LANDMARKAD":"6400005","ADDRESS":"高雄市三民區建國三路2-2號","TEL":"(07)2867-211","COUNTYNAME":"高雄市","TOWNNAME":"三民區","MARKTYPE":"994","Class":"4"},"geometry":{"x":178171.98469999991,"y":2504469.5771999992}},{"attributes":{"OBJECTID":20907,"LANDMARKID":"6400000001079","LANDMARKCO":"408","LANDMARKNA":"郵局-高雄德智郵局","LANDMARKAD":"6400005","ADDRESS":"高雄市三民區熱河一街84號","TEL":"(07)3117-501","COUNTYNAME":"高雄市","TOWNNAME":"三民區","MARKTYPE":"994","Class":"4"},"geometry":{"x":179199.03990000021,"y":2504976.0296999998}},{"attributes":{"OBJECTID":20908,"LANDMARKID":"6400000001080","LANDMARKCO":"408","LANDMARKNA":"郵局-高雄三塊厝郵局","LANDMARKAD":"6400005","ADDRESS":"高雄市三民區中華三路270號","TEL":"(07)2865-203","COUNTYNAME":"高雄市","TOWNNAME":"三民區","MARKTYPE":"994","Class":"4"},"geometry":{"x":177401.77680000011,"y":2504113.0078999996}},{"attributes":{"OBJECTID":20909,"LANDMARKID":"6400000001081","LANDMARKCO":"408","LANDMARKNA":"郵局-高雄九如二路郵局","LANDMARKAD":"6400005","ADDRESS":"高雄市三民區九如二路661號","TEL":"(07)3220-780","COUNTYNAME":"高雄市","TOWNNAME":"三民區","MARKTYPE":"994","Class":"4"},"geometry":{"x":177413.56379999965,"y":2504773.0501000006}},{"attributes":{"OBJECTID":20910,"LANDMARKID":"6400000001082","LANDMARKCO":"408","LANDMARKNA":"郵局-高雄民族社區郵局","LANDMARKAD":"6400005","ADDRESS":"高雄市三民區九如一路952號","TEL":"(07)3822-625","COUNTYNAME":"高雄市","TOWNNAME":"三民區","MARKTYPE":"994","Class":"4"},"geometry":{"x":179760.23950000014,"y":2504625.3044000007}},{"attributes":{"OBJECTID":20911,"LANDMARKID":"6400000001083","LANDMARKCO":"408","LANDMARKNA":"郵局-高雄站後郵局","LANDMARKAD":"6400005","ADDRESS":"高雄市三民區博愛一路28號","TEL":"(07)3114-521","COUNTYNAME":"高雄市","TOWNNAME":"三民區","MARKTYPE":"994","Class":"4"},"geometry":{"x":178377.81919999979,"y":2504811.1953999996}},{"attributes":{"OBJECTID":20912,"LANDMARKID":"6400000001084","LANDMARKCO":"408","LANDMARKNA":"郵局-高雄大順郵局","LANDMARKAD":"6400005","ADDRESS":"高雄市三民區大順二路207號","TEL":"(07)3847-163","COUNTYNAME":"高雄市","TOWNNAME":"三民區","MARKTYPE":"994","Class":"4"},"geometry":{"x":180749.06489999965,"y":2504968.5840000007}},{"attributes":{"OBJECTID":20913,"LANDMARKID":"6400000001085","LANDMARKCO":"408","LANDMARKNA":"郵局-高雄建工郵局","LANDMARKAD":"6400005","ADDRESS":"高雄市三民區大昌二路517號","TEL":"(07)3835-089","COUNTYNAME":"高雄市","TOWNNAME":"三民區","MARKTYPE":"994","Class":"4"},"geometry":{"x":181176.4029000001,"y":2505816.2020999994}},{"attributes":{"OBJECTID":20914,"LANDMARKID":"6400000001086","LANDMARKCO":"408","LANDMARKNA":"郵局-高雄博愛路郵局","LANDMARKAD":"6400005","ADDRESS":"高雄市三民區博愛一路372號1樓","TEL":"(07)3225-576","COUNTYNAME":"高雄市","TOWNNAME":"三民區","MARKTYPE":"994","Class":"4"},"geometry":{"x":178465.49370000046,"y":2505803.5856999997}},{"attributes":{"OBJECTID":20915,"LANDMARKID":"6400000001087","LANDMARKCO":"408","LANDMARKNA":"郵局-高雄鼎泰郵局","LANDMARKAD":"6400005","ADDRESS":"高雄市三民區民族一路519號","TEL":"(07)3425-127","COUNTYNAME":"高雄市","TOWNNAME":"三民區","MARKTYPE":"994","Class":"4"},"geometry":{"x":179675.41820000019,"y":2507046.8632999994}},{"attributes":{"OBJECTID":20916,"LANDMARKID":"6400000001088","LANDMARKCO":"408","LANDMARKNA":"郵局-高雄民壯郵局","LANDMARKAD":"6400005","ADDRESS":"高雄市三民區民壯路16號","TEL":"(07)3861-194","COUNTYNAME":"高雄市","TOWNNAME":"三民區","MARKTYPE":"994","Class":"4"},"geometry":{"x":182245.98300000001,"y":2504451.8852999993}},{"attributes":{"OBJECTID":20917,"LANDMARKID":"6400000001089","LANDMARKCO":"408","LANDMARKNA":"郵局-高雄義民郵局","LANDMARKAD":"6400005","ADDRESS":"高雄市三民區大豐二路203號","TEL":"(07)3868-148","COUNTYNAME":"高雄市","TOWNNAME":"三民區","MARKTYPE":"994","Class":"4"},"geometry":{"x":181143.22690000013,"y":2505240.0649999995}},{"attributes":{"OBJECTID":20918,"LANDMARKID":"6400000001090","LANDMARKCO":"408","LANDMARKNA":"郵局-高雄醫學大學郵局","LANDMARKAD":"6400005","ADDRESS":"高雄市三民區十全一路100號(高雄醫學大學內)","TEL":"(07)3217-467","COUNTYNAME":"高雄市","TOWNNAME":"三民區","MARKTYPE":"994","Class":"4"},"geometry":{"x":179081.61840000004,"y":2505159.8035000004}},{"attributes":{"OBJECTID":20919,"LANDMARKID":"6400000001091","LANDMARKCO":"408","LANDMARKNA":"郵局-高雄鼎金郵局","LANDMARKAD":"6400005","ADDRESS":"高雄市三民區鼎強街264號","TEL":"(07)3474-504","COUNTYNAME":"高雄市","TOWNNAME":"三民區","MARKTYPE":"994","Class":"4"},"geometry":{"x":180332.22360000014,"y":2507703.2355000004}},{"attributes":{"OBJECTID":20920,"LANDMARKID":"6400000001092","LANDMARKCO":"408","LANDMARKNA":"郵局-高雄本揚郵局","LANDMARKAD":"6400005","ADDRESS":"高雄市三民區澄和路65號","TEL":"(07)3899-124","COUNTYNAME":"高雄市","TOWNNAME":"三民區","MARKTYPE":"994","Class":"4"},"geometry":{"x":182636.68329999968,"y":2505052.0789999999}},{"attributes":{"OBJECTID":20921,"LANDMARKID":"6400000001093","LANDMARKCO":"408","LANDMARKNA":"郵局-高雄中都郵局","LANDMARKAD":"6400005","ADDRESS":"高雄市三民區力行路89號","TEL":"(07)3211-086","COUNTYNAME":"高雄市","TOWNNAME":"三民區","MARKTYPE":"994","Class":"4"},"geometry":{"x":176865.74930000026,"y":2504427.1763000004}},{"attributes":{"OBJECTID":20922,"LANDMARKID":"6400000001094","LANDMARKCO":"408","LANDMARKNA":"郵局-高雄灣仔內郵局","LANDMARKAD":"6400005","ADDRESS":"高雄市三民區建工路679號","TEL":"(07)3862-656","COUNTYNAME":"高雄市","TOWNNAME":"三民區","MARKTYPE":"994","Class":"4"},"geometry":{"x":179820.29339999985,"y":2505438.0416999999}},{"attributes":{"OBJECTID":20923,"LANDMARKID":"6400000001095","LANDMARKCO":"408","LANDMARKNA":"郵局-高雄大昌郵局","LANDMARKAD":"6400005","ADDRESS":"高雄市三民區大昌一路258號","TEL":"(07)3898-502","COUNTYNAME":"高雄市","TOWNNAME":"三民區","MARKTYPE":"994","Class":"4"},"geometry":{"x":180320.4216,"y":2506456.2577}},{"attributes":{"OBJECTID":20924,"LANDMARKID":"6400000001173","LANDMARKCO":"409","LANDMARKNA":"高雄市農會","LANDMARKAD":"6400005","ADDRESS":"高雄市三民區民族一路77號","TEL":"07-3119151","COUNTYNAME":"高雄市","TOWNNAME":"三民區","MARKTYPE":"994","Class":"4"},"geometry":{"x":179483.57770000026,"y":2504878.4087000005}},{"attributes":{"OBJECTID":20925,"LANDMARKID":"6400000000924","LANDMARKCO":"404","LANDMARKNA":"台灣自來水南區第一工務所","LANDMARKAD":"6400005","ADDRESS":"高雄市正義路339號","TEL":"07-3874896","COUNTYNAME":"高雄市","TOWNNAME":"三民區","MARKTYPE":"994","Class":"4"},"geometry":{"x":182468.35840000026,"y":2504124.9515000004}},{"attributes":{"OBJECTID":20926,"LANDMARKID":"6400000001037","LANDMARKCO":"406","LANDMARKNA":"獅山公園","LANDMARKAD":"6400005","ADDRESS":"高雄市三民區","TEL":" ","COUNTYNAME":"高雄市","TOWNNAME":"三民區","MARKTYPE":"994","Class":"4"},"geometry":{"x":180782.51840000041,"y":2507550.2495000008}},{"attributes":{"OBJECTID":20927,"LANDMARKID":"6400000001064","LANDMARKCO":"407","LANDMARKNA":"小北百貨","LANDMARKAD":"6400005","ADDRESS":"高雄市三民區林森一路286號","TEL":"07-2351609","COUNTYNAME":"高雄市","TOWNNAME":"三民區","MARKTYPE":"994","Class":"4"},"geometry":{"x":178592.52539999969,"y":2504233.5826999992}},{"attributes":{"OBJECTID":20928,"LANDMARKID":"6400000001065","LANDMARKCO":"407","LANDMARKNA":"小北百貨","LANDMARKAD":"6400005","ADDRESS":"高雄市三民區自立一路408號","TEL":"07-3236769","COUNTYNAME":"高雄市","TOWNNAME":"三民區","MARKTYPE":"994","Class":"4"},"geometry":{"x":177732.83779999986,"y":2505389.6919999998}},{"attributes":{"OBJECTID":20929,"LANDMARKID":"6400000001066","LANDMARKCO":"407","LANDMARKNA":"小北百貨","LANDMARKAD":"6400005","ADDRESS":"高雄市三民區建國三路535號1樓","TEL":"07-2829556","COUNTYNAME":"高雄市","TOWNNAME":"三民區","MARKTYPE":"994","Class":"4"},"geometry":{"x":176803.90589999966,"y":2504034.3874999993}},{"attributes":{"OBJECTID":20930,"LANDMARKID":"6400000001067","LANDMARKCO":"407","LANDMARKNA":"小北百貨","LANDMARKAD":"6400005","ADDRESS":"高雄市三民區九如一路283號","TEL":"07-3849986","COUNTYNAME":"高雄市","TOWNNAME":"三民區","MARKTYPE":"994","Class":"4"},"geometry":{"x":181652.66449999996,"y":2504316.0493999999}},{"attributes":{"OBJECTID":20931,"LANDMARKID":"6400000001068","LANDMARKCO":"407","LANDMARKNA":"小北百貨","LANDMARKAD":"6400005","ADDRESS":"高雄市三民區金鼎路339號","TEL":"07-3107511","COUNTYNAME":"高雄市","TOWNNAME":"三民區","MARKTYPE":"994","Class":"4"},"geometry":{"x":180091.95139999967,"y":2507331.6443000007}},{"attributes":{"OBJECTID":20932,"LANDMARKID":"6400000001069","LANDMARKCO":"407","LANDMARKNA":"誠品Eslite","LANDMARKAD":"6400005","ADDRESS":"高雄市三民區民族一路427號2F","TEL":"07-386-0058","COUNTYNAME":"高雄市","TOWNNAME":"三民區","MARKTYPE":"994","Class":"4"},"geometry":{"x":179506.93800000008,"y":2506359.3500999995}},{"attributes":{"OBJECTID":20933,"LANDMARKID":"6400000001070","LANDMARKCO":"407","LANDMARKNA":"誠品Eslite","LANDMARKAD":"6400005","ADDRESS":"高雄市三民區十全一路100號B1","TEL":"07-312-8188","COUNTYNAME":"高雄市","TOWNNAME":"三民區","MARKTYPE":"994","Class":"4"},"geometry":{"x":179082.01140000019,"y":2505159.3052999992}},{"attributes":{"OBJECTID":20934,"LANDMARKID":"6400000001071","LANDMARKCO":"407","LANDMARKNA":"大統新世紀","LANDMARKAD":"6400005","ADDRESS":"高雄市三民區民族一路427號","TEL":"07-9555888","COUNTYNAME":"高雄市","TOWNNAME":"三民區","MARKTYPE":"994","Class":"4"},"geometry":{"x":179506.93800000008,"y":2506359.3500999995}},{"attributes":{"OBJECTID":20935,"LANDMARKID":"6400000000983","LANDMARKCO":"405","LANDMARKNA":"台亞加油站-祥盟站（台塑）","LANDMARKAD":"6400005","ADDRESS":"高雄市民族一路357號","TEL":"(07)384-9805","COUNTYNAME":"高雄市","TOWNNAME":"三民區","MARKTYPE":"994","Class":"4"},"geometry":{"x":179602.27589999977,"y":2506189.6837000009}},{"attributes":{"OBJECTID":20936,"LANDMARKID":"6400000000984","LANDMARKCO":"405","LANDMARKNA":"全國加油站-九如交流道站（台塑）","LANDMARKAD":"6400005","ADDRESS":"高雄市三民區九如一路469號","TEL":"07-3871291","COUNTYNAME":"高雄市","TOWNNAME":"三民區","MARKTYPE":"994","Class":"4"},"geometry":{"x":181059.02460000012,"y":2504435.0581}},{"attributes":{"OBJECTID":20937,"LANDMARKID":"6400000000985","LANDMARKCO":"405","LANDMARKNA":"台塑加油站-日泉站(台塑)","LANDMARKAD":"6400005","ADDRESS":"高雄市三民區大順二路242號","TEL":"07-3870856","COUNTYNAME":"高雄市","TOWNNAME":"三民區","MARKTYPE":"994","Class":"4"},"geometry":{"x":180793.30159999989,"y":2505011.1511000004}},{"attributes":{"OBJECTID":20938,"LANDMARKID":"6400000000986","LANDMARKCO":"405","LANDMARKNA":"台塑加油站-金獅湖站(台塑)","LANDMARKAD":"6400005","ADDRESS":"高雄市三民區鼎力路410號","TEL":"07-3425279","COUNTYNAME":"高雄市","TOWNNAME":"三民區","MARKTYPE":"994","Class":"4"},"geometry":{"x":180747.65139999986,"y":2507859.9357999992}},{"attributes":{"OBJECTID":20939,"LANDMARKID":"6400000000987","LANDMARKCO":"405","LANDMARKNA":"全國加油站-北高站（台塑）","LANDMARKAD":"6400005","ADDRESS":"高雄市三民區熱河二街338號","TEL":"07-3128969","COUNTYNAME":"高雄市","TOWNNAME":"三民區","MARKTYPE":"994","Class":"4"},"geometry":{"x":177278.81070000026,"y":2505138.7940999996}},{"attributes":{"OBJECTID":20940,"LANDMARKID":"6400000000988","LANDMARKCO":"405","LANDMARKNA":"台亞加油站-華盟站（台塑）","LANDMARKAD":"6400005","ADDRESS":"高雄市三民區中華二路372號","TEL":"(07)315-6000","COUNTYNAME":"高雄市","TOWNNAME":"三民區","MARKTYPE":"994","Class":"4"},"geometry":{"x":177265.75119999982,"y":2505585.7335999999}},{"attributes":{"OBJECTID":20941,"LANDMARKID":"6400000000989","LANDMARKCO":"405","LANDMARKNA":"台亞加油站-大自由站（台塑）","LANDMARKAD":"6400005","ADDRESS":"高雄市三民區自由一路276號","TEL":"(07)394-5493","COUNTYNAME":"高雄市","TOWNNAME":"三民區","MARKTYPE":"994","Class":"4"},"geometry":{"x":178963.94259999972,"y":2506088.6394999996}},{"attributes":{"OBJECTID":20942,"LANDMARKID":"6400000000990","LANDMARKCO":"405","LANDMARKNA":"福懋加油站-大順站(台塑)","LANDMARKAD":"6400005","ADDRESS":"高雄市三民區大順二路808號","TEL":"07-3837879","COUNTYNAME":"高雄市","TOWNNAME":"三民區","MARKTYPE":"994","Class":"4"},"geometry":{"x":179821.57519999985,"y":2506234.7704000007}},{"attributes":{"OBJECTID":20943,"LANDMARKID":"6400000000175","LANDMARKCO":"107","LANDMARKNA":"高雄市政府警察局鼎金派出所","LANDMARKAD":"6400005","ADDRESS":"高雄市三民區鼎力路125號","TEL":"07-3426730","COUNTYNAME":"高雄市","TOWNNAME":"三民區","MARKTYPE":"991","Class":"1"},"geometry":{"x":180178.5998999998,"y":2507620.5340999998}},{"attributes":{"OBJECTID":20944,"LANDMARKID":"6400000000176","LANDMARKCO":"107","LANDMARKNA":"高雄市消防局北區大隊","LANDMARKAD":"6400005","ADDRESS":"高雄市三民區天祥一路97號6F","TEL":"07-3106122","COUNTYNAME":"高雄市","TOWNNAME":"三民區","MARKTYPE":"991","Class":"1"},"geometry":{"x":180630.98929999955,"y":2505600.0362999998}},{"attributes":{"OBJECTID":20945,"LANDMARKID":"6400000000177","LANDMARKCO":"107","LANDMARKNA":"高雄市政府消防局鼎金分隊","LANDMARKAD":"6400005","ADDRESS":"高雄市三民區天祥一路97號","TEL":"07-3106120","COUNTYNAME":"高雄市","TOWNNAME":"三民區","MARKTYPE":"991","Class":"1"},"geometry":{"x":180174.69139999989,"y":2507600.5162000004}},{"attributes":{"OBJECTID":20946,"LANDMARKID":"6400000000083","LANDMARKCO":"103","LANDMARKNA":"高雄市三民區衛生所","LANDMARKAD":"6400005","ADDRESS":"高雄市三民區鼎山街660號","TEL":"07-3820492","COUNTYNAME":"高雄市","TOWNNAME":"三民區","MARKTYPE":"991","Class":"1"},"geometry":{"x":179730.28050000034,"y":2505671.6477000006}},{"attributes":{"OBJECTID":20947,"LANDMARKID":"6400000000222","LANDMARKCO":"108","LANDMARKNA":"高雄市三民區公所","LANDMARKAD":"6400005","ADDRESS":"高雄市三民區哈爾濱街215號4樓、5樓","TEL":"07-3228160","COUNTYNAME":"高雄市","TOWNNAME":"三民區","MARKTYPE":"991","Class":"1"},"geometry":{"x":178033.66189999972,"y":2505435.7525999993}},{"attributes":{"OBJECTID":20948,"LANDMARKID":"6400000000178","LANDMARKCO":"107","LANDMARKNA":"高雄市政府警察局三民一局","LANDMARKAD":"6400005","ADDRESS":"高雄市三民區民享里哈爾濱街118號","TEL":"07-3118675","COUNTYNAME":"高雄市","TOWNNAME":"三民區","MARKTYPE":"991","Class":"1"},"geometry":{"x":178038.38150000013,"y":2505072.7883000001}},{"attributes":{"OBJECTID":20949,"LANDMARKID":"6400000000179","LANDMARKCO":"107","LANDMARKNA":"高雄市政府警察局哈爾濱派出所","LANDMARKAD":"6400005","ADDRESS":"高雄市三民區安邦里哈爾濱街215號","TEL":"07-3110785","COUNTYNAME":"高雄市","TOWNNAME":"三民區","MARKTYPE":"991","Class":"1"},"geometry":{"x":178033.66189999972,"y":2505435.7525999993}},{"attributes":{"OBJECTID":20950,"LANDMARKID":"6400000000180","LANDMARKCO":"107","LANDMARKNA":"高雄市政府警察局十全路派出所","LANDMARKAD":"6400005","ADDRESS":"高雄市三民區安生里十全一路86號","TEL":"07-3115807","COUNTYNAME":"高雄市","TOWNNAME":"三民區","MARKTYPE":"991","Class":"1"},"geometry":{"x":179233.0800999999,"y":2505146.6806000005}},{"attributes":{"OBJECTID":20951,"LANDMARKID":"6400000000181","LANDMARKCO":"107","LANDMARKNA":"高雄市政府警察局三民派出所","LANDMARKAD":"6400005","ADDRESS":"高雄市三民區鳳北里建國三路188號","TEL":"07-2211460","COUNTYNAME":"高雄市","TOWNNAME":"三民區","MARKTYPE":"991","Class":"1"},"geometry":{"x":177295.88790000044,"y":2504261.9981999993}},{"attributes":{"OBJECTID":20952,"LANDMARKID":"6400000000182","LANDMARKCO":"107","LANDMARKNA":"高雄市政府警察局長明派出所","LANDMARKAD":"6400005","ADDRESS":"高雄市三民區長明里南華路253號","TEL":"07-2355098","COUNTYNAME":"高雄市","TOWNNAME":"三民區","MARKTYPE":"991","Class":"1"},"geometry":{"x":178415.48670000024,"y":2504370.6351999994}},{"attributes":{"OBJECTID":20953,"LANDMARKID":"6400000000183","LANDMARKCO":"107","LANDMARKNA":"高雄市政府警察局三民二局","LANDMARKAD":"6400005","ADDRESS":"高雄市三民區寶泰里覺民路366號","TEL":"07-3814093","COUNTYNAME":"高雄市","TOWNNAME":"三民區","MARKTYPE":"991","Class":"1"},"geometry":{"x":181522.58059999999,"y":2504666.4616}},{"attributes":{"OBJECTID":20954,"LANDMARKID":"6400000000184","LANDMARKCO":"107","LANDMARKNA":"高雄市政府警察局陽明派出所","LANDMARKAD":"6400005","ADDRESS":"高雄市三民區本上里義華路272號","TEL":"07-3922032","COUNTYNAME":"高雄市","TOWNNAME":"三民區","MARKTYPE":"991","Class":"1"},"geometry":{"x":181953.41760000028,"y":2504965.1018000003}},{"attributes":{"OBJECTID":20955,"LANDMARKID":"6400000000185","LANDMARKCO":"107","LANDMARKNA":"高雄市政府警察局民族路派出所","LANDMARKAD":"6400005","ADDRESS":"高雄市三民區灣中里民族一路208號","TEL":"07-3822653","COUNTYNAME":"高雄市","TOWNNAME":"三民區","MARKTYPE":"991","Class":"1"},"geometry":{"x":179607.39699999988,"y":2505493.0824999996}},{"attributes":{"OBJECTID":20956,"LANDMARKID":"6400000000186","LANDMARKCO":"107","LANDMARKNA":"高雄市政府警察局覺民派出所","LANDMARKAD":"6400005","ADDRESS":"高雄市三民區寶泰里覺民路366號","TEL":"07-3842108","COUNTYNAME":"高雄市","TOWNNAME":"三民區","MARKTYPE":"991","Class":"1"},"geometry":{"x":181522.58059999999,"y":2504666.4616}},{"attributes":{"OBJECTID":20957,"LANDMARKID":"6400000000187","LANDMARKCO":"107","LANDMARKNA":"高雄市消防局北區第二中隊","LANDMARKAD":"6400005","ADDRESS":"高雄市三民區大順二路468號","TEL":"07-396-3281","COUNTYNAME":"高雄市","TOWNNAME":"三民區","MARKTYPE":"991","Class":"1"},"geometry":{"x":180626.38370000012,"y":2505609.5154999997}},{"attributes":{"OBJECTID":20958,"LANDMARKID":"6400000000188","LANDMARKCO":"107","LANDMARKNA":"高雄市消防局十全消防分隊","LANDMARKAD":"6400005","ADDRESS":"高雄市三民區十全一路88號","TEL":"07-3117716","COUNTYNAME":"高雄市","TOWNNAME":"三民區","MARKTYPE":"991","Class":"1"},"geometry":{"x":179219.88179999962,"y":2505145.6195999999}},{"attributes":{"OBJECTID":20959,"LANDMARKID":"6400000000189","LANDMARKCO":"107","LANDMARKNA":"高雄市消防局大昌消防分隊","LANDMARKAD":"6400005","ADDRESS":"高雄市三民區大順二路468號","TEL":"07-3854955","COUNTYNAME":"高雄市","TOWNNAME":"三民區","MARKTYPE":"991","Class":"1"},"geometry":{"x":180626.38370000012,"y":2505609.5154999997}},{"attributes":{"OBJECTID":20960,"LANDMARKID":"6400000000111","LANDMARKCO":"105","LANDMARKNA":"高雄市三民地政事務所","LANDMARKAD":"6400005","ADDRESS":"高雄市三民區哈爾濱街215號3樓","TEL":"07-3226482","COUNTYNAME":"高雄市","TOWNNAME":"三民區","MARKTYPE":"991","Class":"1"},"geometry":{"x":178033.66189999972,"y":2505435.7525999993}},{"attributes":{"OBJECTID":20961,"LANDMARKID":"6400000000114","LANDMARKCO":"106","LANDMARKNA":"高雄市三民區第一戶政事務所","LANDMARKAD":"6400005","ADDRESS":"高雄市三民區哈爾濱街215號6樓","TEL":"07-3236171","COUNTYNAME":"高雄市","TOWNNAME":"三民區","MARKTYPE":"991","Class":"1"},"geometry":{"x":178033.66189999972,"y":2505435.7525999993}},{"attributes":{"OBJECTID":20962,"LANDMARKID":"6400000000093","LANDMARKCO":"104","LANDMARKNA":"高雄市國稅局三民稽徵所第一辦","LANDMARKAD":"6400005","ADDRESS":"高雄市三民區哈爾濱街215號7樓","TEL":"07-3228838","COUNTYNAME":"高雄市","TOWNNAME":"三民區","MARKTYPE":"991","Class":"1"},"geometry":{"x":178033.66189999972,"y":2505435.7525999993}},{"attributes":{"OBJECTID":20963,"LANDMARKID":"6400000000080","LANDMARKCO":"103","LANDMARKNA":"高雄市政府遊民收容所","LANDMARKAD":"6400005","ADDRESS":"高雄市三民區天祥二路31號","TEL":"07-3432263","COUNTYNAME":"高雄市","TOWNNAME":"三民區","MARKTYPE":"991","Class":"1"},"geometry":{"x":179677.45930000022,"y":2507724.3598999996}},{"attributes":{"OBJECTID":20964,"LANDMARKID":"6400000000081","LANDMARKCO":"103","LANDMARKNA":"高雄市政府勞工局博愛職業技能","LANDMARKAD":"6400005","ADDRESS":"高雄市三民區中華二路341巷27號","TEL":"07-3214033","COUNTYNAME":"高雄市","TOWNNAME":"三民區","MARKTYPE":"991","Class":"1"},"geometry":{"x":176968.46889999975,"y":2505253.7793000005}},{"attributes":{"OBJECTID":20965,"LANDMARKID":"6400000000198","LANDMARKCO":"107","LANDMARKNA":"高雄市政府警察局鼎山派出所","LANDMARKAD":"6400005","ADDRESS":"高雄市三民區本文里立忠路2號","TEL":"07-3907880","COUNTYNAME":"高雄市","TOWNNAME":"三民區","MARKTYPE":"991","Class":"1"},"geometry":{"x":180707.82959999982,"y":2506105.8721999992}},{"attributes":{"OBJECTID":20966,"LANDMARKID":"6400000000007","LANDMARKCO":"101","LANDMARKNA":"中央健康保險局高屏分局","LANDMARKAD":"6400005","ADDRESS":"高雄市三民區九如二路157號","TEL":"07-3233123","COUNTYNAME":"高雄市","TOWNNAME":"三民區","MARKTYPE":"991","Class":"1"},"geometry":{"x":179019.63019999955,"y":2504649.7791000009}},{"attributes":{"OBJECTID":20967,"LANDMARKID":"6400000000082","LANDMARKCO":"103","LANDMARKNA":"高雄市殯儀館","LANDMARKAD":"6400005","ADDRESS":"高雄市三民區本館路600巷20號","TEL":"07-3816316","COUNTYNAME":"高雄市","TOWNNAME":"三民區","MARKTYPE":"991","Class":"1"},"geometry":{"x":181552.48419999983,"y":2506910.8025000002}},{"attributes":{"OBJECTID":20968,"LANDMARKID":"6400000000423","LANDMARKCO":"205","LANDMARKNA":"高雄市客家文物館","LANDMARKAD":"6400005","ADDRESS":"高雄市三民區同盟二路215號","TEL":"07-3152136","COUNTYNAME":"高雄市","TOWNNAME":"三民區","MARKTYPE":"992","Class":"2"},"geometry":{"x":177619.91839999985,"y":2505751.2920999993}},{"attributes":{"OBJECTID":20969,"LANDMARKID":"6400000000424","LANDMARKCO":"205","LANDMARKNA":"國立科學工藝博物館","LANDMARKAD":"6400005","ADDRESS":"高雄市三民區九如一路720號","TEL":" ","COUNTYNAME":"高雄市","TOWNNAME":"三民區","MARKTYPE":"992","Class":"2"},"geometry":{"x":180360.6501000002,"y":2504573.9794999994}},{"attributes":{"OBJECTID":20970,"LANDMARKID":"6400000000407","LANDMARKCO":"204","LANDMARKNA":"高雄市立圖書館三民分館","LANDMARKAD":"6400005","ADDRESS":"高雄市三民區十全一路220號","TEL":" ","COUNTYNAME":"高雄市","TOWNNAME":"三民區","MARKTYPE":"992","Class":"2"},"geometry":{"x":178675.17100000009,"y":2505336.6859000009}},{"attributes":{"OBJECTID":20971,"LANDMARKID":"6400000000408","LANDMARKCO":"204","LANDMARKNA":"高雄市立圖書館寶珠分館","LANDMARKAD":"6400005","ADDRESS":"高雄市三民區大順二路468號4樓","TEL":" ","COUNTYNAME":"高雄市","TOWNNAME":"三民區","MARKTYPE":"992","Class":"2"},"geometry":{"x":180625.37789999973,"y":2505609.4528999999}},{"attributes":{"OBJECTID":20972,"LANDMARKID":"6400000000409","LANDMARKCO":"204","LANDMARKNA":"高雄市立圖書館陽明國宅社區圖書館","LANDMARKAD":"6400005","ADDRESS":"高雄市三民區陽明路300號3樓","TEL":" ","COUNTYNAME":"高雄市","TOWNNAME":"三民區","MARKTYPE":"992","Class":"2"},"geometry":{"x":182413.02749999985,"y":2504940.8867000006}},{"attributes":{"OBJECTID":20973,"LANDMARKID":"6400000000238","LANDMARKCO":"201","LANDMARKNA":"育英醫護管理專校","LANDMARKAD":"6400005","ADDRESS":"高雄市三民區大昌二路420巷15號","TEL":"07-3803420","COUNTYNAME":"高雄市","TOWNNAME":"三民區","MARKTYPE":"992","Class":"2"},"geometry":{"x":181309.78320000041,"y":2505730.5144999996}},{"attributes":{"OBJECTID":20974,"LANDMARKID":"6400000000239","LANDMARKCO":"201","LANDMARKNA":"育英醫護管理專科學校","LANDMARKAD":"6400005","ADDRESS":"高雄市三民區大昌二路420巷15號","TEL":"07-3811765","COUNTYNAME":"高雄市","TOWNNAME":"三民區","MARKTYPE":"992","Class":"2"},"geometry":{"x":181389.71580000035,"y":2505660.8794999998}},{"attributes":{"OBJECTID":20975,"LANDMARKID":"6400000000254","LANDMARKCO":"202","LANDMARKNA":"市立高雄中學","LANDMARKAD":"6400005","ADDRESS":"高雄市三民區建國三路50號","TEL":"07-2862550","COUNTYNAME":"高雄市","TOWNNAME":"三民區","MARKTYPE":"992","Class":"2"},"geometry":{"x":177850.00810000021,"y":2504370.4145}},{"attributes":{"OBJECTID":20976,"LANDMARKID":"6400000000368","LANDMARKCO":"203","LANDMARKNA":"市立三民國中","LANDMARKAD":"6400005","ADDRESS":"高雄市三民區十全一路200號","TEL":"07-3227751","COUNTYNAME":"高雄市","TOWNNAME":"三民區","MARKTYPE":"992","Class":"2"},"geometry":{"x":178846.87320000026,"y":2505321.0429999996}},{"attributes":{"OBJECTID":20977,"LANDMARKID":"6400000000369","LANDMARKCO":"203","LANDMARKNA":"市立博愛國小","LANDMARKAD":"6400005","ADDRESS":"高雄市三民區十全一路202號","TEL":"07-3110708","COUNTYNAME":"高雄市","TOWNNAME":"三民區","MARKTYPE":"992","Class":"2"},"geometry":{"x":178773.38590000011,"y":2505210.7008999996}},{"attributes":{"OBJECTID":20978,"LANDMARKID":"6400000000370","LANDMARKCO":"203","LANDMARKNA":"市立民族國小","LANDMARKAD":"6400005","ADDRESS":"高雄市三民區平等路197號","TEL":"07-3860526","COUNTYNAME":"高雄市","TOWNNAME":"三民區","MARKTYPE":"992","Class":"2"},"geometry":{"x":180195.15110000037,"y":2504950.6669999994}},{"attributes":{"OBJECTID":20979,"LANDMARKID":"6400000000371","LANDMARKCO":"203","LANDMARKNA":"市立獅湖國小","LANDMARKAD":"6400005","ADDRESS":"高雄市三民區鼎金後路495號","TEL":"07-3424782","COUNTYNAME":"高雄市","TOWNNAME":"三民區","MARKTYPE":"992","Class":"2"},"geometry":{"x":180354.8032999998,"y":2508190.0215000007}},{"attributes":{"OBJECTID":20980,"LANDMARKID":"6400000000259","LANDMARKCO":"202","LANDMARKNA":"私立立志高中","LANDMARKAD":"6400005","ADDRESS":"高雄市三民區大昌一路98號","TEL":"07-3922601","COUNTYNAME":"高雄市","TOWNNAME":"三民區","MARKTYPE":"992","Class":"2"},"geometry":{"x":180782.14489999972,"y":2506098.4587999992}},{"attributes":{"OBJECTID":20981,"LANDMARKID":"6400000000260","LANDMARKCO":"202","LANDMARKNA":"市立三民高中","LANDMARKAD":"6400005","ADDRESS":"高雄市三民區金鼎路81號","TEL":"07-3475181","COUNTYNAME":"高雄市","TOWNNAME":"三民區","MARKTYPE":"992","Class":"2"},"geometry":{"x":180808.74890000001,"y":2507136.3105999995}},{"attributes":{"OBJECTID":20982,"LANDMARKID":"6400000000261","LANDMARKCO":"202","LANDMARKNA":"市立高雄高工","LANDMARKAD":"6400005","ADDRESS":"高雄市三民區建工路419號","TEL":"07-3815366","COUNTYNAME":"高雄市","TOWNNAME":"三民區","MARKTYPE":"992","Class":"2"},"geometry":{"x":180775.61899999995,"y":2505755.1854999997}},{"attributes":{"OBJECTID":20983,"LANDMARKID":"6400000000262","LANDMARKCO":"202","LANDMARKNA":"私立樹德家商","LANDMARKAD":"6400005","ADDRESS":"高雄市三民區建興路116號","TEL":"07-3870338","COUNTYNAME":"高雄市","TOWNNAME":"三民區","MARKTYPE":"992","Class":"2"},"geometry":{"x":180981.18269999977,"y":2504969.5908000004}},{"attributes":{"OBJECTID":20984,"LANDMARKID":"6400000000346","LANDMARKCO":"203","LANDMARKNA":"市立陽明國中","LANDMARKAD":"6400005","ADDRESS":"高雄市三民區義華路166號","TEL":"07-3892919","COUNTYNAME":"高雄市","TOWNNAME":"三民區","MARKTYPE":"992","Class":"2"},"geometry":{"x":182207.43690000009,"y":2504917.9586999994}},{"attributes":{"OBJECTID":20985,"LANDMARKID":"6400000000347","LANDMARKCO":"203","LANDMARKNA":"市立鼎金國中","LANDMARKAD":"6400005","ADDRESS":"高雄市三民區鼎山街445號","TEL":"07-3831029","COUNTYNAME":"高雄市","TOWNNAME":"三民區","MARKTYPE":"992","Class":"2"},"geometry":{"x":180221.04669999983,"y":2506231.2598000001}},{"attributes":{"OBJECTID":20986,"LANDMARKID":"6400000000348","LANDMARKCO":"203","LANDMARKNA":"市立民族國中","LANDMARKAD":"6400005","ADDRESS":"高雄市三民區覺民路363號","TEL":"07-3818718","COUNTYNAME":"高雄市","TOWNNAME":"三民區","MARKTYPE":"992","Class":"2"},"geometry":{"x":181455.69510000013,"y":2504516.4436000008}},{"attributes":{"OBJECTID":20987,"LANDMARKID":"6400000000349","LANDMARKCO":"203","LANDMARKNA":"市立正興國中","LANDMARKAD":"6400005","ADDRESS":"高雄市三民區覺民路850號","TEL":"07-3890796","COUNTYNAME":"高雄市","TOWNNAME":"三民區","MARKTYPE":"992","Class":"2"},"geometry":{"x":180077.2089999998,"y":2505074.3717999998}},{"attributes":{"OBJECTID":20988,"LANDMARKID":"6400000000350","LANDMARKCO":"203","LANDMARKNA":"市立愛國國小","LANDMARKAD":"6400005","ADDRESS":"高雄市三民區十全一路1號","TEL":"07-3161191","COUNTYNAME":"高雄市","TOWNNAME":"三民區","MARKTYPE":"992","Class":"2"},"geometry":{"x":179459.65450000018,"y":2505086.7272999994}},{"attributes":{"OBJECTID":20989,"LANDMARKID":"6400000000351","LANDMARKCO":"203","LANDMARKNA":"市立十全國小","LANDMARKAD":"6400005","ADDRESS":"高雄市三民區十全二路162號","TEL":"07-3214366","COUNTYNAME":"高雄市","TOWNNAME":"三民區","MARKTYPE":"992","Class":"2"},"geometry":{"x":177921.31379999965,"y":2505331.2302999999}},{"attributes":{"OBJECTID":20990,"LANDMARKID":"6400000000352","LANDMARKCO":"203","LANDMARKNA":"市立莊敬國小","LANDMARKAD":"6400005","ADDRESS":"高雄市三民區大昌一路200號","TEL":"07-3813210","COUNTYNAME":"高雄市","TOWNNAME":"三民區","MARKTYPE":"992","Class":"2"},"geometry":{"x":180540.00169999991,"y":2506386.9024999999}},{"attributes":{"OBJECTID":20991,"LANDMARKID":"6400000000353","LANDMARKCO":"203","LANDMARKNA":"市立正興國小","LANDMARKAD":"6400005","ADDRESS":"高雄市三民區大豐二路20號","TEL":"07-3845206","COUNTYNAME":"高雄市","TOWNNAME":"三民區","MARKTYPE":"992","Class":"2"},"geometry":{"x":180739.0887000002,"y":2505277.7826000005}},{"attributes":{"OBJECTID":20992,"LANDMARKID":"6400000000354","LANDMARKCO":"203","LANDMARKNA":"市立河濱國小","LANDMARKAD":"6400005","ADDRESS":"高雄市三民區市中一路339號","TEL":"07-2211408","COUNTYNAME":"高雄市","TOWNNAME":"三民區","MARKTYPE":"992","Class":"2"},"geometry":{"x":176793.96860000025,"y":2503936.3399}},{"attributes":{"OBJECTID":20993,"LANDMARKID":"6400000000355","LANDMARKCO":"203","LANDMARKNA":"市立光武國小","LANDMARKAD":"6400005","ADDRESS":"高雄市三民區光武路35號","TEL":"07-3867458","COUNTYNAME":"高雄市","TOWNNAME":"三民區","MARKTYPE":"992","Class":"2"},"geometry":{"x":181573.83939999994,"y":2504440.9471000005}},{"attributes":{"OBJECTID":20994,"LANDMARKID":"6400000000356","LANDMARKCO":"203","LANDMARKNA":"市立三民國小","LANDMARKAD":"6400005","ADDRESS":"高雄市三民區建國三路216號","TEL":"07-2810378","COUNTYNAME":"高雄市","TOWNNAME":"三民區","MARKTYPE":"992","Class":"2"},"geometry":{"x":177131.75430000015,"y":2504225.5787000004}},{"attributes":{"OBJECTID":20995,"LANDMARKID":"6400000000357","LANDMARKCO":"203","LANDMARKNA":"市立東光國小","LANDMARKAD":"6400005","ADDRESS":"高雄市三民區黃興路206號","TEL":"07-3839350","COUNTYNAME":"高雄市","TOWNNAME":"三民區","MARKTYPE":"992","Class":"2"},"geometry":{"x":182138.05750000011,"y":2505572.6390000004}},{"attributes":{"OBJECTID":20996,"LANDMARKID":"6400000000358","LANDMARKCO":"203","LANDMARKNA":"市立陽明國小","LANDMARKAD":"6400005","ADDRESS":"高雄市三民區義德路52號","TEL":"07-3851915","COUNTYNAME":"高雄市","TOWNNAME":"三民區","MARKTYPE":"992","Class":"2"},"geometry":{"x":181707.52670000028,"y":2505161.2762000002}},{"attributes":{"OBJECTID":20997,"LANDMARKID":"6400000000359","LANDMARKCO":"203","LANDMARKNA":"市立鼎金國小","LANDMARKAD":"6400005","ADDRESS":"高雄市三民區鼎山街375號","TEL":"07-3836332","COUNTYNAME":"高雄市","TOWNNAME":"三民區","MARKTYPE":"992","Class":"2"},"geometry":{"x":180318.94230000023,"y":2506366.6999999993}},{"attributes":{"OBJECTID":20998,"LANDMARKID":"6400000000240","LANDMARKCO":"201","LANDMARKNA":"私立文藻外語學院","LANDMARKAD":"6400005","ADDRESS":"高雄市三民區民族一路900號","TEL":"07-3426031","COUNTYNAME":"高雄市","TOWNNAME":"三民區","MARKTYPE":"992","Class":"2"},"geometry":{"x":179925.91650000028,"y":2507911.1802999992}},{"attributes":{"OBJECTID":20999,"LANDMARKID":"6400000000241","LANDMARKCO":"201","LANDMARKNA":"國立高雄應用科技大學","LANDMARKAD":"6400005","ADDRESS":"高雄市三民區建工路415號","TEL":"07-3814526","COUNTYNAME":"高雄市","TOWNNAME":"三民區","MARKTYPE":"992","Class":"2"},"geometry":{"x":180970.05260000005,"y":2505858.7719000001}},{"attributes":{"OBJECTID":21000,"LANDMARKID":"6400000000242","LANDMARKCO":"201","LANDMARKNA":"高雄醫學大學","LANDMARKAD":"6400005","ADDRESS":"高雄市三民區十全一路100號","TEL":"07-3121101","COUNTYNAME":"高雄市","TOWNNAME":"三民區","MARKTYPE":"992","Class":"2"},"geometry":{"x":179082.01140000019,"y":2505159.3052999992}}]}