{"displayFieldName":"COUNTYNAME","fieldAliases":{"OBJECTID":"OBJECTID","LANDMARKID":"LANDMARKID","LANDMARKCO":"LANDMARKCO","LANDMARKNA":"LANDMARKNA","LANDMARKAD":"LANDMARKAD","ADDRESS":"ADDRESS","TEL":"TEL","COUNTYNAME":"COUNTYNAME","TOWNNAME":"TOWNNAME","MARKTYPE":"MARKTYPE","Class":"Class"},"geometryType":"esriGeometryPoint","spatialReference":{"wkid":4326},"fields":[{"name":"OBJECTID","type":"esriFieldTypeOID","alias":"OBJECTID"},{"name":"LANDMARKID","type":"esriFieldTypeString","alias":"LANDMARKID","length":15},{"name":"LANDMARKCO","type":"esriFieldTypeString","alias":"LANDMARKCO","length":15},{"name":"LANDMARKNA","type":"esriFieldTypeString","alias":"LANDMARKNA","length":50},{"name":"LANDMARKAD","type":"esriFieldTypeString","alias":"LANDMARKAD","length":15},{"name":"ADDRESS","type":"esriFieldTypeString","alias":"ADDRESS","length":56},{"name":"TEL","type":"esriFieldTypeString","alias":"TEL","length":36},{"name":"COUNTYNAME","type":"esriFieldTypeString","alias":"COUNTYNAME","length":15},{"name":"TOWNNAME","type":"esriFieldTypeString","alias":"TOWNNAME","length":13},{"name":"MARKTYPE","type":"esriFieldTypeString","alias":"MARKTYPE","length":12},{"name":"Class","type":"esriFieldTypeString","alias":"Class","length":5}],"features":[{"attributes":{"OBJECTID":1,"LANDMARKID":"1000900000690","LANDMARKCO":"405","LANDMARKNA":"中油加油站-麥寮站(中油直營)","LANDMARKAD":"1000913","ADDRESS":"雲林縣麥寮鄉麥豐村中山路12號","TEL":"05-6932174","COUNTYNAME":"雲林縣","TOWNNAME":"麥寮鄉","MARKTYPE":"994","Class":"4"},"geometry":{"x":120.26129790282934,"y":23.75040973652963}},{"attributes":{"OBJECTID":2,"LANDMARKID":"1000900000691","LANDMARKCO":"405","LANDMARKNA":"中油加油站-品強站","LANDMARKAD":"1000913","ADDRESS":"雲林縣麥寮鄉麥津村豐安路8號","TEL":"05-6932299","COUNTYNAME":"雲林縣","TOWNNAME":"麥寮鄉","MARKTYPE":"994","Class":"4"},"geometry":{"x":120.24637240654435,"y":23.751099296589722}},{"attributes":{"OBJECTID":3,"LANDMARKID":"1000900000692","LANDMARKCO":"405","LANDMARKNA":"中油加油站-橋南站(中油直營)","LANDMARKAD":"1000913","ADDRESS":"雲林縣麥寮鄉橋頭村橋頭路34號","TEL":"05-6913386","COUNTYNAME":"雲林縣","TOWNNAME":"麥寮鄉","MARKTYPE":"994","Class":"4"},"geometry":{"x":120.27312461517835,"y":23.795412307705682}},{"attributes":{"OBJECTID":4,"LANDMARKID":"1000900000693","LANDMARKCO":"405","LANDMARKNA":"中油加油站-日祥站","LANDMARKAD":"1000913","ADDRESS":"雲林縣麥寮鄉麥豐村西濱路二段453號","TEL":"05-6936301","COUNTYNAME":"雲林縣","TOWNNAME":"麥寮鄉","MARKTYPE":"994","Class":"4"},"geometry":{"x":120.25862988892574,"y":23.741617500777842}},{"attributes":{"OBJECTID":5,"LANDMARKID":"1000900000694","LANDMARKCO":"405","LANDMARKNA":"中油加油站-威盛站","LANDMARKAD":"1000913","ADDRESS":"雲林縣麥寮鄉施厝村施厝寮68-10號","TEL":"05-6910697","COUNTYNAME":"雲林縣","TOWNNAME":"麥寮鄉","MARKTYPE":"994","Class":"4"},"geometry":{"x":120.2859169963383,"y":23.794912593412231}},{"attributes":{"OBJECTID":6,"LANDMARKID":"1000900000626","LANDMARKCO":"402","LANDMARKNA":"亞太行動寬頻電信-麥寮中山加盟服務中心","LANDMARKAD":"1000913","ADDRESS":"雲林縣麥寮鄉麥津村中山路412-1號","TEL":"05-6939280","COUNTYNAME":"雲林縣","TOWNNAME":"麥寮鄉","MARKTYPE":"994","Class":"4"},"geometry":{"x":120.25111821803755,"y":23.750323951949081}},{"attributes":{"OBJECTID":7,"LANDMARKID":"1000900000800","LANDMARKCO":"408","LANDMARKNA":"郵局-麥寮郵局","LANDMARKAD":"1000913","ADDRESS":"雲林縣麥寮鄉光復路24號","TEL":"(05)6932-054","COUNTYNAME":"雲林縣","TOWNNAME":"麥寮鄉","MARKTYPE":"994","Class":"4"},"geometry":{"x":120.25634420896934,"y":23.747422082040163}},{"attributes":{"OBJECTID":8,"LANDMARKID":"1000900000801","LANDMARKCO":"408","LANDMARKNA":"郵局-麥寮工業區郵局","LANDMARKAD":"1000913","ADDRESS":"雲林縣麥寮鄉台塑工業園區1號","TEL":"(05)6812-680","COUNTYNAME":"雲林縣","TOWNNAME":"麥寮鄉","MARKTYPE":"994","Class":"4"},"geometry":{"x":120.2130287717811,"y":23.801371157937101}},{"attributes":{"OBJECTID":9,"LANDMARKID":"1000900000802","LANDMARKCO":"408","LANDMARKNA":"郵局-麥寮橋頭郵局","LANDMARKAD":"1000913","ADDRESS":"雲林縣麥寮鄉橋頭村仁德路98號","TEL":"(05)6915-930","COUNTYNAME":"雲林縣","TOWNNAME":"麥寮鄉","MARKTYPE":"994","Class":"4"},"geometry":{"x":120.27741898915662,"y":23.796378467207987}},{"attributes":{"OBJECTID":10,"LANDMARKID":"1000900000827","LANDMARKCO":"409","LANDMARKNA":"雲林縣麥寮鄉農會","LANDMARKAD":"1000913","ADDRESS":"雲林縣麥寮鄉麥豐村中山路119號","TEL":"05-6931101","COUNTYNAME":"雲林縣","TOWNNAME":"麥寮鄉","MARKTYPE":"994","Class":"4"},"geometry":{"x":120.25129982433863,"y":23.749883280557111}},{"attributes":{"OBJECTID":11,"LANDMARKID":"1000900000695","LANDMARKCO":"405","LANDMARKNA":"台亞加油站-六輕站（台塑）","LANDMARKAD":"1000913","ADDRESS":"雲林縣麥寮鄉三盛村中山路61-86號","TEL":"(05)691-0406","COUNTYNAME":"雲林縣","TOWNNAME":"麥寮鄉","MARKTYPE":"994","Class":"4"},"geometry":{"x":120.28979175759781,"y":23.758562241645393}},{"attributes":{"OBJECTID":12,"LANDMARKID":"1000900000696","LANDMARKCO":"405","LANDMARKNA":"台塑加油站-麥寮長庚站(台塑)","LANDMARKAD":"1000913","ADDRESS":"雲林縣麥寮鄉後安村後安路222-36號","TEL":"05-6930141","COUNTYNAME":"雲林縣","TOWNNAME":"麥寮鄉","MARKTYPE":"994","Class":"4"},"geometry":{"x":120.23722763190464,"y":23.789282514861853}},{"attributes":{"OBJECTID":13,"LANDMARKID":"1000900000697","LANDMARKCO":"405","LANDMARKNA":"台塑加油站-春田站(台塑)","LANDMARKAD":"1000913","ADDRESS":"雲林縣麥寮鄉三盛村許厝2-38號","TEL":"05-6911197","COUNTYNAME":"雲林縣","TOWNNAME":"麥寮鄉","MARKTYPE":"994","Class":"4"},"geometry":{"x":120.24191897895008,"y":23.797785806120352}},{"attributes":{"OBJECTID":14,"LANDMARKID":"1000900000698","LANDMARKCO":"405","LANDMARKNA":"台塑加油站-聯發站(台塑)","LANDMARKAD":"1000913","ADDRESS":"雲林縣麥寮鄉西濱路二段302號","TEL":"05-6938398","COUNTYNAME":"雲林縣","TOWNNAME":"麥寮鄉","MARKTYPE":"994","Class":"4"},"geometry":{"x":120.25761692353515,"y":23.741513712781696}},{"attributes":{"OBJECTID":15,"LANDMARKID":"1000900000230","LANDMARKCO":"108","LANDMARKNA":"雲林縣麥寮鄉公所","LANDMARKAD":"1000913","ADDRESS":"雲林縣麥寮鄉麥津村中興路117號","TEL":"05-6934495","COUNTYNAME":"雲林縣","TOWNNAME":"麥寮鄉","MARKTYPE":"991","Class":"1"},"geometry":{"x":120.25168368636227,"y":23.753874778550824}},{"attributes":{"OBJECTID":16,"LANDMARKID":"1000900000088","LANDMARKCO":"103","LANDMARKNA":"雲林縣麥寮鄉衛生所","LANDMARKAD":"1000913","ADDRESS":"雲林縣麥寮鄉光復路4號","TEL":"05-6932268","COUNTYNAME":"雲林縣","TOWNNAME":"麥寮鄉","MARKTYPE":"991","Class":"1"},"geometry":{"x":120.25603936480093,"y":23.746892752444783}},{"attributes":{"OBJECTID":17,"LANDMARKID":"1000900000089","LANDMARKCO":"103","LANDMARKNA":"雲林縣麥寮鄉民代表會","LANDMARKAD":"1000913","ADDRESS":"雲林縣麥寮鄉麥津村中興路109號","TEL":"05-6932009","COUNTYNAME":"雲林縣","TOWNNAME":"麥寮鄉","MARKTYPE":"991","Class":"1"},"geometry":{"x":120.25174398466127,"y":23.753234035913216}},{"attributes":{"OBJECTID":18,"LANDMARKID":"1000900000205","LANDMARKCO":"107","LANDMARKNA":"雲林縣消防局麥寮消防分隊","LANDMARKAD":"1000913","ADDRESS":"雲林縣麥寮鄉麥津村中興路115號","TEL":"05-6933143","COUNTYNAME":"雲林縣","TOWNNAME":"麥寮鄉","MARKTYPE":"991","Class":"1"},"geometry":{"x":120.25189449506502,"y":23.753537352405104}},{"attributes":{"OBJECTID":19,"LANDMARKID":"1000900000206","LANDMARKCO":"107","LANDMARKNA":"雲林縣警察局麥寮分駐所","LANDMARKAD":"1000913","ADDRESS":"雲林縣麥寮鄉麥津村中山路208號","TEL":"05-6932030","COUNTYNAME":"雲林縣","TOWNNAME":"麥寮鄉","MARKTYPE":"991","Class":"1"},"geometry":{"x":120.25580702265563,"y":23.748738203983617}},{"attributes":{"OBJECTID":20,"LANDMARKID":"1000900000207","LANDMARKCO":"107","LANDMARKNA":"雲林縣警察局橋頭派出所","LANDMARKAD":"1000913","ADDRESS":"雲林縣麥寮鄉橋頭村仁德路234號","TEL":"05-6911007","COUNTYNAME":"雲林縣","TOWNNAME":"麥寮鄉","MARKTYPE":"991","Class":"1"},"geometry":{"x":120.27447790115423,"y":23.797093595120703}},{"attributes":{"OBJECTID":21,"LANDMARKID":"1000900000115","LANDMARKCO":"106","LANDMARKNA":"雲林縣麥寮鄉戶政事務所","LANDMARKAD":"1000913","ADDRESS":"雲林縣麥寮鄉麥津村8鄰中山路204號","TEL":"05-6932948","COUNTYNAME":"雲林縣","TOWNNAME":"麥寮鄉","MARKTYPE":"991","Class":"1"},"geometry":{"x":120.25617174945381,"y":23.748698292028276}},{"attributes":{"OBJECTID":22,"LANDMARKID":"1000900000480","LANDMARKCO":"204","LANDMARKNA":"雲林縣立圖書館麥寮分館","LANDMARKAD":"1000913","ADDRESS":"雲林縣麥寮鄉中山路206號","TEL":" ","COUNTYNAME":"雲林縣","TOWNNAME":"麥寮鄉","MARKTYPE":"992","Class":"2"},"geometry":{"x":120.25454253692523,"y":23.749193729367359}},{"attributes":{"OBJECTID":23,"LANDMARKID":"1000900000252","LANDMARKCO":"202","LANDMARKNA":"縣立麥寮高中","LANDMARKAD":"1000913","ADDRESS":"雲林縣麥寮鄉中興路310巷1號","TEL":"05-6932050","COUNTYNAME":"雲林縣","TOWNNAME":"麥寮鄉","MARKTYPE":"992","Class":"2"},"geometry":{"x":120.25170772908685,"y":23.758699901774197}},{"attributes":{"OBJECTID":24,"LANDMARKID":"1000900000443","LANDMARKCO":"203","LANDMARKNA":"縣立麥寮國小","LANDMARKAD":"1000913","ADDRESS":"雲林縣麥寮鄉麥津村中山路260號","TEL":"05-6932266","COUNTYNAME":"雲林縣","TOWNNAME":"麥寮鄉","MARKTYPE":"992","Class":"2"},"geometry":{"x":120.25411130248848,"y":23.750748278122231}},{"attributes":{"OBJECTID":25,"LANDMARKID":"1000900000444","LANDMARKCO":"203","LANDMARKNA":"縣立橋頭國小","LANDMARKAD":"1000913","ADDRESS":"雲林縣麥寮鄉橋頭村仁德路248號","TEL":"05-6962707","COUNTYNAME":"雲林縣","TOWNNAME":"麥寮鄉","MARKTYPE":"992","Class":"2"},"geometry":{"x":120.27386466110265,"y":23.797893515046791}},{"attributes":{"OBJECTID":26,"LANDMARKID":"1000900000445","LANDMARKCO":"203","LANDMARKNA":"縣立興華國小","LANDMARKAD":"1000913","ADDRESS":"雲林縣麥寮鄉興華村興化路1號","TEL":"05-6932574","COUNTYNAME":"雲林縣","TOWNNAME":"麥寮鄉","MARKTYPE":"992","Class":"2"},"geometry":{"x":120.28837108068403,"y":23.75932675290526}},{"attributes":{"OBJECTID":27,"LANDMARKID":"1000900000446","LANDMARKCO":"203","LANDMARKNA":"縣立豐安國小","LANDMARKAD":"1000913","ADDRESS":"雲林縣麥寮鄉後安村227號","TEL":"05-6932759","COUNTYNAME":"雲林縣","TOWNNAME":"麥寮鄉","MARKTYPE":"992","Class":"2"},"geometry":{"x":120.23478913607228,"y":23.789586473317101}},{"attributes":{"OBJECTID":28,"LANDMARKID":"1000900000447","LANDMARKCO":"203","LANDMARKNA":"縣立明禮國小","LANDMARKAD":"1000913","ADDRESS":"雲林縣麥寮鄉崙後村92號","TEL":"05-6932244","COUNTYNAME":"雲林縣","TOWNNAME":"麥寮鄉","MARKTYPE":"992","Class":"2"},"geometry":{"x":120.26565795392077,"y":23.773484840941244}},{"attributes":{"OBJECTID":29,"LANDMARKID":"1000900000448","LANDMARKCO":"203","LANDMARKNA":"縣立麥寮國小海豐分校","LANDMARKAD":"1000913","ADDRESS":"雲林縣麥寮鄉","TEL":"05-6931724","COUNTYNAME":"雲林縣","TOWNNAME":"麥寮鄉","MARKTYPE":"992","Class":"2"},"geometry":{"x":120.22576880787751,"y":23.764888197296813}},{"attributes":{"OBJECTID":30,"LANDMARKID":"1000900000449","LANDMARKCO":"203","LANDMARKNA":"縣立麥寮國小楊厝分班","LANDMARKAD":"1000913","ADDRESS":"雲林縣麥寮鄉","TEL":"05-6937813","COUNTYNAME":"雲林縣","TOWNNAME":"麥寮鄉","MARKTYPE":"992","Class":"2"},"geometry":{"x":120.24271048995013,"y":23.775628025847269}},{"attributes":{"OBJECTID":31,"LANDMARKID":"1000900000450","LANDMARKCO":"203","LANDMARKNA":"縣立橋頭國小許厝分校","LANDMARKAD":"1000913","ADDRESS":"雲林縣麥寮鄉三盛村3鄰57號","TEL":"05-6911449","COUNTYNAME":"雲林縣","TOWNNAME":"麥寮鄉","MARKTYPE":"992","Class":"2"},"geometry":{"x":120.2441910578851,"y":23.797854608057516}},{"attributes":{"OBJECTID":32,"LANDMARKID":"1000900000536","LANDMARKCO":"305","LANDMARKNA":"麥寮工業專用港","LANDMARKAD":"1000913","ADDRESS":"雲林縣麥寮鄉","TEL":" ","COUNTYNAME":"雲林縣","TOWNNAME":"麥寮鄉","MARKTYPE":"993","Class":"305"},"geometry":{"x":120.17902663961351,"y":23.784527989311954}},{"attributes":{"OBJECTID":33,"LANDMARKID":"1000900000555","LANDMARKCO":"308","LANDMARKNA":"台61-後安寮交流道-北上","LANDMARKAD":"1000913","ADDRESS":" ","TEL":" ","COUNTYNAME":"雲林縣","TOWNNAME":"麥寮鄉","MARKTYPE":"993","Class":"308"},"geometry":{"x":120.27711407822481,"y":23.791276589769982}},{"attributes":{"OBJECTID":34,"LANDMARKID":"1000900000528","LANDMARKCO":"303","LANDMARKNA":"泰順路停車場","LANDMARKAD":"1000913","ADDRESS":"雲林縣麥寮鄉泰順路","TEL":" ","COUNTYNAME":"雲林縣","TOWNNAME":"麥寮鄉","MARKTYPE":"993","Class":"303"},"geometry":{"x":120.25377744739288,"y":23.752720937061987}},{"attributes":{"OBJECTID":35,"LANDMARKID":"1000900000529","LANDMARKCO":"303","LANDMARKNA":"麥寮太順路停車場","LANDMARKAD":"1000913","ADDRESS":"雲林縣麥寮鄉太順路","TEL":" ","COUNTYNAME":"雲林縣","TOWNNAME":"麥寮鄉","MARKTYPE":"993","Class":"303"},"geometry":{"x":120.25377418133635,"y":23.752717916323483}},{"attributes":{"OBJECTID":36,"LANDMARKID":"1000900000625","LANDMARKCO":"402","LANDMARKNA":"中華電信-麥寮服務中心","LANDMARKAD":"1000913","ADDRESS":"雲林縣麥寮鄉光復南路342號","TEL":"(05)693-7544","COUNTYNAME":"雲林縣","TOWNNAME":"麥寮鄉","MARKTYPE":"994","Class":"4"},"geometry":{"x":120.25612413542505,"y":23.746408724590427}},{"attributes":{"OBJECTID":37,"LANDMARKID":"1000900000904","LANDMARKCO":"603","LANDMARKNA":"諾貝爾汽車旅館","LANDMARKAD":"1000913","ADDRESS":"雲林縣麥寮鄉麥豐村西濱路二段10號","TEL":"05-6931205","COUNTYNAME":"雲林縣","TOWNNAME":"麥寮鄉","MARKTYPE":"996","Class":"6"},"geometry":{"x":120.26265829268021,"y":23.749301460758574}},{"attributes":{"OBJECTID":38,"LANDMARKID":"1000900000905","LANDMARKCO":"603","LANDMARKNA":"良友旅社","LANDMARKAD":"1000913","ADDRESS":"雲林縣麥寮鄉橋頭村仁德路136號","TEL":"05-6912132","COUNTYNAME":"雲林縣","TOWNNAME":"麥寮鄉","MARKTYPE":"996","Class":"6"},"geometry":{"x":120.27666184248562,"y":23.79651584527938}},{"attributes":{"OBJECTID":39,"LANDMARKID":"1000900000906","LANDMARKCO":"603","LANDMARKNA":"群成旅社","LANDMARKAD":"1000913","ADDRESS":"雲林縣麥寮鄉麥津村中正路54號","TEL":"05-6932044","COUNTYNAME":"雲林縣","TOWNNAME":"麥寮鄉","MARKTYPE":"996","Class":"6"},"geometry":{"x":120.25455441944383,"y":23.748682386714986}},{"attributes":{"OBJECTID":40,"LANDMARKID":"1000900000907","LANDMARKCO":"603","LANDMARKNA":"聚安旅社","LANDMARKAD":"1000913","ADDRESS":"雲林縣麥寮鄉麥豐村中正路25號","TEL":"05-6935536","COUNTYNAME":"雲林縣","TOWNNAME":"麥寮鄉","MARKTYPE":"996","Class":"6"},"geometry":{"x":120.2549606815751,"y":23.748325120997762}},{"attributes":{"OBJECTID":41,"LANDMARKID":"1000900000699","LANDMARKCO":"405","LANDMARKNA":"中油加油站-二崙自強站(中油直營)","LANDMARKAD":"1000911","ADDRESS":"雲林縣二崙鄉大同村大同路21號","TEL":"05-5984084","COUNTYNAME":"雲林縣","TOWNNAME":"二崙鄉","MARKTYPE":"994","Class":"4"},"geometry":{"x":120.3739641662996,"y":23.791250587233932}},{"attributes":{"OBJECTID":42,"LANDMARKID":"1000900000700","LANDMARKCO":"405","LANDMARKNA":"中油加油站-二崙站(中油直營)","LANDMARKAD":"1000911","ADDRESS":"雲林縣二崙鄉崙東村中山路一段102號","TEL":"05-5982056","COUNTYNAME":"雲林縣","TOWNNAME":"二崙鄉","MARKTYPE":"994","Class":"4"},"geometry":{"x":120.41729227817619,"y":23.773690664736399}},{"attributes":{"OBJECTID":43,"LANDMARKID":"1000900000798","LANDMARKCO":"408","LANDMARKNA":"郵局-二崙郵局","LANDMARKAD":"1000911","ADDRESS":"雲林縣二崙鄉中山路1段178號","TEL":"(05)5982-054","COUNTYNAME":"雲林縣","TOWNNAME":"二崙鄉","MARKTYPE":"994","Class":"4"},"geometry":{"x":120.41560901608634,"y":23.771667158689528}},{"attributes":{"OBJECTID":44,"LANDMARKID":"1000900000799","LANDMARKCO":"408","LANDMARKNA":"郵局-二崙油車郵局","LANDMARKAD":"1000911","ADDRESS":"雲林縣二崙鄉港后路106號","TEL":"(05)5989-082","COUNTYNAME":"雲林縣","TOWNNAME":"二崙鄉","MARKTYPE":"994","Class":"4"},"geometry":{"x":120.39239832582933,"y":23.800574955296206}},{"attributes":{"OBJECTID":45,"LANDMARKID":"1000900000828","LANDMARKCO":"409","LANDMARKNA":"雲林縣二崙鄉農會","LANDMARKAD":"1000911","ADDRESS":"雲林縣二崙鄉崙西村中 正路107號","TEL":"05-5986001","COUNTYNAME":"雲林縣","TOWNNAME":"二崙鄉","MARKTYPE":"994","Class":"4"},"geometry":{"x":120.41485348209328,"y":23.770782533990193}},{"attributes":{"OBJECTID":46,"LANDMARKID":"1000900000231","LANDMARKCO":"108","LANDMARKNA":"雲林縣二崙鄉公所","LANDMARKAD":"1000911","ADDRESS":"雲林縣二崙鄉中興路5號","TEL":"05-5982001","COUNTYNAME":"雲林縣","TOWNNAME":"二崙鄉","MARKTYPE":"991","Class":"1"},"geometry":{"x":120.41495475423281,"y":23.771319076505968}},{"attributes":{"OBJECTID":47,"LANDMARKID":"1000900000201","LANDMARKCO":"107","LANDMARKNA":"雲林縣消防局二崙消防分隊","LANDMARKAD":"1000911","ADDRESS":"雲林縣二崙鄉中正路80號","TEL":"05-5989119","COUNTYNAME":"雲林縣","TOWNNAME":"二崙鄉","MARKTYPE":"991","Class":"1"},"geometry":{"x":120.41282485746972,"y":23.77032021265773}},{"attributes":{"OBJECTID":48,"LANDMARKID":"1000900000090","LANDMARKCO":"103","LANDMARKNA":"雲林縣二崙鄉鄉民代表會","LANDMARKAD":"1000911","ADDRESS":"雲林縣二崙鄉中興路23號","TEL":"05-5982019","COUNTYNAME":"雲林縣","TOWNNAME":"二崙鄉","MARKTYPE":"991","Class":"1"},"geometry":{"x":120.4126258350019,"y":23.772215654136684}},{"attributes":{"OBJECTID":49,"LANDMARKID":"1000900000091","LANDMARKCO":"103","LANDMARKNA":"雲林縣二崙鄉衛生所","LANDMARKAD":"1000911","ADDRESS":"雲林縣二崙鄉中興路9號","TEL":"05-5982004","COUNTYNAME":"雲林縣","TOWNNAME":"二崙鄉","MARKTYPE":"991","Class":"1"},"geometry":{"x":120.41262345919348,"y":23.771879280915641}},{"attributes":{"OBJECTID":50,"LANDMARKID":"1000900000198","LANDMARKCO":"107","LANDMARKNA":"雲林縣警察局永定派出所","LANDMARKAD":"1000911","ADDRESS":"雲林縣二崙鄉永定路372號","TEL":"05-5982604","COUNTYNAME":"雲林縣","TOWNNAME":"二崙鄉","MARKTYPE":"991","Class":"1"},"geometry":{"x":120.41672663043094,"y":23.796808948863863}},{"attributes":{"OBJECTID":51,"LANDMARKID":"1000900000199","LANDMARKCO":"107","LANDMARKNA":"雲林縣警察局二崙分駐所","LANDMARKAD":"1000911","ADDRESS":"雲林縣二崙鄉崙西村中山路102號","TEL":"05-5982595","COUNTYNAME":"雲林縣","TOWNNAME":"二崙鄉","MARKTYPE":"991","Class":"1"},"geometry":{"x":120.41302429505527,"y":23.770782513129937}},{"attributes":{"OBJECTID":52,"LANDMARKID":"1000900000200","LANDMARKCO":"107","LANDMARKNA":"雲林縣警察局油車派出所","LANDMARKAD":"1000911","ADDRESS":"雲林縣二崙鄉油車村文化路8號","TEL":"05-5982334","COUNTYNAME":"雲林縣","TOWNNAME":"二崙鄉","MARKTYPE":"991","Class":"1"},"geometry":{"x":120.39018209436163,"y":23.795242464871933}},{"attributes":{"OBJECTID":53,"LANDMARKID":"1000900000114","LANDMARKCO":"106","LANDMARKNA":"雲林縣二崙鄉戶政事務所","LANDMARKAD":"1000911","ADDRESS":"雲林縣二崙鄉中山路一段168巷37號","TEL":"05-5982009","COUNTYNAME":"雲林縣","TOWNNAME":"二崙鄉","MARKTYPE":"991","Class":"1"},"geometry":{"x":120.41547612493619,"y":23.773170450175314}},{"attributes":{"OBJECTID":54,"LANDMARKID":"1000900000481","LANDMARKCO":"204","LANDMARKNA":"雲林縣立圖書館二崙分館","LANDMARKAD":"1000911","ADDRESS":"雲林縣二崙鄉崙西村中興路5之1號","TEL":" ","COUNTYNAME":"雲林縣","TOWNNAME":"二崙鄉","MARKTYPE":"992","Class":"2"},"geometry":{"x":120.41286771383815,"y":23.771544059481762}},{"attributes":{"OBJECTID":55,"LANDMARKID":"1000900000451","LANDMARKCO":"203","LANDMARKNA":"縣立大同國小","LANDMARKAD":"1000911","ADDRESS":"雲林縣二崙鄉大同村大同路5號","TEL":"05-5982996","COUNTYNAME":"雲林縣","TOWNNAME":"二崙鄉","MARKTYPE":"992","Class":"2"},"geometry":{"x":120.37563722435125,"y":23.794098537249599}},{"attributes":{"OBJECTID":56,"LANDMARKID":"1000900000452","LANDMARKCO":"203","LANDMARKNA":"縣立油車國小","LANDMARKAD":"1000911","ADDRESS":"雲林縣二崙鄉港後村港後路60號","TEL":"05-5982600","COUNTYNAME":"雲林縣","TOWNNAME":"二崙鄉","MARKTYPE":"992","Class":"2"},"geometry":{"x":120.39212598210638,"y":23.796240359242763}},{"attributes":{"OBJECTID":57,"LANDMARKID":"1000900000453","LANDMARKCO":"203","LANDMARKNA":"縣立二崙國中","LANDMARKAD":"1000911","ADDRESS":"雲林縣二崙鄉崙西村中正路88號","TEL":"05-5983004","COUNTYNAME":"雲林縣","TOWNNAME":"二崙鄉","MARKTYPE":"992","Class":"2"},"geometry":{"x":120.40689316835861,"y":23.773821934286151}},{"attributes":{"OBJECTID":58,"LANDMARKID":"1000900000454","LANDMARKCO":"203","LANDMARKNA":"縣立二崙國小","LANDMARKAD":"1000911","ADDRESS":"雲林縣二崙鄉崙東村中興路36號","TEL":"05-5982241","COUNTYNAME":"雲林縣","TOWNNAME":"二崙鄉","MARKTYPE":"992","Class":"2"},"geometry":{"x":120.41297936292939,"y":23.77220317230093}},{"attributes":{"OBJECTID":59,"LANDMARKID":"1000900000455","LANDMARKCO":"203","LANDMARKNA":"縣立永定國小","LANDMARKAD":"1000911","ADDRESS":"雲林縣二崙鄉永定村永定路238號","TEL":"05-5982796","COUNTYNAME":"雲林縣","TOWNNAME":"二崙鄉","MARKTYPE":"992","Class":"2"},"geometry":{"x":120.41976248895293,"y":23.795935102380824}},{"attributes":{"OBJECTID":60,"LANDMARKID":"1000900000456","LANDMARKCO":"203","LANDMARKNA":"縣立義賢國小","LANDMARKAD":"1000911","ADDRESS":"雲林縣二崙鄉楊賢村楊賢路1號","TEL":"05-5982797","COUNTYNAME":"雲林縣","TOWNNAME":"二崙鄉","MARKTYPE":"992","Class":"2"},"geometry":{"x":120.41396552676717,"y":23.817097251660019}},{"attributes":{"OBJECTID":61,"LANDMARKID":"1000900000457","LANDMARKCO":"203","LANDMARKNA":"縣立三和國小","LANDMARKAD":"1000911","ADDRESS":"雲林縣二崙鄉三和村2鄰17號","TEL":"05-5982795","COUNTYNAME":"雲林縣","TOWNNAME":"二崙鄉","MARKTYPE":"992","Class":"2"},"geometry":{"x":120.40805532258018,"y":23.750981881087384}},{"attributes":{"OBJECTID":62,"LANDMARKID":"1000900000458","LANDMARKCO":"203","LANDMARKNA":"縣立來惠國小","LANDMARKAD":"1000911","ADDRESS":"雲林縣二崙鄉來惠村來惠路12號","TEL":"05-5982995","COUNTYNAME":"雲林縣","TOWNNAME":"二崙鄉","MARKTYPE":"992","Class":"2"},"geometry":{"x":120.39851067601322,"y":23.767825665705047}},{"attributes":{"OBJECTID":63,"LANDMARKID":"1000900000459","LANDMARKCO":"203","LANDMARKNA":"縣立旭光國小","LANDMARKAD":"1000911","ADDRESS":"雲林縣二崙鄉大庄村酒姑村54號","TEL":"05-5982601","COUNTYNAME":"雲林縣","TOWNNAME":"二崙鄉","MARKTYPE":"992","Class":"2"},"geometry":{"x":120.36513804221316,"y":23.804622702109107}},{"attributes":{"OBJECTID":64,"LANDMARKID":"1000900000525","LANDMARKCO":"303","LANDMARKNA":"二崙鄉中興路邊停車場","LANDMARKAD":"1000911","ADDRESS":"雲林縣二崙鄉中興路","TEL":" ","COUNTYNAME":"雲林縣","TOWNNAME":"二崙鄉","MARKTYPE":"993","Class":"303"},"geometry":{"x":120.41283772953081,"y":23.772232843960985}},{"attributes":{"OBJECTID":65,"LANDMARKID":"1000900000526","LANDMARKCO":"303","LANDMARKNA":"二崙鄉農會停車場","LANDMARKAD":"1000911","ADDRESS":"雲林縣二崙鄉中興路","TEL":" ","COUNTYNAME":"雲林縣","TOWNNAME":"二崙鄉","MARKTYPE":"993","Class":"303"},"geometry":{"x":120.41221638177292,"y":23.771597766368615}},{"attributes":{"OBJECTID":66,"LANDMARKID":"1000900000527","LANDMARKCO":"303","LANDMARKNA":"二崙鄉廣停車場","LANDMARKAD":"1000911","ADDRESS":"雲林縣二崙鄉中山路","TEL":" ","COUNTYNAME":"雲林縣","TOWNNAME":"二崙鄉","MARKTYPE":"993","Class":"303"},"geometry":{"x":120.41549692410604,"y":23.77149161495473}},{"attributes":{"OBJECTID":67,"LANDMARKID":"1000900000627","LANDMARKCO":"402","LANDMARKNA":"中華電信-二崙服務中心","LANDMARKAD":"1000911","ADDRESS":"雲林縣二崙鄉中山路一段170號","TEL":"(05)598-0144","COUNTYNAME":"雲林縣","TOWNNAME":"二崙鄉","MARKTYPE":"994","Class":"4"},"geometry":{"x":120.41581286741008,"y":23.771912502776782}},{"attributes":{"OBJECTID":68,"LANDMARKID":"1000900000908","LANDMARKCO":"603","LANDMARKNA":"邁阿密汽車旅館","LANDMARKAD":"1000911","ADDRESS":"雲林縣二崙鄉復興村隆興路29號之3","TEL":"05-5990009","COUNTYNAME":"雲林縣","TOWNNAME":"二崙鄉","MARKTYPE":"996","Class":"6"},"geometry":{"x":120.3607737529982,"y":23.776278194068205}},{"attributes":{"OBJECTID":69,"LANDMARKID":"1000900000688","LANDMARKCO":"405","LANDMARKNA":"中油加油站-崙背站(中油直營)","LANDMARKAD":"1000912","ADDRESS":"雲林縣崙背鄉南陽村正義路123號","TEL":"05-6962049","COUNTYNAME":"雲林縣","TOWNNAME":"崙背鄉","MARKTYPE":"994","Class":"4"},"geometry":{"x":120.35903651271205,"y":23.761042774769216}},{"attributes":{"OBJECTID":70,"LANDMARKID":"1000900000689","LANDMARKCO":"405","LANDMARKNA":"中油加油站-頂愛站","LANDMARKAD":"1000912","ADDRESS":"雲林縣崙背鄉水尾村頂街路61號","TEL":"056-964169","COUNTYNAME":"雲林縣","TOWNNAME":"崙背鄉","MARKTYPE":"994","Class":"4"},"geometry":{"x":120.35418290153684,"y":23.786265869208968}},{"attributes":{"OBJECTID":71,"LANDMARKID":"1000900000628","LANDMARKCO":"402","LANDMARKNA":"亞太行動寬頻電信-崙背中山加盟服務中心","LANDMARKAD":"1000912","ADDRESS":"雲林縣崙背鄉東明村中山路216號","TEL":"05-6960215","COUNTYNAME":"雲林縣","TOWNNAME":"崙背鄉","MARKTYPE":"994","Class":"4"},"geometry":{"x":120.35503752194136,"y":23.761135354053845}},{"attributes":{"OBJECTID":72,"LANDMARKID":"1000900000803","LANDMARKCO":"408","LANDMARKNA":"郵局-崙背郵局","LANDMARKAD":"1000912","ADDRESS":"雲林縣崙背鄉民主路5號","TEL":"(05)6962-074","COUNTYNAME":"雲林縣","TOWNNAME":"崙背鄉","MARKTYPE":"994","Class":"4"},"geometry":{"x":120.35283310864713,"y":23.759446523520705}},{"attributes":{"OBJECTID":73,"LANDMARKID":"1000900000826","LANDMARKCO":"409","LANDMARKNA":"雲林縣崙背鄉農會","LANDMARKAD":"1000912","ADDRESS":"雲林縣崙背鄉南陽村永昌路14號","TEL":"05-6961116","COUNTYNAME":"雲林縣","TOWNNAME":"崙背鄉","MARKTYPE":"994","Class":"4"},"geometry":{"x":120.35485641172743,"y":23.759532812296541}},{"attributes":{"OBJECTID":74,"LANDMARKID":"1000900000654","LANDMARKCO":"404","LANDMARKNA":"台灣省自來水崙背營運所","LANDMARKAD":"1000912","ADDRESS":"雲林縣崙背鄉崙前村南光路13號","TEL":" ","COUNTYNAME":"雲林縣","TOWNNAME":"崙背鄉","MARKTYPE":"994","Class":"4"},"geometry":{"x":120.35340773446384,"y":23.758164547814662}},{"attributes":{"OBJECTID":75,"LANDMARKID":"1000900000687","LANDMARKCO":"405","LANDMARKNA":"台塑加油站-大友站(台塑)","LANDMARKAD":"1000912","ADDRESS":"雲林縣崙背鄉大有村282-1號","TEL":"05-6969937","COUNTYNAME":"雲林縣","TOWNNAME":"崙背鄉","MARKTYPE":"994","Class":"4"},"geometry":{"x":120.3068223106544,"y":23.750751765277062}},{"attributes":{"OBJECTID":76,"LANDMARKID":"1000900000092","LANDMARKCO":"103","LANDMARKNA":"雲林縣崙背鄉衛生所","LANDMARKAD":"1000912","ADDRESS":"雲林縣崙背鄉南光路34號","TEL":"05-6962009","COUNTYNAME":"雲林縣","TOWNNAME":"崙背鄉","MARKTYPE":"991","Class":"1"},"geometry":{"x":120.35313512402907,"y":23.759813923336303}},{"attributes":{"OBJECTID":77,"LANDMARKID":"1000900000093","LANDMARKCO":"103","LANDMARKNA":"雲林縣崙背鄉鄉民代表會","LANDMARKAD":"1000912","ADDRESS":"雲林縣崙背鄉南光路5號","TEL":"05-6962034","COUNTYNAME":"雲林縣","TOWNNAME":"崙背鄉","MARKTYPE":"991","Class":"1"},"geometry":{"x":120.35329725725518,"y":23.758855563179896}},{"attributes":{"OBJECTID":78,"LANDMARKID":"1000900000203","LANDMARKCO":"107","LANDMARKNA":"雲林縣消防局崙背消防分隊","LANDMARKAD":"1000912","ADDRESS":"雲林縣崙背鄉南光路11號","TEL":"05-6962208","COUNTYNAME":"雲林縣","TOWNNAME":"崙背鄉","MARKTYPE":"991","Class":"1"},"geometry":{"x":120.35303622191734,"y":23.75856471736321}},{"attributes":{"OBJECTID":79,"LANDMARKID":"1000900000204","LANDMARKCO":"107","LANDMARKNA":"雲林縣警察局崙背分駐所","LANDMARKAD":"1000912","ADDRESS":"雲林縣崙背鄉桿明村民權路114號","TEL":"05-6962016","COUNTYNAME":"雲林縣","TOWNNAME":"崙背鄉","MARKTYPE":"991","Class":"1"},"geometry":{"x":120.35520034947996,"y":23.762304003666113}},{"attributes":{"OBJECTID":80,"LANDMARKID":"1000900000113","LANDMARKCO":"106","LANDMARKNA":"雲林縣崙背鄉戶政事務所","LANDMARKAD":"1000912","ADDRESS":"雲林縣崙背鄉東明村3鄰民權路114之1號","TEL":"05-6962304","COUNTYNAME":"雲林縣","TOWNNAME":"崙背鄉","MARKTYPE":"991","Class":"1"},"geometry":{"x":120.35524484177076,"y":23.762021268125267}},{"attributes":{"OBJECTID":81,"LANDMARKID":"1000900000094","LANDMARKCO":"103","LANDMARKNA":"雲林縣崙背鄉調解委員會","LANDMARKAD":"1000912","ADDRESS":"雲林縣崙背鄉民權路386號","TEL":"05-6964412","COUNTYNAME":"雲林縣","TOWNNAME":"崙背鄉","MARKTYPE":"991","Class":"1"},"geometry":{"x":120.35228720495051,"y":23.764530011667322}},{"attributes":{"OBJECTID":82,"LANDMARKID":"1000900000202","LANDMARKCO":"107","LANDMARKNA":"雲林縣警察局豐榮派出所","LANDMARKAD":"1000912","ADDRESS":"雲林縣崙背鄉豐榮村豐榮路2號","TEL":"05-6552159","COUNTYNAME":"雲林縣","TOWNNAME":"崙背鄉","MARKTYPE":"991","Class":"1"},"geometry":{"x":120.31264298850755,"y":23.792661236542802}},{"attributes":{"OBJECTID":83,"LANDMARKID":"1000900000085","LANDMARKCO":"103","LANDMARKNA":"豐榮第一公墓殯儀館","LANDMARKAD":"1000912","ADDRESS":"雲林縣崙背鄉豐榮村豐榮路4號","TEL":"05-6962054","COUNTYNAME":"雲林縣","TOWNNAME":"崙背鄉","MARKTYPE":"991","Class":"1"},"geometry":{"x":120.31414198345546,"y":23.792596280607082}},{"attributes":{"OBJECTID":84,"LANDMARKID":"1000900000233","LANDMARKCO":"108","LANDMARKNA":"雲林縣崙背鄉公所","LANDMARKAD":"1000912","ADDRESS":"雲林縣崙背鄉行政街1號","TEL":"05-6962440","COUNTYNAME":"雲林縣","TOWNNAME":"崙背鄉","MARKTYPE":"991","Class":"1"},"geometry":{"x":120.35381969690131,"y":23.758885913804235}},{"attributes":{"OBJECTID":85,"LANDMARKID":"1000900000478","LANDMARKCO":"204","LANDMARKNA":"雲林縣立圖書館崙背分館","LANDMARKAD":"1000912","ADDRESS":"雲林縣崙背鄉南光路9號2樓","TEL":" ","COUNTYNAME":"雲林縣","TOWNNAME":"崙背鄉","MARKTYPE":"992","Class":"2"},"geometry":{"x":120.35324734878327,"y":23.759003483624181}},{"attributes":{"OBJECTID":86,"LANDMARKID":"1000900000470","LANDMARKCO":"203","LANDMARKNA":"縣立崙背國中","LANDMARKAD":"1000912","ADDRESS":"雲林縣崙背鄉大成路91號","TEL":"05-6962013","COUNTYNAME":"雲林縣","TOWNNAME":"崙背鄉","MARKTYPE":"992","Class":"2"},"geometry":{"x":120.34892669521477,"y":23.757985331578837}},{"attributes":{"OBJECTID":87,"LANDMARKID":"1000900000471","LANDMARKCO":"203","LANDMARKNA":"縣立崙背國小","LANDMARKAD":"1000912","ADDRESS":"雲林縣崙背鄉大同路154號","TEL":"05-6962004","COUNTYNAME":"雲林縣","TOWNNAME":"崙背鄉","MARKTYPE":"992","Class":"2"},"geometry":{"x":120.34700217059711,"y":23.758694197071595}},{"attributes":{"OBJECTID":88,"LANDMARKID":"1000900000472","LANDMARKCO":"203","LANDMARKNA":"縣立東興國小","LANDMARKAD":"1000912","ADDRESS":"雲林縣崙背鄉羅厝村東興路1號","TEL":"05-6962164","COUNTYNAME":"雲林縣","TOWNNAME":"崙背鄉","MARKTYPE":"992","Class":"2"},"geometry":{"x":120.37415114036672,"y":23.755993335312581}},{"attributes":{"OBJECTID":89,"LANDMARKID":"1000900000473","LANDMARKCO":"203","LANDMARKNA":"縣立豐榮國小","LANDMARKAD":"1000912","ADDRESS":"雲林縣崙背鄉豐榮村豐榮路21號","TEL":"05-6552006","COUNTYNAME":"雲林縣","TOWNNAME":"崙背鄉","MARKTYPE":"992","Class":"2"},"geometry":{"x":120.31187443261429,"y":23.791570901038067}},{"attributes":{"OBJECTID":90,"LANDMARKID":"1000900000474","LANDMARKCO":"203","LANDMARKNA":"縣立中和國小","LANDMARKAD":"1000912","ADDRESS":"雲林縣崙背鄉草湖村2鄰2號","TEL":"05-6552384","COUNTYNAME":"雲林縣","TOWNNAME":"崙背鄉","MARKTYPE":"992","Class":"2"},"geometry":{"x":120.33031070989087,"y":23.792201316923375}},{"attributes":{"OBJECTID":91,"LANDMARKID":"1000900000475","LANDMARKCO":"203","LANDMARKNA":"縣立崙背國小五魁分班","LANDMARKAD":"1000912","ADDRESS":"雲林縣崙背鄉五魁村","TEL":"05-6961587","COUNTYNAME":"雲林縣","TOWNNAME":"崙背鄉","MARKTYPE":"992","Class":"2"},"geometry":{"x":120.32775128660852,"y":23.770430304502746}},{"attributes":{"OBJECTID":92,"LANDMARKID":"1000900000476","LANDMARKCO":"203","LANDMARKNA":"縣立大有國小","LANDMARKAD":"1000912","ADDRESS":"雲林縣崙背鄉大有村1鄰14號","TEL":"05-6962741","COUNTYNAME":"雲林縣","TOWNNAME":"崙背鄉","MARKTYPE":"992","Class":"2"},"geometry":{"x":120.30882280587851,"y":23.763745519636188}},{"attributes":{"OBJECTID":93,"LANDMARKID":"1000900000477","LANDMARKCO":"203","LANDMARKNA":"縣立陽明國小","LANDMARKAD":"1000912","ADDRESS":"雲林縣崙背鄉水尾村頂街1號","TEL":"05-6967670","COUNTYNAME":"雲林縣","TOWNNAME":"崙背鄉","MARKTYPE":"992","Class":"2"},"geometry":{"x":120.35525345554869,"y":23.785173648225594}},{"attributes":{"OBJECTID":94,"LANDMARKID":"1000900000508","LANDMARKCO":"302","LANDMARKNA":"台西汽車客運崙背站","LANDMARKAD":"1000912","ADDRESS":"雲林縣崙背鄉中山路214號","TEL":" ","COUNTYNAME":"雲林縣","TOWNNAME":"崙背鄉","MARKTYPE":"993","Class":"302"},"geometry":{"x":120.35673411454216,"y":23.760219621877173}},{"attributes":{"OBJECTID":95,"LANDMARKID":"1000900000620","LANDMARKCO":"402","LANDMARKNA":"中華電信-崙背服務中心","LANDMARKAD":"1000912","ADDRESS":"雲林縣崙背鄉南光路42號","TEL":"(05)696-7144","COUNTYNAME":"雲林縣","TOWNNAME":"崙背鄉","MARKTYPE":"994","Class":"4"},"geometry":{"x":120.35300040957537,"y":23.75939374628717}},{"attributes":{"OBJECTID":96,"LANDMARKID":"1000900000894","LANDMARKCO":"603","LANDMARKNA":"皇宮大旅社","LANDMARKAD":"1000912","ADDRESS":"雲林縣崙背鄉羅厝村東興路247號","TEL":"05-6962296","COUNTYNAME":"雲林縣","TOWNNAME":"崙背鄉","MARKTYPE":"996","Class":"6"},"geometry":{"x":120.36270787622044,"y":23.758358665887663}},{"attributes":{"OBJECTID":97,"LANDMARKID":"1000900000895","LANDMARKCO":"603","LANDMARKNA":"富國旅社","LANDMARKAD":"1000912","ADDRESS":"雲林縣崙背鄉東明村正義路179號","TEL":"05-6962191","COUNTYNAME":"雲林縣","TOWNNAME":"崙背鄉","MARKTYPE":"996","Class":"6"},"geometry":{"x":120.35750670308721,"y":23.761054114393009}},{"attributes":{"OBJECTID":98,"LANDMARKID":"1000900000896","LANDMARKCO":"603","LANDMARKNA":"華祺大旅社","LANDMARKAD":"1000912","ADDRESS":"雲林縣崙背鄉東明村南昌路171號","TEL":"05-6962116","COUNTYNAME":"雲林縣","TOWNNAME":"崙背鄉","MARKTYPE":"996","Class":"6"},"geometry":{"x":120.35723778845117,"y":23.760464949605709}},{"attributes":{"OBJECTID":99,"LANDMARKID":"1000900000897","LANDMARKCO":"603","LANDMARKNA":"愛英旅社","LANDMARKAD":"1000912","ADDRESS":"雲林縣崙背鄉南陽村南昌路208號","TEL":"05-6962196","COUNTYNAME":"雲林縣","TOWNNAME":"崙背鄉","MARKTYPE":"996","Class":"6"},"geometry":{"x":120.35773286416429,"y":23.761001817005187}},{"attributes":{"OBJECTID":100,"LANDMARKID":"1000900000680","LANDMARKCO":"405","LANDMARKNA":"中油加油站-西螺站(中油直營)","LANDMARKAD":"1000904","ADDRESS":"雲林縣西螺鎮大園里大同路38號","TEL":"05-5862240","COUNTYNAME":"雲林縣","TOWNNAME":"西螺鎮","MARKTYPE":"994","Class":"4"},"geometry":{"x":120.46641526757068,"y":23.798503540608031}},{"attributes":{"OBJECTID":101,"LANDMARKID":"1000900000681","LANDMARKCO":"405","LANDMARKNA":"中油加油站-西螺服務區北上站","LANDMARKAD":"1000904","ADDRESS":"雲林縣西螺鎮振興里高速公路加油站2號之2","TEL":"05-5882005","COUNTYNAME":"雲林縣","TOWNNAME":"西螺鎮","MARKTYPE":"994","Class":"4"},"geometry":{"x":120.47910092822866,"y":23.788387507368224}},{"attributes":{"OBJECTID":102,"LANDMARKID":"1000900000682","LANDMARKCO":"405","LANDMARKNA":"中油加油站-車城站","LANDMARKAD":"1000904","ADDRESS":"雲林縣西螺鎮振興路52-2號","TEL":"05-5873838","COUNTYNAME":"雲林縣","TOWNNAME":"西螺鎮","MARKTYPE":"994","Class":"4"},"geometry":{"x":120.44326372871207,"y":23.758439421353501}},{"attributes":{"OBJECTID":103,"LANDMARKID":"1000900000624","LANDMARKCO":"402","LANDMARKNA":"亞太行動寬頻電信-西螺中山加盟服務中心","LANDMARKAD":"1000904","ADDRESS":"雲林縣西螺鎮中山路132號","TEL":"05-5881889","COUNTYNAME":"雲林縣","TOWNNAME":"西螺鎮","MARKTYPE":"994","Class":"4"},"geometry":{"x":120.45995585698343,"y":23.800108266932721}},{"attributes":{"OBJECTID":104,"LANDMARKID":"1000900000590","LANDMARKCO":"401","LANDMARKNA":"育仁醫院","LANDMARKAD":"1000904","ADDRESS":"雲林縣西螺鎮延平路162號","TEL":"05-5862686","COUNTYNAME":"雲林縣","TOWNNAME":"西螺鎮","MARKTYPE":"994","Class":"4"},"geometry":{"x":120.4608876960676,"y":23.80135184938872}},{"attributes":{"OBJECTID":105,"LANDMARKID":"1000900000591","LANDMARKCO":"401","LANDMARKNA":"慈愛綜合醫院","LANDMARKAD":"1000904","ADDRESS":"雲林縣西螺鎮新豐里新社321之90號","TEL":"05-5871111","COUNTYNAME":"雲林縣","TOWNNAME":"西螺鎮","MARKTYPE":"994","Class":"4"},"geometry":{"x":120.44107638709154,"y":23.781027093162415}},{"attributes":{"OBJECTID":106,"LANDMARKID":"1000900000853","LANDMARKCO":"507","LANDMARKNA":"振文書院","LANDMARKAD":"1000904","ADDRESS":"雲林縣西螺鎮廣福里興農路6號","TEL":" ","COUNTYNAME":"雲林縣","TOWNNAME":"西螺鎮","MARKTYPE":"995","Class":"5"},"geometry":{"x":120.46468282571459,"y":23.794654247149609}},{"attributes":{"OBJECTID":107,"LANDMARKID":"1000900000854","LANDMARKCO":"507","LANDMARKNA":"廖家祠堂","LANDMARKAD":"1000904","ADDRESS":"雲林縣西螺鎮福興里福興路222號","TEL":" ","COUNTYNAME":"雲林縣","TOWNNAME":"西螺鎮","MARKTYPE":"995","Class":"5"},"geometry":{"x":120.46082060449592,"y":23.797835105874533}},{"attributes":{"OBJECTID":108,"LANDMARKID":"1000900000806","LANDMARKCO":"408","LANDMARKNA":"郵局-西螺埔心郵局","LANDMARKAD":"1000904","ADDRESS":"雲林縣西螺鎮埔心路164號","TEL":"(05)5860-166","COUNTYNAME":"雲林縣","TOWNNAME":"西螺鎮","MARKTYPE":"994","Class":"4"},"geometry":{"x":120.44148175507424,"y":23.798186188460885}},{"attributes":{"OBJECTID":109,"LANDMARKID":"1000900000807","LANDMARKCO":"408","LANDMARKNA":"郵局-西螺郵局","LANDMARKAD":"1000904","ADDRESS":"雲林縣西螺鎮福興路167-1號","TEL":"(05)5862-166","COUNTYNAME":"雲林縣","TOWNNAME":"西螺鎮","MARKTYPE":"994","Class":"4"},"geometry":{"x":120.46052820402242,"y":23.799836761529562}},{"attributes":{"OBJECTID":110,"LANDMARKID":"1000900000824","LANDMARKCO":"409","LANDMARKNA":"雲林縣西螺鎮農會","LANDMARKAD":"1000904","ADDRESS":"雲林縣西螺鎮中山路127號","TEL":"05-5863621","COUNTYNAME":"雲林縣","TOWNNAME":"西螺鎮","MARKTYPE":"994","Class":"4"},"geometry":{"x":120.45316383544775,"y":23.800082837946203}},{"attributes":{"OBJECTID":111,"LANDMARKID":"1000900000655","LANDMARKCO":"404","LANDMARKNA":"台灣省自來水西螺營運所","LANDMARKAD":"1000904","ADDRESS":"雲林縣西螺鎮光復東路100號","TEL":" ","COUNTYNAME":"雲林縣","TOWNNAME":"西螺鎮","MARKTYPE":"994","Class":"4"},"geometry":{"x":120.46623763483478,"y":23.8020005157538}},{"attributes":{"OBJECTID":112,"LANDMARKID":"1000900000677","LANDMARKCO":"405","LANDMARKNA":"台亞加油站-西螺站（台塑）","LANDMARKAD":"1000904","ADDRESS":"雲林縣西螺鎮振興里3號西螺休息站內","TEL":"(05)587-3840","COUNTYNAME":"雲林縣","TOWNNAME":"西螺鎮","MARKTYPE":"994","Class":"4"},"geometry":{"x":120.47904392492076,"y":23.791465318855501}},{"attributes":{"OBJECTID":113,"LANDMARKID":"1000900000678","LANDMARKCO":"405","LANDMARKNA":"台塑加油站-三和站(台塑)","LANDMARKAD":"1000904","ADDRESS":"雲林縣西螺鎮埤頭里埤頭78號","TEL":"05-5873226","COUNTYNAME":"雲林縣","TOWNNAME":"西螺鎮","MARKTYPE":"994","Class":"4"},"geometry":{"x":120.47911065000304,"y":23.773657096946803}},{"attributes":{"OBJECTID":114,"LANDMARKID":"1000900000679","LANDMARKCO":"405","LANDMARKNA":"福懋加油站-西螺站(台塑)","LANDMARKAD":"1000904","ADDRESS":"雲林縣西螺鎮新豐里8鄰新社路278-1號","TEL":"05-5866756","COUNTYNAME":"雲林縣","TOWNNAME":"西螺鎮","MARKTYPE":"994","Class":"4"},"geometry":{"x":120.44720766947802,"y":23.787134991875764}},{"attributes":{"OBJECTID":115,"LANDMARKID":"1000900000084","LANDMARKCO":"103","LANDMARKNA":"雲林縣西螺鎮鎮民代表會","LANDMARKAD":"1000904","ADDRESS":"雲林縣西螺鎮公正路200號","TEL":"05-5862057","COUNTYNAME":"雲林縣","TOWNNAME":"西螺鎮","MARKTYPE":"991","Class":"1"},"geometry":{"x":120.46198495910822,"y":23.800383641964387}},{"attributes":{"OBJECTID":116,"LANDMARKID":"1000900000192","LANDMARKCO":"107","LANDMARKNA":"雲林縣警察局西螺分局","LANDMARKAD":"1000904","ADDRESS":"雲林縣西螺鎮公正路213號","TEL":"05-5862301","COUNTYNAME":"雲林縣","TOWNNAME":"西螺鎮","MARKTYPE":"991","Class":"1"},"geometry":{"x":120.46170721740903,"y":23.800742891501748}},{"attributes":{"OBJECTID":117,"LANDMARKID":"1000900000193","LANDMARKCO":"107","LANDMARKNA":"雲林縣警察局西螺派出所","LANDMARKAD":"1000904","ADDRESS":"雲林縣西螺鎮公正路213號","TEL":"05-5862014","COUNTYNAME":"雲林縣","TOWNNAME":"西螺鎮","MARKTYPE":"991","Class":"1"},"geometry":{"x":120.46168684701036,"y":23.800833046322683}},{"attributes":{"OBJECTID":118,"LANDMARKID":"1000900000232","LANDMARKCO":"108","LANDMARKNA":"雲林縣西螺鎮公所","LANDMARKAD":"1000904","ADDRESS":"雲林縣西螺鎮光復西路20號","TEL":"05-5863203","COUNTYNAME":"雲林縣","TOWNNAME":"西螺鎮","MARKTYPE":"991","Class":"1"},"geometry":{"x":120.4653492999992,"y":23.798014462158374}},{"attributes":{"OBJECTID":119,"LANDMARKID":"1000900000083","LANDMARKCO":"103","LANDMARKNA":"雲林縣西螺鎮衛生所","LANDMARKAD":"1000904","ADDRESS":"雲林縣西螺鎮修文路110號","TEL":"05-5862130","COUNTYNAME":"雲林縣","TOWNNAME":"西螺鎮","MARKTYPE":"991","Class":"1"},"geometry":{"x":120.45966250039267,"y":23.802080946379277}},{"attributes":{"OBJECTID":120,"LANDMARKID":"1000900000194","LANDMARKCO":"107","LANDMARKNA":"雲林縣消防局西螺消防分隊","LANDMARKAD":"1000904","ADDRESS":"雲林縣西螺鎮公正路211號","TEL":"05-5862012","COUNTYNAME":"雲林縣","TOWNNAME":"西螺鎮","MARKTYPE":"991","Class":"1"},"geometry":{"x":120.46175310671623,"y":23.800628445031762}},{"attributes":{"OBJECTID":121,"LANDMARKID":"1000900000195","LANDMARKCO":"107","LANDMARKNA":"雲林縣警察局和心派出所","LANDMARKAD":"1000904","ADDRESS":"雲林縣西螺鎮埔心路146號","TEL":"05-5862544","COUNTYNAME":"雲林縣","TOWNNAME":"西螺鎮","MARKTYPE":"991","Class":"1"},"geometry":{"x":120.44203713235937,"y":23.798682812371766}},{"attributes":{"OBJECTID":122,"LANDMARKID":"1000900000116","LANDMARKCO":"106","LANDMARKNA":"雲林縣西螺鎮戶政事務所","LANDMARKAD":"1000904","ADDRESS":"雲林縣西螺鎮中山路292號","TEL":"05-5862127","COUNTYNAME":"雲林縣","TOWNNAME":"西螺鎮","MARKTYPE":"991","Class":"1"},"geometry":{"x":120.45475417664038,"y":23.79944582745637}},{"attributes":{"OBJECTID":123,"LANDMARKID":"1000900000107","LANDMARKCO":"105","LANDMARKNA":"雲林縣西螺地政事務所","LANDMARKAD":"1000904","ADDRESS":"雲林縣西螺鎮中山路66號","TEL":"05-5862028","COUNTYNAME":"雲林縣","TOWNNAME":"西螺鎮","MARKTYPE":"991","Class":"1"},"geometry":{"x":120.4624063711159,"y":23.80022675426121}},{"attributes":{"OBJECTID":124,"LANDMARKID":"1000900000001","LANDMARKCO":"101","LANDMARKNA":"水利署第四河川局西螺雨量站","LANDMARKAD":"1000904","ADDRESS":"雲林縣西螺鎮中山路2號","TEL":"05-5872348","COUNTYNAME":"雲林縣","TOWNNAME":"西螺鎮","MARKTYPE":"991","Class":"1"},"geometry":{"x":120.46483605151664,"y":23.800326073618525}},{"attributes":{"OBJECTID":125,"LANDMARKID":"1000900000196","LANDMARKCO":"107","LANDMARKNA":"雲林縣警察局吳厝派出所","LANDMARKAD":"1000904","ADDRESS":"雲林縣西螺鎮吳厝里吳庴51號","TEL":"05-5862484","COUNTYNAME":"雲林縣","TOWNNAME":"西螺鎮","MARKTYPE":"991","Class":"1"},"geometry":{"x":120.42354776459476,"y":23.744263652529202}},{"attributes":{"OBJECTID":126,"LANDMARKID":"1000900000197","LANDMARKCO":"107","LANDMARKNA":"雲林縣警察局埤源派出所","LANDMARKAD":"1000904","ADDRESS":"雲林縣西螺鎮埤頭里埤頭路75號","TEL":"05-5862384","COUNTYNAME":"雲林縣","TOWNNAME":"西螺鎮","MARKTYPE":"991","Class":"1"},"geometry":{"x":120.47741440519258,"y":23.773894883462813}},{"attributes":{"OBJECTID":127,"LANDMARKID":"1000900000479","LANDMARKCO":"204","LANDMARKNA":"雲林縣立圖書館西螺分館","LANDMARKAD":"1000904","ADDRESS":"雲林縣西螺鎮民生路20號","TEL":" ","COUNTYNAME":"雲林縣","TOWNNAME":"西螺鎮","MARKTYPE":"992","Class":"2"},"geometry":{"x":120.46535410134467,"y":23.798166806370343}},{"attributes":{"OBJECTID":128,"LANDMARKID":"1000900000463","LANDMARKCO":"203","LANDMARKNA":"私立東南國中","LANDMARKAD":"1000904","ADDRESS":"雲林縣西螺鎮西興路152號","TEL":"05-5874176","COUNTYNAME":"雲林縣","TOWNNAME":"西螺鎮","MARKTYPE":"992","Class":"2"},"geometry":{"x":120.45164281529412,"y":23.803961857104298}},{"attributes":{"OBJECTID":129,"LANDMARKID":"1000900000464","LANDMARKCO":"203","LANDMARKNA":"縣立文昌國小","LANDMARKAD":"1000904","ADDRESS":"雲林縣西螺鎮中興里延平路504號","TEL":"05-5862013","COUNTYNAME":"雲林縣","TOWNNAME":"西螺鎮","MARKTYPE":"992","Class":"2"},"geometry":{"x":120.45193772294857,"y":23.801345391594477}},{"attributes":{"OBJECTID":130,"LANDMARKID":"1000900000465","LANDMARKCO":"203","LANDMARKNA":"縣立廣興國小","LANDMARKAD":"1000904","ADDRESS":"雲林縣西螺鎮廣興里廣興路59號","TEL":"05-5863094","COUNTYNAME":"雲林縣","TOWNNAME":"西螺鎮","MARKTYPE":"992","Class":"2"},"geometry":{"x":120.45828823368051,"y":23.766787306711429}},{"attributes":{"OBJECTID":131,"LANDMARKID":"1000900000251","LANDMARKCO":"202","LANDMARKNA":"國立西螺農工","LANDMARKAD":"1000904","ADDRESS":"雲林縣西螺鎮大同路4號","TEL":"05-5862024","COUNTYNAME":"雲林縣","TOWNNAME":"西螺鎮","MARKTYPE":"992","Class":"2"},"geometry":{"x":120.47099196907175,"y":23.794565531410431}},{"attributes":{"OBJECTID":132,"LANDMARKID":"1000900000460","LANDMARKCO":"203","LANDMARKNA":"縣立西螺國中","LANDMARKAD":"1000904","ADDRESS":"雲林縣西螺鎮興農西路217號","TEL":"05-5866030","COUNTYNAME":"雲林縣","TOWNNAME":"西螺鎮","MARKTYPE":"992","Class":"2"},"geometry":{"x":120.46006462352017,"y":23.792815100425457}},{"attributes":{"OBJECTID":133,"LANDMARKID":"1000900000461","LANDMARKCO":"203","LANDMARKNA":"縣立安定國小","LANDMARKAD":"1000904","ADDRESS":"雲林縣西螺鎮河南里埔心路210號","TEL":"05-5863154","COUNTYNAME":"雲林縣","TOWNNAME":"西螺鎮","MARKTYPE":"992","Class":"2"},"geometry":{"x":120.43929286184544,"y":23.798162727719937}},{"attributes":{"OBJECTID":134,"LANDMARKID":"1000900000462","LANDMARKCO":"203","LANDMARKNA":"縣立中山國小","LANDMARKAD":"1000904","ADDRESS":"雲林縣西螺鎮廣福里新街路2號","TEL":"05-5862039","COUNTYNAME":"雲林縣","TOWNNAME":"西螺鎮","MARKTYPE":"992","Class":"2"},"geometry":{"x":120.46526526210256,"y":23.795322984967957}},{"attributes":{"OBJECTID":135,"LANDMARKID":"1000900000249","LANDMARKCO":"201","LANDMARKNA":"私立浸宣神學院","LANDMARKAD":"1000904","ADDRESS":"雲林縣西螺鎮文昌路107號","TEL":"05-5865164","COUNTYNAME":"雲林縣","TOWNNAME":"西螺鎮","MARKTYPE":"992","Class":"2"},"geometry":{"x":120.46345595853904,"y":23.798273668081851}},{"attributes":{"OBJECTID":136,"LANDMARKID":"1000900000469","LANDMARKCO":"203","LANDMARKNA":"縣立文興國小","LANDMARKAD":"1000904","ADDRESS":"雲林縣西螺鎮新豐里新社路257號","TEL":"05-5863174","COUNTYNAME":"雲林縣","TOWNNAME":"西螺鎮","MARKTYPE":"992","Class":"2"},"geometry":{"x":120.44473490390955,"y":23.78858216803323}},{"attributes":{"OBJECTID":137,"LANDMARKID":"1000900000250","LANDMARKCO":"202","LANDMARKNA":"國立西螺農工分部","LANDMARKAD":"1000904","ADDRESS":"雲林縣西螺鎮","TEL":" ","COUNTYNAME":"雲林縣","TOWNNAME":"西螺鎮","MARKTYPE":"992","Class":"2"},"geometry":{"x":120.45875530585899,"y":23.792785972934752}},{"attributes":{"OBJECTID":138,"LANDMARKID":"1000900000466","LANDMARKCO":"203","LANDMARKNA":"縣立文賢國小","LANDMARKAD":"1000904","ADDRESS":"雲林縣西螺鎮公館里1號","TEL":"05-5863164","COUNTYNAME":"雲林縣","TOWNNAME":"西螺鎮","MARKTYPE":"992","Class":"2"},"geometry":{"x":120.46421939412193,"y":23.74801798567265}},{"attributes":{"OBJECTID":139,"LANDMARKID":"1000900000467","LANDMARKCO":"203","LANDMARKNA":"縣立大新國小","LANDMARKAD":"1000904","ADDRESS":"雲林縣西螺鎮大新里215號","TEL":"05-5862974","COUNTYNAME":"雲林縣","TOWNNAME":"西螺鎮","MARKTYPE":"992","Class":"2"},"geometry":{"x":120.48664500579181,"y":23.789992088900821}},{"attributes":{"OBJECTID":140,"LANDMARKID":"1000900000468","LANDMARKCO":"203","LANDMARKNA":"縣立吳厝國小","LANDMARKAD":"1000904","ADDRESS":"雲林縣西螺鎮九隆里44號","TEL":"05-5863074","COUNTYNAME":"雲林縣","TOWNNAME":"西螺鎮","MARKTYPE":"992","Class":"2"},"geometry":{"x":120.43195626693905,"y":23.751608924166923}},{"attributes":{"OBJECTID":141,"LANDMARKID":"1000900000556","LANDMARKCO":"308","LANDMARKNA":"西螺服務區","LANDMARKAD":"1000904","ADDRESS":" ","TEL":" ","COUNTYNAME":"雲林縣","TOWNNAME":"西螺鎮","MARKTYPE":"993","Class":"308"},"geometry":{"x":120.4782288812886,"y":23.789409392305359}},{"attributes":{"OBJECTID":142,"LANDMARKID":"1000900000557","LANDMARKCO":"308","LANDMARKNA":"國1-西螺交流道-北上","LANDMARKAD":"1000904","ADDRESS":"雲林縣西螺鎮","TEL":" ","COUNTYNAME":"雲林縣","TOWNNAME":"西螺鎮","MARKTYPE":"993","Class":"308"},"geometry":{"x":120.47682610321476,"y":23.781192317424342}},{"attributes":{"OBJECTID":143,"LANDMARKID":"1000900000558","LANDMARKCO":"308","LANDMARKNA":"國1-西螺交流道-南下","LANDMARKAD":"1000904","ADDRESS":"雲林縣西螺鎮","TEL":" ","COUNTYNAME":"雲林縣","TOWNNAME":"西螺鎮","MARKTYPE":"993","Class":"308"},"geometry":{"x":120.473317190464,"y":23.777551379313167}},{"attributes":{"OBJECTID":144,"LANDMARKID":"1000900000509","LANDMARKCO":"302","LANDMARKNA":"國光汽車客運西螺站","LANDMARKAD":"1000904","ADDRESS":"雲林縣西螺鎮中山路70號","TEL":" ","COUNTYNAME":"雲林縣","TOWNNAME":"西螺鎮","MARKTYPE":"993","Class":"302"},"geometry":{"x":120.46173466765455,"y":23.800167724177481}},{"attributes":{"OBJECTID":145,"LANDMARKID":"1000900000621","LANDMARKCO":"402","LANDMARKNA":"遠傳電信-西螺中山門市","LANDMARKAD":"1000904","ADDRESS":"雲林縣西螺鎮中山路106號","TEL":" ","COUNTYNAME":"雲林縣","TOWNNAME":"西螺鎮","MARKTYPE":"994","Class":"4"},"geometry":{"x":120.46073108438758,"y":23.800113724106993}},{"attributes":{"OBJECTID":146,"LANDMARKID":"1000900000622","LANDMARKCO":"402","LANDMARKNA":"威寶電信-西螺中山特約服務中心","LANDMARKAD":"1000904","ADDRESS":"雲林縣西螺鎮中山路130號","TEL":"05-5872797","COUNTYNAME":"雲林縣","TOWNNAME":"西螺鎮","MARKTYPE":"994","Class":"4"},"geometry":{"x":120.45997548312322,"y":23.800108439461226}},{"attributes":{"OBJECTID":147,"LANDMARKID":"1000900000623","LANDMARKCO":"402","LANDMARKNA":"中華電信-西螺服務中心","LANDMARKAD":"1000904","ADDRESS":"雲林縣西螺鎮福興路167號","TEL":"(05)586-4945","COUNTYNAME":"雲林縣","TOWNNAME":"西螺鎮","MARKTYPE":"994","Class":"4"},"geometry":{"x":120.46053035198409,"y":23.799558768415888}},{"attributes":{"OBJECTID":148,"LANDMARKID":"1000900000898","LANDMARKCO":"603","LANDMARKNA":"七彩湖汽車旅館","LANDMARKAD":"1000904","ADDRESS":"雲林縣西螺鎮大同路1號1-2樓","TEL":"05-5882345","COUNTYNAME":"雲林縣","TOWNNAME":"西螺鎮","MARKTYPE":"996","Class":"6"},"geometry":{"x":120.46854350051008,"y":23.793420941820767}},{"attributes":{"OBJECTID":149,"LANDMARKID":"1000900000899","LANDMARKCO":"603","LANDMARKNA":"愛琴海花園汽車旅館","LANDMARKAD":"1000904","ADDRESS":"雲林縣西螺鎮光復東路27號","TEL":"05-5875088","COUNTYNAME":"雲林縣","TOWNNAME":"西螺鎮","MARKTYPE":"996","Class":"6"},"geometry":{"x":120.46764400018489,"y":23.798200394260594}},{"attributes":{"OBJECTID":150,"LANDMARKID":"1000900000900","LANDMARKCO":"603","LANDMARKNA":"文都大旅社","LANDMARKAD":"1000904","ADDRESS":"雲林縣西螺鎮延平路360號","TEL":"05-5862272","COUNTYNAME":"雲林縣","TOWNNAME":"西螺鎮","MARKTYPE":"996","Class":"6"},"geometry":{"x":120.45673099345903,"y":23.80083586956988}},{"attributes":{"OBJECTID":151,"LANDMARKID":"1000900000901","LANDMARKCO":"603","LANDMARKNA":"大通旅社","LANDMARKAD":"1000904","ADDRESS":"雲林縣西螺鎮延平路304號","TEL":"05-5878791","COUNTYNAME":"雲林縣","TOWNNAME":"西螺鎮","MARKTYPE":"996","Class":"6"},"geometry":{"x":120.45780931125664,"y":23.800978900635666}},{"attributes":{"OBJECTID":152,"LANDMARKID":"1000900000902","LANDMARKCO":"603","LANDMARKNA":"一生大旅社","LANDMARKAD":"1000904","ADDRESS":"雲林縣西螺鎮建興路295號","TEL":"05-5862124","COUNTYNAME":"雲林縣","TOWNNAME":"西螺鎮","MARKTYPE":"996","Class":"6"},"geometry":{"x":120.45911474082273,"y":23.802134084731609}},{"attributes":{"OBJECTID":153,"LANDMARKID":"1000900000903","LANDMARKCO":"603","LANDMARKNA":"三好商務汽車旅館","LANDMARKAD":"1000904","ADDRESS":"雲林縣西螺鎮埤頭里埤頭78-2號","TEL":"05-5878111","COUNTYNAME":"雲林縣","TOWNNAME":"西螺鎮","MARKTYPE":"996","Class":"6"},"geometry":{"x":120.47911372397655,"y":23.773653144227968}},{"attributes":{"OBJECTID":154,"LANDMARKID":"1000900000683","LANDMARKCO":"405","LANDMARKNA":"中油加油站-義和站(刷卡自助)(中油直營)","LANDMARKAD":"1000909","ADDRESS":"雲林縣莿桐鄉義和村三和37-5號","TEL":"05-5844090","COUNTYNAME":"雲林縣","TOWNNAME":"莿桐鄉","MARKTYPE":"994","Class":"4"},"geometry":{"x":120.47881963400849,"y":23.775612431482692}},{"attributes":{"OBJECTID":155,"LANDMARKID":"1000900000684","LANDMARKCO":"405","LANDMARKNA":"中油加油站-莿桐站(中油直營)","LANDMARKAD":"1000909","ADDRESS":"雲林縣莿桐鄉中山路251號","TEL":"05-5842054","COUNTYNAME":"雲林縣","TOWNNAME":"莿桐鄉","MARKTYPE":"994","Class":"4"},"geometry":{"x":120.49750421972512,"y":23.759954282752908}},{"attributes":{"OBJECTID":156,"LANDMARKID":"1000900000804","LANDMARKCO":"408","LANDMARKNA":"郵局-莿桐郵局","LANDMARKAD":"1000909","ADDRESS":"雲林縣莿桐鄉中山路71號","TEL":"(05)5842-419","COUNTYNAME":"雲林縣","TOWNNAME":"莿桐鄉","MARKTYPE":"994","Class":"4"},"geometry":{"x":120.49946344854082,"y":23.756277970313665}},{"attributes":{"OBJECTID":157,"LANDMARKID":"1000900000805","LANDMARKCO":"408","LANDMARKNA":"郵局-莿桐饒平郵局","LANDMARKAD":"1000909","ADDRESS":"雲林縣莿桐鄉永基路24-12號","TEL":"(05)5711-045","COUNTYNAME":"雲林縣","TOWNNAME":"莿桐鄉","MARKTYPE":"994","Class":"4"},"geometry":{"x":120.54486174460385,"y":23.777372301974498}},{"attributes":{"OBJECTID":158,"LANDMARKID":"1000900000825","LANDMARKCO":"409","LANDMARKNA":"雲林縣莿桐鄉農會","LANDMARKAD":"1000909","ADDRESS":"雲林縣莿桐鄉莿桐村中正路54號","TEL":"05-5846161","COUNTYNAME":"雲林縣","TOWNNAME":"莿桐鄉","MARKTYPE":"994","Class":"4"},"geometry":{"x":120.50262128401083,"y":23.756940228724904}},{"attributes":{"OBJECTID":159,"LANDMARKID":"1000900000685","LANDMARKCO":"405","LANDMARKNA":"台塑加油站-翔鴻站(台塑)","LANDMARKAD":"1000909","ADDRESS":"雲林縣莿桐鄉麻園榮貫101-11號","TEL":"05-5712802","COUNTYNAME":"雲林縣","TOWNNAME":"莿桐鄉","MARKTYPE":"994","Class":"4"},"geometry":{"x":120.53535571822277,"y":23.77287424699421}},{"attributes":{"OBJECTID":160,"LANDMARKID":"1000900000686","LANDMARKCO":"405","LANDMARKNA":"福懋加油站-莿桐站(台塑)","LANDMARKAD":"1000909","ADDRESS":"雲林縣莿桐鄉中正路31號","TEL":"05-5845111","COUNTYNAME":"雲林縣","TOWNNAME":"莿桐鄉","MARKTYPE":"994","Class":"4"},"geometry":{"x":120.50328857034339,"y":23.756273393234995}},{"attributes":{"OBJECTID":161,"LANDMARKID":"1000900000226","LANDMARKCO":"108","LANDMARKNA":"雲林縣莿桐鄉公所","LANDMARKAD":"1000909","ADDRESS":"雲林縣莿桐鄉莿桐村和平路53號","TEL":"05-5844661","COUNTYNAME":"雲林縣","TOWNNAME":"莿桐鄉","MARKTYPE":"991","Class":"1"},"geometry":{"x":120.50266074619287,"y":23.760889141937554}},{"attributes":{"OBJECTID":162,"LANDMARKID":"1000900000086","LANDMARKCO":"103","LANDMARKNA":"雲林縣莿桐鄉鄉民代表會","LANDMARKAD":"1000909","ADDRESS":"雲林縣莿桐鄉和平路53號之1","TEL":"05-5842050","COUNTYNAME":"雲林縣","TOWNNAME":"莿桐鄉","MARKTYPE":"991","Class":"1"},"geometry":{"x":120.50266074619287,"y":23.760889141937554}},{"attributes":{"OBJECTID":163,"LANDMARKID":"1000900000087","LANDMARKCO":"103","LANDMARKNA":"雲林縣莿桐鄉衛生所","LANDMARKAD":"1000909","ADDRESS":"雲林縣莿桐鄉和平路53之2號","TEL":"05-5842575","COUNTYNAME":"雲林縣","TOWNNAME":"莿桐鄉","MARKTYPE":"991","Class":"1"},"geometry":{"x":120.50210613746471,"y":23.761130511696003}},{"attributes":{"OBJECTID":164,"LANDMARKID":"1000900000189","LANDMARKCO":"107","LANDMARKNA":"雲林縣消防局莿桐消防分隊","LANDMARKAD":"1000909","ADDRESS":"雲林縣莿桐鄉中山路170號","TEL":"05-5842094","COUNTYNAME":"雲林縣","TOWNNAME":"莿桐鄉","MARKTYPE":"991","Class":"1"},"geometry":{"x":120.49991405459546,"y":23.759333720100859}},{"attributes":{"OBJECTID":165,"LANDMARKID":"1000900000190","LANDMARKCO":"107","LANDMARKNA":"雲林縣警察局饒平派出所","LANDMARKAD":"1000909","ADDRESS":"雲林縣莿桐鄉饒平村饒平路179號","TEL":"05-5842034","COUNTYNAME":"雲林縣","TOWNNAME":"莿桐鄉","MARKTYPE":"991","Class":"1"},"geometry":{"x":120.51907237213091,"y":23.779624489829047}},{"attributes":{"OBJECTID":166,"LANDMARKID":"1000900000191","LANDMARKCO":"107","LANDMARKNA":"雲林縣警察局莿桐分駐所","LANDMARKAD":"1000909","ADDRESS":"雲林縣莿桐鄉莿桐村中山路170號","TEL":"05-5842025","COUNTYNAME":"雲林縣","TOWNNAME":"莿桐鄉","MARKTYPE":"991","Class":"1"},"geometry":{"x":120.49991405459546,"y":23.759333720100859}},{"attributes":{"OBJECTID":167,"LANDMARKID":"1000900000108","LANDMARKCO":"106","LANDMARKNA":"雲林縣莿桐鄉戶政事務所","LANDMARKAD":"1000909","ADDRESS":"雲林縣莿桐鄉莿桐村1鄰中山路170號","TEL":"05-5842049","COUNTYNAME":"雲林縣","TOWNNAME":"莿桐鄉","MARKTYPE":"991","Class":"1"},"geometry":{"x":120.49991405459546,"y":23.759333720100859}},{"attributes":{"OBJECTID":168,"LANDMARKID":"1000900000484","LANDMARKCO":"204","LANDMARKNA":"雲林縣立圖書館莿桐分館","LANDMARKAD":"1000909","ADDRESS":"雲林縣莿桐鄉和平路53之1號2樓","TEL":" ","COUNTYNAME":"雲林縣","TOWNNAME":"莿桐鄉","MARKTYPE":"992","Class":"2"},"geometry":{"x":120.50252525680872,"y":23.76093975742716}},{"attributes":{"OBJECTID":169,"LANDMARKID":"1000900000424","LANDMARKCO":"203","LANDMARKNA":"縣立莿桐國小","LANDMARKAD":"1000909","ADDRESS":"雲林縣莿桐鄉莿桐村中正路147號","TEL":"05-5842065","COUNTYNAME":"雲林縣","TOWNNAME":"莿桐鄉","MARKTYPE":"992","Class":"2"},"geometry":{"x":120.49855713202274,"y":23.757140574037955}},{"attributes":{"OBJECTID":170,"LANDMARKID":"1000900000425","LANDMARKCO":"203","LANDMARKNA":"縣立僑和國小","LANDMARKAD":"1000909","ADDRESS":"雲林縣莿桐鄉興桐村新庄1號","TEL":"05-5842230","COUNTYNAME":"雲林縣","TOWNNAME":"莿桐鄉","MARKTYPE":"992","Class":"2"},"geometry":{"x":120.55891961995353,"y":23.768991065650106}},{"attributes":{"OBJECTID":171,"LANDMARKID":"1000900000426","LANDMARKCO":"203","LANDMARKNA":"縣立饒平國小","LANDMARKAD":"1000909","ADDRESS":"雲林縣莿桐鄉饒平村饒平路1號","TEL":"05-5842071","COUNTYNAME":"雲林縣","TOWNNAME":"莿桐鄉","MARKTYPE":"992","Class":"2"},"geometry":{"x":120.52225784704034,"y":23.777361901379312}},{"attributes":{"OBJECTID":172,"LANDMARKID":"1000900000427","LANDMARKCO":"203","LANDMARKNA":"縣立莿桐國中","LANDMARKAD":"1000909","ADDRESS":"雲林縣莿桐鄉農校路1號","TEL":"05-5842014","COUNTYNAME":"雲林縣","TOWNNAME":"莿桐鄉","MARKTYPE":"992","Class":"2"},"geometry":{"x":120.50663123103638,"y":23.75005769511445}},{"attributes":{"OBJECTID":173,"LANDMARKID":"1000900000428","LANDMARKCO":"203","LANDMARKNA":"縣立六合國小","LANDMARKAD":"1000909","ADDRESS":"雲林縣莿桐鄉六合村東興路63號","TEL":"05-5842810","COUNTYNAME":"雲林縣","TOWNNAME":"莿桐鄉","MARKTYPE":"992","Class":"2"},"geometry":{"x":120.56303748464209,"y":23.768650062175933}},{"attributes":{"OBJECTID":174,"LANDMARKID":"1000900000429","LANDMARKCO":"203","LANDMARKNA":"縣立大美國小","LANDMARKAD":"1000909","ADDRESS":"雲林縣莿桐鄉大美村23號","TEL":"05-5842504","COUNTYNAME":"雲林縣","TOWNNAME":"莿桐鄉","MARKTYPE":"992","Class":"2"},"geometry":{"x":120.5140012164299,"y":23.737436455896876}},{"attributes":{"OBJECTID":175,"LANDMARKID":"1000900000430","LANDMARKCO":"203","LANDMARKNA":"縣立育仁國小","LANDMARKAD":"1000909","ADDRESS":"雲林縣莿桐鄉甘厝村75號","TEL":"05-5842525","COUNTYNAME":"雲林縣","TOWNNAME":"莿桐鄉","MARKTYPE":"992","Class":"2"},"geometry":{"x":120.48701872879728,"y":23.75821040851217}},{"attributes":{"OBJECTID":176,"LANDMARKID":"1000900000534","LANDMARKCO":"303","LANDMARKNA":"荊桐鄉分駐所停車場","LANDMARKAD":"1000909","ADDRESS":"雲林縣莿桐鄉","TEL":" ","COUNTYNAME":"雲林縣","TOWNNAME":"莿桐鄉","MARKTYPE":"993","Class":"303"},"geometry":{"x":120.512478148681,"y":23.771012927404811}},{"attributes":{"OBJECTID":177,"LANDMARKID":"1000900000635","LANDMARKCO":"402","LANDMARKNA":"中華電信-莿桐服務中心","LANDMARKAD":"1000909","ADDRESS":"雲林縣莿桐鄉和平路74號","TEL":"(05)584-1444","COUNTYNAME":"雲林縣","TOWNNAME":"莿桐鄉","MARKTYPE":"994","Class":"4"},"geometry":{"x":120.50321604278045,"y":23.760871288166204}},{"attributes":{"OBJECTID":178,"LANDMARKID":"1000900000909","LANDMARKCO":"603","LANDMARKNA":"來來渡假旅館","LANDMARKAD":"1000909","ADDRESS":"雲林縣莿桐鄉大美村大美90-36號","TEL":"05-5841684","COUNTYNAME":"雲林縣","TOWNNAME":"莿桐鄉","MARKTYPE":"996","Class":"6"},"geometry":{"x":120.51556301698029,"y":23.741184551371688}},{"attributes":{"OBJECTID":179,"LANDMARKID":"1000900000718","LANDMARKCO":"405","LANDMARKNA":"山隆加油站-林內站中油）","LANDMARKAD":"1000910","ADDRESS":"雲林縣林內鄉九芎村大埔3-5號","TEL":"(05)589-0850","COUNTYNAME":"雲林縣","TOWNNAME":"林內鄉","MARKTYPE":"994","Class":"4"},"geometry":{"x":120.59720335014356,"y":23.734786316659147}},{"attributes":{"OBJECTID":180,"LANDMARKID":"1000900000719","LANDMARKCO":"405","LANDMARKNA":"中油加油站-林內站(中油直營)","LANDMARKAD":"1000910","ADDRESS":"雲林縣林內鄉林中村中正路532號","TEL":"05-5892048","COUNTYNAME":"雲林縣","TOWNNAME":"林內鄉","MARKTYPE":"994","Class":"4"},"geometry":{"x":120.61066319044536,"y":23.752334906845618}},{"attributes":{"OBJECTID":181,"LANDMARKID":"1000900000720","LANDMARKCO":"405","LANDMARKNA":"中油加油站-金鼎山站","LANDMARKAD":"1000910","ADDRESS":"雲林縣林內鄉中正路541-1號","TEL":"055-897286","COUNTYNAME":"雲林縣","TOWNNAME":"林內鄉","MARKTYPE":"994","Class":"4"},"geometry":{"x":120.6111981085903,"y":23.751957203662595}},{"attributes":{"OBJECTID":182,"LANDMARKID":"1000900000852","LANDMARKCO":"506","LANDMARKNA":"草莓觀光農園","LANDMARKAD":"1000910","ADDRESS":"雲林縣林內鄉新光路與瑞農路交叉路","TEL":"05-5892002","COUNTYNAME":"雲林縣","TOWNNAME":"林內鄉","MARKTYPE":"995","Class":"5"},"geometry":{"x":120.63558330795496,"y":23.786301078142305}},{"attributes":{"OBJECTID":183,"LANDMARKID":"1000900000797","LANDMARKCO":"408","LANDMARKNA":"郵局-林內郵局","LANDMARKAD":"1000910","ADDRESS":"雲林縣林內鄉中正路332號","TEL":"(05)5892-054","COUNTYNAME":"雲林縣","TOWNNAME":"林內鄉","MARKTYPE":"994","Class":"4"},"geometry":{"x":120.61340943817112,"y":23.756359753209761}},{"attributes":{"OBJECTID":184,"LANDMARKID":"1000900000829","LANDMARKCO":"409","LANDMARKNA":"雲林縣林內鄉農會","LANDMARKAD":"1000910","ADDRESS":"雲林縣林內鄉林中村中西路21號","TEL":"05-5892002","COUNTYNAME":"雲林縣","TOWNNAME":"林內鄉","MARKTYPE":"994","Class":"4"},"geometry":{"x":120.61208558195169,"y":23.760082661769658}},{"attributes":{"OBJECTID":185,"LANDMARKID":"1000900000650","LANDMARKCO":"404","LANDMARKNA":"台灣省自來水林內營運所","LANDMARKAD":"1000910","ADDRESS":"雲林縣林內鄉林中村中正路338號","TEL":" ","COUNTYNAME":"雲林縣","TOWNNAME":"林內鄉","MARKTYPE":"994","Class":"4"},"geometry":{"x":120.6131498305177,"y":23.75621499901553}},{"attributes":{"OBJECTID":186,"LANDMARKID":"1000900000717","LANDMARKCO":"405","LANDMARKNA":"台塑加油站-達興站(台塑)","LANDMARKAD":"1000910","ADDRESS":"雲林縣林內鄉九芎村大埔113號","TEL":"05-5898201-2","COUNTYNAME":"雲林縣","TOWNNAME":"林內鄉","MARKTYPE":"994","Class":"4"},"geometry":{"x":120.59913385656003,"y":23.738267204304183}},{"attributes":{"OBJECTID":187,"LANDMARKID":"1000900000225","LANDMARKCO":"108","LANDMARKNA":"雲林縣林內鄉公所","LANDMARKAD":"1000910","ADDRESS":"雲林縣林內鄉林中村中正路340號","TEL":"05-5892001","COUNTYNAME":"雲林縣","TOWNNAME":"林內鄉","MARKTYPE":"991","Class":"1"},"geometry":{"x":120.61296848556999,"y":23.756156271575446}},{"attributes":{"OBJECTID":188,"LANDMARKID":"1000900000080","LANDMARKCO":"103","LANDMARKNA":"雲林縣林內鄉鄉民代表會","LANDMARKAD":"1000910","ADDRESS":"雲林縣林內鄉中正路340號之1","TEL":"05-5892165","COUNTYNAME":"雲林縣","TOWNNAME":"林內鄉","MARKTYPE":"991","Class":"1"},"geometry":{"x":120.61296848556999,"y":23.756156271575446}},{"attributes":{"OBJECTID":189,"LANDMARKID":"1000900000222","LANDMARKCO":"107","LANDMARKNA":"雲林縣消防局林內消防分隊","LANDMARKAD":"1000910","ADDRESS":"雲林縣林內鄉中山路1號","TEL":"05-5891360","COUNTYNAME":"雲林縣","TOWNNAME":"林內鄉","MARKTYPE":"991","Class":"1"},"geometry":{"x":120.61649059805569,"y":23.758381224312966}},{"attributes":{"OBJECTID":190,"LANDMARKID":"1000900000223","LANDMARKCO":"107","LANDMARKNA":"雲林縣警察局林內分駐所","LANDMARKAD":"1000910","ADDRESS":"雲林縣林內鄉林南村中山路1號","TEL":"05-5892404","COUNTYNAME":"雲林縣","TOWNNAME":"林內鄉","MARKTYPE":"991","Class":"1"},"geometry":{"x":120.61649059805569,"y":23.758381224312966}},{"attributes":{"OBJECTID":191,"LANDMARKID":"1000900000109","LANDMARKCO":"106","LANDMARKNA":"雲林縣林內鄉戶政事務所","LANDMARKAD":"1000910","ADDRESS":"雲林縣林內鄉林南村22鄰中山路1號","TEL":"05-5892694","COUNTYNAME":"雲林縣","TOWNNAME":"林內鄉","MARKTYPE":"991","Class":"1"},"geometry":{"x":120.61649059805569,"y":23.758381224312966}},{"attributes":{"OBJECTID":192,"LANDMARKID":"1000900000002","LANDMARKCO":"101","LANDMARKNA":"林務局南投林區管理處林內分站","LANDMARKAD":"1000910","ADDRESS":"雲林縣林內鄉中正東路49號","TEL":"05-5892031","COUNTYNAME":"雲林縣","TOWNNAME":"林內鄉","MARKTYPE":"991","Class":"1"},"geometry":{"x":120.62413878208665,"y":23.765418204840895}},{"attributes":{"OBJECTID":193,"LANDMARKID":"1000900000079","LANDMARKCO":"103","LANDMARKNA":"雲林縣林內鄉衛生所","LANDMARKAD":"1000910","ADDRESS":"雲林縣林內鄉新興路54號","TEL":"05-5896747#5","COUNTYNAME":"雲林縣","TOWNNAME":"林內鄉","MARKTYPE":"991","Class":"1"},"geometry":{"x":120.61262202782241,"y":23.759841287061796}},{"attributes":{"OBJECTID":194,"LANDMARKID":"1000900000224","LANDMARKCO":"107","LANDMARKNA":"雲林縣警察局重興派出所","LANDMARKAD":"1000910","ADDRESS":"雲林縣林內鄉重興村重興路70號","TEL":"05-5892514","COUNTYNAME":"雲林縣","TOWNNAME":"林內鄉","MARKTYPE":"991","Class":"1"},"geometry":{"x":120.57785582695388,"y":23.768144237219925}},{"attributes":{"OBJECTID":195,"LANDMARKID":"1000900000003","LANDMARKCO":"101","LANDMARKNA":"水利署第四河川局林內站","LANDMARKAD":"1000910","ADDRESS":"雲林縣林內鄉三星路21號","TEL":"05-5897920","COUNTYNAME":"雲林縣","TOWNNAME":"林內鄉","MARKTYPE":"991","Class":"1"},"geometry":{"x":120.61633130379472,"y":23.782517408769039}},{"attributes":{"OBJECTID":196,"LANDMARKID":"1000900000004","LANDMARKCO":"101","LANDMARKNA":"水利署第四河川局彰雲橋水位流","LANDMARKAD":"1000910","ADDRESS":"雲林縣林內鄉彰雲大橋520號","TEL":"05-5895615","COUNTYNAME":"雲林縣","TOWNNAME":"林內鄉","MARKTYPE":"991","Class":"1"},"geometry":{"x":120.63504893593704,"y":23.778407086918065}},{"attributes":{"OBJECTID":197,"LANDMARKID":"1000900000483","LANDMARKCO":"204","LANDMARKNA":"雲林縣立圖書館林內分館","LANDMARKAD":"1000910","ADDRESS":"雲林縣林內鄉中正路340號","TEL":" ","COUNTYNAME":"雲林縣","TOWNNAME":"林內鄉","MARKTYPE":"992","Class":"2"},"geometry":{"x":120.61322648087433,"y":23.756477739154075}},{"attributes":{"OBJECTID":198,"LANDMARKID":"1000900000431","LANDMARKCO":"203","LANDMARKNA":"縣立九芎國小","LANDMARKAD":"1000910","ADDRESS":"雲林縣林內鄉九芎村文化路10號","TEL":"05-5892647","COUNTYNAME":"雲林縣","TOWNNAME":"林內鄉","MARKTYPE":"992","Class":"2"},"geometry":{"x":120.6023957867414,"y":23.744015689234779}},{"attributes":{"OBJECTID":199,"LANDMARKID":"1000900000432","LANDMARKCO":"203","LANDMARKNA":"縣立林內國中","LANDMARKAD":"1000910","ADDRESS":"雲林縣林內鄉烏麻村長源200號","TEL":"05-5899306","COUNTYNAME":"雲林縣","TOWNNAME":"林內鄉","MARKTYPE":"992","Class":"2"},"geometry":{"x":120.59350020288051,"y":23.756285694461791}},{"attributes":{"OBJECTID":200,"LANDMARKID":"1000900000433","LANDMARKCO":"203","LANDMARKNA":"縣立林內國小","LANDMARKAD":"1000910","ADDRESS":"雲林縣林內鄉水南村中正路111號","TEL":"05-5892019","COUNTYNAME":"雲林縣","TOWNNAME":"林內鄉","MARKTYPE":"992","Class":"2"},"geometry":{"x":120.61753065147877,"y":23.759461865635199}}]}