{"displayFieldName":"COUNTYNAME","fieldAliases":{"OBJECTID":"OBJECTID","LANDMARKID":"LANDMARKID","LANDMARKCO":"LANDMARKCO","LANDMARKNA":"LANDMARKNA","LANDMARKAD":"LANDMARKAD","ADDRESS":"ADDRESS","TEL":"TEL","COUNTYNAME":"COUNTYNAME","TOWNNAME":"TOWNNAME","MARKTYPE":"MARKTYPE","Class":"Class"},"geometryType":"esriGeometryPoint","spatialReference":{"wkid":4326},"fields":[{"name":"OBJECTID","type":"esriFieldTypeOID","alias":"OBJECTID"},{"name":"LANDMARKID","type":"esriFieldTypeString","alias":"LANDMARKID","length":15},{"name":"LANDMARKCO","type":"esriFieldTypeString","alias":"LANDMARKCO","length":15},{"name":"LANDMARKNA","type":"esriFieldTypeString","alias":"LANDMARKNA","length":50},{"name":"LANDMARKAD","type":"esriFieldTypeString","alias":"LANDMARKAD","length":15},{"name":"ADDRESS","type":"esriFieldTypeString","alias":"ADDRESS","length":56},{"name":"TEL","type":"esriFieldTypeString","alias":"TEL","length":36},{"name":"COUNTYNAME","type":"esriFieldTypeString","alias":"COUNTYNAME","length":15},{"name":"TOWNNAME","type":"esriFieldTypeString","alias":"TOWNNAME","length":13},{"name":"MARKTYPE","type":"esriFieldTypeString","alias":"MARKTYPE","length":12},{"name":"Class","type":"esriFieldTypeString","alias":"Class","length":5}],"features":[{"attributes":{"OBJECTID":401,"LANDMARKID":"1000900000170","LANDMARKCO":"107","LANDMARKNA":"雲林縣警察局溝埧派出所","LANDMARKAD":"1000901","ADDRESS":"雲林縣斗六市溝埧里三樂路1號","TEL":"05-5220334","COUNTYNAME":"雲林縣","TOWNNAME":"斗六市","MARKTYPE":"991","Class":"1"},"geometry":{"x":120.53724274887564,"y":23.674302747747561}},{"attributes":{"OBJECTID":402,"LANDMARKID":"1000900000011","LANDMARKCO":"101","LANDMARKNA":"標準檢驗局台南分局斗六辦事處","LANDMARKAD":"1000901","ADDRESS":"雲林縣斗六市府前街105號","TEL":"05-5322384","COUNTYNAME":"雲林縣","TOWNNAME":"斗六市","MARKTYPE":"991","Class":"1"},"geometry":{"x":120.54100207932845,"y":23.707185089020612}},{"attributes":{"OBJECTID":403,"LANDMARKID":"1000900000012","LANDMARKCO":"101","LANDMARKNA":"雲林縣後備司令部","LANDMARKAD":"1000901","ADDRESS":"雲林縣斗六市中正路219號","TEL":"05-5322840","COUNTYNAME":"雲林縣","TOWNNAME":"斗六市","MARKTYPE":"991","Class":"1"},"geometry":{"x":120.54464278692382,"y":23.70402973569664}},{"attributes":{"OBJECTID":404,"LANDMARKID":"1000900000013","LANDMARKCO":"101","LANDMARKNA":"農糧署雲林辦事處","LANDMARKAD":"1000901","ADDRESS":"雲林縣斗六市文化路40號","TEL":"05-5324135","COUNTYNAME":"雲林縣","TOWNNAME":"斗六市","MARKTYPE":"991","Class":"1"},"geometry":{"x":120.546007613345,"y":23.710810063784436}},{"attributes":{"OBJECTID":405,"LANDMARKID":"1000900000070","LANDMARKCO":"103","LANDMARKNA":"雲林縣家畜疾病防治所","LANDMARKAD":"1000901","ADDRESS":"雲林縣斗六市雲林路二段517號","TEL":"05-5322905","COUNTYNAME":"雲林縣","TOWNNAME":"斗六市","MARKTYPE":"991","Class":"1"},"geometry":{"x":120.52620464166593,"y":23.69883056619803}},{"attributes":{"OBJECTID":406,"LANDMARKID":"1000900000015","LANDMARKCO":"101","LANDMARKNA":"國有財產局台灣中區辦事處雲林分處","LANDMARKAD":"1000901","ADDRESS":"雲林縣斗六市府前街73號","TEL":"05-5323295","COUNTYNAME":"雲林縣","TOWNNAME":"斗六市","MARKTYPE":"991","Class":"1"},"geometry":{"x":120.54209441378771,"y":23.706157709922472}},{"attributes":{"OBJECTID":407,"LANDMARKID":"1000900000238","LANDMARKCO":"108","LANDMARKNA":"雲林縣斗六巿公所","LANDMARKAD":"1000901","ADDRESS":"雲林縣斗六市府文路38號","TEL":"05-5332000","COUNTYNAME":"雲林縣","TOWNNAME":"斗六市","MARKTYPE":"991","Class":"1"},"geometry":{"x":120.52709520355015,"y":23.696942579196509}},{"attributes":{"OBJECTID":408,"LANDMARKID":"1000900000066","LANDMARKCO":"103","LANDMARKNA":"雲林縣政府衛生局","LANDMARKAD":"1000901","ADDRESS":"雲林縣斗六市府文路34號","TEL":"05-5373488","COUNTYNAME":"雲林縣","TOWNNAME":"斗六市","MARKTYPE":"991","Class":"1"},"geometry":{"x":120.52751329862194,"y":23.697818556989429}},{"attributes":{"OBJECTID":409,"LANDMARKID":"1000900000067","LANDMARKCO":"103","LANDMARKNA":"雲林縣斗六市衛生所","LANDMARKAD":"1000901","ADDRESS":"雲林縣斗六市公園路75號","TEL":"05-5345140","COUNTYNAME":"雲林縣","TOWNNAME":"斗六市","MARKTYPE":"991","Class":"1"},"geometry":{"x":120.52710822611303,"y":23.697748720430706}},{"attributes":{"OBJECTID":410,"LANDMARKID":"1000900000068","LANDMARKCO":"103","LANDMARKNA":"雲林縣斗六市市民代表會","LANDMARKAD":"1000901","ADDRESS":"雲林縣斗六市府文路38號","TEL":"05-5324103","COUNTYNAME":"雲林縣","TOWNNAME":"斗六市","MARKTYPE":"991","Class":"1"},"geometry":{"x":120.52709520355015,"y":23.696942579196509}},{"attributes":{"OBJECTID":411,"LANDMARKID":"1000900000069","LANDMARKCO":"103","LANDMARKNA":"雲林縣政府文化局","LANDMARKAD":"1000901","ADDRESS":"雲林縣斗六市大學路三段310號","TEL":"05-5327613","COUNTYNAME":"雲林縣","TOWNNAME":"斗六市","MARKTYPE":"991","Class":"1"},"geometry":{"x":120.52489620724477,"y":23.695441328750707}},{"attributes":{"OBJECTID":412,"LANDMARKID":"1000900000159","LANDMARKCO":"107","LANDMARKNA":"雲林縣消防局","LANDMARKAD":"1000901","ADDRESS":"雲林縣斗六市公園路6號","TEL":"05-5325707","COUNTYNAME":"雲林縣","TOWNNAME":"斗六市","MARKTYPE":"991","Class":"1"},"geometry":{"x":120.5305440184091,"y":23.698598021078258}},{"attributes":{"OBJECTID":413,"LANDMARKID":"1000900000160","LANDMARKCO":"107","LANDMARKNA":"雲林縣消防局第一消防大隊部","LANDMARKAD":"1000901","ADDRESS":"雲林縣斗六市府前街56號","TEL":"05-5322131","COUNTYNAME":"雲林縣","TOWNNAME":"斗六市","MARKTYPE":"991","Class":"1"},"geometry":{"x":120.5414049412886,"y":23.705165006359511}},{"attributes":{"OBJECTID":414,"LANDMARKID":"1000900000161","LANDMARKCO":"107","LANDMARKNA":"雲林縣消防局斗六消防分隊","LANDMARKAD":"1000901","ADDRESS":"雲林縣斗六市府前街56號","TEL":"05-5322131","COUNTYNAME":"雲林縣","TOWNNAME":"斗六市","MARKTYPE":"991","Class":"1"},"geometry":{"x":120.5414049412886,"y":23.705165006359511}},{"attributes":{"OBJECTID":415,"LANDMARKID":"1000900000162","LANDMARKCO":"107","LANDMARKNA":"雲林縣警察局","LANDMARKAD":"1000901","ADDRESS":"雲林縣斗六市大學路三段100號","TEL":"05-5322042","COUNTYNAME":"雲林縣","TOWNNAME":"斗六市","MARKTYPE":"991","Class":"1"},"geometry":{"x":120.53506807319908,"y":23.697827039900659}},{"attributes":{"OBJECTID":416,"LANDMARKID":"1000900000163","LANDMARKCO":"107","LANDMARKNA":"雲林縣警察局斗六分局","LANDMARKAD":"1000901","ADDRESS":"雲林縣斗六市中和里中山路88號","TEL":"05-5322598","COUNTYNAME":"雲林縣","TOWNNAME":"斗六市","MARKTYPE":"991","Class":"1"},"geometry":{"x":120.54036949269488,"y":23.707794187916761}},{"attributes":{"OBJECTID":417,"LANDMARKID":"1000900000164","LANDMARKCO":"107","LANDMARKNA":"雲林縣警察局梅林派出所","LANDMARKAD":"1000901","ADDRESS":"雲林縣斗六市梅林里梅林路392號","TEL":"05-5572493","COUNTYNAME":"雲林縣","TOWNNAME":"斗六市","MARKTYPE":"991","Class":"1"},"geometry":{"x":120.59804382834618,"y":23.702921594772736}},{"attributes":{"OBJECTID":418,"LANDMARKID":"1000900000165","LANDMARKCO":"107","LANDMARKNA":"雲林縣警察局長安派出所","LANDMARKAD":"1000901","ADDRESS":"雲林縣斗六市長安里長安西路2號","TEL":"05-5517650","COUNTYNAME":"雲林縣","TOWNNAME":"斗六市","MARKTYPE":"991","Class":"1"},"geometry":{"x":120.53381651905337,"y":23.734067470432013}},{"attributes":{"OBJECTID":419,"LANDMARKID":"1000900000166","LANDMARKCO":"107","LANDMARKNA":"雲林縣警察局長平派出所","LANDMARKAD":"1000901","ADDRESS":"雲林縣斗六市長平里長平路17號","TEL":"05-5327649","COUNTYNAME":"雲林縣","TOWNNAME":"斗六市","MARKTYPE":"991","Class":"1"},"geometry":{"x":120.50456630330079,"y":23.702828938623451}},{"attributes":{"OBJECTID":420,"LANDMARKID":"1000900000167","LANDMARKCO":"107","LANDMARKNA":"雲林縣警察局榴中派出所","LANDMARKAD":"1000901","ADDRESS":"雲林縣斗六市榴中里石榴路81號","TEL":"05-5573651","COUNTYNAME":"雲林縣","TOWNNAME":"斗六市","MARKTYPE":"991","Class":"1"},"geometry":{"x":120.58315525925751,"y":23.722751299888785}},{"attributes":{"OBJECTID":421,"LANDMARKID":"1000900000168","LANDMARKCO":"107","LANDMARKNA":"雲林縣警察局公正派出所","LANDMARKAD":"1000901","ADDRESS":"雲林縣斗六市大學路一段637號","TEL":"05-5348753","COUNTYNAME":"雲林縣","TOWNNAME":"斗六市","MARKTYPE":"991","Class":"1"},"geometry":{"x":120.55409936461982,"y":23.702969152243668}},{"attributes":{"OBJECTID":422,"LANDMARKID":"1000900000169","LANDMARKCO":"107","LANDMARKNA":"雲林縣警察局斗六派出所","LANDMARKAD":"1000901","ADDRESS":"雲林縣斗六市忠孝里文化路36號","TEL":"05-5322130","COUNTYNAME":"雲林縣","TOWNNAME":"斗六市","MARKTYPE":"991","Class":"1"},"geometry":{"x":120.54543700458743,"y":23.710857010102426}},{"attributes":{"OBJECTID":423,"LANDMARKID":"1000900000065","LANDMARKCO":"103","LANDMARKNA":"雲林縣政府民政處","LANDMARKAD":"1000901","ADDRESS":"雲林縣斗六市雲林路二段515號","TEL":"05-5322154","COUNTYNAME":"雲林縣","TOWNNAME":"斗六市","MARKTYPE":"991","Class":"1"},"geometry":{"x":120.52630809419286,"y":23.698966646453194}},{"attributes":{"OBJECTID":424,"LANDMARKID":"1000900000120","LANDMARKCO":"106","LANDMARKNA":"雲林縣斗六市戶政事務所","LANDMARKAD":"1000901","ADDRESS":"雲林縣斗六市公園路77號","TEL":"05-5322542","COUNTYNAME":"雲林縣","TOWNNAME":"斗六市","MARKTYPE":"991","Class":"1"},"geometry":{"x":120.52689949237146,"y":23.69778464762744}},{"attributes":{"OBJECTID":425,"LANDMARKID":"1000900000102","LANDMARKCO":"105","LANDMARKNA":"雲林縣政府地政局","LANDMARKAD":"1000901","ADDRESS":"雲林縣斗六市雲林路二段515號","TEL":"05-5322154","COUNTYNAME":"雲林縣","TOWNNAME":"斗六市","MARKTYPE":"991","Class":"1"},"geometry":{"x":120.52630809419286,"y":23.698966646453194}},{"attributes":{"OBJECTID":426,"LANDMARKID":"1000900000103","LANDMARKCO":"105","LANDMARKNA":"雲林縣斗六地政事務所","LANDMARKAD":"1000901","ADDRESS":"雲林縣斗六市公園路79號","TEL":"05-5322172","COUNTYNAME":"雲林縣","TOWNNAME":"斗六市","MARKTYPE":"991","Class":"1"},"geometry":{"x":120.52660306706882,"y":23.697688113077742}},{"attributes":{"OBJECTID":427,"LANDMARKID":"1000900000064","LANDMARKCO":"103","LANDMARKNA":"雲林縣政府","LANDMARKAD":"1000901","ADDRESS":"雲林縣斗六市雲林路二段515號","TEL":"05-5322154","COUNTYNAME":"雲林縣","TOWNNAME":"斗六市","MARKTYPE":"991","Class":"1"},"geometry":{"x":120.52630809419286,"y":23.698966646453194}},{"attributes":{"OBJECTID":428,"LANDMARKID":"1000900000016","LANDMARKCO":"101","LANDMARKNA":"嘉義區監理所雲林監理站","LANDMARKAD":"1000901","ADDRESS":"雲林縣斗六市雲林路二段411號","TEL":"05-5335892","COUNTYNAME":"雲林縣","TOWNNAME":"斗六市","MARKTYPE":"991","Class":"1"},"geometry":{"x":120.52908565630015,"y":23.699855143189001}},{"attributes":{"OBJECTID":429,"LANDMARKID":"1000900000097","LANDMARKCO":"104","LANDMARKNA":"中區國稅局雲林縣分局","LANDMARKAD":"1000901","ADDRESS":"雲林縣斗六市府文路35號3樓","TEL":"05-5345573","COUNTYNAME":"雲林縣","TOWNNAME":"斗六市","MARKTYPE":"991","Class":"1"},"geometry":{"x":120.52858790980056,"y":23.697449458089576}},{"attributes":{"OBJECTID":430,"LANDMARKID":"1000900000024","LANDMARKCO":"101","LANDMARKNA":"調查局雲林縣調查站","LANDMARKAD":"1000901","ADDRESS":"雲林縣斗六市鎮南路67號","TEL":"05-5327661","COUNTYNAME":"雲林縣","TOWNNAME":"斗六市","MARKTYPE":"991","Class":"1"},"geometry":{"x":120.54058274778809,"y":23.703596616478816}},{"attributes":{"OBJECTID":431,"LANDMARKID":"1000900000055","LANDMARKCO":"103","LANDMARKNA":"雲林縣議會","LANDMARKAD":"1000901","ADDRESS":"雲林縣斗六市大學路三段222號","TEL":"05-5322310","COUNTYNAME":"雲林縣","TOWNNAME":"斗六市","MARKTYPE":"991","Class":"1"},"geometry":{"x":120.52833524633128,"y":23.696860829945738}},{"attributes":{"OBJECTID":432,"LANDMARKID":"1000900000017","LANDMARKCO":"101","LANDMARKNA":"工業局斗六工業區服務中心","LANDMARKAD":"1000901","ADDRESS":"雲林縣斗六市斗工十路7號","TEL":"05-5572870","COUNTYNAME":"雲林縣","TOWNNAME":"斗六市","MARKTYPE":"991","Class":"1"},"geometry":{"x":120.58990495012299,"y":23.714023757191754}},{"attributes":{"OBJECTID":433,"LANDMARKID":"1000900000018","LANDMARKCO":"101","LANDMARKNA":"台灣雲林地方法院斗六簡易庭","LANDMARKAD":"1000901","ADDRESS":"雲林縣斗六市公明路41號","TEL":"05-5342433","COUNTYNAME":"雲林縣","TOWNNAME":"斗六市","MARKTYPE":"991","Class":"1"},"geometry":{"x":120.53228922729259,"y":23.698316239721564}},{"attributes":{"OBJECTID":434,"LANDMARKID":"1000900000019","LANDMARKCO":"101","LANDMARKNA":"國軍退除役官兵輔導委員會","LANDMARKAD":"1000901","ADDRESS":"雲林縣斗六市榮譽路160號","TEL":"08-5324100","COUNTYNAME":"雲林縣","TOWNNAME":"斗六市","MARKTYPE":"991","Class":"1"},"geometry":{"x":120.56028969553121,"y":23.702747187937646}},{"attributes":{"OBJECTID":435,"LANDMARKID":"1000900000020","LANDMARKCO":"101","LANDMARKNA":"職業訓練局斗六就業服務站","LANDMARKAD":"1000901","ADDRESS":"雲林縣斗六市西平路77號","TEL":"05-5325105","COUNTYNAME":"雲林縣","TOWNNAME":"斗六市","MARKTYPE":"991","Class":"1"},"geometry":{"x":120.53746129668919,"y":23.710115003811893}},{"attributes":{"OBJECTID":436,"LANDMARKID":"1000900000061","LANDMARKCO":"103","LANDMARKNA":"雲林縣選舉委員會","LANDMARKAD":"1000901","ADDRESS":"雲林縣斗六市府文路20號","TEL":"05-5321143","COUNTYNAME":"雲林縣","TOWNNAME":"斗六市","MARKTYPE":"991","Class":"1"},"geometry":{"x":120.52725147130131,"y":23.69882703408102}},{"attributes":{"OBJECTID":437,"LANDMARKID":"1000900000062","LANDMARKCO":"103","LANDMARKNA":"雲林縣國民教育輔導中心","LANDMARKAD":"1000901","ADDRESS":"雲林縣斗六市雲林路二段515號","TEL":"05-5370880","COUNTYNAME":"雲林縣","TOWNNAME":"斗六市","MARKTYPE":"991","Class":"1"},"geometry":{"x":120.52630809419286,"y":23.698966646453194}},{"attributes":{"OBJECTID":438,"LANDMARKID":"1000900000098","LANDMARKCO":"104","LANDMARKNA":"雲林縣稅務局","LANDMARKAD":"1000901","ADDRESS":"雲林縣斗六市府文路35號","TEL":"05-5323941","COUNTYNAME":"雲林縣","TOWNNAME":"斗六市","MARKTYPE":"991","Class":"1"},"geometry":{"x":120.52858790980056,"y":23.697449458089576}},{"attributes":{"OBJECTID":439,"LANDMARKID":"1000900000021","LANDMARKCO":"101","LANDMARKNA":"工業局雲林科技工業區服務中心","LANDMARKAD":"1000901","ADDRESS":"雲林縣斗六市虎溪里科工六路6號","TEL":"05-5512433-4","COUNTYNAME":"雲林縣","TOWNNAME":"斗六市","MARKTYPE":"991","Class":"1"},"geometry":{"x":120.50414544459542,"y":23.723093474023681}},{"attributes":{"OBJECTID":440,"LANDMARKID":"1000900000022","LANDMARKCO":"101","LANDMARKNA":"勞工保險局雲林辦事處","LANDMARKAD":"1000901","ADDRESS":"雲林縣斗六市興華街7號","TEL":"05-5321787","COUNTYNAME":"雲林縣","TOWNNAME":"斗六市","MARKTYPE":"991","Class":"1"},"geometry":{"x":120.54243964460437,"y":23.711661102079947}},{"attributes":{"OBJECTID":441,"LANDMARKID":"1000900000023","LANDMARKCO":"101","LANDMARKNA":"國軍退除役官兵輔導委員會聯絡處","LANDMARKAD":"1000901","ADDRESS":"雲林縣斗六市榮譽路160號","TEL":"05-5335910","COUNTYNAME":"雲林縣","TOWNNAME":"斗六市","MARKTYPE":"991","Class":"1"},"geometry":{"x":120.56028969553121,"y":23.702747187937646}},{"attributes":{"OBJECTID":442,"LANDMARKID":"1000900000060","LANDMARKCO":"103","LANDMARKNA":"斗六市立殯儀館","LANDMARKAD":"1000901","ADDRESS":"雲林縣斗六市文化路633巷36號","TEL":"05-5350717","COUNTYNAME":"雲林縣","TOWNNAME":"斗六市","MARKTYPE":"991","Class":"1"},"geometry":{"x":120.56557224845012,"y":23.720017082886056}},{"attributes":{"OBJECTID":443,"LANDMARKID":"1000900000500","LANDMARKCO":"205","LANDMARKNA":"台灣寺廟藝術館","LANDMARKAD":"1000901","ADDRESS":"雲林縣斗六市大學路三段310號","TEL":" ","COUNTYNAME":"雲林縣","TOWNNAME":"斗六市","MARKTYPE":"992","Class":"2"},"geometry":{"x":120.52429261333972,"y":23.695033265056519}},{"attributes":{"OBJECTID":444,"LANDMARKID":"1000900000488","LANDMARKCO":"204","LANDMARKNA":"雲林縣立圖書館斗六分館","LANDMARKAD":"1000901","ADDRESS":"雲林縣斗六市莊敬路66號","TEL":" ","COUNTYNAME":"雲林縣","TOWNNAME":"斗六市","MARKTYPE":"992","Class":"2"},"geometry":{"x":120.54940617598787,"y":23.703831269074591}},{"attributes":{"OBJECTID":445,"LANDMARKID":"1000900000412","LANDMARKCO":"203","LANDMARKNA":"縣立斗六國中","LANDMARKAD":"1000901","ADDRESS":"雲林縣斗六市育英北街69號","TEL":"05-5323296","COUNTYNAME":"雲林縣","TOWNNAME":"斗六市","MARKTYPE":"992","Class":"2"},"geometry":{"x":120.55054284359478,"y":23.712987415146578}},{"attributes":{"OBJECTID":446,"LANDMARKID":"1000900000413","LANDMARKCO":"203","LANDMARKNA":"縣立久安國小","LANDMARKAD":"1000901","ADDRESS":"雲林縣斗六市久安里久安路1號","TEL":"05-5222724","COUNTYNAME":"雲林縣","TOWNNAME":"斗六市","MARKTYPE":"992","Class":"2"},"geometry":{"x":120.51329224072224,"y":23.676851463455247}},{"attributes":{"OBJECTID":447,"LANDMARKID":"1000900000414","LANDMARKCO":"203","LANDMARKNA":"縣立梅林國小","LANDMARKAD":"1000901","ADDRESS":"雲林縣斗六市梅林里梅林路256號","TEL":"05-5572211","COUNTYNAME":"雲林縣","TOWNNAME":"斗六市","MARKTYPE":"992","Class":"2"},"geometry":{"x":120.60135276278515,"y":23.702744340340374}},{"attributes":{"OBJECTID":448,"LANDMARKID":"1000900000415","LANDMARKCO":"203","LANDMARKNA":"縣立林頭國小","LANDMARKAD":"1000901","ADDRESS":"雲林縣斗六市林頭里榮譽路177號","TEL":"05-5322538","COUNTYNAME":"雲林縣","TOWNNAME":"斗六市","MARKTYPE":"992","Class":"2"},"geometry":{"x":120.55771878894892,"y":23.704885951065126}},{"attributes":{"OBJECTID":449,"LANDMARKID":"1000900000254","LANDMARKCO":"202","LANDMARKNA":"私立正心高中","LANDMARKAD":"1000901","ADDRESS":"雲林縣斗六市虎溪里正心路1號","TEL":"05-5512502","COUNTYNAME":"雲林縣","TOWNNAME":"斗六市","MARKTYPE":"992","Class":"2"},"geometry":{"x":120.52734515680997,"y":23.713783535537583}},{"attributes":{"OBJECTID":450,"LANDMARKID":"1000900000255","LANDMARKCO":"202","LANDMARKNA":"國立斗六高中","LANDMARKAD":"1000901","ADDRESS":"雲林縣斗六市民生路224號","TEL":"05-5322039","COUNTYNAME":"雲林縣","TOWNNAME":"斗六市","MARKTYPE":"992","Class":"2"},"geometry":{"x":120.54559628489702,"y":23.711620936496697}},{"attributes":{"OBJECTID":451,"LANDMARKID":"1000900000256","LANDMARKCO":"202","LANDMARKNA":"國立斗六家商","LANDMARKAD":"1000901","ADDRESS":"雲林縣斗六市成功路120號","TEL":"05-5322147","COUNTYNAME":"雲林縣","TOWNNAME":"斗六市","MARKTYPE":"992","Class":"2"},"geometry":{"x":120.5470007327941,"y":23.707226649327946}},{"attributes":{"OBJECTID":452,"LANDMARKID":"1000900000257","LANDMARKCO":"202","LANDMARKNA":"私立正心高中附設國中部","LANDMARKAD":"1000901","ADDRESS":"雲林縣斗六市虎溪里正心路1號","TEL":"05-5512502","COUNTYNAME":"雲林縣","TOWNNAME":"斗六市","MARKTYPE":"992","Class":"2"},"geometry":{"x":120.52734515680997,"y":23.713783535537583}},{"attributes":{"OBJECTID":453,"LANDMARKID":"1000900000399","LANDMARKCO":"203","LANDMARKNA":"縣立石榴國中","LANDMARKAD":"1000901","ADDRESS":"雲林縣斗六市榴中里光復路66號","TEL":"05-5571713","COUNTYNAME":"雲林縣","TOWNNAME":"斗六市","MARKTYPE":"992","Class":"2"},"geometry":{"x":120.58666504151016,"y":23.723064895989175}},{"attributes":{"OBJECTID":454,"LANDMARKID":"1000900000400","LANDMARKCO":"203","LANDMARKNA":"縣立雲林國中","LANDMARKAD":"1000901","ADDRESS":"雲林縣斗六市明德路599號","TEL":"05-5326072","COUNTYNAME":"雲林縣","TOWNNAME":"斗六市","MARKTYPE":"992","Class":"2"},"geometry":{"x":120.53274746373144,"y":23.699983114057602}},{"attributes":{"OBJECTID":455,"LANDMARKID":"1000900000401","LANDMARKCO":"203","LANDMARKNA":"私立維多利亞國中","LANDMARKAD":"1000901","ADDRESS":"雲林縣斗六市鎮南路1110號","TEL":"05-5378899","COUNTYNAME":"雲林縣","TOWNNAME":"斗六市","MARKTYPE":"992","Class":"2"},"geometry":{"x":120.55255239719,"y":23.679238814756843}},{"attributes":{"OBJECTID":456,"LANDMARKID":"1000900000402","LANDMARKCO":"203","LANDMARKNA":"縣立鎮東國小","LANDMARKAD":"1000901","ADDRESS":"雲林縣斗六市鎮東里文化路205號","TEL":"05-5322700","COUNTYNAME":"雲林縣","TOWNNAME":"斗六市","MARKTYPE":"992","Class":"2"},"geometry":{"x":120.55274554458222,"y":23.711880211971554}},{"attributes":{"OBJECTID":457,"LANDMARKID":"1000900000403","LANDMARKCO":"203","LANDMARKNA":"縣立公誠國小","LANDMARKAD":"1000901","ADDRESS":"雲林縣斗六市鎮北里北平路95號","TEL":"05-5322536","COUNTYNAME":"雲林縣","TOWNNAME":"斗六市","MARKTYPE":"992","Class":"2"},"geometry":{"x":120.53785444618653,"y":23.715204870678466}},{"attributes":{"OBJECTID":458,"LANDMARKID":"1000900000404","LANDMARKCO":"203","LANDMARKNA":"縣立鎮西國小","LANDMARKAD":"1000901","ADDRESS":"雲林縣斗六市中和里西平路3號","TEL":"05-5322047","COUNTYNAME":"雲林縣","TOWNNAME":"斗六市","MARKTYPE":"992","Class":"2"},"geometry":{"x":120.53929224475425,"y":23.707831034267734}},{"attributes":{"OBJECTID":459,"LANDMARKID":"1000900000405","LANDMARKCO":"203","LANDMARKNA":"縣立保長國小","LANDMARKAD":"1000901","ADDRESS":"雲林縣斗六市保庄里保長路155號","TEL":"05-5322982","COUNTYNAME":"雲林縣","TOWNNAME":"斗六市","MARKTYPE":"992","Class":"2"},"geometry":{"x":120.51730395123633,"y":23.705670338916185}},{"attributes":{"OBJECTID":460,"LANDMARKID":"1000900000406","LANDMARKCO":"203","LANDMARKNA":"縣立石榴國小","LANDMARKAD":"1000901","ADDRESS":"雲林縣斗六市榴南里南仁路51號","TEL":"05-5573386","COUNTYNAME":"雲林縣","TOWNNAME":"斗六市","MARKTYPE":"992","Class":"2"},"geometry":{"x":120.58531636610394,"y":23.721677995597858}},{"attributes":{"OBJECTID":461,"LANDMARKID":"1000900000407","LANDMARKCO":"203","LANDMARKNA":"縣立鎮南國小","LANDMARKAD":"1000901","ADDRESS":"雲林縣斗六市社口里南揚街60號","TEL":"05-5322524","COUNTYNAME":"雲林縣","TOWNNAME":"斗六市","MARKTYPE":"992","Class":"2"},"geometry":{"x":120.53853203738035,"y":23.698673776184808}},{"attributes":{"OBJECTID":462,"LANDMARKID":"1000900000408","LANDMARKCO":"203","LANDMARKNA":"縣立雲林國小","LANDMARKAD":"1000901","ADDRESS":"雲林縣斗六市莊敬路111號","TEL":"05-5361112","COUNTYNAME":"雲林縣","TOWNNAME":"斗六市","MARKTYPE":"992","Class":"2"},"geometry":{"x":120.54826369543363,"y":23.702878680752253}},{"attributes":{"OBJECTID":463,"LANDMARKID":"1000900000409","LANDMARKCO":"203","LANDMARKNA":"縣立溪洲國小","LANDMARKAD":"1000901","ADDRESS":"雲林縣斗六市溪洲里萬年路809號","TEL":"05-5322485","COUNTYNAME":"雲林縣","TOWNNAME":"斗六市","MARKTYPE":"992","Class":"2"},"geometry":{"x":120.5555255342713,"y":23.741416721618322}},{"attributes":{"OBJECTID":464,"LANDMARKID":"1000900000410","LANDMARKCO":"203","LANDMARKNA":"縣立斗六國小","LANDMARKAD":"1000901","ADDRESS":"雲林縣斗六市鎮東路225號","TEL":"05-5379600","COUNTYNAME":"雲林縣","TOWNNAME":"斗六市","MARKTYPE":"992","Class":"2"},"geometry":{"x":120.55330444377928,"y":23.708004899560507}},{"attributes":{"OBJECTID":465,"LANDMARKID":"1000900000411","LANDMARKCO":"203","LANDMARKNA":"私立維多利亞小學","LANDMARKAD":"1000901","ADDRESS":"雲林縣斗六市鎮南路1110號","TEL":"05-5378899","COUNTYNAME":"雲林縣","TOWNNAME":"斗六市","MARKTYPE":"992","Class":"2"},"geometry":{"x":120.55255239719,"y":23.679238814756843}},{"attributes":{"OBJECTID":466,"LANDMARKID":"1000900000246","LANDMARKCO":"201","LANDMARKNA":"國立雲林科技大學","LANDMARKAD":"1000901","ADDRESS":"雲林縣斗六市大學路三段123號","TEL":"05-5342601","COUNTYNAME":"雲林縣","TOWNNAME":"斗六市","MARKTYPE":"992","Class":"2"},"geometry":{"x":120.53485387912311,"y":23.694961881300181}},{"attributes":{"OBJECTID":467,"LANDMARKID":"1000900000247","LANDMARKCO":"201","LANDMARKNA":"私立環球技術學院湖山校區","LANDMARKAD":"1000901","ADDRESS":"雲林縣斗六市湖山里岩山路88號","TEL":"05-5570866","COUNTYNAME":"雲林縣","TOWNNAME":"斗六市","MARKTYPE":"992","Class":"2"},"geometry":{"x":120.60639139377318,"y":23.709808660708884}},{"attributes":{"OBJECTID":468,"LANDMARKID":"1000900000248","LANDMARKCO":"201","LANDMARKNA":"環球技術學院嘉東校區","LANDMARKAD":"1000901","ADDRESS":"雲林縣斗六市鎮南路1221號","TEL":"05-5370988","COUNTYNAME":"雲林縣","TOWNNAME":"斗六市","MARKTYPE":"992","Class":"2"},"geometry":{"x":120.55286515425763,"y":23.679752950826156}},{"attributes":{"OBJECTID":469,"LANDMARKID":"1000900000523","LANDMARKCO":"303","LANDMARKNA":"斗六市雲林溪上游加蓋停車場","LANDMARKAD":"1000901","ADDRESS":"雲林縣斗六市","TEL":" ","COUNTYNAME":"雲林縣","TOWNNAME":"斗六市","MARKTYPE":"993","Class":"303"},"geometry":{"x":120.54285495326106,"y":23.711464111869212}},{"attributes":{"OBJECTID":470,"LANDMARKID":"1000900000554","LANDMARKCO":"308","LANDMARKNA":"台78-古坑交流道-西行","LANDMARKAD":"1000901","ADDRESS":"雲林縣斗六市","TEL":" ","COUNTYNAME":"雲林縣","TOWNNAME":"斗六市","MARKTYPE":"993","Class":"308"},"geometry":{"x":120.53330962361228,"y":23.668334325581203}},{"attributes":{"OBJECTID":471,"LANDMARKID":"1000900000519","LANDMARKCO":"303","LANDMARKNA":"立體停車場","LANDMARKAD":"1000901","ADDRESS":"雲林縣斗六市府前街","TEL":" ","COUNTYNAME":"雲林縣","TOWNNAME":"斗六市","MARKTYPE":"993","Class":"303"},"geometry":{"x":120.54118627922036,"y":23.706319147357949}},{"attributes":{"OBJECTID":472,"LANDMARKID":"1000900000520","LANDMARKCO":"303","LANDMARKNA":"湖山岩停車場","LANDMARKAD":"1000901","ADDRESS":"雲林縣斗六市","TEL":" ","COUNTYNAME":"雲林縣","TOWNNAME":"斗六市","MARKTYPE":"993","Class":"303"},"geometry":{"x":120.6063502290737,"y":23.708190613717235}},{"attributes":{"OBJECTID":473,"LANDMARKID":"1000900000501","LANDMARKCO":"301","LANDMARKNA":"斗六火車站","LANDMARKAD":"1000901","ADDRESS":"雲林縣斗六市信義里民生路187號","TEL":"05-5332900","COUNTYNAME":"雲林縣","TOWNNAME":"斗六市","MARKTYPE":"993","Class":"301"},"geometry":{"x":120.54124477194537,"y":23.711718689120385}},{"attributes":{"OBJECTID":474,"LANDMARKID":"1000900000502","LANDMARKCO":"301","LANDMARKNA":"石榴火車站","LANDMARKAD":"1000901","ADDRESS":"雲林縣斗六市","TEL":" ","COUNTYNAME":"雲林縣","TOWNNAME":"斗六市","MARKTYPE":"993","Class":"301"},"geometry":{"x":120.58039050466678,"y":23.731912072046974}},{"attributes":{"OBJECTID":475,"LANDMARKID":"1000900000613","LANDMARKCO":"402","LANDMARKNA":"中華電信-斗六鎮北特約服務中心","LANDMARKAD":"1000901","ADDRESS":"雲林縣斗六市鎮北路93號之1","TEL":"05-5377228","COUNTYNAME":"雲林縣","TOWNNAME":"斗六市","MARKTYPE":"994","Class":"4"},"geometry":{"x":120.54297370185678,"y":23.714096230285897}},{"attributes":{"OBJECTID":476,"LANDMARKID":"1000900000614","LANDMARKCO":"402","LANDMARKNA":"中華電信-斗六中山特約服務中心","LANDMARKAD":"1000901","ADDRESS":"雲林縣斗六市中山路174號","TEL":"05-5331555","COUNTYNAME":"雲林縣","TOWNNAME":"斗六市","MARKTYPE":"994","Class":"4"},"geometry":{"x":120.53925227020342,"y":23.704998532129885}},{"attributes":{"OBJECTID":477,"LANDMARKID":"1000900000615","LANDMARKCO":"402","LANDMARKNA":"中華電信-雲林營運處(斗六服務中心)","LANDMARKAD":"1000901","ADDRESS":"雲林縣斗六市文化路38號","TEL":"(05)532-4844","COUNTYNAME":"雲林縣","TOWNNAME":"斗六市","MARKTYPE":"994","Class":"4"},"geometry":{"x":120.54569329829145,"y":23.710880457167921}},{"attributes":{"OBJECTID":478,"LANDMARKID":"1000900000616","LANDMARKCO":"402","LANDMARKNA":"遠傳電信-斗六門市","LANDMARKAD":"1000901","ADDRESS":"雲林縣斗六市雲林路二段203號","TEL":" ","COUNTYNAME":"雲林縣","TOWNNAME":"斗六市","MARKTYPE":"994","Class":"4"},"geometry":{"x":120.53250469665029,"y":23.703718941770202}},{"attributes":{"OBJECTID":479,"LANDMARKID":"1000900000617","LANDMARKCO":"402","LANDMARKNA":"威寶電信-斗六民生直營服務中心","LANDMARKAD":"1000901","ADDRESS":"雲林縣斗六市民生路139號","TEL":" ","COUNTYNAME":"雲林縣","TOWNNAME":"斗六市","MARKTYPE":"994","Class":"4"},"geometry":{"x":120.53946086496471,"y":23.710191859954669}},{"attributes":{"OBJECTID":480,"LANDMARKID":"1000900000618","LANDMARKCO":"402","LANDMARKNA":"威寶電信-斗六鎮北特約服務中心","LANDMARKAD":"1000901","ADDRESS":"雲林縣斗六市鎮北路4號","TEL":"05-5360797","COUNTYNAME":"雲林縣","TOWNNAME":"斗六市","MARKTYPE":"994","Class":"4"},"geometry":{"x":120.54352289053237,"y":23.71130025829061}},{"attributes":{"OBJECTID":481,"LANDMARKID":"1000900000619","LANDMARKCO":"402","LANDMARKNA":"威寶電信-斗六中山特約服務中心","LANDMARKAD":"1000901","ADDRESS":"雲林縣斗六市中山路305之2號","TEL":"05-5339478","COUNTYNAME":"雲林縣","TOWNNAME":"斗六市","MARKTYPE":"994","Class":"4"},"geometry":{"x":120.53855877737327,"y":23.701824232046306}},{"attributes":{"OBJECTID":482,"LANDMARKID":"1000900000867","LANDMARKCO":"603","LANDMARKNA":"凱登大飯店","LANDMARKAD":"1000901","ADDRESS":"雲林縣斗六市中山路12號4樓","TEL":"05-5330929","COUNTYNAME":"雲林縣","TOWNNAME":"斗六市","MARKTYPE":"996","Class":"6"},"geometry":{"x":120.54246809785309,"y":23.710599442760611}},{"attributes":{"OBJECTID":483,"LANDMARKID":"1000900000868","LANDMARKCO":"603","LANDMARKNA":"緻麗伯爵商務旅館","LANDMARKAD":"1000901","ADDRESS":"雲林縣斗六市中山路6之81號7-10樓","TEL":"05-5341666","COUNTYNAME":"雲林縣","TOWNNAME":"斗六市","MARKTYPE":"996","Class":"6"},"geometry":{"x":120.54264949187655,"y":23.710773979003971}},{"attributes":{"OBJECTID":484,"LANDMARKID":"1000900000869","LANDMARKCO":"603","LANDMARKNA":"溫蒂莎旅社","LANDMARKAD":"1000901","ADDRESS":"雲林縣斗六市興華街1-3號","TEL":"05-5328767-9","COUNTYNAME":"雲林縣","TOWNNAME":"斗六市","MARKTYPE":"996","Class":"6"},"geometry":{"x":120.54258856128173,"y":23.711523799388434}},{"attributes":{"OBJECTID":485,"LANDMARKID":"1000900000870","LANDMARKCO":"603","LANDMARKNA":"王鏘汽車旅館","LANDMARKAD":"1000901","ADDRESS":"雲林縣斗六市鎮南路87號","TEL":"05-5323987","COUNTYNAME":"雲林縣","TOWNNAME":"斗六市","MARKTYPE":"996","Class":"6"},"geometry":{"x":120.54148949478913,"y":23.703494796975797}},{"attributes":{"OBJECTID":486,"LANDMARKID":"1000900000871","LANDMARKCO":"603","LANDMARKNA":"真岡大飯店","LANDMARKAD":"1000901","ADDRESS":"雲林縣斗六市民生路185-3","TEL":"4","COUNTYNAME":"雲林縣","TOWNNAME":"斗六市","MARKTYPE":"996","Class":"6"},"geometry":{"x":120.5405718510428,"y":23.710946076569481}},{"attributes":{"OBJECTID":487,"LANDMARKID":"1000900000872","LANDMARKCO":"603","LANDMARKNA":"雲山旅社","LANDMARKAD":"1000901","ADDRESS":"雲林縣斗六市中華路167號","TEL":"05-5341421","COUNTYNAME":"雲林縣","TOWNNAME":"斗六市","MARKTYPE":"996","Class":"6"},"geometry":{"x":120.54583597635981,"y":23.708687049190104}},{"attributes":{"OBJECTID":488,"LANDMARKID":"1000900000873","LANDMARKCO":"603","LANDMARKNA":"永茂旅社","LANDMARKAD":"1000901","ADDRESS":"雲林縣斗六市中華路175號","TEL":"05-5328743","COUNTYNAME":"雲林縣","TOWNNAME":"斗六市","MARKTYPE":"996","Class":"6"},"geometry":{"x":120.54601242908926,"y":23.708697114968405}},{"attributes":{"OBJECTID":489,"LANDMARKID":"1000900000874","LANDMARKCO":"603","LANDMARKNA":"金城大旅社","LANDMARKAD":"1000901","ADDRESS":"雲林縣斗六市太平路2號","TEL":"05-5323955","COUNTYNAME":"雲林縣","TOWNNAME":"斗六市","MARKTYPE":"996","Class":"6"},"geometry":{"x":120.54276345416412,"y":23.710528268513958}},{"attributes":{"OBJECTID":490,"LANDMARKID":"1000900000875","LANDMARKCO":"603","LANDMARKNA":"御花園汽車旅館","LANDMARKAD":"1000901","ADDRESS":"雲林縣斗六市府文路56號","TEL":"05-5376622","COUNTYNAME":"雲林縣","TOWNNAME":"斗六市","MARKTYPE":"996","Class":"6"},"geometry":{"x":120.52704285585148,"y":23.69404091659759}},{"attributes":{"OBJECTID":491,"LANDMARKID":"1000900000876","LANDMARKCO":"603","LANDMARKNA":"桂賓大旅社","LANDMARKAD":"1000901","ADDRESS":"雲林縣斗六市鎮北路1號","TEL":"05-5324138","COUNTYNAME":"雲林縣","TOWNNAME":"斗六市","MARKTYPE":"996","Class":"6"},"geometry":{"x":120.5431689734114,"y":23.711424587008665}},{"attributes":{"OBJECTID":492,"LANDMARKID":"1000900000877","LANDMARKCO":"603","LANDMARKNA":"東和旅社","LANDMARKAD":"1000901","ADDRESS":"雲林縣斗六市中華路173號","TEL":"05-5322434","COUNTYNAME":"雲林縣","TOWNNAME":"斗六市","MARKTYPE":"996","Class":"6"},"geometry":{"x":120.54596352202533,"y":23.708678768460349}},{"attributes":{"OBJECTID":493,"LANDMARKID":"1000900000878","LANDMARKCO":"603","LANDMARKNA":"集賢旅社","LANDMARKAD":"1000901","ADDRESS":"雲林縣斗六市中華路181號","TEL":"05-5339069","COUNTYNAME":"雲林縣","TOWNNAME":"斗六市","MARKTYPE":"996","Class":"6"},"geometry":{"x":120.54615958768552,"y":23.70868894849993}},{"attributes":{"OBJECTID":494,"LANDMARKID":"1000900000879","LANDMARKCO":"603","LANDMARKNA":"大信旅館","LANDMARKAD":"1000901","ADDRESS":"雲林縣斗六市太平路7號10樓","TEL":"05-5331368","COUNTYNAME":"雲林縣","TOWNNAME":"斗六市","MARKTYPE":"996","Class":"6"},"geometry":{"x":120.54335072224542,"y":23.710694273161042}},{"attributes":{"OBJECTID":495,"LANDMARKID":"1000900000880","LANDMARKCO":"603","LANDMARKNA":"太信大飯店","LANDMARKAD":"1000901","ADDRESS":"雲林縣斗六市太平路7號7-11樓","TEL":"05-5352889","COUNTYNAME":"雲林縣","TOWNNAME":"斗六市","MARKTYPE":"996","Class":"6"},"geometry":{"x":120.54335072224542,"y":23.710694273161042}},{"attributes":{"OBJECTID":496,"LANDMARKID":"1000900000881","LANDMARKCO":"603","LANDMARKNA":"華安大飯店","LANDMARKAD":"1000901","ADDRESS":"雲林縣斗六市民生路156號9-12樓","TEL":"05-5361001","COUNTYNAME":"雲林縣","TOWNNAME":"斗六市","MARKTYPE":"996","Class":"6"},"geometry":{"x":120.54185451311857,"y":23.711470993639082}},{"attributes":{"OBJECTID":497,"LANDMARKID":"1000900000882","LANDMARKCO":"603","LANDMARKNA":"名門首都賓館","LANDMARKAD":"1000901","ADDRESS":"雲林縣斗六市民生路170號4-6樓","TEL":"05-5321777","COUNTYNAME":"雲林縣","TOWNNAME":"斗六市","MARKTYPE":"996","Class":"6"},"geometry":{"x":120.54226424699343,"y":23.711780432094347}},{"attributes":{"OBJECTID":498,"LANDMARKID":"1000900000883","LANDMARKCO":"603","LANDMARKNA":"皇居汽車旅館 (禾楓斗六館)","LANDMARKAD":"1000901","ADDRESS":"雲林縣斗六市建興路11號","TEL":"05-5325111","COUNTYNAME":"雲林縣","TOWNNAME":"斗六市","MARKTYPE":"996","Class":"6"},"geometry":{"x":120.52894989831309,"y":23.707155194631483}},{"attributes":{"OBJECTID":499,"LANDMARKID":"1000900000859","LANDMARKCO":"511","LANDMARKNA":"斗六夜市","LANDMARKAD":"1000901","ADDRESS":"雲林縣斗六市","TEL":" ","COUNTYNAME":"雲林縣","TOWNNAME":"斗六市","MARKTYPE":"995","Class":"5"},"geometry":{"x":120.5503478427572,"y":23.70537819794562}},{"attributes":{"OBJECTID":500,"LANDMARKID":"1000900000860","LANDMARKCO":"511","LANDMARKNA":"雲林溪夜市","LANDMARKAD":"1000901","ADDRESS":"雲林縣斗六市","TEL":" ","COUNTYNAME":"雲林縣","TOWNNAME":"斗六市","MARKTYPE":"995","Class":"5"},"geometry":{"x":120.53899493743147,"y":23.706188381926843}},{"attributes":{"OBJECTID":501,"LANDMARKID":"1000900000730","LANDMARKCO":"405","LANDMARKNA":"中油加油站-雲林東勢站(中油直營)","LANDMARKAD":"1000914","ADDRESS":"雲林縣東勢鄉復興村文化路2-10號","TEL":"05-6993200","COUNTYNAME":"雲林縣","TOWNNAME":"東勢鄉","MARKTYPE":"994","Class":"4"},"geometry":{"x":120.26913645474896,"y":23.677264226676705}},{"attributes":{"OBJECTID":502,"LANDMARKID":"1000900000731","LANDMARKCO":"405","LANDMARKNA":"中油加油站-東興站","LANDMARKAD":"1000914","ADDRESS":"雲林縣東勢鄉東勢西路268號","TEL":"056-991599","COUNTYNAME":"雲林縣","TOWNNAME":"東勢鄉","MARKTYPE":"994","Class":"4"},"geometry":{"x":120.24808504541126,"y":23.681409742765343}},{"attributes":{"OBJECTID":503,"LANDMARKID":"1000900000785","LANDMARKCO":"408","LANDMARKNA":"郵局-東勢厝郵局","LANDMARKAD":"1000914","ADDRESS":"雲林縣東勢鄉東南村東勢西路32號","TEL":"(05)6991-004","COUNTYNAME":"雲林縣","TOWNNAME":"東勢鄉","MARKTYPE":"994","Class":"4"},"geometry":{"x":120.25279647060364,"y":23.675734985487995}},{"attributes":{"OBJECTID":504,"LANDMARKID":"1000900000838","LANDMARKCO":"409","LANDMARKNA":"雲林縣東勢鄉農會","LANDMARKAD":"1000914","ADDRESS":"雲林縣東勢鄉東南村民生路56號","TEL":"05-6992246","COUNTYNAME":"雲林縣","TOWNNAME":"東勢鄉","MARKTYPE":"994","Class":"4"},"geometry":{"x":120.2547339548091,"y":23.675181563525349}},{"attributes":{"OBJECTID":505,"LANDMARKID":"1000900000237","LANDMARKCO":"108","LANDMARKNA":"雲林縣東勢鄉公所","LANDMARKAD":"1000914","ADDRESS":"雲林縣東勢鄉東南村所前街3號","TEL":"05-6991524","COUNTYNAME":"雲林縣","TOWNNAME":"東勢鄉","MARKTYPE":"991","Class":"1"},"geometry":{"x":120.25259603798794,"y":23.674735226781152}},{"attributes":{"OBJECTID":506,"LANDMARKID":"1000900000056","LANDMARKCO":"103","LANDMARKNA":"雲林縣東勢鄉鄉民代表會","LANDMARKAD":"1000914","ADDRESS":"雲林縣東勢鄉所前街3號","TEL":"05-6991071","COUNTYNAME":"雲林縣","TOWNNAME":"東勢鄉","MARKTYPE":"991","Class":"1"},"geometry":{"x":120.25258623475631,"y":23.674735132531435}},{"attributes":{"OBJECTID":507,"LANDMARKID":"1000900000057","LANDMARKCO":"103","LANDMARKNA":"雲林縣東勢鄉調解委員會","LANDMARKAD":"1000914","ADDRESS":"雲林縣東勢鄉所前街3號","TEL":"05-6995407","COUNTYNAME":"雲林縣","TOWNNAME":"東勢鄉","MARKTYPE":"991","Class":"1"},"geometry":{"x":120.25258623475631,"y":23.674735132531435}},{"attributes":{"OBJECTID":508,"LANDMARKID":"1000900000119","LANDMARKCO":"106","LANDMARKNA":"雲林縣東勢鄉戶政事務所","LANDMARKAD":"1000914","ADDRESS":"雲林縣東勢鄉東南村9鄰懷恩街42號","TEL":"05-6991053","COUNTYNAME":"雲林縣","TOWNNAME":"東勢鄉","MARKTYPE":"991","Class":"1"},"geometry":{"x":120.25553992463986,"y":23.675020968491424}},{"attributes":{"OBJECTID":509,"LANDMARKID":"1000900000171","LANDMARKCO":"107","LANDMARKNA":"雲林縣消防局東勢消防分隊","LANDMARKAD":"1000914","ADDRESS":"雲林縣東勢鄉東南村東勢東路218號之2","TEL":"05-6995119","COUNTYNAME":"雲林縣","TOWNNAME":"東勢鄉","MARKTYPE":"991","Class":"1"},"geometry":{"x":120.25780982593548,"y":23.674036187990318}},{"attributes":{"OBJECTID":510,"LANDMARKID":"1000900000054","LANDMARKCO":"103","LANDMARKNA":"雲林縣東勢鄉衛生所","LANDMARKAD":"1000914","ADDRESS":"雲林縣東勢鄉懷恩街40號","TEL":"05-6991190","COUNTYNAME":"雲林縣","TOWNNAME":"東勢鄉","MARKTYPE":"991","Class":"1"},"geometry":{"x":120.25255411188763,"y":23.677089480039214}},{"attributes":{"OBJECTID":511,"LANDMARKID":"1000900000172","LANDMARKCO":"107","LANDMARKNA":"雲林縣警察局安南派出所","LANDMARKAD":"1000914","ADDRESS":"雲林縣東勢鄉安南村安南路106號","TEL":"05-6691514","COUNTYNAME":"雲林縣","TOWNNAME":"東勢鄉","MARKTYPE":"991","Class":"1"},"geometry":{"x":120.24977389799729,"y":23.704223350066631}},{"attributes":{"OBJECTID":512,"LANDMARKID":"1000900000173","LANDMARKCO":"107","LANDMARKNA":"雲林縣警察局東勢分駐所","LANDMARKAD":"1000914","ADDRESS":"雲林縣東勢鄉東南村東勢東路83號","TEL":"05-6691032","COUNTYNAME":"雲林縣","TOWNNAME":"東勢鄉","MARKTYPE":"991","Class":"1"},"geometry":{"x":120.25532246341552,"y":23.675295755494268}},{"attributes":{"OBJECTID":513,"LANDMARKID":"1000900000025","LANDMARKCO":"101","LANDMARKNA":"嘉義區監理所東勢監理分站","LANDMARKAD":"1000914","ADDRESS":"雲林縣東勢鄉所前街5號","TEL":"05-6991100","COUNTYNAME":"雲林縣","TOWNNAME":"東勢鄉","MARKTYPE":"991","Class":"1"},"geometry":{"x":120.25227285905551,"y":23.675240348537443}},{"attributes":{"OBJECTID":514,"LANDMARKID":"1000900000487","LANDMARKCO":"204","LANDMARKNA":"雲林縣立圖書館東勢分館","LANDMARKAD":"1000914","ADDRESS":"雲林縣東勢鄉東榮路29巷1號","TEL":" ","COUNTYNAME":"雲林縣","TOWNNAME":"東勢鄉","MARKTYPE":"992","Class":"2"},"geometry":{"x":120.25598877526367,"y":23.672318596851223}},{"attributes":{"OBJECTID":515,"LANDMARKID":"1000900000379","LANDMARKCO":"203","LANDMARKNA":"縣立安南國小","LANDMARKAD":"1000914","ADDRESS":"雲林縣東勢鄉安南村安南路109號","TEL":"05-6991454","COUNTYNAME":"雲林縣","TOWNNAME":"東勢鄉","MARKTYPE":"992","Class":"2"},"geometry":{"x":120.24860245976689,"y":23.704868294774275}},{"attributes":{"OBJECTID":516,"LANDMARKID":"1000900000380","LANDMARKCO":"203","LANDMARKNA":"縣立東勢國中","LANDMARKAD":"1000914","ADDRESS":"雲林縣東勢鄉東榮路65號","TEL":"05-6991035","COUNTYNAME":"雲林縣","TOWNNAME":"東勢鄉","MARKTYPE":"992","Class":"2"},"geometry":{"x":120.25714842756135,"y":23.672395617813617}},{"attributes":{"OBJECTID":517,"LANDMARKID":"1000900000381","LANDMARKCO":"203","LANDMARKNA":"縣立明倫國小","LANDMARKAD":"1000914","ADDRESS":"雲林縣東勢鄉月眉村中山路10號","TEL":"05-6991504","COUNTYNAME":"雲林縣","TOWNNAME":"東勢鄉","MARKTYPE":"992","Class":"2"},"geometry":{"x":120.28497996823018,"y":23.682878950751661}},{"attributes":{"OBJECTID":518,"LANDMARKID":"1000900000382","LANDMARKCO":"203","LANDMARKNA":"縣立東勢國小","LANDMARKAD":"1000914","ADDRESS":"雲林縣東勢鄉東南村東榮路29巷9號","TEL":"05-6991036","COUNTYNAME":"雲林縣","TOWNNAME":"東勢鄉","MARKTYPE":"992","Class":"2"},"geometry":{"x":120.25708928148381,"y":23.674271212729678}},{"attributes":{"OBJECTID":519,"LANDMARKID":"1000900000383","LANDMARKCO":"203","LANDMARKNA":"縣立龍潭國小","LANDMARKAD":"1000914","ADDRESS":"雲林縣東勢鄉龍潭村信義路1號","TEL":"05-6991414","COUNTYNAME":"雲林縣","TOWNNAME":"東勢鄉","MARKTYPE":"992","Class":"2"},"geometry":{"x":120.23932825942133,"y":23.690070100627103}},{"attributes":{"OBJECTID":520,"LANDMARKID":"1000900000384","LANDMARKCO":"203","LANDMARKNA":"縣立同安國小","LANDMARKAD":"1000914","ADDRESS":"雲林縣東勢鄉同安路67號","TEL":"05-6991244","COUNTYNAME":"雲林縣","TOWNNAME":"東勢鄉","MARKTYPE":"992","Class":"2"},"geometry":{"x":120.26573922598205,"y":23.711569944699544}},{"attributes":{"OBJECTID":521,"LANDMARKID":"1000900000548","LANDMARKCO":"308","LANDMARKNA":"台78-東勢交流道-西行","LANDMARKAD":"1000914","ADDRESS":"雲林縣東勢鄉","TEL":" ","COUNTYNAME":"雲林縣","TOWNNAME":"東勢鄉","MARKTYPE":"993","Class":"308"},"geometry":{"x":120.25178714464887,"y":23.683707514341044}},{"attributes":{"OBJECTID":522,"LANDMARKID":"1000900000549","LANDMARKCO":"308","LANDMARKNA":"台78-東勢交流道-東行","LANDMARKAD":"1000914","ADDRESS":"雲林縣東勢鄉","TEL":" ","COUNTYNAME":"雲林縣","TOWNNAME":"東勢鄉","MARKTYPE":"993","Class":"308"},"geometry":{"x":120.25685063562224,"y":23.684642666642613}},{"attributes":{"OBJECTID":523,"LANDMARKID":"1000900000599","LANDMARKCO":"402","LANDMARKNA":"中華電信-東勢厝服務中心","LANDMARKAD":"1000914","ADDRESS":"雲林縣東勢鄉東勢東路349號","TEL":"(05)699-5144","COUNTYNAME":"雲林縣","TOWNNAME":"東勢鄉","MARKTYPE":"994","Class":"4"},"geometry":{"x":120.26277847030546,"y":23.676467892700536}},{"attributes":{"OBJECTID":524,"LANDMARKID":"1000900000884","LANDMARKCO":"603","LANDMARKNA":"萬安旅社","LANDMARKAD":"1000914","ADDRESS":"雲林縣東勢鄉東南村東勢西路8號","TEL":"05-6991276","COUNTYNAME":"雲林縣","TOWNNAME":"東勢鄉","MARKTYPE":"996","Class":"6"},"geometry":{"x":120.25312418070985,"y":23.675367929214779}},{"attributes":{"OBJECTID":525,"LANDMARKID":"1000900000722","LANDMARKCO":"405","LANDMARKNA":"中油加油站-馬光站(中油直營)","LANDMARKAD":"1000905","ADDRESS":"雲林縣土庫鎮後埔里後埔路500號","TEL":"05-6651124","COUNTYNAME":"雲林縣","TOWNNAME":"土庫鎮","MARKTYPE":"994","Class":"4"},"geometry":{"x":120.370912003934,"y":23.703386026169447}},{"attributes":{"OBJECTID":526,"LANDMARKID":"1000900000723","LANDMARKCO":"405","LANDMARKNA":"中油加油站-土庫站(中油直營)","LANDMARKAD":"1000905","ADDRESS":"雲林縣土庫鎮建國路131號","TEL":"05-6622644","COUNTYNAME":"雲林縣","TOWNNAME":"土庫鎮","MARKTYPE":"994","Class":"4"},"geometry":{"x":120.39350799010509,"y":23.678737116091977}},{"attributes":{"OBJECTID":527,"LANDMARKID":"1000900000724","LANDMARKCO":"405","LANDMARKNA":"中油加油站-三第站","LANDMARKAD":"1000905","ADDRESS":"雲林縣土庫鎮越港里林森路86號","TEL":"05-6621100","COUNTYNAME":"雲林縣","TOWNNAME":"土庫鎮","MARKTYPE":"994","Class":"4"},"geometry":{"x":120.39193157490175,"y":23.671020295324809}},{"attributes":{"OBJECTID":528,"LANDMARKID":"1000900000598","LANDMARKCO":"401","LANDMARKNA":"蔡醫院","LANDMARKAD":"1000905","ADDRESS":"雲林縣土庫鎮中山路64號","TEL":"05-6622580","COUNTYNAME":"雲林縣","TOWNNAME":"土庫鎮","MARKTYPE":"994","Class":"4"},"geometry":{"x":120.38986482894775,"y":23.674488158453919}},{"attributes":{"OBJECTID":529,"LANDMARKID":"1000900000786","LANDMARKCO":"408","LANDMARKNA":"郵局-土庫郵局","LANDMARKAD":"1000905","ADDRESS":"雲林縣土庫鎮大同路65號","TEL":"(05)6622-718","COUNTYNAME":"雲林縣","TOWNNAME":"土庫鎮","MARKTYPE":"994","Class":"4"},"geometry":{"x":120.3949425029011,"y":23.67596897989333}},{"attributes":{"OBJECTID":530,"LANDMARKID":"1000900000787","LANDMARKCO":"408","LANDMARKNA":"郵局-土庫馬光郵局","LANDMARKAD":"1000905","ADDRESS":"雲林縣土庫鎮馬光路177-5號","TEL":"(05)6652-193","COUNTYNAME":"雲林縣","TOWNNAME":"土庫鎮","MARKTYPE":"994","Class":"4"},"geometry":{"x":120.35330069159036,"y":23.705174132914351}},{"attributes":{"OBJECTID":531,"LANDMARKID":"1000900000837","LANDMARKCO":"409","LANDMARKNA":"雲林縣土庫鎮農會","LANDMARKAD":"1000905","ADDRESS":"雲林縣土庫鎮建國路37-1號","TEL":"05-6623111","COUNTYNAME":"雲林縣","TOWNNAME":"土庫鎮","MARKTYPE":"994","Class":"4"},"geometry":{"x":120.39158691060989,"y":23.676080565145927}},{"attributes":{"OBJECTID":532,"LANDMARKID":"1000900000649","LANDMARKCO":"404","LANDMARKNA":"台灣省自來水土庫營運所","LANDMARKAD":"1000905","ADDRESS":"雲林縣土庫鎮中正路53號","TEL":" ","COUNTYNAME":"雲林縣","TOWNNAME":"土庫鎮","MARKTYPE":"994","Class":"4"},"geometry":{"x":120.3881223062466,"y":23.674488826568112}},{"attributes":{"OBJECTID":533,"LANDMARKID":"1000900000721","LANDMARKCO":"405","LANDMARKNA":"福懋加油站-土庫站(台塑)","LANDMARKAD":"1000905","ADDRESS":"雲林縣土庫鎮越港里9鄰建國路7之1號","TEL":"05-6629722","COUNTYNAME":"雲林縣","TOWNNAME":"土庫鎮","MARKTYPE":"994","Class":"4"},"geometry":{"x":120.40248315524705,"y":23.680238715365142}},{"attributes":{"OBJECTID":534,"LANDMARKID":"1000900000174","LANDMARKCO":"107","LANDMARKNA":"雲林縣消防局土庫消防分隊","LANDMARKAD":"1000905","ADDRESS":"雲林縣土庫鎮中正路224號","TEL":"05-6622520","COUNTYNAME":"雲林縣","TOWNNAME":"土庫鎮","MARKTYPE":"991","Class":"1"},"geometry":{"x":120.39191816635733,"y":23.677861411339439}},{"attributes":{"OBJECTID":535,"LANDMARKID":"1000900000236","LANDMARKCO":"108","LANDMARKNA":"雲林縣土庫鎮公所","LANDMARKAD":"1000905","ADDRESS":"雲林縣土庫鎮石廟路里菜園110號","TEL":"05-6623211","COUNTYNAME":"雲林縣","TOWNNAME":"土庫鎮","MARKTYPE":"991","Class":"1"},"geometry":{"x":120.38964970558752,"y":23.682098776489578}},{"attributes":{"OBJECTID":536,"LANDMARKID":"1000900000058","LANDMARKCO":"103","LANDMARKNA":"雲林縣土庫鎮鎮民代表會","LANDMARKAD":"1000905","ADDRESS":"雲林縣土庫鎮石廟里菜園110號","TEL":"05-6621592","COUNTYNAME":"雲林縣","TOWNNAME":"土庫鎮","MARKTYPE":"991","Class":"1"},"geometry":{"x":120.38964970558752,"y":23.682098776489578}},{"attributes":{"OBJECTID":537,"LANDMARKID":"1000900000059","LANDMARKCO":"103","LANDMARKNA":"雲林縣土庫鎮衛生所","LANDMARKAD":"1000905","ADDRESS":"雲林縣土庫鎮中山路254號","TEL":"05-6622638","COUNTYNAME":"雲林縣","TOWNNAME":"土庫鎮","MARKTYPE":"991","Class":"1"},"geometry":{"x":120.39267643802137,"y":23.678339590974609}},{"attributes":{"OBJECTID":538,"LANDMARKID":"1000900000175","LANDMARKCO":"107","LANDMARKNA":"雲林縣警察局土庫分駐所","LANDMARKAD":"1000905","ADDRESS":"雲林縣土庫鎮順天里中山路245號","TEL":"05-6622514","COUNTYNAME":"雲林縣","TOWNNAME":"土庫鎮","MARKTYPE":"991","Class":"1"},"geometry":{"x":120.39194978452723,"y":23.677453654472835}},{"attributes":{"OBJECTID":539,"LANDMARKID":"1000900000176","LANDMARKCO":"107","LANDMARKNA":"雲林縣警察局馬光派出所","LANDMARKAD":"1000905","ADDRESS":"雲林縣土庫鎮南平里馬光路64號","TEL":"05-6652364","COUNTYNAME":"雲林縣","TOWNNAME":"土庫鎮","MARKTYPE":"991","Class":"1"},"geometry":{"x":120.35673674159094,"y":23.705859341454946}},{"attributes":{"OBJECTID":540,"LANDMARKID":"1000900000118","LANDMARKCO":"106","LANDMARKNA":"雲林縣土庫鎮戶政事務所","LANDMARKAD":"1000905","ADDRESS":"雲林縣土庫鎮宮北里2鄰中山路245之1號","TEL":"05-6623815","COUNTYNAME":"雲林縣","TOWNNAME":"土庫鎮","MARKTYPE":"991","Class":"1"},"geometry":{"x":120.39168182315154,"y":23.677607584814478}},{"attributes":{"OBJECTID":541,"LANDMARKID":"1000900000489","LANDMARKCO":"204","LANDMARKNA":"雲林縣立圖書館土庫分館","LANDMARKAD":"1000905","ADDRESS":"雲林縣土庫鎮中正路69之1號","TEL":" ","COUNTYNAME":"雲林縣","TOWNNAME":"土庫鎮","MARKTYPE":"992","Class":"2"},"geometry":{"x":120.38900936821049,"y":23.674916310174144}},{"attributes":{"OBJECTID":542,"LANDMARKID":"1000900000378","LANDMARKCO":"203","LANDMARKNA":"縣立新庄國小","LANDMARKAD":"1000905","ADDRESS":"雲林縣土庫鎮新庄里南新庄1號","TEL":"05-6652874","COUNTYNAME":"雲林縣","TOWNNAME":"土庫鎮","MARKTYPE":"992","Class":"2"},"geometry":{"x":120.37126198894849,"y":23.732775382174321}},{"attributes":{"OBJECTID":543,"LANDMARKID":"1000900000263","LANDMARKCO":"202","LANDMARKNA":"私立永年高中","LANDMARKAD":"1000905","ADDRESS":"雲林縣土庫鎮建國路13號","TEL":"05-6622540","COUNTYNAME":"雲林縣","TOWNNAME":"土庫鎮","MARKTYPE":"992","Class":"2"},"geometry":{"x":120.39946292674188,"y":23.679295675342406}},{"attributes":{"OBJECTID":544,"LANDMARKID":"1000900000264","LANDMARKCO":"202","LANDMARKNA":"國立土庫商工","LANDMARKAD":"1000905","ADDRESS":"雲林縣土庫鎮中央路2號","TEL":"05-6622538","COUNTYNAME":"雲林縣","TOWNNAME":"土庫鎮","MARKTYPE":"992","Class":"2"},"geometry":{"x":120.38755741484491,"y":23.672855335146991}},{"attributes":{"OBJECTID":545,"LANDMARKID":"1000900000265","LANDMARKCO":"202","LANDMARKNA":"私立永年高中附設國中部","LANDMARKAD":"1000905","ADDRESS":"雲林縣土庫鎮建國路13號","TEL":"05-6622540","COUNTYNAME":"雲林縣","TOWNNAME":"土庫鎮","MARKTYPE":"992","Class":"2"},"geometry":{"x":120.39946292674188,"y":23.679295675342406}},{"attributes":{"OBJECTID":546,"LANDMARKID":"1000900000370","LANDMARKCO":"203","LANDMARKNA":"縣立馬光國中","LANDMARKAD":"1000905","ADDRESS":"雲林縣土庫鎮馬光里和平街101號","TEL":"05-6653587","COUNTYNAME":"雲林縣","TOWNNAME":"土庫鎮","MARKTYPE":"992","Class":"2"},"geometry":{"x":120.35687671933746,"y":23.694079132858317}},{"attributes":{"OBJECTID":547,"LANDMARKID":"1000900000371","LANDMARKCO":"203","LANDMARKNA":"縣立土庫國小","LANDMARKAD":"1000905","ADDRESS":"雲林縣土庫鎮順天里中正路69號","TEL":"05-6622524","COUNTYNAME":"雲林縣","TOWNNAME":"土庫鎮","MARKTYPE":"992","Class":"2"},"geometry":{"x":120.38896021817435,"y":23.676118280409003}},{"attributes":{"OBJECTID":548,"LANDMARKID":"1000900000372","LANDMARKCO":"203","LANDMARKNA":"縣立秀潭國小","LANDMARKAD":"1000905","ADDRESS":"雲林縣土庫鎮奮起里秀潭9號","TEL":"05-6622004","COUNTYNAME":"雲林縣","TOWNNAME":"土庫鎮","MARKTYPE":"992","Class":"2"},"geometry":{"x":120.34955251036514,"y":23.656954737708727}},{"attributes":{"OBJECTID":549,"LANDMARKID":"1000900000373","LANDMARKCO":"203","LANDMARKNA":"縣立馬光國小","LANDMARKAD":"1000905","ADDRESS":"雲林縣土庫鎮西平里馬光路174號","TEL":"05-6653864","COUNTYNAME":"雲林縣","TOWNNAME":"土庫鎮","MARKTYPE":"992","Class":"2"},"geometry":{"x":120.35215362430704,"y":23.706011886474709}},{"attributes":{"OBJECTID":550,"LANDMARKID":"1000900000374","LANDMARKCO":"203","LANDMARKNA":"縣立土庫國中","LANDMARKAD":"1000905","ADDRESS":"雲林縣土庫鎮復興路16號","TEL":"05-6622904","COUNTYNAME":"雲林縣","TOWNNAME":"土庫鎮","MARKTYPE":"992","Class":"2"},"geometry":{"x":120.38921610652611,"y":23.686880697174892}},{"attributes":{"OBJECTID":551,"LANDMARKID":"1000900000375","LANDMARKCO":"203","LANDMARKNA":"縣立後埔國小","LANDMARKAD":"1000905","ADDRESS":"雲林縣土庫鎮後埔里241號","TEL":"05-6650483","COUNTYNAME":"雲林縣","TOWNNAME":"土庫鎮","MARKTYPE":"992","Class":"2"},"geometry":{"x":120.37087801092837,"y":23.699904734670643}},{"attributes":{"OBJECTID":552,"LANDMARKID":"1000900000376","LANDMARKCO":"203","LANDMARKNA":"縣立埤腳國小","LANDMARKAD":"1000905","ADDRESS":"雲林縣土庫鎮埤腳里56號","TEL":"05-6622204","COUNTYNAME":"雲林縣","TOWNNAME":"土庫鎮","MARKTYPE":"992","Class":"2"},"geometry":{"x":120.34915048300142,"y":23.669929329289829}},{"attributes":{"OBJECTID":553,"LANDMARKID":"1000900000377","LANDMARKCO":"203","LANDMARKNA":"縣立宏崙國小","LANDMARKAD":"1000905","ADDRESS":"雲林縣土庫鎮崙內里果園路41號","TEL":"05-6653824","COUNTYNAME":"雲林縣","TOWNNAME":"土庫鎮","MARKTYPE":"992","Class":"2"},"geometry":{"x":120.34849710922654,"y":23.686809116833249}},{"attributes":{"OBJECTID":554,"LANDMARKID":"1000900000550","LANDMARKCO":"308","LANDMARKNA":"台78-土庫交流道-東行","LANDMARKAD":"1000905","ADDRESS":"雲林縣土庫鎮","TEL":" ","COUNTYNAME":"雲林縣","TOWNNAME":"土庫鎮","MARKTYPE":"993","Class":"308"},"geometry":{"x":120.38888927162418,"y":23.690081283371473}},{"attributes":{"OBJECTID":555,"LANDMARKID":"1000900000551","LANDMARKCO":"308","LANDMARKNA":"台78-土庫交流道-西行","LANDMARKAD":"1000905","ADDRESS":"雲林縣土庫鎮","TEL":" ","COUNTYNAME":"雲林縣","TOWNNAME":"土庫鎮","MARKTYPE":"993","Class":"308"},"geometry":{"x":120.38541382542564,"y":23.69160688375451}},{"attributes":{"OBJECTID":556,"LANDMARKID":"1000900000511","LANDMARKCO":"302","LANDMARKNA":"台西汽車客運土庫站","LANDMARKAD":"1000905","ADDRESS":"雲林縣土庫鎮中山路254號","TEL":" ","COUNTYNAME":"雲林縣","TOWNNAME":"土庫鎮","MARKTYPE":"993","Class":"302"},"geometry":{"x":120.3925650776457,"y":23.678374796897806}},{"attributes":{"OBJECTID":557,"LANDMARKID":"1000900000600","LANDMARKCO":"402","LANDMARKNA":"中華電信-土庫服務中心","LANDMARKAD":"1000905","ADDRESS":"雲林縣土庫鎮中山路199號","TEL":"(05)662-7834","COUNTYNAME":"雲林縣","TOWNNAME":"土庫鎮","MARKTYPE":"994","Class":"4"},"geometry":{"x":120.39150453870643,"y":23.676677217116772}},{"attributes":{"OBJECTID":558,"LANDMARKID":"1000900000885","LANDMARKCO":"603","LANDMARKNA":"榮光旅社","LANDMARKAD":"1000905","ADDRESS":"雲林縣土庫鎮中山路233號","TEL":"05-6622543","COUNTYNAME":"雲林縣","TOWNNAME":"土庫鎮","MARKTYPE":"996","Class":"6"},"geometry":{"x":120.39186197704326,"y":23.677246995848474}},{"attributes":{"OBJECTID":559,"LANDMARKID":"1000900000725","LANDMARKCO":"405","LANDMARKNA":"中油加油站-斗南建國路站(中油直營)","LANDMARKAD":"1000902","ADDRESS":"雲林縣斗南鎮明昌里建國三路220號","TEL":"05-5951455","COUNTYNAME":"雲林縣","TOWNNAME":"斗南鎮","MARKTYPE":"994","Class":"4"},"geometry":{"x":120.4690895233319,"y":23.67095803722669}},{"attributes":{"OBJECTID":560,"LANDMARKID":"1000900000726","LANDMARKCO":"405","LANDMARKNA":"中油加油站-斗南新光站(中油直營)","LANDMARKAD":"1000902","ADDRESS":"雲林縣斗南鎮東明里雲林路三段707號","TEL":"05-5953085","COUNTYNAME":"雲林縣","TOWNNAME":"斗南鎮","MARKTYPE":"994","Class":"4"},"geometry":{"x":120.49832564190153,"y":23.686232090234004}},{"attributes":{"OBJECTID":561,"LANDMARKID":"1000900000727","LANDMARKCO":"405","LANDMARKNA":"中油加油站-斗南延平路站(中油直營)","LANDMARKAD":"1000902","ADDRESS":"雲林縣斗南鎮南昌里延平路二段511號","TEL":"05-5961570","COUNTYNAME":"雲林縣","TOWNNAME":"斗南鎮","MARKTYPE":"994","Class":"4"},"geometry":{"x":120.47624453676092,"y":23.671319878032566}},{"attributes":{"OBJECTID":562,"LANDMARKID":"1000900000728","LANDMARKCO":"405","LANDMARKNA":"中油加油站-斗南中興路站(中油直營)","LANDMARKAD":"1000902","ADDRESS":"雲林縣斗南鎮中興路201號","TEL":"05-5961172","COUNTYNAME":"雲林縣","TOWNNAME":"斗南鎮","MARKTYPE":"994","Class":"4"},"geometry":{"x":120.46304591751101,"y":23.677274912983222}},{"attributes":{"OBJECTID":563,"LANDMARKID":"1000900000729","LANDMARKCO":"405","LANDMARKNA":"中油加油站-新斗南交流道站","LANDMARKAD":"1000902","ADDRESS":"雲林縣斗南鎮小東里大業路56號","TEL":"05-5954897","COUNTYNAME":"雲林縣","TOWNNAME":"斗南鎮","MARKTYPE":"994","Class":"4"},"geometry":{"x":120.47737459943708,"y":23.693564131176515}},{"attributes":{"OBJECTID":564,"LANDMARKID":"1000900000601","LANDMARKCO":"402","LANDMARKNA":"亞太行動寬頻電信-斗南中山加盟服務中心","LANDMARKAD":"1000902","ADDRESS":"雲林縣斗南鎮南昌里中山路57號","TEL":"05-5975965","COUNTYNAME":"雲林縣","TOWNNAME":"斗南鎮","MARKTYPE":"994","Class":"4"},"geometry":{"x":120.47948270930141,"y":23.674735801905175}},{"attributes":{"OBJECTID":565,"LANDMARKID":"1000900000597","LANDMARKCO":"401","LANDMARKNA":"天主教福安醫院","LANDMARKAD":"1000902","ADDRESS":"雲林縣斗南鎮文昌路110號","TEL":"05-5972133","COUNTYNAME":"雲林縣","TOWNNAME":"斗南鎮","MARKTYPE":"994","Class":"4"},"geometry":{"x":120.48208065149365,"y":23.678780136122466}},{"attributes":{"OBJECTID":566,"LANDMARKID":"1000900000788","LANDMARKCO":"408","LANDMARKNA":"郵局-斗南石龜郵局","LANDMARKAD":"1000902","ADDRESS":"雲林縣斗南鎮中和路54號","TEL":"(05)5972-464","COUNTYNAME":"雲林縣","TOWNNAME":"斗南鎮","MARKTYPE":"994","Class":"4"},"geometry":{"x":120.48265490073916,"y":23.64118424073801}},{"attributes":{"OBJECTID":567,"LANDMARKID":"1000900000789","LANDMARKCO":"408","LANDMARKNA":"郵局-斗南新光郵局","LANDMARKAD":"1000902","ADDRESS":"雲林縣斗南鎮光興路78號","TEL":"(05)5978-740","COUNTYNAME":"雲林縣","TOWNNAME":"斗南鎮","MARKTYPE":"994","Class":"4"},"geometry":{"x":120.48141328570307,"y":23.689385591196928}},{"attributes":{"OBJECTID":568,"LANDMARKID":"1000900000790","LANDMARKCO":"408","LANDMARKNA":"郵局-斗南郵局","LANDMARKAD":"1000902","ADDRESS":"雲林縣斗南鎮中山路77號","TEL":"(05)5972-209","COUNTYNAME":"雲林縣","TOWNNAME":"斗南鎮","MARKTYPE":"994","Class":"4"},"geometry":{"x":120.47890162340214,"y":23.675094856005892}},{"attributes":{"OBJECTID":569,"LANDMARKID":"1000900000834","LANDMARKCO":"409","LANDMARKNA":"雲林縣斗南鎮農會","LANDMARKAD":"1000902","ADDRESS":"雲林縣斗南鎮中天里中山路116號","TEL":"05-5973120","COUNTYNAME":"雲林縣","TOWNNAME":"斗南鎮","MARKTYPE":"994","Class":"4"},"geometry":{"x":120.47930213971767,"y":23.676624508920568}},{"attributes":{"OBJECTID":570,"LANDMARKID":"1000900000835","LANDMARKCO":"409","LANDMARKNA":"雲林縣農會","LANDMARKAD":"1000902","ADDRESS":"雲林縣斗南鎮永安街57號","TEL":"05-5974101","COUNTYNAME":"雲林縣","TOWNNAME":"斗南鎮","MARKTYPE":"994","Class":"4"},"geometry":{"x":120.48268449620285,"y":23.678242580371752}},{"attributes":{"OBJECTID":571,"LANDMARKID":"1000900000836","LANDMARKCO":"409","LANDMARKNA":"斗南區魚市場","LANDMARKAD":"1000902","ADDRESS":"斗南鎮北銘里自強路22號","TEL":"05-5972053　","COUNTYNAME":"雲林縣","TOWNNAME":"斗南鎮","MARKTYPE":"994","Class":"4"},"geometry":{"x":120.48210744828893,"y":23.683232268906924}},{"attributes":{"OBJECTID":572,"LANDMARKID":"1000900000648","LANDMARKCO":"404","LANDMARKNA":"台灣省自來水斗南營運所","LANDMARKAD":"1000902","ADDRESS":"雲林縣斗南鎮中山路172號","TEL":" ","COUNTYNAME":"雲林縣","TOWNNAME":"斗南鎮","MARKTYPE":"994","Class":"4"},"geometry":{"x":120.47804864989007,"y":23.679047268942909}},{"attributes":{"OBJECTID":573,"LANDMARKID":"1000900000765","LANDMARKCO":"406","LANDMARKNA":"中正公園","LANDMARKAD":"1000902","ADDRESS":"雲林縣斗南鎮","TEL":" ","COUNTYNAME":"雲林縣","TOWNNAME":"斗南鎮","MARKTYPE":"994","Class":"4"},"geometry":{"x":120.49292439749117,"y":23.670844857297478}},{"attributes":{"OBJECTID":574,"LANDMARKID":"1000900000732","LANDMARKCO":"405","LANDMARKNA":"福懋加油站-斗南站(台塑)","LANDMARKAD":"1000902","ADDRESS":"雲林縣斗南鎮小東里大業路191號","TEL":"05-5963266","COUNTYNAME":"雲林縣","TOWNNAME":"斗南鎮","MARKTYPE":"994","Class":"4"},"geometry":{"x":120.46797031798168,"y":23.693504839585955}},{"attributes":{"OBJECTID":575,"LANDMARKID":"1000900000733","LANDMARKCO":"405","LANDMARKNA":"全國加油站-斗南交流道站（台塑）","LANDMARKAD":"1000902","ADDRESS":"雲林縣斗南鎮延平路一段321號","TEL":"05-5969209","COUNTYNAME":"雲林縣","TOWNNAME":"斗南鎮","MARKTYPE":"994","Class":"4"},"geometry":{"x":120.48056213337632,"y":23.688498884329757}},{"attributes":{"OBJECTID":576,"LANDMARKID":"1000900000734","LANDMARKCO":"405","LANDMARKNA":"福懋加油站-北銘站(台塑)","LANDMARKAD":"1000902","ADDRESS":"雲林縣斗南鎮延平路二段85號","TEL":"05-5953992","COUNTYNAME":"雲林縣","TOWNNAME":"斗南鎮","MARKTYPE":"994","Class":"4"},"geometry":{"x":120.48171400146816,"y":23.682201699039183}},{"attributes":{"OBJECTID":577,"LANDMARKID":"1000900000051","LANDMARKCO":"103","LANDMARKNA":"雲林縣斗南鎮衛生所","LANDMARKAD":"1000902","ADDRESS":"雲林縣斗南鎮福德街153號","TEL":"05-5973329","COUNTYNAME":"雲林縣","TOWNNAME":"斗南鎮","MARKTYPE":"991","Class":"1"},"geometry":{"x":120.47886931891236,"y":23.679445206058638}},{"attributes":{"OBJECTID":578,"LANDMARKID":"1000900000183","LANDMARKCO":"107","LANDMARKNA":"雲林縣警察局斗南派出所","LANDMARKAD":"1000902","ADDRESS":"雲林縣斗南鎮南昌里中山路11號","TEL":"05-5972047","COUNTYNAME":"雲林縣","TOWNNAME":"斗南鎮","MARKTYPE":"991","Class":"1"},"geometry":{"x":120.48016831863585,"y":23.673584622180535}},{"attributes":{"OBJECTID":579,"LANDMARKID":"1000900000104","LANDMARKCO":"105","LANDMARKNA":"雲林縣斗南地政事務所","LANDMARKAD":"1000902","ADDRESS":"雲林縣斗南鎮文昌路167號","TEL":"05-5974111","COUNTYNAME":"雲林縣","TOWNNAME":"斗南鎮","MARKTYPE":"991","Class":"1"},"geometry":{"x":120.47908357752566,"y":23.679627243111426}},{"attributes":{"OBJECTID":580,"LANDMARKID":"1000900000182","LANDMARKCO":"107","LANDMARKNA":"雲林縣警察局建國派出所","LANDMARKAD":"1000902","ADDRESS":"雲林縣斗南鎮將軍里阿丹1號","TEL":"05-5973724","COUNTYNAME":"雲林縣","TOWNNAME":"斗南鎮","MARKTYPE":"991","Class":"1"},"geometry":{"x":120.50508110491914,"y":23.649285235538485}},{"attributes":{"OBJECTID":581,"LANDMARKID":"1000900000234","LANDMARKCO":"108","LANDMARKNA":"雲林縣斗南鎮公所","LANDMARKAD":"1000902","ADDRESS":"雲林縣斗南鎮文昌路200號","TEL":"05-5973111","COUNTYNAME":"雲林縣","TOWNNAME":"斗南鎮","MARKTYPE":"991","Class":"1"},"geometry":{"x":120.47761268327048,"y":23.680136730331547}},{"attributes":{"OBJECTID":582,"LANDMARKID":"1000900000050","LANDMARKCO":"103","LANDMARKNA":"雲林縣斗南鎮鎮民代表會","LANDMARKAD":"1000902","ADDRESS":"雲林縣斗南鎮文昌路200號","TEL":"05-5972219","COUNTYNAME":"雲林縣","TOWNNAME":"斗南鎮","MARKTYPE":"991","Class":"1"},"geometry":{"x":120.47761268327048,"y":23.680136730331547}},{"attributes":{"OBJECTID":583,"LANDMARKID":"1000900000184","LANDMARKCO":"107","LANDMARKNA":"雲林縣消防局斗南消防分隊","LANDMARKAD":"1000902","ADDRESS":"雲林縣斗南鎮自強路11號","TEL":"05-5972374","COUNTYNAME":"雲林縣","TOWNNAME":"斗南鎮","MARKTYPE":"991","Class":"1"},"geometry":{"x":120.48310095482348,"y":23.682929923528746}},{"attributes":{"OBJECTID":584,"LANDMARKID":"1000900000185","LANDMARKCO":"107","LANDMARKNA":"雲林縣警察局斗南分局","LANDMARKAD":"1000902","ADDRESS":"雲林縣斗南鎮文昌路500號","TEL":"05-5972005","COUNTYNAME":"雲林縣","TOWNNAME":"斗南鎮","MARKTYPE":"991","Class":"1"},"geometry":{"x":120.47202647528879,"y":23.679516754595873}},{"attributes":{"OBJECTID":585,"LANDMARKID":"1000900000186","LANDMARKCO":"107","LANDMARKNA":"雲林縣警察局四維派出所","LANDMARKAD":"1000902","ADDRESS":"雲林縣斗南鎮石溪里中和路77號","TEL":"05-5973554","COUNTYNAME":"雲林縣","TOWNNAME":"斗南鎮","MARKTYPE":"991","Class":"1"},"geometry":{"x":120.48183389193952,"y":23.641608129132472}},{"attributes":{"OBJECTID":586,"LANDMARKID":"1000900000187","LANDMARKCO":"107","LANDMARKNA":"雲林縣警察局新光派出所","LANDMARKAD":"1000902","ADDRESS":"雲林縣斗南鎮新光里延平路1段222號","TEL":"05-5972540","COUNTYNAME":"雲林縣","TOWNNAME":"斗南鎮","MARKTYPE":"991","Class":"1"},"geometry":{"x":120.4796552024256,"y":23.690885969861853}},{"attributes":{"OBJECTID":587,"LANDMARKID":"1000900000117","LANDMARKCO":"106","LANDMARKNA":"雲林縣斗南鎮戶政事務所","LANDMARKAD":"1000902","ADDRESS":"雲林縣斗南鎮中山路178號","TEL":"05-5975440","COUNTYNAME":"雲林縣","TOWNNAME":"斗南鎮","MARKTYPE":"991","Class":"1"},"geometry":{"x":120.47735638649031,"y":23.68055579087795}},{"attributes":{"OBJECTID":588,"LANDMARKID":"1000900000026","LANDMARKCO":"101","LANDMARKNA":"內政部古坑教養院籌備處","LANDMARKAD":"1000902","ADDRESS":"雲林縣斗南鎮忠孝路172號","TEL":"05-5963191","COUNTYNAME":"雲林縣","TOWNNAME":"斗南鎮","MARKTYPE":"991","Class":"1"},"geometry":{"x":120.48895689706664,"y":23.672723018707121}},{"attributes":{"OBJECTID":589,"LANDMARKID":"1000900000027","LANDMARKCO":"101","LANDMARKNA":"內政部雲林教養院","LANDMARKAD":"1000902","ADDRESS":"雲林縣斗南鎮忠孝路157號","TEL":"05-5954359","COUNTYNAME":"雲林縣","TOWNNAME":"斗南鎮","MARKTYPE":"991","Class":"1"},"geometry":{"x":120.49064234603917,"y":23.673591953607186}},{"attributes":{"OBJECTID":590,"LANDMARKID":"1000900000028","LANDMARKCO":"101","LANDMARKNA":"農業委員會台南區農業改良場","LANDMARKAD":"1000902","ADDRESS":"雲林縣斗南鎮復興路1號之15","TEL":"05-5970728","COUNTYNAME":"雲林縣","TOWNNAME":"斗南鎮","MARKTYPE":"991","Class":"1"},"geometry":{"x":120.47625194617173,"y":23.63535952533126}},{"attributes":{"OBJECTID":591,"LANDMARKID":"1000900000029","LANDMARKCO":"101","LANDMARKNA":"國道高速公路局中區工程處斗南","LANDMARKAD":"1000902","ADDRESS":"雲林縣斗南鎮小東里大業路119號","TEL":"05-5973141轉320","COUNTYNAME":"雲林縣","TOWNNAME":"斗南鎮","MARKTYPE":"991","Class":"1"},"geometry":{"x":120.47443805320671,"y":23.69253047182832}},{"attributes":{"OBJECTID":592,"LANDMARKID":"1000900000188","LANDMARKCO":"107","LANDMARKNA":"雲林縣警察局新崙派出所","LANDMARKAD":"1000902","ADDRESS":"雲林縣斗南鎮埤麻里新庴67號","TEL":"05-5973524","COUNTYNAME":"雲林縣","TOWNNAME":"斗南鎮","MARKTYPE":"991","Class":"1"},"geometry":{"x":120.44779901379306,"y":23.678252363651964}},{"attributes":{"OBJECTID":593,"LANDMARKID":"1000900000490","LANDMARKCO":"204","LANDMARKNA":"雲林縣立圖書館斗南分館","LANDMARKAD":"1000902","ADDRESS":"雲林縣斗南鎮福德街151號","TEL":" ","COUNTYNAME":"雲林縣","TOWNNAME":"斗南鎮","MARKTYPE":"992","Class":"2"},"geometry":{"x":120.47885595931493,"y":23.679052709615604}},{"attributes":{"OBJECTID":594,"LANDMARKID":"1000900000266","LANDMARKCO":"202","LANDMARKNA":"縣立斗南高中","LANDMARKAD":"1000902","ADDRESS":"雲林縣斗南鎮中山路212號","TEL":"05-5972059","COUNTYNAME":"雲林縣","TOWNNAME":"斗南鎮","MARKTYPE":"992","Class":"2"},"geometry":{"x":120.47595672565184,"y":23.682143851002589}},{"attributes":{"OBJECTID":595,"LANDMARKID":"1000900000369","LANDMARKCO":"203","LANDMARKNA":"縣立斗南高中附設國中部","LANDMARKAD":"1000902","ADDRESS":"雲林縣斗南鎮中山路212號","TEL":"05-5972059","COUNTYNAME":"雲林縣","TOWNNAME":"斗南鎮","MARKTYPE":"992","Class":"2"},"geometry":{"x":120.47595744567037,"y":23.682053557410967}},{"attributes":{"OBJECTID":596,"LANDMARKID":"1000900000269","LANDMARKCO":"202","LANDMARKNA":"私立大德工商","LANDMARKAD":"1000902","ADDRESS":"雲林縣斗南鎮大同路400號","TEL":"05-5970977","COUNTYNAME":"雲林縣","TOWNNAME":"斗南鎮","MARKTYPE":"992","Class":"2"},"geometry":{"x":120.47397127025813,"y":23.685786212023153}},{"attributes":{"OBJECTID":597,"LANDMARKID":"1000900000347","LANDMARKCO":"203","LANDMARKNA":"縣立東明國中","LANDMARKAD":"1000902","ADDRESS":"雲林縣斗南鎮中興路111號","TEL":"05-5965474","COUNTYNAME":"雲林縣","TOWNNAME":"斗南鎮","MARKTYPE":"992","Class":"2"},"geometry":{"x":120.46975737489122,"y":23.677363391901512}},{"attributes":{"OBJECTID":598,"LANDMARKID":"1000900000348","LANDMARKCO":"203","LANDMARKNA":"縣立斗南國小","LANDMARKAD":"1000902","ADDRESS":"雲林縣斗南鎮西歧里文昌路150號","TEL":"05-5972020","COUNTYNAME":"雲林縣","TOWNNAME":"斗南鎮","MARKTYPE":"992","Class":"2"},"geometry":{"x":120.47948208658343,"y":23.680302012316307}},{"attributes":{"OBJECTID":599,"LANDMARKID":"1000900000349","LANDMARKCO":"203","LANDMARKNA":"縣立文安國小","LANDMARKAD":"1000902","ADDRESS":"雲林縣斗南鎮延平路一段189號","TEL":"05-5972265","COUNTYNAME":"雲林縣","TOWNNAME":"斗南鎮","MARKTYPE":"992","Class":"2"},"geometry":{"x":120.48112182721979,"y":23.69178498951419}},{"attributes":{"OBJECTID":600,"LANDMARKID":"1000900000350","LANDMARKCO":"203","LANDMARKNA":"縣立僑真國小","LANDMARKAD":"1000902","ADDRESS":"雲林縣斗南鎮延平路二段642號","TEL":"05-5972241","COUNTYNAME":"雲林縣","TOWNNAME":"斗南鎮","MARKTYPE":"992","Class":"2"},"geometry":{"x":120.47489653846756,"y":23.668099863117192}}]}