{"displayFieldName":"COUNTYNAME","fieldAliases":{"OBJECTID":"OBJECTID","LANDMARKID":"LANDMARKID","LANDMARKCO":"LANDMARKCO","LANDMARKNA":"LANDMARKNA","LANDMARKAD":"LANDMARKAD","ADDRESS":"ADDRESS","TEL":"TEL","COUNTYNAME":"COUNTYNAME","TOWNNAME":"TOWNNAME","MARKTYPE":"MARKTYPE","Class":"Class"},"geometryType":"esriGeometryPoint","spatialReference":{"wkid":4326},"fields":[{"name":"OBJECTID","type":"esriFieldTypeOID","alias":"OBJECTID"},{"name":"LANDMARKID","type":"esriFieldTypeString","alias":"LANDMARKID","length":15},{"name":"LANDMARKCO","type":"esriFieldTypeString","alias":"LANDMARKCO","length":15},{"name":"LANDMARKNA","type":"esriFieldTypeString","alias":"LANDMARKNA","length":50},{"name":"LANDMARKAD","type":"esriFieldTypeString","alias":"LANDMARKAD","length":15},{"name":"ADDRESS","type":"esriFieldTypeString","alias":"ADDRESS","length":56},{"name":"TEL","type":"esriFieldTypeString","alias":"TEL","length":36},{"name":"COUNTYNAME","type":"esriFieldTypeString","alias":"COUNTYNAME","length":15},{"name":"TOWNNAME","type":"esriFieldTypeString","alias":"TOWNNAME","length":13},{"name":"MARKTYPE","type":"esriFieldTypeString","alias":"MARKTYPE","length":12},{"name":"Class","type":"esriFieldTypeString","alias":"Class","length":5}],"features":[{"attributes":{"OBJECTID":19601,"LANDMARKID":"1001200000899","LANDMARKCO":"405","LANDMARKNA":"中油加油站-大崗山站","LANDMARKAD":"1001212","ADDRESS":"高雄市阿蓮區峰山村峰南66號之12","TEL":"07-6321100","COUNTYNAME":"高雄市","TOWNNAME":"阿蓮區","MARKTYPE":"994","Class":"4"},"geometry":{"x":120.35267022271668,"y":22.876429924453976}},{"attributes":{"OBJECTID":19602,"LANDMARKID":"1001200000900","LANDMARKCO":"405","LANDMARKNA":"中油加油站-和蓮站","LANDMARKAD":"1001212","ADDRESS":"高雄市阿蓮區和蓮村中正路960號","TEL":"07-6312453","COUNTYNAME":"高雄市","TOWNNAME":"阿蓮區","MARKTYPE":"994","Class":"4"},"geometry":{"x":120.32113312610046,"y":22.880367267871833}},{"attributes":{"OBJECTID":19603,"LANDMARKID":"1001200000731","LANDMARKCO":"401","LANDMARKNA":"長佑醫院","LANDMARKAD":"1001212","ADDRESS":"高雄市阿蓮區中山路150號","TEL":"07-6311267","COUNTYNAME":"高雄市","TOWNNAME":"阿蓮區","MARKTYPE":"994","Class":"4"},"geometry":{"x":120.32786550225872,"y":22.8778100627393}},{"attributes":{"OBJECTID":19604,"LANDMARKID":"1001200000732","LANDMARKCO":"401","LANDMARKNA":"萬民醫院","LANDMARKAD":"1001212","ADDRESS":"高雄市阿蓮區中山路71號","TEL":"07-6320288","COUNTYNAME":"高雄市","TOWNNAME":"阿蓮區","MARKTYPE":"994","Class":"4"},"geometry":{"x":120.32891174129352,"y":22.879444411962297}},{"attributes":{"OBJECTID":19605,"LANDMARKID":"1001200001108","LANDMARKCO":"408","LANDMARKNA":"郵局-阿蓮郵局","LANDMARKAD":"1001212","ADDRESS":"高雄市阿蓮區清蓮村民生路101號","TEL":"(07)6312-140","COUNTYNAME":"高雄市","TOWNNAME":"阿蓮區","MARKTYPE":"994","Class":"4"},"geometry":{"x":120.3270513365423,"y":22.882921760141951}},{"attributes":{"OBJECTID":19606,"LANDMARKID":"1001200001129","LANDMARKCO":"409","LANDMARKNA":"高雄市阿蓮區農會","LANDMARKAD":"1001212","ADDRESS":"高雄市阿蓮區清蓮村中山路200號","TEL":"07-6311141","COUNTYNAME":"高雄市","TOWNNAME":"阿蓮區","MARKTYPE":"994","Class":"4"},"geometry":{"x":120.32737840550999,"y":22.876723111787019}},{"attributes":{"OBJECTID":19607,"LANDMARKID":"1001200001130","LANDMARKCO":"409","LANDMARKNA":"阿蓮農會-中路分部","LANDMARKAD":"1001212","ADDRESS":"高雄市阿蓮區中路村238號","TEL":"07-631-20","COUNTYNAME":"高雄市","TOWNNAME":"阿蓮區","MARKTYPE":"994","Class":"4"},"geometry":{"x":120.29433776871589,"y":22.895455947385287}},{"attributes":{"OBJECTID":19608,"LANDMARKID":"1001200000901","LANDMARKCO":"405","LANDMARKNA":"台亞加油站-阿蓮站（台塑）","LANDMARKAD":"1001212","ADDRESS":"高雄市阿蓮區中正路91號","TEL":"(07)631-6972","COUNTYNAME":"高雄市","TOWNNAME":"阿蓮區","MARKTYPE":"994","Class":"4"},"geometry":{"x":120.34061630493959,"y":22.881614805475056}},{"attributes":{"OBJECTID":19609,"LANDMARKID":"1001200000082","LANDMARKCO":"103","LANDMARKNA":"高雄市阿蓮區鄉民代表會","LANDMARKAD":"1001212","ADDRESS":"高雄市阿蓮區民生路105號","TEL":"07-6312054","COUNTYNAME":"高雄市","TOWNNAME":"阿蓮區","MARKTYPE":"991","Class":"1"},"geometry":{"x":120.3268905758088,"y":22.883593098287641}},{"attributes":{"OBJECTID":19610,"LANDMARKID":"1001200000284","LANDMARKCO":"108","LANDMARKNA":"高雄市阿蓮區公所","LANDMARKAD":"1001212","ADDRESS":"高雄市阿蓮區民生路94號","TEL":"07-6311177","COUNTYNAME":"高雄市","TOWNNAME":"阿蓮區","MARKTYPE":"991","Class":"1"},"geometry":{"x":120.32694726792711,"y":22.883774190710746}},{"attributes":{"OBJECTID":19611,"LANDMARKID":"1001200000009","LANDMARKCO":"101","LANDMARKNA":"農業委員會高雄農田水利會","LANDMARKAD":"1001212","ADDRESS":"高雄市阿蓮區中山路222號","TEL":"07-6312040","COUNTYNAME":"高雄市","TOWNNAME":"阿蓮區","MARKTYPE":"991","Class":"1"},"geometry":{"x":120.3270438921227,"y":22.875737924255716}},{"attributes":{"OBJECTID":19612,"LANDMARKID":"1001200000081","LANDMARKCO":"103","LANDMARKNA":"高雄市阿蓮區衛生所","LANDMARKAD":"1001212","ADDRESS":"高雄市阿蓮區民權路38號","TEL":"07-6317141","COUNTYNAME":"高雄市","TOWNNAME":"阿蓮區","MARKTYPE":"991","Class":"1"},"geometry":{"x":120.32741026761839,"y":22.882875104062119}},{"attributes":{"OBJECTID":19613,"LANDMARKID":"1001200000221","LANDMARKCO":"107","LANDMARKNA":"高雄市政府警察局阿蓮分駐所","LANDMARKAD":"1001212","ADDRESS":"高雄市阿蓮區忠孝路226號","TEL":"07-6312029","COUNTYNAME":"高雄市","TOWNNAME":"阿蓮區","MARKTYPE":"991","Class":"1"},"geometry":{"x":120.32878949112542,"y":22.878991881041795}},{"attributes":{"OBJECTID":19614,"LANDMARKID":"1001200000222","LANDMARKCO":"107","LANDMARKNA":"高雄市消防局阿蓮消防分隊","LANDMARKAD":"1001212","ADDRESS":"高雄市阿蓮區忠孝路202號","TEL":"07-6312019","COUNTYNAME":"高雄市","TOWNNAME":"阿蓮區","MARKTYPE":"991","Class":"1"},"geometry":{"x":120.32948937669855,"y":22.87917839869986}},{"attributes":{"OBJECTID":19615,"LANDMARKID":"1001200000125","LANDMARKCO":"106","LANDMARKNA":"高雄市阿蓮區戶政事務所","LANDMARKAD":"1001212","ADDRESS":"高雄市阿蓮區忠孝路228號","TEL":"07-6312242","COUNTYNAME":"高雄市","TOWNNAME":"阿蓮區","MARKTYPE":"991","Class":"1"},"geometry":{"x":120.3298662349235,"y":22.88089733738607}},{"attributes":{"OBJECTID":19616,"LANDMARKID":"1001200000606","LANDMARKCO":"205","LANDMARKNA":"大崗山下紙影戲館","LANDMARKAD":"1001212","ADDRESS":"高雄市阿蓮區復安路167號","TEL":"07-6332358","COUNTYNAME":"高雄市","TOWNNAME":"阿蓮區","MARKTYPE":"992","Class":"2"},"geometry":{"x":120.32426908040298,"y":22.849598077152738}},{"attributes":{"OBJECTID":19617,"LANDMARKID":"1001200000577","LANDMARKCO":"204","LANDMARKNA":"高雄市立圖書館阿蓮分館","LANDMARKAD":"1001212","ADDRESS":"高雄市阿蓮區中正路381巷35號2樓","TEL":" ","COUNTYNAME":"高雄市","TOWNNAME":"阿蓮區","MARKTYPE":"992","Class":"2"},"geometry":{"x":120.33339415092522,"y":22.879853818405604}},{"attributes":{"OBJECTID":19618,"LANDMARKID":"1001200000510","LANDMARKCO":"203","LANDMARKNA":"縣立阿蓮國中","LANDMARKAD":"1001212","ADDRESS":"高雄市阿蓮區民生路178號","TEL":"07-6312045","COUNTYNAME":"高雄市","TOWNNAME":"阿蓮區","MARKTYPE":"992","Class":"2"},"geometry":{"x":120.32606208151026,"y":22.885572815850757}},{"attributes":{"OBJECTID":19619,"LANDMARKID":"1001200000511","LANDMARKCO":"203","LANDMARKNA":"縣立復安國小","LANDMARKAD":"1001212","ADDRESS":"高雄市阿蓮區復安村復安路167號","TEL":"07-6332358","COUNTYNAME":"高雄市","TOWNNAME":"阿蓮區","MARKTYPE":"992","Class":"2"},"geometry":{"x":120.32267153899913,"y":22.849704959116732}},{"attributes":{"OBJECTID":19620,"LANDMARKID":"1001200000512","LANDMARKCO":"203","LANDMARKNA":"縣立阿蓮國小","LANDMARKAD":"1001212","ADDRESS":"高雄市阿蓮區阿蓮村民族路163號","TEL":"07-6312049","COUNTYNAME":"高雄市","TOWNNAME":"阿蓮區","MARKTYPE":"992","Class":"2"},"geometry":{"x":120.3291211186594,"y":22.883329323295953}},{"attributes":{"OBJECTID":19621,"LANDMARKID":"1001200000513","LANDMARKCO":"203","LANDMARKNA":"縣立阿蓮國小峰山分校","LANDMARKAD":"1001212","ADDRESS":"高雄市阿蓮區峰山村建國路5號","TEL":"07-6320525","COUNTYNAME":"高雄市","TOWNNAME":"阿蓮區","MARKTYPE":"992","Class":"2"},"geometry":{"x":120.35010403979742,"y":22.876548036302356}},{"attributes":{"OBJECTID":19622,"LANDMARKID":"1001200000514","LANDMARKCO":"203","LANDMARKNA":"縣立中路國小","LANDMARKAD":"1001212","ADDRESS":"高雄市阿蓮區中路村272號","TEL":"07-6312325","COUNTYNAME":"高雄市","TOWNNAME":"阿蓮區","MARKTYPE":"992","Class":"2"},"geometry":{"x":120.29889962899649,"y":22.894849834340455}},{"attributes":{"OBJECTID":19623,"LANDMARKID":"1001200000725","LANDMARKCO":"308","LANDMARKNA":"國1-高科交流道-南下","LANDMARKAD":"1001212","ADDRESS":" ","TEL":" ","COUNTYNAME":"高雄市","TOWNNAME":"阿蓮區","MARKTYPE":"993","Class":"308"},"geometry":{"x":120.29801497925455,"y":22.841435645666991}},{"attributes":{"OBJECTID":19624,"LANDMARKID":"1001200000814","LANDMARKCO":"402","LANDMARKNA":"中華電信-阿蓮服務中心","LANDMARKAD":"1001212","ADDRESS":"高雄市阿蓮區民生路103號","TEL":"(07)644-7700","COUNTYNAME":"高雄市","TOWNNAME":"阿蓮區","MARKTYPE":"994","Class":"4"},"geometry":{"x":120.32652606970582,"y":22.88372453702398}},{"attributes":{"OBJECTID":19625,"LANDMARKID":"1001200001361","LANDMARKCO":"603","LANDMARKNA":"勝吉旅社","LANDMARKAD":"1001212","ADDRESS":"高雄市阿蓮區峰山村峰南路5號","TEL":"07-6312684","COUNTYNAME":"高雄市","TOWNNAME":"阿蓮區","MARKTYPE":"996","Class":"6"},"geometry":{"x":120.35606087348739,"y":22.874370113294784}},{"attributes":{"OBJECTID":19626,"LANDMARKID":"1001200001487","LANDMARKCO":"605","LANDMARKNA":"大南天福德祠","LANDMARKAD":"1001212","ADDRESS":"高雄市阿蓮區","TEL":" ","COUNTYNAME":"高雄市","TOWNNAME":"阿蓮區","MARKTYPE":"996","Class":"6"},"geometry":{"x":120.35567824296876,"y":22.8744717027236}},{"attributes":{"OBJECTID":19627,"LANDMARKID":"1001200001264","LANDMARKCO":"507","LANDMARKNA":"龍山寺","LANDMARKAD":"1001211","ADDRESS":"高雄市六龜區","TEL":" ","COUNTYNAME":"高雄市","TOWNNAME":"田寮區","MARKTYPE":"995","Class":"5"},"geometry":{"x":120.41308182747278,"y":22.824923724802648}},{"attributes":{"OBJECTID":19628,"LANDMARKID":"1001200001104","LANDMARKCO":"408","LANDMARKNA":"郵局-田寮郵局","LANDMARKAD":"1001211","ADDRESS":"高雄市田寮區南安村崗北路61號","TEL":"(07)6361-675","COUNTYNAME":"高雄市","TOWNNAME":"田寮區","MARKTYPE":"994","Class":"4"},"geometry":{"x":120.35961824139925,"y":22.872597244492805}},{"attributes":{"OBJECTID":19629,"LANDMARKID":"1001200001136","LANDMARKCO":"409","LANDMARKNA":"高雄市田寮區農會","LANDMARKAD":"1001211","ADDRESS":"高雄市田寮區南安村崗安路82號","TEL":"07-6361501-3","COUNTYNAME":"高雄市","TOWNNAME":"田寮區","MARKTYPE":"994","Class":"4"},"geometry":{"x":120.35749235123922,"y":22.873859437887926}},{"attributes":{"OBJECTID":19630,"LANDMARKID":"1001200001137","LANDMARKCO":"409","LANDMARKNA":"田寮農會新興分部","LANDMARKAD":"1001211","ADDRESS":"田寮區新興村新興路100號","TEL":"07-638-1872","COUNTYNAME":"高雄市","TOWNNAME":"田寮區","MARKTYPE":"994","Class":"4"},"geometry":{"x":120.36459791332149,"y":22.837384670812916}},{"attributes":{"OBJECTID":19631,"LANDMARKID":"1001200001138","LANDMARKCO":"409","LANDMARKNA":"田寮農會-新興分部","LANDMARKAD":"1001211","ADDRESS":"高雄市田寮區新興村新興路100號","TEL":"07-638-18","COUNTYNAME":"高雄市","TOWNNAME":"田寮區","MARKTYPE":"994","Class":"4"},"geometry":{"x":120.36585088720254,"y":22.836566890218538}},{"attributes":{"OBJECTID":19632,"LANDMARKID":"1001200001139","LANDMARKCO":"409","LANDMARKNA":"田寮農會-崇德分部","LANDMARKAD":"1001211","ADDRESS":"高雄市田寮區崇德村崇德路84-1號","TEL":"07-636-66","COUNTYNAME":"高雄市","TOWNNAME":"田寮區","MARKTYPE":"994","Class":"4"},"geometry":{"x":120.38071129030058,"y":22.878154672548003}},{"attributes":{"OBJECTID":19633,"LANDMARKID":"1001200001029","LANDMARKCO":"406","LANDMARKNA":"三角公園","LANDMARKAD":"1001211","ADDRESS":" ","TEL":" ","COUNTYNAME":"高雄市","TOWNNAME":"田寮區","MARKTYPE":"994","Class":"4"},"geometry":{"x":120.35347279789424,"y":22.865726545814461}},{"attributes":{"OBJECTID":19634,"LANDMARKID":"1001200000220","LANDMARKCO":"107","LANDMARKNA":"高雄市政府警察局田寮分駐所","LANDMARKAD":"1001211","ADDRESS":"高雄市田寮區南安村崗安路99號","TEL":"07-6361878","COUNTYNAME":"高雄市","TOWNNAME":"田寮區","MARKTYPE":"991","Class":"1"},"geometry":{"x":120.35732802212479,"y":22.873874992780369}},{"attributes":{"OBJECTID":19635,"LANDMARKID":"1001200000126","LANDMARKCO":"106","LANDMARKNA":"高雄市田寮區戶政事務所","LANDMARKAD":"1001211","ADDRESS":"高雄市田寮區南安村崗安路71之3號","TEL":"07-6361584","COUNTYNAME":"高雄市","TOWNNAME":"田寮區","MARKTYPE":"991","Class":"1"},"geometry":{"x":120.35797289239008,"y":22.873699588072672}},{"attributes":{"OBJECTID":19636,"LANDMARKID":"1001200000283","LANDMARKCO":"108","LANDMARKNA":"高雄市田寮區公所","LANDMARKAD":"1001211","ADDRESS":"高雄市田寮區崗安路71號","TEL":"07-6361475","COUNTYNAME":"高雄市","TOWNNAME":"田寮區","MARKTYPE":"991","Class":"1"},"geometry":{"x":120.35966368427279,"y":22.869367377445709}},{"attributes":{"OBJECTID":19637,"LANDMARKID":"1001200000080","LANDMARKCO":"103","LANDMARKNA":"高雄市田寮區衛生所","LANDMARKAD":"1001211","ADDRESS":"高雄市田寮區南安村崗北路32號","TEL":"07-6361504","COUNTYNAME":"高雄市","TOWNNAME":"田寮區","MARKTYPE":"991","Class":"1"},"geometry":{"x":120.36303699647665,"y":22.867125615527414}},{"attributes":{"OBJECTID":19638,"LANDMARKID":"1001200000228","LANDMARKCO":"107","LANDMARKNA":"高雄市消防局田寮消防分隊","LANDMARKAD":"1001211","ADDRESS":"高雄市田寮區七星路51-1號","TEL":"07-6362081","COUNTYNAME":"高雄市","TOWNNAME":"田寮區","MARKTYPE":"991","Class":"1"},"geometry":{"x":120.38057019042623,"y":22.877843173884678}},{"attributes":{"OBJECTID":19639,"LANDMARKID":"1001200000229","LANDMARKCO":"107","LANDMARKNA":"高雄市政府警察局崇德派出所","LANDMARKAD":"1001211","ADDRESS":"高雄市田寮區崇德路49號","TEL":"07-6366774","COUNTYNAME":"高雄市","TOWNNAME":"田寮區","MARKTYPE":"991","Class":"1"},"geometry":{"x":120.38073546757087,"y":22.877573589560356}},{"attributes":{"OBJECTID":19640,"LANDMARKID":"1001200000230","LANDMARKCO":"107","LANDMARKNA":"高雄市政府警察局古亭派出所","LANDMARKAD":"1001211","ADDRESS":"高雄市田寮區古亭路39號","TEL":"07-6367058","COUNTYNAME":"高雄市","TOWNNAME":"田寮區","MARKTYPE":"991","Class":"1"},"geometry":{"x":120.40369095393977,"y":22.893286827722839}},{"attributes":{"OBJECTID":19641,"LANDMARKID":"1001200000231","LANDMARKCO":"107","LANDMARKNA":"高雄市政府警察局蛙潭派出所","LANDMARKAD":"1001211","ADDRESS":"高雄市田寮區七星路11號","TEL":"07-6361192","COUNTYNAME":"高雄市","TOWNNAME":"田寮區","MARKTYPE":"991","Class":"1"},"geometry":{"x":120.40859031731256,"y":22.826566832605835}},{"attributes":{"OBJECTID":19642,"LANDMARKID":"1001200000010","LANDMARKCO":"101","LANDMARKNA":"國公路警察局第五警察隊田寮分隊","LANDMARKAD":"1001211","ADDRESS":"高雄市田寮區南安路71之5號","TEL":"07-6381442","COUNTYNAME":"高雄市","TOWNNAME":"田寮區","MARKTYPE":"991","Class":"1"},"geometry":{"x":120.37391880732606,"y":22.857685758822509}},{"attributes":{"OBJECTID":19643,"LANDMARKID":"1001200000578","LANDMARKCO":"204","LANDMARKNA":"高雄市立圖書館田寮分館","LANDMARKAD":"1001211","ADDRESS":"高雄市田寮區南安村崗安路71之1號","TEL":" ","COUNTYNAME":"高雄市","TOWNNAME":"田寮區","MARKTYPE":"992","Class":"2"},"geometry":{"x":120.35973294968356,"y":22.868520918681135}},{"attributes":{"OBJECTID":19644,"LANDMARKID":"1001200000515","LANDMARKCO":"203","LANDMARKNA":"縣立田寮國中","LANDMARKAD":"1001211","ADDRESS":"高雄市田寮區南安村崗安路48號","TEL":"07-6361687","COUNTYNAME":"高雄市","TOWNNAME":"田寮區","MARKTYPE":"992","Class":"2"},"geometry":{"x":120.36058576797139,"y":22.863866193142176}},{"attributes":{"OBJECTID":19645,"LANDMARKID":"1001200000516","LANDMARKCO":"203","LANDMARKNA":"縣立新興國小","LANDMARKAD":"1001211","ADDRESS":"高雄市田寮區新興村大新路2號","TEL":"07-6381348","COUNTYNAME":"高雄市","TOWNNAME":"田寮區","MARKTYPE":"992","Class":"2"},"geometry":{"x":120.37007000374091,"y":22.834909424645755}},{"attributes":{"OBJECTID":19646,"LANDMARKID":"1001200000517","LANDMARKCO":"203","LANDMARKNA":"縣立崇德國小","LANDMARKAD":"1001211","ADDRESS":"高雄市田寮區崇德村崇德路101號","TEL":"07-6366141","COUNTYNAME":"高雄市","TOWNNAME":"田寮區","MARKTYPE":"992","Class":"2"},"geometry":{"x":120.3790185795431,"y":22.877751657696209}},{"attributes":{"OBJECTID":19647,"LANDMARKID":"1001200000518","LANDMARKCO":"203","LANDMARKNA":"縣立崇德國小古亭分校","LANDMARKAD":"1001211","ADDRESS":"高雄市田寮區","TEL":"07-6367958","COUNTYNAME":"高雄市","TOWNNAME":"田寮區","MARKTYPE":"992","Class":"2"},"geometry":{"x":120.40458842547734,"y":22.893203249646422}},{"attributes":{"OBJECTID":19648,"LANDMARKID":"1001200000519","LANDMARKCO":"203","LANDMARKNA":"縣立中寮國小","LANDMARKAD":"1001211","ADDRESS":"高雄市田寮區","TEL":" ","COUNTYNAME":"高雄市","TOWNNAME":"田寮區","MARKTYPE":"992","Class":"2"},"geometry":{"x":120.42644261875849,"y":22.819773054419699}},{"attributes":{"OBJECTID":19649,"LANDMARKID":"1001200000520","LANDMARKCO":"203","LANDMARKNA":"縣立新興國小田寮分班","LANDMARKAD":"1001211","ADDRESS":"高雄市田寮區","TEL":"07-6361075","COUNTYNAME":"高雄市","TOWNNAME":"田寮區","MARKTYPE":"992","Class":"2"},"geometry":{"x":120.40587360062746,"y":22.837574270237578}},{"attributes":{"OBJECTID":19650,"LANDMARKID":"1001200000726","LANDMARKCO":"308","LANDMARKNA":"田寮收費站","LANDMARKAD":"1001211","ADDRESS":" ","TEL":" ","COUNTYNAME":"高雄市","TOWNNAME":"田寮區","MARKTYPE":"993","Class":"308"},"geometry":{"x":120.37352747426418,"y":22.858907322266894}},{"attributes":{"OBJECTID":19651,"LANDMARKID":"1001200000727","LANDMARKCO":"308","LANDMARKNA":"國3-田寮交流道-南下","LANDMARKAD":"1001211","ADDRESS":"高雄市田寮區","TEL":" ","COUNTYNAME":"高雄市","TOWNNAME":"田寮區","MARKTYPE":"993","Class":"308"},"geometry":{"x":120.36011763830126,"y":22.879840932197155}},{"attributes":{"OBJECTID":19652,"LANDMARKID":"1001200000728","LANDMARKCO":"308","LANDMARKNA":"國3-田寮交流道-北上","LANDMARKAD":"1001211","ADDRESS":"高雄市田寮區","TEL":" ","COUNTYNAME":"高雄市","TOWNNAME":"田寮區","MARKTYPE":"993","Class":"308"},"geometry":{"x":120.3611589889251,"y":22.882167444288431}},{"attributes":{"OBJECTID":19653,"LANDMARKID":"1001200001446","LANDMARKCO":"604","LANDMARKNA":"頭前園民宿","LANDMARKAD":"1001211","ADDRESS":"高雄市田寮區崇德村崇德路9號","TEL":"07-6366688","COUNTYNAME":"高雄市","TOWNNAME":"田寮區","MARKTYPE":"996","Class":"6"},"geometry":{"x":120.38329439143477,"y":22.877570710005049}},{"attributes":{"OBJECTID":19654,"LANDMARKID":"1001200001271","LANDMARKCO":"508","LANDMARKNA":"大崗山溫泉","LANDMARKAD":"1001211","ADDRESS":"高雄市田寮區崗安路113號","TEL":"07-6361601","COUNTYNAME":"高雄市","TOWNNAME":"田寮區","MARKTYPE":"995","Class":"5"},"geometry":{"x":120.35781425813863,"y":22.874550147351083}},{"attributes":{"OBJECTID":19655,"LANDMARKID":"1001200001232","LANDMARKCO":"503","LANDMARKNA":"月世界風景特定區","LANDMARKAD":"1001211","ADDRESS":"高雄市田寮區","TEL":" ","COUNTYNAME":"高雄市","TOWNNAME":"田寮區","MARKTYPE":"995","Class":"5"},"geometry":{"x":120.38874733904201,"y":22.888549391688883}},{"attributes":{"OBJECTID":19656,"LANDMARKID":"1001200001299","LANDMARKCO":"510","LANDMARKNA":"大崗山高爾夫球場","LANDMARKAD":"1001211","ADDRESS":"高雄市田寮區西德村長山路1號","TEL":"07-6366411","COUNTYNAME":"高雄市","TOWNNAME":"田寮區","MARKTYPE":"995","Class":"5"},"geometry":{"x":120.37146588044349,"y":22.892561101446152}},{"attributes":{"OBJECTID":19657,"LANDMARKID":"1001200001478","LANDMARKCO":"605","LANDMARKNA":"國公路第八警察隊田寮分隊","LANDMARKAD":"1001211","ADDRESS":"高雄市田寮區","TEL":" ","COUNTYNAME":"高雄市","TOWNNAME":"田寮區","MARKTYPE":"996","Class":"6"},"geometry":{"x":120.37392067066908,"y":22.857635501376979}},{"attributes":{"OBJECTID":19658,"LANDMARKID":"1001200001479","LANDMARKCO":"605","LANDMARKNA":"聖母宮","LANDMARKAD":"1001211","ADDRESS":"高雄市田寮區","TEL":" ","COUNTYNAME":"高雄市","TOWNNAME":"田寮區","MARKTYPE":"996","Class":"6"},"geometry":{"x":120.3798153245737,"y":22.84522483511018}},{"attributes":{"OBJECTID":19659,"LANDMARKID":"1001200001480","LANDMARKCO":"605","LANDMARKNA":"大同活動中心","LANDMARKAD":"1001211","ADDRESS":"高雄市田寮區","TEL":" ","COUNTYNAME":"高雄市","TOWNNAME":"田寮區","MARKTYPE":"996","Class":"6"},"geometry":{"x":120.39540775238954,"y":22.849395350130937}},{"attributes":{"OBJECTID":19660,"LANDMARKID":"1001200001481","LANDMARKCO":"605","LANDMARKNA":"聖法宮","LANDMARKAD":"1001211","ADDRESS":"高雄市田寮區","TEL":" ","COUNTYNAME":"高雄市","TOWNNAME":"田寮區","MARKTYPE":"996","Class":"6"},"geometry":{"x":120.39868918371178,"y":22.848870479884734}},{"attributes":{"OBJECTID":19661,"LANDMARKID":"1001200001482","LANDMARKCO":"605","LANDMARKNA":"金寶殿","LANDMARKAD":"1001211","ADDRESS":"高雄市田寮區","TEL":" ","COUNTYNAME":"高雄市","TOWNNAME":"田寮區","MARKTYPE":"996","Class":"6"},"geometry":{"x":120.3909155047966,"y":22.840754513285379}},{"attributes":{"OBJECTID":19662,"LANDMARKID":"1001200001483","LANDMARKCO":"605","LANDMARKNA":"慈玄聖天宮","LANDMARKAD":"1001211","ADDRESS":"高雄市田寮區","TEL":" ","COUNTYNAME":"高雄市","TOWNNAME":"田寮區","MARKTYPE":"996","Class":"6"},"geometry":{"x":120.38610145791257,"y":22.835289936691982}},{"attributes":{"OBJECTID":19663,"LANDMARKID":"1001200001484","LANDMARKCO":"605","LANDMARKNA":"龍鳳寺","LANDMARKAD":"1001211","ADDRESS":"高雄市田寮區","TEL":" ","COUNTYNAME":"高雄市","TOWNNAME":"田寮區","MARKTYPE":"996","Class":"6"},"geometry":{"x":120.37000896616961,"y":22.833828317780444}},{"attributes":{"OBJECTID":19664,"LANDMARKID":"1001200001485","LANDMARKCO":"605","LANDMARKNA":"朝元寺","LANDMARKAD":"1001211","ADDRESS":"高雄市田寮區","TEL":" ","COUNTYNAME":"高雄市","TOWNNAME":"田寮區","MARKTYPE":"996","Class":"6"},"geometry":{"x":120.35756893588773,"y":22.857284314841952}},{"attributes":{"OBJECTID":19665,"LANDMARKID":"1001200000891","LANDMARKCO":"405","LANDMARKNA":"中油加油站-新達站","LANDMARKAD":"1001213","ADDRESS":"高雄市路竹區竹滬村大公路439號","TEL":"07-6982326","COUNTYNAME":"高雄市","TOWNNAME":"路竹區","MARKTYPE":"994","Class":"4"},"geometry":{"x":120.22866116690935,"y":22.853788200130612}},{"attributes":{"OBJECTID":19666,"LANDMARKID":"1001200000892","LANDMARKCO":"405","LANDMARKNA":"中油加油站-路竹站","LANDMARKAD":"1001213","ADDRESS":"高雄市路竹區中山路589號","TEL":"07-6962240","COUNTYNAME":"高雄市","TOWNNAME":"路竹區","MARKTYPE":"994","Class":"4"},"geometry":{"x":120.25669567401239,"y":22.866338380708946}},{"attributes":{"OBJECTID":19667,"LANDMARKID":"1001200000893","LANDMARKCO":"405","LANDMARKNA":"台灣優力加油站-路科站(中油)","LANDMARKAD":"1001213","ADDRESS":"高雄市路竹區中山南路118號","TEL":"07-6967846","COUNTYNAME":"高雄市","TOWNNAME":"路竹區","MARKTYPE":"994","Class":"4"},"geometry":{"x":120.26797294757644,"y":22.82207305574595}},{"attributes":{"OBJECTID":19668,"LANDMARKID":"1001200000894","LANDMARKCO":"405","LANDMARKNA":"中油加油站-再生站","LANDMARKAD":"1001213","ADDRESS":"高雄市路竹區復興路213號","TEL":"07-6076490","COUNTYNAME":"高雄市","TOWNNAME":"路竹區","MARKTYPE":"994","Class":"4"},"geometry":{"x":120.27314125450536,"y":22.848176693117232}},{"attributes":{"OBJECTID":19669,"LANDMARKID":"1001200000895","LANDMARKCO":"405","LANDMARKNA":"統一速邁樂加油站-路竹二站加油站(中油)","LANDMARKAD":"1001213","ADDRESS":"高雄市路竹區甲北村環球路200號","TEL":" ","COUNTYNAME":"高雄市","TOWNNAME":"路竹區","MARKTYPE":"994","Class":"4"},"geometry":{"x":120.27642518443926,"y":22.879936916211197}},{"attributes":{"OBJECTID":19670,"LANDMARKID":"1001200000896","LANDMARKCO":"405","LANDMARKNA":"統一速邁樂加油站-路竹加油站(中油)","LANDMARKAD":"1001213","ADDRESS":"高雄市路竹區環球路305號","TEL":" ","COUNTYNAME":"高雄市","TOWNNAME":"路竹區","MARKTYPE":"994","Class":"4"},"geometry":{"x":120.27007342015919,"y":22.879943938744681}},{"attributes":{"OBJECTID":19671,"LANDMARKID":"1001200000816","LANDMARKCO":"402","LANDMARKNA":"亞太行動寬頻電信-路竹中山加盟服務中心","LANDMARKAD":"1001213","ADDRESS":"高雄市路竹區中山路844號","TEL":"07-6071188","COUNTYNAME":"高雄市","TOWNNAME":"路竹區","MARKTYPE":"994","Class":"4"},"geometry":{"x":120.26128427769959,"y":22.853836837795818}},{"attributes":{"OBJECTID":19672,"LANDMARKID":"1001200000729","LANDMARKCO":"401","LANDMARKNA":"高新醫院","LANDMARKAD":"1001213","ADDRESS":"高雄市路竹區中山路627號","TEL":"07-6975903","COUNTYNAME":"高雄市","TOWNNAME":"路竹區","MARKTYPE":"994","Class":"4"},"geometry":{"x":120.25688694963058,"y":22.865580097630904}},{"attributes":{"OBJECTID":19673,"LANDMARKID":"1001200000730","LANDMARKCO":"401","LANDMARKNA":"溫有諒醫院","LANDMARKAD":"1001213","ADDRESS":"高雄市路竹區竹南村延平路57號","TEL":"07-6963322","COUNTYNAME":"高雄市","TOWNNAME":"路竹區","MARKTYPE":"994","Class":"4"},"geometry":{"x":120.25897912767131,"y":22.858091459076316}},{"attributes":{"OBJECTID":19674,"LANDMARKID":"1001200001105","LANDMARKCO":"408","LANDMARKNA":"郵局-路竹郵局","LANDMARKAD":"1001213","ADDRESS":"高雄市路竹區中興路11號","TEL":"(07)6962-311","COUNTYNAME":"高雄市","TOWNNAME":"路竹區","MARKTYPE":"994","Class":"4"},"geometry":{"x":120.26088000700555,"y":22.860920915100859}},{"attributes":{"OBJECTID":19675,"LANDMARKID":"1001200001106","LANDMARKCO":"408","LANDMARKNA":"郵局-路竹竹南郵局","LANDMARKAD":"1001213","ADDRESS":"高雄市路竹區中山路1097號","TEL":"(07)6962-804","COUNTYNAME":"高雄市","TOWNNAME":"路竹區","MARKTYPE":"994","Class":"4"},"geometry":{"x":120.26106615062248,"y":22.856267777178687}},{"attributes":{"OBJECTID":19676,"LANDMARKID":"1001200001107","LANDMARKCO":"408","LANDMARKNA":"郵局-路竹一甲郵局","LANDMARKAD":"1001213","ADDRESS":"高雄市路竹區大智路60號","TEL":"(07)6966-896","COUNTYNAME":"高雄市","TOWNNAME":"路竹區","MARKTYPE":"994","Class":"4"},"geometry":{"x":120.27051255344745,"y":22.873990968682627}},{"attributes":{"OBJECTID":19677,"LANDMARKID":"1001200001131","LANDMARKCO":"409","LANDMARKNA":"高雄市路竹區農會","LANDMARKAD":"1001213","ADDRESS":"高雄市路竹區忠孝路43號","TEL":"07-6964011","COUNTYNAME":"高雄市","TOWNNAME":"路竹區","MARKTYPE":"994","Class":"4"},"geometry":{"x":120.26002900374726,"y":22.861008600362961}},{"attributes":{"OBJECTID":19678,"LANDMARKID":"1001200001132","LANDMARKCO":"409","LANDMARKNA":"路竹農會-竹滬分部","LANDMARKAD":"1001213","ADDRESS":"高雄市路竹區竹滬村成功路14-~2號","TEL":"07-698-16","COUNTYNAME":"高雄市","TOWNNAME":"路竹區","MARKTYPE":"994","Class":"4"},"geometry":{"x":120.22853060338547,"y":22.861712717980232}},{"attributes":{"OBJECTID":19679,"LANDMARKID":"1001200001133","LANDMARKCO":"409","LANDMARKNA":"路竹農會-下坑 部","LANDMARKAD":"1001213","ADDRESS":"高雄市路竹區下坑村太平路303號","TEL":"07-695-16","COUNTYNAME":"高雄市","TOWNNAME":"路竹區","MARKTYPE":"994","Class":"4"},"geometry":{"x":120.29006161156406,"y":22.8684733035353}},{"attributes":{"OBJECTID":19680,"LANDMARKID":"1001200001134","LANDMARKCO":"409","LANDMARKNA":"路竹農會-一甲分部","LANDMARKAD":"1001213","ADDRESS":"高雄市路竹區甲南村大仁路244號","TEL":"07-696-25","COUNTYNAME":"高雄市","TOWNNAME":"路竹區","MARKTYPE":"994","Class":"4"},"geometry":{"x":120.2712416755521,"y":22.870817309770178}},{"attributes":{"OBJECTID":19681,"LANDMARKID":"1001200001135","LANDMARKCO":"409","LANDMARKNA":"路竹農會-三爺分部","LANDMARKAD":"1001213","ADDRESS":"高雄市路竹區三爺村三民路54號","TEL":"07-696-24","COUNTYNAME":"高雄市","TOWNNAME":"路竹區","MARKTYPE":"994","Class":"4"},"geometry":{"x":120.27990350495769,"y":22.8349476907823}},{"attributes":{"OBJECTID":19682,"LANDMARKID":"1001200001027","LANDMARKCO":"406","LANDMARKNA":"寧靖公園","LANDMARKAD":"1001213","ADDRESS":"高雄市路竹區","TEL":" ","COUNTYNAME":"高雄市","TOWNNAME":"路竹區","MARKTYPE":"994","Class":"4"},"geometry":{"x":120.22945799659395,"y":22.862850522771264}},{"attributes":{"OBJECTID":19683,"LANDMARKID":"1001200001028","LANDMARKCO":"406","LANDMARKNA":"路竹公園","LANDMARKAD":"1001213","ADDRESS":"高雄市路竹區","TEL":" ","COUNTYNAME":"高雄市","TOWNNAME":"路竹區","MARKTYPE":"994","Class":"4"},"geometry":{"x":120.25378610235374,"y":22.854193911869206}},{"attributes":{"OBJECTID":19684,"LANDMARKID":"1001200000907","LANDMARKCO":"405","LANDMARKNA":"台亞加油站-明田站（台塑）","LANDMARKAD":"1001213","ADDRESS":"高雄市路竹區中山路1016號","TEL":"(07)697-2115","COUNTYNAME":"高雄市","TOWNNAME":"路竹區","MARKTYPE":"994","Class":"4"},"geometry":{"x":120.26136425154365,"y":22.851249257350325}},{"attributes":{"OBJECTID":19685,"LANDMARKID":"1001200000124","LANDMARKCO":"106","LANDMARKNA":"高雄市路竹區戶政事務所","LANDMARKAD":"1001213","ADDRESS":"高雄市路竹區國昌路86巷26號","TEL":"07-6962518","COUNTYNAME":"高雄市","TOWNNAME":"路竹區","MARKTYPE":"991","Class":"1"},"geometry":{"x":120.25876449481217,"y":22.854928853438881}},{"attributes":{"OBJECTID":19686,"LANDMARKID":"1001200000223","LANDMARKCO":"107","LANDMARKNA":"高雄市政府警察局路竹分駐所","LANDMARKAD":"1001213","ADDRESS":"高雄市路竹區國昌路86巷24號","TEL":"07-6962615","COUNTYNAME":"高雄市","TOWNNAME":"路竹區","MARKTYPE":"991","Class":"1"},"geometry":{"x":120.2595157143605,"y":22.854845540228471}},{"attributes":{"OBJECTID":19687,"LANDMARKID":"1001200000077","LANDMARKCO":"103","LANDMARKNA":"高雄市路竹區竹滬區理事會","LANDMARKAD":"1001213","ADDRESS":"高雄市路竹區成功路12號","TEL":"07-6982110","COUNTYNAME":"高雄市","TOWNNAME":"路竹區","MARKTYPE":"991","Class":"1"},"geometry":{"x":120.22854741854408,"y":22.861740300433262}},{"attributes":{"OBJECTID":19688,"LANDMARKID":"1001200000078","LANDMARKCO":"103","LANDMARKNA":"高雄市路竹區老人文康中心","LANDMARKAD":"1001213","ADDRESS":"高雄市路竹區國昌路117號","TEL":"07-6979240","COUNTYNAME":"高雄市","TOWNNAME":"路竹區","MARKTYPE":"991","Class":"1"},"geometry":{"x":120.25714022345747,"y":22.854655758296047}},{"attributes":{"OBJECTID":19689,"LANDMARKID":"1001200000226","LANDMARKCO":"107","LANDMARKNA":"高雄市消防局第二消防大隊部","LANDMARKAD":"1001213","ADDRESS":"高雄市路竹區國昌路78號","TEL":"07-6970451","COUNTYNAME":"高雄市","TOWNNAME":"路竹區","MARKTYPE":"991","Class":"1"},"geometry":{"x":120.25909577025347,"y":22.854931938230337}},{"attributes":{"OBJECTID":19690,"LANDMARKID":"1001200000227","LANDMARKCO":"107","LANDMARKNA":"高雄市消防局路竹消防分隊","LANDMARKAD":"1001213","ADDRESS":"高雄市路竹區國昌路78號","TEL":"07-6963807","COUNTYNAME":"高雄市","TOWNNAME":"路竹區","MARKTYPE":"991","Class":"1"},"geometry":{"x":120.25910551373647,"y":22.854932028736979}},{"attributes":{"OBJECTID":19691,"LANDMARKID":"1001200000079","LANDMARKCO":"103","LANDMARKNA":"高雄市路竹區鄉民代表會","LANDMARKAD":"1001213","ADDRESS":"高雄市路竹區國昌路76號3樓","TEL":"07-6979271","COUNTYNAME":"高雄市","TOWNNAME":"路竹區","MARKTYPE":"991","Class":"1"},"geometry":{"x":120.25915035955046,"y":22.854390610258729}},{"attributes":{"OBJECTID":19692,"LANDMARKID":"1001200000114","LANDMARKCO":"105","LANDMARKNA":"高雄市路竹地政事務所","LANDMARKAD":"1001213","ADDRESS":"高雄市路竹區國昌路65號","TEL":"07-6971052","COUNTYNAME":"高雄市","TOWNNAME":"路竹區","MARKTYPE":"991","Class":"1"},"geometry":{"x":120.26040141169993,"y":22.854041021741349}},{"attributes":{"OBJECTID":19693,"LANDMARKID":"1001200000224","LANDMARKCO":"107","LANDMARKNA":"竹滬派出所","LANDMARKAD":"1001213","ADDRESS":"高雄市路竹區竹滬村華山路三一號","TEL":"07-6981824","COUNTYNAME":"高雄市","TOWNNAME":"路竹區","MARKTYPE":"991","Class":"1"},"geometry":{"x":120.22910236279202,"y":22.862648736241425}},{"attributes":{"OBJECTID":19694,"LANDMARKID":"1001200000225","LANDMARKCO":"107","LANDMARKNA":"高雄市政府警察局一甲派出所","LANDMARKAD":"1001213","ADDRESS":"高雄市路竹區社西村金平路356號","TEL":"07-6962954","COUNTYNAME":"高雄市","TOWNNAME":"路竹區","MARKTYPE":"991","Class":"1"},"geometry":{"x":120.26864251453726,"y":22.870784772500301}},{"attributes":{"OBJECTID":19695,"LANDMARKID":"1001200000605","LANDMARKCO":"205","LANDMARKNA":"高雄市自然史教育館","LANDMARKAD":"1001213","ADDRESS":"高雄市路竹區中山路1821號","TEL":" ","COUNTYNAME":"高雄市","TOWNNAME":"路竹區","MARKTYPE":"992","Class":"2"},"geometry":{"x":120.26567540804224,"y":22.841660536065682}},{"attributes":{"OBJECTID":19696,"LANDMARKID":"1001200000583","LANDMARKCO":"204","LANDMARKNA":"高雄市立圖書館路竹分館","LANDMARKAD":"1001213","ADDRESS":"高雄市路竹區延平路75號","TEL":" ","COUNTYNAME":"高雄市","TOWNNAME":"路竹區","MARKTYPE":"992","Class":"2"},"geometry":{"x":120.25847817138201,"y":22.857958048183608}},{"attributes":{"OBJECTID":19697,"LANDMARKID":"1001200000469","LANDMARKCO":"203","LANDMARKNA":"縣立路竹國小","LANDMARKAD":"1001213","ADDRESS":"高雄市路竹區中山路712巷16號","TEL":"07-6969920","COUNTYNAME":"高雄市","TOWNNAME":"路竹區","MARKTYPE":"992","Class":"2"},"geometry":{"x":120.25913315759443,"y":22.856467417862731}},{"attributes":{"OBJECTID":19698,"LANDMARKID":"1001200000324","LANDMARKCO":"202","LANDMARKNA":"縣立路竹高中","LANDMARKAD":"1001213","ADDRESS":"高雄市路竹區中華路292號","TEL":"07-6963008","COUNTYNAME":"高雄市","TOWNNAME":"路竹區","MARKTYPE":"992","Class":"2"},"geometry":{"x":120.2519711745187,"y":22.85508495135489}},{"attributes":{"OBJECTID":19699,"LANDMARKID":"1001200000461","LANDMARKCO":"203","LANDMARKNA":"縣立一甲國中","LANDMARKAD":"1001213","ADDRESS":"高雄市路竹區一甲路111號","TEL":"07-6977479","COUNTYNAME":"高雄市","TOWNNAME":"路竹區","MARKTYPE":"992","Class":"2"},"geometry":{"x":120.27283915179692,"y":22.868811072291578}},{"attributes":{"OBJECTID":19700,"LANDMARKID":"1001200000462","LANDMARKCO":"203","LANDMARKNA":"縣立竹滬國小","LANDMARKAD":"1001213","ADDRESS":"高雄市路竹區竹滬村成功路2號","TEL":"07-6981516","COUNTYNAME":"高雄市","TOWNNAME":"路竹區","MARKTYPE":"992","Class":"2"},"geometry":{"x":120.23029110472613,"y":22.862660244959049}},{"attributes":{"OBJECTID":19701,"LANDMARKID":"1001200000463","LANDMARKCO":"203","LANDMARKNA":"縣立大社國小","LANDMARKAD":"1001213","ADDRESS":"高雄市路竹區社西村大社路243號","TEL":"07-6962254","COUNTYNAME":"高雄市","TOWNNAME":"路竹區","MARKTYPE":"992","Class":"2"},"geometry":{"x":120.26494106125418,"y":22.867422231801513}},{"attributes":{"OBJECTID":19702,"LANDMARKID":"1001200000464","LANDMARKCO":"203","LANDMARKNA":"縣立北嶺國小","LANDMARKAD":"1001213","ADDRESS":"高雄市路竹區北嶺村民治路85號","TEL":"07-6964786","COUNTYNAME":"高雄市","TOWNNAME":"路竹區","MARKTYPE":"992","Class":"2"},"geometry":{"x":120.2696452102379,"y":22.823552238376923}},{"attributes":{"OBJECTID":19703,"LANDMARKID":"1001200000465","LANDMARKCO":"203","LANDMARKNA":"縣立一甲國小","LANDMARKAD":"1001213","ADDRESS":"高雄市路竹區甲南村大智路43號","TEL":"07-6962454","COUNTYNAME":"高雄市","TOWNNAME":"路竹區","MARKTYPE":"992","Class":"2"},"geometry":{"x":120.269513646436,"y":22.875024236010329}},{"attributes":{"OBJECTID":19704,"LANDMARKID":"1001200000466","LANDMARKCO":"203","LANDMARKNA":"縣立三埤國小","LANDMARKAD":"1001213","ADDRESS":"高雄市路竹區三爺村民權路7號","TEL":"07-6962688","COUNTYNAME":"高雄市","TOWNNAME":"路竹區","MARKTYPE":"992","Class":"2"},"geometry":{"x":120.27984788205745,"y":22.836701233857625}},{"attributes":{"OBJECTID":19705,"LANDMARKID":"1001200000467","LANDMARKCO":"203","LANDMARKNA":"縣立下坑國小","LANDMARKAD":"1001213","ADDRESS":"高雄市路竹區下坑村太平路384號","TEL":"07-6951015","COUNTYNAME":"高雄市","TOWNNAME":"路竹區","MARKTYPE":"992","Class":"2"},"geometry":{"x":120.29122453953538,"y":22.869172564406419}},{"attributes":{"OBJECTID":19706,"LANDMARKID":"1001200000468","LANDMARKCO":"203","LANDMARKNA":"縣立蔡文國小","LANDMARKAD":"1001213","ADDRESS":"高雄市路竹區國昌路548號","TEL":"07-6076268","COUNTYNAME":"高雄市","TOWNNAME":"路竹區","MARKTYPE":"992","Class":"2"},"geometry":{"x":120.25607030278502,"y":22.861328191018426}},{"attributes":{"OBJECTID":19707,"LANDMARKID":"1001200000311","LANDMARKCO":"201","LANDMARKNA":"高苑科技大學","LANDMARKAD":"1001213","ADDRESS":"高雄市路竹區中山路1821號","TEL":"07-6077777","COUNTYNAME":"高雄市","TOWNNAME":"路竹區","MARKTYPE":"992","Class":"2"},"geometry":{"x":120.26456573118284,"y":22.84132100500355}},{"attributes":{"OBJECTID":19708,"LANDMARKID":"1001200000312","LANDMARKCO":"201","LANDMARKNA":"樹人醫護管理專校","LANDMARKAD":"1001213","ADDRESS":"高雄市路竹區環球路452號","TEL":"07-6979333","COUNTYNAME":"高雄市","TOWNNAME":"路竹區","MARKTYPE":"992","Class":"2"},"geometry":{"x":120.26339549850466,"y":22.881237258955831}},{"attributes":{"OBJECTID":19709,"LANDMARKID":"1001200000708","LANDMARKCO":"308","LANDMARKNA":"國1-路竹交流道-南下","LANDMARKAD":"1001213","ADDRESS":"高雄市路竹區","TEL":" ","COUNTYNAME":"高雄市","TOWNNAME":"路竹區","MARKTYPE":"993","Class":"308"},"geometry":{"x":120.27927750284874,"y":22.878520609659518}},{"attributes":{"OBJECTID":19710,"LANDMARKID":"1001200000709","LANDMARKCO":"308","LANDMARKNA":"國1-路竹交流道-北上","LANDMARKAD":"1001213","ADDRESS":"高雄市路竹區","TEL":" ","COUNTYNAME":"高雄市","TOWNNAME":"路竹區","MARKTYPE":"993","Class":"308"},"geometry":{"x":120.27988255186862,"y":22.879994207672556}},{"attributes":{"OBJECTID":19711,"LANDMARKID":"1001200000710","LANDMARKCO":"308","LANDMARKNA":"國1-高科交流道-北上","LANDMARKAD":"1001213","ADDRESS":" ","TEL":" ","COUNTYNAME":"高雄市","TOWNNAME":"路竹區","MARKTYPE":"993","Class":"308"},"geometry":{"x":120.29264194221477,"y":22.850278593262889}},{"attributes":{"OBJECTID":19712,"LANDMARKID":"1001200000611","LANDMARKCO":"301","LANDMARKNA":"大湖火車站","LANDMARKAD":"1001213","ADDRESS":"高雄市路竹區甲南村天佑路24號","TEL":"07-6932127","COUNTYNAME":"高雄市","TOWNNAME":"路竹區","MARKTYPE":"993","Class":"301"},"geometry":{"x":120.25426309886305,"y":22.878269156966823}},{"attributes":{"OBJECTID":19713,"LANDMARKID":"1001200000612","LANDMARKCO":"301","LANDMARKNA":"路竹火車站","LANDMARKAD":"1001213","ADDRESS":"高雄市路竹區竹南村中正路288號","TEL":"07-6072723","COUNTYNAME":"高雄市","TOWNNAME":"路竹區","MARKTYPE":"993","Class":"301"},"geometry":{"x":120.26677745827905,"y":22.853626687398101}},{"attributes":{"OBJECTID":19714,"LANDMARKID":"1001200000786","LANDMARKCO":"402","LANDMARKNA":"中華電信-路竹服務中心","LANDMARKAD":"1001213","ADDRESS":"高雄市路竹區中正路117號","TEL":"(07)644-8991","COUNTYNAME":"高雄市","TOWNNAME":"路竹區","MARKTYPE":"994","Class":"4"},"geometry":{"x":120.26288286088692,"y":22.855952281782596}},{"attributes":{"OBJECTID":19715,"LANDMARKID":"1001200000787","LANDMARKCO":"402","LANDMARKNA":"大眾電信-路竹長宏","LANDMARKAD":"1001213","ADDRESS":"高雄市路竹區中山路540號","TEL":"07-6076789","COUNTYNAME":"高雄市","TOWNNAME":"路竹區","MARKTYPE":"994","Class":"4"},"geometry":{"x":120.2593658965403,"y":22.860197874898187}},{"attributes":{"OBJECTID":19716,"LANDMARKID":"1001200001344","LANDMARKCO":"603","LANDMARKNA":"鳳園大旅社","LANDMARKAD":"1001213","ADDRESS":"高雄市路竹區北嶺村中山南路155號","TEL":"07-6964708","COUNTYNAME":"高雄市","TOWNNAME":"路竹區","MARKTYPE":"996","Class":"6"},"geometry":{"x":120.26851357527435,"y":22.821957555118804}},{"attributes":{"OBJECTID":19717,"LANDMARKID":"1001200001345","LANDMARKCO":"603","LANDMARKNA":"鴻賓大旅社","LANDMARKAD":"1001213","ADDRESS":"高雄市路竹區竹南村中山路742號","TEL":"07-6963116","COUNTYNAME":"高雄市","TOWNNAME":"路竹區","MARKTYPE":"996","Class":"6"},"geometry":{"x":120.26086383596216,"y":22.85577083823738}},{"attributes":{"OBJECTID":19718,"LANDMARKID":"1001200001491","LANDMARKCO":"605","LANDMARKNA":"衛生所","LANDMARKAD":"1001213","ADDRESS":"高雄市路竹區","TEL":" ","COUNTYNAME":"高雄市","TOWNNAME":"路竹區","MARKTYPE":"996","Class":"6"},"geometry":{"x":120.25886832438373,"y":22.85456313914792}},{"attributes":{"OBJECTID":19719,"LANDMARKID":"1001200001492","LANDMARKCO":"605","LANDMARKNA":"路竹區立托兒所","LANDMARKAD":"1001213","ADDRESS":"高雄市路竹區","TEL":" ","COUNTYNAME":"高雄市","TOWNNAME":"路竹區","MARKTYPE":"996","Class":"6"},"geometry":{"x":120.27819959091363,"y":22.849080276409239}},{"attributes":{"OBJECTID":19720,"LANDMARKID":"1001200000908","LANDMARKCO":"405","LANDMARKNA":"中油加油站-福記站","LANDMARKAD":"1001216","ADDRESS":"高雄市永安區保安路248號","TEL":"07-6910269","COUNTYNAME":"高雄市","TOWNNAME":"永安區","MARKTYPE":"994","Class":"4"},"geometry":{"x":120.2388466448418,"y":22.822286139918106}},{"attributes":{"OBJECTID":19721,"LANDMARKID":"1001200000909","LANDMARKCO":"405","LANDMARKNA":"中油加油站-永安站","LANDMARKAD":"1001216","ADDRESS":"高雄市永安區維新村保安路47號","TEL":"07-6912014","COUNTYNAME":"高雄市","TOWNNAME":"永安區","MARKTYPE":"994","Class":"4"},"geometry":{"x":120.24273540856699,"y":22.813221571300826}},{"attributes":{"OBJECTID":19722,"LANDMARKID":"1001200000910","LANDMARKCO":"405","LANDMARKNA":"中油加油站-樺興站","LANDMARKAD":"1001216","ADDRESS":"高雄市永安區維新村維新路18-13號","TEL":"07-6913355","COUNTYNAME":"高雄市","TOWNNAME":"永安區","MARKTYPE":"994","Class":"4"},"geometry":{"x":120.24439219830607,"y":22.808659991838887}},{"attributes":{"OBJECTID":19723,"LANDMARKID":"1001200000911","LANDMARKCO":"405","LANDMARKNA":"中油加油站-本洲站","LANDMARKAD":"1001216","ADDRESS":"高雄市永安區維新村維新路18-1號","TEL":"07-6233026","COUNTYNAME":"高雄市","TOWNNAME":"永安區","MARKTYPE":"994","Class":"4"},"geometry":{"x":120.25798167832644,"y":22.808200360843365}},{"attributes":{"OBJECTID":19724,"LANDMARKID":"1001200001076","LANDMARKCO":"408","LANDMARKNA":"郵局-永安郵局","LANDMARKAD":"1001216","ADDRESS":"高雄市永安區永華村永華路15號","TEL":"(07)6912-285","COUNTYNAME":"高雄市","TOWNNAME":"永安區","MARKTYPE":"994","Class":"4"},"geometry":{"x":120.22655666224968,"y":22.817080628155715}},{"attributes":{"OBJECTID":19725,"LANDMARKID":"1001200001077","LANDMARKCO":"408","LANDMARKNA":"郵局-永安竹仔港郵局","LANDMARKAD":"1001216","ADDRESS":"高雄市永安區永工二路1號(永安工業區內)","TEL":"(07)6214-448","COUNTYNAME":"高雄市","TOWNNAME":"永安區","MARKTYPE":"994","Class":"4"},"geometry":{"x":120.25189771913901,"y":22.808750983129507}},{"attributes":{"OBJECTID":19726,"LANDMARKID":"1001200001187","LANDMARKCO":"409","LANDMARKNA":"高雄市永安區農會","LANDMARKAD":"1001216","ADDRESS":"高雄市永安區永安村永安路34號","TEL":"07-6911851-3","COUNTYNAME":"高雄市","TOWNNAME":"永安區","MARKTYPE":"994","Class":"4"},"geometry":{"x":120.22493463530643,"y":22.818548878091651}},{"attributes":{"OBJECTID":19727,"LANDMARKID":"1001200001188","LANDMARKCO":"409","LANDMARKNA":"保寧農會","LANDMARKAD":"1001216","ADDRESS":"永安區保寧路240號","TEL":"691-3805","COUNTYNAME":"高雄市","TOWNNAME":"永安區","MARKTYPE":"994","Class":"4"},"geometry":{"x":120.23594983126124,"y":22.829173556342717}},{"attributes":{"OBJECTID":19728,"LANDMARKID":"1001200001189","LANDMARKCO":"409","LANDMARKNA":"永安漁會","LANDMARKAD":"1001216","ADDRESS":"高雄市永安區新港村新興路66-1號","TEL":"07-6912020","COUNTYNAME":"高雄市","TOWNNAME":"永安區","MARKTYPE":"994","Class":"4"},"geometry":{"x":120.20770160301007,"y":22.820895750562769}},{"attributes":{"OBJECTID":19729,"LANDMARKID":"1001200001190","LANDMARKCO":"409","LANDMARKNA":"永安農會-維新分部","LANDMARKAD":"1001216","ADDRESS":"高雄市永安區維新村光明九巷25~2號","TEL":"07-691-20","COUNTYNAME":"高雄市","TOWNNAME":"永安區","MARKTYPE":"994","Class":"4"},"geometry":{"x":120.24654227697893,"y":22.806959994732122}},{"attributes":{"OBJECTID":19730,"LANDMARKID":"1001200000075","LANDMARKCO":"103","LANDMARKNA":"高雄市永安區鄉民代表會","LANDMARKAD":"1001216","ADDRESS":"高雄市永安區永安路28號","TEL":"07-6910688","COUNTYNAME":"高雄市","TOWNNAME":"永安區","MARKTYPE":"991","Class":"1"},"geometry":{"x":120.22480051142517,"y":22.818475637868417}},{"attributes":{"OBJECTID":19731,"LANDMARKID":"1001200000289","LANDMARKCO":"108","LANDMARKNA":"高雄市永安區公所","LANDMARKAD":"1001216","ADDRESS":"高雄市永安區永安路32號","TEL":"07-6912716","COUNTYNAME":"高雄市","TOWNNAME":"永安區","MARKTYPE":"991","Class":"1"},"geometry":{"x":120.2251979108315,"y":22.818646581819557}},{"attributes":{"OBJECTID":19732,"LANDMARKID":"1001200000131","LANDMARKCO":"106","LANDMARKNA":"高雄市永安區戶政事務所","LANDMARKAD":"1001216","ADDRESS":"高雄市永安區永安村2鄰永安路24號","TEL":"07-6912265","COUNTYNAME":"高雄市","TOWNNAME":"永安區","MARKTYPE":"991","Class":"1"},"geometry":{"x":120.2254511687152,"y":22.818649043773675}},{"attributes":{"OBJECTID":19733,"LANDMARKID":"1001200000076","LANDMARKCO":"103","LANDMARKNA":"高雄市永安區衛生所","LANDMARKAD":"1001216","ADDRESS":"高雄市永安區永安路26號","TEL":"07-6912015","COUNTYNAME":"高雄市","TOWNNAME":"永安區","MARKTYPE":"991","Class":"1"},"geometry":{"x":120.22566444241215,"y":22.818741423226843}},{"attributes":{"OBJECTID":19734,"LANDMARKID":"1001200000194","LANDMARKCO":"107","LANDMARKNA":"高雄市消防局永安消防分隊","LANDMARKAD":"1001216","ADDRESS":"高雄市永安區永安村永安路7號","TEL":"07-6910073","COUNTYNAME":"高雄市","TOWNNAME":"永安區","MARKTYPE":"991","Class":"1"},"geometry":{"x":120.23781727314137,"y":22.823681336733639}},{"attributes":{"OBJECTID":19735,"LANDMARKID":"1001200000011","LANDMARKCO":"101","LANDMARKNA":"工業局永安工業區服務中心","LANDMARKAD":"1001216","ADDRESS":"高雄市永安區永工二路1號","TEL":"07-6212895","COUNTYNAME":"高雄市","TOWNNAME":"永安區","MARKTYPE":"991","Class":"1"},"geometry":{"x":120.25232522483978,"y":22.808491409289001}},{"attributes":{"OBJECTID":19736,"LANDMARKID":"1001200000202","LANDMARKCO":"107","LANDMARKNA":"高雄市政府警察局永安分駐所","LANDMARKAD":"1001216","ADDRESS":"高雄市永安區永安路22號","TEL":"07-6912044","COUNTYNAME":"高雄市","TOWNNAME":"永安區","MARKTYPE":"991","Class":"1"},"geometry":{"x":120.22587771640914,"y":22.818833801498432}},{"attributes":{"OBJECTID":19737,"LANDMARKID":"1001200000584","LANDMARKCO":"204","LANDMARKNA":"高雄市立圖書館永安分館","LANDMARKAD":"1001216","ADDRESS":"高雄市永安區永華村永華路49號","TEL":" ","COUNTYNAME":"高雄市","TOWNNAME":"永安區","MARKTYPE":"992","Class":"2"},"geometry":{"x":120.22385270397552,"y":22.814655944083977}},{"attributes":{"OBJECTID":19738,"LANDMARKID":"1001200000470","LANDMARKCO":"203","LANDMARKNA":"縣立永安國中","LANDMARKAD":"1001216","ADDRESS":"高雄市永安區保興一路3號","TEL":"07-6912064","COUNTYNAME":"高雄市","TOWNNAME":"永安區","MARKTYPE":"992","Class":"2"},"geometry":{"x":120.2405246327862,"y":22.822881143847543}},{"attributes":{"OBJECTID":19739,"LANDMARKID":"1001200000471","LANDMARKCO":"203","LANDMARKNA":"縣立新港國小","LANDMARKAD":"1001216","ADDRESS":"高雄市永安區新港村新興路25號","TEL":"07-6912040","COUNTYNAME":"高雄市","TOWNNAME":"永安區","MARKTYPE":"992","Class":"2"},"geometry":{"x":120.208983511561,"y":22.821278289492383}},{"attributes":{"OBJECTID":19740,"LANDMARKID":"1001200000472","LANDMARKCO":"203","LANDMARKNA":"縣立永安國小","LANDMARKAD":"1001216","ADDRESS":"高雄市永安區永華村永華路49號","TEL":"07-6912011","COUNTYNAME":"高雄市","TOWNNAME":"永安區","MARKTYPE":"992","Class":"2"},"geometry":{"x":120.22468829099797,"y":22.814952682367942}},{"attributes":{"OBJECTID":19741,"LANDMARKID":"1001200000473","LANDMARKCO":"203","LANDMARKNA":"縣立維新國小","LANDMARKAD":"1001216","ADDRESS":"高雄市永安區維新路光明9巷69之10號","TEL":"07-6913816","COUNTYNAME":"高雄市","TOWNNAME":"永安區","MARKTYPE":"992","Class":"2"},"geometry":{"x":120.24748402100232,"y":22.803943765389661}},{"attributes":{"OBJECTID":19742,"LANDMARKID":"1001200000474","LANDMARKCO":"203","LANDMARKNA":"縣立新港國小鹽田分校","LANDMARKAD":"1001216","ADDRESS":"高雄市永安區","TEL":" ","COUNTYNAME":"高雄市","TOWNNAME":"永安區","MARKTYPE":"992","Class":"2"},"geometry":{"x":120.20913649574373,"y":22.834373761769154}},{"attributes":{"OBJECTID":19743,"LANDMARKID":"1001200000475","LANDMARKCO":"203","LANDMARKNA":"縣立保寧國小","LANDMARKAD":"1001216","ADDRESS":"高雄市永安區","TEL":" ","COUNTYNAME":"高雄市","TOWNNAME":"永安區","MARKTYPE":"992","Class":"2"},"geometry":{"x":120.23738794979988,"y":22.835416725850759}},{"attributes":{"OBJECTID":19744,"LANDMARKID":"1001200001493","LANDMARKCO":"605","LANDMARKNA":"永新漁港","LANDMARKAD":"1001216","ADDRESS":" ","TEL":" ","COUNTYNAME":"高雄市","TOWNNAME":"永安區","MARKTYPE":"996","Class":"6"},"geometry":{"x":120.20268776416115,"y":22.831103490132737}},{"attributes":{"OBJECTID":19745,"LANDMARKID":"1001200000912","LANDMARKCO":"405","LANDMARKNA":"中油加油站-北嶺站","LANDMARKAD":"1001208","ADDRESS":"高雄市岡山區岡山北路246號","TEL":"07-6210387","COUNTYNAME":"高雄市","TOWNNAME":"岡山區","MARKTYPE":"994","Class":"4"},"geometry":{"x":120.27636286469942,"y":22.815050243703698}},{"attributes":{"OBJECTID":19746,"LANDMARKID":"1001200000913","LANDMARKCO":"405","LANDMARKNA":"中油加油站-友情站","LANDMARKAD":"1001208","ADDRESS":"高雄市岡山區介壽東路83號","TEL":"07-6258611","COUNTYNAME":"高雄市","TOWNNAME":"岡山區","MARKTYPE":"994","Class":"4"},"geometry":{"x":120.30765654778509,"y":22.785206180830848}},{"attributes":{"OBJECTID":19747,"LANDMARKID":"1001200000914","LANDMARKCO":"405","LANDMARKNA":"中油加油站-筧橋站","LANDMARKAD":"1001208","ADDRESS":"高雄市岡山區介籌西路427-1號","TEL":"07-6269076","COUNTYNAME":"高雄市","TOWNNAME":"岡山區","MARKTYPE":"994","Class":"4"},"geometry":{"x":120.27260953852257,"y":22.782054973659868}},{"attributes":{"OBJECTID":19748,"LANDMARKID":"1001200000915","LANDMARKCO":"405","LANDMARKNA":"山隆加油站-軍校站(中油)","LANDMARKAD":"1001208","ADDRESS":"高雄市岡山區石潭路100號","TEL":"(07)625-3965","COUNTYNAME":"高雄市","TOWNNAME":"岡山區","MARKTYPE":"994","Class":"4"},"geometry":{"x":120.26845915789011,"y":22.771291275393729}},{"attributes":{"OBJECTID":19749,"LANDMARKID":"1001200000916","LANDMARKCO":"405","LANDMARKNA":"中油加油站-元鐘站","LANDMARKAD":"1001208","ADDRESS":"高雄市岡山區為隨西路16號","TEL":"07-6222818","COUNTYNAME":"高雄市","TOWNNAME":"岡山區","MARKTYPE":"994","Class":"4"},"geometry":{"x":120.29153299842542,"y":22.811884824168558}},{"attributes":{"OBJECTID":19750,"LANDMARKID":"1001200000917","LANDMARKCO":"405","LANDMARKNA":"亞柏加油站-岡山站(中油)","LANDMARKAD":"1001208","ADDRESS":"高雄市岡山區本洲路11號","TEL":"07-6219117","COUNTYNAME":"高雄市","TOWNNAME":"岡山區","MARKTYPE":"994","Class":"4"},"geometry":{"x":120.27860633087528,"y":22.804234785584558}},{"attributes":{"OBJECTID":19751,"LANDMARKID":"1001200000918","LANDMARKCO":"405","LANDMARKNA":"台糖加油站-岡北站(中油)","LANDMARKAD":"1001208","ADDRESS":"高雄市岡山北路158號","TEL":"07-6227718","COUNTYNAME":"高雄市","TOWNNAME":"岡山區","MARKTYPE":"994","Class":"4"},"geometry":{"x":120.27885459472131,"y":22.812897909631157}},{"attributes":{"OBJECTID":19752,"LANDMARKID":"1001200000919","LANDMARKCO":"405","LANDMARKNA":"中油加油站-岡山北路站","LANDMARKAD":"1001208","ADDRESS":"高雄市岡山區岡山路608號","TEL":"07-6210838","COUNTYNAME":"高雄市","TOWNNAME":"岡山區","MARKTYPE":"994","Class":"4"},"geometry":{"x":120.28947207423803,"y":22.804076917009226}},{"attributes":{"OBJECTID":19753,"LANDMARKID":"1001200000920","LANDMARKCO":"405","LANDMARKNA":"中油加油站-北岡山站","LANDMARKAD":"1001208","ADDRESS":"高雄市岡山區岡山北路271號","TEL":"07-6210387","COUNTYNAME":"高雄市","TOWNNAME":"岡山區","MARKTYPE":"994","Class":"4"},"geometry":{"x":120.27165846182106,"y":22.818460183941703}},{"attributes":{"OBJECTID":19754,"LANDMARKID":"1001200000921","LANDMARKCO":"405","LANDMARKNA":"統一速邁樂加油站-祥永站(中油)","LANDMARKAD":"1001208","ADDRESS":"高雄市介壽東路10號","TEL":"07-6262721","COUNTYNAME":"高雄市","TOWNNAME":"岡山區","MARKTYPE":"994","Class":"4"},"geometry":{"x":120.31480982303822,"y":22.786746991852635}},{"attributes":{"OBJECTID":19755,"LANDMARKID":"1001200000922","LANDMARKCO":"405","LANDMARKNA":"中油加油站-前峰站","LANDMARKAD":"1001208","ADDRESS":"高雄市岡山區前峰路238號","TEL":"07-6258122","COUNTYNAME":"高雄市","TOWNNAME":"岡山區","MARKTYPE":"994","Class":"4"},"geometry":{"x":120.2812076567612,"y":22.801590990923184}},{"attributes":{"OBJECTID":19756,"LANDMARKID":"1001200000923","LANDMARKCO":"405","LANDMARKNA":"統一速邁樂加油站-岡山加油站(中油)","LANDMARKAD":"1001208","ADDRESS":"高雄市岡山區介壽東路10號","TEL":" ","COUNTYNAME":"高雄市","TOWNNAME":"岡山區","MARKTYPE":"994","Class":"4"},"geometry":{"x":120.31470525363443,"y":22.78668861912163}},{"attributes":{"OBJECTID":19757,"LANDMARKID":"1001200000924","LANDMARKCO":"405","LANDMARKNA":"中油加油站-柳橋站","LANDMARKAD":"1001208","ADDRESS":"高雄市岡山區後協里通校路167號","TEL":"07-6261710","COUNTYNAME":"高雄市","TOWNNAME":"岡山區","MARKTYPE":"994","Class":"4"},"geometry":{"x":120.2813045782099,"y":22.787507632915144}},{"attributes":{"OBJECTID":19758,"LANDMARKID":"1001200000925","LANDMARKCO":"405","LANDMARKNA":"統一速邁樂加油站-佳興加油站(中油)","LANDMARKAD":"1001208","ADDRESS":"高雄市岡山區成功路462號","TEL":" ","COUNTYNAME":"高雄市","TOWNNAME":"岡山區","MARKTYPE":"994","Class":"4"},"geometry":{"x":120.30060233825083,"y":22.811436693452571}},{"attributes":{"OBJECTID":19759,"LANDMARKID":"1001200000926","LANDMARKCO":"405","LANDMARKNA":"中油加油站-岡山站","LANDMARKAD":"1001208","ADDRESS":"高雄市岡山區岡山南路45號","TEL":"07-6252450","COUNTYNAME":"高雄市","TOWNNAME":"岡山區","MARKTYPE":"994","Class":"4"},"geometry":{"x":120.29767476815593,"y":22.782359042815852}},{"attributes":{"OBJECTID":19760,"LANDMARKID":"1001200000788","LANDMARKCO":"402","LANDMARKNA":"My Phone台灣大哥大-岡山柳橋東直營服務中心","LANDMARKAD":"1001208","ADDRESS":"高雄市岡山區柳橋東路32-5號","TEL":"0809-000-166","COUNTYNAME":"高雄市","TOWNNAME":"岡山區","MARKTYPE":"994","Class":"4"},"geometry":{"x":120.29506472263161,"y":22.791082776459241}},{"attributes":{"OBJECTID":19761,"LANDMARKID":"1001200000789","LANDMARKCO":"402","LANDMARKNA":"亞太行動寬頻電信-岡山岡山加盟服務中心","LANDMARKAD":"1001208","ADDRESS":"高雄市岡山區岡山路300號","TEL":"07-6231789","COUNTYNAME":"高雄市","TOWNNAME":"岡山區","MARKTYPE":"994","Class":"4"},"geometry":{"x":120.29599995280712,"y":22.793428907188584}},{"attributes":{"OBJECTID":19762,"LANDMARKID":"1001200000790","LANDMARKCO":"402","LANDMARKNA":"亞太行動寬頻電信-岡山壽天加盟服務中心","LANDMARKAD":"1001208","ADDRESS":"高雄市岡山區壽天路105號","TEL":"07-6225081","COUNTYNAME":"高雄市","TOWNNAME":"岡山區","MARKTYPE":"994","Class":"4"},"geometry":{"x":120.29138037833978,"y":22.795145123618624}},{"attributes":{"OBJECTID":19763,"LANDMARKID":"1001200000751","LANDMARKCO":"401","LANDMARKNA":"佛心中醫醫院","LANDMARKAD":"1001208","ADDRESS":"高雄市岡山區岡山路98號","TEL":"07-6226767","COUNTYNAME":"高雄市","TOWNNAME":"岡山區","MARKTYPE":"994","Class":"4"},"geometry":{"x":120.29671244678572,"y":22.788212857744149}},{"attributes":{"OBJECTID":19764,"LANDMARKID":"1001200000752","LANDMARKCO":"401","LANDMARKNA":"惠川醫院","LANDMARKAD":"1001208","ADDRESS":"高雄市岡山區岡山路92號","TEL":"07-6229292","COUNTYNAME":"高雄市","TOWNNAME":"岡山區","MARKTYPE":"994","Class":"4"},"geometry":{"x":120.29664229201204,"y":22.788192687675483}},{"attributes":{"OBJECTID":19765,"LANDMARKID":"1001200000753","LANDMARKCO":"401","LANDMARKNA":"劉嘉修醫院","LANDMARKAD":"1001208","ADDRESS":"高雄市岡山區岡山路428號","TEL":"07-6222836","COUNTYNAME":"高雄市","TOWNNAME":"岡山區","MARKTYPE":"994","Class":"4"},"geometry":{"x":120.29556361317243,"y":22.797303921052674}},{"attributes":{"OBJECTID":19766,"LANDMARKID":"1001200000754","LANDMARKCO":"401","LANDMARKNA":"國軍岡山醫院附設民眾診療服務","LANDMARKAD":"1001208","ADDRESS":"高雄市岡山區大義二路1號","TEL":"07-6252281","COUNTYNAME":"高雄市","TOWNNAME":"岡山區","MARKTYPE":"994","Class":"4"},"geometry":{"x":120.28505549331801,"y":22.79021619865075}},{"attributes":{"OBJECTID":19767,"LANDMARKID":"1001200000755","LANDMARKCO":"401","LANDMARKNA":"高雄市立岡山醫院","LANDMARKAD":"1001208","ADDRESS":"高雄市岡山區壽天路12號","TEL":" ","COUNTYNAME":"高雄市","TOWNNAME":"岡山區","MARKTYPE":"994","Class":"4"},"geometry":{"x":120.29429058469044,"y":22.796582586312748}},{"attributes":{"OBJECTID":19768,"LANDMARKID":"1001200000756","LANDMARKCO":"401","LANDMARKNA":"高雄市立岡山醫院","LANDMARKAD":"1001208","ADDRESS":"高雄市岡山區壽天路12號","TEL":"07-6222131","COUNTYNAME":"高雄市","TOWNNAME":"岡山區","MARKTYPE":"994","Class":"4"},"geometry":{"x":120.29425162794531,"y":22.796582241443087}},{"attributes":{"OBJECTID":19769,"LANDMARKID":"1001200000757","LANDMARKCO":"401","LANDMARKNA":"樂安醫院","LANDMARKAD":"1001208","ADDRESS":"高雄市岡山區通校路300號","TEL":"07-6256791","COUNTYNAME":"高雄市","TOWNNAME":"岡山區","MARKTYPE":"994","Class":"4"},"geometry":{"x":120.28165346548799,"y":22.789565985670084}},{"attributes":{"OBJECTID":19770,"LANDMARKID":"1001200000758","LANDMARKCO":"401","LANDMARKNA":"劉光雄醫院","LANDMARKAD":"1001208","ADDRESS":"高雄市岡山區岡山路380-1號","TEL":"07-6219156","COUNTYNAME":"高雄市","TOWNNAME":"岡山區","MARKTYPE":"994","Class":"4"},"geometry":{"x":120.29593485692364,"y":22.794417503716627}},{"attributes":{"OBJECTID":19771,"LANDMARKID":"1001200001068","LANDMARKCO":"408","LANDMARKNA":"郵局-岡山郵局","LANDMARKAD":"1001208","ADDRESS":"高雄市岡山區民有路68號","TEL":"(07)6212-462","COUNTYNAME":"高雄市","TOWNNAME":"岡山區","MARKTYPE":"994","Class":"4"},"geometry":{"x":120.2965921191991,"y":22.789450550156012}},{"attributes":{"OBJECTID":19772,"LANDMARKID":"1001200001069","LANDMARKCO":"408","LANDMARKNA":"郵局-空軍通校郵局","LANDMARKAD":"1001208","ADDRESS":"高雄市岡山區介壽西路198號〈空軍航空技術學院內〉　","TEL":"(07)6251-614","COUNTYNAME":"高雄市","TOWNNAME":"岡山區","MARKTYPE":"994","Class":"4"},"geometry":{"x":120.28107107766668,"y":22.784463389828776}},{"attributes":{"OBJECTID":19773,"LANDMARKID":"1001200001070","LANDMARKCO":"408","LANDMARKNA":"郵局-空軍官校郵局","LANDMARKAD":"1001208","ADDRESS":"高雄市岡山區介壽西路首1號(空軍官校內)","TEL":"(07)6251-615","COUNTYNAME":"高雄市","TOWNNAME":"岡山區","MARKTYPE":"994","Class":"4"},"geometry":{"x":120.28461087665731,"y":22.784315799476271}},{"attributes":{"OBJECTID":19774,"LANDMARKID":"1001200001071","LANDMARKCO":"408","LANDMARKNA":"郵局-空軍機校郵局","LANDMARKAD":"1001208","ADDRESS":"高雄市岡山區巨輪路1號〈空軍航空技術學院內〉","TEL":"(07)6258-391","COUNTYNAME":"高雄市","TOWNNAME":"岡山區","MARKTYPE":"994","Class":"4"},"geometry":{"x":120.2784939787141,"y":22.797226307048856}},{"attributes":{"OBJECTID":19775,"LANDMARKID":"1001200001072","LANDMARKCO":"408","LANDMARKNA":"郵局-岡山平和路郵局","LANDMARKAD":"1001208","ADDRESS":"高雄市岡山區平和路65號","TEL":"(07)6212-584","COUNTYNAME":"高雄市","TOWNNAME":"岡山區","MARKTYPE":"994","Class":"4"},"geometry":{"x":120.2951200673711,"y":22.794377053259662}},{"attributes":{"OBJECTID":19776,"LANDMARKID":"1001200001073","LANDMARKCO":"408","LANDMARKNA":"郵局-岡山仁壽路郵局","LANDMARKAD":"1001208","ADDRESS":"高雄市岡山區仁壽路215號","TEL":"(07)6254-554","COUNTYNAME":"高雄市","TOWNNAME":"岡山區","MARKTYPE":"994","Class":"4"},"geometry":{"x":120.28578078773231,"y":22.785871040735845}},{"attributes":{"OBJECTID":19777,"LANDMARKID":"1001200001074","LANDMARKCO":"408","LANDMARKNA":"郵局-岡山五甲尾郵局","LANDMARKAD":"1001208","ADDRESS":"高雄市岡山區嘉興路255號","TEL":"(07)6227-841","COUNTYNAME":"高雄市","TOWNNAME":"岡山區","MARKTYPE":"994","Class":"4"},"geometry":{"x":120.30434855510873,"y":22.822090931617698}},{"attributes":{"OBJECTID":19778,"LANDMARKID":"1001200001075","LANDMARKCO":"408","LANDMARKNA":"郵局-岡山大仁郵局","LANDMARKAD":"1001208","ADDRESS":"高雄市岡山區大仁路89號","TEL":"(07)6243-043","COUNTYNAME":"高雄市","TOWNNAME":"岡山區","MARKTYPE":"994","Class":"4"},"geometry":{"x":120.3015274222975,"y":22.805668764644476}},{"attributes":{"OBJECTID":19779,"LANDMARKID":"1001200001191","LANDMARKCO":"409","LANDMARKNA":"岡山魚市場","LANDMARKAD":"1001208","ADDRESS":"岡山區嘉新西路123號","TEL":"07-6212174　","COUNTYNAME":"高雄市","TOWNNAME":"岡山區","MARKTYPE":"994","Class":"4"},"geometry":{"x":120.29306492166991,"y":22.801760271110052}},{"attributes":{"OBJECTID":19780,"LANDMARKID":"1001200001192","LANDMARKCO":"409","LANDMARKNA":"岡山區農會","LANDMARKAD":"1001208","ADDRESS":"高雄市岡山區 岡山里岡山路434號","TEL":"07-621410","COUNTYNAME":"高雄市","TOWNNAME":"岡山區","MARKTYPE":"994","Class":"4"},"geometry":{"x":120.29574455196749,"y":22.796283811877448}},{"attributes":{"OBJECTID":19781,"LANDMARKID":"1001200001193","LANDMARKCO":"409","LANDMARKNA":"岡山農會-本部","LANDMARKAD":"1001208","ADDRESS":"高雄市岡山區岡山路434號","TEL":"07-621-41","COUNTYNAME":"高雄市","TOWNNAME":"岡山區","MARKTYPE":"994","Class":"4"},"geometry":{"x":120.29574455196749,"y":22.796283811877448}},{"attributes":{"OBJECTID":19782,"LANDMARKID":"1001200001194","LANDMARKCO":"409","LANDMARKNA":"岡山農會-嘉興分部","LANDMARKAD":"1001208","ADDRESS":"高雄市岡山區嘉興里嘉興路316號","TEL":"07-621-27","COUNTYNAME":"高雄市","TOWNNAME":"岡山區","MARKTYPE":"994","Class":"4"},"geometry":{"x":120.30447401324892,"y":22.82180447917872}},{"attributes":{"OBJECTID":19783,"LANDMARKID":"1001200001195","LANDMARKCO":"409","LANDMARKNA":"岡山農會-仁壽分部","LANDMARKAD":"1001208","ADDRESS":"高雄市岡山區仁壽里民族路9號","TEL":"07-626-37","COUNTYNAME":"高雄市","TOWNNAME":"岡山區","MARKTYPE":"994","Class":"4"},"geometry":{"x":120.28939650241976,"y":22.793306328590781}},{"attributes":{"OBJECTID":19784,"LANDMARKID":"1001200001196","LANDMARKCO":"409","LANDMARKNA":"岡山農會-協榮分部","LANDMARKAD":"1001208","ADDRESS":"高雄市岡山區協榮里介壽西路67號","TEL":"07-625-05","COUNTYNAME":"高雄市","TOWNNAME":"岡山區","MARKTYPE":"994","Class":"4"},"geometry":{"x":120.28308103443209,"y":22.784283433260626}},{"attributes":{"OBJECTID":19785,"LANDMARKID":"1001200000826","LANDMARKCO":"404","LANDMARKNA":"台灣省自來水大崗山給水廠","LANDMARKAD":"1001208","ADDRESS":"高雄市岡山區岡山北路222號","TEL":" ","COUNTYNAME":"高雄市","TOWNNAME":"岡山區","MARKTYPE":"994","Class":"4"},"geometry":{"x":120.2771564293792,"y":22.815209344391715}},{"attributes":{"OBJECTID":19786,"LANDMARKID":"1001200001025","LANDMARKCO":"406","LANDMARKNA":"陽明公園","LANDMARKAD":"1001208","ADDRESS":"高雄市岡山區","TEL":" ","COUNTYNAME":"高雄市","TOWNNAME":"岡山區","MARKTYPE":"994","Class":"4"},"geometry":{"x":120.28542353390782,"y":22.785127576706202}},{"attributes":{"OBJECTID":19787,"LANDMARKID":"1001200001026","LANDMARKCO":"406","LANDMARKNA":"中山公園","LANDMARKAD":"1001208","ADDRESS":"高雄市岡山區","TEL":" ","COUNTYNAME":"高雄市","TOWNNAME":"岡山區","MARKTYPE":"994","Class":"4"},"geometry":{"x":120.29183738610192,"y":22.796932840162206}},{"attributes":{"OBJECTID":19788,"LANDMARKID":"1001200000827","LANDMARKCO":"404","LANDMARKNA":"台灣省自來水岡山服務所","LANDMARKAD":"1001208","ADDRESS":"高雄市岡山區岡山路450號","TEL":" ","COUNTYNAME":"高雄市","TOWNNAME":"岡山區","MARKTYPE":"994","Class":"4"},"geometry":{"x":120.29571861648341,"y":22.797884039558596}},{"attributes":{"OBJECTID":19789,"LANDMARKID":"1001200001023","LANDMARKCO":"406","LANDMARKNA":"岡山公四環保公園","LANDMARKAD":"1001208","ADDRESS":"高雄市岡山區","TEL":" ","COUNTYNAME":"高雄市","TOWNNAME":"岡山區","MARKTYPE":"994","Class":"4"},"geometry":{"x":120.30067722303856,"y":22.783110831974497}},{"attributes":{"OBJECTID":19790,"LANDMARKID":"1001200001024","LANDMARKCO":"406","LANDMARKNA":"和平公園","LANDMARKAD":"1001208","ADDRESS":"高雄市岡山區","TEL":" ","COUNTYNAME":"高雄市","TOWNNAME":"岡山區","MARKTYPE":"994","Class":"4"},"geometry":{"x":120.3030453905963,"y":22.797896541393758}},{"attributes":{"OBJECTID":19791,"LANDMARKID":"1001200000902","LANDMARKCO":"405","LANDMARKNA":"台亞加油站-岡山交流道站（台塑）","LANDMARKAD":"1001208","ADDRESS":"高雄市岡山區介壽東路3號","TEL":"(07)625-5654","COUNTYNAME":"高雄市","TOWNNAME":"岡山區","MARKTYPE":"994","Class":"4"},"geometry":{"x":120.31617665829194,"y":22.786551821507715}},{"attributes":{"OBJECTID":19792,"LANDMARKID":"1001200000903","LANDMARKCO":"405","LANDMARKNA":"福懋加油站-岡山站(台塑)","LANDMARKAD":"1001208","ADDRESS":"高雄市岡山區岡燕路599號","TEL":"07-6210322","COUNTYNAME":"高雄市","TOWNNAME":"岡山區","MARKTYPE":"994","Class":"4"},"geometry":{"x":120.31349302253125,"y":22.789331148826371}},{"attributes":{"OBJECTID":19793,"LANDMARKID":"1001200000904","LANDMARKCO":"405","LANDMARKNA":"台亞加油站-台上站（台塑）","LANDMARKAD":"1001208","ADDRESS":"高雄市岡山區成功路269號","TEL":"(07)621-4518","COUNTYNAME":"高雄市","TOWNNAME":"岡山區","MARKTYPE":"994","Class":"4"},"geometry":{"x":120.29865505367547,"y":22.808280391677563}},{"attributes":{"OBJECTID":19794,"LANDMARKID":"1001200000905","LANDMARKCO":"405","LANDMARKNA":"台亞加油站-程香站（台塑）","LANDMARKAD":"1001208","ADDRESS":"高雄市岡山區岡燕路500號","TEL":"(07)622-0129","COUNTYNAME":"高雄市","TOWNNAME":"岡山區","MARKTYPE":"994","Class":"4"},"geometry":{"x":120.31076020191492,"y":22.790241586228692}},{"attributes":{"OBJECTID":19795,"LANDMARKID":"1001200000906","LANDMARKCO":"405","LANDMARKNA":"台亞加油站-岡山介壽一站（台塑）","LANDMARKAD":"1001208","ADDRESS":"高雄市岡山區介壽東路157號","TEL":"(07)625-6375","COUNTYNAME":"高雄市","TOWNNAME":"岡山區","MARKTYPE":"994","Class":"4"},"geometry":{"x":120.31150501377854,"y":22.785920782015889}},{"attributes":{"OBJECTID":19796,"LANDMARKID":"1001200000130","LANDMARKCO":"106","LANDMARKNA":"高雄市岡山區戶政事務所","LANDMARKAD":"1001208","ADDRESS":"高雄市岡山區岡山里28鄰岡山路345巷1號","TEL":"07-6217389","COUNTYNAME":"高雄市","TOWNNAME":"岡山區","MARKTYPE":"991","Class":"1"},"geometry":{"x":120.29454989361444,"y":22.796933826493692}},{"attributes":{"OBJECTID":19797,"LANDMARKID":"1001200000012","LANDMARKCO":"101","LANDMARKNA":"水利署第六河川局","LANDMARKAD":"1001208","ADDRESS":"高雄市岡山區柳橋西路15號","TEL":"07-6279018","COUNTYNAME":"高雄市","TOWNNAME":"岡山區","MARKTYPE":"991","Class":"1"},"geometry":{"x":120.28760525344066,"y":22.790407203423779}},{"attributes":{"OBJECTID":19798,"LANDMARKID":"1001200000201","LANDMARKCO":"107","LANDMARKNA":"高雄市政府警察局前峰派出所","LANDMARKAD":"1001208","ADDRESS":"高雄市岡山區中華路53號","TEL":"07-6265134","COUNTYNAME":"高雄市","TOWNNAME":"岡山區","MARKTYPE":"991","Class":"1"},"geometry":{"x":120.28766569545927,"y":22.793478114234187}},{"attributes":{"OBJECTID":19799,"LANDMARKID":"1001200000073","LANDMARKCO":"103","LANDMARKNA":"高雄市岡山區鎮民代表會","LANDMARKAD":"1001208","ADDRESS":"高雄市岡山區公園路2號","TEL":"07-6212410","COUNTYNAME":"高雄市","TOWNNAME":"岡山區","MARKTYPE":"991","Class":"1"},"geometry":{"x":120.29104767131346,"y":22.797920753618616}},{"attributes":{"OBJECTID":19800,"LANDMARKID":"1001200000074","LANDMARKCO":"103","LANDMARKNA":"高雄市身心障礙福利服務中心","LANDMARKAD":"1001208","ADDRESS":"高雄市岡山區公園東路131號","TEL":"07-6226730","COUNTYNAME":"高雄市","TOWNNAME":"岡山區","MARKTYPE":"991","Class":"1"},"geometry":{"x":120.29114172958717,"y":22.799185886666226}}]}