{"displayFieldName":"COUNTYNAME","fieldAliases":{"OBJECTID":"OBJECTID","LANDMARKID":"LANDMARKID","LANDMARKCO":"LANDMARKCO","LANDMARKNA":"LANDMARKNA","LANDMARKAD":"LANDMARKAD","ADDRESS":"ADDRESS","TEL":"TEL","COUNTYNAME":"COUNTYNAME","TOWNNAME":"TOWNNAME","MARKTYPE":"MARKTYPE","Class":"Class"},"geometryType":"esriGeometryPoint","spatialReference":{"wkid":102443},"fields":[{"name":"OBJECTID","type":"esriFieldTypeOID","alias":"OBJECTID"},{"name":"LANDMARKID","type":"esriFieldTypeString","alias":"LANDMARKID","length":15},{"name":"LANDMARKCO","type":"esriFieldTypeString","alias":"LANDMARKCO","length":15},{"name":"LANDMARKNA","type":"esriFieldTypeString","alias":"LANDMARKNA","length":50},{"name":"LANDMARKAD","type":"esriFieldTypeString","alias":"LANDMARKAD","length":15},{"name":"ADDRESS","type":"esriFieldTypeString","alias":"ADDRESS","length":56},{"name":"TEL","type":"esriFieldTypeString","alias":"TEL","length":36},{"name":"COUNTYNAME","type":"esriFieldTypeString","alias":"COUNTYNAME","length":15},{"name":"TOWNNAME","type":"esriFieldTypeString","alias":"TOWNNAME","length":13},{"name":"MARKTYPE","type":"esriFieldTypeString","alias":"MARKTYPE","length":12},{"name":"Class","type":"esriFieldTypeString","alias":"Class","length":5}],"features":[{"attributes":{"OBJECTID":21801,"LANDMARKID":"6400000000317","LANDMARKCO":"203","LANDMARKNA":"市立興仁國中","LANDMARKAD":"6400009","ADDRESS":"高雄市前鎮區德昌路345號","TEL":"07-8218110","COUNTYNAME":"高雄市","TOWNNAME":"前鎮區","MARKTYPE":"992","Class":"2"},"geometry":{"x":179443.84109999985,"y":2498651.2888999991}},{"attributes":{"OBJECTID":21802,"LANDMARKID":"6400000000318","LANDMARKCO":"203","LANDMARKNA":"市立民權國小","LANDMARKAD":"6400009","ADDRESS":"高雄市前鎮區沱江街200號","TEL":"07-5367173","COUNTYNAME":"高雄市","TOWNNAME":"前鎮區","MARKTYPE":"992","Class":"2"},"geometry":{"x":179524.93499999959,"y":2501090.2935000006}},{"attributes":{"OBJECTID":21803,"LANDMARKID":"6400000000272","LANDMARKCO":"202","LANDMARKNA":"市立瑞祥高中","LANDMARKAD":"6400009","ADDRESS":"高雄市前鎮區班超路63號","TEL":"07-8152627","COUNTYNAME":"高雄市","TOWNNAME":"前鎮區","MARKTYPE":"992","Class":"2"},"geometry":{"x":180576.37480000034,"y":2500394.4420999996}},{"attributes":{"OBJECTID":21804,"LANDMARKID":"6400000000273","LANDMARKCO":"202","LANDMARKNA":"市立前鎮高中","LANDMARKAD":"6400009","ADDRESS":"高雄市前鎮區鎮中路132號","TEL":"07-8226842","COUNTYNAME":"高雄市","TOWNNAME":"前鎮區","MARKTYPE":"992","Class":"2"},"geometry":{"x":180075.08980000019,"y":2498716.4964000005}},{"attributes":{"OBJECTID":21805,"LANDMARKID":"6400000000274","LANDMARKCO":"202","LANDMARKNA":"市立中正高工","LANDMARKAD":"6400009","ADDRESS":"高雄市前鎮區光華二路80號","TEL":"07-7232301","COUNTYNAME":"高雄市","TOWNNAME":"前鎮區","MARKTYPE":"992","Class":"2"},"geometry":{"x":179847.63260000013,"y":2501325.7124000005}},{"attributes":{"OBJECTID":21806,"LANDMARKID":"6400000000300","LANDMARKCO":"203","LANDMARKNA":"市立獅甲國中","LANDMARKAD":"6400009","ADDRESS":"高雄市前鎮區中山三路43號","TEL":"07-3331522","COUNTYNAME":"高雄市","TOWNNAME":"前鎮區","MARKTYPE":"992","Class":"2"},"geometry":{"x":178890.37170000002,"y":2500720.2651000004}},{"attributes":{"OBJECTID":21807,"LANDMARKID":"6400000000301","LANDMARKCO":"203","LANDMARKNA":"市立光華國中","LANDMARKAD":"6400009","ADDRESS":"高雄市前鎮區和平二路170號","TEL":"07-7222622","COUNTYNAME":"高雄市","TOWNNAME":"前鎮區","MARKTYPE":"992","Class":"2"},"geometry":{"x":180394.07029999979,"y":2501349.0964000002}},{"attributes":{"OBJECTID":21808,"LANDMARKID":"6400000000302","LANDMARKCO":"203","LANDMARKNA":"市立前鎮國中","LANDMARKAD":"6400009","ADDRESS":"高雄市前鎮區新衙路17號","TEL":"07-8217677","COUNTYNAME":"高雄市","TOWNNAME":"前鎮區","MARKTYPE":"992","Class":"2"},"geometry":{"x":180224.52630000003,"y":2498313.1831}},{"attributes":{"OBJECTID":21809,"LANDMARKID":"6400000000303","LANDMARKCO":"203","LANDMARKNA":"市立瑞豐國中","LANDMARKAD":"6400009","ADDRESS":"高雄市前鎮區瑞興街99號","TEL":"07-7713181","COUNTYNAME":"高雄市","TOWNNAME":"前鎮區","MARKTYPE":"992","Class":"2"},"geometry":{"x":181230.62270000018,"y":2501323.0014999993}},{"attributes":{"OBJECTID":21810,"LANDMARKID":"6400000000304","LANDMARKCO":"203","LANDMARKNA":"市立愛群國小","LANDMARKAD":"6400009","ADDRESS":"高雄市前鎮區二聖二路194號","TEL":"07-3332701","COUNTYNAME":"高雄市","TOWNNAME":"前鎮區","MARKTYPE":"992","Class":"2"},"geometry":{"x":179348.7779000001,"y":2501734.0366999991}},{"attributes":{"OBJECTID":21811,"LANDMARKID":"6400000000305","LANDMARKCO":"203","LANDMARKNA":"市立獅甲國小","LANDMARKAD":"6400009","ADDRESS":"高雄市前鎮區中山三路45號","TEL":"07-3311465","COUNTYNAME":"高雄市","TOWNNAME":"前鎮區","MARKTYPE":"992","Class":"2"},"geometry":{"x":178769.41170000006,"y":2500889.0245999992}},{"attributes":{"OBJECTID":21812,"LANDMARKID":"6400000000306","LANDMARKCO":"203","LANDMARKNA":"市立復興國小","LANDMARKAD":"6400009","ADDRESS":"高雄市前鎮區民權二路331號","TEL":"07-3351784","COUNTYNAME":"高雄市","TOWNNAME":"前鎮區","MARKTYPE":"992","Class":"2"},"geometry":{"x":179180.9796000002,"y":2501085.2750000004}},{"attributes":{"OBJECTID":21813,"LANDMARKID":"6400000000307","LANDMARKCO":"203","LANDMARKNA":"市立佛公國小","LANDMARKAD":"6400009","ADDRESS":"高雄市前鎮區后平路135號","TEL":"07-8229801","COUNTYNAME":"高雄市","TOWNNAME":"前鎮區","MARKTYPE":"992","Class":"2"},"geometry":{"x":180199.89740000013,"y":2497087.0962000005}},{"attributes":{"OBJECTID":21814,"LANDMARKID":"6400000000308","LANDMARKCO":"203","LANDMARKNA":"市立樂群國小","LANDMARKAD":"6400009","ADDRESS":"高雄市前鎮區和平二路60號","TEL":"07-7225846","COUNTYNAME":"高雄市","TOWNNAME":"前鎮區","MARKTYPE":"992","Class":"2"},"geometry":{"x":180271.38879999984,"y":2501051.3463000003}},{"attributes":{"OBJECTID":21815,"LANDMARKID":"6400000000309","LANDMARKCO":"203","LANDMARKNA":"市立明正國小","LANDMARKAD":"6400009","ADDRESS":"高雄市前鎮區明道路2號","TEL":"07-8110965","COUNTYNAME":"高雄市","TOWNNAME":"前鎮區","MARKTYPE":"992","Class":"2"},"geometry":{"x":180752.73419999983,"y":2497960.9936999995}},{"attributes":{"OBJECTID":21816,"LANDMARKID":"6400000000310","LANDMARKCO":"203","LANDMARKNA":"市立瑞祥國小","LANDMARKAD":"6400009","ADDRESS":"高雄市前鎮區班超路20號","TEL":"07-7221212","COUNTYNAME":"高雄市","TOWNNAME":"前鎮區","MARKTYPE":"992","Class":"2"},"geometry":{"x":180786.13590000011,"y":2500225.3449000008}},{"attributes":{"OBJECTID":21817,"LANDMARKID":"6400000000311","LANDMARKCO":"203","LANDMARKNA":"市立前鎮國小","LANDMARKAD":"6400009","ADDRESS":"高雄市前鎮區新生路200號","TEL":"07-8212448","COUNTYNAME":"高雄市","TOWNNAME":"前鎮區","MARKTYPE":"992","Class":"2"},"geometry":{"x":178952.66349999979,"y":2498477.5999999996}},{"attributes":{"OBJECTID":21818,"LANDMARKID":"6400000000312","LANDMARKCO":"203","LANDMARKNA":"市立仁愛國小","LANDMARKAD":"6400009","ADDRESS":"高雄市前鎮區新衙路93號","TEL":"07-8414911","COUNTYNAME":"高雄市","TOWNNAME":"前鎮區","MARKTYPE":"992","Class":"2"},"geometry":{"x":179807.61980000045,"y":2498160.5932999998}},{"attributes":{"OBJECTID":21819,"LANDMARKID":"6400000000313","LANDMARKCO":"203","LANDMARKNA":"市立瑞豐國小","LANDMARKAD":"6400009","ADDRESS":"高雄市前鎮區瑞隆路100號","TEL":"07-7110846","COUNTYNAME":"高雄市","TOWNNAME":"前鎮區","MARKTYPE":"992","Class":"2"},"geometry":{"x":181840.15070000011,"y":2500815.6762000006}},{"attributes":{"OBJECTID":21820,"LANDMARKID":"6400000000314","LANDMARKCO":"203","LANDMARKNA":"市立光華國小","LANDMARKAD":"6400009","ADDRESS":"高雄市前鎮區廣西路57號","TEL":"07-7222846","COUNTYNAME":"高雄市","TOWNNAME":"前鎮區","MARKTYPE":"992","Class":"2"},"geometry":{"x":180148.19070000015,"y":2501862.7661000006}},{"attributes":{"OBJECTID":21821,"LANDMARKID":"6400000000315","LANDMARKCO":"203","LANDMARKNA":"市立鎮昌國小","LANDMARKAD":"6400009","ADDRESS":"高雄市前鎮區樹人路261號","TEL":"07-8116575","COUNTYNAME":"高雄市","TOWNNAME":"前鎮區","MARKTYPE":"992","Class":"2"},"geometry":{"x":179874.22039999999,"y":2499105.8787999991}},{"attributes":{"OBJECTID":21822,"LANDMARKID":"6400000000316","LANDMARKCO":"203","LANDMARKNA":"高雄市立成功啟智學校","LANDMARKAD":"6400009","ADDRESS":"高雄市前鎮區復興三路3號","TEL":"07-3304624","COUNTYNAME":"高雄市","TOWNNAME":"前鎮區","MARKTYPE":"992","Class":"2"},"geometry":{"x":178223.03189999983,"y":2500885.1469999999}},{"attributes":{"OBJECTID":21823,"LANDMARKID":"6400000000714","LANDMARKCO":"308","LANDMARKNA":"國1-高雄端","LANDMARKAD":"6400009","ADDRESS":"高雄市前鎮區","TEL":" ","COUNTYNAME":"高雄市","TOWNNAME":"前鎮區","MARKTYPE":"993","Class":"308"},"geometry":{"x":181056.76429999992,"y":2498653.1164999995}},{"attributes":{"OBJECTID":21824,"LANDMARKID":"6400000000715","LANDMARKCO":"308","LANDMARKNA":"國1-高雄出口交流道-北上","LANDMARKAD":"6400009","ADDRESS":"高雄市前鎮區","TEL":" ","COUNTYNAME":"高雄市","TOWNNAME":"前鎮區","MARKTYPE":"993","Class":"308"},"geometry":{"x":180891.75320000015,"y":2498512.2599999998}},{"attributes":{"OBJECTID":21825,"LANDMARKID":"6400000000586","LANDMARKCO":"306","LANDMARKNA":"草衙捷運站-出口1","LANDMARKAD":"6400009","ADDRESS":" ","TEL":" ","COUNTYNAME":"高雄市","TOWNNAME":"前鎮區","MARKTYPE":"993","Class":"306"},"geometry":{"x":180963.11870000046,"y":2497908.3891000003}},{"attributes":{"OBJECTID":21826,"LANDMARKID":"6400000000587","LANDMARKCO":"306","LANDMARKNA":"草衙捷運站-出口2","LANDMARKAD":"6400009","ADDRESS":" ","TEL":" ","COUNTYNAME":"高雄市","TOWNNAME":"前鎮區","MARKTYPE":"993","Class":"306"},"geometry":{"x":181017.40979999956,"y":2498030.9473999999}},{"attributes":{"OBJECTID":21827,"LANDMARKID":"6400000000588","LANDMARKCO":"306","LANDMARKNA":"草衙捷運站-出口3","LANDMARKAD":"6400009","ADDRESS":" ","TEL":" ","COUNTYNAME":"高雄市","TOWNNAME":"前鎮區","MARKTYPE":"993","Class":"306"},"geometry":{"x":180922.01099999994,"y":2497982.5022999998}},{"attributes":{"OBJECTID":21828,"LANDMARKID":"6400000000589","LANDMARKCO":"306","LANDMARKNA":"草衙捷運站-出口4","LANDMARKAD":"6400009","ADDRESS":" ","TEL":" ","COUNTYNAME":"高雄市","TOWNNAME":"前鎮區","MARKTYPE":"993","Class":"306"},"geometry":{"x":180879.61529999971,"y":2498046.6366000008}},{"attributes":{"OBJECTID":21829,"LANDMARKID":"6400000000590","LANDMARKCO":"306","LANDMARKNA":"前鎮高中捷運站-出口1","LANDMARKAD":"6400009","ADDRESS":" ","TEL":" ","COUNTYNAME":"高雄市","TOWNNAME":"前鎮區","MARKTYPE":"993","Class":"306"},"geometry":{"x":180277.62829999998,"y":2498814.1669999994}},{"attributes":{"OBJECTID":21830,"LANDMARKID":"6400000000591","LANDMARKCO":"306","LANDMARKNA":"前鎮高中捷運站-出口2","LANDMARKAD":"6400009","ADDRESS":" ","TEL":" ","COUNTYNAME":"高雄市","TOWNNAME":"前鎮區","MARKTYPE":"993","Class":"306"},"geometry":{"x":180310.24280000012,"y":2498917.4732000008}},{"attributes":{"OBJECTID":21831,"LANDMARKID":"6400000000592","LANDMARKCO":"306","LANDMARKNA":"前鎮高中捷運站-出口3","LANDMARKAD":"6400009","ADDRESS":" ","TEL":" ","COUNTYNAME":"高雄市","TOWNNAME":"前鎮區","MARKTYPE":"993","Class":"306"},"geometry":{"x":180196.78839999996,"y":2498921.4956}},{"attributes":{"OBJECTID":21832,"LANDMARKID":"6400000000593","LANDMARKCO":"306","LANDMARKNA":"凱旋捷運站-出口3","LANDMARKAD":"6400009","ADDRESS":" ","TEL":" ","COUNTYNAME":"高雄市","TOWNNAME":"前鎮區","MARKTYPE":"993","Class":"306"},"geometry":{"x":179533.02529999986,"y":2499859.4254000001}},{"attributes":{"OBJECTID":21833,"LANDMARKID":"6400000000594","LANDMARKCO":"306","LANDMARKNA":"凱旋捷運站-出口2","LANDMARKAD":"6400009","ADDRESS":" ","TEL":" ","COUNTYNAME":"高雄市","TOWNNAME":"前鎮區","MARKTYPE":"993","Class":"306"},"geometry":{"x":179685.79040000029,"y":2499757.5021000002}},{"attributes":{"OBJECTID":21834,"LANDMARKID":"6400000000595","LANDMARKCO":"306","LANDMARKNA":"凱旋捷運站-出口1","LANDMARKAD":"6400009","ADDRESS":" ","TEL":" ","COUNTYNAME":"高雄市","TOWNNAME":"前鎮區","MARKTYPE":"993","Class":"306"},"geometry":{"x":179607.11070000008,"y":2499739.0014999993}},{"attributes":{"OBJECTID":21835,"LANDMARKID":"6400000000596","LANDMARKCO":"306","LANDMARKNA":"獅甲捷運站-出口3","LANDMARKAD":"6400009","ADDRESS":" ","TEL":" ","COUNTYNAME":"高雄市","TOWNNAME":"前鎮區","MARKTYPE":"993","Class":"306"},"geometry":{"x":178866.26329999976,"y":2500874.1289000008}},{"attributes":{"OBJECTID":21836,"LANDMARKID":"6400000000597","LANDMARKCO":"306","LANDMARKNA":"獅甲捷運站-出口1","LANDMARKAD":"6400009","ADDRESS":" ","TEL":" ","COUNTYNAME":"高雄市","TOWNNAME":"前鎮區","MARKTYPE":"993","Class":"306"},"geometry":{"x":178871.50030000042,"y":2500766.8595000003}},{"attributes":{"OBJECTID":21837,"LANDMARKID":"6400000000598","LANDMARKCO":"306","LANDMARKNA":"獅甲捷運站-出口2","LANDMARKAD":"6400009","ADDRESS":" ","TEL":" ","COUNTYNAME":"高雄市","TOWNNAME":"前鎮區","MARKTYPE":"993","Class":"306"},"geometry":{"x":178930.1595999999,"y":2500791.0806000009}},{"attributes":{"OBJECTID":21838,"LANDMARKID":"6400000000599","LANDMARKCO":"306","LANDMARKNA":"獅甲捷運站-出口4","LANDMARKAD":"6400009","ADDRESS":" ","TEL":" ","COUNTYNAME":"高雄市","TOWNNAME":"前鎮區","MARKTYPE":"993","Class":"306"},"geometry":{"x":178801.55420000013,"y":2500865.1951000001}},{"attributes":{"OBJECTID":21839,"LANDMARKID":"6400000000600","LANDMARKCO":"306","LANDMARKNA":"三多商圈捷運站-出口4","LANDMARKAD":"6400009","ADDRESS":" ","TEL":" ","COUNTYNAME":"高雄市","TOWNNAME":"前鎮區","MARKTYPE":"993","Class":"306"},"geometry":{"x":178574.18840000033,"y":2501693.9888000004}},{"attributes":{"OBJECTID":21840,"LANDMARKID":"6400000000480","LANDMARKCO":"303","LANDMARKNA":"好市多停車場","LANDMARKAD":"6400009","ADDRESS":"高雄市正勤路、中華五路口","TEL":" ","COUNTYNAME":"高雄市","TOWNNAME":"前鎮區","MARKTYPE":"993","Class":"303"},"geometry":{"x":178732.97640000004,"y":2500533.7396000009}},{"attributes":{"OBJECTID":21841,"LANDMARKID":"6400000000481","LANDMARKCO":"303","LANDMARKNA":"廿二號公園地下停車場","LANDMARKAD":"6400009","ADDRESS":"高雄市前鎮區林森三路145號","TEL":"07-3315303","COUNTYNAME":"高雄市","TOWNNAME":"前鎮區","MARKTYPE":"993","Class":"303"},"geometry":{"x":178915.33320000023,"y":2501658.1258000005}},{"attributes":{"OBJECTID":21842,"LANDMARKID":"6400000000482","LANDMARKCO":"303","LANDMARKNA":"高雄市立民權國小地下停車場","LANDMARKAD":"6400009","ADDRESS":"高雄市前鎮區沱江街200號場","TEL":"07-3310553","COUNTYNAME":"高雄市","TOWNNAME":"前鎮區","MARKTYPE":"993","Class":"303"},"geometry":{"x":179652.36039999966,"y":2501068.5836999994}},{"attributes":{"OBJECTID":21843,"LANDMARKID":"6400000000483","LANDMARKCO":"303","LANDMARKNA":"金銀島購物中心停車場","LANDMARKAD":"6400009","ADDRESS":"高雄市前鎮區凱旋四路686號","TEL":" ","COUNTYNAME":"高雄市","TOWNNAME":"前鎮區","MARKTYPE":"993","Class":"303"},"geometry":{"x":180110.56599999964,"y":2499942.7052999996}},{"attributes":{"OBJECTID":21844,"LANDMARKID":"6400000000484","LANDMARKCO":"303","LANDMARKNA":"凱旋高爾夫停車場","LANDMARKAD":"6400009","ADDRESS":"高雄市前鎮區凱旋四路","TEL":" ","COUNTYNAME":"高雄市","TOWNNAME":"前鎮區","MARKTYPE":"993","Class":"303"},"geometry":{"x":180267.73599999957,"y":2500243.2344000004}},{"attributes":{"OBJECTID":21845,"LANDMARKID":"6400000000485","LANDMARKCO":"303","LANDMARKNA":"二聖停車場","LANDMARKAD":"6400009","ADDRESS":"高雄市前鎮區","TEL":" ","COUNTYNAME":"高雄市","TOWNNAME":"前鎮區","MARKTYPE":"993","Class":"303"},"geometry":{"x":180203.78409999982,"y":2501555.0351}},{"attributes":{"OBJECTID":21846,"LANDMARKID":"6400000000486","LANDMARKCO":"303","LANDMARKNA":"前鎮岡山仔停二公共停車場","LANDMARKAD":"6400009","ADDRESS":"高雄市前鎮區","TEL":" ","COUNTYNAME":"高雄市","TOWNNAME":"前鎮區","MARKTYPE":"993","Class":"303"},"geometry":{"x":180946.02010000031,"y":2501128.8731999993}},{"attributes":{"OBJECTID":21847,"LANDMARKID":"6400000000487","LANDMARKCO":"303","LANDMARKNA":"新草衙停車場","LANDMARKAD":"6400009","ADDRESS":"高雄市前鎮區","TEL":" ","COUNTYNAME":"高雄市","TOWNNAME":"前鎮區","MARKTYPE":"993","Class":"303"},"geometry":{"x":179792.80119999964,"y":2498313.1600000001}},{"attributes":{"OBJECTID":21848,"LANDMARKID":"6400000000488","LANDMARKCO":"303","LANDMARKNA":"天山停車場","LANDMARKAD":"6400009","ADDRESS":"高雄市前鎮區","TEL":" ","COUNTYNAME":"高雄市","TOWNNAME":"前鎮區","MARKTYPE":"993","Class":"303"},"geometry":{"x":179635.81859999988,"y":2501508.7689999994}},{"attributes":{"OBJECTID":21849,"LANDMARKID":"6400000000489","LANDMARKCO":"303","LANDMARKNA":"台糖大型停車場","LANDMARKAD":"6400009","ADDRESS":"高雄市前鎮區金福路100號","TEL":" ","COUNTYNAME":"高雄市","TOWNNAME":"前鎮區","MARKTYPE":"993","Class":"303"},"geometry":{"x":180962.17260000017,"y":2497904.1436000001}},{"attributes":{"OBJECTID":21850,"LANDMARKID":"6400000000490","LANDMARKCO":"303","LANDMARKNA":"武德停車場","LANDMARKAD":"6400009","ADDRESS":"高雄市前鎮區","TEL":" ","COUNTYNAME":"高雄市","TOWNNAME":"前鎮區","MARKTYPE":"993","Class":"303"},"geometry":{"x":180865.50019999966,"y":2501010.5515999999}},{"attributes":{"OBJECTID":21851,"LANDMARKID":"6400000000491","LANDMARKCO":"303","LANDMARKNA":"高雄有財小型停車場","LANDMARKAD":"6400009","ADDRESS":"高雄市前鎮區和平二路227巷58號","TEL":" ","COUNTYNAME":"高雄市","TOWNNAME":"前鎮區","MARKTYPE":"993","Class":"303"},"geometry":{"x":180304.9216,"y":2501631.0733000003}},{"attributes":{"OBJECTID":21852,"LANDMARKID":"6400000000492","LANDMARKCO":"303","LANDMARKNA":"新光三越百貨高雄分公司停車場","LANDMARKAD":"6400009","ADDRESS":"高雄市前鎮區三多三路213號B3-5樓","TEL":" ","COUNTYNAME":"高雄市","TOWNNAME":"前鎮區","MARKTYPE":"993","Class":"303"},"geometry":{"x":178718.0318,"y":2501748.4630999994}},{"attributes":{"OBJECTID":21853,"LANDMARKID":"6400000000493","LANDMARKCO":"303","LANDMARKNA":"瑞文行停車場","LANDMARKAD":"6400009","ADDRESS":"高雄市前鎮區","TEL":" ","COUNTYNAME":"高雄市","TOWNNAME":"前鎮區","MARKTYPE":"993","Class":"303"},"geometry":{"x":181158.06830000039,"y":2501275.4664999992}},{"attributes":{"OBJECTID":21854,"LANDMARKID":"6400000000494","LANDMARKCO":"303","LANDMARKNA":"平面停車場","LANDMARKAD":"6400009","ADDRESS":"高雄市前鎮區中華五路","TEL":" ","COUNTYNAME":"高雄市","TOWNNAME":"前鎮區","MARKTYPE":"993","Class":"303"},"geometry":{"x":178834.92239999957,"y":2499810.1181000005}},{"attributes":{"OBJECTID":21855,"LANDMARKID":"6400000000495","LANDMARKCO":"303","LANDMARKNA":"夢時代室內停車場(B1-B2\/3F-7F)","LANDMARKAD":"6400009","ADDRESS":"高雄市前鎮區中華五路789號","TEL":"(07)9733888","COUNTYNAME":"高雄市","TOWNNAME":"前鎮區","MARKTYPE":"993","Class":"303"},"geometry":{"x":178907.32160000037,"y":2499617.7562000006}},{"attributes":{"OBJECTID":21856,"LANDMARKID":"6400000000894","LANDMARKCO":"402","LANDMARKNA":"中華電信-高雄草衙特約服務中心","LANDMARKAD":"6400009","ADDRESS":"高雄市前鎮區草衙二路399-1號","TEL":"07-8119488","COUNTYNAME":"高雄市","TOWNNAME":"前鎮區","MARKTYPE":"994","Class":"4"},"geometry":{"x":180308.54459999967,"y":2497789.0274}},{"attributes":{"OBJECTID":21857,"LANDMARKID":"6400000000895","LANDMARKCO":"402","LANDMARKNA":"中華電信-高雄瑞隆特約服務中心","LANDMARKAD":"6400009","ADDRESS":"高雄市前鎮區瑞隆路359號","TEL":"07-7516288","COUNTYNAME":"高雄市","TOWNNAME":"前鎮區","MARKTYPE":"994","Class":"4"},"geometry":{"x":181265.69820000045,"y":2500743.4211999997}},{"attributes":{"OBJECTID":21858,"LANDMARKID":"6400000000896","LANDMARKCO":"402","LANDMARKNA":"遠傳電信-三多門市","LANDMARKAD":"6400009","ADDRESS":"高雄市前鎮區林森三路198號","TEL":" ","COUNTYNAME":"高雄市","TOWNNAME":"前鎮區","MARKTYPE":"994","Class":"4"},"geometry":{"x":178934.38659999985,"y":2501826.1929000001}},{"attributes":{"OBJECTID":21859,"LANDMARKID":"6400000000897","LANDMARKCO":"402","LANDMARKNA":"威寶電信-高雄草衙特約服務中心","LANDMARKAD":"6400009","ADDRESS":"高雄市前鎮區草衙二路468號","TEL":"07-8413431","COUNTYNAME":"高雄市","TOWNNAME":"前鎮區","MARKTYPE":"994","Class":"4"},"geometry":{"x":180385.85840000026,"y":2497940.3783999998}},{"attributes":{"OBJECTID":21860,"LANDMARKID":"6400000000898","LANDMARKCO":"402","LANDMARKNA":"威寶電信-高雄瑞隆特約服務中心","LANDMARKAD":"6400009","ADDRESS":"高雄市前鎮區瑞隆路418號","TEL":"07-7231588","COUNTYNAME":"高雄市","TOWNNAME":"前鎮區","MARKTYPE":"994","Class":"4"},"geometry":{"x":181109.63100000005,"y":2500759.0056999996}},{"attributes":{"OBJECTID":21861,"LANDMARKID":"6400000000899","LANDMARKCO":"402","LANDMARKNA":"大眾電信(震旦通訊)-高雄三多店","LANDMARKAD":"6400009","ADDRESS":"高雄市三多三路173號","TEL":"07-3394451","COUNTYNAME":"高雄市","TOWNNAME":"前鎮區","MARKTYPE":"994","Class":"4"},"geometry":{"x":178900.42879999988,"y":2501817.0352999996}},{"attributes":{"OBJECTID":21862,"LANDMARKID":"6400000000900","LANDMARKCO":"402","LANDMARKNA":"大眾電信-高雄中山店","LANDMARKAD":"6400009","ADDRESS":"高雄市前鎮區中山二路260號","TEL":"0968-544636","COUNTYNAME":"高雄市","TOWNNAME":"前鎮區","MARKTYPE":"994","Class":"4"},"geometry":{"x":178580.90369999968,"y":2501624.2173999995}},{"attributes":{"OBJECTID":21863,"LANDMARKID":"6400000001254","LANDMARKCO":"603","LANDMARKNA":"美麗四季精品旅館","LANDMARKAD":"6400009","ADDRESS":"高雄市前鎮區一心一路203巷26號","TEL":"07-7527699","COUNTYNAME":"高雄市","TOWNNAME":"前鎮區","MARKTYPE":"996","Class":"6"},"geometry":{"x":179832.04229999986,"y":2500976.3973999992}},{"attributes":{"OBJECTID":21864,"LANDMARKID":"6400000001255","LANDMARKCO":"603","LANDMARKNA":"雅士賓館","LANDMARKAD":"6400009","ADDRESS":"高雄市前鎮區一心二路15號3-7樓","TEL":"07-3364011","COUNTYNAME":"高雄市","TOWNNAME":"前鎮區","MARKTYPE":"996","Class":"6"},"geometry":{"x":179291.97520000022,"y":2501299.5376999993}},{"attributes":{"OBJECTID":21865,"LANDMARKID":"6400000001256","LANDMARKCO":"603","LANDMARKNA":"巴黎香舍","LANDMARKAD":"6400009","ADDRESS":"高雄市前鎮區一心二路15號8-10","TEL":"12樓","COUNTYNAME":"高雄市","TOWNNAME":"前鎮區","MARKTYPE":"996","Class":"6"},"geometry":{"x":179291.97520000022,"y":2501299.5376999993}},{"attributes":{"OBJECTID":21866,"LANDMARKID":"6400000001257","LANDMARKCO":"603","LANDMARKNA":"檳城汽車旅館","LANDMARKAD":"6400009","ADDRESS":"高雄市前鎮區樹人路126號","TEL":"07-8312250","COUNTYNAME":"高雄市","TOWNNAME":"前鎮區","MARKTYPE":"996","Class":"6"},"geometry":{"x":180078.71229999978,"y":2498895.2629000004}},{"attributes":{"OBJECTID":21867,"LANDMARKID":"6400000001258","LANDMARKCO":"603","LANDMARKNA":"三多大飯店","LANDMARKAD":"6400009","ADDRESS":"高雄市前鎮區三多三路107號2F~6F","TEL":"07-3323210","COUNTYNAME":"高雄市","TOWNNAME":"前鎮區","MARKTYPE":"996","Class":"6"},"geometry":{"x":179187.93030000012,"y":2501924.0440999996}},{"attributes":{"OBJECTID":21868,"LANDMARKID":"6400000001259","LANDMARKCO":"603","LANDMARKNA":"日宏大旅社","LANDMARKAD":"6400009","ADDRESS":"高雄市前鎮區天后街13號1-3樓","TEL":"07-7710329","COUNTYNAME":"高雄市","TOWNNAME":"前鎮區","MARKTYPE":"996","Class":"6"},"geometry":{"x":180369.63760000002,"y":2497066.3236999996}},{"attributes":{"OBJECTID":21869,"LANDMARKID":"6400000001260","LANDMARKCO":"603","LANDMARKNA":"一心賓館","LANDMARKAD":"6400009","ADDRESS":"高雄市前鎮區林森三路94號5-9樓","TEL":"07-3326302-5","COUNTYNAME":"高雄市","TOWNNAME":"前鎮區","MARKTYPE":"996","Class":"6"},"geometry":{"x":178876.4729000004,"y":2501501.2588999998}},{"attributes":{"OBJECTID":21870,"LANDMARKID":"6400000001261","LANDMARKCO":"603","LANDMARKNA":"黎一大旅社","LANDMARKAD":"6400009","ADDRESS":"高雄市前鎮區前鎮街196號","TEL":"07-8218181","COUNTYNAME":"高雄市","TOWNNAME":"前鎮區","MARKTYPE":"996","Class":"6"},"geometry":{"x":178797.16909999959,"y":2499105.9429000001}},{"attributes":{"OBJECTID":21871,"LANDMARKID":"6400000001262","LANDMARKCO":"603","LANDMARKNA":"興達大旅社","LANDMARKAD":"6400009","ADDRESS":"高雄市前鎮區隆興街157號2-5樓","TEL":"07-7513121-6","COUNTYNAME":"高雄市","TOWNNAME":"前鎮區","MARKTYPE":"996","Class":"6"},"geometry":{"x":180893.79729999974,"y":2500807.0276999995}},{"attributes":{"OBJECTID":21872,"LANDMARKID":"6400000001263","LANDMARKCO":"603","LANDMARKNA":"高芳大旅社","LANDMARKAD":"6400009","ADDRESS":"高雄市前鎮區瑞和街272號","TEL":"07-7715171","COUNTYNAME":"高雄市","TOWNNAME":"前鎮區","MARKTYPE":"996","Class":"6"},"geometry":{"x":180733.62669999991,"y":2500759.6015000008}},{"attributes":{"OBJECTID":21873,"LANDMARKID":"6400000001264","LANDMARKCO":"603","LANDMARKNA":"富雅賓館","LANDMARKAD":"6400009","ADDRESS":"高雄市前鎮區瑞隆路519號","TEL":"07-7223462-4","COUNTYNAME":"高雄市","TOWNNAME":"前鎮區","MARKTYPE":"996","Class":"6"},"geometry":{"x":180896.82949999999,"y":2500714.0475999992}},{"attributes":{"OBJECTID":21874,"LANDMARKID":"6400000001265","LANDMARKCO":"603","LANDMARKNA":"藍色海岸賓館","LANDMARKAD":"6400009","ADDRESS":"高雄市前鎮區廣西路398號","TEL":"07-3383501","COUNTYNAME":"高雄市","TOWNNAME":"前鎮區","MARKTYPE":"996","Class":"6"},"geometry":{"x":179167.37899999972,"y":2501828.2720999997}},{"attributes":{"OBJECTID":21875,"LANDMARKID":"6400000001189","LANDMARKCO":"505","LANDMARKNA":"北海道冰雪樂園","LANDMARKAD":"6400009","ADDRESS":"高雄市前鎮區中華五路789號8樓","TEL":" ","COUNTYNAME":"高雄市","TOWNNAME":"前鎮區","MARKTYPE":"995","Class":"5"},"geometry":{"x":178771.17760000005,"y":2499559.9168999996}},{"attributes":{"OBJECTID":21876,"LANDMARKID":"6400000001190","LANDMARKCO":"505","LANDMARKNA":"布魯樂谷九彎十八拐","LANDMARKAD":"6400009","ADDRESS":"高雄市前鎮區凱旋四路700號","TEL":"07-8119780","COUNTYNAME":"高雄市","TOWNNAME":"前鎮區","MARKTYPE":"995","Class":"5"},"geometry":{"x":180092.0214999998,"y":2500027.1279000007}},{"attributes":{"OBJECTID":21877,"LANDMARKID":"6400000001191","LANDMARKCO":"505","LANDMARKNA":"布魯樂谷叢林總動員","LANDMARKAD":"6400009","ADDRESS":"高雄市前鎮區凱旋四路700號","TEL":"07-8119780","COUNTYNAME":"高雄市","TOWNNAME":"前鎮區","MARKTYPE":"995","Class":"5"},"geometry":{"x":180177.6699000001,"y":2500027.8267000001}},{"attributes":{"OBJECTID":21878,"LANDMARKID":"6400000001192","LANDMARKCO":"505","LANDMARKNA":"布魯樂谷驚聲尖叫","LANDMARKAD":"6400009","ADDRESS":"高雄市前鎮區凱旋四路700號","TEL":"07-8119780","COUNTYNAME":"高雄市","TOWNNAME":"前鎮區","MARKTYPE":"995","Class":"5"},"geometry":{"x":180266.00380000006,"y":2499974.7407000009}},{"attributes":{"OBJECTID":21879,"LANDMARKID":"6400000001193","LANDMARKCO":"505","LANDMARKNA":"布魯樂谷","LANDMARKAD":"6400009","ADDRESS":"高雄市前鎮區凱旋四路700號","TEL":" ","COUNTYNAME":"高雄市","TOWNNAME":"前鎮區","MARKTYPE":"995","Class":"5"},"geometry":{"x":180120.32010000013,"y":2500094.7089000009}},{"attributes":{"OBJECTID":21880,"LANDMARKID":"6400000001178","LANDMARKCO":"410","LANDMARKNA":"夢時代購物中心","LANDMARKAD":"6400009","ADDRESS":"高雄市前鎮區","TEL":" ","COUNTYNAME":"高雄市","TOWNNAME":"前鎮區","MARKTYPE":"994","Class":"4"},"geometry":{"x":178811.97140000015,"y":2499546.8808999993}},{"attributes":{"OBJECTID":21881,"LANDMARKID":"6400000000584","LANDMARKCO":"305","LANDMARKNA":"前鎮漁港","LANDMARKAD":"6400009","ADDRESS":"高雄市前鎮區","TEL":" ","COUNTYNAME":"高雄市","TOWNNAME":"前鎮區","MARKTYPE":"993","Class":"305"},"geometry":{"x":179411.98139999993,"y":2496816.7207999993}},{"attributes":{"OBJECTID":21882,"LANDMARKID":"6400000000585","LANDMARKCO":"305","LANDMARKNA":"中洲漁港","LANDMARKAD":"6400010","ADDRESS":"高雄市旗津區","TEL":" ","COUNTYNAME":"高雄市(海)","TOWNNAME":"旗津區(海)","MARKTYPE":"993","Class":"305"},"geometry":{"x":177981.07749999966,"y":2497382.9332999997}},{"attributes":{"OBJECTID":21883,"LANDMARKID":"6400000000960","LANDMARKCO":"405","LANDMARKNA":"中油加油站-旗津站","LANDMARKAD":"6400010","ADDRESS":"高雄市旗津區中洲二路259號","TEL":"07-5717391","COUNTYNAME":"高雄市(海)","TOWNNAME":"旗津區(海)","MARKTYPE":"994","Class":"4"},"geometry":{"x":176485.37619999982,"y":2499193.1344000008}},{"attributes":{"OBJECTID":21884,"LANDMARKID":"6400000000721","LANDMARKCO":"401","LANDMARKNA":"高雄市立旗津醫院","LANDMARKAD":"6400010","ADDRESS":"高雄市旗津區廟前路1之1號","TEL":"07-5712891","COUNTYNAME":"高雄市(海)","TOWNNAME":"旗津區(海)","MARKTYPE":"994","Class":"4"},"geometry":{"x":174683.93360000011,"y":2501420.3712000009}},{"attributes":{"OBJECTID":21885,"LANDMARKID":"6400000001195","LANDMARKCO":"507","LANDMARKNA":"關稅總局旗後燈塔","LANDMARKAD":"6400010","ADDRESS":"高雄市旗津區旗下巷34號","TEL":" ","COUNTYNAME":"高雄市(海)","TOWNNAME":"旗津區(海)","MARKTYPE":"995","Class":"5"},"geometry":{"x":174423.95239999983,"y":2501912.4055000003}},{"attributes":{"OBJECTID":21886,"LANDMARKID":"6400000001196","LANDMARKCO":"507","LANDMARKNA":"打狗公學校(今為旗津國小)","LANDMARKAD":"6400010","ADDRESS":"高雄市旗津區中洲三路623號","TEL":" ","COUNTYNAME":"高雄市(海)","TOWNNAME":"旗津區(海)","MARKTYPE":"995","Class":"5"},"geometry":{"x":175113.0887000002,"y":2501064.2714000009}},{"attributes":{"OBJECTID":21887,"LANDMARKID":"6400000001164","LANDMARKCO":"408","LANDMARKNA":"郵局-高雄中洲郵局","LANDMARKAD":"6400010","ADDRESS":"高雄市旗津區旗津二路243號","TEL":"(07)5718-784","COUNTYNAME":"高雄市(海)","TOWNNAME":"旗津區(海)","MARKTYPE":"994","Class":"4"},"geometry":{"x":177580.32400000002,"y":2497537.6410000008}},{"attributes":{"OBJECTID":21888,"LANDMARKID":"6400000001165","LANDMARKCO":"408","LANDMARKNA":"郵局-旗津郵局","LANDMARKAD":"6400010","ADDRESS":"高雄市旗津區中洲三路817號","TEL":"(07)5717-832","COUNTYNAME":"高雄市(海)","TOWNNAME":"旗津區(海)","MARKTYPE":"994","Class":"4"},"geometry":{"x":174902.4841,"y":2501537.7908999994}},{"attributes":{"OBJECTID":21889,"LANDMARKID":"6400000001166","LANDMARKCO":"409","LANDMARKNA":"旗津魚市場","LANDMARKAD":"6400010","ADDRESS":"高雄市旗津區南汕里北汕巷50之 60號","TEL":"07-5714243","COUNTYNAME":"高雄市(海)","TOWNNAME":"旗津區(海)","MARKTYPE":"994","Class":"4"},"geometry":{"x":176919.69560000021,"y":2499152.2234000005}},{"attributes":{"OBJECTID":21890,"LANDMARKID":"6400000001040","LANDMARKCO":"406","LANDMARKNA":"旗津海岸公園","LANDMARKAD":"6400010","ADDRESS":"高雄市旗津區","TEL":" ","COUNTYNAME":"高雄市(海)","TOWNNAME":"旗津區(海)","MARKTYPE":"994","Class":"4"},"geometry":{"x":174941.41199999955,"y":2500860.7138}},{"attributes":{"OBJECTID":21891,"LANDMARKID":"6400000000103","LANDMARKCO":"104","LANDMARKNA":"財務部高雄關稅局中興分局","LANDMARKAD":"6400010","ADDRESS":"高雄市旗津區旗津一路14號","TEL":"07-5727140","COUNTYNAME":"高雄市(海)","TOWNNAME":"旗津區(海)","MARKTYPE":"991","Class":"1"},"geometry":{"x":178952.49920000043,"y":2495650.4081999995}},{"attributes":{"OBJECTID":21892,"LANDMARKID":"6400000000050","LANDMARKCO":"103","LANDMARKNA":"高雄市政府中洲漁港管理站","LANDMARKAD":"6400010","ADDRESS":"高雄市旗津區中洲里中洲巷77號","TEL":"07-5716764","COUNTYNAME":"高雄市(海)","TOWNNAME":"旗津區(海)","MARKTYPE":"991","Class":"1"},"geometry":{"x":177957.77450000029,"y":2497441.0697000008}},{"attributes":{"OBJECTID":21893,"LANDMARKID":"6400000000051","LANDMARKCO":"103","LANDMARKNA":"高雄市旗津區衛生所","LANDMARKAD":"6400010","ADDRESS":"高雄市旗津區廟前路30巷51弄3號","TEL":"07-5712820","COUNTYNAME":"高雄市(海)","TOWNNAME":"旗津區(海)","MARKTYPE":"991","Class":"1"},"geometry":{"x":174841.87820000015,"y":2501409.4002999999}},{"attributes":{"OBJECTID":21894,"LANDMARKID":"6400000000228","LANDMARKCO":"108","LANDMARKNA":"高雄市旗津區公所","LANDMARKAD":"6400010","ADDRESS":"高雄市旗津區旗津三路1100號","TEL":"07-5712500","COUNTYNAME":"高雄市(海)","TOWNNAME":"旗津區(海)","MARKTYPE":"991","Class":"1"},"geometry":{"x":174733.31929999962,"y":2501396.8748000003}},{"attributes":{"OBJECTID":21895,"LANDMARKID":"6400000000135","LANDMARKCO":"107","LANDMARKNA":"高雄市政府警察局中洲派出所","LANDMARKAD":"6400010","ADDRESS":"高雄市旗津區中興里中洲二路66號","TEL":"07-5712328","COUNTYNAME":"高雄市(海)","TOWNNAME":"旗津區(海)","MARKTYPE":"991","Class":"1"},"geometry":{"x":177774.37600000016,"y":2497367.4644000009}},{"attributes":{"OBJECTID":21896,"LANDMARKID":"6400000000136","LANDMARKCO":"107","LANDMARKNA":"高雄市政府警察局旗津分駐所","LANDMARKAD":"6400010","ADDRESS":"高雄市旗津區旗下里廟前路137號","TEL":"07-5715492","COUNTYNAME":"高雄市(海)","TOWNNAME":"旗津區(海)","MARKTYPE":"991","Class":"1"},"geometry":{"x":174858.61390000023,"y":2501729.4750999995}},{"attributes":{"OBJECTID":21897,"LANDMARKID":"6400000000137","LANDMARKCO":"107","LANDMARKNA":"高雄市消防局旗津消防分隊","LANDMARKAD":"6400010","ADDRESS":"高雄市旗津區中洲三路524號","TEL":"07-5712519","COUNTYNAME":"高雄市(海)","TOWNNAME":"旗津區(海)","MARKTYPE":"991","Class":"1"},"geometry":{"x":175100.94170000032,"y":2501231.2736000009}},{"attributes":{"OBJECTID":21898,"LANDMARKID":"6400000000122","LANDMARKCO":"106","LANDMARKNA":"高雄市旗津區戶政事務所","LANDMARKAD":"6400010","ADDRESS":"高雄市旗津區旗津三路1100號1樓","TEL":"07-5711500","COUNTYNAME":"高雄市(海)","TOWNNAME":"旗津區(海)","MARKTYPE":"991","Class":"1"},"geometry":{"x":174733.31929999962,"y":2501396.8748000003}},{"attributes":{"OBJECTID":21899,"LANDMARKID":"6400000000421","LANDMARKCO":"204","LANDMARKNA":"高雄市立圖書館旗津分館","LANDMARKAD":"6400010","ADDRESS":"高雄市旗津區中洲三路528號","TEL":" ","COUNTYNAME":"高雄市(海)","TOWNNAME":"旗津區(海)","MARKTYPE":"992","Class":"2"},"geometry":{"x":174983.8973000003,"y":2501475.2862999998}},{"attributes":{"OBJECTID":21900,"LANDMARKID":"6400000000296","LANDMARKCO":"203","LANDMARKNA":"市立旗津國小","LANDMARKAD":"6400010","ADDRESS":"高雄市旗津區中洲三路623號","TEL":"07-5715133","COUNTYNAME":"高雄市(海)","TOWNNAME":"旗津區(海)","MARKTYPE":"992","Class":"2"},"geometry":{"x":175046.53019999992,"y":2501090.7647999991}},{"attributes":{"OBJECTID":21901,"LANDMARKID":"6400000000297","LANDMARKCO":"203","LANDMARKNA":"市立旗津國中","LANDMARKAD":"6400010","ADDRESS":"高雄市旗津區中洲二路207號","TEL":"07-5715883","COUNTYNAME":"高雄市(海)","TOWNNAME":"旗津區(海)","MARKTYPE":"992","Class":"2"},"geometry":{"x":176607.79779999983,"y":2498880.0680999998}},{"attributes":{"OBJECTID":21902,"LANDMARKID":"6400000000298","LANDMARKCO":"203","LANDMARKNA":"市立大汕國小","LANDMARKAD":"6400010","ADDRESS":"高雄市旗津區中洲二路203號","TEL":"07-5717232","COUNTYNAME":"高雄市(海)","TOWNNAME":"旗津區(海)","MARKTYPE":"992","Class":"2"},"geometry":{"x":176757.28050000034,"y":2498822.0327000003}},{"attributes":{"OBJECTID":21903,"LANDMARKID":"6400000000299","LANDMARKCO":"203","LANDMARKNA":"市立中洲國小","LANDMARKAD":"6400010","ADDRESS":"高雄市旗津區旗津二路275號","TEL":"07-5712225","COUNTYNAME":"高雄市(海)","TOWNNAME":"旗津區(海)","MARKTYPE":"992","Class":"2"},"geometry":{"x":177277.80810000002,"y":2497954.8067000005}},{"attributes":{"OBJECTID":21904,"LANDMARKID":"6400000000230","LANDMARKCO":"201","LANDMARKNA":"國立高雄海洋技術學院旗津校區","LANDMARKAD":"6400010","ADDRESS":"高雄市旗津區中洲三路482號","TEL":"07-8100888#5024","COUNTYNAME":"高雄市(海)","TOWNNAME":"旗津區(海)","MARKTYPE":"992","Class":"2"},"geometry":{"x":175196.00299999956,"y":2501092.3479999993}},{"attributes":{"OBJECTID":21905,"LANDMARKID":"6400000000580","LANDMARKCO":"305","LANDMARKNA":"旗後漁港","LANDMARKAD":"6400010","ADDRESS":"高雄市旗津區","TEL":" ","COUNTYNAME":"高雄市(海)","TOWNNAME":"旗津區(海)","MARKTYPE":"993","Class":"305"},"geometry":{"x":175086.99969999958,"y":2501579.3331000004}},{"attributes":{"OBJECTID":21906,"LANDMARKID":"6400000000581","LANDMARKCO":"305","LANDMARKNA":"高雄第二港口","LANDMARKAD":"6400010","ADDRESS":"高雄市小港區","TEL":" ","COUNTYNAME":"高雄市(海)","TOWNNAME":"旗津區(海)","MARKTYPE":"993","Class":"305"},"geometry":{"x":179266.93200000003,"y":2495153.5870999992}},{"attributes":{"OBJECTID":21907,"LANDMARKID":"6400000000582","LANDMARKCO":"305","LANDMARKNA":"旗津漁港","LANDMARKAD":"6400010","ADDRESS":"高雄市旗津區","TEL":" ","COUNTYNAME":"高雄市(海)","TOWNNAME":"旗津區(海)","MARKTYPE":"993","Class":"305"},"geometry":{"x":176608.59750000015,"y":2499238.5814999994}},{"attributes":{"OBJECTID":21908,"LANDMARKID":"6400000000563","LANDMARKCO":"303","LANDMARKNA":"旗津海岸公園停車場","LANDMARKAD":"6400010","ADDRESS":"高雄市旗津區","TEL":" ","COUNTYNAME":"高雄市(海)","TOWNNAME":"旗津區(海)","MARKTYPE":"993","Class":"303"},"geometry":{"x":174821.66839999985,"y":2501198.0603}},{"attributes":{"OBJECTID":21909,"LANDMARKID":"6400000000915","LANDMARKCO":"402","LANDMARKNA":"大眾電信-阿蔭通訊","LANDMARKAD":"6400010","ADDRESS":"高雄市旗津區中洲三路739號","TEL":"07-5711162","COUNTYNAME":"高雄市(海)","TOWNNAME":"旗津區(海)","MARKTYPE":"994","Class":"4"},"geometry":{"x":174981.88269999996,"y":2501429.4337000009}},{"attributes":{"OBJECTID":21910,"LANDMARKID":"6400000001194","LANDMARKCO":"505","LANDMARKNA":"旗津海洋生物館","LANDMARKAD":"6400010","ADDRESS":"高雄市旗津區中洲二路289之1號","TEL":"07-5720023","COUNTYNAME":"高雄市(海)","TOWNNAME":"旗津區(海)","MARKTYPE":"995","Class":"5"},"geometry":{"x":176466.73139999993,"y":2499214.5907000005}},{"attributes":{"OBJECTID":21911,"LANDMARKID":"6400000001215","LANDMARKCO":"511","LANDMARKNA":"旗津海鮮街","LANDMARKAD":"6400010","ADDRESS":"高雄市旗津區","TEL":" ","COUNTYNAME":"高雄市(海)","TOWNNAME":"旗津區(海)","MARKTYPE":"995","Class":"5"},"geometry":{"x":174766.86670000013,"y":2501570.9771999996}},{"attributes":{"OBJECTID":21912,"LANDMARKID":"6400000001204","LANDMARKCO":"509","LANDMARKNA":"旗津海水浴場","LANDMARKAD":"6400010","ADDRESS":"高雄市旗津區廟前1號","TEL":" ","COUNTYNAME":"高雄市(海)","TOWNNAME":"旗津區(海)","MARKTYPE":"995","Class":"5"},"geometry":{"x":174665.53189999983,"y":2501365.2502999995}},{"attributes":{"OBJECTID":21913,"LANDMARKID":"6400000000932","LANDMARKCO":"405","LANDMARKNA":"中油加油站-桂林站","LANDMARKAD":"6400011","ADDRESS":"高雄市小港區孔鳳路579號","TEL":"07-7912420","COUNTYNAME":"高雄市","TOWNNAME":"小港區","MARKTYPE":"994","Class":"4"},"geometry":{"x":184049.87459999975,"y":2498441.3483000007}},{"attributes":{"OBJECTID":21914,"LANDMARKID":"6400000000933","LANDMARKCO":"405","LANDMARKNA":"中油加油站-桂宏站","LANDMARKAD":"6400011","ADDRESS":"高雄市小港區小港路75號","TEL":"07-8019668","COUNTYNAME":"高雄市","TOWNNAME":"小港區","MARKTYPE":"994","Class":"4"},"geometry":{"x":182304.19159999955,"y":2496299.227}},{"attributes":{"OBJECTID":21915,"LANDMARKID":"6400000000934","LANDMARKCO":"405","LANDMARKNA":"中油加油站-小港站(中油直營)","LANDMARKAD":"6400011","ADDRESS":"高雄市小港區大業北路45號","TEL":"07-8023938","COUNTYNAME":"高雄市","TOWNNAME":"小港區","MARKTYPE":"994","Class":"4"},"geometry":{"x":182549.11830000021,"y":2496557.3018999994}},{"attributes":{"OBJECTID":21916,"LANDMARKID":"6400000000935","LANDMARKCO":"405","LANDMARKNA":"統一速邁樂加油站-小港站加油站(中油)","LANDMARKAD":"6400011","ADDRESS":"高雄市小港區松金里高鳳路102號","TEL":" ","COUNTYNAME":"高雄市","TOWNNAME":"小港區","MARKTYPE":"994","Class":"4"},"geometry":{"x":185342.60969999991,"y":2497454.4296000004}},{"attributes":{"OBJECTID":21917,"LANDMARKID":"6400000000936","LANDMARKCO":"405","LANDMARKNA":"中油加油站-中華石油小港","LANDMARKAD":"6400011","ADDRESS":"高雄市小港區沿海一路477號","TEL":"07-8066372","COUNTYNAME":"高雄市","TOWNNAME":"小港區","MARKTYPE":"994","Class":"4"},"geometry":{"x":183996.84910000023,"y":2495721.3509}},{"attributes":{"OBJECTID":21918,"LANDMARKID":"6400000000937","LANDMARKCO":"405","LANDMARKNA":"中油加油站-小港站","LANDMARKAD":"6400011","ADDRESS":"高雄市小港區沿海一路477號","TEL":"07-8066372","COUNTYNAME":"高雄市","TOWNNAME":"小港區","MARKTYPE":"994","Class":"4"},"geometry":{"x":183996.85500000045,"y":2495721.4349000007}},{"attributes":{"OBJECTID":21919,"LANDMARKID":"6400000000938","LANDMARKCO":"405","LANDMARKNA":"中油加油站-大林蒲站(中油直營)","LANDMARKAD":"6400011","ADDRESS":"高雄市小港區鳳華路3號","TEL":"07-8714612","COUNTYNAME":"高雄市","TOWNNAME":"小港區","MARKTYPE":"994","Class":"4"},"geometry":{"x":183135.56830000039,"y":2491760.1100999992}},{"attributes":{"OBJECTID":21920,"LANDMARKID":"6400000000939","LANDMARKCO":"405","LANDMARKNA":"台糖加油站-博學站(中油)","LANDMARKAD":"6400011","ADDRESS":"高雄市小港區博學路481號","TEL":" ","COUNTYNAME":"高雄市","TOWNNAME":"小港區","MARKTYPE":"994","Class":"4"},"geometry":{"x":185268.5904000001,"y":2496063.6561999992}},{"attributes":{"OBJECTID":21921,"LANDMARKID":"6400000000940","LANDMARKCO":"405","LANDMARKNA":"中油加油站-高雄市小港區漁會漁船站","LANDMARKAD":"6400011","ADDRESS":"高雄市小港區光和路100-1號","TEL":"07-8225268","COUNTYNAME":"高雄市","TOWNNAME":"小港區","MARKTYPE":"994","Class":"4"},"geometry":{"x":181913.34530000016,"y":2494964.0307999998}},{"attributes":{"OBJECTID":21922,"LANDMARKID":"6400000000941","LANDMARKCO":"405","LANDMARKNA":"中油加油站-亞柏小港站","LANDMARKAD":"6400011","ADDRESS":"高雄市小港區東亞路2號","TEL":"07-8133991","COUNTYNAME":"高雄市","TOWNNAME":"小港區","MARKTYPE":"994","Class":"4"},"geometry":{"x":180780.10940000042,"y":2496333.0987}},{"attributes":{"OBJECTID":21923,"LANDMARKID":"6400000000942","LANDMARKCO":"405","LANDMARKNA":"中油加油站-臨海工業區站(中油直營)","LANDMARKAD":"6400011","ADDRESS":"高雄市小港區沿海二路2號","TEL":"07-8010873","COUNTYNAME":"高雄市","TOWNNAME":"小港區","MARKTYPE":"994","Class":"4"},"geometry":{"x":185286.71839999966,"y":2493835.7282999996}},{"attributes":{"OBJECTID":21924,"LANDMARKID":"6400000000943","LANDMARKCO":"405","LANDMARKNA":"山隆加油站-高雄站(中油)","LANDMARKAD":"6400011","ADDRESS":"高雄市小港區沿海三路26-3號","TEL":"(07)871-6691","COUNTYNAME":"高雄市","TOWNNAME":"小港區","MARKTYPE":"994","Class":"4"},"geometry":{"x":185017.96140000038,"y":2491975.8025000002}},{"attributes":{"OBJECTID":21925,"LANDMARKID":"6400000000944","LANDMARKCO":"405","LANDMARKNA":"中油加油站-二苓站","LANDMARKAD":"6400011","ADDRESS":"高雄市小港區大業北路218號","TEL":"07-8013195","COUNTYNAME":"高雄市","TOWNNAME":"小港區","MARKTYPE":"994","Class":"4"},"geometry":{"x":183074.66390000004,"y":2495954.0888}},{"attributes":{"OBJECTID":21926,"LANDMARKID":"6400000000914","LANDMARKCO":"402","LANDMARKNA":"亞太行動寬頻電信-小港漢民加盟服務中心","LANDMARKAD":"6400011","ADDRESS":"高雄市小港區漢民路347號","TEL":"07-8055959","COUNTYNAME":"高雄市","TOWNNAME":"小港區","MARKTYPE":"994","Class":"4"},"geometry":{"x":183722.81960000005,"y":2496486.2234000005}},{"attributes":{"OBJECTID":21927,"LANDMARKID":"6400000000717","LANDMARKCO":"401","LANDMARKNA":"戴銘浚婦兒醫院","LANDMARKAD":"6400011","ADDRESS":"高雄市小港區宏平路661號","TEL":"07-8061289","COUNTYNAME":"高雄市","TOWNNAME":"小港區","MARKTYPE":"994","Class":"4"},"geometry":{"x":183281.77080000006,"y":2496776.8936999999}},{"attributes":{"OBJECTID":21928,"LANDMARKID":"6400000000718","LANDMARKCO":"401","LANDMARKNA":"安泰醫院","LANDMARKAD":"6400011","ADDRESS":"高雄市小港區沿海一路221號","TEL":"07-8017856","COUNTYNAME":"高雄市","TOWNNAME":"小港區","MARKTYPE":"994","Class":"4"},"geometry":{"x":183414.99799999967,"y":2496446.1326000001}},{"attributes":{"OBJECTID":21929,"LANDMARKID":"6400000000719","LANDMARKCO":"401","LANDMARKNA":"高雄市立小港醫院","LANDMARKAD":"6400011","ADDRESS":"高雄市小港區山明路482號","TEL":"07-8065042","COUNTYNAME":"高雄市","TOWNNAME":"小港區","MARKTYPE":"994","Class":"4"},"geometry":{"x":184549.67030000035,"y":2496518.0790999997}},{"attributes":{"OBJECTID":21930,"LANDMARKID":"6400000000720","LANDMARKCO":"401","LANDMARKNA":"臨海醫院","LANDMARKAD":"6400011","ADDRESS":"高雄市小港區沿海一路461號","TEL":"07-8012171","COUNTYNAME":"高雄市","TOWNNAME":"小港區","MARKTYPE":"994","Class":"4"},"geometry":{"x":183864.72609999962,"y":2495891.6108999997}},{"attributes":{"OBJECTID":21931,"LANDMARKID":"6400000001154","LANDMARKCO":"408","LANDMARKNA":"郵局-小港郵局","LANDMARKAD":"6400011","ADDRESS":"高雄市小港區小港一街1號","TEL":"(07)8218-605","COUNTYNAME":"高雄市","TOWNNAME":"小港區","MARKTYPE":"994","Class":"4"},"geometry":{"x":181808.88449999969,"y":2496170.3778000008}},{"attributes":{"OBJECTID":21932,"LANDMARKID":"6400000001155","LANDMARKCO":"408","LANDMARKNA":"郵局-高雄大林蒲郵局","LANDMARKAD":"6400011","ADDRESS":"高雄市小港區鳳林路82號","TEL":"(07)8711-345","COUNTYNAME":"高雄市","TOWNNAME":"小港區","MARKTYPE":"994","Class":"4"},"geometry":{"x":182784.31130000018,"y":2491991.9729999993}},{"attributes":{"OBJECTID":21933,"LANDMARKID":"6400000001156","LANDMARKCO":"408","LANDMARKNA":"郵局-高雄中鋼郵局","LANDMARKAD":"6400011","ADDRESS":"高雄市小港區中鋼路1號〈中鋼公司福利社內〉","TEL":"(07)8020-283","COUNTYNAME":"高雄市","TOWNNAME":"小港區","MARKTYPE":"994","Class":"4"},"geometry":{"x":183619.1643000003,"y":2492331.8583000004}},{"attributes":{"OBJECTID":21934,"LANDMARKID":"6400000001157","LANDMARKCO":"408","LANDMARKNA":"郵局-高雄中船郵局","LANDMARKAD":"6400011","ADDRESS":"高雄市小港區中鋼路3號(中船公司內)","TEL":"(07)8021-442","COUNTYNAME":"高雄市","TOWNNAME":"小港區","MARKTYPE":"994","Class":"4"},"geometry":{"x":183827.9852,"y":2495831.4560000002}},{"attributes":{"OBJECTID":21935,"LANDMARKID":"6400000001158","LANDMARKCO":"408","LANDMARKNA":"郵局-高雄二苓郵局","LANDMARKAD":"6400011","ADDRESS":"高雄市小港區中山四路7號","TEL":"(07)8013-486","COUNTYNAME":"高雄市","TOWNNAME":"小港區","MARKTYPE":"994","Class":"4"},"geometry":{"x":182922.81020000018,"y":2496719.2400000002}},{"attributes":{"OBJECTID":21936,"LANDMARKID":"6400000001159","LANDMARKCO":"408","LANDMARKNA":"郵局-高雄高松郵局","LANDMARKAD":"6400011","ADDRESS":"高雄市小港區高鳳路33-3號","TEL":"(07)8035-049","COUNTYNAME":"高雄市","TOWNNAME":"小港區","MARKTYPE":"994","Class":"4"},"geometry":{"x":185366.98670000024,"y":2497292.8907999992}},{"attributes":{"OBJECTID":21937,"LANDMARKID":"6400000001160","LANDMARKCO":"408","LANDMARKNA":"郵局-高雄康莊郵局","LANDMARKAD":"6400011","ADDRESS":"高雄市小港區康莊路67號","TEL":"(07)8031-143","COUNTYNAME":"高雄市","TOWNNAME":"小港區","MARKTYPE":"994","Class":"4"},"geometry":{"x":183788.11129999999,"y":2496649.2728000004}},{"attributes":{"OBJECTID":21938,"LANDMARKID":"6400000001161","LANDMARKCO":"408","LANDMARKNA":"郵局-高雄中林子郵局","LANDMARKAD":"6400011","ADDRESS":"高雄市小港區中智街1號","TEL":"(07)8716-064","COUNTYNAME":"高雄市","TOWNNAME":"小港區","MARKTYPE":"994","Class":"4"},"geometry":{"x":184752.22589999996,"y":2492315.8015000001}},{"attributes":{"OBJECTID":21939,"LANDMARKID":"6400000001162","LANDMARKCO":"408","LANDMARKNA":"郵局-高雄桂林郵局","LANDMARKAD":"6400011","ADDRESS":"高雄市小港區桂華街130號","TEL":"(07)7915-275","COUNTYNAME":"高雄市","TOWNNAME":"小港區","MARKTYPE":"994","Class":"4"},"geometry":{"x":183982.68780000042,"y":2498286.0829000007}},{"attributes":{"OBJECTID":21940,"LANDMARKID":"6400000001163","LANDMARKCO":"408","LANDMARKNA":"郵局-小港機場郵局","LANDMARKAD":"6400011","ADDRESS":"高雄市小港區中山四路2號(小港國際機場內)","TEL":"(07)8011-918","COUNTYNAME":"高雄市","TOWNNAME":"小港區","MARKTYPE":"994","Class":"4"},"geometry":{"x":182658.17989999987,"y":2496906.4222999997}},{"attributes":{"OBJECTID":21941,"LANDMARKID":"6400000001167","LANDMARKCO":"409","LANDMARKNA":"高雄市小港區農會","LANDMARKAD":"6400011","ADDRESS":"高雄市小港區小港路156號","TEL":"07-8119101","COUNTYNAME":"高雄市","TOWNNAME":"小港區","MARKTYPE":"994","Class":"4"},"geometry":{"x":181966.37129999977,"y":2496301.9006999992}},{"attributes":{"OBJECTID":21942,"LANDMARKID":"6400000001168","LANDMARKCO":"409","LANDMARKNA":"小港區漁會","LANDMARKAD":"6400011","ADDRESS":"高雄市小港區海汕二路58之1號","TEL":"07-8711173","COUNTYNAME":"高雄市","TOWNNAME":"小港區","MARKTYPE":"994","Class":"4"},"geometry":{"x":181018.84619999956,"y":2493409.5933999997}},{"attributes":{"OBJECTID":21943,"LANDMARKID":"6400000000928","LANDMARKCO":"404","LANDMARKNA":"台灣省自來水鳳山給水廠","LANDMARKAD":"6400011","ADDRESS":"高雄市小港區天池路1號","TEL":" ","COUNTYNAME":"高雄市","TOWNNAME":"小港區","MARKTYPE":"994","Class":"4"},"geometry":{"x":187267.04710000008,"y":2494095.1314000003}},{"attributes":{"OBJECTID":21944,"LANDMARKID":"6400000001041","LANDMARKCO":"406","LANDMARKNA":"大林蒲濱海植物公園","LANDMARKAD":"6400011","ADDRESS":"高雄市小港區","TEL":" ","COUNTYNAME":"高雄市","TOWNNAME":"小港區","MARKTYPE":"994","Class":"4"},"geometry":{"x":183018.51779999956,"y":2491202.6184999999}},{"attributes":{"OBJECTID":21945,"LANDMARKID":"6400000001042","LANDMARKCO":"407","LANDMARKNA":"小北百貨","LANDMARKAD":"6400011","ADDRESS":"高雄市小港區桂陽路216號","TEL":"07-7919094","COUNTYNAME":"高雄市","TOWNNAME":"小港區","MARKTYPE":"994","Class":"4"},"geometry":{"x":183614.49349999987,"y":2498149.9804999996}},{"attributes":{"OBJECTID":21946,"LANDMARKID":"6400000000929","LANDMARKCO":"405","LANDMARKNA":"全國加油站-小港機場站（台塑）","LANDMARKAD":"6400011","ADDRESS":"高雄市小港區大業北路29號","TEL":"07-8033762","COUNTYNAME":"高雄市","TOWNNAME":"小港區","MARKTYPE":"994","Class":"4"},"geometry":{"x":182734.63080000039,"y":2496291.8615000006}},{"attributes":{"OBJECTID":21947,"LANDMARKID":"6400000000930","LANDMARKCO":"405","LANDMARKNA":"台塑加油站-永順站(台塑)","LANDMARKAD":"6400011","ADDRESS":"高雄市小港區宏平路653號","TEL":"07-8064333","COUNTYNAME":"高雄市","TOWNNAME":"小港區","MARKTYPE":"994","Class":"4"},"geometry":{"x":183370.31020000018,"y":2496776.1274999995}},{"attributes":{"OBJECTID":21948,"LANDMARKID":"6400000000931","LANDMARKCO":"405","LANDMARKNA":"台塑加油站-鴻翔站(台塑)","LANDMARKAD":"6400011","ADDRESS":"高雄市小港區高鳳路272號","TEL":"07-7932988","COUNTYNAME":"高雄市","TOWNNAME":"小港區","MARKTYPE":"994","Class":"4"},"geometry":{"x":185394.76420000009,"y":2497652.1930999998}},{"attributes":{"OBJECTID":21949,"LANDMARKID":"6400000000130","LANDMARKCO":"107","LANDMARKNA":"高雄市政府警察局高松派出所","LANDMARKAD":"6400011","ADDRESS":"高雄市小港區高松路27號","TEL":"07-8010795","COUNTYNAME":"高雄市","TOWNNAME":"小港區","MARKTYPE":"991","Class":"1"},"geometry":{"x":185498.75140000042,"y":2497110.2409000006}},{"attributes":{"OBJECTID":21950,"LANDMARKID":"6400000000131","LANDMARKCO":"107","LANDMARKNA":"高雄市政府警察局桂陽派出所","LANDMARKAD":"6400011","ADDRESS":"高雄市小港區桂林里桂陽路338號","TEL":"07-7912688","COUNTYNAME":"高雄市","TOWNNAME":"小港區","MARKTYPE":"991","Class":"1"},"geometry":{"x":183301.2304999996,"y":2498160.6135000009}},{"attributes":{"OBJECTID":21951,"LANDMARKID":"6400000000132","LANDMARKCO":"107","LANDMARKNA":"高雄市消防局小港分隊","LANDMARKAD":"6400011","ADDRESS":"高雄市小港區平和四路48號","TEL":"07-8415978","COUNTYNAME":"高雄市","TOWNNAME":"小港區","MARKTYPE":"991","Class":"1"},"geometry":{"x":181757.05179999955,"y":2496050.1535999998}},{"attributes":{"OBJECTID":21952,"LANDMARKID":"6400000000133","LANDMARKCO":"107","LANDMARKNA":"內政部警政署空中警察隊小港機場","LANDMARKAD":"6400011","ADDRESS":"高雄市小港區中山四路2號","TEL":"07-8036413","COUNTYNAME":"高雄市","TOWNNAME":"小港區","MARKTYPE":"991","Class":"1"},"geometry":{"x":182625.32230000012,"y":2496910.1832999997}},{"attributes":{"OBJECTID":21953,"LANDMARKID":"6400000000134","LANDMARKCO":"107","LANDMARKNA":"內政部入出國及移民署","LANDMARKAD":"6400011","ADDRESS":"高雄市小港區中山四路2號","TEL":"07-8017311","COUNTYNAME":"高雄市","TOWNNAME":"小港區","MARKTYPE":"991","Class":"1"},"geometry":{"x":182625.19060000032,"y":2496940.1827000007}},{"attributes":{"OBJECTID":21954,"LANDMARKID":"6400000000039","LANDMARKCO":"101","LANDMARKNA":"高雄國際航空站原住民文化產業","LANDMARKAD":"6400011","ADDRESS":"高雄市小港區中山四路2號","TEL":" ","COUNTYNAME":"高雄市","TOWNNAME":"小港區","MARKTYPE":"991","Class":"1"},"geometry":{"x":182634.27830000035,"y":2496920.2226}},{"attributes":{"OBJECTID":21955,"LANDMARKID":"6400000000049","LANDMARKCO":"103","LANDMARKNA":"高雄市政府小港漁港管理站","LANDMARKAD":"6400011","ADDRESS":"高雄市小港區海汕二路1號2樓","TEL":"07-8714806","COUNTYNAME":"高雄市","TOWNNAME":"小港區","MARKTYPE":"991","Class":"1"},"geometry":{"x":181321.07380000036,"y":2492970.8215999994}},{"attributes":{"OBJECTID":21956,"LANDMARKID":"6400000000229","LANDMARKCO":"108","LANDMARKNA":"高雄市小港區公所","LANDMARKAD":"6400011","ADDRESS":"高雄市小港區小港路158號3樓","TEL":"07-8122260","COUNTYNAME":"高雄市","TOWNNAME":"小港區","MARKTYPE":"991","Class":"1"},"geometry":{"x":181926.73309999984,"y":2496289.1506999992}},{"attributes":{"OBJECTID":21957,"LANDMARKID":"6400000000124","LANDMARKCO":"107","LANDMARKNA":"高雄市政府警察局小港分局","LANDMARKAD":"6400011","ADDRESS":"高雄市小港區港興里小港路20號","TEL":"07-8019207","COUNTYNAME":"高雄市","TOWNNAME":"小港區","MARKTYPE":"991","Class":"1"},"geometry":{"x":182642.06589999981,"y":2496353.5185000002}},{"attributes":{"OBJECTID":21958,"LANDMARKID":"6400000000125","LANDMARKCO":"107","LANDMARKNA":"高雄市政府警察局漢民路派出所","LANDMARKAD":"6400011","ADDRESS":"高雄市小港區宏亮里宏平路367號","TEL":"07-8064590","COUNTYNAME":"高雄市","TOWNNAME":"小港區","MARKTYPE":"991","Class":"1"},"geometry":{"x":184138.43580000009,"y":2496771.7935000006}},{"attributes":{"OBJECTID":21959,"LANDMARKID":"6400000000126","LANDMARKCO":"107","LANDMARKNA":"高雄市政府警察局大林派出所","LANDMARKAD":"6400011","ADDRESS":"高雄市小港區鳳林里鳳林路116號","TEL":"07-8712237","COUNTYNAME":"高雄市","TOWNNAME":"小港區","MARKTYPE":"991","Class":"1"},"geometry":{"x":182727.18819999974,"y":2492055.7233000007}},{"attributes":{"OBJECTID":21960,"LANDMARKID":"6400000000127","LANDMARKCO":"107","LANDMARKNA":"高雄市政府警察局小港派出所","LANDMARKAD":"6400011","ADDRESS":"高雄市小港區平和南路119號","TEL":"07-8215913","COUNTYNAME":"高雄市","TOWNNAME":"小港區","MARKTYPE":"991","Class":"1"},"geometry":{"x":181749.97470000014,"y":2496039.3720999993}},{"attributes":{"OBJECTID":21961,"LANDMARKID":"6400000000128","LANDMARKCO":"107","LANDMARKNA":"高雄港二港口消防分隊","LANDMARKAD":"6400011","ADDRESS":"高雄巿小港區亞太路53號","TEL":"07-8214389","COUNTYNAME":"高雄市","TOWNNAME":"小港區","MARKTYPE":"991","Class":"1"},"geometry":{"x":180568.10969999991,"y":2496088.4912}},{"attributes":{"OBJECTID":21962,"LANDMARKID":"6400000000129","LANDMARKCO":"107","LANDMARKNA":"高雄市消防局大林消防分隊","LANDMARKAD":"6400011","ADDRESS":"高雄市小港區鳳林路116號","TEL":"07-8711511","COUNTYNAME":"高雄市","TOWNNAME":"小港區","MARKTYPE":"991","Class":"1"},"geometry":{"x":182727.18819999974,"y":2492055.7233000007}},{"attributes":{"OBJECTID":21963,"LANDMARKID":"6400000000123","LANDMARKCO":"106","LANDMARKNA":"高雄市小港區戶政事務所","LANDMARKAD":"6400011","ADDRESS":"高雄市小港區港南里2鄰小港路158號2樓","TEL":"07-8119784?","COUNTYNAME":"高雄市","TOWNNAME":"小港區","MARKTYPE":"991","Class":"1"},"geometry":{"x":181926.73309999984,"y":2496289.1506999992}},{"attributes":{"OBJECTID":21964,"LANDMARKID":"6400000000040","LANDMARKCO":"101","LANDMARKNA":"台灣糖業股份有限公司小港廠","LANDMARKAD":"6400011","ADDRESS":"高雄市小港區小港路133號","TEL":"07-8214161","COUNTYNAME":"高雄市","TOWNNAME":"小港區","MARKTYPE":"991","Class":"1"},"geometry":{"x":182147.76180000044,"y":2496281.8614000008}},{"attributes":{"OBJECTID":21965,"LANDMARKID":"6400000000041","LANDMARKCO":"101","LANDMARKNA":"中國鋼鐵股份有限公司","LANDMARKAD":"6400011","ADDRESS":"高雄市小港區中鋼路1號","TEL":"07-8021111","COUNTYNAME":"高雄市","TOWNNAME":"小港區","MARKTYPE":"991","Class":"1"},"geometry":{"x":183618.88200000022,"y":2492332.1071000006}},{"attributes":{"OBJECTID":21966,"LANDMARKID":"6400000000104","LANDMARKCO":"104","LANDMARKNA":"高雄市國稅局小港稽徵所","LANDMARKAD":"6400011","ADDRESS":"高雄市小港區小港路158號6樓","TEL":"07-8123746","COUNTYNAME":"高雄市","TOWNNAME":"小港區","MARKTYPE":"991","Class":"1"},"geometry":{"x":181926.73309999984,"y":2496289.1506999992}},{"attributes":{"OBJECTID":21967,"LANDMARKID":"6400000000042","LANDMARKCO":"101","LANDMARKNA":"工業局高雄臨海工業區服務中心","LANDMARKAD":"6400011","ADDRESS":"高雄市小港區大業北路37號","TEL":"07-8023991","COUNTYNAME":"高雄市","TOWNNAME":"小港區","MARKTYPE":"991","Class":"1"},"geometry":{"x":182632.03369999956,"y":2496428.4745000005}},{"attributes":{"OBJECTID":21968,"LANDMARKID":"6400000000048","LANDMARKCO":"103","LANDMARKNA":"高雄市政府勞工局訓練就業中心","LANDMARKAD":"6400011","ADDRESS":"高雄市小港區大業南路58號","TEL":"07-8714256","COUNTYNAME":"高雄市","TOWNNAME":"小港區","MARKTYPE":"991","Class":"1"},"geometry":{"x":185288.93369999994,"y":2493169.6320999991}},{"attributes":{"OBJECTID":21969,"LANDMARKID":"6400000000045","LANDMARKCO":"101","LANDMARKNA":"高雄市臨海工業區廠商協進會","LANDMARKAD":"6400011","ADDRESS":"高雄市小港區大業北路37號","TEL":"07-8038488","COUNTYNAME":"高雄市","TOWNNAME":"小港區","MARKTYPE":"991","Class":"1"},"geometry":{"x":182632.03369999956,"y":2496428.4745000005}},{"attributes":{"OBJECTID":21970,"LANDMARKID":"6400000000105","LANDMARKCO":"104","LANDMARKNA":"財政部高雄關稅局前鎮分局","LANDMARKAD":"6400011","ADDRESS":"高雄市小港區東亞南路36號","TEL":"07-8237376","COUNTYNAME":"高雄市","TOWNNAME":"小港區","MARKTYPE":"991","Class":"1"},"geometry":{"x":181803.9140999997,"y":2495562.6177999992}},{"attributes":{"OBJECTID":21971,"LANDMARKID":"6400000000047","LANDMARKCO":"103","LANDMARKNA":"高雄市小港區衛生所","LANDMARKAD":"6400011","ADDRESS":"高雄市小港區小港二路10號","TEL":"07-8218802","COUNTYNAME":"高雄市","TOWNNAME":"小港區","MARKTYPE":"991","Class":"1"},"geometry":{"x":181792.91839999985,"y":2496080.3128999993}},{"attributes":{"OBJECTID":21972,"LANDMARKID":"6400000000043","LANDMARKCO":"101","LANDMARKNA":"高雄市憲兵隊臨海工業區憲兵分隊","LANDMARKAD":"6400011","ADDRESS":"高雄市小港區","TEL":"07-8019773","COUNTYNAME":"高雄市","TOWNNAME":"小港區","MARKTYPE":"991","Class":"1"},"geometry":{"x":183018.4813000001,"y":2495950.6692999993}},{"attributes":{"OBJECTID":21973,"LANDMARKID":"6400000000044","LANDMARKCO":"101","LANDMARKNA":"調查局南部地區機動工作組","LANDMARKAD":"6400011","ADDRESS":"高雄市小港平和南路129號","TEL":"07-8122910","COUNTYNAME":"高雄市","TOWNNAME":"小港區","MARKTYPE":"991","Class":"1"},"geometry":{"x":181890.65189999994,"y":2496140.7467}},{"attributes":{"OBJECTID":21974,"LANDMARKID":"6400000000293","LANDMARKCO":"203","LANDMARKNA":"市立明義國中","LANDMARKAD":"6400011","ADDRESS":"高雄市小港區明義街2號","TEL":"07-7911295","COUNTYNAME":"高雄市","TOWNNAME":"小港區","MARKTYPE":"992","Class":"2"},"geometry":{"x":185042.3459999999,"y":2498130.7135000005}},{"attributes":{"OBJECTID":21975,"LANDMARKID":"6400000000294","LANDMARKCO":"203","LANDMARKNA":"市立餐旅國中","LANDMARKAD":"6400011","ADDRESS":"高雄市小港區松和路40號","TEL":"07-8060705","COUNTYNAME":"高雄市","TOWNNAME":"小港區","MARKTYPE":"992","Class":"2"},"geometry":{"x":185389.85759999976,"y":2496401.0032000002}},{"attributes":{"OBJECTID":21976,"LANDMARKID":"6400000000295","LANDMARKCO":"203","LANDMARKNA":"市立太平國小","LANDMARKAD":"6400011","ADDRESS":"高雄市小港區高松路31號","TEL":"07-8019006","COUNTYNAME":"高雄市","TOWNNAME":"小港區","MARKTYPE":"992","Class":"2"},"geometry":{"x":185382.87930000015,"y":2497080.9575999994}},{"attributes":{"OBJECTID":21977,"LANDMARKID":"6400000000275","LANDMARKCO":"202","LANDMARKNA":"市立小港高中","LANDMARKAD":"6400011","ADDRESS":"高雄市小港區學府路117號","TEL":"07-8062627","COUNTYNAME":"高雄市","TOWNNAME":"小港區","MARKTYPE":"992","Class":"2"},"geometry":{"x":183858.55869999994,"y":2496288.8321000002}},{"attributes":{"OBJECTID":21978,"LANDMARKID":"6400000000276","LANDMARKCO":"202","LANDMARKNA":"私立高鳳工家","LANDMARKAD":"6400011","ADDRESS":"高雄市小港區松崗路119號","TEL":"07-8010943","COUNTYNAME":"高雄市","TOWNNAME":"小港區","MARKTYPE":"992","Class":"2"},"geometry":{"x":185795.51009999961,"y":2497418.5309999995}},{"attributes":{"OBJECTID":21979,"LANDMARKID":"6400000000277","LANDMARKCO":"203","LANDMARKNA":"市立小港國中","LANDMARKAD":"6400011","ADDRESS":"高雄市小港區平和南路185號","TEL":"07-8215929","COUNTYNAME":"高雄市","TOWNNAME":"小港區","MARKTYPE":"992","Class":"2"},"geometry":{"x":181955.97059999965,"y":2496394.2804000005}},{"attributes":{"OBJECTID":21980,"LANDMARKID":"6400000000278","LANDMARKCO":"203","LANDMARKNA":"市立中山國中","LANDMARKAD":"6400011","ADDRESS":"高雄市小港區漢民路352號","TEL":"07-8021765","COUNTYNAME":"高雄市","TOWNNAME":"小港區","MARKTYPE":"992","Class":"2"},"geometry":{"x":183750.11909999978,"y":2496379.6146000009}},{"attributes":{"OBJECTID":21981,"LANDMARKID":"6400000000279","LANDMARKCO":"203","LANDMARKNA":"市立鳳林國中","LANDMARKAD":"6400011","ADDRESS":"高雄市小港區鳳林路259號","TEL":"07-8711130","COUNTYNAME":"高雄市","TOWNNAME":"小港區","MARKTYPE":"992","Class":"2"},"geometry":{"x":182177.11770000029,"y":2492083.0738999993}},{"attributes":{"OBJECTID":21982,"LANDMARKID":"6400000000280","LANDMARKCO":"203","LANDMARKNA":"市立坪頂國小","LANDMARKAD":"6400011","ADDRESS":"高雄市小港區大平路2號","TEL":"07-8911410","COUNTYNAME":"高雄市","TOWNNAME":"小港區","MARKTYPE":"992","Class":"2"},"geometry":{"x":187492.50850000046,"y":2495902.4802000001}},{"attributes":{"OBJECTID":21983,"LANDMARKID":"6400000000281","LANDMARKCO":"203","LANDMARKNA":"市立港和國小","LANDMARKAD":"6400011","ADDRESS":"高雄市小港區平和南路300號","TEL":"07-8131506","COUNTYNAME":"高雄市","TOWNNAME":"小港區","MARKTYPE":"992","Class":"2"},"geometry":{"x":181909.06109999958,"y":2496610.8164000008}},{"attributes":{"OBJECTID":21984,"LANDMARKID":"6400000000282","LANDMARKCO":"203","LANDMARKNA":"市立小港國小","LANDMARKAD":"6400011","ADDRESS":"高雄市小港區平和路1號","TEL":"07-8215923","COUNTYNAME":"高雄市","TOWNNAME":"小港區","MARKTYPE":"992","Class":"2"},"geometry":{"x":181614.4327999996,"y":2495905.7918999996}},{"attributes":{"OBJECTID":21985,"LANDMARKID":"6400000000283","LANDMARKCO":"203","LANDMARKNA":"市立二苓國小","LANDMARKAD":"6400011","ADDRESS":"高雄市小港區立群路6號","TEL":"07-8016837","COUNTYNAME":"高雄市","TOWNNAME":"小港區","MARKTYPE":"992","Class":"2"},"geometry":{"x":183487.82210000046,"y":2496126.4721000008}},{"attributes":{"OBJECTID":21986,"LANDMARKID":"6400000000284","LANDMARKCO":"203","LANDMARKNA":"市立青山國小","LANDMARKAD":"6400011","ADDRESS":"高雄市小港區飛機路153號","TEL":"07-8024872","COUNTYNAME":"高雄市","TOWNNAME":"小港區","MARKTYPE":"992","Class":"2"},"geometry":{"x":184269.71300000045,"y":2497153.3507000003}},{"attributes":{"OBJECTID":21987,"LANDMARKID":"6400000000285","LANDMARKCO":"203","LANDMARKNA":"市立桂林國小","LANDMARKAD":"6400011","ADDRESS":"高雄市小港區桂陽路390號","TEL":"07-7910766","COUNTYNAME":"高雄市","TOWNNAME":"小港區","MARKTYPE":"992","Class":"2"},"geometry":{"x":183201.84769999981,"y":2498244.6811999995}},{"attributes":{"OBJECTID":21988,"LANDMARKID":"6400000000286","LANDMARKCO":"203","LANDMARKNA":"市立海汕國小","LANDMARKAD":"6400011","ADDRESS":"高雄市小港區海汕四路82號","TEL":"07-8711297","COUNTYNAME":"高雄市","TOWNNAME":"小港區","MARKTYPE":"992","Class":"2"},"geometry":{"x":180404.90649999958,"y":2494090.7899999991}},{"attributes":{"OBJECTID":21989,"LANDMARKID":"6400000000287","LANDMARKCO":"203","LANDMARKNA":"市立華山國小","LANDMARKAD":"6400011","ADDRESS":"高雄市小港區華仁街1號","TEL":"07-8062280","COUNTYNAME":"高雄市","TOWNNAME":"小港區","MARKTYPE":"992","Class":"2"},"geometry":{"x":184770.6540000001,"y":2496554.0532000009}},{"attributes":{"OBJECTID":21990,"LANDMARKID":"6400000000288","LANDMARKCO":"203","LANDMARKNA":"市立漢民國小","LANDMARKAD":"6400011","ADDRESS":"高雄市小港區漢民路500號","TEL":"07-8036569","COUNTYNAME":"高雄市","TOWNNAME":"小港區","MARKTYPE":"992","Class":"2"},"geometry":{"x":184100.10500000045,"y":2496446.6347000003}},{"attributes":{"OBJECTID":21991,"LANDMARKID":"6400000000289","LANDMARKCO":"203","LANDMARKNA":"市立鳳林國小","LANDMARKAD":"6400011","ADDRESS":"高雄市小港區鳳源里鳳林路207號","TEL":"07-8712367","COUNTYNAME":"高雄市","TOWNNAME":"小港區","MARKTYPE":"992","Class":"2"},"geometry":{"x":182442.65070000011,"y":2491950.7316999994}},{"attributes":{"OBJECTID":21992,"LANDMARKID":"6400000000290","LANDMARKCO":"203","LANDMARKNA":"市立鳳鳴國小","LANDMARKAD":"6400011","ADDRESS":"高雄市小港區鳳鳴路191號","TEL":"07-8714561","COUNTYNAME":"高雄市","TOWNNAME":"小港區","MARKTYPE":"992","Class":"2"},"geometry":{"x":183887.70519999973,"y":2490776.8087000009}},{"attributes":{"OBJECTID":21993,"LANDMARKID":"6400000000291","LANDMARKCO":"203","LANDMARKNA":"市立鳳陽國小","LANDMARKAD":"6400011","ADDRESS":"高雄市小港區鳳陽街2號","TEL":"07-8010865","COUNTYNAME":"高雄市","TOWNNAME":"小港區","MARKTYPE":"992","Class":"2"},"geometry":{"x":185225.32039999962,"y":2495860.8154000007}},{"attributes":{"OBJECTID":21994,"LANDMARKID":"6400000000292","LANDMARKCO":"203","LANDMARKNA":"市立明義國小","LANDMARKAD":"6400011","ADDRESS":"高雄市小港區明義街77號","TEL":"07-7919125","COUNTYNAME":"高雄市","TOWNNAME":"小港區","MARKTYPE":"992","Class":"2"},"geometry":{"x":184997.69149999972,"y":2498290.2687999997}},{"attributes":{"OBJECTID":21995,"LANDMARKID":"6400000000231","LANDMARKCO":"201","LANDMARKNA":"市立高雄空中大學","LANDMARKAD":"6400011","ADDRESS":"高雄市小港區大業北路436號","TEL":"07-8012008","COUNTYNAME":"高雄市","TOWNNAME":"小港區","MARKTYPE":"992","Class":"2"},"geometry":{"x":182715.28500000015,"y":2496417.8396000005}},{"attributes":{"OBJECTID":21996,"LANDMARKID":"6400000000232","LANDMARKCO":"201","LANDMARKNA":"國立高雄餐旅學院","LANDMARKAD":"6400011","ADDRESS":"高雄市小港區松和路1號","TEL":"07-8060505","COUNTYNAME":"高雄市","TOWNNAME":"小港區","MARKTYPE":"992","Class":"2"},"geometry":{"x":185365.77919999976,"y":2496334.1517999992}},{"attributes":{"OBJECTID":21997,"LANDMARKID":"6400000000564","LANDMARKCO":"303","LANDMARKNA":"高雄國際航空附設停車場","LANDMARKAD":"6400011","ADDRESS":"高雄市小港區中山四路2號","TEL":" ","COUNTYNAME":"高雄市","TOWNNAME":"小港區","MARKTYPE":"993","Class":"303"},"geometry":{"x":182809.52699999977,"y":2496807.6205000002}},{"attributes":{"OBJECTID":21998,"LANDMARKID":"6400000000565","LANDMARKCO":"303","LANDMARKNA":"高雄國際航空附設停車場","LANDMARKAD":"6400011","ADDRESS":"高雄市小港區中山四路2號","TEL":" ","COUNTYNAME":"高雄市","TOWNNAME":"小港區","MARKTYPE":"993","Class":"303"},"geometry":{"x":182185.14850000013,"y":2496873.0388999991}},{"attributes":{"OBJECTID":21999,"LANDMARKID":"6400000000693","LANDMARKCO":"306","LANDMARKNA":"小港捷運站-出口1","LANDMARKAD":"6400011","ADDRESS":" ","TEL":" ","COUNTYNAME":"高雄市","TOWNNAME":"小港區","MARKTYPE":"993","Class":"306"},"geometry":{"x":183564.66000000015,"y":2496164.9057999998}},{"attributes":{"OBJECTID":22000,"LANDMARKID":"6400000000694","LANDMARKCO":"306","LANDMARKNA":"小港捷運站-出口2","LANDMARKAD":"6400011","ADDRESS":" ","TEL":" ","COUNTYNAME":"高雄市","TOWNNAME":"小港區","MARKTYPE":"993","Class":"306"},"geometry":{"x":183610.52940000035,"y":2496191.9674999993}}]}