{"displayFieldName":"COUNTYNAME","fieldAliases":{"OBJECTID":"OBJECTID","LANDMARKID":"LANDMARKID","LANDMARKCO":"LANDMARKCO","LANDMARKNA":"LANDMARKNA","LANDMARKAD":"LANDMARKAD","ADDRESS":"ADDRESS","TEL":"TEL","COUNTYNAME":"COUNTYNAME","TOWNNAME":"TOWNNAME","MARKTYPE":"MARKTYPE","Class":"Class"},"geometryType":"esriGeometryPoint","spatialReference":{"wkid":4326},"fields":[{"name":"OBJECTID","type":"esriFieldTypeOID","alias":"OBJECTID"},{"name":"LANDMARKID","type":"esriFieldTypeString","alias":"LANDMARKID","length":15},{"name":"LANDMARKCO","type":"esriFieldTypeString","alias":"LANDMARKCO","length":15},{"name":"LANDMARKNA","type":"esriFieldTypeString","alias":"LANDMARKNA","length":50},{"name":"LANDMARKAD","type":"esriFieldTypeString","alias":"LANDMARKAD","length":15},{"name":"ADDRESS","type":"esriFieldTypeString","alias":"ADDRESS","length":56},{"name":"TEL","type":"esriFieldTypeString","alias":"TEL","length":36},{"name":"COUNTYNAME","type":"esriFieldTypeString","alias":"COUNTYNAME","length":15},{"name":"TOWNNAME","type":"esriFieldTypeString","alias":"TOWNNAME","length":13},{"name":"MARKTYPE","type":"esriFieldTypeString","alias":"MARKTYPE","length":12},{"name":"Class","type":"esriFieldTypeString","alias":"Class","length":5}],"features":[{"attributes":{"OBJECTID":23401,"LANDMARKID":"1001500000626","LANDMARKCO":"405","LANDMARKNA":"中油加油站-北基和平路","LANDMARKAD":"1001501","ADDRESS":"花蓮縣花蓮市和平路294號","TEL":"03-8335040","COUNTYNAME":"花蓮縣","TOWNNAME":"花蓮市","MARKTYPE":"994","Class":"4"},"geometry":{"x":121.60469327787013,"y":23.972646189459798}},{"attributes":{"OBJECTID":23402,"LANDMARKID":"1001500000627","LANDMARKCO":"405","LANDMARKNA":"北基加油站-和平站(中油)","LANDMARKAD":"1001501","ADDRESS":"花蓮市和平路294號","TEL":"(03)833-5040","COUNTYNAME":"花蓮縣","TOWNNAME":"花蓮市","MARKTYPE":"994","Class":"4"},"geometry":{"x":121.60469327787013,"y":23.972646189459798}},{"attributes":{"OBJECTID":23403,"LANDMARKID":"1001500000539","LANDMARKCO":"402","LANDMARKNA":"亞太行動寬頻電信-花蓮中正加盟服務中心","LANDMARKAD":"1001501","ADDRESS":"花蓮縣花蓮市中正路572之1號","TEL":"03-8315959","COUNTYNAME":"花蓮縣","TOWNNAME":"花蓮市","MARKTYPE":"994","Class":"4"},"geometry":{"x":121.6094775567601,"y":23.978458271462472}},{"attributes":{"OBJECTID":23404,"LANDMARKID":"1001500000540","LANDMARKCO":"402","LANDMARKNA":"亞太行動寬頻電信-花蓮中山加盟服務中心","LANDMARKAD":"1001501","ADDRESS":"花蓮縣花蓮市國華里中山路379號","TEL":"03-8333355","COUNTYNAME":"花蓮縣","TOWNNAME":"花蓮市","MARKTYPE":"994","Class":"4"},"geometry":{"x":121.6054369240715,"y":23.981755000391157}},{"attributes":{"OBJECTID":23405,"LANDMARKID":"1001500000541","LANDMARKCO":"402","LANDMARKNA":"亞太行動寬頻電信-花蓮市","LANDMARKAD":"1001501","ADDRESS":"花蓮市中華路63號","TEL":" ","COUNTYNAME":"花蓮縣","TOWNNAME":"花蓮市","MARKTYPE":"994","Class":"4"},"geometry":{"x":121.60842645223381,"y":23.976064838251574}},{"attributes":{"OBJECTID":23406,"LANDMARKID":"1001500000533","LANDMARKCO":"401","LANDMARKNA":"和平中醫醫院","LANDMARKAD":"1001501","ADDRESS":"花蓮縣花蓮市信義街61號","TEL":"03-8333491","COUNTYNAME":"花蓮縣","TOWNNAME":"花蓮市","MARKTYPE":"994","Class":"4"},"geometry":{"x":121.60402176841122,"y":23.97442535026768}},{"attributes":{"OBJECTID":23407,"LANDMARKID":"1001500000534","LANDMARKCO":"401","LANDMARKNA":"佛教慈濟綜合醫院-花蓮院區","LANDMARKAD":"1001501","ADDRESS":"花蓮縣花蓮市中央路三段707號","TEL":"03-8561825","COUNTYNAME":"花蓮縣","TOWNNAME":"花蓮市","MARKTYPE":"994","Class":"4"},"geometry":{"x":121.59228365698561,"y":23.995728532352501}},{"attributes":{"OBJECTID":23408,"LANDMARKID":"1001500000535","LANDMARKCO":"401","LANDMARKNA":"衛生署花蓮醫院","LANDMARKAD":"1001501","ADDRESS":"花蓮縣花蓮市中正路600號","TEL":"03-8358141","COUNTYNAME":"花蓮縣","TOWNNAME":"花蓮市","MARKTYPE":"994","Class":"4"},"geometry":{"x":121.61154778307898,"y":23.979157130437279}},{"attributes":{"OBJECTID":23409,"LANDMARKID":"1001500000536","LANDMARKCO":"401","LANDMARKNA":"財團法人台灣基督教門諾會醫院","LANDMARKAD":"1001501","ADDRESS":"花蓮縣花蓮市民權路44號","TEL":"03-8241234","COUNTYNAME":"花蓮縣","TOWNNAME":"花蓮市","MARKTYPE":"994","Class":"4"},"geometry":{"x":121.62675923551666,"y":23.98832723128367}},{"attributes":{"OBJECTID":23410,"LANDMARKID":"1001500001414","LANDMARKCO":"605","LANDMARKNA":"花蓮國軍英雄館分館","LANDMARKAD":"1001501","ADDRESS":"花蓮縣花蓮市忠孝街60之1號6樓","TEL":"03-8324161","COUNTYNAME":"花蓮縣","TOWNNAME":"花蓮市","MARKTYPE":"996","Class":"6"},"geometry":{"x":121.60615378235363,"y":23.974670705566982}},{"attributes":{"OBJECTID":23411,"LANDMARKID":"1001500001415","LANDMARKCO":"605","LANDMARKNA":"花蓮警光會館","LANDMARKAD":"1001501","ADDRESS":"花蓮縣花蓮市樹人街15號","TEL":"03-8349433","COUNTYNAME":"花蓮縣","TOWNNAME":"花蓮市","MARKTYPE":"996","Class":"6"},"geometry":{"x":121.6129383902865,"y":23.97611000873923}},{"attributes":{"OBJECTID":23412,"LANDMARKID":"1001500000682","LANDMARKCO":"408","LANDMARKNA":"郵局-花蓮國安郵局","LANDMARKAD":"1001501","ADDRESS":"花蓮縣花蓮市中山路408號","TEL":"(03)8331-141轉","COUNTYNAME":"花蓮縣","TOWNNAME":"花蓮市","MARKTYPE":"994","Class":"4"},"geometry":{"x":121.60444263113723,"y":23.984011152415341}},{"attributes":{"OBJECTID":23413,"LANDMARKID":"1001500000683","LANDMARKCO":"408","LANDMARKNA":"郵局-花蓮舊車站郵局","LANDMARKAD":"1001501","ADDRESS":"花蓮縣花蓮市中山路92號","TEL":"(03)8353-773","COUNTYNAME":"花蓮縣","TOWNNAME":"花蓮市","MARKTYPE":"994","Class":"4"},"geometry":{"x":121.61084678767178,"y":23.97533231707461}},{"attributes":{"OBJECTID":23414,"LANDMARKID":"1001500000684","LANDMARKCO":"408","LANDMARKNA":"郵局-花蓮南京街郵局","LANDMARKAD":"1001501","ADDRESS":"花蓮縣花蓮市南京街221號","TEL":"(03)8323-307","COUNTYNAME":"花蓮縣","TOWNNAME":"花蓮市","MARKTYPE":"994","Class":"4"},"geometry":{"x":121.6073189294621,"y":23.97532224817364}},{"attributes":{"OBJECTID":23415,"LANDMARKID":"1001500000685","LANDMARKCO":"408","LANDMARKNA":"郵局-花蓮府前路郵局","LANDMARKAD":"1001501","ADDRESS":"花蓮縣花蓮市府前路146號","TEL":"(03)8222-824","COUNTYNAME":"花蓮縣","TOWNNAME":"花蓮市","MARKTYPE":"994","Class":"4"},"geometry":{"x":121.6218622548007,"y":23.990448390844758}},{"attributes":{"OBJECTID":23416,"LANDMARKID":"1001500000686","LANDMARKCO":"408","LANDMARKNA":"郵局-花蓮下美崙郵局","LANDMARKAD":"1001501","ADDRESS":"花蓮縣花蓮市民權路132號","TEL":"(03)8222-441","COUNTYNAME":"花蓮縣","TOWNNAME":"花蓮市","MARKTYPE":"994","Class":"4"},"geometry":{"x":121.63109918610932,"y":23.993731943011795}},{"attributes":{"OBJECTID":23417,"LANDMARKID":"1001500000687","LANDMARKCO":"408","LANDMARKNA":"郵局-花蓮港務局郵局","LANDMARKAD":"1001501","ADDRESS":"花蓮縣花蓮市民權路27號","TEL":"(03)8359-244","COUNTYNAME":"花蓮縣","TOWNNAME":"花蓮市","MARKTYPE":"994","Class":"4"},"geometry":{"x":121.62165687785675,"y":23.983316985203988}},{"attributes":{"OBJECTID":23418,"LANDMARKID":"1001500000688","LANDMARKCO":"408","LANDMARKNA":"郵局-花蓮中華路郵局","LANDMARKAD":"1001501","ADDRESS":"花蓮縣花蓮市中華路335-5號","TEL":"(03)8355-279","COUNTYNAME":"花蓮縣","TOWNNAME":"花蓮市","MARKTYPE":"994","Class":"4"},"geometry":{"x":121.59706744910434,"y":23.974745312610988}},{"attributes":{"OBJECTID":23419,"LANDMARKID":"1001500000689","LANDMARKCO":"408","LANDMARKNA":"郵局-花蓮富國路郵局","LANDMARKAD":"1001501","ADDRESS":"花蓮縣花蓮市富國路52號","TEL":"(03)8577-820","COUNTYNAME":"花蓮縣","TOWNNAME":"花蓮市","MARKTYPE":"994","Class":"4"},"geometry":{"x":121.59558691490375,"y":23.990919201221708}},{"attributes":{"OBJECTID":23420,"LANDMARKID":"1001500000690","LANDMARKCO":"408","LANDMARKNA":"郵局-花蓮中山路郵局","LANDMARKAD":"1001501","ADDRESS":"花蓮縣花蓮市中山路188號","TEL":"(03)8323-279","COUNTYNAME":"花蓮縣","TOWNNAME":"花蓮市","MARKTYPE":"994","Class":"4"},"geometry":{"x":121.6085453560024,"y":23.978279231986559}},{"attributes":{"OBJECTID":23421,"LANDMARKID":"1001500000691","LANDMARKCO":"408","LANDMARKNA":"郵局-花蓮師院郵局","LANDMARKAD":"1001501","ADDRESS":"花蓮縣花蓮市華西路123號","TEL":"(03)8225-374","COUNTYNAME":"花蓮縣","TOWNNAME":"花蓮市","MARKTYPE":"994","Class":"4"},"geometry":{"x":121.6185344330533,"y":24.009469547234762}},{"attributes":{"OBJECTID":23422,"LANDMARKID":"1001500000725","LANDMARKCO":"409","LANDMARKNA":"花蓮縣花蓮市農會","LANDMARKAD":"1001501","ADDRESS":"花蓮縣花蓮市中山路210號","TEL":"03-8326181","COUNTYNAME":"花蓮縣","TOWNNAME":"花蓮市","MARKTYPE":"994","Class":"4"},"geometry":{"x":121.60794072545507,"y":23.979089893954484}},{"attributes":{"OBJECTID":23423,"LANDMARKID":"1001500000726","LANDMARKCO":"409","LANDMARKNA":"花蓮縣農會","LANDMARKAD":"1001501","ADDRESS":"花蓮縣花蓮市中華路459號","TEL":"03-8523181","COUNTYNAME":"花蓮縣","TOWNNAME":"花蓮市","MARKTYPE":"994","Class":"4"},"geometry":{"x":121.60228003898355,"y":23.975312610634784}},{"attributes":{"OBJECTID":23424,"LANDMARKID":"1001500000727","LANDMARKCO":"409","LANDMARKNA":"花蓮區漁會","LANDMARKAD":"1001501","ADDRESS":"花蓮市港濱37號","TEL":"03-8223118","COUNTYNAME":"花蓮縣","TOWNNAME":"花蓮市","MARKTYPE":"994","Class":"4"},"geometry":{"x":121.64184682697054,"y":24.001981319299833}},{"attributes":{"OBJECTID":23425,"LANDMARKID":"1001500000728","LANDMARKCO":"409","LANDMARKNA":"花蓮魚市場","LANDMARKAD":"1001501","ADDRESS":"花蓮市港濱37號","TEL":"038-223118-9","COUNTYNAME":"花蓮縣","TOWNNAME":"花蓮市","MARKTYPE":"994","Class":"4"},"geometry":{"x":121.63864604264829,"y":23.99668253645385}},{"attributes":{"OBJECTID":23426,"LANDMARKID":"1001500000560","LANDMARKCO":"404","LANDMARKNA":"台灣自來水第九區管理處","LANDMARKAD":"1001501","ADDRESS":"花蓮市水源街31號","TEL":"03-8351141~7","COUNTYNAME":"花蓮縣","TOWNNAME":"花蓮市","MARKTYPE":"994","Class":"4"},"geometry":{"x":121.61676621352156,"y":23.982636360329224}},{"attributes":{"OBJECTID":23427,"LANDMARKID":"1001500000561","LANDMARKCO":"404","LANDMARKNA":"台灣自來水花蓮服務所","LANDMARKAD":"1001501","ADDRESS":"花蓮市水源街35號","TEL":"03-8322016","COUNTYNAME":"花蓮縣","TOWNNAME":"花蓮市","MARKTYPE":"994","Class":"4"},"geometry":{"x":121.61771837848995,"y":23.982529367559234}},{"attributes":{"OBJECTID":23428,"LANDMARKID":"1001500000562","LANDMARKCO":"404","LANDMARKNA":"台灣自來水花蓮給水廠","LANDMARKAD":"1001501","ADDRESS":"花蓮市水源街35號","TEL":"03-8350257","COUNTYNAME":"花蓮縣","TOWNNAME":"花蓮市","MARKTYPE":"994","Class":"4"},"geometry":{"x":121.61771837848995,"y":23.982529367559234}},{"attributes":{"OBJECTID":23429,"LANDMARKID":"1001500000563","LANDMARKCO":"404","LANDMARKNA":"台灣省自來水花蓮給水廠","LANDMARKAD":"1001501","ADDRESS":"花蓮縣花蓮市水源路35號","TEL":" ","COUNTYNAME":"花蓮縣","TOWNNAME":"花蓮市","MARKTYPE":"994","Class":"4"},"geometry":{"x":121.61860859746317,"y":23.981656138769193}},{"attributes":{"OBJECTID":23430,"LANDMARKID":"1001500000564","LANDMARKCO":"404","LANDMARKNA":"台灣省自來水花蓮服務所","LANDMARKAD":"1001501","ADDRESS":"花蓮縣花蓮市水源街35號","TEL":" ","COUNTYNAME":"花蓮縣","TOWNNAME":"花蓮市","MARKTYPE":"994","Class":"4"},"geometry":{"x":121.61916580057833,"y":23.981491274321332}},{"attributes":{"OBJECTID":23431,"LANDMARKID":"1001500000565","LANDMARKCO":"404","LANDMARKNA":"台灣省自來水第九區花蓮縣市管理處","LANDMARKAD":"1001501","ADDRESS":"花蓮縣花蓮市水源街31號","TEL":" ","COUNTYNAME":"花蓮縣","TOWNNAME":"花蓮市","MARKTYPE":"994","Class":"4"},"geometry":{"x":121.62986318769985,"y":24.023900782902501}},{"attributes":{"OBJECTID":23432,"LANDMARKID":"1001500000559","LANDMARKCO":"403","LANDMARKNA":"台灣電力公司花蓮區營業處","LANDMARKAD":"1001501","ADDRESS":"花蓮縣花蓮市中山路238號","TEL":" ","COUNTYNAME":"花蓮縣","TOWNNAME":"花蓮市","MARKTYPE":"994","Class":"4"},"geometry":{"x":121.60750260360906,"y":23.97982092807149}},{"attributes":{"OBJECTID":23433,"LANDMARKID":"1001500000641","LANDMARKCO":"406","LANDMARKNA":"海濱公園","LANDMARKAD":"1001501","ADDRESS":"花蓮縣花蓮市","TEL":" ","COUNTYNAME":"花蓮縣","TOWNNAME":"花蓮市","MARKTYPE":"994","Class":"4"},"geometry":{"x":121.64275829373324,"y":24.003351054133955}},{"attributes":{"OBJECTID":23434,"LANDMARKID":"1001500000642","LANDMARKCO":"406","LANDMARKNA":"美崙海濱公園","LANDMARKAD":"1001501","ADDRESS":"花蓮縣花蓮市","TEL":" ","COUNTYNAME":"花蓮縣","TOWNNAME":"花蓮市","MARKTYPE":"994","Class":"4"},"geometry":{"x":121.62405567557296,"y":23.983260073548191}},{"attributes":{"OBJECTID":23435,"LANDMARKID":"1001500000643","LANDMARKCO":"406","LANDMARKNA":"花崗山運動公園","LANDMARKAD":"1001501","ADDRESS":"花蓮縣花蓮市","TEL":" ","COUNTYNAME":"花蓮縣","TOWNNAME":"花蓮市","MARKTYPE":"994","Class":"4"},"geometry":{"x":121.61456317789167,"y":23.977066589242778}},{"attributes":{"OBJECTID":23436,"LANDMARKID":"1001500000644","LANDMARKCO":"406","LANDMARKNA":"北濱公園","LANDMARKAD":"1001501","ADDRESS":"花蓮縣花蓮市","TEL":" ","COUNTYNAME":"花蓮縣","TOWNNAME":"花蓮市","MARKTYPE":"994","Class":"4"},"geometry":{"x":121.61572774494311,"y":23.973751563317911}},{"attributes":{"OBJECTID":23437,"LANDMARKID":"1001500000645","LANDMARKCO":"406","LANDMARKNA":"美崙山公園","LANDMARKAD":"1001501","ADDRESS":"花蓮縣花蓮市","TEL":" ","COUNTYNAME":"花蓮縣","TOWNNAME":"花蓮市","MARKTYPE":"994","Class":"4"},"geometry":{"x":121.61450441278106,"y":23.990446457989567}},{"attributes":{"OBJECTID":23438,"LANDMARKID":"1001500000646","LANDMARKCO":"406","LANDMARKNA":"美崙林園公園","LANDMARKAD":"1001501","ADDRESS":"花蓮縣花蓮市","TEL":" ","COUNTYNAME":"花蓮縣","TOWNNAME":"花蓮市","MARKTYPE":"994","Class":"4"},"geometry":{"x":121.63091742247445,"y":24.001611251822766}},{"attributes":{"OBJECTID":23439,"LANDMARKID":"1001500000647","LANDMARKCO":"406","LANDMARKNA":"中琉紀念公園","LANDMARKAD":"1001501","ADDRESS":"花蓮縣花蓮市","TEL":" ","COUNTYNAME":"花蓮縣","TOWNNAME":"花蓮市","MARKTYPE":"994","Class":"4"},"geometry":{"x":121.59997932251129,"y":23.997198493842557}},{"attributes":{"OBJECTID":23440,"LANDMARKID":"1001500000648","LANDMARKCO":"406","LANDMARKNA":"庭石公園","LANDMARKAD":"1001501","ADDRESS":"花蓮縣花蓮市","TEL":" ","COUNTYNAME":"花蓮縣","TOWNNAME":"花蓮市","MARKTYPE":"994","Class":"4"},"geometry":{"x":121.62993959023164,"y":23.995599798234085}},{"attributes":{"OBJECTID":23441,"LANDMARKID":"1001500000649","LANDMARKCO":"406","LANDMARKNA":"府前石雕公園","LANDMARKAD":"1001501","ADDRESS":"花蓮縣花蓮市","TEL":" ","COUNTYNAME":"花蓮縣","TOWNNAME":"花蓮市","MARKTYPE":"994","Class":"4"},"geometry":{"x":121.62147406702995,"y":23.992276923397622}},{"attributes":{"OBJECTID":23442,"LANDMARKID":"1001500000650","LANDMARKCO":"406","LANDMARKNA":"後備軍人公園","LANDMARKAD":"1001501","ADDRESS":"花蓮縣花蓮市","TEL":" ","COUNTYNAME":"花蓮縣","TOWNNAME":"花蓮市","MARKTYPE":"994","Class":"4"},"geometry":{"x":121.63374614619597,"y":23.990224890908017}},{"attributes":{"OBJECTID":23443,"LANDMARKID":"1001500000651","LANDMARKCO":"406","LANDMARKNA":"中山公園","LANDMARKAD":"1001501","ADDRESS":"花蓮縣花蓮市","TEL":" ","COUNTYNAME":"花蓮縣","TOWNNAME":"花蓮市","MARKTYPE":"994","Class":"4"},"geometry":{"x":121.60061059757044,"y":23.989824269833271}},{"attributes":{"OBJECTID":23444,"LANDMARKID":"1001500000652","LANDMARKCO":"406","LANDMARKNA":"中韓扶輪公園","LANDMARKAD":"1001501","ADDRESS":"花蓮縣花蓮市","TEL":" ","COUNTYNAME":"花蓮縣","TOWNNAME":"花蓮市","MARKTYPE":"994","Class":"4"},"geometry":{"x":121.60251696228335,"y":23.987671957514511}},{"attributes":{"OBJECTID":23445,"LANDMARKID":"1001500000653","LANDMARKCO":"406","LANDMARKNA":"運動公園","LANDMARKAD":"1001501","ADDRESS":"花蓮縣花蓮市","TEL":" ","COUNTYNAME":"花蓮縣","TOWNNAME":"花蓮市","MARKTYPE":"994","Class":"4"},"geometry":{"x":121.59397843989409,"y":23.970545603196449}},{"attributes":{"OBJECTID":23446,"LANDMARKID":"1001500000654","LANDMARKCO":"406","LANDMARKNA":"南濱公園","LANDMARKAD":"1001501","ADDRESS":"花蓮縣花蓮市","TEL":" ","COUNTYNAME":"花蓮縣","TOWNNAME":"花蓮市","MARKTYPE":"994","Class":"4"},"geometry":{"x":121.60802296708738,"y":23.965579338176745}},{"attributes":{"OBJECTID":23447,"LANDMARKID":"1001500000655","LANDMARKCO":"406","LANDMARKNA":"溪畔公園","LANDMARKAD":"1001501","ADDRESS":"花蓮縣花蓮市","TEL":" ","COUNTYNAME":"花蓮縣","TOWNNAME":"花蓮市","MARKTYPE":"994","Class":"4"},"geometry":{"x":121.61440672872246,"y":23.982065863994045}},{"attributes":{"OBJECTID":23448,"LANDMARKID":"1001500000680","LANDMARKCO":"407","LANDMARKNA":"遠東百貨","LANDMARKAD":"1001501","ADDRESS":"花蓮市中華路125號","TEL":"03-8355588","COUNTYNAME":"花蓮縣","TOWNNAME":"花蓮市","MARKTYPE":"994","Class":"4"},"geometry":{"x":121.60599595970383,"y":23.975711944685962}},{"attributes":{"OBJECTID":23449,"LANDMARKID":"1001500000681","LANDMARKCO":"407","LANDMARKNA":"三商百貨","LANDMARKAD":"1001501","ADDRESS":"花蓮縣花蓮市中正路530號","TEL":"03-8347302","COUNTYNAME":"花蓮縣","TOWNNAME":"花蓮市","MARKTYPE":"994","Class":"4"},"geometry":{"x":121.60814577203119,"y":23.977564025667299}},{"attributes":{"OBJECTID":23450,"LANDMARKID":"1001500000614","LANDMARKCO":"405","LANDMARKNA":"全國加油站-中央路站（台塑）","LANDMARKAD":"1001501","ADDRESS":"花蓮縣花蓮市中央路四段568號","TEL":"03-8461668","COUNTYNAME":"花蓮縣","TOWNNAME":"花蓮市","MARKTYPE":"994","Class":"4"},"geometry":{"x":121.6019273800281,"y":24.00414803464237}},{"attributes":{"OBJECTID":23451,"LANDMARKID":"1001500000615","LANDMARKCO":"405","LANDMARKNA":"全國加油站-花蓮國豐站站（台塑）","LANDMARKAD":"1001501","ADDRESS":"花蓮縣花蓮市和平路520號","TEL":"03-8361761","COUNTYNAME":"花蓮縣","TOWNNAME":"花蓮市","MARKTYPE":"994","Class":"4"},"geometry":{"x":121.60084500843028,"y":23.977586326970243}},{"attributes":{"OBJECTID":23452,"LANDMARKID":"1001500000002","LANDMARKCO":"101","LANDMARKNA":"花蓮憲兵隊","LANDMARKAD":"1001501","ADDRESS":"花蓮縣花蓮市公正街14號","TEL":"038-324240","COUNTYNAME":"花蓮縣","TOWNNAME":"花蓮市","MARKTYPE":"991","Class":"1"},"geometry":{"x":121.61077105315665,"y":23.97806878400128}},{"attributes":{"OBJECTID":23453,"LANDMARKID":"1001500000223","LANDMARKCO":"107","LANDMARKNA":"花蓮縣警察局花蓮分局","LANDMARKAD":"1001501","ADDRESS":"花蓮縣花蓮市民族里軒轅路32號","TEL":"03-8354008","COUNTYNAME":"花蓮縣","TOWNNAME":"花蓮市","MARKTYPE":"991","Class":"1"},"geometry":{"x":121.61205737495908,"y":23.977618151978216}},{"attributes":{"OBJECTID":23454,"LANDMARKID":"1001500000224","LANDMARKCO":"107","LANDMARKNA":"花蓮縣警察局美崙派出所","LANDMARKAD":"1001501","ADDRESS":"花蓮縣花蓮市民運里民權路209號","TEL":"03-8228341","COUNTYNAME":"花蓮縣","TOWNNAME":"花蓮市","MARKTYPE":"991","Class":"1"},"geometry":{"x":121.63170612959217,"y":23.994873622669072}},{"attributes":{"OBJECTID":23455,"LANDMARKID":"1001500000225","LANDMARKCO":"107","LANDMARKNA":"花蓮縣警察局軒轅派出所","LANDMARKAD":"1001501","ADDRESS":"花蓮縣花蓮市民族里軒轅路32號","TEL":"03-8328344","COUNTYNAME":"花蓮縣","TOWNNAME":"花蓮市","MARKTYPE":"991","Class":"1"},"geometry":{"x":121.61205737495908,"y":23.977618151978216}},{"attributes":{"OBJECTID":23456,"LANDMARKID":"1001500000003","LANDMARKCO":"101","LANDMARKNA":"國有財產局台灣北區辦事處花蓮分處","LANDMARKAD":"1001501","ADDRESS":"花蓮縣花蓮市順興路43號","TEL":"03-8225297","COUNTYNAME":"花蓮縣","TOWNNAME":"花蓮市","MARKTYPE":"991","Class":"1"},"geometry":{"x":121.62834209119856,"y":23.992181103309981}},{"attributes":{"OBJECTID":23457,"LANDMARKID":"1001500000004","LANDMARKCO":"101","LANDMARKNA":"中央氣象局花蓮氣象站","LANDMARKAD":"1001501","ADDRESS":"花蓮縣花蓮市花崗街24號","TEL":"03-8322025","COUNTYNAME":"花蓮縣","TOWNNAME":"花蓮市","MARKTYPE":"991","Class":"1"},"geometry":{"x":121.61337153402097,"y":23.975260005327485}},{"attributes":{"OBJECTID":23458,"LANDMARKID":"1001500000005","LANDMARKCO":"101","LANDMARKNA":"農糧署東區分署","LANDMARKAD":"1001501","ADDRESS":"花蓮縣花蓮市中華路512號","TEL":"03-8523191","COUNTYNAME":"花蓮縣","TOWNNAME":"花蓮市","MARKTYPE":"991","Class":"1"},"geometry":{"x":121.59018603555849,"y":23.974452073609044}},{"attributes":{"OBJECTID":23459,"LANDMARKID":"1001500000079","LANDMARKCO":"103","LANDMARKNA":"花蓮縣政府衛生局","LANDMARKAD":"1001501","ADDRESS":"花蓮縣花蓮市新興路200號","TEL":"03-8227141","COUNTYNAME":"花蓮縣","TOWNNAME":"花蓮市","MARKTYPE":"991","Class":"1"},"geometry":{"x":121.61716406798988,"y":23.991432267982017}},{"attributes":{"OBJECTID":23460,"LANDMARKID":"1001500000227","LANDMARKCO":"108","LANDMARKNA":"花蓮縣花蓮巿公所","LANDMARKAD":"1001501","ADDRESS":"花蓮縣花蓮市林森路252號","TEL":"03-8322141","COUNTYNAME":"花蓮縣","TOWNNAME":"花蓮市","MARKTYPE":"991","Class":"1"},"geometry":{"x":121.60682540459796,"y":23.982062002880877}},{"attributes":{"OBJECTID":23461,"LANDMARKID":"1001500000081","LANDMARKCO":"103","LANDMARKNA":"花蓮縣花蓮市市民代表會","LANDMARKAD":"1001501","ADDRESS":"花蓮縣花蓮市光復街112號","TEL":"03-8322839","COUNTYNAME":"花蓮縣","TOWNNAME":"花蓮市","MARKTYPE":"991","Class":"1"},"geometry":{"x":121.60567477142922,"y":23.979533879201014}},{"attributes":{"OBJECTID":23462,"LANDMARKID":"1001500000210","LANDMARKCO":"107","LANDMARKNA":"花蓮港務消防隊","LANDMARKAD":"1001501","ADDRESS":"花蓮縣花蓮市港口路25號","TEL":"03-8235119","COUNTYNAME":"花蓮縣","TOWNNAME":"花蓮市","MARKTYPE":"991","Class":"1"},"geometry":{"x":121.63448577648063,"y":23.999096846273222}},{"attributes":{"OBJECTID":23463,"LANDMARKID":"1001500000211","LANDMARKCO":"107","LANDMARKNA":"花蓮縣消防局","LANDMARKAD":"1001501","ADDRESS":"花蓮縣花蓮市三民街53號","TEL":"03-8322119","COUNTYNAME":"花蓮縣","TOWNNAME":"花蓮市","MARKTYPE":"991","Class":"1"},"geometry":{"x":121.60754969749539,"y":23.981749269333971}},{"attributes":{"OBJECTID":23464,"LANDMARKID":"1001500000212","LANDMARKCO":"107","LANDMARKNA":"花蓮縣消防局美崙消防分隊","LANDMARKAD":"1001501","ADDRESS":"花蓮縣花蓮市精美路16號之2","TEL":"03-8242119","COUNTYNAME":"花蓮縣","TOWNNAME":"花蓮市","MARKTYPE":"991","Class":"1"},"geometry":{"x":121.63038813928023,"y":24.013184328864686}},{"attributes":{"OBJECTID":23465,"LANDMARKID":"1001500000213","LANDMARKCO":"107","LANDMARKNA":"花蓮縣消防局花蓮消防分隊","LANDMARKAD":"1001501","ADDRESS":"花蓮縣花蓮市三民街53號","TEL":"03-8322849","COUNTYNAME":"花蓮縣","TOWNNAME":"花蓮市","MARKTYPE":"991","Class":"1"},"geometry":{"x":121.60754969749539,"y":23.981749269333971}},{"attributes":{"OBJECTID":23466,"LANDMARKID":"1001500000214","LANDMARKCO":"107","LANDMARKNA":"花蓮縣警察局","LANDMARKAD":"1001501","ADDRESS":"花蓮縣花蓮市府前路21號","TEL":"03-8223146~9","COUNTYNAME":"花蓮縣","TOWNNAME":"花蓮市","MARKTYPE":"991","Class":"1"},"geometry":{"x":121.62017504547811,"y":23.993197910088888}},{"attributes":{"OBJECTID":23467,"LANDMARKID":"1001500000215","LANDMARKCO":"107","LANDMARKNA":"花蓮縣警察局民意派出所","LANDMARKAD":"1001501","ADDRESS":"花蓮縣花蓮市民意里府前路518號","TEL":"03-8227827","COUNTYNAME":"花蓮縣","TOWNNAME":"花蓮市","MARKTYPE":"991","Class":"1"},"geometry":{"x":121.62026971254274,"y":24.001088677192246}},{"attributes":{"OBJECTID":23468,"LANDMARKID":"1001500000216","LANDMARKCO":"107","LANDMARKNA":"花蓮縣警察局豐川派出所","LANDMARKAD":"1001501","ADDRESS":"花蓮縣花蓮市國民八街15號","TEL":"03-8357871","COUNTYNAME":"花蓮縣","TOWNNAME":"花蓮市","MARKTYPE":"991","Class":"1"},"geometry":{"x":121.60447972265865,"y":23.993202653030735}},{"attributes":{"OBJECTID":23469,"LANDMARKID":"1001500000217","LANDMARKCO":"107","LANDMARKNA":"花蓮縣警察局中華派出所","LANDMARKAD":"1001501","ADDRESS":"花蓮縣花蓮市主力里中華路300號","TEL":"03-8328342","COUNTYNAME":"花蓮縣","TOWNNAME":"花蓮市","MARKTYPE":"991","Class":"1"},"geometry":{"x":121.59852294361717,"y":23.975196180725771}},{"attributes":{"OBJECTID":23470,"LANDMARKID":"1001500000218","LANDMARKCO":"107","LANDMARKNA":"花蓮縣警察局中正派出所","LANDMARKAD":"1001501","ADDRESS":"花蓮縣花蓮市主信里中正路448號","TEL":"03-8326822","COUNTYNAME":"花蓮縣","TOWNNAME":"花蓮市","MARKTYPE":"991","Class":"1"},"geometry":{"x":121.60505955973228,"y":23.975401397899436}},{"attributes":{"OBJECTID":23471,"LANDMARKID":"1001500000219","LANDMARKCO":"107","LANDMARKNA":"花蓮縣警察局中山派出所","LANDMARKAD":"1001501","ADDRESS":"花蓮縣花蓮市國威里林森路232號","TEL":"03-8328343","COUNTYNAME":"花蓮縣","TOWNNAME":"花蓮市","MARKTYPE":"991","Class":"1"},"geometry":{"x":121.6055113165169,"y":23.981302977431717}},{"attributes":{"OBJECTID":23472,"LANDMARKID":"1001500000220","LANDMARKCO":"107","LANDMARKNA":"花蓮港務警察所","LANDMARKAD":"1001501","ADDRESS":"花蓮縣花蓮市港口路13號","TEL":"03-8227701","COUNTYNAME":"花蓮縣","TOWNNAME":"花蓮市","MARKTYPE":"991","Class":"1"},"geometry":{"x":121.63497848613095,"y":23.997223683251679}},{"attributes":{"OBJECTID":23473,"LANDMARKID":"1001500000221","LANDMARKCO":"107","LANDMARKNA":"內政部入出國及移民署","LANDMARKAD":"1001501","ADDRESS":"花蓮縣花蓮市中山路371號5F","TEL":"03-8329700","COUNTYNAME":"花蓮縣","TOWNNAME":"花蓮市","MARKTYPE":"991","Class":"1"},"geometry":{"x":121.60575821322438,"y":23.981438378024251}},{"attributes":{"OBJECTID":23474,"LANDMARKID":"1001500000222","LANDMARKCO":"107","LANDMARKNA":"花蓮縣警察局自強派出所","LANDMARKAD":"1001501","ADDRESS":"花蓮縣花蓮市國裕里富安路140號","TEL":"03-8569374","COUNTYNAME":"花蓮縣","TOWNNAME":"花蓮市","MARKTYPE":"991","Class":"1"},"geometry":{"x":121.60038878849934,"y":23.996447349850726}},{"attributes":{"OBJECTID":23475,"LANDMARKID":"1001500000080","LANDMARKCO":"103","LANDMARKNA":"花蓮縣政府民政局","LANDMARKAD":"1001501","ADDRESS":"花蓮縣花蓮市府前路17號","TEL":"03-8227171","COUNTYNAME":"花蓮縣","TOWNNAME":"花蓮市","MARKTYPE":"991","Class":"1"},"geometry":{"x":121.61952269991247,"y":23.991424443571553}},{"attributes":{"OBJECTID":23476,"LANDMARKID":"1001500000099","LANDMARKCO":"106","LANDMARKNA":"花蓮縣花蓮市戶政事務所","LANDMARKAD":"1001501","ADDRESS":"花蓮縣花蓮市國威里25鄰復興街67號","TEL":"03-8339641","COUNTYNAME":"花蓮縣","TOWNNAME":"花蓮市","MARKTYPE":"991","Class":"1"},"geometry":{"x":121.6067013098115,"y":23.981403836361839}},{"attributes":{"OBJECTID":23477,"LANDMARKID":"1001500000097","LANDMARKCO":"105","LANDMARKNA":"花蓮縣政府地政局","LANDMARKAD":"1001501","ADDRESS":"花蓮縣花蓮市府前路17號","TEL":"03-8227171","COUNTYNAME":"花蓮縣","TOWNNAME":"花蓮市","MARKTYPE":"991","Class":"1"},"geometry":{"x":121.61952269991247,"y":23.991424443571553}},{"attributes":{"OBJECTID":23478,"LANDMARKID":"1001500000098","LANDMARKCO":"105","LANDMARKNA":"花蓮縣花蓮地政事務所","LANDMARKAD":"1001501","ADDRESS":"花蓮縣花蓮市府後路23號","TEL":"03-8225135","COUNTYNAME":"花蓮縣","TOWNNAME":"花蓮市","MARKTYPE":"991","Class":"1"},"geometry":{"x":121.61834888946012,"y":23.992361727893204}},{"attributes":{"OBJECTID":23479,"LANDMARKID":"1001500000006","LANDMARKCO":"101","LANDMARKNA":"國立教育廣播電台花蓮分台","LANDMARKAD":"1001501","ADDRESS":"花蓮縣花蓮市東興路457號","TEL":"03-8225625","COUNTYNAME":"花蓮縣","TOWNNAME":"花蓮市","MARKTYPE":"991","Class":"1"},"geometry":{"x":121.63105805348332,"y":24.006535677946566}},{"attributes":{"OBJECTID":23480,"LANDMARKID":"1001500000007","LANDMARKCO":"101","LANDMARKNA":"中央健康保險局東區分局","LANDMARKAD":"1001501","ADDRESS":"花蓮市軒轅路36號","TEL":"038-332111","COUNTYNAME":"花蓮縣","TOWNNAME":"花蓮市","MARKTYPE":"991","Class":"1"},"geometry":{"x":121.61201757362447,"y":23.976525908686067}},{"attributes":{"OBJECTID":23481,"LANDMARKID":"1001500000008","LANDMARKCO":"101","LANDMARKNA":"標準檢驗局花蓮分局","LANDMARKAD":"1001501","ADDRESS":"花蓮縣花蓮市海岸路19號","TEL":"03-8221121","COUNTYNAME":"花蓮縣","TOWNNAME":"花蓮市","MARKTYPE":"991","Class":"1"},"geometry":{"x":121.63313421875957,"y":23.990392405441906}},{"attributes":{"OBJECTID":23482,"LANDMARKID":"1001500000090","LANDMARKCO":"104","LANDMARKNA":"北區國稅局花蓮縣分局","LANDMARKAD":"1001501","ADDRESS":"花蓮市府前路612號","TEL":"03-8233860","COUNTYNAME":"花蓮縣","TOWNNAME":"花蓮市","MARKTYPE":"991","Class":"1"},"geometry":{"x":121.61942157877318,"y":24.004226511060534}},{"attributes":{"OBJECTID":23483,"LANDMARKID":"1001500000009","LANDMARKCO":"101","LANDMARKNA":"台灣花蓮地方法院花蓮簡易庭","LANDMARKAD":"1001501","ADDRESS":"花蓮縣花蓮市球崙一路286號","TEL":"03-8233422","COUNTYNAME":"花蓮縣","TOWNNAME":"花蓮市","MARKTYPE":"991","Class":"1"},"geometry":{"x":121.623206987313,"y":24.006773539366939}},{"attributes":{"OBJECTID":23484,"LANDMARKID":"1001500000010","LANDMARKCO":"101","LANDMARKNA":"台灣高等法院花蓮分院","LANDMARKAD":"1001501","ADDRESS":"花蓮縣花蓮市民權路127號","TEL":"03-8225116","COUNTYNAME":"花蓮縣","TOWNNAME":"花蓮市","MARKTYPE":"991","Class":"1"},"geometry":{"x":121.62716563324277,"y":23.99108688615291}},{"attributes":{"OBJECTID":23485,"LANDMARKID":"1001500000011","LANDMARKCO":"101","LANDMARKNA":"台灣花蓮地方法院","LANDMARKAD":"1001501","ADDRESS":"花蓮縣花蓮市府前路15號","TEL":"03-8225144","COUNTYNAME":"花蓮縣","TOWNNAME":"花蓮市","MARKTYPE":"991","Class":"1"},"geometry":{"x":121.61947507235976,"y":23.989528653067484}},{"attributes":{"OBJECTID":23486,"LANDMARKID":"1001500000078","LANDMARKCO":"103","LANDMARKNA":"調查局花蓮縣調查站","LANDMARKAD":"1001501","ADDRESS":"花蓮縣花蓮市中美路3之33號","TEL":"03-8322074","COUNTYNAME":"花蓮縣","TOWNNAME":"花蓮市","MARKTYPE":"991","Class":"1"},"geometry":{"x":121.61846207732322,"y":23.983223266354397}},{"attributes":{"OBJECTID":23487,"LANDMARKID":"1001500000032","LANDMARKCO":"101","LANDMARKNA":"調查局東部地區機動工作組","LANDMARKAD":"1001501","ADDRESS":"花蓮縣花蓮市瑞美路7號","TEL":"03-8233712","COUNTYNAME":"花蓮縣","TOWNNAME":"花蓮市","MARKTYPE":"991","Class":"1"},"geometry":{"x":121.61737891022933,"y":23.992676542846084}},{"attributes":{"OBJECTID":23488,"LANDMARKID":"1001500000066","LANDMARKCO":"103","LANDMARKNA":"花蓮縣議會","LANDMARKAD":"1001501","ADDRESS":"花蓮縣花蓮市府前路23號","TEL":"03-8226111","COUNTYNAME":"花蓮縣","TOWNNAME":"花蓮市","MARKTYPE":"991","Class":"1"},"geometry":{"x":121.6209697315858,"y":23.994076359758211}},{"attributes":{"OBJECTID":23489,"LANDMARKID":"1001500000012","LANDMARKCO":"101","LANDMARKNA":"工業技術研究院能源與資源研究所","LANDMARKAD":"1001501","ADDRESS":"花蓮縣花蓮市精美路18號1樓","TEL":"03-8222649","COUNTYNAME":"花蓮縣","TOWNNAME":"花蓮市","MARKTYPE":"991","Class":"1"},"geometry":{"x":121.63004001365282,"y":24.013774100845207}},{"attributes":{"OBJECTID":23490,"LANDMARKID":"1001500000013","LANDMARKCO":"101","LANDMARKNA":"交通部花蓮港務局","LANDMARKAD":"1001501","ADDRESS":"花蓮縣花蓮市海岸路66號","TEL":"03-8325131","COUNTYNAME":"花蓮縣","TOWNNAME":"花蓮市","MARKTYPE":"991","Class":"1"},"geometry":{"x":121.61994221647113,"y":23.980414413678112}},{"attributes":{"OBJECTID":23491,"LANDMARKID":"1001500000014","LANDMARKCO":"101","LANDMARKNA":"衛生署疾病管制局第六分局","LANDMARKAD":"1001501","ADDRESS":"花蓮縣花蓮市港口路5號","TEL":"03-8242251","COUNTYNAME":"花蓮縣","TOWNNAME":"花蓮市","MARKTYPE":"991","Class":"1"},"geometry":{"x":121.6352127376158,"y":23.995668744739394}},{"attributes":{"OBJECTID":23492,"LANDMARKID":"1001500000091","LANDMARKCO":"104","LANDMARKNA":"關稅總局基隆關稅局花蓮分局","LANDMARKAD":"1001501","ADDRESS":"花蓮縣花蓮市港口路7號","TEL":"03-8226145","COUNTYNAME":"花蓮縣","TOWNNAME":"花蓮市","MARKTYPE":"991","Class":"1"},"geometry":{"x":121.63515722819345,"y":23.996021351292367}},{"attributes":{"OBJECTID":23493,"LANDMARKID":"1001500000015","LANDMARKCO":"101","LANDMARKNA":"交通部花蓮港務局棧埠工程處","LANDMARKAD":"1001501","ADDRESS":"花蓮縣花蓮市海岸路66號4樓","TEL":"03-8340987","COUNTYNAME":"花蓮縣","TOWNNAME":"花蓮市","MARKTYPE":"991","Class":"1"},"geometry":{"x":121.61994221647113,"y":23.980414413678112}},{"attributes":{"OBJECTID":23494,"LANDMARKID":"1001500000016","LANDMARKCO":"101","LANDMARKNA":"營建署東區工程組","LANDMARKAD":"1001501","ADDRESS":"花蓮縣花蓮市文苑路6號","TEL":"03-8228119","COUNTYNAME":"花蓮縣","TOWNNAME":"花蓮市","MARKTYPE":"991","Class":"1"},"geometry":{"x":121.63008588172612,"y":23.990216499864101}},{"attributes":{"OBJECTID":23495,"LANDMARKID":"1001500000017","LANDMARKCO":"101","LANDMARKNA":"經濟部礦務局東區辦事處","LANDMARKAD":"1001501","ADDRESS":"花蓮縣花蓮市文苑路10號","TEL":"03-8221157","COUNTYNAME":"花蓮縣","TOWNNAME":"花蓮市","MARKTYPE":"991","Class":"1"},"geometry":{"x":121.6296771802109,"y":23.990635209176688}},{"attributes":{"OBJECTID":23496,"LANDMARKID":"1001500000018","LANDMARKCO":"101","LANDMARKNA":"內政部東區老人之家","LANDMARKAD":"1001501","ADDRESS":"花蓮縣花蓮市民權路125號","TEL":"03-8221148","COUNTYNAME":"花蓮縣","TOWNNAME":"花蓮市","MARKTYPE":"991","Class":"1"},"geometry":{"x":121.6268849930305,"y":23.989509035952178}},{"attributes":{"OBJECTID":23497,"LANDMARKID":"1001500000077","LANDMARKCO":"103","LANDMARKNA":"花蓮縣環境保護局","LANDMARKAD":"1001501","ADDRESS":"花蓮縣花蓮市民權路123號","TEL":"03-8237575","COUNTYNAME":"花蓮縣","TOWNNAME":"花蓮市","MARKTYPE":"991","Class":"1"},"geometry":{"x":121.62642805448536,"y":23.989007122531728}},{"attributes":{"OBJECTID":23498,"LANDMARKID":"1001500000019","LANDMARKCO":"101","LANDMARKNA":"國軍退除役官兵輔導委員會","LANDMARKAD":"1001501","ADDRESS":"花蓮市菁華街6之1號?","TEL":"03-8362696","COUNTYNAME":"花蓮縣","TOWNNAME":"花蓮市","MARKTYPE":"991","Class":"1"},"geometry":{"x":121.61654901651022,"y":23.980112429985425}},{"attributes":{"OBJECTID":23499,"LANDMARKID":"1001500000020","LANDMARKCO":"101","LANDMARKNA":"國軍退除役官兵輔導委員會","LANDMARKAD":"1001501","ADDRESS":"花蓮縣花蓮市府前路29號","TEL":"03-8223111","COUNTYNAME":"花蓮縣","TOWNNAME":"花蓮市","MARKTYPE":"991","Class":"1"},"geometry":{"x":121.61817267148236,"y":24.001744534405123}},{"attributes":{"OBJECTID":23500,"LANDMARKID":"1001500000076","LANDMARKCO":"103","LANDMARKNA":"花蓮縣長期照顧管理中心","LANDMARKAD":"1001501","ADDRESS":"花蓮市文苑路12號3樓","TEL":"03-8226889","COUNTYNAME":"花蓮縣","TOWNNAME":"花蓮市","MARKTYPE":"991","Class":"1"},"geometry":{"x":121.62895364748529,"y":23.991020381296916}},{"attributes":{"OBJECTID":23501,"LANDMARKID":"1001500000092","LANDMARKCO":"104","LANDMARKNA":"花蓮縣稅捐稽徵處","LANDMARKAD":"1001501","ADDRESS":"花蓮縣花蓮市府前路19號","TEL":"03-8226121","COUNTYNAME":"花蓮縣","TOWNNAME":"花蓮市","MARKTYPE":"991","Class":"1"},"geometry":{"x":121.61994105781748,"y":23.992369096924243}},{"attributes":{"OBJECTID":23502,"LANDMARKID":"1001500000021","LANDMARKCO":"101","LANDMARKNA":"台灣更生保護會花蓮分會","LANDMARKAD":"1001501","ADDRESS":"花蓮縣花蓮市府前路15號檢棟","TEL":"03-8230148","COUNTYNAME":"花蓮縣","TOWNNAME":"花蓮市","MARKTYPE":"991","Class":"1"},"geometry":{"x":121.61947507235976,"y":23.989528653067484}},{"attributes":{"OBJECTID":23503,"LANDMARKID":"1001500000022","LANDMARKCO":"101","LANDMARKNA":"營建署新生地開發局","LANDMARKAD":"1001501","ADDRESS":"花蓮縣花蓮市介壽五街2號","TEL":"03-8221191","COUNTYNAME":"花蓮縣","TOWNNAME":"花蓮市","MARKTYPE":"991","Class":"1"},"geometry":{"x":121.61957388663062,"y":23.990611383710604}},{"attributes":{"OBJECTID":23504,"LANDMARKID":"1001500000023","LANDMARKCO":"101","LANDMARKNA":"衛生署藥物食品檢驗局東部檢驗站","LANDMARKAD":"1001501","ADDRESS":"花蓮縣花蓮市新興路202號2樓","TEL":"03-8235935","COUNTYNAME":"花蓮縣","TOWNNAME":"花蓮市","MARKTYPE":"991","Class":"1"},"geometry":{"x":121.61755968692728,"y":23.992052058389671}},{"attributes":{"OBJECTID":23505,"LANDMARKID":"1001500000075","LANDMARKCO":"103","LANDMARKNA":"花蓮縣審計室","LANDMARKAD":"1001501","ADDRESS":"花蓮縣花蓮市府後路21號1樓","TEL":"03-8223261","COUNTYNAME":"花蓮縣","TOWNNAME":"花蓮市","MARKTYPE":"991","Class":"1"},"geometry":{"x":121.61865112034769,"y":23.992106467073206}},{"attributes":{"OBJECTID":23506,"LANDMARKID":"1001500000024","LANDMARKCO":"101","LANDMARKNA":"台灣花蓮地方法院觀護人室","LANDMARKAD":"1001501","ADDRESS":"花蓮縣花蓮市府前路15號","TEL":"03-8223656","COUNTYNAME":"花蓮縣","TOWNNAME":"花蓮市","MARKTYPE":"991","Class":"1"},"geometry":{"x":121.61947507235976,"y":23.989528653067484}},{"attributes":{"OBJECTID":23507,"LANDMARKID":"1001500000025","LANDMARKCO":"101","LANDMARKNA":"財團法人犯罪被害人保護協會","LANDMARKAD":"1001501","ADDRESS":"花蓮縣花蓮市府前路15號","TEL":"03-8239107","COUNTYNAME":"花蓮縣","TOWNNAME":"花蓮市","MARKTYPE":"991","Class":"1"},"geometry":{"x":121.61947507235976,"y":23.989528653067484}},{"attributes":{"OBJECTID":23508,"LANDMARKID":"1001500000069","LANDMARKCO":"103","LANDMARKNA":"花蓮縣工商(業)發展投資策進會","LANDMARKAD":"1001501","ADDRESS":"花蓮市府前路17號3樓","TEL":"03-8223432","COUNTYNAME":"花蓮縣","TOWNNAME":"花蓮市","MARKTYPE":"991","Class":"1"},"geometry":{"x":121.61952269991247,"y":23.991424443571553}},{"attributes":{"OBJECTID":23509,"LANDMARKID":"1001500000070","LANDMARKCO":"103","LANDMARKNA":"花蓮縣立慢性病防治所","LANDMARKAD":"1001501","ADDRESS":"花蓮縣花蓮市新興路200號慢棟","TEL":"03-8227204","COUNTYNAME":"花蓮縣","TOWNNAME":"花蓮市","MARKTYPE":"991","Class":"1"},"geometry":{"x":121.61716406798988,"y":23.991432267982017}},{"attributes":{"OBJECTID":23510,"LANDMARKID":"1001500000071","LANDMARKCO":"103","LANDMARKNA":"花蓮縣政府","LANDMARKAD":"1001501","ADDRESS":"花蓮縣花蓮市府前路17號","TEL":"03-8227171","COUNTYNAME":"花蓮縣","TOWNNAME":"花蓮市","MARKTYPE":"991","Class":"1"},"geometry":{"x":121.61952269991247,"y":23.991424443571553}},{"attributes":{"OBJECTID":23511,"LANDMARKID":"1001500000072","LANDMARKCO":"103","LANDMARKNA":"花蓮縣家畜疾病防治所","LANDMARKAD":"1001501","ADDRESS":"花蓮縣花蓮市瑞美路5號","TEL":"03-8227431","COUNTYNAME":"花蓮縣","TOWNNAME":"花蓮市","MARKTYPE":"991","Class":"1"},"geometry":{"x":121.61770390350971,"y":23.992746161558685}},{"attributes":{"OBJECTID":23512,"LANDMARKID":"1001500000073","LANDMARKCO":"103","LANDMARKNA":"花蓮縣選舉委員會","LANDMARKAD":"1001501","ADDRESS":"花蓮縣花蓮市介壽五街2之2號","TEL":"03-8233425","COUNTYNAME":"花蓮縣","TOWNNAME":"花蓮市","MARKTYPE":"991","Class":"1"},"geometry":{"x":121.61918970547829,"y":23.990512997802831}},{"attributes":{"OBJECTID":23513,"LANDMARKID":"1001500000074","LANDMARKCO":"103","LANDMARKNA":"花蓮縣阿美建設協會","LANDMARKAD":"1001501","ADDRESS":"花蓮縣花蓮市信義街2號","TEL":"03-8349520","COUNTYNAME":"花蓮縣","TOWNNAME":"花蓮市","MARKTYPE":"991","Class":"1"},"geometry":{"x":121.60668861155752,"y":23.971345357039471}},{"attributes":{"OBJECTID":23514,"LANDMARKID":"1001500000026","LANDMARKCO":"101","LANDMARKNA":"水利署第九河川局","LANDMARKAD":"1001501","ADDRESS":"花蓮縣花蓮市仁愛街19號","TEL":"03-8325103","COUNTYNAME":"花蓮縣","TOWNNAME":"花蓮市","MARKTYPE":"991","Class":"1"},"geometry":{"x":121.6061105057188,"y":23.972911966908306}},{"attributes":{"OBJECTID":23515,"LANDMARKID":"1001500000027","LANDMARKCO":"101","LANDMARKNA":"外交部領事事務局花蓮辦事處","LANDMARKAD":"1001501","ADDRESS":"花蓮縣花蓮市中山路371號6樓","TEL":"03-8331041","COUNTYNAME":"花蓮縣","TOWNNAME":"花蓮市","MARKTYPE":"991","Class":"1"},"geometry":{"x":121.60575821322438,"y":23.981438378024251}},{"attributes":{"OBJECTID":23516,"LANDMARKID":"1001500000028","LANDMARKCO":"101","LANDMARKNA":"林務局花蓮林區管理處","LANDMARKAD":"1001501","ADDRESS":"花蓮縣花蓮市林政街1號","TEL":"03-8325141","COUNTYNAME":"花蓮縣","TOWNNAME":"花蓮市","MARKTYPE":"991","Class":"1"},"geometry":{"x":121.59414137220625,"y":23.977773024118349}},{"attributes":{"OBJECTID":23517,"LANDMARKID":"1001500000029","LANDMARKCO":"101","LANDMARKNA":"工業局美崙兼和平及光華工業區","LANDMARKAD":"1001501","ADDRESS":"花蓮縣花蓮市精美路16號","TEL":"03-8222030","COUNTYNAME":"花蓮縣","TOWNNAME":"花蓮市","MARKTYPE":"991","Class":"1"},"geometry":{"x":121.63038813928023,"y":24.013184328864686}},{"attributes":{"OBJECTID":23518,"LANDMARKID":"1001500000030","LANDMARKCO":"101","LANDMARKNA":"交通部東部鐵路改善工程局東部","LANDMARKAD":"1001501","ADDRESS":"花蓮縣花蓮市富裕二街32號之1","TEL":"03-8573855","COUNTYNAME":"花蓮縣","TOWNNAME":"花蓮市","MARKTYPE":"991","Class":"1"},"geometry":{"x":121.60004374362866,"y":23.993885748608655}},{"attributes":{"OBJECTID":23519,"LANDMARKID":"1001500000031","LANDMARKCO":"101","LANDMARKNA":"職業訓練局花蓮就業服務站","LANDMARKAD":"1001501","ADDRESS":"花蓮縣花蓮市國民三街25號","TEL":"03-8323262","COUNTYNAME":"花蓮縣","TOWNNAME":"花蓮市","MARKTYPE":"991","Class":"1"},"geometry":{"x":121.6022775331225,"y":23.989624461200144}},{"attributes":{"OBJECTID":23520,"LANDMARKID":"1001500000068","LANDMARKCO":"103","LANDMARKNA":"花蓮縣花蓮市衛生所","LANDMARKAD":"1001501","ADDRESS":"花蓮縣花蓮市新興路200號","TEL":"03-8230232","COUNTYNAME":"花蓮縣","TOWNNAME":"花蓮市","MARKTYPE":"991","Class":"1"},"geometry":{"x":121.61716406798988,"y":23.991432267982017}},{"attributes":{"OBJECTID":23521,"LANDMARKID":"1001500000226","LANDMARKCO":"107","LANDMARKNA":"花蓮縣消防局救災救護第一大隊","LANDMARKAD":"1001501","ADDRESS":"花蓮縣花蓮市三民街53號","TEL":"03-8344517","COUNTYNAME":"花蓮縣","TOWNNAME":"花蓮市","MARKTYPE":"991","Class":"1"},"geometry":{"x":121.60754969749539,"y":23.981749269333971}},{"attributes":{"OBJECTID":23522,"LANDMARKID":"1001500000067","LANDMARKCO":"103","LANDMARKNA":"花蓮市立殯儀館","LANDMARKAD":"1001501","ADDRESS":"花蓮縣花蓮市博愛街10之3號","TEL":"03-8342995","COUNTYNAME":"花蓮縣","TOWNNAME":"花蓮市","MARKTYPE":"991","Class":"1"},"geometry":{"x":121.61174274997582,"y":23.969620689406963}},{"attributes":{"OBJECTID":23523,"LANDMARKID":"1001500000033","LANDMARKCO":"101","LANDMARKNA":"海岸巡防總局第六(花蓮)海巡隊","LANDMARKAD":"1001501","ADDRESS":"花蓮縣花蓮市港濱路32號","TEL":"03-8233781","COUNTYNAME":"花蓮縣","TOWNNAME":"花蓮市","MARKTYPE":"991","Class":"1"},"geometry":{"x":121.64114804447695,"y":24.00033755425509}},{"attributes":{"OBJECTID":23524,"LANDMARKID":"1001500000034","LANDMARKCO":"101","LANDMARKNA":"台灣花蓮看守所","LANDMARKAD":"1001501","ADDRESS":"花蓮縣花蓮市美崙日新崗1號","TEL":"03-8227252","COUNTYNAME":"花蓮縣","TOWNNAME":"花蓮市","MARKTYPE":"991","Class":"1"},"geometry":{"x":121.61827031550688,"y":24.0050051139626}},{"attributes":{"OBJECTID":23525,"LANDMARKID":"1001500000421","LANDMARKCO":"205","LANDMARKNA":"十六股庄文物館","LANDMARKAD":"1001501","ADDRESS":"花蓮縣花蓮市國強里豐村72號","TEL":"03-8560110","COUNTYNAME":"花蓮縣","TOWNNAME":"花蓮市","MARKTYPE":"992","Class":"2"},"geometry":{"x":121.60090030161378,"y":24.002337860991052}},{"attributes":{"OBJECTID":23526,"LANDMARKID":"1001500000422","LANDMARKCO":"205","LANDMARKNA":"花蓮縣立石雕博物館","LANDMARKAD":"1001501","ADDRESS":"花蓮縣花蓮市文復路6號","TEL":" ","COUNTYNAME":"花蓮縣","TOWNNAME":"花蓮市","MARKTYPE":"992","Class":"2"},"geometry":{"x":121.62838540220406,"y":23.989748123649477}},{"attributes":{"OBJECTID":23527,"LANDMARKID":"1001500000423","LANDMARKCO":"205","LANDMARKNA":"花蓮縣政府文化局山地文物陳列室","LANDMARKAD":"1001501","ADDRESS":"花蓮縣花蓮市文復路6號","TEL":" ","COUNTYNAME":"花蓮縣","TOWNNAME":"花蓮市","MARKTYPE":"992","Class":"2"},"geometry":{"x":121.6283883003214,"y":23.989741227895401}},{"attributes":{"OBJECTID":23528,"LANDMARKID":"1001500000409","LANDMARKCO":"204","LANDMARKNA":"花蓮縣立圖書館花蓮分館","LANDMARKAD":"1001501","ADDRESS":"花蓮縣花蓮市國聯一路170號","TEL":" ","COUNTYNAME":"花蓮縣","TOWNNAME":"花蓮市","MARKTYPE":"992","Class":"2"},"geometry":{"x":121.60124337323931,"y":23.990219915797546}},{"attributes":{"OBJECTID":23529,"LANDMARKID":"1001500000246","LANDMARKCO":"202","LANDMARKNA":"私立四維高中","LANDMARKAD":"1001501","ADDRESS":"花蓮縣花蓮市德興38號","TEL":"03-8561369","COUNTYNAME":"花蓮縣","TOWNNAME":"花蓮市","MARKTYPE":"992","Class":"2"},"geometry":{"x":121.63015253480292,"y":23.993361250485012}},{"attributes":{"OBJECTID":23530,"LANDMARKID":"1001500000247","LANDMARKCO":"202","LANDMARKNA":"私立慈濟大學附屬高中","LANDMARKAD":"1001501","ADDRESS":"花蓮縣花蓮市介仁街176號","TEL":"03-8572823","COUNTYNAME":"花蓮縣","TOWNNAME":"花蓮市","MARKTYPE":"992","Class":"2"},"geometry":{"x":121.57339938772954,"y":24.000249739920534}},{"attributes":{"OBJECTID":23531,"LANDMARKID":"1001500000385","LANDMARKCO":"203","LANDMARKNA":"縣立北濱國小","LANDMARKAD":"1001501","ADDRESS":"花蓮縣花蓮市北濱街113號","TEL":"03-8324093","COUNTYNAME":"花蓮縣","TOWNNAME":"花蓮市","MARKTYPE":"992","Class":"2"},"geometry":{"x":121.61721464204753,"y":23.977779596871297}},{"attributes":{"OBJECTID":23532,"LANDMARKID":"1001500000386","LANDMARKCO":"203","LANDMARKNA":"縣立明義國小","LANDMARKAD":"1001501","ADDRESS":"花蓮縣花蓮市明義街107號","TEL":"03-8324270","COUNTYNAME":"花蓮縣","TOWNNAME":"花蓮市","MARKTYPE":"992","Class":"2"},"geometry":{"x":121.60327041355541,"y":23.978828561773152}},{"attributes":{"OBJECTID":23533,"LANDMARKID":"1001500000387","LANDMARKCO":"203","LANDMARKNA":"縣立信義國小","LANDMARKAD":"1001501","ADDRESS":"花蓮縣花蓮市主計里信義街1號","TEL":"03-8331163","COUNTYNAME":"花蓮縣","TOWNNAME":"花蓮市","MARKTYPE":"992","Class":"2"},"geometry":{"x":121.60623467823569,"y":23.971141268123922}},{"attributes":{"OBJECTID":23534,"LANDMARKID":"1001500000248","LANDMARKCO":"202","LANDMARKNA":"國立花蓮高中","LANDMARKAD":"1001501","ADDRESS":"花蓮縣花蓮市民權路42號","TEL":"03-8228715","COUNTYNAME":"花蓮縣","TOWNNAME":"花蓮市","MARKTYPE":"992","Class":"2"},"geometry":{"x":121.62593778570395,"y":23.986717711514519}},{"attributes":{"OBJECTID":23535,"LANDMARKID":"1001500000249","LANDMARKCO":"202","LANDMARKNA":"國立花蓮女中","LANDMARKAD":"1001501","ADDRESS":"花蓮縣花蓮市菁華街2號","TEL":"03-8321202","COUNTYNAME":"花蓮縣","TOWNNAME":"花蓮市","MARKTYPE":"992","Class":"2"},"geometry":{"x":121.6152356531331,"y":23.979445767903332}},{"attributes":{"OBJECTID":23536,"LANDMARKID":"1001500000250","LANDMARKCO":"202","LANDMARKNA":"國立花蓮高商","LANDMARKAD":"1001501","ADDRESS":"花蓮縣花蓮市中山路418號","TEL":"03-8322532","COUNTYNAME":"花蓮縣","TOWNNAME":"花蓮市","MARKTYPE":"992","Class":"2"},"geometry":{"x":121.60247775242435,"y":23.986516819906885}},{"attributes":{"OBJECTID":23537,"LANDMARKID":"1001500000251","LANDMARKCO":"202","LANDMARKNA":"私立國光商工","LANDMARKAD":"1001501","ADDRESS":"花蓮縣花蓮市中正路108號","TEL":"03-8356375","COUNTYNAME":"花蓮縣","TOWNNAME":"花蓮市","MARKTYPE":"992","Class":"2"},"geometry":{"x":121.59782973495004,"y":23.969386775608779}},{"attributes":{"OBJECTID":23538,"LANDMARKID":"1001500000252","LANDMARKCO":"202","LANDMARKNA":"國立花蓮高工","LANDMARKAD":"1001501","ADDRESS":"花蓮縣花蓮市府前路27號","TEL":"03-8226108","COUNTYNAME":"花蓮縣","TOWNNAME":"花蓮市","MARKTYPE":"992","Class":"2"},"geometry":{"x":121.61992611459351,"y":23.998716779090596}},{"attributes":{"OBJECTID":23539,"LANDMARKID":"1001500000253","LANDMARKCO":"202","LANDMARKNA":"國立花蓮高農","LANDMARKAD":"1001501","ADDRESS":"花蓮縣花蓮市建國路161號","TEL":"03-8322076","COUNTYNAME":"花蓮縣","TOWNNAME":"花蓮市","MARKTYPE":"992","Class":"2"},"geometry":{"x":121.59896476594265,"y":23.983571893689149}},{"attributes":{"OBJECTID":23540,"LANDMARKID":"1001500000254","LANDMARKCO":"202","LANDMARKNA":"縣立體育實驗高中","LANDMARKAD":"1001501","ADDRESS":"花蓮市達固湖灣大路21號","TEL":"03-8462610","COUNTYNAME":"花蓮縣","TOWNNAME":"花蓮市","MARKTYPE":"992","Class":"2"},"geometry":{"x":121.58428177300435,"y":24.002972395551719}},{"attributes":{"OBJECTID":23541,"LANDMARKID":"1001500000369","LANDMARKCO":"203","LANDMARKNA":"縣立花崗國中","LANDMARKAD":"1001501","ADDRESS":"花蓮縣花蓮市公園路40號","TEL":"03-8324561","COUNTYNAME":"花蓮縣","TOWNNAME":"花蓮市","MARKTYPE":"992","Class":"2"},"geometry":{"x":121.61230397442729,"y":23.977715507544502}},{"attributes":{"OBJECTID":23542,"LANDMARKID":"1001500000370","LANDMARKCO":"203","LANDMARKNA":"縣立美崙國中","LANDMARKAD":"1001501","ADDRESS":"花蓮縣花蓮市化道路40巷1號","TEL":"03-8223537","COUNTYNAME":"花蓮縣","TOWNNAME":"花蓮市","MARKTYPE":"992","Class":"2"},"geometry":{"x":121.62771139861415,"y":23.99781818494785}},{"attributes":{"OBJECTID":23543,"LANDMARKID":"1001500000371","LANDMARKCO":"203","LANDMARKNA":"縣立國風國中","LANDMARKAD":"1001501","ADDRESS":"花蓮縣花蓮市國風里林政街7號","TEL":"03-8324599","COUNTYNAME":"花蓮縣","TOWNNAME":"花蓮市","MARKTYPE":"992","Class":"2"},"geometry":{"x":121.59537617698675,"y":23.97847848412443}},{"attributes":{"OBJECTID":23544,"LANDMARKID":"1001500000372","LANDMARKCO":"203","LANDMARKNA":"縣立自強國中","LANDMARKAD":"1001501","ADDRESS":"花蓮縣花蓮市裕祥路89號","TEL":"03-8567320","COUNTYNAME":"花蓮縣","TOWNNAME":"花蓮市","MARKTYPE":"992","Class":"2"},"geometry":{"x":121.59906275162881,"y":23.997918622237155}},{"attributes":{"OBJECTID":23545,"LANDMARKID":"1001500000373","LANDMARKCO":"203","LANDMARKNA":"縣立復興國小","LANDMARKAD":"1001501","ADDRESS":"花蓮縣花蓮市府前路682號","TEL":"03-8223208","COUNTYNAME":"花蓮縣","TOWNNAME":"花蓮市","MARKTYPE":"992","Class":"2"},"geometry":{"x":121.61930420054226,"y":24.006701458300867}},{"attributes":{"OBJECTID":23546,"LANDMARKID":"1001500000374","LANDMARKCO":"203","LANDMARKNA":"縣立明廉國小","LANDMARKAD":"1001501","ADDRESS":"花蓮縣花蓮市中山路903號","TEL":"03-8322613","COUNTYNAME":"花蓮縣","TOWNNAME":"花蓮市","MARKTYPE":"992","Class":"2"},"geometry":{"x":121.59472425304068,"y":23.995007095520435}},{"attributes":{"OBJECTID":23547,"LANDMARKID":"1001500000375","LANDMARKCO":"203","LANDMARKNA":"私立慈濟大學附實小","LANDMARKAD":"1001501","ADDRESS":"花蓮縣花蓮市介仁街178號","TEL":"03-8572823","COUNTYNAME":"花蓮縣","TOWNNAME":"花蓮市","MARKTYPE":"992","Class":"2"},"geometry":{"x":121.57421456575568,"y":23.999900566545289}},{"attributes":{"OBJECTID":23548,"LANDMARKID":"1001500000376","LANDMARKCO":"203","LANDMARKNA":"縣立中正國小","LANDMARKAD":"1001501","ADDRESS":"花蓮縣花蓮市中正路210號","TEL":"03-8322819","COUNTYNAME":"花蓮縣","TOWNNAME":"花蓮市","MARKTYPE":"992","Class":"2"},"geometry":{"x":121.5997248311059,"y":23.971683474465205}},{"attributes":{"OBJECTID":23549,"LANDMARKID":"1001500000377","LANDMARKCO":"203","LANDMARKNA":"國立花蓮師範學院附小","LANDMARKAD":"1001501","ADDRESS":"花蓮縣花蓮市永安街100號","TEL":"03-8222344","COUNTYNAME":"花蓮縣","TOWNNAME":"花蓮市","MARKTYPE":"992","Class":"2"},"geometry":{"x":121.62257525485143,"y":23.991013672546224}},{"attributes":{"OBJECTID":23550,"LANDMARKID":"1001500000378","LANDMARKCO":"203","LANDMARKNA":"縣立忠孝國小","LANDMARKAD":"1001501","ADDRESS":"花蓮縣花蓮市中華路298號","TEL":"03-8351218","COUNTYNAME":"花蓮縣","TOWNNAME":"花蓮市","MARKTYPE":"992","Class":"2"},"geometry":{"x":121.59864502847029,"y":23.975646700513717}},{"attributes":{"OBJECTID":23551,"LANDMARKID":"1001500000379","LANDMARKCO":"203","LANDMARKNA":"縣立明恥國小","LANDMARKAD":"1001501","ADDRESS":"花蓮縣花蓮市中興路41號","TEL":"03-8222231","COUNTYNAME":"花蓮縣","TOWNNAME":"花蓮市","MARKTYPE":"992","Class":"2"},"geometry":{"x":121.63100199315261,"y":23.991827540079878}},{"attributes":{"OBJECTID":23552,"LANDMARKID":"1001500000380","LANDMARKCO":"203","LANDMARKNA":"私立海星國小","LANDMARKAD":"1001501","ADDRESS":"花蓮縣花蓮市永興路21號","TEL":"03-8225407","COUNTYNAME":"花蓮縣","TOWNNAME":"花蓮市","MARKTYPE":"992","Class":"2"},"geometry":{"x":121.62480372208853,"y":23.992142228005662}},{"attributes":{"OBJECTID":23553,"LANDMARKID":"1001500000381","LANDMARKCO":"203","LANDMARKNA":"縣立明禮國小","LANDMARKAD":"1001501","ADDRESS":"花蓮縣花蓮市明禮路6號","TEL":"03-8322353","COUNTYNAME":"花蓮縣","TOWNNAME":"花蓮市","MARKTYPE":"992","Class":"2"},"geometry":{"x":121.61056334902685,"y":23.980011764155275}},{"attributes":{"OBJECTID":23554,"LANDMARKID":"1001500000382","LANDMARKCO":"203","LANDMARKNA":"縣立中華國小","LANDMARKAD":"1001501","ADDRESS":"花蓮縣花蓮市國防里國盛二街22號","TEL":"03-8324308","COUNTYNAME":"花蓮縣","TOWNNAME":"花蓮市","MARKTYPE":"992","Class":"2"},"geometry":{"x":121.60704297996348,"y":23.991956317365482}},{"attributes":{"OBJECTID":23555,"LANDMARKID":"1001500000383","LANDMARKCO":"203","LANDMARKNA":"縣立鑄強國小","LANDMARKAD":"1001501","ADDRESS":"花蓮縣花蓮市永興路20號","TEL":"03-8223787","COUNTYNAME":"花蓮縣","TOWNNAME":"花蓮市","MARKTYPE":"992","Class":"2"},"geometry":{"x":121.62553745257655,"y":23.992815716529442}},{"attributes":{"OBJECTID":23556,"LANDMARKID":"1001500000384","LANDMARKCO":"203","LANDMARKNA":"縣立中正國小中原分校","LANDMARKAD":"1001501","ADDRESS":"花蓮縣花蓮市中原路531號","TEL":"03-8322819","COUNTYNAME":"花蓮縣","TOWNNAME":"花蓮市","MARKTYPE":"992","Class":"2"},"geometry":{"x":121.59646306411408,"y":23.971752289771416}},{"attributes":{"OBJECTID":23557,"LANDMARKID":"1001500000244","LANDMARKCO":"201","LANDMARKNA":"私立慈濟技術學院","LANDMARKAD":"1001501","ADDRESS":"花蓮縣花蓮市建國路二段880號","TEL":"03-8572158","COUNTYNAME":"花蓮縣","TOWNNAME":"花蓮市","MARKTYPE":"992","Class":"2"},"geometry":{"x":121.56493363145663,"y":23.997347197864421}},{"attributes":{"OBJECTID":23558,"LANDMARKID":"1001500000245","LANDMARKCO":"201","LANDMARKNA":"國立東華大學美崙校區","LANDMARKAD":"1001501","ADDRESS":"花蓮縣花蓮市華西路123號","TEL":"03-8227106","COUNTYNAME":"花蓮縣","TOWNNAME":"花蓮市","MARKTYPE":"992","Class":"2"},"geometry":{"x":121.61792591241988,"y":24.009917961599406}},{"attributes":{"OBJECTID":23559,"LANDMARKID":"1001500000388","LANDMARKCO":"203","LANDMARKNA":"縣立國福國小","LANDMARKAD":"1001501","ADDRESS":"花蓮縣花蓮市國福里71號","TEL":"03-8561395","COUNTYNAME":"花蓮縣","TOWNNAME":"花蓮市","MARKTYPE":"992","Class":"2"},"geometry":{"x":121.61741075358646,"y":24.004533568924138}},{"attributes":{"OBJECTID":23560,"LANDMARKID":"1001500000521","LANDMARKCO":"305","LANDMARKNA":"花蓮港務局","LANDMARKAD":"1001501","ADDRESS":"花蓮縣花蓮市海岸路66號","TEL":"03-8325131","COUNTYNAME":"花蓮縣","TOWNNAME":"花蓮市","MARKTYPE":"993","Class":"305"},"geometry":{"x":121.62034140969652,"y":23.980336661028105}},{"attributes":{"OBJECTID":23561,"LANDMARKID":"1001500000522","LANDMARKCO":"305","LANDMARKNA":"花蓮港","LANDMARKAD":"1001501","ADDRESS":"花蓮縣花蓮市","TEL":" ","COUNTYNAME":"花蓮縣","TOWNNAME":"花蓮市","MARKTYPE":"993","Class":"305"},"geometry":{"x":121.6352888957081,"y":24.000728673708114}},{"attributes":{"OBJECTID":23562,"LANDMARKID":"1001500000460","LANDMARKCO":"302","LANDMARKNA":"花蓮汽車客運總站","LANDMARKAD":"1001501","ADDRESS":"花蓮縣花蓮市中山路73號","TEL":" ","COUNTYNAME":"花蓮縣","TOWNNAME":"花蓮市","MARKTYPE":"993","Class":"302"},"geometry":{"x":121.61148842230196,"y":23.974557134883618}},{"attributes":{"OBJECTID":23563,"LANDMARKID":"1001500000461","LANDMARKCO":"302","LANDMARKNA":"花蓮汽車客運新站","LANDMARKAD":"1001501","ADDRESS":"花蓮縣花蓮市國聯一路100號","TEL":" ","COUNTYNAME":"花蓮縣","TOWNNAME":"花蓮市","MARKTYPE":"993","Class":"302"},"geometry":{"x":121.60294738454964,"y":23.991406665233754}},{"attributes":{"OBJECTID":23564,"LANDMARKID":"1001500000462","LANDMARKCO":"303","LANDMARKNA":"東洋廣場停車場","LANDMARKAD":"1001501","ADDRESS":"花蓮縣花蓮市中正路","TEL":" ","COUNTYNAME":"花蓮縣","TOWNNAME":"花蓮市","MARKTYPE":"993","Class":"303"},"geometry":{"x":121.60929184510074,"y":23.978896450462443}},{"attributes":{"OBJECTID":23565,"LANDMARKID":"1001500000463","LANDMARKCO":"303","LANDMARKNA":"美崙山停車場","LANDMARKAD":"1001501","ADDRESS":"花蓮縣花蓮市","TEL":" ","COUNTYNAME":"花蓮縣","TOWNNAME":"花蓮市","MARKTYPE":"993","Class":"303"},"geometry":{"x":121.61339997770612,"y":23.98540150017914}},{"attributes":{"OBJECTID":23566,"LANDMARKID":"1001500000464","LANDMARKCO":"303","LANDMARKNA":"中華停車場","LANDMARKAD":"1001501","ADDRESS":"花蓮縣花蓮市林森路","TEL":" ","COUNTYNAME":"花蓮縣","TOWNNAME":"花蓮市","MARKTYPE":"993","Class":"303"},"geometry":{"x":121.60949498719731,"y":23.984224401423155}},{"attributes":{"OBJECTID":23567,"LANDMARKID":"1001500000465","LANDMARKCO":"303","LANDMARKNA":"忠孝停車場","LANDMARKAD":"1001501","ADDRESS":"花蓮縣花蓮市忠孝路","TEL":" ","COUNTYNAME":"花蓮縣","TOWNNAME":"花蓮市","MARKTYPE":"993","Class":"303"},"geometry":{"x":121.60643321748728,"y":23.973784563545632}},{"attributes":{"OBJECTID":23568,"LANDMARKID":"1001500000466","LANDMARKCO":"303","LANDMARKNA":"銘星停車場","LANDMARKAD":"1001501","ADDRESS":"花蓮縣花蓮市銘星路","TEL":" ","COUNTYNAME":"花蓮縣","TOWNNAME":"花蓮市","MARKTYPE":"993","Class":"303"},"geometry":{"x":121.59553184059325,"y":23.998614117913693}},{"attributes":{"OBJECTID":23569,"LANDMARKID":"1001500000432","LANDMARKCO":"301","LANDMARKNA":"花蓮新火車站","LANDMARKAD":"1001501","ADDRESS":"花蓮縣花蓮市國聯一路100號","TEL":"03-8355941","COUNTYNAME":"花蓮縣","TOWNNAME":"花蓮市","MARKTYPE":"993","Class":"301"},"geometry":{"x":121.60134255280123,"y":23.992611003237432}},{"attributes":{"OBJECTID":23570,"LANDMARKID":"1001500000433","LANDMARKCO":"301","LANDMARKNA":"花蓮後火車站","LANDMARKAD":"1001501","ADDRESS":"花蓮縣花蓮市國聯一路100號","TEL":"03-8355941","COUNTYNAME":"花蓮縣","TOWNNAME":"花蓮市","MARKTYPE":"993","Class":"301"},"geometry":{"x":121.60005493645291,"y":23.993817421097919}},{"attributes":{"OBJECTID":23571,"LANDMARKID":"1001500000434","LANDMARKCO":"301","LANDMARKNA":"花蓮港火車站","LANDMARKAD":"1001501","ADDRESS":"花蓮縣花蓮市港口街2號","TEL":"03-8222468","COUNTYNAME":"花蓮縣","TOWNNAME":"花蓮市","MARKTYPE":"993","Class":"301"},"geometry":{"x":121.63575220501701,"y":23.994358894548412}},{"attributes":{"OBJECTID":23572,"LANDMARKID":"1001500000547","LANDMARKCO":"402","LANDMARKNA":"中華電信-花蓮營運處","LANDMARKAD":"1001501","ADDRESS":"花蓮市中正路595號","TEL":"123或0800-080-123","COUNTYNAME":"花蓮縣","TOWNNAME":"花蓮市","MARKTYPE":"994","Class":"4"},"geometry":{"x":121.60885824468642,"y":23.978436136382715}},{"attributes":{"OBJECTID":23573,"LANDMARKID":"1001500000548","LANDMARKCO":"402","LANDMARKNA":"中華電信-花蓮中山特約服務中心","LANDMARKAD":"1001501","ADDRESS":"花蓮縣花蓮市中山路469號","TEL":"03-8335539","COUNTYNAME":"花蓮縣","TOWNNAME":"花蓮市","MARKTYPE":"994","Class":"4"},"geometry":{"x":121.60391861367175,"y":23.983672162138159}},{"attributes":{"OBJECTID":23574,"LANDMARKID":"1001500000549","LANDMARKCO":"402","LANDMARKNA":"中華電信-花蓮中正特約服務中心","LANDMARKAD":"1001501","ADDRESS":"花蓮縣花蓮市中正路326號","TEL":"03-8333359","COUNTYNAME":"花蓮縣","TOWNNAME":"花蓮市","MARKTYPE":"994","Class":"4"},"geometry":{"x":121.60226603366658,"y":23.973715008190474}},{"attributes":{"OBJECTID":23575,"LANDMARKID":"1001500000550","LANDMARKCO":"402","LANDMARKNA":"遠傳電信-花蓮中山門市","LANDMARKAD":"1001501","ADDRESS":"花蓮縣花蓮市中山路128號","TEL":" ","COUNTYNAME":"花蓮縣","TOWNNAME":"花蓮市","MARKTYPE":"994","Class":"4"},"geometry":{"x":121.61027453703275,"y":23.976131460648052}},{"attributes":{"OBJECTID":23576,"LANDMARKID":"1001500000551","LANDMARKCO":"402","LANDMARKNA":"遠傳電信-花蓮門市","LANDMARKAD":"1001501","ADDRESS":"花蓮市中正路531號","TEL":" ","COUNTYNAME":"花蓮縣","TOWNNAME":"花蓮市","MARKTYPE":"994","Class":"4"},"geometry":{"x":121.60690290906983,"y":23.977068219851848}},{"attributes":{"OBJECTID":23577,"LANDMARKID":"1001500000552","LANDMARKCO":"402","LANDMARKNA":"威寶電信-花蓮中華直營服務中心","LANDMARKAD":"1001501","ADDRESS":"花蓮市中華路54號","TEL":" ","COUNTYNAME":"花蓮縣","TOWNNAME":"花蓮市","MARKTYPE":"994","Class":"4"},"geometry":{"x":121.60772967550869,"y":23.976158732728763}},{"attributes":{"OBJECTID":23578,"LANDMARKID":"1001500000553","LANDMARKCO":"402","LANDMARKNA":"威寶電信-花蓮中山特約服務中心","LANDMARKAD":"1001501","ADDRESS":"花蓮市中山路318號","TEL":"03-8335276","COUNTYNAME":"花蓮縣","TOWNNAME":"花蓮市","MARKTYPE":"994","Class":"4"},"geometry":{"x":121.6059850698593,"y":23.981526880837734}},{"attributes":{"OBJECTID":23579,"LANDMARKID":"1001500001400","LANDMARKCO":"604","LANDMARKNA":"馬自達民宿","LANDMARKAD":"1001501","ADDRESS":"花蓮縣花蓮市府前路562-1號","TEL":"03-8222557","COUNTYNAME":"花蓮縣","TOWNNAME":"花蓮市","MARKTYPE":"996","Class":"6"},"geometry":{"x":121.61974027524582,"y":24.002771877401752}},{"attributes":{"OBJECTID":23580,"LANDMARKID":"1001500001401","LANDMARKCO":"604","LANDMARKNA":"皇佳民宿","LANDMARKAD":"1001501","ADDRESS":"花蓮縣花蓮市富裕12街20號","TEL":"03-8561717","COUNTYNAME":"花蓮縣","TOWNNAME":"花蓮市","MARKTYPE":"996","Class":"6"},"geometry":{"x":121.60059097774364,"y":23.998725759412093}},{"attributes":{"OBJECTID":23581,"LANDMARKID":"1001500001402","LANDMARKCO":"604","LANDMARKNA":"翔飛精緻民宿","LANDMARKAD":"1001501","ADDRESS":"花蓮縣花蓮市富裕15街39號","TEL":"03-8560800","COUNTYNAME":"花蓮縣","TOWNNAME":"花蓮市","MARKTYPE":"996","Class":"6"},"geometry":{"x":121.59715655435772,"y":23.997992535298909}},{"attributes":{"OBJECTID":23582,"LANDMARKID":"1001500001403","LANDMARKCO":"604","LANDMARKNA":"溫家堡民宿","LANDMARKAD":"1001501","ADDRESS":"花蓮縣花蓮市富裕14街19號","TEL":"03-8560163","COUNTYNAME":"花蓮縣","TOWNNAME":"花蓮市","MARKTYPE":"996","Class":"6"},"geometry":{"x":121.59951985138693,"y":23.998917106601006}},{"attributes":{"OBJECTID":23583,"LANDMARKID":"1001500001404","LANDMARKCO":"604","LANDMARKNA":"星光海岸民宿","LANDMARKAD":"1001501","ADDRESS":"花蓮縣花蓮市介壽三街2-5號","TEL":"03-8350885","COUNTYNAME":"花蓮縣","TOWNNAME":"花蓮市","MARKTYPE":"996","Class":"6"},"geometry":{"x":121.62096180160212,"y":23.987320938250896}},{"attributes":{"OBJECTID":23584,"LANDMARKID":"1001500001405","LANDMARKCO":"604","LANDMARKNA":"波西米亞民宿","LANDMARKAD":"1001501","ADDRESS":"花蓮縣花蓮市國富二街84號","TEL":"0939-685877","COUNTYNAME":"花蓮縣","TOWNNAME":"花蓮市","MARKTYPE":"996","Class":"6"},"geometry":{"x":121.59547073290159,"y":23.989483091480295}},{"attributes":{"OBJECTID":23585,"LANDMARKID":"1001500000852","LANDMARKCO":"603","LANDMARKNA":"春風精品旅店","LANDMARKAD":"1001501","ADDRESS":"花蓮縣花蓮市富裕六街1號","TEL":"03-8460588","COUNTYNAME":"花蓮縣","TOWNNAME":"花蓮市","MARKTYPE":"996","Class":"6"},"geometry":{"x":121.59697274809845,"y":23.994214252358532}},{"attributes":{"OBJECTID":23586,"LANDMARKID":"1001500000853","LANDMARKCO":"603","LANDMARKNA":"金龍大旅社","LANDMARKAD":"1001501","ADDRESS":"花蓮縣花蓮市中山路77號","TEL":"03-8323126","COUNTYNAME":"花蓮縣","TOWNNAME":"花蓮市","MARKTYPE":"996","Class":"6"},"geometry":{"x":121.61105401615171,"y":23.974558263072446}},{"attributes":{"OBJECTID":23587,"LANDMARKID":"1001500000854","LANDMARKCO":"603","LANDMARKNA":"邑采精緻旅店","LANDMARKAD":"1001501","ADDRESS":"花蓮縣花蓮市富安路90號","TEL":"03-8567788","COUNTYNAME":"花蓮縣","TOWNNAME":"花蓮市","MARKTYPE":"996","Class":"6"},"geometry":{"x":121.59915894092657,"y":23.994030518503916}},{"attributes":{"OBJECTID":23588,"LANDMARKID":"1001500000855","LANDMARKCO":"603","LANDMARKNA":"湘品旅館","LANDMARKAD":"1001501","ADDRESS":"花蓮縣花蓮市光復街13-3號","TEL":"03-8320510","COUNTYNAME":"花蓮縣","TOWNNAME":"花蓮市","MARKTYPE":"996","Class":"6"},"geometry":{"x":121.60449111694128,"y":23.980374331936673}},{"attributes":{"OBJECTID":23589,"LANDMARKID":"1001500000856","LANDMARKCO":"603","LANDMARKNA":"喜臻飯店","LANDMARKAD":"1001501","ADDRESS":"花蓮縣花蓮市中福路122號","TEL":"03-8331388","COUNTYNAME":"花蓮縣","TOWNNAME":"花蓮市","MARKTYPE":"996","Class":"6"},"geometry":{"x":121.6023692352166,"y":23.971800007927929}},{"attributes":{"OBJECTID":23590,"LANDMARKID":"1001500000857","LANDMARKCO":"603","LANDMARKNA":"布洛灣大飯店","LANDMARKAD":"1001501","ADDRESS":"花蓮縣花蓮市中福路189號","TEL":"03-8356177","COUNTYNAME":"花蓮縣","TOWNNAME":"花蓮市","MARKTYPE":"996","Class":"6"},"geometry":{"x":121.60079036926773,"y":23.973536958368527}},{"attributes":{"OBJECTID":23591,"LANDMARKID":"1001500000858","LANDMARKCO":"603","LANDMARKNA":"非凡假期大飯店","LANDMARKAD":"1001501","ADDRESS":"花蓮縣花蓮市民國路153號1-4樓","TEL":"03-8311757","COUNTYNAME":"花蓮縣","TOWNNAME":"花蓮市","MARKTYPE":"996","Class":"6"},"geometry":{"x":121.60739067675436,"y":23.980170431555827}},{"attributes":{"OBJECTID":23592,"LANDMARKID":"1001500000859","LANDMARKCO":"603","LANDMARKNA":"花東客棧","LANDMARKAD":"1001501","ADDRESS":"花蓮縣花蓮市民國路165號","TEL":"03-8347568","COUNTYNAME":"花蓮縣","TOWNNAME":"花蓮市","MARKTYPE":"996","Class":"6"},"geometry":{"x":121.60835611200474,"y":23.980769660699128}},{"attributes":{"OBJECTID":23593,"LANDMARKID":"1001500000860","LANDMARKCO":"603","LANDMARKNA":"看海飯店","LANDMARKAD":"1001501","ADDRESS":"花蓮縣花蓮市民權路7號","TEL":"03-8330161","COUNTYNAME":"花蓮縣","TOWNNAME":"花蓮市","MARKTYPE":"996","Class":"6"},"geometry":{"x":121.6205032994803,"y":23.981899678112939}},{"attributes":{"OBJECTID":23594,"LANDMARKID":"1001500000861","LANDMARKCO":"603","LANDMARKNA":"金石大飯店 (金本)","LANDMARKAD":"1001501","ADDRESS":"花蓮縣花蓮市光復街45號","TEL":"03-8322226","COUNTYNAME":"花蓮縣","TOWNNAME":"花蓮市","MARKTYPE":"996","Class":"6"},"geometry":{"x":121.60770333106703,"y":23.976493029976268}},{"attributes":{"OBJECTID":23595,"LANDMARKID":"1001500000862","LANDMARKCO":"603","LANDMARKNA":"奇萊大飯店","LANDMARKAD":"1001501","ADDRESS":"花蓮縣花蓮市和平路336號8-9樓","TEL":"03-8356141","COUNTYNAME":"花蓮縣","TOWNNAME":"花蓮市","MARKTYPE":"996","Class":"6"},"geometry":{"x":121.6038191022827,"y":23.973767864383092}},{"attributes":{"OBJECTID":23596,"LANDMARKID":"1001500000863","LANDMARKCO":"603","LANDMARKNA":"茂榮別館","LANDMARKAD":"1001501","ADDRESS":"花蓮縣花蓮市府前路222號","TEL":"03-8226476","COUNTYNAME":"花蓮縣","TOWNNAME":"花蓮市","MARKTYPE":"996","Class":"6"},"geometry":{"x":121.62213229232339,"y":23.992324262198274}},{"attributes":{"OBJECTID":23597,"LANDMARKID":"1001500000864","LANDMARKCO":"603","LANDMARKNA":"凱頓商務汽車旅館","LANDMARKAD":"1001501","ADDRESS":"花蓮縣花蓮市裕民路89號","TEL":"03-8465788","COUNTYNAME":"花蓮縣","TOWNNAME":"花蓮市","MARKTYPE":"996","Class":"6"},"geometry":{"x":121.60013735364717,"y":23.999338679999894}},{"attributes":{"OBJECTID":23598,"LANDMARKID":"1001500000865","LANDMARKCO":"603","LANDMARKNA":"春秋大飯店","LANDMARKAD":"1001501","ADDRESS":"花蓮縣花蓮市福建街370號","TEL":"03-8322122","COUNTYNAME":"花蓮縣","TOWNNAME":"花蓮市","MARKTYPE":"996","Class":"6"},"geometry":{"x":121.60708470835239,"y":23.9730577653662}},{"attributes":{"OBJECTID":23599,"LANDMARKID":"1001500000866","LANDMARKCO":"603","LANDMARKNA":"龍興大旅社","LANDMARKAD":"1001501","ADDRESS":"花蓮縣花蓮市福建街513號","TEL":"03-8322759","COUNTYNAME":"花蓮縣","TOWNNAME":"花蓮市","MARKTYPE":"996","Class":"6"},"geometry":{"x":121.61097921084718,"y":23.975827880931124}},{"attributes":{"OBJECTID":23600,"LANDMARKID":"1001500000867","LANDMARKCO":"603","LANDMARKNA":"朝北大飯店","LANDMARKAD":"1001501","ADDRESS":"花蓮縣花蓮市中山路361號2樓","TEL":"03-8325182","COUNTYNAME":"花蓮縣","TOWNNAME":"花蓮市","MARKTYPE":"996","Class":"6"},"geometry":{"x":121.60587418909445,"y":23.981229785691433}}]}