{"displayFieldName":"COUNTYNAME","fieldAliases":{"OBJECTID":"OBJECTID","LANDMARKID":"LANDMARKID","LANDMARKCO":"LANDMARKCO","LANDMARKNA":"LANDMARKNA","LANDMARKAD":"LANDMARKAD","ADDRESS":"ADDRESS","TEL":"TEL","COUNTYNAME":"COUNTYNAME","TOWNNAME":"TOWNNAME","MARKTYPE":"MARKTYPE","Class":"Class"},"geometryType":"esriGeometryPoint","spatialReference":{"wkid":102443},"fields":[{"name":"OBJECTID","type":"esriFieldTypeOID","alias":"OBJECTID"},{"name":"LANDMARKID","type":"esriFieldTypeString","alias":"LANDMARKID","length":15},{"name":"LANDMARKCO","type":"esriFieldTypeString","alias":"LANDMARKCO","length":15},{"name":"LANDMARKNA","type":"esriFieldTypeString","alias":"LANDMARKNA","length":50},{"name":"LANDMARKAD","type":"esriFieldTypeString","alias":"LANDMARKAD","length":15},{"name":"ADDRESS","type":"esriFieldTypeString","alias":"ADDRESS","length":56},{"name":"TEL","type":"esriFieldTypeString","alias":"TEL","length":36},{"name":"COUNTYNAME","type":"esriFieldTypeString","alias":"COUNTYNAME","length":15},{"name":"TOWNNAME","type":"esriFieldTypeString","alias":"TOWNNAME","length":13},{"name":"MARKTYPE","type":"esriFieldTypeString","alias":"MARKTYPE","length":12},{"name":"Class","type":"esriFieldTypeString","alias":"Class","length":5}],"features":[{"attributes":{"OBJECTID":25801,"LANDMARKID":"1001000000369","LANDMARKCO":"203","LANDMARKNA":"縣立溪口國小游東分校","LANDMARKAD":"1001006","ADDRESS":"嘉義縣溪口鄉游東村","TEL":"05-2696194","COUNTYNAME":"嘉義縣","TOWNNAME":"溪口鄉","MARKTYPE":"992","Class":"2"},"geometry":{"x":189008.16810000036,"y":2612590.9902999997}},{"attributes":{"OBJECTID":25802,"LANDMARKID":"1001000000578","LANDMARKCO":"402","LANDMARKNA":"中華電信-溪口服務中心","LANDMARKAD":"1001006","ADDRESS":"嘉義縣溪口鄉中正東路39號","TEL":"(05)244-9440","COUNTYNAME":"嘉義縣","TOWNNAME":"溪口鄉","MARKTYPE":"994","Class":"4"},"geometry":{"x":188913.02859999985,"y":2611393.6137000006}},{"attributes":{"OBJECTID":25803,"LANDMARKID":"1001000000642","LANDMARKCO":"405","LANDMARKNA":"台糖加油站-大林站(中油)","LANDMARKAD":"1001004","ADDRESS":"嘉義縣大林鎮民生路68號","TEL":" ","COUNTYNAME":"嘉義縣","TOWNNAME":"大林鎮","MARKTYPE":"994","Class":"4"},"geometry":{"x":194885.28259999957,"y":2610467.9484000001}},{"attributes":{"OBJECTID":25804,"LANDMARKID":"1001000000643","LANDMARKCO":"405","LANDMARKNA":"台糖加油站-大埔美站(中油)","LANDMARKAD":"1001004","ADDRESS":"嘉義縣大林鎮過溪里過溪507號","TEL":"05-2952411","COUNTYNAME":"嘉義縣","TOWNNAME":"大林鎮","MARKTYPE":"994","Class":"4"},"geometry":{"x":199664.25800000038,"y":2611066.2741999999}},{"attributes":{"OBJECTID":25805,"LANDMARKID":"1001000000644","LANDMARKCO":"405","LANDMARKNA":"中油加油站-明華站(中油直營)","LANDMARKAD":"1001004","ADDRESS":"嘉義縣大林鎮忠孝路343號","TEL":"05-2658360","COUNTYNAME":"嘉義縣","TOWNNAME":"大林鎮","MARKTYPE":"994","Class":"4"},"geometry":{"x":193570.05099999998,"y":2611272.6524}},{"attributes":{"OBJECTID":25806,"LANDMARKID":"1001000000645","LANDMARKCO":"405","LANDMARKNA":"中油加油站-大林站","LANDMARKAD":"1001004","ADDRESS":"嘉義縣大林鎮中正路260號","TEL":"05-2652049","COUNTYNAME":"嘉義縣","TOWNNAME":"大林鎮","MARKTYPE":"994","Class":"4"},"geometry":{"x":193878.22690000013,"y":2610725.1896000002}},{"attributes":{"OBJECTID":25807,"LANDMARKID":"1001000000646","LANDMARKCO":"405","LANDMARKNA":"山隆加油站-大林站(中油)","LANDMARKAD":"1001004","ADDRESS":"嘉義縣大林鎮林子頭1-8號","TEL":"(05)295-1325","COUNTYNAME":"嘉義縣","TOWNNAME":"大林鎮","MARKTYPE":"994","Class":"4"},"geometry":{"x":198149.25050000008,"y":2611302.5719000008}},{"attributes":{"OBJECTID":25808,"LANDMARKID":"1001000000647","LANDMARKCO":"405","LANDMARKNA":"中油加油站-嘉林站","LANDMARKAD":"1001004","ADDRESS":"嘉義縣大林鎮橋子頭路1-15號","TEL":"05-2658143","COUNTYNAME":"嘉義縣","TOWNNAME":"大林鎮","MARKTYPE":"994","Class":"4"},"geometry":{"x":195510.86450000014,"y":2613521.6722999997}},{"attributes":{"OBJECTID":25809,"LANDMARKID":"1001000000648","LANDMARKCO":"405","LANDMARKNA":"中油加油站-大林中正路站(中油直營)","LANDMARKAD":"1001004","ADDRESS":"嘉義縣大林鎮中正路801號","TEL":"05-2659202","COUNTYNAME":"嘉義縣","TOWNNAME":"大林鎮","MARKTYPE":"994","Class":"4"},"geometry":{"x":195008.15610000025,"y":2611913.7643999998}},{"attributes":{"OBJECTID":25810,"LANDMARKID":"1001000000649","LANDMARKCO":"405","LANDMARKNA":"台灣優力加油站-大林站(中油)","LANDMARKAD":"1001004","ADDRESS":"嘉義縣大林鎮三和里中興路二段78號","TEL":"05-2649421","COUNTYNAME":"嘉義縣","TOWNNAME":"大林鎮","MARKTYPE":"994","Class":"4"},"geometry":{"x":195747.91770000011,"y":2611140.3615000006}},{"attributes":{"OBJECTID":25811,"LANDMARKID":"1001000000580","LANDMARKCO":"402","LANDMARKNA":"亞太行動寬頻電信-嘉義大林加盟服務中心","LANDMARKAD":"1001004","ADDRESS":"嘉義縣大林鎮中興一路5號","TEL":"05-2651077","COUNTYNAME":"嘉義縣","TOWNNAME":"大林鎮","MARKTYPE":"994","Class":"4"},"geometry":{"x":194260.49390000012,"y":2611272.4086000007}},{"attributes":{"OBJECTID":25812,"LANDMARKID":"1001000000566","LANDMARKCO":"401","LANDMARKNA":"佛教慈濟綜合醫院-大林院區","LANDMARKAD":"1001004","ADDRESS":"嘉義縣大林鎮民生路2號","TEL":"05-2657003","COUNTYNAME":"嘉義縣","TOWNNAME":"大林鎮","MARKTYPE":"994","Class":"4"},"geometry":{"x":194625.21580000035,"y":2610422.7279000003}},{"attributes":{"OBJECTID":25813,"LANDMARKID":"1001000000730","LANDMARKCO":"408","LANDMARKNA":"郵局-大林郵局","LANDMARKAD":"1001004","ADDRESS":"嘉義縣大林鎮平和街28-1號","TEL":"(05)2652-107","COUNTYNAME":"嘉義縣","TOWNNAME":"大林鎮","MARKTYPE":"994","Class":"4"},"geometry":{"x":194539.01530000009,"y":2611090.3958999999}},{"attributes":{"OBJECTID":25814,"LANDMARKID":"1001000000731","LANDMARKCO":"408","LANDMARKNA":"郵局-大林中山路郵局","LANDMARKAD":"1001004","ADDRESS":"嘉義縣大林鎮中山路232號","TEL":"(05)2652-714","COUNTYNAME":"嘉義縣","TOWNNAME":"大林鎮","MARKTYPE":"994","Class":"4"},"geometry":{"x":194494.81419999991,"y":2611495.2191000003}},{"attributes":{"OBJECTID":25815,"LANDMARKID":"1001000000769","LANDMARKCO":"409","LANDMARKNA":"嘉義縣大林鎮農會","LANDMARKAD":"1001004","ADDRESS":"嘉義縣大林鎮中山路130號","TEL":"05-2653121","COUNTYNAME":"嘉義縣","TOWNNAME":"大林鎮","MARKTYPE":"994","Class":"4"},"geometry":{"x":194455.97339999955,"y":2611395.5369000006}},{"attributes":{"OBJECTID":25816,"LANDMARKID":"1001000000600","LANDMARKCO":"404","LANDMARKNA":"台灣省自來水大林營運所","LANDMARKAD":"1001004","ADDRESS":"嘉義縣大林鎮水源路75號","TEL":" ","COUNTYNAME":"嘉義縣","TOWNNAME":"大林鎮","MARKTYPE":"994","Class":"4"},"geometry":{"x":195077.09300000034,"y":2611501.3317000009}},{"attributes":{"OBJECTID":25817,"LANDMARKID":"1001000000711","LANDMARKCO":"406","LANDMARKNA":"大林親子公園","LANDMARKAD":"1001004","ADDRESS":"嘉義縣大林鎮","TEL":" ","COUNTYNAME":"嘉義縣","TOWNNAME":"大林鎮","MARKTYPE":"994","Class":"4"},"geometry":{"x":194512.83179999981,"y":2611727.4926999994}},{"attributes":{"OBJECTID":25818,"LANDMARKID":"1001000000712","LANDMARKCO":"406","LANDMARKNA":"育樂公園","LANDMARKAD":"1001004","ADDRESS":"嘉義縣大林鎮","TEL":" ","COUNTYNAME":"嘉義縣","TOWNNAME":"大林鎮","MARKTYPE":"994","Class":"4"},"geometry":{"x":194495.39510000031,"y":2611998.2433000002}},{"attributes":{"OBJECTID":25819,"LANDMARKID":"1001000000650","LANDMARKCO":"405","LANDMARKNA":"台亞加油站-大林站（台塑）","LANDMARKAD":"1001004","ADDRESS":"嘉義縣大林鎮明華路48-9號","TEL":"(05)265-3387","COUNTYNAME":"嘉義縣","TOWNNAME":"大林鎮","MARKTYPE":"994","Class":"4"},"geometry":{"x":193692.90880000032,"y":2611200.4309}},{"attributes":{"OBJECTID":25820,"LANDMARKID":"1001000000062","LANDMARKCO":"103","LANDMARKNA":"嘉義縣大林鎮衛生所","LANDMARKAD":"1001004","ADDRESS":"嘉義縣大林鎮中山路252號","TEL":"05-2652042","COUNTYNAME":"嘉義縣","TOWNNAME":"大林鎮","MARKTYPE":"991","Class":"1"},"geometry":{"x":194456.2536000004,"y":2611582.7148000002}},{"attributes":{"OBJECTID":25821,"LANDMARKID":"1001000000063","LANDMARKCO":"103","LANDMARKNA":"嘉義縣大林鎮民代表會","LANDMARKAD":"1001004","ADDRESS":"嘉義縣大林鎮中興路二段237號","TEL":"05-2652133","COUNTYNAME":"嘉義縣","TOWNNAME":"大林鎮","MARKTYPE":"991","Class":"1"},"geometry":{"x":195998.14759999979,"y":2611260.6599000003}},{"attributes":{"OBJECTID":25822,"LANDMARKID":"1001000000163","LANDMARKCO":"107","LANDMARKNA":"嘉義縣警察局溝背派出所","LANDMARKAD":"1001004","ADDRESS":"嘉義縣大林鎮義和里三塊厝2號","TEL":"05-2952902","COUNTYNAME":"嘉義縣","TOWNNAME":"大林鎮","MARKTYPE":"991","Class":"1"},"geometry":{"x":197700.73990000039,"y":2612359.6831}},{"attributes":{"OBJECTID":25823,"LANDMARKID":"1001000000164","LANDMARKCO":"107","LANDMARKNA":"嘉義縣警察局大林分駐所","LANDMARKAD":"1001004","ADDRESS":"嘉義縣大林鎮西林里中山路86號","TEL":"05-2652850","COUNTYNAME":"嘉義縣","TOWNNAME":"大林鎮","MARKTYPE":"991","Class":"1"},"geometry":{"x":194388.74789999984,"y":2611151.8911000006}},{"attributes":{"OBJECTID":25824,"LANDMARKID":"1001000000165","LANDMARKCO":"107","LANDMARKNA":"嘉義縣消防局大林消防分隊","LANDMARKAD":"1001004","ADDRESS":"嘉義縣大林鎮中山路86-2號","TEL":"05-2652027","COUNTYNAME":"嘉義縣","TOWNNAME":"大林鎮","MARKTYPE":"991","Class":"1"},"geometry":{"x":194396.91220000014,"y":2611176.2548999991}},{"attributes":{"OBJECTID":25825,"LANDMARKID":"1001000000082","LANDMARKCO":"106","LANDMARKNA":"嘉義縣大林鎮戶政事務所","LANDMARKAD":"1001004","ADDRESS":"嘉義縣大林鎮西林里10鄰中山路86號","TEL":"05-2652241","COUNTYNAME":"嘉義縣","TOWNNAME":"大林鎮","MARKTYPE":"991","Class":"1"},"geometry":{"x":194388.74789999984,"y":2611151.8911000006}},{"attributes":{"OBJECTID":25826,"LANDMARKID":"1001000000073","LANDMARKCO":"105","LANDMARKNA":"嘉義縣大林地政事務所","LANDMARKAD":"1001004","ADDRESS":"嘉義縣大林鎮新興街110號","TEL":"05-2651110","COUNTYNAME":"嘉義縣","TOWNNAME":"大林鎮","MARKTYPE":"991","Class":"1"},"geometry":{"x":194719.26090000011,"y":2610896.0965999998}},{"attributes":{"OBJECTID":25827,"LANDMARKID":"1001000000210","LANDMARKCO":"108","LANDMARKNA":"嘉義縣大林鎮公所","LANDMARKAD":"1001004","ADDRESS":"嘉義縣大林鎮三和里中興路二段239","TEL":"05-2653211","COUNTYNAME":"嘉義縣","TOWNNAME":"大林鎮","MARKTYPE":"991","Class":"1"},"geometry":{"x":196047.6035000002,"y":2611240.7188000008}},{"attributes":{"OBJECTID":25828,"LANDMARKID":"1001000000162","LANDMARKCO":"107","LANDMARKNA":"嘉義縣警察局大美派出所","LANDMARKAD":"1001004","ADDRESS":"嘉義縣大林鎮大美里1號","TEL":"05-2952905","COUNTYNAME":"嘉義縣","TOWNNAME":"大林鎮","MARKTYPE":"991","Class":"1"},"geometry":{"x":199472.0064000003,"y":2611100.7558999993}},{"attributes":{"OBJECTID":25829,"LANDMARKID":"1001000000452","LANDMARKCO":"204","LANDMARKNA":"嘉義縣立圖書館大林分館","LANDMARKAD":"1001004","ADDRESS":"嘉義縣大林鎮中正路467巷1之1號","TEL":" ","COUNTYNAME":"嘉義縣","TOWNNAME":"大林鎮","MARKTYPE":"992","Class":"2"},"geometry":{"x":194270.10329999961,"y":2611207.5186000001}},{"attributes":{"OBJECTID":25830,"LANDMARKID":"1001000000230","LANDMARKCO":"202","LANDMARKNA":"私立同濟高中","LANDMARKAD":"1001004","ADDRESS":"嘉義縣大林鎮中興路二段303號","TEL":"05-2652248","COUNTYNAME":"嘉義縣","TOWNNAME":"大林鎮","MARKTYPE":"992","Class":"2"},"geometry":{"x":196195.11259999964,"y":2611347.0998999998}},{"attributes":{"OBJECTID":25831,"LANDMARKID":"1001000000231","LANDMARKCO":"202","LANDMARKNA":"私立同濟高中附設國中部","LANDMARKAD":"1001004","ADDRESS":"嘉義縣大林鎮中興路二段303號","TEL":"05-2652248","COUNTYNAME":"嘉義縣","TOWNNAME":"大林鎮","MARKTYPE":"992","Class":"2"},"geometry":{"x":196195.11259999964,"y":2611347.0998999998}},{"attributes":{"OBJECTID":25832,"LANDMARKID":"1001000000354","LANDMARKCO":"203","LANDMARKNA":"縣立龍岩國小","LANDMARKAD":"1001004","ADDRESS":"嘉義縣大林鎮17鄰芎蕉山41號","TEL":"05-2951575","COUNTYNAME":"嘉義縣","TOWNNAME":"大林鎮","MARKTYPE":"992","Class":"2"},"geometry":{"x":201008.88030000031,"y":2607529.3889000006}},{"attributes":{"OBJECTID":25833,"LANDMARKID":"1001000000355","LANDMARKCO":"203","LANDMARKNA":"縣立社團國小","LANDMARKAD":"1001004","ADDRESS":"嘉義縣大林鎮三角里下林頭51號","TEL":"05-2952504","COUNTYNAME":"嘉義縣","TOWNNAME":"大林鎮","MARKTYPE":"992","Class":"2"},"geometry":{"x":198562.06840000022,"y":2612773.0523000006}},{"attributes":{"OBJECTID":25834,"LANDMARKID":"1001000000356","LANDMARKCO":"203","LANDMARKNA":"縣立大林國小","LANDMARKAD":"1001004","ADDRESS":"嘉義縣大林鎮西林里中正路423號","TEL":"05-2659212","COUNTYNAME":"嘉義縣","TOWNNAME":"大林鎮","MARKTYPE":"992","Class":"2"},"geometry":{"x":194234.49129999988,"y":2611104.2707000002}},{"attributes":{"OBJECTID":25835,"LANDMARKID":"1001000000357","LANDMARKCO":"203","LANDMARKNA":"縣立三和國小","LANDMARKAD":"1001004","ADDRESS":"嘉義縣大林鎮中興路二段937號","TEL":"05-2952145","COUNTYNAME":"嘉義縣","TOWNNAME":"大林鎮","MARKTYPE":"992","Class":"2"},"geometry":{"x":197808.67019999959,"y":2611465.9743000008}},{"attributes":{"OBJECTID":25836,"LANDMARKID":"1001000000358","LANDMARKCO":"203","LANDMARKNA":"縣立平林國小","LANDMARKAD":"1001004","ADDRESS":"嘉義縣大林鎮平林里民權路80號","TEL":"05-2650887","COUNTYNAME":"嘉義縣","TOWNNAME":"大林鎮","MARKTYPE":"992","Class":"2"},"geometry":{"x":195049.78780000005,"y":2610807.5695999991}},{"attributes":{"OBJECTID":25837,"LANDMARKID":"1001000000359","LANDMARKCO":"203","LANDMARKNA":"大林國小","LANDMARKAD":"1001004","ADDRESS":"嘉義縣大林鎮西林里中正路423號","TEL":"05-2652061#11","COUNTYNAME":"嘉義縣","TOWNNAME":"大林鎮","MARKTYPE":"992","Class":"2"},"geometry":{"x":194234.49129999988,"y":2611104.2707000002}},{"attributes":{"OBJECTID":25838,"LANDMARKID":"1001000000227","LANDMARKCO":"201","LANDMARKNA":"南華大學","LANDMARKAD":"1001004","ADDRESS":"嘉義縣大林鎮中坑里中坑32號","TEL":"05-2721001","COUNTYNAME":"嘉義縣","TOWNNAME":"大林鎮","MARKTYPE":"992","Class":"2"},"geometry":{"x":197805.61490000039,"y":2607705.0979999993}},{"attributes":{"OBJECTID":25839,"LANDMARKID":"1001000000360","LANDMARKCO":"203","LANDMARKNA":"縣立大林國中","LANDMARKAD":"1001004","ADDRESS":"嘉義縣大林鎮大糖里中學路1號","TEL":"05-2652014","COUNTYNAME":"嘉義縣","TOWNNAME":"大林鎮","MARKTYPE":"992","Class":"2"},"geometry":{"x":194290.59759999998,"y":2611860.5184000004}},{"attributes":{"OBJECTID":25840,"LANDMARKID":"1001000000361","LANDMARKCO":"203","LANDMARKNA":"縣立排路國小","LANDMARKAD":"1001004","ADDRESS":"嘉義縣大林鎮排路里231號","TEL":"05-2694974","COUNTYNAME":"嘉義縣","TOWNNAME":"大林鎮","MARKTYPE":"992","Class":"2"},"geometry":{"x":191022.06030000001,"y":2612001.0880999994}},{"attributes":{"OBJECTID":25841,"LANDMARKID":"1001000000362","LANDMARKCO":"203","LANDMARKNA":"縣立中林國小","LANDMARKAD":"1001004","ADDRESS":"嘉義縣大林鎮中林里9鄰147號","TEL":"05-2653941","COUNTYNAME":"嘉義縣","TOWNNAME":"大林鎮","MARKTYPE":"992","Class":"2"},"geometry":{"x":196640.4243999999,"y":2609750.8259999994}},{"attributes":{"OBJECTID":25842,"LANDMARKID":"1001000000509","LANDMARKCO":"303","LANDMARKNA":"運動公園停車場","LANDMARKAD":"1001004","ADDRESS":"嘉義縣大林鎮","TEL":" ","COUNTYNAME":"嘉義縣","TOWNNAME":"大林鎮","MARKTYPE":"993","Class":"303"},"geometry":{"x":194473.85730000027,"y":2610788.7027000003}},{"attributes":{"OBJECTID":25843,"LANDMARKID":"1001000000510","LANDMARKCO":"303","LANDMARKNA":"運動公園停車場","LANDMARKAD":"1001004","ADDRESS":"嘉義縣大林鎮","TEL":" ","COUNTYNAME":"嘉義縣","TOWNNAME":"大林鎮","MARKTYPE":"993","Class":"303"},"geometry":{"x":194486.99349999987,"y":2610820.7555}},{"attributes":{"OBJECTID":25844,"LANDMARKID":"1001000000539","LANDMARKCO":"308","LANDMARKNA":"國1-大林交流道-北上","LANDMARKAD":"1001004","ADDRESS":"嘉義縣大林鎮","TEL":" ","COUNTYNAME":"嘉義縣","TOWNNAME":"大林鎮","MARKTYPE":"993","Class":"308"},"geometry":{"x":192618.96389999986,"y":2612347.6072000004}},{"attributes":{"OBJECTID":25845,"LANDMARKID":"1001000000540","LANDMARKCO":"308","LANDMARKNA":"國3-梅山交流道-南下","LANDMARKAD":"1001004","ADDRESS":"嘉義縣大林鎮","TEL":" ","COUNTYNAME":"嘉義縣","TOWNNAME":"大林鎮","MARKTYPE":"993","Class":"308"},"geometry":{"x":201193.99980000034,"y":2610225.7429000009}},{"attributes":{"OBJECTID":25846,"LANDMARKID":"1001000000541","LANDMARKCO":"308","LANDMARKNA":"國1-大林交流道-南下","LANDMARKAD":"1001004","ADDRESS":"嘉義縣大林鎮","TEL":" ","COUNTYNAME":"嘉義縣","TOWNNAME":"大林鎮","MARKTYPE":"993","Class":"308"},"geometry":{"x":192491.86830000021,"y":2612076.0879999995}},{"attributes":{"OBJECTID":25847,"LANDMARKID":"1001000000542","LANDMARKCO":"308","LANDMARKNA":"國3-梅山交流道-北上","LANDMARKAD":"1001004","ADDRESS":"嘉義縣大林鎮","TEL":" ","COUNTYNAME":"嘉義縣","TOWNNAME":"大林鎮","MARKTYPE":"993","Class":"308"},"geometry":{"x":201453.21059999987,"y":2610510.6785000004}},{"attributes":{"OBJECTID":25848,"LANDMARKID":"1001000000508","LANDMARKCO":"303","LANDMARKNA":"大林火車站停車場","LANDMARKAD":"1001004","ADDRESS":"嘉義縣大林鎮","TEL":" ","COUNTYNAME":"嘉義縣","TOWNNAME":"大林鎮","MARKTYPE":"993","Class":"303"},"geometry":{"x":194583.61510000005,"y":2610934.8859000001}},{"attributes":{"OBJECTID":25849,"LANDMARKID":"1001000000483","LANDMARKCO":"301","LANDMARKNA":"大林火車站","LANDMARKAD":"1001004","ADDRESS":"嘉義縣大林鎮吉林里中山路2號","TEL":"05-2654804","COUNTYNAME":"嘉義縣","TOWNNAME":"大林鎮","MARKTYPE":"993","Class":"301"},"geometry":{"x":194476.74390000012,"y":2610913.9948999994}},{"attributes":{"OBJECTID":25850,"LANDMARKID":"1001000000579","LANDMARKCO":"402","LANDMARKNA":"中華電信-大林服務中心","LANDMARKAD":"1001004","ADDRESS":"嘉義縣大林鎮中正路621號","TEL":"(05)244-7756","COUNTYNAME":"嘉義縣","TOWNNAME":"大林鎮","MARKTYPE":"994","Class":"4"},"geometry":{"x":194477.57490000036,"y":2611558.1535999998}},{"attributes":{"OBJECTID":25851,"LANDMARKID":"1001000000857","LANDMARKCO":"603","LANDMARKNA":"東方大旅社","LANDMARKAD":"1001004","ADDRESS":"嘉義縣大林鎮平林里東榮街90號","TEL":"05-2652219","COUNTYNAME":"嘉義縣","TOWNNAME":"大林鎮","MARKTYPE":"996","Class":"6"},"geometry":{"x":194543.7452999996,"y":2611513.4050999992}},{"attributes":{"OBJECTID":25852,"LANDMARKID":"1001000000858","LANDMARKCO":"603","LANDMARKNA":"勝利旅社","LANDMARKAD":"1001004","ADDRESS":"嘉義縣大林鎮平林里蘭洲街17號","TEL":"05-2652119","COUNTYNAME":"嘉義縣","TOWNNAME":"大林鎮","MARKTYPE":"996","Class":"6"},"geometry":{"x":194888.94489999954,"y":2611109.6447999999}},{"attributes":{"OBJECTID":25853,"LANDMARKID":"1001000000859","LANDMARKCO":"603","LANDMARKNA":"佳賓旅社","LANDMARKAD":"1001004","ADDRESS":"嘉義縣大林鎮吉林里平和街13號","TEL":"05-2652134","COUNTYNAME":"嘉義縣","TOWNNAME":"大林鎮","MARKTYPE":"996","Class":"6"},"geometry":{"x":194461.19379999954,"y":2611043.1001999993}},{"attributes":{"OBJECTID":25854,"LANDMARKID":"1001000000860","LANDMARKCO":"603","LANDMARKNA":"成都旅社","LANDMARKAD":"1001004","ADDRESS":"嘉義縣大林鎮吉林里平和街19號","TEL":"05-2652211","COUNTYNAME":"嘉義縣","TOWNNAME":"大林鎮","MARKTYPE":"996","Class":"6"},"geometry":{"x":194500.1595999999,"y":2611052.2482999992}},{"attributes":{"OBJECTID":25855,"LANDMARKID":"1001000000653","LANDMARKCO":"405","LANDMARKNA":"中油加油站-新港站(中油直營)","LANDMARKAD":"1001007","ADDRESS":"嘉義縣新港鄉菜公村菜公厝64-1號","TEL":"05-3742054","COUNTYNAME":"嘉義縣","TOWNNAME":"新港鄉","MARKTYPE":"994","Class":"4"},"geometry":{"x":183334.8367999997,"y":2605402.9166999999}},{"attributes":{"OBJECTID":25856,"LANDMARKID":"1001000000654","LANDMARKCO":"405","LANDMARKNA":"台灣優力加油站-新港二站(中油)","LANDMARKAD":"1001007","ADDRESS":"嘉義縣新港鄉菜公村菜公厝25-6號","TEL":"05-3749264","COUNTYNAME":"嘉義縣","TOWNNAME":"新港鄉","MARKTYPE":"994","Class":"4"},"geometry":{"x":183503.09250000026,"y":2604559.4025999997}},{"attributes":{"OBJECTID":25857,"LANDMARKID":"1001000000655","LANDMARKCO":"405","LANDMARKNA":"統一速邁樂加油站-北港加油站(中油)","LANDMARKAD":"1001007","ADDRESS":"嘉義縣新港鄉南港路221號","TEL":" ","COUNTYNAME":"嘉義縣","TOWNNAME":"新港鄉","MARKTYPE":"994","Class":"4"},"geometry":{"x":179175.2034,"y":2606443.6526999995}},{"attributes":{"OBJECTID":25858,"LANDMARKID":"1001000000656","LANDMARKCO":"405","LANDMARKNA":"中油加油站-南壇站","LANDMARKAD":"1001007","ADDRESS":"嘉義縣新港鄉共和村頂菜園13-6號","TEL":"05-7812731","COUNTYNAME":"嘉義縣","TOWNNAME":"新港鄉","MARKTYPE":"994","Class":"4"},"geometry":{"x":180894.68070000038,"y":2606506.5397999994}},{"attributes":{"OBJECTID":25859,"LANDMARKID":"1001000000811","LANDMARKCO":"507","LANDMARKNA":"新港水仙宮","LANDMARKAD":"1001007","ADDRESS":"嘉義縣新港鄉南港村舊南港58號","TEL":" ","COUNTYNAME":"嘉義縣","TOWNNAME":"新港鄉","MARKTYPE":"995","Class":"5"},"geometry":{"x":179480.18379999977,"y":2606696.7241999991}},{"attributes":{"OBJECTID":25860,"LANDMARKID":"1001000000812","LANDMARKCO":"507","LANDMARKNA":"新港奉天宮","LANDMARKAD":"1001007","ADDRESS":"嘉義縣新港鄉大興村新民路53號","TEL":" ","COUNTYNAME":"嘉義縣","TOWNNAME":"新港鄉","MARKTYPE":"995","Class":"5"},"geometry":{"x":183426.01169999968,"y":2606080.6761000007}},{"attributes":{"OBJECTID":25861,"LANDMARKID":"1001000000813","LANDMARKCO":"507","LANDMARKNA":"新港大興宮","LANDMARKAD":"1001007","ADDRESS":"嘉義縣新港鄉大興村中正路73號","TEL":" ","COUNTYNAME":"嘉義縣","TOWNNAME":"新港鄉","MARKTYPE":"995","Class":"5"},"geometry":{"x":183130.77639999986,"y":2606189.3592000008}},{"attributes":{"OBJECTID":25862,"LANDMARKID":"1001000000814","LANDMARKCO":"507","LANDMARKNA":"六興宮","LANDMARKAD":"1001007","ADDRESS":"嘉義縣新港鄉溪北村溪北路65號","TEL":" ","COUNTYNAME":"嘉義縣","TOWNNAME":"新港鄉","MARKTYPE":"995","Class":"5"},"geometry":{"x":182225.54970000032,"y":2600974.3109000009}},{"attributes":{"OBJECTID":25863,"LANDMARKID":"1001000000733","LANDMARKCO":"408","LANDMARKNA":"郵局-新港郵局","LANDMARKAD":"1001007","ADDRESS":"嘉義縣新港鄉宮前村中正路8號","TEL":"(05)3742-130","COUNTYNAME":"嘉義縣","TOWNNAME":"新港鄉","MARKTYPE":"994","Class":"4"},"geometry":{"x":183251.83779999986,"y":2605903.8232000005}},{"attributes":{"OBJECTID":25864,"LANDMARKID":"1001000000734","LANDMARKCO":"408","LANDMARKNA":"郵局-新港中洋郵局","LANDMARKAD":"1001007","ADDRESS":"嘉義縣新港鄉中洋村中洋工業區1號","TEL":"(05)3770-803","COUNTYNAME":"嘉義縣","TOWNNAME":"新港鄉","MARKTYPE":"994","Class":"4"},"geometry":{"x":186085.76269999985,"y":2602522.2767999992}},{"attributes":{"OBJECTID":25865,"LANDMARKID":"1001000000599","LANDMARKCO":"404","LANDMARKNA":"台灣省自來水新港營運所","LANDMARKAD":"1001007","ADDRESS":"嘉義縣新港鄉中山路165號","TEL":" ","COUNTYNAME":"嘉義縣","TOWNNAME":"新港鄉","MARKTYPE":"994","Class":"4"},"geometry":{"x":183418.99710000027,"y":2605591.5957999993}},{"attributes":{"OBJECTID":25866,"LANDMARKID":"1001000000710","LANDMARKCO":"406","LANDMARKNA":"新港公園","LANDMARKAD":"1001007","ADDRESS":"嘉義縣新港鄉","TEL":" ","COUNTYNAME":"嘉義縣","TOWNNAME":"新港鄉","MARKTYPE":"994","Class":"4"},"geometry":{"x":183166.26020000037,"y":2605639.3276000004}},{"attributes":{"OBJECTID":25867,"LANDMARKID":"1001000000651","LANDMARKCO":"405","LANDMARKNA":"福懋加油站-新港站(台塑)","LANDMARKAD":"1001007","ADDRESS":"嘉義縣新港鄉嘉化路101號","TEL":"05-3748666","COUNTYNAME":"嘉義縣","TOWNNAME":"新港鄉","MARKTYPE":"994","Class":"4"},"geometry":{"x":183333.38559999969,"y":2605407.6969000008}},{"attributes":{"OBJECTID":25868,"LANDMARKID":"1001000000652","LANDMARKCO":"405","LANDMARKNA":"福懋加油站-中洋站(台塑)","LANDMARKAD":"1001007","ADDRESS":"嘉義縣新港鄉中洋村中洋子78-15號","TEL":"05-3774008","COUNTYNAME":"嘉義縣","TOWNNAME":"新港鄉","MARKTYPE":"994","Class":"4"},"geometry":{"x":185617.20380000025,"y":2602672.2296999991}},{"attributes":{"OBJECTID":25869,"LANDMARKID":"1001000000064","LANDMARKCO":"103","LANDMARKNA":"嘉義縣新港鄉衛生所","LANDMARKAD":"1001007","ADDRESS":"嘉義縣新港鄉宮前村中山路167號","TEL":"05-3742025","COUNTYNAME":"嘉義縣","TOWNNAME":"新港鄉","MARKTYPE":"991","Class":"1"},"geometry":{"x":183398.33150000032,"y":2605601.0653000008}},{"attributes":{"OBJECTID":25870,"LANDMARKID":"1001000000213","LANDMARKCO":"108","LANDMARKNA":"嘉義縣新港鄉公所","LANDMARKAD":"1001007","ADDRESS":"嘉義縣新港鄉中山路155號","TEL":"05-3742104","COUNTYNAME":"嘉義縣","TOWNNAME":"新港鄉","MARKTYPE":"991","Class":"1"},"geometry":{"x":183411.60410000011,"y":2605558.9818999991}},{"attributes":{"OBJECTID":25871,"LANDMARKID":"1001000000065","LANDMARKCO":"103","LANDMARKNA":"嘉義縣新港鄉民代表會","LANDMARKAD":"1001007","ADDRESS":"嘉義縣新港鄉中山路155號","TEL":"05-3742051","COUNTYNAME":"嘉義縣","TOWNNAME":"新港鄉","MARKTYPE":"991","Class":"1"},"geometry":{"x":183411.60410000011,"y":2605558.9818999991}},{"attributes":{"OBJECTID":25872,"LANDMARKID":"1001000000149","LANDMARKCO":"107","LANDMARKNA":"嘉義縣警察局安和派出所","LANDMARKAD":"1001007","ADDRESS":"嘉義縣新港鄉安和村番婆16號","TEL":"05-3772104","COUNTYNAME":"嘉義縣","TOWNNAME":"新港鄉","MARKTYPE":"991","Class":"1"},"geometry":{"x":180029.43340000045,"y":2601384.2463000007}},{"attributes":{"OBJECTID":25873,"LANDMARKID":"1001000000150","LANDMARKCO":"107","LANDMARKNA":"嘉義縣警察局月眉派出所","LANDMARKAD":"1001007","ADDRESS":"嘉義縣新港鄉月潭村月眉潭204號","TEL":"05-3772524","COUNTYNAME":"嘉義縣","TOWNNAME":"新港鄉","MARKTYPE":"991","Class":"1"},"geometry":{"x":183812.21949999966,"y":2602312.8532999996}},{"attributes":{"OBJECTID":25874,"LANDMARKID":"1001000000151","LANDMARKCO":"107","LANDMARKNA":"嘉義縣警察局新港分駐所","LANDMARKAD":"1001007","ADDRESS":"嘉義縣新港鄉大興村中正路47號","TEL":"05-3742009","COUNTYNAME":"嘉義縣","TOWNNAME":"新港鄉","MARKTYPE":"991","Class":"1"},"geometry":{"x":183269.43159999978,"y":2606085.2105}},{"attributes":{"OBJECTID":25875,"LANDMARKID":"1001000000152","LANDMARKCO":"107","LANDMARKNA":"嘉義縣消防局新港消防分隊","LANDMARKAD":"1001007","ADDRESS":"嘉義縣新港鄉公園路28號","TEL":"05-3742314","COUNTYNAME":"嘉義縣","TOWNNAME":"新港鄉","MARKTYPE":"991","Class":"1"},"geometry":{"x":183191.45799999963,"y":2605695.3855000008}},{"attributes":{"OBJECTID":25876,"LANDMARKID":"1001000000085","LANDMARKCO":"106","LANDMARKNA":"嘉義縣新港鄉戶政事務所","LANDMARKAD":"1001007","ADDRESS":"嘉義縣新港鄉中山路159號","TEL":"05-3742514","COUNTYNAME":"嘉義縣","TOWNNAME":"新港鄉","MARKTYPE":"991","Class":"1"},"geometry":{"x":183387.10089999996,"y":2605526.8657000009}},{"attributes":{"OBJECTID":25877,"LANDMARKID":"1001000000147","LANDMARKCO":"107","LANDMARKNA":"嘉義縣警察局南港派出所","LANDMARKAD":"1001007","ADDRESS":"嘉義縣新港鄉南港村1號","TEL":"05-7811618","COUNTYNAME":"嘉義縣","TOWNNAME":"新港鄉","MARKTYPE":"991","Class":"1"},"geometry":{"x":180381.60510000028,"y":2606570.6810999997}},{"attributes":{"OBJECTID":25878,"LANDMARKID":"1001000000148","LANDMARKCO":"107","LANDMARKNA":"嘉義縣警察局埤頭派出所","LANDMARKAD":"1001007","ADDRESS":"嘉義縣新港鄉埤子村32號","TEL":"05-3760853","COUNTYNAME":"嘉義縣","TOWNNAME":"新港鄉","MARKTYPE":"991","Class":"1"},"geometry":{"x":185237.69350000005,"y":2609400.7304999996}},{"attributes":{"OBJECTID":25879,"LANDMARKID":"1001000000466","LANDMARKCO":"205","LANDMARKNA":"新港華天宮文物陳列室","LANDMARKAD":"1001007","ADDRESS":"嘉義縣新港鄉新民路53號","TEL":"05-3742034","COUNTYNAME":"嘉義縣","TOWNNAME":"新港鄉","MARKTYPE":"992","Class":"2"},"geometry":{"x":183429.73749999981,"y":2606109.2937000003}},{"attributes":{"OBJECTID":25880,"LANDMARKID":"1001000000467","LANDMARKCO":"205","LANDMARKNA":"嘉義縣自然史教育館","LANDMARKAD":"1001007","ADDRESS":"嘉義縣新港鄉登雲路105號","TEL":" ","COUNTYNAME":"嘉義縣","TOWNNAME":"新港鄉","MARKTYPE":"992","Class":"2"},"geometry":{"x":183142.24149999954,"y":2606004.2534999996}},{"attributes":{"OBJECTID":25881,"LANDMARKID":"1001000000453","LANDMARKCO":"204","LANDMARKNA":"嘉義縣立圖書館新港分館","LANDMARKAD":"1001007","ADDRESS":"嘉義縣新港鄉宮前村中山路156號","TEL":" ","COUNTYNAME":"嘉義縣","TOWNNAME":"新港鄉","MARKTYPE":"992","Class":"2"},"geometry":{"x":183342.99600000028,"y":2605548.6074999999}},{"attributes":{"OBJECTID":25882,"LANDMARKID":"1001000000350","LANDMARKCO":"203","LANDMARKNA":"縣立新港國中","LANDMARKAD":"1001007","ADDRESS":"嘉義縣新港鄉福德村福德路106號","TEL":"05-3746304","COUNTYNAME":"嘉義縣","TOWNNAME":"新港鄉","MARKTYPE":"992","Class":"2"},"geometry":{"x":183008.46200000029,"y":2606285.8524999991}},{"attributes":{"OBJECTID":25883,"LANDMARKID":"1001000000351","LANDMARKCO":"203","LANDMARKNA":"縣立文昌國小","LANDMARKAD":"1001007","ADDRESS":"嘉義縣新港鄉宮前村古民街12號","TEL":"05-3742172","COUNTYNAME":"嘉義縣","TOWNNAME":"新港鄉","MARKTYPE":"992","Class":"2"},"geometry":{"x":183685.59609999973,"y":2605758.1432000007}},{"attributes":{"OBJECTID":25884,"LANDMARKID":"1001000000352","LANDMARKCO":"203","LANDMARKNA":"縣立復興國小","LANDMARKAD":"1001007","ADDRESS":"嘉義縣新港鄉北崙村崙子75之4號","TEL":"05-3760424","COUNTYNAME":"嘉義縣","TOWNNAME":"新港鄉","MARKTYPE":"992","Class":"2"},"geometry":{"x":184387.57320000045,"y":2609760.1508000009}},{"attributes":{"OBJECTID":25885,"LANDMARKID":"1001000000353","LANDMARKCO":"203","LANDMARKNA":"縣立新港國小","LANDMARKAD":"1001007","ADDRESS":"嘉義縣新港鄉福德村登雲路105號","TEL":"05-3746290","COUNTYNAME":"嘉義縣","TOWNNAME":"新港鄉","MARKTYPE":"992","Class":"2"},"geometry":{"x":183125.48120000027,"y":2605977.7871000003}},{"attributes":{"OBJECTID":25886,"LANDMARKID":"1001000000232","LANDMARKCO":"202","LANDMARKNA":"國立新港藝術高中(籌)","LANDMARKAD":"1001007","ADDRESS":"嘉義縣新港鄉褔德路106號","TEL":"05-3747413","COUNTYNAME":"嘉義縣","TOWNNAME":"新港鄉","MARKTYPE":"992","Class":"2"},"geometry":{"x":183442.10199999996,"y":2606460.3829999994}},{"attributes":{"OBJECTID":25887,"LANDMARKID":"1001000000345","LANDMARKCO":"203","LANDMARKNA":"縣立月眉國小","LANDMARKAD":"1001007","ADDRESS":"嘉義縣新港鄉月眉村20鄰123號","TEL":"05-3772059","COUNTYNAME":"嘉義縣","TOWNNAME":"新港鄉","MARKTYPE":"992","Class":"2"},"geometry":{"x":183797.97329999972,"y":2601960.7954999991}},{"attributes":{"OBJECTID":25888,"LANDMARKID":"1001000000346","LANDMARKCO":"203","LANDMARKNA":"縣立古民國小","LANDMARKAD":"1001007","ADDRESS":"嘉義縣新港鄉古民村161號","TEL":"05-3742154","COUNTYNAME":"嘉義縣","TOWNNAME":"新港鄉","MARKTYPE":"992","Class":"2"},"geometry":{"x":183563.45349999983,"y":2606690.9280999992}},{"attributes":{"OBJECTID":25889,"LANDMARKID":"1001000000347","LANDMARKCO":"203","LANDMARKNA":"縣立安和國小","LANDMARKAD":"1001007","ADDRESS":"嘉義縣新港鄉安和村46號","TEL":"05-3772940","COUNTYNAME":"嘉義縣","TOWNNAME":"新港鄉","MARKTYPE":"992","Class":"2"},"geometry":{"x":179848.46040000021,"y":2601470.9613000005}},{"attributes":{"OBJECTID":25890,"LANDMARKID":"1001000000348","LANDMARKCO":"203","LANDMARKNA":"縣立文昌國小大潭分班","LANDMARKAD":"1001007","ADDRESS":"嘉義縣新港鄉大潭村33號","TEL":"05-3744406","COUNTYNAME":"嘉義縣","TOWNNAME":"新港鄉","MARKTYPE":"992","Class":"2"},"geometry":{"x":185704.0318,"y":2605550.3583000004}},{"attributes":{"OBJECTID":25891,"LANDMARKID":"1001000000349","LANDMARKCO":"203","LANDMARKNA":"縣立月眉國小中洋分校","LANDMARKAD":"1001007","ADDRESS":"嘉義縣新港鄉中洋村59號","TEL":"05-3771764","COUNTYNAME":"嘉義縣","TOWNNAME":"新港鄉","MARKTYPE":"992","Class":"2"},"geometry":{"x":185791.43259999994,"y":2602690.7943999991}},{"attributes":{"OBJECTID":25892,"LANDMARKID":"1001000000489","LANDMARKCO":"302","LANDMARKNA":"統聯客運-新港站-代售處","LANDMARKAD":"1001007","ADDRESS":"嘉義縣新港鄉福德路123號","TEL":"連絡電話:05-374","COUNTYNAME":"嘉義縣","TOWNNAME":"新港鄉","MARKTYPE":"993","Class":"302"},"geometry":{"x":182956.22890000045,"y":2606106.0278999992}},{"attributes":{"OBJECTID":25893,"LANDMARKID":"1001000000502","LANDMARKCO":"303","LANDMARKNA":"水仙宮停車場","LANDMARKAD":"1001007","ADDRESS":"嘉義縣新港鄉","TEL":" ","COUNTYNAME":"嘉義縣","TOWNNAME":"新港鄉","MARKTYPE":"993","Class":"303"},"geometry":{"x":179449.11309999973,"y":2606677.7787999995}},{"attributes":{"OBJECTID":25894,"LANDMARKID":"1001000000503","LANDMARKCO":"303","LANDMARKNA":"新港鄉公園停車場","LANDMARKAD":"1001007","ADDRESS":"嘉義縣新港鄉公園路、中山路口","TEL":" ","COUNTYNAME":"嘉義縣","TOWNNAME":"新港鄉","MARKTYPE":"993","Class":"303"},"geometry":{"x":183198.49019999988,"y":2605686.0008000005}},{"attributes":{"OBJECTID":25895,"LANDMARKID":"1001000000504","LANDMARKCO":"303","LANDMARKNA":"新港鄉立體停車場","LANDMARKAD":"1001007","ADDRESS":"嘉義縣新港鄉","TEL":" ","COUNTYNAME":"嘉義縣","TOWNNAME":"新港鄉","MARKTYPE":"993","Class":"303"},"geometry":{"x":183441.11129999999,"y":2605817.8552999999}},{"attributes":{"OBJECTID":25896,"LANDMARKID":"1001000000505","LANDMARKCO":"303","LANDMARKNA":"新港公園停車場","LANDMARKAD":"1001007","ADDRESS":"嘉義縣新港鄉公園路","TEL":" ","COUNTYNAME":"嘉義縣","TOWNNAME":"新港鄉","MARKTYPE":"993","Class":"303"},"geometry":{"x":183213.8470999999,"y":2605692.1981000006}},{"attributes":{"OBJECTID":25897,"LANDMARKID":"1001000000506","LANDMARKCO":"303","LANDMARKNA":"新港鄉西北村停車場","LANDMARKAD":"1001007","ADDRESS":"嘉義縣新港鄉西北村","TEL":" ","COUNTYNAME":"嘉義縣","TOWNNAME":"新港鄉","MARKTYPE":"993","Class":"303"},"geometry":{"x":183351.4095999999,"y":2605632.0333999991}},{"attributes":{"OBJECTID":25898,"LANDMARKID":"1001000000507","LANDMARKCO":"303","LANDMARKNA":"新港鄉南港水仙宮停車場","LANDMARKAD":"1001007","ADDRESS":"嘉義縣新港鄉南港村","TEL":" ","COUNTYNAME":"嘉義縣","TOWNNAME":"新港鄉","MARKTYPE":"993","Class":"303"},"geometry":{"x":183350.91110000014,"y":2605631.5190999992}},{"attributes":{"OBJECTID":25899,"LANDMARKID":"1001000000581","LANDMARKCO":"402","LANDMARKNA":"中華電信-新港服務中心","LANDMARKAD":"1001007","ADDRESS":"嘉義縣新港鄉中正路8-1號","TEL":"(05)344-4403","COUNTYNAME":"嘉義縣","TOWNNAME":"新港鄉","MARKTYPE":"994","Class":"4"},"geometry":{"x":183253.79679999966,"y":2605912.8322000001}},{"attributes":{"OBJECTID":25900,"LANDMARKID":"1001000000855","LANDMARKCO":"603","LANDMARKNA":"新中旅社","LANDMARKAD":"1001007","ADDRESS":"嘉義縣新港鄉宮前村中山路50號","TEL":"05-3742027","COUNTYNAME":"嘉義縣","TOWNNAME":"新港鄉","MARKTYPE":"996","Class":"6"},"geometry":{"x":183373.73730000015,"y":2605925.0846999995}},{"attributes":{"OBJECTID":25901,"LANDMARKID":"1001000000856","LANDMARKCO":"603","LANDMARKNA":"新晃旅社","LANDMARKAD":"1001007","ADDRESS":"嘉義縣新港鄉宮前村登雲路74號之2","TEL":"05-3742853","COUNTYNAME":"嘉義縣","TOWNNAME":"新港鄉","MARKTYPE":"996","Class":"6"},"geometry":{"x":183340.88790000044,"y":2605981.2226999998}},{"attributes":{"OBJECTID":25902,"LANDMARKID":"1001000000892","LANDMARKCO":"604","LANDMARKNA":"老家民宿","LANDMARKAD":"1001007","ADDRESS":"嘉義縣新港鄉菜公村咬仔竹33號","TEL":"05-3772282","COUNTYNAME":"嘉義縣","TOWNNAME":"新港鄉","MARKTYPE":"996","Class":"6"},"geometry":{"x":184537.73249999993,"y":2603465.2647999991}},{"attributes":{"OBJECTID":25903,"LANDMARKID":"1001000000657","LANDMARKCO":"405","LANDMARKNA":"中油加油站-梅山站(刷卡自助)(中油直營)","LANDMARKAD":"1001015","ADDRESS":"嘉義縣梅山鄉梅北村中山路746號","TEL":"05-2622821","COUNTYNAME":"嘉義縣","TOWNNAME":"梅山鄉","MARKTYPE":"994","Class":"4"},"geometry":{"x":203599.60950000025,"y":2609677.8050999995}},{"attributes":{"OBJECTID":25904,"LANDMARKID":"1001000000831","LANDMARKCO":"513","LANDMARKNA":"太平風景區","LANDMARKAD":"1001015","ADDRESS":"嘉義縣梅山鄉","TEL":" ","COUNTYNAME":"嘉義縣","TOWNNAME":"梅山鄉","MARKTYPE":"995","Class":"5"},"geometry":{"x":209792.46960000042,"y":2606288.8319000006}},{"attributes":{"OBJECTID":25905,"LANDMARKID":"1001000000809","LANDMARKCO":"506","LANDMARKNA":"太和綜合觀光果園","LANDMARKAD":"1001015","ADDRESS":"嘉義縣梅山鄉太和村樟樹湖17號","TEL":"05-2561037","COUNTYNAME":"嘉義縣","TOWNNAME":"梅山鄉","MARKTYPE":"995","Class":"5"},"geometry":{"x":221098.50509999972,"y":2603789.0580000002}},{"attributes":{"OBJECTID":25906,"LANDMARKID":"1001000000810","LANDMARKCO":"506","LANDMARKNA":"大南椪柑觀光果園","LANDMARKAD":"1001015","ADDRESS":"嘉義縣梅山鄉大南村10鄰坑口1之6號","TEL":"05-2624139","COUNTYNAME":"嘉義縣","TOWNNAME":"梅山鄉","MARKTYPE":"995","Class":"5"},"geometry":{"x":204480.51790000033,"y":2605749.1371999998}},{"attributes":{"OBJECTID":25907,"LANDMARKID":"1001000000735","LANDMARKCO":"408","LANDMARKNA":"郵局-梅山郵局","LANDMARKAD":"1001015","ADDRESS":"嘉義縣梅山鄉中山路109號","TEL":"(05)2621-213","COUNTYNAME":"嘉義縣","TOWNNAME":"梅山鄉","MARKTYPE":"994","Class":"4"},"geometry":{"x":204980.96439999994,"y":2608653.1975999996}},{"attributes":{"OBJECTID":25908,"LANDMARKID":"1001000000767","LANDMARKCO":"409","LANDMARKNA":"嘉義縣梅山鄉農會","LANDMARKAD":"1001015","ADDRESS":"嘉義縣梅山鄉梅南村中山路127號","TEL":"05-2622100","COUNTYNAME":"嘉義縣","TOWNNAME":"梅山鄉","MARKTYPE":"994","Class":"4"},"geometry":{"x":204919.1305999998,"y":2608504.9340000004}},{"attributes":{"OBJECTID":25909,"LANDMARKID":"1001000000708","LANDMARKCO":"406","LANDMARKNA":"社區公園","LANDMARKAD":"1001015","ADDRESS":"嘉義縣梅山鄉","TEL":" ","COUNTYNAME":"嘉義縣","TOWNNAME":"梅山鄉","MARKTYPE":"994","Class":"4"},"geometry":{"x":209848.18070000038,"y":2606338.2313999999}},{"attributes":{"OBJECTID":25910,"LANDMARKID":"1001000000709","LANDMARKCO":"406","LANDMARKNA":"梅山公園","LANDMARKAD":"1001015","ADDRESS":"嘉義縣梅山鄉","TEL":" ","COUNTYNAME":"嘉義縣","TOWNNAME":"梅山鄉","MARKTYPE":"994","Class":"4"},"geometry":{"x":204671.3861999996,"y":2608446.3544999994}},{"attributes":{"OBJECTID":25911,"LANDMARKID":"1001000000658","LANDMARKCO":"405","LANDMARKNA":"福懋加油站-梅山站(台塑)","LANDMARKAD":"1001015","ADDRESS":"嘉義縣梅山鄉梅北村12鄰中山路581號","TEL":"05-2627248","COUNTYNAME":"嘉義縣","TOWNNAME":"梅山鄉","MARKTYPE":"994","Class":"4"},"geometry":{"x":203977.41179999989,"y":2609431.1600000001}},{"attributes":{"OBJECTID":25912,"LANDMARKID":"1001000000066","LANDMARKCO":"103","LANDMARKNA":"嘉義縣梅山鄉衛生所","LANDMARKAD":"1001015","ADDRESS":"嘉義縣梅山鄉梅北村華山路18號","TEL":"05-2621049","COUNTYNAME":"嘉義縣","TOWNNAME":"梅山鄉","MARKTYPE":"991","Class":"1"},"geometry":{"x":204624.14020000026,"y":2609291.3742999993}},{"attributes":{"OBJECTID":25913,"LANDMARKID":"1001000000212","LANDMARKCO":"108","LANDMARKNA":"嘉義縣梅山鄉公所","LANDMARKAD":"1001015","ADDRESS":"嘉義縣梅山鄉中山路282號","TEL":"05-2622121","COUNTYNAME":"嘉義縣","TOWNNAME":"梅山鄉","MARKTYPE":"991","Class":"1"},"geometry":{"x":204629.30920000002,"y":2609177.3084999993}},{"attributes":{"OBJECTID":25914,"LANDMARKID":"1001000000067","LANDMARKCO":"103","LANDMARKNA":"嘉義縣梅山鄉民代表會","LANDMARKAD":"1001015","ADDRESS":"嘉義縣梅山鄉中山路282號2樓","TEL":"05-2621145","COUNTYNAME":"嘉義縣","TOWNNAME":"梅山鄉","MARKTYPE":"991","Class":"1"},"geometry":{"x":204629.30920000002,"y":2609177.3084999993}},{"attributes":{"OBJECTID":25915,"LANDMARKID":"1001000000155","LANDMARKCO":"107","LANDMARKNA":"嘉義縣警察局瑞里派出所","LANDMARKAD":"1001015","ADDRESS":"嘉義縣梅山鄉瑞里村幼葉林120號","TEL":"05-2501041","COUNTYNAME":"嘉義縣","TOWNNAME":"梅山鄉","MARKTYPE":"991","Class":"1"},"geometry":{"x":215769.75960000046,"y":2604146.2800999992}},{"attributes":{"OBJECTID":25916,"LANDMARKID":"1001000000156","LANDMARKCO":"107","LANDMARKNA":"嘉義縣警察局大南派出所","LANDMARKAD":"1001015","ADDRESS":"嘉義縣梅山鄉大南村南勢坑48號","TEL":"05-2621412","COUNTYNAME":"嘉義縣","TOWNNAME":"梅山鄉","MARKTYPE":"991","Class":"1"},"geometry":{"x":204227.79899999965,"y":2605610.0473999996}},{"attributes":{"OBJECTID":25917,"LANDMARKID":"1001000000157","LANDMARKCO":"107","LANDMARKNA":"嘉義縣警察局梅山分駐所","LANDMARKAD":"1001015","ADDRESS":"嘉義縣梅山鄉梅東村中山路68號","TEL":"05-2621003","COUNTYNAME":"嘉義縣","TOWNNAME":"梅山鄉","MARKTYPE":"991","Class":"1"},"geometry":{"x":204986.62270000018,"y":2608756.9384000003}},{"attributes":{"OBJECTID":25918,"LANDMARKID":"1001000000158","LANDMARKCO":"107","LANDMARKNA":"嘉義縣消防局梅山消防分隊","LANDMARKAD":"1001015","ADDRESS":"嘉義縣梅山鄉華山路20號","TEL":"05-2621020","COUNTYNAME":"嘉義縣","TOWNNAME":"梅山鄉","MARKTYPE":"991","Class":"1"},"geometry":{"x":204613.93350000028,"y":2609307.9858999997}},{"attributes":{"OBJECTID":25919,"LANDMARKID":"1001000000084","LANDMARKCO":"106","LANDMARKNA":"嘉義縣梅山鄉戶政事務所","LANDMARKAD":"1001015","ADDRESS":"嘉義縣梅山鄉梅南村6鄰環南路120號","TEL":"05-2621525","COUNTYNAME":"嘉義縣","TOWNNAME":"梅山鄉","MARKTYPE":"991","Class":"1"},"geometry":{"x":204805.00659999996,"y":2608638.2127}},{"attributes":{"OBJECTID":25920,"LANDMARKID":"1001000000153","LANDMARKCO":"107","LANDMARKNA":"嘉義縣警察局太平派出所","LANDMARKAD":"1001015","ADDRESS":"嘉義縣梅山鄉太平村40號","TEL":"05-2571202","COUNTYNAME":"嘉義縣","TOWNNAME":"梅山鄉","MARKTYPE":"991","Class":"1"},"geometry":{"x":209281.4654000001,"y":2606360.3311000001}},{"attributes":{"OBJECTID":25921,"LANDMARKID":"1001000000154","LANDMARKCO":"107","LANDMARKNA":"嘉義縣警察局太和派出所","LANDMARKAD":"1001015","ADDRESS":"嘉義縣梅山鄉太和村哈里味24號","TEL":"05-2661055","COUNTYNAME":"嘉義縣","TOWNNAME":"梅山鄉","MARKTYPE":"991","Class":"1"},"geometry":{"x":221811.89890000038,"y":2603730.3433999997}},{"attributes":{"OBJECTID":25922,"LANDMARKID":"1001000000454","LANDMARKCO":"204","LANDMARKNA":"嘉義縣立圖書館梅山分館","LANDMARKAD":"1001015","ADDRESS":"嘉義縣梅山鄉梅南村梅仔山8號","TEL":" ","COUNTYNAME":"嘉義縣","TOWNNAME":"梅山鄉","MARKTYPE":"992","Class":"2"},"geometry":{"x":204855.26599999983,"y":2608414.3877000008}},{"attributes":{"OBJECTID":25923,"LANDMARKID":"1001000000332","LANDMARKCO":"203","LANDMARKNA":"縣立梅山國中","LANDMARKAD":"1001015","ADDRESS":"嘉義縣梅山鄉梅東村中學路1號","TEL":"05-2621047","COUNTYNAME":"嘉義縣","TOWNNAME":"梅山鄉","MARKTYPE":"992","Class":"2"},"geometry":{"x":205064.95669999998,"y":2608040.4616999999}},{"attributes":{"OBJECTID":25924,"LANDMARKID":"1001000000333","LANDMARKCO":"203","LANDMARKNA":"縣立梅圳國小","LANDMARKAD":"1001015","ADDRESS":"嘉義縣梅山鄉圳南村三源23號","TEL":"05-2621615","COUNTYNAME":"嘉義縣","TOWNNAME":"梅山鄉","MARKTYPE":"992","Class":"2"},"geometry":{"x":208156.19440000039,"y":2608264.8134000003}},{"attributes":{"OBJECTID":25925,"LANDMARKID":"1001000000334","LANDMARKCO":"203","LANDMARKNA":"縣立大南國小","LANDMARKAD":"1001015","ADDRESS":"嘉義縣梅山鄉大南村大草埔15號","TEL":"05-2621253","COUNTYNAME":"嘉義縣","TOWNNAME":"梅山鄉","MARKTYPE":"992","Class":"2"},"geometry":{"x":204498.27880000044,"y":2606150.6938000005}},{"attributes":{"OBJECTID":25926,"LANDMARKID":"1001000000335","LANDMARKCO":"203","LANDMARKNA":"縣立梅山國小","LANDMARKAD":"1001015","ADDRESS":"嘉義縣梅山鄉梅東村中山路28號之1","TEL":"05-2621004","COUNTYNAME":"嘉義縣","TOWNNAME":"梅山鄉","MARKTYPE":"992","Class":"2"},"geometry":{"x":205019.35950000025,"y":2608547.6334000006}},{"attributes":{"OBJECTID":25927,"LANDMARKID":"1001000000336","LANDMARKCO":"203","LANDMARKNA":"縣立瑞峰國小","LANDMARKAD":"1001015","ADDRESS":"嘉義縣梅山鄉瑞峰村生毛樹19號之1","TEL":"05-2501215","COUNTYNAME":"嘉義縣","TOWNNAME":"梅山鄉","MARKTYPE":"992","Class":"2"},"geometry":{"x":216071.15369999968,"y":2606054.8096999992}},{"attributes":{"OBJECTID":25928,"LANDMARKID":"1001000000337","LANDMARKCO":"203","LANDMARKNA":"縣立仁和國小","LANDMARKAD":"1001015","ADDRESS":"嘉義縣梅山鄉太和村社前湖6號","TEL":"05-2661130","COUNTYNAME":"嘉義縣","TOWNNAME":"梅山鄉","MARKTYPE":"992","Class":"2"},"geometry":{"x":221798.34360000025,"y":2605979.5985000003}},{"attributes":{"OBJECTID":25929,"LANDMARKID":"1001000000338","LANDMARKCO":"203","LANDMARKNA":"縣立梅北國小","LANDMARKAD":"1001015","ADDRESS":"嘉義縣梅山鄉民生街1號","TEL":"05-2626545","COUNTYNAME":"嘉義縣","TOWNNAME":"梅山鄉","MARKTYPE":"992","Class":"2"},"geometry":{"x":204249.55630000029,"y":2609381.9649}},{"attributes":{"OBJECTID":25930,"LANDMARKID":"1001000000339","LANDMARKCO":"203","LANDMARKNA":"縣立瑞里國小","LANDMARKAD":"1001015","ADDRESS":"嘉義縣梅山鄉瑞里村112號","TEL":"05-2501055","COUNTYNAME":"嘉義縣","TOWNNAME":"梅山鄉","MARKTYPE":"992","Class":"2"},"geometry":{"x":215849.85479999986,"y":2604060.3986000009}},{"attributes":{"OBJECTID":25931,"LANDMARKID":"1001000000340","LANDMARKCO":"203","LANDMARKNA":"縣立太和國小","LANDMARKAD":"1001015","ADDRESS":"嘉義縣梅山鄉太和村3鄰18號","TEL":"05-2661069","COUNTYNAME":"嘉義縣","TOWNNAME":"梅山鄉","MARKTYPE":"992","Class":"2"},"geometry":{"x":221906.61120000016,"y":2603880.5253999997}},{"attributes":{"OBJECTID":25932,"LANDMARKID":"1001000000341","LANDMARKCO":"203","LANDMARKNA":"縣立龍眼國小","LANDMARKAD":"1001015","ADDRESS":"嘉義縣梅山鄉龍眼村41號","TEL":"05-2571009","COUNTYNAME":"嘉義縣","TOWNNAME":"梅山鄉","MARKTYPE":"992","Class":"2"},"geometry":{"x":211942.3535000002,"y":2608870.5778000001}},{"attributes":{"OBJECTID":25933,"LANDMARKID":"1001000000342","LANDMARKCO":"203","LANDMARKNA":"縣立太平國小","LANDMARKAD":"1001015","ADDRESS":"嘉義縣梅山鄉太平村4號","TEL":"05-2571004","COUNTYNAME":"嘉義縣","TOWNNAME":"梅山鄉","MARKTYPE":"992","Class":"2"},"geometry":{"x":209791.9561999999,"y":2606490.1687000003}},{"attributes":{"OBJECTID":25934,"LANDMARKID":"1001000000343","LANDMARKCO":"203","LANDMARKNA":"縣立太興國小","LANDMARKAD":"1001015","ADDRESS":"嘉義縣梅山鄉太興村4號","TEL":"05-2571087","COUNTYNAME":"嘉義縣","TOWNNAME":"梅山鄉","MARKTYPE":"992","Class":"2"},"geometry":{"x":212644.77859999985,"y":2604400.2149999999}},{"attributes":{"OBJECTID":25935,"LANDMARKID":"1001000000344","LANDMARKCO":"203","LANDMARKNA":"縣立安靖國小","LANDMARKAD":"1001015","ADDRESS":"嘉義縣梅山鄉安靖村柿子寮3號","TEL":"05-2621404","COUNTYNAME":"嘉義縣","TOWNNAME":"梅山鄉","MARKTYPE":"992","Class":"2"},"geometry":{"x":206833.88100000005,"y":2605600.6655000001}},{"attributes":{"OBJECTID":25936,"LANDMARKID":"1001000000514","LANDMARKCO":"303","LANDMARKNA":"梅山鄉公所停車場","LANDMARKAD":"1001015","ADDRESS":"嘉義縣梅山鄉中山路282號","TEL":" ","COUNTYNAME":"嘉義縣","TOWNNAME":"梅山鄉","MARKTYPE":"993","Class":"303"},"geometry":{"x":204658.38640000019,"y":2609160.5074000005}},{"attributes":{"OBJECTID":25937,"LANDMARKID":"1001000000515","LANDMARKCO":"303","LANDMARKNA":"梅山鄉公有第一停車場","LANDMARKAD":"1001015","ADDRESS":"嘉義縣梅山鄉公園路","TEL":" ","COUNTYNAME":"嘉義縣","TOWNNAME":"梅山鄉","MARKTYPE":"993","Class":"303"},"geometry":{"x":202581.72510000039,"y":2610216.4511999991}},{"attributes":{"OBJECTID":25938,"LANDMARKID":"1001000000484","LANDMARKCO":"301","LANDMARKNA":"梨園寮火車站","LANDMARKAD":"1001015","ADDRESS":"嘉義縣梅山鄉","TEL":" ","COUNTYNAME":"嘉義縣","TOWNNAME":"梅山鄉","MARKTYPE":"993","Class":"301"},"geometry":{"x":211224.18510000035,"y":2604383.9581000004}},{"attributes":{"OBJECTID":25939,"LANDMARKID":"1001000000586","LANDMARKCO":"402","LANDMARKNA":"中華電信-梅山服務中心","LANDMARKAD":"1001015","ADDRESS":"嘉義縣梅山鄉中山路408號","TEL":"(05)244-6730","COUNTYNAME":"嘉義縣","TOWNNAME":"梅山鄉","MARKTYPE":"994","Class":"4"},"geometry":{"x":204279.88069999963,"y":2609297.6636999995}},{"attributes":{"OBJECTID":25940,"LANDMARKID":"1001000000884","LANDMARKCO":"604","LANDMARKNA":"瑞里茶壺民宿","LANDMARKAD":"1001015","ADDRESS":"嘉義縣梅山鄉瑞里村幼葉林102號","TEL":"05-2501349","COUNTYNAME":"嘉義縣","TOWNNAME":"梅山鄉","MARKTYPE":"996","Class":"6"},"geometry":{"x":216347.95089999959,"y":2604089.5072000008}},{"attributes":{"OBJECTID":25941,"LANDMARKID":"1001000000885","LANDMARKCO":"604","LANDMARKNA":"王鼎茶園","LANDMARKAD":"1001015","ADDRESS":"嘉義縣梅山鄉瑞里村幼葉林97號","TEL":"05-2502299","COUNTYNAME":"嘉義縣","TOWNNAME":"梅山鄉","MARKTYPE":"996","Class":"6"},"geometry":{"x":216217.15830000024,"y":2604032.0240000002}},{"attributes":{"OBJECTID":25942,"LANDMARKID":"1001000000886","LANDMARKCO":"604","LANDMARKNA":"阿喜的店","LANDMARKAD":"1001015","ADDRESS":"嘉義縣梅山鄉瑞里村10-3號","TEL":"05-2501575","COUNTYNAME":"嘉義縣","TOWNNAME":"梅山鄉","MARKTYPE":"996","Class":"6"},"geometry":{"x":217719.14319999982,"y":2604464.7127999999}},{"attributes":{"OBJECTID":25943,"LANDMARKID":"1001000000887","LANDMARKCO":"604","LANDMARKNA":"阿漢的家民宿","LANDMARKAD":"1001015","ADDRESS":"嘉義縣梅山鄉瑞里村79號","TEL":"05-2501011","COUNTYNAME":"嘉義縣","TOWNNAME":"梅山鄉","MARKTYPE":"996","Class":"6"},"geometry":{"x":216817.51790000033,"y":2604162.2973999996}},{"attributes":{"OBJECTID":25944,"LANDMARKID":"1001000000888","LANDMARKCO":"604","LANDMARKNA":"竹林休閒小木屋","LANDMARKAD":"1001015","ADDRESS":"嘉義縣梅山鄉瑞峰村?埔21號","TEL":"05-2501483","COUNTYNAME":"嘉義縣","TOWNNAME":"梅山鄉","MARKTYPE":"996","Class":"6"},"geometry":{"x":217149.22640000004,"y":2605617.2485000007}},{"attributes":{"OBJECTID":25945,"LANDMARKID":"1001000000889","LANDMARKCO":"604","LANDMARKNA":"雅芳渡假木屋","LANDMARKAD":"1001015","ADDRESS":"嘉義縣梅山鄉瑞峰村?埔26號","TEL":"05-2501529","COUNTYNAME":"嘉義縣","TOWNNAME":"梅山鄉","MARKTYPE":"996","Class":"6"},"geometry":{"x":216941.16449999996,"y":2605559.0845999997}},{"attributes":{"OBJECTID":25946,"LANDMARKID":"1001000000863","LANDMARKCO":"603","LANDMARKNA":"梅花山莊","LANDMARKAD":"1001015","ADDRESS":"嘉義縣梅山鄉瑞里村幼葉林103之1號","TEL":"05-2501668","COUNTYNAME":"嘉義縣","TOWNNAME":"梅山鄉","MARKTYPE":"996","Class":"6"},"geometry":{"x":215857.86639999971,"y":2604055.4171999991}},{"attributes":{"OBJECTID":25947,"LANDMARKID":"1001000000864","LANDMARKCO":"603","LANDMARKNA":"瑞里渡假村歐湘園飯店","LANDMARKAD":"1001015","ADDRESS":"嘉義縣梅山鄉瑞里村幼葉林103號","TEL":"05-2501222","COUNTYNAME":"嘉義縣","TOWNNAME":"梅山鄉","MARKTYPE":"996","Class":"6"},"geometry":{"x":215887.78949999996,"y":2604088.4869999997}},{"attributes":{"OBJECTID":25948,"LANDMARKID":"1001000000865","LANDMARKCO":"603","LANDMARKNA":"青葉山莊","LANDMARKAD":"1001015","ADDRESS":"嘉義縣梅山鄉瑞里村幼葉林10號","TEL":"05-2501031","COUNTYNAME":"嘉義縣","TOWNNAME":"梅山鄉","MARKTYPE":"996","Class":"6"},"geometry":{"x":217203.79459999967,"y":2604394.2374000009}},{"attributes":{"OBJECTID":25949,"LANDMARKID":"1001000000866","LANDMARKCO":"603","LANDMARKNA":"若蘭山莊","LANDMARKAD":"1001015","ADDRESS":"嘉義縣梅山鄉瑞里村幼葉林10號之1","TEL":"05-2501210","COUNTYNAME":"嘉義縣","TOWNNAME":"梅山鄉","MARKTYPE":"996","Class":"6"},"geometry":{"x":217203.79459999967,"y":2604394.2374000009}},{"attributes":{"OBJECTID":25950,"LANDMARKID":"1001000000867","LANDMARKCO":"603","LANDMARKNA":"太平飯店","LANDMARKAD":"1001015","ADDRESS":"嘉義縣梅山鄉太平村大坪87號","TEL":"05-2571889","COUNTYNAME":"嘉義縣","TOWNNAME":"梅山鄉","MARKTYPE":"996","Class":"6"},"geometry":{"x":209390.6297000004,"y":2606301.6344000008}},{"attributes":{"OBJECTID":25951,"LANDMARKID":"1001000000868","LANDMARKCO":"603","LANDMARKNA":"英林旅社","LANDMARKAD":"1001015","ADDRESS":"嘉義縣梅山鄉梅北村中山路204號","TEL":"05-2621995","COUNTYNAME":"嘉義縣","TOWNNAME":"梅山鄉","MARKTYPE":"996","Class":"6"},"geometry":{"x":204812.74210000038,"y":2609033.5527999997}},{"attributes":{"OBJECTID":25952,"LANDMARKID":"1001000000869","LANDMARKCO":"603","LANDMARKNA":"梅喜大旅社","LANDMARKAD":"1001015","ADDRESS":"嘉義縣梅山鄉梅南村中山路15號","TEL":"05-2621127","COUNTYNAME":"嘉義縣","TOWNNAME":"梅山鄉","MARKTYPE":"996","Class":"6"},"geometry":{"x":204986.66679999977,"y":2608442.2181000002}},{"attributes":{"OBJECTID":25953,"LANDMARKID":"1001000000870","LANDMARKCO":"604","LANDMARKNA":"欣采民宿","LANDMARKAD":"1001015","ADDRESS":"嘉義縣梅山鄉太和村樟樹湖27號","TEL":"05-2561219","COUNTYNAME":"嘉義縣","TOWNNAME":"梅山鄉","MARKTYPE":"996","Class":"6"},"geometry":{"x":220074.92810000014,"y":2602178.2980000004}},{"attributes":{"OBJECTID":25954,"LANDMARKID":"1001000000871","LANDMARKCO":"604","LANDMARKNA":"樟樹湖茶葉民宿","LANDMARKAD":"1001015","ADDRESS":"嘉義縣梅山鄉太和村油車寮16號","TEL":"05-2562458","COUNTYNAME":"嘉義縣","TOWNNAME":"梅山鄉","MARKTYPE":"996","Class":"6"},"geometry":{"x":219895.74610000011,"y":2602882.5131000001}},{"attributes":{"OBJECTID":25955,"LANDMARKID":"1001000000872","LANDMARKCO":"604","LANDMARKNA":"茗園茶葉民宿","LANDMARKAD":"1001015","ADDRESS":"嘉義縣梅山鄉瑞里村幼葉林89號","TEL":"05-2501796","COUNTYNAME":"嘉義縣","TOWNNAME":"梅山鄉","MARKTYPE":"996","Class":"6"},"geometry":{"x":216575.32780000009,"y":2603983.1049000006}},{"attributes":{"OBJECTID":25956,"LANDMARKID":"1001000000873","LANDMARKCO":"604","LANDMARKNA":"漫步雲端民宿","LANDMARKAD":"1001015","ADDRESS":"嘉義縣梅山鄉瑞里村科子林15號","TEL":"05-2501011","COUNTYNAME":"嘉義縣","TOWNNAME":"梅山鄉","MARKTYPE":"996","Class":"6"},"geometry":{"x":216221.3208999997,"y":2603061.6044999994}},{"attributes":{"OBJECTID":25957,"LANDMARKID":"1001000000874","LANDMARKCO":"604","LANDMARKNA":"一品茶葉民宿","LANDMARKAD":"1001015","ADDRESS":"嘉義縣梅山鄉瑞里村幼葉林102號","TEL":"05-2501559","COUNTYNAME":"嘉義縣","TOWNNAME":"梅山鄉","MARKTYPE":"996","Class":"6"},"geometry":{"x":216052.74560000002,"y":2604107.2084999997}},{"attributes":{"OBJECTID":25958,"LANDMARKID":"1001000000875","LANDMARKCO":"604","LANDMARKNA":"瑞佳茶葉民宿","LANDMARKAD":"1001015","ADDRESS":"嘉義縣梅山鄉瑞里村幼葉林31號","TEL":"05-2501025","COUNTYNAME":"嘉義縣","TOWNNAME":"梅山鄉","MARKTYPE":"996","Class":"6"},"geometry":{"x":217061.97510000039,"y":2604006.5604999997}},{"attributes":{"OBJECTID":25959,"LANDMARKID":"1001000000876","LANDMARKCO":"604","LANDMARKNA":"明月大船的家","LANDMARKAD":"1001015","ADDRESS":"嘉義縣梅山鄉瑞里村幼葉林48號","TEL":"05-2501626","COUNTYNAME":"嘉義縣","TOWNNAME":"梅山鄉","MARKTYPE":"996","Class":"6"},"geometry":{"x":216860.45210000034,"y":2603930.1074999999}},{"attributes":{"OBJECTID":25960,"LANDMARKID":"1001000000877","LANDMARKCO":"604","LANDMARKNA":"賴坤陽的家","LANDMARKAD":"1001015","ADDRESS":"嘉義縣梅山鄉瑞峰村新興寮22-1號","TEL":"05-2501578","COUNTYNAME":"嘉義縣","TOWNNAME":"梅山鄉","MARKTYPE":"996","Class":"6"},"geometry":{"x":216331.84979999997,"y":2605600.1884000003}},{"attributes":{"OBJECTID":25961,"LANDMARKID":"1001000000878","LANDMARKCO":"604","LANDMARKNA":"竹坑民宿","LANDMARKAD":"1001015","ADDRESS":"嘉義縣梅山鄉瑞峰村二坪仔14-1號","TEL":"05-2501109","COUNTYNAME":"嘉義縣","TOWNNAME":"梅山鄉","MARKTYPE":"996","Class":"6"},"geometry":{"x":214343.70820000023,"y":2606582.1862000003}},{"attributes":{"OBJECTID":25962,"LANDMARKID":"1001000000879","LANDMARKCO":"604","LANDMARKNA":"瑞里印象區民宿","LANDMARKAD":"1001015","ADDRESS":"嘉義縣梅山鄉瑞里村幼葉林98號","TEL":"05-2501629","COUNTYNAME":"嘉義縣","TOWNNAME":"梅山鄉","MARKTYPE":"996","Class":"6"},"geometry":{"x":215966.87550000008,"y":2604051.0091999993}},{"attributes":{"OBJECTID":25963,"LANDMARKID":"1001000000880","LANDMARKCO":"604","LANDMARKNA":"許家茶園民宿","LANDMARKAD":"1001015","ADDRESS":"嘉義縣梅山鄉瑞里村幼葉林74號","TEL":"05-2501458","COUNTYNAME":"嘉義縣","TOWNNAME":"梅山鄉","MARKTYPE":"996","Class":"6"},"geometry":{"x":216517.50109999999,"y":2604522.6205000002}},{"attributes":{"OBJECTID":25964,"LANDMARKID":"1001000000881","LANDMARKCO":"604","LANDMARKNA":"松齋環保民宿","LANDMARKAD":"1001015","ADDRESS":"嘉義縣梅山鄉瑞里村幼葉林117號","TEL":"05-2501435","COUNTYNAME":"嘉義縣","TOWNNAME":"梅山鄉","MARKTYPE":"996","Class":"6"},"geometry":{"x":215758.39199999999,"y":2604258.1851000004}},{"attributes":{"OBJECTID":25965,"LANDMARKID":"1001000000882","LANDMARKCO":"604","LANDMARKNA":"阿本的家民宿","LANDMARKAD":"1001015","ADDRESS":"嘉義縣梅山鄉瑞里村幼葉林105號","TEL":"05-2501333","COUNTYNAME":"嘉義縣","TOWNNAME":"梅山鄉","MARKTYPE":"996","Class":"6"},"geometry":{"x":215668.80339999963,"y":2604082.6425999999}},{"attributes":{"OBJECTID":25966,"LANDMARKID":"1001000000883","LANDMARKCO":"604","LANDMARKNA":"欣加坡民宿","LANDMARKAD":"1001015","ADDRESS":"嘉義縣梅山鄉瑞里村幼葉林77號","TEL":"05-2501345","COUNTYNAME":"嘉義縣","TOWNNAME":"梅山鄉","MARKTYPE":"996","Class":"6"},"geometry":{"x":216439.63740000036,"y":2603847.4453999996}},{"attributes":{"OBJECTID":25967,"LANDMARKID":"1001000000662","LANDMARKCO":"405","LANDMARKNA":"統一速邁樂加油站-民雄加油站(中油)","LANDMARKAD":"1001005","ADDRESS":"嘉義縣民雄鄉金興村頭橋1000號","TEL":" ","COUNTYNAME":"嘉義縣","TOWNNAME":"民雄鄉","MARKTYPE":"994","Class":"4"},"geometry":{"x":192020.79640000034,"y":2601168.3726000004}},{"attributes":{"OBJECTID":25968,"LANDMARKID":"1001000000663","LANDMARKCO":"405","LANDMARKNA":"中油加油站-陸力站","LANDMARKAD":"1001005","ADDRESS":"嘉義縣民雄鄉建國路一段606號","TEL":"05-2263720","COUNTYNAME":"嘉義縣","TOWNNAME":"民雄鄉","MARKTYPE":"994","Class":"4"},"geometry":{"x":192354.25490000006,"y":2607197.6119999997}},{"attributes":{"OBJECTID":25969,"LANDMARKID":"1001000000664","LANDMARKCO":"405","LANDMARKNA":"台灣優力加油站-民雄站(中油)","LANDMARKAD":"1001005","ADDRESS":"嘉義縣民雄鄉秀林村正大路三段2162號","TEL":"05-2209117","COUNTYNAME":"嘉義縣","TOWNNAME":"民雄鄉","MARKTYPE":"994","Class":"4"},"geometry":{"x":196583.0661000004,"y":2602114.4618999995}},{"attributes":{"OBJECTID":25970,"LANDMARKID":"1001000000665","LANDMARKCO":"405","LANDMARKNA":"中油加油站-民雄保生街站(中油直營)","LANDMARKAD":"1001005","ADDRESS":"嘉義縣民雄鄉保生街220號","TEL":"05-2268625","COUNTYNAME":"嘉義縣","TOWNNAME":"民雄鄉","MARKTYPE":"994","Class":"4"},"geometry":{"x":191403.26960000023,"y":2605865.5429999996}},{"attributes":{"OBJECTID":25971,"LANDMARKID":"1001000000666","LANDMARKCO":"405","LANDMARKNA":"中油加油站-立正站","LANDMARKAD":"1001005","ADDRESS":"嘉義縣民雄鄉興中村江厝店68號","TEL":"05-2133269","COUNTYNAME":"嘉義縣","TOWNNAME":"民雄鄉","MARKTYPE":"994","Class":"4"},"geometry":{"x":191130.00430000015,"y":2602251.2285999991}},{"attributes":{"OBJECTID":25972,"LANDMARKID":"1001000000667","LANDMARKCO":"405","LANDMARKNA":"中油加油站-菁埔站(中油直營)","LANDMARKAD":"1001005","ADDRESS":"嘉義縣民雄鄉菁埔村菁埔1號之10","TEL":"05-2060727","COUNTYNAME":"嘉義縣","TOWNNAME":"民雄鄉","MARKTYPE":"994","Class":"4"},"geometry":{"x":189586.16170000006,"y":2606296.7401000001}},{"attributes":{"OBJECTID":25973,"LANDMARKID":"1001000000668","LANDMARKCO":"405","LANDMARKNA":"中油加油站-民雄站(中油直營)","LANDMARKAD":"1001005","ADDRESS":"嘉義縣民雄鄉建國路二段329號","TEL":"05-2262145","COUNTYNAME":"嘉義縣","TOWNNAME":"民雄鄉","MARKTYPE":"994","Class":"4"},"geometry":{"x":192161.47580000013,"y":2605391.2257000003}},{"attributes":{"OBJECTID":25974,"LANDMARKID":"1001000000669","LANDMARKCO":"405","LANDMARKNA":"中油加油站-台林街站","LANDMARKAD":"1001005","ADDRESS":"嘉義縣民雄鄉大崎村14甲17-9號","TEL":"05-2131710","COUNTYNAME":"嘉義縣","TOWNNAME":"民雄鄉","MARKTYPE":"994","Class":"4"},"geometry":{"x":195728.13300000038,"y":2601369.5719000008}},{"attributes":{"OBJECTID":25975,"LANDMARKID":"1001000000670","LANDMARKCO":"405","LANDMARKNA":"中油加油站-民雄(雙福山)","LANDMARKAD":"1001005","ADDRESS":"嘉義縣民雄鄉雙福村建國路二段18號","TEL":"05-2215510","COUNTYNAME":"嘉義縣","TOWNNAME":"民雄鄉","MARKTYPE":"994","Class":"4"},"geometry":{"x":192558.91260000039,"y":2603193.5226000007}},{"attributes":{"OBJECTID":25976,"LANDMARKID":"1001000000671","LANDMARKCO":"405","LANDMARKNA":"中油加油站-民雄站","LANDMARKAD":"1001005","ADDRESS":"嘉義縣雙福村建國路二段18號","TEL":"05-2202200","COUNTYNAME":"嘉義縣","TOWNNAME":"民雄鄉","MARKTYPE":"994","Class":"4"},"geometry":{"x":192556.08249999955,"y":2603193.7388000004}},{"attributes":{"OBJECTID":25977,"LANDMARKID":"1001000000672","LANDMARKCO":"405","LANDMARKNA":"中油加油站-上井站","LANDMARKAD":"1001005","ADDRESS":"嘉義縣民雄鄉大崎村正大路三段2002號","TEL":"05-2202200","COUNTYNAME":"嘉義縣","TOWNNAME":"民雄鄉","MARKTYPE":"994","Class":"4"},"geometry":{"x":195956.23290000018,"y":2602475.0380000006}},{"attributes":{"OBJECTID":25978,"LANDMARKID":"1001000000673","LANDMARKCO":"405","LANDMARKNA":"中油加油站-協同站","LANDMARKAD":"1001005","ADDRESS":"嘉義縣民雄鄉興南村建國路3段265號","TEL":"05-2130527","COUNTYNAME":"嘉義縣","TOWNNAME":"民雄鄉","MARKTYPE":"994","Class":"4"},"geometry":{"x":192622.43090000004,"y":2602883.7749000005}},{"attributes":{"OBJECTID":25979,"LANDMARKID":"1001000000674","LANDMARKCO":"405","LANDMARKNA":"中油加油站-協志站(中油直營)","LANDMARKAD":"1001005","ADDRESS":"嘉義縣民雄鄉東湖村建國路二段250號","TEL":"05-2266170","COUNTYNAME":"嘉義縣","TOWNNAME":"民雄鄉","MARKTYPE":"994","Class":"4"},"geometry":{"x":192201.64199999999,"y":2605049.6991000008}},{"attributes":{"OBJECTID":25980,"LANDMARKID":"1001000000675","LANDMARKCO":"405","LANDMARKNA":"中油加油站-民工站(中油直營)","LANDMARKAD":"1001005","ADDRESS":"嘉義縣民雄鄉福樂村中山路37號","TEL":"05-2206537","COUNTYNAME":"嘉義縣","TOWNNAME":"民雄鄉","MARKTYPE":"994","Class":"4"},"geometry":{"x":194323.44519999996,"y":2602866.4187000003}},{"attributes":{"OBJECTID":25981,"LANDMARKID":"1001000000676","LANDMARKCO":"405","LANDMARKNA":"台糖加油站-台糖大樓站(中油)","LANDMARKAD":"1001005","ADDRESS":"嘉義縣民雄鄉北斗村20鄰北勢子3之27號","TEL":" ","COUNTYNAME":"嘉義縣","TOWNNAME":"民雄鄉","MARKTYPE":"994","Class":"4"},"geometry":{"x":194967.64290000033,"y":2603092.3501999993}},{"attributes":{"OBJECTID":25982,"LANDMARKID":"1001000000587","LANDMARKCO":"402","LANDMARKNA":"亞太行動寬頻電信-嘉義民雄加盟服務中心","LANDMARKAD":"1001005","ADDRESS":"嘉義縣民雄鄉東榮村東榮路2號1號","TEL":"05-2261117","COUNTYNAME":"嘉義縣","TOWNNAME":"民雄鄉","MARKTYPE":"994","Class":"4"},"geometry":{"x":192149.18939999957,"y":2606124.1264999993}},{"attributes":{"OBJECTID":25983,"LANDMARKID":"1001000000815","LANDMARKCO":"507","LANDMARKNA":"大士爺廟","LANDMARKAD":"1001005","ADDRESS":"嘉義縣民雄鄉中樂村中樂路81號","TEL":" ","COUNTYNAME":"嘉義縣","TOWNNAME":"民雄鄉","MARKTYPE":"995","Class":"5"},"geometry":{"x":191686.60929999966,"y":2605965.5069999993}},{"attributes":{"OBJECTID":25984,"LANDMARKID":"1001000000736","LANDMARKCO":"408","LANDMARKNA":"郵局-民雄郵局","LANDMARKAD":"1001005","ADDRESS":"嘉義縣民雄鄉東榮村民族路17號","TEL":"(05)2262-609","COUNTYNAME":"嘉義縣","TOWNNAME":"民雄鄉","MARKTYPE":"994","Class":"4"},"geometry":{"x":191908.00079999957,"y":2605863.1797000002}},{"attributes":{"OBJECTID":25985,"LANDMARKID":"1001000000737","LANDMARKCO":"408","LANDMARKNA":"郵局-民雄雙福郵局","LANDMARKAD":"1001005","ADDRESS":"嘉義縣民雄鄉中山路7號","TEL":"(05)2219-187","COUNTYNAME":"嘉義縣","TOWNNAME":"民雄鄉","MARKTYPE":"994","Class":"4"},"geometry":{"x":193572.4720999999,"y":2602358.0819000006}},{"attributes":{"OBJECTID":25986,"LANDMARKID":"1001000000738","LANDMARKCO":"408","LANDMARKNA":"郵局-民雄頭橋郵局","LANDMARKAD":"1001005","ADDRESS":"嘉義縣民雄鄉頭橋工業區工業一路2號","TEL":"(05)2211-075","COUNTYNAME":"嘉義縣","TOWNNAME":"民雄鄉","MARKTYPE":"994","Class":"4"},"geometry":{"x":192410.93560000043,"y":2601966.9563999996}},{"attributes":{"OBJECTID":25987,"LANDMARKID":"1001000000739","LANDMARKCO":"408","LANDMARKNA":"郵局-中正大學郵局","LANDMARKAD":"1001005","ADDRESS":"嘉義縣民雄鄉三興村160號","TEL":"(05)2720-547","COUNTYNAME":"嘉義縣","TOWNNAME":"民雄鄉","MARKTYPE":"994","Class":"4"},"geometry":{"x":196238.95660000015,"y":2606554.7742999997}},{"attributes":{"OBJECTID":25988,"LANDMARKID":"1001000000766","LANDMARKCO":"409","LANDMARKNA":"嘉義縣民雄鄉農會","LANDMARKAD":"1001005","ADDRESS":"嘉義縣民雄鄉中樂村民族路42號","TEL":"05-2267150-7","COUNTYNAME":"嘉義縣","TOWNNAME":"民雄鄉","MARKTYPE":"994","Class":"4"},"geometry":{"x":191712.56909999996,"y":2605924.9107000008}},{"attributes":{"OBJECTID":25989,"LANDMARKID":"1001000000597","LANDMARKCO":"404","LANDMARKNA":"台灣省自來水民雄營運所","LANDMARKAD":"1001005","ADDRESS":"嘉義縣民雄鄉西安村安和路393號","TEL":" ","COUNTYNAME":"嘉義縣","TOWNNAME":"民雄鄉","MARKTYPE":"994","Class":"4"},"geometry":{"x":191001.90820000041,"y":2605525.6634999998}},{"attributes":{"OBJECTID":25990,"LANDMARKID":"1001000000706","LANDMARKCO":"406","LANDMARKNA":"都市計劃公園","LANDMARKAD":"1001005","ADDRESS":"嘉義縣民雄鄉","TEL":" ","COUNTYNAME":"嘉義縣","TOWNNAME":"民雄鄉","MARKTYPE":"994","Class":"4"},"geometry":{"x":191381.0131000001,"y":2605789.8266000003}},{"attributes":{"OBJECTID":25991,"LANDMARKID":"1001000000707","LANDMARKCO":"406","LANDMARKNA":"民雄運動公園","LANDMARKAD":"1001005","ADDRESS":"嘉義縣民雄鄉","TEL":" ","COUNTYNAME":"嘉義縣","TOWNNAME":"民雄鄉","MARKTYPE":"994","Class":"4"},"geometry":{"x":190923.17949999962,"y":2606270.6699000001}},{"attributes":{"OBJECTID":25992,"LANDMARKID":"1001000000677","LANDMARKCO":"405","LANDMARKNA":"福懋加油站-民雄站(台塑)","LANDMARKAD":"1001005","ADDRESS":"嘉義縣民雄鄉東湖村建國路二段512號","TEL":"05-2261198","COUNTYNAME":"嘉義縣","TOWNNAME":"民雄鄉","MARKTYPE":"994","Class":"4"},"geometry":{"x":192241.06099999975,"y":2605785.7649000008}},{"attributes":{"OBJECTID":25993,"LANDMARKID":"1001000000086","LANDMARKCO":"106","LANDMARKNA":"嘉義縣民雄鄉戶政事務所","LANDMARKAD":"1001005","ADDRESS":"嘉義縣民雄鄉東榮村15鄰民族路21之1號","TEL":"05-2262073","COUNTYNAME":"嘉義縣","TOWNNAME":"民雄鄉","MARKTYPE":"991","Class":"1"},"geometry":{"x":191896.79530000035,"y":2605862.0170000009}},{"attributes":{"OBJECTID":25994,"LANDMARKID":"1001000000001","LANDMARKCO":"101","LANDMARKNA":"工業局民雄工業區服務中心","LANDMARKAD":"1001005","ADDRESS":"嘉義縣民雄鄉福樂村中正路68號","TEL":"05-2211675","COUNTYNAME":"嘉義縣","TOWNNAME":"民雄鄉","MARKTYPE":"991","Class":"1"},"geometry":{"x":193556.84949999955,"y":2602260.0218000002}},{"attributes":{"OBJECTID":25995,"LANDMARKID":"1001000000053","LANDMARKCO":"103","LANDMARKNA":"嘉義縣民雄鄉衛生所","LANDMARKAD":"1001005","ADDRESS":"嘉義縣民雄鄉文化路7之2號","TEL":"05-2262018","COUNTYNAME":"嘉義縣","TOWNNAME":"民雄鄉","MARKTYPE":"991","Class":"1"},"geometry":{"x":191599.72310000006,"y":2605466.2628000006}},{"attributes":{"OBJECTID":25996,"LANDMARKID":"1001000000214","LANDMARKCO":"108","LANDMARKNA":"嘉義縣民雄鄉公所","LANDMARKAD":"1001005","ADDRESS":"嘉義縣民雄鄉文化路7號","TEL":"05-2262101","COUNTYNAME":"嘉義縣","TOWNNAME":"民雄鄉","MARKTYPE":"991","Class":"1"},"geometry":{"x":191627.28899999987,"y":2605468.4776000008}},{"attributes":{"OBJECTID":25997,"LANDMARKID":"1001000000054","LANDMARKCO":"103","LANDMARKNA":"嘉義縣民雄鄉民代表會","LANDMARKAD":"1001005","ADDRESS":"嘉義縣民雄鄉文化路7號","TEL":"05-2262521","COUNTYNAME":"嘉義縣","TOWNNAME":"民雄鄉","MARKTYPE":"991","Class":"1"},"geometry":{"x":191627.28899999987,"y":2605468.4776000008}},{"attributes":{"OBJECTID":25998,"LANDMARKID":"1001000000139","LANDMARKCO":"107","LANDMARKNA":"嘉義縣警察局民雄分局","LANDMARKAD":"1001005","ADDRESS":"嘉義縣民雄鄉東榮村民族路21號","TEL":"05-2262014","COUNTYNAME":"嘉義縣","TOWNNAME":"民雄鄉","MARKTYPE":"991","Class":"1"},"geometry":{"x":191839.84929999989,"y":2605877.1249000002}},{"attributes":{"OBJECTID":25999,"LANDMARKID":"1001000000140","LANDMARKCO":"107","LANDMARKNA":"嘉義縣警察局民雄派出所","LANDMARKAD":"1001005","ADDRESS":"嘉義縣民雄鄉中樂村民族路32號","TEL":"05-2262192","COUNTYNAME":"嘉義縣","TOWNNAME":"民雄鄉","MARKTYPE":"991","Class":"1"},"geometry":{"x":191802.07469999976,"y":2605913.6706000008}},{"attributes":{"OBJECTID":26000,"LANDMARKID":"1001000000141","LANDMARKCO":"107","LANDMARKNA":"嘉義縣消防局民雄消防分隊","LANDMARKAD":"1001005","ADDRESS":"嘉義縣民雄鄉民族路21號","TEL":"05-2262829","COUNTYNAME":"嘉義縣","TOWNNAME":"民雄鄉","MARKTYPE":"991","Class":"1"},"geometry":{"x":191839.84929999989,"y":2605877.1249000002}}]}