{"displayFieldName":"COUNTYNAME","fieldAliases":{"OBJECTID":"OBJECTID","LANDMARKID":"LANDMARKID","LANDMARKCO":"LANDMARKCO","LANDMARKNA":"LANDMARKNA","LANDMARKAD":"LANDMARKAD","ADDRESS":"ADDRESS","TEL":"TEL","COUNTYNAME":"COUNTYNAME","TOWNNAME":"TOWNNAME","MARKTYPE":"MARKTYPE","Class":"Class"},"geometryType":"esriGeometryPoint","spatialReference":{"wkid":4326},"fields":[{"name":"OBJECTID","type":"esriFieldTypeOID","alias":"OBJECTID"},{"name":"LANDMARKID","type":"esriFieldTypeString","alias":"LANDMARKID","length":15},{"name":"LANDMARKCO","type":"esriFieldTypeString","alias":"LANDMARKCO","length":15},{"name":"LANDMARKNA","type":"esriFieldTypeString","alias":"LANDMARKNA","length":50},{"name":"LANDMARKAD","type":"esriFieldTypeString","alias":"LANDMARKAD","length":15},{"name":"ADDRESS","type":"esriFieldTypeString","alias":"ADDRESS","length":56},{"name":"TEL","type":"esriFieldTypeString","alias":"TEL","length":36},{"name":"COUNTYNAME","type":"esriFieldTypeString","alias":"COUNTYNAME","length":15},{"name":"TOWNNAME","type":"esriFieldTypeString","alias":"TOWNNAME","length":13},{"name":"MARKTYPE","type":"esriFieldTypeString","alias":"MARKTYPE","length":12},{"name":"Class","type":"esriFieldTypeString","alias":"Class","length":5}],"features":[{"attributes":{"OBJECTID":22601,"LANDMARKID":"1000200000630","LANDMARKCO":"409","LANDMARKNA":"羅東漁市場","LANDMARKAD":"1000202","ADDRESS":"羅東鎮中興路3號","TEL":"039-542145　","COUNTYNAME":"宜蘭縣","TOWNNAME":"羅東鎮","MARKTYPE":"994","Class":"4"},"geometry":{"x":121.76678731279277,"y":24.677013461389006}},{"attributes":{"OBJECTID":22602,"LANDMARKID":"1000200000500","LANDMARKCO":"404","LANDMARKNA":"台灣省自來水羅東營運所","LANDMARKAD":"1000202","ADDRESS":"宜蘭縣羅東鎮北成街4號","TEL":" ","COUNTYNAME":"宜蘭縣","TOWNNAME":"羅東鎮","MARKTYPE":"994","Class":"4"},"geometry":{"x":121.76317928949125,"y":24.675100758619749}},{"attributes":{"OBJECTID":22603,"LANDMARKID":"1000200000568","LANDMARKCO":"406","LANDMARKNA":"松林公園","LANDMARKAD":"1000202","ADDRESS":"宜蘭縣羅東鎮","TEL":" ","COUNTYNAME":"宜蘭縣","TOWNNAME":"羅東鎮","MARKTYPE":"994","Class":"4"},"geometry":{"x":121.76493817289365,"y":24.684466042685724}},{"attributes":{"OBJECTID":22604,"LANDMARKID":"1000200000569","LANDMARKCO":"406","LANDMARKNA":"中山公園","LANDMARKAD":"1000202","ADDRESS":"宜蘭縣羅東鎮","TEL":" ","COUNTYNAME":"宜蘭縣","TOWNNAME":"羅東鎮","MARKTYPE":"994","Class":"4"},"geometry":{"x":121.76869950068694,"y":24.676687978504635}},{"attributes":{"OBJECTID":22605,"LANDMARKID":"1000200000570","LANDMARKCO":"406","LANDMARKNA":"羅東運動公園","LANDMARKAD":"1000202","ADDRESS":"宜蘭縣羅東鎮公正路路尾","TEL":" ","COUNTYNAME":"宜蘭縣","TOWNNAME":"羅東鎮","MARKTYPE":"994","Class":"4"},"geometry":{"x":121.75487207541386,"y":24.682805360086107}},{"attributes":{"OBJECTID":22606,"LANDMARKID":"1000200000581","LANDMARKCO":"407","LANDMARKNA":"三商百貨","LANDMARKAD":"1000202","ADDRESS":"宜蘭縣羅東鎮新東路85號","TEL":"03-9541888","COUNTYNAME":"宜蘭縣","TOWNNAME":"羅東鎮","MARKTYPE":"994","Class":"4"},"geometry":{"x":121.75330714371341,"y":24.688824655456713}},{"attributes":{"OBJECTID":22607,"LANDMARKID":"1000200000549","LANDMARKCO":"405","LANDMARKNA":"台塑加油站-德林站(台塑)","LANDMARKAD":"1000202","ADDRESS":"宜蘭縣羅東鎮純精路三段257號","TEL":"03-9551138","COUNTYNAME":"宜蘭縣","TOWNNAME":"羅東鎮","MARKTYPE":"994","Class":"4"},"geometry":{"x":121.76681383434213,"y":24.685628046562691}},{"attributes":{"OBJECTID":22608,"LANDMARKID":"1000200000550","LANDMARKCO":"405","LANDMARKNA":"台塑加油站-維揚站(台塑)","LANDMARKAD":"1000202","ADDRESS":"宜蘭縣羅東鎮維揚路33號","TEL":"03-9612045","COUNTYNAME":"宜蘭縣","TOWNNAME":"羅東鎮","MARKTYPE":"994","Class":"4"},"geometry":{"x":121.76282543196837,"y":24.672234301440756}},{"attributes":{"OBJECTID":22609,"LANDMARKID":"1000200000019","LANDMARKCO":"101","LANDMARKNA":"中央健康保險局台北分局","LANDMARKAD":"1000202","ADDRESS":"宜蘭縣羅東鎮站前北路11號","TEL":"039-530090","COUNTYNAME":"宜蘭縣","TOWNNAME":"羅東鎮","MARKTYPE":"991","Class":"1"},"geometry":{"x":121.77149988076108,"y":24.676070912808115}},{"attributes":{"OBJECTID":22610,"LANDMARKID":"1000200000068","LANDMARKCO":"104","LANDMARKNA":"北區國稅局羅東稽徵所第一辦公","LANDMARKAD":"1000202","ADDRESS":"宜蘭縣羅東鎮興東路16號4樓","TEL":"03-9546508","COUNTYNAME":"宜蘭縣","TOWNNAME":"羅東鎮","MARKTYPE":"991","Class":"1"},"geometry":{"x":121.76863320919591,"y":24.678131577568269}},{"attributes":{"OBJECTID":22611,"LANDMARKID":"1000200000017","LANDMARKCO":"101","LANDMARKNA":"職業訓練局羅東就業服務站","LANDMARKAD":"1000202","ADDRESS":"宜蘭縣羅東鎮大同路11號","TEL":"03-9542094","COUNTYNAME":"宜蘭縣","TOWNNAME":"羅東鎮","MARKTYPE":"991","Class":"1"},"geometry":{"x":121.77237274782263,"y":24.678344210226037}},{"attributes":{"OBJECTID":22612,"LANDMARKID":"1000200000018","LANDMARKCO":"101","LANDMARKNA":"林務局羅東林區管理處","LANDMARKAD":"1000202","ADDRESS":"宜蘭縣羅東鎮中正北路118號","TEL":"03-9545114","COUNTYNAME":"宜蘭縣","TOWNNAME":"羅東鎮","MARKTYPE":"991","Class":"1"},"geometry":{"x":121.77128183358998,"y":24.684198553402609}},{"attributes":{"OBJECTID":22613,"LANDMARKID":"1000200000075","LANDMARKCO":"106","LANDMARKNA":"宜蘭縣羅東鎮戶政事務所","LANDMARKAD":"1000202","ADDRESS":"宜蘭縣羅東鎮公正路159之1號","TEL":"03-9552172","COUNTYNAME":"宜蘭縣","TOWNNAME":"羅東鎮","MARKTYPE":"991","Class":"1"},"geometry":{"x":121.76892873387413,"y":24.678572492624824}},{"attributes":{"OBJECTID":22614,"LANDMARKID":"1000200000151","LANDMARKCO":"107","LANDMARKNA":"宜蘭縣消防局第二消防大隊部","LANDMARKAD":"1000202","ADDRESS":"宜蘭縣羅東鎮天津路13號2樓","TEL":"03-9573339","COUNTYNAME":"宜蘭縣","TOWNNAME":"羅東鎮","MARKTYPE":"991","Class":"1"},"geometry":{"x":121.76925120711711,"y":24.678044980618424}},{"attributes":{"OBJECTID":22615,"LANDMARKID":"1000200000152","LANDMARKCO":"107","LANDMARKNA":"宜蘭縣消防局羅東消防分隊","LANDMARKAD":"1000202","ADDRESS":"宜蘭縣羅東鎮天津路13號","TEL":"03-9562777","COUNTYNAME":"宜蘭縣","TOWNNAME":"羅東鎮","MARKTYPE":"991","Class":"1"},"geometry":{"x":121.76925120711711,"y":24.678044980618424}},{"attributes":{"OBJECTID":22616,"LANDMARKID":"1000200000153","LANDMARKCO":"107","LANDMARKNA":"宜蘭縣警察局羅東分局","LANDMARKAD":"1000202","ADDRESS":"宜蘭縣羅東鎮集祥里公正路159號","TEL":"039-542071","COUNTYNAME":"宜蘭縣","TOWNNAME":"羅東鎮","MARKTYPE":"991","Class":"1"},"geometry":{"x":121.76936397313405,"y":24.678424926914001}},{"attributes":{"OBJECTID":22617,"LANDMARKID":"1000200000154","LANDMARKCO":"107","LANDMARKNA":"宜蘭縣警察局成功派出所","LANDMARKAD":"1000202","ADDRESS":"宜蘭縣羅東鎮興東南路46號","TEL":"03-9542471","COUNTYNAME":"宜蘭縣","TOWNNAME":"羅東鎮","MARKTYPE":"991","Class":"1"},"geometry":{"x":121.76696531761247,"y":24.673123832035056}},{"attributes":{"OBJECTID":22618,"LANDMARKID":"1000200000155","LANDMARKCO":"107","LANDMARKNA":"宜蘭縣警察局開羅派出所","LANDMARKAD":"1000202","ADDRESS":"宜蘭縣羅東鎮大新里中正路126號","TEL":"039-542121","COUNTYNAME":"宜蘭縣","TOWNNAME":"羅東鎮","MARKTYPE":"991","Class":"1"},"geometry":{"x":121.77148020053174,"y":24.675787434263718}},{"attributes":{"OBJECTID":22619,"LANDMARKID":"1000200000156","LANDMARKCO":"107","LANDMARKNA":"宜蘭縣警察局公正派出所","LANDMARKAD":"1000202","ADDRESS":"宜蘭縣羅東鎮集祥里公正路159號","TEL":"039-542029","COUNTYNAME":"宜蘭縣","TOWNNAME":"羅東鎮","MARKTYPE":"991","Class":"1"},"geometry":{"x":121.76936397313405,"y":24.678424926914001}},{"attributes":{"OBJECTID":22620,"LANDMARKID":"1000200000157","LANDMARKCO":"107","LANDMARKNA":"鐵路警察局羅東分駐所","LANDMARKAD":"1000202","ADDRESS":"宜蘭縣羅東鎮公正路2號","TEL":"039-565407","COUNTYNAME":"宜蘭縣","TOWNNAME":"羅東鎮","MARKTYPE":"991","Class":"1"},"geometry":{"x":121.77457769761224,"y":24.677859100046462}},{"attributes":{"OBJECTID":22621,"LANDMARKID":"1000200000181","LANDMARKCO":"108","LANDMARKNA":"宜蘭縣羅東鎮公所","LANDMARKAD":"1000202","ADDRESS":"宜蘭縣羅東鎮中興路3號","TEL":"03-9545102","COUNTYNAME":"宜蘭縣","TOWNNAME":"羅東鎮","MARKTYPE":"991","Class":"1"},"geometry":{"x":121.7669917923926,"y":24.676941767628342}},{"attributes":{"OBJECTID":22622,"LANDMARKID":"1000200000044","LANDMARKCO":"103","LANDMARKNA":"宜蘭縣羅東鎮鎮民代表會","LANDMARKAD":"1000202","ADDRESS":"宜蘭縣羅東鎮中興路3號2樓","TEL":"03-9562255","COUNTYNAME":"宜蘭縣","TOWNNAME":"羅東鎮","MARKTYPE":"991","Class":"1"},"geometry":{"x":121.7669917923926,"y":24.676941767628342}},{"attributes":{"OBJECTID":22623,"LANDMARKID":"1000200000070","LANDMARKCO":"105","LANDMARKNA":"宜蘭縣羅東地政事務所","LANDMARKAD":"1000202","ADDRESS":"宜蘭縣羅東鎮中興路5號","TEL":"03-9551181","COUNTYNAME":"宜蘭縣","TOWNNAME":"羅東鎮","MARKTYPE":"991","Class":"1"},"geometry":{"x":121.76728353714859,"y":24.677357356868015}},{"attributes":{"OBJECTID":22624,"LANDMARKID":"1000200000020","LANDMARKCO":"101","LANDMARKNA":"羅東鎮第一公墓火葬場","LANDMARKAD":"1000202","ADDRESS":"宜蘭縣羅東鎮中興路3號","TEL":"03-9545102","COUNTYNAME":"宜蘭縣","TOWNNAME":"羅東鎮","MARKTYPE":"991","Class":"1"},"geometry":{"x":121.7669917923926,"y":24.676941767628342}},{"attributes":{"OBJECTID":22625,"LANDMARKID":"1000200000334","LANDMARKCO":"205","LANDMARKNA":"宜蘭縣自然史教育館","LANDMARKAD":"1000202","ADDRESS":"宜蘭縣羅東鎮中華路99號","TEL":" ","COUNTYNAME":"宜蘭縣","TOWNNAME":"羅東鎮","MARKTYPE":"992","Class":"2"},"geometry":{"x":121.76757573136848,"y":24.681113237043313}},{"attributes":{"OBJECTID":22626,"LANDMARKID":"1000200000324","LANDMARKCO":"204","LANDMARKNA":"宜蘭縣立圖書館羅東分館","LANDMARKAD":"1000202","ADDRESS":"宜蘭縣羅東鎮體育路40號2樓","TEL":" ","COUNTYNAME":"宜蘭縣","TOWNNAME":"羅東鎮","MARKTYPE":"992","Class":"2"},"geometry":{"x":121.76597406153161,"y":24.670035890523362}},{"attributes":{"OBJECTID":22627,"LANDMARKID":"1000200000201","LANDMARKCO":"202","LANDMARKNA":"國立羅東高中","LANDMARKAD":"1000202","ADDRESS":"宜蘭縣羅東鎮公正路324號","TEL":"03-9565861","COUNTYNAME":"宜蘭縣","TOWNNAME":"羅東鎮","MARKTYPE":"992","Class":"2"},"geometry":{"x":121.76206561989818,"y":24.680691200981077}},{"attributes":{"OBJECTID":22628,"LANDMARKID":"1000200000202","LANDMARKCO":"202","LANDMARKNA":"國立羅東高商","LANDMARKAD":"1000202","ADDRESS":"宜蘭縣羅東鎮中山西路360號","TEL":"03-9512875","COUNTYNAME":"宜蘭縣","TOWNNAME":"羅東鎮","MARKTYPE":"992","Class":"2"},"geometry":{"x":121.75707881364318,"y":24.674251269225156}},{"attributes":{"OBJECTID":22629,"LANDMARKID":"1000200000203","LANDMARKCO":"202","LANDMARKNA":"國立羅東高工","LANDMARKAD":"1000202","ADDRESS":"宜蘭縣冬山鄉廣興村廣興路117號","TEL":"03-9514196","COUNTYNAME":"宜蘭縣","TOWNNAME":"羅東鎮","MARKTYPE":"992","Class":"2"},"geometry":{"x":121.75590472120062,"y":24.672186617770326}},{"attributes":{"OBJECTID":22630,"LANDMARKID":"1000200000289","LANDMARKCO":"203","LANDMARKNA":"縣立東光國中","LANDMARKAD":"1000202","ADDRESS":"宜蘭縣羅東鎮興東南路201號","TEL":"03-9560629","COUNTYNAME":"宜蘭縣","TOWNNAME":"羅東鎮","MARKTYPE":"992","Class":"2"},"geometry":{"x":121.76750609709164,"y":24.671735417956608}},{"attributes":{"OBJECTID":22631,"LANDMARKID":"1000200000290","LANDMARKCO":"203","LANDMARKNA":"縣立國華國中","LANDMARKAD":"1000202","ADDRESS":"宜蘭縣羅東鎮國華街101號","TEL":"03-9511922","COUNTYNAME":"宜蘭縣","TOWNNAME":"羅東鎮","MARKTYPE":"992","Class":"2"},"geometry":{"x":121.76121354304594,"y":24.677638199653181}},{"attributes":{"OBJECTID":22632,"LANDMARKID":"1000200000291","LANDMARKCO":"203","LANDMARKNA":"縣立羅東國中","LANDMARKAD":"1000202","ADDRESS":"宜蘭縣羅東鎮中華路99號","TEL":"03-9542075","COUNTYNAME":"宜蘭縣","TOWNNAME":"羅東鎮","MARKTYPE":"992","Class":"2"},"geometry":{"x":121.76810515215287,"y":24.682389150102352}},{"attributes":{"OBJECTID":22633,"LANDMARKID":"1000200000292","LANDMARKCO":"203","LANDMARKNA":"縣立公正國小","LANDMARKAD":"1000202","ADDRESS":"宜蘭縣羅東鎮中華路47號","TEL":"03-9566659","COUNTYNAME":"宜蘭縣","TOWNNAME":"羅東鎮","MARKTYPE":"992","Class":"2"},"geometry":{"x":121.76681061942215,"y":24.678527981580608}},{"attributes":{"OBJECTID":22634,"LANDMARKID":"1000200000293","LANDMARKCO":"203","LANDMARKNA":"縣立成功國小","LANDMARKAD":"1000202","ADDRESS":"宜蘭縣羅東鎮文化街45號","TEL":"03-9542156","COUNTYNAME":"宜蘭縣","TOWNNAME":"羅東鎮","MARKTYPE":"992","Class":"2"},"geometry":{"x":121.76967885585188,"y":24.671126605904917}},{"attributes":{"OBJECTID":22635,"LANDMARKID":"1000200000294","LANDMARKCO":"203","LANDMARKNA":"縣立羅東國小","LANDMARKAD":"1000202","ADDRESS":"宜蘭縣羅東鎮民族路1號","TEL":"03-9542342","COUNTYNAME":"宜蘭縣","TOWNNAME":"羅東鎮","MARKTYPE":"992","Class":"2"},"geometry":{"x":121.77246831571964,"y":24.67312390134612}},{"attributes":{"OBJECTID":22636,"LANDMARKID":"1000200000295","LANDMARKCO":"203","LANDMARKNA":"縣立竹林國小","LANDMARKAD":"1000202","ADDRESS":"宜蘭縣羅東鎮復興路二段128號","TEL":"03-9542084","COUNTYNAME":"宜蘭縣","TOWNNAME":"羅東鎮","MARKTYPE":"992","Class":"2"},"geometry":{"x":121.76628988803421,"y":24.688745704149113}},{"attributes":{"OBJECTID":22637,"LANDMARKID":"1000200000296","LANDMARKCO":"203","LANDMARKNA":"縣立北成國小","LANDMARKAD":"1000202","ADDRESS":"宜蘭縣羅東鎮北成街111號","TEL":"03-9542084","COUNTYNAME":"宜蘭縣","TOWNNAME":"羅東鎮","MARKTYPE":"992","Class":"2"},"geometry":{"x":121.75276291325675,"y":24.688635820290756}},{"attributes":{"OBJECTID":22638,"LANDMARKID":"1000200000382","LANDMARKCO":"303","LANDMARKNA":"羅東運動公園停車場","LANDMARKAD":"1000202","ADDRESS":"宜蘭縣羅東鎮","TEL":" ","COUNTYNAME":"宜蘭縣","TOWNNAME":"羅東鎮","MARKTYPE":"993","Class":"303"},"geometry":{"x":121.75192443678533,"y":24.688017470154424}},{"attributes":{"OBJECTID":22639,"LANDMARKID":"1000200000383","LANDMARKCO":"303","LANDMARKNA":"羅東運動公園停車場","LANDMARKAD":"1000202","ADDRESS":"宜蘭縣羅東鎮","TEL":" ","COUNTYNAME":"宜蘭縣","TOWNNAME":"羅東鎮","MARKTYPE":"993","Class":"303"},"geometry":{"x":121.75257714528659,"y":24.681246202413902}},{"attributes":{"OBJECTID":22640,"LANDMARKID":"1000200000384","LANDMARKCO":"303","LANDMARKNA":"羅東運動公園停車場","LANDMARKAD":"1000202","ADDRESS":"宜蘭縣羅東鎮","TEL":" ","COUNTYNAME":"宜蘭縣","TOWNNAME":"羅東鎮","MARKTYPE":"993","Class":"303"},"geometry":{"x":121.75461866644589,"y":24.684606855381052}},{"attributes":{"OBJECTID":22641,"LANDMARKID":"1000200000385","LANDMARKCO":"303","LANDMARKNA":"羅東運動公園停車場","LANDMARKAD":"1000202","ADDRESS":"宜蘭縣羅東鎮","TEL":" ","COUNTYNAME":"宜蘭縣","TOWNNAME":"羅東鎮","MARKTYPE":"993","Class":"303"},"geometry":{"x":121.75757807465379,"y":24.682289767699046}},{"attributes":{"OBJECTID":22642,"LANDMARKID":"1000200000363","LANDMARKCO":"302","LANDMARKNA":"國光汽車客運羅東站","LANDMARKAD":"1000202","ADDRESS":"265宜蘭縣羅東鎮興東路23號之2","TEL":"|","COUNTYNAME":"宜蘭縣","TOWNNAME":"羅東鎮","MARKTYPE":"993","Class":"302"},"geometry":{"x":121.76769926348705,"y":24.675914938871454}},{"attributes":{"OBJECTID":22643,"LANDMARKID":"1000200000364","LANDMARKCO":"302","LANDMARKNA":"國光汽車客運羅東站","LANDMARKAD":"1000202","ADDRESS":"宜蘭縣羅東鎮興東路23之2號","TEL":" ","COUNTYNAME":"宜蘭縣","TOWNNAME":"羅東鎮","MARKTYPE":"993","Class":"302"},"geometry":{"x":121.76789550021981,"y":24.677376116220358}},{"attributes":{"OBJECTID":22644,"LANDMARKID":"1000200000378","LANDMARKCO":"303","LANDMARKNA":"天津路平面停車場","LANDMARKAD":"1000202","ADDRESS":"宜蘭縣羅東鎮天津路","TEL":" ","COUNTYNAME":"宜蘭縣","TOWNNAME":"羅東鎮","MARKTYPE":"993","Class":"303"},"geometry":{"x":121.76933164779238,"y":24.67868892468913}},{"attributes":{"OBJECTID":22645,"LANDMARKID":"1000200000379","LANDMARKCO":"303","LANDMARKNA":"羅東國小地下停車場","LANDMARKAD":"1000202","ADDRESS":"宜蘭縣羅東鎮","TEL":" ","COUNTYNAME":"宜蘭縣","TOWNNAME":"羅東鎮","MARKTYPE":"993","Class":"303"},"geometry":{"x":121.77275635618707,"y":24.672617827800089}},{"attributes":{"OBJECTID":22646,"LANDMARKID":"1000200000380","LANDMARKCO":"303","LANDMARKNA":"羅東鎮立體停車場","LANDMARKAD":"1000202","ADDRESS":"宜蘭縣羅東鎮興東路35號","TEL":" ","COUNTYNAME":"宜蘭縣","TOWNNAME":"羅東鎮","MARKTYPE":"993","Class":"303"},"geometry":{"x":121.7677316047271,"y":24.676188683199975}},{"attributes":{"OBJECTID":22647,"LANDMARKID":"1000200000381","LANDMARKCO":"303","LANDMARKNA":"Times(普客二四停車場)-羅東第一第二停車場","LANDMARKAD":"1000202","ADDRESS":"宜蘭縣羅東鎮公正路112號後方空地","TEL":" ","COUNTYNAME":"宜蘭縣","TOWNNAME":"羅東鎮","MARKTYPE":"993","Class":"303"},"geometry":{"x":121.77048435969195,"y":24.678812745342228}},{"attributes":{"OBJECTID":22648,"LANDMARKID":"1000200000341","LANDMARKCO":"301","LANDMARKNA":"羅東火車站","LANDMARKAD":"1000202","ADDRESS":"宜蘭縣羅東鎮大新里公正路2號","TEL":"03-9542117","COUNTYNAME":"宜蘭縣","TOWNNAME":"羅東鎮","MARKTYPE":"993","Class":"301"},"geometry":{"x":121.77457742014396,"y":24.678105757248343}},{"attributes":{"OBJECTID":22649,"LANDMARKID":"1000200000487","LANDMARKCO":"402","LANDMARKNA":"中華電信-羅東興東特約服務中心","LANDMARKAD":"1000202","ADDRESS":"宜蘭縣羅東鎮興東路183號","TEL":"03-9576969","COUNTYNAME":"宜蘭縣","TOWNNAME":"羅東鎮","MARKTYPE":"994","Class":"4"},"geometry":{"x":121.76949307893172,"y":24.681545828314572}},{"attributes":{"OBJECTID":22650,"LANDMARKID":"1000200000488","LANDMARKCO":"402","LANDMARKNA":"中華電信-羅東中正特約服務中心","LANDMARKAD":"1000202","ADDRESS":"宜蘭縣羅東鎮中正南路125號","TEL":"03-9558258","COUNTYNAME":"宜蘭縣","TOWNNAME":"羅東鎮","MARKTYPE":"994","Class":"4"},"geometry":{"x":121.7708104177448,"y":24.670814073363474}},{"attributes":{"OBJECTID":22651,"LANDMARKID":"1000200000489","LANDMARKCO":"402","LANDMARKNA":"中華電信-羅東服務中心","LANDMARKAD":"1000202","ADDRESS":"宜蘭縣羅東鎮公正路112號","TEL":"(03)954-9903","COUNTYNAME":"宜蘭縣","TOWNNAME":"羅東鎮","MARKTYPE":"994","Class":"4"},"geometry":{"x":121.77071041250412,"y":24.678495585418407}},{"attributes":{"OBJECTID":22652,"LANDMARKID":"1000200000490","LANDMARKCO":"402","LANDMARKNA":"遠傳電信-宜蘭羅東門市","LANDMARKAD":"1000202","ADDRESS":"宜蘭縣羅東鎮倉前路85號","TEL":" ","COUNTYNAME":"宜蘭縣","TOWNNAME":"羅東鎮","MARKTYPE":"994","Class":"4"},"geometry":{"x":121.76930046149548,"y":24.680460606713801}},{"attributes":{"OBJECTID":22653,"LANDMARKID":"1000200000491","LANDMARKCO":"402","LANDMARKNA":"威寶電信-羅東興東南特約服務中心","LANDMARKAD":"1000202","ADDRESS":"宜蘭縣羅東鎮興東南路250號","TEL":"(03)9566333","COUNTYNAME":"宜蘭縣","TOWNNAME":"羅東鎮","MARKTYPE":"994","Class":"4"},"geometry":{"x":121.76758338287782,"y":24.675062394688595}},{"attributes":{"OBJECTID":22654,"LANDMARKID":"1000200000492","LANDMARKCO":"402","LANDMARKNA":"威寶電信-羅東民權特約服務中心","LANDMARKAD":"1000202","ADDRESS":"宜蘭縣羅東鎮民權路86號","TEL":"(03)9565900","COUNTYNAME":"宜蘭縣","TOWNNAME":"羅東鎮","MARKTYPE":"994","Class":"4"},"geometry":{"x":121.76945109920361,"y":24.675668042787734}},{"attributes":{"OBJECTID":22655,"LANDMARKID":"1000200001188","LANDMARKCO":"604","LANDMARKNA":"箱根亞曼尼民宿","LANDMARKAD":"1000202","ADDRESS":"宜蘭縣羅東鎮富農路三段3號","TEL":"03-9563337","COUNTYNAME":"宜蘭縣","TOWNNAME":"羅東鎮","MARKTYPE":"996","Class":"6"},"geometry":{"x":121.79808410866852,"y":24.664377500891838}},{"attributes":{"OBJECTID":22656,"LANDMARKID":"1000200001189","LANDMARKCO":"604","LANDMARKNA":"御福民宿","LANDMARKAD":"1000202","ADDRESS":"宜蘭縣羅東鎮新群五路46號","TEL":"0958-571851","COUNTYNAME":"宜蘭縣","TOWNNAME":"羅東鎮","MARKTYPE":"996","Class":"6"},"geometry":{"x":121.79787123611742,"y":24.674302630572349}},{"attributes":{"OBJECTID":22657,"LANDMARKID":"1000200001190","LANDMARKCO":"604","LANDMARKNA":"意來居民宿","LANDMARKAD":"1000202","ADDRESS":"宜蘭縣羅東鎮新群五路48號","TEL":"03-9504748","COUNTYNAME":"宜蘭縣","TOWNNAME":"羅東鎮","MARKTYPE":"996","Class":"6"},"geometry":{"x":121.79779713590619,"y":24.674287024416305}},{"attributes":{"OBJECTID":22658,"LANDMARKID":"1000200001191","LANDMARKCO":"604","LANDMARKNA":"月牙泉民宿","LANDMARKAD":"1000202","ADDRESS":"宜蘭縣羅東鎮北投街221號","TEL":"03-9613629","COUNTYNAME":"宜蘭縣","TOWNNAME":"羅東鎮","MARKTYPE":"996","Class":"6"},"geometry":{"x":121.75133577153152,"y":24.675796400829366}},{"attributes":{"OBJECTID":22659,"LANDMARKID":"1000200001192","LANDMARKCO":"604","LANDMARKNA":"新戀家主義渡假別墅","LANDMARKAD":"1000202","ADDRESS":"宜蘭縣羅東鎮新群里富農路三段59巷8弄8號","TEL":"03-9602709","COUNTYNAME":"宜蘭縣","TOWNNAME":"羅東鎮","MARKTYPE":"996","Class":"6"},"geometry":{"x":121.798525100425,"y":24.666104156746695}},{"attributes":{"OBJECTID":22660,"LANDMARKID":"1000200001193","LANDMARKCO":"604","LANDMARKNA":"加賀屋民宿","LANDMARKAD":"1000202","ADDRESS":"宜蘭縣羅東鎮北投街236巷40號","TEL":"03-9611318","COUNTYNAME":"宜蘭縣","TOWNNAME":"羅東鎮","MARKTYPE":"996","Class":"6"},"geometry":{"x":121.75213038044262,"y":24.675063423738305}},{"attributes":{"OBJECTID":22661,"LANDMARKID":"1000200001194","LANDMARKCO":"604","LANDMARKNA":"晶典民宿","LANDMARKAD":"1000202","ADDRESS":"宜蘭縣羅東鎮西安街382巷73號","TEL":"03-9515886","COUNTYNAME":"宜蘭縣","TOWNNAME":"羅東鎮","MARKTYPE":"996","Class":"6"},"geometry":{"x":121.75410495597009,"y":24.684323417714555}},{"attributes":{"OBJECTID":22662,"LANDMARKID":"1000200000736","LANDMARKCO":"603","LANDMARKNA":"建國大旅社","LANDMARKAD":"1000202","ADDRESS":"宜蘭縣羅東鎮中正路186-4號5樓","TEL":"03-9563388","COUNTYNAME":"宜蘭縣","TOWNNAME":"羅東鎮","MARKTYPE":"996","Class":"6"},"geometry":{"x":121.77194427168884,"y":24.677318248198979}},{"attributes":{"OBJECTID":22663,"LANDMARKID":"1000200000737","LANDMARKCO":"603","LANDMARKNA":"金城客棧","LANDMARKAD":"1000202","ADDRESS":"宜蘭縣羅東鎮公正路60號","TEL":"03-9542169","COUNTYNAME":"宜蘭縣","TOWNNAME":"羅東鎮","MARKTYPE":"996","Class":"6"},"geometry":{"x":121.77283426308631,"y":24.678144928331385}},{"attributes":{"OBJECTID":22664,"LANDMARKID":"1000200000738","LANDMARKCO":"603","LANDMARKNA":"藍佳大飯店","LANDMARKAD":"1000202","ADDRESS":"宜蘭縣羅東鎮中山里興東路6號5-6樓","TEL":"03-9562186","COUNTYNAME":"宜蘭縣","TOWNNAME":"羅東鎮","MARKTYPE":"996","Class":"6"},"geometry":{"x":121.76791797720379,"y":24.675812684555147}},{"attributes":{"OBJECTID":22665,"LANDMARKID":"1000200000739","LANDMARKCO":"603","LANDMARKNA":"金帝旅社","LANDMARKAD":"1000202","ADDRESS":"宜蘭縣羅東鎮中正路186-6號7樓","TEL":"03-9571466","COUNTYNAME":"宜蘭縣","TOWNNAME":"羅東鎮","MARKTYPE":"996","Class":"6"},"geometry":{"x":121.77189781730958,"y":24.677244487043676}},{"attributes":{"OBJECTID":22666,"LANDMARKID":"1000200000740","LANDMARKCO":"603","LANDMARKNA":"東洲大旅社","LANDMARKAD":"1000202","ADDRESS":"宜蘭縣羅東鎮中正路199號","TEL":"03-9547085","COUNTYNAME":"宜蘭縣","TOWNNAME":"羅東鎮","MARKTYPE":"996","Class":"6"},"geometry":{"x":121.77189781730958,"y":24.677244487043676}},{"attributes":{"OBJECTID":22667,"LANDMARKID":"1000200000741","LANDMARKCO":"603","LANDMARKNA":"西樺商務客棧","LANDMARKAD":"1000202","ADDRESS":"宜蘭縣羅東鎮公正路155號4樓","TEL":"03-9530111","COUNTYNAME":"宜蘭縣","TOWNNAME":"羅東鎮","MARKTYPE":"996","Class":"6"},"geometry":{"x":121.76976018416028,"y":24.678296458818913}},{"attributes":{"OBJECTID":22668,"LANDMARKID":"1000200000742","LANDMARKCO":"603","LANDMARKNA":"宜泰大飯店","LANDMARKAD":"1000202","ADDRESS":"宜蘭縣羅東鎮公正路155號6-13樓","TEL":"03-9568488","COUNTYNAME":"宜蘭縣","TOWNNAME":"羅東鎮","MARKTYPE":"996","Class":"6"},"geometry":{"x":121.76976018416028,"y":24.678296458818913}},{"attributes":{"OBJECTID":22669,"LANDMARKID":"1000200000743","LANDMARKCO":"603","LANDMARKNA":"聯國大飯店","LANDMARKAD":"1000202","ADDRESS":"宜蘭縣羅東鎮公正路27號9-12樓","TEL":"03-9564378","COUNTYNAME":"宜蘭縣","TOWNNAME":"羅東鎮","MARKTYPE":"996","Class":"6"},"geometry":{"x":121.77383358631592,"y":24.677872782314587}},{"attributes":{"OBJECTID":22670,"LANDMARKID":"1000200000744","LANDMARKCO":"603","LANDMARKNA":"假日大飯店","LANDMARKAD":"1000202","ADDRESS":"宜蘭縣羅東鎮公正路38號","TEL":"03-9545106","COUNTYNAME":"宜蘭縣","TOWNNAME":"羅東鎮","MARKTYPE":"996","Class":"6"},"geometry":{"x":121.77383358631592,"y":24.677872782314587}},{"attributes":{"OBJECTID":22671,"LANDMARKID":"1000200000745","LANDMARKCO":"603","LANDMARKNA":"久屋麗緻客棧","LANDMARKAD":"1000202","ADDRESS":"宜蘭縣羅東鎮公正路511號14-19樓","TEL":"03-9613799","COUNTYNAME":"宜蘭縣","TOWNNAME":"羅東鎮","MARKTYPE":"996","Class":"6"},"geometry":{"x":121.75758742298528,"y":24.679833839631577}},{"attributes":{"OBJECTID":22672,"LANDMARKID":"1000200000746","LANDMARKCO":"603","LANDMARKNA":"嘉美旅社","LANDMARKAD":"1000202","ADDRESS":"宜蘭縣羅東鎮公園路100號6-8樓","TEL":"03-9563126","COUNTYNAME":"宜蘭縣","TOWNNAME":"羅東鎮","MARKTYPE":"996","Class":"6"},"geometry":{"x":121.76898316588789,"y":24.675516234331738}},{"attributes":{"OBJECTID":22673,"LANDMARKID":"1000200000747","LANDMARKCO":"603","LANDMARKNA":"龍城大旅社","LANDMARKAD":"1000202","ADDRESS":"宜蘭縣羅東鎮公園路96號","TEL":"03-9545100","COUNTYNAME":"宜蘭縣","TOWNNAME":"羅東鎮","MARKTYPE":"996","Class":"6"},"geometry":{"x":121.76896595888397,"y":24.675319322595659}},{"attributes":{"OBJECTID":22674,"LANDMARKID":"1000200000748","LANDMARKCO":"603","LANDMARKNA":"立崎大飯店","LANDMARKAD":"1000202","ADDRESS":"宜蘭縣羅東鎮天津路42號","TEL":"03-9563999","COUNTYNAME":"宜蘭縣","TOWNNAME":"羅東鎮","MARKTYPE":"996","Class":"6"},"geometry":{"x":121.77012757439405,"y":24.680150575452668}},{"attributes":{"OBJECTID":22675,"LANDMARKID":"1000200000749","LANDMARKCO":"603","LANDMARKNA":"米堤商務汽車旅館","LANDMARKAD":"1000202","ADDRESS":"宜蘭縣羅東鎮四維路8號","TEL":"03-9558866","COUNTYNAME":"宜蘭縣","TOWNNAME":"羅東鎮","MARKTYPE":"996","Class":"6"},"geometry":{"x":121.7568307699436,"y":24.683957654568246}},{"attributes":{"OBJECTID":22676,"LANDMARKID":"1000200000750","LANDMARKCO":"603","LANDMARKNA":"登園大飯店","LANDMARKAD":"1000202","ADDRESS":"宜蘭縣羅東鎮安平路10號","TEL":"03-9565402","COUNTYNAME":"宜蘭縣","TOWNNAME":"羅東鎮","MARKTYPE":"996","Class":"6"},"geometry":{"x":121.77323684083332,"y":24.677568856388227}},{"attributes":{"OBJECTID":22677,"LANDMARKID":"1000200000751","LANDMARKCO":"603","LANDMARKNA":"東方商務大飯店","LANDMARKAD":"1000202","ADDRESS":"宜蘭縣羅東鎮和平路109號","TEL":"03-9545122","COUNTYNAME":"宜蘭縣","TOWNNAME":"羅東鎮","MARKTYPE":"996","Class":"6"},"geometry":{"x":121.77250430759972,"y":24.677484626231966}},{"attributes":{"OBJECTID":22678,"LANDMARKID":"1000200000752","LANDMARKCO":"603","LANDMARKNA":"金羅東大飯店","LANDMARKAD":"1000202","ADDRESS":"宜蘭縣羅東鎮興東路8-1號7-9樓","TEL":"03-9563131-4","COUNTYNAME":"宜蘭縣","TOWNNAME":"羅東鎮","MARKTYPE":"996","Class":"6"},"geometry":{"x":121.76835856264425,"y":24.677376430990936}},{"attributes":{"OBJECTID":22679,"LANDMARKID":"1000200000753","LANDMARKCO":"603","LANDMARKNA":"同榮大旅社","LANDMARKAD":"1000202","ADDRESS":"宜蘭縣羅東鎮中正北路32號7-10樓","TEL":"03-9577979","COUNTYNAME":"宜蘭縣","TOWNNAME":"羅東鎮","MARKTYPE":"996","Class":"6"},"geometry":{"x":121.77194528977616,"y":24.679124242743409}},{"attributes":{"OBJECTID":22680,"LANDMARKID":"1000200000754","LANDMARKCO":"603","LANDMARKNA":"貴族大旅社","LANDMARKAD":"1000202","ADDRESS":"宜蘭縣羅東鎮中正路186-3號4樓","TEL":"03-9569519","COUNTYNAME":"宜蘭縣","TOWNNAME":"羅東鎮","MARKTYPE":"996","Class":"6"},"geometry":{"x":121.77189781730958,"y":24.677244487043676}},{"attributes":{"OBJECTID":22681,"LANDMARKID":"1000200000755","LANDMARKCO":"603","LANDMARKNA":"國城旅社","LANDMARKAD":"1000202","ADDRESS":"宜蘭縣羅東鎮忠孝路51號2-5樓","TEL":"53號1-5樓","COUNTYNAME":"宜蘭縣","TOWNNAME":"羅東鎮","MARKTYPE":"996","Class":"6"},"geometry":{"x":121.76484337593729,"y":24.676373219343017}},{"attributes":{"OBJECTID":22682,"LANDMARKID":"1000200000756","LANDMARKCO":"603","LANDMARKNA":"華王商務旅館","LANDMARKAD":"1000202","ADDRESS":"宜蘭縣羅東鎮中正北路41號","TEL":"03-9544155-6","COUNTYNAME":"宜蘭縣","TOWNNAME":"羅東鎮","MARKTYPE":"996","Class":"6"},"geometry":{"x":121.77194528977616,"y":24.679124242743409}},{"attributes":{"OBJECTID":22683,"LANDMARKID":"1000200000757","LANDMARKCO":"603","LANDMARKNA":"威尼斯汽車旅館","LANDMARKAD":"1000202","ADDRESS":"宜蘭縣羅東鎮站東路326號","TEL":"03-9577000","COUNTYNAME":"宜蘭縣","TOWNNAME":"羅東鎮","MARKTYPE":"996","Class":"6"},"geometry":{"x":121.77508430000209,"y":24.67960564242475}},{"attributes":{"OBJECTID":22684,"LANDMARKID":"1000200000758","LANDMARKCO":"603","LANDMARKNA":"金愛大飯店","LANDMARKAD":"1000202","ADDRESS":"宜蘭縣羅東鎮站前北路77號2-5樓","TEL":"03-9576289","COUNTYNAME":"宜蘭縣","TOWNNAME":"羅東鎮","MARKTYPE":"996","Class":"6"},"geometry":{"x":121.77412146292886,"y":24.679958297730604}},{"attributes":{"OBJECTID":22685,"LANDMARKID":"1000200000759","LANDMARKCO":"603","LANDMARKNA":"新堡汽車旅館","LANDMARKAD":"1000202","ADDRESS":"宜蘭縣羅東鎮復興路二段238巷19號","TEL":"03-9567799","COUNTYNAME":"宜蘭縣","TOWNNAME":"羅東鎮","MARKTYPE":"996","Class":"6"},"geometry":{"x":121.76541255210059,"y":24.691271316237867}},{"attributes":{"OBJECTID":22686,"LANDMARKID":"1000200000760","LANDMARKCO":"603","LANDMARKNA":"天裕大飯店","LANDMARKAD":"1000202","ADDRESS":"宜蘭縣羅東鎮興東南路83號","TEL":"03-9553631","COUNTYNAME":"宜蘭縣","TOWNNAME":"羅東鎮","MARKTYPE":"996","Class":"6"},"geometry":{"x":121.76966585695637,"y":24.66990994300355}},{"attributes":{"OBJECTID":22687,"LANDMARKID":"1000200000761","LANDMARKCO":"603","LANDMARKNA":"日新旅社","LANDMARKAD":"1000202","ADDRESS":"宜蘭縣羅東鎮中山西路17-1號","TEL":"03-9545110","COUNTYNAME":"宜蘭縣","TOWNNAME":"羅東鎮","MARKTYPE":"996","Class":"6"},"geometry":{"x":121.76957663707104,"y":24.674607399237939}},{"attributes":{"OBJECTID":22688,"LANDMARKID":"1000200000762","LANDMARKCO":"603","LANDMARKNA":"晶樺商務飯店","LANDMARKAD":"1000202","ADDRESS":"宜蘭縣羅東鎮中正北路42號7-8樓","TEL":"03-9575110","COUNTYNAME":"宜蘭縣","TOWNNAME":"羅東鎮","MARKTYPE":"996","Class":"6"},"geometry":{"x":121.77194530208835,"y":24.679126242433689}},{"attributes":{"OBJECTID":22689,"LANDMARKID":"1000200001178","LANDMARKCO":"604","LANDMARKNA":"維多利亞民宿","LANDMARKAD":"1000202","ADDRESS":"宜蘭縣羅東鎮河濱路158號","TEL":"0920-689158","COUNTYNAME":"宜蘭縣","TOWNNAME":"羅東鎮","MARKTYPE":"996","Class":"6"},"geometry":{"x":121.75764317249845,"y":24.705914551266773}},{"attributes":{"OBJECTID":22690,"LANDMARKID":"1000200001179","LANDMARKCO":"604","LANDMARKNA":"詩聰休閒民宿","LANDMARKAD":"1000202","ADDRESS":"宜蘭縣冬山鄉中山村中山路8巷20號","TEL":"03-9588936","COUNTYNAME":"宜蘭縣","TOWNNAME":"羅東鎮","MARKTYPE":"996","Class":"6"},"geometry":{"x":121.75135287160309,"y":24.673035315150514}},{"attributes":{"OBJECTID":22691,"LANDMARKID":"1000200001180","LANDMARKCO":"604","LANDMARKNA":"享亨民宿","LANDMARKAD":"1000202","ADDRESS":"宜蘭縣羅東鎮中山路二段139號","TEL":"03-9605347","COUNTYNAME":"宜蘭縣","TOWNNAME":"羅東鎮","MARKTYPE":"996","Class":"6"},"geometry":{"x":121.78245578872982,"y":24.673310190024996}},{"attributes":{"OBJECTID":22692,"LANDMARKID":"1000200001181","LANDMARKCO":"604","LANDMARKNA":"劉德華的家","LANDMARKAD":"1000202","ADDRESS":"宜蘭縣羅東鎮月眉路10號","TEL":"03-9530288","COUNTYNAME":"宜蘭縣","TOWNNAME":"羅東鎮","MARKTYPE":"996","Class":"6"},"geometry":{"x":121.79807148073414,"y":24.664121568469291}},{"attributes":{"OBJECTID":22693,"LANDMARKID":"1000200001182","LANDMARKCO":"604","LANDMARKNA":"楓城民宿","LANDMARKAD":"1000202","ADDRESS":"宜蘭縣羅東鎮月眉路546巷1號","TEL":"0928-073580","COUNTYNAME":"宜蘭縣","TOWNNAME":"羅東鎮","MARKTYPE":"996","Class":"6"},"geometry":{"x":121.78584334170732,"y":24.669498966355128}},{"attributes":{"OBJECTID":22694,"LANDMARKID":"1000200001183","LANDMARKCO":"604","LANDMARKNA":"靜馨園民宿","LANDMARKAD":"1000202","ADDRESS":"宜蘭縣羅東鎮北投街217號","TEL":"03-9611366","COUNTYNAME":"宜蘭縣","TOWNNAME":"羅東鎮","MARKTYPE":"996","Class":"6"},"geometry":{"x":121.75036147839067,"y":24.675581271809047}},{"attributes":{"OBJECTID":22695,"LANDMARKID":"1000200001184","LANDMARKCO":"604","LANDMARKNA":"香榭民宿","LANDMARKAD":"1000202","ADDRESS":"宜蘭縣羅東鎮北投街223號","TEL":"03-9515658","COUNTYNAME":"宜蘭縣","TOWNNAME":"羅東鎮","MARKTYPE":"996","Class":"6"},"geometry":{"x":121.75122766661727,"y":24.675778941947772}},{"attributes":{"OBJECTID":22696,"LANDMARKID":"1000200001185","LANDMARKCO":"604","LANDMARKNA":"桔梗花民宿","LANDMARKAD":"1000202","ADDRESS":"宜蘭縣羅東鎮北投街237號","TEL":"03-9615857","COUNTYNAME":"宜蘭縣","TOWNNAME":"羅東鎮","MARKTYPE":"996","Class":"6"},"geometry":{"x":121.75137500008741,"y":24.67616820429701}},{"attributes":{"OBJECTID":22697,"LANDMARKID":"1000200001186","LANDMARKCO":"604","LANDMARKNA":"公園海民宿","LANDMARKAD":"1000202","ADDRESS":"宜蘭縣羅東鎮四維路156巷16號","TEL":"03-9554107","COUNTYNAME":"宜蘭縣","TOWNNAME":"羅東鎮","MARKTYPE":"996","Class":"6"},"geometry":{"x":121.75255223100369,"y":24.686649306508148}},{"attributes":{"OBJECTID":22698,"LANDMARKID":"1000200001187","LANDMARKCO":"604","LANDMARKNA":"靜園休閒民宿","LANDMARKAD":"1000202","ADDRESS":"宜蘭縣羅東鎮河濱路300號","TEL":"03-9654477","COUNTYNAME":"宜蘭縣","TOWNNAME":"羅東鎮","MARKTYPE":"996","Class":"6"},"geometry":{"x":121.75505745507515,"y":24.69912262617969}},{"attributes":{"OBJECTID":22699,"LANDMARKID":"1000200000735","LANDMARKCO":"602","LANDMARKNA":"幼獅大飯店","LANDMARKAD":"1000202","ADDRESS":"宜蘭縣羅東鎮中山路3段222號","TEL":"039-551-111","COUNTYNAME":"宜蘭縣","TOWNNAME":"羅東鎮","MARKTYPE":"996","Class":"6"},"geometry":{"x":121.76967647233283,"y":24.675076887952514}},{"attributes":{"OBJECTID":22700,"LANDMARKID":"1000200000726","LANDMARKCO":"511","LANDMARKNA":"羅東觀光夜市","LANDMARKAD":"1000202","ADDRESS":"宜蘭縣羅東鎮(羅東中山公園旁)","TEL":" ","COUNTYNAME":"宜蘭縣","TOWNNAME":"羅東鎮","MARKTYPE":"995","Class":"5"},"geometry":{"x":121.76836095529686,"y":24.675908724741902}},{"attributes":{"OBJECTID":22701,"LANDMARKID":"1000200000554","LANDMARKCO":"405","LANDMARKNA":"中油加油站-五結站","LANDMARKAD":"1000209","ADDRESS":"宜蘭縣五結鄉中福路66-3號","TEL":"03-9600832","COUNTYNAME":"宜蘭縣","TOWNNAME":"五結鄉","MARKTYPE":"994","Class":"4"},"geometry":{"x":121.78104427781813,"y":24.682484961573014}},{"attributes":{"OBJECTID":22702,"LANDMARKID":"1000200000555","LANDMARKCO":"405","LANDMARKNA":"中油加油站-新水站(中油直營)","LANDMARKAD":"1000209","ADDRESS":"宜蘭縣五結鄉五濱路二段206號","TEL":"039-504374","COUNTYNAME":"宜蘭縣","TOWNNAME":"五結鄉","MARKTYPE":"994","Class":"4"},"geometry":{"x":121.82720352287188,"y":24.68061662553685}},{"attributes":{"OBJECTID":22703,"LANDMARKID":"1000200000556","LANDMARKCO":"405","LANDMARKNA":"中油加油站-羅東站(中油直營)","LANDMARKAD":"1000209","ADDRESS":"宜蘭縣五結鄉中正路二段94號","TEL":"03-9654651","COUNTYNAME":"宜蘭縣","TOWNNAME":"五結鄉","MARKTYPE":"994","Class":"4"},"geometry":{"x":121.76967833544245,"y":24.697401230372378}},{"attributes":{"OBJECTID":22704,"LANDMARKID":"1000200000557","LANDMARKCO":"405","LANDMARKNA":"中油加油站-東寶站","LANDMARKAD":"1000209","ADDRESS":"宜蘭縣五結鄉光榮北路8號","TEL":"03-9603995","COUNTYNAME":"宜蘭縣","TOWNNAME":"五結鄉","MARKTYPE":"994","Class":"4"},"geometry":{"x":121.77812365605276,"y":24.682006457201528}},{"attributes":{"OBJECTID":22705,"LANDMARKID":"1000200000686","LANDMARKCO":"507","LANDMARKNA":"二結農會穀倉","LANDMARKAD":"1000209","ADDRESS":"宜蘭縣五結鄉復興中路37號","TEL":" ","COUNTYNAME":"宜蘭縣","TOWNNAME":"五結鄉","MARKTYPE":"995","Class":"5"},"geometry":{"x":121.77571450314905,"y":24.700686965479267}},{"attributes":{"OBJECTID":22706,"LANDMARKID":"1000200000729","LANDMARKCO":"512","LANDMARKNA":"冬山河親水公園旅遊服務中心","LANDMARKAD":"1000209","ADDRESS":"宜蘭縣五結鄉協和路20之36號","TEL":"03-9502097","COUNTYNAME":"宜蘭縣","TOWNNAME":"五結鄉","MARKTYPE":"995","Class":"5"},"geometry":{"x":121.81220672991681,"y":24.672824872031139}},{"attributes":{"OBJECTID":22707,"LANDMARKID":"1000200000687","LANDMARKCO":"507","LANDMARKNA":"大埔永安石板橋","LANDMARKAD":"1000209","ADDRESS":"宜蘭縣五結鄉協和村中和路成安宮旁","TEL":" ","COUNTYNAME":"宜蘭縣","TOWNNAME":"五結鄉","MARKTYPE":"995","Class":"5"},"geometry":{"x":121.8131470260541,"y":24.680538638133154}},{"attributes":{"OBJECTID":22708,"LANDMARKID":"1000200000727","LANDMARKCO":"512","LANDMARKNA":"宜蘭縣風景區管理所","LANDMARKAD":"1000209","ADDRESS":"宜蘭縣五結鄉親河路二段18號","TEL":"03-9505544","COUNTYNAME":"宜蘭縣","TOWNNAME":"五結鄉","MARKTYPE":"995","Class":"5"},"geometry":{"x":121.81225109514978,"y":24.672922669153795}},{"attributes":{"OBJECTID":22709,"LANDMARKID":"1000200000613","LANDMARKCO":"408","LANDMARKNA":"郵局-五結二結郵局","LANDMARKAD":"1000209","ADDRESS":"宜蘭縣五結鄉西河路2號","TEL":"(03)9653-907","COUNTYNAME":"宜蘭縣","TOWNNAME":"五結鄉","MARKTYPE":"994","Class":"4"},"geometry":{"x":121.76798787283295,"y":24.702726020540979}},{"attributes":{"OBJECTID":22710,"LANDMARKID":"1000200000614","LANDMARKCO":"408","LANDMARKNA":"郵局-五結郵局","LANDMARKAD":"1000209","ADDRESS":"宜蘭縣五結鄉自強路165號","TEL":"(03)9505-652","COUNTYNAME":"宜蘭縣","TOWNNAME":"五結鄉","MARKTYPE":"994","Class":"4"},"geometry":{"x":121.79510958582163,"y":24.68374611505666}},{"attributes":{"OBJECTID":22711,"LANDMARKID":"1000200000615","LANDMARKCO":"408","LANDMARKNA":"郵局-五結利澤郵局","LANDMARKAD":"1000209","ADDRESS":"宜蘭縣五結鄉利成路2段468號","TEL":"(03)9502-023","COUNTYNAME":"宜蘭縣","TOWNNAME":"五結鄉","MARKTYPE":"994","Class":"4"},"geometry":{"x":121.82206362401783,"y":24.66774577004113}},{"attributes":{"OBJECTID":22712,"LANDMARKID":"1000200000622","LANDMARKCO":"409","LANDMARKNA":"宜蘭縣五結鄉農會","LANDMARKAD":"1000209","ADDRESS":"宜蘭縣五結鄉中正路23號","TEL":"03-9501162","COUNTYNAME":"宜蘭縣","TOWNNAME":"五結鄉","MARKTYPE":"994","Class":"4"},"geometry":{"x":121.77484914826213,"y":24.705267781973301}},{"attributes":{"OBJECTID":22713,"LANDMARKID":"1000200000576","LANDMARKCO":"406","LANDMARKNA":"來來公園","LANDMARKAD":"1000209","ADDRESS":"宜蘭縣五結鄉","TEL":" ","COUNTYNAME":"宜蘭縣","TOWNNAME":"五結鄉","MARKTYPE":"994","Class":"4"},"geometry":{"x":121.82024758769161,"y":24.667883617217292}},{"attributes":{"OBJECTID":22714,"LANDMARKID":"1000200000516","LANDMARKCO":"405","LANDMARKNA":"台塑加油站-親水公園站(台塑)","LANDMARKAD":"1000209","ADDRESS":"宜蘭縣五結鄉協和路全祥新村269號","TEL":"03-9601689","COUNTYNAME":"宜蘭縣","TOWNNAME":"五結鄉","MARKTYPE":"994","Class":"4"},"geometry":{"x":121.81058534698045,"y":24.673358959324617}},{"attributes":{"OBJECTID":22715,"LANDMARKID":"1000200000021","LANDMARKCO":"101","LANDMARKNA":"國立傳統藝術中心","LANDMARKAD":"1000209","ADDRESS":"宜蘭縣五結鄉季新村五濱路二段201號","TEL":"03-9705815","COUNTYNAME":"宜蘭縣","TOWNNAME":"五結鄉","MARKTYPE":"991","Class":"1"},"geometry":{"x":121.82419904917623,"y":24.686013825735316}},{"attributes":{"OBJECTID":22716,"LANDMARKID":"1000200000091","LANDMARKCO":"107","LANDMARKNA":"宜蘭縣消防局五結消防分隊","LANDMARKAD":"1000209","ADDRESS":"宜蘭縣五結鄉利澤南路24號","TEL":"03-9503434","COUNTYNAME":"宜蘭縣","TOWNNAME":"五結鄉","MARKTYPE":"991","Class":"1"},"geometry":{"x":121.82312422001895,"y":24.665871505103969}},{"attributes":{"OBJECTID":22717,"LANDMARKID":"1000200000092","LANDMARKCO":"107","LANDMARKNA":"宜蘭縣警察局利澤派出所","LANDMARKAD":"1000209","ADDRESS":"宜蘭縣五結鄉利澤村利澤路6號","TEL":"039-503512","COUNTYNAME":"宜蘭縣","TOWNNAME":"五結鄉","MARKTYPE":"991","Class":"1"},"geometry":{"x":121.82304637447801,"y":24.665962643094105}},{"attributes":{"OBJECTID":22718,"LANDMARKID":"1000200000022","LANDMARKCO":"101","LANDMARKNA":"農業委員會畜產試驗所宜蘭分所","LANDMARKAD":"1000209","ADDRESS":"宜蘭縣五結鄉季新村季水路28之1號","TEL":"03-9503107","COUNTYNAME":"宜蘭縣","TOWNNAME":"五結鄉","MARKTYPE":"991","Class":"1"},"geometry":{"x":121.83191520971111,"y":24.672862411768254}},{"attributes":{"OBJECTID":22719,"LANDMARKID":"1000200000090","LANDMARKCO":"107","LANDMARKNA":"宜蘭縣警察局二結派出所","LANDMARKAD":"1000209","ADDRESS":"宜蘭縣五結鄉西河路1號","TEL":"03-9591476","COUNTYNAME":"宜蘭縣","TOWNNAME":"五結鄉","MARKTYPE":"991","Class":"1"},"geometry":{"x":121.76787431947955,"y":24.703720230164585}},{"attributes":{"OBJECTID":22720,"LANDMARKID":"1000200000042","LANDMARKCO":"103","LANDMARKNA":"宜蘭縣動植物防疫所","LANDMARKAD":"1000209","ADDRESS":"宜蘭縣五結鄉成興村利寶路60號","TEL":"03-9602350","COUNTYNAME":"宜蘭縣","TOWNNAME":"五結鄉","MARKTYPE":"991","Class":"1"},"geometry":{"x":121.83120798805281,"y":24.667119826205305}},{"attributes":{"OBJECTID":22721,"LANDMARKID":"1000200000043","LANDMARKCO":"103","LANDMARKNA":"宜蘭縣五結鄉衛生所","LANDMARKAD":"1000209","ADDRESS":"宜蘭縣五結鄉五結村五結路二段337號","TEL":"03-9501564","COUNTYNAME":"宜蘭縣","TOWNNAME":"五結鄉","MARKTYPE":"991","Class":"1"},"geometry":{"x":121.7989143687257,"y":24.684910415556836}},{"attributes":{"OBJECTID":22722,"LANDMARKID":"1000200000082","LANDMARKCO":"106","LANDMARKNA":"宜蘭縣五結鄉戶政事務所","LANDMARKAD":"1000209","ADDRESS":"宜蘭縣五結鄉五結村五結路二段339號","TEL":"03-9501841","COUNTYNAME":"宜蘭縣","TOWNNAME":"五結鄉","MARKTYPE":"991","Class":"1"},"geometry":{"x":121.79885845388546,"y":24.684889000272968}},{"attributes":{"OBJECTID":22723,"LANDMARKID":"1000200000023","LANDMARKCO":"101","LANDMARKNA":"台灣宜蘭地方法院羅東辦公室","LANDMARKAD":"1000209","ADDRESS":"宜蘭縣五結鄉仁愛路2段88號","TEL":"03-9655550","COUNTYNAME":"宜蘭縣","TOWNNAME":"五結鄉","MARKTYPE":"991","Class":"1"},"geometry":{"x":121.76693888479872,"y":24.695688303255121}},{"attributes":{"OBJECTID":22724,"LANDMARKID":"1000200000024","LANDMARKCO":"101","LANDMARKNA":"台北區監理所宜蘭監理站","LANDMARKAD":"1000209","ADDRESS":"宜蘭縣五結鄉中正路二段9號","TEL":"03-9658461","COUNTYNAME":"宜蘭縣","TOWNNAME":"五結鄉","MARKTYPE":"991","Class":"1"},"geometry":{"x":121.769052012418,"y":24.693988513790757}},{"attributes":{"OBJECTID":22725,"LANDMARKID":"1000200000089","LANDMARKCO":"107","LANDMARKNA":"宜蘭縣警察局五結分駐所","LANDMARKAD":"1000209","ADDRESS":"宜蘭縣五結鄉五結村國民路17號","TEL":"039-504381","COUNTYNAME":"宜蘭縣","TOWNNAME":"五結鄉","MARKTYPE":"991","Class":"1"},"geometry":{"x":121.79789774101231,"y":24.687573762389714}},{"attributes":{"OBJECTID":22726,"LANDMARKID":"1000200000039","LANDMARKCO":"103","LANDMARKNA":"宜蘭縣五結鄉鄉民代表會","LANDMARKAD":"1000209","ADDRESS":"宜蘭縣五結鄉五結村1鄰五結路1號2樓","TEL":"03-9501472","COUNTYNAME":"宜蘭縣","TOWNNAME":"五結鄉","MARKTYPE":"991","Class":"1"},"geometry":{"x":121.79799939716355,"y":24.684876794991691}},{"attributes":{"OBJECTID":22727,"LANDMARKID":"1000200000025","LANDMARKCO":"101","LANDMARKNA":"蘇澳區域性衛生掩埋場","LANDMARKAD":"1000209","ADDRESS":"宜蘭縣蘇澳鎮濱海路三段990號","TEL":"03-9904141","COUNTYNAME":"宜蘭縣","TOWNNAME":"五結鄉","MARKTYPE":"991","Class":"1"},"geometry":{"x":121.81957491085331,"y":24.705528771951052}},{"attributes":{"OBJECTID":22728,"LANDMARKID":"1000200000100","LANDMARKCO":"107","LANDMARKNA":"宜蘭縣警察局孝威派出所","LANDMARKAD":"1000209","ADDRESS":"宜蘭縣五結鄉孝威西路14之2號","TEL":"03-9503506","COUNTYNAME":"宜蘭縣","TOWNNAME":"五結鄉","MARKTYPE":"991","Class":"1"},"geometry":{"x":121.81065140408643,"y":24.69455101655457}},{"attributes":{"OBJECTID":22729,"LANDMARKID":"1000200000330","LANDMARKCO":"205","LANDMARKNA":"孝威國小校園博物館","LANDMARKAD":"1000209","ADDRESS":"宜蘭縣五結鄉孝威路328號","TEL":"03-9503804","COUNTYNAME":"宜蘭縣","TOWNNAME":"五結鄉","MARKTYPE":"992","Class":"2"},"geometry":{"x":121.81169360305569,"y":24.697086033974248}},{"attributes":{"OBJECTID":22730,"LANDMARKID":"1000200000255","LANDMARKCO":"203","LANDMARKNA":"縣立利澤國中","LANDMARKAD":"1000209","ADDRESS":"宜蘭縣五結鄉下清路99號","TEL":"03-9504762","COUNTYNAME":"宜蘭縣","TOWNNAME":"五結鄉","MARKTYPE":"992","Class":"2"},"geometry":{"x":121.8289915273117,"y":24.665024925114004}},{"attributes":{"OBJECTID":22731,"LANDMARKID":"1000200000256","LANDMARKCO":"203","LANDMARKNA":"縣立利澤國小","LANDMARKAD":"1000209","ADDRESS":"宜蘭縣五結鄉下清路116號","TEL":"03-9503805","COUNTYNAME":"宜蘭縣","TOWNNAME":"五結鄉","MARKTYPE":"992","Class":"2"},"geometry":{"x":121.82740216445283,"y":24.665117453756775}},{"attributes":{"OBJECTID":22732,"LANDMARKID":"1000200000257","LANDMARKCO":"203","LANDMARKNA":"縣立興中國中","LANDMARKAD":"1000209","ADDRESS":"宜蘭縣五結鄉上四村中正東路4號","TEL":"03-9653453","COUNTYNAME":"宜蘭縣","TOWNNAME":"五結鄉","MARKTYPE":"992","Class":"2"},"geometry":{"x":121.77119642892106,"y":24.699457159525878}},{"attributes":{"OBJECTID":22733,"LANDMARKID":"1000200000258","LANDMARKCO":"203","LANDMARKNA":"縣立五結國中","LANDMARKAD":"1000209","ADDRESS":"宜蘭縣五結鄉大吉村大吉路12之3號","TEL":"03-9501105","COUNTYNAME":"宜蘭縣","TOWNNAME":"五結鄉","MARKTYPE":"992","Class":"2"},"geometry":{"x":121.80066826952512,"y":24.696690089845241}},{"attributes":{"OBJECTID":22734,"LANDMARKID":"1000200000259","LANDMARKCO":"203","LANDMARKNA":"縣立中興國小","LANDMARKAD":"1000209","ADDRESS":"宜蘭縣五結鄉中興路三段67號","TEL":"03-9544356","COUNTYNAME":"宜蘭縣","TOWNNAME":"五結鄉","MARKTYPE":"992","Class":"2"},"geometry":{"x":121.77195043005693,"y":24.692715660703634}},{"attributes":{"OBJECTID":22735,"LANDMARKID":"1000200000260","LANDMARKCO":"203","LANDMARKNA":"縣立五結國小","LANDMARKAD":"1000209","ADDRESS":"宜蘭縣五結鄉國民路1號","TEL":"03-9507272","COUNTYNAME":"宜蘭縣","TOWNNAME":"五結鄉","MARKTYPE":"992","Class":"2"},"geometry":{"x":121.79922135471908,"y":24.687178879439273}},{"attributes":{"OBJECTID":22736,"LANDMARKID":"1000200000261","LANDMARKCO":"203","LANDMARKNA":"縣立學進國小","LANDMARKAD":"1000209","ADDRESS":"宜蘭縣五結鄉中正路三段151號","TEL":"03-9653801","COUNTYNAME":"宜蘭縣","TOWNNAME":"五結鄉","MARKTYPE":"992","Class":"2"},"geometry":{"x":121.77049072795583,"y":24.706925250111027}},{"attributes":{"OBJECTID":22737,"LANDMARKID":"1000200000262","LANDMARKCO":"203","LANDMARKNA":"縣立孝威國小","LANDMARKAD":"1000209","ADDRESS":"宜蘭縣五結鄉孝威東路59號","TEL":"03-9503804","COUNTYNAME":"宜蘭縣","TOWNNAME":"五結鄉","MARKTYPE":"992","Class":"2"},"geometry":{"x":121.81184552710755,"y":24.696719925922686}},{"attributes":{"OBJECTID":22738,"LANDMARKID":"1000200000263","LANDMARKCO":"203","LANDMARKNA":"國立宜蘭特殊教育學校","LANDMARKAD":"1000209","ADDRESS":"宜蘭縣五結鄉國民中路22之20號","TEL":"03-9509788","COUNTYNAME":"宜蘭縣","TOWNNAME":"五結鄉","MARKTYPE":"992","Class":"2"},"geometry":{"x":121.79415350396893,"y":24.693789502000826}},{"attributes":{"OBJECTID":22739,"LANDMARKID":"1000200000436","LANDMARKCO":"303","LANDMARKNA":"親水公園停車場","LANDMARKAD":"1000209","ADDRESS":"宜蘭縣五結鄉","TEL":" ","COUNTYNAME":"宜蘭縣","TOWNNAME":"五結鄉","MARKTYPE":"993","Class":"303"},"geometry":{"x":121.81228376434413,"y":24.671569759155716}},{"attributes":{"OBJECTID":22740,"LANDMARKID":"1000200000437","LANDMARKCO":"303","LANDMARKNA":"親水公園東側小客車停車場","LANDMARKAD":"1000209","ADDRESS":"宜蘭縣五結鄉","TEL":" ","COUNTYNAME":"宜蘭縣","TOWNNAME":"五結鄉","MARKTYPE":"993","Class":"303"},"geometry":{"x":121.81875904749948,"y":24.675967244366696}},{"attributes":{"OBJECTID":22741,"LANDMARKID":"1000200000438","LANDMARKCO":"303","LANDMARKNA":"親水公園機車停車場","LANDMARKAD":"1000209","ADDRESS":"宜蘭縣五結鄉","TEL":" ","COUNTYNAME":"宜蘭縣","TOWNNAME":"五結鄉","MARKTYPE":"993","Class":"303"},"geometry":{"x":121.8176181560101,"y":24.674546919239933}},{"attributes":{"OBJECTID":22742,"LANDMARKID":"1000200000439","LANDMARKCO":"303","LANDMARKNA":"國立傳統藝術中心北大門停車場","LANDMARKAD":"1000209","ADDRESS":"宜蘭縣五結鄉五濱路二段201號","TEL":"03-9705815","COUNTYNAME":"宜蘭縣","TOWNNAME":"五結鄉","MARKTYPE":"993","Class":"303"},"geometry":{"x":121.82423802417959,"y":24.686082407177043}},{"attributes":{"OBJECTID":22743,"LANDMARKID":"1000200000440","LANDMARKCO":"303","LANDMARKNA":"國立傳統藝術中心機車停車場","LANDMARKAD":"1000209","ADDRESS":"宜蘭縣五結鄉五濱路二段201號","TEL":" ","COUNTYNAME":"宜蘭縣","TOWNNAME":"五結鄉","MARKTYPE":"993","Class":"303"},"geometry":{"x":121.82464616540399,"y":24.68834423488239}},{"attributes":{"OBJECTID":22744,"LANDMARKID":"1000200000441","LANDMARKCO":"303","LANDMARKNA":"國立傳統藝術中心南大門停車場","LANDMARKAD":"1000209","ADDRESS":"宜蘭縣五結鄉五濱路二段201號","TEL":"03-9705815","COUNTYNAME":"宜蘭縣","TOWNNAME":"五結鄉","MARKTYPE":"993","Class":"303"},"geometry":{"x":121.82472643962997,"y":24.684628205393309}},{"attributes":{"OBJECTID":22745,"LANDMARKID":"1000200000442","LANDMARKCO":"303","LANDMARKNA":"國立傳統藝術中心小型車停車場","LANDMARKAD":"1000209","ADDRESS":"宜蘭縣五結鄉五濱路二段201號","TEL":" ","COUNTYNAME":"宜蘭縣","TOWNNAME":"五結鄉","MARKTYPE":"993","Class":"303"},"geometry":{"x":121.825142138305,"y":24.684649449724823}},{"attributes":{"OBJECTID":22746,"LANDMARKID":"1000200000443","LANDMARKCO":"303","LANDMARKNA":"國立傳統藝術中心停車場","LANDMARKAD":"1000209","ADDRESS":"宜蘭縣五結鄉五濱路二段201號","TEL":" ","COUNTYNAME":"宜蘭縣","TOWNNAME":"五結鄉","MARKTYPE":"993","Class":"303"},"geometry":{"x":121.82562060598458,"y":24.684032685062927}},{"attributes":{"OBJECTID":22747,"LANDMARKID":"1000200000444","LANDMARKCO":"303","LANDMARKNA":"冬山河親水公園西側停車場","LANDMARKAD":"1000209","ADDRESS":"宜蘭縣五結鄉協和路20之10號","TEL":" ","COUNTYNAME":"宜蘭縣","TOWNNAME":"五結鄉","MARKTYPE":"993","Class":"303"},"geometry":{"x":121.8127380670045,"y":24.670318423040161}},{"attributes":{"OBJECTID":22748,"LANDMARKID":"1000200000445","LANDMARKCO":"303","LANDMARKNA":"冬山河親水公園前方停車場","LANDMARKAD":"1000209","ADDRESS":"宜蘭縣五結鄉協和路20之36號","TEL":" ","COUNTYNAME":"宜蘭縣","TOWNNAME":"五結鄉","MARKTYPE":"993","Class":"303"},"geometry":{"x":121.81700960694201,"y":24.674039535029117}},{"attributes":{"OBJECTID":22749,"LANDMARKID":"1000200000446","LANDMARKCO":"303","LANDMARKNA":"冬山河親水公園後方停車場","LANDMARKAD":"1000209","ADDRESS":"宜蘭縣五結鄉協和路20之30號","TEL":" ","COUNTYNAME":"宜蘭縣","TOWNNAME":"五結鄉","MARKTYPE":"993","Class":"303"},"geometry":{"x":121.81629955191156,"y":24.675156244740755}},{"attributes":{"OBJECTID":22750,"LANDMARKID":"1000200000351","LANDMARKCO":"301","LANDMARKNA":"二結火車站","LANDMARKAD":"1000209","ADDRESS":"宜蘭縣五結鄉三興村復興中路37號","TEL":"03-9650304","COUNTYNAME":"宜蘭縣","TOWNNAME":"五結鄉","MARKTYPE":"993","Class":"301"},"geometry":{"x":121.77436392249528,"y":24.70555142938861}},{"attributes":{"OBJECTID":22751,"LANDMARKID":"1000200000352","LANDMARKCO":"301","LANDMARKNA":"中里火車站","LANDMARKAD":"1000209","ADDRESS":"宜蘭縣五結鄉","TEL":" ","COUNTYNAME":"宜蘭縣","TOWNNAME":"五結鄉","MARKTYPE":"993","Class":"301"},"geometry":{"x":121.77523361117855,"y":24.694533499208934}},{"attributes":{"OBJECTID":22752,"LANDMARKID":"1000200000976","LANDMARKCO":"604","LANDMARKNA":"艾薇卡民宿","LANDMARKAD":"1000209","ADDRESS":"宜蘭縣五結鄉大吉村大吉路1-47號","TEL":"03-9502287","COUNTYNAME":"宜蘭縣","TOWNNAME":"五結鄉","MARKTYPE":"996","Class":"6"},"geometry":{"x":121.79842390517462,"y":24.688607691445881}},{"attributes":{"OBJECTID":22753,"LANDMARKID":"1000200000977","LANDMARKCO":"604","LANDMARKNA":"田寮河畔鄉村民宿","LANDMARKAD":"1000209","ADDRESS":"宜蘭縣五結鄉利澤村利成路二段368號","TEL":"03-9501271","COUNTYNAME":"宜蘭縣","TOWNNAME":"五結鄉","MARKTYPE":"996","Class":"6"},"geometry":{"x":121.82314023221119,"y":24.665296049967285}},{"attributes":{"OBJECTID":22754,"LANDMARKID":"1000200000978","LANDMARKCO":"604","LANDMARKNA":"外婆的家民宿","LANDMARKAD":"1000209","ADDRESS":"宜蘭縣五結鄉大吉村大吉路花園新城122-1號","TEL":"03-9504284","COUNTYNAME":"宜蘭縣","TOWNNAME":"五結鄉","MARKTYPE":"996","Class":"6"},"geometry":{"x":121.80006930823041,"y":24.693437707952263}},{"attributes":{"OBJECTID":22755,"LANDMARKID":"1000200000979","LANDMARKCO":"604","LANDMARKNA":"歌德民宿","LANDMARKAD":"1000209","ADDRESS":"宜蘭縣五結鄉大吉村大吉路花園新城49-1號","TEL":"03-9503522","COUNTYNAME":"宜蘭縣","TOWNNAME":"五結鄉","MARKTYPE":"996","Class":"6"},"geometry":{"x":121.8012110078518,"y":24.69444561772853}},{"attributes":{"OBJECTID":22756,"LANDMARKID":"1000200000980","LANDMARKCO":"604","LANDMARKNA":"親水棧民宿","LANDMARKAD":"1000209","ADDRESS":"宜蘭縣冬山鄉武淵村武淵三路128號","TEL":"03-9500207","COUNTYNAME":"宜蘭縣","TOWNNAME":"五結鄉","MARKTYPE":"996","Class":"6"},"geometry":{"x":121.81239934690694,"y":24.670733115159493}},{"attributes":{"OBJECTID":22757,"LANDMARKID":"1000200000892","LANDMARKCO":"603","LANDMARKNA":"愛琴海花園汽車旅館","LANDMARKAD":"1000209","ADDRESS":"宜蘭縣五結鄉四結村仁愛路2段1號","TEL":"03-9653958","COUNTYNAME":"宜蘭縣","TOWNNAME":"五結鄉","MARKTYPE":"996","Class":"6"},"geometry":{"x":121.76685968180266,"y":24.693085090630468}},{"attributes":{"OBJECTID":22758,"LANDMARKID":"1000200000975","LANDMARKCO":"604","LANDMARKNA":"冬山河畔河岸畫堤民宿","LANDMARKAD":"1000209","ADDRESS":"宜蘭縣五結鄉協和村親河路1段180巷5弄2號","TEL":"03-9606156","COUNTYNAME":"宜蘭縣","TOWNNAME":"五結鄉","MARKTYPE":"996","Class":"6"},"geometry":{"x":121.81833287988617,"y":24.668641008888081}},{"attributes":{"OBJECTID":22759,"LANDMARKID":"1000200000893","LANDMARKCO":"603","LANDMARKNA":"香格里拉冬山河旅館","LANDMARKAD":"1000209","ADDRESS":"宜蘭縣五結鄉協和村協和中路13巷15號","TEL":"03-9605388","COUNTYNAME":"宜蘭縣","TOWNNAME":"五結鄉","MARKTYPE":"996","Class":"6"},"geometry":{"x":121.80497087460408,"y":24.684092335732366}},{"attributes":{"OBJECTID":22760,"LANDMARKID":"1000200000894","LANDMARKCO":"603","LANDMARKNA":"怡蘭精品旅館","LANDMARKAD":"1000209","ADDRESS":"宜蘭縣五結鄉鎮安村舊街路108號","TEL":"03-9658101","COUNTYNAME":"宜蘭縣","TOWNNAME":"五結鄉","MARKTYPE":"996","Class":"6"},"geometry":{"x":121.77047185554741,"y":24.708294805068338}},{"attributes":{"OBJECTID":22761,"LANDMARKID":"1000200000972","LANDMARKCO":"604","LANDMARKNA":"杏葉垣冬山河民宿","LANDMARKAD":"1000209","ADDRESS":"宜蘭縣五結鄉協和村協和中路13巷17號","TEL":"03-9500452","COUNTYNAME":"宜蘭縣","TOWNNAME":"五結鄉","MARKTYPE":"996","Class":"6"},"geometry":{"x":121.81056067237176,"y":24.676651072089708}},{"attributes":{"OBJECTID":22762,"LANDMARKID":"1000200000973","LANDMARKCO":"604","LANDMARKNA":"羅騰堡莊園","LANDMARKAD":"1000209","ADDRESS":"宜蘭縣五結鄉協和村協和中路13巷47號","TEL":"03-9502000","COUNTYNAME":"宜蘭縣","TOWNNAME":"五結鄉","MARKTYPE":"996","Class":"6"},"geometry":{"x":121.80669728704821,"y":24.67690994879727}},{"attributes":{"OBJECTID":22763,"LANDMARKID":"1000200000974","LANDMARKCO":"604","LANDMARKNA":"噶瑪蘭ㄟ古厝","LANDMARKAD":"1000209","ADDRESS":"宜蘭縣五結鄉季新村新店路140號","TEL":"03-9502547","COUNTYNAME":"宜蘭縣","TOWNNAME":"五結鄉","MARKTYPE":"996","Class":"6"},"geometry":{"x":121.82505746446665,"y":24.679975761489278}},{"attributes":{"OBJECTID":22764,"LANDMARKID":"1000200000895","LANDMARKCO":"603","LANDMARKNA":"山水旅館","LANDMARKAD":"1000209","ADDRESS":"宜蘭縣羅東鎮和平路75號","TEL":"03-9568755","COUNTYNAME":"宜蘭縣","TOWNNAME":"五結鄉","MARKTYPE":"996","Class":"6"},"geometry":{"x":121.77207636047279,"y":24.686169565872614}},{"attributes":{"OBJECTID":22765,"LANDMARKID":"1000200000896","LANDMARKCO":"603","LANDMARKNA":"真欣渡假飯店","LANDMARKAD":"1000209","ADDRESS":"宜蘭縣五結鄉協和村協和中路10-11","TEL":"10-12號","COUNTYNAME":"宜蘭縣","TOWNNAME":"五結鄉","MARKTYPE":"996","Class":"6"},"geometry":{"x":121.81365914474434,"y":24.679649292220283}},{"attributes":{"OBJECTID":22766,"LANDMARKID":"1000200000897","LANDMARKCO":"603","LANDMARKNA":"噶瑪蘭大飯店","LANDMARKAD":"1000209","ADDRESS":"宜蘭縣五結鄉成興村五濱路一段136巷21號14樓之1","TEL":"03-9509000","COUNTYNAME":"宜蘭縣","TOWNNAME":"五結鄉","MARKTYPE":"996","Class":"6"},"geometry":{"x":121.8291697727484,"y":24.66793905920462}},{"attributes":{"OBJECTID":22767,"LANDMARKID":"1000200000898","LANDMARKCO":"603","LANDMARKNA":"若輕新人文渡假旅館","LANDMARKAD":"1000209","ADDRESS":"宜蘭縣五結鄉季新村新店路113號1-3樓","TEL":"03-9602255","COUNTYNAME":"宜蘭縣","TOWNNAME":"五結鄉","MARKTYPE":"996","Class":"6"},"geometry":{"x":121.82516724225673,"y":24.67727592993581}},{"attributes":{"OBJECTID":22768,"LANDMARKID":"1000200000899","LANDMARKCO":"603","LANDMARKNA":"西雅圖商務汽車旅館","LANDMARKAD":"1000209","ADDRESS":"宜蘭縣五結鄉舊街路1-21號","TEL":"03-9651561","COUNTYNAME":"宜蘭縣","TOWNNAME":"五結鄉","MARKTYPE":"996","Class":"6"},"geometry":{"x":121.76803064946553,"y":24.705768009977717}},{"attributes":{"OBJECTID":22769,"LANDMARKID":"1000200000900","LANDMARKCO":"604","LANDMARKNA":"荳蔻雅築","LANDMARKAD":"1000209","ADDRESS":"宜蘭縣五結鄉協和村親河路2段406巷8弄8號","TEL":"03-9504977","COUNTYNAME":"宜蘭縣","TOWNNAME":"五結鄉","MARKTYPE":"996","Class":"6"},"geometry":{"x":121.80000747511826,"y":24.674066748398573}},{"attributes":{"OBJECTID":22770,"LANDMARKID":"1000200000901","LANDMARKCO":"604","LANDMARKNA":"冬山屋民宿","LANDMARKAD":"1000209","ADDRESS":"宜蘭縣五結鄉協和村親河路2段58巷7弄16號","TEL":"03-9502123","COUNTYNAME":"宜蘭縣","TOWNNAME":"五結鄉","MARKTYPE":"996","Class":"6"},"geometry":{"x":121.8113630111344,"y":24.673531744404301}},{"attributes":{"OBJECTID":22771,"LANDMARKID":"1000200000902","LANDMARKCO":"604","LANDMARKNA":"宜河畔民宿","LANDMARKAD":"1000209","ADDRESS":"宜蘭縣五結鄉協和村親河路2段58巷7弄2號","TEL":"0918-515375","COUNTYNAME":"宜蘭縣","TOWNNAME":"五結鄉","MARKTYPE":"996","Class":"6"},"geometry":{"x":121.81165869048728,"y":24.673474377961895}},{"attributes":{"OBJECTID":22772,"LANDMARKID":"1000200000903","LANDMARKCO":"604","LANDMARKNA":"親水民宿","LANDMARKAD":"1000209","ADDRESS":"宜蘭縣五結鄉協和村親河路2段58巷7弄6號","TEL":"03-9507186","COUNTYNAME":"宜蘭縣","TOWNNAME":"五結鄉","MARKTYPE":"996","Class":"6"},"geometry":{"x":121.8115895353958,"y":24.673475125424378}},{"attributes":{"OBJECTID":22773,"LANDMARKID":"1000200000904","LANDMARKCO":"604","LANDMARKNA":"田鄉村民宿","LANDMARKAD":"1000209","ADDRESS":"宜蘭縣五結鄉協和村親河路2段58巷9弄16號","TEL":"03-9507783","COUNTYNAME":"宜蘭縣","TOWNNAME":"五結鄉","MARKTYPE":"996","Class":"6"},"geometry":{"x":121.81144636885966,"y":24.673864898075614}},{"attributes":{"OBJECTID":22774,"LANDMARKID":"1000200000905","LANDMARKCO":"604","LANDMARKNA":"家園民宿","LANDMARKAD":"1000209","ADDRESS":"宜蘭縣五結鄉協和村親河路2段58巷9弄5號","TEL":"03-9507229","COUNTYNAME":"宜蘭縣","TOWNNAME":"五結鄉","MARKTYPE":"996","Class":"6"},"geometry":{"x":121.81157106205751,"y":24.673574639078936}},{"attributes":{"OBJECTID":22775,"LANDMARKID":"1000200000906","LANDMARKCO":"604","LANDMARKNA":"水園民宿","LANDMARKAD":"1000209","ADDRESS":"宜蘭縣五結鄉協和村親河路2段58巷9弄6號","TEL":"03-9901387","COUNTYNAME":"宜蘭縣","TOWNNAME":"五結鄉","MARKTYPE":"996","Class":"6"},"geometry":{"x":121.81171217766799,"y":24.673789797228014}},{"attributes":{"OBJECTID":22776,"LANDMARKID":"1000200000907","LANDMARKCO":"604","LANDMARKNA":"楓雅民宿","LANDMARKAD":"1000209","ADDRESS":"宜蘭縣五結鄉協和村親河路2段58巷9弄9號","TEL":"03-9502331","COUNTYNAME":"宜蘭縣","TOWNNAME":"五結鄉","MARKTYPE":"996","Class":"6"},"geometry":{"x":121.8114233389759,"y":24.67361234893864}},{"attributes":{"OBJECTID":22777,"LANDMARKID":"1000200000908","LANDMARKCO":"604","LANDMARKNA":"隨園居民宿","LANDMARKAD":"1000209","ADDRESS":"宜蘭縣五結鄉孝威村孝威南路20號","TEL":"03-9507173","COUNTYNAME":"宜蘭縣","TOWNNAME":"五結鄉","MARKTYPE":"996","Class":"6"},"geometry":{"x":121.81383737897336,"y":24.68258733536004}},{"attributes":{"OBJECTID":22778,"LANDMARKID":"1000200000909","LANDMARKCO":"604","LANDMARKNA":"喜相逢鄉村民宿","LANDMARKAD":"1000209","ADDRESS":"宜蘭縣五結鄉孝威村孝威路86號","TEL":"03-9502673","COUNTYNAME":"宜蘭縣","TOWNNAME":"五結鄉","MARKTYPE":"996","Class":"6"},"geometry":{"x":121.80908944644273,"y":24.685891888428447}},{"attributes":{"OBJECTID":22779,"LANDMARKID":"1000200000910","LANDMARKCO":"604","LANDMARKNA":"宜蘭情民宿","LANDMARKAD":"1000209","ADDRESS":"宜蘭縣五結鄉孝威村孝威路88號","TEL":"03-9502429","COUNTYNAME":"宜蘭縣","TOWNNAME":"五結鄉","MARKTYPE":"996","Class":"6"},"geometry":{"x":121.80911014018277,"y":24.685963893947719}},{"attributes":{"OBJECTID":22780,"LANDMARKID":"1000200000911","LANDMARKCO":"604","LANDMARKNA":"杏葉緣民宿","LANDMARKAD":"1000209","ADDRESS":"宜蘭縣五結鄉協和村五結路2段117巷16號","TEL":"03-9500452","COUNTYNAME":"宜蘭縣","TOWNNAME":"五結鄉","MARKTYPE":"996","Class":"6"},"geometry":{"x":121.8071564375485,"y":24.69049307299052}},{"attributes":{"OBJECTID":22781,"LANDMARKID":"1000200000912","LANDMARKCO":"604","LANDMARKNA":"堤亞瓦舍","LANDMARKAD":"1000209","ADDRESS":"宜蘭縣五結鄉協和村協和中路11-8號","TEL":"0934-362709","COUNTYNAME":"宜蘭縣","TOWNNAME":"五結鄉","MARKTYPE":"996","Class":"6"},"geometry":{"x":121.81340103396228,"y":24.680316983189844}},{"attributes":{"OBJECTID":22782,"LANDMARKID":"1000200000913","LANDMARKCO":"604","LANDMARKNA":"冬山河農莊","LANDMARKAD":"1000209","ADDRESS":"宜蘭縣五結鄉協和村協和中路12-20號","TEL":"03-9601080","COUNTYNAME":"宜蘭縣","TOWNNAME":"五結鄉","MARKTYPE":"996","Class":"6"},"geometry":{"x":121.81620646126044,"y":24.675832566349836}},{"attributes":{"OBJECTID":22783,"LANDMARKID":"1000200000914","LANDMARKCO":"604","LANDMARKNA":"黃金屋豪華渡假民宿","LANDMARKAD":"1000209","ADDRESS":"宜蘭縣五結鄉協和村協和中路12-9號","TEL":"03-9505250","COUNTYNAME":"宜蘭縣","TOWNNAME":"五結鄉","MARKTYPE":"996","Class":"6"},"geometry":{"x":121.81356356260351,"y":24.678374097578221}},{"attributes":{"OBJECTID":22784,"LANDMARKID":"1000200000915","LANDMARKCO":"604","LANDMARKNA":"煙波庭民宿","LANDMARKAD":"1000209","ADDRESS":"宜蘭縣五結鄉協和村協和中路13-3號","TEL":"03-9601691","COUNTYNAME":"宜蘭縣","TOWNNAME":"五結鄉","MARKTYPE":"996","Class":"6"},"geometry":{"x":121.81111569309397,"y":24.677813729008911}},{"attributes":{"OBJECTID":22785,"LANDMARKID":"1000200000916","LANDMARKCO":"604","LANDMARKNA":"愛琴海民宿","LANDMARKAD":"1000209","ADDRESS":"宜蘭縣五結鄉協和村協和中路13巷11-11號","TEL":"03-9605388","COUNTYNAME":"宜蘭縣","TOWNNAME":"五結鄉","MARKTYPE":"996","Class":"6"},"geometry":{"x":121.81274950093625,"y":24.677453076846071}},{"attributes":{"OBJECTID":22786,"LANDMARKID":"1000200000917","LANDMARKCO":"604","LANDMARKNA":"渡假民宿","LANDMARKAD":"1000209","ADDRESS":"宜蘭縣五結鄉協和村親河路2段97號","TEL":"03-9505656","COUNTYNAME":"宜蘭縣","TOWNNAME":"五結鄉","MARKTYPE":"996","Class":"6"},"geometry":{"x":121.80943317909968,"y":24.673284796787211}},{"attributes":{"OBJECTID":22787,"LANDMARKID":"1000200000918","LANDMARKCO":"604","LANDMARKNA":"阿姑的家","LANDMARKAD":"1000209","ADDRESS":"宜蘭縣五結鄉協和村協和中路13巷12號","TEL":"03-9504329","COUNTYNAME":"宜蘭縣","TOWNNAME":"五結鄉","MARKTYPE":"996","Class":"6"},"geometry":{"x":121.81223692417888,"y":24.677548907906484}},{"attributes":{"OBJECTID":22788,"LANDMARKID":"1000200000919","LANDMARKCO":"604","LANDMARKNA":"陽光穀倉民宿","LANDMARKAD":"1000209","ADDRESS":"宜蘭縣五結鄉協和村協和中路13號","TEL":"03-9500773","COUNTYNAME":"宜蘭縣","TOWNNAME":"五結鄉","MARKTYPE":"996","Class":"6"},"geometry":{"x":121.81133374476335,"y":24.677865543839772}},{"attributes":{"OBJECTID":22789,"LANDMARKID":"1000200000920","LANDMARKCO":"604","LANDMARKNA":"珍珍民宿","LANDMARKAD":"1000209","ADDRESS":"宜蘭縣五結鄉協和村協和中路14-10號","TEL":"03-9505015","COUNTYNAME":"宜蘭縣","TOWNNAME":"五結鄉","MARKTYPE":"996","Class":"6"},"geometry":{"x":121.80837756820202,"y":24.678487360487939}},{"attributes":{"OBJECTID":22790,"LANDMARKID":"1000200000921","LANDMARKCO":"604","LANDMARKNA":"金玉民宿","LANDMARKAD":"1000209","ADDRESS":"宜蘭縣五結鄉協和村協和中路9-1號","TEL":"03-9502762","COUNTYNAME":"宜蘭縣","TOWNNAME":"五結鄉","MARKTYPE":"996","Class":"6"},"geometry":{"x":121.81478467835666,"y":24.680344096972501}},{"attributes":{"OBJECTID":22791,"LANDMARKID":"1000200000922","LANDMARKCO":"604","LANDMARKNA":"北歐民宿","LANDMARKAD":"1000209","ADDRESS":"宜蘭縣五結鄉協和村協和路40巷88號","TEL":"03-9564635","COUNTYNAME":"宜蘭縣","TOWNNAME":"五結鄉","MARKTYPE":"996","Class":"6"},"geometry":{"x":121.8062119645797,"y":24.67542612523054}},{"attributes":{"OBJECTID":22792,"LANDMARKID":"1000200000923","LANDMARKCO":"604","LANDMARKNA":"大好親水河畔民宿","LANDMARKAD":"1000209","ADDRESS":"宜蘭縣五結鄉協和村親河路1段180巷30號","TEL":"03-9606998","COUNTYNAME":"宜蘭縣","TOWNNAME":"五結鄉","MARKTYPE":"996","Class":"6"},"geometry":{"x":121.81845872923462,"y":24.669990922378755}},{"attributes":{"OBJECTID":22793,"LANDMARKID":"1000200000924","LANDMARKCO":"604","LANDMARKNA":"芙蓉的家","LANDMARKAD":"1000209","ADDRESS":"宜蘭縣五結鄉協和村親河路2段99號","TEL":"03-9532913","COUNTYNAME":"宜蘭縣","TOWNNAME":"五結鄉","MARKTYPE":"996","Class":"6"},"geometry":{"x":121.80938378221519,"y":24.673285328413218}},{"attributes":{"OBJECTID":22794,"LANDMARKID":"1000200000925","LANDMARKCO":"604","LANDMARKNA":"蘭庭民宿","LANDMARKAD":"1000209","ADDRESS":"宜蘭縣五結鄉錦草路10-2號","TEL":"03-9506709","COUNTYNAME":"宜蘭縣","TOWNNAME":"五結鄉","MARKTYPE":"996","Class":"6"},"geometry":{"x":121.82482853182063,"y":24.706596792261312}},{"attributes":{"OBJECTID":22795,"LANDMARKID":"1000200000926","LANDMARKCO":"604","LANDMARKNA":"向陽民宿","LANDMARKAD":"1000209","ADDRESS":"宜蘭縣五結鄉錦眾村大眾路12號","TEL":"03-9601899","COUNTYNAME":"宜蘭縣","TOWNNAME":"五結鄉","MARKTYPE":"996","Class":"6"},"geometry":{"x":121.83126843948261,"y":24.693417663014046}},{"attributes":{"OBJECTID":22796,"LANDMARKID":"1000200000927","LANDMARKCO":"604","LANDMARKNA":"半畝居民宿","LANDMARKAD":"1000209","ADDRESS":"宜蘭縣五結鄉錦眾村大眾路43-11號","TEL":"03-9602205","COUNTYNAME":"宜蘭縣","TOWNNAME":"五結鄉","MARKTYPE":"996","Class":"6"},"geometry":{"x":121.8283481838463,"y":24.695917332174265}},{"attributes":{"OBJECTID":22797,"LANDMARKID":"1000200000928","LANDMARKCO":"604","LANDMARKNA":"如茵民宿","LANDMARKAD":"1000209","ADDRESS":"宜蘭縣五結鄉錦眾村大眾路43-2號","TEL":"03-9602205","COUNTYNAME":"宜蘭縣","TOWNNAME":"五結鄉","MARKTYPE":"996","Class":"6"},"geometry":{"x":121.8286418678173,"y":24.695706435410433}},{"attributes":{"OBJECTID":22798,"LANDMARKID":"1000200000929","LANDMARKCO":"604","LANDMARKNA":"溫馨民宿","LANDMARKAD":"1000209","ADDRESS":"宜蘭縣五結鄉錦眾村大眾路99-2號","TEL":"03-9603765","COUNTYNAME":"宜蘭縣","TOWNNAME":"五結鄉","MARKTYPE":"996","Class":"6"},"geometry":{"x":121.81686007663265,"y":24.694772574028498}},{"attributes":{"OBJECTID":22799,"LANDMARKID":"1000200000930","LANDMARKCO":"604","LANDMARKNA":"蘭陽橋鄉村渡假別墅","LANDMARKAD":"1000209","ADDRESS":"宜蘭縣五結鄉鎮安村西河路77-2號","TEL":"03-9659805","COUNTYNAME":"宜蘭縣","TOWNNAME":"五結鄉","MARKTYPE":"996","Class":"6"},"geometry":{"x":121.76094837883802,"y":24.705499975361121}},{"attributes":{"OBJECTID":22800,"LANDMARKID":"1000200000931","LANDMARKCO":"604","LANDMARKNA":"親河舞舞民宿","LANDMARKAD":"1000209","ADDRESS":"宜蘭縣五結鄉協和村親河路1段180巷5弄5號","TEL":"03-9069002","COUNTYNAME":"宜蘭縣","TOWNNAME":"五結鄉","MARKTYPE":"996","Class":"6"},"geometry":{"x":121.81813435082107,"y":24.668730565517563}}]}