{"displayFieldName":"COUNTYNAME","fieldAliases":{"OBJECTID":"OBJECTID","LANDMARKID":"LANDMARKID","LANDMARKCO":"LANDMARKCO","LANDMARKNA":"LANDMARKNA","LANDMARKAD":"LANDMARKAD","ADDRESS":"ADDRESS","TEL":"TEL","COUNTYNAME":"COUNTYNAME","TOWNNAME":"TOWNNAME","MARKTYPE":"MARKTYPE","Class":"Class"},"geometryType":"esriGeometryPoint","spatialReference":{"wkid":4326},"fields":[{"name":"OBJECTID","type":"esriFieldTypeOID","alias":"OBJECTID"},{"name":"LANDMARKID","type":"esriFieldTypeString","alias":"LANDMARKID","length":15},{"name":"LANDMARKCO","type":"esriFieldTypeString","alias":"LANDMARKCO","length":15},{"name":"LANDMARKNA","type":"esriFieldTypeString","alias":"LANDMARKNA","length":50},{"name":"LANDMARKAD","type":"esriFieldTypeString","alias":"LANDMARKAD","length":15},{"name":"ADDRESS","type":"esriFieldTypeString","alias":"ADDRESS","length":56},{"name":"TEL","type":"esriFieldTypeString","alias":"TEL","length":36},{"name":"COUNTYNAME","type":"esriFieldTypeString","alias":"COUNTYNAME","length":15},{"name":"TOWNNAME","type":"esriFieldTypeString","alias":"TOWNNAME","length":13},{"name":"MARKTYPE","type":"esriFieldTypeString","alias":"MARKTYPE","length":12},{"name":"Class","type":"esriFieldTypeString","alias":"Class","length":5}],"features":[{"attributes":{"OBJECTID":25401,"LANDMARKID":"1001800000334","LANDMARKCO":"406","LANDMARKNA":"風力活動公園","LANDMARKAD":"1001802","ADDRESS":"新竹市北區","TEL":" ","COUNTYNAME":"新竹市","TOWNNAME":"北區","MARKTYPE":"994","Class":"4"},"geometry":{"x":120.92838832749611,"y":24.850635297893447}},{"attributes":{"OBJECTID":25402,"LANDMARKID":"1001800000335","LANDMARKCO":"406","LANDMARKNA":"獅子公園","LANDMARKAD":"1001802","ADDRESS":"新竹市北區","TEL":" ","COUNTYNAME":"新竹市","TOWNNAME":"北區","MARKTYPE":"994","Class":"4"},"geometry":{"x":120.9577973194075,"y":24.799536282751273}},{"attributes":{"OBJECTID":25403,"LANDMARKID":"1001800000336","LANDMARKCO":"406","LANDMARKNA":"曲溪公園","LANDMARKAD":"1001802","ADDRESS":"新竹市北區","TEL":" ","COUNTYNAME":"新竹市","TOWNNAME":"北區","MARKTYPE":"994","Class":"4"},"geometry":{"x":120.95986616283932,"y":24.796600417828831}},{"attributes":{"OBJECTID":25404,"LANDMARKID":"1001800000337","LANDMARKCO":"406","LANDMARKNA":"經國花園","LANDMARKAD":"1001802","ADDRESS":"新竹市北區","TEL":" ","COUNTYNAME":"新竹市","TOWNNAME":"北區","MARKTYPE":"994","Class":"4"},"geometry":{"x":120.96089638997098,"y":24.810000145808289}},{"attributes":{"OBJECTID":25405,"LANDMARKID":"1001800000338","LANDMARKCO":"406","LANDMARKNA":"湳雅公園","LANDMARKAD":"1001802","ADDRESS":"新竹市北區","TEL":" ","COUNTYNAME":"新竹市","TOWNNAME":"北區","MARKTYPE":"994","Class":"4"},"geometry":{"x":120.96826218898765,"y":24.81994985230126}},{"attributes":{"OBJECTID":25406,"LANDMARKID":"1001800000320","LANDMARKCO":"405","LANDMARKNA":"全國加油站-經國站（台塑）","LANDMARKAD":"1001802","ADDRESS":"新竹市經國路二段126號","TEL":"03-5348440","COUNTYNAME":"新竹市","TOWNNAME":"北區","MARKTYPE":"994","Class":"4"},"geometry":{"x":120.96370672562426,"y":24.811641029305328}},{"attributes":{"OBJECTID":25407,"LANDMARKID":"1001800000321","LANDMARKCO":"405","LANDMARKNA":"台亞加油站-中山站（台塑）","LANDMARKAD":"1001802","ADDRESS":"新竹市中山路332號","TEL":"(03)526-2399","COUNTYNAME":"新竹市","TOWNNAME":"北區","MARKTYPE":"994","Class":"4"},"geometry":{"x":120.96017357857397,"y":24.801349690077554}},{"attributes":{"OBJECTID":25408,"LANDMARKID":"1001800000322","LANDMARKCO":"405","LANDMARKNA":"台亞加油站-經國路二站（台塑）","LANDMARKAD":"1001802","ADDRESS":"新竹市經國路二段293號","TEL":"(03)535-0672","COUNTYNAME":"新竹市","TOWNNAME":"北區","MARKTYPE":"994","Class":"4"},"geometry":{"x":120.96088974676151,"y":24.809460907535261}},{"attributes":{"OBJECTID":25409,"LANDMARKID":"1001800000083","LANDMARKCO":"107","LANDMARKNA":"新竹市警察局湳雅派出所","LANDMARKAD":"1001802","ADDRESS":"新竹市湳雅街168之1號","TEL":"035-356710","COUNTYNAME":"新竹市","TOWNNAME":"北區","MARKTYPE":"991","Class":"1"},"geometry":{"x":120.97394285927849,"y":24.820353132531313}},{"attributes":{"OBJECTID":25410,"LANDMARKID":"1001800000041","LANDMARKCO":"103","LANDMARKNA":"新竹市選舉委員會","LANDMARKAD":"1001802","ADDRESS":"新竹市西濱路一段440號","TEL":"03-5367228","COUNTYNAME":"新竹市","TOWNNAME":"北區","MARKTYPE":"991","Class":"1"},"geometry":{"x":120.96876253000833,"y":24.806628799383301}},{"attributes":{"OBJECTID":25411,"LANDMARKID":"1001800000042","LANDMARKCO":"103","LANDMARKNA":"新竹市立火化場(羽化館)","LANDMARKAD":"1001802","ADDRESS":"新竹市成德路138之1號","TEL":" ","COUNTYNAME":"新竹市","TOWNNAME":"北區","MARKTYPE":"991","Class":"1"},"geometry":{"x":120.95873520067038,"y":24.791092581490194}},{"attributes":{"OBJECTID":25412,"LANDMARKID":"1001800000043","LANDMARKCO":"103","LANDMARKNA":"新竹巿政府衛生局","LANDMARKAD":"1001802","ADDRESS":"新竹市中正路128號","TEL":"03-5226133","COUNTYNAME":"新竹市","TOWNNAME":"北區","MARKTYPE":"991","Class":"1"},"geometry":{"x":120.9680099614779,"y":24.807632102324394}},{"attributes":{"OBJECTID":25413,"LANDMARKID":"1001800000044","LANDMARKCO":"103","LANDMARKNA":"新竹市北區衛生所","LANDMARKAD":"1001802","ADDRESS":"新竹市國華街69號1樓","TEL":"03-5353969","COUNTYNAME":"新竹市","TOWNNAME":"北區","MARKTYPE":"991","Class":"1"},"geometry":{"x":120.97029988647412,"y":24.816367814568526}},{"attributes":{"OBJECTID":25414,"LANDMARKID":"1001800000085","LANDMARKCO":"108","LANDMARKNA":"新竹市北區區公所","LANDMARKAD":"1001802","ADDRESS":"新竹市國華街69號3樓","TEL":"03-5152525","COUNTYNAME":"新竹市","TOWNNAME":"北區","MARKTYPE":"991","Class":"1"},"geometry":{"x":120.97029988647412,"y":24.816367814568526}},{"attributes":{"OBJECTID":25415,"LANDMARKID":"1001800000040","LANDMARKCO":"103","LANDMARKNA":"新竹市政府文化局","LANDMARKAD":"1001802","ADDRESS":"新竹市東大路二段15巷1號","TEL":"035-319756","COUNTYNAME":"新竹市","TOWNNAME":"北區","MARKTYPE":"991","Class":"1"},"geometry":{"x":120.96878206877327,"y":24.811276286536675}},{"attributes":{"OBJECTID":25416,"LANDMARKID":"1001800000073","LANDMARKCO":"107","LANDMARKNA":"新竹市消防局","LANDMARKAD":"1001802","ADDRESS":"新竹市西大路679號","TEL":"035-229508","COUNTYNAME":"新竹市","TOWNNAME":"北區","MARKTYPE":"991","Class":"1"},"geometry":{"x":120.95760792195325,"y":24.810524753154262}},{"attributes":{"OBJECTID":25417,"LANDMARKID":"1001800000074","LANDMARKCO":"107","LANDMARKNA":"嘉義縣消防局消防局第一消防大隊","LANDMARKAD":"1001802","ADDRESS":"新竹市西大路679號5樓","TEL":"035-278943","COUNTYNAME":"新竹市","TOWNNAME":"北區","MARKTYPE":"991","Class":"1"},"geometry":{"x":120.95760792195325,"y":24.810524753154262}},{"attributes":{"OBJECTID":25418,"LANDMARKID":"1001800000075","LANDMARKCO":"107","LANDMARKNA":"嘉義縣消防局消防局中山消防分隊","LANDMARKAD":"1001802","ADDRESS":"新竹市中山路4號","TEL":"035-222050","COUNTYNAME":"新竹市","TOWNNAME":"北區","MARKTYPE":"991","Class":"1"},"geometry":{"x":120.96807311399039,"y":24.806388437594364}},{"attributes":{"OBJECTID":25419,"LANDMARKID":"1001800000076","LANDMARKCO":"107","LANDMARKNA":"嘉義縣消防局消防局南寮消防分隊","LANDMARKAD":"1001802","ADDRESS":"新竹市東大路三段539號","TEL":"035-361157","COUNTYNAME":"新竹市","TOWNNAME":"北區","MARKTYPE":"991","Class":"1"},"geometry":{"x":120.93750932424992,"y":24.840365230080305}},{"attributes":{"OBJECTID":25420,"LANDMARKID":"1001800000077","LANDMARKCO":"107","LANDMARKNA":"嘉義縣消防局消防局竹光消防分隊","LANDMARKAD":"1001802","ADDRESS":"新竹市西大路679號","TEL":"035-265248","COUNTYNAME":"新竹市","TOWNNAME":"北區","MARKTYPE":"991","Class":"1"},"geometry":{"x":120.95760792195325,"y":24.810524753154262}},{"attributes":{"OBJECTID":25421,"LANDMARKID":"1001800000078","LANDMARKCO":"107","LANDMARKNA":"新竹市警察局總局","LANDMARKAD":"1001802","ADDRESS":"新竹市大同里中山路1號","TEL":"03-5224168","COUNTYNAME":"新竹市","TOWNNAME":"北區","MARKTYPE":"991","Class":"1"},"geometry":{"x":120.96854623164617,"y":24.806374192238838}},{"attributes":{"OBJECTID":25422,"LANDMARKID":"1001800000079","LANDMARKCO":"107","LANDMARKNA":"新竹市警察局第一分局","LANDMARKAD":"1001802","ADDRESS":"新竹市新民里北大路218號","TEL":"035-222725","COUNTYNAME":"新竹市","TOWNNAME":"北區","MARKTYPE":"991","Class":"1"},"geometry":{"x":120.96505855382922,"y":24.808026609223003}},{"attributes":{"OBJECTID":25423,"LANDMARKID":"1001800000080","LANDMARKCO":"107","LANDMARKNA":"新竹市警察局樹林頭派出所","LANDMARKAD":"1001802","ADDRESS":"新竹市東大路二段561號","TEL":"035-316613","COUNTYNAME":"新竹市","TOWNNAME":"北區","MARKTYPE":"991","Class":"1"},"geometry":{"x":120.95915761905343,"y":24.821923337717152}},{"attributes":{"OBJECTID":25424,"LANDMARKID":"1001800000081","LANDMARKCO":"107","LANDMARKNA":"新竹市警察局北門派出所","LANDMARKAD":"1001802","ADDRESS":"新竹市北大路218號","TEL":"035-222223","COUNTYNAME":"新竹市","TOWNNAME":"北區","MARKTYPE":"991","Class":"1"},"geometry":{"x":120.96505855382922,"y":24.808026609223003}},{"attributes":{"OBJECTID":25425,"LANDMARKID":"1001800000082","LANDMARKCO":"107","LANDMARKNA":"新竹市警察局西門派出所","LANDMARKAD":"1001802","ADDRESS":"新竹市中山路300號","TEL":"035-222452","COUNTYNAME":"新竹市","TOWNNAME":"北區","MARKTYPE":"991","Class":"1"},"geometry":{"x":120.96121022527285,"y":24.801974610271714}},{"attributes":{"OBJECTID":25426,"LANDMARKID":"1001800000045","LANDMARKCO":"103","LANDMARKNA":"新竹市政府民政局","LANDMARKAD":"1001802","ADDRESS":"新竹市中正路120號","TEL":"03-5240626","COUNTYNAME":"新竹市","TOWNNAME":"北區","MARKTYPE":"991","Class":"1"},"geometry":{"x":120.96883469126817,"y":24.806723088529761}},{"attributes":{"OBJECTID":25427,"LANDMARKID":"1001800000051","LANDMARKCO":"106","LANDMARKNA":"新竹市北區戶政事務所","LANDMARKAD":"1001802","ADDRESS":"新竹市國華街69號2樓","TEL":"03-5152020","COUNTYNAME":"新竹市","TOWNNAME":"北區","MARKTYPE":"991","Class":"1"},"geometry":{"x":120.97029988647412,"y":24.816367814568526}},{"attributes":{"OBJECTID":25428,"LANDMARKID":"1001800000049","LANDMARKCO":"105","LANDMARKNA":"新竹市政府地政局","LANDMARKAD":"1001802","ADDRESS":"新竹市中正路120號","TEL":"035-216121#0","COUNTYNAME":"新竹市","TOWNNAME":"北區","MARKTYPE":"991","Class":"1"},"geometry":{"x":120.96883469126817,"y":24.806723088529761}},{"attributes":{"OBJECTID":25429,"LANDMARKID":"1001800000050","LANDMARKCO":"105","LANDMARKNA":"新竹市新竹地政事務所","LANDMARKAD":"1001802","ADDRESS":"新竹市光華東街60號","TEL":"035-325121","COUNTYNAME":"新竹市","TOWNNAME":"北區","MARKTYPE":"991","Class":"1"},"geometry":{"x":120.9754596632134,"y":24.816779455028342}},{"attributes":{"OBJECTID":25430,"LANDMARKID":"1001800000039","LANDMARKCO":"103","LANDMARKNA":"新竹巿政府","LANDMARKAD":"1001802","ADDRESS":"新竹市中正路120號","TEL":"035-216121","COUNTYNAME":"新竹市","TOWNNAME":"北區","MARKTYPE":"991","Class":"1"},"geometry":{"x":120.96883469126817,"y":24.806723088529761}},{"attributes":{"OBJECTID":25431,"LANDMARKID":"1001800000001","LANDMARKCO":"101","LANDMARKNA":"台灣新竹地方法院","LANDMARKAD":"1001802","ADDRESS":"新竹市中正路136號","TEL":"035-210022","COUNTYNAME":"新竹市","TOWNNAME":"北區","MARKTYPE":"991","Class":"1"},"geometry":{"x":120.96761738093289,"y":24.808163538706545}},{"attributes":{"OBJECTID":25432,"LANDMARKID":"1001800000002","LANDMARKCO":"101","LANDMARKNA":"台灣新竹監獄","LANDMARKAD":"1001802","ADDRESS":"新竹市延平路一段108號","TEL":"035-222577","COUNTYNAME":"新竹市","TOWNNAME":"北區","MARKTYPE":"991","Class":"1"},"geometry":{"x":120.95895160480451,"y":24.804048207568947}},{"attributes":{"OBJECTID":25433,"LANDMARKID":"1001800000003","LANDMARKCO":"101","LANDMARKNA":"台灣新竹看守所","LANDMARKAD":"1001802","ADDRESS":"新竹市延平路一段110號","TEL":"035-222083","COUNTYNAME":"新竹市","TOWNNAME":"北區","MARKTYPE":"991","Class":"1"},"geometry":{"x":120.95889768444628,"y":24.804066866657827}},{"attributes":{"OBJECTID":25434,"LANDMARKID":"1001800000037","LANDMARKCO":"103","LANDMARKNA":"新竹市議會","LANDMARKAD":"1001802","ADDRESS":"新竹市中正路122號","TEL":"035-213281","COUNTYNAME":"新竹市","TOWNNAME":"北區","MARKTYPE":"991","Class":"1"},"geometry":{"x":120.9683624434381,"y":24.807358233757615}},{"attributes":{"OBJECTID":25435,"LANDMARKID":"1001800000038","LANDMARKCO":"103","LANDMARKNA":"新竹市家庭教育服務中心","LANDMARKAD":"1001802","ADDRESS":"新竹市東大路二段15巷1號","TEL":"03-5319756轉250","COUNTYNAME":"新竹市","TOWNNAME":"北區","MARKTYPE":"991","Class":"1"},"geometry":{"x":120.96878206877327,"y":24.811276286536675}},{"attributes":{"OBJECTID":25436,"LANDMARKID":"1001800000004","LANDMARKCO":"101","LANDMARKNA":"營建署新竹工務所","LANDMARKAD":"1001802","ADDRESS":"新竹市東大路二段65巷64號","TEL":"035-310840","COUNTYNAME":"新竹市","TOWNNAME":"北區","MARKTYPE":"991","Class":"1"},"geometry":{"x":120.96709735133942,"y":24.811352126942023}},{"attributes":{"OBJECTID":25437,"LANDMARKID":"1001800000005","LANDMARKCO":"101","LANDMARKNA":"經濟部中小企業處新竹服務中心","LANDMARKAD":"1001802","ADDRESS":"新竹市中央路107號","TEL":"03-5255201","COUNTYNAME":"新竹市","TOWNNAME":"北區","MARKTYPE":"991","Class":"1"},"geometry":{"x":120.96957782314836,"y":24.806360211668594}},{"attributes":{"OBJECTID":25438,"LANDMARKID":"1001800000006","LANDMARKCO":"101","LANDMARKNA":"林務局新竹林區管理處","LANDMARKAD":"1001802","ADDRESS":"新竹市中山路2號","TEL":"03-5224163","COUNTYNAME":"新竹市","TOWNNAME":"北區","MARKTYPE":"991","Class":"1"},"geometry":{"x":120.96830110995562,"y":24.806588879816914}},{"attributes":{"OBJECTID":25439,"LANDMARKID":"1001800000036","LANDMARKCO":"103","LANDMARKNA":"新竹市政府都市發展局","LANDMARKAD":"1001802","ADDRESS":"新竹市中央路109號2樓","TEL":"03-5216121轉434","COUNTYNAME":"新竹市","TOWNNAME":"北區","MARKTYPE":"991","Class":"1"},"geometry":{"x":120.96794737860785,"y":24.80603247556995}},{"attributes":{"OBJECTID":25440,"LANDMARKID":"1001800000007","LANDMARKCO":"101","LANDMARKNA":"中央健康保險局北區分局","LANDMARKAD":"1001802","ADDRESS":"新竹市武陵路3號","TEL":"035-335847","COUNTYNAME":"新竹市","TOWNNAME":"北區","MARKTYPE":"991","Class":"1"},"geometry":{"x":120.96144166632476,"y":24.815973864297266}},{"attributes":{"OBJECTID":25441,"LANDMARKID":"1001800000008","LANDMARKCO":"101","LANDMARKNA":"職業訓練局台北區就業服務中心","LANDMARKAD":"1001802","ADDRESS":"新竹市武陵路10號","TEL":"035-343013","COUNTYNAME":"新竹市","TOWNNAME":"北區","MARKTYPE":"991","Class":"1"},"geometry":{"x":120.9627666217815,"y":24.815688148524266}},{"attributes":{"OBJECTID":25442,"LANDMARKID":"1001800000035","LANDMARKCO":"103","LANDMARKNA":"新竹市環境保護局","LANDMARKAD":"1001802","ADDRESS":"新竹市海濱路240號","TEL":"035-368920","COUNTYNAME":"新竹市","TOWNNAME":"北區","MARKTYPE":"991","Class":"1"},"geometry":{"x":120.92222292372269,"y":24.839409286147092}},{"attributes":{"OBJECTID":25443,"LANDMARKID":"1001800000009","LANDMARKCO":"101","LANDMARKNA":"環境保護署新竹市南寮垃圾資源中心","LANDMARKAD":"1001802","ADDRESS":"新竹市海濱路240號","TEL":"035-368810","COUNTYNAME":"新竹市","TOWNNAME":"北區","MARKTYPE":"991","Class":"1"},"geometry":{"x":120.92222292372269,"y":24.839409286147092}},{"attributes":{"OBJECTID":25444,"LANDMARKID":"1001800000034","LANDMARKCO":"103","LANDMARKNA":"新竹市政府新竹漁港管理所","LANDMARKAD":"1001802","ADDRESS":"新竹市新港三路1號1樓","TEL":"035-364306","COUNTYNAME":"新竹市","TOWNNAME":"北區","MARKTYPE":"991","Class":"1"},"geometry":{"x":120.92450170813312,"y":24.846364975276195}},{"attributes":{"OBJECTID":25445,"LANDMARKID":"1001800000010","LANDMARKCO":"101","LANDMARKNA":"國軍退除役官兵輔導委員會新竹服務處","LANDMARKAD":"1001802","ADDRESS":"新竹市崧嶺路57巷41號?","TEL":"03-5213292","COUNTYNAME":"新竹市","TOWNNAME":"北區","MARKTYPE":"991","Class":"1"},"geometry":{"x":120.95467858422633,"y":24.793538703791349}},{"attributes":{"OBJECTID":25446,"LANDMARKID":"1001800000084","LANDMARKCO":"107","LANDMARKNA":"新竹市警察局南寮派出所","LANDMARKAD":"1001802","ADDRESS":"新竹市東大路三段541號","TEL":"03-5362334","COUNTYNAME":"新竹市","TOWNNAME":"北區","MARKTYPE":"991","Class":"1"},"geometry":{"x":120.93745298793861,"y":24.840402922474173}},{"attributes":{"OBJECTID":25447,"LANDMARKID":"1001800000033","LANDMARKCO":"103","LANDMARKNA":"新竹市立殯儀館(追思園)","LANDMARKAD":"1001802","ADDRESS":"新竹市成德路132號","TEL":"03-5220179","COUNTYNAME":"新竹市","TOWNNAME":"北區","MARKTYPE":"991","Class":"1"},"geometry":{"x":120.95665376953951,"y":24.793623802257919}},{"attributes":{"OBJECTID":25448,"LANDMARKID":"1001800000011","LANDMARKCO":"101","LANDMARKNA":"內政部入出國及移民署","LANDMARKAD":"1001802","ADDRESS":"新竹市松嶺路122號","TEL":"03-5254336","COUNTYNAME":"新竹市","TOWNNAME":"北區","MARKTYPE":"991","Class":"1"},"geometry":{"x":120.95259502971138,"y":24.792901435166733}},{"attributes":{"OBJECTID":25449,"LANDMARKID":"1001800000161","LANDMARKCO":"205","LANDMARKNA":"眷村博物館","LANDMARKAD":"1001802","ADDRESS":"新竹市東大路二段105號","TEL":"03-5338442","COUNTYNAME":"新竹市","TOWNNAME":"北區","MARKTYPE":"992","Class":"2"},"geometry":{"x":120.96686838463087,"y":24.814111486369331}},{"attributes":{"OBJECTID":25450,"LANDMARKID":"1001800000162","LANDMARKCO":"205","LANDMARKNA":"消防博物館","LANDMARKAD":"1001802","ADDRESS":"新竹市北區中山路4號","TEL":"03-5222050","COUNTYNAME":"新竹市","TOWNNAME":"北區","MARKTYPE":"992","Class":"2"},"geometry":{"x":120.96814569310612,"y":24.806451335569857}},{"attributes":{"OBJECTID":25451,"LANDMARKID":"1001800000159","LANDMARKCO":"204","LANDMARKNA":"新竹市立圖書館","LANDMARKAD":"1001802","ADDRESS":"新竹市北區東大路二段15巷1號","TEL":" ","COUNTYNAME":"新竹市","TOWNNAME":"北區","MARKTYPE":"992","Class":"2"},"geometry":{"x":120.96791026685476,"y":24.811120026283195}},{"attributes":{"OBJECTID":25452,"LANDMARKID":"1001800000136","LANDMARKCO":"203","LANDMARKNA":"市立竹光國中","LANDMARKAD":"1001802","ADDRESS":"新竹市和平路1號","TEL":"03-5246683","COUNTYNAME":"新竹市","TOWNNAME":"北區","MARKTYPE":"992","Class":"2"},"geometry":{"x":120.95524037558172,"y":24.808611964332275}},{"attributes":{"OBJECTID":25453,"LANDMARKID":"1001800000107","LANDMARKCO":"202","LANDMARKNA":"私立磐石高中","LANDMARKAD":"1001802","ADDRESS":"新竹市西大路683號","TEL":"035-252207","COUNTYNAME":"新竹市","TOWNNAME":"北區","MARKTYPE":"992","Class":"2"},"geometry":{"x":120.95696181777465,"y":24.810900696954349}},{"attributes":{"OBJECTID":25454,"LANDMARKID":"1001800000108","LANDMARKCO":"202","LANDMARKNA":"市立成德高中","LANDMARKAD":"1001802","ADDRESS":"新竹市崧嶺路128巷38號","TEL":"03-5258748","COUNTYNAME":"新竹市","TOWNNAME":"北區","MARKTYPE":"992","Class":"2"},"geometry":{"x":120.95320440685134,"y":24.79094946865246}},{"attributes":{"OBJECTID":25455,"LANDMARKID":"1001800000125","LANDMARKCO":"203","LANDMARKNA":"市立光華國中","LANDMARKAD":"1001802","ADDRESS":"新竹市光華北街10號","TEL":"035-312625","COUNTYNAME":"新竹市","TOWNNAME":"北區","MARKTYPE":"992","Class":"2"},"geometry":{"x":120.97391033085226,"y":24.817976071378144}},{"attributes":{"OBJECTID":25456,"LANDMARKID":"1001800000126","LANDMARKCO":"203","LANDMARKNA":"市立南華國中","LANDMARKAD":"1001802","ADDRESS":"新竹市海濱路55號","TEL":"035-363905","COUNTYNAME":"新竹市","TOWNNAME":"北區","MARKTYPE":"992","Class":"2"},"geometry":{"x":120.92746358990438,"y":24.844055086229634}},{"attributes":{"OBJECTID":25457,"LANDMARKID":"1001800000127","LANDMARKCO":"203","LANDMARKNA":"國立新竹師範學院附設實驗國民小學","LANDMARKAD":"1001802","ADDRESS":"新竹市四維路47號","TEL":"03-5282420","COUNTYNAME":"新竹市","TOWNNAME":"北區","MARKTYPE":"992","Class":"2"},"geometry":{"x":120.9615679183904,"y":24.799741203777423}},{"attributes":{"OBJECTID":25458,"LANDMARKID":"1001800000128","LANDMARKCO":"203","LANDMARKNA":"市立北門國小","LANDMARKAD":"1001802","ADDRESS":"新竹市水田街33號","TEL":"035-316668","COUNTYNAME":"新竹市","TOWNNAME":"北區","MARKTYPE":"992","Class":"2"},"geometry":{"x":120.96598894084573,"y":24.813580717483912}},{"attributes":{"OBJECTID":25459,"LANDMARKID":"1001800000129","LANDMARKCO":"203","LANDMARKNA":"市立西門國小","LANDMARKAD":"1001802","ADDRESS":"新竹市北大路450號","TEL":"035-222492","COUNTYNAME":"新竹市","TOWNNAME":"北區","MARKTYPE":"992","Class":"2"},"geometry":{"x":120.95950513459198,"y":24.802644649179513}},{"attributes":{"OBJECTID":25460,"LANDMARKID":"1001800000130","LANDMARKCO":"203","LANDMARKNA":"市立民富國小","LANDMARKAD":"1001802","ADDRESS":"新竹市西大路561號","TEL":"035-222102","COUNTYNAME":"新竹市","TOWNNAME":"北區","MARKTYPE":"992","Class":"2"},"geometry":{"x":120.96015925397437,"y":24.808200127242323}},{"attributes":{"OBJECTID":25461,"LANDMARKID":"1001800000131","LANDMARKCO":"203","LANDMARKNA":"市立載熙國小","LANDMARKAD":"1001802","ADDRESS":"新竹市東大路二段386號","TEL":"035-316675","COUNTYNAME":"新竹市","TOWNNAME":"北區","MARKTYPE":"992","Class":"2"},"geometry":{"x":120.96285781407339,"y":24.819486346164325}},{"attributes":{"OBJECTID":25462,"LANDMARKID":"1001800000132","LANDMARKCO":"203","LANDMARKNA":"市立南寮國小","LANDMARKAD":"1001802","ADDRESS":"新竹市東大路三段465號","TEL":"035-363448","COUNTYNAME":"新竹市","TOWNNAME":"北區","MARKTYPE":"992","Class":"2"},"geometry":{"x":120.93930695513781,"y":24.839101910985001}},{"attributes":{"OBJECTID":25463,"LANDMARKID":"1001800000133","LANDMARKCO":"203","LANDMARKNA":"市立舊社國小","LANDMARKAD":"1001802","ADDRESS":"新竹市金竹路99號","TEL":"03-5342022","COUNTYNAME":"新竹市","TOWNNAME":"北區","MARKTYPE":"992","Class":"2"},"geometry":{"x":120.97312161874727,"y":24.822785146138894}},{"attributes":{"OBJECTID":25464,"LANDMARKID":"1001800000205","LANDMARKCO":"305","LANDMARKNA":"南寮漁港","LANDMARKAD":"1001802","ADDRESS":"新竹市北區","TEL":" ","COUNTYNAME":"新竹市","TOWNNAME":"北區","MARKTYPE":"993","Class":"305"},"geometry":{"x":120.9304097476309,"y":24.849552415035468}},{"attributes":{"OBJECTID":25465,"LANDMARKID":"1001800000206","LANDMARKCO":"305","LANDMARKNA":"新竹漁港","LANDMARKAD":"1001802","ADDRESS":"新竹市北區","TEL":" ","COUNTYNAME":"新竹市","TOWNNAME":"北區","MARKTYPE":"993","Class":"305"},"geometry":{"x":120.92505384942322,"y":24.847373978447497}},{"attributes":{"OBJECTID":25466,"LANDMARKID":"1001800000190","LANDMARKCO":"303","LANDMARKNA":"新竹區漁會停車場","LANDMARKAD":"1001802","ADDRESS":"新竹市北區新港三路","TEL":" ","COUNTYNAME":"新竹市","TOWNNAME":"北區","MARKTYPE":"993","Class":"303"},"geometry":{"x":120.92564337397586,"y":24.846878317742927}},{"attributes":{"OBJECTID":25467,"LANDMARKID":"1001800000191","LANDMARKCO":"303","LANDMARKNA":"武陵路橋下停車場","LANDMARKAD":"1001802","ADDRESS":"新竹市北區","TEL":" ","COUNTYNAME":"新竹市","TOWNNAME":"北區","MARKTYPE":"993","Class":"303"},"geometry":{"x":120.9705586648559,"y":24.823639320336824}},{"attributes":{"OBJECTID":25468,"LANDMARKID":"1001800000192","LANDMARKCO":"303","LANDMARKNA":"武陵路橋下停車場","LANDMARKAD":"1001802","ADDRESS":"新竹市北區","TEL":" ","COUNTYNAME":"新竹市","TOWNNAME":"北區","MARKTYPE":"993","Class":"303"},"geometry":{"x":120.97113452701059,"y":24.824261432381565}},{"attributes":{"OBJECTID":25469,"LANDMARKID":"1001800000207","LANDMARKCO":"308","LANDMARKNA":"台68-南寮端-東行","LANDMARKAD":"1001802","ADDRESS":"新竹市北區","TEL":" ","COUNTYNAME":"新竹市","TOWNNAME":"北區","MARKTYPE":"993","Class":"308"},"geometry":{"x":120.93771106027513,"y":24.843089809239412}},{"attributes":{"OBJECTID":25470,"LANDMARKID":"1001800000208","LANDMARKCO":"308","LANDMARKNA":"台68-新竹一交流道-西行","LANDMARKAD":"1001802","ADDRESS":"新竹市北區","TEL":" ","COUNTYNAME":"新竹市","TOWNNAME":"北區","MARKTYPE":"993","Class":"308"},"geometry":{"x":120.96956083997237,"y":24.826867106331395}},{"attributes":{"OBJECTID":25471,"LANDMARKID":"1001800000209","LANDMARKCO":"308","LANDMARKNA":"台68-新竹一交流道-東行","LANDMARKAD":"1001802","ADDRESS":"新竹市北區","TEL":" ","COUNTYNAME":"新竹市","TOWNNAME":"北區","MARKTYPE":"993","Class":"308"},"geometry":{"x":120.97335409657704,"y":24.825473673092095}},{"attributes":{"OBJECTID":25472,"LANDMARKID":"1001800000193","LANDMARKCO":"303","LANDMARKNA":"城隍廟口停車場","LANDMARKAD":"1001802","ADDRESS":"新竹市北區中山路","TEL":" ","COUNTYNAME":"新竹市","TOWNNAME":"北區","MARKTYPE":"993","Class":"303"},"geometry":{"x":120.9653534898701,"y":24.804612443470834}},{"attributes":{"OBJECTID":25473,"LANDMARKID":"1001800000194","LANDMARKCO":"303","LANDMARKNA":"新竹市政府南門停車場","LANDMARKAD":"1001802","ADDRESS":"新竹市北區","TEL":" ","COUNTYNAME":"新竹市","TOWNNAME":"北區","MARKTYPE":"993","Class":"303"},"geometry":{"x":120.96941973408831,"y":24.807792701080611}},{"attributes":{"OBJECTID":25474,"LANDMARKID":"1001800000195","LANDMARKCO":"303","LANDMARKNA":"新竹市公有收費停車管理處勝利停車場","LANDMARKAD":"1001802","ADDRESS":"新竹市北區","TEL":" ","COUNTYNAME":"新竹市","TOWNNAME":"北區","MARKTYPE":"993","Class":"303"},"geometry":{"x":120.96852246017079,"y":24.806379659483646}},{"attributes":{"OBJECTID":25475,"LANDMARKID":"1001800000196","LANDMARKCO":"303","LANDMARKNA":"新竹市文化局停車場","LANDMARKAD":"1001802","ADDRESS":"新竹市北區東大路二段15巷1號","TEL":" ","COUNTYNAME":"新竹市","TOWNNAME":"北區","MARKTYPE":"993","Class":"303"},"geometry":{"x":120.96860555297458,"y":24.812046890193482}},{"attributes":{"OBJECTID":25476,"LANDMARKID":"1001800000197","LANDMARKCO":"303","LANDMARKNA":"民眾活動中臨時停車場","LANDMARKAD":"1001802","ADDRESS":"新竹市北區","TEL":" ","COUNTYNAME":"新竹市","TOWNNAME":"北區","MARKTYPE":"993","Class":"303"},"geometry":{"x":120.9340488490492,"y":24.842293049495005}},{"attributes":{"OBJECTID":25477,"LANDMARKID":"1001800000198","LANDMARKCO":"303","LANDMARKNA":"民富機械停車場","LANDMARKAD":"1001802","ADDRESS":"新竹市北區少年街49巷10號","TEL":" ","COUNTYNAME":"新竹市","TOWNNAME":"北區","MARKTYPE":"993","Class":"303"},"geometry":{"x":120.95929456975522,"y":24.80608414066436}},{"attributes":{"OBJECTID":25478,"LANDMARKID":"1001800000199","LANDMARKCO":"303","LANDMARKNA":"府後街地下停車場","LANDMARKAD":"1001802","ADDRESS":"新竹市北區中央路42號","TEL":" ","COUNTYNAME":"新竹市","TOWNNAME":"北區","MARKTYPE":"993","Class":"303"},"geometry":{"x":120.97028693151341,"y":24.806838444671317}},{"attributes":{"OBJECTID":25479,"LANDMARKID":"1001800000200","LANDMARKCO":"303","LANDMARKNA":"新竹市竹光路與西大路臨時停車場","LANDMARKAD":"1001802","ADDRESS":"新竹市北區","TEL":" ","COUNTYNAME":"新竹市","TOWNNAME":"北區","MARKTYPE":"993","Class":"303"},"geometry":{"x":120.95677502632762,"y":24.811405108532522}},{"attributes":{"OBJECTID":25480,"LANDMARKID":"1001800000201","LANDMARKCO":"303","LANDMARKNA":"舊果菜市場臨時停車場","LANDMARKAD":"1001802","ADDRESS":"新竹市北區","TEL":" ","COUNTYNAME":"新竹市","TOWNNAME":"北區","MARKTYPE":"993","Class":"303"},"geometry":{"x":120.9640252999576,"y":24.812211673727766}},{"attributes":{"OBJECTID":25481,"LANDMARKID":"1001800000202","LANDMARKCO":"303","LANDMARKNA":"Times(普客二四停車場)-新竹城隍廟停車","LANDMARKAD":"1001802","ADDRESS":"新竹市北區北門街62號旁","TEL":" ","COUNTYNAME":"新竹市","TOWNNAME":"北區","MARKTYPE":"993","Class":"303"},"geometry":{"x":120.96596879396664,"y":24.806309565632592}},{"attributes":{"OBJECTID":25482,"LANDMARKID":"1001800000246","LANDMARKCO":"402","LANDMARKNA":"中華電信-新竹營運處","LANDMARKAD":"1001802","ADDRESS":"新竹市中正路105號","TEL":"123或0800-080-123","COUNTYNAME":"新竹市","TOWNNAME":"北區","MARKTYPE":"994","Class":"4"},"geometry":{"x":120.96803028373357,"y":24.807161178630999}},{"attributes":{"OBJECTID":25483,"LANDMARKID":"1001800000247","LANDMARKCO":"402","LANDMARKNA":"中華電信-新竹湳雅特約服務中心","LANDMARKAD":"1001802","ADDRESS":"新竹市北區湳雅街10號","TEL":"03-5318788","COUNTYNAME":"新竹市","TOWNNAME":"北區","MARKTYPE":"994","Class":"4"},"geometry":{"x":120.96979876679646,"y":24.817083761947938}},{"attributes":{"OBJECTID":25484,"LANDMARKID":"1001800000248","LANDMARKCO":"402","LANDMARKNA":"中華電信-新竹西大特約服務中心","LANDMARKAD":"1001802","ADDRESS":"新竹市西大路442號","TEL":"03-5257099","COUNTYNAME":"新竹市","TOWNNAME":"北區","MARKTYPE":"994","Class":"4"},"geometry":{"x":120.96416365820623,"y":24.804036168972477}},{"attributes":{"OBJECTID":25485,"LANDMARKID":"1001800000249","LANDMARKCO":"402","LANDMARKNA":"遠傳電信-新竹中正門市","LANDMARKAD":"1001802","ADDRESS":"新竹市中正路259號","TEL":" ","COUNTYNAME":"新竹市","TOWNNAME":"北區","MARKTYPE":"994","Class":"4"},"geometry":{"x":120.96370596735892,"y":24.812821485409735}},{"attributes":{"OBJECTID":25486,"LANDMARKID":"1001800000250","LANDMARKCO":"402","LANDMARKNA":"威寶電信-新竹西大特約服務中心","LANDMARKAD":"1001802","ADDRESS":"新竹市西大路476號","TEL":"03-5262899","COUNTYNAME":"新竹市","TOWNNAME":"北區","MARKTYPE":"994","Class":"4"},"geometry":{"x":120.9636489187704,"y":24.804704734968109}},{"attributes":{"OBJECTID":25487,"LANDMARKID":"1001800000251","LANDMARKCO":"402","LANDMARKNA":"威寶電信-新竹中正特約服務中心","LANDMARKAD":"1001802","ADDRESS":"新竹市北區北門里中正路179號","TEL":"03-5225374","COUNTYNAME":"新竹市","TOWNNAME":"北區","MARKTYPE":"994","Class":"4"},"geometry":{"x":120.96570487288052,"y":24.810149264638437}},{"attributes":{"OBJECTID":25488,"LANDMARKID":"1001800000252","LANDMARKCO":"402","LANDMARKNA":"威寶電信-新竹湳雅特約服務中心","LANDMARKAD":"1001802","ADDRESS":"新竹市湳雅街34號","TEL":"03-5359712","COUNTYNAME":"新竹市","TOWNNAME":"北區","MARKTYPE":"994","Class":"4"},"geometry":{"x":120.97046129443079,"y":24.817625743160811}},{"attributes":{"OBJECTID":25489,"LANDMARKID":"1001800000253","LANDMARKCO":"402","LANDMARKNA":"大眾電信-正鋒通訊","LANDMARKAD":"1001802","ADDRESS":"新竹市北區西大路700號","TEL":"03-5436089","COUNTYNAME":"新竹市","TOWNNAME":"北區","MARKTYPE":"994","Class":"4"},"geometry":{"x":120.96039369523585,"y":24.808956307837583}},{"attributes":{"OBJECTID":25490,"LANDMARKID":"1001800000254","LANDMARKCO":"402","LANDMARKNA":"大眾電信(震旦通訊)-新竹西大店","LANDMARKAD":"1001802","ADDRESS":"新竹市西大路445號","TEL":"03-5284308","COUNTYNAME":"新竹市","TOWNNAME":"北區","MARKTYPE":"994","Class":"4"},"geometry":{"x":120.96369857044958,"y":24.804370699892026}},{"attributes":{"OBJECTID":25491,"LANDMARKID":"1001800000255","LANDMARKCO":"402","LANDMARKNA":"大眾電信-新竹東大店","LANDMARKAD":"1001802","ADDRESS":"新竹市東大路二段200號","TEL":"03-5351100","COUNTYNAME":"新竹市","TOWNNAME":"北區","MARKTYPE":"994","Class":"4"},"geometry":{"x":120.96421918615326,"y":24.81763328320443}},{"attributes":{"OBJECTID":25492,"LANDMARKID":"1001800000256","LANDMARKCO":"402","LANDMARKNA":"大眾電信(震旦通訊)-新竹湳雅店","LANDMARKAD":"1001802","ADDRESS":"新竹市湳雅街18號","TEL":"03-5152613","COUNTYNAME":"新竹市","TOWNNAME":"北區","MARKTYPE":"994","Class":"4"},"geometry":{"x":120.97011519973042,"y":24.817336690499857}},{"attributes":{"OBJECTID":25493,"LANDMARKID":"1001800000423","LANDMARKCO":"602","LANDMARKNA":"新竹福華大飯店","LANDMARKAD":"1001802","ADDRESS":"新竹市中正路178號","TEL":"03-528-2323","COUNTYNAME":"新竹市","TOWNNAME":"北區","MARKTYPE":"996","Class":"6"},"geometry":{"x":120.96640736128798,"y":24.809842610141594}},{"attributes":{"OBJECTID":25494,"LANDMARKID":"1001800000417","LANDMARKCO":"511","LANDMARKNA":"南寮漁港小吃","LANDMARKAD":"1001802","ADDRESS":"新竹市北區","TEL":" ","COUNTYNAME":"新竹市","TOWNNAME":"北區","MARKTYPE":"995","Class":"5"},"geometry":{"x":120.9251201954045,"y":24.847939266509993}},{"attributes":{"OBJECTID":25495,"LANDMARKID":"1001800000418","LANDMARKCO":"511","LANDMARKNA":"城隍廟夜市","LANDMARKAD":"1001802","ADDRESS":"新竹市北區","TEL":" ","COUNTYNAME":"新竹市","TOWNNAME":"北區","MARKTYPE":"995","Class":"5"},"geometry":{"x":120.96550523828616,"y":24.804404370688779}},{"attributes":{"OBJECTID":25496,"LANDMARKID":"1001800000415","LANDMARKCO":"510","LANDMARKNA":"新生高爾夫練習場","LANDMARKAD":"1001802","ADDRESS":"新竹市北區舊社里19鄰32號","TEL":"035-533235","COUNTYNAME":"新竹市","TOWNNAME":"北區","MARKTYPE":"995","Class":"5"},"geometry":{"x":120.98104230401037,"y":24.829308052190289}},{"attributes":{"OBJECTID":25497,"LANDMARKID":"1001800000393","LANDMARKCO":"503","LANDMARKNA":"港南風景區","LANDMARKAD":"1001802","ADDRESS":"新竹市北區","TEL":" ","COUNTYNAME":"新竹市","TOWNNAME":"北區","MARKTYPE":"995","Class":"5"},"geometry":{"x":120.9194538066818,"y":24.837956046820846}},{"attributes":{"OBJECTID":25498,"LANDMARKID":"1001800000298","LANDMARKCO":"405","LANDMARKNA":"中油加油站-佳隆站","LANDMARKAD":"1001801","ADDRESS":"新竹市東區經國路一段156巷236之15號","TEL":"03-5353597","COUNTYNAME":"新竹市","TOWNNAME":"東區","MARKTYPE":"994","Class":"4"},"geometry":{"x":120.98181492886737,"y":24.820611694181967}},{"attributes":{"OBJECTID":25499,"LANDMARKID":"1001800000299","LANDMARKCO":"405","LANDMARKNA":"中油加油站-大橋站","LANDMARKAD":"1001801","ADDRESS":"新竹市中華路一段31號","TEL":"03-5312536","COUNTYNAME":"新竹市","TOWNNAME":"東區","MARKTYPE":"994","Class":"4"},"geometry":{"x":120.99535630590833,"y":24.818418789375066}},{"attributes":{"OBJECTID":25500,"LANDMARKID":"1001800000300","LANDMARKCO":"405","LANDMARKNA":"中油加油站-明湖站","LANDMARKAD":"1001801","ADDRESS":"新竹市明湖路1036號","TEL":"03-5200235","COUNTYNAME":"新竹市","TOWNNAME":"東區","MARKTYPE":"994","Class":"4"},"geometry":{"x":120.97840260208017,"y":24.768012976788608}},{"attributes":{"OBJECTID":25501,"LANDMARKID":"1001800000301","LANDMARKCO":"405","LANDMARKNA":"中油加油站-光明站(中油直營)","LANDMARKAD":"1001801","ADDRESS":"新竹市光復路二段1號","TEL":"035-716471","COUNTYNAME":"新竹市","TOWNNAME":"東區","MARKTYPE":"994","Class":"4"},"geometry":{"x":120.99015898958389,"y":24.797907351415709}},{"attributes":{"OBJECTID":25502,"LANDMARKID":"1001800000302","LANDMARKCO":"405","LANDMARKNA":"中油加油站-昌隆站","LANDMARKAD":"1001801","ADDRESS":"新竹市東區前溪里經國路1段156巷238號之15","TEL":"03-5353556","COUNTYNAME":"新竹市","TOWNNAME":"東區","MARKTYPE":"994","Class":"4"},"geometry":{"x":120.98201173294281,"y":24.819429987969354}},{"attributes":{"OBJECTID":25503,"LANDMARKID":"1001800000303","LANDMARKCO":"405","LANDMARKNA":"中油加油站-山隆竹安","LANDMARKAD":"1001801","ADDRESS":"新竹市慈雲路111號","TEL":"03-6686732","COUNTYNAME":"新竹市","TOWNNAME":"東區","MARKTYPE":"994","Class":"4"},"geometry":{"x":121.01215100341456,"y":24.79238833382156}},{"attributes":{"OBJECTID":25504,"LANDMARKID":"1001800000304","LANDMARKCO":"405","LANDMARKNA":"山隆加油站-竹安站(中油)","LANDMARKAD":"1001801","ADDRESS":"新竹市慈雲路111號","TEL":"03-6686732","COUNTYNAME":"新竹市","TOWNNAME":"東區","MARKTYPE":"994","Class":"4"},"geometry":{"x":121.01214548376763,"y":24.792389785171004}},{"attributes":{"OBJECTID":25505,"LANDMARKID":"1001800000305","LANDMARKCO":"405","LANDMARKNA":"中油加油站-民弘站","LANDMARKAD":"1001801","ADDRESS":"新竹市自由路65號","TEL":"03-5312866","COUNTYNAME":"新竹市","TOWNNAME":"東區","MARKTYPE":"994","Class":"4"},"geometry":{"x":120.9809091564442,"y":24.812675222333837}},{"attributes":{"OBJECTID":25506,"LANDMARKID":"1001800000306","LANDMARKCO":"405","LANDMARKNA":"中油加油站-新竹站(中油直營)","LANDMARKAD":"1001801","ADDRESS":"新竹市中華路二段347號","TEL":"03-5225043","COUNTYNAME":"新竹市","TOWNNAME":"東區","MARKTYPE":"994","Class":"4"},"geometry":{"x":120.97424182732243,"y":24.803494533570039}},{"attributes":{"OBJECTID":25507,"LANDMARKID":"1001800000307","LANDMARKCO":"405","LANDMARKNA":"中油加油站-民華站(刷卡自助)(中油直營)","LANDMARKAD":"1001801","ADDRESS":"新竹市中華路二段156-1號","TEL":"03-5326491","COUNTYNAME":"新竹市","TOWNNAME":"東區","MARKTYPE":"994","Class":"4"},"geometry":{"x":120.97872332554468,"y":24.806742837301453}},{"attributes":{"OBJECTID":25508,"LANDMARKID":"1001800000308","LANDMARKCO":"405","LANDMARKNA":"中油加油站-政祥站(中油直營)","LANDMARKAD":"1001801","ADDRESS":"新竹市經國路一段2-2號","TEL":"03-5421228","COUNTYNAME":"新竹市","TOWNNAME":"東區","MARKTYPE":"994","Class":"4"},"geometry":{"x":120.99316614441352,"y":24.816127071433339}},{"attributes":{"OBJECTID":25509,"LANDMARKID":"1001800000309","LANDMARKCO":"405","LANDMARKNA":"中油加油站-科學園區站(中油直營)","LANDMARKAD":"1001801","ADDRESS":"新竹市龍山里工業東二路2-2號","TEL":"03-5779157","COUNTYNAME":"新竹市","TOWNNAME":"東區","MARKTYPE":"994","Class":"4"},"geometry":{"x":121.00460181748045,"y":24.779526356606357}},{"attributes":{"OBJECTID":25510,"LANDMARKID":"1001800000310","LANDMARKCO":"405","LANDMARKNA":"中油加油站-光復站(中油直營)","LANDMARKAD":"1001801","ADDRESS":"新竹市光復路二段716號","TEL":"035-718604","COUNTYNAME":"新竹市","TOWNNAME":"東區","MARKTYPE":"994","Class":"4"},"geometry":{"x":120.99005439685047,"y":24.800262683626762}},{"attributes":{"OBJECTID":25511,"LANDMARKID":"1001800000311","LANDMARKCO":"405","LANDMARKNA":"中油加油站-關東橋站(中油直營)","LANDMARKAD":"1001801","ADDRESS":"新竹市光復路一段529號","TEL":"035-772433","COUNTYNAME":"新竹市","TOWNNAME":"東區","MARKTYPE":"994","Class":"4"},"geometry":{"x":121.01324960748521,"y":24.784771569351754}},{"attributes":{"OBJECTID":25512,"LANDMARKID":"1001800000241","LANDMARKCO":"402","LANDMARKNA":"My Phone台灣大哥大-新竹中正直營服務中心","LANDMARKAD":"1001801","ADDRESS":"新竹市中正路9號","TEL":"0809-000-166","COUNTYNAME":"新竹市","TOWNNAME":"東區","MARKTYPE":"994","Class":"4"},"geometry":{"x":120.97111779119068,"y":24.802918352511721}},{"attributes":{"OBJECTID":25513,"LANDMARKID":"1001800000242","LANDMARKCO":"402","LANDMARKNA":"My Phone台灣大哥大-新竹竹科直營服務中心","LANDMARKAD":"1001801","ADDRESS":"新竹市東區光復路1段633號","TEL":"0809-000-166","COUNTYNAME":"新竹市","TOWNNAME":"東區","MARKTYPE":"994","Class":"4"},"geometry":{"x":121.01084918182704,"y":24.78637077206713}},{"attributes":{"OBJECTID":25514,"LANDMARKID":"1001800000243","LANDMARKCO":"402","LANDMARKNA":"亞太行動寬頻電信-新竹光復加盟服務中心","LANDMARKAD":"1001801","ADDRESS":"新竹市光復路1段171號","TEL":"03-5798363","COUNTYNAME":"新竹市","TOWNNAME":"東區","MARKTYPE":"994","Class":"4"},"geometry":{"x":121.02234043317507,"y":24.781440002352539}},{"attributes":{"OBJECTID":25515,"LANDMARKID":"1001800000244","LANDMARKCO":"402","LANDMARKNA":"亞太行動寬頻電信-新竹東門加盟服務中心","LANDMARKAD":"1001801","ADDRESS":"新竹市東門街116號","TEL":"03-5259577","COUNTYNAME":"新竹市","TOWNNAME":"東區","MARKTYPE":"994","Class":"4"},"geometry":{"x":120.96980161019077,"y":24.804272125577253}},{"attributes":{"OBJECTID":25516,"LANDMARKID":"1001800000245","LANDMARKCO":"402","LANDMARKNA":"亞太行動寬頻電信-新竹園區加盟服務中心","LANDMARKAD":"1001801","ADDRESS":"新竹市光復路2段266號","TEL":"03-5739898","COUNTYNAME":"新竹市","TOWNNAME":"東區","MARKTYPE":"994","Class":"4"},"geometry":{"x":120.99929776950077,"y":24.795002724599783}},{"attributes":{"OBJECTID":25517,"LANDMARKID":"1001800000229","LANDMARKCO":"401","LANDMARKNA":"行政院衛生署新竹醫院","LANDMARKAD":"1001801","ADDRESS":"新竹市經國路一段442巷25號","TEL":"03-5326151","COUNTYNAME":"新竹市","TOWNNAME":"東區","MARKTYPE":"994","Class":"4"},"geometry":{"x":120.9806011079399,"y":24.815902702094618}},{"attributes":{"OBJECTID":25518,"LANDMARKID":"1001800000230","LANDMARKCO":"401","LANDMARKNA":"南門綜合醫院","LANDMARKAD":"1001801","ADDRESS":"新竹市林森路20號","TEL":"03-5261122","COUNTYNAME":"新竹市","TOWNNAME":"東區","MARKTYPE":"994","Class":"4"},"geometry":{"x":120.96968323440919,"y":24.802222581430964}},{"attributes":{"OBJECTID":25519,"LANDMARKID":"1001800000231","LANDMARKCO":"401","LANDMARKNA":"財團法人國泰綜合醫院新竹分院","LANDMARKAD":"1001801","ADDRESS":"新竹市中華路二段678號","TEL":"03-5278999","COUNTYNAME":"新竹市","TOWNNAME":"東區","MARKTYPE":"994","Class":"4"},"geometry":{"x":120.96522370610776,"y":24.798258313043853}},{"attributes":{"OBJECTID":25520,"LANDMARKID":"1001800000232","LANDMARKCO":"401","LANDMARKNA":"財團法人馬偕紀念醫院新竹分院","LANDMARKAD":"1001801","ADDRESS":"新竹市光復路二段690號","TEL":"03-6119595","COUNTYNAME":"新竹市","TOWNNAME":"東區","MARKTYPE":"994","Class":"4"},"geometry":{"x":120.99078164468956,"y":24.800085664423712}},{"attributes":{"OBJECTID":25521,"LANDMARKID":"1001800000168","LANDMARKCO":"301","LANDMARKNA":"新竹火車站","LANDMARKAD":"1001801","ADDRESS":"新竹市中華路2段445號","TEL":"03-5237441","COUNTYNAME":"新竹市","TOWNNAME":"東區","MARKTYPE":"993","Class":"301"},"geometry":{"x":120.97228067791384,"y":24.801751146456244}},{"attributes":{"OBJECTID":25522,"LANDMARKID":"1001800000409","LANDMARKCO":"507","LANDMARKNA":"新竹金山寺","LANDMARKAD":"1001801","ADDRESS":"新竹市東區仙水里金山201號","TEL":" ","COUNTYNAME":"新竹市","TOWNNAME":"東區","MARKTYPE":"995","Class":"5"},"geometry":{"x":121.01531683121298,"y":24.77779263241829}},{"attributes":{"OBJECTID":25523,"LANDMARKID":"1001800000410","LANDMARKCO":"507","LANDMARKNA":"新竹關帝廟","LANDMARKAD":"1001801","ADDRESS":"新竹市東區關帝里南門街101號","TEL":" ","COUNTYNAME":"新竹市","TOWNNAME":"東區","MARKTYPE":"995","Class":"5"},"geometry":{"x":120.96650484622351,"y":24.802932466081135}},{"attributes":{"OBJECTID":25524,"LANDMARKID":"1001800000411","LANDMARKCO":"507","LANDMARKNA":"竹塹城迎曦門","LANDMARKAD":"1001801","ADDRESS":"新竹市東區東門街中正路口","TEL":" ","COUNTYNAME":"新竹市","TOWNNAME":"東區","MARKTYPE":"995","Class":"5"},"geometry":{"x":120.97072417543632,"y":24.804153261176427}},{"attributes":{"OBJECTID":25525,"LANDMARKID":"1001800000412","LANDMARKCO":"507","LANDMARKNA":"李錫金孝子坊","LANDMARKAD":"1001801","ADDRESS":"新竹市東區祡橋里青草湖段443之1地號","TEL":" ","COUNTYNAME":"新竹市","TOWNNAME":"東區","MARKTYPE":"995","Class":"5"},"geometry":{"x":120.9667382353133,"y":24.781593995791781}},{"attributes":{"OBJECTID":25526,"LANDMARKID":"1001800000413","LANDMARKCO":"507","LANDMARKNA":"新竹火車站","LANDMARKAD":"1001801","ADDRESS":"新竹市東區榮光里6鄰中華路二段445號","TEL":"035-229742","COUNTYNAME":"新竹市","TOWNNAME":"東區","MARKTYPE":"995","Class":"5"},"geometry":{"x":120.97177398379146,"y":24.801793450143403}},{"attributes":{"OBJECTID":25527,"LANDMARKID":"1001800000414","LANDMARKCO":"507","LANDMARKNA":"新竹州圖書館","LANDMARKAD":"1001801","ADDRESS":"新竹市東區文化街8號","TEL":" ","COUNTYNAME":"新竹市","TOWNNAME":"東區","MARKTYPE":"995","Class":"5"},"geometry":{"x":120.97147187237672,"y":24.806252697358737}},{"attributes":{"OBJECTID":25528,"LANDMARKID":"1001800000369","LANDMARKCO":"408","LANDMARKNA":"郵局-新竹武昌街郵局","LANDMARKAD":"1001801","ADDRESS":"新竹市武昌街81號","TEL":"(03)5215-984","COUNTYNAME":"新竹市","TOWNNAME":"東區","MARKTYPE":"994","Class":"4"},"geometry":{"x":120.96748727707079,"y":24.80240286255717}},{"attributes":{"OBJECTID":25529,"LANDMARKID":"1001800000370","LANDMARKCO":"408","LANDMARKNA":"郵局-新竹東門郵局","LANDMARKAD":"1001801","ADDRESS":"新竹市東門街51號","TEL":"(03)5229-044","COUNTYNAME":"新竹市","TOWNNAME":"東區","MARKTYPE":"994","Class":"4"},"geometry":{"x":120.97300652306251,"y":24.804029074628627}},{"attributes":{"OBJECTID":25530,"LANDMARKID":"1001800000371","LANDMARKCO":"408","LANDMARKNA":"郵局-清華大學郵局","LANDMARKAD":"1001801","ADDRESS":"新竹市光復路2段99號","TEL":"(03)5717-086","COUNTYNAME":"新竹市","TOWNNAME":"東區","MARKTYPE":"994","Class":"4"},"geometry":{"x":120.99759655528945,"y":24.795914619363685}},{"attributes":{"OBJECTID":25531,"LANDMARKID":"1001800000372","LANDMARKCO":"408","LANDMARKNA":"郵局-新竹復中里郵局","LANDMARKAD":"1001801","ADDRESS":"新竹市經國路1段452-1號","TEL":"(03)5330-441","COUNTYNAME":"新竹市","TOWNNAME":"東區","MARKTYPE":"994","Class":"4"},"geometry":{"x":120.9792857889796,"y":24.814810312705035}},{"attributes":{"OBJECTID":25532,"LANDMARKID":"1001800000373","LANDMARKCO":"408","LANDMARKNA":"郵局-新竹關東橋郵局","LANDMARKAD":"1001801","ADDRESS":"新竹市光復路1段313號","TEL":"(03)5772-024","COUNTYNAME":"新竹市","TOWNNAME":"東區","MARKTYPE":"994","Class":"4"},"geometry":{"x":121.01881021064079,"y":24.782559841867979}},{"attributes":{"OBJECTID":25533,"LANDMARKID":"1001800000374","LANDMARKCO":"408","LANDMARKNA":"郵局-新竹學府路郵局","LANDMARKAD":"1001801","ADDRESS":"新竹市學府路128號","TEL":"(03)5718-304","COUNTYNAME":"新竹市","TOWNNAME":"東區","MARKTYPE":"994","Class":"4"},"geometry":{"x":120.98470872126937,"y":24.796852974831339}},{"attributes":{"OBJECTID":25534,"LANDMARKID":"1001800000375","LANDMARKCO":"408","LANDMARKNA":"郵局-新竹西大路郵局","LANDMARKAD":"1001801","ADDRESS":"新竹市南大路428號","TEL":"(03)5243-634","COUNTYNAME":"新竹市","TOWNNAME":"東區","MARKTYPE":"994","Class":"4"},"geometry":{"x":120.96870518314296,"y":24.797085521734019}},{"attributes":{"OBJECTID":25535,"LANDMARKID":"1001800000376","LANDMARKCO":"408","LANDMARKNA":"郵局-新竹民主路郵局","LANDMARKAD":"1001801","ADDRESS":"新竹市民主路18號","TEL":"(03)5325-070","COUNTYNAME":"新竹市","TOWNNAME":"東區","MARKTYPE":"994","Class":"4"},"geometry":{"x":120.98120580843795,"y":24.80892377888242}},{"attributes":{"OBJECTID":25536,"LANDMARKID":"1001800000377","LANDMARKCO":"408","LANDMARKNA":"郵局-新竹東園郵局","LANDMARKAD":"1001801","ADDRESS":"新竹市忠孝路434巷3號","TEL":"(03)5263-320","COUNTYNAME":"新竹市","TOWNNAME":"東區","MARKTYPE":"994","Class":"4"},"geometry":{"x":120.9830564290523,"y":24.802920190613442}},{"attributes":{"OBJECTID":25537,"LANDMARKID":"1001800000378","LANDMARKCO":"408","LANDMARKNA":"郵局-新竹科學園郵局","LANDMARKAD":"1001801","ADDRESS":"新竹市工業東二路2-1號","TEL":"(03)5783-898","COUNTYNAME":"新竹市","TOWNNAME":"東區","MARKTYPE":"994","Class":"4"},"geometry":{"x":121.00464806678301,"y":24.779924793978985}},{"attributes":{"OBJECTID":25538,"LANDMARKID":"1001800000379","LANDMARKCO":"408","LANDMARKNA":"郵局-新竹南大路郵局","LANDMARKAD":"1001801","ADDRESS":"新竹市南大路621號","TEL":"(03)5257-104","COUNTYNAME":"新竹市","TOWNNAME":"東區","MARKTYPE":"994","Class":"4"},"geometry":{"x":120.96731317211491,"y":24.787947950756699}},{"attributes":{"OBJECTID":25539,"LANDMARKID":"1001800000380","LANDMARKCO":"408","LANDMARKNA":"郵局-新竹建中郵局","LANDMARKAD":"1001801","ADDRESS":"新竹市建中一路8號","TEL":"(03)5720-704","COUNTYNAME":"新竹市","TOWNNAME":"東區","MARKTYPE":"994","Class":"4"},"geometry":{"x":120.99415438377623,"y":24.800853294320437}},{"attributes":{"OBJECTID":25540,"LANDMARKID":"1001800000381","LANDMARKCO":"408","LANDMARKNA":"郵局-交通大學郵局","LANDMARKAD":"1001801","ADDRESS":"新竹市大學路1001號","TEL":"(03)5721-274","COUNTYNAME":"新竹市","TOWNNAME":"東區","MARKTYPE":"994","Class":"4"},"geometry":{"x":120.99788598062767,"y":24.787240088310242}},{"attributes":{"OBJECTID":25541,"LANDMARKID":"1001800000280","LANDMARKCO":"404","LANDMARKNA":"台灣自來水第三區管理處","LANDMARKAD":"1001801","ADDRESS":"新竹市博愛街1號","TEL":"03-5712140~3","COUNTYNAME":"新竹市","TOWNNAME":"東區","MARKTYPE":"994","Class":"4"},"geometry":{"x":120.98771370209862,"y":24.797155620456831}},{"attributes":{"OBJECTID":25542,"LANDMARKID":"1001800000281","LANDMARKCO":"404","LANDMARKNA":"台灣自來水新竹服務所","LANDMARKAD":"1001801","ADDRESS":"新竹市博愛街1號","TEL":"03-5714321","COUNTYNAME":"新竹市","TOWNNAME":"東區","MARKTYPE":"994","Class":"4"},"geometry":{"x":120.98771370209862,"y":24.797155620456831}},{"attributes":{"OBJECTID":25543,"LANDMARKID":"1001800000282","LANDMARKCO":"404","LANDMARKNA":"台灣自來水新竹給水廠","LANDMARKAD":"1001801","ADDRESS":"新竹市東美路91巷100號","TEL":"03-5733523","COUNTYNAME":"新竹市","TOWNNAME":"東區","MARKTYPE":"994","Class":"4"},"geometry":{"x":121.00160043463518,"y":24.802765422030948}},{"attributes":{"OBJECTID":25544,"LANDMARKID":"1001800000283","LANDMARKCO":"404","LANDMARKNA":"台灣省自來水新竹給水廠","LANDMARKAD":"1001801","ADDRESS":"新竹市東區東美路91巷100號","TEL":" ","COUNTYNAME":"新竹市","TOWNNAME":"東區","MARKTYPE":"994","Class":"4"},"geometry":{"x":120.98790458287272,"y":24.795073524849911}},{"attributes":{"OBJECTID":25545,"LANDMARKID":"1001800000284","LANDMARKCO":"404","LANDMARKNA":"台灣省自來水第三區新竹苗栗管理處","LANDMARKAD":"1001801","ADDRESS":"新竹市博愛街1號","TEL":" ","COUNTYNAME":"新竹市","TOWNNAME":"東區","MARKTYPE":"994","Class":"4"},"geometry":{"x":120.99007213079518,"y":24.798306432656823}},{"attributes":{"OBJECTID":25546,"LANDMARKID":"1001800000285","LANDMARKCO":"404","LANDMARKNA":"台灣省自來水新竹服務所","LANDMARKAD":"1001801","ADDRESS":"新竹市博愛街1號","TEL":" ","COUNTYNAME":"新竹市","TOWNNAME":"東區","MARKTYPE":"994","Class":"4"},"geometry":{"x":120.99007335419253,"y":24.798307606459435}},{"attributes":{"OBJECTID":25547,"LANDMARKID":"1001800000279","LANDMARKCO":"403","LANDMARKNA":"台灣電力公司新竹區營業處","LANDMARKAD":"1001801","ADDRESS":"新竹市東區中華路二段400號","TEL":" ","COUNTYNAME":"新竹市","TOWNNAME":"東區","MARKTYPE":"994","Class":"4"},"geometry":{"x":120.97286305762402,"y":24.80300606452159}},{"attributes":{"OBJECTID":25548,"LANDMARKID":"1001800000339","LANDMARKCO":"406","LANDMARKNA":"靈隱寺公園","LANDMARKAD":"1001801","ADDRESS":"新竹市東區","TEL":" ","COUNTYNAME":"新竹市","TOWNNAME":"東區","MARKTYPE":"994","Class":"4"},"geometry":{"x":120.97212990713096,"y":24.772687687960506}},{"attributes":{"OBJECTID":25549,"LANDMARKID":"1001800000340","LANDMARKCO":"406","LANDMARKNA":"苗圃公園","LANDMARKAD":"1001801","ADDRESS":"新竹市東區","TEL":" ","COUNTYNAME":"新竹市","TOWNNAME":"東區","MARKTYPE":"994","Class":"4"},"geometry":{"x":121.00454771493149,"y":24.785057982174038}},{"attributes":{"OBJECTID":25550,"LANDMARKID":"1001800000341","LANDMARKCO":"406","LANDMARKNA":"中央公園","LANDMARKAD":"1001801","ADDRESS":"新竹市東區","TEL":" ","COUNTYNAME":"新竹市","TOWNNAME":"東區","MARKTYPE":"994","Class":"4"},"geometry":{"x":120.97307093224526,"y":24.807937570854932}},{"attributes":{"OBJECTID":25551,"LANDMARKID":"1001800000342","LANDMARKCO":"406","LANDMARKNA":"三民公園","LANDMARKAD":"1001801","ADDRESS":"新竹市東區","TEL":" ","COUNTYNAME":"新竹市","TOWNNAME":"東區","MARKTYPE":"994","Class":"4"},"geometry":{"x":120.98092121901064,"y":24.811568097823816}},{"attributes":{"OBJECTID":25552,"LANDMARKID":"1001800000343","LANDMARKCO":"406","LANDMARKNA":"中山公園","LANDMARKAD":"1001801","ADDRESS":"新竹市東區","TEL":" ","COUNTYNAME":"新竹市","TOWNNAME":"東區","MARKTYPE":"994","Class":"4"},"geometry":{"x":120.9796484238679,"y":24.800819755343216}},{"attributes":{"OBJECTID":25553,"LANDMARKID":"1001800000344","LANDMARKCO":"406","LANDMARKNA":"忠孝公園","LANDMARKAD":"1001801","ADDRESS":"新竹市東區","TEL":" ","COUNTYNAME":"新竹市","TOWNNAME":"東區","MARKTYPE":"994","Class":"4"},"geometry":{"x":120.98307256419638,"y":24.803811135797467}},{"attributes":{"OBJECTID":25554,"LANDMARKID":"1001800000345","LANDMARKCO":"406","LANDMARKNA":"民族公園","LANDMARKAD":"1001801","ADDRESS":"新竹市東區","TEL":" ","COUNTYNAME":"新竹市","TOWNNAME":"東區","MARKTYPE":"994","Class":"4"},"geometry":{"x":120.97831972486722,"y":24.807666677594636}},{"attributes":{"OBJECTID":25555,"LANDMARKID":"1001800000346","LANDMARKCO":"406","LANDMARKNA":"光復公園","LANDMARKAD":"1001801","ADDRESS":"新竹市東區","TEL":" ","COUNTYNAME":"新竹市","TOWNNAME":"東區","MARKTYPE":"994","Class":"4"},"geometry":{"x":120.98588285866079,"y":24.802762830706449}},{"attributes":{"OBJECTID":25556,"LANDMARKID":"1001800000347","LANDMARKCO":"406","LANDMARKNA":"新興公園","LANDMARKAD":"1001801","ADDRESS":"新竹市東區","TEL":" ","COUNTYNAME":"新竹市","TOWNNAME":"東區","MARKTYPE":"994","Class":"4"},"geometry":{"x":120.96251189683069,"y":24.794705478350153}},{"attributes":{"OBJECTID":25557,"LANDMARKID":"1001800000348","LANDMARKCO":"406","LANDMARKNA":"綠地公園","LANDMARKAD":"1001801","ADDRESS":"新竹市東區","TEL":" ","COUNTYNAME":"新竹市","TOWNNAME":"東區","MARKTYPE":"994","Class":"4"},"geometry":{"x":121.01120382244025,"y":24.779681515805784}},{"attributes":{"OBJECTID":25558,"LANDMARKID":"1001800000349","LANDMARKCO":"406","LANDMARKNA":"榕樹公園","LANDMARKAD":"1001801","ADDRESS":"新竹市東區","TEL":" ","COUNTYNAME":"新竹市","TOWNNAME":"東區","MARKTYPE":"994","Class":"4"},"geometry":{"x":120.97177955176143,"y":24.774409475512329}},{"attributes":{"OBJECTID":25559,"LANDMARKID":"1001800000350","LANDMARKCO":"406","LANDMARKNA":"民享公園","LANDMARKAD":"1001801","ADDRESS":"新竹市東區","TEL":" ","COUNTYNAME":"新竹市","TOWNNAME":"東區","MARKTYPE":"994","Class":"4"},"geometry":{"x":121.0088326494221,"y":24.781772721945863}},{"attributes":{"OBJECTID":25560,"LANDMARKID":"1001800000351","LANDMARKCO":"406","LANDMARKNA":"親水公園","LANDMARKAD":"1001801","ADDRESS":"新竹市東區","TEL":" ","COUNTYNAME":"新竹市","TOWNNAME":"東區","MARKTYPE":"994","Class":"4"},"geometry":{"x":120.97082667043952,"y":24.806351704441319}},{"attributes":{"OBJECTID":25561,"LANDMARKID":"1001800000352","LANDMARKCO":"406","LANDMARKNA":"興學公園","LANDMARKAD":"1001801","ADDRESS":"新竹市東區","TEL":" ","COUNTYNAME":"新竹市","TOWNNAME":"東區","MARKTYPE":"994","Class":"4"},"geometry":{"x":120.96522841843284,"y":24.797579547442883}},{"attributes":{"OBJECTID":25562,"LANDMARKID":"1001800000353","LANDMARKCO":"406","LANDMARKNA":"長春公園","LANDMARKAD":"1001801","ADDRESS":"新竹市東區","TEL":" ","COUNTYNAME":"新竹市","TOWNNAME":"東區","MARKTYPE":"994","Class":"4"},"geometry":{"x":121.01618547078601,"y":24.788788050632235}},{"attributes":{"OBJECTID":25563,"LANDMARKID":"1001800000354","LANDMARKCO":"407","LANDMARKNA":"太平洋SOGO百貨-新竹店","LANDMARKAD":"1001801","ADDRESS":"新竹市民族路2號","TEL":"03-5227000","COUNTYNAME":"新竹市","TOWNNAME":"東區","MARKTYPE":"994","Class":"4"},"geometry":{"x":120.9718560973067,"y":24.802560867729827}},{"attributes":{"OBJECTID":25564,"LANDMARKID":"1001800000355","LANDMARKCO":"407","LANDMARKNA":"遠東百貨","LANDMARKAD":"1001801","ADDRESS":"新竹市西大路323號","TEL":"03-5233121","COUNTYNAME":"新竹市","TOWNNAME":"東區","MARKTYPE":"994","Class":"4"},"geometry":{"x":120.96521032094074,"y":24.802185976878196}},{"attributes":{"OBJECTID":25565,"LANDMARKID":"1001800000356","LANDMARKCO":"407","LANDMARKNA":"新光三越","LANDMARKAD":"1001801","ADDRESS":"新竹市中華路二段190號","TEL":"515-1888","COUNTYNAME":"新竹市","TOWNNAME":"東區","MARKTYPE":"994","Class":"4"},"geometry":{"x":120.97763395987225,"y":24.806331867341317}},{"attributes":{"OBJECTID":25566,"LANDMARKID":"1001800000357","LANDMARKCO":"407","LANDMARKNA":"風城購物中心","LANDMARKAD":"1001801","ADDRESS":"新竹市中央路233號","TEL":"03-5155252","COUNTYNAME":"新竹市","TOWNNAME":"東區","MARKTYPE":"994","Class":"4"},"geometry":{"x":120.97615837577879,"y":24.809712988338219}},{"attributes":{"OBJECTID":25567,"LANDMARKID":"1001800000358","LANDMARKCO":"407","LANDMARKNA":"誠品Eslite","LANDMARKAD":"1001801","ADDRESS":"新竹市信義街68號B1","TEL":"03-527-8907","COUNTYNAME":"新竹市","TOWNNAME":"東區","MARKTYPE":"994","Class":"4"},"geometry":{"x":120.97050876136719,"y":24.802984062288598}},{"attributes":{"OBJECTID":25568,"LANDMARKID":"1001800000359","LANDMARKCO":"407","LANDMARKNA":"誠品Eslite","LANDMARKAD":"1001801","ADDRESS":"新竹市民族路2號11F","TEL":"03-525-4538~41","COUNTYNAME":"新竹市","TOWNNAME":"東區","MARKTYPE":"994","Class":"4"},"geometry":{"x":120.9718560973067,"y":24.802560867729827}},{"attributes":{"OBJECTID":25569,"LANDMARKID":"1001800000286","LANDMARKCO":"405","LANDMARKNA":"全國加油站-新竹交流道站（台塑）","LANDMARKAD":"1001801","ADDRESS":"新竹市公道五路二段1號","TEL":"03-5679076","COUNTYNAME":"新竹市","TOWNNAME":"東區","MARKTYPE":"994","Class":"4"},"geometry":{"x":121.01292728872689,"y":24.795489006142116}},{"attributes":{"OBJECTID":25570,"LANDMARKID":"1001800000287","LANDMARKCO":"405","LANDMARKNA":"全國加油站-民生站（台塑）","LANDMARKAD":"1001801","ADDRESS":"新竹市民生路308號","TEL":"035-326861","COUNTYNAME":"新竹市","TOWNNAME":"東區","MARKTYPE":"994","Class":"4"},"geometry":{"x":120.97442363981349,"y":24.813784393634556}},{"attributes":{"OBJECTID":25571,"LANDMARKID":"1001800000288","LANDMARKCO":"405","LANDMARKNA":"全國加油站-明湖站（台塑）","LANDMARKAD":"1001801","ADDRESS":"新竹市明湖路361號","TEL":"03-5207331","COUNTYNAME":"新竹市","TOWNNAME":"東區","MARKTYPE":"994","Class":"4"},"geometry":{"x":120.96779727725777,"y":24.785694553262758}},{"attributes":{"OBJECTID":25572,"LANDMARKID":"1001800000289","LANDMARKCO":"405","LANDMARKNA":"全國加油站-園區站（台塑）","LANDMARKAD":"1001801","ADDRESS":"新竹市寶山路346號","TEL":"03-5626828","COUNTYNAME":"新竹市","TOWNNAME":"東區","MARKTYPE":"994","Class":"4"},"geometry":{"x":120.98543186679419,"y":24.787091802300072}},{"attributes":{"OBJECTID":25573,"LANDMARKID":"1001800000290","LANDMARKCO":"405","LANDMARKNA":"台亞加油站-公園站（台塑）","LANDMARKAD":"1001801","ADDRESS":"新竹市光復路二段585號","TEL":"(03)523-9769","COUNTYNAME":"新竹市","TOWNNAME":"東區","MARKTYPE":"994","Class":"4"},"geometry":{"x":120.9800694937378,"y":24.80313659614173}},{"attributes":{"OBJECTID":25574,"LANDMARKID":"1001800000291","LANDMARKCO":"405","LANDMARKNA":"台亞加油站-經國路一站（台塑）","LANDMARKAD":"1001801","ADDRESS":"新竹市經國路一段243號","TEL":"(03)535-7595","COUNTYNAME":"新竹市","TOWNNAME":"東區","MARKTYPE":"994","Class":"4"},"geometry":{"x":120.98515898449746,"y":24.814872126289945}},{"attributes":{"OBJECTID":25575,"LANDMARKID":"1001800000061","LANDMARKCO":"107","LANDMARKNA":"新竹市警察局關東橋派出所","LANDMARKAD":"1001801","ADDRESS":"新竹市介壽路200號","TEL":"035-775758","COUNTYNAME":"新竹市","TOWNNAME":"東區","MARKTYPE":"991","Class":"1"},"geometry":{"x":121.02099551872513,"y":24.781620616431358}},{"attributes":{"OBJECTID":25576,"LANDMARKID":"1001800000032","LANDMARKCO":"103","LANDMARKNA":"新竹市東區衛生所","LANDMARKAD":"1001801","ADDRESS":"新竹市民族路40號之2","TEL":"03-5236158","COUNTYNAME":"新竹市","TOWNNAME":"東區","MARKTYPE":"991","Class":"1"},"geometry":{"x":120.97341341125788,"y":24.805285914016412}},{"attributes":{"OBJECTID":25577,"LANDMARKID":"1001800000086","LANDMARKCO":"108","LANDMARKNA":"新竹市東區區公所","LANDMARKAD":"1001801","ADDRESS":"新竹市育賢里民族路40號","TEL":"035-218231","COUNTYNAME":"新竹市","TOWNNAME":"東區","MARKTYPE":"991","Class":"1"},"geometry":{"x":120.97341341125788,"y":24.805285914016412}},{"attributes":{"OBJECTID":25578,"LANDMARKID":"1001800000012","LANDMARKCO":"101","LANDMARKNA":"新竹憲兵隊","LANDMARKAD":"1001801","ADDRESS":"新竹市建功一路55號","TEL":"035-750269","COUNTYNAME":"新竹市","TOWNNAME":"東區","MARKTYPE":"991","Class":"1"},"geometry":{"x":120.99640546239132,"y":24.799945389994512}},{"attributes":{"OBJECTID":25579,"LANDMARKID":"1001800000062","LANDMARKCO":"107","LANDMARKNA":"嘉義縣消防局消防局第二消防大隊","LANDMARKAD":"1001801","ADDRESS":"新竹市光復路一段568號3樓","TEL":"035-630262","COUNTYNAME":"新竹市","TOWNNAME":"東區","MARKTYPE":"991","Class":"1"},"geometry":{"x":121.00786764668008,"y":24.789031794214377}},{"attributes":{"OBJECTID":25580,"LANDMARKID":"1001800000063","LANDMARKCO":"107","LANDMARKNA":"新竹市消防局消防局光復消防分局","LANDMARKAD":"1001801","ADDRESS":"新竹市光復路二段475號","TEL":"03-5234918","COUNTYNAME":"新竹市","TOWNNAME":"東區","MARKTYPE":"991","Class":"1"},"geometry":{"x":120.98275721603095,"y":24.802266540226412}},{"attributes":{"OBJECTID":25581,"LANDMARKID":"1001800000064","LANDMARKCO":"107","LANDMARKNA":"嘉義縣消防局消防局埔頂消防分隊","LANDMARKAD":"1001801","ADDRESS":"新竹市光復路一段568號","TEL":"035-790102","COUNTYNAME":"新竹市","TOWNNAME":"東區","MARKTYPE":"991","Class":"1"},"geometry":{"x":121.00786764668008,"y":24.789031794214377}},{"attributes":{"OBJECTID":25582,"LANDMARKID":"1001800000065","LANDMARKCO":"107","LANDMARKNA":"新竹市消防局消防局三民消防分局","LANDMARKAD":"1001801","ADDRESS":"新竹市經國路一段486號","TEL":"03-5437807","COUNTYNAME":"新竹市","TOWNNAME":"東區","MARKTYPE":"991","Class":"1"},"geometry":{"x":120.97747269051349,"y":24.814707571431562}},{"attributes":{"OBJECTID":25583,"LANDMARKID":"1001800000066","LANDMARKCO":"107","LANDMARKNA":"新竹市警察局第二分局","LANDMARKAD":"1001801","ADDRESS":"新竹市光復路二段798號","TEL":"035-728750","COUNTYNAME":"新竹市","TOWNNAME":"東區","MARKTYPE":"991","Class":"1"},"geometry":{"x":120.98600763929274,"y":24.801609239155301}},{"attributes":{"OBJECTID":25584,"LANDMARKID":"1001800000067","LANDMARKCO":"107","LANDMARKNA":"新竹市警察局文華派出所","LANDMARKAD":"1001801","ADDRESS":"新竹市經國路一段488號","TEL":"035-332120","COUNTYNAME":"新竹市","TOWNNAME":"東區","MARKTYPE":"991","Class":"1"},"geometry":{"x":120.97711668039558,"y":24.814684260603052}},{"attributes":{"OBJECTID":25585,"LANDMARKID":"1001800000068","LANDMARKCO":"107","LANDMARKNA":"新竹市警察局埔頂派出所","LANDMARKAD":"1001801","ADDRESS":"新竹市光復路一段568號","TEL":"035-773999","COUNTYNAME":"新竹市","TOWNNAME":"東區","MARKTYPE":"991","Class":"1"},"geometry":{"x":121.00786764668008,"y":24.789031794214377}},{"attributes":{"OBJECTID":25586,"LANDMARKID":"1001800000069","LANDMARKCO":"107","LANDMARKNA":"新竹市警察局東勢派出所","LANDMARKAD":"1001801","ADDRESS":"新竹市光復路二段798號","TEL":"035-728758","COUNTYNAME":"新竹市","TOWNNAME":"東區","MARKTYPE":"991","Class":"1"},"geometry":{"x":120.98600763929274,"y":24.801609239155301}},{"attributes":{"OBJECTID":25587,"LANDMARKID":"1001800000070","LANDMARKCO":"107","LANDMARKNA":"新竹市警察局東門派出所","LANDMARKAD":"1001801","ADDRESS":"新竹市東門街87號","TEL":"035-222607","COUNTYNAME":"新竹市","TOWNNAME":"東區","MARKTYPE":"991","Class":"1"},"geometry":{"x":120.96981958618186,"y":24.804122566521851}},{"attributes":{"OBJECTID":25588,"LANDMARKID":"1001800000071","LANDMARKCO":"107","LANDMARKNA":"新竹市警察局青草湖派出所","LANDMARKAD":"1001801","ADDRESS":"新竹市明湖路666號","TEL":"035-201563","COUNTYNAME":"新竹市","TOWNNAME":"東區","MARKTYPE":"991","Class":"1"},"geometry":{"x":120.96640039821783,"y":24.774052561307148}},{"attributes":{"OBJECTID":25589,"LANDMARKID":"1001800000072","LANDMARKCO":"107","LANDMARKNA":"新竹市警察局南門派出所","LANDMARKAD":"1001801","ADDRESS":"新竹市勝利路85號","TEL":"03-5222224","COUNTYNAME":"新竹市","TOWNNAME":"東區","MARKTYPE":"991","Class":"1"},"geometry":{"x":120.96756387456202,"y":24.800236838686033}},{"attributes":{"OBJECTID":25590,"LANDMARKID":"1001800000052","LANDMARKCO":"106","LANDMARKNA":"新竹市東區戶政事務所","LANDMARKAD":"1001801","ADDRESS":"新竹市民族路40之1號","TEL":"035-226020","COUNTYNAME":"新竹市","TOWNNAME":"東區","MARKTYPE":"991","Class":"1"},"geometry":{"x":120.97318200309758,"y":24.805162590553266}},{"attributes":{"OBJECTID":25591,"LANDMARKID":"1001800000013","LANDMARKCO":"101","LANDMARKNA":"新竹區監理所新竹市監理站","LANDMARKAD":"1001801","ADDRESS":"新竹市自由路10號","TEL":"035-327101","COUNTYNAME":"新竹市","TOWNNAME":"東區","MARKTYPE":"991","Class":"1"},"geometry":{"x":120.98283918991869,"y":24.810835348686258}},{"attributes":{"OBJECTID":25592,"LANDMARKID":"1001800000046","LANDMARKCO":"104","LANDMARKNA":"北區國稅局新竹市分局中央路辦","LANDMARKAD":"1001801","ADDRESS":"新竹市中央路112號6樓","TEL":"03-5336060","COUNTYNAME":"新竹市","TOWNNAME":"東區","MARKTYPE":"991","Class":"1"},"geometry":{"x":120.96988125527773,"y":24.806234565829399}},{"attributes":{"OBJECTID":25593,"LANDMARKID":"1001800000024","LANDMARKCO":"101","LANDMARKNA":"科學工業園區管理局","LANDMARKAD":"1001801","ADDRESS":"新竹市新安路2號","TEL":"035-773311","COUNTYNAME":"新竹市","TOWNNAME":"東區","MARKTYPE":"991","Class":"1"},"geometry":{"x":121.00468956360648,"y":24.782114237919}},{"attributes":{"OBJECTID":25594,"LANDMARKID":"1001800000048","LANDMARKCO":"104","LANDMARKNA":"關稅總局台北關稅局新竹科學園區","LANDMARKAD":"1001801","ADDRESS":"新竹市工業東七路8號1樓","TEL":"035-639511","COUNTYNAME":"新竹市","TOWNNAME":"東區","MARKTYPE":"991","Class":"1"},"geometry":{"x":121.01148028592004,"y":24.775615159040751}},{"attributes":{"OBJECTID":25595,"LANDMARKID":"1001800000014","LANDMARKCO":"101","LANDMARKNA":"經濟部專業人員研究中心","LANDMARKAD":"1001801","ADDRESS":"新竹市光復路二段3號1樓","TEL":"035-714125","COUNTYNAME":"新竹市","TOWNNAME":"東區","MARKTYPE":"991","Class":"1"},"geometry":{"x":120.99014855684995,"y":24.797881824091711}},{"attributes":{"OBJECTID":25596,"LANDMARKID":"1001800000015","LANDMARKCO":"101","LANDMARKNA":"國軍退除役官兵輔導委員會","LANDMARKAD":"1001801","ADDRESS":"新竹市建功二路61號","TEL":"03-5750666","COUNTYNAME":"新竹市","TOWNNAME":"東區","MARKTYPE":"991","Class":"1"},"geometry":{"x":121.00261864508519,"y":24.799149815019653}},{"attributes":{"OBJECTID":25597,"LANDMARKID":"1001800000016","LANDMARKCO":"101","LANDMARKNA":"國家科學委員會精密儀器發展中","LANDMARKAD":"1001801","ADDRESS":"新竹市研發六路20號","TEL":"035-779911","COUNTYNAME":"新竹市","TOWNNAME":"東區","MARKTYPE":"991","Class":"1"},"geometry":{"x":120.99643944034743,"y":24.782043141349018}},{"attributes":{"OBJECTID":25598,"LANDMARKID":"1001800000031","LANDMARKCO":"103","LANDMARKNA":"新竹市勞工育樂中心","LANDMARKAD":"1001801","ADDRESS":"新竹市田美三街2號2樓","TEL":"035-338672","COUNTYNAME":"新竹市","TOWNNAME":"東區","MARKTYPE":"991","Class":"1"},"geometry":{"x":120.97705310849885,"y":24.814858222178103}},{"attributes":{"OBJECTID":25599,"LANDMARKID":"1001800000017","LANDMARKCO":"101","LANDMARKNA":"國有財產局台灣中區辦事處新竹分處","LANDMARKAD":"1001801","ADDRESS":"新竹市北大路94號","TEL":"03-5422104","COUNTYNAME":"新竹市","TOWNNAME":"東區","MARKTYPE":"991","Class":"1"},"geometry":{"x":120.97036441729773,"y":24.81137709591135}},{"attributes":{"OBJECTID":25600,"LANDMARKID":"1001800000018","LANDMARKCO":"101","LANDMARKNA":"農業委員會動植物防疫檢疫局","LANDMARKAD":"1001801","ADDRESS":"新竹市民族路111號","TEL":"03-5331378","COUNTYNAME":"新竹市","TOWNNAME":"東區","MARKTYPE":"991","Class":"1"},"geometry":{"x":120.97692473999801,"y":24.807932785990889}}]}