{"displayFieldName":"COUNTYNAME","fieldAliases":{"OBJECTID":"OBJECTID","LANDMARKID":"LANDMARKID","LANDMARKCO":"LANDMARKCO","LANDMARKNA":"LANDMARKNA","LANDMARKAD":"LANDMARKAD","ADDRESS":"ADDRESS","TEL":"TEL","COUNTYNAME":"COUNTYNAME","TOWNNAME":"TOWNNAME","MARKTYPE":"MARKTYPE","Class":"Class"},"geometryType":"esriGeometryPoint","spatialReference":{"wkid":4326},"fields":[{"name":"OBJECTID","type":"esriFieldTypeOID","alias":"OBJECTID"},{"name":"LANDMARKID","type":"esriFieldTypeString","alias":"LANDMARKID","length":15},{"name":"LANDMARKCO","type":"esriFieldTypeString","alias":"LANDMARKCO","length":15},{"name":"LANDMARKNA","type":"esriFieldTypeString","alias":"LANDMARKNA","length":50},{"name":"LANDMARKAD","type":"esriFieldTypeString","alias":"LANDMARKAD","length":15},{"name":"ADDRESS","type":"esriFieldTypeString","alias":"ADDRESS","length":56},{"name":"TEL","type":"esriFieldTypeString","alias":"TEL","length":36},{"name":"COUNTYNAME","type":"esriFieldTypeString","alias":"COUNTYNAME","length":15},{"name":"TOWNNAME","type":"esriFieldTypeString","alias":"TOWNNAME","length":13},{"name":"MARKTYPE","type":"esriFieldTypeString","alias":"MARKTYPE","length":12},{"name":"Class","type":"esriFieldTypeString","alias":"Class","length":5}],"features":[{"attributes":{"OBJECTID":1401,"LANDMARKID":"1000300001293","LANDMARKCO":"408","LANDMARKNA":"郵局-桃園中路郵局","LANDMARKAD":"1000301","ADDRESS":"桃園縣桃園市壽昌街20巷27-1號及27-2號","TEL":"(03)2202-871","COUNTYNAME":"桃園市","TOWNNAME":"桃園區","MARKTYPE":"994","Class":"4"},"geometry":{"x":121.29297249571749,"y":24.98969154501296}},{"attributes":{"OBJECTID":1402,"LANDMARKID":"1000300001294","LANDMARKCO":"408","LANDMARKNA":"郵局-桃園水汴頭郵局","LANDMARKAD":"1000301","ADDRESS":"桃園縣桃園市春日路1360號","TEL":"(03)3251-039","COUNTYNAME":"桃園市","TOWNNAME":"桃園區","MARKTYPE":"994","Class":"4"},"geometry":{"x":121.30592440436801,"y":25.026701337310833}},{"attributes":{"OBJECTID":1403,"LANDMARKID":"1000300001295","LANDMARKCO":"408","LANDMARKNA":"郵局-桃園福林郵局","LANDMARKAD":"1000301","ADDRESS":"桃園縣桃園市介壽路316號","TEL":"(03)3616-942","COUNTYNAME":"桃園市","TOWNNAME":"桃園區","MARKTYPE":"994","Class":"4"},"geometry":{"x":121.30655235797182,"y":24.981268370559921}},{"attributes":{"OBJECTID":1404,"LANDMARKID":"1000300001296","LANDMARKCO":"408","LANDMARKNA":"郵局-桃園永安郵局","LANDMARKAD":"1000301","ADDRESS":"桃園縣桃園市永安路365號","TEL":"(03)3338-620","COUNTYNAME":"桃園市","TOWNNAME":"桃園區","MARKTYPE":"994","Class":"4"},"geometry":{"x":121.29977147746804,"y":25.000039949404414}},{"attributes":{"OBJECTID":1405,"LANDMARKID":"1000300001297","LANDMARKCO":"408","LANDMARKNA":"郵局-桃園桃鶯郵局","LANDMARKAD":"1000301","ADDRESS":"桃園縣桃園市桃鶯路354號","TEL":"(03)3622-243","COUNTYNAME":"桃園市","TOWNNAME":"桃園區","MARKTYPE":"994","Class":"4"},"geometry":{"x":121.32217300232529,"y":24.97796329612412}},{"attributes":{"OBJECTID":1406,"LANDMARKID":"1000300001298","LANDMARKCO":"408","LANDMARKNA":"郵局-桃園大業郵局","LANDMARKAD":"1000301","ADDRESS":"桃園縣桃園市大業路1段372號","TEL":"(03)3588-316","COUNTYNAME":"桃園市","TOWNNAME":"桃園區","MARKTYPE":"994","Class":"4"},"geometry":{"x":121.3122927455229,"y":25.01325231083888}},{"attributes":{"OBJECTID":1407,"LANDMARKID":"1000300001299","LANDMARKCO":"408","LANDMARKNA":"郵局-桃園建國郵局","LANDMARKAD":"1000301","ADDRESS":"桃園縣桃園市建國路156-8號","TEL":"(03)3628-380","COUNTYNAME":"桃園市","TOWNNAME":"桃園區","MARKTYPE":"994","Class":"4"},"geometry":{"x":121.30979490632284,"y":24.985332449603845}},{"attributes":{"OBJECTID":1408,"LANDMARKID":"1000300001300","LANDMARKCO":"408","LANDMARKNA":"郵局-桃園府前郵局","LANDMARKAD":"1000301","ADDRESS":"桃園縣桃園市縣府路326、328、330號","TEL":"(03)3389-165","COUNTYNAME":"桃園市","TOWNNAME":"桃園區","MARKTYPE":"994","Class":"4"},"geometry":{"x":121.30076636211079,"y":24.992226531923983}},{"attributes":{"OBJECTID":1409,"LANDMARKID":"1000300001301","LANDMARKCO":"408","LANDMARKNA":"郵局-桃園慈文郵局","LANDMARKAD":"1000301","ADDRESS":"桃園縣桃園市中正路1214、1216號","TEL":"(03)3552-745","COUNTYNAME":"桃園市","TOWNNAME":"桃園區","MARKTYPE":"994","Class":"4"},"geometry":{"x":121.2976093652926,"y":25.018477305103701}},{"attributes":{"OBJECTID":1410,"LANDMARKID":"1000300001395","LANDMARKCO":"409","LANDMARKNA":"桃園縣桃園市農會","LANDMARKAD":"1000301","ADDRESS":"桃園縣桃園市新生路165號","TEL":"03-3364026","COUNTYNAME":"桃園市","TOWNNAME":"桃園區","MARKTYPE":"994","Class":"4"},"geometry":{"x":121.30784809856816,"y":24.996097328775697}},{"attributes":{"OBJECTID":1411,"LANDMARKID":"1000300001396","LANDMARKCO":"409","LANDMARKNA":"桃園魚市場","LANDMARKAD":"1000301","ADDRESS":"桃園市文化街52號","TEL":"03-3347541　","COUNTYNAME":"桃園市","TOWNNAME":"桃園區","MARKTYPE":"994","Class":"4"},"geometry":{"x":121.30704188858854,"y":24.991662020129525}},{"attributes":{"OBJECTID":1412,"LANDMARKID":"1000300000932","LANDMARKCO":"404","LANDMARKNA":"台灣省自來水桃園服務所","LANDMARKAD":"1000301","ADDRESS":"桃園縣桃園市中山路291號","TEL":" ","COUNTYNAME":"桃園市","TOWNNAME":"桃園區","MARKTYPE":"994","Class":"4"},"geometry":{"x":121.30442496852487,"y":24.991976297935921}},{"attributes":{"OBJECTID":1413,"LANDMARKID":"1000300000933","LANDMARKCO":"404","LANDMARKNA":"台灣省自來水大湳給水廠","LANDMARKAD":"1000301","ADDRESS":"桃園縣桃園市國際路一段485巷101號","TEL":" ","COUNTYNAME":"桃園市","TOWNNAME":"桃園區","MARKTYPE":"994","Class":"4"},"geometry":{"x":121.28660722293284,"y":25.009304162921747}},{"attributes":{"OBJECTID":1414,"LANDMARKID":"1000300000931","LANDMARKCO":"403","LANDMARKNA":"台灣電力公司桃園區營業處","LANDMARKAD":"1000301","ADDRESS":"桃園縣桃園市復興路352號","TEL":" ","COUNTYNAME":"桃園市","TOWNNAME":"桃園區","MARKTYPE":"994","Class":"4"},"geometry":{"x":121.30499980997375,"y":24.989725766740918}},{"attributes":{"OBJECTID":1415,"LANDMARKID":"1000300001212","LANDMARKCO":"406","LANDMARKNA":"休閒運動公園","LANDMARKAD":"1000301","ADDRESS":"桃園縣桃園市","TEL":" ","COUNTYNAME":"桃園市","TOWNNAME":"桃園區","MARKTYPE":"994","Class":"4"},"geometry":{"x":121.28903163430883,"y":24.965808816544385}},{"attributes":{"OBJECTID":1416,"LANDMARKID":"1000300001213","LANDMARKCO":"406","LANDMARKNA":"南通社區公園","LANDMARKAD":"1000301","ADDRESS":"桃園縣桃園市","TEL":" ","COUNTYNAME":"桃園市","TOWNNAME":"桃園區","MARKTYPE":"994","Class":"4"},"geometry":{"x":121.30597507842215,"y":25.020092606312616}},{"attributes":{"OBJECTID":1417,"LANDMARKID":"1000300001214","LANDMARKCO":"406","LANDMARKNA":"公五公園","LANDMARKAD":"1000301","ADDRESS":"桃園縣桃園市","TEL":" ","COUNTYNAME":"桃園市","TOWNNAME":"桃園區","MARKTYPE":"994","Class":"4"},"geometry":{"x":121.30654809444329,"y":24.995992797365592}},{"attributes":{"OBJECTID":1418,"LANDMARKID":"1000300001215","LANDMARKCO":"406","LANDMARKNA":"忠孝兒童公園","LANDMARKAD":"1000301","ADDRESS":"桃園縣桃園市","TEL":" ","COUNTYNAME":"桃園市","TOWNNAME":"桃園區","MARKTYPE":"994","Class":"4"},"geometry":{"x":121.29507754291741,"y":24.985905953361787}},{"attributes":{"OBJECTID":1419,"LANDMARKID":"1000300001216","LANDMARKCO":"406","LANDMARKNA":"仁愛兒童公園","LANDMARKAD":"1000301","ADDRESS":"桃園縣桃園市","TEL":" ","COUNTYNAME":"桃園市","TOWNNAME":"桃園區","MARKTYPE":"994","Class":"4"},"geometry":{"x":121.29113601373717,"y":24.98552702663277}},{"attributes":{"OBJECTID":1420,"LANDMARKID":"1000300001217","LANDMARKCO":"406","LANDMARKNA":"文昌公園","LANDMARKAD":"1000301","ADDRESS":"桃園縣桃園市","TEL":" ","COUNTYNAME":"桃園市","TOWNNAME":"桃園區","MARKTYPE":"994","Class":"4"},"geometry":{"x":121.31015408767765,"y":24.99283999825461}},{"attributes":{"OBJECTID":1421,"LANDMARKID":"1000300001218","LANDMARKCO":"406","LANDMARKNA":"中正紀念公園","LANDMARKAD":"1000301","ADDRESS":"桃園縣桃園市","TEL":" ","COUNTYNAME":"桃園市","TOWNNAME":"桃園區","MARKTYPE":"994","Class":"4"},"geometry":{"x":121.32976020399192,"y":25.00119400084661}},{"attributes":{"OBJECTID":1422,"LANDMARKID":"1000300001219","LANDMARKCO":"406","LANDMARKNA":"福安公園","LANDMARKAD":"1000301","ADDRESS":"桃園縣桃園市","TEL":" ","COUNTYNAME":"桃園市","TOWNNAME":"桃園區","MARKTYPE":"994","Class":"4"},"geometry":{"x":121.31279313402449,"y":24.986333956567432}},{"attributes":{"OBJECTID":1423,"LANDMARKID":"1000300001220","LANDMARKCO":"406","LANDMARKNA":"東平公園","LANDMARKAD":"1000301","ADDRESS":"桃園縣桃園市","TEL":" ","COUNTYNAME":"桃園市","TOWNNAME":"桃園區","MARKTYPE":"994","Class":"4"},"geometry":{"x":121.32306031392123,"y":25.009209196649472}},{"attributes":{"OBJECTID":1424,"LANDMARKID":"1000300001221","LANDMARKCO":"406","LANDMARKNA":"兒童公園","LANDMARKAD":"1000301","ADDRESS":"桃園縣桃園市","TEL":" ","COUNTYNAME":"桃園市","TOWNNAME":"桃園區","MARKTYPE":"994","Class":"4"},"geometry":{"x":121.31568819659287,"y":25.013853639185349}},{"attributes":{"OBJECTID":1425,"LANDMARKID":"1000300001222","LANDMARKCO":"406","LANDMARKNA":"大會溪公園","LANDMARKAD":"1000301","ADDRESS":"桃園縣桃園市","TEL":" ","COUNTYNAME":"桃園市","TOWNNAME":"桃園區","MARKTYPE":"994","Class":"4"},"geometry":{"x":121.31618700723543,"y":25.0140497687077}},{"attributes":{"OBJECTID":1426,"LANDMARKID":"1000300001223","LANDMARKCO":"406","LANDMARKNA":"同新公園","LANDMARKAD":"1000301","ADDRESS":"桃園縣桃園市","TEL":" ","COUNTYNAME":"桃園市","TOWNNAME":"桃園區","MARKTYPE":"994","Class":"4"},"geometry":{"x":121.30598481066177,"y":25.012154801655388}},{"attributes":{"OBJECTID":1427,"LANDMARKID":"1000300001224","LANDMARKCO":"406","LANDMARKNA":"親子公園","LANDMARKAD":"1000301","ADDRESS":"桃園縣桃園市","TEL":" ","COUNTYNAME":"桃園市","TOWNNAME":"桃園區","MARKTYPE":"994","Class":"4"},"geometry":{"x":121.30188362358233,"y":25.017313573939639}},{"attributes":{"OBJECTID":1428,"LANDMARKID":"1000300001225","LANDMARKCO":"406","LANDMARKNA":"莊敬環保公園","LANDMARKAD":"1000301","ADDRESS":"桃園縣桃園市","TEL":" ","COUNTYNAME":"桃園市","TOWNNAME":"桃園區","MARKTYPE":"994","Class":"4"},"geometry":{"x":121.30196836270439,"y":25.026397167443736}},{"attributes":{"OBJECTID":1429,"LANDMARKID":"1000300001226","LANDMARKCO":"406","LANDMARKNA":"同德公園","LANDMARKAD":"1000301","ADDRESS":"桃園縣桃園市","TEL":" ","COUNTYNAME":"桃園市","TOWNNAME":"桃園區","MARKTYPE":"994","Class":"4"},"geometry":{"x":121.29340135994437,"y":25.019318774019641}},{"attributes":{"OBJECTID":1430,"LANDMARKID":"1000300001227","LANDMARKCO":"406","LANDMARKNA":"延平公園","LANDMARKAD":"1000301","ADDRESS":"桃園縣桃園市","TEL":" ","COUNTYNAME":"桃園市","TOWNNAME":"桃園區","MARKTYPE":"994","Class":"4"},"geometry":{"x":121.31566823756668,"y":24.981030860526715}},{"attributes":{"OBJECTID":1431,"LANDMARKID":"1000300001228","LANDMARKCO":"406","LANDMARKNA":"陽明公園","LANDMARKAD":"1000301","ADDRESS":"桃園縣桃園市","TEL":" ","COUNTYNAME":"桃園市","TOWNNAME":"桃園區","MARKTYPE":"994","Class":"4"},"geometry":{"x":121.3095722721324,"y":24.98126866763111}},{"attributes":{"OBJECTID":1432,"LANDMARKID":"1000300001229","LANDMARKCO":"406","LANDMARKNA":"霖園兒童公園","LANDMARKAD":"1000301","ADDRESS":"桃園縣桃園市","TEL":" ","COUNTYNAME":"桃園市","TOWNNAME":"桃園區","MARKTYPE":"994","Class":"4"},"geometry":{"x":121.28764064731722,"y":24.986279739038874}},{"attributes":{"OBJECTID":1433,"LANDMARKID":"1000300001280","LANDMARKCO":"407","LANDMARKNA":"小北百貨","LANDMARKAD":"1000301","ADDRESS":"桃園縣桃園市大有路620號","TEL":"(03)2629321???","COUNTYNAME":"桃園市","TOWNNAME":"桃園區","MARKTYPE":"994","Class":"4"},"geometry":{"x":121.31719644038651,"y":25.01522794946829}},{"attributes":{"OBJECTID":1434,"LANDMARKID":"1000300001281","LANDMARKCO":"407","LANDMARKNA":"新光三越","LANDMARKAD":"1000301","ADDRESS":"桃園縣桃園市大有路189號","TEL":"331-8888","COUNTYNAME":"桃園市","TOWNNAME":"桃園區","MARKTYPE":"994","Class":"4"},"geometry":{"x":121.32027675326106,"y":25.008148584403223}},{"attributes":{"OBJECTID":1435,"LANDMARKID":"1000300001282","LANDMARKCO":"407","LANDMARKNA":"統領百貨桃園店","LANDMARKAD":"1000301","ADDRESS":"桃園縣桃園市中正路61號","TEL":" ","COUNTYNAME":"桃園市","TOWNNAME":"桃園區","MARKTYPE":"994","Class":"4"},"geometry":{"x":121.31257552604185,"y":24.99108666485332}},{"attributes":{"OBJECTID":1436,"LANDMARKID":"1000300001283","LANDMARKCO":"407","LANDMARKNA":"新光三越","LANDMARKAD":"1000301","ADDRESS":"桃園縣桃園市中正路19號","TEL":"250-0888","COUNTYNAME":"桃園市","TOWNNAME":"桃園區","MARKTYPE":"994","Class":"4"},"geometry":{"x":121.31239200095901,"y":24.989688040882182}},{"attributes":{"OBJECTID":1437,"LANDMARKID":"1000300001284","LANDMARKCO":"407","LANDMARKNA":"遠東百貨","LANDMARKAD":"1000301","ADDRESS":"桃園縣桃園市中正路20號","TEL":" ","COUNTYNAME":"桃園市","TOWNNAME":"桃園區","MARKTYPE":"994","Class":"4"},"geometry":{"x":121.31390205106842,"y":24.989689775490383}},{"attributes":{"OBJECTID":1438,"LANDMARKID":"1000300001285","LANDMARKCO":"407","LANDMARKNA":"誠品Eslite","LANDMARKAD":"1000301","ADDRESS":"桃園市中正路20號B1","TEL":"03-339-0983","COUNTYNAME":"桃園市","TOWNNAME":"桃園區","MARKTYPE":"994","Class":"4"},"geometry":{"x":121.31390205106842,"y":24.989689775490383}},{"attributes":{"OBJECTID":1439,"LANDMARKID":"1000300001286","LANDMARKCO":"407","LANDMARKNA":"誠品Eslite","LANDMARKAD":"1000301","ADDRESS":"桃園市中正路61號8F","TEL":"03-337-3993","COUNTYNAME":"桃園市","TOWNNAME":"桃園區","MARKTYPE":"994","Class":"4"},"geometry":{"x":121.31257552604185,"y":24.99108666485332}},{"attributes":{"OBJECTID":1440,"LANDMARKID":"1000300001171","LANDMARKCO":"405","LANDMARKNA":"全國加油站-大興西路站（台塑）","LANDMARKAD":"1000301","ADDRESS":"桃園縣桃園市大興西路二段324號","TEL":"03-3014616","COUNTYNAME":"桃園市","TOWNNAME":"桃園區","MARKTYPE":"994","Class":"4"},"geometry":{"x":121.29396663946342,"y":25.008484553925776}},{"attributes":{"OBJECTID":1441,"LANDMARKID":"1000300001172","LANDMARKCO":"405","LANDMARKNA":"台塑加油站-桃園大吉站(台塑)","LANDMARKAD":"1000301","ADDRESS":"桃園縣桃園市大興西路三段170號","TEL":"03-3012168","COUNTYNAME":"桃園市","TOWNNAME":"桃園區","MARKTYPE":"994","Class":"4"},"geometry":{"x":121.28914563821941,"y":25.004435305191475}},{"attributes":{"OBJECTID":1442,"LANDMARKID":"1000300001173","LANDMARKCO":"405","LANDMARKNA":"台塑加油站-桃園大利站(台塑)","LANDMARKAD":"1000301","ADDRESS":"桃園縣桃園市大興西路三段171號","TEL":"03-3012168","COUNTYNAME":"桃園市","TOWNNAME":"桃園區","MARKTYPE":"994","Class":"4"},"geometry":{"x":121.28926283318972,"y":25.004073715887021}},{"attributes":{"OBJECTID":1443,"LANDMARKID":"1000300001174","LANDMARKCO":"405","LANDMARKNA":"全國加油站-春日路站（台塑）","LANDMARKAD":"1000301","ADDRESS":"桃園縣桃園市春日路561號","TEL":"03-3333704","COUNTYNAME":"桃園市","TOWNNAME":"桃園區","MARKTYPE":"994","Class":"4"},"geometry":{"x":121.31258692100045,"y":25.004565863292061}},{"attributes":{"OBJECTID":1444,"LANDMARKID":"1000300001175","LANDMARKCO":"405","LANDMARKNA":"全國加油站-桃園站（台塑）","LANDMARKAD":"1000301","ADDRESS":"桃園縣桃園市桃鶯路62號","TEL":"03-3764646","COUNTYNAME":"桃園市","TOWNNAME":"桃園區","MARKTYPE":"994","Class":"4"},"geometry":{"x":121.31783956285362,"y":24.986950139744554}},{"attributes":{"OBJECTID":1445,"LANDMARKID":"1000300001176","LANDMARKCO":"405","LANDMARKNA":"全國加油站-桃園交流道","LANDMARKAD":"1000301","ADDRESS":"桃園縣桃園市經國路822號","TEL":"03-3163088","COUNTYNAME":"桃園市","TOWNNAME":"桃園區","MARKTYPE":"994","Class":"4"},"geometry":{"x":121.30094156398903,"y":25.030411958130962}},{"attributes":{"OBJECTID":1446,"LANDMARKID":"1000300001177","LANDMARKCO":"405","LANDMARKNA":"台亞加油站-永安路站（台塑）","LANDMARKAD":"1000301","ADDRESS":"桃園縣桃園市永安路1061號之1","TEL":"(03)341-3558","COUNTYNAME":"桃園市","TOWNNAME":"桃園區","MARKTYPE":"994","Class":"4"},"geometry":{"x":121.28335146169553,"y":25.00832909475773}},{"attributes":{"OBJECTID":1447,"LANDMARKID":"1000300001178","LANDMARKCO":"405","LANDMARKNA":"台亞加油站-桃鶯站（台塑）","LANDMARKAD":"1000301","ADDRESS":"桃園縣桃園市桃鶯路402號","TEL":"(03)361-5156","COUNTYNAME":"桃園市","TOWNNAME":"桃園區","MARKTYPE":"994","Class":"4"},"geometry":{"x":121.32324499435056,"y":24.97511168645185}},{"attributes":{"OBJECTID":1448,"LANDMARKID":"1000300001179","LANDMARKCO":"405","LANDMARKNA":"台亞加油站-桃園國際路站（台塑）","LANDMARKAD":"1000301","ADDRESS":"桃園縣桃園市國際路一段895號","TEL":"(03)367-1167","COUNTYNAME":"桃園市","TOWNNAME":"桃園區","MARKTYPE":"994","Class":"4"},"geometry":{"x":121.28920961587123,"y":24.981593413129914}},{"attributes":{"OBJECTID":1449,"LANDMARKID":"1000300001180","LANDMARKCO":"405","LANDMARKNA":"西歐加油站-桃一站（台塑）","LANDMARKAD":"1000301","ADDRESS":"桃園縣桃園市國際路二段333號","TEL":"03-3690554","COUNTYNAME":"桃園市","TOWNNAME":"桃園區","MARKTYPE":"994","Class":"4"},"geometry":{"x":121.28784329363683,"y":24.998566587567552}},{"attributes":{"OBJECTID":1450,"LANDMARKID":"1000300001181","LANDMARKCO":"405","LANDMARKNA":"全國加油站-桃園中正站(台塑)","LANDMARKAD":"1000301","ADDRESS":"桃園縣桃園市中正路1511號","TEL":"03-3171827","COUNTYNAME":"桃園市","TOWNNAME":"桃園區","MARKTYPE":"994","Class":"4"},"geometry":{"x":121.29862890973536,"y":25.015505260985403}},{"attributes":{"OBJECTID":1451,"LANDMARKID":"1000300001182","LANDMARKCO":"405","LANDMARKNA":"全國加油站-大溪介壽站(台塑)","LANDMARKAD":"1000301","ADDRESS":"桃園縣大溪鎮介壽路300號","TEL":"03-3807808","COUNTYNAME":"桃園市","TOWNNAME":"桃園區","MARKTYPE":"994","Class":"4"},"geometry":{"x":121.30684390314089,"y":24.981725428071446}},{"attributes":{"OBJECTID":1452,"LANDMARKID":"1000300000199","LANDMARKCO":"107","LANDMARKNA":"桃園縣政府警察局中路派出所","LANDMARKAD":"1000301","ADDRESS":"桃園縣桃園市縣府路51號1樓","TEL":"03-3357385","COUNTYNAME":"桃園市","TOWNNAME":"桃園區","MARKTYPE":"991","Class":"1"},"geometry":{"x":121.29390155672334,"y":24.991331043019272}},{"attributes":{"OBJECTID":1453,"LANDMARKID":"1000300000007","LANDMARKCO":"101","LANDMARKNA":"新竹區監理所桃園監理站","LANDMARKAD":"1000301","ADDRESS":"桃園縣桃園市介壽路416號","TEL":"03-3664222","COUNTYNAME":"桃園市","TOWNNAME":"桃園區","MARKTYPE":"991","Class":"1"},"geometry":{"x":121.30296249926425,"y":24.979038372679742}},{"attributes":{"OBJECTID":1454,"LANDMARKID":"1000300000067","LANDMARKCO":"103","LANDMARKNA":"桃園縣議會","LANDMARKAD":"1000301","ADDRESS":"桃園縣桃園市三民路一段9號","TEL":"03-3322191","COUNTYNAME":"桃園市","TOWNNAME":"桃園區","MARKTYPE":"991","Class":"1"},"geometry":{"x":121.32164503620041,"y":24.997141712927533}},{"attributes":{"OBJECTID":1455,"LANDMARKID":"1000300000006","LANDMARKCO":"101","LANDMARKNA":"桃園縣後備司令部","LANDMARKAD":"1000301","ADDRESS":"桃園縣桃園市介壽路322號","TEL":"03-3644456","COUNTYNAME":"桃園市","TOWNNAME":"桃園區","MARKTYPE":"991","Class":"1"},"geometry":{"x":121.30598517027563,"y":24.980747058679107}},{"attributes":{"OBJECTID":1456,"LANDMARKID":"1000300000069","LANDMARKCO":"103","LANDMARKNA":"重劃局市北隊","LANDMARKAD":"1000301","ADDRESS":"桃園縣桃園市南華街92號","TEL":"03-3333005","COUNTYNAME":"桃園市","TOWNNAME":"桃園區","MARKTYPE":"991","Class":"1"},"geometry":{"x":121.30828534004158,"y":24.99130070568183}},{"attributes":{"OBJECTID":1457,"LANDMARKID":"1000300000070","LANDMARKCO":"103","LANDMARKNA":"桃園縣政府","LANDMARKAD":"1000301","ADDRESS":"桃園縣桃園市縣府路1號","TEL":"03-3322101","COUNTYNAME":"桃園市","TOWNNAME":"桃園區","MARKTYPE":"991","Class":"1"},"geometry":{"x":121.30097413215103,"y":24.993377787511303}},{"attributes":{"OBJECTID":1458,"LANDMARKID":"1000300000071","LANDMARKCO":"103","LANDMARKNA":"桃園縣政府衛生局","LANDMARKAD":"1000301","ADDRESS":"桃園縣桃園市縣府路55號","TEL":"03-3340935","COUNTYNAME":"桃園市","TOWNNAME":"桃園區","MARKTYPE":"991","Class":"1"},"geometry":{"x":121.30021340970258,"y":24.993040040422599}},{"attributes":{"OBJECTID":1459,"LANDMARKID":"1000300000245","LANDMARKCO":"108","LANDMARKNA":"桃園縣桃園巿公所","LANDMARKAD":"1000301","ADDRESS":"桃園縣桃園市縣府路7號","TEL":"03-3348056~60","COUNTYNAME":"桃園市","TOWNNAME":"桃園區","MARKTYPE":"991","Class":"1"},"geometry":{"x":121.30155552855511,"y":24.993887792319409}},{"attributes":{"OBJECTID":1460,"LANDMARKID":"1000300000068","LANDMARKCO":"103","LANDMARKNA":"桃園縣政府文化局","LANDMARKAD":"1000301","ADDRESS":"桃園縣桃園市縣府路21號","TEL":"03-3322592","COUNTYNAME":"桃園市","TOWNNAME":"桃園區","MARKTYPE":"991","Class":"1"},"geometry":{"x":121.29983516721066,"y":24.993814686415345}},{"attributes":{"OBJECTID":1461,"LANDMARKID":"1000300000008","LANDMARKCO":"101","LANDMARKNA":"桃園憲兵隊","LANDMARKAD":"1000301","ADDRESS":"桃園縣桃園市復興路295號","TEL":"03-3338585","COUNTYNAME":"桃園市","TOWNNAME":"桃園區","MARKTYPE":"991","Class":"1"},"geometry":{"x":121.30595043711551,"y":24.989028425785371}},{"attributes":{"OBJECTID":1462,"LANDMARKID":"1000300000066","LANDMARKCO":"103","LANDMARKNA":"桃園縣桃園市市民代表會","LANDMARKAD":"1000301","ADDRESS":"桃園縣桃園市縣府路11號","TEL":"03-3371019","COUNTYNAME":"桃園市","TOWNNAME":"桃園區","MARKTYPE":"991","Class":"1"},"geometry":{"x":121.30084512890969,"y":24.993777813837962}},{"attributes":{"OBJECTID":1463,"LANDMARKID":"1000300000200","LANDMARKCO":"107","LANDMARKNA":"桃園縣消防局","LANDMARKAD":"1000301","ADDRESS":"桃園縣桃園市三民路三段26號","TEL":"03-3379119","COUNTYNAME":"桃園市","TOWNNAME":"桃園區","MARKTYPE":"991","Class":"1"},"geometry":{"x":121.30681200655482,"y":24.998008045814082}},{"attributes":{"OBJECTID":1464,"LANDMARKID":"1000300000201","LANDMARKCO":"107","LANDMARKNA":"桃園縣消防局第一消防大隊部","LANDMARKAD":"1000301","ADDRESS":"桃園縣桃園市國豐六街96號","TEL":"03-3441714","COUNTYNAME":"桃園市","TOWNNAME":"桃園區","MARKTYPE":"991","Class":"1"},"geometry":{"x":121.27781214109642,"y":24.989808891119839}},{"attributes":{"OBJECTID":1465,"LANDMARKID":"1000300000202","LANDMARKCO":"107","LANDMARKNA":"桃園縣消防局桃園消防分隊","LANDMARKAD":"1000301","ADDRESS":"桃園縣桃園市三民路三段26號","TEL":"03-3322234","COUNTYNAME":"桃園市","TOWNNAME":"桃園區","MARKTYPE":"991","Class":"1"},"geometry":{"x":121.30681200655482,"y":24.998008045814082}},{"attributes":{"OBJECTID":1466,"LANDMARKID":"1000300000203","LANDMARKCO":"107","LANDMARKNA":"桃園縣消防局大林消防分隊","LANDMARKAD":"1000301","ADDRESS":"桃園縣桃園市樹仁二街39號","TEL":"03-3612240","COUNTYNAME":"桃園市","TOWNNAME":"桃園區","MARKTYPE":"991","Class":"1"},"geometry":{"x":121.32050046010286,"y":24.977997602854607}},{"attributes":{"OBJECTID":1467,"LANDMARKID":"1000300000204","LANDMARKCO":"107","LANDMARKNA":"桃園縣消防局中路消防分隊","LANDMARKAD":"1000301","ADDRESS":"桃園縣桃園市國豐六街96號","TEL":"03-3441714","COUNTYNAME":"桃園市","TOWNNAME":"桃園區","MARKTYPE":"991","Class":"1"},"geometry":{"x":121.27781214109642,"y":24.989808891119839}},{"attributes":{"OBJECTID":1468,"LANDMARKID":"1000300000205","LANDMARKCO":"107","LANDMARKNA":"桃園縣政府警察局總局","LANDMARKAD":"1000301","ADDRESS":"桃園縣桃園市光興里縣府路3號","TEL":"03-3327106~9","COUNTYNAME":"桃園市","TOWNNAME":"桃園區","MARKTYPE":"991","Class":"1"},"geometry":{"x":121.30159468494907,"y":24.993537784713162}},{"attributes":{"OBJECTID":1469,"LANDMARKID":"1000300000206","LANDMARKCO":"107","LANDMARKNA":"桃園縣政府警察局桃園分局","LANDMARKAD":"1000301","ADDRESS":"桃園縣桃園市文化里復興路135號","TEL":"03-3323811","COUNTYNAME":"桃園市","TOWNNAME":"桃園區","MARKTYPE":"991","Class":"1"},"geometry":{"x":121.3121228604634,"y":24.989969049274798}},{"attributes":{"OBJECTID":1470,"LANDMARKID":"1000300000207","LANDMARKCO":"107","LANDMARKNA":"桃園縣政府警察局大樹派出所","LANDMARKAD":"1000301","ADDRESS":"桃園縣桃園市大林里樹仁二街41號","TEL":"03-3622987","COUNTYNAME":"桃園市","TOWNNAME":"桃園區","MARKTYPE":"991","Class":"1"},"geometry":{"x":121.32022058966928,"y":24.977987521956077}},{"attributes":{"OBJECTID":1471,"LANDMARKID":"1000300000208","LANDMARKCO":"107","LANDMARKNA":"桃園縣政府警察局青溪派出所","LANDMARKAD":"1000301","ADDRESS":"桃園縣桃園市青溪里鎮撫街39號","TEL":"03-3332742","COUNTYNAME":"桃園市","TOWNNAME":"桃園區","MARKTYPE":"991","Class":"1"},"geometry":{"x":121.3142020795752,"y":24.998069030966921}},{"attributes":{"OBJECTID":1472,"LANDMARKID":"1000300000209","LANDMARKCO":"107","LANDMARKNA":"桃園縣政府警察局景福派出所","LANDMARKAD":"1000301","ADDRESS":"桃園縣桃園市中和里民族路110號","TEL":"03-3322762","COUNTYNAME":"桃園市","TOWNNAME":"桃園區","MARKTYPE":"991","Class":"1"},"geometry":{"x":121.30910234567301,"y":24.992639227795511}},{"attributes":{"OBJECTID":1473,"LANDMARKID":"1000300000210","LANDMARKCO":"107","LANDMARKNA":"桃園縣政府警察局武陵派出所","LANDMARKAD":"1000301","ADDRESS":"桃園縣桃園市文化里復興路135號","TEL":"03-3364224","COUNTYNAME":"桃園市","TOWNNAME":"桃園區","MARKTYPE":"991","Class":"1"},"geometry":{"x":121.3121228604634,"y":24.989969049274798}},{"attributes":{"OBJECTID":1474,"LANDMARKID":"1000300000211","LANDMARKCO":"107","LANDMARKNA":"桃園縣政府警察局龍安派出所","LANDMARKAD":"1000301","ADDRESS":"桃園縣桃園市國豐一街101號","TEL":"03-3602042","COUNTYNAME":"桃園市","TOWNNAME":"桃園區","MARKTYPE":"991","Class":"1"},"geometry":{"x":121.28103397327828,"y":24.990668725365175}},{"attributes":{"OBJECTID":1475,"LANDMARKID":"1000300000065","LANDMARKCO":"103","LANDMARKNA":"桃園縣政府民政處","LANDMARKAD":"1000301","ADDRESS":"桃園市縣府路1號6樓","TEL":"03-3322101#5600","COUNTYNAME":"桃園市","TOWNNAME":"桃園區","MARKTYPE":"991","Class":"1"},"geometry":{"x":121.30097413215103,"y":24.993377787511303}},{"attributes":{"OBJECTID":1476,"LANDMARKID":"1000300000103","LANDMARKCO":"106","LANDMARKNA":"桃園縣桃園市戶政事務所","LANDMARKAD":"1000301","ADDRESS":"桃園縣桃園市國豐三街123號1樓","TEL":"03-3608880","COUNTYNAME":"桃園市","TOWNNAME":"桃園區","MARKTYPE":"991","Class":"1"},"geometry":{"x":121.27846351767246,"y":24.990438441212863}},{"attributes":{"OBJECTID":1477,"LANDMARKID":"1000300000096","LANDMARKCO":"105","LANDMARKNA":"桃園縣政府地政局","LANDMARKAD":"1000301","ADDRESS":"桃園縣桃園市縣府路1號","TEL":"03-3322101","COUNTYNAME":"桃園市","TOWNNAME":"桃園區","MARKTYPE":"991","Class":"1"},"geometry":{"x":121.30097413215103,"y":24.993377787511303}},{"attributes":{"OBJECTID":1478,"LANDMARKID":"1000300000097","LANDMARKCO":"105","LANDMARKNA":"桃園縣桃園地政事務所","LANDMARKAD":"1000301","ADDRESS":"桃園縣桃園市國豐三街123號","TEL":"03-3695588","COUNTYNAME":"桃園市","TOWNNAME":"桃園區","MARKTYPE":"991","Class":"1"},"geometry":{"x":121.27846351767246,"y":24.990438441212863}},{"attributes":{"OBJECTID":1479,"LANDMARKID":"1000300000084","LANDMARKCO":"104","LANDMARKNA":"北區國稅局桃園縣分局第一辦公","LANDMARKAD":"1000301","ADDRESS":"桃園縣桃園市復興路205號","TEL":"03-3396511","COUNTYNAME":"桃園市","TOWNNAME":"桃園區","MARKTYPE":"991","Class":"1"},"geometry":{"x":121.3083359963335,"y":24.988524290581388}},{"attributes":{"OBJECTID":1480,"LANDMARKID":"1000300000009","LANDMARKCO":"101","LANDMARKNA":"台灣桃園地方法院桃園簡易庭","LANDMARKAD":"1000301","ADDRESS":"桃園縣桃園市仁愛路120號","TEL":"03-3795470","COUNTYNAME":"桃園市","TOWNNAME":"桃園區","MARKTYPE":"991","Class":"1"},"geometry":{"x":121.29136143858251,"y":24.995075584673085}},{"attributes":{"OBJECTID":1481,"LANDMARKID":"1000300000010","LANDMARKCO":"101","LANDMARKNA":"台灣桃園地方法院","LANDMARKAD":"1000301","ADDRESS":"桃園縣桃園市法治路1號","TEL":"03-3396100","COUNTYNAME":"桃園市","TOWNNAME":"桃園區","MARKTYPE":"991","Class":"1"},"geometry":{"x":121.29535397072615,"y":24.993348585708365}},{"attributes":{"OBJECTID":1482,"LANDMARKID":"1000300000011","LANDMARKCO":"101","LANDMARKNA":"台灣桃園監獄","LANDMARKAD":"1000301","ADDRESS":"桃園縣桃園市延壽街158號","TEL":"03-3603612","COUNTYNAME":"桃園市","TOWNNAME":"桃園區","MARKTYPE":"991","Class":"1"},"geometry":{"x":121.28992559826391,"y":24.9940790598246}},{"attributes":{"OBJECTID":1483,"LANDMARKID":"1000300000012","LANDMARKCO":"101","LANDMARKNA":"台灣桃園少年輔育院","LANDMARKAD":"1000301","ADDRESS":"桃園縣桃園市向善街98號","TEL":"03-3253152","COUNTYNAME":"桃園市","TOWNNAME":"桃園區","MARKTYPE":"991","Class":"1"},"geometry":{"x":121.31198436243272,"y":25.018359093374006}},{"attributes":{"OBJECTID":1484,"LANDMARKID":"1000300000064","LANDMARKCO":"103","LANDMARKNA":"桃園縣環境保護局","LANDMARKAD":"1000301","ADDRESS":"桃園縣桃園市縣府路1號11樓","TEL":"03-3386021","COUNTYNAME":"桃園市","TOWNNAME":"桃園區","MARKTYPE":"991","Class":"1"},"geometry":{"x":121.30097413215103,"y":24.993377787511303}},{"attributes":{"OBJECTID":1485,"LANDMARKID":"1000300000013","LANDMARKCO":"101","LANDMARKNA":"興豐榮譽國民之家","LANDMARKAD":"1000301","ADDRESS":"桃園縣桃園市成功路三段100號","TEL":"03-3384889","COUNTYNAME":"桃園市","TOWNNAME":"桃園區","MARKTYPE":"991","Class":"1"},"geometry":{"x":121.32414070268776,"y":25.003036842275513}},{"attributes":{"OBJECTID":1486,"LANDMARKID":"1000300000095","LANDMARKCO":"105","LANDMARKNA":"國際土地政策研究訓練中心","LANDMARKAD":"1000301","ADDRESS":"桃園縣桃園市中山路574號","TEL":"03-3324622","COUNTYNAME":"桃園市","TOWNNAME":"桃園區","MARKTYPE":"991","Class":"1"},"geometry":{"x":121.2975613251979,"y":24.992209997828908}},{"attributes":{"OBJECTID":1487,"LANDMARKID":"1000300000014","LANDMARKCO":"101","LANDMARKNA":"內政部國土測繪中心北區第二測","LANDMARKAD":"1000301","ADDRESS":"桃園市介壽路435巷1之1號2樓","TEL":"03-3671343","COUNTYNAME":"桃園市","TOWNNAME":"桃園區","MARKTYPE":"991","Class":"1"},"geometry":{"x":121.30432184637857,"y":24.978567865718148}},{"attributes":{"OBJECTID":1488,"LANDMARKID":"1000300000015","LANDMARKCO":"101","LANDMARKNA":"農糧署北區分署","LANDMARKAD":"1000301","ADDRESS":"桃園縣桃園市大同路111號1樓","TEL":"03-3322150","COUNTYNAME":"桃園市","TOWNNAME":"桃園區","MARKTYPE":"991","Class":"1"},"geometry":{"x":121.30936584032732,"y":24.988449004035434}},{"attributes":{"OBJECTID":1489,"LANDMARKID":"1000300000083","LANDMARKCO":"104","LANDMARKNA":"北區國稅局","LANDMARKAD":"1000301","ADDRESS":"桃園市復興路186號10F-23F","TEL":"03-3396789","COUNTYNAME":"桃園市","TOWNNAME":"桃園區","MARKTYPE":"991","Class":"1"},"geometry":{"x":121.31136331784228,"y":24.990179883259945}},{"attributes":{"OBJECTID":1490,"LANDMARKID":"1000300000060","LANDMARKCO":"103","LANDMARKNA":"桃園縣審計室","LANDMARKAD":"1000301","ADDRESS":"桃園縣桃園市長沙街30號","TEL":"03-3645799","COUNTYNAME":"桃園市","TOWNNAME":"桃園區","MARKTYPE":"991","Class":"1"},"geometry":{"x":121.30727120877063,"y":24.981037439852461}},{"attributes":{"OBJECTID":1491,"LANDMARKID":"1000300000061","LANDMARKCO":"103","LANDMARKNA":"桃園縣勞工育樂中心","LANDMARKAD":"1000301","ADDRESS":"桃園市縣府路59號","TEL":"03-3366075","COUNTYNAME":"桃園市","TOWNNAME":"桃園區","MARKTYPE":"991","Class":"1"},"geometry":{"x":121.30020410764213,"y":24.993419269004381}},{"attributes":{"OBJECTID":1492,"LANDMARKID":"1000300000062","LANDMARKCO":"103","LANDMARKNA":"桃園縣桃園市衛生所","LANDMARKAD":"1000301","ADDRESS":"桃園市國豐三街123號4樓","TEL":"03-3791888","COUNTYNAME":"桃園市","TOWNNAME":"桃園區","MARKTYPE":"991","Class":"1"},"geometry":{"x":121.27846351767246,"y":24.990438441212863}},{"attributes":{"OBJECTID":1493,"LANDMARKID":"1000300000063","LANDMARKCO":"103","LANDMARKNA":"桃園市立殯儀館","LANDMARKAD":"1000301","ADDRESS":"桃園縣桃園市大有路916號","TEL":"03-3251570","COUNTYNAME":"桃園市","TOWNNAME":"桃園區","MARKTYPE":"991","Class":"1"},"geometry":{"x":121.31488601339072,"y":25.02175861607326}},{"attributes":{"OBJECTID":1494,"LANDMARKID":"1000300000016","LANDMARKCO":"101","LANDMARKNA":"國有財產局台灣北區辦事處桃園分處","LANDMARKAD":"1000301","ADDRESS":"桃園縣桃園市縣府路1號8樓","TEL":"03-3379156","COUNTYNAME":"桃園市","TOWNNAME":"桃園區","MARKTYPE":"991","Class":"1"},"geometry":{"x":121.30097413215103,"y":24.993377787511303}},{"attributes":{"OBJECTID":1495,"LANDMARKID":"1000300000197","LANDMARKCO":"107","LANDMARKNA":"桃園縣政府警察局圳頂派出所","LANDMARKAD":"1000301","ADDRESS":"桃園縣大溪鎮公園路46號","TEL":"03-3801287","COUNTYNAME":"桃園市","TOWNNAME":"桃園區","MARKTYPE":"991","Class":"1"},"geometry":{"x":121.30455988145273,"y":24.979573555067688}},{"attributes":{"OBJECTID":1496,"LANDMARKID":"1000300000017","LANDMARKCO":"101","LANDMARKNA":"中央健康保險局北區分局","LANDMARKAD":"1000301","ADDRESS":"桃園縣中壢市中山東路3段525號","TEL":"03-4339111","COUNTYNAME":"桃園市","TOWNNAME":"桃園區","MARKTYPE":"991","Class":"1"},"geometry":{"x":121.29681108943312,"y":25.019041834031725}},{"attributes":{"OBJECTID":1497,"LANDMARKID":"1000300000195","LANDMARKCO":"107","LANDMARKNA":"桃園縣政府警察局埔子派出所","LANDMARKAD":"1000301","ADDRESS":"桃園縣桃園市文中北路2號","TEL":"03-3353974","COUNTYNAME":"桃園市","TOWNNAME":"桃園區","MARKTYPE":"991","Class":"1"},"geometry":{"x":121.29468445314463,"y":25.005959264034065}},{"attributes":{"OBJECTID":1498,"LANDMARKID":"1000300000196","LANDMARKCO":"107","LANDMARKNA":"桃園縣政府警察局同安派出所","LANDMARKAD":"1000301","ADDRESS":"桃園縣桃園市新埔里大興西一段153號","TEL":"03-3568289","COUNTYNAME":"桃園市","TOWNNAME":"桃園區","MARKTYPE":"991","Class":"1"},"geometry":{"x":121.30651029726515,"y":25.015413581284783}},{"attributes":{"OBJECTID":1499,"LANDMARKID":"1000300000059","LANDMARKCO":"103","LANDMARKNA":"桃園市棄犬收容所","LANDMARKAD":"1000301","ADDRESS":"桃園縣桃園市成公路三段255之1號","TEL":"03-3314946","COUNTYNAME":"桃園市","TOWNNAME":"桃園區","MARKTYPE":"991","Class":"1"},"geometry":{"x":121.32468481277874,"y":25.02530269790887}},{"attributes":{"OBJECTID":1500,"LANDMARKID":"1000300000562","LANDMARKCO":"205","LANDMARKNA":"可口可樂世界","LANDMARKAD":"1000301","ADDRESS":"桃園縣桃園市興邦路46號","TEL":" ","COUNTYNAME":"桃園市","TOWNNAME":"桃園區","MARKTYPE":"992","Class":"2"},"geometry":{"x":121.3262208284589,"y":24.979638907387717}},{"attributes":{"OBJECTID":1501,"LANDMARKID":"1000300000563","LANDMARKCO":"205","LANDMARKNA":"中國傢俱博物館","LANDMARKAD":"1000301","ADDRESS":"桃園縣桃園市縣府路21號","TEL":" ","COUNTYNAME":"桃園市","TOWNNAME":"桃園區","MARKTYPE":"992","Class":"2"},"geometry":{"x":121.30026753206786,"y":24.993807260857675}},{"attributes":{"OBJECTID":1502,"LANDMARKID":"1000300000564","LANDMARKCO":"205","LANDMARKNA":"桃園縣自然史教育館","LANDMARKAD":"1000301","ADDRESS":"桃園縣桃園市東國街14號","TEL":" ","COUNTYNAME":"桃園市","TOWNNAME":"桃園區","MARKTYPE":"992","Class":"2"},"geometry":{"x":121.31497199779984,"y":24.995015066990547}},{"attributes":{"OBJECTID":1503,"LANDMARKID":"1000300000565","LANDMARKCO":"205","LANDMARKNA":"台灣土地改革陳列館","LANDMARKAD":"1000301","ADDRESS":"桃園縣桃園市中山路572號","TEL":" ","COUNTYNAME":"桃園市","TOWNNAME":"桃園區","MARKTYPE":"992","Class":"2"},"geometry":{"x":121.2986071973384,"y":24.991829946768963}},{"attributes":{"OBJECTID":1504,"LANDMARKID":"1000300000549","LANDMARKCO":"204","LANDMARKNA":"桃園縣立圖書館桃園分館","LANDMARKAD":"1000301","ADDRESS":"桃園縣桃園市縣府路11號","TEL":" ","COUNTYNAME":"桃園市","TOWNNAME":"桃園區","MARKTYPE":"992","Class":"2"},"geometry":{"x":121.30098991857564,"y":24.993769819864269}},{"attributes":{"OBJECTID":1505,"LANDMARKID":"1000300000442","LANDMARKCO":"203","LANDMARKNA":"縣立會稽國中","LANDMARKAD":"1000301","ADDRESS":"桃園縣桃園市大興路222號","TEL":"03-3551496","COUNTYNAME":"桃園市","TOWNNAME":"桃園區","MARKTYPE":"992","Class":"2"},"geometry":{"x":121.31164488729644,"y":25.019195636552904}},{"attributes":{"OBJECTID":1506,"LANDMARKID":"1000300000443","LANDMARKCO":"203","LANDMARKNA":"縣立經國國中","LANDMARKAD":"1000301","ADDRESS":"桃園縣桃園市經國路276號","TEL":"03-3572699","COUNTYNAME":"桃園市","TOWNNAME":"桃園區","MARKTYPE":"992","Class":"2"},"geometry":{"x":121.3039714645715,"y":25.021738119852763}},{"attributes":{"OBJECTID":1507,"LANDMARKID":"1000300000444","LANDMARKCO":"203","LANDMARKNA":"縣立大有國小","LANDMARKAD":"1000301","ADDRESS":"桃園縣桃園市大有路220號","TEL":"03-3577715","COUNTYNAME":"桃園市","TOWNNAME":"桃園區","MARKTYPE":"992","Class":"2"},"geometry":{"x":121.32081086813886,"y":25.009423774813822}},{"attributes":{"OBJECTID":1508,"LANDMARKID":"1000300000277","LANDMARKCO":"202","LANDMARKNA":"國立武陵高中","LANDMARKAD":"1000301","ADDRESS":"桃園縣桃園市中山路889號","TEL":"03-3698171","COUNTYNAME":"桃園市","TOWNNAME":"桃園區","MARKTYPE":"992","Class":"2"},"geometry":{"x":121.28427290833508,"y":24.987377629046499}},{"attributes":{"OBJECTID":1509,"LANDMARKID":"1000300000278","LANDMARKCO":"202","LANDMARKNA":"國立桃園高中","LANDMARKAD":"1000301","ADDRESS":"桃園縣桃園市成功路三段38號","TEL":"03-3326244","COUNTYNAME":"桃園市","TOWNNAME":"桃園區","MARKTYPE":"992","Class":"2"},"geometry":{"x":121.32599601166788,"y":24.999538584513907}},{"attributes":{"OBJECTID":1510,"LANDMARKID":"1000300000279","LANDMARKCO":"202","LANDMARKNA":"私立振聲高中","LANDMARKAD":"1000301","ADDRESS":"桃園縣桃園市復興路439號","TEL":"03-2612100","COUNTYNAME":"桃園市","TOWNNAME":"桃園區","MARKTYPE":"992","Class":"2"},"geometry":{"x":121.30059468676926,"y":24.990799481855056}},{"attributes":{"OBJECTID":1511,"LANDMARKID":"1000300000280","LANDMARKCO":"202","LANDMARKNA":"國立陽明高中","LANDMARKAD":"1000301","ADDRESS":"桃園縣桃園市德壽街8號","TEL":"03-3645761","COUNTYNAME":"桃園市","TOWNNAME":"桃園區","MARKTYPE":"992","Class":"2"},"geometry":{"x":121.30167473126308,"y":24.982437146020196}},{"attributes":{"OBJECTID":1512,"LANDMARKID":"1000300000281","LANDMARKCO":"202","LANDMARKNA":"國立桃園農工","LANDMARKAD":"1000301","ADDRESS":"桃園縣桃園市成功路二段144號","TEL":"03-3344449","COUNTYNAME":"桃園市","TOWNNAME":"桃園區","MARKTYPE":"992","Class":"2"},"geometry":{"x":121.31812420191137,"y":24.993246169126866}},{"attributes":{"OBJECTID":1513,"LANDMARKID":"1000300000282","LANDMARKCO":"202","LANDMARKNA":"私立振聲高中附設國中部","LANDMARKAD":"1000301","ADDRESS":"桃園縣桃園市復興路439號","TEL":"03-2612100","COUNTYNAME":"桃園市","TOWNNAME":"桃園區","MARKTYPE":"992","Class":"2"},"geometry":{"x":121.30059468676926,"y":24.990799481855056}},{"attributes":{"OBJECTID":1514,"LANDMARKID":"1000300000450","LANDMARKCO":"203","LANDMARKNA":"縣立青溪國中","LANDMARKAD":"1000301","ADDRESS":"桃園縣桃園市中山東路124號","TEL":"03-3392400","COUNTYNAME":"桃園市","TOWNNAME":"桃園區","MARKTYPE":"992","Class":"2"},"geometry":{"x":121.31880681700846,"y":24.99703513795599}},{"attributes":{"OBJECTID":1515,"LANDMARKID":"1000300000451","LANDMARKCO":"203","LANDMARKNA":"縣立慈文國中","LANDMARKAD":"1000301","ADDRESS":"桃園縣桃園市中正路835號","TEL":"03-3269340","COUNTYNAME":"桃園市","TOWNNAME":"桃園區","MARKTYPE":"992","Class":"2"},"geometry":{"x":121.30066144921842,"y":25.008959636393758}},{"attributes":{"OBJECTID":1516,"LANDMARKID":"1000300000452","LANDMARKCO":"203","LANDMARKNA":"縣立建國國中","LANDMARKAD":"1000301","ADDRESS":"桃園縣桃園市介新街20號","TEL":"03-3630081","COUNTYNAME":"桃園市","TOWNNAME":"桃園區","MARKTYPE":"992","Class":"2"},"geometry":{"x":121.30589006923583,"y":24.977779387477213}},{"attributes":{"OBJECTID":1517,"LANDMARKID":"1000300000453","LANDMARKCO":"203","LANDMARKNA":"縣立福豐國中","LANDMARKAD":"1000301","ADDRESS":"桃園縣桃園市樹德路66號","TEL":"03-3669547","COUNTYNAME":"桃園市","TOWNNAME":"桃園區","MARKTYPE":"992","Class":"2"},"geometry":{"x":121.31358481058804,"y":24.976835737448607}},{"attributes":{"OBJECTID":1518,"LANDMARKID":"1000300000454","LANDMARKCO":"203","LANDMARKNA":"縣立中興國中","LANDMARKAD":"1000301","ADDRESS":"桃園縣桃園市文中路122號","TEL":"03-3601392","COUNTYNAME":"桃園市","TOWNNAME":"桃園區","MARKTYPE":"992","Class":"2"},"geometry":{"x":121.28995604814003,"y":24.997008629459415}},{"attributes":{"OBJECTID":1519,"LANDMARKID":"1000300000455","LANDMARKCO":"203","LANDMARKNA":"縣立文昌國中","LANDMARKAD":"1000301","ADDRESS":"桃園縣桃園市民生路729號","TEL":"03-3552776","COUNTYNAME":"桃園市","TOWNNAME":"桃園區","MARKTYPE":"992","Class":"2"},"geometry":{"x":121.30722286749479,"y":25.009546768945448}},{"attributes":{"OBJECTID":1520,"LANDMARKID":"1000300000456","LANDMARKCO":"203","LANDMARKNA":"縣立桃園國中","LANDMARKAD":"1000301","ADDRESS":"桃園縣桃園市莒光街2號","TEL":"03-3358282","COUNTYNAME":"桃園市","TOWNNAME":"桃園區","MARKTYPE":"992","Class":"2"},"geometry":{"x":121.30411371045365,"y":24.995997882626842}},{"attributes":{"OBJECTID":1521,"LANDMARKID":"1000300000457","LANDMARKCO":"203","LANDMARKNA":"縣立同德國中","LANDMARKAD":"1000301","ADDRESS":"桃園縣桃園市南平路487號","TEL":"03-2628955","COUNTYNAME":"桃園市","TOWNNAME":"桃園區","MARKTYPE":"992","Class":"2"},"geometry":{"x":121.3035110483445,"y":25.01991853764908}},{"attributes":{"OBJECTID":1522,"LANDMARKID":"1000300000458","LANDMARKCO":"203","LANDMARKNA":"縣立大有國中","LANDMARKAD":"1000301","ADDRESS":"桃園縣桃園市大有路215號","TEL":"03-2613298","COUNTYNAME":"桃園市","TOWNNAME":"桃園區","MARKTYPE":"992","Class":"2"},"geometry":{"x":121.31871418590799,"y":25.009966293392257}},{"attributes":{"OBJECTID":1523,"LANDMARKID":"1000300000459","LANDMARKCO":"203","LANDMARKNA":"縣立成功國小","LANDMARKAD":"1000301","ADDRESS":"桃園縣桃園市三民路三段22號","TEL":"03-3322772#11","COUNTYNAME":"桃園市","TOWNNAME":"桃園區","MARKTYPE":"992","Class":"2"},"geometry":{"x":121.30633543470719,"y":24.999357491273326}},{"attributes":{"OBJECTID":1524,"LANDMARKID":"1000300000460","LANDMARKCO":"203","LANDMARKNA":"縣立大業國小","LANDMARKAD":"1000301","ADDRESS":"桃園縣桃園市大業路一段135號","TEL":"03-3337771","COUNTYNAME":"桃園市","TOWNNAME":"桃園區","MARKTYPE":"992","Class":"2"},"geometry":{"x":121.31543170781937,"y":25.006227657819892}},{"attributes":{"OBJECTID":1525,"LANDMARKID":"1000300000461","LANDMARKCO":"203","LANDMARKNA":"縣立文山國小","LANDMARKAD":"1000301","ADDRESS":"桃園縣桃園市文中路120號","TEL":"03-3602013","COUNTYNAME":"桃園市","TOWNNAME":"桃園區","MARKTYPE":"992","Class":"2"},"geometry":{"x":121.29140468596317,"y":24.996434182426022}},{"attributes":{"OBJECTID":1526,"LANDMARKID":"1000300000462","LANDMARKCO":"203","LANDMARKNA":"縣立北門國小","LANDMARKAD":"1000301","ADDRESS":"桃園縣桃園市正康三街139號","TEL":"03-3250959","COUNTYNAME":"桃園市","TOWNNAME":"桃園區","MARKTYPE":"992","Class":"2"},"geometry":{"x":121.30636412330561,"y":25.007248100780128}},{"attributes":{"OBJECTID":1527,"LANDMARKID":"1000300000463","LANDMARKCO":"203","LANDMARKNA":"縣立桃園國小","LANDMARKAD":"1000301","ADDRESS":"桃園縣桃園市民權路67號","TEL":"03-3322268","COUNTYNAME":"桃園市","TOWNNAME":"桃園區","MARKTYPE":"992","Class":"2"},"geometry":{"x":121.30956684648794,"y":24.991587764450813}},{"attributes":{"OBJECTID":1528,"LANDMARKID":"1000300000464","LANDMARKCO":"203","LANDMARKNA":"縣立中埔國小","LANDMARKAD":"1000301","ADDRESS":"桃園縣桃園市永安路1054號","TEL":"03-3263028","COUNTYNAME":"桃園市","TOWNNAME":"桃園區","MARKTYPE":"992","Class":"2"},"geometry":{"x":121.28633314782644,"y":25.009670459707266}},{"attributes":{"OBJECTID":1529,"LANDMARKID":"1000300000465","LANDMARKCO":"203","LANDMARKNA":"縣立同安國小","LANDMARKAD":"1000301","ADDRESS":"桃園縣桃園市同德十一街48號","TEL":"03-3269251","COUNTYNAME":"桃園市","TOWNNAME":"桃園區","MARKTYPE":"992","Class":"2"},"geometry":{"x":121.2979049496079,"y":25.021437734255986}},{"attributes":{"OBJECTID":1530,"LANDMARKID":"1000300000466","LANDMARKCO":"203","LANDMARKNA":"縣立同德國小","LANDMARKAD":"1000301","ADDRESS":"桃園縣桃園市同德六街175號","TEL":"03-3176403","COUNTYNAME":"桃園市","TOWNNAME":"桃園區","MARKTYPE":"992","Class":"2"},"geometry":{"x":121.2956409118928,"y":25.01421861223438}},{"attributes":{"OBJECTID":1531,"LANDMARKID":"1000300000467","LANDMARKCO":"203","LANDMARKNA":"縣立青溪國小","LANDMARKAD":"1000301","ADDRESS":"桃園縣桃園市自強路80號","TEL":"03-3347883","COUNTYNAME":"桃園市","TOWNNAME":"桃園區","MARKTYPE":"992","Class":"2"},"geometry":{"x":121.31747081623145,"y":25.000329395034502}},{"attributes":{"OBJECTID":1532,"LANDMARKID":"1000300000468","LANDMARKCO":"203","LANDMARKNA":"縣立建國國小","LANDMARKAD":"1000301","ADDRESS":"桃園縣桃園市昆明路95號","TEL":"03-3613042","COUNTYNAME":"桃園市","TOWNNAME":"桃園區","MARKTYPE":"992","Class":"2"},"geometry":{"x":121.31482037960529,"y":24.983478928989005}},{"attributes":{"OBJECTID":1533,"LANDMARKID":"1000300000469","LANDMARKCO":"203","LANDMARKNA":"縣立東門國小","LANDMARKAD":"1000301","ADDRESS":"桃園縣桃園市東門里東國街14號","TEL":"03-3322057","COUNTYNAME":"桃園市","TOWNNAME":"桃園區","MARKTYPE":"992","Class":"2"},"geometry":{"x":121.31481234806907,"y":24.995418903089561}},{"attributes":{"OBJECTID":1534,"LANDMARKID":"1000300000470","LANDMARKCO":"203","LANDMARKNA":"縣立會稽國小","LANDMARKAD":"1000301","ADDRESS":"桃園縣桃園市春日路1080號","TEL":"03-3554975","COUNTYNAME":"桃園市","TOWNNAME":"桃園區","MARKTYPE":"992","Class":"2"},"geometry":{"x":121.3085020541068,"y":25.020218631063255}},{"attributes":{"OBJECTID":1535,"LANDMARKID":"1000300000471","LANDMARKCO":"203","LANDMARKNA":"縣立中山國小","LANDMARKAD":"1000301","ADDRESS":"桃園縣桃園市國際路一段1070號","TEL":"03-3603012","COUNTYNAME":"桃園市","TOWNNAME":"桃園區","MARKTYPE":"992","Class":"2"},"geometry":{"x":121.28965116850465,"y":24.986647556477504}},{"attributes":{"OBJECTID":1536,"LANDMARKID":"1000300000472","LANDMARKCO":"203","LANDMARKNA":"縣立西門國小","LANDMARKAD":"1000301","ADDRESS":"桃園縣桃園市莒光街15號","TEL":"03-3342351","COUNTYNAME":"桃園市","TOWNNAME":"桃園區","MARKTYPE":"992","Class":"2"},"geometry":{"x":121.30381199239643,"y":24.995267819292369}},{"attributes":{"OBJECTID":1537,"LANDMARKID":"1000300000473","LANDMARKCO":"203","LANDMARKNA":"縣立南門國小","LANDMARKAD":"1000301","ADDRESS":"桃園縣桃園市復興路303號","TEL":"03-3323402","COUNTYNAME":"桃園市","TOWNNAME":"桃園區","MARKTYPE":"992","Class":"2"},"geometry":{"x":121.30422522193531,"y":24.988196971005276}},{"attributes":{"OBJECTID":1538,"LANDMARKID":"1000300000474","LANDMARKCO":"203","LANDMARKNA":"縣立慈文國小","LANDMARKAD":"1000301","ADDRESS":"桃園縣桃園市新埔六街2號","TEL":"03-3175755","COUNTYNAME":"桃園市","TOWNNAME":"桃園區","MARKTYPE":"992","Class":"2"},"geometry":{"x":121.30378261782512,"y":25.012168909094164}},{"attributes":{"OBJECTID":1539,"LANDMARKID":"1000300000475","LANDMARKCO":"203","LANDMARKNA":"縣立建德國小","LANDMARKAD":"1000301","ADDRESS":"桃園縣桃園市樹德路65號","TEL":"03-3660688","COUNTYNAME":"桃園市","TOWNNAME":"桃園區","MARKTYPE":"992","Class":"2"},"geometry":{"x":121.31479462311316,"y":24.976807119278785}},{"attributes":{"OBJECTID":1540,"LANDMARKID":"1000300000476","LANDMARKCO":"203","LANDMARKNA":"縣立龍山國小","LANDMARKAD":"1000301","ADDRESS":"桃園縣桃園市龍泉二街36號","TEL":"03-3691253","COUNTYNAME":"桃園市","TOWNNAME":"桃園區","MARKTYPE":"992","Class":"2"},"geometry":{"x":121.26978023934024,"y":24.980618731937987}},{"attributes":{"OBJECTID":1541,"LANDMARKID":"1000300000477","LANDMARKCO":"203","LANDMARKNA":"縣立莊敬國小","LANDMARKAD":"1000301","ADDRESS":"桃園縣桃園市莊一街107號","TEL":"03-3020784","COUNTYNAME":"桃園市","TOWNNAME":"桃園區","MARKTYPE":"992","Class":"2"},"geometry":{"x":121.29276412194697,"y":25.021158249753583}},{"attributes":{"OBJECTID":1542,"LANDMARKID":"1000300000478","LANDMARKCO":"203","LANDMARKNA":"國立桃園啟智學校","LANDMARKAD":"1000301","ADDRESS":"桃園縣桃園市德壽街10號","TEL":"03-3647099","COUNTYNAME":"桃園市","TOWNNAME":"桃園區","MARKTYPE":"992","Class":"2"},"geometry":{"x":121.30030126512254,"y":24.98109973100042}},{"attributes":{"OBJECTID":1543,"LANDMARKID":"1000300000747","LANDMARKCO":"308","LANDMARKNA":"國2-南桃園交流道-北上","LANDMARKAD":"1000301","ADDRESS":"桃園縣桃園市","TEL":" ","COUNTYNAME":"桃園市","TOWNNAME":"桃園區","MARKTYPE":"993","Class":"308"},"geometry":{"x":121.28385622075932,"y":25.000613400895404}},{"attributes":{"OBJECTID":1544,"LANDMARKID":"1000300000748","LANDMARKCO":"308","LANDMARKNA":"國1-機場系統交流道-東行","LANDMARKAD":"1000301","ADDRESS":"桃園縣桃園市","TEL":" ","COUNTYNAME":"桃園市","TOWNNAME":"桃園區","MARKTYPE":"993","Class":"308"},"geometry":{"x":121.27468810180841,"y":25.016145851788082}},{"attributes":{"OBJECTID":1545,"LANDMARKID":"1000300000749","LANDMARKCO":"308","LANDMARKNA":"國1-機場系統交流道-西行","LANDMARKAD":"1000301","ADDRESS":"桃園縣桃園市","TEL":" ","COUNTYNAME":"桃園市","TOWNNAME":"桃園區","MARKTYPE":"993","Class":"308"},"geometry":{"x":121.27275568931614,"y":25.020918348977901}},{"attributes":{"OBJECTID":1546,"LANDMARKID":"1000300000750","LANDMARKCO":"308","LANDMARKNA":"國2-機場系統交流道","LANDMARKAD":"1000301","ADDRESS":"桃園縣桃園市","TEL":" ","COUNTYNAME":"桃園市","TOWNNAME":"桃園區","MARKTYPE":"993","Class":"308"},"geometry":{"x":121.27364368554865,"y":25.018917370361045}},{"attributes":{"OBJECTID":1547,"LANDMARKID":"1000300000751","LANDMARKCO":"308","LANDMARKNA":"國1-機場系統交流道-北上","LANDMARKAD":"1000301","ADDRESS":"桃園縣桃園市","TEL":" ","COUNTYNAME":"桃園市","TOWNNAME":"桃園區","MARKTYPE":"993","Class":"308"},"geometry":{"x":121.27794225418593,"y":25.021408843607766}},{"attributes":{"OBJECTID":1548,"LANDMARKID":"1000300000752","LANDMARKCO":"308","LANDMARKNA":"國2-南桃園交流道-南下","LANDMARKAD":"1000301","ADDRESS":"桃園縣桃園市","TEL":" ","COUNTYNAME":"桃園市","TOWNNAME":"桃園區","MARKTYPE":"993","Class":"308"},"geometry":{"x":121.28251547602925,"y":24.996568549455159}},{"attributes":{"OBJECTID":1549,"LANDMARKID":"1000300000588","LANDMARKCO":"302","LANDMARKNA":"國光汽車客運桃園站","LANDMARKAD":"1000301","ADDRESS":"桃園縣桃園市文化里15鄰復興路151號","TEL":" ","COUNTYNAME":"桃園市","TOWNNAME":"桃園區","MARKTYPE":"993","Class":"302"},"geometry":{"x":121.31327520693895,"y":24.99030444445647}},{"attributes":{"OBJECTID":1550,"LANDMARKID":"1000300000589","LANDMARKCO":"302","LANDMARKNA":"桃園汽車客運桃園站","LANDMARKAD":"1000301","ADDRESS":"桃園縣桃園市興中街5號","TEL":" ","COUNTYNAME":"桃園市","TOWNNAME":"桃園區","MARKTYPE":"993","Class":"302"},"geometry":{"x":121.32113222998912,"y":24.982751898805589}},{"attributes":{"OBJECTID":1551,"LANDMARKID":"1000300000652","LANDMARKCO":"303","LANDMARKNA":"桃園縣政府前地下公有停車場","LANDMARKAD":"1000301","ADDRESS":"桃園縣桃園市縣府路1號B1樓","TEL":" ","COUNTYNAME":"桃園市","TOWNNAME":"桃園區","MARKTYPE":"993","Class":"303"},"geometry":{"x":121.30100276635285,"y":24.993517366847264}},{"attributes":{"OBJECTID":1552,"LANDMARKID":"1000300000653","LANDMARKCO":"303","LANDMARKNA":"西門國小地下停車場","LANDMARKAD":"1000301","ADDRESS":"桃園縣桃園市莒光街15號","TEL":" ","COUNTYNAME":"桃園市","TOWNNAME":"桃園區","MARKTYPE":"993","Class":"303"},"geometry":{"x":121.30455439149409,"y":24.993309031327311}},{"attributes":{"OBJECTID":1553,"LANDMARKID":"1000300000654","LANDMARKCO":"303","LANDMARKNA":"新民立體停車場","LANDMARKAD":"1000301","ADDRESS":"桃園縣桃園市民權路36號","TEL":" ","COUNTYNAME":"桃園市","TOWNNAME":"桃園區","MARKTYPE":"993","Class":"303"},"geometry":{"x":121.31075780345982,"y":24.992936043888697}},{"attributes":{"OBJECTID":1554,"LANDMARKID":"1000300000655","LANDMARKCO":"303","LANDMARKNA":"國光客運桃園停車場","LANDMARKAD":"1000301","ADDRESS":"桃園縣桃園市大林路93號","TEL":"03-2183577","COUNTYNAME":"桃園市","TOWNNAME":"桃園區","MARKTYPE":"993","Class":"303"},"geometry":{"x":121.31269354569099,"y":24.987117781775101}},{"attributes":{"OBJECTID":1555,"LANDMARKID":"1000300000656","LANDMARKCO":"303","LANDMARKNA":"桃園縣文化局停車場","LANDMARKAD":"1000301","ADDRESS":" ","TEL":" ","COUNTYNAME":"桃園市","TOWNNAME":"桃園區","MARKTYPE":"993","Class":"303"},"geometry":{"x":121.30027893513912,"y":24.994349486246286}},{"attributes":{"OBJECTID":1556,"LANDMARKID":"1000300000657","LANDMARKCO":"303","LANDMARKNA":"虎頭山公園第一停車場","LANDMARKAD":"1000301","ADDRESS":"桃園縣桃園市","TEL":" ","COUNTYNAME":"桃園市","TOWNNAME":"桃園區","MARKTYPE":"993","Class":"303"},"geometry":{"x":121.32767553248242,"y":25.002879856416211}},{"attributes":{"OBJECTID":1557,"LANDMARKID":"1000300000658","LANDMARKCO":"303","LANDMARKNA":"虎頭山公園第二停車場","LANDMARKAD":"1000301","ADDRESS":"桃園縣桃園市","TEL":" ","COUNTYNAME":"桃園市","TOWNNAME":"桃園區","MARKTYPE":"993","Class":"303"},"geometry":{"x":121.3283013006039,"y":25.002671577263609}},{"attributes":{"OBJECTID":1558,"LANDMARKID":"1000300000659","LANDMARKCO":"303","LANDMARKNA":"文昌公園立體停車塔","LANDMARKAD":"1000301","ADDRESS":"桃園縣桃園市民族路100號","TEL":" ","COUNTYNAME":"桃園市","TOWNNAME":"桃園區","MARKTYPE":"993","Class":"303"},"geometry":{"x":121.30922442210701,"y":24.992209418146722}},{"attributes":{"OBJECTID":1559,"LANDMARKID":"1000300000660","LANDMARKCO":"303","LANDMARKNA":"永和停車場","LANDMARKAD":"1000301","ADDRESS":"桃園縣桃園市","TEL":" ","COUNTYNAME":"桃園市","TOWNNAME":"桃園區","MARKTYPE":"993","Class":"303"},"geometry":{"x":121.30972635160363,"y":24.997088666262215}},{"attributes":{"OBJECTID":1560,"LANDMARKID":"1000300000661","LANDMARKCO":"303","LANDMARKNA":"桃園市公共造產新民立體停車場","LANDMARKAD":"1000301","ADDRESS":"桃園縣桃園市民權路","TEL":" ","COUNTYNAME":"桃園市","TOWNNAME":"桃園區","MARKTYPE":"993","Class":"303"},"geometry":{"x":121.31138511727443,"y":24.990590130909432}},{"attributes":{"OBJECTID":1561,"LANDMARKID":"1000300000662","LANDMARKCO":"303","LANDMARKNA":"Times(普客二四停車場)-桃園縣政府前停車場","LANDMARKAD":"1000301","ADDRESS":"桃園市中山路401號右旁","TEL":" ","COUNTYNAME":"桃園市","TOWNNAME":"桃園區","MARKTYPE":"993","Class":"303"},"geometry":{"x":121.30083009884063,"y":24.991707402444764}},{"attributes":{"OBJECTID":1562,"LANDMARKID":"1000300000663","LANDMARKCO":"303","LANDMARKNA":"台灣聯通停車場-桃園國際","LANDMARKAD":"1000301","ADDRESS":"桃園縣桃園市國際路二段117號旁","TEL":" ","COUNTYNAME":"桃園市","TOWNNAME":"桃園區","MARKTYPE":"993","Class":"303"},"geometry":{"x":121.28819791279531,"y":24.992487052207949}},{"attributes":{"OBJECTID":1563,"LANDMARKID":"1000300000664","LANDMARKCO":"303","LANDMARKNA":"中興嘟嘟房停車場-桃園站","LANDMARKAD":"1000301","ADDRESS":"桃園市三民路3段239號(辦公室)","TEL":"03-3393200","COUNTYNAME":"桃園市","TOWNNAME":"桃園區","MARKTYPE":"993","Class":"303"},"geometry":{"x":121.30608524485032,"y":24.994946990584612}},{"attributes":{"OBJECTID":1564,"LANDMARKID":"1000300000665","LANDMARKCO":"303","LANDMARKNA":"中興嘟嘟房停車場-桃園民族站","LANDMARKAD":"1000301","ADDRESS":"桃園市新生路165號","TEL":"03-3398325","COUNTYNAME":"桃園市","TOWNNAME":"桃園區","MARKTYPE":"993","Class":"303"},"geometry":{"x":121.30734347312882,"y":24.995747719973355}},{"attributes":{"OBJECTID":1565,"LANDMARKID":"1000300000579","LANDMARKCO":"301","LANDMARKNA":"桃園火車站","LANDMARKAD":"1000301","ADDRESS":"桃園縣桃園市武陵里中正路1號","TEL":"03-3323304","COUNTYNAME":"桃園市","TOWNNAME":"桃園區","MARKTYPE":"993","Class":"301"},"geometry":{"x":121.31344787167048,"y":24.989179841673561}},{"attributes":{"OBJECTID":1566,"LANDMARKID":"1000300000888","LANDMARKCO":"402","LANDMARKNA":"中華電信-桃園大興特約服務中心","LANDMARKAD":"1000301","ADDRESS":"桃園市大興西路二段2號","TEL":"03-3552000","COUNTYNAME":"桃園市","TOWNNAME":"桃園區","MARKTYPE":"994","Class":"4"},"geometry":{"x":121.29982383903038,"y":25.012300166778999}},{"attributes":{"OBJECTID":1567,"LANDMARKID":"1000300000889","LANDMARKCO":"402","LANDMARKNA":"中華電信-桃園中正二特約服務中心","LANDMARKAD":"1000301","ADDRESS":"桃園市中正路329號","TEL":"03-3319191","COUNTYNAME":"桃園市","TOWNNAME":"桃園區","MARKTYPE":"994","Class":"4"},"geometry":{"x":121.30870533074199,"y":24.998238424402185}},{"attributes":{"OBJECTID":1568,"LANDMARKID":"1000300000890","LANDMARKCO":"402","LANDMARKNA":"中華電信-中平服務中心","LANDMARKAD":"1000301","ADDRESS":"桃園市宏昌六街237號","TEL":"(03)228-3636","COUNTYNAME":"桃園市","TOWNNAME":"桃園區","MARKTYPE":"994","Class":"4"},"geometry":{"x":121.29200470646043,"y":24.986842400064756}},{"attributes":{"OBJECTID":1569,"LANDMARKID":"1000300000891","LANDMARKCO":"402","LANDMARKNA":"中華電信-桃園中正特約服務中心","LANDMARKAD":"1000301","ADDRESS":"桃園縣桃園市中正路645號","TEL":"03-3269393","COUNTYNAME":"桃園市","TOWNNAME":"桃園區","MARKTYPE":"994","Class":"4"},"geometry":{"x":121.30408135594372,"y":25.005540932624491}},{"attributes":{"OBJECTID":1570,"LANDMARKID":"1000300000892","LANDMARKCO":"402","LANDMARKNA":"中華電信-桃園營運處","LANDMARKAD":"1000301","ADDRESS":"桃園縣桃園市成功路一段30號","TEL":"123或0800-080-123","COUNTYNAME":"桃園市","TOWNNAME":"桃園區","MARKTYPE":"994","Class":"4"},"geometry":{"x":121.31126748265781,"y":24.992762379021972}},{"attributes":{"OBJECTID":1571,"LANDMARKID":"1000300000893","LANDMARKCO":"402","LANDMARKNA":"遠傳電信-桃園中華門市","LANDMARKAD":"1000301","ADDRESS":"桃園市中華路22號","TEL":" ","COUNTYNAME":"桃園市","TOWNNAME":"桃園區","MARKTYPE":"994","Class":"4"},"geometry":{"x":121.31104811718131,"y":24.991087284309202}},{"attributes":{"OBJECTID":1572,"LANDMARKID":"1000300000894","LANDMARKCO":"402","LANDMARKNA":"遠傳電信-桃園門市","LANDMARKAD":"1000301","ADDRESS":"桃園縣桃園市中山路427號","TEL":" ","COUNTYNAME":"桃園市","TOWNNAME":"桃園區","MARKTYPE":"994","Class":"4"},"geometry":{"x":121.30012419124387,"y":24.991638760982774}},{"attributes":{"OBJECTID":1573,"LANDMARKID":"1000300000895","LANDMARKCO":"402","LANDMARKNA":"遠傳電信-桃園三民門市","LANDMARKAD":"1000301","ADDRESS":"桃園市三民路三段190號","TEL":" ","COUNTYNAME":"桃園市","TOWNNAME":"桃園區","MARKTYPE":"994","Class":"4"},"geometry":{"x":121.30573920430024,"y":24.992647394166958}},{"attributes":{"OBJECTID":1574,"LANDMARKID":"1000300000896","LANDMARKCO":"402","LANDMARKNA":"威寶電信-桃園中正二特約服務中心","LANDMARKAD":"1000301","ADDRESS":"桃園縣桃園市中正路309號","TEL":"03-3369857","COUNTYNAME":"桃園市","TOWNNAME":"桃園區","MARKTYPE":"994","Class":"4"},"geometry":{"x":121.30899031779238,"y":24.997776795402661}},{"attributes":{"OBJECTID":1575,"LANDMARKID":"1000300000897","LANDMARKCO":"402","LANDMARKNA":"威寶電信-桃園復興特約服務中心","LANDMARKAD":"1000301","ADDRESS":"桃園市復興路119-1號","TEL":"03-3389150","COUNTYNAME":"桃園市","TOWNNAME":"桃園區","MARKTYPE":"994","Class":"4"},"geometry":{"x":121.31327384285113,"y":24.99046077156089}},{"attributes":{"OBJECTID":1576,"LANDMARKID":"1000300000898","LANDMARKCO":"402","LANDMARKNA":"威寶電信-桃園中山二特約服務中心","LANDMARKAD":"1000301","ADDRESS":"桃園市中山路463號","TEL":"03-3470831","COUNTYNAME":"桃園市","TOWNNAME":"桃園區","MARKTYPE":"994","Class":"4"},"geometry":{"x":121.29925238937295,"y":24.991627670433846}},{"attributes":{"OBJECTID":1577,"LANDMARKID":"1000300000899","LANDMARKCO":"402","LANDMARKNA":"威寶電信-桃園民生特約服務中心","LANDMARKAD":"1000301","ADDRESS":"桃園市民生路488號","TEL":"03-3350394","COUNTYNAME":"桃園市","TOWNNAME":"桃園區","MARKTYPE":"994","Class":"4"},"geometry":{"x":121.31096066463452,"y":24.999529111223033}},{"attributes":{"OBJECTID":1578,"LANDMARKID":"1000300000900","LANDMARKCO":"402","LANDMARKNA":"威寶電信-桃園中正特約服務中心","LANDMARKAD":"1000301","ADDRESS":"桃園市中正路542號","TEL":"03-3360997","COUNTYNAME":"桃園市","TOWNNAME":"桃園區","MARKTYPE":"994","Class":"4"},"geometry":{"x":121.30579379714831,"y":25.003228337232017}},{"attributes":{"OBJECTID":1579,"LANDMARKID":"1000300000901","LANDMARKCO":"402","LANDMARKNA":"大眾電信-大有專賣店","LANDMARKAD":"1000301","ADDRESS":"桃園市大興路144號","TEL":"(03)3166566","COUNTYNAME":"桃園市","TOWNNAME":"桃園區","MARKTYPE":"994","Class":"4"},"geometry":{"x":121.31058403886242,"y":25.015709371272219}},{"attributes":{"OBJECTID":1580,"LANDMARKID":"1000300000902","LANDMARKCO":"402","LANDMARKNA":"大眾電信(傑昇通信)-桃園店","LANDMARKAD":"1000301","ADDRESS":"桃園縣桃園巿中山路84號","TEL":"03-336-8997","COUNTYNAME":"桃園市","TOWNNAME":"桃園區","MARKTYPE":"994","Class":"4"},"geometry":{"x":121.31064191780544,"y":24.994438484684174}},{"attributes":{"OBJECTID":1581,"LANDMARKID":"1000300000903","LANDMARKCO":"402","LANDMARKNA":"大眾電信(震旦通訊)-桃園中山店","LANDMARKAD":"1000301","ADDRESS":"桃園縣桃園市中山路509號","TEL":"03-3369032","COUNTYNAME":"桃園市","TOWNNAME":"桃園區","MARKTYPE":"994","Class":"4"},"geometry":{"x":121.29747705207279,"y":24.991192399982502}},{"attributes":{"OBJECTID":1582,"LANDMARKID":"1000300000904","LANDMARKCO":"402","LANDMARKNA":"大眾電信-桃園中山專賣店","LANDMARKAD":"1000301","ADDRESS":"桃園縣桃園市中山路660號","TEL":"968418976","COUNTYNAME":"桃園市","TOWNNAME":"桃園區","MARKTYPE":"994","Class":"4"},"geometry":{"x":121.29539649310411,"y":24.991140997163512}},{"attributes":{"OBJECTID":1583,"LANDMARKID":"1000300000905","LANDMARKCO":"402","LANDMARKNA":"大眾電信(震旦通訊)-桃園中正店","LANDMARKAD":"1000301","ADDRESS":"桃園縣桃園市中正路183號","TEL":"03-3476017","COUNTYNAME":"桃園市","TOWNNAME":"桃園區","MARKTYPE":"994","Class":"4"},"geometry":{"x":121.31075512677896,"y":24.99469981989655}},{"attributes":{"OBJECTID":1584,"LANDMARKID":"1000300000906","LANDMARKCO":"402","LANDMARKNA":"大眾電信(傑昇通信)-桃中店","LANDMARKAD":"1000301","ADDRESS":"桃園縣桃園市中正路548號","TEL":"03-335-9898","COUNTYNAME":"桃園市","TOWNNAME":"桃園區","MARKTYPE":"994","Class":"4"},"geometry":{"x":121.30573498137339,"y":25.003354975248065}},{"attributes":{"OBJECTID":1585,"LANDMARKID":"1000300000907","LANDMARKCO":"402","LANDMARKNA":"大眾電信(震旦通訊)-桃園中正二店","LANDMARKAD":"1000301","ADDRESS":"桃園縣桃園市中正路595號","TEL":"03-3356970","COUNTYNAME":"桃園市","TOWNNAME":"桃園區","MARKTYPE":"994","Class":"4"},"geometry":{"x":121.30470052707516,"y":25.004527225401176}},{"attributes":{"OBJECTID":1586,"LANDMARKID":"1000300000908","LANDMARKCO":"402","LANDMARKNA":"大眾電信-大興專賣店","LANDMARKAD":"1000301","ADDRESS":"桃園縣桃園市中正路933號","TEL":"968814804","COUNTYNAME":"桃園市","TOWNNAME":"桃園區","MARKTYPE":"994","Class":"4"},"geometry":{"x":121.3000227088334,"y":25.012449396017391}},{"attributes":{"OBJECTID":1587,"LANDMARKID":"1000300000909","LANDMARKCO":"402","LANDMARKNA":"大眾電信-桃園中華店","LANDMARKAD":"1000301","ADDRESS":"桃園縣桃園市中華路34號","TEL":"0968-544609","COUNTYNAME":"桃園市","TOWNNAME":"桃園區","MARKTYPE":"994","Class":"4"},"geometry":{"x":121.31076034097552,"y":24.990989174581067}},{"attributes":{"OBJECTID":1588,"LANDMARKID":"1000300000910","LANDMARKCO":"402","LANDMARKNA":"大眾電信(震旦通訊)-桃園中華店","LANDMARKAD":"1000301","ADDRESS":"桃園縣桃園市中華路38號","TEL":"03-3359119","COUNTYNAME":"桃園市","TOWNNAME":"桃園區","MARKTYPE":"994","Class":"4"},"geometry":{"x":121.31065119257831,"y":24.99095351676938}},{"attributes":{"OBJECTID":1589,"LANDMARKID":"1000300000911","LANDMARKCO":"402","LANDMARKNA":"大眾電信-震鴻通訊企業社","LANDMARKAD":"1000301","ADDRESS":"桃園縣桃園市中華路94號","TEL":"03-3316208","COUNTYNAME":"桃園市","TOWNNAME":"桃園區","MARKTYPE":"994","Class":"4"},"geometry":{"x":121.30919256159031,"y":24.99047206139721}},{"attributes":{"OBJECTID":1590,"LANDMARKID":"1000300000912","LANDMARKCO":"402","LANDMARKNA":"大眾電信(傑昇通信)-桃園民生店","LANDMARKAD":"1000301","ADDRESS":"桃園縣桃園市民生路52號","TEL":"03-338-5559","COUNTYNAME":"桃園市","TOWNNAME":"桃園區","MARKTYPE":"994","Class":"4"},"geometry":{"x":121.3149717834425,"y":24.991244903303148}},{"attributes":{"OBJECTID":1591,"LANDMARKID":"1000300000913","LANDMARKCO":"402","LANDMARKNA":"大眾電信-民生專賣店","LANDMARKAD":"1000301","ADDRESS":"桃園縣桃園市民生路54號","TEL":"03-3386000","COUNTYNAME":"桃園市","TOWNNAME":"桃園區","MARKTYPE":"994","Class":"4"},"geometry":{"x":121.31494229546421,"y":24.99129016953831}},{"attributes":{"OBJECTID":1592,"LANDMARKID":"1000300000914","LANDMARKCO":"402","LANDMARKNA":"大眾電信(震旦通訊)-桃園桃鶯店","LANDMARKAD":"1000301","ADDRESS":"桃園縣桃園市桃鶯路313號","TEL":"03-3711370","COUNTYNAME":"桃園市","TOWNNAME":"桃園區","MARKTYPE":"994","Class":"4"},"geometry":{"x":121.31934638782357,"y":24.982474680792595}},{"attributes":{"OBJECTID":1593,"LANDMARKID":"1000300000915","LANDMARKCO":"402","LANDMARKNA":"威寶電信-桃園中華直營服務中心","LANDMARKAD":"1000301","ADDRESS":"桃園縣桃園市中華路24-26號","TEL":" ","COUNTYNAME":"桃園市","TOWNNAME":"桃園區","MARKTYPE":"994","Class":"4"},"geometry":{"x":121.31099583591764,"y":24.991208538122066}},{"attributes":{"OBJECTID":1594,"LANDMARKID":"1000300001561","LANDMARKCO":"603","LANDMARKNA":"長虹賓館","LANDMARKAD":"1000301","ADDRESS":"桃園縣桃園市中華路121巷26號1-4樓","TEL":"03-3323966","COUNTYNAME":"桃園市","TOWNNAME":"桃園區","MARKTYPE":"996","Class":"6"},"geometry":{"x":121.30756999287858,"y":24.989287928464663}},{"attributes":{"OBJECTID":1595,"LANDMARKID":"1000300001562","LANDMARKCO":"603","LANDMARKNA":"邁阿密旅館","LANDMARKAD":"1000301","ADDRESS":"桃園縣桃園市同德五街119巷7-23號(單號)1-2樓","TEL":"03-3250086","COUNTYNAME":"桃園市","TOWNNAME":"桃園區","MARKTYPE":"996","Class":"6"},"geometry":{"x":121.29860454853568,"y":25.013819310075398}},{"attributes":{"OBJECTID":1596,"LANDMARKID":"1000300001563","LANDMARKCO":"603","LANDMARKNA":"大都會旅館","LANDMARKAD":"1000301","ADDRESS":"桃園縣桃園市益壽八街5號3-8樓","TEL":"03-3605922","COUNTYNAME":"桃園市","TOWNNAME":"桃園區","MARKTYPE":"996","Class":"6"},"geometry":{"x":121.29045465886132,"y":24.993649030433861}},{"attributes":{"OBJECTID":1597,"LANDMARKID":"1000300001564","LANDMARKCO":"603","LANDMARKNA":"碧雲天汽車旅館 (桃園館)","LANDMARKAD":"1000301","ADDRESS":"桃園縣桃園市寶慶路18號2樓","TEL":"03-3026868","COUNTYNAME":"桃園市","TOWNNAME":"桃園區","MARKTYPE":"996","Class":"6"},"geometry":{"x":121.29518688207497,"y":25.009957607659519}},{"attributes":{"OBJECTID":1598,"LANDMARKID":"1000300001565","LANDMARKCO":"603","LANDMARKNA":"蘇活汽車旅館","LANDMARKAD":"1000301","ADDRESS":"桃園縣桃園市大興西路二段80巷27號","TEL":"03-3572288","COUNTYNAME":"桃園市","TOWNNAME":"桃園區","MARKTYPE":"996","Class":"6"},"geometry":{"x":121.29777473450784,"y":25.012659974181179}},{"attributes":{"OBJECTID":1599,"LANDMARKID":"1000300001566","LANDMARKCO":"603","LANDMARKNA":"相會賓館","LANDMARKAD":"1000301","ADDRESS":"桃園縣桃園市中正路56-6號7樓","TEL":"03-3359961-5","COUNTYNAME":"桃園市","TOWNNAME":"桃園區","MARKTYPE":"996","Class":"6"},"geometry":{"x":121.31292212734508,"y":24.991309281323208}},{"attributes":{"OBJECTID":1600,"LANDMARKID":"1000300001567","LANDMARKCO":"603","LANDMARKNA":"戀情汽車旅館","LANDMARKAD":"1000301","ADDRESS":"桃園縣桃園市天祥五街42號2F","TEL":"03-3581155","COUNTYNAME":"桃園市","TOWNNAME":"桃園區","MARKTYPE":"996","Class":"6"},"geometry":{"x":121.30336115347951,"y":25.018763889449307}}]}