{"displayFieldName":"COUNTYNAME","fieldAliases":{"OBJECTID":"OBJECTID","LANDMARKID":"LANDMARKID","LANDMARKCO":"LANDMARKCO","LANDMARKNA":"LANDMARKNA","LANDMARKAD":"LANDMARKAD","ADDRESS":"ADDRESS","TEL":"TEL","COUNTYNAME":"COUNTYNAME","TOWNNAME":"TOWNNAME","MARKTYPE":"MARKTYPE","Class":"Class"},"geometryType":"esriGeometryPoint","spatialReference":{"wkid":4326},"fields":[{"name":"OBJECTID","type":"esriFieldTypeOID","alias":"OBJECTID"},{"name":"LANDMARKID","type":"esriFieldTypeString","alias":"LANDMARKID","length":15},{"name":"LANDMARKCO","type":"esriFieldTypeString","alias":"LANDMARKCO","length":15},{"name":"LANDMARKNA","type":"esriFieldTypeString","alias":"LANDMARKNA","length":50},{"name":"LANDMARKAD","type":"esriFieldTypeString","alias":"LANDMARKAD","length":15},{"name":"ADDRESS","type":"esriFieldTypeString","alias":"ADDRESS","length":56},{"name":"TEL","type":"esriFieldTypeString","alias":"TEL","length":36},{"name":"COUNTYNAME","type":"esriFieldTypeString","alias":"COUNTYNAME","length":15},{"name":"TOWNNAME","type":"esriFieldTypeString","alias":"TOWNNAME","length":13},{"name":"MARKTYPE","type":"esriFieldTypeString","alias":"MARKTYPE","length":12},{"name":"Class","type":"esriFieldTypeString","alias":"Class","length":5}],"features":[{"attributes":{"OBJECTID":27001,"LANDMARKID":"1000700000646","LANDMARKCO":"308","LANDMARKNA":"台61-彰濱二號平交匝道-北上","LANDMARKAD":"1000705","ADDRESS":" ","TEL":" ","COUNTYNAME":"彰化縣","TOWNNAME":"伸港鄉","MARKTYPE":"993","Class":"308"},"geometry":{"x":120.47178795986372,"y":24.169611076866943}},{"attributes":{"OBJECTID":27002,"LANDMARKID":"1000700000647","LANDMARKCO":"308","LANDMARKNA":"台61-彰濱二號平交匝道-南下","LANDMARKAD":"1000705","ADDRESS":" ","TEL":" ","COUNTYNAME":"彰化縣","TOWNNAME":"伸港鄉","MARKTYPE":"993","Class":"308"},"geometry":{"x":120.45716398593886,"y":24.155013539516439}},{"attributes":{"OBJECTID":27003,"LANDMARKID":"1000700000622","LANDMARKCO":"303","LANDMARKNA":"伸港公園停車場","LANDMARKAD":"1000705","ADDRESS":"彰化縣伸港鄉","TEL":" ","COUNTYNAME":"彰化縣","TOWNNAME":"伸港鄉","MARKTYPE":"993","Class":"303"},"geometry":{"x":120.4864130041605,"y":24.145003792871805}},{"attributes":{"OBJECTID":27004,"LANDMARKID":"1000700000731","LANDMARKCO":"402","LANDMARKNA":"中華電信-伸港服務中心","LANDMARKAD":"1000705","ADDRESS":"彰化縣伸港鄉仁愛路1號","TEL":"(04)798-4004","COUNTYNAME":"彰化縣","TOWNNAME":"伸港鄉","MARKTYPE":"994","Class":"4"},"geometry":{"x":120.48593770152569,"y":24.147296867807988}},{"attributes":{"OBJECTID":27005,"LANDMARKID":"1000700001075","LANDMARKCO":"503","LANDMARKNA":"水鳥自然公園","LANDMARKAD":"1000705","ADDRESS":"彰化縣伸港鄉","TEL":" ","COUNTYNAME":"彰化縣","TOWNNAME":"伸港鄉","MARKTYPE":"995","Class":"5"},"geometry":{"x":120.50845411528361,"y":24.178844849319272}},{"attributes":{"OBJECTID":27006,"LANDMARKID":"1000700000929","LANDMARKCO":"405","LANDMARKNA":"中油加油站-西線站","LANDMARKAD":"1000704","ADDRESS":"彰化縣線西鄉沿海路2段242號","TEL":"04-7587639","COUNTYNAME":"彰化縣","TOWNNAME":"線西鄉","MARKTYPE":"994","Class":"4"},"geometry":{"x":120.46709992684518,"y":24.141591766405455}},{"attributes":{"OBJECTID":27007,"LANDMARKID":"1000700000985","LANDMARKCO":"408","LANDMARKNA":"郵局-線西郵局","LANDMARKAD":"1000704","ADDRESS":"彰化縣線西鄉和線路949號","TEL":"(04)7585-624","COUNTYNAME":"彰化縣","TOWNNAME":"線西鄉","MARKTYPE":"994","Class":"4"},"geometry":{"x":120.48157555024696,"y":24.120052538177784}},{"attributes":{"OBJECTID":27008,"LANDMARKID":"1000700001071","LANDMARKCO":"409","LANDMARKNA":"線西鄉農會","LANDMARKAD":"1000704","ADDRESS":"彰化縣線西鄉寓埔村中央路二段20號","TEL":"04-7583571","COUNTYNAME":"彰化縣","TOWNNAME":"線西鄉","MARKTYPE":"994","Class":"4"},"geometry":{"x":120.47146504249334,"y":24.13069627193568}},{"attributes":{"OBJECTID":27009,"LANDMARKID":"1000700000960","LANDMARKCO":"406","LANDMARKNA":"塭仔公園","LANDMARKAD":"1000704","ADDRESS":"彰化縣線西鄉","TEL":" ","COUNTYNAME":"彰化縣","TOWNNAME":"線西鄉","MARKTYPE":"994","Class":"4"},"geometry":{"x":120.45587087486739,"y":24.126503417304487}},{"attributes":{"OBJECTID":27010,"LANDMARKID":"1000700000260","LANDMARKCO":"108","LANDMARKNA":"彰化縣線西鄉公所","LANDMARKAD":"1000704","ADDRESS":"彰化縣線西鄉寓埔村和線路983號","TEL":"04-7584012","COUNTYNAME":"彰化縣","TOWNNAME":"線西鄉","MARKTYPE":"991","Class":"1"},"geometry":{"x":120.47074735135014,"y":24.130438519989738}},{"attributes":{"OBJECTID":27011,"LANDMARKID":"1000700000097","LANDMARKCO":"103","LANDMARKNA":"彰化縣線西鄉鄉民代表會","LANDMARKAD":"1000704","ADDRESS":"彰化縣線西鄉和線路983號4樓","TEL":"04-7585174","COUNTYNAME":"彰化縣","TOWNNAME":"線西鄉","MARKTYPE":"991","Class":"1"},"geometry":{"x":120.47079579897162,"y":24.130529148397159}},{"attributes":{"OBJECTID":27012,"LANDMARKID":"1000700000098","LANDMARKCO":"103","LANDMARKNA":"彰化縣線西鄉衛生所","LANDMARKAD":"1000704","ADDRESS":"彰化縣線西鄉寓埔村和線路957巷2號","TEL":"04-7584472","COUNTYNAME":"彰化縣","TOWNNAME":"線西鄉","MARKTYPE":"991","Class":"1"},"geometry":{"x":120.47042292020821,"y":24.130384355212538}},{"attributes":{"OBJECTID":27013,"LANDMARKID":"1000700000249","LANDMARKCO":"107","LANDMARKNA":"彰化縣消防局線西消防分隊","LANDMARKAD":"1000704","ADDRESS":"彰化縣線西鄉和線路972號","TEL":"04-7585334","COUNTYNAME":"彰化縣","TOWNNAME":"線西鄉","MARKTYPE":"991","Class":"1"},"geometry":{"x":120.47092268040326,"y":24.130497973324584}},{"attributes":{"OBJECTID":27014,"LANDMARKID":"1000700000250","LANDMARKCO":"107","LANDMARKNA":"彰化縣警察局線西分駐所","LANDMARKAD":"1000704","ADDRESS":"彰化縣線西鄉寓埔村中央路二段65號","TEL":"04-7582247","COUNTYNAME":"彰化縣","TOWNNAME":"線西鄉","MARKTYPE":"991","Class":"1"},"geometry":{"x":120.47053318275564,"y":24.131059567456216}},{"attributes":{"OBJECTID":27015,"LANDMARKID":"1000700000115","LANDMARKCO":"106","LANDMARKNA":"彰化縣線西鄉戶政事務所","LANDMARKAD":"1000704","ADDRESS":"彰化縣線西鄉寓埔村2鄰中央路二段71號","TEL":"04-7584040","COUNTYNAME":"彰化縣","TOWNNAME":"線西鄉","MARKTYPE":"991","Class":"1"},"geometry":{"x":120.47036920091067,"y":24.131139873937798}},{"attributes":{"OBJECTID":27016,"LANDMARKID":"1000700000533","LANDMARKCO":"204","LANDMARKNA":"彰化縣立圖書館線西分館","LANDMARKAD":"1000704","ADDRESS":"彰化縣線西鄉寓埔村和線路980號","TEL":" ","COUNTYNAME":"彰化縣","TOWNNAME":"線西鄉","MARKTYPE":"992","Class":"2"},"geometry":{"x":120.47098143813474,"y":24.130381644659881}},{"attributes":{"OBJECTID":27017,"LANDMARKID":"1000700000519","LANDMARKCO":"203","LANDMARKNA":"縣立線西國中","LANDMARKAD":"1000704","ADDRESS":"彰化縣線西鄉寓埔村中央路二段145號","TEL":"04-7584129","COUNTYNAME":"彰化縣","TOWNNAME":"線西鄉","MARKTYPE":"992","Class":"2"},"geometry":{"x":120.46833796798296,"y":24.131695519196295}},{"attributes":{"OBJECTID":27018,"LANDMARKID":"1000700000520","LANDMARKCO":"203","LANDMARKNA":"縣立曉陽國小","LANDMARKAD":"1000704","ADDRESS":"彰化縣線西鄉頂犁村頂犁路158之1號","TEL":"04-7552370","COUNTYNAME":"彰化縣","TOWNNAME":"線西鄉","MARKTYPE":"992","Class":"2"},"geometry":{"x":120.47870888647101,"y":24.121164495359331}},{"attributes":{"OBJECTID":27019,"LANDMARKID":"1000700000521","LANDMARKCO":"203","LANDMARKNA":"縣立線西國小","LANDMARKAD":"1000704","ADDRESS":"彰化縣線西鄉寓埔村中央路135號","TEL":"04-7559075","COUNTYNAME":"彰化縣","TOWNNAME":"線西鄉","MARKTYPE":"992","Class":"2"},"geometry":{"x":120.46936487064701,"y":24.131251197628629}},{"attributes":{"OBJECTID":27020,"LANDMARKID":"1000700000648","LANDMARKCO":"308","LANDMARKNA":"台61-138號平交匝道-南下","LANDMARKAD":"1000704","ADDRESS":" ","TEL":" ","COUNTYNAME":"彰化縣","TOWNNAME":"線西鄉","MARKTYPE":"993","Class":"308"},"geometry":{"x":120.44360853754171,"y":24.138505464401749}},{"attributes":{"OBJECTID":27021,"LANDMARKID":"1000700000649","LANDMARKCO":"308","LANDMARKNA":"台61-138號平交匝道-北上","LANDMARKAD":"1000704","ADDRESS":" ","TEL":" ","COUNTYNAME":"彰化縣","TOWNNAME":"線西鄉","MARKTYPE":"993","Class":"308"},"geometry":{"x":120.44778552619557,"y":24.143241332296487}},{"attributes":{"OBJECTID":27022,"LANDMARKID":"1000700000922","LANDMARKCO":"405","LANDMARKNA":"中油加油站-總來站","LANDMARKAD":"1000703","ADDRESS":"彰化縣和美鎮彰草路2段112號","TEL":"04-7614551","COUNTYNAME":"彰化縣","TOWNNAME":"和美鎮","MARKTYPE":"994","Class":"4"},"geometry":{"x":120.51108564864769,"y":24.08161191959212}},{"attributes":{"OBJECTID":27023,"LANDMARKID":"1000700000923","LANDMARKCO":"405","LANDMARKNA":"中油加油站-巨登站","LANDMARKAD":"1000703","ADDRESS":"彰化縣和美鎮道周路215號","TEL":"04-7576398","COUNTYNAME":"彰化縣","TOWNNAME":"和美鎮","MARKTYPE":"994","Class":"4"},"geometry":{"x":120.50064406499668,"y":24.106351375506353}},{"attributes":{"OBJECTID":27024,"LANDMARKID":"1000700000924","LANDMARKCO":"405","LANDMARKNA":"中油加油站-和港站","LANDMARKAD":"1000703","ADDRESS":"彰化縣和美鎮和港路426號","TEL":"04-7565042","COUNTYNAME":"彰化縣","TOWNNAME":"和美鎮","MARKTYPE":"994","Class":"4"},"geometry":{"x":120.48944467107648,"y":24.134171915364792}},{"attributes":{"OBJECTID":27025,"LANDMARKID":"1000700000925","LANDMARKCO":"405","LANDMARKNA":"中油加油站-金山站","LANDMARKAD":"1000703","ADDRESS":"彰化縣和美鎮彰新路三段99號","TEL":"04-7360084","COUNTYNAME":"彰化縣","TOWNNAME":"和美鎮","MARKTYPE":"994","Class":"4"},"geometry":{"x":120.53103960462548,"y":24.105938541661249}},{"attributes":{"OBJECTID":27026,"LANDMARKID":"1000700000926","LANDMARKCO":"405","LANDMARKNA":"中油加油站-和美站(中油直營)","LANDMARKAD":"1000703","ADDRESS":"彰化縣和美鎮和東里彰美路五段85號","TEL":"04-7553024","COUNTYNAME":"彰化縣","TOWNNAME":"和美鎮","MARKTYPE":"994","Class":"4"},"geometry":{"x":120.50273416678293,"y":24.106919714544997}},{"attributes":{"OBJECTID":27027,"LANDMARKID":"1000700000927","LANDMARKCO":"405","LANDMARKNA":"中油加油站-員村和美站","LANDMARKAD":"1000703","ADDRESS":"彰化縣和美鎮彰美路三段355號","TEL":"04-7553433","COUNTYNAME":"彰化縣","TOWNNAME":"和美鎮","MARKTYPE":"994","Class":"4"},"geometry":{"x":120.5179838750698,"y":24.102438214977312}},{"attributes":{"OBJECTID":27028,"LANDMARKID":"1000700000928","LANDMARKCO":"405","LANDMARKNA":"統一速邁樂加油站-和美加油站(中油)","LANDMARKAD":"1000703","ADDRESS":"彰化縣和美鎮柑井里彰美路四段290號","TEL":" ","COUNTYNAME":"彰化縣","TOWNNAME":"和美鎮","MARKTYPE":"994","Class":"4"},"geometry":{"x":120.50837234880483,"y":24.105022846135764}},{"attributes":{"OBJECTID":27029,"LANDMARKID":"1000700000732","LANDMARKCO":"402","LANDMARKNA":"亞太行動寬頻電信-和美愛華加盟服務中心","LANDMARKAD":"1000703","ADDRESS":"彰化縣和美鎮愛華路316號","TEL":"04-7576825","COUNTYNAME":"彰化縣","TOWNNAME":"和美鎮","MARKTYPE":"994","Class":"4"},"geometry":{"x":120.49713780917999,"y":24.107652924614278}},{"attributes":{"OBJECTID":27030,"LANDMARKID":"1000700000733","LANDMARKCO":"402","LANDMARKNA":"亞太行動寬頻電信-和美彰美加盟服務中心","LANDMARKAD":"1000703","ADDRESS":"彰化縣和美鎮彰美路6段132號","TEL":"04-7555776","COUNTYNAME":"彰化縣","TOWNNAME":"和美鎮","MARKTYPE":"994","Class":"4"},"geometry":{"x":120.49655464904926,"y":24.11464580158562}},{"attributes":{"OBJECTID":27031,"LANDMARKID":"1000700000692","LANDMARKCO":"401","LANDMARKNA":"道周醫院","LANDMARKAD":"1000703","ADDRESS":"彰化縣和美鎮和光路180號","TEL":"04-7566995","COUNTYNAME":"彰化縣","TOWNNAME":"和美鎮","MARKTYPE":"994","Class":"4"},"geometry":{"x":120.49185278071258,"y":24.110569791462183}},{"attributes":{"OBJECTID":27032,"LANDMARKID":"1000700001110","LANDMARKCO":"507","LANDMARKNA":"道東書院","LANDMARKAD":"1000703","ADDRESS":"彰化縣和美鎮和西里和卿路101號","TEL":" ","COUNTYNAME":"彰化縣","TOWNNAME":"和美鎮","MARKTYPE":"995","Class":"5"},"geometry":{"x":120.4911747759688,"y":24.113092486318315}},{"attributes":{"OBJECTID":27033,"LANDMARKID":"1000700000982","LANDMARKCO":"408","LANDMARKNA":"郵局-和美郵局","LANDMARKAD":"1000703","ADDRESS":"彰化縣和美鎮彰美路5段331號","TEL":"(04)7552-223","COUNTYNAME":"彰化縣","TOWNNAME":"和美鎮","MARKTYPE":"994","Class":"4"},"geometry":{"x":120.49901791924668,"y":24.111131971641836}},{"attributes":{"OBJECTID":27034,"LANDMARKID":"1000700000983","LANDMARKCO":"408","LANDMARKNA":"郵局-和美中寮郵局","LANDMARKAD":"1000703","ADDRESS":"彰化縣和美鎮彰新路3段123、125號","TEL":"(04)735-3397","COUNTYNAME":"彰化縣","TOWNNAME":"和美鎮","MARKTYPE":"994","Class":"4"},"geometry":{"x":120.53044267142818,"y":24.106468284148022}},{"attributes":{"OBJECTID":27035,"LANDMARKID":"1000700000984","LANDMARKCO":"408","LANDMARKNA":"郵局-和美道周郵局","LANDMARKAD":"1000703","ADDRESS":"彰化縣和美鎮山犁里道周路458、460號","TEL":"(04)7553-527","COUNTYNAME":"彰化縣","TOWNNAME":"和美鎮","MARKTYPE":"994","Class":"4"},"geometry":{"x":120.49462846673326,"y":24.108978682534527}},{"attributes":{"OBJECTID":27036,"LANDMARKID":"1000700001072","LANDMARKCO":"409","LANDMARKNA":"彰化縣和美鎮農會","LANDMARKAD":"1000703","ADDRESS":"彰化縣和美鎮彰美路五段266號","TEL":"04-7564141","COUNTYNAME":"彰化縣","TOWNNAME":"和美鎮","MARKTYPE":"994","Class":"4"},"geometry":{"x":120.50026327381096,"y":24.110325969963842}},{"attributes":{"OBJECTID":27037,"LANDMARKID":"1000700000777","LANDMARKCO":"404","LANDMARKNA":"台灣省自來水彰化給水廠","LANDMARKAD":"1000703","ADDRESS":"彰化縣和美鎮水源路750號","TEL":" ","COUNTYNAME":"彰化縣","TOWNNAME":"和美鎮","MARKTYPE":"994","Class":"4"},"geometry":{"x":120.52553537283033,"y":24.091151266985509}},{"attributes":{"OBJECTID":27038,"LANDMARKID":"1000700000778","LANDMARKCO":"404","LANDMARKNA":"台灣省自來水和美服務所","LANDMARKAD":"1000703","ADDRESS":"彰化縣和美鎮彰美路四段227巷20號","TEL":" ","COUNTYNAME":"彰化縣","TOWNNAME":"和美鎮","MARKTYPE":"994","Class":"4"},"geometry":{"x":120.510603042646,"y":24.103411422364019}},{"attributes":{"OBJECTID":27039,"LANDMARKID":"1000700000961","LANDMARKCO":"406","LANDMARKNA":"德美公園","LANDMARKAD":"1000703","ADDRESS":"彰化縣和美鎮","TEL":" ","COUNTYNAME":"彰化縣","TOWNNAME":"和美鎮","MARKTYPE":"994","Class":"4"},"geometry":{"x":120.49882783708505,"y":24.114636972920039}},{"attributes":{"OBJECTID":27040,"LANDMARKID":"1000700000917","LANDMARKCO":"405","LANDMARKNA":"福懋加油站-線東站(台塑)","LANDMARKAD":"1000703","ADDRESS":"彰化縣和美鎮線東路三段126號","TEL":"04-7362965","COUNTYNAME":"彰化縣","TOWNNAME":"和美鎮","MARKTYPE":"994","Class":"4"},"geometry":{"x":120.52048347828119,"y":24.094853353429947}},{"attributes":{"OBJECTID":27041,"LANDMARKID":"1000700000918","LANDMARKCO":"405","LANDMARKNA":"台塑加油站-寶群站(台塑)","LANDMARKAD":"1000703","ADDRESS":"彰化縣和美鎮和線路383號","TEL":"04-7553119","COUNTYNAME":"彰化縣","TOWNNAME":"和美鎮","MARKTYPE":"994","Class":"4"},"geometry":{"x":120.49080251783246,"y":24.115274481612204}},{"attributes":{"OBJECTID":27042,"LANDMARKID":"1000700000919","LANDMARKCO":"405","LANDMARKNA":"福懋加油站-北環站(台塑)","LANDMARKAD":"1000703","ADDRESS":"彰化縣和美鎮德美路689號","TEL":"04-7567088","COUNTYNAME":"彰化縣","TOWNNAME":"和美鎮","MARKTYPE":"994","Class":"4"},"geometry":{"x":120.49442925171029,"y":24.118639259229688}},{"attributes":{"OBJECTID":27043,"LANDMARKID":"1000700000920","LANDMARKCO":"405","LANDMARKNA":"台塑加油站-彰伸站(台塑)","LANDMARKAD":"1000703","ADDRESS":"彰化縣和美鎮彰新路四段10號","TEL":"04-7366178","COUNTYNAME":"彰化縣","TOWNNAME":"和美鎮","MARKTYPE":"994","Class":"4"},"geometry":{"x":120.52730737996939,"y":24.117652248701823}},{"attributes":{"OBJECTID":27044,"LANDMARKID":"1000700000921","LANDMARKCO":"405","LANDMARKNA":"福懋加油站-新美站(台塑)","LANDMARKAD":"1000703","ADDRESS":"彰化縣和美鎮彰美路二段232號","TEL":"04-7368530","COUNTYNAME":"彰化縣","TOWNNAME":"和美鎮","MARKTYPE":"994","Class":"4"},"geometry":{"x":120.52967979602201,"y":24.095321954838777}},{"attributes":{"OBJECTID":27045,"LANDMARKID":"1000700000256","LANDMARKCO":"107","LANDMARKNA":"彰化縣消防局和美消防分隊","LANDMARKAD":"1000703","ADDRESS":"彰化縣和美鎮德美路520號","TEL":"04-7553244","COUNTYNAME":"彰化縣","TOWNNAME":"和美鎮","MARKTYPE":"991","Class":"1"},"geometry":{"x":120.4995763879872,"y":24.117085379190996}},{"attributes":{"OBJECTID":27046,"LANDMARKID":"1000700000257","LANDMARKCO":"107","LANDMARKNA":"彰化縣警察局大霞派出所","LANDMARKAD":"1000703","ADDRESS":"彰化縣和美鎮彰和路三段42號","TEL":"04-7555564","COUNTYNAME":"彰化縣","TOWNNAME":"和美鎮","MARKTYPE":"991","Class":"1"},"geometry":{"x":120.50411833898966,"y":24.10147627286554}},{"attributes":{"OBJECTID":27047,"LANDMARKID":"1000700000259","LANDMARKCO":"108","LANDMARKNA":"彰化縣和美鎮公所","LANDMARKAD":"1000703","ADDRESS":"彰化縣和美鎮鹿和路六段337號","TEL":"04-7560620","COUNTYNAME":"彰化縣","TOWNNAME":"和美鎮","MARKTYPE":"991","Class":"1"},"geometry":{"x":120.49426559941261,"y":24.108487871102302}},{"attributes":{"OBJECTID":27048,"LANDMARKID":"1000700000093","LANDMARKCO":"103","LANDMARKNA":"彰化縣和美鎮鎮民代表會","LANDMARKAD":"1000703","ADDRESS":"彰化縣和美鎮鹿和路六段337號之1","TEL":"04-7552221","COUNTYNAME":"彰化縣","TOWNNAME":"和美鎮","MARKTYPE":"991","Class":"1"},"geometry":{"x":120.49426559941261,"y":24.108487871102302}},{"attributes":{"OBJECTID":27049,"LANDMARKID":"1000700000094","LANDMARKCO":"103","LANDMARKNA":"彰化縣和美鎮衛生所","LANDMARKAD":"1000703","ADDRESS":"彰化縣和美鎮和東里彰美路五段319號","TEL":"04-7651514","COUNTYNAME":"彰化縣","TOWNNAME":"和美鎮","MARKTYPE":"991","Class":"1"},"geometry":{"x":120.4993633031972,"y":24.110832541811551}},{"attributes":{"OBJECTID":27050,"LANDMARKID":"1000700000252","LANDMARKCO":"107","LANDMARKNA":"彰化縣警察局和美分局","LANDMARKAD":"1000703","ADDRESS":"彰化縣和美鎮彰美路五段328號","TEL":"04-7552031","COUNTYNAME":"彰化縣","TOWNNAME":"和美鎮","MARKTYPE":"991","Class":"1"},"geometry":{"x":120.49961496489941,"y":24.111032114545203}},{"attributes":{"OBJECTID":27051,"LANDMARKID":"1000700000253","LANDMARKCO":"107","LANDMARKNA":"彰化縣警察局和美派出所","LANDMARKAD":"1000703","ADDRESS":"彰化縣和美鎮彰美路五段328號","TEL":"04-7554005","COUNTYNAME":"彰化縣","TOWNNAME":"和美鎮","MARKTYPE":"991","Class":"1"},"geometry":{"x":120.49961496489941,"y":24.111032114545203}},{"attributes":{"OBJECTID":27052,"LANDMARKID":"1000700000254","LANDMARKCO":"107","LANDMARKNA":"彰化縣警察局嘉犁派出所","LANDMARKAD":"1000703","ADDRESS":"彰化縣和美鎮鐵山里彰美路三段418號","TEL":"04-7555574","COUNTYNAME":"彰化縣","TOWNNAME":"和美鎮","MARKTYPE":"991","Class":"1"},"geometry":{"x":120.51647619464347,"y":24.103212147201013}},{"attributes":{"OBJECTID":27053,"LANDMARKID":"1000700000255","LANDMARKCO":"107","LANDMARKNA":"彰化縣警察局中寮派出所","LANDMARKAD":"1000703","ADDRESS":"彰化縣和美鎮犁盛里彰新路三段10號","TEL":"04-7355184","COUNTYNAME":"彰化縣","TOWNNAME":"和美鎮","MARKTYPE":"991","Class":"1"},"geometry":{"x":120.53317050851359,"y":24.105393244719703}},{"attributes":{"OBJECTID":27054,"LANDMARKID":"1000700000114","LANDMARKCO":"106","LANDMARKNA":"彰化縣和美鎮戶政事務所","LANDMARKAD":"1000703","ADDRESS":"彰化縣和美鎮鹿和路六段335號","TEL":"04-7554321","COUNTYNAME":"彰化縣","TOWNNAME":"和美鎮","MARKTYPE":"991","Class":"1"},"geometry":{"x":120.49428681542983,"y":24.1085294576426}},{"attributes":{"OBJECTID":27055,"LANDMARKID":"1000700000113","LANDMARKCO":"105","LANDMARKNA":"彰化縣和美地政事務所","LANDMARKAD":"1000703","ADDRESS":"彰化縣和美鎮和北里德美路515號","TEL":"04-7552217","COUNTYNAME":"彰化縣","TOWNNAME":"和美鎮","MARKTYPE":"991","Class":"1"},"geometry":{"x":120.49865152746067,"y":24.11739137155282}},{"attributes":{"OBJECTID":27056,"LANDMARKID":"1000700000002","LANDMARKCO":"101","LANDMARKNA":"台灣彰化地方法院彰化簡易庭","LANDMARKAD":"1000703","ADDRESS":"彰化縣和美鎮東萊路275號","TEL":"04-7358170","COUNTYNAME":"彰化縣","TOWNNAME":"和美鎮","MARKTYPE":"991","Class":"1"},"geometry":{"x":120.5346609247901,"y":24.108830247632866}},{"attributes":{"OBJECTID":27057,"LANDMARKID":"1000700000251","LANDMARKCO":"107","LANDMARKNA":"彰化縣警察局大霞派出所","LANDMARKAD":"1000703","ADDRESS":"彰化縣和美鎮大霞里彰和路三段420號","TEL":"04-7555564","COUNTYNAME":"彰化縣","TOWNNAME":"和美鎮","MARKTYPE":"991","Class":"1"},"geometry":{"x":120.50390910078308,"y":24.101605842357653}},{"attributes":{"OBJECTID":27058,"LANDMARKID":"1000700000099","LANDMARKCO":"103","LANDMARKNA":"和美鎮立殯儀館","LANDMARKAD":"1000703","ADDRESS":"彰化縣和美鎮美寮路二段135號","TEL":"04-7353919","COUNTYNAME":"彰化縣","TOWNNAME":"和美鎮","MARKTYPE":"991","Class":"1"},"geometry":{"x":120.51283218799502,"y":24.113848410265497}},{"attributes":{"OBJECTID":27059,"LANDMARKID":"1000700000258","LANDMARKCO":"107","LANDMARKNA":"彰化縣警察局塗厝派出所","LANDMARKAD":"1000703","ADDRESS":"彰化縣和美鎮塗庴里和厝二段341號","TEL":"04-7555584","COUNTYNAME":"彰化縣","TOWNNAME":"和美鎮","MARKTYPE":"991","Class":"1"},"geometry":{"x":120.50550433010785,"y":24.133629250045519}},{"attributes":{"OBJECTID":27060,"LANDMARKID":"1000700000532","LANDMARKCO":"204","LANDMARKNA":"彰化縣立圖書館和美分館","LANDMARKAD":"1000703","ADDRESS":"彰化縣和美鎮道周路346號","TEL":" ","COUNTYNAME":"彰化縣","TOWNNAME":"和美鎮","MARKTYPE":"992","Class":"2"},"geometry":{"x":120.49669450833794,"y":24.108038452980367}},{"attributes":{"OBJECTID":27061,"LANDMARKID":"1000700000522","LANDMARKCO":"203","LANDMARKNA":"縣立新庄國小","LANDMARKAD":"1000703","ADDRESS":"彰化縣和美鎮犁盛里彰新路二段500號","TEL":"04-7353267","COUNTYNAME":"彰化縣","TOWNNAME":"和美鎮","MARKTYPE":"992","Class":"2"},"geometry":{"x":120.53441349725527,"y":24.104369566019113}},{"attributes":{"OBJECTID":27062,"LANDMARKID":"1000700000523","LANDMARKCO":"203","LANDMARKNA":"縣立和美國中","LANDMARKAD":"1000703","ADDRESS":"彰化縣和美鎮和西里西園路31號","TEL":"04-7552043","COUNTYNAME":"彰化縣","TOWNNAME":"和美鎮","MARKTYPE":"992","Class":"2"},"geometry":{"x":120.49354906712665,"y":24.113015814391765}},{"attributes":{"OBJECTID":27063,"LANDMARKID":"1000700000524","LANDMARKCO":"203","LANDMARKNA":"縣立和群國中","LANDMARKAD":"1000703","ADDRESS":"彰化縣和美鎮柑井里美寮路一段390號","TEL":"04-7350071","COUNTYNAME":"彰化縣","TOWNNAME":"和美鎮","MARKTYPE":"992","Class":"2"},"geometry":{"x":120.52064798883445,"y":24.111149068321861}},{"attributes":{"OBJECTID":27064,"LANDMARKID":"1000700000525","LANDMARKCO":"203","LANDMARKNA":"縣立和仁國小","LANDMARKAD":"1000703","ADDRESS":"彰化縣和美鎮山犁里15鄰仁愛路279號","TEL":"04-7575407","COUNTYNAME":"彰化縣","TOWNNAME":"和美鎮","MARKTYPE":"992","Class":"2"},"geometry":{"x":120.49465565759219,"y":24.104386775539705}},{"attributes":{"OBJECTID":27065,"LANDMARKID":"1000700000526","LANDMARKCO":"203","LANDMARKNA":"縣立和美國小","LANDMARKAD":"1000703","ADDRESS":"彰化縣和美鎮和西里和平街19號","TEL":"04-7552005","COUNTYNAME":"彰化縣","TOWNNAME":"和美鎮","MARKTYPE":"992","Class":"2"},"geometry":{"x":120.4957770029485,"y":24.111724273163112}},{"attributes":{"OBJECTID":27066,"LANDMARKID":"1000700000527","LANDMARKCO":"203","LANDMARKNA":"縣立大榮國小","LANDMARKAD":"1000703","ADDRESS":"彰化縣和美鎮鎮平里嘉佃路296號","TEL":"04-7526295","COUNTYNAME":"彰化縣","TOWNNAME":"和美鎮","MARKTYPE":"992","Class":"2"},"geometry":{"x":120.501851079882,"y":24.088080325436287}},{"attributes":{"OBJECTID":27067,"LANDMARKID":"1000700000528","LANDMARKCO":"203","LANDMARKNA":"縣立大嘉國小","LANDMARKAD":"1000703","ADDRESS":"彰化縣和美鎮嘉犁里彰和路三段50號","TEL":"04-7554493","COUNTYNAME":"彰化縣","TOWNNAME":"和美鎮","MARKTYPE":"992","Class":"2"},"geometry":{"x":120.51198262691224,"y":24.0967285226691}},{"attributes":{"OBJECTID":27068,"LANDMARKID":"1000700000529","LANDMARKCO":"203","LANDMARKNA":"縣立和東國小","LANDMARKAD":"1000703","ADDRESS":"彰化縣和美鎮和東里彰美路五段210號","TEL":"04-7552724","COUNTYNAME":"彰化縣","TOWNNAME":"和美鎮","MARKTYPE":"992","Class":"2"},"geometry":{"x":120.50144934931744,"y":24.109260363994949}},{"attributes":{"OBJECTID":27069,"LANDMARKID":"1000700000530","LANDMARKCO":"203","LANDMARKNA":"縣立培英國小","LANDMARKAD":"1000703","ADDRESS":"彰化縣和美鎮塗厝里彰新路五段310號","TEL":"04-7552430","COUNTYNAME":"彰化縣","TOWNNAME":"和美鎮","MARKTYPE":"992","Class":"2"},"geometry":{"x":120.51130084965888,"y":24.134816182004894}},{"attributes":{"OBJECTID":27070,"LANDMARKID":"1000700000531","LANDMARKCO":"203","LANDMARKNA":"國立彰化仁愛實驗學校","LANDMARKAD":"1000703","ADDRESS":"彰化縣和美鎮鹿和路六段115號","TEL":"04-7552009","COUNTYNAME":"彰化縣","TOWNNAME":"和美鎮","MARKTYPE":"992","Class":"2"},"geometry":{"x":120.49192870163299,"y":24.105215201525958}},{"attributes":{"OBJECTID":27071,"LANDMARKID":"1000700000644","LANDMARKCO":"308","LANDMARKNA":"國3-和美交流道-北向","LANDMARKAD":"1000703","ADDRESS":"彰化縣和美鎮","TEL":" ","COUNTYNAME":"彰化縣","TOWNNAME":"和美鎮","MARKTYPE":"993","Class":"308"},"geometry":{"x":120.52026377392201,"y":24.142993748102231}},{"attributes":{"OBJECTID":27072,"LANDMARKID":"1000700000645","LANDMARKCO":"308","LANDMARKNA":"國3-和美交流道-南向","LANDMARKAD":"1000703","ADDRESS":"彰化縣和美鎮","TEL":" ","COUNTYNAME":"彰化縣","TOWNNAME":"和美鎮","MARKTYPE":"993","Class":"308"},"geometry":{"x":120.52428916316973,"y":24.133823987729247}},{"attributes":{"OBJECTID":27073,"LANDMARKID":"1000700000623","LANDMARKCO":"303","LANDMARKNA":"道東書院停車場","LANDMARKAD":"1000703","ADDRESS":"彰化縣和美鎮和光路","TEL":" ","COUNTYNAME":"彰化縣","TOWNNAME":"和美鎮","MARKTYPE":"993","Class":"303"},"geometry":{"x":120.49374495003985,"y":24.111123990869622}},{"attributes":{"OBJECTID":27074,"LANDMARKID":"1000700000624","LANDMARKCO":"303","LANDMARKNA":"立體停車場","LANDMARKAD":"1000703","ADDRESS":"彰化縣和美鎮","TEL":" ","COUNTYNAME":"彰化縣","TOWNNAME":"和美鎮","MARKTYPE":"993","Class":"303"},"geometry":{"x":120.49498351757029,"y":24.108118252530943}},{"attributes":{"OBJECTID":27075,"LANDMARKID":"1000700000723","LANDMARKCO":"402","LANDMARKNA":"中華電信-和美服務中心","LANDMARKAD":"1000703","ADDRESS":"彰化縣和美鎮彰美路五段323號","TEL":"123或0800-080-123","COUNTYNAME":"彰化縣","TOWNNAME":"和美鎮","MARKTYPE":"994","Class":"4"},"geometry":{"x":120.49926683496847,"y":24.110979629474446}},{"attributes":{"OBJECTID":27076,"LANDMARKID":"1000700001138","LANDMARKCO":"603","LANDMARKNA":"七星汽車旅館","LANDMARKAD":"1000703","ADDRESS":"彰化縣和美鎮忠誠路95號","TEL":"04-7540159","COUNTYNAME":"彰化縣","TOWNNAME":"和美鎮","MARKTYPE":"996","Class":"6"},"geometry":{"x":120.50469475232507,"y":24.112658194922361}},{"attributes":{"OBJECTID":27077,"LANDMARKID":"1000700000903","LANDMARKCO":"405","LANDMARKNA":"中油加油站-永慶站","LANDMARKAD":"1000701","ADDRESS":"彰化縣彰化市金馬路三段446-6號","TEL":"04-7623179","COUNTYNAME":"彰化縣","TOWNNAME":"彰化市","MARKTYPE":"994","Class":"4"},"geometry":{"x":120.52987201216764,"y":24.081878047429793}},{"attributes":{"OBJECTID":27078,"LANDMARKID":"1000700000904","LANDMARKCO":"405","LANDMARKNA":"中油加油站-瑞成站","LANDMARKAD":"1000701","ADDRESS":"彰化縣彰化市莿桐里彰水路164號","TEL":"04-7622622","COUNTYNAME":"彰化縣","TOWNNAME":"彰化市","MARKTYPE":"994","Class":"4"},"geometry":{"x":120.5166987906633,"y":24.058429800429167}},{"attributes":{"OBJECTID":27079,"LANDMARKID":"1000700000905","LANDMARKCO":"405","LANDMARKNA":"統一速邁樂加油站-彰化加油站(中油)","LANDMARKAD":"1000701","ADDRESS":"彰化市延和里大埔路221號","TEL":" ","COUNTYNAME":"彰化縣","TOWNNAME":"彰化市","MARKTYPE":"994","Class":"4"},"geometry":{"x":120.54514232448112,"y":24.058525130478863}},{"attributes":{"OBJECTID":27080,"LANDMARKID":"1000700000906","LANDMARKCO":"405","LANDMARKNA":"山隆加油站-彰化站(中油)","LANDMARKAD":"1000701","ADDRESS":"彰化縣彰化市中山路一段66號","TEL":"(047)120-616","COUNTYNAME":"彰化縣","TOWNNAME":"彰化市","MARKTYPE":"994","Class":"4"},"geometry":{"x":120.53402008924112,"y":24.053861147716358}},{"attributes":{"OBJECTID":27081,"LANDMARKID":"1000700000907","LANDMARKCO":"405","LANDMARKNA":"中油加油站-香山站","LANDMARKAD":"1000701","ADDRESS":"彰化縣彰化市香山里彰南路二段507號","TEL":"04-7387678","COUNTYNAME":"彰化縣","TOWNNAME":"彰化市","MARKTYPE":"994","Class":"4"},"geometry":{"x":120.59098170546554,"y":24.083047385645383}},{"attributes":{"OBJECTID":27082,"LANDMARKID":"1000700000908","LANDMARKCO":"405","LANDMARKNA":"中油加油站-彰化中山路站(中油直營)","LANDMARKAD":"1000701","ADDRESS":"彰化縣彰化市華北里中山路二段396號","TEL":"04-7224496","COUNTYNAME":"彰化縣","TOWNNAME":"彰化市","MARKTYPE":"994","Class":"4"},"geometry":{"x":120.543883502363,"y":24.07462468103834}},{"attributes":{"OBJECTID":27083,"LANDMARKID":"1000700000909","LANDMARKCO":"405","LANDMARKNA":"中油加油站-中庄站","LANDMARKAD":"1000701","ADDRESS":"彰化縣彰化市中山路三段480號","TEL":"04-7377776","COUNTYNAME":"彰化縣","TOWNNAME":"彰化市","MARKTYPE":"994","Class":"4"},"geometry":{"x":120.56634045260935,"y":24.08964602810881}},{"attributes":{"OBJECTID":27084,"LANDMARKID":"1000700000910","LANDMARKCO":"405","LANDMARKNA":"中油加油站-彰化中華路站(中油直營)","LANDMARKAD":"1000701","ADDRESS":"彰化縣彰化市平和里新平路100號","TEL":"04-7621186","COUNTYNAME":"彰化縣","TOWNNAME":"彰化市","MARKTYPE":"994","Class":"4"},"geometry":{"x":120.52439264823019,"y":24.066297887189716}},{"attributes":{"OBJECTID":27085,"LANDMARKID":"1000700000911","LANDMARKCO":"405","LANDMARKNA":"中油加油站-彰化站(刷卡自助)(中油直營)","LANDMARKAD":"1000701","ADDRESS":"彰化縣彰化市和調里中山路三段27號","TEL":"04-7222759","COUNTYNAME":"彰化縣","TOWNNAME":"彰化市","MARKTYPE":"994","Class":"4"},"geometry":{"x":120.55362830310249,"y":24.084542781819657}},{"attributes":{"OBJECTID":27086,"LANDMARKID":"1000700000912","LANDMARKCO":"405","LANDMARKNA":"中油加油站-加福站","LANDMARKAD":"1000701","ADDRESS":"彰化縣彰化市金馬路二段278號","TEL":"04-7330577","COUNTYNAME":"彰化縣","TOWNNAME":"彰化市","MARKTYPE":"994","Class":"4"},"geometry":{"x":120.54213336490686,"y":24.095021725494224}},{"attributes":{"OBJECTID":27087,"LANDMARKID":"1000700000913","LANDMARKCO":"405","LANDMARKNA":"中油加油站-金郎站","LANDMARKAD":"1000701","ADDRESS":"彰化縣彰化市中山路三段890號","TEL":"04-7623179","COUNTYNAME":"彰化縣","TOWNNAME":"彰化市","MARKTYPE":"994","Class":"4"},"geometry":{"x":120.57452719855675,"y":24.097951030964005}},{"attributes":{"OBJECTID":27088,"LANDMARKID":"1000700000914","LANDMARKCO":"405","LANDMARKNA":"中油加油站-彰化彰興路站(中油直營)","LANDMARKAD":"1000701","ADDRESS":"彰化縣彰化市三村里一鄰彰興路二段81號","TEL":"047-377187","COUNTYNAME":"彰化縣","TOWNNAME":"彰化市","MARKTYPE":"994","Class":"4"},"geometry":{"x":120.58800094098834,"y":24.091685159443621}},{"attributes":{"OBJECTID":27089,"LANDMARKID":"1000700000915","LANDMARKCO":"405","LANDMARKNA":"中油加油站-國聖站(中油直營)","LANDMARKAD":"1000701","ADDRESS":"彰化縣彰化市國聖里中山路三段708號","TEL":"04-7321540","COUNTYNAME":"彰化縣","TOWNNAME":"彰化市","MARKTYPE":"994","Class":"4"},"geometry":{"x":120.569895241936,"y":24.095212989765329}},{"attributes":{"OBJECTID":27090,"LANDMARKID":"1000700000916","LANDMARKCO":"405","LANDMARKNA":"中油加油站-國聖站(中油直營)","LANDMARKAD":"1000701","ADDRESS":"彰化縣彰化市中山路三段７０８號","TEL":" ","COUNTYNAME":"彰化縣","TOWNNAME":"彰化市","MARKTYPE":"994","Class":"4"},"geometry":{"x":120.56973702317067,"y":24.094758756545236}},{"attributes":{"OBJECTID":27091,"LANDMARKID":"1000700000724","LANDMARKCO":"402","LANDMARKNA":"My Phone台灣大哥大-彰化和平直營服務中心","LANDMARKAD":"1000701","ADDRESS":"彰化市中央里和平路9號","TEL":" ","COUNTYNAME":"彰化縣","TOWNNAME":"彰化市","MARKTYPE":"994","Class":"4"},"geometry":{"x":120.54020171773503,"y":24.078870973102973}},{"attributes":{"OBJECTID":27092,"LANDMARKID":"1000700000725","LANDMARKCO":"402","LANDMARKNA":"My Phone台灣大哥大-彰化中正直營服務中心","LANDMARKAD":"1000701","ADDRESS":"彰化縣彰化市中正路一段1號","TEL":"0809-000-166","COUNTYNAME":"彰化縣","TOWNNAME":"彰化市","MARKTYPE":"994","Class":"4"},"geometry":{"x":120.55180936576029,"y":24.08408960074663}},{"attributes":{"OBJECTID":27093,"LANDMARKID":"1000700000726","LANDMARKCO":"402","LANDMARKNA":"亞太行動寬頻電信-彰化中山加盟服務中心","LANDMARKAD":"1000701","ADDRESS":"彰化縣彰化市中山路二段956號","TEL":"04-7296688","COUNTYNAME":"彰化縣","TOWNNAME":"彰化市","MARKTYPE":"994","Class":"4"},"geometry":{"x":120.55208743822593,"y":24.083702966623292}},{"attributes":{"OBJECTID":27094,"LANDMARKID":"1000700000727","LANDMARKCO":"402","LANDMARKNA":"亞太行動寬頻電信-彰化中山二加盟服務中心","LANDMARKAD":"1000701","ADDRESS":"彰化縣彰化市中山路2段581號","TEL":"04-7227119","COUNTYNAME":"彰化縣","TOWNNAME":"彰化市","MARKTYPE":"994","Class":"4"},"geometry":{"x":120.54528694443836,"y":24.080166903831888}},{"attributes":{"OBJECTID":27095,"LANDMARKID":"1000700000728","LANDMARKCO":"402","LANDMARKNA":"亞太行動寬頻電信-彰化市","LANDMARKAD":"1000701","ADDRESS":"彰化市中正路二段7號","TEL":" ","COUNTYNAME":"彰化縣","TOWNNAME":"彰化市","MARKTYPE":"994","Class":"4"},"geometry":{"x":120.5390668150646,"y":24.080805429346}},{"attributes":{"OBJECTID":27096,"LANDMARKID":"1000700000729","LANDMARKCO":"402","LANDMARKNA":"亞太行動寬頻電信-彰化曉陽加盟服務中心","LANDMARKAD":"1000701","ADDRESS":"彰化縣彰化市曉陽路97號","TEL":"04-7278799","COUNTYNAME":"彰化縣","TOWNNAME":"彰化市","MARKTYPE":"994","Class":"4"},"geometry":{"x":120.53972700319531,"y":24.072330898514792}},{"attributes":{"OBJECTID":27097,"LANDMARKID":"1000700000730","LANDMARKCO":"402","LANDMARKNA":"亞太行動寬頻電信-彰化三民加盟服務中心","LANDMARKAD":"1000701","ADDRESS":"彰化縣彰化市三民路223號","TEL":"04-7260005","COUNTYNAME":"彰化縣","TOWNNAME":"彰化市","MARKTYPE":"994","Class":"4"},"geometry":{"x":120.54276004791929,"y":24.085622855144802}},{"attributes":{"OBJECTID":27098,"LANDMARKID":"1000700000694","LANDMARKCO":"401","LANDMARKNA":"婦友醫院","LANDMARKAD":"1000701","ADDRESS":"彰化縣彰化市中山路二段487號","TEL":"04-7266288","COUNTYNAME":"彰化縣","TOWNNAME":"彰化市","MARKTYPE":"994","Class":"4"},"geometry":{"x":120.54429635740091,"y":24.077836077406179}},{"attributes":{"OBJECTID":27099,"LANDMARKID":"1000700000695","LANDMARKCO":"401","LANDMARKNA":"漢銘醫院","LANDMARKAD":"1000701","ADDRESS":"彰化縣彰化市中山路一段366號","TEL":"04-7623456","COUNTYNAME":"彰化縣","TOWNNAME":"彰化市","MARKTYPE":"994","Class":"4"},"geometry":{"x":120.53578355129127,"y":24.061308166094907}},{"attributes":{"OBJECTID":27100,"LANDMARKID":"1000700000696","LANDMARKCO":"401","LANDMARKNA":"長生醫院","LANDMARKAD":"1000701","ADDRESS":"彰化縣彰化市磚瑤里彰草路425號","TEL":" ","COUNTYNAME":"彰化縣","TOWNNAME":"彰化市","MARKTYPE":"994","Class":"4"},"geometry":{"x":120.52182993658839,"y":24.077563115239197}},{"attributes":{"OBJECTID":27101,"LANDMARKID":"1000700000697","LANDMARKCO":"401","LANDMARKNA":"財團法人彰化基督教醫院-中華路分院","LANDMARKAD":"1000701","ADDRESS":"彰化縣彰化市中華路176號","TEL":" ","COUNTYNAME":"彰化縣","TOWNNAME":"彰化市","MARKTYPE":"994","Class":"4"},"geometry":{"x":120.5397127714289,"y":24.078479768552626}},{"attributes":{"OBJECTID":27102,"LANDMARKID":"1000700000698","LANDMARKCO":"401","LANDMARKNA":"財團法人彰化基督教醫院","LANDMARKAD":"1000701","ADDRESS":"彰化縣彰化市南校街135號","TEL":" ","COUNTYNAME":"彰化縣","TOWNNAME":"彰化市","MARKTYPE":"994","Class":"4"},"geometry":{"x":120.54445330973064,"y":24.0714938139492}},{"attributes":{"OBJECTID":27103,"LANDMARKID":"1000700000699","LANDMARKCO":"401","LANDMARKNA":"明德醫院","LANDMARKAD":"1000701","ADDRESS":"彰化縣彰化市中山路二段874巷33號","TEL":"04-7223138","COUNTYNAME":"彰化縣","TOWNNAME":"彰化市","MARKTYPE":"994","Class":"4"},"geometry":{"x":120.55295913203915,"y":24.081415511558831}},{"attributes":{"OBJECTID":27104,"LANDMARKID":"1000700000700","LANDMARKCO":"401","LANDMARKNA":"信生醫院","LANDMARKAD":"1000701","ADDRESS":"彰化縣彰化市三民路312號","TEL":"04-7251191","COUNTYNAME":"彰化縣","TOWNNAME":"彰化市","MARKTYPE":"994","Class":"4"},"geometry":{"x":120.5450112709354,"y":24.085772453684207}},{"attributes":{"OBJECTID":27105,"LANDMARKID":"1000700000701","LANDMARKCO":"401","LANDMARKNA":"冠華醫院","LANDMARKAD":"1000701","ADDRESS":"彰化縣彰化市中正路一段437號","TEL":"04-7255177","COUNTYNAME":"彰化縣","TOWNNAME":"彰化市","MARKTYPE":"994","Class":"4"},"geometry":{"x":120.54276265233216,"y":24.08248067408071}},{"attributes":{"OBJECTID":27106,"LANDMARKID":"1000700000702","LANDMARKCO":"401","LANDMARKNA":"黃俊榮醫院","LANDMARKAD":"1000701","ADDRESS":"彰化縣彰化市中正路一段432號","TEL":"04-7222699","COUNTYNAME":"彰化縣","TOWNNAME":"彰化市","MARKTYPE":"994","Class":"4"},"geometry":{"x":120.5425841535788,"y":24.082687283013446}},{"attributes":{"OBJECTID":27107,"LANDMARKID":"1000700000703","LANDMARKCO":"401","LANDMARKNA":"秀傳紀念醫院","LANDMARKAD":"1000701","ADDRESS":"彰化縣彰化市中山路一段542號","TEL":"04-7256166","COUNTYNAME":"彰化縣","TOWNNAME":"彰化市","MARKTYPE":"994","Class":"4"},"geometry":{"x":120.53750905202433,"y":24.064786459756075}},{"attributes":{"OBJECTID":27108,"LANDMARKID":"1000700000704","LANDMARKCO":"401","LANDMARKNA":"順安醫院","LANDMARKAD":"1000701","ADDRESS":"彰化縣彰化市光復路53號","TEL":"04-7229889","COUNTYNAME":"彰化縣","TOWNNAME":"彰化市","MARKTYPE":"994","Class":"4"},"geometry":{"x":120.54396517501533,"y":24.080718094779911}},{"attributes":{"OBJECTID":27109,"LANDMARKID":"1000700000705","LANDMARKCO":"401","LANDMARKNA":"成美醫院","LANDMARKAD":"1000701","ADDRESS":"彰化縣彰化市三民路56號","TEL":"04-7268825","COUNTYNAME":"彰化縣","TOWNNAME":"彰化市","MARKTYPE":"994","Class":"4"},"geometry":{"x":120.54038762638436,"y":24.083151990263648}},{"attributes":{"OBJECTID":27110,"LANDMARKID":"1000700001074","LANDMARKCO":"503","LANDMARKNA":"八卦山風景區","LANDMARKAD":"1000701","ADDRESS":"彰化縣彰化市卦山路13之7號","TEL":" ","COUNTYNAME":"彰化縣","TOWNNAME":"彰化市","MARKTYPE":"995","Class":"5"},"geometry":{"x":120.54955908109358,"y":24.078793669914837}},{"attributes":{"OBJECTID":27111,"LANDMARKID":"1000700001111","LANDMARKCO":"507","LANDMARKNA":"元清觀","LANDMARKAD":"1000701","ADDRESS":"彰化縣彰化市光華里民生路209號","TEL":" ","COUNTYNAME":"彰化縣","TOWNNAME":"彰化市","MARKTYPE":"995","Class":"5"},"geometry":{"x":120.54293297174159,"y":24.079665749523787}},{"attributes":{"OBJECTID":27112,"LANDMARKID":"1000700001112","LANDMARKCO":"507","LANDMARKNA":"定光佛廟(汀州會館)","LANDMARKAD":"1000701","ADDRESS":"彰化縣彰化市長樂里光復路140號","TEL":" ","COUNTYNAME":"彰化縣","TOWNNAME":"彰化市","MARKTYPE":"995","Class":"5"},"geometry":{"x":120.54237616439156,"y":24.080915181232115}},{"attributes":{"OBJECTID":27113,"LANDMARKID":"1000700001113","LANDMARKCO":"507","LANDMARKNA":"彰化西門福德祠","LANDMARKAD":"1000701","ADDRESS":"彰化縣彰化市富貴里中華路243號","TEL":" ","COUNTYNAME":"彰化縣","TOWNNAME":"彰化市","MARKTYPE":"995","Class":"5"},"geometry":{"x":120.53783786092232,"y":24.077386640925216}},{"attributes":{"OBJECTID":27114,"LANDMARKID":"1000700001114","LANDMARKCO":"507","LANDMARKNA":"節孝祠","LANDMARKAD":"1000701","ADDRESS":"彰化縣彰化市卦山里公園路一段51號","TEL":" ","COUNTYNAME":"彰化縣","TOWNNAME":"彰化市","MARKTYPE":"995","Class":"5"},"geometry":{"x":120.54616261878648,"y":24.077474088544498}},{"attributes":{"OBJECTID":27115,"LANDMARKID":"1000700001115","LANDMARKCO":"507","LANDMARKNA":"彰化孔子廟","LANDMARKAD":"1000701","ADDRESS":"彰化縣彰化市永福里孔門路31號","TEL":" ","COUNTYNAME":"彰化縣","TOWNNAME":"彰化市","MARKTYPE":"995","Class":"5"},"geometry":{"x":120.54355685440797,"y":24.078644751785276}},{"attributes":{"OBJECTID":27116,"LANDMARKID":"1000700001116","LANDMARKCO":"507","LANDMARKNA":"彰化慶安宮","LANDMARKAD":"1000701","ADDRESS":"彰化縣彰化市大同里永樂街78號","TEL":" ","COUNTYNAME":"彰化縣","TOWNNAME":"彰化市","MARKTYPE":"995","Class":"5"},"geometry":{"x":120.54219228021977,"y":24.076969927554376}},{"attributes":{"OBJECTID":27117,"LANDMARKID":"1000700001117","LANDMARKCO":"507","LANDMARKNA":"彰化關帝廟","LANDMARKAD":"1000701","ADDRESS":"彰化縣彰化市民權里民族路467號","TEL":" ","COUNTYNAME":"彰化縣","TOWNNAME":"彰化市","MARKTYPE":"995","Class":"5"},"geometry":{"x":120.54010058516549,"y":24.07642347647316}},{"attributes":{"OBJECTID":27118,"LANDMARKID":"1000700001118","LANDMARKCO":"507","LANDMARKNA":"開化寺","LANDMARKAD":"1000701","ADDRESS":"彰化縣彰化市光華里中華路134號","TEL":" ","COUNTYNAME":"彰化縣","TOWNNAME":"彰化市","MARKTYPE":"995","Class":"5"},"geometry":{"x":120.54054248148292,"y":24.078676313410416}},{"attributes":{"OBJECTID":27119,"LANDMARKID":"1000700001119","LANDMARKCO":"507","LANDMARKNA":"聖王廟","LANDMARKAD":"1000701","ADDRESS":"彰化縣彰化市富貴里中華路239巷19號","TEL":" ","COUNTYNAME":"彰化縣","TOWNNAME":"彰化市","MARKTYPE":"995","Class":"5"},"geometry":{"x":120.53841918639003,"y":24.077053535984778}},{"attributes":{"OBJECTID":27120,"LANDMARKID":"1000700001120","LANDMARKCO":"507","LANDMARKNA":"彰化懷忠祠","LANDMARKAD":"1000701","ADDRESS":"彰化縣彰化市富貴里民權路169巷2之3號","TEL":" ","COUNTYNAME":"彰化縣","TOWNNAME":"彰化市","MARKTYPE":"995","Class":"5"},"geometry":{"x":120.53843335499776,"y":24.076285349498853}},{"attributes":{"OBJECTID":27121,"LANDMARKID":"1000700001121","LANDMARKCO":"507","LANDMARKNA":"南瑤宮","LANDMARKAD":"1000701","ADDRESS":"彰化縣彰化市南瑤里南瑤路43號","TEL":" ","COUNTYNAME":"彰化縣","TOWNNAME":"彰化市","MARKTYPE":"995","Class":"5"},"geometry":{"x":120.53853216241782,"y":24.06790916561825}},{"attributes":{"OBJECTID":27122,"LANDMARKID":"1000700001073","LANDMARKCO":"501","LANDMARKNA":"八卦山風景區","LANDMARKAD":"1000701","ADDRESS":"彰化縣彰化市卦山路13之7號","TEL":"04-7289608","COUNTYNAME":"彰化縣","TOWNNAME":"彰化市","MARKTYPE":"995","Class":"5"},"geometry":{"x":120.55008479158384,"y":24.078800945372489}},{"attributes":{"OBJECTID":27123,"LANDMARKID":"1000700001137","LANDMARKCO":"512","LANDMARKNA":"八卦山脈生態旅遊服務中心","LANDMARKAD":"1000701","ADDRESS":"彰化縣彰化市卦山路13之7號","TEL":"04-7289608","COUNTYNAME":"彰化縣","TOWNNAME":"彰化市","MARKTYPE":"995","Class":"5"},"geometry":{"x":120.55001738676734,"y":24.078691706571433}},{"attributes":{"OBJECTID":27124,"LANDMARKID":"1000700001122","LANDMARKCO":"507","LANDMARKNA":"元清觀","LANDMARKAD":"1000701","ADDRESS":"500彰化縣彰化市光華里民生路209號","TEL":" ","COUNTYNAME":"彰化縣","TOWNNAME":"彰化市","MARKTYPE":"995","Class":"5"},"geometry":{"x":120.54284634499659,"y":24.079710397810882}},{"attributes":{"OBJECTID":27125,"LANDMARKID":"1000700001123","LANDMARKCO":"507","LANDMARKNA":"定光佛廟（汀州會館）","LANDMARKAD":"1000701","ADDRESS":"500彰化縣彰化市長樂里光復路140號","TEL":" ","COUNTYNAME":"彰化縣","TOWNNAME":"彰化市","MARKTYPE":"995","Class":"5"},"geometry":{"x":120.54020820684792,"y":24.080487162213661}},{"attributes":{"OBJECTID":27126,"LANDMARKID":"1000700001124","LANDMARKCO":"507","LANDMARKNA":"南瑤宮","LANDMARKAD":"1000701","ADDRESS":"500彰化縣彰化市南瑤里南瑤路43號","TEL":" ","COUNTYNAME":"彰化縣","TOWNNAME":"彰化市","MARKTYPE":"995","Class":"5"},"geometry":{"x":120.53851341869692,"y":24.067811461705499}},{"attributes":{"OBJECTID":27127,"LANDMARKID":"1000700000988","LANDMARKCO":"408","LANDMARKNA":"郵局-彰化曉陽郵局","LANDMARKAD":"1000701","ADDRESS":"彰化縣彰化市民族路267號","TEL":"(04)7236-215","COUNTYNAME":"彰化縣","TOWNNAME":"彰化市","MARKTYPE":"994","Class":"4"},"geometry":{"x":120.53915958392467,"y":24.071903166423411}},{"attributes":{"OBJECTID":27128,"LANDMARKID":"1000700000989","LANDMARKCO":"408","LANDMARKNA":"郵局-彰化中央路郵局","LANDMARKAD":"1000701","ADDRESS":"彰化縣彰化市中央路270號","TEL":"(04)7616-690轉","COUNTYNAME":"彰化縣","TOWNNAME":"彰化市","MARKTYPE":"994","Class":"4"},"geometry":{"x":120.52673933949632,"y":24.068209463551309}},{"attributes":{"OBJECTID":27129,"LANDMARKID":"1000700000990","LANDMARKCO":"408","LANDMARKNA":"郵局-彰化府前郵局","LANDMARKAD":"1000701","ADDRESS":"彰化縣彰化市中山路2段377號","TEL":"(04)7227-883","COUNTYNAME":"彰化縣","TOWNNAME":"彰化市","MARKTYPE":"994","Class":"4"},"geometry":{"x":120.54377022809641,"y":24.074984361220771}},{"attributes":{"OBJECTID":27130,"LANDMARKID":"1000700000991","LANDMARKCO":"408","LANDMARKNA":"郵局-彰化市仔尾郵局","LANDMARKAD":"1000701","ADDRESS":"彰化縣彰化市中正路1段214號","TEL":"(04)7229-924","COUNTYNAME":"彰化縣","TOWNNAME":"彰化市","MARKTYPE":"994","Class":"4"},"geometry":{"x":120.5478311171362,"y":24.083869875006357}},{"attributes":{"OBJECTID":27131,"LANDMARKID":"1000700000992","LANDMARKCO":"408","LANDMARKNA":"郵局-彰化過溝仔郵局","LANDMARKAD":"1000701","ADDRESS":"彰化縣彰化市彰美路1段166號","TEL":"(04)7235-319","COUNTYNAME":"彰化縣","TOWNNAME":"彰化市","MARKTYPE":"994","Class":"4"},"geometry":{"x":120.53806851669772,"y":24.088756999396598}},{"attributes":{"OBJECTID":27132,"LANDMARKID":"1000700000993","LANDMARKCO":"408","LANDMARKNA":"郵局-彰化西門郵局","LANDMARKAD":"1000701","ADDRESS":"彰化縣彰化市中華路369號","TEL":"(04)7221-128","COUNTYNAME":"彰化縣","TOWNNAME":"彰化市","MARKTYPE":"994","Class":"4"},"geometry":{"x":120.53581404911804,"y":24.076097621472574}},{"attributes":{"OBJECTID":27133,"LANDMARKID":"1000700000994","LANDMARKCO":"408","LANDMARKNA":"郵局-彰化台化郵局","LANDMARKAD":"1000701","ADDRESS":"彰化縣彰化市中山路3段359號","TEL":"(04)7238-021","COUNTYNAME":"彰化縣","TOWNNAME":"彰化市","MARKTYPE":"994","Class":"4"},"geometry":{"x":120.56108467011946,"y":24.087088995731285}},{"attributes":{"OBJECTID":27134,"LANDMARKID":"1000700000995","LANDMARKCO":"408","LANDMARKNA":"郵局-彰化南瑤郵局","LANDMARKAD":"1000701","ADDRESS":"彰化縣彰化市中山路2段49號","TEL":"(04)7236-849","COUNTYNAME":"彰化縣","TOWNNAME":"彰化市","MARKTYPE":"994","Class":"4"},"geometry":{"x":120.54004686049804,"y":24.068388558488039}},{"attributes":{"OBJECTID":27135,"LANDMARKID":"1000700000996","LANDMARKCO":"408","LANDMARKNA":"郵局-彰化中庄仔郵局","LANDMARKAD":"1000701","ADDRESS":"彰化縣彰化市彰南路1段115號","TEL":"(04)7321-905","COUNTYNAME":"彰化縣","TOWNNAME":"彰化市","MARKTYPE":"994","Class":"4"},"geometry":{"x":120.56793926849151,"y":24.087820674242518}},{"attributes":{"OBJECTID":27136,"LANDMARKID":"1000700000997","LANDMARKCO":"408","LANDMARKNA":"郵局-彰化南郭郵局","LANDMARKAD":"1000701","ADDRESS":"彰化縣彰化市介壽北路88號","TEL":"(04)7114-541","COUNTYNAME":"彰化縣","TOWNNAME":"彰化市","MARKTYPE":"994","Class":"4"},"geometry":{"x":120.54830791747838,"y":24.071752282944111}},{"attributes":{"OBJECTID":27137,"LANDMARKID":"1000700000998","LANDMARKCO":"408","LANDMARKNA":"郵局-彰化師大郵局","LANDMARKAD":"1000701","ADDRESS":"彰化縣彰化市進德路1號","TEL":"(04)7255-700","COUNTYNAME":"彰化縣","TOWNNAME":"彰化市","MARKTYPE":"994","Class":"4"},"geometry":{"x":120.55836903750301,"y":24.082588176506611}},{"attributes":{"OBJECTID":27138,"LANDMARKID":"1000700000999","LANDMARKCO":"408","LANDMARKNA":"郵局-彰化莿桐腳郵局","LANDMARKAD":"1000701","ADDRESS":"彰化縣彰化市彰水路35-7號","TEL":"(04)7524-746","COUNTYNAME":"彰化縣","TOWNNAME":"彰化市","MARKTYPE":"994","Class":"4"},"geometry":{"x":120.51934730158172,"y":24.061835516507735}},{"attributes":{"OBJECTID":27139,"LANDMARKID":"1000700001000","LANDMARKCO":"408","LANDMARKNA":"郵局-彰化永安街郵局","LANDMARKAD":"1000701","ADDRESS":"彰化縣彰化市永安街198號","TEL":"(04)7248-790","COUNTYNAME":"彰化縣","TOWNNAME":"彰化市","MARKTYPE":"994","Class":"4"},"geometry":{"x":120.54489406944708,"y":24.087507412486062}},{"attributes":{"OBJECTID":27140,"LANDMARKID":"1000700001001","LANDMARKCO":"408","LANDMARKNA":"郵局-彰化大竹郵局","LANDMARKAD":"1000701","ADDRESS":"彰化縣彰化市彰南路2段209號","TEL":"(04)7386-609","COUNTYNAME":"彰化縣","TOWNNAME":"彰化市","MARKTYPE":"994","Class":"4"},"geometry":{"x":120.58172030468468,"y":24.084780263901706}},{"attributes":{"OBJECTID":27141,"LANDMARKID":"1000700001002","LANDMARKCO":"408","LANDMARKNA":"郵局-彰化光復路郵局","LANDMARKAD":"1000701","ADDRESS":"彰化縣彰化市光復路130號","TEL":"(04)7221-130","COUNTYNAME":"彰化縣","TOWNNAME":"彰化市","MARKTYPE":"994","Class":"4"},"geometry":{"x":120.54060460940973,"y":24.080665236226487}},{"attributes":{"OBJECTID":27142,"LANDMARKID":"1000700001067","LANDMARKCO":"409","LANDMARKNA":"彰化縣農會","LANDMARKAD":"1000701","ADDRESS":"彰化縣彰化市中山路二段349號","TEL":"04-7263366","COUNTYNAME":"彰化縣","TOWNNAME":"彰化市","MARKTYPE":"994","Class":"4"},"geometry":{"x":120.54352082501399,"y":24.074440903131016}},{"attributes":{"OBJECTID":27143,"LANDMARKID":"1000700001068","LANDMARKCO":"409","LANDMARKNA":"彰化魚市場","LANDMARKAD":"1000701","ADDRESS":"彰化市華山路271號","TEL":"04-7222024　","COUNTYNAME":"彰化縣","TOWNNAME":"彰化市","MARKTYPE":"994","Class":"4"},"geometry":{"x":120.5355116895914,"y":24.07571732090209}},{"attributes":{"OBJECTID":27144,"LANDMARKID":"1000700001069","LANDMARKCO":"409","LANDMARKNA":"彰化市農會","LANDMARKAD":"1000701","ADDRESS":"彰化市忠孝里辭修路119號","TEL":"04-7251171","COUNTYNAME":"彰化縣","TOWNNAME":"彰化市","MARKTYPE":"994","Class":"4"},"geometry":{"x":120.53874127969009,"y":24.08647326666361}},{"attributes":{"OBJECTID":27145,"LANDMARKID":"1000700000779","LANDMARKCO":"404","LANDMARKNA":"台灣省自來水彰化服務所","LANDMARKAD":"1000701","ADDRESS":"彰化縣彰化市桃源里公園路二段1號","TEL":" ","COUNTYNAME":"彰化縣","TOWNNAME":"彰化市","MARKTYPE":"994","Class":"4"},"geometry":{"x":120.55676874106349,"y":24.074449732162773}},{"attributes":{"OBJECTID":27146,"LANDMARKID":"1000700000780","LANDMARKCO":"404","LANDMARKNA":"台灣省自來水第十一區彰化縣市管理處","LANDMARKAD":"1000701","ADDRESS":"彰化縣彰化市桃源里公園路二段1號","TEL":" ","COUNTYNAME":"彰化縣","TOWNNAME":"彰化市","MARKTYPE":"994","Class":"4"},"geometry":{"x":120.55676630096175,"y":24.074434629894021}},{"attributes":{"OBJECTID":27147,"LANDMARKID":"1000700000776","LANDMARKCO":"403","LANDMARKNA":"台灣電力公司彰化區營業處","LANDMARKAD":"1000701","ADDRESS":"彰化縣彰化市中山路二段418號","TEL":" ","COUNTYNAME":"彰化縣","TOWNNAME":"彰化市","MARKTYPE":"994","Class":"4"},"geometry":{"x":120.54431965565431,"y":24.076191364900556}},{"attributes":{"OBJECTID":27148,"LANDMARKID":"1000700000948","LANDMARKCO":"406","LANDMARKNA":"河濱運動公園","LANDMARKAD":"1000701","ADDRESS":"彰化縣彰化市","TEL":" ","COUNTYNAME":"彰化縣","TOWNNAME":"彰化市","MARKTYPE":"994","Class":"4"},"geometry":{"x":120.59786130547194,"y":24.098029326168028}},{"attributes":{"OBJECTID":27149,"LANDMARKID":"1000700000949","LANDMARKCO":"406","LANDMARKNA":"金馬公園","LANDMARKAD":"1000701","ADDRESS":"彰化縣彰化市","TEL":" ","COUNTYNAME":"彰化縣","TOWNNAME":"彰化市","MARKTYPE":"994","Class":"4"},"geometry":{"x":120.54669807592326,"y":24.092889521612861}},{"attributes":{"OBJECTID":27150,"LANDMARKID":"1000700000950","LANDMARKCO":"406","LANDMARKNA":"成功公園","LANDMARKAD":"1000701","ADDRESS":"彰化縣彰化市","TEL":" ","COUNTYNAME":"彰化縣","TOWNNAME":"彰化市","MARKTYPE":"994","Class":"4"},"geometry":{"x":120.54168281871279,"y":24.070797436275221}},{"attributes":{"OBJECTID":27151,"LANDMARKID":"1000700000951","LANDMARKCO":"406","LANDMARKNA":"中正公園","LANDMARKAD":"1000701","ADDRESS":"彰化縣彰化市","TEL":" ","COUNTYNAME":"彰化縣","TOWNNAME":"彰化市","MARKTYPE":"994","Class":"4"},"geometry":{"x":120.53049165582574,"y":24.068260644356648}},{"attributes":{"OBJECTID":27152,"LANDMARKID":"1000700000952","LANDMARKCO":"406","LANDMARKNA":"永福公園","LANDMARKAD":"1000701","ADDRESS":"彰化縣彰化市","TEL":" ","COUNTYNAME":"彰化縣","TOWNNAME":"彰化市","MARKTYPE":"994","Class":"4"},"geometry":{"x":120.54301953622884,"y":24.079031555962455}},{"attributes":{"OBJECTID":27153,"LANDMARKID":"1000700000953","LANDMARKCO":"406","LANDMARKNA":"抗日烈士紀念公園","LANDMARKAD":"1000701","ADDRESS":"彰化縣彰化市","TEL":" ","COUNTYNAME":"彰化縣","TOWNNAME":"彰化市","MARKTYPE":"994","Class":"4"},"geometry":{"x":120.55326955110849,"y":24.079860827490656}},{"attributes":{"OBJECTID":27154,"LANDMARKID":"1000700000954","LANDMARKCO":"406","LANDMARKNA":"泰和公園","LANDMARKAD":"1000701","ADDRESS":"彰化縣彰化市","TEL":" ","COUNTYNAME":"彰化縣","TOWNNAME":"彰化市","MARKTYPE":"994","Class":"4"},"geometry":{"x":120.55166148800714,"y":24.094819070167706}},{"attributes":{"OBJECTID":27155,"LANDMARKID":"1000700000955","LANDMARKCO":"406","LANDMARKNA":"平和公園","LANDMARKAD":"1000701","ADDRESS":"彰化縣彰化市","TEL":" ","COUNTYNAME":"彰化縣","TOWNNAME":"彰化市","MARKTYPE":"994","Class":"4"},"geometry":{"x":120.52677968311851,"y":24.065359966163307}},{"attributes":{"OBJECTID":27156,"LANDMARKID":"1000700000956","LANDMARKCO":"406","LANDMARKNA":"華陽公園","LANDMARKAD":"1000701","ADDRESS":"彰化縣彰化市","TEL":" ","COUNTYNAME":"彰化縣","TOWNNAME":"彰化市","MARKTYPE":"994","Class":"4"},"geometry":{"x":120.55600567934405,"y":24.06963647392255}},{"attributes":{"OBJECTID":27157,"LANDMARKID":"1000700000957","LANDMARKCO":"406","LANDMARKNA":"南瑤公園","LANDMARKAD":"1000701","ADDRESS":"彰化縣彰化市","TEL":" ","COUNTYNAME":"彰化縣","TOWNNAME":"彰化市","MARKTYPE":"994","Class":"4"},"geometry":{"x":120.53592460798021,"y":24.067418703616255}},{"attributes":{"OBJECTID":27158,"LANDMARKID":"1000700000958","LANDMARKCO":"406","LANDMARKNA":"延平公園","LANDMARKAD":"1000701","ADDRESS":"彰化縣彰化市","TEL":" ","COUNTYNAME":"彰化縣","TOWNNAME":"彰化市","MARKTYPE":"994","Class":"4"},"geometry":{"x":120.54112311577664,"y":24.065657897203192}},{"attributes":{"OBJECTID":27159,"LANDMARKID":"1000700000959","LANDMARKCO":"406","LANDMARKNA":"延和公園","LANDMARKAD":"1000701","ADDRESS":"彰化縣彰化市","TEL":" ","COUNTYNAME":"彰化縣","TOWNNAME":"彰化市","MARKTYPE":"994","Class":"4"},"geometry":{"x":120.53936314136861,"y":24.060011423456597}},{"attributes":{"OBJECTID":27160,"LANDMARKID":"1000700000981","LANDMARKCO":"407","LANDMARKNA":"三商百貨","LANDMARKAD":"1000701","ADDRESS":"彰化縣彰化市民族路291號","TEL":"04-7269008","COUNTYNAME":"彰化縣","TOWNNAME":"彰化市","MARKTYPE":"994","Class":"4"},"geometry":{"x":120.5392222381399,"y":24.072726362908703}},{"attributes":{"OBJECTID":27161,"LANDMARKID":"1000700000935","LANDMARKCO":"405","LANDMARKNA":"台塑加油站-金油站(台塑)","LANDMARKAD":"1000701","ADDRESS":"彰化縣彰化市線東路一段79號","TEL":"04-7636132","COUNTYNAME":"彰化縣","TOWNNAME":"彰化市","MARKTYPE":"994","Class":"4"},"geometry":{"x":120.51776062998657,"y":24.06500950714587}},{"attributes":{"OBJECTID":27162,"LANDMARKID":"1000700000936","LANDMARKCO":"405","LANDMARKNA":"台塑加油站-東彰站(台塑)","LANDMARKAD":"1000701","ADDRESS":"彰化縣彰化市香山里彰南路三段88號","TEL":"04-7387145","COUNTYNAME":"彰化縣","TOWNNAME":"彰化市","MARKTYPE":"994","Class":"4"},"geometry":{"x":120.59329203540376,"y":24.082577705083956}},{"attributes":{"OBJECTID":27163,"LANDMARKID":"1000700000937","LANDMARKCO":"405","LANDMARKNA":"台塑加油站-金油線東站(台塑)","LANDMARKAD":"1000701","ADDRESS":"彰化縣彰化市線東路一段455號","TEL":"04-7523816","COUNTYNAME":"彰化縣","TOWNNAME":"彰化市","MARKTYPE":"994","Class":"4"},"geometry":{"x":120.51811556359219,"y":24.074974222189034}},{"attributes":{"OBJECTID":27164,"LANDMARKID":"1000700000938","LANDMARKCO":"405","LANDMARKNA":"福懋加油站-彰益站(台塑)","LANDMARKAD":"1000701","ADDRESS":"彰化縣彰化市彰鹿路180號","TEL":"04-7613168","COUNTYNAME":"彰化縣","TOWNNAME":"彰化市","MARKTYPE":"994","Class":"4"},"geometry":{"x":120.51289369971877,"y":24.057489774806292}},{"attributes":{"OBJECTID":27165,"LANDMARKID":"1000700000939","LANDMARKCO":"405","LANDMARKNA":"福懋加油站-益民站(台塑)","LANDMARKAD":"1000701","ADDRESS":"彰化縣彰化市彰鹿路45號","TEL":"04-7517620","COUNTYNAME":"彰化縣","TOWNNAME":"彰化市","MARKTYPE":"994","Class":"4"},"geometry":{"x":120.51742420754137,"y":24.061590481658207}},{"attributes":{"OBJECTID":27166,"LANDMARKID":"1000700000940","LANDMARKCO":"405","LANDMARKNA":"台塑加油站-西門站(台塑)","LANDMARKAD":"1000701","ADDRESS":"彰化縣彰化市中央路292號","TEL":"04-7615088","COUNTYNAME":"彰化縣","TOWNNAME":"彰化市","MARKTYPE":"994","Class":"4"},"geometry":{"x":120.5267264818587,"y":24.068443441326572}},{"attributes":{"OBJECTID":27167,"LANDMARKID":"1000700000941","LANDMARKCO":"405","LANDMARKNA":"福懋加油站-忠孝站(台塑)","LANDMARKAD":"1000701","ADDRESS":"彰化縣彰化市金馬路三段220號","TEL":"04-7269868","COUNTYNAME":"彰化縣","TOWNNAME":"彰化市","MARKTYPE":"994","Class":"4"},"geometry":{"x":120.53108657748658,"y":24.085648720701524}},{"attributes":{"OBJECTID":27168,"LANDMARKID":"1000700000942","LANDMARKCO":"405","LANDMARKNA":"全國加油站-彰客站（台塑）","LANDMARKAD":"1000701","ADDRESS":"彰化縣彰化市建國南路183號","TEL":"04-7233500","COUNTYNAME":"彰化縣","TOWNNAME":"彰化市","MARKTYPE":"994","Class":"4"},"geometry":{"x":120.55273957300837,"y":24.084321128187657}},{"attributes":{"OBJECTID":27169,"LANDMARKID":"1000700000943","LANDMARKCO":"405","LANDMARKNA":"福懋加油站-仁愛站(台塑)","LANDMARKAD":"1000701","ADDRESS":"彰化縣彰化市金馬路一段269號","TEL":"04-7232800","COUNTYNAME":"彰化縣","TOWNNAME":"彰化市","MARKTYPE":"994","Class":"4"},"geometry":{"x":120.55895496009273,"y":24.097817886184931}},{"attributes":{"OBJECTID":27170,"LANDMARKID":"1000700000944","LANDMARKCO":"405","LANDMARKNA":"台塑加油站-金馬站(台塑)","LANDMARKAD":"1000701","ADDRESS":"彰化縣彰化市金馬路一段192號","TEL":"04-7297777","COUNTYNAME":"彰化縣","TOWNNAME":"彰化市","MARKTYPE":"994","Class":"4"},"geometry":{"x":120.55964191021692,"y":24.098125867247237}},{"attributes":{"OBJECTID":27171,"LANDMARKID":"1000700000945","LANDMARKCO":"405","LANDMARKNA":"台亞加油站-大肚橋站（台塑）","LANDMARKAD":"1000701","ADDRESS":"彰化縣彰化市中山路三段885號","TEL":"(04)738-8451","COUNTYNAME":"彰化縣","TOWNNAME":"彰化市","MARKTYPE":"994","Class":"4"},"geometry":{"x":120.57412428351645,"y":24.098346402490357}},{"attributes":{"OBJECTID":27172,"LANDMARKID":"1000700000946","LANDMARKCO":"405","LANDMARKNA":"台亞加油站-台鳳站（台塑）","LANDMARKAD":"1000701","ADDRESS":"彰化縣彰化市彰南路三段520號","TEL":"(04)738-7802","COUNTYNAME":"彰化縣","TOWNNAME":"彰化市","MARKTYPE":"994","Class":"4"},"geometry":{"x":120.60435518659561,"y":24.080324179970585}},{"attributes":{"OBJECTID":27173,"LANDMARKID":"1000700000947","LANDMARKCO":"405","LANDMARKNA":"福懋加油站-快官站(台塑)","LANDMARKAD":"1000701","ADDRESS":"彰化縣彰化市彰南路四段11號","TEL":"04-7321268","COUNTYNAME":"彰化縣","TOWNNAME":"彰化市","MARKTYPE":"994","Class":"4"},"geometry":{"x":120.60641269410442,"y":24.078533299596558}},{"attributes":{"OBJECTID":27174,"LANDMARKID":"1000700000211","LANDMARKCO":"107","LANDMARKNA":"彰化縣警察局大竹派出所","LANDMARKAD":"1000701","ADDRESS":"彰化縣彰化市大竹里彰南路二段160號","TEL":"04-7381107","COUNTYNAME":"彰化縣","TOWNNAME":"彰化市","MARKTYPE":"991","Class":"1"},"geometry":{"x":120.58057385080093,"y":24.08488243007691}},{"attributes":{"OBJECTID":27175,"LANDMARKID":"1000700000003","LANDMARKCO":"101","LANDMARKNA":"水利署水利規劃試驗所彰化辦公室","LANDMARKAD":"1000701","ADDRESS":"彰化縣彰化市辭修路217號","TEL":"04-7628741","COUNTYNAME":"彰化縣","TOWNNAME":"彰化市","MARKTYPE":"991","Class":"1"},"geometry":{"x":120.53752048291035,"y":24.083883518591783}},{"attributes":{"OBJECTID":27176,"LANDMARKID":"1000700000233","LANDMARKCO":"107","LANDMARKNA":"國公路警察局第七警察隊部","LANDMARKAD":"1000701","ADDRESS":"彰化縣彰化市聖安路1026巷19號","TEL":"04-7377001","COUNTYNAME":"彰化縣","TOWNNAME":"彰化市","MARKTYPE":"991","Class":"1"},"geometry":{"x":120.60137257337247,"y":24.095285694341218}},{"attributes":{"OBJECTID":27177,"LANDMARKID":"1000700000262","LANDMARKCO":"108","LANDMARKNA":"彰化縣彰化市公所","LANDMARKAD":"1000701","ADDRESS":"彰化縣彰化市光復路74號","TEL":"04-7222141","COUNTYNAME":"彰化縣","TOWNNAME":"彰化市","MARKTYPE":"991","Class":"1"},"geometry":{"x":120.54223674405598,"y":24.080891551514924}},{"attributes":{"OBJECTID":27178,"LANDMARKID":"1000700000088","LANDMARKCO":"103","LANDMARKNA":"彰化縣大竹區衛生所","LANDMARKAD":"1000701","ADDRESS":"彰化縣彰化市大竹里彰南路二段246號","TEL":"04-7372348","COUNTYNAME":"彰化縣","TOWNNAME":"彰化市","MARKTYPE":"991","Class":"1"},"geometry":{"x":120.58240845669754,"y":24.083898084050958}},{"attributes":{"OBJECTID":27179,"LANDMARKID":"1000700000089","LANDMARKCO":"103","LANDMARKNA":"彰化縣政府文化局","LANDMARKAD":"1000701","ADDRESS":"彰化縣彰化市中山路二段500號","TEL":"04-7250057","COUNTYNAME":"彰化縣","TOWNNAME":"彰化市","MARKTYPE":"991","Class":"1"},"geometry":{"x":120.54529951157082,"y":24.07863617162667}},{"attributes":{"OBJECTID":27180,"LANDMARKID":"1000700000090","LANDMARKCO":"103","LANDMARKNA":"彰化縣彰化市市民代表會","LANDMARKAD":"1000701","ADDRESS":"彰化縣彰化市民生路255號","TEL":"04-7222714","COUNTYNAME":"彰化縣","TOWNNAME":"彰化市","MARKTYPE":"991","Class":"1"},"geometry":{"x":120.54219966148794,"y":24.081072008248508}},{"attributes":{"OBJECTID":27181,"LANDMARKID":"1000700000091","LANDMARKCO":"103","LANDMARKNA":"彰化市南西北區衛生所","LANDMARKAD":"1000701","ADDRESS":"彰化市中山路二段160號","TEL":"04-7113103","COUNTYNAME":"彰化縣","TOWNNAME":"彰化市","MARKTYPE":"991","Class":"1"},"geometry":{"x":120.54101927742711,"y":24.068453678773288}},{"attributes":{"OBJECTID":27182,"LANDMARKID":"1000700000092","LANDMARKCO":"103","LANDMARKNA":"彰化縣政府衛生局","LANDMARKAD":"1000701","ADDRESS":"彰化縣彰化市中山路二段162號","TEL":"04-7115141","COUNTYNAME":"彰化縣","TOWNNAME":"彰化市","MARKTYPE":"991","Class":"1"},"geometry":{"x":120.54162170743859,"y":24.069104699762335}},{"attributes":{"OBJECTID":27183,"LANDMARKID":"1000700000234","LANDMARKCO":"107","LANDMARKNA":"彰化縣消防局","LANDMARKAD":"1000701","ADDRESS":"彰化縣彰化市中央路1號","TEL":"04-7512119","COUNTYNAME":"彰化縣","TOWNNAME":"彰化市","MARKTYPE":"991","Class":"1"},"geometry":{"x":120.53620950444608,"y":24.063633370628036}},{"attributes":{"OBJECTID":27184,"LANDMARKID":"1000700000235","LANDMARKCO":"107","LANDMARKNA":"彰化縣消防局第一消防大隊部","LANDMARKAD":"1000701","ADDRESS":"彰化市復興里中山路三段266號3樓","TEL":"04-7265028","COUNTYNAME":"彰化縣","TOWNNAME":"彰化市","MARKTYPE":"991","Class":"1"},"geometry":{"x":120.55987959631231,"y":24.086276536822819}},{"attributes":{"OBJECTID":27185,"LANDMARKID":"1000700000236","LANDMARKCO":"107","LANDMARKNA":"彰化縣消防局彰化消防分隊","LANDMARKAD":"1000701","ADDRESS":"彰化縣彰化市南興里中央路1號","TEL":"04-7612804","COUNTYNAME":"彰化縣","TOWNNAME":"彰化市","MARKTYPE":"991","Class":"1"},"geometry":{"x":120.53620950444608,"y":24.063633370628036}},{"attributes":{"OBJECTID":27186,"LANDMARKID":"1000700000237","LANDMARKCO":"107","LANDMARKNA":"彰化縣警察局總局","LANDMARKAD":"1000701","ADDRESS":"彰化縣彰化市中正路二段778號","TEL":"04-7619370","COUNTYNAME":"彰化縣","TOWNNAME":"彰化市","MARKTYPE":"991","Class":"1"},"geometry":{"x":120.53432921552582,"y":24.065908932348123}},{"attributes":{"OBJECTID":27187,"LANDMARKID":"1000700000238","LANDMARKCO":"107","LANDMARKNA":"彰化縣警察局彰化分局","LANDMARKAD":"1000701","ADDRESS":"彰化縣彰化市永福里民生路234號","TEL":"04-7222439","COUNTYNAME":"彰化縣","TOWNNAME":"彰化市","MARKTYPE":"991","Class":"1"},"geometry":{"x":120.54285154716126,"y":24.080511781878531}},{"attributes":{"OBJECTID":27188,"LANDMARKID":"1000700000239","LANDMARKCO":"107","LANDMARKNA":"彰化縣警察局中正路派出所","LANDMARKAD":"1000701","ADDRESS":"彰化縣彰化市永福里民生路234號","TEL":"04-7242544","COUNTYNAME":"彰化縣","TOWNNAME":"彰化市","MARKTYPE":"991","Class":"1"},"geometry":{"x":120.54285154716126,"y":24.080511781878531}},{"attributes":{"OBJECTID":27189,"LANDMARKID":"1000700000240","LANDMARKCO":"107","LANDMARKNA":"彰化縣警察局中華路派出所","LANDMARKAD":"1000701","ADDRESS":"彰化縣彰化市中央里中華路193號","TEL":"04-7223507","COUNTYNAME":"彰化縣","TOWNNAME":"彰化市","MARKTYPE":"991","Class":"1"},"geometry":{"x":120.53949774794538,"y":24.078154355834339}},{"attributes":{"OBJECTID":27190,"LANDMARKID":"1000700000241","LANDMARKCO":"107","LANDMARKNA":"彰化縣警察局民生路派出所","LANDMARKAD":"1000701","ADDRESS":"彰化縣彰化市信義里民生路322號","TEL":"04-7228644","COUNTYNAME":"彰化縣","TOWNNAME":"彰化市","MARKTYPE":"991","Class":"1"},"geometry":{"x":120.54248888557925,"y":24.083447715479313}},{"attributes":{"OBJECTID":27191,"LANDMARKID":"1000700000242","LANDMARKCO":"107","LANDMARKNA":"彰化縣警察局民族路派出所","LANDMARKAD":"1000701","ADDRESS":"彰化縣彰化市成功村南瑤路257號","TEL":"04-7228433","COUNTYNAME":"彰化縣","TOWNNAME":"彰化市","MARKTYPE":"991","Class":"1"},"geometry":{"x":120.53987808157365,"y":24.071779364916672}},{"attributes":{"OBJECTID":27192,"LANDMARKID":"1000700000243","LANDMARKCO":"107","LANDMARKNA":"彰化縣警察局莿桐派出所","LANDMARKAD":"1000701","ADDRESS":"彰化縣彰化市莿桐里彰鹿路6號","TEL":"04-7523151","COUNTYNAME":"彰化縣","TOWNNAME":"彰化市","MARKTYPE":"991","Class":"1"},"geometry":{"x":120.51991521848518,"y":24.063920702442633}},{"attributes":{"OBJECTID":27193,"LANDMARKID":"1000700000244","LANDMARKCO":"107","LANDMARKNA":"彰化縣警察局泰和派出所","LANDMARKAD":"1000701","ADDRESS":"彰化縣彰化市古夷里泰和路二段399號","TEL":"04-7237560","COUNTYNAME":"彰化縣","TOWNNAME":"彰化市","MARKTYPE":"991","Class":"1"},"geometry":{"x":120.55605736909979,"y":24.09573341109212}},{"attributes":{"OBJECTID":27194,"LANDMARKID":"1000700000245","LANDMARKCO":"107","LANDMARKNA":"彰化縣警察局快官派出所","LANDMARKAD":"1000701","ADDRESS":"彰化縣彰化市快官里彰南路五段26號","TEL":"04-7381006","COUNTYNAME":"彰化縣","TOWNNAME":"彰化市","MARKTYPE":"991","Class":"1"},"geometry":{"x":120.61331615669197,"y":24.068243800319021}},{"attributes":{"OBJECTID":27195,"LANDMARKID":"1000700000246","LANDMARKCO":"107","LANDMARKNA":"彰化縣警察局八卦山派出所","LANDMARKAD":"1000701","ADDRESS":"彰化縣彰化市卦山里中山路二段456號","TEL":"04-7284292","COUNTYNAME":"彰化縣","TOWNNAME":"彰化市","MARKTYPE":"991","Class":"1"},"geometry":{"x":120.54453691069877,"y":24.077527730141828}},{"attributes":{"OBJECTID":27196,"LANDMARKID":"1000700000087","LANDMARKCO":"103","LANDMARKNA":"彰化縣政府民政局","LANDMARKAD":"1000701","ADDRESS":"彰化縣彰化市東興里23鄰中山路二段416號7樓","TEL":"04-7274312","COUNTYNAME":"彰化縣","TOWNNAME":"彰化市","MARKTYPE":"991","Class":"1"},"geometry":{"x":120.54473761878639,"y":24.075553022747393}},{"attributes":{"OBJECTID":27197,"LANDMARKID":"1000700000117","LANDMARKCO":"106","LANDMARKNA":"彰化縣彰化市戶政事務所","LANDMARKAD":"1000701","ADDRESS":"彰化縣彰化市中興路100號","TEL":"04-7266813","COUNTYNAME":"彰化縣","TOWNNAME":"彰化市","MARKTYPE":"991","Class":"1"},"geometry":{"x":120.54604962689807,"y":24.070416561073895}},{"attributes":{"OBJECTID":27198,"LANDMARKID":"1000700000111","LANDMARKCO":"105","LANDMARKNA":"彰化縣政府地政局","LANDMARKAD":"1000701","ADDRESS":"彰化縣彰化市中山路二段416號","TEL":"04-7222151","COUNTYNAME":"彰化縣","TOWNNAME":"彰化市","MARKTYPE":"991","Class":"1"},"geometry":{"x":120.54473761878639,"y":24.075553022747393}},{"attributes":{"OBJECTID":27199,"LANDMARKID":"1000700000112","LANDMARKCO":"105","LANDMARKNA":"彰化縣彰化地政事務所","LANDMARKAD":"1000701","ADDRESS":"彰化縣彰化市中興路100號","TEL":"04-7265924","COUNTYNAME":"彰化縣","TOWNNAME":"彰化市","MARKTYPE":"991","Class":"1"},"geometry":{"x":120.54604962689807,"y":24.070416561073895}},{"attributes":{"OBJECTID":27200,"LANDMARKID":"1000700000004","LANDMARKCO":"101","LANDMARKNA":"國立教育廣播電台彰化分台","LANDMARKAD":"1000701","ADDRESS":"彰化縣彰化市虎崗路5之1號","TEL":"04-7263070","COUNTYNAME":"彰化縣","TOWNNAME":"彰化市","MARKTYPE":"991","Class":"1"},"geometry":{"x":120.57303465244409,"y":24.060183504155358}}]}