{"displayFieldName":"COUNTYNAME","fieldAliases":{"OBJECTID":"OBJECTID","LANDMARKID":"LANDMARKID","LANDMARKCO":"LANDMARKCO","LANDMARKNA":"LANDMARKNA","LANDMARKAD":"LANDMARKAD","ADDRESS":"ADDRESS","TEL":"TEL","COUNTYNAME":"COUNTYNAME","TOWNNAME":"TOWNNAME","MARKTYPE":"MARKTYPE","Class":"Class"},"geometryType":"esriGeometryPoint","spatialReference":{"wkid":102443},"fields":[{"name":"OBJECTID","type":"esriFieldTypeOID","alias":"OBJECTID"},{"name":"LANDMARKID","type":"esriFieldTypeString","alias":"LANDMARKID","length":15},{"name":"LANDMARKCO","type":"esriFieldTypeString","alias":"LANDMARKCO","length":15},{"name":"LANDMARKNA","type":"esriFieldTypeString","alias":"LANDMARKNA","length":50},{"name":"LANDMARKAD","type":"esriFieldTypeString","alias":"LANDMARKAD","length":15},{"name":"ADDRESS","type":"esriFieldTypeString","alias":"ADDRESS","length":56},{"name":"TEL","type":"esriFieldTypeString","alias":"TEL","length":36},{"name":"COUNTYNAME","type":"esriFieldTypeString","alias":"COUNTYNAME","length":15},{"name":"TOWNNAME","type":"esriFieldTypeString","alias":"TOWNNAME","length":13},{"name":"MARKTYPE","type":"esriFieldTypeString","alias":"MARKTYPE","length":12},{"name":"Class","type":"esriFieldTypeString","alias":"Class","length":5}],"features":[{"attributes":{"OBJECTID":7401,"LANDMARKID":"6300000000167","LANDMARKCO":"104","LANDMARKNA":"台北市國稅局中北稽徵所","LANDMARKAD":"6300004","ADDRESS":"台北市中山區松江路367號4樓","TEL":"02-25024181","COUNTYNAME":"台北市","TOWNNAME":"中山區","MARKTYPE":"991","Class":"1"},"geometry":{"x":303824.65859999973,"y":2773016.1903000008}},{"attributes":{"OBJECTID":7402,"LANDMARKID":"6300000000168","LANDMARKCO":"104","LANDMARKNA":"台北市國稅局中南稽徵所","LANDMARKAD":"6300004","ADDRESS":"台北市南京東路二段116號8、9樓","TEL":"02-25433050","COUNTYNAME":"台北市","TOWNNAME":"中山區","MARKTYPE":"991","Class":"1"},"geometry":{"x":303744.43120000046,"y":2771625.4284000006}},{"attributes":{"OBJECTID":7403,"LANDMARKID":"6300000000169","LANDMARKCO":"104","LANDMARKNA":"台北市國稅局松山稽徵所","LANDMARKAD":"6300004","ADDRESS":"台北市中山區南京東路三段131號4樓","TEL":"02-27183606","COUNTYNAME":"台北市","TOWNNAME":"中山區","MARKTYPE":"991","Class":"1"},"geometry":{"x":304558.49990000017,"y":2771658.5223999992}},{"attributes":{"OBJECTID":7404,"LANDMARKID":"6300000000011","LANDMARKCO":"101","LANDMARKNA":"體育委員會","LANDMARKAD":"6300004","ADDRESS":"台北市中山區朱崙街20號","TEL":"02-87711800","COUNTYNAME":"台北市","TOWNNAME":"中山區","MARKTYPE":"991","Class":"1"},"geometry":{"x":304433.46229999978,"y":2771412.5263999999}},{"attributes":{"OBJECTID":7405,"LANDMARKID":"6300000000012","LANDMARKCO":"101","LANDMARKNA":"行政院金融監督管理委員會銀行","LANDMARKAD":"6300004","ADDRESS":"台北市中山區南京東路二段87號9樓","TEL":"02-25710766","COUNTYNAME":"台北市","TOWNNAME":"中山區","MARKTYPE":"991","Class":"1"},"geometry":{"x":303667.98020000011,"y":2771669.9791000001}},{"attributes":{"OBJECTID":7406,"LANDMARKID":"6300000000013","LANDMARKCO":"101","LANDMARKNA":"經濟部能源委員會","LANDMARKAD":"6300004","ADDRESS":"台北市中山區復興北路2號13樓","TEL":"02-27721370","COUNTYNAME":"台北市","TOWNNAME":"中山區","MARKTYPE":"991","Class":"1"},"geometry":{"x":304862.55570000038,"y":2771177.9282000009}},{"attributes":{"OBJECTID":7407,"LANDMARKID":"6300000000014","LANDMARKCO":"101","LANDMARKNA":"內政部資訊中心","LANDMARKAD":"6300004","ADDRESS":"台北市中山區松江路469巷4號","TEL":"02-25132200","COUNTYNAME":"台北市","TOWNNAME":"中山區","MARKTYPE":"991","Class":"1"},"geometry":{"x":303894.90340000018,"y":2773228.4130000006}},{"attributes":{"OBJECTID":7408,"LANDMARKID":"6300000000188","LANDMARKCO":"105","LANDMARKNA":"台北市中山地政事務所","LANDMARKAD":"6300004","ADDRESS":"台北市中山區松江路357巷1號","TEL":"02-25022881","COUNTYNAME":"台北市","TOWNNAME":"中山區","MARKTYPE":"991","Class":"1"},"geometry":{"x":303893.37179999985,"y":2772920.6739000008}},{"attributes":{"OBJECTID":7409,"LANDMARKID":"6300000000193","LANDMARKCO":"106","LANDMARKNA":"台北市中山區戶政事務所","LANDMARKAD":"6300004","ADDRESS":"台北市中山區行政里15鄰松江路367號2樓","TEL":"02-25032461","COUNTYNAME":"台北市","TOWNNAME":"中山區","MARKTYPE":"991","Class":"1"},"geometry":{"x":303824.65859999973,"y":2773016.1903000008}},{"attributes":{"OBJECTID":7410,"LANDMARKID":"6300000000304","LANDMARKCO":"107","LANDMARKNA":"台北市政府警察局中山一派出所","LANDMARKAD":"6300004","ADDRESS":"台北市中山區民安里中山北路一段110號","TEL":"02-25519321","COUNTYNAME":"台北市","TOWNNAME":"中山區","MARKTYPE":"991","Class":"1"},"geometry":{"x":302615.78490000032,"y":2771417.2247000001}},{"attributes":{"OBJECTID":7411,"LANDMARKID":"6300000000305","LANDMARKCO":"107","LANDMARKNA":"台北市政府警察局中山二派出所","LANDMARKAD":"6300004","ADDRESS":"台北市中山區民安里中山北路二段90號","TEL":"02-25412002","COUNTYNAME":"台北市","TOWNNAME":"中山區","MARKTYPE":"991","Class":"1"},"geometry":{"x":302730.40060000028,"y":2772265.8521999996}},{"attributes":{"OBJECTID":7412,"LANDMARKID":"6300000000306","LANDMARKCO":"107","LANDMARKNA":"台北市政府警察局圓山派出所","LANDMARKAD":"6300004","ADDRESS":"台北市中山區圓山里中山北路三段62號","TEL":"02-25942750","COUNTYNAME":"台北市","TOWNNAME":"中山區","MARKTYPE":"991","Class":"1"},"geometry":{"x":302837.47030000016,"y":2773935.6601999998}},{"attributes":{"OBJECTID":7413,"LANDMARKID":"6300000000307","LANDMARKCO":"107","LANDMARKNA":"台北市政府警察局長春路派出所","LANDMARKAD":"6300004","ADDRESS":"台北市中山區中央里長春路206號","TEL":"02-25062289","COUNTYNAME":"台北市","TOWNNAME":"中山區","MARKTYPE":"991","Class":"1"},"geometry":{"x":304086.41889999993,"y":2771937.6747999992}},{"attributes":{"OBJECTID":7414,"LANDMARKID":"6300000000308","LANDMARKCO":"107","LANDMARKNA":"台北市政府警察局長安東路派出","LANDMARKAD":"6300004","ADDRESS":"台北市中山區力行里長安東路二段165號","TEL":"02-27711932","COUNTYNAME":"台北市","TOWNNAME":"中山區","MARKTYPE":"991","Class":"1"},"geometry":{"x":304545.19079999998,"y":2771250.0806000009}},{"attributes":{"OBJECTID":7415,"LANDMARKID":"6300000000309","LANDMARKCO":"107","LANDMARKNA":"台北市政府警察局民權一派出所","LANDMARKAD":"6300004","ADDRESS":"台北市中山區中庄里新生北路二段127之1號","TEL":"02-25314671","COUNTYNAME":"台北市","TOWNNAME":"中山區","MARKTYPE":"991","Class":"1"},"geometry":{"x":303269.90029999986,"y":2772517.1779999994}},{"attributes":{"OBJECTID":7416,"LANDMARKID":"6300000000310","LANDMARKCO":"107","LANDMARKNA":"台北市政府警察局建國派出所","LANDMARKAD":"6300004","ADDRESS":"台北市中山區行孝里建國北路三段135號","TEL":"02-25091990","COUNTYNAME":"台北市","TOWNNAME":"中山區","MARKTYPE":"991","Class":"1"},"geometry":{"x":303984.74940000009,"y":2773315.0529999994}},{"attributes":{"OBJECTID":7417,"LANDMARKID":"6300000000311","LANDMARKCO":"107","LANDMARKNA":"台北市政府警察局大直派出所","LANDMARKAD":"6300004","ADDRESS":"台北市中山區劍潭里北安路456號","TEL":"02-25332984","COUNTYNAME":"台北市","TOWNNAME":"中山區","MARKTYPE":"991","Class":"1"},"geometry":{"x":304889.00820000004,"y":2774698.0163000003}},{"attributes":{"OBJECTID":7418,"LANDMARKID":"6300000000312","LANDMARKCO":"107","LANDMARKNA":"國公路第一警察隊濱江小隊","LANDMARKAD":"6300004","ADDRESS":"台北市中山區濱江街95號","TEL":"02-25018068","COUNTYNAME":"台北市","TOWNNAME":"中山區","MARKTYPE":"991","Class":"1"},"geometry":{"x":303759.31140000001,"y":2774072.0810000002}},{"attributes":{"OBJECTID":7419,"LANDMARKID":"6300000000313","LANDMARKCO":"107","LANDMARKNA":"台北市消防局大直消防分隊","LANDMARKAD":"6300004","ADDRESS":"台北市中山區樂群二路143號","TEL":"02-85026151","COUNTYNAME":"台北市","TOWNNAME":"中山區","MARKTYPE":"991","Class":"1"},"geometry":{"x":306153.75810000021,"y":2774767.5529999994}},{"attributes":{"OBJECTID":7420,"LANDMARKID":"6300000000314","LANDMARKCO":"107","LANDMARKNA":"台北市消防局圓山消防分隊","LANDMARKAD":"6300004","ADDRESS":"台北市中山區民族東路41號","TEL":"02-25913384","COUNTYNAME":"台北市","TOWNNAME":"中山區","MARKTYPE":"991","Class":"1"},"geometry":{"x":303446.62480000034,"y":2773472.9726999998}},{"attributes":{"OBJECTID":7421,"LANDMARKID":"6300000000150","LANDMARKCO":"103","LANDMARKNA":"台北市中山區健康服務中心","LANDMARKAD":"6300004","ADDRESS":"台北市中山區松江路367號7樓","TEL":"02-25014616","COUNTYNAME":"台北市","TOWNNAME":"中山區","MARKTYPE":"991","Class":"1"},"geometry":{"x":303824.65859999973,"y":2773016.1903000008}},{"attributes":{"OBJECTID":7422,"LANDMARKID":"6300000000369","LANDMARKCO":"108","LANDMARKNA":"台北市中山區公所","LANDMARKAD":"6300004","ADDRESS":"台北市中山區松江路367號","TEL":"02-25031369","COUNTYNAME":"台北市","TOWNNAME":"中山區","MARKTYPE":"991","Class":"1"},"geometry":{"x":303824.65859999973,"y":2773016.1903000008}},{"attributes":{"OBJECTID":7423,"LANDMARKID":"6300000000015","LANDMARKCO":"101","LANDMARKNA":"衛生署中醫藥委員會","LANDMARKAD":"6300004","ADDRESS":"台北市中山區雙城街6號5樓","TEL":"02-25872828","COUNTYNAME":"台北市","TOWNNAME":"中山區","MARKTYPE":"991","Class":"1"},"geometry":{"x":302898.6091,"y":2772901.9419}},{"attributes":{"OBJECTID":7424,"LANDMARKID":"6300000000016","LANDMARKCO":"101","LANDMARKNA":"勞工委員會外勞諮詢中心","LANDMARKAD":"6300004","ADDRESS":"台北市中山區新生北路二段101巷2號2樓","TEL":"02-25643157","COUNTYNAME":"台北市","TOWNNAME":"中山區","MARKTYPE":"991","Class":"1"},"geometry":{"x":303319.86569999997,"y":2772224.4876000006}},{"attributes":{"OBJECTID":7425,"LANDMARKID":"6300000000315","LANDMARKCO":"107","LANDMARKNA":"台北市政府警察局中山分局","LANDMARKAD":"6300004","ADDRESS":"臺北市中山區中山北路二段1號","TEL":"02-25412491","COUNTYNAME":"台北市","TOWNNAME":"中山區","MARKTYPE":"991","Class":"1"},"geometry":{"x":302754.05480000004,"y":2771706.5199999996}},{"attributes":{"OBJECTID":7426,"LANDMARKID":"6300000000151","LANDMARKCO":"103","LANDMARKNA":"台北市政府捷運工程局","LANDMARKAD":"6300004","ADDRESS":"台北市中山北路二段48巷7號","TEL":"02-25215550","COUNTYNAME":"台北市","TOWNNAME":"中山區","MARKTYPE":"991","Class":"1"},"geometry":{"x":302601.71040000021,"y":2772070.0197000001}},{"attributes":{"OBJECTID":7427,"LANDMARKID":"6300000000152","LANDMARKCO":"103","LANDMARKNA":"台北市中山運動中心","LANDMARKAD":"6300004","ADDRESS":"台北市中山區中山北路二段44巷2號","TEL":"02-25811060","COUNTYNAME":"台北市","TOWNNAME":"中山區","MARKTYPE":"991","Class":"1"},"geometry":{"x":302646.11359999981,"y":2771964.1030999999}},{"attributes":{"OBJECTID":7428,"LANDMARKID":"6300000000153","LANDMARKCO":"103","LANDMARKNA":"台北市第一殯儀館","LANDMARKAD":"6300004","ADDRESS":"台北市中山區民權東路二段145號","TEL":"02-25131057","COUNTYNAME":"台北市","TOWNNAME":"中山區","MARKTYPE":"991","Class":"1"},"geometry":{"x":304116.34219999984,"y":2772818.6493999995}},{"attributes":{"OBJECTID":7429,"LANDMARKID":"6300000000805","LANDMARKCO":"205","LANDMARKNA":"大同工學院科學博物館","LANDMARKAD":"6300004","ADDRESS":"台北市中山區中山北路三段22號","TEL":"02-25925252","COUNTYNAME":"台北市","TOWNNAME":"中山區","MARKTYPE":"992","Class":"2"},"geometry":{"x":302631.35680000018,"y":2773014.6942999996}},{"attributes":{"OBJECTID":7430,"LANDMARKID":"6300000000806","LANDMARKCO":"205","LANDMARKNA":"何三源化石館","LANDMARKAD":"6300004","ADDRESS":"台北市中山區錦西街4-2號","TEL":"02-25119667","COUNTYNAME":"台北市","TOWNNAME":"中山區","MARKTYPE":"992","Class":"2"},"geometry":{"x":302721.73479999974,"y":2772551.2963999994}},{"attributes":{"OBJECTID":7431,"LANDMARKID":"6300000000807","LANDMARKCO":"205","LANDMARKNA":"三合堂文物館","LANDMARKAD":"6300004","ADDRESS":"台北市中山區中山北路二段113號2樓","TEL":"02-25317099","COUNTYNAME":"台北市","TOWNNAME":"中山區","MARKTYPE":"992","Class":"2"},"geometry":{"x":302798.5231999997,"y":2772601.5233999994}},{"attributes":{"OBJECTID":7432,"LANDMARKID":"6300000000808","LANDMARKCO":"205","LANDMARKNA":"實踐服飾博物館","LANDMARKAD":"6300004","ADDRESS":"台北市大直街62巷3號","TEL":" ","COUNTYNAME":"台北市","TOWNNAME":"中山區","MARKTYPE":"992","Class":"2"},"geometry":{"x":305089.77960000001,"y":2775132.8309000004}},{"attributes":{"OBJECTID":7433,"LANDMARKID":"6300000000809","LANDMARKCO":"205","LANDMARKNA":"袖珍世界博物館","LANDMARKAD":"6300004","ADDRESS":"台北市建國北路一段96號B1樓","TEL":" ","COUNTYNAME":"台北市","TOWNNAME":"中山區","MARKTYPE":"992","Class":"2"},"geometry":{"x":304116.3088999996,"y":2771462.9297000002}},{"attributes":{"OBJECTID":7434,"LANDMARKID":"6300000000810","LANDMARKCO":"205","LANDMARKNA":"川康渝文物館","LANDMARKAD":"6300004","ADDRESS":"台北市中山北路二段27巷17號5樓","TEL":" ","COUNTYNAME":"台北市","TOWNNAME":"中山區","MARKTYPE":"992","Class":"2"},"geometry":{"x":302907.10890000034,"y":2771797.0878999997}},{"attributes":{"OBJECTID":7435,"LANDMARKID":"6300000000734","LANDMARKCO":"204","LANDMARKNA":"台北市立圖書館中山分館","LANDMARKAD":"6300004","ADDRESS":"台北市中山區松江路367號8樓","TEL":" ","COUNTYNAME":"台北市","TOWNNAME":"中山區","MARKTYPE":"992","Class":"2"},"geometry":{"x":303820.42190000042,"y":2773016.4339000005}},{"attributes":{"OBJECTID":7436,"LANDMARKID":"6300000000735","LANDMARKCO":"204","LANDMARKNA":"台北市立圖書館長安分館","LANDMARKAD":"6300004","ADDRESS":"台北市中山區長安西路3號4樓","TEL":" ","COUNTYNAME":"台北市","TOWNNAME":"中山區","MARKTYPE":"992","Class":"2"},"geometry":{"x":302606.3208999997,"y":2771414.7611999996}},{"attributes":{"OBJECTID":7437,"LANDMARKID":"6300000000736","LANDMARKCO":"204","LANDMARKNA":"台北市立圖書館大直分館","LANDMARKAD":"6300004","ADDRESS":"台北市中山區大直街25號3~5樓","TEL":" ","COUNTYNAME":"台北市","TOWNNAME":"中山區","MARKTYPE":"992","Class":"2"},"geometry":{"x":305141.62550000008,"y":2774954.8379999995}},{"attributes":{"OBJECTID":7438,"LANDMARKID":"6300000000834","LANDMARKCO":"207","LANDMARKNA":"台北市立美術館","LANDMARKAD":"6300004","ADDRESS":"台北市中山北路三段181號","TEL":" ","COUNTYNAME":"台北市","TOWNNAME":"中山區","MARKTYPE":"992","Class":"2"},"geometry":{"x":302882.00779999979,"y":2773763.7546999995}},{"attributes":{"OBJECTID":7439,"LANDMARKID":"6300000000648","LANDMARKCO":"203","LANDMARKNA":"市立新興國中","LANDMARKAD":"6300004","ADDRESS":"台北市中山區林森北路511號","TEL":"02-25718660","COUNTYNAME":"台北市","TOWNNAME":"中山區","MARKTYPE":"992","Class":"2"},"geometry":{"x":303123.35130000021,"y":2772739.4037999995}},{"attributes":{"OBJECTID":7440,"LANDMARKID":"6300000000450","LANDMARKCO":"202","LANDMARKNA":"私立大同高中","LANDMARKAD":"6300004","ADDRESS":"台北市中山區中山北路三段40號","TEL":"02-25925252","COUNTYNAME":"台北市","TOWNNAME":"中山區","MARKTYPE":"992","Class":"2"},"geometry":{"x":302689.06410000008,"y":2773285.8011000007}},{"attributes":{"OBJECTID":7441,"LANDMARKID":"6300000000451","LANDMARKCO":"202","LANDMARKNA":"市立大直高中","LANDMARKAD":"6300004","ADDRESS":"台北市中山區北安路420號","TEL":"02-25334017","COUNTYNAME":"台北市","TOWNNAME":"中山區","MARKTYPE":"992","Class":"2"},"geometry":{"x":304761.73539999966,"y":2774685.0280000009}},{"attributes":{"OBJECTID":7442,"LANDMARKID":"6300000000452","LANDMARKCO":"202","LANDMARKNA":"私立中興中學","LANDMARKAD":"6300004","ADDRESS":"台北市中山區朱崙街42號","TEL":"02-27412542","COUNTYNAME":"台北市","TOWNNAME":"中山區","MARKTYPE":"992","Class":"2"},"geometry":{"x":304683.15319999959,"y":2771413.1478000004}},{"attributes":{"OBJECTID":7443,"LANDMARKID":"6300000000453","LANDMARKCO":"202","LANDMARKNA":"市立中山女中","LANDMARKAD":"6300004","ADDRESS":"台北市中山區長安東路二段141號","TEL":"02-25073148","COUNTYNAME":"台北市","TOWNNAME":"中山區","MARKTYPE":"992","Class":"2"},"geometry":{"x":304201.26379999984,"y":2771260.3367999997}},{"attributes":{"OBJECTID":7444,"LANDMARKID":"6300000000454","LANDMARKCO":"202","LANDMARKNA":"市立大同高中","LANDMARKAD":"6300004","ADDRESS":"台北市中山區長春路167號","TEL":"02-25054269","COUNTYNAME":"台北市","TOWNNAME":"中山區","MARKTYPE":"992","Class":"2"},"geometry":{"x":303991.65510000009,"y":2771974.0500000007}},{"attributes":{"OBJECTID":7445,"LANDMARKID":"6300000000455","LANDMARKCO":"202","LANDMARKNA":"私立稻江護理家事學校","LANDMARKAD":"6300004","ADDRESS":"台北市中山區新生北路三段55號","TEL":"02-25955161","COUNTYNAME":"台北市","TOWNNAME":"中山區","MARKTYPE":"992","Class":"2"},"geometry":{"x":303328.39300000016,"y":2773122.4400999993}},{"attributes":{"OBJECTID":7446,"LANDMARKID":"6300000000634","LANDMARKCO":"203","LANDMARKNA":"市立北安國中","LANDMARKAD":"6300004","ADDRESS":"台北市中山區明水路325號","TEL":"02-25023888","COUNTYNAME":"台北市","TOWNNAME":"中山區","MARKTYPE":"992","Class":"2"},"geometry":{"x":304638.09829999972,"y":2774501.9038999993}},{"attributes":{"OBJECTID":7447,"LANDMARKID":"6300000000635","LANDMARKCO":"203","LANDMARKNA":"市立長安國中","LANDMARKAD":"6300004","ADDRESS":"台北市中山區松江路70巷11號","TEL":"02-25813012","COUNTYNAME":"台北市","TOWNNAME":"中山區","MARKTYPE":"992","Class":"2"},"geometry":{"x":303672.86050000042,"y":2771355.7148000002}},{"attributes":{"OBJECTID":7448,"LANDMARKID":"6300000000636","LANDMARKCO":"203","LANDMARKNA":"市立五常國中","LANDMARKAD":"6300004","ADDRESS":"台北市中山區復興北路430巷1號","TEL":"02-25017524","COUNTYNAME":"台北市","TOWNNAME":"中山區","MARKTYPE":"992","Class":"2"},"geometry":{"x":304793.49610000011,"y":2772919.4305000007}},{"attributes":{"OBJECTID":7449,"LANDMARKID":"6300000000637","LANDMARKCO":"203","LANDMARKNA":"市立濱江國中","LANDMARKAD":"6300004","ADDRESS":"台北市中山區樂群二路262號","TEL":"02-85020126","COUNTYNAME":"台北市","TOWNNAME":"中山區","MARKTYPE":"992","Class":"2"},"geometry":{"x":306563.99330000021,"y":2774710.5120999999}},{"attributes":{"OBJECTID":7450,"LANDMARKID":"6300000000638","LANDMARKCO":"203","LANDMARKNA":"市立五常國小","LANDMARKAD":"6300004","ADDRESS":"台北市中山區下埤里五常街16號","TEL":"02-25023416","COUNTYNAME":"台北市","TOWNNAME":"中山區","MARKTYPE":"992","Class":"2"},"geometry":{"x":304703.54279999994,"y":2772997.5363999996}},{"attributes":{"OBJECTID":7451,"LANDMARKID":"6300000000639","LANDMARKCO":"203","LANDMARKNA":"市立大直國小","LANDMARKAD":"6300004","ADDRESS":"台北市中山區大直里大直街2號","TEL":"02-25053953","COUNTYNAME":"台北市","TOWNNAME":"中山區","MARKTYPE":"992","Class":"2"},"geometry":{"x":305123.12270000018,"y":2774803.9475999996}},{"attributes":{"OBJECTID":7452,"LANDMARKID":"6300000000640","LANDMARKCO":"203","LANDMARKNA":"市立中山國小","LANDMARKAD":"6300004","ADDRESS":"台北市中山區恆安里民權東路一段69號","TEL":"02-25914085","COUNTYNAME":"台北市","TOWNNAME":"中山區","MARKTYPE":"992","Class":"2"},"geometry":{"x":303100.77759999968,"y":2772848.9916999992}},{"attributes":{"OBJECTID":7453,"LANDMARKID":"6300000000641","LANDMARKCO":"203","LANDMARKNA":"市立長安國小","LANDMARKAD":"6300004","ADDRESS":"台北市中山區興雅里吉林路15號","TEL":"02-25617600","COUNTYNAME":"台北市","TOWNNAME":"中山區","MARKTYPE":"992","Class":"2"},"geometry":{"x":303497.16330000013,"y":2771392.8081999999}},{"attributes":{"OBJECTID":7454,"LANDMARKID":"6300000000642","LANDMARKCO":"203","LANDMARKNA":"市立懷生國小","LANDMARKAD":"6300004","ADDRESS":"台北市中山區埤頭里安東街16巷2號","TEL":"02-27710846","COUNTYNAME":"台北市","TOWNNAME":"中山區","MARKTYPE":"992","Class":"2"},"geometry":{"x":304664.9944000002,"y":2770901.9755000006}},{"attributes":{"OBJECTID":7455,"LANDMARKID":"6300000000643","LANDMARKCO":"203","LANDMARKNA":"市立永安國小","LANDMARKAD":"6300004","ADDRESS":"台北市中山區明水路397巷19弄1號","TEL":"02-25335622","COUNTYNAME":"台北市","TOWNNAME":"中山區","MARKTYPE":"992","Class":"2"},"geometry":{"x":305421.61919999961,"y":2774610.3692000005}},{"attributes":{"OBJECTID":7456,"LANDMARKID":"6300000000644","LANDMARKCO":"203","LANDMARKNA":"市立吉林國小","LANDMARKAD":"6300004","ADDRESS":"台北市中山區中原里長春路116號","TEL":"02-25627215","COUNTYNAME":"台北市","TOWNNAME":"中山區","MARKTYPE":"992","Class":"2"},"geometry":{"x":303438.99710000027,"y":2771942.0263999999}},{"attributes":{"OBJECTID":7457,"LANDMARKID":"6300000000645","LANDMARKCO":"203","LANDMARKNA":"市立長春國小","LANDMARKAD":"6300004","ADDRESS":"台北市中山區中央里長春路165號","TEL":"02-25024366","COUNTYNAME":"台北市","TOWNNAME":"中山區","MARKTYPE":"992","Class":"2"},"geometry":{"x":303868.01099999994,"y":2771969.7884}},{"attributes":{"OBJECTID":7458,"LANDMARKID":"6300000000646","LANDMARKCO":"203","LANDMARKNA":"市立中正國小","LANDMARKAD":"6300004","ADDRESS":"台北市中山區力行里龍江路62號","TEL":"02-25070932","COUNTYNAME":"台北市","TOWNNAME":"中山區","MARKTYPE":"992","Class":"2"},"geometry":{"x":304513.08800000045,"y":2771492.9538000003}},{"attributes":{"OBJECTID":7459,"LANDMARKID":"6300000000647","LANDMARKCO":"203","LANDMARKNA":"市立大佳國小","LANDMARKAD":"6300004","ADDRESS":"台北市中山區大佳里濱江街107號","TEL":"02-25035816","COUNTYNAME":"台北市","TOWNNAME":"中山區","MARKTYPE":"992","Class":"2"},"geometry":{"x":304068.47479999997,"y":2774002.9616}},{"attributes":{"OBJECTID":7460,"LANDMARKID":"6300000000408","LANDMARKCO":"201","LANDMARKNA":"實踐大學","LANDMARKAD":"6300004","ADDRESS":"台北市中山區大直街70號","TEL":"02-25381111","COUNTYNAME":"台北市","TOWNNAME":"中山區","MARKTYPE":"992","Class":"2"},"geometry":{"x":305100.58249999955,"y":2775146.5285999998}},{"attributes":{"OBJECTID":7461,"LANDMARKID":"6300000000409","LANDMARKCO":"201","LANDMARKNA":"大同大學","LANDMARKAD":"6300004","ADDRESS":"台北市中山區中山北路三段40號","TEL":"02-25925252","COUNTYNAME":"台北市","TOWNNAME":"中山區","MARKTYPE":"992","Class":"2"},"geometry":{"x":302684.23080000002,"y":2773281.6828000005}},{"attributes":{"OBJECTID":7462,"LANDMARKID":"6300000000410","LANDMARKCO":"201","LANDMARKNA":"國立台北大學建國校區","LANDMARKAD":"6300004","ADDRESS":"台北市中山區建國北路二段69號","TEL":"02-25024654","COUNTYNAME":"台北市","TOWNNAME":"中山區","MARKTYPE":"992","Class":"2"},"geometry":{"x":304208.84700000007,"y":2772157.0419999994}},{"attributes":{"OBJECTID":7463,"LANDMARKID":"6300000000411","LANDMARKCO":"201","LANDMARKNA":"國立台北大學民生校區","LANDMARKAD":"6300004","ADDRESS":"台北市中山區民生東路三段67號","TEL":"02-25024654","COUNTYNAME":"台北市","TOWNNAME":"中山區","MARKTYPE":"992","Class":"2"},"geometry":{"x":304713.98269999959,"y":2772316.7595000006}},{"attributes":{"OBJECTID":7464,"LANDMARKID":"6300000000412","LANDMARKCO":"201","LANDMARKNA":"私立中國文化大學城區部","LANDMARKAD":"6300004","ADDRESS":"台北市中山區建國南路二段231號","TEL":"02-22768688","COUNTYNAME":"台北市","TOWNNAME":"中山區","MARKTYPE":"992","Class":"2"},"geometry":{"x":303406.36070000008,"y":2771819.4042000007}},{"attributes":{"OBJECTID":7465,"LANDMARKID":"6300000001436","LANDMARKCO":"303","LANDMARKNA":"松山堤防旁停車場","LANDMARKAD":"6300004","ADDRESS":"台北市中山區","TEL":" ","COUNTYNAME":"台北市","TOWNNAME":"中山區","MARKTYPE":"993","Class":"303"},"geometry":{"x":304007.01929999981,"y":2774107.5536000002}},{"attributes":{"OBJECTID":7466,"LANDMARKID":"6300000001437","LANDMARKCO":"303","LANDMARKNA":"建國北路高架橋下停車場","LANDMARKAD":"6300004","ADDRESS":"台北市中山區建國北路高架沿線","TEL":"02-25072902","COUNTYNAME":"台北市","TOWNNAME":"中山區","MARKTYPE":"993","Class":"303"},"geometry":{"x":304161.59360000025,"y":2771372.4869999997}},{"attributes":{"OBJECTID":7467,"LANDMARKID":"6300000001438","LANDMARKCO":"303","LANDMARKNA":"建國北路高架橋下停車場","LANDMARKAD":"6300004","ADDRESS":"台北市中山區建國北路高架沿線","TEL":"02-25072902","COUNTYNAME":"台北市","TOWNNAME":"中山區","MARKTYPE":"993","Class":"303"},"geometry":{"x":304160.84169999976,"y":2771404.8957000002}},{"attributes":{"OBJECTID":7468,"LANDMARKID":"6300000001439","LANDMARKCO":"303","LANDMARKNA":"建國北路高架橋下停車場","LANDMARKAD":"6300004","ADDRESS":"台北市中山區建國北路高架沿線","TEL":"02-25072902","COUNTYNAME":"台北市","TOWNNAME":"中山區","MARKTYPE":"993","Class":"303"},"geometry":{"x":304161.52859999985,"y":2772014.5502000004}},{"attributes":{"OBJECTID":7469,"LANDMARKID":"6300000001440","LANDMARKCO":"303","LANDMARKNA":"松山堤防旁停車場","LANDMARKAD":"6300004","ADDRESS":"台北市中山區","TEL":" ","COUNTYNAME":"台北市","TOWNNAME":"中山區","MARKTYPE":"993","Class":"303"},"geometry":{"x":304199.37849999964,"y":2774061.8847000003}},{"attributes":{"OBJECTID":7470,"LANDMARKID":"6300000001441","LANDMARKCO":"303","LANDMARKNA":"松山堤防旁停車場","LANDMARKAD":"6300004","ADDRESS":"台北市中山區","TEL":" ","COUNTYNAME":"台北市","TOWNNAME":"中山區","MARKTYPE":"993","Class":"303"},"geometry":{"x":304368.04609999992,"y":2774049.6000999995}},{"attributes":{"OBJECTID":7471,"LANDMARKID":"6300000001442","LANDMARKCO":"303","LANDMARKNA":"松山堤防旁停車場","LANDMARKAD":"6300004","ADDRESS":"台北市中山區","TEL":" ","COUNTYNAME":"台北市","TOWNNAME":"中山區","MARKTYPE":"993","Class":"303"},"geometry":{"x":304621.7790000001,"y":2774051.9678000007}},{"attributes":{"OBJECTID":7472,"LANDMARKID":"6300000001443","LANDMARKCO":"303","LANDMARKNA":"松山堤防旁停車場","LANDMARKAD":"6300004","ADDRESS":"台北市中山區","TEL":" ","COUNTYNAME":"台北市","TOWNNAME":"中山區","MARKTYPE":"993","Class":"303"},"geometry":{"x":305066.78870000038,"y":2774044.6631000005}},{"attributes":{"OBJECTID":7473,"LANDMARKID":"6300000001444","LANDMARKCO":"303","LANDMARKNA":"松山堤防旁停車場","LANDMARKAD":"6300004","ADDRESS":"台北市中山區","TEL":" ","COUNTYNAME":"台北市","TOWNNAME":"中山區","MARKTYPE":"993","Class":"303"},"geometry":{"x":305325.26750000007,"y":2774043.3004000001}},{"attributes":{"OBJECTID":7474,"LANDMARKID":"6300000002063","LANDMARKCO":"308","LANDMARKNA":"國1-圓山交流道-北上","LANDMARKAD":"6300004","ADDRESS":"台北市中山區","TEL":" ","COUNTYNAME":"台北市","TOWNNAME":"中山區","MARKTYPE":"993","Class":"308"},"geometry":{"x":304016.32340000011,"y":2773934.7778999992}},{"attributes":{"OBJECTID":7475,"LANDMARKID":"6300000002064","LANDMARKCO":"308","LANDMARKNA":"國1-圓山交流道-南下","LANDMARKAD":"6300004","ADDRESS":"台北市中山區","TEL":" ","COUNTYNAME":"台北市","TOWNNAME":"中山區","MARKTYPE":"993","Class":"308"},"geometry":{"x":303548.20669999998,"y":2774061.4597999994}},{"attributes":{"OBJECTID":7476,"LANDMARKID":"6300000001895","LANDMARKCO":"306","LANDMARKNA":"中山國中捷運站-出口","LANDMARKAD":"6300004","ADDRESS":" ","TEL":" ","COUNTYNAME":"台北市","TOWNNAME":"中山區","MARKTYPE":"993","Class":"306"},"geometry":{"x":304883.56630000006,"y":2772614.5916000009}},{"attributes":{"OBJECTID":7477,"LANDMARKID":"6300000001896","LANDMARKCO":"306","LANDMARKNA":"中山捷運站-出口","LANDMARKAD":"6300004","ADDRESS":" ","TEL":" ","COUNTYNAME":"台北市","TOWNNAME":"中山區","MARKTYPE":"993","Class":"306"},"geometry":{"x":302603.65110000037,"y":2771701.3361000009}},{"attributes":{"OBJECTID":7478,"LANDMARKID":"6300000001897","LANDMARKCO":"306","LANDMARKNA":"中山捷運站-出口3","LANDMARKAD":"6300004","ADDRESS":" ","TEL":" ","COUNTYNAME":"台北市","TOWNNAME":"中山區","MARKTYPE":"993","Class":"306"},"geometry":{"x":302598.34619999956,"y":2771676.5885000005}},{"attributes":{"OBJECTID":7479,"LANDMARKID":"6300000001898","LANDMARKCO":"306","LANDMARKNA":"中山捷運站-出口","LANDMARKAD":"6300004","ADDRESS":" ","TEL":" ","COUNTYNAME":"台北市","TOWNNAME":"中山區","MARKTYPE":"993","Class":"306"},"geometry":{"x":302504.04200000037,"y":2771790.8925000001}},{"attributes":{"OBJECTID":7480,"LANDMARKID":"6300000001899","LANDMARKCO":"306","LANDMARKNA":"民權西路捷運站-出口1","LANDMARKAD":"6300004","ADDRESS":" ","TEL":" ","COUNTYNAME":"台北市","TOWNNAME":"中山區","MARKTYPE":"993","Class":"306"},"geometry":{"x":302410.16289999988,"y":2772814.0822000001}},{"attributes":{"OBJECTID":7481,"LANDMARKID":"6300000001900","LANDMARKCO":"306","LANDMARKNA":"民權西路捷運站-出口3","LANDMARKAD":"6300004","ADDRESS":" ","TEL":" ","COUNTYNAME":"台北市","TOWNNAME":"中山區","MARKTYPE":"993","Class":"306"},"geometry":{"x":302446.54009999987,"y":2772717.7269000001}},{"attributes":{"OBJECTID":7482,"LANDMARKID":"6300000001901","LANDMARKCO":"306","LANDMARKNA":"民權西路捷運站-出口2","LANDMARKAD":"6300004","ADDRESS":" ","TEL":" ","COUNTYNAME":"台北市","TOWNNAME":"中山區","MARKTYPE":"993","Class":"306"},"geometry":{"x":302457.20110000018,"y":2772736.4770999998}},{"attributes":{"OBJECTID":7483,"LANDMARKID":"6300000001902","LANDMARKCO":"306","LANDMARKNA":"圓山捷運站-出口1","LANDMARKAD":"6300004","ADDRESS":" ","TEL":" ","COUNTYNAME":"台北市","TOWNNAME":"中山區","MARKTYPE":"993","Class":"306"},"geometry":{"x":302464.65469999984,"y":2773713.3506000005}},{"attributes":{"OBJECTID":7484,"LANDMARKID":"6300000001903","LANDMARKCO":"306","LANDMARKNA":"圓山捷運站-出口2","LANDMARKAD":"6300004","ADDRESS":" ","TEL":" ","COUNTYNAME":"台北市","TOWNNAME":"中山區","MARKTYPE":"993","Class":"306"},"geometry":{"x":302469.38659999985,"y":2773830.9209000003}},{"attributes":{"OBJECTID":7485,"LANDMARKID":"6300000001904","LANDMARKCO":"306","LANDMARKNA":"中山捷運站-出口2","LANDMARKAD":"6300004","ADDRESS":" ","TEL":" ","COUNTYNAME":"台北市","TOWNNAME":"中山區","MARKTYPE":"993","Class":"306"},"geometry":{"x":302498.27390000038,"y":2771733.6845999993}},{"attributes":{"OBJECTID":7486,"LANDMARKID":"6300000001905","LANDMARKCO":"306","LANDMARKNA":"中山捷運站-出口1","LANDMARKAD":"6300004","ADDRESS":" ","TEL":" ","COUNTYNAME":"台北市","TOWNNAME":"中山區","MARKTYPE":"993","Class":"306"},"geometry":{"x":302498.69560000021,"y":2771687.5496999994}},{"attributes":{"OBJECTID":7487,"LANDMARKID":"6300000000871","LANDMARKCO":"302","LANDMARKNA":"飛狗巴士","LANDMARKAD":"6300004","ADDRESS":"台北市中山區松江路534號4樓","TEL":"|","COUNTYNAME":"台北市","TOWNNAME":"中山區","MARKTYPE":"993","Class":"302"},"geometry":{"x":303779.40950000007,"y":2773317.0270000007}},{"attributes":{"OBJECTID":7488,"LANDMARKID":"6300000000872","LANDMARKCO":"302","LANDMARKNA":"飛狗巴士","LANDMARKAD":"6300004","ADDRESS":"台北市中山區松江路361號","TEL":"|","COUNTYNAME":"台北市","TOWNNAME":"中山區","MARKTYPE":"993","Class":"302"},"geometry":{"x":303819.30910000019,"y":2772930.9732000008}},{"attributes":{"OBJECTID":7489,"LANDMARKID":"6300000000873","LANDMARKCO":"302","LANDMARKNA":"飛狗巴士","LANDMARKAD":"6300004","ADDRESS":"台北市中山區松江路534號4樓","TEL":"|","COUNTYNAME":"台北市","TOWNNAME":"中山區","MARKTYPE":"993","Class":"302"},"geometry":{"x":303779.40950000007,"y":2773317.0270000007}},{"attributes":{"OBJECTID":7490,"LANDMARKID":"6300000000874","LANDMARKCO":"302","LANDMARKNA":"飛狗巴士","LANDMARKAD":"6300004","ADDRESS":"台北市中山區松江路354號4樓","TEL":"|","COUNTYNAME":"台北市","TOWNNAME":"中山區","MARKTYPE":"993","Class":"302"},"geometry":{"x":303771.79250000045,"y":2772724.2434999999}},{"attributes":{"OBJECTID":7491,"LANDMARKID":"6300000000875","LANDMARKCO":"303","LANDMARKNA":"天祥拖吊停車場","LANDMARKAD":"6300004","ADDRESS":" ","TEL":" ","COUNTYNAME":"台北市","TOWNNAME":"中山區","MARKTYPE":"993","Class":"303"},"geometry":{"x":302415.17679999955,"y":2773031.3563999999}},{"attributes":{"OBJECTID":7492,"LANDMARKID":"6300000000876","LANDMARKCO":"303","LANDMARKNA":"新光三越南京店停車場","LANDMARKAD":"6300004","ADDRESS":" ","TEL":" ","COUNTYNAME":"台北市","TOWNNAME":"中山區","MARKTYPE":"993","Class":"303"},"geometry":{"x":302545.1911000004,"y":2771678.2410000004}},{"attributes":{"OBJECTID":7493,"LANDMARKID":"6300000000877","LANDMARKCO":"303","LANDMARKNA":"新光三越南京電停車場","LANDMARKAD":"6300004","ADDRESS":" ","TEL":" ","COUNTYNAME":"台北市","TOWNNAME":"中山區","MARKTYPE":"993","Class":"303"},"geometry":{"x":302563.85790000018,"y":2771715.1259000003}},{"attributes":{"OBJECTID":7494,"LANDMARKID":"6300000000878","LANDMARKCO":"303","LANDMARKNA":"台北市中山運動中心地下停車場","LANDMARKAD":"6300004","ADDRESS":" ","TEL":" ","COUNTYNAME":"台北市","TOWNNAME":"中山區","MARKTYPE":"993","Class":"303"},"geometry":{"x":302621.29590000026,"y":2771966.5637999997}},{"attributes":{"OBJECTID":7495,"LANDMARKID":"6300000000879","LANDMARKCO":"303","LANDMARKNA":"亭園停車場","LANDMARKAD":"6300004","ADDRESS":" ","TEL":" ","COUNTYNAME":"台北市","TOWNNAME":"中山區","MARKTYPE":"993","Class":"303"},"geometry":{"x":302631.78949999996,"y":2771997.1350999996}},{"attributes":{"OBJECTID":7496,"LANDMARKID":"6300000000880","LANDMARKCO":"303","LANDMARKNA":"台北馬偕醫院地下停車場","LANDMARKAD":"6300004","ADDRESS":" ","TEL":" ","COUNTYNAME":"台北市","TOWNNAME":"中山區","MARKTYPE":"993","Class":"303"},"geometry":{"x":302728.40579999983,"y":2772355.7817000002}},{"attributes":{"OBJECTID":7497,"LANDMARKID":"6300000000881","LANDMARKCO":"303","LANDMARKNA":"中山足球場停車場入口一","LANDMARKAD":"6300004","ADDRESS":" ","TEL":"02-25942146","COUNTYNAME":"台北市","TOWNNAME":"中山區","MARKTYPE":"993","Class":"303"},"geometry":{"x":302658.06319999974,"y":2773695.1730000004}},{"attributes":{"OBJECTID":7498,"LANDMARKID":"6300000000882","LANDMARKCO":"303","LANDMARKNA":"中山足球場停車場入口二","LANDMARKAD":"6300004","ADDRESS":" ","TEL":"02-25942146","COUNTYNAME":"台北市","TOWNNAME":"中山區","MARKTYPE":"993","Class":"303"},"geometry":{"x":302640.4299999997,"y":2773482.2789999992}},{"attributes":{"OBJECTID":7499,"LANDMARKID":"6300000000883","LANDMARKCO":"303","LANDMARKNA":"聯通停車場","LANDMARKAD":"6300004","ADDRESS":" ","TEL":" ","COUNTYNAME":"台北市","TOWNNAME":"中山區","MARKTYPE":"993","Class":"303"},"geometry":{"x":303086.79849999957,"y":2773127.5556000005}},{"attributes":{"OBJECTID":7500,"LANDMARKID":"6300000000884","LANDMARKCO":"303","LANDMARKNA":"永盛公園停車場","LANDMARKAD":"6300004","ADDRESS":"台北市中山區中山北路二段93巷","TEL":" ","COUNTYNAME":"台北市","TOWNNAME":"中山區","MARKTYPE":"993","Class":"303"},"geometry":{"x":302943.74060000014,"y":2772445.7149999999}},{"attributes":{"OBJECTID":7501,"LANDMARKID":"6300000000885","LANDMARKCO":"303","LANDMARKNA":"德惠停車場","LANDMARKAD":"6300004","ADDRESS":" ","TEL":" ","COUNTYNAME":"台北市","TOWNNAME":"中山區","MARKTYPE":"993","Class":"303"},"geometry":{"x":302793.23029999994,"y":2773277.5578000005}},{"attributes":{"OBJECTID":7502,"LANDMARKID":"6300000000886","LANDMARKCO":"303","LANDMARKNA":"國賓大飯店行政大樓停車場","LANDMARKAD":"6300004","ADDRESS":"台北市中山區中山北路二段65巷9號B2樓","TEL":" ","COUNTYNAME":"台北市","TOWNNAME":"中山區","MARKTYPE":"993","Class":"303"},"geometry":{"x":302830.37980000023,"y":2772208.6687000003}},{"attributes":{"OBJECTID":7503,"LANDMARKID":"6300000000887","LANDMARKCO":"303","LANDMARKNA":"福金寶中山北路站停車場","LANDMARKAD":"6300004","ADDRESS":" ","TEL":" ","COUNTYNAME":"台北市","TOWNNAME":"中山區","MARKTYPE":"993","Class":"303"},"geometry":{"x":302850.94130000006,"y":2771491.2932999991}},{"attributes":{"OBJECTID":7504,"LANDMARKID":"6300000000888","LANDMARKCO":"303","LANDMARKNA":"雙城收費停車場","LANDMARKAD":"6300004","ADDRESS":" ","TEL":" ","COUNTYNAME":"台北市","TOWNNAME":"中山區","MARKTYPE":"993","Class":"303"},"geometry":{"x":302846.07679999992,"y":2773133.5623000003}},{"attributes":{"OBJECTID":7505,"LANDMARKID":"6300000000889","LANDMARKCO":"303","LANDMARKNA":"圓山大飯店停車場","LANDMARKAD":"6300004","ADDRESS":" ","TEL":" ","COUNTYNAME":"台北市","TOWNNAME":"中山區","MARKTYPE":"993","Class":"303"},"geometry":{"x":303022.5064000003,"y":2774614.0364999995}},{"attributes":{"OBJECTID":7506,"LANDMARKID":"6300000000890","LANDMARKCO":"303","LANDMARKNA":"中興嘟嘟房停車場-長安站","LANDMARKAD":"6300004","ADDRESS":"台北市中山區長安東路一段26號","TEL":"02-25605381","COUNTYNAME":"台北市","TOWNNAME":"中山區","MARKTYPE":"993","Class":"303"},"geometry":{"x":303063.44519999996,"y":2771273.6390000004}},{"attributes":{"OBJECTID":7507,"LANDMARKID":"6300000000891","LANDMARKCO":"303","LANDMARKNA":"帝國LOT26停車場","LANDMARKAD":"6300004","ADDRESS":"台北市中山區長安東路一段30巷3弄口","TEL":" ","COUNTYNAME":"台北市","TOWNNAME":"中山區","MARKTYPE":"993","Class":"303"},"geometry":{"x":303100.3387000002,"y":2771192.9253000002}},{"attributes":{"OBJECTID":7508,"LANDMARKID":"6300000000892","LANDMARKCO":"303","LANDMARKNA":"林森公園地下停車場入口","LANDMARKAD":"6300004","ADDRESS":" ","TEL":" ","COUNTYNAME":"台北市","TOWNNAME":"中山區","MARKTYPE":"993","Class":"303"},"geometry":{"x":303178.1978000002,"y":2771762.4403000008}},{"attributes":{"OBJECTID":7509,"LANDMARKID":"6300000000893","LANDMARKCO":"303","LANDMARKNA":"林森公園地下停車場出口","LANDMARKAD":"6300004","ADDRESS":" ","TEL":" ","COUNTYNAME":"台北市","TOWNNAME":"中山區","MARKTYPE":"993","Class":"303"},"geometry":{"x":303201.84949999955,"y":2771740.8957000002}},{"attributes":{"OBJECTID":7510,"LANDMARKID":"6300000000894","LANDMARKCO":"303","LANDMARKNA":"新生北路高架橋下停車場","LANDMARKAD":"6300004","ADDRESS":" ","TEL":"02-25366249","COUNTYNAME":"台北市","TOWNNAME":"中山區","MARKTYPE":"993","Class":"303"},"geometry":{"x":303214.98900000006,"y":2771840.9038999993}},{"attributes":{"OBJECTID":7511,"LANDMARKID":"6300000000895","LANDMARKCO":"303","LANDMARKNA":"新生北路高架橋下停車場","LANDMARKAD":"6300004","ADDRESS":" ","TEL":"02-25366249","COUNTYNAME":"台北市","TOWNNAME":"中山區","MARKTYPE":"993","Class":"303"},"geometry":{"x":303220.83640000038,"y":2772254.6011999995}},{"attributes":{"OBJECTID":7512,"LANDMARKID":"6300000000896","LANDMARKCO":"303","LANDMARKNA":"新生北路高架橋下停車場","LANDMARKAD":"6300004","ADDRESS":" ","TEL":"02-25366249","COUNTYNAME":"台北市","TOWNNAME":"中山區","MARKTYPE":"993","Class":"303"},"geometry":{"x":303223.86330000032,"y":2772329.9219000004}},{"attributes":{"OBJECTID":7513,"LANDMARKID":"6300000000897","LANDMARKCO":"303","LANDMARKNA":"新生北路高架橋下停車場","LANDMARKAD":"6300004","ADDRESS":" ","TEL":"02-25366249","COUNTYNAME":"台北市","TOWNNAME":"中山區","MARKTYPE":"993","Class":"303"},"geometry":{"x":303224.78230000008,"y":2772494.9627}},{"attributes":{"OBJECTID":7514,"LANDMARKID":"6300000000898","LANDMARKCO":"303","LANDMARKNA":"新生北路高架橋下停車場","LANDMARKAD":"6300004","ADDRESS":" ","TEL":"02-25366249","COUNTYNAME":"台北市","TOWNNAME":"中山區","MARKTYPE":"993","Class":"303"},"geometry":{"x":303226.60919999983,"y":2772650.0347000007}},{"attributes":{"OBJECTID":7515,"LANDMARKID":"6300000000899","LANDMARKCO":"303","LANDMARKNA":"新生北路高架橋下停車場","LANDMARKAD":"6300004","ADDRESS":" ","TEL":"02-25366249","COUNTYNAME":"台北市","TOWNNAME":"中山區","MARKTYPE":"993","Class":"303"},"geometry":{"x":303231.13289999962,"y":2771740.1073000003}},{"attributes":{"OBJECTID":7516,"LANDMARKID":"6300000000900","LANDMARKCO":"303","LANDMARKNA":"新生北路高架橋下停車場","LANDMARKAD":"6300004","ADDRESS":" ","TEL":"02-25366249","COUNTYNAME":"台北市","TOWNNAME":"中山區","MARKTYPE":"993","Class":"303"},"geometry":{"x":303239.20490000024,"y":2772020.3442000002}},{"attributes":{"OBJECTID":7517,"LANDMARKID":"6300000000901","LANDMARKCO":"303","LANDMARKNA":"新生北路高架橋下停車場","LANDMARKAD":"6300004","ADDRESS":" ","TEL":"02-25366249","COUNTYNAME":"台北市","TOWNNAME":"中山區","MARKTYPE":"993","Class":"303"},"geometry":{"x":303241.41370000038,"y":2771596.1119999997}},{"attributes":{"OBJECTID":7518,"LANDMARKID":"6300000000902","LANDMARKCO":"303","LANDMARKNA":"新生北路高架橋下停車場","LANDMARKAD":"6300004","ADDRESS":" ","TEL":"02-25366249","COUNTYNAME":"台北市","TOWNNAME":"中山區","MARKTYPE":"993","Class":"303"},"geometry":{"x":303240.82459999993,"y":2772350.9672999997}},{"attributes":{"OBJECTID":7519,"LANDMARKID":"6300000000903","LANDMARKCO":"303","LANDMARKNA":"新生北路高架橋下停車場","LANDMARKAD":"6300004","ADDRESS":" ","TEL":"02-25366249","COUNTYNAME":"台北市","TOWNNAME":"中山區","MARKTYPE":"993","Class":"303"},"geometry":{"x":303240.36679999996,"y":2773270.8892999999}},{"attributes":{"OBJECTID":7520,"LANDMARKID":"6300000000904","LANDMARKCO":"303","LANDMARKNA":"新生北路高架橋下停車場","LANDMARKAD":"6300004","ADDRESS":" ","TEL":"02-25366249","COUNTYNAME":"台北市","TOWNNAME":"中山區","MARKTYPE":"993","Class":"303"},"geometry":{"x":303242.57639999967,"y":2773064.8649000004}},{"attributes":{"OBJECTID":7521,"LANDMARKID":"6300000000905","LANDMARKCO":"303","LANDMARKNA":"新生北路高架橋下停車場","LANDMARKAD":"6300004","ADDRESS":" ","TEL":"02-25366249","COUNTYNAME":"台北市","TOWNNAME":"中山區","MARKTYPE":"993","Class":"303"},"geometry":{"x":303248.99710000027,"y":2772591.3289000001}},{"attributes":{"OBJECTID":7522,"LANDMARKID":"6300000000906","LANDMARKCO":"303","LANDMARKNA":"新生北路高架橋下停車場","LANDMARKAD":"6300004","ADDRESS":" ","TEL":"02-25366249","COUNTYNAME":"台北市","TOWNNAME":"中山區","MARKTYPE":"993","Class":"303"},"geometry":{"x":303258.91079999972,"y":2772928.6061000004}},{"attributes":{"OBJECTID":7523,"LANDMARKID":"6300000000907","LANDMARKCO":"303","LANDMARKNA":"金富康新北場停車場","LANDMARKAD":"6300004","ADDRESS":"中山區新生北路二段101巷1號旁空地","TEL":" ","COUNTYNAME":"台北市","TOWNNAME":"中山區","MARKTYPE":"993","Class":"303"},"geometry":{"x":303260.95359999966,"y":2772258.9427000005}},{"attributes":{"OBJECTID":7524,"LANDMARKID":"6300000000908","LANDMARKCO":"303","LANDMARKNA":"新生北路高架橋下停車場","LANDMARKAD":"6300004","ADDRESS":" ","TEL":"02-25366249","COUNTYNAME":"台北市","TOWNNAME":"中山區","MARKTYPE":"993","Class":"303"},"geometry":{"x":303264.58000000007,"y":2773294.1331999991}},{"attributes":{"OBJECTID":7525,"LANDMARKID":"6300000000909","LANDMARKCO":"303","LANDMARKNA":"新生北路高架橋下停車場","LANDMARKAD":"6300004","ADDRESS":" ","TEL":"02-25366249","COUNTYNAME":"台北市","TOWNNAME":"中山區","MARKTYPE":"993","Class":"303"},"geometry":{"x":303282.7834999999,"y":2771553.8929999992}},{"attributes":{"OBJECTID":7526,"LANDMARKID":"6300000000910","LANDMARKCO":"303","LANDMARKNA":"立成長安站停車場","LANDMARKAD":"6300004","ADDRESS":" ","TEL":" ","COUNTYNAME":"台北市","TOWNNAME":"中山區","MARKTYPE":"993","Class":"303"},"geometry":{"x":303296.3953999998,"y":2771281.2989000008}},{"attributes":{"OBJECTID":7527,"LANDMARKID":"6300000000911","LANDMARKCO":"303","LANDMARKNA":"新生北路高架橋下停車場","LANDMARKAD":"6300004","ADDRESS":" ","TEL":"02-25366249","COUNTYNAME":"台北市","TOWNNAME":"中山區","MARKTYPE":"993","Class":"303"},"geometry":{"x":303296.90979999956,"y":2771463.1758999992}},{"attributes":{"OBJECTID":7528,"LANDMARKID":"6300000000912","LANDMARKCO":"303","LANDMARKNA":"美僑協會平面停車場","LANDMARKAD":"6300004","ADDRESS":" ","TEL":" ","COUNTYNAME":"台北市","TOWNNAME":"中山區","MARKTYPE":"993","Class":"303"},"geometry":{"x":303303.45480000041,"y":2774497.9372000005}},{"attributes":{"OBJECTID":7529,"LANDMARKID":"6300000000913","LANDMARKCO":"303","LANDMARKNA":"力麒吉林停車場","LANDMARKAD":"6300004","ADDRESS":" ","TEL":" ","COUNTYNAME":"台北市","TOWNNAME":"中山區","MARKTYPE":"993","Class":"303"},"geometry":{"x":303501.54879999999,"y":2772055.3289999999}},{"attributes":{"OBJECTID":7530,"LANDMARKID":"6300000000914","LANDMARKCO":"303","LANDMARKNA":"新生公園廣場停車場","LANDMARKAD":"6300004","ADDRESS":" ","TEL":" ","COUNTYNAME":"台北市","TOWNNAME":"中山區","MARKTYPE":"993","Class":"303"},"geometry":{"x":303566.23579999991,"y":2773472.1229999997}},{"attributes":{"OBJECTID":7531,"LANDMARKID":"6300000000915","LANDMARKCO":"303","LANDMARKNA":"新生北路高架橋下停車場","LANDMARKAD":"6300004","ADDRESS":" ","TEL":"02-25366249","COUNTYNAME":"台北市","TOWNNAME":"中山區","MARKTYPE":"993","Class":"303"},"geometry":{"x":303603.13080000039,"y":2771067.6055999994}},{"attributes":{"OBJECTID":7532,"LANDMARKID":"6300000000916","LANDMARKCO":"303","LANDMARKNA":"中興嘟嘟房停車場-南京一江站","LANDMARKAD":"6300004","ADDRESS":"台北市中山區南京東路二段85號B1樓","TEL":"02-25681140","COUNTYNAME":"台北市","TOWNNAME":"中山區","MARKTYPE":"993","Class":"303"},"geometry":{"x":303656.89900000021,"y":2771665.2872000001}},{"attributes":{"OBJECTID":7533,"LANDMARKID":"6300000000917","LANDMARKCO":"303","LANDMARKNA":"中山區行政中心停車場","LANDMARKAD":"6300004","ADDRESS":"台北市中山區松江路367號B2樓","TEL":" ","COUNTYNAME":"台北市","TOWNNAME":"中山區","MARKTYPE":"993","Class":"303"},"geometry":{"x":303837.89960000012,"y":2772990.9351000004}},{"attributes":{"OBJECTID":7534,"LANDMARKID":"6300000000918","LANDMARKCO":"303","LANDMARKNA":"中園長春停車場","LANDMARKAD":"6300004","ADDRESS":"台北市中山區長春路176號B2樓","TEL":" ","COUNTYNAME":"台北市","TOWNNAME":"中山區","MARKTYPE":"993","Class":"303"},"geometry":{"x":303877.26339999959,"y":2771940.7277000006}},{"attributes":{"OBJECTID":7535,"LANDMARKID":"6300000000919","LANDMARKCO":"303","LANDMARKNA":"建國北路高架橋下停車場","LANDMARKAD":"6300004","ADDRESS":" ","TEL":"02-25072902","COUNTYNAME":"台北市","TOWNNAME":"中山區","MARKTYPE":"993","Class":"303"},"geometry":{"x":304100.37170000002,"y":2773195.4240000006}},{"attributes":{"OBJECTID":7536,"LANDMARKID":"6300000000920","LANDMARKCO":"303","LANDMARKNA":"中華電信停車場","LANDMARKAD":"6300004","ADDRESS":" ","TEL":" ","COUNTYNAME":"台北市","TOWNNAME":"中山區","MARKTYPE":"993","Class":"303"},"geometry":{"x":304138.00509999972,"y":2772628.8059999999}},{"attributes":{"OBJECTID":7537,"LANDMARKID":"6300000000921","LANDMARKCO":"303","LANDMARKNA":"第一殯儀館停車場","LANDMARKAD":"6300004","ADDRESS":" ","TEL":" ","COUNTYNAME":"台北市","TOWNNAME":"中山區","MARKTYPE":"993","Class":"303"},"geometry":{"x":304147.8004999999,"y":2772862.2401999999}},{"attributes":{"OBJECTID":7538,"LANDMARKID":"6300000000922","LANDMARKCO":"303","LANDMARKNA":"建國北路高架橋下停車場","LANDMARKAD":"6300004","ADDRESS":" ","TEL":"02-25072902","COUNTYNAME":"台北市","TOWNNAME":"中山區","MARKTYPE":"993","Class":"303"},"geometry":{"x":304152.8348000003,"y":2773094.6271000002}},{"attributes":{"OBJECTID":7539,"LANDMARKID":"6300000000923","LANDMARKCO":"303","LANDMARKNA":"建國北路高架橋下停車場D區","LANDMARKAD":"6300004","ADDRESS":" ","TEL":"02-25072902","COUNTYNAME":"台北市","TOWNNAME":"中山區","MARKTYPE":"993","Class":"303"},"geometry":{"x":304157.79530000035,"y":2771778.3977000006}},{"attributes":{"OBJECTID":7540,"LANDMARKID":"6300000000924","LANDMARKCO":"303","LANDMARKNA":"建國北路高架橋下停車場","LANDMARKAD":"6300004","ADDRESS":" ","TEL":"02-25072902","COUNTYNAME":"台北市","TOWNNAME":"中山區","MARKTYPE":"993","Class":"303"},"geometry":{"x":304174.43350000028,"y":2772155.3335999995}},{"attributes":{"OBJECTID":7541,"LANDMARKID":"6300000000925","LANDMARKCO":"303","LANDMARKNA":"建國北路高架橋下停車場","LANDMARKAD":"6300004","ADDRESS":" ","TEL":"02-25072902","COUNTYNAME":"台北市","TOWNNAME":"中山區","MARKTYPE":"993","Class":"303"},"geometry":{"x":304177.46040000021,"y":2772233.6449999996}},{"attributes":{"OBJECTID":7542,"LANDMARKID":"6300000000926","LANDMARKCO":"303","LANDMARKNA":"建國北路高架橋下停車場","LANDMARKAD":"6300004","ADDRESS":" ","TEL":"02-25072902","COUNTYNAME":"台北市","TOWNNAME":"中山區","MARKTYPE":"993","Class":"303"},"geometry":{"x":304179.66949999984,"y":2772496.7138}},{"attributes":{"OBJECTID":7543,"LANDMARKID":"6300000000927","LANDMARKCO":"303","LANDMARKNA":"建國北路高架橋下停車場","LANDMARKAD":"6300004","ADDRESS":" ","TEL":"02-25072902","COUNTYNAME":"台北市","TOWNNAME":"中山區","MARKTYPE":"993","Class":"303"},"geometry":{"x":304179.58179999981,"y":2772928.5889999997}},{"attributes":{"OBJECTID":7544,"LANDMARKID":"6300000000928","LANDMARKCO":"303","LANDMARKNA":"建國北路高架橋下停車場","LANDMARKAD":"6300004","ADDRESS":" ","TEL":"02-25072902","COUNTYNAME":"台北市","TOWNNAME":"中山區","MARKTYPE":"993","Class":"303"},"geometry":{"x":304182.79719999991,"y":2772588.7601999994}},{"attributes":{"OBJECTID":7545,"LANDMARKID":"6300000000929","LANDMARKCO":"303","LANDMARKNA":"聯通建國第二停車場","LANDMARKAD":"6300004","ADDRESS":" ","TEL":" ","COUNTYNAME":"台北市","TOWNNAME":"中山區","MARKTYPE":"993","Class":"303"},"geometry":{"x":304194.35199999996,"y":2771084.2291000001}},{"attributes":{"OBJECTID":7546,"LANDMARKID":"6300000000930","LANDMARKCO":"303","LANDMARKNA":"台北市濱江果菜批發市場停車場","LANDMARKAD":"6300004","ADDRESS":" ","TEL":" ","COUNTYNAME":"台北市","TOWNNAME":"中山區","MARKTYPE":"993","Class":"303"},"geometry":{"x":304115.46449999977,"y":2773321.3071999997}},{"attributes":{"OBJECTID":7547,"LANDMARKID":"6300000000931","LANDMARKCO":"303","LANDMARKNA":"中興嘟嘟房停車場-中崙站","LANDMARKAD":"6300004","ADDRESS":"台北市中山區八德路二段174巷11弄5號","TEL":" ","COUNTYNAME":"台北市","TOWNNAME":"中山區","MARKTYPE":"993","Class":"303"},"geometry":{"x":304365.94479999971,"y":2770917.7375000007}},{"attributes":{"OBJECTID":7548,"LANDMARKID":"6300000000932","LANDMARKCO":"303","LANDMARKNA":"龍江停車場","LANDMARKAD":"6300004","ADDRESS":" ","TEL":"02-25627667","COUNTYNAME":"台北市","TOWNNAME":"中山區","MARKTYPE":"993","Class":"303"},"geometry":{"x":304514.87810000032,"y":2771870.2693000007}},{"attributes":{"OBJECTID":7549,"LANDMARKID":"6300000000933","LANDMARKCO":"303","LANDMARKNA":"六福皇宮停車場","LANDMARKAD":"6300004","ADDRESS":" ","TEL":"02-8770-6565","COUNTYNAME":"台北市","TOWNNAME":"中山區","MARKTYPE":"993","Class":"303"},"geometry":{"x":304585.41370000038,"y":2771661.3425999992}},{"attributes":{"OBJECTID":7550,"LANDMARKID":"6300000000934","LANDMARKCO":"303","LANDMARKNA":"中興嘟嘟房停車場-龍江1站","LANDMARKAD":"6300004","ADDRESS":"台北市中山區遼寧街122巷1號","TEL":"02-25075434","COUNTYNAME":"台北市","TOWNNAME":"中山區","MARKTYPE":"993","Class":"303"},"geometry":{"x":304547.5560999997,"y":2771761.9422999993}},{"attributes":{"OBJECTID":7551,"LANDMARKID":"6300000000935","LANDMARKCO":"303","LANDMARKNA":"中興嘟嘟房停車場-龍江2站","LANDMARKAD":"6300004","ADDRESS":"台北市中山區龍江路、遼寧街122巷口","TEL":" ","COUNTYNAME":"台北市","TOWNNAME":"中山區","MARKTYPE":"993","Class":"303"},"geometry":{"x":304547.35649999976,"y":2771777.1469999999}},{"attributes":{"OBJECTID":7552,"LANDMARKID":"6300000000936","LANDMARKCO":"303","LANDMARKNA":"安東華廈停車場","LANDMARKAD":"6300004","ADDRESS":" ","TEL":" ","COUNTYNAME":"台北市","TOWNNAME":"中山區","MARKTYPE":"993","Class":"303"},"geometry":{"x":304658.5186999999,"y":2770995.6374999993}},{"attributes":{"OBJECTID":7553,"LANDMARKID":"6300000000937","LANDMARKCO":"303","LANDMARKNA":"光復東村廣場停車場","LANDMARKAD":"6300004","ADDRESS":" ","TEL":" ","COUNTYNAME":"台北市","TOWNNAME":"中山區","MARKTYPE":"993","Class":"303"},"geometry":{"x":304688.01539999992,"y":2771822.0207000002}},{"attributes":{"OBJECTID":7554,"LANDMARKID":"6300000000938","LANDMARKCO":"303","LANDMARKNA":"五常停車場","LANDMARKAD":"6300004","ADDRESS":" ","TEL":" ","COUNTYNAME":"台北市","TOWNNAME":"中山區","MARKTYPE":"993","Class":"303"},"geometry":{"x":304704.67190000042,"y":2773019.4559000004}},{"attributes":{"OBJECTID":7555,"LANDMARKID":"6300000000939","LANDMARKCO":"303","LANDMARKNA":"長寧大廈地下停車場","LANDMARKAD":"6300004","ADDRESS":" ","TEL":" ","COUNTYNAME":"台北市","TOWNNAME":"中山區","MARKTYPE":"993","Class":"303"},"geometry":{"x":304722.46190000046,"y":2771900.9993999992}},{"attributes":{"OBJECTID":7556,"LANDMARKID":"6300000000940","LANDMARKCO":"303","LANDMARKNA":"中興嘟嘟房停車場-遼寧3站","LANDMARKAD":"6300004","ADDRESS":"台北市中山區遼寧街與遼寧街177巷口","TEL":" ","COUNTYNAME":"台北市","TOWNNAME":"中山區","MARKTYPE":"993","Class":"303"},"geometry":{"x":304699.90899999999,"y":2771770.7977000009}},{"attributes":{"OBJECTID":7557,"LANDMARKID":"6300000000941","LANDMARKCO":"303","LANDMARKNA":"中興嘟嘟房停車場-遼寧2站","LANDMARKAD":"6300004","ADDRESS":"台北市中山區遼寧街與遼寧街167巷口","TEL":"02-27196608","COUNTYNAME":"台北市","TOWNNAME":"中山區","MARKTYPE":"993","Class":"303"},"geometry":{"x":304700.5773,"y":2771739.6532000005}},{"attributes":{"OBJECTID":7558,"LANDMARKID":"6300000000942","LANDMARKCO":"303","LANDMARKNA":"中興嘟嘟房停車場-遼寧1站","LANDMARKAD":"6300004","ADDRESS":"台北市中山區遼寧街與遼寧街155巷口","TEL":" ","COUNTYNAME":"台北市","TOWNNAME":"中山區","MARKTYPE":"993","Class":"303"},"geometry":{"x":304701.11990000028,"y":2771708.2972999997}},{"attributes":{"OBJECTID":7559,"LANDMARKID":"6300000000943","LANDMARKCO":"303","LANDMARKNA":"松山堤防旁大客車停車場","LANDMARKAD":"6300004","ADDRESS":"台北市中山區","TEL":" ","COUNTYNAME":"台北市","TOWNNAME":"中山區","MARKTYPE":"993","Class":"303"},"geometry":{"x":304862.83660000004,"y":2774050.6381999999}},{"attributes":{"OBJECTID":7560,"LANDMARKID":"6300000000944","LANDMARKCO":"303","LANDMARKNA":"中興嘟嘟房停車場-復興北站","LANDMARKAD":"6300004","ADDRESS":"台北市中山區復興北路456號","TEL":"02-25152375","COUNTYNAME":"台北市","TOWNNAME":"中山區","MARKTYPE":"993","Class":"303"},"geometry":{"x":304893.1557,"y":2772978.3087000009}},{"attributes":{"OBJECTID":7561,"LANDMARKID":"6300000000945","LANDMARKCO":"303","LANDMARKNA":"實踐大學停車場","LANDMARKAD":"6300004","ADDRESS":"台北市中山區大直街","TEL":" ","COUNTYNAME":"台北市","TOWNNAME":"中山區","MARKTYPE":"993","Class":"303"},"geometry":{"x":305361.80810000002,"y":2775322.9924999997}},{"attributes":{"OBJECTID":7562,"LANDMARKID":"6300000000946","LANDMARKCO":"303","LANDMARKNA":"翰林大直停車場","LANDMARKAD":"6300004","ADDRESS":"台北市中山區北安路630巷21號對面","TEL":" ","COUNTYNAME":"台北市","TOWNNAME":"中山區","MARKTYPE":"993","Class":"303"},"geometry":{"x":305503.18560000043,"y":2775038.6632000003}},{"attributes":{"OBJECTID":7563,"LANDMARKID":"6300000000947","LANDMARKCO":"303","LANDMARKNA":"美麗華百樂園停車場","LANDMARKAD":"6300004","ADDRESS":"台北市中山區","TEL":" ","COUNTYNAME":"台北市","TOWNNAME":"中山區","MARKTYPE":"993","Class":"303"},"geometry":{"x":306374.46200000029,"y":2775024.0847999994}},{"attributes":{"OBJECTID":7564,"LANDMARKID":"6300000000948","LANDMARKCO":"303","LANDMARKNA":"民族停車場","LANDMARKAD":"6300004","ADDRESS":" ","TEL":" ","COUNTYNAME":"台北市","TOWNNAME":"中山區","MARKTYPE":"993","Class":"303"},"geometry":{"x":304138.27190000005,"y":2773461.7954999991}},{"attributes":{"OBJECTID":7565,"LANDMARKID":"6300000000949","LANDMARKCO":"303","LANDMARKNA":"亞太駐車聯盟國賓站停車場","LANDMARKAD":"6300004","ADDRESS":"台北市中山區中山北路二段65巷7號B1","TEL":"02-25818590","COUNTYNAME":"台北市","TOWNNAME":"中山區","MARKTYPE":"993","Class":"303"},"geometry":{"x":302815.14070000034,"y":2772130.7511}},{"attributes":{"OBJECTID":7566,"LANDMARKID":"6300000000950","LANDMARKCO":"303","LANDMARKNA":"十四號公園停車場","LANDMARKAD":"6300004","ADDRESS":"台北市中山區","TEL":" ","COUNTYNAME":"台北市","TOWNNAME":"中山區","MARKTYPE":"993","Class":"303"},"geometry":{"x":303072.2352,"y":2771671.4249000009}},{"attributes":{"OBJECTID":7567,"LANDMARKID":"6300000000951","LANDMARKCO":"303","LANDMARKNA":"中興嘟嘟房停車場-博客加盟-新生站","LANDMARKAD":"6300004","ADDRESS":"台北市新生北路2段7號","TEL":"(02)2523-3086","COUNTYNAME":"台北市","TOWNNAME":"中山區","MARKTYPE":"993","Class":"303"},"geometry":{"x":303265.8217000002,"y":2771718.0383000001}},{"attributes":{"OBJECTID":7568,"LANDMARKID":"6300000000952","LANDMARKCO":"303","LANDMARKNA":"中興嘟嘟房停車場-長春戲院站","LANDMARKAD":"6300004","ADDRESS":"台北市中山區長春路176號1樓","TEL":"(02)2506-8193","COUNTYNAME":"台北市","TOWNNAME":"中山區","MARKTYPE":"993","Class":"303"},"geometry":{"x":303891.33040000033,"y":2771940.6971000005}},{"attributes":{"OBJECTID":7569,"LANDMARKID":"6300000000953","LANDMARKCO":"303","LANDMARKNA":"中興嘟嘟房停車場-林森站","LANDMARKAD":"6300004","ADDRESS":"台北市中山區林森北路302號","TEL":"(02)2563-0299","COUNTYNAME":"台北市","TOWNNAME":"中山區","MARKTYPE":"993","Class":"303"},"geometry":{"x":303002.9299999997,"y":2772074.0013999995}},{"attributes":{"OBJECTID":7570,"LANDMARKID":"6300000000954","LANDMARKCO":"303","LANDMARKNA":"中興嘟嘟房停車場-晴光站","LANDMARKAD":"6300004","ADDRESS":"台北市中山區農安街19號B1","TEL":"(02)2585-9859","COUNTYNAME":"台北市","TOWNNAME":"中山區","MARKTYPE":"993","Class":"303"},"geometry":{"x":302862.20040000044,"y":2773084.2135000005}},{"attributes":{"OBJECTID":7571,"LANDMARKID":"6300000000955","LANDMARKCO":"303","LANDMARKNA":"中興嘟嘟房停車場-寶盛加盟-雙城站","LANDMARKAD":"6300004","ADDRESS":"台北市中山區林森北路538-1號","TEL":"(02)2585-7163","COUNTYNAME":"台北市","TOWNNAME":"中山區","MARKTYPE":"993","Class":"303"},"geometry":{"x":302997.09229999967,"y":2772949.1833999995}},{"attributes":{"OBJECTID":7572,"LANDMARKID":"6300000000956","LANDMARKCO":"303","LANDMARKNA":"中興嘟嘟房停車場-天祥站","LANDMARKAD":"6300004","ADDRESS":"台北市中山區民權西路53號","TEL":" ","COUNTYNAME":"台北市","TOWNNAME":"中山區","MARKTYPE":"993","Class":"303"},"geometry":{"x":302516.84889999963,"y":2772859.8789000008}},{"attributes":{"OBJECTID":7573,"LANDMARKID":"6300000000957","LANDMARKCO":"303","LANDMARKNA":"亞太駐車聯盟中崙站停車場","LANDMARKAD":"6300004","ADDRESS":"台北市中山區八德路二段203號B1","TEL":" ","COUNTYNAME":"台北市","TOWNNAME":"中山區","MARKTYPE":"993","Class":"303"},"geometry":{"x":304460.82569999993,"y":2771071.1319999993}},{"attributes":{"OBJECTID":7574,"LANDMARKID":"6300000000958","LANDMARKCO":"303","LANDMARKNA":"YKK停車塔","LANDMARKAD":"6300004","ADDRESS":"台北市中山區民權東路二段40號","TEL":" ","COUNTYNAME":"台北市","TOWNNAME":"中山區","MARKTYPE":"993","Class":"303"},"geometry":{"x":303432.42740000039,"y":2772786.8113000002}},{"attributes":{"OBJECTID":7575,"LANDMARKID":"6300000000959","LANDMARKCO":"303","LANDMARKNA":"一江私人臨時停車場","LANDMARKAD":"6300004","ADDRESS":"台北市中山區吉林段二小段825地號","TEL":" ","COUNTYNAME":"台北市","TOWNNAME":"中山區","MARKTYPE":"993","Class":"303"},"geometry":{"x":305496.41789999977,"y":2775436.0252}},{"attributes":{"OBJECTID":7576,"LANDMARKID":"6300000000960","LANDMARKCO":"303","LANDMARKNA":"八條通停車場","LANDMARKAD":"6300004","ADDRESS":"台北市中山區中山北路一段135巷38號B2","TEL":" ","COUNTYNAME":"台北市","TOWNNAME":"中山區","MARKTYPE":"993","Class":"303"},"geometry":{"x":302931.94859999977,"y":2771547.3284000009}},{"attributes":{"OBJECTID":7577,"LANDMARKID":"6300000000961","LANDMARKCO":"303","LANDMARKNA":"中山北路三段55巷平面停車場","LANDMARKAD":"6300004","ADDRESS":"台北市中山區中山北路三段55巷","TEL":" ","COUNTYNAME":"台北市","TOWNNAME":"中山區","MARKTYPE":"993","Class":"303"},"geometry":{"x":302800.97790000029,"y":2773397.8178000003}},{"attributes":{"OBJECTID":7578,"LANDMARKID":"6300000000962","LANDMARKCO":"303","LANDMARKNA":"中山足球場停車場","LANDMARKAD":"6300004","ADDRESS":"台北市中山區玉門街1號","TEL":" ","COUNTYNAME":"台北市","TOWNNAME":"中山區","MARKTYPE":"993","Class":"303"},"geometry":{"x":302508.04530000035,"y":2773640.8987000007}},{"attributes":{"OBJECTID":7579,"LANDMARKID":"6300000000963","LANDMARKCO":"303","LANDMARKNA":"中安公園地下停車場","LANDMARKAD":"6300004","ADDRESS":"台北市中山區中山北路二段65巷2弄46號B1","TEL":" ","COUNTYNAME":"台北市","TOWNNAME":"中山區","MARKTYPE":"993","Class":"303"},"geometry":{"x":302913.64499999955,"y":2772143.4627999999}},{"attributes":{"OBJECTID":7580,"LANDMARKID":"6300000000964","LANDMARKCO":"303","LANDMARKNA":"中國石油公司龍江停車場","LANDMARKAD":"6300004","ADDRESS":"台北市中山區長春段二小段520地號","TEL":" ","COUNTYNAME":"台北市","TOWNNAME":"中山區","MARKTYPE":"993","Class":"303"},"geometry":{"x":305496.88350000046,"y":2775436.4813000001}},{"attributes":{"OBJECTID":7581,"LANDMARKID":"6300000000965","LANDMARKCO":"303","LANDMARKNA":"中崙加油站停車場","LANDMARKAD":"6300004","ADDRESS":"台北市中山區八德路二段214號","TEL":" ","COUNTYNAME":"台北市","TOWNNAME":"中山區","MARKTYPE":"993","Class":"303"},"geometry":{"x":304452.20480000041,"y":2771023.4663999993}},{"attributes":{"OBJECTID":7582,"LANDMARKID":"6300000000966","LANDMARKCO":"303","LANDMARKNA":"市民大道公中段地下停車場","LANDMARKAD":"6300004","ADDRESS":"台北市中山區市民大道(公園路-中山北路)","TEL":" ","COUNTYNAME":"台北市","TOWNNAME":"中山區","MARKTYPE":"993","Class":"303"},"geometry":{"x":302428.49129999988,"y":2771219.3397000004}},{"attributes":{"OBJECTID":7583,"LANDMARKID":"6300000000967","LANDMARKCO":"303","LANDMARKNA":"民族漁市場停車場","LANDMARKAD":"6300004","ADDRESS":"台北市中山區民族東路410巷18號","TEL":" ","COUNTYNAME":"台北市","TOWNNAME":"中山區","MARKTYPE":"993","Class":"303"},"geometry":{"x":304295.86950000003,"y":2773228.9659000002}},{"attributes":{"OBJECTID":7584,"LANDMARKID":"6300000000968","LANDMARKCO":"303","LANDMARKNA":"吉林國小側臨時平面停車場","LANDMARKAD":"6300004","ADDRESS":"台北市中山區四平街4號附近","TEL":" ","COUNTYNAME":"台北市","TOWNNAME":"中山區","MARKTYPE":"993","Class":"303"},"geometry":{"x":303478.19710000046,"y":2771854.9243999999}},{"attributes":{"OBJECTID":7585,"LANDMARKID":"6300000000969","LANDMARKCO":"303","LANDMARKNA":"台北老爺大酒店停車場","LANDMARKAD":"6300004","ADDRESS":"台北市中山區中山北路二段37之1號","TEL":" ","COUNTYNAME":"台北市","TOWNNAME":"中山區","MARKTYPE":"993","Class":"303"},"geometry":{"x":302758.00800000038,"y":2771829.8198000006}},{"attributes":{"OBJECTID":7586,"LANDMARKID":"6300000000970","LANDMARKCO":"303","LANDMARKNA":"佛原停車場","LANDMARKAD":"6300004","ADDRESS":"台北市中山區長春路258巷26號","TEL":" ","COUNTYNAME":"台北市","TOWNNAME":"中山區","MARKTYPE":"993","Class":"303"},"geometry":{"x":304378.14080000017,"y":2771791.3995999992}},{"attributes":{"OBJECTID":7587,"LANDMARKID":"6300000000971","LANDMARKCO":"303","LANDMARKNA":"亞太駐車聯盟朱崙站停車場","LANDMARKAD":"6300004","ADDRESS":"台北市中山區朱崙街36號B2樓","TEL":" ","COUNTYNAME":"台北市","TOWNNAME":"中山區","MARKTYPE":"993","Class":"303"},"geometry":{"x":304620.3602,"y":2771410.1964999996}},{"attributes":{"OBJECTID":7588,"LANDMARKID":"6300000000972","LANDMARKCO":"303","LANDMARKNA":"亞都大飯店停車場","LANDMARKAD":"6300004","ADDRESS":"台北市中山區中山區民權東路二段41號","TEL":" ","COUNTYNAME":"台北市","TOWNNAME":"中山區","MARKTYPE":"993","Class":"303"},"geometry":{"x":303472.61249999981,"y":2772833.8217999991}},{"attributes":{"OBJECTID":7589,"LANDMARKID":"6300000000973","LANDMARKCO":"303","LANDMARKNA":"兒童育樂中心旁平面停車場","LANDMARKAD":"6300004","ADDRESS":"台北市中山區玉門街","TEL":" ","COUNTYNAME":"台北市","TOWNNAME":"中山區","MARKTYPE":"993","Class":"303"},"geometry":{"x":302571.58239999972,"y":2774156.3750999998}},{"attributes":{"OBJECTID":7590,"LANDMARKID":"6300000000974","LANDMARKCO":"303","LANDMARKNA":"東光百貨停車場","LANDMARKAD":"6300004","ADDRESS":"台北市中山區林森北路413號","TEL":" ","COUNTYNAME":"台北市","TOWNNAME":"中山區","MARKTYPE":"993","Class":"303"},"geometry":{"x":303042.77560000028,"y":2772501.7087999992}},{"attributes":{"OBJECTID":7591,"LANDMARKID":"6300000000975","LANDMARKCO":"303","LANDMARKNA":"東家大樓地下停車場","LANDMARKAD":"6300004","ADDRESS":"台北市中山區松江路111號B1","TEL":" ","COUNTYNAME":"台北市","TOWNNAME":"中山區","MARKTYPE":"993","Class":"303"},"geometry":{"x":303804.29059999995,"y":2771574.3897999991}},{"attributes":{"OBJECTID":7592,"LANDMARKID":"6300000000976","LANDMARKCO":"303","LANDMARKNA":"林森北路臨時平面停車場","LANDMARKAD":"6300004","ADDRESS":"台北市中山區林森北路448號","TEL":" ","COUNTYNAME":"台北市","TOWNNAME":"中山區","MARKTYPE":"993","Class":"303"},"geometry":{"x":303017.17430000007,"y":2772606.0576000009}},{"attributes":{"OBJECTID":7593,"LANDMARKID":"6300000000977","LANDMARKCO":"303","LANDMARKNA":"松江路臨時停車場","LANDMARKAD":"6300004","ADDRESS":"台北市中山區德惠段二小段32之1地號","TEL":" ","COUNTYNAME":"台北市","TOWNNAME":"中山區","MARKTYPE":"993","Class":"303"},"geometry":{"x":305496.35140000004,"y":2775435.9454999994}},{"attributes":{"OBJECTID":7594,"LANDMARKID":"6300000000978","LANDMARKCO":"303","LANDMARKNA":"欣欣停車場","LANDMARKAD":"6300004","ADDRESS":"台北市中山區新生北路二段28巷1號B2","TEL":" ","COUNTYNAME":"台北市","TOWNNAME":"中山區","MARKTYPE":"993","Class":"303"},"geometry":{"x":303174.81070000026,"y":2771849.1240999997}},{"attributes":{"OBJECTID":7595,"LANDMARKID":"6300000000979","LANDMARKCO":"303","LANDMARKNA":"金車寶停車場","LANDMARKAD":"6300004","ADDRESS":"台北市中山區林森北路107巷3號","TEL":" ","COUNTYNAME":"台北市","TOWNNAME":"中山區","MARKTYPE":"993","Class":"303"},"geometry":{"x":303015.99870000035,"y":2771453.9546000008}},{"attributes":{"OBJECTID":7596,"LANDMARKID":"6300000000980","LANDMARKCO":"303","LANDMARKNA":"長安城立體停車塔","LANDMARKAD":"6300004","ADDRESS":"台北市中山區長安東路一段77巷2號","TEL":" ","COUNTYNAME":"台北市","TOWNNAME":"中山區","MARKTYPE":"993","Class":"303"},"geometry":{"x":303291.83330000006,"y":2771260.7816000003}},{"attributes":{"OBJECTID":7597,"LANDMARKID":"6300000000981","LANDMARKCO":"303","LANDMARKNA":"長春停車場","LANDMARKAD":"6300004","ADDRESS":"台北市中山區松江路160巷5之5號","TEL":" ","COUNTYNAME":"台北市","TOWNNAME":"中山區","MARKTYPE":"993","Class":"303"},"geometry":{"x":303697.92800000031,"y":2772011.9254999999}},{"attributes":{"OBJECTID":7598,"LANDMARKID":"6300000000982","LANDMARKCO":"303","LANDMARKNA":"長頸鹿車棧","LANDMARKAD":"6300004","ADDRESS":"台北市中山區民生東路二段49號","TEL":" ","COUNTYNAME":"台北市","TOWNNAME":"中山區","MARKTYPE":"993","Class":"303"},"geometry":{"x":303412.91249999963,"y":2772321.4973000009}},{"attributes":{"OBJECTID":7599,"LANDMARKID":"6300000000983","LANDMARKCO":"303","LANDMARKNA":"建國北路高架橋下停車場","LANDMARKAD":"6300004","ADDRESS":"台北市中山區","TEL":" ","COUNTYNAME":"台北市","TOWNNAME":"中山區","MARKTYPE":"993","Class":"303"},"geometry":{"x":304154.12880000006,"y":2771068.9236999992}},{"attributes":{"OBJECTID":7600,"LANDMARKID":"6300000000984","LANDMARKCO":"303","LANDMARKNA":"星緣停車場","LANDMARKAD":"6300004","ADDRESS":"台北市中山區新生北路三段7號正英大廈B1","TEL":" ","COUNTYNAME":"台北市","TOWNNAME":"中山區","MARKTYPE":"993","Class":"303"},"geometry":{"x":303278.83579999954,"y":2772905.0649999995}}]}