{"displayFieldName":"COUNTYNAME","fieldAliases":{"OBJECTID":"OBJECTID","LANDMARKID":"LANDMARKID","LANDMARKCO":"LANDMARKCO","LANDMARKNA":"LANDMARKNA","LANDMARKAD":"LANDMARKAD","ADDRESS":"ADDRESS","TEL":"TEL","COUNTYNAME":"COUNTYNAME","TOWNNAME":"TOWNNAME","MARKTYPE":"MARKTYPE","Class":"Class"},"geometryType":"esriGeometryPoint","spatialReference":{"wkid":102443},"fields":[{"name":"OBJECTID","type":"esriFieldTypeOID","alias":"OBJECTID"},{"name":"LANDMARKID","type":"esriFieldTypeString","alias":"LANDMARKID","length":15},{"name":"LANDMARKCO","type":"esriFieldTypeString","alias":"LANDMARKCO","length":15},{"name":"LANDMARKNA","type":"esriFieldTypeString","alias":"LANDMARKNA","length":50},{"name":"LANDMARKAD","type":"esriFieldTypeString","alias":"LANDMARKAD","length":15},{"name":"ADDRESS","type":"esriFieldTypeString","alias":"ADDRESS","length":56},{"name":"TEL","type":"esriFieldTypeString","alias":"TEL","length":36},{"name":"COUNTYNAME","type":"esriFieldTypeString","alias":"COUNTYNAME","length":15},{"name":"TOWNNAME","type":"esriFieldTypeString","alias":"TOWNNAME","length":13},{"name":"MARKTYPE","type":"esriFieldTypeString","alias":"MARKTYPE","length":12},{"name":"Class","type":"esriFieldTypeString","alias":"Class","length":5}],"features":[{"attributes":{"OBJECTID":1001,"LANDMARKID":"1000300000101","LANDMARKCO":"106","LANDMARKNA":"桃園縣大園鄉戶政事務所","LANDMARKAD":"1000306","ADDRESS":"桃園縣大園鄉中山北路162號","TEL":"03-3862474","COUNTYNAME":"桃園市","TOWNNAME":"大園區","MARKTYPE":"991","Class":"1"},"geometry":{"x":269808.15089999977,"y":2773279.7321000006}},{"attributes":{"OBJECTID":1002,"LANDMARKID":"1000300000082","LANDMARKCO":"104","LANDMARKNA":"關稅總局台北關稅局","LANDMARKAD":"1000306","ADDRESS":"桃園縣大園鄉航勤北路21號","TEL":"03-3834265","COUNTYNAME":"桃園市","TOWNNAME":"大園區","MARKTYPE":"991","Class":"1"},"geometry":{"x":272991.27570000011,"y":2773959.9871999994}},{"attributes":{"OBJECTID":1003,"LANDMARKID":"1000300000078","LANDMARKCO":"103","LANDMARKNA":"桃園縣大園鄉鄉民代表會","LANDMARKAD":"1000306","ADDRESS":"桃園縣大園鄉中正西路19號","TEL":"03-3862040","COUNTYNAME":"桃園市","TOWNNAME":"大園區","MARKTYPE":"991","Class":"1"},"geometry":{"x":269733.36060000025,"y":2772809.8418000005}},{"attributes":{"OBJECTID":1004,"LANDMARKID":"1000300000001","LANDMARKCO":"101","LANDMARKNA":"工業局大園工業區管理中心","LANDMARKAD":"1000306","ADDRESS":"桃園縣大園鄉內海村民生路101號","TEL":"03-3854968","COUNTYNAME":"桃園市","TOWNNAME":"大園區","MARKTYPE":"991","Class":"1"},"geometry":{"x":269886.31510000024,"y":2773699.6176999994}},{"attributes":{"OBJECTID":1005,"LANDMARKID":"1000300000077","LANDMARKCO":"103","LANDMARKNA":"桃園縣大園鄉衛生所","LANDMARKAD":"1000306","ADDRESS":"桃園縣大園鄉田心村中正西路19號","TEL":"03-3862024","COUNTYNAME":"桃園市","TOWNNAME":"大園區","MARKTYPE":"991","Class":"1"},"geometry":{"x":269733.375,"y":2772819.8418000005}},{"attributes":{"OBJECTID":1006,"LANDMARKID":"1000300000217","LANDMARKCO":"107","LANDMARKNA":"桃園縣政府警察局潮音派出所","LANDMARKAD":"1000306","ADDRESS":"桃園縣大園鄉北港村9號","TEL":"03-3862314","COUNTYNAME":"桃園市","TOWNNAME":"大園區","MARKTYPE":"991","Class":"1"},"geometry":{"x":267216.03670000006,"y":2774739.8534999993}},{"attributes":{"OBJECTID":1007,"LANDMARKID":"1000300000218","LANDMARKCO":"107","LANDMARKNA":"內政部入出國及移民署","LANDMARKAD":"1000306","ADDRESS":"桃園縣大園鄉航站南路9號","TEL":"03-3982728","COUNTYNAME":"桃園市","TOWNNAME":"大園區","MARKTYPE":"991","Class":"1"},"geometry":{"x":274021.26209999993,"y":2774869.6513999999}},{"attributes":{"OBJECTID":1008,"LANDMARKID":"1000300000079","LANDMARKCO":"103","LANDMARKNA":"大園鄉垃圾處理場","LANDMARKAD":"1000306","ADDRESS":"桃園縣大園鄉北港村","TEL":" ","COUNTYNAME":"桃園市","TOWNNAME":"大園區","MARKTYPE":"991","Class":"1"},"geometry":{"x":267398.13889999967,"y":2774819.9763999991}},{"attributes":{"OBJECTID":1009,"LANDMARKID":"1000300000571","LANDMARKCO":"205","LANDMARKNA":"中正航空科學館","LANDMARKAD":"1000306","ADDRESS":"桃園縣大園鄉航站南路5號","TEL":" ","COUNTYNAME":"桃園市","TOWNNAME":"大園區","MARKTYPE":"992","Class":"2"},"geometry":{"x":272564.05800000019,"y":2773599.4782999996}},{"attributes":{"OBJECTID":1010,"LANDMARKID":"1000300000543","LANDMARKCO":"204","LANDMARKNA":"桃園縣立圖書館大園分館","LANDMARKAD":"1000306","ADDRESS":"桃園縣大園鄉田心村中正西路19號4樓","TEL":" ","COUNTYNAME":"桃園市","TOWNNAME":"大園區","MARKTYPE":"992","Class":"2"},"geometry":{"x":269734.57259999961,"y":2772814.8083999995}},{"attributes":{"OBJECTID":1011,"LANDMARKID":"1000300000274","LANDMARKCO":"202","LANDMARKNA":"私立大興高中","LANDMARKAD":"1000306","ADDRESS":"桃園縣大園鄉永興路142號","TEL":"03-3862330","COUNTYNAME":"桃園市","TOWNNAME":"大園區","MARKTYPE":"992","Class":"2"},"geometry":{"x":269451.15649999958,"y":2772669.8469999991}},{"attributes":{"OBJECTID":1012,"LANDMARKID":"1000300000512","LANDMARKCO":"203","LANDMARKNA":"縣立大園國中","LANDMARKAD":"1000306","ADDRESS":"桃園縣大園鄉中華路298號","TEL":"03-3862029","COUNTYNAME":"桃園市","TOWNNAME":"大園區","MARKTYPE":"992","Class":"2"},"geometry":{"x":270803.1445000004,"y":2773579.9082999993}},{"attributes":{"OBJECTID":1013,"LANDMARKID":"1000300000513","LANDMARKCO":"203","LANDMARKNA":"縣立竹圍國小","LANDMARKAD":"1000306","ADDRESS":"桃園縣大園鄉竹圍村2鄰竹圍街3號","TEL":"03-3835079","COUNTYNAME":"桃園市","TOWNNAME":"大園區","MARKTYPE":"992","Class":"2"},"geometry":{"x":274663.2285000002,"y":2777309.9915999994}},{"attributes":{"OBJECTID":1014,"LANDMARKID":"1000300000514","LANDMARKCO":"203","LANDMARKNA":"縣立五權國小","LANDMARKAD":"1000306","ADDRESS":"桃園縣大園鄉中正東路二段539號","TEL":"03-3812803","COUNTYNAME":"桃園市","TOWNNAME":"大園區","MARKTYPE":"992","Class":"2"},"geometry":{"x":273370.34379999992,"y":2768459.8344000001}},{"attributes":{"OBJECTID":1015,"LANDMARKID":"1000300000515","LANDMARKCO":"203","LANDMARKNA":"縣立圳頭國小","LANDMARKAD":"1000306","ADDRESS":"桃園縣大園鄉中華路261號","TEL":"03-3862504","COUNTYNAME":"桃園市","TOWNNAME":"大園區","MARKTYPE":"992","Class":"2"},"geometry":{"x":270619.44600000046,"y":2773779.7640000004}},{"attributes":{"OBJECTID":1016,"LANDMARKID":"1000300000516","LANDMARKCO":"203","LANDMARKNA":"縣立后厝國小","LANDMARKAD":"1000306","ADDRESS":"桃園縣大園鄉國際路二段147號","TEL":"03-3869583","COUNTYNAME":"桃園市","TOWNNAME":"大園區","MARKTYPE":"992","Class":"2"},"geometry":{"x":271684.09970000014,"y":2774779.8370999992}},{"attributes":{"OBJECTID":1017,"LANDMARKID":"1000300000517","LANDMARKCO":"203","LANDMARKNA":"縣立竹圍國中","LANDMARKAD":"1000306","ADDRESS":"桃園縣大園鄉沙崙村下海湖4之5號","TEL":"03-3835026","COUNTYNAME":"桃園市","TOWNNAME":"大園區","MARKTYPE":"992","Class":"2"},"geometry":{"x":273997.30310000014,"y":2777969.6838000007}},{"attributes":{"OBJECTID":1018,"LANDMARKID":"1000300000518","LANDMARKCO":"203","LANDMARKNA":"縣立陳康國小","LANDMARKAD":"1000306","ADDRESS":"桃園縣大園鄉建國八村151號","TEL":"03-3811092","COUNTYNAME":"桃園市","TOWNNAME":"大園區","MARKTYPE":"992","Class":"2"},"geometry":{"x":273256.34339999966,"y":2772459.5424000006}},{"attributes":{"OBJECTID":1019,"LANDMARKID":"1000300000519","LANDMARKCO":"203","LANDMARKNA":"縣立內海國小","LANDMARKAD":"1000306","ADDRESS":"桃園縣大園鄉內海村1鄰18之1號","TEL":"03-3862844","COUNTYNAME":"桃園市","TOWNNAME":"大園區","MARKTYPE":"992","Class":"2"},"geometry":{"x":269273.05790000036,"y":2775369.6996999998}},{"attributes":{"OBJECTID":1020,"LANDMARKID":"1000300000520","LANDMARKCO":"203","LANDMARKNA":"縣立埔心國小","LANDMARKAD":"1000306","ADDRESS":"桃園縣大園鄉埔心村25鄰50號","TEL":"03-3812304","COUNTYNAME":"桃園市","TOWNNAME":"大園區","MARKTYPE":"992","Class":"2"},"geometry":{"x":272744.2882000003,"y":2771199.9397999998}},{"attributes":{"OBJECTID":1021,"LANDMARKID":"1000300000521","LANDMARKCO":"203","LANDMARKNA":"縣立溪海國小","LANDMARKAD":"1000306","ADDRESS":"桃園縣大園鄉溪海村11鄰30號","TEL":"03-3862174","COUNTYNAME":"桃園市","TOWNNAME":"大園區","MARKTYPE":"992","Class":"2"},"geometry":{"x":268849.42329999991,"y":2771019.9121000003}},{"attributes":{"OBJECTID":1022,"LANDMARKID":"1000300000522","LANDMARKCO":"203","LANDMARKNA":"縣立果林國小","LANDMARKAD":"1000306","ADDRESS":"桃園縣大園鄉果林村十二鄰崁下41號","TEL":"03-3835096","COUNTYNAME":"桃園市","TOWNNAME":"大園區","MARKTYPE":"992","Class":"2"},"geometry":{"x":275850.36160000041,"y":2774299.8759000003}},{"attributes":{"OBJECTID":1023,"LANDMARKID":"1000300000523","LANDMARKCO":"203","LANDMARKNA":"縣立潮音國小","LANDMARKAD":"1000306","ADDRESS":"桃園縣大園鄉南港村8鄰17號","TEL":"03-3862834","COUNTYNAME":"桃園市","TOWNNAME":"大園區","MARKTYPE":"992","Class":"2"},"geometry":{"x":267492.21119999979,"y":2773029.8592000008}},{"attributes":{"OBJECTID":1024,"LANDMARKID":"1000300000524","LANDMARKCO":"203","LANDMARKNA":"縣立沙崙國小","LANDMARKAD":"1000306","ADDRESS":"桃園縣大園鄉沙崙村9鄰75號之2","TEL":"03-3835072","COUNTYNAME":"桃園市","TOWNNAME":"大園區","MARKTYPE":"992","Class":"2"},"geometry":{"x":272389.24780000001,"y":2776099.5923999995}},{"attributes":{"OBJECTID":1025,"LANDMARKID":"1000300000525","LANDMARKCO":"203","LANDMARKNA":"縣立大園國小","LANDMARKAD":"1000306","ADDRESS":"桃園縣大園鄉橫峰村尖山中正東路160號","TEL":"03-3862030","COUNTYNAME":"桃園市","TOWNNAME":"大園區","MARKTYPE":"992","Class":"2"},"geometry":{"x":270403.26319999993,"y":2772429.6745999996}},{"attributes":{"OBJECTID":1026,"LANDMARKID":"1000300000694","LANDMARKCO":"305","LANDMARKNA":"竹圍漁港","LANDMARKAD":"1000306","ADDRESS":"桃園縣大園鄉","TEL":" ","COUNTYNAME":"桃園市","TOWNNAME":"大園區","MARKTYPE":"993","Class":"305"},"geometry":{"x":274670.72670000046,"y":2778892.5366999991}},{"attributes":{"OBJECTID":1027,"LANDMARKID":"1000300000726","LANDMARKCO":"308","LANDMARKNA":"國2-大園交流道-南下","LANDMARKAD":"1000306","ADDRESS":"桃園縣大園鄉","TEL":" ","COUNTYNAME":"桃園市","TOWNNAME":"大園區","MARKTYPE":"993","Class":"308"},"geometry":{"x":271542.70239999983,"y":2772478.1103000008}},{"attributes":{"OBJECTID":1028,"LANDMARKID":"1000300000727","LANDMARKCO":"308","LANDMARKNA":"國2-大園交流道-南下","LANDMARKAD":"1000306","ADDRESS":"桃園縣大園鄉","TEL":" ","COUNTYNAME":"桃園市","TOWNNAME":"大園區","MARKTYPE":"993","Class":"308"},"geometry":{"x":271527.73259999976,"y":2772178.4944000002}},{"attributes":{"OBJECTID":1029,"LANDMARKID":"1000300000728","LANDMARKCO":"308","LANDMARKNA":"國2-機場端-南下","LANDMARKAD":"1000306","ADDRESS":"桃園縣大園鄉","TEL":" ","COUNTYNAME":"桃園市","TOWNNAME":"大園區","MARKTYPE":"993","Class":"308"},"geometry":{"x":272172.44400000013,"y":2773376.9088000003}},{"attributes":{"OBJECTID":1030,"LANDMARKID":"1000300000729","LANDMARKCO":"308","LANDMARKNA":"國2-機場端-北上","LANDMARKAD":"1000306","ADDRESS":"桃園縣大園鄉","TEL":" ","COUNTYNAME":"桃園市","TOWNNAME":"大園區","MARKTYPE":"993","Class":"308"},"geometry":{"x":272159.18120000046,"y":2773213.5366999991}},{"attributes":{"OBJECTID":1031,"LANDMARKID":"1000300000730","LANDMARKCO":"308","LANDMARKNA":"台61-竹圍交流道-北上","LANDMARKAD":"1000306","ADDRESS":" ","TEL":" ","COUNTYNAME":"桃園市","TOWNNAME":"大園區","MARKTYPE":"993","Class":"308"},"geometry":{"x":272175.04110000003,"y":2777585.6488000005}},{"attributes":{"OBJECTID":1032,"LANDMARKID":"1000300000731","LANDMARKCO":"308","LANDMARKNA":"台61-竹圍交流道-南下","LANDMARKAD":"1000306","ADDRESS":" ","TEL":" ","COUNTYNAME":"桃園市","TOWNNAME":"大園區","MARKTYPE":"993","Class":"308"},"geometry":{"x":271864.04739999957,"y":2777471.4706999995}},{"attributes":{"OBJECTID":1033,"LANDMARKID":"1000300000732","LANDMARKCO":"308","LANDMARKNA":"台61-沙崙交流道-南下","LANDMARKAD":"1000306","ADDRESS":" ","TEL":" ","COUNTYNAME":"桃園市","TOWNNAME":"大園區","MARKTYPE":"993","Class":"308"},"geometry":{"x":271360.18400000036,"y":2777239.4419}},{"attributes":{"OBJECTID":1034,"LANDMARKID":"1000300000733","LANDMARKCO":"308","LANDMARKNA":"台61-大園交流道-北上","LANDMARKAD":"1000306","ADDRESS":" ","TEL":" ","COUNTYNAME":"桃園市","TOWNNAME":"大園區","MARKTYPE":"993","Class":"308"},"geometry":{"x":268467.6668999996,"y":2775206.3444999997}},{"attributes":{"OBJECTID":1035,"LANDMARKID":"1000300000734","LANDMARKCO":"308","LANDMARKNA":"台61-大園交流道-南下","LANDMARKAD":"1000306","ADDRESS":" ","TEL":" ","COUNTYNAME":"桃園市","TOWNNAME":"大園區","MARKTYPE":"993","Class":"308"},"geometry":{"x":268104.83939999994,"y":2774987.1911999993}},{"attributes":{"OBJECTID":1036,"LANDMARKID":"1000300000591","LANDMARKCO":"302","LANDMARKNA":"桃園汽車客運竹圍站","LANDMARKAD":"1000306","ADDRESS":"桃園縣大園鄉海口村10鄰155號","TEL":" ","COUNTYNAME":"桃園市","TOWNNAME":"大園區","MARKTYPE":"993","Class":"302"},"geometry":{"x":274634.35140000004,"y":2777526.0526999999}},{"attributes":{"OBJECTID":1037,"LANDMARKID":"1000300000592","LANDMARKCO":"302","LANDMARKNA":"桃園汽車客運大園站","LANDMARKAD":"1000306","ADDRESS":"桃園縣大園鄉中山村中正東路47號","TEL":" ","COUNTYNAME":"桃園市","TOWNNAME":"大園區","MARKTYPE":"993","Class":"302"},"geometry":{"x":270060.51680000033,"y":2772853.0774000008}},{"attributes":{"OBJECTID":1038,"LANDMARKID":"1000300000693","LANDMARKCO":"304","LANDMARKNA":"桃園國際航空站-中正機場","LANDMARKAD":"1000306","ADDRESS":"桃園縣大園鄉航站南路9號","TEL":" ","COUNTYNAME":"桃園市","TOWNNAME":"大園區","MARKTYPE":"993","Class":"304"},"geometry":{"x":274204.76329999976,"y":2775006.0782999992}},{"attributes":{"OBJECTID":1039,"LANDMARKID":"1000300000593","LANDMARKCO":"302","LANDMARKNA":"國光汽車客運中正機場站","LANDMARKAD":"1000306","ADDRESS":"桃園縣大園鄉埔心村16鄰航站南路15號","TEL":" ","COUNTYNAME":"桃園市","TOWNNAME":"大園區","MARKTYPE":"993","Class":"302"},"geometry":{"x":271759.17239999957,"y":2771745.5219000001}},{"attributes":{"OBJECTID":1040,"LANDMARKID":"1000300000594","LANDMARKCO":"302","LANDMARKNA":"統聯汽車客運機場一站","LANDMARKAD":"1000306","ADDRESS":"桃園縣大園鄉中正國際機場第一航廈","TEL":" ","COUNTYNAME":"桃園市","TOWNNAME":"大園區","MARKTYPE":"993","Class":"302"},"geometry":{"x":272462.88300000038,"y":2773531.4596999995}},{"attributes":{"OBJECTID":1041,"LANDMARKID":"1000300000595","LANDMARKCO":"302","LANDMARKNA":"統聯汽車客運機場二站","LANDMARKAD":"1000306","ADDRESS":"桃園縣大園鄉中正國際機場第二航廈","TEL":" ","COUNTYNAME":"桃園市","TOWNNAME":"大園區","MARKTYPE":"993","Class":"302"},"geometry":{"x":274251.09590000007,"y":2775034.8653999995}},{"attributes":{"OBJECTID":1042,"LANDMARKID":"1000300000639","LANDMARKCO":"303","LANDMARKNA":"老溪街停車場","LANDMARKAD":"1000306","ADDRESS":"桃園縣大園鄉大園鄉公所旁","TEL":" ","COUNTYNAME":"桃園市","TOWNNAME":"大園區","MARKTYPE":"993","Class":"303"},"geometry":{"x":269707.20390000008,"y":2772847.0459000003}},{"attributes":{"OBJECTID":1043,"LANDMARKID":"1000300000640","LANDMARKCO":"303","LANDMARKNA":"連勝立體出國停車場一場","LANDMARKAD":"1000306","ADDRESS":"桃園縣大園鄉中正東路444巷17號","TEL":"03-3851192","COUNTYNAME":"桃園市","TOWNNAME":"大園區","MARKTYPE":"993","Class":"303"},"geometry":{"x":271435.2416000003,"y":2772161.9584999997}},{"attributes":{"OBJECTID":1044,"LANDMARKID":"1000300000641","LANDMARKCO":"303","LANDMARKNA":"連勝立體出國停車場三場","LANDMARKAD":"1000306","ADDRESS":"桃園縣大園鄉中正東路444巷21號","TEL":"03-3860066","COUNTYNAME":"桃園市","TOWNNAME":"大園區","MARKTYPE":"993","Class":"303"},"geometry":{"x":271665.07079999987,"y":2772146.9234999996}},{"attributes":{"OBJECTID":1045,"LANDMARKID":"1000300000642","LANDMARKCO":"303","LANDMARKNA":"航科館停車場","LANDMARKAD":"1000306","ADDRESS":"桃園縣大園鄉","TEL":" ","COUNTYNAME":"桃園市","TOWNNAME":"大園區","MARKTYPE":"993","Class":"303"},"geometry":{"x":272688.41729999986,"y":2773638.9911000002}},{"attributes":{"OBJECTID":1046,"LANDMARKID":"1000300000643","LANDMARKCO":"303","LANDMARKNA":"中正機場西側停車場","LANDMARKAD":"1000306","ADDRESS":" ","TEL":"03-3931999","COUNTYNAME":"桃園市","TOWNNAME":"大園區","MARKTYPE":"993","Class":"303"},"geometry":{"x":273236.85940000042,"y":2774200.0846999995}},{"attributes":{"OBJECTID":1047,"LANDMARKID":"1000300000644","LANDMARKCO":"303","LANDMARKNA":"中正機場東側停車場","LANDMARKAD":"1000306","ADDRESS":" ","TEL":"03-3931999","COUNTYNAME":"桃園市","TOWNNAME":"大園區","MARKTYPE":"993","Class":"303"},"geometry":{"x":273508.77290000021,"y":2774444.7389000002}},{"attributes":{"OBJECTID":1048,"LANDMARKID":"1000300000645","LANDMARKCO":"303","LANDMARKNA":"出境停車場","LANDMARKAD":"1000306","ADDRESS":" ","TEL":" ","COUNTYNAME":"桃園市","TOWNNAME":"大園區","MARKTYPE":"993","Class":"303"},"geometry":{"x":274124.70830000006,"y":2774949.3893999998}},{"attributes":{"OBJECTID":1049,"LANDMARKID":"1000300000646","LANDMARKCO":"303","LANDMARKNA":"皇家停車場","LANDMARKAD":"1000306","ADDRESS":"桃園縣大園鄉三民路二段1號","TEL":"03-3838451","COUNTYNAME":"桃園市","TOWNNAME":"大園區","MARKTYPE":"993","Class":"303"},"geometry":{"x":275553.93690000009,"y":2775631.5925999992}},{"attributes":{"OBJECTID":1050,"LANDMARKID":"1000300000647","LANDMARKCO":"303","LANDMARKNA":"五福停車場","LANDMARKAD":"1000306","ADDRESS":"桃園縣大園鄉三民路二段165號","TEL":"03-3837735","COUNTYNAME":"桃園市","TOWNNAME":"大園區","MARKTYPE":"993","Class":"303"},"geometry":{"x":275814.86550000031,"y":2775244.0032000002}},{"attributes":{"OBJECTID":1051,"LANDMARKID":"1000300000648","LANDMARKCO":"303","LANDMARKNA":"出境停車場","LANDMARKAD":"1000306","ADDRESS":"桃園縣大園鄉果林村三民路二段45號","TEL":"03-3936066","COUNTYNAME":"桃園市","TOWNNAME":"大園區","MARKTYPE":"993","Class":"303"},"geometry":{"x":274215.3992999997,"y":2774970.8811000008}},{"attributes":{"OBJECTID":1052,"LANDMARKID":"1000300000649","LANDMARKCO":"303","LANDMARKNA":"入境停車場","LANDMARKAD":"1000306","ADDRESS":"桃園縣大園鄉","TEL":" ","COUNTYNAME":"桃園市","TOWNNAME":"大園區","MARKTYPE":"993","Class":"303"},"geometry":{"x":273858.5856999997,"y":2774755.1821999997}},{"attributes":{"OBJECTID":1053,"LANDMARKID":"1000300000650","LANDMARKCO":"303","LANDMARKNA":"中興嘟嘟房停車場-中正旗艦站","LANDMARKAD":"1000306","ADDRESS":"桃園縣大園鄉三民路1段808號(台四線及航勤北路口)","TEL":"03-3989898","COUNTYNAME":"桃園市","TOWNNAME":"大園區","MARKTYPE":"993","Class":"303"},"geometry":{"x":275362.82060000021,"y":2775778.1634999998}},{"attributes":{"OBJECTID":1054,"LANDMARKID":"1000300000858","LANDMARKCO":"402","LANDMARKNA":"中華電信-大園服務中心","LANDMARKAD":"1000306","ADDRESS":"桃園縣大園鄉新興路42號","TEL":"(03)386-4491","COUNTYNAME":"桃園市","TOWNNAME":"大園區","MARKTYPE":"994","Class":"4"},"geometry":{"x":269603.21760000009,"y":2772891.6903000008}},{"attributes":{"OBJECTID":1055,"LANDMARKID":"1000300000859","LANDMARKCO":"402","LANDMARKNA":"威寶電信-大園中華特約服務中心","LANDMARKAD":"1000306","ADDRESS":"桃園縣大園鄉中華路19號","TEL":"03-3856634","COUNTYNAME":"桃園市","TOWNNAME":"大園區","MARKTYPE":"994","Class":"4"},"geometry":{"x":269936.55200000014,"y":2773138.1688999999}},{"attributes":{"OBJECTID":1056,"LANDMARKID":"1000300000860","LANDMARKCO":"402","LANDMARKNA":"遠傳電信-桃園中正機場一期航站入境服務處","LANDMARKAD":"1000306","ADDRESS":"桃園縣大園鄉航站南路15號","TEL":" ","COUNTYNAME":"桃園市","TOWNNAME":"大園區","MARKTYPE":"994","Class":"4"},"geometry":{"x":273992.33980000019,"y":2774834.0413000006}},{"attributes":{"OBJECTID":1057,"LANDMARKID":"1000300000861","LANDMARKCO":"402","LANDMARKNA":"遠傳電信-桃園中正機場一期航站出境服務處","LANDMARKAD":"1000306","ADDRESS":"桃園縣大園鄉航站南路15號","TEL":" ","COUNTYNAME":"桃園市","TOWNNAME":"大園區","MARKTYPE":"994","Class":"4"},"geometry":{"x":273992.33980000019,"y":2774834.0413000006}},{"attributes":{"OBJECTID":1058,"LANDMARKID":"1000300000862","LANDMARKCO":"402","LANDMARKNA":"遠傳電信-桃園中正機場二期航站入境服務處","LANDMARKAD":"1000306","ADDRESS":"桃園縣大園鄉航站南路9號","TEL":" ","COUNTYNAME":"桃園市","TOWNNAME":"大園區","MARKTYPE":"994","Class":"4"},"geometry":{"x":273281.11459999997,"y":2774242.2609999999}},{"attributes":{"OBJECTID":1059,"LANDMARKID":"1000300000863","LANDMARKCO":"402","LANDMARKNA":"遠傳電信-桃園中正機場二期航站出境服務處","LANDMARKAD":"1000306","ADDRESS":"桃園縣大園鄉航站南路9號","TEL":" ","COUNTYNAME":"桃園市","TOWNNAME":"大園區","MARKTYPE":"994","Class":"4"},"geometry":{"x":273281.11459999997,"y":2774242.2609999999}},{"attributes":{"OBJECTID":1060,"LANDMARKID":"1000300001620","LANDMARKCO":"603","LANDMARKNA":"雲芝海旅館","LANDMARKAD":"1000306","ADDRESS":"桃園縣大園鄉中正東路一段264號","TEL":"03-3818888","COUNTYNAME":"桃園市","TOWNNAME":"大園區","MARKTYPE":"996","Class":"6"},"geometry":{"x":271946.11419999972,"y":2772053.2542000003}},{"attributes":{"OBJECTID":1061,"LANDMARKID":"1000300001621","LANDMARKCO":"603","LANDMARKNA":"城市商旅-桃園館","LANDMARKAD":"1000306","ADDRESS":"桃園縣大園鄉中正東路442號2-9樓","TEL":"03-3853017","COUNTYNAME":"桃園市","TOWNNAME":"大園區","MARKTYPE":"996","Class":"6"},"geometry":{"x":271344.60140000004,"y":2772280.4293000009}},{"attributes":{"OBJECTID":1062,"LANDMARKID":"1000300001474","LANDMARKCO":"511","LANDMARKNA":"廟口夜市","LANDMARKAD":"1000306","ADDRESS":"桃園縣大園鄉","TEL":" ","COUNTYNAME":"桃園市","TOWNNAME":"大園區","MARKTYPE":"995","Class":"5"},"geometry":{"x":269848.83370000031,"y":2772972.9265999999}},{"attributes":{"OBJECTID":1063,"LANDMARKID":"1000300001112","LANDMARKCO":"405","LANDMARKNA":"中油加油站-富全站","LANDMARKAD":"1000305","ADDRESS":"桃園縣蘆竹鄉濱海路一段260號","TEL":"03-3254730","COUNTYNAME":"桃園市","TOWNNAME":"蘆竹區","MARKTYPE":"994","Class":"4"},"geometry":{"x":276130.64389999956,"y":2778471.0715999994}},{"attributes":{"OBJECTID":1064,"LANDMARKID":"1000300001113","LANDMARKCO":"405","LANDMARKNA":"中油加油站-頂社站","LANDMARKAD":"1000305","ADDRESS":"桃園縣蘆竹鄉坑子村山林路3段108號","TEL":"03-3248282","COUNTYNAME":"桃園市","TOWNNAME":"蘆竹區","MARKTYPE":"994","Class":"4"},"geometry":{"x":281981.32479999959,"y":2774435.2632999998}},{"attributes":{"OBJECTID":1065,"LANDMARKID":"1000300001114","LANDMARKCO":"405","LANDMARKNA":"中油加油站-世盛站","LANDMARKAD":"1000305","ADDRESS":"桃園縣蘆竹鄉大新路267號","TEL":"03-3137308","COUNTYNAME":"桃園市","TOWNNAME":"蘆竹區","MARKTYPE":"994","Class":"4"},"geometry":{"x":275438.91469999962,"y":2768545.9772999994}},{"attributes":{"OBJECTID":1066,"LANDMARKID":"1000300001115","LANDMARKCO":"405","LANDMARKNA":"中油加油站-山腳站","LANDMARKAD":"1000305","ADDRESS":"桃園縣蘆竹鄉南山路三段173號","TEL":"03-3245179","COUNTYNAME":"桃園市","TOWNNAME":"蘆竹區","MARKTYPE":"994","Class":"4"},"geometry":{"x":278831.45859999955,"y":2775094.6267000008}},{"attributes":{"OBJECTID":1067,"LANDMARKID":"1000300001116","LANDMARKCO":"405","LANDMARKNA":"中油加油站-大竹站(中油直營)","LANDMARKAD":"1000305","ADDRESS":"桃園縣蘆竹鄉大竹村大竹路503號","TEL":"03-3232425","COUNTYNAME":"桃園市","TOWNNAME":"蘆竹區","MARKTYPE":"994","Class":"4"},"geometry":{"x":276598.88790000044,"y":2768142.8089000005}},{"attributes":{"OBJECTID":1068,"LANDMARKID":"1000300001117","LANDMARKCO":"405","LANDMARKNA":"中油加油站-佳佑站","LANDMARKAD":"1000305","ADDRESS":"桃園縣蘆竹鄉中正北路1677號","TEL":"03-2126788","COUNTYNAME":"桃園市","TOWNNAME":"蘆竹區","MARKTYPE":"994","Class":"4"},"geometry":{"x":277768.9160000002,"y":2771603.7225000001}},{"attributes":{"OBJECTID":1069,"LANDMARKID":"1000300001118","LANDMARKCO":"405","LANDMARKNA":"中油加油站-台億站","LANDMARKAD":"1000305","ADDRESS":"桃園縣蘆竹鄉海湖村濱海路409號","TEL":"03-3541226","COUNTYNAME":"桃園市","TOWNNAME":"蘆竹區","MARKTYPE":"994","Class":"4"},"geometry":{"x":275822.48739999998,"y":2778857.9842000008}},{"attributes":{"OBJECTID":1070,"LANDMARKID":"1000300001119","LANDMARKCO":"405","LANDMARKNA":"中油加油站-蘆竹站(刷卡自助)(中油直營)","LANDMARKAD":"1000305","ADDRESS":"桃園縣蘆竹鄉錦興村中正路342號","TEL":"03-3224714","COUNTYNAME":"桃園市","TOWNNAME":"蘆竹區","MARKTYPE":"994","Class":"4"},"geometry":{"x":279374.23379999958,"y":2771269.4440000001}},{"attributes":{"OBJECTID":1071,"LANDMARKID":"1000300001120","LANDMARKCO":"405","LANDMARKNA":"中油加油站-北基南山路站","LANDMARKAD":"1000305","ADDRESS":"桃園縣蘆竹鄉瓦窯村南山路一段313號","TEL":"03-2223809","COUNTYNAME":"桃園市","TOWNNAME":"蘆竹區","MARKTYPE":"994","Class":"4"},"geometry":{"x":279158.00219999999,"y":2772204.6549999993}},{"attributes":{"OBJECTID":1072,"LANDMARKID":"1000300001121","LANDMARKCO":"405","LANDMARKNA":"中油加油站-文中南站","LANDMARKAD":"1000305","ADDRESS":"桃園縣蘆竹鄉文中路一段90號","TEL":"03-3791711","COUNTYNAME":"桃園市","TOWNNAME":"蘆竹區","MARKTYPE":"994","Class":"4"},"geometry":{"x":277225.33789999969,"y":2764880.7964999992}},{"attributes":{"OBJECTID":1073,"LANDMARKID":"1000300001122","LANDMARKCO":"405","LANDMARKNA":"中油加油站-文中北站","LANDMARKAD":"1000305","ADDRESS":"桃園縣蘆竹鄉文中路一段99號","TEL":"03-3791711","COUNTYNAME":"桃園市","TOWNNAME":"蘆竹區","MARKTYPE":"994","Class":"4"},"geometry":{"x":277239.99770000018,"y":2764914.0677000005}},{"attributes":{"OBJECTID":1074,"LANDMARKID":"1000300001123","LANDMARKCO":"405","LANDMARKNA":"中油加油站-協成站","LANDMARKAD":"1000305","ADDRESS":"桃園縣蘆竹鄉南興村中正北路696號","TEL":"03-3222895","COUNTYNAME":"桃園市","TOWNNAME":"蘆竹區","MARKTYPE":"994","Class":"4"},"geometry":{"x":278474.95579999965,"y":2770253.0065000001}},{"attributes":{"OBJECTID":1075,"LANDMARKID":"1000300001124","LANDMARKCO":"405","LANDMARKNA":"山隆加油站-蘆竹站(中油)","LANDMARKAD":"1000305","ADDRESS":"桃園縣蘆竹鄉南崁路二段532號","TEL":"03-3229609","COUNTYNAME":"桃園市","TOWNNAME":"蘆竹區","MARKTYPE":"994","Class":"4"},"geometry":{"x":276744.7762000002,"y":2772835.6960000005}},{"attributes":{"OBJECTID":1076,"LANDMARKID":"1000300001125","LANDMARKCO":"405","LANDMARKNA":"中油加油站-南竹路(中油直營)","LANDMARKAD":"1000305","ADDRESS":"桃園縣蘆竹鄉南竹路二段145號","TEL":"03-2124771","COUNTYNAME":"桃園市","TOWNNAME":"蘆竹區","MARKTYPE":"994","Class":"4"},"geometry":{"x":278661.03199999966,"y":2770298.6731000002}},{"attributes":{"OBJECTID":1077,"LANDMARKID":"1000300001126","LANDMARKCO":"405","LANDMARKNA":"統一速邁樂加油站-蘆竹加油站(中油)","LANDMARKAD":"1000305","ADDRESS":"桃園縣蘆竹鄉南竹路二段156號","TEL":" ","COUNTYNAME":"桃園市","TOWNNAME":"蘆竹區","MARKTYPE":"994","Class":"4"},"geometry":{"x":278729.51059999969,"y":2770417.3313999996}},{"attributes":{"OBJECTID":1078,"LANDMARKID":"1000300001127","LANDMARKCO":"405","LANDMARKNA":"中油加油站-全鋒台茂站","LANDMARKAD":"1000305","ADDRESS":"桃園縣蘆竹鄉內厝村長興路3段256號","TEL":"03-3246439","COUNTYNAME":"桃園市","TOWNNAME":"蘆竹區","MARKTYPE":"994","Class":"4"},"geometry":{"x":277781.78519999981,"y":2773685.6364999991}},{"attributes":{"OBJECTID":1079,"LANDMARKID":"1000300001128","LANDMARKCO":"405","LANDMARKNA":"中油加油站-東林站","LANDMARKAD":"1000305","ADDRESS":"桃園縣蘆竹鄉富竹村南竹路4段33號","TEL":"03-3135447","COUNTYNAME":"桃園市","TOWNNAME":"蘆竹區","MARKTYPE":"994","Class":"4"},"geometry":{"x":277299.62550000008,"y":2769250.7901000008}},{"attributes":{"OBJECTID":1080,"LANDMARKID":"1000300001129","LANDMARKCO":"405","LANDMARKNA":"中油加油站-北基南竹路站","LANDMARKAD":"1000305","ADDRESS":"桃園縣蘆竹鄉南興村中正北路479號","TEL":"03-2223720","COUNTYNAME":"桃園市","TOWNNAME":"蘆竹區","MARKTYPE":"994","Class":"4"},"geometry":{"x":278546.84049999993,"y":2770036.5750999991}},{"attributes":{"OBJECTID":1081,"LANDMARKID":"1000300000864","LANDMARKCO":"402","LANDMARKNA":"亞太行動寬頻電信-蘆竹中正加盟服務中心","LANDMARKAD":"1000305","ADDRESS":"桃園縣蘆竹鄉中正路314號","TEL":"03-2129911","COUNTYNAME":"桃園市","TOWNNAME":"蘆竹區","MARKTYPE":"994","Class":"4"},"geometry":{"x":279439.16999999993,"y":2771144.8062999994}},{"attributes":{"OBJECTID":1082,"LANDMARKID":"1000300001437","LANDMARKCO":"507","LANDMARKNA":"蘆竹五福宮","LANDMARKAD":"1000305","ADDRESS":"桃園縣蘆竹鄉五福村60號","TEL":" ","COUNTYNAME":"桃園市","TOWNNAME":"蘆竹區","MARKTYPE":"995","Class":"5"},"geometry":{"x":279716.00659999996,"y":2771739.8443}},{"attributes":{"OBJECTID":1083,"LANDMARKID":"1000300001302","LANDMARKCO":"408","LANDMARKNA":"郵局-蘆竹郵局","LANDMARKAD":"1000305","ADDRESS":"桃園縣蘆竹鄉南祥路10、12、14號","TEL":"(03)3524-630","COUNTYNAME":"桃園市","TOWNNAME":"蘆竹區","MARKTYPE":"994","Class":"4"},"geometry":{"x":279914.69000000041,"y":2770879.8069000002}},{"attributes":{"OBJECTID":1084,"LANDMARKID":"1000300001303","LANDMARKCO":"408","LANDMARKNA":"郵局-蘆竹山腳郵局","LANDMARKAD":"1000305","ADDRESS":"桃園縣蘆竹鄉南山路3段270、272號","TEL":"(03)3241-724","COUNTYNAME":"桃園市","TOWNNAME":"蘆竹區","MARKTYPE":"994","Class":"4"},"geometry":{"x":278880.07919999957,"y":2775206.9800000004}},{"attributes":{"OBJECTID":1085,"LANDMARKID":"1000300001304","LANDMARKCO":"408","LANDMARKNA":"郵局-蘆竹大竹郵局","LANDMARKAD":"1000305","ADDRESS":"桃園縣蘆竹鄉大竹路385號","TEL":"(03)3232-214","COUNTYNAME":"桃園市","TOWNNAME":"蘆竹區","MARKTYPE":"994","Class":"4"},"geometry":{"x":276709.42360000033,"y":2768068.7049000002}},{"attributes":{"OBJECTID":1086,"LANDMARKID":"1000300001305","LANDMARKCO":"408","LANDMARKNA":"郵局-蘆竹錦興郵局","LANDMARKAD":"1000305","ADDRESS":"桃園縣蘆竹鄉南崁路1段190號","TEL":"(03)3225-841","COUNTYNAME":"桃園市","TOWNNAME":"蘆竹區","MARKTYPE":"994","Class":"4"},"geometry":{"x":278888.3546000002,"y":2771701.6403000001}},{"attributes":{"OBJECTID":1087,"LANDMARKID":"1000300001306","LANDMARKCO":"408","LANDMARKNA":"郵局-蘆竹光明郵局","LANDMARKAD":"1000305","ADDRESS":"桃園縣蘆竹鄉南福街187、189號","TEL":"(03)2128-331","COUNTYNAME":"桃園市","TOWNNAME":"蘆竹區","MARKTYPE":"994","Class":"4"},"geometry":{"x":279600.39419999998,"y":2770124.2368000001}},{"attributes":{"OBJECTID":1088,"LANDMARKID":"1000300001393","LANDMARKCO":"409","LANDMARKNA":"桃園縣蘆竹鄉農會","LANDMARKAD":"1000305","ADDRESS":"桃園縣蘆竹鄉南崁村南崁路175巷10號","TEL":"03-3524166","COUNTYNAME":"桃園市","TOWNNAME":"蘆竹區","MARKTYPE":"994","Class":"4"},"geometry":{"x":279573.0970999999,"y":2771026.1006000005}},{"attributes":{"OBJECTID":1089,"LANDMARKID":"1000300001394","LANDMARKCO":"409","LANDMARKNA":"桃園縣農會","LANDMARKAD":"1000305","ADDRESS":"桃園縣蘆竹鄉中福村龍安街2段968號","TEL":"03-3791881","COUNTYNAME":"桃園市","TOWNNAME":"蘆竹區","MARKTYPE":"994","Class":"4"},"geometry":{"x":276115.78189999983,"y":2766330.8877000008}},{"attributes":{"OBJECTID":1090,"LANDMARKID":"1000300000935","LANDMARKCO":"404","LANDMARKNA":"台灣省自來水第二區桃園縣市管理處","LANDMARKAD":"1000305","ADDRESS":"桃園縣平鎮市水廠路150號","TEL":" ","COUNTYNAME":"桃園市","TOWNNAME":"蘆竹區","MARKTYPE":"994","Class":"4"},"geometry":{"x":277140.63030000031,"y":2776015.9506999999}},{"attributes":{"OBJECTID":1091,"LANDMARKID":"1000300000936","LANDMARKCO":"404","LANDMARKNA":"台灣省自來水平鎮給水廠","LANDMARKAD":"1000305","ADDRESS":"桃園縣平鎮市南豐路267號","TEL":" ","COUNTYNAME":"桃園市","TOWNNAME":"蘆竹區","MARKTYPE":"994","Class":"4"},"geometry":{"x":277140.58899999969,"y":2776015.9118000008}},{"attributes":{"OBJECTID":1092,"LANDMARKID":"1000300001234","LANDMARKCO":"406","LANDMARKNA":"尋夢園森林公園","LANDMARKAD":"1000305","ADDRESS":"桃園縣蘆竹鄉","TEL":" ","COUNTYNAME":"桃園市","TOWNNAME":"蘆竹區","MARKTYPE":"994","Class":"4"},"geometry":{"x":278039.3657999998,"y":2776496.2295999993}},{"attributes":{"OBJECTID":1093,"LANDMARKID":"1000300001235","LANDMARKCO":"406","LANDMARKNA":"新興公園","LANDMARKAD":"1000305","ADDRESS":"桃園縣蘆竹鄉","TEL":" ","COUNTYNAME":"桃園市","TOWNNAME":"蘆竹區","MARKTYPE":"994","Class":"4"},"geometry":{"x":277887.73340000026,"y":2766322.1272999998}},{"attributes":{"OBJECTID":1094,"LANDMARKID":"1000300001236","LANDMARKCO":"406","LANDMARKNA":"富竹公園","LANDMARKAD":"1000305","ADDRESS":"桃園縣蘆竹鄉","TEL":" ","COUNTYNAME":"桃園市","TOWNNAME":"蘆竹區","MARKTYPE":"994","Class":"4"},"geometry":{"x":277442.51439999975,"y":2769317.0099999998}},{"attributes":{"OBJECTID":1095,"LANDMARKID":"1000300001279","LANDMARKCO":"407","LANDMARKNA":"台茂購物中心","LANDMARKAD":"1000305","ADDRESS":"桃園縣蘆竹鄉南崁路一段112號","TEL":"03-3112965","COUNTYNAME":"桃園市","TOWNNAME":"蘆竹區","MARKTYPE":"994","Class":"4"},"geometry":{"x":279056.99210000038,"y":2771628.1807000004}},{"attributes":{"OBJECTID":1096,"LANDMARKID":"1000300001105","LANDMARKCO":"405","LANDMARKNA":"台塑加油站-永加站(台塑)","LANDMARKAD":"1000305","ADDRESS":"桃園縣蘆竹鄉坑口村海山路一段88號","TEL":"03-3544586","COUNTYNAME":"桃園市","TOWNNAME":"蘆竹區","MARKTYPE":"994","Class":"4"},"geometry":{"x":277014.84669999965,"y":2776161.4920000006}},{"attributes":{"OBJECTID":1097,"LANDMARKID":"1000300001106","LANDMARKCO":"405","LANDMARKNA":"台亞加油站-南崁南下站（台塑）","LANDMARKAD":"1000305","ADDRESS":"桃園縣蘆竹鄉南崁村新南路一段36號","TEL":"(03)312-2398","COUNTYNAME":"桃園市","TOWNNAME":"蘆竹區","MARKTYPE":"994","Class":"4"},"geometry":{"x":279655.62899999972,"y":2770976.0854000002}},{"attributes":{"OBJECTID":1098,"LANDMARKID":"1000300001107","LANDMARKCO":"405","LANDMARKNA":"台塑加油站-長興路站(台塑)","LANDMARKAD":"1000305","ADDRESS":"桃園縣蘆竹鄉內厝村長興路三段70號","TEL":"03-3247815","COUNTYNAME":"桃園市","TOWNNAME":"蘆竹區","MARKTYPE":"994","Class":"4"},"geometry":{"x":278205.83100000024,"y":2773908.0270000007}},{"attributes":{"OBJECTID":1099,"LANDMARKID":"1000300001108","LANDMARKCO":"405","LANDMARKNA":"福懋加油站-南崁站(台塑)","LANDMARKAD":"1000305","ADDRESS":"桃園縣蘆竹鄉南崁路一段265號","TEL":"03-3521485","COUNTYNAME":"桃園市","TOWNNAME":"蘆竹區","MARKTYPE":"994","Class":"4"},"geometry":{"x":278711.38019999955,"y":2771708.8060999997}},{"attributes":{"OBJECTID":1100,"LANDMARKID":"1000300001109","LANDMARKCO":"405","LANDMARKNA":"全國加油站-南崁站（台塑）","LANDMARKAD":"1000305","ADDRESS":"桃園縣蘆竹鄉南崁路二段306號","TEL":"03-3528486","COUNTYNAME":"桃園市","TOWNNAME":"蘆竹區","MARKTYPE":"994","Class":"4"},"geometry":{"x":277440.64950000029,"y":2772509.6431000009}},{"attributes":{"OBJECTID":1101,"LANDMARKID":"1000300001110","LANDMARKCO":"405","LANDMARKNA":"台塑加油站-嘉發站(台塑)","LANDMARKAD":"1000305","ADDRESS":"桃園縣蘆竹鄉南崁路二段577號","TEL":"03-3522212","COUNTYNAME":"桃園市","TOWNNAME":"蘆竹區","MARKTYPE":"994","Class":"4"},"geometry":{"x":276814.00380000006,"y":2772736.3785999995}},{"attributes":{"OBJECTID":1102,"LANDMARKID":"1000300001111","LANDMARKCO":"405","LANDMARKNA":"台塑加油站-富國路站(台塑)","LANDMARKAD":"1000305","ADDRESS":"桃園縣蘆竹鄉蘆竹村富國路二段571號","TEL":"03-3237663","COUNTYNAME":"桃園市","TOWNNAME":"蘆竹區","MARKTYPE":"994","Class":"4"},"geometry":{"x":276797.10369999986,"y":2771161.1226000004}},{"attributes":{"OBJECTID":1103,"LANDMARKID":"1000300000244","LANDMARKCO":"108","LANDMARKNA":"桃園縣蘆竹鄉公所","LANDMARKAD":"1000305","ADDRESS":"桃園縣蘆竹鄉南崁路150號","TEL":"03-3520000","COUNTYNAME":"桃園市","TOWNNAME":"蘆竹區","MARKTYPE":"991","Class":"1"},"geometry":{"x":279779.62629999965,"y":2771019.8584000003}},{"attributes":{"OBJECTID":1104,"LANDMARKID":"1000300000080","LANDMARKCO":"103","LANDMARKNA":"桃園縣蘆竹鄉鄉民代表會","LANDMARKAD":"1000305","ADDRESS":"桃園縣蘆竹鄉南崁路150號","TEL":"03-3525828","COUNTYNAME":"桃園市","TOWNNAME":"蘆竹區","MARKTYPE":"991","Class":"1"},"geometry":{"x":279703.64690000005,"y":2771029.4168999996}},{"attributes":{"OBJECTID":1105,"LANDMARKID":"1000300000213","LANDMARKCO":"107","LANDMARKNA":"桃園縣消防局大竹消防分隊","LANDMARKAD":"1000305","ADDRESS":"桃園縣蘆竹鄉上興路188號","TEL":"03-3137935","COUNTYNAME":"桃園市","TOWNNAME":"蘆竹區","MARKTYPE":"991","Class":"1"},"geometry":{"x":276342.48359999992,"y":2767899.4916999992}},{"attributes":{"OBJECTID":1106,"LANDMARKID":"1000300000214","LANDMARKCO":"107","LANDMARKNA":"桃園縣政府警察局南崁派出所","LANDMARKAD":"1000305","ADDRESS":"桃園縣蘆竹鄉南崁村南崁路179號","TEL":"03-3223981","COUNTYNAME":"桃園市","TOWNNAME":"蘆竹區","MARKTYPE":"991","Class":"1"},"geometry":{"x":279629.02139999997,"y":2771049.5776000004}},{"attributes":{"OBJECTID":1107,"LANDMARKID":"1000300000215","LANDMARKCO":"107","LANDMARKNA":"桃園縣政府警察局外社派出所","LANDMARKAD":"1000305","ADDRESS":"桃園縣蘆竹鄉外社村山林路二段405號","TEL":"03-3241749","COUNTYNAME":"桃園市","TOWNNAME":"蘆竹區","MARKTYPE":"991","Class":"1"},"geometry":{"x":280560.17480000015,"y":2775119.9677000009}},{"attributes":{"OBJECTID":1108,"LANDMARKID":"1000300000216","LANDMARKCO":"107","LANDMARKNA":"桃園縣政府警察局大竹派出所","LANDMARKAD":"1000305","ADDRESS":"桃園縣蘆竹鄉大竹村大竹路540號","TEL":"03-3232704","COUNTYNAME":"桃園市","TOWNNAME":"蘆竹區","MARKTYPE":"991","Class":"1"},"geometry":{"x":276288.24189999979,"y":2768389.5938000008}},{"attributes":{"OBJECTID":1109,"LANDMARKID":"1000300000102","LANDMARKCO":"106","LANDMARKNA":"桃園縣蘆竹鄉戶政事務所","LANDMARKAD":"1000305","ADDRESS":"桃園縣蘆竹鄉長安路二段236號4樓","TEL":"03-3226227","COUNTYNAME":"桃園市","TOWNNAME":"蘆竹區","MARKTYPE":"991","Class":"1"},"geometry":{"x":279587.08660000004,"y":2771079.6685000006}},{"attributes":{"OBJECTID":1110,"LANDMARKID":"1000300000098","LANDMARKCO":"105","LANDMARKNA":"桃園縣蘆竹地政事務所","LANDMARKAD":"1000305","ADDRESS":"桃園縣蘆竹鄉長安路2段236號1、2、3樓","TEL":"03-3525337","COUNTYNAME":"桃園市","TOWNNAME":"蘆竹區","MARKTYPE":"991","Class":"1"},"geometry":{"x":279617.0214999998,"y":2771049.6035999991}},{"attributes":{"OBJECTID":1111,"LANDMARKID":"1000300000081","LANDMARKCO":"103","LANDMARKNA":"桃園縣蘆竹鄉衛生所","LANDMARKAD":"1000305","ADDRESS":"桃園縣蘆竹鄉長安路二段238號1、2樓","TEL":"03-3524732","COUNTYNAME":"桃園市","TOWNNAME":"蘆竹區","MARKTYPE":"991","Class":"1"},"geometry":{"x":279693.66839999985,"y":2771039.4386}},{"attributes":{"OBJECTID":1112,"LANDMARKID":"1000300000212","LANDMARKCO":"107","LANDMARKNA":"桃園縣消防局蘆竹消防分隊","LANDMARKAD":"1000305","ADDRESS":"桃園縣蘆竹鄉錦中村2鄰錦溪路119號","TEL":"03-3226462","COUNTYNAME":"桃園市","TOWNNAME":"蘆竹區","MARKTYPE":"991","Class":"1"},"geometry":{"x":279638.02139999997,"y":2771049.5581}},{"attributes":{"OBJECTID":1113,"LANDMARKID":"1000300000542","LANDMARKCO":"204","LANDMARKNA":"桃園縣立圖書館蘆竹分館","LANDMARKAD":"1000305","ADDRESS":"桃園縣蘆竹鄉南崁路150之3號","TEL":" ","COUNTYNAME":"桃園市","TOWNNAME":"蘆竹區","MARKTYPE":"992","Class":"2"},"geometry":{"x":279569.01630000025,"y":2771066.7979000006}},{"attributes":{"OBJECTID":1114,"LANDMARKID":"1000300000527","LANDMARKCO":"203","LANDMARKNA":"縣立大竹國中","LANDMARKAD":"1000305","ADDRESS":"桃園縣蘆竹鄉大竹村大竹路國中巷35號","TEL":"03-3232764","COUNTYNAME":"桃園市","TOWNNAME":"蘆竹區","MARKTYPE":"992","Class":"2"},"geometry":{"x":276040.01190000027,"y":2768269.5370000005}},{"attributes":{"OBJECTID":1115,"LANDMARKID":"1000300000528","LANDMARKCO":"203","LANDMARKNA":"縣立光明國中","LANDMARKAD":"1000305","ADDRESS":"桃園縣蘆竹鄉光明路一段123號","TEL":"03-3114355","COUNTYNAME":"桃園市","TOWNNAME":"蘆竹區","MARKTYPE":"992","Class":"2"},"geometry":{"x":279177.58999999985,"y":2770699.9513000008}},{"attributes":{"OBJECTID":1116,"LANDMARKID":"1000300000529","LANDMARKCO":"203","LANDMARKNA":"縣立山腳國中","LANDMARKAD":"1000305","ADDRESS":"桃園縣蘆竹鄉海山路319號","TEL":"03-3241995","COUNTYNAME":"桃園市","TOWNNAME":"蘆竹區","MARKTYPE":"992","Class":"2"},"geometry":{"x":278072.23819999956,"y":2775459.9000000004}},{"attributes":{"OBJECTID":1117,"LANDMARKID":"1000300000530","LANDMARKCO":"203","LANDMARKNA":"縣立光明國小","LANDMARKAD":"1000305","ADDRESS":"桃園縣蘆竹鄉南興村3鄰南昌路255號","TEL":"03-3127066","COUNTYNAME":"桃園市","TOWNNAME":"蘆竹區","MARKTYPE":"992","Class":"2"},"geometry":{"x":279373.52350000013,"y":2770359.5328000002}},{"attributes":{"OBJECTID":1118,"LANDMARKID":"1000300000531","LANDMARKCO":"203","LANDMARKNA":"縣立大竹國小","LANDMARKAD":"1000305","ADDRESS":"桃園縣蘆竹鄉大竹路556號","TEL":"03-3232917","COUNTYNAME":"桃園市","TOWNNAME":"蘆竹區","MARKTYPE":"992","Class":"2"},"geometry":{"x":276155.07340000011,"y":2768609.8480999991}},{"attributes":{"OBJECTID":1119,"LANDMARKID":"1000300000532","LANDMARKCO":"203","LANDMARKNA":"縣立大華國小","LANDMARKAD":"1000305","ADDRESS":"桃園縣蘆竹鄉大華村大華街98號","TEL":"03-3232664","COUNTYNAME":"桃園市","TOWNNAME":"蘆竹區","MARKTYPE":"992","Class":"2"},"geometry":{"x":275637.18950000033,"y":2770209.7657999992}},{"attributes":{"OBJECTID":1120,"LANDMARKID":"1000300000533","LANDMARKCO":"203","LANDMARKNA":"縣立外社國小","LANDMARKAD":"1000305","ADDRESS":"桃園縣蘆竹鄉山林路二段525號","TEL":"03-3241874","COUNTYNAME":"桃園市","TOWNNAME":"蘆竹區","MARKTYPE":"992","Class":"2"},"geometry":{"x":280905.53249999974,"y":2774969.8213999998}},{"attributes":{"OBJECTID":1121,"LANDMARKID":"1000300000534","LANDMARKCO":"203","LANDMARKNA":"縣立頂社國小","LANDMARKAD":"1000305","ADDRESS":"桃園縣蘆竹鄉山林路三段232號","TEL":"03-3241182","COUNTYNAME":"桃園市","TOWNNAME":"蘆竹區","MARKTYPE":"992","Class":"2"},"geometry":{"x":282271.70299999975,"y":2774419.8988000005}},{"attributes":{"OBJECTID":1122,"LANDMARKID":"1000300000535","LANDMARKCO":"203","LANDMARKNA":"縣立公埔國小","LANDMARKAD":"1000305","ADDRESS":"桃園縣蘆竹鄉南山路二段448號","TEL":"03-3243852","COUNTYNAME":"桃園市","TOWNNAME":"蘆竹區","MARKTYPE":"992","Class":"2"},"geometry":{"x":278872.50810000021,"y":2773739.9904999994}},{"attributes":{"OBJECTID":1123,"LANDMARKID":"1000300000536","LANDMARKCO":"203","LANDMARKNA":"縣立山腳國小","LANDMARKAD":"1000305","ADDRESS":"桃園縣蘆竹鄉南山路三段440號","TEL":"03-3241884","COUNTYNAME":"桃園市","TOWNNAME":"蘆竹區","MARKTYPE":"992","Class":"2"},"geometry":{"x":279043.64690000005,"y":2775649.6186999995}},{"attributes":{"OBJECTID":1124,"LANDMARKID":"1000300000537","LANDMARKCO":"203","LANDMARKNA":"縣立錦興國小","LANDMARKAD":"1000305","ADDRESS":"桃園縣蘆竹鄉南竹路一段100號","TEL":"03-3228487","COUNTYNAME":"桃園市","TOWNNAME":"蘆竹區","MARKTYPE":"992","Class":"2"},"geometry":{"x":279213.63839999959,"y":2771029.8728999998}},{"attributes":{"OBJECTID":1125,"LANDMARKID":"1000300000538","LANDMARKCO":"203","LANDMARKNA":"縣立蘆竹國小","LANDMARKAD":"1000305","ADDRESS":"桃園縣蘆竹鄉富國路二段850號","TEL":"03-3221731","COUNTYNAME":"桃園市","TOWNNAME":"蘆竹區","MARKTYPE":"992","Class":"2"},"geometry":{"x":277008.21289999969,"y":2771449.8079000004}},{"attributes":{"OBJECTID":1126,"LANDMARKID":"1000300000539","LANDMARKCO":"203","LANDMARKNA":"縣立新莊國小","LANDMARKAD":"1000305","ADDRESS":"桃園縣蘆竹鄉新生路140巷30號","TEL":"03-3231264","COUNTYNAME":"桃園市","TOWNNAME":"蘆竹區","MARKTYPE":"992","Class":"2"},"geometry":{"x":274907.02369999979,"y":2768889.5766000003}},{"attributes":{"OBJECTID":1127,"LANDMARKID":"1000300000540","LANDMARKCO":"203","LANDMARKNA":"縣立新興國小","LANDMARKAD":"1000305","ADDRESS":"桃園縣蘆竹鄉新興村新興街355號","TEL":"03-3602448","COUNTYNAME":"桃園市","TOWNNAME":"蘆竹區","MARKTYPE":"992","Class":"2"},"geometry":{"x":276743.51020000037,"y":2766679.7985999994}},{"attributes":{"OBJECTID":1128,"LANDMARKID":"1000300000541","LANDMARKCO":"203","LANDMARKNA":"縣立南崁國小","LANDMARKAD":"1000305","ADDRESS":"桃園縣蘆竹鄉羊稠村吉林路160號","TEL":"03-3115578","COUNTYNAME":"桃園市","TOWNNAME":"蘆竹區","MARKTYPE":"992","Class":"2"},"geometry":{"x":280367.09020000044,"y":2771389.7927000001}},{"attributes":{"OBJECTID":1129,"LANDMARKID":"1000300000272","LANDMARKCO":"201","LANDMARKNA":"開南大學","LANDMARKAD":"1000305","ADDRESS":"桃園縣蘆竹鄉開南路1號","TEL":"03-3412500","COUNTYNAME":"桃園市","TOWNNAME":"蘆竹區","MARKTYPE":"992","Class":"2"},"geometry":{"x":277346.46399999969,"y":2766959.7086999994}},{"attributes":{"OBJECTID":1130,"LANDMARKID":"1000300000273","LANDMARKCO":"202","LANDMARKNA":"縣立南崁高中","LANDMARKAD":"1000305","ADDRESS":"桃園縣蘆竹鄉五福村廟口24號","TEL":"03-3525580#101","COUNTYNAME":"桃園市","TOWNNAME":"蘆竹區","MARKTYPE":"992","Class":"2"},"geometry":{"x":280107.31639999989,"y":2771799.7479999997}},{"attributes":{"OBJECTID":1131,"LANDMARKID":"1000300000526","LANDMARKCO":"203","LANDMARKNA":"縣立海湖國小","LANDMARKAD":"1000305","ADDRESS":"桃園縣蘆竹鄉海湖村1鄰57號","TEL":"03-3542181","COUNTYNAME":"桃園市","TOWNNAME":"蘆竹區","MARKTYPE":"992","Class":"2"},"geometry":{"x":276985.55360000022,"y":2777159.8308000006}},{"attributes":{"OBJECTID":1132,"LANDMARKID":"1000300000735","LANDMARKCO":"308","LANDMARKNA":"國1-林口交流道-西行","LANDMARKAD":"1000305","ADDRESS":"桃園縣龜山鄉","TEL":" ","COUNTYNAME":"桃園市","TOWNNAME":"蘆竹區","MARKTYPE":"993","Class":"308"},"geometry":{"x":285734.54169999994,"y":2773112.6116000004}},{"attributes":{"OBJECTID":1133,"LANDMARKID":"1000300000736","LANDMARKCO":"308","LANDMARKNA":"國1-機場系統交流道-南下","LANDMARKAD":"1000305","ADDRESS":"桃園縣桃園市","TEL":" ","COUNTYNAME":"桃園市","TOWNNAME":"蘆竹區","MARKTYPE":"993","Class":"308"},"geometry":{"x":277137.93649999984,"y":2767561.8026000001}},{"attributes":{"OBJECTID":1134,"LANDMARKID":"1000300000737","LANDMARKCO":"308","LANDMARKNA":"台61-竹圍交流道-南下","LANDMARKAD":"1000305","ADDRESS":" ","TEL":" ","COUNTYNAME":"桃園市","TOWNNAME":"蘆竹區","MARKTYPE":"993","Class":"308"},"geometry":{"x":276278.4729000004,"y":2778992.6480999999}},{"attributes":{"OBJECTID":1135,"LANDMARKID":"1000300000597","LANDMARKCO":"302","LANDMARKNA":"統聯汽車客運南崁站","LANDMARKAD":"1000305","ADDRESS":"桃園縣蘆竹鄉南崁村17鄰7號","TEL":" ","COUNTYNAME":"桃園市","TOWNNAME":"蘆竹區","MARKTYPE":"993","Class":"302"},"geometry":{"x":279911.45600000024,"y":2770289.5830000006}},{"attributes":{"OBJECTID":1136,"LANDMARKID":"1000300000630","LANDMARKCO":"303","LANDMARKNA":"五酒桶山步道口","LANDMARKAD":"1000305","ADDRESS":"桃園縣蘆竹鄉內厝村一鄰","TEL":" ","COUNTYNAME":"桃園市","TOWNNAME":"蘆竹區","MARKTYPE":"993","Class":"303"},"geometry":{"x":278455.93319999985,"y":2773563.8940999992}},{"attributes":{"OBJECTID":1137,"LANDMARKID":"1000300000631","LANDMARKCO":"303","LANDMARKNA":"公一地下停車場","LANDMARKAD":"1000305","ADDRESS":"桃園縣蘆竹鄉仁愛路一段2號地下室","TEL":" ","COUNTYNAME":"桃園市","TOWNNAME":"蘆竹區","MARKTYPE":"993","Class":"303"},"geometry":{"x":279602.65359999985,"y":2771438.6973000001}},{"attributes":{"OBJECTID":1138,"LANDMARKID":"1000300000632","LANDMARKCO":"303","LANDMARKNA":"臥龍崗育樂中心停車場","LANDMARKAD":"1000305","ADDRESS":"蘆竹鄉坑子村貓尾崎10鄰10號","TEL":"03-3246940","COUNTYNAME":"桃園市","TOWNNAME":"蘆竹區","MARKTYPE":"993","Class":"303"},"geometry":{"x":284501.81539999973,"y":2775099.1798}},{"attributes":{"OBJECTID":1139,"LANDMARKID":"1000300000633","LANDMARKCO":"303","LANDMARKNA":"大竹都計停一停車場","LANDMARKAD":"1000305","ADDRESS":"桃園縣蘆竹鄉大竹路","TEL":" ","COUNTYNAME":"桃園市","TOWNNAME":"蘆竹區","MARKTYPE":"993","Class":"303"},"geometry":{"x":275426.5728000002,"y":2769209.7316999994}},{"attributes":{"OBJECTID":1140,"LANDMARKID":"1000300000634","LANDMARKCO":"303","LANDMARKNA":"大竹都計停五停車場","LANDMARKAD":"1000305","ADDRESS":"桃園縣蘆竹鄉民德路","TEL":" ","COUNTYNAME":"桃園市","TOWNNAME":"蘆竹區","MARKTYPE":"993","Class":"303"},"geometry":{"x":277057.2293999996,"y":2776005.9616}},{"attributes":{"OBJECTID":1141,"LANDMARKID":"1000300000635","LANDMARKCO":"303","LANDMARKNA":"Times(普客二四停車場)-佳瑪南崁停車場","LANDMARKAD":"1000305","ADDRESS":"桃縣蘆竹鄉南山路一段2之5號B1","TEL":" ","COUNTYNAME":"桃園市","TOWNNAME":"蘆竹區","MARKTYPE":"993","Class":"303"},"geometry":{"x":279468.47400000039,"y":2771370.9896000009}},{"attributes":{"OBJECTID":1142,"LANDMARKID":"1000300000869","LANDMARKCO":"402","LANDMARKNA":"中華電信-南崁中正特約服務中心","LANDMARKAD":"1000305","ADDRESS":"桃園縣蘆竹鄉中正路138號","TEL":"03-3210909","COUNTYNAME":"桃園市","TOWNNAME":"蘆竹區","MARKTYPE":"994","Class":"4"},"geometry":{"x":279531.95920000039,"y":2770986.9726999998}},{"attributes":{"OBJECTID":1143,"LANDMARKID":"1000300000870","LANDMARKCO":"402","LANDMARKNA":"中華電信-桃園南崁特約服務中心","LANDMARKAD":"1000305","ADDRESS":"桃園縣蘆竹鄉南崁路329號","TEL":"03-3210101","COUNTYNAME":"桃園市","TOWNNAME":"蘆竹區","MARKTYPE":"994","Class":"4"},"geometry":{"x":279416.30869999994,"y":2771348.4572999999}},{"attributes":{"OBJECTID":1144,"LANDMARKID":"1000300000871","LANDMARKCO":"402","LANDMARKNA":"中華電信-南崁服務中心","LANDMARKAD":"1000305","ADDRESS":"桃園縣蘆竹鄉福祿五街6號","TEL":"(03)353-3636","COUNTYNAME":"桃園市","TOWNNAME":"蘆竹區","MARKTYPE":"994","Class":"4"},"geometry":{"x":279895.31340000033,"y":2771744.4265999999}},{"attributes":{"OBJECTID":1145,"LANDMARKID":"1000300000872","LANDMARKCO":"402","LANDMARKNA":"威寶電信-蘆竹中正特約服務中心","LANDMARKAD":"1000305","ADDRESS":"桃園縣蘆竹鄉中正路143號","TEL":"03-2129564","COUNTYNAME":"桃園市","TOWNNAME":"蘆竹區","MARKTYPE":"994","Class":"4"},"geometry":{"x":279612.48099999968,"y":2770769.1010999996}},{"attributes":{"OBJECTID":1146,"LANDMARKID":"1000300001622","LANDMARKCO":"603","LANDMARKNA":"甲桂林商務旅館","LANDMARKAD":"1000305","ADDRESS":"桃園縣蘆竹鄉桃園街106","TEL":"108","COUNTYNAME":"桃園市","TOWNNAME":"蘆竹區","MARKTYPE":"996","Class":"6"},"geometry":{"x":279405.32400000002,"y":2770983.4916999992}},{"attributes":{"OBJECTID":1147,"LANDMARKID":"1000300001623","LANDMARKCO":"603","LANDMARKNA":"激點情境旅館","LANDMARKAD":"1000305","ADDRESS":"桃園縣蘆竹鄉南福街166","TEL":"168號2-3樓","COUNTYNAME":"桃園市","TOWNNAME":"蘆竹區","MARKTYPE":"996","Class":"6"},"geometry":{"x":279561.64510000031,"y":2770145.5033999998}},{"attributes":{"OBJECTID":1148,"LANDMARKID":"1000300001624","LANDMARKCO":"603","LANDMARKNA":"水漾時尚旅館","LANDMARKAD":"1000305","ADDRESS":"桃園縣蘆竹鄉洛陽街68號2-4樓","TEL":"03-2225858","COUNTYNAME":"桃園市","TOWNNAME":"蘆竹區","MARKTYPE":"996","Class":"6"},"geometry":{"x":279329.84740000032,"y":2770801.5074000005}},{"attributes":{"OBJECTID":1149,"LANDMARKID":"1000300001625","LANDMARKCO":"603","LANDMARKNA":"麗晶汽車旅館","LANDMARKAD":"1000305","ADDRESS":"桃園縣蘆竹鄉光復路8號2樓","TEL":"03-3116823","COUNTYNAME":"桃園市","TOWNNAME":"蘆竹區","MARKTYPE":"996","Class":"6"},"geometry":{"x":279233.83409999963,"y":2771161.1563000008}},{"attributes":{"OBJECTID":1150,"LANDMARKID":"1000300001626","LANDMARKCO":"603","LANDMARKNA":"情定河畔商務經典旅館","LANDMARKAD":"1000305","ADDRESS":"桃園縣蘆竹鄉光明路一段109號1-5樓","TEL":"03-3527999","COUNTYNAME":"桃園市","TOWNNAME":"蘆竹區","MARKTYPE":"996","Class":"6"},"geometry":{"x":279355.23029999994,"y":2770664.8254000004}},{"attributes":{"OBJECTID":1151,"LANDMARKID":"1000300001627","LANDMARKCO":"603","LANDMARKNA":"嘉鴻飯店(比佛利汽車旅館)","LANDMARKAD":"1000305","ADDRESS":"桃園縣蘆竹鄉南山路一段97-9號1-2樓","TEL":"03-3218688","COUNTYNAME":"桃園市","TOWNNAME":"蘆竹區","MARKTYPE":"996","Class":"6"},"geometry":{"x":279356.41889999993,"y":2771803.3629000001}},{"attributes":{"OBJECTID":1152,"LANDMARKID":"1000300001628","LANDMARKCO":"603","LANDMARKNA":"貝克漢汽車旅館","LANDMARKAD":"1000305","ADDRESS":"桃園縣蘆竹鄉桃園街97號","TEL":"03-2127788","COUNTYNAME":"桃園市","TOWNNAME":"蘆竹區","MARKTYPE":"996","Class":"6"},"geometry":{"x":279417.63439999986,"y":2770903.8528000005}},{"attributes":{"OBJECTID":1153,"LANDMARKID":"1000300001422","LANDMARKCO":"504","LANDMARKNA":"臥龍崗森林樂園","LANDMARKAD":"1000305","ADDRESS":"桃園縣蘆竹鄉","TEL":" ","COUNTYNAME":"桃園市","TOWNNAME":"蘆竹區","MARKTYPE":"995","Class":"5"},"geometry":{"x":284177.95349999983,"y":2775028.9581000004}},{"attributes":{"OBJECTID":1154,"LANDMARKID":"1000300001423","LANDMARKCO":"505","LANDMARKNA":"尋夢谷森林樂園","LANDMARKAD":"1000305","ADDRESS":"桃園縣蘆竹鄉南山北路二段38號","TEL":" ","COUNTYNAME":"桃園市","TOWNNAME":"蘆竹區","MARKTYPE":"995","Class":"5"},"geometry":{"x":278008.38310000021,"y":2776430.1406999994}},{"attributes":{"OBJECTID":1155,"LANDMARKID":"1000300001462","LANDMARKCO":"510","LANDMARKNA":"永漢高爾夫球場","LANDMARKAD":"1000305","ADDRESS":"桃園縣蘆竹鄉南山北路一段300號","TEL":"03-3245711","COUNTYNAME":"桃園市","TOWNNAME":"蘆竹區","MARKTYPE":"995","Class":"5"},"geometry":{"x":278333.88159999996,"y":2775864.2159000002}},{"attributes":{"OBJECTID":1156,"LANDMARKID":"1000300001463","LANDMARKCO":"510","LANDMARKNA":"統帥高爾夫球場","LANDMARKAD":"1000305","ADDRESS":"桃園縣蘆竹鄉管盤村1鄰33號","TEL":"03-3221786","COUNTYNAME":"桃園市","TOWNNAME":"蘆竹區","MARKTYPE":"995","Class":"5"},"geometry":{"x":280903.62280000001,"y":2772950.0318999998}},{"attributes":{"OBJECTID":1157,"LANDMARKID":"1000300001464","LANDMARKCO":"510","LANDMARKNA":"台北高爾夫球場","LANDMARKAD":"1000305","ADDRESS":"桃園縣蘆竹鄉坑子村赤塗崎34之1號","TEL":"03-3244856","COUNTYNAME":"桃園市","TOWNNAME":"蘆竹區","MARKTYPE":"995","Class":"5"},"geometry":{"x":283071.71700000018,"y":2772496.7064999994}},{"attributes":{"OBJECTID":1158,"LANDMARKID":"1000300001465","LANDMARKCO":"510","LANDMARKNA":"福爾摩莎第一高爾夫球場","LANDMARKAD":"1000305","ADDRESS":"桃園縣蘆竹鄉坑子村貓尾崎50號","TEL":"03-3245291","COUNTYNAME":"桃園市","TOWNNAME":"蘆竹區","MARKTYPE":"995","Class":"5"},"geometry":{"x":283385.39960000012,"y":2774197.9605999999}},{"attributes":{"OBJECTID":1159,"LANDMARKID":"1000300001157","LANDMARKCO":"405","LANDMARKNA":"中油加油站-新坡站(中油直營)","LANDMARKAD":"1000312","ADDRESS":"桃園縣觀音鄉大同村中山路二段794號","TEL":"03-2825887","COUNTYNAME":"桃園市","TOWNNAME":"觀音區","MARKTYPE":"994","Class":"4"},"geometry":{"x":264242.41629999969,"y":2766845.8299000002}},{"attributes":{"OBJECTID":1160,"LANDMARKID":"1000300001158","LANDMARKCO":"405","LANDMARKNA":"中油加油站-聖豐高站","LANDMARKAD":"1000312","ADDRESS":"桃園縣觀音鄉塔腳村塔子腳37-1號","TEL":"03-4836267","COUNTYNAME":"桃園市","TOWNNAME":"觀音區","MARKTYPE":"994","Class":"4"},"geometry":{"x":266152.40350000001,"y":2770943.6247000005}},{"attributes":{"OBJECTID":1161,"LANDMARKID":"1000300001159","LANDMARKCO":"405","LANDMARKNA":"中油加油站-明泓站","LANDMARKAD":"1000312","ADDRESS":"桃園縣觀音鄉大同村下大堀53-28號","TEL":"03-4988111","COUNTYNAME":"桃園市","TOWNNAME":"觀音區","MARKTYPE":"994","Class":"4"},"geometry":{"x":263627.95189999975,"y":2766835.6159000006}},{"attributes":{"OBJECTID":1162,"LANDMARKID":"1000300001160","LANDMARKCO":"405","LANDMARKNA":"統一速邁樂加油站-觀音加油站(中油)","LANDMARKAD":"1000312","ADDRESS":"桃園縣觀音鄉大潭村濱海路300號","TEL":"03-4731717","COUNTYNAME":"桃園市","TOWNNAME":"觀音區","MARKTYPE":"994","Class":"4"},"geometry":{"x":256561.68989999965,"y":2768808.2105}},{"attributes":{"OBJECTID":1163,"LANDMARKID":"1000300001161","LANDMARKCO":"405","LANDMARKNA":"中油加油站-觀音三和站(中油直營)","LANDMARKAD":"1000312","ADDRESS":"桃園縣觀音鄉三和村濱海路武威段2號","TEL":"03-4737011","COUNTYNAME":"桃園市","TOWNNAME":"觀音區","MARKTYPE":"994","Class":"4"},"geometry":{"x":258723.64599999972,"y":2768556.6427999996}},{"attributes":{"OBJECTID":1164,"LANDMARKID":"1000300001162","LANDMARKCO":"405","LANDMARKNA":"中油加油站-大觀站","LANDMARKAD":"1000312","ADDRESS":"桃園縣觀音鄉保障村79~5號","TEL":"03-4838078","COUNTYNAME":"桃園市","TOWNNAME":"觀音區","MARKTYPE":"994","Class":"4"},"geometry":{"x":263774.34329999983,"y":2771841.6206}},{"attributes":{"OBJECTID":1165,"LANDMARKID":"1000300001163","LANDMARKCO":"405","LANDMARKNA":"山隆加油站-觀音站(中油)","LANDMARKAD":"1000312","ADDRESS":"桃園縣濱海路廣興段285號","TEL":" ","COUNTYNAME":"桃園市","TOWNNAME":"觀音區","MARKTYPE":"994","Class":"4"},"geometry":{"x":257050.42879999988,"y":2769201.6905000005}},{"attributes":{"OBJECTID":1166,"LANDMARKID":"1000300001164","LANDMARKCO":"405","LANDMARKNA":"中油加油站-保璋站","LANDMARKAD":"1000312","ADDRESS":"桃園縣觀音鄉保璋村草樏路79號","TEL":"03-4830983","COUNTYNAME":"桃園市","TOWNNAME":"觀音區","MARKTYPE":"994","Class":"4"},"geometry":{"x":265017.15050000045,"y":2773048.5599000007}},{"attributes":{"OBJECTID":1167,"LANDMARKID":"1000300001165","LANDMARKCO":"405","LANDMARKNA":"中油加油站-大方站","LANDMARKAD":"1000312","ADDRESS":"桃園縣觀音鄉成功路二段1267號","TEL":"03-4838079","COUNTYNAME":"桃園市","TOWNNAME":"觀音區","MARKTYPE":"994","Class":"4"},"geometry":{"x":260449.72030000016,"y":2769714.1141999997}},{"attributes":{"OBJECTID":1168,"LANDMARKID":"1000300001166","LANDMARKCO":"405","LANDMARKNA":"中油加油站-觀音站(中油直營)","LANDMARKAD":"1000312","ADDRESS":"桃園縣觀音鄉廣興村中山路一段166號","TEL":"03-4735944","COUNTYNAME":"桃園市","TOWNNAME":"觀音區","MARKTYPE":"994","Class":"4"},"geometry":{"x":258597.51599999983,"y":2769643.7508000005}},{"attributes":{"OBJECTID":1169,"LANDMARKID":"1000300001320","LANDMARKCO":"408","LANDMARKNA":"郵局-觀音新坡郵局","LANDMARKAD":"1000312","ADDRESS":"桃園縣觀音鄉大同村新華路2段596號","TEL":"(03)4981-184","COUNTYNAME":"桃園市","TOWNNAME":"觀音區","MARKTYPE":"994","Class":"4"},"geometry":{"x":263901.93059999961,"y":2767072.8291999996}},{"attributes":{"OBJECTID":1170,"LANDMARKID":"1000300001321","LANDMARKCO":"408","LANDMARKNA":"郵局-觀音郵局","LANDMARKAD":"1000312","ADDRESS":"桃園縣觀音鄉中山路40號","TEL":"(03)4732-431","COUNTYNAME":"桃園市","TOWNNAME":"觀音區","MARKTYPE":"994","Class":"4"},"geometry":{"x":258522.48699999973,"y":2769664.1431000009}},{"attributes":{"OBJECTID":1171,"LANDMARKID":"1000300001322","LANDMARKCO":"408","LANDMARKNA":"郵局-觀音工業區郵局","LANDMARKAD":"1000312","ADDRESS":"桃園縣觀音鄉工業五路3號(觀音工業區管理中心內)","TEL":"(03)4837-399","COUNTYNAME":"桃園市","TOWNNAME":"觀音區","MARKTYPE":"994","Class":"4"},"geometry":{"x":261911.54870000016,"y":2771554.3544999994}},{"attributes":{"OBJECTID":1172,"LANDMARKID":"1000300001323","LANDMARKCO":"408","LANDMARKNA":"郵局-觀音草漯郵局","LANDMARKAD":"1000312","ADDRESS":"桃園縣觀音鄉觀音鄉大觀路2段32之1號","TEL":"(03)4831-280","COUNTYNAME":"桃園市","TOWNNAME":"觀音區","MARKTYPE":"994","Class":"4"},"geometry":{"x":264493.38329999987,"y":2771118.2525999993}},{"attributes":{"OBJECTID":1173,"LANDMARKID":"1000300001389","LANDMARKCO":"409","LANDMARKNA":"桃園縣觀音鄉農會","LANDMARKAD":"1000312","ADDRESS":"桃園縣觀音鄉大同村中山路2段833號","TEL":"03-4981221-5","COUNTYNAME":"桃園市","TOWNNAME":"觀音區","MARKTYPE":"994","Class":"4"},"geometry":{"x":258357.28809999954,"y":2769511.6267000008}},{"attributes":{"OBJECTID":1174,"LANDMARKID":"1000300001167","LANDMARKCO":"405","LANDMARKNA":"台亞加油站-觀音草漯站（台塑）","LANDMARKAD":"1000312","ADDRESS":"桃園縣觀音鄉大觀路一段200號","TEL":"(03)483-6630","COUNTYNAME":"桃園市","TOWNNAME":"觀音區","MARKTYPE":"994","Class":"4"},"geometry":{"x":265430.9271999998,"y":2771637.4583000001}},{"attributes":{"OBJECTID":1175,"LANDMARKID":"1000300001168","LANDMARKCO":"405","LANDMARKNA":"台亞加油站-中新站（台塑）","LANDMARKAD":"1000312","ADDRESS":"桃園縣觀音鄉大同村中山路二段236號","TEL":"(03)408-0130","COUNTYNAME":"桃園市","TOWNNAME":"觀音區","MARKTYPE":"994","Class":"4"},"geometry":{"x":264142.55449999962,"y":2766914.7237}},{"attributes":{"OBJECTID":1176,"LANDMARKID":"1000300001169","LANDMARKCO":"405","LANDMARKNA":"台亞加油站-觀音工業區站（台塑）","LANDMARKAD":"1000312","ADDRESS":"桃園縣觀音鄉成功路一段188號","TEL":"(03)483-8681","COUNTYNAME":"桃園市","TOWNNAME":"觀音區","MARKTYPE":"994","Class":"4"},"geometry":{"x":265020.86110000033,"y":2771558.2490999997}},{"attributes":{"OBJECTID":1177,"LANDMARKID":"1000300001170","LANDMARKCO":"405","LANDMARKNA":"台亞加油站-名興站（台塑）","LANDMARKAD":"1000312","ADDRESS":"桃園縣觀音鄉廣興村成功路2段1690號","TEL":"(03)473-6977","COUNTYNAME":"桃園市","TOWNNAME":"觀音區","MARKTYPE":"994","Class":"4"},"geometry":{"x":260368.45380000025,"y":2769803.0723999999}},{"attributes":{"OBJECTID":1178,"LANDMARKID":"1000300000237","LANDMARKCO":"107","LANDMARKNA":"桃園縣消防局新坡消防分隊","LANDMARKAD":"1000312","ADDRESS":"桃園縣觀音鄉中山路二段670號","TEL":"03-4981454","COUNTYNAME":"桃園市","TOWNNAME":"觀音區","MARKTYPE":"991","Class":"1"},"geometry":{"x":263803.12590000033,"y":2767139.943}},{"attributes":{"OBJECTID":1179,"LANDMARKID":"1000300000238","LANDMARKCO":"107","LANDMARKNA":"桃園縣消防局草漯消防分隊","LANDMARKAD":"1000312","ADDRESS":"桃園縣觀音鄉1鄰工業五路1號","TEL":"03-4832924","COUNTYNAME":"桃園市","TOWNNAME":"觀音區","MARKTYPE":"991","Class":"1"},"geometry":{"x":261886.18209999986,"y":2771529.9094999991}},{"attributes":{"OBJECTID":1180,"LANDMARKID":"1000300000239","LANDMARKCO":"107","LANDMARKNA":"桃園縣政府警察局新坡派出所","LANDMARKAD":"1000312","ADDRESS":"桃園縣觀音鄉大同村中山路二段668號","TEL":"03-4981001","COUNTYNAME":"桃園市","TOWNNAME":"觀音區","MARKTYPE":"991","Class":"1"},"geometry":{"x":264085.00459999964,"y":2767019.9400999993}},{"attributes":{"OBJECTID":1181,"LANDMARKID":"1000300000240","LANDMARKCO":"107","LANDMARKNA":"桃園縣政府警察局草漯派出所","LANDMARKAD":"1000312","ADDRESS":"桃園縣觀音鄉草漯村大觀路2段77號","TEL":"03-4831224","COUNTYNAME":"桃園市","TOWNNAME":"觀音區","MARKTYPE":"991","Class":"1"},"geometry":{"x":264437.28760000039,"y":2770979.8587999996}},{"attributes":{"OBJECTID":1182,"LANDMARKID":"1000300000002","LANDMARKCO":"101","LANDMARKNA":"工業局觀音工業區管理中心","LANDMARKAD":"1000312","ADDRESS":"桃園縣觀音鄉工業五路3號","TEL":"03-4830400#6508","COUNTYNAME":"桃園市","TOWNNAME":"觀音區","MARKTYPE":"991","Class":"1"},"geometry":{"x":261904.21719999984,"y":2771569.8937999997}},{"attributes":{"OBJECTID":1183,"LANDMARKID":"1000300000075","LANDMARKCO":"103","LANDMARKNA":"桃園縣觀音鄉衛生所","LANDMARKAD":"1000312","ADDRESS":"桃園縣觀音鄉觀音村信義路52號","TEL":"03-4732031","COUNTYNAME":"桃園市","TOWNNAME":"觀音區","MARKTYPE":"991","Class":"1"},"geometry":{"x":258051.04729999974,"y":2769859.8909000009}},{"attributes":{"OBJECTID":1184,"LANDMARKID":"1000300000241","LANDMARKCO":"108","LANDMARKNA":"桃園縣觀音鄉公所","LANDMARKAD":"1000312","ADDRESS":"桃園縣觀音鄉觀音村中山路8號","TEL":"03-4732121","COUNTYNAME":"桃園市","TOWNNAME":"觀音區","MARKTYPE":"991","Class":"1"},"geometry":{"x":258301.01829999965,"y":2769809.9053000007}},{"attributes":{"OBJECTID":1185,"LANDMARKID":"1000300000076","LANDMARKCO":"103","LANDMARKNA":"桃園縣觀音鄉鄉民代表會","LANDMARKAD":"1000312","ADDRESS":"桃園縣觀音鄉中山路12號","TEL":"03-4732016","COUNTYNAME":"桃園市","TOWNNAME":"觀音區","MARKTYPE":"991","Class":"1"},"geometry":{"x":258288.03039999958,"y":2769829.9131000005}},{"attributes":{"OBJECTID":1186,"LANDMARKID":"1000300000235","LANDMARKCO":"107","LANDMARKNA":"桃園縣消防局觀音消防分隊","LANDMARKAD":"1000312","ADDRESS":"桃園縣觀音鄉廣興村30號之9","TEL":"03-4732014","COUNTYNAME":"桃園市","TOWNNAME":"觀音區","MARKTYPE":"991","Class":"1"},"geometry":{"x":258758.08029999956,"y":2769289.9651999995}},{"attributes":{"OBJECTID":1187,"LANDMARKID":"1000300000236","LANDMARKCO":"107","LANDMARKNA":"桃園縣政府警察局觀音分駐所","LANDMARKAD":"1000312","ADDRESS":"桃園縣觀音鄉觀音村中山路14號","TEL":"03-4732025","COUNTYNAME":"桃園市","TOWNNAME":"觀音區","MARKTYPE":"991","Class":"1"},"geometry":{"x":258305.02440000046,"y":2769819.9027999993}},{"attributes":{"OBJECTID":1188,"LANDMARKID":"1000300000099","LANDMARKCO":"106","LANDMARKNA":"桃園縣觀音鄉戶政事務所","LANDMARKAD":"1000312","ADDRESS":"桃園縣觀音鄉觀音村2鄰中山路16號","TEL":"03-4732050","COUNTYNAME":"桃園市","TOWNNAME":"觀音區","MARKTYPE":"991","Class":"1"},"geometry":{"x":258335.00619999971,"y":2769789.8846000005}},{"attributes":{"OBJECTID":1189,"LANDMARKID":"1000300000544","LANDMARKCO":"204","LANDMARKNA":"桃園縣立圖書館觀音分館","LANDMARKAD":"1000312","ADDRESS":"桃園縣觀音鄉文化路4號","TEL":" ","COUNTYNAME":"桃園市","TOWNNAME":"觀音區","MARKTYPE":"992","Class":"2"},"geometry":{"x":258348.77909999993,"y":2769748.7886999995}},{"attributes":{"OBJECTID":1190,"LANDMARKID":"1000300000545","LANDMARKCO":"204","LANDMARKNA":"桃園縣立圖書館新坡分館","LANDMARKAD":"1000312","ADDRESS":"桃園縣觀音鄉新坡村張厝12之1號","TEL":" ","COUNTYNAME":"桃園市","TOWNNAME":"觀音區","MARKTYPE":"992","Class":"2"},"geometry":{"x":262339.06140000001,"y":2769675.5996000003}},{"attributes":{"OBJECTID":1191,"LANDMARKID":"1000300000499","LANDMARKCO":"203","LANDMARKNA":"縣立草漯國中","LANDMARKAD":"1000312","ADDRESS":"桃園縣觀音鄉草漯村28鄰四維路73號","TEL":"03-4830146#71","COUNTYNAME":"桃園市","TOWNNAME":"觀音區","MARKTYPE":"992","Class":"2"},"geometry":{"x":264180.19720000029,"y":2770589.8379999995}},{"attributes":{"OBJECTID":1192,"LANDMARKID":"1000300000500","LANDMARKCO":"203","LANDMARKNA":"縣立新坡國中","LANDMARKAD":"1000312","ADDRESS":"桃園縣觀音鄉中山路二段519號","TEL":"03-4981464","COUNTYNAME":"桃園市","TOWNNAME":"觀音區","MARKTYPE":"992","Class":"2"},"geometry":{"x":263444.16469999962,"y":2767489.7485000007}},{"attributes":{"OBJECTID":1193,"LANDMARKID":"1000300000501","LANDMARKCO":"203","LANDMARKNA":"縣立觀音國小","LANDMARKAD":"1000312","ADDRESS":"桃園縣觀音鄉觀音村4鄰文化路2號","TEL":"03-4732009","COUNTYNAME":"桃園市","TOWNNAME":"觀音區","MARKTYPE":"992","Class":"2"},"geometry":{"x":258327.13889999967,"y":2769699.8894999996}},{"attributes":{"OBJECTID":1194,"LANDMARKID":"1000300000502","LANDMARKCO":"203","LANDMARKNA":"縣立新坡國小","LANDMARKAD":"1000312","ADDRESS":"桃園縣觀音鄉新坡村中山路二段717號","TEL":"03-4981534","COUNTYNAME":"桃園市","TOWNNAME":"觀音區","MARKTYPE":"992","Class":"2"},"geometry":{"x":263929.2695000004,"y":2767279.8150999993}},{"attributes":{"OBJECTID":1195,"LANDMARKID":"1000300000503","LANDMARKCO":"203","LANDMARKNA":"縣立觀音國中","LANDMARKAD":"1000312","ADDRESS":"桃園縣觀音鄉白玉村下庄子53之1號","TEL":"03-4732034","COUNTYNAME":"桃園市","TOWNNAME":"觀音區","MARKTYPE":"992","Class":"2"},"geometry":{"x":258130.06699999981,"y":2770200.0078999996}},{"attributes":{"OBJECTID":1196,"LANDMARKID":"1000300000504","LANDMARKCO":"203","LANDMARKNA":"縣立崙坪國小","LANDMARKAD":"1000312","ADDRESS":"桃園縣觀音鄉崙坪村297之1號","TEL":"03-4981286","COUNTYNAME":"桃園市","TOWNNAME":"觀音區","MARKTYPE":"992","Class":"2"},"geometry":{"x":266383.0390999997,"y":2765819.8650000002}},{"attributes":{"OBJECTID":1197,"LANDMARKID":"1000300000505","LANDMARKCO":"203","LANDMARKNA":"縣立大潭國小","LANDMARKAD":"1000312","ADDRESS":"桃園縣觀音鄉大潭村濱海路大潭段687號","TEL":"03-4732087","COUNTYNAME":"桃園市","TOWNNAME":"觀音區","MARKTYPE":"992","Class":"2"},"geometry":{"x":255943.09020000044,"y":2768139.9846000001}},{"attributes":{"OBJECTID":1198,"LANDMARKID":"1000300000506","LANDMARKCO":"203","LANDMARKNA":"縣立育仁國小","LANDMARKAD":"1000312","ADDRESS":"桃園縣觀音鄉坑尾村4鄰23之1號","TEL":"03-4732720","COUNTYNAME":"桃園市","TOWNNAME":"觀音區","MARKTYPE":"992","Class":"2"},"geometry":{"x":260376.1651999997,"y":2767230.0066999998}},{"attributes":{"OBJECTID":1199,"LANDMARKID":"1000300000507","LANDMARKCO":"203","LANDMARKNA":"縣立富林國小","LANDMARKAD":"1000312","ADDRESS":"桃園縣觀音鄉富林村5鄰8號之2","TEL":"03-4839049","COUNTYNAME":"桃園市","TOWNNAME":"觀音區","MARKTYPE":"992","Class":"2"},"geometry":{"x":262184.08669999987,"y":2769879.8926999997}},{"attributes":{"OBJECTID":1200,"LANDMARKID":"1000300000508","LANDMARKCO":"203","LANDMARKNA":"縣立草漯國小","LANDMARKAD":"1000312","ADDRESS":"桃園縣觀音鄉草漯村7鄰195號","TEL":"03-4830160","COUNTYNAME":"桃園市","TOWNNAME":"觀音區","MARKTYPE":"992","Class":"2"},"geometry":{"x":264500.16139999963,"y":2770859.7921999991}}]}