{"displayFieldName":"COUNTYNAME","fieldAliases":{"OBJECTID":"OBJECTID","LANDMARKID":"LANDMARKID","LANDMARKCO":"LANDMARKCO","LANDMARKNA":"LANDMARKNA","LANDMARKAD":"LANDMARKAD","ADDRESS":"ADDRESS","TEL":"TEL","COUNTYNAME":"COUNTYNAME","TOWNNAME":"TOWNNAME","MARKTYPE":"MARKTYPE","Class":"Class"},"geometryType":"esriGeometryPoint","spatialReference":{"wkid":4326},"fields":[{"name":"OBJECTID","type":"esriFieldTypeOID","alias":"OBJECTID"},{"name":"LANDMARKID","type":"esriFieldTypeString","alias":"LANDMARKID","length":15},{"name":"LANDMARKCO","type":"esriFieldTypeString","alias":"LANDMARKCO","length":15},{"name":"LANDMARKNA","type":"esriFieldTypeString","alias":"LANDMARKNA","length":50},{"name":"LANDMARKAD","type":"esriFieldTypeString","alias":"LANDMARKAD","length":15},{"name":"ADDRESS","type":"esriFieldTypeString","alias":"ADDRESS","length":56},{"name":"TEL","type":"esriFieldTypeString","alias":"TEL","length":36},{"name":"COUNTYNAME","type":"esriFieldTypeString","alias":"COUNTYNAME","length":15},{"name":"TOWNNAME","type":"esriFieldTypeString","alias":"TOWNNAME","length":13},{"name":"MARKTYPE","type":"esriFieldTypeString","alias":"MARKTYPE","length":12},{"name":"Class","type":"esriFieldTypeString","alias":"Class","length":5}],"features":[{"attributes":{"OBJECTID":1601,"LANDMARKID":"1000300001568","LANDMARKCO":"603","LANDMARKNA":"愛多頂級會館","LANDMARKAD":"1000301","ADDRESS":"桃園縣桃園市經國路299號","TEL":"03-3151666","COUNTYNAME":"桃園市","TOWNNAME":"桃園區","MARKTYPE":"996","Class":"6"},"geometry":{"x":121.30658237415687,"y":25.01246996623437}},{"attributes":{"OBJECTID":1602,"LANDMARKID":"1000300001569","LANDMARKCO":"603","LANDMARKNA":"翡翠旅社","LANDMARKAD":"1000301","ADDRESS":"桃園縣桃園市文化街65號7樓","TEL":"03-3352633","COUNTYNAME":"桃園市","TOWNNAME":"桃園區","MARKTYPE":"996","Class":"6"},"geometry":{"x":121.30709345715947,"y":24.991487912918249}},{"attributes":{"OBJECTID":1603,"LANDMARKID":"1000300001570","LANDMARKCO":"603","LANDMARKNA":"約客頂級汽車旅館","LANDMARKAD":"1000301","ADDRESS":"桃園縣桃園市泰山街58號1-4樓","TEL":"03-3386969","COUNTYNAME":"桃園市","TOWNNAME":"桃園區","MARKTYPE":"996","Class":"6"},"geometry":{"x":121.29890095241123,"y":24.990109715931791}},{"attributes":{"OBJECTID":1604,"LANDMARKID":"1000300001571","LANDMARKCO":"603","LANDMARKNA":"快活林汽車賓館","LANDMARKAD":"1000301","ADDRESS":"桃園縣桃園市宏昌十三街622、624號1、2樓","TEL":"03-2208866","COUNTYNAME":"桃園市","TOWNNAME":"桃園區","MARKTYPE":"996","Class":"6"},"geometry":{"x":121.29235869645677,"y":24.984515720817328}},{"attributes":{"OBJECTID":1605,"LANDMARKID":"1000300001572","LANDMARKCO":"603","LANDMARKNA":"怡園HOTEL","LANDMARKAD":"1000301","ADDRESS":"桃園縣桃園市鎮江街42號2-6樓","TEL":"03-3351791","COUNTYNAME":"桃園市","TOWNNAME":"桃園區","MARKTYPE":"996","Class":"6"},"geometry":{"x":121.31603075865449,"y":24.993136545015094}},{"attributes":{"OBJECTID":1606,"LANDMARKID":"1000300001573","LANDMARKCO":"603","LANDMARKNA":"花語旅館","LANDMARKAD":"1000301","ADDRESS":"桃園縣桃園市復興路22","TEL":"24號2-5樓","COUNTYNAME":"桃園市","TOWNNAME":"桃園區","MARKTYPE":"996","Class":"6"},"geometry":{"x":121.31847941965513,"y":24.990992210498458}},{"attributes":{"OBJECTID":1607,"LANDMARKID":"1000300001574","LANDMARKCO":"603","LANDMARKNA":"新秀山賓館","LANDMARKAD":"1000301","ADDRESS":"桃園縣桃園市大同路75號2-3樓","TEL":"03-3323112","COUNTYNAME":"桃園市","TOWNNAME":"桃園區","MARKTYPE":"996","Class":"6"},"geometry":{"x":121.3112954881404,"y":24.989082692897203}},{"attributes":{"OBJECTID":1608,"LANDMARKID":"1000300001575","LANDMARKCO":"603","LANDMARKNA":"臻愛風情MOTEL","LANDMARKAD":"1000301","ADDRESS":"桃園縣桃園市介新街133號1-2樓","TEL":"03-2182727","COUNTYNAME":"桃園市","TOWNNAME":"桃園區","MARKTYPE":"996","Class":"6"},"geometry":{"x":121.30902829264681,"y":24.975917638058949}},{"attributes":{"OBJECTID":1609,"LANDMARKID":"1000300001576","LANDMARKCO":"603","LANDMARKNA":"天堂鳥商務汽車旅館","LANDMARKAD":"1000301","ADDRESS":"桃園縣桃園市大興西路二段69巷12號2樓","TEL":"03-3012220","COUNTYNAME":"桃園市","TOWNNAME":"桃園區","MARKTYPE":"996","Class":"6"},"geometry":{"x":121.2980795927582,"y":25.010817518347867}},{"attributes":{"OBJECTID":1610,"LANDMARKID":"1000300001577","LANDMARKCO":"603","LANDMARKNA":"綠島大旅社","LANDMARKAD":"1000301","ADDRESS":"桃園縣桃園市廣文街15號","TEL":"03-3344121","COUNTYNAME":"桃園市","TOWNNAME":"桃園區","MARKTYPE":"996","Class":"6"},"geometry":{"x":121.31283671928863,"y":24.993559320771226}},{"attributes":{"OBJECTID":1611,"LANDMARKID":"1000300001578","LANDMARKCO":"603","LANDMARKNA":"新格旅館","LANDMARKAD":"1000301","ADDRESS":"桃園縣桃園市寶山街296號3-6樓","TEL":"03-3550737","COUNTYNAME":"桃園市","TOWNNAME":"桃園區","MARKTYPE":"996","Class":"6"},"geometry":{"x":121.31396942751749,"y":25.011743356108511}},{"attributes":{"OBJECTID":1612,"LANDMARKID":"1000300001579","LANDMARKCO":"603","LANDMARKNA":"采宴精英大飯店","LANDMARKAD":"1000301","ADDRESS":"桃園縣桃園市南華街39號1、3-6樓","TEL":"03-3326191","COUNTYNAME":"桃園市","TOWNNAME":"桃園區","MARKTYPE":"996","Class":"6"},"geometry":{"x":121.30854506629791,"y":24.989752481287027}},{"attributes":{"OBJECTID":1613,"LANDMARKID":"1000300001580","LANDMARKCO":"603","LANDMARKNA":"春日商務旅館","LANDMARKAD":"1000301","ADDRESS":"桃園縣桃園市春日路878號1","TEL":"3","COUNTYNAME":"桃園市","TOWNNAME":"桃園區","MARKTYPE":"996","Class":"6"},"geometry":{"x":121.30928522628375,"y":25.015543247846701}},{"attributes":{"OBJECTID":1614,"LANDMARKID":"1000300001581","LANDMARKCO":"603","LANDMARKNA":"長城大旅社","LANDMARKAD":"1000301","ADDRESS":"桃園縣桃園市桃鶯路387號2-6樓","TEL":"03-3615081","COUNTYNAME":"桃園市","TOWNNAME":"桃園區","MARKTYPE":"996","Class":"6"},"geometry":{"x":121.32024310598092,"y":24.980183574543471}},{"attributes":{"OBJECTID":1615,"LANDMARKID":"1000300001582","LANDMARKCO":"603","LANDMARKNA":"住都飯店","LANDMARKAD":"1000301","ADDRESS":"桃園縣桃園市桃鶯路398號5-12樓","TEL":"398-1號1-9樓","COUNTYNAME":"桃園市","TOWNNAME":"桃園區","MARKTYPE":"996","Class":"6"},"geometry":{"x":121.32278178630379,"y":24.975556086724527}},{"attributes":{"OBJECTID":1616,"LANDMARKID":"1000300001583","LANDMARKCO":"603","LANDMARKNA":"皇冠商務汽車旅館","LANDMARKAD":"1000301","ADDRESS":"桃園縣桃園市莊敬路一段150號2樓","TEL":"03-3266066","COUNTYNAME":"桃園市","TOWNNAME":"桃園區","MARKTYPE":"996","Class":"6"},"geometry":{"x":121.30070999908891,"y":25.026241828374015}},{"attributes":{"OBJECTID":1617,"LANDMARKID":"1000300001584","LANDMARKCO":"603","LANDMARKNA":"天祥旅社","LANDMARKAD":"1000301","ADDRESS":"桃園縣桃園市廣文街19號","TEL":"03-3323479","COUNTYNAME":"桃園市","TOWNNAME":"桃園區","MARKTYPE":"996","Class":"6"},"geometry":{"x":121.31271757062251,"y":24.993505651498566}},{"attributes":{"OBJECTID":1618,"LANDMARKID":"1000300001585","LANDMARKCO":"603","LANDMARKNA":"新興旅社","LANDMARKAD":"1000301","ADDRESS":"桃園縣桃園市廣文街23號2-3樓","TEL":"03-3322388","COUNTYNAME":"桃園市","TOWNNAME":"桃園區","MARKTYPE":"996","Class":"6"},"geometry":{"x":121.3126381835291,"y":24.993478900439047}},{"attributes":{"OBJECTID":1619,"LANDMARKID":"1000300001586","LANDMARKCO":"603","LANDMARKNA":"新和大旅社","LANDMARKAD":"1000301","ADDRESS":"桃園縣桃園市廣文街26號1-3樓","TEL":"03-3352153","COUNTYNAME":"桃園市","TOWNNAME":"桃園區","MARKTYPE":"996","Class":"6"},"geometry":{"x":121.31246019007374,"y":24.993542846225612}},{"attributes":{"OBJECTID":1620,"LANDMARKID":"1000300001587","LANDMARKCO":"603","LANDMARKNA":"中南旅社","LANDMARKAD":"1000301","ADDRESS":"桃園縣桃園市鎮江街42號2-6樓","TEL":"03-3323684","COUNTYNAME":"桃園市","TOWNNAME":"桃園區","MARKTYPE":"996","Class":"6"},"geometry":{"x":121.31254889031703,"y":24.993452190007954}},{"attributes":{"OBJECTID":1621,"LANDMARKID":"1000300001588","LANDMARKCO":"603","LANDMARKNA":"凱富旅館","LANDMARKAD":"1000301","ADDRESS":"桃園縣桃園市龍壽街84號1-7樓","TEL":"03-3795208","COUNTYNAME":"桃園市","TOWNNAME":"桃園區","MARKTYPE":"996","Class":"6"},"geometry":{"x":121.26875631789532,"y":24.980518134210801}},{"attributes":{"OBJECTID":1622,"LANDMARKID":"1000300001589","LANDMARKCO":"603","LANDMARKNA":"原鶴旅館","LANDMARKAD":"1000301","ADDRESS":"桃園縣桃園市雙峰路122號1-6樓","TEL":"03-3558833","COUNTYNAME":"桃園市","TOWNNAME":"桃園區","MARKTYPE":"996","Class":"6"},"geometry":{"x":121.31333032106483,"y":25.012706245717698}},{"attributes":{"OBJECTID":1623,"LANDMARKID":"1000300001590","LANDMARKCO":"603","LANDMARKNA":"春芳旅社","LANDMARKAD":"1000301","ADDRESS":"桃園縣桃園市中山路160號","TEL":"03-3322932","COUNTYNAME":"桃園市","TOWNNAME":"桃園區","MARKTYPE":"996","Class":"6"},"geometry":{"x":121.30906156175253,"y":24.993397778705507}},{"attributes":{"OBJECTID":1624,"LANDMARKID":"1000300001591","LANDMARKCO":"603","LANDMARKNA":"華那旅館","LANDMARKAD":"1000301","ADDRESS":"桃園縣桃園市中山路203號6-9樓","TEL":"03-3995766","COUNTYNAME":"桃園市","TOWNNAME":"桃園區","MARKTYPE":"996","Class":"6"},"geometry":{"x":121.30825662021515,"y":24.992889800601532}},{"attributes":{"OBJECTID":1625,"LANDMARKID":"1000300001592","LANDMARKCO":"603","LANDMARKNA":"凱園汽車旅店","LANDMARKAD":"1000301","ADDRESS":"桃園縣桃園市北興街25號2樓","TEL":"03-3355811","COUNTYNAME":"桃園市","TOWNNAME":"桃園區","MARKTYPE":"996","Class":"6"},"geometry":{"x":121.31021416576922,"y":24.998837046362034}},{"attributes":{"OBJECTID":1626,"LANDMARKID":"1000300001593","LANDMARKCO":"603","LANDMARKNA":"桃園中信酒店","LANDMARKAD":"1000301","ADDRESS":"桃園縣桃園市民生路107號","TEL":"03-3370888","COUNTYNAME":"桃園市","TOWNNAME":"桃園區","MARKTYPE":"996","Class":"6"},"geometry":{"x":121.31340601646687,"y":24.992518664327203}},{"attributes":{"OBJECTID":1627,"LANDMARKID":"1000300001594","LANDMARKCO":"603","LANDMARKNA":"麗星花園MOTEL","LANDMARKAD":"1000301","ADDRESS":"桃園縣桃園市民光東路165號2-3樓","TEL":"03-3317317","COUNTYNAME":"桃園市","TOWNNAME":"桃園區","MARKTYPE":"996","Class":"6"},"geometry":{"x":121.31646775486227,"y":25.007335998418412}},{"attributes":{"OBJECTID":1628,"LANDMARKID":"1000300001595","LANDMARKCO":"603","LANDMARKNA":"嘉鄉汽車旅館","LANDMARKAD":"1000301","ADDRESS":"桃園縣桃園市南平路476號2樓","TEL":"03-3172211","COUNTYNAME":"桃園市","TOWNNAME":"桃園區","MARKTYPE":"996","Class":"6"},"geometry":{"x":121.29456197488554,"y":25.016992320917236}},{"attributes":{"OBJECTID":1629,"LANDMARKID":"1000300001596","LANDMARKCO":"603","LANDMARKNA":"歐馨賓館","LANDMARKAD":"1000301","ADDRESS":"桃園縣桃園市民族路186號","TEL":"03-3382661","COUNTYNAME":"桃園市","TOWNNAME":"桃園區","MARKTYPE":"996","Class":"6"},"geometry":{"x":121.30805615176025,"y":24.994407393695447}},{"attributes":{"OBJECTID":1630,"LANDMARKID":"1000300001597","LANDMARKCO":"603","LANDMARKNA":"欣桃大旅社","LANDMARKAD":"1000301","ADDRESS":"桃園縣桃園市復興路180號8-10樓","TEL":"03-3331131","COUNTYNAME":"桃園市","TOWNNAME":"桃園區","MARKTYPE":"996","Class":"6"},"geometry":{"x":121.31190581483169,"y":24.990267895367943}},{"attributes":{"OBJECTID":1631,"LANDMARKID":"1000300001598","LANDMARKCO":"603","LANDMARKNA":"今日大飯店","LANDMARKAD":"1000301","ADDRESS":"桃園縣桃園市復興路81號","TEL":"03-3324162","COUNTYNAME":"桃園市","TOWNNAME":"桃園區","MARKTYPE":"996","Class":"6"},"geometry":{"x":121.31439507112135,"y":24.990823009579067}},{"attributes":{"OBJECTID":1632,"LANDMARKID":"1000300001599","LANDMARKCO":"603","LANDMARKNA":"戀之巢雷射電腦旅館","LANDMARKAD":"1000301","ADDRESS":"桃園縣桃園市復興路96號9樓","TEL":"03-3380179","COUNTYNAME":"桃園市","TOWNNAME":"桃園區","MARKTYPE":"996","Class":"6"},"geometry":{"x":121.3158725008838,"y":24.991096630745826}},{"attributes":{"OBJECTID":1633,"LANDMARKID":"1000300001600","LANDMARKCO":"603","LANDMARKNA":"白宮商務旅店","LANDMARKAD":"1000301","ADDRESS":"桃園縣桃園市朝陽街5號2-8樓之1-3","TEL":"9樓之1","COUNTYNAME":"桃園市","TOWNNAME":"桃園區","MARKTYPE":"996","Class":"6"},"geometry":{"x":121.313485901435,"y":24.995985198868627}},{"attributes":{"OBJECTID":1634,"LANDMARKID":"1000300001601","LANDMARKCO":"603","LANDMARKNA":"真善美汽車旅館(經國館)","LANDMARKAD":"1000301","ADDRESS":"桃園縣桃園市經國路721號1-3樓","TEL":"03-3166006","COUNTYNAME":"桃園市","TOWNNAME":"桃園區","MARKTYPE":"996","Class":"6"},"geometry":{"x":121.30047940583967,"y":25.024301686618944}},{"attributes":{"OBJECTID":1635,"LANDMARKID":"1000300001602","LANDMARKCO":"603","LANDMARKNA":"環寶賓館","LANDMARKAD":"1000301","ADDRESS":"桃園縣桃園市大同路61號","TEL":"03-3320588","COUNTYNAME":"桃園市","TOWNNAME":"桃園區","MARKTYPE":"996","Class":"6"},"geometry":{"x":121.31200036215539,"y":24.989373691494997}},{"attributes":{"OBJECTID":1636,"LANDMARKID":"1000300001603","LANDMARKCO":"603","LANDMARKNA":"裕國大旅社","LANDMARKAD":"1000301","ADDRESS":"桃園縣桃園市大同路66號","TEL":"03-3325536","COUNTYNAME":"桃園市","TOWNNAME":"桃園區","MARKTYPE":"996","Class":"6"},"geometry":{"x":121.31142637068599,"y":24.989484436121284}},{"attributes":{"OBJECTID":1637,"LANDMARKID":"1000300001604","LANDMARKCO":"603","LANDMARKNA":"絕色汽車旅館","LANDMARKAD":"1000301","ADDRESS":"桃園縣桃園市大興西路一段116號2-3樓","TEL":"03-3260101","COUNTYNAME":"桃園市","TOWNNAME":"桃園區","MARKTYPE":"996","Class":"6"},"geometry":{"x":121.30488390051566,"y":25.015116651479843}},{"attributes":{"OBJECTID":1638,"LANDMARKID":"1000300001605","LANDMARKCO":"603","LANDMARKNA":"珍園賓館","LANDMARKAD":"1000301","ADDRESS":"桃園縣桃園市中正路48巷7號1樓","TEL":"03-3337700","COUNTYNAME":"桃園市","TOWNNAME":"桃園區","MARKTYPE":"996","Class":"6"},"geometry":{"x":121.31348539432253,"y":24.991155063241422}},{"attributes":{"OBJECTID":1639,"LANDMARKID":"1000300001606","LANDMARKCO":"603","LANDMARKNA":"夢蠂旅社","LANDMARKAD":"1000301","ADDRESS":"桃園縣桃園市中正路509號4-9樓","TEL":"03-3393457","COUNTYNAME":"桃園市","TOWNNAME":"桃園區","MARKTYPE":"996","Class":"6"},"geometry":{"x":121.30591624997622,"y":25.002559750495237}},{"attributes":{"OBJECTID":1640,"LANDMARKID":"1000300001607","LANDMARKCO":"603","LANDMARKNA":"京典賓館","LANDMARKAD":"1000301","ADDRESS":"桃園縣桃園市中正路60號9樓之14-18","TEL":"20-33","COUNTYNAME":"桃園市","TOWNNAME":"桃園區","MARKTYPE":"996","Class":"6"},"geometry":{"x":121.31265009312166,"y":24.991916945325084}},{"attributes":{"OBJECTID":1641,"LANDMARKID":"1000300001608","LANDMARKCO":"603","LANDMARKNA":"富堡村花園大飯店","LANDMARKAD":"1000301","ADDRESS":"桃園縣桃園市中正路703號1","TEL":"3-9樓","COUNTYNAME":"桃園市","TOWNNAME":"桃園區","MARKTYPE":"996","Class":"6"},"geometry":{"x":121.30287307066195,"y":25.007017469059708}},{"attributes":{"OBJECTID":1642,"LANDMARKID":"1000300001609","LANDMARKCO":"603","LANDMARKNA":"喜星經典旅館","LANDMARKAD":"1000301","ADDRESS":"桃園縣桃園市介壽路24號3-4樓","TEL":"03-3663010","COUNTYNAME":"桃園市","TOWNNAME":"桃園區","MARKTYPE":"996","Class":"6"},"geometry":{"x":121.31090443313758,"y":24.986736231645558}},{"attributes":{"OBJECTID":1643,"LANDMARKID":"1000300001610","LANDMARKCO":"603","LANDMARKNA":"一六八旅館-桃園館","LANDMARKAD":"1000301","ADDRESS":"桃園縣桃園市天祥七街25號","TEL":"03-3178800","COUNTYNAME":"桃園市","TOWNNAME":"桃園區","MARKTYPE":"996","Class":"6"},"geometry":{"x":121.30149616944927,"y":25.023512106186185}},{"attributes":{"OBJECTID":1644,"LANDMARKID":"1000300001611","LANDMARKCO":"603","LANDMARKNA":"新雅旅館","LANDMARKAD":"1000301","ADDRESS":"桃園縣桃園市天祥七街99號2-7樓","TEL":"03-3264370","COUNTYNAME":"桃園市","TOWNNAME":"桃園區","MARKTYPE":"996","Class":"6"},"geometry":{"x":121.29968918994659,"y":25.022773512011288}},{"attributes":{"OBJECTID":1645,"LANDMARKID":"1000300001612","LANDMARKCO":"603","LANDMARKNA":"唐城汽車旅館","LANDMARKAD":"1000301","ADDRESS":"桃園縣桃園市文中路623號2樓","TEL":"03-3605678","COUNTYNAME":"桃園市","TOWNNAME":"桃園區","MARKTYPE":"996","Class":"6"},"geometry":{"x":121.27872818654009,"y":24.993403255160398}},{"attributes":{"OBJECTID":1646,"LANDMARKID":"1000300001613","LANDMARKCO":"603","LANDMARKNA":"怡和商旅大飯店","LANDMARKAD":"1000301","ADDRESS":"桃園縣桃園市民富九街96號2","TEL":"5樓","COUNTYNAME":"桃園市","TOWNNAME":"桃園區","MARKTYPE":"996","Class":"6"},"geometry":{"x":121.31286599322581,"y":25.008239207380385}},{"attributes":{"OBJECTID":1647,"LANDMARKID":"1000300001614","LANDMARKCO":"603","LANDMARKNA":"大爵商務飯店","LANDMARKAD":"1000301","ADDRESS":"桃園縣桃園市民權路106巷3號1-7樓","TEL":"03-3366600.3381","COUNTYNAME":"桃園市","TOWNNAME":"桃園區","MARKTYPE":"996","Class":"6"},"geometry":{"x":121.30977680977641,"y":24.9951824022714}},{"attributes":{"OBJECTID":1648,"LANDMARKID":"1000300001615","LANDMARKCO":"603","LANDMARKNA":"雀巢HOTEL","LANDMARKAD":"1000301","ADDRESS":"桃園縣桃園市長壽街5號之1","TEL":"03-3365800","COUNTYNAME":"桃園市","TOWNNAME":"桃園區","MARKTYPE":"996","Class":"6"},"geometry":{"x":121.31267258657137,"y":24.989100018373609}},{"attributes":{"OBJECTID":1649,"LANDMARKID":"1000300001616","LANDMARKCO":"603","LANDMARKNA":"富士大旅社","LANDMARKAD":"1000301","ADDRESS":"桃園縣桃園市長壽街7號","TEL":"03-3324161","COUNTYNAME":"桃園市","TOWNNAME":"桃園區","MARKTYPE":"996","Class":"6"},"geometry":{"x":121.31250446258643,"y":24.989154895293808}},{"attributes":{"OBJECTID":1650,"LANDMARKID":"1000300001617","LANDMARKCO":"603","LANDMARKNA":"漢宮大旅社","LANDMARKAD":"1000301","ADDRESS":"桃園縣桃園市長壽街9號","TEL":"03-3327189","COUNTYNAME":"桃園市","TOWNNAME":"桃園區","MARKTYPE":"996","Class":"6"},"geometry":{"x":121.31249405510341,"y":24.989055627418576}},{"attributes":{"OBJECTID":1651,"LANDMARKID":"1000300001618","LANDMARKCO":"603","LANDMARKNA":"櫻珍大飯店","LANDMARKAD":"1000301","ADDRESS":"桃園縣桃園市桃鶯路152號1樓、154號2-6樓","TEL":"03-3764599","COUNTYNAME":"桃園市","TOWNNAME":"桃園區","MARKTYPE":"996","Class":"6"},"geometry":{"x":121.31859130756681,"y":24.983425879761963}},{"attributes":{"OBJECTID":1652,"LANDMARKID":"1000300001619","LANDMARKCO":"603","LANDMARKNA":"麗尊汽車旅館","LANDMARKAD":"1000301","ADDRESS":"桃園縣桃園市宏昌七街100號2樓","TEL":"03-2206953","COUNTYNAME":"桃園市","TOWNNAME":"桃園區","MARKTYPE":"996","Class":"6"},"geometry":{"x":121.29365942277948,"y":24.986935200040445}},{"attributes":{"OBJECTID":1653,"LANDMARKID":"1000300001480","LANDMARKCO":"601","LANDMARKNA":"桃園大飯店","LANDMARKAD":"1000301","ADDRESS":"桃園縣桃園市大興路269號","TEL":"03-325-4021","COUNTYNAME":"桃園市","TOWNNAME":"桃園區","MARKTYPE":"996","Class":"6"},"geometry":{"x":121.31632099362967,"y":25.016663925048658}},{"attributes":{"OBJECTID":1654,"LANDMARKID":"1000300001481","LANDMARKCO":"602","LANDMARKNA":"尊爵大飯店","LANDMARKAD":"1000301","ADDRESS":"桃園縣桃園市莊敬路1段300號","TEL":"03-316-9900","COUNTYNAME":"桃園市","TOWNNAME":"桃園區","MARKTYPE":"996","Class":"6"},"geometry":{"x":121.29779096418204,"y":25.024693940782608}},{"attributes":{"OBJECTID":1655,"LANDMARKID":"1000300001482","LANDMARKCO":"602","LANDMARKNA":"福容大飯店 桃園","LANDMARKAD":"1000301","ADDRESS":"桃園縣桃園市大興西路1段200號","TEL":"03-3265800","COUNTYNAME":"桃園市","TOWNNAME":"桃園區","MARKTYPE":"996","Class":"6"},"geometry":{"x":121.30322501949287,"y":25.013897167062233}},{"attributes":{"OBJECTID":1656,"LANDMARKID":"1000300001469","LANDMARKCO":"511","LANDMARKNA":"桃園夜市","LANDMARKAD":"1000301","ADDRESS":"桃園縣桃園市中正路旁","TEL":" ","COUNTYNAME":"桃園市","TOWNNAME":"桃園區","MARKTYPE":"995","Class":"5"},"geometry":{"x":121.30665850135664,"y":25.002996724684298}},{"attributes":{"OBJECTID":1657,"LANDMARKID":"1000300001470","LANDMARKCO":"511","LANDMARKNA":"假日花市","LANDMARKAD":"1000301","ADDRESS":"桃園縣桃園市","TEL":" ","COUNTYNAME":"桃園市","TOWNNAME":"桃園區","MARKTYPE":"995","Class":"5"},"geometry":{"x":121.32561610333457,"y":24.996181965778433}},{"attributes":{"OBJECTID":1658,"LANDMARKID":"1000300001467","LANDMARKCO":"510","LANDMARKNA":"亞洲高爾夫練習場","LANDMARKAD":"1000301","ADDRESS":"桃園縣桃園市國際路2段501巷3號之7","TEL":"03-3411234","COUNTYNAME":"桃園市","TOWNNAME":"桃園區","MARKTYPE":"995","Class":"5"},"geometry":{"x":121.28562066179327,"y":25.003928741849762}},{"attributes":{"OBJECTID":1659,"LANDMARKID":"1000300001468","LANDMARKCO":"511","LANDMARKNA":"中正路商圈","LANDMARKAD":"1000301","ADDRESS":"桃園火車站前中正路延伸至中山路景福宮段","TEL":" ","COUNTYNAME":"桃園市","TOWNNAME":"桃園區","MARKTYPE":"995","Class":"5"},"geometry":{"x":121.31269420251118,"y":24.991746760263741}},{"attributes":{"OBJECTID":1660,"LANDMARKID":"1000300001058","LANDMARKCO":"405","LANDMARKNA":"中油加油站-天祥站(中油直營)","LANDMARKAD":"1000302","ADDRESS":"桃園縣中壢市五權里民族路三段226號","TEL":"03-2813170","COUNTYNAME":"桃園市","TOWNNAME":"中壢區","MARKTYPE":"994","Class":"4"},"geometry":{"x":121.19299144335483,"y":24.958352309490898}},{"attributes":{"OBJECTID":1661,"LANDMARKID":"1000300001059","LANDMARKCO":"405","LANDMARKNA":"中油加油站-源泰站","LANDMARKAD":"1000302","ADDRESS":"桃園縣中壢市環中東路485號","TEL":"03-4335750","COUNTYNAME":"桃園市","TOWNNAME":"中壢區","MARKTYPE":"994","Class":"4"},"geometry":{"x":121.25305530713615,"y":24.960265862548425}},{"attributes":{"OBJECTID":1662,"LANDMARKID":"1000300001060","LANDMARKCO":"405","LANDMARKNA":"中油加油站-龍田站","LANDMARKAD":"1000302","ADDRESS":"桃園縣中壢市新中北路779號","TEL":"03-4639368","COUNTYNAME":"桃園市","TOWNNAME":"中壢區","MARKTYPE":"994","Class":"4"},"geometry":{"x":121.25085535989494,"y":24.956940739489859}},{"attributes":{"OBJECTID":1663,"LANDMARKID":"1000300001061","LANDMARKCO":"405","LANDMARKNA":"山隆加油站-龍興站(中油)","LANDMARKAD":"1000302","ADDRESS":"桃園縣中壢市龍興路693號","TEL":"03-4375828","COUNTYNAME":"桃園市","TOWNNAME":"中壢區","MARKTYPE":"994","Class":"4"},"geometry":{"x":121.24519182191165,"y":24.945364812107556}},{"attributes":{"OBJECTID":1664,"LANDMARKID":"1000300001062","LANDMARKCO":"405","LANDMARKNA":"中油加油站-景福站","LANDMARKAD":"1000302","ADDRESS":"桃園縣中壢市環西路二段101號","TEL":"03-4913127","COUNTYNAME":"桃園市","TOWNNAME":"中壢區","MARKTYPE":"994","Class":"4"},"geometry":{"x":121.2091154889436,"y":24.963767963446699}},{"attributes":{"OBJECTID":1665,"LANDMARKID":"1000300001063","LANDMARKCO":"405","LANDMARKNA":"中油加油站-中壢工二站(中油直營)","LANDMARKAD":"1000302","ADDRESS":"桃園縣中壢市吉林路37巷15號","TEL":"03-4620443","COUNTYNAME":"桃園市","TOWNNAME":"中壢區","MARKTYPE":"994","Class":"4"},"geometry":{"x":121.24689837824613,"y":24.979971009525162}},{"attributes":{"OBJECTID":1666,"LANDMARKID":"1000300001064","LANDMARKCO":"405","LANDMARKNA":"中油加油站-萬能站","LANDMARKAD":"1000302","ADDRESS":"桃園縣中壢市中園路二段16號","TEL":"03-4532033","COUNTYNAME":"桃園市","TOWNNAME":"中壢區","MARKTYPE":"994","Class":"4"},"geometry":{"x":121.23509780623938,"y":24.990890281964845}},{"attributes":{"OBJECTID":1667,"LANDMARKID":"1000300001065","LANDMARKCO":"405","LANDMARKNA":"中油加油站-芭里站","LANDMARKAD":"1000302","ADDRESS":"桃園縣中壢市芝芭里民權路三段869號","TEL":"03-4272693","COUNTYNAME":"桃園市","TOWNNAME":"中壢區","MARKTYPE":"994","Class":"4"},"geometry":{"x":121.20728662018358,"y":24.9844574761809}},{"attributes":{"OBJECTID":1668,"LANDMARKID":"1000300001066","LANDMARKCO":"405","LANDMARKNA":"統一速邁樂加油站-中壢加油站(中油)","LANDMARKAD":"1000302","ADDRESS":"桃園縣中壢市五權里志廣路311號","TEL":" ","COUNTYNAME":"桃園市","TOWNNAME":"中壢區","MARKTYPE":"994","Class":"4"},"geometry":{"x":121.2041692308691,"y":24.964720725697919}},{"attributes":{"OBJECTID":1669,"LANDMARKID":"1000300001067","LANDMARKCO":"405","LANDMARKNA":"中油加油站-松柏站","LANDMARKAD":"1000302","ADDRESS":"桃園縣中壢市志廣路266號","TEL":"03-4278596","COUNTYNAME":"桃園市","TOWNNAME":"中壢區","MARKTYPE":"994","Class":"4"},"geometry":{"x":121.20448435193312,"y":24.964101725922472}},{"attributes":{"OBJECTID":1670,"LANDMARKID":"1000300001068","LANDMARKCO":"405","LANDMARKNA":"中油加油站-崙光站","LANDMARKAD":"1000302","ADDRESS":"桃園縣中壢市中正路4段15號","TEL":"34982363","COUNTYNAME":"桃園市","TOWNNAME":"中壢區","MARKTYPE":"994","Class":"4"},"geometry":{"x":121.18175909912914,"y":24.98787251315261}},{"attributes":{"OBJECTID":1671,"LANDMARKID":"1000300001069","LANDMARKCO":"405","LANDMARKNA":"中油加油站-過嶺站","LANDMARKAD":"1000302","ADDRESS":"桃園縣中壢市過嶺里民族路5段70號","TEL":"03-4906023","COUNTYNAME":"桃園市","TOWNNAME":"中壢區","MARKTYPE":"994","Class":"4"},"geometry":{"x":121.17536232868768,"y":24.9592716331213}},{"attributes":{"OBJECTID":1672,"LANDMARKID":"1000300001070","LANDMARKCO":"405","LANDMARKNA":"統一速邁樂加油站-中壢二站加油站(中油)","LANDMARKAD":"1000302","ADDRESS":"桃園縣中壢市環中東路二段95號1樓","TEL":" ","COUNTYNAME":"桃園市","TOWNNAME":"中壢區","MARKTYPE":"994","Class":"4"},"geometry":{"x":121.23806474940601,"y":24.949846592905178}},{"attributes":{"OBJECTID":1673,"LANDMARKID":"1000300001071","LANDMARKCO":"405","LANDMARKNA":"山隆加油站-中壢站(中油)","LANDMARKAD":"1000302","ADDRESS":"桃園縣中壢市工業區吉林路5號","TEL":"03-4617151","COUNTYNAME":"桃園市","TOWNNAME":"中壢區","MARKTYPE":"994","Class":"4"},"geometry":{"x":121.24860653946098,"y":24.98082373452386}},{"attributes":{"OBJECTID":1674,"LANDMARKID":"1000300001072","LANDMARKCO":"405","LANDMARKNA":"中油加油站-中壢工業區加油加氣站(刷卡自助)","LANDMARKAD":"1000302","ADDRESS":"桃園縣中壢市中華路二段230號","TEL":"03-4521948","COUNTYNAME":"桃園市","TOWNNAME":"中壢區","MARKTYPE":"994","Class":"4"},"geometry":{"x":121.23865096561889,"y":24.965427010462058}},{"attributes":{"OBJECTID":1675,"LANDMARKID":"1000300001073","LANDMARKCO":"405","LANDMARKNA":"中油加油站-祥益站","LANDMARKAD":"1000302","ADDRESS":"桃園縣中壢市普仁里普忠路230號","TEL":"03-4352728","COUNTYNAME":"桃園市","TOWNNAME":"中壢區","MARKTYPE":"994","Class":"4"},"geometry":{"x":121.24629373739067,"y":24.960363144917586}},{"attributes":{"OBJECTID":1676,"LANDMARKID":"1000300001074","LANDMARKCO":"405","LANDMARKNA":"中油加油站-惠暘站","LANDMARKAD":"1000302","ADDRESS":"桃園縣中壢市三民里中正路二段38號","TEL":"03-4272806","COUNTYNAME":"桃園市","TOWNNAME":"中壢區","MARKTYPE":"994","Class":"4"},"geometry":{"x":121.19331637706583,"y":24.980022394463877}},{"attributes":{"OBJECTID":1677,"LANDMARKID":"1000300001075","LANDMARKCO":"405","LANDMARKNA":"北基加油站-正中站(中油)","LANDMARKAD":"1000302","ADDRESS":"桃園縣中壢市中正路1015號","TEL":"(03)427-8886","COUNTYNAME":"桃園市","TOWNNAME":"中壢區","MARKTYPE":"994","Class":"4"},"geometry":{"x":121.20450626819861,"y":24.96519174551285}},{"attributes":{"OBJECTID":1678,"LANDMARKID":"1000300001076","LANDMARKCO":"405","LANDMARKNA":"中油加油站-龍岡站(刷卡自助)(中油直營)","LANDMARKAD":"1000302","ADDRESS":"桃園縣中壢市環中東路二段659號","TEL":"03-4592501","COUNTYNAME":"桃園市","TOWNNAME":"中壢區","MARKTYPE":"994","Class":"4"},"geometry":{"x":121.23013610318787,"y":24.944413435868732}},{"attributes":{"OBJECTID":1679,"LANDMARKID":"1000300001077","LANDMARKCO":"405","LANDMARKNA":"中油加油站-三富站","LANDMARKAD":"1000302","ADDRESS":"桃園縣中壢市普忠路357號","TEL":"03-4626188","COUNTYNAME":"桃園市","TOWNNAME":"中壢區","MARKTYPE":"994","Class":"4"},"geometry":{"x":121.24906277509952,"y":24.957928993001048}},{"attributes":{"OBJECTID":1680,"LANDMARKID":"1000300001078","LANDMARKCO":"405","LANDMARKNA":"中油加油站-青埔站(中油直營)","LANDMARKAD":"1000302","ADDRESS":"桃園縣中壢市新生路三段85號","TEL":"03-4534812","COUNTYNAME":"桃園市","TOWNNAME":"中壢區","MARKTYPE":"994","Class":"4"},"geometry":{"x":121.22171780442336,"y":24.989337689155164}},{"attributes":{"OBJECTID":1681,"LANDMARKID":"1000300001079","LANDMARKCO":"405","LANDMARKNA":"統一速邁樂加油站-中壢三站加油站(中油)","LANDMARKAD":"1000302","ADDRESS":"桃園縣中壢市新中北路二段5號","TEL":"03-4569675","COUNTYNAME":"桃園市","TOWNNAME":"中壢區","MARKTYPE":"994","Class":"4"},"geometry":{"x":121.2594021199551,"y":24.957044201420466}},{"attributes":{"OBJECTID":1682,"LANDMARKID":"1000300001080","LANDMARKCO":"405","LANDMARKNA":"山隆加油站-新生站(中油)","LANDMARKAD":"1000302","ADDRESS":"桃園縣中壢市新生路228號","TEL":"(03)427-5107","COUNTYNAME":"桃園市","TOWNNAME":"中壢區","MARKTYPE":"994","Class":"4"},"geometry":{"x":121.22311614196077,"y":24.962399109515641}},{"attributes":{"OBJECTID":1683,"LANDMARKID":"1000300001081","LANDMARKCO":"405","LANDMARKNA":"中油加油站-內壢站","LANDMARKAD":"1000302","ADDRESS":"桃園縣中壢市環中東路346號","TEL":"03-4352496","COUNTYNAME":"桃園市","TOWNNAME":"中壢區","MARKTYPE":"994","Class":"4"},"geometry":{"x":121.25439754690574,"y":24.961869311660372}},{"attributes":{"OBJECTID":1684,"LANDMARKID":"1000300001082","LANDMARKCO":"405","LANDMARKNA":"中油加油站-環中站(中油直營)","LANDMARKAD":"1000302","ADDRESS":"桃園縣中壢市環中東路675號","TEL":"03-4356060","COUNTYNAME":"桃園市","TOWNNAME":"中壢區","MARKTYPE":"994","Class":"4"},"geometry":{"x":121.24607940617402,"y":24.954994367632253}},{"attributes":{"OBJECTID":1685,"LANDMARKID":"1000300001083","LANDMARKCO":"405","LANDMARKNA":"中油加油站-中壢站(中油直營)","LANDMARKAD":"1000302","ADDRESS":"桃園縣中壢市延平路33號","TEL":"03-4522044","COUNTYNAME":"桃園市","TOWNNAME":"中壢區","MARKTYPE":"994","Class":"4"},"geometry":{"x":121.23247793855035,"y":24.963208070702017}},{"attributes":{"OBJECTID":1686,"LANDMARKID":"1000300001084","LANDMARKCO":"405","LANDMARKNA":"山隆加油站-南園站(中油)","LANDMARKAD":"1000302","ADDRESS":"桃園縣中壢市南園二路139號","TEL":"03-4554340","COUNTYNAME":"桃園市","TOWNNAME":"中壢區","MARKTYPE":"994","Class":"4"},"geometry":{"x":121.22887354277627,"y":24.97135935942994}},{"attributes":{"OBJECTID":1687,"LANDMARKID":"1000300000794","LANDMARKCO":"402","LANDMARKNA":"My Phone台灣大哥大-中壢環北直營服務中心","LANDMARKAD":"1000302","ADDRESS":"桃園縣中壢市環北路542號","TEL":"0809-000-166","COUNTYNAME":"桃園市","TOWNNAME":"中壢區","MARKTYPE":"994","Class":"4"},"geometry":{"x":121.22804434143511,"y":24.965159631541557}},{"attributes":{"OBJECTID":1688,"LANDMARKID":"1000300000795","LANDMARKCO":"402","LANDMARKNA":"My Phone台灣大哥大-中壢新生直營服務中心","LANDMARKAD":"1000302","ADDRESS":"桃園縣中壢市新生路132號","TEL":" ","COUNTYNAME":"桃園市","TOWNNAME":"中壢區","MARKTYPE":"994","Class":"4"},"geometry":{"x":121.22303007874895,"y":24.960041832200744}},{"attributes":{"OBJECTID":1689,"LANDMARKID":"1000300000796","LANDMARKCO":"402","LANDMARKNA":"亞太行動寬頻電信-中壢延平加盟服務中心","LANDMARKAD":"1000302","ADDRESS":"桃園縣中壢市延平路596號","TEL":"03-4228355","COUNTYNAME":"桃園市","TOWNNAME":"中壢區","MARKTYPE":"994","Class":"4"},"geometry":{"x":121.22220189667578,"y":24.954391952133594}},{"attributes":{"OBJECTID":1690,"LANDMARKID":"1000300000797","LANDMARKCO":"402","LANDMARKNA":"亞太行動寬頻電信-桃園縣","LANDMARKAD":"1000302","ADDRESS":"桃園縣中壢市中山路104號","TEL":" ","COUNTYNAME":"桃園市","TOWNNAME":"中壢區","MARKTYPE":"994","Class":"4"},"geometry":{"x":121.22594079914268,"y":24.955407616122905}},{"attributes":{"OBJECTID":1691,"LANDMARKID":"1000300000798","LANDMARKCO":"402","LANDMARKNA":"亞太行動寬頻電信-中壢中山東加盟服務中心","LANDMARKAD":"1000302","ADDRESS":"桃園縣中壢市中山東路二段119號","TEL":"03-4378098","COUNTYNAME":"桃園市","TOWNNAME":"中壢區","MARKTYPE":"994","Class":"4"},"geometry":{"x":121.23908304656887,"y":24.9533197279106}},{"attributes":{"OBJECTID":1692,"LANDMARKID":"1000300000799","LANDMARKCO":"402","LANDMARKNA":"亞太行動寬頻電信-中壢中正加盟服務中心","LANDMARKAD":"1000302","ADDRESS":"桃園縣中壢市中正路323號","TEL":"03-4941366","COUNTYNAME":"桃園市","TOWNNAME":"中壢區","MARKTYPE":"994","Class":"4"},"geometry":{"x":121.21749657213523,"y":24.9558808308451}},{"attributes":{"OBJECTID":1693,"LANDMARKID":"1000300000800","LANDMARKCO":"402","LANDMARKNA":"亞太行動寬頻電信-內壢中華加盟服務中心","LANDMARKAD":"1000302","ADDRESS":"桃園縣中壢市中華路一段277號","TEL":"03-4638889","COUNTYNAME":"桃園市","TOWNNAME":"中壢區","MARKTYPE":"994","Class":"4"},"geometry":{"x":121.25666167901775,"y":24.972182137564882}},{"attributes":{"OBJECTID":1694,"LANDMARKID":"1000300000801","LANDMARKCO":"402","LANDMARKNA":"亞太行動寬頻電信-中壢健行加盟服務中心","LANDMARKAD":"1000302","ADDRESS":"桃園縣中壢市健行路129號","TEL":"03-4685655","COUNTYNAME":"桃園市","TOWNNAME":"中壢區","MARKTYPE":"994","Class":"4"},"geometry":{"x":121.22736119133401,"y":24.949505455218212}},{"attributes":{"OBJECTID":1695,"LANDMARKID":"1000300000802","LANDMARKCO":"402","LANDMARKNA":"亞太行動寬頻電信-中壢永興加盟服務中心","LANDMARKAD":"1000302","ADDRESS":"桃園縣中壢市永興街7號","TEL":"03-4221112","COUNTYNAME":"桃園市","TOWNNAME":"中壢區","MARKTYPE":"994","Class":"4"},"geometry":{"x":121.22016542797061,"y":24.956920975910371}},{"attributes":{"OBJECTID":1696,"LANDMARKID":"1000300000803","LANDMARKCO":"402","LANDMARKNA":"亞太行動寬頻電信-中壢新生加盟服務中心","LANDMARKAD":"1000302","ADDRESS":"桃園縣中壢市新生路217號","TEL":"03-4263588","COUNTYNAME":"桃園市","TOWNNAME":"中壢區","MARKTYPE":"994","Class":"4"},"geometry":{"x":121.22287708338314,"y":24.96226806114375}},{"attributes":{"OBJECTID":1697,"LANDMARKID":"1000300000786","LANDMARKCO":"401","LANDMARKNA":"同慶堂中醫醫院","LANDMARKAD":"1000302","ADDRESS":"桃園縣中壢市中正路357號","TEL":"03-4933888","COUNTYNAME":"桃園市","TOWNNAME":"中壢區","MARKTYPE":"994","Class":"4"},"geometry":{"x":121.21652435195651,"y":24.95538496958433}},{"attributes":{"OBJECTID":1698,"LANDMARKID":"1000300000787","LANDMARKCO":"401","LANDMARKNA":"承安醫院","LANDMARKAD":"1000302","ADDRESS":"桃園縣中壢市延平路643號","TEL":"03-2807722","COUNTYNAME":"桃園市","TOWNNAME":"中壢區","MARKTYPE":"994","Class":"4"},"geometry":{"x":121.22192779830658,"y":24.953323843904688}},{"attributes":{"OBJECTID":1699,"LANDMARKID":"1000300000788","LANDMARKCO":"401","LANDMARKNA":"宏其婦幼醫院","LANDMARKAD":"1000302","ADDRESS":"桃園縣中壢市元化路223號","TEL":"03-4618888","COUNTYNAME":"桃園市","TOWNNAME":"中壢區","MARKTYPE":"994","Class":"4"},"geometry":{"x":121.22689159207457,"y":24.961206374427661}},{"attributes":{"OBJECTID":1700,"LANDMARKID":"1000300000789","LANDMARKCO":"401","LANDMARKNA":"財團法人景仁醫院","LANDMARKAD":"1000302","ADDRESS":"桃園縣中壢市中美路95號","TEL":"03-4253388","COUNTYNAME":"桃園市","TOWNNAME":"中壢區","MARKTYPE":"994","Class":"4"},"geometry":{"x":121.22527484189212,"y":24.958758321584668}},{"attributes":{"OBJECTID":1701,"LANDMARKID":"1000300000790","LANDMARKCO":"401","LANDMARKNA":"祐民醫院","LANDMARKAD":"1000302","ADDRESS":"桃園縣中壢市民族路二段180號","TEL":"03-4915656","COUNTYNAME":"桃園市","TOWNNAME":"中壢區","MARKTYPE":"994","Class":"4"},"geometry":{"x":121.20389513507136,"y":24.957357156667829}},{"attributes":{"OBJECTID":1702,"LANDMARKID":"1000300000791","LANDMARKCO":"401","LANDMARKNA":"天晟醫院","LANDMARKAD":"1000302","ADDRESS":"桃園縣中壢市延平路155號","TEL":"03-4629292","COUNTYNAME":"桃園市","TOWNNAME":"中壢區","MARKTYPE":"994","Class":"4"},"geometry":{"x":121.22824569019487,"y":24.962197969179147}},{"attributes":{"OBJECTID":1703,"LANDMARKID":"1000300000792","LANDMARKCO":"401","LANDMARKNA":"永康醫院","LANDMARKAD":"1000302","ADDRESS":"桃園縣中壢市裕民街13號","TEL":"03-4223641","COUNTYNAME":"桃園市","TOWNNAME":"中壢區","MARKTYPE":"994","Class":"4"},"geometry":{"x":121.22481265163691,"y":24.957685829848199}},{"attributes":{"OBJECTID":1704,"LANDMARKID":"1000300000793","LANDMARKCO":"401","LANDMARKNA":"新國民綜合醫院","LANDMARKAD":"1000302","ADDRESS":"桃園縣中壢市復興路152號","TEL":"03- 4225180","COUNTYNAME":"桃園市","TOWNNAME":"中壢區","MARKTYPE":"994","Class":"4"},"geometry":{"x":121.22358648902552,"y":24.954078162429457}},{"attributes":{"OBJECTID":1705,"LANDMARKID":"1000300001324","LANDMARKCO":"408","LANDMARKNA":"郵局-中壢建國路郵局","LANDMARKAD":"1000302","ADDRESS":"桃園縣中壢市建國路36號","TEL":"(03)4220-552","COUNTYNAME":"桃園市","TOWNNAME":"中壢區","MARKTYPE":"994","Class":"4"},"geometry":{"x":121.22515858485879,"y":24.955298839238662}},{"attributes":{"OBJECTID":1706,"LANDMARKID":"1000300001325","LANDMARKCO":"408","LANDMARKNA":"郵局-中壢普仁郵局","LANDMARKAD":"1000302","ADDRESS":"桃園縣中壢市中山東路2段24號","TEL":"(03)4561-574","COUNTYNAME":"桃園市","TOWNNAME":"中壢區","MARKTYPE":"994","Class":"4"},"geometry":{"x":121.23721571547841,"y":24.954195324063143}},{"attributes":{"OBJECTID":1707,"LANDMARKID":"1000300001326","LANDMARKCO":"408","LANDMARKNA":"郵局-中壢內壢郵局","LANDMARKAD":"1000302","ADDRESS":"桃園縣中壢市忠勤街25號","TEL":"(03)4553-541","COUNTYNAME":"桃園市","TOWNNAME":"中壢區","MARKTYPE":"994","Class":"4"},"geometry":{"x":121.25566129025455,"y":24.974297897292338}},{"attributes":{"OBJECTID":1708,"LANDMARKID":"1000300001327","LANDMARKCO":"408","LANDMARKNA":"郵局-中壢龍岡郵局","LANDMARKAD":"1000302","ADDRESS":"桃園縣中壢市龍岡路3段756號","TEL":"(03)4503-861","COUNTYNAME":"桃園市","TOWNNAME":"中壢區","MARKTYPE":"994","Class":"4"},"geometry":{"x":121.24354373450231,"y":24.92588302460414}},{"attributes":{"OBJECTID":1709,"LANDMARKID":"1000300001328","LANDMARKCO":"408","LANDMARKNA":"郵局-中央大學郵局","LANDMARKAD":"1000302","ADDRESS":"桃園縣中壢市國立中央大學內","TEL":"(03)4902-528","COUNTYNAME":"桃園市","TOWNNAME":"中壢區","MARKTYPE":"994","Class":"4"},"geometry":{"x":121.19524747188406,"y":24.968233027595417}},{"attributes":{"OBJECTID":1710,"LANDMARKID":"1000300001329","LANDMARKCO":"408","LANDMARKNA":"郵局-中壢忠義郵局","LANDMARKAD":"1000302","ADDRESS":"桃園縣中壢市中華路1段905、907號","TEL":"(03)4522-933","COUNTYNAME":"桃園市","TOWNNAME":"中壢區","MARKTYPE":"994","Class":"4"},"geometry":{"x":121.24441229290225,"y":24.96681459768833}},{"attributes":{"OBJECTID":1711,"LANDMARKID":"1000300001330","LANDMARKCO":"408","LANDMARKNA":"郵局-中原大學郵局","LANDMARKAD":"1000302","ADDRESS":"桃園縣中壢市私立中原大學內","TEL":"(03)2657-005","COUNTYNAME":"桃園市","TOWNNAME":"中壢區","MARKTYPE":"994","Class":"4"},"geometry":{"x":121.24061717524928,"y":24.958218296621048}},{"attributes":{"OBJECTID":1712,"LANDMARKID":"1000300001331","LANDMARKCO":"408","LANDMARKNA":"郵局-中壢興國郵局","LANDMARKAD":"1000302","ADDRESS":"桃園縣中壢市元化路2段126號","TEL":"(03)4226-254","COUNTYNAME":"桃園市","TOWNNAME":"中壢區","MARKTYPE":"994","Class":"4"},"geometry":{"x":121.21873287621204,"y":24.962738058610906}},{"attributes":{"OBJECTID":1713,"LANDMARKID":"1000300001332","LANDMARKCO":"408","LANDMARKNA":"郵局-中壢華勛郵局","LANDMARKAD":"1000302","ADDRESS":"桃園縣中壢市幸福新村1號","TEL":"(03)4654-385","COUNTYNAME":"桃園市","TOWNNAME":"中壢區","MARKTYPE":"994","Class":"4"},"geometry":{"x":121.26445916764115,"y":24.955197067638057}},{"attributes":{"OBJECTID":1714,"LANDMARKID":"1000300001333","LANDMARKCO":"408","LANDMARKNA":"郵局-中壢東興郵局","LANDMARKAD":"1000302","ADDRESS":"桃園縣中壢市龍岡路1段229號","TEL":"(03)4583-018","COUNTYNAME":"桃園市","TOWNNAME":"中壢區","MARKTYPE":"994","Class":"4"},"geometry":{"x":121.22603113185582,"y":24.947842517615204}},{"attributes":{"OBJECTID":1715,"LANDMARKID":"1000300001334","LANDMARKCO":"408","LANDMARKNA":"郵局-中壢仁美郵局","LANDMARKAD":"1000302","ADDRESS":"桃園縣中壢市龍文街29號","TEL":"(03)4657-400","COUNTYNAME":"桃園市","TOWNNAME":"中壢區","MARKTYPE":"994","Class":"4"},"geometry":{"x":121.25495632744156,"y":24.936756367590878}},{"attributes":{"OBJECTID":1716,"LANDMARKID":"1000300001335","LANDMARKCO":"408","LANDMARKNA":"郵局-中壢南園郵局","LANDMARKAD":"1000302","ADDRESS":"桃園縣中壢市南園二路4號","TEL":"(03)4527-682","COUNTYNAME":"桃園市","TOWNNAME":"中壢區","MARKTYPE":"994","Class":"4"},"geometry":{"x":121.23841158890079,"y":24.971825413375782}},{"attributes":{"OBJECTID":1717,"LANDMARKID":"1000300001336","LANDMARKCO":"408","LANDMARKNA":"郵局-中壢頂壢郵局","LANDMARKAD":"1000302","ADDRESS":"桃園縣中壢市榮民路53、55號","TEL":"(03)4557-254","COUNTYNAME":"桃園市","TOWNNAME":"中壢區","MARKTYPE":"994","Class":"4"},"geometry":{"x":121.26087654046763,"y":24.96929464490302}},{"attributes":{"OBJECTID":1718,"LANDMARKID":"1000300001337","LANDMARKCO":"408","LANDMARKNA":"郵局-中壢志廣郵局","LANDMARKAD":"1000302","ADDRESS":"桃園縣中壢市中央西路2段271、273號","TEL":"(03)4920-875","COUNTYNAME":"桃園市","TOWNNAME":"中壢區","MARKTYPE":"994","Class":"4"},"geometry":{"x":121.211313651998,"y":24.961492791743733}},{"attributes":{"OBJECTID":1719,"LANDMARKID":"1000300001338","LANDMARKCO":"408","LANDMARKNA":"郵局-中壢環北郵局","LANDMARKAD":"1000302","ADDRESS":"桃園縣中壢市環北路413號","TEL":"(03)4628-063","COUNTYNAME":"桃園市","TOWNNAME":"中壢區","MARKTYPE":"994","Class":"4"},"geometry":{"x":121.2260816789986,"y":24.965902441127351}},{"attributes":{"OBJECTID":1720,"LANDMARKID":"1000300001339","LANDMARKCO":"408","LANDMARKNA":"郵局-中壢大崙郵局","LANDMARKAD":"1000302","ADDRESS":"桃園縣中壢市中正路4段85、87號","TEL":"(03)2820-230","COUNTYNAME":"桃園市","TOWNNAME":"中壢區","MARKTYPE":"994","Class":"4"},"geometry":{"x":121.18035942791342,"y":24.988460972420036}},{"attributes":{"OBJECTID":1721,"LANDMARKID":"1000300001340","LANDMARKCO":"408","LANDMARKNA":"郵局-中壢自立郵局","LANDMARKAD":"1000302","ADDRESS":"桃園縣中壢市莊敬路856號1樓","TEL":"(03)4630-701","COUNTYNAME":"桃園市","TOWNNAME":"中壢區","MARKTYPE":"994","Class":"4"},"geometry":{"x":121.25423211710172,"y":24.963945602845897}},{"attributes":{"OBJECTID":1722,"LANDMARKID":"1000300001341","LANDMARKCO":"408","LANDMARKNA":"郵局-中壢龍東路郵局","LANDMARKAD":"1000302","ADDRESS":"桃園縣中壢市中山東路四段113號","TEL":"(03)4656-847","COUNTYNAME":"桃園市","TOWNNAME":"中壢區","MARKTYPE":"994","Class":"4"},"geometry":{"x":121.25727501804808,"y":24.935750120413243}},{"attributes":{"OBJECTID":1723,"LANDMARKID":"1000300001388","LANDMARKCO":"409","LANDMARKNA":"中壢魚市場","LANDMARKAD":"1000302","ADDRESS":"中壢市延平路123號","TEL":"03-4512644","COUNTYNAME":"桃園市","TOWNNAME":"中壢區","MARKTYPE":"994","Class":"4"},"geometry":{"x":121.22980047506402,"y":24.962982971323566}},{"attributes":{"OBJECTID":1724,"LANDMARKID":"1000300001237","LANDMARKCO":"406","LANDMARKNA":"內厝公園","LANDMARKAD":"1000302","ADDRESS":"桃園縣中壢市","TEL":" ","COUNTYNAME":"桃園市","TOWNNAME":"中壢區","MARKTYPE":"994","Class":"4"},"geometry":{"x":121.17970811178562,"y":24.99034773022246}},{"attributes":{"OBJECTID":1725,"LANDMARKID":"1000300001238","LANDMARKCO":"406","LANDMARKNA":"中正公園","LANDMARKAD":"1000302","ADDRESS":"桃園縣中壢市","TEL":" ","COUNTYNAME":"桃園市","TOWNNAME":"中壢區","MARKTYPE":"994","Class":"4"},"geometry":{"x":121.22633085747142,"y":24.95948463972513}},{"attributes":{"OBJECTID":1726,"LANDMARKID":"1000300001239","LANDMARKCO":"406","LANDMARKNA":"忠福公園","LANDMARKAD":"1000302","ADDRESS":"桃園縣中壢市","TEL":" ","COUNTYNAME":"桃園市","TOWNNAME":"中壢區","MARKTYPE":"994","Class":"4"},"geometry":{"x":121.23302533000839,"y":24.972120150138277}},{"attributes":{"OBJECTID":1727,"LANDMARKID":"1000300001240","LANDMARKCO":"406","LANDMARKNA":"新興公園","LANDMARKAD":"1000302","ADDRESS":"桃園縣中壢市","TEL":" ","COUNTYNAME":"桃園市","TOWNNAME":"中壢區","MARKTYPE":"994","Class":"4"},"geometry":{"x":121.22548153353821,"y":24.945315277707504}},{"attributes":{"OBJECTID":1728,"LANDMARKID":"1000300001241","LANDMARKCO":"406","LANDMARKNA":"復興公園","LANDMARKAD":"1000302","ADDRESS":"桃園縣中壢市","TEL":" ","COUNTYNAME":"桃園市","TOWNNAME":"中壢區","MARKTYPE":"994","Class":"4"},"geometry":{"x":121.24848655073012,"y":24.973673674303217}},{"attributes":{"OBJECTID":1729,"LANDMARKID":"1000300001242","LANDMARKCO":"406","LANDMARKNA":"自強公園","LANDMARKAD":"1000302","ADDRESS":"桃園縣中壢市","TEL":" ","COUNTYNAME":"桃園市","TOWNNAME":"中壢區","MARKTYPE":"994","Class":"4"},"geometry":{"x":121.25943165333926,"y":24.968112346038662}},{"attributes":{"OBJECTID":1730,"LANDMARKID":"1000300001243","LANDMARKCO":"406","LANDMARKNA":"成功公園","LANDMARKAD":"1000302","ADDRESS":"桃園縣中壢市","TEL":" ","COUNTYNAME":"桃園市","TOWNNAME":"中壢區","MARKTYPE":"994","Class":"4"},"geometry":{"x":121.25786829255236,"y":24.977556390433875}},{"attributes":{"OBJECTID":1731,"LANDMARKID":"1000300001244","LANDMARKCO":"406","LANDMARKNA":"中山公園","LANDMARKAD":"1000302","ADDRESS":"桃園縣中壢市","TEL":" ","COUNTYNAME":"桃園市","TOWNNAME":"中壢區","MARKTYPE":"994","Class":"4"},"geometry":{"x":121.25140211802798,"y":24.985446100250552}},{"attributes":{"OBJECTID":1732,"LANDMARKID":"1000300001245","LANDMARKCO":"406","LANDMARKNA":"五權兒童公園","LANDMARKAD":"1000302","ADDRESS":"桃園縣中壢市","TEL":" ","COUNTYNAME":"桃園市","TOWNNAME":"中壢區","MARKTYPE":"994","Class":"4"},"geometry":{"x":121.20439964440705,"y":24.959289251576831}},{"attributes":{"OBJECTID":1733,"LANDMARKID":"1000300001246","LANDMARKCO":"406","LANDMARKNA":"大和兒童公園","LANDMARKAD":"1000302","ADDRESS":"桃園縣中壢市","TEL":" ","COUNTYNAME":"桃園市","TOWNNAME":"中壢區","MARKTYPE":"994","Class":"4"},"geometry":{"x":121.22464904079814,"y":24.963322957387497}},{"attributes":{"OBJECTID":1734,"LANDMARKID":"1000300001247","LANDMARKCO":"406","LANDMARKNA":"中堅里社區公園","LANDMARKAD":"1000302","ADDRESS":"桃園縣中壢市","TEL":" ","COUNTYNAME":"桃園市","TOWNNAME":"中壢區","MARKTYPE":"994","Class":"4"},"geometry":{"x":121.25882723399724,"y":24.938558120756714}},{"attributes":{"OBJECTID":1735,"LANDMARKID":"1000300001248","LANDMARKCO":"406","LANDMARKNA":"龍岡公園","LANDMARKAD":"1000302","ADDRESS":"桃園縣中壢市","TEL":" ","COUNTYNAME":"桃園市","TOWNNAME":"中壢區","MARKTYPE":"994","Class":"4"},"geometry":{"x":121.24401762316027,"y":24.927083437491163}},{"attributes":{"OBJECTID":1736,"LANDMARKID":"1000300001273","LANDMARKCO":"407","LANDMARKNA":"小北百貨","LANDMARKAD":"1000302","ADDRESS":"桃園縣中壢市中豐路225號","TEL":"(03)4268331???","COUNTYNAME":"桃園市","TOWNNAME":"中壢區","MARKTYPE":"994","Class":"4"},"geometry":{"x":121.21973180209554,"y":24.95991165470269}},{"attributes":{"OBJECTID":1737,"LANDMARKID":"1000300001274","LANDMARKCO":"407","LANDMARKNA":"誠品Eslite","LANDMARKAD":"1000302","ADDRESS":"桃園縣中壢市元化路357號9F","TEL":"03-427-9817","COUNTYNAME":"桃園市","TOWNNAME":"中壢區","MARKTYPE":"994","Class":"4"},"geometry":{"x":121.22366374125093,"y":24.96262792054651}},{"attributes":{"OBJECTID":1738,"LANDMARKID":"1000300001275","LANDMARKCO":"407","LANDMARKNA":"誠品Eslite","LANDMARKAD":"1000302","ADDRESS":"桃園縣中壢市中園路二段501號4F","TEL":"03-468-0222","COUNTYNAME":"桃園市","TOWNNAME":"中壢區","MARKTYPE":"994","Class":"4"},"geometry":{"x":121.22921037239226,"y":25.00073987854951}},{"attributes":{"OBJECTID":1739,"LANDMARKID":"1000300001276","LANDMARKCO":"407","LANDMARKNA":"大江國際購物中心","LANDMARKAD":"1000302","ADDRESS":"桃園縣中壢市中園路二段501號","TEL":"03-4680168","COUNTYNAME":"桃園市","TOWNNAME":"中壢區","MARKTYPE":"994","Class":"4"},"geometry":{"x":121.22936031630366,"y":25.0014540171214}},{"attributes":{"OBJECTID":1740,"LANDMARKID":"1000300001277","LANDMARKCO":"407","LANDMARKNA":"太平洋SOGO百貨-中壢元化館","LANDMARKAD":"1000302","ADDRESS":"桃園縣中壢市元化路357號","TEL":"(03)422-7000","COUNTYNAME":"桃園市","TOWNNAME":"中壢區","MARKTYPE":"994","Class":"4"},"geometry":{"x":121.22458815773649,"y":24.963229145011837}},{"attributes":{"OBJECTID":1741,"LANDMARKID":"1000300001278","LANDMARKCO":"407","LANDMARKNA":"太平洋SOGO百貨-中壢中央新館","LANDMARKAD":"1000302","ADDRESS":"桃園縣中壢市中央西路一段120號","TEL":"(03)422-7000","COUNTYNAME":"桃園市","TOWNNAME":"中壢區","MARKTYPE":"994","Class":"4"},"geometry":{"x":121.22021692506586,"y":24.958193887558487}},{"attributes":{"OBJECTID":1742,"LANDMARKID":"1000300001049","LANDMARKCO":"405","LANDMARKNA":"全國加油站-龍岡站（台塑）","LANDMARKAD":"1000302","ADDRESS":"桃園縣中壢市龍岡路三段51號","TEL":"03-4575193","COUNTYNAME":"桃園市","TOWNNAME":"中壢區","MARKTYPE":"994","Class":"4"},"geometry":{"x":121.2319524311539,"y":24.93807136943726}},{"attributes":{"OBJECTID":1743,"LANDMARKID":"1000300001050","LANDMARKCO":"405","LANDMARKNA":"台亞加油站-中原大學站（台塑）","LANDMARKAD":"1000302","ADDRESS":"桃園縣中壢市新中北路662號","TEL":"(03)463-9380","COUNTYNAME":"桃園市","TOWNNAME":"中壢區","MARKTYPE":"994","Class":"4"},"geometry":{"x":121.24914672297282,"y":24.956813650971078}},{"attributes":{"OBJECTID":1744,"LANDMARKID":"1000300001051","LANDMARKCO":"405","LANDMARKNA":"台塑加油站-宏大站(台塑)","LANDMARKAD":"1000302","ADDRESS":"桃園縣中壢市中園路192-1號","TEL":"03-4520020","COUNTYNAME":"桃園市","TOWNNAME":"中壢區","MARKTYPE":"994","Class":"4"},"geometry":{"x":121.23792917069662,"y":24.984582756686763}},{"attributes":{"OBJECTID":1745,"LANDMARKID":"1000300001052","LANDMARKCO":"405","LANDMARKNA":"福懋加油站-中壢站(台塑)","LANDMARKAD":"1000302","ADDRESS":"桃園縣中壢市中正路二段139號","TEL":"03-4259420","COUNTYNAME":"桃園市","TOWNNAME":"中壢區","MARKTYPE":"994","Class":"4"},"geometry":{"x":121.19629974355922,"y":24.975468662805412}},{"attributes":{"OBJECTID":1746,"LANDMARKID":"1000300001053","LANDMARKCO":"405","LANDMARKNA":"台塑加油站-寶馬站(台塑)","LANDMARKAD":"1000302","ADDRESS":"桃園縣中壢市中華路一段814號","TEL":"03-4617618","COUNTYNAME":"桃園市","TOWNNAME":"中壢區","MARKTYPE":"994","Class":"4"},"geometry":{"x":121.24592563153907,"y":24.967990659340991}},{"attributes":{"OBJECTID":1747,"LANDMARKID":"1000300001054","LANDMARKCO":"405","LANDMARKNA":"台塑加油站-樺勛站(台塑)","LANDMARKAD":"1000302","ADDRESS":"桃園縣中壢市榮民南路500號","TEL":"03-4667048","COUNTYNAME":"桃園市","TOWNNAME":"中壢區","MARKTYPE":"994","Class":"4"},"geometry":{"x":121.256600498822,"y":24.946133302521787}},{"attributes":{"OBJECTID":1748,"LANDMARKID":"1000300001055","LANDMARKCO":"405","LANDMARKNA":"台亞加油站-大崙站（台塑）","LANDMARKAD":"1000302","ADDRESS":"桃園縣中壢市中正路四段765號","TEL":"(03)408-0808","COUNTYNAME":"桃園市","TOWNNAME":"中壢區","MARKTYPE":"994","Class":"4"},"geometry":{"x":121.16855900820188,"y":24.993138967174922}},{"attributes":{"OBJECTID":1749,"LANDMARKID":"1000300001056","LANDMARKCO":"405","LANDMARKNA":"台亞加油站-內壢交流道站（台塑）","LANDMARKAD":"1000302","ADDRESS":"桃園縣中壢市中園路二段309號","TEL":"(03)461-7699","COUNTYNAME":"桃園市","TOWNNAME":"中壢區","MARKTYPE":"994","Class":"4"},"geometry":{"x":121.23237044032501,"y":24.995210274672534}},{"attributes":{"OBJECTID":1750,"LANDMARKID":"1000300001057","LANDMARKCO":"405","LANDMARKNA":"全國加油站-桃園高鐵站(台塑)","LANDMARKAD":"1000302","ADDRESS":"桃園縣中壢市領航南路三段478號","TEL":"03-4532673","COUNTYNAME":"桃園市","TOWNNAME":"中壢區","MARKTYPE":"994","Class":"4"},"geometry":{"x":121.22189609635466,"y":25.013942440230792}},{"attributes":{"OBJECTID":1751,"LANDMARKID":"1000300000246","LANDMARKCO":"108","LANDMARKNA":"桃園縣中壢巿公所","LANDMARKAD":"1000302","ADDRESS":"桃園縣中壢市環北路380號","TEL":"03-4271801","COUNTYNAME":"桃園市","TOWNNAME":"中壢區","MARKTYPE":"991","Class":"1"},"geometry":{"x":121.22525193487911,"y":24.965543404829088}},{"attributes":{"OBJECTID":1752,"LANDMARKID":"1000300000058","LANDMARKCO":"103","LANDMARKNA":"桃園縣中壢市市民代表會","LANDMARKAD":"1000302","ADDRESS":"桃園縣中壢市環北路390號","TEL":"03-4252126","COUNTYNAME":"桃園市","TOWNNAME":"中壢區","MARKTYPE":"991","Class":"1"},"geometry":{"x":121.22565833333273,"y":24.96563245850281}},{"attributes":{"OBJECTID":1753,"LANDMARKID":"1000300000018","LANDMARKCO":"101","LANDMARKNA":"中壢憲兵分隊","LANDMARKAD":"1000302","ADDRESS":"桃園縣中壢市中央東路28號","TEL":"03-4228673","COUNTYNAME":"桃園市","TOWNNAME":"中壢區","MARKTYPE":"991","Class":"1"},"geometry":{"x":121.22418611337558,"y":24.956965484397941}},{"attributes":{"OBJECTID":1754,"LANDMARKID":"1000300000179","LANDMARKCO":"107","LANDMARKNA":"桃園縣消防局第二消防大隊部","LANDMARKAD":"1000302","ADDRESS":"桃園縣中壢市義民路120號2樓","TEL":"03-4013421","COUNTYNAME":"桃園市","TOWNNAME":"中壢區","MARKTYPE":"991","Class":"1"},"geometry":{"x":121.21564128780423,"y":24.953276871338016}},{"attributes":{"OBJECTID":1755,"LANDMARKID":"1000300000180","LANDMARKCO":"107","LANDMARKNA":"桃園縣消防局中壢消防分隊","LANDMARKAD":"1000302","ADDRESS":"桃園縣中壢市義民路120號","TEL":"03-4013312","COUNTYNAME":"桃園市","TOWNNAME":"中壢區","MARKTYPE":"991","Class":"1"},"geometry":{"x":121.21564128780423,"y":24.953276871338016}},{"attributes":{"OBJECTID":1756,"LANDMARKID":"1000300000181","LANDMARKCO":"107","LANDMARKNA":"桃園縣消防局興國消防分隊","LANDMARKAD":"1000302","ADDRESS":"桃園縣中壢市中豐路88號","TEL":"03-4258146","COUNTYNAME":"桃園市","TOWNNAME":"中壢區","MARKTYPE":"991","Class":"1"},"geometry":{"x":121.21973861962681,"y":24.962301369258764}},{"attributes":{"OBJECTID":1757,"LANDMARKID":"1000300000182","LANDMARKCO":"107","LANDMARKNA":"桃園縣消防局內壢消防分隊","LANDMARKAD":"1000302","ADDRESS":"桃園縣中壢市吉林路62號","TEL":"03-4521694","COUNTYNAME":"桃園市","TOWNNAME":"中壢區","MARKTYPE":"991","Class":"1"},"geometry":{"x":121.24539340103331,"y":24.979052939256665}},{"attributes":{"OBJECTID":1758,"LANDMARKID":"1000300000183","LANDMARKCO":"107","LANDMARKNA":"桃園縣消防局龍岡消防分隊","LANDMARKAD":"1000302","ADDRESS":"桃園縣中壢市龍岡路三段754號","TEL":"03-4601418","COUNTYNAME":"桃園市","TOWNNAME":"中壢區","MARKTYPE":"991","Class":"1"},"geometry":{"x":121.2436040835814,"y":24.925877082814718}},{"attributes":{"OBJECTID":1759,"LANDMARKID":"1000300000184","LANDMARKCO":"107","LANDMARKNA":"桃園縣政府警察局中壢分局","LANDMARKAD":"1000302","ADDRESS":"桃園縣中壢市石頭里延平路607號","TEL":"03-4221460","COUNTYNAME":"桃園市","TOWNNAME":"中壢區","MARKTYPE":"991","Class":"1"},"geometry":{"x":121.22276647531669,"y":24.954622363082191}},{"attributes":{"OBJECTID":1760,"LANDMARKID":"1000300000185","LANDMARKCO":"107","LANDMARKNA":"桃園縣政府警察局文化派出所","LANDMARKAD":"1000302","ADDRESS":"桃園縣中壢市吉林路60號","TEL":"03-4528348","COUNTYNAME":"桃園市","TOWNNAME":"中壢區","MARKTYPE":"991","Class":"1"},"geometry":{"x":121.24466331782816,"y":24.975895416056929}},{"attributes":{"OBJECTID":1761,"LANDMARKID":"1000300000186","LANDMARKCO":"107","LANDMARKNA":"桃園縣政府警察局仁愛派出所","LANDMARKAD":"1000302","ADDRESS":"桃園縣中壢市新中北路二段80巷75號","TEL":"03-4563524","COUNTYNAME":"桃園市","TOWNNAME":"中壢區","MARKTYPE":"991","Class":"1"},"geometry":{"x":121.26145471350527,"y":24.953656853184146}},{"attributes":{"OBJECTID":1762,"LANDMARKID":"1000300000187","LANDMARKCO":"107","LANDMARKNA":"桃園縣政府警察局興國派出所","LANDMARKAD":"1000302","ADDRESS":"桃園縣中壢市中豐路88號","TEL":"03-4258325","COUNTYNAME":"桃園市","TOWNNAME":"中壢區","MARKTYPE":"991","Class":"1"},"geometry":{"x":121.21970890835503,"y":24.962301456429984}},{"attributes":{"OBJECTID":1763,"LANDMARKID":"1000300000188","LANDMARKCO":"107","LANDMARKNA":"桃園縣政府警察局龍興派出所","LANDMARKAD":"1000302","ADDRESS":"桃園縣中壢市龍勇路139號","TEL":"03-4285776","COUNTYNAME":"桃園市","TOWNNAME":"中壢區","MARKTYPE":"991","Class":"1"},"geometry":{"x":121.23845799622852,"y":24.935816081183571}},{"attributes":{"OBJECTID":1764,"LANDMARKID":"1000300000189","LANDMARKCO":"107","LANDMARKNA":"桃園縣政府警察局大崙派出所","LANDMARKAD":"1000302","ADDRESS":"桃園縣中壢市內厝里中正路四段186號","TEL":"03-4982260","COUNTYNAME":"桃園市","TOWNNAME":"中壢區","MARKTYPE":"991","Class":"1"},"geometry":{"x":121.17903306429658,"y":24.989710794573071}},{"attributes":{"OBJECTID":1765,"LANDMARKID":"1000300000190","LANDMARKCO":"107","LANDMARKNA":"桃園縣政府警察局中福派出所","LANDMARKAD":"1000302","ADDRESS":"桃園縣中壢市中福里南園二路86號","TEL":"03-4523093","COUNTYNAME":"桃園市","TOWNNAME":"中壢區","MARKTYPE":"991","Class":"1"},"geometry":{"x":121.23513947699537,"y":24.971755237386258}},{"attributes":{"OBJECTID":1766,"LANDMARKID":"1000300000191","LANDMARKCO":"107","LANDMARKNA":"桃園縣政府警察局內壢派出所","LANDMARKAD":"1000302","ADDRESS":"桃園縣中壢市中原里中華路一段364號","TEL":"03-4553845","COUNTYNAME":"桃園市","TOWNNAME":"中壢區","MARKTYPE":"991","Class":"1"},"geometry":{"x":121.255743065163,"y":24.972175212704581}},{"attributes":{"OBJECTID":1767,"LANDMARKID":"1000300000192","LANDMARKCO":"107","LANDMARKNA":"桃園縣政府警察局普仁派出所","LANDMARKAD":"1000302","ADDRESS":"桃園縣中壢市普仁里日新路20號","TEL":"03-4562912","COUNTYNAME":"桃園市","TOWNNAME":"中壢區","MARKTYPE":"991","Class":"1"},"geometry":{"x":121.23863898759579,"y":24.95396257681816}},{"attributes":{"OBJECTID":1768,"LANDMARKID":"1000300000193","LANDMARKCO":"107","LANDMARKNA":"桃園縣政府警察局中壢派出所","LANDMARKAD":"1000302","ADDRESS":"桃園縣中壢市石頭里延平路607號","TEL":"03-4222030","COUNTYNAME":"桃園市","TOWNNAME":"中壢區","MARKTYPE":"991","Class":"1"},"geometry":{"x":121.22276647531669,"y":24.954622363082191}},{"attributes":{"OBJECTID":1769,"LANDMARKID":"1000300000194","LANDMARKCO":"107","LANDMARKNA":"桃園縣政府警察局石門派出所","LANDMARKAD":"1000302","ADDRESS":"桃園縣龍潭鄉佳安村文化路230號","TEL":"03-4712021","COUNTYNAME":"桃園市","TOWNNAME":"中壢區","MARKTYPE":"991","Class":"1"},"geometry":{"x":121.24948664369099,"y":24.98103015237163}},{"attributes":{"OBJECTID":1770,"LANDMARKID":"1000300000104","LANDMARKCO":"106","LANDMARKNA":"桃園縣中壢市戶政事務所","LANDMARKAD":"1000302","ADDRESS":"桃園縣中壢市溪洲街298號","TEL":"03-4521100","COUNTYNAME":"桃園市","TOWNNAME":"中壢區","MARKTYPE":"991","Class":"1"},"geometry":{"x":121.22239745946108,"y":24.953901192776794}},{"attributes":{"OBJECTID":1771,"LANDMARKID":"1000300000094","LANDMARKCO":"105","LANDMARKNA":"桃園縣中壢地政事務所","LANDMARKAD":"1000302","ADDRESS":"桃園縣中壢市中央西路二段30號3樓","TEL":"03-4917647","COUNTYNAME":"桃園市","TOWNNAME":"中壢區","MARKTYPE":"991","Class":"1"},"geometry":{"x":121.22348928821403,"y":24.955974453133258}},{"attributes":{"OBJECTID":1772,"LANDMARKID":"1000300000019","LANDMARKCO":"101","LANDMARKNA":"新竹區監理所桃園監理站中壢分所","LANDMARKAD":"1000302","ADDRESS":"桃園縣中壢市延平路394號","TEL":"03-4253990","COUNTYNAME":"桃園市","TOWNNAME":"中壢區","MARKTYPE":"991","Class":"1"},"geometry":{"x":121.22466626694855,"y":24.959672553348717}},{"attributes":{"OBJECTID":1773,"LANDMARKID":"1000300000085","LANDMARKCO":"104","LANDMARKNA":"北區國稅局中壢稽徵所第二辦公","LANDMARKAD":"1000302","ADDRESS":"桃園縣中壢市中平路115號","TEL":"03-4225171","COUNTYNAME":"桃園市","TOWNNAME":"中壢區","MARKTYPE":"991","Class":"1"},"geometry":{"x":121.2231949196328,"y":24.955343353965436}},{"attributes":{"OBJECTID":1774,"LANDMARKID":"1000300000020","LANDMARKCO":"101","LANDMARKNA":"國軍退除役官兵輔導委員會","LANDMARKAD":"1000302","ADDRESS":"桃園縣中壢市中山東路二段375號1樓","TEL":"03-4375863","COUNTYNAME":"桃園市","TOWNNAME":"中壢區","MARKTYPE":"991","Class":"1"},"geometry":{"x":121.24371069940356,"y":24.948989452563723}},{"attributes":{"OBJECTID":1775,"LANDMARKID":"1000300000057","LANDMARKCO":"103","LANDMARKNA":"林務局新竹林區管理處桃園縣海","LANDMARKAD":"1000302","ADDRESS":"桃園縣中壢市苑平街13號2樓","TEL":"03-4587827","COUNTYNAME":"桃園市","TOWNNAME":"中壢區","MARKTYPE":"991","Class":"1"},"geometry":{"x":121.23006827087067,"y":24.945941297908089}},{"attributes":{"OBJECTID":1776,"LANDMARKID":"1000300000021","LANDMARKCO":"101","LANDMARKNA":"工業局中壢工業區服務中心","LANDMARKAD":"1000302","ADDRESS":"桃園縣中壢市東園路57號","TEL":"03-4521444","COUNTYNAME":"桃園市","TOWNNAME":"中壢區","MARKTYPE":"991","Class":"1"},"geometry":{"x":121.23940042012792,"y":24.978973153213559}},{"attributes":{"OBJECTID":1777,"LANDMARKID":"1000300000022","LANDMARKCO":"101","LANDMARKNA":"台灣桃園地方法院中壢簡易庭","LANDMARKAD":"1000302","ADDRESS":"桃園縣中壢市中華路二段388號","TEL":"03-4621500","COUNTYNAME":"桃園市","TOWNNAME":"中壢區","MARKTYPE":"991","Class":"1"},"geometry":{"x":121.23484321628884,"y":24.963991765959939}},{"attributes":{"OBJECTID":1778,"LANDMARKID":"1000300000086","LANDMARKCO":"104","LANDMARKNA":"桃園縣政府地方稅務局中壢分局","LANDMARKAD":"1000302","ADDRESS":"中壢市普義里溪洲街296號3樓","TEL":"03-4515111","COUNTYNAME":"桃園市","TOWNNAME":"中壢區","MARKTYPE":"991","Class":"1"},"geometry":{"x":121.22364024492241,"y":24.955251734014805}},{"attributes":{"OBJECTID":1779,"LANDMARKID":"1000300000023","LANDMARKCO":"101","LANDMARKNA":"標準檢驗局新竹分局","LANDMARKAD":"1000302","ADDRESS":"桃園縣中壢市龍岡路一段46號","TEL":"03-4594791","COUNTYNAME":"桃園市","TOWNNAME":"中壢區","MARKTYPE":"991","Class":"1"},"geometry":{"x":121.22302357965498,"y":24.950378244052011}},{"attributes":{"OBJECTID":1780,"LANDMARKID":"1000300000024","LANDMARKCO":"101","LANDMARKNA":"環境保護署環境檢驗所","LANDMARKAD":"1000302","ADDRESS":"桃園縣中壢市民族路三段260號","TEL":"03-4915818","COUNTYNAME":"桃園市","TOWNNAME":"中壢區","MARKTYPE":"991","Class":"1"},"geometry":{"x":121.19177982896545,"y":24.960895743435781}},{"attributes":{"OBJECTID":1781,"LANDMARKID":"1000300000056","LANDMARKCO":"103","LANDMARKNA":"桃園縣中壢市衛生所","LANDMARKAD":"1000302","ADDRESS":"桃園縣中壢市普義里溪洲街296號","TEL":"03-4352666","COUNTYNAME":"桃園市","TOWNNAME":"中壢區","MARKTYPE":"991","Class":"1"},"geometry":{"x":121.22586131861755,"y":24.958770267247321}},{"attributes":{"OBJECTID":1782,"LANDMARKID":"1000300000177","LANDMARKCO":"107","LANDMARKNA":"桃園縣政府消防局第二搜救救助","LANDMARKAD":"1000302","ADDRESS":"桃園縣中壢市榮民南路800號4樓","TEL":"03-4568016","COUNTYNAME":"桃園市","TOWNNAME":"中壢區","MARKTYPE":"991","Class":"1"},"geometry":{"x":121.25648797833426,"y":24.940663612070175}},{"attributes":{"OBJECTID":1783,"LANDMARKID":"1000300000178","LANDMARKCO":"107","LANDMARKNA":"桃園縣消防局華勛消防分隊","LANDMARKAD":"1000302","ADDRESS":"桃園縣中壢市仁美里榮民南路800號","TEL":"03-4567991","COUNTYNAME":"桃園市","TOWNNAME":"中壢區","MARKTYPE":"991","Class":"1"},"geometry":{"x":121.25656794251158,"y":24.940843906007046}},{"attributes":{"OBJECTID":1784,"LANDMARKID":"1000300000055","LANDMARKCO":"103","LANDMARKNA":"中壢市立殯儀館","LANDMARKAD":"1000302","ADDRESS":"桃園縣中壢市培英路178之99號","TEL":"03-4522944","COUNTYNAME":"桃園市","TOWNNAME":"中壢區","MARKTYPE":"991","Class":"1"},"geometry":{"x":121.22722924929224,"y":24.977028968321093}},{"attributes":{"OBJECTID":1785,"LANDMARKID":"1000300000198","LANDMARKCO":"107","LANDMARKNA":"國公路第一警察隊中壢小隊","LANDMARKAD":"1000302","ADDRESS":"桃園縣中壢市內碇里下內壢85號之21","TEL":"03-4511323","COUNTYNAME":"桃園市","TOWNNAME":"中壢區","MARKTYPE":"991","Class":"1"},"geometry":{"x":121.25187136043604,"y":25.003687881223783}},{"attributes":{"OBJECTID":1786,"LANDMARKID":"1000300000025","LANDMARKCO":"101","LANDMARKNA":"農業委員會動植物防疫檢疫局","LANDMARKAD":"1000302","ADDRESS":"桃園縣中正機場航勤北路25號","TEL":"03-3982663","COUNTYNAME":"桃園市","TOWNNAME":"中壢區","MARKTYPE":"991","Class":"1"},"geometry":{"x":121.22294468220532,"y":24.950468764397517}},{"attributes":{"OBJECTID":1787,"LANDMARKID":"1000300000446","LANDMARKCO":"203","LANDMARKNA":"縣立元生國小","LANDMARKAD":"1000302","ADDRESS":"桃園縣中壢市文化二路161號","TEL":"03-4625566","COUNTYNAME":"桃園市","TOWNNAME":"中壢區","MARKTYPE":"992","Class":"2"},"geometry":{"x":121.25178323104338,"y":24.974075230444797}},{"attributes":{"OBJECTID":1788,"LANDMARKID":"1000300000567","LANDMARKCO":"205","LANDMARKNA":"黑松文物館","LANDMARKAD":"1000302","ADDRESS":"桃園縣中壢市中園路178號","TEL":" ","COUNTYNAME":"桃園市","TOWNNAME":"中壢區","MARKTYPE":"992","Class":"2"},"geometry":{"x":121.23640855149003,"y":24.978735996543332}},{"attributes":{"OBJECTID":1789,"LANDMARKID":"1000300000576","LANDMARKCO":"207","LANDMARKNA":"桃園縣政府文化局中壢藝術館","LANDMARKAD":"1000302","ADDRESS":"桃園縣中壢市中美路16號2樓","TEL":" ","COUNTYNAME":"桃園市","TOWNNAME":"中壢區","MARKTYPE":"992","Class":"2"},"geometry":{"x":121.22760556794026,"y":24.958250620407423}},{"attributes":{"OBJECTID":1790,"LANDMARKID":"1000300000548","LANDMARKCO":"204","LANDMARKNA":"桃園縣立圖書館中壢分館","LANDMARKAD":"1000302","ADDRESS":"桃園縣中壢市中美路76號","TEL":" ","COUNTYNAME":"桃園市","TOWNNAME":"中壢區","MARKTYPE":"992","Class":"2"},"geometry":{"x":121.2258780843365,"y":24.958746411394401}},{"attributes":{"OBJECTID":1791,"LANDMARKID":"1000300000284","LANDMARKCO":"202","LANDMARKNA":"國立中壢高商","LANDMARKAD":"1000302","ADDRESS":"中壢市中央西路二段141巷100號","TEL":"03-4929871","COUNTYNAME":"桃園市","TOWNNAME":"中壢區","MARKTYPE":"992","Class":"2"},"geometry":{"x":121.21502375467558,"y":24.962126482718642}},{"attributes":{"OBJECTID":1792,"LANDMARKID":"1000300000445","LANDMARKCO":"203","LANDMARKNA":"縣立新明國中","LANDMARKAD":"1000302","ADDRESS":"桃園縣中壢市中正路487巷18號","TEL":"03-4936194","COUNTYNAME":"桃園市","TOWNNAME":"中壢區","MARKTYPE":"992","Class":"2"},"geometry":{"x":121.21244991158184,"y":24.956803156480074}},{"attributes":{"OBJECTID":1793,"LANDMARKID":"1000300000285","LANDMARKCO":"202","LANDMARKNA":"國立中壢高中","LANDMARKAD":"1000302","ADDRESS":"桃園縣中壢市三光路115號","TEL":"03-4926300","COUNTYNAME":"桃園市","TOWNNAME":"中壢區","MARKTYPE":"992","Class":"2"},"geometry":{"x":121.21016311815104,"y":24.962764473057529}},{"attributes":{"OBJECTID":1794,"LANDMARKID":"1000300000286","LANDMARKCO":"202","LANDMARKNA":"私立啟英高中","LANDMARKAD":"1000302","ADDRESS":"桃園縣中壢市中園路447號","TEL":"03-4771196","COUNTYNAME":"桃園市","TOWNNAME":"中壢區","MARKTYPE":"992","Class":"2"},"geometry":{"x":121.23527037834069,"y":24.975095312806044}},{"attributes":{"OBJECTID":1795,"LANDMARKID":"1000300000287","LANDMARKCO":"202","LANDMARKNA":"國立內壢高中","LANDMARKAD":"1000302","ADDRESS":"桃園縣中壢市成章四街120號","TEL":"03-4528080","COUNTYNAME":"桃園市","TOWNNAME":"中壢區","MARKTYPE":"992","Class":"2"},"geometry":{"x":121.25640308180627,"y":24.977860796921224}},{"attributes":{"OBJECTID":1796,"LANDMARKID":"1000300000288","LANDMARKCO":"202","LANDMARKNA":"私立六和高中附設國中部","LANDMARKAD":"1000302","ADDRESS":"桃園縣平鎮市陸光路180號","TEL":"03-4204000","COUNTYNAME":"桃園市","TOWNNAME":"中壢區","MARKTYPE":"992","Class":"2"},"geometry":{"x":121.2280128618987,"y":24.964907235440098}},{"attributes":{"OBJECTID":1797,"LANDMARKID":"1000300000416","LANDMARKCO":"203","LANDMARKNA":"縣立內壢國中","LANDMARKAD":"1000302","ADDRESS":"桃園縣中壢市復華里復華一街108號","TEL":"03-4522494","COUNTYNAME":"桃園市","TOWNNAME":"中壢區","MARKTYPE":"992","Class":"2"},"geometry":{"x":121.24915422809832,"y":24.971641782190634}},{"attributes":{"OBJECTID":1798,"LANDMARKID":"1000300000417","LANDMARKCO":"203","LANDMARKNA":"縣立興南國中","LANDMARKAD":"1000302","ADDRESS":"桃園縣中壢市育英路55號","TEL":"03-4526295","COUNTYNAME":"桃園市","TOWNNAME":"中壢區","MARKTYPE":"992","Class":"2"},"geometry":{"x":121.22673457140856,"y":24.974296427082002}},{"attributes":{"OBJECTID":1799,"LANDMARKID":"1000300000418","LANDMARKCO":"203","LANDMARKNA":"縣立自強國中","LANDMARKAD":"1000302","ADDRESS":"桃園縣中壢市榮民路80號","TEL":"03-4553494","COUNTYNAME":"桃園市","TOWNNAME":"中壢區","MARKTYPE":"992","Class":"2"},"geometry":{"x":121.25982589344153,"y":24.968915658536794}},{"attributes":{"OBJECTID":1800,"LANDMARKID":"1000300000419","LANDMARKCO":"203","LANDMARKNA":"縣立東興國中","LANDMARKAD":"1000302","ADDRESS":"桃園縣中壢市廣州路25號","TEL":"03-4582564","COUNTYNAME":"桃園市","TOWNNAME":"中壢區","MARKTYPE":"992","Class":"2"},"geometry":{"x":121.2291128148853,"y":24.950097300766839}}]}