{"displayFieldName":"COUNTYNAME","fieldAliases":{"OBJECTID":"OBJECTID","LANDMARKID":"LANDMARKID","LANDMARKCO":"LANDMARKCO","LANDMARKNA":"LANDMARKNA","LANDMARKAD":"LANDMARKAD","ADDRESS":"ADDRESS","TEL":"TEL","COUNTYNAME":"COUNTYNAME","TOWNNAME":"TOWNNAME","MARKTYPE":"MARKTYPE","Class":"Class"},"geometryType":"esriGeometryPoint","spatialReference":{"wkid":4326},"fields":[{"name":"OBJECTID","type":"esriFieldTypeOID","alias":"OBJECTID"},{"name":"LANDMARKID","type":"esriFieldTypeString","alias":"LANDMARKID","length":15},{"name":"LANDMARKCO","type":"esriFieldTypeString","alias":"LANDMARKCO","length":15},{"name":"LANDMARKNA","type":"esriFieldTypeString","alias":"LANDMARKNA","length":50},{"name":"LANDMARKAD","type":"esriFieldTypeString","alias":"LANDMARKAD","length":15},{"name":"ADDRESS","type":"esriFieldTypeString","alias":"ADDRESS","length":56},{"name":"TEL","type":"esriFieldTypeString","alias":"TEL","length":36},{"name":"COUNTYNAME","type":"esriFieldTypeString","alias":"COUNTYNAME","length":15},{"name":"TOWNNAME","type":"esriFieldTypeString","alias":"TOWNNAME","length":13},{"name":"MARKTYPE","type":"esriFieldTypeString","alias":"MARKTYPE","length":12},{"name":"Class","type":"esriFieldTypeString","alias":"Class","length":5}],"features":[{"attributes":{"OBJECTID":4201,"LANDMARKID":"1000100000709","LANDMARKCO":"203","LANDMARKNA":"縣立白雲國小","LANDMARKAD":"1000111","ADDRESS":"新北市汐止區福山里民權街二段90號","TEL":"02-26403909","COUNTYNAME":"新北市","TOWNNAME":"汐止區","MARKTYPE":"992","Class":"2"},"geometry":{"x":121.6186205060874,"y":25.047659569915563}},{"attributes":{"OBJECTID":4202,"LANDMARKID":"1000100000710","LANDMARKCO":"203","LANDMARKNA":"縣立東山國小","LANDMARKAD":"1000111","ADDRESS":"新北市汐止區東山里汐平路二段76號","TEL":"02-26416170","COUNTYNAME":"新北市","TOWNNAME":"汐止區","MARKTYPE":"992","Class":"2"},"geometry":{"x":121.69991186031405,"y":25.059933344370698}},{"attributes":{"OBJECTID":4203,"LANDMARKID":"1000100000711","LANDMARKCO":"203","LANDMARKNA":"縣立北港國小","LANDMARKAD":"1000111","ADDRESS":"新北市汐止區汐萬路二段279號","TEL":"02-26462832","COUNTYNAME":"新北市","TOWNNAME":"汐止區","MARKTYPE":"992","Class":"2"},"geometry":{"x":121.64510043427627,"y":25.089261248187594}},{"attributes":{"OBJECTID":4204,"LANDMARKID":"1000100000712","LANDMARKCO":"203","LANDMARKNA":"縣立金龍國小","LANDMARKAD":"1000111","ADDRESS":"新北市汐止區明峰街210號","TEL":"02-26959941","COUNTYNAME":"新北市","TOWNNAME":"汐止區","MARKTYPE":"992","Class":"2"},"geometry":{"x":121.62807378191762,"y":25.068932803101013}},{"attributes":{"OBJECTID":4205,"LANDMARKID":"1000100000713","LANDMARKCO":"203","LANDMARKNA":"縣立長安國小","LANDMARKAD":"1000111","ADDRESS":"新北市汐止區長興街一段80號","TEL":"02-26412944","COUNTYNAME":"新北市","TOWNNAME":"汐止區","MARKTYPE":"992","Class":"2"},"geometry":{"x":121.67156048844707,"y":25.079206494834452}},{"attributes":{"OBJECTID":4206,"LANDMARKID":"1000100000714","LANDMARKCO":"203","LANDMARKNA":"縣立崇德國小","LANDMARKAD":"1000111","ADDRESS":"新北市汐止區茄苳里茄苳路158號","TEL":"02-26412052","COUNTYNAME":"新北市","TOWNNAME":"汐止區","MARKTYPE":"992","Class":"2"},"geometry":{"x":121.6695166281032,"y":25.068933183204322}},{"attributes":{"OBJECTID":4207,"LANDMARKID":"1000100000715","LANDMARKCO":"203","LANDMARKNA":"縣立北峰國小","LANDMARKAD":"1000111","ADDRESS":"新北市汐止區中興里環河街1號","TEL":"02-26411817","COUNTYNAME":"新北市","TOWNNAME":"汐止區","MARKTYPE":"992","Class":"2"},"geometry":{"x":121.6323960633438,"y":25.063310551107943}},{"attributes":{"OBJECTID":4208,"LANDMARKID":"1000100000716","LANDMARKCO":"203","LANDMARKNA":"縣立北港國小烘內分校","LANDMARKAD":"1000111","ADDRESS":"新北市汐止區","TEL":" ","COUNTYNAME":"新北市","TOWNNAME":"汐止區","MARKTYPE":"992","Class":"2"},"geometry":{"x":121.64496717913572,"y":25.105241829512014}},{"attributes":{"OBJECTID":4209,"LANDMARKID":"1000100000717","LANDMARKCO":"203","LANDMARKNA":"縣立北港國小八連分校","LANDMARKAD":"1000111","ADDRESS":"新北市汐止區","TEL":" ","COUNTYNAME":"新北市","TOWNNAME":"汐止區","MARKTYPE":"992","Class":"2"},"geometry":{"x":121.62985697114829,"y":25.101959892358344}},{"attributes":{"OBJECTID":4210,"LANDMARKID":"1000100001436","LANDMARKCO":"303","LANDMARKNA":"汐止區公所停車場","LANDMARKAD":"1000111","ADDRESS":"新北市汐止區仁愛路10號","TEL":" ","COUNTYNAME":"新北市","TOWNNAME":"汐止區","MARKTYPE":"993","Class":"303"},"geometry":{"x":121.65882856261672,"y":25.063418138238127}},{"attributes":{"OBJECTID":4211,"LANDMARKID":"1000100001558","LANDMARKCO":"308","LANDMARKNA":"國1-汐止系統交流道-南下","LANDMARKAD":"1000111","ADDRESS":"新北市汐止區","TEL":" ","COUNTYNAME":"新北市","TOWNNAME":"汐止區","MARKTYPE":"993","Class":"308"},"geometry":{"x":121.64774153804066,"y":25.077524572056213}},{"attributes":{"OBJECTID":4212,"LANDMARKID":"1000100001559","LANDMARKCO":"308","LANDMARKNA":"國1-汐止系統交流道-南下","LANDMARKAD":"1000111","ADDRESS":"新北市汐止區","TEL":" ","COUNTYNAME":"新北市","TOWNNAME":"汐止區","MARKTYPE":"993","Class":"308"},"geometry":{"x":121.6439751164838,"y":25.068636814777552}},{"attributes":{"OBJECTID":4213,"LANDMARKID":"1000100001560","LANDMARKCO":"308","LANDMARKNA":"國1-汐止交流道-南下","LANDMARKAD":"1000111","ADDRESS":"新北市汐止區","TEL":" ","COUNTYNAME":"新北市","TOWNNAME":"汐止區","MARKTYPE":"993","Class":"308"},"geometry":{"x":121.65572717441641,"y":25.075006633235454}},{"attributes":{"OBJECTID":4214,"LANDMARKID":"1000100001561","LANDMARKCO":"308","LANDMARKNA":"國1-汐五高架汐止端-南下","LANDMARKAD":"1000111","ADDRESS":"新北市汐止區","TEL":" ","COUNTYNAME":"新北市","TOWNNAME":"汐止區","MARKTYPE":"993","Class":"308"},"geometry":{"x":121.63324103203033,"y":25.067880799578642}},{"attributes":{"OBJECTID":4215,"LANDMARKID":"1000100001562","LANDMARKCO":"308","LANDMARKNA":"國3-新台五路交流道-北上","LANDMARKAD":"1000111","ADDRESS":"新北市汐止區","TEL":" ","COUNTYNAME":"新北市","TOWNNAME":"汐止區","MARKTYPE":"993","Class":"308"},"geometry":{"x":121.64030897052933,"y":25.057682377288607}},{"attributes":{"OBJECTID":4216,"LANDMARKID":"1000100001563","LANDMARKCO":"308","LANDMARKNA":"國1-汐止交流道-北上","LANDMARKAD":"1000111","ADDRESS":"新北市汐止區","TEL":" ","COUNTYNAME":"新北市","TOWNNAME":"汐止區","MARKTYPE":"993","Class":"308"},"geometry":{"x":121.65662662193104,"y":25.074715138032467}},{"attributes":{"OBJECTID":4217,"LANDMARKID":"1000100001564","LANDMARKCO":"308","LANDMARKNA":"國3-新台五路交流道-南下","LANDMARKAD":"1000111","ADDRESS":"新北市汐止區","TEL":" ","COUNTYNAME":"新北市","TOWNNAME":"汐止區","MARKTYPE":"993","Class":"308"},"geometry":{"x":121.63300391580417,"y":25.053525452115561}},{"attributes":{"OBJECTID":4218,"LANDMARKID":"1000100001565","LANDMARKCO":"308","LANDMARKNA":"國1-汐五高架汐止端-北上","LANDMARKAD":"1000111","ADDRESS":"新北市汐止區","TEL":" ","COUNTYNAME":"新北市","TOWNNAME":"汐止區","MARKTYPE":"993","Class":"308"},"geometry":{"x":121.64236310408438,"y":25.072105565742717}},{"attributes":{"OBJECTID":4219,"LANDMARKID":"1000100001566","LANDMARKCO":"308","LANDMARKNA":"汐止收費站","LANDMARKAD":"1000111","ADDRESS":"新北市汐止區","TEL":" ","COUNTYNAME":"新北市","TOWNNAME":"汐止區","MARKTYPE":"993","Class":"308"},"geometry":{"x":121.66399439275826,"y":25.078874639655833}},{"attributes":{"OBJECTID":4220,"LANDMARKID":"1000100000939","LANDMARKCO":"302","LANDMARKNA":"中興大業巴士汐止站","LANDMARKAD":"1000111","ADDRESS":"新北市汐止區鄉長路一段277號","TEL":" ","COUNTYNAME":"新北市","TOWNNAME":"汐止區","MARKTYPE":"993","Class":"302"},"geometry":{"x":121.66556597641888,"y":25.075969758675267}},{"attributes":{"OBJECTID":4221,"LANDMARKID":"1000100001421","LANDMARKCO":"303","LANDMARKNA":"社后停車場","LANDMARKAD":"1000111","ADDRESS":"新北市汐止區","TEL":" ","COUNTYNAME":"新北市","TOWNNAME":"汐止區","MARKTYPE":"993","Class":"303"},"geometry":{"x":121.63403262995314,"y":25.065177114887689}},{"attributes":{"OBJECTID":4222,"LANDMARKID":"1000100001422","LANDMARKCO":"303","LANDMARKNA":"中興停車場","LANDMARKAD":"1000111","ADDRESS":"新北市汐止區","TEL":" ","COUNTYNAME":"新北市","TOWNNAME":"汐止區","MARKTYPE":"993","Class":"303"},"geometry":{"x":121.63448612984978,"y":25.064804784470052}},{"attributes":{"OBJECTID":4223,"LANDMARKID":"1000100001423","LANDMARKCO":"303","LANDMARKNA":"遠東世界中心地下停車場","LANDMARKAD":"1000111","ADDRESS":"新北市汐止區新台五路一段79號","TEL":"02-26984072","COUNTYNAME":"新北市","TOWNNAME":"汐止區","MARKTYPE":"993","Class":"303"},"geometry":{"x":121.64600227561606,"y":25.060865330090028}},{"attributes":{"OBJECTID":4224,"LANDMARKID":"1000100001424","LANDMARKCO":"303","LANDMARKNA":"仁愛路停車場","LANDMARKAD":"1000111","ADDRESS":"新北市汐止區仁愛路","TEL":" ","COUNTYNAME":"新北市","TOWNNAME":"汐止區","MARKTYPE":"993","Class":"303"},"geometry":{"x":121.65883034553151,"y":25.064155513671157}},{"attributes":{"OBJECTID":4225,"LANDMARKID":"1000100001425","LANDMARKCO":"303","LANDMARKNA":"汐止城中城停車場","LANDMARKAD":"1000111","ADDRESS":"新北市汐止區橋東里大同路二段","TEL":" ","COUNTYNAME":"新北市","TOWNNAME":"汐止區","MARKTYPE":"993","Class":"303"},"geometry":{"x":121.66375953660145,"y":25.075313611993238}},{"attributes":{"OBJECTID":4226,"LANDMARKID":"1000100001426","LANDMARKCO":"303","LANDMARKNA":"社后立體停車場","LANDMARKAD":"1000111","ADDRESS":"新北市汐止區康福里康福一路","TEL":" ","COUNTYNAME":"新北市","TOWNNAME":"汐止區","MARKTYPE":"993","Class":"303"},"geometry":{"x":121.64639686175354,"y":25.061067112633776}},{"attributes":{"OBJECTID":4227,"LANDMARKID":"1000100001427","LANDMARKCO":"303","LANDMARKNA":"家樂福停車場","LANDMARKAD":"1000111","ADDRESS":"新北市汐止區新台五路一段108號","TEL":" ","COUNTYNAME":"新北市","TOWNNAME":"汐止區","MARKTYPE":"993","Class":"303"},"geometry":{"x":121.64988892442295,"y":25.060973770843116}},{"attributes":{"OBJECTID":4228,"LANDMARKID":"1000100001428","LANDMARKCO":"303","LANDMARKNA":"智興立體停車場","LANDMARKAD":"1000111","ADDRESS":"新北市汐止區復興里水源路","TEL":" ","COUNTYNAME":"新北市","TOWNNAME":"汐止區","MARKTYPE":"993","Class":"303"},"geometry":{"x":121.65248749493711,"y":25.061410067782706}},{"attributes":{"OBJECTID":4229,"LANDMARKID":"1000100001429","LANDMARKCO":"303","LANDMARKNA":"永固停車場-汐止站","LANDMARKAD":"1000111","ADDRESS":"新北市汐止區新台五路一段81號左側空地","TEL":"02-26980399","COUNTYNAME":"新北市","TOWNNAME":"汐止區","MARKTYPE":"993","Class":"303"},"geometry":{"x":121.64618893558139,"y":25.060990498301496}},{"attributes":{"OBJECTID":4230,"LANDMARKID":"1000100001430","LANDMARKCO":"303","LANDMARKNA":"永固停車場-汐止PB","LANDMARKAD":"1000111","ADDRESS":"新北市汐止區新台五路一段81號B2","TEL":"02-26981008、02-2698","COUNTYNAME":"新北市","TOWNNAME":"汐止區","MARKTYPE":"993","Class":"303"},"geometry":{"x":121.64618893558139,"y":25.060990498301496}},{"attributes":{"OBJECTID":4231,"LANDMARKID":"1000100001431","LANDMARKCO":"303","LANDMARKNA":"永固停車場-汐止PA","LANDMARKAD":"1000111","ADDRESS":"新北市汐止區新台五路一段75號右側遠東館前","TEL":"02-26981295","COUNTYNAME":"新北市","TOWNNAME":"汐止區","MARKTYPE":"993","Class":"303"},"geometry":{"x":121.645666757475,"y":25.060767769989695}},{"attributes":{"OBJECTID":4232,"LANDMARKID":"1000100001432","LANDMARKCO":"303","LANDMARKNA":"永固停車場-大同二","LANDMARKAD":"1000111","ADDRESS":"新北市汐止區大同路二段175號B1","TEL":"02-86926792","COUNTYNAME":"新北市","TOWNNAME":"汐止區","MARKTYPE":"993","Class":"303"},"geometry":{"x":121.65151294926866,"y":25.0642574485626}},{"attributes":{"OBJECTID":4233,"LANDMARKID":"1000100001433","LANDMARKCO":"303","LANDMARKNA":"永固停車場-大同三","LANDMARKAD":"1000111","ADDRESS":"新北市汐止區大同路二段169巷右側空地","TEL":"02-86422964","COUNTYNAME":"新北市","TOWNNAME":"汐止區","MARKTYPE":"993","Class":"303"},"geometry":{"x":121.65133028632435,"y":25.064321249541866}},{"attributes":{"OBJECTID":4234,"LANDMARKID":"1000100001434","LANDMARKCO":"303","LANDMARKNA":"台灣聯通停車場-國泰汐止","LANDMARKAD":"1000111","ADDRESS":"新北市汐止區建成路59巷2號","TEL":" ","COUNTYNAME":"新北市","TOWNNAME":"汐止區","MARKTYPE":"993","Class":"303"},"geometry":{"x":121.66085042713637,"y":25.072301895607705}},{"attributes":{"OBJECTID":4235,"LANDMARKID":"1000100001435","LANDMARKCO":"303","LANDMARKNA":"台灣聯通停車場-社后場","LANDMARKAD":"1000111","ADDRESS":"新北市汐止區康寧街455號旁空地","TEL":" ","COUNTYNAME":"新北市","TOWNNAME":"汐止區","MARKTYPE":"993","Class":"303"},"geometry":{"x":121.63149777963136,"y":25.068769074197522}},{"attributes":{"OBJECTID":4236,"LANDMARKID":"1000100000936","LANDMARKCO":"301","LANDMARKNA":"五堵火車站","LANDMARKAD":"1000111","ADDRESS":"新北市汐止區長安里長安路17號","TEL":"02-86476200","COUNTYNAME":"新北市","TOWNNAME":"汐止區","MARKTYPE":"993","Class":"301"},"geometry":{"x":121.6675019816918,"y":25.077836712789196}},{"attributes":{"OBJECTID":4237,"LANDMARKID":"1000100000937","LANDMARKCO":"301","LANDMARKNA":"汐止火車站","LANDMARKAD":"1000111","ADDRESS":"新北市汐止區信望里信義路1號","TEL":"02-26415096","COUNTYNAME":"新北市","TOWNNAME":"汐止區","MARKTYPE":"993","Class":"301"},"geometry":{"x":121.66253321353797,"y":25.0690452832985}},{"attributes":{"OBJECTID":4238,"LANDMARKID":"1000100000938","LANDMARKCO":"301","LANDMARKNA":"汐科火車站","LANDMARKAD":"1000111","ADDRESS":"新北市汐止區大同路2段182號","TEL":"02-23815226#8730","COUNTYNAME":"新北市","TOWNNAME":"汐止區","MARKTYPE":"993","Class":"301"},"geometry":{"x":121.64834173664585,"y":25.062771195061803}},{"attributes":{"OBJECTID":4239,"LANDMARKID":"1000100002930","LANDMARKCO":"603","LANDMARKNA":"嘉欣旅社","LANDMARKAD":"1000111","ADDRESS":"新北市汐止區大同路3段543號2至3樓","TEL":"02-86482598","COUNTYNAME":"新北市","TOWNNAME":"汐止區","MARKTYPE":"996","Class":"6"},"geometry":{"x":121.68103621317185,"y":25.071652874892347}},{"attributes":{"OBJECTID":4240,"LANDMARKID":"1000100002931","LANDMARKCO":"603","LANDMARKNA":"金龍池大旅社","LANDMARKAD":"1000111","ADDRESS":"新北市汐止區中正路38號2至3樓","TEL":"02-26412321","COUNTYNAME":"新北市","TOWNNAME":"汐止區","MARKTYPE":"996","Class":"6"},"geometry":{"x":121.66241492687716,"y":25.07054626757694}},{"attributes":{"OBJECTID":4241,"LANDMARKID":"1000100002932","LANDMARKCO":"603","LANDMARKNA":"金龍湖旅館","LANDMARKAD":"1000111","ADDRESS":"新北市汐止區湖前街103及105號1至5樓","TEL":"02-26959339","COUNTYNAME":"新北市","TOWNNAME":"汐止區","MARKTYPE":"996","Class":"6"},"geometry":{"x":121.63139423904913,"y":25.071246515147834}},{"attributes":{"OBJECTID":4242,"LANDMARKID":"1000100002933","LANDMARKCO":"603","LANDMARKNA":"薇星旅館","LANDMARKAD":"1000111","ADDRESS":"新北市汐止區勤進路416號1至10樓","TEL":"418號2至10樓","COUNTYNAME":"新北市","TOWNNAME":"汐止區","MARKTYPE":"996","Class":"6"},"geometry":{"x":121.66391795115916,"y":25.05369694967268}},{"attributes":{"OBJECTID":4243,"LANDMARKID":"1000100002934","LANDMARKCO":"603","LANDMARKNA":"少爺旅店","LANDMARKAD":"1000111","ADDRESS":"新北市汐止區勤進路83巷3號B1至1樓","TEL":"02-26410399","COUNTYNAME":"新北市","TOWNNAME":"汐止區","MARKTYPE":"996","Class":"6"},"geometry":{"x":121.66145149319652,"y":25.059356563082215}},{"attributes":{"OBJECTID":4244,"LANDMARKID":"1000100002496","LANDMARKCO":"503","LANDMARKNA":"金龍湖","LANDMARKAD":"1000111","ADDRESS":"新北市汐止區","TEL":" ","COUNTYNAME":"新北市","TOWNNAME":"汐止區","MARKTYPE":"995","Class":"5"},"geometry":{"x":121.6303690692322,"y":25.073016844861584}},{"attributes":{"OBJECTID":4245,"LANDMARKID":"1000100002497","LANDMARKCO":"503","LANDMARKNA":"大尖山風景區","LANDMARKAD":"1000111","ADDRESS":"新北市汐止區","TEL":" ","COUNTYNAME":"新北市","TOWNNAME":"汐止區","MARKTYPE":"995","Class":"5"},"geometry":{"x":121.66847712898584,"y":25.05117085069535}},{"attributes":{"OBJECTID":4246,"LANDMARKID":"1000100002498","LANDMARKCO":"503","LANDMARKNA":"石門峽谷","LANDMARKAD":"1000111","ADDRESS":"新北市汐止區","TEL":" ","COUNTYNAME":"新北市","TOWNNAME":"汐止區","MARKTYPE":"995","Class":"5"},"geometry":{"x":121.68817461830288,"y":25.067400682565747}},{"attributes":{"OBJECTID":4247,"LANDMARKID":"1000100002499","LANDMARKCO":"503","LANDMARKNA":"秀峰瀑布","LANDMARKAD":"1000111","ADDRESS":"新北市汐止區","TEL":" ","COUNTYNAME":"新北市","TOWNNAME":"汐止區","MARKTYPE":"995","Class":"5"},"geometry":{"x":121.6663015995086,"y":25.048927095045634}},{"attributes":{"OBJECTID":4248,"LANDMARKID":"1000100001958","LANDMARKCO":"405","LANDMARKNA":"中油加油站-車容坊湯城站","LANDMARKAD":"1000102","ADDRESS":"新北市三重區重新路五段628號","TEL":"02-29995499","COUNTYNAME":"新北市","TOWNNAME":"三重區","MARKTYPE":"994","Class":"4"},"geometry":{"x":121.46870131541819,"y":25.044762929600974}},{"attributes":{"OBJECTID":4249,"LANDMARKID":"1000100001959","LANDMARKCO":"405","LANDMARKNA":"中油加油站-國園站","LANDMARKAD":"1000102","ADDRESS":"新北市三重區重新路三段49號","TEL":"02-29800335","COUNTYNAME":"新北市","TOWNNAME":"三重區","MARKTYPE":"994","Class":"4"},"geometry":{"x":121.49295133341985,"y":25.061436856237442}},{"attributes":{"OBJECTID":4250,"LANDMARKID":"1000100001960","LANDMARKCO":"405","LANDMARKNA":"中油加油站-合盟中正站","LANDMARKAD":"1000102","ADDRESS":"新北市三重區中正北路305號","TEL":"02-89811840","COUNTYNAME":"新北市","TOWNNAME":"三重區","MARKTYPE":"994","Class":"4"},"geometry":{"x":121.47433376633843,"y":25.071505083611399}},{"attributes":{"OBJECTID":4251,"LANDMARKID":"1000100001961","LANDMARKCO":"405","LANDMARKNA":"中油加油站-中華源河站","LANDMARKAD":"1000102","ADDRESS":"新北市三重區中正北路237號","TEL":"02-89817114","COUNTYNAME":"新北市","TOWNNAME":"三重區","MARKTYPE":"994","Class":"4"},"geometry":{"x":121.47560672801193,"y":25.070656637385351}},{"attributes":{"OBJECTID":4252,"LANDMARKID":"1000100001962","LANDMARKCO":"405","LANDMARKNA":"中油加油站-三重重新路站(中油直營)","LANDMARKAD":"1000102","ADDRESS":"新北市三重區重新路五段495號","TEL":"02-29953683","COUNTYNAME":"新北市","TOWNNAME":"三重區","MARKTYPE":"994","Class":"4"},"geometry":{"x":121.47242428441244,"y":25.046867416894298}},{"attributes":{"OBJECTID":4253,"LANDMARKID":"1000100001963","LANDMARKCO":"405","LANDMARKNA":"中油加油站-菜寮站(中油直營)","LANDMARKAD":"1000102","ADDRESS":"新北市三重區重新路三段157號","TEL":"02-29843153","COUNTYNAME":"新北市","TOWNNAME":"三重區","MARKTYPE":"994","Class":"4"},"geometry":{"x":121.48964609274154,"y":25.058902921061396}},{"attributes":{"OBJECTID":4254,"LANDMARKID":"1000100001964","LANDMARKCO":"405","LANDMARKNA":"中油加油站-楓林站","LANDMARKAD":"1000102","ADDRESS":"新北市三重區仁美街2號","TEL":"02-82878341","COUNTYNAME":"新北市","TOWNNAME":"三重區","MARKTYPE":"994","Class":"4"},"geometry":{"x":121.48896309789511,"y":25.077082171025541}},{"attributes":{"OBJECTID":4255,"LANDMARKID":"1000100001965","LANDMARKCO":"405","LANDMARKNA":"中油加油站-堤頂站","LANDMARKAD":"1000102","ADDRESS":"新北市三重區自強路4段34號","TEL":"02-82878341","COUNTYNAME":"新北市","TOWNNAME":"三重區","MARKTYPE":"994","Class":"4"},"geometry":{"x":121.48901222154501,"y":25.077087809729765}},{"attributes":{"OBJECTID":4256,"LANDMARKID":"1000100001966","LANDMARKCO":"405","LANDMARKNA":"中油加油站-聯華三重交流道站","LANDMARKAD":"1000102","ADDRESS":"新北市三重區三和路四段81號之1","TEL":"02-26762168","COUNTYNAME":"新北市","TOWNNAME":"三重區","MARKTYPE":"994","Class":"4"},"geometry":{"x":121.48940706452711,"y":25.075424690255456}},{"attributes":{"OBJECTID":4257,"LANDMARKID":"1000100001967","LANDMARKCO":"405","LANDMARKNA":"中油加油站-重陽橋站","LANDMARKAD":"1000102","ADDRESS":"新北市三重區河邊北街358號","TEL":"02-28575135","COUNTYNAME":"新北市","TOWNNAME":"三重區","MARKTYPE":"994","Class":"4"},"geometry":{"x":121.49280229644111,"y":25.088682292284521}},{"attributes":{"OBJECTID":4258,"LANDMARKID":"1000100001968","LANDMARKCO":"405","LANDMARKNA":"中油加油站-二重站(中油直營)","LANDMARKAD":"1000102","ADDRESS":"新北市三重區重新路五段652號","TEL":"02-29950790","COUNTYNAME":"新北市","TOWNNAME":"三重區","MARKTYPE":"994","Class":"4"},"geometry":{"x":121.46798550405113,"y":25.044061989259113}},{"attributes":{"OBJECTID":4259,"LANDMARKID":"1000100001969","LANDMARKCO":"405","LANDMARKNA":"中油加油站-重陽路站(中油直營)","LANDMARKAD":"1000102","ADDRESS":"新北市三重區忠孝路一段1號","TEL":"02-29718645","COUNTYNAME":"新北市","TOWNNAME":"三重區","MARKTYPE":"994","Class":"4"},"geometry":{"x":121.49257306379759,"y":25.071828311311851}},{"attributes":{"OBJECTID":4260,"LANDMARKID":"1000100001853","LANDMARKCO":"402","LANDMARKNA":"My Phone台灣大哥大-三重湯城直營服務中心","LANDMARKAD":"1000102","ADDRESS":"新北市三重區重新路五段609巷2號","TEL":"0809-000166","COUNTYNAME":"新北市","TOWNNAME":"三重區","MARKTYPE":"994","Class":"4"},"geometry":{"x":121.4684696051817,"y":25.045610986800277}},{"attributes":{"OBJECTID":4261,"LANDMARKID":"1000100001854","LANDMARKCO":"402","LANDMARKNA":"亞太行動寬頻電信-三重中正南加盟服務中心","LANDMARKAD":"1000102","ADDRESS":"新北市三重區中正南路115號","TEL":"02-29763536","COUNTYNAME":"新北市","TOWNNAME":"三重區","MARKTYPE":"994","Class":"4"},"geometry":{"x":121.49402300709875,"y":25.057569857505488}},{"attributes":{"OBJECTID":4262,"LANDMARKID":"1000100001855","LANDMARKCO":"402","LANDMARKNA":"亞太行動寬頻電信-三重五華加盟服務中心","LANDMARKAD":"1000102","ADDRESS":"新北市三重區仁愛街397巷118號","TEL":"02-29803998","COUNTYNAME":"新北市","TOWNNAME":"三重區","MARKTYPE":"994","Class":"4"},"geometry":{"x":121.49292961221592,"y":25.08206127265354}},{"attributes":{"OBJECTID":4263,"LANDMARKID":"1000100001856","LANDMARKCO":"402","LANDMARKNA":"亞太行動寬頻電信-新北市","LANDMARKAD":"1000102","ADDRESS":"新北市三重區重新路二段68號","TEL":" ","COUNTYNAME":"新北市","TOWNNAME":"三重區","MARKTYPE":"994","Class":"4"},"geometry":{"x":121.49769391177797,"y":25.062032730419919}},{"attributes":{"OBJECTID":4264,"LANDMARKID":"1000100001857","LANDMARKCO":"402","LANDMARKNA":"亞太行動寬頻電信-三重重陽加盟服務中心","LANDMARKAD":"1000102","ADDRESS":"新北市三重區過圳街88號","TEL":"02-29898680","COUNTYNAME":"新北市","TOWNNAME":"三重區","MARKTYPE":"994","Class":"4"},"geometry":{"x":121.48641412746362,"y":25.06199846981265}},{"attributes":{"OBJECTID":4265,"LANDMARKID":"1000100001858","LANDMARKCO":"402","LANDMARKNA":"亞太行動寬頻電信-三重自強加盟服務中心","LANDMARKAD":"1000102","ADDRESS":"新北市三重區忠孝路一段183號","TEL":"02-29822225","COUNTYNAME":"新北市","TOWNNAME":"三重區","MARKTYPE":"994","Class":"4"},"geometry":{"x":121.48736038471819,"y":25.07176067634208}},{"attributes":{"OBJECTID":4266,"LANDMARKID":"1000100001859","LANDMARKCO":"402","LANDMARKNA":"亞太行動寬頻電信-三重正義北加盟服務中心","LANDMARKAD":"1000102","ADDRESS":"新北市三重區正義北路313號","TEL":"02-29848005","COUNTYNAME":"新北市","TOWNNAME":"三重區","MARKTYPE":"994","Class":"4"},"geometry":{"x":121.49427518745213,"y":25.071236698013095}},{"attributes":{"OBJECTID":4267,"LANDMARKID":"1000100001575","LANDMARKCO":"401","LANDMARKNA":"天德堂中醫綜合醫院","LANDMARKAD":"1000102","ADDRESS":"新北市三重區大同南路3號","TEL":"02-29721515","COUNTYNAME":"新北市","TOWNNAME":"三重區","MARKTYPE":"994","Class":"4"},"geometry":{"x":121.49560545724367,"y":25.061161653394556}},{"attributes":{"OBJECTID":4268,"LANDMARKID":"1000100001576","LANDMARKCO":"401","LANDMARKNA":"三重中興醫院","LANDMARKAD":"1000102","ADDRESS":"新北市三重區中興北街21號","TEL":"02-29959680","COUNTYNAME":"新北市","TOWNNAME":"三重區","MARKTYPE":"994","Class":"4"},"geometry":{"x":121.46966845246196,"y":25.046533337067316}},{"attributes":{"OBJECTID":4269,"LANDMARKID":"1000100001577","LANDMARKCO":"401","LANDMARKNA":"宏仁醫院","LANDMARKAD":"1000102","ADDRESS":"新北市三重區三和路二段188號","TEL":"02-29788877","COUNTYNAME":"新北市","TOWNNAME":"三重區","MARKTYPE":"994","Class":"4"},"geometry":{"x":121.49858983539686,"y":25.06896030395292}},{"attributes":{"OBJECTID":4270,"LANDMARKID":"1000100001578","LANDMARKCO":"401","LANDMARKNA":"新北市立醫院-三重院區","LANDMARKAD":"1000102","ADDRESS":"新北市三重區中山路2號","TEL":"02-29829111","COUNTYNAME":"新北市","TOWNNAME":"三重區","MARKTYPE":"994","Class":"4"},"geometry":{"x":121.49084666322469,"y":25.060858956511527}},{"attributes":{"OBJECTID":4271,"LANDMARKID":"1000100001579","LANDMARKCO":"401","LANDMARKNA":"祐民醫院","LANDMARKAD":"1000102","ADDRESS":"新北市三重區重新路二段2號","TEL":"02-29783456","COUNTYNAME":"新北市","TOWNNAME":"三重區","MARKTYPE":"994","Class":"4"},"geometry":{"x":121.49988062173422,"y":25.062785437168344}},{"attributes":{"OBJECTID":4272,"LANDMARKID":"1000100002591","LANDMARKCO":"507","LANDMARKNA":"三重先嗇宮","LANDMARKAD":"1000102","ADDRESS":"新北市三重區五谷王北街77號","TEL":"02-29952345","COUNTYNAME":"新北市","TOWNNAME":"三重區","MARKTYPE":"995","Class":"5"},"geometry":{"x":121.47644742877456,"y":25.051450842071461}},{"attributes":{"OBJECTID":4273,"LANDMARKID":"1000100002199","LANDMARKCO":"406","LANDMARKNA":"永德公園","LANDMARKAD":"1000102","ADDRESS":"新北市三重區","TEL":" ","COUNTYNAME":"新北市","TOWNNAME":"三重區","MARKTYPE":"994","Class":"4"},"geometry":{"x":121.48961183537646,"y":25.072264708688348}},{"attributes":{"OBJECTID":4274,"LANDMARKID":"1000100002387","LANDMARKCO":"408","LANDMARKNA":"郵局-三重忠孝路郵局","LANDMARKAD":"1000102","ADDRESS":"新北市三重區忠孝路1段6之2號","TEL":"(02)2971-0045","COUNTYNAME":"新北市","TOWNNAME":"三重區","MARKTYPE":"994","Class":"4"},"geometry":{"x":121.49227604481493,"y":25.071638234381737}},{"attributes":{"OBJECTID":4275,"LANDMARKID":"1000100002388","LANDMARKCO":"408","LANDMARKNA":"郵局-三重二重埔郵局","LANDMARKAD":"1000102","ADDRESS":"新北市三重區光復路1段140號","TEL":"(02)2995-7946","COUNTYNAME":"新北市","TOWNNAME":"三重區","MARKTYPE":"994","Class":"4"},"geometry":{"x":121.47195440954761,"y":25.052748299419665}},{"attributes":{"OBJECTID":4276,"LANDMARKID":"1000100002389","LANDMARKCO":"408","LANDMARKNA":"郵局-三重溪尾街郵局","LANDMARKAD":"1000102","ADDRESS":"新北市三重區溪尾街112號","TEL":"(02)2286-3401","COUNTYNAME":"新北市","TOWNNAME":"三重區","MARKTYPE":"994","Class":"4"},"geometry":{"x":121.48947655351441,"y":25.079023501942611}},{"attributes":{"OBJECTID":4277,"LANDMARKID":"1000100002390","LANDMARKCO":"408","LANDMARKNA":"郵局-三重中興橋郵局","LANDMARKAD":"1000102","ADDRESS":"新北市三重區成功路52-2號","TEL":"(02)2978-6455","COUNTYNAME":"新北市","TOWNNAME":"三重區","MARKTYPE":"994","Class":"4"},"geometry":{"x":121.48882488446873,"y":25.050471843344518}},{"attributes":{"OBJECTID":4278,"LANDMARKID":"1000100002391","LANDMARKCO":"408","LANDMARKNA":"郵局-三重中正路郵局","LANDMARKAD":"1000102","ADDRESS":"新北市三重區中正北路278號","TEL":"(02)2981-6898","COUNTYNAME":"新北市","TOWNNAME":"三重區","MARKTYPE":"994","Class":"4"},"geometry":{"x":121.48070417296282,"y":25.068481743904087}},{"attributes":{"OBJECTID":4279,"LANDMARKID":"1000100002392","LANDMARKCO":"408","LANDMARKNA":"郵局-三重介壽路郵局","LANDMARKAD":"1000102","ADDRESS":"新北市三重區介壽路5號","TEL":"(02)2976-2385","COUNTYNAME":"新北市","TOWNNAME":"三重區","MARKTYPE":"994","Class":"4"},"geometry":{"x":121.49901736595911,"y":25.069119978103423}},{"attributes":{"OBJECTID":4280,"LANDMARKID":"1000100002393","LANDMARKCO":"408","LANDMARKNA":"郵局-三重永興郵局","LANDMARKAD":"1000102","ADDRESS":"新北市三重區重新路1段52號","TEL":"(02)8972-6999","COUNTYNAME":"新北市","TOWNNAME":"三重區","MARKTYPE":"994","Class":"4"},"geometry":{"x":121.50275175852633,"y":25.063596984245358}},{"attributes":{"OBJECTID":4281,"LANDMARKID":"1000100002394","LANDMARKCO":"408","LANDMARKNA":"郵局-三重五常郵局","LANDMARKAD":"1000102","ADDRESS":"新北市三重區仁義街168號","TEL":"(02)8985-0166","COUNTYNAME":"新北市","TOWNNAME":"三重區","MARKTYPE":"994","Class":"4"},"geometry":{"x":121.4970062033524,"y":25.081104416929549}},{"attributes":{"OBJECTID":4282,"LANDMARKID":"1000100002395","LANDMARKCO":"408","LANDMARKNA":"郵局-三重中山路郵局","LANDMARKAD":"1000102","ADDRESS":"新北市三重區中山路14號","TEL":"(02)2988-2776","COUNTYNAME":"新北市","TOWNNAME":"三重區","MARKTYPE":"994","Class":"4"},"geometry":{"x":121.48772160815544,"y":25.061264798543728}},{"attributes":{"OBJECTID":4283,"LANDMARKID":"1000100002396","LANDMARKCO":"408","LANDMARKNA":"郵局-三重正義郵局","LANDMARKAD":"1000102","ADDRESS":"新北市三重區正義南路10號","TEL":"(02)2972-9913","COUNTYNAME":"新北市","TOWNNAME":"三重區","MARKTYPE":"994","Class":"4"},"geometry":{"x":121.49813325944922,"y":25.061670026309837}},{"attributes":{"OBJECTID":4284,"LANDMARKID":"1000100002459","LANDMARKCO":"409","LANDMARKNA":"新北市三重區農會","LANDMARKAD":"1000102","ADDRESS":"新北市三重區重新路二段1號","TEL":"02-29823466","COUNTYNAME":"新北市","TOWNNAME":"三重區","MARKTYPE":"994","Class":"4"},"geometry":{"x":121.49964831040484,"y":25.063096172152648}},{"attributes":{"OBJECTID":4285,"LANDMARKID":"1000100002460","LANDMARKCO":"409","LANDMARKNA":"臺灣省漁會","LANDMARKAD":"1000102","ADDRESS":"三重區力行路一段6號","TEL":"02-29825034","COUNTYNAME":"新北市","TOWNNAME":"三重區","MARKTYPE":"994","Class":"4"},"geometry":{"x":121.48772960298233,"y":25.066818771593546}},{"attributes":{"OBJECTID":4286,"LANDMARKID":"1000100002461","LANDMARKCO":"409","LANDMARKNA":"新北市農會","LANDMARKAD":"1000102","ADDRESS":"新北市三重區重新路四段12號12F","TEL":"02-296851","COUNTYNAME":"新北市","TOWNNAME":"三重區","MARKTYPE":"994","Class":"4"},"geometry":{"x":121.48901548161972,"y":25.057944662848115}},{"attributes":{"OBJECTID":4287,"LANDMARKID":"1000100002200","LANDMARKCO":"406","LANDMARKNA":"慈化公園","LANDMARKAD":"1000102","ADDRESS":"新北市三重區","TEL":" ","COUNTYNAME":"新北市","TOWNNAME":"三重區","MARKTYPE":"994","Class":"4"},"geometry":{"x":121.48836525674258,"y":25.084532365365234}},{"attributes":{"OBJECTID":4288,"LANDMARKID":"1000100002201","LANDMARKCO":"406","LANDMARKNA":"碧華公園","LANDMARKAD":"1000102","ADDRESS":"新北市三重區","TEL":" ","COUNTYNAME":"新北市","TOWNNAME":"三重區","MARKTYPE":"994","Class":"4"},"geometry":{"x":121.48923273705952,"y":25.083272459592717}},{"attributes":{"OBJECTID":4289,"LANDMARKID":"1000100002202","LANDMARKCO":"406","LANDMARKNA":"慈祐公園","LANDMARKAD":"1000102","ADDRESS":"新北市三重區","TEL":" ","COUNTYNAME":"新北市","TOWNNAME":"三重區","MARKTYPE":"994","Class":"4"},"geometry":{"x":121.49125794244073,"y":25.081534688624235}},{"attributes":{"OBJECTID":4290,"LANDMARKID":"1000100002203","LANDMARKCO":"406","LANDMARKNA":"安北公園","LANDMARKAD":"1000102","ADDRESS":"新北市三重區","TEL":" ","COUNTYNAME":"新北市","TOWNNAME":"三重區","MARKTYPE":"994","Class":"4"},"geometry":{"x":121.48475928875781,"y":25.08088763100664}},{"attributes":{"OBJECTID":4291,"LANDMARKID":"1000100002204","LANDMARKCO":"406","LANDMARKNA":"永福公園","LANDMARKAD":"1000102","ADDRESS":"新北市三重區","TEL":" ","COUNTYNAME":"新北市","TOWNNAME":"三重區","MARKTYPE":"994","Class":"4"},"geometry":{"x":121.48108702433144,"y":25.076482510097424}},{"attributes":{"OBJECTID":4292,"LANDMARKID":"1000100002205","LANDMARKCO":"406","LANDMARKNA":"三德公園","LANDMARKAD":"1000102","ADDRESS":"新北市三重區","TEL":" ","COUNTYNAME":"新北市","TOWNNAME":"三重區","MARKTYPE":"994","Class":"4"},"geometry":{"x":121.50067411702031,"y":25.075428181681445}},{"attributes":{"OBJECTID":4293,"LANDMARKID":"1000100002206","LANDMARKCO":"406","LANDMARKNA":"永豐公園","LANDMARKAD":"1000102","ADDRESS":"新北市三重區","TEL":" ","COUNTYNAME":"新北市","TOWNNAME":"三重區","MARKTYPE":"994","Class":"4"},"geometry":{"x":121.47955073454351,"y":25.073883032695868}},{"attributes":{"OBJECTID":4294,"LANDMARKID":"1000100002207","LANDMARKCO":"406","LANDMARKNA":"仙公公園","LANDMARKAD":"1000102","ADDRESS":"新北市三重區","TEL":" ","COUNTYNAME":"新北市","TOWNNAME":"三重區","MARKTYPE":"994","Class":"4"},"geometry":{"x":121.47400830721425,"y":25.072502370827795}},{"attributes":{"OBJECTID":4295,"LANDMARKID":"1000100002208","LANDMARKCO":"406","LANDMARKNA":"三張公園","LANDMARKAD":"1000102","ADDRESS":"新北市三重區","TEL":" ","COUNTYNAME":"新北市","TOWNNAME":"三重區","MARKTYPE":"994","Class":"4"},"geometry":{"x":121.49022202661619,"y":25.070420025297498}},{"attributes":{"OBJECTID":4296,"LANDMARKID":"1000100002209","LANDMARKCO":"406","LANDMARKNA":"仁愛公園","LANDMARKAD":"1000102","ADDRESS":"新北市三重區","TEL":" ","COUNTYNAME":"新北市","TOWNNAME":"三重區","MARKTYPE":"994","Class":"4"},"geometry":{"x":121.49685210521695,"y":25.070444768316239}},{"attributes":{"OBJECTID":4297,"LANDMARKID":"1000100002210","LANDMARKCO":"406","LANDMARKNA":"七號公園","LANDMARKAD":"1000102","ADDRESS":"新北市三重區","TEL":" ","COUNTYNAME":"新北市","TOWNNAME":"三重區","MARKTYPE":"994","Class":"4"},"geometry":{"x":121.49356156872923,"y":25.069696314106515}},{"attributes":{"OBJECTID":4298,"LANDMARKID":"1000100002211","LANDMARKCO":"406","LANDMARKNA":"六合公園","LANDMARKAD":"1000102","ADDRESS":"新北市三重區","TEL":" ","COUNTYNAME":"新北市","TOWNNAME":"三重區","MARKTYPE":"994","Class":"4"},"geometry":{"x":121.48787338068274,"y":25.069142962581452}},{"attributes":{"OBJECTID":4299,"LANDMARKID":"1000100002212","LANDMARKCO":"406","LANDMARKNA":"正義公園","LANDMARKAD":"1000102","ADDRESS":"新北市三重區","TEL":" ","COUNTYNAME":"新北市","TOWNNAME":"三重區","MARKTYPE":"994","Class":"4"},"geometry":{"x":121.49741776220644,"y":25.068530008401467}},{"attributes":{"OBJECTID":4300,"LANDMARKID":"1000100002213","LANDMARKCO":"406","LANDMARKNA":"福田公園","LANDMARKAD":"1000102","ADDRESS":"新北市三重區","TEL":" ","COUNTYNAME":"新北市","TOWNNAME":"三重區","MARKTYPE":"994","Class":"4"},"geometry":{"x":121.47954392751735,"y":25.067558566082244}},{"attributes":{"OBJECTID":4301,"LANDMARKID":"1000100002214","LANDMARKCO":"406","LANDMARKNA":"大同公園","LANDMARKAD":"1000102","ADDRESS":"新北市三重區","TEL":" ","COUNTYNAME":"新北市","TOWNNAME":"三重區","MARKTYPE":"994","Class":"4"},"geometry":{"x":121.49081401191279,"y":25.065900026820643}},{"attributes":{"OBJECTID":4302,"LANDMARKID":"1000100002215","LANDMARKCO":"406","LANDMARKNA":"信義公園","LANDMARKAD":"1000102","ADDRESS":"新北市三重區","TEL":" ","COUNTYNAME":"新北市","TOWNNAME":"三重區","MARKTYPE":"994","Class":"4"},"geometry":{"x":121.49855578243036,"y":25.065092466253226}},{"attributes":{"OBJECTID":4303,"LANDMARKID":"1000100002216","LANDMARKCO":"406","LANDMARKNA":"大智公園","LANDMARKAD":"1000102","ADDRESS":"新北市三重區","TEL":" ","COUNTYNAME":"新北市","TOWNNAME":"三重區","MARKTYPE":"994","Class":"4"},"geometry":{"x":121.49466258700912,"y":25.063135891979869}},{"attributes":{"OBJECTID":4304,"LANDMARKID":"1000100002217","LANDMARKCO":"406","LANDMARKNA":"過圳公園","LANDMARKAD":"1000102","ADDRESS":"新北市三重區","TEL":" ","COUNTYNAME":"新北市","TOWNNAME":"三重區","MARKTYPE":"994","Class":"4"},"geometry":{"x":121.48864178432916,"y":25.060147560941786}},{"attributes":{"OBJECTID":4305,"LANDMARKID":"1000100002218","LANDMARKCO":"406","LANDMARKNA":"興華公園","LANDMARKAD":"1000102","ADDRESS":"新北市三重區","TEL":" ","COUNTYNAME":"新北市","TOWNNAME":"三重區","MARKTYPE":"994","Class":"4"},"geometry":{"x":121.48434085449378,"y":25.060208950877207}},{"attributes":{"OBJECTID":4306,"LANDMARKID":"1000100002219","LANDMARKCO":"406","LANDMARKNA":"菜寮公園","LANDMARKAD":"1000102","ADDRESS":"新北市三重區","TEL":" ","COUNTYNAME":"新北市","TOWNNAME":"三重區","MARKTYPE":"994","Class":"4"},"geometry":{"x":121.49288283550617,"y":25.058038457454863}},{"attributes":{"OBJECTID":4307,"LANDMARKID":"1000100002220","LANDMARKCO":"406","LANDMARKNA":"光興公園","LANDMARKAD":"1000102","ADDRESS":"新北市三重區","TEL":" ","COUNTYNAME":"新北市","TOWNNAME":"三重區","MARKTYPE":"994","Class":"4"},"geometry":{"x":121.49906954518954,"y":25.057991168362481}},{"attributes":{"OBJECTID":4308,"LANDMARKID":"1000100002221","LANDMARKCO":"406","LANDMARKNA":"三重疏洪道運動公園","LANDMARKAD":"1000102","ADDRESS":"新北市三重區","TEL":" ","COUNTYNAME":"新北市","TOWNNAME":"三重區","MARKTYPE":"994","Class":"4"},"geometry":{"x":121.48238828012519,"y":25.04838141770573}},{"attributes":{"OBJECTID":4309,"LANDMARKID":"1000100002222","LANDMARKCO":"406","LANDMARKNA":"二二八和平紀念公園","LANDMARKAD":"1000102","ADDRESS":"新北市三重區","TEL":" ","COUNTYNAME":"新北市","TOWNNAME":"三重區","MARKTYPE":"994","Class":"4"},"geometry":{"x":121.48667316959875,"y":25.070657902162253}},{"attributes":{"OBJECTID":4310,"LANDMARKID":"1000100002223","LANDMARKCO":"406","LANDMARKNA":"五華公園","LANDMARKAD":"1000102","ADDRESS":"新北市三重區","TEL":" ","COUNTYNAME":"新北市","TOWNNAME":"三重區","MARKTYPE":"994","Class":"4"},"geometry":{"x":121.49486072716816,"y":25.084944864638416}},{"attributes":{"OBJECTID":4311,"LANDMARKID":"1000100002224","LANDMARKCO":"406","LANDMARKNA":"介壽公園","LANDMARKAD":"1000102","ADDRESS":"新北市三重區","TEL":" ","COUNTYNAME":"新北市","TOWNNAME":"三重區","MARKTYPE":"994","Class":"4"},"geometry":{"x":121.49419720856164,"y":25.072511368428497}},{"attributes":{"OBJECTID":4312,"LANDMARKID":"1000100002225","LANDMARKCO":"406","LANDMARKNA":"幸福公園","LANDMARKAD":"1000102","ADDRESS":"新北市三重區","TEL":" ","COUNTYNAME":"新北市","TOWNNAME":"三重區","MARKTYPE":"994","Class":"4"},"geometry":{"x":121.48491355832545,"y":25.075251319679722}},{"attributes":{"OBJECTID":4313,"LANDMARKID":"1000100002226","LANDMARKCO":"406","LANDMARKNA":"後竹圍公園","LANDMARKAD":"1000102","ADDRESS":"新北市三重區","TEL":" ","COUNTYNAME":"新北市","TOWNNAME":"三重區","MARKTYPE":"994","Class":"4"},"geometry":{"x":121.49074793901292,"y":25.072276739244881}},{"attributes":{"OBJECTID":4314,"LANDMARKID":"1000100002227","LANDMARKCO":"406","LANDMARKNA":"龍濱公園","LANDMARKAD":"1000102","ADDRESS":"新北市三重區","TEL":" ","COUNTYNAME":"新北市","TOWNNAME":"三重區","MARKTYPE":"994","Class":"4"},"geometry":{"x":121.50246915830019,"y":25.072843282622141}},{"attributes":{"OBJECTID":4315,"LANDMARKID":"1000100002228","LANDMARKCO":"406","LANDMARKNA":"河濱公園","LANDMARKAD":"1000102","ADDRESS":"新北市三重區","TEL":" ","COUNTYNAME":"新北市","TOWNNAME":"三重區","MARKTYPE":"994","Class":"4"},"geometry":{"x":121.49115291437599,"y":25.048115018568328}},{"attributes":{"OBJECTID":4316,"LANDMARKID":"1000100002229","LANDMARKCO":"406","LANDMARKNA":"獅子公園","LANDMARKAD":"1000102","ADDRESS":"新北市三重區","TEL":" ","COUNTYNAME":"新北市","TOWNNAME":"三重區","MARKTYPE":"994","Class":"4"},"geometry":{"x":121.50477532851799,"y":25.070572520663521}},{"attributes":{"OBJECTID":4317,"LANDMARKID":"1000100002266","LANDMARKCO":"407","LANDMARKNA":"小北百貨","LANDMARKAD":"1000102","ADDRESS":"新北市三重區重陽路四段27號","TEL":"02-29876689","COUNTYNAME":"新北市","TOWNNAME":"三重區","MARKTYPE":"994","Class":"4"},"geometry":{"x":121.4914836107753,"y":25.069414923065068}},{"attributes":{"OBJECTID":4318,"LANDMARKID":"1000100001970","LANDMARKCO":"405","LANDMARKNA":"台亞加油站-三重環河路站（台塑）","LANDMARKAD":"1000102","ADDRESS":"新北市三重區中興南街33之2號","TEL":"(02)8512-4477","COUNTYNAME":"新北市","TOWNNAME":"三重區","MARKTYPE":"994","Class":"4"},"geometry":{"x":121.47065858953871,"y":25.043228013648449}},{"attributes":{"OBJECTID":4319,"LANDMARKID":"1000100001971","LANDMARKCO":"405","LANDMARKNA":"台亞加油站-三重自強路站（台塑）","LANDMARKAD":"1000102","ADDRESS":"新北市三重區自強路四段96號","TEL":"(02)8983-6997","COUNTYNAME":"新北市","TOWNNAME":"三重區","MARKTYPE":"994","Class":"4"},"geometry":{"x":121.49101541271538,"y":25.079528534811228}},{"attributes":{"OBJECTID":4320,"LANDMARKID":"1000100000336","LANDMARKCO":"107","LANDMARKNA":"新北市政府警察局慈福派出所","LANDMARKAD":"1000102","ADDRESS":"新北市三重區碧華里仁愛路519號","TEL":"02-29815111","COUNTYNAME":"新北市","TOWNNAME":"三重區","MARKTYPE":"991","Class":"1"},"geometry":{"x":121.48740958824736,"y":25.082278094269192}},{"attributes":{"OBJECTID":4321,"LANDMARKID":"1000100000337","LANDMARKCO":"107","LANDMARKNA":"新北市政府警察局三重派出所","LANDMARKAD":"1000102","ADDRESS":"新北市三重區光華里重新路一段43號","TEL":"02-29757966","COUNTYNAME":"新北市","TOWNNAME":"三重區","MARKTYPE":"991","Class":"1"},"geometry":{"x":121.50218855591486,"y":25.063988970021477}},{"attributes":{"OBJECTID":4322,"LANDMARKID":"1000100000093","LANDMARKCO":"103","LANDMARKNA":"新北市三重巿衛生所","LANDMARKAD":"1000102","ADDRESS":"新北市三重區中山路2之1號","TEL":"02-29825233","COUNTYNAME":"新北市","TOWNNAME":"三重區","MARKTYPE":"991","Class":"1"},"geometry":{"x":121.49139254300101,"y":25.061183845378714}},{"attributes":{"OBJECTID":4323,"LANDMARKID":"1000100000413","LANDMARKCO":"108","LANDMARKNA":"新北市三重區公所","LANDMARKAD":"1000102","ADDRESS":"新北市三重區中山路10號","TEL":"02-29862345","COUNTYNAME":"新北市","TOWNNAME":"三重區","MARKTYPE":"991","Class":"1"},"geometry":{"x":121.48848734972267,"y":25.061074032208488}},{"attributes":{"OBJECTID":4324,"LANDMARKID":"1000100000094","LANDMARKCO":"103","LANDMARKNA":"新北市三重區市民代表會","LANDMARKAD":"1000102","ADDRESS":"新北市三重區中山路10號2樓","TEL":"02-29830031","COUNTYNAME":"新北市","TOWNNAME":"三重區","MARKTYPE":"991","Class":"1"},"geometry":{"x":121.48848734972267,"y":25.061074032208488}},{"attributes":{"OBJECTID":4325,"LANDMARKID":"1000100000338","LANDMARKCO":"107","LANDMARKNA":"新北市消防局三重分隊","LANDMARKAD":"1000102","ADDRESS":"新北市三重區文化南路44號","TEL":"02-29750105","COUNTYNAME":"新北市","TOWNNAME":"三重區","MARKTYPE":"991","Class":"1"},"geometry":{"x":121.50051718093943,"y":25.060154851502691}},{"attributes":{"OBJECTID":4326,"LANDMARKID":"1000100000339","LANDMARKCO":"107","LANDMARKNA":"新北市消防局重陽分隊","LANDMARKAD":"1000102","ADDRESS":"新北市三重區重陽路一段123號","TEL":"02-29889009","COUNTYNAME":"新北市","TOWNNAME":"三重區","MARKTYPE":"991","Class":"1"},"geometry":{"x":121.48698746839891,"y":25.061128122872155}},{"attributes":{"OBJECTID":4327,"LANDMARKID":"1000100000340","LANDMARKCO":"107","LANDMARKNA":"新北市消防局慈福分隊","LANDMARKAD":"1000102","ADDRESS":"新北市三重區溪尾街301號","TEL":"02-28573550","COUNTYNAME":"新北市","TOWNNAME":"三重區","MARKTYPE":"991","Class":"1"},"geometry":{"x":121.48759960380178,"y":25.083400717412921}},{"attributes":{"OBJECTID":4328,"LANDMARKID":"1000100000341","LANDMARKCO":"107","LANDMARKNA":"新北市消防局二重分隊","LANDMARKAD":"1000102","ADDRESS":"新北市三重區中興北街225號","TEL":"02-29959720","COUNTYNAME":"新北市","TOWNNAME":"三重區","MARKTYPE":"991","Class":"1"},"geometry":{"x":121.46911514832848,"y":25.058564606549083}},{"attributes":{"OBJECTID":4329,"LANDMARKID":"1000100000342","LANDMARKCO":"107","LANDMARKNA":"新北市政府警察局三重分局","LANDMARKAD":"1000102","ADDRESS":"新北市三重區重新路三段147號","TEL":"02-89818900","COUNTYNAME":"新北市","TOWNNAME":"三重區","MARKTYPE":"991","Class":"1"},"geometry":{"x":121.49013625890622,"y":25.059050235218319}},{"attributes":{"OBJECTID":4330,"LANDMARKID":"1000100000343","LANDMARKCO":"107","LANDMARKNA":"新北市政府警察局永福派出所","LANDMARKAD":"1000102","ADDRESS":"新北市三重區永福里力行路二段162巷53號","TEL":"02-22802067","COUNTYNAME":"新北市","TOWNNAME":"三重區","MARKTYPE":"991","Class":"1"},"geometry":{"x":121.4814460101223,"y":25.076527086921889}},{"attributes":{"OBJECTID":4331,"LANDMARKID":"1000100000344","LANDMARKCO":"107","LANDMARKNA":"新北市政府警察局中興橋派出所","LANDMARKAD":"1000102","ADDRESS":"新北市三重區成功里成功路21號","TEL":"02-29789513","COUNTYNAME":"新北市","TOWNNAME":"三重區","MARKTYPE":"991","Class":"1"},"geometry":{"x":121.49017040407027,"y":25.050486068705379}},{"attributes":{"OBJECTID":4332,"LANDMARKID":"1000100000345","LANDMARKCO":"107","LANDMARKNA":"新北市政府警察局光明派出所","LANDMARKAD":"1000102","ADDRESS":"新北市三重區過田里過圳街46號","TEL":"02-29860655","COUNTYNAME":"新北市","TOWNNAME":"三重區","MARKTYPE":"991","Class":"1"},"geometry":{"x":121.48730868713552,"y":25.06084574093796}},{"attributes":{"OBJECTID":4333,"LANDMARKID":"1000100000346","LANDMARKCO":"107","LANDMARKNA":"新北市政府警察局厚德派出所","LANDMARKAD":"1000102","ADDRESS":"新北市三重區厚德里三和路三段186號","TEL":"02-29712064","COUNTYNAME":"新北市","TOWNNAME":"三重區","MARKTYPE":"991","Class":"1"},"geometry":{"x":121.49210982792896,"y":25.073430341081433}},{"attributes":{"OBJECTID":4334,"LANDMARKID":"1000100000347","LANDMARKCO":"107","LANDMARKNA":"新北市政府警察局長泰派出所","LANDMARKAD":"1000102","ADDRESS":"新北市三重區長安里三和路二段152號","TEL":"02-29735094","COUNTYNAME":"新北市","TOWNNAME":"三重區","MARKTYPE":"991","Class":"1"},"geometry":{"x":121.4993428261208,"y":25.068335070585391}},{"attributes":{"OBJECTID":4335,"LANDMARKID":"1000100000348","LANDMARKCO":"107","LANDMARKNA":"新北市政府警察局大同派出所","LANDMARKAD":"1000102","ADDRESS":"新北市三重區同安里大同南路155號","TEL":"02-29736110","COUNTYNAME":"新北市","TOWNNAME":"三重區","MARKTYPE":"991","Class":"1"},"geometry":{"x":121.49659838269434,"y":25.056554398261284}},{"attributes":{"OBJECTID":4336,"LANDMARKID":"1000100000349","LANDMARKCO":"107","LANDMARKNA":"新北市政府警察局二重派出所","LANDMARKAD":"1000102","ADDRESS":"新北市三重區五谷里重新路五段406號","TEL":"02-29956794","COUNTYNAME":"新北市","TOWNNAME":"三重區","MARKTYPE":"991","Class":"1"},"geometry":{"x":121.47592202902395,"y":25.047529205468134}},{"attributes":{"OBJECTID":4337,"LANDMARKID":"1000100000350","LANDMARKCO":"107","LANDMARKNA":"新北市政府警察局大有派出所","LANDMARKAD":"1000102","ADDRESS":"新北市三重區大有里中正北路402號之1","TEL":"02-89851911","COUNTYNAME":"新北市","TOWNNAME":"三重區","MARKTYPE":"991","Class":"1"},"geometry":{"x":121.47559192566402,"y":25.07037012129349}},{"attributes":{"OBJECTID":4338,"LANDMARKID":"1000100000152","LANDMARKCO":"106","LANDMARKNA":"新北市三重區戶政事務所","LANDMARKAD":"1000102","ADDRESS":"新北市三重區過田里6鄰中山路8號5~6樓","TEL":"02-29812291","COUNTYNAME":"新北市","TOWNNAME":"三重區","MARKTYPE":"991","Class":"1"},"geometry":{"x":121.48920585634798,"y":25.061138101058383}},{"attributes":{"OBJECTID":4339,"LANDMARKID":"1000100000153","LANDMARKCO":"106","LANDMARKNA":"新北市三重區戶政事務所溪美辦事處","LANDMARKAD":"1000102","ADDRESS":"新北市三重區溪美里8鄰溪尾街73號2樓","TEL":"02-29810909","COUNTYNAME":"新北市","TOWNNAME":"三重區","MARKTYPE":"991","Class":"1"},"geometry":{"x":121.49059817555985,"y":25.077850587276256}},{"attributes":{"OBJECTID":4340,"LANDMARKID":"1000100000138","LANDMARKCO":"105","LANDMARKNA":"新北市三重地政事務所","LANDMARKAD":"1000102","ADDRESS":"新北市三重區中山路4號","TEL":"02-29886336","COUNTYNAME":"新北市","TOWNNAME":"三重區","MARKTYPE":"991","Class":"1"},"geometry":{"x":121.49021598756353,"y":25.061235576664018}},{"attributes":{"OBJECTID":4341,"LANDMARKID":"1000100000127","LANDMARKCO":"104","LANDMARKNA":"北區國稅局三重稽徵所第一辦公","LANDMARKAD":"1000102","ADDRESS":"新北市三重區重新路4段12號6樓","TEL":"02-29776868","COUNTYNAME":"新北市","TOWNNAME":"三重區","MARKTYPE":"991","Class":"1"},"geometry":{"x":121.48876648361764,"y":25.057745645539654}},{"attributes":{"OBJECTID":4342,"LANDMARKID":"1000100000011","LANDMARKCO":"101","LANDMARKNA":"台灣板橋地方法院三重簡易庭","LANDMARKAD":"1000102","ADDRESS":"新北市三重區重新路三段145號","TEL":"02-29710166","COUNTYNAME":"新北市","TOWNNAME":"三重區","MARKTYPE":"991","Class":"1"},"geometry":{"x":121.49042969208014,"y":25.059344496982028}},{"attributes":{"OBJECTID":4343,"LANDMARKID":"1000100000012","LANDMARKCO":"101","LANDMARKNA":"職業訓練局三重就業服務站","LANDMARKAD":"1000102","ADDRESS":"新北市三重區重新路四段12號","TEL":"02-29767157","COUNTYNAME":"新北市","TOWNNAME":"三重區","MARKTYPE":"991","Class":"1"},"geometry":{"x":121.48876648361764,"y":25.057745645539654}},{"attributes":{"OBJECTID":4344,"LANDMARKID":"1000100000092","LANDMARKCO":"103","LANDMARKNA":"新北市政府三重勞工中心","LANDMARKAD":"1000102","ADDRESS":"新北市三重區中山路8號7樓?10樓","TEL":"02-29816127","COUNTYNAME":"新北市","TOWNNAME":"三重區","MARKTYPE":"991","Class":"1"},"geometry":{"x":121.48920585634798,"y":25.061138101058383}},{"attributes":{"OBJECTID":4345,"LANDMARKID":"1000100000843","LANDMARKCO":"204","LANDMARKNA":"新北市立圖書館三重分館","LANDMARKAD":"1000102","ADDRESS":"新北市三重區自強路一段158號","TEL":" ","COUNTYNAME":"新北市","TOWNNAME":"三重區","MARKTYPE":"992","Class":"2"},"geometry":{"x":121.49567920383284,"y":25.066218083140601}},{"attributes":{"OBJECTID":4346,"LANDMARKID":"1000100000844","LANDMARKCO":"204","LANDMARKNA":"新北市立圖書館三重田中分館","LANDMARKAD":"1000102","ADDRESS":"新北市三重區忠孝路三段40巷51號","TEL":" ","COUNTYNAME":"新北市","TOWNNAME":"三重區","MARKTYPE":"992","Class":"2"},"geometry":{"x":121.48108047132311,"y":25.066246333229767}},{"attributes":{"OBJECTID":4347,"LANDMARKID":"1000100000845","LANDMARKCO":"204","LANDMARKNA":"新北市立圖書館三重五常分館","LANDMARKAD":"1000102","ADDRESS":"新北市三重區五華街7巷30號2樓","TEL":" ","COUNTYNAME":"新北市","TOWNNAME":"三重區","MARKTYPE":"992","Class":"2"},"geometry":{"x":121.49674971259977,"y":25.079949423208859}},{"attributes":{"OBJECTID":4348,"LANDMARKID":"1000100000846","LANDMARKCO":"204","LANDMARKNA":"新北市立圖書館崇德分館","LANDMARKAD":"1000102","ADDRESS":"新北市三重區仁孝街62號2樓","TEL":" ","COUNTYNAME":"新北市","TOWNNAME":"三重區","MARKTYPE":"992","Class":"2"},"geometry":{"x":121.49657046020259,"y":25.074061159917495}},{"attributes":{"OBJECTID":4349,"LANDMARKID":"1000100000468","LANDMARKCO":"202","LANDMARKNA":"國立三重高中","LANDMARKAD":"1000102","ADDRESS":"新北市三重區三信路1號","TEL":"02-29866186","COUNTYNAME":"新北市","TOWNNAME":"三重區","MARKTYPE":"992","Class":"2"},"geometry":{"x":121.49113194269488,"y":25.085512785419013}},{"attributes":{"OBJECTID":4350,"LANDMARKID":"1000100000469","LANDMARKCO":"202","LANDMARKNA":"私立金陵女中","LANDMARKAD":"1000102","ADDRESS":"新北市三重區重新路五段656號","TEL":"02-29958136","COUNTYNAME":"新北市","TOWNNAME":"三重區","MARKTYPE":"992","Class":"2"},"geometry":{"x":121.46669261189722,"y":25.042173744211414}},{"attributes":{"OBJECTID":4351,"LANDMARKID":"1000100000470","LANDMARKCO":"202","LANDMARKNA":"私立東海高中","LANDMARKAD":"1000102","ADDRESS":"新北市三重區頂崁街73之1號","TEL":"02-29713213","COUNTYNAME":"新北市","TOWNNAME":"三重區","MARKTYPE":"992","Class":"2"},"geometry":{"x":121.47865428946409,"y":25.064793521954037}},{"attributes":{"OBJECTID":4352,"LANDMARKID":"1000100000736","LANDMARKCO":"203","LANDMARKNA":"縣立碧華國中","LANDMARKAD":"1000102","ADDRESS":"新北市三重區自強路五段66號","TEL":"02-29851121","COUNTYNAME":"新北市","TOWNNAME":"三重區","MARKTYPE":"992","Class":"2"},"geometry":{"x":121.49441113824489,"y":25.082611202998979}},{"attributes":{"OBJECTID":4353,"LANDMARKID":"1000100000737","LANDMARKCO":"203","LANDMARKNA":"縣立明志國中","LANDMARKAD":"1000102","ADDRESS":"新北市三重區明志街135號","TEL":"02-29812470","COUNTYNAME":"新北市","TOWNNAME":"三重區","MARKTYPE":"992","Class":"2"},"geometry":{"x":121.48883916253152,"y":25.064212513510086}},{"attributes":{"OBJECTID":4354,"LANDMARKID":"1000100000471","LANDMARKCO":"202","LANDMARKNA":"縣立三重中學","LANDMARKAD":"1000102","ADDRESS":"新北市三重區集美街212號","TEL":"02-29777156","COUNTYNAME":"新北市","TOWNNAME":"三重區","MARKTYPE":"992","Class":"2"},"geometry":{"x":121.49148018916688,"y":25.054684591510437}},{"attributes":{"OBJECTID":4355,"LANDMARKID":"1000100000472","LANDMARKCO":"202","LANDMARKNA":"私立格致高中","LANDMARKAD":"1000102","ADDRESS":"新北市三重區大智街260號","TEL":"02-29712954","COUNTYNAME":"新北市","TOWNNAME":"三重區","MARKTYPE":"992","Class":"2"},"geometry":{"x":121.48873334286083,"y":25.073830680500272}},{"attributes":{"OBJECTID":4356,"LANDMARKID":"1000100000473","LANDMARKCO":"202","LANDMARKNA":"私立清傳高商","LANDMARKAD":"1000102","ADDRESS":"新北市三重區五谷王北街141巷1號","TEL":"02-29955535","COUNTYNAME":"新北市","TOWNNAME":"三重區","MARKTYPE":"992","Class":"2"},"geometry":{"x":121.47687611923077,"y":25.0520298777801}},{"attributes":{"OBJECTID":4357,"LANDMARKID":"1000100000474","LANDMARKCO":"202","LANDMARKNA":"國立三重商工","LANDMARKAD":"1000102","ADDRESS":"新北市三重區中正北路163號","TEL":"02-29718545","COUNTYNAME":"新北市","TOWNNAME":"三重區","MARKTYPE":"992","Class":"2"},"geometry":{"x":121.48007376757511,"y":25.069641199837001}},{"attributes":{"OBJECTID":4358,"LANDMARKID":"1000100000475","LANDMARKCO":"202","LANDMARKNA":"私立東海高中","LANDMARKAD":"1000102","ADDRESS":"新北市三重區忠孝路三段93巷12號","TEL":"02-29713213","COUNTYNAME":"新北市","TOWNNAME":"三重區","MARKTYPE":"992","Class":"2"},"geometry":{"x":121.47861131901819,"y":25.064943380684596}},{"attributes":{"OBJECTID":4359,"LANDMARKID":"1000100000718","LANDMARKCO":"203","LANDMARKNA":"縣立三和國中","LANDMARKAD":"1000102","ADDRESS":"新北市三重區三和路四段216號","TEL":"02-22867991","COUNTYNAME":"新北市","TOWNNAME":"三重區","MARKTYPE":"992","Class":"2"},"geometry":{"x":121.48650841326311,"y":25.07657786204431}},{"attributes":{"OBJECTID":4360,"LANDMARKID":"1000100000719","LANDMARKCO":"203","LANDMARKNA":"縣立光榮國中","LANDMARKAD":"1000102","ADDRESS":"新北市三重區介壽路26號","TEL":"02-29728775","COUNTYNAME":"新北市","TOWNNAME":"三重區","MARKTYPE":"992","Class":"2"},"geometry":{"x":121.49992469125756,"y":25.07044701579359}},{"attributes":{"OBJECTID":4361,"LANDMARKID":"1000100000720","LANDMARKCO":"203","LANDMARKNA":"縣立二重國中","LANDMARKAD":"1000102","ADDRESS":"新北市三重區忠孝路三段89號","TEL":"02-29801761","COUNTYNAME":"新北市","TOWNNAME":"三重區","MARKTYPE":"992","Class":"2"},"geometry":{"x":121.48048582886169,"y":25.065703196403106}},{"attributes":{"OBJECTID":4362,"LANDMARKID":"1000100000721","LANDMARKCO":"203","LANDMARKNA":"縣立明志國中","LANDMARKAD":"1000102","ADDRESS":"[241]新北市三重區中正北路107號","TEL":"02-29844132","COUNTYNAME":"新北市","TOWNNAME":"三重區","MARKTYPE":"992","Class":"2"},"geometry":{"x":121.48906865462907,"y":25.063477560786655}},{"attributes":{"OBJECTID":4363,"LANDMARKID":"1000100000722","LANDMARKCO":"203","LANDMARKNA":"縣立三重國小","LANDMARKAD":"1000102","ADDRESS":"新北市三重區三和路三段1號","TEL":"02-29728576","COUNTYNAME":"新北市","TOWNNAME":"三重區","MARKTYPE":"992","Class":"2"},"geometry":{"x":121.49729646047615,"y":25.070412118272856}},{"attributes":{"OBJECTID":4364,"LANDMARKID":"1000100000723","LANDMARKCO":"203","LANDMARKNA":"縣立興穀國小","LANDMARKAD":"1000102","ADDRESS":"新北市三重區五谷王北街46號","TEL":"02-29952112","COUNTYNAME":"新北市","TOWNNAME":"三重區","MARKTYPE":"992","Class":"2"},"geometry":{"x":121.47547118400652,"y":25.050163470867641}},{"attributes":{"OBJECTID":4365,"LANDMARKID":"1000100000724","LANDMARKCO":"203","LANDMARKNA":"縣立五華國小","LANDMARKAD":"1000102","ADDRESS":"新北市三重區五華街141巷60號","TEL":"02-29892064","COUNTYNAME":"新北市","TOWNNAME":"三重區","MARKTYPE":"992","Class":"2"},"geometry":{"x":121.49345172771102,"y":25.086707770908685}},{"attributes":{"OBJECTID":4366,"LANDMARKID":"1000100000725","LANDMARKCO":"203","LANDMARKNA":"縣立碧華國小","LANDMARKAD":"1000102","ADDRESS":"新北市三重區五華街160號","TEL":"02-28577792","COUNTYNAME":"新北市","TOWNNAME":"三重區","MARKTYPE":"992","Class":"2"},"geometry":{"x":121.49077289864545,"y":25.084398718283285}},{"attributes":{"OBJECTID":4367,"LANDMARKID":"1000100000726","LANDMARKCO":"203","LANDMARKNA":"縣立三光國小","LANDMARKAD":"1000102","ADDRESS":"新北市三重區同安里大同南路157號","TEL":"02-29753308","COUNTYNAME":"新北市","TOWNNAME":"三重區","MARKTYPE":"992","Class":"2"},"geometry":{"x":121.4967481233975,"y":25.056146168855289}},{"attributes":{"OBJECTID":4368,"LANDMARKID":"1000100000727","LANDMARKCO":"203","LANDMARKNA":"縣立二重國小","LANDMARKAD":"1000102","ADDRESS":"新北市三重區二重里大有街10號","TEL":"02-29814309","COUNTYNAME":"新北市","TOWNNAME":"三重區","MARKTYPE":"992","Class":"2"},"geometry":{"x":121.4779750376551,"y":25.065197087717205}},{"attributes":{"OBJECTID":4369,"LANDMARKID":"1000100000728","LANDMARKCO":"203","LANDMARKNA":"縣立重陽國小","LANDMARKAD":"1000102","ADDRESS":"新北市三重區中正北路113號","TEL":"02-29821950","COUNTYNAME":"新北市","TOWNNAME":"三重區","MARKTYPE":"992","Class":"2"},"geometry":{"x":121.48451483676797,"y":25.066302942260286}},{"attributes":{"OBJECTID":4370,"LANDMARKID":"1000100000729","LANDMARKCO":"203","LANDMARKNA":"縣立光榮國小","LANDMARKAD":"1000102","ADDRESS":"新北市三重區介壽路32號","TEL":"02-29754465","COUNTYNAME":"新北市","TOWNNAME":"三重區","MARKTYPE":"992","Class":"2"},"geometry":{"x":121.50132380684786,"y":25.070923457919594}},{"attributes":{"OBJECTID":4371,"LANDMARKID":"1000100000730","LANDMARKCO":"203","LANDMARKNA":"縣立光興國小","LANDMARKAD":"1000102","ADDRESS":"新北市三重區正義南路62號","TEL":"02-29755352","COUNTYNAME":"新北市","TOWNNAME":"三重區","MARKTYPE":"992","Class":"2"},"geometry":{"x":121.49879805681502,"y":25.058957976022295}},{"attributes":{"OBJECTID":4372,"LANDMARKID":"1000100000731","LANDMARKCO":"203","LANDMARKNA":"縣立永福國小","LANDMARKAD":"1000102","ADDRESS":"新北市三重區永福里永福街66號","TEL":"02-22861006","COUNTYNAME":"新北市","TOWNNAME":"三重區","MARKTYPE":"992","Class":"2"},"geometry":{"x":121.48064567973515,"y":25.077007058722376}},{"attributes":{"OBJECTID":4373,"LANDMARKID":"1000100000732","LANDMARKCO":"203","LANDMARKNA":"縣立厚德國小","LANDMARKAD":"1000102","ADDRESS":"新北市三重區忠孝路一段70號","TEL":"02-29868825","COUNTYNAME":"新北市","TOWNNAME":"三重區","MARKTYPE":"992","Class":"2"},"geometry":{"x":121.48873980746126,"y":25.07181363035458}},{"attributes":{"OBJECTID":4374,"LANDMARKID":"1000100000733","LANDMARKCO":"203","LANDMARKNA":"縣立正義國小","LANDMARKAD":"1000102","ADDRESS":"新北市三重區信義西街31號","TEL":"02-29853138","COUNTYNAME":"新北市","TOWNNAME":"三重區","MARKTYPE":"992","Class":"2"},"geometry":{"x":121.49611771212325,"y":25.064438135479755}},{"attributes":{"OBJECTID":4375,"LANDMARKID":"1000100000734","LANDMARKCO":"203","LANDMARKNA":"縣立修德國小","LANDMARKAD":"1000102","ADDRESS":"新北市三重區重陽路三段3號","TEL":"02-29800495","COUNTYNAME":"新北市","TOWNNAME":"三重區","MARKTYPE":"992","Class":"2"},"geometry":{"x":121.48903784775722,"y":25.066188920053861}},{"attributes":{"OBJECTID":4376,"LANDMARKID":"1000100000735","LANDMARKCO":"203","LANDMARKNA":"縣立集美國小","LANDMARKAD":"1000102","ADDRESS":"新北市三重區集美街10號","TEL":"02-29748167","COUNTYNAME":"新北市","TOWNNAME":"三重區","MARKTYPE":"992","Class":"2"},"geometry":{"x":121.48792710104949,"y":25.056461264655972}},{"attributes":{"OBJECTID":4377,"LANDMARKID":"1000100000479","LANDMARKCO":"202","LANDMARKNA":"私立穀保家商","LANDMARKAD":"1000102","ADDRESS":"新北市三重區中正路560巷38號","TEL":"02-29712343","COUNTYNAME":"新北市","TOWNNAME":"三重區","MARKTYPE":"992","Class":"2"},"geometry":{"x":121.47166003936162,"y":25.069235495250922}},{"attributes":{"OBJECTID":4378,"LANDMARKID":"1000100001391","LANDMARKCO":"303","LANDMARKNA":"公六地下停車場","LANDMARKAD":"1000102","ADDRESS":"新北市三重區文化北路","TEL":" ","COUNTYNAME":"新北市","TOWNNAME":"三重區","MARKTYPE":"993","Class":"303"},"geometry":{"x":121.4980771013926,"y":25.068508566265194}},{"attributes":{"OBJECTID":4379,"LANDMARKID":"1000100001555","LANDMARKCO":"308","LANDMARKNA":"國1-三重交流道-北上","LANDMARKAD":"1000102","ADDRESS":"新北市三重區","TEL":" ","COUNTYNAME":"新北市","TOWNNAME":"三重區","MARKTYPE":"993","Class":"308"},"geometry":{"x":121.49664355518856,"y":25.076096364772866}},{"attributes":{"OBJECTID":4380,"LANDMARKID":"1000100001556","LANDMARKCO":"308","LANDMARKNA":"國1-三重交流道-南下","LANDMARKAD":"1000102","ADDRESS":"新北市三重區","TEL":" ","COUNTYNAME":"新北市","TOWNNAME":"三重區","MARKTYPE":"993","Class":"308"},"geometry":{"x":121.49566492942449,"y":25.076226764760495}},{"attributes":{"OBJECTID":4381,"LANDMARKID":"1000100000944","LANDMARKCO":"302","LANDMARKNA":"三重汽車客運公司","LANDMARKAD":"1000102","ADDRESS":"新北市三重區正義北路122號","TEL":" ","COUNTYNAME":"新北市","TOWNNAME":"三重區","MARKTYPE":"993","Class":"302"},"geometry":{"x":121.49683603891343,"y":25.065403677022712}},{"attributes":{"OBJECTID":4382,"LANDMARKID":"1000100000945","LANDMARKCO":"302","LANDMARKNA":"中興大業巴士三重站","LANDMARKAD":"1000102","ADDRESS":"新北市三重區中正北路429號之3","TEL":" ","COUNTYNAME":"新北市","TOWNNAME":"三重區","MARKTYPE":"993","Class":"302"},"geometry":{"x":121.48171755891926,"y":25.074802603641047}},{"attributes":{"OBJECTID":4383,"LANDMARKID":"1000100000946","LANDMARKCO":"302","LANDMARKNA":"國光汽車客運三重站","LANDMARKAD":"1000102","ADDRESS":"新北市三重區國隆里中正北路27號","TEL":" ","COUNTYNAME":"新北市","TOWNNAME":"三重區","MARKTYPE":"993","Class":"302"},"geometry":{"x":121.49230605034521,"y":25.062124179509169}},{"attributes":{"OBJECTID":4384,"LANDMARKID":"1000100000947","LANDMARKCO":"302","LANDMARKNA":"統聯客運-重陽站-自營站","LANDMARKAD":"1000102","ADDRESS":"新北市三重區重陽路四段91號","TEL":"連絡電話:02-298","COUNTYNAME":"新北市","TOWNNAME":"三重區","MARKTYPE":"993","Class":"302"},"geometry":{"x":121.492854503934,"y":25.07123688116668}},{"attributes":{"OBJECTID":4385,"LANDMARKID":"1000100000948","LANDMARKCO":"302","LANDMARKNA":"中興巴士-三重站","LANDMARKAD":"1000102","ADDRESS":"新北市三重區中正北路415號旁","TEL":"(02)2983-1145","COUNTYNAME":"新北市","TOWNNAME":"三重區","MARKTYPE":"993","Class":"302"},"geometry":{"x":121.47122647514709,"y":25.072312563226593}},{"attributes":{"OBJECTID":4386,"LANDMARKID":"1000100000949","LANDMARKCO":"302","LANDMARKNA":"國光汽車客運三重站","LANDMARKAD":"1000102","ADDRESS":"241新北市三重區中正北路27號","TEL":"|","COUNTYNAME":"新北市","TOWNNAME":"三重區","MARKTYPE":"993","Class":"302"},"geometry":{"x":121.4921811007716,"y":25.062355505219877}},{"attributes":{"OBJECTID":4387,"LANDMARKID":"1000100000950","LANDMARKCO":"302","LANDMARKNA":"和欣客運-三重站","LANDMARKAD":"1000102","ADDRESS":"三重區重陽路四段17號","TEL":"(02)8982-3889","COUNTYNAME":"新北市","TOWNNAME":"三重區","MARKTYPE":"993","Class":"302"},"geometry":{"x":121.49131122210029,"y":25.069262520899862}},{"attributes":{"OBJECTID":4388,"LANDMARKID":"1000100000951","LANDMARKCO":"302","LANDMARKNA":"台北客運-總公司","LANDMARKAD":"1000102","ADDRESS":"三重區三和路三段109號二樓之3","TEL":"2982-2886","COUNTYNAME":"新北市","TOWNNAME":"三重區","MARKTYPE":"993","Class":"302"},"geometry":{"x":121.4932433824176,"y":25.07300919819431}},{"attributes":{"OBJECTID":4389,"LANDMARKID":"1000100000952","LANDMARKCO":"302","LANDMARKNA":"日統客運-三重站","LANDMARKAD":"1000102","ADDRESS":"三重區重陽路四段59號","TEL":"02-29841734","COUNTYNAME":"新北市","TOWNNAME":"三重區","MARKTYPE":"993","Class":"302"},"geometry":{"x":121.49220396870908,"y":25.070419260771608}},{"attributes":{"OBJECTID":4390,"LANDMARKID":"1000100001343","LANDMARKCO":"303","LANDMARKNA":"二重國中地下停車場","LANDMARKAD":"1000102","ADDRESS":" ","TEL":" ","COUNTYNAME":"新北市","TOWNNAME":"三重區","MARKTYPE":"993","Class":"303"},"geometry":{"x":121.47803520252155,"y":25.066260270592206}},{"attributes":{"OBJECTID":4391,"LANDMARKID":"1000100001344","LANDMARKCO":"303","LANDMARKNA":"忠孝停車場","LANDMARKAD":"1000102","ADDRESS":" ","TEL":" ","COUNTYNAME":"新北市","TOWNNAME":"三重區","MARKTYPE":"993","Class":"303"},"geometry":{"x":121.48007700488887,"y":25.06358473368886}},{"attributes":{"OBJECTID":4392,"LANDMARKID":"1000100001345","LANDMARKCO":"303","LANDMARKNA":"重新大橋下旁(停車場一)","LANDMARKAD":"1000102","ADDRESS":" ","TEL":" ","COUNTYNAME":"新北市","TOWNNAME":"三重區","MARKTYPE":"993","Class":"303"},"geometry":{"x":121.48056427926457,"y":25.050304146065503}},{"attributes":{"OBJECTID":4393,"LANDMARKID":"1000100001346","LANDMARKCO":"303","LANDMARKNA":"二重疏洪道運動公園停車場","LANDMARKAD":"1000102","ADDRESS":" ","TEL":" ","COUNTYNAME":"新北市","TOWNNAME":"三重區","MARKTYPE":"993","Class":"303"},"geometry":{"x":121.48086619548759,"y":25.049777227050225}},{"attributes":{"OBJECTID":4394,"LANDMARKID":"1000100001347","LANDMARKCO":"303","LANDMARKNA":"重新大橋下旁(停車場四)","LANDMARKAD":"1000102","ADDRESS":" ","TEL":" ","COUNTYNAME":"新北市","TOWNNAME":"三重區","MARKTYPE":"993","Class":"303"},"geometry":{"x":121.48127556285398,"y":25.050626096137272}},{"attributes":{"OBJECTID":4395,"LANDMARKID":"1000100001348","LANDMARKCO":"303","LANDMARKNA":"重新大橋下旁(停車場三)","LANDMARKAD":"1000102","ADDRESS":" ","TEL":" ","COUNTYNAME":"新北市","TOWNNAME":"三重區","MARKTYPE":"993","Class":"303"},"geometry":{"x":121.48228053510633,"y":25.0511382787667}},{"attributes":{"OBJECTID":4396,"LANDMARKID":"1000100001349","LANDMARKCO":"303","LANDMARKNA":"重新大橋下旁(停車場二)","LANDMARKAD":"1000102","ADDRESS":" ","TEL":" ","COUNTYNAME":"新北市","TOWNNAME":"三重區","MARKTYPE":"993","Class":"303"},"geometry":{"x":121.48291486093775,"y":25.051432439304456}},{"attributes":{"OBJECTID":4397,"LANDMARKID":"1000100001350","LANDMARKCO":"303","LANDMARKNA":"聯邦公園地下停車場","LANDMARKAD":"1000102","ADDRESS":"新北市三重區中華路125號","TEL":"02-89827472","COUNTYNAME":"新北市","TOWNNAME":"三重區","MARKTYPE":"993","Class":"303"},"geometry":{"x":121.4842562916028,"y":25.063963091304448}},{"attributes":{"OBJECTID":4398,"LANDMARKID":"1000100001351","LANDMARKCO":"303","LANDMARKNA":"大三重停車場","LANDMARKAD":"1000102","ADDRESS":" ","TEL":" ","COUNTYNAME":"新北市","TOWNNAME":"三重區","MARKTYPE":"993","Class":"303"},"geometry":{"x":121.48536000392608,"y":25.066184467859209}},{"attributes":{"OBJECTID":4399,"LANDMARKID":"1000100001352","LANDMARKCO":"303","LANDMARKNA":"果菜市場停車場","LANDMARKAD":"1000102","ADDRESS":" ","TEL":" ","COUNTYNAME":"新北市","TOWNNAME":"三重區","MARKTYPE":"993","Class":"303"},"geometry":{"x":121.4875582861178,"y":25.067044479495646}},{"attributes":{"OBJECTID":4400,"LANDMARKID":"1000100001353","LANDMARKCO":"303","LANDMARKNA":"重新立體停車場","LANDMARKAD":"1000102","ADDRESS":"新北市三重區重安街1號","TEL":"02-29743181","COUNTYNAME":"新北市","TOWNNAME":"三重區","MARKTYPE":"993","Class":"303"},"geometry":{"x":121.48994543435307,"y":25.058184369689876}}]}