{"displayFieldName":"COUNTYNAME","fieldAliases":{"OBJECTID":"OBJECTID","LANDMARKID":"LANDMARKID","LANDMARKCO":"LANDMARKCO","LANDMARKNA":"LANDMARKNA","LANDMARKAD":"LANDMARKAD","ADDRESS":"ADDRESS","TEL":"TEL","COUNTYNAME":"COUNTYNAME","TOWNNAME":"TOWNNAME","MARKTYPE":"MARKTYPE","Class":"Class"},"geometryType":"esriGeometryPoint","spatialReference":{"wkid":102443},"fields":[{"name":"OBJECTID","type":"esriFieldTypeOID","alias":"OBJECTID"},{"name":"LANDMARKID","type":"esriFieldTypeString","alias":"LANDMARKID","length":15},{"name":"LANDMARKCO","type":"esriFieldTypeString","alias":"LANDMARKCO","length":15},{"name":"LANDMARKNA","type":"esriFieldTypeString","alias":"LANDMARKNA","length":50},{"name":"LANDMARKAD","type":"esriFieldTypeString","alias":"LANDMARKAD","length":15},{"name":"ADDRESS","type":"esriFieldTypeString","alias":"ADDRESS","length":56},{"name":"TEL","type":"esriFieldTypeString","alias":"TEL","length":36},{"name":"COUNTYNAME","type":"esriFieldTypeString","alias":"COUNTYNAME","length":15},{"name":"TOWNNAME","type":"esriFieldTypeString","alias":"TOWNNAME","length":13},{"name":"MARKTYPE","type":"esriFieldTypeString","alias":"MARKTYPE","length":12},{"name":"Class","type":"esriFieldTypeString","alias":"Class","length":5}],"features":[{"attributes":{"OBJECTID":17601,"LANDMARKID":"1000800001033","LANDMARKCO":"603","LANDMARKNA":"金都大旅社","LANDMARKAD":"1000804","ADDRESS":"南投縣竹山鎮中山里竹山路150號","TEL":"049-2642143","COUNTYNAME":"南投縣","TOWNNAME":"竹山鎮","MARKTYPE":"996","Class":"6"},"geometry":{"x":217586.74210000038,"y":2627796.3427000009}},{"attributes":{"OBJECTID":17602,"LANDMARKID":"1000800001034","LANDMARKCO":"603","LANDMARKNA":"竹山旅社","LANDMARKAD":"1000804","ADDRESS":"南投縣竹山鎮中山里竹山路169號","TEL":"049-2653339","COUNTYNAME":"南投縣","TOWNNAME":"竹山鎮","MARKTYPE":"996","Class":"6"},"geometry":{"x":217704.54420000035,"y":2627885.6055999994}},{"attributes":{"OBJECTID":17603,"LANDMARKID":"1000800001035","LANDMARKCO":"603","LANDMARKNA":"新民旅社","LANDMARKAD":"1000804","ADDRESS":"南投縣竹山鎮中山里橫街63號","TEL":"049-2642018","COUNTYNAME":"南投縣","TOWNNAME":"竹山鎮","MARKTYPE":"996","Class":"6"},"geometry":{"x":217706.97109999973,"y":2628001.6095000003}},{"attributes":{"OBJECTID":17604,"LANDMARKID":"1000800001036","LANDMARKCO":"603","LANDMARKNA":"山明大旅社","LANDMARKAD":"1000804","ADDRESS":"南投縣竹山鎮雲林里頂橫街47號","TEL":"049-2642103","COUNTYNAME":"南投縣","TOWNNAME":"竹山鎮","MARKTYPE":"996","Class":"6"},"geometry":{"x":217486.88229999971,"y":2628041.1175999995}},{"attributes":{"OBJECTID":17605,"LANDMARKID":"1000800001037","LANDMARKCO":"603","LANDMARKNA":"振興旅社","LANDMARKAD":"1000804","ADDRESS":"南投縣竹山鎮雲林里橫街89號","TEL":"049-2642113","COUNTYNAME":"南投縣","TOWNNAME":"竹山鎮","MARKTYPE":"996","Class":"6"},"geometry":{"x":217663.80169999972,"y":2628077.5132999998}},{"attributes":{"OBJECTID":17606,"LANDMARKID":"1000800001038","LANDMARKCO":"604","LANDMARKNA":"大鞍吳家古厝民宿","LANDMARKAD":"1000804","ADDRESS":"南投縣竹山鎮大鞍里頂林路570號","TEL":"049-2841047","COUNTYNAME":"南投縣","TOWNNAME":"竹山鎮","MARKTYPE":"996","Class":"6"},"geometry":{"x":221225.4682,"y":2621174.2470999993}},{"attributes":{"OBJECTID":17607,"LANDMARKID":"1000800001039","LANDMARKCO":"604","LANDMARKNA":"竹林民宿","LANDMARKAD":"1000804","ADDRESS":"南投縣竹山鎮山崇里集山路二段201巷47號","TEL":"049-2623919","COUNTYNAME":"南投縣","TOWNNAME":"竹山鎮","MARKTYPE":"996","Class":"6"},"geometry":{"x":220698.42050000001,"y":2632267.2873}},{"attributes":{"OBJECTID":17608,"LANDMARKID":"1000800001040","LANDMARKCO":"604","LANDMARKNA":"江澤休閒民宿","LANDMARKAD":"1000804","ADDRESS":"南投縣竹山鎮竹山里下橫街40-1號","TEL":"049-2658761","COUNTYNAME":"南投縣","TOWNNAME":"竹山鎮","MARKTYPE":"996","Class":"6"},"geometry":{"x":217818.68649999984,"y":2628129.2247000001}},{"attributes":{"OBJECTID":17609,"LANDMARKID":"1000800001041","LANDMARKCO":"604","LANDMARKNA":"農昌民宿","LANDMARKAD":"1000804","ADDRESS":"南投縣竹山鎮竹山里下橫街48-4-1號","TEL":"049-2643377","COUNTYNAME":"南投縣","TOWNNAME":"竹山鎮","MARKTYPE":"996","Class":"6"},"geometry":{"x":217796.60859999992,"y":2628164.1756999996}},{"attributes":{"OBJECTID":17610,"LANDMARKID":"1000800001042","LANDMARKCO":"604","LANDMARKNA":"富御民宿","LANDMARKAD":"1000804","ADDRESS":"南投縣竹山鎮大鞍里頂林路589號","TEL":"049-2841161","COUNTYNAME":"南投縣","TOWNNAME":"竹山鎮","MARKTYPE":"996","Class":"6"},"geometry":{"x":222674.85790000018,"y":2619440.3025000002}},{"attributes":{"OBJECTID":17611,"LANDMARKID":"1000800001043","LANDMARKCO":"604","LANDMARKNA":"大書櫃民宿","LANDMARKAD":"1000804","ADDRESS":"南投縣竹山鎮大鞍里頂林路562-2號","TEL":"049-2841158","COUNTYNAME":"南投縣","TOWNNAME":"竹山鎮","MARKTYPE":"996","Class":"6"},"geometry":{"x":221087.44940000027,"y":2621490.5377999991}},{"attributes":{"OBJECTID":17612,"LANDMARKID":"1000800001044","LANDMARKCO":"604","LANDMARKNA":"大鞍山林瓦舍","LANDMARKAD":"1000804","ADDRESS":"南投縣竹山鎮大鞍里頂林路443號","TEL":"049-2841173","COUNTYNAME":"南投縣","TOWNNAME":"竹山鎮","MARKTYPE":"996","Class":"6"},"geometry":{"x":221100.41779999994,"y":2621506.5636}},{"attributes":{"OBJECTID":17613,"LANDMARKID":"1000800001045","LANDMARKCO":"604","LANDMARKNA":"彩虹屋","LANDMARKAD":"1000804","ADDRESS":"南投縣竹山鎮桂林里中正巷23-5號","TEL":"049-2651917","COUNTYNAME":"南投縣","TOWNNAME":"竹山鎮","MARKTYPE":"996","Class":"6"},"geometry":{"x":218928.37359999958,"y":2627970.1695000008}},{"attributes":{"OBJECTID":17614,"LANDMARKID":"1000800001046","LANDMARKCO":"604","LANDMARKNA":"隱竹別院","LANDMARKAD":"1000804","ADDRESS":"南投縣竹山鎮富州里富州巷31號","TEL":"049-2623928","COUNTYNAME":"南投縣","TOWNNAME":"竹山鎮","MARKTYPE":"996","Class":"6"},"geometry":{"x":224268.82270000037,"y":2634227.0512000006}},{"attributes":{"OBJECTID":17615,"LANDMARKID":"1000800000840","LANDMARKCO":"503","LANDMARKNA":"瑞龍瀑布","LANDMARKAD":"1000804","ADDRESS":"南投縣竹山鎮","TEL":" ","COUNTYNAME":"南投縣","TOWNNAME":"竹山鎮","MARKTYPE":"995","Class":"5"},"geometry":{"x":218847.39070000034,"y":2617571.0721000005}},{"attributes":{"OBJECTID":17616,"LANDMARKID":"1000800000850","LANDMARKCO":"504","LANDMARKNA":"杉林溪森林遊樂區","LANDMARKAD":"1000804","ADDRESS":"南投縣竹山鎮大鞍里溪山路6號","TEL":" ","COUNTYNAME":"南投縣","TOWNNAME":"竹山鎮","MARKTYPE":"995","Class":"5"},"geometry":{"x":228821.89890000038,"y":2615112.8568999991}},{"attributes":{"OBJECTID":17617,"LANDMARKID":"1000800000726","LANDMARKCO":"405","LANDMARKNA":"中油加油站-新中橫站","LANDMARKAD":"1000812","ADDRESS":"南投縣信義鄉羅娜村信筆巷182-1號","TEL":"049-2831616","COUNTYNAME":"南投縣","TOWNNAME":"信義鄉","MARKTYPE":"994","Class":"4"},"geometry":{"x":236359.60199999996,"y":2613590.2623999994}},{"attributes":{"OBJECTID":17618,"LANDMARKID":"1000800000727","LANDMARKCO":"405","LANDMARKNA":"中油加油站-信義站(中油直營)","LANDMARKAD":"1000812","ADDRESS":"南投縣信義鄉明德村玉山路116號","TEL":"049-2791837","COUNTYNAME":"南投縣","TOWNNAME":"信義鄉","MARKTYPE":"994","Class":"4"},"geometry":{"x":235704.50690000039,"y":2620638.1500000004}},{"attributes":{"OBJECTID":17619,"LANDMARKID":"1000800000878","LANDMARKCO":"507","LANDMARKNA":"八通關古道","LANDMARKAD":"1000812","ADDRESS":"南投縣信義鄉","TEL":" ","COUNTYNAME":"南投縣","TOWNNAME":"信義鄉","MARKTYPE":"995","Class":"5"},"geometry":{"x":250217.72670000046,"y":2599064.6143999994}},{"attributes":{"OBJECTID":17620,"LANDMARKID":"1000800000879","LANDMARKCO":"507","LANDMARKNA":"楠仔腳蔓社學堂遺蹟","LANDMARKAD":"1000812","ADDRESS":"南投縣信義鄉望美村部落","TEL":" ","COUNTYNAME":"南投縣","TOWNNAME":"信義鄉","MARKTYPE":"995","Class":"5"},"geometry":{"x":237303.79030000046,"y":2617656.4366999995}},{"attributes":{"OBJECTID":17621,"LANDMARKID":"1000800000876","LANDMARKCO":"506","LANDMARKNA":"豐丘葡萄觀光果園","LANDMARKAD":"1000812","ADDRESS":"南投縣信義鄉豐丘村敦福路136號","TEL":"049-2791178","COUNTYNAME":"南投縣","TOWNNAME":"信義鄉","MARKTYPE":"995","Class":"5"},"geometry":{"x":237029.22499999963,"y":2618620.7979000006}},{"attributes":{"OBJECTID":17622,"LANDMARKID":"1000800000877","LANDMARKCO":"506","LANDMARKNA":"信義鄉玉山觀光茶園","LANDMARKAD":"1000812","ADDRESS":"南投縣信義鄉明德村明德街29號","TEL":"049-2792300","COUNTYNAME":"南投縣","TOWNNAME":"信義鄉","MARKTYPE":"995","Class":"5"},"geometry":{"x":239717.31859999988,"y":2614109.2019999996}},{"attributes":{"OBJECTID":17623,"LANDMARKID":"1000800000795","LANDMARKCO":"408","LANDMARKNA":"郵局-信義郵局","LANDMARKAD":"1000812","ADDRESS":"南投縣信義鄉玉山路44號","TEL":"(049)2791-257","COUNTYNAME":"南投縣","TOWNNAME":"信義鄉","MARKTYPE":"994","Class":"4"},"geometry":{"x":235117.17669999972,"y":2621478.1513}},{"attributes":{"OBJECTID":17624,"LANDMARKID":"1000800000796","LANDMARKCO":"408","LANDMARKNA":"郵局-信義和社郵局","LANDMARKAD":"1000812","ADDRESS":"南投縣信義鄉同和巷72-7號","TEL":"(049)2701-172","COUNTYNAME":"南投縣","TOWNNAME":"信義鄉","MARKTYPE":"994","Class":"4"},"geometry":{"x":238731.00239999965,"y":2609742.5672999993}},{"attributes":{"OBJECTID":17625,"LANDMARKID":"1000800000797","LANDMARKCO":"409","LANDMARKNA":"南投縣信義鄉農會","LANDMARKAD":"1000812","ADDRESS":"南投縣信義鄉明德村明德街29號","TEL":"049-2792689","COUNTYNAME":"南投縣","TOWNNAME":"信義鄉","MARKTYPE":"994","Class":"4"},"geometry":{"x":234952.77099999972,"y":2621416.8409000002}},{"attributes":{"OBJECTID":17626,"LANDMARKID":"1000800000728","LANDMARKCO":"406","LANDMARKNA":"鹿林山自然公園","LANDMARKAD":"1000812","ADDRESS":"南投縣信義鄉","TEL":" ","COUNTYNAME":"南投縣","TOWNNAME":"信義鄉","MARKTYPE":"994","Class":"4"},"geometry":{"x":238102.3013000004,"y":2597194.0320999995}},{"attributes":{"OBJECTID":17627,"LANDMARKID":"1000800000244","LANDMARKCO":"108","LANDMARKNA":"南投縣信義鄉公所","LANDMARKAD":"1000812","ADDRESS":"南投縣信義鄉明德村玉山路47號","TEL":"049-2791515","COUNTYNAME":"南投縣","TOWNNAME":"信義鄉","MARKTYPE":"991","Class":"1"},"geometry":{"x":235246.69510000013,"y":2621800.2741999999}},{"attributes":{"OBJECTID":17628,"LANDMARKID":"1000800000048","LANDMARKCO":"103","LANDMARKNA":"南投縣信義鄉民代表會","LANDMARKAD":"1000812","ADDRESS":"南投縣信義鄉玉山路47號之1","TEL":"049-2791009","COUNTYNAME":"南投縣","TOWNNAME":"信義鄉","MARKTYPE":"991","Class":"1"},"geometry":{"x":235151.74670000002,"y":2621440.1777999997}},{"attributes":{"OBJECTID":17629,"LANDMARKID":"1000800000049","LANDMARKCO":"103","LANDMARKNA":"南投縣信義鄉衛生所","LANDMARKAD":"1000812","ADDRESS":"南投縣信義鄉明德村玉山路45號","TEL":"049-2791148","COUNTYNAME":"南投縣","TOWNNAME":"信義鄉","MARKTYPE":"991","Class":"1"},"geometry":{"x":235188.82880000025,"y":2621360.2157000005}},{"attributes":{"OBJECTID":17630,"LANDMARKID":"1000800000123","LANDMARKCO":"107","LANDMARKNA":"南投縣消防局信義消防分隊","LANDMARKAD":"1000812","ADDRESS":"南投縣信義鄉明德街50號","TEL":"049-2791760","COUNTYNAME":"南投縣","TOWNNAME":"信義鄉","MARKTYPE":"991","Class":"1"},"geometry":{"x":235591.94199999981,"y":2621250.0467000008}},{"attributes":{"OBJECTID":17631,"LANDMARKID":"1000800000124","LANDMARKCO":"107","LANDMARKNA":"南投縣政府警察局信義分局","LANDMARKAD":"1000812","ADDRESS":"南投縣信義鄉明德村玉山路49號","TEL":"049-2791260","COUNTYNAME":"南投縣","TOWNNAME":"信義鄉","MARKTYPE":"991","Class":"1"},"geometry":{"x":235509.82220000029,"y":2621370.2493999992}},{"attributes":{"OBJECTID":17632,"LANDMARKID":"1000800000125","LANDMARKCO":"107","LANDMARKNA":"南投縣政府警察局信義派出所","LANDMARKAD":"1000812","ADDRESS":"南投縣信義鄉明德村玉山路49號","TEL":"049-2791261","COUNTYNAME":"南投縣","TOWNNAME":"信義鄉","MARKTYPE":"991","Class":"1"},"geometry":{"x":235509.82220000029,"y":2621370.2493999992}},{"attributes":{"OBJECTID":17633,"LANDMARKID":"1000800000112","LANDMARKCO":"106","LANDMARKNA":"南投縣信義鄉戶政事務所","LANDMARKAD":"1000812","ADDRESS":"南投縣信義鄉明德村4鄰玉山路19號","TEL":"049-2791262","COUNTYNAME":"南投縣","TOWNNAME":"信義鄉","MARKTYPE":"991","Class":"1"},"geometry":{"x":235499.79220000003,"y":2621400.2393999994}},{"attributes":{"OBJECTID":17634,"LANDMARKID":"1000800000113","LANDMARKCO":"107","LANDMARKNA":"南投縣政府警察局久美派出所","LANDMARKAD":"1000812","ADDRESS":"南投縣信義鄉望美村美信巷55號","TEL":"049-2831472","COUNTYNAME":"南投縣","TOWNNAME":"信義鄉","MARKTYPE":"991","Class":"1"},"geometry":{"x":238976.80549999978,"y":2611910.0319999997}},{"attributes":{"OBJECTID":17635,"LANDMARKID":"1000800000114","LANDMARKCO":"107","LANDMARKNA":"南投縣警察局潭南派出所","LANDMARKAD":"1000812","ADDRESS":"南投縣信義鄉潭南村和平巷47號","TEL":"049-2741264","COUNTYNAME":"南投縣","TOWNNAME":"信義鄉","MARKTYPE":"991","Class":"1"},"geometry":{"x":244158.95089999959,"y":2635150.0495999996}},{"attributes":{"OBJECTID":17636,"LANDMARKID":"1000800000115","LANDMARKCO":"107","LANDMARKNA":"南投縣警察局豐丘派出所","LANDMARKAD":"1000812","ADDRESS":"南投縣信義鄉豐丘村高平巷8號","TEL":"049-2791583","COUNTYNAME":"南投縣","TOWNNAME":"信義鄉","MARKTYPE":"991","Class":"1"},"geometry":{"x":237303.96420000028,"y":2618770.0547000002}},{"attributes":{"OBJECTID":17637,"LANDMARKID":"1000800000116","LANDMARKCO":"107","LANDMARKNA":"南投縣政府警察局新鄉派出所","LANDMARKAD":"1000812","ADDRESS":"南投縣信義鄉新鄉村新鄉路105號","TEL":"049-2831595","COUNTYNAME":"南投縣","TOWNNAME":"信義鄉","MARKTYPE":"991","Class":"1"},"geometry":{"x":237429.86639999971,"y":2615500.1664000005}},{"attributes":{"OBJECTID":17638,"LANDMARKID":"1000800000117","LANDMARKCO":"107","LANDMARKNA":"南投縣政府警察局東埔派出所","LANDMARKAD":"1000812","ADDRESS":"南投縣信義鄉東埔村開高巷56號","TEL":"049-2701321","COUNTYNAME":"南投縣","TOWNNAME":"信義鄉","MARKTYPE":"991","Class":"1"},"geometry":{"x":242155.9550999999,"y":2607120.0592999998}},{"attributes":{"OBJECTID":17639,"LANDMARKID":"1000800000118","LANDMARKCO":"107","LANDMARKNA":"南投縣警察局雙龍派出所","LANDMARKAD":"1000812","ADDRESS":"南投縣信義鄉雙龍村光復巷33號","TEL":"049-2741321","COUNTYNAME":"南投縣","TOWNNAME":"信義鄉","MARKTYPE":"991","Class":"1"},"geometry":{"x":245099.91420000046,"y":2631590.0754000004}},{"attributes":{"OBJECTID":17640,"LANDMARKID":"1000800000119","LANDMARKCO":"107","LANDMARKNA":"南投縣警察局羅娜派出所","LANDMARKAD":"1000812","ADDRESS":"南投縣信義鄉羅娜村信筆巷66號","TEL":"049-2831471","COUNTYNAME":"南投縣","TOWNNAME":"信義鄉","MARKTYPE":"991","Class":"1"},"geometry":{"x":238547.77869999968,"y":2612550.1416999996}},{"attributes":{"OBJECTID":17641,"LANDMARKID":"1000800000120","LANDMARKCO":"107","LANDMARKNA":"南投縣政府警察局人倫派出所","LANDMARKAD":"1000812","ADDRESS":"南投縣信義鄉人和村民生巷10號","TEL":"049-2770310","COUNTYNAME":"南投縣","TOWNNAME":"信義鄉","MARKTYPE":"991","Class":"1"},"geometry":{"x":239397.96669999976,"y":2630770.1226000004}},{"attributes":{"OBJECTID":17642,"LANDMARKID":"1000800000121","LANDMARKCO":"107","LANDMARKNA":"南投縣政府警察局青雲派出所","LANDMARKAD":"1000812","ADDRESS":"南投縣信義鄉地利村開信巷14號","TEL":"049-2741142","COUNTYNAME":"南投縣","TOWNNAME":"信義鄉","MARKTYPE":"991","Class":"1"},"geometry":{"x":244363.96879999992,"y":2632340.0177999996}},{"attributes":{"OBJECTID":17643,"LANDMARKID":"1000800000122","LANDMARKCO":"107","LANDMARKNA":"南投縣政府警察局和社派出所","LANDMARKAD":"1000812","ADDRESS":"南投縣信義鄉同富村同和巷6號","TEL":"049-2701304","COUNTYNAME":"南投縣","TOWNNAME":"信義鄉","MARKTYPE":"991","Class":"1"},"geometry":{"x":238749.95139999967,"y":2609870.0774000008}},{"attributes":{"OBJECTID":17644,"LANDMARKID":"1000800000047","LANDMARKCO":"101","LANDMARKNA":"公路總局新中橫監工站","LANDMARKAD":"1000812","ADDRESS":"南投縣信義鄉","TEL":" ","COUNTYNAME":"南投縣","TOWNNAME":"信義鄉","MARKTYPE":"991","Class":"1"},"geometry":{"x":241299.95000000019,"y":2604660.0625}},{"attributes":{"OBJECTID":17645,"LANDMARKID":"1000800000450","LANDMARKCO":"204","LANDMARKNA":"南投縣立圖書館信義分館","LANDMARKAD":"1000812","ADDRESS":"南投縣信義鄉明德村玉山路4之2號","TEL":" ","COUNTYNAME":"南投縣","TOWNNAME":"信義鄉","MARKTYPE":"992","Class":"2"},"geometry":{"x":235087.69739999995,"y":2621535.8807999995}},{"attributes":{"OBJECTID":17646,"LANDMARKID":"1000800000429","LANDMARKCO":"203","LANDMARKNA":"縣立信義國中","LANDMARKAD":"1000812","ADDRESS":"南投縣信義鄉明德村玉山路20號","TEL":"049-2791129","COUNTYNAME":"南投縣","TOWNNAME":"信義鄉","MARKTYPE":"992","Class":"2"},"geometry":{"x":235059.75549999997,"y":2621430.0835999995}},{"attributes":{"OBJECTID":17647,"LANDMARKID":"1000800000430","LANDMARKCO":"203","LANDMARKNA":"縣立信義國小","LANDMARKAD":"1000812","ADDRESS":"南投縣信義鄉明德村玉山路24號","TEL":"049-2791263","COUNTYNAME":"南投縣","TOWNNAME":"信義鄉","MARKTYPE":"992","Class":"2"},"geometry":{"x":235161.93840000033,"y":2621560.1878999993}},{"attributes":{"OBJECTID":17648,"LANDMARKID":"1000800000431","LANDMARKCO":"203","LANDMARKNA":"縣立同富國中","LANDMARKAD":"1000812","ADDRESS":"南投縣信義鄉同富村同和巷7號","TEL":"049-2701317","COUNTYNAME":"南投縣","TOWNNAME":"信義鄉","MARKTYPE":"992","Class":"2"},"geometry":{"x":238480.92489999998,"y":2610210.0902999993}},{"attributes":{"OBJECTID":17649,"LANDMARKID":"1000800000432","LANDMARKCO":"203","LANDMARKNA":"縣立雙龍國小","LANDMARKAD":"1000812","ADDRESS":"南投縣信義鄉雙龍村光復巷4號","TEL":"049-2741325","COUNTYNAME":"南投縣","TOWNNAME":"信義鄉","MARKTYPE":"992","Class":"2"},"geometry":{"x":244937.91930000018,"y":2631260.0197000001}},{"attributes":{"OBJECTID":17650,"LANDMARKID":"1000800000433","LANDMARKCO":"203","LANDMARKNA":"縣立豐丘國小","LANDMARKAD":"1000812","ADDRESS":"南投縣信義鄉豐丘村高平巷77號","TEL":"049-2791723","COUNTYNAME":"南投縣","TOWNNAME":"信義鄉","MARKTYPE":"992","Class":"2"},"geometry":{"x":237236.90479999967,"y":2618530.2473000009}},{"attributes":{"OBJECTID":17651,"LANDMARKID":"1000800000434","LANDMARKCO":"203","LANDMARKNA":"縣立新鄉國小","LANDMARKAD":"1000812","ADDRESS":"南投縣信義鄉新鄉村新鄉路80號","TEL":"049-2831591","COUNTYNAME":"南投縣","TOWNNAME":"信義鄉","MARKTYPE":"992","Class":"2"},"geometry":{"x":236669.90689999983,"y":2615140.2600999996}},{"attributes":{"OBJECTID":17652,"LANDMARKID":"1000800000435","LANDMARKCO":"203","LANDMARKNA":"縣立潭南國小","LANDMARKAD":"1000812","ADDRESS":"南投縣信義鄉潭南村和平巷49號","TEL":"049-2741381","COUNTYNAME":"南投縣","TOWNNAME":"信義鄉","MARKTYPE":"992","Class":"2"},"geometry":{"x":243932.90710000042,"y":2635250.0756000001}},{"attributes":{"OBJECTID":17653,"LANDMARKID":"1000800000436","LANDMARKCO":"203","LANDMARKNA":"縣立羅娜國小","LANDMARKAD":"1000812","ADDRESS":"南投縣信義鄉羅娜村信筆巷73號","TEL":"049-2831327","COUNTYNAME":"南投縣","TOWNNAME":"信義鄉","MARKTYPE":"992","Class":"2"},"geometry":{"x":236815.94359999988,"y":2613870.1320999991}},{"attributes":{"OBJECTID":17654,"LANDMARKID":"1000800000437","LANDMARKCO":"203","LANDMARKNA":"縣立愛國國小","LANDMARKAD":"1000812","ADDRESS":"南投縣信義鄉愛國村愛國巷108號","TEL":"049-2791465","COUNTYNAME":"南投縣","TOWNNAME":"信義鄉","MARKTYPE":"992","Class":"2"},"geometry":{"x":234557.71850000042,"y":2621150.1555000003}},{"attributes":{"OBJECTID":17655,"LANDMARKID":"1000800000438","LANDMARKCO":"203","LANDMARKNA":"縣立同富國小","LANDMARKAD":"1000812","ADDRESS":"南投縣信義鄉同富村同和巷4號","TEL":"049-2701503","COUNTYNAME":"南投縣","TOWNNAME":"信義鄉","MARKTYPE":"992","Class":"2"},"geometry":{"x":238574.8021999998,"y":2610060.1642000005}},{"attributes":{"OBJECTID":17656,"LANDMARKID":"1000800000439","LANDMARKCO":"203","LANDMARKNA":"縣立久美國小","LANDMARKAD":"1000812","ADDRESS":"南投縣信義鄉望美村美信巷54號","TEL":"049-2831506","COUNTYNAME":"南投縣","TOWNNAME":"信義鄉","MARKTYPE":"992","Class":"2"},"geometry":{"x":238206.85309999995,"y":2612450.0987}},{"attributes":{"OBJECTID":17657,"LANDMARKID":"1000800000440","LANDMARKCO":"203","LANDMARKNA":"縣立忠信國小","LANDMARKAD":"1000812","ADDRESS":"南投縣信義鄉明德村中平巷39號","TEL":"049-2791320","COUNTYNAME":"南投縣","TOWNNAME":"信義鄉","MARKTYPE":"992","Class":"2"},"geometry":{"x":236913.94240000006,"y":2623100.2135000005}},{"attributes":{"OBJECTID":17658,"LANDMARKID":"1000800000441","LANDMARKCO":"203","LANDMARKNA":"縣立桐林國小","LANDMARKAD":"1000812","ADDRESS":"南投縣信義鄉同富村太平巷18號","TEL":"049-2701483","COUNTYNAME":"南投縣","TOWNNAME":"信義鄉","MARKTYPE":"992","Class":"2"},"geometry":{"x":237255.82299999986,"y":2606320.0221999995}},{"attributes":{"OBJECTID":17659,"LANDMARKID":"1000800000442","LANDMARKCO":"203","LANDMARKNA":"縣立人和國小","LANDMARKAD":"1000812","ADDRESS":"南投縣信義鄉人和村民生巷3號","TEL":"049-2773259","COUNTYNAME":"南投縣","TOWNNAME":"信義鄉","MARKTYPE":"992","Class":"2"},"geometry":{"x":239476.87420000043,"y":2630590.1802999992}},{"attributes":{"OBJECTID":17660,"LANDMARKID":"1000800000443","LANDMARKCO":"203","LANDMARKNA":"縣立隆華國小","LANDMARKAD":"1000812","ADDRESS":"南投縣信義鄉神木村民和巷21號","TEL":"049-2701478","COUNTYNAME":"南投縣","TOWNNAME":"信義鄉","MARKTYPE":"992","Class":"2"},"geometry":{"x":237377.80549999978,"y":2607880.1269000005}},{"attributes":{"OBJECTID":17661,"LANDMARKID":"1000800000444","LANDMARKCO":"203","LANDMARKNA":"縣立神木國小","LANDMARKAD":"1000812","ADDRESS":"南投縣信義鄉神木村神木巷61號","TEL":"049-2701502","COUNTYNAME":"南投縣","TOWNNAME":"信義鄉","MARKTYPE":"992","Class":"2"},"geometry":{"x":235407.97479999997,"y":2602760.1649999991}},{"attributes":{"OBJECTID":17662,"LANDMARKID":"1000800000445","LANDMARKCO":"203","LANDMARKNA":"縣立地利國小","LANDMARKAD":"1000812","ADDRESS":"南投縣信義鄉地利村開信巷17號","TEL":"049-2741254","COUNTYNAME":"南投縣","TOWNNAME":"信義鄉","MARKTYPE":"992","Class":"2"},"geometry":{"x":244244.89749999996,"y":2632210.0844999999}},{"attributes":{"OBJECTID":17663,"LANDMARKID":"1000800000446","LANDMARKCO":"203","LANDMARKNA":"縣立東埔國小","LANDMARKAD":"1000812","ADDRESS":"南投縣信義鄉東埔村開高巷63號","TEL":"049-2701340","COUNTYNAME":"南投縣","TOWNNAME":"信義鄉","MARKTYPE":"992","Class":"2"},"geometry":{"x":242618.90950000007,"y":2606600.1491999999}},{"attributes":{"OBJECTID":17664,"LANDMARKID":"1000800000447","LANDMARKCO":"203","LANDMARKNA":"縣立自強國小","LANDMARKAD":"1000812","ADDRESS":"南投縣信義鄉自強村陽和巷52號","TEL":"049-2791120","COUNTYNAME":"南投縣","TOWNNAME":"信義鄉","MARKTYPE":"992","Class":"2"},"geometry":{"x":235351.96289999969,"y":2618460.0939000007}},{"attributes":{"OBJECTID":17665,"LANDMARKID":"1000800000567","LANDMARKCO":"303","LANDMARKNA":"上東埔停車場","LANDMARKAD":"1000812","ADDRESS":"南投縣信義鄉","TEL":" ","COUNTYNAME":"南投縣","TOWNNAME":"信義鄉","MARKTYPE":"993","Class":"303"},"geometry":{"x":238316.76449999958,"y":2597712.2317999993}},{"attributes":{"OBJECTID":17666,"LANDMARKID":"1000800000568","LANDMARKCO":"303","LANDMARKNA":"烏乾停車場","LANDMARKAD":"1000812","ADDRESS":"南投縣信義鄉","TEL":" ","COUNTYNAME":"南投縣","TOWNNAME":"信義鄉","MARKTYPE":"993","Class":"303"},"geometry":{"x":240524.98979999963,"y":2604129.3979000002}},{"attributes":{"OBJECTID":17667,"LANDMARKID":"1000800000569","LANDMARKCO":"303","LANDMARKNA":"鹿林山停車場","LANDMARKAD":"1000812","ADDRESS":"南投縣信義鄉","TEL":" ","COUNTYNAME":"南投縣","TOWNNAME":"信義鄉","MARKTYPE":"993","Class":"303"},"geometry":{"x":236432.56390000042,"y":2597493.5186000001}},{"attributes":{"OBJECTID":17668,"LANDMARKID":"1000800000570","LANDMARKCO":"303","LANDMARKNA":"玉山國家公園管理處塔塔加中心停車場","LANDMARKAD":"1000812","ADDRESS":"南投縣信義鄉同富村太平巷118號","TEL":" ","COUNTYNAME":"南投縣","TOWNNAME":"信義鄉","MARKTYPE":"993","Class":"303"},"geometry":{"x":247627.26960000023,"y":2598331.8882999998}},{"attributes":{"OBJECTID":17669,"LANDMARKID":"1000800001047","LANDMARKCO":"604","LANDMARKNA":"新高山夢想家","LANDMARKAD":"1000812","ADDRESS":"南投縣信義鄉同富村太平巷58號","TEL":"049-2702957","COUNTYNAME":"南投縣","TOWNNAME":"信義鄉","MARKTYPE":"996","Class":"6"},"geometry":{"x":237435.69790000003,"y":2606856.7112000007}},{"attributes":{"OBJECTID":17670,"LANDMARKID":"1000800001048","LANDMARKCO":"604","LANDMARKNA":"岩石休閒民宿","LANDMARKAD":"1000812","ADDRESS":"南投縣信義鄉地利村開信7-2號","TEL":"049-2741100","COUNTYNAME":"南投縣","TOWNNAME":"信義鄉","MARKTYPE":"996","Class":"6"},"geometry":{"x":243899.77909999993,"y":2632051.6168000009}},{"attributes":{"OBJECTID":17671,"LANDMARKID":"1000800001049","LANDMARKCO":"604","LANDMARKNA":"景祥溫泉民宿","LANDMARKAD":"1000812","ADDRESS":"南投縣信義鄉東埔村開高巷62號","TEL":"049-2702100","COUNTYNAME":"南投縣","TOWNNAME":"信義鄉","MARKTYPE":"996","Class":"6"},"geometry":{"x":242675.59779999964,"y":2606484.0152000003}},{"attributes":{"OBJECTID":17672,"LANDMARKID":"1000800001050","LANDMARKCO":"604","LANDMARKNA":"雙龍客棧民宿","LANDMARKAD":"1000812","ADDRESS":"南投縣信義鄉雙龍村光復巷34-3號","TEL":"049-2742227","COUNTYNAME":"南投縣","TOWNNAME":"信義鄉","MARKTYPE":"996","Class":"6"},"geometry":{"x":244663.31689999998,"y":2631123.1297999993}},{"attributes":{"OBJECTID":17673,"LANDMARKID":"1000800000841","LANDMARKCO":"503","LANDMARKNA":"東埔溫泉風景特定區","LANDMARKAD":"1000812","ADDRESS":"南投縣信義鄉","TEL":" ","COUNTYNAME":"南投縣","TOWNNAME":"信義鄉","MARKTYPE":"995","Class":"5"},"geometry":{"x":250850.79409999959,"y":2603292.7778999992}},{"attributes":{"OBJECTID":17674,"LANDMARKID":"1000800000912","LANDMARKCO":"508","LANDMARKNA":"真和園溫泉小木屋","LANDMARKAD":"1000812","ADDRESS":"南投縣信義鄉東埔村開高巷125之2號","TEL":"049-2701588","COUNTYNAME":"南投縣","TOWNNAME":"信義鄉","MARKTYPE":"995","Class":"5"},"geometry":{"x":241059.46609999985,"y":2607639.7375000007}},{"attributes":{"OBJECTID":17675,"LANDMARKID":"1000800000913","LANDMARKCO":"508","LANDMARKNA":"櫻泉溫泉會館","LANDMARKAD":"1000812","ADDRESS":"南投縣信義鄉東埔村開高巷153號","TEL":"049-2701188","COUNTYNAME":"南投縣","TOWNNAME":"信義鄉","MARKTYPE":"995","Class":"5"},"geometry":{"x":238932.60639999993,"y":2609933.9951000009}},{"attributes":{"OBJECTID":17676,"LANDMARKID":"1000800000914","LANDMARKCO":"508","LANDMARKNA":"東埔帝綸溫泉飯店","LANDMARKAD":"1000812","ADDRESS":"南投縣信義鄉東埔村開高巷86號","TEL":"049-2701616","COUNTYNAME":"南投縣","TOWNNAME":"信義鄉","MARKTYPE":"995","Class":"5"},"geometry":{"x":242512.1453999998,"y":2606440.4586999994}},{"attributes":{"OBJECTID":17677,"LANDMARKID":"1000800000915","LANDMARKCO":"508","LANDMARKNA":"東埔大飯店","LANDMARKAD":"1000812","ADDRESS":"南投縣信義鄉東埔村開高巷70之2號","TEL":"049-2701090","COUNTYNAME":"南投縣","TOWNNAME":"信義鄉","MARKTYPE":"995","Class":"5"},"geometry":{"x":242579.98529999983,"y":2606439.4334999993}},{"attributes":{"OBJECTID":17678,"LANDMARKID":"1000800000916","LANDMARKCO":"508","LANDMARKNA":"沙里仙渡假大飯店","LANDMARKAD":"1000812","ADDRESS":"南投縣信義鄉東埔村開高巷74號","TEL":"049-2702988","COUNTYNAME":"南投縣","TOWNNAME":"信義鄉","MARKTYPE":"995","Class":"5"},"geometry":{"x":242593.85759999976,"y":2606438.2917999998}},{"attributes":{"OBJECTID":17679,"LANDMARKID":"1000800000917","LANDMARKCO":"508","LANDMARKNA":"彩虹山莊","LANDMARKAD":"1000812","ADDRESS":"南投縣信義鄉東埔村開高巷75號","TEL":"049-2701125","COUNTYNAME":"南投縣","TOWNNAME":"信義鄉","MARKTYPE":"995","Class":"5"},"geometry":{"x":242605.5820000004,"y":2606437.9769000001}},{"attributes":{"OBJECTID":17680,"LANDMARKID":"1000800000918","LANDMARKCO":"508","LANDMARKNA":"東光大飯店","LANDMARKAD":"1000812","ADDRESS":"南投縣信義鄉東埔村72之2號","TEL":"049-2701105","COUNTYNAME":"南投縣","TOWNNAME":"信義鄉","MARKTYPE":"995","Class":"5"},"geometry":{"x":242664.98929999955,"y":2606462.0609000009}},{"attributes":{"OBJECTID":17681,"LANDMARKID":"1000800000843","LANDMARKCO":"503","LANDMARKNA":"小半天瀑布","LANDMARKAD":"1000812","ADDRESS":"南投縣信義鄉","TEL":" ","COUNTYNAME":"南投縣","TOWNNAME":"信義鄉","MARKTYPE":"995","Class":"5"},"geometry":{"x":242298.56680000015,"y":2627852.9244999997}},{"attributes":{"OBJECTID":17682,"LANDMARKID":"1000800000844","LANDMARKCO":"503","LANDMARKNA":"木瓜坑瀑布","LANDMARKAD":"1000812","ADDRESS":"南投縣信義鄉","TEL":" ","COUNTYNAME":"南投縣","TOWNNAME":"信義鄉","MARKTYPE":"995","Class":"5"},"geometry":{"x":246513.17860000022,"y":2627840.6049000006}},{"attributes":{"OBJECTID":17683,"LANDMARKID":"1000800000845","LANDMARKCO":"503","LANDMARKNA":"彩虹瀑布","LANDMARKAD":"1000812","ADDRESS":"南投縣信義鄉","TEL":" ","COUNTYNAME":"南投縣","TOWNNAME":"信義鄉","MARKTYPE":"995","Class":"5"},"geometry":{"x":255190.45280000009,"y":2611025.7213000003}},{"attributes":{"OBJECTID":17684,"LANDMARKID":"1000800000846","LANDMARKCO":"503","LANDMARKNA":"雲龍瀑布","LANDMARKAD":"1000812","ADDRESS":"南投縣信義鄉","TEL":" ","COUNTYNAME":"南投縣","TOWNNAME":"信義鄉","MARKTYPE":"995","Class":"5"},"geometry":{"x":257786.61120000016,"y":2606653.3749000002}},{"attributes":{"OBJECTID":17685,"LANDMARKID":"1000800000847","LANDMARKCO":"503","LANDMARKNA":"乙女瀑布","LANDMARKAD":"1000812","ADDRESS":"南投縣信義鄉","TEL":" ","COUNTYNAME":"南投縣","TOWNNAME":"信義鄉","MARKTYPE":"995","Class":"5"},"geometry":{"x":258297.80200000014,"y":2605512.4875000007}},{"attributes":{"OBJECTID":17686,"LANDMARKID":"1000800000848","LANDMARKCO":"503","LANDMARKNA":"塔塔加遊憩區","LANDMARKAD":"1000812","ADDRESS":"南投縣信義鄉","TEL":" ","COUNTYNAME":"南投縣","TOWNNAME":"信義鄉","MARKTYPE":"995","Class":"5"},"geometry":{"x":238773.48539999966,"y":2598174.0446000006}},{"attributes":{"OBJECTID":17687,"LANDMARKID":"1000800000944","LANDMARKCO":"513","LANDMARKNA":"玉山","LANDMARKAD":"1000812","ADDRESS":"南投縣信義鄉","TEL":" ","COUNTYNAME":"南投縣","TOWNNAME":"信義鄉","MARKTYPE":"995","Class":"5"},"geometry":{"x":245635.05020000041,"y":2596328.7139999997}},{"attributes":{"OBJECTID":17688,"LANDMARKID":"1000800000945","LANDMARKCO":"513","LANDMARKNA":"玉山北峰","LANDMARKAD":"1000812","ADDRESS":"南投縣信義鄉","TEL":" ","COUNTYNAME":"南投縣","TOWNNAME":"信義鄉","MARKTYPE":"995","Class":"5"},"geometry":{"x":245881.0449000001,"y":2598260.7369999997}},{"attributes":{"OBJECTID":17689,"LANDMARKID":"1000800000946","LANDMARKCO":"513","LANDMARKNA":"馬博拉斯山","LANDMARKAD":"1000812","ADDRESS":"南投縣信義鄉","TEL":" ","COUNTYNAME":"南投縣","TOWNNAME":"信義鄉","MARKTYPE":"995","Class":"5"},"geometry":{"x":256866.37760000024,"y":2601903.6706000008}},{"attributes":{"OBJECTID":17690,"LANDMARKID":"1000800000947","LANDMARKCO":"513","LANDMARKNA":"大水窟山","LANDMARKAD":"1000812","ADDRESS":"南投縣信義鄉","TEL":" ","COUNTYNAME":"南投縣","TOWNNAME":"信義鄉","MARKTYPE":"995","Class":"5"},"geometry":{"x":253945.28639999963,"y":2596754.5468000006}},{"attributes":{"OBJECTID":17691,"LANDMARKID":"1000800000948","LANDMARKCO":"513","LANDMARKNA":"東郡大山","LANDMARKAD":"1000812","ADDRESS":"南投縣信義鄉","TEL":" ","COUNTYNAME":"南投縣","TOWNNAME":"信義鄉","MARKTYPE":"995","Class":"5"},"geometry":{"x":259396.58380000014,"y":2613687.8925000001}},{"attributes":{"OBJECTID":17692,"LANDMARKID":"1000800000949","LANDMARKCO":"513","LANDMARKNA":"八通關山","LANDMARKAD":"1000812","ADDRESS":"南投縣信義鄉","TEL":" ","COUNTYNAME":"南投縣","TOWNNAME":"信義鄉","MARKTYPE":"995","Class":"5"},"geometry":{"x":250980.20019999985,"y":2598563.6618000008}},{"attributes":{"OBJECTID":17693,"LANDMARKID":"1000800000950","LANDMARKCO":"513","LANDMARKNA":"東巒大山","LANDMARKAD":"1000812","ADDRESS":"南投縣信義鄉","TEL":" ","COUNTYNAME":"南投縣","TOWNNAME":"信義鄉","MARKTYPE":"995","Class":"5"},"geometry":{"x":258321.54519999959,"y":2616115.9178999998}},{"attributes":{"OBJECTID":17694,"LANDMARKID":"1000800000951","LANDMARKCO":"513","LANDMARKNA":"郡大山","LANDMARKAD":"1000812","ADDRESS":"南投縣信義鄉","TEL":" ","COUNTYNAME":"南投縣","TOWNNAME":"信義鄉","MARKTYPE":"995","Class":"5"},"geometry":{"x":246159.08920000028,"y":2608217.9302999992}},{"attributes":{"OBJECTID":17695,"LANDMARKID":"1000800000952","LANDMARKCO":"513","LANDMARKNA":"萬東山西峰","LANDMARKAD":"1000812","ADDRESS":"南投縣信義鄉","TEL":" ","COUNTYNAME":"南投縣","TOWNNAME":"信義鄉","MARKTYPE":"995","Class":"5"},"geometry":{"x":268898.08210000023,"y":2638630.0786000006}},{"attributes":{"OBJECTID":17696,"LANDMARKID":"1000800000953","LANDMARKCO":"513","LANDMARKNA":"無雙山","LANDMARKAD":"1000812","ADDRESS":"南投縣信義鄉","TEL":" ","COUNTYNAME":"南投縣","TOWNNAME":"信義鄉","MARKTYPE":"995","Class":"5"},"geometry":{"x":255849.45380000025,"y":2609722.7923000008}},{"attributes":{"OBJECTID":17697,"LANDMARKID":"1000800000954","LANDMARKCO":"513","LANDMARKNA":"尖山","LANDMARKAD":"1000812","ADDRESS":"南投縣信義鄉","TEL":" ","COUNTYNAME":"南投縣","TOWNNAME":"信義鄉","MARKTYPE":"995","Class":"5"},"geometry":{"x":251336.20669999998,"y":2598521.6497000009}},{"attributes":{"OBJECTID":17698,"LANDMARKID":"1000800000955","LANDMARKCO":"513","LANDMARKNA":"駒盆山","LANDMARKAD":"1000812","ADDRESS":"南投縣信義鄉","TEL":" ","COUNTYNAME":"南投縣","TOWNNAME":"信義鄉","MARKTYPE":"995","Class":"5"},"geometry":{"x":253321.30979999993,"y":2605008.7399000004}},{"attributes":{"OBJECTID":17699,"LANDMARKID":"1000800000956","LANDMARKCO":"513","LANDMARKNA":"巒大山","LANDMARKAD":"1000812","ADDRESS":"南投縣信義鄉","TEL":" ","COUNTYNAME":"南投縣","TOWNNAME":"信義鄉","MARKTYPE":"995","Class":"5"},"geometry":{"x":244612.11340000015,"y":2621137.2708999999}},{"attributes":{"OBJECTID":17700,"LANDMARKID":"1000500000651","LANDMARKCO":"405","LANDMARKNA":"中油加油站-百路達站(中油直營)","LANDMARKAD":"1000504","ADDRESS":"苗栗縣竹南鎮海口里21鄰海口366號","TEL":"03-7550890","COUNTYNAME":"苗栗縣","TOWNNAME":"竹南鎮","MARKTYPE":"994","Class":"4"},"geometry":{"x":235311.40770000033,"y":2729484.3793000001}},{"attributes":{"OBJECTID":17701,"LANDMARKID":"1000500000652","LANDMARKCO":"405","LANDMARKNA":"中油加油站-皇家站","LANDMARKAD":"1000504","ADDRESS":"苗栗縣竹南鎮崎頂里青草50-6號","TEL":"03-7476111","COUNTYNAME":"苗栗縣","TOWNNAME":"竹南鎮","MARKTYPE":"994","Class":"4"},"geometry":{"x":236578.2536000004,"y":2733278.2597000003}},{"attributes":{"OBJECTID":17702,"LANDMARKID":"1000500000653","LANDMARKCO":"405","LANDMARKNA":"中油加油站-來來站","LANDMARKAD":"1000504","ADDRESS":"苗栗縣竹南鎮公館里公館仔65號","TEL":"03-7634224","COUNTYNAME":"苗栗縣","TOWNNAME":"竹南鎮","MARKTYPE":"994","Class":"4"},"geometry":{"x":237467.38709999993,"y":2728205.5424000006}},{"attributes":{"OBJECTID":17703,"LANDMARKID":"1000500000654","LANDMARKCO":"405","LANDMARKNA":"中油加油站-正達站","LANDMARKAD":"1000504","ADDRESS":"苗栗縣竹南鎮聖福里龍天路2號","TEL":"03-7550160","COUNTYNAME":"苗栗縣","TOWNNAME":"竹南鎮","MARKTYPE":"994","Class":"4"},"geometry":{"x":237143.35830000043,"y":2731666.0226000007}},{"attributes":{"OBJECTID":17704,"LANDMARKID":"1000500000655","LANDMARKCO":"405","LANDMARKNA":"中油加油站-光美站","LANDMARKAD":"1000504","ADDRESS":"苗栗縣竹南鎮公義路2433之11號","TEL":"037-580585","COUNTYNAME":"苗栗縣","TOWNNAME":"竹南鎮","MARKTYPE":"994","Class":"4"},"geometry":{"x":240507.15979999956,"y":2736873.8679000009}},{"attributes":{"OBJECTID":17705,"LANDMARKID":"1000500000656","LANDMARKCO":"405","LANDMARKNA":"中油加油站-光騏站","LANDMARKAD":"1000504","ADDRESS":"苗栗縣竹南鎮公義路2433-10號","TEL":"037-582188","COUNTYNAME":"苗栗縣","TOWNNAME":"竹南鎮","MARKTYPE":"994","Class":"4"},"geometry":{"x":240508.14240000024,"y":2736862.3719999995}},{"attributes":{"OBJECTID":17706,"LANDMARKID":"1000500000657","LANDMARKCO":"405","LANDMARKNA":"中油加油站-國利站(中油直營)","LANDMARKAD":"1000504","ADDRESS":"苗栗縣竹南鎮竹興里博愛街869號","TEL":"037-481165","COUNTYNAME":"苗栗縣","TOWNNAME":"竹南鎮","MARKTYPE":"994","Class":"4"},"geometry":{"x":236428.08999999985,"y":2731319.2366000004}},{"attributes":{"OBJECTID":17707,"LANDMARKID":"1000500000658","LANDMARKCO":"405","LANDMARKNA":"中油加油站-中正路站","LANDMARKAD":"1000504","ADDRESS":"苗栗縣竹南鎮中正路120號","TEL":"037-463428","COUNTYNAME":"苗栗縣","TOWNNAME":"竹南鎮","MARKTYPE":"994","Class":"4"},"geometry":{"x":237082.21160000004,"y":2730746.6804000009}},{"attributes":{"OBJECTID":17708,"LANDMARKID":"1000500000659","LANDMARKCO":"405","LANDMARKNA":"中油加油站-大埔站","LANDMARKAD":"1000504","ADDRESS":"苗栗縣竹南鎮大埔里公義路498號","TEL":"037-581762","COUNTYNAME":"苗栗縣","TOWNNAME":"竹南鎮","MARKTYPE":"994","Class":"4"},"geometry":{"x":238921.74459999986,"y":2733103.9008000009}},{"attributes":{"OBJECTID":17709,"LANDMARKID":"1000500000660","LANDMARKCO":"405","LANDMARKNA":"中油加油站-竹南站(中油直營)","LANDMARKAD":"1000504","ADDRESS":"苗栗縣竹南鎮東平路101號","TEL":"037-624865","COUNTYNAME":"苗栗縣","TOWNNAME":"竹南鎮","MARKTYPE":"994","Class":"4"},"geometry":{"x":238209.41139999963,"y":2730868.4362000003}},{"attributes":{"OBJECTID":17710,"LANDMARKID":"1000500000661","LANDMARKCO":"405","LANDMARKNA":"中油加油站-興昌加油站(中油直營)","LANDMARKAD":"1000504","ADDRESS":"苗栗縣竹南鎮公義路485號","TEL":" ","COUNTYNAME":"苗栗縣","TOWNNAME":"竹南鎮","MARKTYPE":"994","Class":"4"},"geometry":{"x":238748.51520000026,"y":2733039.1541000009}},{"attributes":{"OBJECTID":17711,"LANDMARKID":"1000500000662","LANDMARKCO":"405","LANDMARKNA":"中油加油站-必勝站","LANDMARKAD":"1000504","ADDRESS":"苗栗縣竹南鎮公義路2000號","TEL":"037-582611","COUNTYNAME":"苗栗縣","TOWNNAME":"竹南鎮","MARKTYPE":"994","Class":"4"},"geometry":{"x":240579.86079999991,"y":2735837.0625999998}},{"attributes":{"OBJECTID":17712,"LANDMARKID":"1000500000663","LANDMARKCO":"405","LANDMARKNA":"中油加油站-萬里達站","LANDMARKAD":"1000504","ADDRESS":"苗栗縣竹南鎮全天路99號","TEL":"037-469995","COUNTYNAME":"苗栗縣","TOWNNAME":"竹南鎮","MARKTYPE":"994","Class":"4"},"geometry":{"x":236456.99170000013,"y":2729604.6236000005}},{"attributes":{"OBJECTID":17713,"LANDMARKID":"1000500000664","LANDMARKCO":"405","LANDMARKNA":"中油加油站-龍安站","LANDMARKAD":"1000504","ADDRESS":"苗栗縣竹南鎮公館里大埔頂5-1號","TEL":"03-7626752","COUNTYNAME":"苗栗縣","TOWNNAME":"竹南鎮","MARKTYPE":"994","Class":"4"},"geometry":{"x":237224.64419999998,"y":2728016.6665000003}},{"attributes":{"OBJECTID":17714,"LANDMARKID":"1000500000570","LANDMARKCO":"402","LANDMARKNA":"My Phone台灣大哥大-竹南博愛直營服務中心","LANDMARKAD":"1000504","ADDRESS":"苗栗縣竹南鎮博愛街142號","TEL":"0809-000166","COUNTYNAME":"苗栗縣","TOWNNAME":"竹南鎮","MARKTYPE":"994","Class":"4"},"geometry":{"x":237406.58860000037,"y":2731112.9536000006}},{"attributes":{"OBJECTID":17715,"LANDMARKID":"1000500000571","LANDMARKCO":"402","LANDMARKNA":"亞太行動寬頻電信-苗栗縣","LANDMARKAD":"1000504","ADDRESS":"苗栗縣竹南鎮民族街94-1號","TEL":" ","COUNTYNAME":"苗栗縣","TOWNNAME":"竹南鎮","MARKTYPE":"994","Class":"4"},"geometry":{"x":237707.13800000027,"y":2731027.3065000009}},{"attributes":{"OBJECTID":17716,"LANDMARKID":"1000500000572","LANDMARKCO":"402","LANDMARKNA":"亞太行動寬頻電信-竹南博愛加盟服務中心","LANDMARKAD":"1000504","ADDRESS":"苗栗縣竹南鎮博愛街156號","TEL":"037-478978","COUNTYNAME":"苗栗縣","TOWNNAME":"竹南鎮","MARKTYPE":"994","Class":"4"},"geometry":{"x":237366.11060000025,"y":2731113.1751000006}},{"attributes":{"OBJECTID":17717,"LANDMARKID":"1000500000568","LANDMARKCO":"401","LANDMARKNA":"慈祐醫院","LANDMARKAD":"1000504","ADDRESS":"苗栗縣竹南鎮民治街17號","TEL":"037-474029","COUNTYNAME":"苗栗縣","TOWNNAME":"竹南鎮","MARKTYPE":"994","Class":"4"},"geometry":{"x":237802.86739999987,"y":2730860.1559999995}},{"attributes":{"OBJECTID":17718,"LANDMARKID":"1000500000569","LANDMARKCO":"401","LANDMARKNA":"大眾醫院","LANDMARKAD":"1000504","ADDRESS":"苗栗縣竹南鎮光復路304號","TEL":"037-551479","COUNTYNAME":"苗栗縣","TOWNNAME":"竹南鎮","MARKTYPE":"994","Class":"4"},"geometry":{"x":237814.81950000022,"y":2731530.1659999993}},{"attributes":{"OBJECTID":17719,"LANDMARKID":"1000500000817","LANDMARKCO":"507","LANDMARKNA":"中港慈祐宮","LANDMARKAD":"1000504","ADDRESS":"苗栗縣竹南鎮中美里民生路7號","TEL":" ","COUNTYNAME":"苗栗縣","TOWNNAME":"竹南鎮","MARKTYPE":"995","Class":"5"},"geometry":{"x":236230.93989999965,"y":2730622.8231000006}},{"attributes":{"OBJECTID":17720,"LANDMARKID":"1000500000739","LANDMARKCO":"408","LANDMARKNA":"郵局-竹南郵局","LANDMARKAD":"1000504","ADDRESS":"苗栗縣竹南鎮民族街86號","TEL":"(037)472-634","COUNTYNAME":"苗栗縣","TOWNNAME":"竹南鎮","MARKTYPE":"994","Class":"4"},"geometry":{"x":237709.39549999963,"y":2731013.3552999999}},{"attributes":{"OBJECTID":17721,"LANDMARKID":"1000500000740","LANDMARKCO":"408","LANDMARKNA":"郵局-竹南中港郵局","LANDMARKAD":"1000504","ADDRESS":"苗栗縣竹南鎮中正路244號","TEL":"(037)463-654","COUNTYNAME":"苗栗縣","TOWNNAME":"竹南鎮","MARKTYPE":"994","Class":"4"},"geometry":{"x":236568.49679999985,"y":2730736.4015999995}},{"attributes":{"OBJECTID":17722,"LANDMARKID":"1000500000741","LANDMARKCO":"408","LANDMARKNA":"郵局-竹南頂埔郵局","LANDMARKAD":"1000504","ADDRESS":"苗栗縣竹南鎮中華路129號","TEL":"(037)671-644","COUNTYNAME":"苗栗縣","TOWNNAME":"竹南鎮","MARKTYPE":"994","Class":"4"},"geometry":{"x":242279.89159999974,"y":2733652.7484000009}},{"attributes":{"OBJECTID":17723,"LANDMARKID":"1000500000742","LANDMARKCO":"408","LANDMARKNA":"郵局-竹南照南郵局","LANDMARKAD":"1000504","ADDRESS":"苗栗縣竹南鎮光復路352號","TEL":"(037)479-634","COUNTYNAME":"苗栗縣","TOWNNAME":"竹南鎮","MARKTYPE":"994","Class":"4"},"geometry":{"x":237821.04999999981,"y":2731622.1884000003}},{"attributes":{"OBJECTID":17724,"LANDMARKID":"1000500000776","LANDMARKCO":"409","LANDMARKNA":"竹南鎮農會","LANDMARKAD":"1000504","ADDRESS":"苗栗縣竹南鎮大營路93號","TEL":"037-47963","COUNTYNAME":"苗栗縣","TOWNNAME":"竹南鎮","MARKTYPE":"994","Class":"4"},"geometry":{"x":237138.54140000045,"y":2730816.4979999997}},{"attributes":{"OBJECTID":17725,"LANDMARKID":"1000500000714","LANDMARKCO":"406","LANDMARKNA":"綜合運動場公園","LANDMARKAD":"1000504","ADDRESS":"苗栗縣竹南鎮","TEL":" ","COUNTYNAME":"苗栗縣","TOWNNAME":"竹南鎮","MARKTYPE":"994","Class":"4"},"geometry":{"x":238797.85379999969,"y":2731338.9672999997}},{"attributes":{"OBJECTID":17726,"LANDMARKID":"1000500000715","LANDMARKCO":"406","LANDMARKNA":"長春公園","LANDMARKAD":"1000504","ADDRESS":"苗栗縣竹南鎮","TEL":" ","COUNTYNAME":"苗栗縣","TOWNNAME":"竹南鎮","MARKTYPE":"994","Class":"4"},"geometry":{"x":237657.83829999994,"y":2731016.7347999997}},{"attributes":{"OBJECTID":17727,"LANDMARKID":"1000500000716","LANDMARKCO":"406","LANDMARKNA":"博愛公園","LANDMARKAD":"1000504","ADDRESS":"苗栗縣竹南鎮","TEL":" ","COUNTYNAME":"苗栗縣","TOWNNAME":"竹南鎮","MARKTYPE":"994","Class":"4"},"geometry":{"x":236905.50499999989,"y":2730877.7039999999}},{"attributes":{"OBJECTID":17728,"LANDMARKID":"1000500000722","LANDMARKCO":"407","LANDMARKNA":"三商百貨","LANDMARKAD":"1000504","ADDRESS":"苗栗縣竹南鎮博愛街64號","TEL":"037-479143","COUNTYNAME":"苗栗縣","TOWNNAME":"竹南鎮","MARKTYPE":"994","Class":"4"},"geometry":{"x":237665.41619999986,"y":2731105.1549999993}},{"attributes":{"OBJECTID":17729,"LANDMARKID":"1000500000649","LANDMARKCO":"405","LANDMARKNA":"台塑加油站-南海站(台塑)","LANDMARKAD":"1000504","ADDRESS":"苗栗縣竹南鎮崎頂里一鄰天祥街二段551號","TEL":"03-7481118","COUNTYNAME":"苗栗縣","TOWNNAME":"竹南鎮","MARKTYPE":"994","Class":"4"},"geometry":{"x":236512.05620000046,"y":2733878.4091999996}},{"attributes":{"OBJECTID":17730,"LANDMARKID":"1000500000650","LANDMARKCO":"405","LANDMARKNA":"台塑加油站-竹苗站(台塑)","LANDMARKAD":"1000504","ADDRESS":"苗栗縣竹南鎮中華路378號","TEL":"03-7672288","COUNTYNAME":"苗栗縣","TOWNNAME":"竹南鎮","MARKTYPE":"994","Class":"4"},"geometry":{"x":242127.56489999965,"y":2734215.0077999998}},{"attributes":{"OBJECTID":17731,"LANDMARKID":"1000500000001","LANDMARKCO":"101","LANDMARKNA":"工業局頭份兼竹南及銅鑼工業區","LANDMARKAD":"1000504","ADDRESS":"苗栗縣頭份鎮自強路二段166號","TEL":"037-625504","COUNTYNAME":"苗栗縣","TOWNNAME":"竹南鎮","MARKTYPE":"991","Class":"1"},"geometry":{"x":237912.81510000024,"y":2733690.2544}},{"attributes":{"OBJECTID":17732,"LANDMARKID":"1000500000063","LANDMARKCO":"104","LANDMARKNA":"中區國稅局竹南稽徵所","LANDMARKAD":"1000504","ADDRESS":"苗栗縣竹南鎮福德路135號3樓","TEL":"037-460597","COUNTYNAME":"苗栗縣","TOWNNAME":"竹南鎮","MARKTYPE":"991","Class":"1"},"geometry":{"x":237389.76549999975,"y":2730660.0446000006}},{"attributes":{"OBJECTID":17733,"LANDMARKID":"1000500000082","LANDMARKCO":"106","LANDMARKNA":"苗栗縣竹南鎮戶政事務所","LANDMARKAD":"1000504","ADDRESS":"苗栗縣竹南鎮正南里5鄰中正路110號","TEL":"037-475945","COUNTYNAME":"苗栗縣","TOWNNAME":"竹南鎮","MARKTYPE":"991","Class":"1"},"geometry":{"x":237177.87959999964,"y":2730840.1093000006}},{"attributes":{"OBJECTID":17734,"LANDMARKID":"1000500000130","LANDMARKCO":"107","LANDMARKNA":"苗栗縣警察局中港派出所","LANDMARKAD":"1000504","ADDRESS":"苗栗縣竹南鎮中正路477號","TEL":"037-470314","COUNTYNAME":"苗栗縣","TOWNNAME":"竹南鎮","MARKTYPE":"991","Class":"1"},"geometry":{"x":236498.74980000034,"y":2730660.2767999992}},{"attributes":{"OBJECTID":17735,"LANDMARKID":"1000500000131","LANDMARKCO":"107","LANDMARKNA":"苗栗縣警察局大同派出所","LANDMARKAD":"1000504","ADDRESS":"苗栗縣竹南鎮大埔里公義路931號","TEL":"037-581712","COUNTYNAME":"苗栗縣","TOWNNAME":"竹南鎮","MARKTYPE":"991","Class":"1"},"geometry":{"x":239622.87019999977,"y":2733650.0247000009}},{"attributes":{"OBJECTID":17736,"LANDMARKID":"1000500000132","LANDMARKCO":"107","LANDMARKNA":"苗栗縣消防局竹南消防分隊","LANDMARKAD":"1000504","ADDRESS":"苗栗縣竹南鎮博愛街785號","TEL":"037-472061","COUNTYNAME":"苗栗縣","TOWNNAME":"竹南鎮","MARKTYPE":"991","Class":"1"},"geometry":{"x":237706.79559999984,"y":2730940.0755000003}},{"attributes":{"OBJECTID":17737,"LANDMARKID":"1000500000052","LANDMARKCO":"103","LANDMARKNA":"苗栗縣竹南鎮衛生所","LANDMARKAD":"1000504","ADDRESS":"苗栗縣竹南鎮營盤里大營路209號","TEL":"037-470152","COUNTYNAME":"苗栗縣","TOWNNAME":"竹南鎮","MARKTYPE":"991","Class":"1"},"geometry":{"x":237101.79310000036,"y":2731240.0384999998}},{"attributes":{"OBJECTID":17738,"LANDMARKID":"1000500000200","LANDMARKCO":"108","LANDMARKNA":"苗栗縣竹南鎮公所","LANDMARKAD":"1000504","ADDRESS":"苗栗縣竹南鎮正南里23鄰中正路112號","TEL":"037-462101","COUNTYNAME":"苗栗縣","TOWNNAME":"竹南鎮","MARKTYPE":"991","Class":"1"},"geometry":{"x":237192.95349999983,"y":2730760.1231999993}},{"attributes":{"OBJECTID":17739,"LANDMARKID":"1000500000053","LANDMARKCO":"103","LANDMARKNA":"苗栗縣竹南鎮民代表會","LANDMARKAD":"1000504","ADDRESS":"苗栗縣竹南鎮大營路98號","TEL":"037-462830","COUNTYNAME":"苗栗縣","TOWNNAME":"竹南鎮","MARKTYPE":"991","Class":"1"},"geometry":{"x":237119.72840000037,"y":2731310.0551999994}},{"attributes":{"OBJECTID":17740,"LANDMARKID":"1000500000068","LANDMARKCO":"105","LANDMARKNA":"苗栗縣竹南地政事務所","LANDMARKAD":"1000504","ADDRESS":"苗栗縣竹南鎮正南里中正路96號","TEL":"037-468860","COUNTYNAME":"苗栗縣","TOWNNAME":"竹南鎮","MARKTYPE":"991","Class":"1"},"geometry":{"x":237441.93620000035,"y":2730780.0916000009}},{"attributes":{"OBJECTID":17741,"LANDMARKID":"1000500000002","LANDMARKCO":"101","LANDMARKNA":"水利署水利規劃試驗所","LANDMARKAD":"1000504","ADDRESS":"苗栗縣竹南鎮崎頂里13鄰12號之10","TEL":"037-584514","COUNTYNAME":"苗栗縣","TOWNNAME":"竹南鎮","MARKTYPE":"991","Class":"1"},"geometry":{"x":238396.80150000006,"y":2734330.1776000001}},{"attributes":{"OBJECTID":17742,"LANDMARKID":"1000500000003","LANDMARKCO":"101","LANDMARKNA":"農業委員會家畜衛生試驗所","LANDMARKAD":"1000504","ADDRESS":"苗栗縣竹南鎮崎頂里牧場21號","TEL":"037-584811","COUNTYNAME":"苗栗縣","TOWNNAME":"竹南鎮","MARKTYPE":"991","Class":"1"},"geometry":{"x":236526.97750000004,"y":2733810.0250000004}},{"attributes":{"OBJECTID":17743,"LANDMARKID":"1000500000051","LANDMARKCO":"103","LANDMARKNA":"龍鳳漁港管理站","LANDMARKAD":"1000504","ADDRESS":"苗栗縣竹南鎮龍鳳里10鄰海埔39號","TEL":"037-464122","COUNTYNAME":"苗栗縣","TOWNNAME":"竹南鎮","MARKTYPE":"991","Class":"1"},"geometry":{"x":235876.55289999954,"y":2732458.9984000009}},{"attributes":{"OBJECTID":17744,"LANDMARKID":"1000500000133","LANDMARKCO":"107","LANDMARKNA":"苗栗縣警察局竹南分局","LANDMARKAD":"1000504","ADDRESS":"苗栗縣竹南鎮民族街72號","TEL":"037-472029","COUNTYNAME":"苗栗縣","TOWNNAME":"竹南鎮","MARKTYPE":"991","Class":"1"},"geometry":{"x":237706.83110000007,"y":2730900.0755000003}},{"attributes":{"OBJECTID":17745,"LANDMARKID":"1000500000134","LANDMARKCO":"107","LANDMARKNA":"苗栗縣警察局海口派出所","LANDMARKAD":"1000504","ADDRESS":"苗栗縣竹南鎮海口里6鄰62之12號","TEL":"037-460684","COUNTYNAME":"苗栗縣","TOWNNAME":"竹南鎮","MARKTYPE":"991","Class":"1"},"geometry":{"x":235992.85419999994,"y":2730240.0577000007}},{"attributes":{"OBJECTID":17746,"LANDMARKID":"1000500000135","LANDMARKCO":"107","LANDMARKNA":"苗栗縣警察局竹南派出所","LANDMARKAD":"1000504","ADDRESS":"苗栗縣竹南鎮民族街72號","TEL":"037-474796","COUNTYNAME":"苗栗縣","TOWNNAME":"竹南鎮","MARKTYPE":"991","Class":"1"},"geometry":{"x":237706.83110000007,"y":2730900.0755000003}},{"attributes":{"OBJECTID":17747,"LANDMARKID":"1000500000136","LANDMARKCO":"107","LANDMARKNA":"苗栗縣消防局第二消防大隊","LANDMARKAD":"1000504","ADDRESS":"苗栗縣竹南博愛街785號","TEL":"037-472061","COUNTYNAME":"苗栗縣","TOWNNAME":"竹南鎮","MARKTYPE":"991","Class":"1"},"geometry":{"x":237710.79569999967,"y":2730940.0789999999}},{"attributes":{"OBJECTID":17748,"LANDMARKID":"1000500000397","LANDMARKCO":"204","LANDMARKNA":"苗栗縣立圖書館竹南萬春分館","LANDMARKAD":"1000504","ADDRESS":"苗栗縣竹南鎮中正路108號","TEL":" ","COUNTYNAME":"苗栗縣","TOWNNAME":"竹南鎮","MARKTYPE":"992","Class":"2"},"geometry":{"x":237244.41100000031,"y":2730764.6470999997}},{"attributes":{"OBJECTID":17749,"LANDMARKID":"1000500000398","LANDMARKCO":"204","LANDMARKNA":"苗栗縣立圖書館李科永紀念分館","LANDMARKAD":"1000504","ADDRESS":"苗栗縣竹南鎮正南里永貞路二段196號","TEL":" ","COUNTYNAME":"苗栗縣","TOWNNAME":"竹南鎮","MARKTYPE":"992","Class":"2"},"geometry":{"x":238444.04389999993,"y":2731370.4390999991}},{"attributes":{"OBJECTID":17750,"LANDMARKID":"1000500000215","LANDMARKCO":"202","LANDMARKNA":"國立竹南高中","LANDMARKAD":"1000504","ADDRESS":"苗栗縣竹南鎮中正路98號","TEL":"037-471474","COUNTYNAME":"苗栗縣","TOWNNAME":"竹南鎮","MARKTYPE":"992","Class":"2"},"geometry":{"x":237263.80700000003,"y":2730920.1884000003}},{"attributes":{"OBJECTID":17751,"LANDMARKID":"1000500000216","LANDMARKCO":"202","LANDMARKNA":"私立君毅高中","LANDMARKAD":"1000504","ADDRESS":"苗栗縣竹南鎮公義路245號","TEL":"037-622009","COUNTYNAME":"苗栗縣","TOWNNAME":"竹南鎮","MARKTYPE":"992","Class":"2"},"geometry":{"x":238209.96999999974,"y":2732590.0209999997}},{"attributes":{"OBJECTID":17752,"LANDMARKID":"1000500000217","LANDMARKCO":"202","LANDMARKNA":"私立中興商工","LANDMARKAD":"1000504","ADDRESS":"苗栗縣竹南鎮大營路211號","TEL":"037-467360","COUNTYNAME":"苗栗縣","TOWNNAME":"竹南鎮","MARKTYPE":"992","Class":"2"},"geometry":{"x":237066.76460000034,"y":2731270.2706000004}},{"attributes":{"OBJECTID":17753,"LANDMARKID":"1000500000218","LANDMARKCO":"202","LANDMARKNA":"私立君毅高中附設國中部","LANDMARKAD":"1000504","ADDRESS":"苗栗縣竹南鎮公義路245號","TEL":"037-622009","COUNTYNAME":"苗栗縣","TOWNNAME":"竹南鎮","MARKTYPE":"992","Class":"2"},"geometry":{"x":238217.9785000002,"y":2732580.0277999993}},{"attributes":{"OBJECTID":17754,"LANDMARKID":"1000500000336","LANDMARKCO":"203","LANDMARKNA":"縣立照南國中","LANDMARKAD":"1000504","ADDRESS":"苗栗縣竹南鎮山佳里14鄰公教路2號","TEL":"037-472750","COUNTYNAME":"苗栗縣","TOWNNAME":"竹南鎮","MARKTYPE":"992","Class":"2"},"geometry":{"x":237584.75150000025,"y":2731910.2193999998}},{"attributes":{"OBJECTID":17755,"LANDMARKID":"1000500000337","LANDMARKCO":"203","LANDMARKNA":"縣立竹南國中","LANDMARKAD":"1000504","ADDRESS":"苗栗縣竹南鎮正南里中正路92號","TEL":"037-475100","COUNTYNAME":"苗栗縣","TOWNNAME":"竹南鎮","MARKTYPE":"992","Class":"2"},"geometry":{"x":237457.84590000007,"y":2730880.1060000006}},{"attributes":{"OBJECTID":17756,"LANDMARKID":"1000500000338","LANDMARKCO":"203","LANDMARKNA":"縣立頂埔國小","LANDMARKAD":"1000504","ADDRESS":"苗栗縣竹南鎮頂埔里中華路110號","TEL":"037-671785","COUNTYNAME":"苗栗縣","TOWNNAME":"竹南鎮","MARKTYPE":"992","Class":"2"},"geometry":{"x":242282.83710000012,"y":2733460.0941000003}},{"attributes":{"OBJECTID":17757,"LANDMARKID":"1000500000339","LANDMARKCO":"203","LANDMARKNA":"縣立新南國小","LANDMARKAD":"1000504","ADDRESS":"苗栗縣竹南鎮新南里五谷街2號","TEL":"037-613843","COUNTYNAME":"苗栗縣","TOWNNAME":"竹南鎮","MARKTYPE":"992","Class":"2"},"geometry":{"x":238344.75339999981,"y":2731310.1359999999}},{"attributes":{"OBJECTID":17758,"LANDMARKID":"1000500000340","LANDMARKCO":"203","LANDMARKNA":"縣立竹南國小","LANDMARKAD":"1000504","ADDRESS":"苗栗縣竹南鎮大厝里中正路146號","TEL":"037-462020","COUNTYNAME":"苗栗縣","TOWNNAME":"竹南鎮","MARKTYPE":"992","Class":"2"},"geometry":{"x":236874.93379999977,"y":2730780.0908000004}},{"attributes":{"OBJECTID":17759,"LANDMARKID":"1000500000341","LANDMARKCO":"203","LANDMARKNA":"縣立大埔國小","LANDMARKAD":"1000504","ADDRESS":"苗栗縣竹南鎮大埔里仁愛路1092號","TEL":"037-584370","COUNTYNAME":"苗栗縣","TOWNNAME":"竹南鎮","MARKTYPE":"992","Class":"2"},"geometry":{"x":238854.97360000014,"y":2733510.0866999999}},{"attributes":{"OBJECTID":17760,"LANDMARKID":"1000500000342","LANDMARKCO":"203","LANDMARKNA":"縣立照南國小","LANDMARKAD":"1000504","ADDRESS":"苗栗縣竹南鎮山佳里光復路331號","TEL":"037-472663","COUNTYNAME":"苗栗縣","TOWNNAME":"竹南鎮","MARKTYPE":"992","Class":"2"},"geometry":{"x":237749.7547000004,"y":2731910.1128000002}},{"attributes":{"OBJECTID":17761,"LANDMARKID":"1000500000343","LANDMARKCO":"203","LANDMARKNA":"縣立竹興國小","LANDMARKAD":"1000504","ADDRESS":"苗栗縣竹南鎮竹興里竹圍街27號","TEL":"037-465037","COUNTYNAME":"苗栗縣","TOWNNAME":"竹南鎮","MARKTYPE":"992","Class":"2"},"geometry":{"x":236262.83000000007,"y":2731190.0448000003}},{"attributes":{"OBJECTID":17762,"LANDMARKID":"1000500000344","LANDMARKCO":"203","LANDMARKNA":"縣立山佳國小","LANDMARKAD":"1000504","ADDRESS":"苗栗縣竹南鎮山佳里龍山路三段39號","TEL":"037-612839","COUNTYNAME":"苗栗縣","TOWNNAME":"竹南鎮","MARKTYPE":"992","Class":"2"},"geometry":{"x":237681.78259999957,"y":2732800.0518999994}},{"attributes":{"OBJECTID":17763,"LANDMARKID":"1000500000345","LANDMARKCO":"203","LANDMARKNA":"縣立大同國中","LANDMARKAD":"1000504","ADDRESS":"苗栗縣竹南鎮大埔里六鄰公義路890號","TEL":"037-580566","COUNTYNAME":"苗栗縣","TOWNNAME":"竹南鎮","MARKTYPE":"992","Class":"2"},"geometry":{"x":239472.7714999998,"y":2733470.1252999995}},{"attributes":{"OBJECTID":17764,"LANDMARKID":"1000500000346","LANDMARKCO":"203","LANDMARKNA":"縣立海口國小","LANDMARKAD":"1000504","ADDRESS":"苗栗縣竹南鎮海口里7鄰93號","TEL":"037-461354","COUNTYNAME":"苗栗縣","TOWNNAME":"竹南鎮","MARKTYPE":"992","Class":"2"},"geometry":{"x":235980.90689999983,"y":2729880.0459000003}},{"attributes":{"OBJECTID":17765,"LANDMARKID":"1000500000484","LANDMARKCO":"305","LANDMARKNA":"龍鳳漁港","LANDMARKAD":"1000504","ADDRESS":"苗栗縣竹南鎮龍鳳里","TEL":" ","COUNTYNAME":"苗栗縣","TOWNNAME":"竹南鎮","MARKTYPE":"993","Class":"305"},"geometry":{"x":235722.90620000008,"y":2732487.8945000004}},{"attributes":{"OBJECTID":17766,"LANDMARKID":"1000500000485","LANDMARKCO":"308","LANDMARKNA":"國3-西濱交流道-北上","LANDMARKAD":"1000504","ADDRESS":"苗栗縣竹南鎮","TEL":" ","COUNTYNAME":"苗栗縣","TOWNNAME":"竹南鎮","MARKTYPE":"993","Class":"308"},"geometry":{"x":236925.06190000009,"y":2732881.0182000007}},{"attributes":{"OBJECTID":17767,"LANDMARKID":"1000500000486","LANDMARKCO":"308","LANDMARKNA":"國3-竹南交流道-北上","LANDMARKAD":"1000504","ADDRESS":"苗栗縣竹南鎮","TEL":" ","COUNTYNAME":"苗栗縣","TOWNNAME":"竹南鎮","MARKTYPE":"993","Class":"308"},"geometry":{"x":234569.24349999987,"y":2730076.8871999998}},{"attributes":{"OBJECTID":17768,"LANDMARKID":"1000500000487","LANDMARKCO":"308","LANDMARKNA":"國3-竹南交流道-南下","LANDMARKAD":"1000504","ADDRESS":"苗栗縣竹南鎮","TEL":" ","COUNTYNAME":"苗栗縣","TOWNNAME":"竹南鎮","MARKTYPE":"993","Class":"308"},"geometry":{"x":234531.79069999978,"y":2729616.2127}},{"attributes":{"OBJECTID":17769,"LANDMARKID":"1000500000488","LANDMARKCO":"308","LANDMARKNA":"台61-苗2線平交匝道-北上","LANDMARKAD":"1000504","ADDRESS":" ","TEL":" ","COUNTYNAME":"苗栗縣","TOWNNAME":"竹南鎮","MARKTYPE":"993","Class":"308"},"geometry":{"x":236846.1074000001,"y":2735247.7047000006}},{"attributes":{"OBJECTID":17770,"LANDMARKID":"1000500000489","LANDMARKCO":"308","LANDMARKNA":"台61-西濱交流道-南下","LANDMARKAD":"1000504","ADDRESS":" ","TEL":" ","COUNTYNAME":"苗栗縣","TOWNNAME":"竹南鎮","MARKTYPE":"993","Class":"308"},"geometry":{"x":236424.20029999968,"y":2732613.0628999993}},{"attributes":{"OBJECTID":17771,"LANDMARKID":"1000500000490","LANDMARKCO":"308","LANDMARKNA":"台61-博愛街平交匝道-南下","LANDMARKAD":"1000504","ADDRESS":" ","TEL":" ","COUNTYNAME":"苗栗縣","TOWNNAME":"竹南鎮","MARKTYPE":"993","Class":"308"},"geometry":{"x":235621.48099999968,"y":2731745.8813000005}},{"attributes":{"OBJECTID":17772,"LANDMARKID":"1000500000491","LANDMARKCO":"308","LANDMARKNA":"台61-博愛街平交匝道-北上","LANDMARKAD":"1000504","ADDRESS":" ","TEL":" ","COUNTYNAME":"苗栗縣","TOWNNAME":"竹南鎮","MARKTYPE":"993","Class":"308"},"geometry":{"x":236141.95010000002,"y":2732070.8343000002}},{"attributes":{"OBJECTID":17773,"LANDMARKID":"1000500000492","LANDMARKCO":"308","LANDMARKNA":"台61-苗6線平交匝道-北上","LANDMARKAD":"1000504","ADDRESS":" ","TEL":" ","COUNTYNAME":"苗栗縣","TOWNNAME":"竹南鎮","MARKTYPE":"993","Class":"308"},"geometry":{"x":235147.27850000001,"y":2731107.5968999993}},{"attributes":{"OBJECTID":17774,"LANDMARKID":"1000500000493","LANDMARKCO":"308","LANDMARKNA":"台61-苗6線平交匝道-南下","LANDMARKAD":"1000504","ADDRESS":" ","TEL":" ","COUNTYNAME":"苗栗縣","TOWNNAME":"竹南鎮","MARKTYPE":"993","Class":"308"},"geometry":{"x":234744.16160000023,"y":2730688.4666000009}},{"attributes":{"OBJECTID":17775,"LANDMARKID":"1000500000494","LANDMARKCO":"308","LANDMARKNA":"台61-竹南連絡道平交匝道-北上","LANDMARKAD":"1000504","ADDRESS":" ","TEL":" ","COUNTYNAME":"苗栗縣","TOWNNAME":"竹南鎮","MARKTYPE":"993","Class":"308"},"geometry":{"x":234385.10570000019,"y":2730285.2974999994}},{"attributes":{"OBJECTID":17776,"LANDMARKID":"1000500000495","LANDMARKCO":"308","LANDMARKNA":"台61-竹南連絡道平交匝道-南下","LANDMARKAD":"1000504","ADDRESS":" ","TEL":" ","COUNTYNAME":"苗栗縣","TOWNNAME":"竹南鎮","MARKTYPE":"993","Class":"308"},"geometry":{"x":233933.31500000041,"y":2729845.0437000003}},{"attributes":{"OBJECTID":17777,"LANDMARKID":"1000500000496","LANDMARKCO":"308","LANDMARKNA":"台61-苗1線平交匝道","LANDMARKAD":"1000504","ADDRESS":" ","TEL":" ","COUNTYNAME":"苗栗縣","TOWNNAME":"竹南鎮","MARKTYPE":"993","Class":"308"},"geometry":{"x":236548.05989999976,"y":2733905.6831999999}},{"attributes":{"OBJECTID":17778,"LANDMARKID":"1000500000497","LANDMARKCO":"308","LANDMARKNA":"台61-復興路平交匝道","LANDMARKAD":"1000504","ADDRESS":" ","TEL":" ","COUNTYNAME":"苗栗縣","TOWNNAME":"竹南鎮","MARKTYPE":"993","Class":"308"},"geometry":{"x":235477.7081000004,"y":2731575.2866999991}},{"attributes":{"OBJECTID":17779,"LANDMARKID":"1000500000498","LANDMARKCO":"308","LANDMARKNA":"台61-苗3-3線平交匝道","LANDMARKAD":"1000504","ADDRESS":" ","TEL":" ","COUNTYNAME":"苗栗縣","TOWNNAME":"竹南鎮","MARKTYPE":"993","Class":"308"},"geometry":{"x":236306.01640000008,"y":2732267.1712999996}},{"attributes":{"OBJECTID":17780,"LANDMARKID":"1000500000499","LANDMARKCO":"308","LANDMARKNA":"台61-苗2線平交匝道","LANDMARKAD":"1000504","ADDRESS":"苗栗縣竹南鎮","TEL":" ","COUNTYNAME":"苗栗縣","TOWNNAME":"竹南鎮","MARKTYPE":"993","Class":"308"},"geometry":{"x":236714.99839999992,"y":2734994.7572000008}},{"attributes":{"OBJECTID":17781,"LANDMARKID":"1000500000452","LANDMARKCO":"303","LANDMARKNA":"竹南啤酒廠停車場","LANDMARKAD":"1000504","ADDRESS":"苗栗縣竹南鎮和興路345號","TEL":"037-583001","COUNTYNAME":"苗栗縣","TOWNNAME":"竹南鎮","MARKTYPE":"993","Class":"303"},"geometry":{"x":237760.51929999981,"y":2733760.3322999999}},{"attributes":{"OBJECTID":17782,"LANDMARKID":"1000500000453","LANDMARKCO":"303","LANDMARKNA":"竹南火車站停車場","LANDMARKAD":"1000504","ADDRESS":"苗栗縣竹南鎮維新街","TEL":" ","COUNTYNAME":"苗栗縣","TOWNNAME":"竹南鎮","MARKTYPE":"993","Class":"303"},"geometry":{"x":238016.73170000035,"y":2730940.5637999997}},{"attributes":{"OBJECTID":17783,"LANDMARKID":"1000500000429","LANDMARKCO":"301","LANDMARKNA":"竹南火車站","LANDMARKAD":"1000504","ADDRESS":"苗栗縣竹南鎮中山路166號","TEL":"037-472030","COUNTYNAME":"苗栗縣","TOWNNAME":"竹南鎮","MARKTYPE":"993","Class":"301"},"geometry":{"x":237906.61440000031,"y":2731073.6254999992}},{"attributes":{"OBJECTID":17784,"LANDMARKID":"1000500000430","LANDMARKCO":"301","LANDMARKNA":"崎頂火車站","LANDMARKAD":"1000504","ADDRESS":"苗栗縣竹南鎮崎頂里56號","TEL":" ","COUNTYNAME":"苗栗縣","TOWNNAME":"竹南鎮","MARKTYPE":"993","Class":"301"},"geometry":{"x":237015.16590000037,"y":2735089.4469000008}},{"attributes":{"OBJECTID":17785,"LANDMARKID":"1000500000573","LANDMARKCO":"402","LANDMARKNA":"中華電信-竹南博愛特約服務中心","LANDMARKAD":"1000504","ADDRESS":"苗栗縣竹南鎮博愛街2之1號","TEL":"037-551580","COUNTYNAME":"苗栗縣","TOWNNAME":"竹南鎮","MARKTYPE":"994","Class":"4"},"geometry":{"x":237830.49480000045,"y":2731087.5626999997}},{"attributes":{"OBJECTID":17786,"LANDMARKID":"1000500000574","LANDMARKCO":"402","LANDMARKNA":"威寶電信-竹南博愛特約服務中心","LANDMARKAD":"1000504","ADDRESS":"苗栗縣竹南鎮博愛街178號","TEL":"037-484088","COUNTYNAME":"苗栗縣","TOWNNAME":"竹南鎮","MARKTYPE":"994","Class":"4"},"geometry":{"x":237322.79899999965,"y":2731119.1976999994}},{"attributes":{"OBJECTID":17787,"LANDMARKID":"1000500000575","LANDMARKCO":"402","LANDMARKNA":"大眾電信(震旦通訊)-竹南博愛店","LANDMARKAD":"1000504","ADDRESS":"苗栗縣竹南鎮博愛街14號","TEL":"035-464299","COUNTYNAME":"苗栗縣","TOWNNAME":"竹南鎮","MARKTYPE":"994","Class":"4"},"geometry":{"x":237802.76730000041,"y":2731089.6670999993}},{"attributes":{"OBJECTID":17788,"LANDMARKID":"1000500000576","LANDMARKCO":"402","LANDMARKNA":"中華電信-竹南科學園區服務中心","LANDMARKAD":"1000504","ADDRESS":"苗栗縣竹南鎮頂埔里科東三路8號","TEL":"(037)583-884","COUNTYNAME":"苗栗縣","TOWNNAME":"竹南鎮","MARKTYPE":"994","Class":"4"},"geometry":{"x":241894.53079999983,"y":2733393.7380999997}},{"attributes":{"OBJECTID":17789,"LANDMARKID":"1000500000868","LANDMARKCO":"603","LANDMARKNA":"竹豐旅社","LANDMARKAD":"1000504","ADDRESS":"苗栗縣竹南鎮和平街95號","TEL":"037-472120","COUNTYNAME":"苗栗縣","TOWNNAME":"竹南鎮","MARKTYPE":"996","Class":"6"},"geometry":{"x":237618.41909999959,"y":2730843.8175000008}},{"attributes":{"OBJECTID":17790,"LANDMARKID":"1000500000869","LANDMARKCO":"603","LANDMARKNA":"新光明大旅社","LANDMARKAD":"1000504","ADDRESS":"苗栗縣竹南鎮博愛街48號","TEL":"037-472267","COUNTYNAME":"苗栗縣","TOWNNAME":"竹南鎮","MARKTYPE":"996","Class":"6"},"geometry":{"x":237746.90770000033,"y":2731096.9770999998}},{"attributes":{"OBJECTID":17791,"LANDMARKID":"1000500000870","LANDMARKCO":"603","LANDMARKNA":"九龍大飯店","LANDMARKAD":"1000504","ADDRESS":"苗栗縣竹南鎮中山路136號","TEL":"037-474111-2","COUNTYNAME":"苗栗縣","TOWNNAME":"竹南鎮","MARKTYPE":"996","Class":"6"},"geometry":{"x":237858.4617999997,"y":2729892.6026000008}},{"attributes":{"OBJECTID":17792,"LANDMARKID":"1000500000871","LANDMARKCO":"603","LANDMARKNA":"台灣新旅社","LANDMARKAD":"1000504","ADDRESS":"苗栗縣竹南鎮中山路28號1-2樓","TEL":"037-473636","COUNTYNAME":"苗栗縣","TOWNNAME":"竹南鎮","MARKTYPE":"996","Class":"6"},"geometry":{"x":237851.47649999987,"y":2730770.6860000007}},{"attributes":{"OBJECTID":17793,"LANDMARKID":"1000500000872","LANDMARKCO":"603","LANDMARKNA":"御和園商務汽車旅館","LANDMARKAD":"1000504","ADDRESS":"苗栗縣竹南鎮公義路1500號","TEL":"037-584748","COUNTYNAME":"苗栗縣","TOWNNAME":"竹南鎮","MARKTYPE":"996","Class":"6"},"geometry":{"x":240778.02859999985,"y":2734786.8895999994}},{"attributes":{"OBJECTID":17794,"LANDMARKID":"1000500000873","LANDMARKCO":"603","LANDMARKNA":"芝柏山汽車旅","LANDMARKAD":"1000504","ADDRESS":"苗栗縣竹南鎮四維街90號","TEL":"037-627567","COUNTYNAME":"苗栗縣","TOWNNAME":"竹南鎮","MARKTYPE":"996","Class":"6"},"geometry":{"x":237910.46349999961,"y":2732643.4831000008}},{"attributes":{"OBJECTID":17795,"LANDMARKID":"1000500000874","LANDMARKCO":"603","LANDMARKNA":"竹南旅社","LANDMARKAD":"1000504","ADDRESS":"苗栗縣竹南鎮光復路18號","TEL":"037-472435","COUNTYNAME":"苗栗縣","TOWNNAME":"竹南鎮","MARKTYPE":"996","Class":"6"},"geometry":{"x":237764.8515999997,"y":2730711.8739}},{"attributes":{"OBJECTID":17796,"LANDMARKID":"1000500000832","LANDMARKCO":"511","LANDMARKNA":"竹南夜市","LANDMARKAD":"1000504","ADDRESS":"苗栗縣竹南鎮","TEL":" ","COUNTYNAME":"苗栗縣","TOWNNAME":"竹南鎮","MARKTYPE":"995","Class":"5"},"geometry":{"x":237694.70720000006,"y":2730982.8113000002}},{"attributes":{"OBJECTID":17797,"LANDMARKID":"1000500000636","LANDMARKCO":"405","LANDMARKNA":"中油加油站-后庄站","LANDMARKAD":"1000505","ADDRESS":"苗栗縣頭份鎮德義路234號","TEL":"03-7629370","COUNTYNAME":"苗栗縣","TOWNNAME":"頭份鎮","MARKTYPE":"994","Class":"4"},"geometry":{"x":239155.97840000037,"y":2731673.5982000008}},{"attributes":{"OBJECTID":17798,"LANDMARKID":"1000500000637","LANDMARKCO":"405","LANDMARKNA":"中油加油站-永炬站","LANDMARKAD":"1000505","ADDRESS":"苗栗縣頭份鎮濫坑里尖豐路931號","TEL":"03-7542109","COUNTYNAME":"苗栗縣","TOWNNAME":"頭份鎮","MARKTYPE":"994","Class":"4"},"geometry":{"x":238146.12789999973,"y":2725627.5113999993}},{"attributes":{"OBJECTID":17799,"LANDMARKID":"1000500000638","LANDMARKCO":"405","LANDMARKNA":"中油加油站-南平站(中油直營)","LANDMARKAD":"1000505","ADDRESS":"苗栗縣頭份鎮蘆竹路270號","TEL":"03-7612746","COUNTYNAME":"苗栗縣","TOWNNAME":"頭份鎮","MARKTYPE":"994","Class":"4"},"geometry":{"x":238298.19809999969,"y":2730120.0190999992}},{"attributes":{"OBJECTID":17800,"LANDMARKID":"1000500000639","LANDMARKCO":"405","LANDMARKNA":"山隆加油站-頭份站(中油)","LANDMARKAD":"1000505","ADDRESS":"苗栗縣頭份鎮永貞路一段25號","TEL":"(037)613-101","COUNTYNAME":"苗栗縣","TOWNNAME":"頭份鎮","MARKTYPE":"994","Class":"4"},"geometry":{"x":238074.68159999978,"y":2729313.5756000001}}]}