{"displayFieldName":"COUNTYNAME","fieldAliases":{"OBJECTID":"OBJECTID","LANDMARKID":"LANDMARKID","LANDMARKCO":"LANDMARKCO","LANDMARKNA":"LANDMARKNA","LANDMARKAD":"LANDMARKAD","ADDRESS":"ADDRESS","TEL":"TEL","COUNTYNAME":"COUNTYNAME","TOWNNAME":"TOWNNAME","MARKTYPE":"MARKTYPE","Class":"Class"},"geometryType":"esriGeometryPoint","spatialReference":{"wkid":102443},"fields":[{"name":"OBJECTID","type":"esriFieldTypeOID","alias":"OBJECTID"},{"name":"LANDMARKID","type":"esriFieldTypeString","alias":"LANDMARKID","length":15},{"name":"LANDMARKCO","type":"esriFieldTypeString","alias":"LANDMARKCO","length":15},{"name":"LANDMARKNA","type":"esriFieldTypeString","alias":"LANDMARKNA","length":50},{"name":"LANDMARKAD","type":"esriFieldTypeString","alias":"LANDMARKAD","length":15},{"name":"ADDRESS","type":"esriFieldTypeString","alias":"ADDRESS","length":56},{"name":"TEL","type":"esriFieldTypeString","alias":"TEL","length":36},{"name":"COUNTYNAME","type":"esriFieldTypeString","alias":"COUNTYNAME","length":15},{"name":"TOWNNAME","type":"esriFieldTypeString","alias":"TOWNNAME","length":13},{"name":"MARKTYPE","type":"esriFieldTypeString","alias":"MARKTYPE","length":12},{"name":"Class","type":"esriFieldTypeString","alias":"Class","length":5}],"features":[{"attributes":{"OBJECTID":11401,"LANDMARKID":"1001100000747","LANDMARKCO":"308","LANDMARKNA":"國3-關廟交流道-南下","LANDMARKAD":"1001129","ADDRESS":"台南市關廟區","TEL":" ","COUNTYNAME":"台南市","TOWNNAME":"關廟區","MARKTYPE":"993","Class":"308"},"geometry":{"x":180819.8172000004,"y":2541769.7291999999}},{"attributes":{"OBJECTID":11402,"LANDMARKID":"1001100000748","LANDMARKCO":"308","LANDMARKNA":"台86-歸仁交流道-東行","LANDMARKAD":"1001129","ADDRESS":" ","TEL":" ","COUNTYNAME":"台南市","TOWNNAME":"關廟區","MARKTYPE":"993","Class":"308"},"geometry":{"x":179481.41590000037,"y":2541094.2115000002}},{"attributes":{"OBJECTID":11403,"LANDMARKID":"1001100000749","LANDMARKCO":"308","LANDMARKNA":"台86-關廟交流道-西行","LANDMARKAD":"1001129","ADDRESS":" ","TEL":" ","COUNTYNAME":"台南市","TOWNNAME":"關廟區","MARKTYPE":"993","Class":"308"},"geometry":{"x":180600.52500000037,"y":2541894.6394999996}},{"attributes":{"OBJECTID":11404,"LANDMARKID":"1001100000750","LANDMARKCO":"308","LANDMARKNA":"台86-關廟交流道-西行","LANDMARKAD":"1001129","ADDRESS":" ","TEL":" ","COUNTYNAME":"台南市","TOWNNAME":"關廟區","MARKTYPE":"993","Class":"308"},"geometry":{"x":180601.03880000021,"y":2541876.8324999996}},{"attributes":{"OBJECTID":11405,"LANDMARKID":"1001100000682","LANDMARKCO":"302","LANDMARKNA":"台南汽車客運關廟站","LANDMARKAD":"1001129","ADDRESS":"台南市關廟區","TEL":" ","COUNTYNAME":"台南市","TOWNNAME":"關廟區","MARKTYPE":"993","Class":"302"},"geometry":{"x":180889.45909999963,"y":2540025.0397999994}},{"attributes":{"OBJECTID":11406,"LANDMARKID":"1001100000734","LANDMARKCO":"303","LANDMARKNA":"山西宮停車場","LANDMARKAD":"1001129","ADDRESS":"台南市關廟區正義街","TEL":" ","COUNTYNAME":"台南市","TOWNNAME":"關廟區","MARKTYPE":"993","Class":"303"},"geometry":{"x":180824.64620000031,"y":2540173.0329}},{"attributes":{"OBJECTID":11407,"LANDMARKID":"1001100000844","LANDMARKCO":"402","LANDMARKNA":"中華電信-關廟服務中心","LANDMARKAD":"1001129","ADDRESS":"台南市關廟區忠孝街113號","TEL":"(06)595-2811","COUNTYNAME":"台南市","TOWNNAME":"關廟區","MARKTYPE":"994","Class":"4"},"geometry":{"x":181030.96389999986,"y":2540362.1437999997}},{"attributes":{"OBJECTID":11408,"LANDMARKID":"1001100001400","LANDMARKCO":"603","LANDMARKNA":"山福旅社","LANDMARKAD":"1001129","ADDRESS":"台南市關廟區山西村中正路1011號","TEL":"06-5952289","COUNTYNAME":"台南市","TOWNNAME":"關廟區","MARKTYPE":"996","Class":"6"},"geometry":{"x":180988.13370000012,"y":2540324.9474999998}},{"attributes":{"OBJECTID":11409,"LANDMARKID":"1001100001401","LANDMARKCO":"603","LANDMARKNA":"玉山大旅社","LANDMARKAD":"1001129","ADDRESS":"台南市關廟區五甲村南雄路1段1086號","TEL":"06-5952616","COUNTYNAME":"台南市","TOWNNAME":"關廟區","MARKTYPE":"996","Class":"6"},"geometry":{"x":181117.07699999958,"y":2539721.2442000005}},{"attributes":{"OBJECTID":11410,"LANDMARKID":"1001100001402","LANDMARKCO":"603","LANDMARKNA":"香洋旅社","LANDMARKAD":"1001129","ADDRESS":"台南市關廟區關廟村忠孝街128號","TEL":"06-5952043","COUNTYNAME":"台南市","TOWNNAME":"關廟區","MARKTYPE":"996","Class":"6"},"geometry":{"x":181029.30740000028,"y":2540287.1361999996}},{"attributes":{"OBJECTID":11411,"LANDMARKID":"1001100001356","LANDMARKCO":"510","LANDMARKNA":"南一高爾夫球場","LANDMARKAD":"1001129","ADDRESS":"台南市關廟區布袋村布袋111-6號","TEL":"06-5551117","COUNTYNAME":"台南市","TOWNNAME":"關廟區","MARKTYPE":"995","Class":"5"},"geometry":{"x":181229.68929999974,"y":2534766.8992999997}},{"attributes":{"OBJECTID":11412,"LANDMARKID":"1001100001439","LANDMARKCO":"605","LANDMARKNA":"二龍山","LANDMARKAD":"1001129","ADDRESS":"台南市關廟區","TEL":" ","COUNTYNAME":"台南市","TOWNNAME":"關廟區","MARKTYPE":"996","Class":"6"},"geometry":{"x":178583.94159999955,"y":2544239.3626000006}},{"attributes":{"OBJECTID":11413,"LANDMARKID":"1001100001440","LANDMARKCO":"605","LANDMARKNA":"上帝廟","LANDMARKAD":"1001129","ADDRESS":"台南市關廟區","TEL":" ","COUNTYNAME":"台南市","TOWNNAME":"關廟區","MARKTYPE":"996","Class":"6"},"geometry":{"x":178038.51470000017,"y":2542600.7142999992}},{"attributes":{"OBJECTID":11414,"LANDMARKID":"1001100001441","LANDMARKCO":"605","LANDMARKNA":"濟生堂","LANDMARKAD":"1001129","ADDRESS":"台南市關廟區","TEL":" ","COUNTYNAME":"台南市","TOWNNAME":"關廟區","MARKTYPE":"996","Class":"6"},"geometry":{"x":180541.02880000044,"y":2541784.3621999994}},{"attributes":{"OBJECTID":11415,"LANDMARKID":"1001100001442","LANDMARKCO":"605","LANDMARKNA":"大師府","LANDMARKAD":"1001129","ADDRESS":"台南市關廟區","TEL":" ","COUNTYNAME":"台南市","TOWNNAME":"關廟區","MARKTYPE":"996","Class":"6"},"geometry":{"x":180126.68130000029,"y":2541272.7688999996}},{"attributes":{"OBJECTID":11416,"LANDMARKID":"1001100001443","LANDMARKCO":"605","LANDMARKNA":"忠義聖堂","LANDMARKAD":"1001129","ADDRESS":"台南市關廟區","TEL":" ","COUNTYNAME":"台南市","TOWNNAME":"關廟區","MARKTYPE":"996","Class":"6"},"geometry":{"x":180016.1568,"y":2541662.7565000001}},{"attributes":{"OBJECTID":11417,"LANDMARKID":"1001100001444","LANDMARKCO":"605","LANDMARKNA":"台南市關廟區鄉民代表會","LANDMARKAD":"1001129","ADDRESS":"台南市關廟區","TEL":" ","COUNTYNAME":"台南市","TOWNNAME":"關廟區","MARKTYPE":"996","Class":"6"},"geometry":{"x":181056.86459999997,"y":2540385.9279999994}},{"attributes":{"OBJECTID":11418,"LANDMARKID":"1001100001445","LANDMARKCO":"605","LANDMARKNA":"山西宮","LANDMARKAD":"1001129","ADDRESS":"台南市關廟區","TEL":" ","COUNTYNAME":"台南市","TOWNNAME":"關廟區","MARKTYPE":"996","Class":"6"},"geometry":{"x":180781.43030000012,"y":2540220.7606000006}},{"attributes":{"OBJECTID":11419,"LANDMARKID":"1001100001446","LANDMARKCO":"605","LANDMARKNA":"元帥宮","LANDMARKAD":"1001129","ADDRESS":"台南市關廟區","TEL":" ","COUNTYNAME":"台南市","TOWNNAME":"關廟區","MARKTYPE":"996","Class":"6"},"geometry":{"x":180683.63179999962,"y":2540257.8643999994}},{"attributes":{"OBJECTID":11420,"LANDMARKID":"1001100001101","LANDMARKCO":"405","LANDMARKNA":"統一速邁樂加油站-仁德二站加油站(中油)","LANDMARKAD":"1001127","ADDRESS":"台南市仁德區中正路二段596號","TEL":"06-2796768","COUNTYNAME":"台南市","TOWNNAME":"仁德區","MARKTYPE":"994","Class":"4"},"geometry":{"x":173387.03479999956,"y":2539751.7029999997}},{"attributes":{"OBJECTID":11421,"LANDMARKID":"1001100001102","LANDMARKCO":"405","LANDMARKNA":"統一速邁樂加油站-仁德成功加油站(中油)","LANDMARKAD":"1001127","ADDRESS":"台南市仁德區仁義村中山路3號","TEL":" ","COUNTYNAME":"台南市","TOWNNAME":"仁德區","MARKTYPE":"994","Class":"4"},"geometry":{"x":175278.59759999998,"y":2541065.4243000001}},{"attributes":{"OBJECTID":11422,"LANDMARKID":"1001100001103","LANDMARKCO":"405","LANDMARKNA":"中油加油站-仁德北上站(中油直營)","LANDMARKAD":"1001127","ADDRESS":"台南市仁德區中洲村中洲1之96號","TEL":"06-2782879","COUNTYNAME":"台南市","TOWNNAME":"仁德區","MARKTYPE":"994","Class":"4"},"geometry":{"x":174782.17989999987,"y":2534047.2750000004}},{"attributes":{"OBJECTID":11423,"LANDMARKID":"1001100001104","LANDMARKCO":"405","LANDMARKNA":"中油加油站-仁德南下站(中油直營)","LANDMARKAD":"1001127","ADDRESS":"台南市仁德區中洲村中洲1之95號","TEL":"06-3660758","COUNTYNAME":"台南市","TOWNNAME":"仁德區","MARKTYPE":"994","Class":"4"},"geometry":{"x":174594.80960000027,"y":2533993.3256999999}},{"attributes":{"OBJECTID":11424,"LANDMARKID":"1001100001105","LANDMARKCO":"405","LANDMARKNA":"中油加油站-全晟站","LANDMARKAD":"1001127","ADDRESS":"台南市仁德區新田村民安路1段273號","TEL":"06-2908569","COUNTYNAME":"台南市","TOWNNAME":"仁德區","MARKTYPE":"994","Class":"4"},"geometry":{"x":172628.87770000007,"y":2539756.0667000003}},{"attributes":{"OBJECTID":11425,"LANDMARKID":"1001100001106","LANDMARKCO":"405","LANDMARKNA":"中油加油站-仁德太子站","LANDMARKAD":"1001127","ADDRESS":"台南市仁德區土庫村太子路143號","TEL":"06-2721268","COUNTYNAME":"台南市","TOWNNAME":"仁德區","MARKTYPE":"994","Class":"4"},"geometry":{"x":174700.83320000023,"y":2543513.2852999996}},{"attributes":{"OBJECTID":11426,"LANDMARKID":"1001100001107","LANDMARKCO":"405","LANDMARKNA":"中油加油站-大德站","LANDMARKAD":"1001127","ADDRESS":"台南市仁德區三甲村三甲子57-10號","TEL":"06-2660797","COUNTYNAME":"台南市","TOWNNAME":"仁德區","MARKTYPE":"994","Class":"4"},"geometry":{"x":172349.80920000002,"y":2536462.2050999999}},{"attributes":{"OBJECTID":11427,"LANDMARKID":"1001100001108","LANDMARKCO":"405","LANDMARKNA":"中油加油站-新力站","LANDMARKAD":"1001127","ADDRESS":"台南市仁德區二行村二仁路1段235號","TEL":"06-3661536","COUNTYNAME":"台南市","TOWNNAME":"仁德區","MARKTYPE":"994","Class":"4"},"geometry":{"x":170372.49419999961,"y":2535876.3131000008}},{"attributes":{"OBJECTID":11428,"LANDMARKID":"1001100001109","LANDMARKCO":"405","LANDMARKNA":"中油加油站-元升站","LANDMARKAD":"1001127","ADDRESS":"台南市仁德區保安村中正路一段103號","TEL":"06-2665131","COUNTYNAME":"台南市","TOWNNAME":"仁德區","MARKTYPE":"994","Class":"4"},"geometry":{"x":171290.38779999968,"y":2535591.5919000003}},{"attributes":{"OBJECTID":11429,"LANDMARKID":"1001100001110","LANDMARKCO":"405","LANDMARKNA":"台糖加油站-虎山站(中油)","LANDMARKAD":"1001127","ADDRESS":"台南市仁德區仁愛村28鄰仁愛1152號","TEL":" ","COUNTYNAME":"台南市","TOWNNAME":"仁德區","MARKTYPE":"994","Class":"4"},"geometry":{"x":169890.36980000045,"y":2538606.9581000004}},{"attributes":{"OBJECTID":11430,"LANDMARKID":"1001100001111","LANDMARKCO":"405","LANDMARKNA":"中油加油站-廣信站(中油直營)","LANDMARKAD":"1001127","ADDRESS":"台南市仁德區土庫村中正路三段583號","TEL":"06-2720478","COUNTYNAME":"台南市","TOWNNAME":"仁德區","MARKTYPE":"994","Class":"4"},"geometry":{"x":173885.95490000024,"y":2543167.0679000001}},{"attributes":{"OBJECTID":11431,"LANDMARKID":"1001100001112","LANDMARKCO":"405","LANDMARKNA":"中油加油站-仁德東和站","LANDMARKAD":"1001127","ADDRESS":"台南市仁德區中山路861號","TEL":"06-2709018","COUNTYNAME":"台南市","TOWNNAME":"仁德區","MARKTYPE":"994","Class":"4"},"geometry":{"x":172506.24870000035,"y":2541550.1062000003}},{"attributes":{"OBJECTID":11432,"LANDMARKID":"1001100001113","LANDMARKCO":"405","LANDMARKNA":"中油加油站-統好站","LANDMARKAD":"1001127","ADDRESS":"台南市仁德區勝利路361號","TEL":"06-2709927","COUNTYNAME":"台南市","TOWNNAME":"仁德區","MARKTYPE":"994","Class":"4"},"geometry":{"x":175148.1481999997,"y":2539377.5844000001}},{"attributes":{"OBJECTID":11433,"LANDMARKID":"1001100001114","LANDMARKCO":"405","LANDMARKNA":"中油加油站-統好仁德站","LANDMARKAD":"1001127","ADDRESS":"台南市仁德區中正路二段631號","TEL":"06-2706045","COUNTYNAME":"台南市","TOWNNAME":"仁德區","MARKTYPE":"994","Class":"4"},"geometry":{"x":173354.98599999957,"y":2539954.8510999996}},{"attributes":{"OBJECTID":11434,"LANDMARKID":"1001100001115","LANDMARKCO":"405","LANDMARKNA":"中油加油站-瑞泰加油站(中油直營)","LANDMARKAD":"1001127","ADDRESS":"台南市仁德區中正路三段３１２號","TEL":" ","COUNTYNAME":"台南市","TOWNNAME":"仁德區","MARKTYPE":"994","Class":"4"},"geometry":{"x":173805.15340000018,"y":2542319.4321999997}},{"attributes":{"OBJECTID":11435,"LANDMARKID":"1001100001116","LANDMARKCO":"405","LANDMARKNA":"中油加油站-仁德成功","LANDMARKAD":"1001127","ADDRESS":"台南市仁德區中山路3號","TEL":"06-2796850","COUNTYNAME":"台南市","TOWNNAME":"仁德區","MARKTYPE":"994","Class":"4"},"geometry":{"x":172000.5895999996,"y":2541762.6537999995}},{"attributes":{"OBJECTID":11436,"LANDMARKID":"1001100001117","LANDMARKCO":"405","LANDMARKNA":"中油加油站-民安站","LANDMARKAD":"1001127","ADDRESS":"台南市仁德區民安路一段325號","TEL":"06-2893335","COUNTYNAME":"台南市","TOWNNAME":"仁德區","MARKTYPE":"994","Class":"4"},"geometry":{"x":172089.90940000024,"y":2539983.7218999993}},{"attributes":{"OBJECTID":11437,"LANDMARKID":"1001100001118","LANDMARKCO":"405","LANDMARKNA":"中油加油站-統好力通站","LANDMARKAD":"1001127","ADDRESS":"台南市仁德區後壁村中正路二段104號","TEL":"06-2493310","COUNTYNAME":"台南市","TOWNNAME":"仁德區","MARKTYPE":"994","Class":"4"},"geometry":{"x":173169.29600000009,"y":2538426.4449000005}},{"attributes":{"OBJECTID":11438,"LANDMARKID":"1001100001119","LANDMARKCO":"405","LANDMARKNA":"台糖加油站-仁德站(中油)","LANDMARKAD":"1001127","ADDRESS":"台南市仁德區仁愛村仁愛1163號","TEL":" ","COUNTYNAME":"台南市","TOWNNAME":"仁德區","MARKTYPE":"994","Class":"4"},"geometry":{"x":170273.24770000018,"y":2539001.1302000005}},{"attributes":{"OBJECTID":11439,"LANDMARKID":"1001100001120","LANDMARKCO":"405","LANDMARKNA":"中油加油站-仁德站(中油直營)","LANDMARKAD":"1001127","ADDRESS":"台南市仁德區中山路505號","TEL":"06-2794451","COUNTYNAME":"台南市","TOWNNAME":"仁德區","MARKTYPE":"994","Class":"4"},"geometry":{"x":173554.38650000002,"y":2541264.6313000005}},{"attributes":{"OBJECTID":11440,"LANDMARKID":"1001100001121","LANDMARKCO":"405","LANDMARKNA":"中油加油站-嘉仁站","LANDMARKAD":"1001127","ADDRESS":"台南市仁德區中山路824號","TEL":"06-2490866","COUNTYNAME":"台南市","TOWNNAME":"仁德區","MARKTYPE":"994","Class":"4"},"geometry":{"x":172483.95069999993,"y":2541638.9913999997}},{"attributes":{"OBJECTID":11441,"LANDMARKID":"1001100001122","LANDMARKCO":"405","LANDMARKNA":"中油加油站-瑞廷加油站(中油直營)","LANDMARKAD":"1001127","ADDRESS":"台南市仁德區中正路三段３６１號","TEL":" ","COUNTYNAME":"台南市","TOWNNAME":"仁德區","MARKTYPE":"994","Class":"4"},"geometry":{"x":173879.62170000002,"y":2542509.0513000004}},{"attributes":{"OBJECTID":11442,"LANDMARKID":"1001100001123","LANDMARKCO":"405","LANDMARKNA":"統一速邁樂加油站-仁德加油站(中油)","LANDMARKAD":"1001127","ADDRESS":"台南市仁德區仁德村中山路814之1號","TEL":"06-2496042","COUNTYNAME":"台南市","TOWNNAME":"仁德區","MARKTYPE":"994","Class":"4"},"geometry":{"x":172553.5672000004,"y":2541587.8709999993}},{"attributes":{"OBJECTID":11443,"LANDMARKID":"1001100000845","LANDMARKCO":"402","LANDMARKNA":"My Phone台灣大哥大-台南仁德直營服務中心","LANDMARKAD":"1001127","ADDRESS":"台南市仁德區仁義村中山路497號","TEL":"0809-000-166","COUNTYNAME":"台南市","TOWNNAME":"仁德區","MARKTYPE":"994","Class":"4"},"geometry":{"x":173598.05850000028,"y":2541280.1030999999}},{"attributes":{"OBJECTID":11444,"LANDMARKID":"1001100000846","LANDMARKCO":"402","LANDMARKNA":"亞太行動寬頻電信-仁德中山加盟服務中心","LANDMARKAD":"1001127","ADDRESS":"台南市仁德區中山路580號","TEL":"06-2490059","COUNTYNAME":"台南市","TOWNNAME":"仁德區","MARKTYPE":"994","Class":"4"},"geometry":{"x":173309.73120000027,"y":2541345.0894000009}},{"attributes":{"OBJECTID":11445,"LANDMARKID":"1001100000837","LANDMARKCO":"401","LANDMARKNA":"行政院衛生署嘉南療養院","LANDMARKAD":"1001127","ADDRESS":"台南市仁德區仁德村中山路870巷80號","TEL":"06-2795019","COUNTYNAME":"台南市","TOWNNAME":"仁德區","MARKTYPE":"994","Class":"4"},"geometry":{"x":172272.01620000042,"y":2541906.1402000003}},{"attributes":{"OBJECTID":11446,"LANDMARKID":"1001100000838","LANDMARKCO":"401","LANDMARKNA":"行政院衛生署胸腔病院","LANDMARKAD":"1001127","ADDRESS":"台南市仁德區仁德村中山路864號","TEL":"06-2705911","COUNTYNAME":"台南市","TOWNNAME":"仁德區","MARKTYPE":"994","Class":"4"},"geometry":{"x":172260.73440000042,"y":2541767.0819000006}},{"attributes":{"OBJECTID":11447,"LANDMARKID":"1001100001184","LANDMARKCO":"408","LANDMARKNA":"郵局-仁德車路墘郵局","LANDMARKAD":"1001127","ADDRESS":"台南市仁德區中正路1段181號","TEL":"(06)2662-944","COUNTYNAME":"台南市","TOWNNAME":"仁德區","MARKTYPE":"994","Class":"4"},"geometry":{"x":171515.14749999996,"y":2535731.8201000001}},{"attributes":{"OBJECTID":11448,"LANDMARKID":"1001100001185","LANDMARKCO":"408","LANDMARKNA":"郵局-仁德太子郵局","LANDMARKAD":"1001127","ADDRESS":"台南市仁德區土庫路2號","TEL":"(06)2724-666","COUNTYNAME":"台南市","TOWNNAME":"仁德區","MARKTYPE":"994","Class":"4"},"geometry":{"x":174163.81469999999,"y":2543480.0247000009}},{"attributes":{"OBJECTID":11449,"LANDMARKID":"1001100001186","LANDMARKCO":"408","LANDMARKNA":"郵局-仁德郵局","LANDMARKAD":"1001127","ADDRESS":"台南市仁德區中正路2段1118號","TEL":"(06)2700-982","COUNTYNAME":"台南市","TOWNNAME":"仁德區","MARKTYPE":"994","Class":"4"},"geometry":{"x":173339.83600000013,"y":2541128.2462000009}},{"attributes":{"OBJECTID":11450,"LANDMARKID":"1001100001187","LANDMARKCO":"408","LANDMARKNA":"郵局-仁德二空郵局","LANDMARKAD":"1001127","ADDRESS":"台南市仁德區仁愛村79號","TEL":"(06)2682-328","COUNTYNAME":"台南市","TOWNNAME":"仁德區","MARKTYPE":"994","Class":"4"},"geometry":{"x":170338.12339999992,"y":2539913.0713999998}},{"attributes":{"OBJECTID":11451,"LANDMARKID":"1001100001188","LANDMARKCO":"408","LANDMARKNA":"郵局-仁德後壁厝郵局","LANDMARKAD":"1001127","ADDRESS":"台南市仁德區中正路2段417、419號","TEL":"(06)2700-674","COUNTYNAME":"台南市","TOWNNAME":"仁德區","MARKTYPE":"994","Class":"4"},"geometry":{"x":173278.89529999997,"y":2539361.8366999999}},{"attributes":{"OBJECTID":11452,"LANDMARKID":"1001100001290","LANDMARKCO":"409","LANDMARKNA":"台南市仁德區農會","LANDMARKAD":"1001127","ADDRESS":"台南市仁德區仁義村中正路二段1136號","TEL":"06-2793911-5","COUNTYNAME":"台南市","TOWNNAME":"仁德區","MARKTYPE":"994","Class":"4"},"geometry":{"x":173536.96129999962,"y":2540835.9832000006}},{"attributes":{"OBJECTID":11453,"LANDMARKID":"1001100001136","LANDMARKCO":"406","LANDMARKNA":"仁德運動公園","LANDMARKAD":"1001127","ADDRESS":"台南市仁德區","TEL":" ","COUNTYNAME":"台南市","TOWNNAME":"仁德區","MARKTYPE":"994","Class":"4"},"geometry":{"x":173962.05549999978,"y":2540932.5074000005}},{"attributes":{"OBJECTID":11454,"LANDMARKID":"1001100001137","LANDMARKCO":"406","LANDMARKNA":"仁德區體育公園","LANDMARKAD":"1001127","ADDRESS":"台南市仁德區","TEL":" ","COUNTYNAME":"台南市","TOWNNAME":"仁德區","MARKTYPE":"994","Class":"4"},"geometry":{"x":174339.67669999972,"y":2534621.3479999993}},{"attributes":{"OBJECTID":11455,"LANDMARKID":"1001100001183","LANDMARKCO":"407","LANDMARKNA":"台糖嘉年華","LANDMARKAD":"1001127","ADDRESS":"台南市仁德區仁愛村仁愛路1211號","TEL":"06-2908888","COUNTYNAME":"台南市","TOWNNAME":"仁德區","MARKTYPE":"994","Class":"4"},"geometry":{"x":170098.92150000017,"y":2538459.1337000001}},{"attributes":{"OBJECTID":11456,"LANDMARKID":"1001100001124","LANDMARKCO":"405","LANDMARKNA":"福懋加油站-仁德站(台塑)","LANDMARKAD":"1001127","ADDRESS":"台南市仁德區二仁路一段48號","TEL":"06-2663833","COUNTYNAME":"台南市","TOWNNAME":"仁德區","MARKTYPE":"994","Class":"4"},"geometry":{"x":170597.82359999977,"y":2535524.5087000001}},{"attributes":{"OBJECTID":11457,"LANDMARKID":"1001100001125","LANDMARKCO":"405","LANDMARKNA":"台塑加油站-高昇站(台塑)","LANDMARKAD":"1001127","ADDRESS":"台南市仁德區大甲村中正西路510號","TEL":"06-2669277","COUNTYNAME":"台南市","TOWNNAME":"仁德區","MARKTYPE":"994","Class":"4"},"geometry":{"x":169274.72400000039,"y":2535548.3117999993}},{"attributes":{"OBJECTID":11458,"LANDMARKID":"1001100001126","LANDMARKCO":"405","LANDMARKNA":"台亞加油站-佳滿站（台塑）","LANDMARKAD":"1001127","ADDRESS":"台南市仁德區民安路一段30號","TEL":"(06)289-7191","COUNTYNAME":"台南市","TOWNNAME":"仁德區","MARKTYPE":"994","Class":"4"},"geometry":{"x":171927.16590000037,"y":2540068.6116000004}},{"attributes":{"OBJECTID":11459,"LANDMARKID":"1001100001127","LANDMARKCO":"405","LANDMARKNA":"福懋加油站-文德站(台塑)","LANDMARKAD":"1001127","ADDRESS":"台南市仁德區文德路17號","TEL":"06-2703918","COUNTYNAME":"台南市","TOWNNAME":"仁德區","MARKTYPE":"994","Class":"4"},"geometry":{"x":172900.31759999972,"y":2541501.9982999992}},{"attributes":{"OBJECTID":11460,"LANDMARKID":"1001100000295","LANDMARKCO":"107","LANDMARKNA":"台南市警察局依仁派出所","LANDMARKAD":"1001127","ADDRESS":"台南市仁德區中洲村中洲12號","TEL":"06-2661245","COUNTYNAME":"台南市","TOWNNAME":"仁德區","MARKTYPE":"991","Class":"1"},"geometry":{"x":173280.98770000041,"y":2534331.1194000002}},{"attributes":{"OBJECTID":11461,"LANDMARKID":"1001100000296","LANDMARKCO":"107","LANDMARKNA":"台南市警察局文賢派出所","LANDMARKAD":"1001127","ADDRESS":"台南市仁德區成功村二仁路二段600號","TEL":"06-2661788","COUNTYNAME":"台南市","TOWNNAME":"仁德區","MARKTYPE":"991","Class":"1"},"geometry":{"x":170093.57849999983,"y":2538215.7830999997}},{"attributes":{"OBJECTID":11462,"LANDMARKID":"1001100000297","LANDMARKCO":"107","LANDMARKNA":"台南市警察局仁德分駐所","LANDMARKAD":"1001127","ADDRESS":"台南市仁德區仁德村中山路624號","TEL":"06-2702664","COUNTYNAME":"台南市","TOWNNAME":"仁德區","MARKTYPE":"991","Class":"1"},"geometry":{"x":173178.10300000012,"y":2541375.6717000008}},{"attributes":{"OBJECTID":11463,"LANDMARKID":"1001100000031","LANDMARKCO":"103","LANDMARKNA":"台南市仁德區衛生所","LANDMARKAD":"1001127","ADDRESS":"台南市仁德區仁德村中山路606巷2號","TEL":"06-2704153","COUNTYNAME":"台南市","TOWNNAME":"仁德區","MARKTYPE":"991","Class":"1"},"geometry":{"x":173247.31709999964,"y":2541465.0167999994}},{"attributes":{"OBJECTID":11464,"LANDMARKID":"1001100000111","LANDMARKCO":"106","LANDMARKNA":"台南市仁德區戶政事務所","LANDMARKAD":"1001127","ADDRESS":"台南市仁德區中山路606巷3號","TEL":"06-2704430","COUNTYNAME":"台南市","TOWNNAME":"仁德區","MARKTYPE":"991","Class":"1"},"geometry":{"x":173222.95370000042,"y":2541404.8925999999}},{"attributes":{"OBJECTID":11465,"LANDMARKID":"1001100000293","LANDMARKCO":"107","LANDMARKNA":"台南市警察局德南派出所","LANDMARKAD":"1001127","ADDRESS":"台南市仁德區後壁村中正路二段271號","TEL":"06-2791341","COUNTYNAME":"台南市","TOWNNAME":"仁德區","MARKTYPE":"991","Class":"1"},"geometry":{"x":173227.42329999991,"y":2539002.9788000006}},{"attributes":{"OBJECTID":11466,"LANDMARKID":"1001100000294","LANDMARKCO":"107","LANDMARKNA":"台南市消防局仁德消防分隊","LANDMARKAD":"1001127","ADDRESS":"台南市仁德區仁義路432號","TEL":"06-2702827","COUNTYNAME":"台南市","TOWNNAME":"仁德區","MARKTYPE":"991","Class":"1"},"geometry":{"x":173894.69660000037,"y":2540972.1699999999}},{"attributes":{"OBJECTID":11467,"LANDMARKID":"1001100000308","LANDMARKCO":"108","LANDMARKNA":"台南市仁德區公所","LANDMARKAD":"1001127","ADDRESS":"台南市仁德區仁德村中正路三段5號","TEL":"06-2704211","COUNTYNAME":"台南市","TOWNNAME":"仁德區","MARKTYPE":"991","Class":"1"},"geometry":{"x":173271.65259999968,"y":2541428.6409000009}},{"attributes":{"OBJECTID":11468,"LANDMARKID":"1001100000032","LANDMARKCO":"103","LANDMARKNA":"台南市仁德區鄉民代表會","LANDMARKAD":"1001127","ADDRESS":"台南市仁德區中正路三段5號2樓","TEL":"06-2490428","COUNTYNAME":"台南市","TOWNNAME":"仁德區","MARKTYPE":"991","Class":"1"},"geometry":{"x":173271.65259999968,"y":2541428.6409000009}},{"attributes":{"OBJECTID":11469,"LANDMARKID":"1001100000298","LANDMARKCO":"107","LANDMARKNA":"台南市警察局太廟派出所","LANDMARKAD":"1001127","ADDRESS":"台南市仁德區太子村太子路164號","TEL":"06-2726472","COUNTYNAME":"台南市","TOWNNAME":"仁德區","MARKTYPE":"991","Class":"1"},"geometry":{"x":174393.83629999962,"y":2543524.7456}},{"attributes":{"OBJECTID":11470,"LANDMARKID":"1001100000299","LANDMARKCO":"107","LANDMARKNA":"台南市消防局文賢消防分隊","LANDMARKAD":"1001127","ADDRESS":"台南市仁德區三甲村58之9號","TEL":"06-2666302","COUNTYNAME":"台南市","TOWNNAME":"仁德區","MARKTYPE":"991","Class":"1"},"geometry":{"x":172542.4589999998,"y":2536590.2072000001}},{"attributes":{"OBJECTID":11471,"LANDMARKID":"1001100000665","LANDMARKCO":"205","LANDMARKNA":"台南家具產業博物館","LANDMARKAD":"1001127","ADDRESS":"台南市仁德區二仁路一段315巷50號","TEL":"06-2661193","COUNTYNAME":"台南市","TOWNNAME":"仁德區","MARKTYPE":"992","Class":"2"},"geometry":{"x":170217.45029999968,"y":2536072.7323000003}},{"attributes":{"OBJECTID":11472,"LANDMARKID":"1001100000666","LANDMARKCO":"205","LANDMARKNA":"奇美博物館","LANDMARKAD":"1001127","ADDRESS":"台南市仁德區三甲村59之1號","TEL":" ","COUNTYNAME":"台南市","TOWNNAME":"仁德區","MARKTYPE":"992","Class":"2"},"geometry":{"x":172437.53660000023,"y":2536339.1889999993}},{"attributes":{"OBJECTID":11473,"LANDMARKID":"1001100000626","LANDMARKCO":"204","LANDMARKNA":"台南市立圖書館仁德分館","LANDMARKAD":"1001127","ADDRESS":"台南市仁德區中正路三段5號","TEL":" ","COUNTYNAME":"台南市","TOWNNAME":"仁德區","MARKTYPE":"992","Class":"2"},"geometry":{"x":173250.98849999998,"y":2541392.7901000008}},{"attributes":{"OBJECTID":11474,"LANDMARKID":"1001100000625","LANDMARKCO":"203","LANDMARKNA":"縣立仁德國中","LANDMARKAD":"1001127","ADDRESS":"台南市仁德區民安路一段363號","TEL":"06-2677697","COUNTYNAME":"台南市","TOWNNAME":"仁德區","MARKTYPE":"992","Class":"2"},"geometry":{"x":172871.48350000009,"y":2539660.3519000001}},{"attributes":{"OBJECTID":11475,"LANDMARKID":"1001100000346","LANDMARKCO":"201","LANDMARKNA":"中華醫事科技大學","LANDMARKAD":"1001127","ADDRESS":"台南市仁德區文華一街89號","TEL":"06-2674567","COUNTYNAME":"台南市","TOWNNAME":"仁德區","MARKTYPE":"992","Class":"2"},"geometry":{"x":172554.7575000003,"y":2540110.1812999994}},{"attributes":{"OBJECTID":11476,"LANDMARKID":"1001100000617","LANDMARKCO":"203","LANDMARKNA":"縣立文賢國小","LANDMARKAD":"1001127","ADDRESS":" ","TEL":" ","COUNTYNAME":"台南市","TOWNNAME":"仁德區","MARKTYPE":"992","Class":"2"},"geometry":{"x":171541.91980000027,"y":2535890.9510999992}},{"attributes":{"OBJECTID":11477,"LANDMARKID":"1001100000618","LANDMARKCO":"203","LANDMARKNA":"縣立文賢國中","LANDMARKAD":"1001127","ADDRESS":"台南市仁德區保安村中正路一段185號","TEL":"06-2662392","COUNTYNAME":"台南市","TOWNNAME":"仁德區","MARKTYPE":"992","Class":"2"},"geometry":{"x":171540.3953999998,"y":2535778.4514000006}},{"attributes":{"OBJECTID":11478,"LANDMARKID":"1001100000619","LANDMARKCO":"203","LANDMARKNA":"私立城光國中","LANDMARKAD":"1001127","ADDRESS":"台南市仁德區文華路593號","TEL":"06-2703301","COUNTYNAME":"台南市","TOWNNAME":"仁德區","MARKTYPE":"992","Class":"2"},"geometry":{"x":172499.39890000038,"y":2541859.5664000008}},{"attributes":{"OBJECTID":11479,"LANDMARKID":"1001100000620","LANDMARKCO":"203","LANDMARKNA":"縣立大甲國小","LANDMARKAD":"1001127","ADDRESS":"台南市仁德區中正西路360巷30號","TEL":"06-2662492","COUNTYNAME":"台南市","TOWNNAME":"仁德區","MARKTYPE":"992","Class":"2"},"geometry":{"x":169699.3992999997,"y":2535510.0322999991}},{"attributes":{"OBJECTID":11480,"LANDMARKID":"1001100000621","LANDMARKCO":"203","LANDMARKNA":"縣立虎山國小","LANDMARKAD":"1001127","ADDRESS":"台南市仁德區成功村虎山一街100號","TEL":"06-2661490","COUNTYNAME":"台南市","TOWNNAME":"仁德區","MARKTYPE":"992","Class":"2"},"geometry":{"x":171063.86780000012,"y":2538433.3721999992}},{"attributes":{"OBJECTID":11481,"LANDMARKID":"1001100000622","LANDMARKCO":"203","LANDMARKNA":"縣立德南國小","LANDMARKAD":"1001127","ADDRESS":"台南市仁德區後壁村中正路二段209號","TEL":"06-2794772","COUNTYNAME":"台南市","TOWNNAME":"仁德區","MARKTYPE":"992","Class":"2"},"geometry":{"x":173174.83100000024,"y":2538801.7186999992}},{"attributes":{"OBJECTID":11482,"LANDMARKID":"1001100000623","LANDMARKCO":"203","LANDMARKNA":"縣立仁德國小","LANDMARKAD":"1001127","ADDRESS":"台南市仁德區中正路二段806號","TEL":"06-2794570","COUNTYNAME":"台南市","TOWNNAME":"仁德區","MARKTYPE":"992","Class":"2"},"geometry":{"x":173508.7070000004,"y":2540294.4265000001}},{"attributes":{"OBJECTID":11483,"LANDMARKID":"1001100000624","LANDMARKCO":"203","LANDMARKNA":"縣立長興國小","LANDMARKAD":"1001127","ADDRESS":"台南市仁德區土庫路6號","TEL":"06-2723986","COUNTYNAME":"台南市","TOWNNAME":"仁德區","MARKTYPE":"992","Class":"2"},"geometry":{"x":174162.86419999972,"y":2543404.7698999997}},{"attributes":{"OBJECTID":11484,"LANDMARKID":"1001100000347","LANDMARKCO":"201","LANDMARKNA":"嘉南藥理科技大學","LANDMARKAD":"1001127","ADDRESS":"台南市仁德區二仁路一段60號","TEL":"06-2664911","COUNTYNAME":"台南市","TOWNNAME":"仁德區","MARKTYPE":"992","Class":"2"},"geometry":{"x":170581.84839999955,"y":2535701.9162000008}},{"attributes":{"OBJECTID":11485,"LANDMARKID":"1001100000615","LANDMARKCO":"203","LANDMARKNA":"縣立仁和國小","LANDMARKAD":"1001127","ADDRESS":"台南市仁德區仁愛村453號","TEL":"06-2681927","COUNTYNAME":"台南市","TOWNNAME":"仁德區","MARKTYPE":"992","Class":"2"},"geometry":{"x":170217.62569999974,"y":2540141.3892999999}},{"attributes":{"OBJECTID":11486,"LANDMARKID":"1001100000616","LANDMARKCO":"203","LANDMARKNA":"縣立依仁國小","LANDMARKAD":"1001127","ADDRESS":"台南市仁德區中洲村港墘3號","TEL":"06-2662108#81","COUNTYNAME":"台南市","TOWNNAME":"仁德區","MARKTYPE":"992","Class":"2"},"geometry":{"x":174205.04860000033,"y":2534820.0134999994}},{"attributes":{"OBJECTID":11487,"LANDMARKID":"1001100000751","LANDMARKCO":"308","LANDMARKNA":"仁德服務區","LANDMARKAD":"1001127","ADDRESS":" ","TEL":" ","COUNTYNAME":"台南市","TOWNNAME":"仁德區","MARKTYPE":"993","Class":"308"},"geometry":{"x":174594.52929999959,"y":2534150.6275999993}},{"attributes":{"OBJECTID":11488,"LANDMARKID":"1001100000752","LANDMARKCO":"308","LANDMARKNA":"國1-仁德系統交流道-北上","LANDMARKAD":"1001127","ADDRESS":"台南市仁德區","TEL":" ","COUNTYNAME":"台南市","TOWNNAME":"仁德區","MARKTYPE":"993","Class":"308"},"geometry":{"x":173001.18350000028,"y":2538527.9818999991}},{"attributes":{"OBJECTID":11489,"LANDMARKID":"1001100000753","LANDMARKCO":"308","LANDMARKNA":"國1-台南交流道-南下","LANDMARKAD":"1001127","ADDRESS":"台南市仁德區","TEL":" ","COUNTYNAME":"台南市","TOWNNAME":"仁德區","MARKTYPE":"993","Class":"308"},"geometry":{"x":173072.02809999976,"y":2540986.0386999995}},{"attributes":{"OBJECTID":11490,"LANDMARKID":"1001100000754","LANDMARKCO":"308","LANDMARKNA":"國1-仁德系統交流道-南下","LANDMARKAD":"1001127","ADDRESS":"台南市仁德區","TEL":" ","COUNTYNAME":"台南市","TOWNNAME":"仁德區","MARKTYPE":"993","Class":"308"},"geometry":{"x":173082.72070000041,"y":2537895.5382000003}},{"attributes":{"OBJECTID":11491,"LANDMARKID":"1001100000755","LANDMARKCO":"308","LANDMARKNA":"國1-台南交流道-北上","LANDMARKAD":"1001127","ADDRESS":"台南市仁德區","TEL":" ","COUNTYNAME":"台南市","TOWNNAME":"仁德區","MARKTYPE":"993","Class":"308"},"geometry":{"x":173018.87760000024,"y":2541662.9812000003}},{"attributes":{"OBJECTID":11492,"LANDMARKID":"1001100000756","LANDMARKCO":"308","LANDMARKNA":"台86-台南交流道-東行","LANDMARKAD":"1001127","ADDRESS":" ","TEL":" ","COUNTYNAME":"台南市","TOWNNAME":"仁德區","MARKTYPE":"993","Class":"308"},"geometry":{"x":170368.91490000021,"y":2536854.6538999993}},{"attributes":{"OBJECTID":11493,"LANDMARKID":"1001100000757","LANDMARKCO":"308","LANDMARKNA":"台86-仁德系統交流道-東行","LANDMARKAD":"1001127","ADDRESS":" ","TEL":" ","COUNTYNAME":"台南市","TOWNNAME":"仁德區","MARKTYPE":"993","Class":"308"},"geometry":{"x":173529.13190000039,"y":2537898.9418000001}},{"attributes":{"OBJECTID":11494,"LANDMARKID":"1001100000758","LANDMARKCO":"308","LANDMARKNA":"台86-仁德系統交流道-西行","LANDMARKAD":"1001127","ADDRESS":" ","TEL":" ","COUNTYNAME":"台南市","TOWNNAME":"仁德區","MARKTYPE":"993","Class":"308"},"geometry":{"x":172563.18850000016,"y":2538282.7954999991}},{"attributes":{"OBJECTID":11495,"LANDMARKID":"1001100000759","LANDMARKCO":"308","LANDMARKNA":"台86-上崙交流道-西行","LANDMARKAD":"1001127","ADDRESS":" ","TEL":" ","COUNTYNAME":"台南市","TOWNNAME":"仁德區","MARKTYPE":"993","Class":"308"},"geometry":{"x":174003.0290000001,"y":2537441.7161999997}},{"attributes":{"OBJECTID":11496,"LANDMARKID":"1001100000760","LANDMARKCO":"308","LANDMARKNA":"台86-上崙交流道-東行","LANDMARKAD":"1001127","ADDRESS":" ","TEL":" ","COUNTYNAME":"台南市","TOWNNAME":"仁德區","MARKTYPE":"993","Class":"308"},"geometry":{"x":174478.97259999998,"y":2537049.6385999992}},{"attributes":{"OBJECTID":11497,"LANDMARKID":"1001100000735","LANDMARKCO":"303","LANDMARKNA":"大型車停車場","LANDMARKAD":"1001127","ADDRESS":"台南市仁德區","TEL":" ","COUNTYNAME":"台南市","TOWNNAME":"仁德區","MARKTYPE":"993","Class":"303"},"geometry":{"x":172769.53870000038,"y":2539177.2405999992}},{"attributes":{"OBJECTID":11498,"LANDMARKID":"1001100000736","LANDMARKCO":"303","LANDMARKNA":"仁德立體停車場","LANDMARKAD":"1001127","ADDRESS":"台南市仁德區正義一路41號","TEL":" ","COUNTYNAME":"台南市","TOWNNAME":"仁德區","MARKTYPE":"993","Class":"303"},"geometry":{"x":173516.40180000011,"y":2541433.5693999995}},{"attributes":{"OBJECTID":11499,"LANDMARKID":"1001100000680","LANDMARKCO":"301","LANDMARKNA":"中洲火車站","LANDMARKAD":"1001127","ADDRESS":"台南市仁德區中洲路298之1號","TEL":" ","COUNTYNAME":"台南市","TOWNNAME":"仁德區","MARKTYPE":"993","Class":"301"},"geometry":{"x":173333.80150000006,"y":2533844.9811000004}},{"attributes":{"OBJECTID":11500,"LANDMARKID":"1001100000681","LANDMARKCO":"301","LANDMARKNA":"保安車站","LANDMARKAD":"1001127","ADDRESS":"台南市仁德區文賢路一段529巷10號","TEL":" ","COUNTYNAME":"台南市","TOWNNAME":"仁德區","MARKTYPE":"993","Class":"301"},"geometry":{"x":171190.0661000004,"y":2537066.6084000003}},{"attributes":{"OBJECTID":11501,"LANDMARKID":"1001100000847","LANDMARKCO":"402","LANDMARKNA":"中華電信-仁德服務中心","LANDMARKAD":"1001127","ADDRESS":"台南市仁德區中正路二段1136號","TEL":"(06)2442267~9","COUNTYNAME":"台南市","TOWNNAME":"仁德區","MARKTYPE":"994","Class":"4"},"geometry":{"x":173316.58700000029,"y":2541177.1278000008}},{"attributes":{"OBJECTID":11502,"LANDMARKID":"1001100000848","LANDMARKCO":"402","LANDMARKNA":"威寶電信-仁德中山特約服務中心","LANDMARKAD":"1001127","ADDRESS":"台南市仁德區中山路450號","TEL":"06-2498438","COUNTYNAME":"台南市","TOWNNAME":"仁德區","MARKTYPE":"994","Class":"4"},"geometry":{"x":173631.92609999981,"y":2541306.2785}},{"attributes":{"OBJECTID":11503,"LANDMARKID":"1001100001403","LANDMARKCO":"603","LANDMARKNA":"陸銘旅社","LANDMARKAD":"1001127","ADDRESS":"台南市仁德區二仁路一段64號","TEL":"06-2661586","COUNTYNAME":"台南市","TOWNNAME":"仁德區","MARKTYPE":"996","Class":"6"},"geometry":{"x":170513.04849999957,"y":2535753.0538999997}},{"attributes":{"OBJECTID":11504,"LANDMARKID":"1001100001404","LANDMARKCO":"603","LANDMARKNA":"大林旅社","LANDMARKAD":"1001127","ADDRESS":"台南市仁德區仁愛村仁愛1185號","TEL":"06-2605001","COUNTYNAME":"台南市","TOWNNAME":"仁德區","MARKTYPE":"996","Class":"6"},"geometry":{"x":169922.5421000002,"y":2538927.3740999997}},{"attributes":{"OBJECTID":11505,"LANDMARKID":"1001100001405","LANDMARKCO":"603","LANDMARKNA":"仁愛旅社","LANDMARKAD":"1001127","ADDRESS":"台南市仁德區仁愛村仁愛548號","TEL":"06-2680240","COUNTYNAME":"台南市","TOWNNAME":"仁德區","MARKTYPE":"996","Class":"6"},"geometry":{"x":169701.31390000042,"y":2540012.1620000005}},{"attributes":{"OBJECTID":11506,"LANDMARKID":"1001100001406","LANDMARKCO":"603","LANDMARKNA":"儷晶汽車旅館","LANDMARKAD":"1001127","ADDRESS":"台南市仁德區仁德村文心路128號","TEL":"06-2791111","COUNTYNAME":"台南市","TOWNNAME":"仁德區","MARKTYPE":"996","Class":"6"},"geometry":{"x":172220.32909999974,"y":2541539.3590999991}},{"attributes":{"OBJECTID":11507,"LANDMARKID":"1001100001407","LANDMARKCO":"603","LANDMARKNA":"假日汽車旅館","LANDMARKAD":"1001127","ADDRESS":"台南市仁德區仁德村文忠路69號","TEL":"06-2798555","COUNTYNAME":"台南市","TOWNNAME":"仁德區","MARKTYPE":"996","Class":"6"},"geometry":{"x":171940.40170000028,"y":2541526.3894999996}},{"attributes":{"OBJECTID":11508,"LANDMARKID":"1001100001408","LANDMARKCO":"603","LANDMARKNA":"戀愛汽車旅館","LANDMARKAD":"1001127","ADDRESS":"台南市仁德區仁德村文華路585號","TEL":"06-2705566","COUNTYNAME":"台南市","TOWNNAME":"仁德區","MARKTYPE":"996","Class":"6"},"geometry":{"x":172510.71320000011,"y":2541771.3747000005}},{"attributes":{"OBJECTID":11509,"LANDMARKID":"1001100001409","LANDMARKCO":"603","LANDMARKNA":"夏卡爾汽車旅館","LANDMARKAD":"1001127","ADDRESS":"台南市仁德區文山路21號","TEL":"06-2798666","COUNTYNAME":"台南市","TOWNNAME":"仁德區","MARKTYPE":"996","Class":"6"},"geometry":{"x":172874.82789999992,"y":2541746.3126999997}},{"attributes":{"OBJECTID":11510,"LANDMARKID":"1001100001410","LANDMARKCO":"603","LANDMARKNA":"永樂天大旅社","LANDMARKAD":"1001127","ADDRESS":"台南市仁德區正義一街58號","TEL":"06-2704271","COUNTYNAME":"台南市","TOWNNAME":"仁德區","MARKTYPE":"996","Class":"6"},"geometry":{"x":173467.56699999981,"y":2541376.4438000005}},{"attributes":{"OBJECTID":11511,"LANDMARKID":"1001100001433","LANDMARKCO":"605","LANDMARKNA":"觀音寺","LANDMARKAD":"1001127","ADDRESS":"台南市仁德區","TEL":" ","COUNTYNAME":"台南市","TOWNNAME":"仁德區","MARKTYPE":"996","Class":"6"},"geometry":{"x":169775.3487999998,"y":2535446.0650999993}},{"attributes":{"OBJECTID":11512,"LANDMARKID":"1001100001434","LANDMARKCO":"605","LANDMARKNA":"忠義宮","LANDMARKAD":"1001127","ADDRESS":"台南市仁德區","TEL":" ","COUNTYNAME":"台南市","TOWNNAME":"仁德區","MARKTYPE":"996","Class":"6"},"geometry":{"x":173582.04000000004,"y":2541933.5748999994}},{"attributes":{"OBJECTID":11513,"LANDMARKID":"1001100001435","LANDMARKCO":"605","LANDMARKNA":"清安宮","LANDMARKAD":"1001127","ADDRESS":"台南市仁德區","TEL":" ","COUNTYNAME":"台南市","TOWNNAME":"仁德區","MARKTYPE":"996","Class":"6"},"geometry":{"x":174570.13360000029,"y":2543774.0342999995}},{"attributes":{"OBJECTID":11514,"LANDMARKID":"1001100001436","LANDMARKCO":"605","LANDMARKNA":"岳王廟","LANDMARKAD":"1001127","ADDRESS":"台南市仁德區太子路64號","TEL":" ","COUNTYNAME":"台南市","TOWNNAME":"仁德區","MARKTYPE":"996","Class":"6"},"geometry":{"x":175210.91899999976,"y":2543579.4282000009}},{"attributes":{"OBJECTID":11515,"LANDMARKID":"1002100000382","LANDMARKCO":"405","LANDMARKNA":"台灣優力加油站-安和路站(中油)","LANDMARKAD":"1002106","ADDRESS":"台南市安南區安和路四段160號","TEL":"06-3564392","COUNTYNAME":"台南市","TOWNNAME":"安南區","MARKTYPE":"994","Class":"4"},"geometry":{"x":169953.78899999987,"y":2550452.5318999998}},{"attributes":{"OBJECTID":11516,"LANDMARKID":"1002100000383","LANDMARKCO":"405","LANDMARKNA":"中油加油站-加州站","LANDMARKAD":"1002106","ADDRESS":"台南市安南區長和街一段95號","TEL":"06-3563657","COUNTYNAME":"台南市","TOWNNAME":"安南區","MARKTYPE":"994","Class":"4"},"geometry":{"x":171777.10280000046,"y":2550482.2465000004}},{"attributes":{"OBJECTID":11517,"LANDMARKID":"1002100000384","LANDMARKCO":"405","LANDMARKNA":"中油加油站-安順站(中油直營)","LANDMARKAD":"1002106","ADDRESS":"台南市安南區安中路一段650號","TEL":"06-2569187","COUNTYNAME":"台南市","TOWNNAME":"安南區","MARKTYPE":"994","Class":"4"},"geometry":{"x":167581.65560000017,"y":2549286.0177999996}},{"attributes":{"OBJECTID":11518,"LANDMARKID":"1002100000385","LANDMARKCO":"405","LANDMARKNA":"中油加油站-北安站","LANDMARKAD":"1002106","ADDRESS":"台南市安南區北安路二段363號","TEL":"06-2471796","COUNTYNAME":"台南市","TOWNNAME":"安南區","MARKTYPE":"994","Class":"4"},"geometry":{"x":168289.42210000008,"y":2548555.5161000006}},{"attributes":{"OBJECTID":11519,"LANDMARKID":"1002100000386","LANDMARKCO":"405","LANDMARKNA":"台灣優力加油站-大成站(中油)","LANDMARKAD":"1002106","ADDRESS":"台南市安南區安明路三段９９０號","TEL":"06-2574175","COUNTYNAME":"台南市","TOWNNAME":"安南區","MARKTYPE":"994","Class":"4"},"geometry":{"x":161865.15649999958,"y":2550557.1367000006}},{"attributes":{"OBJECTID":11520,"LANDMARKID":"1002100000387","LANDMARKCO":"405","LANDMARKNA":"統一速邁樂加油站-北安一站加油站(中油)","LANDMARKAD":"1002106","ADDRESS":"台南市北安路四段665號","TEL":" ","COUNTYNAME":"台南市","TOWNNAME":"安南區","MARKTYPE":"994","Class":"4"},"geometry":{"x":169535.57400000002,"y":2552228.3831999991}},{"attributes":{"OBJECTID":11521,"LANDMARKID":"1002100000388","LANDMARKCO":"405","LANDMARKNA":"中油加油站-安中路站(中油直營)","LANDMARKAD":"1002106","ADDRESS":"台南市安南區安中路四段446號","TEL":"06-2569825","COUNTYNAME":"台南市","TOWNNAME":"安南區","MARKTYPE":"994","Class":"4"},"geometry":{"x":163975.87650000025,"y":2550495.7269000001}},{"attributes":{"OBJECTID":11522,"LANDMARKID":"1002100000389","LANDMARKCO":"405","LANDMARKNA":"中油加油站-甲上站","LANDMARKAD":"1002106","ADDRESS":"台南市安南區安吉路一段759號","TEL":"06-2559445","COUNTYNAME":"台南市","TOWNNAME":"安南區","MARKTYPE":"994","Class":"4"},"geometry":{"x":166980.92050000001,"y":2550500.8091000002}},{"attributes":{"OBJECTID":11523,"LANDMARKID":"1002100000390","LANDMARKCO":"405","LANDMARKNA":"中油加油站-民安海佃站","LANDMARKAD":"1002106","ADDRESS":"台南市安南區海佃路二段202號","TEL":"06-2554872","COUNTYNAME":"台南市","TOWNNAME":"安南區","MARKTYPE":"994","Class":"4"},"geometry":{"x":166974.38260000013,"y":2548309.9777000006}},{"attributes":{"OBJECTID":11524,"LANDMARKID":"1002100000391","LANDMARKCO":"405","LANDMARKNA":"台灣優力加油站-長溪站(中油)","LANDMARKAD":"1002106","ADDRESS":"台南市安南區北安路三段727號","TEL":"06-2465853","COUNTYNAME":"台南市","TOWNNAME":"安南區","MARKTYPE":"994","Class":"4"},"geometry":{"x":169051.4029000001,"y":2549806.3457999993}},{"attributes":{"OBJECTID":11525,"LANDMARKID":"1002100000392","LANDMARKCO":"405","LANDMARKNA":"中油加油站-安和站(中油直營)","LANDMARKAD":"1002106","ADDRESS":"台南市安南區安和路二段238號","TEL":"06-3553299","COUNTYNAME":"台南市","TOWNNAME":"安南區","MARKTYPE":"994","Class":"4"},"geometry":{"x":169673.94299999997,"y":2549108.2324999999}},{"attributes":{"OBJECTID":11526,"LANDMARKID":"1002100000393","LANDMARKCO":"405","LANDMARKNA":"統一速邁樂加油站-海佃加油站(中油)","LANDMARKAD":"1002106","ADDRESS":"台南市海佃路一段339號","TEL":" ","COUNTYNAME":"台南市","TOWNNAME":"安南區","MARKTYPE":"994","Class":"4"},"geometry":{"x":167060.67229999974,"y":2547487.9068}},{"attributes":{"OBJECTID":11527,"LANDMARKID":"1002100000394","LANDMARKCO":"405","LANDMARKNA":"中油加油站-土城站","LANDMARKAD":"1002106","ADDRESS":"台南市安南區安明路4段826號","TEL":"06-2571319","COUNTYNAME":"台南市","TOWNNAME":"安南區","MARKTYPE":"994","Class":"4"},"geometry":{"x":161430.61720000021,"y":2553193.1074999999}},{"attributes":{"OBJECTID":11528,"LANDMARKID":"1002100000395","LANDMARKCO":"405","LANDMARKNA":"中油加油站-大銘昌站","LANDMARKAD":"1002106","ADDRESS":"台南市安南區安明路四段1253號","TEL":"06-2575788","COUNTYNAME":"台南市","TOWNNAME":"安南區","MARKTYPE":"994","Class":"4"},"geometry":{"x":161398.20679999981,"y":2553296.2880000006}},{"attributes":{"OBJECTID":11529,"LANDMARKID":"1002100000396","LANDMARKCO":"405","LANDMARKNA":"中油加油站-和順站(中油直營)","LANDMARKAD":"1002106","ADDRESS":"台南市安南區安和路四段335號","TEL":"06-3559301","COUNTYNAME":"台南市","TOWNNAME":"安南區","MARKTYPE":"994","Class":"4"},"geometry":{"x":169916.0915000001,"y":2550922.3539000005}},{"attributes":{"OBJECTID":11530,"LANDMARKID":"1002100000397","LANDMARKCO":"405","LANDMARKNA":"千越加油站-海佃站(中油)","LANDMARKAD":"1002106","ADDRESS":"台南市安南區海佃路一段5號","TEL":"06-2560999","COUNTYNAME":"台南市","TOWNNAME":"安南區","MARKTYPE":"994","Class":"4"},"geometry":{"x":167212.92889999971,"y":2546734.6581999995}},{"attributes":{"OBJECTID":11531,"LANDMARKID":"1002100000398","LANDMARKCO":"405","LANDMARKNA":"中油加油站-嘉和站","LANDMARKAD":"1002106","ADDRESS":"台南市南區海佃路4段205號","TEL":"06-2561577","COUNTYNAME":"台南市","TOWNNAME":"安南區","MARKTYPE":"994","Class":"4"},"geometry":{"x":165596.97200000007,"y":2551170.3135000002}},{"attributes":{"OBJECTID":11532,"LANDMARKID":"1002100000399","LANDMARKCO":"405","LANDMARKNA":"中油加油站-公學站","LANDMARKAD":"1002106","ADDRESS":"台南市安吉路三段567號","TEL":"06-2473585","COUNTYNAME":"台南市","TOWNNAME":"安南區","MARKTYPE":"994","Class":"4"},"geometry":{"x":167286.8443,"y":2553013.0259000007}},{"attributes":{"OBJECTID":11533,"LANDMARKID":"1002100000400","LANDMARKCO":"405","LANDMARKNA":"中油加油站-轂豐站","LANDMARKAD":"1002106","ADDRESS":"台南市安南區安吉路一段465號","TEL":"06-2476828","COUNTYNAME":"台南市","TOWNNAME":"安南區","MARKTYPE":"994","Class":"4"},"geometry":{"x":166837.62490000017,"y":2549751.2413999997}},{"attributes":{"OBJECTID":11534,"LANDMARKID":"1002100000326","LANDMARKCO":"402","LANDMARKNA":"My Phone台灣大哥大-台南海佃二直營服務中心","LANDMARKAD":"1002106","ADDRESS":"台南市安南區海佃路1段163號","TEL":" ","COUNTYNAME":"台南市","TOWNNAME":"安南區","MARKTYPE":"994","Class":"4"},"geometry":{"x":167124.1640999997,"y":2547125.4485999998}},{"attributes":{"OBJECTID":11535,"LANDMARKID":"1002100000327","LANDMARKCO":"402","LANDMARKNA":"亞太行動寬頻電信-台南安中加盟服務中心","LANDMARKAD":"1002106","ADDRESS":"台南市安南區安中路3段314號","TEL":"06-2557123","COUNTYNAME":"台南市","TOWNNAME":"安南區","MARKTYPE":"994","Class":"4"},"geometry":{"x":165578.94049999956,"y":2549938.7034000009}},{"attributes":{"OBJECTID":11536,"LANDMARKID":"1002100000328","LANDMARKCO":"402","LANDMARKNA":"亞太行動寬頻電信-台南海佃加盟服務中心","LANDMARKAD":"1002106","ADDRESS":"台南市安南區海佃路1段274號","TEL":"06-3580680","COUNTYNAME":"台南市","TOWNNAME":"安南區","MARKTYPE":"994","Class":"4"},"geometry":{"x":167122.27240000013,"y":2547413.4289999995}},{"attributes":{"OBJECTID":11537,"LANDMARKID":"1002100000329","LANDMARKCO":"402","LANDMARKNA":"亞太行動寬頻電信-台南安和加盟服務中心","LANDMARKAD":"1002106","ADDRESS":"台南市安南區安和路1段316號","TEL":"06-2564556","COUNTYNAME":"台南市","TOWNNAME":"安南區","MARKTYPE":"994","Class":"4"},"geometry":{"x":169300.81489999965,"y":2548104.8390999995}},{"attributes":{"OBJECTID":11538,"LANDMARKID":"1002100000325","LANDMARKCO":"401","LANDMARKNA":"台南市立醫院附設安南門診部","LANDMARKAD":"1002106","ADDRESS":"台南市安南區安中路一段745號","TEL":"06-2464438","COUNTYNAME":"台南市","TOWNNAME":"安南區","MARKTYPE":"994","Class":"4"},"geometry":{"x":167457.9495000001,"y":2549315.0767000001}},{"attributes":{"OBJECTID":11539,"LANDMARKID":"1002100000557","LANDMARKCO":"507","LANDMARKNA":"四草砲台(鎮海城)","LANDMARKAD":"1002106","ADDRESS":"台南市安南區四草里顯草街一段381號","TEL":" ","COUNTYNAME":"台南市","TOWNNAME":"安南區","MARKTYPE":"995","Class":"5"},"geometry":{"x":160388.61730000004,"y":2546374.9320999999}},{"attributes":{"OBJECTID":11540,"LANDMARKID":"1002100000535","LANDMARKCO":"408","LANDMARKNA":"郵局-台南和順郵局","LANDMARKAD":"1002106","ADDRESS":"台南市安南區安和路5段119號","TEL":"(06)3559-285","COUNTYNAME":"台南市","TOWNNAME":"安南區","MARKTYPE":"994","Class":"4"},"geometry":{"x":169887.05850000028,"y":2551748.8222000003}},{"attributes":{"OBJECTID":11541,"LANDMARKID":"1002100000536","LANDMARKCO":"408","LANDMARKNA":"郵局-台南安順郵局","LANDMARKAD":"1002106","ADDRESS":"台南市安南區安和路1段430號","TEL":"(06)2555-030","COUNTYNAME":"台南市","TOWNNAME":"安南區","MARKTYPE":"994","Class":"4"},"geometry":{"x":169356.1771999998,"y":2548345.1315000001}},{"attributes":{"OBJECTID":11542,"LANDMARKID":"1002100000537","LANDMARKCO":"408","LANDMARKNA":"郵局-台南安南郵局","LANDMARKAD":"1002106","ADDRESS":"台南市安南區安中路3段106號","TEL":"(06)2561-849","COUNTYNAME":"台南市","TOWNNAME":"安南區","MARKTYPE":"994","Class":"4"},"geometry":{"x":166095.60780000035,"y":2549817.4075000007}},{"attributes":{"OBJECTID":11543,"LANDMARKID":"1002100000538","LANDMARKCO":"408","LANDMARKNA":"郵局-台南海佃郵局","LANDMARKAD":"1002106","ADDRESS":"台南市安南區國安街8號","TEL":"(06)2580-744","COUNTYNAME":"台南市","TOWNNAME":"安南區","MARKTYPE":"994","Class":"4"},"geometry":{"x":167123.59470000025,"y":2547047.4491000008}},{"attributes":{"OBJECTID":11544,"LANDMARKID":"1002100000539","LANDMARKCO":"408","LANDMARKNA":"郵局-台南土城郵局","LANDMARKAD":"1002106","ADDRESS":"台南市安南區安中路6段712號","TEL":"(06)2571-208","COUNTYNAME":"台南市","TOWNNAME":"安南區","MARKTYPE":"994","Class":"4"},"geometry":{"x":160689.27819999959,"y":2551745.3834000006}},{"attributes":{"OBJECTID":11545,"LANDMARKID":"1002100000540","LANDMARKCO":"408","LANDMARKNA":"郵局-台南原佃郵局","LANDMARKAD":"1002106","ADDRESS":"台南市安南區怡安路2段462號","TEL":"(06)2464-402","COUNTYNAME":"台南市","TOWNNAME":"安南區","MARKTYPE":"994","Class":"4"},"geometry":{"x":167753.31379999965,"y":2549430.1417999994}},{"attributes":{"OBJECTID":11546,"LANDMARKID":"1002100000378","LANDMARKCO":"404","LANDMARKNA":"台灣省自來水安南服務所","LANDMARKAD":"1002106","ADDRESS":"台南市安南區安中路一段698巷20號","TEL":" ","COUNTYNAME":"台南市","TOWNNAME":"安南區","MARKTYPE":"994","Class":"4"},"geometry":{"x":167761.22279999964,"y":2549238.1682999991}},{"attributes":{"OBJECTID":11547,"LANDMARKID":"1002100000480","LANDMARKCO":"406","LANDMARKNA":"四草休閒公園","LANDMARKAD":"1002106","ADDRESS":"台南市安南區","TEL":" ","COUNTYNAME":"台南市","TOWNNAME":"安南區","MARKTYPE":"994","Class":"4"},"geometry":{"x":161389.32919999957,"y":2546646.8412999995}},{"attributes":{"OBJECTID":11548,"LANDMARKID":"1002100000481","LANDMARKCO":"406","LANDMARKNA":"鄭成功紀念公園","LANDMARKAD":"1002106","ADDRESS":"至安中路六段左轉入城西街二段","TEL":" ","COUNTYNAME":"台南市","TOWNNAME":"安南區","MARKTYPE":"994","Class":"4"},"geometry":{"x":159262.79519999959,"y":2551091.9681000002}},{"attributes":{"OBJECTID":11549,"LANDMARKID":"1002100000482","LANDMARKCO":"406","LANDMARKNA":"梅花公園","LANDMARKAD":"1002106","ADDRESS":"台南市安南區","TEL":" ","COUNTYNAME":"台南市","TOWNNAME":"安南區","MARKTYPE":"994","Class":"4"},"geometry":{"x":167538.67119999975,"y":2549075.2814000007}},{"attributes":{"OBJECTID":11550,"LANDMARKID":"1002100000483","LANDMARKCO":"406","LANDMARKNA":"鳳凰公園","LANDMARKAD":"1002106","ADDRESS":"台南市安南區","TEL":" ","COUNTYNAME":"台南市","TOWNNAME":"安南區","MARKTYPE":"994","Class":"4"},"geometry":{"x":167850.44460000005,"y":2549202.0688000005}},{"attributes":{"OBJECTID":11551,"LANDMARKID":"1002100000379","LANDMARKCO":"405","LANDMARKNA":"台亞加油站-安吉路站（台塑）","LANDMARKAD":"1002106","ADDRESS":"台南市安南區安吉路三段608號","TEL":"(06)246-4353","COUNTYNAME":"台南市","TOWNNAME":"安南區","MARKTYPE":"994","Class":"4"},"geometry":{"x":167498.0111999996,"y":2553154.1234000009}},{"attributes":{"OBJECTID":11552,"LANDMARKID":"1002100000380","LANDMARKCO":"405","LANDMARKNA":"台亞加油站-安南站（台塑）","LANDMARKAD":"1002106","ADDRESS":"台南市安南區怡安路二段512號","TEL":"(06)246--3124","COUNTYNAME":"台南市","TOWNNAME":"安南區","MARKTYPE":"994","Class":"4"},"geometry":{"x":167374.85410000011,"y":2549520.2498000003}},{"attributes":{"OBJECTID":11553,"LANDMARKID":"1002100000381","LANDMARKCO":"405","LANDMARKNA":"鯨世界加油站-安定站(台塑)","LANDMARKAD":"1002106","ADDRESS":"台南市安南區安吉路一段538號","TEL":" ","COUNTYNAME":"台南市","TOWNNAME":"安南區","MARKTYPE":"994","Class":"4"},"geometry":{"x":166986.71229999978,"y":2550297.4202999994}},{"attributes":{"OBJECTID":11554,"LANDMARKID":"1002100000108","LANDMARKCO":"107","LANDMARKNA":"台南市警察局長安派出所","LANDMARKAD":"1002106","ADDRESS":"台南市安南區長溪路三段313號","TEL":"06-2569531","COUNTYNAME":"台南市","TOWNNAME":"安南區","MARKTYPE":"991","Class":"1"},"geometry":{"x":167741.37239999976,"y":2551881.5676000006}},{"attributes":{"OBJECTID":11555,"LANDMARKID":"1002100000043","LANDMARKCO":"103","LANDMARKNA":"台南巿安南區衛生所","LANDMARKAD":"1002106","ADDRESS":"台南市安南區仁安路70號","TEL":"06-2567406","COUNTYNAME":"台南市","TOWNNAME":"安南區","MARKTYPE":"991","Class":"1"},"geometry":{"x":165569.47929999977,"y":2550072.8939999994}},{"attributes":{"OBJECTID":11556,"LANDMARKID":"1002100000121","LANDMARKCO":"108","LANDMARKNA":"台南市安南區公所","LANDMARKAD":"1002106","ADDRESS":"台南市安南區安中路二段308號","TEL":"06-2567126","COUNTYNAME":"台南市","TOWNNAME":"安南區","MARKTYPE":"991","Class":"1"},"geometry":{"x":166457.69620000012,"y":2549745.0971000008}},{"attributes":{"OBJECTID":11557,"LANDMARKID":"1002100000110","LANDMARKCO":"107","LANDMARKNA":"台南市警察局第三分局","LANDMARKAD":"1002106","ADDRESS":"台南市安南區安中路三段396號","TEL":"06-2567666","COUNTYNAME":"台南市","TOWNNAME":"安南區","MARKTYPE":"991","Class":"1"},"geometry":{"x":165442.09630000032,"y":2550031.5437000003}},{"attributes":{"OBJECTID":11558,"LANDMARKID":"1002100000111","LANDMARKCO":"107","LANDMARKNA":"台南市警察局安中派出所","LANDMARKAD":"1002106","ADDRESS":"台南市安南區安中路一段788號","TEL":"06-2467808","COUNTYNAME":"台南市","TOWNNAME":"安南區","MARKTYPE":"991","Class":"1"},"geometry":{"x":167549.06589999981,"y":2549308.3345999997}},{"attributes":{"OBJECTID":11559,"LANDMARKID":"1002100000112","LANDMARKCO":"107","LANDMARKNA":"台南市警察局顯宮派出所","LANDMARKAD":"1002106","ADDRESS":"臺南市安南區媽祖宮路50號","TEL":"06-2841320","COUNTYNAME":"台南市","TOWNNAME":"安南區","MARKTYPE":"991","Class":"1"},"geometry":{"x":160820.56329999957,"y":2548981.7621999998}},{"attributes":{"OBJECTID":11560,"LANDMARKID":"1002100000113","LANDMARKCO":"107","LANDMARKNA":"台南市警察局安佃派出所","LANDMARKAD":"1002106","ADDRESS":"台南市安南區海佃路四段496號","TEL":"06-2567620","COUNTYNAME":"台南市","TOWNNAME":"安南區","MARKTYPE":"991","Class":"1"},"geometry":{"x":165336.49010000005,"y":2551657.6393999998}},{"attributes":{"OBJECTID":11561,"LANDMARKID":"1002100000114","LANDMARKCO":"107","LANDMARKNA":"台南市警察局土城派出所","LANDMARKAD":"1002106","ADDRESS":"台南市安南區城西街一段40號","TEL":"06-2577403","COUNTYNAME":"台南市","TOWNNAME":"安南區","MARKTYPE":"991","Class":"1"},"geometry":{"x":160755.74880000018,"y":2551458.5403000005}},{"attributes":{"OBJECTID":11562,"LANDMARKID":"1002100000115","LANDMARKCO":"107","LANDMARKNA":"台南市警察局安南派出所","LANDMARKAD":"1002106","ADDRESS":"台南市安南區安中路三段396號","TEL":"06-2567910","COUNTYNAME":"台南市","TOWNNAME":"安南區","MARKTYPE":"991","Class":"1"},"geometry":{"x":165442.09630000032,"y":2550031.5437000003}},{"attributes":{"OBJECTID":11563,"LANDMARKID":"1002100000116","LANDMARKCO":"107","LANDMARKNA":"台南市警察局海南派出所","LANDMARKAD":"1002106","ADDRESS":"台南市安南區海佃路一段419號","TEL":"06-2588946","COUNTYNAME":"台南市","TOWNNAME":"安南區","MARKTYPE":"991","Class":"1"},"geometry":{"x":167011.09769999981,"y":2547681.8091000002}},{"attributes":{"OBJECTID":11564,"LANDMARKID":"1002100000117","LANDMARKCO":"107","LANDMARKNA":"台南市警察局安順派出所","LANDMARKAD":"1002106","ADDRESS":"台南市安南區安和路一段205號","TEL":"06-2562405","COUNTYNAME":"台南市","TOWNNAME":"安南區","MARKTYPE":"991","Class":"1"},"geometry":{"x":169309.75679999962,"y":2547915.1406999994}},{"attributes":{"OBJECTID":11565,"LANDMARKID":"1002100000118","LANDMARKCO":"107","LANDMARKNA":"台南市警察局和順派出所","LANDMARKAD":"1002106","ADDRESS":"台南市安南區安和路四段569號","TEL":"06-3554134","COUNTYNAME":"台南市","TOWNNAME":"安南區","MARKTYPE":"991","Class":"1"},"geometry":{"x":169920.93120000046,"y":2551421.2620000001}},{"attributes":{"OBJECTID":11566,"LANDMARKID":"1002100000119","LANDMARKCO":"107","LANDMARKNA":"台南市消防局安南消防分隊","LANDMARKAD":"1002106","ADDRESS":"台南市安南區安中路三段396號","TEL":"06-2567348","COUNTYNAME":"台南市","TOWNNAME":"安南區","MARKTYPE":"991","Class":"1"},"geometry":{"x":165442.09630000032,"y":2550031.5437000003}},{"attributes":{"OBJECTID":11567,"LANDMARKID":"1002100000120","LANDMARKCO":"107","LANDMARKNA":"台南市消防局安和消防分隊","LANDMARKAD":"1002106","ADDRESS":"台南市安南區安和路三段54巷16號","TEL":"06-3551525","COUNTYNAME":"台南市","TOWNNAME":"安南區","MARKTYPE":"991","Class":"1"},"geometry":{"x":169876.61180000007,"y":2549415.5861000009}},{"attributes":{"OBJECTID":11568,"LANDMARKID":"1002100000054","LANDMARKCO":"106","LANDMARKNA":"台南市安南區戶政事務所","LANDMARKAD":"1002106","ADDRESS":"台南市安南區溪心里3鄰安中路二段306號","TEL":"06-2471161#10","COUNTYNAME":"台南市","TOWNNAME":"安南區","MARKTYPE":"991","Class":"1"},"geometry":{"x":166468.66530000046,"y":2549736.6581999995}},{"attributes":{"OBJECTID":11569,"LANDMARKID":"1002100000053","LANDMARKCO":"105","LANDMARKNA":"台南市安南地政事務所","LANDMARKAD":"1002106","ADDRESS":"台南市安南區安中路三段356號","TEL":"06-2550330","COUNTYNAME":"台南市","TOWNNAME":"安南區","MARKTYPE":"991","Class":"1"},"geometry":{"x":165548.46399999969,"y":2549970.5353999995}},{"attributes":{"OBJECTID":11570,"LANDMARKID":"1002100000046","LANDMARKCO":"104","LANDMARKNA":"南區國稅局安南稽徵所","LANDMARKAD":"1002106","ADDRESS":"台南市安南區安中路二段300號6樓","TEL":"06-2467780","COUNTYNAME":"台南市","TOWNNAME":"安南區","MARKTYPE":"991","Class":"1"},"geometry":{"x":166493.22910000011,"y":2549725.2949999999}},{"attributes":{"OBJECTID":11571,"LANDMARKID":"1002100000001","LANDMARKCO":"101","LANDMARKNA":"工業局台南科技工業區服務中心","LANDMARKAD":"1002106","ADDRESS":"台南市安南區科技五路600號","TEL":"06-3840234","COUNTYNAME":"台南市","TOWNNAME":"安南區","MARKTYPE":"991","Class":"1"},"geometry":{"x":161528.45710000023,"y":2548099.4207000006}},{"attributes":{"OBJECTID":11572,"LANDMARKID":"1002100000109","LANDMARKCO":"107","LANDMARKNA":"台南市消防局土城分隊","LANDMARKAD":"1002106","ADDRESS":"台南市安明路四段260號","TEL":"06-2575276","COUNTYNAME":"台南市","TOWNNAME":"安南區","MARKTYPE":"991","Class":"1"},"geometry":{"x":161293.22609999962,"y":2551059.8575999998}},{"attributes":{"OBJECTID":11573,"LANDMARKID":"1002100000044","LANDMARKCO":"103","LANDMARKNA":"台南市城西垃圾掩埋場","LANDMARKAD":"1002106","ADDRESS":"台南市安南區土城子段507之84地號","TEL":"06-2573429","COUNTYNAME":"台南市","TOWNNAME":"安南區","MARKTYPE":"991","Class":"1"},"geometry":{"x":155330.50629999954,"y":2549740.8044000007}},{"attributes":{"OBJECTID":11574,"LANDMARKID":"1002100000229","LANDMARKCO":"204","LANDMARKNA":"台南巿立圖書館安南分館","LANDMARKAD":"1002106","ADDRESS":"台南市安南區安中路二段301號3樓","TEL":" ","COUNTYNAME":"台南市","TOWNNAME":"安南區","MARKTYPE":"992","Class":"2"},"geometry":{"x":166566.00169999991,"y":2549671.8760000002}},{"attributes":{"OBJECTID":11575,"LANDMARKID":"1002100000230","LANDMARKCO":"204","LANDMARKNA":"台南巿立圖書館土城分館","LANDMARKAD":"1002106","ADDRESS":"台南市安南區城西街一段20號3樓","TEL":" ","COUNTYNAME":"台南市","TOWNNAME":"安南區","MARKTYPE":"992","Class":"2"},"geometry":{"x":160774.68769999966,"y":2551496.8705000002}},{"attributes":{"OBJECTID":11576,"LANDMARKID":"1002100000209","LANDMARKCO":"203","LANDMARKNA":"市立安南國中","LANDMARKAD":"1002106","ADDRESS":"台南市安南區安中路三段252號","TEL":"06-2567384","COUNTYNAME":"台南市","TOWNNAME":"安南區","MARKTYPE":"992","Class":"2"},"geometry":{"x":165829.70010000002,"y":2549980.5142999999}},{"attributes":{"OBJECTID":11577,"LANDMARKID":"1002100000210","LANDMARKCO":"203","LANDMARKNA":"市立鎮海國小","LANDMARKAD":"1002106","ADDRESS":"台南市安南區顯草街一段381號","TEL":"06-2841700","COUNTYNAME":"台南市","TOWNNAME":"安南區","MARKTYPE":"992","Class":"2"},"geometry":{"x":161300.76319999993,"y":2546600.8125}},{"attributes":{"OBJECTID":11578,"LANDMARKID":"1002100000211","LANDMARKCO":"203","LANDMARKNA":"市立學東國小","LANDMARKAD":"1002106","ADDRESS":"台南市安南區公學路六段589號","TEL":"06-2870017","COUNTYNAME":"台南市","TOWNNAME":"安南區","MARKTYPE":"992","Class":"2"},"geometry":{"x":162474.77500000037,"y":2553190.7776999995}},{"attributes":{"OBJECTID":11579,"LANDMARKID":"1002100000212","LANDMARKCO":"203","LANDMARKNA":"市立青草國小","LANDMARKAD":"1002106","ADDRESS":"台南市安南區青砂街二段105巷32號","TEL":"06-2577631","COUNTYNAME":"台南市","TOWNNAME":"安南區","MARKTYPE":"992","Class":"2"},"geometry":{"x":159504.20949999988,"y":2552880.0463999994}},{"attributes":{"OBJECTID":11580,"LANDMARKID":"1002100000139","LANDMARKCO":"202","LANDMARKNA":"市立土城高中","LANDMARKAD":"1002106","ADDRESS":"台南市安南區安中路五段265號","TEL":"06-2577014","COUNTYNAME":"台南市","TOWNNAME":"安南區","MARKTYPE":"992","Class":"2"},"geometry":{"x":162799.47310000006,"y":2550860.8411999997}},{"attributes":{"OBJECTID":11581,"LANDMARKID":"1002100000197","LANDMARKCO":"203","LANDMARKNA":"市立土城國中","LANDMARKAD":"1002106","ADDRESS":"台南市安南區安中路五段265號","TEL":"06-2577014","COUNTYNAME":"台南市","TOWNNAME":"安南區","MARKTYPE":"992","Class":"2"},"geometry":{"x":162799.47310000006,"y":2550860.8411999997}},{"attributes":{"OBJECTID":11582,"LANDMARKID":"1002100000198","LANDMARKCO":"203","LANDMARKNA":"市立安順國中","LANDMARKAD":"1002106","ADDRESS":"台南市安南區安和路三段227號","TEL":"06-2569652","COUNTYNAME":"台南市","TOWNNAME":"安南區","MARKTYPE":"992","Class":"2"},"geometry":{"x":169883.77759999968,"y":2549985.1070000008}},{"attributes":{"OBJECTID":11583,"LANDMARKID":"1002100000199","LANDMARKCO":"203","LANDMARKNA":"市立和順國中","LANDMARKAD":"1002106","ADDRESS":"台南市安南區安和路五段184巷66號","TEL":"06-3551440","COUNTYNAME":"台南市","TOWNNAME":"安南區","MARKTYPE":"992","Class":"2"},"geometry":{"x":169946.88540000003,"y":2551643.8918999992}},{"attributes":{"OBJECTID":11584,"LANDMARKID":"1002100000200","LANDMARKCO":"203","LANDMARKNA":"市立南興國小","LANDMARKAD":"1002106","ADDRESS":"台南市安南區公學路五段627號","TEL":"06-2873204","COUNTYNAME":"台南市","TOWNNAME":"安南區","MARKTYPE":"992","Class":"2"},"geometry":{"x":163938.01690000016,"y":2552710.7662000004}},{"attributes":{"OBJECTID":11585,"LANDMARKID":"1002100000201","LANDMARKCO":"203","LANDMARKNA":"市立安慶國小","LANDMARKAD":"1002106","ADDRESS":"台南市安南區安中路一段703巷80號","TEL":"06-2560643","COUNTYNAME":"台南市","TOWNNAME":"安南區","MARKTYPE":"992","Class":"2"},"geometry":{"x":167360.09559999965,"y":2549033.3735000007}},{"attributes":{"OBJECTID":11586,"LANDMARKID":"1002100000202","LANDMARKCO":"203","LANDMARKNA":"市立海東國小","LANDMARKAD":"1002106","ADDRESS":"台南市安南區安中路三段381號","TEL":"06-2567146","COUNTYNAME":"台南市","TOWNNAME":"安南區","MARKTYPE":"992","Class":"2"},"geometry":{"x":165434.14269999973,"y":2549951.2488000002}},{"attributes":{"OBJECTID":11587,"LANDMARKID":"1002100000203","LANDMARKCO":"203","LANDMARKNA":"市立安順國小","LANDMARKAD":"1002106","ADDRESS":"台南市安南區安和路三段193號","TEL":"06-2569451","COUNTYNAME":"台南市","TOWNNAME":"安南區","MARKTYPE":"992","Class":"2"},"geometry":{"x":169802.15789999999,"y":2549878.6707000006}},{"attributes":{"OBJECTID":11588,"LANDMARKID":"1002100000204","LANDMARKCO":"203","LANDMARKNA":"市立和順國小","LANDMARKAD":"1002106","ADDRESS":"台南市安南區安和路五段178巷5號","TEL":"06-3560691","COUNTYNAME":"台南市","TOWNNAME":"安南區","MARKTYPE":"992","Class":"2"},"geometry":{"x":169910.77130000014,"y":2551875.6989999991}},{"attributes":{"OBJECTID":11589,"LANDMARKID":"1002100000205","LANDMARKCO":"203","LANDMARKNA":"市立土城國小","LANDMARKAD":"1002106","ADDRESS":"台南市安南區城東里城北路195號","TEL":"06-2577645","COUNTYNAME":"台南市","TOWNNAME":"安南區","MARKTYPE":"992","Class":"2"},"geometry":{"x":160938.74480000045,"y":2551862.6731000002}},{"attributes":{"OBJECTID":11590,"LANDMARKID":"1002100000206","LANDMARKCO":"203","LANDMARKNA":"市立安佃國小","LANDMARKAD":"1002106","ADDRESS":"台南市安南區海佃路四段493號","TEL":"06-2567642","COUNTYNAME":"台南市","TOWNNAME":"安南區","MARKTYPE":"992","Class":"2"},"geometry":{"x":165285.7845999999,"y":2551588.1126000006}},{"attributes":{"OBJECTID":11591,"LANDMARKID":"1002100000207","LANDMARKCO":"203","LANDMARKNA":"市立海佃國小","LANDMARKAD":"1002106","ADDRESS":"台南市安南區郡安路五段56號","TEL":"06-2505013","COUNTYNAME":"台南市","TOWNNAME":"安南區","MARKTYPE":"992","Class":"2"},"geometry":{"x":168033.6314000003,"y":2547641.9132000003}},{"attributes":{"OBJECTID":11592,"LANDMARKID":"1002100000131","LANDMARKCO":"201","LANDMARKNA":"立德大學","LANDMARKAD":"1002106","ADDRESS":"台南市安南區安中路五段188號","TEL":"06-2552500","COUNTYNAME":"台南市","TOWNNAME":"安南區","MARKTYPE":"992","Class":"2"},"geometry":{"x":163802.64180000033,"y":2550710.0485999994}},{"attributes":{"OBJECTID":11593,"LANDMARKID":"1002100000208","LANDMARKCO":"203","LANDMARKNA":"市立顯宮國小","LANDMARKAD":"1002106","ADDRESS":"台南市安南區顯草街二段775巷7號","TEL":"06-2841033","COUNTYNAME":"台南市","TOWNNAME":"安南區","MARKTYPE":"992","Class":"2"},"geometry":{"x":160500.87310000043,"y":2548571.0682999995}},{"attributes":{"OBJECTID":11594,"LANDMARKID":"1002100000140","LANDMARKCO":"202","LANDMARKNA":"私立瀛海高中","LANDMARKAD":"1002106","ADDRESS":"台南市安南區長溪街一段76號","TEL":"06-2568582","COUNTYNAME":"台南市","TOWNNAME":"安南區","MARKTYPE":"992","Class":"2"},"geometry":{"x":169172.55590000004,"y":2548460.1436000001}},{"attributes":{"OBJECTID":11595,"LANDMARKID":"1002100000193","LANDMARKCO":"203","LANDMARKNA":"市立土城國小城溪分班","LANDMARKAD":"1002106","ADDRESS":"台南市安南區城溪路541號","TEL":"06-2573301","COUNTYNAME":"台南市","TOWNNAME":"安南區","MARKTYPE":"992","Class":"2"},"geometry":{"x":157086.58420000039,"y":2550791.0402000006}},{"attributes":{"OBJECTID":11596,"LANDMARKID":"1002100000194","LANDMARKCO":"203","LANDMARKNA":"市立南興國小學東分校","LANDMARKAD":"1002106","ADDRESS":"台南市安南區","TEL":" ","COUNTYNAME":"台南市","TOWNNAME":"安南區","MARKTYPE":"992","Class":"2"},"geometry":{"x":162431.38690000027,"y":2553120.5344999991}},{"attributes":{"OBJECTID":11597,"LANDMARKID":"1002100000195","LANDMARKCO":"203","LANDMARKNA":"市立長安國小","LANDMARKAD":"1002106","ADDRESS":"台南市安南區長溪街三段249號","TEL":"06-2569914","COUNTYNAME":"台南市","TOWNNAME":"安南區","MARKTYPE":"992","Class":"2"},"geometry":{"x":167738.41550000012,"y":2551691.5513000004}},{"attributes":{"OBJECTID":11598,"LANDMARKID":"1002100000130","LANDMARKCO":"201","LANDMARKNA":"興國管理學院","LANDMARKAD":"1002106","ADDRESS":"台南市安南區台江大道3段600號","TEL":"06-2873335","COUNTYNAME":"台南市","TOWNNAME":"安南區","MARKTYPE":"992","Class":"2"},"geometry":{"x":163955.68290000036,"y":2551661.1478000004}},{"attributes":{"OBJECTID":11599,"LANDMARKID":"1002100000196","LANDMARKCO":"203","LANDMARKNA":"國立台南啟智學校","LANDMARKAD":"1002106","ADDRESS":"台南市安南區長和街二段74號","TEL":"06-3554591","COUNTYNAME":"台南市","TOWNNAME":"安南區","MARKTYPE":"992","Class":"2"},"geometry":{"x":170212.57490000036,"y":2551651.0370000005}},{"attributes":{"OBJECTID":11600,"LANDMARKID":"1002100000270","LANDMARKCO":"303","LANDMARKNA":"鹿耳門聖母廟停車場","LANDMARKAD":"1002106","ADDRESS":"台南市 安南區城安路160號","TEL":" ","COUNTYNAME":"台南市","TOWNNAME":"安南區","MARKTYPE":"993","Class":"303"},"geometry":{"x":160807.62069999985,"y":2551955.5274999999}}]}