{"displayFieldName":"COUNTYNAME","fieldAliases":{"OBJECTID":"OBJECTID","LANDMARKID":"LANDMARKID","LANDMARKCO":"LANDMARKCO","LANDMARKNA":"LANDMARKNA","LANDMARKAD":"LANDMARKAD","ADDRESS":"ADDRESS","TEL":"TEL","COUNTYNAME":"COUNTYNAME","TOWNNAME":"TOWNNAME","MARKTYPE":"MARKTYPE","Class":"Class"},"geometryType":"esriGeometryPoint","spatialReference":{"wkid":4326},"fields":[{"name":"OBJECTID","type":"esriFieldTypeOID","alias":"OBJECTID"},{"name":"LANDMARKID","type":"esriFieldTypeString","alias":"LANDMARKID","length":15},{"name":"LANDMARKCO","type":"esriFieldTypeString","alias":"LANDMARKCO","length":15},{"name":"LANDMARKNA","type":"esriFieldTypeString","alias":"LANDMARKNA","length":50},{"name":"LANDMARKAD","type":"esriFieldTypeString","alias":"LANDMARKAD","length":15},{"name":"ADDRESS","type":"esriFieldTypeString","alias":"ADDRESS","length":56},{"name":"TEL","type":"esriFieldTypeString","alias":"TEL","length":36},{"name":"COUNTYNAME","type":"esriFieldTypeString","alias":"COUNTYNAME","length":15},{"name":"TOWNNAME","type":"esriFieldTypeString","alias":"TOWNNAME","length":13},{"name":"MARKTYPE","type":"esriFieldTypeString","alias":"MARKTYPE","length":12},{"name":"Class","type":"esriFieldTypeString","alias":"Class","length":5}],"features":[{"attributes":{"OBJECTID":12401,"LANDMARKID":"1000600001286","LANDMARKCO":"505","LANDMARKNA":"天山馬術俱樂部","LANDMARKAD":"1000607","ADDRESS":"台中市后里區內東路202號","TEL":" ","COUNTYNAME":"台中市","TOWNNAME":"后里區","MARKTYPE":"995","Class":"5"},"geometry":{"x":120.73459642781387,"y":24.302484656545655}},{"attributes":{"OBJECTID":12402,"LANDMARKID":"1000600000948","LANDMARKCO":"405","LANDMARKNA":"中油加油站-甲南站","LANDMARKAD":"1000604","ADDRESS":"台中市清水區中華北路200號","TEL":"04-26231098","COUNTYNAME":"台中市","TOWNNAME":"清水區","MARKTYPE":"994","Class":"4"},"geometry":{"x":120.59743538346669,"y":24.306861372884995}},{"attributes":{"OBJECTID":12403,"LANDMARKID":"1000600000949","LANDMARKCO":"405","LANDMARKNA":"中油加油站-詠安站","LANDMARKAD":"1000604","ADDRESS":"台中市清水區菁埔里中華北路299號","TEL":"04-26111101","COUNTYNAME":"台中市","TOWNNAME":"清水區","MARKTYPE":"994","Class":"4"},"geometry":{"x":120.59751145837099,"y":24.307311805302831}},{"attributes":{"OBJECTID":12404,"LANDMARKID":"1000600000950","LANDMARKCO":"405","LANDMARKNA":"中油加油站-清水站(中油直營)","LANDMARKAD":"1000604","ADDRESS":"台中市清水區中山路507-18號","TEL":"04-26222464","COUNTYNAME":"台中市","TOWNNAME":"清水區","MARKTYPE":"994","Class":"4"},"geometry":{"x":120.57837362551633,"y":24.277618052758488}},{"attributes":{"OBJECTID":12405,"LANDMARKID":"1000600000951","LANDMARKCO":"405","LANDMARKNA":"中油加油站-北堤站","LANDMARKAD":"1000604","ADDRESS":"台中市清水區海濱里臨海路46之45號","TEL":"04-26260700","COUNTYNAME":"台中市","TOWNNAME":"清水區","MARKTYPE":"994","Class":"4"},"geometry":{"x":120.56017667761382,"y":24.296316663907767}},{"attributes":{"OBJECTID":12406,"LANDMARKID":"1000600000952","LANDMARKCO":"405","LANDMARKNA":"中油加油站-台中港站(中油直營)","LANDMARKAD":"1000604","ADDRESS":"台中市清水區海演里臨海路48號","TEL":"04-26562247","COUNTYNAME":"台中市","TOWNNAME":"清水區","MARKTYPE":"994","Class":"4"},"geometry":{"x":120.54017997202118,"y":24.28967328694316}},{"attributes":{"OBJECTID":12407,"LANDMARKID":"1000600000953","LANDMARKCO":"405","LANDMARKNA":"山隆加油站-頂湳站(中油)","LANDMARKAD":"1000604","ADDRESS":"台中市清水區頂湳里中山路536-32號","TEL":"(04)2622-0166","COUNTYNAME":"台中市","TOWNNAME":"清水區","MARKTYPE":"994","Class":"4"},"geometry":{"x":120.59086688153,"y":24.295417395279273}},{"attributes":{"OBJECTID":12408,"LANDMARKID":"1000600000954","LANDMARKCO":"405","LANDMARKNA":"中油加油站-中華清水站","LANDMARKAD":"1000604","ADDRESS":"台中市清水區中華路598號","TEL":"04-26232086","COUNTYNAME":"台中市","TOWNNAME":"清水區","MARKTYPE":"994","Class":"4"},"geometry":{"x":120.57644940843336,"y":24.278484259596215}},{"attributes":{"OBJECTID":12409,"LANDMARKID":"1000600000955","LANDMARKCO":"405","LANDMARKNA":"中油加油站-祝福站","LANDMARKAD":"1000604","ADDRESS":"台中市清水區高美路96號","TEL":"04-26271297","COUNTYNAME":"台中市","TOWNNAME":"清水區","MARKTYPE":"994","Class":"4"},"geometry":{"x":120.57546578757379,"y":24.278645630207869}},{"attributes":{"OBJECTID":12410,"LANDMARKID":"1000600000956","LANDMARKCO":"405","LANDMARKNA":"中油加油站-清水服務區站(中油直營)","LANDMARKAD":"1000604","ADDRESS":"台中市清水區吳厝里東山路141號","TEL":"04-26203281","COUNTYNAME":"台中市","TOWNNAME":"清水區","MARKTYPE":"994","Class":"4"},"geometry":{"x":120.59997153731788,"y":24.279553794548697}},{"attributes":{"OBJECTID":12411,"LANDMARKID":"1000600000811","LANDMARKCO":"402","LANDMARKNA":"亞太行動寬頻電信-清水中山加盟服務中心","LANDMARKAD":"1000604","ADDRESS":"台中市清水區中山路281號","TEL":"04-26220789","COUNTYNAME":"台中市","TOWNNAME":"清水區","MARKTYPE":"994","Class":"4"},"geometry":{"x":120.5756353557685,"y":24.27008338719358}},{"attributes":{"OBJECTID":12412,"LANDMARKID":"1000600000783","LANDMARKCO":"401","LANDMARKNA":"陽光精神科醫院","LANDMARKAD":"1000604","ADDRESS":"台中市清水區東山路68之1號","TEL":"04-26202949","COUNTYNAME":"台中市","TOWNNAME":"清水區","MARKTYPE":"994","Class":"4"},"geometry":{"x":120.60933516594429,"y":24.28124416773343}},{"attributes":{"OBJECTID":12413,"LANDMARKID":"1000600000784","LANDMARKCO":"401","LANDMARKNA":"清濱醫院","LANDMARKAD":"1000604","ADDRESS":"台中市清水區港埠路四段195號","TEL":"04-26283595","COUNTYNAME":"台中市","TOWNNAME":"清水區","MARKTYPE":"994","Class":"4"},"geometry":{"x":120.54899567480911,"y":24.28308874782865}},{"attributes":{"OBJECTID":12414,"LANDMARKID":"1000600001217","LANDMARKCO":"408","LANDMARKNA":"郵局-清水郵局","LANDMARKAD":"1000604","ADDRESS":"台中市清水區中山路124號","TEL":"(04)2622-7353","COUNTYNAME":"台中市","TOWNNAME":"清水區","MARKTYPE":"994","Class":"4"},"geometry":{"x":120.57531496726696,"y":24.26799592033375}},{"attributes":{"OBJECTID":12415,"LANDMARKID":"1000600001218","LANDMARKCO":"408","LANDMARKNA":"郵局-清水南社郵局","LANDMARKAD":"1000604","ADDRESS":"台中市清水區忠貞路39號","TEL":"(04)2626-3040","COUNTYNAME":"台中市","TOWNNAME":"清水區","MARKTYPE":"994","Class":"4"},"geometry":{"x":120.55815979812245,"y":24.271917530294811}},{"attributes":{"OBJECTID":12416,"LANDMARKID":"1000600001219","LANDMARKCO":"408","LANDMARKNA":"郵局-清水田寮郵局","LANDMARKAD":"1000604","ADDRESS":"台中市清水區高美路162-14號","TEL":"(04)2626-4073","COUNTYNAME":"台中市","TOWNNAME":"清水區","MARKTYPE":"994","Class":"4"},"geometry":{"x":120.57509879066794,"y":24.282121350986213}},{"attributes":{"OBJECTID":12417,"LANDMARKID":"1000600001228","LANDMARKCO":"409","LANDMARKNA":"台中市清水區農會","LANDMARKAD":"1000604","ADDRESS":"台中市清水區中山路94號","TEL":"04-26232101","COUNTYNAME":"台中市","TOWNNAME":"清水區","MARKTYPE":"994","Class":"4"},"geometry":{"x":120.57482759105795,"y":24.266927839283557}},{"attributes":{"OBJECTID":12418,"LANDMARKID":"1000600001229","LANDMARKCO":"409","LANDMARKNA":"台中區漁會","LANDMARKAD":"1000604","ADDRESS":"台中市清水區海濱里北堤路30號","TEL":"04-26562650","COUNTYNAME":"台中市","TOWNNAME":"清水區","MARKTYPE":"994","Class":"4"},"geometry":{"x":120.52090325880629,"y":24.293399158848505}},{"attributes":{"OBJECTID":12419,"LANDMARKID":"1000600001136","LANDMARKCO":"406","LANDMARKNA":"美化公園","LANDMARKAD":"1000604","ADDRESS":"台中市清水區","TEL":" ","COUNTYNAME":"台中市","TOWNNAME":"清水區","MARKTYPE":"994","Class":"4"},"geometry":{"x":120.57885637917526,"y":24.299509570352992}},{"attributes":{"OBJECTID":12420,"LANDMARKID":"1000600001137","LANDMARKCO":"406","LANDMARKNA":"雕塑公園","LANDMARKAD":"1000604","ADDRESS":"台中市清水區","TEL":" ","COUNTYNAME":"台中市","TOWNNAME":"清水區","MARKTYPE":"994","Class":"4"},"geometry":{"x":120.58160912721385,"y":24.273052743837365}},{"attributes":{"OBJECTID":12421,"LANDMARKID":"1000600001138","LANDMARKCO":"406","LANDMARKNA":"鰲峰山公園","LANDMARKAD":"1000604","ADDRESS":"台中市清水區","TEL":" ","COUNTYNAME":"台中市","TOWNNAME":"清水區","MARKTYPE":"994","Class":"4"},"geometry":{"x":120.58359030838464,"y":24.270832267399811}},{"attributes":{"OBJECTID":12422,"LANDMARKID":"1000600001139","LANDMARKCO":"406","LANDMARKNA":"石頭瀨公園","LANDMARKAD":"1000604","ADDRESS":"台中市清水區","TEL":" ","COUNTYNAME":"台中市","TOWNNAME":"清水區","MARKTYPE":"994","Class":"4"},"geometry":{"x":120.58116453007432,"y":24.272246224655081}},{"attributes":{"OBJECTID":12423,"LANDMARKID":"1000600001140","LANDMARKCO":"406","LANDMARKNA":"清水公園","LANDMARKAD":"1000604","ADDRESS":"台中市清水區","TEL":" ","COUNTYNAME":"台中市","TOWNNAME":"清水區","MARKTYPE":"994","Class":"4"},"geometry":{"x":120.58051562715691,"y":24.269244723257945}},{"attributes":{"OBJECTID":12424,"LANDMARKID":"1000600001141","LANDMARKCO":"406","LANDMARKNA":"親鳥公園","LANDMARKAD":"1000604","ADDRESS":"台中市清水區","TEL":" ","COUNTYNAME":"台中市","TOWNNAME":"清水區","MARKTYPE":"994","Class":"4"},"geometry":{"x":120.58208358371439,"y":24.268271079032012}},{"attributes":{"OBJECTID":12425,"LANDMARKID":"1000600000900","LANDMARKCO":"404","LANDMARKNA":"台灣省自來水清水營運所","LANDMARKAD":"1000604","ADDRESS":"台中市清水區大街路134號","TEL":" ","COUNTYNAME":"台中市","TOWNNAME":"清水區","MARKTYPE":"994","Class":"4"},"geometry":{"x":120.57907575090243,"y":24.268677900033598}},{"attributes":{"OBJECTID":12426,"LANDMARKID":"1000600000947","LANDMARKCO":"405","LANDMARKNA":"台塑加油站-山隆梧棲港","LANDMARKAD":"1000604","ADDRESS":"台中市清水區臨海路45-5號","TEL":"04-26276328","COUNTYNAME":"台中市","TOWNNAME":"清水區","MARKTYPE":"994","Class":"4"},"geometry":{"x":120.55244230373073,"y":24.293530256843663}},{"attributes":{"OBJECTID":12427,"LANDMARKID":"1000600000224","LANDMARKCO":"107","LANDMARKNA":"台中港務消防隊防風林小隊","LANDMARKAD":"1000604","ADDRESS":"台中市清水區北堤路5號","TEL":"04-26566122","COUNTYNAME":"台中市","TOWNNAME":"清水區","MARKTYPE":"991","Class":"1"},"geometry":{"x":120.53044739192465,"y":24.291807375350281}},{"attributes":{"OBJECTID":12428,"LANDMARKID":"1000600000248","LANDMARKCO":"108","LANDMARKNA":"台中市清水區公所","LANDMARKAD":"1000604","ADDRESS":"台中市清水區鎮政路101號","TEL":"04-26270151","COUNTYNAME":"台中市","TOWNNAME":"清水區","MARKTYPE":"991","Class":"1"},"geometry":{"x":120.55962366578214,"y":24.268323804014088}},{"attributes":{"OBJECTID":12429,"LANDMARKID":"1000600000076","LANDMARKCO":"103","LANDMARKNA":"台中市清水區鎮民代表會","LANDMARKAD":"1000604","ADDRESS":"台中市清水區鎮政路101號","TEL":"04-26270166","COUNTYNAME":"台中市","TOWNNAME":"清水區","MARKTYPE":"991","Class":"1"},"geometry":{"x":120.55962366578214,"y":24.268323804014088}},{"attributes":{"OBJECTID":12430,"LANDMARKID":"1000600000225","LANDMARKCO":"107","LANDMARKNA":"台中市警察局清水分局","LANDMARKAD":"1000604","ADDRESS":"台中市清水區南寧里鰲峰路23號","TEL":"04-26220044","COUNTYNAME":"台中市","TOWNNAME":"清水區","MARKTYPE":"991","Class":"1"},"geometry":{"x":120.57411786250903,"y":24.269154825330396}},{"attributes":{"OBJECTID":12431,"LANDMARKID":"1000600000226","LANDMARKCO":"107","LANDMARKNA":"台中市警察局大楊派出所","LANDMARKAD":"1000604","ADDRESS":"臺中縣清水區東山里神清路46號","TEL":"04-26200514","COUNTYNAME":"台中市","TOWNNAME":"清水區","MARKTYPE":"991","Class":"1"},"geometry":{"x":120.63107182203379,"y":24.273223201984294}},{"attributes":{"OBJECTID":12432,"LANDMARKID":"1000600000227","LANDMARKCO":"107","LANDMARKNA":"台中市警察局大秀派出所","LANDMARKAD":"1000604","ADDRESS":"臺中縣清水區五權路438號","TEL":"04-26265384","COUNTYNAME":"台中市","TOWNNAME":"清水區","MARKTYPE":"991","Class":"1"},"geometry":{"x":120.55371020529523,"y":24.280272070162841}},{"attributes":{"OBJECTID":12433,"LANDMARKID":"1000600000228","LANDMARKCO":"107","LANDMARKNA":"台中市警察局高美派出所","LANDMARKAD":"1000604","ADDRESS":"台中市清水區高美里護岸路29號","TEL":"04-26113384","COUNTYNAME":"台中市","TOWNNAME":"清水區","MARKTYPE":"991","Class":"1"},"geometry":{"x":120.56251162400706,"y":24.311436256452588}},{"attributes":{"OBJECTID":12434,"LANDMARKID":"1000600000229","LANDMARKCO":"107","LANDMARKNA":"台中市警察局三田派出所","LANDMARKAD":"1000604","ADDRESS":"台中市清水區下湳里中山路569號","TEL":"04-26222146","COUNTYNAME":"台中市","TOWNNAME":"清水區","MARKTYPE":"991","Class":"1"},"geometry":{"x":120.59649244043146,"y":24.301544631321683}},{"attributes":{"OBJECTID":12435,"LANDMARKID":"1000600000101","LANDMARKCO":"106","LANDMARKNA":"台中市清水區戶政事務所","LANDMARKAD":"1000604","ADDRESS":"台中市清水區鰲峰路239號","TEL":"04-26280801","COUNTYNAME":"台中市","TOWNNAME":"清水區","MARKTYPE":"991","Class":"1"},"geometry":{"x":120.562841636135,"y":24.266358053371246}},{"attributes":{"OBJECTID":12436,"LANDMARKID":"1000600000223","LANDMARKCO":"107","LANDMARKNA":"台中市消防局清水分隊","LANDMARKAD":"1000604","ADDRESS":"台中市清水區鰲峰路27號","TEL":"04-26222600","COUNTYNAME":"台中市","TOWNNAME":"清水區","MARKTYPE":"991","Class":"1"},"geometry":{"x":120.57369416863105,"y":24.269223781469432}},{"attributes":{"OBJECTID":12437,"LANDMARKID":"1000600000077","LANDMARKCO":"103","LANDMARKNA":"台中市清水區衛生所","LANDMARKAD":"1000604","ADDRESS":"台中市清水區中山路92號","TEL":"04-26222639","COUNTYNAME":"台中市","TOWNNAME":"清水區","MARKTYPE":"991","Class":"1"},"geometry":{"x":120.57466198491554,"y":24.266577176318972}},{"attributes":{"OBJECTID":12438,"LANDMARKID":"1000600000100","LANDMARKCO":"105","LANDMARKNA":"台中市清水地政事務所","LANDMARKAD":"1000604","ADDRESS":"台中市清水區大街路138號","TEL":"04-26237141","COUNTYNAME":"台中市","TOWNNAME":"清水區","MARKTYPE":"991","Class":"1"},"geometry":{"x":120.57876478174086,"y":24.269099904051664}},{"attributes":{"OBJECTID":12439,"LANDMARKID":"1000600000559","LANDMARKCO":"205","LANDMARKNA":"清水區韭黃產業文化館","LANDMARKAD":"1000604","ADDRESS":"台中市清水區中山路94號","TEL":" ","COUNTYNAME":"台中市","TOWNNAME":"清水區","MARKTYPE":"992","Class":"2"},"geometry":{"x":120.57489309033242,"y":24.266633206127484}},{"attributes":{"OBJECTID":12440,"LANDMARKID":"1000600000573","LANDMARKCO":"207","LANDMARKNA":"台中市立港區藝術中心","LANDMARKAD":"1000604","ADDRESS":"台中市清水區忠貞路20號","TEL":" ","COUNTYNAME":"台中市","TOWNNAME":"清水區","MARKTYPE":"992","Class":"2"},"geometry":{"x":120.55821703626196,"y":24.269594619274955}},{"attributes":{"OBJECTID":12441,"LANDMARKID":"1000600000554","LANDMARKCO":"204","LANDMARKNA":"台中市立圖書館清水分館","LANDMARKAD":"1000604","ADDRESS":"台中市清水區南社里鎮政路50號","TEL":" ","COUNTYNAME":"台中市","TOWNNAME":"清水區","MARKTYPE":"992","Class":"2"},"geometry":{"x":120.55941333164367,"y":24.26824338124554}},{"attributes":{"OBJECTID":12442,"LANDMARKID":"1000600000555","LANDMARKCO":"204","LANDMARKNA":"台中市立圖書館清水紫雲巖分館","LANDMARKAD":"1000604","ADDRESS":"台中市清水區光明路35之11號3樓","TEL":" ","COUNTYNAME":"台中市","TOWNNAME":"清水區","MARKTYPE":"992","Class":"2"},"geometry":{"x":120.57848154739433,"y":24.271323102857146}},{"attributes":{"OBJECTID":12443,"LANDMARKID":"1000600000352","LANDMARKCO":"203","LANDMARKNA":"縣立西寧國小","LANDMARKAD":"1000604","ADDRESS":"台中市清水區西寧里高美路41巷2號","TEL":"04-26222430","COUNTYNAME":"台中市","TOWNNAME":"清水區","MARKTYPE":"992","Class":"2"},"geometry":{"x":120.57452833632358,"y":24.276405396317156}},{"attributes":{"OBJECTID":12444,"LANDMARKID":"1000600000353","LANDMARKCO":"203","LANDMARKNA":"縣立大楊國小","LANDMARKAD":"1000604","ADDRESS":"台中市清水區楊厝里頂三庄路10-1號","TEL":"04-26200634","COUNTYNAME":"台中市","TOWNNAME":"清水區","MARKTYPE":"992","Class":"2"},"geometry":{"x":120.61013885498576,"y":24.292299983929073}},{"attributes":{"OBJECTID":12445,"LANDMARKID":"1000600000354","LANDMARKCO":"203","LANDMARKNA":"縣立清泉國中","LANDMARKAD":"1000604","ADDRESS":"台中市清水區菁埔里臨海路27之2號","TEL":"04-26113134","COUNTYNAME":"台中市","TOWNNAME":"清水區","MARKTYPE":"992","Class":"2"},"geometry":{"x":120.5917530721966,"y":24.305971475261707}},{"attributes":{"OBJECTID":12446,"LANDMARKID":"1000600000355","LANDMARKCO":"203","LANDMARKNA":"縣立三田國小","LANDMARKAD":"1000604","ADDRESS":"台中市清水區田寮里三田路4號","TEL":"04-26262400","COUNTYNAME":"台中市","TOWNNAME":"清水區","MARKTYPE":"992","Class":"2"},"geometry":{"x":120.58106526444658,"y":24.289871815045935}},{"attributes":{"OBJECTID":12447,"LANDMARKID":"1000600000356","LANDMARKCO":"203","LANDMARKNA":"縣立大秀國小","LANDMARKAD":"1000604","ADDRESS":"台中市清水區武鹿里海濱路231號","TEL":"04-26263854","COUNTYNAME":"台中市","TOWNNAME":"清水區","MARKTYPE":"992","Class":"2"},"geometry":{"x":120.57287646323245,"y":24.27182029033365}},{"attributes":{"OBJECTID":12448,"LANDMARKID":"1000600000357","LANDMARKCO":"203","LANDMARKNA":"縣立東山國小","LANDMARKAD":"1000604","ADDRESS":"台中市清水區東山里神清路6之1號","TEL":"04-26200517","COUNTYNAME":"台中市","TOWNNAME":"清水區","MARKTYPE":"992","Class":"2"},"geometry":{"x":120.63458399415512,"y":24.276287276321057}},{"attributes":{"OBJECTID":12449,"LANDMARKID":"1000600000307","LANDMARKCO":"202","LANDMARKNA":"國立清水高中","LANDMARKAD":"1000604","ADDRESS":"台中市清水區中山路90號","TEL":"04-26222117","COUNTYNAME":"台中市","TOWNNAME":"清水區","MARKTYPE":"992","Class":"2"},"geometry":{"x":120.57410373883999,"y":24.265289379202116}},{"attributes":{"OBJECTID":12450,"LANDMARKID":"1000600000337","LANDMARKCO":"203","LANDMARKNA":"縣立清海國中","LANDMARKAD":"1000604","ADDRESS":"台中市清水區中央路51之60號","TEL":"04-26274508","COUNTYNAME":"台中市","TOWNNAME":"清水區","MARKTYPE":"992","Class":"2"},"geometry":{"x":120.55365378381849,"y":24.276427873323414}},{"attributes":{"OBJECTID":12451,"LANDMARKID":"1000600000338","LANDMARKCO":"203","LANDMARKNA":"縣立清水國中","LANDMARKAD":"1000604","ADDRESS":"台中市清水區鰲峰路250號","TEL":"04-26262042","COUNTYNAME":"台中市","TOWNNAME":"清水區","MARKTYPE":"992","Class":"2"},"geometry":{"x":120.56251577344401,"y":24.268516292297498}},{"attributes":{"OBJECTID":12452,"LANDMARKID":"1000600000339","LANDMARKCO":"203","LANDMARKNA":"縣立清水國小","LANDMARKAD":"1000604","ADDRESS":"台中市清水區光華路125號","TEL":"04-26222004","COUNTYNAME":"台中市","TOWNNAME":"清水區","MARKTYPE":"992","Class":"2"},"geometry":{"x":120.57316735577645,"y":24.266829537603002}},{"attributes":{"OBJECTID":12453,"LANDMARKID":"1000600000340","LANDMARKCO":"203","LANDMARKNA":"縣立吳厝國小","LANDMARKAD":"1000604","ADDRESS":"台中市清水區吳厝里東山路1之3號","TEL":"04-26200864","COUNTYNAME":"台中市","TOWNNAME":"清水區","MARKTYPE":"992","Class":"2"},"geometry":{"x":120.60284579519491,"y":24.267221953986631}},{"attributes":{"OBJECTID":12454,"LANDMARKID":"1000600000341","LANDMARKCO":"203","LANDMARKNA":"縣立建國國小","LANDMARKAD":"1000604","ADDRESS":"台中市清水區西社里建國路10號","TEL":"04-26262334","COUNTYNAME":"台中市","TOWNNAME":"清水區","MARKTYPE":"992","Class":"2"},"geometry":{"x":120.56078338277671,"y":24.270335593736075}},{"attributes":{"OBJECTID":12455,"LANDMARKID":"1000600000342","LANDMARKCO":"203","LANDMARKNA":"縣立甲南國小","LANDMARKAD":"1000604","ADDRESS":"台中市清水區菁埔里臨海路26號","TEL":"04-26261834","COUNTYNAME":"台中市","TOWNNAME":"清水區","MARKTYPE":"992","Class":"2"},"geometry":{"x":120.59560018685525,"y":24.304870172411153}},{"attributes":{"OBJECTID":12456,"LANDMARKID":"1000600000343","LANDMARKCO":"203","LANDMARKNA":"縣立高美國小","LANDMARKAD":"1000604","ADDRESS":"台中市清水區護岸路37號","TEL":"04-26262505","COUNTYNAME":"台中市","TOWNNAME":"清水區","MARKTYPE":"992","Class":"2"},"geometry":{"x":120.56260081397802,"y":24.311777439782446}},{"attributes":{"OBJECTID":12457,"LANDMARKID":"1000600000344","LANDMARKCO":"203","LANDMARKNA":"縣立_榔國小","LANDMARKAD":"1000604","ADDRESS":"台中市清水區中興路23之12號","TEL":"04-26562684","COUNTYNAME":"台中市","TOWNNAME":"清水區","MARKTYPE":"992","Class":"2"},"geometry":{"x":120.54580393318493,"y":24.264220923058343}},{"attributes":{"OBJECTID":12458,"LANDMARKID":"1000600000722","LANDMARKCO":"308","LANDMARKNA":"清水服務區","LANDMARKAD":"1000604","ADDRESS":" ","TEL":" ","COUNTYNAME":"台中市","TOWNNAME":"清水區","MARKTYPE":"993","Class":"308"},"geometry":{"x":120.59769937084762,"y":24.282236863861357}},{"attributes":{"OBJECTID":12459,"LANDMARKID":"1000600000723","LANDMARKCO":"308","LANDMARKNA":"國3-中港系統交流道-東行","LANDMARKAD":"1000604","ADDRESS":"台中市清水區","TEL":" ","COUNTYNAME":"台中市","TOWNNAME":"清水區","MARKTYPE":"993","Class":"308"},"geometry":{"x":120.61890896739943,"y":24.306676016955251}},{"attributes":{"OBJECTID":12460,"LANDMARKID":"1000600000724","LANDMARKCO":"308","LANDMARKNA":"國3-中港系統交流道-西行","LANDMARKAD":"1000604","ADDRESS":"台中市清水區","TEL":" ","COUNTYNAME":"台中市","TOWNNAME":"清水區","MARKTYPE":"993","Class":"308"},"geometry":{"x":120.60871519325879,"y":24.307643356175767}},{"attributes":{"OBJECTID":12461,"LANDMARKID":"1000600000725","LANDMARKCO":"308","LANDMARKNA":"國3-中港系統交流道-南下","LANDMARKAD":"1000604","ADDRESS":"台中市清水區","TEL":" ","COUNTYNAME":"台中市","TOWNNAME":"清水區","MARKTYPE":"993","Class":"308"},"geometry":{"x":120.61010886432403,"y":24.305174194054842}},{"attributes":{"OBJECTID":12462,"LANDMARKID":"1000600000726","LANDMARKCO":"308","LANDMARKNA":"國3-中港系統交流道-北上","LANDMARKAD":"1000604","ADDRESS":"台中市清水區","TEL":" ","COUNTYNAME":"台中市","TOWNNAME":"清水區","MARKTYPE":"993","Class":"308"},"geometry":{"x":120.61645062807409,"y":24.310272273171794}},{"attributes":{"OBJECTID":12463,"LANDMARKID":"1000600000727","LANDMARKCO":"308","LANDMARKNA":"國4-清水端","LANDMARKAD":"1000604","ADDRESS":"台中市清水區","TEL":" ","COUNTYNAME":"台中市","TOWNNAME":"清水區","MARKTYPE":"993","Class":"308"},"geometry":{"x":120.59301782801136,"y":24.304821494874584}},{"attributes":{"OBJECTID":12464,"LANDMARKID":"1000600000728","LANDMARKCO":"308","LANDMARKNA":"台61-清水交流道-北上","LANDMARKAD":"1000604","ADDRESS":" ","TEL":" ","COUNTYNAME":"台中市","TOWNNAME":"清水區","MARKTYPE":"993","Class":"308"},"geometry":{"x":120.55368678536544,"y":24.298897667057833}},{"attributes":{"OBJECTID":12465,"LANDMARKID":"1000600000729","LANDMARKCO":"308","LANDMARKNA":"台61-清水交流道-南下","LANDMARKAD":"1000604","ADDRESS":" ","TEL":" ","COUNTYNAME":"台中市","TOWNNAME":"清水區","MARKTYPE":"993","Class":"308"},"geometry":{"x":120.54617974530929,"y":24.273506909234815}},{"attributes":{"OBJECTID":12466,"LANDMARKID":"1000600000602","LANDMARKCO":"302","LANDMARKNA":"巨業汽車客運清水站","LANDMARKAD":"1000604","ADDRESS":"台中市清水區中山路287號","TEL":" ","COUNTYNAME":"台中市","TOWNNAME":"清水區","MARKTYPE":"993","Class":"302"},"geometry":{"x":120.57593633356272,"y":24.270557430867822}},{"attributes":{"OBJECTID":12467,"LANDMARKID":"1000600000607","LANDMARKCO":"303","LANDMARKNA":"台中市自由車場停車場","LANDMARKAD":"1000604","ADDRESS":"台中市清水區大街路觀音巷36之8號","TEL":"04-25263100","COUNTYNAME":"台中市","TOWNNAME":"清水區","MARKTYPE":"993","Class":"303"},"geometry":{"x":120.58255651116055,"y":24.271277089937325}},{"attributes":{"OBJECTID":12468,"LANDMARKID":"1000600000608","LANDMARKCO":"303","LANDMARKNA":"清水服務區小型車停車場","LANDMARKAD":"1000604","ADDRESS":"台中市清水區清水服務區國道三號172.3公里處","TEL":" ","COUNTYNAME":"台中市","TOWNNAME":"清水區","MARKTYPE":"993","Class":"303"},"geometry":{"x":120.59985422398005,"y":24.281139377674076}},{"attributes":{"OBJECTID":12469,"LANDMARKID":"1000600000609","LANDMARKCO":"303","LANDMARKNA":"清水服務區停車場","LANDMARKAD":"1000604","ADDRESS":"台中市清水區清水服務區國道三號172.3公里處","TEL":" ","COUNTYNAME":"台中市","TOWNNAME":"清水區","MARKTYPE":"993","Class":"303"},"geometry":{"x":120.60227720767882,"y":24.283885714584876}},{"attributes":{"OBJECTID":12470,"LANDMARKID":"1000600000610","LANDMARKCO":"303","LANDMARKNA":"北突堤停車場","LANDMARKAD":"1000604","ADDRESS":"台中市清水區","TEL":" ","COUNTYNAME":"台中市","TOWNNAME":"清水區","MARKTYPE":"993","Class":"303"},"geometry":{"x":120.53340992602492,"y":24.279332344979366}},{"attributes":{"OBJECTID":12471,"LANDMARKID":"1000600000611","LANDMARKCO":"303","LANDMARKNA":"第二停車場","LANDMARKAD":"1000604","ADDRESS":"台中市清水區","TEL":" ","COUNTYNAME":"台中市","TOWNNAME":"清水區","MARKTYPE":"993","Class":"303"},"geometry":{"x":120.5192953018403,"y":24.29460654564225}},{"attributes":{"OBJECTID":12472,"LANDMARKID":"1000600000576","LANDMARKCO":"301","LANDMARKNA":"台中港火車站","LANDMARKAD":"1000604","ADDRESS":"台中市清水區甲南路2號","TEL":"04-26225374","COUNTYNAME":"台中市","TOWNNAME":"清水區","MARKTYPE":"993","Class":"301"},"geometry":{"x":120.60248501559141,"y":24.304648472368779}},{"attributes":{"OBJECTID":12473,"LANDMARKID":"1000600000577","LANDMARKCO":"301","LANDMARKNA":"清水火車站","LANDMARKAD":"1000604","ADDRESS":"台中市清水區南社里中正街115號","TEL":"04-26222021","COUNTYNAME":"台中市","TOWNNAME":"清水區","MARKTYPE":"993","Class":"301"},"geometry":{"x":120.56913611105742,"y":24.263867469130183}},{"attributes":{"OBJECTID":12474,"LANDMARKID":"1000600000807","LANDMARKCO":"402","LANDMARKNA":"中華電信-清水中山特約服務中心","LANDMARKAD":"1000604","ADDRESS":"台中市清水區中山路158號","TEL":"04-26238686","COUNTYNAME":"台中市","TOWNNAME":"清水區","MARKTYPE":"994","Class":"4"},"geometry":{"x":120.57605159324382,"y":24.269697491794933}},{"attributes":{"OBJECTID":12475,"LANDMARKID":"1000600000808","LANDMARKCO":"402","LANDMARKNA":"中華電信-清水服務中心","LANDMARKAD":"1000604","ADDRESS":"台中市清水區中山路79號","TEL":"04-26235100","COUNTYNAME":"台中市","TOWNNAME":"清水區","MARKTYPE":"994","Class":"4"},"geometry":{"x":120.57213433468178,"y":24.262178974231762}},{"attributes":{"OBJECTID":12476,"LANDMARKID":"1000600000809","LANDMARKCO":"402","LANDMARKNA":"遠傳電信-清水中山門市","LANDMARKAD":"1000604","ADDRESS":"台中市清水區中山路132號","TEL":" ","COUNTYNAME":"台中市","TOWNNAME":"清水區","MARKTYPE":"994","Class":"4"},"geometry":{"x":120.57559477015892,"y":24.268873312950905}},{"attributes":{"OBJECTID":12477,"LANDMARKID":"1000600000810","LANDMARKCO":"402","LANDMARKNA":"威寶電信-清水中山特約服務中心","LANDMARKAD":"1000604","ADDRESS":"台中市清水區中山路273號","TEL":"04-26220933","COUNTYNAME":"台中市","TOWNNAME":"清水區","MARKTYPE":"994","Class":"4"},"geometry":{"x":120.57561679642147,"y":24.269911766358067}},{"attributes":{"OBJECTID":12478,"LANDMARKID":"1000600001445","LANDMARKCO":"604","LANDMARKNA":"桃李河畔","LANDMARKAD":"1000604","ADDRESS":"台中市新社區中和村中興街98-1號","TEL":"04-25931588","COUNTYNAME":"台中市","TOWNNAME":"清水區","MARKTYPE":"996","Class":"6"},"geometry":{"x":120.5741424353463,"y":24.272391464226043}},{"attributes":{"OBJECTID":12479,"LANDMARKID":"1000600001446","LANDMARKCO":"604","LANDMARKNA":"雲閒居民宿","LANDMARKAD":"1000604","ADDRESS":"台中市新社區中和村中興街112-5號","TEL":"04-25931323","COUNTYNAME":"台中市","TOWNNAME":"清水區","MARKTYPE":"996","Class":"6"},"geometry":{"x":120.57391590356787,"y":24.272550830445116}},{"attributes":{"OBJECTID":12480,"LANDMARKID":"1000600001447","LANDMARKCO":"604","LANDMARKNA":"中和渡假山莊","LANDMARKAD":"1000604","ADDRESS":"台中市新社區中和村中興街112-3號","TEL":"04-25931255","COUNTYNAME":"台中市","TOWNNAME":"清水區","MARKTYPE":"996","Class":"6"},"geometry":{"x":120.57389705414289,"y":24.272505777540132}},{"attributes":{"OBJECTID":12481,"LANDMARKID":"1000600001382","LANDMARKCO":"603","LANDMARKNA":"皇賓飯店","LANDMARKAD":"1000604","ADDRESS":"台中市清水區中山路303號","TEL":"04-26222106-7","COUNTYNAME":"台中市","TOWNNAME":"清水區","MARKTYPE":"996","Class":"6"},"geometry":{"x":120.57582718200922,"y":24.2708610041532}},{"attributes":{"OBJECTID":12482,"LANDMARKID":"1000600001383","LANDMARKCO":"603","LANDMARKNA":"天一大旅社","LANDMARKAD":"1000604","ADDRESS":"台中市清水區新興路123號","TEL":"04-26222364","COUNTYNAME":"台中市","TOWNNAME":"清水區","MARKTYPE":"996","Class":"6"},"geometry":{"x":120.57780260176331,"y":24.271514361355312}},{"attributes":{"OBJECTID":12483,"LANDMARKID":"1000600001384","LANDMARKCO":"603","LANDMARKNA":"皇春賓館","LANDMARKAD":"1000604","ADDRESS":"台中市清水區新興路145號","TEL":"04-26226185","COUNTYNAME":"台中市","TOWNNAME":"清水區","MARKTYPE":"996","Class":"6"},"geometry":{"x":120.577357744514,"y":24.27176341641724}},{"attributes":{"OBJECTID":12484,"LANDMARKID":"1000600001253","LANDMARKCO":"503","LANDMARKNA":"梧棲港觀光漁市","LANDMARKAD":"1000604","ADDRESS":"台中市清水區","TEL":" ","COUNTYNAME":"台中市","TOWNNAME":"清水區","MARKTYPE":"995","Class":"5"},"geometry":{"x":120.5211203910273,"y":24.293298017651086}},{"attributes":{"OBJECTID":12485,"LANDMARKID":"1000600001318","LANDMARKCO":"510","LANDMARKNA":"清水高爾夫球練習場","LANDMARKAD":"1000604","ADDRESS":"台中市清水區中央北路2之72號","TEL":"04-26266500","COUNTYNAME":"台中市","TOWNNAME":"清水區","MARKTYPE":"995","Class":"5"},"geometry":{"x":120.58699083818968,"y":24.29573050395922}},{"attributes":{"OBJECTID":12486,"LANDMARKID":"1000600001319","LANDMARKCO":"510","LANDMARKNA":"清泉崗高爾夫球場","LANDMARKAD":"1000604","ADDRESS":"台中市豐原清泉岡高爾夫球場","TEL":"04-26200134","COUNTYNAME":"台中市","TOWNNAME":"清水區","MARKTYPE":"995","Class":"5"},"geometry":{"x":120.62178802166088,"y":24.287237486936263}},{"attributes":{"OBJECTID":12487,"LANDMARKID":"1000600000957","LANDMARKCO":"405","LANDMARKNA":"中油加油站-和平站(中油直營)","LANDMARKAD":"1000621","ADDRESS":"台中市和平區南勢村東關路三段5號","TEL":"04-25941891","COUNTYNAME":"台中市","TOWNNAME":"和平區","MARKTYPE":"994","Class":"4"},"geometry":{"x":120.90371156143617,"y":24.168947728340751}},{"attributes":{"OBJECTID":12488,"LANDMARKID":"1000600000958","LANDMARKCO":"405","LANDMARKNA":"中油加油站-梨山站(中油直營)","LANDMARKAD":"1000621","ADDRESS":"台中市和平區梨山村中正路224號","TEL":"04-25981393","COUNTYNAME":"台中市","TOWNNAME":"和平區","MARKTYPE":"994","Class":"4"},"geometry":{"x":121.24627745043769,"y":24.254764263846862}},{"attributes":{"OBJECTID":12489,"LANDMARKID":"1000600001282","LANDMARKCO":"504","LANDMARKNA":"武陵森林遊樂區","LANDMARKAD":"1000621","ADDRESS":"台中市和平區武陵路3之1號","TEL":" ","COUNTYNAME":"台中市","TOWNNAME":"和平區","MARKTYPE":"995","Class":"5"},"geometry":{"x":121.30589185356337,"y":24.402916562352321}},{"attributes":{"OBJECTID":12490,"LANDMARKID":"1000600001283","LANDMARKCO":"504","LANDMARKNA":"八仙山森林遊樂區","LANDMARKAD":"1000621","ADDRESS":"台中市和平區東關路一段平仙巷22號","TEL":" ","COUNTYNAME":"台中市","TOWNNAME":"和平區","MARKTYPE":"995","Class":"5"},"geometry":{"x":121.01325397990415,"y":24.192450335455561}},{"attributes":{"OBJECTID":12491,"LANDMARKID":"1000600001290","LANDMARKCO":"506","LANDMARKNA":"統一健康世界","LANDMARKAD":"1000621","ADDRESS":"台中市和平區博愛村東關路一段188號","TEL":"04-25950011","COUNTYNAME":"台中市","TOWNNAME":"和平區","MARKTYPE":"995","Class":"5"},"geometry":{"x":120.98596484805755,"y":24.184961609906686}},{"attributes":{"OBJECTID":12492,"LANDMARKID":"1000600001291","LANDMARKCO":"506","LANDMARKNA":"福壽山休閒農場","LANDMARKAD":"1000621","ADDRESS":"台中市和平區梨山村福壽路29號","TEL":"04-25989205","COUNTYNAME":"台中市","TOWNNAME":"和平區","MARKTYPE":"995","Class":"5"},"geometry":{"x":121.25850505072464,"y":24.255170119985589}},{"attributes":{"OBJECTID":12493,"LANDMARKID":"1000600001292","LANDMARKCO":"506","LANDMARKNA":"武陵休閒農場","LANDMARKAD":"1000621","ADDRESS":"台中市和平區平等村武陵路3號","TEL":"04-25901257","COUNTYNAME":"台中市","TOWNNAME":"和平區","MARKTYPE":"995","Class":"5"},"geometry":{"x":121.3086595343442,"y":24.359474506643942}},{"attributes":{"OBJECTID":12494,"LANDMARKID":"1000600001251","LANDMARKCO":"501","LANDMARKNA":"梨山風景區","LANDMARKAD":"1000621","ADDRESS":"台中市和平區梨山村中正路95號","TEL":"04-25981331","COUNTYNAME":"台中市","TOWNNAME":"和平區","MARKTYPE":"995","Class":"5"},"geometry":{"x":121.25052098033908,"y":24.255236414335361}},{"attributes":{"OBJECTID":12495,"LANDMARKID":"1000600001329","LANDMARKCO":"512","LANDMARKNA":"梨山風景區管理所","LANDMARKAD":"1000621","ADDRESS":"台中市和平區梨山村中正路95號","TEL":"04-25981331","COUNTYNAME":"台中市","TOWNNAME":"和平區","MARKTYPE":"995","Class":"5"},"geometry":{"x":121.2504427473616,"y":24.255236807707206}},{"attributes":{"OBJECTID":12496,"LANDMARKID":"1000600001293","LANDMARKCO":"506","LANDMARKNA":"武陵富野渡假村","LANDMARKAD":"1000621","ADDRESS":"台中市和平區武陵路3之16號","TEL":"04-25901399","COUNTYNAME":"台中市","TOWNNAME":"和平區","MARKTYPE":"995","Class":"5"},"geometry":{"x":121.31154109617783,"y":24.354772378585817}},{"attributes":{"OBJECTID":12497,"LANDMARKID":"1000600001330","LANDMARKCO":"512","LANDMARKNA":"梨山旅遊服務中心","LANDMARKAD":"1000621","ADDRESS":"台中市和平區梨山村中正路95號","TEL":"04-25981331","COUNTYNAME":"台中市","TOWNNAME":"和平區","MARKTYPE":"995","Class":"5"},"geometry":{"x":121.25058605026111,"y":24.255236100393706}},{"attributes":{"OBJECTID":12498,"LANDMARKID":"1000600001331","LANDMARKCO":"512","LANDMARKNA":"谷關旅遊服務中心","LANDMARKAD":"1000621","ADDRESS":"台中市和平區博愛村東關路一段192之3號","TEL":"04-25951496","COUNTYNAME":"台中市","TOWNNAME":"和平區","MARKTYPE":"995","Class":"5"},"geometry":{"x":121.01119688353707,"y":24.202566274209062}},{"attributes":{"OBJECTID":12499,"LANDMARKID":"1000600001455","LANDMARKCO":"605","LANDMARKNA":"谷關警光山莊","LANDMARKAD":"1000621","ADDRESS":"台中市和平區東關路一段溫泉巷8號","TEL":"04-25951671","COUNTYNAME":"台中市","TOWNNAME":"和平區","MARKTYPE":"996","Class":"6"},"geometry":{"x":121.01000298970497,"y":24.20454929554964}},{"attributes":{"OBJECTID":12500,"LANDMARKID":"1000600001220","LANDMARKCO":"408","LANDMARKNA":"郵局-和平梨山郵局","LANDMARKAD":"1000621","ADDRESS":"台中市和平區梨山村中正路89號","TEL":"(04)2598-9334","COUNTYNAME":"台中市","TOWNNAME":"和平區","MARKTYPE":"994","Class":"4"},"geometry":{"x":121.25219578912021,"y":24.254000807377444}},{"attributes":{"OBJECTID":12501,"LANDMARKID":"1000600001221","LANDMARKCO":"408","LANDMARKNA":"郵局-和平谷關郵局","LANDMARKAD":"1000621","ADDRESS":"台中市和平區博愛村東關路1段106號","TEL":"(04)2595-1124","COUNTYNAME":"台中市","TOWNNAME":"和平區","MARKTYPE":"994","Class":"4"},"geometry":{"x":121.00560501044518,"y":24.20302907246726}},{"attributes":{"OBJECTID":12502,"LANDMARKID":"1000600001222","LANDMARKCO":"408","LANDMARKNA":"郵局-新社郵局","LANDMARKAD":"1000621","ADDRESS":"台中市新社區中和街5段1號","TEL":"(04)2581-1470","COUNTYNAME":"台中市","TOWNNAME":"和平區","MARKTYPE":"994","Class":"4"},"geometry":{"x":121.25200973534203,"y":24.254165758101315}},{"attributes":{"OBJECTID":12503,"LANDMARKID":"1000600001223","LANDMARKCO":"408","LANDMARKNA":"郵局-和平郵局","LANDMARKAD":"1000621","ADDRESS":"台中市和平區南勢村東關路3段160-9號","TEL":"(04)2594-1524","COUNTYNAME":"台中市","TOWNNAME":"和平區","MARKTYPE":"994","Class":"4"},"geometry":{"x":120.8830295773348,"y":24.174880990902384}},{"attributes":{"OBJECTID":12504,"LANDMARKID":"1000600001227","LANDMARKCO":"409","LANDMARKNA":"台中市和平區農會","LANDMARKAD":"1000621","ADDRESS":"台中市和平區南勢村東關路三段161號","TEL":"04-25941518","COUNTYNAME":"台中市","TOWNNAME":"和平區","MARKTYPE":"994","Class":"4"},"geometry":{"x":120.88242914092878,"y":24.174660819589093}},{"attributes":{"OBJECTID":12505,"LANDMARKID":"1000600000232","LANDMARKCO":"107","LANDMARKNA":"台中市警察局大棟派出所","LANDMARKAD":"1000621","ADDRESS":"台中市和平區中坑村雪山路2號","TEL":"04-25971106","COUNTYNAME":"台中市","TOWNNAME":"和平區","MARKTYPE":"991","Class":"1"},"geometry":{"x":120.90730376202463,"y":24.241031910095266}},{"attributes":{"OBJECTID":12506,"LANDMARKID":"1000600000233","LANDMARKCO":"107","LANDMARKNA":"台中市警察局梨山分駐所","LANDMARKAD":"1000621","ADDRESS":"台中市和平區中正路103號","TEL":"04-25989580","COUNTYNAME":"台中市","TOWNNAME":"和平區","MARKTYPE":"991","Class":"1"},"geometry":{"x":121.24687578051679,"y":24.254238303488926}},{"attributes":{"OBJECTID":12507,"LANDMARKID":"1000600000070","LANDMARKCO":"103","LANDMARKNA":"台中市梨山衛生所","LANDMARKAD":"1000621","ADDRESS":"台中市和平區梨山村中正路68號","TEL":"04-25989540","COUNTYNAME":"台中市","TOWNNAME":"和平區","MARKTYPE":"991","Class":"1"},"geometry":{"x":121.25526397730623,"y":24.254310464884494}},{"attributes":{"OBJECTID":12508,"LANDMARKID":"1000600000247","LANDMARKCO":"108","LANDMARKNA":"台中市和平區公所","LANDMARKAD":"1000621","ADDRESS":"台中市和平區南勢村東關路三段156號","TEL":"04-25941501","COUNTYNAME":"台中市","TOWNNAME":"和平區","MARKTYPE":"991","Class":"1"},"geometry":{"x":120.88494298759871,"y":24.174740318957955}},{"attributes":{"OBJECTID":12509,"LANDMARKID":"1000600000071","LANDMARKCO":"103","LANDMARKNA":"台中市和平區鄉民代表會","LANDMARKAD":"1000621","ADDRESS":"台中市和平區東關路三段156號","TEL":"04-25941509","COUNTYNAME":"台中市","TOWNNAME":"和平區","MARKTYPE":"991","Class":"1"},"geometry":{"x":120.88494298759871,"y":24.174740318957955}},{"attributes":{"OBJECTID":12510,"LANDMARKID":"1000600000002","LANDMARKCO":"101","LANDMARKNA":"原住民技藝研習中心","LANDMARKAD":"1000621","ADDRESS":"台中市和平區南勢村東關路三段3之8號","TEL":"04-25942731","COUNTYNAME":"台中市","TOWNNAME":"和平區","MARKTYPE":"991","Class":"1"},"geometry":{"x":120.90200161856548,"y":24.172133794975927}},{"attributes":{"OBJECTID":12511,"LANDMARKID":"1000600000234","LANDMARKCO":"107","LANDMARKNA":"台中市警察局和平分局","LANDMARKAD":"1000621","ADDRESS":"臺中縣和平區南勢村東關路3段270-1號","TEL":"04-25942560","COUNTYNAME":"台中市","TOWNNAME":"和平區","MARKTYPE":"991","Class":"1"},"geometry":{"x":120.8802270620844,"y":24.176904454425166}},{"attributes":{"OBJECTID":12512,"LANDMARKID":"1000600000235","LANDMARKCO":"107","LANDMARKNA":"台中市警察局天輪派出所","LANDMARKAD":"1000621","ADDRESS":"台中市和平區東關路二段33號","TEL":"04-25941193","COUNTYNAME":"台中市","TOWNNAME":"和平區","MARKTYPE":"991","Class":"1"},"geometry":{"x":121.01748605475494,"y":24.219115489642643}},{"attributes":{"OBJECTID":12513,"LANDMARKID":"1000600000236","LANDMARKCO":"107","LANDMARKNA":"台中市警察局德基派出所","LANDMARKAD":"1000621","ADDRESS":"臺中縣和平區梨山村和平路2段16之2號","TEL":"04-25980439","COUNTYNAME":"台中市","TOWNNAME":"和平區","MARKTYPE":"991","Class":"1"},"geometry":{"x":121.1718278530081,"y":24.250438852339148}},{"attributes":{"OBJECTID":12514,"LANDMARKID":"1000600000237","LANDMARKCO":"107","LANDMARKNA":"台中市警察局環山派出所","LANDMARKAD":"1000621","ADDRESS":"台中市和平區平等村中興路三段48號","TEL":"04-25802242","COUNTYNAME":"台中市","TOWNNAME":"和平區","MARKTYPE":"991","Class":"1"},"geometry":{"x":121.2940949031142,"y":24.323927578805204}},{"attributes":{"OBJECTID":12515,"LANDMARKID":"1000600000238","LANDMARKCO":"107","LANDMARKNA":"台中市警察局雙崎派出所","LANDMARKAD":"1000621","ADDRESS":"台中市和平區自由村東崎路二段39號","TEL":"04-25911214","COUNTYNAME":"台中市","TOWNNAME":"和平區","MARKTYPE":"991","Class":"1"},"geometry":{"x":120.91706120138824,"y":24.29457890089483}},{"attributes":{"OBJECTID":12516,"LANDMARKID":"1000600000239","LANDMARKCO":"107","LANDMARKNA":"台中市警察局志良派出所","LANDMARKAD":"1000621","ADDRESS":"台中市和平區平等村中興路二段47號","TEL":"04-25901040","COUNTYNAME":"台中市","TOWNNAME":"和平區","MARKTYPE":"991","Class":"1"},"geometry":{"x":121.33367349713264,"y":24.375947366229827}},{"attributes":{"OBJECTID":12517,"LANDMARKID":"1000600000240","LANDMARKCO":"107","LANDMARKNA":"台中市警察局桃山派出所","LANDMARKAD":"1000621","ADDRESS":"台中市和平區達觀村東崎路一段桃山巷7號","TEL":"04-25911314","COUNTYNAME":"台中市","TOWNNAME":"和平區","MARKTYPE":"991","Class":"1"},"geometry":{"x":120.9302375170921,"y":24.337836324018937}},{"attributes":{"OBJECTID":12518,"LANDMARKID":"1000600000241","LANDMARKCO":"107","LANDMARKNA":"台中市警察局勝光派出所","LANDMARKAD":"1000621","ADDRESS":"台中市和平區平等村中興路一段21號","TEL":"04-25901004","COUNTYNAME":"台中市","TOWNNAME":"和平區","MARKTYPE":"991","Class":"1"},"geometry":{"x":121.34103440045338,"y":24.381886074253504}},{"attributes":{"OBJECTID":12519,"LANDMARKID":"1000600000242","LANDMARKCO":"107","LANDMARKNA":"台中市警察局松茂派出所","LANDMARKAD":"1000621","ADDRESS":"台中市和平區中興路四段54號","TEL":"04-25989692","COUNTYNAME":"台中市","TOWNNAME":"和平區","MARKTYPE":"991","Class":"1"},"geometry":{"x":121.29019937544493,"y":24.309761532532054}},{"attributes":{"OBJECTID":12520,"LANDMARKID":"1000600000243","LANDMARKCO":"107","LANDMARKNA":"台中市警察局竹林派出所","LANDMARKAD":"1000621","ADDRESS":"台中市和平區達觀村東崎路一段89號","TEL":"04-25911114","COUNTYNAME":"台中市","TOWNNAME":"和平區","MARKTYPE":"991","Class":"1"},"geometry":{"x":120.92350175531689,"y":24.313002310018998}},{"attributes":{"OBJECTID":12521,"LANDMARKID":"1000600000244","LANDMARKCO":"107","LANDMARKNA":"台中市警察局和平派出所","LANDMARKAD":"1000621","ADDRESS":"台中市和平區東關路三段270號","TEL":"04-25941324","COUNTYNAME":"台中市","TOWNNAME":"和平區","MARKTYPE":"991","Class":"1"},"geometry":{"x":120.87084287301553,"y":24.171388133998388}},{"attributes":{"OBJECTID":12522,"LANDMARKID":"1000600000245","LANDMARKCO":"107","LANDMARKNA":"台中市警察局谷關派出所","LANDMARKAD":"1000621","ADDRESS":"台中市和平區東關路一段125號","TEL":"04-25951114","COUNTYNAME":"台中市","TOWNNAME":"和平區","MARKTYPE":"991","Class":"1"},"geometry":{"x":120.99389643474919,"y":24.203766709596284}},{"attributes":{"OBJECTID":12523,"LANDMARKID":"1000600000246","LANDMARKCO":"107","LANDMARKNA":"台中市消防局和平分隊","LANDMARKAD":"1000621","ADDRESS":"台中市和平區南勢村東關路三段230號","TEL":"04-25941514","COUNTYNAME":"台中市","TOWNNAME":"和平區","MARKTYPE":"991","Class":"1"},"geometry":{"x":120.88022689415983,"y":24.176994747855034}},{"attributes":{"OBJECTID":12524,"LANDMARKID":"1000600000072","LANDMARKCO":"103","LANDMARKNA":"台中市和平區衛生所","LANDMARKAD":"1000621","ADDRESS":"台中市和平區南勢村東關路三段132號","TEL":"04-25942781","COUNTYNAME":"台中市","TOWNNAME":"和平區","MARKTYPE":"991","Class":"1"},"geometry":{"x":120.98940856598742,"y":24.18814562519432}},{"attributes":{"OBJECTID":12525,"LANDMARKID":"1000600000230","LANDMARKCO":"107","LANDMARKNA":"台中市警察局馬陵派出所","LANDMARKAD":"1000621","ADDRESS":"台中市和平區和平路五段1號","TEL":"04-25951771","COUNTYNAME":"台中市","TOWNNAME":"和平區","MARKTYPE":"991","Class":"1"},"geometry":{"x":121.0552943979082,"y":24.221272690243634}},{"attributes":{"OBJECTID":12526,"LANDMARKID":"1000600000231","LANDMARKCO":"107","LANDMARKNA":"台中市警察局青山派出所","LANDMARKAD":"1000621","ADDRESS":"台中市和平區梨山村和平路五段10號","TEL":"04-25951772","COUNTYNAME":"台中市","TOWNNAME":"和平區","MARKTYPE":"991","Class":"1"},"geometry":{"x":121.09740447467304,"y":24.246263496967785}},{"attributes":{"OBJECTID":12527,"LANDMARKID":"1000600000109","LANDMARKCO":"106","LANDMARKNA":"台中市和平區戶政事務所","LANDMARKAD":"1000621","ADDRESS":"台中市和平區南勢村巴新街8號","TEL":"04-25941554","COUNTYNAME":"台中市","TOWNNAME":"和平區","MARKTYPE":"991","Class":"1"},"geometry":{"x":120.8838416904849,"y":24.175551290300373}},{"attributes":{"OBJECTID":12528,"LANDMARKID":"1000600000187","LANDMARKCO":"107","LANDMARKNA":"台中市消防局梨山分隊","LANDMARKAD":"1000621","ADDRESS":"台中市和平區民族路19號","TEL":"04-25989014","COUNTYNAME":"台中市","TOWNNAME":"和平區","MARKTYPE":"991","Class":"1"},"geometry":{"x":121.25221858905479,"y":24.249513211763311}},{"attributes":{"OBJECTID":12529,"LANDMARKID":"1000600000565","LANDMARKCO":"205","LANDMARKNA":"環山泰雅民俗文物館","LANDMARKAD":"1000621","ADDRESS":"台中市和平區平等村環山2巷39號","TEL":"04-25802315","COUNTYNAME":"台中市","TOWNNAME":"和平區","MARKTYPE":"992","Class":"2"},"geometry":{"x":121.29398622861433,"y":24.318569430597961}},{"attributes":{"OBJECTID":12530,"LANDMARKID":"1000600000566","LANDMARKCO":"205","LANDMARKNA":"梨山文物陳列館","LANDMARKAD":"1000621","ADDRESS":"台中市和平區福_路14號","TEL":" ","COUNTYNAME":"台中市","TOWNNAME":"和平區","MARKTYPE":"992","Class":"2"},"geometry":{"x":121.25650370939647,"y":24.252609966497143}},{"attributes":{"OBJECTID":12531,"LANDMARKID":"1000600000567","LANDMARKCO":"205","LANDMARKNA":"七家灣遺址展示館","LANDMARKAD":"1000621","ADDRESS":"台中市和平區武陵路3之1號","TEL":"04-25901259","COUNTYNAME":"台中市","TOWNNAME":"和平區","MARKTYPE":"992","Class":"2"},"geometry":{"x":121.30810504591543,"y":24.345653402992244}},{"attributes":{"OBJECTID":12532,"LANDMARKID":"1000600000546","LANDMARKCO":"204","LANDMARKNA":"台中市立圖書館和平分館","LANDMARKAD":"1000621","ADDRESS":"台中市和平區南勢村東關路三段156號","TEL":" ","COUNTYNAME":"台中市","TOWNNAME":"和平區","MARKTYPE":"992","Class":"2"},"geometry":{"x":120.87127366410428,"y":24.170427151129761}},{"attributes":{"OBJECTID":12533,"LANDMARKID":"1000600000408","LANDMARKCO":"203","LANDMARKNA":"縣立梨山國小","LANDMARKAD":"1000621","ADDRESS":"台中市和平區梨山村福壽路10號","TEL":"04-25981510","COUNTYNAME":"台中市","TOWNNAME":"和平區","MARKTYPE":"992","Class":"2"},"geometry":{"x":121.2590721988463,"y":24.255010209381915}},{"attributes":{"OBJECTID":12534,"LANDMARKID":"1000600000409","LANDMARKCO":"203","LANDMARKNA":"縣立和平國中","LANDMARKAD":"1000621","ADDRESS":"台中市和平區東關路三段崑崙巷62號台中市和平區東關路","TEL":"04-25941512","COUNTYNAME":"台中市","TOWNNAME":"和平區","MARKTYPE":"992","Class":"2"},"geometry":{"x":120.88284504948913,"y":24.178351016308092}},{"attributes":{"OBJECTID":12535,"LANDMARKID":"1000600000410","LANDMARKCO":"203","LANDMARKNA":"縣立平等國小","LANDMARKAD":"1000621","ADDRESS":"台中市和平區中興路三段環山3巷35號","TEL":"04-25802204","COUNTYNAME":"台中市","TOWNNAME":"和平區","MARKTYPE":"992","Class":"2"},"geometry":{"x":121.29304399218969,"y":24.317611255882383}},{"attributes":{"OBJECTID":12536,"LANDMARKID":"1000600000411","LANDMARKCO":"203","LANDMARKNA":"縣立達觀國小","LANDMARKAD":"1000621","ADDRESS":"台中市和平區東崎路一段育英巷6號","TEL":"04-25911487","COUNTYNAME":"台中市","TOWNNAME":"和平區","MARKTYPE":"992","Class":"2"},"geometry":{"x":120.92092188357077,"y":24.327989575827285}},{"attributes":{"OBJECTID":12537,"LANDMARKID":"1000600000412","LANDMARKCO":"203","LANDMARKNA":"縣立自由國小","LANDMARKAD":"1000621","ADDRESS":"台中市和平區自由村東崎路二段49號","TEL":"04-25911342","COUNTYNAME":"台中市","TOWNNAME":"和平區","MARKTYPE":"992","Class":"2"},"geometry":{"x":120.90920086543532,"y":24.291053314580225}},{"attributes":{"OBJECTID":12538,"LANDMARKID":"1000600000413","LANDMARKCO":"203","LANDMARKNA":"縣立和平國小","LANDMARKAD":"1000621","ADDRESS":"台中市和平區南勢村東關路三段54號","TEL":"04-25941304","COUNTYNAME":"台中市","TOWNNAME":"和平區","MARKTYPE":"992","Class":"2"},"geometry":{"x":120.89529089877988,"y":24.171135389143053}},{"attributes":{"OBJECTID":12539,"LANDMARKID":"1000600000414","LANDMARKCO":"203","LANDMARKNA":"縣立白冷國小","LANDMARKAD":"1000621","ADDRESS":"台中市和平區天輪村天輪巷42號","TEL":"04-25941184","COUNTYNAME":"台中市","TOWNNAME":"和平區","MARKTYPE":"992","Class":"2"},"geometry":{"x":120.93009500768008,"y":24.183164862714253}},{"attributes":{"OBJECTID":12540,"LANDMARKID":"1000600000415","LANDMARKCO":"203","LANDMARKNA":"縣立自由國小烏石分校","LANDMARKAD":"1000621","ADDRESS":"台中市和平區自由村烏石巷62號","TEL":"04-25911331","COUNTYNAME":"台中市","TOWNNAME":"和平區","MARKTYPE":"992","Class":"2"},"geometry":{"x":120.93508955031179,"y":24.292872663657029}},{"attributes":{"OBJECTID":12541,"LANDMARKID":"1000600000416","LANDMARKCO":"203","LANDMARKNA":"縣立博愛國小","LANDMARKAD":"1000621","ADDRESS":"台中市和平區博愛村松鶴3巷10號","TEL":"04-25943446","COUNTYNAME":"台中市","TOWNNAME":"和平區","MARKTYPE":"992","Class":"2"},"geometry":{"x":120.97895666979008,"y":24.177309436157636}},{"attributes":{"OBJECTID":12542,"LANDMARKID":"1000600000417","LANDMARKCO":"203","LANDMARKNA":"博愛國小谷關分校","LANDMARKAD":"1000621","ADDRESS":"台中市和平區博愛村國孝巷29號","TEL":"04-25951154","COUNTYNAME":"台中市","TOWNNAME":"和平區","MARKTYPE":"992","Class":"2"},"geometry":{"x":121.006359488255,"y":24.202050987550063}},{"attributes":{"OBJECTID":12543,"LANDMARKID":"1000600000642","LANDMARKCO":"303","LANDMARKNA":"大雪山森林遊樂區停車場","LANDMARKAD":"1000621","ADDRESS":"台中市和平區雪山路27號","TEL":"04-25872141#232","COUNTYNAME":"台中市","TOWNNAME":"和平區","MARKTYPE":"993","Class":"303"},"geometry":{"x":120.97446317632318,"y":24.245113485845529}},{"attributes":{"OBJECTID":12544,"LANDMARKID":"1000600000643","LANDMARKCO":"303","LANDMARKNA":"谷關風景區大型遊覽車停車場","LANDMARKAD":"1000621","ADDRESS":"台中市和平區谷關風景區","TEL":" ","COUNTYNAME":"台中市","TOWNNAME":"和平區","MARKTYPE":"993","Class":"303"},"geometry":{"x":121.0036208901233,"y":24.202781196829431}},{"attributes":{"OBJECTID":12545,"LANDMARKID":"1000600000644","LANDMARKCO":"303","LANDMARKNA":"龍谷觀光飯店附屬立體停車場","LANDMARKAD":"1000621","ADDRESS":"台中市和平區東關路一段138號","TEL":" ","COUNTYNAME":"台中市","TOWNNAME":"和平區","MARKTYPE":"993","Class":"303"},"geometry":{"x":121.0046830053343,"y":24.202916045440439}},{"attributes":{"OBJECTID":12546,"LANDMARKID":"1000600000645","LANDMARKCO":"303","LANDMARKNA":"谷關風景區小型車立體停車場","LANDMARKAD":"1000621","ADDRESS":"台中市和平區谷關風景區","TEL":" ","COUNTYNAME":"台中市","TOWNNAME":"和平區","MARKTYPE":"993","Class":"303"},"geometry":{"x":121.00580667337947,"y":24.202918708340054}},{"attributes":{"OBJECTID":12547,"LANDMARKID":"1000600000646","LANDMARKCO":"303","LANDMARKNA":"谷關大飯店停車場","LANDMARKAD":"1000621","ADDRESS":"台中市和平區東關路","TEL":" ","COUNTYNAME":"台中市","TOWNNAME":"和平區","MARKTYPE":"993","Class":"303"},"geometry":{"x":121.00815618726499,"y":24.203721233900538}},{"attributes":{"OBJECTID":12548,"LANDMARKID":"1000600000647","LANDMARKCO":"303","LANDMARKNA":"大雪山森林遊樂區埡口觀景台停車場","LANDMARKAD":"1000621","ADDRESS":"台中市和平區","TEL":" ","COUNTYNAME":"台中市","TOWNNAME":"和平區","MARKTYPE":"993","Class":"303"},"geometry":{"x":121.03062051905485,"y":24.26883307996685}},{"attributes":{"OBJECTID":12549,"LANDMARKID":"1000600000648","LANDMARKCO":"303","LANDMARKNA":"梨山停車場","LANDMARKAD":"1000621","ADDRESS":"台中市和平區中正路","TEL":" ","COUNTYNAME":"台中市","TOWNNAME":"和平區","MARKTYPE":"993","Class":"303"},"geometry":{"x":121.24506772735489,"y":24.244624983999653}},{"attributes":{"OBJECTID":12550,"LANDMARKID":"1000600000649","LANDMARKCO":"303","LANDMARKNA":"梨山賓館停車場","LANDMARKAD":"1000621","ADDRESS":"台中市和平區中正路91號","TEL":" ","COUNTYNAME":"台中市","TOWNNAME":"和平區","MARKTYPE":"993","Class":"303"},"geometry":{"x":121.25102572870217,"y":24.254296975053357}},{"attributes":{"OBJECTID":12551,"LANDMARKID":"1000600000650","LANDMARKCO":"303","LANDMARKNA":"八仙山森林遊樂區停車場","LANDMARKAD":"1000621","ADDRESS":"台中市和平區博愛村東關路一段平仙巷22號","TEL":" ","COUNTYNAME":"台中市","TOWNNAME":"和平區","MARKTYPE":"993","Class":"303"},"geometry":{"x":121.00304175244035,"y":24.185310082591318}},{"attributes":{"OBJECTID":12552,"LANDMARKID":"1000600000651","LANDMARKCO":"303","LANDMARKNA":"谷關大飯店停車場","LANDMARKAD":"1000621","ADDRESS":"台中市和平區東關路一段溫泉巷6號","TEL":" ","COUNTYNAME":"台中市","TOWNNAME":"和平區","MARKTYPE":"993","Class":"303"},"geometry":{"x":120.9793891778466,"y":24.179021551804048}},{"attributes":{"OBJECTID":12553,"LANDMARKID":"1000600000652","LANDMARKCO":"303","LANDMARKNA":"武陵森林遊樂區停車場","LANDMARKAD":"1000621","ADDRESS":"台中市和平區武陵路3號","TEL":" ","COUNTYNAME":"台中市","TOWNNAME":"和平區","MARKTYPE":"993","Class":"303"},"geometry":{"x":121.31011479619012,"y":24.354045182244047}},{"attributes":{"OBJECTID":12554,"LANDMARKID":"1000600000653","LANDMARKCO":"303","LANDMARKNA":"青山河濱公園停車場","LANDMARKAD":"1000621","ADDRESS":"台中市和平區","TEL":" ","COUNTYNAME":"台中市","TOWNNAME":"和平區","MARKTYPE":"993","Class":"303"},"geometry":{"x":121.14870741903594,"y":24.248924540971149}},{"attributes":{"OBJECTID":12555,"LANDMARKID":"1000600000654","LANDMARKCO":"303","LANDMARKNA":"福壽山休閒農場停車場","LANDMARKAD":"1000621","ADDRESS":"台中市和平區梨山村福壽路29號","TEL":" ","COUNTYNAME":"台中市","TOWNNAME":"和平區","MARKTYPE":"993","Class":"303"},"geometry":{"x":121.24975574295667,"y":24.251739674589107}},{"attributes":{"OBJECTID":12556,"LANDMARKID":"1000600001453","LANDMARKCO":"604","LANDMARKNA":"若茵民宿","LANDMARKAD":"1000621","ADDRESS":"台中市和平區中坑村中坑路中坑巷2-12號","TEL":"04-25971218","COUNTYNAME":"台中市","TOWNNAME":"和平區","MARKTYPE":"996","Class":"6"},"geometry":{"x":120.89999292969884,"y":24.250089921003788}},{"attributes":{"OBJECTID":12557,"LANDMARKID":"1000600001454","LANDMARKCO":"604","LANDMARKNA":"景雅民宿","LANDMARKAD":"1000621","ADDRESS":"台中市和平區中坑村雪山路出雲巷15號","TEL":"04-25971276","COUNTYNAME":"台中市","TOWNNAME":"和平區","MARKTYPE":"996","Class":"6"},"geometry":{"x":121.032276640577,"y":24.274759718953224}},{"attributes":{"OBJECTID":12558,"LANDMARKID":"1000600001354","LANDMARKCO":"603","LANDMARKNA":"惠來谷關溫泉會館","LANDMARKAD":"1000621","ADDRESS":"台中市和平區博愛村東關路一段溫泉巷10號","TEL":"04-25951998","COUNTYNAME":"台中市","TOWNNAME":"和平區","MARKTYPE":"996","Class":"6"},"geometry":{"x":121.01087711924397,"y":24.204189914098578}},{"attributes":{"OBJECTID":12559,"LANDMARKID":"1000600001355","LANDMARKCO":"603","LANDMARKNA":"汶山大旅社","LANDMARKAD":"1000621","ADDRESS":"台中市和平區博愛村東關路一段溫泉巷16號","TEL":"04-25951265","COUNTYNAME":"台中市","TOWNNAME":"和平區","MARKTYPE":"996","Class":"6"},"geometry":{"x":121.01100117284989,"y":24.204799904602361}},{"attributes":{"OBJECTID":12560,"LANDMARKID":"1000600001356","LANDMARKCO":"603","LANDMARKNA":"明治溫泉大飯店","LANDMARKAD":"1000621","ADDRESS":"台中市和平區博愛村東關路一段溫泉巷17號","TEL":"04-25951111","COUNTYNAME":"台中市","TOWNNAME":"和平區","MARKTYPE":"996","Class":"6"},"geometry":{"x":121.01124810090033,"y":24.203929063924082}},{"attributes":{"OBJECTID":12561,"LANDMARKID":"1000600001357","LANDMARKCO":"603","LANDMARKNA":"東關溫泉大旅社","LANDMARKAD":"1000621","ADDRESS":"台中市和平區博愛村東關路一段溫泉巷18號","TEL":"04-25951112","COUNTYNAME":"台中市","TOWNNAME":"和平區","MARKTYPE":"996","Class":"6"},"geometry":{"x":121.01096100505167,"y":24.202837907413922}},{"attributes":{"OBJECTID":12562,"LANDMARKID":"1000600001358","LANDMARKCO":"603","LANDMARKNA":"谷關大飯店","LANDMARKAD":"1000621","ADDRESS":"台中市和平區博愛村東關路一段溫泉巷6號","TEL":"04-25951355-8","COUNTYNAME":"台中市","TOWNNAME":"和平區","MARKTYPE":"996","Class":"6"},"geometry":{"x":121.01125803979706,"y":24.203234063327525}},{"attributes":{"OBJECTID":12563,"LANDMARKID":"1000600001359","LANDMARKCO":"603","LANDMARKNA":"神木谷假期大飯店","LANDMARKAD":"1000621","ADDRESS":"台中市和平區博愛村東關路一段溫泉巷7號","TEL":"04-25951511-5","COUNTYNAME":"台中市","TOWNNAME":"和平區","MARKTYPE":"996","Class":"6"},"geometry":{"x":121.01049508089851,"y":24.203766940821193}},{"attributes":{"OBJECTID":12564,"LANDMARKID":"1000600001360","LANDMARKCO":"603","LANDMARKNA":"四季溫泉會館 (東谷)","LANDMARKAD":"1000621","ADDRESS":"台中市和平區博愛村東關路一段溫泉巷8-1號","TEL":"04-25951235-6","COUNTYNAME":"台中市","TOWNNAME":"和平區","MARKTYPE":"996","Class":"6"},"geometry":{"x":121.0101191310607,"y":24.204443966085886}},{"attributes":{"OBJECTID":12565,"LANDMARKID":"1000600001361","LANDMARKCO":"603","LANDMARKNA":"明高溫泉旅社","LANDMARKAD":"1000621","ADDRESS":"台中市和平區博愛村東關路一段溫泉巷96號","TEL":"04-25951117","COUNTYNAME":"台中市","TOWNNAME":"和平區","MARKTYPE":"996","Class":"6"},"geometry":{"x":121.0080950214718,"y":24.203117960004736}},{"attributes":{"OBJECTID":12566,"LANDMARKID":"1000600001452","LANDMARKCO":"604","LANDMARKNA":"小米穗","LANDMARKAD":"1000621","ADDRESS":"台中市和平區博愛村東關路1段松鶴3巷92號","TEL":"04-25770251","COUNTYNAME":"台中市","TOWNNAME":"和平區","MARKTYPE":"996","Class":"6"},"geometry":{"x":120.97701868337818,"y":24.173992391445832}},{"attributes":{"OBJECTID":12567,"LANDMARKID":"1000600001362","LANDMARKCO":"603","LANDMARKNA":"福壽山農場住宿","LANDMARKAD":"1000621","ADDRESS":"台中市和平區梨山村福壽路29號","TEL":"04-25989205","COUNTYNAME":"台中市","TOWNNAME":"和平區","MARKTYPE":"996","Class":"6"},"geometry":{"x":121.24647719238651,"y":24.245568197399937}},{"attributes":{"OBJECTID":12568,"LANDMARKID":"1000600001363","LANDMARKCO":"603","LANDMARKNA":"新瑞士大飯店","LANDMARKAD":"1000621","ADDRESS":"台中市和平區梨山村中正路11號","TEL":"04-25989612","COUNTYNAME":"台中市","TOWNNAME":"和平區","MARKTYPE":"996","Class":"6"},"geometry":{"x":121.25930346264455,"y":24.257132999794916}},{"attributes":{"OBJECTID":12569,"LANDMARKID":"1000600001364","LANDMARKCO":"603","LANDMARKNA":"福忠大飯店","LANDMARKAD":"1000621","ADDRESS":"台中市和平區梨山村中正路61號","TEL":"04-25989506-7","COUNTYNAME":"台中市","TOWNNAME":"和平區","MARKTYPE":"996","Class":"6"},"geometry":{"x":121.25581261797416,"y":24.2546300082874}},{"attributes":{"OBJECTID":12570,"LANDMARKID":"1000600001365","LANDMARKCO":"603","LANDMARKNA":"廣達大旅社","LANDMARKAD":"1000621","ADDRESS":"台中市和平區梨山村民族街21號","TEL":"04-25989216","COUNTYNAME":"台中市","TOWNNAME":"和平區","MARKTYPE":"996","Class":"6"},"geometry":{"x":121.25604695204281,"y":24.254123582398979}},{"attributes":{"OBJECTID":12571,"LANDMARKID":"1000600001366","LANDMARKCO":"603","LANDMARKNA":"燕華樓大旅社","LANDMARKAD":"1000621","ADDRESS":"台中市和平區梨山村民族街22號","TEL":"04-25989511","COUNTYNAME":"台中市","TOWNNAME":"和平區","MARKTYPE":"996","Class":"6"},"geometry":{"x":121.25588025570411,"y":24.25430472803593}},{"attributes":{"OBJECTID":12572,"LANDMARKID":"1000600001367","LANDMARKCO":"603","LANDMARKNA":"梨都大旅社","LANDMARKAD":"1000621","ADDRESS":"台中市和平區梨山村民族街34號","TEL":"04-25989256","COUNTYNAME":"台中市","TOWNNAME":"和平區","MARKTYPE":"996","Class":"6"},"geometry":{"x":121.25548462117099,"y":24.253877042361339}},{"attributes":{"OBJECTID":12573,"LANDMARKID":"1000600001368","LANDMARKCO":"603","LANDMARKNA":"飛燕城堡渡假飯店","LANDMARKAD":"1000621","ADDRESS":"台中市和平區梨山村民族街46號","TEL":"04-25989577-8","COUNTYNAME":"台中市","TOWNNAME":"和平區","MARKTYPE":"996","Class":"6"},"geometry":{"x":121.25518888808159,"y":24.253805800678816}},{"attributes":{"OBJECTID":12574,"LANDMARKID":"1000600001369","LANDMARKCO":"603","LANDMARKNA":"好望角大飯店","LANDMARKAD":"1000621","ADDRESS":"台中市和平區梨山村民族街52號","TEL":"04-25981513","COUNTYNAME":"台中市","TOWNNAME":"和平區","MARKTYPE":"996","Class":"6"},"geometry":{"x":121.25466722437029,"y":24.253879783522091}},{"attributes":{"OBJECTID":12575,"LANDMARKID":"1000600001451","LANDMARKCO":"604","LANDMARKNA":"松柏民宿","LANDMARKAD":"1000621","ADDRESS":"台中市和平區梨山村中正路6號","TEL":"04-25981448","COUNTYNAME":"台中市","TOWNNAME":"和平區","MARKTYPE":"996","Class":"6"},"geometry":{"x":121.25998436371897,"y":24.257464757261431}},{"attributes":{"OBJECTID":12576,"LANDMARKID":"1000600001352","LANDMARKCO":"602","LANDMARKNA":"龍谷大飯店","LANDMARKAD":"1000621","ADDRESS":"台中市和平區博愛村東關路1段138號","TEL":"04-25951369","COUNTYNAME":"台中市","TOWNNAME":"和平區","MARKTYPE":"996","Class":"6"},"geometry":{"x":121.00620000607233,"y":24.202898049066054}},{"attributes":{"OBJECTID":12577,"LANDMARKID":"1000600001308","LANDMARKCO":"508","LANDMARKNA":"水舞谷關渡假溫泉館","LANDMARKAD":"1000621","ADDRESS":"台中市和平區東關路一段115號","TEL":"04-25950099","COUNTYNAME":"台中市","TOWNNAME":"和平區","MARKTYPE":"995","Class":"5"},"geometry":{"x":121.0084070018957,"y":24.202768117642091}},{"attributes":{"OBJECTID":12578,"LANDMARKID":"1000600001309","LANDMARKCO":"508","LANDMARKNA":"伊豆日式露天溫泉","LANDMARKAD":"1000621","ADDRESS":"台中市和平區谷關分校巷5號","TEL":"04-25950315","COUNTYNAME":"台中市","TOWNNAME":"和平區","MARKTYPE":"995","Class":"5"},"geometry":{"x":121.00879212939067,"y":24.201827829271252}},{"attributes":{"OBJECTID":12579,"LANDMARKID":"1000600001310","LANDMARKCO":"508","LANDMARKNA":"谷關大飯店","LANDMARKAD":"1000621","ADDRESS":"台中市和平區東關路溫泉巷一段6號","TEL":"04-25951355","COUNTYNAME":"台中市","TOWNNAME":"和平區","MARKTYPE":"995","Class":"5"},"geometry":{"x":121.00909190357538,"y":24.202917453371565}},{"attributes":{"OBJECTID":12580,"LANDMARKID":"1000600001311","LANDMARKCO":"508","LANDMARKNA":"神木谷假期大飯店","LANDMARKAD":"1000621","ADDRESS":"台中市和平區東關路一段溫泉巷7號","TEL":"04-25951511","COUNTYNAME":"台中市","TOWNNAME":"和平區","MARKTYPE":"995","Class":"5"},"geometry":{"x":121.00939677952742,"y":24.204332372725041}},{"attributes":{"OBJECTID":12581,"LANDMARKID":"1000600001312","LANDMARKCO":"508","LANDMARKNA":"明治溫泉大飯店","LANDMARKAD":"1000621","ADDRESS":"台中市和平區東關路溫泉巷17號","TEL":"04-25951111","COUNTYNAME":"台中市","TOWNNAME":"和平區","MARKTYPE":"995","Class":"5"},"geometry":{"x":121.00964053932593,"y":24.204135599214482}},{"attributes":{"OBJECTID":12582,"LANDMARKID":"1000600001313","LANDMARKCO":"508","LANDMARKNA":"谷關警光山莊","LANDMARKAD":"1000621","ADDRESS":"台中市和平區東關路一段溫泉巷8號","TEL":"04-25951671","COUNTYNAME":"台中市","TOWNNAME":"和平區","MARKTYPE":"995","Class":"5"},"geometry":{"x":121.0095911290158,"y":24.204501018693396}},{"attributes":{"OBJECTID":12583,"LANDMARKID":"1000600001314","LANDMARKCO":"508","LANDMARKNA":"汶山大旅社","LANDMARKAD":"1000621","ADDRESS":"台中市和平區東關路一段溫泉巷16號","TEL":"04-25951265","COUNTYNAME":"台中市","TOWNNAME":"和平區","MARKTYPE":"995","Class":"5"},"geometry":{"x":121.01029611901384,"y":24.205642033347189}},{"attributes":{"OBJECTID":12584,"LANDMARKID":"1000600001315","LANDMARKCO":"508","LANDMARKNA":"八仙山莊","LANDMARKAD":"1000621","ADDRESS":"台中市和平區東關路一段平仙巷22號","TEL":"04-25951214","COUNTYNAME":"台中市","TOWNNAME":"和平區","MARKTYPE":"995","Class":"5"},"geometry":{"x":121.01531027741218,"y":24.191543763846042}},{"attributes":{"OBJECTID":12585,"LANDMARKID":"1000600001275","LANDMARKCO":"504","LANDMARKNA":"蘭谷瀑布","LANDMARKAD":"1000621","ADDRESS":"台中市和平區","TEL":" ","COUNTYNAME":"台中市","TOWNNAME":"和平區","MARKTYPE":"995","Class":"5"},"geometry":{"x":120.98878090856574,"y":24.197866006311123}},{"attributes":{"OBJECTID":12586,"LANDMARKID":"1000600001276","LANDMARKCO":"504","LANDMARKNA":"龍谷大瀑布","LANDMARKAD":"1000621","ADDRESS":"台中市和平區","TEL":" ","COUNTYNAME":"台中市","TOWNNAME":"和平區","MARKTYPE":"995","Class":"5"},"geometry":{"x":121.00452528367055,"y":24.214209244211286}},{"attributes":{"OBJECTID":12587,"LANDMARKID":"1000600001277","LANDMARKCO":"504","LANDMARKNA":"雪山神木","LANDMARKAD":"1000621","ADDRESS":"台中市和平區","TEL":" ","COUNTYNAME":"台中市","TOWNNAME":"和平區","MARKTYPE":"995","Class":"5"},"geometry":{"x":121.03013073108961,"y":24.280504059357931}},{"attributes":{"OBJECTID":12588,"LANDMARKID":"1000600001278","LANDMARKCO":"504","LANDMARKNA":"青山溪瀑布群","LANDMARKAD":"1000621","ADDRESS":"台中市和平區","TEL":" ","COUNTYNAME":"台中市","TOWNNAME":"和平區","MARKTYPE":"995","Class":"5"},"geometry":{"x":121.0898713554851,"y":24.23289640482977}},{"attributes":{"OBJECTID":12589,"LANDMARKID":"1000600001279","LANDMARKCO":"504","LANDMARKNA":"思源亭","LANDMARKAD":"1000621","ADDRESS":"台中市和平區","TEL":" ","COUNTYNAME":"台中市","TOWNNAME":"和平區","MARKTYPE":"995","Class":"5"},"geometry":{"x":121.17331905336989,"y":24.253610267016498}},{"attributes":{"OBJECTID":12590,"LANDMARKID":"1000600001280","LANDMARKCO":"504","LANDMARKNA":"攬勝亭","LANDMARKAD":"1000621","ADDRESS":"台中市和平區","TEL":" ","COUNTYNAME":"台中市","TOWNNAME":"和平區","MARKTYPE":"995","Class":"5"},"geometry":{"x":121.24517525991273,"y":24.256589462852439}},{"attributes":{"OBJECTID":12591,"LANDMARKID":"1000600001281","LANDMARKCO":"504","LANDMARKNA":"天池","LANDMARKAD":"1000621","ADDRESS":"台中市和平區","TEL":" ","COUNTYNAME":"台中市","TOWNNAME":"和平區","MARKTYPE":"995","Class":"5"},"geometry":{"x":121.02752094161005,"y":24.283042152070355}},{"attributes":{"OBJECTID":12592,"LANDMARKID":"1000600001257","LANDMARKCO":"503","LANDMARKNA":"谷關水庫","LANDMARKAD":"1000621","ADDRESS":"台中市和平區","TEL":" ","COUNTYNAME":"台中市","TOWNNAME":"和平區","MARKTYPE":"995","Class":"5"},"geometry":{"x":121.07697646511485,"y":24.23341620548139}},{"attributes":{"OBJECTID":12593,"LANDMARKID":"1000600001258","LANDMARKCO":"503","LANDMARKNA":"德基水庫","LANDMARKAD":"1000621","ADDRESS":"台中市和平區","TEL":" ","COUNTYNAME":"台中市","TOWNNAME":"和平區","MARKTYPE":"995","Class":"5"},"geometry":{"x":121.16629225960546,"y":24.254391708515552}},{"attributes":{"OBJECTID":12594,"LANDMARKID":"1000600001259","LANDMARKCO":"503","LANDMARKNA":"雪山登山口服務站","LANDMARKAD":"1000621","ADDRESS":"台中市和平區","TEL":" ","COUNTYNAME":"台中市","TOWNNAME":"和平區","MARKTYPE":"995","Class":"5"},"geometry":{"x":121.29877067897823,"y":24.385538973435178}},{"attributes":{"OBJECTID":12595,"LANDMARKID":"1000600001307","LANDMARKCO":"508","LANDMARKNA":"谷關水岸湯泉","LANDMARKAD":"1000621","ADDRESS":"台中市和平區博愛村東關路一段188號","TEL":" ","COUNTYNAME":"台中市","TOWNNAME":"和平區","MARKTYPE":"995","Class":"5"},"geometry":{"x":121.00233148730003,"y":24.202225681090759}},{"attributes":{"OBJECTID":12596,"LANDMARKID":"1000600001260","LANDMARKCO":"503","LANDMARKNA":"桃山瀑布(煙聲瀑布)","LANDMARKAD":"1000621","ADDRESS":"台中市和平區","TEL":" ","COUNTYNAME":"台中市","TOWNNAME":"和平區","MARKTYPE":"995","Class":"5"},"geometry":{"x":121.30233781476042,"y":24.414670994877891}},{"attributes":{"OBJECTID":12597,"LANDMARKID":"1000600001261","LANDMARKCO":"503","LANDMARKNA":"白鹿瀑布","LANDMARKAD":"1000621","ADDRESS":"台中市和平區","TEL":" ","COUNTYNAME":"台中市","TOWNNAME":"和平區","MARKTYPE":"995","Class":"5"},"geometry":{"x":120.91613056039394,"y":24.171602951718178}},{"attributes":{"OBJECTID":12598,"LANDMARKID":"1000600001274","LANDMARKCO":"504","LANDMARKNA":"大雪山森林遊樂區","LANDMARKAD":"1000621","ADDRESS":"台中市和平區雪山路27號","TEL":" ","COUNTYNAME":"台中市","TOWNNAME":"和平區","MARKTYPE":"995","Class":"5"},"geometry":{"x":120.97496675024512,"y":24.245364532255625}},{"attributes":{"OBJECTID":12599,"LANDMARKID":"1000600001316","LANDMARKCO":"508","LANDMARKNA":"龍谷觀光飯店","LANDMARKAD":"1000621","ADDRESS":"台中市和平區東關路一段138號","TEL":" ","COUNTYNAME":"台中市","TOWNNAME":"和平區","MARKTYPE":"995","Class":"5"},"geometry":{"x":121.00505217603801,"y":24.203113303925427}},{"attributes":{"OBJECTID":12600,"LANDMARKID":"1000600001335","LANDMARKCO":"513","LANDMARKNA":"雪山","LANDMARKAD":"1000621","ADDRESS":"台中市和平區","TEL":" ","COUNTYNAME":"台中市","TOWNNAME":"和平區","MARKTYPE":"995","Class":"5"},"geometry":{"x":121.23176942293323,"y":24.383400693707582}}]}