{"displayFieldName":"COUNTYNAME","fieldAliases":{"OBJECTID":"OBJECTID","LANDMARKID":"LANDMARKID","LANDMARKCO":"LANDMARKCO","LANDMARKNA":"LANDMARKNA","LANDMARKAD":"LANDMARKAD","ADDRESS":"ADDRESS","TEL":"TEL","COUNTYNAME":"COUNTYNAME","TOWNNAME":"TOWNNAME","MARKTYPE":"MARKTYPE","Class":"Class"},"geometryType":"esriGeometryPoint","spatialReference":{"wkid":4326},"fields":[{"name":"OBJECTID","type":"esriFieldTypeOID","alias":"OBJECTID"},{"name":"LANDMARKID","type":"esriFieldTypeString","alias":"LANDMARKID","length":15},{"name":"LANDMARKCO","type":"esriFieldTypeString","alias":"LANDMARKCO","length":15},{"name":"LANDMARKNA","type":"esriFieldTypeString","alias":"LANDMARKNA","length":50},{"name":"LANDMARKAD","type":"esriFieldTypeString","alias":"LANDMARKAD","length":15},{"name":"ADDRESS","type":"esriFieldTypeString","alias":"ADDRESS","length":56},{"name":"TEL","type":"esriFieldTypeString","alias":"TEL","length":36},{"name":"COUNTYNAME","type":"esriFieldTypeString","alias":"COUNTYNAME","length":15},{"name":"TOWNNAME","type":"esriFieldTypeString","alias":"TOWNNAME","length":13},{"name":"MARKTYPE","type":"esriFieldTypeString","alias":"MARKTYPE","length":12},{"name":"Class","type":"esriFieldTypeString","alias":"Class","length":5}],"features":[{"attributes":{"OBJECTID":13001,"LANDMARKID":"1000600001152","LANDMARKCO":"408","LANDMARKNA":"郵局-沙鹿郵局","LANDMARKAD":"1000605","ADDRESS":"台中市沙鹿區中山路341號","TEL":"(04)2662-6687","COUNTYNAME":"台中市","TOWNNAME":"沙鹿區","MARKTYPE":"994","Class":"4"},"geometry":{"x":120.55988511680761,"y":24.239234080998596}},{"attributes":{"OBJECTID":13002,"LANDMARKID":"1000600001153","LANDMARKCO":"408","LANDMARKNA":"郵局-靜宜大學郵局","LANDMARKAD":"1000605","ADDRESS":"台中市沙鹿區中棲路200號","TEL":"(04)2631-9704","COUNTYNAME":"台中市","TOWNNAME":"沙鹿區","MARKTYPE":"994","Class":"4"},"geometry":{"x":120.57720906561192,"y":24.2258494917779}},{"attributes":{"OBJECTID":13003,"LANDMARKID":"1000600001154","LANDMARKCO":"408","LANDMARKNA":"郵局-沙鹿鹿寮郵局","LANDMARKAD":"1000605","ADDRESS":"台中市沙鹿區中山路584-1號","TEL":"(04)2662-4294","COUNTYNAME":"台中市","TOWNNAME":"沙鹿區","MARKTYPE":"994","Class":"4"},"geometry":{"x":120.56752983849411,"y":24.252825530574952}},{"attributes":{"OBJECTID":13004,"LANDMARKID":"1000600001249","LANDMARKCO":"409","LANDMARKNA":"台中市沙鹿區農會","LANDMARKAD":"1000605","ADDRESS":"台中市沙鹿區沙田路131號","TEL":"04-26623111","COUNTYNAME":"台中市","TOWNNAME":"沙鹿區","MARKTYPE":"994","Class":"4"},"geometry":{"x":120.55894396064586,"y":24.23560571371674}},{"attributes":{"OBJECTID":13005,"LANDMARKID":"1000600000896","LANDMARKCO":"404","LANDMARKNA":"台灣自來水沙鹿營運所","LANDMARKAD":"1000605","ADDRESS":"臺中縣沙鹿區北勢東路829號","TEL":"04-26312127","COUNTYNAME":"台中市","TOWNNAME":"沙鹿區","MARKTYPE":"994","Class":"4"},"geometry":{"x":120.577338967515,"y":24.22764450812145}},{"attributes":{"OBJECTID":13006,"LANDMARKID":"1000600001120","LANDMARKCO":"406","LANDMARKNA":"西勢社區小型公園","LANDMARKAD":"1000605","ADDRESS":"台中市沙鹿區","TEL":" ","COUNTYNAME":"台中市","TOWNNAME":"沙鹿區","MARKTYPE":"994","Class":"4"},"geometry":{"x":120.59791267070051,"y":24.259611293725037}},{"attributes":{"OBJECTID":13007,"LANDMARKID":"1000600001121","LANDMARKCO":"406","LANDMARKNA":"鹿鳴公園","LANDMARKAD":"1000605","ADDRESS":"台中市沙鹿區","TEL":" ","COUNTYNAME":"台中市","TOWNNAME":"沙鹿區","MARKTYPE":"994","Class":"4"},"geometry":{"x":120.56756048950953,"y":24.243300368884821}},{"attributes":{"OBJECTID":13008,"LANDMARKID":"1000600001122","LANDMARKCO":"406","LANDMARKNA":"洛泉公園","LANDMARKAD":"1000605","ADDRESS":"台中市沙鹿區","TEL":" ","COUNTYNAME":"台中市","TOWNNAME":"沙鹿區","MARKTYPE":"994","Class":"4"},"geometry":{"x":120.56350242463976,"y":24.236867348124949}},{"attributes":{"OBJECTID":13009,"LANDMARKID":"1000600001123","LANDMARKCO":"406","LANDMARKNA":"沙鹿公園","LANDMARKAD":"1000605","ADDRESS":"台中市沙鹿區","TEL":" ","COUNTYNAME":"台中市","TOWNNAME":"沙鹿區","MARKTYPE":"994","Class":"4"},"geometry":{"x":120.56502318071264,"y":24.234486299602189}},{"attributes":{"OBJECTID":13010,"LANDMARKID":"1000600001124","LANDMARKCO":"406","LANDMARKNA":"兒童公園","LANDMARKAD":"1000605","ADDRESS":"台中市沙鹿區","TEL":" ","COUNTYNAME":"台中市","TOWNNAME":"沙鹿區","MARKTYPE":"994","Class":"4"},"geometry":{"x":120.56995176500932,"y":24.228874994668001}},{"attributes":{"OBJECTID":13011,"LANDMARKID":"1000600001125","LANDMARKCO":"406","LANDMARKNA":"青年公園","LANDMARKAD":"1000605","ADDRESS":"台中市沙鹿區","TEL":" ","COUNTYNAME":"台中市","TOWNNAME":"沙鹿區","MARKTYPE":"994","Class":"4"},"geometry":{"x":120.57353467761988,"y":24.22197990369801}},{"attributes":{"OBJECTID":13012,"LANDMARKID":"1000600001126","LANDMARKCO":"406","LANDMARKNA":"六福公園","LANDMARKAD":"1000605","ADDRESS":"台中市沙鹿區","TEL":" ","COUNTYNAME":"台中市","TOWNNAME":"沙鹿區","MARKTYPE":"994","Class":"4"},"geometry":{"x":120.57918507075422,"y":24.21607596622701}},{"attributes":{"OBJECTID":13013,"LANDMARKID":"1000600001127","LANDMARKCO":"406","LANDMARKNA":"明透公園","LANDMARKAD":"1000605","ADDRESS":"台中市沙鹿區","TEL":" ","COUNTYNAME":"台中市","TOWNNAME":"沙鹿區","MARKTYPE":"994","Class":"4"},"geometry":{"x":120.57291752170218,"y":24.203956552186643}},{"attributes":{"OBJECTID":13014,"LANDMARKID":"1000600001128","LANDMARKCO":"406","LANDMARKNA":"三鹿公園","LANDMARKAD":"1000605","ADDRESS":"台中市沙鹿區","TEL":" ","COUNTYNAME":"台中市","TOWNNAME":"沙鹿區","MARKTYPE":"994","Class":"4"},"geometry":{"x":120.56740992292538,"y":24.201515509411895}},{"attributes":{"OBJECTID":13015,"LANDMARKID":"1000600000894","LANDMARKCO":"404","LANDMARKNA":"台灣省自來水大肚龍井營運所","LANDMARKAD":"1000605","ADDRESS":"台中市沙鹿區北勢東路432號","TEL":" ","COUNTYNAME":"台中市","TOWNNAME":"沙鹿區","MARKTYPE":"994","Class":"4"},"geometry":{"x":120.57931687089734,"y":24.221167546239553}},{"attributes":{"OBJECTID":13016,"LANDMARKID":"1000600000895","LANDMARKCO":"404","LANDMARKNA":"台灣省自來水沙鹿營運所","LANDMARKAD":"1000605","ADDRESS":"台中市沙鹿區北勢東街829號","TEL":" ","COUNTYNAME":"台中市","TOWNNAME":"沙鹿區","MARKTYPE":"994","Class":"4"},"geometry":{"x":120.56916101533081,"y":24.229625546119163}},{"attributes":{"OBJECTID":13017,"LANDMARKID":"1000600001151","LANDMARKCO":"407","LANDMARKNA":"三商百貨","LANDMARKAD":"1000605","ADDRESS":"台中市沙鹿區沙田路142號","TEL":"04-26629621","COUNTYNAME":"台中市","TOWNNAME":"沙鹿區","MARKTYPE":"994","Class":"4"},"geometry":{"x":120.55960787210779,"y":24.236091902121949}},{"attributes":{"OBJECTID":13018,"LANDMARKID":"1000600000996","LANDMARKCO":"405","LANDMARKNA":"台亞加油站-鎮南站（台塑）","LANDMARKAD":"1000605","ADDRESS":"台中市沙鹿區鎮南路二段505號","TEL":"(04)2636-6986","COUNTYNAME":"台中市","TOWNNAME":"沙鹿區","MARKTYPE":"994","Class":"4"},"geometry":{"x":120.56376826682576,"y":24.232824730382536}},{"attributes":{"OBJECTID":13019,"LANDMARKID":"1000600000997","LANDMARKCO":"405","LANDMARKNA":"台亞加油站-沙鹿交流道站（台塑）","LANDMARKAD":"1000605","ADDRESS":"台中市沙鹿區西勢里明德路376號","TEL":"(04)2615-3108","COUNTYNAME":"台中市","TOWNNAME":"沙鹿區","MARKTYPE":"994","Class":"4"},"geometry":{"x":120.57859334078343,"y":24.250455328936162}},{"attributes":{"OBJECTID":13020,"LANDMARKID":"1000600000998","LANDMARKCO":"405","LANDMARKNA":"全國加油站-中港路站（台塑）","LANDMARKAD":"1000605","ADDRESS":"台中市沙鹿區中棲路1號","TEL":"04-26323224","COUNTYNAME":"台中市","TOWNNAME":"沙鹿區","MARKTYPE":"994","Class":"4"},"geometry":{"x":120.57997618845182,"y":24.197768871453643}},{"attributes":{"OBJECTID":13021,"LANDMARKID":"1000600000256","LANDMARKCO":"108","LANDMARKNA":"台中市沙鹿區公所","LANDMARKAD":"1000605","ADDRESS":"台中市沙鹿區北勢里鎮政路8號","TEL":"04-26622101","COUNTYNAME":"台中市","TOWNNAME":"沙鹿區","MARKTYPE":"991","Class":"1"},"geometry":{"x":120.5597006324698,"y":24.234646229699404}},{"attributes":{"OBJECTID":13022,"LANDMARKID":"1000600000186","LANDMARKCO":"107","LANDMARKNA":"台中市警察局沙鹿分駐所","LANDMARKAD":"1000605","ADDRESS":"臺中縣沙鹿區北勢里鎮政路12號","TEL":"04-26625032","COUNTYNAME":"台中市","TOWNNAME":"沙鹿區","MARKTYPE":"991","Class":"1"},"geometry":{"x":120.55917317692148,"y":24.235455805383822}},{"attributes":{"OBJECTID":13023,"LANDMARKID":"1000600000114","LANDMARKCO":"106","LANDMARKNA":"台中市沙鹿區戶政事務所","LANDMARKAD":"1000605","ADDRESS":"沙鹿區北勢里25鄰鎮政路16號","TEL":"04-26627104","COUNTYNAME":"台中市","TOWNNAME":"沙鹿區","MARKTYPE":"991","Class":"1"},"geometry":{"x":120.5591639526273,"y":24.235365460365088}},{"attributes":{"OBJECTID":13024,"LANDMARKID":"1000600000054","LANDMARKCO":"103","LANDMARKNA":"台中市兒童福利中心","LANDMARKAD":"1000605","ADDRESS":"台中市沙鹿區福幼街8號","TEL":"04-26352551","COUNTYNAME":"台中市","TOWNNAME":"沙鹿區","MARKTYPE":"991","Class":"1"},"geometry":{"x":120.5651970922944,"y":24.230916246082728}},{"attributes":{"OBJECTID":13025,"LANDMARKID":"1000600000055","LANDMARKCO":"103","LANDMARKNA":"台中市政府海線縣政服務中心","LANDMARKAD":"1000605","ADDRESS":"台中市沙鹿區中山路658號","TEL":"04-2623-3433","COUNTYNAME":"台中市","TOWNNAME":"沙鹿區","MARKTYPE":"991","Class":"1"},"geometry":{"x":120.57029305538246,"y":24.257267330316669}},{"attributes":{"OBJECTID":13026,"LANDMARKID":"1000600000018","LANDMARKCO":"101","LANDMARKNA":"職業訓練局沙鹿就業服務站","LANDMARKAD":"1000605","ADDRESS":"台中市沙鹿區中山路493號","TEL":"04-8345369","COUNTYNAME":"台中市","TOWNNAME":"沙鹿區","MARKTYPE":"991","Class":"1"},"geometry":{"x":120.5622154788788,"y":24.246229572130005}},{"attributes":{"OBJECTID":13027,"LANDMARKID":"1000600000183","LANDMARKCO":"107","LANDMARKNA":"台中市警察局清泉派出所","LANDMARKAD":"1000605","ADDRESS":"台中市沙鹿區中公明里中清路2之39號","TEL":"04-26153884","COUNTYNAME":"台中市","TOWNNAME":"沙鹿區","MARKTYPE":"991","Class":"1"},"geometry":{"x":120.60997737492677,"y":24.246071593782144}},{"attributes":{"OBJECTID":13028,"LANDMARKID":"1000600000091","LANDMARKCO":"104","LANDMARKNA":"中區國稅局沙鹿稽徵所第一辦公室","LANDMARKAD":"1000605","ADDRESS":"台中市沙鹿區中山路625號","TEL":"04-26651351","COUNTYNAME":"台中市","TOWNNAME":"沙鹿區","MARKTYPE":"991","Class":"1"},"geometry":{"x":120.56686754351755,"y":24.252777362315175}},{"attributes":{"OBJECTID":13029,"LANDMARKID":"1000600000019","LANDMARKCO":"101","LANDMARKNA":"台灣台中地方法院沙鹿簡易庭","LANDMARKAD":"1000605","ADDRESS":"台中市沙鹿區中山路689號","TEL":"04-26236621","COUNTYNAME":"台中市","TOWNNAME":"沙鹿區","MARKTYPE":"991","Class":"1"},"geometry":{"x":120.56974769964677,"y":24.257815028242387}},{"attributes":{"OBJECTID":13030,"LANDMARKID":"1000600000052","LANDMARKCO":"103","LANDMARKNA":"台中市沙鹿區衛生所","LANDMARKAD":"1000605","ADDRESS":"台中市沙鹿區文昌街20號","TEL":"04-26625040","COUNTYNAME":"台中市","TOWNNAME":"沙鹿區","MARKTYPE":"991","Class":"1"},"geometry":{"x":120.56208636494823,"y":24.236468338655754}},{"attributes":{"OBJECTID":13031,"LANDMARKID":"1000600000053","LANDMARKCO":"103","LANDMARKNA":"台中市沙鹿區鎮民代表會","LANDMARKAD":"1000605","ADDRESS":"台中市沙鹿區鎮南路二段628號3樓","TEL":"04-26627520","COUNTYNAME":"台中市","TOWNNAME":"沙鹿區","MARKTYPE":"991","Class":"1"},"geometry":{"x":120.55911907467676,"y":24.234733155501608}},{"attributes":{"OBJECTID":13032,"LANDMARKID":"1000600000184","LANDMARKCO":"107","LANDMARKNA":"台中市警察局明秀派出所","LANDMARKAD":"1000605","ADDRESS":"臺中縣沙鹿區六路里鎮南路1段450號","TEL":"04-26314309","COUNTYNAME":"台中市","TOWNNAME":"沙鹿區","MARKTYPE":"991","Class":"1"},"geometry":{"x":120.57095376490496,"y":24.2163495121113}},{"attributes":{"OBJECTID":13033,"LANDMARKID":"1000600000185","LANDMARKCO":"107","LANDMARKNA":"台中市消防局沙鹿分隊","LANDMARKAD":"1000605","ADDRESS":"台中市沙鹿區鎮南路二段476號","TEL":"04-26314471","COUNTYNAME":"台中市","TOWNNAME":"沙鹿區","MARKTYPE":"991","Class":"1"},"geometry":{"x":120.56578301942255,"y":24.23222729328528}},{"attributes":{"OBJECTID":13034,"LANDMARKID":"1000600000539","LANDMARKCO":"204","LANDMARKNA":"台中市立圖書館沙鹿深波分館","LANDMARKAD":"1000605","ADDRESS":"台中市沙鹿區鎮南路二段448號","TEL":" ","COUNTYNAME":"台中市","TOWNNAME":"沙鹿區","MARKTYPE":"992","Class":"2"},"geometry":{"x":120.56397010648452,"y":24.233433853838505}},{"attributes":{"OBJECTID":13035,"LANDMARKID":"1000600000277","LANDMARKCO":"202","LANDMARKNA":"私立嘉陽高中","LANDMARKAD":"1000605","ADDRESS":"台中市清水區中清路1號","TEL":"04-26152166","COUNTYNAME":"台中市","TOWNNAME":"沙鹿區","MARKTYPE":"992","Class":"2"},"geometry":{"x":120.5827079575696,"y":24.265682895783328}},{"attributes":{"OBJECTID":13036,"LANDMARKID":"1000600000513","LANDMARKCO":"203","LANDMARKNA":"縣立沙鹿國小","LANDMARKAD":"1000605","ADDRESS":"台中市沙鹿區美仁里中正街3號","TEL":"04-26625014","COUNTYNAME":"台中市","TOWNNAME":"沙鹿區","MARKTYPE":"992","Class":"2"},"geometry":{"x":120.56149883354341,"y":24.235190329159582}},{"attributes":{"OBJECTID":13037,"LANDMARKID":"1000600000275","LANDMARKCO":"201","LANDMARKNA":"弘光科技大學","LANDMARKAD":"1000605","ADDRESS":"台中市沙鹿區中棲路34號","TEL":"04-26318652","COUNTYNAME":"台中市","TOWNNAME":"沙鹿區","MARKTYPE":"992","Class":"2"},"geometry":{"x":120.58086238950401,"y":24.217096001773776}},{"attributes":{"OBJECTID":13038,"LANDMARKID":"1000600000276","LANDMARKCO":"202","LANDMARKNA":"國立沙鹿高工","LANDMARKAD":"1000605","ADDRESS":"台中市沙鹿區中棲路303號","TEL":"04-26621795","COUNTYNAME":"台中市","TOWNNAME":"沙鹿區","MARKTYPE":"992","Class":"2"},"geometry":{"x":120.56523018959535,"y":24.238907211123539}},{"attributes":{"OBJECTID":13039,"LANDMARKID":"1000600000516","LANDMARKCO":"203","LANDMARKNA":"縣立沙鹿國中","LANDMARKAD":"1000605","ADDRESS":"台中市沙鹿區中正街1號","TEL":"04-26622163","COUNTYNAME":"台中市","TOWNNAME":"沙鹿區","MARKTYPE":"992","Class":"2"},"geometry":{"x":120.5614420887614,"y":24.235697173535083}},{"attributes":{"OBJECTID":13040,"LANDMARKID":"1000600000517","LANDMARKCO":"203","LANDMARKNA":"縣立鹿寮國中","LANDMARKAD":"1000605","ADDRESS":"台中市沙鹿區光華路385號","TEL":"04-26622207","COUNTYNAME":"台中市","TOWNNAME":"沙鹿區","MARKTYPE":"992","Class":"2"},"geometry":{"x":120.56658356561934,"y":24.244016407659508}},{"attributes":{"OBJECTID":13041,"LANDMARKID":"1000600000518","LANDMARKCO":"203","LANDMARKNA":"縣立北勢國中","LANDMARKAD":"1000605","ADDRESS":"台中市沙鹿區英才路150號","TEL":"04-26322236","COUNTYNAME":"台中市","TOWNNAME":"沙鹿區","MARKTYPE":"992","Class":"2"},"geometry":{"x":120.56924275681,"y":24.225387424607781}},{"attributes":{"OBJECTID":13042,"LANDMARKID":"1000600000519","LANDMARKCO":"203","LANDMARKNA":"縣立公館國小","LANDMARKAD":"1000605","ADDRESS":"台中市沙鹿區西勢里中清路85之6號","TEL":"04-26238353","COUNTYNAME":"台中市","TOWNNAME":"沙鹿區","MARKTYPE":"992","Class":"2"},"geometry":{"x":120.59585910558306,"y":24.260300323324746}},{"attributes":{"OBJECTID":13043,"LANDMARKID":"1000600000520","LANDMARKCO":"203","LANDMARKNA":"縣立文光國小","LANDMARKAD":"1000605","ADDRESS":"台中市沙鹿區斗潭路文光巷12號","TEL":"04-26352806","COUNTYNAME":"台中市","TOWNNAME":"沙鹿區","MARKTYPE":"992","Class":"2"},"geometry":{"x":120.55053863467749,"y":24.217977939186035}},{"attributes":{"OBJECTID":13044,"LANDMARKID":"1000600000521","LANDMARKCO":"203","LANDMARKNA":"縣立公明國小","LANDMARKAD":"1000605","ADDRESS":"台中市沙鹿區公明里忠貞路213號","TEL":"04-26150963","COUNTYNAME":"台中市","TOWNNAME":"沙鹿區","MARKTYPE":"992","Class":"2"},"geometry":{"x":120.60874219354494,"y":24.243762823468614}},{"attributes":{"OBJECTID":13045,"LANDMARKID":"1000600000522","LANDMARKCO":"203","LANDMARKNA":"縣立北勢國小","LANDMARKAD":"1000605","ADDRESS":"台中市沙鹿區六路里南陽路376號","TEL":"04-26315032","COUNTYNAME":"台中市","TOWNNAME":"沙鹿區","MARKTYPE":"992","Class":"2"},"geometry":{"x":120.57167534190572,"y":24.216707224052506}},{"attributes":{"OBJECTID":13046,"LANDMARKID":"1000600000523","LANDMARKCO":"203","LANDMARKNA":"縣立鹿峰國小","LANDMARKAD":"1000605","ADDRESS":"台中市沙鹿區鹿峰里星河路615號","TEL":"04-26224210","COUNTYNAME":"台中市","TOWNNAME":"沙鹿區","MARKTYPE":"992","Class":"2"},"geometry":{"x":120.57436564430429,"y":24.259359082254235}},{"attributes":{"OBJECTID":13047,"LANDMARKID":"1000600000274","LANDMARKCO":"201","LANDMARKNA":"靜宜大學","LANDMARKAD":"1000605","ADDRESS":"台中市沙鹿區中棲路200號","TEL":"04-26328001","COUNTYNAME":"台中市","TOWNNAME":"沙鹿區","MARKTYPE":"992","Class":"2"},"geometry":{"x":120.57720501887684,"y":24.225851003758109}},{"attributes":{"OBJECTID":13048,"LANDMARKID":"1000600000514","LANDMARKCO":"203","LANDMARKNA":"縣立竹林國小","LANDMARKAD":"1000605","ADDRESS":"台中市沙鹿區杉林村合森巷41號","TEL":"04-26620175","COUNTYNAME":"台中市","TOWNNAME":"沙鹿區","MARKTYPE":"992","Class":"2"},"geometry":{"x":120.56713320611065,"y":24.237734819482004}},{"attributes":{"OBJECTID":13049,"LANDMARKID":"1000600000515","LANDMARKCO":"203","LANDMARKNA":"縣立鹿峰國小星河分部","LANDMARKAD":"1000605","ADDRESS":"台中市沙鹿區","TEL":" ","COUNTYNAME":"台中市","TOWNNAME":"沙鹿區","MARKTYPE":"992","Class":"2"},"geometry":{"x":120.57442830116619,"y":24.259430131540007}},{"attributes":{"OBJECTID":13050,"LANDMARKID":"1000600000745","LANDMARKCO":"308","LANDMARKNA":"國3-沙鹿交流道-南下","LANDMARKAD":"1000605","ADDRESS":"台中市沙鹿區","TEL":" ","COUNTYNAME":"台中市","TOWNNAME":"沙鹿區","MARKTYPE":"993","Class":"308"},"geometry":{"x":120.58932175399394,"y":24.253976783208575}},{"attributes":{"OBJECTID":13051,"LANDMARKID":"1000600000746","LANDMARKCO":"308","LANDMARKNA":"國3-沙鹿交流道-南下","LANDMARKAD":"1000605","ADDRESS":"台中市沙鹿區","TEL":" ","COUNTYNAME":"台中市","TOWNNAME":"沙鹿區","MARKTYPE":"993","Class":"308"},"geometry":{"x":120.59201343630453,"y":24.24591912366024}},{"attributes":{"OBJECTID":13052,"LANDMARKID":"1000600000747","LANDMARKCO":"308","LANDMARKNA":"國3-龍井交流道-北上","LANDMARKAD":"1000605","ADDRESS":"台中市龍井區","TEL":" ","COUNTYNAME":"台中市","TOWNNAME":"沙鹿區","MARKTYPE":"993","Class":"308"},"geometry":{"x":120.5748939809806,"y":24.197313259470636}},{"attributes":{"OBJECTID":13053,"LANDMARKID":"1000600000592","LANDMARKCO":"302","LANDMARKNA":"巨業汽車客運沙鹿站","LANDMARKAD":"1000605","ADDRESS":"台中市沙鹿區和平街2號","TEL":" ","COUNTYNAME":"台中市","TOWNNAME":"沙鹿區","MARKTYPE":"993","Class":"302"},"geometry":{"x":120.56110437003832,"y":24.237851340398731}},{"attributes":{"OBJECTID":13054,"LANDMARKID":"1000600000593","LANDMARKCO":"302","LANDMARKNA":"統聯客運-沙鹿站-代售處","LANDMARKAD":"1000605","ADDRESS":"台中市沙鹿區中棲路309-1號","TEL":"連絡電話:04-266","COUNTYNAME":"台中市","TOWNNAME":"沙鹿區","MARKTYPE":"993","Class":"302"},"geometry":{"x":120.56310794874076,"y":24.239821956117439}},{"attributes":{"OBJECTID":13055,"LANDMARKID":"1000600000675","LANDMARKCO":"304","LANDMARKNA":"台中航空站-台中機場","LANDMARKAD":"1000605","ADDRESS":"台中市沙鹿區中清路42號","TEL":"04-26155000","COUNTYNAME":"台中市","TOWNNAME":"沙鹿區","MARKTYPE":"993","Class":"304"},"geometry":{"x":120.60021369425212,"y":24.255525911309444}},{"attributes":{"OBJECTID":13056,"LANDMARKID":"1000600000659","LANDMARKCO":"303","LANDMARKNA":"沙鹿公園停車場","LANDMARKAD":"1000605","ADDRESS":"台中市沙鹿區","TEL":" ","COUNTYNAME":"台中市","TOWNNAME":"沙鹿區","MARKTYPE":"993","Class":"303"},"geometry":{"x":120.56517370466163,"y":24.236286545179958}},{"attributes":{"OBJECTID":13057,"LANDMARKID":"1000600000660","LANDMARKCO":"303","LANDMARKNA":"沙鹿火車站停車場","LANDMARKAD":"1000605","ADDRESS":"台中市沙鹿區中正街94號","TEL":" ","COUNTYNAME":"台中市","TOWNNAME":"沙鹿區","MARKTYPE":"993","Class":"303"},"geometry":{"x":120.55783417580072,"y":24.235445260844916}},{"attributes":{"OBJECTID":13058,"LANDMARKID":"1000600000661","LANDMARKCO":"303","LANDMARKNA":"中興嘟嘟房停車場-金車加盟-台中機場站","LANDMARKAD":"1000605","ADDRESS":"台中市沙鹿區西勢里中清路42號","TEL":"04-23161649","COUNTYNAME":"台中市","TOWNNAME":"沙鹿區","MARKTYPE":"993","Class":"303"},"geometry":{"x":120.60136853530918,"y":24.257949666782139}},{"attributes":{"OBJECTID":13059,"LANDMARKID":"1000600000585","LANDMARKCO":"301","LANDMARKNA":"沙鹿火車站","LANDMARKAD":"1000605","ADDRESS":"台中市沙鹿區中正街94號","TEL":"04-26625057","COUNTYNAME":"台中市","TOWNNAME":"沙鹿區","MARKTYPE":"993","Class":"301"},"geometry":{"x":120.5575815922183,"y":24.237176270461696}},{"attributes":{"OBJECTID":13060,"LANDMARKID":"1000600000849","LANDMARKCO":"402","LANDMARKNA":"中華電信-沙鹿服務中心","LANDMARKAD":"1000605","ADDRESS":"台中市沙鹿區成功東街94號","TEL":"123或0800-080-123","COUNTYNAME":"台中市","TOWNNAME":"沙鹿區","MARKTYPE":"994","Class":"4"},"geometry":{"x":120.56408416128994,"y":24.241499531477512}},{"attributes":{"OBJECTID":13061,"LANDMARKID":"1000600000850","LANDMARKCO":"402","LANDMARKNA":"中華電信-沙鹿沙田特約服務中心","LANDMARKAD":"1000605","ADDRESS":"台中市沙鹿區沙田路148號","TEL":"04-26633366","COUNTYNAME":"台中市","TOWNNAME":"沙鹿區","MARKTYPE":"994","Class":"4"},"geometry":{"x":120.55964766048423,"y":24.236578146915029}},{"attributes":{"OBJECTID":13062,"LANDMARKID":"1000600000851","LANDMARKCO":"402","LANDMARKNA":"威寶電信-沙鹿英才特約服務中心","LANDMARKAD":"1000605","ADDRESS":"台中市沙鹿區英才路25之1號","TEL":"04-26527766","COUNTYNAME":"台中市","TOWNNAME":"沙鹿區","MARKTYPE":"994","Class":"4"},"geometry":{"x":120.57432155061892,"y":24.22624749519245}},{"attributes":{"OBJECTID":13063,"LANDMARKID":"1000600000852","LANDMARKCO":"402","LANDMARKNA":"威寶電信-沙鹿中山特約服務中心","LANDMARKAD":"1000605","ADDRESS":"台中市沙鹿區中山路314號","TEL":"04-26651626","COUNTYNAME":"台中市","TOWNNAME":"沙鹿區","MARKTYPE":"994","Class":"4"},"geometry":{"x":120.56036605177472,"y":24.239462591221869}},{"attributes":{"OBJECTID":13064,"LANDMARKID":"1000600000853","LANDMARKCO":"402","LANDMARKNA":"大眾電信-沙鹿專賣店","LANDMARKAD":"1000605","ADDRESS":"台中市沙鹿區中山路324號","TEL":"0966-916868","COUNTYNAME":"台中市","TOWNNAME":"沙鹿區","MARKTYPE":"994","Class":"4"},"geometry":{"x":120.5604908964164,"y":24.239923801576733}},{"attributes":{"OBJECTID":13065,"LANDMARKID":"1000600000854","LANDMARKCO":"402","LANDMARKNA":"大眾電信(震旦通訊)-沙鹿中山店","LANDMARKAD":"1000605","ADDRESS":"台中市沙鹿區中山路375號","TEL":"04-26652553","COUNTYNAME":"台中市","TOWNNAME":"沙鹿區","MARKTYPE":"994","Class":"4"},"geometry":{"x":120.56005708030057,"y":24.240002557886005}},{"attributes":{"OBJECTID":13066,"LANDMARKID":"1000600001417","LANDMARKCO":"603","LANDMARKNA":"佛羅倫斯別墅旅館","LANDMARKAD":"1000605","ADDRESS":"台中市沙鹿區竹林里中山路121-1號","TEL":"04-26652938","COUNTYNAME":"台中市","TOWNNAME":"沙鹿區","MARKTYPE":"996","Class":"6"},"geometry":{"x":120.56976085062665,"y":24.237047968698558}},{"attributes":{"OBJECTID":13067,"LANDMARKID":"1000600001418","LANDMARKCO":"603","LANDMARKNA":"富都旅社","LANDMARKAD":"1000605","ADDRESS":"台中市沙鹿區中山路294號","TEL":"04-26621106","COUNTYNAME":"台中市","TOWNNAME":"沙鹿區","MARKTYPE":"996","Class":"6"},"geometry":{"x":120.56029421999963,"y":24.238496078433208}},{"attributes":{"OBJECTID":13068,"LANDMARKID":"1000600001419","LANDMARKCO":"603","LANDMARKNA":"復興旅社","LANDMARKAD":"1000605","ADDRESS":"台中市沙鹿區日新街175號","TEL":"04-26628256","COUNTYNAME":"台中市","TOWNNAME":"沙鹿區","MARKTYPE":"996","Class":"6"},"geometry":{"x":120.55892413970918,"y":24.237260177562089}},{"attributes":{"OBJECTID":13069,"LANDMARKID":"1000600001420","LANDMARKCO":"603","LANDMARKNA":"統一大飯店","LANDMARKAD":"1000605","ADDRESS":"台中市沙鹿區日新街92號","TEL":"04-26622121","COUNTYNAME":"台中市","TOWNNAME":"沙鹿區","MARKTYPE":"996","Class":"6"},"geometry":{"x":120.5614853866594,"y":24.237104417477234}},{"attributes":{"OBJECTID":13070,"LANDMARKID":"1000600001038","LANDMARKCO":"405","LANDMARKNA":"中油加油站-建發科雅站","LANDMARKAD":"1000610","ADDRESS":"台中市大雅區中清路四段49號","TEL":"04-25690268","COUNTYNAME":"台中市","TOWNNAME":"大雅區","MARKTYPE":"994","Class":"4"},"geometry":{"x":120.63688100925262,"y":24.234034876977123}},{"attributes":{"OBJECTID":13071,"LANDMARKID":"1000600001039","LANDMARKCO":"405","LANDMARKNA":"中油加油站-北基中清交流道站","LANDMARKAD":"1000610","ADDRESS":"台中市大雅區中清路1段175號","TEL":"04-25608150","COUNTYNAME":"台中市","TOWNNAME":"大雅區","MARKTYPE":"994","Class":"4"},"geometry":{"x":120.64936448641066,"y":24.213667017508243}},{"attributes":{"OBJECTID":13072,"LANDMARKID":"1000600001040","LANDMARKCO":"405","LANDMARKNA":"中油加油站-山隆大雅","LANDMARKAD":"1000610","ADDRESS":"台中市大雅區中清路三段159號","TEL":"04-25689565","COUNTYNAME":"台中市","TOWNNAME":"大雅區","MARKTYPE":"994","Class":"4"},"geometry":{"x":120.64132276611895,"y":24.229778496134209}},{"attributes":{"OBJECTID":13073,"LANDMARKID":"1000600001041","LANDMARKCO":"405","LANDMARKNA":"山隆加油站-大雅站(中油)","LANDMARKAD":"1000610","ADDRESS":"台中市大雅區中清路3段159號","TEL":"(04)2568-9565","COUNTYNAME":"台中市","TOWNNAME":"大雅區","MARKTYPE":"994","Class":"4"},"geometry":{"x":120.64132276611895,"y":24.229778496134209}},{"attributes":{"OBJECTID":13074,"LANDMARKID":"1000600001042","LANDMARKCO":"405","LANDMARKNA":"中油加油站-大雅中清路站(刷卡自助)(中油直營)","LANDMARKAD":"1000610","ADDRESS":"台中市大雅區中清路一段271號","TEL":"04-25664445","COUNTYNAME":"台中市","TOWNNAME":"大雅區","MARKTYPE":"994","Class":"4"},"geometry":{"x":120.64834227491014,"y":24.217874783721587}},{"attributes":{"OBJECTID":13075,"LANDMARKID":"1000600001043","LANDMARKCO":"405","LANDMARKNA":"中油加油站-馬岡站","LANDMARKAD":"1000610","ADDRESS":"台中市大雅區雅潭路238-2號","TEL":"04-25674627","COUNTYNAME":"台中市","TOWNNAME":"大雅區","MARKTYPE":"994","Class":"4"},"geometry":{"x":120.66375057797477,"y":24.218847794508576}},{"attributes":{"OBJECTID":13076,"LANDMARKID":"1000600001044","LANDMARKCO":"405","LANDMARKNA":"中油加油站-楓騰站","LANDMARKAD":"1000610","ADDRESS":"台中市大雅區民生路三段260號","TEL":"04-25671618","COUNTYNAME":"台中市","TOWNNAME":"大雅區","MARKTYPE":"994","Class":"4"},"geometry":{"x":120.66312686556482,"y":24.232886511870497}},{"attributes":{"OBJECTID":13077,"LANDMARKID":"1000600001045","LANDMARKCO":"405","LANDMARKNA":"中油加油站-中雅站","LANDMARKAD":"1000610","ADDRESS":"台中市大雅區中清路一段8號","TEL":"04-25692126","COUNTYNAME":"台中市","TOWNNAME":"大雅區","MARKTYPE":"994","Class":"4"},"geometry":{"x":120.65207694230736,"y":24.210012147343406}},{"attributes":{"OBJECTID":13078,"LANDMARKID":"1000600001046","LANDMARKCO":"405","LANDMARKNA":"中油加油站-金井站","LANDMARKAD":"1000610","ADDRESS":"台中市大雅區大雅村中清南路272號","TEL":"045-670867","COUNTYNAME":"台中市","TOWNNAME":"大雅區","MARKTYPE":"994","Class":"4"},"geometry":{"x":120.64563348628191,"y":24.22539248952085}},{"attributes":{"OBJECTID":13079,"LANDMARKID":"1000600001047","LANDMARKCO":"405","LANDMARKNA":"中油加油站-衛盟大雅","LANDMARKAD":"1000610","ADDRESS":"台中市大雅區中正路61號","TEL":"04-25603189","COUNTYNAME":"台中市","TOWNNAME":"大雅區","MARKTYPE":"994","Class":"4"},"geometry":{"x":120.66896953550973,"y":24.214339924674952}},{"attributes":{"OBJECTID":13080,"LANDMARKID":"1000600001048","LANDMARKCO":"405","LANDMARKNA":"中油加油站-衛盟大雅站","LANDMARKAD":"1000610","ADDRESS":"台中市大雅區中正路61號","TEL":"04-25603189","COUNTYNAME":"台中市","TOWNNAME":"大雅區","MARKTYPE":"994","Class":"4"},"geometry":{"x":120.66896953550973,"y":24.214339924674952}},{"attributes":{"OBJECTID":13081,"LANDMARKID":"1000600000842","LANDMARKCO":"402","LANDMARKNA":"亞太行動寬頻電信-大雅民生加盟服務中心","LANDMARKAD":"1000610","ADDRESS":"台中市大雅區民生路一段175號","TEL":"04-25662277","COUNTYNAME":"台中市","TOWNNAME":"大雅區","MARKTYPE":"994","Class":"4"},"geometry":{"x":120.65004109909118,"y":24.227427750500603}},{"attributes":{"OBJECTID":13082,"LANDMARKID":"1000600000843","LANDMARKCO":"402","LANDMARKNA":"亞太行動寬頻電信-大雅中清加盟服務中心","LANDMARKAD":"1000610","ADDRESS":"台中市大雅區中清南路276號","TEL":"04-25606228","COUNTYNAME":"台中市","TOWNNAME":"大雅區","MARKTYPE":"994","Class":"4"},"geometry":{"x":120.64544220016199,"y":24.225776018912327}},{"attributes":{"OBJECTID":13083,"LANDMARKID":"1000600000762","LANDMARKCO":"401","LANDMARKNA":"清泉醫院","LANDMARKAD":"1000610","ADDRESS":"台中市大雅區雅潭路178號","TEL":"04-25605600","COUNTYNAME":"台中市","TOWNNAME":"大雅區","MARKTYPE":"994","Class":"4"},"geometry":{"x":120.66648715073777,"y":24.217059586176536}},{"attributes":{"OBJECTID":13084,"LANDMARKID":"1000600000763","LANDMARKCO":"401","LANDMARKNA":"大雅澄清醫院","LANDMARKAD":"1000610","ADDRESS":"台中市大雅區中清路三段24之2號","TEL":"04-25677722","COUNTYNAME":"台中市","TOWNNAME":"大雅區","MARKTYPE":"994","Class":"4"},"geometry":{"x":120.64438944826129,"y":24.227411916558662}},{"attributes":{"OBJECTID":13085,"LANDMARKID":"1000600001167","LANDMARKCO":"408","LANDMARKNA":"郵局-大雅清泉崗郵局","LANDMARKAD":"1000610","ADDRESS":"台中市大雅區忠義村仁愛路100號","TEL":"(04)2566-2010","COUNTYNAME":"台中市","TOWNNAME":"大雅區","MARKTYPE":"994","Class":"4"},"geometry":{"x":120.62097715656837,"y":24.234549154826869}},{"attributes":{"OBJECTID":13086,"LANDMARKID":"1000600001168","LANDMARKCO":"408","LANDMARKNA":"郵局-大雅郵局","LANDMARKAD":"1000610","ADDRESS":"台中市大雅區雅環路2段299號","TEL":"(04)2566-2480","COUNTYNAME":"台中市","TOWNNAME":"大雅區","MARKTYPE":"994","Class":"4"},"geometry":{"x":120.64837589332132,"y":24.229033714609599}},{"attributes":{"OBJECTID":13087,"LANDMARKID":"1000600001169","LANDMARKCO":"408","LANDMARKNA":"郵局-大雅馬岡厝郵局","LANDMARKAD":"1000610","ADDRESS":"台中市大雅區西寶村中正路162-12號","TEL":"(04)2560-3740","COUNTYNAME":"台中市","TOWNNAME":"大雅區","MARKTYPE":"994","Class":"4"},"geometry":{"x":120.66869131395278,"y":24.217288870579168}},{"attributes":{"OBJECTID":13088,"LANDMARKID":"1000600001245","LANDMARKCO":"409","LANDMARKNA":"台中市大雅區農會","LANDMARKAD":"1000610","ADDRESS":"台中市大雅區中清路二段136號","TEL":"04-25662216","COUNTYNAME":"台中市","TOWNNAME":"大雅區","MARKTYPE":"994","Class":"4"},"geometry":{"x":120.64759980304115,"y":24.224274888952959}},{"attributes":{"OBJECTID":13089,"LANDMARKID":"1000600000889","LANDMARKCO":"404","LANDMARKNA":"台灣自來水大雅營運所","LANDMARKAD":"1000610","ADDRESS":"臺中縣大雅區中清路四段296號","TEL":"04-25660708","COUNTYNAME":"台中市","TOWNNAME":"大雅區","MARKTYPE":"994","Class":"4"},"geometry":{"x":120.63960431042246,"y":24.238635189720153}},{"attributes":{"OBJECTID":13090,"LANDMARKID":"1000600001115","LANDMARKCO":"406","LANDMARKNA":"上楓社區公園","LANDMARKAD":"1000610","ADDRESS":"台中市大雅區","TEL":" ","COUNTYNAME":"台中市","TOWNNAME":"大雅區","MARKTYPE":"994","Class":"4"},"geometry":{"x":120.66401048923591,"y":24.230673155739453}},{"attributes":{"OBJECTID":13091,"LANDMARKID":"1000600000890","LANDMARKCO":"404","LANDMARKNA":"台灣省自來水大雅營運所","LANDMARKAD":"1000610","ADDRESS":"台中市大雅區中清路四段296號","TEL":" ","COUNTYNAME":"台中市","TOWNNAME":"大雅區","MARKTYPE":"994","Class":"4"},"geometry":{"x":120.63097499060069,"y":24.240709924766985}},{"attributes":{"OBJECTID":13092,"LANDMARKID":"1000600001036","LANDMARKCO":"405","LANDMARKNA":"全國加油站-上楓站（台塑）","LANDMARKAD":"1000610","ADDRESS":"台中市大雅區民生路四段239號","TEL":"04-25686815","COUNTYNAME":"台中市","TOWNNAME":"大雅區","MARKTYPE":"994","Class":"4"},"geometry":{"x":120.67186778488988,"y":24.239283980338755}},{"attributes":{"OBJECTID":13093,"LANDMARKID":"1000600001037","LANDMARKCO":"405","LANDMARKNA":"福懋加油站-大雅站(台塑)","LANDMARKAD":"1000610","ADDRESS":"台中市大雅區民生路二段1號","TEL":"04-25683457","COUNTYNAME":"台中市","TOWNNAME":"大雅區","MARKTYPE":"994","Class":"4"},"geometry":{"x":120.65456987315017,"y":24.229307169342057}},{"attributes":{"OBJECTID":13094,"LANDMARKID":"1000600000260","LANDMARKCO":"108","LANDMARKNA":"台中市大雅區公所","LANDMARKAD":"1000610","ADDRESS":"台中市大雅區雅環路二段301號","TEL":"04-25663316","COUNTYNAME":"台中市","TOWNNAME":"大雅區","MARKTYPE":"991","Class":"1"},"geometry":{"x":120.64778084474194,"y":24.228950422675336}},{"attributes":{"OBJECTID":13095,"LANDMARKID":"1000600000051","LANDMARKCO":"103","LANDMARKNA":"台中市大雅區鄉民代表會","LANDMARKAD":"1000610","ADDRESS":"臺中縣大雅區雅環路二段301號3樓","TEL":"04-25668937","COUNTYNAME":"台中市","TOWNNAME":"大雅區","MARKTYPE":"991","Class":"1"},"geometry":{"x":120.64778084474194,"y":24.228950422675336}},{"attributes":{"OBJECTID":13096,"LANDMARKID":"1000600000161","LANDMARKCO":"107","LANDMARKNA":"台中市警察局馬岡派出所","LANDMARKAD":"1000610","ADDRESS":"台中市大雅區三和村雅潭路150號","TEL":"04-25662064","COUNTYNAME":"台中市","TOWNNAME":"大雅區","MARKTYPE":"991","Class":"1"},"geometry":{"x":120.66726414453147,"y":24.216407546621554}},{"attributes":{"OBJECTID":13097,"LANDMARKID":"1000600000162","LANDMARKCO":"107","LANDMARKNA":"台中市警察局大雅分駐所","LANDMARKAD":"1000610","ADDRESS":"台中市大雅區大雅村中清路二段172號","TEL":"04-25662054","COUNTYNAME":"台中市","TOWNNAME":"大雅區","MARKTYPE":"991","Class":"1"},"geometry":{"x":120.64719817743286,"y":24.224739545944271}},{"attributes":{"OBJECTID":13098,"LANDMARKID":"1000600000113","LANDMARKCO":"106","LANDMARKNA":"台中市大雅區戶政事務所","LANDMARKAD":"1000610","ADDRESS":"台中市大雅區大雅村1鄰中清路二段170號","TEL":"04-25664274","COUNTYNAME":"台中市","TOWNNAME":"大雅區","MARKTYPE":"991","Class":"1"},"geometry":{"x":120.64733440421918,"y":24.224636832046151}},{"attributes":{"OBJECTID":13099,"LANDMARKID":"1000600000163","LANDMARKCO":"107","LANDMARKNA":"台中市消防局大雅分隊","LANDMARKAD":"1000610","ADDRESS":"台中市大雅區中清路二段174號","TEL":"04-25664054","COUNTYNAME":"台中市","TOWNNAME":"大雅區","MARKTYPE":"991","Class":"1"},"geometry":{"x":120.64699986347314,"y":24.224866842250933}},{"attributes":{"OBJECTID":13100,"LANDMARKID":"1000600000049","LANDMARKCO":"103","LANDMARKNA":"台中市大雅區衛生所","LANDMARKAD":"1000610","ADDRESS":"台中市大雅區中清路二段186號","TEL":"04-25661091","COUNTYNAME":"台中市","TOWNNAME":"大雅區","MARKTYPE":"991","Class":"1"},"geometry":{"x":120.64686142284299,"y":24.225006677866396}},{"attributes":{"OBJECTID":13101,"LANDMARKID":"1000600000536","LANDMARKCO":"204","LANDMARKNA":"台中市立圖書館大雅分館","LANDMARKAD":"1000610","ADDRESS":"台中市大雅區雅潭路388號","TEL":" ","COUNTYNAME":"台中市","TOWNNAME":"大雅區","MARKTYPE":"992","Class":"2"},"geometry":{"x":120.65020268537164,"y":24.221848038003387}},{"attributes":{"OBJECTID":13102,"LANDMARKID":"1000600000524","LANDMARKCO":"203","LANDMARKNA":"縣立上楓國小","LANDMARKAD":"1000610","ADDRESS":"台中市大雅區民生路481巷1號","TEL":"04-25663664","COUNTYNAME":"台中市","TOWNNAME":"大雅區","MARKTYPE":"992","Class":"2"},"geometry":{"x":120.6670669596224,"y":24.236450794800394}},{"attributes":{"OBJECTID":13103,"LANDMARKID":"1000600000525","LANDMARKCO":"203","LANDMARKNA":"縣立大明國小","LANDMARKAD":"1000610","ADDRESS":"台中市大雅區中清路三段92號","TEL":"04-25651300","COUNTYNAME":"台中市","TOWNNAME":"大雅區","MARKTYPE":"992","Class":"2"},"geometry":{"x":120.64382660565643,"y":24.229088744885527}},{"attributes":{"OBJECTID":13104,"LANDMARKID":"1000600000526","LANDMARKCO":"203","LANDMARKNA":"縣立汝鎏國小","LANDMARKAD":"1000610","ADDRESS":"台中市大雅區忠義村信義路90號","TEL":"04-25661454","COUNTYNAME":"台中市","TOWNNAME":"大雅區","MARKTYPE":"992","Class":"2"},"geometry":{"x":120.62215665566659,"y":24.234907159283569}},{"attributes":{"OBJECTID":13105,"LANDMARKID":"1000600000527","LANDMARKCO":"203","LANDMARKNA":"縣立大雅國小","LANDMARKAD":"1000610","ADDRESS":"台中市大雅區三和村學府路230號","TEL":"04-25667766","COUNTYNAME":"台中市","TOWNNAME":"大雅區","MARKTYPE":"992","Class":"2"},"geometry":{"x":120.65110550701183,"y":24.222240866945043}},{"attributes":{"OBJECTID":13106,"LANDMARKID":"1000600000528","LANDMARKCO":"203","LANDMARKNA":"縣立六寶國小","LANDMARKAD":"1000610","ADDRESS":"台中市大雅區光復路15之2號","TEL":"04-25694858","COUNTYNAME":"台中市","TOWNNAME":"大雅區","MARKTYPE":"992","Class":"2"},"geometry":{"x":120.63563387642748,"y":24.238550461019301}},{"attributes":{"OBJECTID":13107,"LANDMARKID":"1000600000529","LANDMARKCO":"203","LANDMARKNA":"縣立大華國中","LANDMARKAD":"1000610","ADDRESS":"台中市大雅區雅環路一段2號","TEL":"04-25688251","COUNTYNAME":"台中市","TOWNNAME":"大雅區","MARKTYPE":"992","Class":"2"},"geometry":{"x":120.65086692285909,"y":24.216001325595403}},{"attributes":{"OBJECTID":13108,"LANDMARKID":"1000600000530","LANDMARKCO":"203","LANDMARKNA":"縣立大雅國中","LANDMARKAD":"1000610","ADDRESS":"台中市大雅區學府路280號","TEL":"04-25672171","COUNTYNAME":"台中市","TOWNNAME":"大雅區","MARKTYPE":"992","Class":"2"},"geometry":{"x":120.65045017313548,"y":24.224098700745884}},{"attributes":{"OBJECTID":13109,"LANDMARKID":"1000600000531","LANDMARKCO":"203","LANDMARKNA":"縣立文雅國小","LANDMARKAD":"1000610","ADDRESS":"台中市大雅區大雅村中山北路235號","TEL":"04-25678823","COUNTYNAME":"台中市","TOWNNAME":"大雅區","MARKTYPE":"992","Class":"2"},"geometry":{"x":120.64605513305878,"y":24.219522208324857}},{"attributes":{"OBJECTID":13110,"LANDMARKID":"1000600000532","LANDMARKCO":"203","LANDMARKNA":"縣立陽明國小","LANDMARKAD":"1000610","ADDRESS":"台中市大雅區秀山村秀山路365號","TEL":"04-25661554","COUNTYNAME":"台中市","TOWNNAME":"大雅區","MARKTYPE":"992","Class":"2"},"geometry":{"x":120.6323418979875,"y":24.221455688140143}},{"attributes":{"OBJECTID":13111,"LANDMARKID":"1000600000533","LANDMARKCO":"203","LANDMARKNA":"縣立三和國小","LANDMARKAD":"1000610","ADDRESS":"台中市大雅區三和村雅潭路春亭2街1號","TEL":"04-25664494","COUNTYNAME":"台中市","TOWNNAME":"大雅區","MARKTYPE":"992","Class":"2"},"geometry":{"x":120.66746005600166,"y":24.219297031228631}},{"attributes":{"OBJECTID":13112,"LANDMARKID":"1000600000534","LANDMARKCO":"203","LANDMARKNA":"私立惠明學校","LANDMARKAD":"1000610","ADDRESS":"台中市大雅區雅潭路280號","TEL":"04-25661024","COUNTYNAME":"台中市","TOWNNAME":"大雅區","MARKTYPE":"992","Class":"2"},"geometry":{"x":120.66041661080241,"y":24.220344343283443}},{"attributes":{"OBJECTID":13113,"LANDMARKID":"1000600000662","LANDMARKCO":"303","LANDMARKNA":"停四停車場","LANDMARKAD":"1000610","ADDRESS":"台中市大雅區","TEL":" ","COUNTYNAME":"台中市","TOWNNAME":"大雅區","MARKTYPE":"993","Class":"303"},"geometry":{"x":120.61771879140764,"y":24.214250327927239}},{"attributes":{"OBJECTID":13114,"LANDMARKID":"1000600000663","LANDMARKCO":"303","LANDMARKNA":"停三停車場","LANDMARKAD":"1000610","ADDRESS":"台中市大雅區","TEL":" ","COUNTYNAME":"台中市","TOWNNAME":"大雅區","MARKTYPE":"993","Class":"303"},"geometry":{"x":120.62326314237087,"y":24.222115670480211}},{"attributes":{"OBJECTID":13115,"LANDMARKID":"1000600000664","LANDMARKCO":"303","LANDMARKNA":"停二停車場","LANDMARKAD":"1000610","ADDRESS":"台中市大雅區","TEL":" ","COUNTYNAME":"台中市","TOWNNAME":"大雅區","MARKTYPE":"993","Class":"303"},"geometry":{"x":120.62923295483365,"y":24.220509161462314}},{"attributes":{"OBJECTID":13116,"LANDMARKID":"1000600000665","LANDMARKCO":"303","LANDMARKNA":"停一停車場","LANDMARKAD":"1000610","ADDRESS":"台中市大雅區","TEL":" ","COUNTYNAME":"台中市","TOWNNAME":"大雅區","MARKTYPE":"993","Class":"303"},"geometry":{"x":120.63056854661851,"y":24.220493483063294}},{"attributes":{"OBJECTID":13117,"LANDMARKID":"1000600000844","LANDMARKCO":"402","LANDMARKNA":"中華電信-大雅中清特約服務中心","LANDMARKAD":"1000610","ADDRESS":"台中市大雅區中清南路292號","TEL":"04-25689393","COUNTYNAME":"台中市","TOWNNAME":"大雅區","MARKTYPE":"994","Class":"4"},"geometry":{"x":120.64519335263347,"y":24.226262475855211}},{"attributes":{"OBJECTID":13118,"LANDMARKID":"1000600000845","LANDMARKCO":"402","LANDMARKNA":"中華電信-大雅服務中心","LANDMARKAD":"1000610","ADDRESS":"台中市大雅區神林南路182號","TEL":"123或0800-080-123","COUNTYNAME":"台中市","TOWNNAME":"大雅區","MARKTYPE":"994","Class":"4"},"geometry":{"x":120.65670865886392,"y":24.225287483369485}},{"attributes":{"OBJECTID":13119,"LANDMARKID":"1000600000846","LANDMARKCO":"402","LANDMARKNA":"威寶電信-大雅民生特約服務中心","LANDMARKAD":"1000610","ADDRESS":"台中市大雅區民生路一段102之3號","TEL":"04-25605588","COUNTYNAME":"台中市","TOWNNAME":"大雅區","MARKTYPE":"994","Class":"4"},"geometry":{"x":120.64862815186574,"y":24.226533793977303}},{"attributes":{"OBJECTID":13120,"LANDMARKID":"1000600000847","LANDMARKCO":"402","LANDMARKNA":"大眾電信(震旦通訊)-大雅中清店","LANDMARKAD":"1000610","ADDRESS":"台中市大雅區中清南路292號","TEL":"04-25603007","COUNTYNAME":"台中市","TOWNNAME":"大雅區","MARKTYPE":"994","Class":"4"},"geometry":{"x":120.64519335263347,"y":24.226262475855211}},{"attributes":{"OBJECTID":13121,"LANDMARKID":"1000600000848","LANDMARKCO":"402","LANDMARKNA":"大眾電信-大雅專賣店","LANDMARKAD":"1000610","ADDRESS":"台中市大雅區民生路一段95號","TEL":"04-25677800","COUNTYNAME":"台中市","TOWNNAME":"大雅區","MARKTYPE":"994","Class":"4"},"geometry":{"x":120.6480663373539,"y":24.226639549280854}},{"attributes":{"OBJECTID":13122,"LANDMARKID":"1000600001414","LANDMARKCO":"603","LANDMARKNA":"聯成旅社","LANDMARKAD":"1000610","ADDRESS":"台中市大雅區大雅村中清路二段89號","TEL":"04-25663005","COUNTYNAME":"台中市","TOWNNAME":"大雅區","MARKTYPE":"996","Class":"6"},"geometry":{"x":120.64785528418588,"y":24.222449016316453}},{"attributes":{"OBJECTID":13123,"LANDMARKID":"1000600001415","LANDMARKCO":"603","LANDMARKNA":"城市水棧汽車旅館","LANDMARKAD":"1000610","ADDRESS":"台中市大雅區四德村雅環路一段153號","TEL":"04-25679888","COUNTYNAME":"台中市","TOWNNAME":"大雅區","MARKTYPE":"996","Class":"6"},"geometry":{"x":120.65262976285432,"y":24.217986058263158}},{"attributes":{"OBJECTID":13124,"LANDMARKID":"1000600001416","LANDMARKCO":"603","LANDMARKNA":"清泉旅社","LANDMARKAD":"1000610","ADDRESS":"台中市大雅區忠義村月祥路502巷1號","TEL":"04-25663146","COUNTYNAME":"台中市","TOWNNAME":"大雅區","MARKTYPE":"996","Class":"6"},"geometry":{"x":120.62558711781203,"y":24.235939657705337}},{"attributes":{"OBJECTID":13125,"LANDMARKID":"1000600001320","LANDMARKCO":"510","LANDMARKNA":"台中興農高爾夫球場","LANDMARKAD":"1000610","ADDRESS":"台中市大雅區橫山村通山路46號","TEL":"04-25665130","COUNTYNAME":"台中市","TOWNNAME":"大雅區","MARKTYPE":"995","Class":"5"},"geometry":{"x":120.60822353103956,"y":24.217473995724205}},{"attributes":{"OBJECTID":13126,"LANDMARKID":"1000600001018","LANDMARKCO":"405","LANDMARKNA":"中油加油站-美得潭子站","LANDMARKAD":"1000609","ADDRESS":"台中市潭子區中山路一段229號","TEL":"04-25349309","COUNTYNAME":"台中市","TOWNNAME":"潭子區","MARKTYPE":"994","Class":"4"},"geometry":{"x":120.70302412111926,"y":24.197601517849716}},{"attributes":{"OBJECTID":13127,"LANDMARKID":"1000600001019","LANDMARKCO":"405","LANDMARKNA":"中油加油站-潭子中山路站(中油直營)","LANDMARKAD":"1000609","ADDRESS":"台中市潭子區栗林村中山路三段409號","TEL":"04-25348551","COUNTYNAME":"台中市","TOWNNAME":"潭子區","MARKTYPE":"994","Class":"4"},"geometry":{"x":120.708412403164,"y":24.23155352389729}},{"attributes":{"OBJECTID":13128,"LANDMARKID":"1000600001020","LANDMARKCO":"405","LANDMARKNA":"中油加油站-豐潭站(中油直營)","LANDMARKAD":"1000609","ADDRESS":"台中市潭子區栗林村中山路三段249號","TEL":"04-25324634","COUNTYNAME":"台中市","TOWNNAME":"潭子區","MARKTYPE":"994","Class":"4"},"geometry":{"x":120.7074475390165,"y":24.226537989263058}},{"attributes":{"OBJECTID":13129,"LANDMARKID":"1000600001021","LANDMARKCO":"405","LANDMARKNA":"中油加油站-鴻陞站","LANDMARKAD":"1000609","ADDRESS":"台中市潭子區崇德路4段1號","TEL":"04-25358576","COUNTYNAME":"台中市","TOWNNAME":"潭子區","MARKTYPE":"994","Class":"4"},"geometry":{"x":120.68627568326707,"y":24.205466792992539}},{"attributes":{"OBJECTID":13130,"LANDMARKID":"1000600001022","LANDMARKCO":"405","LANDMARKNA":"中油加油站-北基雅潭站","LANDMARKAD":"1000609","ADDRESS":"台中市潭子區雅潭路二段81號之16","TEL":"04-25313100","COUNTYNAME":"台中市","TOWNNAME":"潭子區","MARKTYPE":"994","Class":"4"},"geometry":{"x":120.69586536912696,"y":24.215577924607931}},{"attributes":{"OBJECTID":13131,"LANDMARKID":"1000600001023","LANDMARKCO":"405","LANDMARKNA":"中油加油站-衛盟潭子站","LANDMARKAD":"1000609","ADDRESS":"台中市潭子區雅潭路三段42-1號","TEL":"04-25348808","COUNTYNAME":"台中市","TOWNNAME":"潭子區","MARKTYPE":"994","Class":"4"},"geometry":{"x":120.68121616400207,"y":24.216233652523648}},{"attributes":{"OBJECTID":13132,"LANDMARKID":"1000600001024","LANDMARKCO":"405","LANDMARKNA":"中油加油站-新田站","LANDMARKAD":"1000609","ADDRESS":"台中市潭子區豐興路二段376號","TEL":"04-25375000","COUNTYNAME":"台中市","TOWNNAME":"潭子區","MARKTYPE":"994","Class":"4"},"geometry":{"x":120.72297876194195,"y":24.213778092263478}},{"attributes":{"OBJECTID":13133,"LANDMARKID":"1000600001025","LANDMARKCO":"405","LANDMARKNA":"中油加油站-新田站","LANDMARKAD":"1000609","ADDRESS":"台中市潭子區豊興路二段376號","TEL":"04-25358576","COUNTYNAME":"台中市","TOWNNAME":"潭子區","MARKTYPE":"994","Class":"4"},"geometry":{"x":120.72315690306279,"y":24.213933740102007}},{"attributes":{"OBJECTID":13134,"LANDMARKID":"1000600001026","LANDMARKCO":"405","LANDMARKNA":"統一速邁樂加油站-潭子加油站(中油)","LANDMARKAD":"1000609","ADDRESS":"台中市潭子區潭陽村潭興路三段1號","TEL":" ","COUNTYNAME":"台中市","TOWNNAME":"潭子區","MARKTYPE":"994","Class":"4"},"geometry":{"x":120.70497428058009,"y":24.211322905652668}},{"attributes":{"OBJECTID":13135,"LANDMARKID":"1000600000837","LANDMARKCO":"402","LANDMARKNA":"亞太行動寬頻電信-潭子中山加盟服務中心","LANDMARKAD":"1000609","ADDRESS":"台中市潭子區中山路2段472號","TEL":"04-25326511","COUNTYNAME":"台中市","TOWNNAME":"潭子區","MARKTYPE":"994","Class":"4"},"geometry":{"x":120.70566754543715,"y":24.216547956289258}},{"attributes":{"OBJECTID":13136,"LANDMARKID":"1000600000838","LANDMARKCO":"402","LANDMARKNA":"亞太行動寬頻電信-潭子勝利加盟服務中心","LANDMARKAD":"1000609","ADDRESS":"台中市潭子區勝利路283號","TEL":"04-25326565","COUNTYNAME":"台中市","TOWNNAME":"潭子區","MARKTYPE":"994","Class":"4"},"geometry":{"x":120.70030105080669,"y":24.213206075331115}},{"attributes":{"OBJECTID":13137,"LANDMARKID":"1000600000764","LANDMARKCO":"401","LANDMARKNA":"佛教慈濟綜合醫院-台中院區","LANDMARKAD":"1000609","ADDRESS":"台中市潭子區豐興路一段66號","TEL":"04-36060666","COUNTYNAME":"台中市","TOWNNAME":"潭子區","MARKTYPE":"994","Class":"4"},"geometry":{"x":120.72059617627029,"y":24.19349014082804}},{"attributes":{"OBJECTID":13138,"LANDMARKID":"1000600001304","LANDMARKCO":"507","LANDMARKNA":"摘星山莊","LANDMARKAD":"1000609","ADDRESS":"台中市潭子區潭富路二段88號","TEL":" ","COUNTYNAME":"台中市","TOWNNAME":"潭子區","MARKTYPE":"995","Class":"5"},"geometry":{"x":120.69704328979579,"y":24.224436991841259}},{"attributes":{"OBJECTID":13139,"LANDMARKID":"1000600001161","LANDMARKCO":"408","LANDMARKNA":"郵局-潭子郵局","LANDMARKAD":"1000609","ADDRESS":"台中市潭子區潭興路3段42號","TEL":"(04)2532-4660","COUNTYNAME":"台中市","TOWNNAME":"潭子區","MARKTYPE":"994","Class":"4"},"geometry":{"x":120.70376302162622,"y":24.211841758311291}},{"attributes":{"OBJECTID":13140,"LANDMARKID":"1000600001162","LANDMARKCO":"408","LANDMARKNA":"郵局-潭子頭家厝郵局","LANDMARKAD":"1000609","ADDRESS":"台中市潭子區中山路1段25號","TEL":"(04)2532-2210","COUNTYNAME":"台中市","TOWNNAME":"潭子區","MARKTYPE":"994","Class":"4"},"geometry":{"x":120.7022230654274,"y":24.191028760976838}},{"attributes":{"OBJECTID":13141,"LANDMARKID":"1000600001163","LANDMARKCO":"408","LANDMARKNA":"郵局-潭子栗林郵局","LANDMARKAD":"1000609","ADDRESS":"台中市潭子區中山路3段334號","TEL":"(04)2532-3820","COUNTYNAME":"台中市","TOWNNAME":"潭子區","MARKTYPE":"994","Class":"4"},"geometry":{"x":120.708935578995,"y":24.231525675798139}},{"attributes":{"OBJECTID":13142,"LANDMARKID":"1000600001164","LANDMARKCO":"408","LANDMARKNA":"郵局-潭子潭北郵局","LANDMARKAD":"1000609","ADDRESS":"台中市潭子區潭子街3段55號","TEL":"(04)2538-3324","COUNTYNAME":"台中市","TOWNNAME":"潭子區","MARKTYPE":"994","Class":"4"},"geometry":{"x":120.70648371838529,"y":24.214618876654949}},{"attributes":{"OBJECTID":13143,"LANDMARKID":"1000600001165","LANDMARKCO":"408","LANDMARKNA":"郵局-潭子加工區郵局","LANDMARKAD":"1000609","ADDRESS":"台中市潭子區建國路4號之1","TEL":"(04)25324-791","COUNTYNAME":"台中市","TOWNNAME":"潭子區","MARKTYPE":"994","Class":"4"},"geometry":{"x":120.70496404318695,"y":24.2183843256641}},{"attributes":{"OBJECTID":13144,"LANDMARKID":"1000600001166","LANDMARKCO":"408","LANDMARKNA":"郵局-潭子東寶郵局","LANDMARKAD":"1000609","ADDRESS":"台中市潭子區民族路1段8號","TEL":"(04)2532-8047","COUNTYNAME":"台中市","TOWNNAME":"潭子區","MARKTYPE":"994","Class":"4"},"geometry":{"x":120.67436974596599,"y":24.204058679566707}},{"attributes":{"OBJECTID":13145,"LANDMARKID":"1000600001246","LANDMARKCO":"409","LANDMARKNA":"台中市潭子區農會","LANDMARKAD":"1000609","ADDRESS":"台中市潭子區潭秀村潭子街三段81號","TEL":"04-25344211","COUNTYNAME":"台中市","TOWNNAME":"潭子區","MARKTYPE":"994","Class":"4"},"geometry":{"x":120.7057289860311,"y":24.215449823740098}},{"attributes":{"OBJECTID":13146,"LANDMARKID":"1000600001116","LANDMARKCO":"406","LANDMARKNA":"潭子運動公園","LANDMARKAD":"1000609","ADDRESS":"台中市潭子區","TEL":" ","COUNTYNAME":"台中市","TOWNNAME":"潭子區","MARKTYPE":"994","Class":"4"},"geometry":{"x":120.70154727218811,"y":24.209897681734635}},{"attributes":{"OBJECTID":13147,"LANDMARKID":"1000600000891","LANDMARKCO":"404","LANDMARKNA":"台灣省自來水潭子服務所","LANDMARKAD":"1000609","ADDRESS":"台中市潭子區人和路37巷28弄31號","TEL":" ","COUNTYNAME":"台中市","TOWNNAME":"潭子區","MARKTYPE":"994","Class":"4"},"geometry":{"x":120.7066888764366,"y":24.218188136376021}},{"attributes":{"OBJECTID":13148,"LANDMARKID":"1000600001017","LANDMARKCO":"405","LANDMARKNA":"全國加油站-潭子站（台塑）","LANDMARKAD":"1000609","ADDRESS":"台中市潭子區中山路三段315號","TEL":"04-25318882","COUNTYNAME":"台中市","TOWNNAME":"潭子區","MARKTYPE":"994","Class":"4"},"geometry":{"x":120.70788895747603,"y":24.229305012905783}},{"attributes":{"OBJECTID":13149,"LANDMARKID":"1000600000167","LANDMARKCO":"107","LANDMARKNA":"台中市消防局潭子分隊","LANDMARKAD":"1000609","ADDRESS":"台中市潭子區中山路二段237巷5號","TEL":"04-25327425","COUNTYNAME":"台中市","TOWNNAME":"潭子區","MARKTYPE":"991","Class":"1"},"geometry":{"x":120.70396501592445,"y":24.209350472864152}},{"attributes":{"OBJECTID":13150,"LANDMARKID":"1000600000020","LANDMARKCO":"101","LANDMARKNA":"職業訓練局潭子就業服務台","LANDMARKAD":"1000609","ADDRESS":"台中市潭子區加工區建國路1號","TEL":"04-25346908","COUNTYNAME":"台中市","TOWNNAME":"潭子區","MARKTYPE":"991","Class":"1"},"geometry":{"x":120.70530453378326,"y":24.217662574293417}},{"attributes":{"OBJECTID":13151,"LANDMARKID":"1000600000021","LANDMARKCO":"101","LANDMARKNA":"台灣台中地方法院豐原簡易庭","LANDMARKAD":"1000609","ADDRESS":"台中市潭子區豐興路一段139號","TEL":"04-25381698","COUNTYNAME":"台中市","TOWNNAME":"潭子區","MARKTYPE":"991","Class":"1"},"geometry":{"x":120.71919091108305,"y":24.192948391167153}},{"attributes":{"OBJECTID":13152,"LANDMARKID":"1000600000022","LANDMARKCO":"101","LANDMARKNA":"台灣台中地方法院豐原簡易法庭","LANDMARKAD":"1000609","ADDRESS":"台中市潭子區豐興路一段139號","TEL":"04-25381698","COUNTYNAME":"台中市","TOWNNAME":"潭子區","MARKTYPE":"991","Class":"1"},"geometry":{"x":120.71919091108305,"y":24.192948391167153}},{"attributes":{"OBJECTID":13153,"LANDMARKID":"1000600000259","LANDMARKCO":"108","LANDMARKNA":"台中市潭子區公所","LANDMARKAD":"1000609","ADDRESS":"台中市潭子區中山路二段239號","TEL":"04-25331160","COUNTYNAME":"台中市","TOWNNAME":"潭子區","MARKTYPE":"991","Class":"1"},"geometry":{"x":120.70505199066892,"y":24.209563085612309}},{"attributes":{"OBJECTID":13154,"LANDMARKID":"1000600000047","LANDMARKCO":"103","LANDMARKNA":"台中市潭子區鄉民代表會","LANDMARKAD":"1000609","ADDRESS":"台中市潭子區中山路二段241巷1號","TEL":"04-25324632","COUNTYNAME":"台中市","TOWNNAME":"潭子區","MARKTYPE":"991","Class":"1"},"geometry":{"x":120.70455675326507,"y":24.209486494244786}},{"attributes":{"OBJECTID":13155,"LANDMARKID":"1000600000048","LANDMARKCO":"103","LANDMARKNA":"台中市潭子區公所垃圾掩埋場","LANDMARKAD":"1000609","ADDRESS":"台中市潭子區潭興路一段331巷25號","TEL":"04-25383560","COUNTYNAME":"台中市","TOWNNAME":"潭子區","MARKTYPE":"991","Class":"1"},"geometry":{"x":120.71393354495011,"y":24.198021298264155}},{"attributes":{"OBJECTID":13156,"LANDMARKID":"1000600000164","LANDMARKCO":"107","LANDMARKNA":"台中市警察局頭家派出所","LANDMARKAD":"1000609","ADDRESS":"台中市潭子區頭家村中山路一段150號","TEL":"04-25353818","COUNTYNAME":"台中市","TOWNNAME":"潭子區","MARKTYPE":"991","Class":"1"},"geometry":{"x":120.70269206196156,"y":24.190423280525401}},{"attributes":{"OBJECTID":13157,"LANDMARKID":"1000600000165","LANDMARKCO":"107","LANDMARKNA":"台中市警察局潭北派出所","LANDMARKAD":"1000609","ADDRESS":"台中市潭子區潭北村潭子街三段56號","TEL":"04-25361651","COUNTYNAME":"台中市","TOWNNAME":"潭子區","MARKTYPE":"991","Class":"1"},"geometry":{"x":120.70678421825959,"y":24.214764322459015}},{"attributes":{"OBJECTID":13158,"LANDMARKID":"1000600000166","LANDMARKCO":"107","LANDMARKNA":"台中市警察局潭子分駐所","LANDMARKAD":"1000609","ADDRESS":"台中市潭子區潭陽村中山路二段241巷3號","TEL":"04-25348866","COUNTYNAME":"台中市","TOWNNAME":"潭子區","MARKTYPE":"991","Class":"1"},"geometry":{"x":120.7045837731999,"y":24.20966881019266}},{"attributes":{"OBJECTID":13159,"LANDMARKID":"1000600000095","LANDMARKCO":"105","LANDMARKNA":"台中市雅潭地政事務所","LANDMARKAD":"1000609","ADDRESS":"台中市潭子區勝利路165號","TEL":"04-25336490","COUNTYNAME":"台中市","TOWNNAME":"潭子區","MARKTYPE":"991","Class":"1"},"geometry":{"x":120.70062963843853,"y":24.210647433296948}},{"attributes":{"OBJECTID":13160,"LANDMARKID":"1000600000112","LANDMARKCO":"106","LANDMARKNA":"台中市潭子區戶政事務所","LANDMARKAD":"1000609","ADDRESS":"台中市潭子區潭陽村22鄰中山路二段237巷3號","TEL":"04-25340889","COUNTYNAME":"台中市","TOWNNAME":"潭子區","MARKTYPE":"991","Class":"1"},"geometry":{"x":120.70437309111641,"y":24.209498331944253}},{"attributes":{"OBJECTID":13161,"LANDMARKID":"1000600000050","LANDMARKCO":"103","LANDMARKNA":"台中市潭子區衛生所","LANDMARKAD":"1000609","ADDRESS":"台中市潭子區中山路二段241巷5號","TEL":"04-25324643","COUNTYNAME":"台中市","TOWNNAME":"潭子區","MARKTYPE":"991","Class":"1"},"geometry":{"x":120.70416171545826,"y":24.20954238704898}},{"attributes":{"OBJECTID":13162,"LANDMARKID":"1000600000535","LANDMARKCO":"204","LANDMARKNA":"台中市立圖書館潭子分館","LANDMARKAD":"1000609","ADDRESS":"台中市潭子區中山路二段397號","TEL":" ","COUNTYNAME":"台中市","TOWNNAME":"潭子區","MARKTYPE":"992","Class":"2"},"geometry":{"x":120.70508848523421,"y":24.21344950645053}},{"attributes":{"OBJECTID":13163,"LANDMARKID":"1000600000278","LANDMARKCO":"202","LANDMARKNA":"私立弘文高中","LANDMARKAD":"1000609","ADDRESS":"台中市潭子區中山路三段221巷96號","TEL":"04-25340011","COUNTYNAME":"台中市","TOWNNAME":"潭子區","MARKTYPE":"992","Class":"2"},"geometry":{"x":120.70430947984913,"y":24.226236492763505}},{"attributes":{"OBJECTID":13164,"LANDMARKID":"1000600000279","LANDMARKCO":"202","LANDMARKNA":"私立常春藤高中","LANDMARKAD":"1000609","ADDRESS":"台中市潭子區潭興路一段165巷320號","TEL":"04-25395066","COUNTYNAME":"台中市","TOWNNAME":"潭子區","MARKTYPE":"992","Class":"2"},"geometry":{"x":120.71712725612514,"y":24.194385449860103}},{"attributes":{"OBJECTID":13165,"LANDMARKID":"1000600000280","LANDMARKCO":"202","LANDMARKNA":"私立弘文高中附設國中部","LANDMARKAD":"1000609","ADDRESS":"台中市潭子區中山路三段221巷96號","TEL":"04-25340011","COUNTYNAME":"台中市","TOWNNAME":"潭子區","MARKTYPE":"992","Class":"2"},"geometry":{"x":120.70453510415494,"y":24.226417954197132}},{"attributes":{"OBJECTID":13166,"LANDMARKID":"1000600000503","LANDMARKCO":"203","LANDMARKNA":"縣立潭秀國中","LANDMARKAD":"1000609","ADDRESS":"台中市潭子區雅潭路一段175號","TEL":"04-25343542","COUNTYNAME":"台中市","TOWNNAME":"潭子區","MARKTYPE":"992","Class":"2"},"geometry":{"x":120.69945020492885,"y":24.215483621553719}},{"attributes":{"OBJECTID":13167,"LANDMARKID":"1000600000504","LANDMARKCO":"203","LANDMARKNA":"縣立頭家國小","LANDMARKAD":"1000609","ADDRESS":"台中市潭子區得福街185號","TEL":"04-25325532","COUNTYNAME":"台中市","TOWNNAME":"潭子區","MARKTYPE":"992","Class":"2"},"geometry":{"x":120.69601011828919,"y":24.196243211209765}},{"attributes":{"OBJECTID":13168,"LANDMARKID":"1000600000505","LANDMARKCO":"203","LANDMARKNA":"私立常春藤高中附設國中部","LANDMARKAD":"1000609","ADDRESS":"台中市潭子區潭興路一段165巷320號","TEL":"04-25395066","COUNTYNAME":"台中市","TOWNNAME":"潭子區","MARKTYPE":"992","Class":"2"},"geometry":{"x":120.71712274419599,"y":24.194566008025046}},{"attributes":{"OBJECTID":13169,"LANDMARKID":"1000600000506","LANDMARKCO":"203","LANDMARKNA":"縣立潭子國中","LANDMARKAD":"1000609","ADDRESS":"台中市潭子區潭興路二段419巷1號","TEL":"04-25376192","COUNTYNAME":"台中市","TOWNNAME":"潭子區","MARKTYPE":"992","Class":"2"},"geometry":{"x":120.70833213521463,"y":24.209919377660469}},{"attributes":{"OBJECTID":13170,"LANDMARKID":"1000600000507","LANDMARKCO":"203","LANDMARKNA":"縣立僑忠國小","LANDMARKAD":"1000609","ADDRESS":"台中市潭子區中山路二段31號","TEL":"04-25324740","COUNTYNAME":"台中市","TOWNNAME":"潭子區","MARKTYPE":"992","Class":"2"},"geometry":{"x":120.70334913523557,"y":24.202480432210738}},{"attributes":{"OBJECTID":13171,"LANDMARKID":"1000600000508","LANDMARKCO":"203","LANDMARKNA":"縣立潭子國小","LANDMARKAD":"1000609","ADDRESS":"台中市潭子區中山路二段435號","TEL":"04-25324610","COUNTYNAME":"台中市","TOWNNAME":"潭子區","MARKTYPE":"992","Class":"2"},"geometry":{"x":120.70401775421857,"y":24.214521365297255}},{"attributes":{"OBJECTID":13172,"LANDMARKID":"1000600000509","LANDMARKCO":"203","LANDMARKNA":"縣立東寶國小","LANDMARKAD":"1000609","ADDRESS":"台中市潭子區雅潭路三段2號","TEL":"04-25324564","COUNTYNAME":"台中市","TOWNNAME":"潭子區","MARKTYPE":"992","Class":"2"},"geometry":{"x":120.68426536165758,"y":24.216816629755698}},{"attributes":{"OBJECTID":13173,"LANDMARKID":"1000600000510","LANDMARKCO":"203","LANDMARKNA":"縣立潭陽國小","LANDMARKAD":"1000609","ADDRESS":"台中市潭子區潭陽路19號","TEL":"04-25382255","COUNTYNAME":"台中市","TOWNNAME":"潭子區","MARKTYPE":"992","Class":"2"},"geometry":{"x":120.70999409001611,"y":24.212475855011878}},{"attributes":{"OBJECTID":13174,"LANDMARKID":"1000600000511","LANDMARKCO":"203","LANDMARKNA":"縣立新興國小","LANDMARKAD":"1000609","ADDRESS":"台中市潭子區潭興路一段22號","TEL":"04-25364571","COUNTYNAME":"台中市","TOWNNAME":"潭子區","MARKTYPE":"992","Class":"2"},"geometry":{"x":120.72600068877668,"y":24.204238732211032}},{"attributes":{"OBJECTID":13175,"LANDMARKID":"1000600000512","LANDMARKCO":"203","LANDMARKNA":"私立華盛頓國小","LANDMARKAD":"1000609","ADDRESS":"台中市潭子區潭興路一段165巷300號","TEL":"04-25393299","COUNTYNAME":"台中市","TOWNNAME":"潭子區","MARKTYPE":"992","Class":"2"},"geometry":{"x":120.71744030959481,"y":24.196819637480068}},{"attributes":{"OBJECTID":13176,"LANDMARKID":"1000600000584","LANDMARKCO":"301","LANDMARKNA":"潭子火車站","LANDMARKAD":"1000609","ADDRESS":"台中市潭子區潭子街一段31巷113號","TEL":"04-25371580","COUNTYNAME":"台中市","TOWNNAME":"潭子區","MARKTYPE":"993","Class":"301"},"geometry":{"x":120.70611314034744,"y":24.212740458039484}},{"attributes":{"OBJECTID":13177,"LANDMARKID":"1000600000839","LANDMARKCO":"402","LANDMARKNA":"中華電信-潭子服務中心","LANDMARKAD":"1000609","ADDRESS":"台中市潭子區潭興路三段40號","TEL":"(04)2532-4467","COUNTYNAME":"台中市","TOWNNAME":"潭子區","MARKTYPE":"994","Class":"4"},"geometry":{"x":120.7040979128643,"y":24.211806943238685}},{"attributes":{"OBJECTID":13178,"LANDMARKID":"1000600000840","LANDMARKCO":"402","LANDMARKNA":"遠傳電信-潭子中山門市","LANDMARKAD":"1000609","ADDRESS":"台中市潭子區中山路二段442號","TEL":" ","COUNTYNAME":"台中市","TOWNNAME":"潭子區","MARKTYPE":"994","Class":"4"},"geometry":{"x":120.70556128017982,"y":24.21610514732922}},{"attributes":{"OBJECTID":13179,"LANDMARKID":"1000600000841","LANDMARKCO":"402","LANDMARKNA":"中華電信-潭子頭張特約服務中心","LANDMARKAD":"1000609","ADDRESS":"台中市潭子區頭張路一段1號","TEL":"04-25351889","COUNTYNAME":"台中市","TOWNNAME":"潭子區","MARKTYPE":"994","Class":"4"},"geometry":{"x":120.70232458240051,"y":24.194431632138301}},{"attributes":{"OBJECTID":13180,"LANDMARKID":"1000600001411","LANDMARKCO":"603","LANDMARKNA":"立勤大飯店","LANDMARKAD":"1000609","ADDRESS":"台中市潭子區潭陽村中山路二段345號","TEL":"04-25324131","COUNTYNAME":"台中市","TOWNNAME":"潭子區","MARKTYPE":"996","Class":"6"},"geometry":{"x":120.70516954619073,"y":24.212127124277885}},{"attributes":{"OBJECTID":13181,"LANDMARKID":"1000600001412","LANDMARKCO":"603","LANDMARKNA":"新聯美旅社","LANDMARKAD":"1000609","ADDRESS":"台中市潭子區潭陽村潭興路二段494號","TEL":"04-25320421","COUNTYNAME":"台中市","TOWNNAME":"潭子區","MARKTYPE":"996","Class":"6"},"geometry":{"x":120.70662912382058,"y":24.211576579396453}},{"attributes":{"OBJECTID":13182,"LANDMARKID":"1000600001413","LANDMARKCO":"603","LANDMARKNA":"潭子旅社","LANDMARKAD":"1000609","ADDRESS":"台中市潭子區潭陽村潭興路二段504號","TEL":"04-25331359","COUNTYNAME":"台中市","TOWNNAME":"潭子區","MARKTYPE":"996","Class":"6"},"geometry":{"x":120.70646172068079,"y":24.211584963805912}},{"attributes":{"OBJECTID":13183,"LANDMARKID":"1000600001262","LANDMARKCO":"503","LANDMARKNA":"新田登山步道","LANDMARKAD":"1000609","ADDRESS":"台中市潭子區","TEL":" ","COUNTYNAME":"台中市","TOWNNAME":"潭子區","MARKTYPE":"995","Class":"5"},"geometry":{"x":120.73789536710817,"y":24.214461759604099}},{"attributes":{"OBJECTID":13184,"LANDMARKID":"1000600001321","LANDMARKCO":"510","LANDMARKNA":"沈老師高爾夫練習場","LANDMARKAD":"1000609","ADDRESS":"台中市潭子區潭富路2段194巷68號","TEL":"04-25326236","COUNTYNAME":"台中市","TOWNNAME":"潭子區","MARKTYPE":"995","Class":"5"},"geometry":{"x":120.69410218574369,"y":24.225107609387472}},{"attributes":{"OBJECTID":13185,"LANDMARKID":"1000600001322","LANDMARKCO":"510","LANDMARKNA":"企業家高爾夫練習場","LANDMARKAD":"1000609","ADDRESS":"台中市潭子區潭富路2段194巷68號","TEL":"04-25326236","COUNTYNAME":"台中市","TOWNNAME":"潭子區","MARKTYPE":"995","Class":"5"},"geometry":{"x":120.7004093645433,"y":24.19963391413485}},{"attributes":{"OBJECTID":13186,"LANDMARKID":"1000600001027","LANDMARKCO":"405","LANDMARKNA":"中油加油站-元井站","LANDMARKAD":"1000617","ADDRESS":"台中市龍井區山腳村中華路二段506號","TEL":"04-26356224","COUNTYNAME":"台中市","TOWNNAME":"龍井區","MARKTYPE":"994","Class":"4"},"geometry":{"x":120.54044059721814,"y":24.210130124449329}},{"attributes":{"OBJECTID":13187,"LANDMARKID":"1000600001028","LANDMARKCO":"405","LANDMARKNA":"台灣優力加油站-龍井二站(中油)","LANDMARKAD":"1000617","ADDRESS":"台中市龍井區臨港東路一段31號","TEL":"04-26305142","COUNTYNAME":"台中市","TOWNNAME":"龍井區","MARKTYPE":"994","Class":"4"},"geometry":{"x":120.53359114449057,"y":24.193826845312987}},{"attributes":{"OBJECTID":13188,"LANDMARKID":"1000600001029","LANDMARKCO":"405","LANDMARKNA":"中油加油站-山隆竹坑站","LANDMARKAD":"1000617","ADDRESS":"台中市龍井區中華路一段38號","TEL":"04-26359009","COUNTYNAME":"台中市","TOWNNAME":"龍井區","MARKTYPE":"994","Class":"4"},"geometry":{"x":120.54348929158296,"y":24.176042523001186}},{"attributes":{"OBJECTID":13189,"LANDMARKID":"1000600001030","LANDMARKCO":"405","LANDMARKNA":"中油加油站-台灣中港站","LANDMARKAD":"1000617","ADDRESS":"台中市龍井區臨港路2段54號","TEL":"04-26380015","COUNTYNAME":"台中市","TOWNNAME":"龍井區","MARKTYPE":"994","Class":"4"},"geometry":{"x":120.50936423709616,"y":24.21756273431842}},{"attributes":{"OBJECTID":13190,"LANDMARKID":"1000600001031","LANDMARKCO":"405","LANDMARKNA":"中油加油站-洽維龍井站","LANDMARKAD":"1000617","ADDRESS":"台中市龍井區中華路二段88號","TEL":"04-26362466","COUNTYNAME":"台中市","TOWNNAME":"龍井區","MARKTYPE":"994","Class":"4"},"geometry":{"x":120.53707180961526,"y":24.196989976941811}},{"attributes":{"OBJECTID":13191,"LANDMARKID":"1000600001032","LANDMARKCO":"405","LANDMARKNA":"中油加油站-龍井站(中油直營)","LANDMARKAD":"1000617","ADDRESS":"台中市龍井區竹坑里沙田路四段175號","TEL":"04-26353010","COUNTYNAME":"台中市","TOWNNAME":"龍井區","MARKTYPE":"994","Class":"4"},"geometry":{"x":120.54544587529868,"y":24.190654904840635}},{"attributes":{"OBJECTID":13192,"LANDMARKID":"1000600001033","LANDMARKCO":"405","LANDMARKNA":"中油加油站-長玖站","LANDMARKAD":"1000617","ADDRESS":"台中市龍井區龍泉村中華路二段336號","TEL":"04-26354897","COUNTYNAME":"台中市","TOWNNAME":"龍井區","MARKTYPE":"994","Class":"4"},"geometry":{"x":120.53896901612028,"y":24.204253977842388}},{"attributes":{"OBJECTID":13193,"LANDMARKID":"1000600001034","LANDMARKCO":"405","LANDMARKNA":"中油加油站-坪頂站(中油直營)","LANDMARKAD":"1000617","ADDRESS":"台中市龍井區新庄村台中港路186號","TEL":"04-26316507","COUNTYNAME":"台中市","TOWNNAME":"龍井區","MARKTYPE":"994","Class":"4"},"geometry":{"x":120.58010218093013,"y":24.189981136599531}},{"attributes":{"OBJECTID":13194,"LANDMARKID":"1000600001035","LANDMARKCO":"405","LANDMARKNA":"中油加油站-東海站","LANDMARKAD":"1000617","ADDRESS":"台中市龍井區新東村台中港路19之16號","TEL":"04-26317711","COUNTYNAME":"台中市","TOWNNAME":"龍井區","MARKTYPE":"994","Class":"4"},"geometry":{"x":120.58964567245046,"y":24.184202681193526}},{"attributes":{"OBJECTID":13195,"LANDMARKID":"1000600000886","LANDMARKCO":"402","LANDMARKNA":"My Phone台灣大哥大-台中東海直營服務中心","LANDMARKAD":"1000617","ADDRESS":"台中市龍井區台中港路東園巷20號","TEL":"0809-000-166","COUNTYNAME":"台中市","TOWNNAME":"龍井區","MARKTYPE":"994","Class":"4"},"geometry":{"x":120.59262117721937,"y":24.1820745912446}},{"attributes":{"OBJECTID":13196,"LANDMARKID":"1000600001177","LANDMARKCO":"408","LANDMARKNA":"郵局-龍井郵局","LANDMARKAD":"1000617","ADDRESS":"台中市龍井區龍新路163號","TEL":"(04)2635-2294","COUNTYNAME":"台中市","TOWNNAME":"龍井區","MARKTYPE":"994","Class":"4"},"geometry":{"x":120.54707963398339,"y":24.196762969892905}},{"attributes":{"OBJECTID":13197,"LANDMARKID":"1000600001178","LANDMARKCO":"408","LANDMARKNA":"郵局-龍井新庄郵局","LANDMARKAD":"1000617","ADDRESS":"台中市龍井區遊園南路171號","TEL":"(04)2631-2272","COUNTYNAME":"台中市","TOWNNAME":"龍井區","MARKTYPE":"994","Class":"4"},"geometry":{"x":120.58434718949729,"y":24.182408334914811}},{"attributes":{"OBJECTID":13198,"LANDMARKID":"1000600001179","LANDMARKCO":"408","LANDMARKNA":"郵局-龍井茄投郵局","LANDMARKAD":"1000617","ADDRESS":"台中市龍井區舊車路101之2號","TEL":"(04)2639-5049","COUNTYNAME":"台中市","TOWNNAME":"龍井區","MARKTYPE":"994","Class":"4"},"geometry":{"x":120.53078991836682,"y":24.183355795506834}},{"attributes":{"OBJECTID":13199,"LANDMARKID":"1000600001180","LANDMARKCO":"408","LANDMARKNA":"郵局-龍井龍津郵局","LANDMARKAD":"1000617","ADDRESS":"台中市龍井區中央路1段246、248號","TEL":"(04)2630-0493","COUNTYNAME":"台中市","TOWNNAME":"龍井區","MARKTYPE":"994","Class":"4"},"geometry":{"x":120.52349751225003,"y":24.202909067974044}},{"attributes":{"OBJECTID":13200,"LANDMARKID":"1000600001241","LANDMARKCO":"409","LANDMARKNA":"台中市龍井區農會","LANDMARKAD":"1000617","ADDRESS":"台中市龍井區龍西村龍門路40號","TEL":"04-26396511-5","COUNTYNAME":"台中市","TOWNNAME":"龍井區","MARKTYPE":"994","Class":"4"},"geometry":{"x":120.52902471640034,"y":24.180343313914893}}]}