{"displayFieldName":"COUNTYNAME","fieldAliases":{"OBJECTID":"OBJECTID","LANDMARKID":"LANDMARKID","LANDMARKCO":"LANDMARKCO","LANDMARKNA":"LANDMARKNA","LANDMARKAD":"LANDMARKAD","ADDRESS":"ADDRESS","TEL":"TEL","COUNTYNAME":"COUNTYNAME","TOWNNAME":"TOWNNAME","MARKTYPE":"MARKTYPE","Class":"Class"},"geometryType":"esriGeometryPoint","spatialReference":{"wkid":4326},"fields":[{"name":"OBJECTID","type":"esriFieldTypeOID","alias":"OBJECTID"},{"name":"LANDMARKID","type":"esriFieldTypeString","alias":"LANDMARKID","length":15},{"name":"LANDMARKCO","type":"esriFieldTypeString","alias":"LANDMARKCO","length":15},{"name":"LANDMARKNA","type":"esriFieldTypeString","alias":"LANDMARKNA","length":50},{"name":"LANDMARKAD","type":"esriFieldTypeString","alias":"LANDMARKAD","length":15},{"name":"ADDRESS","type":"esriFieldTypeString","alias":"ADDRESS","length":56},{"name":"TEL","type":"esriFieldTypeString","alias":"TEL","length":36},{"name":"COUNTYNAME","type":"esriFieldTypeString","alias":"COUNTYNAME","length":15},{"name":"TOWNNAME","type":"esriFieldTypeString","alias":"TOWNNAME","length":13},{"name":"MARKTYPE","type":"esriFieldTypeString","alias":"MARKTYPE","length":12},{"name":"Class","type":"esriFieldTypeString","alias":"Class","length":5}],"features":[{"attributes":{"OBJECTID":20001,"LANDMARKID":"1001200001078","LANDMARKCO":"408","LANDMARKNA":"郵局-大社郵局","LANDMARKAD":"1001205","ADDRESS":"高雄市大社區自強街9號","TEL":"(07)3531-730","COUNTYNAME":"高雄市","TOWNNAME":"大社區","MARKTYPE":"994","Class":"4"},"geometry":{"x":120.34702932292409,"y":22.731540645841335}},{"attributes":{"OBJECTID":20002,"LANDMARKID":"1001200001186","LANDMARKCO":"409","LANDMARKNA":"高雄市大社區農會","LANDMARKAD":"1001205","ADDRESS":"高雄市大社區大社村三民路391號","TEL":"07-3511111","COUNTYNAME":"高雄市","TOWNNAME":"大社區","MARKTYPE":"994","Class":"4"},"geometry":{"x":120.3466694421501,"y":22.729453093873847}},{"attributes":{"OBJECTID":20003,"LANDMARKID":"1001200000825","LANDMARKCO":"404","LANDMARKNA":"台灣省自來水楠梓服務所","LANDMARKAD":"1001205","ADDRESS":"高雄市大社區自強街5號","TEL":" ","COUNTYNAME":"高雄市","TOWNNAME":"大社區","MARKTYPE":"994","Class":"4"},"geometry":{"x":120.34678931864948,"y":22.730838783763751}},{"attributes":{"OBJECTID":20004,"LANDMARKID":"1001200001022","LANDMARKCO":"406","LANDMARKNA":"中里社區公園","LANDMARKAD":"1001205","ADDRESS":"高雄市大社區","TEL":" ","COUNTYNAME":"高雄市","TOWNNAME":"大社區","MARKTYPE":"994","Class":"4"},"geometry":{"x":120.35486159270785,"y":22.723064721197058}},{"attributes":{"OBJECTID":20005,"LANDMARKID":"1001200000069","LANDMARKCO":"103","LANDMARKNA":"高雄市大社區衛生所","LANDMARKAD":"1001205","ADDRESS":"高雄市大社區自強街7號","TEL":"07-3511774","COUNTYNAME":"高雄市","TOWNNAME":"大社區","MARKTYPE":"991","Class":"1"},"geometry":{"x":120.34664074893418,"y":22.731150602849134}},{"attributes":{"OBJECTID":20006,"LANDMARKID":"1001200000070","LANDMARKCO":"103","LANDMARKNA":"高雄市大社區鄉民代表會","LANDMARKAD":"1001205","ADDRESS":"高雄市大社區自強街1號","TEL":"07-3510730","COUNTYNAME":"高雄市","TOWNNAME":"大社區","MARKTYPE":"991","Class":"1"},"geometry":{"x":120.34667678884453,"y":22.730067254523274}},{"attributes":{"OBJECTID":20007,"LANDMARKID":"1001200000132","LANDMARKCO":"106","LANDMARKNA":"高雄市大社區戶政事務所","LANDMARKAD":"1001205","ADDRESS":"高雄市大社區大社村13鄰三民路332號","TEL":"07-3515020","COUNTYNAME":"高雄市","TOWNNAME":"大社區","MARKTYPE":"991","Class":"1"},"geometry":{"x":120.34677670993946,"y":22.729797146789284}},{"attributes":{"OBJECTID":20008,"LANDMARKID":"1001200000191","LANDMARKCO":"107","LANDMARKNA":"高雄市消防局大社消防分隊","LANDMARKAD":"1001205","ADDRESS":"高雄市大社區金龍路67號","TEL":"07-3541707","COUNTYNAME":"高雄市","TOWNNAME":"大社區","MARKTYPE":"991","Class":"1"},"geometry":{"x":120.35415076103355,"y":22.730364965644398}},{"attributes":{"OBJECTID":20009,"LANDMARKID":"1001200000192","LANDMARKCO":"107","LANDMARKNA":"高雄市政府警察局大社分駐所","LANDMARKAD":"1001205","ADDRESS":"高雄市大社區金龍路63號","TEL":"07-3511369","COUNTYNAME":"高雄市","TOWNNAME":"大社區","MARKTYPE":"991","Class":"1"},"geometry":{"x":120.35410252875076,"y":22.729280878349119}},{"attributes":{"OBJECTID":20010,"LANDMARKID":"1001200000290","LANDMARKCO":"108","LANDMARKNA":"高雄市大社區公所","LANDMARKAD":"1001205","ADDRESS":"高雄市大社區自強街1號","TEL":"07-3513300","COUNTYNAME":"高雄市","TOWNNAME":"大社區","MARKTYPE":"991","Class":"1"},"geometry":{"x":120.34667678884453,"y":22.730067254523274}},{"attributes":{"OBJECTID":20011,"LANDMARKID":"1001200000193","LANDMARKCO":"107","LANDMARKNA":"高雄市政府警察局三民分駐所","LANDMARKAD":"1001205","ADDRESS":"高雄市三民鄉民族村鞍山巷61號","TEL":"07-6701168","COUNTYNAME":"高雄市","TOWNNAME":"大社區","MARKTYPE":"991","Class":"1"},"geometry":{"x":120.34706073414168,"y":22.729618851438904}},{"attributes":{"OBJECTID":20012,"LANDMARKID":"1001200000589","LANDMARKCO":"204","LANDMARKNA":"高雄市立圖書館大社分館","LANDMARKAD":"1001205","ADDRESS":"高雄市大社區大社村自強街11號","TEL":" ","COUNTYNAME":"高雄市","TOWNNAME":"大社區","MARKTYPE":"992","Class":"2"},"geometry":{"x":120.34704186232669,"y":22.731612560992065}},{"attributes":{"OBJECTID":20013,"LANDMARKID":"1001200000421","LANDMARKCO":"203","LANDMARKNA":"縣立大社國中","LANDMARKAD":"1001205","ADDRESS":"高雄市大社區翠屏路100號","TEL":"07-3530100","COUNTYNAME":"高雄市","TOWNNAME":"大社區","MARKTYPE":"992","Class":"2"},"geometry":{"x":120.3571969927207,"y":22.73046860865546}},{"attributes":{"OBJECTID":20014,"LANDMARKID":"1001200000422","LANDMARKCO":"203","LANDMARKNA":"縣立觀音國小","LANDMARKAD":"1001205","ADDRESS":"高雄市大社區文明路100號","TEL":"07-3534710","COUNTYNAME":"高雄市","TOWNNAME":"大社區","MARKTYPE":"992","Class":"2"},"geometry":{"x":120.35603954013656,"y":22.723415359932691}},{"attributes":{"OBJECTID":20015,"LANDMARKID":"1001200000423","LANDMARKCO":"203","LANDMARKNA":"縣立嘉誠國小","LANDMARKAD":"1001205","ADDRESS":"高雄市大社區嘉誠路22號","TEL":"07-3560418","COUNTYNAME":"高雄市","TOWNNAME":"大社區","MARKTYPE":"992","Class":"2"},"geometry":{"x":120.38004479102267,"y":22.747899886897088}},{"attributes":{"OBJECTID":20016,"LANDMARKID":"1001200000424","LANDMARKCO":"203","LANDMARKNA":"縣立大社國小","LANDMARKAD":"1001205","ADDRESS":"高雄市路竹區大社路243號","TEL":"07-6962254","COUNTYNAME":"高雄市","TOWNNAME":"大社區","MARKTYPE":"992","Class":"2"},"geometry":{"x":120.34568297806386,"y":22.730149432956761}},{"attributes":{"OBJECTID":20017,"LANDMARKID":"1001200000810","LANDMARKCO":"402","LANDMARKNA":"中華電信-大社中山特約服務中心","LANDMARKAD":"1001205","ADDRESS":"高雄市大社區中山路221號","TEL":"07-3510988","COUNTYNAME":"高雄市","TOWNNAME":"大社區","MARKTYPE":"994","Class":"4"},"geometry":{"x":120.34772105861522,"y":22.732019101631916}},{"attributes":{"OBJECTID":20018,"LANDMARKID":"1001200001333","LANDMARKCO":"603","LANDMARKNA":"情悅汽車旅館","LANDMARKAD":"1001205","ADDRESS":"高雄市大社區三奶村三民路511號","TEL":"07-3510029","COUNTYNAME":"高雄市","TOWNNAME":"大社區","MARKTYPE":"996","Class":"6"},"geometry":{"x":120.35000531990458,"y":22.723213087370453}},{"attributes":{"OBJECTID":20019,"LANDMARKID":"1001200001334","LANDMARKCO":"603","LANDMARKNA":"中里旅社","LANDMARKAD":"1001205","ADDRESS":"高雄市大社區中里村三民路65巷2號","TEL":"07-3513096","COUNTYNAME":"高雄市","TOWNNAME":"大社區","MARKTYPE":"996","Class":"6"},"geometry":{"x":120.35048400662866,"y":22.720926032204854}},{"attributes":{"OBJECTID":20020,"LANDMARKID":"1001200001245","LANDMARKCO":"505","LANDMARKNA":"傑笙遊樂園(停)","LANDMARKAD":"1001205","ADDRESS":"高雄市大社區嘉誠村大同路水哮巷2之6號","TEL":" ","COUNTYNAME":"高雄市","TOWNNAME":"大社區","MARKTYPE":"995","Class":"5"},"geometry":{"x":120.3977112092881,"y":22.746585206775883}},{"attributes":{"OBJECTID":20021,"LANDMARKID":"1001200000927","LANDMARKCO":"405","LANDMARKNA":"中油加油站-嶺口站","LANDMARKAD":"1001204","ADDRESS":"高雄市大樹區統嶺村統嶺路125號之2","TEL":"07-6562965","COUNTYNAME":"高雄市","TOWNNAME":"大樹區","MARKTYPE":"994","Class":"4"},"geometry":{"x":120.43494887741679,"y":22.773689128168105}},{"attributes":{"OBJECTID":20022,"LANDMARKID":"1001200000928","LANDMARKCO":"405","LANDMARKNA":"中油加油站-小坪頂站","LANDMARKAD":"1001204","ADDRESS":"高雄市大樹區小坪路93-8號","TEL":"07-6527597","COUNTYNAME":"高雄市","TOWNNAME":"大樹區","MARKTYPE":"994","Class":"4"},"geometry":{"x":120.40938255624783,"y":22.680947834167348}},{"attributes":{"OBJECTID":20023,"LANDMARKID":"1001200000929","LANDMARKCO":"405","LANDMARKNA":"統一速邁樂加油站-大樹加油站(中油)","LANDMARKAD":"1001204","ADDRESS":"高雄市大樹區竹寮路114號之20","TEL":" ","COUNTYNAME":"高雄市","TOWNNAME":"大樹區","MARKTYPE":"994","Class":"4"},"geometry":{"x":120.42260686799888,"y":22.665137909864804}},{"attributes":{"OBJECTID":20024,"LANDMARKID":"1001200000930","LANDMARKCO":"405","LANDMARKNA":"中油加油站-全通站","LANDMARKAD":"1001204","ADDRESS":"高雄市大樹區大坑村大坑路109號","TEL":"07-6564367","COUNTYNAME":"高雄市","TOWNNAME":"大樹區","MARKTYPE":"994","Class":"4"},"geometry":{"x":120.43375889192981,"y":22.697863466318779}},{"attributes":{"OBJECTID":20025,"LANDMARKID":"1001200000931","LANDMARKCO":"405","LANDMARKNA":"中油加油站-大樹站","LANDMARKAD":"1001204","ADDRESS":"高雄市大樹區欉腳村中興北路184號","TEL":"07-6561249","COUNTYNAME":"高雄市","TOWNNAME":"大樹區","MARKTYPE":"994","Class":"4"},"geometry":{"x":120.43372075262144,"y":22.697349229612367}},{"attributes":{"OBJECTID":20026,"LANDMARKID":"1001200000932","LANDMARKCO":"405","LANDMARKNA":"中油加油站-東方佛光山站","LANDMARKAD":"1001204","ADDRESS":"高雄市大樹區興田路116之20號","TEL":"07-6564626","COUNTYNAME":"高雄市","TOWNNAME":"大樹區","MARKTYPE":"994","Class":"4"},"geometry":{"x":120.44747438312066,"y":22.737259921776058}},{"attributes":{"OBJECTID":20027,"LANDMARKID":"1001200001268","LANDMARKCO":"507","LANDMARKNA":"竹寮取水站","LANDMARKAD":"1001204","ADDRESS":"高雄市大樹區竹寮路47號","TEL":" ","COUNTYNAME":"高雄市","TOWNNAME":"大樹區","MARKTYPE":"995","Class":"5"},"geometry":{"x":120.42539664055805,"y":22.676485176710301}},{"attributes":{"OBJECTID":20028,"LANDMARKID":"1001200001269","LANDMARKCO":"507","LANDMARKNA":"下淡水溪鐵橋(高屏溪舊鐵橋)","LANDMARKAD":"1001204","ADDRESS":"高雄市大樹區竹寮村起至屏東縣","TEL":" ","COUNTYNAME":"高雄市","TOWNNAME":"大樹區","MARKTYPE":"995","Class":"5"},"geometry":{"x":120.426919360068,"y":22.667272535504182}},{"attributes":{"OBJECTID":20029,"LANDMARKID":"1001200001062","LANDMARKCO":"408","LANDMARKNA":"郵局-義守大學郵局","LANDMARKAD":"1001204","ADDRESS":"高雄市大樹區學城路1段1號","TEL":"(07)6577-328","COUNTYNAME":"高雄市","TOWNNAME":"大樹區","MARKTYPE":"994","Class":"4"},"geometry":{"x":120.40793374785055,"y":22.729694891484851}},{"attributes":{"OBJECTID":20030,"LANDMARKID":"1001200001063","LANDMARKCO":"408","LANDMARKNA":"郵局-大樹九曲堂郵局","LANDMARKAD":"1001204","ADDRESS":"高雄市大樹區久堂村中興街143號","TEL":"(07)6512-051","COUNTYNAME":"高雄市","TOWNNAME":"大樹區","MARKTYPE":"994","Class":"4"},"geometry":{"x":120.42017699991514,"y":22.656031717041387}},{"attributes":{"OBJECTID":20031,"LANDMARKID":"1001200001064","LANDMARKCO":"408","LANDMARKNA":"郵局-大樹郵局","LANDMARKAD":"1001204","ADDRESS":"高雄市大樹區檨腳村中興西路40號","TEL":"(07)6510-464","COUNTYNAME":"高雄市","TOWNNAME":"大樹區","MARKTYPE":"994","Class":"4"},"geometry":{"x":120.43144113471422,"y":22.691280213776245}},{"attributes":{"OBJECTID":20032,"LANDMARKID":"1001200000822","LANDMARKCO":"404","LANDMARKNA":"台灣省自來水坪頂給水廠","LANDMARKAD":"1001204","ADDRESS":"高雄市大樹區小坪村128號","TEL":" ","COUNTYNAME":"高雄市","TOWNNAME":"大樹區","MARKTYPE":"994","Class":"4"},"geometry":{"x":120.40761418183325,"y":22.679069305746633}},{"attributes":{"OBJECTID":20033,"LANDMARKID":"1001200001018","LANDMARKCO":"406","LANDMARKNA":"愛心貝殼公園","LANDMARKAD":"1001204","ADDRESS":"高雄市大樹區","TEL":" ","COUNTYNAME":"高雄市","TOWNNAME":"大樹區","MARKTYPE":"994","Class":"4"},"geometry":{"x":120.43633339997004,"y":22.707096584445658}},{"attributes":{"OBJECTID":20034,"LANDMARKID":"1001200000965","LANDMARKCO":"405","LANDMARKNA":"台塑加油站-群發站(台塑)","LANDMARKAD":"1001204","ADDRESS":"高雄市大樹區中正一路382號","TEL":"07-6525257","COUNTYNAME":"高雄市","TOWNNAME":"大樹區","MARKTYPE":"994","Class":"4"},"geometry":{"x":120.43526722043626,"y":22.693076916099653}},{"attributes":{"OBJECTID":20035,"LANDMARKID":"1001200000177","LANDMARKCO":"107","LANDMARKNA":"高雄市政府警察局九曲派出所","LANDMARKAD":"1001204","ADDRESS":"高雄市大樹區久堂村久堂路130號","TEL":"07-6512027","COUNTYNAME":"高雄市","TOWNNAME":"大樹區","MARKTYPE":"991","Class":"1"},"geometry":{"x":120.4193847141334,"y":22.656567308938076}},{"attributes":{"OBJECTID":20036,"LANDMARKID":"1001200000019","LANDMARKCO":"101","LANDMARKNA":"水利署南區水資源局大樹分局","LANDMARKAD":"1001204","ADDRESS":"高雄市大樹區中正一路240號","TEL":"07-6525732","COUNTYNAME":"高雄市","TOWNNAME":"大樹區","MARKTYPE":"991","Class":"1"},"geometry":{"x":120.43055834349607,"y":22.687934404353538}},{"attributes":{"OBJECTID":20037,"LANDMARKID":"1001200000175","LANDMARKCO":"107","LANDMARKNA":"高雄市消防局大樹消防分隊","LANDMARKAD":"1001204","ADDRESS":"高雄市大樹區中興北路227號之1","TEL":"07-6512842","COUNTYNAME":"高雄市","TOWNNAME":"大樹區","MARKTYPE":"991","Class":"1"},"geometry":{"x":120.43256864908635,"y":22.694992667814262}},{"attributes":{"OBJECTID":20038,"LANDMARKID":"1001200000176","LANDMARKCO":"107","LANDMARKNA":"高雄市政府警察局大樹分駐所","LANDMARKAD":"1001204","ADDRESS":"高雄市大樹區中興南路15號","TEL":"07-6512439","COUNTYNAME":"高雄市","TOWNNAME":"大樹區","MARKTYPE":"991","Class":"1"},"geometry":{"x":120.43259612826024,"y":22.688671348693561}},{"attributes":{"OBJECTID":20039,"LANDMARKID":"1001200000057","LANDMARKCO":"103","LANDMARKNA":"高雄市大樹區鄉民代表會","LANDMARKAD":"1001204","ADDRESS":"高雄市大樹區中興北路227號","TEL":"07-6513751","COUNTYNAME":"高雄市","TOWNNAME":"大樹區","MARKTYPE":"991","Class":"1"},"geometry":{"x":120.43265847217735,"y":22.694722377435863}},{"attributes":{"OBJECTID":20040,"LANDMARKID":"1001200000295","LANDMARKCO":"108","LANDMARKNA":"高雄市大樹區公所","LANDMARKAD":"1001204","ADDRESS":"高雄市大樹區中興北路120號","TEL":"07-6512003","COUNTYNAME":"高雄市","TOWNNAME":"大樹區","MARKTYPE":"991","Class":"1"},"geometry":{"x":120.43297861732761,"y":22.69346036000589}},{"attributes":{"OBJECTID":20041,"LANDMARKID":"1001200000138","LANDMARKCO":"106","LANDMARKNA":"高雄市大樹區戶政事務所","LANDMARKAD":"1001204","ADDRESS":"高雄市大樹區中興南路17號","TEL":"07-6513088","COUNTYNAME":"高雄市","TOWNNAME":"大樹區","MARKTYPE":"991","Class":"1"},"geometry":{"x":120.4329887409009,"y":22.69084150957854}},{"attributes":{"OBJECTID":20042,"LANDMARKID":"1001200000058","LANDMARKCO":"103","LANDMARKNA":"高雄市大樹區衛生所","LANDMARKAD":"1001204","ADDRESS":"高雄市大樹區中興北路120號","TEL":"07-6512935","COUNTYNAME":"高雄市","TOWNNAME":"大樹區","MARKTYPE":"991","Class":"1"},"geometry":{"x":120.43319117091785,"y":22.692468466637035}},{"attributes":{"OBJECTID":20043,"LANDMARKID":"1001200000174","LANDMARKCO":"107","LANDMARKNA":"高雄市政府警察局溪埔派出所","LANDMARKAD":"1001204","ADDRESS":"高雄市大樹區溪埔路65號","TEL":"07-6561044","COUNTYNAME":"高雄市","TOWNNAME":"大樹區","MARKTYPE":"991","Class":"1"},"geometry":{"x":120.44313902126201,"y":22.720675167107348}},{"attributes":{"OBJECTID":20044,"LANDMARKID":"1001200000059","LANDMARKCO":"103","LANDMARKNA":"高雄市大樹區衛生所","LANDMARKAD":"1001204","ADDRESS":"高雄市大樹區久堂路128號","TEL":"07-6522191","COUNTYNAME":"高雄市","TOWNNAME":"大樹區","MARKTYPE":"991","Class":"1"},"geometry":{"x":120.41789436648288,"y":22.657911136532821}},{"attributes":{"OBJECTID":20045,"LANDMARKID":"1001200000600","LANDMARKCO":"205","LANDMARKNA":"佛光山佛教文物陳列館","LANDMARKAD":"1001204","ADDRESS":"高雄市大樹區興田村興田路153號","TEL":" ","COUNTYNAME":"高雄市","TOWNNAME":"大樹區","MARKTYPE":"992","Class":"2"},"geometry":{"x":120.44526517617206,"y":22.748985068153491}},{"attributes":{"OBJECTID":20046,"LANDMARKID":"1001200000592","LANDMARKCO":"204","LANDMARKNA":"高雄市立圖書館大樹分館","LANDMARKAD":"1001204","ADDRESS":"高雄市大樹區檨腳村中興北路227號","TEL":" ","COUNTYNAME":"高雄市","TOWNNAME":"大樹區","MARKTYPE":"992","Class":"2"},"geometry":{"x":120.43264587401644,"y":22.695026104390497}},{"attributes":{"OBJECTID":20047,"LANDMARKID":"1001200000593","LANDMARKCO":"204","LANDMARKNA":"大樹第二圖書館","LANDMARKAD":"1001204","ADDRESS":" ","TEL":" ","COUNTYNAME":"高雄市","TOWNNAME":"大樹區","MARKTYPE":"992","Class":"2"},"geometry":{"x":120.41788397149433,"y":22.65787126484032}},{"attributes":{"OBJECTID":20048,"LANDMARKID":"1001200000413","LANDMARKCO":"203","LANDMARKNA":"縣立大樹國中","LANDMARKAD":"1001204","ADDRESS":"高雄市大樹區九曲路500號","TEL":"07-6512026","COUNTYNAME":"高雄市","TOWNNAME":"大樹區","MARKTYPE":"992","Class":"2"},"geometry":{"x":120.42284481885468,"y":22.657023727814011}},{"attributes":{"OBJECTID":20049,"LANDMARKID":"1001200000414","LANDMARKCO":"203","LANDMARKNA":"縣立溪埔國中","LANDMARKAD":"1001204","ADDRESS":"高雄市大樹區溪埔路1號","TEL":"07-6561335","COUNTYNAME":"高雄市","TOWNNAME":"大樹區","MARKTYPE":"992","Class":"2"},"geometry":{"x":120.44302631780616,"y":22.718777936178491}},{"attributes":{"OBJECTID":20050,"LANDMARKID":"1001200000415","LANDMARKCO":"203","LANDMARKNA":"縣立水寮國小","LANDMARKAD":"1001204","ADDRESS":"高雄市大樹區中華路國小巷1號","TEL":"07-6515536","COUNTYNAME":"高雄市","TOWNNAME":"大樹區","MARKTYPE":"992","Class":"2"},"geometry":{"x":120.40782583712361,"y":22.667721716842891}},{"attributes":{"OBJECTID":20051,"LANDMARKID":"1001200000416","LANDMARKCO":"203","LANDMARKNA":"縣立小坪國小","LANDMARKAD":"1001204","ADDRESS":"高雄市大樹區小坪路73號","TEL":"07-6515232","COUNTYNAME":"高雄市","TOWNNAME":"大樹區","MARKTYPE":"992","Class":"2"},"geometry":{"x":120.41185028007069,"y":22.681999473002747}},{"attributes":{"OBJECTID":20052,"LANDMARKID":"1001200000417","LANDMARKCO":"203","LANDMARKNA":"縣立九曲國小","LANDMARKAD":"1001204","ADDRESS":"高雄市大樹區九曲路498號","TEL":"07-6512541","COUNTYNAME":"高雄市","TOWNNAME":"大樹區","MARKTYPE":"992","Class":"2"},"geometry":{"x":120.42356680279335,"y":22.655403398190195}},{"attributes":{"OBJECTID":20053,"LANDMARKID":"1001200000418","LANDMARKCO":"203","LANDMARKNA":"縣立大樹國小","LANDMARKAD":"1001204","ADDRESS":"高雄市大樹區中正一路249號","TEL":"07-6513752","COUNTYNAME":"高雄市","TOWNNAME":"大樹區","MARKTYPE":"992","Class":"2"},"geometry":{"x":120.43437335273448,"y":22.687951598029663}},{"attributes":{"OBJECTID":20054,"LANDMARKID":"1001200000419","LANDMARKCO":"203","LANDMARKNA":"縣立溪埔國小","LANDMARKAD":"1001204","ADDRESS":"高雄市大樹區溪埔路43號","TEL":"07-6565242","COUNTYNAME":"高雄市","TOWNNAME":"大樹區","MARKTYPE":"992","Class":"2"},"geometry":{"x":120.44298524036196,"y":22.72302208487892}},{"attributes":{"OBJECTID":20055,"LANDMARKID":"1001200000420","LANDMARKCO":"203","LANDMARKNA":"縣立興田國小","LANDMARKAD":"1001204","ADDRESS":"高雄市大樹區興田村興田路59號","TEL":"07-6561527","COUNTYNAME":"高雄市","TOWNNAME":"大樹區","MARKTYPE":"992","Class":"2"},"geometry":{"x":120.44606599402326,"y":22.740463163431109}},{"attributes":{"OBJECTID":20056,"LANDMARKID":"1001200000329","LANDMARKCO":"202","LANDMARKNA":"私立普門高中","LANDMARKAD":"1001204","ADDRESS":"高雄市大樹區興田村153號","TEL":"07-6561921","COUNTYNAME":"高雄市","TOWNNAME":"大樹區","MARKTYPE":"992","Class":"2"},"geometry":{"x":120.44361113685704,"y":22.748402824298413}},{"attributes":{"OBJECTID":20057,"LANDMARKID":"1001200000330","LANDMARKCO":"202","LANDMARKNA":"私立普門高中附設國中部","LANDMARKAD":"1001204","ADDRESS":"高雄市大樹區興田村153號","TEL":"07-6561921","COUNTYNAME":"高雄市","TOWNNAME":"大樹區","MARKTYPE":"992","Class":"2"},"geometry":{"x":120.44363134033462,"y":22.74831265607758}},{"attributes":{"OBJECTID":20058,"LANDMARKID":"1001200000408","LANDMARKCO":"203","LANDMARKNA":"私立義守大學國際中(小)學","LANDMARKAD":"1001204","ADDRESS":"高雄市大樹區學城路一段6號","TEL":"07-6577115#1102","COUNTYNAME":"高雄市","TOWNNAME":"大樹區","MARKTYPE":"992","Class":"2"},"geometry":{"x":120.40536976850315,"y":22.728039174118098}},{"attributes":{"OBJECTID":20059,"LANDMARKID":"1001200000409","LANDMARKCO":"203","LANDMARKNA":"縣立龍目國小","LANDMARKAD":"1001204","ADDRESS":"高雄市大樹區龍目村56號","TEL":"07-6514110","COUNTYNAME":"高雄市","TOWNNAME":"大樹區","MARKTYPE":"992","Class":"2"},"geometry":{"x":120.40890778610205,"y":22.688580508501079}},{"attributes":{"OBJECTID":20060,"LANDMARKID":"1001200000410","LANDMARKCO":"203","LANDMARKNA":"縣立大樹國小和山分校","LANDMARKAD":"1001204","ADDRESS":"高雄市大樹區","TEL":" ","COUNTYNAME":"高雄市","TOWNNAME":"大樹區","MARKTYPE":"992","Class":"2"},"geometry":{"x":120.41781415666659,"y":22.703696537191263}},{"attributes":{"OBJECTID":20061,"LANDMARKID":"1001200000411","LANDMARKCO":"203","LANDMARKNA":"縣立九曲國小竹寮分校","LANDMARKAD":"1001204","ADDRESS":"高雄市大樹區","TEL":" ","COUNTYNAME":"高雄市","TOWNNAME":"大樹區","MARKTYPE":"992","Class":"2"},"geometry":{"x":120.42775757176013,"y":22.669963006723421}},{"attributes":{"OBJECTID":20062,"LANDMARKID":"1001200000412","LANDMARKCO":"203","LANDMARKNA":"縣立姑山國小","LANDMARKAD":"1001204","ADDRESS":"高雄市大樹區姑山村1號","TEL":"07-6563509","COUNTYNAME":"高雄市","TOWNNAME":"大樹區","MARKTYPE":"992","Class":"2"},"geometry":{"x":120.43747173514025,"y":22.709366542649175}},{"attributes":{"OBJECTID":20063,"LANDMARKID":"1001200000307","LANDMARKCO":"201","LANDMARKNA":"義守大學","LANDMARKAD":"1001204","ADDRESS":"高雄市大樹區學城路一段1號","TEL":"07-6577711","COUNTYNAME":"高雄市","TOWNNAME":"大樹區","MARKTYPE":"992","Class":"2"},"geometry":{"x":120.40596373823833,"y":22.725504645004165}},{"attributes":{"OBJECTID":20064,"LANDMARKID":"1001200000308","LANDMARKCO":"201","LANDMARKNA":"東方佛教學院","LANDMARKAD":"1001204","ADDRESS":"高雄市大樹區","TEL":" ","COUNTYNAME":"高雄市","TOWNNAME":"大樹區","MARKTYPE":"992","Class":"2"},"geometry":{"x":120.44448842055952,"y":22.749482947231531}},{"attributes":{"OBJECTID":20065,"LANDMARKID":"1001200000614","LANDMARKCO":"301","LANDMARKNA":"九曲堂火車站","LANDMARKAD":"1001204","ADDRESS":"高雄市大樹區久堂村鐵路巷15號","TEL":"07-6512020","COUNTYNAME":"高雄市","TOWNNAME":"大樹區","MARKTYPE":"993","Class":"301"},"geometry":{"x":120.42135509925423,"y":22.656547116681985}},{"attributes":{"OBJECTID":20066,"LANDMARKID":"1001200000809","LANDMARKCO":"402","LANDMARKNA":"中華電信-九曲堂服務中心","LANDMARKAD":"1001204","ADDRESS":"高雄市大樹區復興街85號","TEL":"(07)344-7570","COUNTYNAME":"高雄市","TOWNNAME":"大樹區","MARKTYPE":"994","Class":"4"},"geometry":{"x":120.42040771428624,"y":22.655623552125345}},{"attributes":{"OBJECTID":20067,"LANDMARKID":"1001200001329","LANDMARKCO":"603","LANDMARKNA":"日昇旅社","LANDMARKAD":"1001204","ADDRESS":"高雄市大樹區九曲村九曲路553號","TEL":"07-6512123","COUNTYNAME":"高雄市","TOWNNAME":"大樹區","MARKTYPE":"996","Class":"6"},"geometry":{"x":120.42206225984233,"y":22.657404527711854}},{"attributes":{"OBJECTID":20068,"LANDMARKID":"1001200001330","LANDMARKCO":"603","LANDMARKNA":"佛光大旅社","LANDMARKAD":"1001204","ADDRESS":"高雄市大樹區興田村興田路116-2號","TEL":"07-6561577","COUNTYNAME":"高雄市","TOWNNAME":"大樹區","MARKTYPE":"996","Class":"6"},"geometry":{"x":120.44805874106,"y":22.746998957597974}},{"attributes":{"OBJECTID":20069,"LANDMARKID":"1001200001331","LANDMARKCO":"603","LANDMARKNA":"大樹旅社","LANDMARKAD":"1001204","ADDRESS":"高雄市大樹區檨子腳村中興北路88號","TEL":"07-6512105","COUNTYNAME":"高雄市","TOWNNAME":"大樹區","MARKTYPE":"996","Class":"6"},"geometry":{"x":120.43305864584556,"y":22.692481951618067}},{"attributes":{"OBJECTID":20070,"LANDMARKID":"1001200001332","LANDMARKCO":"603","LANDMARKNA":"大成大旅社","LANDMARKAD":"1001204","ADDRESS":"高雄市大樹區檨子腳村中興北路90號","TEL":"07-6512120","COUNTYNAME":"高雄市","TOWNNAME":"大樹區","MARKTYPE":"996","Class":"6"},"geometry":{"x":120.43305864584556,"y":22.692481951618067}},{"attributes":{"OBJECTID":20071,"LANDMARKID":"1001200001244","LANDMARKCO":"505","LANDMARKNA":"三和瓦窯","LANDMARKAD":"1001204","ADDRESS":"高雄市大樹區竹寮路94號","TEL":"07-6512037","COUNTYNAME":"高雄市","TOWNNAME":"大樹區","MARKTYPE":"995","Class":"5"},"geometry":{"x":120.42690602130484,"y":22.66371804949263}},{"attributes":{"OBJECTID":20072,"LANDMARKID":"1001200001303","LANDMARKCO":"510","LANDMARKNA":"觀音山高爾夫球場","LANDMARKAD":"1001204","ADDRESS":"高雄市大樹區三和村三和路140號","TEL":"07-6578190","COUNTYNAME":"高雄市","TOWNNAME":"大樹區","MARKTYPE":"995","Class":"5"},"geometry":{"x":120.40442240233172,"y":22.737221677367145}},{"attributes":{"OBJECTID":20073,"LANDMARKID":"1001200001304","LANDMARKCO":"510","LANDMARKNA":"信誼高爾夫球場","LANDMARKAD":"1001204","ADDRESS":"高雄市大樹區統領村信誼路1號","TEL":"07-6563211","COUNTYNAME":"高雄市","TOWNNAME":"大樹區","MARKTYPE":"995","Class":"5"},"geometry":{"x":120.41900697090011,"y":22.765786629529423}},{"attributes":{"OBJECTID":20074,"LANDMARKID":"1001200001496","LANDMARKCO":"605","LANDMARKNA":"大樹區衛生所","LANDMARKAD":"1001204","ADDRESS":"高雄市大樹區","TEL":" ","COUNTYNAME":"高雄市","TOWNNAME":"大樹區","MARKTYPE":"996","Class":"6"},"geometry":{"x":120.41789754039178,"y":22.657918080100131}},{"attributes":{"OBJECTID":20075,"LANDMARKID":"1001200000967","LANDMARKCO":"405","LANDMARKNA":"中油加油站-鳳仁站","LANDMARKAD":"1001206","ADDRESS":"高雄市仁武區鳳仁路177號","TEL":"07-3723933","COUNTYNAME":"高雄市","TOWNNAME":"仁武區","MARKTYPE":"994","Class":"4"},"geometry":{"x":120.34838780331344,"y":22.694908799845106}},{"attributes":{"OBJECTID":20076,"LANDMARKID":"1001200000968","LANDMARKCO":"405","LANDMARKNA":"亞柏加油站-仁武站(中油)","LANDMARKAD":"1001206","ADDRESS":"高雄市文武村澄觀路1段1111號","TEL":"07-3711336","COUNTYNAME":"高雄市","TOWNNAME":"仁武區","MARKTYPE":"994","Class":"4"},"geometry":{"x":120.35909855054359,"y":22.70160110077401}},{"attributes":{"OBJECTID":20077,"LANDMARKID":"1001200000969","LANDMARKCO":"405","LANDMARKNA":"亞柏加油站-八卦寮站(中油)","LANDMARKAD":"1001206","ADDRESS":"高雄市五和村八德西路433號","TEL":"07-3717900","COUNTYNAME":"高雄市","TOWNNAME":"仁武區","MARKTYPE":"994","Class":"4"},"geometry":{"x":120.32890149665371,"y":22.68189174768936}},{"attributes":{"OBJECTID":20078,"LANDMARKID":"1001200000970","LANDMARKCO":"405","LANDMARKNA":"中油加油站-今順站","LANDMARKAD":"1001206","ADDRESS":"高雄市仁武區大灣村仁雄路500號","TEL":"07-3742198","COUNTYNAME":"高雄市","TOWNNAME":"仁武區","MARKTYPE":"994","Class":"4"},"geometry":{"x":120.33090436743092,"y":22.672598987376219}},{"attributes":{"OBJECTID":20079,"LANDMARKID":"1001200000971","LANDMARKCO":"405","LANDMARKNA":"台糖加油站-仁林站(中油)","LANDMARKAD":"1001206","ADDRESS":"高雄市仁武區文武村澄觀路二段2號","TEL":"07-3735596","COUNTYNAME":"高雄市","TOWNNAME":"仁武區","MARKTYPE":"994","Class":"4"},"geometry":{"x":120.36011151623789,"y":22.701826170923489}},{"attributes":{"OBJECTID":20080,"LANDMARKID":"1001200000972","LANDMARKCO":"405","LANDMARKNA":"台糖加油站-民族三站(中油)","LANDMARKAD":"1001206","ADDRESS":"高雄市仁武區高楠公路62號","TEL":" ","COUNTYNAME":"高雄市","TOWNNAME":"仁武區","MARKTYPE":"994","Class":"4"},"geometry":{"x":120.32415626701338,"y":22.701619995153422}},{"attributes":{"OBJECTID":20081,"LANDMARKID":"1001200000973","LANDMARKCO":"405","LANDMARKNA":"台糖加油站-高鐵站(中油)","LANDMARKAD":"1001206","ADDRESS":"高雄市仁武區高楠公路55號","TEL":" ","COUNTYNAME":"高雄市","TOWNNAME":"仁武區","MARKTYPE":"994","Class":"4"},"geometry":{"x":120.32142072362086,"y":22.693385202913007}},{"attributes":{"OBJECTID":20082,"LANDMARKID":"1001200000974","LANDMARKCO":"405","LANDMARKNA":"中油加油站-仁武站","LANDMARKAD":"1001206","ADDRESS":"高雄市仁武區鳳仁路282號","TEL":"07-3711361","COUNTYNAME":"高雄市","TOWNNAME":"仁武區","MARKTYPE":"994","Class":"4"},"geometry":{"x":120.34397135234622,"y":22.703753516586719}},{"attributes":{"OBJECTID":20083,"LANDMARKID":"1001200000975","LANDMARKCO":"405","LANDMARKNA":"中油加油站-民族站","LANDMARKAD":"1001206","ADDRESS":"高雄市高楠公路28號","TEL":"07-3464467","COUNTYNAME":"高雄市","TOWNNAME":"仁武區","MARKTYPE":"994","Class":"4"},"geometry":{"x":120.32239231160759,"y":22.69539775373498}},{"attributes":{"OBJECTID":20084,"LANDMARKID":"1001200000976","LANDMARKCO":"405","LANDMARKNA":"台糖加油站-仁新站(中油)","LANDMARKAD":"1001206","ADDRESS":"高雄市仁武區文武村水管路三段276號","TEL":" ","COUNTYNAME":"高雄市","TOWNNAME":"仁武區","MARKTYPE":"994","Class":"4"},"geometry":{"x":120.35889154428162,"y":22.703687721792875}},{"attributes":{"OBJECTID":20085,"LANDMARKID":"1001200001065","LANDMARKCO":"408","LANDMARKNA":"郵局-仁武台塑郵局","LANDMARKAD":"1001206","ADDRESS":"高雄市仁武區水管路100-1號","TEL":"(07)3722-811","COUNTYNAME":"高雄市","TOWNNAME":"仁武區","MARKTYPE":"994","Class":"4"},"geometry":{"x":120.33653402364168,"y":22.705965820329748}},{"attributes":{"OBJECTID":20086,"LANDMARKID":"1001200001066","LANDMARKCO":"408","LANDMARKNA":"郵局-仁武郵局","LANDMARKAD":"1001206","ADDRESS":"高雄市仁武區仁武村中正路115號","TEL":"(07)3716-005","COUNTYNAME":"高雄市","TOWNNAME":"仁武區","MARKTYPE":"994","Class":"4"},"geometry":{"x":120.34843880226543,"y":22.701733023987767}},{"attributes":{"OBJECTID":20087,"LANDMARKID":"1001200001067","LANDMARKCO":"408","LANDMARKNA":"郵局-仁武仁雄郵局","LANDMARKAD":"1001206","ADDRESS":"高雄市仁武區仁和村仁忠路79號","TEL":"(07)3740-875","COUNTYNAME":"高雄市","TOWNNAME":"仁武區","MARKTYPE":"994","Class":"4"},"geometry":{"x":120.35582874719636,"y":22.67740916466947}},{"attributes":{"OBJECTID":20088,"LANDMARKID":"1001200001197","LANDMARKCO":"409","LANDMARKNA":"高雄市仁武區農會","LANDMARKAD":"1001206","ADDRESS":"高雄市仁武區仁武村中正路137號","TEL":"07-3713190","COUNTYNAME":"高雄市","TOWNNAME":"仁武區","MARKTYPE":"994","Class":"4"},"geometry":{"x":120.34869787341987,"y":22.701688182226306}},{"attributes":{"OBJECTID":20089,"LANDMARKID":"1001200001198","LANDMARKCO":"409","LANDMARKNA":"仁武農會-灣內辦事","LANDMARKAD":"1001206","ADDRESS":"高雄市仁武區灣內村仁心路15號","TEL":"07-371-58","COUNTYNAME":"高雄市","TOWNNAME":"仁武區","MARKTYPE":"994","Class":"4"},"geometry":{"x":120.3564595746451,"y":22.68236070161808}},{"attributes":{"OBJECTID":20090,"LANDMARKID":"1001200001199","LANDMARKCO":"409","LANDMARKNA":"仁武農會-八卦辦事","LANDMARKAD":"1001206","ADDRESS":"高雄市仁武區八卦村八德中路50號","TEL":"07-371-96","COUNTYNAME":"高雄市","TOWNNAME":"仁武區","MARKTYPE":"994","Class":"4"},"geometry":{"x":120.33925694096411,"y":22.684597585383273}},{"attributes":{"OBJECTID":20091,"LANDMARKID":"1001200001014","LANDMARKCO":"406","LANDMARKNA":"澄觀公園","LANDMARKAD":"1001206","ADDRESS":"高雄市仁武區","TEL":" ","COUNTYNAME":"高雄市","TOWNNAME":"仁武區","MARKTYPE":"994","Class":"4"},"geometry":{"x":120.34416202153949,"y":22.680246342383789}},{"attributes":{"OBJECTID":20092,"LANDMARKID":"1001200001015","LANDMARKCO":"406","LANDMARKNA":"仁和公園","LANDMARKAD":"1001206","ADDRESS":"高雄市仁武區","TEL":" ","COUNTYNAME":"高雄市","TOWNNAME":"仁武區","MARKTYPE":"994","Class":"4"},"geometry":{"x":120.35246751357386,"y":22.680412876648216}},{"attributes":{"OBJECTID":20093,"LANDMARKID":"1001200001016","LANDMARKCO":"406","LANDMARKNA":"仁愛公園","LANDMARKAD":"1001206","ADDRESS":"高雄市仁武區","TEL":" ","COUNTYNAME":"高雄市","TOWNNAME":"仁武區","MARKTYPE":"994","Class":"4"},"geometry":{"x":120.35381231704777,"y":22.678475150651767}},{"attributes":{"OBJECTID":20094,"LANDMARKID":"1001200001017","LANDMARKCO":"406","LANDMARKNA":"仁慈公園","LANDMARKAD":"1001206","ADDRESS":"高雄市仁武區","TEL":" ","COUNTYNAME":"高雄市","TOWNNAME":"仁武區","MARKTYPE":"994","Class":"4"},"geometry":{"x":120.35870060685077,"y":22.671922555017453}},{"attributes":{"OBJECTID":20095,"LANDMARKID":"1001200000961","LANDMARKCO":"405","LANDMARKNA":"全國加油站-仁武站（台塑）","LANDMARKAD":"1001206","ADDRESS":"高雄市仁武區鳳仁路166號","TEL":"07-3725832","COUNTYNAME":"高雄市","TOWNNAME":"仁武區","MARKTYPE":"994","Class":"4"},"geometry":{"x":120.34810410797704,"y":22.69672111923563}},{"attributes":{"OBJECTID":20096,"LANDMARKID":"1001200000962","LANDMARKCO":"405","LANDMARKNA":"台塑加油站-中鷹站(台塑)","LANDMARKAD":"1001206","ADDRESS":"高雄市仁武區鳳仁路321號","TEL":"07-3722785","COUNTYNAME":"高雄市","TOWNNAME":"仁武區","MARKTYPE":"994","Class":"4"},"geometry":{"x":120.33856293804926,"y":22.711332238916896}},{"attributes":{"OBJECTID":20097,"LANDMARKID":"1001200000963","LANDMARKCO":"405","LANDMARKNA":"台塑加油站-灣內站(台塑)","LANDMARKAD":"1001206","ADDRESS":"高雄市仁武區澄觀路一段80號","TEL":"07-3745816","COUNTYNAME":"高雄市","TOWNNAME":"仁武區","MARKTYPE":"994","Class":"4"},"geometry":{"x":120.35519246036881,"y":22.686867824815952}},{"attributes":{"OBJECTID":20098,"LANDMARKID":"1001200000964","LANDMARKCO":"405","LANDMARKNA":"福懋加油站-仁武站(台塑)","LANDMARKAD":"1001206","ADDRESS":"高雄市仁武區鳳仁路76號","TEL":"07-3740586","COUNTYNAME":"高雄市","TOWNNAME":"仁武區","MARKTYPE":"994","Class":"4"},"geometry":{"x":120.35437333688205,"y":22.684115507024259}},{"attributes":{"OBJECTID":20099,"LANDMARKID":"1001200000020","LANDMARKCO":"101","LANDMARKNA":"工業局仁大(仁武)工業區服務中","LANDMARKAD":"1001206","ADDRESS":"高雄市大社區經建路6號","TEL":"07-3511964","COUNTYNAME":"高雄市","TOWNNAME":"仁武區","MARKTYPE":"991","Class":"1"},"geometry":{"x":120.34415846322328,"y":22.700527801759087}},{"attributes":{"OBJECTID":20100,"LANDMARKID":"1001200000137","LANDMARKCO":"106","LANDMARKNA":"高雄市仁武區戶政事務所","LANDMARKAD":"1001206","ADDRESS":"高雄市仁武區仁武村中正路94號4樓","TEL":"07-3711328","COUNTYNAME":"高雄市","TOWNNAME":"仁武區","MARKTYPE":"991","Class":"1"},"geometry":{"x":120.34753953100227,"y":22.701164844688286}},{"attributes":{"OBJECTID":20101,"LANDMARKID":"1001200000054","LANDMARKCO":"103","LANDMARKNA":"高雄市仁武區鄉民代表會","LANDMARKAD":"1001206","ADDRESS":"高雄市仁武區中正路80號","TEL":"07-3711740","COUNTYNAME":"高雄市","TOWNNAME":"仁武區","MARKTYPE":"991","Class":"1"},"geometry":{"x":120.34755728561153,"y":22.701345606177259}},{"attributes":{"OBJECTID":20102,"LANDMARKID":"1001200000296","LANDMARKCO":"108","LANDMARKNA":"高雄市仁武區公所","LANDMARKAD":"1001206","ADDRESS":"高雄市仁武區中正路80號","TEL":"07-372-7900","COUNTYNAME":"高雄市","TOWNNAME":"仁武區","MARKTYPE":"991","Class":"1"},"geometry":{"x":120.34756787442376,"y":22.70125538427865}},{"attributes":{"OBJECTID":20103,"LANDMARKID":"1001200000171","LANDMARKCO":"107","LANDMARKNA":"高雄市政府警察局仁武分局","LANDMARKAD":"1001206","ADDRESS":"高雄市仁武區仁武村中正路135號","TEL":"07-3719421","COUNTYNAME":"高雄市","TOWNNAME":"仁武區","MARKTYPE":"991","Class":"1"},"geometry":{"x":120.34816906938833,"y":22.702524601606228}},{"attributes":{"OBJECTID":20104,"LANDMARKID":"1001200000172","LANDMARKCO":"107","LANDMARKNA":"高雄市政府警察局仁武派出所","LANDMARKAD":"1001206","ADDRESS":"高雄市仁武區中正路135號","TEL":"07-3711432","COUNTYNAME":"高雄市","TOWNNAME":"仁武區","MARKTYPE":"991","Class":"1"},"geometry":{"x":120.34816906938833,"y":22.702524601606228}},{"attributes":{"OBJECTID":20105,"LANDMARKID":"1001200000173","LANDMARKCO":"107","LANDMARKNA":"高雄市消防局仁武消防分隊","LANDMARKAD":"1001206","ADDRESS":"高雄市仁武區中正路133號","TEL":"07-3718548","COUNTYNAME":"高雄市","TOWNNAME":"仁武區","MARKTYPE":"991","Class":"1"},"geometry":{"x":120.34872094367698,"y":22.701806630191712}},{"attributes":{"OBJECTID":20106,"LANDMARKID":"1001200000055","LANDMARKCO":"103","LANDMARKNA":"高雄市仁武區衛生所","LANDMARKAD":"1001206","ADDRESS":"高雄市仁武區地政街23號","TEL":"07-3711434","COUNTYNAME":"高雄市","TOWNNAME":"仁武區","MARKTYPE":"991","Class":"1"},"geometry":{"x":120.35156552708938,"y":22.70154750290504}},{"attributes":{"OBJECTID":20107,"LANDMARKID":"1001200000111","LANDMARKCO":"105","LANDMARKNA":"高雄市仁武地政事務所","LANDMARKAD":"1001206","ADDRESS":"高雄市仁武區仁武村地政街2號","TEL":"07-3720110","COUNTYNAME":"高雄市","TOWNNAME":"仁武區","MARKTYPE":"991","Class":"1"},"geometry":{"x":120.35192185532202,"y":22.700918231222424}},{"attributes":{"OBJECTID":20108,"LANDMARKID":"1001200000056","LANDMARKCO":"103","LANDMARKNA":"仁武區立殯儀館","LANDMARKAD":"1001206","ADDRESS":"高雄市仁武區文武村文學三街167號","TEL":"07-3718159","COUNTYNAME":"高雄市","TOWNNAME":"仁武區","MARKTYPE":"991","Class":"1"},"geometry":{"x":120.35225922143105,"y":22.697583662429256}},{"attributes":{"OBJECTID":20109,"LANDMARKID":"1001200000591","LANDMARKCO":"204","LANDMARKNA":"高雄市立圖書館仁武分館","LANDMARKAD":"1001206","ADDRESS":"高雄市仁武區仁武村中正路80號","TEL":" ","COUNTYNAME":"高雄市","TOWNNAME":"仁武區","MARKTYPE":"992","Class":"2"},"geometry":{"x":120.34731685654393,"y":22.70120029035926}},{"attributes":{"OBJECTID":20110,"LANDMARKID":"1001200000331","LANDMARKCO":"202","LANDMARKNA":"縣立仁武高中","LANDMARKAD":"1001206","ADDRESS":"高雄市仁武區仁林路20號","TEL":"07-3742282","COUNTYNAME":"高雄市","TOWNNAME":"仁武區","MARKTYPE":"992","Class":"2"},"geometry":{"x":120.35573254675289,"y":22.702461780583764}},{"attributes":{"OBJECTID":20111,"LANDMARKID":"1001200000398","LANDMARKCO":"203","LANDMARKNA":"縣立大灣國中","LANDMARKAD":"1001206","ADDRESS":"高雄市仁武區大灣村仁雄路99號","TEL":"07-3711715","COUNTYNAME":"高雄市","TOWNNAME":"仁武區","MARKTYPE":"992","Class":"2"},"geometry":{"x":120.34170971952132,"y":22.676395823734474}},{"attributes":{"OBJECTID":20112,"LANDMARKID":"1001200000399","LANDMARKCO":"203","LANDMARKNA":"縣立八卦國小","LANDMARKAD":"1001206","ADDRESS":"高雄市仁武區八卦村永仁街555號","TEL":"07-3718964","COUNTYNAME":"高雄市","TOWNNAME":"仁武區","MARKTYPE":"992","Class":"2"},"geometry":{"x":120.33275764062779,"y":22.689281620204678}},{"attributes":{"OBJECTID":20113,"LANDMARKID":"1001200000400","LANDMARKCO":"203","LANDMARKNA":"縣立竹後國小","LANDMARKAD":"1001206","ADDRESS":"高雄市仁武區竹楠路250號","TEL":"07-3724460","COUNTYNAME":"高雄市","TOWNNAME":"仁武區","MARKTYPE":"992","Class":"2"},"geometry":{"x":120.33686889091828,"y":22.710695332237396}},{"attributes":{"OBJECTID":20114,"LANDMARKID":"1001200000401","LANDMARKCO":"203","LANDMARKNA":"縣立仁武國小","LANDMARKAD":"1001206","ADDRESS":"高雄市仁武區仁武村中正路94號","TEL":"07-3711126#10","COUNTYNAME":"高雄市","TOWNNAME":"仁武區","MARKTYPE":"992","Class":"2"},"geometry":{"x":120.34905236881306,"y":22.700725626768616}},{"attributes":{"OBJECTID":20115,"LANDMARKID":"1001200000402","LANDMARKCO":"203","LANDMARKNA":"縣立登發國小","LANDMARKAD":"1001206","ADDRESS":"高雄市仁武區仁忠路191號","TEL":"07-3726031","COUNTYNAME":"高雄市","TOWNNAME":"仁武區","MARKTYPE":"992","Class":"2"},"geometry":{"x":120.35395267192533,"y":22.679791617384662}},{"attributes":{"OBJECTID":20116,"LANDMARKID":"1001200000403","LANDMARKCO":"203","LANDMARKNA":"縣立灣內國小","LANDMARKAD":"1001206","ADDRESS":"高雄市仁武區灣內村仁心路31號","TEL":"07-3718228","COUNTYNAME":"高雄市","TOWNNAME":"仁武區","MARKTYPE":"992","Class":"2"},"geometry":{"x":120.35772873527928,"y":22.683603655028882}},{"attributes":{"OBJECTID":20117,"LANDMARKID":"1001200000404","LANDMARKCO":"203","LANDMARKNA":"縣立烏林國小","LANDMARKAD":"1001206","ADDRESS":"高雄市仁武區烏林村林森巷23號","TEL":"07-3711431","COUNTYNAME":"高雄市","TOWNNAME":"仁武區","MARKTYPE":"992","Class":"2"},"geometry":{"x":120.37335764381005,"y":22.698110447327117}},{"attributes":{"OBJECTID":20118,"LANDMARKID":"1001200000405","LANDMARKCO":"203","LANDMARKNA":"縣立仁福國小","LANDMARKAD":"1001206","ADDRESS":"高雄市仁武區","TEL":" ","COUNTYNAME":"高雄市","TOWNNAME":"仁武區","MARKTYPE":"992","Class":"2"},"geometry":{"x":120.3796382035392,"y":22.712315894105334}},{"attributes":{"OBJECTID":20119,"LANDMARKID":"1001200000406","LANDMARKCO":"203","LANDMARKNA":"縣立高雄特殊教育學校","LANDMARKAD":"1001206","ADDRESS":"高雄市仁武區八卦村澄觀路1389號","TEL":"07-3749788","COUNTYNAME":"高雄市","TOWNNAME":"仁武區","MARKTYPE":"992","Class":"2"},"geometry":{"x":120.34673202674971,"y":22.683559780490238}},{"attributes":{"OBJECTID":20120,"LANDMARKID":"1001200000719","LANDMARKCO":"308","LANDMARKNA":"國10-鼎金系統交流道-東行","LANDMARKAD":"1001206","ADDRESS":"高雄市仁武區","TEL":" ","COUNTYNAME":"高雄市","TOWNNAME":"仁武區","MARKTYPE":"993","Class":"308"},"geometry":{"x":120.33028319857928,"y":22.674869183270893}},{"attributes":{"OBJECTID":20121,"LANDMARKID":"1001200000720","LANDMARKCO":"308","LANDMARKNA":"國10-仁武交流道-南下","LANDMARKAD":"1001206","ADDRESS":"高雄市仁武區","TEL":" ","COUNTYNAME":"高雄市","TOWNNAME":"仁武區","MARKTYPE":"993","Class":"308"},"geometry":{"x":120.35875201247676,"y":22.698464644123288}},{"attributes":{"OBJECTID":20122,"LANDMARKID":"1001200000721","LANDMARKCO":"308","LANDMARKNA":"國10-鼎金系統交流道-西行","LANDMARKAD":"1001206","ADDRESS":"高雄市仁武區","TEL":" ","COUNTYNAME":"高雄市","TOWNNAME":"仁武區","MARKTYPE":"993","Class":"308"},"geometry":{"x":120.32710635414317,"y":22.675648022251806}},{"attributes":{"OBJECTID":20123,"LANDMARKID":"1001200000722","LANDMARKCO":"308","LANDMARKNA":"國10-鼎金系統交流道-北上","LANDMARKAD":"1001206","ADDRESS":"高雄市仁武區","TEL":" ","COUNTYNAME":"高雄市","TOWNNAME":"仁武區","MARKTYPE":"993","Class":"308"},"geometry":{"x":120.3291548323642,"y":22.679144603064977}},{"attributes":{"OBJECTID":20124,"LANDMARKID":"1001200000723","LANDMARKCO":"308","LANDMARKNA":"國10-仁武交流道-北上","LANDMARKAD":"1001206","ADDRESS":"高雄市仁武區","TEL":" ","COUNTYNAME":"高雄市","TOWNNAME":"仁武區","MARKTYPE":"993","Class":"308"},"geometry":{"x":120.3604656577329,"y":22.706595103019236}},{"attributes":{"OBJECTID":20125,"LANDMARKID":"1001200000807","LANDMARKCO":"402","LANDMARKNA":"中華電信-八德服務中心","LANDMARKAD":"1001206","ADDRESS":"高雄市仁武區八德南路351號","TEL":"(07)344-7498","COUNTYNAME":"高雄市","TOWNNAME":"仁武區","MARKTYPE":"994","Class":"4"},"geometry":{"x":120.34042012509349,"y":22.68046938030518}},{"attributes":{"OBJECTID":20126,"LANDMARKID":"1001200000808","LANDMARKCO":"402","LANDMARKNA":"中華電信-仁武服務中心","LANDMARKAD":"1001206","ADDRESS":"高雄市仁武區鳳仁路280-8號","TEL":"(07)344-7497","COUNTYNAME":"高雄市","TOWNNAME":"仁武區","MARKTYPE":"994","Class":"4"},"geometry":{"x":120.34488754646024,"y":22.702197880451493}},{"attributes":{"OBJECTID":20127,"LANDMARKID":"1001200001328","LANDMARKCO":"603","LANDMARKNA":"金銀島汽車旅館-仁武店","LANDMARKAD":"1001206","ADDRESS":"高雄市仁武區大灣村大豐街51號","TEL":"07-3723200","COUNTYNAME":"高雄市","TOWNNAME":"仁武區","MARKTYPE":"996","Class":"6"},"geometry":{"x":120.3370210153374,"y":22.67562083416129}},{"attributes":{"OBJECTID":20128,"LANDMARKID":"1001200000957","LANDMARKCO":"405","LANDMARKNA":"千越加油站-仁美站(中油)","LANDMARKAD":"1001207","ADDRESS":"高雄市神農路370號","TEL":"07-7332589","COUNTYNAME":"高雄市","TOWNNAME":"鳥松區","MARKTYPE":"994","Class":"4"},"geometry":{"x":120.37948508703373,"y":22.659203654346065}},{"attributes":{"OBJECTID":20129,"LANDMARKID":"1001200000958","LANDMARKCO":"405","LANDMARKNA":"統一速邁樂加油站-鳥松一站加油站(中油)","LANDMARKAD":"1001207","ADDRESS":"高雄市鳥松區神農路267號","TEL":" ","COUNTYNAME":"高雄市","TOWNNAME":"鳥松區","MARKTYPE":"994","Class":"4"},"geometry":{"x":120.37278009298292,"y":22.659702088895379}},{"attributes":{"OBJECTID":20130,"LANDMARKID":"1001200000959","LANDMARKCO":"405","LANDMARKNA":"中油加油站-水美站","LANDMARKAD":"1001207","ADDRESS":"高雄市鳥松區北平路49號","TEL":"07-7338333","COUNTYNAME":"高雄市","TOWNNAME":"鳥松區","MARKTYPE":"994","Class":"4"},"geometry":{"x":120.39942004701454,"y":22.6586039979844}},{"attributes":{"OBJECTID":20131,"LANDMARKID":"1001200000960","LANDMARKCO":"405","LANDMARKNA":"統一速邁樂加油站-鳥松二站加油站(中油)","LANDMARKAD":"1001207","ADDRESS":"高雄市鳥松區鳥松村中正路100之3號","TEL":" ","COUNTYNAME":"高雄市","TOWNNAME":"鳥松區","MARKTYPE":"994","Class":"4"},"geometry":{"x":120.36522855793517,"y":22.652169241656981}},{"attributes":{"OBJECTID":20132,"LANDMARKID":"1001200000738","LANDMARKCO":"401","LANDMARKNA":"長庚紀念醫院高雄分院","LANDMARKAD":"1001207","ADDRESS":"高雄市鳥松區大埤路123號","TEL":"07-7317123","COUNTYNAME":"高雄市","TOWNNAME":"鳥松區","MARKTYPE":"994","Class":"4"},"geometry":{"x":120.35529411015369,"y":22.650452546430934}},{"attributes":{"OBJECTID":20133,"LANDMARKID":"1001200001323","LANDMARKCO":"513","LANDMARKNA":"澄清湖風景區","LANDMARKAD":"1001207","ADDRESS":"高雄市鳥松區大埤路32號","TEL":" ","COUNTYNAME":"高雄市","TOWNNAME":"鳥松區","MARKTYPE":"995","Class":"5"},"geometry":{"x":120.3497949556622,"y":22.653602470910364}},{"attributes":{"OBJECTID":20134,"LANDMARKID":"1001200001497","LANDMARKCO":"605","LANDMARKNA":"救國團澄清湖青年活動中心","LANDMARKAD":"1001207","ADDRESS":"高雄市鳥松區文前路140號","TEL":"07-3717181","COUNTYNAME":"高雄市","TOWNNAME":"鳥松區","MARKTYPE":"996","Class":"6"},"geometry":{"x":120.3503621497899,"y":22.666424887750274}},{"attributes":{"OBJECTID":20135,"LANDMARKID":"1001200001201","LANDMARKCO":"409","LANDMARKNA":"鳥松區農會","LANDMARKAD":"1001207","ADDRESS":"高雄市鳥松區?埔村神農路525號","TEL":"07-732201","COUNTYNAME":"高雄市","TOWNNAME":"鳥松區","MARKTYPE":"994","Class":"4"},"geometry":{"x":120.38404419511396,"y":22.657304799134266}},{"attributes":{"OBJECTID":20136,"LANDMARKID":"1001200001060","LANDMARKCO":"408","LANDMARKNA":"郵局-鳥松郵局","LANDMARKAD":"1001207","ADDRESS":"高雄市鳥松區中正路311號","TEL":"(07)7321-811","COUNTYNAME":"高雄市","TOWNNAME":"鳥松區","MARKTYPE":"994","Class":"4"},"geometry":{"x":120.36367519685923,"y":22.661502268894324}},{"attributes":{"OBJECTID":20137,"LANDMARKID":"1001200001061","LANDMARKCO":"408","LANDMARKNA":"郵局-鳥松仁美郵局","LANDMARKAD":"1001207","ADDRESS":"高雄市鳥松區學堂路89號","TEL":"(07)7311-412","COUNTYNAME":"高雄市","TOWNNAME":"鳥松區","MARKTYPE":"994","Class":"4"},"geometry":{"x":120.39195878869097,"y":22.658381173609207}},{"attributes":{"OBJECTID":20138,"LANDMARKID":"1001200001200","LANDMARKCO":"409","LANDMARKNA":"鳥松農會-澄清分部","LANDMARKAD":"1001207","ADDRESS":"高雄市鳥松區鳥松村中正路293號","TEL":"07-731-65","COUNTYNAME":"高雄市","TOWNNAME":"鳥松區","MARKTYPE":"994","Class":"4"},"geometry":{"x":120.36374858999946,"y":22.661025560089314}},{"attributes":{"OBJECTID":20139,"LANDMARKID":"1001200001019","LANDMARKCO":"406","LANDMARKNA":"鳥松濕地教育公園","LANDMARKAD":"1001207","ADDRESS":"高雄市鳥松區","TEL":" ","COUNTYNAME":"高雄市","TOWNNAME":"鳥松區","MARKTYPE":"994","Class":"4"},"geometry":{"x":120.3503103916633,"y":22.652233223945238}},{"attributes":{"OBJECTID":20140,"LANDMARKID":"1001200000823","LANDMARKCO":"404","LANDMARKNA":"台灣省自來水第七區高雄屏東管理處","LANDMARKAD":"1001207","ADDRESS":"高雄市鳥松區大埤路32號","TEL":" ","COUNTYNAME":"高雄市","TOWNNAME":"鳥松區","MARKTYPE":"994","Class":"4"},"geometry":{"x":120.35467485618214,"y":22.651906258181583}},{"attributes":{"OBJECTID":20141,"LANDMARKID":"1001200000824","LANDMARKCO":"404","LANDMARKNA":"台灣省自來水澄清湖給水廠","LANDMARKAD":"1001207","ADDRESS":"高雄市鳥松區鳥松村大埤路32號","TEL":" ","COUNTYNAME":"高雄市","TOWNNAME":"鳥松區","MARKTYPE":"994","Class":"4"},"geometry":{"x":120.35467832555895,"y":22.6518877817396}},{"attributes":{"OBJECTID":20142,"LANDMARKID":"1001200000954","LANDMARKCO":"405","LANDMARKNA":"全國加油站-鳥松站（台塑）","LANDMARKAD":"1001207","ADDRESS":"高雄市鳥松區美山路121號","TEL":"07-7335997","COUNTYNAME":"高雄市","TOWNNAME":"鳥松區","MARKTYPE":"994","Class":"4"},"geometry":{"x":120.39161289811916,"y":22.64996944312453}},{"attributes":{"OBJECTID":20143,"LANDMARKID":"1001200000955","LANDMARKCO":"405","LANDMARKNA":"台亞加油站-佑松站（台塑）","LANDMARKAD":"1001207","ADDRESS":"高雄市鳥松區中正路6-5號","TEL":"(07)733-5536","COUNTYNAME":"高雄市","TOWNNAME":"鳥松區","MARKTYPE":"994","Class":"4"},"geometry":{"x":120.36529146350162,"y":22.646016159038748}},{"attributes":{"OBJECTID":20144,"LANDMARKID":"1001200000956","LANDMARKCO":"405","LANDMARKNA":"台亞加油站-鳥松站（台塑）","LANDMARKAD":"1001207","ADDRESS":"高雄市鳥松區中正路44-77號","TEL":"(07)731-9153","COUNTYNAME":"高雄市","TOWNNAME":"鳥松區","MARKTYPE":"994","Class":"4"},"geometry":{"x":120.365465247085,"y":22.654561485646191}},{"attributes":{"OBJECTID":20145,"LANDMARKID":"1001200000170","LANDMARKCO":"107","LANDMARKNA":"高雄市政府警察局大華派出所","LANDMARKAD":"1001207","ADDRESS":"高雄市鳥松區澄清路821號","TEL":"07-3701994","COUNTYNAME":"高雄市","TOWNNAME":"鳥松區","MARKTYPE":"991","Class":"1"},"geometry":{"x":120.34780348221298,"y":22.649963006820222}},{"attributes":{"OBJECTID":20146,"LANDMARKID":"1001200000021","LANDMARKCO":"101","LANDMARKNA":"原子能委員會輻射偵測中心","LANDMARKAD":"1001207","ADDRESS":"高雄市鳥松區澄清路823號","TEL":"07-3703529","COUNTYNAME":"高雄市","TOWNNAME":"鳥松區","MARKTYPE":"991","Class":"1"},"geometry":{"x":120.34814397662454,"y":22.650326959924577}},{"attributes":{"OBJECTID":20147,"LANDMARKID":"1001200000049","LANDMARKCO":"103","LANDMARKNA":"高雄市政府環境保護局","LANDMARKAD":"1001207","ADDRESS":"高雄市鳥松區澄清路834號","TEL":"07-7351500","COUNTYNAME":"高雄市","TOWNNAME":"鳥松區","MARKTYPE":"991","Class":"1"},"geometry":{"x":120.34819861794989,"y":22.649334059434896}},{"attributes":{"OBJECTID":20148,"LANDMARKID":"1001200000050","LANDMARKCO":"103","LANDMARKNA":"高雄市審計室","LANDMARKAD":"1001207","ADDRESS":"高雄市鳳山區南光街237號","TEL":"07-8131501","COUNTYNAME":"高雄市","TOWNNAME":"鳥松區","MARKTYPE":"991","Class":"1"},"geometry":{"x":120.35494470586778,"y":22.650359457105733}},{"attributes":{"OBJECTID":20149,"LANDMARKID":"1001200000051","LANDMARKCO":"103","LANDMARKNA":"高雄市政府性侵害防治中心","LANDMARKAD":"1001207","ADDRESS":"高雄市鳥松區大埤路123號","TEL":"07-7315991","COUNTYNAME":"高雄市","TOWNNAME":"鳥松區","MARKTYPE":"991","Class":"1"},"geometry":{"x":120.35528438075117,"y":22.650452500072145}},{"attributes":{"OBJECTID":20150,"LANDMARKID":"1001200000052","LANDMARKCO":"103","LANDMARKNA":"高雄市鳥松區衛生所","LANDMARKAD":"1001207","ADDRESS":"高雄市鳥松區文前路文北巷一弄4號","TEL":"07-7316404","COUNTYNAME":"高雄市","TOWNNAME":"鳥松區","MARKTYPE":"991","Class":"1"},"geometry":{"x":120.36304050910574,"y":22.663214450387354}},{"attributes":{"OBJECTID":20151,"LANDMARKID":"1001200000053","LANDMARKCO":"103","LANDMARKNA":"高雄市鳥松區鄉民代表會","LANDMARKAD":"1001207","ADDRESS":"高雄市鳥松區中正路98號","TEL":"07-7311483","COUNTYNAME":"高雄市","TOWNNAME":"鳥松區","MARKTYPE":"991","Class":"1"},"geometry":{"x":120.36411997048414,"y":22.659780284595918}},{"attributes":{"OBJECTID":20152,"LANDMARKID":"1001200000297","LANDMARKCO":"108","LANDMARKNA":"高雄市鳥松區公所","LANDMARKAD":"1001207","ADDRESS":"高雄市鳥松區中正路98號","TEL":"07-7314191","COUNTYNAME":"高雄市","TOWNNAME":"鳥松區","MARKTYPE":"991","Class":"1"},"geometry":{"x":120.36424978628449,"y":22.659420078979956}},{"attributes":{"OBJECTID":20153,"LANDMARKID":"1001200000141","LANDMARKCO":"106","LANDMARKNA":"高雄市烏松鄉戶政事務所","LANDMARKAD":"1001207","ADDRESS":"高雄市鳥松區鳥松村8鄰中正路96號","TEL":"07-7316414","COUNTYNAME":"高雄市","TOWNNAME":"鳥松區","MARKTYPE":"991","Class":"1"},"geometry":{"x":120.36430009859076,"y":22.659239860873011}},{"attributes":{"OBJECTID":20154,"LANDMARKID":"1001200000162","LANDMARKCO":"107","LANDMARKNA":"高雄市政府警察局鳥松分駐所","LANDMARKAD":"1001207","ADDRESS":"高雄市鳥松區中正路96號","TEL":"07-7313343","COUNTYNAME":"高雄市","TOWNNAME":"鳥松區","MARKTYPE":"991","Class":"1"},"geometry":{"x":120.36435681429661,"y":22.65942092803073}},{"attributes":{"OBJECTID":20155,"LANDMARKID":"1001200000163","LANDMARKCO":"107","LANDMARKNA":"高雄市消防局鳥松消防分隊","LANDMARKAD":"1001207","ADDRESS":"高雄市鳥松區仁德路11號","TEL":"07-7329759","COUNTYNAME":"高雄市","TOWNNAME":"鳥松區","MARKTYPE":"991","Class":"1"},"geometry":{"x":120.3928162327085,"y":22.651044874182382}},{"attributes":{"OBJECTID":20156,"LANDMARKID":"1001200000164","LANDMARKCO":"107","LANDMARKNA":"高雄市政府警察局仁美派出所","LANDMARKAD":"1001207","ADDRESS":"高雄市鳥松區仁德路16號","TEL":"07-7314057","COUNTYNAME":"高雄市","TOWNNAME":"鳥松區","MARKTYPE":"991","Class":"1"},"geometry":{"x":120.39379205621633,"y":22.653219637907409}},{"attributes":{"OBJECTID":20157,"LANDMARKID":"1001200000594","LANDMARKCO":"204","LANDMARKNA":"高雄市立圖書館鳥松分館","LANDMARKAD":"1001207","ADDRESS":"高雄市鳥松區大仁北路10號","TEL":" ","COUNTYNAME":"高雄市","TOWNNAME":"鳥松區","MARKTYPE":"992","Class":"2"},"geometry":{"x":120.36285791191688,"y":22.663326554196736}},{"attributes":{"OBJECTID":20158,"LANDMARKID":"1001200000332","LANDMARKCO":"202","LANDMARKNA":"縣立文山高中","LANDMARKAD":"1001207","ADDRESS":"高雄市鳥松區大埤路31號","TEL":"07-7477761","COUNTYNAME":"高雄市","TOWNNAME":"鳥松區","MARKTYPE":"992","Class":"2"},"geometry":{"x":120.35315719462591,"y":22.64763583339532}},{"attributes":{"OBJECTID":20159,"LANDMARKID":"1001200000333","LANDMARKCO":"202","LANDMARKNA":"縣立文山高中附設國中部","LANDMARKAD":"1001207","ADDRESS":"高雄市鳥松區大埤路31號","TEL":"07-7477761","COUNTYNAME":"高雄市","TOWNNAME":"鳥松區","MARKTYPE":"992","Class":"2"},"geometry":{"x":120.35350827957976,"y":22.647548356622679}},{"attributes":{"OBJECTID":20160,"LANDMARKID":"1001200000395","LANDMARKCO":"203","LANDMARKNA":"縣立大華國小","LANDMARKAD":"1001207","ADDRESS":"高雄市鳥松區大華村大華路200號","TEL":"07-3701359","COUNTYNAME":"高雄市","TOWNNAME":"鳥松區","MARKTYPE":"992","Class":"2"},"geometry":{"x":120.34000335381511,"y":22.654448640401405}},{"attributes":{"OBJECTID":20161,"LANDMARKID":"1001200000396","LANDMARKCO":"203","LANDMARKNA":"縣立鳥松國小","LANDMARKAD":"1001207","ADDRESS":"高雄市鳥松區鳥松村文前路32號","TEL":"07-7321780","COUNTYNAME":"高雄市","TOWNNAME":"鳥松區","MARKTYPE":"992","Class":"2"},"geometry":{"x":120.36219565676993,"y":22.663027110027237}},{"attributes":{"OBJECTID":20162,"LANDMARKID":"1001200000397","LANDMARKCO":"203","LANDMARKNA":"縣立仁美國小","LANDMARKAD":"1001207","ADDRESS":"高雄市鳥松區仁美村學堂路2號","TEL":"07-7315633","COUNTYNAME":"高雄市","TOWNNAME":"鳥松區","MARKTYPE":"992","Class":"2"},"geometry":{"x":120.39401210823227,"y":22.658639762351829}},{"attributes":{"OBJECTID":20163,"LANDMARKID":"1001200000306","LANDMARKCO":"201","LANDMARKNA":"正修科技大學","LANDMARKAD":"1001207","ADDRESS":"高雄市鳥松區澄清路840號","TEL":"07-7310606","COUNTYNAME":"高雄市","TOWNNAME":"鳥松區","MARKTYPE":"992","Class":"2"},"geometry":{"x":120.34934527448199,"y":22.650878576054772}},{"attributes":{"OBJECTID":20164,"LANDMARKID":"1001200000407","LANDMARKCO":"203","LANDMARKNA":"縣立鳥松國中","LANDMARKAD":"1001207","ADDRESS":"高雄市鳥松區松埔北巷5之1號","TEL":"07-7316162","COUNTYNAME":"高雄市","TOWNNAME":"鳥松區","MARKTYPE":"992","Class":"2"},"geometry":{"x":120.37174072866082,"y":22.666952709166846}},{"attributes":{"OBJECTID":20165,"LANDMARKID":"1001200000655","LANDMARKCO":"303","LANDMARKNA":"澄清湖高爾夫球場停車場","LANDMARKAD":"1001207","ADDRESS":"高雄市鳥松區球場路270號","TEL":" ","COUNTYNAME":"高雄市","TOWNNAME":"鳥松區","MARKTYPE":"993","Class":"303"},"geometry":{"x":120.33917434025862,"y":22.663188571911931}},{"attributes":{"OBJECTID":20166,"LANDMARKID":"1001200000656","LANDMARKCO":"303","LANDMARKNA":"甘霖橋停車場","LANDMARKAD":"1001207","ADDRESS":"高雄市鳥松區","TEL":" ","COUNTYNAME":"高雄市","TOWNNAME":"鳥松區","MARKTYPE":"993","Class":"303"},"geometry":{"x":120.34592378576168,"y":22.658542785117685}},{"attributes":{"OBJECTID":20167,"LANDMARKID":"1001200000657","LANDMARKCO":"303","LANDMARKNA":"攬秀樓停車場","LANDMARKAD":"1001207","ADDRESS":"高雄市鳥松區文前路","TEL":" ","COUNTYNAME":"高雄市","TOWNNAME":"鳥松區","MARKTYPE":"993","Class":"303"},"geometry":{"x":120.34715734830236,"y":22.668495160407929}},{"attributes":{"OBJECTID":20168,"LANDMARKID":"1001200000658","LANDMARKCO":"303","LANDMARKNA":"澄清湖游泳池停車場","LANDMARKAD":"1001207","ADDRESS":"高雄市鳥松區文前路140號","TEL":" ","COUNTYNAME":"高雄市","TOWNNAME":"鳥松區","MARKTYPE":"993","Class":"303"},"geometry":{"x":120.34965415023358,"y":22.669255687576737}},{"attributes":{"OBJECTID":20169,"LANDMARKID":"1001200000659","LANDMARKCO":"303","LANDMARKNA":"澄清湖青年活動中心停車場停車場","LANDMARKAD":"1001207","ADDRESS":"高雄市鳥松區文前路140號","TEL":" ","COUNTYNAME":"高雄市","TOWNNAME":"鳥松區","MARKTYPE":"993","Class":"303"},"geometry":{"x":120.35067832352948,"y":22.668297831637112}},{"attributes":{"OBJECTID":20170,"LANDMARKID":"1001200000660","LANDMARKCO":"303","LANDMARKNA":"長庚醫院第一停車場","LANDMARKAD":"1001207","ADDRESS":"高雄市鳥松區大埤路123號","TEL":"07-7317123","COUNTYNAME":"高雄市","TOWNNAME":"鳥松區","MARKTYPE":"993","Class":"303"},"geometry":{"x":120.35224032516481,"y":22.649722399169079}},{"attributes":{"OBJECTID":20171,"LANDMARKID":"1001200000661","LANDMARKCO":"303","LANDMARKNA":"高雄市勞工育樂中心","LANDMARKAD":"1001207","ADDRESS":"高雄市鳥松區","TEL":" ","COUNTYNAME":"高雄市","TOWNNAME":"鳥松區","MARKTYPE":"993","Class":"303"},"geometry":{"x":120.35462019647973,"y":22.650297541998562}},{"attributes":{"OBJECTID":20172,"LANDMARKID":"1001200000662","LANDMARKCO":"303","LANDMARKNA":"長庚紀念醫院高雄分院訪客第二停車場","LANDMARKAD":"1001207","ADDRESS":"高雄市鳥松區大埤路123號","TEL":"07-7317123","COUNTYNAME":"高雄市","TOWNNAME":"鳥松區","MARKTYPE":"993","Class":"303"},"geometry":{"x":120.35583764957811,"y":22.648390323169327}},{"attributes":{"OBJECTID":20173,"LANDMARKID":"1001200000663","LANDMARKCO":"303","LANDMARKNA":"長庚紀念醫院高雄分院訪客室內停車場","LANDMARKAD":"1001207","ADDRESS":"高雄市鳥松區大埤路123號","TEL":"07-7317123","COUNTYNAME":"高雄市","TOWNNAME":"鳥松區","MARKTYPE":"993","Class":"303"},"geometry":{"x":120.3537923063646,"y":22.649038789082354}},{"attributes":{"OBJECTID":20174,"LANDMARKID":"1001200000664","LANDMARKCO":"303","LANDMARKNA":"勞工局停車場","LANDMARKAD":"1001207","ADDRESS":"高雄市鳥松區","TEL":" ","COUNTYNAME":"高雄市","TOWNNAME":"鳥松區","MARKTYPE":"993","Class":"303"},"geometry":{"x":120.35845384302087,"y":22.651540563318168}},{"attributes":{"OBJECTID":20175,"LANDMARKID":"1001200000665","LANDMARKCO":"303","LANDMARKNA":"勞工公園停車場","LANDMARKAD":"1001207","ADDRESS":"高雄市鳥松區公園路","TEL":" ","COUNTYNAME":"高雄市","TOWNNAME":"鳥松區","MARKTYPE":"993","Class":"303"},"geometry":{"x":120.35901979089503,"y":22.651377412613918}},{"attributes":{"OBJECTID":20176,"LANDMARKID":"1001200001325","LANDMARKCO":"603","LANDMARKNA":"湖畔汽車旅館","LANDMARKAD":"1001207","ADDRESS":"高雄市鳥松區鳥松村忠孝路21號","TEL":"07-7352978","COUNTYNAME":"高雄市","TOWNNAME":"鳥松區","MARKTYPE":"996","Class":"6"},"geometry":{"x":120.36307303982251,"y":22.657930875058909}},{"attributes":{"OBJECTID":20177,"LANDMARKID":"1001200001326","LANDMARKCO":"603","LANDMARKNA":"太湖船汽車旅館","LANDMARKAD":"1001207","ADDRESS":"高雄市鳥松區鳥松村忠誠路208號","TEL":"07-7332491","COUNTYNAME":"高雄市","TOWNNAME":"鳥松區","MARKTYPE":"996","Class":"6"},"geometry":{"x":120.36116058029653,"y":22.658023262102688}},{"attributes":{"OBJECTID":20178,"LANDMARKID":"1001200001327","LANDMARKCO":"603","LANDMARKNA":"亞曼尼經典汽車旅館","LANDMARKAD":"1001207","ADDRESS":"高雄市鳥松區忠誠路105號","TEL":"07-7321313","COUNTYNAME":"高雄市","TOWNNAME":"鳥松區","MARKTYPE":"996","Class":"6"},"geometry":{"x":120.36155097553868,"y":22.655560817977282}},{"attributes":{"OBJECTID":20179,"LANDMARKID":"1001200001324","LANDMARKCO":"601","LANDMARKNA":"高雄圓山大飯店","LANDMARKAD":"1001207","ADDRESS":"高雄市鳥松區大華村圓山路2號","TEL":"07-370-5911","COUNTYNAME":"高雄市","TOWNNAME":"鳥松區","MARKTYPE":"996","Class":"6"},"geometry":{"x":120.34810494817363,"y":22.651493658516834}},{"attributes":{"OBJECTID":20180,"LANDMARKID":"1001200001243","LANDMARKCO":"505","LANDMARKNA":"澄清湖海洋奇珍園","LANDMARKAD":"1001207","ADDRESS":"高雄市鳥松區大埤路32號","TEL":"07-7356166","COUNTYNAME":"高雄市","TOWNNAME":"鳥松區","MARKTYPE":"995","Class":"5"},"geometry":{"x":120.35142796092609,"y":22.655818908069456}},{"attributes":{"OBJECTID":20181,"LANDMARKID":"1001200001301","LANDMARKCO":"510","LANDMARKNA":"高雄高爾夫俱樂部","LANDMARKAD":"1001207","ADDRESS":"高雄市鳥松區大華村球場路270號","TEL":"07-3701101","COUNTYNAME":"高雄市","TOWNNAME":"鳥松區","MARKTYPE":"995","Class":"5"},"geometry":{"x":120.3385161486172,"y":22.663375042453726}},{"attributes":{"OBJECTID":20182,"LANDMARKID":"1001200001302","LANDMARKCO":"510","LANDMARKNA":"澄清湖高爾夫球場","LANDMARKAD":"1001207","ADDRESS":"高雄市鳥松區大華村球場路270號","TEL":"07-3701101","COUNTYNAME":"高雄市","TOWNNAME":"鳥松區","MARKTYPE":"995","Class":"5"},"geometry":{"x":120.33881051122978,"y":22.661213256444473}},{"attributes":{"OBJECTID":20183,"LANDMARKID":"1001200001498","LANDMARKCO":"605","LANDMARKNA":"鳥松區立幼稚園","LANDMARKAD":"1001207","ADDRESS":"高雄市鳥松區","TEL":" ","COUNTYNAME":"高雄市","TOWNNAME":"鳥松區","MARKTYPE":"996","Class":"6"},"geometry":{"x":120.3837188976072,"y":22.655869480628304}},{"attributes":{"OBJECTID":20184,"LANDMARKID":"1001200000983","LANDMARKCO":"405","LANDMARKNA":"台糖加油站-建軍站(中油)","LANDMARKAD":"1001201","ADDRESS":"高雄市鳳山區過埤里鳳頂路602號","TEL":" ","COUNTYNAME":"高雄市","TOWNNAME":"鳳山區","MARKTYPE":"994","Class":"4"},"geometry":{"x":120.36037638198189,"y":22.59828915046738}},{"attributes":{"OBJECTID":20185,"LANDMARKID":"1001200000984","LANDMARKCO":"405","LANDMARKNA":"台糖加油站-建軍站(中油)","LANDMARKAD":"1001201","ADDRESS":"高雄市鳳山區過埤里王生明路一段602號","TEL":"07-7534140","COUNTYNAME":"高雄市","TOWNNAME":"鳳山區","MARKTYPE":"994","Class":"4"},"geometry":{"x":120.36037638198189,"y":22.59828915046738}},{"attributes":{"OBJECTID":20186,"LANDMARKID":"1001200000985","LANDMARKCO":"405","LANDMARKNA":"中油加油站-鳳松站","LANDMARKAD":"1001201","ADDRESS":"高雄市鳳山區武松里鳳松路178-5號","TEL":"07-7431562","COUNTYNAME":"高雄市","TOWNNAME":"鳳山區","MARKTYPE":"994","Class":"4"},"geometry":{"x":120.36290664207611,"y":22.637640041632917}},{"attributes":{"OBJECTID":20187,"LANDMARKID":"1001200000986","LANDMARKCO":"405","LANDMARKNA":"千越加油站-鳳頂站(中油)","LANDMARKAD":"1001201","ADDRESS":"高雄市鳳山區鳳頂路225號","TEL":"07-7961788","COUNTYNAME":"高雄市","TOWNNAME":"鳳山區","MARKTYPE":"994","Class":"4"},"geometry":{"x":120.35912008813996,"y":22.589734174262173}},{"attributes":{"OBJECTID":20188,"LANDMARKID":"1001200000987","LANDMARKCO":"405","LANDMARKNA":"中油加油站-鳳山站","LANDMARKAD":"1001201","ADDRESS":"高雄市鳳山區中山東路10號","TEL":"07-7462492","COUNTYNAME":"高雄市","TOWNNAME":"鳳山區","MARKTYPE":"994","Class":"4"},"geometry":{"x":120.36336475885243,"y":22.620284121583321}},{"attributes":{"OBJECTID":20189,"LANDMARKID":"1001200000988","LANDMARKCO":"405","LANDMARKNA":"台糖加油站-國泰站(中油)","LANDMARKAD":"1001201","ADDRESS":"高雄市鳳山區國泰路一段281號","TEL":" ","COUNTYNAME":"高雄市","TOWNNAME":"鳳山區","MARKTYPE":"994","Class":"4"},"geometry":{"x":120.3536370253194,"y":22.615809512524102}},{"attributes":{"OBJECTID":20190,"LANDMARKID":"1001200000989","LANDMARKCO":"405","LANDMARKNA":"中油加油站-甲洲站","LANDMARKAD":"1001201","ADDRESS":"高雄市鳳山區五甲二路73號","TEL":"07-7669129","COUNTYNAME":"高雄市","TOWNNAME":"鳳山區","MARKTYPE":"994","Class":"4"},"geometry":{"x":120.34312965848179,"y":22.602941528983685}},{"attributes":{"OBJECTID":20191,"LANDMARKID":"1001200000990","LANDMARKCO":"405","LANDMARKNA":"中油加油站-五甲站","LANDMARKAD":"1001201","ADDRESS":"高雄市鳳山區五甲一路232號","TEL":"07-7460364","COUNTYNAME":"高雄市","TOWNNAME":"鳳山區","MARKTYPE":"994","Class":"4"},"geometry":{"x":120.35457960007776,"y":22.618132638578949}},{"attributes":{"OBJECTID":20192,"LANDMARKID":"1001200000991","LANDMARKCO":"405","LANDMARKNA":"千越加油站-武慶站(中油)","LANDMARKAD":"1001201","ADDRESS":"高雄市鳳山區武慶二路306號","TEL":"07-7235899","COUNTYNAME":"高雄市","TOWNNAME":"鳳山區","MARKTYPE":"994","Class":"4"},"geometry":{"x":120.33236897390579,"y":22.617293588343497}},{"attributes":{"OBJECTID":20193,"LANDMARKID":"1001200000992","LANDMARKCO":"405","LANDMARKNA":"中油加油站-上源站","LANDMARKAD":"1001201","ADDRESS":"高雄市鳳山區鳳林路91號","TEL":"07-7013934","COUNTYNAME":"高雄市","TOWNNAME":"鳳山區","MARKTYPE":"994","Class":"4"},"geometry":{"x":120.37452196090067,"y":22.622585608313422}},{"attributes":{"OBJECTID":20194,"LANDMARKID":"1001200000796","LANDMARKCO":"402","LANDMARKNA":"My Phone台灣大哥大-鳳山五甲直營服務中心","LANDMARKAD":"1001201","ADDRESS":"高雄市鳳山區五甲二路535號","TEL":"0809-000-166","COUNTYNAME":"高雄市","TOWNNAME":"鳳山區","MARKTYPE":"994","Class":"4"},"geometry":{"x":120.33228650193811,"y":22.595999239985844}},{"attributes":{"OBJECTID":20195,"LANDMARKID":"1001200000797","LANDMARKCO":"402","LANDMARKNA":"My Phone台灣大哥大-高雄鳳山直營服務中心","LANDMARKAD":"1001201","ADDRESS":"高雄市鳳山區中山路148號之1","TEL":"0809-000-166","COUNTYNAME":"高雄市","TOWNNAME":"鳳山區","MARKTYPE":"994","Class":"4"},"geometry":{"x":120.35677895303144,"y":22.625654944191478}},{"attributes":{"OBJECTID":20196,"LANDMARKID":"1001200000798","LANDMARKCO":"402","LANDMARKNA":"My Phone台灣大哥大-鳳山青年二直營服務中心","LANDMARKAD":"1001201","ADDRESS":"高雄市鳳山區文德里青年路二段474號","TEL":" ","COUNTYNAME":"高雄市","TOWNNAME":"鳳山區","MARKTYPE":"994","Class":"4"},"geometry":{"x":120.3513279046683,"y":22.64424241242796}},{"attributes":{"OBJECTID":20197,"LANDMARKID":"1001200000799","LANDMARKCO":"402","LANDMARKNA":"亞太行動寬頻電信-高雄市","LANDMARKAD":"1001201","ADDRESS":"高雄市鳳山區中山路62-1號","TEL":" ","COUNTYNAME":"高雄市","TOWNNAME":"鳳山區","MARKTYPE":"994","Class":"4"},"geometry":{"x":120.35977662323073,"y":22.62190179984081}},{"attributes":{"OBJECTID":20198,"LANDMARKID":"1001200000800","LANDMARKCO":"402","LANDMARKNA":"亞太行動寬頻電信-鳳山自由加盟服務中心","LANDMARKAD":"1001201","ADDRESS":"高雄市鳳山區自由路261號","TEL":"07-7105557","COUNTYNAME":"高雄市","TOWNNAME":"鳳山區","MARKTYPE":"994","Class":"4"},"geometry":{"x":120.34947594757261,"y":22.625436188321597}},{"attributes":{"OBJECTID":20199,"LANDMARKID":"1001200000801","LANDMARKCO":"402","LANDMARKNA":"亞太行動寬頻電信-鳳山中山東加盟服務中心","LANDMARKAD":"1001201","ADDRESS":"高雄市鳳山區中山東路86之8號","TEL":"07-7991198","COUNTYNAME":"高雄市","TOWNNAME":"鳳山區","MARKTYPE":"994","Class":"4"},"geometry":{"x":120.37227384532454,"y":22.6246792351164}},{"attributes":{"OBJECTID":20200,"LANDMARKID":"1001200000802","LANDMARKCO":"402","LANDMARKNA":"亞太行動寬頻電信-鳳山五甲三加盟服務中心","LANDMARKAD":"1001201","ADDRESS":"高雄市鳳山區五甲三路57號","TEL":"07-7688233","COUNTYNAME":"高雄市","TOWNNAME":"鳳山區","MARKTYPE":"994","Class":"4"},"geometry":{"x":120.3271524462866,"y":22.592398065756139}}]}