{"displayFieldName":"COUNTYNAME","fieldAliases":{"OBJECTID":"OBJECTID","LANDMARKID":"LANDMARKID","LANDMARKCO":"LANDMARKCO","LANDMARKNA":"LANDMARKNA","LANDMARKAD":"LANDMARKAD","ADDRESS":"ADDRESS","TEL":"TEL","COUNTYNAME":"COUNTYNAME","TOWNNAME":"TOWNNAME","MARKTYPE":"MARKTYPE","Class":"Class"},"geometryType":"esriGeometryPoint","spatialReference":{"wkid":4326},"fields":[{"name":"OBJECTID","type":"esriFieldTypeOID","alias":"OBJECTID"},{"name":"LANDMARKID","type":"esriFieldTypeString","alias":"LANDMARKID","length":15},{"name":"LANDMARKCO","type":"esriFieldTypeString","alias":"LANDMARKCO","length":15},{"name":"LANDMARKNA","type":"esriFieldTypeString","alias":"LANDMARKNA","length":50},{"name":"LANDMARKAD","type":"esriFieldTypeString","alias":"LANDMARKAD","length":15},{"name":"ADDRESS","type":"esriFieldTypeString","alias":"ADDRESS","length":56},{"name":"TEL","type":"esriFieldTypeString","alias":"TEL","length":36},{"name":"COUNTYNAME","type":"esriFieldTypeString","alias":"COUNTYNAME","length":15},{"name":"TOWNNAME","type":"esriFieldTypeString","alias":"TOWNNAME","length":13},{"name":"MARKTYPE","type":"esriFieldTypeString","alias":"MARKTYPE","length":12},{"name":"Class","type":"esriFieldTypeString","alias":"Class","length":5}],"features":[{"attributes":{"OBJECTID":15001,"LANDMARKID":"1001300000583","LANDMARKCO":"203","LANDMARKNA":"縣立霧台國小佳暮分校(廢)","LANDMARKAD":"1001327","ADDRESS":"屏東縣霧台鄉","TEL":" ","COUNTYNAME":"屏東縣","TOWNNAME":"霧台鄉","MARKTYPE":"992","Class":"2"},"geometry":{"x":120.72566420683809,"y":22.765205606646315}},{"attributes":{"OBJECTID":15002,"LANDMARKID":"1001300001406","LANDMARKCO":"604","LANDMARKNA":"拉瀑灣民宿","LANDMARKAD":"1001327","ADDRESS":"屏東縣霧台鄉大武村東川巷48-1號","TEL":"08-7902397","COUNTYNAME":"屏東縣","TOWNNAME":"霧台鄉","MARKTYPE":"996","Class":"6"},"geometry":{"x":120.76013614760629,"y":22.754434576928585}},{"attributes":{"OBJECTID":15003,"LANDMARKID":"1001300001407","LANDMARKCO":"604","LANDMARKNA":"好茶故事民宿","LANDMARKAD":"1001327","ADDRESS":"屏東縣霧台鄉好茶村行政巷19號","TEL":"08-7992205","COUNTYNAME":"屏東縣","TOWNNAME":"霧台鄉","MARKTYPE":"996","Class":"6"},"geometry":{"x":120.70873990620341,"y":22.690769124803811}},{"attributes":{"OBJECTID":15004,"LANDMARKID":"1001300001408","LANDMARKCO":"604","LANDMARKNA":"夢想之家","LANDMARKAD":"1001327","ADDRESS":"屏東縣霧台鄉霧台村中山巷38號","TEL":"08-7902312","COUNTYNAME":"屏東縣","TOWNNAME":"霧台鄉","MARKTYPE":"996","Class":"6"},"geometry":{"x":120.73215213082226,"y":22.744907565587109}},{"attributes":{"OBJECTID":15005,"LANDMARKID":"1001300001409","LANDMARKCO":"604","LANDMARKNA":"神山民宿山莊","LANDMARKAD":"1001327","ADDRESS":"屏東縣霧台鄉霧台村中山巷58號","TEL":"08-7902206","COUNTYNAME":"屏東縣","TOWNNAME":"霧台鄉","MARKTYPE":"996","Class":"6"},"geometry":{"x":120.72813542624992,"y":22.752845941254236}},{"attributes":{"OBJECTID":15006,"LANDMARKID":"1001300001410","LANDMARKCO":"604","LANDMARKNA":"樂的蘭民宿","LANDMARKAD":"1001327","ADDRESS":"屏東縣霧台鄉霧台村岩板巷37號","TEL":"08-7902317","COUNTYNAME":"屏東縣","TOWNNAME":"霧台鄉","MARKTYPE":"996","Class":"6"},"geometry":{"x":120.73182447696836,"y":22.742648728325612}},{"attributes":{"OBJECTID":15007,"LANDMARKID":"1001300001411","LANDMARKCO":"604","LANDMARKNA":"撒拉伯民宿","LANDMARKAD":"1001327","ADDRESS":"屏東縣霧台鄉霧台村神山巷14-6號","TEL":"08-7902277","COUNTYNAME":"屏東縣","TOWNNAME":"霧台鄉","MARKTYPE":"996","Class":"6"},"geometry":{"x":120.72610816016312,"y":22.751940684750409}},{"attributes":{"OBJECTID":15008,"LANDMARKID":"1001300001004","LANDMARKCO":"405","LANDMARKNA":"中油加油站-新圍站","LANDMARKAD":"1001310","ADDRESS":"屏東縣鹽埔鄉新二村維新路29-5號","TEL":"08-7935968","COUNTYNAME":"屏東縣","TOWNNAME":"鹽埔鄉","MARKTYPE":"994","Class":"4"},"geometry":{"x":120.54276848314169,"y":22.727933204373972}},{"attributes":{"OBJECTID":15009,"LANDMARKID":"1001300001005","LANDMARKCO":"405","LANDMARKNA":"中油加油站-鹽埔站(中油直營)","LANDMARKAD":"1001310","ADDRESS":"屏東縣鹽埔鄉鹽中村勝利路25號","TEL":"08-7932507","COUNTYNAME":"屏東縣","TOWNNAME":"鹽埔鄉","MARKTYPE":"994","Class":"4"},"geometry":{"x":120.5702809753265,"y":22.753226893810002}},{"attributes":{"OBJECTID":15010,"LANDMARKID":"1001300001110","LANDMARKCO":"408","LANDMARKNA":"郵局-鹽埔郵局","LANDMARKAD":"1001310","ADDRESS":"屏東縣鹽埔鄉新二村彭厝路39號","TEL":"(08)7932-247","COUNTYNAME":"屏東縣","TOWNNAME":"鹽埔鄉","MARKTYPE":"994","Class":"4"},"geometry":{"x":120.5561031378878,"y":22.742175292288543}},{"attributes":{"OBJECTID":15011,"LANDMARKID":"1001300001111","LANDMARKCO":"408","LANDMARKNA":"郵局-鹽埔鹽中郵局","LANDMARKAD":"1001310","ADDRESS":"屏東縣鹽埔鄉鹽中村勝利路81-2號","TEL":"(08)7935-572","COUNTYNAME":"屏東縣","TOWNNAME":"鹽埔鄉","MARKTYPE":"994","Class":"4"},"geometry":{"x":120.57562768375291,"y":22.756497228630831}},{"attributes":{"OBJECTID":15012,"LANDMARKID":"1001300000133","LANDMARKCO":"106","LANDMARKNA":"屏東縣鹽埔鄉戶政事務所","LANDMARKAD":"1001310","ADDRESS":"屏東縣鹽埔鄉鹽中村8鄰中山路37號","TEL":"08-7932124","COUNTYNAME":"屏東縣","TOWNNAME":"鹽埔鄉","MARKTYPE":"991","Class":"1"},"geometry":{"x":120.57702907976517,"y":22.757764476223382}},{"attributes":{"OBJECTID":15013,"LANDMARKID":"1001300000267","LANDMARKCO":"107","LANDMARKNA":"屏東縣警察局新圍派出所","LANDMARKAD":"1001310","ADDRESS":"屏東縣鹽埔鄉新圍村維新路129號","TEL":"08-7932244","COUNTYNAME":"屏東縣","TOWNNAME":"鹽埔鄉","MARKTYPE":"991","Class":"1"},"geometry":{"x":120.55702293531654,"y":22.741092197128477}},{"attributes":{"OBJECTID":15014,"LANDMARKID":"1001300000268","LANDMARKCO":"107","LANDMARKNA":"屏東縣警察局鹽埔分駐所","LANDMARKAD":"1001310","ADDRESS":"屏東縣鹽埔鄉鹽埔村中山路41號","TEL":"08-7932224","COUNTYNAME":"屏東縣","TOWNNAME":"鹽埔鄉","MARKTYPE":"991","Class":"1"},"geometry":{"x":120.57677535146622,"y":22.757853440499282}},{"attributes":{"OBJECTID":15015,"LANDMARKID":"1001300000269","LANDMARKCO":"107","LANDMARKNA":"屏東縣警察局振興派出所","LANDMARKAD":"1001310","ADDRESS":"屏東縣鹽埔鄉振興村中正路6號","TEL":"08-7020234","COUNTYNAME":"屏東縣","TOWNNAME":"鹽埔鄉","MARKTYPE":"991","Class":"1"},"geometry":{"x":120.61360489731389,"y":22.723628494257429}},{"attributes":{"OBJECTID":15016,"LANDMARKID":"1001300000106","LANDMARKCO":"103","LANDMARKNA":"屏東縣鹽埔鄉鄉民代表會","LANDMARKAD":"1001310","ADDRESS":"屏東縣鹽埔鄉彭厝村勝利街19號","TEL":"08-7935503","COUNTYNAME":"屏東縣","TOWNNAME":"鹽埔鄉","MARKTYPE":"991","Class":"1"},"geometry":{"x":120.54765388003534,"y":22.747204066200791}},{"attributes":{"OBJECTID":15017,"LANDMARKID":"1001300000311","LANDMARKCO":"108","LANDMARKNA":"屏東縣鹽埔鄉公所","LANDMARKAD":"1001310","ADDRESS":"屏東縣鹽埔鄉鹽南村勝利路32號","TEL":"08-7932126","COUNTYNAME":"屏東縣","TOWNNAME":"鹽埔鄉","MARKTYPE":"991","Class":"1"},"geometry":{"x":120.57271766096551,"y":22.754407523883174}},{"attributes":{"OBJECTID":15018,"LANDMARKID":"1001300000105","LANDMARKCO":"103","LANDMARKNA":"屏東縣鹽埔鄉衛生所","LANDMARKAD":"1001310","ADDRESS":"屏東縣鹽埔鄉北村勝利路187號","TEL":"08-7932474","COUNTYNAME":"屏東縣","TOWNNAME":"鹽埔鄉","MARKTYPE":"991","Class":"1"},"geometry":{"x":120.5763538390421,"y":22.758560109324652}},{"attributes":{"OBJECTID":15019,"LANDMARKID":"1001300000348","LANDMARKCO":"202","LANDMARKNA":"國立屏北高中","LANDMARKAD":"1001310","ADDRESS":"屏東縣鹽埔鄉彭厝村莒光路168號","TEL":"08-7937493","COUNTYNAME":"屏東縣","TOWNNAME":"鹽埔鄉","MARKTYPE":"992","Class":"2"},"geometry":{"x":120.54497868417283,"y":22.75965928205207}},{"attributes":{"OBJECTID":15020,"LANDMARKID":"1001300000586","LANDMARKCO":"203","LANDMARKNA":"縣立鹽埔國中","LANDMARKAD":"1001310","ADDRESS":"屏東縣鹽埔鄉鹽南村勝利路30號","TEL":"08-7932001","COUNTYNAME":"屏東縣","TOWNNAME":"鹽埔鄉","MARKTYPE":"992","Class":"2"},"geometry":{"x":120.57407615541082,"y":22.753601998148731}},{"attributes":{"OBJECTID":15021,"LANDMARKID":"1001300000587","LANDMARKCO":"203","LANDMARKNA":"縣立彭厝國小","LANDMARKAD":"1001310","ADDRESS":"屏東縣鹽埔鄉洛陽村七份路21號","TEL":"08-7931509","COUNTYNAME":"屏東縣","TOWNNAME":"鹽埔鄉","MARKTYPE":"992","Class":"2"},"geometry":{"x":120.531384551261,"y":22.739933714909068}},{"attributes":{"OBJECTID":15022,"LANDMARKID":"1001300000588","LANDMARKCO":"203","LANDMARKNA":"縣立高朗國小","LANDMARKAD":"1001310","ADDRESS":"屏東縣鹽埔鄉高朗村民治路37號","TEL":"08-7932444","COUNTYNAME":"屏東縣","TOWNNAME":"鹽埔鄉","MARKTYPE":"992","Class":"2"},"geometry":{"x":120.58269557687314,"y":22.735561435857637}},{"attributes":{"OBJECTID":15023,"LANDMARKID":"1001300000589","LANDMARKCO":"203","LANDMARKNA":"縣立振興國小","LANDMARKAD":"1001310","ADDRESS":"屏東縣鹽埔鄉振興村光明路36號","TEL":"08-7020501","COUNTYNAME":"屏東縣","TOWNNAME":"鹽埔鄉","MARKTYPE":"992","Class":"2"},"geometry":{"x":120.61009572557086,"y":22.725785649528451}},{"attributes":{"OBJECTID":15024,"LANDMARKID":"1001300000590","LANDMARKCO":"203","LANDMARKNA":"縣立鹽埔國小","LANDMARKAD":"1001310","ADDRESS":"屏東縣鹽埔鄉鹽南村光復路90號","TEL":"08-7932271","COUNTYNAME":"屏東縣","TOWNNAME":"鹽埔鄉","MARKTYPE":"992","Class":"2"},"geometry":{"x":120.57621095551062,"y":22.753244703598206}},{"attributes":{"OBJECTID":15025,"LANDMARKID":"1001300000591","LANDMARKCO":"203","LANDMARKNA":"縣立仕絨國小","LANDMARKAD":"1001310","ADDRESS":"屏東縣鹽埔鄉仕絨村東平街11號","TEL":"08-7932544","COUNTYNAME":"屏東縣","TOWNNAME":"鹽埔鄉","MARKTYPE":"992","Class":"2"},"geometry":{"x":120.55840304953867,"y":22.758792548044106}},{"attributes":{"OBJECTID":15026,"LANDMARKID":"1001300000347","LANDMARKCO":"201","LANDMARKNA":"大仁科技大學","LANDMARKAD":"1001310","ADDRESS":"屏東縣鹽埔鄉維新路20號","TEL":"08-7624002","COUNTYNAME":"屏東縣","TOWNNAME":"鹽埔鄉","MARKTYPE":"992","Class":"2"},"geometry":{"x":120.54311856257048,"y":22.726872454437199}},{"attributes":{"OBJECTID":15027,"LANDMARKID":"1001300000592","LANDMARKCO":"203","LANDMARKNA":"縣立新圍國小","LANDMARKAD":"1001310","ADDRESS":"屏東縣鹽埔鄉新二村維新67號","TEL":"08-7932269","COUNTYNAME":"屏東縣","TOWNNAME":"鹽埔鄉","MARKTYPE":"992","Class":"2"},"geometry":{"x":120.55369409556242,"y":22.738539241292834}},{"attributes":{"OBJECTID":15028,"LANDMARKID":"1001300000885","LANDMARKCO":"402","LANDMARKNA":"中華電信-鹽埔服務中心","LANDMARKAD":"1001310","ADDRESS":"屏東縣鹽埔鄉興學路3號","TEL":"(08)744-6880","COUNTYNAME":"屏東縣","TOWNNAME":"鹽埔鄉","MARKTYPE":"994","Class":"4"},"geometry":{"x":120.57483403000462,"y":22.754333025624941}},{"attributes":{"OBJECTID":15029,"LANDMARKID":"1001300000886","LANDMARKCO":"402","LANDMARKNA":"威寶電信-鹽埔維新特約服務中心","LANDMARKAD":"1001310","ADDRESS":"屏東縣鹽埔鄉維新路88之1號","TEL":"08-7938553","COUNTYNAME":"屏東縣","TOWNNAME":"鹽埔鄉","MARKTYPE":"994","Class":"4"},"geometry":{"x":120.55720367889046,"y":22.740736477488994}},{"attributes":{"OBJECTID":15030,"LANDMARKID":"1001300001002","LANDMARKCO":"405","LANDMARKNA":"中油加油站-九如站","LANDMARKAD":"1001308","ADDRESS":"屏東縣九如鄉九如路二段26號","TEL":"08-7390237","COUNTYNAME":"屏東縣","TOWNNAME":"九如鄉","MARKTYPE":"994","Class":"4"},"geometry":{"x":120.48918457040678,"y":22.728152308383262}},{"attributes":{"OBJECTID":15031,"LANDMARKID":"1001300001003","LANDMARKCO":"405","LANDMARKNA":"中油加油站-九如東寧站(中油直營)","LANDMARKAD":"1001308","ADDRESS":"屏東縣九如鄉東寧村九如路一段16號","TEL":"08-7390078","COUNTYNAME":"屏東縣","TOWNNAME":"九如鄉","MARKTYPE":"994","Class":"4"},"geometry":{"x":120.48889199974602,"y":22.720112882001828}},{"attributes":{"OBJECTID":15032,"LANDMARKID":"1001300001112","LANDMARKCO":"408","LANDMARKNA":"郵局-九如郵局","LANDMARKAD":"1001308","ADDRESS":"屏東縣九如鄉東寧路190號","TEL":"(08)7392-914","COUNTYNAME":"屏東縣","TOWNNAME":"九如鄉","MARKTYPE":"994","Class":"4"},"geometry":{"x":120.490560396001,"y":22.733765569802767}},{"attributes":{"OBJECTID":15033,"LANDMARKID":"1001300001180","LANDMARKCO":"409","LANDMARKNA":"屏東縣九如鄉農會","LANDMARKAD":"1001308","ADDRESS":"屏東縣九如鄉九如路二段207號","TEL":"08-7392224-5","COUNTYNAME":"屏東縣","TOWNNAME":"九如鄉","MARKTYPE":"994","Class":"4"},"geometry":{"x":120.48914290732694,"y":22.735912724610262}},{"attributes":{"OBJECTID":15034,"LANDMARKID":"1001300001037","LANDMARKCO":"406","LANDMARKNA":"九如環保公園","LANDMARKAD":"1001308","ADDRESS":"屏東縣九如鄉","TEL":" ","COUNTYNAME":"屏東縣","TOWNNAME":"九如鄉","MARKTYPE":"994","Class":"4"},"geometry":{"x":120.47646673790544,"y":22.726635833694804}},{"attributes":{"OBJECTID":15035,"LANDMARKID":"1001300001038","LANDMARKCO":"406","LANDMARKNA":"冷水坑公墓公園","LANDMARKAD":"1001308","ADDRESS":"屏東縣九如鄉","TEL":" ","COUNTYNAME":"屏東縣","TOWNNAME":"九如鄉","MARKTYPE":"994","Class":"4"},"geometry":{"x":120.47126698461142,"y":22.704698941323272}},{"attributes":{"OBJECTID":15036,"LANDMARKID":"1001300001027","LANDMARKCO":"405","LANDMARKNA":"全國加油站-九如交流道站（台塑）","LANDMARKAD":"1001308","ADDRESS":"屏東縣九如鄉九如路二段326號","TEL":"08-7721616","COUNTYNAME":"屏東縣","TOWNNAME":"九如鄉","MARKTYPE":"994","Class":"4"},"geometry":{"x":120.49003484141541,"y":22.738453080380339}},{"attributes":{"OBJECTID":15037,"LANDMARKID":"1001300000132","LANDMARKCO":"106","LANDMARKNA":"屏東縣九如鄉戶政事務所","LANDMARKAD":"1001308","ADDRESS":"屏東縣九如鄉九清村九如路二段418號","TEL":"08-7392735","COUNTYNAME":"屏東縣","TOWNNAME":"九如鄉","MARKTYPE":"991","Class":"1"},"geometry":{"x":120.49052492098156,"y":22.740714548474266}},{"attributes":{"OBJECTID":15038,"LANDMARKID":"1001300000270","LANDMARKCO":"107","LANDMARKNA":"屏東縣消防局九如消防分隊","LANDMARKAD":"1001308","ADDRESS":"屏東縣九如鄉九如路二段412號","TEL":"08-7390071","COUNTYNAME":"屏東縣","TOWNNAME":"九如鄉","MARKTYPE":"991","Class":"1"},"geometry":{"x":120.49050039841005,"y":22.740082229936547}},{"attributes":{"OBJECTID":15039,"LANDMARKID":"1001300000271","LANDMARKCO":"107","LANDMARKNA":"屏東縣警察局九如分駐所","LANDMARKAD":"1001308","ADDRESS":"屏東縣九如鄉九清村九如路二段177號","TEL":"08-7392424","COUNTYNAME":"屏東縣","TOWNNAME":"九如鄉","MARKTYPE":"991","Class":"1"},"geometry":{"x":120.48893274709854,"y":22.733389425931321}},{"attributes":{"OBJECTID":15040,"LANDMARKID":"1001300000107","LANDMARKCO":"103","LANDMARKNA":"屏東縣九如鄉衛生所","LANDMARKAD":"1001308","ADDRESS":"屏東縣九如鄉九如路二段247號","TEL":"08-7392006","COUNTYNAME":"屏東縣","TOWNNAME":"九如鄉","MARKTYPE":"991","Class":"1"},"geometry":{"x":120.48916573851295,"y":22.73610018272273}},{"attributes":{"OBJECTID":15041,"LANDMARKID":"1001300000108","LANDMARKCO":"103","LANDMARKNA":"屏東縣九如鄉鄉民代表會","LANDMARKAD":"1001308","ADDRESS":"屏東縣九如鄉九如路二段416號","TEL":"08-7390051","COUNTYNAME":"屏東縣","TOWNNAME":"九如鄉","MARKTYPE":"991","Class":"1"},"geometry":{"x":120.4904399751895,"y":22.740352771008016}},{"attributes":{"OBJECTID":15042,"LANDMARKID":"1001300000310","LANDMARKCO":"108","LANDMARKNA":"屏東縣九如鄉公所","LANDMARKAD":"1001308","ADDRESS":"屏東縣九如鄉九如路二段416號","TEL":"08-7392210","COUNTYNAME":"屏東縣","TOWNNAME":"九如鄉","MARKTYPE":"991","Class":"1"},"geometry":{"x":120.4904399751895,"y":22.740352771008016}},{"attributes":{"OBJECTID":15043,"LANDMARKID":"1001300000635","LANDMARKCO":"204","LANDMARKNA":"屏東縣立圖書館九如分館","LANDMARKAD":"1001308","ADDRESS":"屏東縣九如鄉九如路二段264號","TEL":" ","COUNTYNAME":"屏東縣","TOWNNAME":"九如鄉","MARKTYPE":"992","Class":"2"},"geometry":{"x":120.4894381353425,"y":22.734836039030416}},{"attributes":{"OBJECTID":15044,"LANDMARKID":"1001300000628","LANDMARKCO":"203","LANDMARKNA":"縣立九如國中","LANDMARKAD":"1001308","ADDRESS":"屏東縣九如鄉玉水路26號","TEL":"08-7392404","COUNTYNAME":"屏東縣","TOWNNAME":"九如鄉","MARKTYPE":"992","Class":"2"},"geometry":{"x":120.48625393540874,"y":22.717396662127225}},{"attributes":{"OBJECTID":15045,"LANDMARKID":"1001300000629","LANDMARKCO":"203","LANDMARKNA":"縣立三多國小","LANDMARKAD":"1001308","ADDRESS":"屏東縣九如鄉三塊村三民路307號","TEL":"08-7756229","COUNTYNAME":"屏東縣","TOWNNAME":"九如鄉","MARKTYPE":"992","Class":"2"},"geometry":{"x":120.48560844221356,"y":22.748738296422143}},{"attributes":{"OBJECTID":15046,"LANDMARKID":"1001300000630","LANDMARKCO":"203","LANDMARKNA":"縣立九如國小","LANDMARKAD":"1001308","ADDRESS":"屏東縣九如鄉九如路二段266號","TEL":"08-7392159","COUNTYNAME":"屏東縣","TOWNNAME":"九如鄉","MARKTYPE":"992","Class":"2"},"geometry":{"x":120.48955347527649,"y":22.735018953015029}},{"attributes":{"OBJECTID":15047,"LANDMARKID":"1001300000631","LANDMARKCO":"203","LANDMARKNA":"縣立後庄國小","LANDMARKAD":"1001308","ADDRESS":"屏東縣九如鄉耆老村中正路2號","TEL":"08-7750861","COUNTYNAME":"屏東縣","TOWNNAME":"九如鄉","MARKTYPE":"992","Class":"2"},"geometry":{"x":120.50069423223729,"y":22.755102542145636}},{"attributes":{"OBJECTID":15048,"LANDMARKID":"1001300000632","LANDMARKCO":"203","LANDMARKNA":"縣立惠農國小","LANDMARKAD":"1001308","ADDRESS":"屏東縣九如鄉東寧村新庄路1號","TEL":"08-7392805","COUNTYNAME":"屏東縣","TOWNNAME":"九如鄉","MARKTYPE":"992","Class":"2"},"geometry":{"x":120.49893817233541,"y":22.724214957303971}},{"attributes":{"OBJECTID":15049,"LANDMARKID":"1001300000633","LANDMARKCO":"203","LANDMARKNA":"縣立九塊國小大厝分校","LANDMARKAD":"1001308","ADDRESS":"屏東縣九如鄉","TEL":" ","COUNTYNAME":"屏東縣","TOWNNAME":"九如鄉","MARKTYPE":"992","Class":"2"},"geometry":{"x":120.47629173392195,"y":22.743814775067186}},{"attributes":{"OBJECTID":15050,"LANDMARKID":"1001300000634","LANDMARKCO":"203","LANDMARKNA":"縣立惠農國小玉水分班","LANDMARKAD":"1001308","ADDRESS":"屏東縣九如鄉","TEL":" ","COUNTYNAME":"屏東縣","TOWNNAME":"九如鄉","MARKTYPE":"992","Class":"2"},"geometry":{"x":120.48266733997399,"y":22.715933028807555}},{"attributes":{"OBJECTID":15051,"LANDMARKID":"1001300000814","LANDMARKCO":"308","LANDMARKNA":"國3-九如交流道-西行","LANDMARKAD":"1001308","ADDRESS":"屏東縣九如鄉","TEL":" ","COUNTYNAME":"屏東縣","TOWNNAME":"九如鄉","MARKTYPE":"993","Class":"308"},"geometry":{"x":120.48993635391206,"y":22.753858510550536}},{"attributes":{"OBJECTID":15052,"LANDMARKID":"1001300000815","LANDMARKCO":"308","LANDMARKNA":"國3-九如交流道-東行","LANDMARKAD":"1001308","ADDRESS":"屏東縣九如鄉","TEL":" ","COUNTYNAME":"屏東縣","TOWNNAME":"九如鄉","MARKTYPE":"993","Class":"308"},"geometry":{"x":120.49361202375215,"y":22.752646623176737}},{"attributes":{"OBJECTID":15053,"LANDMARKID":"1001300001361","LANDMARKCO":"603","LANDMARKNA":"歐洲花園汽車旅館","LANDMARKAD":"1001308","ADDRESS":"屏東縣九如鄉九如村忠孝街111號1-2樓","TEL":"08-7395898","COUNTYNAME":"屏東縣","TOWNNAME":"九如鄉","MARKTYPE":"996","Class":"6"},"geometry":{"x":120.48179347337603,"y":22.729040070340666}},{"attributes":{"OBJECTID":15054,"LANDMARKID":"1001300001362","LANDMARKCO":"603","LANDMARKNA":"震點樂時尚旅店","LANDMARKAD":"1001308","ADDRESS":"屏東縣九如鄉東寧村林森路17號1-3樓","TEL":"08-7396969","COUNTYNAME":"屏東縣","TOWNNAME":"九如鄉","MARKTYPE":"996","Class":"6"},"geometry":{"x":120.49550892990193,"y":22.736037016654038}},{"attributes":{"OBJECTID":15055,"LANDMARKID":"1001300001028","LANDMARKCO":"405","LANDMARKNA":"中油加油站-永峰站","LANDMARKAD":"1001306","ADDRESS":"屏東縣長治鄉香潭路24號","TEL":"08-7210277","COUNTYNAME":"屏東縣","TOWNNAME":"長治鄉","MARKTYPE":"994","Class":"4"},"geometry":{"x":120.51962260753498,"y":22.668912208225727}},{"attributes":{"OBJECTID":15056,"LANDMARKID":"1001300001029","LANDMARKCO":"405","LANDMARKNA":"中油加油站-肯得力長治站","LANDMARKAD":"1001306","ADDRESS":"屏東縣長治鄉繁華村水源路98-36號","TEL":"08-7627688","COUNTYNAME":"屏東縣","TOWNNAME":"長治鄉","MARKTYPE":"994","Class":"4"},"geometry":{"x":120.56478633738088,"y":22.699658219416268}},{"attributes":{"OBJECTID":15057,"LANDMARKID":"1001300001030","LANDMARKCO":"405","LANDMARKNA":"中油加油站-華友站","LANDMARKAD":"1001306","ADDRESS":"屏東縣長治鄉德協村中興路746號","TEL":"08-7627253","COUNTYNAME":"屏東縣","TOWNNAME":"長治鄉","MARKTYPE":"994","Class":"4"},"geometry":{"x":120.5536393012659,"y":22.695563571670064}},{"attributes":{"OBJECTID":15058,"LANDMARKID":"1001300001031","LANDMARKCO":"405","LANDMARKNA":"中油加油站-長治站(中油直營)","LANDMARKAD":"1001306","ADDRESS":"屏東縣長治鄉崙上村中興路549號","TEL":"08-7622443","COUNTYNAME":"屏東縣","TOWNNAME":"長治鄉","MARKTYPE":"994","Class":"4"},"geometry":{"x":120.53851554934707,"y":22.692454775761302}},{"attributes":{"OBJECTID":15059,"LANDMARKID":"1001300001032","LANDMARKCO":"405","LANDMARKNA":"中油加油站-整樹長治站","LANDMARKAD":"1001306","ADDRESS":"屏東縣長治鄉繁榮村水源路159號","TEL":"08-7629300","COUNTYNAME":"屏東縣","TOWNNAME":"長治鄉","MARKTYPE":"994","Class":"4"},"geometry":{"x":120.56151590653219,"y":22.698112687704466}},{"attributes":{"OBJECTID":15060,"LANDMARKID":"1001300001033","LANDMARKCO":"405","LANDMARKNA":"中油加油站-能友站","LANDMARKAD":"1001306","ADDRESS":"屏東縣長治鄉信義路1348號","TEL":"08-7626033","COUNTYNAME":"屏東縣","TOWNNAME":"長治鄉","MARKTYPE":"994","Class":"4"},"geometry":{"x":120.59133634895811,"y":22.691152308362973}},{"attributes":{"OBJECTID":15061,"LANDMARKID":"1001300001107","LANDMARKCO":"408","LANDMARKNA":"郵局-長治郵局","LANDMARKAD":"1001306","ADDRESS":"屏東縣長治鄉進興村復興路68號","TEL":"(08)7368-580","COUNTYNAME":"屏東縣","TOWNNAME":"長治鄉","MARKTYPE":"994","Class":"4"},"geometry":{"x":120.53066635452917,"y":22.676799325336596}},{"attributes":{"OBJECTID":15062,"LANDMARKID":"1001300001108","LANDMARKCO":"408","LANDMARKNA":"郵局-長治繁華郵局","LANDMARKAD":"1001306","ADDRESS":"屏東縣長治鄉繁華村水源路90號","TEL":"(08)7622-984","COUNTYNAME":"屏東縣","TOWNNAME":"長治鄉","MARKTYPE":"994","Class":"4"},"geometry":{"x":120.57356167586066,"y":22.702299407606674}},{"attributes":{"OBJECTID":15063,"LANDMARKID":"1001300001181","LANDMARKCO":"409","LANDMARKNA":"屏東縣長治鄉農會","LANDMARKAD":"1001306","ADDRESS":"屏東縣長治鄉進興村復興路11號","TEL":"08-7385105~7","COUNTYNAME":"屏東縣","TOWNNAME":"長治鄉","MARKTYPE":"994","Class":"4"},"geometry":{"x":120.5288270967997,"y":22.677089910866993}},{"attributes":{"OBJECTID":15064,"LANDMARKID":"1001300001036","LANDMARKCO":"406","LANDMARKNA":"古戰場公園","LANDMARKAD":"1001306","ADDRESS":"屏東縣長治鄉","TEL":" ","COUNTYNAME":"屏東縣","TOWNNAME":"長治鄉","MARKTYPE":"994","Class":"4"},"geometry":{"x":120.51086414809728,"y":22.680681068830342}},{"attributes":{"OBJECTID":15065,"LANDMARKID":"1001300001034","LANDMARKCO":"405","LANDMARKNA":"台亞加油站-百利站（台塑）","LANDMARKAD":"1001306","ADDRESS":"屏東縣長治鄉中興路98-1號","TEL":"(08)737-7428","COUNTYNAME":"屏東縣","TOWNNAME":"長治鄉","MARKTYPE":"994","Class":"4"},"geometry":{"x":120.51381823648339,"y":22.684797113194996}},{"attributes":{"OBJECTID":15066,"LANDMARKID":"1001300001035","LANDMARKCO":"405","LANDMARKNA":"台亞加油站-香揚站（台塑）","LANDMARKAD":"1001306","ADDRESS":"屏東縣長治鄉瑞光路1段400號","TEL":"(08)722-3115","COUNTYNAME":"屏東縣","TOWNNAME":"長治鄉","MARKTYPE":"994","Class":"4"},"geometry":{"x":120.51267214228319,"y":22.666457139236041}},{"attributes":{"OBJECTID":15067,"LANDMARKID":"1001300000275","LANDMARKCO":"107","LANDMARKNA":"屏東縣消防局長治消防分隊","LANDMARKAD":"1001306","ADDRESS":"屏東縣長治鄉中興路572號之1","TEL":"08-7626149","COUNTYNAME":"屏東縣","TOWNNAME":"長治鄉","MARKTYPE":"991","Class":"1"},"geometry":{"x":120.54254480379369,"y":22.693082451688685}},{"attributes":{"OBJECTID":15068,"LANDMARKID":"1001300000131","LANDMARKCO":"106","LANDMARKNA":"屏東縣長治鄉戶政事務所","LANDMARKAD":"1001306","ADDRESS":"屏東縣長治鄉潭頭路1之1號","TEL":"08-7368934","COUNTYNAME":"屏東縣","TOWNNAME":"長治鄉","MARKTYPE":"991","Class":"1"},"geometry":{"x":120.5277126052823,"y":22.676890906935093}},{"attributes":{"OBJECTID":15069,"LANDMARKID":"1001300000272","LANDMARKCO":"107","LANDMARKNA":"屏東縣警察局德協派出所","LANDMARKAD":"1001306","ADDRESS":"屏東縣長治鄉德協村中興路635號","TEL":"08-7621604","COUNTYNAME":"屏東縣","TOWNNAME":"長治鄉","MARKTYPE":"991","Class":"1"},"geometry":{"x":120.54884383699172,"y":22.695100474606164}},{"attributes":{"OBJECTID":15070,"LANDMARKID":"1001300000273","LANDMARKCO":"107","LANDMARKNA":"屏東縣警察局繁華派出所","LANDMARKAD":"1001306","ADDRESS":"屏東縣長治鄉繁昌村中山路102號","TEL":"08-7621384","COUNTYNAME":"屏東縣","TOWNNAME":"長治鄉","MARKTYPE":"991","Class":"1"},"geometry":{"x":120.57592108107721,"y":22.707093174533405}},{"attributes":{"OBJECTID":15071,"LANDMARKID":"1001300000274","LANDMARKCO":"107","LANDMARKNA":"屏東縣警察局長治分駐所","LANDMARKAD":"1001306","ADDRESS":"屏東縣長治鄉進興村復興路2號","TEL":"08-7366741","COUNTYNAME":"屏東縣","TOWNNAME":"長治鄉","MARKTYPE":"991","Class":"1"},"geometry":{"x":120.52788718256524,"y":22.676974030824514}},{"attributes":{"OBJECTID":15072,"LANDMARKID":"1001300000109","LANDMARKCO":"103","LANDMARKNA":"屏東縣長治鄉衛生所","LANDMARKAD":"1001306","ADDRESS":"屏東縣長治鄉潭頭路3號","TEL":"08-7368734","COUNTYNAME":"屏東縣","TOWNNAME":"長治鄉","MARKTYPE":"991","Class":"1"},"geometry":{"x":120.52682889585967,"y":22.676614760001449}},{"attributes":{"OBJECTID":15073,"LANDMARKID":"1001300000309","LANDMARKCO":"108","LANDMARKNA":"屏東縣長治鄉公所","LANDMARKAD":"1001306","ADDRESS":"屏東縣長治鄉潭頭路1號","TEL":"08-7368215","COUNTYNAME":"屏東縣","TOWNNAME":"長治鄉","MARKTYPE":"991","Class":"1"},"geometry":{"x":120.52729600731469,"y":22.676617519391474}},{"attributes":{"OBJECTID":15074,"LANDMARKID":"1001300000110","LANDMARKCO":"103","LANDMARKNA":"屏東縣長治鄉民代表會","LANDMARKAD":"1001306","ADDRESS":"屏東縣長治鄉潭頭路1號","TEL":"08-7368582","COUNTYNAME":"屏東縣","TOWNNAME":"長治鄉","MARKTYPE":"991","Class":"1"},"geometry":{"x":120.52729600731469,"y":22.676617519391474}},{"attributes":{"OBJECTID":15075,"LANDMARKID":"1001300000636","LANDMARKCO":"204","LANDMARKNA":"屏東縣立圖書館長治中正分館","LANDMARKAD":"1001306","ADDRESS":"屏東縣長治鄉進興村潭頭路5號","TEL":" ","COUNTYNAME":"屏東縣","TOWNNAME":"長治鄉","MARKTYPE":"992","Class":"2"},"geometry":{"x":120.52635674005266,"y":22.676648124125869}},{"attributes":{"OBJECTID":15076,"LANDMARKID":"1001300000637","LANDMARKCO":"204","LANDMARKNA":"屏東縣立圖書館長治繁華分館","LANDMARKAD":"1001306","ADDRESS":"屏東縣長治鄉繁華村舊廟路1號","TEL":" ","COUNTYNAME":"屏東縣","TOWNNAME":"長治鄉","MARKTYPE":"992","Class":"2"},"geometry":{"x":120.57630669711514,"y":22.698940016861108}},{"attributes":{"OBJECTID":15077,"LANDMARKID":"1001300000346","LANDMARKCO":"201","LANDMARKNA":"高鳳技術學院","LANDMARKAD":"1001306","ADDRESS":"屏東縣長治鄉復興村新興路38號","TEL":"08-7626365","COUNTYNAME":"屏東縣","TOWNNAME":"長治鄉","MARKTYPE":"992","Class":"2"},"geometry":{"x":120.55623201324423,"y":22.676774418896773}},{"attributes":{"OBJECTID":15078,"LANDMARKID":"1001300000623","LANDMARKCO":"203","LANDMARKNA":"縣立長治國中","LANDMARKAD":"1001306","ADDRESS":"屏東縣長治鄉德成村中興路578號","TEL":"08-7621193","COUNTYNAME":"屏東縣","TOWNNAME":"長治鄉","MARKTYPE":"992","Class":"2"},"geometry":{"x":120.54365823732815,"y":22.693371026799859}},{"attributes":{"OBJECTID":15079,"LANDMARKID":"1001300000624","LANDMARKCO":"203","LANDMARKNA":"縣立繁華國小","LANDMARKAD":"1001306","ADDRESS":"屏東縣長治鄉繁華村水源路96號","TEL":"08-7621254","COUNTYNAME":"屏東縣","TOWNNAME":"長治鄉","MARKTYPE":"992","Class":"2"},"geometry":{"x":120.57218587696084,"y":22.702301771197316}},{"attributes":{"OBJECTID":15080,"LANDMARKID":"1001300000625","LANDMARKCO":"203","LANDMARKNA":"縣立長興國小","LANDMARKAD":"1001306","ADDRESS":"屏東縣長治鄉新潭村潭頭路50號","TEL":"08-7368567","COUNTYNAME":"屏東縣","TOWNNAME":"長治鄉","MARKTYPE":"992","Class":"2"},"geometry":{"x":120.52610442198872,"y":22.677242643905984}},{"attributes":{"OBJECTID":15081,"LANDMARKID":"1001300000626","LANDMARKCO":"203","LANDMARKNA":"縣立德協國小","LANDMARKAD":"1001306","ADDRESS":"屏東縣長治鄉德協村中興號551號","TEL":"08-7621844","COUNTYNAME":"屏東縣","TOWNNAME":"長治鄉","MARKTYPE":"992","Class":"2"},"geometry":{"x":120.54138118026387,"y":22.693896558080915}},{"attributes":{"OBJECTID":15082,"LANDMARKID":"1001300000812","LANDMARKCO":"308","LANDMARKNA":"國3-長治交流道-南下","LANDMARKAD":"1001306","ADDRESS":"屏東縣長治鄉","TEL":" ","COUNTYNAME":"屏東縣","TOWNNAME":"長治鄉","MARKTYPE":"993","Class":"308"},"geometry":{"x":120.55689357125814,"y":22.69489801362522}},{"attributes":{"OBJECTID":15083,"LANDMARKID":"1001300000813","LANDMARKCO":"308","LANDMARKNA":"國3-長治交流道-北上","LANDMARKAD":"1001306","ADDRESS":"屏東縣長治鄉","TEL":" ","COUNTYNAME":"屏東縣","TOWNNAME":"長治鄉","MARKTYPE":"993","Class":"308"},"geometry":{"x":120.55475202933926,"y":22.697011813889048}},{"attributes":{"OBJECTID":15084,"LANDMARKID":"1001300001109","LANDMARKCO":"408","LANDMARKNA":"郵局-瑪家郵局","LANDMARKAD":"1001328","ADDRESS":"屏東縣瑪家鄉涼山村涼山巷22-1號","TEL":"(08)7991-543","COUNTYNAME":"屏東縣","TOWNNAME":"瑪家鄉","MARKTYPE":"994","Class":"4"},"geometry":{"x":120.63621192677364,"y":22.690053294212429}},{"attributes":{"OBJECTID":15085,"LANDMARKID":"1001300001039","LANDMARKCO":"406","LANDMARKNA":"涼山公園","LANDMARKAD":"1001328","ADDRESS":"屏東縣瑪家鄉","TEL":" ","COUNTYNAME":"屏東縣","TOWNNAME":"瑪家鄉","MARKTYPE":"994","Class":"4"},"geometry":{"x":120.63799316462483,"y":22.686157888149548}},{"attributes":{"OBJECTID":15086,"LANDMARKID":"1001300000276","LANDMARKCO":"107","LANDMARKNA":"屏東縣警察局佳義派出所","LANDMARKAD":"1001328","ADDRESS":"屏東縣瑪家鄉佳義村泰平巷83之1號","TEL":"08-7990163","COUNTYNAME":"屏東縣","TOWNNAME":"瑪家鄉","MARKTYPE":"991","Class":"1"},"geometry":{"x":120.63731968218589,"y":22.654221355269218}},{"attributes":{"OBJECTID":15087,"LANDMARKID":"1001300000277","LANDMARKCO":"107","LANDMARKNA":"屏東縣警察局崑山派出所","LANDMARKAD":"1001328","ADDRESS":"屏東縣瑪家鄉瑪家村瑪家1號","TEL":"08-7992961","COUNTYNAME":"屏東縣","TOWNNAME":"瑪家鄉","MARKTYPE":"991","Class":"1"},"geometry":{"x":120.68684737875968,"y":22.675648975223233}},{"attributes":{"OBJECTID":15088,"LANDMARKID":"1001300000278","LANDMARKCO":"107","LANDMARKNA":"屏東縣警察局瑪家分駐所","LANDMARKAD":"1001328","ADDRESS":"屏東縣瑪家鄉北葉村風景巷1號","TEL":"08-7991749","COUNTYNAME":"屏東縣","TOWNNAME":"瑪家鄉","MARKTYPE":"991","Class":"1"},"geometry":{"x":120.6522579158529,"y":22.707178198400424}},{"attributes":{"OBJECTID":15089,"LANDMARKID":"1001300000279","LANDMARKCO":"107","LANDMARKNA":"屏東縣警察局涼山派出所","LANDMARKAD":"1001328","ADDRESS":"屏東縣瑪家鄉涼山村涼山巷22號","TEL":"08-7991750","COUNTYNAME":"屏東縣","TOWNNAME":"瑪家鄉","MARKTYPE":"991","Class":"1"},"geometry":{"x":120.64416040315872,"y":22.683138683057436}},{"attributes":{"OBJECTID":15090,"LANDMARKID":"1001300000280","LANDMARKCO":"107","LANDMARKNA":"屏東縣警察局排灣派出所","LANDMARKAD":"1001328","ADDRESS":"屏東縣瑪家鄉排灣村40號","TEL":"08-7990161","COUNTYNAME":"屏東縣","TOWNNAME":"瑪家鄉","MARKTYPE":"991","Class":"1"},"geometry":{"x":120.63072051963201,"y":22.63578067977959}},{"attributes":{"OBJECTID":15091,"LANDMARKID":"1001300000111","LANDMARKCO":"103","LANDMARKNA":"屏東縣瑪家鄉衛生所","LANDMARKAD":"1001328","ADDRESS":"屏東縣瑪家鄉北葉村風景巷86","TEL":"08-7991164","COUNTYNAME":"屏東縣","TOWNNAME":"瑪家鄉","MARKTYPE":"991","Class":"1"},"geometry":{"x":120.65043693563699,"y":22.708705514853659}},{"attributes":{"OBJECTID":15092,"LANDMARKID":"1001300000682","LANDMARKCO":"205","LANDMARKNA":"原住民文物陳列館","LANDMARKAD":"1001328","ADDRESS":"屏東縣瑪家鄉北葉村風景104號","TEL":" ","COUNTYNAME":"屏東縣","TOWNNAME":"瑪家鄉","MARKTYPE":"992","Class":"2"},"geometry":{"x":120.65276412137148,"y":22.706402209782727}},{"attributes":{"OBJECTID":15093,"LANDMARKID":"1001300000646","LANDMARKCO":"204","LANDMARKNA":"屏東縣立圖書館瑪家分館","LANDMARKAD":"1001328","ADDRESS":"屏東縣瑪家鄉風景巷1之18號","TEL":" ","COUNTYNAME":"屏東縣","TOWNNAME":"瑪家鄉","MARKTYPE":"992","Class":"2"},"geometry":{"x":120.65073185162633,"y":22.708897419165073}},{"attributes":{"OBJECTID":15094,"LANDMARKID":"1001300000627","LANDMARKCO":"203","LANDMARKNA":"縣立排灣國小","LANDMARKAD":"1001328","ADDRESS":"屏東縣瑪家鄉","TEL":" ","COUNTYNAME":"屏東縣","TOWNNAME":"瑪家鄉","MARKTYPE":"992","Class":"2"},"geometry":{"x":120.6263287134944,"y":22.63333485661753}},{"attributes":{"OBJECTID":15095,"LANDMARKID":"1001300000755","LANDMARKCO":"303","LANDMARKNA":"台灣原住民文化園區停車場","LANDMARKAD":"1001328","ADDRESS":"屏東縣瑪家鄉北葉村風景巷104號","TEL":"08-7991219","COUNTYNAME":"屏東縣","TOWNNAME":"瑪家鄉","MARKTYPE":"993","Class":"303"},"geometry":{"x":120.65245251326215,"y":22.707094293862262}},{"attributes":{"OBJECTID":15096,"LANDMARKID":"1001300000756","LANDMARKCO":"303","LANDMARKNA":"台灣原住民文化園區停車場","LANDMARKAD":"1001328","ADDRESS":"屏東縣瑪家鄉北葉村風景巷104號","TEL":"08-7991219","COUNTYNAME":"屏東縣","TOWNNAME":"瑪家鄉","MARKTYPE":"993","Class":"303"},"geometry":{"x":120.65116904688338,"y":22.708208856541951}},{"attributes":{"OBJECTID":15097,"LANDMARKID":"1001300000757","LANDMARKCO":"303","LANDMARKNA":"台灣原住民文化園區停車場","LANDMARKAD":"1001328","ADDRESS":"屏東縣瑪家鄉北葉村風景巷104號","TEL":"08-7991219","COUNTYNAME":"屏東縣","TOWNNAME":"瑪家鄉","MARKTYPE":"993","Class":"303"},"geometry":{"x":120.65180253014243,"y":22.707530151897362}},{"attributes":{"OBJECTID":15098,"LANDMARKID":"1001300000758","LANDMARKCO":"303","LANDMARKNA":"台灣原住民文化園區停車場","LANDMARKAD":"1001328","ADDRESS":"屏東縣瑪家鄉北葉村風景巷104號","TEL":"08-7991219","COUNTYNAME":"屏東縣","TOWNNAME":"瑪家鄉","MARKTYPE":"993","Class":"303"},"geometry":{"x":120.65556810860652,"y":22.705977031334811}},{"attributes":{"OBJECTID":15099,"LANDMARKID":"1001300001226","LANDMARKCO":"505","LANDMARKNA":"台灣原住民文化園區泰雅族區","LANDMARKAD":"1001328","ADDRESS":"屏東縣瑪家鄉北葉村風景巷104號","TEL":"08-7991219","COUNTYNAME":"屏東縣","TOWNNAME":"瑪家鄉","MARKTYPE":"995","Class":"5"},"geometry":{"x":120.65521710702909,"y":22.704731293947923}},{"attributes":{"OBJECTID":15100,"LANDMARKID":"1001300001227","LANDMARKCO":"505","LANDMARKNA":"台灣原住民文化園區阿美族區","LANDMARKAD":"1001328","ADDRESS":"屏東縣瑪家鄉北葉村風景巷104號","TEL":"08-7991219","COUNTYNAME":"屏東縣","TOWNNAME":"瑪家鄉","MARKTYPE":"995","Class":"5"},"geometry":{"x":120.65527281489737,"y":22.707353480345635}},{"attributes":{"OBJECTID":15101,"LANDMARKID":"1001300001228","LANDMARKCO":"505","LANDMARKNA":"台灣原住民文化園區太魯閣族家屋","LANDMARKAD":"1001328","ADDRESS":"屏東縣瑪家鄉北葉村風景巷104號","TEL":"08-7991219","COUNTYNAME":"屏東縣","TOWNNAME":"瑪家鄉","MARKTYPE":"995","Class":"5"},"geometry":{"x":120.65535361876819,"y":22.705452569917185}},{"attributes":{"OBJECTID":15102,"LANDMARKID":"1001300001229","LANDMARKCO":"505","LANDMARKNA":"台灣原住民文化園區噶瑪蘭族家屋","LANDMARKAD":"1001328","ADDRESS":"屏東縣瑪家鄉北葉村風景巷104號","TEL":"08-7991219","COUNTYNAME":"屏東縣","TOWNNAME":"瑪家鄉","MARKTYPE":"995","Class":"5"},"geometry":{"x":120.65555315776243,"y":22.707070044451669}},{"attributes":{"OBJECTID":15103,"LANDMARKID":"1001300001230","LANDMARKCO":"505","LANDMARKNA":"台灣原住民文化園區賽夏族區","LANDMARKAD":"1001328","ADDRESS":"屏東縣瑪家鄉北葉村風景巷104號","TEL":"08-7991219","COUNTYNAME":"屏東縣","TOWNNAME":"瑪家鄉","MARKTYPE":"995","Class":"5"},"geometry":{"x":120.65560255870844,"y":22.705732182382977}},{"attributes":{"OBJECTID":15104,"LANDMARKID":"1001300001231","LANDMARKCO":"505","LANDMARKNA":"台灣原住民文化園區卑南族區","LANDMARKAD":"1001328","ADDRESS":"屏東縣瑪家鄉北葉村風景巷104號","TEL":"08-7991219","COUNTYNAME":"屏東縣","TOWNNAME":"瑪家鄉","MARKTYPE":"995","Class":"5"},"geometry":{"x":120.65568652802897,"y":22.706058266810441}},{"attributes":{"OBJECTID":15105,"LANDMARKID":"1001300001232","LANDMARKCO":"505","LANDMARKNA":"台灣原住民文化園區雅美族區","LANDMARKAD":"1001328","ADDRESS":"屏東縣瑪家鄉北葉村風景巷104號","TEL":"08-7991219","COUNTYNAME":"屏東縣","TOWNNAME":"瑪家鄉","MARKTYPE":"995","Class":"5"},"geometry":{"x":120.65587984402933,"y":22.706832780052999}},{"attributes":{"OBJECTID":15106,"LANDMARKID":"1001300001233","LANDMARKCO":"505","LANDMARKNA":"台灣原住民文化園區自然生態館","LANDMARKAD":"1001328","ADDRESS":"屏東縣瑪家鄉北葉村風景巷104號","TEL":"08-7991219","COUNTYNAME":"屏東縣","TOWNNAME":"瑪家鄉","MARKTYPE":"995","Class":"5"},"geometry":{"x":120.6593206755343,"y":22.710548732877371}},{"attributes":{"OBJECTID":15107,"LANDMARKID":"1001300001234","LANDMARKCO":"505","LANDMARKNA":"台灣原住民文化園區布農族區","LANDMARKAD":"1001328","ADDRESS":"屏東縣瑪家鄉北葉村風景巷104號","TEL":"08-7991219","COUNTYNAME":"屏東縣","TOWNNAME":"瑪家鄉","MARKTYPE":"995","Class":"5"},"geometry":{"x":120.66233439657124,"y":22.704826357718307}},{"attributes":{"OBJECTID":15108,"LANDMARKID":"1001300001235","LANDMARKCO":"505","LANDMARKNA":"台灣原住民文化園區排灣族區","LANDMARKAD":"1001328","ADDRESS":"屏東縣瑪家鄉北葉村風景巷104號","TEL":"08-7991219","COUNTYNAME":"屏東縣","TOWNNAME":"瑪家鄉","MARKTYPE":"995","Class":"5"},"geometry":{"x":120.66303491721489,"y":22.70575707354816}},{"attributes":{"OBJECTID":15109,"LANDMARKID":"1001300001236","LANDMARKCO":"505","LANDMARKNA":"台灣原住民文化園區鄒族區","LANDMARKAD":"1001328","ADDRESS":"屏東縣瑪家鄉北葉村風景巷104號","TEL":"08-7991219","COUNTYNAME":"屏東縣","TOWNNAME":"瑪家鄉","MARKTYPE":"995","Class":"5"},"geometry":{"x":120.66307271938173,"y":22.70476764704846}},{"attributes":{"OBJECTID":15110,"LANDMARKID":"1001300001237","LANDMARKCO":"505","LANDMARKNA":"台灣原住民文化園區魯凱族區","LANDMARKAD":"1001328","ADDRESS":"屏東縣瑪家鄉北葉村風景巷104號","TEL":"08-7991219","COUNTYNAME":"屏東縣","TOWNNAME":"瑪家鄉","MARKTYPE":"995","Class":"5"},"geometry":{"x":120.66388665297812,"y":22.705555072558251}},{"attributes":{"OBJECTID":15111,"LANDMARKID":"1001300001203","LANDMARKCO":"503","LANDMARKNA":"涼山瀑布","LANDMARKAD":"1001328","ADDRESS":"屏東縣瑪家鄉","TEL":" ","COUNTYNAME":"屏東縣","TOWNNAME":"瑪家鄉","MARKTYPE":"995","Class":"5"},"geometry":{"x":120.64503717434974,"y":22.681561374637042}},{"attributes":{"OBJECTID":15112,"LANDMARKID":"1001300001225","LANDMARKCO":"505","LANDMARKNA":"原住民族文化園區","LANDMARKAD":"1001328","ADDRESS":"屏東縣瑪家鄉北葉村風景104號","TEL":"(08)799-1219","COUNTYNAME":"屏東縣","TOWNNAME":"瑪家鄉","MARKTYPE":"995","Class":"5"},"geometry":{"x":120.65118126247094,"y":22.708079209579431}},{"attributes":{"OBJECTID":15113,"LANDMARKID":"1001300001006","LANDMARKCO":"405","LANDMARKNA":"中油加油站-中正路站(中油直營)","LANDMARKAD":"1001301","ADDRESS":"屏東縣屏東市中正路375號","TEL":"08-7364224","COUNTYNAME":"屏東縣","TOWNNAME":"屏東市","MARKTYPE":"994","Class":"4"},"geometry":{"x":120.49462090152885,"y":22.685452580689322}},{"attributes":{"OBJECTID":15114,"LANDMARKID":"1001300001007","LANDMARKCO":"405","LANDMARKNA":"中油加油站-忠孝路站(中油直營)","LANDMARKAD":"1001301","ADDRESS":"屏東縣屏東市忠孝路209-1號","TEL":"08-7337759","COUNTYNAME":"屏東縣","TOWNNAME":"屏東市","MARKTYPE":"994","Class":"4"},"geometry":{"x":120.48862782781065,"y":22.679751555326323}},{"attributes":{"OBJECTID":15115,"LANDMARKID":"1001300001008","LANDMARKCO":"405","LANDMARKNA":"台糖加油站-豐泰站(中油)","LANDMARKAD":"1001301","ADDRESS":"屏東縣屏東市信和里一鄰海豐街231號","TEL":" ","COUNTYNAME":"屏東縣","TOWNNAME":"屏東市","MARKTYPE":"994","Class":"4"},"geometry":{"x":120.51041190858135,"y":22.700588422990105}},{"attributes":{"OBJECTID":15116,"LANDMARKID":"1001300001009","LANDMARKCO":"405","LANDMARKNA":"統一速邁樂加油站-屏東加油站(中油)","LANDMARKAD":"1001301","ADDRESS":"屏東縣屏東市復興南路一段550號","TEL":" ","COUNTYNAME":"屏東縣","TOWNNAME":"屏東市","MARKTYPE":"994","Class":"4"},"geometry":{"x":120.48544199891028,"y":22.642164174108981}},{"attributes":{"OBJECTID":15117,"LANDMARKID":"1001300001010","LANDMARKCO":"405","LANDMARKNA":"中油加油站-你我他海豐站","LANDMARKAD":"1001301","ADDRESS":"屏東縣屏東市海豐街86-10號","TEL":"08-7378111","COUNTYNAME":"屏東縣","TOWNNAME":"屏東市","MARKTYPE":"994","Class":"4"},"geometry":{"x":120.51940172937297,"y":22.706127114971135}},{"attributes":{"OBJECTID":15118,"LANDMARKID":"1001300001011","LANDMARKCO":"405","LANDMARKNA":"千越加油站-海豐站(中油)","LANDMARKAD":"1001301","ADDRESS":"屏東縣屏東市信和里金城街228號","TEL":"08-7653166","COUNTYNAME":"屏東縣","TOWNNAME":"屏東市","MARKTYPE":"994","Class":"4"},"geometry":{"x":120.50120895986294,"y":22.698061806353483}},{"attributes":{"OBJECTID":15119,"LANDMARKID":"1001300001012","LANDMARKCO":"405","LANDMARKNA":"台糖加油站-廣興站(中油)","LANDMARKAD":"1001301","ADDRESS":"屏東縣屏東市和興里忠孝路323號","TEL":" ","COUNTYNAME":"屏東縣","TOWNNAME":"屏東市","MARKTYPE":"994","Class":"4"},"geometry":{"x":120.48953852247314,"y":22.693836848921134}},{"attributes":{"OBJECTID":15120,"LANDMARKID":"1001300001013","LANDMARKCO":"405","LANDMARKNA":"台糖加油站-崇蘭站(中油)","LANDMARKAD":"1001301","ADDRESS":"屏東縣屏東市和興里忠孝路230號","TEL":" ","COUNTYNAME":"屏東縣","TOWNNAME":"屏東市","MARKTYPE":"994","Class":"4"},"geometry":{"x":120.49054233859398,"y":22.693662615892073}},{"attributes":{"OBJECTID":15121,"LANDMARKID":"1001300001014","LANDMARKCO":"405","LANDMARKNA":"中油加油站-歸來站(中油直營)","LANDMARKAD":"1001301","ADDRESS":"屏東縣屏東市民生路2-31號","TEL":"08-7223873","COUNTYNAME":"屏東縣","TOWNNAME":"屏東市","MARKTYPE":"994","Class":"4"},"geometry":{"x":120.50962557580648,"y":22.661028405652953}},{"attributes":{"OBJECTID":15122,"LANDMARKID":"1001300001015","LANDMARKCO":"405","LANDMARKNA":"中油加油站-大豐站(中油直營)","LANDMARKAD":"1001301","ADDRESS":"屏東縣屏東市前進里建國路410號","TEL":"08-7534011","COUNTYNAME":"屏東縣","TOWNNAME":"屏東市","MARKTYPE":"994","Class":"4"},"geometry":{"x":120.466110587041,"y":22.655655089254431}},{"attributes":{"OBJECTID":15123,"LANDMARKID":"1001300001016","LANDMARKCO":"405","LANDMARKNA":"台糖加油站-和生站(中油)","LANDMARKAD":"1001301","ADDRESS":"屏東縣屏東市和生一路511號","TEL":"08-7512674","COUNTYNAME":"屏東縣","TOWNNAME":"屏東市","MARKTYPE":"994","Class":"4"},"geometry":{"x":120.49684378864939,"y":22.65393360014162}},{"attributes":{"OBJECTID":15124,"LANDMARKID":"1001300001017","LANDMARKCO":"405","LANDMARKNA":"中油加油站-和生路站(刷卡自助)(中油直營)","LANDMARKAD":"1001301","ADDRESS":"屏東縣屏東市橋南里和生路一段560號","TEL":"08-7536740","COUNTYNAME":"屏東縣","TOWNNAME":"屏東市","MARKTYPE":"994","Class":"4"},"geometry":{"x":120.49459959812522,"y":22.653121320306134}},{"attributes":{"OBJECTID":15125,"LANDMARKID":"1001300001018","LANDMARKCO":"405","LANDMARKNA":"山隆加油站-清溪站(中油)","LANDMARKAD":"1001301","ADDRESS":"屏東市清溪里和生路二段451號","TEL":"(08)752-1685","COUNTYNAME":"屏東縣","TOWNNAME":"屏東市","MARKTYPE":"994","Class":"4"},"geometry":{"x":120.47342036455774,"y":22.653959861424489}},{"attributes":{"OBJECTID":15126,"LANDMARKID":"1001300001019","LANDMARKCO":"405","LANDMARKNA":"中油加油站-北屏東站","LANDMARKAD":"1001301","ADDRESS":"屏東縣屏東市海豐街1-14號","TEL":"07-7362417","COUNTYNAME":"屏東縣","TOWNNAME":"屏東市","MARKTYPE":"994","Class":"4"},"geometry":{"x":120.50307968779167,"y":22.693516981643405}},{"attributes":{"OBJECTID":15127,"LANDMARKID":"1001300001020","LANDMARKCO":"405","LANDMARKNA":"山隆加油站-屏東站(中油)","LANDMARKAD":"1001301","ADDRESS":"屏東縣屏東市華山里瑞光路三段202號","TEL":"08-7362562","COUNTYNAME":"屏東縣","TOWNNAME":"屏東市","MARKTYPE":"994","Class":"4"},"geometry":{"x":120.50273328349925,"y":22.69269654900107}},{"attributes":{"OBJECTID":15128,"LANDMARKID":"1001300001021","LANDMARKCO":"405","LANDMARKNA":"中油加油站-千越屏東建國站","LANDMARKAD":"1001301","ADDRESS":"屏東縣屏東市建國路328號","TEL":"08-7517890","COUNTYNAME":"屏東縣","TOWNNAME":"屏東市","MARKTYPE":"994","Class":"4"},"geometry":{"x":120.47004289668108,"y":22.662074711887822}},{"attributes":{"OBJECTID":15129,"LANDMARKID":"1001300001022","LANDMARKCO":"405","LANDMARKNA":"中油加油站-公園路站(中油直營)","LANDMARKAD":"1001301","ADDRESS":"屏東縣屏東市民權路74號","TEL":"08-7325794","COUNTYNAME":"屏東縣","TOWNNAME":"屏東市","MARKTYPE":"994","Class":"4"},"geometry":{"x":120.49243828021397,"y":22.673616936494312}},{"attributes":{"OBJECTID":15130,"LANDMARKID":"1001300001023","LANDMARKCO":"405","LANDMARKNA":"中油加油站-龍華站","LANDMARKAD":"1001301","ADDRESS":"屏東縣屏東市復興南路二段28號","TEL":"08-7533080","COUNTYNAME":"屏東縣","TOWNNAME":"屏東市","MARKTYPE":"994","Class":"4"},"geometry":{"x":120.48527410827211,"y":22.6374737566791}},{"attributes":{"OBJECTID":15131,"LANDMARKID":"1001300001024","LANDMARKCO":"405","LANDMARKNA":"中油加油站-屏東站(中油直營)","LANDMARKAD":"1001301","ADDRESS":"屏東縣屏東市民族路399-1號","TEL":"08-7322503","COUNTYNAME":"屏東縣","TOWNNAME":"屏東市","MARKTYPE":"994","Class":"4"},"geometry":{"x":120.47879090516895,"y":22.671406624942051}},{"attributes":{"OBJECTID":15132,"LANDMARKID":"1001300001025","LANDMARKCO":"405","LANDMARKNA":"中油加油站-復興路站","LANDMARKAD":"1001301","ADDRESS":"屏東縣屏東市復興路261號","TEL":"08-7525421","COUNTYNAME":"屏東縣","TOWNNAME":"屏東市","MARKTYPE":"994","Class":"4"},"geometry":{"x":120.4878878836146,"y":22.66087198755309}},{"attributes":{"OBJECTID":15133,"LANDMARKID":"1001300001026","LANDMARKCO":"405","LANDMARKNA":"中油加油站-雍東站","LANDMARKAD":"1001301","ADDRESS":"屏東縣屏東市民生路79-16號","TEL":"08-7377428","COUNTYNAME":"屏東縣","TOWNNAME":"屏東市","MARKTYPE":"994","Class":"4"},"geometry":{"x":120.49876351703318,"y":22.666865899971949}},{"attributes":{"OBJECTID":15134,"LANDMARKID":"1001300000887","LANDMARKCO":"402","LANDMARKNA":"My Phone台灣大哥大-屏東民族直營服務中心","LANDMARKAD":"1001301","ADDRESS":"屏東縣屏東市民族路174號","TEL":"0809-000-166","COUNTYNAME":"屏東縣","TOWNNAME":"屏東市","MARKTYPE":"994","Class":"4"},"geometry":{"x":120.48299445579434,"y":22.670880309222195}},{"attributes":{"OBJECTID":15135,"LANDMARKID":"1001300000888","LANDMARKCO":"402","LANDMARKNA":"My Phone台灣大哥大-屏東復興直營服務中心","LANDMARKAD":"1001301","ADDRESS":"屏東縣屏東市自由路586之3號","TEL":"0809-000-166","COUNTYNAME":"屏東縣","TOWNNAME":"屏東市","MARKTYPE":"994","Class":"4"},"geometry":{"x":120.48545282338038,"y":22.683530328380211}},{"attributes":{"OBJECTID":15136,"LANDMARKID":"1001300000889","LANDMARKCO":"402","LANDMARKNA":"亞太行動寬頻電信-屏東中正加盟服務中心","LANDMARKAD":"1001301","ADDRESS":"屏東縣屏東市中正路381-2號","TEL":"08-7369930","COUNTYNAME":"屏東縣","TOWNNAME":"屏東市","MARKTYPE":"994","Class":"4"},"geometry":{"x":120.49507088635293,"y":22.685813839084723}},{"attributes":{"OBJECTID":15137,"LANDMARKID":"1001300000890","LANDMARKCO":"402","LANDMARKNA":"亞太行動寬頻電信-屏東市","LANDMARKAD":"1001301","ADDRESS":"屏東市民生路305號","TEL":" ","COUNTYNAME":"屏東縣","TOWNNAME":"屏東市","MARKTYPE":"994","Class":"4"},"geometry":{"x":120.49099741526928,"y":22.670362906309926}},{"attributes":{"OBJECTID":15138,"LANDMARKID":"1001300000891","LANDMARKCO":"402","LANDMARKNA":"亞太行動寬頻電信-屏東民生加盟服務中心","LANDMARKAD":"1001301","ADDRESS":"屏東縣屏東市民生路22號","TEL":"08-7235110","COUNTYNAME":"屏東縣","TOWNNAME":"屏東市","MARKTYPE":"994","Class":"4"},"geometry":{"x":120.49864916268413,"y":22.667223989082881}},{"attributes":{"OBJECTID":15139,"LANDMARKID":"1001300000892","LANDMARKCO":"402","LANDMARKNA":"亞太行動寬頻電信-屏東自由加盟服務中心","LANDMARKAD":"1001301","ADDRESS":"屏東縣屏東市自由路669號","TEL":"08-7668106","COUNTYNAME":"屏東縣","TOWNNAME":"屏東市","MARKTYPE":"994","Class":"4"},"geometry":{"x":120.4811060475449,"y":22.682969436664294}},{"attributes":{"OBJECTID":15140,"LANDMARKID":"1001300000820","LANDMARKCO":"401","LANDMARKNA":"屏東基督教醫院-瑞光院區","LANDMARKAD":"1001301","ADDRESS":"屏東縣屏東市建豐路2巷113號","TEL":"08-7353636","COUNTYNAME":"屏東縣","TOWNNAME":"屏東市","MARKTYPE":"994","Class":"4"},"geometry":{"x":120.50524727889767,"y":22.680884286962698}},{"attributes":{"OBJECTID":15141,"LANDMARKID":"1001300000821","LANDMARKCO":"401","LANDMARKNA":"優生婦產科醫院","LANDMARKAD":"1001301","ADDRESS":"屏東縣屏東市瑞光路三段103號","TEL":"08-7382222","COUNTYNAME":"屏東縣","TOWNNAME":"屏東市","MARKTYPE":"994","Class":"4"},"geometry":{"x":120.50390580688406,"y":22.686113910373223}},{"attributes":{"OBJECTID":15142,"LANDMARKID":"1001300000822","LANDMARKCO":"401","LANDMARKNA":"民眾醫院","LANDMARKAD":"1001301","ADDRESS":"屏東縣屏東市忠孝路120之1號","TEL":"08-7325455","COUNTYNAME":"屏東縣","TOWNNAME":"屏東市","MARKTYPE":"994","Class":"4"},"geometry":{"x":120.4875964417095,"y":22.676400784503272}},{"attributes":{"OBJECTID":15143,"LANDMARKID":"1001300000823","LANDMARKCO":"401","LANDMARKNA":"屏東基督教醫院","LANDMARKAD":"1001301","ADDRESS":"屏東縣屏東市大連路60號","TEL":"08-7368686","COUNTYNAME":"屏東縣","TOWNNAME":"屏東市","MARKTYPE":"994","Class":"4"},"geometry":{"x":120.50259177207512,"y":22.682050507383487}},{"attributes":{"OBJECTID":15144,"LANDMARKID":"1001300000824","LANDMARKCO":"401","LANDMARKNA":"國軍高雄總醫院屏東分院","LANDMARKAD":"1001301","ADDRESS":"屏東縣屏東市大湖路58巷22號","TEL":"08-7560756","COUNTYNAME":"屏東縣","TOWNNAME":"屏東市","MARKTYPE":"994","Class":"4"},"geometry":{"x":120.48756562879599,"y":22.633503923451865}},{"attributes":{"OBJECTID":15145,"LANDMARKID":"1001300000825","LANDMARKCO":"401","LANDMARKNA":"寶建醫院","LANDMARKAD":"1001301","ADDRESS":"屏東縣屏東市中山路123號","TEL":"08-7665995","COUNTYNAME":"屏東縣","TOWNNAME":"屏東市","MARKTYPE":"994","Class":"4"},"geometry":{"x":120.48441397034365,"y":22.681807798371047}},{"attributes":{"OBJECTID":15146,"LANDMARKID":"1001300000826","LANDMARKCO":"401","LANDMARKNA":"復興醫院","LANDMARKAD":"1001301","ADDRESS":"屏東縣屏東市民生路147之3號","TEL":"08-7232323","COUNTYNAME":"屏東縣","TOWNNAME":"屏東市","MARKTYPE":"994","Class":"4"},"geometry":{"x":120.49572002532165,"y":22.668568988896119}},{"attributes":{"OBJECTID":15147,"LANDMARKID":"1001300000827","LANDMARKCO":"401","LANDMARKNA":"安和醫院","LANDMARKAD":"1001301","ADDRESS":"屏東縣屏東市崇蘭里自由路598號","TEL":"08-7651828","COUNTYNAME":"屏東縣","TOWNNAME":"屏東市","MARKTYPE":"994","Class":"4"},"geometry":{"x":120.48368231753324,"y":22.683428619014165}},{"attributes":{"OBJECTID":15148,"LANDMARKID":"1001300000828","LANDMARKCO":"401","LANDMARKNA":"育生醫院","LANDMARKAD":"1001301","ADDRESS":"屏東縣屏東市中正路620號","TEL":"08-7326521","COUNTYNAME":"屏東縣","TOWNNAME":"屏東市","MARKTYPE":"994","Class":"4"},"geometry":{"x":120.49709409960168,"y":22.687361806297659}},{"attributes":{"OBJECTID":15149,"LANDMARKID":"1001300000829","LANDMARKCO":"401","LANDMARKNA":"行政院衛生署屏東醫院","LANDMARKAD":"1001301","ADDRESS":"屏東縣屏東市自由路270號","TEL":"08-7363011","COUNTYNAME":"屏東縣","TOWNNAME":"屏東市","MARKTYPE":"994","Class":"4"},"geometry":{"x":120.49554057008548,"y":22.673263897806923}},{"attributes":{"OBJECTID":15150,"LANDMARKID":"1001300000830","LANDMARKCO":"401","LANDMARKNA":"國仁醫院","LANDMARKAD":"1001301","ADDRESS":"屏東縣屏東市民生東路12-2號","TEL":"08-7223000","COUNTYNAME":"屏東縣","TOWNNAME":"屏東市","MARKTYPE":"994","Class":"4"},"geometry":{"x":120.51443412147214,"y":22.658270095121402}},{"attributes":{"OBJECTID":15151,"LANDMARKID":"1001300000831","LANDMARKCO":"401","LANDMARKNA":"國新醫院","LANDMARKAD":"1001301","ADDRESS":"屏東縣屏東市福建路17號","TEL":"08-7345767","COUNTYNAME":"屏東縣","TOWNNAME":"屏東市","MARKTYPE":"994","Class":"4"},"geometry":{"x":120.49221051490903,"y":22.671845701499347}},{"attributes":{"OBJECTID":15152,"LANDMARKID":"1001300001253","LANDMARKCO":"507","LANDMARKNA":"下淡水鐵橋","LANDMARKAD":"1001301","ADDRESS":"屏東縣屏東市與高雄市大樹區竹寮村間跨高屏溪","TEL":" ","COUNTYNAME":"屏東縣","TOWNNAME":"屏東市","MARKTYPE":"995","Class":"5"},"geometry":{"x":120.43921693341917,"y":22.665691448813032}},{"attributes":{"OBJECTID":15153,"LANDMARKID":"1001300001254","LANDMARKCO":"507","LANDMARKNA":"阿猴城門(朝陽門)","LANDMARKAD":"1001301","ADDRESS":"屏東縣屏東市公園段三小段17地號","TEL":" ","COUNTYNAME":"屏東縣","TOWNNAME":"屏東市","MARKTYPE":"995","Class":"5"},"geometry":{"x":120.49143090482701,"y":22.676376269928816}},{"attributes":{"OBJECTID":15154,"LANDMARKID":"1001300001255","LANDMARKCO":"507","LANDMARKNA":"屏東書院","LANDMARKAD":"1001301","ADDRESS":"屏東縣屏東市太平里勝利路38號","TEL":" ","COUNTYNAME":"屏東縣","TOWNNAME":"屏東市","MARKTYPE":"995","Class":"5"},"geometry":{"x":120.49235363655555,"y":22.68024679484984}},{"attributes":{"OBJECTID":15155,"LANDMARKID":"1001300001239","LANDMARKCO":"506","LANDMARKNA":"茗園自耕茶園","LANDMARKAD":"1001301","ADDRESS":"屏東縣屏東市自立路106之1號","TEL":"08-7559886","COUNTYNAME":"屏東縣","TOWNNAME":"屏東市","MARKTYPE":"995","Class":"5"},"geometry":{"x":120.49645780170623,"y":22.672434390750873}},{"attributes":{"OBJECTID":15156,"LANDMARKID":"1001300001252","LANDMARKCO":"507","LANDMARKNA":"宗聖公祠","LANDMARKAD":"1001301","ADDRESS":"屏東縣屏東市勝豐里謙仁巷23號","TEL":" ","COUNTYNAME":"屏東縣","TOWNNAME":"屏東市","MARKTYPE":"995","Class":"5"},"geometry":{"x":120.49180129974711,"y":22.666699867513017}},{"attributes":{"OBJECTID":15157,"LANDMARKID":"1001300001089","LANDMARKCO":"408","LANDMARKNA":"郵局-屏東民生路郵局","LANDMARKAD":"1001301","ADDRESS":"屏東縣屏東市民生路250號","TEL":"(08)7323-310","COUNTYNAME":"屏東縣","TOWNNAME":"屏東市","MARKTYPE":"994","Class":"4"},"geometry":{"x":120.49151248839716,"y":22.670456518829354}},{"attributes":{"OBJECTID":15158,"LANDMARKID":"1001300001090","LANDMARKCO":"408","LANDMARKNA":"郵局-屏東林森路郵局","LANDMARKAD":"1001301","ADDRESS":"屏東縣屏東市林森路30-5號","TEL":"(08)7225-848","COUNTYNAME":"屏東縣","TOWNNAME":"屏東市","MARKTYPE":"994","Class":"4"},"geometry":{"x":120.49785965130566,"y":22.671463598579869}},{"attributes":{"OBJECTID":15159,"LANDMARKID":"1001300001091","LANDMARKCO":"408","LANDMARKNA":"郵局-屏東北平路郵局","LANDMARKAD":"1001301","ADDRESS":"屏東縣屏東市北平路26號","TEL":"(08)7326-608","COUNTYNAME":"屏東縣","TOWNNAME":"屏東市","MARKTYPE":"994","Class":"4"},"geometry":{"x":120.48878768500792,"y":22.675866572414787}},{"attributes":{"OBJECTID":15160,"LANDMARKID":"1001300001092","LANDMARKCO":"408","LANDMARKNA":"郵局-屏東大埔郵局","LANDMARKAD":"1001301","ADDRESS":"屏東縣屏東市民族路182-2號","TEL":"(08)7326-609","COUNTYNAME":"屏東縣","TOWNNAME":"屏東市","MARKTYPE":"994","Class":"4"},"geometry":{"x":120.48271225825096,"y":22.670878518506317}},{"attributes":{"OBJECTID":15161,"LANDMARKID":"1001300001093","LANDMARKCO":"408","LANDMARKNA":"郵局-屏東歸來郵局","LANDMARKAD":"1001301","ADDRESS":"屏東縣屏東市民生路61-7號","TEL":"(08)7224-840","COUNTYNAME":"屏東縣","TOWNNAME":"屏東市","MARKTYPE":"994","Class":"4"},"geometry":{"x":120.50343909565528,"y":22.66416601720891}},{"attributes":{"OBJECTID":15162,"LANDMARKID":"1001300001094","LANDMARKCO":"408","LANDMARKNA":"郵局-屏東永安郵局","LANDMARKAD":"1001301","ADDRESS":"屏東縣屏東市棒球路57號1樓","TEL":"(08)7535-942","COUNTYNAME":"屏東縣","TOWNNAME":"屏東市","MARKTYPE":"994","Class":"4"},"geometry":{"x":120.48151811191077,"y":22.655789249107553}},{"attributes":{"OBJECTID":15163,"LANDMARKID":"1001300001095","LANDMARKCO":"408","LANDMARKNA":"郵局-屏東海豐郵局","LANDMARKAD":"1001301","ADDRESS":"屏東縣屏東市海豐街36-4號","TEL":"(08)7367-224","COUNTYNAME":"屏東縣","TOWNNAME":"屏東市","MARKTYPE":"994","Class":"4"},"geometry":{"x":120.51093583511742,"y":22.700860315626826}},{"attributes":{"OBJECTID":15164,"LANDMARKID":"1001300001096","LANDMARKCO":"408","LANDMARKNA":"郵局-屏東公館郵局","LANDMARKAD":"1001301","ADDRESS":"屏東縣屏東市龍華路18號","TEL":"(08)7522-521","COUNTYNAME":"屏東縣","TOWNNAME":"屏東市","MARKTYPE":"994","Class":"4"},"geometry":{"x":120.48502267635845,"y":22.638012056462991}},{"attributes":{"OBJECTID":15165,"LANDMARKID":"1001300001097","LANDMARKCO":"408","LANDMARKNA":"郵局-屏東中正路郵局","LANDMARKAD":"1001301","ADDRESS":"屏東縣屏東市中正路247號","TEL":"(08)7327-905","COUNTYNAME":"屏東縣","TOWNNAME":"屏東市","MARKTYPE":"994","Class":"4"},"geometry":{"x":120.49176926327603,"y":22.682099115785956}},{"attributes":{"OBJECTID":15166,"LANDMARKID":"1001300001098","LANDMARKCO":"408","LANDMARKNA":"郵局-屏東廣東路郵局","LANDMARKAD":"1001301","ADDRESS":"屏東縣屏東市廣東路458-5號","TEL":"(08)7375-450","COUNTYNAME":"屏東縣","TOWNNAME":"屏東市","MARKTYPE":"994","Class":"4"},"geometry":{"x":120.50184478689042,"y":22.680330042888819}},{"attributes":{"OBJECTID":15167,"LANDMARKID":"1001300001099","LANDMARKCO":"408","LANDMARKNA":"郵局-屏東勝利路郵局","LANDMARKAD":"1001301","ADDRESS":"屏東縣屏東市勝利路123號","TEL":"(08)7653-774","COUNTYNAME":"屏東縣","TOWNNAME":"屏東市","MARKTYPE":"994","Class":"4"},"geometry":{"x":120.48593156069344,"y":22.679198645694299}},{"attributes":{"OBJECTID":15168,"LANDMARKID":"1001300001100","LANDMARKCO":"408","LANDMARKNA":"郵局-屏東六塊厝郵局","LANDMARKAD":"1001301","ADDRESS":"屏東縣屏東市光復路304號","TEL":"(08)7654-356","COUNTYNAME":"屏東縣","TOWNNAME":"屏東市","MARKTYPE":"994","Class":"4"},"geometry":{"x":120.47653346182149,"y":22.669411565471599}},{"attributes":{"OBJECTID":15169,"LANDMARKID":"1001300001101","LANDMARKCO":"408","LANDMARKNA":"郵局-屏東厚生郵局","LANDMARKAD":"1001301","ADDRESS":"屏東縣屏東市建國路182號","TEL":"(08)7522-841","COUNTYNAME":"屏東縣","TOWNNAME":"屏東市","MARKTYPE":"994","Class":"4"},"geometry":{"x":120.47901494397732,"y":22.665445076616137}},{"attributes":{"OBJECTID":15170,"LANDMARKID":"1001300001102","LANDMARKCO":"408","LANDMARKNA":"郵局-屏東民生東路郵局","LANDMARKAD":"1001301","ADDRESS":"屏東縣屏東市民生東路3號","TEL":"(08)7222-486","COUNTYNAME":"屏東縣","TOWNNAME":"屏東市","MARKTYPE":"994","Class":"4"},"geometry":{"x":120.51656948813826,"y":22.656716600199708}},{"attributes":{"OBJECTID":15171,"LANDMARKID":"1001300001103","LANDMARKCO":"408","LANDMARKNA":"郵局-屏東潭墘郵局","LANDMARKAD":"1001301","ADDRESS":"屏東縣屏東市勝利路350號(屏東空軍機場內)","TEL":"(08)7665-735","COUNTYNAME":"屏東縣","TOWNNAME":"屏東市","MARKTYPE":"994","Class":"4"},"geometry":{"x":120.47094512725853,"y":22.678266030081723}},{"attributes":{"OBJECTID":15172,"LANDMARKID":"1001300001104","LANDMARKCO":"408","LANDMARKNA":"郵局-屏東復興郵局","LANDMARKAD":"1001301","ADDRESS":"屏東縣屏東市一心里台糖街3號","TEL":"(08)7520-482","COUNTYNAME":"屏東縣","TOWNNAME":"屏東市","MARKTYPE":"994","Class":"4"},"geometry":{"x":120.48889803744235,"y":22.662991094154208}},{"attributes":{"OBJECTID":15173,"LANDMARKID":"1001300001105","LANDMARKCO":"408","LANDMARKNA":"郵局-屏東頭前溪郵局","LANDMARKAD":"1001301","ADDRESS":"屏東縣屏東市前進里清進巷79-6號","TEL":"(08)7520-804","COUNTYNAME":"屏東縣","TOWNNAME":"屏東市","MARKTYPE":"994","Class":"4"},"geometry":{"x":120.46469887376745,"y":22.648544772079905}},{"attributes":{"OBJECTID":15174,"LANDMARKID":"1001300001106","LANDMARKCO":"408","LANDMARKNA":"郵局-屏東崇蘭郵局","LANDMARKAD":"1001301","ADDRESS":"屏東縣屏東市廣東路990號","TEL":"(08)7330-072","COUNTYNAME":"屏東縣","TOWNNAME":"屏東市","MARKTYPE":"994","Class":"4"},"geometry":{"x":120.48537091633999,"y":22.687740628098073}},{"attributes":{"OBJECTID":15175,"LANDMARKID":"1001300001182","LANDMARKCO":"409","LANDMARKNA":"屏東縣農會","LANDMARKAD":"1001301","ADDRESS":"屏東縣屏東市厚生里公勇路99號","TEL":"08-7522187","COUNTYNAME":"屏東縣","TOWNNAME":"屏東市","MARKTYPE":"994","Class":"4"},"geometry":{"x":120.48329818291886,"y":22.668876009568812}},{"attributes":{"OBJECTID":15176,"LANDMARKID":"1001300001183","LANDMARKCO":"409","LANDMARKNA":"屏東市農會","LANDMARKAD":"1001301","ADDRESS":"屏東市橋南里工業路2號","TEL":"08-7214490","COUNTYNAME":"屏東縣","TOWNNAME":"屏東市","MARKTYPE":"994","Class":"4"},"geometry":{"x":120.49893897386596,"y":22.664787501679051}},{"attributes":{"OBJECTID":15177,"LANDMARKID":"1001300000897","LANDMARKCO":"404","LANDMARKNA":"台灣自來水屏東營運所","LANDMARKAD":"1001301","ADDRESS":"屏東市林森路6號","TEL":"08-7220040","COUNTYNAME":"屏東縣","TOWNNAME":"屏東市","MARKTYPE":"994","Class":"4"},"geometry":{"x":120.50281702068015,"y":22.670215315879307}},{"attributes":{"OBJECTID":15178,"LANDMARKID":"1001300000898","LANDMARKCO":"404","LANDMARKNA":"台灣自來水南區第五工務所","LANDMARKAD":"1001301","ADDRESS":"屏東縣屏東市林森路6號","TEL":"08-7236230","COUNTYNAME":"屏東縣","TOWNNAME":"屏東市","MARKTYPE":"994","Class":"4"},"geometry":{"x":120.50281702068015,"y":22.670215315879307}},{"attributes":{"OBJECTID":15179,"LANDMARKID":"1001300000893","LANDMARKCO":"403","LANDMARKNA":"台灣電力公司屏東區營業處","LANDMARKAD":"1001301","ADDRESS":"屏東縣屏東市中華路80號","TEL":" ","COUNTYNAME":"屏東縣","TOWNNAME":"屏東市","MARKTYPE":"994","Class":"4"},"geometry":{"x":120.49089560025703,"y":22.674043836934125}},{"attributes":{"OBJECTID":15180,"LANDMARKID":"1001300000894","LANDMARKCO":"404","LANDMARKNA":"台灣省自來水屏東營運所","LANDMARKAD":"1001301","ADDRESS":"屏東縣屏東市林森路6號","TEL":" ","COUNTYNAME":"屏東縣","TOWNNAME":"屏東市","MARKTYPE":"994","Class":"4"},"geometry":{"x":120.50356749669818,"y":22.671085009855631}},{"attributes":{"OBJECTID":15181,"LANDMARKID":"1001300001040","LANDMARKCO":"406","LANDMARKNA":"和平公園","LANDMARKAD":"1001301","ADDRESS":"屏東縣屏東市","TEL":" ","COUNTYNAME":"屏東縣","TOWNNAME":"屏東市","MARKTYPE":"994","Class":"4"},"geometry":{"x":120.50218699399986,"y":22.685516724440578}},{"attributes":{"OBJECTID":15182,"LANDMARKID":"1001300001041","LANDMARKCO":"406","LANDMARKNA":"豐華公園","LANDMARKAD":"1001301","ADDRESS":"屏東縣屏東市","TEL":" ","COUNTYNAME":"屏東縣","TOWNNAME":"屏東市","MARKTYPE":"994","Class":"4"},"geometry":{"x":120.50477868726222,"y":22.679335011152602}},{"attributes":{"OBJECTID":15183,"LANDMARKID":"1001300001042","LANDMARKCO":"406","LANDMARKNA":"莊敬公園","LANDMARKAD":"1001301","ADDRESS":"屏東縣屏東市","TEL":" ","COUNTYNAME":"屏東縣","TOWNNAME":"屏東市","MARKTYPE":"994","Class":"4"},"geometry":{"x":120.50312751901465,"y":22.68538941500023}},{"attributes":{"OBJECTID":15184,"LANDMARKID":"1001300001043","LANDMARKCO":"406","LANDMARKNA":"豐連公園","LANDMARKAD":"1001301","ADDRESS":"屏東縣屏東市","TEL":" ","COUNTYNAME":"屏東縣","TOWNNAME":"屏東市","MARKTYPE":"994","Class":"4"},"geometry":{"x":120.50979586589959,"y":22.677521896876346}},{"attributes":{"OBJECTID":15185,"LANDMARKID":"1001300001044","LANDMARKCO":"406","LANDMARKNA":"瑞光公園","LANDMARKAD":"1001301","ADDRESS":"屏東縣屏東市","TEL":" ","COUNTYNAME":"屏東縣","TOWNNAME":"屏東市","MARKTYPE":"994","Class":"4"},"geometry":{"x":120.51009800991133,"y":22.676165396898924}},{"attributes":{"OBJECTID":15186,"LANDMARKID":"1001300001045","LANDMARKCO":"406","LANDMARKNA":"興豐公園","LANDMARKAD":"1001301","ADDRESS":"屏東縣屏東市","TEL":" ","COUNTYNAME":"屏東縣","TOWNNAME":"屏東市","MARKTYPE":"994","Class":"4"},"geometry":{"x":120.50833280660437,"y":22.6818112274585}},{"attributes":{"OBJECTID":15187,"LANDMARKID":"1001300001046","LANDMARKCO":"406","LANDMARKNA":"清世公園","LANDMARKAD":"1001301","ADDRESS":"屏東縣屏東市","TEL":" ","COUNTYNAME":"屏東縣","TOWNNAME":"屏東市","MARKTYPE":"994","Class":"4"},"geometry":{"x":120.47180958662244,"y":22.656226112008319}},{"attributes":{"OBJECTID":15188,"LANDMARKID":"1001300001047","LANDMARKCO":"406","LANDMARKNA":"武威公園","LANDMARKAD":"1001301","ADDRESS":"屏東縣屏東市","TEL":" ","COUNTYNAME":"屏東縣","TOWNNAME":"屏東市","MARKTYPE":"994","Class":"4"},"geometry":{"x":120.47494735665983,"y":22.656034997058651}},{"attributes":{"OBJECTID":15189,"LANDMARKID":"1001300001048","LANDMARKCO":"406","LANDMARKNA":"武順公園","LANDMARKAD":"1001301","ADDRESS":"屏東縣屏東市","TEL":" ","COUNTYNAME":"屏東縣","TOWNNAME":"屏東市","MARKTYPE":"994","Class":"4"},"geometry":{"x":120.47647392691091,"y":22.654855594883948}},{"attributes":{"OBJECTID":15190,"LANDMARKID":"1001300001049","LANDMARKCO":"406","LANDMARKNA":"自立公園","LANDMARKAD":"1001301","ADDRESS":"屏東縣屏東市","TEL":" ","COUNTYNAME":"屏東縣","TOWNNAME":"屏東市","MARKTYPE":"994","Class":"4"},"geometry":{"x":120.48086236468257,"y":22.657338946480102}},{"attributes":{"OBJECTID":15191,"LANDMARKID":"1001300001050","LANDMARKCO":"406","LANDMARKNA":"復興公園","LANDMARKAD":"1001301","ADDRESS":"屏東縣屏東市","TEL":" ","COUNTYNAME":"屏東縣","TOWNNAME":"屏東市","MARKTYPE":"994","Class":"4"},"geometry":{"x":120.48284884014359,"y":22.65866991994417}},{"attributes":{"OBJECTID":15192,"LANDMARKID":"1001300001051","LANDMARKCO":"406","LANDMARKNA":"永大公園","LANDMARKAD":"1001301","ADDRESS":"屏東縣屏東市","TEL":" ","COUNTYNAME":"屏東縣","TOWNNAME":"屏東市","MARKTYPE":"994","Class":"4"},"geometry":{"x":120.47730966929272,"y":22.658732716919943}},{"attributes":{"OBJECTID":15193,"LANDMARKID":"1001300001052","LANDMARKCO":"406","LANDMARKNA":"武立公園","LANDMARKAD":"1001301","ADDRESS":"屏東縣屏東市","TEL":" ","COUNTYNAME":"屏東縣","TOWNNAME":"屏東市","MARKTYPE":"994","Class":"4"},"geometry":{"x":120.47457605564389,"y":22.658973277730983}},{"attributes":{"OBJECTID":15194,"LANDMARKID":"1001300001053","LANDMARKCO":"406","LANDMARKNA":"環保公園","LANDMARKAD":"1001301","ADDRESS":"屏東縣屏東市","TEL":" ","COUNTYNAME":"屏東縣","TOWNNAME":"屏東市","MARKTYPE":"994","Class":"4"},"geometry":{"x":120.47996185933522,"y":22.686635158766006}},{"attributes":{"OBJECTID":15195,"LANDMARKID":"1001300001054","LANDMARKCO":"406","LANDMARKNA":"扶輪公園","LANDMARKAD":"1001301","ADDRESS":"屏東縣屏東市","TEL":" ","COUNTYNAME":"屏東縣","TOWNNAME":"屏東市","MARKTYPE":"994","Class":"4"},"geometry":{"x":120.50103925849049,"y":22.67379357890669}},{"attributes":{"OBJECTID":15196,"LANDMARKID":"1001300001088","LANDMARKCO":"407","LANDMARKNA":"誠品Eslite","LANDMARKAD":"1001301","ADDRESS":"屏東市中正路72號7F","TEL":"08-765-1699","COUNTYNAME":"屏東縣","TOWNNAME":"屏東市","MARKTYPE":"994","Class":"4"},"geometry":{"x":120.48965170466184,"y":22.674059293484575}},{"attributes":{"OBJECTID":15197,"LANDMARKID":"1001300000969","LANDMARKCO":"405","LANDMARKNA":"全國加油站-屏東市站（台塑）","LANDMARKAD":"1001301","ADDRESS":"屏東縣屏東市中山路169號","TEL":"08-7326529","COUNTYNAME":"屏東縣","TOWNNAME":"屏東市","MARKTYPE":"994","Class":"4"},"geometry":{"x":120.48426037557935,"y":22.683525547931836}},{"attributes":{"OBJECTID":15198,"LANDMARKID":"1001300000970","LANDMARKCO":"405","LANDMARKNA":"福懋加油站-公館站(台塑)","LANDMARKAD":"1001301","ADDRESS":"屏東縣屏東市復興南路一段509號","TEL":"08-7518810","COUNTYNAME":"屏東縣","TOWNNAME":"屏東市","MARKTYPE":"994","Class":"4"},"geometry":{"x":120.48591907491283,"y":22.643799673117879}},{"attributes":{"OBJECTID":15199,"LANDMARKID":"1001300000971","LANDMARKCO":"405","LANDMARKNA":"福懋加油站-屏東站(台塑)","LANDMARKAD":"1001301","ADDRESS":"屏東縣屏東市瑞光路2段88號","TEL":"08-7214828","COUNTYNAME":"屏東縣","TOWNNAME":"屏東市","MARKTYPE":"994","Class":"4"},"geometry":{"x":120.51065242778883,"y":22.674129729029534}},{"attributes":{"OBJECTID":15200,"LANDMARKID":"1001300000972","LANDMARKCO":"405","LANDMARKNA":"台亞加油站-屏東站（台塑）","LANDMARKAD":"1001301","ADDRESS":"屏東市建國路130號","TEL":"(08)753-8115","COUNTYNAME":"屏東縣","TOWNNAME":"屏東市","MARKTYPE":"994","Class":"4"},"geometry":{"x":120.48110234361613,"y":22.66536182533779}}]}