{"displayFieldName":"COUNTYNAME","fieldAliases":{"OBJECTID":"OBJECTID","LANDMARKID":"LANDMARKID","LANDMARKCO":"LANDMARKCO","LANDMARKNA":"LANDMARKNA","LANDMARKAD":"LANDMARKAD","ADDRESS":"ADDRESS","TEL":"TEL","COUNTYNAME":"COUNTYNAME","TOWNNAME":"TOWNNAME","MARKTYPE":"MARKTYPE","Class":"Class"},"geometryType":"esriGeometryPoint","spatialReference":{"wkid":102443},"fields":[{"name":"OBJECTID","type":"esriFieldTypeOID","alias":"OBJECTID"},{"name":"LANDMARKID","type":"esriFieldTypeString","alias":"LANDMARKID","length":15},{"name":"LANDMARKCO","type":"esriFieldTypeString","alias":"LANDMARKCO","length":15},{"name":"LANDMARKNA","type":"esriFieldTypeString","alias":"LANDMARKNA","length":50},{"name":"LANDMARKAD","type":"esriFieldTypeString","alias":"LANDMARKAD","length":15},{"name":"ADDRESS","type":"esriFieldTypeString","alias":"ADDRESS","length":56},{"name":"TEL","type":"esriFieldTypeString","alias":"TEL","length":36},{"name":"COUNTYNAME","type":"esriFieldTypeString","alias":"COUNTYNAME","length":15},{"name":"TOWNNAME","type":"esriFieldTypeString","alias":"TOWNNAME","length":13},{"name":"MARKTYPE","type":"esriFieldTypeString","alias":"MARKTYPE","length":12},{"name":"Class","type":"esriFieldTypeString","alias":"Class","length":5}],"features":[{"attributes":{"OBJECTID":2001,"LANDMARKID":"1000300001539","LANDMARKCO":"603","LANDMARKNA":"百倫大飯店","LANDMARKAD":"1000311","ADDRESS":"桃園縣新屋鄉中山路296號7-9樓","TEL":"03-4777722","COUNTYNAME":"桃園市","TOWNNAME":"新屋區","MARKTYPE":"996","Class":"6"},"geometry":{"x":260736.98089999985,"y":2762782.0711000003}},{"attributes":{"OBJECTID":2002,"LANDMARKID":"1000300001540","LANDMARKCO":"603","LANDMARKNA":"歡樂汽車旅館","LANDMARKAD":"1000311","ADDRESS":"桃園縣新屋鄉梅高路二段551巷10號","TEL":"03-4909077","COUNTYNAME":"桃園市","TOWNNAME":"新屋區","MARKTYPE":"996","Class":"6"},"geometry":{"x":264783.22520000022,"y":2760096.7316999994}},{"attributes":{"OBJECTID":2003,"LANDMARKID":"1000300001541","LANDMARKCO":"603","LANDMARKNA":"豪登堡汽車旅館","LANDMARKAD":"1000311","ADDRESS":"桃園縣新屋鄉中華路399巷16號","TEL":"03-4971700","COUNTYNAME":"桃園市","TOWNNAME":"新屋區","MARKTYPE":"996","Class":"6"},"geometry":{"x":260657.78870000038,"y":2763265.2129999995}},{"attributes":{"OBJECTID":2004,"LANDMARKID":"1000300001424","LANDMARKCO":"505","LANDMARKNA":"永安雪森林濱海遊憩區","LANDMARKAD":"1000311","ADDRESS":"桃園縣新屋鄉笨港村8鄰50號","TEL":" ","COUNTYNAME":"桃園市","TOWNNAME":"新屋區","MARKTYPE":"995","Class":"5"},"geometry":{"x":251657.23859999981,"y":2764165.2772000004}},{"attributes":{"OBJECTID":2005,"LANDMARKID":"1000300001004","LANDMARKCO":"405","LANDMARKNA":"台灣優力加油站-嘉勇站(中油)","LANDMARKAD":"1000308","ADDRESS":"桃園縣八德市東勇北路160號","TEL":"03-3713181","COUNTYNAME":"桃園市","TOWNNAME":"八德區","MARKTYPE":"994","Class":"4"},"geometry":{"x":280969.75150000025,"y":2762679.4600000009}},{"attributes":{"OBJECTID":2006,"LANDMARKID":"1000300001005","LANDMARKCO":"405","LANDMARKNA":"中油加油站-忠德站","LANDMARKAD":"1000308","ADDRESS":"桃園縣八德市廣福路1355號","TEL":"03-3711338","COUNTYNAME":"桃園市","TOWNNAME":"八德區","MARKTYPE":"994","Class":"4"},"geometry":{"x":276900.74859999958,"y":2760950.8896999992}},{"attributes":{"OBJECTID":2007,"LANDMARKID":"1000300001006","LANDMARKCO":"405","LANDMARKNA":"中油加油站-銘豐站","LANDMARKAD":"1000308","ADDRESS":"桃園縣八德市興豐路885號","TEL":"03-3653897","COUNTYNAME":"桃園市","TOWNNAME":"八德區","MARKTYPE":"994","Class":"4"},"geometry":{"x":280529.98990000039,"y":2758579.2909999993}},{"attributes":{"OBJECTID":2008,"LANDMARKID":"1000300001007","LANDMARKCO":"405","LANDMARKNA":"山隆加油站-八德站(中油)","LANDMARKAD":"1000308","ADDRESS":"桃園縣八德市廣福路669號","TEL":"(03)366-4565","COUNTYNAME":"桃園市","TOWNNAME":"八德區","MARKTYPE":"994","Class":"4"},"geometry":{"x":278559.99519999977,"y":2761414.8263000008}},{"attributes":{"OBJECTID":2009,"LANDMARKID":"1000300001008","LANDMARKCO":"405","LANDMARKNA":"中油加油站-興隆站(中油直營)","LANDMARKAD":"1000308","ADDRESS":"桃園縣八德市中山路228號","TEL":"03-3685348","COUNTYNAME":"桃園市","TOWNNAME":"八德區","MARKTYPE":"994","Class":"4"},"geometry":{"x":278720.06599999964,"y":2757530.5338000003}},{"attributes":{"OBJECTID":2010,"LANDMARKID":"1000300001009","LANDMARKCO":"405","LANDMARKNA":"中油加油站-茄苳站(中油直營)","LANDMARKAD":"1000308","ADDRESS":"桃園縣八德市茄苳里中華路575號","TEL":"03-3696978","COUNTYNAME":"桃園市","TOWNNAME":"八德區","MARKTYPE":"994","Class":"4"},"geometry":{"x":277232.82340000011,"y":2763280.5430999994}},{"attributes":{"OBJECTID":2011,"LANDMARKID":"1000300001010","LANDMARKCO":"405","LANDMARKNA":"統一速邁樂加油站-八德加油站(中油)","LANDMARKAD":"1000308","ADDRESS":"桃園縣八德市大華里介壽路二段167號","TEL":" ","COUNTYNAME":"桃園市","TOWNNAME":"八德區","MARKTYPE":"994","Class":"4"},"geometry":{"x":280156.46939999983,"y":2760613.2809999995}},{"attributes":{"OBJECTID":2012,"LANDMARKID":"1000300001011","LANDMARKCO":"405","LANDMARKNA":"中油加油站-興豐站(中油直營)","LANDMARKAD":"1000308","ADDRESS":"桃園縣八德市興豐路1810號","TEL":"03-3653996","COUNTYNAME":"桃園市","TOWNNAME":"八德區","MARKTYPE":"994","Class":"4"},"geometry":{"x":281941.56510000024,"y":2759786.3333000001}},{"attributes":{"OBJECTID":2013,"LANDMARKID":"1000300001012","LANDMARKCO":"405","LANDMARKNA":"中油加油站-佳園站","LANDMARKAD":"1000308","ADDRESS":"桃園縣八德市福德一路395號","TEL":"03-3626653","COUNTYNAME":"桃園市","TOWNNAME":"八德區","MARKTYPE":"994","Class":"4"},"geometry":{"x":282470.12090000045,"y":2761479.6448999997}},{"attributes":{"OBJECTID":2014,"LANDMARKID":"1000300001013","LANDMARKCO":"405","LANDMARKNA":"統一速邁樂加油站-八德二站加油站(中油)","LANDMARKAD":"1000308","ADDRESS":"桃園縣八德市新興路281號","TEL":" ","COUNTYNAME":"桃園市","TOWNNAME":"八德區","MARKTYPE":"994","Class":"4"},"geometry":{"x":278706.9478000002,"y":2760089.0337000005}},{"attributes":{"OBJECTID":2015,"LANDMARKID":"1000300001014","LANDMARKCO":"405","LANDMARKNA":"中油加油站-鼎益站","LANDMARKAD":"1000308","ADDRESS":"桃園縣八德市興仁村興豐路78號","TEL":"03-3682556","COUNTYNAME":"桃園市","TOWNNAME":"八德區","MARKTYPE":"994","Class":"4"},"geometry":{"x":278547.08440000005,"y":2757977.9181999993}},{"attributes":{"OBJECTID":2016,"LANDMARKID":"1000300001015","LANDMARKCO":"405","LANDMARKNA":"中油加油站-佳興站","LANDMARKAD":"1000308","ADDRESS":"桃園縣八德市介壽路二段631號","TEL":"03-3689367","COUNTYNAME":"桃園市","TOWNNAME":"八德區","MARKTYPE":"994","Class":"4"},"geometry":{"x":280059.01420000009,"y":2759260.6373999994}},{"attributes":{"OBJECTID":2017,"LANDMARKID":"1000300001016","LANDMARKCO":"405","LANDMARKNA":"中油加油站-泉有站","LANDMARKAD":"1000308","ADDRESS":"桃園縣八德市和強路308號","TEL":"03-3715998","COUNTYNAME":"桃園市","TOWNNAME":"八德區","MARKTYPE":"994","Class":"4"},"geometry":{"x":281275.18769999966,"y":2761773.7810999993}},{"attributes":{"OBJECTID":2018,"LANDMARKID":"1000300001017","LANDMARKCO":"405","LANDMARKNA":"山隆加油站-廣興站(中油)","LANDMARKAD":"1000308","ADDRESS":"桃園縣八德市建國路776號","TEL":"03-3712497","COUNTYNAME":"桃園市","TOWNNAME":"八德區","MARKTYPE":"994","Class":"4"},"geometry":{"x":279376.35039999988,"y":2760409.7562000006}},{"attributes":{"OBJECTID":2019,"LANDMARKID":"1000300000844","LANDMARKCO":"402","LANDMARKNA":"My Phone台灣大哥大-八德－介壽II","LANDMARKAD":"1000308","ADDRESS":"桃園縣八德市大慶里介壽路一段876號","TEL":"03-3639393","COUNTYNAME":"桃園市","TOWNNAME":"八德區","MARKTYPE":"994","Class":"4"},"geometry":{"x":280249.68130000029,"y":2761420.3841999993}},{"attributes":{"OBJECTID":2020,"LANDMARKID":"1000300000845","LANDMARKCO":"402","LANDMARKNA":"My Phone台灣大哥大-桃園八德直營服務中心","LANDMARKAD":"1000308","ADDRESS":"桃園縣八德市介壽路一段780號","TEL":" ","COUNTYNAME":"桃園市","TOWNNAME":"八德區","MARKTYPE":"994","Class":"4"},"geometry":{"x":280295.95469999965,"y":2761723.3819999993}},{"attributes":{"OBJECTID":2021,"LANDMARKID":"1000300000846","LANDMARKCO":"402","LANDMARKNA":"亞太行動寬頻電信-八德桃鶯加盟服務中心","LANDMARKAD":"1000308","ADDRESS":"桃園縣八德市桃鶯路68號","TEL":"03-3641155","COUNTYNAME":"桃園市","TOWNNAME":"八德區","MARKTYPE":"994","Class":"4"},"geometry":{"x":283052.60649999976,"y":2762575.0855}},{"attributes":{"OBJECTID":2022,"LANDMARKID":"1000300000847","LANDMARKCO":"402","LANDMARKNA":"亞太行動寬頻電信-八德介壽加盟服務中心","LANDMARKAD":"1000308","ADDRESS":"桃園縣八德市介壽路一段961號","TEL":"03-3711611","COUNTYNAME":"桃園市","TOWNNAME":"八德區","MARKTYPE":"994","Class":"4"},"geometry":{"x":280253.82129999995,"y":2761286.4727999996}},{"attributes":{"OBJECTID":2023,"LANDMARKID":"1000300001351","LANDMARKCO":"408","LANDMARKNA":"郵局-八德大湳郵局","LANDMARKAD":"1000308","ADDRESS":"桃園縣八德市介壽路1段842號","TEL":"(03)3620-477","COUNTYNAME":"桃園市","TOWNNAME":"八德區","MARKTYPE":"994","Class":"4"},"geometry":{"x":280262.8356999997,"y":2761510.9920000006}},{"attributes":{"OBJECTID":2024,"LANDMARKID":"1000300001352","LANDMARKCO":"408","LANDMARKNA":"郵局-八德郵局","LANDMARKAD":"1000308","ADDRESS":"桃園縣八德市八德市興豐路38號","TEL":"(03)3681-697","COUNTYNAME":"桃園市","TOWNNAME":"八德區","MARKTYPE":"994","Class":"4"},"geometry":{"x":278779.27630000003,"y":2758184.8048}},{"attributes":{"OBJECTID":2025,"LANDMARKID":"1000300001353","LANDMARKCO":"408","LANDMARKNA":"郵局-八德更寮腳郵局","LANDMARKAD":"1000308","ADDRESS":"桃園縣八德市介壽路2段1030號","TEL":"(03)3684-554","COUNTYNAME":"桃園市","TOWNNAME":"八德區","MARKTYPE":"994","Class":"4"},"geometry":{"x":280038.91720000003,"y":2758373.8803000003}},{"attributes":{"OBJECTID":2026,"LANDMARKID":"1000300001354","LANDMARKCO":"408","LANDMARKNA":"郵局-八德高城郵局","LANDMARKAD":"1000308","ADDRESS":"桃園縣八德市永豐路581號","TEL":"(03)3696-483","COUNTYNAME":"桃園市","TOWNNAME":"八德區","MARKTYPE":"994","Class":"4"},"geometry":{"x":277680.88900000043,"y":2763074.7548999991}},{"attributes":{"OBJECTID":2027,"LANDMARKID":"1000300001355","LANDMARKCO":"408","LANDMARKNA":"郵局-八德麻園郵局","LANDMARKAD":"1000308","ADDRESS":"桃園縣八德市介壽路2段298號","TEL":"(03)3678-344","COUNTYNAME":"桃園市","TOWNNAME":"八德區","MARKTYPE":"994","Class":"4"},"geometry":{"x":280062.04119999986,"y":2760218.8412999995}},{"attributes":{"OBJECTID":2028,"LANDMARKID":"1000300001385","LANDMARKCO":"409","LANDMARKNA":"八德市農會","LANDMARKAD":"1000308","ADDRESS":"桃園縣八德市興豐路268號","TEL":"03-368761","COUNTYNAME":"桃園市","TOWNNAME":"八德區","MARKTYPE":"994","Class":"4"},"geometry":{"x":278799.61620000005,"y":2757954.1991000008}},{"attributes":{"OBJECTID":2029,"LANDMARKID":"1000300000939","LANDMARKCO":"404","LANDMARKNA":"台灣省自來水八德服務所","LANDMARKAD":"1000308","ADDRESS":"桃園縣八德市介壽路二段252巷21號","TEL":" ","COUNTYNAME":"桃園市","TOWNNAME":"八德區","MARKTYPE":"994","Class":"4"},"geometry":{"x":280001.15880000032,"y":2760365.6228}},{"attributes":{"OBJECTID":2030,"LANDMARKID":"1000300001252","LANDMARKCO":"406","LANDMARKNA":"白鷺公園","LANDMARKAD":"1000308","ADDRESS":"桃園縣八德市","TEL":" ","COUNTYNAME":"桃園市","TOWNNAME":"八德區","MARKTYPE":"994","Class":"4"},"geometry":{"x":277291.00320000015,"y":2761475.9050999992}},{"attributes":{"OBJECTID":2031,"LANDMARKID":"1000300001253","LANDMARKCO":"406","LANDMARKNA":"社區公園","LANDMARKAD":"1000308","ADDRESS":"桃園縣八德市","TEL":" ","COUNTYNAME":"桃園市","TOWNNAME":"八德區","MARKTYPE":"994","Class":"4"},"geometry":{"x":278722.36980000045,"y":2758597.5812999997}},{"attributes":{"OBJECTID":2032,"LANDMARKID":"1000300001000","LANDMARKCO":"405","LANDMARKNA":"全國加油站-桃園中華站（台塑）","LANDMARKAD":"1000308","ADDRESS":"桃園縣八德市中華路218號","TEL":"03-3780097","COUNTYNAME":"桃園市","TOWNNAME":"八德區","MARKTYPE":"994","Class":"4"},"geometry":{"x":278058.55279999971,"y":2763965.4265000001}},{"attributes":{"OBJECTID":2033,"LANDMARKID":"1000300001001","LANDMARKCO":"405","LANDMARKNA":"全國加油站-八德站（台塑）","LANDMARKAD":"1000308","ADDRESS":"桃園縣八德市和平路808號","TEL":"03-3636501","COUNTYNAME":"桃園市","TOWNNAME":"八德區","MARKTYPE":"994","Class":"4"},"geometry":{"x":282153.45069999993,"y":2761174.7368999999}},{"attributes":{"OBJECTID":2034,"LANDMARKID":"1000300001002","LANDMARKCO":"405","LANDMARKNA":"全國加油站-鶯歌交流道站（台塑）","LANDMARKAD":"1000308","ADDRESS":"桃園縣八德市福德一路72號","TEL":"03-3770352","COUNTYNAME":"桃園市","TOWNNAME":"八德區","MARKTYPE":"994","Class":"4"},"geometry":{"x":283114.94359999988,"y":2762020.9434999991}},{"attributes":{"OBJECTID":2035,"LANDMARKID":"1000300001003","LANDMARKCO":"405","LANDMARKNA":"台亞加油站-八德交流道站（台塑）","LANDMARKAD":"1000308","ADDRESS":"桃園縣八德市和平路863號","TEL":"(03)371-0837","COUNTYNAME":"桃園市","TOWNNAME":"八德區","MARKTYPE":"994","Class":"4"},"geometry":{"x":282233.23350000009,"y":2761357.1535999998}},{"attributes":{"OBJECTID":2036,"LANDMARKID":"1000300000093","LANDMARKCO":"105","LANDMARKNA":"桃園縣八德地政事務所","LANDMARKAD":"1000308","ADDRESS":"園縣八德市重慶街146號","TEL":"03-3667478","COUNTYNAME":"桃園市","TOWNNAME":"八德區","MARKTYPE":"991","Class":"1"},"geometry":{"x":280170.40039999969,"y":2761069.6621000003}},{"attributes":{"OBJECTID":2037,"LANDMARKID":"1000300000168","LANDMARKCO":"107","LANDMARKNA":"桃園縣政府警察局高明派出所","LANDMARKAD":"1000308","ADDRESS":"桃園縣八德市高明里永豐路572巷17號","TEL":"03-3692187","COUNTYNAME":"桃園市","TOWNNAME":"八德區","MARKTYPE":"991","Class":"1"},"geometry":{"x":277458.18829999957,"y":2763129.5001999997}},{"attributes":{"OBJECTID":2038,"LANDMARKID":"1000300000107","LANDMARKCO":"106","LANDMARKNA":"桃園縣八德市戶政事務所","LANDMARKAD":"1000308","ADDRESS":"桃園縣八德市興豐路304巷2號","TEL":"03-3682851","COUNTYNAME":"桃園市","TOWNNAME":"八德區","MARKTYPE":"991","Class":"1"},"geometry":{"x":278906.3189000003,"y":2757959.9890999999}},{"attributes":{"OBJECTID":2039,"LANDMARKID":"1000300000053","LANDMARKCO":"103","LANDMARKNA":"桃園縣八德市衛生所","LANDMARKAD":"1000308","ADDRESS":"桃園縣八德市介壽路2段361巷28號","TEL":"03-3662781","COUNTYNAME":"桃園市","TOWNNAME":"八德區","MARKTYPE":"991","Class":"1"},"geometry":{"x":280185.07689999975,"y":2759999.6344000008}},{"attributes":{"OBJECTID":2040,"LANDMARKID":"1000300000247","LANDMARKCO":"108","LANDMARKNA":"桃園縣八德市公所","LANDMARKAD":"1000308","ADDRESS":"桃園縣八德市興仁里中山路47號","TEL":"03-3683155","COUNTYNAME":"桃園市","TOWNNAME":"八德區","MARKTYPE":"991","Class":"1"},"geometry":{"x":278748.25499999989,"y":2757929.7334000003}},{"attributes":{"OBJECTID":2041,"LANDMARKID":"1000300000051","LANDMARKCO":"103","LANDMARKNA":"桃園縣八德市市民代表會","LANDMARKAD":"1000308","ADDRESS":"桃園縣八德市興豐路287號","TEL":"03-3687878","COUNTYNAME":"桃園市","TOWNNAME":"八德區","MARKTYPE":"991","Class":"1"},"geometry":{"x":278816.33930000011,"y":2757969.5906000007}},{"attributes":{"OBJECTID":2042,"LANDMARKID":"1000300000170","LANDMARKCO":"107","LANDMARKNA":"桃園縣消防局八德消防分隊","LANDMARKAD":"1000308","ADDRESS":"桃園縣八德市介壽路二段685巷10號","TEL":"03-3681440","COUNTYNAME":"桃園市","TOWNNAME":"八德區","MARKTYPE":"991","Class":"1"},"geometry":{"x":280071.21530000027,"y":2759139.8890000004}},{"attributes":{"OBJECTID":2043,"LANDMARKID":"1000300000171","LANDMARKCO":"107","LANDMARKNA":"桃園縣消防局大湳消防分隊","LANDMARKAD":"1000308","ADDRESS":"桃園縣八德市建國路1133號","TEL":"03-3661570","COUNTYNAME":"桃園市","TOWNNAME":"八德區","MARKTYPE":"991","Class":"1"},"geometry":{"x":280024.42109999992,"y":2761079.9824999999}},{"attributes":{"OBJECTID":2044,"LANDMARKID":"1000300000172","LANDMARKCO":"107","LANDMARKNA":"桃園縣政府警察局八德派出所","LANDMARKAD":"1000308","ADDRESS":"桃園縣八德市興仁里中山路23號","TEL":"03-3687644","COUNTYNAME":"桃園市","TOWNNAME":"八德區","MARKTYPE":"991","Class":"1"},"geometry":{"x":278760.46449999977,"y":2758029.7078000009}},{"attributes":{"OBJECTID":2045,"LANDMARKID":"1000300000173","LANDMARKCO":"107","LANDMARKNA":"桃園縣政府警察局八德分局","LANDMARKAD":"1000308","ADDRESS":"桃園縣八德市興豐路1216號","TEL":"03-3731907","COUNTYNAME":"桃園市","TOWNNAME":"八德區","MARKTYPE":"991","Class":"1"},"geometry":{"x":281205.55339999963,"y":2758979.8583000004}},{"attributes":{"OBJECTID":2046,"LANDMARKID":"1000300000174","LANDMARKCO":"107","LANDMARKNA":"桃園縣政府警察局廣興派出所","LANDMARKAD":"1000308","ADDRESS":"桃園縣八德市廣興里廣興路829號","TEL":"03-3775127","COUNTYNAME":"桃園市","TOWNNAME":"八德區","MARKTYPE":"991","Class":"1"},"geometry":{"x":278637.39309999999,"y":2760149.9556000009}},{"attributes":{"OBJECTID":2047,"LANDMARKID":"1000300000175","LANDMARKCO":"107","LANDMARKNA":"桃園縣政府警察局四維派出所","LANDMARKAD":"1000308","ADDRESS":"桃園縣八德市重慶街148號","TEL":"03-3662771","COUNTYNAME":"桃園市","TOWNNAME":"八德區","MARKTYPE":"991","Class":"1"},"geometry":{"x":280198.54959999956,"y":2760829.6017000005}},{"attributes":{"OBJECTID":2048,"LANDMARKID":"1000300000176","LANDMARKCO":"107","LANDMARKNA":"桃園縣政府警察局大安派出所","LANDMARKAD":"1000308","ADDRESS":"桃園縣八德市和平路頂僑街25號","TEL":"03-3644106","COUNTYNAME":"桃園市","TOWNNAME":"八德區","MARKTYPE":"991","Class":"1"},"geometry":{"x":281013.08389999997,"y":2761849.6448999997}},{"attributes":{"OBJECTID":2049,"LANDMARKID":"1000300000028","LANDMARKCO":"101","LANDMARKNA":"國軍退除役官兵輔導委員會","LANDMARKAD":"1000308","ADDRESS":"桃園縣八德市興豐路1217號","TEL":"03-3681140","COUNTYNAME":"桃園市","TOWNNAME":"八德區","MARKTYPE":"991","Class":"1"},"geometry":{"x":281182.12669999991,"y":2759099.9100000001}},{"attributes":{"OBJECTID":2050,"LANDMARKID":"1000300000550","LANDMARKCO":"204","LANDMARKNA":"桃園縣立圖書館八德分館","LANDMARKAD":"1000308","ADDRESS":"桃園縣八德市興豐路264號","TEL":" ","COUNTYNAME":"桃園市","TOWNNAME":"八德區","MARKTYPE":"992","Class":"2"},"geometry":{"x":278775.61550000031,"y":2757945.9547000006}},{"attributes":{"OBJECTID":2051,"LANDMARKID":"1000300000289","LANDMARKCO":"202","LANDMARKNA":"縣立永豐高中","LANDMARKAD":"1000308","ADDRESS":"桃園縣八德市華康街26號","TEL":"03-3692679","COUNTYNAME":"桃園市","TOWNNAME":"八德區","MARKTYPE":"992","Class":"2"},"geometry":{"x":277186.59960000031,"y":2763029.4890999999}},{"attributes":{"OBJECTID":2052,"LANDMARKID":"1000300000290","LANDMARKCO":"202","LANDMARKNA":"縣立永豐高中附設國中部","LANDMARKAD":"1000308","ADDRESS":"桃園縣八德市華康街26號","TEL":"03-3692679","COUNTYNAME":"桃園市","TOWNNAME":"八德區","MARKTYPE":"992","Class":"2"},"geometry":{"x":277188.00899999961,"y":2763039.4850999992}},{"attributes":{"OBJECTID":2053,"LANDMARKID":"1000300000291","LANDMARKCO":"202","LANDMARKNA":"私立新興高中","LANDMARKAD":"1000308","ADDRESS":"桃園縣八德市茄苳村永豐路563號","TEL":"03-3796996","COUNTYNAME":"桃園市","TOWNNAME":"八德區","MARKTYPE":"992","Class":"2"},"geometry":{"x":277433.02809999976,"y":2763049.5505999997}},{"attributes":{"OBJECTID":2054,"LANDMARKID":"1000300000405","LANDMARKCO":"203","LANDMARKNA":"縣立大成國中","LANDMARKAD":"1000308","ADDRESS":"桃園縣八德市大勇村忠勇街12號","TEL":"03-3625633","COUNTYNAME":"桃園市","TOWNNAME":"八德區","MARKTYPE":"992","Class":"2"},"geometry":{"x":280863.09630000032,"y":2761239.9865000006}},{"attributes":{"OBJECTID":2055,"LANDMARKID":"1000300000406","LANDMARKCO":"203","LANDMARKNA":"縣立八德國中","LANDMARKAD":"1000308","ADDRESS":"桃園縣八德市興豐路321號","TEL":"03-3685322","COUNTYNAME":"桃園市","TOWNNAME":"八德區","MARKTYPE":"992","Class":"2"},"geometry":{"x":279031.50999999978,"y":2758049.7248999998}},{"attributes":{"OBJECTID":2056,"LANDMARKID":"1000300000407","LANDMARKCO":"203","LANDMARKNA":"縣立八德國小","LANDMARKAD":"1000308","ADDRESS":"桃園縣八德市興仁村中山路94號","TEL":"03-3682943","COUNTYNAME":"桃園市","TOWNNAME":"八德區","MARKTYPE":"992","Class":"2"},"geometry":{"x":278621.12930000015,"y":2757869.9989999998}},{"attributes":{"OBJECTID":2057,"LANDMARKID":"1000300000408","LANDMARKCO":"203","LANDMARKNA":"縣立瑞豐國小","LANDMARKAD":"1000308","ADDRESS":"桃園縣八德市介壽路二段933巷40號","TEL":"03-3682787","COUNTYNAME":"桃園市","TOWNNAME":"八德區","MARKTYPE":"992","Class":"2"},"geometry":{"x":280289.62469999958,"y":2758709.4116999991}},{"attributes":{"OBJECTID":2058,"LANDMARKID":"1000300000409","LANDMARKCO":"203","LANDMARKNA":"縣立大勇國小","LANDMARKAD":"1000308","ADDRESS":"桃園縣八德市大勇村自強街60號","TEL":"03-3622017","COUNTYNAME":"桃園市","TOWNNAME":"八德區","MARKTYPE":"992","Class":"2"},"geometry":{"x":280733.42619999964,"y":2762309.6447999999}},{"attributes":{"OBJECTID":2059,"LANDMARKID":"1000300000410","LANDMARKCO":"203","LANDMARKNA":"縣立大安國小","LANDMARKAD":"1000308","ADDRESS":"桃園縣八德市大安村和平路638號","TEL":"03-3661419","COUNTYNAME":"桃園市","TOWNNAME":"八德區","MARKTYPE":"992","Class":"2"},"geometry":{"x":281864.13520000037,"y":2760949.6176999994}},{"attributes":{"OBJECTID":2060,"LANDMARKID":"1000300000411","LANDMARKCO":"203","LANDMARKNA":"縣立大忠國小","LANDMARKAD":"1000308","ADDRESS":"桃園縣八德市忠誠街18號","TEL":"03-3635206","COUNTYNAME":"桃園市","TOWNNAME":"八德區","MARKTYPE":"992","Class":"2"},"geometry":{"x":280370.25219999999,"y":2761309.8363000005}},{"attributes":{"OBJECTID":2061,"LANDMARKID":"1000300000412","LANDMARKCO":"203","LANDMARKNA":"縣立大成國小","LANDMARKAD":"1000308","ADDRESS":"桃園縣八德市廣福路31號","TEL":"03-3661155","COUNTYNAME":"桃園市","TOWNNAME":"八德區","MARKTYPE":"992","Class":"2"},"geometry":{"x":280055.59669999965,"y":2761159.9142000005}},{"attributes":{"OBJECTID":2062,"LANDMARKID":"1000300000413","LANDMARKCO":"203","LANDMARKNA":"縣立廣興國小","LANDMARKAD":"1000308","ADDRESS":"桃園縣八德市廣興村3鄰1號","TEL":"03-3666007","COUNTYNAME":"桃園市","TOWNNAME":"八德區","MARKTYPE":"992","Class":"2"},"geometry":{"x":278502.11689999979,"y":2759709.6564000007}},{"attributes":{"OBJECTID":2063,"LANDMARKID":"1000300000414","LANDMARKCO":"203","LANDMARKNA":"縣立茄苳國小","LANDMARKAD":"1000308","ADDRESS":"桃園縣八德市八德鄉永豐路155號","TEL":"03-3611425","COUNTYNAME":"桃園市","TOWNNAME":"八德區","MARKTYPE":"992","Class":"2"},"geometry":{"x":278082.15029999986,"y":2761879.9370000008}},{"attributes":{"OBJECTID":2064,"LANDMARKID":"1000300000415","LANDMARKCO":"203","LANDMARKNA":"縣立霄裡國小","LANDMARKAD":"1000308","ADDRESS":"桃園縣八德市竹圍村魚池下14號","TEL":"03-3651101","COUNTYNAME":"桃園市","TOWNNAME":"八德區","MARKTYPE":"992","Class":"2"},"geometry":{"x":276711.10290000029,"y":2758779.8914000001}},{"attributes":{"OBJECTID":2065,"LANDMARKID":"1000300000257","LANDMARKCO":"201","LANDMARKNA":"陸軍化兵學校","LANDMARKAD":"1000308","ADDRESS":"桃園縣八德市","TEL":" ","COUNTYNAME":"桃園市","TOWNNAME":"八德區","MARKTYPE":"992","Class":"2"},"geometry":{"x":280055.6054999996,"y":2757779.9306000005}},{"attributes":{"OBJECTID":2066,"LANDMARKID":"1000300000709","LANDMARKCO":"308","LANDMARKNA":"國2-大湳交流道-南下","LANDMARKAD":"1000308","ADDRESS":"桃園縣八德市","TEL":" ","COUNTYNAME":"桃園市","TOWNNAME":"八德區","MARKTYPE":"993","Class":"308"},"geometry":{"x":282777.82749999966,"y":2761324.1500000004}},{"attributes":{"OBJECTID":2067,"LANDMARKID":"1000300000710","LANDMARKCO":"308","LANDMARKNA":"國2-大湳交流道-北上","LANDMARKAD":"1000308","ADDRESS":"桃園縣八德市","TEL":" ","COUNTYNAME":"桃園市","TOWNNAME":"八德區","MARKTYPE":"993","Class":"308"},"geometry":{"x":282701.79279999994,"y":2761830.1005000006}},{"attributes":{"OBJECTID":2068,"LANDMARKID":"1000300000613","LANDMARKCO":"303","LANDMARKNA":"大湳停車場","LANDMARKAD":"1000308","ADDRESS":"桃園縣八德市廣福路","TEL":"03-3635647","COUNTYNAME":"桃園市","TOWNNAME":"八德區","MARKTYPE":"993","Class":"303"},"geometry":{"x":280087.6166000003,"y":2761254.4690000005}},{"attributes":{"OBJECTID":2069,"LANDMARKID":"1000300000614","LANDMARKCO":"303","LANDMARKNA":"大忠國小地下停車場","LANDMARKAD":"1000308","ADDRESS":"桃園縣八德市忠誠街18號b1","TEL":"03-3624389","COUNTYNAME":"桃園市","TOWNNAME":"八德區","MARKTYPE":"993","Class":"303"},"geometry":{"x":280372.03579999972,"y":2761412.3935000002}},{"attributes":{"OBJECTID":2070,"LANDMARKID":"1000300000615","LANDMARKCO":"303","LANDMARKNA":"八得大楠停一公有停車場","LANDMARKAD":"1000308","ADDRESS":"桃園縣八德市廣福路42號","TEL":" ","COUNTYNAME":"桃園市","TOWNNAME":"八德區","MARKTYPE":"993","Class":"303"},"geometry":{"x":280144.47339999955,"y":2761256.5051000006}},{"attributes":{"OBJECTID":2071,"LANDMARKID":"1000300000616","LANDMARKCO":"303","LANDMARKNA":"台灣聯通停車場-大湳場","LANDMARKAD":"1000308","ADDRESS":"桃園縣八德市福國北街77號前","TEL":" ","COUNTYNAME":"桃園市","TOWNNAME":"八德區","MARKTYPE":"993","Class":"303"},"geometry":{"x":279765.10280000046,"y":2761470.8388}},{"attributes":{"OBJECTID":2072,"LANDMARKID":"1000300000617","LANDMARKCO":"303","LANDMARKNA":"中興嘟嘟房停車場-八德大忠站","LANDMARKAD":"1000308","ADDRESS":"桃園縣八德市大忠街141號B1-B2","TEL":"03-3624389","COUNTYNAME":"桃園市","TOWNNAME":"八德區","MARKTYPE":"993","Class":"303"},"geometry":{"x":280348.33380000014,"y":2761420.8947000001}},{"attributes":{"OBJECTID":2073,"LANDMARKID":"1000300000618","LANDMARKCO":"303","LANDMARKNA":"中興嘟嘟房停車場-桃園大湳(加盟)站","LANDMARKAD":"1000308","ADDRESS":"桃園縣八德市廣福路42號","TEL":"03-3635647","COUNTYNAME":"桃園市","TOWNNAME":"八德區","MARKTYPE":"993","Class":"303"},"geometry":{"x":280144.56639999989,"y":2761256.7927999999}},{"attributes":{"OBJECTID":2074,"LANDMARKID":"1000300000835","LANDMARKCO":"402","LANDMARKNA":"中華電信-八德介壽特約服務中心","LANDMARKAD":"1000308","ADDRESS":"桃園縣八德市介壽路一段1023號","TEL":"03-3763699","COUNTYNAME":"桃園市","TOWNNAME":"八德區","MARKTYPE":"994","Class":"4"},"geometry":{"x":280239.75739999954,"y":2761149.9072999991}},{"attributes":{"OBJECTID":2075,"LANDMARKID":"1000300000836","LANDMARKCO":"402","LANDMARKNA":"中華電信-八德桃鶯特約服務中心","LANDMARKAD":"1000308","ADDRESS":"桃園縣八德市桃鶯路106號","TEL":"03-3673030","COUNTYNAME":"桃園市","TOWNNAME":"八德區","MARKTYPE":"994","Class":"4"},"geometry":{"x":283118.13350000046,"y":2762500.0028000008}},{"attributes":{"OBJECTID":2076,"LANDMARKID":"1000300000837","LANDMARKCO":"402","LANDMARKNA":"中華電信-八德服務中心","LANDMARKAD":"1000308","ADDRESS":"桃園縣八德鄉介壽路一段227號","TEL":"123或0800-080-123","COUNTYNAME":"桃園市","TOWNNAME":"八德區","MARKTYPE":"994","Class":"4"},"geometry":{"x":280526.46030000038,"y":2762784.8215999994}},{"attributes":{"OBJECTID":2077,"LANDMARKID":"1000300000838","LANDMARKCO":"402","LANDMARKNA":"威寶電信-八德桃鶯特約服務中心","LANDMARKAD":"1000308","ADDRESS":"桃園縣八德市桃鶯路71號","TEL":"03-3757779","COUNTYNAME":"桃園市","TOWNNAME":"八德區","MARKTYPE":"994","Class":"4"},"geometry":{"x":283074.31419999991,"y":2762573.7607000005}},{"attributes":{"OBJECTID":2078,"LANDMARKID":"1000300000839","LANDMARKCO":"402","LANDMARKNA":"威寶電信-八德介壽特約服務中心","LANDMARKAD":"1000308","ADDRESS":"桃園縣八德市介壽路一段851號","TEL":"03-3774588","COUNTYNAME":"桃園市","TOWNNAME":"八德區","MARKTYPE":"994","Class":"4"},"geometry":{"x":280293.83430000022,"y":2761540.8500999995}},{"attributes":{"OBJECTID":2079,"LANDMARKID":"1000300000840","LANDMARKCO":"402","LANDMARKNA":"大眾電信(傑昇通信)-桃鶯店","LANDMARKAD":"1000308","ADDRESS":"桃園縣八德市大明里桃鶯路85號","TEL":"03-218-4147","COUNTYNAME":"桃園市","TOWNNAME":"八德區","MARKTYPE":"994","Class":"4"},"geometry":{"x":283101.77699999977,"y":2762544.9724000003}},{"attributes":{"OBJECTID":2080,"LANDMARKID":"1000300000841","LANDMARKCO":"402","LANDMARKNA":"大眾電信(傑昇通信)-大湳店","LANDMARKAD":"1000308","ADDRESS":"桃園縣八德市介壽路一段939號","TEL":"03-375-2558","COUNTYNAME":"桃園市","TOWNNAME":"八德區","MARKTYPE":"994","Class":"4"},"geometry":{"x":280265.23139999993,"y":2761340.5289999992}},{"attributes":{"OBJECTID":2081,"LANDMARKID":"1000300000842","LANDMARKCO":"402","LANDMARKNA":"大眾電信(震旦通訊)-八德介壽店","LANDMARKAD":"1000308","ADDRESS":"桃園縣八德市介壽路一段786號","TEL":"03-2183366","COUNTYNAME":"桃園市","TOWNNAME":"八德區","MARKTYPE":"994","Class":"4"},"geometry":{"x":280292.31969999988,"y":2761711.0917000007}},{"attributes":{"OBJECTID":2082,"LANDMARKID":"1000300001542","LANDMARKCO":"603","LANDMARKNA":"安祥旅社","LANDMARKAD":"1000308","ADDRESS":"桃園縣八德市介壽路二段1125號","TEL":"03-3686479","COUNTYNAME":"桃園市","TOWNNAME":"八德區","MARKTYPE":"996","Class":"6"},"geometry":{"x":280053.86479999963,"y":2758365.5731000006}},{"attributes":{"OBJECTID":2083,"LANDMARKID":"1000300001543","LANDMARKCO":"603","LANDMARKNA":"和樂賓館","LANDMARKAD":"1000308","ADDRESS":"桃園縣八德市介壽路二段1149號1-3樓","TEL":"03-3683969","COUNTYNAME":"桃園市","TOWNNAME":"八德區","MARKTYPE":"996","Class":"6"},"geometry":{"x":280053.25879999995,"y":2758294.3532999996}},{"attributes":{"OBJECTID":2084,"LANDMARKID":"1000300001544","LANDMARKCO":"603","LANDMARKNA":"華宮大旅社","LANDMARKAD":"1000308","ADDRESS":"桃園縣八德市永福街26號2-3樓","TEL":"03-3613169","COUNTYNAME":"桃園市","TOWNNAME":"八德區","MARKTYPE":"996","Class":"6"},"geometry":{"x":280369.96769999992,"y":2761662.6886}},{"attributes":{"OBJECTID":2085,"LANDMARKID":"1000300001545","LANDMARKCO":"603","LANDMARKNA":"怡東花園賓館","LANDMARKAD":"1000308","ADDRESS":"桃園縣八德市忠孝街23號4樓","TEL":"03-3751318","COUNTYNAME":"桃園市","TOWNNAME":"八德區","MARKTYPE":"996","Class":"6"},"geometry":{"x":280195.55879999977,"y":2761443.5377999991}},{"attributes":{"OBJECTID":2086,"LANDMARKID":"1000300001546","LANDMARKCO":"603","LANDMARKNA":"松雨汽車旅館","LANDMARKAD":"1000308","ADDRESS":"桃園縣八德市東勇街37號2樓","TEL":"03-3771188","COUNTYNAME":"桃園市","TOWNNAME":"八德區","MARKTYPE":"996","Class":"6"},"geometry":{"x":280956.30379999988,"y":2761501.4514000006}},{"attributes":{"OBJECTID":2087,"LANDMARKID":"1000300001547","LANDMARKCO":"603","LANDMARKNA":"香巢園賓館","LANDMARKAD":"1000308","ADDRESS":"桃園縣八德市介壽路一段906號2-7樓","TEL":"03-3630582","COUNTYNAME":"桃園市","TOWNNAME":"八德區","MARKTYPE":"996","Class":"6"},"geometry":{"x":280238.17019999959,"y":2761329.4528000001}},{"attributes":{"OBJECTID":2088,"LANDMARKID":"1000300000984","LANDMARKCO":"405","LANDMARKNA":"中油加油站-金陵站","LANDMARKAD":"1000310","ADDRESS":"桃園縣平鎮市金陵路二段123號","TEL":"03-4577576","COUNTYNAME":"桃園市","TOWNNAME":"平鎮區","MARKTYPE":"994","Class":"4"},"geometry":{"x":272552.68969999999,"y":2759204.5130000003}},{"attributes":{"OBJECTID":2089,"LANDMARKID":"1000300000985","LANDMARKCO":"405","LANDMARKNA":"中油加油站-北興站","LANDMARKAD":"1000310","ADDRESS":"桃園縣平鎮市金陵路二段200號","TEL":"03-4595653","COUNTYNAME":"桃園市","TOWNNAME":"平鎮區","MARKTYPE":"994","Class":"4"},"geometry":{"x":272575.81780000031,"y":2759024.1932999995}},{"attributes":{"OBJECTID":2090,"LANDMARKID":"1000300000986","LANDMARKCO":"405","LANDMARKNA":"中油加油站-北基東宏站","LANDMARKAD":"1000310","ADDRESS":"桃園縣平鎮市南勢里南東路69號","TEL":"03-4395009","COUNTYNAME":"桃園市","TOWNNAME":"平鎮區","MARKTYPE":"994","Class":"4"},"geometry":{"x":271652.22259999998,"y":2757014.1851000004}},{"attributes":{"OBJECTID":2091,"LANDMARKID":"1000300000987","LANDMARKCO":"405","LANDMARKNA":"中油加油站-平鎮站(中油直營)","LANDMARKAD":"1000310","ADDRESS":"桃園縣平鎮市延平路二段152號","TEL":"03-4934734","COUNTYNAME":"桃園市","TOWNNAME":"平鎮區","MARKTYPE":"994","Class":"4"},"geometry":{"x":271301.40029999986,"y":2760052.7171999998}},{"attributes":{"OBJECTID":2092,"LANDMARKID":"1000300000988","LANDMARKCO":"405","LANDMARKNA":"中油加油站-廣興站","LANDMARKAD":"1000310","ADDRESS":"桃園縣平鎮市延平路3段650號","TEL":"03-4643375","COUNTYNAME":"桃園市","TOWNNAME":"平鎮區","MARKTYPE":"994","Class":"4"},"geometry":{"x":269757.43740000017,"y":2758076.2621999998}},{"attributes":{"OBJECTID":2093,"LANDMARKID":"1000300000989","LANDMARKCO":"405","LANDMARKNA":"中油加油站-寶島站","LANDMARKAD":"1000310","ADDRESS":"桃園縣平鎮市中豐路580號","TEL":"03-4584566","COUNTYNAME":"桃園市","TOWNNAME":"平鎮區","MARKTYPE":"994","Class":"4"},"geometry":{"x":271682.92320000008,"y":2758479.6690999996}},{"attributes":{"OBJECTID":2094,"LANDMARKID":"1000300000990","LANDMARKCO":"405","LANDMARKNA":"中油加油站-民族路站","LANDMARKAD":"1000310","ADDRESS":"桃園縣中壢市民族路2段198號","TEL":"03-4949599","COUNTYNAME":"桃園市","TOWNNAME":"平鎮區","MARKTYPE":"994","Class":"4"},"geometry":{"x":270523.9748999998,"y":2761062.0044}},{"attributes":{"OBJECTID":2095,"LANDMARKID":"1000300000991","LANDMARKCO":"405","LANDMARKNA":"台灣優力加油站-延平站(中油)","LANDMARKAD":"1000310","ADDRESS":"桃園縣平鎮市延平路三段266號","TEL":"03-4939864","COUNTYNAME":"桃園市","TOWNNAME":"平鎮區","MARKTYPE":"994","Class":"4"},"geometry":{"x":270356.53399999999,"y":2758868.2028000001}},{"attributes":{"OBJECTID":2096,"LANDMARKID":"1000300000992","LANDMARKCO":"405","LANDMARKNA":"統一速邁樂加油站-平鎮加油站(中油)","LANDMARKAD":"1000310","ADDRESS":"桃園縣平鎮市建安里平東路615號","TEL":" ","COUNTYNAME":"桃園市","TOWNNAME":"平鎮區","MARKTYPE":"994","Class":"4"},"geometry":{"x":274303.29079999961,"y":2756088.6995999999}},{"attributes":{"OBJECTID":2097,"LANDMARKID":"1000300000993","LANDMARKCO":"405","LANDMARKNA":"台灣優力加油站-鎮興站(中油)","LANDMARKAD":"1000310","ADDRESS":"桃園縣平鎮市鎮興里中興路110號","TEL":"03-4191104","COUNTYNAME":"桃園市","TOWNNAME":"平鎮區","MARKTYPE":"994","Class":"4"},"geometry":{"x":269055.66139999963,"y":2755480.1439999994}},{"attributes":{"OBJECTID":2098,"LANDMARKID":"1000300000994","LANDMARKCO":"405","LANDMARKNA":"中油加油站-龍東站","LANDMARKAD":"1000310","ADDRESS":"桃園縣平鎮市平東路310號","TEL":"03-4500981","COUNTYNAME":"桃園市","TOWNNAME":"平鎮區","MARKTYPE":"994","Class":"4"},"geometry":{"x":274970.08299999963,"y":2756379.2994999997}},{"attributes":{"OBJECTID":2099,"LANDMARKID":"1000300000995","LANDMARKCO":"405","LANDMARKNA":"中油加油站-祥順站","LANDMARKAD":"1000310","ADDRESS":"桃園縣平鎮市中豐路1段255號","TEL":"03-4686969","COUNTYNAME":"桃園市","TOWNNAME":"平鎮區","MARKTYPE":"994","Class":"4"},"geometry":{"x":271528.33820000011,"y":2757654.6444000006}},{"attributes":{"OBJECTID":2100,"LANDMARKID":"1000300000996","LANDMARKCO":"405","LANDMARKNA":"中油加油站-新富站(中油直營)","LANDMARKAD":"1000310","ADDRESS":"桃園縣平鎮市新富里中豐路一段298號","TEL":"03-4573401","COUNTYNAME":"桃園市","TOWNNAME":"平鎮區","MARKTYPE":"994","Class":"4"},"geometry":{"x":271504.22300000023,"y":2757711.0734999999}},{"attributes":{"OBJECTID":2101,"LANDMARKID":"1000300000997","LANDMARKCO":"405","LANDMARKNA":"中油加油站-南東路站(中油直營)","LANDMARKAD":"1000310","ADDRESS":"桃園縣平鎮市南東路575號","TEL":"03-4608489","COUNTYNAME":"桃園市","TOWNNAME":"平鎮區","MARKTYPE":"994","Class":"4"},"geometry":{"x":272655.11770000029,"y":2756536.9382000007}},{"attributes":{"OBJECTID":2102,"LANDMARKID":"1000300000998","LANDMARKCO":"405","LANDMARKNA":"中油加油站-鼎鈺站","LANDMARKAD":"1000310","ADDRESS":"桃園縣平鎮市北興里環南路三段208號","TEL":"03-4599768","COUNTYNAME":"桃園市","TOWNNAME":"平鎮區","MARKTYPE":"994","Class":"4"},"geometry":{"x":272370.7050999999,"y":2759142.9145999998}},{"attributes":{"OBJECTID":2103,"LANDMARKID":"1000300000999","LANDMARKCO":"405","LANDMARKNA":"統一速邁樂加油站-平鎮二站加油站(中油)","LANDMARKAD":"1000310","ADDRESS":"桃園縣平鎮市新貴里中豐路一段53號","TEL":" ","COUNTYNAME":"桃園市","TOWNNAME":"平鎮區","MARKTYPE":"994","Class":"4"},"geometry":{"x":271649.84509999957,"y":2758106.1423000004}},{"attributes":{"OBJECTID":2104,"LANDMARKID":"1000300000854","LANDMARKCO":"402","LANDMARKNA":"亞太行動寬頻電信-平鎮中豐加盟服務中心","LANDMARKAD":"1000310","ADDRESS":"桃園縣平鎮市中豐路山頂段171號","TEL":"03-4192677","COUNTYNAME":"桃園市","TOWNNAME":"平鎮區","MARKTYPE":"994","Class":"4"},"geometry":{"x":271328.10309999995,"y":2754742.0392000005}},{"attributes":{"OBJECTID":2105,"LANDMARKID":"1000300000780","LANDMARKCO":"401","LANDMARKNA":"秉坤婦幼醫院","LANDMARKAD":"1000310","ADDRESS":"桃園縣平鎮市延平路二段129號","TEL":"03-4025866","COUNTYNAME":"桃園市","TOWNNAME":"平鎮區","MARKTYPE":"994","Class":"4"},"geometry":{"x":271359.06269999966,"y":2760069.0951000005}},{"attributes":{"OBJECTID":2106,"LANDMARKID":"1000300000781","LANDMARKCO":"401","LANDMARKNA":"宋俊宏婦幼醫院","LANDMARKAD":"1000310","ADDRESS":"桃園縣平鎮市民族路199號","TEL":"03-4020999","COUNTYNAME":"桃園市","TOWNNAME":"平鎮區","MARKTYPE":"994","Class":"4"},"geometry":{"x":271194.61870000046,"y":2760955.1778999995}},{"attributes":{"OBJECTID":2107,"LANDMARKID":"1000300000782","LANDMARKCO":"401","LANDMARKNA":"壢新醫院","LANDMARKAD":"1000310","ADDRESS":"桃園縣平鎮市廣泰路77號","TEL":"03-4941234","COUNTYNAME":"桃園市","TOWNNAME":"平鎮區","MARKTYPE":"994","Class":"4"},"geometry":{"x":270742.39340000041,"y":2759899.6065999996}},{"attributes":{"OBJECTID":2108,"LANDMARKID":"1000300000783","LANDMARKCO":"401","LANDMARKNA":"新永和醫院","LANDMARKAD":"1000310","ADDRESS":"桃園縣平鎮市延平路一段81號","TEL":"03-4220606","COUNTYNAME":"桃園市","TOWNNAME":"平鎮區","MARKTYPE":"994","Class":"4"},"geometry":{"x":272180.26290000044,"y":2760419.9712000005}},{"attributes":{"OBJECTID":2109,"LANDMARKID":"1000300000784","LANDMARKCO":"401","LANDMARKNA":"陽明醫院","LANDMARKAD":"1000310","ADDRESS":"桃園縣平鎮市延平路二段56號","TEL":"03-4929929","COUNTYNAME":"桃園市","TOWNNAME":"平鎮區","MARKTYPE":"994","Class":"4"},"geometry":{"x":271470.0214999998,"y":2760269.7675999999}},{"attributes":{"OBJECTID":2110,"LANDMARKID":"1000300001344","LANDMARKCO":"408","LANDMARKNA":"郵局-平鎮郵局","LANDMARKAD":"1000310","ADDRESS":"桃園縣平鎮市延平路2段221號","TEL":"(03)4024-420轉","COUNTYNAME":"桃園市","TOWNNAME":"平鎮區","MARKTYPE":"994","Class":"4"},"geometry":{"x":271121.11349999998,"y":2759745.4670000002}},{"attributes":{"OBJECTID":2111,"LANDMARKID":"1000300001345","LANDMARKCO":"408","LANDMARKNA":"郵局-平鎮山仔頂郵局","LANDMARKAD":"1000310","ADDRESS":"桃園縣平鎮市中豐路山頂段296號","TEL":"(03)4697-072","COUNTYNAME":"桃園市","TOWNNAME":"平鎮區","MARKTYPE":"994","Class":"4"},"geometry":{"x":271305.14279999956,"y":2754427.0504000001}},{"attributes":{"OBJECTID":2112,"LANDMARKID":"1000300001346","LANDMARKCO":"408","LANDMARKNA":"郵局-平鎮新勢郵局","LANDMARKAD":"1000310","ADDRESS":"桃園縣平鎮市中豐路22-4號","TEL":"(03)4921-601","COUNTYNAME":"桃園市","TOWNNAME":"平鎮區","MARKTYPE":"994","Class":"4"},"geometry":{"x":271995.67360000033,"y":2760280.1000999995}},{"attributes":{"OBJECTID":2113,"LANDMARKID":"1000300001347","LANDMARKCO":"408","LANDMARKNA":"郵局-平鎮金陵郵局","LANDMARKAD":"1000310","ADDRESS":"桃園縣平鎮市金陵路3段235-1、235-2號","TEL":"(03)4575-041","COUNTYNAME":"桃園市","TOWNNAME":"平鎮區","MARKTYPE":"994","Class":"4"},"geometry":{"x":273025.69400000013,"y":2757466.2690999992}},{"attributes":{"OBJECTID":2114,"LANDMARKID":"1000300001348","LANDMARKCO":"408","LANDMARKNA":"郵局-平鎮高雙郵局","LANDMARKAD":"1000310","ADDRESS":"桃園縣平鎮市高雙路181號","TEL":"(03)4924-883","COUNTYNAME":"桃園市","TOWNNAME":"平鎮區","MARKTYPE":"994","Class":"4"},"geometry":{"x":269136.66789999977,"y":2760810.3366}},{"attributes":{"OBJECTID":2115,"LANDMARKID":"1000300001349","LANDMARKCO":"408","LANDMARKNA":"郵局-平鎮南勢郵局","LANDMARKAD":"1000310","ADDRESS":"桃園縣平鎮市南京路19、21、23號","TEL":"(03)4395-517","COUNTYNAME":"桃園市","TOWNNAME":"平鎮區","MARKTYPE":"994","Class":"4"},"geometry":{"x":271205.8161000004,"y":2756523.9758000001}},{"attributes":{"OBJECTID":2116,"LANDMARKID":"1000300001350","LANDMARKCO":"408","LANDMARKNA":"郵局-平鎮廣明郵局","LANDMARKAD":"1000310","ADDRESS":"桃園縣平鎮市廣明路71.73號1樓","TEL":"(03)4937-484","COUNTYNAME":"桃園市","TOWNNAME":"平鎮區","MARKTYPE":"994","Class":"4"},"geometry":{"x":271552.18530000001,"y":2760686.0439999998}},{"attributes":{"OBJECTID":2117,"LANDMARKID":"1000300001386","LANDMARKCO":"409","LANDMARKNA":"桃園縣平鎮市農會","LANDMARKAD":"1000310","ADDRESS":"桃園縣平鎮市南勢里5鄰南東路2號","TEL":"03-4395333","COUNTYNAME":"桃園市","TOWNNAME":"平鎮區","MARKTYPE":"994","Class":"4"},"geometry":{"x":272175.52599999961,"y":2759899.4618999995}},{"attributes":{"OBJECTID":2118,"LANDMARKID":"1000300000940","LANDMARKCO":"404","LANDMARKNA":"台灣省自來水中壢服務所","LANDMARKAD":"1000310","ADDRESS":"桃園縣平鎮市延平路一段26號","TEL":" ","COUNTYNAME":"桃園市","TOWNNAME":"平鎮區","MARKTYPE":"994","Class":"4"},"geometry":{"x":272263.32720000017,"y":2760576.9780000001}},{"attributes":{"OBJECTID":2119,"LANDMARKID":"1000300001254","LANDMARKCO":"406","LANDMARKNA":"廣達公園","LANDMARKAD":"1000310","ADDRESS":"桃園縣平鎮市","TEL":" ","COUNTYNAME":"桃園市","TOWNNAME":"平鎮區","MARKTYPE":"994","Class":"4"},"geometry":{"x":270988.16079999972,"y":2760914.8638000004}},{"attributes":{"OBJECTID":2120,"LANDMARKID":"1000300001255","LANDMARKCO":"406","LANDMARKNA":"宋屋公園","LANDMARKAD":"1000310","ADDRESS":"桃園縣平鎮市","TEL":" ","COUNTYNAME":"桃園市","TOWNNAME":"平鎮區","MARKTYPE":"994","Class":"4"},"geometry":{"x":270657.75490000006,"y":2759743.8226999994}},{"attributes":{"OBJECTID":2121,"LANDMARKID":"1000300001256","LANDMARKCO":"406","LANDMARKNA":"新富公園","LANDMARKAD":"1000310","ADDRESS":"桃園縣平鎮市","TEL":" ","COUNTYNAME":"桃園市","TOWNNAME":"平鎮區","MARKTYPE":"994","Class":"4"},"geometry":{"x":271929.44649999961,"y":2759017.8373000007}},{"attributes":{"OBJECTID":2122,"LANDMARKID":"1000300001257","LANDMARKCO":"406","LANDMARKNA":"廣仁公園","LANDMARKAD":"1000310","ADDRESS":"桃園縣平鎮市","TEL":" ","COUNTYNAME":"桃園市","TOWNNAME":"平鎮區","MARKTYPE":"994","Class":"4"},"geometry":{"x":270898.8925999999,"y":2759112.4724000003}},{"attributes":{"OBJECTID":2123,"LANDMARKID":"1000300001258","LANDMARKCO":"406","LANDMARKNA":"新寶公園","LANDMARKAD":"1000310","ADDRESS":"桃園縣平鎮市","TEL":" ","COUNTYNAME":"桃園市","TOWNNAME":"平鎮區","MARKTYPE":"994","Class":"4"},"geometry":{"x":271626.51649999991,"y":2759046.8335999995}},{"attributes":{"OBJECTID":2124,"LANDMARKID":"1000300001259","LANDMARKCO":"406","LANDMARKNA":"復旦公園","LANDMARKAD":"1000310","ADDRESS":"桃園縣平鎮市","TEL":" ","COUNTYNAME":"桃園市","TOWNNAME":"平鎮區","MARKTYPE":"994","Class":"4"},"geometry":{"x":270616.42760000005,"y":2760703.4868000001}},{"attributes":{"OBJECTID":2125,"LANDMARKID":"1000300001022","LANDMARKCO":"405","LANDMARKNA":"台塑加油站-金東站(台塑)","LANDMARKAD":"1000310","ADDRESS":"桃園縣平鎮市金陵路五段230號","TEL":"03-4609155","COUNTYNAME":"桃園市","TOWNNAME":"平鎮區","MARKTYPE":"994","Class":"4"},"geometry":{"x":273281.51680000033,"y":2755235.7031999994}},{"attributes":{"OBJECTID":2126,"LANDMARKID":"1000300001023","LANDMARKCO":"405","LANDMARKNA":"台亞加油站-平鎮站（台塑）","LANDMARKAD":"1000310","ADDRESS":"桃園縣平鎮市延平路二段323號","TEL":"(03)492-3516","COUNTYNAME":"桃園市","TOWNNAME":"平鎮區","MARKTYPE":"994","Class":"4"},"geometry":{"x":271044.26329999976,"y":2759653.0941000003}},{"attributes":{"OBJECTID":2127,"LANDMARKID":"1000300001024","LANDMARKCO":"405","LANDMARKNA":"台亞加油站-南平路站（台塑）","LANDMARKAD":"1000310","ADDRESS":"桃園縣平鎮市南平路二段406號","TEL":"(03)496-1085","COUNTYNAME":"桃園市","TOWNNAME":"平鎮區","MARKTYPE":"994","Class":"4"},"geometry":{"x":269645.73589999974,"y":2757118.4594000001}},{"attributes":{"OBJECTID":2128,"LANDMARKID":"1000300001025","LANDMARKCO":"405","LANDMARKNA":"全國加油站-中豐路站（台塑）","LANDMARKAD":"1000310","ADDRESS":"桃園縣平鎮市山頂段中豐路368號","TEL":"03-4194397","COUNTYNAME":"桃園市","TOWNNAME":"平鎮區","MARKTYPE":"994","Class":"4"},"geometry":{"x":271467.56560000032,"y":2753847.0361000001}},{"attributes":{"OBJECTID":2129,"LANDMARKID":"1000300000250","LANDMARKCO":"108","LANDMARKNA":"桃園縣平鎮市公所","LANDMARKAD":"1000310","ADDRESS":"桃園縣平鎮市新富里振興路5號","TEL":"03-4572105","COUNTYNAME":"桃園市","TOWNNAME":"平鎮區","MARKTYPE":"991","Class":"1"},"geometry":{"x":272031.23790000007,"y":2759789.7670000009}},{"attributes":{"OBJECTID":2130,"LANDMARKID":"1000300000050","LANDMARKCO":"103","LANDMARKNA":"桃園縣平鎮市市民代表會","LANDMARKAD":"1000310","ADDRESS":"桃園縣平鎮市振興路5號2樓","TEL":"03-4572974","COUNTYNAME":"桃園市","TOWNNAME":"平鎮區","MARKTYPE":"991","Class":"1"},"geometry":{"x":272047.20590000041,"y":2759769.7413999997}},{"attributes":{"OBJECTID":2131,"LANDMARKID":"1000300000146","LANDMARKCO":"107","LANDMARKNA":"桃園縣消防局平鎮消防分隊","LANDMARKAD":"1000310","ADDRESS":"桃園縣平鎮市中豐路南勢二段174號","TEL":"03-4390315","COUNTYNAME":"桃園市","TOWNNAME":"平鎮區","MARKTYPE":"991","Class":"1"},"geometry":{"x":271248.08320000023,"y":2756309.6942999996}},{"attributes":{"OBJECTID":2132,"LANDMARKID":"1000300000147","LANDMARKCO":"107","LANDMARKNA":"桃園縣消防局山峰消防分隊","LANDMARKAD":"1000310","ADDRESS":"桃園縣平鎮市南豐路263號","TEL":"03-4697041","COUNTYNAME":"桃園市","TOWNNAME":"平鎮區","MARKTYPE":"991","Class":"1"},"geometry":{"x":270570.40519999992,"y":2754679.8816999998}},{"attributes":{"OBJECTID":2133,"LANDMARKID":"1000300000148","LANDMARKCO":"107","LANDMARKNA":"桃園縣政府警察局平鎮分局","LANDMARKAD":"1000310","ADDRESS":"桃園縣平鎮市金星里中庸路123號","TEL":"03-4390218","COUNTYNAME":"桃園市","TOWNNAME":"平鎮區","MARKTYPE":"991","Class":"1"},"geometry":{"x":270959.35379999969,"y":2756179.7116}},{"attributes":{"OBJECTID":2134,"LANDMARKID":"1000300000149","LANDMARKCO":"107","LANDMARKNA":"桃園縣政府警察局北勢派出所","LANDMARKAD":"1000310","ADDRESS":"桃園縣平鎮市振平街228號","TEL":"03-4282206","COUNTYNAME":"桃園市","TOWNNAME":"平鎮區","MARKTYPE":"991","Class":"1"},"geometry":{"x":272096.23469999991,"y":2759479.6633000001}},{"attributes":{"OBJECTID":2135,"LANDMARKID":"1000300000150","LANDMARKCO":"107","LANDMARKNA":"桃園縣政府警察局宋屋派出所","LANDMARKAD":"1000310","ADDRESS":"桃園縣平鎮市宋屋里延平路二段412號","TEL":"03-4938381","COUNTYNAME":"桃園市","TOWNNAME":"平鎮區","MARKTYPE":"991","Class":"1"},"geometry":{"x":270823.13320000004,"y":2759419.9109000005}},{"attributes":{"OBJECTID":2136,"LANDMARKID":"1000300000151","LANDMARKCO":"107","LANDMARKNA":"桃園縣政府警察局平鎮派出所","LANDMARKAD":"1000310","ADDRESS":"桃園縣平鎮市金星里中庸路123號","TEL":"03-4391280","COUNTYNAME":"桃園市","TOWNNAME":"平鎮區","MARKTYPE":"991","Class":"1"},"geometry":{"x":270958.35379999969,"y":2756179.7130999994}},{"attributes":{"OBJECTID":2137,"LANDMARKID":"1000300000152","LANDMARKCO":"107","LANDMARKNA":"桃園縣政府警察局建安派出所","LANDMARKAD":"1000310","ADDRESS":"桃園縣平鎮市東勢里金陵路五段108號","TEL":"03-4502331","COUNTYNAME":"桃園市","TOWNNAME":"平鎮區","MARKTYPE":"991","Class":"1"},"geometry":{"x":273307.4637000002,"y":2755609.9791999999}},{"attributes":{"OBJECTID":2138,"LANDMARKID":"1000300000153","LANDMARKCO":"107","LANDMARKNA":"桃園縣政府警察局龍岡派出所","LANDMARKAD":"1000310","ADDRESS":"桃園縣平鎮市龍岡里龍南路141號","TEL":"03-4503245","COUNTYNAME":"桃園市","TOWNNAME":"平鎮區","MARKTYPE":"991","Class":"1"},"geometry":{"x":274993.31749999989,"y":2757359.9669000003}},{"attributes":{"OBJECTID":2139,"LANDMARKID":"1000300000108","LANDMARKCO":"106","LANDMARKNA":"桃園縣平鎮市戶政事務所","LANDMARKAD":"1000310","ADDRESS":"桃園縣平鎮市新富里1鄰德育路242號","TEL":"03-4580112","COUNTYNAME":"桃園市","TOWNNAME":"平鎮區","MARKTYPE":"991","Class":"1"},"geometry":{"x":272094.22229999956,"y":2759779.6656999998}},{"attributes":{"OBJECTID":2140,"LANDMARKID":"1000300000092","LANDMARKCO":"105","LANDMARKNA":"桃園縣平鎮地政事務所","LANDMARKAD":"1000310","ADDRESS":"桃園縣平鎮市環南路二段276號","TEL":"03-4570461","COUNTYNAME":"桃園市","TOWNNAME":"平鎮區","MARKTYPE":"991","Class":"1"},"geometry":{"x":271884.30900000036,"y":2759220.0036999993}},{"attributes":{"OBJECTID":2141,"LANDMARKID":"1000300000029","LANDMARKCO":"101","LANDMARKNA":"工業局平鎮工業區服務中心","LANDMARKAD":"1000310","ADDRESS":"桃園縣平鎮市湧豐里南豐路261號","TEL":"03-4697640","COUNTYNAME":"桃園市","TOWNNAME":"平鎮區","MARKTYPE":"991","Class":"1"},"geometry":{"x":270659.39169999957,"y":2754669.7482999992}},{"attributes":{"OBJECTID":2142,"LANDMARKID":"1000300000049","LANDMARKCO":"103","LANDMARKNA":"桃園縣平鎮市衛生所","LANDMARKAD":"1000310","ADDRESS":"桃園縣平鎮市新富里振興路1號","TEL":"03-4576624","COUNTYNAME":"桃園市","TOWNNAME":"平鎮區","MARKTYPE":"991","Class":"1"},"geometry":{"x":271960.20529999956,"y":2759769.8808999993}},{"attributes":{"OBJECTID":2143,"LANDMARKID":"1000300000163","LANDMARKCO":"107","LANDMARKNA":"桃園縣消防局復旦消防分隊","LANDMARKAD":"1000310","ADDRESS":"桃園縣平鎮市復旦路2段133號","TEL":"03-4947816","COUNTYNAME":"桃園市","TOWNNAME":"平鎮區","MARKTYPE":"991","Class":"1"},"geometry":{"x":270468.10879999958,"y":2760019.6063000001}},{"attributes":{"OBJECTID":2144,"LANDMARKID":"1000300000552","LANDMARKCO":"204","LANDMARKNA":"桃園縣立圖書館平鎮分館","LANDMARKAD":"1000310","ADDRESS":"桃園縣平鎮市振興路7號","TEL":" ","COUNTYNAME":"桃園市","TOWNNAME":"平鎮區","MARKTYPE":"992","Class":"2"},"geometry":{"x":272095.30420000013,"y":2759780.1060000006}},{"attributes":{"OBJECTID":2145,"LANDMARKID":"1000300000553","LANDMARKCO":"204","LANDMARKNA":"桃園縣立圖書館東勢分館","LANDMARKAD":"1000310","ADDRESS":"桃園縣平鎮市金陵路五段55號2樓","TEL":" ","COUNTYNAME":"桃園市","TOWNNAME":"平鎮區","MARKTYPE":"992","Class":"2"},"geometry":{"x":273374.88389999978,"y":2755881.2445}},{"attributes":{"OBJECTID":2146,"LANDMARKID":"1000300000296","LANDMARKCO":"202","LANDMARKNA":"私立六和高中","LANDMARKAD":"1000310","ADDRESS":"桃園縣平鎮市陸光路180號","TEL":"03-4204000","COUNTYNAME":"桃園市","TOWNNAME":"平鎮區","MARKTYPE":"992","Class":"2"},"geometry":{"x":268767.30510000046,"y":2759859.6645}},{"attributes":{"OBJECTID":2147,"LANDMARKID":"1000300000297","LANDMARKCO":"202","LANDMARKNA":"縣立平鎮高中","LANDMARKAD":"1000310","ADDRESS":"桃園縣平鎮市環南路三段100號","TEL":"03-4287288","COUNTYNAME":"桃園市","TOWNNAME":"平鎮區","MARKTYPE":"992","Class":"2"},"geometry":{"x":272130.11830000021,"y":2759099.6095000003}},{"attributes":{"OBJECTID":2148,"LANDMARKID":"1000300000298","LANDMARKCO":"202","LANDMARKNA":"私立復旦高中","LANDMARKAD":"1000310","ADDRESS":"桃園縣平鎮市復旦路二段122號","TEL":"03-4928041","COUNTYNAME":"桃園市","TOWNNAME":"平鎮區","MARKTYPE":"992","Class":"2"},"geometry":{"x":270453.21310000028,"y":2760089.6284999996}},{"attributes":{"OBJECTID":2149,"LANDMARKID":"1000300000299","LANDMARKCO":"202","LANDMARKNA":"私立育達高中","LANDMARKAD":"1000310","ADDRESS":"桃園縣平鎮市育達路160號","TEL":"03-4934101","COUNTYNAME":"桃園市","TOWNNAME":"平鎮區","MARKTYPE":"992","Class":"2"},"geometry":{"x":271149.33029999956,"y":2760469.8369999994}},{"attributes":{"OBJECTID":2150,"LANDMARKID":"1000300000300","LANDMARKCO":"202","LANDMARKNA":"私立復旦高中附設國中部","LANDMARKAD":"1000310","ADDRESS":"桃園縣平鎮市復旦路二段122號","TEL":"03-4928041","COUNTYNAME":"桃園市","TOWNNAME":"平鎮區","MARKTYPE":"992","Class":"2"},"geometry":{"x":270461.21320000011,"y":2760089.6165999994}},{"attributes":{"OBJECTID":2151,"LANDMARKID":"1000300000364","LANDMARKCO":"203","LANDMARKNA":"縣立中壢國中","LANDMARKAD":"1000310","ADDRESS":"桃園縣平鎮市德育路180號","TEL":"03-4222886","COUNTYNAME":"桃園市","TOWNNAME":"平鎮區","MARKTYPE":"992","Class":"2"},"geometry":{"x":272134.00430000015,"y":2760259.5998}},{"attributes":{"OBJECTID":2152,"LANDMARKID":"1000300000365","LANDMARKCO":"203","LANDMARKNA":"縣立平南國中","LANDMARKAD":"1000310","ADDRESS":"桃園縣平鎮市中豐路南勢二段340號","TEL":"03-4392164","COUNTYNAME":"桃園市","TOWNNAME":"平鎮區","MARKTYPE":"992","Class":"2"},"geometry":{"x":271259.21520000044,"y":2755779.6786000002}},{"attributes":{"OBJECTID":2153,"LANDMARKID":"1000300000366","LANDMARKCO":"203","LANDMARKNA":"縣立東安國中","LANDMARKAD":"1000310","ADDRESS":"桃園縣平鎮市平東路168號","TEL":"03-4601407","COUNTYNAME":"桃園市","TOWNNAME":"平鎮區","MARKTYPE":"992","Class":"2"},"geometry":{"x":275167.12729999982,"y":2756639.6515999995}},{"attributes":{"OBJECTID":2154,"LANDMARKID":"1000300000367","LANDMARKCO":"203","LANDMARKNA":"縣立平興國中","LANDMARKAD":"1000310","ADDRESS":"桃園縣平鎮市環南路300號","TEL":"03-4939016","COUNTYNAME":"桃園市","TOWNNAME":"平鎮區","MARKTYPE":"992","Class":"2"},"geometry":{"x":270789.41289999988,"y":2760219.9605999999}},{"attributes":{"OBJECTID":2155,"LANDMARKID":"1000300000368","LANDMARKCO":"203","LANDMARKNA":"縣立平鎮國中","LANDMARKAD":"1000310","ADDRESS":"桃園縣平鎮市新富里振興路2號","TEL":"03-4572150","COUNTYNAME":"桃園市","TOWNNAME":"平鎮區","MARKTYPE":"992","Class":"2"},"geometry":{"x":271944.15720000025,"y":2759739.9066000003}},{"attributes":{"OBJECTID":2156,"LANDMARKID":"1000300000369","LANDMARKCO":"203","LANDMARKNA":"縣立山豐國小","LANDMARKAD":"1000310","ADDRESS":"桃園縣平鎮市中豐路375巷45號","TEL":"03-4691784","COUNTYNAME":"桃園市","TOWNNAME":"平鎮區","MARKTYPE":"992","Class":"2"},"geometry":{"x":271516.43360000011,"y":2754379.7147000004}},{"attributes":{"OBJECTID":2157,"LANDMARKID":"1000300000370","LANDMARKCO":"203","LANDMARKNA":"縣立文化國小","LANDMARKAD":"1000310","ADDRESS":"桃園縣平鎮市文化街189號","TEL":"03-4921750","COUNTYNAME":"桃園市","TOWNNAME":"平鎮區","MARKTYPE":"992","Class":"2"},"geometry":{"x":270621.05620000046,"y":2760599.7916999999}},{"attributes":{"OBJECTID":2158,"LANDMARKID":"1000300000371","LANDMARKCO":"203","LANDMARKNA":"縣立東安國小","LANDMARKAD":"1000310","ADDRESS":"桃園縣平鎮市平東路136號","TEL":"03-4509571","COUNTYNAME":"桃園市","TOWNNAME":"平鎮區","MARKTYPE":"992","Class":"2"},"geometry":{"x":275254.29289999977,"y":2756730.0044999998}},{"attributes":{"OBJECTID":2159,"LANDMARKID":"1000300000372","LANDMARKCO":"203","LANDMARKNA":"縣立新勢國小","LANDMARKAD":"1000310","ADDRESS":"桃園縣平鎮市延平路一段181號","TEL":"03-4937563","COUNTYNAME":"桃園市","TOWNNAME":"平鎮區","MARKTYPE":"992","Class":"2"},"geometry":{"x":271909.41640000045,"y":2760209.9612000007}},{"attributes":{"OBJECTID":2160,"LANDMARKID":"1000300000373","LANDMARKCO":"203","LANDMARKNA":"縣立宋屋國小","LANDMARKAD":"1000310","ADDRESS":"桃園縣平鎮市延平路二段389號","TEL":"03-4933654","COUNTYNAME":"桃園市","TOWNNAME":"平鎮區","MARKTYPE":"992","Class":"2"},"geometry":{"x":270903.0421000002,"y":2759359.7894000001}},{"attributes":{"OBJECTID":2161,"LANDMARKID":"1000300000374","LANDMARKCO":"203","LANDMARKNA":"縣立北勢國小","LANDMARKAD":"1000310","ADDRESS":"桃園縣平鎮市金陵路二段330號","TEL":"03-4586472","COUNTYNAME":"桃園市","TOWNNAME":"平鎮區","MARKTYPE":"992","Class":"2"},"geometry":{"x":272495.43939999957,"y":2758679.9232000001}},{"attributes":{"OBJECTID":2162,"LANDMARKID":"1000300000375","LANDMARKCO":"203","LANDMARKNA":"縣立祥安國小","LANDMARKAD":"1000310","ADDRESS":"桃園縣平鎮市湧安路45號","TEL":"03-4192135","COUNTYNAME":"桃園市","TOWNNAME":"平鎮區","MARKTYPE":"992","Class":"2"},"geometry":{"x":270439.20270000026,"y":2753929.6635999996}},{"attributes":{"OBJECTID":2163,"LANDMARKID":"1000300000376","LANDMARKCO":"203","LANDMARKNA":"縣立復旦國小","LANDMARKAD":"1000310","ADDRESS":"桃園縣平鎮市廣平街1號","TEL":"03-4917491","COUNTYNAME":"桃園市","TOWNNAME":"平鎮區","MARKTYPE":"992","Class":"2"},"geometry":{"x":270985.40820000041,"y":2760829.6607000008}},{"attributes":{"OBJECTID":2164,"LANDMARKID":"1000300000377","LANDMARKCO":"203","LANDMARKNA":"縣立平興國小","LANDMARKAD":"1000310","ADDRESS":"桃園縣平鎮市廣泰路168號","TEL":"03-4930216","COUNTYNAME":"桃園市","TOWNNAME":"平鎮區","MARKTYPE":"992","Class":"2"},"geometry":{"x":270615.1473000003,"y":2759429.8034000006}},{"attributes":{"OBJECTID":2165,"LANDMARKID":"1000300000378","LANDMARKCO":"203","LANDMARKNA":"縣立忠貞國小","LANDMARKAD":"1000310","ADDRESS":"桃園縣平鎮市龍興村龍南路315號","TEL":"03-4501450","COUNTYNAME":"桃園市","TOWNNAME":"平鎮區","MARKTYPE":"992","Class":"2"},"geometry":{"x":275243.28309999965,"y":2757339.5097000003}},{"attributes":{"OBJECTID":2166,"LANDMARKID":"1000300000379","LANDMARKCO":"203","LANDMARKNA":"縣立新榮國小","LANDMARKAD":"1000310","ADDRESS":"桃園縣平鎮市中原路88號","TEL":"03-2806200","COUNTYNAME":"桃園市","TOWNNAME":"平鎮區","MARKTYPE":"992","Class":"2"},"geometry":{"x":272071.38329999987,"y":2760448.2570999991}},{"attributes":{"OBJECTID":2167,"LANDMARKID":"1000300000380","LANDMARKCO":"203","LANDMARKNA":"縣立義興國小","LANDMARKAD":"1000310","ADDRESS":"桃園縣平鎮市義興街55號","TEL":"03-4937563","COUNTYNAME":"桃園市","TOWNNAME":"平鎮區","MARKTYPE":"992","Class":"2"},"geometry":{"x":271183.46609999985,"y":2760249.7851}},{"attributes":{"OBJECTID":2168,"LANDMARKID":"1000300000381","LANDMARKCO":"203","LANDMARKNA":"縣立東勢國小","LANDMARKAD":"1000310","ADDRESS":"桃園縣平鎮市東勢村106號","TEL":"03-4504034","COUNTYNAME":"桃園市","TOWNNAME":"平鎮區","MARKTYPE":"992","Class":"2"},"geometry":{"x":273460.38499999978,"y":2755869.7181000002}},{"attributes":{"OBJECTID":2169,"LANDMARKID":"1000300000382","LANDMARKCO":"203","LANDMARKNA":"縣立南勢國小","LANDMARKAD":"1000310","ADDRESS":"桃園縣平鎮市中豐路二段223號","TEL":"03-4593724","COUNTYNAME":"桃園市","TOWNNAME":"平鎮區","MARKTYPE":"992","Class":"2"},"geometry":{"x":271323.40550000034,"y":2756209.5782999992}},{"attributes":{"OBJECTID":2170,"LANDMARKID":"1000300000256","LANDMARKCO":"201","LANDMARKNA":"新生醫護管理專科學校","LANDMARKAD":"1000310","ADDRESS":"桃園縣平鎮市福林里115號","TEL":"03-4697819","COUNTYNAME":"桃園市","TOWNNAME":"平鎮區","MARKTYPE":"992","Class":"2"},"geometry":{"x":271560.10869999975,"y":2754479.6455000006}},{"attributes":{"OBJECTID":2171,"LANDMARKID":"1000300000717","LANDMARKCO":"308","LANDMARKNA":"國1-中壢交流道-南下","LANDMARKAD":"1000310","ADDRESS":"桃園縣平鎮市","TEL":" ","COUNTYNAME":"桃園市","TOWNNAME":"平鎮區","MARKTYPE":"993","Class":"308"},"geometry":{"x":270043.73629999999,"y":2760892.2884}},{"attributes":{"OBJECTID":2172,"LANDMARKID":"1000300000718","LANDMARKCO":"308","LANDMARKNA":"台66-平鎮系統交流道-東行","LANDMARKAD":"1000310","ADDRESS":"桃園縣平鎮市","TEL":" ","COUNTYNAME":"桃園市","TOWNNAME":"平鎮區","MARKTYPE":"993","Class":"308"},"geometry":{"x":269694.30510000046,"y":2758405.0142000001}},{"attributes":{"OBJECTID":2173,"LANDMARKID":"1000300000719","LANDMARKCO":"308","LANDMARKNA":"台66-平鎮系統交流道-西行","LANDMARKAD":"1000310","ADDRESS":"桃園縣平鎮市","TEL":" ","COUNTYNAME":"桃園市","TOWNNAME":"平鎮區","MARKTYPE":"993","Class":"308"},"geometry":{"x":268770.56379999965,"y":2758895.9145}},{"attributes":{"OBJECTID":2174,"LANDMARKID":"1000300000720","LANDMARKCO":"308","LANDMARKNA":"國1-平鎮系統交流道-北上","LANDMARKAD":"1000310","ADDRESS":"桃園縣平鎮市","TEL":" ","COUNTYNAME":"桃園市","TOWNNAME":"平鎮區","MARKTYPE":"993","Class":"308"},"geometry":{"x":269431.50530000031,"y":2759036.3378999997}},{"attributes":{"OBJECTID":2175,"LANDMARKID":"1000300000721","LANDMARKCO":"308","LANDMARKNA":"台66-平鎮一交流道-西行","LANDMARKAD":"1000310","ADDRESS":" ","TEL":" ","COUNTYNAME":"桃園市","TOWNNAME":"平鎮區","MARKTYPE":"993","Class":"308"},"geometry":{"x":269962.47719999962,"y":2758304.0299999993}},{"attributes":{"OBJECTID":2176,"LANDMARKID":"1000300000722","LANDMARKCO":"308","LANDMARKNA":"台66-平鎮二交流道-東行","LANDMARKAD":"1000310","ADDRESS":" ","TEL":" ","COUNTYNAME":"桃園市","TOWNNAME":"平鎮區","MARKTYPE":"993","Class":"308"},"geometry":{"x":271667.09389999975,"y":2757758.7233000007}},{"attributes":{"OBJECTID":2177,"LANDMARKID":"1000300000723","LANDMARKCO":"308","LANDMARKNA":"台66-平鎮二交流道-西行","LANDMARKAD":"1000310","ADDRESS":" ","TEL":" ","COUNTYNAME":"桃園市","TOWNNAME":"平鎮區","MARKTYPE":"993","Class":"308"},"geometry":{"x":271393.40550000034,"y":2757877.6370000001}},{"attributes":{"OBJECTID":2178,"LANDMARKID":"1000300000724","LANDMARKCO":"308","LANDMARKNA":"台66-平鎮三交流道-東行","LANDMARKAD":"1000310","ADDRESS":" ","TEL":" ","COUNTYNAME":"桃園市","TOWNNAME":"平鎮區","MARKTYPE":"993","Class":"308"},"geometry":{"x":273372.10869999975,"y":2755361.2172999997}},{"attributes":{"OBJECTID":2179,"LANDMARKID":"1000300000725","LANDMARKCO":"308","LANDMARKNA":"台66-平鎮三交流道-西行","LANDMARKAD":"1000310","ADDRESS":" ","TEL":" ","COUNTYNAME":"桃園市","TOWNNAME":"平鎮區","MARKTYPE":"993","Class":"308"},"geometry":{"x":273266.44159999955,"y":2755541.1483999994}},{"attributes":{"OBJECTID":2180,"LANDMARKID":"1000300000604","LANDMARKCO":"302","LANDMARKNA":"統聯汽車客運中壢站","LANDMARKAD":"1000310","ADDRESS":"桃園縣中壢市民族路二段178號","TEL":" ","COUNTYNAME":"桃園市","TOWNNAME":"平鎮區","MARKTYPE":"993","Class":"302"},"geometry":{"x":270405.74019999988,"y":2761045.3572000004}},{"attributes":{"OBJECTID":2181,"LANDMARKID":"1000300000605","LANDMARKCO":"303","LANDMARKNA":"市公所停車場","LANDMARKAD":"1000310","ADDRESS":"桃園縣平鎮市","TEL":" ","COUNTYNAME":"桃園市","TOWNNAME":"平鎮區","MARKTYPE":"993","Class":"303"},"geometry":{"x":272015.35539999977,"y":2759768.6136000007}},{"attributes":{"OBJECTID":2182,"LANDMARKID":"1000300000606","LANDMARKCO":"303","LANDMARKNA":"平鎮市廣北停車場","LANDMARKAD":"1000310","ADDRESS":"桃園縣平鎮市民族路245號","TEL":" ","COUNTYNAME":"桃園市","TOWNNAME":"平鎮區","MARKTYPE":"993","Class":"303"},"geometry":{"x":271063.33440000005,"y":2761005.7095999997}},{"attributes":{"OBJECTID":2183,"LANDMARKID":"1000300000607","LANDMARKCO":"303","LANDMARKNA":"平鎮市廣南停車場","LANDMARKAD":"1000310","ADDRESS":"桃園縣平鎮市延平路二段319號","TEL":" ","COUNTYNAME":"桃園市","TOWNNAME":"平鎮區","MARKTYPE":"993","Class":"303"},"geometry":{"x":270957.39910000004,"y":2759528.2409000006}},{"attributes":{"OBJECTID":2184,"LANDMARKID":"1000300000851","LANDMARKCO":"402","LANDMARKNA":"中華電信-平鎮中豐特約服務中心","LANDMARKAD":"1000310","ADDRESS":"桃園縣平鎮市中豐路山頂段176號","TEL":"03-4699797","COUNTYNAME":"桃園市","TOWNNAME":"平鎮區","MARKTYPE":"994","Class":"4"},"geometry":{"x":271298.07110000029,"y":2754705.9461000003}},{"attributes":{"OBJECTID":2185,"LANDMARKID":"1000300000852","LANDMARKCO":"402","LANDMARKNA":"威寶電信-平鎮中豐特約服務中心","LANDMARKAD":"1000310","ADDRESS":"桃園縣平鎮市中豐路山頂段168號","TEL":"03-4194388","COUNTYNAME":"桃園市","TOWNNAME":"平鎮區","MARKTYPE":"994","Class":"4"},"geometry":{"x":271307.39360000007,"y":2754728.5413000006}},{"attributes":{"OBJECTID":2186,"LANDMARKID":"1000300000853","LANDMARKCO":"402","LANDMARKNA":"大眾電信-中原專賣店","LANDMARKAD":"1000310","ADDRESS":"桃園縣平鎮市南豐路1號","TEL":"03-4193223","COUNTYNAME":"桃園市","TOWNNAME":"平鎮區","MARKTYPE":"994","Class":"4"},"geometry":{"x":271295.34339999966,"y":2754714.5854000002}},{"attributes":{"OBJECTID":2187,"LANDMARKID":"1000300001530","LANDMARKCO":"603","LANDMARKNA":"上海商務旅館","LANDMARKAD":"1000310","ADDRESS":"桃園縣龍潭鄉太平村民富街176號2-10樓","TEL":"03-4221212-3","COUNTYNAME":"桃園市","TOWNNAME":"平鎮區","MARKTYPE":"996","Class":"6"},"geometry":{"x":272212.98529999983,"y":2760357.0867999997}},{"attributes":{"OBJECTID":2188,"LANDMARKID":"1000300001531","LANDMARKCO":"603","LANDMARKNA":"一六八旅館-平鎮館","LANDMARKAD":"1000310","ADDRESS":"桃園縣平鎮市上海路122","TEL":"126號","COUNTYNAME":"桃園市","TOWNNAME":"平鎮區","MARKTYPE":"996","Class":"6"},"geometry":{"x":270902.00299999956,"y":2755846.1347000003}},{"attributes":{"OBJECTID":2189,"LANDMARKID":"1000300001532","LANDMARKCO":"603","LANDMARKNA":"好伯春汽車旅館","LANDMARKAD":"1000310","ADDRESS":"桃園縣平鎮市高雙路30號2樓","TEL":"03-4917567","COUNTYNAME":"桃園市","TOWNNAME":"平鎮區","MARKTYPE":"996","Class":"6"},"geometry":{"x":269320.7229000004,"y":2761169.0932999998}},{"attributes":{"OBJECTID":2190,"LANDMARKID":"1000300001533","LANDMARKCO":"603","LANDMARKNA":"愛莉園汽車旅館","LANDMARKAD":"1000310","ADDRESS":"桃園縣平鎮市高雙路70號2樓","TEL":"03-4952366","COUNTYNAME":"桃園市","TOWNNAME":"平鎮區","MARKTYPE":"996","Class":"6"},"geometry":{"x":269276.69710000046,"y":2761115.1524}},{"attributes":{"OBJECTID":2191,"LANDMARKID":"1000300001534","LANDMARKCO":"603","LANDMARKNA":"碧雲天旅館","LANDMARKAD":"1000310","ADDRESS":"桃園縣平鎮市德育路二段178號","TEL":"03-4599121","COUNTYNAME":"桃園市","TOWNNAME":"平鎮區","MARKTYPE":"996","Class":"6"},"geometry":{"x":272074.09649999999,"y":2759279.1482999995}},{"attributes":{"OBJECTID":2192,"LANDMARKID":"1000300001535","LANDMARKCO":"603","LANDMARKNA":"丹尼爾汽車旅館","LANDMARKAD":"1000310","ADDRESS":"桃園縣平鎮市環南路3段29號1-3樓","TEL":"03-4285666","COUNTYNAME":"桃園市","TOWNNAME":"平鎮區","MARKTYPE":"996","Class":"6"},"geometry":{"x":271945.03089999966,"y":2759187.4378999993}},{"attributes":{"OBJECTID":2193,"LANDMARKID":"1000300001536","LANDMARKCO":"603","LANDMARKNA":"花期商務旅館","LANDMARKAD":"1000310","ADDRESS":"桃園縣平鎮市中豐路269巷2號2-3樓","TEL":"03-4597878","COUNTYNAME":"桃園市","TOWNNAME":"平鎮區","MARKTYPE":"996","Class":"6"},"geometry":{"x":271943.02400000021,"y":2759560.1502}},{"attributes":{"OBJECTID":2194,"LANDMARKID":"1000300001537","LANDMARKCO":"603","LANDMARKNA":"愛錸汽車旅館","LANDMARKAD":"1000310","ADDRESS":"桃園縣平鎮市新德街215號","TEL":"03-4938357","COUNTYNAME":"桃園市","TOWNNAME":"平鎮區","MARKTYPE":"996","Class":"6"},"geometry":{"x":271543.31319999974,"y":2759543.0957999993}},{"attributes":{"OBJECTID":2195,"LANDMARKID":"1000300001538","LANDMARKCO":"603","LANDMARKNA":"大世界賓館","LANDMARKAD":"1000310","ADDRESS":"桃園縣八德市長興路516號1-2樓","TEL":"03-2204668","COUNTYNAME":"桃園市","TOWNNAME":"平鎮區","MARKTYPE":"996","Class":"6"},"geometry":{"x":272950.10520000011,"y":2758333.8383000009}},{"attributes":{"OBJECTID":2196,"LANDMARKID":"1000300001026","LANDMARKCO":"405","LANDMARKNA":"中油加油站-梅溪站(中油直營)","LANDMARKAD":"1000304","ADDRESS":"桃園縣楊梅鎮中山北路一段391號","TEL":"03-4782632","COUNTYNAME":"桃園市","TOWNNAME":"楊梅區","MARKTYPE":"994","Class":"4"},"geometry":{"x":266136.51489999983,"y":2755675.7158000004}},{"attributes":{"OBJECTID":2197,"LANDMARKID":"1000300001027","LANDMARKCO":"405","LANDMARKNA":"中油加油站-梅新站","LANDMARKAD":"1000304","ADDRESS":"桃園縣楊梅鎮中山北路一段349號","TEL":"03-4750393","COUNTYNAME":"桃園市","TOWNNAME":"楊梅區","MARKTYPE":"994","Class":"4"},"geometry":{"x":265963.37519999966,"y":2755646.1491}},{"attributes":{"OBJECTID":2198,"LANDMARKID":"1000300001028","LANDMARKCO":"405","LANDMARKNA":"統一速邁樂加油站-楊梅加油站(中油)","LANDMARKAD":"1000304","ADDRESS":"桃園縣楊梅鎮中山南路259號","TEL":" ","COUNTYNAME":"桃園市","TOWNNAME":"楊梅區","MARKTYPE":"994","Class":"4"},"geometry":{"x":263559.51240000036,"y":2755421.8827}},{"attributes":{"OBJECTID":2199,"LANDMARKID":"1000300001029","LANDMARKCO":"405","LANDMARKNA":"統一速邁樂加油站-楊梅中山加油站(中油)","LANDMARKAD":"1000304","ADDRESS":"桃園縣楊梅鎮中山北路一段43號","TEL":" ","COUNTYNAME":"桃園市","TOWNNAME":"楊梅區","MARKTYPE":"994","Class":"4"},"geometry":{"x":265260.53880000021,"y":2755537.5208000001}},{"attributes":{"OBJECTID":2200,"LANDMARKID":"1000300001030","LANDMARKCO":"405","LANDMARKNA":"中油加油站-楊梅站(中油直營)","LANDMARKAD":"1000304","ADDRESS":"桃園縣楊梅鎮中山路96號","TEL":"03-4782205","COUNTYNAME":"桃園市","TOWNNAME":"楊梅區","MARKTYPE":"994","Class":"4"},"geometry":{"x":264728.41490000021,"y":2755491.6625999995}}]}