{"displayFieldName":"COUNTYNAME","fieldAliases":{"OBJECTID":"OBJECTID","LANDMARKID":"LANDMARKID","LANDMARKCO":"LANDMARKCO","LANDMARKNA":"LANDMARKNA","LANDMARKAD":"LANDMARKAD","ADDRESS":"ADDRESS","TEL":"TEL","COUNTYNAME":"COUNTYNAME","TOWNNAME":"TOWNNAME","MARKTYPE":"MARKTYPE","Class":"Class"},"geometryType":"esriGeometryPoint","spatialReference":{"wkid":4326},"fields":[{"name":"OBJECTID","type":"esriFieldTypeOID","alias":"OBJECTID"},{"name":"LANDMARKID","type":"esriFieldTypeString","alias":"LANDMARKID","length":15},{"name":"LANDMARKCO","type":"esriFieldTypeString","alias":"LANDMARKCO","length":15},{"name":"LANDMARKNA","type":"esriFieldTypeString","alias":"LANDMARKNA","length":50},{"name":"LANDMARKAD","type":"esriFieldTypeString","alias":"LANDMARKAD","length":15},{"name":"ADDRESS","type":"esriFieldTypeString","alias":"ADDRESS","length":56},{"name":"TEL","type":"esriFieldTypeString","alias":"TEL","length":36},{"name":"COUNTYNAME","type":"esriFieldTypeString","alias":"COUNTYNAME","length":15},{"name":"TOWNNAME","type":"esriFieldTypeString","alias":"TOWNNAME","length":13},{"name":"MARKTYPE","type":"esriFieldTypeString","alias":"MARKTYPE","length":12},{"name":"Class","type":"esriFieldTypeString","alias":"Class","length":5}],"features":[{"attributes":{"OBJECTID":13801,"LANDMARKID":"1001900000591","LANDMARKCO":"402","LANDMARKNA":"中華電信-台中東山特約服務中心","LANDMARKAD":"1001908","ADDRESS":"台中市北屯區東山路一段289-9號","TEL":"04-22390288","COUNTYNAME":"台中市","TOWNNAME":"北屯區","MARKTYPE":"994","Class":"4"},"geometry":{"x":120.71962227908978,"y":24.176005895858534}},{"attributes":{"OBJECTID":13802,"LANDMARKID":"1001900000592","LANDMARKCO":"402","LANDMARKNA":"威寶電信-台中北屯特約服務中心","LANDMARKAD":"1001908","ADDRESS":"台中市北屯區北屯路188號","TEL":"04-22353779","COUNTYNAME":"台中市","TOWNNAME":"北屯區","MARKTYPE":"994","Class":"4"},"geometry":{"x":120.69496058441209,"y":24.165683936455544}},{"attributes":{"OBJECTID":13803,"LANDMARKID":"1001900000593","LANDMARKCO":"402","LANDMARKNA":"威寶電信-台中松竹特約服務中心","LANDMARKAD":"1001908","ADDRESS":"台中市北屯區松竹路二段201號","TEL":"04-22471846","COUNTYNAME":"台中市","TOWNNAME":"北屯區","MARKTYPE":"994","Class":"4"},"geometry":{"x":120.69484884458126,"y":24.183028752490291}},{"attributes":{"OBJECTID":13804,"LANDMARKID":"1001900000594","LANDMARKCO":"402","LANDMARKNA":"威寶電信-台中昌平特約服務中心","LANDMARKAD":"1001908","ADDRESS":"台中市北屯區昌平路一段274號","TEL":"04-22473433","COUNTYNAME":"台中市","TOWNNAME":"北屯區","MARKTYPE":"994","Class":"4"},"geometry":{"x":120.69093282463319,"y":24.17243285369242}},{"attributes":{"OBJECTID":13805,"LANDMARKID":"1001900000595","LANDMARKCO":"402","LANDMARKNA":"威寶電信-台中東山特約服務中心","LANDMARKAD":"1001908","ADDRESS":"台中市北屯區東山路1段292之1號","TEL":"04-24365064","COUNTYNAME":"台中市","TOWNNAME":"北屯區","MARKTYPE":"994","Class":"4"},"geometry":{"x":120.71980061968553,"y":24.175735670655108}},{"attributes":{"OBJECTID":13806,"LANDMARKID":"1001900000596","LANDMARKCO":"402","LANDMARKNA":"威寶電信-台中中清特約服務中心","LANDMARKAD":"1001908","ADDRESS":"台中市北屯區中清路2-27號","TEL":"04-22939868","COUNTYNAME":"台中市","TOWNNAME":"北屯區","MARKTYPE":"994","Class":"4"},"geometry":{"x":120.67127525156906,"y":24.175001026677034}},{"attributes":{"OBJECTID":13807,"LANDMARKID":"1001900000597","LANDMARKCO":"402","LANDMARKNA":"大眾電信(震旦通訊)-台中中清店","LANDMARKAD":"1001908","ADDRESS":"台中市中清路94-4號","TEL":"04-22956797","COUNTYNAME":"台中市","TOWNNAME":"北屯區","MARKTYPE":"994","Class":"4"},"geometry":{"x":120.66525293589591,"y":24.184106515048871}},{"attributes":{"OBJECTID":13808,"LANDMARKID":"1001900000598","LANDMARKCO":"402","LANDMARKNA":"大眾電信(震旦通訊)-台中北屯店","LANDMARKAD":"1001908","ADDRESS":"台中市北屯區北屯路184號","TEL":"04-22305077","COUNTYNAME":"台中市","TOWNNAME":"北屯區","MARKTYPE":"994","Class":"4"},"geometry":{"x":120.69490175031483,"y":24.165638554026266}},{"attributes":{"OBJECTID":13809,"LANDMARKID":"1001900000599","LANDMARKCO":"402","LANDMARKNA":"大眾電信-昌平專賣店","LANDMARKAD":"1001908","ADDRESS":"台中市北屯區昌平路一段422號","TEL":"968358599","COUNTYNAME":"台中市","TOWNNAME":"北屯區","MARKTYPE":"994","Class":"4"},"geometry":{"x":120.69051859366644,"y":24.176042891352314}},{"attributes":{"OBJECTID":13810,"LANDMARKID":"1001900000600","LANDMARKCO":"402","LANDMARKNA":"大眾電信(震旦通訊)-台中青島店","LANDMARKAD":"1001908","ADDRESS":"台中市崇德路二段2號","TEL":"04-22360639","COUNTYNAME":"台中市","TOWNNAME":"北屯區","MARKTYPE":"994","Class":"4"},"geometry":{"x":120.68545670980863,"y":24.16846707635499}},{"attributes":{"OBJECTID":13811,"LANDMARKID":"1001900001108","LANDMARKCO":"603","LANDMARKNA":"安順商務旅館","LANDMARKAD":"1001908","ADDRESS":"台中市北屯區安順東二街45號","TEL":"04-22925562","COUNTYNAME":"台中市","TOWNNAME":"北屯區","MARKTYPE":"996","Class":"6"},"geometry":{"x":120.67854947025354,"y":24.175610702062865}},{"attributes":{"OBJECTID":13812,"LANDMARKID":"1001900001109","LANDMARKCO":"603","LANDMARKNA":"鼎壹大飯店","LANDMARKAD":"1001908","ADDRESS":"台中市北屯區麻園西街52號","TEL":"04-22952266","COUNTYNAME":"台中市","TOWNNAME":"北屯區","MARKTYPE":"996","Class":"6"},"geometry":{"x":120.6740857763084,"y":24.175482068370272}},{"attributes":{"OBJECTID":13813,"LANDMARKID":"1001900001110","LANDMARKCO":"603","LANDMARKNA":"天王星大飯店","LANDMARKAD":"1001908","ADDRESS":"台中市北屯區東山路2段77-11號","TEL":"04-22392411","COUNTYNAME":"台中市","TOWNNAME":"北屯區","MARKTYPE":"996","Class":"6"},"geometry":{"x":120.74669510523438,"y":24.192625831070316}},{"attributes":{"OBJECTID":13814,"LANDMARKID":"1001900001111","LANDMARKCO":"603","LANDMARKNA":"台中日光溫泉會館","LANDMARKAD":"1001908","ADDRESS":"台中市北屯區東山路2段光西巷78號","TEL":"04-22399000","COUNTYNAME":"台中市","TOWNNAME":"北屯區","MARKTYPE":"996","Class":"6"},"geometry":{"x":120.74410678640005,"y":24.192776190122085}},{"attributes":{"OBJECTID":13815,"LANDMARKID":"1001900001112","LANDMARKCO":"603","LANDMARKNA":"好勝地汽車旅館","LANDMARKAD":"1001908","ADDRESS":"台中市北屯區昌平東三路59號","TEL":"04-24210266","COUNTYNAME":"台中市","TOWNNAME":"北屯區","MARKTYPE":"996","Class":"6"},"geometry":{"x":120.68871074842109,"y":24.189816405342427}},{"attributes":{"OBJECTID":13816,"LANDMARKID":"1001900001113","LANDMARKCO":"603","LANDMARKNA":"虹星汽車旅館","LANDMARKAD":"1001908","ADDRESS":"台中市北屯區北平路4段151號","TEL":"04-22307935","COUNTYNAME":"台中市","TOWNNAME":"北屯區","MARKTYPE":"996","Class":"6"},"geometry":{"x":120.69394748098588,"y":24.17040778354901}},{"attributes":{"OBJECTID":13817,"LANDMARKID":"1001900001114","LANDMARKCO":"603","LANDMARKNA":"禾康商務旅館","LANDMARKAD":"1001908","ADDRESS":"台中市北屯區四平路35號5-6樓","TEL":"04-22957333","COUNTYNAME":"台中市","TOWNNAME":"北屯區","MARKTYPE":"996","Class":"6"},"geometry":{"x":120.67042449894517,"y":24.178618081066571}},{"attributes":{"OBJECTID":13818,"LANDMARKID":"1001900001115","LANDMARKCO":"603","LANDMARKNA":"台中中信大飯店","LANDMARKAD":"1001908","ADDRESS":"台中市北屯區后庄路306號","TEL":"04-24255678","COUNTYNAME":"台中市","TOWNNAME":"北屯區","MARKTYPE":"996","Class":"6"},"geometry":{"x":120.66748377916689,"y":24.191351652156037}},{"attributes":{"OBJECTID":13819,"LANDMARKID":"1001900001116","LANDMARKCO":"603","LANDMARKNA":"巴里島汽車旅館","LANDMARKAD":"1001908","ADDRESS":"台中市北屯區昌平東五路80號","TEL":"04-24211909","COUNTYNAME":"台中市","TOWNNAME":"北屯區","MARKTYPE":"996","Class":"6"},"geometry":{"x":120.68979249536166,"y":24.185854771909696}},{"attributes":{"OBJECTID":13820,"LANDMARKID":"1001900001117","LANDMARKCO":"603","LANDMARKNA":"麒麟峰溫泉旅館","LANDMARKAD":"1001908","ADDRESS":"台中市北屯區東山路2段65巷15號","TEL":"04-22396969","COUNTYNAME":"台中市","TOWNNAME":"北屯區","MARKTYPE":"996","Class":"6"},"geometry":{"x":120.74340482531628,"y":24.188032262834948}},{"attributes":{"OBJECTID":13821,"LANDMARKID":"1001900001118","LANDMARKCO":"603","LANDMARKNA":"錸得汽車旅館","LANDMARKAD":"1001908","ADDRESS":"台中市北屯區崇德十路1段399號","TEL":"04-24228080","COUNTYNAME":"台中市","TOWNNAME":"北屯區","MARKTYPE":"996","Class":"6"},"geometry":{"x":120.6881224722494,"y":24.188589519798761}},{"attributes":{"OBJECTID":13822,"LANDMARKID":"1001900001119","LANDMARKCO":"603","LANDMARKNA":"水月雅緻汽車旅館","LANDMARKAD":"1001908","ADDRESS":"台中市北屯區崇德十一路110號","TEL":"04-24211000","COUNTYNAME":"台中市","TOWNNAME":"北屯區","MARKTYPE":"996","Class":"6"},"geometry":{"x":120.68726826589086,"y":24.189534083672896}},{"attributes":{"OBJECTID":13823,"LANDMARKID":"1001900001120","LANDMARKCO":"603","LANDMARKNA":"采岩汽車旅館","LANDMARKAD":"1001908","ADDRESS":"台中市北屯區崇德路3段111號","TEL":"04-24228083","COUNTYNAME":"台中市","TOWNNAME":"北屯區","MARKTYPE":"996","Class":"6"},"geometry":{"x":120.68582951633633,"y":24.185082487775965}},{"attributes":{"OBJECTID":13824,"LANDMARKID":"1001900001121","LANDMARKCO":"603","LANDMARKNA":"麗緹汽車旅館","LANDMARKAD":"1001908","ADDRESS":"台中市北屯區綏遠路2段91號","TEL":"04-22356955","COUNTYNAME":"台中市","TOWNNAME":"北屯區","MARKTYPE":"996","Class":"6"},"geometry":{"x":120.6813245118705,"y":24.171570819342175}},{"attributes":{"OBJECTID":13825,"LANDMARKID":"1001900001122","LANDMARKCO":"603","LANDMARKNA":"華登商務大飯店","LANDMARKAD":"1001908","ADDRESS":"台中市北屯區瀋陽路1段84號","TEL":"04-22964888","COUNTYNAME":"台中市","TOWNNAME":"北屯區","MARKTYPE":"996","Class":"6"},"geometry":{"x":120.67741128229905,"y":24.174148475969929}},{"attributes":{"OBJECTID":13826,"LANDMARKID":"1001900001123","LANDMARKCO":"603","LANDMARKNA":"紅娘旅館","LANDMARKAD":"1001908","ADDRESS":"台中市北屯區瀋陽路2段59號","TEL":"04-22443711","COUNTYNAME":"台中市","TOWNNAME":"北屯區","MARKTYPE":"996","Class":"6"},"geometry":{"x":120.68166417571284,"y":24.173928878026086}},{"attributes":{"OBJECTID":13827,"LANDMARKID":"1001900001124","LANDMARKCO":"603","LANDMARKNA":"中科大飯店","LANDMARKAD":"1001908","ADDRESS":"台中市北屯區旅順路2段7號1至19樓","TEL":"04-22465599","COUNTYNAME":"台中市","TOWNNAME":"北屯區","MARKTYPE":"996","Class":"6"},"geometry":{"x":120.68629655148628,"y":24.174595681577575}},{"attributes":{"OBJECTID":13828,"LANDMARKID":"1001900001125","LANDMARKCO":"603","LANDMARKNA":"香奈兒休閒旅館","LANDMARKAD":"1001908","ADDRESS":"台中市北平路1段2號","TEL":"04-22970177","COUNTYNAME":"台中市","TOWNNAME":"北屯區","MARKTYPE":"996","Class":"6"},"geometry":{"x":120.66753620417283,"y":24.171514588159443}},{"attributes":{"OBJECTID":13829,"LANDMARKID":"1001900001126","LANDMARKCO":"603","LANDMARKNA":"君鈦大飯店","LANDMARKAD":"1001908","ADDRESS":"台中市北屯區大連路1段278號","TEL":"04-22968600","COUNTYNAME":"台中市","TOWNNAME":"北屯區","MARKTYPE":"996","Class":"6"},"geometry":{"x":120.67965066691283,"y":24.176463514803608}},{"attributes":{"OBJECTID":13830,"LANDMARKID":"1001900001127","LANDMARKCO":"603","LANDMARKNA":"北一賓館","LANDMARKAD":"1001908","ADDRESS":"台中市北屯區天祥街7號","TEL":"04-22334787","COUNTYNAME":"台中市","TOWNNAME":"北屯區","MARKTYPE":"996","Class":"6"},"geometry":{"x":120.69448214374856,"y":24.161429213785674}},{"attributes":{"OBJECTID":13831,"LANDMARKID":"1001900001128","LANDMARKCO":"603","LANDMARKNA":"海頓汽車旅館","LANDMARKAD":"1001908","ADDRESS":"台中市北屯區松竹南街1號","TEL":"04-22469388","COUNTYNAME":"台中市","TOWNNAME":"北屯區","MARKTYPE":"996","Class":"6"},"geometry":{"x":120.6850180655223,"y":24.180564494777283}},{"attributes":{"OBJECTID":13832,"LANDMARKID":"1001900001129","LANDMARKCO":"603","LANDMARKNA":"江野汽車旅館","LANDMARKAD":"1001908","ADDRESS":"台中市北屯區松竹路1段881號","TEL":"04-24378586","COUNTYNAME":"台中市","TOWNNAME":"北屯區","MARKTYPE":"996","Class":"6"},"geometry":{"x":120.71497183792572,"y":24.18210277910379}},{"attributes":{"OBJECTID":13833,"LANDMARKID":"1001900001130","LANDMARKCO":"603","LANDMARKNA":"吉野汽車旅館","LANDMARKAD":"1001908","ADDRESS":"台中市北屯區松竹路1段883號","TEL":"04-24378585","COUNTYNAME":"台中市","TOWNNAME":"北屯區","MARKTYPE":"996","Class":"6"},"geometry":{"x":120.71479515190023,"y":24.18199376676392}},{"attributes":{"OBJECTID":13834,"LANDMARKID":"1001900001131","LANDMARKCO":"603","LANDMARKNA":"歐薇汽車旅館","LANDMARKAD":"1001908","ADDRESS":"台中市北屯區河北西街70號","TEL":"04-22472000","COUNTYNAME":"台中市","TOWNNAME":"北屯區","MARKTYPE":"996","Class":"6"},"geometry":{"x":120.68275668419683,"y":24.178691856500738}},{"attributes":{"OBJECTID":13835,"LANDMARKID":"1001900001132","LANDMARKCO":"603","LANDMARKNA":"倍蒂雅汽車旅館","LANDMARKAD":"1001908","ADDRESS":"台中市北屯區河北路3段151號","TEL":"04-22416162","COUNTYNAME":"台中市","TOWNNAME":"北屯區","MARKTYPE":"996","Class":"6"},"geometry":{"x":120.68381049775111,"y":24.180550480365358}},{"attributes":{"OBJECTID":13836,"LANDMARKID":"1001900001133","LANDMARKCO":"603","LANDMARKNA":"嵩悅汽車旅館","LANDMARKAD":"1001908","ADDRESS":"台中市軍功路2段267號","TEL":"04-24391122","COUNTYNAME":"台中市","TOWNNAME":"北屯區","MARKTYPE":"996","Class":"6"},"geometry":{"x":120.71930343970197,"y":24.181924048866971}},{"attributes":{"OBJECTID":13837,"LANDMARKID":"1001900001014","LANDMARKCO":"508","LANDMARKNA":"麒麟峰溫泉","LANDMARKAD":"1001908","ADDRESS":"台中市北屯區東山路二段65巷15號","TEL":"04-22396969","COUNTYNAME":"台中市","TOWNNAME":"北屯區","MARKTYPE":"995","Class":"5"},"geometry":{"x":120.74374147952003,"y":24.187743453745743}},{"attributes":{"OBJECTID":13838,"LANDMARKID":"1001900001015","LANDMARKCO":"508","LANDMARKNA":"霞客溫泉","LANDMARKAD":"1001908","ADDRESS":"台中市北屯區東山路一段橫坑巷47之66號","TEL":"04-24392438","COUNTYNAME":"台中市","TOWNNAME":"北屯區","MARKTYPE":"995","Class":"5"},"geometry":{"x":120.74783662142833,"y":24.181346678446697}},{"attributes":{"OBJECTID":13839,"LANDMARKID":"1001900001016","LANDMARKCO":"508","LANDMARKNA":"日光溫泉會館","LANDMARKAD":"1001908","ADDRESS":"台中市北屯區東山路2段光西巷78號","TEL":"04-22399000","COUNTYNAME":"台中市","TOWNNAME":"北屯區","MARKTYPE":"995","Class":"5"},"geometry":{"x":120.7439482344338,"y":24.192712183377235}},{"attributes":{"OBJECTID":13840,"LANDMARKID":"1001900000983","LANDMARKCO":"504","LANDMARKNA":"大坑風景區八號步道口","LANDMARKAD":"1001908","ADDRESS":"台中市北屯區","TEL":"04-22394272","COUNTYNAME":"台中市","TOWNNAME":"北屯區","MARKTYPE":"995","Class":"5"},"geometry":{"x":120.72824495225719,"y":24.191078851378439}},{"attributes":{"OBJECTID":13841,"LANDMARKID":"1001900000984","LANDMARKCO":"504","LANDMARKNA":"大坑風景區七號步道口","LANDMARKAD":"1001908","ADDRESS":"台中市北屯區","TEL":"04-22394272","COUNTYNAME":"台中市","TOWNNAME":"北屯區","MARKTYPE":"995","Class":"5"},"geometry":{"x":120.73041543563083,"y":24.187716150123908}},{"attributes":{"OBJECTID":13842,"LANDMARKID":"1001900000985","LANDMARKCO":"504","LANDMARKNA":"大坑風景區八號步道","LANDMARKAD":"1001908","ADDRESS":"台中市北屯區","TEL":"04-22394272","COUNTYNAME":"台中市","TOWNNAME":"北屯區","MARKTYPE":"995","Class":"5"},"geometry":{"x":120.73020684209948,"y":24.1921931219131}},{"attributes":{"OBJECTID":13843,"LANDMARKID":"1001900000986","LANDMARKCO":"504","LANDMARKNA":"大坑風景區六號步道口","LANDMARKAD":"1001908","ADDRESS":"台中市北屯區","TEL":"04-22394272","COUNTYNAME":"台中市","TOWNNAME":"北屯區","MARKTYPE":"995","Class":"5"},"geometry":{"x":120.7308467756265,"y":24.187803623297903}},{"attributes":{"OBJECTID":13844,"LANDMARKID":"1001900000987","LANDMARKCO":"504","LANDMARKNA":"大坑風景區九號步道","LANDMARKAD":"1001908","ADDRESS":"台中市北屯區","TEL":"04-22394272","COUNTYNAME":"台中市","TOWNNAME":"北屯區","MARKTYPE":"995","Class":"5"},"geometry":{"x":120.73220050989072,"y":24.181999068067569}},{"attributes":{"OBJECTID":13845,"LANDMARKID":"1001900000988","LANDMARKCO":"504","LANDMARKNA":"大坑風景區九號步道口","LANDMARKAD":"1001908","ADDRESS":"台中市北屯區","TEL":"04-22394272","COUNTYNAME":"台中市","TOWNNAME":"北屯區","MARKTYPE":"995","Class":"5"},"geometry":{"x":120.73369239986334,"y":24.177057354192911}},{"attributes":{"OBJECTID":13846,"LANDMARKID":"1001900000989","LANDMARKCO":"504","LANDMARKNA":"大坑風景區七號步道","LANDMARKAD":"1001908","ADDRESS":"台中市北屯區","TEL":"04-22394272","COUNTYNAME":"台中市","TOWNNAME":"北屯區","MARKTYPE":"995","Class":"5"},"geometry":{"x":120.73158769898542,"y":24.190027695934429}},{"attributes":{"OBJECTID":13847,"LANDMARKID":"1001900000990","LANDMARKCO":"504","LANDMARKNA":"大坑風景區六號步道","LANDMARKAD":"1001908","ADDRESS":"台中市北屯區","TEL":"04-22394272","COUNTYNAME":"台中市","TOWNNAME":"北屯區","MARKTYPE":"995","Class":"5"},"geometry":{"x":120.73627040172956,"y":24.189853885285672}},{"attributes":{"OBJECTID":13848,"LANDMARKID":"1001900000991","LANDMARKCO":"504","LANDMARKNA":"大坑風景區大坑一號步道口","LANDMARKAD":"1001908","ADDRESS":"台中市北屯區","TEL":"04-22390685","COUNTYNAME":"台中市","TOWNNAME":"北屯區","MARKTYPE":"995","Class":"5"},"geometry":{"x":120.78447822459403,"y":24.190325309362095}},{"attributes":{"OBJECTID":13849,"LANDMARKID":"1001900000992","LANDMARKCO":"504","LANDMARKNA":"大坑風景區大坑三號步道口","LANDMARKAD":"1001908","ADDRESS":"台中市北屯區","TEL":"04-22390685","COUNTYNAME":"台中市","TOWNNAME":"北屯區","MARKTYPE":"995","Class":"5"},"geometry":{"x":120.78595315249744,"y":24.179908503268269}},{"attributes":{"OBJECTID":13850,"LANDMARKID":"1001900000993","LANDMARKCO":"504","LANDMARKNA":"大坑風景區大坑二號步道口","LANDMARKAD":"1001908","ADDRESS":"台中市北屯區","TEL":"04-22390685","COUNTYNAME":"台中市","TOWNNAME":"北屯區","MARKTYPE":"995","Class":"5"},"geometry":{"x":120.7856391806351,"y":24.1843229441752}},{"attributes":{"OBJECTID":13851,"LANDMARKID":"1001900000994","LANDMARKCO":"504","LANDMARKNA":"大坑風景區大坑四號步道","LANDMARKAD":"1001908","ADDRESS":"台中市北屯區","TEL":"04-22390685","COUNTYNAME":"台中市","TOWNNAME":"北屯區","MARKTYPE":"995","Class":"5"},"geometry":{"x":120.78990727502206,"y":24.175016626080179}},{"attributes":{"OBJECTID":13852,"LANDMARKID":"1001900000995","LANDMARKCO":"504","LANDMARKNA":"大坑風景區大坑一號步道","LANDMARKAD":"1001908","ADDRESS":"台中市北屯區","TEL":"04-22390685","COUNTYNAME":"台中市","TOWNNAME":"北屯區","MARKTYPE":"995","Class":"5"},"geometry":{"x":120.79064698319311,"y":24.188380605896967}},{"attributes":{"OBJECTID":13853,"LANDMARKID":"1001900000996","LANDMARKCO":"504","LANDMARKNA":"大坑風景區大坑三號步道","LANDMARKAD":"1001908","ADDRESS":"台中市北屯區","TEL":"04-22390685","COUNTYNAME":"台中市","TOWNNAME":"北屯區","MARKTYPE":"995","Class":"5"},"geometry":{"x":120.79126261255396,"y":24.17817860454387}},{"attributes":{"OBJECTID":13854,"LANDMARKID":"1001900000997","LANDMARKCO":"504","LANDMARKNA":"大坑風景區大坑二號步道","LANDMARKAD":"1001908","ADDRESS":"台中市北屯區","TEL":"04-22390685","COUNTYNAME":"台中市","TOWNNAME":"北屯區","MARKTYPE":"995","Class":"5"},"geometry":{"x":120.7928172906707,"y":24.182995746300072}},{"attributes":{"OBJECTID":13855,"LANDMARKID":"1001900000998","LANDMARKCO":"504","LANDMARKNA":"大坑風景區大坑五號步道","LANDMARKAD":"1001908","ADDRESS":"台中市北屯區","TEL":"04-22390685","COUNTYNAME":"台中市","TOWNNAME":"北屯區","MARKTYPE":"995","Class":"5"},"geometry":{"x":120.79951835803099,"y":24.187451678995032}},{"attributes":{"OBJECTID":13856,"LANDMARKID":"1001900000999","LANDMARKCO":"505","LANDMARKNA":"台中市兒童館","LANDMARKAD":"1001908","ADDRESS":"台中市北屯區興安路一段162號","TEL":"04-22328546","COUNTYNAME":"台中市","TOWNNAME":"北屯區","MARKTYPE":"995","Class":"5"},"geometry":{"x":120.69453060415593,"y":24.169334560707597}},{"attributes":{"OBJECTID":13857,"LANDMARKID":"1001900000982","LANDMARKCO":"503","LANDMARKNA":"八二三紀念公園","LANDMARKAD":"1001908","ADDRESS":"台中市北屯區","TEL":" ","COUNTYNAME":"台中市","TOWNNAME":"北屯區","MARKTYPE":"995","Class":"5"},"geometry":{"x":120.68902721242563,"y":24.187538407525604}},{"attributes":{"OBJECTID":13858,"LANDMARKID":"1001900001000","LANDMARKCO":"505","LANDMARKNA":"亞哥花園","LANDMARKAD":"1001908","ADDRESS":"台中市北屯區民政里苧園巷41號","TEL":" ","COUNTYNAME":"台中市","TOWNNAME":"北屯區","MARKTYPE":"995","Class":"5"},"geometry":{"x":120.7567057419502,"y":24.175002666865183}},{"attributes":{"OBJECTID":13859,"LANDMARKID":"1001900001001","LANDMARKCO":"505","LANDMARKNA":"東山樂園","LANDMARKAD":"1001908","ADDRESS":"台中市北屯區東山路二段151之2號","TEL":" ","COUNTYNAME":"台中市","TOWNNAME":"北屯區","MARKTYPE":"995","Class":"5"},"geometry":{"x":120.7648873698699,"y":24.198319430844826}},{"attributes":{"OBJECTID":13860,"LANDMARKID":"1001900001002","LANDMARKCO":"505","LANDMARKNA":"卡多里樂園(停)","LANDMARKAD":"1001908","ADDRESS":"台中市北屯區東山路二段78巷2號","TEL":" ","COUNTYNAME":"台中市","TOWNNAME":"北屯區","MARKTYPE":"995","Class":"5"},"geometry":{"x":120.74799551813264,"y":24.193350840205007}},{"attributes":{"OBJECTID":13861,"LANDMARKID":"1001900001017","LANDMARKCO":"510","LANDMARKNA":"三光高爾夫練習場","LANDMARKAD":"1001908","ADDRESS":"台中市北屯區大連路1段191巷3-5號","TEL":"04-22953178","COUNTYNAME":"台中市","TOWNNAME":"北屯區","MARKTYPE":"995","Class":"5"},"geometry":{"x":120.67717230749346,"y":24.178450722841561}},{"attributes":{"OBJECTID":13862,"LANDMARKID":"1001900001018","LANDMARKCO":"510","LANDMARKNA":"楊老師高爾夫練習場","LANDMARKAD":"1001908","ADDRESS":"台中市北屯區松竹路三段永和巷23之20號","TEL":"04-22963273","COUNTYNAME":"台中市","TOWNNAME":"北屯區","MARKTYPE":"995","Class":"5"},"geometry":{"x":120.68036208948924,"y":24.182416834959611}},{"attributes":{"OBJECTID":13863,"LANDMARKID":"1001900001019","LANDMARKCO":"510","LANDMARKNA":"亞加達高爾夫練習場","LANDMARKAD":"1001908","ADDRESS":"台中市北屯區北屯路490巷32號","TEL":"04-2361526","COUNTYNAME":"台中市","TOWNNAME":"北屯區","MARKTYPE":"995","Class":"5"},"geometry":{"x":120.70421263141706,"y":24.181285179780136}},{"attributes":{"OBJECTID":13864,"LANDMARKID":"1001900001020","LANDMARKCO":"510","LANDMARKNA":"冠祐花園高爾夫練習場","LANDMARKAD":"1001908","ADDRESS":"台中市北屯區軍功路2段571號","TEL":"04-22394518","COUNTYNAME":"台中市","TOWNNAME":"北屯區","MARKTYPE":"995","Class":"5"},"geometry":{"x":120.71801972259561,"y":24.188056617232096}},{"attributes":{"OBJECTID":13865,"LANDMARKID":"1001900001021","LANDMARKCO":"510","LANDMARKNA":"台中國際高爾夫球場","LANDMARKAD":"1001908","ADDRESS":"台中市北屯區民政里北坑巷21之8號","TEL":"04-22391172","COUNTYNAME":"台中市","TOWNNAME":"北屯區","MARKTYPE":"995","Class":"5"},"geometry":{"x":120.75869026775256,"y":24.162701786767389}},{"attributes":{"OBJECTID":13866,"LANDMARKID":"1001900000728","LANDMARKCO":"405","LANDMARKNA":"中油加油站-僑光站","LANDMARKAD":"1001906","ADDRESS":"台中市西屯區西墩里黎明路3段570號","TEL":"04-27089365","COUNTYNAME":"台中市","TOWNNAME":"西屯區","MARKTYPE":"994","Class":"4"},"geometry":{"x":120.6414075586999,"y":24.189352023725604}},{"attributes":{"OBJECTID":13867,"LANDMARKID":"1001900000729","LANDMARKCO":"405","LANDMARKNA":"中油加油站-光明路站","LANDMARKAD":"1001906","ADDRESS":"台中市西屯區廙福里光明路267-45號","TEL":"04-27051398","COUNTYNAME":"台中市","TOWNNAME":"西屯區","MARKTYPE":"994","Class":"4"},"geometry":{"x":120.6412004099503,"y":24.192592514937729}},{"attributes":{"OBJECTID":13868,"LANDMARKID":"1001900000730","LANDMARKCO":"405","LANDMARKNA":"中油加油站-光凰站","LANDMARKAD":"1001906","ADDRESS":"台中市西屯區福科路110號","TEL":"04-27067358","COUNTYNAME":"台中市","TOWNNAME":"西屯區","MARKTYPE":"994","Class":"4"},"geometry":{"x":120.63243806617278,"y":24.180198586873185}},{"attributes":{"OBJECTID":13869,"LANDMARKID":"1001900000731","LANDMARKCO":"405","LANDMARKNA":"中油加油站-中清站","LANDMARKAD":"1001906","ADDRESS":"台中市西屯區中清路194-30號","TEL":"04-24258318","COUNTYNAME":"台中市","TOWNNAME":"西屯區","MARKTYPE":"994","Class":"4"},"geometry":{"x":120.65459250053971,"y":24.202240764653443}},{"attributes":{"OBJECTID":13870,"LANDMARKID":"1001900000732","LANDMARKCO":"405","LANDMARKNA":"中油加油站-員村中清站","LANDMARKAD":"1001906","ADDRESS":"台中市西屯區中清路195-1號","TEL":"04-24263488","COUNTYNAME":"台中市","TOWNNAME":"西屯區","MARKTYPE":"994","Class":"4"},"geometry":{"x":120.65501263728751,"y":24.199958770130976}},{"attributes":{"OBJECTID":13871,"LANDMARKID":"1001900000733","LANDMARKCO":"405","LANDMARKNA":"北基加油站-中科站(中油)","LANDMARKAD":"1001906","ADDRESS":"台中市西屯區東大路2段750號","TEL":"(04)2462-6507","COUNTYNAME":"台中市","TOWNNAME":"西屯區","MARKTYPE":"994","Class":"4"},"geometry":{"x":120.6103236933333,"y":24.201443343125518}},{"attributes":{"OBJECTID":13872,"LANDMARKID":"1001900000734","LANDMARKCO":"405","LANDMARKNA":"中油加油站-東大站","LANDMARKAD":"1001906","ADDRESS":"台中市西屯區台中港路三段236-6號","TEL":"04-23599998","COUNTYNAME":"台中市","TOWNNAME":"西屯區","MARKTYPE":"994","Class":"4"},"geometry":{"x":120.60106132814383,"y":24.182765379944364}},{"attributes":{"OBJECTID":13873,"LANDMARKID":"1001900000735","LANDMARKCO":"405","LANDMARKNA":"中油加油站-安祥站","LANDMARKAD":"1001906","ADDRESS":"台中市西屯區環中路3段800號","TEL":"04-22548448","COUNTYNAME":"台中市","TOWNNAME":"西屯區","MARKTYPE":"994","Class":"4"},"geometry":{"x":120.62819918140492,"y":24.162547298366622}},{"attributes":{"OBJECTID":13874,"LANDMARKID":"1001900000736","LANDMARKCO":"405","LANDMARKNA":"中油加油站-青海站","LANDMARKAD":"1001906","ADDRESS":"台中市西屯區青海路二段211號","TEL":"04-27015054","COUNTYNAME":"台中市","TOWNNAME":"西屯區","MARKTYPE":"994","Class":"4"},"geometry":{"x":120.64382136157128,"y":24.171327751597239}},{"attributes":{"OBJECTID":13875,"LANDMARKID":"1001900000737","LANDMARKCO":"405","LANDMARKNA":"中油加油站-康旺站","LANDMARKAD":"1001906","ADDRESS":"台中市西屯區河南路二段198號","TEL":"04-22983266","COUNTYNAME":"台中市","TOWNNAME":"西屯區","MARKTYPE":"994","Class":"4"},"geometry":{"x":120.65169880964773,"y":24.176409356636263}},{"attributes":{"OBJECTID":13876,"LANDMARKID":"1001900000738","LANDMARKCO":"405","LANDMARKNA":"中油加油站-安和站","LANDMARKAD":"1001906","ADDRESS":"台中市西屯區安和路51-8號","TEL":"04-23598000","COUNTYNAME":"台中市","TOWNNAME":"西屯區","MARKTYPE":"994","Class":"4"},"geometry":{"x":120.61909123303333,"y":24.16618910350568}},{"attributes":{"OBJECTID":13877,"LANDMARKID":"1001900000739","LANDMARKCO":"405","LANDMARKNA":"中油加油站-北基世貿站","LANDMARKAD":"1001906","ADDRESS":"台中市西屯區福康路199號","TEL":"04-24653498","COUNTYNAME":"台中市","TOWNNAME":"西屯區","MARKTYPE":"994","Class":"4"},"geometry":{"x":120.61824781824717,"y":24.187459858364324}},{"attributes":{"OBJECTID":13878,"LANDMARKID":"1001900000740","LANDMARKCO":"405","LANDMARKNA":"中油加油站-年豐棧站","LANDMARKAD":"1001906","ADDRESS":"台中市西屯區工業八路2號","TEL":"04-23591798","COUNTYNAME":"台中市","TOWNNAME":"西屯區","MARKTYPE":"994","Class":"4"},"geometry":{"x":120.60460385038914,"y":24.17486780138033}},{"attributes":{"OBJECTID":13879,"LANDMARKID":"1001900000741","LANDMARKCO":"405","LANDMARKNA":"中油加油站-長安站","LANDMARKAD":"1001906","ADDRESS":"台中市西屯區福雅路300號","TEL":"04-24632260","COUNTYNAME":"台中市","TOWNNAME":"西屯區","MARKTYPE":"994","Class":"4"},"geometry":{"x":120.62323028129327,"y":24.192486263333237}},{"attributes":{"OBJECTID":13880,"LANDMARKID":"1001900000742","LANDMARKCO":"405","LANDMARKNA":"中油加油站-文華站","LANDMARKAD":"1001906","ADDRESS":"台中市西屯區文心路3段187號","TEL":"04-23156811","COUNTYNAME":"台中市","TOWNNAME":"西屯區","MARKTYPE":"994","Class":"4"},"geometry":{"x":120.65985090545284,"y":24.171625637942299}},{"attributes":{"OBJECTID":13881,"LANDMARKID":"1001900000743","LANDMARKCO":"405","LANDMARKNA":"中油加油站-大度山站","LANDMARKAD":"1001906","ADDRESS":"台中市西屯區台中港路三段286-8號","TEL":"04-23594311","COUNTYNAME":"台中市","TOWNNAME":"西屯區","MARKTYPE":"994","Class":"4"},"geometry":{"x":120.59061039333065,"y":24.184629241190958}},{"attributes":{"OBJECTID":13882,"LANDMARKID":"1001900000744","LANDMARKCO":"405","LANDMARKNA":"中油加油站-台中工業區站(刷卡自助)(中油直營)","LANDMARKAD":"1001906","ADDRESS":"台中市西屯區台中港路三段119號","TEL":"04-23592968","COUNTYNAME":"台中市","TOWNNAME":"西屯區","MARKTYPE":"994","Class":"4"},"geometry":{"x":120.61454150433694,"y":24.18299118815596}},{"attributes":{"OBJECTID":13883,"LANDMARKID":"1001900000745","LANDMARKCO":"405","LANDMARKNA":"中油加油站-中華中港站","LANDMARKAD":"1001906","ADDRESS":"台中市西屯區台中港路2段69-7號","TEL":"04-23204563","COUNTYNAME":"台中市","TOWNNAME":"西屯區","MARKTYPE":"994","Class":"4"},"geometry":{"x":120.65041568629989,"y":24.161615423250161}},{"attributes":{"OBJECTID":13884,"LANDMARKID":"1001900000746","LANDMARKCO":"405","LANDMARKNA":"中油加油站-文心路站(刷卡自助)(中油直營)","LANDMARKAD":"1001906","ADDRESS":"台中市西屯區文心路三段2號","TEL":"04-23131239","COUNTYNAME":"台中市","TOWNNAME":"西屯區","MARKTYPE":"994","Class":"4"},"geometry":{"x":120.6501928653298,"y":24.162901830571556}},{"attributes":{"OBJECTID":13885,"LANDMARKID":"1001900000747","LANDMARKCO":"405","LANDMARKNA":"中油加油站-河南路站","LANDMARKAD":"1001906","ADDRESS":"台中市西屯區河南路二段341號","TEL":"04-27073666","COUNTYNAME":"台中市","TOWNNAME":"西屯區","MARKTYPE":"994","Class":"4"},"geometry":{"x":120.64539344199757,"y":24.17186121929192}},{"attributes":{"OBJECTID":13886,"LANDMARKID":"1001900000572","LANDMARKCO":"402","LANDMARKNA":"My Phone台灣大哥大-台中中港直營服務中心","LANDMARKAD":"1001906","ADDRESS":"台中市西屯區中港路二段7號","TEL":"0809-000-166","COUNTYNAME":"台中市","TOWNNAME":"西屯區","MARKTYPE":"994","Class":"4"},"geometry":{"x":120.65611255718954,"y":24.158872294886304}},{"attributes":{"OBJECTID":13887,"LANDMARKID":"1001900000573","LANDMARKCO":"402","LANDMARKNA":"My Phone台灣大哥大-逢甲福星直營服務中心","LANDMARKAD":"1001906","ADDRESS":"台中市西屯區福星路338號","TEL":"0809-000-166","COUNTYNAME":"台中市","TOWNNAME":"西屯區","MARKTYPE":"994","Class":"4"},"geometry":{"x":120.6448959792455,"y":24.179914057614816}},{"attributes":{"OBJECTID":13888,"LANDMARKID":"1001900000574","LANDMARKCO":"402","LANDMARKNA":"亞太行動寬頻電信-西屯河南加盟服務中心","LANDMARKAD":"1001906","ADDRESS":"台中市西屯區河南路2段423號","TEL":"04-24524828","COUNTYNAME":"台中市","TOWNNAME":"西屯區","MARKTYPE":"994","Class":"4"},"geometry":{"x":120.6436946160682,"y":24.170533551577591}},{"attributes":{"OBJECTID":13889,"LANDMARKID":"1001900000575","LANDMARKCO":"402","LANDMARKNA":"亞太行動寬頻電信-台中河南加盟服務中心","LANDMARKAD":"1001906","ADDRESS":"台中市西屯區逢福里河南路2段280號","TEL":"04-27060588","COUNTYNAME":"台中市","TOWNNAME":"西屯區","MARKTYPE":"994","Class":"4"},"geometry":{"x":120.64884229823805,"y":24.17503201434765}},{"attributes":{"OBJECTID":13890,"LANDMARKID":"1001900000576","LANDMARKCO":"402","LANDMARKNA":"亞太行動寬頻電信-台中漢口加盟服務中心","LANDMARKAD":"1001906","ADDRESS":"台中市西屯區漢口路二段9號","TEL":"04-23178299","COUNTYNAME":"台中市","TOWNNAME":"西屯區","MARKTYPE":"994","Class":"4"},"geometry":{"x":120.65773472192612,"y":24.163450797870812}},{"attributes":{"OBJECTID":13891,"LANDMARKID":"1001900000577","LANDMARKCO":"402","LANDMARKNA":"亞太行動寬頻電信-西屯中科加盟服務中心","LANDMARKAD":"1001906","ADDRESS":"台中市西屯區福雅里西屯路三段153號","TEL":"04-24635808","COUNTYNAME":"台中市","TOWNNAME":"西屯區","MARKTYPE":"994","Class":"4"},"geometry":{"x":120.6217232524389,"y":24.186309807894467}},{"attributes":{"OBJECTID":13892,"LANDMARKID":"1001900000578","LANDMARKCO":"402","LANDMARKNA":"亞太行動寬頻電信-台中逢甲加盟服務中心","LANDMARKAD":"1001906","ADDRESS":"台中市西屯區西平里逢甲路153號","TEL":"04-27066659","COUNTYNAME":"台中市","TOWNNAME":"西屯區","MARKTYPE":"994","Class":"4"},"geometry":{"x":120.64294782559989,"y":24.178024336214651}},{"attributes":{"OBJECTID":13893,"LANDMARKID":"1001900000570","LANDMARKCO":"401","LANDMARKNA":"台中榮民總醫院","LANDMARKAD":"1001906","ADDRESS":"台中市西屯區台中港路三段160號","TEL":"04-23592525","COUNTYNAME":"台中市","TOWNNAME":"西屯區","MARKTYPE":"994","Class":"4"},"geometry":{"x":120.60463969349473,"y":24.184315324119193}},{"attributes":{"OBJECTID":13894,"LANDMARKID":"1001900000571","LANDMARKCO":"401","LANDMARKNA":"澄清綜合醫院中港院區","LANDMARKAD":"1001906","ADDRESS":"台中市西屯區台中港路三段118號","TEL":"04-24632000","COUNTYNAME":"台中市","TOWNNAME":"西屯區","MARKTYPE":"994","Class":"4"},"geometry":{"x":120.61675699309541,"y":24.182681169316542}},{"attributes":{"OBJECTID":13895,"LANDMARKID":"1001900001032","LANDMARKCO":"511","LANDMARKNA":"逢甲夜市","LANDMARKAD":"1001906","ADDRESS":"台中市西屯區","TEL":" ","COUNTYNAME":"台中市","TOWNNAME":"西屯區","MARKTYPE":"995","Class":"5"},"geometry":{"x":120.64658730351725,"y":24.177897104198468}},{"attributes":{"OBJECTID":13896,"LANDMARKID":"1001900001007","LANDMARKCO":"507","LANDMARKNA":"台中西屯張廖家廟","LANDMARKAD":"1001906","ADDRESS":"台中市西屯區西安里西安街205巷1號","TEL":" ","COUNTYNAME":"台中市","TOWNNAME":"西屯區","MARKTYPE":"995","Class":"5"},"geometry":{"x":120.64579277641475,"y":24.182021848410958}},{"attributes":{"OBJECTID":13897,"LANDMARKID":"1001900001008","LANDMARKCO":"507","LANDMARKNA":"台中張家祖廟","LANDMARKAD":"1001906","ADDRESS":"台中市西屯區協和里安和路111號","TEL":"04-23582805","COUNTYNAME":"台中市","TOWNNAME":"西屯區","MARKTYPE":"995","Class":"5"},"geometry":{"x":120.62377349638611,"y":24.177798066444261}},{"attributes":{"OBJECTID":13898,"LANDMARKID":"1001900000959","LANDMARKCO":"408","LANDMARKNA":"郵局-東海大學郵局","LANDMARKAD":"1001906","ADDRESS":"台中市西屯區台中港路3段181號","TEL":"(04)2359-2748","COUNTYNAME":"台中市","TOWNNAME":"西屯區","MARKTYPE":"994","Class":"4"},"geometry":{"x":120.60781267880411,"y":24.182338115889383}},{"attributes":{"OBJECTID":13899,"LANDMARKID":"1001900000960","LANDMARKCO":"408","LANDMARKNA":"郵局-台中逢甲郵局","LANDMARKAD":"1001906","ADDRESS":"台中市西屯區河南路2段268號","TEL":"(04)2452-7033","COUNTYNAME":"台中市","TOWNNAME":"西屯區","MARKTYPE":"994","Class":"4"},"geometry":{"x":120.64911663606347,"y":24.17525904633429}},{"attributes":{"OBJECTID":13900,"LANDMARKID":"1001900000961","LANDMARKCO":"408","LANDMARKNA":"郵局-台中西屯郵局","LANDMARKAD":"1001906","ADDRESS":"台中市西屯區黎明路3段130號","TEL":"(04)2701-0016","COUNTYNAME":"台中市","TOWNNAME":"西屯區","MARKTYPE":"994","Class":"4"},"geometry":{"x":120.63764265089941,"y":24.176667150792341}},{"attributes":{"OBJECTID":13901,"LANDMARKID":"1001900000962","LANDMARKCO":"408","LANDMARKNA":"郵局-台中何厝郵局","LANDMARKAD":"1001906","ADDRESS":"台中市西屯區青海路1段83號","TEL":"(04)2316-0166","COUNTYNAME":"台中市","TOWNNAME":"西屯區","MARKTYPE":"994","Class":"4"},"geometry":{"x":120.65421306379497,"y":24.164551838916928}},{"attributes":{"OBJECTID":13902,"LANDMARKID":"1001900000963","LANDMARKCO":"408","LANDMARKNA":"郵局-台中工業區郵局","LANDMARKAD":"1001906","ADDRESS":"台中市西屯區工業區六路10號","TEL":"(04)2359-2387","COUNTYNAME":"台中市","TOWNNAME":"西屯區","MARKTYPE":"994","Class":"4"},"geometry":{"x":120.60652744411178,"y":24.169681531453012}},{"attributes":{"OBJECTID":13903,"LANDMARKID":"1001900000964","LANDMARKCO":"408","LANDMARKNA":"郵局-台中榮總郵局","LANDMARKAD":"1001906","ADDRESS":"台中市西屯區台中港路3段160號(台中榮總內)","TEL":"(04)2359-3263","COUNTYNAME":"台中市","TOWNNAME":"西屯區","MARKTYPE":"994","Class":"4"},"geometry":{"x":120.60463969338343,"y":24.184315360235775}},{"attributes":{"OBJECTID":13904,"LANDMARKID":"1001900000965","LANDMARKCO":"408","LANDMARKNA":"郵局-台中永安郵局","LANDMARKAD":"1001906","ADDRESS":"台中市西屯區永安里西屯路3段166-80號","TEL":"(04)2461-5479","COUNTYNAME":"台中市","TOWNNAME":"西屯區","MARKTYPE":"994","Class":"4"},"geometry":{"x":120.61206889275815,"y":24.190697650563994}},{"attributes":{"OBJECTID":13905,"LANDMARKID":"1001900000966","LANDMARKCO":"408","LANDMARKNA":"郵局-台中大隆路郵局","LANDMARKAD":"1001906","ADDRESS":"台中市西屯區大隆路60號","TEL":"(04)2320-6379","COUNTYNAME":"台中市","TOWNNAME":"西屯區","MARKTYPE":"994","Class":"4"},"geometry":{"x":120.65295472728535,"y":24.156492009576453}},{"attributes":{"OBJECTID":13906,"LANDMARKID":"1001900000967","LANDMARKCO":"408","LANDMARKNA":"郵局-台中福安郵局","LANDMARKAD":"1001906","ADDRESS":"台中市西屯區福順路318號","TEL":"(04)2463-0618","COUNTYNAME":"台中市","TOWNNAME":"西屯區","MARKTYPE":"994","Class":"4"},"geometry":{"x":120.61850332150516,"y":24.18348363707198}},{"attributes":{"OBJECTID":13907,"LANDMARKID":"1001900000863","LANDMARKCO":"406","LANDMARKNA":"大容公園","LANDMARKAD":"1001906","ADDRESS":"台中市西屯區","TEL":" ","COUNTYNAME":"台中市","TOWNNAME":"西屯區","MARKTYPE":"994","Class":"4"},"geometry":{"x":120.64848652680094,"y":24.155971241808203}},{"attributes":{"OBJECTID":13908,"LANDMARKID":"1001900000864","LANDMARKCO":"406","LANDMARKNA":"台中都會公園","LANDMARKAD":"1001906","ADDRESS":"台中市西屯區","TEL":" ","COUNTYNAME":"台中市","TOWNNAME":"西屯區","MARKTYPE":"994","Class":"4"},"geometry":{"x":120.5973744709587,"y":24.206397576957343}},{"attributes":{"OBJECTID":13909,"LANDMARKID":"1001900000865","LANDMARKCO":"406","LANDMARKNA":"五龍公園","LANDMARKAD":"1001906","ADDRESS":"台中市西屯區","TEL":" ","COUNTYNAME":"台中市","TOWNNAME":"西屯區","MARKTYPE":"994","Class":"4"},"geometry":{"x":120.60468331126968,"y":24.187689394789256}},{"attributes":{"OBJECTID":13910,"LANDMARKID":"1001900000866","LANDMARKCO":"406","LANDMARKNA":"兒童公園","LANDMARKAD":"1001906","ADDRESS":"台中市西屯區","TEL":" ","COUNTYNAME":"台中市","TOWNNAME":"西屯區","MARKTYPE":"994","Class":"4"},"geometry":{"x":120.61531407614831,"y":24.190981821584828}},{"attributes":{"OBJECTID":13911,"LANDMARKID":"1001900000867","LANDMARKCO":"406","LANDMARKNA":"宏恩公園","LANDMARKAD":"1001906","ADDRESS":"台中市西屯區","TEL":" ","COUNTYNAME":"台中市","TOWNNAME":"西屯區","MARKTYPE":"994","Class":"4"},"geometry":{"x":120.61777247598155,"y":24.189625397729486}},{"attributes":{"OBJECTID":13912,"LANDMARKID":"1001900000868","LANDMARKCO":"406","LANDMARKNA":"世斌公園","LANDMARKAD":"1001906","ADDRESS":"台中市西屯區","TEL":" ","COUNTYNAME":"台中市","TOWNNAME":"西屯區","MARKTYPE":"994","Class":"4"},"geometry":{"x":120.62008737482623,"y":24.182135493436238}},{"attributes":{"OBJECTID":13913,"LANDMARKID":"1001900000869","LANDMARKCO":"406","LANDMARKNA":"朝貴公園","LANDMARKAD":"1001906","ADDRESS":"台中市西屯區","TEL":" ","COUNTYNAME":"台中市","TOWNNAME":"西屯區","MARKTYPE":"994","Class":"4"},"geometry":{"x":120.6353716256242,"y":24.170538604117425}},{"attributes":{"OBJECTID":13914,"LANDMARKID":"1001900000870","LANDMARKCO":"406","LANDMARKNA":"逢甲公園","LANDMARKAD":"1001906","ADDRESS":"台中市西屯區","TEL":" ","COUNTYNAME":"台中市","TOWNNAME":"西屯區","MARKTYPE":"994","Class":"4"},"geometry":{"x":120.64053500475094,"y":24.176955340503198}},{"attributes":{"OBJECTID":13915,"LANDMARKID":"1001900000871","LANDMARKCO":"406","LANDMARKNA":"福星公園","LANDMARKAD":"1001906","ADDRESS":"台中市西屯區","TEL":" ","COUNTYNAME":"台中市","TOWNNAME":"西屯區","MARKTYPE":"994","Class":"4"},"geometry":{"x":120.64919883271301,"y":24.172163586171344}},{"attributes":{"OBJECTID":13916,"LANDMARKID":"1001900000872","LANDMARKCO":"406","LANDMARKNA":"大鵬公園","LANDMARKAD":"1001906","ADDRESS":"台中市西屯區","TEL":" ","COUNTYNAME":"台中市","TOWNNAME":"西屯區","MARKTYPE":"994","Class":"4"},"geometry":{"x":120.66270749235915,"y":24.173886555500577}},{"attributes":{"OBJECTID":13917,"LANDMARKID":"1001900000873","LANDMARKCO":"406","LANDMARKNA":"河南公園","LANDMARKAD":"1001906","ADDRESS":"台中市西屯區","TEL":" ","COUNTYNAME":"台中市","TOWNNAME":"西屯區","MARKTYPE":"994","Class":"4"},"geometry":{"x":120.66323470906883,"y":24.170878698203524}},{"attributes":{"OBJECTID":13918,"LANDMARKID":"1001900000874","LANDMARKCO":"406","LANDMARKNA":"潮洋環保公園","LANDMARKAD":"1001906","ADDRESS":"台中市西屯區","TEL":" ","COUNTYNAME":"台中市","TOWNNAME":"西屯區","MARKTYPE":"994","Class":"4"},"geometry":{"x":120.63297044511478,"y":24.166396912168398}},{"attributes":{"OBJECTID":13919,"LANDMARKID":"1001900000875","LANDMARKCO":"406","LANDMARKNA":"惠來公園","LANDMARKAD":"1001906","ADDRESS":"台中市南屯區","TEL":" ","COUNTYNAME":"台中市","TOWNNAME":"西屯區","MARKTYPE":"994","Class":"4"},"geometry":{"x":120.63952821855318,"y":24.155180497061107}},{"attributes":{"OBJECTID":13920,"LANDMARKID":"1001900000876","LANDMARKCO":"406","LANDMARKNA":"惠中公園","LANDMARKAD":"1001906","ADDRESS":"台中市西屯區","TEL":" ","COUNTYNAME":"台中市","TOWNNAME":"西屯區","MARKTYPE":"994","Class":"4"},"geometry":{"x":120.6466805508464,"y":24.165832091950062}},{"attributes":{"OBJECTID":13921,"LANDMARKID":"1001900000877","LANDMARKCO":"406","LANDMARKNA":"重慶公園","LANDMARKAD":"1001906","ADDRESS":"台中市西屯區","TEL":" ","COUNTYNAME":"台中市","TOWNNAME":"西屯區","MARKTYPE":"994","Class":"4"},"geometry":{"x":120.6557885690785,"y":24.165797202606793}},{"attributes":{"OBJECTID":13922,"LANDMARKID":"1001900000878","LANDMARKCO":"406","LANDMARKNA":"大仁公園","LANDMARKAD":"1001906","ADDRESS":"台中市西屯區","TEL":" ","COUNTYNAME":"台中市","TOWNNAME":"西屯區","MARKTYPE":"994","Class":"4"},"geometry":{"x":120.65901131784085,"y":24.165536336146875}},{"attributes":{"OBJECTID":13923,"LANDMARKID":"1001900000879","LANDMARKCO":"406","LANDMARKNA":"中仁公園","LANDMARKAD":"1001906","ADDRESS":"台中市西屯區","TEL":" ","COUNTYNAME":"台中市","TOWNNAME":"西屯區","MARKTYPE":"994","Class":"4"},"geometry":{"x":120.66083807718945,"y":24.165548273123107}},{"attributes":{"OBJECTID":13924,"LANDMARKID":"1001900000880","LANDMARKCO":"406","LANDMARKNA":"三信公園","LANDMARKAD":"1001906","ADDRESS":"台中市西屯區","TEL":" ","COUNTYNAME":"台中市","TOWNNAME":"西屯區","MARKTYPE":"994","Class":"4"},"geometry":{"x":120.66311048403252,"y":24.166403970382238}},{"attributes":{"OBJECTID":13925,"LANDMARKID":"1001900000881","LANDMARKCO":"406","LANDMARKNA":"成都公園","LANDMARKAD":"1001906","ADDRESS":"台中市西屯區","TEL":" ","COUNTYNAME":"台中市","TOWNNAME":"西屯區","MARKTYPE":"994","Class":"4"},"geometry":{"x":120.66512070307478,"y":24.169118853873954}},{"attributes":{"OBJECTID":13926,"LANDMARKID":"1001900000882","LANDMARKCO":"406","LANDMARKNA":"華美公園","LANDMARKAD":"1001906","ADDRESS":"台中市西屯區","TEL":" ","COUNTYNAME":"台中市","TOWNNAME":"西屯區","MARKTYPE":"994","Class":"4"},"geometry":{"x":120.66411765129385,"y":24.16481927215813}},{"attributes":{"OBJECTID":13927,"LANDMARKID":"1001900000883","LANDMARKCO":"406","LANDMARKNA":"青海公園","LANDMARKAD":"1001906","ADDRESS":"台中市西屯區","TEL":" ","COUNTYNAME":"台中市","TOWNNAME":"西屯區","MARKTYPE":"994","Class":"4"},"geometry":{"x":120.65337416783782,"y":24.164253534716526}},{"attributes":{"OBJECTID":13928,"LANDMARKID":"1001900000884","LANDMARKCO":"406","LANDMARKNA":"何厝公園","LANDMARKAD":"1001906","ADDRESS":"台中市西屯區","TEL":" ","COUNTYNAME":"台中市","TOWNNAME":"西屯區","MARKTYPE":"994","Class":"4"},"geometry":{"x":120.65457833307083,"y":24.161788976669836}},{"attributes":{"OBJECTID":13929,"LANDMARKID":"1001900000885","LANDMARKCO":"406","LANDMARKNA":"社區公園","LANDMARKAD":"1001906","ADDRESS":"台中市西屯區","TEL":" ","COUNTYNAME":"台中市","TOWNNAME":"西屯區","MARKTYPE":"994","Class":"4"},"geometry":{"x":120.61642471418138,"y":24.177947323306565}},{"attributes":{"OBJECTID":13930,"LANDMARKID":"1001900000886","LANDMARKCO":"406","LANDMARKNA":"長安公園","LANDMARKAD":"1001906","ADDRESS":"台中市西屯區","TEL":" ","COUNTYNAME":"台中市","TOWNNAME":"西屯區","MARKTYPE":"994","Class":"4"},"geometry":{"x":120.65450310684045,"y":24.170048002004464}},{"attributes":{"OBJECTID":13931,"LANDMARKID":"1001900000887","LANDMARKCO":"406","LANDMARKNA":"甘肅公園","LANDMARKAD":"1001906","ADDRESS":"台中市西屯區","TEL":" ","COUNTYNAME":"台中市","TOWNNAME":"西屯區","MARKTYPE":"994","Class":"4"},"geometry":{"x":120.65697939095267,"y":24.168976876039249}},{"attributes":{"OBJECTID":13932,"LANDMARKID":"1001900000888","LANDMARKCO":"406","LANDMARKNA":"大墩公園","LANDMARKAD":"1001906","ADDRESS":"台中市西屯區","TEL":" ","COUNTYNAME":"台中市","TOWNNAME":"西屯區","MARKTYPE":"994","Class":"4"},"geometry":{"x":120.65156285805308,"y":24.158792394804426}},{"attributes":{"OBJECTID":13933,"LANDMARKID":"1001900000889","LANDMARKCO":"406","LANDMARKNA":"西安公園","LANDMARKAD":"1001906","ADDRESS":"台中市西屯區","TEL":" ","COUNTYNAME":"台中市","TOWNNAME":"西屯區","MARKTYPE":"994","Class":"4"},"geometry":{"x":120.64225948568195,"y":24.17865470446695}},{"attributes":{"OBJECTID":13934,"LANDMARKID":"1001900000909","LANDMARKCO":"407","LANDMARKNA":"Gucci專賣店","LANDMARKAD":"1001906","ADDRESS":"台中市西屯區中港路2段111號1樓","TEL":"04-22599971","COUNTYNAME":"台中市","TOWNNAME":"西屯區","MARKTYPE":"994","Class":"4"},"geometry":{"x":120.64390471410363,"y":24.165434315262235}},{"attributes":{"OBJECTID":13935,"LANDMARKID":"1001900000910","LANDMARKCO":"407","LANDMARKNA":"誠品Eslite","LANDMARKAD":"1001906","ADDRESS":"台中市中港路二段111號11F","TEL":"04-2258-1609","COUNTYNAME":"台中市","TOWNNAME":"西屯區","MARKTYPE":"994","Class":"4"},"geometry":{"x":120.64390471410363,"y":24.165434315262235}},{"attributes":{"OBJECTID":13936,"LANDMARKID":"1001900000911","LANDMARKCO":"407","LANDMARKNA":"TIGERCITY購物中心","LANDMARKAD":"1001906","ADDRESS":"台中市西屯區河南路二段120號","TEL":" ","COUNTYNAME":"台中市","TOWNNAME":"西屯區","MARKTYPE":"994","Class":"4"},"geometry":{"x":120.63839007832246,"y":24.164294844338059}},{"attributes":{"OBJECTID":13937,"LANDMARKID":"1001900000912","LANDMARKCO":"407","LANDMARKNA":"小北百貨","LANDMARKAD":"1001906","ADDRESS":"台中市西屯區漢口路二段106號1樓","TEL":"04-23174715","COUNTYNAME":"台中市","TOWNNAME":"西屯區","MARKTYPE":"994","Class":"4"},"geometry":{"x":120.66071242158979,"y":24.164407561627311}},{"attributes":{"OBJECTID":13938,"LANDMARKID":"1001900000913","LANDMARKCO":"407","LANDMARKNA":"新光三越","LANDMARKAD":"1001906","ADDRESS":"台中市西屯區台中港路二段111號","TEL":"22553333","COUNTYNAME":"台中市","TOWNNAME":"西屯區","MARKTYPE":"994","Class":"4"},"geometry":{"x":120.64322220100328,"y":24.16467565625868}},{"attributes":{"OBJECTID":13939,"LANDMARKID":"1001900000748","LANDMARKCO":"405","LANDMARKNA":"全國加油站-中港交流道站（台塑）","LANDMARKAD":"1001906","ADDRESS":"台中市西屯區台中港路二段98號","TEL":"04-23128035","COUNTYNAME":"台中市","TOWNNAME":"西屯區","MARKTYPE":"994","Class":"4"},"geometry":{"x":120.64504947102012,"y":24.165527500737383}},{"attributes":{"OBJECTID":13940,"LANDMARKID":"1001900000749","LANDMARKCO":"405","LANDMARKNA":"全國加油站-大雅交流道站（台塑）","LANDMARKAD":"1001906","ADDRESS":"台中市西屯區中清路225-1號","TEL":"04-24254210","COUNTYNAME":"台中市","TOWNNAME":"西屯區","MARKTYPE":"994","Class":"4"},"geometry":{"x":120.65119253545949,"y":24.208001742899743}},{"attributes":{"OBJECTID":13941,"LANDMARKID":"1001900000750","LANDMARKCO":"405","LANDMARKNA":"全國加油站-西屯站（台塑）","LANDMARKAD":"1001906","ADDRESS":"台中市西屯區西屯路三段77-3號","TEL":"04-24510661","COUNTYNAME":"台中市","TOWNNAME":"西屯區","MARKTYPE":"994","Class":"4"},"geometry":{"x":120.63349844904462,"y":24.182324470061069}},{"attributes":{"OBJECTID":13942,"LANDMARKID":"1001900000751","LANDMARKCO":"405","LANDMARKNA":"福懋加油站-永安站(台塑)","LANDMARKAD":"1001906","ADDRESS":"台中市西屯區西屯路三段90-28號","TEL":"04-24526616","COUNTYNAME":"台中市","TOWNNAME":"西屯區","MARKTYPE":"994","Class":"4"},"geometry":{"x":120.62977540068631,"y":24.18384664473032}},{"attributes":{"OBJECTID":13943,"LANDMARKID":"1001900000752","LANDMARKCO":"405","LANDMARKNA":"全國加油站-水湳站（台塑）","LANDMARKAD":"1001906","ADDRESS":"台中市西屯區黎明路三段712號","TEL":"04-27085340","COUNTYNAME":"台中市","TOWNNAME":"西屯區","MARKTYPE":"994","Class":"4"},"geometry":{"x":120.64584791767763,"y":24.192254145513829}},{"attributes":{"OBJECTID":13944,"LANDMARKID":"1001900000753","LANDMARKCO":"405","LANDMARKNA":"台塑加油站-環中站(台塑)","LANDMARKAD":"1001906","ADDRESS":"台中市西屯區環中路二段1286號","TEL":"04-24527166","COUNTYNAME":"台中市","TOWNNAME":"西屯區","MARKTYPE":"994","Class":"4"},"geometry":{"x":120.6337931658593,"y":24.178652620810809}},{"attributes":{"OBJECTID":13945,"LANDMARKID":"1001900000754","LANDMARKCO":"405","LANDMARKNA":"台亞加油站-大鵬站（台塑）","LANDMARKAD":"1001906","ADDRESS":"台中市西屯區河南路二段35號","TEL":"(04)2311-3737","COUNTYNAME":"台中市","TOWNNAME":"西屯區","MARKTYPE":"994","Class":"4"},"geometry":{"x":120.66000235399721,"y":24.17380162922387}},{"attributes":{"OBJECTID":13946,"LANDMARKID":"1001900000755","LANDMARKCO":"405","LANDMARKNA":"台亞加油站-安和路站（台塑）","LANDMARKAD":"1001906","ADDRESS":"台中市西屯區安和路49-5號","TEL":"(04)2350-4801","COUNTYNAME":"台中市","TOWNNAME":"西屯區","MARKTYPE":"994","Class":"4"},"geometry":{"x":120.61849791708573,"y":24.165999085574494}},{"attributes":{"OBJECTID":13947,"LANDMARKID":"1001900000002","LANDMARKCO":"101","LANDMARKNA":"中部地區後備司令部","LANDMARKAD":"1001906","ADDRESS":"台中市西屯區青海路二段111號","TEL":"04-23117441","COUNTYNAME":"台中市","TOWNNAME":"西屯區","MARKTYPE":"991","Class":"1"},"geometry":{"x":120.64801275877592,"y":24.167786763935691}},{"attributes":{"OBJECTID":13948,"LANDMARKID":"1001900000003","LANDMARKCO":"101","LANDMARKNA":"內政部兒童局","LANDMARKAD":"1001906","ADDRESS":"台中市南屯區黎明路二段503號7樓","TEL":"04-22502850","COUNTYNAME":"台中市","TOWNNAME":"西屯區","MARKTYPE":"991","Class":"1"},"geometry":{"x":120.63414775818745,"y":24.162968766692082}},{"attributes":{"OBJECTID":13949,"LANDMARKID":"1001900000055","LANDMARKCO":"104","LANDMARKNA":"中區國稅局台中市分局","LANDMARKAD":"1001906","ADDRESS":"臺中市西屯區文心路二段99號","TEL":"04-22588181","COUNTYNAME":"台中市","TOWNNAME":"西屯區","MARKTYPE":"991","Class":"1"},"geometry":{"x":120.64605856117454,"y":24.1586388488804}},{"attributes":{"OBJECTID":13950,"LANDMARKID":"1001900000004","LANDMARKCO":"101","LANDMARKNA":"調查局中部地區機動工作組","LANDMARKAD":"1001906","ADDRESS":"臺中市西屯區福順路500號","TEL":"04-24615588","COUNTYNAME":"台中市","TOWNNAME":"西屯區","MARKTYPE":"991","Class":"1"},"geometry":{"x":120.614985740612,"y":24.185394819312602}},{"attributes":{"OBJECTID":13951,"LANDMARKID":"1001900000122","LANDMARKCO":"108","LANDMARKNA":"台中市西屯區公所","LANDMARKAD":"1001906","ADDRESS":"台中市西屯區光明路160號","TEL":"02-27014155","COUNTYNAME":"台中市","TOWNNAME":"西屯區","MARKTYPE":"991","Class":"1"},"geometry":{"x":120.63993006147544,"y":24.181502993474716}},{"attributes":{"OBJECTID":13952,"LANDMARKID":"1001900000001","LANDMARKCO":"101","LANDMARKNA":"中央健保局中區分局","LANDMARKAD":"1001906","ADDRESS":"台中市西屯區市政北一路66號","TEL":"04-22583988","COUNTYNAME":"台中市","TOWNNAME":"西屯區","MARKTYPE":"991","Class":"1"},"geometry":{"x":120.6437847521706,"y":24.15907413166256}},{"attributes":{"OBJECTID":13953,"LANDMARKID":"1001900000112","LANDMARKCO":"107","LANDMARKNA":"台中市警察局總局","LANDMARKAD":"1001906","ADDRESS":"台中市西屯區文心路二段588號","TEL":"04-23289100","COUNTYNAME":"台中市","TOWNNAME":"西屯區","MARKTYPE":"991","Class":"1"},"geometry":{"x":120.64833890792546,"y":24.159577798534787}},{"attributes":{"OBJECTID":13954,"LANDMARKID":"1001900000113","LANDMARKCO":"107","LANDMARKNA":"台中市警察局西屯分駐所","LANDMARKAD":"1001906","ADDRESS":"台中市西屯區西屯路三段40號","TEL":"04-27012717","COUNTYNAME":"台中市","TOWNNAME":"西屯區","MARKTYPE":"991","Class":"1"},"geometry":{"x":120.63795353790118,"y":24.181065881682656}},{"attributes":{"OBJECTID":13955,"LANDMARKID":"1001900000114","LANDMARKCO":"107","LANDMARKNA":"台中市警察局何安派出所","LANDMARKAD":"1001906","ADDRESS":"台中市西屯區甘肅路一段106號","TEL":"04-23149343","COUNTYNAME":"台中市","TOWNNAME":"西屯區","MARKTYPE":"991","Class":"1"},"geometry":{"x":120.65911322658017,"y":24.166230767117572}},{"attributes":{"OBJECTID":13956,"LANDMARKID":"1001900000115","LANDMARKCO":"107","LANDMARKNA":"台中市警察局協和派出所","LANDMARKAD":"1001906","ADDRESS":"台中市西屯區台中港路三段151號","TEL":"04-23593736","COUNTYNAME":"台中市","TOWNNAME":"西屯區","MARKTYPE":"991","Class":"1"},"geometry":{"x":120.60889734534915,"y":24.183870284283106}},{"attributes":{"OBJECTID":13957,"LANDMARKID":"1001900000116","LANDMARKCO":"107","LANDMARKNA":"內政部警政署空中警察隊水湳機場","LANDMARKAD":"1001906","ADDRESS":"台中巿西屯區逢大路98號","TEL":"04-22983870","COUNTYNAME":"台中市","TOWNNAME":"西屯區","MARKTYPE":"991","Class":"1"},"geometry":{"x":120.6509167061989,"y":24.178171878739938}},{"attributes":{"OBJECTID":13958,"LANDMARKID":"1001900000117","LANDMARKCO":"107","LANDMARKNA":"台中市消防局西屯消防分隊","LANDMARKAD":"1001906","ADDRESS":"台中市西屯區西屯路三段40號","TEL":"04-27011024","COUNTYNAME":"台中市","TOWNNAME":"西屯區","MARKTYPE":"991","Class":"1"},"geometry":{"x":120.63795353790118,"y":24.181065881682656}},{"attributes":{"OBJECTID":13959,"LANDMARKID":"1001900000118","LANDMARKCO":"107","LANDMARKNA":"台中市消防局協合消防分隊","LANDMARKAD":"1001906","ADDRESS":"台中市西屯區台中港路三段151號","TEL":"04-23591780","COUNTYNAME":"台中市","TOWNNAME":"西屯區","MARKTYPE":"991","Class":"1"},"geometry":{"x":120.60889734534915,"y":24.183870284283106}},{"attributes":{"OBJECTID":13960,"LANDMARKID":"1001900000065","LANDMARKCO":"106","LANDMARKNA":"台中市西屯區戶政事務所","LANDMARKAD":"1001906","ADDRESS":"臺中市西屯區四川路126號","TEL":"04-23155511","COUNTYNAME":"台中市","TOWNNAME":"西屯區","MARKTYPE":"991","Class":"1"},"geometry":{"x":120.6535662638662,"y":24.162456445590056}},{"attributes":{"OBJECTID":13961,"LANDMARKID":"1001900000005","LANDMARKCO":"101","LANDMARKNA":"國道高速公路局中區工程處","LANDMARKAD":"1001906","ADDRESS":"台中市西屯區台中港路三段39號","TEL":"04-22529181","COUNTYNAME":"台中市","TOWNNAME":"西屯區","MARKTYPE":"991","Class":"1"},"geometry":{"x":120.63201407698479,"y":24.173184176655113}},{"attributes":{"OBJECTID":13962,"LANDMARKID":"1001900000111","LANDMARKCO":"107","LANDMARKNA":"台中市警察局工業區派出所","LANDMARKAD":"1001906","ADDRESS":"台中市西屯區工業五路2號2樓","TEL":"04-23596317","COUNTYNAME":"台中市","TOWNNAME":"西屯區","MARKTYPE":"991","Class":"1"},"geometry":{"x":120.60729977856938,"y":24.164529819165697}},{"attributes":{"OBJECTID":13963,"LANDMARKID":"1001900000285","LANDMARKCO":"205","LANDMARKNA":"台中酒廠文物館","LANDMARKAD":"1001906","ADDRESS":"台中市西屯區工業區二十八路2號","TEL":"04-23501318","COUNTYNAME":"台中市","TOWNNAME":"西屯區","MARKTYPE":"992","Class":"2"},"geometry":{"x":120.59854837355023,"y":24.168533670654313}},{"attributes":{"OBJECTID":13964,"LANDMARKID":"1001900000271","LANDMARKCO":"204","LANDMARKNA":"台中市立圖書館西屯區分館","LANDMARKAD":"1001906","ADDRESS":"台中市西屯區福星路666號","TEL":" ","COUNTYNAME":"台中市","TOWNNAME":"西屯區","MARKTYPE":"992","Class":"2"},"geometry":{"x":120.64900472803969,"y":24.172835256118685}},{"attributes":{"OBJECTID":13965,"LANDMARKID":"1001900000272","LANDMARKCO":"204","LANDMARKNA":"台中市立圖書館西屯區協和分館","LANDMARKAD":"1001906","ADDRESS":"台中市西屯區安和路60號","TEL":" ","COUNTYNAME":"台中市","TOWNNAME":"西屯區","MARKTYPE":"992","Class":"2"},"geometry":{"x":120.61986866494441,"y":24.167683920675135}},{"attributes":{"OBJECTID":13966,"LANDMARKID":"1001900000152","LANDMARKCO":"202","LANDMARKNA":"市立西苑高中","LANDMARKAD":"1001906","ADDRESS":"台中市光明路194號","TEL":"04-22516473","COUNTYNAME":"台中市","TOWNNAME":"西屯區","MARKTYPE":"992","Class":"2"},"geometry":{"x":120.64287893546162,"y":24.186105241686171}},{"attributes":{"OBJECTID":13967,"LANDMARKID":"1001900000242","LANDMARKCO":"203","LANDMARKNA":"市立大鵬國小","LANDMARKAD":"1001906","ADDRESS":"台中市大鵬路59號","TEL":"04-22914655","COUNTYNAME":"台中市","TOWNNAME":"西屯區","MARKTYPE":"992","Class":"2"},"geometry":{"x":120.66539462086,"y":24.177308110594637}},{"attributes":{"OBJECTID":13968,"LANDMARKID":"1001900000243","LANDMARKCO":"203","LANDMARKNA":"市立永安國小","LANDMARKAD":"1001906","ADDRESS":"台中市西屯路三段133號","TEL":"04-24624470","COUNTYNAME":"台中市","TOWNNAME":"西屯區","MARKTYPE":"992","Class":"2"},"geometry":{"x":120.62473800169685,"y":24.184439763189246}},{"attributes":{"OBJECTID":13969,"LANDMARKID":"1001900000244","LANDMARKCO":"203","LANDMARKNA":"私立東海大學附小","LANDMARKAD":"1001906","ADDRESS":"台中市東海路97號","TEL":"04-23590404","COUNTYNAME":"台中市","TOWNNAME":"西屯區","MARKTYPE":"992","Class":"2"},"geometry":{"x":120.60702760240059,"y":24.181954842769414}},{"attributes":{"OBJECTID":13970,"LANDMARKID":"1001900000153","LANDMARKCO":"202","LANDMARKNA":"私立懷恩高中","LANDMARKAD":"1001906","ADDRESS":"台中市台中港路三段181號","TEL":"04-23590269","COUNTYNAME":"台中市","TOWNNAME":"西屯區","MARKTYPE":"992","Class":"2"},"geometry":{"x":120.60780979542176,"y":24.182339563982907}},{"attributes":{"OBJECTID":13971,"LANDMARKID":"1001900000154","LANDMARKCO":"202","LANDMARKNA":"國立文華高中","LANDMARKAD":"1001906","ADDRESS":"台中市寧夏路240號","TEL":"04-23124000","COUNTYNAME":"台中市","TOWNNAME":"西屯區","MARKTYPE":"992","Class":"2"},"geometry":{"x":120.66011060672251,"y":24.17018492959777}},{"attributes":{"OBJECTID":13972,"LANDMARKID":"1001900000155","LANDMARKCO":"202","LANDMARKNA":"私立東大附中","LANDMARKAD":"1001906","ADDRESS":"台中市台中港路三段181號","TEL":"04-23590269","COUNTYNAME":"台中市","TOWNNAME":"西屯區","MARKTYPE":"992","Class":"2"},"geometry":{"x":120.60780979542176,"y":24.182339563982907}},{"attributes":{"OBJECTID":13973,"LANDMARKID":"1001900000156","LANDMARKCO":"202","LANDMARKNA":"私立東大附中附設國中部","LANDMARKAD":"1001906","ADDRESS":"台中市台中港路三段181號","TEL":"04-23590269","COUNTYNAME":"台中市","TOWNNAME":"西屯區","MARKTYPE":"992","Class":"2"},"geometry":{"x":120.60780979542176,"y":24.182339563982907}},{"attributes":{"OBJECTID":13974,"LANDMARKID":"1001900000225","LANDMARKCO":"203","LANDMARKNA":"市立安和國中","LANDMARKAD":"1001906","ADDRESS":"台中市天助街1號","TEL":"04-23589779","COUNTYNAME":"台中市","TOWNNAME":"西屯區","MARKTYPE":"992","Class":"2"},"geometry":{"x":120.61619245259118,"y":24.172963045082874}},{"attributes":{"OBJECTID":13975,"LANDMARKID":"1001900000226","LANDMARKCO":"203","LANDMARKNA":"市立至善國中","LANDMARKAD":"1001906","ADDRESS":"台中市青海路二段308號","TEL":"04-22557587","COUNTYNAME":"台中市","TOWNNAME":"西屯區","MARKTYPE":"992","Class":"2"},"geometry":{"x":120.64035106684575,"y":24.174622814510634}},{"attributes":{"OBJECTID":13976,"LANDMARKID":"1001900000227","LANDMARKCO":"203","LANDMARKNA":"市立中山國中","LANDMARKAD":"1001906","ADDRESS":"台中市寧夏路179號","TEL":"04-23132003","COUNTYNAME":"台中市","TOWNNAME":"西屯區","MARKTYPE":"992","Class":"2"},"geometry":{"x":120.65926051531126,"y":24.168290998637481}},{"attributes":{"OBJECTID":13977,"LANDMARKID":"1001900000228","LANDMARKCO":"203","LANDMARKNA":"市立漢口國中","LANDMARKAD":"1001906","ADDRESS":"台中市漢口路一段54之1號","TEL":"04-23130511","COUNTYNAME":"台中市","TOWNNAME":"西屯區","MARKTYPE":"992","Class":"2"},"geometry":{"x":120.65746355612963,"y":24.161020769707552}},{"attributes":{"OBJECTID":13978,"LANDMARKID":"1001900000229","LANDMARKCO":"203","LANDMARKNA":"私立葳格國中","LANDMARKAD":"1001906","ADDRESS":"台中市美滿街65號","TEL":"04-23164790","COUNTYNAME":"台中市","TOWNNAME":"西屯區","MARKTYPE":"992","Class":"2"},"geometry":{"x":120.65440017747963,"y":24.17074269011033}},{"attributes":{"OBJECTID":13979,"LANDMARKID":"1001900000230","LANDMARKCO":"203","LANDMARKNA":"市立協和國小","LANDMARKAD":"1001906","ADDRESS":"台中市協和里安和路99號","TEL":"04-23588022","COUNTYNAME":"台中市","TOWNNAME":"西屯區","MARKTYPE":"992","Class":"2"},"geometry":{"x":120.61955374320638,"y":24.170369973537149}},{"attributes":{"OBJECTID":13980,"LANDMARKID":"1001900000231","LANDMARKCO":"203","LANDMARKNA":"市立西屯國小","LANDMARKAD":"1001906","ADDRESS":"台中市西屯路二段300號","TEL":"04-22513534","COUNTYNAME":"台中市","TOWNNAME":"西屯區","MARKTYPE":"992","Class":"2"},"geometry":{"x":120.64068227162902,"y":24.179553079278698}},{"attributes":{"OBJECTID":13981,"LANDMARKID":"1001900000232","LANDMARKCO":"203","LANDMARKNA":"市立何厝國小","LANDMARKAD":"1001906","ADDRESS":"台中市重慶路1號","TEL":"04-23166492","COUNTYNAME":"台中市","TOWNNAME":"西屯區","MARKTYPE":"992","Class":"2"},"geometry":{"x":120.65390911200267,"y":24.163563237772944}},{"attributes":{"OBJECTID":13982,"LANDMARKID":"1001900000233","LANDMARKCO":"203","LANDMARKNA":"市立大仁國小","LANDMARKAD":"1001906","ADDRESS":"台中市重慶路200號","TEL":"04-23134545","COUNTYNAME":"台中市","TOWNNAME":"西屯區","MARKTYPE":"992","Class":"2"},"geometry":{"x":120.65817794345838,"y":24.167673260428121}},{"attributes":{"OBJECTID":13983,"LANDMARKID":"1001900000234","LANDMARKCO":"203","LANDMARKNA":"市立重慶國小","LANDMARKAD":"1001906","ADDRESS":"台中市重慶路358號","TEL":"04-23123517","COUNTYNAME":"台中市","TOWNNAME":"西屯區","MARKTYPE":"992","Class":"2"},"geometry":{"x":120.66377703583525,"y":24.170455842131197}},{"attributes":{"OBJECTID":13984,"LANDMARKID":"1001900000235","LANDMARKCO":"203","LANDMARKNA":"市立國安國小","LANDMARKAD":"1001906","ADDRESS":"台中市國祥街1號","TEL":"04-24621681","COUNTYNAME":"台中市","TOWNNAME":"西屯區","MARKTYPE":"992","Class":"2"},"geometry":{"x":120.60886560588719,"y":24.193718975818726}},{"attributes":{"OBJECTID":13985,"LANDMARKID":"1001900000236","LANDMARKCO":"203","LANDMARKNA":"市立泰安國小","LANDMARKAD":"1001906","ADDRESS":"台中市廣福路150巷99號","TEL":"04-27017045","COUNTYNAME":"台中市","TOWNNAME":"西屯區","MARKTYPE":"992","Class":"2"},"geometry":{"x":120.64876613563209,"y":24.19765860353008}},{"attributes":{"OBJECTID":13986,"LANDMARKID":"1001900000237","LANDMARKCO":"203","LANDMARKNA":"私立葳格小學","LANDMARKAD":"1001906","ADDRESS":"台中市長安路一段35號","TEL":"04-23164790","COUNTYNAME":"台中市","TOWNNAME":"西屯區","MARKTYPE":"992","Class":"2"},"geometry":{"x":120.65395118155581,"y":24.170521602645259}},{"attributes":{"OBJECTID":13987,"LANDMARKID":"1001900000238","LANDMARKCO":"203","LANDMARKNA":"市立上安國小","LANDMARKAD":"1001906","ADDRESS":"台中市上安路156號","TEL":"04-24527322","COUNTYNAME":"台中市","TOWNNAME":"西屯區","MARKTYPE":"992","Class":"2"},"geometry":{"x":120.6391392230049,"y":24.172519579460836}},{"attributes":{"OBJECTID":13988,"LANDMARKID":"1001900000239","LANDMARKCO":"203","LANDMARKNA":"市立東興國小","LANDMARKAD":"1001906","ADDRESS":"台中市大隆路71號","TEL":"04-23276251","COUNTYNAME":"台中市","TOWNNAME":"西屯區","MARKTYPE":"992","Class":"2"},"geometry":{"x":120.65234310954266,"y":24.155864943982518}},{"attributes":{"OBJECTID":13989,"LANDMARKID":"1001900000147","LANDMARKCO":"201","LANDMARKNA":"逢甲大學","LANDMARKAD":"1001906","ADDRESS":"台中市西屯區文華路100號","TEL":"04-24517250","COUNTYNAME":"台中市","TOWNNAME":"西屯區","MARKTYPE":"992","Class":"2"},"geometry":{"x":120.64998696673769,"y":24.179323990472323}},{"attributes":{"OBJECTID":13990,"LANDMARKID":"1001900000148","LANDMARKCO":"201","LANDMARKNA":"僑光技術學院","LANDMARKAD":"1001906","ADDRESS":"台中市西屯區僑光路100號","TEL":"04-27016855","COUNTYNAME":"台中市","TOWNNAME":"西屯區","MARKTYPE":"992","Class":"2"},"geometry":{"x":120.64318973125204,"y":24.189115106204795}},{"attributes":{"OBJECTID":13991,"LANDMARKID":"1001900000241","LANDMARKCO":"203","LANDMARKNA":"市立上石國小","LANDMARKAD":"1001906","ADDRESS":"台中市西屯路二段上石南6巷25","TEL":"04-22587412","COUNTYNAME":"台中市","TOWNNAME":"西屯區","MARKTYPE":"992","Class":"2"},"geometry":{"x":120.64367036225107,"y":24.172745639843249}},{"attributes":{"OBJECTID":13992,"LANDMARKID":"1001900000146","LANDMARKCO":"201","LANDMARKNA":"東海大學","LANDMARKAD":"1001906","ADDRESS":"台中市西屯區中港路三段181號","TEL":"04-23590121","COUNTYNAME":"台中市","TOWNNAME":"西屯區","MARKTYPE":"992","Class":"2"},"geometry":{"x":120.60264488324434,"y":24.182398063220564}},{"attributes":{"OBJECTID":13993,"LANDMARKID":"1001900000240","LANDMARKCO":"203","LANDMARKNA":"國立台中啟聰學校","LANDMARKAD":"1001906","ADDRESS":"台中市西屯區安和路1號","TEL":"04-23589577","COUNTYNAME":"台中市","TOWNNAME":"西屯區","MARKTYPE":"992","Class":"2"},"geometry":{"x":120.61739504988655,"y":24.161518185460618}},{"attributes":{"OBJECTID":13994,"LANDMARKID":"1001900000463","LANDMARKCO":"303","LANDMARKNA":"東海牧場停車場","LANDMARKAD":"1001906","ADDRESS":"台中市西屯區台中港路三段181號","TEL":"04-23950121","COUNTYNAME":"台中市","TOWNNAME":"西屯區","MARKTYPE":"993","Class":"303"},"geometry":{"x":120.6128111121976,"y":24.183716556222084}},{"attributes":{"OBJECTID":13995,"LANDMARKID":"1001900000518","LANDMARKCO":"308","LANDMARKNA":"國1-台中交流道-北上","LANDMARKAD":"1001906","ADDRESS":"台中市西屯區","TEL":" ","COUNTYNAME":"台中市","TOWNNAME":"西屯區","MARKTYPE":"993","Class":"308"},"geometry":{"x":120.62902628013038,"y":24.17336660653492}},{"attributes":{"OBJECTID":13996,"LANDMARKID":"1001900000519","LANDMARKCO":"308","LANDMARKNA":"國1-台中交流道-北上","LANDMARKAD":"1001906","ADDRESS":"台中市西屯區","TEL":" ","COUNTYNAME":"台中市","TOWNNAME":"西屯區","MARKTYPE":"993","Class":"308"},"geometry":{"x":120.63272182943214,"y":24.177127290064082}},{"attributes":{"OBJECTID":13997,"LANDMARKID":"1001900000520","LANDMARKCO":"308","LANDMARKNA":"國1-大雅交流道-南下","LANDMARKAD":"1001906","ADDRESS":"台中市西屯區","TEL":" ","COUNTYNAME":"台中市","TOWNNAME":"西屯區","MARKTYPE":"993","Class":"308"},"geometry":{"x":120.65384532915483,"y":24.204648744259103}},{"attributes":{"OBJECTID":13998,"LANDMARKID":"1001900000521","LANDMARKCO":"308","LANDMARKNA":"國1-大雅交流道-北上","LANDMARKAD":"1001906","ADDRESS":"台中市西屯區","TEL":" ","COUNTYNAME":"台中市","TOWNNAME":"西屯區","MARKTYPE":"993","Class":"308"},"geometry":{"x":120.65917874579377,"y":24.206507193942564}},{"attributes":{"OBJECTID":13999,"LANDMARKID":"1001900000522","LANDMARKCO":"308","LANDMARKNA":"台74-西屯三交流道-西行","LANDMARKAD":"1001906","ADDRESS":"台中市西屯區","TEL":" ","COUNTYNAME":"台中市","TOWNNAME":"西屯區","MARKTYPE":"993","Class":"308"},"geometry":{"x":120.6347029699793,"y":24.179786518605066}},{"attributes":{"OBJECTID":14000,"LANDMARKID":"1001900000523","LANDMARKCO":"308","LANDMARKNA":"台74-西屯一交流道-西行","LANDMARKAD":"1001906","ADDRESS":"台中市西屯區","TEL":" ","COUNTYNAME":"台中市","TOWNNAME":"西屯區","MARKTYPE":"993","Class":"308"},"geometry":{"x":120.62673553568254,"y":24.159326448158598}}]}