{"displayFieldName":"COUNTYNAME","fieldAliases":{"OBJECTID":"OBJECTID","LANDMARKID":"LANDMARKID","LANDMARKCO":"LANDMARKCO","LANDMARKNA":"LANDMARKNA","LANDMARKAD":"LANDMARKAD","ADDRESS":"ADDRESS","TEL":"TEL","COUNTYNAME":"COUNTYNAME","TOWNNAME":"TOWNNAME","MARKTYPE":"MARKTYPE","Class":"Class"},"geometryType":"esriGeometryPoint","spatialReference":{"wkid":102443},"fields":[{"name":"OBJECTID","type":"esriFieldTypeOID","alias":"OBJECTID"},{"name":"LANDMARKID","type":"esriFieldTypeString","alias":"LANDMARKID","length":15},{"name":"LANDMARKCO","type":"esriFieldTypeString","alias":"LANDMARKCO","length":15},{"name":"LANDMARKNA","type":"esriFieldTypeString","alias":"LANDMARKNA","length":50},{"name":"LANDMARKAD","type":"esriFieldTypeString","alias":"LANDMARKAD","length":15},{"name":"ADDRESS","type":"esriFieldTypeString","alias":"ADDRESS","length":56},{"name":"TEL","type":"esriFieldTypeString","alias":"TEL","length":36},{"name":"COUNTYNAME","type":"esriFieldTypeString","alias":"COUNTYNAME","length":15},{"name":"TOWNNAME","type":"esriFieldTypeString","alias":"TOWNNAME","length":13},{"name":"MARKTYPE","type":"esriFieldTypeString","alias":"MARKTYPE","length":12},{"name":"Class","type":"esriFieldTypeString","alias":"Class","length":5}],"features":[{"attributes":{"OBJECTID":8601,"LANDMARKID":"6300000003526","LANDMARKCO":"603","LANDMARKNA":"國際旅社","LANDMARKAD":"6300007","ADDRESS":"台北市萬華區西寧南路157號2-4樓","TEL":"02-2331-3131~5","COUNTYNAME":"台北市","TOWNNAME":"萬華區","MARKTYPE":"996","Class":"6"},"geometry":{"x":301084.76229999959,"y":2770691.7442000005}},{"attributes":{"OBJECTID":8602,"LANDMARKID":"6300000003527","LANDMARKCO":"603","LANDMARKNA":"大榮大旅社","LANDMARKAD":"6300007","ADDRESS":"台北市萬華區西寧南路185號2-4樓","TEL":"02-2331-6527","COUNTYNAME":"台北市","TOWNNAME":"萬華區","MARKTYPE":"996","Class":"6"},"geometry":{"x":301067.09379999992,"y":2770472.8146000002}},{"attributes":{"OBJECTID":8603,"LANDMARKID":"6300000003528","LANDMARKCO":"603","LANDMARKNA":"一樂園大飯店","LANDMARKAD":"6300007","ADDRESS":"台北市萬華區西寧南路24號1-11樓","TEL":"02-23141181","COUNTYNAME":"台北市","TOWNNAME":"萬華區","MARKTYPE":"996","Class":"6"},"geometry":{"x":301138.68510000035,"y":2770978.5380000006}},{"attributes":{"OBJECTID":8604,"LANDMARKID":"6300000003529","LANDMARKCO":"603","LANDMARKNA":"百月賓館","LANDMARKAD":"6300007","ADDRESS":"台北市萬華區西寧南路285號4-6樓","TEL":"02-23114178","COUNTYNAME":"台北市","TOWNNAME":"萬華區","MARKTYPE":"996","Class":"6"},"geometry":{"x":301098.13379999995,"y":2770175.7028000001}},{"attributes":{"OBJECTID":8605,"LANDMARKID":"6300000003530","LANDMARKCO":"603","LANDMARKNA":"國光大飯店","LANDMARKAD":"6300007","ADDRESS":"台北市萬華區成都路27巷6號","TEL":"02-23718616","COUNTYNAME":"台北市","TOWNNAME":"萬華區","MARKTYPE":"996","Class":"6"},"geometry":{"x":301135.51530000009,"y":2770625.5543000009}},{"attributes":{"OBJECTID":8606,"LANDMARKID":"6300000003531","LANDMARKCO":"603","LANDMARKNA":"新樂町精緻旅居","LANDMARKAD":"6300007","ADDRESS":"台北市萬華區西寧南路67號6-7樓","TEL":"02-23718751","COUNTYNAME":"台北市","TOWNNAME":"萬華區","MARKTYPE":"996","Class":"6"},"geometry":{"x":301161.73000000045,"y":2770990.4517000001}},{"attributes":{"OBJECTID":8607,"LANDMARKID":"6300000003532","LANDMARKCO":"603","LANDMARKNA":"萬龍大旅社","LANDMARKAD":"6300007","ADDRESS":"台北市萬華區康定路25巷36弄4號2-4樓","TEL":"02-23880279","COUNTYNAME":"台北市","TOWNNAME":"萬華區","MARKTYPE":"996","Class":"6"},"geometry":{"x":300864.80680000037,"y":2770703.5210999995}},{"attributes":{"OBJECTID":8608,"LANDMARKID":"6300000003533","LANDMARKCO":"603","LANDMARKNA":"蝴蝶蘭旅社","LANDMARKAD":"6300007","ADDRESS":"台北市萬華區康定路338號","TEL":"02-23066101","COUNTYNAME":"台北市","TOWNNAME":"萬華區","MARKTYPE":"996","Class":"6"},"geometry":{"x":300568.83939999994,"y":2769789.5944999997}},{"attributes":{"OBJECTID":8609,"LANDMARKID":"6300000003534","LANDMARKCO":"603","LANDMARKNA":"華麗大飯店","LANDMARKAD":"6300007","ADDRESS":"台北市萬華區康定路41號","TEL":"02-2381-8111","COUNTYNAME":"台北市","TOWNNAME":"萬華區","MARKTYPE":"996","Class":"6"},"geometry":{"x":300692.05009999964,"y":2770461.1293000001}},{"attributes":{"OBJECTID":8610,"LANDMARKID":"6300000003535","LANDMARKCO":"603","LANDMARKNA":"古山園旅社","LANDMARKAD":"6300007","ADDRESS":"台北市萬華區華西街40巷16號1-3樓","TEL":"02-23067408","COUNTYNAME":"台北市","TOWNNAME":"萬華區","MARKTYPE":"996","Class":"6"},"geometry":{"x":300252.46449999977,"y":2769995.7252999991}},{"attributes":{"OBJECTID":8611,"LANDMARKID":"6300000003536","LANDMARKCO":"603","LANDMARKNA":"百悅旅社","LANDMARKAD":"6300007","ADDRESS":"台北市萬華區開封街二段42巷2號1-5樓","TEL":"44-1號6-7樓","COUNTYNAME":"台北市","TOWNNAME":"萬華區","MARKTYPE":"996","Class":"6"},"geometry":{"x":301204.73749999981,"y":2770992.2905000001}},{"attributes":{"OBJECTID":8612,"LANDMARKID":"6300000003537","LANDMARKCO":"603","LANDMARKNA":"幸福大旅社","LANDMARKAD":"6300007","ADDRESS":"台北市萬華區內江街55巷26號1-4樓","TEL":"02-23711792","COUNTYNAME":"台北市","TOWNNAME":"萬華區","MARKTYPE":"996","Class":"6"},"geometry":{"x":300985.39639999997,"y":2770593.0714999996}},{"attributes":{"OBJECTID":8613,"LANDMARKID":"6300000003538","LANDMARKCO":"603","LANDMARKNA":"成都大飯店","LANDMARKAD":"6300007","ADDRESS":"台北市萬華區成都路115號B1-8樓","TEL":"02-23831123","COUNTYNAME":"台北市","TOWNNAME":"萬華區","MARKTYPE":"996","Class":"6"},"geometry":{"x":300857.68020000029,"y":2770669.5475999992}},{"attributes":{"OBJECTID":8614,"LANDMARKID":"6300000003539","LANDMARKCO":"603","LANDMARKNA":"明日大飯店","LANDMARKAD":"6300007","ADDRESS":"台北市萬華區成都路21號7-8樓","TEL":"02-2375-5500","COUNTYNAME":"台北市","TOWNNAME":"萬華區","MARKTYPE":"996","Class":"6"},"geometry":{"x":301161.38779999968,"y":2770591.4573999997}},{"attributes":{"OBJECTID":8615,"LANDMARKID":"6300000003540","LANDMARKCO":"603","LANDMARKNA":"函舍旅館","LANDMARKAD":"6300007","ADDRESS":"台北市萬華區成都路68號4-5樓","TEL":"02-23718812","COUNTYNAME":"台北市","TOWNNAME":"萬華區","MARKTYPE":"996","Class":"6"},"geometry":{"x":300975.49349999987,"y":2770619.1084000003}},{"attributes":{"OBJECTID":8616,"LANDMARKID":"6300000003541","LANDMARKCO":"603","LANDMARKNA":"君帥旅館","LANDMARKAD":"6300007","ADDRESS":"台北市萬華區成都路68號8-10樓","TEL":"02-23718812","COUNTYNAME":"台北市","TOWNNAME":"萬華區","MARKTYPE":"996","Class":"6"},"geometry":{"x":300975.49349999987,"y":2770619.1084000003}},{"attributes":{"OBJECTID":8617,"LANDMARKID":"6300000003542","LANDMARKCO":"603","LANDMARKNA":"華宮旅社","LANDMARKAD":"6300007","ADDRESS":"台北市萬華區西昌街157號","TEL":"02-23142627","COUNTYNAME":"台北市","TOWNNAME":"萬華區","MARKTYPE":"996","Class":"6"},"geometry":{"x":300527.16119999997,"y":2770221.7402999997}},{"attributes":{"OBJECTID":8618,"LANDMARKID":"6300000003543","LANDMARKCO":"603","LANDMARKNA":"龍山旅社","LANDMARKAD":"6300007","ADDRESS":"台北市萬華區西園路一段125巷13-1號1-3樓","TEL":"02-23064990","COUNTYNAME":"台北市","TOWNNAME":"萬華區","MARKTYPE":"996","Class":"6"},"geometry":{"x":300438.60769999959,"y":2770034.0393000003}},{"attributes":{"OBJECTID":8619,"LANDMARKID":"6300000003544","LANDMARKCO":"603","LANDMARKNA":"益賓旅館","LANDMARKAD":"6300007","ADDRESS":"台北市萬華區西園路一段128號7樓","TEL":"02-23021195","COUNTYNAME":"台北市","TOWNNAME":"萬華區","MARKTYPE":"996","Class":"6"},"geometry":{"x":300409.78849999979,"y":2770083.1456000004}},{"attributes":{"OBJECTID":8620,"LANDMARKID":"6300000003545","LANDMARKCO":"603","LANDMARKNA":"美觀園旅社","LANDMARKAD":"6300007","ADDRESS":"台北市萬華區西寧南路90巷13號","TEL":"02-23613680","COUNTYNAME":"台北市","TOWNNAME":"萬華區","MARKTYPE":"996","Class":"6"},"geometry":{"x":301001.20210000034,"y":2770541.0124999993}},{"attributes":{"OBJECTID":8621,"LANDMARKID":"6300000003546","LANDMARKCO":"603","LANDMARKNA":"貴都飯店","LANDMARKAD":"6300007","ADDRESS":"台北市萬華區西藏路192號B2-7樓","TEL":"02-23029345","COUNTYNAME":"台北市","TOWNNAME":"萬華區","MARKTYPE":"996","Class":"6"},"geometry":{"x":300754.90419999976,"y":2769191.9511999991}},{"attributes":{"OBJECTID":8622,"LANDMARKID":"6300000003547","LANDMARKCO":"603","LANDMARKNA":"新仕界旅館","LANDMARKAD":"6300007","ADDRESS":"台北市萬華區昆明街141號3-6樓","TEL":"02-23319570","COUNTYNAME":"台北市","TOWNNAME":"萬華區","MARKTYPE":"996","Class":"6"},"geometry":{"x":300909.85030000005,"y":2770407.3575999998}},{"attributes":{"OBJECTID":8623,"LANDMARKID":"6300000003548","LANDMARKCO":"603","LANDMARKNA":"金帥商務旅店","LANDMARKAD":"6300007","ADDRESS":"台北市萬華區昆明街142號7-8樓","TEL":"02-23818131(7線","COUNTYNAME":"台北市","TOWNNAME":"萬華區","MARKTYPE":"996","Class":"6"},"geometry":{"x":300923.37069999985,"y":2770586.3028999995}},{"attributes":{"OBJECTID":8624,"LANDMARKID":"6300000003549","LANDMARKCO":"603","LANDMARKNA":"東南亞旅社","LANDMARKAD":"6300007","ADDRESS":"台北市萬華區昆明街201巷15號","TEL":"02-2331-1208","COUNTYNAME":"台北市","TOWNNAME":"萬華區","MARKTYPE":"996","Class":"6"},"geometry":{"x":300935.03749999963,"y":2770189.2636999991}},{"attributes":{"OBJECTID":8625,"LANDMARKID":"6300000003550","LANDMARKCO":"603","LANDMARKNA":"寶格利時尚旅館","LANDMARKAD":"6300007","ADDRESS":"台北市萬華區中華路一段168號1-15樓","TEL":"02-23821314","COUNTYNAME":"台北市","TOWNNAME":"萬華區","MARKTYPE":"996","Class":"6"},"geometry":{"x":301220.96360000037,"y":2770437.2385000009}},{"attributes":{"OBJECTID":8626,"LANDMARKID":"6300000003551","LANDMARKCO":"603","LANDMARKNA":"香榭巴洛克賓館","LANDMARKAD":"6300007","ADDRESS":"台北市萬華區漢中街42號9樓","TEL":"02-23619183","COUNTYNAME":"台北市","TOWNNAME":"萬華區","MARKTYPE":"996","Class":"6"},"geometry":{"x":301195.06230000034,"y":2770771.3311999999}},{"attributes":{"OBJECTID":8627,"LANDMARKID":"6300000003393","LANDMARKCO":"601","LANDMARKNA":"豪景大酒店","LANDMARKAD":"6300007","ADDRESS":"台北市萬華區環河南路1段77號","TEL":"02-2311-3131","COUNTYNAME":"台北市","TOWNNAME":"萬華區","MARKTYPE":"996","Class":"6"},"geometry":{"x":300606.07380000036,"y":2770813.4396000002}},{"attributes":{"OBJECTID":8628,"LANDMARKID":"6300000003395","LANDMARKCO":"602","LANDMARKNA":"麒麟大飯店","LANDMARKAD":"6300007","ADDRESS":"台北市萬華區康定路103號","TEL":"02-2314-9222","COUNTYNAME":"台北市","TOWNNAME":"萬華區","MARKTYPE":"996","Class":"6"},"geometry":{"x":300658.24880000018,"y":2770245.2547999993}},{"attributes":{"OBJECTID":8629,"LANDMARKID":"6300000003351","LANDMARKCO":"511","LANDMARKNA":"華西街觀光夜市","LANDMARKAD":"6300007","ADDRESS":"台北市萬華區華西街","TEL":" ","COUNTYNAME":"台北市","TOWNNAME":"萬華區","MARKTYPE":"995","Class":"5"},"geometry":{"x":300296.45490000024,"y":2770121.5266999993}},{"attributes":{"OBJECTID":8630,"LANDMARKID":"6300000003352","LANDMARKCO":"511","LANDMARKNA":"西門町商圈","LANDMARKAD":"6300007","ADDRESS":"台北市萬華區","TEL":" ","COUNTYNAME":"台北市","TOWNNAME":"萬華區","MARKTYPE":"995","Class":"5"},"geometry":{"x":301250.03560000006,"y":2770554.5037999991}},{"attributes":{"OBJECTID":8631,"LANDMARKID":"6300000003353","LANDMARKCO":"511","LANDMARKNA":"康定路商店街","LANDMARKAD":"6300007","ADDRESS":"台北市萬華區","TEL":" ","COUNTYNAME":"台北市","TOWNNAME":"萬華區","MARKTYPE":"995","Class":"5"},"geometry":{"x":300622.19089999981,"y":2770039.0720000006}},{"attributes":{"OBJECTID":8632,"LANDMARKID":"6300000003354","LANDMARKCO":"511","LANDMARKNA":"大理街成衣批發街","LANDMARKAD":"6300007","ADDRESS":"台北市萬華區","TEL":" ","COUNTYNAME":"台北市","TOWNNAME":"萬華區","MARKTYPE":"995","Class":"5"},"geometry":{"x":300551.12359999958,"y":2769706.4135999996}},{"attributes":{"OBJECTID":8633,"LANDMARKID":"6300000003355","LANDMARKCO":"511","LANDMARKNA":"長沙街傢俱街","LANDMARKAD":"6300007","ADDRESS":"台北市萬華區","TEL":" ","COUNTYNAME":"台北市","TOWNNAME":"萬華區","MARKTYPE":"995","Class":"5"},"geometry":{"x":300901.93819999974,"y":2770347.7490999997}},{"attributes":{"OBJECTID":8634,"LANDMARKID":"6300000003356","LANDMARKCO":"511","LANDMARKNA":"環河南路五金街","LANDMARKAD":"6300007","ADDRESS":"台北市萬華區","TEL":" ","COUNTYNAME":"台北市","TOWNNAME":"萬華區","MARKTYPE":"995","Class":"5"},"geometry":{"x":300792.87579999957,"y":2771001.8885999992}},{"attributes":{"OBJECTID":8635,"LANDMARKID":"6300000003313","LANDMARKCO":"510","LANDMARKNA":"青年公園高爾天球練習場","LANDMARKAD":"6300007","ADDRESS":"台北市萬華區水源路199號","TEL":"02-23032451","COUNTYNAME":"台北市","TOWNNAME":"萬華區","MARKTYPE":"995","Class":"5"},"geometry":{"x":301234.81469999999,"y":2768445.9026999995}},{"attributes":{"OBJECTID":8636,"LANDMARKID":"6300000002420","LANDMARKCO":"405","LANDMARKNA":"中油加油站-林森北路站(中油直營)","LANDMARKAD":"6300005","ADDRESS":"台北市中正區林森北路11號","TEL":"02-23410686","COUNTYNAME":"台北市","TOWNNAME":"中正區","MARKTYPE":"994","Class":"4"},"geometry":{"x":302872.20559999999,"y":2770959.0026999991}},{"attributes":{"OBJECTID":8637,"LANDMARKID":"6300000002421","LANDMARKCO":"405","LANDMARKNA":"中油加油站-汀洲路站(中油直營)","LANDMARKAD":"6300005","ADDRESS":"台北市中正區汀州路三段1號","TEL":"02-23655595","COUNTYNAME":"台北市","TOWNNAME":"中正區","MARKTYPE":"994","Class":"4"},"geometry":{"x":303078.59499999974,"y":2768171.6811999995}},{"attributes":{"OBJECTID":8638,"LANDMARKID":"6300000002422","LANDMARKCO":"405","LANDMARKNA":"中油加油站-莒光路站(中油直營)","LANDMARKAD":"6300005","ADDRESS":"台北市中正區莒光路2號","TEL":"02-23028385","COUNTYNAME":"台北市","TOWNNAME":"中正區","MARKTYPE":"994","Class":"4"},"geometry":{"x":301197.09339999966,"y":2769353.9978}},{"attributes":{"OBJECTID":8639,"LANDMARKID":"6300000002151","LANDMARKCO":"402","LANDMARKNA":"My Phone台灣大哥大-中正－中華","LANDMARKAD":"6300005","ADDRESS":"台北市中正區中正區中華路二段103號","TEL":"02-23381898","COUNTYNAME":"台北市","TOWNNAME":"中正區","MARKTYPE":"994","Class":"4"},"geometry":{"x":300991.53660000023,"y":2769569.1154999994}},{"attributes":{"OBJECTID":8640,"LANDMARKID":"6300000002152","LANDMARKCO":"402","LANDMARKNA":"My Phone台灣大哥大-台北站前直營服務中心","LANDMARKAD":"6300005","ADDRESS":"台北市中正區忠孝西路1段38號","TEL":"0809-000-166","COUNTYNAME":"台北市","TOWNNAME":"中正區","MARKTYPE":"994","Class":"4"},"geometry":{"x":302105.81230000034,"y":2771007.4686999992}},{"attributes":{"OBJECTID":8641,"LANDMARKID":"6300000002153","LANDMARKCO":"402","LANDMARKNA":"My Phone台灣大哥大-台北衡陽直營服務中心","LANDMARKAD":"6300005","ADDRESS":"台北市中正區衡陽路55號","TEL":" ","COUNTYNAME":"台北市","TOWNNAME":"中正區","MARKTYPE":"994","Class":"4"},"geometry":{"x":301673.36089999974,"y":2770562.6159000006}},{"attributes":{"OBJECTID":8642,"LANDMARKID":"6300000002154","LANDMARKCO":"402","LANDMARKNA":"亞太行動寬頻電信-台北公館加盟服務中心","LANDMARKAD":"6300005","ADDRESS":"台北市中正區汀州路3段140號","TEL":"02-23646161","COUNTYNAME":"台北市","TOWNNAME":"中正區","MARKTYPE":"994","Class":"4"},"geometry":{"x":303890.17260000017,"y":2767411.7686999999}},{"attributes":{"OBJECTID":8643,"LANDMARKID":"6300000002155","LANDMARKCO":"402","LANDMARKNA":"亞太行動寬頻電信-台北市","LANDMARKAD":"6300005","ADDRESS":"台北市中正區襄陽路29號","TEL":" ","COUNTYNAME":"台北市","TOWNNAME":"中正區","MARKTYPE":"994","Class":"4"},"geometry":{"x":301849.78560000006,"y":2770696.9624000005}},{"attributes":{"OBJECTID":8644,"LANDMARKID":"6300000002122","LANDMARKCO":"401","LANDMARKNA":"建成中醫醫院","LANDMARKAD":"6300005","ADDRESS":"台北市中正區和平西路一段176號","TEL":"02-23075166","COUNTYNAME":"台北市","TOWNNAME":"中正區","MARKTYPE":"994","Class":"4"},"geometry":{"x":301947.04389999993,"y":2768919.6772000007}},{"attributes":{"OBJECTID":8645,"LANDMARKID":"6300000002123","LANDMARKCO":"401","LANDMARKNA":"三軍總醫院-汀州院區","LANDMARKAD":"6300005","ADDRESS":"台北市中正區汀州路三段40號","TEL":"02-23659055","COUNTYNAME":"台北市","TOWNNAME":"中正區","MARKTYPE":"994","Class":"4"},"geometry":{"x":303482.13229999971,"y":2767709.1662000008}},{"attributes":{"OBJECTID":8646,"LANDMARKID":"6300000002124","LANDMARKCO":"401","LANDMARKNA":"天心中醫醫院","LANDMARKAD":"6300005","ADDRESS":"台北市中正區武昌街一段33號","TEL":"02-23615050","COUNTYNAME":"台北市","TOWNNAME":"中正區","MARKTYPE":"994","Class":"4"},"geometry":{"x":301665.04260000028,"y":2770765.6586000007}},{"attributes":{"OBJECTID":8647,"LANDMARKID":"6300000002125","LANDMARKCO":"401","LANDMARKNA":"國立台灣大學醫學院附設醫院-台大醫院","LANDMARKAD":"6300005","ADDRESS":"台北市中正區常德街1號","TEL":" ","COUNTYNAME":"台北市","TOWNNAME":"中正區","MARKTYPE":"994","Class":"4"},"geometry":{"x":302187.90770000033,"y":2770460.6506999992}},{"attributes":{"OBJECTID":8648,"LANDMARKID":"6300000002126","LANDMARKCO":"401","LANDMARKNA":"國立台灣大學醫學院附設醫院","LANDMARKAD":"6300005","ADDRESS":"台北市中正區中正南路7號","TEL":"02-23123456","COUNTYNAME":"台北市","TOWNNAME":"中正區","MARKTYPE":"994","Class":"4"},"geometry":{"x":302360.12949999981,"y":2770479.1484999992}},{"attributes":{"OBJECTID":8649,"LANDMARKID":"6300000002127","LANDMARKCO":"401","LANDMARKNA":"台北市立聯合醫院-和平院區(和平醫院)","LANDMARKAD":"6300005","ADDRESS":"台北市中正區中華路二段33號","TEL":"02-23889595","COUNTYNAME":"台北市","TOWNNAME":"中正區","MARKTYPE":"994","Class":"4"},"geometry":{"x":301130.31730000023,"y":2769816.0654000007}},{"attributes":{"OBJECTID":8650,"LANDMARKID":"6300000002128","LANDMARKCO":"401","LANDMARKNA":"郵政總局郵政醫院","LANDMARKAD":"6300005","ADDRESS":"台北市中正區福州街14號","TEL":"02-23956755","COUNTYNAME":"台北市","TOWNNAME":"中正區","MARKTYPE":"994","Class":"4"},"geometry":{"x":302346.41160000023,"y":2769061.2193999998}},{"attributes":{"OBJECTID":8651,"LANDMARKID":"6300000002129","LANDMARKCO":"401","LANDMARKNA":"台北市立聯合醫院-婦幼院區(婦幼綜合醫","LANDMARKAD":"6300005","ADDRESS":"台北市中正區福州街12號","TEL":"02-23916470","COUNTYNAME":"台北市","TOWNNAME":"中正區","MARKTYPE":"994","Class":"4"},"geometry":{"x":302402.56840000022,"y":2769102.0042000003}},{"attributes":{"OBJECTID":8652,"LANDMARKID":"6300000000028","LANDMARKCO":"101","LANDMARKNA":"行政院","LANDMARKAD":"6300005","ADDRESS":"台北市中正區忠孝東路一段1號","TEL":"02-33566500","COUNTYNAME":"台北市","TOWNNAME":"中正區","MARKTYPE":"991","Class":"1"},"geometry":{"x":302558.32990000024,"y":2770975.9510999992}},{"attributes":{"OBJECTID":8653,"LANDMARKID":"6300000003350","LANDMARKCO":"511","LANDMARKNA":"公館夜市","LANDMARKAD":"6300005","ADDRESS":"台北市中正區","TEL":" ","COUNTYNAME":"台北市","TOWNNAME":"中正區","MARKTYPE":"995","Class":"5"},"geometry":{"x":303987.5159,"y":2767432.6212000009}},{"attributes":{"OBJECTID":8654,"LANDMARKID":"6300000003216","LANDMARKCO":"507","LANDMARKNA":"台北府城北門","LANDMARKAD":"6300005","ADDRESS":"台北市忠孝西路、延平南路、博愛路、中華路交叉路口","TEL":" ","COUNTYNAME":"台北市","TOWNNAME":"中正區","MARKTYPE":"995","Class":"5"},"geometry":{"x":301587.28139999975,"y":2771163.5408999994}},{"attributes":{"OBJECTID":8655,"LANDMARKID":"6300000003217","LANDMARKCO":"507","LANDMARKNA":"台北公會堂","LANDMARKAD":"6300005","ADDRESS":"台北市中正區延平南路98號","TEL":" ","COUNTYNAME":"台北市","TOWNNAME":"中正區","MARKTYPE":"995","Class":"5"},"geometry":{"x":301447.64130000025,"y":2770735.6252999995}},{"attributes":{"OBJECTID":8656,"LANDMARKID":"6300000003218","LANDMARKCO":"507","LANDMARKNA":"台灣布政使司衙門","LANDMARKAD":"6300005","ADDRESS":"台北市南海路53號","TEL":" ","COUNTYNAME":"台北市","TOWNNAME":"中正區","MARKTYPE":"995","Class":"5"},"geometry":{"x":301317.7901999997,"y":2769395.1900999993}},{"attributes":{"OBJECTID":8657,"LANDMARKID":"6300000003219","LANDMARKCO":"507","LANDMARKNA":"原台灣教育館","LANDMARKAD":"6300005","ADDRESS":"台北市中正區南海路54號","TEL":" ","COUNTYNAME":"台北市","TOWNNAME":"中正區","MARKTYPE":"995","Class":"5"},"geometry":{"x":301859.70500000007,"y":2769371.4568000007}},{"attributes":{"OBJECTID":8658,"LANDMARKID":"6300000003220","LANDMARKCO":"507","LANDMARKNA":"黃氏節孝坊","LANDMARKAD":"6300005","ADDRESS":"台北市中正區二二八紀念公園內","TEL":" ","COUNTYNAME":"台北市","TOWNNAME":"中正區","MARKTYPE":"995","Class":"5"},"geometry":{"x":301943.14910000004,"y":2770442.9550000001}},{"attributes":{"OBJECTID":8659,"LANDMARKID":"6300000003221","LANDMARKCO":"507","LANDMARKNA":"台北水源地唧筒室","LANDMARKAD":"6300005","ADDRESS":"台北市中正區思源路1號","TEL":" ","COUNTYNAME":"台北市","TOWNNAME":"中正區","MARKTYPE":"995","Class":"5"},"geometry":{"x":303634.06419999991,"y":2767483.7618000004}},{"attributes":{"OBJECTID":8660,"LANDMARKID":"6300000003222","LANDMARKCO":"507","LANDMARKNA":"台北郵局","LANDMARKAD":"6300005","ADDRESS":"台北市中正區忠孝西路一段114號","TEL":" ","COUNTYNAME":"台北市","TOWNNAME":"中正區","MARKTYPE":"995","Class":"5"},"geometry":{"x":301620.7034,"y":2771102.5646000002}},{"attributes":{"OBJECTID":8661,"LANDMARKID":"6300000003223","LANDMARKCO":"507","LANDMARKNA":"勸業銀行舊廈","LANDMARKAD":"6300005","ADDRESS":"台北市中正區襄陽路25號","TEL":" ","COUNTYNAME":"台北市","TOWNNAME":"中正區","MARKTYPE":"995","Class":"5"},"geometry":{"x":301855.07639999967,"y":2770705.0100999996}},{"attributes":{"OBJECTID":8662,"LANDMARKID":"6300000003224","LANDMARKCO":"507","LANDMARKNA":"司法大廈","LANDMARKAD":"6300005","ADDRESS":"台北市中正區重慶南路一段124號","TEL":" ","COUNTYNAME":"台北市","TOWNNAME":"中正區","MARKTYPE":"995","Class":"5"},"geometry":{"x":301723.28579999972,"y":2770077.5556000005}},{"attributes":{"OBJECTID":8663,"LANDMARKID":"6300000003225","LANDMARKCO":"507","LANDMARKNA":"台北賓館","LANDMARKAD":"6300005","ADDRESS":"台北市中正區凱達格蘭大道1號","TEL":" ","COUNTYNAME":"台北市","TOWNNAME":"中正區","MARKTYPE":"995","Class":"5"},"geometry":{"x":302057.73469999991,"y":2770284.1750000007}},{"attributes":{"OBJECTID":8664,"LANDMARKID":"6300000003226","LANDMARKCO":"507","LANDMARKNA":"專賣局(菸酒公賣局)","LANDMARKAD":"6300005","ADDRESS":"台北市中正區南昌路一段1之4號","TEL":" ","COUNTYNAME":"台北市","TOWNNAME":"中正區","MARKTYPE":"995","Class":"5"},"geometry":{"x":302085.2845999999,"y":2769634.2500999998}},{"attributes":{"OBJECTID":8665,"LANDMARKID":"6300000003227","LANDMARKCO":"507","LANDMARKNA":"監察院","LANDMARKAD":"6300005","ADDRESS":"台北市中正區忠孝東路一段2號","TEL":" ","COUNTYNAME":"台北市","TOWNNAME":"中正區","MARKTYPE":"995","Class":"5"},"geometry":{"x":302486.48790000007,"y":2770885.4279999994}},{"attributes":{"OBJECTID":8666,"LANDMARKID":"6300000003228","LANDMARKCO":"507","LANDMARKNA":"台灣總督府博物館","LANDMARKAD":"6300005","ADDRESS":"台北市中正區襄陽路2號","TEL":" ","COUNTYNAME":"台北市","TOWNNAME":"中正區","MARKTYPE":"995","Class":"5"},"geometry":{"x":301973.50150000025,"y":2770666.2947000004}},{"attributes":{"OBJECTID":8667,"LANDMARKID":"6300000003229","LANDMARKCO":"507","LANDMARKNA":"三井物產株式會社舊廈","LANDMARKAD":"6300005","ADDRESS":"台北市中正區館前路54號","TEL":" ","COUNTYNAME":"台北市","TOWNNAME":"中正區","MARKTYPE":"995","Class":"5"},"geometry":{"x":301951.98099999968,"y":2770701.0133999996}},{"attributes":{"OBJECTID":8668,"LANDMARKID":"6300000003230","LANDMARKCO":"507","LANDMARKNA":"台大法學院","LANDMARKAD":"6300005","ADDRESS":"台北市中正區徐州路21號","TEL":" ","COUNTYNAME":"台北市","TOWNNAME":"中正區","MARKTYPE":"995","Class":"5"},"geometry":{"x":302979.30599999987,"y":2770363.4283000007}},{"attributes":{"OBJECTID":8669,"LANDMARKID":"6300000003231","LANDMARKCO":"507","LANDMARKNA":"台大醫院舊館","LANDMARKAD":"6300005","ADDRESS":"台北市中正區常德街1號","TEL":"02-23700054","COUNTYNAME":"台北市","TOWNNAME":"中正區","MARKTYPE":"995","Class":"5"},"geometry":{"x":302188.89499999955,"y":2770462.6067999993}},{"attributes":{"OBJECTID":8670,"LANDMARKID":"6300000003232","LANDMARKCO":"507","LANDMARKNA":"台北第一高女","LANDMARKAD":"6300005","ADDRESS":"台北市中正區重慶南路一段165號","TEL":" ","COUNTYNAME":"台北市","TOWNNAME":"中正區","MARKTYPE":"995","Class":"5"},"geometry":{"x":301775.32070000004,"y":2770146.3388}},{"attributes":{"OBJECTID":8671,"LANDMARKID":"6300000003233","LANDMARKCO":"507","LANDMARKNA":"台北撫台街洋樓","LANDMARKAD":"6300005","ADDRESS":"台北市中正區延平南路26號","TEL":" ","COUNTYNAME":"台北市","TOWNNAME":"中正區","MARKTYPE":"995","Class":"5"},"geometry":{"x":301543.70150000043,"y":2771049.7919999994}},{"attributes":{"OBJECTID":8672,"LANDMARKID":"6300000003234","LANDMARKCO":"507","LANDMARKNA":"台灣電力株式會社社長宿舍","LANDMARKAD":"6300005","ADDRESS":"台北市中正區延平南路119號","TEL":" ","COUNTYNAME":"台北市","TOWNNAME":"中正區","MARKTYPE":"995","Class":"5"},"geometry":{"x":301403.83110000007,"y":2770285.8482000008}},{"attributes":{"OBJECTID":8673,"LANDMARKID":"6300000003235","LANDMARKCO":"507","LANDMARKNA":"台灣銀行","LANDMARKAD":"6300005","ADDRESS":"台北市中正區重慶南路一段120號","TEL":" ","COUNTYNAME":"台北市","TOWNNAME":"中正區","MARKTYPE":"995","Class":"5"},"geometry":{"x":301759.21839999966,"y":2770467.5632000007}},{"attributes":{"OBJECTID":8674,"LANDMARKID":"6300000003236","LANDMARKCO":"507","LANDMARKNA":"台灣廣播電台放送亭","LANDMARKAD":"6300005","ADDRESS":"台北市中正區228和平公園內","TEL":" ","COUNTYNAME":"台北市","TOWNNAME":"中正區","MARKTYPE":"995","Class":"5"},"geometry":{"x":301943.14570000023,"y":2770442.5150000006}},{"attributes":{"OBJECTID":8675,"LANDMARKID":"6300000003237","LANDMARKCO":"507","LANDMARKNA":"台灣總督府交通局遞信部","LANDMARKAD":"6300005","ADDRESS":"台北市中正區長沙街一段2號","TEL":" ","COUNTYNAME":"台北市","TOWNNAME":"中正區","MARKTYPE":"995","Class":"5"},"geometry":{"x":301543.18360000011,"y":2770332.9326000009}},{"attributes":{"OBJECTID":8676,"LANDMARKID":"6300000003238","LANDMARKCO":"507","LANDMARKNA":"台灣總督府電話交換局","LANDMARKAD":"6300005","ADDRESS":"台北市中正區博愛路168號","TEL":" ","COUNTYNAME":"台北市","TOWNNAME":"中正區","MARKTYPE":"995","Class":"5"},"geometry":{"x":301598.53720000014,"y":2770479.2208999991}},{"attributes":{"OBJECTID":8677,"LANDMARKID":"6300000003239","LANDMARKCO":"507","LANDMARKNA":"東和禪寺鐘樓","LANDMARKAD":"6300005","ADDRESS":"台北市中正區仁愛路、林森南路口","TEL":" ","COUNTYNAME":"台北市","TOWNNAME":"中正區","MARKTYPE":"995","Class":"5"},"geometry":{"x":302805.32430000044,"y":2770179.5022}},{"attributes":{"OBJECTID":8678,"LANDMARKID":"6300000003240","LANDMARKCO":"507","LANDMARKNA":"帝國生命會社舊廈","LANDMARKAD":"6300005","ADDRESS":"台北市中正區博愛路162號","TEL":" ","COUNTYNAME":"台北市","TOWNNAME":"中正區","MARKTYPE":"995","Class":"5"},"geometry":{"x":301594.56350000016,"y":2770593.5800000001}},{"attributes":{"OBJECTID":8679,"LANDMARKID":"6300000003241","LANDMARKCO":"507","LANDMARKNA":"原台北信用組合","LANDMARKAD":"6300005","ADDRESS":"台北市中山區衡陽路87號","TEL":" ","COUNTYNAME":"台北市","TOWNNAME":"中正區","MARKTYPE":"995","Class":"5"},"geometry":{"x":301574.29150000028,"y":2770571.6817000005}},{"attributes":{"OBJECTID":8680,"LANDMARKID":"6300000003242","LANDMARKCO":"507","LANDMARKNA":"婦聯總會","LANDMARKAD":"6300005","ADDRESS":"台北市中正區長沙街一段27號","TEL":" ","COUNTYNAME":"台北市","TOWNNAME":"中正區","MARKTYPE":"995","Class":"5"},"geometry":{"x":301432.75179999974,"y":2770350.5976}},{"attributes":{"OBJECTID":8681,"LANDMARKID":"6300000003243","LANDMARKCO":"507","LANDMARKNA":"濟南基督長老教會","LANDMARKAD":"6300005","ADDRESS":"台北市中正區中山南路3號","TEL":" ","COUNTYNAME":"台北市","TOWNNAME":"中正區","MARKTYPE":"995","Class":"5"},"geometry":{"x":302413.19440000039,"y":2770692.0894000009}},{"attributes":{"OBJECTID":8682,"LANDMARKID":"6300000003244","LANDMARKCO":"507","LANDMARKNA":"寶藏巖","LANDMARKAD":"6300005","ADDRESS":"台北市中正區汀州路三段230巷23號","TEL":" ","COUNTYNAME":"台北市","TOWNNAME":"中正區","MARKTYPE":"995","Class":"5"},"geometry":{"x":303814.0345999999,"y":2767040.5423000008}},{"attributes":{"OBJECTID":8683,"LANDMARKID":"6300000003245","LANDMARKCO":"507","LANDMARKNA":"中山堂","LANDMARKAD":"6300005","ADDRESS":"台北市延平南路98號","TEL":"02-23813137","COUNTYNAME":"台北市","TOWNNAME":"中正區","MARKTYPE":"995","Class":"5"},"geometry":{"x":301488.38150000013,"y":2770628.3962999992}},{"attributes":{"OBJECTID":8684,"LANDMARKID":"6300000003246","LANDMARKCO":"507","LANDMARKNA":"急公好義坊","LANDMARKAD":"6300005","ADDRESS":"台北市中正區台北公園內","TEL":" ","COUNTYNAME":"台北市","TOWNNAME":"中正區","MARKTYPE":"995","Class":"5"},"geometry":{"x":301980.86249999981,"y":2770484.0832000002}},{"attributes":{"OBJECTID":8685,"LANDMARKID":"6300000003247","LANDMARKCO":"507","LANDMARKNA":"台北府城小南門","LANDMARKAD":"6300005","ADDRESS":"台北市延平南路、愛國西路交叉路口","TEL":" ","COUNTYNAME":"台北市","TOWNNAME":"中正區","MARKTYPE":"995","Class":"5"},"geometry":{"x":301269.85859999992,"y":2769992.5357000008}},{"attributes":{"OBJECTID":8686,"LANDMARKID":"6300000003248","LANDMARKCO":"507","LANDMARKNA":"台北府城東門","LANDMARKAD":"6300005","ADDRESS":"台北市中山南路、信義路交叉路口","TEL":" ","COUNTYNAME":"台北市","TOWNNAME":"中正區","MARKTYPE":"995","Class":"5"},"geometry":{"x":302200.60209999979,"y":2770242.8432999998}},{"attributes":{"OBJECTID":8687,"LANDMARKID":"6300000003249","LANDMARKCO":"507","LANDMARKNA":"台北府城南門","LANDMARKAD":"6300005","ADDRESS":"台北市公園路、愛國西路交叉路口","TEL":" ","COUNTYNAME":"台北市","TOWNNAME":"中正區","MARKTYPE":"995","Class":"5"},"geometry":{"x":301974.54440000001,"y":2769755.1667999998}},{"attributes":{"OBJECTID":8688,"LANDMARKID":"6300000003250","LANDMARKCO":"507","LANDMARKNA":"嚴家淦先生故居","LANDMARKAD":"6300005","ADDRESS":"台北市中正區重慶南路二段2號","TEL":" ","COUNTYNAME":"台北市","TOWNNAME":"中正區","MARKTYPE":"995","Class":"5"},"geometry":{"x":301721.34489999991,"y":2769710.2816000003}},{"attributes":{"OBJECTID":8689,"LANDMARKID":"6300000003704","LANDMARKCO":"605","LANDMARKNA":"軍人之友社台北國軍英雄館","LANDMARKAD":"6300005","ADDRESS":"台北市中正區長沙街一段20號","TEL":"02-23319722","COUNTYNAME":"台北市","TOWNNAME":"中正區","MARKTYPE":"996","Class":"6"},"geometry":{"x":301328.82149999961,"y":2770334.5475999992}},{"attributes":{"OBJECTID":8690,"LANDMARKID":"6300000003025","LANDMARKCO":"408","LANDMARKNA":"郵局-台北北門郵局","LANDMARKAD":"6300005","ADDRESS":"台北市中正區忠孝西路1段114號","TEL":"(02)2361-5752","COUNTYNAME":"台北市","TOWNNAME":"中正區","MARKTYPE":"994","Class":"4"},"geometry":{"x":301687.00069999974,"y":2771105.5748999994}},{"attributes":{"OBJECTID":8691,"LANDMARKID":"6300000003026","LANDMARKCO":"408","LANDMARKNA":"郵局-台北東門郵局","LANDMARKAD":"6300005","ADDRESS":"台北市中正區新生南路1段162號1樓","TEL":"(02)2394-7576","COUNTYNAME":"台北市","TOWNNAME":"中正區","MARKTYPE":"994","Class":"4"},"geometry":{"x":303732.52199999988,"y":2769707.2542000003}},{"attributes":{"OBJECTID":8692,"LANDMARKID":"6300000003027","LANDMARKCO":"408","LANDMARKNA":"郵局-台北南海郵局","LANDMARKAD":"6300005","ADDRESS":"台北市中正區重慶南路2段43號","TEL":"(02)2396-3142","COUNTYNAME":"台北市","TOWNNAME":"中正區","MARKTYPE":"994","Class":"4"},"geometry":{"x":301938.52960000001,"y":2769399.7087999992}},{"attributes":{"OBJECTID":8693,"LANDMARKID":"6300000003028","LANDMARKCO":"408","LANDMARKNA":"郵局-台北螢橋郵局","LANDMARKAD":"6300005","ADDRESS":"台北市中正區廈門街76號","TEL":"(02)2368-4714","COUNTYNAME":"台北市","TOWNNAME":"中正區","MARKTYPE":"994","Class":"4"},"geometry":{"x":302215.02120000031,"y":2768605.7354000006}},{"attributes":{"OBJECTID":8694,"LANDMARKID":"6300000003029","LANDMARKCO":"408","LANDMARKNA":"郵局-台北復興橋郵局","LANDMARKAD":"6300005","ADDRESS":"台北市中正區忠孝西路1段1號","TEL":"(02)2311-4421","COUNTYNAME":"台北市","TOWNNAME":"中正區","MARKTYPE":"994","Class":"4"},"geometry":{"x":302413.67580000032,"y":2770975.9383000005}},{"attributes":{"OBJECTID":8695,"LANDMARKID":"6300000003030","LANDMARKCO":"408","LANDMARKNA":"郵局-行政院郵局","LANDMARKAD":"6300005","ADDRESS":"台北市中正區北平東路2號(行政院內)","TEL":"(02)2321-4874","COUNTYNAME":"台北市","TOWNNAME":"中正區","MARKTYPE":"994","Class":"4"},"geometry":{"x":302582.01049999986,"y":2771063.3640999999}},{"attributes":{"OBJECTID":8696,"LANDMARKID":"6300000003031","LANDMARKCO":"408","LANDMARKNA":"郵局-國史館郵局","LANDMARKAD":"6300005","ADDRESS":"台北市中正區博愛路168號之1","TEL":"(02)2331-0962","COUNTYNAME":"台北市","TOWNNAME":"中正區","MARKTYPE":"994","Class":"4"},"geometry":{"x":301569.26690000016,"y":2770251.9777000006}},{"attributes":{"OBJECTID":8697,"LANDMARKID":"6300000003032","LANDMARKCO":"408","LANDMARKNA":"郵局-總統府郵局","LANDMARKAD":"6300005","ADDRESS":"台北市中正區重慶南路1段122號(總統府內)","TEL":"(02)2311-0859","COUNTYNAME":"台北市","TOWNNAME":"中正區","MARKTYPE":"994","Class":"4"},"geometry":{"x":301712.45110000018,"y":2770301.4919000007}},{"attributes":{"OBJECTID":8698,"LANDMARKID":"6300000003033","LANDMARKCO":"408","LANDMARKNA":"郵局-台北法院郵局","LANDMARKAD":"6300005","ADDRESS":"台北市中正區博愛路127號(司法大廈內)","TEL":"(02)2331-4925","COUNTYNAME":"台北市","TOWNNAME":"中正區","MARKTYPE":"994","Class":"4"},"geometry":{"x":301590.80169999972,"y":2770086.9562999997}},{"attributes":{"OBJECTID":8699,"LANDMARKID":"6300000003034","LANDMARKCO":"408","LANDMARKNA":"郵局-立法院郵局","LANDMARKAD":"6300005","ADDRESS":"台北市中正區濟南路1段1號","TEL":"(02)2391-7844","COUNTYNAME":"台北市","TOWNNAME":"中正區","MARKTYPE":"994","Class":"4"},"geometry":{"x":302476.64749999996,"y":2770661.7739000004}},{"attributes":{"OBJECTID":8700,"LANDMARKID":"6300000003035","LANDMARKCO":"408","LANDMARKNA":"郵局-台北古亭郵局","LANDMARKAD":"6300005","ADDRESS":"台北市中正區南昌路2段232號","TEL":"(02)2367-2165","COUNTYNAME":"台北市","TOWNNAME":"中正區","MARKTYPE":"994","Class":"4"},"geometry":{"x":302953.61400000006,"y":2768499.0445000008}},{"attributes":{"OBJECTID":8701,"LANDMARKID":"6300000003036","LANDMARKCO":"408","LANDMARKNA":"郵局-台北南陽郵局","LANDMARKAD":"6300005","ADDRESS":"台北市中正區信陽街8號","TEL":"(02)2361-3711","COUNTYNAME":"台北市","TOWNNAME":"中正區","MARKTYPE":"994","Class":"4"},"geometry":{"x":302065.06639999989,"y":2770816.2047000006}},{"attributes":{"OBJECTID":8702,"LANDMARKID":"6300000003037","LANDMARKCO":"408","LANDMARKNA":"郵局-台北小南門郵局","LANDMARKAD":"6300005","ADDRESS":"台北市中正區廣州街15號","TEL":"(02)2375-9856","COUNTYNAME":"台北市","TOWNNAME":"中正區","MARKTYPE":"994","Class":"4"},"geometry":{"x":301277.02890000027,"y":2769839.0369000006}},{"attributes":{"OBJECTID":8703,"LANDMARKID":"6300000003038","LANDMARKCO":"408","LANDMARKNA":"郵局-台北史博館郵局","LANDMARKAD":"6300005","ADDRESS":"台北市中正區南海路49號(歷史博物館)","TEL":"(02)2371-7938","COUNTYNAME":"台北市","TOWNNAME":"中正區","MARKTYPE":"994","Class":"4"},"geometry":{"x":301592.28940000013,"y":2769335.9594000001}},{"attributes":{"OBJECTID":8704,"LANDMARKID":"6300000003039","LANDMARKCO":"408","LANDMARKNA":"郵局-台北火車站郵局","LANDMARKAD":"6300005","ADDRESS":"台北市中正區北平西路3號(台北火車站內)","TEL":"(02)2311-4239","COUNTYNAME":"台北市","TOWNNAME":"中正區","MARKTYPE":"994","Class":"4"},"geometry":{"x":302174.15770000033,"y":2771102.8554999996}},{"attributes":{"OBJECTID":8705,"LANDMARKID":"6300000003040","LANDMARKCO":"408","LANDMARKNA":"郵局-台北汀州郵局","LANDMARKAD":"6300005","ADDRESS":"台北市中正區汀州路3段301號","TEL":"(02)2363-7009","COUNTYNAME":"台北市","TOWNNAME":"中正區","MARKTYPE":"994","Class":"4"},"geometry":{"x":304086.30769999977,"y":2767191.9989}},{"attributes":{"OBJECTID":8706,"LANDMARKID":"6300000003041","LANDMARKCO":"408","LANDMARKNA":"郵局-台北龍口郵局","LANDMARKAD":"6300005","ADDRESS":"台北市中正區和平西路2段68號","TEL":"(02)2309-9158","COUNTYNAME":"台北市","TOWNNAME":"中正區","MARKTYPE":"994","Class":"4"},"geometry":{"x":301625.57120000012,"y":2769102.8380999994}},{"attributes":{"OBJECTID":8707,"LANDMARKID":"6300000003042","LANDMARKCO":"408","LANDMARKNA":"郵局-台北杭南郵局","LANDMARKAD":"6300005","ADDRESS":"台北市中正區杭州南路1段23號之3","TEL":"(02)2393-8719","COUNTYNAME":"台北市","TOWNNAME":"中正區","MARKTYPE":"994","Class":"4"},"geometry":{"x":303124.25299999956,"y":2770560.4332999997}},{"attributes":{"OBJECTID":8708,"LANDMARKID":"6300000003043","LANDMARKCO":"408","LANDMARKNA":"郵局-台北中正堂郵局","LANDMARKAD":"6300005","ADDRESS":"台北市中正區中山南路21號(中正紀念堂內)","TEL":"(02)2394-2715","COUNTYNAME":"台北市","TOWNNAME":"中正區","MARKTYPE":"994","Class":"4"},"geometry":{"x":302645.61249999981,"y":2769729.1375999991}},{"attributes":{"OBJECTID":8709,"LANDMARKID":"6300000003044","LANDMARKCO":"408","LANDMARKNA":"郵局-監察院郵局","LANDMARKAD":"6300005","ADDRESS":"台北市中正區忠孝東路1段2號(監察院東側，面向鎮江街)","TEL":"(02)2392-5345","COUNTYNAME":"台北市","TOWNNAME":"中正區","MARKTYPE":"994","Class":"4"},"geometry":{"x":302485.32600000035,"y":2770885.7359999996}},{"attributes":{"OBJECTID":8710,"LANDMARKID":"6300000003045","LANDMARKCO":"408","LANDMARKNA":"郵局-台北南門郵局","LANDMARKAD":"6300005","ADDRESS":"台北市中正區廣州街2號","TEL":"(02)2331-6433","COUNTYNAME":"台北市","TOWNNAME":"中正區","MARKTYPE":"994","Class":"4"},"geometry":{"x":301486.64199999999,"y":2769736.2982000001}},{"attributes":{"OBJECTID":8711,"LANDMARKID":"6300000003046","LANDMARKCO":"408","LANDMARKNA":"郵局-台大醫院郵局","LANDMARKAD":"6300005","ADDRESS":"台北市中正區中山南路7號(台大醫院內)","TEL":"(02)2397-3983","COUNTYNAME":"台北市","TOWNNAME":"中正區","MARKTYPE":"994","Class":"4"},"geometry":{"x":302327.79989999998,"y":2770393.2767999992}},{"attributes":{"OBJECTID":8712,"LANDMARKID":"6300000003047","LANDMARKCO":"408","LANDMARKNA":"郵局-台北中聯郵局","LANDMARKAD":"6300005","ADDRESS":"台北市中正區徐州路5號地下一樓(中央聯合辦公大樓內)","TEL":"(02)2356-6485","COUNTYNAME":"台北市","TOWNNAME":"中正區","MARKTYPE":"994","Class":"4"},"geometry":{"x":302420.15259999968,"y":2770532.9908000007}},{"attributes":{"OBJECTID":8713,"LANDMARKID":"6300000003048","LANDMARKCO":"408","LANDMARKNA":"郵局-國防後備部郵局","LANDMARKAD":"6300005","ADDRESS":"台北市中正區博愛路172號","TEL":"(02)2361-6561","COUNTYNAME":"台北市","TOWNNAME":"中正區","MARKTYPE":"994","Class":"4"},"geometry":{"x":301546.33000000007,"y":2769961.0687000006}},{"attributes":{"OBJECTID":8714,"LANDMARKID":"6300000003049","LANDMARKCO":"408","LANDMARKNA":"郵局-台北仁杭郵局","LANDMARKAD":"6300005","ADDRESS":"台北市中正區仁愛路１段50號B2(交通部新大樓)","TEL":"(02)2395-5573","COUNTYNAME":"台北市","TOWNNAME":"中正區","MARKTYPE":"994","Class":"4"},"geometry":{"x":302937.83370000031,"y":2770094.0822000001}},{"attributes":{"OBJECTID":8715,"LANDMARKID":"6300000003050","LANDMARKCO":"408","LANDMARKNA":"郵局-台北重南郵局","LANDMARKAD":"6300005","ADDRESS":"台北市中正區忠孝西路1段120號","TEL":"(02)2331-3075","COUNTYNAME":"台北市","TOWNNAME":"中正區","MARKTYPE":"994","Class":"4"},"geometry":{"x":301763.21430000011,"y":2770819.3741999995}},{"attributes":{"OBJECTID":8716,"LANDMARKID":"6300000003051","LANDMARKCO":"408","LANDMARKNA":"郵局-台北中山堂郵局","LANDMARKAD":"6300005","ADDRESS":"台北市中正區秀山街1號","TEL":"(02)2314-8490","COUNTYNAME":"台北市","TOWNNAME":"中正區","MARKTYPE":"994","Class":"4"},"geometry":{"x":301350.95820000023,"y":2770651.7276000008}},{"attributes":{"OBJECTID":8717,"LANDMARKID":"6300000002394","LANDMARKCO":"404","LANDMARKNA":"台北自來水事業處西區營業分處","LANDMARKAD":"6300005","ADDRESS":"臺北市牯嶺街38號","TEL":"02-33431678","COUNTYNAME":"台北市","TOWNNAME":"中正區","MARKTYPE":"994","Class":"4"},"geometry":{"x":302123.96679999959,"y":2769171.1087999996}},{"attributes":{"OBJECTID":8718,"LANDMARKID":"6300000002395","LANDMARKCO":"404","LANDMARKNA":"台北自來水事業處南區營業分處","LANDMARKAD":"6300005","ADDRESS":"臺北市思源街1號","TEL":"02-83695123","COUNTYNAME":"台北市","TOWNNAME":"中正區","MARKTYPE":"994","Class":"4"},"geometry":{"x":303554.08339999989,"y":2767387.6713999994}},{"attributes":{"OBJECTID":8719,"LANDMARKID":"6300000002396","LANDMARKCO":"404","LANDMARKNA":"台北自來水事業處工程總隊","LANDMARKAD":"6300005","ADDRESS":"臺北市羅斯福路4段92號3樓","TEL":"02-83695179","COUNTYNAME":"台北市","TOWNNAME":"中正區","MARKTYPE":"994","Class":"4"},"geometry":{"x":303999.89680000022,"y":2767407.7186999992}},{"attributes":{"OBJECTID":8720,"LANDMARKID":"6300000002397","LANDMARKCO":"404","LANDMARKNA":"台北自來水事業處西區營業分處","LANDMARKAD":"6300005","ADDRESS":"台北市中正區牯嶺街38號","TEL":" ","COUNTYNAME":"台北市","TOWNNAME":"中正區","MARKTYPE":"994","Class":"4"},"geometry":{"x":302120.27170000039,"y":2769167.9008000009}},{"attributes":{"OBJECTID":8721,"LANDMARKID":"6300000002398","LANDMARKCO":"404","LANDMARKNA":"台北自來水事業處南區營業分處","LANDMARKAD":"6300005","ADDRESS":"台北市中正區思源街1號","TEL":" ","COUNTYNAME":"台北市","TOWNNAME":"中正區","MARKTYPE":"994","Class":"4"},"geometry":{"x":303701.43819999974,"y":2767553.9567000009}},{"attributes":{"OBJECTID":8722,"LANDMARKID":"6300000002730","LANDMARKCO":"406","LANDMARKNA":"逸仙公園","LANDMARKAD":"6300005","ADDRESS":"台北市中正區","TEL":" ","COUNTYNAME":"台北市","TOWNNAME":"中正區","MARKTYPE":"994","Class":"4"},"geometry":{"x":302460.86840000004,"y":2771162.6260000002}},{"attributes":{"OBJECTID":8723,"LANDMARKID":"6300000002731","LANDMARKCO":"406","LANDMARKNA":"齊東公園","LANDMARKAD":"6300005","ADDRESS":"台北市中正區","TEL":" ","COUNTYNAME":"台北市","TOWNNAME":"中正區","MARKTYPE":"994","Class":"4"},"geometry":{"x":303325.41540000029,"y":2770507.5615999997}},{"attributes":{"OBJECTID":8724,"LANDMARKID":"6300000002732","LANDMARKCO":"406","LANDMARKNA":"二二八和平公園","LANDMARKAD":"6300005","ADDRESS":"台北市襄陽路2號","TEL":" ","COUNTYNAME":"台北市","TOWNNAME":"中正區","MARKTYPE":"994","Class":"4"},"geometry":{"x":301994.57070000004,"y":2770480.6840000004}},{"attributes":{"OBJECTID":8725,"LANDMARKID":"6300000002733","LANDMARKCO":"406","LANDMARKNA":"文光公園","LANDMARKAD":"6300005","ADDRESS":"台北市中正區","TEL":" ","COUNTYNAME":"台北市","TOWNNAME":"中正區","MARKTYPE":"994","Class":"4"},"geometry":{"x":303569.70779999997,"y":2770211.0960000008}},{"attributes":{"OBJECTID":8726,"LANDMARKID":"6300000002734","LANDMARKCO":"406","LANDMARKNA":"介壽公園","LANDMARKAD":"6300005","ADDRESS":"台北市中正區","TEL":" ","COUNTYNAME":"台北市","TOWNNAME":"中正區","MARKTYPE":"994","Class":"4"},"geometry":{"x":301926.06460000016,"y":2770208.5660999995}},{"attributes":{"OBJECTID":8727,"LANDMARKID":"6300000002735","LANDMARKCO":"406","LANDMARKNA":"連雲公園","LANDMARKAD":"6300005","ADDRESS":"台北市中正區","TEL":" ","COUNTYNAME":"台北市","TOWNNAME":"中正區","MARKTYPE":"994","Class":"4"},"geometry":{"x":303666.3060999997,"y":2769784.8409000002}},{"attributes":{"OBJECTID":8728,"LANDMARKID":"6300000002736","LANDMARKCO":"406","LANDMARKNA":"信愛公園","LANDMARKAD":"6300005","ADDRESS":"台北市中正區","TEL":" ","COUNTYNAME":"台北市","TOWNNAME":"中正區","MARKTYPE":"994","Class":"4"},"geometry":{"x":303357.86500000022,"y":2769753.2028999999}},{"attributes":{"OBJECTID":8729,"LANDMARKID":"6300000002737","LANDMARKCO":"406","LANDMARKNA":"南昌公園","LANDMARKAD":"6300005","ADDRESS":"台北市中正區","TEL":" ","COUNTYNAME":"台北市","TOWNNAME":"中正區","MARKTYPE":"994","Class":"4"},"geometry":{"x":302515.81429999974,"y":2768881.3633999992}},{"attributes":{"OBJECTID":8730,"LANDMARKID":"6300000002738","LANDMARKCO":"406","LANDMARKNA":"永寬公園","LANDMARKAD":"6300005","ADDRESS":"台北市中正區","TEL":" ","COUNTYNAME":"台北市","TOWNNAME":"中正區","MARKTYPE":"994","Class":"4"},"geometry":{"x":301449.75509999972,"y":2768776.3129999992}},{"attributes":{"OBJECTID":8731,"LANDMARKID":"6300000002739","LANDMARKCO":"406","LANDMARKNA":"牯嶺公園","LANDMARKAD":"6300005","ADDRESS":"台北市中正區","TEL":" ","COUNTYNAME":"台北市","TOWNNAME":"中正區","MARKTYPE":"994","Class":"4"},"geometry":{"x":302362.96289999969,"y":2768476.9631999992}},{"attributes":{"OBJECTID":8732,"LANDMARKID":"6300000002740","LANDMARKCO":"406","LANDMARKNA":"中正河濱公園","LANDMARKAD":"6300005","ADDRESS":"台北市中正區","TEL":" ","COUNTYNAME":"台北市","TOWNNAME":"中正區","MARKTYPE":"994","Class":"4"},"geometry":{"x":301802.23830000032,"y":2768385.8534999993}},{"attributes":{"OBJECTID":8733,"LANDMARKID":"6300000002741","LANDMARKCO":"406","LANDMARKNA":"河堤公園","LANDMARKAD":"6300005","ADDRESS":"台北市中正區","TEL":" ","COUNTYNAME":"台北市","TOWNNAME":"中正區","MARKTYPE":"994","Class":"4"},"geometry":{"x":302620.37200000044,"y":2768100.2815000005}},{"attributes":{"OBJECTID":8734,"LANDMARKID":"6300000002742","LANDMARKCO":"406","LANDMARKNA":"林口社區公園","LANDMARKAD":"6300005","ADDRESS":"台北市中正區","TEL":" ","COUNTYNAME":"台北市","TOWNNAME":"中正區","MARKTYPE":"994","Class":"4"},"geometry":{"x":302953.44359999988,"y":2767665.3823000006}},{"attributes":{"OBJECTID":8735,"LANDMARKID":"6300000002890","LANDMARKCO":"407","LANDMARKNA":"遠東百貨","LANDMARKAD":"6300005","ADDRESS":"台北市寶慶路32號","TEL":"02-23816088","COUNTYNAME":"台北市","TOWNNAME":"中正區","MARKTYPE":"994","Class":"4"},"geometry":{"x":301373.47809999995,"y":2770491.4611000009}},{"attributes":{"OBJECTID":8736,"LANDMARKID":"6300000002891","LANDMARKCO":"407","LANDMARKNA":"新光三越","LANDMARKAD":"6300005","ADDRESS":"台北市中正區忠孝西路一段66號","TEL":"2388-5552","COUNTYNAME":"台北市","TOWNNAME":"中正區","MARKTYPE":"994","Class":"4"},"geometry":{"x":301996.72049999982,"y":2770996.2149999999}},{"attributes":{"OBJECTID":8737,"LANDMARKID":"6300000002892","LANDMARKCO":"407","LANDMARKNA":"微風廣場","LANDMARKAD":"6300005","ADDRESS":"台北市中正區北平西路3號","TEL":"02-66328999","COUNTYNAME":"台北市","TOWNNAME":"中正區","MARKTYPE":"994","Class":"4"},"geometry":{"x":302173.87449999992,"y":2771102.3564999998}},{"attributes":{"OBJECTID":8738,"LANDMARKID":"6300000002893","LANDMARKCO":"407","LANDMARKNA":"誠品Eslite","LANDMARKAD":"6300005","ADDRESS":"台北市忠孝西路一段49號B1.B.C.D室","TEL":"02-2375-9488","COUNTYNAME":"台北市","TOWNNAME":"中正區","MARKTYPE":"994","Class":"4"},"geometry":{"x":302235.67379999999,"y":2771090.3703000005}},{"attributes":{"OBJECTID":8739,"LANDMARKID":"6300000002894","LANDMARKCO":"407","LANDMARKNA":"誠品Eslite","LANDMARKAD":"6300005","ADDRESS":"台北市中山南路7號B1","TEL":"02-2322-5465","COUNTYNAME":"台北市","TOWNNAME":"中正區","MARKTYPE":"994","Class":"4"},"geometry":{"x":302327.61330000032,"y":2770393.5274999999}},{"attributes":{"OBJECTID":8740,"LANDMARKID":"6300000002895","LANDMARKCO":"407","LANDMARKNA":"誠品Eslite","LANDMARKAD":"6300005","ADDRESS":"台北市中山南路21-1號","TEL":"02-2393-5559","COUNTYNAME":"台北市","TOWNNAME":"中正區","MARKTYPE":"994","Class":"4"},"geometry":{"x":302639.66770000011,"y":2769719.1604999993}},{"attributes":{"OBJECTID":8741,"LANDMARKID":"6300000002896","LANDMARKCO":"407","LANDMARKNA":"統一元氣館","LANDMARKAD":"6300005","ADDRESS":"台北市中正區忠孝西路一段50號","TEL":"(02)6630-8289","COUNTYNAME":"台北市","TOWNNAME":"中正區","MARKTYPE":"994","Class":"4"},"geometry":{"x":302049.31630000006,"y":2771004.7646999992}},{"attributes":{"OBJECTID":8742,"LANDMARKID":"6300000000029","LANDMARKCO":"101","LANDMARKNA":"總統府","LANDMARKAD":"6300005","ADDRESS":"台北市中正區重慶南路一段122號","TEL":"02-23113731","COUNTYNAME":"台北市","TOWNNAME":"中正區","MARKTYPE":"991","Class":"1"},"geometry":{"x":301712.10830000043,"y":2770301.7432000004}},{"attributes":{"OBJECTID":8743,"LANDMARKID":"6300000000030","LANDMARKCO":"101","LANDMARKNA":"行政院","LANDMARKAD":"6300005","ADDRESS":"台北市中正區忠孝東路一段1號","TEL":"02-33566500","COUNTYNAME":"台北市","TOWNNAME":"中正區","MARKTYPE":"991","Class":"1"},"geometry":{"x":302558.32990000024,"y":2770975.9552999996}},{"attributes":{"OBJECTID":8744,"LANDMARKID":"6300000000031","LANDMARKCO":"101","LANDMARKNA":"新聞局","LANDMARKAD":"6300005","ADDRESS":"台北市中正區天津街2號","TEL":"02-33568888","COUNTYNAME":"台北市","TOWNNAME":"中正區","MARKTYPE":"991","Class":"1"},"geometry":{"x":302630.45569999982,"y":2770919.1775000002}},{"attributes":{"OBJECTID":8745,"LANDMARKID":"6300000000032","LANDMARKCO":"101","LANDMARKNA":"審計部","LANDMARKAD":"6300005","ADDRESS":"台北市中正區杭州北路1號","TEL":"02-23971366","COUNTYNAME":"台北市","TOWNNAME":"中正區","MARKTYPE":"991","Class":"1"},"geometry":{"x":303208.17929999996,"y":2770849.1018000003}},{"attributes":{"OBJECTID":8746,"LANDMARKID":"6300000000033","LANDMARKCO":"101","LANDMARKNA":"經濟部國際貿易局","LANDMARKAD":"6300005","ADDRESS":"台北市中正區湖口街一號","TEL":"02-23510271","COUNTYNAME":"台北市","TOWNNAME":"中正區","MARKTYPE":"991","Class":"1"},"geometry":{"x":301944.09979999997,"y":2769549.6875999998}},{"attributes":{"OBJECTID":8747,"LANDMARKID":"6300000000034","LANDMARKCO":"101","LANDMARKNA":"台北市憲兵隊","LANDMARKAD":"6300005","ADDRESS":"台北市中正區中華路一段65號","TEL":"02-23815263","COUNTYNAME":"台北市","TOWNNAME":"中正區","MARKTYPE":"991","Class":"1"},"geometry":{"x":301277.74619999994,"y":2770379.0253999997}},{"attributes":{"OBJECTID":8748,"LANDMARKID":"6300000000035","LANDMARKCO":"101","LANDMARKNA":"行政院文化建設委員會","LANDMARKAD":"6300005","ADDRESS":"臺北市中正區北平東路30-1號","TEL":"02-23434000","COUNTYNAME":"台北市","TOWNNAME":"中正區","MARKTYPE":"991","Class":"1"},"geometry":{"x":302591.91150000039,"y":2769499.3489999995}},{"attributes":{"OBJECTID":8749,"LANDMARKID":"6300000000256","LANDMARKCO":"107","LANDMARKNA":"鐵路警察局","LANDMARKAD":"6300005","ADDRESS":"台北市中正區北平西路56號","TEL":"02-23115580","COUNTYNAME":"台北市","TOWNNAME":"中正區","MARKTYPE":"991","Class":"1"},"geometry":{"x":301776.44479999971,"y":2771189.7360999994}},{"attributes":{"OBJECTID":8750,"LANDMARKID":"6300000000036","LANDMARKCO":"101","LANDMARKNA":"衛生署慢性病防治局","LANDMARKAD":"6300005","ADDRESS":"台北市中正區青島西路10號","TEL":"02-26644908","COUNTYNAME":"台北市","TOWNNAME":"中正區","MARKTYPE":"991","Class":"1"},"geometry":{"x":302256.50739999954,"y":2770826.2905999999}},{"attributes":{"OBJECTID":8751,"LANDMARKID":"6300000000037","LANDMARKCO":"101","LANDMARKNA":"中山樓","LANDMARKAD":"6300005","ADDRESS":"台北市延平南路98號","TEL":"02-23813137","COUNTYNAME":"台北市","TOWNNAME":"中正區","MARKTYPE":"991","Class":"1"},"geometry":{"x":301475.82019999996,"y":2770648.5757999998}},{"attributes":{"OBJECTID":8752,"LANDMARKID":"6300000000038","LANDMARKCO":"101","LANDMARKNA":"最高行政法院","LANDMARKAD":"6300005","ADDRESS":"台北市中正區重慶南路一段126巷1號","TEL":"02-23113691","COUNTYNAME":"台北市","TOWNNAME":"中正區","MARKTYPE":"991","Class":"1"},"geometry":{"x":301652.31850000005,"y":2770000.2238999996}},{"attributes":{"OBJECTID":8753,"LANDMARKID":"6300000000039","LANDMARKCO":"101","LANDMARKNA":"台灣最高法院","LANDMARKAD":"6300005","ADDRESS":"台北市中正區長沙街一段6號","TEL":"02-23141160","COUNTYNAME":"台北市","TOWNNAME":"中正區","MARKTYPE":"991","Class":"1"},"geometry":{"x":301456.22599999979,"y":2770307.6539999992}},{"attributes":{"OBJECTID":8754,"LANDMARKID":"6300000000040","LANDMARKCO":"101","LANDMARKNA":"台灣台北地方法院","LANDMARKAD":"6300005","ADDRESS":"台北市中正區博愛路131號","TEL":"02-23146871","COUNTYNAME":"台北市","TOWNNAME":"中正區","MARKTYPE":"991","Class":"1"},"geometry":{"x":301576.48610000033,"y":2769952.7049000002}},{"attributes":{"OBJECTID":8755,"LANDMARKID":"6300000000041","LANDMARKCO":"101","LANDMARKNA":"台灣台北地方法院台北簡易庭","LANDMARKAD":"6300005","ADDRESS":"台北市中正區重慶南路一段126巷1號","TEL":"02-23143050","COUNTYNAME":"台北市","TOWNNAME":"中正區","MARKTYPE":"991","Class":"1"},"geometry":{"x":301652.31850000005,"y":2770000.2238999996}},{"attributes":{"OBJECTID":8756,"LANDMARKID":"6300000000136","LANDMARKCO":"103","LANDMARKNA":"台北市裁決所","LANDMARKAD":"6300005","ADDRESS":"台北市中正區羅斯福路四段92號7樓","TEL":"02-23658270","COUNTYNAME":"台北市","TOWNNAME":"中正區","MARKTYPE":"991","Class":"1"},"geometry":{"x":303999.90940000024,"y":2767407.8401999995}},{"attributes":{"OBJECTID":8757,"LANDMARKID":"6300000000175","LANDMARKCO":"104","LANDMARKNA":"台北市稅捐處","LANDMARKAD":"6300005","ADDRESS":"台北市中正區北平東路7之2號","TEL":"02-23949211","COUNTYNAME":"台北市","TOWNNAME":"中正區","MARKTYPE":"991","Class":"1"},"geometry":{"x":302774.42559999973,"y":2771057.7005000003}},{"attributes":{"OBJECTID":8758,"LANDMARKID":"6300000000075","LANDMARKCO":"101","LANDMARKNA":"交通部公路總局","LANDMARKAD":"6300005","ADDRESS":"台北市中正區忠孝西路一段70號","TEL":"02-23113456","COUNTYNAME":"台北市","TOWNNAME":"中正區","MARKTYPE":"991","Class":"1"},"geometry":{"x":301943.18049999978,"y":2771043.4188000001}},{"attributes":{"OBJECTID":8759,"LANDMARKID":"6300000000177","LANDMARKCO":"104","LANDMARKNA":"台北市國稅局中正稽徵所","LANDMARKAD":"6300005","ADDRESS":"台北市中正區羅斯福路一段8號5樓","TEL":"02-23965062","COUNTYNAME":"台北市","TOWNNAME":"中正區","MARKTYPE":"991","Class":"1"},"geometry":{"x":302294.93809999991,"y":2769473.9163000006}},{"attributes":{"OBJECTID":8760,"LANDMARKID":"6300000000199","LANDMARKCO":"106","LANDMARKNA":"內政部戶政司","LANDMARKAD":"6300005","ADDRESS":"台北市中正區徐州路5號6樓","TEL":"02-23565000","COUNTYNAME":"台北市","TOWNNAME":"中正區","MARKTYPE":"991","Class":"1"},"geometry":{"x":302420.15160000045,"y":2770532.7408000007}},{"attributes":{"OBJECTID":8761,"LANDMARKID":"6300000000042","LANDMARKCO":"101","LANDMARKNA":"立法院","LANDMARKAD":"6300005","ADDRESS":"台北市中正區中山南路1號","TEL":"02-23585858","COUNTYNAME":"台北市","TOWNNAME":"中正區","MARKTYPE":"991","Class":"1"},"geometry":{"x":302430.22780000046,"y":2770747.9521999992}},{"attributes":{"OBJECTID":8762,"LANDMARKID":"6300000000043","LANDMARKCO":"101","LANDMARKNA":"教育部","LANDMARKAD":"6300005","ADDRESS":"台北市中正區中山南路5號","TEL":"02-77366051","COUNTYNAME":"台北市","TOWNNAME":"中正區","MARKTYPE":"991","Class":"1"},"geometry":{"x":302376.83849999961,"y":2770588.5842000004}},{"attributes":{"OBJECTID":8763,"LANDMARKID":"6300000000044","LANDMARKCO":"101","LANDMARKNA":"行政院環境保護署","LANDMARKAD":"6300005","ADDRESS":"台北市中正區中華路一段83號","TEL":"02-23117722","COUNTYNAME":"台北市","TOWNNAME":"中正區","MARKTYPE":"991","Class":"1"},"geometry":{"x":301233.27550000045,"y":2770137.6966999993}},{"attributes":{"OBJECTID":8764,"LANDMARKID":"6300000000045","LANDMARKCO":"101","LANDMARKNA":"交通部中央氣象局","LANDMARKAD":"6300005","ADDRESS":"台北市中正區公園路64號","TEL":"02-23491234","COUNTYNAME":"台北市","TOWNNAME":"中正區","MARKTYPE":"991","Class":"1"},"geometry":{"x":301961.74820000026,"y":2770031.3616000004}},{"attributes":{"OBJECTID":8765,"LANDMARKID":"6300000000046","LANDMARKCO":"101","LANDMARKNA":"行政院主計處","LANDMARKAD":"6300005","ADDRESS":"台北市中正區忠孝東路一段1號","TEL":"02-3356-6500","COUNTYNAME":"台北市","TOWNNAME":"中正區","MARKTYPE":"991","Class":"1"},"geometry":{"x":302558.32990000024,"y":2770975.9552999996}},{"attributes":{"OBJECTID":8766,"LANDMARKID":"6300000000047","LANDMARKCO":"101","LANDMARKNA":"監察院","LANDMARKAD":"6300005","ADDRESS":"台北市中正區忠孝東路一段2號","TEL":"02-23413183","COUNTYNAME":"台北市","TOWNNAME":"中正區","MARKTYPE":"991","Class":"1"},"geometry":{"x":302485.63650000002,"y":2770885.2347999997}},{"attributes":{"OBJECTID":8767,"LANDMARKID":"6300000000048","LANDMARKCO":"101","LANDMARKNA":"內政部警政署","LANDMARKAD":"6300005","ADDRESS":"台北市中正區忠孝東路一段7號","TEL":"02-23219011","COUNTYNAME":"台北市","TOWNNAME":"中正區","MARKTYPE":"991","Class":"1"},"geometry":{"x":302726.83829999994,"y":2770889.6342999991}},{"attributes":{"OBJECTID":8768,"LANDMARKID":"6300000000049","LANDMARKCO":"101","LANDMARKNA":"中央信託局總局","LANDMARKAD":"6300005","ADDRESS":"台北市中正區武昌街一段49號","TEL":"02-23111511","COUNTYNAME":"台北市","TOWNNAME":"中正區","MARKTYPE":"991","Class":"1"},"geometry":{"x":301552.02290000021,"y":2770776.5383000001}},{"attributes":{"OBJECTID":8769,"LANDMARKID":"6300000000050","LANDMARKCO":"101","LANDMARKNA":"交通部","LANDMARKAD":"6300005","ADDRESS":"台北市中正區仁愛路1段50號","TEL":"02-23492900","COUNTYNAME":"台北市","TOWNNAME":"中正區","MARKTYPE":"991","Class":"1"},"geometry":{"x":302938.26919999998,"y":2770093.5804999992}},{"attributes":{"OBJECTID":8770,"LANDMARKID":"6300000000051","LANDMARKCO":"101","LANDMARKNA":"農業委員會","LANDMARKAD":"6300005","ADDRESS":"台北市中正區南海路37號","TEL":"02-23812991","COUNTYNAME":"台北市","TOWNNAME":"中正區","MARKTYPE":"991","Class":"1"},"geometry":{"x":301793.25949999969,"y":2769426.6992000006}},{"attributes":{"OBJECTID":8771,"LANDMARKID":"6300000000052","LANDMARKCO":"101","LANDMARKNA":"國立教育廣播電台","LANDMARKAD":"6300005","ADDRESS":"台北市中正區南海路41號","TEL":"02-23880600","COUNTYNAME":"台北市","TOWNNAME":"中正區","MARKTYPE":"991","Class":"1"},"geometry":{"x":301701.88009999972,"y":2769392.7952999994}},{"attributes":{"OBJECTID":8772,"LANDMARKID":"6300000000053","LANDMARKCO":"101","LANDMARKNA":"司法院","LANDMARKAD":"6300005","ADDRESS":"台北市中正區重慶南路一段124號","TEL":"02-23618577","COUNTYNAME":"台北市","TOWNNAME":"中正區","MARKTYPE":"991","Class":"1"},"geometry":{"x":301711.04430000018,"y":2770076.2517000008}},{"attributes":{"OBJECTID":8773,"LANDMARKID":"6300000000054","LANDMARKCO":"101","LANDMARKNA":"法務部","LANDMARKAD":"6300005","ADDRESS":"台北市中正區重慶南路一段130號","TEL":"02-23146871","COUNTYNAME":"台北市","TOWNNAME":"中正區","MARKTYPE":"991","Class":"1"},"geometry":{"x":301686.94170000032,"y":2769941.8429000005}},{"attributes":{"OBJECTID":8774,"LANDMARKID":"6300000000055","LANDMARKCO":"101","LANDMARKNA":"內政部","LANDMARKAD":"6300005","ADDRESS":"台北市中正區徐州路5號","TEL":"02-23565000","COUNTYNAME":"台北市","TOWNNAME":"中正區","MARKTYPE":"991","Class":"1"},"geometry":{"x":302420.15160000045,"y":2770532.7408000007}},{"attributes":{"OBJECTID":8775,"LANDMARKID":"6300000000056","LANDMARKCO":"101","LANDMARKNA":"中央選舉委員會","LANDMARKAD":"6300005","ADDRESS":"台北市中正區徐州路5號10樓","TEL":"02-23565484","COUNTYNAME":"台北市","TOWNNAME":"中正區","MARKTYPE":"991","Class":"1"},"geometry":{"x":302420.15160000045,"y":2770532.7408000007}},{"attributes":{"OBJECTID":8776,"LANDMARKID":"6300000000057","LANDMARKCO":"101","LANDMARKNA":"青年輔導委員會","LANDMARKAD":"6300005","ADDRESS":"台北市中正區徐州路5號14樓","TEL":"02-23566232","COUNTYNAME":"台北市","TOWNNAME":"中正區","MARKTYPE":"991","Class":"1"},"geometry":{"x":302420.15160000045,"y":2770532.7408000007}},{"attributes":{"OBJECTID":8777,"LANDMARKID":"6300000000058","LANDMARKCO":"101","LANDMARKNA":"中華民國僑務委員會","LANDMARKAD":"6300005","ADDRESS":"台北市中正區徐州路5號3、15~17F","TEL":"02-23272600","COUNTYNAME":"台北市","TOWNNAME":"中正區","MARKTYPE":"991","Class":"1"},"geometry":{"x":302420.15160000045,"y":2770532.7408000007}},{"attributes":{"OBJECTID":8778,"LANDMARKID":"6300000000059","LANDMARKCO":"101","LANDMARKNA":"蒙藏委員會","LANDMARKAD":"6300005","ADDRESS":"台北市中正區徐州路5號4樓","TEL":"02-23566467","COUNTYNAME":"台北市","TOWNNAME":"中正區","MARKTYPE":"991","Class":"1"},"geometry":{"x":302420.15160000045,"y":2770532.7408000007}},{"attributes":{"OBJECTID":8779,"LANDMARKID":"6300000000060","LANDMARKCO":"101","LANDMARKNA":"中央健康保險局台北分局","LANDMARKAD":"6300005","ADDRESS":"台北市中正區許昌街17號7-9樓(壽德大樓)","TEL":"02-25232388","COUNTYNAME":"台北市","TOWNNAME":"中正區","MARKTYPE":"991","Class":"1"},"geometry":{"x":302163.82290000003,"y":2770941.6448999997}},{"attributes":{"OBJECTID":8780,"LANDMARKID":"6300000000061","LANDMARKCO":"101","LANDMARKNA":"外交部","LANDMARKAD":"6300005","ADDRESS":"台北市中正區凱達格蘭大道2號","TEL":"02-23482999","COUNTYNAME":"台北市","TOWNNAME":"中正區","MARKTYPE":"991","Class":"1"},"geometry":{"x":302104.02730000019,"y":2770190.5651999991}},{"attributes":{"OBJECTID":8781,"LANDMARKID":"6300000000062","LANDMARKCO":"101","LANDMARKNA":"財政部","LANDMARKAD":"6300005","ADDRESS":"台北市中正區愛國西路2號","TEL":"02-23228000","COUNTYNAME":"台北市","TOWNNAME":"中正區","MARKTYPE":"991","Class":"1"},"geometry":{"x":302008.3861999996,"y":2769685.9386}},{"attributes":{"OBJECTID":8782,"LANDMARKID":"6300000000176","LANDMARKCO":"104","LANDMARKNA":"財政部賦稅署","LANDMARKAD":"6300005","ADDRESS":"台北市中正區愛國西路2號","TEL":"02-23228000","COUNTYNAME":"台北市","TOWNNAME":"中正區","MARKTYPE":"991","Class":"1"},"geometry":{"x":302008.3861999996,"y":2769685.9386}},{"attributes":{"OBJECTID":8783,"LANDMARKID":"6300000000063","LANDMARKCO":"101","LANDMARKNA":"財政部國庫署","LANDMARKAD":"6300005","ADDRESS":"台北市中正區愛國西路2號3樓","TEL":"02-23228000","COUNTYNAME":"台北市","TOWNNAME":"中正區","MARKTYPE":"991","Class":"1"},"geometry":{"x":302008.3861999996,"y":2769685.9386}},{"attributes":{"OBJECTID":8784,"LANDMARKID":"6300000000064","LANDMARKCO":"101","LANDMARKNA":"衛生署","LANDMARKAD":"6300005","ADDRESS":"台北市中正區愛國東路100號7-14樓","TEL":"02-23210151","COUNTYNAME":"台北市","TOWNNAME":"中正區","MARKTYPE":"991","Class":"1"},"geometry":{"x":302533.44299999997,"y":2769540.3238999993}},{"attributes":{"OBJECTID":8785,"LANDMARKID":"6300000000065","LANDMARKCO":"101","LANDMARKNA":"經濟部","LANDMARKAD":"6300005","ADDRESS":"台北市中正區福州街15號","TEL":"02-23212200","COUNTYNAME":"台北市","TOWNNAME":"中正區","MARKTYPE":"991","Class":"1"},"geometry":{"x":302162.81460000016,"y":2768970.6756999996}},{"attributes":{"OBJECTID":8786,"LANDMARKID":"6300000000066","LANDMARKCO":"101","LANDMARKNA":"人事行政局","LANDMARKAD":"6300005","ADDRESS":"台北市中正區濟南路一段2之2號10樓","TEL":"02-23979298","COUNTYNAME":"台北市","TOWNNAME":"中正區","MARKTYPE":"991","Class":"1"},"geometry":{"x":302469.68570000026,"y":2770631.0505999997}},{"attributes":{"OBJECTID":8787,"LANDMARKID":"6300000000067","LANDMARKCO":"101","LANDMARKNA":"行政院公平交易委員會","LANDMARKAD":"6300005","ADDRESS":"台北市濟南路1段2之2號12樓","TEL":"02-23517588轉45","COUNTYNAME":"台北市","TOWNNAME":"中正區","MARKTYPE":"991","Class":"1"},"geometry":{"x":302469.68570000026,"y":2770631.0505999997}},{"attributes":{"OBJECTID":8788,"LANDMARKID":"6300000000068","LANDMARKCO":"101","LANDMARKNA":"大陸委員會","LANDMARKAD":"6300005","ADDRESS":"台北市中正區濟南路一段2之2號15-18樓","TEL":"02-23975589","COUNTYNAME":"台北市","TOWNNAME":"中正區","MARKTYPE":"991","Class":"1"},"geometry":{"x":302469.68570000026,"y":2770631.0505999997}},{"attributes":{"OBJECTID":8789,"LANDMARKID":"6300000000069","LANDMARKCO":"101","LANDMARKNA":"經濟部標準檢驗局","LANDMARKAD":"6300005","ADDRESS":"台北市中正區濟南路一段4號","TEL":"02-23431700","COUNTYNAME":"台北市","TOWNNAME":"中正區","MARKTYPE":"991","Class":"1"},"geometry":{"x":302544.49010000005,"y":2770612.5131000001}},{"attributes":{"OBJECTID":8790,"LANDMARKID":"6300000000070","LANDMARKCO":"101","LANDMARKNA":"交通部電信總局","LANDMARKAD":"6300005","ADDRESS":"台北市中正區濟南路二段16號","TEL":"02-23433969","COUNTYNAME":"台北市","TOWNNAME":"中正區","MARKTYPE":"991","Class":"1"},"geometry":{"x":303258.42970000021,"y":2770427.2555}},{"attributes":{"OBJECTID":8791,"LANDMARKID":"6300000000071","LANDMARKCO":"101","LANDMARKNA":"中央銀行","LANDMARKAD":"6300005","ADDRESS":"台北市中正區羅斯福路一段2號","TEL":"02-23936161","COUNTYNAME":"台北市","TOWNNAME":"中正區","MARKTYPE":"991","Class":"1"},"geometry":{"x":302165.19990000036,"y":2769662.4077000003}},{"attributes":{"OBJECTID":8792,"LANDMARKID":"6300000000072","LANDMARKCO":"101","LANDMARKNA":"勞工委員會勞工保險局","LANDMARKAD":"6300005","ADDRESS":"台北市中正區羅斯福路一段4號","TEL":"02-23961266","COUNTYNAME":"台北市","TOWNNAME":"中正區","MARKTYPE":"991","Class":"1"},"geometry":{"x":302217.02159999963,"y":2769582.9596999995}},{"attributes":{"OBJECTID":8793,"LANDMARKID":"6300000000073","LANDMARKCO":"101","LANDMARKNA":"經濟建設委員會","LANDMARKAD":"6300005","ADDRESS":"台北市中正區寶慶路3號","TEL":"02-23165300","COUNTYNAME":"台北市","TOWNNAME":"中正區","MARKTYPE":"991","Class":"1"},"geometry":{"x":301808.06390000042,"y":2770438.1295999996}},{"attributes":{"OBJECTID":8794,"LANDMARKID":"6300000000074","LANDMARKCO":"101","LANDMARKNA":"國防部","LANDMARKAD":"6300005","ADDRESS":"台北市中正區博愛路172號","TEL":"02-23116117","COUNTYNAME":"台北市","TOWNNAME":"中正區","MARKTYPE":"991","Class":"1"},"geometry":{"x":301546.51559999958,"y":2769960.568}},{"attributes":{"OBJECTID":8795,"LANDMARKID":"6300000000186","LANDMARKCO":"105","LANDMARKNA":"內政部地政司","LANDMARKAD":"6300005","ADDRESS":"台北市中正區徐州路5號7樓","TEL":"02-23565233","COUNTYNAME":"台北市","TOWNNAME":"中正區","MARKTYPE":"991","Class":"1"},"geometry":{"x":302420.15160000045,"y":2770532.7408000007}},{"attributes":{"OBJECTID":8796,"LANDMARKID":"6300000000198","LANDMARKCO":"106","LANDMARKNA":"台北市中正區戶政事務所","LANDMARKAD":"6300005","ADDRESS":"台北市中正區龍福里4鄰羅斯福路一段8號4樓","TEL":"02-23948838","COUNTYNAME":"台北市","TOWNNAME":"中正區","MARKTYPE":"991","Class":"1"},"geometry":{"x":302294.93809999991,"y":2769473.9163000006}},{"attributes":{"OBJECTID":8797,"LANDMARKID":"6300000000237","LANDMARKCO":"107","LANDMARKNA":"台北市政府警察局總局","LANDMARKAD":"6300005","ADDRESS":"台北市中正區延平南路96號","TEL":"02-23313561","COUNTYNAME":"台北市","TOWNNAME":"中正區","MARKTYPE":"991","Class":"1"},"geometry":{"x":301445.80240000039,"y":2770735.1888999995}},{"attributes":{"OBJECTID":8798,"LANDMARKID":"6300000000238","LANDMARKCO":"107","LANDMARKNA":"台北市政府警察局中正第一分局","LANDMARKAD":"6300005","ADDRESS":"台北市公園路15號","TEL":"02-23119708","COUNTYNAME":"台北市","TOWNNAME":"中正區","MARKTYPE":"991","Class":"1"},"geometry":{"x":302199.38520000037,"y":2770884.2589999996}},{"attributes":{"OBJECTID":8799,"LANDMARKID":"6300000000239","LANDMARKCO":"107","LANDMARKNA":"台北市政府警察局忠孝西路派出","LANDMARKAD":"6300005","ADDRESS":"台北市公園路15號","TEL":"02-23142722","COUNTYNAME":"台北市","TOWNNAME":"中正區","MARKTYPE":"991","Class":"1"},"geometry":{"x":302199.38520000037,"y":2770884.2589999996}},{"attributes":{"OBJECTID":8800,"LANDMARKID":"6300000000240","LANDMARKCO":"107","LANDMARKNA":"台北市政府警察局忠孝東路派出","LANDMARKAD":"6300005","ADDRESS":"台北市中正區忠孝東路二段10號","TEL":"02-23218656","COUNTYNAME":"台北市","TOWNNAME":"中正區","MARKTYPE":"991","Class":"1"},"geometry":{"x":303194.89599999972,"y":2770717.4082999993}}]}