{"displayFieldName":"COUNTYNAME","fieldAliases":{"OBJECTID":"OBJECTID","LANDMARKID":"LANDMARKID","LANDMARKCO":"LANDMARKCO","LANDMARKNA":"LANDMARKNA","LANDMARKAD":"LANDMARKAD","ADDRESS":"ADDRESS","TEL":"TEL","COUNTYNAME":"COUNTYNAME","TOWNNAME":"TOWNNAME","MARKTYPE":"MARKTYPE","Class":"Class"},"geometryType":"esriGeometryPoint","spatialReference":{"wkid":4326},"fields":[{"name":"OBJECTID","type":"esriFieldTypeOID","alias":"OBJECTID"},{"name":"LANDMARKID","type":"esriFieldTypeString","alias":"LANDMARKID","length":15},{"name":"LANDMARKCO","type":"esriFieldTypeString","alias":"LANDMARKCO","length":15},{"name":"LANDMARKNA","type":"esriFieldTypeString","alias":"LANDMARKNA","length":50},{"name":"LANDMARKAD","type":"esriFieldTypeString","alias":"LANDMARKAD","length":15},{"name":"ADDRESS","type":"esriFieldTypeString","alias":"ADDRESS","length":56},{"name":"TEL","type":"esriFieldTypeString","alias":"TEL","length":36},{"name":"COUNTYNAME","type":"esriFieldTypeString","alias":"COUNTYNAME","length":15},{"name":"TOWNNAME","type":"esriFieldTypeString","alias":"TOWNNAME","length":13},{"name":"MARKTYPE","type":"esriFieldTypeString","alias":"MARKTYPE","length":12},{"name":"Class","type":"esriFieldTypeString","alias":"Class","length":5}],"features":[{"attributes":{"OBJECTID":22201,"LANDMARKID":"1000200000794","LANDMARKCO":"603","LANDMARKNA":"和風馥蜂溫泉旅館","LANDMARKAD":"1000205","ADDRESS":"宜蘭縣礁溪鄉忠孝路3號1-4樓","TEL":"03-9881717","COUNTYNAME":"宜蘭縣","TOWNNAME":"礁溪鄉","MARKTYPE":"996","Class":"6"},"geometry":{"x":121.77135598234825,"y":24.8293892276868}},{"attributes":{"OBJECTID":22202,"LANDMARKID":"1000200000795","LANDMARKCO":"603","LANDMARKNA":"華園溫泉旅館","LANDMARKAD":"1000205","ADDRESS":"宜蘭縣礁溪鄉德陽路75號1-5樓","TEL":"03-9882722","COUNTYNAME":"宜蘭縣","TOWNNAME":"礁溪鄉","MARKTYPE":"996","Class":"6"},"geometry":{"x":121.7712149500672,"y":24.828899954802043}},{"attributes":{"OBJECTID":22203,"LANDMARKID":"1000200000796","LANDMARKCO":"603","LANDMARKNA":"明光旅館","LANDMARKAD":"1000205","ADDRESS":"宜蘭縣礁溪鄉德陽路70號1-4樓","TEL":"03-9886834","COUNTYNAME":"宜蘭縣","TOWNNAME":"礁溪鄉","MARKTYPE":"996","Class":"6"},"geometry":{"x":121.77080182979944,"y":24.829204085529071}},{"attributes":{"OBJECTID":22204,"LANDMARKID":"1000200000797","LANDMARKCO":"603","LANDMARKNA":"綠園旅社","LANDMARKAD":"1000205","ADDRESS":"宜蘭縣礁溪鄉德陽路72號1-4樓","TEL":"03-9881851","COUNTYNAME":"宜蘭縣","TOWNNAME":"礁溪鄉","MARKTYPE":"996","Class":"6"},"geometry":{"x":121.77064922022224,"y":24.829105872393932}},{"attributes":{"OBJECTID":22205,"LANDMARKID":"1000200000798","LANDMARKCO":"603","LANDMARKNA":"中信山多利大飯店","LANDMARKAD":"1000205","ADDRESS":"宜蘭縣礁溪鄉興農路291巷1號","TEL":"03-9888288","COUNTYNAME":"宜蘭縣","TOWNNAME":"礁溪鄉","MARKTYPE":"996","Class":"6"},"geometry":{"x":121.77740552577281,"y":24.818513593190282}},{"attributes":{"OBJECTID":22206,"LANDMARKID":"1000200000799","LANDMARKCO":"603","LANDMARKNA":"富泉大飯店","LANDMARKAD":"1000205","ADDRESS":"宜蘭縣礁溪鄉礁溪路五段93號1-4樓","TEL":"03-9881819","COUNTYNAME":"宜蘭縣","TOWNNAME":"礁溪鄉","MARKTYPE":"996","Class":"6"},"geometry":{"x":121.77156655642116,"y":24.826058142060663}},{"attributes":{"OBJECTID":22207,"LANDMARKID":"1000200000800","LANDMARKCO":"603","LANDMARKNA":"和風溫泉會館-礁溪店","LANDMARKAD":"1000205","ADDRESS":"宜蘭縣礁溪鄉礁溪路五段97號","TEL":"03-9881133","COUNTYNAME":"宜蘭縣","TOWNNAME":"礁溪鄉","MARKTYPE":"996","Class":"6"},"geometry":{"x":121.77409934639989,"y":24.828959370552326}},{"attributes":{"OBJECTID":22208,"LANDMARKID":"1000200000801","LANDMARKCO":"603","LANDMARKNA":"龍泉溫泉客棧","LANDMARKAD":"1000205","ADDRESS":"宜蘭縣礁溪鄉礁溪路六段10號","TEL":"03-9882268","COUNTYNAME":"宜蘭縣","TOWNNAME":"礁溪鄉","MARKTYPE":"996","Class":"6"},"geometry":{"x":121.77723039858225,"y":24.829283499661152}},{"attributes":{"OBJECTID":22209,"LANDMARKID":"1000200000802","LANDMARKCO":"603","LANDMARKNA":"亞諾時尚戀館","LANDMARKAD":"1000205","ADDRESS":"宜蘭縣礁溪鄉德陽村仁愛路3號","TEL":"03-9876611","COUNTYNAME":"宜蘭縣","TOWNNAME":"礁溪鄉","MARKTYPE":"996","Class":"6"},"geometry":{"x":121.77126252700843,"y":24.828508709648037}},{"attributes":{"OBJECTID":22210,"LANDMARKID":"1000200001130","LANDMARKCO":"604","LANDMARKNA":"大礁溪左岸民宿","LANDMARKAD":"1000205","ADDRESS":"宜蘭縣礁溪鄉二結村二結路3-2號","TEL":"03-9233678","COUNTYNAME":"宜蘭縣","TOWNNAME":"礁溪鄉","MARKTYPE":"996","Class":"6"},"geometry":{"x":121.67964475559384,"y":24.784940612867548}},{"attributes":{"OBJECTID":22211,"LANDMARKID":"1000200001131","LANDMARKCO":"604","LANDMARKNA":"茶香庭園民宿","LANDMARKAD":"1000205","ADDRESS":"宜蘭縣礁溪鄉二結村二結路20-1號","TEL":"03-9223887","COUNTYNAME":"宜蘭縣","TOWNNAME":"礁溪鄉","MARKTYPE":"996","Class":"6"},"geometry":{"x":121.69148227378318,"y":24.783924121612689}},{"attributes":{"OBJECTID":22212,"LANDMARKID":"1000200001132","LANDMARKCO":"604","LANDMARKNA":"四季園","LANDMARKAD":"1000205","ADDRESS":"宜蘭縣礁溪鄉二結村二結路28-1號","TEL":"03-9231733","COUNTYNAME":"宜蘭縣","TOWNNAME":"礁溪鄉","MARKTYPE":"996","Class":"6"},"geometry":{"x":121.69646508980755,"y":24.784782691192071}},{"attributes":{"OBJECTID":22213,"LANDMARKID":"1000200000810","LANDMARKCO":"603","LANDMARKNA":"不二泉溫泉旅店","LANDMARKAD":"1000205","ADDRESS":"宜蘭縣礁溪鄉德陽路26","TEL":"28號1-3樓","COUNTYNAME":"宜蘭縣","TOWNNAME":"礁溪鄉","MARKTYPE":"996","Class":"6"},"geometry":{"x":121.77200680568137,"y":24.828552868659255}},{"attributes":{"OBJECTID":22214,"LANDMARKID":"1000200000811","LANDMARKCO":"603","LANDMARKNA":"大方旅館","LANDMARKAD":"1000205","ADDRESS":"宜蘭縣礁溪鄉德陽路223","TEL":"225","COUNTYNAME":"宜蘭縣","TOWNNAME":"礁溪鄉","MARKTYPE":"996","Class":"6"},"geometry":{"x":121.7651254895172,"y":24.827032755213278}},{"attributes":{"OBJECTID":22215,"LANDMARKID":"1000200000812","LANDMARKCO":"603","LANDMARKNA":"福岡溫泉汽車旅館 (溫泉世家)","LANDMARKAD":"1000205","ADDRESS":"宜蘭縣礁溪鄉仁愛路132號1-5樓","TEL":"03-9870606","COUNTYNAME":"宜蘭縣","TOWNNAME":"礁溪鄉","MARKTYPE":"996","Class":"6"},"geometry":{"x":121.76788952684149,"y":24.825563781886313}},{"attributes":{"OBJECTID":22216,"LANDMARKID":"1000200000813","LANDMARKCO":"603","LANDMARKNA":"夢雲閣旅社","LANDMARKAD":"1000205","ADDRESS":"宜蘭縣礁溪鄉信義路5號","TEL":"03-9882770","COUNTYNAME":"宜蘭縣","TOWNNAME":"礁溪鄉","MARKTYPE":"996","Class":"6"},"geometry":{"x":121.7708797453656,"y":24.825782014310018}},{"attributes":{"OBJECTID":22217,"LANDMARKID":"1000200000814","LANDMARKCO":"603","LANDMARKNA":"天隆大飯店","LANDMARKAD":"1000205","ADDRESS":"宜蘭縣礁溪鄉礁溪路五段121號","TEL":"03-9882126","COUNTYNAME":"宜蘭縣","TOWNNAME":"礁溪鄉","MARKTYPE":"996","Class":"6"},"geometry":{"x":121.77651532542839,"y":24.829300431585949}},{"attributes":{"OBJECTID":22218,"LANDMARKID":"1000200000815","LANDMARKCO":"603","LANDMARKNA":"野景大飯店","LANDMARKAD":"1000205","ADDRESS":"宜蘭縣礁溪鄉大忠路142號1-6樓","TEL":"03-9889699","COUNTYNAME":"宜蘭縣","TOWNNAME":"礁溪鄉","MARKTYPE":"996","Class":"6"},"geometry":{"x":121.76336369744213,"y":24.825960939940622}},{"attributes":{"OBJECTID":22219,"LANDMARKID":"1000200000816","LANDMARKCO":"603","LANDMARKNA":"凱城山莊","LANDMARKAD":"1000205","ADDRESS":"宜蘭縣礁溪鄉大忠路144號1-4樓","TEL":"03-9870210","COUNTYNAME":"宜蘭縣","TOWNNAME":"礁溪鄉","MARKTYPE":"996","Class":"6"},"geometry":{"x":121.76330401646553,"y":24.825934463758148}},{"attributes":{"OBJECTID":22220,"LANDMARKID":"1000200000817","LANDMARKCO":"603","LANDMARKNA":"溫沙堡花園汽車旅館","LANDMARKAD":"1000205","ADDRESS":"宜蘭縣礁溪鄉大忠路219號","TEL":"03-9873667-8","COUNTYNAME":"宜蘭縣","TOWNNAME":"礁溪鄉","MARKTYPE":"996","Class":"6"},"geometry":{"x":121.76349730890132,"y":24.825562327446747}},{"attributes":{"OBJECTID":22221,"LANDMARKID":"1000200000818","LANDMARKCO":"603","LANDMARKNA":"泉湯溫泉商務旅館","LANDMARKAD":"1000205","ADDRESS":"宜蘭縣礁溪鄉大忠路80號","TEL":"03-9886123","COUNTYNAME":"宜蘭縣","TOWNNAME":"礁溪鄉","MARKTYPE":"996","Class":"6"},"geometry":{"x":121.76565097518227,"y":24.822331433568205}},{"attributes":{"OBJECTID":22222,"LANDMARKID":"1000200000819","LANDMARKCO":"603","LANDMARKNA":"多崙多汽車旅館","LANDMARKAD":"1000205","ADDRESS":"宜蘭縣礁溪鄉大忠路86號1-2樓","TEL":"03-9870858","COUNTYNAME":"宜蘭縣","TOWNNAME":"礁溪鄉","MARKTYPE":"996","Class":"6"},"geometry":{"x":121.76548693003947,"y":24.822667162538441}},{"attributes":{"OBJECTID":22223,"LANDMARKID":"1000200000820","LANDMARKCO":"603","LANDMARKNA":"明池大飯店","LANDMARKAD":"1000205","ADDRESS":"宜蘭縣礁溪鄉五峰路9號","TEL":"03-9887736","COUNTYNAME":"宜蘭縣","TOWNNAME":"礁溪鄉","MARKTYPE":"996","Class":"6"},"geometry":{"x":121.76321809057177,"y":24.826188135268762}},{"attributes":{"OBJECTID":22224,"LANDMARKID":"1000200000821","LANDMARKCO":"603","LANDMARKNA":"金龍溫泉客棧","LANDMARKAD":"1000205","ADDRESS":"宜蘭縣礁溪鄉中山路二段185號","TEL":"03-9882133","COUNTYNAME":"宜蘭縣","TOWNNAME":"礁溪鄉","MARKTYPE":"996","Class":"6"},"geometry":{"x":121.77502481141644,"y":24.827979705163184}},{"attributes":{"OBJECTID":22225,"LANDMARKID":"1000200000822","LANDMARKCO":"603","LANDMARKNA":"玉泉旅館","LANDMARKAD":"1000205","ADDRESS":"宜蘭縣礁溪鄉仁愛路14號","TEL":"03-9884303","COUNTYNAME":"宜蘭縣","TOWNNAME":"礁溪鄉","MARKTYPE":"996","Class":"6"},"geometry":{"x":121.77120261361584,"y":24.828478070530856}},{"attributes":{"OBJECTID":22226,"LANDMARKID":"1000200000823","LANDMARKCO":"603","LANDMARKNA":"美洲山莊","LANDMARKAD":"1000205","ADDRESS":"宜蘭縣礁溪鄉仁愛路22號1-3樓","TEL":"03-9886716","COUNTYNAME":"宜蘭縣","TOWNNAME":"礁溪鄉","MARKTYPE":"996","Class":"6"},"geometry":{"x":121.77083270795019,"y":24.828165893825133}},{"attributes":{"OBJECTID":22227,"LANDMARKID":"1000200000824","LANDMARKCO":"603","LANDMARKNA":"春和大飯店","LANDMARKAD":"1000205","ADDRESS":"宜蘭縣礁溪鄉仁愛路26號1-4樓","TEL":"03-9881892","COUNTYNAME":"宜蘭縣","TOWNNAME":"礁溪鄉","MARKTYPE":"996","Class":"6"},"geometry":{"x":121.77049829094345,"y":24.82832282349268}},{"attributes":{"OBJECTID":22228,"LANDMARKID":"1000200000825","LANDMARKCO":"603","LANDMARKNA":"龍山旅社","LANDMARKAD":"1000205","ADDRESS":"宜蘭縣礁溪鄉仁愛路36號","TEL":"03-9888699","COUNTYNAME":"宜蘭縣","TOWNNAME":"礁溪鄉","MARKTYPE":"996","Class":"6"},"geometry":{"x":121.77024823581299,"y":24.82751293722956}},{"attributes":{"OBJECTID":22229,"LANDMARKID":"1000200000826","LANDMARKCO":"603","LANDMARKNA":"都市叢林溫泉客棧","LANDMARKAD":"1000205","ADDRESS":"宜蘭縣礁溪鄉仁愛路50號","TEL":"03-9870938","COUNTYNAME":"宜蘭縣","TOWNNAME":"礁溪鄉","MARKTYPE":"996","Class":"6"},"geometry":{"x":121.76986766011962,"y":24.82713766709751}},{"attributes":{"OBJECTID":22230,"LANDMARKID":"1000200000827","LANDMARKCO":"603","LANDMARKNA":"中泰旅社","LANDMARKAD":"1000205","ADDRESS":"宜蘭縣礁溪鄉仁愛路6號1-5樓","TEL":"03-9884301","COUNTYNAME":"宜蘭縣","TOWNNAME":"礁溪鄉","MARKTYPE":"996","Class":"6"},"geometry":{"x":121.77137256218707,"y":24.828620770590174}},{"attributes":{"OBJECTID":22231,"LANDMARKID":"1000200000828","LANDMARKCO":"603","LANDMARKNA":"礁溪溫泉旅館","LANDMARKAD":"1000205","ADDRESS":"宜蘭縣礁溪鄉仁愛路8號","TEL":"03-9881767","COUNTYNAME":"宜蘭縣","TOWNNAME":"礁溪鄉","MARKTYPE":"996","Class":"6"},"geometry":{"x":121.77133254800013,"y":24.828585069745344}},{"attributes":{"OBJECTID":22232,"LANDMARKID":"1000200000829","LANDMARKCO":"603","LANDMARKNA":"戀戀溫泉旅館","LANDMARKAD":"1000205","ADDRESS":"宜蘭縣礁溪鄉仁愛路9號1-2樓","TEL":"03-9882882","COUNTYNAME":"宜蘭縣","TOWNNAME":"礁溪鄉","MARKTYPE":"996","Class":"6"},"geometry":{"x":121.77114979979039,"y":24.828207764847587}},{"attributes":{"OBJECTID":22233,"LANDMARKID":"1000200000830","LANDMARKCO":"603","LANDMARKNA":"家園溫泉旅社","LANDMARKAD":"1000205","ADDRESS":"宜蘭縣礁溪鄉溫泉路10號","TEL":"03-9882171","COUNTYNAME":"宜蘭縣","TOWNNAME":"礁溪鄉","MARKTYPE":"996","Class":"6"},"geometry":{"x":121.77499480101504,"y":24.827351805270244}},{"attributes":{"OBJECTID":22234,"LANDMARKID":"1000200000831","LANDMARKCO":"603","LANDMARKNA":"雪山溫泉會館","LANDMARKAD":"1000205","ADDRESS":"宜蘭縣礁溪鄉中山路二段159號3-8樓","TEL":"03-9883899","COUNTYNAME":"宜蘭縣","TOWNNAME":"礁溪鄉","MARKTYPE":"996","Class":"6"},"geometry":{"x":121.77407408344823,"y":24.82729814629144}},{"attributes":{"OBJECTID":22235,"LANDMARKID":"1000200000832","LANDMARKCO":"603","LANDMARKNA":"嵩悅溫泉旅館","LANDMARKAD":"1000205","ADDRESS":"宜蘭縣礁溪鄉信義路32號1-3樓","TEL":"03-9885889","COUNTYNAME":"宜蘭縣","TOWNNAME":"礁溪鄉","MARKTYPE":"996","Class":"6"},"geometry":{"x":121.7705104599942,"y":24.826318493652071}},{"attributes":{"OBJECTID":22236,"LANDMARKID":"1000200000833","LANDMARKCO":"603","LANDMARKNA":"川湯御溫泉會館","LANDMARKAD":"1000205","ADDRESS":"宜蘭縣礁溪鄉德陽路35號","TEL":"03-9882522","COUNTYNAME":"宜蘭縣","TOWNNAME":"礁溪鄉","MARKTYPE":"996","Class":"6"},"geometry":{"x":121.7721170558348,"y":24.828026241714284}},{"attributes":{"OBJECTID":22237,"LANDMARKID":"1000200000834","LANDMARKCO":"603","LANDMARKNA":"川湯春天溫泉飯店","LANDMARKAD":"1000205","ADDRESS":"宜蘭縣礁溪鄉德陽路43號1-8樓","TEL":"03-9889889","COUNTYNAME":"宜蘭縣","TOWNNAME":"礁溪鄉","MARKTYPE":"996","Class":"6"},"geometry":{"x":121.77182288076868,"y":24.828236931689478}},{"attributes":{"OBJECTID":22238,"LANDMARKID":"1000200000835","LANDMARKCO":"603","LANDMARKNA":"金格溫泉旅館","LANDMARKAD":"1000205","ADDRESS":"宜蘭縣礁溪鄉礁溪路五段148號1-3樓","TEL":"03-9874328","COUNTYNAME":"宜蘭縣","TOWNNAME":"礁溪鄉","MARKTYPE":"996","Class":"6"},"geometry":{"x":121.77327682122086,"y":24.828218170746116}},{"attributes":{"OBJECTID":22239,"LANDMARKID":"1000200000836","LANDMARKCO":"603","LANDMARKNA":"帝王大旅社","LANDMARKAD":"1000205","ADDRESS":"宜蘭縣礁溪鄉礁溪路五段156號","TEL":"03-9883769","COUNTYNAME":"宜蘭縣","TOWNNAME":"礁溪鄉","MARKTYPE":"996","Class":"6"},"geometry":{"x":121.77385401526453,"y":24.828492076524842}},{"attributes":{"OBJECTID":22240,"LANDMARKID":"1000200000837","LANDMARKCO":"603","LANDMARKNA":"亞都旅館","LANDMARKAD":"1000205","ADDRESS":"宜蘭縣礁溪鄉礁溪路五段15號","TEL":"03-9885704","COUNTYNAME":"宜蘭縣","TOWNNAME":"礁溪鄉","MARKTYPE":"996","Class":"6"},"geometry":{"x":121.77126819813292,"y":24.825994687490084}},{"attributes":{"OBJECTID":22241,"LANDMARKID":"1000200000838","LANDMARKCO":"603","LANDMARKNA":"雀兒喜渡假旅館","LANDMARKAD":"1000205","ADDRESS":"宜蘭縣礁溪鄉礁溪路五段182號1-4樓","TEL":"03-9889510","COUNTYNAME":"宜蘭縣","TOWNNAME":"礁溪鄉","MARKTYPE":"996","Class":"6"},"geometry":{"x":121.77486577763779,"y":24.828707303931154}},{"attributes":{"OBJECTID":22242,"LANDMARKID":"1000200000839","LANDMARKCO":"603","LANDMARKNA":"賓士旅館","LANDMARKAD":"1000205","ADDRESS":"宜蘭縣礁溪鄉礁溪路五段21號","TEL":"03-9887966","COUNTYNAME":"宜蘭縣","TOWNNAME":"礁溪鄉","MARKTYPE":"996","Class":"6"},"geometry":{"x":121.77130022082174,"y":24.826183952665861}},{"attributes":{"OBJECTID":22243,"LANDMARKID":"1000200000840","LANDMARKCO":"603","LANDMARKNA":"鄉都溫泉旅館","LANDMARKAD":"1000205","ADDRESS":"宜蘭縣礁溪鄉礁溪路五段27號","TEL":"03-9886018","COUNTYNAME":"宜蘭縣","TOWNNAME":"礁溪鄉","MARKTYPE":"996","Class":"6"},"geometry":{"x":121.77137136358563,"y":24.826336700640031}},{"attributes":{"OBJECTID":22244,"LANDMARKID":"1000200000841","LANDMARKCO":"603","LANDMARKNA":"華欣旅館","LANDMARKAD":"1000205","ADDRESS":"宜蘭縣礁溪鄉礁溪路五段70號","TEL":"03-9883669","COUNTYNAME":"宜蘭縣","TOWNNAME":"礁溪鄉","MARKTYPE":"996","Class":"6"},"geometry":{"x":121.77172824374429,"y":24.826396215531954}},{"attributes":{"OBJECTID":22245,"LANDMARKID":"1000200000842","LANDMARKCO":"603","LANDMARKNA":"清泉旅社","LANDMARKAD":"1000205","ADDRESS":"宜蘭縣礁溪鄉礁溪路五段77號","TEL":"03-9882064","COUNTYNAME":"宜蘭縣","TOWNNAME":"礁溪鄉","MARKTYPE":"996","Class":"6"},"geometry":{"x":121.77266140881254,"y":24.828052995481944}},{"attributes":{"OBJECTID":22246,"LANDMARKID":"1000200000843","LANDMARKCO":"603","LANDMARKNA":"川湯溫泉養生館","LANDMARKAD":"1000205","ADDRESS":"宜蘭縣礁溪鄉中山路二段218號1-3樓","TEL":"03-9880606","COUNTYNAME":"宜蘭縣","TOWNNAME":"礁溪鄉","MARKTYPE":"996","Class":"6"},"geometry":{"x":121.77548904300915,"y":24.827920720973381}},{"attributes":{"OBJECTID":22247,"LANDMARKID":"1000200000844","LANDMARKCO":"603","LANDMARKNA":"帥王大飯店","LANDMARKAD":"1000205","ADDRESS":"宜蘭縣礁溪鄉公園路1號","TEL":"03-9874591","COUNTYNAME":"宜蘭縣","TOWNNAME":"礁溪鄉","MARKTYPE":"996","Class":"6"},"geometry":{"x":121.77650723538365,"y":24.829444969330847}},{"attributes":{"OBJECTID":22248,"LANDMARKID":"1000200000845","LANDMARKCO":"603","LANDMARKNA":"長崎大飯店","LANDMARKAD":"1000205","ADDRESS":"宜蘭縣礁溪鄉德陽路243號1-6樓","TEL":"03-9887607","COUNTYNAME":"宜蘭縣","TOWNNAME":"礁溪鄉","MARKTYPE":"996","Class":"6"},"geometry":{"x":121.76430946620252,"y":24.826452973570436}},{"attributes":{"OBJECTID":22249,"LANDMARKID":"1000200000846","LANDMARKCO":"603","LANDMARKNA":"理想溫泉飯店","LANDMARKAD":"1000205","ADDRESS":"宜蘭縣礁溪鄉德陽路160號1-3樓","TEL":"03-9883610","COUNTYNAME":"宜蘭縣","TOWNNAME":"礁溪鄉","MARKTYPE":"996","Class":"6"},"geometry":{"x":121.76705000500667,"y":24.828669036197891}},{"attributes":{"OBJECTID":22250,"LANDMARKID":"1000200000847","LANDMARKCO":"603","LANDMARKNA":"統淵大旅社","LANDMARKAD":"1000205","ADDRESS":"宜蘭縣礁溪鄉德陽路65號","TEL":"03-9888376","COUNTYNAME":"宜蘭縣","TOWNNAME":"礁溪鄉","MARKTYPE":"996","Class":"6"},"geometry":{"x":121.77153027027728,"y":24.828574001304396}},{"attributes":{"OBJECTID":22251,"LANDMARKID":"1000200000848","LANDMARKCO":"603","LANDMARKNA":"三光旅社","LANDMARKAD":"1000205","ADDRESS":"宜蘭縣礁溪鄉礁溪路五段85號","TEL":"03-9882128","COUNTYNAME":"宜蘭縣","TOWNNAME":"礁溪鄉","MARKTYPE":"996","Class":"6"},"geometry":{"x":121.77281180033674,"y":24.828213951283512}},{"attributes":{"OBJECTID":22252,"LANDMARKID":"1000200000849","LANDMARKCO":"603","LANDMARKNA":"紅燈籠商務汽車旅館","LANDMARKAD":"1000205","ADDRESS":"宜蘭縣礁溪鄉中山路二段246號1-4樓","TEL":"03-9874767","COUNTYNAME":"宜蘭縣","TOWNNAME":"礁溪鄉","MARKTYPE":"996","Class":"6"},"geometry":{"x":121.77610053278235,"y":24.828564415053975}},{"attributes":{"OBJECTID":22253,"LANDMARKID":"1000200000850","LANDMARKCO":"603","LANDMARKNA":"山口旅館","LANDMARKAD":"1000205","ADDRESS":"宜蘭縣礁溪鄉五峰路2號1-5樓","TEL":"03-9889273","COUNTYNAME":"宜蘭縣","TOWNNAME":"礁溪鄉","MARKTYPE":"996","Class":"6"},"geometry":{"x":121.76348427861343,"y":24.826113190269833}},{"attributes":{"OBJECTID":22254,"LANDMARKID":"1000200000851","LANDMARKCO":"603","LANDMARKNA":"皇泰大飯店","LANDMARKAD":"1000205","ADDRESS":"宜蘭縣礁溪鄉仁愛路100號1-6樓","TEL":"03-9882009","COUNTYNAME":"宜蘭縣","TOWNNAME":"礁溪鄉","MARKTYPE":"996","Class":"6"},"geometry":{"x":121.76860929026851,"y":24.826170313083921}},{"attributes":{"OBJECTID":22255,"LANDMARKID":"1000200000852","LANDMARKCO":"603","LANDMARKNA":"媚登峰大飯店","LANDMARKAD":"1000205","ADDRESS":"宜蘭縣礁溪鄉公園路3號","TEL":"03-9882899","COUNTYNAME":"宜蘭縣","TOWNNAME":"礁溪鄉","MARKTYPE":"996","Class":"6"},"geometry":{"x":121.77640921750026,"y":24.829518213773362}},{"attributes":{"OBJECTID":22256,"LANDMARKID":"1000200000853","LANDMARKCO":"603","LANDMARKNA":"庭園汽車旅館","LANDMARKAD":"1000205","ADDRESS":"宜蘭縣礁溪鄉白雲路125號之5","TEL":"03-9870591","COUNTYNAME":"宜蘭縣","TOWNNAME":"礁溪鄉","MARKTYPE":"996","Class":"6"},"geometry":{"x":121.78609856340047,"y":24.832809795258612}},{"attributes":{"OBJECTID":22257,"LANDMARKID":"1000200000854","LANDMARKCO":"603","LANDMARKNA":"成都溫泉旅館","LANDMARKAD":"1000205","ADDRESS":"宜蘭縣礁溪鄉忠孝路5號1-4樓","TEL":"03-9886617","COUNTYNAME":"宜蘭縣","TOWNNAME":"礁溪鄉","MARKTYPE":"996","Class":"6"},"geometry":{"x":121.77141073838743,"y":24.829306529849404}},{"attributes":{"OBJECTID":22258,"LANDMARKID":"1000200000855","LANDMARKCO":"603","LANDMARKNA":"亞仕登山莊","LANDMARKAD":"1000205","ADDRESS":"宜蘭縣礁溪鄉忠孝路7號","TEL":"03-9884666","COUNTYNAME":"宜蘭縣","TOWNNAME":"礁溪鄉","MARKTYPE":"996","Class":"6"},"geometry":{"x":121.77141152064139,"y":24.829369720398539}},{"attributes":{"OBJECTID":22259,"LANDMARKID":"1000200000856","LANDMARKCO":"603","LANDMARKNA":"香賓旅社","LANDMARKAD":"1000205","ADDRESS":"宜蘭縣礁溪鄉忠孝路8號","TEL":"03-9885816","COUNTYNAME":"宜蘭縣","TOWNNAME":"礁溪鄉","MARKTYPE":"996","Class":"6"},"geometry":{"x":121.77187800451969,"y":24.829491302201227}},{"attributes":{"OBJECTID":22260,"LANDMARKID":"1000200000857","LANDMARKCO":"603","LANDMARKNA":"利美溫泉旅館","LANDMARKAD":"1000205","ADDRESS":"宜蘭縣礁溪鄉德陽路110號1-4樓","TEL":"03-9888391","COUNTYNAME":"宜蘭縣","TOWNNAME":"礁溪鄉","MARKTYPE":"996","Class":"6"},"geometry":{"x":121.76830193555007,"y":24.829107596477932}},{"attributes":{"OBJECTID":22261,"LANDMARKID":"1000200000858","LANDMARKCO":"603","LANDMARKNA":"楓林旅館","LANDMARKAD":"1000205","ADDRESS":"宜蘭縣礁溪鄉德陽路131號1-3樓","TEL":"03-9885172","COUNTYNAME":"宜蘭縣","TOWNNAME":"礁溪鄉","MARKTYPE":"996","Class":"6"},"geometry":{"x":121.76866392025353,"y":24.828778855029775}},{"attributes":{"OBJECTID":22262,"LANDMARKID":"1000200000859","LANDMARKCO":"603","LANDMARKNA":"名人旅館","LANDMARKAD":"1000205","ADDRESS":"宜蘭縣礁溪鄉德陽路136號","TEL":"03-9882890","COUNTYNAME":"宜蘭縣","TOWNNAME":"礁溪鄉","MARKTYPE":"996","Class":"6"},"geometry":{"x":121.7676587443669,"y":24.829096148587574}},{"attributes":{"OBJECTID":22263,"LANDMARKID":"1000200000860","LANDMARKCO":"603","LANDMARKNA":"紘冠飯店","LANDMARKAD":"1000205","ADDRESS":"宜蘭縣礁溪鄉德陽路140號","TEL":"03-9873388","COUNTYNAME":"宜蘭縣","TOWNNAME":"礁溪鄉","MARKTYPE":"996","Class":"6"},"geometry":{"x":121.76758816658358,"y":24.828988532641016}},{"attributes":{"OBJECTID":22264,"LANDMARKID":"1000200000861","LANDMARKCO":"603","LANDMARKNA":"美嘉美大飯店","LANDMARKAD":"1000205","ADDRESS":"宜蘭縣礁溪鄉德陽路150號","TEL":"03-9881937","COUNTYNAME":"宜蘭縣","TOWNNAME":"礁溪鄉","MARKTYPE":"996","Class":"6"},"geometry":{"x":121.76732964463368,"y":24.828882847390165}},{"attributes":{"OBJECTID":22265,"LANDMARKID":"1000200000862","LANDMARKCO":"603","LANDMARKNA":"高仕旅館","LANDMARKAD":"1000205","ADDRESS":"宜蘭縣礁溪鄉德陽路154號1-5樓","TEL":"03-9881991","COUNTYNAME":"宜蘭縣","TOWNNAME":"礁溪鄉","MARKTYPE":"996","Class":"6"},"geometry":{"x":121.76720983025565,"y":24.828793792859578}},{"attributes":{"OBJECTID":22266,"LANDMARKID":"1000200000863","LANDMARKCO":"603","LANDMARKNA":"和風嘉一溫泉大飯店","LANDMARKAD":"1000205","ADDRESS":"宜蘭縣礁溪鄉德陽路16號","TEL":"03-9881211","COUNTYNAME":"宜蘭縣","TOWNNAME":"礁溪鄉","MARKTYPE":"996","Class":"6"},"geometry":{"x":121.77221966754495,"y":24.82832311759385}},{"attributes":{"OBJECTID":22267,"LANDMARKID":"1000200000864","LANDMARKCO":"603","LANDMARKNA":"愛娜山莊","LANDMARKAD":"1000205","ADDRESS":"宜蘭縣礁溪鄉德陽路175號1-4樓","TEL":"03-9886205","COUNTYNAME":"宜蘭縣","TOWNNAME":"礁溪鄉","MARKTYPE":"996","Class":"6"},"geometry":{"x":121.76700609992028,"y":24.828317381861449}},{"attributes":{"OBJECTID":22268,"LANDMARKID":"1000200000865","LANDMARKCO":"603","LANDMARKNA":"紅葉旅館","LANDMARKAD":"1000205","ADDRESS":"宜蘭縣礁溪鄉德陽路193號","TEL":"03-9885618","COUNTYNAME":"宜蘭縣","TOWNNAME":"礁溪鄉","MARKTYPE":"996","Class":"6"},"geometry":{"x":121.76548577997126,"y":24.827181262640043}},{"attributes":{"OBJECTID":22269,"LANDMARKID":"1000200000866","LANDMARKCO":"603","LANDMARKNA":"秀姍旅館","LANDMARKAD":"1000205","ADDRESS":"宜蘭縣礁溪鄉德陽路198號","TEL":"03-9881938","COUNTYNAME":"宜蘭縣","TOWNNAME":"礁溪鄉","MARKTYPE":"996","Class":"6"},"geometry":{"x":121.76511111376385,"y":24.82728440941175}},{"attributes":{"OBJECTID":22270,"LANDMARKID":"1000200000867","LANDMARKCO":"603","LANDMARKNA":"星輝溫泉旅館","LANDMARKAD":"1000205","ADDRESS":"宜蘭縣礁溪鄉德陽路199號1-3樓","TEL":"03-9874922","COUNTYNAME":"宜蘭縣","TOWNNAME":"礁溪鄉","MARKTYPE":"996","Class":"6"},"geometry":{"x":121.76533673839927,"y":24.827128618301039}},{"attributes":{"OBJECTID":22271,"LANDMARKID":"1000200000868","LANDMARKCO":"603","LANDMARKNA":"東京大飯店","LANDMARKAD":"1000205","ADDRESS":"宜蘭縣礁溪鄉德陽路257號1-5樓","TEL":"03-9887921","COUNTYNAME":"宜蘭縣","TOWNNAME":"礁溪鄉","MARKTYPE":"996","Class":"6"},"geometry":{"x":121.7637501330496,"y":24.82601116319811}},{"attributes":{"OBJECTID":22272,"LANDMARKID":"1000200000869","LANDMARKCO":"603","LANDMARKNA":"意大利旅館","LANDMARKAD":"1000205","ADDRESS":"宜蘭縣礁溪鄉德陽路258號","TEL":"03-9885998","COUNTYNAME":"宜蘭縣","TOWNNAME":"礁溪鄉","MARKTYPE":"996","Class":"6"},"geometry":{"x":121.76363398077966,"y":24.826220001548556}},{"attributes":{"OBJECTID":22273,"LANDMARKID":"1000200000870","LANDMARKCO":"603","LANDMARKNA":"夢芝鄉旅社","LANDMARKAD":"1000205","ADDRESS":"宜蘭縣礁溪鄉德陽路96號1-5樓","TEL":"03-9884717","COUNTYNAME":"宜蘭縣","TOWNNAME":"礁溪鄉","MARKTYPE":"996","Class":"6"},"geometry":{"x":121.76890411081375,"y":24.82900209361339}},{"attributes":{"OBJECTID":22274,"LANDMARKID":"1000200000871","LANDMARKCO":"603","LANDMARKNA":"憶金香商務汽車旅館","LANDMARKAD":"1000205","ADDRESS":"宜蘭縣礁溪鄉礁溪路一段97號","TEL":"03-9287775","COUNTYNAME":"宜蘭縣","TOWNNAME":"礁溪鄉","MARKTYPE":"996","Class":"6"},"geometry":{"x":121.76124559324239,"y":24.785608925774806}},{"attributes":{"OBJECTID":22275,"LANDMARKID":"1000200000872","LANDMARKCO":"603","LANDMARKNA":"芝加哥商務汽車旅館","LANDMARKAD":"1000205","ADDRESS":"宜蘭縣礁溪鄉礁溪路七段50號","TEL":"03-9887000","COUNTYNAME":"宜蘭縣","TOWNNAME":"礁溪鄉","MARKTYPE":"996","Class":"6"},"geometry":{"x":121.78488540466671,"y":24.836063622132482}},{"attributes":{"OBJECTID":22276,"LANDMARKID":"1000200000873","LANDMARKCO":"603","LANDMARKNA":"元隆大飯店","LANDMARKAD":"1000205","ADDRESS":"宜蘭縣礁溪鄉礁溪路五段112號","TEL":"03-9888619","COUNTYNAME":"宜蘭縣","TOWNNAME":"礁溪鄉","MARKTYPE":"996","Class":"6"},"geometry":{"x":121.77234157396117,"y":24.827198697090708}},{"attributes":{"OBJECTID":22277,"LANDMARKID":"1000200000874","LANDMARKCO":"603","LANDMARKNA":"和斯頓精緻溫泉旅館","LANDMARKAD":"1000205","ADDRESS":"宜蘭縣礁溪鄉礁溪路五段99號1-5樓","TEL":"03-9888178","COUNTYNAME":"宜蘭縣","TOWNNAME":"礁溪鄉","MARKTYPE":"996","Class":"6"},"geometry":{"x":121.77413603438963,"y":24.828895431702229}},{"attributes":{"OBJECTID":22278,"LANDMARKID":"1000200000875","LANDMARKCO":"603","LANDMARKNA":"華城大旅社","LANDMARKAD":"1000205","ADDRESS":"宜蘭縣礁溪鄉礁溪路六段12號","TEL":"03-9887169","COUNTYNAME":"宜蘭縣","TOWNNAME":"礁溪鄉","MARKTYPE":"996","Class":"6"},"geometry":{"x":121.77717785122576,"y":24.829275489597602}},{"attributes":{"OBJECTID":22279,"LANDMARKID":"1000200000876","LANDMARKCO":"603","LANDMARKNA":"麗翔溫泉客棧","LANDMARKAD":"1000205","ADDRESS":"宜蘭縣礁溪鄉礁溪路六段6號1-2","TEL":"7-9樓","COUNTYNAME":"宜蘭縣","TOWNNAME":"礁溪鄉","MARKTYPE":"996","Class":"6"},"geometry":{"x":121.77705858640009,"y":24.829231587714588}},{"attributes":{"OBJECTID":22280,"LANDMARKID":"1000200000877","LANDMARKCO":"603","LANDMARKNA":"麗堡大飯店","LANDMARKAD":"1000205","ADDRESS":"宜蘭縣礁溪鄉礁溪路六段6號3-6樓","TEL":"03-9874888","COUNTYNAME":"宜蘭縣","TOWNNAME":"礁溪鄉","MARKTYPE":"996","Class":"6"},"geometry":{"x":121.77705858640009,"y":24.829231587714588}},{"attributes":{"OBJECTID":22281,"LANDMARKID":"1000200000878","LANDMARKCO":"603","LANDMARKNA":"鴻園大飯店","LANDMARKAD":"1000205","ADDRESS":"宜蘭縣礁溪鄉礁溪路五段118號3-4樓","TEL":"03-9888565","COUNTYNAME":"宜蘭縣","TOWNNAME":"礁溪鄉","MARKTYPE":"996","Class":"6"},"geometry":{"x":121.77241395184079,"y":24.827450743145832}},{"attributes":{"OBJECTID":22282,"LANDMARKID":"1000200000879","LANDMARKCO":"603","LANDMARKNA":"慶麥大飯店","LANDMARKAD":"1000205","ADDRESS":"宜蘭縣礁溪鄉礁溪路五段118號5-6樓","TEL":"03-9882233","COUNTYNAME":"宜蘭縣","TOWNNAME":"礁溪鄉","MARKTYPE":"996","Class":"6"},"geometry":{"x":121.77241395184079,"y":24.827450743145832}},{"attributes":{"OBJECTID":22283,"LANDMARKID":"1000200000880","LANDMARKCO":"603","LANDMARKNA":"天然旅館","LANDMARKAD":"1000205","ADDRESS":"宜蘭縣礁溪鄉德陽村德陽路71號","TEL":"03-9883433","COUNTYNAME":"宜蘭縣","TOWNNAME":"礁溪鄉","MARKTYPE":"996","Class":"6"},"geometry":{"x":121.77133579109028,"y":24.828846858532774}},{"attributes":{"OBJECTID":22284,"LANDMARKID":"1000200001113","LANDMARKCO":"604","LANDMARKNA":"巴布豆民宿","LANDMARKAD":"1000205","ADDRESS":"宜蘭縣礁溪鄉玉石村玉石路40-1號","TEL":"03-9889998","COUNTYNAME":"宜蘭縣","TOWNNAME":"礁溪鄉","MARKTYPE":"996","Class":"6"},"geometry":{"x":121.78115342767212,"y":24.832928365515237}},{"attributes":{"OBJECTID":22285,"LANDMARKID":"1000200001114","LANDMARKCO":"604","LANDMARKNA":"溫泉家","LANDMARKAD":"1000205","ADDRESS":"宜蘭縣礁溪鄉玉石路50之6號","TEL":"03-9885169","COUNTYNAME":"宜蘭縣","TOWNNAME":"礁溪鄉","MARKTYPE":"996","Class":"6"},"geometry":{"x":121.7836546246555,"y":24.82686791175367}},{"attributes":{"OBJECTID":22286,"LANDMARKID":"1000200001115","LANDMARKCO":"604","LANDMARKNA":"緣溫泉民宿","LANDMARKAD":"1000205","ADDRESS":"宜蘭縣礁溪鄉白雲路5-3號","TEL":"03-9888888","COUNTYNAME":"宜蘭縣","TOWNNAME":"礁溪鄉","MARKTYPE":"996","Class":"6"},"geometry":{"x":121.78219186980931,"y":24.837250920836361}},{"attributes":{"OBJECTID":22287,"LANDMARKID":"1000200001116","LANDMARKCO":"604","LANDMARKNA":"正華陶藝休閒民宿","LANDMARKAD":"1000205","ADDRESS":"宜蘭縣礁溪鄉時潮村大塭路18-4號","TEL":"03-9882740","COUNTYNAME":"宜蘭縣","TOWNNAME":"礁溪鄉","MARKTYPE":"996","Class":"6"},"geometry":{"x":121.80233814269026,"y":24.81781118602035}},{"attributes":{"OBJECTID":22288,"LANDMARKID":"1000200001117","LANDMARKCO":"604","LANDMARKNA":"巴黎渡假別墅","LANDMARKAD":"1000205","ADDRESS":"宜蘭縣礁溪鄉時潮村大塭路34-1號","TEL":"03-9888748","COUNTYNAME":"宜蘭縣","TOWNNAME":"礁溪鄉","MARKTYPE":"996","Class":"6"},"geometry":{"x":121.80889094426765,"y":24.816006913377773}},{"attributes":{"OBJECTID":22289,"LANDMARKID":"1000200001118","LANDMARKCO":"604","LANDMARKNA":"金桔村","LANDMARKAD":"1000205","ADDRESS":"宜蘭縣礁溪鄉匏崙村匏杓崙路111-1號","TEL":"03-9284188","COUNTYNAME":"宜蘭縣","TOWNNAME":"礁溪鄉","MARKTYPE":"996","Class":"6"},"geometry":{"x":121.71396730662957,"y":24.809604297233069}},{"attributes":{"OBJECTID":22290,"LANDMARKID":"1000200001119","LANDMARKCO":"604","LANDMARKNA":"鯛之家","LANDMARKAD":"1000205","ADDRESS":"宜蘭縣礁溪鄉時潮村大塭路23-6號","TEL":"03-9883722","COUNTYNAME":"宜蘭縣","TOWNNAME":"礁溪鄉","MARKTYPE":"996","Class":"6"},"geometry":{"x":121.79956897042149,"y":24.823712297049674}},{"attributes":{"OBJECTID":22291,"LANDMARKID":"1000200001120","LANDMARKCO":"604","LANDMARKNA":"林美金棗園","LANDMARKAD":"1000205","ADDRESS":"宜蘭縣礁溪鄉林美村林尾路42之9號","TEL":"03-9873988","COUNTYNAME":"宜蘭縣","TOWNNAME":"礁溪鄉","MARKTYPE":"996","Class":"6"},"geometry":{"x":121.75331974820158,"y":24.821298972698482}},{"attributes":{"OBJECTID":22292,"LANDMARKID":"1000200001121","LANDMARKCO":"604","LANDMARKNA":"大竹圍民宿","LANDMARKAD":"1000205","ADDRESS":"宜蘭縣礁溪鄉白雲村16鄰白雲路169之10號","TEL":"0987-305565","COUNTYNAME":"宜蘭縣","TOWNNAME":"礁溪鄉","MARKTYPE":"996","Class":"6"},"geometry":{"x":121.79369203529538,"y":24.830299780550313}},{"attributes":{"OBJECTID":22293,"LANDMARKID":"1000200000734","LANDMARKCO":"601","LANDMARKNA":"礁溪老爺大酒店","LANDMARKAD":"1000205","ADDRESS":"宜蘭縣礁溪鄉大忠村五峰路69號、69-1號","TEL":"03-988-6288","COUNTYNAME":"宜蘭縣","TOWNNAME":"礁溪鄉","MARKTYPE":"996","Class":"6"},"geometry":{"x":121.75730689670331,"y":24.827375702046552}},{"attributes":{"OBJECTID":22294,"LANDMARKID":"1000200000639","LANDMARKCO":"503","LANDMARKNA":"五峰旗風景區","LANDMARKAD":"1000205","ADDRESS":"宜蘭縣礁溪鄉五峰路","TEL":"03-9880940","COUNTYNAME":"宜蘭縣","TOWNNAME":"礁溪鄉","MARKTYPE":"995","Class":"5"},"geometry":{"x":121.74783127012874,"y":24.831433052003678}},{"attributes":{"OBJECTID":22295,"LANDMARKID":"1000200000698","LANDMARKCO":"508","LANDMARKNA":"山口溫泉飯店","LANDMARKAD":"1000205","ADDRESS":"宜蘭縣礁溪鄉五峰路2號","TEL":"03-9889273","COUNTYNAME":"宜蘭縣","TOWNNAME":"礁溪鄉","MARKTYPE":"995","Class":"5"},"geometry":{"x":121.76348719391616,"y":24.826136264673899}},{"attributes":{"OBJECTID":22296,"LANDMARKID":"1000200000699","LANDMARKCO":"508","LANDMARKNA":"野景溫泉大飯店","LANDMARKAD":"1000205","ADDRESS":"宜蘭縣礁溪鄉大忠路142號","TEL":"03-9889899","COUNTYNAME":"宜蘭縣","TOWNNAME":"礁溪鄉","MARKTYPE":"995","Class":"5"},"geometry":{"x":121.76364775313981,"y":24.825884312689528}},{"attributes":{"OBJECTID":22297,"LANDMARKID":"1000200000700","LANDMARKCO":"508","LANDMARKNA":"有愛日式露天觀景養生館","LANDMARKAD":"1000205","ADDRESS":"宜蘭縣礁溪鄉仁愛路134號","TEL":"03-9887469","COUNTYNAME":"宜蘭縣","TOWNNAME":"礁溪鄉","MARKTYPE":"995","Class":"5"},"geometry":{"x":121.76777729496693,"y":24.825523682282785}},{"attributes":{"OBJECTID":22298,"LANDMARKID":"1000200000701","LANDMARKCO":"508","LANDMARKNA":"春和日式大浴池","LANDMARKAD":"1000205","ADDRESS":"宜蘭縣礁溪鄉仁愛路26號","TEL":"03-9889715","COUNTYNAME":"宜蘭縣","TOWNNAME":"礁溪鄉","MARKTYPE":"995","Class":"5"},"geometry":{"x":121.77048820972749,"y":24.828301932156648}},{"attributes":{"OBJECTID":22299,"LANDMARKID":"1000200000702","LANDMARKCO":"508","LANDMARKNA":"湯圍溝公園","LANDMARKAD":"1000205","ADDRESS":"宜蘭縣礁溪鄉德陽路99之11號","TEL":"03-9874882","COUNTYNAME":"宜蘭縣","TOWNNAME":"礁溪鄉","MARKTYPE":"995","Class":"5"},"geometry":{"x":121.76994859665118,"y":24.828798357296247}},{"attributes":{"OBJECTID":22300,"LANDMARKID":"1000200000703","LANDMARKCO":"508","LANDMARKNA":"福岡溫泉渡假飯店","LANDMARKAD":"1000205","ADDRESS":"宜蘭縣礁溪鄉德陽路62巷6號","TEL":"03-9887999","COUNTYNAME":"宜蘭縣","TOWNNAME":"礁溪鄉","MARKTYPE":"995","Class":"5"},"geometry":{"x":121.76988426723807,"y":24.829874372654785}},{"attributes":{"OBJECTID":22301,"LANDMARKID":"1000200000704","LANDMARKCO":"508","LANDMARKNA":"湯圍溝公園大眾浴池","LANDMARKAD":"1000205","ADDRESS":"宜蘭縣礁溪鄉德陽路99之11號","TEL":"03-9874882","COUNTYNAME":"宜蘭縣","TOWNNAME":"礁溪鄉","MARKTYPE":"995","Class":"5"},"geometry":{"x":121.76994640008968,"y":24.828737179135903}},{"attributes":{"OBJECTID":22302,"LANDMARKID":"1000200000705","LANDMARKCO":"508","LANDMARKNA":"美琪溫泉旅館","LANDMARKAD":"1000205","ADDRESS":"宜蘭縣礁溪鄉仁愛路2號","TEL":"03-9885966","COUNTYNAME":"宜蘭縣","TOWNNAME":"礁溪鄉","MARKTYPE":"995","Class":"5"},"geometry":{"x":121.77143192359902,"y":24.828704249186039}},{"attributes":{"OBJECTID":22303,"LANDMARKID":"1000200000706","LANDMARKCO":"508","LANDMARKNA":"和風馥蜂溫泉旅館","LANDMARKAD":"1000205","ADDRESS":"宜蘭縣礁溪鄉忠孝路3號","TEL":"03-9881717","COUNTYNAME":"宜蘭縣","TOWNNAME":"礁溪鄉","MARKTYPE":"995","Class":"5"},"geometry":{"x":121.77144116348808,"y":24.829217466369737}},{"attributes":{"OBJECTID":22304,"LANDMARKID":"1000200000707","LANDMARKCO":"508","LANDMARKNA":"礁溪溫泉區","LANDMARKAD":"1000205","ADDRESS":"宜蘭縣礁溪鄉","TEL":" ","COUNTYNAME":"宜蘭縣","TOWNNAME":"礁溪鄉","MARKTYPE":"995","Class":"5"},"geometry":{"x":121.77252950983227,"y":24.827934295480588}},{"attributes":{"OBJECTID":22305,"LANDMARKID":"1000200000708","LANDMARKCO":"508","LANDMARKNA":"川湯春天溫泉飯店","LANDMARKAD":"1000205","ADDRESS":"宜蘭縣礁溪鄉德陽路43號","TEL":"03-9889889","COUNTYNAME":"宜蘭縣","TOWNNAME":"礁溪鄉","MARKTYPE":"995","Class":"5"},"geometry":{"x":121.77183255204618,"y":24.828226285532143}},{"attributes":{"OBJECTID":22306,"LANDMARKID":"1000200000709","LANDMARKCO":"508","LANDMARKNA":"雪山溫泉會館","LANDMARKAD":"1000205","ADDRESS":"宜蘭縣礁溪鄉中山路二段159號","TEL":"03-9883899","COUNTYNAME":"宜蘭縣","TOWNNAME":"礁溪鄉","MARKTYPE":"995","Class":"5"},"geometry":{"x":121.77410803523466,"y":24.827261501682106}},{"attributes":{"OBJECTID":22307,"LANDMARKID":"1000200000710","LANDMARKCO":"508","LANDMARKNA":"礁溪山多利中信大飯店","LANDMARKAD":"1000205","ADDRESS":"宜蘭縣礁溪鄉興農路291巷1號","TEL":"03-9888288","COUNTYNAME":"宜蘭縣","TOWNNAME":"礁溪鄉","MARKTYPE":"995","Class":"5"},"geometry":{"x":121.78098034399561,"y":24.817635143751897}},{"attributes":{"OBJECTID":22308,"LANDMARKID":"1000200000711","LANDMARKCO":"508","LANDMARKNA":"和風溫泉會館礁溪館","LANDMARKAD":"1000205","ADDRESS":"宜蘭縣礁溪鄉礁溪路五段97號","TEL":"03-9881133","COUNTYNAME":"宜蘭縣","TOWNNAME":"礁溪鄉","MARKTYPE":"995","Class":"5"},"geometry":{"x":121.77412361037015,"y":24.828951622533111}},{"attributes":{"OBJECTID":22309,"LANDMARKID":"1000200000712","LANDMARKCO":"508","LANDMARKNA":"雀兒喜溫泉飯店","LANDMARKAD":"1000205","ADDRESS":"宜蘭縣礁溪鄉礁溪路五段182號","TEL":"03-9889510","COUNTYNAME":"宜蘭縣","TOWNNAME":"礁溪鄉","MARKTYPE":"995","Class":"5"},"geometry":{"x":121.77491086035715,"y":24.828717652047921}},{"attributes":{"OBJECTID":22310,"LANDMARKID":"1000200000713","LANDMARKCO":"508","LANDMARKNA":"陽光假期大飯店","LANDMARKAD":"1000205","ADDRESS":"宜蘭縣礁溪鄉中山路二段187號","TEL":"03-9889977","COUNTYNAME":"宜蘭縣","TOWNNAME":"礁溪鄉","MARKTYPE":"995","Class":"5"},"geometry":{"x":121.77509906859095,"y":24.828179741166124}},{"attributes":{"OBJECTID":22311,"LANDMARKID":"1000200000714","LANDMARKCO":"508","LANDMARKNA":"和斯頓旅店","LANDMARKAD":"1000205","ADDRESS":"宜蘭縣礁溪鄉礁溪路五段99號","TEL":"03-9888178","COUNTYNAME":"宜蘭縣","TOWNNAME":"礁溪鄉","MARKTYPE":"995","Class":"5"},"geometry":{"x":121.77456137415636,"y":24.828988338323907}},{"attributes":{"OBJECTID":22312,"LANDMARKID":"1000200000715","LANDMARKCO":"508","LANDMARKNA":"正華陶藝溫泉民宿","LANDMARKAD":"1000205","ADDRESS":"宜蘭縣礁溪鄉奇立丹路60號","TEL":"03-9882740","COUNTYNAME":"宜蘭縣","TOWNNAME":"礁溪鄉","MARKTYPE":"995","Class":"5"},"geometry":{"x":121.77403588080392,"y":24.821421017745941}},{"attributes":{"OBJECTID":22313,"LANDMARKID":"1000200000716","LANDMARKCO":"508","LANDMARKNA":"川湯溫泉養生館","LANDMARKAD":"1000205","ADDRESS":"宜蘭縣礁溪鄉中山路二段218號","TEL":"03-9880606","COUNTYNAME":"宜蘭縣","TOWNNAME":"礁溪鄉","MARKTYPE":"995","Class":"5"},"geometry":{"x":121.77547477122161,"y":24.827948233053984}},{"attributes":{"OBJECTID":22314,"LANDMARKID":"1000200000717","LANDMARKCO":"508","LANDMARKNA":"湯之城浴池","LANDMARKAD":"1000205","ADDRESS":"宜蘭縣礁溪鄉公園路20號","TEL":"03-9873879","COUNTYNAME":"宜蘭縣","TOWNNAME":"礁溪鄉","MARKTYPE":"995","Class":"5"},"geometry":{"x":121.77592683333128,"y":24.831346833214809}},{"attributes":{"OBJECTID":22315,"LANDMARKID":"1000200000718","LANDMARKCO":"508","LANDMARKNA":"紅燈籠溫泉汽車旅館","LANDMARKAD":"1000205","ADDRESS":"宜蘭縣礁溪鄉中山路二段246號","TEL":"03-9874767","COUNTYNAME":"宜蘭縣","TOWNNAME":"礁溪鄉","MARKTYPE":"995","Class":"5"},"geometry":{"x":121.77612803686631,"y":24.828590393133673}},{"attributes":{"OBJECTID":22316,"LANDMARKID":"1000200000719","LANDMARKCO":"508","LANDMARKNA":"帥王溫泉大飯店","LANDMARKAD":"1000205","ADDRESS":"宜蘭縣礁溪鄉公園路1號","TEL":"03-9874591","COUNTYNAME":"宜蘭縣","TOWNNAME":"礁溪鄉","MARKTYPE":"995","Class":"5"},"geometry":{"x":121.77651452032258,"y":24.829443220678076}},{"attributes":{"OBJECTID":22317,"LANDMARKID":"1000200000720","LANDMARKCO":"508","LANDMARKNA":"山泉大飯店","LANDMARKAD":"1000205","ADDRESS":"宜蘭縣礁溪鄉礁溪路六段36號","TEL":"03-9887979","COUNTYNAME":"宜蘭縣","TOWNNAME":"礁溪鄉","MARKTYPE":"995","Class":"5"},"geometry":{"x":121.77822315860571,"y":24.830719268227849}},{"attributes":{"OBJECTID":22318,"LANDMARKID":"1000200000658","LANDMARKCO":"504","LANDMARKNA":"五峰旗瀑布","LANDMARKAD":"1000205","ADDRESS":"宜蘭縣礁溪鄉五峰路","TEL":" ","COUNTYNAME":"宜蘭縣","TOWNNAME":"礁溪鄉","MARKTYPE":"995","Class":"5"},"geometry":{"x":121.74683081854128,"y":24.834505616922019}},{"attributes":{"OBJECTID":22319,"LANDMARKID":"1000200000659","LANDMARKCO":"504","LANDMARKNA":"猴硐瀑布","LANDMARKAD":"1000205","ADDRESS":"宜蘭縣礁溪鄉白雲村","TEL":" ","COUNTYNAME":"宜蘭縣","TOWNNAME":"礁溪鄉","MARKTYPE":"995","Class":"5"},"geometry":{"x":121.78233984243873,"y":24.842856663698399}},{"attributes":{"OBJECTID":22320,"LANDMARKID":"1000200000697","LANDMARKCO":"508","LANDMARKNA":"亞諾時尚溫泉戀館","LANDMARKAD":"1000205","ADDRESS":"宜蘭縣礁溪鄉仁愛路3號","TEL":"03-9876611","COUNTYNAME":"宜蘭縣","TOWNNAME":"礁溪鄉","MARKTYPE":"995","Class":"5"},"geometry":{"x":121.77149217054519,"y":24.828504653889393}},{"attributes":{"OBJECTID":22321,"LANDMARKID":"1000200000638","LANDMARKCO":"503","LANDMARKNA":"龍潭湖風景區","LANDMARKAD":"1000205","ADDRESS":"宜蘭縣大同鄉","TEL":" ","COUNTYNAME":"宜蘭縣","TOWNNAME":"礁溪鄉","MARKTYPE":"995","Class":"5"},"geometry":{"x":121.739884394348,"y":24.792174198972429}},{"attributes":{"OBJECTID":22322,"LANDMARKID":"1000200000724","LANDMARKCO":"510","LANDMARKNA":"礁溪高爾夫球場","LANDMARKAD":"1000205","ADDRESS":"宜蘭縣礁溪鄉林美村林尾路156號","TEL":"03-9886691","COUNTYNAME":"宜蘭縣","TOWNNAME":"礁溪鄉","MARKTYPE":"995","Class":"5"},"geometry":{"x":121.73787487070086,"y":24.823044421693904}},{"attributes":{"OBJECTID":22323,"LANDMARKID":"1000200000536","LANDMARKCO":"405","LANDMARKNA":"中油加油站-壯圍站(中油直營)","LANDMARKAD":"1000206","ADDRESS":"宜蘭縣壯圍鄉壯五路391號","TEL":" ","COUNTYNAME":"宜蘭縣","TOWNNAME":"壯圍鄉","MARKTYPE":"994","Class":"4"},"geometry":{"x":121.78270626866289,"y":24.747478256689416}},{"attributes":{"OBJECTID":22324,"LANDMARKID":"1000200000537","LANDMARKCO":"405","LANDMARKNA":"中油加油站-功勞站","LANDMARKAD":"1000206","ADDRESS":"宜蘭縣壯圍鄉功勞村3鄰美功路一段87號","TEL":"03-9306358","COUNTYNAME":"宜蘭縣","TOWNNAME":"壯圍鄉","MARKTYPE":"994","Class":"4"},"geometry":{"x":121.78176623966975,"y":24.770467410950857}},{"attributes":{"OBJECTID":22325,"LANDMARKID":"1000200000538","LANDMARKCO":"405","LANDMARKNA":"中油加油站-大福站(中油直營)","LANDMARKAD":"1000206","ADDRESS":"宜蘭縣壯圍鄉壯濱路五段310號","TEL":"039-301864","COUNTYNAME":"宜蘭縣","TOWNNAME":"壯圍鄉","MARKTYPE":"994","Class":"4"},"geometry":{"x":121.81494360487912,"y":24.78971490566888}},{"attributes":{"OBJECTID":22326,"LANDMARKID":"1000200000539","LANDMARKCO":"405","LANDMARKNA":"中油加油站-玊田站","LANDMARKAD":"1000206","ADDRESS":"宜蘭縣壯圍鄉美城村美間路55-2號","TEL":"03-9302957","COUNTYNAME":"宜蘭縣","TOWNNAME":"壯圍鄉","MARKTYPE":"994","Class":"4"},"geometry":{"x":121.78656308266908,"y":24.77876662136509}},{"attributes":{"OBJECTID":22327,"LANDMARKID":"1000200000461","LANDMARKCO":"401","LANDMARKNA":"海天醫院","LANDMARKAD":"1000206","ADDRESS":"宜蘭縣壯圍鄉古亭路23-9號","TEL":"03-9308010","COUNTYNAME":"宜蘭縣","TOWNNAME":"壯圍鄉","MARKTYPE":"994","Class":"4"},"geometry":{"x":121.81044372207757,"y":24.779224361593538}},{"attributes":{"OBJECTID":22328,"LANDMARKID":"1000200000677","LANDMARKCO":"506","LANDMARKNA":"旺山哈密瓜果園","LANDMARKAD":"1000206","ADDRESS":"宜蘭縣壯圍鄉新南村新南路89號","TEL":"03-9383918","COUNTYNAME":"宜蘭縣","TOWNNAME":"壯圍鄉","MARKTYPE":"995","Class":"5"},"geometry":{"x":121.81412699673078,"y":24.724952272135155}},{"attributes":{"OBJECTID":22329,"LANDMARKID":"1000200000605","LANDMARKCO":"408","LANDMARKNA":"郵局-壯圍郵局","LANDMARKAD":"1000206","ADDRESS":"宜蘭縣壯圍鄉壯五路327號","TEL":"(03)9381-705","COUNTYNAME":"宜蘭縣","TOWNNAME":"壯圍鄉","MARKTYPE":"994","Class":"4"},"geometry":{"x":121.78427236611594,"y":24.746827460154183}},{"attributes":{"OBJECTID":22330,"LANDMARKID":"1000200000625","LANDMARKCO":"409","LANDMARKNA":"宜蘭縣壯圍鄉農會","LANDMARKAD":"1000206","ADDRESS":"宜蘭縣壯圍鄉壯五路152號","TEL":"03-9385001-4","COUNTYNAME":"宜蘭縣","TOWNNAME":"壯圍鄉","MARKTYPE":"994","Class":"4"},"geometry":{"x":121.78962040142605,"y":24.744933726230848}},{"attributes":{"OBJECTID":22331,"LANDMARKID":"1000200000564","LANDMARKCO":"405","LANDMARKNA":"台塑加油站-公館站(台塑)","LANDMARKAD":"1000206","ADDRESS":"宜蘭縣壯圍鄉壯濱路二段25號","TEL":"03-9385531","COUNTYNAME":"宜蘭縣","TOWNNAME":"壯圍鄉","MARKTYPE":"994","Class":"4"},"geometry":{"x":121.81839669313545,"y":24.732297208797416}},{"attributes":{"OBJECTID":22332,"LANDMARKID":"1000200000064","LANDMARKCO":"103","LANDMARKNA":"宜蘭縣壯圍鄉衛生所","LANDMARKAD":"1000206","ADDRESS":"宜蘭縣壯圍鄉壯五路164號","TEL":"03-9385503","COUNTYNAME":"宜蘭縣","TOWNNAME":"壯圍鄉","MARKTYPE":"991","Class":"1"},"geometry":{"x":121.786462861272,"y":24.746723625219911}},{"attributes":{"OBJECTID":22333,"LANDMARKID":"1000200000065","LANDMARKCO":"103","LANDMARKNA":"宜蘭縣壯圍鄉鄉民代表會","LANDMARKAD":"1000206","ADDRESS":"宜蘭縣壯圍鄉壯志路254號1樓","TEL":"03-9385431","COUNTYNAME":"宜蘭縣","TOWNNAME":"壯圍鄉","MARKTYPE":"991","Class":"1"},"geometry":{"x":121.78586992843306,"y":24.746503755991501}},{"attributes":{"OBJECTID":22334,"LANDMARKID":"1000200000076","LANDMARKCO":"106","LANDMARKNA":"宜蘭縣壯圍鄉戶政事務所","LANDMARKAD":"1000206","ADDRESS":"宜蘭縣壯圍鄉吉祥村20鄰壯五路260號","TEL":"039-385097","COUNTYNAME":"宜蘭縣","TOWNNAME":"壯圍鄉","MARKTYPE":"991","Class":"1"},"geometry":{"x":121.78577991668607,"y":24.746568702371462}},{"attributes":{"OBJECTID":22335,"LANDMARKID":"1000200000182","LANDMARKCO":"108","LANDMARKNA":"宜蘭縣壯圍鄉公所","LANDMARKAD":"1000206","ADDRESS":"宜蘭縣壯圍鄉壯志路1號","TEL":"03-9383012","COUNTYNAME":"宜蘭縣","TOWNNAME":"壯圍鄉","MARKTYPE":"991","Class":"1"},"geometry":{"x":121.78578954978698,"y":24.74692975463449}},{"attributes":{"OBJECTID":22336,"LANDMARKID":"1000200000146","LANDMARKCO":"107","LANDMARKNA":"宜蘭縣消防局壯圍消防分隊","LANDMARKAD":"1000206","ADDRESS":"宜蘭縣壯圍鄉壯五路156號","TEL":"03-9380171","COUNTYNAME":"宜蘭縣","TOWNNAME":"壯圍鄉","MARKTYPE":"991","Class":"1"},"geometry":{"x":121.78640322868814,"y":24.746343910620279}},{"attributes":{"OBJECTID":22337,"LANDMARKID":"1000200000147","LANDMARKCO":"107","LANDMARKNA":"宜蘭縣警察局大福派出所","LANDMARKAD":"1000206","ADDRESS":"宜蘭縣壯圍鄉大福村壯濱路6段200號","TEL":"03-9301994","COUNTYNAME":"宜蘭縣","TOWNNAME":"壯圍鄉","MARKTYPE":"991","Class":"1"},"geometry":{"x":121.81694158840325,"y":24.8001405956506}},{"attributes":{"OBJECTID":22338,"LANDMARKID":"1000200000148","LANDMARKCO":"107","LANDMARKNA":"宜蘭縣警察局忠孝派出所","LANDMARKAD":"1000206","ADDRESS":"宜蘭縣壯圍鄉忠孝村順和路77號","TEL":"039-301984","COUNTYNAME":"宜蘭縣","TOWNNAME":"壯圍鄉","MARKTYPE":"991","Class":"1"},"geometry":{"x":121.80292551779976,"y":24.764519731305775}},{"attributes":{"OBJECTID":22339,"LANDMARKID":"1000200000149","LANDMARKCO":"107","LANDMARKNA":"宜蘭縣警察局壯圍分駐所","LANDMARKAD":"1000206","ADDRESS":"宜蘭縣壯圍鄉五結村壯五路158號","TEL":"03-9882214","COUNTYNAME":"宜蘭縣","TOWNNAME":"壯圍鄉","MARKTYPE":"991","Class":"1"},"geometry":{"x":121.78632788218952,"y":24.746380705585349}},{"attributes":{"OBJECTID":22340,"LANDMARKID":"1000200000150","LANDMARKCO":"107","LANDMARKNA":"宜蘭縣警察局美城派出所","LANDMARKAD":"1000206","ADDRESS":"宜蘭縣壯圍鄉美城村土圍路55號","TEL":"039-303691","COUNTYNAME":"宜蘭縣","TOWNNAME":"壯圍鄉","MARKTYPE":"991","Class":"1"},"geometry":{"x":121.78943199502075,"y":24.778274347393513}},{"attributes":{"OBJECTID":22341,"LANDMARKID":"1000200000205","LANDMARKCO":"202","LANDMARKNA":"私立中道高中","LANDMARKAD":"1000206","ADDRESS":"宜蘭縣壯圍鄉功勞路12號","TEL":"03-9306696","COUNTYNAME":"宜蘭縣","TOWNNAME":"壯圍鄉","MARKTYPE":"992","Class":"2"},"geometry":{"x":121.79337306780845,"y":24.758939172644681}},{"attributes":{"OBJECTID":22342,"LANDMARKID":"1000200000206","LANDMARKCO":"202","LANDMARKNA":"私立中道高中附設國中部","LANDMARKAD":"1000206","ADDRESS":"宜蘭縣壯圍鄉功勞村功勞路12號","TEL":"03-9306696","COUNTYNAME":"宜蘭縣","TOWNNAME":"壯圍鄉","MARKTYPE":"992","Class":"2"},"geometry":{"x":121.79337306780845,"y":24.758939172644681}},{"attributes":{"OBJECTID":22343,"LANDMARKID":"1000200000264","LANDMARKCO":"203","LANDMARKNA":"縣立壯圍國中","LANDMARKAD":"1000206","ADDRESS":"宜蘭縣壯圍鄉壯五路17號","TEL":"03-9381773","COUNTYNAME":"宜蘭縣","TOWNNAME":"壯圍鄉","MARKTYPE":"992","Class":"2"},"geometry":{"x":121.78811432173515,"y":24.749832155857593}},{"attributes":{"OBJECTID":22344,"LANDMARKID":"1000200000265","LANDMARKCO":"203","LANDMARKNA":"私立中道中小學","LANDMARKAD":"1000206","ADDRESS":"宜蘭縣壯圍鄉功勞路12號","TEL":"03-9306696","COUNTYNAME":"宜蘭縣","TOWNNAME":"壯圍鄉","MARKTYPE":"992","Class":"2"},"geometry":{"x":121.79337306780845,"y":24.758939172644681}},{"attributes":{"OBJECTID":22345,"LANDMARKID":"1000200000266","LANDMARKCO":"203","LANDMARKNA":"縣立大福國小","LANDMARKAD":"1000206","ADDRESS":"宜蘭縣壯圍鄉大福村大福路一段62巷26號","TEL":"03-9301239","COUNTYNAME":"宜蘭縣","TOWNNAME":"壯圍鄉","MARKTYPE":"992","Class":"2"},"geometry":{"x":121.81455001882856,"y":24.80152323256797}},{"attributes":{"OBJECTID":22346,"LANDMARKID":"1000200000267","LANDMARKCO":"203","LANDMARKNA":"縣立壯圍國小","LANDMARKAD":"1000206","ADDRESS":"宜蘭縣壯圍鄉壯五路55號","TEL":"03-9384442","COUNTYNAME":"宜蘭縣","TOWNNAME":"壯圍鄉","MARKTYPE":"992","Class":"2"},"geometry":{"x":121.79009237681775,"y":24.743584808837188}},{"attributes":{"OBJECTID":22347,"LANDMARKID":"1000200000268","LANDMARKCO":"203","LANDMARKNA":"縣立過嶺國小","LANDMARKAD":"1000206","ADDRESS":"宜蘭縣壯圍鄉過嶺村107之1號","TEL":"03-9301404","COUNTYNAME":"宜蘭縣","TOWNNAME":"壯圍鄉","MARKTYPE":"992","Class":"2"},"geometry":{"x":121.81614181051401,"y":24.759523961759154}},{"attributes":{"OBJECTID":22348,"LANDMARKID":"1000200000269","LANDMARKCO":"203","LANDMARKNA":"縣立新南國小","LANDMARKAD":"1000206","ADDRESS":"宜蘭縣壯圍鄉新南村120之1號","TEL":"03-9253337","COUNTYNAME":"宜蘭縣","TOWNNAME":"壯圍鄉","MARKTYPE":"992","Class":"2"},"geometry":{"x":121.79993015264773,"y":24.722413347775518}},{"attributes":{"OBJECTID":22349,"LANDMARKID":"1000200000270","LANDMARKCO":"203","LANDMARKNA":"縣立公館國小","LANDMARKAD":"1000206","ADDRESS":"宜蘭縣壯圍鄉紅葉村69號","TEL":"03-9380522","COUNTYNAME":"宜蘭縣","TOWNNAME":"壯圍鄉","MARKTYPE":"992","Class":"2"},"geometry":{"x":121.81637693052363,"y":24.73613861968057}},{"attributes":{"OBJECTID":22350,"LANDMARKID":"1000200000271","LANDMARKCO":"203","LANDMARKNA":"縣立古亭國小","LANDMARKAD":"1000206","ADDRESS":"宜蘭縣壯圍鄉古亭村81號","TEL":"03-9301022","COUNTYNAME":"宜蘭縣","TOWNNAME":"壯圍鄉","MARKTYPE":"992","Class":"2"},"geometry":{"x":121.79828035491622,"y":24.771634218147419}},{"attributes":{"OBJECTID":22351,"LANDMARKID":"1000200000460","LANDMARKCO":"308","LANDMARKNA":"國3-宜蘭交流道-北上","LANDMARKAD":"1000206","ADDRESS":"宜蘭縣壯圍鄉","TEL":" ","COUNTYNAME":"宜蘭縣","TOWNNAME":"壯圍鄉","MARKTYPE":"993","Class":"308"},"geometry":{"x":121.77864938469556,"y":24.776701001167567}},{"attributes":{"OBJECTID":22352,"LANDMARKID":"1000200001124","LANDMARKCO":"604","LANDMARKNA":"海邊民宿","LANDMARKAD":"1000206","ADDRESS":"宜蘭縣壯圍鄉壯濱路四段10號","TEL":"03-9602320","COUNTYNAME":"宜蘭縣","TOWNNAME":"壯圍鄉","MARKTYPE":"996","Class":"6"},"geometry":{"x":121.81595771137975,"y":24.764103164122659}},{"attributes":{"OBJECTID":22353,"LANDMARKID":"1000200001125","LANDMARKCO":"604","LANDMARKNA":"海濱民宿","LANDMARKAD":"1000206","ADDRESS":"宜蘭縣壯圍鄉壯濱路四段6號","TEL":"03-9302793","COUNTYNAME":"宜蘭縣","TOWNNAME":"壯圍鄉","MARKTYPE":"996","Class":"6"},"geometry":{"x":121.8159659457841,"y":24.763976676638141}},{"attributes":{"OBJECTID":22354,"LANDMARKID":"1000200001126","LANDMARKCO":"604","LANDMARKNA":"海邊渡假民宿","LANDMARKAD":"1000206","ADDRESS":"宜蘭縣壯圍鄉壯濱路四段8號","TEL":"03-9302793","COUNTYNAME":"宜蘭縣","TOWNNAME":"壯圍鄉","MARKTYPE":"996","Class":"6"},"geometry":{"x":121.81595700352993,"y":24.764049001366519}},{"attributes":{"OBJECTID":22355,"LANDMARKID":"1000200001127","LANDMARKCO":"604","LANDMARKNA":"月兒灣灣渡假別館","LANDMARKAD":"1000206","ADDRESS":"宜蘭縣壯圍鄉過嶺村壯濱路3段552號","TEL":"03-9302866","COUNTYNAME":"宜蘭縣","TOWNNAME":"壯圍鄉","MARKTYPE":"996","Class":"6"},"geometry":{"x":121.81607208198871,"y":24.762386622672956}},{"attributes":{"OBJECTID":22356,"LANDMARKID":"1000200001128","LANDMARKCO":"604","LANDMARKNA":"新南民宿","LANDMARKAD":"1000206","ADDRESS":"宜蘭縣壯圍鄉新南村新南路102-6號","TEL":"03-9313300","COUNTYNAME":"宜蘭縣","TOWNNAME":"壯圍鄉","MARKTYPE":"996","Class":"6"},"geometry":{"x":121.80979657482428,"y":24.727016472367573}},{"attributes":{"OBJECTID":22357,"LANDMARKID":"1000200001129","LANDMARKCO":"604","LANDMARKNA":"鄉下民宿","LANDMARKAD":"1000206","ADDRESS":"宜蘭縣壯圍鄉新社村壯濱路5段215巷51號","TEL":"03-9302609","COUNTYNAME":"宜蘭縣","TOWNNAME":"壯圍鄉","MARKTYPE":"996","Class":"6"},"geometry":{"x":121.81112538567602,"y":24.787595538088183}},{"attributes":{"OBJECTID":22358,"LANDMARKID":"1000200000540","LANDMARKCO":"405","LANDMARKNA":"中油加油站-吳沙站","LANDMARKAD":"1000201","ADDRESS":"宜蘭縣宜蘭市吳沙路288號","TEL":"03-9280172","COUNTYNAME":"宜蘭縣","TOWNNAME":"宜蘭市","MARKTYPE":"994","Class":"4"},"geometry":{"x":121.75828317099651,"y":24.774061271478732}},{"attributes":{"OBJECTID":22359,"LANDMARKID":"1000200000541","LANDMARKCO":"405","LANDMARKNA":"中油加油站-龍潭站","LANDMARKAD":"1000201","ADDRESS":"宜蘭縣宜蘭市大坡路二段63號","TEL":"03-9280506","COUNTYNAME":"宜蘭縣","TOWNNAME":"宜蘭市","MARKTYPE":"994","Class":"4"},"geometry":{"x":121.74579409321805,"y":24.775527808333205}},{"attributes":{"OBJECTID":22360,"LANDMARKID":"1000200000542","LANDMARKCO":"405","LANDMARKNA":"中油加油站-宜蘭站(中油直營)","LANDMARKAD":"1000201","ADDRESS":"宜蘭縣宜蘭市中山路五段139號","TEL":"039-282621","COUNTYNAME":"宜蘭縣","TOWNNAME":"宜蘭市","MARKTYPE":"994","Class":"4"},"geometry":{"x":121.75650481555626,"y":24.7704693925714}},{"attributes":{"OBJECTID":22361,"LANDMARKID":"1000200000543","LANDMARKCO":"405","LANDMARKNA":"中油加油站-中森站","LANDMARKAD":"1000201","ADDRESS":"宜蘭縣宜蘭市中山路五段510號","TEL":"03-9280728","COUNTYNAME":"宜蘭縣","TOWNNAME":"宜蘭市","MARKTYPE":"994","Class":"4"},"geometry":{"x":121.75976581336322,"y":24.77938977743332}},{"attributes":{"OBJECTID":22362,"LANDMARKID":"1000200000544","LANDMARKCO":"405","LANDMARKNA":"中油加油站-上德站","LANDMARKAD":"1000201","ADDRESS":"宜蘭縣宜蘭市中山路一段340號","TEL":"03-9251068","COUNTYNAME":"宜蘭縣","TOWNNAME":"宜蘭市","MARKTYPE":"994","Class":"4"},"geometry":{"x":121.76573493255373,"y":24.730166486955582}},{"attributes":{"OBJECTID":22363,"LANDMARKID":"1000200000545","LANDMARKCO":"405","LANDMARKNA":"中油加油站-新興站","LANDMARKAD":"1000201","ADDRESS":"宜蘭縣宜蘭市宜興路一段225號","TEL":"039-330585","COUNTYNAME":"宜蘭縣","TOWNNAME":"宜蘭市","MARKTYPE":"994","Class":"4"},"geometry":{"x":121.75759061150211,"y":24.755171674274024}},{"attributes":{"OBJECTID":22364,"LANDMARKID":"1000200000546","LANDMARKCO":"405","LANDMARKNA":"中油加油站-蘭陽站","LANDMARKAD":"1000201","ADDRESS":"宜蘭縣宜蘭市宜興路三段188號","TEL":"03-9286346","COUNTYNAME":"宜蘭縣","TOWNNAME":"宜蘭市","MARKTYPE":"994","Class":"4"},"geometry":{"x":121.75862100552084,"y":24.771300050562424}},{"attributes":{"OBJECTID":22365,"LANDMARKID":"1000200000547","LANDMARKCO":"405","LANDMARKNA":"中油加油站-廣進站","LANDMARKAD":"1000201","ADDRESS":"宜蘭縣宜蘭市中山路1段116號","TEL":"03-9252958","COUNTYNAME":"宜蘭縣","TOWNNAME":"宜蘭市","MARKTYPE":"994","Class":"4"},"geometry":{"x":121.7690184436436,"y":24.723855506309661}},{"attributes":{"OBJECTID":22366,"LANDMARKID":"1000200000548","LANDMARKCO":"405","LANDMARKNA":"中油加油站-新禾站","LANDMARKAD":"1000201","ADDRESS":"宜蘭縣宜蘭市中山路五段580號","TEL":"03-9280015","COUNTYNAME":"宜蘭縣","TOWNNAME":"宜蘭市","MARKTYPE":"994","Class":"4"},"geometry":{"x":121.76063388403882,"y":24.78234039548374}},{"attributes":{"OBJECTID":22367,"LANDMARKID":"1000200000478","LANDMARKCO":"402","LANDMARKNA":"My Phone台灣大哥大-宜蘭中山二直營服務中心","LANDMARKAD":"1000201","ADDRESS":"宜蘭縣宜蘭市中山路三段37號","TEL":"0809-000-166","COUNTYNAME":"宜蘭縣","TOWNNAME":"宜蘭市","MARKTYPE":"994","Class":"4"},"geometry":{"x":121.75219774605927,"y":24.756203437202643}},{"attributes":{"OBJECTID":22368,"LANDMARKID":"1000200000479","LANDMARKCO":"402","LANDMARKNA":"亞太行動寬頻電信-宜蘭神農加盟服務中心","LANDMARKAD":"1000201","ADDRESS":"宜蘭縣宜蘭市民族里神農路二段十三號","TEL":"039-321202","COUNTYNAME":"宜蘭縣","TOWNNAME":"宜蘭市","MARKTYPE":"994","Class":"4"},"geometry":{"x":121.75063109435017,"y":24.750585568911724}},{"attributes":{"OBJECTID":22369,"LANDMARKID":"1000200000469","LANDMARKCO":"401","LANDMARKNA":"財團法人佛教普門醫院","LANDMARKAD":"1000201","ADDRESS":"宜蘭縣宜蘭市神農路一段87號","TEL":"03-9327777","COUNTYNAME":"宜蘭縣","TOWNNAME":"宜蘭市","MARKTYPE":"994","Class":"4"},"geometry":{"x":121.75005999351082,"y":24.748960807595811}},{"attributes":{"OBJECTID":22370,"LANDMARKID":"1000200000470","LANDMARKCO":"401","LANDMARKNA":"國立陽明大學附設醫院","LANDMARKAD":"1000201","ADDRESS":"宜蘭縣宜蘭市新民路152號","TEL":"03-9325192","COUNTYNAME":"宜蘭縣","TOWNNAME":"宜蘭市","MARKTYPE":"994","Class":"4"},"geometry":{"x":121.75404669169291,"y":24.757850984138539}},{"attributes":{"OBJECTID":22371,"LANDMARKID":"1000200000471","LANDMARKCO":"401","LANDMARKNA":"財團法人蘭陽仁愛醫院","LANDMARKAD":"1000201","ADDRESS":"宜蘭市中山路二段260號","TEL":"03-9321888","COUNTYNAME":"宜蘭縣","TOWNNAME":"宜蘭市","MARKTYPE":"994","Class":"4"},"geometry":{"x":121.75432761239695,"y":24.749108878547794}},{"attributes":{"OBJECTID":22372,"LANDMARKID":"1000200000684","LANDMARKCO":"507","LANDMARKNA":"昭應宮","LANDMARKAD":"1000201","ADDRESS":"宜蘭縣宜蘭市新民里中山路106號","TEL":" ","COUNTYNAME":"宜蘭縣","TOWNNAME":"宜蘭市","MARKTYPE":"995","Class":"5"},"geometry":{"x":121.75141459324426,"y":24.757340816512887}},{"attributes":{"OBJECTID":22373,"LANDMARKID":"1000200000685","LANDMARKCO":"507","LANDMARKNA":"碧霞宮","LANDMARKAD":"1000201","ADDRESS":"宜蘭縣宜蘭市城隍街52號","TEL":" ","COUNTYNAME":"宜蘭縣","TOWNNAME":"宜蘭市","MARKTYPE":"995","Class":"5"},"geometry":{"x":121.75163268990875,"y":24.759314406556797}},{"attributes":{"OBJECTID":22374,"LANDMARKID":"1000200000584","LANDMARKCO":"408","LANDMARKNA":"郵局-宜蘭中山路郵局","LANDMARKAD":"1000201","ADDRESS":"宜蘭縣宜蘭市中山路3段130號","TEL":"(03)9324-133","COUNTYNAME":"宜蘭縣","TOWNNAME":"宜蘭市","MARKTYPE":"994","Class":"4"},"geometry":{"x":121.75297918839385,"y":24.758448524872016}},{"attributes":{"OBJECTID":22375,"LANDMARKID":"1000200000585","LANDMARKCO":"408","LANDMARKNA":"郵局-宜蘭金六結郵局","LANDMARKAD":"1000201","ADDRESS":"宜蘭縣宜蘭市復興路3段100號","TEL":"(03)9368-142","COUNTYNAME":"宜蘭縣","TOWNNAME":"宜蘭市","MARKTYPE":"994","Class":"4"},"geometry":{"x":121.73903581276241,"y":24.751557552245085}},{"attributes":{"OBJECTID":22376,"LANDMARKID":"1000200000586","LANDMARKCO":"408","LANDMARKNA":"郵局-宜蘭西後街郵局","LANDMARKAD":"1000201","ADDRESS":"宜蘭縣宜蘭市西後街2-1號","TEL":"(03)9329-185","COUNTYNAME":"宜蘭縣","TOWNNAME":"宜蘭市","MARKTYPE":"994","Class":"4"},"geometry":{"x":121.75136971073302,"y":24.755588822852506}},{"attributes":{"OBJECTID":22377,"LANDMARKID":"1000200000587","LANDMARKCO":"408","LANDMARKNA":"郵局-宜蘭東港路郵局","LANDMARKAD":"1000201","ADDRESS":"宜蘭縣宜蘭市東港路32-30號","TEL":"(03)9385-638","COUNTYNAME":"宜蘭縣","TOWNNAME":"宜蘭市","MARKTYPE":"994","Class":"4"},"geometry":{"x":121.76550845278194,"y":24.752049103373839}},{"attributes":{"OBJECTID":22378,"LANDMARKID":"1000200000588","LANDMARKCO":"408","LANDMARKNA":"郵局-宜蘭縣政府郵局","LANDMARKAD":"1000201","ADDRESS":"宜蘭縣宜蘭市縣政北路1號","TEL":"(03)925-2917","COUNTYNAME":"宜蘭縣","TOWNNAME":"宜蘭市","MARKTYPE":"994","Class":"4"},"geometry":{"x":121.76276450585677,"y":24.730548760748452}},{"attributes":{"OBJECTID":22379,"LANDMARKID":"1000200000589","LANDMARKCO":"408","LANDMARKNA":"郵局-宜蘭渭水路郵局","LANDMARKAD":"1000201","ADDRESS":"宜蘭縣宜蘭市中山路2段275號","TEL":"(03)9325-072","COUNTYNAME":"宜蘭縣","TOWNNAME":"宜蘭市","MARKTYPE":"994","Class":"4"},"geometry":{"x":121.75242366856062,"y":24.753386926634448}},{"attributes":{"OBJECTID":22380,"LANDMARKID":"1000200000590","LANDMARKCO":"408","LANDMARKNA":"郵局-宜蘭大坡路郵局","LANDMARKAD":"1000201","ADDRESS":"宜蘭縣宜蘭市大坡路2段225號","TEL":"(03)9283-195","COUNTYNAME":"宜蘭縣","TOWNNAME":"宜蘭市","MARKTYPE":"994","Class":"4"},"geometry":{"x":121.74071279468116,"y":24.77942806524068}},{"attributes":{"OBJECTID":22381,"LANDMARKID":"1000200000591","LANDMARKCO":"408","LANDMARKNA":"郵局-宜蘭神農路郵局","LANDMARKAD":"1000201","ADDRESS":"宜蘭縣宜蘭市神農路1段146號","TEL":"(03)9356-052","COUNTYNAME":"宜蘭縣","TOWNNAME":"宜蘭市","MARKTYPE":"994","Class":"4"},"geometry":{"x":121.74986853180668,"y":24.74781085952921}},{"attributes":{"OBJECTID":22382,"LANDMARKID":"1000200000632","LANDMARKCO":"409","LANDMARKNA":"宜蘭縣宜蘭市農會","LANDMARKAD":"1000201","ADDRESS":"宜蘭縣宜蘭市中山路3號","TEL":"03-9322214","COUNTYNAME":"宜蘭縣","TOWNNAME":"宜蘭市","MARKTYPE":"994","Class":"4"},"geometry":{"x":121.75190484494061,"y":24.754948382954513}},{"attributes":{"OBJECTID":22383,"LANDMARKID":"1000200000633","LANDMARKCO":"409","LANDMARKNA":"宜蘭縣農會","LANDMARKAD":"1000201","ADDRESS":"宜蘭縣宜蘭市林森路155號","TEL":"03-9385963","COUNTYNAME":"宜蘭縣","TOWNNAME":"宜蘭市","MARKTYPE":"994","Class":"4"},"geometry":{"x":121.76000951663522,"y":24.756050794187715}},{"attributes":{"OBJECTID":22384,"LANDMARKID":"1000200000496","LANDMARKCO":"404","LANDMARKNA":"台灣自來水宜蘭北區服務所","LANDMARKAD":"1000201","ADDRESS":"宜蘭市復興路一段5號","TEL":"03-9322125","COUNTYNAME":"宜蘭縣","TOWNNAME":"宜蘭市","MARKTYPE":"994","Class":"4"},"geometry":{"x":121.75559973450609,"y":24.750076265649284}},{"attributes":{"OBJECTID":22385,"LANDMARKID":"1000200000497","LANDMARKCO":"404","LANDMARKNA":"台灣省自來水宜蘭營運所","LANDMARKAD":"1000201","ADDRESS":"宜蘭縣宜蘭市復興路一段5號","TEL":" ","COUNTYNAME":"宜蘭縣","TOWNNAME":"宜蘭市","MARKTYPE":"994","Class":"4"},"geometry":{"x":121.75293676657776,"y":24.74885654312904}},{"attributes":{"OBJECTID":22386,"LANDMARKID":"1000200000495","LANDMARKCO":"403","LANDMARKNA":"台灣電力公司宜蘭區營業處","LANDMARKAD":"1000201","ADDRESS":"宜蘭縣宜蘭市舊城西路111號","TEL":" ","COUNTYNAME":"宜蘭縣","TOWNNAME":"宜蘭市","MARKTYPE":"994","Class":"4"},"geometry":{"x":121.74990251821309,"y":24.759714410142834}},{"attributes":{"OBJECTID":22387,"LANDMARKID":"1000200000565","LANDMARKCO":"406","LANDMARKNA":"中山公園","LANDMARKAD":"1000201","ADDRESS":"宜蘭縣宜蘭市","TEL":" ","COUNTYNAME":"宜蘭縣","TOWNNAME":"宜蘭市","MARKTYPE":"994","Class":"4"},"geometry":{"x":121.75366973491018,"y":24.754051143189731}},{"attributes":{"OBJECTID":22388,"LANDMARKID":"1000200000566","LANDMARKCO":"406","LANDMARKNA":"縣立宜蘭運動公園","LANDMARKAD":"1000201","ADDRESS":"宜蘭縣宜蘭市和平路835號","TEL":" ","COUNTYNAME":"宜蘭縣","TOWNNAME":"宜蘭市","MARKTYPE":"994","Class":"4"},"geometry":{"x":121.75463139284716,"y":24.738825764373793}},{"attributes":{"OBJECTID":22389,"LANDMARKID":"1000200000567","LANDMARKCO":"406","LANDMARKNA":"宜蘭河濱公園","LANDMARKAD":"1000201","ADDRESS":"宜蘭縣宜蘭市","TEL":" ","COUNTYNAME":"宜蘭縣","TOWNNAME":"宜蘭市","MARKTYPE":"994","Class":"4"},"geometry":{"x":121.75242597538981,"y":24.764173756271695}},{"attributes":{"OBJECTID":22390,"LANDMARKID":"1000200000582","LANDMARKCO":"407","LANDMARKNA":"誠品Eslite","LANDMARKAD":"1000201","ADDRESS":"宜蘭市民權路二段38巷6號3樓","TEL":"03-936-2770","COUNTYNAME":"宜蘭縣","TOWNNAME":"宜蘭市","MARKTYPE":"994","Class":"4"},"geometry":{"x":121.74956414933777,"y":24.753469380462004}},{"attributes":{"OBJECTID":22391,"LANDMARKID":"1000200000583","LANDMARKCO":"407","LANDMARKNA":"宜蘭友愛百貨","LANDMARKAD":"1000201","ADDRESS":"宜蘭縣宜蘭市舊城東路50號","TEL":"(03)9369936","COUNTYNAME":"宜蘭縣","TOWNNAME":"宜蘭市","MARKTYPE":"994","Class":"4"},"geometry":{"x":121.75662845166687,"y":24.757663271230818}},{"attributes":{"OBJECTID":22392,"LANDMARKID":"1000200000561","LANDMARKCO":"405","LANDMARKNA":"台塑加油站-府城站(台塑)","LANDMARKAD":"1000201","ADDRESS":"宜蘭縣宜蘭市中山路一段145號","TEL":"03-9251779","COUNTYNAME":"宜蘭縣","TOWNNAME":"宜蘭市","MARKTYPE":"994","Class":"4"},"geometry":{"x":121.76823827512865,"y":24.723851717064598}},{"attributes":{"OBJECTID":22393,"LANDMARKID":"1000200000562","LANDMARKCO":"405","LANDMARKNA":"全國加油站-府前站（台塑）","LANDMARKAD":"1000201","ADDRESS":"宜蘭縣宜蘭市中山路一段545號","TEL":"039-255712","COUNTYNAME":"宜蘭縣","TOWNNAME":"宜蘭市","MARKTYPE":"994","Class":"4"},"geometry":{"x":121.76236247988088,"y":24.736479767598151}},{"attributes":{"OBJECTID":22394,"LANDMARKID":"1000200000563","LANDMARKCO":"405","LANDMARKNA":"台塑加油站-翁族站(台塑)","LANDMARKAD":"1000201","ADDRESS":"宜蘭縣宜蘭市東港路13-29號","TEL":"03-9387338","COUNTYNAME":"宜蘭縣","TOWNNAME":"宜蘭市","MARKTYPE":"994","Class":"4"},"geometry":{"x":121.77194518714128,"y":24.750150529376185}},{"attributes":{"OBJECTID":22395,"LANDMARKID":"1000200000055","LANDMARKCO":"103","LANDMARKNA":"宜蘭縣選舉委員會","LANDMARKAD":"1000201","ADDRESS":"宜蘭縣宜蘭市縣政北路3號2樓","TEL":"03-9254124","COUNTYNAME":"宜蘭縣","TOWNNAME":"宜蘭市","MARKTYPE":"991","Class":"1"},"geometry":{"x":121.76596088554679,"y":24.728643436049332}},{"attributes":{"OBJECTID":22396,"LANDMARKID":"1000200000174","LANDMARKCO":"107","LANDMARKNA":"宜蘭縣警察局進士派出所","LANDMARKAD":"1000201","ADDRESS":"宜蘭縣宜蘭市縣政北路5號","TEL":"03-9252219","COUNTYNAME":"宜蘭縣","TOWNNAME":"宜蘭市","MARKTYPE":"991","Class":"1"},"geometry":{"x":121.75453307887085,"y":24.742877386793293}},{"attributes":{"OBJECTID":22397,"LANDMARKID":"1000200000056","LANDMARKCO":"103","LANDMARKNA":"宜蘭縣宜蘭市衛生所","LANDMARKAD":"1000201","ADDRESS":"宜蘭縣宜蘭市復興路一段3號","TEL":"03-9322362","COUNTYNAME":"宜蘭縣","TOWNNAME":"宜蘭市","MARKTYPE":"991","Class":"1"},"geometry":{"x":121.7531347218174,"y":24.749391769711544}},{"attributes":{"OBJECTID":22398,"LANDMARKID":"1000200000057","LANDMARKCO":"103","LANDMARKNA":"宜蘭縣政府文化局","LANDMARKAD":"1000201","ADDRESS":"宜蘭縣宜蘭市復興路二段101號","TEL":"03-9322440","COUNTYNAME":"宜蘭縣","TOWNNAME":"宜蘭市","MARKTYPE":"991","Class":"1"},"geometry":{"x":121.74485244926946,"y":24.749613498873476}},{"attributes":{"OBJECTID":22399,"LANDMARKID":"1000200000058","LANDMARKCO":"103","LANDMARKNA":"宜蘭縣環境保護局","LANDMARKAD":"1000201","ADDRESS":"宜蘭縣五結鄉利工二路100號","TEL":"03-9907755","COUNTYNAME":"宜蘭縣","TOWNNAME":"宜蘭市","MARKTYPE":"991","Class":"1"},"geometry":{"x":121.75736515787298,"y":24.740244629008775}},{"attributes":{"OBJECTID":22400,"LANDMARKID":"1000200000003","LANDMARKCO":"101","LANDMARKNA":"台灣宜蘭地方法院宜蘭簡易庭","LANDMARKAD":"1000201","ADDRESS":"宜蘭市中山路2段261號","TEL":"03-9324195","COUNTYNAME":"宜蘭縣","TOWNNAME":"宜蘭市","MARKTYPE":"991","Class":"1"},"geometry":{"x":121.75266168917693,"y":24.75254246565849}}]}