{"displayFieldName":"COUNTYNAME","fieldAliases":{"OBJECTID":"OBJECTID","LANDMARKID":"LANDMARKID","LANDMARKCO":"LANDMARKCO","LANDMARKNA":"LANDMARKNA","LANDMARKAD":"LANDMARKAD","ADDRESS":"ADDRESS","TEL":"TEL","COUNTYNAME":"COUNTYNAME","TOWNNAME":"TOWNNAME","MARKTYPE":"MARKTYPE","Class":"Class"},"geometryType":"esriGeometryPoint","spatialReference":{"wkid":4326},"fields":[{"name":"OBJECTID","type":"esriFieldTypeOID","alias":"OBJECTID"},{"name":"LANDMARKID","type":"esriFieldTypeString","alias":"LANDMARKID","length":15},{"name":"LANDMARKCO","type":"esriFieldTypeString","alias":"LANDMARKCO","length":15},{"name":"LANDMARKNA","type":"esriFieldTypeString","alias":"LANDMARKNA","length":50},{"name":"LANDMARKAD","type":"esriFieldTypeString","alias":"LANDMARKAD","length":15},{"name":"ADDRESS","type":"esriFieldTypeString","alias":"ADDRESS","length":56},{"name":"TEL","type":"esriFieldTypeString","alias":"TEL","length":36},{"name":"COUNTYNAME","type":"esriFieldTypeString","alias":"COUNTYNAME","length":15},{"name":"TOWNNAME","type":"esriFieldTypeString","alias":"TOWNNAME","length":13},{"name":"MARKTYPE","type":"esriFieldTypeString","alias":"MARKTYPE","length":12},{"name":"Class","type":"esriFieldTypeString","alias":"Class","length":5}],"features":[{"attributes":{"OBJECTID":27801,"LANDMARKID":"1000700000387","LANDMARKCO":"203","LANDMARKNA":"縣立育德國小","LANDMARKAD":"1000720","ADDRESS":"彰化縣二林鎮外竹里中南巷41之1號","TEL":"04-8962574","COUNTYNAME":"彰化縣","TOWNNAME":"二林鎮","MARKTYPE":"992","Class":"2"},"geometry":{"x":120.38679926993264,"y":23.874595602830357}},{"attributes":{"OBJECTID":27802,"LANDMARKID":"1000700000388","LANDMARKCO":"203","LANDMARKNA":"縣立萬合國小","LANDMARKAD":"1000720","ADDRESS":"彰化縣二林鎮萬合里江山巷1號","TEL":"04-8902164","COUNTYNAME":"彰化縣","TOWNNAME":"二林鎮","MARKTYPE":"992","Class":"2"},"geometry":{"x":120.40925120705649,"y":23.925248629486269}},{"attributes":{"OBJECTID":27803,"LANDMARKID":"1000700000389","LANDMARKCO":"203","LANDMARKNA":"縣立興華國小","LANDMARKAD":"1000720","ADDRESS":"彰化縣二林鎮東興里福建巷2之1號","TEL":"04-8962594","COUNTYNAME":"彰化縣","TOWNNAME":"二林鎮","MARKTYPE":"992","Class":"2"},"geometry":{"x":120.39521469129434,"y":23.891333527758484}},{"attributes":{"OBJECTID":27804,"LANDMARKID":"1000700000390","LANDMARKCO":"203","LANDMARKNA":"縣立廣興國小","LANDMARKAD":"1000720","ADDRESS":"彰化縣二林鎮廣興里廣興巷2之1號","TEL":"04-8962584","COUNTYNAME":"彰化縣","TOWNNAME":"二林鎮","MARKTYPE":"992","Class":"2"},"geometry":{"x":120.36276335477994,"y":23.875856461451317}},{"attributes":{"OBJECTID":27805,"LANDMARKID":"1000700000391","LANDMARKCO":"203","LANDMARKNA":"縣立新生國小","LANDMARKAD":"1000720","ADDRESS":"彰化縣二林鎮趙甲里鎮平巷59號","TEL":"04-8964330","COUNTYNAME":"彰化縣","TOWNNAME":"二林鎮","MARKTYPE":"992","Class":"2"},"geometry":{"x":120.39477898276746,"y":23.937470002536401}},{"attributes":{"OBJECTID":27806,"LANDMARKID":"1000700001171","LANDMARKCO":"603","LANDMARKNA":"華倫汽車旅館","LANDMARKAD":"1000720","ADDRESS":"彰化縣二林鎮斗苑路四段251號","TEL":"04-8952188","COUNTYNAME":"彰化縣","TOWNNAME":"二林鎮","MARKTYPE":"996","Class":"6"},"geometry":{"x":120.38196980004231,"y":23.899157761027077}},{"attributes":{"OBJECTID":27807,"LANDMARKID":"1000700001172","LANDMARKCO":"603","LANDMARKNA":"鴻賓大旅社","LANDMARKAD":"1000720","ADDRESS":"彰化縣二林鎮斗苑路五段117-1號","TEL":"04-8961142","COUNTYNAME":"彰化縣","TOWNNAME":"二林鎮","MARKTYPE":"996","Class":"6"},"geometry":{"x":120.36924234666699,"y":23.900134656370945}},{"attributes":{"OBJECTID":27808,"LANDMARKID":"1000700000835","LANDMARKCO":"405","LANDMARKNA":"中油加油站-遠東站","LANDMARKAD":"1000716","ADDRESS":"彰化縣永靖鄉中山路三段238號","TEL":"04-8220496","COUNTYNAME":"彰化縣","TOWNNAME":"永靖鄉","MARKTYPE":"994","Class":"4"},"geometry":{"x":120.5549262639184,"y":23.933017908036437}},{"attributes":{"OBJECTID":27809,"LANDMARKID":"1000700000836","LANDMARKCO":"405","LANDMARKNA":"中油加油站-永靖站","LANDMARKAD":"1000716","ADDRESS":"彰化縣永靖鄉港西村中山路一段637號","TEL":"04-8221945","COUNTYNAME":"彰化縣","TOWNNAME":"永靖鄉","MARKTYPE":"994","Class":"4"},"geometry":{"x":120.54466047106733,"y":23.915257026387376}},{"attributes":{"OBJECTID":27810,"LANDMARKID":"1000700000837","LANDMARKCO":"405","LANDMARKNA":"中油加油站-北永靖(中油直營)","LANDMARKAD":"1000716","ADDRESS":"彰化縣永靖鄉五汴村中山路3段335號","TEL":"04-8239726","COUNTYNAME":"彰化縣","TOWNNAME":"永靖鄉","MARKTYPE":"994","Class":"4"},"geometry":{"x":120.55607653553321,"y":23.936157771701339}},{"attributes":{"OBJECTID":27811,"LANDMARKID":"1000700000760","LANDMARKCO":"402","LANDMARKNA":"亞太行動寬頻電信-永靖瑚璉加盟服務中心","LANDMARKAD":"1000716","ADDRESS":"彰化縣永靖鄉瑚璉路361號","TEL":"04-8233311","COUNTYNAME":"彰化縣","TOWNNAME":"永靖鄉","MARKTYPE":"994","Class":"4"},"geometry":{"x":120.54531029303503,"y":23.923552344484076}},{"attributes":{"OBJECTID":27812,"LANDMARKID":"1000700001109","LANDMARKCO":"507","LANDMARKNA":"餘三館","LANDMARKAD":"1000716","ADDRESS":"彰化縣永靖鄉港西村中山路一段451巷2號","TEL":" ","COUNTYNAME":"彰化縣","TOWNNAME":"永靖鄉","MARKTYPE":"995","Class":"5"},"geometry":{"x":120.54206494761064,"y":23.913305685591403}},{"attributes":{"OBJECTID":27813,"LANDMARKID":"1000700001021","LANDMARKCO":"408","LANDMARKNA":"郵局-永靖郵局","LANDMARKAD":"1000716","ADDRESS":"彰化縣永靖鄉永靖街27號","TEL":"(04)8221-927","COUNTYNAME":"彰化縣","TOWNNAME":"永靖鄉","MARKTYPE":"994","Class":"4"},"geometry":{"x":120.54674958267138,"y":23.920423886413186}},{"attributes":{"OBJECTID":27814,"LANDMARKID":"1000700001057","LANDMARKCO":"409","LANDMARKNA":"彰化縣永靖鄉農會","LANDMARKAD":"1000716","ADDRESS":"彰化縣永靖鄉瑚璉村東門路95號","TEL":"04-8221161-5","COUNTYNAME":"彰化縣","TOWNNAME":"永靖鄉","MARKTYPE":"994","Class":"4"},"geometry":{"x":120.54988617707363,"y":23.922293940291581}},{"attributes":{"OBJECTID":27815,"LANDMARKID":"1000700000785","LANDMARKCO":"404","LANDMARKNA":"台灣省自來水永靖營運所","LANDMARKAD":"1000716","ADDRESS":"彰化縣永靖鄉永坡路175號","TEL":" ","COUNTYNAME":"彰化縣","TOWNNAME":"永靖鄉","MARKTYPE":"994","Class":"4"},"geometry":{"x":120.54333896024096,"y":23.928745613719368}},{"attributes":{"OBJECTID":27816,"LANDMARKID":"1000700000968","LANDMARKCO":"406","LANDMARKNA":"運動公園","LANDMARKAD":"1000716","ADDRESS":"彰化縣永靖鄉","TEL":" ","COUNTYNAME":"彰化縣","TOWNNAME":"永靖鄉","MARKTYPE":"994","Class":"4"},"geometry":{"x":120.56387409342625,"y":23.906249161986949}},{"attributes":{"OBJECTID":27817,"LANDMARKID":"1000700000834","LANDMARKCO":"405","LANDMARKNA":"台亞加油站-群邦站（台塑）","LANDMARKAD":"1000716","ADDRESS":"彰化縣永靖鄉港西村中山路1段416號","TEL":"(04)823-6196","COUNTYNAME":"彰化縣","TOWNNAME":"永靖鄉","MARKTYPE":"994","Class":"4"},"geometry":{"x":120.54394656515376,"y":23.91253852939052}},{"attributes":{"OBJECTID":27818,"LANDMARKID":"1000700000273","LANDMARKCO":"108","LANDMARKNA":"彰化縣永靖鄉公所","LANDMARKAD":"1000716","ADDRESS":"彰化縣永靖鄉永西村瑚璉路230號","TEL":"04-8221191","COUNTYNAME":"彰化縣","TOWNNAME":"永靖鄉","MARKTYPE":"991","Class":"1"},"geometry":{"x":120.54776012922335,"y":23.924692976620005}},{"attributes":{"OBJECTID":27819,"LANDMARKID":"1000700000051","LANDMARKCO":"103","LANDMARKNA":"彰化縣永靖鄉鄉民代表會","LANDMARKAD":"1000716","ADDRESS":"彰化縣永靖鄉瑚璉路230號","TEL":"04-8221802","COUNTYNAME":"彰化縣","TOWNNAME":"永靖鄉","MARKTYPE":"991","Class":"1"},"geometry":{"x":120.54776012922335,"y":23.924692976620005}},{"attributes":{"OBJECTID":27820,"LANDMARKID":"1000700000052","LANDMARKCO":"103","LANDMARKNA":"彰化縣永靖鄉衛生所","LANDMARKAD":"1000716","ADDRESS":"彰化縣永靖鄉永西村西興路91號","TEL":"04-8234193","COUNTYNAME":"彰化縣","TOWNNAME":"永靖鄉","MARKTYPE":"991","Class":"1"},"geometry":{"x":120.54766828612593,"y":23.925037582689757}},{"attributes":{"OBJECTID":27821,"LANDMARKID":"1000700000194","LANDMARKCO":"107","LANDMARKNA":"彰化縣消防局永靖消防分隊","LANDMARKAD":"1000716","ADDRESS":"彰化縣永靖鄉永靖街2號","TEL":"04-8223004","COUNTYNAME":"彰化縣","TOWNNAME":"永靖鄉","MARKTYPE":"991","Class":"1"},"geometry":{"x":120.54712700412131,"y":23.920113835667479}},{"attributes":{"OBJECTID":27822,"LANDMARKID":"1000700000195","LANDMARKCO":"107","LANDMARKNA":"彰化縣警察局永靖分駐所","LANDMARKAD":"1000716","ADDRESS":"彰化縣永靖鄉永東村中山路二段17號","TEL":"04-8221813","COUNTYNAME":"彰化縣","TOWNNAME":"永靖鄉","MARKTYPE":"991","Class":"1"},"geometry":{"x":120.54735929619483,"y":23.920309089833989}},{"attributes":{"OBJECTID":27823,"LANDMARKID":"1000700000196","LANDMARKCO":"107","LANDMARKNA":"彰化縣警察局同安派出所","LANDMARKAD":"1000716","ADDRESS":"彰化縣永靖鄉同安村永福路一段692號","TEL":"04-8222159","COUNTYNAME":"彰化縣","TOWNNAME":"永靖鄉","MARKTYPE":"991","Class":"1"},"geometry":{"x":120.52772347393467,"y":23.924187170670372}},{"attributes":{"OBJECTID":27824,"LANDMARKID":"1000700000126","LANDMARKCO":"106","LANDMARKNA":"彰化縣永靖鄉戶政事務所","LANDMARKAD":"1000716","ADDRESS":"彰化縣永靖鄉永東村7鄰永靖街20號","TEL":"04-8223825","COUNTYNAME":"彰化縣","TOWNNAME":"永靖鄉","MARKTYPE":"991","Class":"1"},"geometry":{"x":120.547047191969,"y":23.920329306693489}},{"attributes":{"OBJECTID":27825,"LANDMARKID":"1000700000548","LANDMARKCO":"204","LANDMARKNA":"彰化縣立圖書館永靖分館","LANDMARKAD":"1000716","ADDRESS":"彰化縣永靖鄉永西村永安街86號","TEL":" ","COUNTYNAME":"彰化縣","TOWNNAME":"永靖鄉","MARKTYPE":"992","Class":"2"},"geometry":{"x":120.5459092358312,"y":23.921636110529192}},{"attributes":{"OBJECTID":27826,"LANDMARKID":"1000700000377","LANDMARKCO":"203","LANDMARKNA":"縣立永靖國中","LANDMARKAD":"1000716","ADDRESS":"彰化縣永靖鄉湖璉村多福路126號","TEL":"04-8221929","COUNTYNAME":"彰化縣","TOWNNAME":"永靖鄉","MARKTYPE":"992","Class":"2"},"geometry":{"x":120.55088355036368,"y":23.930060989537651}},{"attributes":{"OBJECTID":27827,"LANDMARKID":"1000700000378","LANDMARKCO":"203","LANDMARKNA":"縣立德興國小","LANDMARKAD":"1000716","ADDRESS":"彰化縣永靖鄉竹子村竹後巷47號","TEL":"04-8222158","COUNTYNAME":"彰化縣","TOWNNAME":"永靖鄉","MARKTYPE":"992","Class":"2"},"geometry":{"x":120.50320157492334,"y":23.929913026369263}},{"attributes":{"OBJECTID":27828,"LANDMARKID":"1000700000307","LANDMARKCO":"202","LANDMARKNA":"國立永靖高工","LANDMARKAD":"1000716","ADDRESS":"彰化縣永靖鄉永北村永坡路101號","TEL":"04-8221810","COUNTYNAME":"彰化縣","TOWNNAME":"永靖鄉","MARKTYPE":"992","Class":"2"},"geometry":{"x":120.54549924483513,"y":23.926691684066114}},{"attributes":{"OBJECTID":27829,"LANDMARKID":"1000700000373","LANDMARKCO":"203","LANDMARKNA":"縣立永靖國小","LANDMARKAD":"1000716","ADDRESS":"彰化縣永靖鄉永東村中山路二段65號","TEL":"04-8221812","COUNTYNAME":"彰化縣","TOWNNAME":"永靖鄉","MARKTYPE":"992","Class":"2"},"geometry":{"x":120.54801420792754,"y":23.920639541973248}},{"attributes":{"OBJECTID":27830,"LANDMARKID":"1000700000374","LANDMARKCO":"203","LANDMARKNA":"縣立福興國小","LANDMARKAD":"1000716","ADDRESS":"彰化縣永靖鄉福興村永福路二段160號","TEL":"04-8222062","COUNTYNAME":"彰化縣","TOWNNAME":"永靖鄉","MARKTYPE":"992","Class":"2"},"geometry":{"x":120.52262513960811,"y":23.919924824472009}},{"attributes":{"OBJECTID":27831,"LANDMARKID":"1000700000375","LANDMARKCO":"203","LANDMARKNA":"縣立永興國小","LANDMARKAD":"1000716","ADDRESS":"彰化縣永靖鄉東寧村永興路二段32號","TEL":"04-8221714","COUNTYNAME":"彰化縣","TOWNNAME":"永靖鄉","MARKTYPE":"992","Class":"2"},"geometry":{"x":120.56686395725339,"y":23.925461597361899}},{"attributes":{"OBJECTID":27832,"LANDMARKID":"1000700000376","LANDMARKCO":"203","LANDMARKNA":"縣立福德國小","LANDMARKAD":"1000716","ADDRESS":"彰化縣永靖鄉永南村福德巷36號","TEL":"04-8224154","COUNTYNAME":"彰化縣","TOWNNAME":"永靖鄉","MARKTYPE":"992","Class":"2"},"geometry":{"x":120.54140592990841,"y":23.914792896320993}},{"attributes":{"OBJECTID":27833,"LANDMARKID":"1000700000568","LANDMARKCO":"301","LANDMARKNA":"永靖火車站","LANDMARKAD":"1000716","ADDRESS":"彰化縣永靖鄉","TEL":" ","COUNTYNAME":"彰化縣","TOWNNAME":"永靖鄉","MARKTYPE":"993","Class":"301"},"geometry":{"x":120.57187783453129,"y":23.928042683008282}},{"attributes":{"OBJECTID":27834,"LANDMARKID":"1000700000758","LANDMARKCO":"402","LANDMARKNA":"中華電信-永靖服務中心","LANDMARKAD":"1000716","ADDRESS":"彰化縣永靖鄉瑚璉路433號","TEL":"(04)822-4040","COUNTYNAME":"彰化縣","TOWNNAME":"永靖鄉","MARKTYPE":"994","Class":"4"},"geometry":{"x":120.54393864955308,"y":23.923046854052842}},{"attributes":{"OBJECTID":27835,"LANDMARKID":"1000700001170","LANDMARKCO":"603","LANDMARKNA":"遠東汽車旅館","LANDMARKAD":"1000716","ADDRESS":"彰化縣永靖鄉五汴村中山路三段228號1-2樓","TEL":"04-8233769","COUNTYNAME":"彰化縣","TOWNNAME":"永靖鄉","MARKTYPE":"996","Class":"6"},"geometry":{"x":120.55529854979729,"y":23.933654213873481}},{"attributes":{"OBJECTID":27836,"LANDMARKID":"1000700000819","LANDMARKCO":"405","LANDMARKNA":"中油加油站-員村員集路站","LANDMARKAD":"1000717","ADDRESS":"彰化縣社頭鄉員集路1段150號","TEL":"04-8736000","COUNTYNAME":"彰化縣","TOWNNAME":"社頭鄉","MARKTYPE":"994","Class":"4"},"geometry":{"x":120.58702610997476,"y":23.879924164236954}},{"attributes":{"OBJECTID":27837,"LANDMARKID":"1000700000820","LANDMARKCO":"405","LANDMARKNA":"中油加油站-社頭站(中油直營)","LANDMARKAD":"1000717","ADDRESS":"彰化縣社頭鄉員集路二段583號","TEL":"04-8732534","COUNTYNAME":"彰化縣","TOWNNAME":"社頭鄉","MARKTYPE":"994","Class":"4"},"geometry":{"x":120.58370837305449,"y":23.904648838607514}},{"attributes":{"OBJECTID":27838,"LANDMARKID":"1000700000821","LANDMARKCO":"405","LANDMARKNA":"中油加油站-員村社頭站","LANDMARKAD":"1000717","ADDRESS":"彰化縣社頭鄉橋頭村中山路3段72號","TEL":"04-8727677","COUNTYNAME":"彰化縣","TOWNNAME":"社頭鄉","MARKTYPE":"994","Class":"4"},"geometry":{"x":120.58311589795275,"y":23.909071256398839}},{"attributes":{"OBJECTID":27839,"LANDMARKID":"1000700000759","LANDMARKCO":"402","LANDMARKNA":"亞太行動寬頻電信-社頭員集加盟服務中心","LANDMARKAD":"1000717","ADDRESS":"彰化縣社頭鄉員集路2段292號","TEL":"04-8731199","COUNTYNAME":"彰化縣","TOWNNAME":"社頭鄉","MARKTYPE":"994","Class":"4"},"geometry":{"x":120.5873920982589,"y":23.900014584316388}},{"attributes":{"OBJECTID":27840,"LANDMARKID":"1000700001022","LANDMARKCO":"408","LANDMARKNA":"郵局-社頭郵局","LANDMARKAD":"1000717","ADDRESS":"彰化縣社頭鄉員集路2段195號","TEL":"(04)8732-201","COUNTYNAME":"彰化縣","TOWNNAME":"社頭鄉","MARKTYPE":"994","Class":"4"},"geometry":{"x":120.58760439073701,"y":23.898360083464638}},{"attributes":{"OBJECTID":27841,"LANDMARKID":"1000700001023","LANDMARKCO":"408","LANDMARKNA":"郵局-社頭湳雅郵局","LANDMARKAD":"1000717","ADDRESS":"彰化縣社頭鄉山腳路3段325號","TEL":"(04)8721-038","COUNTYNAME":"彰化縣","TOWNNAME":"社頭鄉","MARKTYPE":"994","Class":"4"},"geometry":{"x":120.60463093094494,"y":23.919317849864942}},{"attributes":{"OBJECTID":27842,"LANDMARKID":"1000700001056","LANDMARKCO":"409","LANDMARKNA":"彰化縣社頭鄉農會","LANDMARKAD":"1000717","ADDRESS":"彰化縣社頭鄉社頭村社斗路一段360號","TEL":"04-8732516","COUNTYNAME":"彰化縣","TOWNNAME":"社頭鄉","MARKTYPE":"994","Class":"4"},"geometry":{"x":120.58339239516586,"y":23.896299059308539}},{"attributes":{"OBJECTID":27843,"LANDMARKID":"1000700000787","LANDMARKCO":"404","LANDMARKNA":"台灣省自來水社頭營運所","LANDMARKAD":"1000717","ADDRESS":"彰化縣社頭鄉清興路121號","TEL":" ","COUNTYNAME":"彰化縣","TOWNNAME":"社頭鄉","MARKTYPE":"994","Class":"4"},"geometry":{"x":120.60933734977164,"y":23.90301344905486}},{"attributes":{"OBJECTID":27844,"LANDMARKID":"1000700000817","LANDMARKCO":"405","LANDMARKNA":"台塑加油站-員田站(台塑)","LANDMARKAD":"1000717","ADDRESS":"彰化縣社頭鄉山腳路四段170號","TEL":"04-8736289","COUNTYNAME":"彰化縣","TOWNNAME":"社頭鄉","MARKTYPE":"994","Class":"4"},"geometry":{"x":120.60312396264966,"y":23.929805379244844}},{"attributes":{"OBJECTID":27845,"LANDMARKID":"1000700000818","LANDMARKCO":"405","LANDMARKNA":"福懋加油站-社頭站(台塑)","LANDMARKAD":"1000717","ADDRESS":"彰化縣社頭鄉員集路四段681號","TEL":"04-8725565","COUNTYNAME":"彰化縣","TOWNNAME":"社頭鄉","MARKTYPE":"994","Class":"4"},"geometry":{"x":120.57699967422457,"y":23.934334463058583}},{"attributes":{"OBJECTID":27846,"LANDMARKID":"1000700000049","LANDMARKCO":"103","LANDMARKNA":"彰化縣社頭鄉衛生所","LANDMARKAD":"1000717","ADDRESS":"彰化縣社頭鄉社頭村員集路一段409號","TEL":"04-8722661","COUNTYNAME":"彰化縣","TOWNNAME":"社頭鄉","MARKTYPE":"991","Class":"1"},"geometry":{"x":120.58605309630012,"y":23.902082706047604}},{"attributes":{"OBJECTID":27847,"LANDMARKID":"1000700000188","LANDMARKCO":"107","LANDMARKNA":"彰化縣消防局社頭消防分隊","LANDMARKAD":"1000717","ADDRESS":"彰化縣社頭鄉員集路二段204號","TEL":"04-8732204","COUNTYNAME":"彰化縣","TOWNNAME":"社頭鄉","MARKTYPE":"991","Class":"1"},"geometry":{"x":120.58794247559392,"y":23.898563826354437}},{"attributes":{"OBJECTID":27848,"LANDMARKID":"1000700000272","LANDMARKCO":"108","LANDMARKNA":"彰化縣社頭鄉公所","LANDMARKAD":"1000717","ADDRESS":"彰化縣社頭鄉仁雅村社斗路一段295號","TEL":"04-8732621","COUNTYNAME":"彰化縣","TOWNNAME":"社頭鄉","MARKTYPE":"991","Class":"1"},"geometry":{"x":120.58582810447321,"y":23.896812644108323}},{"attributes":{"OBJECTID":27849,"LANDMARKID":"1000700000050","LANDMARKCO":"103","LANDMARKNA":"彰化縣社頭鄉民代表會","LANDMARKAD":"1000717","ADDRESS":"彰化縣社頭鄉社斗路一段295號","TEL":"04-8732024","COUNTYNAME":"彰化縣","TOWNNAME":"社頭鄉","MARKTYPE":"991","Class":"1"},"geometry":{"x":120.58582810447321,"y":23.896812644108323}},{"attributes":{"OBJECTID":27850,"LANDMARKID":"1000700000186","LANDMARKCO":"107","LANDMARKNA":"彰化縣警察局社頭分駐所","LANDMARKAD":"1000717","ADDRESS":"彰化縣社頭鄉社頭村員集路二段210號","TEL":"04-8732036","COUNTYNAME":"彰化縣","TOWNNAME":"社頭鄉","MARKTYPE":"991","Class":"1"},"geometry":{"x":120.58807633926689,"y":23.898532525514995}},{"attributes":{"OBJECTID":27851,"LANDMARKID":"1000700000187","LANDMARKCO":"107","LANDMARKNA":"彰化縣警察局朝興派出所","LANDMARKAD":"1000717","ADDRESS":"彰化縣社頭鄉朝興村水源路12號","TEL":"04-8732174","COUNTYNAME":"彰化縣","TOWNNAME":"社頭鄉","MARKTYPE":"991","Class":"1"},"geometry":{"x":120.61003352590093,"y":23.903471931365988}},{"attributes":{"OBJECTID":27852,"LANDMARKID":"1000700000129","LANDMARKCO":"106","LANDMARKNA":"彰化縣社頭鄉戶政事務所","LANDMARKAD":"1000717","ADDRESS":"彰化縣社頭鄉社頭村10鄰員集路二段220號","TEL":"04-8732464","COUNTYNAME":"彰化縣","TOWNNAME":"社頭鄉","MARKTYPE":"991","Class":"1"},"geometry":{"x":120.58788903857852,"y":23.898683175609612}},{"attributes":{"OBJECTID":27853,"LANDMARKID":"1000700000544","LANDMARKCO":"204","LANDMARKNA":"彰化縣立圖書館社頭分館","LANDMARKAD":"1000717","ADDRESS":"彰化縣社頭鄉仁雅村信義三路55號","TEL":" ","COUNTYNAME":"彰化縣","TOWNNAME":"社頭鄉","MARKTYPE":"992","Class":"2"},"geometry":{"x":120.58947728989725,"y":23.897409288263152}},{"attributes":{"OBJECTID":27854,"LANDMARKID":"1000700000397","LANDMARKCO":"203","LANDMARKNA":"縣立社頭國小","LANDMARKAD":"1000717","ADDRESS":"彰化縣社頭鄉社頭村社斗路9號","TEL":"04-8732039","COUNTYNAME":"彰化縣","TOWNNAME":"社頭鄉","MARKTYPE":"992","Class":"2"},"geometry":{"x":120.5865219031287,"y":23.898014425285819}},{"attributes":{"OBJECTID":27855,"LANDMARKID":"1000700000398","LANDMARKCO":"203","LANDMARKNA":"縣立清水國小","LANDMARKAD":"1000717","ADDRESS":"彰化縣社頭鄉清水村山腳路一段486號","TEL":"04-8731285","COUNTYNAME":"彰化縣","TOWNNAME":"社頭鄉","MARKTYPE":"992","Class":"2"},"geometry":{"x":120.61002015651195,"y":23.889500886959262}},{"attributes":{"OBJECTID":27856,"LANDMARKID":"1000700000399","LANDMARKCO":"203","LANDMARKNA":"縣立湳雅國小","LANDMARKAD":"1000717","ADDRESS":"彰化縣社頭鄉山腳路三段395號","TEL":"04-8735007","COUNTYNAME":"彰化縣","TOWNNAME":"社頭鄉","MARKTYPE":"992","Class":"2"},"geometry":{"x":120.60286357030738,"y":23.92044985679226}},{"attributes":{"OBJECTID":27857,"LANDMARKID":"1000700000400","LANDMARKCO":"203","LANDMARKNA":"縣立橋頭國小","LANDMARKAD":"1000717","ADDRESS":"彰化縣社頭鄉僑頭村員集路三段528號","TEL":"04-8731265","COUNTYNAME":"彰化縣","TOWNNAME":"社頭鄉","MARKTYPE":"992","Class":"2"},"geometry":{"x":120.58264971833005,"y":23.918866776335427}},{"attributes":{"OBJECTID":27858,"LANDMARKID":"1000700000401","LANDMARKCO":"203","LANDMARKNA":"縣立社頭國中","LANDMARKAD":"1000717","ADDRESS":"彰化縣社頭鄉廣興村中興路1號","TEL":"04-8732047","COUNTYNAME":"彰化縣","TOWNNAME":"社頭鄉","MARKTYPE":"992","Class":"2"},"geometry":{"x":120.58395047608612,"y":23.901476860498438}},{"attributes":{"OBJECTID":27859,"LANDMARKID":"1000700000402","LANDMARKCO":"203","LANDMARKNA":"縣立朝興國小","LANDMARKAD":"1000717","ADDRESS":"彰化縣社頭鄉朝興村社石路91號","TEL":"04-8732484","COUNTYNAME":"彰化縣","TOWNNAME":"社頭鄉","MARKTYPE":"992","Class":"2"},"geometry":{"x":120.60648413022061,"y":23.908324829316868}},{"attributes":{"OBJECTID":27860,"LANDMARKID":"1000700000403","LANDMARKCO":"203","LANDMARKNA":"縣立舊社國小","LANDMARKAD":"1000717","ADDRESS":"彰化縣社頭鄉社石路956號","TEL":"04-8711001","COUNTYNAME":"彰化縣","TOWNNAME":"社頭鄉","MARKTYPE":"992","Class":"2"},"geometry":{"x":120.59182962341971,"y":23.900756702392091}},{"attributes":{"OBJECTID":27861,"LANDMARKID":"1000700000404","LANDMARKCO":"203","LANDMARKNA":"縣立崙雅國小","LANDMARKAD":"1000717","ADDRESS":"彰化縣社頭鄉美雅村員集路一段615號","TEL":"04-8710945","COUNTYNAME":"彰化縣","TOWNNAME":"社頭鄉","MARKTYPE":"992","Class":"2"},"geometry":{"x":120.58699567886342,"y":23.889207339356709}},{"attributes":{"OBJECTID":27862,"LANDMARKID":"1000700000405","LANDMARKCO":"203","LANDMARKNA":"國立彰化啟智學校","LANDMARKAD":"1000717","ADDRESS":"彰化縣社頭鄉中山路一段306號","TEL":"04-8727303","COUNTYNAME":"彰化縣","TOWNNAME":"社頭鄉","MARKTYPE":"992","Class":"2"},"geometry":{"x":120.5845026212243,"y":23.892721509205682}},{"attributes":{"OBJECTID":27863,"LANDMARKID":"1000700000590","LANDMARKCO":"303","LANDMARKNA":"清水岩森林遊樂區停車場","LANDMARKAD":"1000717","ADDRESS":"彰化縣社頭鄉","TEL":" ","COUNTYNAME":"彰化縣","TOWNNAME":"社頭鄉","MARKTYPE":"993","Class":"303"},"geometry":{"x":120.61354611754946,"y":23.885453652695958}},{"attributes":{"OBJECTID":27864,"LANDMARKID":"1000700000569","LANDMARKCO":"301","LANDMARKNA":"社頭火車站","LANDMARKAD":"1000717","ADDRESS":"彰化縣社頭鄉廣興村社站路10號","TEL":"04-8711646","COUNTYNAME":"彰化縣","TOWNNAME":"社頭鄉","MARKTYPE":"993","Class":"301"},"geometry":{"x":120.58072367752902,"y":23.89631314292231}},{"attributes":{"OBJECTID":27865,"LANDMARKID":"1000700000757","LANDMARKCO":"402","LANDMARKNA":"中華電信-社頭服務中心","LANDMARKAD":"1000717","ADDRESS":"彰化縣社頭鄉員集路二段555號","TEL":"(04)873-4040","COUNTYNAME":"彰化縣","TOWNNAME":"社頭鄉","MARKTYPE":"994","Class":"4"},"geometry":{"x":120.58406471031591,"y":23.904166823122871}},{"attributes":{"OBJECTID":27866,"LANDMARKID":"1000700001167","LANDMARKCO":"603","LANDMARKNA":"王子旅社","LANDMARKAD":"1000717","ADDRESS":"彰化縣社頭鄉社頭村光明巷33弄18號","TEL":"04-8732216","COUNTYNAME":"彰化縣","TOWNNAME":"社頭鄉","MARKTYPE":"996","Class":"6"},"geometry":{"x":120.58900389223355,"y":23.899997764933897}},{"attributes":{"OBJECTID":27867,"LANDMARKID":"1000700001168","LANDMARKCO":"603","LANDMARKNA":"芝加哥賓館","LANDMARKAD":"1000717","ADDRESS":"彰化縣社頭鄉社頭村光明巷33弄20號","TEL":"04-8732171","COUNTYNAME":"彰化縣","TOWNNAME":"社頭鄉","MARKTYPE":"996","Class":"6"},"geometry":{"x":120.58900256715803,"y":23.900042882900966}},{"attributes":{"OBJECTID":27868,"LANDMARKID":"1000700001169","LANDMARKCO":"603","LANDMARKNA":"光明大旅社","LANDMARKAD":"1000717","ADDRESS":"彰化縣社頭鄉社頭村光明巷59號2樓","TEL":"04-8732610","COUNTYNAME":"彰化縣","TOWNNAME":"社頭鄉","MARKTYPE":"996","Class":"6"},"geometry":{"x":120.58866360751334,"y":23.900843126187628}},{"attributes":{"OBJECTID":27869,"LANDMARKID":"1000700001204","LANDMARKCO":"604","LANDMARKNA":"阿信的家","LANDMARKAD":"1000717","ADDRESS":"彰化縣社頭鄉龍井村水井巷2-7號","TEL":"0963-009775","COUNTYNAME":"彰化縣","TOWNNAME":"社頭鄉","MARKTYPE":"996","Class":"6"},"geometry":{"x":120.6140348882318,"y":23.921616186276584}},{"attributes":{"OBJECTID":27870,"LANDMARKID":"1000700001084","LANDMARKCO":"504","LANDMARKNA":"清水岩森林遊樂區","LANDMARKAD":"1000717","ADDRESS":"彰化縣社頭鄉","TEL":"04-8739839","COUNTYNAME":"彰化縣","TOWNNAME":"社頭鄉","MARKTYPE":"995","Class":"5"},"geometry":{"x":120.61410283791338,"y":23.884944044474061}},{"attributes":{"OBJECTID":27871,"LANDMARKID":"1000700001085","LANDMARKCO":"504","LANDMARKNA":"清水岩童軍營地","LANDMARKAD":"1000717","ADDRESS":"彰化縣社頭鄉山腳路一段268號","TEL":" ","COUNTYNAME":"彰化縣","TOWNNAME":"社頭鄉","MARKTYPE":"995","Class":"5"},"geometry":{"x":120.60868093883532,"y":23.884773958899647}},{"attributes":{"OBJECTID":27872,"LANDMARKID":"1000700000822","LANDMARKCO":"405","LANDMARKNA":"中油加油站-田尾二站(中油直營)","LANDMARKAD":"1000721","ADDRESS":"彰化縣田尾鄉饒平村中山路一段575號","TEL":"04-8835425","COUNTYNAME":"彰化縣","TOWNNAME":"田尾鄉","MARKTYPE":"994","Class":"4"},"geometry":{"x":120.53094322411771,"y":23.893338586130728}},{"attributes":{"OBJECTID":27873,"LANDMARKID":"1000700000823","LANDMARKCO":"405","LANDMARKNA":"中油加油站-永村田尾站","LANDMARKAD":"1000721","ADDRESS":"彰化縣田尾鄉中山路1段142號","TEL":"04-8835656","COUNTYNAME":"彰化縣","TOWNNAME":"田尾鄉","MARKTYPE":"994","Class":"4"},"geometry":{"x":120.52475669456881,"y":23.8867150870337}},{"attributes":{"OBJECTID":27874,"LANDMARKID":"1000700000824","LANDMARKCO":"405","LANDMARKNA":"中油加油站-田尾站(中油直營)","LANDMARKAD":"1000721","ADDRESS":"彰化縣田尾鄉饒平村中山路一段393號","TEL":"04-8831042","COUNTYNAME":"彰化縣","TOWNNAME":"田尾鄉","MARKTYPE":"994","Class":"4"},"geometry":{"x":120.52684656271462,"y":23.89035016308241}},{"attributes":{"OBJECTID":27875,"LANDMARKID":"1000700001136","LANDMARKCO":"512","LANDMARKNA":"田尾公路花園遊客服務中心","LANDMARKAD":"1000721","ADDRESS":"彰化縣田尾鄉民族路一段156號","TEL":" ","COUNTYNAME":"彰化縣","TOWNNAME":"田尾鄉","MARKTYPE":"995","Class":"5"},"geometry":{"x":120.53113077640698,"y":23.896120348697902}},{"attributes":{"OBJECTID":27876,"LANDMARKID":"1000700001024","LANDMARKCO":"408","LANDMARKNA":"郵局-田尾郵局","LANDMARKAD":"1000721","ADDRESS":"彰化縣田尾鄉光復路3段26號","TEL":"(04)8832-425","COUNTYNAME":"彰化縣","TOWNNAME":"田尾鄉","MARKTYPE":"994","Class":"4"},"geometry":{"x":120.52909199666558,"y":23.892220100353608}},{"attributes":{"OBJECTID":27877,"LANDMARKID":"1000700001055","LANDMARKCO":"409","LANDMARKNA":"彰化縣田尾鄉農會","LANDMARKAD":"1000721","ADDRESS":"彰化縣田尾鄉饒平村公所路139號","TEL":"04-8830970","COUNTYNAME":"彰化縣","TOWNNAME":"田尾鄉","MARKTYPE":"994","Class":"4"},"geometry":{"x":120.52458422573658,"y":23.891104455364118}},{"attributes":{"OBJECTID":27878,"LANDMARKID":"1000700000971","LANDMARKCO":"406","LANDMARKNA":"公路花園","LANDMARKAD":"1000721","ADDRESS":"彰化縣田尾鄉打廉村民生路","TEL":" ","COUNTYNAME":"彰化縣","TOWNNAME":"田尾鄉","MARKTYPE":"994","Class":"4"},"geometry":{"x":120.53691123300149,"y":23.903078060442265}},{"attributes":{"OBJECTID":27879,"LANDMARKID":"1000700000275","LANDMARKCO":"108","LANDMARKNA":"彰化縣田尾鄉公所","LANDMARKAD":"1000721","ADDRESS":"彰化縣田尾鄉饒平村公所路201號","TEL":"04-8832171","COUNTYNAME":"彰化縣","TOWNNAME":"田尾鄉","MARKTYPE":"991","Class":"1"},"geometry":{"x":120.52579130454387,"y":23.892242246363836}},{"attributes":{"OBJECTID":27880,"LANDMARKID":"1000700000045","LANDMARKCO":"103","LANDMARKNA":"彰化縣田尾鄉衛生所","LANDMARKAD":"1000721","ADDRESS":"彰化縣田尾鄉競平村光復路二段608號","TEL":"04-8832145","COUNTYNAME":"彰化縣","TOWNNAME":"田尾鄉","MARKTYPE":"991","Class":"1"},"geometry":{"x":120.53281966583242,"y":23.889920532223332}},{"attributes":{"OBJECTID":27881,"LANDMARKID":"1000700000046","LANDMARKCO":"103","LANDMARKNA":"彰化縣田尾鄉鄉民代表會","LANDMARKAD":"1000721","ADDRESS":"彰化縣田尾鄉公所路187號","TEL":"04-8831101","COUNTYNAME":"彰化縣","TOWNNAME":"田尾鄉","MARKTYPE":"991","Class":"1"},"geometry":{"x":120.52571471948453,"y":23.891970886137891}},{"attributes":{"OBJECTID":27882,"LANDMARKID":"1000700000178","LANDMARKCO":"107","LANDMARKNA":"彰化縣消防局田尾消防分隊","LANDMARKAD":"1000721","ADDRESS":"彰化縣田尾鄉公所路207號","TEL":"04-8832086","COUNTYNAME":"彰化縣","TOWNNAME":"田尾鄉","MARKTYPE":"991","Class":"1"},"geometry":{"x":120.52587381591425,"y":23.891700979207144}},{"attributes":{"OBJECTID":27883,"LANDMARKID":"1000700000179","LANDMARKCO":"107","LANDMARKNA":"彰化縣警察局田尾分駐所","LANDMARKAD":"1000721","ADDRESS":"彰化縣田尾鄉田尾村光復路三段138號","TEL":"04-8832854","COUNTYNAME":"彰化縣","TOWNNAME":"田尾鄉","MARKTYPE":"991","Class":"1"},"geometry":{"x":120.52628950214454,"y":23.892606499574992}},{"attributes":{"OBJECTID":27884,"LANDMARKID":"1000700000180","LANDMARKCO":"107","LANDMARKNA":"彰化縣警察局海豐派出所","LANDMARKAD":"1000721","ADDRESS":"彰化縣田尾鄉陸豐村民生路三段280號","TEL":"04-8222160","COUNTYNAME":"彰化縣","TOWNNAME":"田尾鄉","MARKTYPE":"991","Class":"1"},"geometry":{"x":120.50292889148493,"y":23.917631211884004}},{"attributes":{"OBJECTID":27885,"LANDMARKID":"1000700000131","LANDMARKCO":"106","LANDMARKNA":"彰化縣田尾鄉戶政事務所","LANDMARKAD":"1000721","ADDRESS":"彰化縣田尾鄉田尾村2鄰光復路三段148號","TEL":"04-8832965","COUNTYNAME":"彰化縣","TOWNNAME":"田尾鄉","MARKTYPE":"991","Class":"1"},"geometry":{"x":120.52568064918935,"y":23.892602747371441}},{"attributes":{"OBJECTID":27886,"LANDMARKID":"1000700000021","LANDMARKCO":"101","LANDMARKNA":"台灣彰化地方法院北斗簡易庭","LANDMARKAD":"1000721","ADDRESS":"彰化縣田尾鄉饒平村建平路二段91號","TEL":"04-8834331","COUNTYNAME":"彰化縣","TOWNNAME":"田尾鄉","MARKTYPE":"991","Class":"1"},"geometry":{"x":120.52357986378848,"y":23.885645668031316}},{"attributes":{"OBJECTID":27887,"LANDMARKID":"1000700000545","LANDMARKCO":"204","LANDMARKNA":"彰化縣立圖書館田尾分館","LANDMARKAD":"1000721","ADDRESS":"彰化縣田尾鄉饒平村公所路185號","TEL":" ","COUNTYNAME":"彰化縣","TOWNNAME":"田尾鄉","MARKTYPE":"992","Class":"2"},"geometry":{"x":120.52527266441109,"y":23.891618401811233}},{"attributes":{"OBJECTID":27888,"LANDMARKID":"1000700000392","LANDMARKCO":"203","LANDMARKNA":"縣立田尾國中","LANDMARKAD":"1000721","ADDRESS":"彰化縣田尾鄉饒平村中學路二段18號","TEL":"04-8830174","COUNTYNAME":"彰化縣","TOWNNAME":"田尾鄉","MARKTYPE":"992","Class":"2"},"geometry":{"x":120.53461352925619,"y":23.890374435160187}},{"attributes":{"OBJECTID":27889,"LANDMARKID":"1000700000393","LANDMARKCO":"203","LANDMARKNA":"縣立田尾國小","LANDMARKAD":"1000721","ADDRESS":"彰化縣田尾鄉饒平村中山路一段449號","TEL":"04-8832745","COUNTYNAME":"彰化縣","TOWNNAME":"田尾鄉","MARKTYPE":"992","Class":"2"},"geometry":{"x":120.52738479386369,"y":23.891890868209959}},{"attributes":{"OBJECTID":27890,"LANDMARKID":"1000700000394","LANDMARKCO":"203","LANDMARKNA":"縣立仁豐國小","LANDMARKAD":"1000721","ADDRESS":"彰化縣田尾鄉豐田村中正路二段101號","TEL":"04-8830347","COUNTYNAME":"彰化縣","TOWNNAME":"田尾鄉","MARKTYPE":"992","Class":"2"},"geometry":{"x":120.50870117898525,"y":23.901939205523067}},{"attributes":{"OBJECTID":27891,"LANDMARKID":"1000700000395","LANDMARKCO":"203","LANDMARKNA":"縣立陸豐國小","LANDMARKAD":"1000721","ADDRESS":"彰化縣田尾鄉陸豐村民生路三段200號","TEL":"04-8222563","COUNTYNAME":"彰化縣","TOWNNAME":"田尾鄉","MARKTYPE":"992","Class":"2"},"geometry":{"x":120.50470392665729,"y":23.918003852639181}},{"attributes":{"OBJECTID":27892,"LANDMARKID":"1000700000396","LANDMARKCO":"203","LANDMARKNA":"縣立南鎮國小","LANDMARKAD":"1000721","ADDRESS":"彰化縣田尾鄉南鎮村光復路一段295號","TEL":"04-8227962","COUNTYNAME":"彰化縣","TOWNNAME":"田尾鄉","MARKTYPE":"992","Class":"2"},"geometry":{"x":120.56033974061089,"y":23.886569257271429}},{"attributes":{"OBJECTID":27893,"LANDMARKID":"1000700000591","LANDMARKCO":"303","LANDMARKNA":"北斗鎮停車場","LANDMARKAD":"1000721","ADDRESS":"彰化縣田尾鄉","TEL":" ","COUNTYNAME":"彰化縣","TOWNNAME":"田尾鄉","MARKTYPE":"993","Class":"303"},"geometry":{"x":120.531191433088,"y":23.896821029179527}},{"attributes":{"OBJECTID":27894,"LANDMARKID":"1000700001205","LANDMARKCO":"604","LANDMARKNA":"三益民宿","LANDMARKAD":"1000721","ADDRESS":"彰化縣田尾鄉田尾村民族路121號","TEL":"04-8833528","COUNTYNAME":"彰化縣","TOWNNAME":"田尾鄉","MARKTYPE":"996","Class":"6"},"geometry":{"x":120.53031504377296,"y":23.895539839829347}},{"attributes":{"OBJECTID":27895,"LANDMARKID":"1000700001206","LANDMARKCO":"604","LANDMARKNA":"花宿","LANDMARKAD":"1000721","ADDRESS":"彰化縣田尾鄉溪畔村4鄰張厝巷72號","TEL":"0919-702700","COUNTYNAME":"彰化縣","TOWNNAME":"田尾鄉","MARKTYPE":"996","Class":"6"},"geometry":{"x":120.53514485471705,"y":23.905875559394932}},{"attributes":{"OBJECTID":27896,"LANDMARKID":"1000700001207","LANDMARKCO":"604","LANDMARKNA":"森鼎民宿","LANDMARKAD":"1000721","ADDRESS":"彰化縣田尾鄉溪畔村溪畔巷262號","TEL":"04-8224015","COUNTYNAME":"彰化縣","TOWNNAME":"田尾鄉","MARKTYPE":"996","Class":"6"},"geometry":{"x":120.53804062753206,"y":23.907629880596989}},{"attributes":{"OBJECTID":27897,"LANDMARKID":"1000700000825","LANDMARKCO":"405","LANDMARKNA":"中油加油站-彰水站","LANDMARKAD":"1000722","ADDRESS":"彰化縣埤頭鄉豐崙村彰水路四段75號","TEL":"04-8926228","COUNTYNAME":"彰化縣","TOWNNAME":"埤頭鄉","MARKTYPE":"994","Class":"4"},"geometry":{"x":120.46522093666805,"y":23.904362259350535}},{"attributes":{"OBJECTID":27898,"LANDMARKID":"1000700000826","LANDMARKCO":"405","LANDMARKNA":"中油加油站-連成站","LANDMARKAD":"1000722","ADDRESS":"彰化縣埤頭鄉興農村彰水路4段326號","TEL":"04-8910822","COUNTYNAME":"彰化縣","TOWNNAME":"埤頭鄉","MARKTYPE":"994","Class":"4"},"geometry":{"x":120.47039619133243,"y":23.913272336355437}},{"attributes":{"OBJECTID":27899,"LANDMARKID":"1000700000827","LANDMARKCO":"405","LANDMARKNA":"山隆加油站-彰興站(中油)","LANDMARKAD":"1000722","ADDRESS":"彰化縣埤頭鄉崙腳村彰水路二段928號","TEL":"(04)8922-011","COUNTYNAME":"彰化縣","TOWNNAME":"埤頭鄉","MARKTYPE":"994","Class":"4"},"geometry":{"x":120.45830766257757,"y":23.85776627193879}},{"attributes":{"OBJECTID":27900,"LANDMARKID":"1000700000828","LANDMARKCO":"405","LANDMARKNA":"中油加油站-埤頭站(中油直營)","LANDMARKAD":"1000722","ADDRESS":"彰化縣埤頭鄉中和村彰水路一段499號","TEL":"04-8897844","COUNTYNAME":"彰化縣","TOWNNAME":"埤頭鄉","MARKTYPE":"994","Class":"4"},"geometry":{"x":120.45773974016154,"y":23.84942961546324}},{"attributes":{"OBJECTID":27901,"LANDMARKID":"1000700000829","LANDMARKCO":"405","LANDMARKNA":"中油加油站-北斗交流道站(中油直營)","LANDMARKAD":"1000722","ADDRESS":"彰化縣埤頭鄉斗苑東路7號","TEL":"04-8783372","COUNTYNAME":"彰化縣","TOWNNAME":"埤頭鄉","MARKTYPE":"994","Class":"4"},"geometry":{"x":120.49699454602867,"y":23.883709410382092}},{"attributes":{"OBJECTID":27902,"LANDMARKID":"1000700000830","LANDMARKCO":"405","LANDMARKNA":"台糖加油站-水尾站(中油)","LANDMARKAD":"1000722","ADDRESS":"彰化縣埤頭鄉彰水路一段6號","TEL":"04-8892829","COUNTYNAME":"彰化縣","TOWNNAME":"埤頭鄉","MARKTYPE":"994","Class":"4"},"geometry":{"x":120.46356439326185,"y":23.827328517238076}},{"attributes":{"OBJECTID":27903,"LANDMARKID":"1000700000682","LANDMARKCO":"401","LANDMARKNA":"英仁醫院","LANDMARKAD":"1000722","ADDRESS":"彰化縣埤頭鄉合興村斗苑西路277號","TEL":"04-8922115","COUNTYNAME":"彰化縣","TOWNNAME":"埤頭鄉","MARKTYPE":"994","Class":"4"},"geometry":{"x":120.45905565639343,"y":23.891751255183301}},{"attributes":{"OBJECTID":27904,"LANDMARKID":"1000700001025","LANDMARKCO":"408","LANDMARKNA":"郵局-埤頭郵局","LANDMARKAD":"1000722","ADDRESS":"彰化縣埤頭鄉斗苑西路187號","TEL":"(04)8922-044","COUNTYNAME":"彰化縣","TOWNNAME":"埤頭鄉","MARKTYPE":"994","Class":"4"},"geometry":{"x":120.46055795214322,"y":23.891311887968193}},{"attributes":{"OBJECTID":27905,"LANDMARKID":"1000700001026","LANDMARKCO":"408","LANDMARKNA":"郵局-埤頭路口厝郵局","LANDMARKAD":"1000722","ADDRESS":"彰化縣埤頭鄉溪林路273號","TEL":"(04)8893-404","COUNTYNAME":"彰化縣","TOWNNAME":"埤頭鄉","MARKTYPE":"994","Class":"4"},"geometry":{"x":120.45950877961558,"y":23.846668200167201}},{"attributes":{"OBJECTID":27906,"LANDMARKID":"1000700001054","LANDMARKCO":"409","LANDMARKNA":"彰化縣埤頭鄉農會","LANDMARKAD":"1000722","ADDRESS":"彰化縣埤頭鄉合興村斗苑西路92號","TEL":"04-8922211","COUNTYNAME":"彰化縣","TOWNNAME":"埤頭鄉","MARKTYPE":"994","Class":"4"},"geometry":{"x":120.4644070200673,"y":23.89116451366063}},{"attributes":{"OBJECTID":27907,"LANDMARKID":"1000700000831","LANDMARKCO":"405","LANDMARKNA":"台亞加油站-埤頭交流道站（台塑）","LANDMARKAD":"1000722","ADDRESS":"彰化縣埤頭鄉斗苑東路521號","TEL":"(04)892-7138","COUNTYNAME":"彰化縣","TOWNNAME":"埤頭鄉","MARKTYPE":"994","Class":"4"},"geometry":{"x":120.48046273574958,"y":23.88885287301531}},{"attributes":{"OBJECTID":27908,"LANDMARKID":"1000700000274","LANDMARKCO":"108","LANDMARKNA":"彰化縣埤頭鄉公所","LANDMARKAD":"1000722","ADDRESS":"彰化縣埤頭鄉合興村斗苑西路138號","TEL":"04-8922117","COUNTYNAME":"彰化縣","TOWNNAME":"埤頭鄉","MARKTYPE":"991","Class":"1"},"geometry":{"x":120.46253327179333,"y":23.891404768501911}},{"attributes":{"OBJECTID":27909,"LANDMARKID":"1000700000047","LANDMARKCO":"103","LANDMARKNA":"彰化縣埤頭鄉衛生所","LANDMARKAD":"1000722","ADDRESS":"彰化縣埤頭鄉合興村斗苑西路388巷19號","TEL":"04-8922445","COUNTYNAME":"彰化縣","TOWNNAME":"埤頭鄉","MARKTYPE":"991","Class":"1"},"geometry":{"x":120.45725436356915,"y":23.894818418153466}},{"attributes":{"OBJECTID":27910,"LANDMARKID":"1000700000048","LANDMARKCO":"103","LANDMARKNA":"彰化縣埤頭鄉鄉民代表會","LANDMARKAD":"1000722","ADDRESS":"彰化縣埤頭鄉斗苑西路138號","TEL":"04-8922028","COUNTYNAME":"彰化縣","TOWNNAME":"埤頭鄉","MARKTYPE":"991","Class":"1"},"geometry":{"x":120.46160036587888,"y":23.891398245310242}},{"attributes":{"OBJECTID":27911,"LANDMARKID":"1000700000181","LANDMARKCO":"107","LANDMARKNA":"彰化縣消防局埤頭消防分隊","LANDMARKAD":"1000722","ADDRESS":"彰化縣埤頭鄉安康街100號","TEL":"04-8922844","COUNTYNAME":"彰化縣","TOWNNAME":"埤頭鄉","MARKTYPE":"991","Class":"1"},"geometry":{"x":120.45931062515326,"y":23.889224844195574}},{"attributes":{"OBJECTID":27912,"LANDMARKID":"1000700000182","LANDMARKCO":"107","LANDMARKNA":"彰化縣警察局埤頭分駐所","LANDMARKAD":"1000722","ADDRESS":"彰化縣埤頭鄉合興村斗苑西路305號","TEL":"04-8922041","COUNTYNAME":"彰化縣","TOWNNAME":"埤頭鄉","MARKTYPE":"991","Class":"1"},"geometry":{"x":120.45803334432492,"y":23.891663644837859}},{"attributes":{"OBJECTID":27913,"LANDMARKID":"1000700000183","LANDMARKCO":"107","LANDMARKNA":"彰化縣警察局中和派出所","LANDMARKAD":"1000722","ADDRESS":"彰化縣埤頭鄉忠和村溪林路337號","TEL":"04-8896155","COUNTYNAME":"彰化縣","TOWNNAME":"埤頭鄉","MARKTYPE":"991","Class":"1"},"geometry":{"x":120.45869540311958,"y":23.846511192416877}},{"attributes":{"OBJECTID":27914,"LANDMARKID":"1000700000184","LANDMARKCO":"107","LANDMARKNA":"國公路第三警察隊隊部","LANDMARKAD":"1000722","ADDRESS":"彰化縣埤頭鄉和豐村埔尾路52之2號","TEL":"04-8880622","COUNTYNAME":"彰化縣","TOWNNAME":"埤頭鄉","MARKTYPE":"991","Class":"1"},"geometry":{"x":120.49468269723123,"y":23.889252126162681}},{"attributes":{"OBJECTID":27915,"LANDMARKID":"1000700000185","LANDMARKCO":"107","LANDMARKNA":"國公路第三警察隊員林分隊","LANDMARKAD":"1000722","ADDRESS":"彰化縣埤頭鄉和豐村埔尾路52之2號","TEL":"04-8886803","COUNTYNAME":"彰化縣","TOWNNAME":"埤頭鄉","MARKTYPE":"991","Class":"1"},"geometry":{"x":120.49470233610023,"y":23.889252255669991}},{"attributes":{"OBJECTID":27916,"LANDMARKID":"1000700000130","LANDMARKCO":"106","LANDMARKNA":"彰化縣埤頭鄉戶政事務所","LANDMARKAD":"1000722","ADDRESS":"彰化縣埤頭鄉合興村15鄰斗苑西路315號","TEL":"04-8922340","COUNTYNAME":"彰化縣","TOWNNAME":"埤頭鄉","MARKTYPE":"991","Class":"1"},"geometry":{"x":120.45821941940699,"y":23.891935801676926}},{"attributes":{"OBJECTID":27917,"LANDMARKID":"1000700000546","LANDMARKCO":"204","LANDMARKNA":"彰化縣立圖書館埤頭分館","LANDMARKAD":"1000722","ADDRESS":"彰化縣埤頭鄉林文鄉路135號","TEL":" ","COUNTYNAME":"彰化縣","TOWNNAME":"埤頭鄉","MARKTYPE":"992","Class":"2"},"geometry":{"x":120.4587069649544,"y":23.893241196157192}},{"attributes":{"OBJECTID":27918,"LANDMARKID":"1000700000366","LANDMARKCO":"203","LANDMARKNA":"縣立埤頭國中","LANDMARKAD":"1000722","ADDRESS":"彰化縣埤頭鄉崙腳村和平路64號","TEL":"04-8922004","COUNTYNAME":"彰化縣","TOWNNAME":"埤頭鄉","MARKTYPE":"992","Class":"2"},"geometry":{"x":120.46064340195986,"y":23.880656223071536}},{"attributes":{"OBJECTID":27919,"LANDMARKID":"1000700000367","LANDMARKCO":"203","LANDMARKNA":"縣立大湖國小","LANDMARKAD":"1000722","ADDRESS":"彰化縣埤頭鄉大湖村大湖路5號","TEL":"04-8922009","COUNTYNAME":"彰化縣","TOWNNAME":"埤頭鄉","MARKTYPE":"992","Class":"2"},"geometry":{"x":120.4528447810028,"y":23.865541665670644}},{"attributes":{"OBJECTID":27920,"LANDMARKID":"1000700000368","LANDMARKCO":"203","LANDMARKNA":"縣立埤頭國小","LANDMARKAD":"1000722","ADDRESS":"彰化縣埤頭鄉埤頭村中南路1號","TEL":"04-8922019","COUNTYNAME":"彰化縣","TOWNNAME":"埤頭鄉","MARKTYPE":"992","Class":"2"},"geometry":{"x":120.47749956575096,"y":23.892814254422515}},{"attributes":{"OBJECTID":27921,"LANDMARKID":"1000700000369","LANDMARKCO":"203","LANDMARKNA":"縣立合興國小","LANDMARKAD":"1000722","ADDRESS":"彰化縣埤頭鄉合興村文鄉路161號","TEL":"04-8922030","COUNTYNAME":"彰化縣","TOWNNAME":"埤頭鄉","MARKTYPE":"992","Class":"2"},"geometry":{"x":120.45863124215916,"y":23.894366878016061}},{"attributes":{"OBJECTID":27922,"LANDMARKID":"1000700000370","LANDMARKCO":"203","LANDMARKNA":"縣立豐崙國小","LANDMARKAD":"1000722","ADDRESS":"彰化縣埤頭鄉豐崙村和平路8之1號","TEL":"04-8922136","COUNTYNAME":"彰化縣","TOWNNAME":"埤頭鄉","MARKTYPE":"992","Class":"2"},"geometry":{"x":120.46012563399627,"y":23.917312077208297}},{"attributes":{"OBJECTID":27923,"LANDMARKID":"1000700000371","LANDMARKCO":"203","LANDMARKNA":"縣立芙朝國小","LANDMARKAD":"1000722","ADDRESS":"彰化縣埤頭鄉芙朝村芙朝路19號","TEL":"04-8925057","COUNTYNAME":"彰化縣","TOWNNAME":"埤頭鄉","MARKTYPE":"992","Class":"2"},"geometry":{"x":120.48148048173245,"y":23.87015836221752}},{"attributes":{"OBJECTID":27924,"LANDMARKID":"1000700000372","LANDMARKCO":"203","LANDMARKNA":"縣立中和國小","LANDMARKAD":"1000722","ADDRESS":"彰化縣埤頭鄉中和村溪林路284號","TEL":"04-8895768","COUNTYNAME":"彰化縣","TOWNNAME":"埤頭鄉","MARKTYPE":"992","Class":"2"},"geometry":{"x":120.46030860938411,"y":23.847515728598569}},{"attributes":{"OBJECTID":27925,"LANDMARKID":"1000700000285","LANDMARKCO":"201","LANDMARKNA":"明道管理學院","LANDMARKAD":"1000722","ADDRESS":"彰化縣埤頭鄉文化路369號","TEL":"04-8876660","COUNTYNAME":"彰化縣","TOWNNAME":"埤頭鄉","MARKTYPE":"992","Class":"2"},"geometry":{"x":120.49496202975087,"y":23.870111462001763}},{"attributes":{"OBJECTID":27926,"LANDMARKID":"1000700000666","LANDMARKCO":"308","LANDMARKNA":"國1-北斗交流道-南下","LANDMARKAD":"1000722","ADDRESS":"彰化縣埤頭鄉","TEL":" ","COUNTYNAME":"彰化縣","TOWNNAME":"埤頭鄉","MARKTYPE":"993","Class":"308"},"geometry":{"x":120.48931797666532,"y":23.868633813396468}},{"attributes":{"OBJECTID":27927,"LANDMARKID":"1000700000667","LANDMARKCO":"308","LANDMARKNA":"員林收費站","LANDMARKAD":"1000722","ADDRESS":" ","TEL":" ","COUNTYNAME":"彰化縣","TOWNNAME":"埤頭鄉","MARKTYPE":"993","Class":"308"},"geometry":{"x":120.49364307022984,"y":23.890127108711308}},{"attributes":{"OBJECTID":27928,"LANDMARKID":"1000700000668","LANDMARKCO":"308","LANDMARKNA":"國1-北斗交流道-北上","LANDMARKAD":"1000722","ADDRESS":"彰化縣埤頭鄉","TEL":" ","COUNTYNAME":"彰化縣","TOWNNAME":"埤頭鄉","MARKTYPE":"993","Class":"308"},"geometry":{"x":120.49087838717941,"y":23.876936858752753}},{"attributes":{"OBJECTID":27929,"LANDMARKID":"1000700000592","LANDMARKCO":"303","LANDMARKNA":"彰化縣埤頭鄉公所鄉有停車場","LANDMARKAD":"1000722","ADDRESS":"彰化縣埤頭鄉","TEL":" ","COUNTYNAME":"彰化縣","TOWNNAME":"埤頭鄉","MARKTYPE":"993","Class":"303"},"geometry":{"x":120.46111428691269,"y":23.891941157576301}},{"attributes":{"OBJECTID":27930,"LANDMARKID":"1000700001200","LANDMARKCO":"603","LANDMARKNA":"好來屋汽車旅館","LANDMARKAD":"1000722","ADDRESS":"彰化縣埤頭鄉和豐村新生路232號","TEL":"04-8873055","COUNTYNAME":"彰化縣","TOWNNAME":"埤頭鄉","MARKTYPE":"996","Class":"6"},"geometry":{"x":120.49600154846823,"y":23.883966178918612}},{"attributes":{"OBJECTID":27931,"LANDMARKID":"1000700000802","LANDMARKCO":"405","LANDMARKNA":"中油加油站-聯裕站","LANDMARKAD":"1000719","ADDRESS":"彰化縣北斗鎮中山路一段231號","TEL":"04-8872971","COUNTYNAME":"彰化縣","TOWNNAME":"北斗鎮","MARKTYPE":"994","Class":"4"},"geometry":{"x":120.51412345132043,"y":23.870327245378338}},{"attributes":{"OBJECTID":27932,"LANDMARKID":"1000700000803","LANDMARKCO":"405","LANDMARKNA":"中油加油站-北斗站(中油直營)","LANDMARKAD":"1000719","ADDRESS":"彰化縣北斗鎮大道里中山路二段207號","TEL":"04-8882154","COUNTYNAME":"彰化縣","TOWNNAME":"北斗鎮","MARKTYPE":"994","Class":"4"},"geometry":{"x":120.51988223853162,"y":23.876855391303245}},{"attributes":{"OBJECTID":27933,"LANDMARKID":"1000700000804","LANDMARKCO":"405","LANDMARKNA":"中油加油站-無憂站","LANDMARKAD":"1000719","ADDRESS":"彰化縣北斗鎮五權里宮前街2之1號","TEL":"04-8884677","COUNTYNAME":"彰化縣","TOWNNAME":"北斗鎮","MARKTYPE":"994","Class":"4"},"geometry":{"x":120.52658472712656,"y":23.865857351249819}},{"attributes":{"OBJECTID":27934,"LANDMARKID":"1000700000683","LANDMARKCO":"401","LANDMARKNA":"卓醫院","LANDMARKAD":"1000719","ADDRESS":"彰化縣北斗鎮中山路一段311號","TEL":"04-8882517","COUNTYNAME":"彰化縣","TOWNNAME":"北斗鎮","MARKTYPE":"994","Class":"4"},"geometry":{"x":120.51565591964129,"y":23.871987712562525}},{"attributes":{"OBJECTID":27935,"LANDMARKID":"1000700000684","LANDMARKCO":"401","LANDMARKNA":"南星醫院","LANDMARKAD":"1000719","ADDRESS":"彰化縣北斗鎮斗苑路一段26號","TEL":"04-8882178","COUNTYNAME":"彰化縣","TOWNNAME":"北斗鎮","MARKTYPE":"994","Class":"4"},"geometry":{"x":120.52769017422327,"y":23.872569556027575}},{"attributes":{"OBJECTID":27936,"LANDMARKID":"1000700000685","LANDMARKCO":"401","LANDMARKNA":"欣和護理之家","LANDMARKAD":"1000719","ADDRESS":"彰化縣北斗鎮中山路二段40號2樓","TEL":"04-8874203","COUNTYNAME":"彰化縣","TOWNNAME":"北斗鎮","MARKTYPE":"994","Class":"4"},"geometry":{"x":120.51790001857505,"y":23.873979536780972}},{"attributes":{"OBJECTID":27937,"LANDMARKID":"1000700001031","LANDMARKCO":"408","LANDMARKNA":"郵局-北斗郵局","LANDMARKAD":"1000719","ADDRESS":"彰化縣北斗鎮光復路226號","TEL":"(04)8882-047","COUNTYNAME":"彰化縣","TOWNNAME":"北斗鎮","MARKTYPE":"994","Class":"4"},"geometry":{"x":120.52415909492156,"y":23.874932071544695}},{"attributes":{"OBJECTID":27938,"LANDMARKID":"1000700001050","LANDMARKCO":"409","LANDMARKNA":"彰化縣北斗鎮農會","LANDMARKAD":"1000719","ADDRESS":"彰化縣北斗鎮光復路189號","TEL":"04-8884156","COUNTYNAME":"彰化縣","TOWNNAME":"北斗鎮","MARKTYPE":"994","Class":"4"},"geometry":{"x":120.52396757814412,"y":23.873883952762313}},{"attributes":{"OBJECTID":27939,"LANDMARKID":"1000700000789","LANDMARKCO":"404","LANDMARKNA":"台灣省自來水北斗營運所","LANDMARKAD":"1000719","ADDRESS":"彰化縣北斗鎮斗中路811號","TEL":" ","COUNTYNAME":"彰化縣","TOWNNAME":"北斗鎮","MARKTYPE":"994","Class":"4"},"geometry":{"x":120.53078671663089,"y":23.87090372142616}},{"attributes":{"OBJECTID":27940,"LANDMARKID":"1000700000974","LANDMARKCO":"406","LANDMARKNA":"北斗河濱公園","LANDMARKAD":"1000719","ADDRESS":"彰化縣北斗鎮","TEL":" ","COUNTYNAME":"彰化縣","TOWNNAME":"北斗鎮","MARKTYPE":"994","Class":"4"},"geometry":{"x":120.52395267540581,"y":23.867348652167895}},{"attributes":{"OBJECTID":27941,"LANDMARKID":"1000700000975","LANDMARKCO":"406","LANDMARKNA":"思恩公園","LANDMARKAD":"1000719","ADDRESS":"彰化縣北斗鎮","TEL":" ","COUNTYNAME":"彰化縣","TOWNNAME":"北斗鎮","MARKTYPE":"994","Class":"4"},"geometry":{"x":120.52475295727639,"y":23.879634945555519}},{"attributes":{"OBJECTID":27942,"LANDMARKID":"1000700000976","LANDMARKCO":"406","LANDMARKNA":"扶輪公園","LANDMARKAD":"1000719","ADDRESS":"彰化縣北斗鎮","TEL":" ","COUNTYNAME":"彰化縣","TOWNNAME":"北斗鎮","MARKTYPE":"994","Class":"4"},"geometry":{"x":120.52056066577089,"y":23.868416544771215}},{"attributes":{"OBJECTID":27943,"LANDMARKID":"1000700000977","LANDMARKCO":"406","LANDMARKNA":"河濱公園","LANDMARKAD":"1000719","ADDRESS":"彰化縣北斗鎮","TEL":" ","COUNTYNAME":"彰化縣","TOWNNAME":"北斗鎮","MARKTYPE":"994","Class":"4"},"geometry":{"x":120.52447848858159,"y":23.867058213391878}},{"attributes":{"OBJECTID":27944,"LANDMARKID":"1000700000800","LANDMARKCO":"405","LANDMARKNA":"福懋加油站-北斗站(台塑)","LANDMARKAD":"1000719","ADDRESS":"彰化縣北斗鎮中山路二段395號","TEL":"04-8783626","COUNTYNAME":"彰化縣","TOWNNAME":"北斗鎮","MARKTYPE":"994","Class":"4"},"geometry":{"x":120.52145378469598,"y":23.880377957381498}},{"attributes":{"OBJECTID":27945,"LANDMARKID":"1000700000801","LANDMARKCO":"405","LANDMARKNA":"全國加油站-北斗交流道站（台塑）","LANDMARKAD":"1000719","ADDRESS":"彰化縣北斗鎮斗苑路二段766號","TEL":"04-8783558","COUNTYNAME":"彰化縣","TOWNNAME":"北斗鎮","MARKTYPE":"994","Class":"4"},"geometry":{"x":120.50109130967178,"y":23.882148703056213}},{"attributes":{"OBJECTID":27946,"LANDMARKID":"1000700000022","LANDMARKCO":"101","LANDMARKNA":"農業委員會畜產試驗所彰化種畜繁殖場","LANDMARKAD":"1000719","ADDRESS":"彰化縣北斗鎮大新里拓農路7號","TEL":"04-8884106","COUNTYNAME":"彰化縣","TOWNNAME":"北斗鎮","MARKTYPE":"991","Class":"1"},"geometry":{"x":120.55742338964232,"y":23.861097238715491}},{"attributes":{"OBJECTID":27947,"LANDMARKID":"1000700000040","LANDMARKCO":"103","LANDMARKNA":"彰化縣北斗鎮衛生所","LANDMARKAD":"1000719","ADDRESS":"彰化縣北斗鎮光復里地政路406巷17號","TEL":"04-8880344","COUNTYNAME":"彰化縣","TOWNNAME":"北斗鎮","MARKTYPE":"991","Class":"1"},"geometry":{"x":120.52489367092438,"y":23.874998974640476}},{"attributes":{"OBJECTID":27948,"LANDMARKID":"1000700000283","LANDMARKCO":"108","LANDMARKNA":"彰化縣北斗鎮公所","LANDMARKAD":"1000719","ADDRESS":"彰化縣北斗鎮西德里公所街2號","TEL":"04-8884166","COUNTYNAME":"彰化縣","TOWNNAME":"北斗鎮","MARKTYPE":"991","Class":"1"},"geometry":{"x":120.52157085463337,"y":23.871465518623186}},{"attributes":{"OBJECTID":27949,"LANDMARKID":"1000700000041","LANDMARKCO":"103","LANDMARKNA":"彰化縣北斗鎮鎮民代表會","LANDMARKAD":"1000719","ADDRESS":"彰化縣北斗鎮光復路216號2樓","TEL":"04-8880275","COUNTYNAME":"彰化縣","TOWNNAME":"北斗鎮","MARKTYPE":"991","Class":"1"},"geometry":{"x":120.52396548844781,"y":23.874361166109686}},{"attributes":{"OBJECTID":27950,"LANDMARKID":"1000700000143","LANDMARKCO":"107","LANDMARKNA":"彰化縣消防局第四消防大隊部","LANDMARKAD":"1000719","ADDRESS":"彰化縣埤頭鄉平原村安康街100號3樓","TEL":"04-8910119","COUNTYNAME":"彰化縣","TOWNNAME":"北斗鎮","MARKTYPE":"991","Class":"1"},"geometry":{"x":120.52083312459501,"y":23.871641522892425}},{"attributes":{"OBJECTID":27951,"LANDMARKID":"1000700000144","LANDMARKCO":"107","LANDMARKNA":"彰化縣消防局北斗消防分隊","LANDMARKAD":"1000719","ADDRESS":"彰化縣北斗鎮公所街21號","TEL":"04-8882050","COUNTYNAME":"彰化縣","TOWNNAME":"北斗鎮","MARKTYPE":"991","Class":"1"},"geometry":{"x":120.52083312459501,"y":23.871641522892425}},{"attributes":{"OBJECTID":27952,"LANDMARKID":"1000700000145","LANDMARKCO":"107","LANDMARKNA":"彰化縣警察局北斗分局","LANDMARKAD":"1000719","ADDRESS":"彰化縣北斗鎮新政里光復路215號","TEL":"04-8882010","COUNTYNAME":"彰化縣","TOWNNAME":"北斗鎮","MARKTYPE":"991","Class":"1"},"geometry":{"x":120.52363816049093,"y":23.874810621575161}},{"attributes":{"OBJECTID":27953,"LANDMARKID":"1000700000146","LANDMARKCO":"107","LANDMARKNA":"彰化縣警察局北斗派出所","LANDMARKAD":"1000719","ADDRESS":"彰化縣北斗鎮新政里光復路215號","TEL":"04-8882604","COUNTYNAME":"彰化縣","TOWNNAME":"北斗鎮","MARKTYPE":"991","Class":"1"},"geometry":{"x":120.52360870282857,"y":23.874810439217157}},{"attributes":{"OBJECTID":27954,"LANDMARKID":"1000700000138","LANDMARKCO":"106","LANDMARKNA":"彰化縣北斗鎮戶政事務所","LANDMARKAD":"1000719","ADDRESS":"彰化縣北斗鎮新政里8鄰地政路466號","TEL":"04-8882779","COUNTYNAME":"彰化縣","TOWNNAME":"北斗鎮","MARKTYPE":"991","Class":"1"},"geometry":{"x":120.52352231501139,"y":23.874539016441695}},{"attributes":{"OBJECTID":27955,"LANDMARKID":"1000700000105","LANDMARKCO":"105","LANDMARKNA":"彰化縣北斗地政事務所","LANDMARKAD":"1000719","ADDRESS":"彰化縣北斗鎮地政路416號","TEL":"04-8882034","COUNTYNAME":"彰化縣","TOWNNAME":"北斗鎮","MARKTYPE":"991","Class":"1"},"geometry":{"x":120.5248380530214,"y":23.8745471502349}},{"attributes":{"OBJECTID":27956,"LANDMARKID":"1000700000104","LANDMARKCO":"104","LANDMARKNA":"中區國稅局北斗稽徵所","LANDMARKAD":"1000719","ADDRESS":"彰化縣北斗鎮中山路二段309號5樓","TEL":"04-8871204","COUNTYNAME":"彰化縣","TOWNNAME":"北斗鎮","MARKTYPE":"991","Class":"1"},"geometry":{"x":120.520577617413,"y":23.878502344081134}},{"attributes":{"OBJECTID":27957,"LANDMARKID":"1000700000042","LANDMARKCO":"103","LANDMARKNA":"彰化縣北斗彰南區域服務中心","LANDMARKAD":"1000719","ADDRESS":"彰化縣北斗鎮","TEL":" ","COUNTYNAME":"彰化縣","TOWNNAME":"北斗鎮","MARKTYPE":"991","Class":"1"},"geometry":{"x":120.52470058777813,"y":23.874546301473529}},{"attributes":{"OBJECTID":27958,"LANDMARKID":"1000700000550","LANDMARKCO":"204","LANDMARKNA":"彰化縣立圖書館北斗分館","LANDMARKAD":"1000719","ADDRESS":"彰化縣北斗鎮光復路363號","TEL":" ","COUNTYNAME":"彰化縣","TOWNNAME":"北斗鎮","MARKTYPE":"992","Class":"2"},"geometry":{"x":120.52352209872265,"y":23.877559298323099}},{"attributes":{"OBJECTID":27959,"LANDMARKID":"1000700000308","LANDMARKCO":"202","LANDMARKNA":"國立北斗家商","LANDMARKAD":"1000719","ADDRESS":"彰化縣北斗鎮大道里文苑路17號","TEL":"04-8882224","COUNTYNAME":"彰化縣","TOWNNAME":"北斗鎮","MARKTYPE":"992","Class":"2"},"geometry":{"x":120.52223894368902,"y":23.879587580653578}},{"attributes":{"OBJECTID":27960,"LANDMARKID":"1000700000353","LANDMARKCO":"203","LANDMARKNA":"縣立北斗國中","LANDMARKAD":"1000719","ADDRESS":"彰化縣北斗鎮文苑路36號","TEL":"04-8882072","COUNTYNAME":"彰化縣","TOWNNAME":"北斗鎮","MARKTYPE":"992","Class":"2"},"geometry":{"x":120.52140549053075,"y":23.876701605664977}},{"attributes":{"OBJECTID":27961,"LANDMARKID":"1000700000354","LANDMARKCO":"203","LANDMARKNA":"縣立大新國小","LANDMARKAD":"1000719","ADDRESS":"彰化縣北斗鎮大新里中圳路25之7號","TEL":"04-8882640","COUNTYNAME":"彰化縣","TOWNNAME":"北斗鎮","MARKTYPE":"992","Class":"2"},"geometry":{"x":120.55752355039169,"y":23.855138297881251}},{"attributes":{"OBJECTID":27962,"LANDMARKID":"1000700000355","LANDMARKCO":"203","LANDMARKNA":"縣立北斗國小","LANDMARKAD":"1000719","ADDRESS":"彰化縣北斗鎮新政里文苑路6號","TEL":"04-8871995","COUNTYNAME":"彰化縣","TOWNNAME":"北斗鎮","MARKTYPE":"992","Class":"2"},"geometry":{"x":120.52331306309961,"y":23.876343612072137}},{"attributes":{"OBJECTID":27963,"LANDMARKID":"1000700000356","LANDMARKCO":"203","LANDMARKNA":"縣立螺青國小","LANDMARKAD":"1000719","ADDRESS":"彰化縣北斗鎮東光里斗中路9號","TEL":"04-8882031","COUNTYNAME":"彰化縣","TOWNNAME":"北斗鎮","MARKTYPE":"992","Class":"2"},"geometry":{"x":120.53430650254225,"y":23.871410596322953}},{"attributes":{"OBJECTID":27964,"LANDMARKID":"1000700000357","LANDMARKCO":"203","LANDMARKNA":"縣立螺陽國小","LANDMARKAD":"1000719","ADDRESS":"彰化縣北斗鎮西安里斗苑路二段150號","TEL":"04-8882039","COUNTYNAME":"彰化縣","TOWNNAME":"北斗鎮","MARKTYPE":"992","Class":"2"},"geometry":{"x":120.51459303367911,"y":23.876405497675435}},{"attributes":{"OBJECTID":27965,"LANDMARKID":"1000700000358","LANDMARKCO":"203","LANDMARKNA":"縣立萬來國小","LANDMARKAD":"1000719","ADDRESS":"彰化縣北斗鎮西德里文賢街35號","TEL":"04-8882119","COUNTYNAME":"彰化縣","TOWNNAME":"北斗鎮","MARKTYPE":"992","Class":"2"},"geometry":{"x":120.52151340613338,"y":23.869930125354575}},{"attributes":{"OBJECTID":27966,"LANDMARKID":"1000700000578","LANDMARKCO":"302","LANDMARKNA":"國光汽車客運北斗站","LANDMARKAD":"1000719","ADDRESS":"彰化縣北斗鎮西安里文苑路34之1號","TEL":" ","COUNTYNAME":"彰化縣","TOWNNAME":"北斗鎮","MARKTYPE":"993","Class":"302"},"geometry":{"x":120.52070811125076,"y":23.876061864824756}},{"attributes":{"OBJECTID":27967,"LANDMARKID":"1000700000811","LANDMARKCO":"405","LANDMARKNA":"中油加油站-大城站(中油直營)","LANDMARKAD":"1000724","ADDRESS":"彰化縣大城鄉上山村魚寮路50號","TEL":"04-8944223","COUNTYNAME":"彰化縣","TOWNNAME":"大城鄉","MARKTYPE":"994","Class":"4"},"geometry":{"x":120.32565173661641,"y":23.859325893183865}},{"attributes":{"OBJECTID":27968,"LANDMARKID":"1000700001035","LANDMARKCO":"408","LANDMARKNA":"郵局-大城郵局","LANDMARKAD":"1000724","ADDRESS":"彰化縣大城鄉北平路35號","TEL":"(04)8941-038","COUNTYNAME":"彰化縣","TOWNNAME":"大城鄉","MARKTYPE":"994","Class":"4"},"geometry":{"x":120.32143018072352,"y":23.856096833741066}},{"attributes":{"OBJECTID":27969,"LANDMARKID":"1000700001048","LANDMARKCO":"409","LANDMARKNA":"彰化縣大城鄉農會","LANDMARKAD":"1000724","ADDRESS":"彰化縣大城鄉東城村南平路256號","TEL":"04-8944565","COUNTYNAME":"彰化縣","TOWNNAME":"大城鄉","MARKTYPE":"994","Class":"4"},"geometry":{"x":120.32262026952593,"y":23.853225428792097}},{"attributes":{"OBJECTID":27970,"LANDMARKID":"1000700000284","LANDMARKCO":"108","LANDMARKNA":"彰化縣大城鄉公所","LANDMARKAD":"1000724","ADDRESS":"彰化縣大城鄉東城村中平路185號","TEL":"04-8942980","COUNTYNAME":"彰化縣","TOWNNAME":"大城鄉","MARKTYPE":"991","Class":"1"},"geometry":{"x":120.32092989704678,"y":23.852472018867267}},{"attributes":{"OBJECTID":27971,"LANDMARKID":"1000700000043","LANDMARKCO":"103","LANDMARKNA":"彰化縣大城鄉衛生所","LANDMARKAD":"1000724","ADDRESS":"彰化縣大城鄉大城村中平路126號","TEL":"04-8942543","COUNTYNAME":"彰化縣","TOWNNAME":"大城鄉","MARKTYPE":"991","Class":"1"},"geometry":{"x":120.32080828596776,"y":23.853283541039769}},{"attributes":{"OBJECTID":27972,"LANDMARKID":"1000700000044","LANDMARKCO":"103","LANDMARKNA":"彰化縣大城鄉鄉民代表會","LANDMARKAD":"1000724","ADDRESS":"彰化縣大城鄉中平路185號","TEL":"04-8941037","COUNTYNAME":"彰化縣","TOWNNAME":"大城鄉","MARKTYPE":"991","Class":"1"},"geometry":{"x":120.32076677780508,"y":23.852109399063043}},{"attributes":{"OBJECTID":27973,"LANDMARKID":"1000700000140","LANDMARKCO":"107","LANDMARKNA":"彰化縣消防局大城消防分隊","LANDMARKAD":"1000724","ADDRESS":"彰化縣大城鄉南平路911號","TEL":"04-8941045","COUNTYNAME":"彰化縣","TOWNNAME":"大城鄉","MARKTYPE":"991","Class":"1"},"geometry":{"x":120.31179291970464,"y":23.854504686989969}},{"attributes":{"OBJECTID":27974,"LANDMARKID":"1000700000141","LANDMARKCO":"107","LANDMARKNA":"彰化縣警察局大城分駐所","LANDMARKAD":"1000724","ADDRESS":"彰化縣大城鄉東城村東平路114號","TEL":"04-8941012","COUNTYNAME":"彰化縣","TOWNNAME":"大城鄉","MARKTYPE":"991","Class":"1"},"geometry":{"x":120.32268230617278,"y":23.855274293112451}},{"attributes":{"OBJECTID":27975,"LANDMARKID":"1000700000142","LANDMARKCO":"107","LANDMARKNA":"彰化縣警察局西港派出所","LANDMARKAD":"1000724","ADDRESS":"彰化縣大城鄉東港村中央路10號","TEL":"04-8941334","COUNTYNAME":"彰化縣","TOWNNAME":"大城鄉","MARKTYPE":"991","Class":"1"},"geometry":{"x":120.28984907889449,"y":23.862442510008705}},{"attributes":{"OBJECTID":27976,"LANDMARKID":"1000700000139","LANDMARKCO":"106","LANDMARKNA":"彰化縣大城鄉戶政事務所","LANDMARKAD":"1000724","ADDRESS":"彰化縣大城鄉東城村2鄰北平路90號","TEL":"04-8941120","COUNTYNAME":"彰化縣","TOWNNAME":"大城鄉","MARKTYPE":"991","Class":"1"},"geometry":{"x":120.32304459433368,"y":23.85536777357871}},{"attributes":{"OBJECTID":27977,"LANDMARKID":"1000700000551","LANDMARKCO":"204","LANDMARKNA":"彰化縣立圖書館大城分館","LANDMARKAD":"1000724","ADDRESS":"彰化縣大城鄉東城村中平路163號","TEL":" ","COUNTYNAME":"彰化縣","TOWNNAME":"大城鄉","MARKTYPE":"992","Class":"2"},"geometry":{"x":120.32100932020916,"y":23.853153276425537}},{"attributes":{"OBJECTID":27978,"LANDMARKID":"1000700000359","LANDMARKCO":"203","LANDMARKNA":"縣立大城國中","LANDMARKAD":"1000724","ADDRESS":"彰化縣大城鄉東城村南平路224號","TEL":"04-8941022","COUNTYNAME":"彰化縣","TOWNNAME":"大城鄉","MARKTYPE":"992","Class":"2"},"geometry":{"x":120.32414693761287,"y":23.853210367683015}},{"attributes":{"OBJECTID":27979,"LANDMARKID":"1000700000360","LANDMARKCO":"203","LANDMARKNA":"縣立西港國小","LANDMARKAD":"1000724","ADDRESS":"彰化縣大城鄉東港村中央路2號","TEL":"04-8941029","COUNTYNAME":"彰化縣","TOWNNAME":"大城鄉","MARKTYPE":"992","Class":"2"},"geometry":{"x":120.28909376005166,"y":23.860990889880117}},{"attributes":{"OBJECTID":27980,"LANDMARKID":"1000700000361","LANDMARKCO":"203","LANDMARKNA":"縣立大城國小","LANDMARKAD":"1000724","ADDRESS":"彰化縣大城鄉大城村中平路176號","TEL":"04-8941347","COUNTYNAME":"彰化縣","TOWNNAME":"大城鄉","MARKTYPE":"992","Class":"2"},"geometry":{"x":120.32006885464253,"y":23.852193537029546}},{"attributes":{"OBJECTID":27981,"LANDMARKID":"1000700000362","LANDMARKCO":"203","LANDMARKNA":"縣立頂庄國小","LANDMARKAD":"1000724","ADDRESS":"彰化縣大城鄉頂庄村東厝路63之1號","TEL":"04-8941659","COUNTYNAME":"彰化縣","TOWNNAME":"大城鄉","MARKTYPE":"992","Class":"2"},"geometry":{"x":120.2850285076733,"y":23.848337980306152}},{"attributes":{"OBJECTID":27982,"LANDMARKID":"1000700000363","LANDMARKCO":"203","LANDMARKNA":"縣立美豐國小","LANDMARKAD":"1000724","ADDRESS":"彰化縣大城鄉三豐村東盛路1號","TEL":"04-8941660","COUNTYNAME":"彰化縣","TOWNNAME":"大城鄉","MARKTYPE":"992","Class":"2"},"geometry":{"x":120.30222292696099,"y":23.885168227947325}},{"attributes":{"OBJECTID":27983,"LANDMARKID":"1000700000364","LANDMARKCO":"203","LANDMARKNA":"縣立潭墘國小","LANDMARKAD":"1000724","ADDRESS":"彰化縣大城鄉潭墘村潭城路1號","TEL":"04-8941009","COUNTYNAME":"彰化縣","TOWNNAME":"大城鄉","MARKTYPE":"992","Class":"2"},"geometry":{"x":120.34779620104973,"y":23.835699067371468}},{"attributes":{"OBJECTID":27984,"LANDMARKID":"1000700000365","LANDMARKCO":"203","LANDMARKNA":"縣立永光國小","LANDMARKAD":"1000724","ADDRESS":"彰化縣大城鄉永和村青埔巷4號","TEL":"04-8941640","COUNTYNAME":"彰化縣","TOWNNAME":"大城鄉","MARKTYPE":"992","Class":"2"},"geometry":{"x":120.30260592695599,"y":23.840025233155313}},{"attributes":{"OBJECTID":27985,"LANDMARKID":"1000700000806","LANDMARKCO":"405","LANDMARKNA":"中油加油站-田中二站(中油直營)","LANDMARKAD":"1000712","ADDRESS":"彰化縣田中鎮北路里東閔路二段722號","TEL":"04-8745633","COUNTYNAME":"彰化縣","TOWNNAME":"田中鎮","MARKTYPE":"994","Class":"4"},"geometry":{"x":120.59344104932765,"y":23.862450894217634}},{"attributes":{"OBJECTID":27986,"LANDMARKID":"1000700000807","LANDMARKCO":"405","LANDMARKNA":"統一速邁樂加油站-田中站(中油)","LANDMARKAD":"1000712","ADDRESS":"彰化縣田中鎮斗中路1段246號","TEL":"04-8745442","COUNTYNAME":"彰化縣","TOWNNAME":"田中鎮","MARKTYPE":"994","Class":"4"},"geometry":{"x":120.5797043886988,"y":23.861943200974643}},{"attributes":{"OBJECTID":27987,"LANDMARKID":"1000700000808","LANDMARKCO":"405","LANDMARKNA":"中油加油站-新庄站","LANDMARKAD":"1000712","ADDRESS":"彰化縣田中鎮東閔路二段389號","TEL":"04-8757168","COUNTYNAME":"彰化縣","TOWNNAME":"田中鎮","MARKTYPE":"994","Class":"4"},"geometry":{"x":120.59560205877044,"y":23.858434235962349}},{"attributes":{"OBJECTID":27988,"LANDMARKID":"1000700000809","LANDMARKCO":"405","LANDMARKNA":"中油加油站-員村站","LANDMARKAD":"1000712","ADDRESS":"彰化縣田中鎮東閔路3段435號","TEL":"04-8748116","COUNTYNAME":"彰化縣","TOWNNAME":"田中鎮","MARKTYPE":"994","Class":"4"},"geometry":{"x":120.58744439888548,"y":23.872900061381131}},{"attributes":{"OBJECTID":27989,"LANDMARKID":"1000700000810","LANDMARKCO":"405","LANDMARKNA":"中油加油站-田中站(中油直營)","LANDMARKAD":"1000712","ADDRESS":"彰化縣田中鎮南路里員集路一段783號","TEL":"04-8742705","COUNTYNAME":"彰化縣","TOWNNAME":"田中鎮","MARKTYPE":"994","Class":"4"},"geometry":{"x":120.59098065314151,"y":23.850072035876305}},{"attributes":{"OBJECTID":27990,"LANDMARKID":"1000700000752","LANDMARKCO":"402","LANDMARKNA":"亞太行動寬頻電信-田中中州加盟服務中心","LANDMARKAD":"1000712","ADDRESS":"彰化縣田中鎮中州路一段219號","TEL":"04-8759977","COUNTYNAME":"彰化縣","TOWNNAME":"田中鎮","MARKTYPE":"994","Class":"4"},"geometry":{"x":120.58658562715637,"y":23.857878338100843}},{"attributes":{"OBJECTID":27991,"LANDMARKID":"1000700000686","LANDMARKCO":"401","LANDMARKNA":"建元醫院","LANDMARKAD":"1000712","ADDRESS":"彰化縣田中鎮中南路三段512號","TEL":"04-8743747","COUNTYNAME":"彰化縣","TOWNNAME":"田中鎮","MARKTYPE":"994","Class":"4"},"geometry":{"x":120.58942380728234,"y":23.853253887173839}},{"attributes":{"OBJECTID":27992,"LANDMARKID":"1000700000687","LANDMARKCO":"401","LANDMARKNA":"仁和醫院","LANDMARKAD":"1000712","ADDRESS":"彰化縣田中鎮中州路一段157號","TEL":"04-8742108","COUNTYNAME":"彰化縣","TOWNNAME":"田中鎮","MARKTYPE":"994","Class":"4"},"geometry":{"x":120.58790030124808,"y":23.85802985980418}},{"attributes":{"OBJECTID":27993,"LANDMARKID":"1000700001032","LANDMARKCO":"408","LANDMARKNA":"郵局-田中郵局","LANDMARKAD":"1000712","ADDRESS":"彰化縣田中鎮員集路2段305號","TEL":"(04)8742-140","COUNTYNAME":"彰化縣","TOWNNAME":"田中鎮","MARKTYPE":"994","Class":"4"},"geometry":{"x":120.58576289554738,"y":23.856846625652896}},{"attributes":{"OBJECTID":27994,"LANDMARKID":"1000700001033","LANDMARKCO":"408","LANDMARKNA":"郵局-田中內灣郵局","LANDMARKAD":"1000712","ADDRESS":"彰化縣田中鎮中南路2段430號","TEL":"(04)8750-243","COUNTYNAME":"彰化縣","TOWNNAME":"田中鎮","MARKTYPE":"994","Class":"4"},"geometry":{"x":120.60547038494002,"y":23.852980991791469}},{"attributes":{"OBJECTID":27995,"LANDMARKID":"1000700001034","LANDMARKCO":"408","LANDMARKNA":"郵局-田中三潭郵局","LANDMARKAD":"1000712","ADDRESS":"彰化縣田中鎮員集路2段616號","TEL":"(04)8750-242","COUNTYNAME":"彰化縣","TOWNNAME":"田中鎮","MARKTYPE":"994","Class":"4"},"geometry":{"x":120.58545924191738,"y":23.863548809049245}},{"attributes":{"OBJECTID":27996,"LANDMARKID":"1000700001049","LANDMARKCO":"409","LANDMARKNA":"彰化縣田中鎮農會","LANDMARKAD":"1000712","ADDRESS":"彰化縣田中鎮南北街80號","TEL":"04-8749211","COUNTYNAME":"彰化縣","TOWNNAME":"田中鎮","MARKTYPE":"994","Class":"4"},"geometry":{"x":120.58636074281917,"y":23.859202572187904}},{"attributes":{"OBJECTID":27997,"LANDMARKID":"1000700000788","LANDMARKCO":"404","LANDMARKNA":"台灣省自來水田中營運所","LANDMARKAD":"1000712","ADDRESS":"彰化縣田中鎮中南路二段509號","TEL":" ","COUNTYNAME":"彰化縣","TOWNNAME":"田中鎮","MARKTYPE":"994","Class":"4"},"geometry":{"x":120.60376192684802,"y":23.852661239658513}},{"attributes":{"OBJECTID":27998,"LANDMARKID":"1000700000972","LANDMARKCO":"406","LANDMARKNA":"環保公園","LANDMARKAD":"1000712","ADDRESS":"彰化縣田中鎮","TEL":" ","COUNTYNAME":"彰化縣","TOWNNAME":"田中鎮","MARKTYPE":"994","Class":"4"},"geometry":{"x":120.59274904278341,"y":23.860581424921165}},{"attributes":{"OBJECTID":27999,"LANDMARKID":"1000700000973","LANDMARKCO":"406","LANDMARKNA":"三安公園","LANDMARKAD":"1000712","ADDRESS":"彰化縣田中鎮","TEL":" ","COUNTYNAME":"彰化縣","TOWNNAME":"田中鎮","MARKTYPE":"994","Class":"4"},"geometry":{"x":120.59027585787271,"y":23.844340380831039}},{"attributes":{"OBJECTID":28000,"LANDMARKID":"1000700000805","LANDMARKCO":"405","LANDMARKNA":"台塑加油站-芳田站(台塑)","LANDMARKAD":"1000712","ADDRESS":"彰化縣田中鎮斗中路二段796號","TEL":"04-8751928","COUNTYNAME":"彰化縣","TOWNNAME":"田中鎮","MARKTYPE":"994","Class":"4"},"geometry":{"x":120.55626580044407,"y":23.86983738272404}}]}