{"displayFieldName":"COUNTYNAME","fieldAliases":{"OBJECTID":"OBJECTID","LANDMARKID":"LANDMARKID","LANDMARKCO":"LANDMARKCO","LANDMARKNA":"LANDMARKNA","LANDMARKAD":"LANDMARKAD","ADDRESS":"ADDRESS","TEL":"TEL","COUNTYNAME":"COUNTYNAME","TOWNNAME":"TOWNNAME","MARKTYPE":"MARKTYPE","Class":"Class"},"geometryType":"esriGeometryPoint","spatialReference":{"wkid":102443},"fields":[{"name":"OBJECTID","type":"esriFieldTypeOID","alias":"OBJECTID"},{"name":"LANDMARKID","type":"esriFieldTypeString","alias":"LANDMARKID","length":15},{"name":"LANDMARKCO","type":"esriFieldTypeString","alias":"LANDMARKCO","length":15},{"name":"LANDMARKNA","type":"esriFieldTypeString","alias":"LANDMARKNA","length":50},{"name":"LANDMARKAD","type":"esriFieldTypeString","alias":"LANDMARKAD","length":15},{"name":"ADDRESS","type":"esriFieldTypeString","alias":"ADDRESS","length":56},{"name":"TEL","type":"esriFieldTypeString","alias":"TEL","length":36},{"name":"COUNTYNAME","type":"esriFieldTypeString","alias":"COUNTYNAME","length":15},{"name":"TOWNNAME","type":"esriFieldTypeString","alias":"TOWNNAME","length":13},{"name":"MARKTYPE","type":"esriFieldTypeString","alias":"MARKTYPE","length":12},{"name":"Class","type":"esriFieldTypeString","alias":"Class","length":5}],"features":[{"attributes":{"OBJECTID":6401,"LANDMARKID":"6300000002957","LANDMARKCO":"408","LANDMARKNA":"郵局-陽明山郵局","LANDMARKAD":"6300012","ADDRESS":"台北市北投區紗帽路139之1號","TEL":"(02) 2861-6151","COUNTYNAME":"台北市","TOWNNAME":"北投區","MARKTYPE":"994","Class":"4"},"geometry":{"x":305077.51630000025,"y":2782630.2496000007}},{"attributes":{"OBJECTID":6402,"LANDMARKID":"6300000002958","LANDMARKCO":"408","LANDMARKNA":"郵局-北投郵局","LANDMARKAD":"6300012","ADDRESS":"台北市北投區光明路181號","TEL":"(02)2893-2922","COUNTYNAME":"台北市","TOWNNAME":"北投區","MARKTYPE":"994","Class":"4"},"geometry":{"x":300729.01999999955,"y":2780913.8852999993}},{"attributes":{"OBJECTID":6403,"LANDMARKID":"6300000002959","LANDMARKCO":"408","LANDMARKNA":"郵局-北投復興崗郵局","LANDMARKAD":"6300012","ADDRESS":"台北市北投區中央北路2段70號","TEL":"(02)2891-6077","COUNTYNAME":"台北市","TOWNNAME":"北投區","MARKTYPE":"994","Class":"4"},"geometry":{"x":299696.8097000001,"y":2781165.5621000007}},{"attributes":{"OBJECTID":6404,"LANDMARKID":"6300000002960","LANDMARKCO":"408","LANDMARKNA":"郵局-北投石牌郵局","LANDMARKAD":"6300012","ADDRESS":"台北市北投區石牌路2段93-2號","TEL":"(02)2821-4449","COUNTYNAME":"台北市","TOWNNAME":"北投區","MARKTYPE":"994","Class":"4"},"geometry":{"x":302077.30800000019,"y":2778879.0394000001}},{"attributes":{"OBJECTID":6405,"LANDMARKID":"6300000002961","LANDMARKCO":"408","LANDMARKNA":"郵局-北投關渡郵局","LANDMARKAD":"6300012","ADDRESS":"台北市北投區知行路293巷9弄11號","TEL":"(02)2858-1260","COUNTYNAME":"台北市","TOWNNAME":"北投區","MARKTYPE":"994","Class":"4"},"geometry":{"x":297081.8060999997,"y":2779321.9334999993}},{"attributes":{"OBJECTID":6406,"LANDMARKID":"6300000002962","LANDMARKCO":"408","LANDMARKNA":"郵局-北投舊北投郵局","LANDMARKAD":"6300012","ADDRESS":"台北市北投區中央南路1段201號","TEL":"(02)2891-3104","COUNTYNAME":"台北市","TOWNNAME":"北投區","MARKTYPE":"994","Class":"4"},"geometry":{"x":300551.29910000041,"y":2780104.5144999996}},{"attributes":{"OBJECTID":6407,"LANDMARKID":"6300000002963","LANDMARKCO":"408","LANDMARKNA":"郵局-北投榮總郵局","LANDMARKAD":"6300012","ADDRESS":"台北市北投區石牌路2段201號","TEL":"(02)2872-6742","COUNTYNAME":"台北市","TOWNNAME":"北投區","MARKTYPE":"994","Class":"4"},"geometry":{"x":302356.07490000036,"y":2779079.0394000001}},{"attributes":{"OBJECTID":6408,"LANDMARKID":"6300000002964","LANDMARKCO":"408","LANDMARKNA":"郵局-北投文林郵局","LANDMARKAD":"6300012","ADDRESS":"台北市北投區文林北路96號","TEL":"(02)2827-3044","COUNTYNAME":"台北市","TOWNNAME":"北投區","MARKTYPE":"994","Class":"4"},"geometry":{"x":302211.01819999982,"y":2777573.6148000006}},{"attributes":{"OBJECTID":6409,"LANDMARKID":"6300000002965","LANDMARKCO":"408","LANDMARKNA":"郵局-北投山腳郵局","LANDMARKAD":"6300012","ADDRESS":"台北市北投區中和街408號","TEL":"(02)2891-1520","COUNTYNAME":"台北市","TOWNNAME":"北投區","MARKTYPE":"994","Class":"4"},"geometry":{"x":300220.83579999954,"y":2781787.6821999997}},{"attributes":{"OBJECTID":6410,"LANDMARKID":"6300000002966","LANDMARKCO":"408","LANDMARKNA":"郵局-北投實踐郵局","LANDMARKAD":"6300012","ADDRESS":"台北市北投區實踐街48巷11號","TEL":"(02)2822-3054","COUNTYNAME":"台北市","TOWNNAME":"北投區","MARKTYPE":"994","Class":"4"},"geometry":{"x":301368.27880000044,"y":2778562.6164999995}},{"attributes":{"OBJECTID":6411,"LANDMARKID":"6300000002967","LANDMARKCO":"408","LANDMARKNA":"郵局-北投致遠郵局","LANDMARKAD":"6300012","ADDRESS":"台北市北投區致遠一路1段121號","TEL":"(02)2823-0602","COUNTYNAME":"台北市","TOWNNAME":"北投區","MARKTYPE":"994","Class":"4"},"geometry":{"x":301925.75179999974,"y":2778072.6318999995}},{"attributes":{"OBJECTID":6412,"LANDMARKID":"6300000002968","LANDMARKCO":"408","LANDMARKNA":"郵局-北投文化郵局","LANDMARKAD":"6300012","ADDRESS":"台北市北投區文化三路8號","TEL":"(02)2891-0330","COUNTYNAME":"台北市","TOWNNAME":"北投區","MARKTYPE":"994","Class":"4"},"geometry":{"x":300161.5159,"y":2781085.9094999991}},{"attributes":{"OBJECTID":6413,"LANDMARKID":"6300000002969","LANDMARKCO":"408","LANDMARKNA":"郵局-北投明德郵局","LANDMARKAD":"6300012","ADDRESS":"台北市北投區明德路210號","TEL":"(02)2822-6347","COUNTYNAME":"台北市","TOWNNAME":"北投區","MARKTYPE":"994","Class":"4"},"geometry":{"x":302663.91530000046,"y":2778421.9364}},{"attributes":{"OBJECTID":6414,"LANDMARKID":"6300000002970","LANDMARKCO":"408","LANDMARKNA":"郵局-北投尊賢郵局","LANDMARKAD":"6300012","ADDRESS":"台北市北投區尊賢街247-4號","TEL":"(02)2821-5141","COUNTYNAME":"台北市","TOWNNAME":"北投區","MARKTYPE":"994","Class":"4"},"geometry":{"x":301111.38360000029,"y":2778897.5270000007}},{"attributes":{"OBJECTID":6415,"LANDMARKID":"6300000002971","LANDMARKCO":"408","LANDMARKNA":"郵局-北投奇岩郵局","LANDMARKAD":"6300012","ADDRESS":"台北市北投區公館路271號","TEL":"(02)2892-8444","COUNTYNAME":"台北市","TOWNNAME":"北投區","MARKTYPE":"994","Class":"4"},"geometry":{"x":301192.06319999974,"y":2779735.2105999999}},{"attributes":{"OBJECTID":6416,"LANDMARKID":"6300000002972","LANDMARKCO":"408","LANDMARKNA":"郵局-北投豐年郵局","LANDMARKAD":"6300012","ADDRESS":"台北市北投區中央北路2段329號","TEL":"(02) 2893-3596","COUNTYNAME":"台北市","TOWNNAME":"北投區","MARKTYPE":"994","Class":"4"},"geometry":{"x":299326.8956000004,"y":2781189.8906999994}},{"attributes":{"OBJECTID":6417,"LANDMARKID":"6300000002973","LANDMARKCO":"408","LANDMARKNA":"郵局-北投一德郵局","LANDMARKAD":"6300012","ADDRESS":"台北市北投區中央北路4段529號","TEL":"(02) 2892-1518","COUNTYNAME":"台北市","TOWNNAME":"北投區","MARKTYPE":"994","Class":"4"},"geometry":{"x":297182.02290000021,"y":2780018.5753000006}},{"attributes":{"OBJECTID":6418,"LANDMARKID":"6300000002974","LANDMARKCO":"408","LANDMARKNA":"郵局-陽明大學郵局","LANDMARKAD":"6300012","ADDRESS":"台北市北投區立農街2段155號","TEL":"(02) 2821-6416","COUNTYNAME":"台北市","TOWNNAME":"北投區","MARKTYPE":"994","Class":"4"},"geometry":{"x":301764.08750000037,"y":2779128.1659999993}},{"attributes":{"OBJECTID":6419,"LANDMARKID":"6300000003097","LANDMARKCO":"409","LANDMARKNA":"台北市北投區農會","LANDMARKAD":"6300012","ADDRESS":"台北市北投區光明路96號","TEL":"02-28924185","COUNTYNAME":"台北市","TOWNNAME":"北投區","MARKTYPE":"994","Class":"4"},"geometry":{"x":300545.59580000024,"y":2780609.4308000002}},{"attributes":{"OBJECTID":6420,"LANDMARKID":"6300000002574","LANDMARKCO":"406","LANDMARKNA":"七星山公園","LANDMARKAD":"6300012","ADDRESS":"台北市北投區","TEL":" ","COUNTYNAME":"台北市","TOWNNAME":"北投區","MARKTYPE":"994","Class":"4"},"geometry":{"x":306148.58970000036,"y":2784055.8129999992}},{"attributes":{"OBJECTID":6421,"LANDMARKID":"6300000002575","LANDMARKCO":"406","LANDMARKNA":"森林公園","LANDMARKAD":"6300012","ADDRESS":"台北市北投區","TEL":" ","COUNTYNAME":"台北市","TOWNNAME":"北投區","MARKTYPE":"994","Class":"4"},"geometry":{"x":304369.30069999956,"y":2783874.8988000005}},{"attributes":{"OBJECTID":6422,"LANDMARKID":"6300000002576","LANDMARKCO":"406","LANDMARKNA":"前山公園","LANDMARKAD":"6300012","ADDRESS":"台北市北投區","TEL":" ","COUNTYNAME":"台北市","TOWNNAME":"北投區","MARKTYPE":"994","Class":"4"},"geometry":{"x":305394.74969999958,"y":2782638.7809999995}},{"attributes":{"OBJECTID":6423,"LANDMARKID":"6300000002577","LANDMARKCO":"406","LANDMARKNA":"中山公園","LANDMARKAD":"6300012","ADDRESS":"台北市北投區","TEL":" ","COUNTYNAME":"台北市","TOWNNAME":"北投區","MARKTYPE":"994","Class":"4"},"geometry":{"x":305250.25079999957,"y":2782591.7017000001}},{"attributes":{"OBJECTID":6424,"LANDMARKID":"6300000002578","LANDMARKCO":"406","LANDMARKNA":"陽明公園","LANDMARKAD":"6300012","ADDRESS":"台北市北投區","TEL":" ","COUNTYNAME":"台北市","TOWNNAME":"北投區","MARKTYPE":"994","Class":"4"},"geometry":{"x":301013.26889999956,"y":2781555.4232000001}},{"attributes":{"OBJECTID":6425,"LANDMARKID":"6300000002579","LANDMARKCO":"406","LANDMARKNA":"稻香公園","LANDMARKAD":"6300012","ADDRESS":"台北市北投區","TEL":" ","COUNTYNAME":"台北市","TOWNNAME":"北投區","MARKTYPE":"994","Class":"4"},"geometry":{"x":299310.14209999982,"y":2781480.5940000005}},{"attributes":{"OBJECTID":6426,"LANDMARKID":"6300000002580","LANDMARKCO":"406","LANDMARKNA":"復興公園","LANDMARKAD":"6300012","ADDRESS":"台北市北投區","TEL":" ","COUNTYNAME":"台北市","TOWNNAME":"北投區","MARKTYPE":"994","Class":"4"},"geometry":{"x":300669.1950000003,"y":2781266.2475000005}},{"attributes":{"OBJECTID":6427,"LANDMARKID":"6300000002581","LANDMARKCO":"406","LANDMARKNA":"桃源原生植物公園","LANDMARKAD":"6300012","ADDRESS":"台北市北投區中央北路三段148巷底","TEL":" ","COUNTYNAME":"台北市","TOWNNAME":"北投區","MARKTYPE":"994","Class":"4"},"geometry":{"x":298687.62870000023,"y":2781174.7211000007}},{"attributes":{"OBJECTID":6428,"LANDMARKID":"6300000002582","LANDMARKCO":"406","LANDMARKNA":"中庸公園","LANDMARKAD":"6300012","ADDRESS":"台北市北投區","TEL":" ","COUNTYNAME":"台北市","TOWNNAME":"北投區","MARKTYPE":"994","Class":"4"},"geometry":{"x":300556.76300000027,"y":2781156.5054000001}},{"attributes":{"OBJECTID":6429,"LANDMARKID":"6300000002583","LANDMARKCO":"406","LANDMARKNA":"北投公園","LANDMARKAD":"6300012","ADDRESS":"台北市北投區","TEL":" ","COUNTYNAME":"台北市","TOWNNAME":"北投區","MARKTYPE":"994","Class":"4"},"geometry":{"x":300901.33469999954,"y":2781007.6657999996}},{"attributes":{"OBJECTID":6430,"LANDMARKID":"6300000002584","LANDMARKCO":"406","LANDMARKNA":"文化公園","LANDMARKAD":"6300012","ADDRESS":"台北市北投區","TEL":" ","COUNTYNAME":"台北市","TOWNNAME":"北投區","MARKTYPE":"994","Class":"4"},"geometry":{"x":300132.64159999974,"y":2780986.4083999991}},{"attributes":{"OBJECTID":6431,"LANDMARKID":"6300000002585","LANDMARKCO":"406","LANDMARKNA":"豐年公園","LANDMARKAD":"6300012","ADDRESS":"台北市北投區","TEL":" ","COUNTYNAME":"台北市","TOWNNAME":"北投區","MARKTYPE":"994","Class":"4"},"geometry":{"x":300040.41679999977,"y":2780867.0969999991}},{"attributes":{"OBJECTID":6432,"LANDMARKID":"6300000002586","LANDMARKCO":"406","LANDMARKNA":"忠義公園","LANDMARKAD":"6300012","ADDRESS":"台北市北投區","TEL":" ","COUNTYNAME":"台北市","TOWNNAME":"北投區","MARKTYPE":"994","Class":"4"},"geometry":{"x":298131.86390000023,"y":2780803.4921000004}},{"attributes":{"OBJECTID":6433,"LANDMARKID":"6300000002587","LANDMARKCO":"406","LANDMARKNA":"北投六一號公園","LANDMARKAD":"6300012","ADDRESS":"台北市北投區","TEL":" ","COUNTYNAME":"台北市","TOWNNAME":"北投區","MARKTYPE":"994","Class":"4"},"geometry":{"x":300835.63159999996,"y":2780328.4392000008}},{"attributes":{"OBJECTID":6434,"LANDMARKID":"6300000002588","LANDMARKCO":"406","LANDMARKNA":"丹鳳公園","LANDMARKAD":"6300012","ADDRESS":"台北市北投區","TEL":" ","COUNTYNAME":"台北市","TOWNNAME":"北投區","MARKTYPE":"994","Class":"4"},"geometry":{"x":301467.93219999969,"y":2779950.7800999992}},{"attributes":{"OBJECTID":6435,"LANDMARKID":"6300000002589","LANDMARKCO":"406","LANDMARKNA":"崇仰公園","LANDMARKAD":"6300012","ADDRESS":"台北市北投區","TEL":" ","COUNTYNAME":"台北市","TOWNNAME":"北投區","MARKTYPE":"994","Class":"4"},"geometry":{"x":301615.25420000032,"y":2779833.0962000005}},{"attributes":{"OBJECTID":6436,"LANDMARKID":"6300000002590","LANDMARKCO":"406","LANDMARKNA":"唭哩岸公園","LANDMARKAD":"6300012","ADDRESS":"台北市北投區","TEL":" ","COUNTYNAME":"台北市","TOWNNAME":"北投區","MARKTYPE":"994","Class":"4"},"geometry":{"x":302928.88499999978,"y":2779799.9583000001}},{"attributes":{"OBJECTID":6437,"LANDMARKID":"6300000002591","LANDMARKCO":"406","LANDMARKNA":"關渡公園","LANDMARKAD":"6300012","ADDRESS":"台北市北投區","TEL":" ","COUNTYNAME":"台北市","TOWNNAME":"北投區","MARKTYPE":"994","Class":"4"},"geometry":{"x":296960.01680000033,"y":2779761.1868999992}},{"attributes":{"OBJECTID":6438,"LANDMARKID":"6300000002592","LANDMARKCO":"406","LANDMARKNA":"奇岩公園","LANDMARKAD":"6300012","ADDRESS":"台北市北投區","TEL":" ","COUNTYNAME":"台北市","TOWNNAME":"北投區","MARKTYPE":"994","Class":"4"},"geometry":{"x":300950.78390000015,"y":2779515.0584999993}},{"attributes":{"OBJECTID":6439,"LANDMARKID":"6300000002593","LANDMARKCO":"406","LANDMARKNA":"東華公園","LANDMARKAD":"6300012","ADDRESS":"台北市北投區","TEL":" ","COUNTYNAME":"台北市","TOWNNAME":"北投區","MARKTYPE":"994","Class":"4"},"geometry":{"x":300995.89209999982,"y":2779438.1853}},{"attributes":{"OBJECTID":6440,"LANDMARKID":"6300000002594","LANDMARKCO":"406","LANDMARKNA":"立農公園","LANDMARKAD":"6300012","ADDRESS":"台北市北投區","TEL":" ","COUNTYNAME":"台北市","TOWNNAME":"北投區","MARKTYPE":"994","Class":"4"},"geometry":{"x":300791.04530000035,"y":2779079.5125999991}},{"attributes":{"OBJECTID":6441,"LANDMARKID":"6300000002595","LANDMARKCO":"406","LANDMARKNA":"吉利公園","LANDMARKAD":"6300012","ADDRESS":"台北市北投區","TEL":" ","COUNTYNAME":"台北市","TOWNNAME":"北投區","MARKTYPE":"994","Class":"4"},"geometry":{"x":301158.88729999959,"y":2779058.3385000005}},{"attributes":{"OBJECTID":6442,"LANDMARKID":"6300000002596","LANDMARKCO":"406","LANDMARKNA":"石牌公園","LANDMARKAD":"6300012","ADDRESS":"台北市北投區","TEL":" ","COUNTYNAME":"台北市","TOWNNAME":"北投區","MARKTYPE":"994","Class":"4"},"geometry":{"x":301479.58169999998,"y":2778778.2958000004}},{"attributes":{"OBJECTID":6443,"LANDMARKID":"6300000002597","LANDMARKCO":"406","LANDMARKNA":"振華公園","LANDMARKAD":"6300012","ADDRESS":"台北市北投區","TEL":" ","COUNTYNAME":"台北市","TOWNNAME":"北投區","MARKTYPE":"994","Class":"4"},"geometry":{"x":302279.50530000031,"y":2778633.5710000005}},{"attributes":{"OBJECTID":6444,"LANDMARKID":"6300000002598","LANDMARKCO":"406","LANDMARKNA":"磺溪公園","LANDMARKAD":"6300012","ADDRESS":"台北市北投區","TEL":" ","COUNTYNAME":"台北市","TOWNNAME":"北投區","MARKTYPE":"994","Class":"4"},"geometry":{"x":302901.76790000033,"y":2778575.8094999995}},{"attributes":{"OBJECTID":6445,"LANDMARKID":"6300000002599","LANDMARKCO":"406","LANDMARKNA":"榮光公園","LANDMARKAD":"6300012","ADDRESS":"台北市北投區","TEL":" ","COUNTYNAME":"台北市","TOWNNAME":"北投區","MARKTYPE":"994","Class":"4"},"geometry":{"x":301864.58559999987,"y":2778562.4837999996}},{"attributes":{"OBJECTID":6446,"LANDMARKID":"6300000002600","LANDMARKCO":"406","LANDMARKNA":"社區公園","LANDMARKAD":"6300012","ADDRESS":"台北市北投區","TEL":" ","COUNTYNAME":"台北市","TOWNNAME":"北投區","MARKTYPE":"994","Class":"4"},"geometry":{"x":302897.61149999965,"y":2778228.8589999992}},{"attributes":{"OBJECTID":6447,"LANDMARKID":"6300000002601","LANDMARKCO":"406","LANDMARKNA":"致遠公園","LANDMARKAD":"6300012","ADDRESS":"台北市北投區","TEL":" ","COUNTYNAME":"台北市","TOWNNAME":"北投區","MARKTYPE":"994","Class":"4"},"geometry":{"x":301939.6213999996,"y":2778174.6642000005}},{"attributes":{"OBJECTID":6448,"LANDMARKID":"6300000002602","LANDMARKCO":"406","LANDMARKNA":"榮華公園","LANDMARKAD":"6300012","ADDRESS":"台北市北投區","TEL":" ","COUNTYNAME":"台北市","TOWNNAME":"北投區","MARKTYPE":"994","Class":"4"},"geometry":{"x":302644.16940000001,"y":2778122.9158999994}},{"attributes":{"OBJECTID":6449,"LANDMARKID":"6300000002603","LANDMARKCO":"406","LANDMARKNA":"陽明山公園","LANDMARKAD":"6300012","ADDRESS":"台北市北投區湖山路二段26號","TEL":" ","COUNTYNAME":"台北市","TOWNNAME":"北投區","MARKTYPE":"994","Class":"4"},"geometry":{"x":304411.88609999977,"y":2783011.4866000004}},{"attributes":{"OBJECTID":6450,"LANDMARKID":"6300000002915","LANDMARKCO":"407","LANDMARKNA":"三商百貨","LANDMARKAD":"6300012","ADDRESS":"台北市北投區新市街22號","TEL":"02-28950345","COUNTYNAME":"台北市","TOWNNAME":"北投區","MARKTYPE":"994","Class":"4"},"geometry":{"x":300627.74110000022,"y":2780497.2259}},{"attributes":{"OBJECTID":6451,"LANDMARKID":"6300000002916","LANDMARKCO":"407","LANDMARKNA":"誠品Eslite","LANDMARKAD":"6300012","ADDRESS":"臺北市北投區石牌路二段201號1F","TEL":"02-2876-6580","COUNTYNAME":"台北市","TOWNNAME":"北投區","MARKTYPE":"994","Class":"4"},"geometry":{"x":302355.88540000003,"y":2779078.5401000008}},{"attributes":{"OBJECTID":6452,"LANDMARKID":"6300000002459","LANDMARKCO":"405","LANDMARKNA":"全國加油站-承德站（台塑）","LANDMARKAD":"6300012","ADDRESS":"台北市北投區承德路六段15號","TEL":"02-28217290","COUNTYNAME":"台北市","TOWNNAME":"北投區","MARKTYPE":"994","Class":"4"},"geometry":{"x":301647.66640000045,"y":2777049.3147999998}},{"attributes":{"OBJECTID":6453,"LANDMARKID":"6300000002460","LANDMARKCO":"405","LANDMARKNA":"台亞加油站-承德站（台塑）","LANDMARKAD":"6300012","ADDRESS":"台北市北投區承德路7段303號","TEL":"(02)2820-3335","COUNTYNAME":"台北市","TOWNNAME":"北投區","MARKTYPE":"994","Class":"4"},"geometry":{"x":300821.31030000001,"y":2778804.3026999999}},{"attributes":{"OBJECTID":6454,"LANDMARKID":"6300000000344","LANDMARKCO":"107","LANDMARKNA":"台北市政府警察局奇岩派出所","LANDMARKAD":"6300012","ADDRESS":"台北市北投區奇岩里公館路209巷11號","TEL":"02-28954410","COUNTYNAME":"台北市","TOWNNAME":"北投區","MARKTYPE":"991","Class":"1"},"geometry":{"x":301239.01109999977,"y":2780029.0294000003}},{"attributes":{"OBJECTID":6455,"LANDMARKID":"6300000000345","LANDMARKCO":"107","LANDMARKNA":"台北市消防局光明消防分隊","LANDMARKAD":"6300012","ADDRESS":"台北市北投區光明路155號","TEL":"02-28913161","COUNTYNAME":"台北市","TOWNNAME":"北投區","MARKTYPE":"991","Class":"1"},"geometry":{"x":300654.70669999998,"y":2780829.1212000009}},{"attributes":{"OBJECTID":6456,"LANDMARKID":"6300000000001","LANDMARKCO":"101","LANDMARKNA":"中央氣象局竹子湖氣象站","LANDMARKAD":"6300012","ADDRESS":"台北市北投區竹子湖路2號","TEL":"02-28616030","COUNTYNAME":"台北市","TOWNNAME":"北投區","MARKTYPE":"991","Class":"1"},"geometry":{"x":304849.43020000029,"y":2783839.0234999992}},{"attributes":{"OBJECTID":6457,"LANDMARKID":"6300000000002","LANDMARKCO":"101","LANDMARKNA":"中央氣象局鞍部氣象站","LANDMARKAD":"6300012","ADDRESS":"台北市北投區竹子湖路111號","TEL":"02-28611533","COUNTYNAME":"台北市","TOWNNAME":"北投區","MARKTYPE":"991","Class":"1"},"geometry":{"x":303616.42520000041,"y":2785989.4558000006}},{"attributes":{"OBJECTID":6458,"LANDMARKID":"6300000000164","LANDMARKCO":"104","LANDMARKNA":"台北市國稅局北投稽徵所","LANDMARKAD":"6300012","ADDRESS":"台北市北投區新市街30號3樓","TEL":"02-28951515","COUNTYNAME":"台北市","TOWNNAME":"北投區","MARKTYPE":"991","Class":"1"},"geometry":{"x":300660.20289999992,"y":2780545.6050000004}},{"attributes":{"OBJECTID":6459,"LANDMARKID":"6300000000191","LANDMARKCO":"106","LANDMARKNA":"台北市北投區戶政事務所","LANDMARKAD":"6300012","ADDRESS":"台北市北投區清江里44鄰新市街30號3樓","TEL":"02-28924170","COUNTYNAME":"台北市","TOWNNAME":"北投區","MARKTYPE":"991","Class":"1"},"geometry":{"x":300660.20289999992,"y":2780545.6050000004}},{"attributes":{"OBJECTID":6460,"LANDMARKID":"6300000000329","LANDMARKCO":"107","LANDMARKNA":"台北市政府警察局北投分局","LANDMARKAD":"6300012","ADDRESS":"台北市北投區中央里中央北路一段1號","TEL":"02-28914521","COUNTYNAME":"台北市","TOWNNAME":"北投區","MARKTYPE":"991","Class":"1"},"geometry":{"x":300551.14869999979,"y":2780645.7565000001}},{"attributes":{"OBJECTID":6461,"LANDMARKID":"6300000000330","LANDMARKCO":"107","LANDMARKNA":"台北市政府警察局永明派出所","LANDMARKAD":"6300012","ADDRESS":"台北市北投區永明里石牌路二段101號","TEL":"02-28213110","COUNTYNAME":"台北市","TOWNNAME":"北投區","MARKTYPE":"991","Class":"1"},"geometry":{"x":302129.01090000011,"y":2778941.1609000005}},{"attributes":{"OBJECTID":6462,"LANDMARKID":"6300000000331","LANDMARKCO":"107","LANDMARKNA":"台北市政府警察局竹子湖派出所","LANDMARKAD":"6300012","ADDRESS":"台北市北投區湖田里竹子湖路16號","TEL":"02-28616082","COUNTYNAME":"台北市","TOWNNAME":"北投區","MARKTYPE":"991","Class":"1"},"geometry":{"x":304458.01180000044,"y":2784450.9656000007}},{"attributes":{"OBJECTID":6463,"LANDMARKID":"6300000000332","LANDMARKCO":"107","LANDMARKNA":"台北市政府警察局公園派出所","LANDMARKAD":"6300012","ADDRESS":"台北市北投區湖山里紗帽路110號","TEL":"02-28610145","COUNTYNAME":"台北市","TOWNNAME":"北投區","MARKTYPE":"991","Class":"1"},"geometry":{"x":305311.71879999992,"y":2782372.9375}},{"attributes":{"OBJECTID":6464,"LANDMARKID":"6300000000333","LANDMARKCO":"107","LANDMARKNA":"台北市政府警察局關渡派出所","LANDMARKAD":"6300012","ADDRESS":"台北市北投區關渡里大度路三段305號","TEL":"02-28583864","COUNTYNAME":"台北市","TOWNNAME":"北投區","MARKTYPE":"991","Class":"1"},"geometry":{"x":296988.66899999976,"y":2779480.7859000005}},{"attributes":{"OBJECTID":6465,"LANDMARKID":"6300000000334","LANDMARKCO":"107","LANDMARKNA":"台北市政府警察局石牌派出所","LANDMARKAD":"6300012","ADDRESS":"台北市北投區文林北路296號","TEL":"02-28231513","COUNTYNAME":"台北市","TOWNNAME":"北投區","MARKTYPE":"991","Class":"1"},"geometry":{"x":301689.16359999962,"y":2778049.2185999993}},{"attributes":{"OBJECTID":6466,"LANDMARKID":"6300000000335","LANDMARKCO":"107","LANDMARKNA":"台北市政府警察局大屯派出所","LANDMARKAD":"6300012","ADDRESS":"台北市北投區中和街534號","TEL":"02-28913971","COUNTYNAME":"台北市","TOWNNAME":"北投區","MARKTYPE":"991","Class":"1"},"geometry":{"x":299728.71619999968,"y":2781985.9330000002}},{"attributes":{"OBJECTID":6467,"LANDMARKID":"6300000000336","LANDMARKCO":"107","LANDMARKNA":"台北市政府警察局光明派出所","LANDMARKAD":"6300012","ADDRESS":"台北市北投區大業路735號","TEL":"02-28912047","COUNTYNAME":"台北市","TOWNNAME":"北投區","MARKTYPE":"991","Class":"1"},"geometry":{"x":300671.18809999991,"y":2781089.8055000007}},{"attributes":{"OBJECTID":6468,"LANDMARKID":"6300000000337","LANDMARKCO":"107","LANDMARKNA":"台北市政府警察局長安派出所","LANDMARKAD":"6300012","ADDRESS":"台北市北投區中央里中央北路一段1號","TEL":"02-28912029","COUNTYNAME":"台北市","TOWNNAME":"北投區","MARKTYPE":"991","Class":"1"},"geometry":{"x":300551.14869999979,"y":2780645.7565000001}},{"attributes":{"OBJECTID":6469,"LANDMARKID":"6300000000338","LANDMARKCO":"107","LANDMARKNA":"國家公園警察大隊","LANDMARKAD":"6300012","ADDRESS":"台北市北投區新生街11號","TEL":"02-28625341","COUNTYNAME":"台北市","TOWNNAME":"北投區","MARKTYPE":"991","Class":"1"},"geometry":{"x":304268.74920000043,"y":2783033.8807999995}},{"attributes":{"OBJECTID":6470,"LANDMARKID":"6300000000339","LANDMARKCO":"107","LANDMARKNA":"國家公園警察大隊陽明山國家公園","LANDMARKAD":"6300012","ADDRESS":"台北市北投區竹子湖路1號之20","TEL":"02-28613609","COUNTYNAME":"台北市","TOWNNAME":"北投區","MARKTYPE":"991","Class":"1"},"geometry":{"x":305009.60140000004,"y":2783328.5144999996}},{"attributes":{"OBJECTID":6471,"LANDMARKID":"6300000000340","LANDMARKCO":"107","LANDMARKNA":"台北市消防局北投消防中隊","LANDMARKAD":"6300012","ADDRESS":"台北市北投區石牌路二段101號","TEL":"02-28203201","COUNTYNAME":"台北市","TOWNNAME":"北投區","MARKTYPE":"991","Class":"1"},"geometry":{"x":302129.01090000011,"y":2778941.1609000005}},{"attributes":{"OBJECTID":6472,"LANDMARKID":"6300000000341","LANDMARKCO":"107","LANDMARKNA":"台北市消防局陽明山消防分隊","LANDMARKAD":"6300012","ADDRESS":"台北市北投區勝利街1號","TEL":"02-28616119","COUNTYNAME":"台北市","TOWNNAME":"北投區","MARKTYPE":"991","Class":"1"},"geometry":{"x":305087.21150000021,"y":2782662.9603000004}},{"attributes":{"OBJECTID":6473,"LANDMARKID":"6300000000342","LANDMARKCO":"107","LANDMARKNA":"台北市消防局關渡消防分隊","LANDMARKAD":"6300012","ADDRESS":"台北市北投區知行路345號","TEL":"02-28586084","COUNTYNAME":"台北市","TOWNNAME":"北投區","MARKTYPE":"991","Class":"1"},"geometry":{"x":297066.72479999997,"y":2779497.7320000008}},{"attributes":{"OBJECTID":6474,"LANDMARKID":"6300000000343","LANDMARKCO":"107","LANDMARKNA":"台北市消防局石牌消防分隊","LANDMARKAD":"6300012","ADDRESS":"台北市北投區石牌路二段101號","TEL":"02-28213119","COUNTYNAME":"台北市","TOWNNAME":"北投區","MARKTYPE":"991","Class":"1"},"geometry":{"x":302129.01090000011,"y":2778941.1609000005}},{"attributes":{"OBJECTID":6475,"LANDMARKID":"6300000000163","LANDMARKCO":"103","LANDMARKNA":"台北市北投區健康服務中心","LANDMARKAD":"6300012","ADDRESS":"台北市北投區石牌路2段111號7樓","TEL":"02-28261026","COUNTYNAME":"台北市","TOWNNAME":"北投區","MARKTYPE":"991","Class":"1"},"geometry":{"x":302165.83260000031,"y":2778959.7697999999}},{"attributes":{"OBJECTID":6476,"LANDMARKID":"6300000000367","LANDMARKCO":"108","LANDMARKNA":"台北市北投區公所","LANDMARKAD":"6300012","ADDRESS":"台北市北投區新市街30號4樓","TEL":"02-28912105","COUNTYNAME":"台北市","TOWNNAME":"北投區","MARKTYPE":"991","Class":"1"},"geometry":{"x":300660.20289999992,"y":2780545.6050000004}},{"attributes":{"OBJECTID":6477,"LANDMARKID":"6300000000161","LANDMARKCO":"103","LANDMARKNA":"台北市環保局北投垃圾焚化廠","LANDMARKAD":"6300012","ADDRESS":"台北市北投區洲美街271號","TEL":"02-28360050","COUNTYNAME":"台北市","TOWNNAME":"北投區","MARKTYPE":"991","Class":"1"},"geometry":{"x":300340.7154000001,"y":2777910.5399999991}},{"attributes":{"OBJECTID":6478,"LANDMARKID":"6300000000162","LANDMARKCO":"103","LANDMARKNA":"台北市北投運動中心","LANDMARKAD":"6300012","ADDRESS":"台北市北投區石牌路一段39巷100號","TEL":"02-28202880","COUNTYNAME":"台北市","TOWNNAME":"北投區","MARKTYPE":"991","Class":"1"},"geometry":{"x":301397.71169999987,"y":2778760.0054000001}},{"attributes":{"OBJECTID":6479,"LANDMARKID":"6300000000812","LANDMARKCO":"205","LANDMARKNA":"琉園水晶博物館","LANDMARKAD":"6300012","ADDRESS":"台北市北投區中央北路四段515巷16號","TEL":"02-28958861","COUNTYNAME":"台北市","TOWNNAME":"北投區","MARKTYPE":"992","Class":"2"},"geometry":{"x":297294.46210000012,"y":2779928.1012999993}},{"attributes":{"OBJECTID":6480,"LANDMARKID":"6300000000813","LANDMARKCO":"205","LANDMARKNA":"陽明山國家公園遊客中心文物陳列","LANDMARKAD":"6300012","ADDRESS":"台北市陽明山竹子湖路1之20號","TEL":" ","COUNTYNAME":"台北市","TOWNNAME":"北投區","MARKTYPE":"992","Class":"2"},"geometry":{"x":305219.71740000043,"y":2783144.9650999997}},{"attributes":{"OBJECTID":6481,"LANDMARKID":"6300000000814","LANDMARKCO":"205","LANDMARKNA":"北投溫泉博物館","LANDMARKAD":"6300012","ADDRESS":"台北市北投區中山路2號","TEL":" ","COUNTYNAME":"台北市","TOWNNAME":"北投區","MARKTYPE":"992","Class":"2"},"geometry":{"x":301134.5887000002,"y":2781000.8113000002}},{"attributes":{"OBJECTID":6482,"LANDMARKID":"6300000000727","LANDMARKCO":"204","LANDMARKNA":"台北市立圖書館稻香分館","LANDMARKAD":"6300012","ADDRESS":"台北市北投區稻香路81號3~4樓","TEL":" ","COUNTYNAME":"台北市","TOWNNAME":"北投區","MARKTYPE":"992","Class":"2"},"geometry":{"x":299290.88549999986,"y":2781470.5801999997}},{"attributes":{"OBJECTID":6483,"LANDMARKID":"6300000000728","LANDMARKCO":"204","LANDMARKNA":"台北市立圖書館清江分館","LANDMARKAD":"6300012","ADDRESS":"台北市北投區公館路198號3樓","TEL":" ","COUNTYNAME":"台北市","TOWNNAME":"北投區","MARKTYPE":"992","Class":"2"},"geometry":{"x":301148.4411000004,"y":2780023.9723000005}},{"attributes":{"OBJECTID":6484,"LANDMARKID":"6300000000729","LANDMARKCO":"204","LANDMARKNA":"台北市立圖書館吉利分館","LANDMARKAD":"6300012","ADDRESS":"台北市北投區立農街一段366號5~8樓","TEL":" ","COUNTYNAME":"台北市","TOWNNAME":"北投區","MARKTYPE":"992","Class":"2"},"geometry":{"x":301271.8359000003,"y":2779088.3698999994}},{"attributes":{"OBJECTID":6485,"LANDMARKID":"6300000000730","LANDMARKCO":"204","LANDMARKNA":"台北市立圖書館永明民眾閱覽室","LANDMARKAD":"6300012","ADDRESS":"台北市北投區石牌路二段115號7~8樓","TEL":" ","COUNTYNAME":"台北市","TOWNNAME":"北投區","MARKTYPE":"992","Class":"2"},"geometry":{"x":302197.53770000022,"y":2778977.4925999995}},{"attributes":{"OBJECTID":6486,"LANDMARKID":"6300000000436","LANDMARKCO":"202","LANDMARKNA":"私立十信工商","LANDMARKAD":"6300012","ADDRESS":"台北市北投區大業路514號","TEL":"02-28921166","COUNTYNAME":"台北市","TOWNNAME":"北投區","MARKTYPE":"992","Class":"2"},"geometry":{"x":300039.15460000001,"y":2780679.3347999994}},{"attributes":{"OBJECTID":6487,"LANDMARKID":"6300000000687","LANDMARKCO":"203","LANDMARKNA":"市立清江國小","LANDMARKAD":"6300012","ADDRESS":"台北市北投區奇岩里公館路220號","TEL":"02-28912764","COUNTYNAME":"台北市","TOWNNAME":"北投區","MARKTYPE":"992","Class":"2"},"geometry":{"x":301097.60520000011,"y":2779879.5656000003}},{"attributes":{"OBJECTID":6488,"LANDMARKID":"6300000000688","LANDMARKCO":"203","LANDMARKNA":"市立石牌國小","LANDMARKAD":"6300012","ADDRESS":"台北市北投區吉利里石牌路一段137號","TEL":"02-28228446","COUNTYNAME":"台北市","TOWNNAME":"北投區","MARKTYPE":"992","Class":"2"},"geometry":{"x":301692.37839999981,"y":2778589.4474999998}},{"attributes":{"OBJECTID":6489,"LANDMARKID":"6300000000689","LANDMARKCO":"203","LANDMARKNA":"私立薇閣小學","LANDMARKAD":"6300012","ADDRESS":"台北市北投區長安里育仁路104號","TEL":"02-28912668","COUNTYNAME":"台北市","TOWNNAME":"北投區","MARKTYPE":"992","Class":"2"},"geometry":{"x":300536.92960000038,"y":2780889.5592999998}},{"attributes":{"OBJECTID":6490,"LANDMARKID":"6300000000690","LANDMARKCO":"203","LANDMARKNA":"市立泉源國小","LANDMARKAD":"6300012","ADDRESS":"台北市北投區泉源里東昇路34號","TEL":"02-28951258","COUNTYNAME":"台北市","TOWNNAME":"北投區","MARKTYPE":"992","Class":"2"},"geometry":{"x":302867.06130000018,"y":2782459.1686000004}},{"attributes":{"OBJECTID":6491,"LANDMARKID":"6300000000691","LANDMARKCO":"203","LANDMARKNA":"市立義方國小","LANDMARKAD":"6300012","ADDRESS":"台北市北投區開明里開明街71號","TEL":"02-28917433","COUNTYNAME":"台北市","TOWNNAME":"北投區","MARKTYPE":"992","Class":"2"},"geometry":{"x":300671.05939999968,"y":2781539.0515000001}},{"attributes":{"OBJECTID":6492,"LANDMARKID":"6300000000692","LANDMARKCO":"203","LANDMARKNA":"私立奎山中學附設國小","LANDMARKAD":"6300012","ADDRESS":"台北市北投區榮華里榮華三路3巷1號","TEL":"02-28212009","COUNTYNAME":"台北市","TOWNNAME":"北投區","MARKTYPE":"992","Class":"2"},"geometry":{"x":302728.74890000001,"y":2778379.7662000004}},{"attributes":{"OBJECTID":6493,"LANDMARKID":"6300000000437","LANDMARKCO":"202","LANDMARKNA":"私立薇閣高中","LANDMARKAD":"6300012","ADDRESS":"台北市北投區珠海路50號","TEL":"02-28913630","COUNTYNAME":"台北市","TOWNNAME":"北投區","MARKTYPE":"992","Class":"2"},"geometry":{"x":300874.63100000005,"y":2781374.3326999992}},{"attributes":{"OBJECTID":6494,"LANDMARKID":"6300000000438","LANDMARKCO":"202","LANDMARKNA":"市立中正高中","LANDMARKAD":"6300012","ADDRESS":"台北市北投區文林北路77號","TEL":"02-28234811","COUNTYNAME":"台北市","TOWNNAME":"北投區","MARKTYPE":"992","Class":"2"},"geometry":{"x":302099.60410000011,"y":2777450.727}},{"attributes":{"OBJECTID":6495,"LANDMARKID":"6300000000439","LANDMARKCO":"202","LANDMARKNA":"市立復興高中","LANDMARKAD":"6300012","ADDRESS":"台北市北投區復興四路70號","TEL":"02-28914131","COUNTYNAME":"台北市","TOWNNAME":"北投區","MARKTYPE":"992","Class":"2"},"geometry":{"x":300594.80939999968,"y":2781788.3311999999}},{"attributes":{"OBJECTID":6496,"LANDMARKID":"6300000000440","LANDMARKCO":"202","LANDMARKNA":"私立志仁家商","LANDMARKAD":"6300012","ADDRESS":"台北市北投區一德街75號","TEL":"02-28914141","COUNTYNAME":"台北市","TOWNNAME":"北投區","MARKTYPE":"992","Class":"2"},"geometry":{"x":297148.68900000025,"y":2780174.6908}},{"attributes":{"OBJECTID":6497,"LANDMARKID":"6300000000441","LANDMARKCO":"202","LANDMARKNA":"私立惇敘工商","LANDMARKAD":"6300012","ADDRESS":"台北市北投區泉源路221號","TEL":"02-28912630","COUNTYNAME":"台北市","TOWNNAME":"北投區","MARKTYPE":"992","Class":"2"},"geometry":{"x":303139.25009999983,"y":2781887.6996999998}},{"attributes":{"OBJECTID":6498,"LANDMARKID":"6300000000668","LANDMARKCO":"203","LANDMARKNA":"市立桃源國中","LANDMARKAD":"6300012","ADDRESS":"台北市北投區中央北路四段48號","TEL":"02-28929633","COUNTYNAME":"台北市","TOWNNAME":"北投區","MARKTYPE":"992","Class":"2"},"geometry":{"x":298131.91249999963,"y":2780782.1723999996}},{"attributes":{"OBJECTID":6499,"LANDMARKID":"6300000000669","LANDMARKCO":"203","LANDMARKNA":"市立石牌國中","LANDMARKAD":"6300012","ADDRESS":"台北市北投區石牌路一段139號","TEL":"02-28224682","COUNTYNAME":"台北市","TOWNNAME":"北投區","MARKTYPE":"992","Class":"2"},"geometry":{"x":301857.15319999959,"y":2778604.8844000008}},{"attributes":{"OBJECTID":6500,"LANDMARKID":"6300000000670","LANDMARKCO":"203","LANDMARKNA":"市立北投國中","LANDMARKAD":"6300012","ADDRESS":"台北市北投區溫泉路62號","TEL":"02-28912051","COUNTYNAME":"台北市","TOWNNAME":"北投區","MARKTYPE":"992","Class":"2"},"geometry":{"x":300843.0970999999,"y":2780766.7094000001}},{"attributes":{"OBJECTID":6501,"LANDMARKID":"6300000000671","LANDMARKCO":"203","LANDMARKNA":"市立明德國中","LANDMARKAD":"6300012","ADDRESS":"台北市北投區明德路50號","TEL":"02-28232539","COUNTYNAME":"台北市","TOWNNAME":"北投區","MARKTYPE":"992","Class":"2"},"geometry":{"x":302275.0083999997,"y":2777790.8693000004}},{"attributes":{"OBJECTID":6502,"LANDMARKID":"6300000000672","LANDMARKCO":"203","LANDMARKNA":"市立關渡國中","LANDMARKAD":"6300012","ADDRESS":"台北市北投區知行路212號","TEL":"02-28582527","COUNTYNAME":"台北市","TOWNNAME":"北投區","MARKTYPE":"992","Class":"2"},"geometry":{"x":297129.98510000017,"y":2779138.7666999996}},{"attributes":{"OBJECTID":6503,"LANDMARKID":"6300000000673","LANDMARKCO":"203","LANDMARKNA":"市立新民國中","LANDMARKAD":"6300012","ADDRESS":"台北市北投區新民路10號","TEL":"02-28979001","COUNTYNAME":"台北市","TOWNNAME":"北投區","MARKTYPE":"992","Class":"2"},"geometry":{"x":301075.86600000039,"y":2781254.6297999993}},{"attributes":{"OBJECTID":6504,"LANDMARKID":"6300000000674","LANDMARKCO":"203","LANDMARKNA":"私立奎山國中","LANDMARKAD":"6300012","ADDRESS":"台北市北投區明德路200號","TEL":"02-28212009","COUNTYNAME":"台北市","TOWNNAME":"北投區","MARKTYPE":"992","Class":"2"},"geometry":{"x":302650.57849999983,"y":2778391.4879999999}},{"attributes":{"OBJECTID":6505,"LANDMARKID":"6300000000675","LANDMARKCO":"203","LANDMARKNA":"市立北投國小","LANDMARKAD":"6300012","ADDRESS":"台北市北投區長安里中央北路一段73號","TEL":"02-28912052","COUNTYNAME":"台北市","TOWNNAME":"北投區","MARKTYPE":"992","Class":"2"},"geometry":{"x":300445.88279999979,"y":2780734.1472999994}},{"attributes":{"OBJECTID":6506,"LANDMARKID":"6300000000676","LANDMARKCO":"203","LANDMARKNA":"市立桃源國小","LANDMARKAD":"6300012","ADDRESS":"台北市北投區中央北路三段40巷45號","TEL":"02-28941208","COUNTYNAME":"台北市","TOWNNAME":"北投區","MARKTYPE":"992","Class":"2"},"geometry":{"x":298852.2078999998,"y":2781332.5812999997}},{"attributes":{"OBJECTID":6507,"LANDMARKID":"6300000000677","LANDMARKCO":"203","LANDMARKNA":"市立關渡國小","LANDMARKAD":"6300012","ADDRESS":"台北市北投區一德里中央北路四段581號","TEL":"02-28927905","COUNTYNAME":"台北市","TOWNNAME":"北投區","MARKTYPE":"992","Class":"2"},"geometry":{"x":297076.24540000036,"y":2779910.6953999996}},{"attributes":{"OBJECTID":6508,"LANDMARKID":"6300000000678","LANDMARKCO":"203","LANDMARKNA":"市立文化國小","LANDMARKAD":"6300012","ADDRESS":"台北市北投區文化里文化三路1號","TEL":"02-28922742","COUNTYNAME":"台北市","TOWNNAME":"北投區","MARKTYPE":"992","Class":"2"},"geometry":{"x":300080.11890000012,"y":2781053.6798999999}},{"attributes":{"OBJECTID":6509,"LANDMARKID":"6300000000679","LANDMARKCO":"203","LANDMARKNA":"市立文林國小","LANDMARKAD":"6300012","ADDRESS":"台北市北投區建民里文林北路155號","TEL":"02-28234212","COUNTYNAME":"台北市","TOWNNAME":"北投區","MARKTYPE":"992","Class":"2"},"geometry":{"x":301913.90780000016,"y":2777609.1816000007}},{"attributes":{"OBJECTID":6510,"LANDMARKID":"6300000000680","LANDMARKCO":"203","LANDMARKNA":"市立立農國小","LANDMARKAD":"6300012","ADDRESS":"台北市北投區立農里立農街一段250號","TEL":"02-28210702","COUNTYNAME":"台北市","TOWNNAME":"北投區","MARKTYPE":"992","Class":"2"},"geometry":{"x":300957.19900000002,"y":2779105.0544000007}},{"attributes":{"OBJECTID":6511,"LANDMARKID":"6300000000681","LANDMARKCO":"203","LANDMARKNA":"市立湖田國小","LANDMARKAD":"6300012","ADDRESS":"台北市北投區湖山里竹子湖路17之2號","TEL":"02-28616936","COUNTYNAME":"台北市","TOWNNAME":"北投區","MARKTYPE":"992","Class":"2"},"geometry":{"x":304309.7993999999,"y":2784537.6919}},{"attributes":{"OBJECTID":6512,"LANDMARKID":"6300000000682","LANDMARKCO":"203","LANDMARKNA":"市立明德國小","LANDMARKAD":"6300012","ADDRESS":"台北市北投區榮華里明德路190號","TEL":"02-28229732","COUNTYNAME":"台北市","TOWNNAME":"北投區","MARKTYPE":"992","Class":"2"},"geometry":{"x":302623.84800000023,"y":2778299.5912999995}},{"attributes":{"OBJECTID":6513,"LANDMARKID":"6300000000683","LANDMARKCO":"203","LANDMARKNA":"市立洲美國小","LANDMARKAD":"6300012","ADDRESS":"台北市北投區洲美里洲美街185號","TEL":"02-28313619","COUNTYNAME":"台北市","TOWNNAME":"北投區","MARKTYPE":"992","Class":"2"},"geometry":{"x":300703.25179999974,"y":2777039.9925999995}},{"attributes":{"OBJECTID":6514,"LANDMARKID":"6300000000684","LANDMARKCO":"203","LANDMARKNA":"市立大屯國小","LANDMARKAD":"6300012","ADDRESS":"台北市北投區中和里復興三路312號","TEL":"02-28914353","COUNTYNAME":"台北市","TOWNNAME":"北投區","MARKTYPE":"992","Class":"2"},"geometry":{"x":300839.62239999976,"y":2783010.6919999998}},{"attributes":{"OBJECTID":6515,"LANDMARKID":"6300000000685","LANDMARKCO":"203","LANDMARKNA":"市立湖山國小","LANDMARKAD":"6300012","ADDRESS":"台北市北投區湖山里湖底路11號","TEL":"02-28613194","COUNTYNAME":"台北市","TOWNNAME":"北投區","MARKTYPE":"992","Class":"2"},"geometry":{"x":303989.09119999968,"y":2782496.8936999999}},{"attributes":{"OBJECTID":6516,"LANDMARKID":"6300000000686","LANDMARKCO":"203","LANDMARKNA":"市立逸仙國小","LANDMARKAD":"6300012","ADDRESS":"台北市北投區中心里新民路2號","TEL":"02-28914537","COUNTYNAME":"台北市","TOWNNAME":"北投區","MARKTYPE":"992","Class":"2"},"geometry":{"x":300919.37449999992,"y":2781181.6696000006}},{"attributes":{"OBJECTID":6517,"LANDMARKID":"6300000000417","LANDMARKCO":"201","LANDMARKNA":"國立陽明大學","LANDMARKAD":"6300012","ADDRESS":"台北市北投區立農街二段155號","TEL":"02-28267000","COUNTYNAME":"台北市","TOWNNAME":"北投區","MARKTYPE":"992","Class":"2"},"geometry":{"x":301764.11880000029,"y":2779128.1657999996}},{"attributes":{"OBJECTID":6518,"LANDMARKID":"6300000000418","LANDMARKCO":"201","LANDMARKNA":"國立台北護理學院","LANDMARKAD":"6300012","ADDRESS":"台北市北投區明德路365號","TEL":"02-28227101","COUNTYNAME":"台北市","TOWNNAME":"北投區","MARKTYPE":"992","Class":"2"},"geometry":{"x":302575.81539999973,"y":2778898.5175999999}},{"attributes":{"OBJECTID":6519,"LANDMARKID":"6300000000419","LANDMARKCO":"201","LANDMARKNA":"馬偕護理管理專科學校","LANDMARKAD":"6300012","ADDRESS":"台北市北投區聖景路92號","TEL":"02-28584180","COUNTYNAME":"台北市","TOWNNAME":"北投區","MARKTYPE":"992","Class":"2"},"geometry":{"x":296847.82959999982,"y":2779365.2751000002}},{"attributes":{"OBJECTID":6520,"LANDMARKID":"6300000000420","LANDMARKCO":"201","LANDMARKNA":"國立台北藝術大學","LANDMARKAD":"6300012","ADDRESS":"台北市北投區學園路1號","TEL":"02-28961000","COUNTYNAME":"台北市","TOWNNAME":"北投區","MARKTYPE":"992","Class":"2"},"geometry":{"x":297009.07739999983,"y":2780250.4580000006}},{"attributes":{"OBJECTID":6521,"LANDMARKID":"6300000000421","LANDMARKCO":"201","LANDMARKNA":"北台灣科學技術學院","LANDMARKAD":"6300012","ADDRESS":"台北市北投區學園路2號","TEL":"02-28927154","COUNTYNAME":"台北市","TOWNNAME":"北投區","MARKTYPE":"992","Class":"2"},"geometry":{"x":297196.20760000031,"y":2780406.5222999994}},{"attributes":{"OBJECTID":6522,"LANDMARKID":"6300000000422","LANDMARKCO":"201","LANDMARKNA":"國防大學管理學院","LANDMARKAD":"6300012","ADDRESS":"台北市北投區中央北路二段70號","TEL":"02-28912135","COUNTYNAME":"台北市","TOWNNAME":"北投區","MARKTYPE":"992","Class":"2"},"geometry":{"x":299697.08920000028,"y":2781165.0611000005}},{"attributes":{"OBJECTID":6523,"LANDMARKID":"6300000000693","LANDMARKCO":"203","LANDMARKNA":"私立奎山國中","LANDMARKAD":"6300012","ADDRESS":"[112]台北市北投區榮華里明德路200號","TEL":"02-28212009","COUNTYNAME":"台北市","TOWNNAME":"北投區","MARKTYPE":"992","Class":"2"},"geometry":{"x":302650.57849999983,"y":2778391.4879999999}},{"attributes":{"OBJECTID":6524,"LANDMARKID":"6300000000416","LANDMARKCO":"201","LANDMARKNA":"基督教拿撒勒人神學院","LANDMARKAD":"6300012","ADDRESS":"台北市北投區","TEL":" ","COUNTYNAME":"台北市","TOWNNAME":"北投區","MARKTYPE":"992","Class":"2"},"geometry":{"x":296830.69469999988,"y":2779289.8341000006}},{"attributes":{"OBJECTID":6525,"LANDMARKID":"6300000001208","LANDMARKCO":"303","LANDMARKNA":"捷運奇岩站停車場","LANDMARKAD":"6300012","ADDRESS":"台北市北投區三合街二段489號","TEL":" ","COUNTYNAME":"台北市","TOWNNAME":"北投區","MARKTYPE":"993","Class":"303"},"geometry":{"x":300459.91820000019,"y":2779851.5522000007}},{"attributes":{"OBJECTID":6526,"LANDMARKID":"6300000001209","LANDMARKCO":"303","LANDMARKNA":"捷運奇岩站停車場","LANDMARKAD":"6300012","ADDRESS":"台北市北投區三合街二段489號","TEL":" ","COUNTYNAME":"台北市","TOWNNAME":"北投區","MARKTYPE":"993","Class":"303"},"geometry":{"x":300519.4179999996,"y":2779842.6664000005}},{"attributes":{"OBJECTID":6527,"LANDMARKID":"6300000001977","LANDMARKCO":"306","LANDMARKNA":"明德捷運站-出口","LANDMARKAD":"6300012","ADDRESS":" ","TEL":" ","COUNTYNAME":"台北市","TOWNNAME":"北投區","MARKTYPE":"993","Class":"306"},"geometry":{"x":302365.08920000028,"y":2777983.3968000002}},{"attributes":{"OBJECTID":6528,"LANDMARKID":"6300000001978","LANDMARKCO":"306","LANDMARKNA":"石牌捷運站-出口","LANDMARKAD":"6300012","ADDRESS":" ","TEL":" ","COUNTYNAME":"台北市","TOWNNAME":"北投區","MARKTYPE":"993","Class":"306"},"geometry":{"x":301957.06680000015,"y":2778611.1563000008}},{"attributes":{"OBJECTID":6529,"LANDMARKID":"6300000001979","LANDMARKCO":"306","LANDMARKNA":"唭哩岸捷運站-出口","LANDMARKAD":"6300012","ADDRESS":" ","TEL":" ","COUNTYNAME":"台北市","TOWNNAME":"北投區","MARKTYPE":"993","Class":"306"},"geometry":{"x":301121.47420000006,"y":2779249.6718000006}},{"attributes":{"OBJECTID":6530,"LANDMARKID":"6300000001980","LANDMARKCO":"306","LANDMARKNA":"奇岩捷運站-出口","LANDMARKAD":"6300012","ADDRESS":" ","TEL":" ","COUNTYNAME":"台北市","TOWNNAME":"北投區","MARKTYPE":"993","Class":"306"},"geometry":{"x":300516.64400000032,"y":2779842.6610000003}},{"attributes":{"OBJECTID":6531,"LANDMARKID":"6300000001981","LANDMARKCO":"306","LANDMARKNA":"北投捷運站-出口","LANDMARKAD":"6300012","ADDRESS":" ","TEL":" ","COUNTYNAME":"台北市","TOWNNAME":"北投區","MARKTYPE":"993","Class":"306"},"geometry":{"x":300234.24660000019,"y":2780531.4170999993}},{"attributes":{"OBJECTID":6532,"LANDMARKID":"6300000001982","LANDMARKCO":"306","LANDMARKNA":"新北投捷運站-出口","LANDMARKAD":"6300012","ADDRESS":" ","TEL":" ","COUNTYNAME":"台北市","TOWNNAME":"北投區","MARKTYPE":"993","Class":"306"},"geometry":{"x":300766.76790000033,"y":2781049.8860999998}},{"attributes":{"OBJECTID":6533,"LANDMARKID":"6300000001983","LANDMARKCO":"306","LANDMARKNA":"復興崗捷運站-出口","LANDMARKAD":"6300012","ADDRESS":" ","TEL":" ","COUNTYNAME":"台北市","TOWNNAME":"北投區","MARKTYPE":"993","Class":"306"},"geometry":{"x":298942.91629999969,"y":2781119.0081999991}},{"attributes":{"OBJECTID":6534,"LANDMARKID":"6300000001984","LANDMARKCO":"306","LANDMARKNA":"忠義捷運站-出口","LANDMARKAD":"6300012","ADDRESS":" ","TEL":" ","COUNTYNAME":"台北市","TOWNNAME":"北投區","MARKTYPE":"993","Class":"306"},"geometry":{"x":297707.77469999995,"y":2780382.6341999993}},{"attributes":{"OBJECTID":6535,"LANDMARKID":"6300000001985","LANDMARKCO":"306","LANDMARKNA":"關渡捷運站-出口2","LANDMARKAD":"6300012","ADDRESS":" ","TEL":" ","COUNTYNAME":"台北市","TOWNNAME":"北投區","MARKTYPE":"993","Class":"306"},"geometry":{"x":297084.95550000016,"y":2779780.7875999995}},{"attributes":{"OBJECTID":6536,"LANDMARKID":"6300000001986","LANDMARKCO":"306","LANDMARKNA":"關渡捷運站-出口1","LANDMARKAD":"6300012","ADDRESS":" ","TEL":" ","COUNTYNAME":"台北市","TOWNNAME":"北投區","MARKTYPE":"993","Class":"306"},"geometry":{"x":297120.59389999975,"y":2779754.5135999992}},{"attributes":{"OBJECTID":6537,"LANDMARKID":"6300000000862","LANDMARKCO":"302","LANDMARKNA":"大南客運","LANDMARKAD":"6300012","ADDRESS":"112台北市北投區大度路3段190號","TEL":"02-28935612","COUNTYNAME":"台北市","TOWNNAME":"北投區","MARKTYPE":"993","Class":"302"},"geometry":{"x":297261.15280000027,"y":2779720.4811000004}},{"attributes":{"OBJECTID":6538,"LANDMARKID":"6300000000863","LANDMARKCO":"302","LANDMARKNA":"大南客運","LANDMARKAD":"6300012","ADDRESS":"112台北市北投區中央北路4段601巷11號","TEL":"02-28588456","COUNTYNAME":"台北市","TOWNNAME":"北投區","MARKTYPE":"993","Class":"302"},"geometry":{"x":296615.3666000003,"y":2779477.7838000003}},{"attributes":{"OBJECTID":6539,"LANDMARKID":"6300000000864","LANDMARKCO":"302","LANDMARKNA":"大南汽車客運北投站","LANDMARKAD":"6300012","ADDRESS":"台北市北投區秀山路30號","TEL":" ","COUNTYNAME":"台北市","TOWNNAME":"北投區","MARKTYPE":"993","Class":"302"},"geometry":{"x":299604.89740000013,"y":2781843.2065999992}},{"attributes":{"OBJECTID":6540,"LANDMARKID":"6300000000865","LANDMARKCO":"302","LANDMARKNA":"大南汽車客運復興站","LANDMARKAD":"6300012","ADDRESS":"台北市北投區秀山路45號","TEL":" ","COUNTYNAME":"台北市","TOWNNAME":"北投區","MARKTYPE":"993","Class":"302"},"geometry":{"x":299582.89630000014,"y":2782362.2869000006}},{"attributes":{"OBJECTID":6541,"LANDMARKID":"6300000000866","LANDMARKCO":"302","LANDMARKNA":"大南汽車客運自強站","LANDMARKAD":"6300012","ADDRESS":"台北市北投區中央北路四段601巷11號","TEL":" ","COUNTYNAME":"台北市","TOWNNAME":"北投區","MARKTYPE":"993","Class":"302"},"geometry":{"x":296713.0831000004,"y":2779506.1219999995}},{"attributes":{"OBJECTID":6542,"LANDMARKID":"6300000000867","LANDMARKCO":"302","LANDMARKNA":"大南汽車客運關渡站","LANDMARKAD":"6300012","ADDRESS":"台北市北投區知行路4號之3","TEL":" ","COUNTYNAME":"台北市","TOWNNAME":"北投區","MARKTYPE":"993","Class":"302"},"geometry":{"x":296928.68369999994,"y":2778910.9050999992}},{"attributes":{"OBJECTID":6543,"LANDMARKID":"6300000001143","LANDMARKCO":"303","LANDMARKNA":"關渡宮停車場","LANDMARKAD":"6300012","ADDRESS":" ","TEL":" ","COUNTYNAME":"台北市","TOWNNAME":"北投區","MARKTYPE":"993","Class":"303"},"geometry":{"x":296620.72979999986,"y":2779206.8724000007}},{"attributes":{"OBJECTID":6544,"LANDMARKID":"6300000001144","LANDMARKCO":"303","LANDMARKNA":"關渡水岸自然公園機車停車場","LANDMARKAD":"6300012","ADDRESS":" ","TEL":" ","COUNTYNAME":"台北市","TOWNNAME":"北投區","MARKTYPE":"993","Class":"303"},"geometry":{"x":296709.43630000018,"y":2778872.1634999998}},{"attributes":{"OBJECTID":6545,"LANDMARKID":"6300000001145","LANDMARKCO":"303","LANDMARKNA":"捷運關渡站停車場","LANDMARKAD":"6300012","ADDRESS":" ","TEL":" ","COUNTYNAME":"台北市","TOWNNAME":"北投區","MARKTYPE":"993","Class":"303"},"geometry":{"x":297131.2472000001,"y":2779753.8644999992}},{"attributes":{"OBJECTID":6546,"LANDMARKID":"6300000001146","LANDMARKCO":"303","LANDMARKNA":"中央北路四段平面停車場","LANDMARKAD":"6300012","ADDRESS":"台北市北投區中央北路四段542號","TEL":" ","COUNTYNAME":"台北市","TOWNNAME":"北投區","MARKTYPE":"993","Class":"303"},"geometry":{"x":297281.63549999986,"y":2780105.2687999997}},{"attributes":{"OBJECTID":6547,"LANDMARKID":"6300000001147","LANDMARKCO":"303","LANDMARKNA":"賓士停車場","LANDMARKAD":"6300012","ADDRESS":" ","TEL":" ","COUNTYNAME":"台北市","TOWNNAME":"北投區","MARKTYPE":"993","Class":"303"},"geometry":{"x":297286.67650000006,"y":2779569.4551999997}},{"attributes":{"OBJECTID":6548,"LANDMARKID":"6300000001148","LANDMARKCO":"303","LANDMARKNA":"關渡自然公園停車場","LANDMARKAD":"6300012","ADDRESS":" ","TEL":" ","COUNTYNAME":"台北市","TOWNNAME":"北投區","MARKTYPE":"993","Class":"303"},"geometry":{"x":297323.97149999999,"y":2779078.4956999999}},{"attributes":{"OBJECTID":6549,"LANDMARKID":"6300000001149","LANDMARKCO":"303","LANDMARKNA":"中興嘟嘟房停車場-關渡站","LANDMARKAD":"6300012","ADDRESS":"台北市北投區立德路125號旁","TEL":"02-28931205","COUNTYNAME":"台北市","TOWNNAME":"北投區","MARKTYPE":"993","Class":"303"},"geometry":{"x":297671.48890000023,"y":2780130.9817999993}},{"attributes":{"OBJECTID":6550,"LANDMARKID":"6300000001150","LANDMARKCO":"303","LANDMARKNA":"中興嘟嘟房停車場-和信醫院站","LANDMARKAD":"6300012","ADDRESS":"台北市北投區立德路125號B1","TEL":"02-29831205","COUNTYNAME":"台北市","TOWNNAME":"北投區","MARKTYPE":"993","Class":"303"},"geometry":{"x":297637.8432,"y":2780072.8858000003}},{"attributes":{"OBJECTID":6551,"LANDMARKID":"6300000001151","LANDMARKCO":"303","LANDMARKNA":"捷運忠義站停車場","LANDMARKAD":"6300012","ADDRESS":" ","TEL":" ","COUNTYNAME":"台北市","TOWNNAME":"北投區","MARKTYPE":"993","Class":"303"},"geometry":{"x":297641.79569999967,"y":2780316.0477000009}},{"attributes":{"OBJECTID":6552,"LANDMARKID":"6300000001152","LANDMARKCO":"303","LANDMARKNA":"大南汽車停車場","LANDMARKAD":"6300012","ADDRESS":" ","TEL":" ","COUNTYNAME":"台北市","TOWNNAME":"北投區","MARKTYPE":"993","Class":"303"},"geometry":{"x":299605.38719999976,"y":2781854.5857999995}},{"attributes":{"OBJECTID":6553,"LANDMARKID":"6300000001153","LANDMARKCO":"303","LANDMARKNA":"貴子坑水土保持教學園區停車場","LANDMARKAD":"6300012","ADDRESS":" ","TEL":"02-27256620","COUNTYNAME":"台北市","TOWNNAME":"北投區","MARKTYPE":"993","Class":"303"},"geometry":{"x":299801.79949999973,"y":2782681.7777999993}},{"attributes":{"OBJECTID":6554,"LANDMARKID":"6300000001154","LANDMARKCO":"303","LANDMARKNA":"亞太駐車聯盟大業站停車場","LANDMARKAD":"6300012","ADDRESS":"台北市北投區大業路304號","TEL":"02-28966003","COUNTYNAME":"台北市","TOWNNAME":"北投區","MARKTYPE":"993","Class":"303"},"geometry":{"x":300225.11010000017,"y":2780063.0417999998}},{"attributes":{"OBJECTID":6555,"LANDMARKID":"6300000001155","LANDMARKCO":"303","LANDMARKNA":"捷運北投站停車場","LANDMARKAD":"6300012","ADDRESS":" ","TEL":" ","COUNTYNAME":"台北市","TOWNNAME":"北投區","MARKTYPE":"993","Class":"303"},"geometry":{"x":300244.92659999989,"y":2780558.6180000007}},{"attributes":{"OBJECTID":6556,"LANDMARKID":"6300000001156","LANDMARKCO":"303","LANDMARKNA":"洲美運動公園地下停車場","LANDMARKAD":"6300012","ADDRESS":"台北市北投區洲美街271號B1樓","TEL":" ","COUNTYNAME":"台北市","TOWNNAME":"北投區","MARKTYPE":"993","Class":"303"},"geometry":{"x":300341.60620000027,"y":2778070.3992999997}},{"attributes":{"OBJECTID":6557,"LANDMARKID":"6300000001157","LANDMARKCO":"303","LANDMARKNA":"北投中信停車場","LANDMARKAD":"6300012","ADDRESS":" ","TEL":"02-28930911","COUNTYNAME":"台北市","TOWNNAME":"北投區","MARKTYPE":"993","Class":"303"},"geometry":{"x":300322.89709999971,"y":2780319.8555999994}},{"attributes":{"OBJECTID":6558,"LANDMARKID":"6300000001158","LANDMARKCO":"303","LANDMARKNA":"捷和商務中心停車場","LANDMARKAD":"6300012","ADDRESS":" ","TEL":" ","COUNTYNAME":"台北市","TOWNNAME":"北投區","MARKTYPE":"993","Class":"303"},"geometry":{"x":300322.06149999984,"y":2780348.2117999997}},{"attributes":{"OBJECTID":6559,"LANDMARKID":"6300000001159","LANDMARKCO":"303","LANDMARKNA":"捷運新北投站停車場","LANDMARKAD":"6300012","ADDRESS":" ","TEL":"02-28375158","COUNTYNAME":"台北市","TOWNNAME":"北投區","MARKTYPE":"993","Class":"303"},"geometry":{"x":300557.07919999957,"y":2781024.2102000006}},{"attributes":{"OBJECTID":6560,"LANDMARKID":"6300000001160","LANDMARKCO":"303","LANDMARKNA":"北投垃圾焚化廠停車場","LANDMARKAD":"6300012","ADDRESS":"台北市北投區洲美街271號","TEL":" ","COUNTYNAME":"台北市","TOWNNAME":"北投區","MARKTYPE":"993","Class":"303"},"geometry":{"x":300573.93570000026,"y":2777797.4243000001}},{"attributes":{"OBJECTID":6561,"LANDMARKID":"6300000001161","LANDMARKCO":"303","LANDMARKNA":"捷運北投站停車場","LANDMARKAD":"6300012","ADDRESS":" ","TEL":" ","COUNTYNAME":"台北市","TOWNNAME":"北投區","MARKTYPE":"993","Class":"303"},"geometry":{"x":300365.17669999972,"y":2780453.9784999993}},{"attributes":{"OBJECTID":6562,"LANDMARKID":"6300000001162","LANDMARKCO":"303","LANDMARKNA":"北投區行政中心地下室停車場","LANDMARKAD":"6300012","ADDRESS":"台北市北投區新市街30號B1樓","TEL":" ","COUNTYNAME":"台北市","TOWNNAME":"北投區","MARKTYPE":"993","Class":"303"},"geometry":{"x":300686.31659999955,"y":2780582.0940000005}},{"attributes":{"OBJECTID":6563,"LANDMARKID":"6300000001163","LANDMARKCO":"303","LANDMARKNA":"大豐公園地下停車場","LANDMARKAD":"6300012","ADDRESS":"台北市北投區大興街145號","TEL":"02-28921209","COUNTYNAME":"台北市","TOWNNAME":"北投區","MARKTYPE":"993","Class":"303"},"geometry":{"x":300842.16739999969,"y":2780396.9057}},{"attributes":{"OBJECTID":6564,"LANDMARKID":"6300000001164","LANDMARKCO":"303","LANDMARKNA":"北投復興平面停車場","LANDMARKAD":"6300012","ADDRESS":"復興路與進賢路間空地","TEL":" ","COUNTYNAME":"台北市","TOWNNAME":"北投區","MARKTYPE":"993","Class":"303"},"geometry":{"x":300863.21320000011,"y":2781445.0090999994}},{"attributes":{"OBJECTID":6565,"LANDMARKID":"6300000001165","LANDMARKCO":"303","LANDMARKNA":"開勝平面停車場","LANDMARKAD":"6300012","ADDRESS":"臺北市北投區復興路與珠海路間","TEL":" ","COUNTYNAME":"台北市","TOWNNAME":"北投區","MARKTYPE":"993","Class":"303"},"geometry":{"x":300892.04559999984,"y":2781443.3775999993}},{"attributes":{"OBJECTID":6566,"LANDMARKID":"6300000001166","LANDMARKCO":"303","LANDMARKNA":"石牌高爾夫停車場","LANDMARKAD":"6300012","ADDRESS":"台北市北投區承德路七段223之2號(石牌高爾夫內)","TEL":"02-25363058","COUNTYNAME":"台北市","TOWNNAME":"北投區","MARKTYPE":"993","Class":"303"},"geometry":{"x":300899.69000000041,"y":2778627.4227000009}},{"attributes":{"OBJECTID":6567,"LANDMARKID":"6300000001167","LANDMARKCO":"303","LANDMARKNA":"中正山停車場","LANDMARKAD":"6300012","ADDRESS":"台北市北投區登山路","TEL":" ","COUNTYNAME":"台北市","TOWNNAME":"北投區","MARKTYPE":"993","Class":"303"},"geometry":{"x":301555.05999999959,"y":2783155.6919999998}},{"attributes":{"OBJECTID":6568,"LANDMARKID":"6300000001168","LANDMARKCO":"303","LANDMARKNA":"陽明大學停車場","LANDMARKAD":"6300012","ADDRESS":" ","TEL":" ","COUNTYNAME":"台北市","TOWNNAME":"北投區","MARKTYPE":"993","Class":"303"},"geometry":{"x":301953.35759999976,"y":2779431.5393000003}},{"attributes":{"OBJECTID":6569,"LANDMARKID":"6300000001169","LANDMARKCO":"303","LANDMARKNA":"捷運石牌站停車場","LANDMARKAD":"6300012","ADDRESS":" ","TEL":" ","COUNTYNAME":"台北市","TOWNNAME":"北投區","MARKTYPE":"993","Class":"303"},"geometry":{"x":302074.93130000029,"y":2778638.4382000007}},{"attributes":{"OBJECTID":6570,"LANDMARKID":"6300000001170","LANDMARKCO":"303","LANDMARKNA":"振華公園平面停車場","LANDMARKAD":"6300012","ADDRESS":"台北市北投區振華街36號對面","TEL":" ","COUNTYNAME":"台北市","TOWNNAME":"北投區","MARKTYPE":"993","Class":"303"},"geometry":{"x":302268.81639999989,"y":2778698.5654000007}},{"attributes":{"OBJECTID":6571,"LANDMARKID":"6300000001171","LANDMARKCO":"303","LANDMARKNA":"硫磺谷遊憩區停車場","LANDMARKAD":"6300012","ADDRESS":" ","TEL":" ","COUNTYNAME":"台北市","TOWNNAME":"北投區","MARKTYPE":"993","Class":"303"},"geometry":{"x":302618.34020000044,"y":2781750.0265999995}},{"attributes":{"OBJECTID":6572,"LANDMARKID":"6300000001172","LANDMARKCO":"303","LANDMARKNA":"行義路停車場","LANDMARKAD":"6300012","ADDRESS":" ","TEL":" ","COUNTYNAME":"台北市","TOWNNAME":"北投區","MARKTYPE":"993","Class":"303"},"geometry":{"x":303300.11429999955,"y":2781257.5424000006}},{"attributes":{"OBJECTID":6573,"LANDMARKID":"6300000001173","LANDMARKCO":"303","LANDMARKNA":"紗帽谷停車場","LANDMARKAD":"6300012","ADDRESS":" ","TEL":" ","COUNTYNAME":"台北市","TOWNNAME":"北投區","MARKTYPE":"993","Class":"303"},"geometry":{"x":303471.85989999957,"y":2781487.0704999994}},{"attributes":{"OBJECTID":6574,"LANDMARKID":"6300000001174","LANDMARKCO":"303","LANDMARKNA":"易泊網陽明山第一停車場","LANDMARKAD":"6300012","ADDRESS":" ","TEL":" ","COUNTYNAME":"台北市","TOWNNAME":"北投區","MARKTYPE":"993","Class":"303"},"geometry":{"x":304342.32239999995,"y":2783015.5817000009}},{"attributes":{"OBJECTID":6575,"LANDMARKID":"6300000001175","LANDMARKCO":"303","LANDMARKNA":"陽明山花鐘停車場","LANDMARKAD":"6300012","ADDRESS":" ","TEL":" ","COUNTYNAME":"台北市","TOWNNAME":"北投區","MARKTYPE":"993","Class":"303"},"geometry":{"x":304360.98589999974,"y":2783480.1724999994}},{"attributes":{"OBJECTID":6576,"LANDMARKID":"6300000001176","LANDMARKCO":"303","LANDMARKNA":"陽明山花鐘停車場","LANDMARKAD":"6300012","ADDRESS":" ","TEL":" ","COUNTYNAME":"台北市","TOWNNAME":"北投區","MARKTYPE":"993","Class":"303"},"geometry":{"x":304360.98589999974,"y":2783488.0370000005}},{"attributes":{"OBJECTID":6577,"LANDMARKID":"6300000001177","LANDMARKCO":"303","LANDMARKNA":"竹子湖停車場","LANDMARKAD":"6300012","ADDRESS":" ","TEL":" ","COUNTYNAME":"台北市","TOWNNAME":"北投區","MARKTYPE":"993","Class":"303"},"geometry":{"x":304426.68560000043,"y":2784463.9816999994}},{"attributes":{"OBJECTID":6578,"LANDMARKID":"6300000001178","LANDMARKCO":"303","LANDMARKNA":"陽明山國家公園第二停車場","LANDMARKAD":"6300012","ADDRESS":" ","TEL":" ","COUNTYNAME":"台北市","TOWNNAME":"北投區","MARKTYPE":"993","Class":"303"},"geometry":{"x":304993.66949999984,"y":2783064.8805}},{"attributes":{"OBJECTID":6579,"LANDMARKID":"6300000001179","LANDMARKCO":"303","LANDMARKNA":"小油坑停車場","LANDMARKAD":"6300012","ADDRESS":" ","TEL":" ","COUNTYNAME":"台北市","TOWNNAME":"北投區","MARKTYPE":"993","Class":"303"},"geometry":{"x":305102.86770000029,"y":2785820.4430999998}},{"attributes":{"OBJECTID":6580,"LANDMARKID":"6300000001180","LANDMARKCO":"303","LANDMARKNA":"小油坑停車場","LANDMARKAD":"6300012","ADDRESS":" ","TEL":" ","COUNTYNAME":"台北市","TOWNNAME":"北投區","MARKTYPE":"993","Class":"303"},"geometry":{"x":305187.0700000003,"y":2785491.2127}},{"attributes":{"OBJECTID":6581,"LANDMARKID":"6300000001181","LANDMARKCO":"303","LANDMARKNA":"夢幻湖生態保護區停車場","LANDMARKAD":"6300012","ADDRESS":" ","TEL":" ","COUNTYNAME":"台北市","TOWNNAME":"北投區","MARKTYPE":"993","Class":"303"},"geometry":{"x":306688.08349999972,"y":2784596.7204}},{"attributes":{"OBJECTID":6582,"LANDMARKID":"6300000001182","LANDMARKCO":"303","LANDMARKNA":"新市街北投市場簡易停車場","LANDMARKAD":"6300012","ADDRESS":"台北市北投區溫泉路四小段72地號","TEL":" ","COUNTYNAME":"台北市","TOWNNAME":"北投區","MARKTYPE":"993","Class":"303"},"geometry":{"x":304874.14319999982,"y":2785753.9061999992}},{"attributes":{"OBJECTID":6583,"LANDMARKID":"6300000001183","LANDMARKCO":"303","LANDMARKNA":"中興嘟嘟房停車場-北投大業站","LANDMARKAD":"6300012","ADDRESS":"台北市北投區大業路310巷308號旁","TEL":"(02)2897-1253","COUNTYNAME":"台北市","TOWNNAME":"北投區","MARKTYPE":"993","Class":"303"},"geometry":{"x":300222.08889999986,"y":2780125.5789000001}},{"attributes":{"OBJECTID":6584,"LANDMARKID":"6300000001184","LANDMARKCO":"303","LANDMARKNA":"小油坑停車場","LANDMARKAD":"6300012","ADDRESS":"台北市北投區竹子湖路69號","TEL":" ","COUNTYNAME":"台北市","TOWNNAME":"北投區","MARKTYPE":"993","Class":"303"},"geometry":{"x":305442.75789999962,"y":2785516.9092999995}},{"attributes":{"OBJECTID":6585,"LANDMARKID":"6300000001185","LANDMARKCO":"303","LANDMARKNA":"中和街平面停車場","LANDMARKAD":"6300012","ADDRESS":"台北市北投區中和與吉林路口","TEL":" ","COUNTYNAME":"台北市","TOWNNAME":"北投區","MARKTYPE":"993","Class":"303"},"geometry":{"x":300620.73579999991,"y":2781224.6965999994}},{"attributes":{"OBJECTID":6586,"LANDMARKID":"6300000001186","LANDMARKCO":"303","LANDMARKNA":"公館平面停車場","LANDMARKAD":"6300012","ADDRESS":"台北市北投區公館路與西安街口","TEL":" ","COUNTYNAME":"台北市","TOWNNAME":"北投區","MARKTYPE":"993","Class":"303"},"geometry":{"x":300760.23909999989,"y":2779316.8852999993}},{"attributes":{"OBJECTID":6587,"LANDMARKID":"6300000001187","LANDMARKCO":"303","LANDMARKNA":"關渡醫院旁平面停車場","LANDMARKAD":"6300012","ADDRESS":"台北市北投區大度路三段301巷88號","TEL":" ","COUNTYNAME":"台北市","TOWNNAME":"北投區","MARKTYPE":"993","Class":"303"},"geometry":{"x":296953.64580000006,"y":2779251.2565000001}},{"attributes":{"OBJECTID":6588,"LANDMARKID":"6300000001188","LANDMARKCO":"303","LANDMARKNA":"台北榮總醫院立體停車場","LANDMARKAD":"6300012","ADDRESS":"台北市北投區石牌路二段201號","TEL":" ","COUNTYNAME":"台北市","TOWNNAME":"北投區","MARKTYPE":"993","Class":"303"},"geometry":{"x":302515.71850000042,"y":2779110.3739999998}},{"attributes":{"OBJECTID":6589,"LANDMARKID":"6300000001189","LANDMARKCO":"303","LANDMARKNA":"行義路平面停車場","LANDMARKAD":"6300012","ADDRESS":"台北市北投區行義路與石牌路二段與天母北路交叉口","TEL":" ","COUNTYNAME":"台北市","TOWNNAME":"北投區","MARKTYPE":"993","Class":"303"},"geometry":{"x":303019.62669999991,"y":2779607.2532000002}},{"attributes":{"OBJECTID":6590,"LANDMARKID":"6300000001190","LANDMARKCO":"303","LANDMARKNA":"知行路平面停車場","LANDMARKAD":"6300012","ADDRESS":"台北市北投區知行路260巷","TEL":" ","COUNTYNAME":"台北市","TOWNNAME":"北投區","MARKTYPE":"993","Class":"303"},"geometry":{"x":296652.10969999991,"y":2778931.3293999992}},{"attributes":{"OBJECTID":6591,"LANDMARKID":"6300000001191","LANDMARKCO":"303","LANDMARKNA":"財團法人振興復建醫院停車場","LANDMARKAD":"6300012","ADDRESS":"台北市北投區振興街45號","TEL":" ","COUNTYNAME":"台北市","TOWNNAME":"北投區","MARKTYPE":"993","Class":"303"},"geometry":{"x":302704.90270000044,"y":2778857.6092000008}},{"attributes":{"OBJECTID":6592,"LANDMARKID":"6300000001192","LANDMARKCO":"303","LANDMARKNA":"捷運明德站停車場","LANDMARKAD":"6300012","ADDRESS":"台北市北投區明德路95號","TEL":" ","COUNTYNAME":"台北市","TOWNNAME":"北投區","MARKTYPE":"993","Class":"303"},"geometry":{"x":302331.74500000011,"y":2777957.5658999998}},{"attributes":{"OBJECTID":6593,"LANDMARKID":"6300000001193","LANDMARKCO":"303","LANDMARKNA":"捷運淡水線唭哩岸站停車場","LANDMARKAD":"6300012","ADDRESS":"台北市北投區東華街二段301號","TEL":" ","COUNTYNAME":"台北市","TOWNNAME":"北投區","MARKTYPE":"993","Class":"303"},"geometry":{"x":301072.98180000018,"y":2779260.1023999993}},{"attributes":{"OBJECTID":6594,"LANDMARKID":"6300000001194","LANDMARKCO":"303","LANDMARKNA":"捷運復興崗站停車場","LANDMARKAD":"6300012","ADDRESS":"台北市北投區中央北路三段53巷10號","TEL":" ","COUNTYNAME":"台北市","TOWNNAME":"北投區","MARKTYPE":"993","Class":"303"},"geometry":{"x":298941.05339999963,"y":2781134.4624000005}},{"attributes":{"OBJECTID":6595,"LANDMARKID":"6300000001195","LANDMARKCO":"303","LANDMARKNA":"復興路平面停車場","LANDMARKAD":"6300012","ADDRESS":"台北市北投區進賢路與復興路口","TEL":" ","COUNTYNAME":"台北市","TOWNNAME":"北投區","MARKTYPE":"993","Class":"303"},"geometry":{"x":300673.65369999968,"y":2781823.0284000002}},{"attributes":{"OBJECTID":6596,"LANDMARKID":"6300000001196","LANDMARKCO":"303","LANDMARKNA":"陽明山立體停車場","LANDMARKAD":"6300012","ADDRESS":"台北市北投區第一停車場","TEL":" ","COUNTYNAME":"台北市","TOWNNAME":"北投區","MARKTYPE":"993","Class":"303"},"geometry":{"x":304472.76559999958,"y":2782684.1774000004}},{"attributes":{"OBJECTID":6597,"LANDMARKID":"6300000001197","LANDMARKCO":"303","LANDMARKNA":"榮民總醫院地面停車場","LANDMARKAD":"6300012","ADDRESS":"台北市北投區石牌路二段201號","TEL":" ","COUNTYNAME":"台北市","TOWNNAME":"北投區","MARKTYPE":"993","Class":"303"},"geometry":{"x":302365.59929999989,"y":2779075.3056000005}},{"attributes":{"OBJECTID":6598,"LANDMARKID":"6300000001198","LANDMARKCO":"303","LANDMARKNA":"龍鳳谷停車場","LANDMARKAD":"6300012","ADDRESS":"台北市北投區泉源路200號","TEL":" ","COUNTYNAME":"台北市","TOWNNAME":"北投區","MARKTYPE":"993","Class":"303"},"geometry":{"x":303146.7734000003,"y":2781594.3848999999}},{"attributes":{"OBJECTID":6599,"LANDMARKID":"6300000001199","LANDMARKCO":"303","LANDMARKNA":"聯通石牌停車場","LANDMARKAD":"6300012","ADDRESS":"台北市北投區裕民一路","TEL":" ","COUNTYNAME":"台北市","TOWNNAME":"北投區","MARKTYPE":"993","Class":"303"},"geometry":{"x":302241.1540000001,"y":2778778.1794000007}},{"attributes":{"OBJECTID":6600,"LANDMARKID":"6300000001200","LANDMARKCO":"303","LANDMARKNA":"陽明山第二停車場","LANDMARKAD":"6300012","ADDRESS":"台北市北投區","TEL":" ","COUNTYNAME":"台北市","TOWNNAME":"北投區","MARKTYPE":"993","Class":"303"},"geometry":{"x":304993.99349999987,"y":2783005.7567999996}}]}