{"displayFieldName":"COUNTYNAME","fieldAliases":{"OBJECTID":"OBJECTID","LANDMARKID":"LANDMARKID","LANDMARKCO":"LANDMARKCO","LANDMARKNA":"LANDMARKNA","LANDMARKAD":"LANDMARKAD","ADDRESS":"ADDRESS","TEL":"TEL","COUNTYNAME":"COUNTYNAME","TOWNNAME":"TOWNNAME","MARKTYPE":"MARKTYPE","Class":"Class"},"geometryType":"esriGeometryPoint","spatialReference":{"wkid":4326},"fields":[{"name":"OBJECTID","type":"esriFieldTypeOID","alias":"OBJECTID"},{"name":"LANDMARKID","type":"esriFieldTypeString","alias":"LANDMARKID","length":15},{"name":"LANDMARKCO","type":"esriFieldTypeString","alias":"LANDMARKCO","length":15},{"name":"LANDMARKNA","type":"esriFieldTypeString","alias":"LANDMARKNA","length":50},{"name":"LANDMARKAD","type":"esriFieldTypeString","alias":"LANDMARKAD","length":15},{"name":"ADDRESS","type":"esriFieldTypeString","alias":"ADDRESS","length":56},{"name":"TEL","type":"esriFieldTypeString","alias":"TEL","length":36},{"name":"COUNTYNAME","type":"esriFieldTypeString","alias":"COUNTYNAME","length":15},{"name":"TOWNNAME","type":"esriFieldTypeString","alias":"TOWNNAME","length":13},{"name":"MARKTYPE","type":"esriFieldTypeString","alias":"MARKTYPE","length":12},{"name":"Class","type":"esriFieldTypeString","alias":"Class","length":5}],"features":[{"attributes":{"OBJECTID":17401,"LANDMARKID":"1000800000349","LANDMARKCO":"203","LANDMARKNA":"縣立鳳凰國小","LANDMARKAD":"1000807","ADDRESS":"南投縣鹿谷鄉鳳凰村仁義路35之1號","TEL":"049-2754095","COUNTYNAME":"南投縣","TOWNNAME":"鹿谷鄉","MARKTYPE":"992","Class":"2"},"geometry":{"x":120.78037522504883,"y":23.742520668791073}},{"attributes":{"OBJECTID":17402,"LANDMARKID":"1000800000350","LANDMARKCO":"203","LANDMARKNA":"縣立鳳凰國小隆田分校","LANDMARKAD":"1000807","ADDRESS":"南投縣鹿谷鄉鳳凰村田底巷5號之1","TEL":"049-2754210","COUNTYNAME":"南投縣","TOWNNAME":"鹿谷鄉","MARKTYPE":"992","Class":"2"},"geometry":{"x":120.82425445854199,"y":23.71552927876726}},{"attributes":{"OBJECTID":17403,"LANDMARKID":"1000800000351","LANDMARKCO":"203","LANDMARKNA":"縣立廣興國小","LANDMARKAD":"1000807","ADDRESS":"南投縣鹿谷鄉廣興村興產路97號","TEL":"049-2752014","COUNTYNAME":"南投縣","TOWNNAME":"鹿谷鄉","MARKTYPE":"992","Class":"2"},"geometry":{"x":120.76457657196289,"y":23.736158005554621}},{"attributes":{"OBJECTID":17404,"LANDMARKID":"1000800000352","LANDMARKCO":"203","LANDMARKNA":"縣立鹿谷國小","LANDMARKAD":"1000807","ADDRESS":"南投縣鹿谷鄉鹿谷村中正路2段174號","TEL":"049-2752048","COUNTYNAME":"南投縣","TOWNNAME":"鹿谷鄉","MARKTYPE":"992","Class":"2"},"geometry":{"x":120.75210283665555,"y":23.749240344461068}},{"attributes":{"OBJECTID":17405,"LANDMARKID":"1000800000353","LANDMARKCO":"203","LANDMARKNA":"縣立秀峰國小","LANDMARKAD":"1000807","ADDRESS":"南投縣鹿谷鄉秀峰村仁愛路152號","TEL":"049-2671953","COUNTYNAME":"南投縣","TOWNNAME":"鹿谷鄉","MARKTYPE":"992","Class":"2"},"geometry":{"x":120.77781223554693,"y":23.783157007543863}},{"attributes":{"OBJECTID":17406,"LANDMARKID":"1000800000354","LANDMARKCO":"203","LANDMARKNA":"縣立初鄉國小","LANDMARKAD":"1000807","ADDRESS":"南投縣鹿谷鄉初鄉村仁愛路259號","TEL":"049-2752513","COUNTYNAME":"南投縣","TOWNNAME":"鹿谷鄉","MARKTYPE":"992","Class":"2"},"geometry":{"x":120.73782650889322,"y":23.766739877935642}},{"attributes":{"OBJECTID":17407,"LANDMARKID":"1000800000355","LANDMARKCO":"203","LANDMARKNA":"縣立文昌國小","LANDMARKAD":"1000807","ADDRESS":"南投縣鹿谷鄉竹林村光復路96號","TEL":"049-2676305","COUNTYNAME":"南投縣","TOWNNAME":"鹿谷鄉","MARKTYPE":"992","Class":"2"},"geometry":{"x":120.75461610965257,"y":23.728069884466851}},{"attributes":{"OBJECTID":17408,"LANDMARKID":"1000800000356","LANDMARKCO":"203","LANDMARKNA":"縣立和雅國小","LANDMARKAD":"1000807","ADDRESS":"南投縣鹿谷鄉和雅村愛鄉路55號","TEL":"049-2752532","COUNTYNAME":"南投縣","TOWNNAME":"鹿谷鄉","MARKTYPE":"992","Class":"2"},"geometry":{"x":120.77567503313168,"y":23.703727937188017}},{"attributes":{"OBJECTID":17409,"LANDMARKID":"1000800000357","LANDMARKCO":"203","LANDMARKNA":"縣立內湖國小","LANDMARKAD":"1000807","ADDRESS":"南投縣鹿谷鄉內湖村興產路51號","TEL":"049-2752437","COUNTYNAME":"南投縣","TOWNNAME":"鹿谷鄉","MARKTYPE":"992","Class":"2"},"geometry":{"x":120.78140641168673,"y":23.711258161823789}},{"attributes":{"OBJECTID":17410,"LANDMARKID":"1000800000557","LANDMARKCO":"303","LANDMARKNA":"鹿谷鄉愛鄉路停車場","LANDMARKAD":"1000807","ADDRESS":"南投縣鹿谷鄉愛鄉路66之20號","TEL":" ","COUNTYNAME":"南投縣","TOWNNAME":"鹿谷鄉","MARKTYPE":"993","Class":"303"},"geometry":{"x":120.77988068880522,"y":23.708992796913986}},{"attributes":{"OBJECTID":17411,"LANDMARKID":"1000800000558","LANDMARKCO":"303","LANDMARKNA":"鹿谷鄉愛鄉路停車場","LANDMARKAD":"1000807","ADDRESS":"南投縣鹿谷鄉愛鄉路66之20號","TEL":" ","COUNTYNAME":"南投縣","TOWNNAME":"鹿谷鄉","MARKTYPE":"993","Class":"303"},"geometry":{"x":120.74936082928465,"y":23.754071196164123}},{"attributes":{"OBJECTID":17412,"LANDMARKID":"1000800000559","LANDMARKCO":"303","LANDMARKNA":"溪頭森林遊樂園第一停車場","LANDMARKAD":"1000807","ADDRESS":"南投縣鹿谷鄉內湖村森林巷10號","TEL":"049-2612111","COUNTYNAME":"南投縣","TOWNNAME":"鹿谷鄉","MARKTYPE":"993","Class":"303"},"geometry":{"x":120.79632203131032,"y":23.678662685733102}},{"attributes":{"OBJECTID":17413,"LANDMARKID":"1000800000560","LANDMARKCO":"303","LANDMARKNA":"溪頭森林遊樂園第二停車場","LANDMARKAD":"1000807","ADDRESS":"南投縣鹿谷鄉內湖村森林巷10號","TEL":"049-2612111","COUNTYNAME":"南投縣","TOWNNAME":"鹿谷鄉","MARKTYPE":"993","Class":"303"},"geometry":{"x":120.79609634665309,"y":23.67264327134604}},{"attributes":{"OBJECTID":17414,"LANDMARKID":"1000800000561","LANDMARKCO":"303","LANDMARKNA":"鹿谷鄉中正路停車場","LANDMARKAD":"1000807","ADDRESS":"南投縣鹿谷鄉中正路","TEL":" ","COUNTYNAME":"南投縣","TOWNNAME":"鹿谷鄉","MARKTYPE":"993","Class":"303"},"geometry":{"x":120.73526822597051,"y":23.765737374683084}},{"attributes":{"OBJECTID":17415,"LANDMARKID":"1000800000562","LANDMARKCO":"303","LANDMARKNA":"鹿谷鄉中村路停車場","LANDMARKAD":"1000807","ADDRESS":"南投縣鹿谷鄉中村路","TEL":" ","COUNTYNAME":"南投縣","TOWNNAME":"鹿谷鄉","MARKTYPE":"993","Class":"303"},"geometry":{"x":120.7350186194132,"y":23.766297499644025}},{"attributes":{"OBJECTID":17416,"LANDMARKID":"1000800000563","LANDMARKCO":"303","LANDMARKNA":"鹿谷鄉仁愛路停車場","LANDMARKAD":"1000807","ADDRESS":"南投縣鹿谷鄉仁愛路","TEL":" ","COUNTYNAME":"南投縣","TOWNNAME":"鹿谷鄉","MARKTYPE":"993","Class":"303"},"geometry":{"x":120.73850910251595,"y":23.766209844123129}},{"attributes":{"OBJECTID":17417,"LANDMARKID":"1000800000564","LANDMARKCO":"303","LANDMARKNA":"鹿谷鄉仁義路停車場","LANDMARKAD":"1000807","ADDRESS":"南投縣鹿谷鄉仁義路","TEL":" ","COUNTYNAME":"南投縣","TOWNNAME":"鹿谷鄉","MARKTYPE":"993","Class":"303"},"geometry":{"x":120.74961582427397,"y":23.768679170429301}},{"attributes":{"OBJECTID":17418,"LANDMARKID":"1000800000565","LANDMARKCO":"303","LANDMARKNA":"鹿谷鄉光復路停車場","LANDMARKAD":"1000807","ADDRESS":"南投縣鹿谷鄉光復路","TEL":" ","COUNTYNAME":"南投縣","TOWNNAME":"鹿谷鄉","MARKTYPE":"993","Class":"303"},"geometry":{"x":120.74234626919737,"y":23.736895296998217}},{"attributes":{"OBJECTID":17419,"LANDMARKID":"1000800000566","LANDMARKCO":"303","LANDMARKNA":"鹿谷鄉興產鹿停車場","LANDMARKAD":"1000807","ADDRESS":"南投縣鹿谷鄉興產路","TEL":" ","COUNTYNAME":"南投縣","TOWNNAME":"鹿谷鄉","MARKTYPE":"993","Class":"303"},"geometry":{"x":120.72769870654068,"y":23.764700392825187}},{"attributes":{"OBJECTID":17420,"LANDMARKID":"1000800000604","LANDMARKCO":"402","LANDMARKNA":"中華電信-鹿谷服務中心","LANDMARKAD":"1000807","ADDRESS":"南投縣鹿谷鄉中正路二段164號","TEL":"(049)275-5744","COUNTYNAME":"南投縣","TOWNNAME":"鹿谷鄉","MARKTYPE":"994","Class":"4"},"geometry":{"x":120.75234908018074,"y":23.748326455957496}},{"attributes":{"OBJECTID":17421,"LANDMARKID":"1000800001326","LANDMARKCO":"604","LANDMARKNA":"保記","LANDMARKAD":"1000807","ADDRESS":"南投縣鹿谷鄉清水村永豐巷34號","TEL":"049-2671979","COUNTYNAME":"南投縣","TOWNNAME":"鹿谷鄉","MARKTYPE":"996","Class":"6"},"geometry":{"x":120.78013890413814,"y":23.795095453601089}},{"attributes":{"OBJECTID":17422,"LANDMARKID":"1000800001327","LANDMARKCO":"604","LANDMARKNA":"雅筑小站","LANDMARKAD":"1000807","ADDRESS":"南投縣鹿谷鄉內湖村興產路45-1號","TEL":"049-2649210","COUNTYNAME":"南投縣","TOWNNAME":"鹿谷鄉","MARKTYPE":"996","Class":"6"},"geometry":{"x":120.78210962970678,"y":23.69985526634445}},{"attributes":{"OBJECTID":17423,"LANDMARKID":"1000800001328","LANDMARKCO":"604","LANDMARKNA":"德億茶莊民宿","LANDMARKAD":"1000807","ADDRESS":"南投縣鹿谷鄉鳳凰村鳳園路13號","TEL":"049-2752193","COUNTYNAME":"南投縣","TOWNNAME":"鹿谷鄉","MARKTYPE":"996","Class":"6"},"geometry":{"x":120.78533164982225,"y":23.734767858250912}},{"attributes":{"OBJECTID":17424,"LANDMARKID":"1000800001329","LANDMARKCO":"604","LANDMARKNA":"鳳誼製茶民宿","LANDMARKAD":"1000807","ADDRESS":"南投縣鹿谷鄉鳳凰村鳳園路11號","TEL":"049-2755778","COUNTYNAME":"南投縣","TOWNNAME":"鹿谷鄉","MARKTYPE":"996","Class":"6"},"geometry":{"x":120.78541202435254,"y":23.734539969807344}},{"attributes":{"OBJECTID":17425,"LANDMARKID":"1000800001330","LANDMARKCO":"604","LANDMARKNA":"好聖地度假木屋","LANDMARKAD":"1000807","ADDRESS":"南投縣鹿谷鄉內湖村興產路23-1號","TEL":"049-2612177","COUNTYNAME":"南投縣","TOWNNAME":"鹿谷鄉","MARKTYPE":"996","Class":"6"},"geometry":{"x":120.79355813419177,"y":23.677460603661736}},{"attributes":{"OBJECTID":17426,"LANDMARKID":"1000800001331","LANDMARKCO":"604","LANDMARKNA":"小半天民宿","LANDMARKAD":"1000807","ADDRESS":"南投縣鹿谷鄉竹林村田頭巷34-13號","TEL":"049-2676345","COUNTYNAME":"南投縣","TOWNNAME":"鹿谷鄉","MARKTYPE":"996","Class":"6"},"geometry":{"x":120.7588688810586,"y":23.722286907105769}},{"attributes":{"OBJECTID":17427,"LANDMARKID":"1000800000991","LANDMARKCO":"603","LANDMARKNA":"溪頭米堤飯店","LANDMARKAD":"1000807","ADDRESS":"南投縣鹿谷鄉內湖村米堤街1號","TEL":"049-2612222","COUNTYNAME":"南投縣","TOWNNAME":"鹿谷鄉","MARKTYPE":"996","Class":"6"},"geometry":{"x":120.79519064423123,"y":23.682992036796662}},{"attributes":{"OBJECTID":17428,"LANDMARKID":"1000800000992","LANDMARKCO":"603","LANDMARKNA":"鳳凰賓館 (立德溪頭飯店)","LANDMARKAD":"1000807","ADDRESS":"南投縣鹿谷鄉內湖村森林巷10-1號","TEL":"049-2612114","COUNTYNAME":"南投縣","TOWNNAME":"鹿谷鄉","MARKTYPE":"996","Class":"6"},"geometry":{"x":120.79819679054019,"y":23.673749629693276}},{"attributes":{"OBJECTID":17429,"LANDMARKID":"1000800000993","LANDMARKCO":"603","LANDMARKNA":"溪頭餐廳旅社(立德溪頭飯店)","LANDMARKAD":"1000807","ADDRESS":"南投縣鹿谷鄉內湖村森林巷10號","TEL":"049-2612111","COUNTYNAME":"南投縣","TOWNNAME":"鹿谷鄉","MARKTYPE":"996","Class":"6"},"geometry":{"x":120.7981424031463,"y":23.672304697112512}},{"attributes":{"OBJECTID":17430,"LANDMARKID":"1000800000994","LANDMARKCO":"603","LANDMARKNA":"漢光樓 (立德溪頭飯店)","LANDMARKAD":"1000807","ADDRESS":"南投縣鹿谷鄉內湖村森林巷12號","TEL":"049-2645805","COUNTYNAME":"南投縣","TOWNNAME":"鹿谷鄉","MARKTYPE":"996","Class":"6"},"geometry":{"x":120.79735448603856,"y":23.673467502832381}},{"attributes":{"OBJECTID":17431,"LANDMARKID":"1000800000995","LANDMARKCO":"603","LANDMARKNA":"盛軒渡假別館","LANDMARKAD":"1000807","ADDRESS":"南投縣鹿谷鄉內湖村興產路22-12號","TEL":"049-2612018","COUNTYNAME":"南投縣","TOWNNAME":"鹿谷鄉","MARKTYPE":"996","Class":"6"},"geometry":{"x":120.79379706234197,"y":23.67749283270556}},{"attributes":{"OBJECTID":17432,"LANDMARKID":"1000800000996","LANDMARKCO":"603","LANDMARKNA":"明山別館","LANDMARKAD":"1000807","ADDRESS":"南投縣鹿谷鄉內湖村興產路2-3號","TEL":"049-2612376","COUNTYNAME":"南投縣","TOWNNAME":"鹿谷鄉","MARKTYPE":"996","Class":"6"},"geometry":{"x":120.79584255263752,"y":23.674135408913585}},{"attributes":{"OBJECTID":17433,"LANDMARKID":"1000800000997","LANDMARKCO":"603","LANDMARKNA":"孟宗山莊","LANDMARKAD":"1000807","ADDRESS":"南投縣鹿谷鄉內湖村興產路3號","TEL":"049-2612131-3","COUNTYNAME":"南投縣","TOWNNAME":"鹿谷鄉","MARKTYPE":"996","Class":"6"},"geometry":{"x":120.7938591197629,"y":23.67646358515108}},{"attributes":{"OBJECTID":17434,"LANDMARKID":"1000800000998","LANDMARKCO":"603","LANDMARKNA":"名竹旅社","LANDMARKAD":"1000807","ADDRESS":"南投縣鹿谷鄉內湖村興產路55-2號","TEL":"049-2755337","COUNTYNAME":"南投縣","TOWNNAME":"鹿谷鄉","MARKTYPE":"996","Class":"6"},"geometry":{"x":120.77925474472552,"y":23.715018330496289}},{"attributes":{"OBJECTID":17435,"LANDMARKID":"1000800001234","LANDMARKCO":"604","LANDMARKNA":"原木民宿","LANDMARKAD":"1000807","ADDRESS":"南投縣鹿谷鄉內湖村興產路24-50號","TEL":"0912-651502","COUNTYNAME":"南投縣","TOWNNAME":"鹿谷鄉","MARKTYPE":"996","Class":"6"},"geometry":{"x":120.79076880588475,"y":23.688766828900949}},{"attributes":{"OBJECTID":17436,"LANDMARKID":"1000800001235","LANDMARKCO":"604","LANDMARKNA":"掌櫃民宿","LANDMARKAD":"1000807","ADDRESS":"南投縣鹿谷鄉和雅村愛鄉路39-46號","TEL":"0933-522238","COUNTYNAME":"南投縣","TOWNNAME":"鹿谷鄉","MARKTYPE":"996","Class":"6"},"geometry":{"x":120.77746811068552,"y":23.698510612557655}},{"attributes":{"OBJECTID":17437,"LANDMARKID":"1000800001236","LANDMARKCO":"604","LANDMARKNA":"溪之頭山莊民宿","LANDMARKAD":"1000807","ADDRESS":"南投縣鹿谷鄉內湖村興產路23號","TEL":"049-2612362","COUNTYNAME":"南投縣","TOWNNAME":"鹿谷鄉","MARKTYPE":"996","Class":"6"},"geometry":{"x":120.79462076294499,"y":23.678845794725074}},{"attributes":{"OBJECTID":17438,"LANDMARKID":"1000800001237","LANDMARKCO":"604","LANDMARKNA":"溪之谷民宿","LANDMARKAD":"1000807","ADDRESS":"南投縣鹿谷鄉內湖村興產路32-6號","TEL":"049-2753976","COUNTYNAME":"南投縣","TOWNNAME":"鹿谷鄉","MARKTYPE":"996","Class":"6"},"geometry":{"x":120.78455119576505,"y":23.691818581542162}},{"attributes":{"OBJECTID":17439,"LANDMARKID":"1000800001238","LANDMARKCO":"604","LANDMARKNA":"溪頭聖茂民宿","LANDMARKAD":"1000807","ADDRESS":"南投縣鹿谷鄉內湖村興產路22號","TEL":"049-2612202","COUNTYNAME":"南投縣","TOWNNAME":"鹿谷鄉","MARKTYPE":"996","Class":"6"},"geometry":{"x":120.79351317593316,"y":23.678738201814756}},{"attributes":{"OBJECTID":17440,"LANDMARKID":"1000800001239","LANDMARKCO":"604","LANDMARKNA":"星井澤民宿","LANDMARKAD":"1000807","ADDRESS":"南投縣鹿谷鄉內湖村後溝巷47號","TEL":"04-8798866","COUNTYNAME":"南投縣","TOWNNAME":"鹿谷鄉","MARKTYPE":"996","Class":"6"},"geometry":{"x":120.78000168605712,"y":23.720248749271903}},{"attributes":{"OBJECTID":17441,"LANDMARKID":"1000800001240","LANDMARKCO":"604","LANDMARKNA":"金台灣民宿","LANDMARKAD":"1000807","ADDRESS":"南投縣鹿谷鄉內湖村興產路25-3號","TEL":"049-2754064","COUNTYNAME":"南投縣","TOWNNAME":"鹿谷鄉","MARKTYPE":"996","Class":"6"},"geometry":{"x":120.79067445936261,"y":23.688992316199137}},{"attributes":{"OBJECTID":17442,"LANDMARKID":"1000800001241","LANDMARKCO":"604","LANDMARKNA":"溪頭境廬民宿","LANDMARKAD":"1000807","ADDRESS":"南投縣鹿谷鄉內湖村興產路3-6號","TEL":"049-2643377","COUNTYNAME":"南投縣","TOWNNAME":"鹿谷鄉","MARKTYPE":"996","Class":"6"},"geometry":{"x":120.79408606671589,"y":23.676003661866389}},{"attributes":{"OBJECTID":17443,"LANDMARKID":"1000800001242","LANDMARKCO":"604","LANDMARKNA":"新金族木屋民宿","LANDMARKAD":"1000807","ADDRESS":"南投縣鹿谷鄉內湖村興產路40號","TEL":"049-2753391","COUNTYNAME":"南投縣","TOWNNAME":"鹿谷鄉","MARKTYPE":"996","Class":"6"},"geometry":{"x":120.78194692609647,"y":23.699291957046292}},{"attributes":{"OBJECTID":17444,"LANDMARKID":"1000800001243","LANDMARKCO":"604","LANDMARKNA":"中國城茶藝民宿","LANDMARKAD":"1000807","ADDRESS":"南投縣鹿谷鄉初鄉村中正路三段46巷20號","TEL":"049-2750597","COUNTYNAME":"南投縣","TOWNNAME":"鹿谷鄉","MARKTYPE":"996","Class":"6"},"geometry":{"x":120.74291984135476,"y":23.757989324199958}},{"attributes":{"OBJECTID":17445,"LANDMARKID":"1000800001244","LANDMARKCO":"604","LANDMARKNA":"山逸園","LANDMARKAD":"1000807","ADDRESS":"南投縣鹿谷鄉初鄉村中正路三段651巷43-1號","TEL":"049-2755577","COUNTYNAME":"南投縣","TOWNNAME":"鹿谷鄉","MARKTYPE":"996","Class":"6"},"geometry":{"x":120.72582435641557,"y":23.760641158452881}},{"attributes":{"OBJECTID":17446,"LANDMARKID":"1000800001245","LANDMARKCO":"604","LANDMARKNA":"阿杰ㄟ厝民宿","LANDMARKAD":"1000807","ADDRESS":"南投縣鹿谷鄉清水村外城巷6-1號","TEL":"049-2671246","COUNTYNAME":"南投縣","TOWNNAME":"鹿谷鄉","MARKTYPE":"996","Class":"6"},"geometry":{"x":120.78140785088594,"y":23.799160333776641}},{"attributes":{"OBJECTID":17447,"LANDMARKID":"1000800001246","LANDMARKCO":"604","LANDMARKNA":"二伯公ㄟ厝","LANDMARKAD":"1000807","ADDRESS":"南投縣鹿谷鄉清水村外城巷6-3號","TEL":"049-2671210","COUNTYNAME":"南投縣","TOWNNAME":"鹿谷鄉","MARKTYPE":"996","Class":"6"},"geometry":{"x":120.78212565963378,"y":23.800128545565745}},{"attributes":{"OBJECTID":17448,"LANDMARKID":"1000800001247","LANDMARKCO":"604","LANDMARKNA":"六叔公ㄟ厝民宿","LANDMARKAD":"1000807","ADDRESS":"南投縣鹿谷鄉清水村外城巷6-5號","TEL":"04-23115632","COUNTYNAME":"南投縣","TOWNNAME":"鹿谷鄉","MARKTYPE":"996","Class":"6"},"geometry":{"x":120.78214498518184,"y":23.800218897625776}},{"attributes":{"OBJECTID":17449,"LANDMARKID":"1000800001248","LANDMARKCO":"604","LANDMARKNA":"明萱茶園","LANDMARKAD":"1000807","ADDRESS":"南投縣鹿谷鄉鹿谷村仁義路148號","TEL":"049-2753509","COUNTYNAME":"南投縣","TOWNNAME":"鹿谷鄉","MARKTYPE":"996","Class":"6"},"geometry":{"x":120.75246030567851,"y":23.746060328756805}},{"attributes":{"OBJECTID":17450,"LANDMARKID":"1000800001249","LANDMARKCO":"604","LANDMARKNA":"逍遙居民宿","LANDMARKAD":"1000807","ADDRESS":"南投縣鹿谷鄉鹿谷村中正路二段211巷15號","TEL":"049-2753068","COUNTYNAME":"南投縣","TOWNNAME":"鹿谷鄉","MARKTYPE":"996","Class":"6"},"geometry":{"x":120.74945795422366,"y":23.747599267692387}},{"attributes":{"OBJECTID":17451,"LANDMARKID":"1000800001250","LANDMARKCO":"604","LANDMARKNA":"忘憂鳴民宿","LANDMARKAD":"1000807","ADDRESS":"南投縣鹿谷鄉鹿谷村中正路二段211巷17號","TEL":"049-2753068","COUNTYNAME":"南投縣","TOWNNAME":"鹿谷鄉","MARKTYPE":"996","Class":"6"},"geometry":{"x":120.74952713985755,"y":23.747464044559539}},{"attributes":{"OBJECTID":17452,"LANDMARKID":"1000800001251","LANDMARKCO":"604","LANDMARKNA":"新坤山民宿","LANDMARKAD":"1000807","ADDRESS":"南投縣鹿谷鄉內湖村興產路47-1號","TEL":"049-2752572","COUNTYNAME":"南投縣","TOWNNAME":"鹿谷鄉","MARKTYPE":"996","Class":"6"},"geometry":{"x":120.78227967253493,"y":23.700882150239607}},{"attributes":{"OBJECTID":17453,"LANDMARKID":"1000800001252","LANDMARKCO":"604","LANDMARKNA":"大富華民宿","LANDMARKAD":"1000807","ADDRESS":"南投縣鹿谷鄉內湖村興產路6-5號","TEL":"047-880317","COUNTYNAME":"南投縣","TOWNNAME":"鹿谷鄉","MARKTYPE":"996","Class":"6"},"geometry":{"x":120.79382616495479,"y":23.677592239347444}},{"attributes":{"OBJECTID":17454,"LANDMARKID":"1000800001253","LANDMARKCO":"604","LANDMARKNA":"溪頭渡假小築民宿","LANDMARKAD":"1000807","ADDRESS":"南投縣鹿谷鄉內湖村興產路8-6號","TEL":"049-2612286","COUNTYNAME":"南投縣","TOWNNAME":"鹿谷鄉","MARKTYPE":"996","Class":"6"},"geometry":{"x":120.79025317950435,"y":23.674407875520892}},{"attributes":{"OBJECTID":17455,"LANDMARKID":"1000800001254","LANDMARKCO":"604","LANDMARKNA":"羿昀居","LANDMARKAD":"1000807","ADDRESS":"南投縣鹿谷鄉永隆村堀邊巷1-1號","TEL":"049-2754853","COUNTYNAME":"南投縣","TOWNNAME":"鹿谷鄉","MARKTYPE":"996","Class":"6"},"geometry":{"x":120.76985320304554,"y":23.752946514752594}},{"attributes":{"OBJECTID":17456,"LANDMARKID":"1000800001255","LANDMARKCO":"604","LANDMARKNA":"御園","LANDMARKAD":"1000807","ADDRESS":"南投縣鹿谷鄉永隆村堀邊巷1-3號","TEL":"049-2755367","COUNTYNAME":"南投縣","TOWNNAME":"鹿谷鄉","MARKTYPE":"996","Class":"6"},"geometry":{"x":120.76990282455294,"y":23.752784125954179}},{"attributes":{"OBJECTID":17457,"LANDMARKID":"1000800001256","LANDMARKCO":"604","LANDMARKNA":"濁水溪民宿","LANDMARKAD":"1000807","ADDRESS":"南投縣鹿谷鄉永隆村仁義路45-2號","TEL":"049-2752165","COUNTYNAME":"南投縣","TOWNNAME":"鹿谷鄉","MARKTYPE":"996","Class":"6"},"geometry":{"x":120.77816447146907,"y":23.750944966897091}},{"attributes":{"OBJECTID":17458,"LANDMARKID":"1000800001257","LANDMARKCO":"604","LANDMARKNA":"鹿谷綠園茶舍民宿","LANDMARKAD":"1000807","ADDRESS":"南投縣鹿谷鄉永隆村中央巷22-17號","TEL":"049-2753755","COUNTYNAME":"南投縣","TOWNNAME":"鹿谷鄉","MARKTYPE":"996","Class":"6"},"geometry":{"x":120.78592651997236,"y":23.744466520566451}},{"attributes":{"OBJECTID":17459,"LANDMARKID":"1000800001258","LANDMARKCO":"604","LANDMARKNA":"騰芳居民宿","LANDMARKAD":"1000807","ADDRESS":"南投縣鹿谷鄉永隆村和平巷37號","TEL":"049-2750799","COUNTYNAME":"南投縣","TOWNNAME":"鹿谷鄉","MARKTYPE":"996","Class":"6"},"geometry":{"x":120.78011957891803,"y":23.754390919110733}},{"attributes":{"OBJECTID":17460,"LANDMARKID":"1000800001259","LANDMARKCO":"604","LANDMARKNA":"璞石雅緻民宿","LANDMARKAD":"1000807","ADDRESS":"南投縣鹿谷鄉鹿谷村鹿彰路202號","TEL":"049-2755070","COUNTYNAME":"南投縣","TOWNNAME":"鹿谷鄉","MARKTYPE":"996","Class":"6"},"geometry":{"x":120.75268804181242,"y":23.745501207511008}},{"attributes":{"OBJECTID":17461,"LANDMARKID":"1000800001260","LANDMARKCO":"604","LANDMARKNA":"鹿鳴春生態休閒園區","LANDMARKAD":"1000807","ADDRESS":"南投縣鹿谷鄉瑞田村瑞田巷10-5號","TEL":"049-2672002","COUNTYNAME":"南投縣","TOWNNAME":"鹿谷鄉","MARKTYPE":"996","Class":"6"},"geometry":{"x":120.78551393720493,"y":23.803727963603251}},{"attributes":{"OBJECTID":17462,"LANDMARKID":"1000800001261","LANDMARKCO":"604","LANDMARKNA":"白葉林","LANDMARKAD":"1000807","ADDRESS":"南投縣鹿谷鄉彰雅村仁義路84-39號","TEL":"049-2753410","COUNTYNAME":"南投縣","TOWNNAME":"鹿谷鄉","MARKTYPE":"996","Class":"6"},"geometry":{"x":120.76675546500756,"y":23.755063408442755}},{"attributes":{"OBJECTID":17463,"LANDMARKID":"1000800001262","LANDMARKCO":"604","LANDMARKNA":"鳳凰休閒農場民宿","LANDMARKAD":"1000807","ADDRESS":"南投縣鹿谷鄉彰雅村凍頂巷16號","TEL":"049-2752217","COUNTYNAME":"南投縣","TOWNNAME":"鹿谷鄉","MARKTYPE":"996","Class":"6"},"geometry":{"x":120.76786123881791,"y":23.74754489267298}},{"attributes":{"OBJECTID":17464,"LANDMARKID":"1000800001263","LANDMARKCO":"604","LANDMARKNA":"鴻年茶苑","LANDMARKAD":"1000807","ADDRESS":"南投縣鹿谷鄉彰雅村凍頂巷27號","TEL":"049-2752403","COUNTYNAME":"南投縣","TOWNNAME":"鹿谷鄉","MARKTYPE":"996","Class":"6"},"geometry":{"x":120.76755422181165,"y":23.74836568646522}},{"attributes":{"OBJECTID":17465,"LANDMARKID":"1000800001264","LANDMARKCO":"604","LANDMARKNA":"松原山莊","LANDMARKAD":"1000807","ADDRESS":"南投縣鹿谷鄉彰雅村中正路一段186號","TEL":"049-2755236","COUNTYNAME":"南投縣","TOWNNAME":"鹿谷鄉","MARKTYPE":"996","Class":"6"},"geometry":{"x":120.75807031345745,"y":23.740940269172832}},{"attributes":{"OBJECTID":17466,"LANDMARKID":"1000800001265","LANDMARKCO":"604","LANDMARKNA":"欣欣農棧民宿","LANDMARKAD":"1000807","ADDRESS":"南投縣鹿谷鄉彰雅村仁義路84-30號","TEL":"049-2755888","COUNTYNAME":"南投縣","TOWNNAME":"鹿谷鄉","MARKTYPE":"996","Class":"6"},"geometry":{"x":120.76305566293233,"y":23.755412802070204}},{"attributes":{"OBJECTID":17467,"LANDMARKID":"1000800001266","LANDMARKCO":"604","LANDMARKNA":"嵐軒休閒","LANDMARKAD":"1000807","ADDRESS":"南投縣鹿谷鄉彰雅村仁義路84-9號","TEL":"049-2754016-7","COUNTYNAME":"南投縣","TOWNNAME":"鹿谷鄉","MARKTYPE":"996","Class":"6"},"geometry":{"x":120.76588856592377,"y":23.753322246238433}},{"attributes":{"OBJECTID":17468,"LANDMARKID":"1000800001267","LANDMARKCO":"604","LANDMARKNA":"鹿鼎莊","LANDMARKAD":"1000807","ADDRESS":"南投縣鹿谷鄉彰雅村凍頂巷10-18號","TEL":"049-2750100","COUNTYNAME":"南投縣","TOWNNAME":"鹿谷鄉","MARKTYPE":"996","Class":"6"},"geometry":{"x":120.76713152374153,"y":23.74446352651281}},{"attributes":{"OBJECTID":17469,"LANDMARKID":"1000800001268","LANDMARKCO":"604","LANDMARKNA":"雲頂莊","LANDMARKAD":"1000807","ADDRESS":"南投縣鹿谷鄉彰雅村凍頂巷10-19號","TEL":"049-2750103","COUNTYNAME":"南投縣","TOWNNAME":"鹿谷鄉","MARKTYPE":"996","Class":"6"},"geometry":{"x":120.76715963572836,"y":23.744833835109187}},{"attributes":{"OBJECTID":17470,"LANDMARKID":"1000800001269","LANDMARKCO":"604","LANDMARKNA":"鳳凰渡假山莊","LANDMARKAD":"1000807","ADDRESS":"南投縣鹿谷鄉鳳凰村田底巷10-30號","TEL":"049-2752418","COUNTYNAME":"南投縣","TOWNNAME":"鹿谷鄉","MARKTYPE":"996","Class":"6"},"geometry":{"x":120.822792333802,"y":23.712670910658733}},{"attributes":{"OBJECTID":17471,"LANDMARKID":"1000800001270","LANDMARKCO":"604","LANDMARKNA":"源山民宿","LANDMARKAD":"1000807","ADDRESS":"南投縣鹿谷鄉鳳凰村仁義路2-12號","TEL":"049-2755685","COUNTYNAME":"南投縣","TOWNNAME":"鹿谷鄉","MARKTYPE":"996","Class":"6"},"geometry":{"x":120.78762018787999,"y":23.732511815448028}},{"attributes":{"OBJECTID":17472,"LANDMARKID":"1000800001271","LANDMARKCO":"604","LANDMARKNA":"雲饌休閒民宿","LANDMARKAD":"1000807","ADDRESS":"南投縣鹿谷鄉廣興村興產路87-10號2樓","TEL":"049-2750041","COUNTYNAME":"南投縣","TOWNNAME":"鹿谷鄉","MARKTYPE":"996","Class":"6"},"geometry":{"x":120.76904941842268,"y":23.73330841072924}},{"attributes":{"OBJECTID":17473,"LANDMARKID":"1000800001272","LANDMARKCO":"604","LANDMARKNA":"豐閣民宿","LANDMARKAD":"1000807","ADDRESS":"南投縣鹿谷鄉竹林村愛鄉路101-10號","TEL":"049-2676368","COUNTYNAME":"南投縣","TOWNNAME":"鹿谷鄉","MARKTYPE":"996","Class":"6"},"geometry":{"x":120.76981209796776,"y":23.720059724424488}},{"attributes":{"OBJECTID":17474,"LANDMARKID":"1000800001273","LANDMARKCO":"604","LANDMARKNA":"林園山莊","LANDMARKAD":"1000807","ADDRESS":"南投縣鹿谷鄉竹林村愛鄉路101-3號","TEL":"049-2676958","COUNTYNAME":"南投縣","TOWNNAME":"鹿谷鄉","MARKTYPE":"996","Class":"6"},"geometry":{"x":120.77080462661326,"y":23.719502818789653}},{"attributes":{"OBJECTID":17475,"LANDMARKID":"1000800001274","LANDMARKCO":"604","LANDMARKNA":"滿福春","LANDMARKAD":"1000807","ADDRESS":"南投縣鹿谷鄉竹林村愛鄉路109-2號","TEL":"049-2676437","COUNTYNAME":"南投縣","TOWNNAME":"鹿谷鄉","MARKTYPE":"996","Class":"6"},"geometry":{"x":120.7649441553928,"y":23.722374135100274}},{"attributes":{"OBJECTID":17476,"LANDMARKID":"1000800001275","LANDMARKCO":"604","LANDMARKNA":"鄉谷茶園","LANDMARKAD":"1000807","ADDRESS":"南投縣鹿谷鄉竹林村愛鄉路118號","TEL":"049-2676161","COUNTYNAME":"南投縣","TOWNNAME":"鹿谷鄉","MARKTYPE":"996","Class":"6"},"geometry":{"x":120.76423824994387,"y":23.726417362379216}},{"attributes":{"OBJECTID":17477,"LANDMARKID":"1000800001276","LANDMARKCO":"604","LANDMARKNA":"小半天ㄟ厝民宿","LANDMARKAD":"1000807","ADDRESS":"南投縣鹿谷鄉竹林村愛鄉路121-1號","TEL":"049-2676468","COUNTYNAME":"南投縣","TOWNNAME":"鹿谷鄉","MARKTYPE":"996","Class":"6"},"geometry":{"x":120.76262136653524,"y":23.726010337732188}},{"attributes":{"OBJECTID":17478,"LANDMARKID":"1000800001277","LANDMARKCO":"604","LANDMARKNA":"谷欣民宿","LANDMARKAD":"1000807","ADDRESS":"南投縣鹿谷鄉竹林村愛鄉路121-6號","TEL":"049-2676446","COUNTYNAME":"南投縣","TOWNNAME":"鹿谷鄉","MARKTYPE":"996","Class":"6"},"geometry":{"x":120.76249081816744,"y":23.726849715257824}},{"attributes":{"OBJECTID":17479,"LANDMARKID":"1000800001278","LANDMARKCO":"604","LANDMARKNA":"薇格精品民宿","LANDMARKAD":"1000807","ADDRESS":"南投縣鹿谷鄉竹林村田頭巷33-12號","TEL":"049-2677298","COUNTYNAME":"南投縣","TOWNNAME":"鹿谷鄉","MARKTYPE":"996","Class":"6"},"geometry":{"x":120.75888068191384,"y":23.72297808187885}},{"attributes":{"OBJECTID":17480,"LANDMARKID":"1000800001279","LANDMARKCO":"604","LANDMARKNA":"鹿谷觀光農園民宿","LANDMARKAD":"1000807","ADDRESS":"南投縣鹿谷鄉廣興村興產路96號","TEL":"049-2753812","COUNTYNAME":"南投縣","TOWNNAME":"鹿谷鄉","MARKTYPE":"996","Class":"6"},"geometry":{"x":120.76623882497798,"y":23.733421561856474}},{"attributes":{"OBJECTID":17481,"LANDMARKID":"1000800001280","LANDMARKCO":"604","LANDMARKNA":"上林民宿","LANDMARKAD":"1000807","ADDRESS":"南投縣鹿谷鄉竹林村田頭巷34號","TEL":"049-2676293","COUNTYNAME":"南投縣","TOWNNAME":"鹿谷鄉","MARKTYPE":"996","Class":"6"},"geometry":{"x":120.75861424808566,"y":23.722029121336998}},{"attributes":{"OBJECTID":17482,"LANDMARKID":"1000800001281","LANDMARKCO":"604","LANDMARKNA":"錢家莊民宿","LANDMARKAD":"1000807","ADDRESS":"南投縣鹿谷鄉竹林村田頭巷33-11號","TEL":"049-2677199","COUNTYNAME":"南投縣","TOWNNAME":"鹿谷鄉","MARKTYPE":"996","Class":"6"},"geometry":{"x":120.75882160198218,"y":23.723041106610236}},{"attributes":{"OBJECTID":17483,"LANDMARKID":"1000800001282","LANDMARKCO":"604","LANDMARKNA":"林家莊民宿","LANDMARKAD":"1000807","ADDRESS":"南投縣鹿谷鄉竹林村田頭巷8-5號","TEL":"049-2676904","COUNTYNAME":"南投縣","TOWNNAME":"鹿谷鄉","MARKTYPE":"996","Class":"6"},"geometry":{"x":120.75638246675157,"y":23.724861860536873}},{"attributes":{"OBJECTID":17484,"LANDMARKID":"1000800001283","LANDMARKCO":"604","LANDMARKNA":"鋐洋民宿","LANDMARKAD":"1000807","ADDRESS":"南投縣鹿谷鄉竹林村田頭巷25-10號","TEL":"049-2677011","COUNTYNAME":"南投縣","TOWNNAME":"鹿谷鄉","MARKTYPE":"996","Class":"6"},"geometry":{"x":120.75948293882057,"y":23.724569214533123}},{"attributes":{"OBJECTID":17485,"LANDMARKID":"1000800001284","LANDMARKCO":"604","LANDMARKNA":"櫻花嶺渡假山莊","LANDMARKAD":"1000807","ADDRESS":"南投縣鹿谷鄉竹林村田頭巷25-3-2號","TEL":"049-2677370-1","COUNTYNAME":"南投縣","TOWNNAME":"鹿谷鄉","MARKTYPE":"996","Class":"6"},"geometry":{"x":120.75908991754561,"y":23.724757618361064}},{"attributes":{"OBJECTID":17486,"LANDMARKID":"1000800001285","LANDMARKCO":"604","LANDMARKNA":"丘園民宿","LANDMARKAD":"1000807","ADDRESS":"南投縣鹿谷鄉竹林村田頭巷32-15號","TEL":"049-2676322","COUNTYNAME":"南投縣","TOWNNAME":"鹿谷鄉","MARKTYPE":"996","Class":"6"},"geometry":{"x":120.75732200166128,"y":23.7213792908382}},{"attributes":{"OBJECTID":17487,"LANDMARKID":"1000800001286","LANDMARKCO":"604","LANDMARKNA":"綠晶鈴","LANDMARKAD":"1000807","ADDRESS":"南投縣鹿谷鄉竹林村田頭巷54-41號","TEL":"049-2676323","COUNTYNAME":"南投縣","TOWNNAME":"鹿谷鄉","MARKTYPE":"996","Class":"6"},"geometry":{"x":120.75872157733978,"y":23.7126835531657}},{"attributes":{"OBJECTID":17488,"LANDMARKID":"1000800001287","LANDMARKCO":"604","LANDMARKNA":"永誠民宿","LANDMARKAD":"1000807","ADDRESS":"南投縣鹿谷鄉竹林村光復路174-66號","TEL":"049-2676902","COUNTYNAME":"南投縣","TOWNNAME":"鹿谷鄉","MARKTYPE":"996","Class":"6"},"geometry":{"x":120.75817560914737,"y":23.728118226552244}},{"attributes":{"OBJECTID":17489,"LANDMARKID":"1000800001288","LANDMARKCO":"604","LANDMARKNA":"小人國民宿","LANDMARKAD":"1000807","ADDRESS":"南投縣鹿谷鄉竹豐村光復路89-14號","TEL":"049-2676978","COUNTYNAME":"南投縣","TOWNNAME":"鹿谷鄉","MARKTYPE":"996","Class":"6"},"geometry":{"x":120.7497597798381,"y":23.732159246786289}},{"attributes":{"OBJECTID":17490,"LANDMARKID":"1000800001289","LANDMARKCO":"604","LANDMARKNA":"漢臣民宿","LANDMARKAD":"1000807","ADDRESS":"南投縣鹿谷鄉竹豐村中湖巷28-1號","TEL":"049-2676800","COUNTYNAME":"南投縣","TOWNNAME":"鹿谷鄉","MARKTYPE":"996","Class":"6"},"geometry":{"x":120.74982877943357,"y":23.726723507703063}},{"attributes":{"OBJECTID":17491,"LANDMARKID":"1000800001290","LANDMARKCO":"604","LANDMARKNA":"真古意民宿","LANDMARKAD":"1000807","ADDRESS":"南投縣鹿谷鄉竹豐村中湖巷28-3號","TEL":"049-2676800","COUNTYNAME":"南投縣","TOWNNAME":"鹿谷鄉","MARKTYPE":"996","Class":"6"},"geometry":{"x":120.74978837453781,"y":23.727030392785746}},{"attributes":{"OBJECTID":17492,"LANDMARKID":"1000800001291","LANDMARKCO":"604","LANDMARKNA":"新來來民宿","LANDMARKAD":"1000807","ADDRESS":"南投縣鹿谷鄉竹豐村中湖巷28-5號","TEL":"049-2676182","COUNTYNAME":"南投縣","TOWNNAME":"鹿谷鄉","MARKTYPE":"996","Class":"6"},"geometry":{"x":120.74968867085609,"y":23.727454474078215}},{"attributes":{"OBJECTID":17493,"LANDMARKID":"1000800001292","LANDMARKCO":"604","LANDMARKNA":"來來休閒民宿","LANDMARKAD":"1000807","ADDRESS":"南投縣鹿谷鄉竹豐村中湖巷28-6號","TEL":"049-2676182","COUNTYNAME":"南投縣","TOWNNAME":"鹿谷鄉","MARKTYPE":"996","Class":"6"},"geometry":{"x":120.74950193394014,"y":23.727553197473664}},{"attributes":{"OBJECTID":17494,"LANDMARKID":"1000800001293","LANDMARKCO":"604","LANDMARKNA":"喜相逢","LANDMARKAD":"1000807","ADDRESS":"南投縣鹿谷鄉竹豐村光復路43-4號","TEL":"049-2676277","COUNTYNAME":"南投縣","TOWNNAME":"鹿谷鄉","MARKTYPE":"996","Class":"6"},"geometry":{"x":120.73871009112804,"y":23.738678855003172}},{"attributes":{"OBJECTID":17495,"LANDMARKID":"1000800001294","LANDMARKCO":"604","LANDMARKNA":"雅園民宿","LANDMARKAD":"1000807","ADDRESS":"南投縣鹿谷鄉竹豐村光復路52-10號","TEL":"049-2676866","COUNTYNAME":"南投縣","TOWNNAME":"鹿谷鄉","MARKTYPE":"996","Class":"6"},"geometry":{"x":120.7384682076562,"y":23.739228848791441}},{"attributes":{"OBJECTID":17496,"LANDMARKID":"1000800001295","LANDMARKCO":"604","LANDMARKNA":"竹豐民宿","LANDMARKAD":"1000807","ADDRESS":"南投縣鹿谷鄉竹豐村光復路56-13號","TEL":"049-2677136","COUNTYNAME":"南投縣","TOWNNAME":"鹿谷鄉","MARKTYPE":"996","Class":"6"},"geometry":{"x":120.74295594928361,"y":23.736570721562149}},{"attributes":{"OBJECTID":17497,"LANDMARKID":"1000800001296","LANDMARKCO":"604","LANDMARKNA":"野菜園民宿","LANDMARKAD":"1000807","ADDRESS":"南投縣鹿谷鄉竹豐村光復路91-5號","TEL":"049-2676932","COUNTYNAME":"南投縣","TOWNNAME":"鹿谷鄉","MARKTYPE":"996","Class":"6"},"geometry":{"x":120.75094992229802,"y":23.731291706998427}},{"attributes":{"OBJECTID":17498,"LANDMARKID":"1000800001297","LANDMARKCO":"604","LANDMARKNA":"和雅渡假園區","LANDMARKAD":"1000807","ADDRESS":"南投縣鹿谷鄉和雅村愛鄉路66-15號","TEL":"049-2752170","COUNTYNAME":"南投縣","TOWNNAME":"鹿谷鄉","MARKTYPE":"996","Class":"6"},"geometry":{"x":120.77609133632181,"y":23.710958846992444}},{"attributes":{"OBJECTID":17499,"LANDMARKID":"1000800001298","LANDMARKCO":"604","LANDMARKNA":"竹映民宿","LANDMARKAD":"1000807","ADDRESS":"南投縣鹿谷鄉和雅村愛鄉路45-11號","TEL":"049-2754145","COUNTYNAME":"南投縣","TOWNNAME":"鹿谷鄉","MARKTYPE":"996","Class":"6"},"geometry":{"x":120.77401686536152,"y":23.702595215513142}},{"attributes":{"OBJECTID":17500,"LANDMARKID":"1000800001299","LANDMARKCO":"604","LANDMARKNA":"風和雅舍","LANDMARKAD":"1000807","ADDRESS":"南投縣鹿谷鄉和雅村愛鄉路55-6號","TEL":"049-2750966","COUNTYNAME":"南投縣","TOWNNAME":"鹿谷鄉","MARKTYPE":"996","Class":"6"},"geometry":{"x":120.77649999885891,"y":23.703374928204649}},{"attributes":{"OBJECTID":17501,"LANDMARKID":"1000800001300","LANDMARKCO":"604","LANDMARKNA":"E8的家","LANDMARKAD":"1000807","ADDRESS":"南投縣鹿谷鄉和雅村愛鄉路65號","TEL":"049-2753571","COUNTYNAME":"南投縣","TOWNNAME":"鹿谷鄉","MARKTYPE":"996","Class":"6"},"geometry":{"x":120.77373334292216,"y":23.703732147881396}},{"attributes":{"OBJECTID":17502,"LANDMARKID":"1000800001301","LANDMARKCO":"604","LANDMARKNA":"吉野渡假山莊","LANDMARKAD":"1000807","ADDRESS":"南投縣鹿谷鄉和雅村林尾巷13-5號","TEL":"049-2755905","COUNTYNAME":"南投縣","TOWNNAME":"鹿谷鄉","MARKTYPE":"996","Class":"6"},"geometry":{"x":120.77719058036017,"y":23.705047451848511}},{"attributes":{"OBJECTID":17503,"LANDMARKID":"1000800001302","LANDMARKCO":"604","LANDMARKNA":"溪頭聽濤園渡假山莊民宿","LANDMARKAD":"1000807","ADDRESS":"南投縣鹿谷鄉和雅村愛鄉路1-12號","TEL":"049-2755677","COUNTYNAME":"南投縣","TOWNNAME":"鹿谷鄉","MARKTYPE":"996","Class":"6"},"geometry":{"x":120.78281283694089,"y":23.692657418594784}},{"attributes":{"OBJECTID":17504,"LANDMARKID":"1000800001303","LANDMARKCO":"604","LANDMARKNA":"三石山小棧","LANDMARKAD":"1000807","ADDRESS":"南投縣鹿谷鄉和雅村愛鄉路2-16號","TEL":"049-2754382","COUNTYNAME":"南投縣","TOWNNAME":"鹿谷鄉","MARKTYPE":"996","Class":"6"},"geometry":{"x":120.78197225077015,"y":23.691842362921342}},{"attributes":{"OBJECTID":17505,"LANDMARKID":"1000800001304","LANDMARKCO":"604","LANDMARKNA":"溪頭民宿","LANDMARKAD":"1000807","ADDRESS":"南投縣鹿谷鄉內湖村興產路24-49號","TEL":"0910-340325","COUNTYNAME":"南投縣","TOWNNAME":"鹿谷鄉","MARKTYPE":"996","Class":"6"},"geometry":{"x":120.79062218424755,"y":23.688621954539514}},{"attributes":{"OBJECTID":17506,"LANDMARKID":"1000800001305","LANDMARKCO":"604","LANDMARKNA":"桃花源民宿","LANDMARKAD":"1000807","ADDRESS":"南投縣鹿谷鄉竹林村愛鄉路99-5號","TEL":"0933-179159","COUNTYNAME":"南投縣","TOWNNAME":"鹿谷鄉","MARKTYPE":"996","Class":"6"},"geometry":{"x":120.76991132185361,"y":23.718344349846475}},{"attributes":{"OBJECTID":17507,"LANDMARKID":"1000800001306","LANDMARKCO":"604","LANDMARKNA":"遠路山村民宿","LANDMARKAD":"1000807","ADDRESS":"南投縣鹿谷鄉竹林村田頭巷34-10號","TEL":"049-2677124","COUNTYNAME":"南投縣","TOWNNAME":"鹿谷鄉","MARKTYPE":"996","Class":"6"},"geometry":{"x":120.75913797547317,"y":23.722355822263516}},{"attributes":{"OBJECTID":17508,"LANDMARKID":"1000800001307","LANDMARKCO":"604","LANDMARKNA":"禪鏡山莊","LANDMARKAD":"1000807","ADDRESS":"南投縣鹿谷鄉和雅村愛鄉路42-61號","TEL":"049-2753913","COUNTYNAME":"南投縣","TOWNNAME":"鹿谷鄉","MARKTYPE":"996","Class":"6"},"geometry":{"x":120.77702397805871,"y":23.700739714528307}},{"attributes":{"OBJECTID":17509,"LANDMARKID":"1000800001308","LANDMARKCO":"604","LANDMARKNA":"明谷山莊","LANDMARKAD":"1000807","ADDRESS":"南投縣鹿谷鄉竹林村光復路174-67號","TEL":"049-2677389","COUNTYNAME":"南投縣","TOWNNAME":"鹿谷鄉","MARKTYPE":"996","Class":"6"},"geometry":{"x":120.76536408236451,"y":23.728398320984656}},{"attributes":{"OBJECTID":17510,"LANDMARKID":"1000800001309","LANDMARKCO":"604","LANDMARKNA":"薰芳齋農莊","LANDMARKAD":"1000807","ADDRESS":"南投縣鹿谷鄉初鄉村水尾巷22號","TEL":"049-2753382","COUNTYNAME":"南投縣","TOWNNAME":"鹿谷鄉","MARKTYPE":"996","Class":"6"},"geometry":{"x":120.75425193143606,"y":23.779345425404038}},{"attributes":{"OBJECTID":17511,"LANDMARKID":"1000800001310","LANDMARKCO":"604","LANDMARKNA":"曼陀鄉民宿","LANDMARKAD":"1000807","ADDRESS":"南投縣鹿谷鄉內湖村興產路1-15號","TEL":"049-2612367","COUNTYNAME":"南投縣","TOWNNAME":"鹿谷鄉","MARKTYPE":"996","Class":"6"},"geometry":{"x":120.79583488026246,"y":23.673449113048925}},{"attributes":{"OBJECTID":17512,"LANDMARKID":"1000800000855","LANDMARKCO":"504","LANDMARKNA":"溪頭森林遊樂園空中廊道","LANDMARKAD":"1000807","ADDRESS":"南投縣鹿谷鄉內湖村","TEL":"049-2612111","COUNTYNAME":"南投縣","TOWNNAME":"鹿谷鄉","MARKTYPE":"995","Class":"5"},"geometry":{"x":120.79436226964206,"y":23.664195935368401}},{"attributes":{"OBJECTID":17513,"LANDMARKID":"1000800000856","LANDMARKCO":"504","LANDMARKNA":"溪頭森林遊樂園大門入口處","LANDMARKAD":"1000807","ADDRESS":"南投縣鹿谷鄉森林巷9號","TEL":"049-2612111","COUNTYNAME":"南投縣","TOWNNAME":"鹿谷鄉","MARKTYPE":"995","Class":"5"},"geometry":{"x":120.79544599103311,"y":23.676512115034999}},{"attributes":{"OBJECTID":17514,"LANDMARKID":"1000800000857","LANDMARKCO":"504","LANDMARKNA":"溪頭森林遊樂園溪頭神木","LANDMARKAD":"1000807","ADDRESS":"南投縣鹿谷鄉內湖村","TEL":"049-2612111","COUNTYNAME":"南投縣","TOWNNAME":"鹿谷鄉","MARKTYPE":"995","Class":"5"},"geometry":{"x":120.7977259791557,"y":23.661324727936918}},{"attributes":{"OBJECTID":17515,"LANDMARKID":"1000800000858","LANDMARKCO":"504","LANDMARKNA":"溪頭森林遊樂園銀杏林","LANDMARKAD":"1000807","ADDRESS":"南投縣鹿谷鄉內湖村","TEL":"049-2612111","COUNTYNAME":"南投縣","TOWNNAME":"鹿谷鄉","MARKTYPE":"995","Class":"5"},"geometry":{"x":120.79838421164936,"y":23.666589050836556}},{"attributes":{"OBJECTID":17516,"LANDMARKID":"1000800000859","LANDMARKCO":"504","LANDMARKNA":"溪頭森林遊樂區","LANDMARKAD":"1000807","ADDRESS":"南投縣鹿谷鄉內湖村森林巷9號","TEL":" ","COUNTYNAME":"南投縣","TOWNNAME":"鹿谷鄉","MARKTYPE":"995","Class":"5"},"geometry":{"x":120.79892753320642,"y":23.67144854068512}},{"attributes":{"OBJECTID":17517,"LANDMARKID":"1000800000820","LANDMARKCO":"503","LANDMARKNA":"鳳凰谷風景特定區","LANDMARKAD":"1000807","ADDRESS":"南投縣鹿谷鄉鳳凰村仁義路1之9號","TEL":" ","COUNTYNAME":"南投縣","TOWNNAME":"鹿谷鄉","MARKTYPE":"995","Class":"5"},"geometry":{"x":120.79028504358175,"y":23.782730942128484}},{"attributes":{"OBJECTID":17518,"LANDMARKID":"1000800000854","LANDMARKCO":"504","LANDMARKNA":"溪頭森林遊樂特定區","LANDMARKAD":"1000807","ADDRESS":"南投縣鹿谷鄉內湖村森林巷9號","TEL":" ","COUNTYNAME":"南投縣","TOWNNAME":"鹿谷鄉","MARKTYPE":"995","Class":"5"},"geometry":{"x":120.77572059571109,"y":23.814717129287615}},{"attributes":{"OBJECTID":17519,"LANDMARKID":"1000800000646","LANDMARKCO":"405","LANDMARKNA":"中油加油站-森竹站","LANDMARKAD":"1000804","ADDRESS":"南投縣竹山鎮集山路3段438號","TEL":"049-2631616","COUNTYNAME":"南投縣","TOWNNAME":"竹山鎮","MARKTYPE":"994","Class":"4"},"geometry":{"x":120.69642887461416,"y":23.762349694667272}},{"attributes":{"OBJECTID":17520,"LANDMARKID":"1000800000647","LANDMARKCO":"405","LANDMARKNA":"中油加油站-竹山站(中油直營)","LANDMARKAD":"1000804","ADDRESS":"南投縣竹山鎮竹山里集山路三段884號","TEL":"049-2642304","COUNTYNAME":"南投縣","TOWNNAME":"竹山鎮","MARKTYPE":"994","Class":"4"},"geometry":{"x":120.68486034177809,"y":23.758366980550104}},{"attributes":{"OBJECTID":17521,"LANDMARKID":"1000800000648","LANDMARKCO":"405","LANDMARKNA":"中油加油站-社寮站","LANDMARKAD":"1000804","ADDRESS":"南投縣竹山鎮集山路一段2100號","TEL":"04-9624416","COUNTYNAME":"南投縣","TOWNNAME":"竹山鎮","MARKTYPE":"994","Class":"4"},"geometry":{"x":120.71726072845097,"y":23.807262437334046}},{"attributes":{"OBJECTID":17522,"LANDMARKID":"1000800000649","LANDMARKCO":"405","LANDMARKNA":"中油加油站-新興站","LANDMARKAD":"1000804","ADDRESS":"南投縣竹山鎮集山路2段100號","TEL":"049-2623828","COUNTYNAME":"南投縣","TOWNNAME":"竹山鎮","MARKTYPE":"994","Class":"4"},"geometry":{"x":120.71333121118218,"y":23.799860194218006}},{"attributes":{"OBJECTID":17523,"LANDMARKID":"1000800000650","LANDMARKCO":"405","LANDMARKNA":"中油加油站-竹山交流道站(中油直營)","LANDMARKAD":"1000804","ADDRESS":"南投縣竹山鎮山崇里集山路二段419唬","TEL":"049-2624821","COUNTYNAME":"南投縣","TOWNNAME":"竹山鎮","MARKTYPE":"994","Class":"4"},"geometry":{"x":120.71026771453363,"y":23.787025772242426}},{"attributes":{"OBJECTID":17524,"LANDMARKID":"1000800000651","LANDMARKCO":"405","LANDMARKNA":"中油加油站-獅王站","LANDMARKAD":"1000804","ADDRESS":"南投縣竹山鎮桶頭里鯉南路309之4號","TEL":"049-2711069","COUNTYNAME":"南投縣","TOWNNAME":"竹山鎮","MARKTYPE":"994","Class":"4"},"geometry":{"x":120.67418366791013,"y":23.743685242479422}},{"attributes":{"OBJECTID":17525,"LANDMARKID":"1000800000652","LANDMARKCO":"405","LANDMARKNA":"中油加油站-竹山延平站(中油直營)","LANDMARKAD":"1000804","ADDRESS":"南投縣竹山鎮延平里集山路二段869號","TEL":"049-2649304","COUNTYNAME":"南投縣","TOWNNAME":"竹山鎮","MARKTYPE":"994","Class":"4"},"geometry":{"x":120.70972840500212,"y":23.775101964424234}},{"attributes":{"OBJECTID":17526,"LANDMARKID":"1000800000653","LANDMARKCO":"405","LANDMARKNA":"中油加油站-竹泰站","LANDMARKAD":"1000804","ADDRESS":"南投縣竹山鎮南雲路10-9號","TEL":"049-2624172","COUNTYNAME":"南投縣","TOWNNAME":"竹山鎮","MARKTYPE":"994","Class":"4"},"geometry":{"x":120.7120710656572,"y":23.808776460478327}},{"attributes":{"OBJECTID":17527,"LANDMARKID":"1000800000600","LANDMARKCO":"402","LANDMARKNA":"亞太行動寬頻電信-南投竹山加盟服務中心","LANDMARKAD":"1000804","ADDRESS":"南投縣竹山鎮竹山里集山路三段940號","TEL":"049-2640520","COUNTYNAME":"南投縣","TOWNNAME":"竹山鎮","MARKTYPE":"994","Class":"4"},"geometry":{"x":120.68374412847669,"y":23.757535122394795}},{"attributes":{"OBJECTID":17528,"LANDMARKID":"1000800000599","LANDMARKCO":"401","LANDMARKNA":"竹山秀傳醫院","LANDMARKAD":"1000804","ADDRESS":"南投縣竹山鎮集山路二段75號","TEL":"049-2624266","COUNTYNAME":"南投縣","TOWNNAME":"竹山鎮","MARKTYPE":"994","Class":"4"},"geometry":{"x":120.71415624375666,"y":23.800115167789979}},{"attributes":{"OBJECTID":17529,"LANDMARKID":"1000800000882","LANDMARKCO":"507","LANDMARKNA":"竹山社寮敬聖亭","LANDMARKAD":"1000804","ADDRESS":"南投縣竹山鎮社寮里集山路一段1738號","TEL":" ","COUNTYNAME":"南投縣","TOWNNAME":"竹山鎮","MARKTYPE":"995","Class":"5"},"geometry":{"x":120.72323480572864,"y":23.815536938392768}},{"attributes":{"OBJECTID":17530,"LANDMARKID":"1000800000883","LANDMARKCO":"507","LANDMARKNA":"竹山連興宮","LANDMARKAD":"1000804","ADDRESS":"南投縣竹山鎮竹山里下橫街28號","TEL":" ","COUNTYNAME":"南投縣","TOWNNAME":"竹山鎮","MARKTYPE":"995","Class":"5"},"geometry":{"x":120.68484588198824,"y":23.756077347195252}},{"attributes":{"OBJECTID":17531,"LANDMARKID":"1000800000777","LANDMARKCO":"408","LANDMARKNA":"郵局-竹山郵局","LANDMARKAD":"1000804","ADDRESS":"南投縣竹山鎮前山路1段2號","TEL":"(049)2642-076","COUNTYNAME":"南投縣","TOWNNAME":"竹山鎮","MARKTYPE":"994","Class":"4"},"geometry":{"x":120.68230496192226,"y":23.756920943193442}},{"attributes":{"OBJECTID":17532,"LANDMARKID":"1000800000778","LANDMARKCO":"408","LANDMARKNA":"郵局-竹山後埔郵局","LANDMARKAD":"1000804","ADDRESS":"南投縣竹山鎮集山路1段1234號","TEL":"(049)2622-080","COUNTYNAME":"南投縣","TOWNNAME":"竹山鎮","MARKTYPE":"994","Class":"4"},"geometry":{"x":120.73299991905938,"y":23.813905005471476}},{"attributes":{"OBJECTID":17533,"LANDMARKID":"1000800000779","LANDMARKCO":"408","LANDMARKNA":"郵局-竹山東埔蚋郵局","LANDMARKAD":"1000804","ADDRESS":"南投縣竹山鎮集山路3段99號","TEL":"(049)2648-462","COUNTYNAME":"南投縣","TOWNNAME":"竹山鎮","MARKTYPE":"994","Class":"4"},"geometry":{"x":120.70459589479209,"y":23.765100875609761}},{"attributes":{"OBJECTID":17534,"LANDMARKID":"1000800000780","LANDMARKCO":"408","LANDMARKNA":"郵局-竹山延和郵局","LANDMARKAD":"1000804","ADDRESS":"南投縣竹山鎮集山路三段589、591號","TEL":"(049)2649-614","COUNTYNAME":"南投縣","TOWNNAME":"竹山鎮","MARKTYPE":"994","Class":"4"},"geometry":{"x":120.69068598394719,"y":23.760032679966525}},{"attributes":{"OBJECTID":17535,"LANDMARKID":"1000800000805","LANDMARKCO":"409","LANDMARKNA":"南投縣竹山鎮農會","LANDMARKAD":"1000804","ADDRESS":"南投縣竹山鎮下橫街38號","TEL":"049-2642186","COUNTYNAME":"南投縣","TOWNNAME":"竹山鎮","MARKTYPE":"994","Class":"4"},"geometry":{"x":120.6844785457557,"y":23.756594545217474}},{"attributes":{"OBJECTID":17536,"LANDMARKID":"1000800000806","LANDMARKCO":"409","LANDMARKNA":"竹山魚市場","LANDMARKAD":"1000804","ADDRESS":"竹山鎮中崎里集山路三段1536號","TEL":"049-642226　","COUNTYNAME":"南投縣","TOWNNAME":"竹山鎮","MARKTYPE":"994","Class":"4"},"geometry":{"x":120.66377994331367,"y":23.758166201027468}},{"attributes":{"OBJECTID":17537,"LANDMARKID":"1000800000643","LANDMARKCO":"404","LANDMARKNA":"台灣自來水竹山營運所","LANDMARKAD":"1000804","ADDRESS":"南投縣竹山鎮大明路356號","TEL":"049-2642074","COUNTYNAME":"南投縣","TOWNNAME":"竹山鎮","MARKTYPE":"994","Class":"4"},"geometry":{"x":120.68285953261994,"y":23.760115021734279}},{"attributes":{"OBJECTID":17538,"LANDMARKID":"1000800000644","LANDMARKCO":"404","LANDMARKNA":"台灣省自來水竹山營運所","LANDMARKAD":"1000804","ADDRESS":"南投縣竹山鎮大明路356號","TEL":" ","COUNTYNAME":"南投縣","TOWNNAME":"竹山鎮","MARKTYPE":"994","Class":"4"},"geometry":{"x":120.68268058289154,"y":23.760656093471574}},{"attributes":{"OBJECTID":17539,"LANDMARKID":"1000800000750","LANDMARKCO":"406","LANDMARKNA":"森林公園","LANDMARKAD":"1000804","ADDRESS":"南投縣竹山鎮","TEL":" ","COUNTYNAME":"南投縣","TOWNNAME":"竹山鎮","MARKTYPE":"994","Class":"4"},"geometry":{"x":120.79433867449582,"y":23.637301641244623}},{"attributes":{"OBJECTID":17540,"LANDMARKID":"1000800000751","LANDMARKCO":"406","LANDMARKNA":"竹山遊憩公園","LANDMARKAD":"1000804","ADDRESS":"南投縣竹山鎮","TEL":" ","COUNTYNAME":"南投縣","TOWNNAME":"竹山鎮","MARKTYPE":"994","Class":"4"},"geometry":{"x":120.6699190857927,"y":23.758529861341906}},{"attributes":{"OBJECTID":17541,"LANDMARKID":"1000800000645","LANDMARKCO":"405","LANDMARKNA":"福懋加油站-竹山站(台塑)","LANDMARKAD":"1000804","ADDRESS":"南投縣竹山鎮集山路三段393號","TEL":"049-2657848","COUNTYNAME":"南投縣","TOWNNAME":"竹山鎮","MARKTYPE":"994","Class":"4"},"geometry":{"x":120.69712112599748,"y":23.762120913402516}},{"attributes":{"OBJECTID":17542,"LANDMARKID":"1000800000204","LANDMARKCO":"107","LANDMARKNA":"南投縣政府警察局頂林派出所","LANDMARKAD":"1000804","ADDRESS":"南投縣竹山鎮秀林里頂林路399號","TEL":"049-2648702","COUNTYNAME":"南投縣","TOWNNAME":"竹山鎮","MARKTYPE":"991","Class":"1"},"geometry":{"x":120.70108281883434,"y":23.720226073365279}},{"attributes":{"OBJECTID":17543,"LANDMARKID":"1000800000235","LANDMARKCO":"108","LANDMARKNA":"南投縣竹山鎮公所","LANDMARKAD":"1000804","ADDRESS":"南投縣竹山鎮雲林里公所路100號","TEL":"049-2642175","COUNTYNAME":"南投縣","TOWNNAME":"竹山鎮","MARKTYPE":"991","Class":"1"},"geometry":{"x":120.67156097156443,"y":23.757821471015404}},{"attributes":{"OBJECTID":17544,"LANDMARKID":"1000800000055","LANDMARKCO":"103","LANDMARKNA":"南投縣竹山鎮衛生所","LANDMARKAD":"1000804","ADDRESS":"南投縣竹山鎮雲林里公所路126號","TEL":"049-2642026","COUNTYNAME":"南投縣","TOWNNAME":"竹山鎮","MARKTYPE":"991","Class":"1"},"geometry":{"x":120.67231399368112,"y":23.759397152220064}},{"attributes":{"OBJECTID":17545,"LANDMARKID":"1000800000056","LANDMARKCO":"103","LANDMARKNA":"南投縣竹山鎮鎮民代表會","LANDMARKAD":"1000804","ADDRESS":"南投縣竹山鎮公所路120號","TEL":"049-2656421","COUNTYNAME":"南投縣","TOWNNAME":"竹山鎮","MARKTYPE":"991","Class":"1"},"geometry":{"x":120.67200500504448,"y":23.758992413915568}},{"attributes":{"OBJECTID":17546,"LANDMARKID":"1000800000205","LANDMARKCO":"107","LANDMARKNA":"南投縣消防局第三消防大隊部","LANDMARKAD":"1000804","ADDRESS":"南投縣竹山鎮頂林路150號","TEL":"049-2642013","COUNTYNAME":"南投縣","TOWNNAME":"竹山鎮","MARKTYPE":"991","Class":"1"},"geometry":{"x":120.68145316241092,"y":23.748658809800475}},{"attributes":{"OBJECTID":17547,"LANDMARKID":"1000800000206","LANDMARKCO":"107","LANDMARKNA":"南投縣消防局竹山消防分隊","LANDMARKAD":"1000804","ADDRESS":"南投縣竹山鎮頂林路150號","TEL":"049-2642013","COUNTYNAME":"南投縣","TOWNNAME":"竹山鎮","MARKTYPE":"991","Class":"1"},"geometry":{"x":120.68145316241092,"y":23.748658809800475}},{"attributes":{"OBJECTID":17548,"LANDMARKID":"1000800000207","LANDMARKCO":"107","LANDMARKNA":"南投縣政府警察局竹山分局","LANDMARKAD":"1000804","ADDRESS":"南投縣竹山鎮竹山里集山路三段968號","TEL":"049-2642040","COUNTYNAME":"南投縣","TOWNNAME":"竹山鎮","MARKTYPE":"991","Class":"1"},"geometry":{"x":120.68269324903108,"y":23.756961361865674}},{"attributes":{"OBJECTID":17549,"LANDMARKID":"1000800000208","LANDMARKCO":"107","LANDMARKNA":"南投縣政府警察局瑞竹派出所","LANDMARKAD":"1000804","ADDRESS":"南投縣竹山鎮瑞竹里鯉南路293號","TEL":"049-2711710","COUNTYNAME":"南投縣","TOWNNAME":"竹山鎮","MARKTYPE":"991","Class":"1"},"geometry":{"x":120.66571436941919,"y":23.662010904934984}},{"attributes":{"OBJECTID":17550,"LANDMARKID":"1000800000209","LANDMARKCO":"107","LANDMARKNA":"南投縣政府警察局中和派出所","LANDMARKAD":"1000804","ADDRESS":"南投縣竹山鎮中和里前山路二段119號","TEL":"049-2648620","COUNTYNAME":"南投縣","TOWNNAME":"竹山鎮","MARKTYPE":"991","Class":"1"},"geometry":{"x":120.66302078514757,"y":23.763391134199967}},{"attributes":{"OBJECTID":17551,"LANDMARKID":"1000800000210","LANDMARKCO":"107","LANDMARKNA":"南投縣政府警察局過溪派出所","LANDMARKAD":"1000804","ADDRESS":"南投縣竹山鎮福興里鯉南路172號","TEL":"049-2648927","COUNTYNAME":"南投縣","TOWNNAME":"竹山鎮","MARKTYPE":"991","Class":"1"},"geometry":{"x":120.66752184160697,"y":23.726898797881464}},{"attributes":{"OBJECTID":17552,"LANDMARKID":"1000800000211","LANDMARKCO":"107","LANDMARKNA":"南投縣政府警察局桶頭派出所","LANDMARKAD":"1000804","ADDRESS":"南投縣竹山鎮桶頭里鯉南路319號","TEL":"049-2711044","COUNTYNAME":"南投縣","TOWNNAME":"竹山鎮","MARKTYPE":"991","Class":"1"},"geometry":{"x":120.65527951050436,"y":23.64717253788552}},{"attributes":{"OBJECTID":17553,"LANDMARKID":"1000800000212","LANDMARKCO":"107","LANDMARKNA":"南投縣政府警察局社寮派出所","LANDMARKAD":"1000804","ADDRESS":"南投縣竹山鎮社寮里集山路一段1694號","TEL":"049-2622002","COUNTYNAME":"南投縣","TOWNNAME":"竹山鎮","MARKTYPE":"991","Class":"1"},"geometry":{"x":120.72287385569209,"y":23.815208129329616}},{"attributes":{"OBJECTID":17554,"LANDMARKID":"1000800000213","LANDMARKCO":"107","LANDMARKNA":"南投縣政府警察局延平派出所","LANDMARKAD":"1000804","ADDRESS":"南投縣竹山鎮延平里集山路三段22號","TEL":"049-2644365","COUNTYNAME":"南投縣","TOWNNAME":"竹山鎮","MARKTYPE":"991","Class":"1"},"geometry":{"x":120.70585656481845,"y":23.766707530382789}},{"attributes":{"OBJECTID":17555,"LANDMARKID":"1000800000214","LANDMARKCO":"107","LANDMARKNA":"南投縣政府警察局竹山派出所","LANDMARKAD":"1000804","ADDRESS":"南投縣竹山鎮竹山里集山路三段968號","TEL":"049-2642012","COUNTYNAME":"南投縣","TOWNNAME":"竹山鎮","MARKTYPE":"991","Class":"1"},"geometry":{"x":120.68269324903108,"y":23.756961361865674}},{"attributes":{"OBJECTID":17556,"LANDMARKID":"1000800000215","LANDMARKCO":"107","LANDMARKNA":"南投縣警察局杉林派出所","LANDMARKAD":"1000804","ADDRESS":"南投縣竹山鎮集山路3段968號","TEL":"049-2612300","COUNTYNAME":"南投縣","TOWNNAME":"竹山鎮","MARKTYPE":"991","Class":"1"},"geometry":{"x":120.68269324903108,"y":23.756961361865674}},{"attributes":{"OBJECTID":17557,"LANDMARKID":"1000800000103","LANDMARKCO":"106","LANDMARKNA":"南投縣竹山鎮戶政事務所","LANDMARKAD":"1000804","ADDRESS":"南投縣竹山鎮中山里大智路823號","TEL":"049-2643406","COUNTYNAME":"南投縣","TOWNNAME":"竹山鎮","MARKTYPE":"991","Class":"1"},"geometry":{"x":120.67990988871117,"y":23.749991388067098}},{"attributes":{"OBJECTID":17558,"LANDMARKID":"1000800000094","LANDMARKCO":"105","LANDMARKNA":"南投縣竹山地政事務所","LANDMARKAD":"1000804","ADDRESS":"南投縣竹山鎮鯉南路23號","TEL":"049-2642125","COUNTYNAME":"南投縣","TOWNNAME":"竹山鎮","MARKTYPE":"991","Class":"1"},"geometry":{"x":120.67958993187268,"y":23.749970725024966}},{"attributes":{"OBJECTID":17559,"LANDMARKID":"1000800000093","LANDMARKCO":"104","LANDMARKNA":"中區國稅局竹山稽徵所","LANDMARKAD":"1000804","ADDRESS":"南投縣竹山鎮雲林里公所路106號?","TEL":"049-2641914","COUNTYNAME":"南投縣","TOWNNAME":"竹山鎮","MARKTYPE":"991","Class":"1"},"geometry":{"x":120.67306435123344,"y":23.756478741560329}},{"attributes":{"OBJECTID":17560,"LANDMARKID":"1000800000045","LANDMARKCO":"101","LANDMARKNA":"林務局南投林區管理處竹山工作站","LANDMARKAD":"1000804","ADDRESS":"南投縣竹山鎮鯉南路21號","TEL":"049-2642003","COUNTYNAME":"南投縣","TOWNNAME":"竹山鎮","MARKTYPE":"991","Class":"1"},"geometry":{"x":120.67969086254413,"y":23.749590933283347}},{"attributes":{"OBJECTID":17561,"LANDMARKID":"1000800000046","LANDMARKCO":"101","LANDMARKNA":"工業局竹山工業區服務中心","LANDMARKAD":"1000804","ADDRESS":"南投縣竹山鎮延平里延平一路5號","TEL":"049-2642842","COUNTYNAME":"南投縣","TOWNNAME":"竹山鎮","MARKTYPE":"991","Class":"1"},"geometry":{"x":120.70487414241428,"y":23.767780977488091}},{"attributes":{"OBJECTID":17562,"LANDMARKID":"1000800000449","LANDMARKCO":"204","LANDMARKNA":"南投縣立圖書館竹山分館","LANDMARKAD":"1000804","ADDRESS":"南投縣竹山鎮公所路120號","TEL":" ","COUNTYNAME":"南投縣","TOWNNAME":"竹山鎮","MARKTYPE":"992","Class":"2"},"geometry":{"x":120.6724363221129,"y":23.759587441109272}},{"attributes":{"OBJECTID":17563,"LANDMARKID":"1000800000448","LANDMARKCO":"203","LANDMARKNA":"縣立瑞竹國中","LANDMARKAD":"1000804","ADDRESS":"南投縣竹山鎮瑞竹里瑞東巷201號","TEL":"049-2711014","COUNTYNAME":"南投縣","TOWNNAME":"竹山鎮","MARKTYPE":"992","Class":"2"},"geometry":{"x":120.67439466630984,"y":23.667640063025225}},{"attributes":{"OBJECTID":17564,"LANDMARKID":"1000800000252","LANDMARKCO":"202","LANDMARKNA":"國立竹山高中","LANDMARKAD":"1000804","ADDRESS":"南投縣竹山鎮下橫街253號","TEL":"049-2642563","COUNTYNAME":"南投縣","TOWNNAME":"竹山鎮","MARKTYPE":"992","Class":"2"},"geometry":{"x":120.68159209359381,"y":23.760209096589133}},{"attributes":{"OBJECTID":17565,"LANDMARKID":"1000800000358","LANDMARKCO":"203","LANDMARKNA":"縣立竹山國中","LANDMARKAD":"1000804","ADDRESS":"南投縣竹山鎮中山里竹山路217號","TEL":"049-2642068","COUNTYNAME":"南投縣","TOWNNAME":"竹山鎮","MARKTYPE":"992","Class":"2"},"geometry":{"x":120.68203597071629,"y":23.753060010170422}},{"attributes":{"OBJECTID":17566,"LANDMARKID":"1000800000359","LANDMARKCO":"203","LANDMARKNA":"縣立延和國中","LANDMARKAD":"1000804","ADDRESS":"南投縣竹山鎮延和里鹿山路40號","TEL":"049-2658641","COUNTYNAME":"南投縣","TOWNNAME":"竹山鎮","MARKTYPE":"992","Class":"2"},"geometry":{"x":120.69534212872186,"y":23.760278730024467}},{"attributes":{"OBJECTID":17567,"LANDMARKID":"1000800000360","LANDMARKCO":"203","LANDMARKNA":"縣立雲林國小","LANDMARKAD":"1000804","ADDRESS":"南投縣竹山鎮雲林里大明路666號","TEL":"049-2643321","COUNTYNAME":"南投縣","TOWNNAME":"竹山鎮","MARKTYPE":"992","Class":"2"},"geometry":{"x":120.67706370639343,"y":23.756751283246633}},{"attributes":{"OBJECTID":17568,"LANDMARKID":"1000800000361","LANDMARKCO":"203","LANDMARKNA":"縣立鯉魚國小","LANDMARKAD":"1000804","ADDRESS":"南投縣竹山鎮鯉魚里鯉行路92號","TEL":"049-2644984","COUNTYNAME":"南投縣","TOWNNAME":"竹山鎮","MARKTYPE":"992","Class":"2"},"geometry":{"x":120.65452330558148,"y":23.71516086390767}},{"attributes":{"OBJECTID":17569,"LANDMARKID":"1000800000362","LANDMARKCO":"203","LANDMARKNA":"縣立過溪國小","LANDMARKAD":"1000804","ADDRESS":"南投縣竹山鎮福興里鯉南路136號","TEL":"049-2642573","COUNTYNAME":"南投縣","TOWNNAME":"竹山鎮","MARKTYPE":"992","Class":"2"},"geometry":{"x":120.6665296045072,"y":23.727772674521525}},{"attributes":{"OBJECTID":17570,"LANDMARKID":"1000800000363","LANDMARKCO":"203","LANDMARKNA":"縣立瑞竹國小","LANDMARKAD":"1000804","ADDRESS":"南投縣竹山鎮瑞竹里鯉南路251號","TEL":"049-2711024","COUNTYNAME":"南投縣","TOWNNAME":"竹山鎮","MARKTYPE":"992","Class":"2"},"geometry":{"x":120.6664863430687,"y":23.664012568349161}},{"attributes":{"OBJECTID":17571,"LANDMARKID":"1000800000364","LANDMARKCO":"203","LANDMARKNA":"縣立文田國小","LANDMARKAD":"1000804","ADDRESS":"南投縣竹山鎮田子里田東路31號","TEL":"049-2647813","COUNTYNAME":"南投縣","TOWNNAME":"竹山鎮","MARKTYPE":"992","Class":"2"},"geometry":{"x":120.68849389294958,"y":23.703941770508969}},{"attributes":{"OBJECTID":17572,"LANDMARKID":"1000800000365","LANDMARKCO":"203","LANDMARKNA":"縣立竹山國小","LANDMARKAD":"1000804","ADDRESS":"南投縣竹山鎮延和里向學街32號","TEL":"049-2642016","COUNTYNAME":"南投縣","TOWNNAME":"竹山鎮","MARKTYPE":"992","Class":"2"},"geometry":{"x":120.68754517874201,"y":23.761729864573862}},{"attributes":{"OBJECTID":17573,"LANDMARKID":"1000800000366","LANDMARKCO":"203","LANDMARKNA":"縣立大鞍國小","LANDMARKAD":"1000804","ADDRESS":"南投縣竹山鎮大鞍里竹寮巷21號","TEL":"049-2841009","COUNTYNAME":"南投縣","TOWNNAME":"竹山鎮","MARKTYPE":"992","Class":"2"},"geometry":{"x":120.71682304340152,"y":23.698897243553819}},{"attributes":{"OBJECTID":17574,"LANDMARKID":"1000800000367","LANDMARKCO":"203","LANDMARKNA":"縣立前山國小","LANDMARKAD":"1000804","ADDRESS":"南投縣竹山鎮自強路100號","TEL":"049-2660662","COUNTYNAME":"南投縣","TOWNNAME":"竹山鎮","MARKTYPE":"992","Class":"2"},"geometry":{"x":120.67734386663098,"y":23.751131869129178}},{"attributes":{"OBJECTID":17575,"LANDMARKID":"1000800000368","LANDMARKCO":"203","LANDMARKNA":"縣立秀林國小","LANDMARKAD":"1000804","ADDRESS":"南投縣竹山鎮頂林路456號","TEL":"049-2647285","COUNTYNAME":"南投縣","TOWNNAME":"竹山鎮","MARKTYPE":"992","Class":"2"},"geometry":{"x":120.68855053469754,"y":23.733131889594162}},{"attributes":{"OBJECTID":17576,"LANDMARKID":"1000800000369","LANDMARKCO":"203","LANDMARKNA":"縣立社寮國小","LANDMARKAD":"1000804","ADDRESS":"南投縣竹山鎮集山路一段1723號","TEL":"049-2622020","COUNTYNAME":"南投縣","TOWNNAME":"竹山鎮","MARKTYPE":"992","Class":"2"},"geometry":{"x":120.72120337533252,"y":23.80987014723695}},{"attributes":{"OBJECTID":17577,"LANDMARKID":"1000800000370","LANDMARKCO":"203","LANDMARKNA":"縣立中州國小","LANDMARKAD":"1000804","ADDRESS":"南投縣竹山鎮集山路一段955號","TEL":"049-2622030","COUNTYNAME":"南投縣","TOWNNAME":"竹山鎮","MARKTYPE":"992","Class":"2"},"geometry":{"x":120.73806527416636,"y":23.811800288915506}},{"attributes":{"OBJECTID":17578,"LANDMARKID":"1000800000371","LANDMARKCO":"203","LANDMARKNA":"縣立延平國小","LANDMARKAD":"1000804","ADDRESS":"南投縣竹山鎮集山路二段1161號","TEL":"049-2642450","COUNTYNAME":"南投縣","TOWNNAME":"竹山鎮","MARKTYPE":"992","Class":"2"},"geometry":{"x":120.7070937389159,"y":23.7679698819822}},{"attributes":{"OBJECTID":17579,"LANDMARKID":"1000800000372","LANDMARKCO":"203","LANDMARKNA":"縣立中和國小","LANDMARKAD":"1000804","ADDRESS":"南投縣竹山鎮集山路三段1394號","TEL":"049-2642424","COUNTYNAME":"南投縣","TOWNNAME":"竹山鎮","MARKTYPE":"992","Class":"2"},"geometry":{"x":120.66821119553424,"y":23.757710282399952}},{"attributes":{"OBJECTID":17580,"LANDMARKID":"1000800000373","LANDMARKCO":"203","LANDMARKNA":"縣立桶頭國小","LANDMARKAD":"1000804","ADDRESS":"南投縣竹山鎮鯉南路312之1號","TEL":"049-2711034","COUNTYNAME":"南投縣","TOWNNAME":"竹山鎮","MARKTYPE":"992","Class":"2"},"geometry":{"x":120.65644278131929,"y":23.645928924687691}},{"attributes":{"OBJECTID":17581,"LANDMARKID":"1000800000374","LANDMARKCO":"203","LANDMARKNA":"縣立延平國小延山分校","LANDMARKAD":"1000804","ADDRESS":"南投縣竹山鎮延平里集山路2段1161號","TEL":"049-2642450","COUNTYNAME":"南投縣","TOWNNAME":"竹山鎮","MARKTYPE":"992","Class":"2"},"geometry":{"x":120.7070937389159,"y":23.7679698819822}},{"attributes":{"OBJECTID":17582,"LANDMARKID":"1000800000375","LANDMARKCO":"203","LANDMARKNA":"縣立社寮國中","LANDMARKAD":"1000804","ADDRESS":"南投縣竹山鎮山崇里集山路1729號","TEL":"049-2622010","COUNTYNAME":"南投縣","TOWNNAME":"竹山鎮","MARKTYPE":"992","Class":"2"},"geometry":{"x":120.72036959031065,"y":23.808561545005176}},{"attributes":{"OBJECTID":17583,"LANDMARKID":"1000800000571","LANDMARKCO":"308","LANDMARKNA":"國3-竹山交流道-北上","LANDMARKAD":"1000804","ADDRESS":"南投縣竹山鎮","TEL":" ","COUNTYNAME":"南投縣","TOWNNAME":"竹山鎮","MARKTYPE":"993","Class":"308"},"geometry":{"x":120.70197093500026,"y":23.797071927749297}},{"attributes":{"OBJECTID":17584,"LANDMARKID":"1000800000572","LANDMARKCO":"308","LANDMARKNA":"國3-竹山交流道-南下","LANDMARKAD":"1000804","ADDRESS":"南投縣竹山鎮","TEL":" ","COUNTYNAME":"南投縣","TOWNNAME":"竹山鎮","MARKTYPE":"993","Class":"308"},"geometry":{"x":120.70069911966431,"y":23.797474254784742}},{"attributes":{"OBJECTID":17585,"LANDMARKID":"1000800000485","LANDMARKCO":"302","LANDMARKNA":"統聯客運-竹山站-自營站","LANDMARKAD":"1000804","ADDRESS":"南投縣竹山鎮大明路269號","TEL":"連絡電話:049-26","COUNTYNAME":"南投縣","TOWNNAME":"竹山鎮","MARKTYPE":"993","Class":"302"},"geometry":{"x":120.68284534585868,"y":23.759600269772186}},{"attributes":{"OBJECTID":17586,"LANDMARKID":"1000800000486","LANDMARKCO":"302","LANDMARKNA":"台西汽車客運竹山站","LANDMARKAD":"1000804","ADDRESS":"南投縣竹山鎮菜圓路27號","TEL":" ","COUNTYNAME":"南投縣","TOWNNAME":"竹山鎮","MARKTYPE":"993","Class":"302"},"geometry":{"x":120.68347235281851,"y":23.753535005689539}},{"attributes":{"OBJECTID":17587,"LANDMARKID":"1000800000546","LANDMARKCO":"303","LANDMARKNA":"杉林溪森林遊樂區大型車停車場","LANDMARKAD":"1000804","ADDRESS":"南投縣竹山鎮溪山路","TEL":"049-2611217","COUNTYNAME":"南投縣","TOWNNAME":"竹山鎮","MARKTYPE":"993","Class":"303"},"geometry":{"x":120.79034311899076,"y":23.640070060997207}},{"attributes":{"OBJECTID":17588,"LANDMARKID":"1000800000547","LANDMARKCO":"303","LANDMARKNA":"杉林溪森林遊樂區停車場","LANDMARKAD":"1000804","ADDRESS":"南投縣竹山鎮溪山路","TEL":"049-2611217","COUNTYNAME":"南投縣","TOWNNAME":"竹山鎮","MARKTYPE":"993","Class":"303"},"geometry":{"x":120.79146089292499,"y":23.639587567565311}},{"attributes":{"OBJECTID":17589,"LANDMARKID":"1000800000601","LANDMARKCO":"402","LANDMARKNA":"中華電信-竹山服務中心","LANDMARKAD":"1000804","ADDRESS":"南投縣竹山鎮竹山路138號","TEL":"(049)264-3205","COUNTYNAME":"南投縣","TOWNNAME":"竹山鎮","MARKTYPE":"994","Class":"4"},"geometry":{"x":120.68258495739053,"y":23.754438908719074}},{"attributes":{"OBJECTID":17590,"LANDMARKID":"1000800000602","LANDMARKCO":"402","LANDMARKNA":"中華電信-社寮服務中心","LANDMARKAD":"1000804","ADDRESS":"南投縣竹山鎮集山路一段1814號","TEL":"(049)262-2801","COUNTYNAME":"南投縣","TOWNNAME":"竹山鎮","MARKTYPE":"994","Class":"4"},"geometry":{"x":120.72265012280914,"y":23.81140911662413}},{"attributes":{"OBJECTID":17591,"LANDMARKID":"1000800000603","LANDMARKCO":"402","LANDMARKNA":"威寶電信-竹山集山特約服務中心","LANDMARKAD":"1000804","ADDRESS":"南投縣竹山鎮集山路三段828號","TEL":"049-2659526","COUNTYNAME":"南投縣","TOWNNAME":"竹山鎮","MARKTYPE":"994","Class":"4"},"geometry":{"x":120.68637220364919,"y":23.759165555950904}},{"attributes":{"OBJECTID":17592,"LANDMARKID":"1000800001311","LANDMARKCO":"604","LANDMARKNA":"天空的院子","LANDMARKAD":"1000804","ADDRESS":"南投縣竹山鎮大鞍里頂林路562-1號","TEL":"049-2841037","COUNTYNAME":"南投縣","TOWNNAME":"竹山鎮","MARKTYPE":"996","Class":"6"},"geometry":{"x":120.71306330139595,"y":23.697541701612369}},{"attributes":{"OBJECTID":17593,"LANDMARKID":"1000800001312","LANDMARKCO":"604","LANDMARKNA":"圓山林民宿","LANDMARKAD":"1000804","ADDRESS":"南投縣竹山鎮大鞍里頂林街576-6號","TEL":"049-2841039","COUNTYNAME":"南投縣","TOWNNAME":"竹山鎮","MARKTYPE":"996","Class":"6"},"geometry":{"x":120.72395223456898,"y":23.68885416524548}},{"attributes":{"OBJECTID":17594,"LANDMARKID":"1000800001026","LANDMARKCO":"603","LANDMARKNA":"麗堡汽車旅館","LANDMARKAD":"1000804","ADDRESS":"南投縣竹山鎮延平里籐湖巷1弄3號及5號","TEL":"049-2636366","COUNTYNAME":"南投縣","TOWNNAME":"竹山鎮","MARKTYPE":"996","Class":"6"},"geometry":{"x":120.71221578891522,"y":23.780879803158953}},{"attributes":{"OBJECTID":17595,"LANDMARKID":"1000800001027","LANDMARKCO":"603","LANDMARKNA":"信安商務旅館","LANDMARKAD":"1000804","ADDRESS":"南投縣竹山鎮菜園路41號","TEL":"049-2642123","COUNTYNAME":"南投縣","TOWNNAME":"竹山鎮","MARKTYPE":"996","Class":"6"},"geometry":{"x":120.68324756940362,"y":23.753339989605823}},{"attributes":{"OBJECTID":17596,"LANDMARKID":"1000800001028","LANDMARKCO":"603","LANDMARKNA":"阿生大旅社","LANDMARKAD":"1000804","ADDRESS":"南投縣竹山鎮中山里橫街8號","TEL":"049-2642271","COUNTYNAME":"南投縣","TOWNNAME":"竹山鎮","MARKTYPE":"996","Class":"6"},"geometry":{"x":120.68496251006128,"y":23.753720536178353}},{"attributes":{"OBJECTID":17597,"LANDMARKID":"1000800001029","LANDMARKCO":"603","LANDMARKNA":"民生大旅社","LANDMARKAD":"1000804","ADDRESS":"南投縣竹山鎮中正里竹山路125號","TEL":"049-2642121","COUNTYNAME":"南投縣","TOWNNAME":"竹山鎮","MARKTYPE":"996","Class":"6"},"geometry":{"x":120.68414095440076,"y":23.755234191375887}},{"attributes":{"OBJECTID":17598,"LANDMARKID":"1000800001030","LANDMARKCO":"603","LANDMARKNA":"永和旅社","LANDMARKAD":"1000804","ADDRESS":"南投縣竹山鎮中正里橫街38號","TEL":"049-2643352","COUNTYNAME":"南投縣","TOWNNAME":"竹山鎮","MARKTYPE":"996","Class":"6"},"geometry":{"x":120.68414413495994,"y":23.754575028103563}},{"attributes":{"OBJECTID":17599,"LANDMARKID":"1000800001031","LANDMARKCO":"603","LANDMARKNA":"成都旅社","LANDMARKAD":"1000804","ADDRESS":"南投縣竹山鎮竹山里竹山路40號","TEL":"049-2643016","COUNTYNAME":"南投縣","TOWNNAME":"竹山鎮","MARKTYPE":"996","Class":"6"},"geometry":{"x":120.68508377693641,"y":23.756411902149122}},{"attributes":{"OBJECTID":17600,"LANDMARKID":"1000800001032","LANDMARKCO":"603","LANDMARKNA":"杉林溪大飯店","LANDMARKAD":"1000804","ADDRESS":"南投縣竹山鎮大鞍里溪山路6號","TEL":"049-2611211-3","COUNTYNAME":"南投縣","TOWNNAME":"竹山鎮","MARKTYPE":"996","Class":"6"},"geometry":{"x":120.79207511946359,"y":23.639670846574649}}]}