{"displayFieldName":"COUNTYNAME","fieldAliases":{"OBJECTID":"OBJECTID","LANDMARKID":"LANDMARKID","LANDMARKCO":"LANDMARKCO","LANDMARKNA":"LANDMARKNA","LANDMARKAD":"LANDMARKAD","ADDRESS":"ADDRESS","TEL":"TEL","COUNTYNAME":"COUNTYNAME","TOWNNAME":"TOWNNAME","MARKTYPE":"MARKTYPE","Class":"Class"},"geometryType":"esriGeometryPoint","spatialReference":{"wkid":4326},"fields":[{"name":"OBJECTID","type":"esriFieldTypeOID","alias":"OBJECTID"},{"name":"LANDMARKID","type":"esriFieldTypeString","alias":"LANDMARKID","length":15},{"name":"LANDMARKCO","type":"esriFieldTypeString","alias":"LANDMARKCO","length":15},{"name":"LANDMARKNA","type":"esriFieldTypeString","alias":"LANDMARKNA","length":50},{"name":"LANDMARKAD","type":"esriFieldTypeString","alias":"LANDMARKAD","length":15},{"name":"ADDRESS","type":"esriFieldTypeString","alias":"ADDRESS","length":56},{"name":"TEL","type":"esriFieldTypeString","alias":"TEL","length":36},{"name":"COUNTYNAME","type":"esriFieldTypeString","alias":"COUNTYNAME","length":15},{"name":"TOWNNAME","type":"esriFieldTypeString","alias":"TOWNNAME","length":13},{"name":"MARKTYPE","type":"esriFieldTypeString","alias":"MARKTYPE","length":12},{"name":"Class","type":"esriFieldTypeString","alias":"Class","length":5}],"features":[{"attributes":{"OBJECTID":17001,"LANDMARKID":"1000800000573","LANDMARKCO":"308","LANDMARKNA":"國3-南投交流道-南下","LANDMARKAD":"1000801","ADDRESS":"南投縣草屯鎮","TEL":" ","COUNTYNAME":"南投縣","TOWNNAME":"南投市","MARKTYPE":"993","Class":"308"},"geometry":{"x":120.67050772101796,"y":23.94501754575991}},{"attributes":{"OBJECTID":17002,"LANDMARKID":"1000800000574","LANDMARKCO":"308","LANDMARKNA":"南投服務區","LANDMARKAD":"1000801","ADDRESS":" ","TEL":" ","COUNTYNAME":"南投縣","TOWNNAME":"南投市","MARKTYPE":"993","Class":"308"},"geometry":{"x":120.70907158075696,"y":23.899742679063042}},{"attributes":{"OBJECTID":17003,"LANDMARKID":"1000800000487","LANDMARKCO":"302","LANDMARKNA":"統聯客運-南投站-代售處","LANDMARKAD":"1000801","ADDRESS":"南投縣南投市中興路557號","TEL":"連絡電話:049-22","COUNTYNAME":"南投縣","TOWNNAME":"南投市","MARKTYPE":"993","Class":"302"},"geometry":{"x":120.69069223468449,"y":23.906232931241508}},{"attributes":{"OBJECTID":17004,"LANDMARKID":"1000800000488","LANDMARKCO":"302","LANDMARKNA":"彰化汽車客運中興站","LANDMARKAD":"1000801","ADDRESS":"南投縣南投市虎山路2號","TEL":" ","COUNTYNAME":"南投縣","TOWNNAME":"南投市","MARKTYPE":"993","Class":"302"},"geometry":{"x":120.68560769847737,"y":23.957048590667071}},{"attributes":{"OBJECTID":17005,"LANDMARKID":"1000800000489","LANDMARKCO":"302","LANDMARKNA":"國光汽車客運中興站","LANDMARKAD":"1000801","ADDRESS":"南投縣南投市省府路36號","TEL":" ","COUNTYNAME":"南投縣","TOWNNAME":"南投市","MARKTYPE":"993","Class":"302"},"geometry":{"x":120.68503171197754,"y":23.956240832332025}},{"attributes":{"OBJECTID":17006,"LANDMARKID":"1000800000490","LANDMARKCO":"302","LANDMARKNA":"國光汽車客運南投站","LANDMARKAD":"1000801","ADDRESS":"南投縣南投市南投縣南投市復興路100號","TEL":" ","COUNTYNAME":"南投縣","TOWNNAME":"南投市","MARKTYPE":"993","Class":"302"},"geometry":{"x":120.68783760878803,"y":23.905144411512126}},{"attributes":{"OBJECTID":17007,"LANDMARKID":"1000800000523","LANDMARKCO":"303","LANDMARKNA":"中興立體停車場","LANDMARKAD":"1000801","ADDRESS":"南投縣南投市虎山路3號","TEL":" ","COUNTYNAME":"南投縣","TOWNNAME":"南投市","MARKTYPE":"993","Class":"303"},"geometry":{"x":120.68501831920469,"y":23.957482556711849}},{"attributes":{"OBJECTID":17008,"LANDMARKID":"1000800000524","LANDMARKCO":"303","LANDMARKNA":"停車場市公所旁停車場","LANDMARKAD":"1000801","ADDRESS":"南投縣南投市玉井街","TEL":" ","COUNTYNAME":"南投縣","TOWNNAME":"南投市","MARKTYPE":"993","Class":"303"},"geometry":{"x":120.68813061403823,"y":23.911844012234813}},{"attributes":{"OBJECTID":17009,"LANDMARKID":"1000800000525","LANDMARKCO":"303","LANDMARKNA":"南投縣政府地下停車場","LANDMARKAD":"1000801","ADDRESS":"南投縣南投市中興路660號","TEL":" ","COUNTYNAME":"南投縣","TOWNNAME":"南投市","MARKTYPE":"993","Class":"303"},"geometry":{"x":120.6907610247235,"y":23.903020275981955}},{"attributes":{"OBJECTID":17010,"LANDMARKID":"1000800000526","LANDMARKCO":"303","LANDMARKNA":"南投醫院停車場","LANDMARKAD":"1000801","ADDRESS":"南投縣南投市復興路","TEL":" ","COUNTYNAME":"南投縣","TOWNNAME":"南投市","MARKTYPE":"993","Class":"303"},"geometry":{"x":120.68578332746894,"y":23.913840047585623}},{"attributes":{"OBJECTID":17011,"LANDMARKID":"1000800000527","LANDMARKCO":"303","LANDMARKNA":"南投醫院急診處停車場","LANDMARKAD":"1000801","ADDRESS":"南投縣南投市復興路","TEL":" ","COUNTYNAME":"南投縣","TOWNNAME":"南投市","MARKTYPE":"993","Class":"303"},"geometry":{"x":120.68427386874077,"y":23.913660928033913}},{"attributes":{"OBJECTID":17012,"LANDMARKID":"1000800000528","LANDMARKCO":"303","LANDMARKNA":"南投觀光藝文館停車場","LANDMARKAD":"1000801","ADDRESS":"南投縣南投市三和一路、公園南街","TEL":" ","COUNTYNAME":"南投縣","TOWNNAME":"南投市","MARKTYPE":"993","Class":"303"},"geometry":{"x":120.6897656816098,"y":23.903095370764635}},{"attributes":{"OBJECTID":17013,"LANDMARKID":"1000800000529","LANDMARKCO":"303","LANDMARKNA":"公用停車場","LANDMARKAD":"1000801","ADDRESS":"南投縣南投市","TEL":" ","COUNTYNAME":"南投縣","TOWNNAME":"南投市","MARKTYPE":"993","Class":"303"},"geometry":{"x":120.70244484076494,"y":23.939723026398045}},{"attributes":{"OBJECTID":17014,"LANDMARKID":"1000800000530","LANDMARKCO":"303","LANDMARKNA":"南投縣文化局停車場","LANDMARKAD":"1000801","ADDRESS":"南投縣南投市","TEL":" ","COUNTYNAME":"南投縣","TOWNNAME":"南投市","MARKTYPE":"993","Class":"303"},"geometry":{"x":120.68186933225424,"y":23.907704537702053}},{"attributes":{"OBJECTID":17015,"LANDMARKID":"1000800000609","LANDMARKCO":"402","LANDMARKNA":"中華電信-南投三和特約服務中心","LANDMARKAD":"1000801","ADDRESS":"南投市三和三路37號","TEL":"049-2206919","COUNTYNAME":"南投縣","TOWNNAME":"南投市","MARKTYPE":"994","Class":"4"},"geometry":{"x":120.68705152012707,"y":23.905053988860608}},{"attributes":{"OBJECTID":17016,"LANDMARKID":"1000800000610","LANDMARKCO":"402","LANDMARKNA":"中華電信-南投營運處(南投服務中心)","LANDMARKAD":"1000801","ADDRESS":"南投市民族路160號","TEL":"(049)223-6837","COUNTYNAME":"南投縣","TOWNNAME":"南投市","MARKTYPE":"994","Class":"4"},"geometry":{"x":120.68996018791337,"y":23.909931236081377}},{"attributes":{"OBJECTID":17017,"LANDMARKID":"1000800000611","LANDMARKCO":"402","LANDMARKNA":"中華電信-南崗服務中心","LANDMARKAD":"1000801","ADDRESS":"南投縣南投市南崗三路26號","TEL":"(049)226-1410","COUNTYNAME":"南投縣","TOWNNAME":"南投市","MARKTYPE":"994","Class":"4"},"geometry":{"x":120.67084489839907,"y":23.925829078574591}},{"attributes":{"OBJECTID":17018,"LANDMARKID":"1000800000612","LANDMARKCO":"402","LANDMARKNA":"威寶電信-南投復興特約服務中心","LANDMARKAD":"1000801","ADDRESS":"南投縣南投市復興路201號","TEL":"049-2248211","COUNTYNAME":"南投縣","TOWNNAME":"南投市","MARKTYPE":"994","Class":"4"},"geometry":{"x":120.68691121330632,"y":23.9075427036517}},{"attributes":{"OBJECTID":17019,"LANDMARKID":"1000800000974","LANDMARKCO":"603","LANDMARKNA":"南僑旅社","LANDMARKAD":"1000801","ADDRESS":"南投縣南投市中興路392-5號","TEL":"049-2234318","COUNTYNAME":"南投縣","TOWNNAME":"南投市","MARKTYPE":"996","Class":"6"},"geometry":{"x":120.69728930297765,"y":23.916334205258583}},{"attributes":{"OBJECTID":17020,"LANDMARKID":"1000800000975","LANDMARKCO":"603","LANDMARKNA":"綠園汽車旅館","LANDMARKAD":"1000801","ADDRESS":"南投縣南投市文化路46號","TEL":"049-2200169","COUNTYNAME":"南投縣","TOWNNAME":"南投市","MARKTYPE":"996","Class":"6"},"geometry":{"x":120.67943188021356,"y":23.904448528938005}},{"attributes":{"OBJECTID":17021,"LANDMARKID":"1000800000976","LANDMARKCO":"603","LANDMARKNA":"新生大旅社","LANDMARKAD":"1000801","ADDRESS":"南投縣南投市民族路213號","TEL":"049-2222506","COUNTYNAME":"南投縣","TOWNNAME":"南投市","MARKTYPE":"996","Class":"6"},"geometry":{"x":120.68821816288143,"y":23.909099358709131}},{"attributes":{"OBJECTID":17022,"LANDMARKID":"1000800000977","LANDMARKCO":"603","LANDMARKNA":"富邦大飯店","LANDMARKAD":"1000801","ADDRESS":"南投縣南投市民族路232號","TEL":"049-2222158","COUNTYNAME":"南投縣","TOWNNAME":"南投市","MARKTYPE":"996","Class":"6"},"geometry":{"x":120.68792294881554,"y":23.909187760064416}},{"attributes":{"OBJECTID":17023,"LANDMARKID":"1000800000978","LANDMARKCO":"603","LANDMARKNA":"南投大飯店","LANDMARKAD":"1000801","ADDRESS":"南投縣南投市三和一路6號","TEL":"049-2229161","COUNTYNAME":"南投縣","TOWNNAME":"南投市","MARKTYPE":"996","Class":"6"},"geometry":{"x":120.69043696509129,"y":23.903212196617005}},{"attributes":{"OBJECTID":17024,"LANDMARKID":"1000800000979","LANDMARKCO":"603","LANDMARKNA":"海隆大旅社","LANDMARKAD":"1000801","ADDRESS":"南投縣南投市三和二路36","TEL":"38","COUNTYNAME":"南投縣","TOWNNAME":"南投市","MARKTYPE":"996","Class":"6"},"geometry":{"x":120.6873258340446,"y":23.904925546345968}},{"attributes":{"OBJECTID":17025,"LANDMARKID":"1000800000919","LANDMARKCO":"510","LANDMARKNA":"南峰高爾夫球場","LANDMARKAD":"1000801","ADDRESS":"南投市鳳山路336-1號","TEL":"049-2254868","COUNTYNAME":"南投縣","TOWNNAME":"南投市","MARKTYPE":"995","Class":"5"},"geometry":{"x":120.64801465546707,"y":23.945308924318677}},{"attributes":{"OBJECTID":17026,"LANDMARKID":"1000800000920","LANDMARKCO":"510","LANDMARKNA":"省政府高爾夫研習會球場","LANDMARKAD":"1000801","ADDRESS":"南投縣中興新村光明一路351號","TEL":"049-2332820","COUNTYNAME":"南投縣","TOWNNAME":"南投市","MARKTYPE":"995","Class":"5"},"geometry":{"x":120.70209582423513,"y":23.938802184715069}},{"attributes":{"OBJECTID":17027,"LANDMARKID":"1000800000921","LANDMARKCO":"510","LANDMARKNA":"省政府員工高爾夫球場","LANDMARKAD":"1000801","ADDRESS":"南投縣中興新村光明一路351號","TEL":"049-2332820","COUNTYNAME":"南投縣","TOWNNAME":"南投市","MARKTYPE":"995","Class":"5"},"geometry":{"x":120.70236682668877,"y":23.938836465213498}},{"attributes":{"OBJECTID":17028,"LANDMARKID":"1000800000673","LANDMARKCO":"405","LANDMARKNA":"中油加油站-中寮站(中油直營)","LANDMARKAD":"1000808","ADDRESS":"南投縣中寮鄉永平村永平路349-13號","TEL":"049-2691730","COUNTYNAME":"南投縣","TOWNNAME":"中寮鄉","MARKTYPE":"994","Class":"4"},"geometry":{"x":120.76178486526685,"y":23.880037099416324}},{"attributes":{"OBJECTID":17029,"LANDMARKID":"1000800000793","LANDMARKCO":"408","LANDMARKNA":"郵局-中寮郵局","LANDMARKAD":"1000808","ADDRESS":"南投縣中寮鄉永平路133號","TEL":"(049)2691-082","COUNTYNAME":"南投縣","TOWNNAME":"中寮鄉","MARKTYPE":"994","Class":"4"},"geometry":{"x":120.76805809447079,"y":23.878286174927599}},{"attributes":{"OBJECTID":17030,"LANDMARKID":"1000800000794","LANDMARKCO":"408","LANDMARKNA":"郵局-中寮龍安郵局","LANDMARKAD":"1000808","ADDRESS":"南投縣中寮鄉龍南路45-12號","TEL":"(049)2601-519","COUNTYNAME":"南投縣","TOWNNAME":"中寮鄉","MARKTYPE":"994","Class":"4"},"geometry":{"x":120.77805388634225,"y":23.941733471324895}},{"attributes":{"OBJECTID":17031,"LANDMARKID":"1000800000798","LANDMARKCO":"409","LANDMARKNA":"南投縣中寮鄉農會","LANDMARKAD":"1000808","ADDRESS":"南投縣中寮鄉永平村永平路186號","TEL":"049-2691111-3","COUNTYNAME":"南投縣","TOWNNAME":"中寮鄉","MARKTYPE":"994","Class":"4"},"geometry":{"x":120.76801316966286,"y":23.878783302576942}},{"attributes":{"OBJECTID":17032,"LANDMARKID":"1000800000062","LANDMARKCO":"103","LANDMARKNA":"南投縣中寮鄉民代表會","LANDMARKAD":"1000808","ADDRESS":"南投縣中寮鄉永平村永平路270號","TEL":"049-2691050","COUNTYNAME":"南投縣","TOWNNAME":"中寮鄉","MARKTYPE":"991","Class":"1"},"geometry":{"x":120.76629101578362,"y":23.878800792875776}},{"attributes":{"OBJECTID":17033,"LANDMARKID":"1000800000063","LANDMARKCO":"103","LANDMARKNA":"南投縣中寮鄉衛生所","LANDMARKAD":"1000808","ADDRESS":"南投縣中寮鄉永平村永昌街102號","TEL":"049-2691404","COUNTYNAME":"南投縣","TOWNNAME":"中寮鄉","MARKTYPE":"991","Class":"1"},"geometry":{"x":120.76556221255554,"y":23.880785101853064}},{"attributes":{"OBJECTID":17034,"LANDMARKID":"1000800000201","LANDMARKCO":"107","LANDMARKNA":"南投縣消防局中寮消防分隊","LANDMARKAD":"1000808","ADDRESS":"南投縣中寮鄉永平村永平路280號","TEL":"049-2691570","COUNTYNAME":"南投縣","TOWNNAME":"中寮鄉","MARKTYPE":"991","Class":"1"},"geometry":{"x":120.76412776119608,"y":23.879606865577049}},{"attributes":{"OBJECTID":17035,"LANDMARKID":"1000800000202","LANDMARKCO":"107","LANDMARKNA":"南投縣政府警察局爽文派出所","LANDMARKAD":"1000808","ADDRESS":"南投縣中寮鄉爽文村龍南路189之1號","TEL":"049-2601049","COUNTYNAME":"南投縣","TOWNNAME":"中寮鄉","MARKTYPE":"991","Class":"1"},"geometry":{"x":120.76025627357963,"y":23.934684296994337}},{"attributes":{"OBJECTID":17036,"LANDMARKID":"1000800000203","LANDMARKCO":"107","LANDMARKNA":"南投縣警察局中寮分駐所","LANDMARKAD":"1000808","ADDRESS":"南投縣中寮鄉永平村永平路282號","TEL":"049-2691330","COUNTYNAME":"南投縣","TOWNNAME":"中寮鄉","MARKTYPE":"991","Class":"1"},"geometry":{"x":120.76590447914553,"y":23.879792884866436}},{"attributes":{"OBJECTID":17037,"LANDMARKID":"1000800000104","LANDMARKCO":"106","LANDMARKNA":"南投縣中寮鄉戶政事務所","LANDMARKAD":"1000808","ADDRESS":"南投縣中寮鄉永平村14鄰永平路282號","TEL":"049-2691841","COUNTYNAME":"南投縣","TOWNNAME":"中寮鄉","MARKTYPE":"991","Class":"1"},"geometry":{"x":120.76592704209341,"y":23.878980280574588}},{"attributes":{"OBJECTID":17038,"LANDMARKID":"1000800000236","LANDMARKCO":"108","LANDMARKNA":"南投縣中寮鄉公所","LANDMARKAD":"1000808","ADDRESS":"南投縣中寮鄉永平村270號","TEL":"049-2692301","COUNTYNAME":"南投縣","TOWNNAME":"中寮鄉","MARKTYPE":"991","Class":"1"},"geometry":{"x":120.76662455811048,"y":23.878892102219069}},{"attributes":{"OBJECTID":17039,"LANDMARKID":"1000800000191","LANDMARKCO":"107","LANDMARKNA":"南投縣消防局爽文消防分隊","LANDMARKAD":"1000808","ADDRESS":"南投市中寮鄉爽文村龍南路193之10號","TEL":"049-2602932","COUNTYNAME":"南投縣","TOWNNAME":"中寮鄉","MARKTYPE":"991","Class":"1"},"geometry":{"x":120.75922678138625,"y":23.934139300226867}},{"attributes":{"OBJECTID":17040,"LANDMARKID":"1000800000453","LANDMARKCO":"204","LANDMARKNA":"南投縣立圖書館中寮分館","LANDMARKAD":"1000808","ADDRESS":"南投縣中寮鄉永平村永安街105號","TEL":" ","COUNTYNAME":"南投縣","TOWNNAME":"中寮鄉","MARKTYPE":"992","Class":"2"},"geometry":{"x":120.76589814795722,"y":23.87982752749285}},{"attributes":{"OBJECTID":17041,"LANDMARKID":"1000800000396","LANDMARKCO":"203","LANDMARKNA":"縣立廣英國小","LANDMARKAD":"1000808","ADDRESS":"南投縣中寮鄉廣興村永平路53號之1","TEL":"049-2691946","COUNTYNAME":"南投縣","TOWNNAME":"中寮鄉","MARKTYPE":"992","Class":"2"},"geometry":{"x":120.78965039637022,"y":23.866280602530566}},{"attributes":{"OBJECTID":17042,"LANDMARKID":"1000800000397","LANDMARKCO":"203","LANDMARKNA":"縣立中寮國小","LANDMARKAD":"1000808","ADDRESS":"南投縣中寮鄉永平村永平路316號","TEL":"049-2691322","COUNTYNAME":"南投縣","TOWNNAME":"中寮鄉","MARKTYPE":"992","Class":"2"},"geometry":{"x":120.76422497642253,"y":23.879878054453041}},{"attributes":{"OBJECTID":17043,"LANDMARKID":"1000800000398","LANDMARKCO":"203","LANDMARKNA":"縣立至誠國小","LANDMARKAD":"1000808","ADDRESS":"南投縣中寮鄉永平路489之1號","TEL":"049-2227215","COUNTYNAME":"南投縣","TOWNNAME":"中寮鄉","MARKTYPE":"992","Class":"2"},"geometry":{"x":120.72105672499896,"y":23.893462929266949}},{"attributes":{"OBJECTID":17044,"LANDMARKID":"1000800000399","LANDMARKCO":"203","LANDMARKNA":"縣立和興國小","LANDMARKAD":"1000808","ADDRESS":"南投縣中寮鄉永樂路154之1號","TEL":"049-2692474","COUNTYNAME":"南投縣","TOWNNAME":"中寮鄉","MARKTYPE":"992","Class":"2"},"geometry":{"x":120.8131370419419,"y":23.909022701049917}},{"attributes":{"OBJECTID":17045,"LANDMARKID":"1000800000400","LANDMARKCO":"203","LANDMARKNA":"縣立永樂國小","LANDMARKAD":"1000808","ADDRESS":"南投縣中寮鄉福盛村永樂路88號","TEL":"049-2691473","COUNTYNAME":"南投縣","TOWNNAME":"中寮鄉","MARKTYPE":"992","Class":"2"},"geometry":{"x":120.79854257472513,"y":23.883539883300966}},{"attributes":{"OBJECTID":17046,"LANDMARKID":"1000800000401","LANDMARKCO":"203","LANDMARKNA":"縣立爽文國小","LANDMARKAD":"1000808","ADDRESS":"南投縣中寮鄉爽文村龍南路159號","TEL":"049-2601003","COUNTYNAME":"南投縣","TOWNNAME":"中寮鄉","MARKTYPE":"992","Class":"2"},"geometry":{"x":120.76201454201096,"y":23.936130152175462}},{"attributes":{"OBJECTID":17047,"LANDMARKID":"1000800000402","LANDMARKCO":"203","LANDMARKNA":"縣立永和國小","LANDMARKAD":"1000808","ADDRESS":"南投縣中寮鄉龍南路321之1號","TEL":"049-2601268","COUNTYNAME":"南投縣","TOWNNAME":"中寮鄉","MARKTYPE":"992","Class":"2"},"geometry":{"x":120.73205431959178,"y":23.925156234439672}},{"attributes":{"OBJECTID":17048,"LANDMARKID":"1000800000403","LANDMARKCO":"203","LANDMARKNA":"縣立爽文國中","LANDMARKAD":"1000808","ADDRESS":"南投縣中寮鄉爽文村4鄰竹坪巷40號","TEL":"049-2601030","COUNTYNAME":"南投縣","TOWNNAME":"中寮鄉","MARKTYPE":"992","Class":"2"},"geometry":{"x":120.76211629414985,"y":23.933782772096848}},{"attributes":{"OBJECTID":17049,"LANDMARKID":"1000800000404","LANDMARKCO":"203","LANDMARKNA":"縣立中寮國中","LANDMARKAD":"1000808","ADDRESS":"南投縣中寮鄉復興村初中巷50號","TEL":"049-2691247","COUNTYNAME":"南投縣","TOWNNAME":"中寮鄉","MARKTYPE":"992","Class":"2"},"geometry":{"x":120.76685304083219,"y":23.883674280300536}},{"attributes":{"OBJECTID":17050,"LANDMARKID":"1000800000405","LANDMARKCO":"203","LANDMARKNA":"縣立廣福國小","LANDMARKAD":"1000808","ADDRESS":"南投縣中寮鄉廣福村內城巷3之2號","TEL":"049-2691464","COUNTYNAME":"南投縣","TOWNNAME":"中寮鄉","MARKTYPE":"992","Class":"2"},"geometry":{"x":120.75938758785232,"y":23.8991951661062}},{"attributes":{"OBJECTID":17051,"LANDMARKID":"1000800000406","LANDMARKCO":"203","LANDMARKNA":"縣立永康國小","LANDMARKAD":"1000808","ADDRESS":"南投縣中寮鄉永福村仙峰巷44號","TEL":"049-2691455","COUNTYNAME":"南投縣","TOWNNAME":"中寮鄉","MARKTYPE":"992","Class":"2"},"geometry":{"x":120.7399174445064,"y":23.885980293480792}},{"attributes":{"OBJECTID":17052,"LANDMARKID":"1000800000407","LANDMARKCO":"203","LANDMARKNA":"縣立清水國小","LANDMARKAD":"1000808","ADDRESS":"南投縣中寮鄉清水村瀧林巷3號","TEL":"049-2601079","COUNTYNAME":"南投縣","TOWNNAME":"中寮鄉","MARKTYPE":"992","Class":"2"},"geometry":{"x":120.79080307105276,"y":23.945022280612079}},{"attributes":{"OBJECTID":17053,"LANDMARKID":"1000800000545","LANDMARKCO":"303","LANDMARKNA":"和興有機文化村停車場","LANDMARKAD":"1000808","ADDRESS":"南投縣中寮鄉永樂路143之9號","TEL":"049-2694755","COUNTYNAME":"南投縣","TOWNNAME":"中寮鄉","MARKTYPE":"993","Class":"303"},"geometry":{"x":120.80638924273568,"y":23.907422580115345}},{"attributes":{"OBJECTID":17054,"LANDMARKID":"1000800000613","LANDMARKCO":"402","LANDMARKNA":"中華電信-中寮服務中心","LANDMARKAD":"1000808","ADDRESS":"南投縣中寮鄉永平路354-26號","TEL":"(049)269-4981","COUNTYNAME":"南投縣","TOWNNAME":"中寮鄉","MARKTYPE":"994","Class":"4"},"geometry":{"x":120.75965955766581,"y":23.881878148589067}},{"attributes":{"OBJECTID":17055,"LANDMARKID":"1000800000614","LANDMARKCO":"402","LANDMARKNA":"中華電信-爽文服務中心","LANDMARKAD":"1000808","ADDRESS":"南投縣中寮鄉龍南路153號","TEL":"(049)260-1090","COUNTYNAME":"南投縣","TOWNNAME":"中寮鄉","MARKTYPE":"994","Class":"4"},"geometry":{"x":120.76494051077226,"y":23.939158684993021}},{"attributes":{"OBJECTID":17056,"LANDMARKID":"1000800000862","LANDMARKCO":"505","LANDMARKNA":"和興有機文化村","LANDMARKAD":"1000808","ADDRESS":"南投縣中寮鄉永樂路143之9號","TEL":"049-2694755","COUNTYNAME":"南投縣","TOWNNAME":"中寮鄉","MARKTYPE":"995","Class":"5"},"geometry":{"x":120.80662414405043,"y":23.907475437281335}},{"attributes":{"OBJECTID":17057,"LANDMARKID":"1000800000822","LANDMARKCO":"503","LANDMARKNA":"龍鳳瀑布(雌雄瀑布)","LANDMARKAD":"1000808","ADDRESS":"南投縣中寮鄉","TEL":" ","COUNTYNAME":"南投縣","TOWNNAME":"中寮鄉","MARKTYPE":"995","Class":"5"},"geometry":{"x":120.81731647565357,"y":23.9416398898422}},{"attributes":{"OBJECTID":17058,"LANDMARKID":"1000800000853","LANDMARKCO":"504","LANDMARKNA":"大南邊瀑布","LANDMARKAD":"1000808","ADDRESS":"南投縣中寮鄉","TEL":" ","COUNTYNAME":"南投縣","TOWNNAME":"中寮鄉","MARKTYPE":"995","Class":"5"},"geometry":{"x":120.84448345446896,"y":23.888020762644604}},{"attributes":{"OBJECTID":17059,"LANDMARKID":"1000800000821","LANDMARKCO":"503","LANDMARKNA":"水果博物園區","LANDMARKAD":"1000808","ADDRESS":"南投縣中寮鄉","TEL":" ","COUNTYNAME":"南投縣","TOWNNAME":"中寮鄉","MARKTYPE":"995","Class":"5"},"geometry":{"x":120.80969511699342,"y":23.91258078686737}},{"attributes":{"OBJECTID":17060,"LANDMARKID":"1000800000671","LANDMARKCO":"405","LANDMARKNA":"中油加油站-魚池站(中油直營)","LANDMARKAD":"1000809","ADDRESS":"南投縣魚池鄉魚池村魚池街772號","TEL":"049-2895352","COUNTYNAME":"南投縣","TOWNNAME":"魚池鄉","MARKTYPE":"994","Class":"4"},"geometry":{"x":120.92958858487076,"y":23.901983446459219}},{"attributes":{"OBJECTID":17061,"LANDMARKID":"1000800000672","LANDMARKCO":"405","LANDMARKNA":"中油加油站-日月潭站(中油直營)","LANDMARKAD":"1000809","ADDRESS":"南投縣魚池鄉水社村中山路20號","TEL":"049-2855160","COUNTYNAME":"南投縣","TOWNNAME":"魚池鄉","MARKTYPE":"994","Class":"4"},"geometry":{"x":120.91703546323531,"y":23.872010813192851}},{"attributes":{"OBJECTID":17062,"LANDMARKID":"1000800000815","LANDMARKCO":"501","LANDMARKNA":"日月潭國家風景區","LANDMARKAD":"1000809","ADDRESS":"南投縣魚池鄉水社村中興路136號","TEL":"049-2855595","COUNTYNAME":"南投縣","TOWNNAME":"魚池鄉","MARKTYPE":"995","Class":"5"},"geometry":{"x":120.90843360332158,"y":23.864180556134407}},{"attributes":{"OBJECTID":17063,"LANDMARKID":"1000800000928","LANDMARKCO":"512","LANDMARKNA":"日月潭國家風景區管理處","LANDMARKAD":"1000809","ADDRESS":"南投縣魚池鄉水社村中興路136號","TEL":"049-2855668","COUNTYNAME":"南投縣","TOWNNAME":"魚池鄉","MARKTYPE":"995","Class":"5"},"geometry":{"x":120.90849845743931,"y":23.864228437805494}},{"attributes":{"OBJECTID":17064,"LANDMARKID":"1000800000929","LANDMARKCO":"512","LANDMARKNA":"日月潭水社遊客服務中心","LANDMARKAD":"1000809","ADDRESS":"南投縣魚池鄉水社村中興路136號","TEL":"049-2855668","COUNTYNAME":"南投縣","TOWNNAME":"魚池鄉","MARKTYPE":"995","Class":"5"},"geometry":{"x":120.90832994152414,"y":23.864064289961206}},{"attributes":{"OBJECTID":17065,"LANDMARKID":"1000800000790","LANDMARKCO":"408","LANDMARKNA":"郵局-魚池郵局","LANDMARKAD":"1000809","ADDRESS":"南投縣魚池鄉魚池街364號","TEL":"(049)2895-546","COUNTYNAME":"南投縣","TOWNNAME":"魚池鄉","MARKTYPE":"994","Class":"4"},"geometry":{"x":120.93650473456616,"y":23.897036235984114}},{"attributes":{"OBJECTID":17066,"LANDMARKID":"1000800000791","LANDMARKCO":"408","LANDMARKNA":"郵局-日月潭郵局","LANDMARKAD":"1000809","ADDRESS":"南投縣魚池鄉名勝街36號","TEL":"(049)2855-154","COUNTYNAME":"南投縣","TOWNNAME":"魚池鄉","MARKTYPE":"994","Class":"4"},"geometry":{"x":120.9109884309149,"y":23.86472163011905}},{"attributes":{"OBJECTID":17067,"LANDMARKID":"1000800000792","LANDMARKCO":"408","LANDMARKNA":"郵局-魚池頭社郵局","LANDMARKAD":"1000809","ADDRESS":"南投縣魚池鄉集里路4號","TEL":"(049)2861-142","COUNTYNAME":"南投縣","TOWNNAME":"魚池鄉","MARKTYPE":"994","Class":"4"},"geometry":{"x":120.89556442777591,"y":23.832519835054811}},{"attributes":{"OBJECTID":17068,"LANDMARKID":"1000800000799","LANDMARKCO":"409","LANDMARKNA":"南投縣魚池鄉農會","LANDMARKAD":"1000809","ADDRESS":"南投縣魚池鄉魚池街439號","TEL":"049-2895505","COUNTYNAME":"南投縣","TOWNNAME":"魚池鄉","MARKTYPE":"994","Class":"4"},"geometry":{"x":120.94155014268847,"y":23.894281195435756}},{"attributes":{"OBJECTID":17069,"LANDMARKID":"1000800000800","LANDMARKCO":"409","LANDMARKNA":"日月潭區漁會","LANDMARKAD":"1000809","ADDRESS":"南投縣魚池鄉水杜村中山路174號","TEL":"049-2855558","COUNTYNAME":"南投縣","TOWNNAME":"魚池鄉","MARKTYPE":"994","Class":"4"},"geometry":{"x":120.91042634755365,"y":23.867111757718082}},{"attributes":{"OBJECTID":17070,"LANDMARKID":"1000800000740","LANDMARKCO":"406","LANDMARKNA":"水沙連公園","LANDMARKAD":"1000809","ADDRESS":"南投縣魚池鄉","TEL":" ","COUNTYNAME":"南投縣","TOWNNAME":"魚池鄉","MARKTYPE":"994","Class":"4"},"geometry":{"x":120.94630236360062,"y":23.870384140013758}},{"attributes":{"OBJECTID":17071,"LANDMARKID":"1000800000741","LANDMARKCO":"406","LANDMARKNA":"水社壩堰堤公園","LANDMARKAD":"1000809","ADDRESS":"南投縣魚池鄉","TEL":" ","COUNTYNAME":"南投縣","TOWNNAME":"魚池鄉","MARKTYPE":"994","Class":"4"},"geometry":{"x":120.90166915414397,"y":23.862704329891073}},{"attributes":{"OBJECTID":17072,"LANDMARKID":"1000800000742","LANDMARKCO":"406","LANDMARKNA":"涵碧半島景觀公園","LANDMARKAD":"1000809","ADDRESS":"南投縣魚池鄉","TEL":" ","COUNTYNAME":"南投縣","TOWNNAME":"魚池鄉","MARKTYPE":"994","Class":"4"},"geometry":{"x":120.90872656421247,"y":23.862839224475294}},{"attributes":{"OBJECTID":17073,"LANDMARKID":"1000800000743","LANDMARKCO":"406","LANDMARKNA":"青龍山宗教公園","LANDMARKAD":"1000809","ADDRESS":"南投縣魚池鄉","TEL":" ","COUNTYNAME":"南投縣","TOWNNAME":"魚池鄉","MARKTYPE":"994","Class":"4"},"geometry":{"x":120.91494785808261,"y":23.849655673741623}},{"attributes":{"OBJECTID":17074,"LANDMARKID":"1000800000744","LANDMARKCO":"406","LANDMARKNA":"孔雀及蝴蝶公園","LANDMARKAD":"1000809","ADDRESS":"南投縣魚池鄉","TEL":" ","COUNTYNAME":"南投縣","TOWNNAME":"魚池鄉","MARKTYPE":"994","Class":"4"},"geometry":{"x":120.93368563729028,"y":23.868353666086065}},{"attributes":{"OBJECTID":17075,"LANDMARKID":"1000800000745","LANDMARKCO":"406","LANDMARKNA":"松柏崙自然公園","LANDMARKAD":"1000809","ADDRESS":"南投縣魚池鄉","TEL":" ","COUNTYNAME":"南投縣","TOWNNAME":"魚池鄉","MARKTYPE":"994","Class":"4"},"geometry":{"x":120.92969055044736,"y":23.866893991461598}},{"attributes":{"OBJECTID":17076,"LANDMARKID":"1000800000746","LANDMARKCO":"406","LANDMARKNA":"大竹湖水鳥公園","LANDMARKAD":"1000809","ADDRESS":"南投縣魚池鄉","TEL":" ","COUNTYNAME":"南投縣","TOWNNAME":"魚池鄉","MARKTYPE":"994","Class":"4"},"geometry":{"x":120.94205622999712,"y":23.862904322912659}},{"attributes":{"OBJECTID":17077,"LANDMARKID":"1000800000670","LANDMARKCO":"405","LANDMARKNA":"台塑加油站-速得站(台塑)","LANDMARKAD":"1000809","ADDRESS":"南投縣魚池鄉新城村通文巷6號","TEL":"049-2452277","COUNTYNAME":"南投縣","TOWNNAME":"魚池鄉","MARKTYPE":"994","Class":"4"},"geometry":{"x":120.92671056722847,"y":23.905579636536078}},{"attributes":{"OBJECTID":17078,"LANDMARKID":"1000800000238","LANDMARKCO":"108","LANDMARKNA":"南投縣魚池鄉公所","LANDMARKAD":"1000809","ADDRESS":"南投縣魚池鄉魚池村秀水巷33號","TEL":"049-2895371","COUNTYNAME":"南投縣","TOWNNAME":"魚池鄉","MARKTYPE":"991","Class":"1"},"geometry":{"x":120.93557597606566,"y":23.895817914479927}},{"attributes":{"OBJECTID":17079,"LANDMARKID":"1000800000059","LANDMARKCO":"103","LANDMARKNA":"南投縣魚池鄉鄉民代表會","LANDMARKAD":"1000809","ADDRESS":"南投縣魚池鄉魚池街439號","TEL":"049-2895915","COUNTYNAME":"南投縣","TOWNNAME":"魚池鄉","MARKTYPE":"991","Class":"1"},"geometry":{"x":120.93512582679935,"y":23.896107723950585}},{"attributes":{"OBJECTID":17080,"LANDMARKID":"1000800000060","LANDMARKCO":"103","LANDMARKNA":"南投縣魚池鄉衛生所","LANDMARKAD":"1000809","ADDRESS":"南投縣魚池鄉魚池街194號","TEL":"049-2895513","COUNTYNAME":"南投縣","TOWNNAME":"魚池鄉","MARKTYPE":"991","Class":"1"},"geometry":{"x":120.9413061502358,"y":23.895567899606064}},{"attributes":{"OBJECTID":17081,"LANDMARKID":"1000800000192","LANDMARKCO":"107","LANDMARKNA":"南投縣消防局魚池消防分隊","LANDMARKAD":"1000809","ADDRESS":"南投縣魚池鄉魚池街360號","TEL":"049-2895553","COUNTYNAME":"南投縣","TOWNNAME":"魚池鄉","MARKTYPE":"991","Class":"1"},"geometry":{"x":120.93689538005974,"y":23.897077281384373}},{"attributes":{"OBJECTID":17082,"LANDMARKID":"1000800000193","LANDMARKCO":"107","LANDMARKNA":"南投縣消防局日月潭消防分隊","LANDMARKAD":"1000809","ADDRESS":"南投縣魚池鄉水社村中山路146號","TEL":"049-2855307","COUNTYNAME":"南投縣","TOWNNAME":"魚池鄉","MARKTYPE":"991","Class":"1"},"geometry":{"x":120.91108658010674,"y":23.866778572321245}},{"attributes":{"OBJECTID":17083,"LANDMARKID":"1000800000194","LANDMARKCO":"107","LANDMARKNA":"南投縣政府警察局東光派出所","LANDMARKAD":"1000809","ADDRESS":"南投縣魚池鄉東光村慶隆巷32號","TEL":"049-2880126","COUNTYNAME":"南投縣","TOWNNAME":"魚池鄉","MARKTYPE":"991","Class":"1"},"geometry":{"x":120.96613639749745,"y":23.889887468719198}},{"attributes":{"OBJECTID":17084,"LANDMARKID":"1000800000195","LANDMARKCO":"107","LANDMARKNA":"南投縣政府警察局五城派出所","LANDMARKAD":"1000809","ADDRESS":"南投縣魚池鄉五城村五城巷24號","TEL":"049-2895114","COUNTYNAME":"南投縣","TOWNNAME":"魚池鄉","MARKTYPE":"991","Class":"1"},"geometry":{"x":120.88808519737474,"y":23.887808406240143}},{"attributes":{"OBJECTID":17085,"LANDMARKID":"1000800000196","LANDMARKCO":"107","LANDMARKNA":"南投縣政府警察局頭社派出所","LANDMARKAD":"1000809","ADDRESS":"南投縣魚池鄉頭社村平和巷145號","TEL":"049-2861013","COUNTYNAME":"南投縣","TOWNNAME":"魚池鄉","MARKTYPE":"991","Class":"1"},"geometry":{"x":120.89610626291507,"y":23.833828087583168}},{"attributes":{"OBJECTID":17086,"LANDMARKID":"1000800000197","LANDMARKCO":"107","LANDMARKNA":"南投縣政府警察局德化派出所","LANDMARKAD":"1000809","ADDRESS":"南投縣魚池鄉日月村中正路288號","TEL":"049-2850119","COUNTYNAME":"南投縣","TOWNNAME":"魚池鄉","MARKTYPE":"991","Class":"1"},"geometry":{"x":120.93227664823883,"y":23.847237723908311}},{"attributes":{"OBJECTID":17087,"LANDMARKID":"1000800000198","LANDMARKCO":"107","LANDMARKNA":"南投縣政府警察局日月潭派出所","LANDMARKAD":"1000809","ADDRESS":"南投縣魚池鄉水社村中山路144號","TEL":"049-2855121","COUNTYNAME":"南投縣","TOWNNAME":"魚池鄉","MARKTYPE":"991","Class":"1"},"geometry":{"x":120.91131661504483,"y":23.866727076609436}},{"attributes":{"OBJECTID":17088,"LANDMARKID":"1000800000199","LANDMARKCO":"107","LANDMARKNA":"南投縣政府警察局魚池分駐所","LANDMARKAD":"1000809","ADDRESS":"南投縣魚池鄉魚池村魚池街358號","TEL":"049-2895501","COUNTYNAME":"南投縣","TOWNNAME":"魚池鄉","MARKTYPE":"991","Class":"1"},"geometry":{"x":120.9370353961767,"y":23.897047339399752}},{"attributes":{"OBJECTID":17089,"LANDMARKID":"1000800000106","LANDMARKCO":"106","LANDMARKNA":"南投縣魚池鄉戶政事務所","LANDMARKAD":"1000809","ADDRESS":"南投縣魚池鄉魚池村16鄰魚池街356號","TEL":"049-2895564","COUNTYNAME":"南投縣","TOWNNAME":"魚池鄉","MARKTYPE":"991","Class":"1"},"geometry":{"x":120.93733534973914,"y":23.897157462534288}},{"attributes":{"OBJECTID":17090,"LANDMARKID":"1000800000035","LANDMARKCO":"101","LANDMARKNA":"日月潭國家風景區管理處","LANDMARKAD":"1000809","ADDRESS":"南投縣魚池鄉中山路163號","TEL":"049-2855668","COUNTYNAME":"南投縣","TOWNNAME":"魚池鄉","MARKTYPE":"991","Class":"1"},"geometry":{"x":120.91124494725101,"y":23.866397034887225}},{"attributes":{"OBJECTID":17091,"LANDMARKID":"1000800000036","LANDMARKCO":"101","LANDMARKNA":"農業委員會林業試驗所蓮華池分所","LANDMARKAD":"1000809","ADDRESS":"南投縣魚池鄉華龍巷43號","TEL":"049-2895535","COUNTYNAME":"南投縣","TOWNNAME":"魚池鄉","MARKTYPE":"991","Class":"1"},"geometry":{"x":120.88505518685166,"y":23.918328255298015}},{"attributes":{"OBJECTID":17092,"LANDMARKID":"1000800000037","LANDMARKCO":"101","LANDMARKNA":"日月潭憲兵隊","LANDMARKAD":"1000809","ADDRESS":"南投縣魚池鄉","TEL":" ","COUNTYNAME":"南投縣","TOWNNAME":"魚池鄉","MARKTYPE":"991","Class":"1"},"geometry":{"x":120.91169091400788,"y":23.86486318731302}},{"attributes":{"OBJECTID":17093,"LANDMARKID":"1000800000477","LANDMARKCO":"206","LANDMARKNA":"台灣山地文化中心","LANDMARKAD":"1000809","ADDRESS":"南投縣魚池鄉","TEL":" ","COUNTYNAME":"南投縣","TOWNNAME":"魚池鄉","MARKTYPE":"992","Class":"2"},"geometry":{"x":120.93370739674245,"y":23.848808491012779}},{"attributes":{"OBJECTID":17094,"LANDMARKID":"1000800000452","LANDMARKCO":"204","LANDMARKNA":"南投縣立圖書館魚池分館","LANDMARKAD":"1000809","ADDRESS":"南投縣魚池鄉魚池街354巷8號","TEL":" ","COUNTYNAME":"南投縣","TOWNNAME":"魚池鄉","MARKTYPE":"992","Class":"2"},"geometry":{"x":120.93607472460883,"y":23.895590883887543}},{"attributes":{"OBJECTID":17095,"LANDMARKID":"1000800000408","LANDMARKCO":"203","LANDMARKNA":"縣立明潭國中","LANDMARKAD":"1000809","ADDRESS":"南投縣魚池鄉水社村中山路190號","TEL":"049-2855145","COUNTYNAME":"南投縣","TOWNNAME":"魚池鄉","MARKTYPE":"992","Class":"2"},"geometry":{"x":120.91081581278276,"y":23.867898416082966}},{"attributes":{"OBJECTID":17096,"LANDMARKID":"1000800000409","LANDMARKCO":"203","LANDMARKNA":"縣立魚池國中","LANDMARKAD":"1000809","ADDRESS":"南投縣魚池鄉魚池村魚池街441號之6","TEL":"049-2895527","COUNTYNAME":"南投縣","TOWNNAME":"魚池鄉","MARKTYPE":"992","Class":"2"},"geometry":{"x":120.93457585462485,"y":23.896037491028274}},{"attributes":{"OBJECTID":17097,"LANDMARKID":"1000800000410","LANDMARKCO":"203","LANDMARKNA":"縣立德化國小","LANDMARKAD":"1000809","ADDRESS":"南投縣魚池鄉日月村中正路211巷1號","TEL":"049-2850441","COUNTYNAME":"南投縣","TOWNNAME":"魚池鄉","MARKTYPE":"992","Class":"2"},"geometry":{"x":120.9354960250579,"y":23.848497879106414}},{"attributes":{"OBJECTID":17098,"LANDMARKID":"1000800000411","LANDMARKCO":"203","LANDMARKNA":"縣立頭社國小","LANDMARKAD":"1000809","ADDRESS":"南投縣魚池鄉頭社村平和巷105號","TEL":"049-2861237","COUNTYNAME":"南投縣","TOWNNAME":"魚池鄉","MARKTYPE":"992","Class":"2"},"geometry":{"x":120.90269578569439,"y":23.837278682851444}},{"attributes":{"OBJECTID":17099,"LANDMARKID":"1000800000412","LANDMARKCO":"203","LANDMARKNA":"縣立新城國小","LANDMARKAD":"1000809","ADDRESS":"南投縣魚池鄉新城村通文巷7號之1","TEL":"049-2895724","COUNTYNAME":"南投縣","TOWNNAME":"魚池鄉","MARKTYPE":"992","Class":"2"},"geometry":{"x":120.92491582966916,"y":23.904208296684278}},{"attributes":{"OBJECTID":17100,"LANDMARKID":"1000800000413","LANDMARKCO":"203","LANDMARKNA":"縣立共和國小","LANDMARKAD":"1000809","ADDRESS":"南投縣魚池鄉共和村五馬巷57之1號","TEL":"049-2880608","COUNTYNAME":"南投縣","TOWNNAME":"魚池鄉","MARKTYPE":"992","Class":"2"},"geometry":{"x":120.96628600541074,"y":23.91917750346925}},{"attributes":{"OBJECTID":17101,"LANDMARKID":"1000800000414","LANDMARKCO":"203","LANDMARKNA":"縣立明潭國小","LANDMARKAD":"1000809","ADDRESS":"南投縣魚池鄉中山路190號","TEL":"049-2855045","COUNTYNAME":"南投縣","TOWNNAME":"魚池鄉","MARKTYPE":"992","Class":"2"},"geometry":{"x":120.91081581278276,"y":23.867898416082966}},{"attributes":{"OBJECTID":17102,"LANDMARKID":"1000800000415","LANDMARKCO":"203","LANDMARKNA":"縣立魚池國小","LANDMARKAD":"1000809","ADDRESS":"南投縣魚池鄉魚池村瓊文巷41號","TEL":"049-2895537","COUNTYNAME":"南投縣","TOWNNAME":"魚池鄉","MARKTYPE":"992","Class":"2"},"geometry":{"x":120.93733584404416,"y":23.898907462676252}},{"attributes":{"OBJECTID":17103,"LANDMARKID":"1000800000416","LANDMARKCO":"203","LANDMARKNA":"縣立五城國小","LANDMARKAD":"1000809","ADDRESS":"南投縣魚池鄉五城村華龍巷1之2號","TEL":"049-2896455","COUNTYNAME":"南投縣","TOWNNAME":"魚池鄉","MARKTYPE":"992","Class":"2"},"geometry":{"x":120.88917498041479,"y":23.890857164657245}},{"attributes":{"OBJECTID":17104,"LANDMARKID":"1000800000417","LANDMARKCO":"203","LANDMARKNA":"縣立光明國小","LANDMARKAD":"1000809","ADDRESS":"南投縣魚池鄉武登村銃櫃巷18號","TEL":"049-2861442","COUNTYNAME":"南投縣","TOWNNAME":"魚池鄉","MARKTYPE":"992","Class":"2"},"geometry":{"x":120.8851564708976,"y":23.816878325977616}},{"attributes":{"OBJECTID":17105,"LANDMARKID":"1000800000418","LANDMARKCO":"203","LANDMARKNA":"縣立東光國小","LANDMARKAD":"1000809","ADDRESS":"南投縣魚池鄉東光村慶隆巷36號","TEL":"049-2880584","COUNTYNAME":"南投縣","TOWNNAME":"魚池鄉","MARKTYPE":"992","Class":"2"},"geometry":{"x":120.96672626327518,"y":23.890426970663164}},{"attributes":{"OBJECTID":17106,"LANDMARKID":"1000800000247","LANDMARKCO":"201","LANDMARKNA":"三育基督學院","LANDMARKAD":"1000809","ADDRESS":"南投縣魚池鄉魚池村瓊文巷39號","TEL":"049-2897212","COUNTYNAME":"南投縣","TOWNNAME":"魚池鄉","MARKTYPE":"992","Class":"2"},"geometry":{"x":120.93090535528452,"y":23.905227115359946}},{"attributes":{"OBJECTID":17107,"LANDMARKID":"1000800000531","LANDMARKCO":"303","LANDMARKNA":"九族文化村停車場","LANDMARKAD":"1000809","ADDRESS":"南投縣魚池鄉大林村金天巷45號","TEL":"049-2895361","COUNTYNAME":"南投縣","TOWNNAME":"魚池鄉","MARKTYPE":"993","Class":"303"},"geometry":{"x":120.9452105116678,"y":23.870203855164995}},{"attributes":{"OBJECTID":17108,"LANDMARKID":"1000800000532","LANDMARKCO":"303","LANDMARKNA":"九族文化村停車場","LANDMARKAD":"1000809","ADDRESS":"南投縣魚池鄉大林村金天巷45號","TEL":"049-2895361","COUNTYNAME":"南投縣","TOWNNAME":"魚池鄉","MARKTYPE":"993","Class":"303"},"geometry":{"x":120.94908023923459,"y":23.869898567443698}},{"attributes":{"OBJECTID":17109,"LANDMARKID":"1000800000533","LANDMARKCO":"303","LANDMARKNA":"朝霧停車場","LANDMARKAD":"1000809","ADDRESS":"南投縣魚池鄉","TEL":" ","COUNTYNAME":"南投縣","TOWNNAME":"魚池鄉","MARKTYPE":"993","Class":"303"},"geometry":{"x":120.91633742624805,"y":23.868439694201793}},{"attributes":{"OBJECTID":17110,"LANDMARKID":"1000800000534","LANDMARKCO":"303","LANDMARKNA":"孔雀園停車場","LANDMARKAD":"1000809","ADDRESS":"南投縣魚池鄉","TEL":" ","COUNTYNAME":"南投縣","TOWNNAME":"魚池鄉","MARKTYPE":"993","Class":"303"},"geometry":{"x":120.93171900879399,"y":23.86855661020164}},{"attributes":{"OBJECTID":17111,"LANDMARKID":"1000800000535","LANDMARKCO":"303","LANDMARKNA":"日月潭孔雀園停車場","LANDMARKAD":"1000809","ADDRESS":"南投縣魚池鄉","TEL":" ","COUNTYNAME":"南投縣","TOWNNAME":"魚池鄉","MARKTYPE":"993","Class":"303"},"geometry":{"x":120.93394940406073,"y":23.86858220360714}},{"attributes":{"OBJECTID":17112,"LANDMARKID":"1000800000536","LANDMARKCO":"303","LANDMARKNA":"日月潭文武廟停車場","LANDMARKAD":"1000809","ADDRESS":"南投縣魚池鄉","TEL":" ","COUNTYNAME":"南投縣","TOWNNAME":"魚池鄉","MARKTYPE":"993","Class":"303"},"geometry":{"x":120.92767677766273,"y":23.870038213250588}},{"attributes":{"OBJECTID":17113,"LANDMARKID":"1000800000537","LANDMARKCO":"303","LANDMARKNA":"日月潭水社區停車場","LANDMARKAD":"1000809","ADDRESS":"南投縣魚池鄉","TEL":" ","COUNTYNAME":"南投縣","TOWNNAME":"魚池鄉","MARKTYPE":"993","Class":"303"},"geometry":{"x":120.9025869729569,"y":23.862799537547982}},{"attributes":{"OBJECTID":17114,"LANDMARKID":"1000800000538","LANDMARKCO":"303","LANDMARKNA":"日月潭玄光寺停車場","LANDMARKAD":"1000809","ADDRESS":"南投縣魚池鄉","TEL":" ","COUNTYNAME":"南投縣","TOWNNAME":"魚池鄉","MARKTYPE":"993","Class":"303"},"geometry":{"x":120.91393724541267,"y":23.851264682976971}},{"attributes":{"OBJECTID":17115,"LANDMARKID":"1000800000539","LANDMARKCO":"303","LANDMARKNA":"日月潭玄奘寺停車場","LANDMARKAD":"1000809","ADDRESS":"南投縣魚池鄉","TEL":" ","COUNTYNAME":"南投縣","TOWNNAME":"魚池鄉","MARKTYPE":"993","Class":"303"},"geometry":{"x":120.91685493014086,"y":23.847886630122058}},{"attributes":{"OBJECTID":17116,"LANDMARKID":"1000800000540","LANDMARKCO":"303","LANDMARKNA":"日月潭青年活動中心停車場","LANDMARKAD":"1000809","ADDRESS":"南投縣魚池鄉","TEL":" ","COUNTYNAME":"南投縣","TOWNNAME":"魚池鄉","MARKTYPE":"993","Class":"303"},"geometry":{"x":120.93744203838514,"y":23.852267643371807}},{"attributes":{"OBJECTID":17117,"LANDMARKID":"1000800000541","LANDMARKCO":"303","LANDMARKNA":"日月潭朝霧停車場","LANDMARKAD":"1000809","ADDRESS":"南投縣魚池鄉","TEL":" ","COUNTYNAME":"南投縣","TOWNNAME":"魚池鄉","MARKTYPE":"993","Class":"303"},"geometry":{"x":120.92025059985527,"y":23.87244894489713}},{"attributes":{"OBJECTID":17118,"LANDMARKID":"1000800000542","LANDMARKCO":"303","LANDMARKNA":"日月潭慈恩塔停車場","LANDMARKAD":"1000809","ADDRESS":"南投縣魚池鄉","TEL":" ","COUNTYNAME":"南投縣","TOWNNAME":"魚池鄉","MARKTYPE":"993","Class":"303"},"geometry":{"x":120.92091225266289,"y":23.840722414704743}},{"attributes":{"OBJECTID":17119,"LANDMARKID":"1000800000543","LANDMARKCO":"303","LANDMARKNA":"日月潭德化社停車場","LANDMARKAD":"1000809","ADDRESS":"南投縣魚池鄉","TEL":" ","COUNTYNAME":"南投縣","TOWNNAME":"魚池鄉","MARKTYPE":"993","Class":"303"},"geometry":{"x":120.92024793157553,"y":23.872446414289698}},{"attributes":{"OBJECTID":17120,"LANDMARKID":"1000800000544","LANDMARKCO":"303","LANDMARKNA":"日月潭蘭園停車場","LANDMARKAD":"1000809","ADDRESS":"南投縣魚池鄉","TEL":" ","COUNTYNAME":"南投縣","TOWNNAME":"魚池鄉","MARKTYPE":"993","Class":"303"},"geometry":{"x":120.92024793152021,"y":23.872446504586893}},{"attributes":{"OBJECTID":17121,"LANDMARKID":"1000800000615","LANDMARKCO":"402","LANDMARKNA":"中華電信-日月潭服務中心","LANDMARKAD":"1000809","ADDRESS":"南投縣魚池鄉水社村名勝街36號","TEL":"(049)285-5111","COUNTYNAME":"南投縣","TOWNNAME":"魚池鄉","MARKTYPE":"994","Class":"4"},"geometry":{"x":120.91098425454682,"y":23.864656319280623}},{"attributes":{"OBJECTID":17122,"LANDMARKID":"1000800000616","LANDMARKCO":"402","LANDMARKNA":"中華電信-魚池服務中心","LANDMARKAD":"1000809","ADDRESS":"南投縣魚池鄉秀水巷32之10號","TEL":"(049)289-6544","COUNTYNAME":"南投縣","TOWNNAME":"魚池鄉","MARKTYPE":"994","Class":"4"},"geometry":{"x":120.93620206846941,"y":23.896325495360241}},{"attributes":{"OBJECTID":17123,"LANDMARKID":"1000800001342","LANDMARKCO":"604","LANDMARKNA":"月潭小棧","LANDMARKAD":"1000809","ADDRESS":"南投縣魚池鄉日月村山明街58號","TEL":"049-2850387","COUNTYNAME":"南投縣","TOWNNAME":"魚池鄉","MARKTYPE":"996","Class":"6"},"geometry":{"x":120.93271517193482,"y":23.848827030583731}},{"attributes":{"OBJECTID":17124,"LANDMARKID":"1000800001343","LANDMARKCO":"604","LANDMARKNA":"闔家歡民宿","LANDMARKAD":"1000809","ADDRESS":"南投縣魚池鄉中明村有水巷30號","TEL":"0937-647428","COUNTYNAME":"南投縣","TOWNNAME":"魚池鄉","MARKTYPE":"996","Class":"6"},"geometry":{"x":120.92186662430476,"y":23.886737321288805}},{"attributes":{"OBJECTID":17125,"LANDMARKID":"1000800001344","LANDMARKCO":"604","LANDMARKNA":"觀湖會館","LANDMARKAD":"1000809","ADDRESS":"南投縣魚池鄉日月村水沙連街3號","TEL":"049-2856528","COUNTYNAME":"南投縣","TOWNNAME":"魚池鄉","MARKTYPE":"996","Class":"6"},"geometry":{"x":120.93158419654048,"y":23.84875253189087}},{"attributes":{"OBJECTID":17126,"LANDMARKID":"1000800001345","LANDMARKCO":"604","LANDMARKNA":"晶園民宿","LANDMARKAD":"1000809","ADDRESS":"南投縣魚池鄉大林村金天巷70-3號","TEL":"049-2898740","COUNTYNAME":"南投縣","TOWNNAME":"魚池鄉","MARKTYPE":"996","Class":"6"},"geometry":{"x":120.95258765163274,"y":23.875957891040596}},{"attributes":{"OBJECTID":17127,"LANDMARKID":"1000800001346","LANDMARKCO":"604","LANDMARKNA":"晶美民宿","LANDMARKAD":"1000809","ADDRESS":"南投縣魚池鄉大林村金天巷70-5號","TEL":"049-2897158","COUNTYNAME":"南投縣","TOWNNAME":"魚池鄉","MARKTYPE":"996","Class":"6"},"geometry":{"x":120.95374062882524,"y":23.876045365113715}},{"attributes":{"OBJECTID":17128,"LANDMARKID":"1000800001347","LANDMARKCO":"604","LANDMARKNA":"晶后民宿","LANDMARKAD":"1000809","ADDRESS":"南投縣魚池鄉大林村金天巷70-6號","TEL":"049-2897158","COUNTYNAME":"南投縣","TOWNNAME":"魚池鄉","MARKTYPE":"996","Class":"6"},"geometry":{"x":120.95354848647921,"y":23.876440307010508}},{"attributes":{"OBJECTID":17129,"LANDMARKID":"1000800001348","LANDMARKCO":"604","LANDMARKNA":"秀水渡假民宿","LANDMARKAD":"1000809","ADDRESS":"南投縣魚池鄉魚池村秀水巷25-6號","TEL":"049-2855178","COUNTYNAME":"南投縣","TOWNNAME":"魚池鄉","MARKTYPE":"996","Class":"6"},"geometry":{"x":120.93535400406603,"y":23.89644893484261}},{"attributes":{"OBJECTID":17130,"LANDMARKID":"1000800000962","LANDMARKCO":"603","LANDMARKNA":"寶華旅社","LANDMARKAD":"1000809","ADDRESS":"南投縣魚池鄉魚池村魚池街395-1號","TEL":"049-2895561","COUNTYNAME":"南投縣","TOWNNAME":"魚池鄉","MARKTYPE":"996","Class":"6"},"geometry":{"x":120.93636980335648,"y":23.896890179985817}},{"attributes":{"OBJECTID":17131,"LANDMARKID":"1000800000963","LANDMARKCO":"603","LANDMARKNA":"名勝大飯店","LANDMARKAD":"1000809","ADDRESS":"南投縣魚池鄉水社村名勝街4號","TEL":"049-2855357","COUNTYNAME":"南投縣","TOWNNAME":"魚池鄉","MARKTYPE":"996","Class":"6"},"geometry":{"x":120.91166095579712,"y":23.865233372788374}},{"attributes":{"OBJECTID":17132,"LANDMARKID":"1000800000964","LANDMARKCO":"603","LANDMARKNA":"富一大飯店","LANDMARKAD":"1000809","ADDRESS":"南投縣魚池鄉魚池村魚池街409號","TEL":"049-2895767","COUNTYNAME":"南投縣","TOWNNAME":"魚池鄉","MARKTYPE":"996","Class":"6"},"geometry":{"x":120.93615249299626,"y":23.89680402791625}},{"attributes":{"OBJECTID":17133,"LANDMARKID":"1000800000965","LANDMARKCO":"603","LANDMARKNA":"松鶴園賓館","LANDMARKAD":"1000809","ADDRESS":"南投縣魚池鄉水社村中山路135-1號","TEL":"049-2855364","COUNTYNAME":"南投縣","TOWNNAME":"魚池鄉","MARKTYPE":"996","Class":"6"},"geometry":{"x":120.91186593874393,"y":23.866127550788836}},{"attributes":{"OBJECTID":17134,"LANDMARKID":"1000800000966","LANDMARKCO":"603","LANDMARKNA":"中明旅社","LANDMARKAD":"1000809","ADDRESS":"南投縣魚池鄉中明村有水巷5-50號","TEL":"049-2895847","COUNTYNAME":"南投縣","TOWNNAME":"魚池鄉","MARKTYPE":"996","Class":"6"},"geometry":{"x":120.92459440660255,"y":23.87736803300259}},{"attributes":{"OBJECTID":17135,"LANDMARKID":"1000800000967","LANDMARKCO":"603","LANDMARKNA":"映涵渡假飯店","LANDMARKAD":"1000809","ADDRESS":"南投縣魚池鄉日月村文化街88號","TEL":"049-2850099","COUNTYNAME":"南投縣","TOWNNAME":"魚池鄉","MARKTYPE":"996","Class":"6"},"geometry":{"x":120.93051243120367,"y":23.848132613065761}},{"attributes":{"OBJECTID":17136,"LANDMARKID":"1000800000968","LANDMARKCO":"603","LANDMARKNA":"大淶閣飯店","LANDMARKAD":"1000809","ADDRESS":"南投縣魚池鄉水社村中山路101號","TEL":"049-2856688","COUNTYNAME":"南投縣","TOWNNAME":"魚池鄉","MARKTYPE":"996","Class":"6"},"geometry":{"x":120.91212248420368,"y":23.865197781614757}},{"attributes":{"OBJECTID":17137,"LANDMARKID":"1000800000969","LANDMARKCO":"603","LANDMARKNA":"碼頭休閒大飯店（碼頭精品旅店)","LANDMARKAD":"1000809","ADDRESS":"南投縣魚池鄉水社村中山路113號","TEL":"049-2855543","COUNTYNAME":"南投縣","TOWNNAME":"魚池鄉","MARKTYPE":"996","Class":"6"},"geometry":{"x":120.91179789217388,"y":23.865621808196256}},{"attributes":{"OBJECTID":17138,"LANDMARKID":"1000800000970","LANDMARKCO":"603","LANDMARKNA":"蜜月樓別館","LANDMARKAD":"1000809","ADDRESS":"南投縣魚池鄉水社村中山路116號","TEL":"049-2855349","COUNTYNAME":"南投縣","TOWNNAME":"魚池鄉","MARKTYPE":"996","Class":"6"},"geometry":{"x":120.91227856141231,"y":23.865956457239488}},{"attributes":{"OBJECTID":17139,"LANDMARKID":"1000800000971","LANDMARKCO":"603","LANDMARKNA":"名人大飯店","LANDMARKAD":"1000809","ADDRESS":"南投縣魚池鄉水社村中山路138號","TEL":"049-2855338","COUNTYNAME":"南投縣","TOWNNAME":"魚池鄉","MARKTYPE":"996","Class":"6"},"geometry":{"x":120.91203229778831,"y":23.866543108221808}},{"attributes":{"OBJECTID":17140,"LANDMARKID":"1000800000972","LANDMARKCO":"603","LANDMARKNA":"日月潭教師會館","LANDMARKAD":"1000809","ADDRESS":"南投縣魚池鄉水社村中興路136號","TEL":"049-2855991","COUNTYNAME":"南投縣","TOWNNAME":"魚池鄉","MARKTYPE":"996","Class":"6"},"geometry":{"x":120.90678159040199,"y":23.863470129763751}},{"attributes":{"OBJECTID":17141,"LANDMARKID":"1000800000973","LANDMARKCO":"603","LANDMARKNA":"日月潭鴻賓大飯店","LANDMARKAD":"1000809","ADDRESS":"南投縣魚池鄉水社村名勝街3號","TEL":"049-2855381-3","COUNTYNAME":"南投縣","TOWNNAME":"魚池鄉","MARKTYPE":"996","Class":"6"},"geometry":{"x":120.91189694721486,"y":23.864980810106189}},{"attributes":{"OBJECTID":17142,"LANDMARKID":"1000800001349","LANDMARKCO":"604","LANDMARKNA":"桂月村","LANDMARKAD":"1000809","ADDRESS":"南投縣魚池鄉水社村名勝街28號","TEL":"049-2855551","COUNTYNAME":"南投縣","TOWNNAME":"魚池鄉","MARKTYPE":"996","Class":"6"},"geometry":{"x":120.91120988693727,"y":23.864799426287}},{"attributes":{"OBJECTID":17143,"LANDMARKID":"1000800001350","LANDMARKCO":"604","LANDMARKNA":"文山民宿","LANDMARKAD":"1000809","ADDRESS":"南投縣魚池鄉中明村有水巷36-3號","TEL":"049-2896381","COUNTYNAME":"南投縣","TOWNNAME":"魚池鄉","MARKTYPE":"996","Class":"6"},"geometry":{"x":120.92689294389673,"y":23.89379391119493}},{"attributes":{"OBJECTID":17144,"LANDMARKID":"1000800001351","LANDMARKCO":"604","LANDMARKNA":"山水雅筑民宿","LANDMARKAD":"1000809","ADDRESS":"南投縣魚池鄉中明村有水巷4之1號","TEL":"049-2896198","COUNTYNAME":"南投縣","TOWNNAME":"魚池鄉","MARKTYPE":"996","Class":"6"},"geometry":{"x":120.92548750187001,"y":23.879191526971887}},{"attributes":{"OBJECTID":17145,"LANDMARKID":"1000800001352","LANDMARKCO":"604","LANDMARKNA":"魚雅筑渡假村","LANDMARKAD":"1000809","ADDRESS":"南投縣魚池鄉五城村華龍巷56-2號","TEL":"049-2895188","COUNTYNAME":"南投縣","TOWNNAME":"魚池鄉","MARKTYPE":"996","Class":"6"},"geometry":{"x":120.88826458975338,"y":23.909374666318669}},{"attributes":{"OBJECTID":17146,"LANDMARKID":"1000800001353","LANDMARKCO":"604","LANDMARKNA":"綠力生態養生農莊民宿","LANDMARKAD":"1000809","ADDRESS":"南投縣魚池鄉五城村華龍巷64-6號","TEL":"049-2899648","COUNTYNAME":"南投縣","TOWNNAME":"魚池鄉","MARKTYPE":"996","Class":"6"},"geometry":{"x":120.89589029700969,"y":23.915898847422678}},{"attributes":{"OBJECTID":17147,"LANDMARKID":"1000800001354","LANDMARKCO":"604","LANDMARKNA":"達琳谷灣","LANDMARKAD":"1000809","ADDRESS":"南投縣魚池鄉日月村文化街80號","TEL":"049-2850481","COUNTYNAME":"南投縣","TOWNNAME":"魚池鄉","MARKTYPE":"996","Class":"6"},"geometry":{"x":120.93059109582701,"y":23.848014019251202}},{"attributes":{"OBJECTID":17148,"LANDMARKID":"1000800001355","LANDMARKCO":"604","LANDMARKNA":"伊達邵民宿","LANDMARKAD":"1000809","ADDRESS":"南投縣魚池鄉日月村中正路270號","TEL":"0912-633848","COUNTYNAME":"南投縣","TOWNNAME":"魚池鄉","MARKTYPE":"996","Class":"6"},"geometry":{"x":120.93250577362531,"y":23.847735798179851}},{"attributes":{"OBJECTID":17149,"LANDMARKID":"1000800001356","LANDMARKCO":"604","LANDMARKNA":"水岸民宿","LANDMARKAD":"1000809","ADDRESS":"南投縣魚池鄉日月村文化街112號","TEL":"049-2850567","COUNTYNAME":"南投縣","TOWNNAME":"魚池鄉","MARKTYPE":"996","Class":"6"},"geometry":{"x":120.93007016390806,"y":23.848583700095507}},{"attributes":{"OBJECTID":17150,"LANDMARKID":"1000800001357","LANDMARKCO":"604","LANDMARKNA":"澄園民宿","LANDMARKAD":"1000809","ADDRESS":"南投縣魚池鄉日月村文化街117號","TEL":"049-2850062","COUNTYNAME":"南投縣","TOWNNAME":"魚池鄉","MARKTYPE":"996","Class":"6"},"geometry":{"x":120.92997216403492,"y":23.848421075807984}},{"attributes":{"OBJECTID":17151,"LANDMARKID":"1000800001358","LANDMARKCO":"604","LANDMARKNA":"日月潭富豪群渡假","LANDMARKAD":"1000809","ADDRESS":"南投縣魚池鄉日月村水秀街8號","TEL":"049-2850307","COUNTYNAME":"南投縣","TOWNNAME":"魚池鄉","MARKTYPE":"996","Class":"6"},"geometry":{"x":120.93168994148003,"y":23.84868320413316}},{"attributes":{"OBJECTID":17152,"LANDMARKID":"1000800001359","LANDMARKCO":"604","LANDMARKNA":"日月湖畔度假中心","LANDMARKAD":"1000809","ADDRESS":"南投縣魚池鄉日月村義勇街80號","TEL":"049-2850169","COUNTYNAME":"南投縣","TOWNNAME":"魚池鄉","MARKTYPE":"996","Class":"6"},"geometry":{"x":120.93110138917442,"y":23.848213132197195}},{"attributes":{"OBJECTID":17153,"LANDMARKID":"1000800001360","LANDMARKCO":"604","LANDMARKNA":"山中湖民宿","LANDMARKAD":"1000809","ADDRESS":"南投縣魚池鄉日月村德化街30號","TEL":"049-2850121","COUNTYNAME":"南投縣","TOWNNAME":"魚池鄉","MARKTYPE":"996","Class":"6"},"geometry":{"x":120.92980557888411,"y":23.848131972091}},{"attributes":{"OBJECTID":17154,"LANDMARKID":"1000800001361","LANDMARKCO":"604","LANDMARKNA":"湖景渡假民宿","LANDMARKAD":"1000809","ADDRESS":"南投縣魚池鄉日月村德化街32號","TEL":"049-2850121","COUNTYNAME":"南投縣","TOWNNAME":"魚池鄉","MARKTYPE":"996","Class":"6"},"geometry":{"x":120.92976634769933,"y":23.84809581714455}},{"attributes":{"OBJECTID":17155,"LANDMARKID":"1000800001362","LANDMARKCO":"604","LANDMARKNA":"青井澤","LANDMARKAD":"1000809","ADDRESS":"南投縣魚池鄉水社村中興路12巷29號","TEL":"0932-553636","COUNTYNAME":"南投縣","TOWNNAME":"魚池鄉","MARKTYPE":"996","Class":"6"},"geometry":{"x":120.90854771617694,"y":23.865737031403558}},{"attributes":{"OBJECTID":17156,"LANDMARKID":"1000800001363","LANDMARKCO":"604","LANDMARKNA":"槐石園","LANDMARKAD":"1000809","ADDRESS":"南投縣魚池鄉水社村中山路146巷14-1號","TEL":"0933-595971","COUNTYNAME":"南投縣","TOWNNAME":"魚池鄉","MARKTYPE":"996","Class":"6"},"geometry":{"x":120.91186521539325,"y":23.868050882269234}},{"attributes":{"OBJECTID":17157,"LANDMARKID":"1000800001364","LANDMARKCO":"604","LANDMARKNA":"日月潭真善美民宿","LANDMARKAD":"1000809","ADDRESS":"南投縣魚池鄉水社村中興路50號","TEL":"049-2855183","COUNTYNAME":"南投縣","TOWNNAME":"魚池鄉","MARKTYPE":"996","Class":"6"},"geometry":{"x":120.91115081489386,"y":23.864916744388044}},{"attributes":{"OBJECTID":17158,"LANDMARKID":"1000800001365","LANDMARKCO":"604","LANDMARKNA":"水社海渡假民宿","LANDMARKAD":"1000809","ADDRESS":"南投縣魚池鄉水社村名勝街16號","TEL":"049-2855899","COUNTYNAME":"南投縣","TOWNNAME":"魚池鄉","MARKTYPE":"996","Class":"6"},"geometry":{"x":120.91152376377387,"y":23.865034560514221}},{"attributes":{"OBJECTID":17159,"LANDMARKID":"1000800001366","LANDMARKCO":"604","LANDMARKNA":"月伴農莊","LANDMARKAD":"1000809","ADDRESS":"南投縣魚池鄉大林村嵩山巷8-1號","TEL":"049-2898537","COUNTYNAME":"南投縣","TOWNNAME":"魚池鄉","MARKTYPE":"996","Class":"6"},"geometry":{"x":120.94639919214424,"y":23.888745092219217}},{"attributes":{"OBJECTID":17160,"LANDMARKID":"1000800001367","LANDMARKCO":"604","LANDMARKNA":"稻香亭民宿","LANDMARKAD":"1000809","ADDRESS":"南投縣魚池鄉大林村金天巷11號","TEL":"049-2896915","COUNTYNAME":"南投縣","TOWNNAME":"魚池鄉","MARKTYPE":"996","Class":"6"},"geometry":{"x":120.94369498415645,"y":23.874549475900427}},{"attributes":{"OBJECTID":17161,"LANDMARKID":"1000800001368","LANDMARKCO":"604","LANDMARKNA":"思鄉嶺休閒農舍民宿","LANDMARKAD":"1000809","ADDRESS":"南投縣魚池鄉大林村永川巷21-6號","TEL":"049-2895339","COUNTYNAME":"南投縣","TOWNNAME":"魚池鄉","MARKTYPE":"996","Class":"6"},"geometry":{"x":120.94220967169831,"y":23.880219039260481}},{"attributes":{"OBJECTID":17162,"LANDMARKID":"1000800001369","LANDMARKCO":"604","LANDMARKNA":"日月花嫁渡假屋","LANDMARKAD":"1000809","ADDRESS":"南投縣魚池鄉大林村永川巷24-1號","TEL":"049-2897937","COUNTYNAME":"南投縣","TOWNNAME":"魚池鄉","MARKTYPE":"996","Class":"6"},"geometry":{"x":120.94197482289361,"y":23.879288802519799}},{"attributes":{"OBJECTID":17163,"LANDMARKID":"1000800001370","LANDMARKCO":"604","LANDMARKNA":"九族民宿","LANDMARKAD":"1000809","ADDRESS":"南投縣魚池鄉大林村金天巷69-5號","TEL":"049-2898913","COUNTYNAME":"南投縣","TOWNNAME":"魚池鄉","MARKTYPE":"996","Class":"6"},"geometry":{"x":120.94950721963866,"y":23.8784974918402}},{"attributes":{"OBJECTID":17164,"LANDMARKID":"1000800001371","LANDMARKCO":"604","LANDMARKNA":"潔坊","LANDMARKAD":"1000809","ADDRESS":"南投縣魚池鄉共和村長興巷7-11號","TEL":"049-2898127","COUNTYNAME":"南投縣","TOWNNAME":"魚池鄉","MARKTYPE":"996","Class":"6"},"geometry":{"x":120.95257238133352,"y":23.899736385284527}},{"attributes":{"OBJECTID":17165,"LANDMARKID":"1000800001372","LANDMARKCO":"604","LANDMARKNA":"琳居","LANDMARKAD":"1000809","ADDRESS":"南投縣魚池鄉共和村長興巷7-9號","TEL":"0955-805858","COUNTYNAME":"南投縣","TOWNNAME":"魚池鄉","MARKTYPE":"996","Class":"6"},"geometry":{"x":120.95263130965184,"y":23.899736421502098}},{"attributes":{"OBJECTID":17166,"LANDMARKID":"1000800001373","LANDMARKCO":"604","LANDMARKNA":"花鳥新村渡假民宿","LANDMARKAD":"1000809","ADDRESS":"南投縣魚池鄉東光村水尾巷4-5號","TEL":"049-2880452","COUNTYNAME":"南投縣","TOWNNAME":"魚池鄉","MARKTYPE":"996","Class":"6"},"geometry":{"x":120.96118777295307,"y":23.894979353393925}},{"attributes":{"OBJECTID":17167,"LANDMARKID":"1000800001374","LANDMARKCO":"604","LANDMARKNA":"山水田雅舍","LANDMARKAD":"1000809","ADDRESS":"南投縣魚池鄉東光村興善巷58-6號","TEL":"049-2880049","COUNTYNAME":"南投縣","TOWNNAME":"魚池鄉","MARKTYPE":"996","Class":"6"},"geometry":{"x":120.96636527072108,"y":23.885788874385163}},{"attributes":{"OBJECTID":17168,"LANDMARKID":"1000800001375","LANDMARKCO":"604","LANDMARKNA":"東光知性","LANDMARKAD":"1000809","ADDRESS":"南投縣魚池鄉東光村興善巷57-3號","TEL":"049-2880696","COUNTYNAME":"南投縣","TOWNNAME":"魚池鄉","MARKTYPE":"996","Class":"6"},"geometry":{"x":120.96571761174938,"y":23.886258133775524}},{"attributes":{"OBJECTID":17169,"LANDMARKID":"1000800001376","LANDMARKCO":"604","LANDMARKNA":"天然養生民宿","LANDMARKAD":"1000809","ADDRESS":"南投縣魚池鄉東光村慶隆巷45-1號","TEL":"0919-531098","COUNTYNAME":"南投縣","TOWNNAME":"魚池鄉","MARKTYPE":"996","Class":"6"},"geometry":{"x":120.97009571752024,"y":23.89136957088753}},{"attributes":{"OBJECTID":17170,"LANDMARKID":"1000800001377","LANDMARKCO":"604","LANDMARKNA":"峇里峇里","LANDMARKAD":"1000809","ADDRESS":"南投縣魚池鄉東光村慶隆巷73號","TEL":"049-2880928","COUNTYNAME":"南投縣","TOWNNAME":"魚池鄉","MARKTYPE":"996","Class":"6"},"geometry":{"x":120.96671586119153,"y":23.897093590268923}},{"attributes":{"OBJECTID":17171,"LANDMARKID":"1000800001378","LANDMARKCO":"604","LANDMARKNA":"頭社民宿","LANDMARKAD":"1000809","ADDRESS":"南投縣魚池鄉武登村協力巷52-6號","TEL":"049-2861349","COUNTYNAME":"南投縣","TOWNNAME":"魚池鄉","MARKTYPE":"996","Class":"6"},"geometry":{"x":120.89537895850712,"y":23.830431878405847}},{"attributes":{"OBJECTID":17172,"LANDMARKID":"1000800001379","LANDMARKCO":"604","LANDMARKNA":"石家莊","LANDMARKAD":"1000809","ADDRESS":"南投縣魚池鄉中明村文正巷5-16號","TEL":"049-2899935","COUNTYNAME":"南投縣","TOWNNAME":"魚池鄉","MARKTYPE":"996","Class":"6"},"geometry":{"x":120.91980325976887,"y":23.892958922547685}},{"attributes":{"OBJECTID":17173,"LANDMARKID":"1000800001380","LANDMARKCO":"604","LANDMARKNA":"長虹渡假民宿","LANDMARKAD":"1000809","ADDRESS":"南投縣魚池鄉魚池村秀水巷25-36號","TEL":"049-2896512","COUNTYNAME":"南投縣","TOWNNAME":"魚池鄉","MARKTYPE":"996","Class":"6"},"geometry":{"x":120.93786270637308,"y":23.895414854711674}},{"attributes":{"OBJECTID":17174,"LANDMARKID":"1000800001381","LANDMARKCO":"604","LANDMARKNA":"朝霧渡假民宿","LANDMARKAD":"1000809","ADDRESS":"南投縣魚池鄉魚池村秀水巷25-8號","TEL":"049-2855000","COUNTYNAME":"南投縣","TOWNNAME":"魚池鄉","MARKTYPE":"996","Class":"6"},"geometry":{"x":120.93798987881358,"y":23.895938679939231}},{"attributes":{"OBJECTID":17175,"LANDMARKID":"1000800001382","LANDMARKCO":"604","LANDMARKNA":"ㄚ薩姆民宿","LANDMARKAD":"1000809","ADDRESS":"南投縣魚池鄉魚池村瓊文巷33-5號","TEL":"049-2897461","COUNTYNAME":"南投縣","TOWNNAME":"魚池鄉","MARKTYPE":"996","Class":"6"},"geometry":{"x":120.93748696251757,"y":23.900841396217324}},{"attributes":{"OBJECTID":17176,"LANDMARKID":"1000800001383","LANDMARKCO":"604","LANDMARKNA":"小太陽農莊民宿","LANDMARKAD":"1000809","ADDRESS":"南投縣魚池鄉新城村通文巷42-2號","TEL":"049-2895749","COUNTYNAME":"南投縣","TOWNNAME":"魚池鄉","MARKTYPE":"996","Class":"6"},"geometry":{"x":120.92509700508147,"y":23.908140359747222}},{"attributes":{"OBJECTID":17177,"LANDMARKID":"1000800001384","LANDMARKCO":"604","LANDMARKNA":"薇勝客居","LANDMARKAD":"1000809","ADDRESS":"南投縣魚池鄉新城村通文巷48-3號","TEL":"049-2897841","COUNTYNAME":"南投縣","TOWNNAME":"魚池鄉","MARKTYPE":"996","Class":"6"},"geometry":{"x":120.92533227497628,"y":23.909928465488647}},{"attributes":{"OBJECTID":17178,"LANDMARKID":"1000800001385","LANDMARKCO":"604","LANDMARKNA":"卉芯蘭園休閒民宿","LANDMARKAD":"1000809","ADDRESS":"南投縣魚池鄉新城村通文巷5-4號","TEL":"049-2897075","COUNTYNAME":"南投縣","TOWNNAME":"魚池鄉","MARKTYPE":"996","Class":"6"},"geometry":{"x":120.92627911428718,"y":23.903698897218565}},{"attributes":{"OBJECTID":17179,"LANDMARKID":"1000800001386","LANDMARKCO":"604","LANDMARKNA":"三合院民宿","LANDMARKAD":"1000809","ADDRESS":"南投縣魚池鄉頭社村平和巷102號","TEL":"049-2861127","COUNTYNAME":"南投縣","TOWNNAME":"魚池鄉","MARKTYPE":"996","Class":"6"},"geometry":{"x":120.90398537979743,"y":23.83482606459755}},{"attributes":{"OBJECTID":17180,"LANDMARKID":"1000800001387","LANDMARKCO":"604","LANDMARKNA":"翠巒山莊","LANDMARKAD":"1000809","ADDRESS":"南投縣魚池鄉大雁村山楂腳巷29-3號","TEL":"049-2896603","COUNTYNAME":"南投縣","TOWNNAME":"魚池鄉","MARKTYPE":"996","Class":"6"},"geometry":{"x":120.90393553624484,"y":23.916924177374064}},{"attributes":{"OBJECTID":17181,"LANDMARKID":"1000800001388","LANDMARKCO":"604","LANDMARKNA":"頭社望高瞭","LANDMARKAD":"1000809","ADDRESS":"南投縣魚池鄉頭社村平和巷20-3號","TEL":"049-2861212","COUNTYNAME":"南投縣","TOWNNAME":"魚池鄉","MARKTYPE":"996","Class":"6"},"geometry":{"x":120.90274037331646,"y":23.820170959149745}},{"attributes":{"OBJECTID":17182,"LANDMARKID":"1000800001389","LANDMARKCO":"604","LANDMARKNA":"綠野鄉居民宿","LANDMARKAD":"1000809","ADDRESS":"南投縣魚池鄉大雁村大雁巷47-5號","TEL":"049-2899132","COUNTYNAME":"南投縣","TOWNNAME":"魚池鄉","MARKTYPE":"996","Class":"6"},"geometry":{"x":120.91839217948093,"y":23.918621277811095}},{"attributes":{"OBJECTID":17183,"LANDMARKID":"1000800001390","LANDMARKCO":"604","LANDMARKNA":"清平樂村居","LANDMARKAD":"1000809","ADDRESS":"南投縣魚池鄉大雁村大雁巷26-5號","TEL":"049-2897645","COUNTYNAME":"南投縣","TOWNNAME":"魚池鄉","MARKTYPE":"996","Class":"6"},"geometry":{"x":120.91770580779689,"y":23.917654370806591}},{"attributes":{"OBJECTID":17184,"LANDMARKID":"1000800001391","LANDMARKCO":"604","LANDMARKNA":"盧園民宿","LANDMARKAD":"1000809","ADDRESS":"南投縣魚池鄉大雁村大雁巷39-6號","TEL":"049-2898367","COUNTYNAME":"南投縣","TOWNNAME":"魚池鄉","MARKTYPE":"996","Class":"6"},"geometry":{"x":120.91844910458323,"y":23.923000725449032}},{"attributes":{"OBJECTID":17185,"LANDMARKID":"1000800001392","LANDMARKCO":"604","LANDMARKNA":"馨蓮鄉居民宿","LANDMARKAD":"1000809","ADDRESS":"南投縣魚池鄉大雁村大雁巷41-1號","TEL":"049-2899911","COUNTYNAME":"南投縣","TOWNNAME":"魚池鄉","MARKTYPE":"996","Class":"6"},"geometry":{"x":120.91727981960872,"y":23.923270365642058}},{"attributes":{"OBJECTID":17186,"LANDMARKID":"1000800001393","LANDMARKCO":"604","LANDMARKNA":"古舍古鄉民宿","LANDMARKAD":"1000809","ADDRESS":"南投縣魚池鄉大雁村大雁巷43號","TEL":"049-2898432","COUNTYNAME":"南投縣","TOWNNAME":"魚池鄉","MARKTYPE":"996","Class":"6"},"geometry":{"x":120.91645433483173,"y":23.922151326365277}},{"attributes":{"OBJECTID":17187,"LANDMARKID":"1000800001394","LANDMARKCO":"604","LANDMARKNA":"澀水田園民宿","LANDMARKAD":"1000809","ADDRESS":"南投縣魚池鄉大雁村大雁巷45-1號","TEL":"049-2899132","COUNTYNAME":"南投縣","TOWNNAME":"魚池鄉","MARKTYPE":"996","Class":"6"},"geometry":{"x":120.91732995982801,"y":23.921076211488803}},{"attributes":{"OBJECTID":17188,"LANDMARKID":"1000800001395","LANDMARKCO":"604","LANDMARKNA":"山泉水民宿","LANDMARKAD":"1000809","ADDRESS":"南投縣魚池鄉大雁村大雁巷47-6號","TEL":"049-2896907","COUNTYNAME":"南投縣","TOWNNAME":"魚池鄉","MARKTYPE":"996","Class":"6"},"geometry":{"x":120.91798923956246,"y":23.918783383393521}},{"attributes":{"OBJECTID":17189,"LANDMARKID":"1000800001396","LANDMARKCO":"604","LANDMARKNA":"松居歐風休閒會館","LANDMARKAD":"1000809","ADDRESS":"南投縣魚池鄉大雁村大雁巷47-7號","TEL":"049-2895589","COUNTYNAME":"南投縣","TOWNNAME":"魚池鄉","MARKTYPE":"996","Class":"6"},"geometry":{"x":120.91887371946338,"y":23.919831762719877}},{"attributes":{"OBJECTID":17190,"LANDMARKID":"1000800001397","LANDMARKCO":"604","LANDMARKNA":"膨鼠紅茶","LANDMARKAD":"1000809","ADDRESS":"南投縣魚池鄉中明村文化巷2-6號","TEL":"049-2897127","COUNTYNAME":"南投縣","TOWNNAME":"魚池鄉","MARKTYPE":"996","Class":"6"},"geometry":{"x":120.92141799867628,"y":23.88676621274513}},{"attributes":{"OBJECTID":17191,"LANDMARKID":"1000800001398","LANDMARKCO":"604","LANDMARKNA":"水漾民宿","LANDMARKAD":"1000809","ADDRESS":"南投縣魚池鄉日月村豐年街56號","TEL":"049-2850368","COUNTYNAME":"南投縣","TOWNNAME":"魚池鄉","MARKTYPE":"996","Class":"6"},"geometry":{"x":120.92907857304776,"y":23.847219301855983}},{"attributes":{"OBJECTID":17192,"LANDMARKID":"1000800001399","LANDMARKCO":"604","LANDMARKNA":"快樂腳休閒屋","LANDMARKAD":"1000809","ADDRESS":"南投縣魚池鄉大雁村大雁巷33-1號","TEL":"049-2897099","COUNTYNAME":"南投縣","TOWNNAME":"魚池鄉","MARKTYPE":"996","Class":"6"},"geometry":{"x":120.92033486374574,"y":23.92182736690604}},{"attributes":{"OBJECTID":17193,"LANDMARKID":"1000800001400","LANDMARKCO":"604","LANDMARKNA":"楊媽媽民宿","LANDMARKAD":"1000809","ADDRESS":"南投縣魚池鄉日月村文化街47號","TEL":"049-2850066","COUNTYNAME":"南投縣","TOWNNAME":"魚池鄉","MARKTYPE":"996","Class":"6"},"geometry":{"x":120.93097340064227,"y":23.847165566704334}},{"attributes":{"OBJECTID":17194,"LANDMARKID":"1000800001401","LANDMARKCO":"604","LANDMARKNA":"微館民宿","LANDMARKAD":"1000809","ADDRESS":"南投縣魚池鄉日月村義勇街88號","TEL":"0939-520525","COUNTYNAME":"南投縣","TOWNNAME":"魚池鄉","MARKTYPE":"996","Class":"6"},"geometry":{"x":120.93097361948716,"y":23.848348464400345}},{"attributes":{"OBJECTID":17195,"LANDMARKID":"1000800000958","LANDMARKCO":"601","LANDMARKNA":"日月潭汎麗雅酒店","LANDMARKAD":"1000809","ADDRESS":"南投縣魚池鄉水社村中正路23號","TEL":"049-2855500","COUNTYNAME":"南投縣","TOWNNAME":"魚池鄉","MARKTYPE":"996","Class":"6"},"geometry":{"x":120.9234597532198,"y":23.870820364679744}},{"attributes":{"OBJECTID":17196,"LANDMARKID":"1000800000959","LANDMARKCO":"602","LANDMARKNA":"水沙蓮大飯店","LANDMARKAD":"1000809","ADDRESS":"南投縣魚池鄉名勝街5號","TEL":"049-2855-855","COUNTYNAME":"南投縣","TOWNNAME":"魚池鄉","MARKTYPE":"996","Class":"6"},"geometry":{"x":120.91176940260686,"y":23.864908426101739}},{"attributes":{"OBJECTID":17197,"LANDMARKID":"1000800000957","LANDMARKCO":"601","LANDMARKNA":"涵碧樓大飯店","LANDMARKAD":"1000809","ADDRESS":"南投縣魚池鄉魚池鄉水社村中興路142號","TEL":"049-2285-5311","COUNTYNAME":"南投縣","TOWNNAME":"魚池鄉","MARKTYPE":"996","Class":"6"},"geometry":{"x":120.90931922996671,"y":23.863653656344791}},{"attributes":{"OBJECTID":17198,"LANDMARKID":"1000800000823","LANDMARKCO":"503","LANDMARKNA":"蓮華池自然保護區","LANDMARKAD":"1000809","ADDRESS":"南投縣魚池鄉","TEL":" ","COUNTYNAME":"南投縣","TOWNNAME":"魚池鄉","MARKTYPE":"995","Class":"5"},"geometry":{"x":120.89395430485766,"y":23.928418160069583}},{"attributes":{"OBJECTID":17199,"LANDMARKID":"1000800000824","LANDMARKCO":"503","LANDMARKNA":"清水溝溪魚蝦保護區","LANDMARKAD":"1000809","ADDRESS":"南投縣魚池鄉","TEL":" ","COUNTYNAME":"南投縣","TOWNNAME":"魚池鄉","MARKTYPE":"995","Class":"5"},"geometry":{"x":120.96854806220978,"y":23.859402800311699}},{"attributes":{"OBJECTID":17200,"LANDMARKID":"1000800000863","LANDMARKCO":"505","LANDMARKNA":"九族文化村","LANDMARKAD":"1000809","ADDRESS":"南投縣魚池鄉大林村金天巷45號","TEL":" ","COUNTYNAME":"南投縣","TOWNNAME":"魚池鄉","MARKTYPE":"995","Class":"5"},"geometry":{"x":120.94733770880998,"y":23.868916712496308}}]}