{"displayFieldName":"COUNTYNAME","fieldAliases":{"OBJECTID":"OBJECTID","LANDMARKID":"LANDMARKID","LANDMARKCO":"LANDMARKCO","LANDMARKNA":"LANDMARKNA","LANDMARKAD":"LANDMARKAD","ADDRESS":"ADDRESS","TEL":"TEL","COUNTYNAME":"COUNTYNAME","TOWNNAME":"TOWNNAME","MARKTYPE":"MARKTYPE","Class":"Class"},"geometryType":"esriGeometryPoint","spatialReference":{"wkid":4326},"fields":[{"name":"OBJECTID","type":"esriFieldTypeOID","alias":"OBJECTID"},{"name":"LANDMARKID","type":"esriFieldTypeString","alias":"LANDMARKID","length":15},{"name":"LANDMARKCO","type":"esriFieldTypeString","alias":"LANDMARKCO","length":15},{"name":"LANDMARKNA","type":"esriFieldTypeString","alias":"LANDMARKNA","length":50},{"name":"LANDMARKAD","type":"esriFieldTypeString","alias":"LANDMARKAD","length":15},{"name":"ADDRESS","type":"esriFieldTypeString","alias":"ADDRESS","length":56},{"name":"TEL","type":"esriFieldTypeString","alias":"TEL","length":36},{"name":"COUNTYNAME","type":"esriFieldTypeString","alias":"COUNTYNAME","length":15},{"name":"TOWNNAME","type":"esriFieldTypeString","alias":"TOWNNAME","length":13},{"name":"MARKTYPE","type":"esriFieldTypeString","alias":"MARKTYPE","length":12},{"name":"Class","type":"esriFieldTypeString","alias":"Class","length":5}],"features":[{"attributes":{"OBJECTID":15601,"LANDMARKID":"1001300000114","LANDMARKCO":"104","LANDMARKNA":"屏東縣政府稅務局潮州分處","LANDMARKAD":"1001302","ADDRESS":"屏東縣潮州鎮三華巷16號","TEL":"08-7882744","COUNTYNAME":"屏東縣","TOWNNAME":"潮州鎮","MARKTYPE":"991","Class":"1"},"geometry":{"x":120.54546131309131,"y":22.550952787185622}},{"attributes":{"OBJECTID":15602,"LANDMARKID":"1001300000025","LANDMARKCO":"101","LANDMARKNA":"台灣屏東地方法院潮州簡易庭","LANDMARKAD":"1001302","ADDRESS":"屏東縣潮州鎮光春路300號","TEL":"08-7898201","COUNTYNAME":"屏東縣","TOWNNAME":"潮州鎮","MARKTYPE":"991","Class":"1"},"geometry":{"x":120.54090639785564,"y":22.533061279321608}},{"attributes":{"OBJECTID":15603,"LANDMARKID":"1001300000026","LANDMARKCO":"101","LANDMARKNA":"林務局屏東林區管理處潮州工作站","LANDMARKAD":"1001302","ADDRESS":"屏東縣潮州鎮三林路208巷1號","TEL":"08-7882647","COUNTYNAME":"屏東縣","TOWNNAME":"潮州鎮","MARKTYPE":"991","Class":"1"},"geometry":{"x":120.54854972259668,"y":22.554394142623494}},{"attributes":{"OBJECTID":15604,"LANDMARKID":"1001300000027","LANDMARKCO":"101","LANDMARKNA":"營建署東港工務所","LANDMARKAD":"1001302","ADDRESS":"屏東縣屏東市前進里43號","TEL":"08-7517970","COUNTYNAME":"屏東縣","TOWNNAME":"潮州鎮","MARKTYPE":"991","Class":"1"},"geometry":{"x":120.54407990211899,"y":22.558981450237599}},{"attributes":{"OBJECTID":15605,"LANDMARKID":"1001300000656","LANDMARKCO":"204","LANDMARKNA":"屏東縣立圖書館潮州分館","LANDMARKAD":"1001302","ADDRESS":"屏東縣潮州鎮三星路39號","TEL":" ","COUNTYNAME":"屏東縣","TOWNNAME":"潮州鎮","MARKTYPE":"992","Class":"2"},"geometry":{"x":120.54922296463151,"y":22.54686893471743}},{"attributes":{"OBJECTID":15606,"LANDMARKID":"1001300000367","LANDMARKCO":"202","LANDMARKNA":"私立明德高中","LANDMARKAD":"1001302","ADDRESS":"屏東縣潮州鎮永春里永德路2號","TEL":"08-7886711","COUNTYNAME":"屏東縣","TOWNNAME":"潮州鎮","MARKTYPE":"992","Class":"2"},"geometry":{"x":120.54115595621897,"y":22.544342491880091}},{"attributes":{"OBJECTID":15607,"LANDMARKID":"1001300000463","LANDMARKCO":"203","LANDMARKNA":"縣立光春國小","LANDMARKAD":"1001302","ADDRESS":"屏東縣潮州鎮光春里光春路311號","TEL":"08-7882509","COUNTYNAME":"屏東縣","TOWNNAME":"潮州鎮","MARKTYPE":"992","Class":"2"},"geometry":{"x":120.54335524018531,"y":22.533961335829087}},{"attributes":{"OBJECTID":15608,"LANDMARKID":"1001300000368","LANDMARKCO":"202","LANDMARKNA":"私立日新工商","LANDMARKAD":"1001302","ADDRESS":"屏東縣潮州鎮太平路224號","TEL":"08-7882343","COUNTYNAME":"屏東縣","TOWNNAME":"潮州鎮","MARKTYPE":"992","Class":"2"},"geometry":{"x":120.53628960536942,"y":22.557065351400297}},{"attributes":{"OBJECTID":15609,"LANDMARKID":"1001300000369","LANDMARKCO":"202","LANDMARKNA":"私立志成商工","LANDMARKAD":"1001302","ADDRESS":"屏東縣潮州鎮彭城路315號","TEL":"08-7882402","COUNTYNAME":"屏東縣","TOWNNAME":"潮州鎮","MARKTYPE":"992","Class":"2"},"geometry":{"x":120.54661333416072,"y":22.540212341486637}},{"attributes":{"OBJECTID":15610,"LANDMARKID":"1001300000370","LANDMARKCO":"202","LANDMARKNA":"國立潮州高中","LANDMARKAD":"1001302","ADDRESS":"屏東縣潮州鎮中山路11號","TEL":"08-7881688","COUNTYNAME":"屏東縣","TOWNNAME":"潮州鎮","MARKTYPE":"992","Class":"2"},"geometry":{"x":120.54468387134675,"y":22.549503434067756}},{"attributes":{"OBJECTID":15611,"LANDMARKID":"1001300000453","LANDMARKCO":"203","LANDMARKNA":"縣立潮州國中","LANDMARKAD":"1001302","ADDRESS":"屏東縣潮州鎮文化路66號","TEL":"08-7882401","COUNTYNAME":"屏東縣","TOWNNAME":"潮州鎮","MARKTYPE":"992","Class":"2"},"geometry":{"x":120.54295149104153,"y":22.554017010134899}},{"attributes":{"OBJECTID":15612,"LANDMARKID":"1001300000454","LANDMARKCO":"203","LANDMARKNA":"縣立光春國中","LANDMARKAD":"1001302","ADDRESS":"屏東縣潮州鎮光春路290號","TEL":"08-7887038","COUNTYNAME":"屏東縣","TOWNNAME":"潮州鎮","MARKTYPE":"992","Class":"2"},"geometry":{"x":120.539757693189,"y":22.534680296875269}},{"attributes":{"OBJECTID":15613,"LANDMARKID":"1001300000455","LANDMARKCO":"203","LANDMARKNA":"縣立潮昇國小","LANDMARKAD":"1001302","ADDRESS":"屏東縣潮州鎮北門路25號","TEL":"08-7805568","COUNTYNAME":"屏東縣","TOWNNAME":"潮州鎮","MARKTYPE":"992","Class":"2"},"geometry":{"x":120.54773469770986,"y":22.557008562957328}},{"attributes":{"OBJECTID":15614,"LANDMARKID":"1001300000456","LANDMARKCO":"203","LANDMARKNA":"縣立潮州國小","LANDMARKAD":"1001302","ADDRESS":"屏東縣潮州鎮同榮里育英路31號","TEL":"08-7882770","COUNTYNAME":"屏東縣","TOWNNAME":"潮州鎮","MARKTYPE":"992","Class":"2"},"geometry":{"x":120.54115179609381,"y":22.548415455594427}},{"attributes":{"OBJECTID":15615,"LANDMARKID":"1001300000457","LANDMARKCO":"203","LANDMARKNA":"縣立光華國小","LANDMARKAD":"1001302","ADDRESS":"屏東縣潮州鎮光華里南進路2號","TEL":"08-7882105","COUNTYNAME":"屏東縣","TOWNNAME":"潮州鎮","MARKTYPE":"992","Class":"2"},"geometry":{"x":120.54367722173806,"y":22.547338149381822}},{"attributes":{"OBJECTID":15616,"LANDMARKID":"1001300000458","LANDMARKCO":"203","LANDMARKNA":"縣立潮東國小","LANDMARKAD":"1001302","ADDRESS":"屏東縣潮州鎮九塊里復興路66號","TEL":"08-7871364","COUNTYNAME":"屏東縣","TOWNNAME":"潮州鎮","MARKTYPE":"992","Class":"2"},"geometry":{"x":120.56091190180513,"y":22.523093870791509}},{"attributes":{"OBJECTID":15617,"LANDMARKID":"1001300000459","LANDMARKCO":"203","LANDMARKNA":"縣立潮和國小","LANDMARKAD":"1001302","ADDRESS":"屏東縣潮州鎮三和里華巖街1號","TEL":"08-7804052","COUNTYNAME":"屏東縣","TOWNNAME":"潮州鎮","MARKTYPE":"992","Class":"2"},"geometry":{"x":120.53805128938113,"y":22.55680455824184}},{"attributes":{"OBJECTID":15618,"LANDMARKID":"1001300000460","LANDMARKCO":"203","LANDMARKNA":"縣立四林國小","LANDMARKAD":"1001302","ADDRESS":"屏東縣潮州鎮四林里開元路2巷1號","TEL":"08-7882174","COUNTYNAME":"屏東縣","TOWNNAME":"潮州鎮","MARKTYPE":"992","Class":"2"},"geometry":{"x":120.57059100516543,"y":22.542803755726521}},{"attributes":{"OBJECTID":15619,"LANDMARKID":"1001300000461","LANDMARKCO":"203","LANDMARKNA":"縣立潮南國小","LANDMARKAD":"1001302","ADDRESS":"屏東縣潮州鎮興美里興美路24號","TEL":"08-7882312","COUNTYNAME":"屏東縣","TOWNNAME":"潮州鎮","MARKTYPE":"992","Class":"2"},"geometry":{"x":120.53466597324757,"y":22.51299247734071}},{"attributes":{"OBJECTID":15620,"LANDMARKID":"1001300000462","LANDMARKCO":"203","LANDMARKNA":"縣立潮東國小崙川分校","LANDMARKAD":"1001302","ADDRESS":"屏東縣潮州鎮新開南路16號","TEL":"08-7872260","COUNTYNAME":"屏東縣","TOWNNAME":"潮州鎮","MARKTYPE":"992","Class":"2"},"geometry":{"x":120.59607247386829,"y":22.520202693676875}},{"attributes":{"OBJECTID":15621,"LANDMARKID":"1001300000782","LANDMARKCO":"303","LANDMARKNA":"八大森林博覽樂園停車場","LANDMARKAD":"1001302","ADDRESS":"屏東縣潮州鎮潮州路800號","TEL":" ","COUNTYNAME":"屏東縣","TOWNNAME":"潮州鎮","MARKTYPE":"993","Class":"303"},"geometry":{"x":120.55833917409915,"y":22.546409463682355}},{"attributes":{"OBJECTID":15622,"LANDMARKID":"1001300000800","LANDMARKCO":"308","LANDMARKNA":"國3-崁頂交流道-北上","LANDMARKAD":"1001302","ADDRESS":"屏東縣崁頂鄉","TEL":" ","COUNTYNAME":"屏東縣","TOWNNAME":"潮州鎮","MARKTYPE":"993","Class":"308"},"geometry":{"x":120.52437833088966,"y":22.518251876616358}},{"attributes":{"OBJECTID":15623,"LANDMARKID":"1001300000705","LANDMARKCO":"302","LANDMARKNA":"屏東汽車客運潮州站","LANDMARKAD":"1001302","ADDRESS":"屏東縣潮州鎮中山路180號","TEL":" ","COUNTYNAME":"屏東縣","TOWNNAME":"潮州鎮","MARKTYPE":"993","Class":"302"},"geometry":{"x":120.53787001377979,"y":22.54979898089266}},{"attributes":{"OBJECTID":15624,"LANDMARKID":"1001300000780","LANDMARKCO":"303","LANDMARKNA":"潮州運動公園停車場","LANDMARKAD":"1001302","ADDRESS":"屏東縣潮州鎮三城路、福興路交叉口","TEL":" ","COUNTYNAME":"屏東縣","TOWNNAME":"潮州鎮","MARKTYPE":"993","Class":"303"},"geometry":{"x":120.54876170816874,"y":22.546072406021654}},{"attributes":{"OBJECTID":15625,"LANDMARKID":"1001300000781","LANDMARKCO":"303","LANDMARKNA":"潮州鎮停車場","LANDMARKAD":"1001302","ADDRESS":"屏東縣潮州鎮三城路","TEL":" ","COUNTYNAME":"屏東縣","TOWNNAME":"潮州鎮","MARKTYPE":"993","Class":"303"},"geometry":{"x":120.54902599791041,"y":22.542606696529297}},{"attributes":{"OBJECTID":15626,"LANDMARKID":"1001300000702","LANDMARKCO":"301","LANDMARKNA":"潮州火車站","LANDMARKAD":"1001302","ADDRESS":"屏東縣潮州鎮信義路111號","TEL":"08-7882739","COUNTYNAME":"屏東縣","TOWNNAME":"潮州鎮","MARKTYPE":"993","Class":"301"},"geometry":{"x":120.53635311411524,"y":22.549963905931413}},{"attributes":{"OBJECTID":15627,"LANDMARKID":"1001300000865","LANDMARKCO":"402","LANDMARKNA":"中華電信-潮州服務中心","LANDMARKAD":"1001302","ADDRESS":"屏東縣潮州鎮新生路123號","TEL":"(08)744-1006","COUNTYNAME":"屏東縣","TOWNNAME":"潮州鎮","MARKTYPE":"994","Class":"4"},"geometry":{"x":120.5390063964585,"y":22.551564054497796}},{"attributes":{"OBJECTID":15628,"LANDMARKID":"1001300000866","LANDMARKCO":"402","LANDMARKNA":"威寶電信-潮州延平特約服務中心","LANDMARKAD":"1001302","ADDRESS":"屏東縣潮州鎮延平路39號","TEL":"08-7890983","COUNTYNAME":"屏東縣","TOWNNAME":"潮州鎮","MARKTYPE":"994","Class":"4"},"geometry":{"x":120.54014709265557,"y":22.552564008617864}},{"attributes":{"OBJECTID":15629,"LANDMARKID":"1001300000867","LANDMARKCO":"402","LANDMARKNA":"威寶電信-潮州介壽特約服務中心","LANDMARKAD":"1001302","ADDRESS":"屏東縣潮州鎮介壽路28號","TEL":"08-7807501","COUNTYNAME":"屏東縣","TOWNNAME":"潮州鎮","MARKTYPE":"994","Class":"4"},"geometry":{"x":120.53659875645839,"y":22.545326781777401}},{"attributes":{"OBJECTID":15630,"LANDMARKID":"1001300001313","LANDMARKCO":"603","LANDMARKNA":"鳳宮大旅社","LANDMARKAD":"1001302","ADDRESS":"屏東縣潮州鎮平安路32號之4","TEL":"08-7883335","COUNTYNAME":"屏東縣","TOWNNAME":"潮州鎮","MARKTYPE":"996","Class":"6"},"geometry":{"x":120.53692104267829,"y":22.552384398132361}},{"attributes":{"OBJECTID":15631,"LANDMARKID":"1001300001314","LANDMARKCO":"603","LANDMARKNA":"南峰大旅社","LANDMARKAD":"1001302","ADDRESS":"屏東縣潮州鎮新生路56號","TEL":"08-7883131","COUNTYNAME":"屏東縣","TOWNNAME":"潮州鎮","MARKTYPE":"996","Class":"6"},"geometry":{"x":120.53844271493242,"y":22.548678875496403}},{"attributes":{"OBJECTID":15632,"LANDMARKID":"1001300001315","LANDMARKCO":"603","LANDMARKNA":"成功大旅社","LANDMARKAD":"1001302","ADDRESS":"屏東縣潮州鎮信義路66號","TEL":"08-8831112","COUNTYNAME":"屏東縣","TOWNNAME":"潮州鎮","MARKTYPE":"996","Class":"6"},"geometry":{"x":120.53657539236336,"y":22.548758448855992}},{"attributes":{"OBJECTID":15633,"LANDMARKID":"1001300001316","LANDMARKCO":"603","LANDMARKNA":"盧山大旅社","LANDMARKAD":"1001302","ADDRESS":"屏東縣潮州鎮平安路6-2號","TEL":"08-7883135","COUNTYNAME":"屏東縣","TOWNNAME":"潮州鎮","MARKTYPE":"996","Class":"6"},"geometry":{"x":120.53791141122177,"y":22.552468869990875}},{"attributes":{"OBJECTID":15634,"LANDMARKID":"1001300001317","LANDMARKCO":"603","LANDMARKNA":"永慶大旅社","LANDMARKAD":"1001302","ADDRESS":"屏東縣潮州鎮光復路一段31號","TEL":"08-7882388","COUNTYNAME":"屏東縣","TOWNNAME":"潮州鎮","MARKTYPE":"996","Class":"6"},"geometry":{"x":120.53183933233089,"y":22.509281415647585}},{"attributes":{"OBJECTID":15635,"LANDMARKID":"1001300001224","LANDMARKCO":"505","LANDMARKNA":"八大森林博覽樂園","LANDMARKAD":"1001302","ADDRESS":"屏東縣潮州鎮潮州路800號","TEL":" ","COUNTYNAME":"屏東縣","TOWNNAME":"潮州鎮","MARKTYPE":"995","Class":"5"},"geometry":{"x":120.55784195301926,"y":22.54805281778355}},{"attributes":{"OBJECTID":15636,"LANDMARKID":"1001300000949","LANDMARKCO":"405","LANDMARKNA":"中油加油站-崁頂站(中油直營)","LANDMARKAD":"1001318","ADDRESS":"屏東縣崁頂鄉崁頂村中正路251號","TEL":"08-8632842","COUNTYNAME":"屏東縣","TOWNNAME":"崁頂鄉","MARKTYPE":"994","Class":"4"},"geometry":{"x":120.52067671623362,"y":22.521620553267248}},{"attributes":{"OBJECTID":15637,"LANDMARKID":"1001300001136","LANDMARKCO":"408","LANDMARKNA":"郵局-崁頂郵局","LANDMARKAD":"1001318","ADDRESS":"屏東縣崁頂鄉崁頂村中正路220號","TEL":"(08)8631-116","COUNTYNAME":"屏東縣","TOWNNAME":"崁頂鄉","MARKTYPE":"994","Class":"4"},"geometry":{"x":120.51353921260497,"y":22.514468814276182}},{"attributes":{"OBJECTID":15638,"LANDMARKID":"1001300001167","LANDMARKCO":"409","LANDMARKNA":"崁頂鄉農會","LANDMARKAD":"1001318","ADDRESS":"屏東縣崁頂鄉崁頂村 田寮路20號","TEL":"08-8632225","COUNTYNAME":"屏東縣","TOWNNAME":"崁頂鄉","MARKTYPE":"994","Class":"4"},"geometry":{"x":120.52215946736152,"y":22.513321325639424}},{"attributes":{"OBJECTID":15639,"LANDMARKID":"1001300000173","LANDMARKCO":"107","LANDMARKNA":"屏東縣消防局崁頂消防分隊","LANDMARKAD":"1001318","ADDRESS":"屏東縣崁頂鄉崁頂村興農路20之10號","TEL":"08-8632430","COUNTYNAME":"屏東縣","TOWNNAME":"崁頂鄉","MARKTYPE":"991","Class":"1"},"geometry":{"x":120.50873541696015,"y":22.513355366374505}},{"attributes":{"OBJECTID":15640,"LANDMARKID":"1001300000150","LANDMARKCO":"106","LANDMARKNA":"屏東縣崁頂鄉戶政事務所","LANDMARKAD":"1001318","ADDRESS":"屏東縣崁頂鄉崁頂村14鄰中正路117之1號","TEL":"08-8631361","COUNTYNAME":"屏東縣","TOWNNAME":"崁頂鄉","MARKTYPE":"991","Class":"1"},"geometry":{"x":120.51103150238033,"y":22.51355899604636}},{"attributes":{"OBJECTID":15641,"LANDMARKID":"1001300000192","LANDMARKCO":"107","LANDMARKNA":"屏東縣警察局崁頂分駐所","LANDMARKAD":"1001318","ADDRESS":"屏東縣崁頂鄉崁頂村中正路117號","TEL":"08-8631404","COUNTYNAME":"屏東縣","TOWNNAME":"崁頂鄉","MARKTYPE":"991","Class":"1"},"geometry":{"x":120.51129524335187,"y":22.513371518091237}},{"attributes":{"OBJECTID":15642,"LANDMARKID":"1001300000068","LANDMARKCO":"103","LANDMARKNA":"屏東縣崁頂鄉衛生所","LANDMARKAD":"1001318","ADDRESS":"屏東縣崁頂鄉興農路29之9號","TEL":"08-8631454","COUNTYNAME":"屏東縣","TOWNNAME":"崁頂鄉","MARKTYPE":"991","Class":"1"},"geometry":{"x":120.50733029509213,"y":22.514628648698057}},{"attributes":{"OBJECTID":15643,"LANDMARKID":"1001300000326","LANDMARKCO":"108","LANDMARKNA":"屏東縣崁頂鄉公所","LANDMARKAD":"1001318","ADDRESS":"屏東縣崁頂鄉中正路230號","TEL":"08-8631144","COUNTYNAME":"屏東縣","TOWNNAME":"崁頂鄉","MARKTYPE":"991","Class":"1"},"geometry":{"x":120.51409503262124,"y":22.51473469575318}},{"attributes":{"OBJECTID":15644,"LANDMARKID":"1001300000069","LANDMARKCO":"103","LANDMARKNA":"屏東縣崁頂鄉民代表會","LANDMARKAD":"1001318","ADDRESS":"屏東縣崁頂鄉中正路230號","TEL":"08-8631034","COUNTYNAME":"屏東縣","TOWNNAME":"崁頂鄉","MARKTYPE":"991","Class":"1"},"geometry":{"x":120.51409503262124,"y":22.51473469575318}},{"attributes":{"OBJECTID":15645,"LANDMARKID":"1001300000655","LANDMARKCO":"204","LANDMARKNA":"屏東縣立圖書館崁頂分館","LANDMARKAD":"1001318","ADDRESS":"屏東縣崁頂鄉崁頂村中正路230號","TEL":" ","COUNTYNAME":"屏東縣","TOWNNAME":"崁頂鄉","MARKTYPE":"992","Class":"2"},"geometry":{"x":120.51249154296191,"y":22.513543713828678}},{"attributes":{"OBJECTID":15646,"LANDMARKID":"1001300000464","LANDMARKCO":"203","LANDMARKNA":"縣立港東國小","LANDMARKAD":"1001318","ADDRESS":"屏東縣崁頂鄉越溪村復興路96號","TEL":"08-8633272","COUNTYNAME":"屏東縣","TOWNNAME":"崁頂鄉","MARKTYPE":"992","Class":"2"},"geometry":{"x":120.48224929986384,"y":22.509122335842399}},{"attributes":{"OBJECTID":15647,"LANDMARKID":"1001300000465","LANDMARKCO":"203","LANDMARKNA":"私立南榮國中","LANDMARKAD":"1001318","ADDRESS":"屏東縣崁頂鄉田寮路1之15號","TEL":"08-8631112","COUNTYNAME":"屏東縣","TOWNNAME":"崁頂鄉","MARKTYPE":"992","Class":"2"},"geometry":{"x":120.51839108134745,"y":22.513397500625207}},{"attributes":{"OBJECTID":15648,"LANDMARKID":"1001300000466","LANDMARKCO":"203","LANDMARKNA":"縣立力社國小","LANDMARKAD":"1001318","ADDRESS":"屏東縣崁頂鄉力社村力社路36號","TEL":"08-8631544","COUNTYNAME":"屏東縣","TOWNNAME":"崁頂鄉","MARKTYPE":"992","Class":"2"},"geometry":{"x":120.50924110128864,"y":22.538744702082823}},{"attributes":{"OBJECTID":15649,"LANDMARKID":"1001300000467","LANDMARKCO":"203","LANDMARKNA":"縣立崁頂國小","LANDMARKAD":"1001318","ADDRESS":"屏東縣崁頂鄉崁頂村中正路119號","TEL":"08-8631959","COUNTYNAME":"屏東縣","TOWNNAME":"崁頂鄉","MARKTYPE":"992","Class":"2"},"geometry":{"x":120.51176663662811,"y":22.514096840025918}},{"attributes":{"OBJECTID":15650,"LANDMARKID":"1001300000701","LANDMARKCO":"301","LANDMARKNA":"崁頂火車站","LANDMARKAD":"1001318","ADDRESS":"屏東縣崁頂鄉","TEL":" ","COUNTYNAME":"屏東縣","TOWNNAME":"崁頂鄉","MARKTYPE":"993","Class":"301"},"geometry":{"x":120.5145049955309,"y":22.51302893804095}},{"attributes":{"OBJECTID":15651,"LANDMARKID":"1001300000944","LANDMARKCO":"405","LANDMARKNA":"中油加油站-新園站(中油直營)","LANDMARKAD":"1001317","ADDRESS":"屏東縣新園鄉內庄村興安路54號","TEL":"08-8684312","COUNTYNAME":"屏東縣","TOWNNAME":"新園鄉","MARKTYPE":"994","Class":"4"},"geometry":{"x":120.46339343074035,"y":22.523882638482942}},{"attributes":{"OBJECTID":15652,"LANDMARKID":"1001300000945","LANDMARKCO":"405","LANDMARKNA":"中油加油站-亞柏新園站","LANDMARKAD":"1001317","ADDRESS":"屏東縣新園鄉仙吉村仙吉路308號","TEL":"08-8686812","COUNTYNAME":"屏東縣","TOWNNAME":"新園鄉","MARKTYPE":"994","Class":"4"},"geometry":{"x":120.46357305095415,"y":22.547003601620371}},{"attributes":{"OBJECTID":15653,"LANDMARKID":"1001300000946","LANDMARKCO":"405","LANDMARKNA":"中油加油站-仙吉站","LANDMARKAD":"1001317","ADDRESS":"屏東縣新園鄉仙吉村興安路385號","TEL":"08-8683266","COUNTYNAME":"屏東縣","TOWNNAME":"新園鄉","MARKTYPE":"994","Class":"4"},"geometry":{"x":120.45968854270011,"y":22.537233308921255}},{"attributes":{"OBJECTID":15654,"LANDMARKID":"1001300000947","LANDMARKCO":"405","LANDMARKNA":"中油加油站-威勝站","LANDMARKAD":"1001317","ADDRESS":"屏東縣新園鄉興隆村臥龍路569號","TEL":"08-8320708","COUNTYNAME":"屏東縣","TOWNNAME":"新園鄉","MARKTYPE":"994","Class":"4"},"geometry":{"x":120.44399402424868,"y":22.496091727698367}},{"attributes":{"OBJECTID":15655,"LANDMARKID":"1001300000948","LANDMARKCO":"405","LANDMARKNA":"台亞加油站-臥龍站(台塑)","LANDMARKAD":"1001317","ADDRESS":"屏東縣新園鄉臥龍路520號","TEL":"08-8352379","COUNTYNAME":"屏東縣","TOWNNAME":"新園鄉","MARKTYPE":"994","Class":"4"},"geometry":{"x":120.44731388266214,"y":22.495373336963343}},{"attributes":{"OBJECTID":15656,"LANDMARKID":"1001300001137","LANDMARKCO":"408","LANDMARKNA":"郵局-新園郵局","LANDMARKAD":"1001317","ADDRESS":"屏東縣新園鄉仙吉村仙吉路40號","TEL":"(08)8681-047","COUNTYNAME":"屏東縣","TOWNNAME":"新園鄉","MARKTYPE":"994","Class":"4"},"geometry":{"x":120.46021496438527,"y":22.540578068318716}},{"attributes":{"OBJECTID":15657,"LANDMARKID":"1001300001138","LANDMARKCO":"408","LANDMARKNA":"郵局-新園烏龍郵局","LANDMARKAD":"1001317","ADDRESS":"屏東縣新園鄉中洲村南興路106號","TEL":"(08)8329-373","COUNTYNAME":"屏東縣","TOWNNAME":"新園鄉","MARKTYPE":"994","Class":"4"},"geometry":{"x":120.4586958149556,"y":22.485659384371107}},{"attributes":{"OBJECTID":15658,"LANDMARKID":"1001300001166","LANDMARKCO":"409","LANDMARKNA":"新園鄉農會","LANDMARKAD":"1001317","ADDRESS":"屏東縣新園鄉仙吉村仙隆路58號","TEL":"08-8685700","COUNTYNAME":"屏東縣","TOWNNAME":"新園鄉","MARKTYPE":"994","Class":"4"},"geometry":{"x":120.45900326495121,"y":22.544001706339333}},{"attributes":{"OBJECTID":15659,"LANDMARKID":"1001300001067","LANDMARKCO":"406","LANDMARKNA":"中正公園","LANDMARKAD":"1001317","ADDRESS":"屏東縣新園鄉","TEL":" ","COUNTYNAME":"屏東縣","TOWNNAME":"新園鄉","MARKTYPE":"994","Class":"4"},"geometry":{"x":120.43851673768182,"y":22.479043326819301}},{"attributes":{"OBJECTID":15660,"LANDMARKID":"1001300000938","LANDMARKCO":"405","LANDMARKNA":"台亞加油站-雙園站（台塑）","LANDMARKAD":"1001317","ADDRESS":"屏東縣新園鄉龍洲路47-2號","TEL":"(08)869-0038","COUNTYNAME":"屏東縣","TOWNNAME":"新園鄉","MARKTYPE":"994","Class":"4"},"geometry":{"x":120.44218054199538,"y":22.496801741634716}},{"attributes":{"OBJECTID":15661,"LANDMARKID":"1001300000157","LANDMARKCO":"106","LANDMARKNA":"屏東縣新園鄉戶政事務所","LANDMARKAD":"1001317","ADDRESS":"屏東縣新園鄉仙吉村4鄰仙吉路142號","TEL":"08-8681086","COUNTYNAME":"屏東縣","TOWNNAME":"新園鄉","MARKTYPE":"991","Class":"1"},"geometry":{"x":120.46154714728111,"y":22.543557891176732}},{"attributes":{"OBJECTID":15662,"LANDMARKID":"1001300000169","LANDMARKCO":"107","LANDMARKNA":"屏東縣消防局新園消防分隊","LANDMARKAD":"1001317","ADDRESS":"屏東縣新園鄉店口路116號","TEL":"08-8684515","COUNTYNAME":"屏東縣","TOWNNAME":"新園鄉","MARKTYPE":"991","Class":"1"},"geometry":{"x":120.46156799180125,"y":22.543377409278396}},{"attributes":{"OBJECTID":15663,"LANDMARKID":"1001300000170","LANDMARKCO":"107","LANDMARKNA":"屏東縣警察局新園分駐所","LANDMARKAD":"1001317","ADDRESS":"屏東縣新園鄉仙吉村仙吉路140號","TEL":"08-8681004","COUNTYNAME":"屏東縣","TOWNNAME":"新園鄉","MARKTYPE":"991","Class":"1"},"geometry":{"x":120.46137285189292,"y":22.543466413736187}},{"attributes":{"OBJECTID":15664,"LANDMARKID":"1001300000171","LANDMARKCO":"107","LANDMARKNA":"屏東縣警察局興龍派出所","LANDMARKAD":"1001317","ADDRESS":"屏東縣新園鄉興龍村南興路278號","TEL":"08-8322433","COUNTYNAME":"屏東縣","TOWNNAME":"新園鄉","MARKTYPE":"991","Class":"1"},"geometry":{"x":120.45923866636397,"y":22.490178529650915}},{"attributes":{"OBJECTID":15665,"LANDMARKID":"1001300000058","LANDMARKCO":"103","LANDMARKNA":"屏東縣新園鄉衛生所","LANDMARKAD":"1001317","ADDRESS":"屏東縣新園鄉仙吉村仙吉路89之2號","TEL":"08-8681293","COUNTYNAME":"屏東縣","TOWNNAME":"新園鄉","MARKTYPE":"991","Class":"1"},"geometry":{"x":120.46090475722411,"y":22.543653228288438}},{"attributes":{"OBJECTID":15666,"LANDMARKID":"1001300000059","LANDMARKCO":"103","LANDMARKNA":"屏東縣新園鄉鄉民代表會","LANDMARKAD":"1001317","ADDRESS":"屏東縣新園鄉仙吉路148號","TEL":"08-8681501","COUNTYNAME":"屏東縣","TOWNNAME":"新園鄉","MARKTYPE":"991","Class":"1"},"geometry":{"x":120.46152560142288,"y":22.543828679509843}},{"attributes":{"OBJECTID":15667,"LANDMARKID":"1001300000335","LANDMARKCO":"108","LANDMARKNA":"屏東縣新園鄉公所","LANDMARKAD":"1001317","ADDRESS":"屏東縣新園鄉仙吉村仙吉路148號","TEL":"08-8681385","COUNTYNAME":"屏東縣","TOWNNAME":"新園鄉","MARKTYPE":"991","Class":"1"},"geometry":{"x":120.46152560142288,"y":22.543828679509843}},{"attributes":{"OBJECTID":15668,"LANDMARKID":"1001300000647","LANDMARKCO":"204","LANDMARKNA":"屏東縣立圖書館新園分館","LANDMARKAD":"1001317","ADDRESS":"屏東縣新園鄉仙吉村仙吉路93號","TEL":" ","COUNTYNAME":"屏東縣","TOWNNAME":"新園鄉","MARKTYPE":"992","Class":"2"},"geometry":{"x":120.46153713211022,"y":22.54471815563851}},{"attributes":{"OBJECTID":15669,"LANDMARKID":"1001300000503","LANDMARKCO":"203","LANDMARKNA":"縣立新園國中","LANDMARKAD":"1001317","ADDRESS":"屏東縣新園鄉仙吉村仙吉路111號","TEL":"08-8681020","COUNTYNAME":"屏東縣","TOWNNAME":"新園鄉","MARKTYPE":"992","Class":"2"},"geometry":{"x":120.46099041728283,"y":22.545279362272424}},{"attributes":{"OBJECTID":15670,"LANDMARKID":"1001300000504","LANDMARKCO":"203","LANDMARKNA":"縣立港西國小","LANDMARKAD":"1001317","ADDRESS":"屏東縣新園鄉港西村中和路101號","TEL":"08-8681644","COUNTYNAME":"屏東縣","TOWNNAME":"新園鄉","MARKTYPE":"992","Class":"2"},"geometry":{"x":120.45556436936653,"y":22.508676712925663}},{"attributes":{"OBJECTID":15671,"LANDMARKID":"1001300000505","LANDMARKCO":"203","LANDMARKNA":"縣立仙吉國小","LANDMARKAD":"1001317","ADDRESS":"屏東縣新園鄉仙吉村仙吉路91號","TEL":"08-8681087","COUNTYNAME":"屏東縣","TOWNNAME":"新園鄉","MARKTYPE":"992","Class":"2"},"geometry":{"x":120.4610554009429,"y":22.544286413769541}},{"attributes":{"OBJECTID":15672,"LANDMARKID":"1001300000506","LANDMARKCO":"203","LANDMARKNA":"縣立烏龍國小","LANDMARKAD":"1001317","ADDRESS":"屏東縣新園鄉南龍村南興路217號","TEL":"08-8325896","COUNTYNAME":"屏東縣","TOWNNAME":"新園鄉","MARKTYPE":"992","Class":"2"},"geometry":{"x":120.45808046569769,"y":22.487741735349658}},{"attributes":{"OBJECTID":15673,"LANDMARKID":"1001300000507","LANDMARKCO":"203","LANDMARKNA":"縣立新園國小","LANDMARKAD":"1001317","ADDRESS":"屏東縣新園鄉新園村媽祖路49號","TEL":"08-8681113","COUNTYNAME":"屏東縣","TOWNNAME":"新園鄉","MARKTYPE":"992","Class":"2"},"geometry":{"x":120.45184363124037,"y":22.524023053494325}},{"attributes":{"OBJECTID":15674,"LANDMARKID":"1001300000508","LANDMARKCO":"203","LANDMARKNA":"縣立鹽洲國小","LANDMARKAD":"1001317","ADDRESS":"屏東縣新園鄉鹽埔村鹽洲路379號","TEL":"08-8322775","COUNTYNAME":"屏東縣","TOWNNAME":"新園鄉","MARKTYPE":"992","Class":"2"},"geometry":{"x":120.44076702890175,"y":22.488312797607094}},{"attributes":{"OBJECTID":15675,"LANDMARKID":"1001300000509","LANDMARKCO":"203","LANDMARKNA":"縣立瓦瑤國小","LANDMARKAD":"1001317","ADDRESS":"屏東縣新園鄉瓦瑤村四環路3號","TEL":"08-8684050","COUNTYNAME":"屏東縣","TOWNNAME":"新園鄉","MARKTYPE":"992","Class":"2"},"geometry":{"x":120.47438049566746,"y":22.551643505670381}},{"attributes":{"OBJECTID":15676,"LANDMARKID":"1001300000510","LANDMARKCO":"203","LANDMARKNA":"縣立鹽洲國小分校","LANDMARKAD":"1001317","ADDRESS":"屏東縣新園鄉","TEL":" ","COUNTYNAME":"屏東縣","TOWNNAME":"新園鄉","MARKTYPE":"992","Class":"2"},"geometry":{"x":120.43760945696492,"y":22.494522851649528}},{"attributes":{"OBJECTID":15677,"LANDMARKID":"1001300000789","LANDMARKCO":"305","LANDMARKNA":"鹽埔漁港","LANDMARKAD":"1001317","ADDRESS":"屏東縣新園鄉","TEL":" ","COUNTYNAME":"屏東縣","TOWNNAME":"新園鄉","MARKTYPE":"993","Class":"305"},"geometry":{"x":120.43813043084646,"y":22.474281395283864}},{"attributes":{"OBJECTID":15678,"LANDMARKID":"1001300000853","LANDMARKCO":"402","LANDMARKNA":"中華電信-新園服務中心","LANDMARKAD":"1001317","ADDRESS":"屏東縣新園鄉仙吉路180-1號","TEL":"(08)868-5004","COUNTYNAME":"屏東縣","TOWNNAME":"新園鄉","MARKTYPE":"994","Class":"4"},"geometry":{"x":120.46237545558458,"y":22.544195608039086}},{"attributes":{"OBJECTID":15679,"LANDMARKID":"1001300001131","LANDMARKCO":"408","LANDMARKNA":"郵局-來義郵局","LANDMARKAD":"1001330","ADDRESS":"屏東縣來義鄉古樓村中正路6號","TEL":"(08)7850-064","COUNTYNAME":"屏東縣","TOWNNAME":"來義鄉","MARKTYPE":"994","Class":"4"},"geometry":{"x":120.63579005932259,"y":22.525988539301569}},{"attributes":{"OBJECTID":15680,"LANDMARKID":"1001300000174","LANDMARKCO":"107","LANDMARKNA":"屏東縣警察局文樂派出所","LANDMARKAD":"1001330","ADDRESS":"屏東縣來義鄉文樂村新樂路1號","TEL":"08-7981774","COUNTYNAME":"屏東縣","TOWNNAME":"來義鄉","MARKTYPE":"991","Class":"1"},"geometry":{"x":120.62460843754276,"y":22.491725741234717}},{"attributes":{"OBJECTID":15681,"LANDMARKID":"1001300000156","LANDMARKCO":"106","LANDMARKNA":"屏東縣來義鄉戶政事務所","LANDMARKAD":"1001330","ADDRESS":"屏東縣來義鄉古樓村13鄰中正路92號","TEL":"08-7850096","COUNTYNAME":"屏東縣","TOWNNAME":"來義鄉","MARKTYPE":"991","Class":"1"},"geometry":{"x":120.64029855710123,"y":22.527793447521308}},{"attributes":{"OBJECTID":15682,"LANDMARKID":"1001300000172","LANDMARKCO":"107","LANDMARKNA":"屏東縣警察局來義分駐所","LANDMARKAD":"1001330","ADDRESS":"屏東縣來義鄉中正路92號","TEL":"08-7850156","COUNTYNAME":"屏東縣","TOWNNAME":"來義鄉","MARKTYPE":"991","Class":"1"},"geometry":{"x":120.63693390543844,"y":22.526610556588494}},{"attributes":{"OBJECTID":15683,"LANDMARKID":"1001300000060","LANDMARKCO":"103","LANDMARKNA":"屏東縣來義鄉衛生所","LANDMARKAD":"1001330","ADDRESS":"屏東縣來義鄉古樓村中正路90號","TEL":"08-7851448","COUNTYNAME":"屏東縣","TOWNNAME":"來義鄉","MARKTYPE":"991","Class":"1"},"geometry":{"x":120.65307819920314,"y":22.52384528895811}},{"attributes":{"OBJECTID":15684,"LANDMARKID":"1001300000061","LANDMARKCO":"103","LANDMARKNA":"屏東縣來義鄉鄉民代表會","LANDMARKAD":"1001330","ADDRESS":"屏東縣來義鄉中正路96號","TEL":"08-7850183","COUNTYNAME":"屏東縣","TOWNNAME":"來義鄉","MARKTYPE":"991","Class":"1"},"geometry":{"x":120.63707972300621,"y":22.52661121412816}},{"attributes":{"OBJECTID":15685,"LANDMARKID":"1001300000334","LANDMARKCO":"108","LANDMARKNA":"屏東縣來義鄉公所","LANDMARKAD":"1001330","ADDRESS":"屏東縣來義鄉古樓村中正路94號","TEL":"08-7850251","COUNTYNAME":"屏東縣","TOWNNAME":"來義鄉","MARKTYPE":"991","Class":"1"},"geometry":{"x":120.63154691309879,"y":22.526153945008716}},{"attributes":{"OBJECTID":15686,"LANDMARKID":"1001300000179","LANDMARKCO":"107","LANDMARKNA":"屏東縣警察局信義派出所","LANDMARKAD":"1001330","ADDRESS":"屏東縣來義鄉來義村來義路20號","TEL":"08-7850495","COUNTYNAME":"屏東縣","TOWNNAME":"來義鄉","MARKTYPE":"991","Class":"1"},"geometry":{"x":120.68009793173673,"y":22.526343639778737}},{"attributes":{"OBJECTID":15687,"LANDMARKID":"1001300000180","LANDMARKCO":"107","LANDMARKNA":"屏東縣警察局南和派出所","LANDMARKAD":"1001330","ADDRESS":"屏東縣來義鄉南和村南和路288號","TEL":"08-8791415","COUNTYNAME":"屏東縣","TOWNNAME":"來義鄉","MARKTYPE":"991","Class":"1"},"geometry":{"x":120.64037826778706,"y":22.435043419112496}},{"attributes":{"OBJECTID":15688,"LANDMARKID":"1001300000181","LANDMARKCO":"107","LANDMARKNA":"屏東縣警察局望嘉派出所","LANDMARKAD":"1001330","ADDRESS":"屏東縣來義鄉望嘉村望嘉路118之1號","TEL":"08-7981740","COUNTYNAME":"屏東縣","TOWNNAME":"來義鄉","MARKTYPE":"991","Class":"1"},"geometry":{"x":120.62179157900144,"y":22.463632124535042}},{"attributes":{"OBJECTID":15689,"LANDMARKID":"1001300000648","LANDMARKCO":"204","LANDMARKNA":"屏東縣立圖書館來義分館","LANDMARKAD":"1001330","ADDRESS":"屏東縣來義鄉古樓村中正路94號3樓","TEL":" ","COUNTYNAME":"屏東縣","TOWNNAME":"來義鄉","MARKTYPE":"992","Class":"2"},"geometry":{"x":120.63701134614108,"y":22.526605161721069}},{"attributes":{"OBJECTID":15690,"LANDMARKID":"1001300000511","LANDMARKCO":"203","LANDMARKNA":"縣立文樂國小","LANDMARKAD":"1001330","ADDRESS":"屏東縣來義鄉文樂村1鄰新樂路1號","TEL":"08-7981836","COUNTYNAME":"屏東縣","TOWNNAME":"來義鄉","MARKTYPE":"992","Class":"2"},"geometry":{"x":120.62352283302249,"y":22.492985048907311}},{"attributes":{"OBJECTID":15691,"LANDMARKID":"1001300000512","LANDMARKCO":"203","LANDMARKNA":"縣立古樓國小","LANDMARKAD":"1001330","ADDRESS":"屏東縣來義鄉古樓村育英路2號","TEL":"08-7850218","COUNTYNAME":"屏東縣","TOWNNAME":"來義鄉","MARKTYPE":"992","Class":"2"},"geometry":{"x":120.62713509981336,"y":22.527945921923269}},{"attributes":{"OBJECTID":15692,"LANDMARKID":"1001300000513","LANDMARKCO":"203","LANDMARKNA":"縣立來義國小","LANDMARKAD":"1001330","ADDRESS":"屏東縣來義鄉丹林村古義路2號","TEL":"08-7850411","COUNTYNAME":"屏東縣","TOWNNAME":"來義鄉","MARKTYPE":"992","Class":"2"},"geometry":{"x":120.64882359355951,"y":22.527902928851862}},{"attributes":{"OBJECTID":15693,"LANDMARKID":"1001300000514","LANDMARKCO":"203","LANDMARKNA":"縣立南和國小","LANDMARKAD":"1001330","ADDRESS":"屏東縣來義鄉南和村51號","TEL":"08-8791263","COUNTYNAME":"屏東縣","TOWNNAME":"來義鄉","MARKTYPE":"992","Class":"2"},"geometry":{"x":120.64261823603252,"y":22.43585999384959}},{"attributes":{"OBJECTID":15694,"LANDMARKID":"1001300000515","LANDMARKCO":"203","LANDMARKNA":"縣立望嘉國小","LANDMARKAD":"1001330","ADDRESS":"屏東縣來義鄉望嘉村望嘉路165號","TEL":"08-7981383","COUNTYNAME":"屏東縣","TOWNNAME":"來義鄉","MARKTYPE":"992","Class":"2"},"geometry":{"x":120.62266953188013,"y":22.462997519314566}},{"attributes":{"OBJECTID":15695,"LANDMARKID":"1001300000516","LANDMARKCO":"203","LANDMARKNA":"縣立來義國小丹林分班","LANDMARKAD":"1001330","ADDRESS":"屏東縣來義鄉","TEL":" ","COUNTYNAME":"屏東縣","TOWNNAME":"來義鄉","MARKTYPE":"992","Class":"2"},"geometry":{"x":120.6334890960084,"y":22.517570097418396}},{"attributes":{"OBJECTID":15696,"LANDMARKID":"1001300000517","LANDMARKCO":"203","LANDMARKNA":"縣立來義國小大後分校","LANDMARKAD":"1001330","ADDRESS":"屏東縣來義鄉","TEL":" ","COUNTYNAME":"屏東縣","TOWNNAME":"來義鄉","MARKTYPE":"992","Class":"2"},"geometry":{"x":120.66105446799085,"y":22.56080476563216}},{"attributes":{"OBJECTID":15697,"LANDMARKID":"1001300000518","LANDMARKCO":"203","LANDMARKNA":"縣立來義國小內社分校","LANDMARKAD":"1001330","ADDRESS":"屏東縣來義鄉","TEL":" ","COUNTYNAME":"屏東縣","TOWNNAME":"來義鄉","MARKTYPE":"992","Class":"2"},"geometry":{"x":120.67928732050501,"y":22.527153222947256}},{"attributes":{"OBJECTID":15698,"LANDMARKID":"1001300001195","LANDMARKCO":"503","LANDMARKNA":"鴛鴦瀑布","LANDMARKAD":"1001330","ADDRESS":"屏東縣泰武鄉","TEL":" ","COUNTYNAME":"屏東縣","TOWNNAME":"來義鄉","MARKTYPE":"995","Class":"5"},"geometry":{"x":120.70125907413068,"y":22.561465232137508}},{"attributes":{"OBJECTID":15699,"LANDMARKID":"1001300000939","LANDMARKCO":"405","LANDMARKNA":"中油加油站-萬安站","LANDMARKAD":"1001315","ADDRESS":"屏東縣新埤鄉萬安路4-2號","TEL":"08-7871551","COUNTYNAME":"屏東縣","TOWNNAME":"新埤鄉","MARKTYPE":"994","Class":"4"},"geometry":{"x":120.57241612349156,"y":22.50478389444563}},{"attributes":{"OBJECTID":15700,"LANDMARKID":"1001300000940","LANDMARKCO":"405","LANDMARKNA":"中油加油站-新埤站(中油直營)","LANDMARKAD":"1001315","ADDRESS":"屏東縣新埤鄉新埤村新中路74號","TEL":"08-7971017","COUNTYNAME":"屏東縣","TOWNNAME":"新埤鄉","MARKTYPE":"994","Class":"4"},"geometry":{"x":120.54831277062483,"y":22.469769748306177}},{"attributes":{"OBJECTID":15701,"LANDMARKID":"1001300000839","LANDMARKCO":"401","LANDMARKNA":"小康醫院","LANDMARKAD":"1001315","ADDRESS":"屏東縣新埤鄉新埤村新華路文化巷18之1號","TEL":"08-7973168","COUNTYNAME":"屏東縣","TOWNNAME":"新埤鄉","MARKTYPE":"994","Class":"4"},"geometry":{"x":120.54856041716553,"y":22.469944439089744}},{"attributes":{"OBJECTID":15702,"LANDMARKID":"1001300000840","LANDMARKCO":"401","LANDMARKNA":"財團法人迦樂醫院","LANDMARKAD":"1001315","ADDRESS":"屏東縣新埤鄉箕湖村進化路12之200號","TEL":"08-7982487","COUNTYNAME":"屏東縣","TOWNNAME":"新埤鄉","MARKTYPE":"994","Class":"4"},"geometry":{"x":120.60507930727047,"y":22.464856538285371}},{"attributes":{"OBJECTID":15703,"LANDMARKID":"1001300001251","LANDMARKCO":"507","LANDMARKNA":"建功庄東柵門","LANDMARKAD":"1001315","ADDRESS":"屏東縣新埤鄉建功村建功路150號","TEL":" ","COUNTYNAME":"屏東縣","TOWNNAME":"新埤鄉","MARKTYPE":"995","Class":"5"},"geometry":{"x":120.56404836931421,"y":22.479843174271917}},{"attributes":{"OBJECTID":15704,"LANDMARKID":"1001300001129","LANDMARKCO":"408","LANDMARKNA":"郵局-新埤郵局","LANDMARKAD":"1001315","ADDRESS":"屏東縣新埤鄉新埤村新華路123號","TEL":"(08)7971-013","COUNTYNAME":"屏東縣","TOWNNAME":"新埤鄉","MARKTYPE":"994","Class":"4"},"geometry":{"x":120.55082363318147,"y":22.468694018669655}},{"attributes":{"OBJECTID":15705,"LANDMARKID":"1001300000155","LANDMARKCO":"106","LANDMARKNA":"屏東縣新埤鄉戶政事務所","LANDMARKAD":"1001315","ADDRESS":"屏東縣新埤鄉新埤村7鄰新華路146號","TEL":"08-7971451","COUNTYNAME":"屏東縣","TOWNNAME":"新埤鄉","MARKTYPE":"991","Class":"1"},"geometry":{"x":120.55127457680211,"y":22.468694271316945}},{"attributes":{"OBJECTID":15706,"LANDMARKID":"1001300000175","LANDMARKCO":"107","LANDMARKNA":"屏東縣警察局餉潭派出所","LANDMARKAD":"1001315","ADDRESS":"屏東縣新埤鄉餉潭村龍潭路137號","TEL":"08-7981819","COUNTYNAME":"屏東縣","TOWNNAME":"新埤鄉","MARKTYPE":"991","Class":"1"},"geometry":{"x":120.61128093329609,"y":22.476162148243549}},{"attributes":{"OBJECTID":15707,"LANDMARKID":"1001300000176","LANDMARKCO":"107","LANDMARKNA":"屏東縣警察局新埤分駐所","LANDMARKAD":"1001315","ADDRESS":"屏東縣新埤鄉新埤村新華路146號","TEL":"08-7971045","COUNTYNAME":"屏東縣","TOWNNAME":"新埤鄉","MARKTYPE":"991","Class":"1"},"geometry":{"x":120.55127457680211,"y":22.468694271316945}},{"attributes":{"OBJECTID":15708,"LANDMARKID":"1001300000062","LANDMARKCO":"103","LANDMARKNA":"屏東縣新埤鄉衛生所","LANDMARKAD":"1001315","ADDRESS":"屏東縣新埤鄉新埤村中正路38號","TEL":"08-7971090","COUNTYNAME":"屏東縣","TOWNNAME":"新埤鄉","MARKTYPE":"991","Class":"1"},"geometry":{"x":120.55007669207704,"y":22.470493816857228}},{"attributes":{"OBJECTID":15709,"LANDMARKID":"1001300000332","LANDMARKCO":"108","LANDMARKNA":"屏東縣新埤鄉公所","LANDMARKAD":"1001315","ADDRESS":"屏東縣新埤鄉新埤村中正路40號","TEL":"08-7973800","COUNTYNAME":"屏東縣","TOWNNAME":"新埤鄉","MARKTYPE":"991","Class":"1"},"geometry":{"x":120.54987435974765,"y":22.470229524176812}},{"attributes":{"OBJECTID":15710,"LANDMARKID":"1001300000063","LANDMARKCO":"103","LANDMARKNA":"屏東縣新埤鄉鄉民代表會","LANDMARKAD":"1001315","ADDRESS":"屏東縣新埤鄉中正路40號之1","TEL":"08-7971216","COUNTYNAME":"屏東縣","TOWNNAME":"新埤鄉","MARKTYPE":"991","Class":"1"},"geometry":{"x":120.54987435974765,"y":22.470229524176812}},{"attributes":{"OBJECTID":15711,"LANDMARKID":"1001300000650","LANDMARKCO":"204","LANDMARKNA":"屏東縣立圖書館新埤分館","LANDMARKAD":"1001315","ADDRESS":"屏東縣新埤鄉新埤村中正路34號","TEL":" ","COUNTYNAME":"屏東縣","TOWNNAME":"新埤鄉","MARKTYPE":"992","Class":"2"},"geometry":{"x":120.54978081480967,"y":22.470297575511864}},{"attributes":{"OBJECTID":15712,"LANDMARKID":"1001300000498","LANDMARKCO":"203","LANDMARKNA":"縣立新埤國中","LANDMARKAD":"1001315","ADDRESS":"屏東縣新埤鄉建功村建功路109號","TEL":"08-7971014","COUNTYNAME":"屏東縣","TOWNNAME":"新埤鄉","MARKTYPE":"992","Class":"2"},"geometry":{"x":120.56653249885956,"y":22.48390510906243}},{"attributes":{"OBJECTID":15713,"LANDMARKID":"1001300000499","LANDMARKCO":"203","LANDMARKNA":"縣立萬隆國小","LANDMARKAD":"1001315","ADDRESS":"屏東縣新埤鄉萬隆村中山路126號","TEL":"08-7870191","COUNTYNAME":"屏東縣","TOWNNAME":"新埤鄉","MARKTYPE":"992","Class":"2"},"geometry":{"x":120.58798922910769,"y":22.507537118211925}},{"attributes":{"OBJECTID":15714,"LANDMARKID":"1001300000500","LANDMARKCO":"203","LANDMARKNA":"縣立大成國小","LANDMARKAD":"1001315","ADDRESS":"屏東縣新埤鄉打鐵村東興路33號","TEL":"08-7971078","COUNTYNAME":"屏東縣","TOWNNAME":"新埤鄉","MARKTYPE":"992","Class":"2"},"geometry":{"x":120.55010401856504,"y":22.495329555472598}},{"attributes":{"OBJECTID":15715,"LANDMARKID":"1001300000501","LANDMARKCO":"203","LANDMARKNA":"縣立新埤國小","LANDMARKAD":"1001315","ADDRESS":"屏東縣新埤鄉新埤村新華路165號","TEL":"08-7971027","COUNTYNAME":"屏東縣","TOWNNAME":"新埤鄉","MARKTYPE":"992","Class":"2"},"geometry":{"x":120.55131930906549,"y":22.470681363622347}},{"attributes":{"OBJECTID":15716,"LANDMARKID":"1001300000502","LANDMARKCO":"203","LANDMARKNA":"縣立餉潭國小","LANDMARKAD":"1001315","ADDRESS":"屏東縣新埤鄉餉潭村龍潭路149號","TEL":"08-7981600","COUNTYNAME":"屏東縣","TOWNNAME":"新埤鄉","MARKTYPE":"992","Class":"2"},"geometry":{"x":120.61101285838093,"y":22.475445078132786}},{"attributes":{"OBJECTID":15717,"LANDMARKID":"1001300000941","LANDMARKCO":"405","LANDMARKNA":"中油加油站-南州交流道站(中油直營)","LANDMARKAD":"1001320","ADDRESS":"屏東縣南州鄉壽元村大同路107號","TEL":"08-8644993","COUNTYNAME":"屏東縣","TOWNNAME":"南州鄉","MARKTYPE":"994","Class":"4"},"geometry":{"x":120.53268532569429,"y":22.488397222263384}},{"attributes":{"OBJECTID":15718,"LANDMARKID":"1001300000942","LANDMARKCO":"405","LANDMARKNA":"中油加油站-南州站(中油直營)","LANDMARKAD":"1001320","ADDRESS":"屏東縣南州鄉七塊村三民路270號","TEL":"08-8642298","COUNTYNAME":"屏東縣","TOWNNAME":"南州鄉","MARKTYPE":"994","Class":"4"},"geometry":{"x":120.50143899754072,"y":22.488599102480144}},{"attributes":{"OBJECTID":15719,"LANDMARKID":"1001300000943","LANDMARKCO":"405","LANDMARKNA":"台糖加油站-南州站(中油)","LANDMARKAD":"1001320","ADDRESS":"屏東縣南州鄉壽元村勝利路2號","TEL":" ","COUNTYNAME":"屏東縣","TOWNNAME":"南州鄉","MARKTYPE":"994","Class":"4"},"geometry":{"x":120.5385009284297,"y":22.492233760665012}},{"attributes":{"OBJECTID":15720,"LANDMARKID":"1001300001132","LANDMARKCO":"408","LANDMARKNA":"郵局-南州郵局","LANDMARKAD":"1001320","ADDRESS":"屏東縣南州鄉仁里村三民路9號","TEL":"(08)8642-096","COUNTYNAME":"屏東縣","TOWNNAME":"南州鄉","MARKTYPE":"994","Class":"4"},"geometry":{"x":120.51095229508006,"y":22.489716477068161}},{"attributes":{"OBJECTID":15721,"LANDMARKID":"1001300001169","LANDMARKCO":"409","LANDMARKNA":"屏東縣南州鄉農會","LANDMARKAD":"1001320","ADDRESS":"屏東縣南州鄉仁里村三民路27號","TEL":"08-8642111-4","COUNTYNAME":"屏東縣","TOWNNAME":"南州鄉","MARKTYPE":"994","Class":"4"},"geometry":{"x":120.51061048454942,"y":22.489926037148248}},{"attributes":{"OBJECTID":15722,"LANDMARKID":"1001300000154","LANDMARKCO":"106","LANDMARKNA":"屏東縣南州鄉戶政事務所","LANDMARKAD":"1001320","ADDRESS":"屏東縣南州鄉溪洲村1鄰仁愛路5號","TEL":"08-8642777","COUNTYNAME":"屏東縣","TOWNNAME":"南州鄉","MARKTYPE":"991","Class":"1"},"geometry":{"x":120.50934639106889,"y":22.490519522173969}},{"attributes":{"OBJECTID":15723,"LANDMARKID":"1001300000177","LANDMARKCO":"107","LANDMARKNA":"屏東縣消防局南州消防分隊","LANDMARKAD":"1001320","ADDRESS":"屏東縣南州鄉溪南村人和路241號","TEL":"08-8642297","COUNTYNAME":"屏東縣","TOWNNAME":"南州鄉","MARKTYPE":"991","Class":"1"},"geometry":{"x":120.50277018171144,"y":22.485890421513293}},{"attributes":{"OBJECTID":15724,"LANDMARKID":"1001300000178","LANDMARKCO":"107","LANDMARKNA":"屏東縣警察局南州分駐所","LANDMARKAD":"1001320","ADDRESS":"屏東縣南州鄉仁里村三民路52號","TEL":"08-8642047","COUNTYNAME":"屏東縣","TOWNNAME":"南州鄉","MARKTYPE":"991","Class":"1"},"geometry":{"x":120.50934830050477,"y":22.490248598390899}},{"attributes":{"OBJECTID":15725,"LANDMARKID":"1001300000064","LANDMARKCO":"103","LANDMARKNA":"屏東縣南州鄉衛生所","LANDMARKAD":"1001320","ADDRESS":"屏東縣南州鄉溪南村人和路239號","TEL":"08-8642224","COUNTYNAME":"屏東縣","TOWNNAME":"南州鄉","MARKTYPE":"991","Class":"1"},"geometry":{"x":120.50295353623819,"y":22.486072175619842}},{"attributes":{"OBJECTID":15726,"LANDMARKID":"1001300000065","LANDMARKCO":"103","LANDMARKNA":"屏東縣南州鄉民代表會","LANDMARKAD":"1001320","ADDRESS":"屏東縣南州鄉仁里路11號2F","TEL":"08-8642341","COUNTYNAME":"屏東縣","TOWNNAME":"南州鄉","MARKTYPE":"991","Class":"1"},"geometry":{"x":120.50992041099451,"y":22.4904327025851}},{"attributes":{"OBJECTID":15727,"LANDMARKID":"1001300000333","LANDMARKCO":"108","LANDMARKNA":"屏東縣南州鄉公所","LANDMARKAD":"1001320","ADDRESS":"屏東縣南州鄉仁里村仁里路11號","TEL":"08-8642196","COUNTYNAME":"屏東縣","TOWNNAME":"南州鄉","MARKTYPE":"991","Class":"1"},"geometry":{"x":120.50992041099451,"y":22.4904327025851}},{"attributes":{"OBJECTID":15728,"LANDMARKID":"1001300000649","LANDMARKCO":"204","LANDMARKNA":"屏東縣立圖書館南州分館","LANDMARKAD":"1001320","ADDRESS":"屏東縣南州鄉溪南村人和路3巷15號","TEL":" ","COUNTYNAME":"屏東縣","TOWNNAME":"南州鄉","MARKTYPE":"992","Class":"2"},"geometry":{"x":120.50887401951498,"y":22.488175826593679}},{"attributes":{"OBJECTID":15729,"LANDMARKID":"1001300000338","LANDMARKCO":"201","LANDMARKNA":"私立慈惠醫護管理專校","LANDMARKAD":"1001320","ADDRESS":"屏東縣南州鄉三民路367號","TEL":"08-8647367","COUNTYNAME":"屏東縣","TOWNNAME":"南州鄉","MARKTYPE":"992","Class":"2"},"geometry":{"x":120.50403136321017,"y":22.488508170739792}},{"attributes":{"OBJECTID":15730,"LANDMARKID":"1001300000494","LANDMARKCO":"203","LANDMARKNA":"縣立南州國中","LANDMARKAD":"1001320","ADDRESS":"屏東縣南州鄉人和路231號","TEL":"08-8645600","COUNTYNAME":"屏東縣","TOWNNAME":"南州鄉","MARKTYPE":"992","Class":"2"},"geometry":{"x":120.50534572422374,"y":22.487260915174122}},{"attributes":{"OBJECTID":15731,"LANDMARKID":"1001300000495","LANDMARKCO":"203","LANDMARKNA":"縣立南州國小","LANDMARKAD":"1001320","ADDRESS":"屏東縣南州鄉溪南村人和路191號","TEL":"08-8642097","COUNTYNAME":"屏東縣","TOWNNAME":"南州鄉","MARKTYPE":"992","Class":"2"},"geometry":{"x":120.50634811149739,"y":22.488432569601478}},{"attributes":{"OBJECTID":15732,"LANDMARKID":"1001300000496","LANDMARKCO":"203","LANDMARKNA":"縣立溪北國小","LANDMARKAD":"1001320","ADDRESS":"屏東縣南州鄉溪北村仁里路102號","TEL":"08-8642081","COUNTYNAME":"屏東縣","TOWNNAME":"南州鄉","MARKTYPE":"992","Class":"2"},"geometry":{"x":120.5110686938589,"y":22.495768011359019}},{"attributes":{"OBJECTID":15733,"LANDMARKID":"1001300000497","LANDMARKCO":"203","LANDMARKNA":"縣立同安國小","LANDMARKAD":"1001320","ADDRESS":"屏東縣南州鄉同安村同安路79號","TEL":"08-8642334","COUNTYNAME":"屏東縣","TOWNNAME":"南州鄉","MARKTYPE":"992","Class":"2"},"geometry":{"x":120.52169432277131,"y":22.472947329722825}},{"attributes":{"OBJECTID":15734,"LANDMARKID":"1001300000339","LANDMARKCO":"201","LANDMARKNA":"慈惠醫護管理專科學校(宿舍)","LANDMARKAD":"1001320","ADDRESS":"屏東縣南州鄉文化路50號","TEL":" ","COUNTYNAME":"屏東縣","TOWNNAME":"南州鄉","MARKTYPE":"992","Class":"2"},"geometry":{"x":120.50286448694446,"y":22.484474076959795}},{"attributes":{"OBJECTID":15735,"LANDMARKID":"1001300000798","LANDMARKCO":"308","LANDMARKNA":"國3-南州交流道-北上","LANDMARKAD":"1001320","ADDRESS":"屏東縣南州鄉","TEL":" ","COUNTYNAME":"屏東縣","TOWNNAME":"南州鄉","MARKTYPE":"993","Class":"308"},"geometry":{"x":120.52947472530562,"y":22.492992883075736}},{"attributes":{"OBJECTID":15736,"LANDMARKID":"1001300000799","LANDMARKCO":"308","LANDMARKNA":"國3-南州交流道-南下","LANDMARKAD":"1001320","ADDRESS":"屏東縣南州鄉","TEL":" ","COUNTYNAME":"屏東縣","TOWNNAME":"南州鄉","MARKTYPE":"993","Class":"308"},"geometry":{"x":120.53058107428303,"y":22.487520072940292}},{"attributes":{"OBJECTID":15737,"LANDMARKID":"1001300000779","LANDMARKCO":"303","LANDMARKNA":"南州鄉運動公園附設停車場","LANDMARKAD":"1001320","ADDRESS":"屏東縣南州鄉勝利路","TEL":" ","COUNTYNAME":"屏東縣","TOWNNAME":"南州鄉","MARKTYPE":"993","Class":"303"},"geometry":{"x":120.51319972712874,"y":22.489969717765074}},{"attributes":{"OBJECTID":15738,"LANDMARKID":"1001300000700","LANDMARKCO":"301","LANDMARKNA":"南州火車站","LANDMARKAD":"1001320","ADDRESS":"屏東縣南州鄉仁里村仁里路86號","TEL":"08-8642942","COUNTYNAME":"屏東縣","TOWNNAME":"南州鄉","MARKTYPE":"993","Class":"301"},"geometry":{"x":120.51179569903542,"y":22.492053534241975}},{"attributes":{"OBJECTID":15739,"LANDMARKID":"1001300000856","LANDMARKCO":"402","LANDMARKNA":"中華電信-南州服務中心","LANDMARKAD":"1001320","ADDRESS":"屏東縣南州鄉仁里路27號","TEL":"(08)844-1103","COUNTYNAME":"屏東縣","TOWNNAME":"南州鄉","MARKTYPE":"994","Class":"4"},"geometry":{"x":120.51060199426082,"y":22.491159338711221}},{"attributes":{"OBJECTID":15740,"LANDMARKID":"1001300000931","LANDMARKCO":"405","LANDMARKNA":"中油加油站-鴻勝站","LANDMARKAD":"1001303","ADDRESS":"屏東縣東港鎮大潭路107-101號","TEL":"08-8758976","COUNTYNAME":"屏東縣","TOWNNAME":"東港鎮","MARKTYPE":"994","Class":"4"},"geometry":{"x":120.49652414954913,"y":22.453801192829722}},{"attributes":{"OBJECTID":15741,"LANDMARKID":"1001300000932","LANDMARKCO":"405","LANDMARKNA":"千越加油站-東新站(中油)","LANDMARKAD":"1001303","ADDRESS":"屏東縣東港鎮沿海路128號","TEL":"08-833-9686","COUNTYNAME":"屏東縣","TOWNNAME":"東港鎮","MARKTYPE":"994","Class":"4"},"geometry":{"x":120.46398908470658,"y":22.471857659404847}},{"attributes":{"OBJECTID":15742,"LANDMARKID":"1001300000933","LANDMARKCO":"405","LANDMARKNA":"中油加油站-滿豐漁船站","LANDMARKAD":"1001303","ADDRESS":"屏東縣東港鎮新生一路55號","TEL":"08-8311108","COUNTYNAME":"屏東縣","TOWNNAME":"東港鎮","MARKTYPE":"994","Class":"4"},"geometry":{"x":120.44362246623956,"y":22.46646686618439}},{"attributes":{"OBJECTID":15743,"LANDMARKID":"1001300000934","LANDMARKCO":"405","LANDMARKNA":"中油加油站-東隆漁船站","LANDMARKAD":"1001303","ADDRESS":"屏東縣東港鎮新生一路47號","TEL":"08-8322700","COUNTYNAME":"屏東縣","TOWNNAME":"東港鎮","MARKTYPE":"994","Class":"4"},"geometry":{"x":120.44468019755821,"y":22.466645183781132}},{"attributes":{"OBJECTID":15744,"LANDMARKID":"1001300000935","LANDMARKCO":"405","LANDMARKNA":"中油加油站-東港站(中油直營)","LANDMARKAD":"1001303","ADDRESS":"屏東縣東港鎮興東里中正路一段85號","TEL":"08-8322352","COUNTYNAME":"屏東縣","TOWNNAME":"東港鎮","MARKTYPE":"994","Class":"4"},"geometry":{"x":120.4549922249435,"y":22.471654118522409}},{"attributes":{"OBJECTID":15745,"LANDMARKID":"1001300000854","LANDMARKCO":"402","LANDMARKNA":"My Phone台灣大哥大-屏東東港直營服務中心","LANDMARKAD":"1001303","ADDRESS":"屏東縣東港鎮中山路73號","TEL":"0809-000-166","COUNTYNAME":"屏東縣","TOWNNAME":"東港鎮","MARKTYPE":"994","Class":"4"},"geometry":{"x":120.44963224732304,"y":22.467031737108925}},{"attributes":{"OBJECTID":15746,"LANDMARKID":"1001300000855","LANDMARKCO":"402","LANDMARKNA":"亞太行動寬頻電信-東港中正加盟服務中心","LANDMARKAD":"1001303","ADDRESS":"屏東縣東港鎮中正路1段150號","TEL":"08-8323068","COUNTYNAME":"屏東縣","TOWNNAME":"東港鎮","MARKTYPE":"994","Class":"4"},"geometry":{"x":120.45799845552378,"y":22.473562418415053}},{"attributes":{"OBJECTID":15747,"LANDMARKID":"1001300000836","LANDMARKCO":"401","LANDMARKNA":"建元中醫醫院","LANDMARKAD":"1001303","ADDRESS":"屏東縣東港鎮中正路一段115號","TEL":"08-8339185","COUNTYNAME":"屏東縣","TOWNNAME":"東港鎮","MARKTYPE":"994","Class":"4"},"geometry":{"x":120.455811852526,"y":22.47219302751915}},{"attributes":{"OBJECTID":15748,"LANDMARKID":"1001300000837","LANDMARKCO":"401","LANDMARKNA":"安泰醫院","LANDMARKAD":"1001303","ADDRESS":"屏東縣東港鎮中正路一段210號","TEL":"08-8329966","COUNTYNAME":"屏東縣","TOWNNAME":"東港鎮","MARKTYPE":"994","Class":"4"},"geometry":{"x":120.45911935837191,"y":22.474373396207049}},{"attributes":{"OBJECTID":15749,"LANDMARKID":"1001300000838","LANDMARKCO":"401","LANDMARKNA":"輔英科技大學附設醫院","LANDMARKAD":"1001303","ADDRESS":"屏東縣東港鎮中山路5號","TEL":"08-8323146","COUNTYNAME":"屏東縣","TOWNNAME":"東港鎮","MARKTYPE":"994","Class":"4"},"geometry":{"x":120.45307947184577,"y":22.465394816189654}},{"attributes":{"OBJECTID":15750,"LANDMARKID":"1001300001279","LANDMARKCO":"512","LANDMARKNA":"大鵬灣國家風景區管理處","LANDMARKAD":"1001303","ADDRESS":"屏東縣東港鎮船頭路25之254號","TEL":"08-8338100#248","COUNTYNAME":"屏東縣","TOWNNAME":"東港鎮","MARKTYPE":"995","Class":"5"},"geometry":{"x":120.46540217864919,"y":22.46201058701249}},{"attributes":{"OBJECTID":15751,"LANDMARKID":"1001300001184","LANDMARKCO":"501","LANDMARKNA":"大鵬灣國家風景區","LANDMARKAD":"1001303","ADDRESS":"屏東縣東港鎮船頭路25之254號","TEL":"08-8338100#248","COUNTYNAME":"屏東縣","TOWNNAME":"東港鎮","MARKTYPE":"995","Class":"5"},"geometry":{"x":120.46547400340724,"y":22.461996133253155}},{"attributes":{"OBJECTID":15752,"LANDMARKID":"1001300001277","LANDMARKCO":"512","LANDMARKNA":"大鵬灣遊客服務中心","LANDMARKAD":"1001303","ADDRESS":"屏東縣東港鎮船頭路25之254號","TEL":"08-8338100#248","COUNTYNAME":"屏東縣","TOWNNAME":"東港鎮","MARKTYPE":"995","Class":"5"},"geometry":{"x":120.46535856530711,"y":22.462032280509522}},{"attributes":{"OBJECTID":15753,"LANDMARKID":"1001300001278","LANDMARKCO":"512","LANDMARKNA":"青洲濱海遊憩區遊客服務中心","LANDMARKAD":"1001303","ADDRESS":"屏東縣東港鎮南平路631號","TEL":"08-8758453","COUNTYNAME":"屏東縣","TOWNNAME":"東港鎮","MARKTYPE":"995","Class":"5"},"geometry":{"x":120.45571042043777,"y":22.447256658671268}},{"attributes":{"OBJECTID":15754,"LANDMARKID":"1001300001127","LANDMARKCO":"408","LANDMARKNA":"郵局-東港郵局","LANDMARKAD":"1001303","ADDRESS":"屏東縣東港鎮頂新里中正路183號","TEL":"(08)8336-257","COUNTYNAME":"屏東縣","TOWNNAME":"東港鎮","MARKTYPE":"994","Class":"4"},"geometry":{"x":120.4509193503893,"y":22.468927590275229}},{"attributes":{"OBJECTID":15755,"LANDMARKID":"1001300001128","LANDMARKCO":"408","LANDMARKNA":"郵局-東港大鵬郵局","LANDMARKAD":"1001303","ADDRESS":"屏東縣東港鎮船頭路25之242號1樓","TEL":"(08)8329-468","COUNTYNAME":"屏東縣","TOWNNAME":"東港鎮","MARKTYPE":"994","Class":"4"},"geometry":{"x":120.46406586041994,"y":22.462466886776841}},{"attributes":{"OBJECTID":15756,"LANDMARKID":"1001300001172","LANDMARKCO":"409","LANDMARKNA":"屏東縣東港鎮農會","LANDMARKAD":"1001303","ADDRESS":"屏東縣東港鎮船頭里1之5號","TEL":"08-8354456-9","COUNTYNAME":"屏東縣","TOWNNAME":"東港鎮","MARKTYPE":"994","Class":"4"},"geometry":{"x":120.45588123408977,"y":22.464444501270833}},{"attributes":{"OBJECTID":15757,"LANDMARKID":"1001300001173","LANDMARKCO":"409","LANDMARKNA":"東港區漁會","LANDMARKAD":"1001303","ADDRESS":"屏東縣東港鎮新生三路175號","TEL":"08-832-3121　","COUNTYNAME":"屏東縣","TOWNNAME":"東港鎮","MARKTYPE":"994","Class":"4"},"geometry":{"x":120.44281694864823,"y":22.467726600124021}},{"attributes":{"OBJECTID":15758,"LANDMARKID":"1001300001174","LANDMARKCO":"409","LANDMARKNA":"東港區漁會魚市場","LANDMARKAD":"1001303","ADDRESS":"東港鎮朝安里新生一路53號","TEL":"08-8327931","COUNTYNAME":"屏東縣","TOWNNAME":"東港鎮","MARKTYPE":"994","Class":"4"},"geometry":{"x":120.4440865907896,"y":22.466922556738002}},{"attributes":{"OBJECTID":15759,"LANDMARKID":"1001300000899","LANDMARKCO":"404","LANDMARKNA":"台灣自來水東港營運所","LANDMARKAD":"1001303","ADDRESS":"屏東縣東港鎮共和街107之2號","TEL":"08-8322179","COUNTYNAME":"屏東縣","TOWNNAME":"東港鎮","MARKTYPE":"994","Class":"4"},"geometry":{"x":120.45544687401349,"y":22.464161278617603}},{"attributes":{"OBJECTID":15760,"LANDMARKID":"1001300000900","LANDMARKCO":"404","LANDMARKNA":"台灣省自來水東港營運所","LANDMARKAD":"1001303","ADDRESS":"屏東縣東港鎮共和街107之2號","TEL":" ","COUNTYNAME":"屏東縣","TOWNNAME":"東港鎮","MARKTYPE":"994","Class":"4"},"geometry":{"x":120.45506880814892,"y":22.463726492606767}},{"attributes":{"OBJECTID":15761,"LANDMARKID":"1001300001068","LANDMARKCO":"406","LANDMARKNA":"鎮海公園","LANDMARKAD":"1001303","ADDRESS":"屏東縣東港鎮","TEL":" ","COUNTYNAME":"屏東縣","TOWNNAME":"東港鎮","MARKTYPE":"994","Class":"4"},"geometry":{"x":120.44127147851822,"y":22.461322112759053}},{"attributes":{"OBJECTID":15762,"LANDMARKID":"1001300001069","LANDMARKCO":"406","LANDMARKNA":"獅子公園","LANDMARKAD":"1001303","ADDRESS":"屏東縣東港鎮","TEL":" ","COUNTYNAME":"屏東縣","TOWNNAME":"東港鎮","MARKTYPE":"994","Class":"4"},"geometry":{"x":120.46812889189999,"y":22.461397138061006}},{"attributes":{"OBJECTID":15763,"LANDMARKID":"1001300001087","LANDMARKCO":"407","LANDMARKNA":"三商百貨","LANDMARKAD":"1001303","ADDRESS":"屏東縣東港鎮中山路65號","TEL":"08-8327274","COUNTYNAME":"屏東縣","TOWNNAME":"東港鎮","MARKTYPE":"994","Class":"4"},"geometry":{"x":120.45051106856998,"y":22.466576744551954}},{"attributes":{"OBJECTID":15764,"LANDMARKID":"1001300000937","LANDMARKCO":"405","LANDMARKNA":"台塑加油站-華豐東港站(台塑)","LANDMARKAD":"1001303","ADDRESS":"屏東縣東港鎮中正路二段680號","TEL":"08-8322688","COUNTYNAME":"屏東縣","TOWNNAME":"東港鎮","MARKTYPE":"994","Class":"4"},"geometry":{"x":120.46917750546518,"y":22.482629912534858}},{"attributes":{"OBJECTID":15765,"LANDMARKID":"1001300000028","LANDMARKCO":"101","LANDMARKNA":"農業委員會水產試驗所","LANDMARKAD":"1001303","ADDRESS":"屏東縣東港鎮豐漁里豐漁街68號","TEL":"08-8324121~3","COUNTYNAME":"屏東縣","TOWNNAME":"東港鎮","MARKTYPE":"991","Class":"1"},"geometry":{"x":120.44047407613208,"y":22.463647043153006}},{"attributes":{"OBJECTID":15766,"LANDMARKID":"1001300000056","LANDMARKCO":"103","LANDMARKNA":"屏東縣東港鎮衛生所","LANDMARKAD":"1001303","ADDRESS":"屏東縣東港鎮朝安里新生三路23號","TEL":"08-8325310","COUNTYNAME":"屏東縣","TOWNNAME":"東港鎮","MARKTYPE":"991","Class":"1"},"geometry":{"x":120.44613290269835,"y":22.467188948256776}},{"attributes":{"OBJECTID":15767,"LANDMARKID":"1001300000121","LANDMARKCO":"105","LANDMARKNA":"屏東縣東港地政事務所","LANDMARKAD":"1001303","ADDRESS":"屏東縣東港鎮中正路181號","TEL":"08-8331400","COUNTYNAME":"屏東縣","TOWNNAME":"東港鎮","MARKTYPE":"991","Class":"1"},"geometry":{"x":120.45072841311614,"y":22.468745666427612}},{"attributes":{"OBJECTID":15768,"LANDMARKID":"1001300000153","LANDMARKCO":"106","LANDMARKNA":"屏東縣東港鎮戶政事務所","LANDMARKAD":"1001303","ADDRESS":"屏東縣東港鎮新生三路175號","TEL":"08-8322871","COUNTYNAME":"屏東縣","TOWNNAME":"東港鎮","MARKTYPE":"991","Class":"1"},"geometry":{"x":120.44281694864823,"y":22.467726600124021}},{"attributes":{"OBJECTID":15769,"LANDMARKID":"1001300000117","LANDMARKCO":"104","LANDMARKNA":"南區國稅局東港稽徵所","LANDMARKAD":"1001303","ADDRESS":"屏東縣東港鎮新生二路16號2樓","TEL":"08-8330132","COUNTYNAME":"屏東縣","TOWNNAME":"東港鎮","MARKTYPE":"991","Class":"1"},"geometry":{"x":120.44626327361453,"y":22.466927940062515}},{"attributes":{"OBJECTID":15770,"LANDMARKID":"1001300000182","LANDMARKCO":"107","LANDMARKNA":"屏東縣消防局東港消防分隊","LANDMARKAD":"1001303","ADDRESS":"屏東縣東港鎮船頭路9號之60","TEL":"08-8322009","COUNTYNAME":"屏東縣","TOWNNAME":"東港鎮","MARKTYPE":"991","Class":"1"},"geometry":{"x":120.45777678535958,"y":22.464439587429858}},{"attributes":{"OBJECTID":15771,"LANDMARKID":"1001300000183","LANDMARKCO":"107","LANDMARKNA":"屏東縣警察局東港分局","LANDMARKAD":"1001303","ADDRESS":"屏東縣東港鎮船頭里沿海路1號","TEL":"08-8322045","COUNTYNAME":"屏東縣","TOWNNAME":"東港鎮","MARKTYPE":"991","Class":"1"},"geometry":{"x":120.46169230809986,"y":22.463090262119326}},{"attributes":{"OBJECTID":15772,"LANDMARKID":"1001300000184","LANDMARKCO":"107","LANDMARKNA":"屏東縣警察局東港派出所","LANDMARKAD":"1001303","ADDRESS":"屏東縣東港鎮船頭里沿海路1號","TEL":"08-8338183","COUNTYNAME":"屏東縣","TOWNNAME":"東港鎮","MARKTYPE":"991","Class":"1"},"geometry":{"x":120.46169230809986,"y":22.463090262119326}},{"attributes":{"OBJECTID":15773,"LANDMARKID":"1001300000185","LANDMARKCO":"107","LANDMARKNA":"屏東縣警察局東濱派出所","LANDMARKAD":"1001303","ADDRESS":"屏東縣東港鎮朝安里延平路112號","TEL":"08-8322603","COUNTYNAME":"屏東縣","TOWNNAME":"東港鎮","MARKTYPE":"991","Class":"1"},"geometry":{"x":120.44775079031318,"y":22.466657698390456}},{"attributes":{"OBJECTID":15774,"LANDMARKID":"1001300000057","LANDMARKCO":"103","LANDMARKNA":"屏東縣東港鎮鎮民代表會","LANDMARKAD":"1001303","ADDRESS":"屏東縣東港鎮新勝街53號之125","TEL":"08-8322631","COUNTYNAME":"屏東縣","TOWNNAME":"東港鎮","MARKTYPE":"991","Class":"1"},"geometry":{"x":120.45412276989721,"y":22.467133654841913}},{"attributes":{"OBJECTID":15775,"LANDMARKID":"1001300000331","LANDMARKCO":"108","LANDMARKNA":"屏東縣東港鎮公所","LANDMARKAD":"1001303","ADDRESS":"屏東縣東港鎮中山路2之100號","TEL":"08-8324131","COUNTYNAME":"屏東縣","TOWNNAME":"東港鎮","MARKTYPE":"991","Class":"1"},"geometry":{"x":120.45434032488504,"y":22.466502981635625}},{"attributes":{"OBJECTID":15776,"LANDMARKID":"1001300000116","LANDMARKCO":"104","LANDMARKNA":"屏東縣政府稅務局東港分處","LANDMARKAD":"1001303","ADDRESS":"屏東縣東港鎮新生二路16號","TEL":"08-8354780","COUNTYNAME":"屏東縣","TOWNNAME":"東港鎮","MARKTYPE":"991","Class":"1"},"geometry":{"x":120.44626327361453,"y":22.466927940062515}},{"attributes":{"OBJECTID":15777,"LANDMARKID":"1001300000675","LANDMARKCO":"205","LANDMARKNA":"水產試驗所東港分所標本館","LANDMARKAD":"1001303","ADDRESS":"屏東縣東港鎮豐漁里67號","TEL":" ","COUNTYNAME":"屏東縣","TOWNNAME":"東港鎮","MARKTYPE":"992","Class":"2"},"geometry":{"x":120.44066140754995,"y":22.463377436291044}},{"attributes":{"OBJECTID":15778,"LANDMARKID":"1001300000651","LANDMARKCO":"204","LANDMARKNA":"屏東縣立圖書館東港分館","LANDMARKAD":"1001303","ADDRESS":"屏東縣東港鎮新勝街51之30號","TEL":" ","COUNTYNAME":"屏東縣","TOWNNAME":"東港鎮","MARKTYPE":"992","Class":"2"},"geometry":{"x":120.45444122133456,"y":22.467550405064088}},{"attributes":{"OBJECTID":15779,"LANDMARKID":"1001300000363","LANDMARKCO":"202","LANDMARKNA":"私立新基高中","LANDMARKAD":"1001303","ADDRESS":"屏東縣東港鎮新基街128號","TEL":"08-8322055","COUNTYNAME":"屏東縣","TOWNNAME":"東港鎮","MARKTYPE":"992","Class":"2"},"geometry":{"x":120.45293811961591,"y":22.469654316877559}},{"attributes":{"OBJECTID":15780,"LANDMARKID":"1001300000364","LANDMARKCO":"202","LANDMARKNA":"國立東港海事","LANDMARKAD":"1001303","ADDRESS":"屏東縣東港鎮豐漁街66號","TEL":"08-8333131","COUNTYNAME":"屏東縣","TOWNNAME":"東港鎮","MARKTYPE":"992","Class":"2"},"geometry":{"x":120.44216390020674,"y":22.465374022705006}},{"attributes":{"OBJECTID":15781,"LANDMARKID":"1001300000365","LANDMARKCO":"202","LANDMARKNA":"私立新基高中附設國中部","LANDMARKAD":"1001303","ADDRESS":"屏東縣東港鎮新基街128號","TEL":"08-8322055","COUNTYNAME":"屏東縣","TOWNNAME":"東港鎮","MARKTYPE":"992","Class":"2"},"geometry":{"x":120.45293811961591,"y":22.469654316877559}},{"attributes":{"OBJECTID":15782,"LANDMARKID":"1001300000485","LANDMARKCO":"203","LANDMARKNA":"縣立東新國中","LANDMARKAD":"1001303","ADDRESS":"屏東縣東港鎮東新路1號","TEL":"08-8324920","COUNTYNAME":"屏東縣","TOWNNAME":"東港鎮","MARKTYPE":"992","Class":"2"},"geometry":{"x":120.46512345019053,"y":22.473582108102814}},{"attributes":{"OBJECTID":15783,"LANDMARKID":"1001300000486","LANDMARKCO":"203","LANDMARKNA":"縣立東港國中","LANDMARKAD":"1001303","ADDRESS":"屏東縣東港鎮船頭路1號","TEL":"08-8322014","COUNTYNAME":"屏東縣","TOWNNAME":"東港鎮","MARKTYPE":"992","Class":"2"},"geometry":{"x":120.45547804222883,"y":22.465155995114063}},{"attributes":{"OBJECTID":15784,"LANDMARKID":"1001300000487","LANDMARKCO":"203","LANDMARKNA":"縣立大潭國小","LANDMARKAD":"1001303","ADDRESS":"屏東縣東港鎮大潭里大潭路93號","TEL":"08-8324226","COUNTYNAME":"屏東縣","TOWNNAME":"東港鎮","MARKTYPE":"992","Class":"2"},"geometry":{"x":120.49576598354417,"y":22.45679045889457}},{"attributes":{"OBJECTID":15785,"LANDMARKID":"1001300000488","LANDMARKCO":"203","LANDMARKNA":"縣立東港國小","LANDMARKAD":"1001303","ADDRESS":"屏東縣東港鎮興東里中正路一段10號","TEL":"08-8322019","COUNTYNAME":"屏東縣","TOWNNAME":"東港鎮","MARKTYPE":"992","Class":"2"},"geometry":{"x":120.45471821532632,"y":22.470659801145533}},{"attributes":{"OBJECTID":15786,"LANDMARKID":"1001300000489","LANDMARKCO":"203","LANDMARKNA":"縣立以栗國小","LANDMARKAD":"1001303","ADDRESS":"屏東縣東港鎮船頭里船頭路25號","TEL":"08-8322816","COUNTYNAME":"屏東縣","TOWNNAME":"東港鎮","MARKTYPE":"992","Class":"2"},"geometry":{"x":120.46125995890314,"y":22.462455193531405}},{"attributes":{"OBJECTID":15787,"LANDMARKID":"1001300000490","LANDMARKCO":"203","LANDMARKNA":"縣立東興國小","LANDMARKAD":"1001303","ADDRESS":"屏東縣東港鎮興東里興東路43之1號","TEL":"08-8310406","COUNTYNAME":"屏東縣","TOWNNAME":"東港鎮","MARKTYPE":"992","Class":"2"},"geometry":{"x":120.46572036675931,"y":22.478372513269154}},{"attributes":{"OBJECTID":15788,"LANDMARKID":"1001300000491","LANDMARKCO":"203","LANDMARKNA":"縣立海濱國小","LANDMARKAD":"1001303","ADDRESS":"屏東縣東港鎮豐漁里豐漁街34之2號","TEL":"08-8322244","COUNTYNAME":"屏東縣","TOWNNAME":"東港鎮","MARKTYPE":"992","Class":"2"},"geometry":{"x":120.44247161314642,"y":22.464563346218579}},{"attributes":{"OBJECTID":15789,"LANDMARKID":"1001300000492","LANDMARKCO":"203","LANDMARKNA":"縣立東光國小","LANDMARKAD":"1001303","ADDRESS":"屏東縣東港鎮長春二路15號","TEL":"08-8324927","COUNTYNAME":"屏東縣","TOWNNAME":"東港鎮","MARKTYPE":"992","Class":"2"},"geometry":{"x":120.45994296909146,"y":22.468418448996932}},{"attributes":{"OBJECTID":15790,"LANDMARKID":"1001300000493","LANDMARKCO":"203","LANDMARKNA":"縣立東隆國小","LANDMARKAD":"1001303","ADDRESS":"屏東縣東港鎮共和里共和路45號","TEL":"08-8322064","COUNTYNAME":"屏東縣","TOWNNAME":"東港鎮","MARKTYPE":"992","Class":"2"},"geometry":{"x":120.45079002354886,"y":22.464221509369153}},{"attributes":{"OBJECTID":15791,"LANDMARKID":"1001300000787","LANDMARKCO":"305","LANDMARKNA":"南平漁港","LANDMARKAD":"1001303","ADDRESS":"屏東縣東港鎮","TEL":" ","COUNTYNAME":"屏東縣","TOWNNAME":"東港鎮","MARKTYPE":"993","Class":"305"},"geometry":{"x":120.45283815067752,"y":22.446537212018491}},{"attributes":{"OBJECTID":15792,"LANDMARKID":"1001300000788","LANDMARKCO":"305","LANDMARKNA":"東港漁港","LANDMARKAD":"1001303","ADDRESS":"屏東縣新園鄉","TEL":" ","COUNTYNAME":"屏東縣","TOWNNAME":"東港鎮","MARKTYPE":"993","Class":"305"},"geometry":{"x":120.44183447024963,"y":22.467397385473873}},{"attributes":{"OBJECTID":15793,"LANDMARKID":"1001300000706","LANDMARKCO":"302","LANDMARKNA":"屏東汽車客運東港站","LANDMARKAD":"1001303","ADDRESS":"屏東縣東港鎮中山路3號","TEL":" ","COUNTYNAME":"屏東縣","TOWNNAME":"東港鎮","MARKTYPE":"993","Class":"302"},"geometry":{"x":120.45390947745925,"y":22.465101182045835}},{"attributes":{"OBJECTID":15794,"LANDMARKID":"1001300000777","LANDMARKCO":"303","LANDMARKNA":"青洲濱海遊憩區停車場","LANDMARKAD":"1001303","ADDRESS":"屏東縣東港鎮南平路大鵬灣外側631號","TEL":" ","COUNTYNAME":"屏東縣","TOWNNAME":"東港鎮","MARKTYPE":"993","Class":"303"},"geometry":{"x":120.45453687728521,"y":22.447765033541629}},{"attributes":{"OBJECTID":15795,"LANDMARKID":"1001300000778","LANDMARKCO":"303","LANDMARKNA":"大鵬灣國家風景區停車場","LANDMARKAD":"1001303","ADDRESS":"屏東縣東港鎮大潭路169號","TEL":"08-8338100","COUNTYNAME":"屏東縣","TOWNNAME":"東港鎮","MARKTYPE":"993","Class":"303"},"geometry":{"x":120.48100831603065,"y":22.453109092663276}},{"attributes":{"OBJECTID":15796,"LANDMARKID":"1001300000699","LANDMARKCO":"301","LANDMARKNA":"大鶻火車站(閒)","LANDMARKAD":"1001303","ADDRESS":"屏東縣東港鎮","TEL":" ","COUNTYNAME":"屏東縣","TOWNNAME":"東港鎮","MARKTYPE":"993","Class":"301"},"geometry":{"x":120.48589909381619,"y":22.456389512616795}},{"attributes":{"OBJECTID":15797,"LANDMARKID":"1001300000857","LANDMARKCO":"402","LANDMARKNA":"中華電信-東港服務中心","LANDMARKAD":"1001303","ADDRESS":"屏東縣東港鎮中正路227號","TEL":"(08)844-0100","COUNTYNAME":"屏東縣","TOWNNAME":"東港鎮","MARKTYPE":"994","Class":"4"},"geometry":{"x":120.45169079884074,"y":22.469835917798054}},{"attributes":{"OBJECTID":15798,"LANDMARKID":"1001300000858","LANDMARKCO":"402","LANDMARKNA":"遠傳電信-東港中正門市","LANDMARKAD":"1001303","ADDRESS":"屏東縣東港鎮中正路155號","TEL":" ","COUNTYNAME":"屏東縣","TOWNNAME":"東港鎮","MARKTYPE":"994","Class":"4"},"geometry":{"x":120.45041148598294,"y":22.468021014458053}},{"attributes":{"OBJECTID":15799,"LANDMARKID":"1001300000859","LANDMARKCO":"402","LANDMARKNA":"威寶電信-東港中正特約服務中心","LANDMARKAD":"1001303","ADDRESS":"屏東縣東港鎮中正路238號","TEL":"08-8329606","COUNTYNAME":"屏東縣","TOWNNAME":"東港鎮","MARKTYPE":"994","Class":"4"},"geometry":{"x":120.45226337454586,"y":22.469930119815949}},{"attributes":{"OBJECTID":15800,"LANDMARKID":"1001300001303","LANDMARKCO":"603","LANDMARKNA":"晶夜時尚汽車旅館","LANDMARKAD":"1001303","ADDRESS":"屏東縣東港鎮中正路二段187號","TEL":"08-7517125","COUNTYNAME":"屏東縣","TOWNNAME":"東港鎮","MARKTYPE":"996","Class":"6"},"geometry":{"x":120.46227827144428,"y":22.47726096026631}}]}