{"displayFieldName":"COUNTYNAME","fieldAliases":{"OBJECTID":"OBJECTID","LANDMARKID":"LANDMARKID","LANDMARKCO":"LANDMARKCO","LANDMARKNA":"LANDMARKNA","LANDMARKAD":"LANDMARKAD","ADDRESS":"ADDRESS","TEL":"TEL","COUNTYNAME":"COUNTYNAME","TOWNNAME":"TOWNNAME","MARKTYPE":"MARKTYPE","Class":"Class"},"geometryType":"esriGeometryPoint","spatialReference":{"wkid":4326},"fields":[{"name":"OBJECTID","type":"esriFieldTypeOID","alias":"OBJECTID"},{"name":"LANDMARKID","type":"esriFieldTypeString","alias":"LANDMARKID","length":15},{"name":"LANDMARKCO","type":"esriFieldTypeString","alias":"LANDMARKCO","length":15},{"name":"LANDMARKNA","type":"esriFieldTypeString","alias":"LANDMARKNA","length":50},{"name":"LANDMARKAD","type":"esriFieldTypeString","alias":"LANDMARKAD","length":15},{"name":"ADDRESS","type":"esriFieldTypeString","alias":"ADDRESS","length":56},{"name":"TEL","type":"esriFieldTypeString","alias":"TEL","length":36},{"name":"COUNTYNAME","type":"esriFieldTypeString","alias":"COUNTYNAME","length":15},{"name":"TOWNNAME","type":"esriFieldTypeString","alias":"TOWNNAME","length":13},{"name":"MARKTYPE","type":"esriFieldTypeString","alias":"MARKTYPE","length":12},{"name":"Class","type":"esriFieldTypeString","alias":"Class","length":5}],"features":[{"attributes":{"OBJECTID":14601,"LANDMARKID":"1001900000020","LANDMARKCO":"101","LANDMARKNA":"內政部中部辦公室黎明地區","LANDMARKAD":"1001907","ADDRESS":"台中市南屯區黎明路二段503號","TEL":"04-22502365","COUNTYNAME":"台中市","TOWNNAME":"南屯區","MARKTYPE":"991","Class":"1"},"geometry":{"x":120.63431187649779,"y":24.155565541251093}},{"attributes":{"OBJECTID":14602,"LANDMARKID":"1001900000021","LANDMARKCO":"101","LANDMARKNA":"勞工委員會中部辦公室","LANDMARKAD":"1001907","ADDRESS":"台中市南屯區黎明路二段501號7樓","TEL":"04-22598800","COUNTYNAME":"台中市","TOWNNAME":"南屯區","MARKTYPE":"991","Class":"1"},"geometry":{"x":120.63443652190929,"y":24.154753516937561}},{"attributes":{"OBJECTID":14603,"LANDMARKID":"1001900000095","LANDMARKCO":"107","LANDMARKNA":"台中市警察局春社派出所","LANDMARKAD":"1001907","ADDRESS":"台中市南屯區忠勇路23之5號","TEL":"04-23824719","COUNTYNAME":"台中市","TOWNNAME":"南屯區","MARKTYPE":"991","Class":"1"},"geometry":{"x":120.61160797429298,"y":24.136366313230511}},{"attributes":{"OBJECTID":14604,"LANDMARKID":"1001900000125","LANDMARKCO":"108","LANDMARKNA":"台中市南屯區公所","LANDMARKAD":"1001907","ADDRESS":"台中市南屯區南屯路二段407號","TEL":"04-23892253","COUNTYNAME":"台中市","TOWNNAME":"南屯區","MARKTYPE":"991","Class":"1"},"geometry":{"x":120.64298320921351,"y":24.138123486973527}},{"attributes":{"OBJECTID":14605,"LANDMARKID":"1001900000088","LANDMARKCO":"107","LANDMARKNA":"台中市警察局第四分局","LANDMARKAD":"1001907","ADDRESS":"台中市南屯區干城街2號","TEL":"04-22515452","COUNTYNAME":"台中市","TOWNNAME":"南屯區","MARKTYPE":"991","Class":"1"},"geometry":{"x":120.63399823474251,"y":24.155897382483808}},{"attributes":{"OBJECTID":14606,"LANDMARKID":"1001900000089","LANDMARKCO":"107","LANDMARKNA":"台中市警察局黎明派出所","LANDMARKAD":"1001907","ADDRESS":"台中市南屯區干城街2號","TEL":"04-22527457","COUNTYNAME":"台中市","TOWNNAME":"南屯區","MARKTYPE":"991","Class":"1"},"geometry":{"x":120.63399823474251,"y":24.155897382483808}},{"attributes":{"OBJECTID":14607,"LANDMARKID":"1001900000090","LANDMARKCO":"107","LANDMARKNA":"台中市警察局南屯派出所","LANDMARKAD":"1001907","ADDRESS":"台中市南屯區黎明路一段1056號","TEL":"04-23824718","COUNTYNAME":"台中市","TOWNNAME":"南屯區","MARKTYPE":"991","Class":"1"},"geometry":{"x":120.63830681062939,"y":24.139523716183707}},{"attributes":{"OBJECTID":14608,"LANDMARKID":"1001900000091","LANDMARKCO":"107","LANDMARKNA":"內政部入出國及移民署","LANDMARKAD":"1001907","ADDRESS":"臺中市南屯區干城街91號1樓","TEL":"04-22549981","COUNTYNAME":"台中市","TOWNNAME":"南屯區","MARKTYPE":"991","Class":"1"},"geometry":{"x":120.63226489714046,"y":24.155230665285735}},{"attributes":{"OBJECTID":14609,"LANDMARKID":"1001900000092","LANDMARKCO":"107","LANDMARKNA":"台中市消防局南屯消防分隊","LANDMARKAD":"1001907","ADDRESS":"台中市南屯區向心南路916號","TEL":"04-24755946","COUNTYNAME":"台中市","TOWNNAME":"南屯區","MARKTYPE":"991","Class":"1"},"geometry":{"x":120.64418337182957,"y":24.135755605386972}},{"attributes":{"OBJECTID":14610,"LANDMARKID":"1001900000093","LANDMARKCO":"107","LANDMARKNA":"台中市消防局春社消防分隊","LANDMARKAD":"1001907","ADDRESS":"台中市南屯區忠勇路23號之6","TEL":"04-23893610","COUNTYNAME":"台中市","TOWNNAME":"南屯區","MARKTYPE":"991","Class":"1"},"geometry":{"x":120.61148968942712,"y":24.135482057638345}},{"attributes":{"OBJECTID":14611,"LANDMARKID":"1001900000094","LANDMARKCO":"107","LANDMARKNA":"台中市消防局黎明消防分隊","LANDMARKAD":"1001907","ADDRESS":"台中市南屯區干城街2號","TEL":"04-22528462","COUNTYNAME":"台中市","TOWNNAME":"南屯區","MARKTYPE":"991","Class":"1"},"geometry":{"x":120.63399823474251,"y":24.155897382483808}},{"attributes":{"OBJECTID":14612,"LANDMARKID":"1001900000072","LANDMARKCO":"106","LANDMARKNA":"台中市南屯區戶政事務所","LANDMARKAD":"1001907","ADDRESS":"台中市南屯區南屯路二段409號","TEL":"04-23898692","COUNTYNAME":"台中市","TOWNNAME":"南屯區","MARKTYPE":"991","Class":"1"},"geometry":{"x":120.64279348152344,"y":24.138166662827256}},{"attributes":{"OBJECTID":14613,"LANDMARKID":"1001900000022","LANDMARKCO":"101","LANDMARKNA":"內政部國土測繪中心本部","LANDMARKAD":"1001907","ADDRESS":"台中市南屯區黎明路二段497號4樓","TEL":"04-22522966","COUNTYNAME":"台中市","TOWNNAME":"南屯區","MARKTYPE":"991","Class":"1"},"geometry":{"x":120.63441915762711,"y":24.153423033583934}},{"attributes":{"OBJECTID":14614,"LANDMARKID":"1001900000062","LANDMARKCO":"105","LANDMARKNA":"台中市中興地政事務所","LANDMARKAD":"1001907","ADDRESS":"台中市東興路三段246號","TEL":"04-23276841","COUNTYNAME":"台中市","TOWNNAME":"南屯區","MARKTYPE":"991","Class":"1"},"geometry":{"x":120.65336938881435,"y":24.153828207106102}},{"attributes":{"OBJECTID":14615,"LANDMARKID":"1001900000023","LANDMARKCO":"101","LANDMARKNA":"行政院環境保護署中區環境督察大隊","LANDMARKAD":"1001907","ADDRESS":"台中市南屯區黎明路二段497號7樓","TEL":"04-22553349","COUNTYNAME":"台中市","TOWNNAME":"南屯區","MARKTYPE":"991","Class":"1"},"geometry":{"x":120.63441915762711,"y":24.153423033583934}},{"attributes":{"OBJECTID":14616,"LANDMARKID":"1001900000024","LANDMARKCO":"101","LANDMARKNA":"台灣台中女子監獄","LANDMARKAD":"1001907","ADDRESS":"台中市南屯區培德路9號之3","TEL":"04-23840936","COUNTYNAME":"台中市","TOWNNAME":"南屯區","MARKTYPE":"991","Class":"1"},"geometry":{"x":120.59623704509279,"y":24.14266186695437}},{"attributes":{"OBJECTID":14617,"LANDMARKID":"1001900000025","LANDMARKCO":"101","LANDMARKNA":"台灣台中戒治所","LANDMARKAD":"1001907","ADDRESS":"台中市南屯區培德路3號","TEL":"04-23803642","COUNTYNAME":"台中市","TOWNNAME":"南屯區","MARKTYPE":"991","Class":"1"},"geometry":{"x":120.59673048637961,"y":24.139030415591119}},{"attributes":{"OBJECTID":14618,"LANDMARKID":"1001900000026","LANDMARKCO":"101","LANDMARKNA":"台灣台中看守所","LANDMARKAD":"1001907","ADDRESS":"台中市南屯區培德路11號","TEL":"04-23853880","COUNTYNAME":"台中市","TOWNNAME":"南屯區","MARKTYPE":"991","Class":"1"},"geometry":{"x":120.59734192603618,"y":24.144656304975033}},{"attributes":{"OBJECTID":14619,"LANDMARKID":"1001900000027","LANDMARKCO":"101","LANDMARKNA":"台灣台中監獄","LANDMARKAD":"1001907","ADDRESS":"台中市南屯區培德路9號","TEL":"04-23891296","COUNTYNAME":"台中市","TOWNNAME":"南屯區","MARKTYPE":"991","Class":"1"},"geometry":{"x":120.59623704509279,"y":24.14266186695437}},{"attributes":{"OBJECTID":14620,"LANDMARKID":"1001900000037","LANDMARKCO":"103","LANDMARKNA":"台中市審計室","LANDMARKAD":"1001907","ADDRESS":"台中市南屯區黎明路二段608號","TEL":"04-22588235","COUNTYNAME":"台中市","TOWNNAME":"南屯區","MARKTYPE":"991","Class":"1"},"geometry":{"x":120.63481635462364,"y":24.155979496371497}},{"attributes":{"OBJECTID":14621,"LANDMARKID":"1001900000038","LANDMARKCO":"103","LANDMARKNA":"台中市南屯區衛生所","LANDMARKAD":"1001907","ADDRESS":"台中市南屯區向心南路811號","TEL":"04-23827460","COUNTYNAME":"台中市","TOWNNAME":"南屯區","MARKTYPE":"991","Class":"1"},"geometry":{"x":120.64343620303578,"y":24.134221552827988}},{"attributes":{"OBJECTID":14622,"LANDMARKID":"1001900000284","LANDMARKCO":"205","LANDMARKNA":"萬和宮文物館","LANDMARKAD":"1001907","ADDRESS":"台中市南屯區萬和路一段56號4樓","TEL":"04-23893285","COUNTYNAME":"台中市","TOWNNAME":"南屯區","MARKTYPE":"992","Class":"2"},"geometry":{"x":120.63938704416441,"y":24.137576988578722}},{"attributes":{"OBJECTID":14623,"LANDMARKID":"1001900000275","LANDMARKCO":"204","LANDMARKNA":"台中市立圖書館南屯區分館","LANDMARKAD":"1001907","ADDRESS":"台中市南屯區南五路331號","TEL":" ","COUNTYNAME":"台中市","TOWNNAME":"南屯區","MARKTYPE":"992","Class":"2"},"geometry":{"x":120.64291738115114,"y":24.138224710369045}},{"attributes":{"OBJECTID":14624,"LANDMARKID":"1001900000276","LANDMARKCO":"204","LANDMARKNA":"台中市立圖書館南屯區文山分館","LANDMARKAD":"1001907","ADDRESS":"台中市南屯區文山里忠勇路54之5號","TEL":" ","COUNTYNAME":"台中市","TOWNNAME":"南屯區","MARKTYPE":"992","Class":"2"},"geometry":{"x":120.61425656206059,"y":24.144313397007842}},{"attributes":{"OBJECTID":14625,"LANDMARKID":"1001900000164","LANDMARKCO":"202","LANDMARKNA":"市立惠文高中","LANDMARKAD":"1001907","ADDRESS":"台中市南屯區公益路二段298號","TEL":"04-22503928","COUNTYNAME":"台中市","TOWNNAME":"南屯區","MARKTYPE":"992","Class":"2"},"geometry":{"x":120.63971113300997,"y":24.151605108452767}},{"attributes":{"OBJECTID":14626,"LANDMARKID":"1001900000208","LANDMARKCO":"203","LANDMARKNA":"市立惠文國小","LANDMARKAD":"1001907","ADDRESS":"台中市南屯區公益路二段300號","TEL":"04-22596907","COUNTYNAME":"台中市","TOWNNAME":"南屯區","MARKTYPE":"992","Class":"2"},"geometry":{"x":120.63808239860668,"y":24.152506932720591}},{"attributes":{"OBJECTID":14627,"LANDMARKID":"1001900000209","LANDMARKCO":"203","LANDMARKNA":"市立文山國小","LANDMARKAD":"1001907","ADDRESS":"台中市南屯區忠勇路97號","TEL":"04-23896934","COUNTYNAME":"台中市","TOWNNAME":"南屯區","MARKTYPE":"992","Class":"2"},"geometry":{"x":120.61475223739814,"y":24.149196777819135}},{"attributes":{"OBJECTID":14628,"LANDMARKID":"1001900000210","LANDMARKCO":"203","LANDMARKNA":"市立南屯國小","LANDMARKAD":"1001907","ADDRESS":"台中市南屯區黎明路一段968號","TEL":"04-23894238","COUNTYNAME":"台中市","TOWNNAME":"南屯區","MARKTYPE":"992","Class":"2"},"geometry":{"x":120.63817994415733,"y":24.136977008241082}},{"attributes":{"OBJECTID":14629,"LANDMARKID":"1001900000139","LANDMARKCO":"201","LANDMARKNA":"神召神學院","LANDMARKAD":"1001907","ADDRESS":"台中市南屯區中台路366號","TEL":"04-23891006","COUNTYNAME":"台中市","TOWNNAME":"南屯區","MARKTYPE":"992","Class":"2"},"geometry":{"x":120.58834784926719,"y":24.139380106341378}},{"attributes":{"OBJECTID":14630,"LANDMARKID":"1001900000211","LANDMARKCO":"203","LANDMARKNA":"市立惠文高中附設國中部","LANDMARKAD":"1001907","ADDRESS":"台中市南屯區公益路二段298號","TEL":"04-22503928","COUNTYNAME":"台中市","TOWNNAME":"南屯區","MARKTYPE":"992","Class":"2"},"geometry":{"x":120.63980953424085,"y":24.151605572782803}},{"attributes":{"OBJECTID":14631,"LANDMARKID":"1001900000165","LANDMARKCO":"202","LANDMARKNA":"私立嶺東高中","LANDMARKAD":"1001907","ADDRESS":"台中市南屯區嶺東路2號","TEL":"04-23898940","COUNTYNAME":"台中市","TOWNNAME":"南屯區","MARKTYPE":"992","Class":"2"},"geometry":{"x":120.61026653490948,"y":24.137299562381273}},{"attributes":{"OBJECTID":14632,"LANDMARKID":"1001900000200","LANDMARKCO":"203","LANDMARKNA":"市立大業國中","LANDMARKAD":"1001907","ADDRESS":"台中市南屯區大業路100號","TEL":"04-23279458","COUNTYNAME":"台中市","TOWNNAME":"南屯區","MARKTYPE":"992","Class":"2"},"geometry":{"x":120.65249309520198,"y":24.154477292368366}},{"attributes":{"OBJECTID":14633,"LANDMARKID":"1001900000201","LANDMARKCO":"203","LANDMARKNA":"市立萬和國中","LANDMARKAD":"1001907","ADDRESS":"台中市南屯區永春東路885號","TEL":"04-23817264","COUNTYNAME":"台中市","TOWNNAME":"南屯區","MARKTYPE":"992","Class":"2"},"geometry":{"x":120.64030736092658,"y":24.134119650534174}},{"attributes":{"OBJECTID":14634,"LANDMARKID":"1001900000202","LANDMARKCO":"203","LANDMARKNA":"市立黎明國中","LANDMARKAD":"1001907","ADDRESS":"台中市南屯區黎明路二段525號","TEL":"04-22510983","COUNTYNAME":"台中市","TOWNNAME":"南屯區","MARKTYPE":"992","Class":"2"},"geometry":{"x":120.63276861630649,"y":24.156383771259165}},{"attributes":{"OBJECTID":14635,"LANDMARKID":"1001900000203","LANDMARKCO":"203","LANDMARKNA":"市立大新國小","LANDMARKAD":"1001907","ADDRESS":"台中市南屯區文心路一段280號","TEL":"04-24716609","COUNTYNAME":"台中市","TOWNNAME":"南屯區","MARKTYPE":"992","Class":"2"},"geometry":{"x":120.64697520315586,"y":24.145874159349994}},{"attributes":{"OBJECTID":14636,"LANDMARKID":"1001900000204","LANDMARKCO":"203","LANDMARKNA":"市立永春國小","LANDMARKAD":"1001907","ADDRESS":"台中市南屯區永春東路288號","TEL":"04-24757468","COUNTYNAME":"台中市","TOWNNAME":"南屯區","MARKTYPE":"992","Class":"2"},"geometry":{"x":120.64825563388943,"y":24.135030612743417}},{"attributes":{"OBJECTID":14637,"LANDMARKID":"1001900000205","LANDMARKCO":"203","LANDMARKNA":"市立春安國小","LANDMARKAD":"1001907","ADDRESS":"台中市南屯區春安路109號","TEL":"04-23894408","COUNTYNAME":"台中市","TOWNNAME":"南屯區","MARKTYPE":"992","Class":"2"},"geometry":{"x":120.60841637096091,"y":24.134764020582757}},{"attributes":{"OBJECTID":14638,"LANDMARKID":"1001900000206","LANDMARKCO":"203","LANDMARKNA":"市立鎮平國小","LANDMARKAD":"1001907","ADDRESS":"台中市南屯區黎明路一段425號","TEL":"04-24792122","COUNTYNAME":"台中市","TOWNNAME":"南屯區","MARKTYPE":"992","Class":"2"},"geometry":{"x":120.62894782238791,"y":24.121584138228066}},{"attributes":{"OBJECTID":14639,"LANDMARKID":"1001900000207","LANDMARKCO":"203","LANDMARKNA":"市立黎明國小","LANDMARKAD":"1001907","ADDRESS":"台中市南屯區黎明路二段555號","TEL":"04-22517363","COUNTYNAME":"台中市","TOWNNAME":"南屯區","MARKTYPE":"992","Class":"2"},"geometry":{"x":120.63273620135693,"y":24.157278693343603}},{"attributes":{"OBJECTID":14640,"LANDMARKID":"1001900000131","LANDMARKCO":"201","LANDMARKNA":"嶺東科技大學春安校區","LANDMARKAD":"1001907","ADDRESS":"台中市南屯區嶺東路1號","TEL":"04-23892088","COUNTYNAME":"台中市","TOWNNAME":"南屯區","MARKTYPE":"992","Class":"2"},"geometry":{"x":120.60763018926153,"y":24.138000070276433}},{"attributes":{"OBJECTID":14641,"LANDMARKID":"1001900000183","LANDMARKCO":"203","LANDMARKNA":"私立嶺東高中附設國中部","LANDMARKAD":"1001907","ADDRESS":"台中市南屯區嶺東路2號","TEL":"04-23898940","COUNTYNAME":"台中市","TOWNNAME":"南屯區","MARKTYPE":"992","Class":"2"},"geometry":{"x":120.61026653490948,"y":24.137299562381273}},{"attributes":{"OBJECTID":14642,"LANDMARKID":"1001900000184","LANDMARKCO":"203","LANDMARKNA":"國立台中特殊教育學校","LANDMARKAD":"1001907","ADDRESS":"台中市公益路二段296號","TEL":"04-22582289","COUNTYNAME":"台中市","TOWNNAME":"南屯區","MARKTYPE":"992","Class":"2"},"geometry":{"x":120.64139106450412,"y":24.151465690201288}},{"attributes":{"OBJECTID":14643,"LANDMARKID":"1001900000532","LANDMARKCO":"308","LANDMARKNA":"國1-南屯交流道-南下","LANDMARKAD":"1001907","ADDRESS":"台中市南屯區","TEL":" ","COUNTYNAME":"台中市","TOWNNAME":"南屯區","MARKTYPE":"993","Class":"308"},"geometry":{"x":120.61932663233021,"y":24.149865499102177}},{"attributes":{"OBJECTID":14644,"LANDMARKID":"1001900000533","LANDMARKCO":"308","LANDMARKNA":"國1-南屯交流道-北上","LANDMARKAD":"1001907","ADDRESS":"台中市南屯區","TEL":" ","COUNTYNAME":"台中市","TOWNNAME":"南屯區","MARKTYPE":"993","Class":"308"},"geometry":{"x":120.62033465414153,"y":24.154831003741887}},{"attributes":{"OBJECTID":14645,"LANDMARKID":"1001900000534","LANDMARKCO":"308","LANDMARKNA":"台74-南屯一交流道-西行","LANDMARKAD":"1001907","ADDRESS":"台中市南屯區","TEL":" ","COUNTYNAME":"台中市","TOWNNAME":"南屯區","MARKTYPE":"993","Class":"308"},"geometry":{"x":120.62048870737713,"y":24.132384881953463}},{"attributes":{"OBJECTID":14646,"LANDMARKID":"1001900000535","LANDMARKCO":"308","LANDMARKNA":"台74-南屯二交流道-東行","LANDMARKAD":"1001907","ADDRESS":"台中市南屯區","TEL":" ","COUNTYNAME":"台中市","TOWNNAME":"南屯區","MARKTYPE":"993","Class":"308"},"geometry":{"x":120.62411367957964,"y":24.152629321304296}},{"attributes":{"OBJECTID":14647,"LANDMARKID":"1001900000536","LANDMARKCO":"308","LANDMARKNA":"台74-高鐵台中交流道-西行","LANDMARKAD":"1001907","ADDRESS":" ","TEL":" ","COUNTYNAME":"台中市","TOWNNAME":"南屯區","MARKTYPE":"993","Class":"308"},"geometry":{"x":120.62020398353037,"y":24.117277973391474}},{"attributes":{"OBJECTID":14648,"LANDMARKID":"1001900000537","LANDMARKCO":"308","LANDMARKNA":"台74-高鐵台中交流道-東行","LANDMARKAD":"1001907","ADDRESS":" ","TEL":" ","COUNTYNAME":"台中市","TOWNNAME":"南屯區","MARKTYPE":"993","Class":"308"},"geometry":{"x":120.62001091205353,"y":24.122369803911422}},{"attributes":{"OBJECTID":14649,"LANDMARKID":"1001900000538","LANDMARKCO":"308","LANDMARKNA":"台74-南屯二交流道-西行","LANDMARKAD":"1001907","ADDRESS":"台中市南屯區","TEL":" ","COUNTYNAME":"台中市","TOWNNAME":"南屯區","MARKTYPE":"993","Class":"308"},"geometry":{"x":120.62304517855678,"y":24.146027835216156}},{"attributes":{"OBJECTID":14650,"LANDMARKID":"1001900000385","LANDMARKCO":"303","LANDMARKNA":"望高寮景觀園區停車場","LANDMARKAD":"1001907","ADDRESS":"台中市南屯區大肚山","TEL":" ","COUNTYNAME":"台中市","TOWNNAME":"南屯區","MARKTYPE":"993","Class":"303"},"geometry":{"x":120.57899667645829,"y":24.145880883638029}},{"attributes":{"OBJECTID":14651,"LANDMARKID":"1001900000386","LANDMARKCO":"303","LANDMARKNA":"台中酒廠停車場","LANDMARKAD":"1001907","ADDRESS":"台中市西屯區工業區二十八路2號","TEL":"04-23501318","COUNTYNAME":"台中市","TOWNNAME":"南屯區","MARKTYPE":"993","Class":"303"},"geometry":{"x":120.598082630687,"y":24.164141020575862}},{"attributes":{"OBJECTID":14652,"LANDMARKID":"1001900000387","LANDMARKCO":"303","LANDMARKNA":"嶺東高爾夫球場停車場","LANDMARKAD":"1001907","ADDRESS":"台中市南屯區","TEL":" ","COUNTYNAME":"台中市","TOWNNAME":"南屯區","MARKTYPE":"993","Class":"303"},"geometry":{"x":120.60696366174665,"y":24.150494375659555}},{"attributes":{"OBJECTID":14653,"LANDMARKID":"1001900000388","LANDMARKCO":"303","LANDMARKNA":"成功嶺高爾夫俱樂部停車場","LANDMARKAD":"1001907","ADDRESS":"台中市南屯區忠勇路17號","TEL":"04-23810080","COUNTYNAME":"台中市","TOWNNAME":"南屯區","MARKTYPE":"993","Class":"303"},"geometry":{"x":120.60760162193442,"y":24.127562462861867}},{"attributes":{"OBJECTID":14654,"LANDMARKID":"1001900000389","LANDMARKCO":"303","LANDMARKNA":"楓樹停車場","LANDMARKAD":"1001907","ADDRESS":"台中市南屯區楓樹巷和永春東二街","TEL":" ","COUNTYNAME":"台中市","TOWNNAME":"南屯區","MARKTYPE":"993","Class":"303"},"geometry":{"x":120.63081395151917,"y":24.117747266620057}},{"attributes":{"OBJECTID":14655,"LANDMARKID":"1001900000390","LANDMARKCO":"303","LANDMARKNA":"文昌停車場","LANDMARKAD":"1001907","ADDRESS":" ","TEL":" ","COUNTYNAME":"台中市","TOWNNAME":"南屯區","MARKTYPE":"993","Class":"303"},"geometry":{"x":120.63610368627549,"y":24.13840530535731}},{"attributes":{"OBJECTID":14656,"LANDMARKID":"1001900000391","LANDMARKCO":"303","LANDMARKNA":"南屯停車場","LANDMARKAD":"1001907","ADDRESS":"南屯停車場","TEL":" ","COUNTYNAME":"台中市","TOWNNAME":"南屯區","MARKTYPE":"993","Class":"303"},"geometry":{"x":120.64024918525894,"y":24.14179628614048}},{"attributes":{"OBJECTID":14657,"LANDMARKID":"1001900000392","LANDMARKCO":"303","LANDMARKNA":"台中戶外圓形劇場自行車停車場","LANDMARKAD":"1001907","ADDRESS":"台中市南屯區惠文路","TEL":" ","COUNTYNAME":"台中市","TOWNNAME":"南屯區","MARKTYPE":"993","Class":"303"},"geometry":{"x":120.6436074509202,"y":24.144642635957606}},{"attributes":{"OBJECTID":14658,"LANDMARKID":"1001900000393","LANDMARKCO":"303","LANDMARKNA":"台中戶外圓形劇場小客車停車場","LANDMARKAD":"1001907","ADDRESS":"台中市南屯區惠文路","TEL":" ","COUNTYNAME":"台中市","TOWNNAME":"南屯區","MARKTYPE":"993","Class":"303"},"geometry":{"x":120.64372328793553,"y":24.145342716091601}},{"attributes":{"OBJECTID":14659,"LANDMARKID":"1001900000394","LANDMARKCO":"303","LANDMARKNA":"豐功停車場","LANDMARKAD":"1001907","ADDRESS":" ","TEL":" ","COUNTYNAME":"台中市","TOWNNAME":"南屯區","MARKTYPE":"993","Class":"303"},"geometry":{"x":120.64428405854599,"y":24.134035211595485}},{"attributes":{"OBJECTID":14660,"LANDMARKID":"1001900000395","LANDMARKCO":"303","LANDMARKNA":"豐偉停車場","LANDMARKAD":"1001907","ADDRESS":"台中市南屯區向心南路","TEL":" ","COUNTYNAME":"台中市","TOWNNAME":"南屯區","MARKTYPE":"993","Class":"303"},"geometry":{"x":120.64412105495829,"y":24.130173602703461}},{"attributes":{"OBJECTID":14661,"LANDMARKID":"1001900000396","LANDMARKCO":"303","LANDMARKNA":"大墩停車場","LANDMARKAD":"1001907","ADDRESS":" ","TEL":" ","COUNTYNAME":"台中市","TOWNNAME":"南屯區","MARKTYPE":"993","Class":"303"},"geometry":{"x":120.64831667407235,"y":24.155816722422955}},{"attributes":{"OBJECTID":14662,"LANDMARKID":"1001900000397","LANDMARKCO":"303","LANDMARKNA":"公益路停車場","LANDMARKAD":"1001907","ADDRESS":" ","TEL":" ","COUNTYNAME":"台中市","TOWNNAME":"南屯區","MARKTYPE":"993","Class":"303"},"geometry":{"x":120.64850079931955,"y":24.150489964082301}},{"attributes":{"OBJECTID":14663,"LANDMARKID":"1001900000398","LANDMARKCO":"303","LANDMARKNA":"正心停車場","LANDMARKAD":"1001907","ADDRESS":"台中市南屯區文心南二路4號","TEL":" ","COUNTYNAME":"台中市","TOWNNAME":"南屯區","MARKTYPE":"993","Class":"303"},"geometry":{"x":120.64893357093614,"y":24.136073180481652}},{"attributes":{"OBJECTID":14664,"LANDMARKID":"1001900000399","LANDMARKCO":"303","LANDMARKNA":"南苑停車場","LANDMARKAD":"1001907","ADDRESS":" ","TEL":" ","COUNTYNAME":"台中市","TOWNNAME":"南屯區","MARKTYPE":"993","Class":"303"},"geometry":{"x":120.64912182314657,"y":24.131353468921301}},{"attributes":{"OBJECTID":14665,"LANDMARKID":"1001900000400","LANDMARKCO":"303","LANDMARKNA":"喜佳美商務飯店停車場","LANDMARKAD":"1001907","ADDRESS":"台中市西區大墩路329號","TEL":"04-24736969","COUNTYNAME":"台中市","TOWNNAME":"南屯區","MARKTYPE":"993","Class":"303"},"geometry":{"x":120.64976203077823,"y":24.144781272773596}},{"attributes":{"OBJECTID":14666,"LANDMARKID":"1001900000401","LANDMARKCO":"303","LANDMARKNA":"大進停車場","LANDMARKAD":"1001907","ADDRESS":" ","TEL":" ","COUNTYNAME":"台中市","TOWNNAME":"南屯區","MARKTYPE":"993","Class":"303"},"geometry":{"x":120.65021380410916,"y":24.141921609993862}},{"attributes":{"OBJECTID":14667,"LANDMARKID":"1001900000402","LANDMARKCO":"303","LANDMARKNA":"大新停車場","LANDMARKAD":"1001907","ADDRESS":" ","TEL":" ","COUNTYNAME":"台中市","TOWNNAME":"南屯區","MARKTYPE":"993","Class":"303"},"geometry":{"x":120.65243423256656,"y":24.148974956737273}},{"attributes":{"OBJECTID":14668,"LANDMARKID":"1001900000403","LANDMARKCO":"303","LANDMARKNA":"東興公園停車場","LANDMARKAD":"1001907","ADDRESS":"台中市西區","TEL":" ","COUNTYNAME":"台中市","TOWNNAME":"南屯區","MARKTYPE":"993","Class":"303"},"geometry":{"x":120.65385330263781,"y":24.153774996194326}},{"attributes":{"OBJECTID":14669,"LANDMARKID":"1001900000404","LANDMARKCO":"303","LANDMARKNA":"潮港城停車場","LANDMARKAD":"1001907","ADDRESS":" ","TEL":" ","COUNTYNAME":"台中市","TOWNNAME":"南屯區","MARKTYPE":"993","Class":"303"},"geometry":{"x":120.64439451694743,"y":24.129474462902518}},{"attributes":{"OBJECTID":14670,"LANDMARKID":"1001900000405","LANDMARKCO":"303","LANDMARKNA":"文心拖吊停車場","LANDMARKAD":"1001907","ADDRESS":" ","TEL":" ","COUNTYNAME":"台中市","TOWNNAME":"南屯區","MARKTYPE":"993","Class":"303"},"geometry":{"x":120.64198570895856,"y":24.129423008436273}},{"attributes":{"OBJECTID":14671,"LANDMARKID":"1001900000681","LANDMARKCO":"402","LANDMARKNA":"中華電信-台中五權特約服務中心","LANDMARKAD":"1001907","ADDRESS":"台中市五權西路二段687-1號","TEL":"04-23809797","COUNTYNAME":"台中市","TOWNNAME":"南屯區","MARKTYPE":"994","Class":"4"},"geometry":{"x":120.6384825361887,"y":24.141935521251558}},{"attributes":{"OBJECTID":14672,"LANDMARKID":"1001900000682","LANDMARKCO":"402","LANDMARKNA":"中華電信-文心服務中心","LANDMARKAD":"1001907","ADDRESS":"台中市文心路一段351號","TEL":"(04) 2255-0677","COUNTYNAME":"台中市","TOWNNAME":"南屯區","MARKTYPE":"994","Class":"4"},"geometry":{"x":120.64633983777469,"y":24.147316093690222}},{"attributes":{"OBJECTID":14673,"LANDMARKID":"1001900000683","LANDMARKCO":"402","LANDMARKNA":"中華電信-台中東興特約服務中心","LANDMARKAD":"1001907","ADDRESS":"台中市東興路二段189號","TEL":"04-24711289","COUNTYNAME":"台中市","TOWNNAME":"南屯區","MARKTYPE":"994","Class":"4"},"geometry":{"x":120.6528047968052,"y":24.141304067898371}},{"attributes":{"OBJECTID":14674,"LANDMARKID":"1001900000684","LANDMARKCO":"402","LANDMARKNA":"中華電信-台中向心特約服務中心","LANDMARKAD":"1001907","ADDRESS":"台中市南屯區向心南路943號","TEL":"04-23816677","COUNTYNAME":"台中市","TOWNNAME":"南屯區","MARKTYPE":"994","Class":"4"},"geometry":{"x":120.64369282756913,"y":24.136448036338624}},{"attributes":{"OBJECTID":14675,"LANDMARKID":"1001900000685","LANDMARKCO":"402","LANDMARKNA":"中華電信-南屯服務中心","LANDMARKAD":"1001907","ADDRESS":"台中市黎明路一段975號","TEL":"123或0800-080-123","COUNTYNAME":"台中市","TOWNNAME":"南屯區","MARKTYPE":"994","Class":"4"},"geometry":{"x":120.63677352817763,"y":24.136871006663359}},{"attributes":{"OBJECTID":14676,"LANDMARKID":"1001900000686","LANDMARKCO":"402","LANDMARKNA":"遠傳電信-台中黎明門市","LANDMARKAD":"1001907","ADDRESS":"台中市南屯區黎明路一段1181號","TEL":" ","COUNTYNAME":"台中市","TOWNNAME":"南屯區","MARKTYPE":"994","Class":"4"},"geometry":{"x":120.63789648019559,"y":24.14152644082737}},{"attributes":{"OBJECTID":14677,"LANDMARKID":"1001900000687","LANDMARKCO":"402","LANDMARKNA":"威寶電信-台中黎明特約服務中心","LANDMARKAD":"1001907","ADDRESS":"台中市南屯區黎明路二段147號","TEL":"04-37042999","COUNTYNAME":"台中市","TOWNNAME":"南屯區","MARKTYPE":"994","Class":"4"},"geometry":{"x":120.63647191488361,"y":24.145655073597947}},{"attributes":{"OBJECTID":14678,"LANDMARKID":"1001900000688","LANDMARKCO":"402","LANDMARKNA":"威寶電信-台中南屯特約服務中心","LANDMARKAD":"1001907","ADDRESS":"台中市南屯區南屯路二段165號","TEL":"04-24731534","COUNTYNAME":"台中市","TOWNNAME":"南屯區","MARKTYPE":"994","Class":"4"},"geometry":{"x":120.6511058138087,"y":24.13611081685109}},{"attributes":{"OBJECTID":14679,"LANDMARKID":"1001900001196","LANDMARKCO":"603","LANDMARKNA":"湖水岸汽車旅館","LANDMARKAD":"1001907","ADDRESS":"台中市南屯區大墩十一街357號","TEL":"04-22582666","COUNTYNAME":"台中市","TOWNNAME":"南屯區","MARKTYPE":"996","Class":"6"},"geometry":{"x":120.64414859569152,"y":24.148540394967355}},{"attributes":{"OBJECTID":14680,"LANDMARKID":"1001900001197","LANDMARKCO":"603","LANDMARKNA":"緣橋汽車旅館","LANDMARKAD":"1001907","ADDRESS":"台中市南屯區大墩十一街433號","TEL":"04-22521868","COUNTYNAME":"台中市","TOWNNAME":"南屯區","MARKTYPE":"996","Class":"6"},"geometry":{"x":120.64153251717394,"y":24.148290905846149}},{"attributes":{"OBJECTID":14681,"LANDMARKID":"1001900001198","LANDMARKCO":"603","LANDMARKNA":"金四季汽車旅館","LANDMARKAD":"1001907","ADDRESS":"台中市南屯區大墩十四街339號","TEL":"04-22555168","COUNTYNAME":"台中市","TOWNNAME":"南屯區","MARKTYPE":"996","Class":"6"},"geometry":{"x":120.64574006721389,"y":24.152189140230206}},{"attributes":{"OBJECTID":14682,"LANDMARKID":"1001900001199","LANDMARKCO":"603","LANDMARKNA":"和風汽車旅館","LANDMARKAD":"1001907","ADDRESS":"台中市南屯區大墩四街380號","TEL":"04-23806688","COUNTYNAME":"台中市","TOWNNAME":"南屯區","MARKTYPE":"996","Class":"6"},"geometry":{"x":120.64463693685285,"y":24.141475276601682}},{"attributes":{"OBJECTID":14683,"LANDMARKID":"1001900001200","LANDMARKCO":"603","LANDMARKNA":"蒂娜汽車旅館","LANDMARKAD":"1001907","ADDRESS":"台中市南屯區大墩南路427號","TEL":"04-24733938","COUNTYNAME":"台中市","TOWNNAME":"南屯區","MARKTYPE":"996","Class":"6"},"geometry":{"x":120.64976649573691,"y":24.134521909224283}},{"attributes":{"OBJECTID":14684,"LANDMARKID":"1001900001201","LANDMARKCO":"603","LANDMARKNA":"喜佳美商務飯店","LANDMARKAD":"1001907","ADDRESS":"台中市南屯區大墩路329號","TEL":"04-24736969","COUNTYNAME":"台中市","TOWNNAME":"南屯區","MARKTYPE":"996","Class":"6"},"geometry":{"x":120.6496523218519,"y":24.144778667071094}},{"attributes":{"OBJECTID":14685,"LANDMARKID":"1001900001202","LANDMARKCO":"603","LANDMARKNA":"柯旅天閣飯店","LANDMARKAD":"1001907","ADDRESS":"台中市南屯區大墩路525號","TEL":"04-23290055","COUNTYNAME":"台中市","TOWNNAME":"南屯區","MARKTYPE":"996","Class":"6"},"geometry":{"x":120.64959931611756,"y":24.148670056491742}},{"attributes":{"OBJECTID":14686,"LANDMARKID":"1001900001203","LANDMARKCO":"603","LANDMARKNA":"竹林雅緻商務汽車旅館","LANDMARKAD":"1001907","ADDRESS":"台中市南屯區大觀路19巷20號","TEL":"04-23802399","COUNTYNAME":"台中市","TOWNNAME":"南屯區","MARKTYPE":"996","Class":"6"},"geometry":{"x":120.64159250195233,"y":24.144968406385466}},{"attributes":{"OBJECTID":14687,"LANDMARKID":"1001900001204","LANDMARKCO":"603","LANDMARKNA":"亞曼尼汽車旅館","LANDMARKAD":"1001907","ADDRESS":"台中市南屯區五權西路2段258號","TEL":"04-36016677","COUNTYNAME":"台中市","TOWNNAME":"南屯區","MARKTYPE":"996","Class":"6"},"geometry":{"x":120.64830371783023,"y":24.140302969873435}},{"attributes":{"OBJECTID":14688,"LANDMARKID":"1001900001205","LANDMARKCO":"603","LANDMARKNA":"米奇汽車旅館","LANDMARKAD":"1001907","ADDRESS":"台中市南屯區五權西路2段855號","TEL":"04-23869966","COUNTYNAME":"台中市","TOWNNAME":"南屯區","MARKTYPE":"996","Class":"6"},"geometry":{"x":120.63478543099006,"y":24.143215763783548}},{"attributes":{"OBJECTID":14689,"LANDMARKID":"1001900001206","LANDMARKCO":"603","LANDMARKNA":"儷京汽車旅館","LANDMARKAD":"1001907","ADDRESS":"台中市南屯區公益路2段411號","TEL":"04-22553166","COUNTYNAME":"台中市","TOWNNAME":"南屯區","MARKTYPE":"996","Class":"6"},"geometry":{"x":120.64090628617994,"y":24.150807130136656}},{"attributes":{"OBJECTID":14690,"LANDMARKID":"1001900001207","LANDMARKCO":"603","LANDMARKNA":"箱根汽車旅館","LANDMARKAD":"1001907","ADDRESS":"台中市南屯區文心南路272號","TEL":"04-24736767","COUNTYNAME":"台中市","TOWNNAME":"南屯區","MARKTYPE":"996","Class":"6"},"geometry":{"x":120.64671678248656,"y":24.129882271953541}},{"attributes":{"OBJECTID":14691,"LANDMARKID":"1001900001208","LANDMARKCO":"603","LANDMARKNA":"悅豪汽車旅館","LANDMARKAD":"1001907","ADDRESS":"台中市南屯區惠中路3段83號","TEL":"04-22583366","COUNTYNAME":"台中市","TOWNNAME":"南屯區","MARKTYPE":"996","Class":"6"},"geometry":{"x":120.64089802031562,"y":24.147375959467045}},{"attributes":{"OBJECTID":14692,"LANDMARKID":"1001900001209","LANDMARKCO":"603","LANDMARKNA":"蘭夏精品旅館","LANDMARKAD":"1001907","ADDRESS":"台中市南屯區大墩十一街333號","TEL":"04-22548181","COUNTYNAME":"台中市","TOWNNAME":"南屯區","MARKTYPE":"996","Class":"6"},"geometry":{"x":120.64507381641259,"y":24.148493060731088}},{"attributes":{"OBJECTID":14693,"LANDMARKID":"1001900001025","LANDMARKCO":"511","LANDMARKNA":"湖水岸藝術社區","LANDMARKAD":"1001907","ADDRESS":"台中市南屯區文心南五路、向心南路口","TEL":" ","COUNTYNAME":"台中市","TOWNNAME":"南屯區","MARKTYPE":"995","Class":"5"},"geometry":{"x":120.64420572497346,"y":24.131627240341494}},{"attributes":{"OBJECTID":14694,"LANDMARKID":"1001900001026","LANDMARKCO":"511","LANDMARKNA":"台中市花卉市場","LANDMARKAD":"1001907","ADDRESS":"台中市南屯區向上路惠文路交叉口","TEL":" ","COUNTYNAME":"台中市","TOWNNAME":"南屯區","MARKTYPE":"995","Class":"5"},"geometry":{"x":120.6434756999448,"y":24.147116508783949}},{"attributes":{"OBJECTID":14695,"LANDMARKID":"1001900001023","LANDMARKCO":"510","LANDMARKNA":"嶺東高爾夫球場","LANDMARKAD":"1001907","ADDRESS":"台中市南屯區文山里文山南巷290號","TEL":"04-23818669","COUNTYNAME":"台中市","TOWNNAME":"南屯區","MARKTYPE":"995","Class":"5"},"geometry":{"x":120.60684132648397,"y":24.149878042996651}},{"attributes":{"OBJECTID":14696,"LANDMARKID":"1001900001024","LANDMARKCO":"510","LANDMARKNA":"高仕成功嶺高爾夫俱樂部","LANDMARKAD":"1001907","ADDRESS":"台中市南屯區忠勇路17號","TEL":"04-23810080","COUNTYNAME":"台中市","TOWNNAME":"南屯區","MARKTYPE":"995","Class":"5"},"geometry":{"x":120.60761721246624,"y":24.127787712265096}},{"attributes":{"OBJECTID":14697,"LANDMARKID":"1001900000773","LANDMARKCO":"405","LANDMARKNA":"中油加油站-振興路站","LANDMARKAD":"1001902","ADDRESS":"台中市東區樂業里建成路556號","TEL":"04-22134096","COUNTYNAME":"台中市","TOWNNAME":"東區","MARKTYPE":"994","Class":"4"},"geometry":{"x":120.69373715619419,"y":24.1333622686067}},{"attributes":{"OBJECTID":14698,"LANDMARKID":"1001900000774","LANDMARKCO":"405","LANDMARKNA":"中油加油站-中連站","LANDMARKAD":"1001902","ADDRESS":"台中市東區建成路745號","TEL":"04-22801348","COUNTYNAME":"台中市","TOWNNAME":"東區","MARKTYPE":"994","Class":"4"},"geometry":{"x":120.68743479812896,"y":24.13032977043984}},{"attributes":{"OBJECTID":14699,"LANDMARKID":"1001900000775","LANDMARKCO":"405","LANDMARKNA":"中油加油站-大智站","LANDMARKAD":"1001902","ADDRESS":"台中市東區大智路85號","TEL":"04-22812563","COUNTYNAME":"台中市","TOWNNAME":"東區","MARKTYPE":"994","Class":"4"},"geometry":{"x":120.68924341835231,"y":24.133987777217499}},{"attributes":{"OBJECTID":14700,"LANDMARKID":"1001900000776","LANDMARKCO":"405","LANDMARKNA":"中油加油站-自由站","LANDMARKAD":"1001902","ADDRESS":"台中市東區自由路四段170號","TEL":"04-22122780","COUNTYNAME":"台中市","TOWNNAME":"東區","MARKTYPE":"994","Class":"4"},"geometry":{"x":120.70141879730744,"y":24.142614837906748}},{"attributes":{"OBJECTID":14701,"LANDMARKID":"1001900000777","LANDMARKCO":"405","LANDMARKNA":"中油加油站-旱溪站","LANDMARKAD":"1001902","ADDRESS":"台中市東區旱溪街217號","TEL":"04-22139348","COUNTYNAME":"台中市","TOWNNAME":"東區","MARKTYPE":"994","Class":"4"},"geometry":{"x":120.70209154866059,"y":24.140378151693781}},{"attributes":{"OBJECTID":14702,"LANDMARKID":"1001900000778","LANDMARKCO":"405","LANDMARKNA":"中油加油站-東虹站","LANDMARKAD":"1001902","ADDRESS":"台中市東區建成路495號","TEL":"04-22124320","COUNTYNAME":"台中市","TOWNNAME":"東區","MARKTYPE":"994","Class":"4"},"geometry":{"x":120.69637701581274,"y":24.135020911063243}},{"attributes":{"OBJECTID":14703,"LANDMARKID":"1001900000779","LANDMARKCO":"405","LANDMARKNA":"統一速邁樂加油站-智成加油站(中油)","LANDMARKAD":"1001902","ADDRESS":"台中市大智路210號","TEL":" ","COUNTYNAME":"台中市","TOWNNAME":"東區","MARKTYPE":"994","Class":"4"},"geometry":{"x":120.69804708521234,"y":24.130193096444103}},{"attributes":{"OBJECTID":14704,"LANDMARKID":"1001900000689","LANDMARKCO":"402","LANDMARKNA":"亞太行動寬頻電信-台中德安加盟服務中心","LANDMARKAD":"1001902","ADDRESS":"台中市東區復興路四段150號","TEL":"04-22290520","COUNTYNAME":"台中市","TOWNNAME":"東區","MARKTYPE":"994","Class":"4"},"geometry":{"x":120.68673526001218,"y":24.135834642387433}},{"attributes":{"OBJECTID":14705,"LANDMARKID":"1001900000539","LANDMARKCO":"401","LANDMARKNA":"臺安醫院-進化總院","LANDMARKAD":"1001902","ADDRESS":"台中市東區進化路203號","TEL":"04-23602000","COUNTYNAME":"台中市","TOWNNAME":"東區","MARKTYPE":"994","Class":"4"},"geometry":{"x":120.69407531627465,"y":24.148990720573668}},{"attributes":{"OBJECTID":14706,"LANDMARKID":"1001900000540","LANDMARKCO":"401","LANDMARKNA":"中國醫藥大學附設醫院台中東區分院","LANDMARKAD":"1001902","ADDRESS":"台中市東區自由路三段296號","TEL":"04-22121058","COUNTYNAME":"台中市","TOWNNAME":"東區","MARKTYPE":"994","Class":"4"},"geometry":{"x":120.69480115546493,"y":24.142559159458862}},{"attributes":{"OBJECTID":14707,"LANDMARKID":"1001900000541","LANDMARKCO":"401","LANDMARKNA":"錦河醫院","LANDMARKAD":"1001902","ADDRESS":"台中市自由路三段314巷2號","TEL":"04-22115466","COUNTYNAME":"台中市","TOWNNAME":"東區","MARKTYPE":"994","Class":"4"},"geometry":{"x":120.69520526100501,"y":24.142416337380375}},{"attributes":{"OBJECTID":14708,"LANDMARKID":"1001900000542","LANDMARKCO":"401","LANDMARKNA":"台新醫院","LANDMARKAD":"1001902","ADDRESS":"台中市東信里振興路439之3號","TEL":"04-22139966","COUNTYNAME":"台中市","TOWNNAME":"東區","MARKTYPE":"994","Class":"4"},"geometry":{"x":120.70540248393985,"y":24.130448970731919}},{"attributes":{"OBJECTID":14709,"LANDMARKID":"1001900001012","LANDMARKCO":"507","LANDMARKNA":"台中樂成宮","LANDMARKAD":"1001902","ADDRESS":"台中市東區旱溪里旱溪街48號","TEL":" ","COUNTYNAME":"台中市","TOWNNAME":"東區","MARKTYPE":"995","Class":"5"},"geometry":{"x":120.69803099098371,"y":24.140615889061454}},{"attributes":{"OBJECTID":14710,"LANDMARKID":"1001900001224","LANDMARKCO":"605","LANDMARKNA":"台中國軍英雄館","LANDMARKAD":"1001902","ADDRESS":"台中市東區南京路127號","TEL":"04-22223783","COUNTYNAME":"台中市","TOWNNAME":"東區","MARKTYPE":"996","Class":"6"},"geometry":{"x":120.68840902767168,"y":24.139849776118016}},{"attributes":{"OBJECTID":14711,"LANDMARKID":"1001900000944","LANDMARKCO":"408","LANDMARKNA":"郵局-台中力行路郵局","LANDMARKAD":"1001902","ADDRESS":"台中市力行路52巷5號","TEL":"(04)2360-3614","COUNTYNAME":"台中市","TOWNNAME":"東區","MARKTYPE":"994","Class":"4"},"geometry":{"x":120.69570402771383,"y":24.151384482460667}},{"attributes":{"OBJECTID":14712,"LANDMARKID":"1001900000945","LANDMARKCO":"408","LANDMARKNA":"郵局-台中旱溪郵局","LANDMARKAD":"1001902","ADDRESS":"台中市建成路356號","TEL":"(04)2211-1864","COUNTYNAME":"台中市","TOWNNAME":"東區","MARKTYPE":"994","Class":"4"},"geometry":{"x":120.69634125634752,"y":24.138700826299399}},{"attributes":{"OBJECTID":14713,"LANDMARKID":"1001900000946","LANDMARKCO":"408","LANDMARKNA":"郵局-台中大智郵局","LANDMARKAD":"1001902","ADDRESS":"台中市建成路676號","TEL":"(04)2282-5118","COUNTYNAME":"台中市","TOWNNAME":"東區","MARKTYPE":"994","Class":"4"},"geometry":{"x":120.68972973885303,"y":24.131714810880169}},{"attributes":{"OBJECTID":14714,"LANDMARKID":"1001900000947","LANDMARKCO":"408","LANDMARKNA":"郵局-台中進化路郵局","LANDMARKAD":"1001902","ADDRESS":"台中市進化路184號","TEL":"(04)2212-6621","COUNTYNAME":"台中市","TOWNNAME":"東區","MARKTYPE":"994","Class":"4"},"geometry":{"x":120.69463007183296,"y":24.146820390758982}},{"attributes":{"OBJECTID":14715,"LANDMARKID":"1001900000695","LANDMARKCO":"404","LANDMARKNA":"台灣自來水總處","LANDMARKAD":"1001902","ADDRESS":"台中市雙十路二段2-1號","TEL":"04-22244191","COUNTYNAME":"台中市","TOWNNAME":"東區","MARKTYPE":"994","Class":"4"},"geometry":{"x":120.68709420341941,"y":24.144854954608537}},{"attributes":{"OBJECTID":14716,"LANDMARKID":"1001900000696","LANDMARKCO":"404","LANDMARKNA":"台灣自來水第四區管理處","LANDMARKAD":"1001902","ADDRESS":"台中市北區雙十路二段2號","TEL":"04-22218341~8","COUNTYNAME":"台中市","TOWNNAME":"東區","MARKTYPE":"994","Class":"4"},"geometry":{"x":120.68709420146247,"y":24.144854950089872}},{"attributes":{"OBJECTID":14717,"LANDMARKID":"1001900000697","LANDMARKCO":"404","LANDMARKNA":"台灣自來水臺中服務所","LANDMARKAD":"1001902","ADDRESS":"臺中市北區雙十路二段2號","TEL":"04-22215169","COUNTYNAME":"台中市","TOWNNAME":"東區","MARKTYPE":"994","Class":"4"},"geometry":{"x":120.68709420146247,"y":24.144854950089872}},{"attributes":{"OBJECTID":14718,"LANDMARKID":"1001900000835","LANDMARKCO":"406","LANDMARKNA":"東峰公園","LANDMARKAD":"1001902","ADDRESS":"台中市南區","TEL":" ","COUNTYNAME":"台中市","TOWNNAME":"東區","MARKTYPE":"994","Class":"4"},"geometry":{"x":120.68721185589702,"y":24.124557557228989}},{"attributes":{"OBJECTID":14719,"LANDMARKID":"1001900000836","LANDMARKCO":"406","LANDMARKNA":"祖聖公園","LANDMARKAD":"1001902","ADDRESS":"台中市東區","TEL":" ","COUNTYNAME":"台中市","TOWNNAME":"東區","MARKTYPE":"994","Class":"4"},"geometry":{"x":120.69621153897914,"y":24.1413220530481}},{"attributes":{"OBJECTID":14720,"LANDMARKID":"1001900000837","LANDMARKCO":"406","LANDMARKNA":"樂豐公園","LANDMARKAD":"1001902","ADDRESS":"台中市東區","TEL":" ","COUNTYNAME":"台中市","TOWNNAME":"東區","MARKTYPE":"994","Class":"4"},"geometry":{"x":120.70473107313414,"y":24.14188465157125}},{"attributes":{"OBJECTID":14721,"LANDMARKID":"1001900000838","LANDMARKCO":"406","LANDMARKNA":"旱平公園","LANDMARKAD":"1001902","ADDRESS":"台中市東區","TEL":" ","COUNTYNAME":"台中市","TOWNNAME":"東區","MARKTYPE":"994","Class":"4"},"geometry":{"x":120.70878657466594,"y":24.141436441552539}},{"attributes":{"OBJECTID":14722,"LANDMARKID":"1001900000839","LANDMARKCO":"406","LANDMARKNA":"進業公園","LANDMARKAD":"1001902","ADDRESS":"台中市東區","TEL":" ","COUNTYNAME":"台中市","TOWNNAME":"東區","MARKTYPE":"994","Class":"4"},"geometry":{"x":120.70921793930495,"y":24.14638714643571}},{"attributes":{"OBJECTID":14723,"LANDMARKID":"1001900000840","LANDMARKCO":"406","LANDMARKNA":"長福公園","LANDMARKAD":"1001902","ADDRESS":"台中市東區","TEL":" ","COUNTYNAME":"台中市","TOWNNAME":"東區","MARKTYPE":"994","Class":"4"},"geometry":{"x":120.70223430677473,"y":24.144141469763035}},{"attributes":{"OBJECTID":14724,"LANDMARKID":"1001900000841","LANDMARKCO":"406","LANDMARKNA":"樂明公園","LANDMARKAD":"1001902","ADDRESS":"台中市東區","TEL":" ","COUNTYNAME":"台中市","TOWNNAME":"東區","MARKTYPE":"994","Class":"4"},"geometry":{"x":120.70203878732225,"y":24.141272781318623}},{"attributes":{"OBJECTID":14725,"LANDMARKID":"1001900000842","LANDMARKCO":"406","LANDMARKNA":"樂利公園","LANDMARKAD":"1001902","ADDRESS":"台中市東區","TEL":" ","COUNTYNAME":"台中市","TOWNNAME":"東區","MARKTYPE":"994","Class":"4"},"geometry":{"x":120.70765025559825,"y":24.138675497454297}},{"attributes":{"OBJECTID":14726,"LANDMARKID":"1001900000843","LANDMARKCO":"406","LANDMARKNA":"樂成公園","LANDMARKAD":"1001902","ADDRESS":"台中市東區","TEL":" ","COUNTYNAME":"台中市","TOWNNAME":"東區","MARKTYPE":"994","Class":"4"},"geometry":{"x":120.70308789082502,"y":24.137357782557896}},{"attributes":{"OBJECTID":14727,"LANDMARKID":"1001900000694","LANDMARKCO":"404","LANDMARKNA":"台灣省自來水太平服務所","LANDMARKAD":"1001902","ADDRESS":"台中市東區東光園路344號","TEL":" ","COUNTYNAME":"台中市","TOWNNAME":"東區","MARKTYPE":"994","Class":"4"},"geometry":{"x":120.69781526006781,"y":24.133504086401917}},{"attributes":{"OBJECTID":14728,"LANDMARKID":"1001900000924","LANDMARKCO":"407","LANDMARKNA":"德安購物中心","LANDMARKAD":"1001902","ADDRESS":"台中市復興路四段186號","TEL":" ","COUNTYNAME":"台中市","TOWNNAME":"東區","MARKTYPE":"994","Class":"4"},"geometry":{"x":120.68767192082009,"y":24.135482922195816}},{"attributes":{"OBJECTID":14729,"LANDMARKID":"1001900000780","LANDMARKCO":"405","LANDMARKNA":"全國加油站-樂業路站（台塑）","LANDMARKAD":"1001902","ADDRESS":"台中市東區樂業路406號","TEL":"04-22113490","COUNTYNAME":"台中市","TOWNNAME":"東區","MARKTYPE":"994","Class":"4"},"geometry":{"x":120.70554309295467,"y":24.137149530850866}},{"attributes":{"OBJECTID":14730,"LANDMARKID":"1001900000781","LANDMARKCO":"405","LANDMARKNA":"台亞加油站-精武站（台塑）","LANDMARKAD":"1001902","ADDRESS":"台中市東區精武東路42號","TEL":"(04)2213-2612","COUNTYNAME":"台中市","TOWNNAME":"東區","MARKTYPE":"994","Class":"4"},"geometry":{"x":120.70614173357217,"y":24.148297340092107}},{"attributes":{"OBJECTID":14731,"LANDMARKID":"1001900000073","LANDMARKCO":"107","LANDMARKNA":"台中市警察局合作派出所","LANDMARKAD":"1001902","ADDRESS":"台中市力行路202號","TEL":"04-23604922","COUNTYNAME":"台中市","TOWNNAME":"東區","MARKTYPE":"991","Class":"1"},"geometry":{"x":120.69376342211478,"y":24.151815714282279}},{"attributes":{"OBJECTID":14732,"LANDMARKID":"1001900000028","LANDMARKCO":"101","LANDMARKNA":"林務局南投林區管理處台中工作站","LANDMARKAD":"1001902","ADDRESS":"台中市台中路289號","TEL":"04-22814029","COUNTYNAME":"台中市","TOWNNAME":"東區","MARKTYPE":"991","Class":"1"},"geometry":{"x":120.68476581558136,"y":24.125972268341517}},{"attributes":{"OBJECTID":14733,"LANDMARKID":"1001900000029","LANDMARKCO":"101","LANDMARKNA":"內政部營建署中區工程處","LANDMARKAD":"1001902","ADDRESS":"台中市和平街121號","TEL":"04-22188188","COUNTYNAME":"台中市","TOWNNAME":"東區","MARKTYPE":"991","Class":"1"},"geometry":{"x":120.687227172268,"y":24.134943627246393}},{"attributes":{"OBJECTID":14734,"LANDMARKID":"1001900000129","LANDMARKCO":"108","LANDMARKNA":"台中市東區公所","LANDMARKAD":"1001902","ADDRESS":"台中市長福路245號","TEL":"04-22151988","COUNTYNAME":"台中市","TOWNNAME":"東區","MARKTYPE":"991","Class":"1"},"geometry":{"x":120.70380098569566,"y":24.136519980261006}},{"attributes":{"OBJECTID":14735,"LANDMARKID":"1001900000074","LANDMARKCO":"107","LANDMARKNA":"台中市警察局東區分駐所","LANDMARKAD":"1001902","ADDRESS":"台中市進化路16號","TEL":"04-22124179","COUNTYNAME":"台中市","TOWNNAME":"東區","MARKTYPE":"991","Class":"1"},"geometry":{"x":120.69445779560941,"y":24.141309856033956}},{"attributes":{"OBJECTID":14736,"LANDMARKID":"1001900000075","LANDMARKCO":"107","LANDMARKNA":"台中市警察局立德派出所","LANDMARKAD":"1001902","ADDRESS":"台中市台中路99號","TEL":"04-22222842","COUNTYNAME":"台中市","TOWNNAME":"東區","MARKTYPE":"991","Class":"1"},"geometry":{"x":120.68368944262329,"y":24.13339315697608}},{"attributes":{"OBJECTID":14737,"LANDMARKID":"1001900000071","LANDMARKCO":"106","LANDMARKNA":"台中市東區戶政事務所","LANDMARKAD":"1001902","ADDRESS":"台中市和平街61號","TEL":"04-22200209","COUNTYNAME":"台中市","TOWNNAME":"東區","MARKTYPE":"991","Class":"1"},"geometry":{"x":120.68479103653424,"y":24.133901597453487}},{"attributes":{"OBJECTID":14738,"LANDMARKID":"1001900000030","LANDMARKCO":"101","LANDMARKNA":"國軍退除役官兵輔導委員會","LANDMARKAD":"1001902","ADDRESS":"台中市建德街181號","TEL":"04-22824983","COUNTYNAME":"台中市","TOWNNAME":"東區","MARKTYPE":"991","Class":"1"},"geometry":{"x":120.69126700923852,"y":24.129920036806951}},{"attributes":{"OBJECTID":14739,"LANDMARKID":"1001900000031","LANDMARKCO":"101","LANDMARKNA":"台中憲兵隊","LANDMARKAD":"1001902","ADDRESS":"台中市南京路121號","TEL":"04-22223290","COUNTYNAME":"台中市","TOWNNAME":"東區","MARKTYPE":"991","Class":"1"},"geometry":{"x":120.68903562470952,"y":24.139856151664862}},{"attributes":{"OBJECTID":14740,"LANDMARKID":"1001900000036","LANDMARKCO":"103","LANDMARKNA":"台中市東區衛生所","LANDMARKAD":"1001902","ADDRESS":"台中市信義街142號","TEL":"04-22834121","COUNTYNAME":"台中市","TOWNNAME":"東區","MARKTYPE":"991","Class":"1"},"geometry":{"x":120.68780124879717,"y":24.133379334777153}},{"attributes":{"OBJECTID":14741,"LANDMARKID":"1001900000281","LANDMARKCO":"205","LANDMARKNA":"台灣漆文化博物館","LANDMARKAD":"1001902","ADDRESS":"台中市東區建智街12號","TEL":"04-22813106","COUNTYNAME":"台中市","TOWNNAME":"東區","MARKTYPE":"992","Class":"2"},"geometry":{"x":120.68922221860301,"y":24.126891592962558}},{"attributes":{"OBJECTID":14742,"LANDMARKID":"1001900000279","LANDMARKCO":"204","LANDMARKNA":"台中市立圖書館東區分館","LANDMARKAD":"1001902","ADDRESS":"台中市東區建德街144號","TEL":" ","COUNTYNAME":"台中市","TOWNNAME":"東區","MARKTYPE":"992","Class":"2"},"geometry":{"x":120.68960242081278,"y":24.129416070699666}},{"attributes":{"OBJECTID":14743,"LANDMARKID":"1001900000181","LANDMARKCO":"203","LANDMARKNA":"市立大智國小","LANDMARKAD":"1001902","ADDRESS":"台中市大智路359號","TEL":"04-22825683","COUNTYNAME":"台中市","TOWNNAME":"東區","MARKTYPE":"992","Class":"2"},"geometry":{"x":120.69096700487977,"y":24.128785292834106}},{"attributes":{"OBJECTID":14744,"LANDMARKID":"1001900000182","LANDMARKCO":"203","LANDMARKNA":"市立進德國小","LANDMARKAD":"1001902","ADDRESS":"台中市進化路135號","TEL":"04-22126834","COUNTYNAME":"台中市","TOWNNAME":"東區","MARKTYPE":"992","Class":"2"},"geometry":{"x":120.69342693603791,"y":24.145313250098518}},{"attributes":{"OBJECTID":14745,"LANDMARKID":"1001900000173","LANDMARKCO":"202","LANDMARKNA":"國立台中高農","LANDMARKAD":"1001902","ADDRESS":"台中市台中路283號","TEL":"04-22810010","COUNTYNAME":"台中市","TOWNNAME":"東區","MARKTYPE":"992","Class":"2"},"geometry":{"x":120.68564697788365,"y":24.12659800723878}},{"attributes":{"OBJECTID":14746,"LANDMARKID":"1001900000174","LANDMARKCO":"202","LANDMARKNA":"國立台中家商","LANDMARKAD":"1001902","ADDRESS":"台中市和平街50號","TEL":"04-22223307","COUNTYNAME":"台中市","TOWNNAME":"東區","MARKTYPE":"992","Class":"2"},"geometry":{"x":120.6846117594536,"y":24.133518463181176}},{"attributes":{"OBJECTID":14747,"LANDMARKID":"1001900000175","LANDMARKCO":"203","LANDMARKNA":"市立東峰國中","LANDMARKAD":"1001902","ADDRESS":"台中市仁和路330號","TEL":"04-22825133","COUNTYNAME":"台中市","TOWNNAME":"東區","MARKTYPE":"992","Class":"2"},"geometry":{"x":120.68586036440584,"y":24.125307051305885}},{"attributes":{"OBJECTID":14748,"LANDMARKID":"1001900000176","LANDMARKCO":"203","LANDMARKNA":"市立育英國中","LANDMARKAD":"1001902","ADDRESS":"台中市育英路30號","TEL":"04-22115313","COUNTYNAME":"台中市","TOWNNAME":"東區","MARKTYPE":"992","Class":"2"},"geometry":{"x":120.69939700830346,"y":24.136231378957191}},{"attributes":{"OBJECTID":14749,"LANDMARKID":"1001900000177","LANDMARKCO":"203","LANDMARKNA":"市立台中國小","LANDMARKAD":"1001902","ADDRESS":"台中市台中路153號","TEL":"04-22815103","COUNTYNAME":"台中市","TOWNNAME":"東區","MARKTYPE":"992","Class":"2"},"geometry":{"x":120.68471653831908,"y":24.131524817427426}},{"attributes":{"OBJECTID":14750,"LANDMARKID":"1001900000178","LANDMARKCO":"203","LANDMARKNA":"市立成功國小","LANDMARKAD":"1001902","ADDRESS":"台中市育英路60號","TEL":"04-22124224","COUNTYNAME":"台中市","TOWNNAME":"東區","MARKTYPE":"992","Class":"2"},"geometry":{"x":120.6983593015139,"y":24.137290359398865}},{"attributes":{"OBJECTID":14751,"LANDMARKID":"1001900000179","LANDMARKCO":"203","LANDMARKNA":"市立力行國小","LANDMARKAD":"1001902","ADDRESS":"台中市進化路223號","TEL":"04-23604412","COUNTYNAME":"台中市","TOWNNAME":"東區","MARKTYPE":"992","Class":"2"},"geometry":{"x":120.69393430974708,"y":24.150704868247932}},{"attributes":{"OBJECTID":14752,"LANDMARKID":"1001900000180","LANDMARKCO":"203","LANDMARKNA":"市立樂業國小","LANDMARKAD":"1001902","ADDRESS":"台中市樂業路60號","TEL":"04-22121293","COUNTYNAME":"台中市","TOWNNAME":"東區","MARKTYPE":"992","Class":"2"},"geometry":{"x":120.69439026377471,"y":24.138096709656754}},{"attributes":{"OBJECTID":14753,"LANDMARKID":"1001900000130","LANDMARKCO":"201","LANDMARKNA":"私立喜信聖經學院","LANDMARKAD":"1001902","ADDRESS":"台中市南區","TEL":" ","COUNTYNAME":"台中市","TOWNNAME":"東區","MARKTYPE":"992","Class":"2"},"geometry":{"x":120.68564304136044,"y":24.129045861256717}},{"attributes":{"OBJECTID":14754,"LANDMARKID":"1001900000384","LANDMARKCO":"303","LANDMARKNA":"東都大飯店","LANDMARKAD":"1001902","ADDRESS":"台中市立德街55號","TEL":"04-22222024","COUNTYNAME":"台中市","TOWNNAME":"東區","MARKTYPE":"993","Class":"303"},"geometry":{"x":120.68674213632943,"y":24.134098387939407}},{"attributes":{"OBJECTID":14755,"LANDMARKID":"1001900000308","LANDMARKCO":"302","LANDMARKNA":"彰化汽車客運股份有限公司台中站","LANDMARKAD":"1001902","ADDRESS":"台中市復興路四段179號","TEL":" ","COUNTYNAME":"台中市","TOWNNAME":"東區","MARKTYPE":"993","Class":"302"},"geometry":{"x":120.68667287592119,"y":24.136301182519457}},{"attributes":{"OBJECTID":14756,"LANDMARKID":"1001900000366","LANDMARKCO":"303","LANDMARKNA":"國立台中高農教學實習旅館停車場","LANDMARKAD":"1001902","ADDRESS":"台中市東區台中路287號","TEL":"04-22807236","COUNTYNAME":"台中市","TOWNNAME":"東區","MARKTYPE":"993","Class":"303"},"geometry":{"x":120.68450833859748,"y":24.127023419731714}},{"attributes":{"OBJECTID":14757,"LANDMARKID":"1001900000367","LANDMARKCO":"303","LANDMARKNA":"東峰停車場","LANDMARKAD":"1001902","ADDRESS":"台中市東區七中路","TEL":" ","COUNTYNAME":"台中市","TOWNNAME":"東區","MARKTYPE":"993","Class":"303"},"geometry":{"x":120.68513795832411,"y":24.124452207226739}},{"attributes":{"OBJECTID":14758,"LANDMARKID":"1001900000368","LANDMARKCO":"303","LANDMARKNA":"南華大飯店停車場","LANDMARKAD":"1001902","ADDRESS":"台中市東區復興路四段133號","TEL":"04-22231061","COUNTYNAME":"台中市","TOWNNAME":"東區","MARKTYPE":"993","Class":"303"},"geometry":{"x":120.68574100125339,"y":24.135788066593779}},{"attributes":{"OBJECTID":14759,"LANDMARKID":"1001900000369","LANDMARKCO":"303","LANDMARKNA":"公有建國市場地下停車場","LANDMARKAD":"1001902","ADDRESS":"台中市東區建國路、八德街交叉口","TEL":"04-22238504","COUNTYNAME":"台中市","TOWNNAME":"東區","MARKTYPE":"993","Class":"303"},"geometry":{"x":120.68627785859464,"y":24.139067323186882}},{"attributes":{"OBJECTID":14760,"LANDMARKID":"1001900000370","LANDMARKCO":"303","LANDMARKNA":"新羽飯店停車場","LANDMARKAD":"1001902","ADDRESS":"台中市和平街、立德街交叉口","TEL":"04-22250550","COUNTYNAME":"台中市","TOWNNAME":"東區","MARKTYPE":"993","Class":"303"},"geometry":{"x":120.68661535748707,"y":24.13413234443922}},{"attributes":{"OBJECTID":14761,"LANDMARKID":"1001900000371","LANDMARKCO":"303","LANDMARKNA":"企業家大飯店","LANDMARKAD":"1001902","ADDRESS":"台中市東區和平街160號","TEL":"04-22209970","COUNTYNAME":"台中市","TOWNNAME":"東區","MARKTYPE":"993","Class":"303"},"geometry":{"x":120.68716132725004,"y":24.134632776889088}},{"attributes":{"OBJECTID":14762,"LANDMARKID":"1001900000372","LANDMARKCO":"303","LANDMARKNA":"德安購物中心停車場","LANDMARKAD":"1001902","ADDRESS":"台中市東區大智路上接近復興路四段","TEL":" ","COUNTYNAME":"台中市","TOWNNAME":"東區","MARKTYPE":"993","Class":"303"},"geometry":{"x":120.68821488915107,"y":24.135576955423879}},{"attributes":{"OBJECTID":14763,"LANDMARKID":"1001900000373","LANDMARKCO":"303","LANDMARKNA":"干城跳蚤市場停車場","LANDMARKAD":"1001902","ADDRESS":"台中市東區自由路三段","TEL":" ","COUNTYNAME":"台中市","TOWNNAME":"東區","MARKTYPE":"993","Class":"303"},"geometry":{"x":120.69014813988674,"y":24.142339757499968}},{"attributes":{"OBJECTID":14764,"LANDMARKID":"1001900000374","LANDMARKCO":"303","LANDMARKNA":"忠孝停車場","LANDMARKAD":"1001902","ADDRESS":"台中市東區忠孝路上","TEL":" ","COUNTYNAME":"台中市","TOWNNAME":"東區","MARKTYPE":"993","Class":"303"},"geometry":{"x":120.69033329635492,"y":24.133302510680934}},{"attributes":{"OBJECTID":14765,"LANDMARKID":"1001900000375","LANDMARKCO":"303","LANDMARKNA":"千城立體停車場","LANDMARKAD":"1001902","ADDRESS":"台中市東區自由路三段","TEL":" ","COUNTYNAME":"台中市","TOWNNAME":"東區","MARKTYPE":"993","Class":"303"},"geometry":{"x":120.6879096742023,"y":24.142750022592665}},{"attributes":{"OBJECTID":14766,"LANDMARKID":"1001900000376","LANDMARKCO":"303","LANDMARKNA":"一心停車場","LANDMARKAD":"1001902","ADDRESS":"台中市樂業路","TEL":" ","COUNTYNAME":"台中市","TOWNNAME":"東區","MARKTYPE":"993","Class":"303"},"geometry":{"x":120.70193748323035,"y":24.139066119348286}},{"attributes":{"OBJECTID":14767,"LANDMARKID":"1001900000377","LANDMARKCO":"303","LANDMARKNA":"信心停車場","LANDMARKAD":"1001902","ADDRESS":"台中市東區一心街、東英路交叉口","TEL":" ","COUNTYNAME":"台中市","TOWNNAME":"東區","MARKTYPE":"993","Class":"303"},"geometry":{"x":120.70324252355347,"y":24.134185907380786}},{"attributes":{"OBJECTID":14768,"LANDMARKID":"1001900000378","LANDMARKCO":"303","LANDMARKNA":"東英停車場","LANDMARKAD":"1001902","ADDRESS":"台中市東區東英八街、一心街交叉口","TEL":" ","COUNTYNAME":"台中市","TOWNNAME":"東區","MARKTYPE":"993","Class":"303"},"geometry":{"x":120.70204615435664,"y":24.142065717085728}},{"attributes":{"OBJECTID":14769,"LANDMARKID":"1001900000379","LANDMARKCO":"303","LANDMARKNA":"十甲停車場","LANDMARKAD":"1001902","ADDRESS":"台中市東區十甲街","TEL":" ","COUNTYNAME":"台中市","TOWNNAME":"東區","MARKTYPE":"993","Class":"303"},"geometry":{"x":120.70411541746043,"y":24.141672975910378}},{"attributes":{"OBJECTID":14770,"LANDMARKID":"1001900000380","LANDMARKCO":"303","LANDMARKNA":"台中客運停車場","LANDMARKAD":"1001902","ADDRESS":"台中市東區立德街","TEL":" ","COUNTYNAME":"台中市","TOWNNAME":"東區","MARKTYPE":"993","Class":"303"},"geometry":{"x":120.68711101596425,"y":24.133580012861316}},{"attributes":{"OBJECTID":14771,"LANDMARKID":"1001900000381","LANDMARKCO":"303","LANDMARKNA":"干城立體停車場","LANDMARKAD":"1001902","ADDRESS":"台中市東區自由路50號","TEL":" ","COUNTYNAME":"台中市","TOWNNAME":"東區","MARKTYPE":"993","Class":"303"},"geometry":{"x":120.68778436624704,"y":24.142773746424474}},{"attributes":{"OBJECTID":14772,"LANDMARKID":"1001900000382","LANDMARKCO":"303","LANDMARKNA":"南京立體停車場","LANDMARKAD":"1001902","ADDRESS":"台中市東區南京路72號","TEL":" ","COUNTYNAME":"台中市","TOWNNAME":"東區","MARKTYPE":"993","Class":"303"},"geometry":{"x":120.69055992777214,"y":24.140177907298913}},{"attributes":{"OBJECTID":14773,"LANDMARKID":"1001900000383","LANDMARKCO":"303","LANDMARKNA":"應安停車場-台鐵場","LANDMARKAD":"1001902","ADDRESS":"台中市東區新民街109號","TEL":"04-23268016","COUNTYNAME":"台中市","TOWNNAME":"東區","MARKTYPE":"993","Class":"303"},"geometry":{"x":120.6861364212525,"y":24.137987125326855}},{"attributes":{"OBJECTID":14774,"LANDMARKID":"1001900000690","LANDMARKCO":"402","LANDMARKNA":"中華電信-台中復興特約服務中心","LANDMARKAD":"1001902","ADDRESS":"台中市復興路四段116號","TEL":"04-22203838","COUNTYNAME":"台中市","TOWNNAME":"東區","MARKTYPE":"994","Class":"4"},"geometry":{"x":120.68608709855195,"y":24.135584929737}},{"attributes":{"OBJECTID":14775,"LANDMARKID":"1001900000691","LANDMARKCO":"402","LANDMARKNA":"威寶電信-台中復興二特約服務中心","LANDMARKAD":"1001902","ADDRESS":"台中市東區復興路4段22號","TEL":"04-22202965","COUNTYNAME":"台中市","TOWNNAME":"東區","MARKTYPE":"994","Class":"4"},"geometry":{"x":120.68359312683394,"y":24.134527227023192}},{"attributes":{"OBJECTID":14776,"LANDMARKID":"1001900001210","LANDMARKCO":"603","LANDMARKNA":"東都大飯店","LANDMARKAD":"1001902","ADDRESS":"台中市立德街55號","TEL":"04-22222024","COUNTYNAME":"台中市","TOWNNAME":"東區","MARKTYPE":"996","Class":"6"},"geometry":{"x":120.68681218224398,"y":24.134182619063079}},{"attributes":{"OBJECTID":14777,"LANDMARKID":"1001900001211","LANDMARKCO":"603","LANDMARKNA":"永都大飯店","LANDMARKAD":"1001902","ADDRESS":"台中市復興路4段149巷5弄8號","TEL":"04-22228350","COUNTYNAME":"台中市","TOWNNAME":"東區","MARKTYPE":"996","Class":"6"},"geometry":{"x":120.68586850666416,"y":24.136313310285928}},{"attributes":{"OBJECTID":14778,"LANDMARKID":"1001900001212","LANDMARKCO":"603","LANDMARKNA":"龍城大旅社","LANDMARKAD":"1001902","ADDRESS":"台中市立德街13號","TEL":"04-22223569","COUNTYNAME":"台中市","TOWNNAME":"東區","MARKTYPE":"996","Class":"6"},"geometry":{"x":120.68624599198931,"y":24.135281878138166}},{"attributes":{"OBJECTID":14779,"LANDMARKID":"1001900001213","LANDMARKCO":"603","LANDMARKNA":"國際旅社","LANDMARKAD":"1001902","ADDRESS":"台中市立德街31號","TEL":"04-22206712","COUNTYNAME":"台中市","TOWNNAME":"東區","MARKTYPE":"996","Class":"6"},"geometry":{"x":120.68646421176277,"y":24.134921599312293}},{"attributes":{"OBJECTID":14780,"LANDMARKID":"1001900001214","LANDMARKCO":"603","LANDMARKNA":"瑞君大飯店","LANDMARKAD":"1001902","ADDRESS":"台中市復興路4段100號11-12樓","TEL":"04-22235838","COUNTYNAME":"台中市","TOWNNAME":"東區","MARKTYPE":"996","Class":"6"},"geometry":{"x":120.68555702398685,"y":24.135329925310106}},{"attributes":{"OBJECTID":14781,"LANDMARKID":"1001900001215","LANDMARKCO":"603","LANDMARKNA":"南華大飯店","LANDMARKAD":"1001902","ADDRESS":"台中市復興路4段133號","TEL":"04-22231061","COUNTYNAME":"台中市","TOWNNAME":"東區","MARKTYPE":"996","Class":"6"},"geometry":{"x":120.68580022025093,"y":24.135899777404898}},{"attributes":{"OBJECTID":14782,"LANDMARKID":"1001900001216","LANDMARKCO":"603","LANDMARKNA":"雙星大飯店","LANDMARKAD":"1001902","ADDRESS":"台中市復興路4段158號","TEL":"04-22261811","COUNTYNAME":"台中市","TOWNNAME":"東區","MARKTYPE":"996","Class":"6"},"geometry":{"x":120.68715746378747,"y":24.136016997523733}},{"attributes":{"OBJECTID":14783,"LANDMARKID":"1001900001217","LANDMARKCO":"603","LANDMARKNA":"裕大利汽車旅館","LANDMARKAD":"1001902","ADDRESS":"台中市進化路177號","TEL":"04-22125078","COUNTYNAME":"台中市","TOWNNAME":"東區","MARKTYPE":"996","Class":"6"},"geometry":{"x":120.69415124494144,"y":24.147510278730877}},{"attributes":{"OBJECTID":14784,"LANDMARKID":"1001900001218","LANDMARKCO":"603","LANDMARKNA":"萬年旅社","LANDMARKAD":"1001902","ADDRESS":"台中市立德街58號","TEL":"04-22244169","COUNTYNAME":"台中市","TOWNNAME":"東區","MARKTYPE":"996","Class":"6"},"geometry":{"x":120.68636767145874,"y":24.13454196879038}},{"attributes":{"OBJECTID":14785,"LANDMARKID":"1001900001219","LANDMARKCO":"603","LANDMARKNA":"怡達汽車旅館","LANDMARKAD":"1001902","ADDRESS":"台中市旱溪東路1段429號","TEL":"04-22111355","COUNTYNAME":"台中市","TOWNNAME":"東區","MARKTYPE":"996","Class":"6"},"geometry":{"x":120.70176058729029,"y":24.140571211727597}},{"attributes":{"OBJECTID":14786,"LANDMARKID":"1001900001220","LANDMARKCO":"603","LANDMARKNA":"富苑汽車旅館","LANDMARKAD":"1001902","ADDRESS":"台中市旱溪街396號","TEL":"04-22136699","COUNTYNAME":"台中市","TOWNNAME":"東區","MARKTYPE":"996","Class":"6"},"geometry":{"x":120.70689795727095,"y":24.140327473365868}},{"attributes":{"OBJECTID":14787,"LANDMARKID":"1001900001221","LANDMARKCO":"603","LANDMARKNA":"新羽旅館","LANDMARKAD":"1001902","ADDRESS":"台中市和平街142號","TEL":"04-22250550","COUNTYNAME":"台中市","TOWNNAME":"東區","MARKTYPE":"996","Class":"6"},"geometry":{"x":120.68649689844142,"y":24.134271618856641}},{"attributes":{"OBJECTID":14788,"LANDMARKID":"1001900001222","LANDMARKCO":"603","LANDMARKNA":"企業家大飯店","LANDMARKAD":"1001902","ADDRESS":"台中市和平街160號1至4樓","TEL":"04-22207733","COUNTYNAME":"台中市","TOWNNAME":"東區","MARKTYPE":"996","Class":"6"},"geometry":{"x":120.68717424358799,"y":24.134590425097958}},{"attributes":{"OBJECTID":14789,"LANDMARKID":"1001900001223","LANDMARKCO":"603","LANDMARKNA":"一福旅社","LANDMARKAD":"1001902","ADDRESS":"台中市和平街95號","TEL":"04-22222819","COUNTYNAME":"台中市","TOWNNAME":"東區","MARKTYPE":"996","Class":"6"},"geometry":{"x":120.68601425013884,"y":24.134383723097859}},{"attributes":{"OBJECTID":14790,"LANDMARKID":"1001900001003","LANDMARKCO":"505","LANDMARKNA":"迪諾歡樂世界","LANDMARKAD":"1001902","ADDRESS":"台中市東區復興路四段186號8樓","TEL":"04-22219456","COUNTYNAME":"台中市","TOWNNAME":"東區","MARKTYPE":"995","Class":"5"},"geometry":{"x":120.68754533320545,"y":24.136057241788759}},{"attributes":{"OBJECTID":14791,"LANDMARKID":"1001900000782","LANDMARKCO":"405","LANDMARKNA":"中油加油站-建成站","LANDMARKAD":"1001903","ADDRESS":"台中市南區建成路1611號","TEL":"04-22877416","COUNTYNAME":"台中市","TOWNNAME":"南區","MARKTYPE":"994","Class":"4"},"geometry":{"x":120.6753519343095,"y":24.12621480438893}},{"attributes":{"OBJECTID":14792,"LANDMARKID":"1001900000783","LANDMARKCO":"405","LANDMARKNA":"中油加油站-北基復興站","LANDMARKAD":"1001903","ADDRESS":"台中市南區復興路三段291號","TEL":"04-22295596","COUNTYNAME":"台中市","TOWNNAME":"南區","MARKTYPE":"994","Class":"4"},"geometry":{"x":120.67678992620027,"y":24.132043686064218}},{"attributes":{"OBJECTID":14793,"LANDMARKID":"1001900000784","LANDMARKCO":"405","LANDMARKNA":"中油加油站-三民路站(中油直營)","LANDMARKAD":"1001903","ADDRESS":"台中市南區福平里三民路一段1號","TEL":"04-22613854","COUNTYNAME":"台中市","TOWNNAME":"南區","MARKTYPE":"994","Class":"4"},"geometry":{"x":120.66675068661402,"y":24.127959371624357}},{"attributes":{"OBJECTID":14794,"LANDMARKID":"1001900000785","LANDMARKCO":"405","LANDMARKNA":"中油加油站-復興路站(中油直營)","LANDMARKAD":"1001903","ADDRESS":"台中市南區復興路三段73號","TEL":"04-22617800","COUNTYNAME":"台中市","TOWNNAME":"南區","MARKTYPE":"994","Class":"4"},"geometry":{"x":120.66911539752311,"y":24.128789380982766}},{"attributes":{"OBJECTID":14795,"LANDMARKID":"1001900000786","LANDMARKCO":"405","LANDMARKNA":"中油加油站-正豪站","LANDMARKAD":"1001903","ADDRESS":"台中市南區復興路一段385號","TEL":"04-22632300","COUNTYNAME":"台中市","TOWNNAME":"南區","MARKTYPE":"994","Class":"4"},"geometry":{"x":120.65538990880319,"y":24.115416970042428}},{"attributes":{"OBJECTID":14796,"LANDMARKID":"1001900000787","LANDMARKCO":"405","LANDMARKNA":"中油加油站-永和街站(中油直營)","LANDMARKAD":"1001903","ADDRESS":"台中市南區和平里美村南路77號","TEL":"04-22611600","COUNTYNAME":"台中市","TOWNNAME":"南區","MARKTYPE":"994","Class":"4"},"geometry":{"x":120.66656215513869,"y":24.119340910790878}},{"attributes":{"OBJECTID":14797,"LANDMARKID":"1001900000788","LANDMARKCO":"405","LANDMARKNA":"中油加油站-總興站","LANDMARKAD":"1001903","ADDRESS":"台中市南區工學北路2號","TEL":"04-22625727","COUNTYNAME":"台中市","TOWNNAME":"南區","MARKTYPE":"994","Class":"4"},"geometry":{"x":120.66198941658587,"y":24.120428001958054}},{"attributes":{"OBJECTID":14798,"LANDMARKID":"1001900000668","LANDMARKCO":"402","LANDMARKNA":"My Phone台灣大哥大-台中美村南直營服務中心","LANDMARKAD":"1001903","ADDRESS":"台中市南區美村南路62號","TEL":"0809-000-166","COUNTYNAME":"台中市","TOWNNAME":"南區","MARKTYPE":"994","Class":"4"},"geometry":{"x":120.66698052438061,"y":24.117516871728355}},{"attributes":{"OBJECTID":14799,"LANDMARKID":"1001900000669","LANDMARKCO":"402","LANDMARKNA":"亞太行動寬頻電信-台中國光加盟服務中心","LANDMARKAD":"1001903","ADDRESS":"台中市南區長榮里國光路88號","TEL":"04-22298386","COUNTYNAME":"台中市","TOWNNAME":"南區","MARKTYPE":"994","Class":"4"},"geometry":{"x":120.67718234953962,"y":24.130427667008234}},{"attributes":{"OBJECTID":14800,"LANDMARKID":"1001900000670","LANDMARKCO":"402","LANDMARKNA":"亞太行動寬頻電信-台中五權南加盟服務中心","LANDMARKAD":"1001903","ADDRESS":"台中市南區五權南路632號","TEL":"04-22629981","COUNTYNAME":"台中市","TOWNNAME":"南區","MARKTYPE":"994","Class":"4"},"geometry":{"x":120.67027462227713,"y":24.114509324771603}}]}