{"displayFieldName":"COUNTYNAME","fieldAliases":{"OBJECTID":"OBJECTID","LANDMARKID":"LANDMARKID","LANDMARKCO":"LANDMARKCO","LANDMARKNA":"LANDMARKNA","LANDMARKAD":"LANDMARKAD","ADDRESS":"ADDRESS","TEL":"TEL","COUNTYNAME":"COUNTYNAME","TOWNNAME":"TOWNNAME","MARKTYPE":"MARKTYPE","Class":"Class"},"geometryType":"esriGeometryPoint","spatialReference":{"wkid":102443},"fields":[{"name":"OBJECTID","type":"esriFieldTypeOID","alias":"OBJECTID"},{"name":"LANDMARKID","type":"esriFieldTypeString","alias":"LANDMARKID","length":15},{"name":"LANDMARKCO","type":"esriFieldTypeString","alias":"LANDMARKCO","length":15},{"name":"LANDMARKNA","type":"esriFieldTypeString","alias":"LANDMARKNA","length":50},{"name":"LANDMARKAD","type":"esriFieldTypeString","alias":"LANDMARKAD","length":15},{"name":"ADDRESS","type":"esriFieldTypeString","alias":"ADDRESS","length":56},{"name":"TEL","type":"esriFieldTypeString","alias":"TEL","length":36},{"name":"COUNTYNAME","type":"esriFieldTypeString","alias":"COUNTYNAME","length":15},{"name":"TOWNNAME","type":"esriFieldTypeString","alias":"TOWNNAME","length":13},{"name":"MARKTYPE","type":"esriFieldTypeString","alias":"MARKTYPE","length":12},{"name":"Class","type":"esriFieldTypeString","alias":"Class","length":5}],"features":[{"attributes":{"OBJECTID":18001,"LANDMARKID":"1000500000520","LANDMARKCO":"308","LANDMARKNA":"國3-大山交流道-北上","LANDMARKAD":"1000506","ADDRESS":"苗栗縣後龍鎮","TEL":" ","COUNTYNAME":"苗栗縣","TOWNNAME":"後龍鎮","MARKTYPE":"993","Class":"308"},"geometry":{"x":231665.33779999986,"y":2725605.4119000006}},{"attributes":{"OBJECTID":18002,"LANDMARKID":"1000500000521","LANDMARKCO":"308","LANDMARKNA":"國3-大山交流道-南下","LANDMARKAD":"1000506","ADDRESS":"苗栗縣後龍鎮","TEL":" ","COUNTYNAME":"苗栗縣","TOWNNAME":"後龍鎮","MARKTYPE":"993","Class":"308"},"geometry":{"x":231484.5203999998,"y":2725451.0062000006}},{"attributes":{"OBJECTID":18003,"LANDMARKID":"1000500000457","LANDMARKCO":"303","LANDMARKNA":"後龍鎮停一立體停車場","LANDMARKAD":"1000506","ADDRESS":"苗栗縣後龍鎮東門街","TEL":" ","COUNTYNAME":"苗栗縣","TOWNNAME":"後龍鎮","MARKTYPE":"993","Class":"303"},"geometry":{"x":228749.86809999961,"y":2723254.5616999995}},{"attributes":{"OBJECTID":18004,"LANDMARKID":"1000500000423","LANDMARKCO":"301","LANDMARKNA":"龍港火車站","LANDMARKAD":"1000506","ADDRESS":"苗栗縣後龍鎮龍京里7鄰公司寮85號","TEL":" ","COUNTYNAME":"苗栗縣","TOWNNAME":"後龍鎮","MARKTYPE":"993","Class":"301"},"geometry":{"x":225498.08640000038,"y":2722824.2857000008}},{"attributes":{"OBJECTID":18005,"LANDMARKID":"1000500000424","LANDMARKCO":"301","LANDMARKNA":"後龍火車站","LANDMARKAD":"1000506","ADDRESS":"苗栗縣後龍鎮北龍里車站街127號","TEL":"037-728616","COUNTYNAME":"苗栗縣","TOWNNAME":"後龍鎮","MARKTYPE":"993","Class":"301"},"geometry":{"x":228445.01049999986,"y":2723251.9959999993}},{"attributes":{"OBJECTID":18006,"LANDMARKID":"1000500000425","LANDMARKCO":"301","LANDMARKNA":"大山火車站","LANDMARKAD":"1000506","ADDRESS":"苗栗縣後龍鎮大山里明山路180號","TEL":" ","COUNTYNAME":"苗栗縣","TOWNNAME":"後龍鎮","MARKTYPE":"993","Class":"301"},"geometry":{"x":230125.66339999996,"y":2726555.8094999995}},{"attributes":{"OBJECTID":18007,"LANDMARKID":"1000500000426","LANDMARKCO":"301","LANDMARKNA":"豐富火車站","LANDMARKAD":"1000506","ADDRESS":"苗栗縣後龍鎮新港路116號","TEL":" ","COUNTYNAME":"苗栗縣","TOWNNAME":"後龍鎮","MARKTYPE":"993","Class":"301"},"geometry":{"x":232158.65490000043,"y":2721607.6671999991}},{"attributes":{"OBJECTID":18008,"LANDMARKID":"1000500000584","LANDMARKCO":"402","LANDMARKNA":"中華電信-後龍服務中心","LANDMARKAD":"1000506","ADDRESS":"苗栗縣後龍鎮三民路110號","TEL":"(037)730-814","COUNTYNAME":"苗栗縣","TOWNNAME":"後龍鎮","MARKTYPE":"994","Class":"4"},"geometry":{"x":228392.94919999968,"y":2723059.841}},{"attributes":{"OBJECTID":18009,"LANDMARKID":"1000500000585","LANDMARKCO":"402","LANDMARKNA":"大眾電信(震旦通訊)-後龍站前店","LANDMARKAD":"1000506","ADDRESS":"苗栗縣後龍鎮三民路36號","TEL":"035-723386","COUNTYNAME":"苗栗縣","TOWNNAME":"後龍鎮","MARKTYPE":"994","Class":"4"},"geometry":{"x":228589.78619999997,"y":2723148.557}},{"attributes":{"OBJECTID":18010,"LANDMARKID":"1000500000886","LANDMARKCO":"604","LANDMARKNA":"瑪琪朵民宿","LANDMARKAD":"1000506","ADDRESS":"苗栗縣後龍鎮海埔里3鄰海埔17-7號","TEL":"037-660151","COUNTYNAME":"苗栗縣","TOWNNAME":"後龍鎮","MARKTYPE":"996","Class":"6"},"geometry":{"x":227388.43070000038,"y":2727032.2712999992}},{"attributes":{"OBJECTID":18011,"LANDMARKID":"1000500000865","LANDMARKCO":"603","LANDMARKNA":"金龍大旅社","LANDMARKAD":"1000506","ADDRESS":"苗栗縣後龍鎮中山路88-11號","TEL":"037-722315","COUNTYNAME":"苗栗縣","TOWNNAME":"後龍鎮","MARKTYPE":"996","Class":"6"},"geometry":{"x":228553.43609999958,"y":2723299.6291000005}},{"attributes":{"OBJECTID":18012,"LANDMARKID":"1000500000866","LANDMARKCO":"603","LANDMARKNA":"金金旅社","LANDMARKAD":"1000506","ADDRESS":"苗栗縣後龍鎮中正路18號","TEL":"037-722277","COUNTYNAME":"苗栗縣","TOWNNAME":"後龍鎮","MARKTYPE":"996","Class":"6"},"geometry":{"x":228471.85649999976,"y":2722846.7453000005}},{"attributes":{"OBJECTID":18013,"LANDMARKID":"1000500000867","LANDMARKCO":"603","LANDMARKNA":"梅芬大旅社","LANDMARKAD":"1000506","ADDRESS":"苗栗縣後龍鎮勝利街250-14號","TEL":"037-772119","COUNTYNAME":"苗栗縣","TOWNNAME":"後龍鎮","MARKTYPE":"996","Class":"6"},"geometry":{"x":228299.28959999979,"y":2723225.5299999993}},{"attributes":{"OBJECTID":18014,"LANDMARKID":"1000500000791","LANDMARKCO":"503","LANDMARKNA":"後龍濱海遊憩區","LANDMARKAD":"1000506","ADDRESS":"苗栗縣後龍鎮","TEL":" ","COUNTYNAME":"苗栗縣","TOWNNAME":"後龍鎮","MARKTYPE":"995","Class":"5"},"geometry":{"x":228771.94000000041,"y":2727495.9772999994}},{"attributes":{"OBJECTID":18015,"LANDMARKID":"1000500000665","LANDMARKCO":"405","LANDMARKNA":"中油加油站-和源站","LANDMARKAD":"1000512","ADDRESS":"苗栗縣頭屋鄉尖下里尖豐路141-11號","TEL":"03-7252503","COUNTYNAME":"苗栗縣","TOWNNAME":"頭屋鄉","MARKTYPE":"994","Class":"4"},"geometry":{"x":234712.6054999996,"y":2718624.1596000008}},{"attributes":{"OBJECTID":18016,"LANDMARKID":"1000500000666","LANDMARKCO":"405","LANDMARKNA":"中油加油站-頭屋站(中油直營)","LANDMARKAD":"1000512","ADDRESS":"苗栗縣頭屋鄉象山村198-3號","TEL":"03-7252723","COUNTYNAME":"苗栗縣","TOWNNAME":"頭屋鄉","MARKTYPE":"994","Class":"4"},"geometry":{"x":235473.91619999986,"y":2718991.2361999992}},{"attributes":{"OBJECTID":18017,"LANDMARKID":"1000500000749","LANDMARKCO":"408","LANDMARKNA":"郵局-頭屋郵局","LANDMARKAD":"1000512","ADDRESS":"苗栗縣頭屋鄉尖豐路17號","TEL":"(037)251-050","COUNTYNAME":"苗栗縣","TOWNNAME":"頭屋鄉","MARKTYPE":"994","Class":"4"},"geometry":{"x":235239.90930000041,"y":2718858.9748999998}},{"attributes":{"OBJECTID":18018,"LANDMARKID":"1000500000774","LANDMARKCO":"409","LANDMARKNA":"苗栗縣頭屋鄉農會","LANDMARKAD":"1000512","ADDRESS":"苗栗縣頭屋鄉頭屋棧3鄰中正街25號","TEL":"037-250211","COUNTYNAME":"苗栗縣","TOWNNAME":"頭屋鄉","MARKTYPE":"994","Class":"4"},"geometry":{"x":234825.09250000026,"y":2719010.8157000002}},{"attributes":{"OBJECTID":18019,"LANDMARKID":"1000500000080","LANDMARKCO":"106","LANDMARKNA":"苗栗縣頭屋鄉戶政事務所","LANDMARKAD":"1000512","ADDRESS":"苗栗縣頭屋鄉頭屋村6鄰中山街17之1號","TEL":"037-250437","COUNTYNAME":"苗栗縣","TOWNNAME":"頭屋鄉","MARKTYPE":"991","Class":"1"},"geometry":{"x":234856.75399999972,"y":2718940.0622000005}},{"attributes":{"OBJECTID":18020,"LANDMARKID":"1000500000140","LANDMARKCO":"107","LANDMARKNA":"苗栗縣警察局頭屋分駐所","LANDMARKAD":"1000512","ADDRESS":"苗栗縣頭屋鄉頭屋村中山街17號","TEL":"037-253103","COUNTYNAME":"苗栗縣","TOWNNAME":"頭屋鄉","MARKTYPE":"991","Class":"1"},"geometry":{"x":234864.77589999977,"y":2718920.0709000006}},{"attributes":{"OBJECTID":18021,"LANDMARKID":"1000500000141","LANDMARKCO":"107","LANDMARKNA":"苗栗縣消防局第一消防大隊部","LANDMARKAD":"1000512","ADDRESS":"苗栗縣頭屋鄉尖豐路141號之6","TEL":"037-250914","COUNTYNAME":"苗栗縣","TOWNNAME":"頭屋鄉","MARKTYPE":"991","Class":"1"},"geometry":{"x":235049.92839999963,"y":2718780.2705000006}},{"attributes":{"OBJECTID":18022,"LANDMARKID":"1000500000142","LANDMARKCO":"107","LANDMARKNA":"苗栗縣消防局頭屋消防分隊","LANDMARKAD":"1000512","ADDRESS":"苗栗縣頭屋鄉尖豐路141號之6","TEL":"037-250914","COUNTYNAME":"苗栗縣","TOWNNAME":"頭屋鄉","MARKTYPE":"991","Class":"1"},"geometry":{"x":235048.92839999963,"y":2718780.2694000006}},{"attributes":{"OBJECTID":18023,"LANDMARKID":"1000500000048","LANDMARKCO":"103","LANDMARKNA":"苗栗縣頭屋鄉衛生所","LANDMARKAD":"1000512","ADDRESS":"苗栗縣頭屋鄉頭屋村13鄰中山街54號","TEL":"037-253534","COUNTYNAME":"苗栗縣","TOWNNAME":"頭屋鄉","MARKTYPE":"991","Class":"1"},"geometry":{"x":234853.74309999961,"y":2718950.0589000005}},{"attributes":{"OBJECTID":18024,"LANDMARKID":"1000500000207","LANDMARKCO":"108","LANDMARKNA":"苗栗縣頭屋鄉公所","LANDMARKAD":"1000512","ADDRESS":"苗栗縣頭屋鄉頭屋村中正街48號","TEL":"037-250078","COUNTYNAME":"苗栗縣","TOWNNAME":"頭屋鄉","MARKTYPE":"991","Class":"1"},"geometry":{"x":234865.99029999971,"y":2719030.0719000008}},{"attributes":{"OBJECTID":18025,"LANDMARKID":"1000500000062","LANDMARKCO":"103","LANDMARKNA":"苗栗縣頭屋鄉鄉民代表會","LANDMARKAD":"1000512","ADDRESS":"苗栗縣頭屋鄉中正街27號","TEL":"037-250491","COUNTYNAME":"苗栗縣","TOWNNAME":"頭屋鄉","MARKTYPE":"991","Class":"1"},"geometry":{"x":234836.99029999971,"y":2719030.0404000003}},{"attributes":{"OBJECTID":18026,"LANDMARKID":"1000500000143","LANDMARKCO":"107","LANDMARKNA":"苗栗縣警察局明德派出所","LANDMARKAD":"1000512","ADDRESS":"苗栗縣頭屋鄉明德村103號","TEL":"037-252538","COUNTYNAME":"苗栗縣","TOWNNAME":"頭屋鄉","MARKTYPE":"991","Class":"1"},"geometry":{"x":238296.78639999963,"y":2719580.1035999991}},{"attributes":{"OBJECTID":18027,"LANDMARKID":"1000500000392","LANDMARKCO":"204","LANDMARKNA":"苗栗縣立圖書館頭屋分館","LANDMARKAD":"1000512","ADDRESS":"苗栗縣頭屋鄉頭屋村中正街27號","TEL":" ","COUNTYNAME":"苗栗縣","TOWNNAME":"頭屋鄉","MARKTYPE":"992","Class":"2"},"geometry":{"x":235022.81429999974,"y":2718948.2950999998}},{"attributes":{"OBJECTID":18028,"LANDMARKID":"1000500000422","LANDMARKCO":"207","LANDMARKNA":"象山藝術館","LANDMARKAD":"1000512","ADDRESS":"苗栗縣頭屋鄉象山村孔聖路39號","TEL":" ","COUNTYNAME":"苗栗縣","TOWNNAME":"頭屋鄉","MARKTYPE":"992","Class":"2"},"geometry":{"x":236570.38470000029,"y":2719212.2372999992}},{"attributes":{"OBJECTID":18029,"LANDMARKID":"1000500000389","LANDMARKCO":"203","LANDMARKNA":"縣立頭屋國中","LANDMARKAD":"1000512","ADDRESS":"苗栗縣頭屋鄉中正街86巷14號","TEL":"037-250738#66","COUNTYNAME":"苗栗縣","TOWNNAME":"頭屋鄉","MARKTYPE":"992","Class":"2"},"geometry":{"x":234766.85929999966,"y":2719150.2731999997}},{"attributes":{"OBJECTID":18030,"LANDMARKID":"1000500000390","LANDMARKCO":"203","LANDMARKNA":"縣立頭屋國小","LANDMARKAD":"1000512","ADDRESS":"苗栗縣頭屋鄉頭屋村中山街15號","TEL":"037-251071","COUNTYNAME":"苗栗縣","TOWNNAME":"頭屋鄉","MARKTYPE":"992","Class":"2"},"geometry":{"x":234895.86290000007,"y":2718840.1045999993}},{"attributes":{"OBJECTID":18031,"LANDMARKID":"1000500000391","LANDMARKCO":"203","LANDMARKNA":"縣立明德國小","LANDMARKAD":"1000512","ADDRESS":"苗栗縣頭屋鄉明德村明德路4巷13號","TEL":"037-252330","COUNTYNAME":"苗栗縣","TOWNNAME":"頭屋鄉","MARKTYPE":"992","Class":"2"},"geometry":{"x":238424.76169999968,"y":2719920.2101000007}},{"attributes":{"OBJECTID":18032,"LANDMARKID":"1000500000522","LANDMARKCO":"308","LANDMARKNA":"台72-頭屋一交流道-東行","LANDMARKAD":"1000512","ADDRESS":" ","TEL":" ","COUNTYNAME":"苗栗縣","TOWNNAME":"頭屋鄉","MARKTYPE":"993","Class":"308"},"geometry":{"x":234388.29140000045,"y":2718429.6853999998}},{"attributes":{"OBJECTID":18033,"LANDMARKID":"1000500000523","LANDMARKCO":"308","LANDMARKNA":"台72-頭屋一交流道-西行","LANDMARKAD":"1000512","ADDRESS":" ","TEL":" ","COUNTYNAME":"苗栗縣","TOWNNAME":"頭屋鄉","MARKTYPE":"993","Class":"308"},"geometry":{"x":234502.47360000014,"y":2718933.8480999991}},{"attributes":{"OBJECTID":18034,"LANDMARKID":"1000500000524","LANDMARKCO":"308","LANDMARKNA":"台72-頭屋二交流道-西行","LANDMARKAD":"1000512","ADDRESS":" ","TEL":" ","COUNTYNAME":"苗栗縣","TOWNNAME":"頭屋鄉","MARKTYPE":"993","Class":"308"},"geometry":{"x":234058.68599999975,"y":2717236.7992000002}},{"attributes":{"OBJECTID":18035,"LANDMARKID":"1000500000792","LANDMARKCO":"503","LANDMARKNA":"明德水庫遊艇碼頭","LANDMARKAD":"1000512","ADDRESS":"苗栗縣頭屋鄉明德村35號","TEL":"037-254506","COUNTYNAME":"苗栗縣","TOWNNAME":"頭屋鄉","MARKTYPE":"995","Class":"5"},"geometry":{"x":238510.01379999984,"y":2719805.9068999998}},{"attributes":{"OBJECTID":18036,"LANDMARKID":"1000500000793","LANDMARKCO":"503","LANDMARKNA":"明德水庫風景區","LANDMARKAD":"1000512","ADDRESS":"苗栗縣頭屋鄉","TEL":" ","COUNTYNAME":"苗栗縣","TOWNNAME":"頭屋鄉","MARKTYPE":"995","Class":"5"},"geometry":{"x":238447.8992999997,"y":2719787.3454}},{"attributes":{"OBJECTID":18037,"LANDMARKID":"1000500000703","LANDMARKCO":"405","LANDMARKNA":"中油加油站-南庄站(中油直營)","LANDMARKAD":"1000511","ADDRESS":"苗栗縣南庄鄉中正路197號","TEL":"037-822401","COUNTYNAME":"苗栗縣","TOWNNAME":"南庄鄉","MARKTYPE":"994","Class":"4"},"geometry":{"x":250135.38740000036,"y":2722055.9444999993}},{"attributes":{"OBJECTID":18038,"LANDMARKID":"1000500000704","LANDMARKCO":"405","LANDMARKNA":"中油加油站-長成站","LANDMARKAD":"1000511","ADDRESS":"苗栗縣南庄鄉員林村下員林68號之3","TEL":"03-7831906","COUNTYNAME":"苗栗縣","TOWNNAME":"南庄鄉","MARKTYPE":"994","Class":"4"},"geometry":{"x":245484.3984000003,"y":2726214.6638999991}},{"attributes":{"OBJECTID":18039,"LANDMARKID":"1000500000803","LANDMARKCO":"506","LANDMARKNA":"三角湖休閒農場","LANDMARKAD":"1000511","ADDRESS":"苗栗縣南庄鄉東河村5鄰65號","TEL":"037-821377","COUNTYNAME":"苗栗縣","TOWNNAME":"南庄鄉","MARKTYPE":"995","Class":"5"},"geometry":{"x":254906.97169999965,"y":2720416.4472000003}},{"attributes":{"OBJECTID":18040,"LANDMARKID":"1000500000833","LANDMARKCO":"512","LANDMARKNA":"南庄旅遊服務中心","LANDMARKAD":"1000511","ADDRESS":"苗栗縣南庄鄉東村中正路151號","TEL":"037-824570","COUNTYNAME":"苗栗縣","TOWNNAME":"南庄鄉","MARKTYPE":"995","Class":"5"},"geometry":{"x":246213.27180000022,"y":2725892.1948000006}},{"attributes":{"OBJECTID":18041,"LANDMARKID":"1000500000724","LANDMARKCO":"408","LANDMARKNA":"郵局-南庄郵局","LANDMARKAD":"1000511","ADDRESS":"苗栗縣南庄鄉中正路202號","TEL":"(037)822-067","COUNTYNAME":"苗栗縣","TOWNNAME":"南庄鄉","MARKTYPE":"994","Class":"4"},"geometry":{"x":250086.88289999962,"y":2721904.6539999992}},{"attributes":{"OBJECTID":18042,"LANDMARKID":"1000500000784","LANDMARKCO":"409","LANDMARKNA":"苗栗縣南庄鄉農會","LANDMARKAD":"1000511","ADDRESS":"苗栗縣南庄鄉東村中正路60號","TEL":"037-823155","COUNTYNAME":"苗栗縣","TOWNNAME":"南庄鄉","MARKTYPE":"994","Class":"4"},"geometry":{"x":249888.76339999959,"y":2721415.2904000003}},{"attributes":{"OBJECTID":18043,"LANDMARKID":"1000500000690","LANDMARKCO":"405","LANDMARKNA":"台塑加油站-獅頭站(台塑)","LANDMARKAD":"1000511","ADDRESS":"苗栗縣南庄鄉獅山村3鄰田美104-3號","TEL":"03-7823581","COUNTYNAME":"苗栗縣","TOWNNAME":"南庄鄉","MARKTYPE":"994","Class":"4"},"geometry":{"x":250728.25860000029,"y":2725631.3774999995}},{"attributes":{"OBJECTID":18044,"LANDMARKID":"1000500000095","LANDMARKCO":"107","LANDMARKNA":"苗栗縣警察局南庄分駐所","LANDMARKAD":"1000511","ADDRESS":"苗栗縣南庄鄉大同路27號","TEL":"037-822050","COUNTYNAME":"苗栗縣","TOWNNAME":"南庄鄉","MARKTYPE":"991","Class":"1"},"geometry":{"x":249952.99980000034,"y":2721240.0111999996}},{"attributes":{"OBJECTID":18045,"LANDMARKID":"1000500000096","LANDMARKCO":"107","LANDMARKNA":"苗栗縣消防局南庄消防分隊","LANDMARKAD":"1000511","ADDRESS":"苗栗縣南庄鄉大同路27號之1","TEL":"037-823035","COUNTYNAME":"苗栗縣","TOWNNAME":"南庄鄉","MARKTYPE":"991","Class":"1"},"geometry":{"x":249961.99980000034,"y":2721250.0111999996}},{"attributes":{"OBJECTID":18046,"LANDMARKID":"1000500000206","LANDMARKCO":"108","LANDMARKNA":"苗栗縣南庄鄉公所","LANDMARKAD":"1000511","ADDRESS":"苗栗縣南庄鄉大同路3號","TEL":"037-823115","COUNTYNAME":"苗栗縣","TOWNNAME":"南庄鄉","MARKTYPE":"991","Class":"1"},"geometry":{"x":250031.00059999991,"y":2721150.0085000005}},{"attributes":{"OBJECTID":18047,"LANDMARKID":"1000500000049","LANDMARKCO":"103","LANDMARKNA":"苗栗縣南庄鄉民代表會","LANDMARKAD":"1000511","ADDRESS":"苗栗縣南庄鄉大同路1號","TEL":"037-822076","COUNTYNAME":"苗栗縣","TOWNNAME":"南庄鄉","MARKTYPE":"991","Class":"1"},"geometry":{"x":250050.00100000016,"y":2721150.0084000006}},{"attributes":{"OBJECTID":18048,"LANDMARKID":"1000500000089","LANDMARKCO":"106","LANDMARKNA":"苗栗縣南庄鄉戶政事務所","LANDMARKAD":"1000511","ADDRESS":"苗栗縣南庄鄉東村4鄰大同路25號","TEL":"037-822140","COUNTYNAME":"苗栗縣","TOWNNAME":"南庄鄉","MARKTYPE":"991","Class":"1"},"geometry":{"x":250031.00069999974,"y":2721160.0085000005}},{"attributes":{"OBJECTID":18049,"LANDMARKID":"1000500000090","LANDMARKCO":"107","LANDMARKNA":"苗栗縣警察局蓬萊派出所","LANDMARKAD":"1000511","ADDRESS":"苗栗縣南庄鄉蓬萊村7鄰99號","TEL":"037-822040","COUNTYNAME":"苗栗縣","TOWNNAME":"南庄鄉","MARKTYPE":"991","Class":"1"},"geometry":{"x":247150.9879999999,"y":2715380.0609000009}},{"attributes":{"OBJECTID":18050,"LANDMARKID":"1000500000091","LANDMARKCO":"107","LANDMARKNA":"苗栗縣警察局東河派出所","LANDMARKAD":"1000511","ADDRESS":"苗栗縣南庄鄉東河村5鄰50號","TEL":"037-822094","COUNTYNAME":"苗栗縣","TOWNNAME":"南庄鄉","MARKTYPE":"991","Class":"1"},"geometry":{"x":254290.05080000032,"y":2721639.9868999999}},{"attributes":{"OBJECTID":18051,"LANDMARKID":"1000500000092","LANDMARKCO":"107","LANDMARKNA":"苗栗縣警察局田美派出所","LANDMARKAD":"1000511","ADDRESS":"苗栗縣南庄鄉獅山村106號","TEL":"037-822134","COUNTYNAME":"苗栗縣","TOWNNAME":"南庄鄉","MARKTYPE":"991","Class":"1"},"geometry":{"x":251297.01319999993,"y":2724999.9934999999}},{"attributes":{"OBJECTID":18052,"LANDMARKID":"1000500000093","LANDMARKCO":"107","LANDMARKNA":"苗栗縣警察局陸家派出所","LANDMARKAD":"1000511","ADDRESS":"苗栗縣南庄鄉東河村鹿場24鄰2號","TEL":"037-821570","COUNTYNAME":"苗栗縣","TOWNNAME":"南庄鄉","MARKTYPE":"991","Class":"1"},"geometry":{"x":253111.05659999978,"y":2714960.0051000006}},{"attributes":{"OBJECTID":18053,"LANDMARKID":"1000500000094","LANDMARKCO":"107","LANDMARKNA":"苗栗縣警察局南埔派出所","LANDMARKAD":"1000511","ADDRESS":"苗栗縣南庄鄉南富村13鄰14號","TEL":"037-822752","COUNTYNAME":"苗栗縣","TOWNNAME":"南庄鄉","MARKTYPE":"991","Class":"1"},"geometry":{"x":247917.99459999986,"y":2725510.0346000008}},{"attributes":{"OBJECTID":18054,"LANDMARKID":"1000500000050","LANDMARKCO":"103","LANDMARKNA":"苗栗縣南庄鄉衛生所","LANDMARKAD":"1000511","ADDRESS":"苗栗縣南庄鄉東村大同路17號","TEL":"037-822024","COUNTYNAME":"苗栗縣","TOWNNAME":"南庄鄉","MARKTYPE":"991","Class":"1"},"geometry":{"x":250000,"y":2721170.0085000005}},{"attributes":{"OBJECTID":18055,"LANDMARKID":"1000500000418","LANDMARKCO":"205","LANDMARKNA":"蓬萊國小賽夏文物館","LANDMARKAD":"1000511","ADDRESS":"苗栗縣南庄鄉蓬萊村118號","TEL":"037-823385","COUNTYNAME":"苗栗縣","TOWNNAME":"南庄鄉","MARKTYPE":"992","Class":"2"},"geometry":{"x":247065.9757000003,"y":2715121.7928999998}},{"attributes":{"OBJECTID":18056,"LANDMARKID":"1000500000419","LANDMARKCO":"205","LANDMARKNA":"賽夏族民俗文物館(向天湖矮靈祭)","LANDMARKAD":"1000511","ADDRESS":"苗栗縣南庄東鄉河村16鄰向天湖25號","TEL":"037-322150","COUNTYNAME":"苗栗縣","TOWNNAME":"南庄鄉","MARKTYPE":"992","Class":"2"},"geometry":{"x":253374.77070000023,"y":2719642.0219000001}},{"attributes":{"OBJECTID":18057,"LANDMARKID":"1000500000403","LANDMARKCO":"204","LANDMARKNA":"苗栗縣立圖書館南庄分館","LANDMARKAD":"1000511","ADDRESS":"苗栗縣南庄鄉東村20鄰中正路165號","TEL":" ","COUNTYNAME":"苗栗縣","TOWNNAME":"南庄鄉","MARKTYPE":"992","Class":"2"},"geometry":{"x":249891.53509999998,"y":2721388.4368999992}},{"attributes":{"OBJECTID":18058,"LANDMARKID":"1000500000295","LANDMARKCO":"203","LANDMARKNA":"縣立南庄國中","LANDMARKAD":"1000511","ADDRESS":"苗栗縣南庄鄉東村中正路165號","TEL":"037-822027","COUNTYNAME":"苗栗縣","TOWNNAME":"南庄鄉","MARKTYPE":"992","Class":"2"},"geometry":{"x":250025.00030000042,"y":2721930.0085000005}},{"attributes":{"OBJECTID":18059,"LANDMARKID":"1000500000296","LANDMARKCO":"203","LANDMARKNA":"縣立蓬萊國小","LANDMARKAD":"1000511","ADDRESS":"苗栗縣南庄鄉蓬萊村118號","TEL":"037-823385","COUNTYNAME":"苗栗縣","TOWNNAME":"南庄鄉","MARKTYPE":"992","Class":"2"},"geometry":{"x":247028.96889999975,"y":2715160.0354999993}},{"attributes":{"OBJECTID":18060,"LANDMARKID":"1000500000297","LANDMARKCO":"203","LANDMARKNA":"縣立東河國小","LANDMARKAD":"1000511","ADDRESS":"苗栗縣南庄鄉東河村132號","TEL":"037-823423","COUNTYNAME":"苗栗縣","TOWNNAME":"南庄鄉","MARKTYPE":"992","Class":"2"},"geometry":{"x":254080.01329999976,"y":2721519.9675999992}},{"attributes":{"OBJECTID":18061,"LANDMARKID":"1000500000298","LANDMARKCO":"203","LANDMARKNA":"縣立南埔國小","LANDMARKAD":"1000511","ADDRESS":"苗栗縣南庄鄉南富村134號","TEL":"037-822324","COUNTYNAME":"苗栗縣","TOWNNAME":"南庄鄉","MARKTYPE":"992","Class":"2"},"geometry":{"x":247270.96789999958,"y":2725330.0250000004}},{"attributes":{"OBJECTID":18062,"LANDMARKID":"1000500000299","LANDMARKCO":"203","LANDMARKNA":"縣立田美國小","LANDMARKAD":"1000511","ADDRESS":"苗栗縣南庄鄉田美村9鄰191號","TEL":"037-822455","COUNTYNAME":"苗栗縣","TOWNNAME":"南庄鄉","MARKTYPE":"992","Class":"2"},"geometry":{"x":250811.00870000012,"y":2724699.9962000009}},{"attributes":{"OBJECTID":18063,"LANDMARKID":"1000500000300","LANDMARKCO":"203","LANDMARKNA":"縣立南庄國小","LANDMARKAD":"1000511","ADDRESS":"苗栗縣南庄鄉東村文化路3號","TEL":"037-822007","COUNTYNAME":"苗栗縣","TOWNNAME":"南庄鄉","MARKTYPE":"992","Class":"2"},"geometry":{"x":249973.99990000017,"y":2721530.0112999994}},{"attributes":{"OBJECTID":18064,"LANDMARKID":"1000500000442","LANDMARKCO":"302","LANDMARKNA":"苗栗汽車客運南庄站","LANDMARKAD":"1000511","ADDRESS":"苗栗縣南庄鄉民生街1號","TEL":" ","COUNTYNAME":"苗栗縣","TOWNNAME":"南庄鄉","MARKTYPE":"993","Class":"302"},"geometry":{"x":249853.4972000001,"y":2721246.0798000004}},{"attributes":{"OBJECTID":18065,"LANDMARKID":"1000500000900","LANDMARKCO":"604","LANDMARKNA":"玉荷園","LANDMARKAD":"1000511","ADDRESS":"苗栗縣南庄鄉東河村中正路242號","TEL":"037-825800","COUNTYNAME":"苗栗縣","TOWNNAME":"南庄鄉","MARKTYPE":"996","Class":"6"},"geometry":{"x":250165.05719999969,"y":2722015.5207000002}},{"attributes":{"OBJECTID":18066,"LANDMARKID":"1000500000901","LANDMARKCO":"604","LANDMARKNA":"力新小築","LANDMARKAD":"1000511","ADDRESS":"苗栗縣南庄鄉南江村5鄰東江100號","TEL":"037-822179","COUNTYNAME":"苗栗縣","TOWNNAME":"南庄鄉","MARKTYPE":"996","Class":"6"},"geometry":{"x":250050.63439999986,"y":2720928.2301000003}},{"attributes":{"OBJECTID":18067,"LANDMARKID":"1000500000902","LANDMARKCO":"604","LANDMARKNA":"紅磚屋特色民宿","LANDMARKAD":"1000511","ADDRESS":"苗栗縣南庄鄉南江村里金館32-3號","TEL":"037-824877","COUNTYNAME":"苗栗縣","TOWNNAME":"南庄鄉","MARKTYPE":"996","Class":"6"},"geometry":{"x":249815.26939999964,"y":2719841.7191000003}},{"attributes":{"OBJECTID":18068,"LANDMARKID":"1000500000903","LANDMARKCO":"604","LANDMARKNA":"里京館","LANDMARKAD":"1000511","ADDRESS":"苗栗縣南庄鄉南江村里金館33號","TEL":"037-822259","COUNTYNAME":"苗栗縣","TOWNNAME":"南庄鄉","MARKTYPE":"996","Class":"6"},"geometry":{"x":249759.26279999968,"y":2719846.4815999996}},{"attributes":{"OBJECTID":18069,"LANDMARKID":"1000500000904","LANDMARKCO":"604","LANDMARKNA":"毓琇圖書山莊","LANDMARKAD":"1000511","ADDRESS":"苗栗縣南庄鄉南江村里金館35號","TEL":"037-823939","COUNTYNAME":"苗栗縣","TOWNNAME":"南庄鄉","MARKTYPE":"996","Class":"6"},"geometry":{"x":249821.24480000045,"y":2719836.5135999992}},{"attributes":{"OBJECTID":18070,"LANDMARKID":"1000500000905","LANDMARKCO":"604","LANDMARKNA":"宜家園","LANDMARKAD":"1000511","ADDRESS":"苗栗縣南庄鄉南江村小東河1-1號","TEL":"037-825289","COUNTYNAME":"苗栗縣","TOWNNAME":"南庄鄉","MARKTYPE":"996","Class":"6"},"geometry":{"x":249145.19699999969,"y":2719394.5303000007}},{"attributes":{"OBJECTID":18071,"LANDMARKID":"1000500000906","LANDMARKCO":"604","LANDMARKNA":"綠野仙蹤桃樂絲的家","LANDMARKAD":"1000511","ADDRESS":"苗栗縣南庄鄉獅山村7鄰17-2號","TEL":"037-823956","COUNTYNAME":"苗栗縣","TOWNNAME":"南庄鄉","MARKTYPE":"996","Class":"6"},"geometry":{"x":249600.72790000029,"y":2718691.1984999999}},{"attributes":{"OBJECTID":18072,"LANDMARKID":"1000500000907","LANDMARKCO":"604","LANDMARKNA":"容園谷景觀渡假山莊","LANDMARKAD":"1000511","ADDRESS":"苗栗縣南庄鄉蓬萊村18鄰17號","TEL":"037-823330","COUNTYNAME":"苗栗縣","TOWNNAME":"南庄鄉","MARKTYPE":"996","Class":"6"},"geometry":{"x":248306.76929999981,"y":2716690.5298999995}},{"attributes":{"OBJECTID":18073,"LANDMARKID":"1000500000908","LANDMARKCO":"604","LANDMARKNA":"真柏園","LANDMARKAD":"1000511","ADDRESS":"苗栗縣南庄鄉蓬萊村9鄰42份7-2號","TEL":"037-824009","COUNTYNAME":"苗栗縣","TOWNNAME":"南庄鄉","MARKTYPE":"996","Class":"6"},"geometry":{"x":246516.79140000045,"y":2714391.5939000007}},{"attributes":{"OBJECTID":18074,"LANDMARKID":"1000500000909","LANDMARKCO":"604","LANDMARKNA":"綠竹山莊渡假民宿","LANDMARKAD":"1000511","ADDRESS":"苗栗縣南庄鄉蓬萊村9鄰42份8-1號","TEL":"037-823967","COUNTYNAME":"苗栗縣","TOWNNAME":"南庄鄉","MARKTYPE":"996","Class":"6"},"geometry":{"x":246268.86639999971,"y":2714217.5636}},{"attributes":{"OBJECTID":18075,"LANDMARKID":"1000500000910","LANDMARKCO":"604","LANDMARKNA":"石門客棧","LANDMARKAD":"1000511","ADDRESS":"苗栗縣大湖鄉栗林村竹橋20號","TEL":"037-951129","COUNTYNAME":"苗栗縣","TOWNNAME":"南庄鄉","MARKTYPE":"996","Class":"6"},"geometry":{"x":254118.72149999999,"y":2718544.2167000007}},{"attributes":{"OBJECTID":18076,"LANDMARKID":"1000500000911","LANDMARKCO":"604","LANDMARKNA":"眉山居","LANDMARKAD":"1000511","ADDRESS":"苗栗縣南庄鄉田美村106號","TEL":"037-821353","COUNTYNAME":"苗栗縣","TOWNNAME":"南庄鄉","MARKTYPE":"996","Class":"6"},"geometry":{"x":250818.79810000025,"y":2723932.4984000009}},{"attributes":{"OBJECTID":18077,"LANDMARKID":"1000500000912","LANDMARKCO":"604","LANDMARKNA":"藝欣堡民宿","LANDMARKAD":"1000511","ADDRESS":"苗栗縣南庄鄉東村中正路89-7號","TEL":"037-825868","COUNTYNAME":"苗栗縣","TOWNNAME":"南庄鄉","MARKTYPE":"996","Class":"6"},"geometry":{"x":250221.45529999956,"y":2722162.6045999993}},{"attributes":{"OBJECTID":18078,"LANDMARKID":"1000500000913","LANDMARKCO":"604","LANDMARKNA":"水雲間","LANDMARKAD":"1000511","ADDRESS":"苗栗縣南庄鄉東河村六隘寮23號","TEL":"037-825777","COUNTYNAME":"苗栗縣","TOWNNAME":"南庄鄉","MARKTYPE":"996","Class":"6"},"geometry":{"x":255054.47730000038,"y":2722565.1371999998}},{"attributes":{"OBJECTID":18079,"LANDMARKID":"1000500000914","LANDMARKCO":"604","LANDMARKNA":"源寶山莊","LANDMARKAD":"1000511","ADDRESS":"苗栗縣南庄鄉南江村19鄰南江2-2號","TEL":"037-822616","COUNTYNAME":"苗栗縣","TOWNNAME":"南庄鄉","MARKTYPE":"996","Class":"6"},"geometry":{"x":248292.16770000011,"y":2718353.5218000002}},{"attributes":{"OBJECTID":18080,"LANDMARKID":"1000500000915","LANDMARKCO":"604","LANDMARKNA":"李家莊","LANDMARKAD":"1000511","ADDRESS":"苗栗縣南庄鄉東河村橫屏背22號","TEL":"037-823900","COUNTYNAME":"苗栗縣","TOWNNAME":"南庄鄉","MARKTYPE":"996","Class":"6"},"geometry":{"x":253660.74739999976,"y":2723731.1692999993}},{"attributes":{"OBJECTID":18081,"LANDMARKID":"1000500000916","LANDMARKCO":"604","LANDMARKNA":"吶善瑪固","LANDMARKAD":"1000511","ADDRESS":"苗栗縣南庄鄉東河村鹿場19號","TEL":"037-821421","COUNTYNAME":"苗栗縣","TOWNNAME":"南庄鄉","MARKTYPE":"996","Class":"6"},"geometry":{"x":252521.64609999955,"y":2714498.1750000007}},{"attributes":{"OBJECTID":18082,"LANDMARKID":"1000500000917","LANDMARKCO":"604","LANDMARKNA":"松柏山莊","LANDMARKAD":"1000511","ADDRESS":"苗栗縣南庄鄉東河村鹿場20號","TEL":"037-825989","COUNTYNAME":"苗栗縣","TOWNNAME":"南庄鄉","MARKTYPE":"996","Class":"6"},"geometry":{"x":251849.94379999954,"y":2713780.8467999995}},{"attributes":{"OBJECTID":18083,"LANDMARKID":"1000500000918","LANDMARKCO":"604","LANDMARKNA":"杉林松境","LANDMARKAD":"1000511","ADDRESS":"苗栗縣南庄鄉東河村橫屏背26號","TEL":"037-824578","COUNTYNAME":"苗栗縣","TOWNNAME":"南庄鄉","MARKTYPE":"996","Class":"6"},"geometry":{"x":254356.51850000024,"y":2723186.0756999999}},{"attributes":{"OBJECTID":18084,"LANDMARKID":"1000500000919","LANDMARKCO":"604","LANDMARKNA":"碧絡角民宿","LANDMARKAD":"1000511","ADDRESS":"苗栗縣南庄鄉東河村橫屏背25號","TEL":"037-825605","COUNTYNAME":"苗栗縣","TOWNNAME":"南庄鄉","MARKTYPE":"996","Class":"6"},"geometry":{"x":253973.27520000003,"y":2723309.8187000006}},{"attributes":{"OBJECTID":18085,"LANDMARKID":"1000500000920","LANDMARKCO":"604","LANDMARKNA":"蘿拉農場","LANDMARKAD":"1000511","ADDRESS":"苗栗縣南庄鄉東河村石壁23號","TEL":"037-331497","COUNTYNAME":"苗栗縣","TOWNNAME":"南庄鄉","MARKTYPE":"996","Class":"6"},"geometry":{"x":254103.58640000038,"y":2717214.8191999998}},{"attributes":{"OBJECTID":18086,"LANDMARKID":"1000500000818","LANDMARKCO":"508","LANDMARKNA":"東江溫泉休閒花園","LANDMARKAD":"1000511","ADDRESS":"苗栗縣南庄鄉南江村東江31之3號","TEL":"037-825285","COUNTYNAME":"苗栗縣","TOWNNAME":"南庄鄉","MARKTYPE":"995","Class":"5"},"geometry":{"x":251201.36479999963,"y":2721383.4434999991}},{"attributes":{"OBJECTID":18087,"LANDMARKID":"1000500000789","LANDMARKCO":"503","LANDMARKNA":"向天湖","LANDMARKAD":"1000511","ADDRESS":"苗栗縣南庄鄉","TEL":" ","COUNTYNAME":"苗栗縣","TOWNNAME":"南庄鄉","MARKTYPE":"995","Class":"5"},"geometry":{"x":253500.56869999971,"y":2719843.7767999992}},{"attributes":{"OBJECTID":18088,"LANDMARKID":"1000500000790","LANDMARKCO":"503","LANDMARKNA":"風美瀑布群","LANDMARKAD":"1000511","ADDRESS":"苗栗縣南庄鄉","TEL":" ","COUNTYNAME":"苗栗縣","TOWNNAME":"南庄鄉","MARKTYPE":"995","Class":"5"},"geometry":{"x":251472.56390000042,"y":2714098.3013000004}},{"attributes":{"OBJECTID":18089,"LANDMARKID":"1000500000691","LANDMARKCO":"405","LANDMARKNA":"中油加油站-松本站","LANDMARKAD":"1000501","ADDRESS":"苗栗縣苗栗市水源里7鄰水源23-2號","TEL":"03-7335255","COUNTYNAME":"苗栗縣","TOWNNAME":"苗栗市","MARKTYPE":"994","Class":"4"},"geometry":{"x":231146.01389999967,"y":2714801.0107000005}},{"attributes":{"OBJECTID":18090,"LANDMARKID":"1000500000692","LANDMARKCO":"405","LANDMARKNA":"中油加油站-北苗站(中油直營)","LANDMARKAD":"1000501","ADDRESS":"苗栗縣苗栗市為公路110號","TEL":"03-7262439","COUNTYNAME":"苗栗縣","TOWNNAME":"苗栗市","MARKTYPE":"994","Class":"4"},"geometry":{"x":232352.93130000029,"y":2718195.0008000005}},{"attributes":{"OBJECTID":18091,"LANDMARKID":"1000500000693","LANDMARKCO":"405","LANDMARKNA":"中油加油站-聯合國際站","LANDMARKAD":"1000501","ADDRESS":"苗栗縣苗栗市恭敬里12鄰華岡80號","TEL":"03-7325658","COUNTYNAME":"苗栗縣","TOWNNAME":"苗栗市","MARKTYPE":"994","Class":"4"},"geometry":{"x":230825.73209999967,"y":2715326.0116000008}},{"attributes":{"OBJECTID":18092,"LANDMARKID":"1000500000694","LANDMARKCO":"405","LANDMARKNA":"中油加油站-揚升站","LANDMARKAD":"1000501","ADDRESS":"苗栗縣苗栗市坪頂東55巷10弄5號","TEL":"03-7331228","COUNTYNAME":"苗栗縣","TOWNNAME":"苗栗市","MARKTYPE":"994","Class":"4"},"geometry":{"x":229946.18030000012,"y":2713847.4598999992}},{"attributes":{"OBJECTID":18093,"LANDMARKID":"1000500000695","LANDMARKCO":"405","LANDMARKNA":"中油加油站-揚升站","LANDMARKAD":"1000501","ADDRESS":"苗栗縣苗栗市新英里坪頂東55巷10弄5號","TEL":"037-331228","COUNTYNAME":"苗栗縣","TOWNNAME":"苗栗市","MARKTYPE":"994","Class":"4"},"geometry":{"x":229943.04399999976,"y":2713834.6318999995}},{"attributes":{"OBJECTID":18094,"LANDMARKID":"1000500000696","LANDMARKCO":"405","LANDMARKNA":"中油加油站-輝生站","LANDMARKAD":"1000501","ADDRESS":"苗栗縣苗栗市水源里水源28-1號","TEL":"03-7332135","COUNTYNAME":"苗栗縣","TOWNNAME":"苗栗市","MARKTYPE":"994","Class":"4"},"geometry":{"x":231063.28760000039,"y":2714693.9455999993}},{"attributes":{"OBJECTID":18095,"LANDMARKID":"1000500000697","LANDMARKCO":"405","LANDMARKNA":"統一速邁樂加油站-苗栗加油站(中油)","LANDMARKAD":"1000501","ADDRESS":"苗栗縣苗栗市北苗里國華路501號","TEL":" ","COUNTYNAME":"苗栗縣","TOWNNAME":"苗栗市","MARKTYPE":"994","Class":"4"},"geometry":{"x":231914.87280000001,"y":2718752.4294000007}},{"attributes":{"OBJECTID":18096,"LANDMARKID":"1000500000698","LANDMARKCO":"405","LANDMARKNA":"中油加油站-宏苗站","LANDMARKAD":"1000501","ADDRESS":"苗栗縣苗栗市新川里圓墩3-15號","TEL":"037-337357","COUNTYNAME":"苗栗縣","TOWNNAME":"苗栗市","MARKTYPE":"994","Class":"4"},"geometry":{"x":229431.33509999979,"y":2720056.3608999997}},{"attributes":{"OBJECTID":18097,"LANDMARKID":"1000500000699","LANDMARKCO":"405","LANDMARKNA":"中油加油站-中苗站(中油直營)","LANDMARKAD":"1000501","ADDRESS":"苗栗縣苗栗市中正路442號","TEL":"037-326764","COUNTYNAME":"苗栗縣","TOWNNAME":"苗栗市","MARKTYPE":"994","Class":"4"},"geometry":{"x":231945.36369999964,"y":2717051.6892000008}},{"attributes":{"OBJECTID":18098,"LANDMARKID":"1000500000700","LANDMARKCO":"405","LANDMARKNA":"中油加油站-建中站","LANDMARKAD":"1000501","ADDRESS":"苗栗縣苗栗市國華路736號","TEL":"037-372828","COUNTYNAME":"苗栗縣","TOWNNAME":"苗栗市","MARKTYPE":"994","Class":"4"},"geometry":{"x":231215.74820000026,"y":2718318.0438999999}},{"attributes":{"OBJECTID":18099,"LANDMARKID":"1000500000701","LANDMARKCO":"405","LANDMARKNA":"中油加油站-中華路站","LANDMARKAD":"1000501","ADDRESS":"苗栗縣苗栗市中華路30號","TEL":"037-266431","COUNTYNAME":"苗栗縣","TOWNNAME":"苗栗市","MARKTYPE":"994","Class":"4"},"geometry":{"x":232243.73259999976,"y":2718261.4406000003}},{"attributes":{"OBJECTID":18100,"LANDMARKID":"1000500000702","LANDMARKCO":"405","LANDMARKNA":"統一速邁樂加油站-苗栗二站加油站(中油)","LANDMARKAD":"1000501","ADDRESS":"苗栗縣苗栗市文山里至公路596-1號","TEL":" ","COUNTYNAME":"苗栗縣","TOWNNAME":"苗栗市","MARKTYPE":"994","Class":"4"},"geometry":{"x":230667.16550000012,"y":2718228.3277000003}},{"attributes":{"OBJECTID":18101,"LANDMARKID":"1000500000586","LANDMARKCO":"402","LANDMARKNA":"My Phone台灣大哥大-苗栗中正直營服務中心","LANDMARKAD":"1000501","ADDRESS":"苗栗縣苗栗市中正路501號","TEL":" ","COUNTYNAME":"苗栗縣","TOWNNAME":"苗栗市","MARKTYPE":"994","Class":"4"},"geometry":{"x":231903.18609999958,"y":2716930.6138000004}},{"attributes":{"OBJECTID":18102,"LANDMARKID":"1000500000587","LANDMARKCO":"402","LANDMARKNA":"亞太行動寬頻電信-苗栗府前加盟服務中心","LANDMARKAD":"1000501","ADDRESS":"苗栗縣苗栗市府前路138號","TEL":"037-338085","COUNTYNAME":"苗栗縣","TOWNNAME":"苗栗市","MARKTYPE":"994","Class":"4"},"geometry":{"x":231535.20749999955,"y":2717063.7986999992}},{"attributes":{"OBJECTID":18103,"LANDMARKID":"1000500000588","LANDMARKCO":"402","LANDMARKNA":"亞太行動寬頻電信-苗栗中正加盟服務中心","LANDMARKAD":"1000501","ADDRESS":"苗栗縣苗栗市中正路551號","TEL":"037-333332","COUNTYNAME":"苗栗縣","TOWNNAME":"苗栗市","MARKTYPE":"994","Class":"4"},"geometry":{"x":231854.60599999968,"y":2716825.6348000001}},{"attributes":{"OBJECTID":18104,"LANDMARKID":"1000500000589","LANDMARKCO":"402","LANDMARKNA":"亞太行動寬頻電信-苗栗南苗加盟服務中心","LANDMARKAD":"1000501","ADDRESS":"苗栗縣苗栗市中正路910號","TEL":"037-333360","COUNTYNAME":"苗栗縣","TOWNNAME":"苗栗市","MARKTYPE":"994","Class":"4"},"geometry":{"x":231345.56020000018,"y":2716095.5069999993}},{"attributes":{"OBJECTID":18105,"LANDMARKID":"1000500000557","LANDMARKCO":"401","LANDMARKNA":"大千綜合醫院南勢分院","LANDMARKAD":"1000501","ADDRESS":"苗栗縣苗栗市南勢52號","TEL":" ","COUNTYNAME":"苗栗縣","TOWNNAME":"苗栗市","MARKTYPE":"994","Class":"4"},"geometry":{"x":228544.15060000028,"y":2712615.2366000004}},{"attributes":{"OBJECTID":18106,"LANDMARKID":"1000500000558","LANDMARKCO":"401","LANDMARKNA":"中山中醫醫院","LANDMARKAD":"1000501","ADDRESS":"苗栗縣苗栗市為公路185號","TEL":"03-7266321","COUNTYNAME":"苗栗縣","TOWNNAME":"苗栗市","MARKTYPE":"994","Class":"4"},"geometry":{"x":232526.91940000001,"y":2718266.7107999995}},{"attributes":{"OBJECTID":18107,"LANDMARKID":"1000500000559","LANDMARKCO":"401","LANDMARKNA":"協和醫院","LANDMARKAD":"1000501","ADDRESS":"苗栗縣苗栗市中正路1367號","TEL":"037-352631","COUNTYNAME":"苗栗縣","TOWNNAME":"苗栗市","MARKTYPE":"994","Class":"4"},"geometry":{"x":231489.6529000001,"y":2714980.0889999997}},{"attributes":{"OBJECTID":18108,"LANDMARKID":"1000500000560","LANDMARKCO":"401","LANDMARKNA":"大川醫院","LANDMARKAD":"1000501","ADDRESS":"苗栗縣苗栗市中正路416號","TEL":"037-205501","COUNTYNAME":"苗栗縣","TOWNNAME":"苗栗市","MARKTYPE":"994","Class":"4"},"geometry":{"x":231970.69120000023,"y":2717110.3431000002}},{"attributes":{"OBJECTID":18109,"LANDMARKID":"1000500000561","LANDMARKCO":"401","LANDMARKNA":"弘大醫院","LANDMARKAD":"1000501","ADDRESS":"苗栗縣苗栗市新東街125號","TEL":"037-361188","COUNTYNAME":"苗栗縣","TOWNNAME":"苗栗市","MARKTYPE":"994","Class":"4"},"geometry":{"x":231874.78980000038,"y":2716110.2205999997}},{"attributes":{"OBJECTID":18110,"LANDMARKID":"1000500000562","LANDMARKCO":"401","LANDMARKNA":"台灣省私立桃園仁愛之家附設新生醫院","LANDMARKAD":"1000501","ADDRESS":"苗栗縣苗栗市新東街117號","TEL":"037-320988","COUNTYNAME":"苗栗縣","TOWNNAME":"苗栗市","MARKTYPE":"994","Class":"4"},"geometry":{"x":231822.77630000003,"y":2716120.1530000009}},{"attributes":{"OBJECTID":18111,"LANDMARKID":"1000500000563","LANDMARKCO":"401","LANDMARKNA":"大千綜合醫院","LANDMARKAD":"1000501","ADDRESS":"苗栗縣苗栗市新光街6號","TEL":"037-357125","COUNTYNAME":"苗栗縣","TOWNNAME":"苗栗市","MARKTYPE":"994","Class":"4"},"geometry":{"x":231329.77109999955,"y":2716120.2510000002}},{"attributes":{"OBJECTID":18112,"LANDMARKID":"1000500000564","LANDMARKCO":"401","LANDMARKNA":"行政院衛生署苗栗醫院","LANDMARKAD":"1000501","ADDRESS":"苗栗縣苗栗市嘉盛里為公路747號","TEL":"037-261920","COUNTYNAME":"苗栗縣","TOWNNAME":"苗栗市","MARKTYPE":"994","Class":"4"},"geometry":{"x":233914.67349999957,"y":2718690.2749000005}},{"attributes":{"OBJECTID":18113,"LANDMARKID":"1000500000814","LANDMARKCO":"507","LANDMARKNA":"苗栗文昌祠","LANDMARKAD":"1000501","ADDRESS":"苗栗縣苗栗市綠苗里中正路756號","TEL":" ","COUNTYNAME":"苗栗縣","TOWNNAME":"苗栗市","MARKTYPE":"995","Class":"5"},"geometry":{"x":231602.66830000002,"y":2716377.5559999999}},{"attributes":{"OBJECTID":18114,"LANDMARKID":"1000500000815","LANDMARKCO":"507","LANDMARKNA":"賴氏節孝坊","LANDMARKAD":"1000501","ADDRESS":"苗栗縣苗栗市大同里福星山苗栗段767之17地號","TEL":" ","COUNTYNAME":"苗栗縣","TOWNNAME":"苗栗市","MARKTYPE":"995","Class":"5"},"geometry":{"x":230832.64890000038,"y":2716570.4213999994}},{"attributes":{"OBJECTID":18115,"LANDMARKID":"1000500000725","LANDMARKCO":"408","LANDMARKNA":"郵局-苗栗中苗郵局","LANDMARKAD":"1000501","ADDRESS":"苗栗縣苗栗市中正路532號","TEL":"(037)334-678","COUNTYNAME":"苗栗縣","TOWNNAME":"苗栗市","MARKTYPE":"994","Class":"4"},"geometry":{"x":231866.7564000003,"y":2716887.4406000003}},{"attributes":{"OBJECTID":18116,"LANDMARKID":"1000500000726","LANDMARKCO":"408","LANDMARKNA":"郵局-苗栗大坪頂郵局","LANDMARKAD":"1000501","ADDRESS":"苗栗縣苗栗市南勢里坪頂東14-1號","TEL":"(037)335-976","COUNTYNAME":"苗栗縣","TOWNNAME":"苗栗市","MARKTYPE":"994","Class":"4"},"geometry":{"x":230160.88320000004,"y":2714067.5923999995}},{"attributes":{"OBJECTID":18117,"LANDMARKID":"1000500000727","LANDMARKCO":"408","LANDMARKNA":"郵局-苗栗北苗郵局","LANDMARKAD":"1000501","ADDRESS":"苗栗縣苗栗市中正路138號","TEL":"(037)264-412","COUNTYNAME":"苗栗縣","TOWNNAME":"苗栗市","MARKTYPE":"994","Class":"4"},"geometry":{"x":232165.34680000041,"y":2717806.4579000007}},{"attributes":{"OBJECTID":18118,"LANDMARKID":"1000500000728","LANDMARKCO":"408","LANDMARKNA":"郵局-苗栗南苗郵局","LANDMARKAD":"1000501","ADDRESS":"苗栗縣苗栗市中正路961號","TEL":"(037)326-064","COUNTYNAME":"苗栗縣","TOWNNAME":"苗栗市","MARKTYPE":"994","Class":"4"},"geometry":{"x":231361.05989999976,"y":2716004.6916000005}},{"attributes":{"OBJECTID":18119,"LANDMARKID":"1000500000729","LANDMARKCO":"408","LANDMARKNA":"郵局-苗栗文山郵局","LANDMARKAD":"1000501","ADDRESS":"苗栗縣苗栗市至公路420之1號","TEL":"(037)336-304","COUNTYNAME":"苗栗縣","TOWNNAME":"苗栗市","MARKTYPE":"994","Class":"4"},"geometry":{"x":230936.36230000015,"y":2717515.1169000007}},{"attributes":{"OBJECTID":18120,"LANDMARKID":"1000500000730","LANDMARKCO":"408","LANDMARKNA":"郵局-苗栗嘉盛郵局","LANDMARKAD":"1000501","ADDRESS":"苗栗縣苗栗市國華路158號","TEL":"(037)261-276","COUNTYNAME":"苗栗縣","TOWNNAME":"苗栗市","MARKTYPE":"994","Class":"4"},"geometry":{"x":232719.15990000032,"y":2718663.5469000004}},{"attributes":{"OBJECTID":18121,"LANDMARKID":"1000500000731","LANDMARKCO":"408","LANDMARKNA":"郵局-苗栗府前郵局","LANDMARKAD":"1000501","ADDRESS":"苗栗縣苗栗市忠孝路119號","TEL":"(037)325-631","COUNTYNAME":"苗栗縣","TOWNNAME":"苗栗市","MARKTYPE":"994","Class":"4"},"geometry":{"x":231604.29289999977,"y":2717372.9219000004}},{"attributes":{"OBJECTID":18122,"LANDMARKID":"1000500000732","LANDMARKCO":"408","LANDMARKNA":"郵局-苗栗福星郵局","LANDMARKAD":"1000501","ADDRESS":"苗栗縣苗栗市中華路629號","TEL":"(037)270-161","COUNTYNAME":"苗栗縣","TOWNNAME":"苗栗市","MARKTYPE":"994","Class":"4"},"geometry":{"x":232274.35170000046,"y":2719842.4834000003}},{"attributes":{"OBJECTID":18123,"LANDMARKID":"1000500000781","LANDMARKCO":"409","LANDMARKNA":"苗栗市農會","LANDMARKAD":"1000501","ADDRESS":"苗栗縣苗栗市青苗里中正路611號","TEL":"037-320530","COUNTYNAME":"苗栗縣","TOWNNAME":"苗栗市","MARKTYPE":"994","Class":"4"},"geometry":{"x":231825.50540000014,"y":2716749.8280999996}},{"attributes":{"OBJECTID":18124,"LANDMARKID":"1000500000782","LANDMARKCO":"409","LANDMARKNA":"苗栗魚市場","LANDMARKAD":"1000501","ADDRESS":"苗栗市至公路602號","TEL":"037-320252","COUNTYNAME":"苗栗縣","TOWNNAME":"苗栗市","MARKTYPE":"994","Class":"4"},"geometry":{"x":230647.4140999997,"y":2718277.8377}},{"attributes":{"OBJECTID":18125,"LANDMARKID":"1000500000783","LANDMARKCO":"409","LANDMARKNA":"苗栗縣農會","LANDMARKAD":"1000501","ADDRESS":"苗栗市中山路538號12樓","TEL":"037-32213","COUNTYNAME":"苗栗縣","TOWNNAME":"苗栗市","MARKTYPE":"994","Class":"4"},"geometry":{"x":231770.32060000021,"y":2716925.0975000001}},{"attributes":{"OBJECTID":18126,"LANDMARKID":"1000500000604","LANDMARKCO":"404","LANDMARKNA":"台灣省自來水苗栗營運所","LANDMARKAD":"1000501","ADDRESS":"苗栗縣苗栗市中山路335號","TEL":" ","COUNTYNAME":"苗栗縣","TOWNNAME":"苗栗市","MARKTYPE":"994","Class":"4"},"geometry":{"x":232044.89780000038,"y":2717274.5457000006}},{"attributes":{"OBJECTID":18127,"LANDMARKID":"1000500000603","LANDMARKCO":"403","LANDMARKNA":"台灣電力公司苗栗區營業處","LANDMARKAD":"1000501","ADDRESS":"苗栗縣苗栗市為公路236號","TEL":" ","COUNTYNAME":"苗栗縣","TOWNNAME":"苗栗市","MARKTYPE":"994","Class":"4"},"geometry":{"x":232747.26410000026,"y":2718307.2788999993}},{"attributes":{"OBJECTID":18128,"LANDMARKID":"1000500000705","LANDMARKCO":"406","LANDMARKNA":"隆順公園","LANDMARKAD":"1000501","ADDRESS":"苗栗縣苗栗市","TEL":" ","COUNTYNAME":"苗栗縣","TOWNNAME":"苗栗市","MARKTYPE":"994","Class":"4"},"geometry":{"x":230687.73560000025,"y":2720758.2168000005}},{"attributes":{"OBJECTID":18129,"LANDMARKID":"1000500000706","LANDMARKCO":"406","LANDMARKNA":"玉清公園","LANDMARKAD":"1000501","ADDRESS":"苗栗縣苗栗市","TEL":" ","COUNTYNAME":"苗栗縣","TOWNNAME":"苗栗市","MARKTYPE":"994","Class":"4"},"geometry":{"x":232546.3833999997,"y":2717549.2892000005}},{"attributes":{"OBJECTID":18130,"LANDMARKID":"1000500000707","LANDMARKCO":"406","LANDMARKNA":"扶輪公園","LANDMARKAD":"1000501","ADDRESS":"苗栗縣苗栗市","TEL":" ","COUNTYNAME":"苗栗縣","TOWNNAME":"苗栗市","MARKTYPE":"994","Class":"4"},"geometry":{"x":233260.83370000031,"y":2716566.2380999997}},{"attributes":{"OBJECTID":18131,"LANDMARKID":"1000500000708","LANDMARKCO":"406","LANDMARKNA":"長存紀念公園","LANDMARKAD":"1000501","ADDRESS":"苗栗縣苗栗市","TEL":" ","COUNTYNAME":"苗栗縣","TOWNNAME":"苗栗市","MARKTYPE":"994","Class":"4"},"geometry":{"x":229221.6612999998,"y":2716001.0547000002}},{"attributes":{"OBJECTID":18132,"LANDMARKID":"1000500000723","LANDMARKCO":"407","LANDMARKNA":"三商百貨","LANDMARKAD":"1000501","ADDRESS":"苗栗縣苗栗市新東街6號之1","TEL":"037-324488","COUNTYNAME":"苗栗縣","TOWNNAME":"苗栗市","MARKTYPE":"994","Class":"4"},"geometry":{"x":231573.86230000015,"y":2716198.7869000006}},{"attributes":{"OBJECTID":18133,"LANDMARKID":"1000500000688","LANDMARKCO":"405","LANDMARKNA":"全國加油站-台肥苗栗站（台塑）","LANDMARKAD":"1000501","ADDRESS":"苗栗縣苗栗市經國路四段1083號","TEL":"03-7269448","COUNTYNAME":"苗栗縣","TOWNNAME":"苗栗市","MARKTYPE":"994","Class":"4"},"geometry":{"x":232250.00449999981,"y":2720730.7492999993}},{"attributes":{"OBJECTID":18134,"LANDMARKID":"1000500000689","LANDMARKCO":"405","LANDMARKNA":"全國加油站-苗交站（台塑）","LANDMARKAD":"1000501","ADDRESS":"苗栗縣苗栗市水源里水流娘15-1號","TEL":"037-237319","COUNTYNAME":"苗栗縣","TOWNNAME":"苗栗市","MARKTYPE":"994","Class":"4"},"geometry":{"x":231493.02520000003,"y":2714070.1337000001}},{"attributes":{"OBJECTID":18135,"LANDMARKID":"1000500000044","LANDMARKCO":"103","LANDMARKNA":"苗栗縣審計室","LANDMARKAD":"1000501","ADDRESS":"苗栗縣苗栗市啟文路啟文巷100號","TEL":"037-274058","COUNTYNAME":"苗栗縣","TOWNNAME":"苗栗市","MARKTYPE":"991","Class":"1"},"geometry":{"x":232830.86230000015,"y":2718520.3490999993}},{"attributes":{"OBJECTID":18136,"LANDMARKID":"1000500000005","LANDMARKCO":"101","LANDMARKNA":"苗栗憲兵隊","LANDMARKAD":"1000501","ADDRESS":"苗栗縣苗栗市為公路756號","TEL":"037-261320","COUNTYNAME":"苗栗縣","TOWNNAME":"苗栗市","MARKTYPE":"991","Class":"1"},"geometry":{"x":233913.73110000044,"y":2718640.2780000009}},{"attributes":{"OBJECTID":18137,"LANDMARKID":"1000500000006","LANDMARKCO":"101","LANDMARKNA":"中國石油公司台灣油礦探勘總處","LANDMARKAD":"1000501","ADDRESS":"苗栗市中正路140號","TEL":"037-262100","COUNTYNAME":"苗栗縣","TOWNNAME":"苗栗市","MARKTYPE":"991","Class":"1"},"geometry":{"x":232192.74930000026,"y":2717990.2651000004}},{"attributes":{"OBJECTID":18138,"LANDMARKID":"1000500000007","LANDMARKCO":"101","LANDMARKNA":"國軍退除役官兵輔導委員會","LANDMARKAD":"1000501","ADDRESS":"苗栗縣苗栗市中正路1270號","TEL":"037-320317","COUNTYNAME":"苗栗縣","TOWNNAME":"苗栗市","MARKTYPE":"991","Class":"1"},"geometry":{"x":231418.72829999961,"y":2715230.3752999995}},{"attributes":{"OBJECTID":18139,"LANDMARKID":"1000500000064","LANDMARKCO":"104","LANDMARKNA":"苗栗縣稅捐稽徵處","LANDMARKAD":"1000501","ADDRESS":"苗栗縣苗栗市府前路46號","TEL":"037-331900","COUNTYNAME":"苗栗縣","TOWNNAME":"苗栗市","MARKTYPE":"991","Class":"1"},"geometry":{"x":231766.77639999986,"y":2717350.0821000002}},{"attributes":{"OBJECTID":18140,"LANDMARKID":"1000500000045","LANDMARKCO":"103","LANDMARKNA":"苗栗縣環境保護局","LANDMARKAD":"1000501","ADDRESS":"苗栗縣苗栗市經國路4段79號","TEL":"037-277007","COUNTYNAME":"苗栗縣","TOWNNAME":"苗栗市","MARKTYPE":"991","Class":"1"},"geometry":{"x":231821.7117999997,"y":2717400.1536999997}},{"attributes":{"OBJECTID":18141,"LANDMARKID":"1000500000008","LANDMARKCO":"101","LANDMARKNA":"農糧署苗栗辦事處","LANDMARKAD":"1000501","ADDRESS":"苗栗縣苗栗市中正路184號","TEL":"037-353211","COUNTYNAME":"苗栗縣","TOWNNAME":"苗栗市","MARKTYPE":"991","Class":"1"},"geometry":{"x":232178.73940000031,"y":2717690.2477000002}},{"attributes":{"OBJECTID":18142,"LANDMARKID":"1000500000043","LANDMARKCO":"103","LANDMARKNA":"苗栗縣政府","LANDMARKAD":"1000501","ADDRESS":"苗栗縣苗栗市縣府路100號","TEL":"037-322150","COUNTYNAME":"苗栗縣","TOWNNAME":"苗栗市","MARKTYPE":"991","Class":"1"},"geometry":{"x":231833.90409999993,"y":2717560.1690999996}},{"attributes":{"OBJECTID":18143,"LANDMARKID":"1000500000009","LANDMARKCO":"101","LANDMARKNA":"台灣苗栗地方法院苗栗簡易庭","LANDMARKAD":"1000501","ADDRESS":"苗栗縣苗栗市中正路1149號","TEL":"037-330083","COUNTYNAME":"苗栗縣","TOWNNAME":"苗栗市","MARKTYPE":"991","Class":"1"},"geometry":{"x":231458.93479999993,"y":2715690.0507999994}},{"attributes":{"OBJECTID":18144,"LANDMARKID":"1000500000041","LANDMARKCO":"103","LANDMARKNA":"苗栗縣議會","LANDMARKAD":"1000501","ADDRESS":"苗栗縣苗栗市縣府路102號","TEL":"037-326450","COUNTYNAME":"苗栗縣","TOWNNAME":"苗栗市","MARKTYPE":"991","Class":"1"},"geometry":{"x":231771.89080000017,"y":2717570.0881999992}},{"attributes":{"OBJECTID":18145,"LANDMARKID":"1000500000042","LANDMARKCO":"103","LANDMARKNA":"苗栗縣政府民政局","LANDMARKAD":"1000501","ADDRESS":"苗栗縣苗栗市縣府路100號","TEL":"037-364220","COUNTYNAME":"苗栗縣","TOWNNAME":"苗栗市","MARKTYPE":"991","Class":"1"},"geometry":{"x":231847.82610000018,"y":2717620.1872000005}},{"attributes":{"OBJECTID":18146,"LANDMARKID":"1000500000088","LANDMARKCO":"106","LANDMARKNA":"苗栗縣苗栗市戶政事務所","LANDMARKAD":"1000501","ADDRESS":"苗栗縣苗栗市福麗里至公路555號","TEL":"037-324195","COUNTYNAME":"苗栗縣","TOWNNAME":"苗栗市","MARKTYPE":"991","Class":"1"},"geometry":{"x":230779.63889999967,"y":2717750.2772000004}},{"attributes":{"OBJECTID":18147,"LANDMARKID":"1000500000097","LANDMARKCO":"107","LANDMARKNA":"苗栗縣警察局總局","LANDMARKAD":"1000501","ADDRESS":"苗栗縣苗栗市建功里府前路2號","TEL":"037-321303","COUNTYNAME":"苗栗縣","TOWNNAME":"苗栗市","MARKTYPE":"991","Class":"1"},"geometry":{"x":231779.9952999996,"y":2717490.0987999998}},{"attributes":{"OBJECTID":18148,"LANDMARKID":"1000500000098","LANDMARKCO":"107","LANDMARKNA":"苗栗縣警察局苗栗分局","LANDMARKAD":"1000501","ADDRESS":"苗栗縣苗栗市勝利里金鳳街109號","TEL":"037-320059","COUNTYNAME":"苗栗縣","TOWNNAME":"苗栗市","MARKTYPE":"991","Class":"1"},"geometry":{"x":231898.98060000036,"y":2715040.2575000003}},{"attributes":{"OBJECTID":18149,"LANDMARKID":"1000500000099","LANDMARKCO":"107","LANDMARKNA":"苗栗縣警察局文山派出所","LANDMARKAD":"1000501","ADDRESS":"苗栗縣苗栗市至公路557號","TEL":"037-337127","COUNTYNAME":"苗栗縣","TOWNNAME":"苗栗市","MARKTYPE":"991","Class":"1"},"geometry":{"x":230802.7081000004,"y":2717700.3089000005}},{"attributes":{"OBJECTID":18150,"LANDMARKID":"1000500000100","LANDMARKCO":"107","LANDMARKNA":"苗栗縣警察局北苗派出所","LANDMARKAD":"1000501","ADDRESS":"苗栗縣苗栗市為公路227號","TEL":"037-260344","COUNTYNAME":"苗栗縣","TOWNNAME":"苗栗市","MARKTYPE":"991","Class":"1"},"geometry":{"x":232243.95050000027,"y":2718140.3299000002}},{"attributes":{"OBJECTID":18151,"LANDMARKID":"1000500000101","LANDMARKCO":"107","LANDMARKNA":"苗栗縣消防局","LANDMARKAD":"1000501","ADDRESS":"苗栗縣苗栗市金鳳街111號","TEL":"037-338110","COUNTYNAME":"苗栗縣","TOWNNAME":"苗栗市","MARKTYPE":"991","Class":"1"},"geometry":{"x":231924.96760000009,"y":2715050.2912000008}},{"attributes":{"OBJECTID":18152,"LANDMARKID":"1000500000102","LANDMARKCO":"107","LANDMARKNA":"苗栗縣消防局苗栗消防分隊","LANDMARKAD":"1000501","ADDRESS":"苗栗縣苗栗市金鳳街111號","TEL":"037-320940","COUNTYNAME":"苗栗縣","TOWNNAME":"苗栗市","MARKTYPE":"991","Class":"1"},"geometry":{"x":231923.96760000009,"y":2715050.2898999993}},{"attributes":{"OBJECTID":18153,"LANDMARKID":"1000500000046","LANDMARKCO":"103","LANDMARKNA":"苗栗縣政府衛生局","LANDMARKAD":"1000501","ADDRESS":"苗栗縣苗栗市國福路6號","TEL":"037-332041","COUNTYNAME":"苗栗縣","TOWNNAME":"苗栗市","MARKTYPE":"991","Class":"1"},"geometry":{"x":231829.64570000023,"y":2714990.1680999994}},{"attributes":{"OBJECTID":18154,"LANDMARKID":"1000500000047","LANDMARKCO":"103","LANDMARKNA":"苗栗縣苗栗巿衛生所","LANDMARKAD":"1000501","ADDRESS":"苗栗縣苗栗市建民街28號","TEL":"037-277129","COUNTYNAME":"苗栗縣","TOWNNAME":"苗栗市","MARKTYPE":"991","Class":"1"},"geometry":{"x":231844.85209999979,"y":2717600.1832999997}},{"attributes":{"OBJECTID":18155,"LANDMARKID":"1000500000205","LANDMARKCO":"108","LANDMARKNA":"苗栗縣苗栗巿公所","LANDMARKAD":"1000501","ADDRESS":"苗栗縣苗栗市府前路76號","TEL":"037-331910","COUNTYNAME":"苗栗縣","TOWNNAME":"苗栗市","MARKTYPE":"991","Class":"1"},"geometry":{"x":231647.9327999996,"y":2717230.2978000008}},{"attributes":{"OBJECTID":18156,"LANDMARKID":"1000500000010","LANDMARKCO":"101","LANDMARKNA":"中央健康保險局北區分局","LANDMARKAD":"1000501","ADDRESS":"苗栗市中山路135號(苗栗縣政府衛生局)","TEL":"037-273995","COUNTYNAME":"苗栗縣","TOWNNAME":"苗栗市","MARKTYPE":"991","Class":"1"},"geometry":{"x":232124.9534,"y":2717830.1785000004}},{"attributes":{"OBJECTID":18157,"LANDMARKID":"1000500000039","LANDMARKCO":"103","LANDMARKNA":"苗栗縣政府文化局","LANDMARKAD":"1000501","ADDRESS":"苗栗縣苗栗市自治路50號","TEL":"037-352961","COUNTYNAME":"苗栗縣","TOWNNAME":"苗栗市","MARKTYPE":"991","Class":"1"},"geometry":{"x":231812.65649999958,"y":2717750.1414000001}},{"attributes":{"OBJECTID":18158,"LANDMARKID":"1000500000040","LANDMARKCO":"103","LANDMARKNA":"苗栗縣苗栗市市民代表會","LANDMARKAD":"1000501","ADDRESS":"苗栗縣苗栗市府前路82號","TEL":"037-321841","COUNTYNAME":"苗栗縣","TOWNNAME":"苗栗市","MARKTYPE":"991","Class":"1"},"geometry":{"x":231713.93300000019,"y":2717230.0129000004}},{"attributes":{"OBJECTID":18159,"LANDMARKID":"1000500000065","LANDMARKCO":"105","LANDMARKNA":"苗栗縣政府地政局","LANDMARKAD":"1000501","ADDRESS":"苗栗縣苗栗市嘉新里4鄰經國路4段825號","TEL":"037-334803","COUNTYNAME":"苗栗縣","TOWNNAME":"苗栗市","MARKTYPE":"991","Class":"1"},"geometry":{"x":231840.85209999979,"y":2717600.1780999992}},{"attributes":{"OBJECTID":18160,"LANDMARKID":"1000500000066","LANDMARKCO":"105","LANDMARKNA":"苗栗縣苗栗地政事務所","LANDMARKAD":"1000501","ADDRESS":"苗栗縣苗栗市大埔街38號","TEL":"037-331200","COUNTYNAME":"苗栗縣","TOWNNAME":"苗栗市","MARKTYPE":"991","Class":"1"},"geometry":{"x":231578.87990000006,"y":2717270.2069000006}},{"attributes":{"OBJECTID":18161,"LANDMARKID":"1000500000034","LANDMARKCO":"103","LANDMARKNA":"苗栗縣選舉委員會","LANDMARKAD":"1000501","ADDRESS":"苗栗縣苗栗市豐年路15號","TEL":"037-274228","COUNTYNAME":"苗栗縣","TOWNNAME":"苗栗市","MARKTYPE":"991","Class":"1"},"geometry":{"x":231851.72219999973,"y":2717700.1921999995}},{"attributes":{"OBJECTID":18162,"LANDMARKID":"1000500000011","LANDMARKCO":"101","LANDMARKNA":"新竹區監理所苗栗監理站","LANDMARKAD":"1000501","ADDRESS":"苗栗縣苗栗市福麗里福麗98號","TEL":"037-331806","COUNTYNAME":"苗栗縣","TOWNNAME":"苗栗市","MARKTYPE":"991","Class":"1"},"geometry":{"x":230647.91069999989,"y":2717860.0945999995}},{"attributes":{"OBJECTID":18163,"LANDMARKID":"1000500000012","LANDMARKCO":"101","LANDMARKNA":"台灣苗栗看守所","LANDMARKAD":"1000501","ADDRESS":"苗栗縣苗栗市新英里南勢100號","TEL":"037-361510","COUNTYNAME":"苗栗縣","TOWNNAME":"苗栗市","MARKTYPE":"991","Class":"1"},"geometry":{"x":229023.93319999985,"y":2712920.2095999997}},{"attributes":{"OBJECTID":18164,"LANDMARKID":"1000500000103","LANDMARKCO":"107","LANDMARKNA":"苗栗縣警察局南苗派出所","LANDMARKAD":"1000501","ADDRESS":"苗栗縣苗栗市信義街60號","TEL":"037-320367","COUNTYNAME":"苗栗縣","TOWNNAME":"苗栗市","MARKTYPE":"991","Class":"1"},"geometry":{"x":231628.87640000042,"y":2716350.2742999997}},{"attributes":{"OBJECTID":18165,"LANDMARKID":"1000500000417","LANDMARKCO":"205","LANDMARKNA":"苗栗鐵道文物展示館","LANDMARKAD":"1000501","ADDRESS":"苗栗縣苗栗市鐵路一村1號","TEL":"037-320157","COUNTYNAME":"苗栗縣","TOWNNAME":"苗栗市","MARKTYPE":"992","Class":"2"},"geometry":{"x":231952.85570000019,"y":2717921.6559999995}},{"attributes":{"OBJECTID":18166,"LANDMARKID":"1000500000404","LANDMARKCO":"204","LANDMARKNA":"苗栗縣立圖書館苗栗分館","LANDMARKAD":"1000501","ADDRESS":"苗栗縣苗栗市高苗里大同路82號","TEL":" ","COUNTYNAME":"苗栗縣","TOWNNAME":"苗栗市","MARKTYPE":"992","Class":"2"},"geometry":{"x":231274.75040000025,"y":2716207.3637000006}},{"attributes":{"OBJECTID":18167,"LANDMARKID":"1000500000405","LANDMARKCO":"204","LANDMARKNA":"苗栗縣政府文化局圖書館","LANDMARKAD":"1000501","ADDRESS":"苗栗縣苗栗市自治路50號","TEL":" ","COUNTYNAME":"苗栗縣","TOWNNAME":"苗栗市","MARKTYPE":"992","Class":"2"},"geometry":{"x":231742.39869999979,"y":2717705.5296999998}},{"attributes":{"OBJECTID":18168,"LANDMARKID":"1000500000406","LANDMARKCO":"204","LANDMARKNA":"苗栗縣苗栗市立圖書館北苗圖書室","LANDMARKAD":"1000501","ADDRESS":"苗栗縣苗栗市福星里中華路479號3樓","TEL":" ","COUNTYNAME":"苗栗縣","TOWNNAME":"苗栗市","MARKTYPE":"992","Class":"2"},"geometry":{"x":232210.09669999965,"y":2718277.2321000006}},{"attributes":{"OBJECTID":18169,"LANDMARKID":"1000500000221","LANDMARKCO":"202","LANDMARKNA":"國立苗栗高中","LANDMARKAD":"1000501","ADDRESS":"苗栗縣苗栗市至公路183號","TEL":"037-320072","COUNTYNAME":"苗栗縣","TOWNNAME":"苗栗市","MARKTYPE":"992","Class":"2"},"geometry":{"x":231362.89549999963,"y":2716950.2978000008}},{"attributes":{"OBJECTID":18170,"LANDMARKID":"1000500000222","LANDMARKCO":"202","LANDMARKNA":"私立建台高中","LANDMARKAD":"1000501","ADDRESS":"苗栗縣苗栗市福麗里至公路251號","TEL":"037-351493","COUNTYNAME":"苗栗縣","TOWNNAME":"苗栗市","MARKTYPE":"992","Class":"2"},"geometry":{"x":231235.76059999969,"y":2717050.1275999993}},{"attributes":{"OBJECTID":18171,"LANDMARKID":"1000500000223","LANDMARKCO":"202","LANDMARKNA":"國立苗栗農工","LANDMARKAD":"1000501","ADDRESS":"苗栗縣苗栗市玉維路286號","TEL":"037-329281","COUNTYNAME":"苗栗縣","TOWNNAME":"苗栗市","MARKTYPE":"992","Class":"2"},"geometry":{"x":233032.8685999997,"y":2716670.2499000002}},{"attributes":{"OBJECTID":18172,"LANDMARKID":"1000500000224","LANDMARKCO":"202","LANDMARKNA":"私立育民工家","LANDMARKAD":"1000501","ADDRESS":"苗栗縣苗栗市水源里育民街37號","TEL":"037-353888","COUNTYNAME":"苗栗縣","TOWNNAME":"苗栗市","MARKTYPE":"992","Class":"2"},"geometry":{"x":231132.77159999963,"y":2714580.3757000007}},{"attributes":{"OBJECTID":18173,"LANDMARKID":"1000500000225","LANDMARKCO":"202","LANDMARKNA":"私立建台高中附設國中部","LANDMARKAD":"1000501","ADDRESS":"苗栗縣苗栗市福麗里至公路251號","TEL":"037-351493","COUNTYNAME":"苗栗縣","TOWNNAME":"苗栗市","MARKTYPE":"992","Class":"2"},"geometry":{"x":231249.78760000039,"y":2717030.1464000009}},{"attributes":{"OBJECTID":18174,"LANDMARKID":"1000500000283","LANDMARKCO":"203","LANDMARKNA":"縣立大倫國中","LANDMARKAD":"1000501","ADDRESS":"苗栗縣苗栗市玉清里育英街82號","TEL":"037-266312","COUNTYNAME":"苗栗縣","TOWNNAME":"苗栗市","MARKTYPE":"992","Class":"2"},"geometry":{"x":232886.62320000026,"y":2718100.0697000008}},{"attributes":{"OBJECTID":18175,"LANDMARKID":"1000500000284","LANDMARKCO":"203","LANDMARKNA":"縣立大同國小","LANDMARKAD":"1000501","ADDRESS":"苗栗縣苗栗市高苗里大同路80號","TEL":"037-320068","COUNTYNAME":"苗栗縣","TOWNNAME":"苗栗市","MARKTYPE":"992","Class":"2"},"geometry":{"x":231241.90130000003,"y":2716330.1369000003}},{"attributes":{"OBJECTID":18176,"LANDMARKID":"1000500000285","LANDMARKCO":"203","LANDMARKNA":"縣立建功國小","LANDMARKAD":"1000501","ADDRESS":"苗栗縣苗栗市中正路241號","TEL":"037-320043","COUNTYNAME":"苗栗縣","TOWNNAME":"苗栗市","MARKTYPE":"992","Class":"2"},"geometry":{"x":232229.94379999954,"y":2717530.3129999992}},{"attributes":{"OBJECTID":18177,"LANDMARKID":"1000500000286","LANDMARKCO":"203","LANDMARKNA":"縣立福星國小","LANDMARKAD":"1000501","ADDRESS":"苗栗縣苗栗市福星里中華東街62號","TEL":"037-264724","COUNTYNAME":"苗栗縣","TOWNNAME":"苗栗市","MARKTYPE":"992","Class":"2"},"geometry":{"x":233755.73759999964,"y":2718940.0945999995}},{"attributes":{"OBJECTID":18178,"LANDMARKID":"1000500000287","LANDMARKCO":"203","LANDMARKNA":"縣立僑育國小","LANDMARKAD":"1000501","ADDRESS":"苗栗縣苗栗市僑育街131號","TEL":"037-320414","COUNTYNAME":"苗栗縣","TOWNNAME":"苗栗市","MARKTYPE":"992","Class":"2"},"geometry":{"x":231964.64869999979,"y":2716220.341}},{"attributes":{"OBJECTID":18179,"LANDMARKID":"1000500000288","LANDMARKCO":"203","LANDMARKNA":"縣立大倫國中分校","LANDMARKAD":"1000501","ADDRESS":"苗栗縣苗栗市國華路","TEL":" ","COUNTYNAME":"苗栗縣","TOWNNAME":"苗栗市","MARKTYPE":"992","Class":"2"},"geometry":{"x":232044.96999999974,"y":2718740.0743000004}},{"attributes":{"OBJECTID":18180,"LANDMARKID":"1000500000220","LANDMARKCO":"202","LANDMARKNA":"國立苗栗高商","LANDMARKAD":"1000501","ADDRESS":"苗栗縣苗栗市電台街7號","TEL":"037-356001","COUNTYNAME":"苗栗縣","TOWNNAME":"苗栗市","MARKTYPE":"992","Class":"2"},"geometry":{"x":231228.65610000025,"y":2716820.1185999997}},{"attributes":{"OBJECTID":18181,"LANDMARKID":"1000500000289","LANDMARKCO":"203","LANDMARKNA":"縣立苗栗國中","LANDMARKAD":"1000501","ADDRESS":"苗栗縣苗栗市高苗里木鐸山1號","TEL":"037-320226","COUNTYNAME":"苗栗縣","TOWNNAME":"苗栗市","MARKTYPE":"992","Class":"2"},"geometry":{"x":231011.85969999991,"y":2716360.2086999994}},{"attributes":{"OBJECTID":18182,"LANDMARKID":"1000500000290","LANDMARKCO":"203","LANDMARKNA":"縣立明仁國中","LANDMARKAD":"1000501","ADDRESS":"苗栗縣苗栗市福麗里電台10號","TEL":"037-32126","COUNTYNAME":"苗栗縣","TOWNNAME":"苗栗市","MARKTYPE":"992","Class":"2"},"geometry":{"x":231007.96210000012,"y":2716900.2022999991}},{"attributes":{"OBJECTID":18183,"LANDMARKID":"1000500000291","LANDMARKCO":"203","LANDMARKNA":"縣立文華國小","LANDMARKAD":"1000501","ADDRESS":"苗栗縣苗栗市文山里25鄰農場北13號","TEL":"037-354465","COUNTYNAME":"苗栗縣","TOWNNAME":"苗栗市","MARKTYPE":"992","Class":"2"},"geometry":{"x":231511.74089999963,"y":2717990.1171000004}},{"attributes":{"OBJECTID":18184,"LANDMARKID":"1000500000292","LANDMARKCO":"203","LANDMARKNA":"縣立文山國小","LANDMARKAD":"1000501","ADDRESS":"苗栗縣苗栗市文山里文山41號","TEL":"037-320406","COUNTYNAME":"苗栗縣","TOWNNAME":"苗栗市","MARKTYPE":"992","Class":"2"},"geometry":{"x":231053.69469999988,"y":2718020.2628000006}},{"attributes":{"OBJECTID":18185,"LANDMARKID":"1000500000293","LANDMARKCO":"203","LANDMARKNA":"縣立啟文國小","LANDMARKAD":"1000501","ADDRESS":"苗栗縣苗栗市福星里啟文巷35號","TEL":"037-264119","COUNTYNAME":"苗栗縣","TOWNNAME":"苗栗市","MARKTYPE":"992","Class":"2"},"geometry":{"x":232498.82249999978,"y":2718550.2912000008}},{"attributes":{"OBJECTID":18186,"LANDMARKID":"1000500000294","LANDMARKCO":"203","LANDMARKNA":"縣立新英國小","LANDMARKAD":"1000501","ADDRESS":"苗栗縣苗栗市新英里新勝8號","TEL":"037-320715","COUNTYNAME":"苗栗縣","TOWNNAME":"苗栗市","MARKTYPE":"992","Class":"2"},"geometry":{"x":229565.69649999961,"y":2713390.1727000009}},{"attributes":{"OBJECTID":18187,"LANDMARKID":"1000500000208","LANDMARKCO":"201","LANDMARKNA":"國立聯合大學","LANDMARKAD":"1000501","ADDRESS":"苗栗縣苗栗市恭敬里聯大1號","TEL":"037-381000","COUNTYNAME":"苗栗縣","TOWNNAME":"苗栗市","MARKTYPE":"992","Class":"2"},"geometry":{"x":231036.96439999994,"y":2715360.2445}},{"attributes":{"OBJECTID":18188,"LANDMARKID":"1000500000316","LANDMARKCO":"203","LANDMARKNA":"國立苗栗特殊教育學校","LANDMARKAD":"1000501","ADDRESS":"苗栗市經國路四段825號","TEL":"037-266498","COUNTYNAME":"苗栗縣","TOWNNAME":"苗栗市","MARKTYPE":"992","Class":"2"},"geometry":{"x":232837.86950000003,"y":2720360.3551000003}},{"attributes":{"OBJECTID":18189,"LANDMARKID":"1000500000532","LANDMARKCO":"308","LANDMARKNA":"台72-公館交流道-東行","LANDMARKAD":"1000501","ADDRESS":" ","TEL":" ","COUNTYNAME":"苗栗縣","TOWNNAME":"苗栗市","MARKTYPE":"993","Class":"308"},"geometry":{"x":231159.45660000015,"y":2714006.2820999995}},{"attributes":{"OBJECTID":18190,"LANDMARKID":"1000500000444","LANDMARKCO":"302","LANDMARKNA":"國光汽車客運苗栗站","LANDMARKAD":"1000501","ADDRESS":"苗栗縣苗栗市為公路8號","TEL":" ","COUNTYNAME":"苗栗縣","TOWNNAME":"苗栗市","MARKTYPE":"993","Class":"302"},"geometry":{"x":232152.85560000036,"y":2718145.8005999997}},{"attributes":{"OBJECTID":18191,"LANDMARKID":"1000500000445","LANDMARKCO":"302","LANDMARKNA":"苗栗汽車客運苗栗站","LANDMARKAD":"1000501","ADDRESS":"苗栗縣苗栗市苗栗段622之11地號","TEL":" ","COUNTYNAME":"苗栗縣","TOWNNAME":"苗栗市","MARKTYPE":"993","Class":"302"},"geometry":{"x":231420.09200000018,"y":2716175.1164999995}},{"attributes":{"OBJECTID":18192,"LANDMARKID":"1000500000446","LANDMARKCO":"302","LANDMARKNA":"新竹汽車客運苗栗站","LANDMARKAD":"1000501","ADDRESS":"苗栗縣苗栗市中正路905號","TEL":" ","COUNTYNAME":"苗栗縣","TOWNNAME":"苗栗市","MARKTYPE":"993","Class":"302"},"geometry":{"x":231382.32079999987,"y":2716140.7726000007}},{"attributes":{"OBJECTID":18193,"LANDMARKID":"1000500000447","LANDMARKCO":"302","LANDMARKNA":"統聯汽車客運苗栗站","LANDMARKAD":"1000501","ADDRESS":"苗栗縣苗栗市站前路4號","TEL":" ","COUNTYNAME":"苗栗縣","TOWNNAME":"苗栗市","MARKTYPE":"993","Class":"302"},"geometry":{"x":232080.17420000024,"y":2718137.2335999999}},{"attributes":{"OBJECTID":18194,"LANDMARKID":"1000500000458","LANDMARKCO":"303","LANDMARKNA":"貓狸山公園停車場","LANDMARKAD":"1000501","ADDRESS":"苗栗縣苗栗市公園路","TEL":" ","COUNTYNAME":"苗栗縣","TOWNNAME":"苗栗市","MARKTYPE":"993","Class":"303"},"geometry":{"x":230644.18690000009,"y":2716488.2037000004}},{"attributes":{"OBJECTID":18195,"LANDMARKID":"1000500000459","LANDMARKCO":"303","LANDMARKNA":"苗栗火車站停車場","LANDMARKAD":"1000501","ADDRESS":"苗栗縣苗栗市三東巷","TEL":" ","COUNTYNAME":"苗栗縣","TOWNNAME":"苗栗市","MARKTYPE":"993","Class":"303"},"geometry":{"x":232070.64919999987,"y":2718382.0549999997}},{"attributes":{"OBJECTID":18196,"LANDMARKID":"1000500000434","LANDMARKCO":"301","LANDMARKNA":"南勢火車站","LANDMARKAD":"1000501","ADDRESS":"苗栗縣苗栗市新英里南勢39號","TEL":" ","COUNTYNAME":"苗栗縣","TOWNNAME":"苗栗市","MARKTYPE":"993","Class":"301"},"geometry":{"x":228862.41009999998,"y":2712905.5374999996}},{"attributes":{"OBJECTID":18197,"LANDMARKID":"1000500000435","LANDMARKCO":"301","LANDMARKNA":"苗栗火車站","LANDMARKAD":"1000501","ADDRESS":"苗栗縣苗栗市為公路1號","TEL":"037-260031","COUNTYNAME":"苗栗縣","TOWNNAME":"苗栗市","MARKTYPE":"993","Class":"301"},"geometry":{"x":232028.0876000002,"y":2718172.6845999993}},{"attributes":{"OBJECTID":18198,"LANDMARKID":"1000500000590","LANDMARKCO":"402","LANDMARKNA":"中華電信-苗栗府前特約服務中心","LANDMARKAD":"1000501","ADDRESS":"苗栗市府前路162號","TEL":"037-361717","COUNTYNAME":"苗栗縣","TOWNNAME":"苗栗市","MARKTYPE":"994","Class":"4"},"geometry":{"x":231496.51159999985,"y":2717022.1587000005}},{"attributes":{"OBJECTID":18199,"LANDMARKID":"1000500000591","LANDMARKCO":"402","LANDMARKNA":"中華電信-苗栗服務中心","LANDMARKAD":"1000501","ADDRESS":"苗栗縣苗栗市中正路560號","TEL":"(037)339-182","COUNTYNAME":"苗栗縣","TOWNNAME":"苗栗市","MARKTYPE":"994","Class":"4"},"geometry":{"x":231834.75119999982,"y":2716820.7656999994}},{"attributes":{"OBJECTID":18200,"LANDMARKID":"1000500000592","LANDMARKCO":"402","LANDMARKNA":"中華電信-苗栗中正特約服務中心","LANDMARKAD":"1000501","ADDRESS":"苗栗縣苗栗市中正路896號","TEL":"037-350028","COUNTYNAME":"苗栗縣","TOWNNAME":"苗栗市","MARKTYPE":"994","Class":"4"},"geometry":{"x":231354.06979999971,"y":2716126.8550000004}}]}