{"displayFieldName":"COUNTYNAME","fieldAliases":{"OBJECTID":"OBJECTID","LANDMARKID":"LANDMARKID","LANDMARKCO":"LANDMARKCO","LANDMARKNA":"LANDMARKNA","LANDMARKAD":"LANDMARKAD","ADDRESS":"ADDRESS","TEL":"TEL","COUNTYNAME":"COUNTYNAME","TOWNNAME":"TOWNNAME","MARKTYPE":"MARKTYPE","Class":"Class"},"geometryType":"esriGeometryPoint","spatialReference":{"wkid":4326},"fields":[{"name":"OBJECTID","type":"esriFieldTypeOID","alias":"OBJECTID"},{"name":"LANDMARKID","type":"esriFieldTypeString","alias":"LANDMARKID","length":15},{"name":"LANDMARKCO","type":"esriFieldTypeString","alias":"LANDMARKCO","length":15},{"name":"LANDMARKNA","type":"esriFieldTypeString","alias":"LANDMARKNA","length":50},{"name":"LANDMARKAD","type":"esriFieldTypeString","alias":"LANDMARKAD","length":15},{"name":"ADDRESS","type":"esriFieldTypeString","alias":"ADDRESS","length":56},{"name":"TEL","type":"esriFieldTypeString","alias":"TEL","length":36},{"name":"COUNTYNAME","type":"esriFieldTypeString","alias":"COUNTYNAME","length":15},{"name":"TOWNNAME","type":"esriFieldTypeString","alias":"TOWNNAME","length":13},{"name":"MARKTYPE","type":"esriFieldTypeString","alias":"MARKTYPE","length":12},{"name":"Class","type":"esriFieldTypeString","alias":"Class","length":5}],"features":[{"attributes":{"OBJECTID":12201,"LANDMARKID":"1000600000928","LANDMARKCO":"405","LANDMARKNA":"中油加油站-大甲站(中油直營)","LANDMARKAD":"1000603","ADDRESS":"台中市大甲區頂店里中山路一段1120號","TEL":"04-26872314","COUNTYNAME":"台中市","TOWNNAME":"大甲區","MARKTYPE":"994","Class":"4"},"geometry":{"x":120.63166700287726,"y":24.35490566037517}},{"attributes":{"OBJECTID":12202,"LANDMARKID":"1000600000929","LANDMARKCO":"405","LANDMARKNA":"中油加油站-大甲日南站(中油直營)","LANDMARKAD":"1000603","ADDRESS":"台中市大甲區經國路1666號","TEL":"04-26871037","COUNTYNAME":"台中市","TOWNNAME":"大甲區","MARKTYPE":"994","Class":"4"},"geometry":{"x":120.642642679242,"y":24.366375927793818}},{"attributes":{"OBJECTID":12203,"LANDMARKID":"1000600000930","LANDMARKCO":"405","LANDMARKNA":"中油加油站-建利站","LANDMARKAD":"1000603","ADDRESS":"台中市大甲區奉化里經國路921號","TEL":"04-26801261","COUNTYNAME":"台中市","TOWNNAME":"大甲區","MARKTYPE":"994","Class":"4"},"geometry":{"x":120.62063501520254,"y":24.356320866117482}},{"attributes":{"OBJECTID":12204,"LANDMARKID":"1000600000931","LANDMARKCO":"405","LANDMARKNA":"中油加油站-鐵砧山站","LANDMARKAD":"1000603","ADDRESS":"台中市大甲區經國路1600號","TEL":"04-26762943","COUNTYNAME":"台中市","TOWNNAME":"大甲區","MARKTYPE":"994","Class":"4"},"geometry":{"x":120.63842360625621,"y":24.362610362472804}},{"attributes":{"OBJECTID":12205,"LANDMARKID":"1000600000932","LANDMARKCO":"405","LANDMARKNA":"中油加油站-幼獅站","LANDMARKAD":"1000603","ADDRESS":"台中市大甲區龍泉里中山路2段847號","TEL":"04-26820701","COUNTYNAME":"台中市","TOWNNAME":"大甲區","MARKTYPE":"994","Class":"4"},"geometry":{"x":120.64833240419235,"y":24.394922123980201}},{"attributes":{"OBJECTID":12206,"LANDMARKID":"1000600000933","LANDMARKCO":"405","LANDMARKNA":"中油加油站-順天站","LANDMARKAD":"1000603","ADDRESS":"台中市大甲區新美里經國路97號","TEL":"04-26802301","COUNTYNAME":"台中市","TOWNNAME":"大甲區","MARKTYPE":"994","Class":"4"},"geometry":{"x":120.61735502847887,"y":24.341864745434886}},{"attributes":{"OBJECTID":12207,"LANDMARKID":"1000600000798","LANDMARKCO":"402","LANDMARKNA":"亞太行動寬頻電信-大甲順天加盟服務中心","LANDMARKAD":"1000603","ADDRESS":"台中市大甲區順天路155號","TEL":"04-26800982","COUNTYNAME":"台中市","TOWNNAME":"大甲區","MARKTYPE":"994","Class":"4"},"geometry":{"x":120.62219757394352,"y":24.345125621607924}},{"attributes":{"OBJECTID":12208,"LANDMARKID":"1000600000799","LANDMARKCO":"402","LANDMARKNA":"亞太行動寬頻電信-大甲光明加盟服務中心","LANDMARKAD":"1000603","ADDRESS":"台中市大甲區光明路5號之3","TEL":"04-26760982","COUNTYNAME":"台中市","TOWNNAME":"大甲區","MARKTYPE":"994","Class":"4"},"geometry":{"x":120.62537252062802,"y":24.343466198612902}},{"attributes":{"OBJECTID":12209,"LANDMARKID":"1000600000785","LANDMARKCO":"401","LANDMARKNA":"順安醫院","LANDMARKAD":"1000603","ADDRESS":"台中市大甲區光明路6號","TEL":"04-26862328","COUNTYNAME":"台中市","TOWNNAME":"大甲區","MARKTYPE":"994","Class":"4"},"geometry":{"x":120.62558741816613,"y":24.343792307392071}},{"attributes":{"OBJECTID":12210,"LANDMARKID":"1000600000786","LANDMARKCO":"401","LANDMARKNA":"李綜合醫院大甲分院","LANDMARKAD":"1000603","ADDRESS":"台中市大甲區平安里八德街2號","TEL":"04-26862288","COUNTYNAME":"台中市","TOWNNAME":"大甲區","MARKTYPE":"994","Class":"4"},"geometry":{"x":120.61825814705298,"y":24.350747009721871}},{"attributes":{"OBJECTID":12211,"LANDMARKID":"1000600000787","LANDMARKCO":"401","LANDMARKNA":"光田綜合醫院大甲分院","LANDMARKAD":"1000603","ADDRESS":"台中市大甲區經國路321號","TEL":"04-26885599","COUNTYNAME":"台中市","TOWNNAME":"大甲區","MARKTYPE":"994","Class":"4"},"geometry":{"x":120.61652211570041,"y":24.346573894359448}},{"attributes":{"OBJECTID":12212,"LANDMARKID":"1000600001300","LANDMARKCO":"507","LANDMARKNA":"大甲文昌祠","LANDMARKAD":"1000603","ADDRESS":"台中市大甲區孔門里文武路116號","TEL":" ","COUNTYNAME":"台中市","TOWNNAME":"大甲區","MARKTYPE":"995","Class":"5"},"geometry":{"x":120.62251994713861,"y":24.347640878461974}},{"attributes":{"OBJECTID":12213,"LANDMARKID":"1000600001301","LANDMARKCO":"507","LANDMARKNA":"林氏貞孝坊","LANDMARKAD":"1000603","ADDRESS":"台中市大甲區庄美里順天路119號","TEL":" ","COUNTYNAME":"台中市","TOWNNAME":"大甲區","MARKTYPE":"995","Class":"5"},"geometry":{"x":120.62180884048247,"y":24.344418313962613}},{"attributes":{"OBJECTID":12214,"LANDMARKID":"1000600001207","LANDMARKCO":"408","LANDMARKNA":"郵局-大甲郵局","LANDMARKAD":"1000603","ADDRESS":"台中市大甲區新政路1號","TEL":"(04)2687-2632","COUNTYNAME":"台中市","TOWNNAME":"大甲區","MARKTYPE":"994","Class":"4"},"geometry":{"x":120.62719790792647,"y":24.347556345788309}},{"attributes":{"OBJECTID":12215,"LANDMARKID":"1000600001208","LANDMARKCO":"408","LANDMARKNA":"郵局-大甲幼獅郵局","LANDMARKAD":"1000603","ADDRESS":"台中市大甲區幼獅路45號","TEL":"(04)2681-4009","COUNTYNAME":"台中市","TOWNNAME":"大甲區","MARKTYPE":"994","Class":"4"},"geometry":{"x":120.65208687642213,"y":24.40519294895579}},{"attributes":{"OBJECTID":12216,"LANDMARKID":"1000600001209","LANDMARKCO":"408","LANDMARKNA":"郵局-大甲庄美郵局","LANDMARKAD":"1000603","ADDRESS":"台中市大甲區經國路768號","TEL":"(04)2686-8931","COUNTYNAME":"台中市","TOWNNAME":"大甲區","MARKTYPE":"994","Class":"4"},"geometry":{"x":120.619208247706,"y":24.354769750619518}},{"attributes":{"OBJECTID":12217,"LANDMARKID":"1000600001210","LANDMARKCO":"408","LANDMARKNA":"郵局-大甲廟口郵局","LANDMARKAD":"1000603","ADDRESS":"台中市大甲區順天路159號","TEL":"(04)2687-3624","COUNTYNAME":"台中市","TOWNNAME":"大甲區","MARKTYPE":"994","Class":"4"},"geometry":{"x":120.62241438448368,"y":24.345326553702023}},{"attributes":{"OBJECTID":12218,"LANDMARKID":"1000600001211","LANDMARKCO":"408","LANDMARKNA":"郵局-大甲日南郵局","LANDMARKAD":"1000603","ADDRESS":"台中市大甲區中山路2段233號","TEL":"(04)2681-4259","COUNTYNAME":"台中市","TOWNNAME":"大甲區","MARKTYPE":"994","Class":"4"},"geometry":{"x":120.65513500010121,"y":24.381292458152362}},{"attributes":{"OBJECTID":12219,"LANDMARKID":"1000600001233","LANDMARKCO":"409","LANDMARKNA":"台中市大甲區農會","LANDMARKAD":"1000603","ADDRESS":"台中市大甲區文武路10號","TEL":"04-26863990-9","COUNTYNAME":"台中市","TOWNNAME":"大甲區","MARKTYPE":"994","Class":"4"},"geometry":{"x":120.62629314295062,"y":24.345825794183121}},{"attributes":{"OBJECTID":12220,"LANDMARKID":"1000600001144","LANDMARKCO":"406","LANDMARKNA":"永信運動公園","LANDMARKAD":"1000603","ADDRESS":"台中市大甲區","TEL":" ","COUNTYNAME":"台中市","TOWNNAME":"大甲區","MARKTYPE":"994","Class":"4"},"geometry":{"x":120.64796853134258,"y":24.360437600484968}},{"attributes":{"OBJECTID":12221,"LANDMARKID":"1000600001145","LANDMARKCO":"406","LANDMARKNA":"成功公園","LANDMARKAD":"1000603","ADDRESS":"台中市大甲區","TEL":" ","COUNTYNAME":"台中市","TOWNNAME":"大甲區","MARKTYPE":"994","Class":"4"},"geometry":{"x":120.64748161594814,"y":24.359702615218293}},{"attributes":{"OBJECTID":12222,"LANDMARKID":"1000600000905","LANDMARKCO":"404","LANDMARKNA":"台灣省自來水大甲營運所","LANDMARKAD":"1000603","ADDRESS":"台中市大甲區東陽新村1號","TEL":" ","COUNTYNAME":"台中市","TOWNNAME":"大甲區","MARKTYPE":"994","Class":"4"},"geometry":{"x":120.62731889768496,"y":24.339856375099917}},{"attributes":{"OBJECTID":12223,"LANDMARKID":"1000600001149","LANDMARKCO":"407","LANDMARKNA":"三商百貨","LANDMARKAD":"1000603","ADDRESS":"台中市大甲區蔣公路170號","TEL":"04-26882034","COUNTYNAME":"台中市","TOWNNAME":"大甲區","MARKTYPE":"994","Class":"4"},"geometry":{"x":120.62965729700001,"y":24.344761020069583}},{"attributes":{"OBJECTID":12224,"LANDMARKID":"1000600000922","LANDMARKCO":"405","LANDMARKNA":"福懋加油站-三益站(台塑)","LANDMARKAD":"1000603","ADDRESS":"台中市大甲區中山路一段306號","TEL":"04-26762302","COUNTYNAME":"台中市","TOWNNAME":"大甲區","MARKTYPE":"994","Class":"4"},"geometry":{"x":120.61478096073306,"y":24.333346360452254}},{"attributes":{"OBJECTID":12225,"LANDMARKID":"1000600000923","LANDMARKCO":"405","LANDMARKNA":"福懋加油站-大甲站(台塑)","LANDMARKAD":"1000603","ADDRESS":"台中市大甲區中山路一段916號","TEL":"04-26867570","COUNTYNAME":"台中市","TOWNNAME":"大甲區","MARKTYPE":"994","Class":"4"},"geometry":{"x":120.62757521138944,"y":24.350611438685672}},{"attributes":{"OBJECTID":12226,"LANDMARKID":"1000600000924","LANDMARKCO":"405","LANDMARKNA":"福懋加油站-經國站(台塑)","LANDMARKAD":"1000603","ADDRESS":"台中市大甲區經國路1320號","TEL":"04-26802968","COUNTYNAME":"台中市","TOWNNAME":"大甲區","MARKTYPE":"994","Class":"4"},"geometry":{"x":120.63315259733891,"y":24.360554398744089}},{"attributes":{"OBJECTID":12227,"LANDMARKID":"1000600000925","LANDMARKCO":"405","LANDMARKNA":"台塑加油站-中南站(台塑)","LANDMARKAD":"1000603","ADDRESS":"台中市大甲區經國路2205號","TEL":"04-26820003","COUNTYNAME":"台中市","TOWNNAME":"大甲區","MARKTYPE":"994","Class":"4"},"geometry":{"x":120.65084925822569,"y":24.388201053598923}},{"attributes":{"OBJECTID":12228,"LANDMARKID":"1000600000926","LANDMARKCO":"405","LANDMARKNA":"台亞加油站-清水交流道站(台塑)","LANDMARKAD":"1000603","ADDRESS":"台中市大甲區中山路一段61號","TEL":"04-26711680","COUNTYNAME":"台中市","TOWNNAME":"大甲區","MARKTYPE":"994","Class":"4"},"geometry":{"x":120.60975508893333,"y":24.32595073638786}},{"attributes":{"OBJECTID":12229,"LANDMARKID":"1000600000080","LANDMARKCO":"103","LANDMARKNA":"台中市大甲區衛生所","LANDMARKAD":"1000603","ADDRESS":"台中市大甲區德興路81號","TEL":"04-26879142","COUNTYNAME":"台中市","TOWNNAME":"大甲區","MARKTYPE":"991","Class":"1"},"geometry":{"x":120.62727926884241,"y":24.349129435004659}},{"attributes":{"OBJECTID":12230,"LANDMARKID":"1000600000249","LANDMARKCO":"108","LANDMARKNA":"台中市大甲區公所","LANDMARKAD":"1000603","ADDRESS":"台中市大甲區民權路52號","TEL":"04-26872101","COUNTYNAME":"台中市","TOWNNAME":"大甲區","MARKTYPE":"991","Class":"1"},"geometry":{"x":120.6224763152739,"y":24.349147604863202}},{"attributes":{"OBJECTID":12231,"LANDMARKID":"1000600000001","LANDMARKCO":"101","LANDMARKNA":"工業局台中幼獅工業區管理中心","LANDMARKAD":"1000603","ADDRESS":"台中市大甲區日南里幼獅路36號","TEL":"04-26811676","COUNTYNAME":"台中市","TOWNNAME":"大甲區","MARKTYPE":"991","Class":"1"},"geometry":{"x":120.65170189022349,"y":24.404608715466697}},{"attributes":{"OBJECTID":12232,"LANDMARKID":"1000600000078","LANDMARKCO":"103","LANDMARKNA":"台中市婦女福利服務中心","LANDMARKAD":"1000603","ADDRESS":"台中市大甲區水源路169號","TEL":"04-26762655","COUNTYNAME":"台中市","TOWNNAME":"大甲區","MARKTYPE":"991","Class":"1"},"geometry":{"x":120.62691822908235,"y":24.341233931024977}},{"attributes":{"OBJECTID":12233,"LANDMARKID":"1000600000079","LANDMARKCO":"103","LANDMARKNA":"台中市大甲區鎮民代表會","LANDMARKAD":"1000603","ADDRESS":"台中市大甲區民權路52號5樓","TEL":"04-26860101","COUNTYNAME":"台中市","TOWNNAME":"大甲區","MARKTYPE":"991","Class":"1"},"geometry":{"x":120.6224763152739,"y":24.349147604863202}},{"attributes":{"OBJECTID":12234,"LANDMARKID":"1000600000214","LANDMARKCO":"107","LANDMARKNA":"台中市警察局大甲分局","LANDMARKAD":"1000603","ADDRESS":"台中市大甲區大甲里文武路1號","TEL":"04-26872039","COUNTYNAME":"台中市","TOWNNAME":"大甲區","MARKTYPE":"991","Class":"1"},"geometry":{"x":120.62657888777142,"y":24.345411345204568}},{"attributes":{"OBJECTID":12235,"LANDMARKID":"1000600000215","LANDMARKCO":"107","LANDMARKNA":"台中市警察局西岐派出所","LANDMARKAD":"1000603","ADDRESS":"台中市大甲區西岐里順帆路94號","TEL":"04-26811330","COUNTYNAME":"台中市","TOWNNAME":"大甲區","MARKTYPE":"991","Class":"1"},"geometry":{"x":120.62891230830004,"y":24.420089395904483}},{"attributes":{"OBJECTID":12236,"LANDMARKID":"1000600000216","LANDMARKCO":"107","LANDMARKNA":"台中市警察局大甲派出所","LANDMARKAD":"1000603","ADDRESS":"台中市大甲區大甲里文武路1號","TEL":"04-26872047","COUNTYNAME":"台中市","TOWNNAME":"大甲區","MARKTYPE":"991","Class":"1"},"geometry":{"x":120.62657888777142,"y":24.345411345204568}},{"attributes":{"OBJECTID":12237,"LANDMARKID":"1000600000099","LANDMARKCO":"105","LANDMARKNA":"台中市大甲地政事務所","LANDMARKAD":"1000603","ADDRESS":"台中市大甲區鎮政路38號","TEL":"04-26867126","COUNTYNAME":"台中市","TOWNNAME":"大甲區","MARKTYPE":"991","Class":"1"},"geometry":{"x":120.62548636327766,"y":24.345489297568385}},{"attributes":{"OBJECTID":12238,"LANDMARKID":"1000600000081","LANDMARKCO":"103","LANDMARKNA":"台中市大甲區立殯儀館","LANDMARKAD":"1000603","ADDRESS":"臺中縣大甲區頂店里中山路一段1158巷47號","TEL":"04-26876744","COUNTYNAME":"台中市","TOWNNAME":"大甲區","MARKTYPE":"991","Class":"1"},"geometry":{"x":120.63121567921172,"y":24.354288997427641}},{"attributes":{"OBJECTID":12239,"LANDMARKID":"1000600000082","LANDMARKCO":"103","LANDMARKNA":"台中市大甲區殯儀館","LANDMARKAD":"1000603","ADDRESS":"台中市大甲區中山路一段1158巷47號","TEL":"04-26876744","COUNTYNAME":"台中市","TOWNNAME":"大甲區","MARKTYPE":"991","Class":"1"},"geometry":{"x":120.63561476237628,"y":24.354807816400466}},{"attributes":{"OBJECTID":12240,"LANDMARKID":"1000600000217","LANDMARKCO":"107","LANDMARKNA":"台中市警察局日南派出所","LANDMARKAD":"1000603","ADDRESS":"台中市大甲區孟春里中山路二段165號","TEL":"04-26813700","COUNTYNAME":"台中市","TOWNNAME":"大甲區","MARKTYPE":"991","Class":"1"},"geometry":{"x":120.65525975726628,"y":24.380353243726542}},{"attributes":{"OBJECTID":12241,"LANDMARKID":"1000600000103","LANDMARKCO":"106","LANDMARKNA":"台中市大甲區戶政事務所","LANDMARKAD":"1000603","ADDRESS":"台中市大甲區大甲里13鄰中山路一段963之1號","TEL":"04-26876157","COUNTYNAME":"台中市","TOWNNAME":"大甲區","MARKTYPE":"991","Class":"1"},"geometry":{"x":120.62677016562159,"y":24.345161548929504}},{"attributes":{"OBJECTID":12242,"LANDMARKID":"1000600000212","LANDMARKCO":"107","LANDMARKNA":"台中市消防局大甲分隊","LANDMARKAD":"1000603","ADDRESS":"台中市大甲區中山路一段959號","TEL":"04-26872300","COUNTYNAME":"台中市","TOWNNAME":"大甲區","MARKTYPE":"991","Class":"1"},"geometry":{"x":120.62665296522819,"y":24.34498038986057}},{"attributes":{"OBJECTID":12243,"LANDMARKID":"1000600000213","LANDMARKCO":"107","LANDMARKNA":"台中市消防局幼獅分隊","LANDMARKAD":"1000603","ADDRESS":"台中市大甲區日南里幼二路32巷1號","TEL":"04-26810819","COUNTYNAME":"台中市","TOWNNAME":"大甲區","MARKTYPE":"991","Class":"1"},"geometry":{"x":120.64569015469168,"y":24.402991199185198}},{"attributes":{"OBJECTID":12244,"LANDMARKID":"1000600000560","LANDMARKCO":"205","LANDMARKNA":"大甲區瀾宮媽祖文物陳列館","LANDMARKAD":"1000603","ADDRESS":"台中市大甲區和平路223號4樓","TEL":"04-26763566","COUNTYNAME":"台中市","TOWNNAME":"大甲區","MARKTYPE":"992","Class":"2"},"geometry":{"x":120.62142790560101,"y":24.353878953563594}},{"attributes":{"OBJECTID":12245,"LANDMARKID":"1000600000551","LANDMARKCO":"204","LANDMARKNA":"台中市立圖書館大甲分館","LANDMARKAD":"1000603","ADDRESS":"台中市大甲區雁門路172號","TEL":" ","COUNTYNAME":"台中市","TOWNNAME":"大甲區","MARKTYPE":"992","Class":"2"},"geometry":{"x":120.62460034260721,"y":24.350894606184525}},{"attributes":{"OBJECTID":12246,"LANDMARKID":"1000600000369","LANDMARKCO":"203","LANDMARKNA":"縣立順天國中","LANDMARKAD":"1000603","ADDRESS":"台中市大甲區大安港路67號","TEL":"04-26864263","COUNTYNAME":"台中市","TOWNNAME":"大甲區","MARKTYPE":"992","Class":"2"},"geometry":{"x":120.61472645956704,"y":24.349914606523132}},{"attributes":{"OBJECTID":12247,"LANDMARKID":"1000600000370","LANDMARKCO":"203","LANDMARKNA":"縣立大甲國小","LANDMARKAD":"1000603","ADDRESS":"台中市大甲區文武里育德路233號","TEL":"04-26872048","COUNTYNAME":"台中市","TOWNNAME":"大甲區","MARKTYPE":"992","Class":"2"},"geometry":{"x":120.62571615746322,"y":24.351205814504013}},{"attributes":{"OBJECTID":12248,"LANDMARKID":"1000600000371","LANDMARKCO":"203","LANDMARKNA":"縣立華龍國小","LANDMARKAD":"1000603","ADDRESS":"台中市大甲區日南里工二路1號","TEL":"04-26811270","COUNTYNAME":"台中市","TOWNNAME":"大甲區","MARKTYPE":"992","Class":"2"},"geometry":{"x":120.64866829173964,"y":24.406068437358808}},{"attributes":{"OBJECTID":12249,"LANDMARKID":"1000600000304","LANDMARKCO":"202","LANDMARKNA":"私立致用高中","LANDMARKAD":"1000603","ADDRESS":"台中市大甲區東陽新村龍潭路71號","TEL":"04-26872354","COUNTYNAME":"台中市","TOWNNAME":"大甲區","MARKTYPE":"992","Class":"2"},"geometry":{"x":120.62424084937885,"y":24.341579201896558}},{"attributes":{"OBJECTID":12250,"LANDMARKID":"1000600000305","LANDMARKCO":"202","LANDMARKNA":"國立大甲高工","LANDMARKAD":"1000603","ADDRESS":"台中市大甲區頂店里開元路71號","TEL":"04-26874132","COUNTYNAME":"台中市","TOWNNAME":"大甲區","MARKTYPE":"992","Class":"2"},"geometry":{"x":120.64502247655746,"y":24.350381676287753}},{"attributes":{"OBJECTID":12251,"LANDMARKID":"1000600000359","LANDMARKCO":"203","LANDMARKNA":"縣立大甲國中","LANDMARKAD":"1000603","ADDRESS":"台中市大甲區育英路186號","TEL":"04-26862042","COUNTYNAME":"台中市","TOWNNAME":"大甲區","MARKTYPE":"992","Class":"2"},"geometry":{"x":120.62294739192963,"y":24.353077385453592}},{"attributes":{"OBJECTID":12252,"LANDMARKID":"1000600000360","LANDMARKCO":"203","LANDMARKNA":"縣立文武國小","LANDMARKAD":"1000603","ADDRESS":"台中市大甲區武陵里文曲路61號","TEL":"04-26710928","COUNTYNAME":"台中市","TOWNNAME":"大甲區","MARKTYPE":"992","Class":"2"},"geometry":{"x":120.60087742580217,"y":24.336292349890073}},{"attributes":{"OBJECTID":12253,"LANDMARKID":"1000600000361","LANDMARKCO":"203","LANDMARKNA":"縣立文昌國小","LANDMARKAD":"1000603","ADDRESS":"台中市大甲區育德路113號","TEL":"04-26872076","COUNTYNAME":"台中市","TOWNNAME":"大甲區","MARKTYPE":"992","Class":"2"},"geometry":{"x":120.62406772788493,"y":24.347943172481756}},{"attributes":{"OBJECTID":12254,"LANDMARKID":"1000600000362","LANDMARKCO":"203","LANDMARKNA":"縣立順天國小","LANDMARKAD":"1000603","ADDRESS":"台中市大甲區永順街115號","TEL":"04-26872040","COUNTYNAME":"台中市","TOWNNAME":"大甲區","MARKTYPE":"992","Class":"2"},"geometry":{"x":120.61870330954949,"y":24.344132279873374}},{"attributes":{"OBJECTID":12255,"LANDMARKID":"1000600000363","LANDMARKCO":"203","LANDMARKNA":"縣立德化國小","LANDMARKAD":"1000603","ADDRESS":"台中市大甲區和平路290號","TEL":"04-26874602","COUNTYNAME":"台中市","TOWNNAME":"大甲區","MARKTYPE":"992","Class":"2"},"geometry":{"x":120.62467199684934,"y":24.362001568187491}},{"attributes":{"OBJECTID":12256,"LANDMARKID":"1000600000364","LANDMARKCO":"203","LANDMARKNA":"縣立東明國小","LANDMARKAD":"1000603","ADDRESS":"台中市大甲區幸福里東明路93號","TEL":"04-26814404","COUNTYNAME":"台中市","TOWNNAME":"大甲區","MARKTYPE":"992","Class":"2"},"geometry":{"x":120.68009506465715,"y":24.375106708062852}},{"attributes":{"OBJECTID":12257,"LANDMARKID":"1000600000365","LANDMARKCO":"203","LANDMARKNA":"縣立東陽國小","LANDMARKAD":"1000603","ADDRESS":"台中市大甲區中山里東陽新村72號","TEL":"04-26876823","COUNTYNAME":"台中市","TOWNNAME":"大甲區","MARKTYPE":"992","Class":"2"},"geometry":{"x":120.62890198974769,"y":24.341039625219892}},{"attributes":{"OBJECTID":12258,"LANDMARKID":"1000600000366","LANDMARKCO":"203","LANDMARKNA":"縣立西岐國小","LANDMARKAD":"1000603","ADDRESS":"台中市大甲區西岐里順帆路96號","TEL":"04-26811747","COUNTYNAME":"台中市","TOWNNAME":"大甲區","MARKTYPE":"992","Class":"2"},"geometry":{"x":120.62901536591987,"y":24.4208972758817}},{"attributes":{"OBJECTID":12259,"LANDMARKID":"1000600000303","LANDMARKCO":"202","LANDMARKNA":"國立大甲高中","LANDMARKAD":"1000603","ADDRESS":"台中市大甲區中山路一段720號","TEL":"04-26877165","COUNTYNAME":"台中市","TOWNNAME":"大甲區","MARKTYPE":"992","Class":"2"},"geometry":{"x":120.62266877048361,"y":24.34099479952074}},{"attributes":{"OBJECTID":12260,"LANDMARKID":"1000600000367","LANDMARKCO":"203","LANDMARKNA":"縣立日南國中","LANDMARKAD":"1000603","ADDRESS":"台中市大甲區中山路二段69-11號","TEL":"04-26813721","COUNTYNAME":"台中市","TOWNNAME":"大甲區","MARKTYPE":"992","Class":"2"},"geometry":{"x":120.65169003762303,"y":24.377363730501077}},{"attributes":{"OBJECTID":12261,"LANDMARKID":"1000600000368","LANDMARKCO":"203","LANDMARKNA":"縣立日南國小","LANDMARKAD":"1000603","ADDRESS":"台中市大甲區中山路二段568號","TEL":"04-26813704","COUNTYNAME":"台中市","TOWNNAME":"大甲區","MARKTYPE":"992","Class":"2"},"geometry":{"x":120.65488949159439,"y":24.390554338766815}},{"attributes":{"OBJECTID":12262,"LANDMARKID":"1000600000679","LANDMARKCO":"305","LANDMARKNA":"松柏漁港","LANDMARKAD":"1000603","ADDRESS":"台中市大甲區","TEL":" ","COUNTYNAME":"台中市","TOWNNAME":"大甲區","MARKTYPE":"993","Class":"305"},"geometry":{"x":120.61587219669717,"y":24.431246455790259}},{"attributes":{"OBJECTID":12263,"LANDMARKID":"1000600000614","LANDMARKCO":"303","LANDMARKNA":"匠師的故鄉停車場","LANDMARKAD":"1000603","ADDRESS":"台中市大甲區順帆路121巷16之5號","TEL":"04-26816186","COUNTYNAME":"台中市","TOWNNAME":"大甲區","MARKTYPE":"993","Class":"303"},"geometry":{"x":120.61743797835983,"y":24.421184443398612}},{"attributes":{"OBJECTID":12264,"LANDMARKID":"1000600000718","LANDMARKCO":"308","LANDMARKNA":"大甲收費站","LANDMARKAD":"1000603","ADDRESS":" ","TEL":" ","COUNTYNAME":"台中市","TOWNNAME":"大甲區","MARKTYPE":"993","Class":"308"},"geometry":{"x":120.66612321603812,"y":24.380150321498281}},{"attributes":{"OBJECTID":12265,"LANDMARKID":"1000600000719","LANDMARKCO":"308","LANDMARKNA":"台61-中1線平交匝道-南下","LANDMARKAD":"1000603","ADDRESS":" ","TEL":" ","COUNTYNAME":"台中市","TOWNNAME":"大甲區","MARKTYPE":"993","Class":"308"},"geometry":{"x":120.62360748198043,"y":24.426060499308381}},{"attributes":{"OBJECTID":12266,"LANDMARKID":"1000600000720","LANDMARKCO":"308","LANDMARKNA":"台61-中3線平交匝道-北上","LANDMARKAD":"1000603","ADDRESS":" ","TEL":" ","COUNTYNAME":"台中市","TOWNNAME":"大甲區","MARKTYPE":"993","Class":"308"},"geometry":{"x":120.61676031458094,"y":24.413377444668729}},{"attributes":{"OBJECTID":12267,"LANDMARKID":"1000600000721","LANDMARKCO":"308","LANDMARKNA":"台61-中3線平交匝道-南下","LANDMARKAD":"1000603","ADDRESS":" ","TEL":" ","COUNTYNAME":"台中市","TOWNNAME":"大甲區","MARKTYPE":"993","Class":"308"},"geometry":{"x":120.61405973683597,"y":24.406512361862486}},{"attributes":{"OBJECTID":12268,"LANDMARKID":"1000600000599","LANDMARKCO":"302","LANDMARKNA":"巨業汽車客運大甲站","LANDMARKAD":"1000603","ADDRESS":"台中市大甲區文武路3號","TEL":" ","COUNTYNAME":"台中市","TOWNNAME":"大甲區","MARKTYPE":"993","Class":"302"},"geometry":{"x":120.6263004080342,"y":24.345609930409147}},{"attributes":{"OBJECTID":12269,"LANDMARKID":"1000600000600","LANDMARKCO":"302","LANDMARKNA":"豐原汽車客運大甲站","LANDMARKAD":"1000603","ADDRESS":"台中市大甲區光明路12之1號","TEL":" ","COUNTYNAME":"台中市","TOWNNAME":"大甲區","MARKTYPE":"993","Class":"302"},"geometry":{"x":120.62507074075332,"y":24.343822563502989}},{"attributes":{"OBJECTID":12270,"LANDMARKID":"1000600000601","LANDMARKCO":"302","LANDMARKNA":"豐原汽車客運大甲小修班","LANDMARKAD":"1000603","ADDRESS":"台中市大甲區光明路12之1號","TEL":" ","COUNTYNAME":"台中市","TOWNNAME":"大甲區","MARKTYPE":"993","Class":"302"},"geometry":{"x":120.6264135877185,"y":24.344030174582986}},{"attributes":{"OBJECTID":12271,"LANDMARKID":"1000600000612","LANDMARKCO":"303","LANDMARKNA":"台中幼獅停車場","LANDMARKAD":"1000603","ADDRESS":"台中市大甲區","TEL":" ","COUNTYNAME":"台中市","TOWNNAME":"大甲區","MARKTYPE":"993","Class":"303"},"geometry":{"x":120.64745006288111,"y":24.403409822845141}},{"attributes":{"OBJECTID":12272,"LANDMARKID":"1000600000613","LANDMARKCO":"303","LANDMARKNA":"鐵砧山風景區停車場","LANDMARKAD":"1000603","ADDRESS":"台中市大甲區","TEL":" ","COUNTYNAME":"台中市","TOWNNAME":"大甲區","MARKTYPE":"993","Class":"303"},"geometry":{"x":120.64591527834114,"y":24.35832406077294}},{"attributes":{"OBJECTID":12273,"LANDMARKID":"1000600000578","LANDMARKCO":"301","LANDMARKNA":"日南火車站","LANDMARKAD":"1000603","ADDRESS":"台中市大甲區孟春里中山路2段140巷8號","TEL":" ","COUNTYNAME":"台中市","TOWNNAME":"大甲區","MARKTYPE":"993","Class":"301"},"geometry":{"x":120.65428984930412,"y":24.378001120637091}},{"attributes":{"OBJECTID":12274,"LANDMARKID":"1000600000579","LANDMARKCO":"301","LANDMARKNA":"大甲火車站","LANDMARKAD":"1000603","ADDRESS":"台中市大甲區中山路一段828號","TEL":" ","COUNTYNAME":"台中市","TOWNNAME":"大甲區","MARKTYPE":"993","Class":"301"},"geometry":{"x":120.62706434643705,"y":24.344409542758608}},{"attributes":{"OBJECTID":12275,"LANDMARKID":"1000600000615","LANDMARKCO":"303","LANDMARKNA":"貞節牌坊停車場","LANDMARKAD":"1000603","ADDRESS":" ","TEL":" ","COUNTYNAME":"台中市","TOWNNAME":"大甲區","MARKTYPE":"993","Class":"303"},"geometry":{"x":120.62121098840727,"y":24.344784495706158}},{"attributes":{"OBJECTID":12276,"LANDMARKID":"1000600000800","LANDMARKCO":"402","LANDMARKNA":"威寶電信-大甲蔣公特約服務中心","LANDMARKAD":"1000603","ADDRESS":"台中市大甲區蔣公路132號","TEL":"04-26761858","COUNTYNAME":"台中市","TOWNNAME":"大甲區","MARKTYPE":"994","Class":"4"},"geometry":{"x":120.62270406086671,"y":24.346132496756425}},{"attributes":{"OBJECTID":12277,"LANDMARKID":"1000600000801","LANDMARKCO":"402","LANDMARKNA":"大眾電信(震旦通訊)-大甲順天店","LANDMARKAD":"1000603","ADDRESS":"台中市大甲區順天路197號","TEL":"04-26802172","COUNTYNAME":"台中市","TOWNNAME":"大甲區","MARKTYPE":"994","Class":"4"},"geometry":{"x":120.62323762718421,"y":24.345900392418329}},{"attributes":{"OBJECTID":12278,"LANDMARKID":"1000600000802","LANDMARKCO":"402","LANDMARKNA":"中華電信-日南服務中心","LANDMARKAD":"1000603","ADDRESS":"台中市大甲區中山路二段183號","TEL":"123或0800-080-123","COUNTYNAME":"台中市","TOWNNAME":"大甲區","MARKTYPE":"994","Class":"4"},"geometry":{"x":120.65413955861887,"y":24.3797781900454}},{"attributes":{"OBJECTID":12279,"LANDMARKID":"1000600001393","LANDMARKCO":"603","LANDMARKNA":"大甲旅社","LANDMARKAD":"1000603","ADDRESS":"台中市大甲區蔣公路73號","TEL":"04-26872126","COUNTYNAME":"台中市","TOWNNAME":"大甲區","MARKTYPE":"996","Class":"6"},"geometry":{"x":120.6241296489508,"y":24.345047052198971}},{"attributes":{"OBJECTID":12280,"LANDMARKID":"1000600001394","LANDMARKCO":"603","LANDMARKNA":"東南亞旅社","LANDMARKAD":"1000603","ADDRESS":"台中市大甲區中山路943號","TEL":"04-26873121","COUNTYNAME":"台中市","TOWNNAME":"大甲區","MARKTYPE":"996","Class":"6"},"geometry":{"x":120.6260974390717,"y":24.344210198707092}},{"attributes":{"OBJECTID":12281,"LANDMARKID":"1000600001395","LANDMARKCO":"603","LANDMARKNA":"華麒賓館","LANDMARKAD":"1000603","ADDRESS":"台中市大甲區光明路62號","TEL":"04-26861516","COUNTYNAME":"台中市","TOWNNAME":"大甲區","MARKTYPE":"996","Class":"6"},"geometry":{"x":120.62388956679315,"y":24.344260350033174}},{"attributes":{"OBJECTID":12282,"LANDMARKID":"1000600001396","LANDMARKCO":"603","LANDMARKNA":"大江山旅社","LANDMARKAD":"1000603","ADDRESS":"台中市大甲區育德路15號","TEL":"04-26873101","COUNTYNAME":"台中市","TOWNNAME":"大甲區","MARKTYPE":"996","Class":"6"},"geometry":{"x":120.62243025903612,"y":24.345769969587128}},{"attributes":{"OBJECTID":12283,"LANDMARKID":"1000600001254","LANDMARKCO":"503","LANDMARKNA":"大甲鐵砧山風景區","LANDMARKAD":"1000603","ADDRESS":"台中市大甲區成功路87號","TEL":" ","COUNTYNAME":"台中市","TOWNNAME":"大甲區","MARKTYPE":"995","Class":"5"},"geometry":{"x":120.6431177049125,"y":24.357515975969449}},{"attributes":{"OBJECTID":12284,"LANDMARKID":"1000600001250","LANDMARKCO":"410","LANDMARKNA":"大甲區瀾宮","LANDMARKAD":"1000603","ADDRESS":"台中市大甲區","TEL":" ","COUNTYNAME":"台中市","TOWNNAME":"大甲區","MARKTYPE":"994","Class":"4"},"geometry":{"x":120.62368486826017,"y":24.345165675510504}},{"attributes":{"OBJECTID":12285,"LANDMARKID":"1000600000946","LANDMARKCO":"405","LANDMARKNA":"中油加油站-大安站(中油直營)","LANDMARKAD":"1000614","ADDRESS":"台中市大安區東安村中山南路193號","TEL":"04-26712249","COUNTYNAME":"台中市","TOWNNAME":"大安區","MARKTYPE":"994","Class":"4"},"geometry":{"x":120.58875774955789,"y":24.343266947844011}},{"attributes":{"OBJECTID":12286,"LANDMARKID":"1000600001215","LANDMARKCO":"408","LANDMARKNA":"郵局-大安郵局","LANDMARKAD":"1000614","ADDRESS":"台中市大安區中山南路343號","TEL":"(04)2671-3192","COUNTYNAME":"台中市","TOWNNAME":"大安區","MARKTYPE":"994","Class":"4"},"geometry":{"x":120.5860012253117,"y":24.346376955095995}},{"attributes":{"OBJECTID":12287,"LANDMARKID":"1000600001231","LANDMARKCO":"409","LANDMARKNA":"台中市大安區農會","LANDMARKAD":"1000614","ADDRESS":"台中市大安區中庄村中松路36號","TEL":"04-26712229","COUNTYNAME":"台中市","TOWNNAME":"大安區","MARKTYPE":"994","Class":"4"},"geometry":{"x":120.5870874532872,"y":24.346504685759502}},{"attributes":{"OBJECTID":12288,"LANDMARKID":"1000600000252","LANDMARKCO":"108","LANDMARKNA":"台中市大安區公所","LANDMARKAD":"1000614","ADDRESS":"台中市大安區中庄村中山南路356號","TEL":"04-26713511","COUNTYNAME":"台中市","TOWNNAME":"大安區","MARKTYPE":"991","Class":"1"},"geometry":{"x":120.58655407303183,"y":24.346227900483044}},{"attributes":{"OBJECTID":12289,"LANDMARKID":"1000600000083","LANDMARKCO":"103","LANDMARKNA":"台中市大安區鄉民代表會","LANDMARKAD":"1000614","ADDRESS":"臺中縣大安區中山南路356號3樓","TEL":"04-26712065","COUNTYNAME":"台中市","TOWNNAME":"大安區","MARKTYPE":"991","Class":"1"},"geometry":{"x":120.58653436298525,"y":24.346227793491767}},{"attributes":{"OBJECTID":12290,"LANDMARKID":"1000600000205","LANDMARKCO":"107","LANDMARKNA":"台中市警察局海墘派出所","LANDMARKAD":"1000614","ADDRESS":"台中市大安區海墘村大安港路24號","TEL":"04-26875845","COUNTYNAME":"台中市","TOWNNAME":"大安區","MARKTYPE":"991","Class":"1"},"geometry":{"x":120.58414925046283,"y":24.383782939904187}},{"attributes":{"OBJECTID":12291,"LANDMARKID":"1000600000206","LANDMARKCO":"107","LANDMARKNA":"台中市消防局大安分隊","LANDMARKAD":"1000614","ADDRESS":"台中市大安區中山南路298號","TEL":"04-26712600","COUNTYNAME":"台中市","TOWNNAME":"大安區","MARKTYPE":"991","Class":"1"},"geometry":{"x":120.58758476241195,"y":24.346865548593879}},{"attributes":{"OBJECTID":12292,"LANDMARKID":"1000600000207","LANDMARKCO":"107","LANDMARKNA":"台中市警察局大安分駐所","LANDMARKAD":"1000614","ADDRESS":"台中市大安區中庄村中山南路300號","TEL":"04-26713320","COUNTYNAME":"台中市","TOWNNAME":"大安區","MARKTYPE":"991","Class":"1"},"geometry":{"x":120.58783693784143,"y":24.346336911717973}},{"attributes":{"OBJECTID":12293,"LANDMARKID":"1000600000105","LANDMARKCO":"106","LANDMARKNA":"台中市大安區戶政事務所","LANDMARKAD":"1000614","ADDRESS":"台中市大安區中庄村12鄰中山南路302號","TEL":"04-26712214","COUNTYNAME":"台中市","TOWNNAME":"大安區","MARKTYPE":"991","Class":"1"},"geometry":{"x":120.58774050263891,"y":24.346420628521319}},{"attributes":{"OBJECTID":12294,"LANDMARKID":"1000600000084","LANDMARKCO":"103","LANDMARKNA":"台中市大安區衛生所","LANDMARKAD":"1000614","ADDRESS":"台中市大安區中庄村2鄰中山南路333號","TEL":"04-26713681","COUNTYNAME":"台中市","TOWNNAME":"大安區","MARKTYPE":"991","Class":"1"},"geometry":{"x":120.58624585913839,"y":24.346051236389467}},{"attributes":{"OBJECTID":12295,"LANDMARKID":"1000600000550","LANDMARKCO":"204","LANDMARKNA":"台中市立圖書館大安分館","LANDMARKAD":"1000614","ADDRESS":"台中市大安區興安路378號","TEL":" ","COUNTYNAME":"台中市","TOWNNAME":"大安區","MARKTYPE":"992","Class":"2"},"geometry":{"x":120.58901060404568,"y":24.345615801146554}},{"attributes":{"OBJECTID":12296,"LANDMARKID":"1000600000372","LANDMARKCO":"203","LANDMARKNA":"縣立永安國小","LANDMARKAD":"1000614","ADDRESS":"台中市大安區永安村東西四路252號","TEL":"04-26874931","COUNTYNAME":"台中市","TOWNNAME":"大安區","MARKTYPE":"992","Class":"2"},"geometry":{"x":120.6062697976817,"y":24.382577605368645}},{"attributes":{"OBJECTID":12297,"LANDMARKID":"1000600000373","LANDMARKCO":"203","LANDMARKNA":"縣立大安國中","LANDMARKAD":"1000614","ADDRESS":"台中市大安區松雅村大安港路691號","TEL":"04-26872571","COUNTYNAME":"台中市","TOWNNAME":"大安區","MARKTYPE":"992","Class":"2"},"geometry":{"x":120.6017117307855,"y":24.365109246673544}},{"attributes":{"OBJECTID":12298,"LANDMARKID":"1000600000374","LANDMARKCO":"203","LANDMARKNA":"縣立海墘國小","LANDMARKAD":"1000614","ADDRESS":"台中市大安區海墘村大安港路1100號","TEL":"04-26876085","COUNTYNAME":"台中市","TOWNNAME":"大安區","MARKTYPE":"992","Class":"2"},"geometry":{"x":120.58899201591679,"y":24.379212538621914}},{"attributes":{"OBJECTID":12299,"LANDMARKID":"1000600000375","LANDMARKCO":"203","LANDMARKNA":"縣立大安國小","LANDMARKAD":"1000614","ADDRESS":"台中市大安區中庄村中山南路296號","TEL":"04-26713166","COUNTYNAME":"台中市","TOWNNAME":"大安區","MARKTYPE":"992","Class":"2"},"geometry":{"x":120.58829698174264,"y":24.345195152792705}},{"attributes":{"OBJECTID":12300,"LANDMARKID":"1000600000376","LANDMARKCO":"203","LANDMARKNA":"縣立三光國小","LANDMARKAD":"1000614","ADDRESS":"台中市大安區龜殼村中松路297號","TEL":"04-26710148","COUNTYNAME":"台中市","TOWNNAME":"大安區","MARKTYPE":"992","Class":"2"},"geometry":{"x":120.60048825359672,"y":24.35801486967674}},{"attributes":{"OBJECTID":12301,"LANDMARKID":"1000600000680","LANDMARKCO":"305","LANDMARKNA":"五甲漁港","LANDMARKAD":"1000614","ADDRESS":"台中市大安區","TEL":" ","COUNTYNAME":"台中市","TOWNNAME":"大安區","MARKTYPE":"993","Class":"305"},"geometry":{"x":120.58865184928524,"y":24.390512518515173}},{"attributes":{"OBJECTID":12302,"LANDMARKID":"1000600000707","LANDMARKCO":"308","LANDMARKNA":"台61-東西四路平交匝道-北上","LANDMARKAD":"1000614","ADDRESS":" ","TEL":" ","COUNTYNAME":"台中市","TOWNNAME":"大安區","MARKTYPE":"993","Class":"308"},"geometry":{"x":120.5945526547462,"y":24.38705815400467}},{"attributes":{"OBJECTID":12303,"LANDMARKID":"1000600000708","LANDMARKCO":"308","LANDMARKNA":"台61-132線平交匝道-南下","LANDMARKAD":"1000614","ADDRESS":" ","TEL":" ","COUNTYNAME":"台中市","TOWNNAME":"大安區","MARKTYPE":"993","Class":"308"},"geometry":{"x":120.5907699040021,"y":24.375709266892148}},{"attributes":{"OBJECTID":12304,"LANDMARKID":"1000600000709","LANDMARKCO":"308","LANDMARKNA":"台61-中16線平交匝道-北上","LANDMARKAD":"1000614","ADDRESS":" ","TEL":" ","COUNTYNAME":"台中市","TOWNNAME":"大安區","MARKTYPE":"993","Class":"308"},"geometry":{"x":120.58573288163564,"y":24.36372119732447}},{"attributes":{"OBJECTID":12305,"LANDMARKID":"1000600000710","LANDMARKCO":"308","LANDMARKNA":"台61-中16線平交匝道-南下","LANDMARKAD":"1000614","ADDRESS":" ","TEL":" ","COUNTYNAME":"台中市","TOWNNAME":"大安區","MARKTYPE":"993","Class":"308"},"geometry":{"x":120.58471123987322,"y":24.35811602578222}},{"attributes":{"OBJECTID":12306,"LANDMARKID":"1000600000711","LANDMARKCO":"308","LANDMARKNA":"台61-中海路平交匝道","LANDMARKAD":"1000614","ADDRESS":" ","TEL":" ","COUNTYNAME":"台中市","TOWNNAME":"大安區","MARKTYPE":"993","Class":"308"},"geometry":{"x":120.58245457439068,"y":24.354646398619124}},{"attributes":{"OBJECTID":12307,"LANDMARKID":"1000600000712","LANDMARKCO":"308","LANDMARKNA":"台61-中17線平交匝道-北上","LANDMARKAD":"1000614","ADDRESS":" ","TEL":" ","COUNTYNAME":"台中市","TOWNNAME":"大安區","MARKTYPE":"993","Class":"308"},"geometry":{"x":120.58078182227149,"y":24.352744515025037}},{"attributes":{"OBJECTID":12308,"LANDMARKID":"1000600000713","LANDMARKCO":"308","LANDMARKNA":"台61-中17線平交匝道-南下","LANDMARKAD":"1000614","ADDRESS":" ","TEL":" ","COUNTYNAME":"台中市","TOWNNAME":"大安區","MARKTYPE":"993","Class":"308"},"geometry":{"x":120.57606723135314,"y":24.34793672459849}},{"attributes":{"OBJECTID":12309,"LANDMARKID":"1000600000714","LANDMARKCO":"308","LANDMARKNA":"台61-南埔路平交匝道-北上","LANDMARKAD":"1000614","ADDRESS":" ","TEL":" ","COUNTYNAME":"台中市","TOWNNAME":"大安區","MARKTYPE":"993","Class":"308"},"geometry":{"x":120.57180311797781,"y":24.342325876922626}},{"attributes":{"OBJECTID":12310,"LANDMARKID":"1000600000715","LANDMARKCO":"308","LANDMARKNA":"台61-南埔路平交匝道-南下","LANDMARKAD":"1000614","ADDRESS":" ","TEL":" ","COUNTYNAME":"台中市","TOWNNAME":"大安區","MARKTYPE":"993","Class":"308"},"geometry":{"x":120.57012331754692,"y":24.337150560007615}},{"attributes":{"OBJECTID":12311,"LANDMARKID":"1000600000942","LANDMARKCO":"405","LANDMARKNA":"中油加油站-甲東站","LANDMARKAD":"1000613","ADDRESS":"台中市外埔區甲后路677號","TEL":"04-26884227","COUNTYNAME":"台中市","TOWNNAME":"外埔區","MARKTYPE":"994","Class":"4"},"geometry":{"x":120.63853659599009,"y":24.341620188540436}},{"attributes":{"OBJECTID":12312,"LANDMARKID":"1000600000943","LANDMARKCO":"405","LANDMARKNA":"中油加油站-外埔站","LANDMARKAD":"1000613","ADDRESS":"台中市外埔區大同村甲后路168號","TEL":"04-26833350","COUNTYNAME":"台中市","TOWNNAME":"外埔區","MARKTYPE":"994","Class":"4"},"geometry":{"x":120.65833023986083,"y":24.327347715663052}},{"attributes":{"OBJECTID":12313,"LANDMARKID":"1000600000944","LANDMARKCO":"405","LANDMARKNA":"中油加油站-合鋒站","LANDMARKAD":"1000613","ADDRESS":"台中市外埔區大馬路188號","TEL":"04-26836529","COUNTYNAME":"台中市","TOWNNAME":"外埔區","MARKTYPE":"994","Class":"4"},"geometry":{"x":120.66114304746162,"y":24.33990658731901}},{"attributes":{"OBJECTID":12314,"LANDMARKID":"1000600000945","LANDMARKCO":"405","LANDMARKNA":"中油加油站-甲后路站","LANDMARKAD":"1000613","ADDRESS":"台中市外埔區大同村甲后路187號","TEL":"04-26835478","COUNTYNAME":"台中市","TOWNNAME":"外埔區","MARKTYPE":"994","Class":"4"},"geometry":{"x":120.6663538193887,"y":24.320615828148625}},{"attributes":{"OBJECTID":12315,"LANDMARKID":"1000600001294","LANDMARKCO":"506","LANDMARKNA":"台農牧場休閒農場","LANDMARKAD":"1000613","ADDRESS":"台中市外埔區水美路119號","TEL":"04-26872724","COUNTYNAME":"台中市","TOWNNAME":"外埔區","MARKTYPE":"995","Class":"5"},"geometry":{"x":120.64371862409197,"y":24.331715884790839}},{"attributes":{"OBJECTID":12316,"LANDMARKID":"1000600001216","LANDMARKCO":"408","LANDMARKNA":"郵局-外埔郵局","LANDMARKAD":"1000613","ADDRESS":"台中市外埔區甲后路333號","TEL":"(04)2683-2341","COUNTYNAME":"台中市","TOWNNAME":"外埔區","MARKTYPE":"994","Class":"4"},"geometry":{"x":120.65471697502475,"y":24.330031873729837}},{"attributes":{"OBJECTID":12317,"LANDMARKID":"1000600001230","LANDMARKCO":"409","LANDMARKNA":"台中市外埔區農會","LANDMARKAD":"1000613","ADDRESS":"台中市外埔區大同村甲后路368號","TEL":"04-26832311-4","COUNTYNAME":"台中市","TOWNNAME":"外埔區","MARKTYPE":"994","Class":"4"},"geometry":{"x":120.65357815557456,"y":24.33160134841911}},{"attributes":{"OBJECTID":12318,"LANDMARKID":"1000600000085","LANDMARKCO":"103","LANDMARKNA":"台中市外埔區鄉民代表會","LANDMARKAD":"1000613","ADDRESS":"台中市外埔區六分路297號2樓","TEL":"04-26833562","COUNTYNAME":"台中市","TOWNNAME":"外埔區","MARKTYPE":"991","Class":"1"},"geometry":{"x":120.65607249430711,"y":24.332225762481773}},{"attributes":{"OBJECTID":12319,"LANDMARKID":"1000600000251","LANDMARKCO":"108","LANDMARKNA":"台中市外埔區公所","LANDMARKAD":"1000613","ADDRESS":"台中市外埔區大同村六分路390號","TEL":"04-26832216","COUNTYNAME":"台中市","TOWNNAME":"外埔區","MARKTYPE":"991","Class":"1"},"geometry":{"x":120.65432263568307,"y":24.332178273035371}},{"attributes":{"OBJECTID":12320,"LANDMARKID":"1000600000209","LANDMARKCO":"107","LANDMARKNA":"台中市警察局安定派出所","LANDMARKAD":"1000613","ADDRESS":"臺中縣外埔區土城村土城路110號","TEL":"04-26831522","COUNTYNAME":"台中市","TOWNNAME":"外埔區","MARKTYPE":"991","Class":"1"},"geometry":{"x":120.70426923002015,"y":24.345285010339495}},{"attributes":{"OBJECTID":12321,"LANDMARKID":"1000600000210","LANDMARKCO":"107","LANDMARKNA":"台中市警察局外埔分駐所","LANDMARKAD":"1000613","ADDRESS":"臺中縣外埔區大同村六分路350號","TEL":"04-26832690","COUNTYNAME":"台中市","TOWNNAME":"外埔區","MARKTYPE":"991","Class":"1"},"geometry":{"x":120.65535432501775,"y":24.332335287516727}},{"attributes":{"OBJECTID":12322,"LANDMARKID":"1000600000104","LANDMARKCO":"106","LANDMARKNA":"台中市外埔區戶政事務所","LANDMARKAD":"1000613","ADDRESS":"台中市外埔區大同村1鄰六分路352號","TEL":"04-26833430","COUNTYNAME":"台中市","TOWNNAME":"外埔區","MARKTYPE":"991","Class":"1"},"geometry":{"x":120.65527165645392,"y":24.332315228567595}},{"attributes":{"OBJECTID":12323,"LANDMARKID":"1000600000208","LANDMARKCO":"107","LANDMARKNA":"台中市消防局外埔分隊","LANDMARKAD":"1000613","ADDRESS":"台中市外埔區大同村六分路348號","TEL":"04-26833361","COUNTYNAME":"台中市","TOWNNAME":"外埔區","MARKTYPE":"991","Class":"1"},"geometry":{"x":120.6554376993323,"y":24.332352370233966}},{"attributes":{"OBJECTID":12324,"LANDMARKID":"1000600000086","LANDMARKCO":"103","LANDMARKNA":"台中市外埔區衛生所","LANDMARKAD":"1000613","ADDRESS":"台中市外埔區大同村甲后路444號","TEL":"04-26833208","COUNTYNAME":"台中市","TOWNNAME":"外埔區","MARKTYPE":"991","Class":"1"},"geometry":{"x":120.65223130299375,"y":24.333110064729894}},{"attributes":{"OBJECTID":12325,"LANDMARKID":"1000600000561","LANDMARKCO":"205","LANDMARKNA":"農村文物館(中原紫雲寺)","LANDMARKAD":"1000613","ADDRESS":"台中市外埔區水美村山腳巷77號","TEL":"04-26868999","COUNTYNAME":"台中市","TOWNNAME":"外埔區","MARKTYPE":"992","Class":"2"},"geometry":{"x":120.61608916606608,"y":24.332253073976833}},{"attributes":{"OBJECTID":12326,"LANDMARKID":"1000600000552","LANDMARKCO":"204","LANDMARKNA":"台中市立圖書館外埔分館","LANDMARKAD":"1000613","ADDRESS":"台中市外埔區大同村甲后路440之1號","TEL":" ","COUNTYNAME":"台中市","TOWNNAME":"外埔區","MARKTYPE":"992","Class":"2"},"geometry":{"x":120.65195209114107,"y":24.333269174223929}},{"attributes":{"OBJECTID":12327,"LANDMARKID":"1000600000377","LANDMARKCO":"203","LANDMARKNA":"縣立外埔國中","LANDMARKAD":"1000613","ADDRESS":"台中市外埔區甲后路505號","TEL":"04-26833721","COUNTYNAME":"台中市","TOWNNAME":"外埔區","MARKTYPE":"992","Class":"2"},"geometry":{"x":120.64912441634451,"y":24.332373091576155}},{"attributes":{"OBJECTID":12328,"LANDMARKID":"1000600000378","LANDMARKCO":"203","LANDMARKNA":"縣立水美國小","LANDMARKAD":"1000613","ADDRESS":"台中市外埔區水美村二崁路63號","TEL":"04-26876508","COUNTYNAME":"台中市","TOWNNAME":"外埔區","MARKTYPE":"992","Class":"2"},"geometry":{"x":120.63582135733172,"y":24.326258460272285}},{"attributes":{"OBJECTID":12329,"LANDMARKID":"1000600000379","LANDMARKCO":"203","LANDMARKNA":"縣立安定國小","LANDMARKAD":"1000613","ADDRESS":"台中市外埔區土城村土城路132號","TEL":"04-26831446","COUNTYNAME":"台中市","TOWNNAME":"外埔區","MARKTYPE":"992","Class":"2"},"geometry":{"x":120.70365601626604,"y":24.345479000940937}},{"attributes":{"OBJECTID":12330,"LANDMARKID":"1000600000380","LANDMARKCO":"203","LANDMARKNA":"縣立外埔國小","LANDMARKAD":"1000613","ADDRESS":"台中市外埔區大同村甲后路436號","TEL":"04-26832865","COUNTYNAME":"台中市","TOWNNAME":"外埔區","MARKTYPE":"992","Class":"2"},"geometry":{"x":120.65394774454079,"y":24.332601475517681}},{"attributes":{"OBJECTID":12331,"LANDMARKID":"1000600000381","LANDMARKCO":"203","LANDMARKNA":"縣立鐵山國小","LANDMARKAD":"1000613","ADDRESS":"台中市外埔區鐵山村長生路576號","TEL":"04-26835033","COUNTYNAME":"台中市","TOWNNAME":"外埔區","MARKTYPE":"992","Class":"2"},"geometry":{"x":120.65646134905985,"y":24.349034593100104}},{"attributes":{"OBJECTID":12332,"LANDMARKID":"1000600000382","LANDMARKCO":"203","LANDMARKNA":"縣立馬鳴國小","LANDMARKAD":"1000613","ADDRESS":"台中市外埔區中山村東西巷13號","TEL":"04-26834114","COUNTYNAME":"台中市","TOWNNAME":"外埔區","MARKTYPE":"992","Class":"2"},"geometry":{"x":120.66456085018427,"y":24.338023686940677}},{"attributes":{"OBJECTID":12333,"LANDMARKID":"1000600000716","LANDMARKCO":"308","LANDMARKNA":"國3-大甲交流道-南下","LANDMARKAD":"1000613","ADDRESS":"台中市外埔區","TEL":" ","COUNTYNAME":"台中市","TOWNNAME":"外埔區","MARKTYPE":"993","Class":"308"},"geometry":{"x":120.64048618826313,"y":24.336675247026434}},{"attributes":{"OBJECTID":12334,"LANDMARKID":"1000600000717","LANDMARKCO":"308","LANDMARKNA":"國3-大甲交流道-北上","LANDMARKAD":"1000613","ADDRESS":"台中市外埔區","TEL":" ","COUNTYNAME":"台中市","TOWNNAME":"外埔區","MARKTYPE":"993","Class":"308"},"geometry":{"x":120.64536638789818,"y":24.33756182144721}},{"attributes":{"OBJECTID":12335,"LANDMARKID":"1000600000936","LANDMARKCO":"405","LANDMARKNA":"中油加油站-后里站(中油直營)","LANDMARKAD":"1000607","ADDRESS":"台中市后里區三豐路427號","TEL":"04-25562174","COUNTYNAME":"台中市","TOWNNAME":"后里區","MARKTYPE":"994","Class":"4"},"geometry":{"x":120.72394214817731,"y":24.315480354911308}},{"attributes":{"OBJECTID":12336,"LANDMARKID":"1000600000937","LANDMARKCO":"405","LANDMARKNA":"中油加油站-內埔站","LANDMARKAD":"1000607","ADDRESS":"台中市后里區南村路263號","TEL":"04-25570996","COUNTYNAME":"台中市","TOWNNAME":"后里區","MARKTYPE":"994","Class":"4"},"geometry":{"x":120.71592224720874,"y":24.296466812959292}},{"attributes":{"OBJECTID":12337,"LANDMARKID":"1000600000938","LANDMARKCO":"405","LANDMARKNA":"中油加油站-馬拉站","LANDMARKAD":"1000607","ADDRESS":"台中市后里區甲后路1137號","TEL":"04-25582543","COUNTYNAME":"台中市","TOWNNAME":"后里區","MARKTYPE":"994","Class":"4"},"geometry":{"x":120.68838912510022,"y":24.31447502277333}},{"attributes":{"OBJECTID":12338,"LANDMARKID":"1000600000939","LANDMARKCO":"405","LANDMARKNA":"中油加油站-順里發站","LANDMARKAD":"1000607","ADDRESS":"台中市后里區墩北村甲后路715號","TEL":"04-25579918","COUNTYNAME":"台中市","TOWNNAME":"后里區","MARKTYPE":"994","Class":"4"},"geometry":{"x":120.70894862373042,"y":24.310680817751933}},{"attributes":{"OBJECTID":12339,"LANDMARKID":"1000600000940","LANDMARKCO":"405","LANDMARKNA":"中油加油站-光陽站","LANDMARKAD":"1000607","ADDRESS":"台中市后里區三豐路135-2號","TEL":"04-25583551","COUNTYNAME":"台中市","TOWNNAME":"后里區","MARKTYPE":"994","Class":"4"},"geometry":{"x":120.72287061974626,"y":24.300244715181954}},{"attributes":{"OBJECTID":12340,"LANDMARKID":"1000600000941","LANDMARKCO":"405","LANDMARKNA":"台糖加油站-七星站(中油)","LANDMARKAD":"1000607","ADDRESS":"台中市后里區三豐路18-1號","TEL":"04-25583711","COUNTYNAME":"台中市","TOWNNAME":"后里區","MARKTYPE":"994","Class":"4"},"geometry":{"x":120.72377613522822,"y":24.297884854891109}},{"attributes":{"OBJECTID":12341,"LANDMARKID":"1000600000803","LANDMARKCO":"402","LANDMARKNA":"亞太行動寬頻電信-后里三豐加盟服務中心","LANDMARKAD":"1000607","ADDRESS":"台中市后里區三豐路126號","TEL":"04-25587126","COUNTYNAME":"台中市","TOWNNAME":"后里區","MARKTYPE":"994","Class":"4"},"geometry":{"x":120.722476038064,"y":24.308614356012203}},{"attributes":{"OBJECTID":12342,"LANDMARKID":"1000600001299","LANDMARKCO":"507","LANDMARKNA":"縱貫鐵路舊山線-泰安車站","LANDMARKAD":"1000607","ADDRESS":"台中市后里區泰安村福星路52號","TEL":" ","COUNTYNAME":"台中市","TOWNNAME":"后里區","MARKTYPE":"995","Class":"5"},"geometry":{"x":120.74941647737161,"y":24.322625814813865}},{"attributes":{"OBJECTID":12343,"LANDMARKID":"1000600001212","LANDMARKCO":"408","LANDMARKNA":"郵局-后里義里郵局","LANDMARKAD":"1000607","ADDRESS":"台中市后里區甲后路193號","TEL":"(04)2556-2330","COUNTYNAME":"台中市","TOWNNAME":"后里區","MARKTYPE":"994","Class":"4"},"geometry":{"x":120.72776499594056,"y":24.309034796207133}},{"attributes":{"OBJECTID":12344,"LANDMARKID":"1000600001213","LANDMARKCO":"408","LANDMARKNA":"郵局-后里郵局","LANDMARKAD":"1000607","ADDRESS":"台中市后里區公安路77號","TEL":"(04)2556-2067","COUNTYNAME":"台中市","TOWNNAME":"后里區","MARKTYPE":"994","Class":"4"},"geometry":{"x":120.71084175920618,"y":24.304648870928371}},{"attributes":{"OBJECTID":12345,"LANDMARKID":"1000600001214","LANDMARKCO":"408","LANDMARKNA":"郵局-后里月眉郵局","LANDMARKAD":"1000607","ADDRESS":"台中市后里區甲后路843號","TEL":"(04)2556-3324","COUNTYNAME":"台中市","TOWNNAME":"后里區","MARKTYPE":"994","Class":"4"},"geometry":{"x":120.69374923577206,"y":24.313511289343676}},{"attributes":{"OBJECTID":12346,"LANDMARKID":"1000600001232","LANDMARKCO":"409","LANDMARKNA":"台中市后里區農會","LANDMARKAD":"1000607","ADDRESS":"台中市后里區墩北村民生路268號","TEL":"04-25565116","COUNTYNAME":"台中市","TOWNNAME":"后里區","MARKTYPE":"994","Class":"4"},"geometry":{"x":120.71252275134727,"y":24.306868342922758}},{"attributes":{"OBJECTID":12347,"LANDMARKID":"1000600000903","LANDMARKCO":"404","LANDMARKNA":"台灣自來水后里服務所","LANDMARKAD":"1000607","ADDRESS":"臺中縣后里區舊社路2-1號","TEL":"04-25562066","COUNTYNAME":"台中市","TOWNNAME":"后里區","MARKTYPE":"994","Class":"4"},"geometry":{"x":120.71777858702639,"y":24.296080894780673}},{"attributes":{"OBJECTID":12348,"LANDMARKID":"1000600000904","LANDMARKCO":"404","LANDMARKNA":"台灣自來水鯉魚潭給水廠","LANDMARKAD":"1000607","ADDRESS":"臺中縣后里區三豐路352-1號","TEL":"04-25570236","COUNTYNAME":"台中市","TOWNNAME":"后里區","MARKTYPE":"994","Class":"4"},"geometry":{"x":120.73627383355468,"y":24.320338117890259}},{"attributes":{"OBJECTID":12349,"LANDMARKID":"1000600001142","LANDMARKCO":"406","LANDMARKNA":"中正紀念公園","LANDMARKAD":"1000607","ADDRESS":"台中市后里區","TEL":" ","COUNTYNAME":"台中市","TOWNNAME":"后里區","MARKTYPE":"994","Class":"4"},"geometry":{"x":120.71125695841637,"y":24.33109363374221}},{"attributes":{"OBJECTID":12350,"LANDMARKID":"1000600001143","LANDMARKCO":"406","LANDMARKNA":"社區公園","LANDMARKAD":"1000607","ADDRESS":"台中市后里區","TEL":" ","COUNTYNAME":"台中市","TOWNNAME":"后里區","MARKTYPE":"994","Class":"4"},"geometry":{"x":120.72797380297085,"y":24.333368570533398}},{"attributes":{"OBJECTID":12351,"LANDMARKID":"1000600000901","LANDMARKCO":"404","LANDMARKNA":"台灣省自來水后里服務所","LANDMARKAD":"1000607","ADDRESS":"台中市后里區舊社路2之1號","TEL":" ","COUNTYNAME":"台中市","TOWNNAME":"后里區","MARKTYPE":"994","Class":"4"},"geometry":{"x":120.70985724868578,"y":24.298020088852805}},{"attributes":{"OBJECTID":12352,"LANDMARKID":"1000600000902","LANDMARKCO":"404","LANDMARKNA":"台灣省自來水鯉魚潭給水廠","LANDMARKAD":"1000607","ADDRESS":"台中市后里區三豐路352之1號","TEL":" ","COUNTYNAME":"台中市","TOWNNAME":"后里區","MARKTYPE":"994","Class":"4"},"geometry":{"x":120.73082011521916,"y":24.32173607963351}},{"attributes":{"OBJECTID":12353,"LANDMARKID":"1000600000934","LANDMARKCO":"405","LANDMARKNA":"福懋加油站-后里站(台塑)","LANDMARKAD":"1000607","ADDRESS":"台中市后里區三豐路374-3號","TEL":"04-25568880","COUNTYNAME":"台中市","TOWNNAME":"后里區","MARKTYPE":"994","Class":"4"},"geometry":{"x":120.7297864869527,"y":24.330057630181606}},{"attributes":{"OBJECTID":12354,"LANDMARKID":"1000600000935","LANDMARKCO":"405","LANDMARKNA":"台塑加油站-眉山站(台塑)","LANDMARKAD":"1000607","ADDRESS":"台中市后里區甲后路768-20號","TEL":"04-25572975","COUNTYNAME":"台中市","TOWNNAME":"后里區","MARKTYPE":"994","Class":"4"},"geometry":{"x":120.70037550784609,"y":24.312657510192043}},{"attributes":{"OBJECTID":12355,"LANDMARKID":"1000600000211","LANDMARKCO":"107","LANDMARKNA":"國公路第三警察隊泰安分隊","LANDMARKAD":"1000607","ADDRESS":"台中市后里區雲頭路3之5號","TEL":"04-25563294","COUNTYNAME":"台中市","TOWNNAME":"后里區","MARKTYPE":"991","Class":"1"},"geometry":{"x":120.71531333579927,"y":24.32937034717801}},{"attributes":{"OBJECTID":12356,"LANDMARKID":"1000600000250","LANDMARKCO":"108","LANDMARKNA":"台中市后里區公所","LANDMARKAD":"1000607","ADDRESS":"台中市后里區墩西村公安路84號","TEL":"04-25562116","COUNTYNAME":"台中市","TOWNNAME":"后里區","MARKTYPE":"991","Class":"1"},"geometry":{"x":120.71082538421571,"y":24.304924814551306}},{"attributes":{"OBJECTID":12357,"LANDMARKID":"1000600000073","LANDMARKCO":"103","LANDMARKNA":"台中市后里區鄉民代表會","LANDMARKAD":"1000607","ADDRESS":"台中市后里區三光路41號2樓","TEL":"04-25562416","COUNTYNAME":"台中市","TOWNNAME":"后里區","MARKTYPE":"991","Class":"1"},"geometry":{"x":120.71052620202433,"y":24.305373689099799}},{"attributes":{"OBJECTID":12358,"LANDMARKID":"1000600000219","LANDMARKCO":"107","LANDMARKNA":"台中市警察局月眉派出所","LANDMARKAD":"1000607","ADDRESS":"台中市后里區眉山村三月路19號","TEL":"04-25562384","COUNTYNAME":"台中市","TOWNNAME":"后里區","MARKTYPE":"991","Class":"1"},"geometry":{"x":120.69215373888083,"y":24.313366305998471}},{"attributes":{"OBJECTID":12359,"LANDMARKID":"1000600000220","LANDMARKCO":"107","LANDMARKNA":"台中市警察局泰安派出所","LANDMARKAD":"1000607","ADDRESS":"臺中縣后里區泰安村安眉路1號","TEL":"04-25562340","COUNTYNAME":"台中市","TOWNNAME":"后里區","MARKTYPE":"991","Class":"1"},"geometry":{"x":120.75179724973972,"y":24.324230361194072}},{"attributes":{"OBJECTID":12360,"LANDMARKID":"1000600000221","LANDMARKCO":"107","LANDMARKNA":"台中市警察局義里派出所","LANDMARKAD":"1000607","ADDRESS":"台中市后里區墩東村三豐路209號","TEL":"04-25562333","COUNTYNAME":"台中市","TOWNNAME":"后里區","MARKTYPE":"991","Class":"1"},"geometry":{"x":120.72173624905786,"y":24.304770834093578}},{"attributes":{"OBJECTID":12361,"LANDMARKID":"1000600000222","LANDMARKCO":"107","LANDMARKNA":"台中市警察局后里分駐所","LANDMARKAD":"1000607","ADDRESS":"台中市后里區墩西村公安路88號","TEL":"04-25562037","COUNTYNAME":"台中市","TOWNNAME":"后里區","MARKTYPE":"991","Class":"1"},"geometry":{"x":120.71019319938839,"y":24.305241766781037}},{"attributes":{"OBJECTID":12362,"LANDMARKID":"1000600000102","LANDMARKCO":"106","LANDMARKNA":"台中市后里區戶政事務所","LANDMARKAD":"1000607","ADDRESS":"台中市后里區墩西村3鄰公安路90號","TEL":"04-25562241","COUNTYNAME":"台中市","TOWNNAME":"后里區","MARKTYPE":"991","Class":"1"},"geometry":{"x":120.71000828128378,"y":24.30539121630725}},{"attributes":{"OBJECTID":12363,"LANDMARKID":"1000600000218","LANDMARKCO":"107","LANDMARKNA":"台中市消防局后里分隊","LANDMARKAD":"1000607","ADDRESS":"台中市后里區文明路146號","TEL":"04-25562600","COUNTYNAME":"台中市","TOWNNAME":"后里區","MARKTYPE":"991","Class":"1"},"geometry":{"x":120.7179120327155,"y":24.306954427267733}},{"attributes":{"OBJECTID":12364,"LANDMARKID":"1000600000074","LANDMARKCO":"103","LANDMARKNA":"台中市后里區衛生所","LANDMARKAD":"1000607","ADDRESS":"台中市后里區公安路86號","TEL":"04-25562048","COUNTYNAME":"台中市","TOWNNAME":"后里區","MARKTYPE":"991","Class":"1"},"geometry":{"x":120.71035515843053,"y":24.305157962047012}},{"attributes":{"OBJECTID":12365,"LANDMARKID":"1000600000075","LANDMARKCO":"103","LANDMARKNA":"台中市環保局柴油車檢驗所","LANDMARKAD":"1000607","ADDRESS":"台中市后里區","TEL":"04-25580029","COUNTYNAME":"台中市","TOWNNAME":"后里區","MARKTYPE":"991","Class":"1"},"geometry":{"x":120.73219193506364,"y":24.287776910425912}},{"attributes":{"OBJECTID":12366,"LANDMARKID":"1000600000553","LANDMARKCO":"204","LANDMARKNA":"台中市立圖書館后里分館","LANDMARKAD":"1000607","ADDRESS":"台中市后里區墎東村文化路28號","TEL":" ","COUNTYNAME":"台中市","TOWNNAME":"后里區","MARKTYPE":"992","Class":"2"},"geometry":{"x":120.71542473266005,"y":24.306968474892706}},{"attributes":{"OBJECTID":12367,"LANDMARKID":"1000600000358","LANDMARKCO":"203","LANDMARKNA":"縣立后里國小","LANDMARKAD":"1000607","ADDRESS":"台中市后里區甲后路110號","TEL":"04-25562294","COUNTYNAME":"台中市","TOWNNAME":"后里區","MARKTYPE":"992","Class":"2"},"geometry":{"x":120.72953402755232,"y":24.31007446848319}},{"attributes":{"OBJECTID":12368,"LANDMARKID":"1000600000306","LANDMARKCO":"202","LANDMARKNA":"縣立后綜高中","LANDMARKAD":"1000607","ADDRESS":"台中市后里區三豐路80號","TEL":"04-25662012","COUNTYNAME":"台中市","TOWNNAME":"后里區","MARKTYPE":"992","Class":"2"},"geometry":{"x":120.72261861500729,"y":24.306226074673177}},{"attributes":{"OBJECTID":12369,"LANDMARKID":"1000600000345","LANDMARKCO":"203","LANDMARKNA":"縣立育英國小","LANDMARKAD":"1000607","ADDRESS":"台中市后里區太平村四月路23號","TEL":"04-25562374","COUNTYNAME":"台中市","TOWNNAME":"后里區","MARKTYPE":"992","Class":"2"},"geometry":{"x":120.67934061591468,"y":24.310708046398684}},{"attributes":{"OBJECTID":12370,"LANDMARKID":"1000600000346","LANDMARKCO":"203","LANDMARKNA":"縣立內埔國小","LANDMARKAD":"1000607","ADDRESS":"台中市后里區文化路30號","TEL":"04-25562003","COUNTYNAME":"台中市","TOWNNAME":"后里區","MARKTYPE":"992","Class":"2"},"geometry":{"x":120.7144079420148,"y":24.307570001860007}},{"attributes":{"OBJECTID":12371,"LANDMARKID":"1000600000347","LANDMARKCO":"203","LANDMARKNA":"縣立月眉國小","LANDMARKAD":"1000607","ADDRESS":"台中市后里區眉山村甲后路940號","TEL":"04-25562342","COUNTYNAME":"台中市","TOWNNAME":"后里區","MARKTYPE":"992","Class":"2"},"geometry":{"x":120.69194866364519,"y":24.315251652434206}},{"attributes":{"OBJECTID":12372,"LANDMARKID":"1000600000348","LANDMARKCO":"203","LANDMARKNA":"縣立泰安國小","LANDMARKAD":"1000607","ADDRESS":"台中市后里區泰安村安眉路5號","TEL":"04-25562364","COUNTYNAME":"台中市","TOWNNAME":"后里區","MARKTYPE":"992","Class":"2"},"geometry":{"x":120.75047087038639,"y":24.325181379169724}},{"attributes":{"OBJECTID":12373,"LANDMARKID":"1000600000349","LANDMARKCO":"203","LANDMARKNA":"縣立七星國小","LANDMARKAD":"1000607","ADDRESS":"台中市后里區墩南村南村路389號","TEL":"04-25562608","COUNTYNAME":"台中市","TOWNNAME":"后里區","MARKTYPE":"992","Class":"2"},"geometry":{"x":120.71131510788879,"y":24.301537784923084}},{"attributes":{"OBJECTID":12374,"LANDMARKID":"1000600000350","LANDMARKCO":"203","LANDMARKNA":"縣立后里國中","LANDMARKAD":"1000607","ADDRESS":"台中市后里區中眉路169號","TEL":"04-25562409","COUNTYNAME":"台中市","TOWNNAME":"后里區","MARKTYPE":"992","Class":"2"},"geometry":{"x":120.69537901004992,"y":24.307841553317196}},{"attributes":{"OBJECTID":12375,"LANDMARKID":"1000600000351","LANDMARKCO":"203","LANDMARKNA":"國立台中啟明學校","LANDMARKAD":"1000607","ADDRESS":"台中市后里區三豐路72號","TEL":"04-25562126","COUNTYNAME":"台中市","TOWNNAME":"后里區","MARKTYPE":"992","Class":"2"},"geometry":{"x":120.72350587464543,"y":24.305118641452694}},{"attributes":{"OBJECTID":12376,"LANDMARKID":"1000600000606","LANDMARKCO":"303","LANDMARKNA":"后里區復興街停車場","LANDMARKAD":"1000607","ADDRESS":"台中市后里區","TEL":" ","COUNTYNAME":"台中市","TOWNNAME":"后里區","MARKTYPE":"993","Class":"303"},"geometry":{"x":120.71902417087607,"y":24.308531452815878}},{"attributes":{"OBJECTID":12377,"LANDMARKID":"1000600000730","LANDMARKCO":"308","LANDMARKNA":"泰安服務區","LANDMARKAD":"1000607","ADDRESS":" ","TEL":" ","COUNTYNAME":"台中市","TOWNNAME":"后里區","MARKTYPE":"993","Class":"308"},"geometry":{"x":120.71203304999335,"y":24.327383938857331}},{"attributes":{"OBJECTID":12378,"LANDMARKID":"1000600000731","LANDMARKCO":"308","LANDMARKNA":"后里收費站","LANDMARKAD":"1000607","ADDRESS":" ","TEL":" ","COUNTYNAME":"台中市","TOWNNAME":"后里區","MARKTYPE":"993","Class":"308"},"geometry":{"x":120.69634192495685,"y":24.296786538591597}},{"attributes":{"OBJECTID":12379,"LANDMARKID":"1000600000732","LANDMARKCO":"308","LANDMARKNA":"國1-后里交流道-南下","LANDMARKAD":"1000607","ADDRESS":"台中市后里區","TEL":" ","COUNTYNAME":"台中市","TOWNNAME":"后里區","MARKTYPE":"993","Class":"308"},"geometry":{"x":120.70109531996852,"y":24.312626910555807}},{"attributes":{"OBJECTID":12380,"LANDMARKID":"1000600000733","LANDMARKCO":"308","LANDMARKNA":"月眉收費站","LANDMARKAD":"1000607","ADDRESS":"台中市后里區","TEL":" ","COUNTYNAME":"台中市","TOWNNAME":"后里區","MARKTYPE":"993","Class":"308"},"geometry":{"x":120.70264795828945,"y":24.315592017622336}},{"attributes":{"OBJECTID":12381,"LANDMARKID":"1000600000603","LANDMARKCO":"302","LANDMARKNA":"統聯客運-月眉站-代售處","LANDMARKAD":"1000607","ADDRESS":"台中市后里區安眉路115號","TEL":"連絡電話:","COUNTYNAME":"台中市","TOWNNAME":"后里區","MARKTYPE":"993","Class":"302"},"geometry":{"x":120.69247516037997,"y":24.317198573042809}},{"attributes":{"OBJECTID":12382,"LANDMARKID":"1000600000604","LANDMARKCO":"303","LANDMARKNA":"月眉育樂世界停車場","LANDMARKAD":"1000607","ADDRESS":"台中市后里區安眉路115號","TEL":"0800054080","COUNTYNAME":"台中市","TOWNNAME":"后里區","MARKTYPE":"993","Class":"303"},"geometry":{"x":120.69246406392114,"y":24.319233640904798}},{"attributes":{"OBJECTID":12383,"LANDMARKID":"1000600000605","LANDMARKCO":"303","LANDMARKNA":"后里馬場停車場","LANDMARKAD":"1000607","ADDRESS":"台中市后里區寺山路41號","TEL":"04-25562531","COUNTYNAME":"台中市","TOWNNAME":"后里區","MARKTYPE":"993","Class":"303"},"geometry":{"x":120.73508780716254,"y":24.298412025624476}},{"attributes":{"OBJECTID":12384,"LANDMARKID":"1000600000574","LANDMARKCO":"301","LANDMARKNA":"泰安火車站","LANDMARKAD":"1000607","ADDRESS":"台中市后里區安眉路37之12號","TEL":" ","COUNTYNAME":"台中市","TOWNNAME":"后里區","MARKTYPE":"993","Class":"301"},"geometry":{"x":120.74897137035376,"y":24.322615178093347}},{"attributes":{"OBJECTID":12385,"LANDMARKID":"1000600000575","LANDMARKCO":"301","LANDMARKNA":"后里火車站","LANDMARKAD":"1000607","ADDRESS":"台中市后里區甲后路1號","TEL":"04-25562038","COUNTYNAME":"台中市","TOWNNAME":"后里區","MARKTYPE":"993","Class":"301"},"geometry":{"x":120.73308723106462,"y":24.309291083822}},{"attributes":{"OBJECTID":12386,"LANDMARKID":"1000600000804","LANDMARKCO":"402","LANDMARKNA":"中華電信-后里服務中心","LANDMARKAD":"1000607","ADDRESS":"台中市后里區甲后路611號","TEL":"123或0800-080-123","COUNTYNAME":"台中市","TOWNNAME":"后里區","MARKTYPE":"994","Class":"4"},"geometry":{"x":120.7174671368506,"y":24.309491044343741}},{"attributes":{"OBJECTID":12387,"LANDMARKID":"1000600000805","LANDMARKCO":"402","LANDMARKNA":"威寶電信-后里三豐特約服務中心","LANDMARKAD":"1000607","ADDRESS":"台中市后里區三豐路114號","TEL":"04-25589451","COUNTYNAME":"台中市","TOWNNAME":"后里區","MARKTYPE":"994","Class":"4"},"geometry":{"x":120.72242775930053,"y":24.308388486844834}},{"attributes":{"OBJECTID":12388,"LANDMARKID":"1000600000806","LANDMARKCO":"402","LANDMARKNA":"大眾電信(震旦通訊)-后里三豐店","LANDMARKAD":"1000607","ADDRESS":"台中市后里區三豐路301號","TEL":"04-25584909","COUNTYNAME":"台中市","TOWNNAME":"后里區","MARKTYPE":"994","Class":"4"},"geometry":{"x":120.72204295966129,"y":24.308518593692341}},{"attributes":{"OBJECTID":12389,"LANDMARKID":"1000600001385","LANDMARKCO":"603","LANDMARKNA":"青峰大旅社","LANDMARKAD":"1000607","ADDRESS":"台中市后里區后里村三豐路297巷4號","TEL":"04-25563326","COUNTYNAME":"台中市","TOWNNAME":"后里區","MARKTYPE":"996","Class":"6"},"geometry":{"x":120.72176752975518,"y":24.308418264061878}},{"attributes":{"OBJECTID":12390,"LANDMARKID":"1000600001386","LANDMARKCO":"603","LANDMARKNA":"樂興旅社","LANDMARKAD":"1000607","ADDRESS":"台中市后里區后里村甲后路318號","TEL":"04-25562072","COUNTYNAME":"台中市","TOWNNAME":"后里區","MARKTYPE":"996","Class":"6"},"geometry":{"x":120.72334143390658,"y":24.3089877468854}},{"attributes":{"OBJECTID":12391,"LANDMARKID":"1000600001387","LANDMARKCO":"603","LANDMARKNA":"永豐大旅社","LANDMARKAD":"1000607","ADDRESS":"台中市后里區后里村甲后路324號","TEL":"04-25565155","COUNTYNAME":"台中市","TOWNNAME":"后里區","MARKTYPE":"996","Class":"6"},"geometry":{"x":120.72322324519966,"y":24.308978286601935}},{"attributes":{"OBJECTID":12392,"LANDMARKID":"1000600001388","LANDMARKCO":"603","LANDMARKNA":"僑芳賓館","LANDMARKAD":"1000607","ADDRESS":"台中市后里區后里村復興街104號","TEL":"04-25571671","COUNTYNAME":"台中市","TOWNNAME":"后里區","MARKTYPE":"996","Class":"6"},"geometry":{"x":120.72158021804591,"y":24.308444665114862}},{"attributes":{"OBJECTID":12393,"LANDMARKID":"1000600001389","LANDMARKCO":"603","LANDMARKNA":"玉山大旅社","LANDMARKAD":"1000607","ADDRESS":"台中市后里區后里村復興街74號","TEL":"04-25562282","COUNTYNAME":"台中市","TOWNNAME":"后里區","MARKTYPE":"996","Class":"6"},"geometry":{"x":120.72099570362661,"y":24.307792429652618}},{"attributes":{"OBJECTID":12394,"LANDMARKID":"1000600001390","LANDMARKCO":"603","LANDMARKNA":"湘源大旅社","LANDMARKAD":"1000607","ADDRESS":"台中市后里區義里村甲后路255號","TEL":"04-25562165","COUNTYNAME":"台中市","TOWNNAME":"后里區","MARKTYPE":"996","Class":"6"},"geometry":{"x":120.72615933203021,"y":24.308965818901523}},{"attributes":{"OBJECTID":12395,"LANDMARKID":"1000600001391","LANDMARKCO":"603","LANDMARKNA":"后里旅社","LANDMARKAD":"1000607","ADDRESS":"台中市后里區義里村甲后路28號","TEL":"04-25562957","COUNTYNAME":"台中市","TOWNNAME":"后里區","MARKTYPE":"996","Class":"6"},"geometry":{"x":120.73225557077464,"y":24.309546437729942}},{"attributes":{"OBJECTID":12396,"LANDMARKID":"1000600001392","LANDMARKCO":"603","LANDMARKNA":"良昌旅社","LANDMARKAD":"1000607","ADDRESS":"台中市后里區義里村甲后路5號","TEL":"04-25563296","COUNTYNAME":"台中市","TOWNNAME":"后里區","MARKTYPE":"996","Class":"6"},"geometry":{"x":120.73270025549355,"y":24.309231983737853}},{"attributes":{"OBJECTID":12397,"LANDMARKID":"1000600001443","LANDMARKCO":"604","LANDMARKNA":"鳳凰山民宿","LANDMARKAD":"1000607","ADDRESS":"台中市后里區仁里村圳寮路47巷7號","TEL":"04-25565994","COUNTYNAME":"台中市","TOWNNAME":"后里區","MARKTYPE":"996","Class":"6"},"geometry":{"x":120.74789904986278,"y":24.306266656728454}},{"attributes":{"OBJECTID":12398,"LANDMARKID":"1000600001444","LANDMARKCO":"604","LANDMARKNA":"小田田民宿","LANDMARKAD":"1000607","ADDRESS":"台中市后里區眉山村三月路3之1號","TEL":"04-25572106","COUNTYNAME":"台中市","TOWNNAME":"后里區","MARKTYPE":"996","Class":"6"},"geometry":{"x":120.69324803047222,"y":24.306384892774958}},{"attributes":{"OBJECTID":12399,"LANDMARKID":"1000600001284","LANDMARKCO":"505","LANDMARKNA":"后里馬場","LANDMARKAD":"1000607","ADDRESS":"台中市后里區寺山路41號","TEL":"04-25562531","COUNTYNAME":"台中市","TOWNNAME":"后里區","MARKTYPE":"995","Class":"5"},"geometry":{"x":120.73592759916434,"y":24.298567177550986}},{"attributes":{"OBJECTID":12400,"LANDMARKID":"1000600001285","LANDMARKCO":"505","LANDMARKNA":"月眉育樂世界","LANDMARKAD":"1000607","ADDRESS":"台中市后里區安眉路115號","TEL":" ","COUNTYNAME":"台中市","TOWNNAME":"后里區","MARKTYPE":"995","Class":"5"},"geometry":{"x":120.69748352974779,"y":24.322272574494125}}]}