{"displayFieldName":"COUNTYNAME","fieldAliases":{"OBJECTID":"OBJECTID","LANDMARKID":"LANDMARKID","LANDMARKCO":"LANDMARKCO","LANDMARKNA":"LANDMARKNA","LANDMARKAD":"LANDMARKAD","ADDRESS":"ADDRESS","TEL":"TEL","COUNTYNAME":"COUNTYNAME","TOWNNAME":"TOWNNAME","MARKTYPE":"MARKTYPE","Class":"Class"},"geometryType":"esriGeometryPoint","spatialReference":{"wkid":102443},"fields":[{"name":"OBJECTID","type":"esriFieldTypeOID","alias":"OBJECTID"},{"name":"LANDMARKID","type":"esriFieldTypeString","alias":"LANDMARKID","length":15},{"name":"LANDMARKCO","type":"esriFieldTypeString","alias":"LANDMARKCO","length":15},{"name":"LANDMARKNA","type":"esriFieldTypeString","alias":"LANDMARKNA","length":50},{"name":"LANDMARKAD","type":"esriFieldTypeString","alias":"LANDMARKAD","length":15},{"name":"ADDRESS","type":"esriFieldTypeString","alias":"ADDRESS","length":56},{"name":"TEL","type":"esriFieldTypeString","alias":"TEL","length":36},{"name":"COUNTYNAME","type":"esriFieldTypeString","alias":"COUNTYNAME","length":15},{"name":"TOWNNAME","type":"esriFieldTypeString","alias":"TOWNNAME","length":13},{"name":"MARKTYPE","type":"esriFieldTypeString","alias":"MARKTYPE","length":12},{"name":"Class","type":"esriFieldTypeString","alias":"Class","length":5}],"features":[{"attributes":{"OBJECTID":21001,"LANDMARKID":"6400000000545","LANDMARKCO":"303","LANDMARKNA":"東旺陽漢口街停車場","LANDMARKAD":"6400005","ADDRESS":"高雄市三民區漢口街","TEL":" ","COUNTYNAME":"高雄市","TOWNNAME":"三民區","MARKTYPE":"993","Class":"303"},"geometry":{"x":177770.6799999997,"y":2505109.0745000001}},{"attributes":{"OBJECTID":21002,"LANDMARKID":"6400000000712","LANDMARKCO":"308","LANDMARKNA":"國1-高雄交流道-北上","LANDMARKAD":"6400005","ADDRESS":"高雄市三民區","TEL":" ","COUNTYNAME":"高雄市","TOWNNAME":"三民區","MARKTYPE":"993","Class":"308"},"geometry":{"x":181903.38769999985,"y":2504447.2937000003}},{"attributes":{"OBJECTID":21003,"LANDMARKID":"6400000000688","LANDMARKCO":"306","LANDMARKNA":"高雄車捷運站-出口","LANDMARKAD":"6400005","ADDRESS":" ","TEL":" ","COUNTYNAME":"高雄市","TOWNNAME":"三民區","MARKTYPE":"993","Class":"306"},"geometry":{"x":178326.84200000018,"y":2504365.5238000005}},{"attributes":{"OBJECTID":21004,"LANDMARKID":"6400000000689","LANDMARKCO":"306","LANDMARKNA":"後驛捷運站-出口1","LANDMARKAD":"6400005","ADDRESS":" ","TEL":" ","COUNTYNAME":"高雄市","TOWNNAME":"三民區","MARKTYPE":"993","Class":"306"},"geometry":{"x":178405.99689999968,"y":2505449.0227000006}},{"attributes":{"OBJECTID":21005,"LANDMARKID":"6400000000690","LANDMARKCO":"306","LANDMARKNA":"後驛捷運站-出口1","LANDMARKAD":"6400005","ADDRESS":" ","TEL":" ","COUNTYNAME":"高雄市","TOWNNAME":"三民區","MARKTYPE":"993","Class":"306"},"geometry":{"x":178416.10520000011,"y":2505584.9911000002}},{"attributes":{"OBJECTID":21006,"LANDMARKID":"6400000000691","LANDMARKCO":"306","LANDMARKNA":"後驛捷運站-出口1","LANDMARKAD":"6400005","ADDRESS":" ","TEL":" ","COUNTYNAME":"高雄市","TOWNNAME":"三民區","MARKTYPE":"993","Class":"306"},"geometry":{"x":178384.41860000044,"y":2505582.6938000005}},{"attributes":{"OBJECTID":21007,"LANDMARKID":"6400000000692","LANDMARKCO":"306","LANDMARKNA":"後驛捷運站-出口1","LANDMARKAD":"6400005","ADDRESS":" ","TEL":" ","COUNTYNAME":"高雄市","TOWNNAME":"三民區","MARKTYPE":"993","Class":"306"},"geometry":{"x":178371.02929999959,"y":2505459.0664000008}},{"attributes":{"OBJECTID":21008,"LANDMARKID":"6400000000440","LANDMARKCO":"302","LANDMARKNA":"統聯客運-中華站-自營站","LANDMARKAD":"6400005","ADDRESS":"高雄市三民區九如二路727號","TEL":"連絡電話:07-315","COUNTYNAME":"高雄市","TOWNNAME":"三民區","MARKTYPE":"993","Class":"302"},"geometry":{"x":177273.01420000009,"y":2504787.7686000001}},{"attributes":{"OBJECTID":21009,"LANDMARKID":"6400000000441","LANDMARKCO":"302","LANDMARKNA":"和欣客運-高雄總站","LANDMARKAD":"6400005","ADDRESS":"高雄市建國二路255號","TEL":"(07)236-0209","COUNTYNAME":"高雄市","TOWNNAME":"三民區","MARKTYPE":"993","Class":"302"},"geometry":{"x":178499.39400000032,"y":2504304.1513999999}},{"attributes":{"OBJECTID":21010,"LANDMARKID":"6400000000442","LANDMARKCO":"302","LANDMARKNA":"和欣客運-九如站","LANDMARKAD":"6400005","ADDRESS":"高雄市九如一路214巷3號","TEL":"(07)396-2613","COUNTYNAME":"高雄市","TOWNNAME":"三民區","MARKTYPE":"993","Class":"302"},"geometry":{"x":181938.14219999965,"y":2504367.1427999996}},{"attributes":{"OBJECTID":21011,"LANDMARKID":"6400000000443","LANDMARKCO":"302","LANDMARKNA":"阿囉哈客運-高雄總站","LANDMARKAD":"6400005","ADDRESS":"高雄市建國二路261號","TEL":"(07)237-5640","COUNTYNAME":"高雄市","TOWNNAME":"三民區","MARKTYPE":"993","Class":"302"},"geometry":{"x":178478.38460000046,"y":2504306.0534000006}},{"attributes":{"OBJECTID":21012,"LANDMARKID":"6400000000444","LANDMARKCO":"302","LANDMARKNA":"飛狗巴士","LANDMARKAD":"6400005","ADDRESS":"高雄市三民區九如一路202號","TEL":"|","COUNTYNAME":"高雄市","TOWNNAME":"三民區","MARKTYPE":"993","Class":"302"},"geometry":{"x":181977.44010000024,"y":2504300.3159999996}},{"attributes":{"OBJECTID":21013,"LANDMARKID":"6400000000445","LANDMARKCO":"302","LANDMARKNA":"國光汽車客運高雄站","LANDMARKAD":"6400005","ADDRESS":"高雄市三民區建國二路310號","TEL":" ","COUNTYNAME":"高雄市","TOWNNAME":"三民區","MARKTYPE":"993","Class":"302"},"geometry":{"x":178346.70639999956,"y":2504353.8113000002}},{"attributes":{"OBJECTID":21014,"LANDMARKID":"6400000000446","LANDMARKCO":"302","LANDMARKNA":"統聯汽車客運九如站","LANDMARKAD":"6400005","ADDRESS":"高雄市三民區九如二路727號","TEL":" ","COUNTYNAME":"高雄市","TOWNNAME":"三民區","MARKTYPE":"993","Class":"302"},"geometry":{"x":177234.23440000042,"y":2504790.9674999993}},{"attributes":{"OBJECTID":21015,"LANDMARKID":"6400000000513","LANDMARKCO":"303","LANDMARKNA":"萬事發十全路(二)停車場","LANDMARKAD":"6400005","ADDRESS":"高雄市三民區十全三路與中華二路口","TEL":" ","COUNTYNAME":"高雄市","TOWNNAME":"三民區","MARKTYPE":"993","Class":"303"},"geometry":{"x":177177.53409999982,"y":2505307.6894000005}},{"attributes":{"OBJECTID":21016,"LANDMARKID":"6400000000514","LANDMARKCO":"303","LANDMARKNA":"東旺陽遼北街(一)停車場","LANDMARKAD":"6400005","ADDRESS":"高雄市三民區康平街與遼北街口","TEL":" ","COUNTYNAME":"高雄市","TOWNNAME":"三民區","MARKTYPE":"993","Class":"303"},"geometry":{"x":177475.52570000011,"y":2505463.3484000005}},{"attributes":{"OBJECTID":21017,"LANDMARKID":"6400000000515","LANDMARKCO":"303","LANDMARKNA":"東旺陽遼北街(二)停車場","LANDMARKAD":"6400005","ADDRESS":"高雄市三民區遼北街與康平街口","TEL":" ","COUNTYNAME":"高雄市","TOWNNAME":"三民區","MARKTYPE":"993","Class":"303"},"geometry":{"x":177479.39749999996,"y":2505439.9204999991}},{"attributes":{"OBJECTID":21018,"LANDMARKID":"6400000000516","LANDMARKCO":"303","LANDMARKNA":"東旺陽安東街(二)停車場","LANDMARKAD":"6400005","ADDRESS":"高雄市三民區康平街與遼北街口","TEL":" ","COUNTYNAME":"高雄市","TOWNNAME":"三民區","MARKTYPE":"993","Class":"303"},"geometry":{"x":177600.71439999994,"y":2505416.5909000002}},{"attributes":{"OBJECTID":21019,"LANDMARKID":"6400000000517","LANDMARKCO":"303","LANDMARKNA":"再發停車場","LANDMARKAD":"6400005","ADDRESS":"高雄市三民區自立一路與三民街口","TEL":" ","COUNTYNAME":"高雄市","TOWNNAME":"三民區","MARKTYPE":"993","Class":"303"},"geometry":{"x":177723.58449999988,"y":2504271.8237999994}},{"attributes":{"OBJECTID":21020,"LANDMARKID":"6400000000518","LANDMARKCO":"303","LANDMARKNA":"高雄火車站後站右側停車場","LANDMARKAD":"6400005","ADDRESS":"高雄市三民區九如二路與博愛一路交叉口","TEL":"07-2371507","COUNTYNAME":"高雄市","TOWNNAME":"三民區","MARKTYPE":"993","Class":"303"},"geometry":{"x":178246.79140000045,"y":2504662.4539999999}},{"attributes":{"OBJECTID":21021,"LANDMARKID":"6400000000519","LANDMARKCO":"303","LANDMARKNA":"萬利通察哈爾街(二)停車場","LANDMARKAD":"6400005","ADDRESS":"高雄市三民區察哈爾街上","TEL":" ","COUNTYNAME":"高雄市","TOWNNAME":"三民區","MARKTYPE":"993","Class":"303"},"geometry":{"x":178273.23500000034,"y":2505421.0595999993}},{"attributes":{"OBJECTID":21022,"LANDMARKID":"6400000000520","LANDMARKCO":"303","LANDMARKNA":"萬利通博仁街停車場","LANDMARKAD":"6400005","ADDRESS":"高雄市三民區博仁街與重慶街口","TEL":" ","COUNTYNAME":"高雄市","TOWNNAME":"三民區","MARKTYPE":"993","Class":"303"},"geometry":{"x":178269.56109999958,"y":2505334.7532000002}},{"attributes":{"OBJECTID":21023,"LANDMARKID":"6400000000521","LANDMARKCO":"303","LANDMARKNA":"萬利發停車場","LANDMARKAD":"6400005","ADDRESS":"高雄市三民區","TEL":" ","COUNTYNAME":"高雄市","TOWNNAME":"三民區","MARKTYPE":"993","Class":"303"},"geometry":{"x":178706.55800000019,"y":2504953.8877000008}},{"attributes":{"OBJECTID":21024,"LANDMARKID":"6400000000522","LANDMARKCO":"303","LANDMARKNA":"萬年達停車場","LANDMARKAD":"6400005","ADDRESS":"高雄市三民區十全一路與吉林街口","TEL":" ","COUNTYNAME":"高雄市","TOWNNAME":"三民區","MARKTYPE":"993","Class":"303"},"geometry":{"x":178723.71769999992,"y":2505139.0344999991}},{"attributes":{"OBJECTID":21025,"LANDMARKID":"6400000000523","LANDMARKCO":"303","LANDMARKNA":"高醫附設醫院地下停車場","LANDMARKAD":"6400005","ADDRESS":"高雄市三民區十全一路100號(自由路路進入)","TEL":"07-3121101","COUNTYNAME":"高雄市","TOWNNAME":"三民區","MARKTYPE":"993","Class":"303"},"geometry":{"x":178993.73159999959,"y":2505362.9372000005}},{"attributes":{"OBJECTID":21026,"LANDMARKID":"6400000000524","LANDMARKCO":"303","LANDMARKNA":"萬利興凱旋路停車場","LANDMARKAD":"6400005","ADDRESS":"高雄市三民區凱旋一路233號","TEL":" ","COUNTYNAME":"高雄市","TOWNNAME":"三民區","MARKTYPE":"993","Class":"303"},"geometry":{"x":179600.02240000013,"y":2504416.8432}},{"attributes":{"OBJECTID":21027,"LANDMARKID":"6400000000525","LANDMARKCO":"303","LANDMARKNA":"萬利發延慶街(一)停車場","LANDMARKAD":"6400005","ADDRESS":"高雄市三民區延慶街與堯山街口","TEL":" ","COUNTYNAME":"高雄市","TOWNNAME":"三民區","MARKTYPE":"993","Class":"303"},"geometry":{"x":179678.81219999958,"y":2504858.7808999997}},{"attributes":{"OBJECTID":21028,"LANDMARKID":"6400000000526","LANDMARKCO":"303","LANDMARKNA":"金獅湖風景區停車場","LANDMARKAD":"6400005","ADDRESS":"高雄市三民區鼎金一巷","TEL":" ","COUNTYNAME":"高雄市","TOWNNAME":"三民區","MARKTYPE":"993","Class":"303"},"geometry":{"x":180959.02400000021,"y":2507440.9943000004}},{"attributes":{"OBJECTID":21029,"LANDMARKID":"6400000000527","LANDMARKCO":"303","LANDMARKNA":"義華路停車場","LANDMARKAD":"6400005","ADDRESS":"高雄市三民區義華路、陽明路交叉口","TEL":" ","COUNTYNAME":"高雄市","TOWNNAME":"三民區","MARKTYPE":"993","Class":"303"},"geometry":{"x":182342.30790000036,"y":2504871.4957999997}},{"attributes":{"OBJECTID":21030,"LANDMARKID":"6400000000528","LANDMARKCO":"303","LANDMARKNA":"市立圖書館停車場","LANDMARKAD":"6400005","ADDRESS":"高雄市三民區陽明路、義華路交叉口","TEL":" ","COUNTYNAME":"高雄市","TOWNNAME":"三民區","MARKTYPE":"993","Class":"303"},"geometry":{"x":182409.94070000015,"y":2504863.4122000001}},{"attributes":{"OBJECTID":21031,"LANDMARKID":"6400000000529","LANDMARKCO":"303","LANDMARKNA":"萬利通大連街(一)停車場","LANDMARKAD":"6400005","ADDRESS":"高雄市三民區","TEL":" ","COUNTYNAME":"高雄市","TOWNNAME":"三民區","MARKTYPE":"993","Class":"303"},"geometry":{"x":178646.28399999999,"y":2505719.5662999991}},{"attributes":{"OBJECTID":21032,"LANDMARKID":"6400000000530","LANDMARKCO":"303","LANDMARKNA":"金獅湖環保公園停車場","LANDMARKAD":"6400005","ADDRESS":"高雄市三民區","TEL":" ","COUNTYNAME":"高雄市","TOWNNAME":"三民區","MARKTYPE":"993","Class":"303"},"geometry":{"x":181096.1445000004,"y":2507187.9448000006}},{"attributes":{"OBJECTID":21033,"LANDMARKID":"6400000000531","LANDMARKCO":"303","LANDMARKNA":"和川同盟停車場","LANDMARKAD":"6400005","ADDRESS":"高雄市三民區","TEL":" ","COUNTYNAME":"高雄市","TOWNNAME":"三民區","MARKTYPE":"993","Class":"303"},"geometry":{"x":178657.89829999954,"y":2505878.6073000003}},{"attributes":{"OBJECTID":21034,"LANDMARKID":"6400000000532","LANDMARKCO":"303","LANDMARKNA":"東旺陽安東街停車場","LANDMARKAD":"6400005","ADDRESS":"高雄市三民區","TEL":" ","COUNTYNAME":"高雄市","TOWNNAME":"三民區","MARKTYPE":"993","Class":"303"},"geometry":{"x":177605.48950000014,"y":2505472.2918999996}},{"attributes":{"OBJECTID":21035,"LANDMARKID":"6400000000533","LANDMARKCO":"303","LANDMARKNA":"高醫停車場","LANDMARKAD":"6400005","ADDRESS":"高雄市三民區十全一路100號","TEL":" ","COUNTYNAME":"高雄市","TOWNNAME":"三民區","MARKTYPE":"993","Class":"303"},"geometry":{"x":178998.33640000038,"y":2505162.4900000002}},{"attributes":{"OBJECTID":21036,"LANDMARKID":"6400000000534","LANDMARKCO":"303","LANDMARKNA":"國立科學工藝博物館停車場","LANDMARKAD":"6400005","ADDRESS":"高雄市三民區九如一路720號","TEL":" ","COUNTYNAME":"高雄市","TOWNNAME":"三民區","MARKTYPE":"993","Class":"303"},"geometry":{"x":180372.78699999955,"y":2504569.4124999996}},{"attributes":{"OBJECTID":21037,"LANDMARKID":"6400000000535","LANDMARKCO":"303","LANDMARKNA":"萬利通大連街(二)停車場","LANDMARKAD":"6400005","ADDRESS":"高雄市三民區","TEL":" ","COUNTYNAME":"高雄市","TOWNNAME":"三民區","MARKTYPE":"993","Class":"303"},"geometry":{"x":178631.60989999957,"y":2505788.3822000008}},{"attributes":{"OBJECTID":21038,"LANDMARKID":"6400000000536","LANDMARKCO":"303","LANDMARKNA":"萬利通北平街停車場","LANDMARKAD":"6400005","ADDRESS":"高雄市三民區","TEL":" ","COUNTYNAME":"高雄市","TOWNNAME":"三民區","MARKTYPE":"993","Class":"303"},"geometry":{"x":178632.29750000034,"y":2505795.1494999994}},{"attributes":{"OBJECTID":21039,"LANDMARKID":"6400000000537","LANDMARKCO":"303","LANDMARKNA":"萬利通吉林街停車場","LANDMARKAD":"6400005","ADDRESS":"高雄市三民區","TEL":" ","COUNTYNAME":"高雄市","TOWNNAME":"三民區","MARKTYPE":"993","Class":"303"},"geometry":{"x":178739.53899999987,"y":2505698.4470000006}},{"attributes":{"OBJECTID":21040,"LANDMARKID":"6400000000538","LANDMARKCO":"303","LANDMARKNA":"萬利通合江街(三)停車場","LANDMARKAD":"6400005","ADDRESS":"高雄市三民區","TEL":" ","COUNTYNAME":"高雄市","TOWNNAME":"三民區","MARKTYPE":"993","Class":"303"},"geometry":{"x":178862.59839999955,"y":2505708.1931999996}},{"attributes":{"OBJECTID":21041,"LANDMARKID":"6400000000539","LANDMARKCO":"303","LANDMARKNA":"萬利通松江街停車場","LANDMARKAD":"6400005","ADDRESS":"高雄市三民區","TEL":" ","COUNTYNAME":"高雄市","TOWNNAME":"三民區","MARKTYPE":"993","Class":"303"},"geometry":{"x":178507.25910000037,"y":2505733.3225999996}},{"attributes":{"OBJECTID":21042,"LANDMARKID":"6400000000540","LANDMARKCO":"303","LANDMARKNA":"萬利發永吉街停車場","LANDMARKAD":"6400005","ADDRESS":"高雄市三民區","TEL":" ","COUNTYNAME":"高雄市","TOWNNAME":"三民區","MARKTYPE":"993","Class":"303"},"geometry":{"x":178792.75239999965,"y":2505089.7912000008}},{"attributes":{"OBJECTID":21043,"LANDMARKID":"6400000000541","LANDMARKCO":"303","LANDMARKNA":"萬利發延慶街(一)停車場","LANDMARKAD":"6400005","ADDRESS":"高雄市三民區","TEL":" ","COUNTYNAME":"高雄市","TOWNNAME":"三民區","MARKTYPE":"993","Class":"303"},"geometry":{"x":179724.55640000012,"y":2504913.5593999997}},{"attributes":{"OBJECTID":21044,"LANDMARKID":"6400000000542","LANDMARKCO":"303","LANDMARKNA":"萬利發延慶街(二)停車場","LANDMARKAD":"6400005","ADDRESS":"高雄市三民區","TEL":" ","COUNTYNAME":"高雄市","TOWNNAME":"三民區","MARKTYPE":"993","Class":"303"},"geometry":{"x":179929.1819000002,"y":2504850.5965999998}},{"attributes":{"OBJECTID":21045,"LANDMARKID":"6400000000543","LANDMARKCO":"303","LANDMARKNA":"萬利發青島街停車場","LANDMARKAD":"6400005","ADDRESS":"高雄市三民區","TEL":" ","COUNTYNAME":"高雄市","TOWNNAME":"三民區","MARKTYPE":"993","Class":"303"},"geometry":{"x":179098.51180000044,"y":2504762.5404000003}},{"attributes":{"OBJECTID":21046,"LANDMARKID":"6400000000544","LANDMARKCO":"303","LANDMARKNA":"萬事發十全路停車場","LANDMARKAD":"6400005","ADDRESS":"高雄市三民區","TEL":" ","COUNTYNAME":"高雄市","TOWNNAME":"三民區","MARKTYPE":"993","Class":"303"},"geometry":{"x":177253.97630000021,"y":2505487.9184000008}},{"attributes":{"OBJECTID":21047,"LANDMARKID":"6400000000430","LANDMARKCO":"301","LANDMARKNA":"高雄火車站","LANDMARKAD":"6400005","ADDRESS":"高雄市三民區建國二路318號","TEL":" ","COUNTYNAME":"高雄市","TOWNNAME":"三民區","MARKTYPE":"993","Class":"301"},"geometry":{"x":178307.4617999997,"y":2504429.5077}},{"attributes":{"OBJECTID":21048,"LANDMARKID":"6400000000820","LANDMARKCO":"402","LANDMARKNA":"中華電信-高雄九如特約服務中心","LANDMARKAD":"6400005","ADDRESS":"高雄市三民區九如一路888號","TEL":"07-3807088","COUNTYNAME":"高雄市","TOWNNAME":"三民區","MARKTYPE":"994","Class":"4"},"geometry":{"x":179861.26599999983,"y":2504618.4543999992}},{"attributes":{"OBJECTID":21049,"LANDMARKID":"6400000000821","LANDMARKCO":"402","LANDMARKNA":"中華電信-大昌服務中心","LANDMARKAD":"6400005","ADDRESS":"高雄市三民區大昌二路28號","TEL":"123或0800-080-123","COUNTYNAME":"高雄市","TOWNNAME":"三民區","MARKTYPE":"994","Class":"4"},"geometry":{"x":181396.91000000015,"y":2504694.9300999995}},{"attributes":{"OBJECTID":21050,"LANDMARKID":"6400000000822","LANDMARKCO":"402","LANDMARKNA":"中華電信-高雄自由特約服務中心","LANDMARKAD":"6400005","ADDRESS":"高雄市三民區自由一路80號","TEL":"07-3117388","COUNTYNAME":"高雄市","TOWNNAME":"三民區","MARKTYPE":"994","Class":"4"},"geometry":{"x":178965.59119999968,"y":2505073.2717000004}},{"attributes":{"OBJECTID":21051,"LANDMARKID":"6400000000823","LANDMARKCO":"402","LANDMARKNA":"中華電信-建工服務中心","LANDMARKAD":"6400005","ADDRESS":"高雄市三民區建工路569號","TEL":"123或0800-080-123","COUNTYNAME":"高雄市","TOWNNAME":"三民區","MARKTYPE":"994","Class":"4"},"geometry":{"x":180158.39869999979,"y":2505511.4865000006}},{"attributes":{"OBJECTID":21052,"LANDMARKID":"6400000000824","LANDMARKCO":"402","LANDMARKNA":"中華電信-高雄陽明特約服務中心","LANDMARKAD":"6400005","ADDRESS":"高雄市三民區陽明路65號","TEL":"07-3943799","COUNTYNAME":"高雄市","TOWNNAME":"三民區","MARKTYPE":"994","Class":"4"},"geometry":{"x":182276.93809999991,"y":2504462.0223999992}},{"attributes":{"OBJECTID":21053,"LANDMARKID":"6400000000825","LANDMARKCO":"402","LANDMARKNA":"中華電信-高雄鼎山特約服務中心","LANDMARKAD":"6400005","ADDRESS":"高雄市三民區鼎山街295號","TEL":"07-3959488","COUNTYNAME":"高雄市","TOWNNAME":"三民區","MARKTYPE":"994","Class":"4"},"geometry":{"x":180342.99959999975,"y":2506610.3034000006}},{"attributes":{"OBJECTID":21054,"LANDMARKID":"6400000000826","LANDMARKCO":"402","LANDMARKNA":"遠傳電信-高雄十全門市","LANDMARKAD":"6400005","ADDRESS":"高雄市十全一路355號","TEL":" ","COUNTYNAME":"高雄市","TOWNNAME":"三民區","MARKTYPE":"994","Class":"4"},"geometry":{"x":178676.68560000043,"y":2505146.2501999997}},{"attributes":{"OBJECTID":21055,"LANDMARKID":"6400000000827","LANDMARKCO":"402","LANDMARKNA":"遠傳電信-高雄天祥門市","LANDMARKAD":"6400005","ADDRESS":"高雄市三民區天祥一路223號","TEL":" ","COUNTYNAME":"高雄市","TOWNNAME":"三民區","MARKTYPE":"994","Class":"4"},"geometry":{"x":179861.37519999966,"y":2507670.3904999997}},{"attributes":{"OBJECTID":21056,"LANDMARKID":"6400000000828","LANDMARKCO":"402","LANDMARKNA":"遠傳電信-高雄覺民門市","LANDMARKAD":"6400005","ADDRESS":"高雄市三民區覺民路194號","TEL":" ","COUNTYNAME":"高雄市","TOWNNAME":"三民區","MARKTYPE":"994","Class":"4"},"geometry":{"x":182171.63860000018,"y":2504529.5559}},{"attributes":{"OBJECTID":21057,"LANDMARKID":"6400000000829","LANDMARKCO":"402","LANDMARKNA":"威寶電信-高雄建工特約服務中心","LANDMARKAD":"6400005","ADDRESS":"高雄市三民區建工路553號","TEL":"07-3877755","COUNTYNAME":"高雄市","TOWNNAME":"三民區","MARKTYPE":"994","Class":"4"},"geometry":{"x":180224.34779999964,"y":2505522.7874999996}},{"attributes":{"OBJECTID":21058,"LANDMARKID":"6400000000830","LANDMARKCO":"402","LANDMARKNA":"威寶電信-高雄九如特約服務中心","LANDMARKAD":"6400005","ADDRESS":"高雄市三民區九如一路875號","TEL":"07-3828518","COUNTYNAME":"高雄市","TOWNNAME":"三民區","MARKTYPE":"994","Class":"4"},"geometry":{"x":179878.50420000032,"y":2504566.5333999991}},{"attributes":{"OBJECTID":21059,"LANDMARKID":"6400000000831","LANDMARKCO":"402","LANDMARKNA":"威寶電信-高雄博愛特約服務中心","LANDMARKAD":"6400005","ADDRESS":"高雄市三民區博愛一路279號","TEL":"07-3227677","COUNTYNAME":"高雄市","TOWNNAME":"三民區","MARKTYPE":"994","Class":"4"},"geometry":{"x":178368.18790000025,"y":2505561.1368000004}},{"attributes":{"OBJECTID":21060,"LANDMARKID":"6400000000832","LANDMARKCO":"402","LANDMARKNA":"威寶電信-高雄大昌特約服務中心","LANDMARKAD":"6400005","ADDRESS":"高雄市三民區大昌二路493號","TEL":"07-3907977","COUNTYNAME":"高雄市","TOWNNAME":"三民區","MARKTYPE":"994","Class":"4"},"geometry":{"x":181238.61349999998,"y":2505768.1945999991}},{"attributes":{"OBJECTID":21061,"LANDMARKID":"6400000000833","LANDMARKCO":"402","LANDMARKNA":"威寶電信-高雄天祥特約服務中心","LANDMARKAD":"6400005","ADDRESS":"高雄市三民區天祥一路179之2號","TEL":"07-3102148","COUNTYNAME":"高雄市","TOWNNAME":"三民區","MARKTYPE":"994","Class":"4"},"geometry":{"x":179963.52529999986,"y":2507637.8590999991}},{"attributes":{"OBJECTID":21062,"LANDMARKID":"6400000000834","LANDMARKCO":"402","LANDMARKNA":"威寶電信-高雄建國特約服務中心","LANDMARKAD":"6400005","ADDRESS":"高雄市三民區建國二路199號","TEL":"07-2368346","COUNTYNAME":"高雄市","TOWNNAME":"三民區","MARKTYPE":"994","Class":"4"},"geometry":{"x":178688.34159999993,"y":2504297.3245999999}},{"attributes":{"OBJECTID":21063,"LANDMARKID":"6400000000835","LANDMARKCO":"402","LANDMARKNA":"威寶電信-高雄十全特約服務中心","LANDMARKAD":"6400005","ADDRESS":"高雄市三民區十全一路375號","TEL":"07-3114802","COUNTYNAME":"高雄市","TOWNNAME":"三民區","MARKTYPE":"994","Class":"4"},"geometry":{"x":178632.67239999957,"y":2505149.0449000001}},{"attributes":{"OBJECTID":21064,"LANDMARKID":"6400000000836","LANDMARKCO":"402","LANDMARKNA":"威寶電信-高雄覺民特約服務中心","LANDMARKAD":"6400005","ADDRESS":"高雄市三民區覺民路221號","TEL":"07-3964864","COUNTYNAME":"高雄市","TOWNNAME":"三民區","MARKTYPE":"994","Class":"4"},"geometry":{"x":182079.73770000041,"y":2504507.1481999997}},{"attributes":{"OBJECTID":21065,"LANDMARKID":"6400000000837","LANDMARKCO":"402","LANDMARKNA":"大眾電信(震旦通訊)-高雄十全店","LANDMARKAD":"6400005","ADDRESS":"高雄市三民區十全一路391號","TEL":"07-3162723","COUNTYNAME":"高雄市","TOWNNAME":"三民區","MARKTYPE":"994","Class":"4"},"geometry":{"x":178601.65890000015,"y":2505153.2353000008}},{"attributes":{"OBJECTID":21066,"LANDMARKID":"6400000000838","LANDMARKCO":"402","LANDMARKNA":"大眾電信-聽達通信企業有限公司","LANDMARKAD":"6400005","ADDRESS":"高雄市三民區察哈爾一街11號","TEL":"07-3230959","COUNTYNAME":"高雄市","TOWNNAME":"三民區","MARKTYPE":"994","Class":"4"},"geometry":{"x":179334.79650000017,"y":2505336.6510000005}},{"attributes":{"OBJECTID":21067,"LANDMARKID":"6400000000839","LANDMARKCO":"402","LANDMARKNA":"大眾電信(震旦通訊)-高雄建工店","LANDMARKAD":"6400005","ADDRESS":"高雄市建工路538號","TEL":"07-3895307","COUNTYNAME":"高雄市","TOWNNAME":"三民區","MARKTYPE":"994","Class":"4"},"geometry":{"x":180698.60790000018,"y":2505771.3366}},{"attributes":{"OBJECTID":21068,"LANDMARKID":"6400000000840","LANDMARKCO":"402","LANDMARKNA":"大眾電信(震旦通訊)-高雄覺民店","LANDMARKAD":"6400005","ADDRESS":"高雄市覺民路209號","TEL":"07-3847218","COUNTYNAME":"高雄市","TOWNNAME":"三民區","MARKTYPE":"994","Class":"4"},"geometry":{"x":182123.77689999994,"y":2504498.3435999993}},{"attributes":{"OBJECTID":21069,"LANDMARKID":"6400000000841","LANDMARKCO":"402","LANDMARKNA":"威寶電信-高雄鼎山特約服務中心","LANDMARKAD":"6400005","ADDRESS":"高雄市三民區鼎山街252之1號","TEL":"07-3947996","COUNTYNAME":"高雄市","TOWNNAME":"三民區","MARKTYPE":"994","Class":"4"},"geometry":{"x":180312.77960000001,"y":2506820.6823999994}},{"attributes":{"OBJECTID":21070,"LANDMARKID":"6400000000842","LANDMARKCO":"402","LANDMARKNA":"中華電信-高雄天祥特約服務中心","LANDMARKAD":"6400005","ADDRESS":"高雄市三民區天祥ㄧ路200號","TEL":"07-3494788","COUNTYNAME":"高雄市","TOWNNAME":"三民區","MARKTYPE":"994","Class":"4"},"geometry":{"x":179926.36880000029,"y":2507677.4103999995}},{"attributes":{"OBJECTID":21071,"LANDMARKID":"6400000001393","LANDMARKCO":"603","LANDMARKNA":"芳賓大旅社","LANDMARKAD":"6400005","ADDRESS":"高雄市三民區河北二路2號","TEL":"07-2883181","COUNTYNAME":"高雄市","TOWNNAME":"三民區","MARKTYPE":"996","Class":"6"},"geometry":{"x":178254.08600000013,"y":2504241.9960999992}},{"attributes":{"OBJECTID":21072,"LANDMARKID":"6400000001394","LANDMARKCO":"603","LANDMARKNA":"華賓大旅社","LANDMARKAD":"6400005","ADDRESS":"高雄市三民區南華路221號","TEL":"07-2218800","COUNTYNAME":"高雄市","TOWNNAME":"三民區","MARKTYPE":"996","Class":"6"},"geometry":{"x":178411.04700000025,"y":2504237.0019000005}},{"attributes":{"OBJECTID":21073,"LANDMARKID":"6400000001395","LANDMARKCO":"603","LANDMARKNA":"國統大飯店","LANDMARKAD":"6400005","ADDRESS":"高雄市三民區建國二路295號","TEL":"07-2350101","COUNTYNAME":"高雄市","TOWNNAME":"三民區","MARKTYPE":"996","Class":"6"},"geometry":{"x":178353.58719999995,"y":2504314.9583999999}},{"attributes":{"OBJECTID":21074,"LANDMARKID":"6400000001396","LANDMARKCO":"603","LANDMARKNA":"金輝大飯店","LANDMARKAD":"6400005","ADDRESS":"高雄市三民區建國三路185號","TEL":"07-2865151-9","COUNTYNAME":"高雄市","TOWNNAME":"三民區","MARKTYPE":"996","Class":"6"},"geometry":{"x":177799.85500000045,"y":2504342.2268000003}},{"attributes":{"OBJECTID":21075,"LANDMARKID":"6400000001397","LANDMARKCO":"603","LANDMARKNA":"陽明四季汽車旅館","LANDMARKAD":"6400005","ADDRESS":"高雄市三民區褒揚街189號","TEL":"07-3891197","COUNTYNAME":"高雄市","TOWNNAME":"三民區","MARKTYPE":"996","Class":"6"},"geometry":{"x":182207.8320000004,"y":2504677.0620000008}},{"attributes":{"OBJECTID":21076,"LANDMARKID":"6400000001398","LANDMARKCO":"603","LANDMARKNA":"金山大飯店","LANDMARKAD":"6400005","ADDRESS":"高雄市三民區河北二路51號","TEL":"07-2258861","COUNTYNAME":"高雄市","TOWNNAME":"三民區","MARKTYPE":"996","Class":"6"},"geometry":{"x":178011.50059999991,"y":2504271.6894000005}},{"attributes":{"OBJECTID":21077,"LANDMARKID":"6400000001399","LANDMARKCO":"603","LANDMARKNA":"人道國際酒店","LANDMARKAD":"6400005","ADDRESS":"高雄市三民區九如一路426號","TEL":"07-3845526","COUNTYNAME":"高雄市","TOWNNAME":"三民區","MARKTYPE":"996","Class":"6"},"geometry":{"x":181168.44130000006,"y":2504470.1234000009}},{"attributes":{"OBJECTID":21078,"LANDMARKID":"6400000001400","LANDMARKCO":"603","LANDMARKNA":"荷蘭汽車旅館","LANDMARKAD":"6400005","ADDRESS":"高雄市三民區正忠路19巷2號","TEL":"07-3861813","COUNTYNAME":"高雄市","TOWNNAME":"三民區","MARKTYPE":"996","Class":"6"},"geometry":{"x":181144.08059999999,"y":2504695.6872000005}},{"attributes":{"OBJECTID":21079,"LANDMARKID":"6400000001401","LANDMARKCO":"603","LANDMARKNA":"香格里拉旅館","LANDMARKAD":"6400005","ADDRESS":"高雄市三民區建國二路208號","TEL":"07-2356007","COUNTYNAME":"高雄市","TOWNNAME":"三民區","MARKTYPE":"996","Class":"6"},"geometry":{"x":178701.6353000002,"y":2504324.6970000006}},{"attributes":{"OBJECTID":21080,"LANDMARKID":"6400000001402","LANDMARKCO":"603","LANDMARKNA":"拉斯維嘉Life商旅","LANDMARKAD":"6400005","ADDRESS":"高雄市三民區林森一路297巷40號1-4樓","TEL":"07-2358121","COUNTYNAME":"高雄市","TOWNNAME":"三民區","MARKTYPE":"996","Class":"6"},"geometry":{"x":178394.8060999997,"y":2504281.8490999993}},{"attributes":{"OBJECTID":21081,"LANDMARKID":"6400000001403","LANDMARKCO":"603","LANDMARKNA":"富翔大飯店","LANDMARKAD":"6400005","ADDRESS":"高雄市三民區河北二路110號2~5樓","TEL":"07-2881288","COUNTYNAME":"高雄市","TOWNNAME":"三民區","MARKTYPE":"996","Class":"6"},"geometry":{"x":177759.86950000003,"y":2504189.2146000005}},{"attributes":{"OBJECTID":21082,"LANDMARKID":"6400000001404","LANDMARKCO":"603","LANDMARKNA":"康橋商旅-站前雄中館","LANDMARKAD":"6400005","ADDRESS":"高雄市三民區建國三路44號2-11樓","TEL":"07-9698899","COUNTYNAME":"高雄市","TOWNNAME":"三民區","MARKTYPE":"996","Class":"6"},"geometry":{"x":178170.2089999998,"y":2504334.2372999992}},{"attributes":{"OBJECTID":21083,"LANDMARKID":"6400000001405","LANDMARKCO":"603","LANDMARKNA":"大千庭園休閒賓館","LANDMARKAD":"6400005","ADDRESS":"高雄市三民區河北二路100號4樓","TEL":"07-2865868","COUNTYNAME":"高雄市","TOWNNAME":"三民區","MARKTYPE":"996","Class":"6"},"geometry":{"x":177827.5055999998,"y":2504212.2252999991}},{"attributes":{"OBJECTID":21084,"LANDMARKID":"6400000001406","LANDMARKCO":"603","LANDMARKNA":"鴻華賓館","LANDMARKAD":"6400005","ADDRESS":"高雄市三民區褒揚街314號","TEL":"07-3817055","COUNTYNAME":"高雄市","TOWNNAME":"三民區","MARKTYPE":"996","Class":"6"},"geometry":{"x":181935.47670000046,"y":2504760.3861999996}},{"attributes":{"OBJECTID":21085,"LANDMARKID":"6400000001407","LANDMARKCO":"603","LANDMARKNA":"新宿大旅社","LANDMARKAD":"6400005","ADDRESS":"高雄市三民區重慶街1之2號1~8樓","TEL":"07-3117161","COUNTYNAME":"高雄市","TOWNNAME":"三民區","MARKTYPE":"996","Class":"6"},"geometry":{"x":178219.44969999976,"y":2504661.6771000009}},{"attributes":{"OBJECTID":21086,"LANDMARKID":"6400000001408","LANDMARKCO":"603","LANDMARKNA":"大友商務旅館","LANDMARKAD":"6400005","ADDRESS":"高雄市三民區九如二路161號1；3-10樓","TEL":"07-3233889","COUNTYNAME":"高雄市","TOWNNAME":"三民區","MARKTYPE":"996","Class":"6"},"geometry":{"x":178987.11780000012,"y":2504652.3782000002}},{"attributes":{"OBJECTID":21087,"LANDMARKID":"6400000001409","LANDMARKCO":"603","LANDMARKNA":"現代大飯店","LANDMARKAD":"6400005","ADDRESS":"高雄市三民區九如二路332號4-7樓","TEL":"07-3122151-0","COUNTYNAME":"高雄市","TOWNNAME":"三民區","MARKTYPE":"996","Class":"6"},"geometry":{"x":178385.68800000008,"y":2504745.2389000002}},{"attributes":{"OBJECTID":21088,"LANDMARKID":"6400000001410","LANDMARKCO":"603","LANDMARKNA":"龍達大飯店","LANDMARKAD":"6400005","ADDRESS":"高雄市三民區九如二路339號","TEL":"07-3121151","COUNTYNAME":"高雄市","TOWNNAME":"三民區","MARKTYPE":"996","Class":"6"},"geometry":{"x":178496.92599999998,"y":2504694.7592999991}},{"attributes":{"OBJECTID":21089,"LANDMARKID":"6400000001411","LANDMARKCO":"603","LANDMARKNA":"京城大飯店","LANDMARKAD":"6400005","ADDRESS":"高雄市三民區九如二路362號","TEL":"07-3119906","COUNTYNAME":"高雄市","TOWNNAME":"三民區","MARKTYPE":"996","Class":"6"},"geometry":{"x":178278.64620000031,"y":2504755.0777000003}},{"attributes":{"OBJECTID":21090,"LANDMARKID":"6400000001412","LANDMARKCO":"603","LANDMARKNA":"九如別館","LANDMARKAD":"6400005","ADDRESS":"高雄市三民區九如二路427號","TEL":"07-3117171","COUNTYNAME":"高雄市","TOWNNAME":"三民區","MARKTYPE":"996","Class":"6"},"geometry":{"x":178104.80659999978,"y":2504720.2617000006}},{"attributes":{"OBJECTID":21091,"LANDMARKID":"6400000001413","LANDMARKCO":"603","LANDMARKNA":"燕林大旅社","LANDMARKAD":"6400005","ADDRESS":"高雄市三民區大順二路718號2-4樓","TEL":"07-3832366-9","COUNTYNAME":"高雄市","TOWNNAME":"三民區","MARKTYPE":"996","Class":"6"},"geometry":{"x":180039.5839999998,"y":2506087.2391999997}},{"attributes":{"OBJECTID":21092,"LANDMARKID":"6400000001414","LANDMARKCO":"603","LANDMARKNA":"新源大旅社","LANDMARKAD":"6400005","ADDRESS":"高雄市三民區河北一路329號","TEL":"07-2353083","COUNTYNAME":"高雄市","TOWNNAME":"三民區","MARKTYPE":"996","Class":"6"},"geometry":{"x":178410.63989999983,"y":2504234.3625000007}},{"attributes":{"OBJECTID":21093,"LANDMARKID":"6400000001415","LANDMARKCO":"603","LANDMARKNA":"芝豐大飯店","LANDMARKAD":"6400005","ADDRESS":"高雄市三民區河北二路25號1樓；3樓至9樓","TEL":"07-2858161","COUNTYNAME":"高雄市","TOWNNAME":"三民區","MARKTYPE":"996","Class":"6"},"geometry":{"x":178128.53189999983,"y":2504258.3800000008}},{"attributes":{"OBJECTID":21094,"LANDMARKID":"6400000001416","LANDMARKCO":"603","LANDMARKNA":"金都旅社","LANDMARKAD":"6400005","ADDRESS":"高雄市三民區河北二路55號","TEL":"07-2873161","COUNTYNAME":"高雄市","TOWNNAME":"三民區","MARKTYPE":"996","Class":"6"},"geometry":{"x":177990.50109999999,"y":2504266.0763000008}},{"attributes":{"OBJECTID":21095,"LANDMARKID":"6400000001417","LANDMARKCO":"603","LANDMARKNA":"香榭賓館","LANDMARKAD":"6400005","ADDRESS":"高雄市三民區河北二路82號8-9樓之1-10","TEL":"07-2729088","COUNTYNAME":"高雄市","TOWNNAME":"三民區","MARKTYPE":"996","Class":"6"},"geometry":{"x":177934.56790000014,"y":2504251.8129999992}},{"attributes":{"OBJECTID":21096,"LANDMARKID":"6400000001418","LANDMARKCO":"603","LANDMARKNA":"固興大飯店","LANDMARKAD":"6400005","ADDRESS":"高雄市三民區南台路197號3-8樓","TEL":"07-2883041","COUNTYNAME":"高雄市","TOWNNAME":"三民區","MARKTYPE":"996","Class":"6"},"geometry":{"x":177822.31969999988,"y":2504304.2839000002}},{"attributes":{"OBJECTID":21097,"LANDMARKID":"6400000001419","LANDMARKCO":"603","LANDMARKNA":"高源大旅社","LANDMARKAD":"6400005","ADDRESS":"高雄市三民區南華路225號","TEL":"07-2357107","COUNTYNAME":"高雄市","TOWNNAME":"三民區","MARKTYPE":"996","Class":"6"},"geometry":{"x":178408.59310000017,"y":2504244.3529000003}},{"attributes":{"OBJECTID":21098,"LANDMARKID":"6400000001420","LANDMARKCO":"603","LANDMARKNA":"瑞城別館","LANDMARKAD":"6400005","ADDRESS":"高雄市三民區建國三路36號","TEL":"07-2865761","COUNTYNAME":"高雄市","TOWNNAME":"三民區","MARKTYPE":"996","Class":"6"},"geometry":{"x":178113.97300000023,"y":2504377.3114999998}},{"attributes":{"OBJECTID":21099,"LANDMARKID":"6400000001421","LANDMARKCO":"603","LANDMARKNA":"皇賓別館","LANDMARKAD":"6400005","ADDRESS":"高雄市三民區建國三路40號","TEL":"07-2883173","COUNTYNAME":"高雄市","TOWNNAME":"三民區","MARKTYPE":"996","Class":"6"},"geometry":{"x":178089.98259999976,"y":2504375.1987999994}},{"attributes":{"OBJECTID":21100,"LANDMARKID":"6400000001422","LANDMARKCO":"603","LANDMARKNA":"中和旅社","LANDMARKAD":"6400005","ADDRESS":"高雄市三民區建國三路41號","TEL":"07-2213436","COUNTYNAME":"高雄市","TOWNNAME":"三民區","MARKTYPE":"996","Class":"6"},"geometry":{"x":178167.22149999999,"y":2504324.5615999997}},{"attributes":{"OBJECTID":21101,"LANDMARKID":"6400000001423","LANDMARKCO":"603","LANDMARKNA":"信宗商務大飯店","LANDMARKAD":"6400005","ADDRESS":"高雄市三民區建國三路487號","TEL":"07-9738666","COUNTYNAME":"高雄市","TOWNNAME":"三民區","MARKTYPE":"996","Class":"6"},"geometry":{"x":176971.83189999964,"y":2504101.3233000003}},{"attributes":{"OBJECTID":21102,"LANDMARKID":"6400000001424","LANDMARKCO":"603","LANDMARKNA":"富新賓館","LANDMARKAD":"6400005","ADDRESS":"高雄市三民區澄清路471巷13號1-5樓","TEL":"07-3831788","COUNTYNAME":"高雄市","TOWNNAME":"三民區","MARKTYPE":"996","Class":"6"},"geometry":{"x":182667.05939999968,"y":2504659.2186999992}},{"attributes":{"OBJECTID":21103,"LANDMARKID":"6400000001425","LANDMARKCO":"603","LANDMARKNA":"華納不只是旅館-熱河店","LANDMARKAD":"6400005","ADDRESS":"高雄市三民區熱河二街222號","TEL":"07-5615263","COUNTYNAME":"高雄市","TOWNNAME":"三民區","MARKTYPE":"996","Class":"6"},"geometry":{"x":177618.76599999983,"y":2505133.6524999999}},{"attributes":{"OBJECTID":21104,"LANDMARKID":"6400000001426","LANDMARKCO":"603","LANDMARKNA":"漢林別館","LANDMARKAD":"6400005","ADDRESS":"高雄市三民區遼寧一街458號","TEL":"07-3222111","COUNTYNAME":"高雄市","TOWNNAME":"三民區","MARKTYPE":"996","Class":"6"},"geometry":{"x":178399.42559999973,"y":2504895.2964999992}},{"attributes":{"OBJECTID":21105,"LANDMARKID":"6400000001427","LANDMARKCO":"603","LANDMARKNA":"春陽旅社","LANDMARKAD":"6400005","ADDRESS":"高雄市三民區繼光街11號","TEL":"07-2211956","COUNTYNAME":"高雄市","TOWNNAME":"三民區","MARKTYPE":"996","Class":"6"},"geometry":{"x":177969.36959999986,"y":2504293.9769000001}},{"attributes":{"OBJECTID":21106,"LANDMARKID":"6400000001428","LANDMARKCO":"603","LANDMARKNA":"荷蘭汽車旅館","LANDMARKAD":"6400005","ADDRESS":"高雄市三民區覺民路560號","TEL":"07-3861813","COUNTYNAME":"高雄市","TOWNNAME":"三民區","MARKTYPE":"996","Class":"6"},"geometry":{"x":181130.97420000006,"y":2504681.0220999997}},{"attributes":{"OBJECTID":21107,"LANDMARKID":"6400000001429","LANDMARKCO":"603","LANDMARKNA":"凱羅藝術大飯店","LANDMARKAD":"6400005","ADDRESS":"高雄市三民區天祥一路68號1-7樓","TEL":"07-3475800","COUNTYNAME":"高雄市","TOWNNAME":"三民區","MARKTYPE":"996","Class":"6"},"geometry":{"x":180388.87009999994,"y":2507560.1895000003}},{"attributes":{"OBJECTID":21108,"LANDMARKID":"6400000001430","LANDMARKCO":"603","LANDMARKNA":"百星大飯店","LANDMARKAD":"6400005","ADDRESS":"高雄市三民區南華路231號","TEL":"07-2369131","COUNTYNAME":"高雄市","TOWNNAME":"三民區","MARKTYPE":"996","Class":"6"},"geometry":{"x":178410.49949999992,"y":2504264.3618000001}},{"attributes":{"OBJECTID":21109,"LANDMARKID":"6400000001431","LANDMARKCO":"603","LANDMARKNA":"金首都賓館","LANDMARKAD":"6400005","ADDRESS":"高雄市三民區灣復街5號","TEL":"07-3852878","COUNTYNAME":"高雄市","TOWNNAME":"三民區","MARKTYPE":"996","Class":"6"},"geometry":{"x":179834.03830000013,"y":2505898.3037}},{"attributes":{"OBJECTID":21110,"LANDMARKID":"6400000001432","LANDMARKCO":"603","LANDMARKNA":"金園大飯店","LANDMARKAD":"6400005","ADDRESS":"高雄市三民區九如二路112號","TEL":"07-3115157","COUNTYNAME":"高雄市","TOWNNAME":"三民區","MARKTYPE":"996","Class":"6"},"geometry":{"x":179101.96839999966,"y":2504684.9109000005}},{"attributes":{"OBJECTID":21111,"LANDMARKID":"6400000001433","LANDMARKCO":"603","LANDMARKNA":"建華大飯店","LANDMARKAD":"6400005","ADDRESS":"高雄市三民區建國二路283號","TEL":"07-2378888","COUNTYNAME":"高雄市","TOWNNAME":"三民區","MARKTYPE":"996","Class":"6"},"geometry":{"x":178389.27520000003,"y":2504312.2624999993}},{"attributes":{"OBJECTID":21112,"LANDMARKID":"6400000001434","LANDMARKCO":"603","LANDMARKNA":"國森旅社","LANDMARKAD":"6400005","ADDRESS":"高雄市三民區九如一路790號","TEL":"07-3870661","COUNTYNAME":"高雄市","TOWNNAME":"三民區","MARKTYPE":"996","Class":"6"},"geometry":{"x":180153.3909,"y":2504590.4826999996}},{"attributes":{"OBJECTID":21113,"LANDMARKID":"6400000001435","LANDMARKCO":"603","LANDMARKNA":"國星大飯店","LANDMARKAD":"6400005","ADDRESS":"高雄市三民區同愛街81號","TEL":"07-2873101","COUNTYNAME":"高雄市","TOWNNAME":"三民區","MARKTYPE":"996","Class":"6"},"geometry":{"x":178103.25040000025,"y":2504318.2611999996}},{"attributes":{"OBJECTID":21114,"LANDMARKID":"6400000001436","LANDMARKCO":"603","LANDMARKNA":"高寧大飯店","LANDMARKAD":"6400005","ADDRESS":"高雄市三民區安東街23-1號","TEL":"07-3119101","COUNTYNAME":"高雄市","TOWNNAME":"三民區","MARKTYPE":"996","Class":"6"},"geometry":{"x":177556.75960000046,"y":2504827.3658000007}},{"attributes":{"OBJECTID":21115,"LANDMARKID":"6400000001437","LANDMARKCO":"603","LANDMARKNA":"住友大飯店","LANDMARKAD":"6400005","ADDRESS":"高雄市三民區安寧街387號","TEL":"07-3122181","COUNTYNAME":"高雄市","TOWNNAME":"三民區","MARKTYPE":"996","Class":"6"},"geometry":{"x":178521.35099999979,"y":2504603.8734000009}},{"attributes":{"OBJECTID":21116,"LANDMARKID":"6400000001438","LANDMARKCO":"603","LANDMARKNA":"維多利亞大飯店","LANDMARKAD":"6400005","ADDRESS":"高雄市三民區安寧街454號3-9樓","TEL":"07-3231031","COUNTYNAME":"高雄市","TOWNNAME":"三民區","MARKTYPE":"996","Class":"6"},"geometry":{"x":178203.07820000034,"y":2504662.7232000008}},{"attributes":{"OBJECTID":21117,"LANDMARKID":"6400000001439","LANDMARKCO":"603","LANDMARKNA":"瑞宮大飯店","LANDMARKAD":"6400005","ADDRESS":"高雄市三民區建國二路209號","TEL":"07-2351141","COUNTYNAME":"高雄市","TOWNNAME":"三民區","MARKTYPE":"996","Class":"6"},"geometry":{"x":178659.34190000035,"y":2504297.1894000005}},{"attributes":{"OBJECTID":21118,"LANDMARKID":"6400000001440","LANDMARKCO":"603","LANDMARKNA":"華宏大飯店","LANDMARKAD":"6400005","ADDRESS":"高雄市三民區建國二路243號2-5樓","TEL":"07-2375523","COUNTYNAME":"高雄市","TOWNNAME":"三民區","MARKTYPE":"996","Class":"6"},"geometry":{"x":178522.32029999979,"y":2504302.8846000005}},{"attributes":{"OBJECTID":21119,"LANDMARKID":"6400000001441","LANDMARKCO":"603","LANDMARKNA":"名館大飯店","LANDMARKAD":"6400005","ADDRESS":"高雄市三民區建國二路255號6-9樓","TEL":"07-2351489","COUNTYNAME":"高雄市","TOWNNAME":"三民區","MARKTYPE":"996","Class":"6"},"geometry":{"x":178499.31589999981,"y":2504303.7771000005}},{"attributes":{"OBJECTID":21120,"LANDMARKID":"6400000001442","LANDMARKCO":"603","LANDMARKNA":"國眾大飯店","LANDMARKAD":"6400005","ADDRESS":"高雄市三民區建國二路268號","TEL":"07-2370117","COUNTYNAME":"高雄市","TOWNNAME":"三民區","MARKTYPE":"996","Class":"6"},"geometry":{"x":178525.1568,"y":2504337.8979000002}},{"attributes":{"OBJECTID":21121,"LANDMARKID":"6400000001443","LANDMARKCO":"603","LANDMARKNA":"一誠大飯店","LANDMARKAD":"6400005","ADDRESS":"高雄市三民區博愛一路105號","TEL":"07-3116161-8","COUNTYNAME":"高雄市","TOWNNAME":"三民區","MARKTYPE":"996","Class":"6"},"geometry":{"x":178328.68159999978,"y":2505055.3056000005}},{"attributes":{"OBJECTID":21122,"LANDMARKID":"6400000001444","LANDMARKCO":"603","LANDMARKNA":"天安大飯店","LANDMARKAD":"6400005","ADDRESS":"高雄市三民區博愛一路1號4樓","TEL":"07-3122131-40","COUNTYNAME":"高雄市","TOWNNAME":"三民區","MARKTYPE":"996","Class":"6"},"geometry":{"x":178297.62739999965,"y":2504759.1666999999}},{"attributes":{"OBJECTID":21123,"LANDMARKID":"6400000001445","LANDMARKCO":"603","LANDMARKNA":"佳宏大飯店","LANDMARKAD":"6400005","ADDRESS":"高雄市三民區博愛一路221號1-5樓","TEL":"07-3114301-9","COUNTYNAME":"高雄市","TOWNNAME":"三民區","MARKTYPE":"996","Class":"6"},"geometry":{"x":178356.9282999998,"y":2505403.0840000007}},{"attributes":{"OBJECTID":21124,"LANDMARKID":"6400000001446","LANDMARKCO":"603","LANDMARKNA":"德惠大飯店","LANDMARKAD":"6400005","ADDRESS":"高雄市三民區博愛一路338號8-10樓","TEL":"07-3226411","COUNTYNAME":"高雄市","TOWNNAME":"三民區","MARKTYPE":"996","Class":"6"},"geometry":{"x":178456.81659999955,"y":2505734.5450999998}},{"attributes":{"OBJECTID":21125,"LANDMARKID":"6400000001447","LANDMARKCO":"603","LANDMARKNA":"大爺賓館","LANDMARKAD":"6400005","ADDRESS":"高雄市三民區復興一路176號9樓","TEL":"07-2220647","COUNTYNAME":"高雄市","TOWNNAME":"三民區","MARKTYPE":"996","Class":"6"},"geometry":{"x":178957.41249999963,"y":2504281.2468999997}},{"attributes":{"OBJECTID":21126,"LANDMARKID":"6400000001448","LANDMARKCO":"603","LANDMARKNA":"朝岱汽車旅館","LANDMARKAD":"6400005","ADDRESS":"高雄市三民區皓東路78號","TEL":"07-3816800","COUNTYNAME":"高雄市","TOWNNAME":"三民區","MARKTYPE":"996","Class":"6"},"geometry":{"x":181449.55850000028,"y":2505473.1478000004}},{"attributes":{"OBJECTID":21127,"LANDMARKID":"6400000001449","LANDMARKCO":"603","LANDMARKNA":"白船賓館","LANDMARKAD":"6400005","ADDRESS":"高雄市三民區河北二路100號5樓","TEL":"07-2885026-7","COUNTYNAME":"高雄市","TOWNNAME":"三民區","MARKTYPE":"996","Class":"6"},"geometry":{"x":177828.74409999978,"y":2504214.3142000008}},{"attributes":{"OBJECTID":21128,"LANDMARKID":"6400000001450","LANDMARKCO":"603","LANDMARKNA":"大都會酒店","LANDMARKAD":"6400005","ADDRESS":"高雄市三民區大昌二路266號15-16樓","TEL":"07-3858866","COUNTYNAME":"高雄市","TOWNNAME":"三民區","MARKTYPE":"996","Class":"6"},"geometry":{"x":181373.24729999993,"y":2505234.8116999995}},{"attributes":{"OBJECTID":21129,"LANDMARKID":"6400000001451","LANDMARKCO":"603","LANDMARKNA":"西子灣大飯店","LANDMARKAD":"6400005","ADDRESS":"高雄市三民區建國二路241號","TEL":"07-2364567","COUNTYNAME":"高雄市","TOWNNAME":"三民區","MARKTYPE":"996","Class":"6"},"geometry":{"x":178527.32490000036,"y":2504301.9079999998}},{"attributes":{"OBJECTID":21130,"LANDMARKID":"6400000001187","LANDMARKCO":"503","LANDMARKNA":"金獅湖風景區","LANDMARKAD":"6400005","ADDRESS":"高雄市三民區","TEL":" ","COUNTYNAME":"高雄市","TOWNNAME":"三民區","MARKTYPE":"995","Class":"5"},"geometry":{"x":180916.78100000042,"y":2507411.5039000008}},{"attributes":{"OBJECTID":21131,"LANDMARKID":"6400000001207","LANDMARKCO":"510","LANDMARKNA":"十全高爾夫練習場","LANDMARKAD":"6400005","ADDRESS":"高雄市三民區自立一路427號","TEL":"07-3161512","COUNTYNAME":"高雄市","TOWNNAME":"三民區","MARKTYPE":"995","Class":"5"},"geometry":{"x":177662.67609999981,"y":2505384.5902999993}},{"attributes":{"OBJECTID":21132,"LANDMARKID":"6400000000993","LANDMARKCO":"405","LANDMARKNA":"中油加油站-鼓山三路站(中油直營)","LANDMARKAD":"6400002","ADDRESS":"高雄市鼓山區鼓山三路5-1號","TEL":"07-5612463","COUNTYNAME":"高雄市","TOWNNAME":"鼓山區","MARKTYPE":"994","Class":"4"},"geometry":{"x":175677.13800000027,"y":2505481.3539000005}},{"attributes":{"OBJECTID":21133,"LANDMARKID":"6400000000994","LANDMARKCO":"405","LANDMARKNA":"中油加油站-南鼓山站(中油直營)","LANDMARKAD":"6400002","ADDRESS":"高雄市鼓山區捷興二街46號","TEL":"07-5517556","COUNTYNAME":"高雄市","TOWNNAME":"鼓山區","MARKTYPE":"994","Class":"4"},"geometry":{"x":175488.57139999978,"y":2502600.4569000006}},{"attributes":{"OBJECTID":21134,"LANDMARKID":"6400000000817","LANDMARKCO":"402","LANDMARKNA":"亞太行動寬頻電信-高雄美術館加盟服務中心","LANDMARKAD":"6400002","ADDRESS":"高雄市鼓山區中華一路471號","TEL":"07-5222355","COUNTYNAME":"高雄市","TOWNNAME":"鼓山區","MARKTYPE":"994","Class":"4"},"geometry":{"x":177291.06269999966,"y":2506205.4302999992}},{"attributes":{"OBJECTID":21135,"LANDMARKID":"6400000000818","LANDMARKCO":"402","LANDMARKNA":"亞太行動寬頻電信-高雄裕誠加盟服務中心","LANDMARKAD":"6400002","ADDRESS":"高雄市鼓山區裕誠路1172號","TEL":"07-5502050","COUNTYNAME":"高雄市","TOWNNAME":"鼓山區","MARKTYPE":"994","Class":"4"},"geometry":{"x":177820.87949999981,"y":2507473.2052999996}},{"attributes":{"OBJECTID":21136,"LANDMARKID":"6400000000819","LANDMARKCO":"402","LANDMARKNA":"亞太行動寬頻電信-高雄臨海加盟服務中心","LANDMARKAD":"6400002","ADDRESS":"高雄市鼓山區臨海二路87號","TEL":"07-5313536","COUNTYNAME":"高雄市","TOWNNAME":"鼓山區","MARKTYPE":"994","Class":"4"},"geometry":{"x":174969.06649999972,"y":2502826.3380999994}},{"attributes":{"OBJECTID":21137,"LANDMARKID":"6400000000749","LANDMARKCO":"401","LANDMARKNA":"生安婦產小兒科醫院","LANDMARKAD":"6400002","ADDRESS":"高雄市鼓山區美術東二路177號B2~11樓","TEL":"07-5223138","COUNTYNAME":"高雄市","TOWNNAME":"鼓山區","MARKTYPE":"994","Class":"4"},"geometry":{"x":176860.31329999957,"y":2507067.6252999995}},{"attributes":{"OBJECTID":21138,"LANDMARKID":"6400000000750","LANDMARKCO":"401","LANDMARKNA":"正大醫院","LANDMARKAD":"6400002","ADDRESS":"高雄市鼓山區鼓山三路128之9號","TEL":"07-5823989","COUNTYNAME":"高雄市","TOWNNAME":"鼓山區","MARKTYPE":"994","Class":"4"},"geometry":{"x":175960.5131000001,"y":2507244.8870000001}},{"attributes":{"OBJECTID":21139,"LANDMARKID":"6400000000751","LANDMARKCO":"401","LANDMARKNA":"聖明醫院","LANDMARKAD":"6400002","ADDRESS":"高雄市鼓山區鼓山三路52號","TEL":"07-5313755","COUNTYNAME":"高雄市","TOWNNAME":"鼓山區","MARKTYPE":"994","Class":"4"},"geometry":{"x":175551.7547000004,"y":2506272.3122000005}},{"attributes":{"OBJECTID":21140,"LANDMARKID":"6400000000752","LANDMARKCO":"401","LANDMARKNA":"三泰醫院","LANDMARKAD":"6400002","ADDRESS":"高雄市鼓山區九如四路1030號","TEL":"07-5217466","COUNTYNAME":"高雄市","TOWNNAME":"鼓山區","MARKTYPE":"994","Class":"4"},"geometry":{"x":175931.93240000028,"y":2506336.7628000006}},{"attributes":{"OBJECTID":21141,"LANDMARKID":"6400000000753","LANDMARKCO":"401","LANDMARKNA":"高雄市立聯合醫院","LANDMARKAD":"6400002","ADDRESS":"高雄市鼓山區中華一路976號","TEL":"07-5552565","COUNTYNAME":"高雄市","TOWNNAME":"鼓山區","MARKTYPE":"994","Class":"4"},"geometry":{"x":177242.6782999998,"y":2506901.1862000003}},{"attributes":{"OBJECTID":21142,"LANDMARKID":"6400000001209","LANDMARKCO":"511","LANDMARKNA":"瑞豐夜市","LANDMARKAD":"6400002","ADDRESS":"高雄市鼓山區","TEL":" ","COUNTYNAME":"高雄市","TOWNNAME":"鼓山區","MARKTYPE":"995","Class":"5"},"geometry":{"x":177994.37320000026,"y":2507470.6439999994}},{"attributes":{"OBJECTID":21143,"LANDMARKID":"6400000001198","LANDMARKCO":"507","LANDMARKNA":"前清打狗英國領事館","LANDMARKAD":"6400002","ADDRESS":"高雄市鼓山區蓮海路18號","TEL":" ","COUNTYNAME":"高雄市","TOWNNAME":"鼓山區","MARKTYPE":"995","Class":"5"},"geometry":{"x":174630.3646999998,"y":2502127.5662999991}},{"attributes":{"OBJECTID":21144,"LANDMARKID":"6400000001199","LANDMARKCO":"507","LANDMARKNA":"雄鎮北門","LANDMARKAD":"6400002","ADDRESS":"高雄市鼓山區蓮海路6號","TEL":" ","COUNTYNAME":"高雄市","TOWNNAME":"鼓山區","MARKTYPE":"995","Class":"5"},"geometry":{"x":174602.90770000033,"y":2502088.3148999996}},{"attributes":{"OBJECTID":21145,"LANDMARKID":"6400000001200","LANDMARKCO":"507","LANDMARKNA":"內惟李氏古宅","LANDMARKAD":"6400002","ADDRESS":"高雄市鼓山區內惟路379巷11號","TEL":" ","COUNTYNAME":"高雄市","TOWNNAME":"鼓山區","MARKTYPE":"995","Class":"5"},"geometry":{"x":176035.64800000004,"y":2507095.0107000005}},{"attributes":{"OBJECTID":21146,"LANDMARKID":"6400000001201","LANDMARKCO":"507","LANDMARKNA":"武德殿","LANDMARKAD":"6400002","ADDRESS":"高雄市鼓山區登山街36號","TEL":" ","COUNTYNAME":"高雄市","TOWNNAME":"鼓山區","MARKTYPE":"995","Class":"5"},"geometry":{"x":175216.63740000036,"y":2502882.6330999993}},{"attributes":{"OBJECTID":21147,"LANDMARKID":"6400000001116","LANDMARKCO":"408","LANDMARKNA":"郵局-高雄蓬萊路郵局","LANDMARKAD":"6400002","ADDRESS":"高雄市鼓山區蓬萊路26號(高雄港警所內)","TEL":"(07)5612-650","COUNTYNAME":"高雄市","TOWNNAME":"鼓山區","MARKTYPE":"994","Class":"4"},"geometry":{"x":175867.84769999981,"y":2502355.5489000008}},{"attributes":{"OBJECTID":21148,"LANDMARKID":"6400000001117","LANDMARKCO":"408","LANDMARKNA":"郵局-鼓山郵局","LANDMARKAD":"6400002","ADDRESS":"高雄市鼓山區臨海二路17號","TEL":"(07)5516-044","COUNTYNAME":"高雄市","TOWNNAME":"鼓山區","MARKTYPE":"994","Class":"4"},"geometry":{"x":175345.7424999997,"y":2502584.7921999991}},{"attributes":{"OBJECTID":21149,"LANDMARKID":"6400000001118","LANDMARKCO":"408","LANDMARKNA":"郵局-高雄內惟郵局","LANDMARKAD":"6400002","ADDRESS":"高雄市鼓山區九如四路1020號","TEL":"(07)5613-543","COUNTYNAME":"高雄市","TOWNNAME":"鼓山區","MARKTYPE":"994","Class":"4"},"geometry":{"x":175930.53899999987,"y":2506316.7667999994}},{"attributes":{"OBJECTID":21150,"LANDMARKID":"6400000001119","LANDMARKCO":"408","LANDMARKNA":"郵局-高雄鼓岩郵局","LANDMARKAD":"6400002","ADDRESS":"高雄市鼓山區鼓山二路166-12號","TEL":"(07)5614-812","COUNTYNAME":"高雄市","TOWNNAME":"鼓山區","MARKTYPE":"994","Class":"4"},"geometry":{"x":176074.29519999959,"y":2504314.1220999993}},{"attributes":{"OBJECTID":21151,"LANDMARKID":"6400000001120","LANDMARKCO":"408","LANDMARKNA":"郵局-高雄前峰郵局","LANDMARKAD":"6400002","ADDRESS":"高雄市鼓山區九如四路2008號","TEL":"(07)5818-612","COUNTYNAME":"高雄市","TOWNNAME":"鼓山區","MARKTYPE":"994","Class":"4"},"geometry":{"x":176649.33260000031,"y":2507688.0625}},{"attributes":{"OBJECTID":21152,"LANDMARKID":"6400000001121","LANDMARKCO":"408","LANDMARKNA":"郵局-中山大學郵局","LANDMARKAD":"6400002","ADDRESS":"高雄市鼓山區蓮海路70號(西子灣國立中山大學內)","TEL":"(07)5250-829","COUNTYNAME":"高雄市","TOWNNAME":"鼓山區","MARKTYPE":"994","Class":"4"},"geometry":{"x":174548.19749999978,"y":2503109.0779999997}},{"attributes":{"OBJECTID":21153,"LANDMARKID":"6400000001122","LANDMARKCO":"408","LANDMARKNA":"郵局-高雄民強郵局","LANDMARKAD":"6400002","ADDRESS":"高雄市鼓山區九如四路636號","TEL":"(07)5615-354","COUNTYNAME":"高雄市","TOWNNAME":"鼓山區","MARKTYPE":"994","Class":"4"},"geometry":{"x":175923.06159999967,"y":2505593.7447999995}},{"attributes":{"OBJECTID":21154,"LANDMARKID":"6400000001123","LANDMARKCO":"408","LANDMARKNA":"郵局-高雄瑞豐郵局","LANDMARKAD":"6400002","ADDRESS":"高雄市鼓山區中華一路316之3號","TEL":"(07)5529-669","COUNTYNAME":"高雄市","TOWNNAME":"鼓山區","MARKTYPE":"994","Class":"4"},"geometry":{"x":177221.34109999985,"y":2507377.0741000008}},{"attributes":{"OBJECTID":21155,"LANDMARKID":"6400000001124","LANDMARKCO":"408","LANDMARKNA":"郵局-高雄高分院郵局","LANDMARKAD":"6400002","ADDRESS":"高雄市鼓山區明誠三路586號(高等法院高雄分院內)","TEL":"(07)5535-869","COUNTYNAME":"高雄市","TOWNNAME":"鼓山區","MARKTYPE":"994","Class":"4"},"geometry":{"x":177955.8518000003,"y":2506959.8524999991}},{"attributes":{"OBJECTID":21156,"LANDMARKID":"6400000001125","LANDMARKCO":"408","LANDMARKNA":"郵局-高雄凹仔底郵局","LANDMARKAD":"6400002","ADDRESS":"高雄市鼓山區文忠路100號","TEL":"(07)5527-141","COUNTYNAME":"高雄市","TOWNNAME":"鼓山區","MARKTYPE":"994","Class":"4"},"geometry":{"x":177793.24839999992,"y":2507395.0781999994}},{"attributes":{"OBJECTID":21157,"LANDMARKID":"6400000001171","LANDMARKCO":"409","LANDMARKNA":"鼓山辦事處","LANDMARKAD":"6400002","ADDRESS":"高雄市鼓山區濱海一路109之3號","TEL":"07-551-7520","COUNTYNAME":"高雄市","TOWNNAME":"鼓山區","MARKTYPE":"994","Class":"4"},"geometry":{"x":175003.42210000008,"y":2502320.5247000009}},{"attributes":{"OBJECTID":21158,"LANDMARKID":"6400000000923","LANDMARKCO":"403","LANDMARKNA":"台灣電力公司高雄區營業處","LANDMARKAD":"6400002","ADDRESS":"高雄市鼓山區鼓山二路39號","TEL":" ","COUNTYNAME":"高雄市","TOWNNAME":"鼓山區","MARKTYPE":"994","Class":"4"},"geometry":{"x":176151.71810000017,"y":2503668.7953999992}},{"attributes":{"OBJECTID":21159,"LANDMARKID":"6400000001036","LANDMARKCO":"406","LANDMARKNA":"美術公園","LANDMARKAD":"6400002","ADDRESS":"高雄市鼓山區","TEL":" ","COUNTYNAME":"高雄市","TOWNNAME":"鼓山區","MARKTYPE":"994","Class":"4"},"geometry":{"x":176523.44610000029,"y":2506462.4315000009}},{"attributes":{"OBJECTID":21160,"LANDMARKID":"6400000001073","LANDMARKCO":"407","LANDMARKNA":"小北百貨","LANDMARKAD":"6400002","ADDRESS":"高雄市鼓山區中華一路97-1號","TEL":"07-5555085","COUNTYNAME":"高雄市","TOWNNAME":"鼓山區","MARKTYPE":"994","Class":"4"},"geometry":{"x":177282.50820000004,"y":2507420.8653999995}},{"attributes":{"OBJECTID":21161,"LANDMARKID":"6400000000991","LANDMARKCO":"405","LANDMARKNA":"台塑加油站-新厝鼓山站(台塑)","LANDMARKAD":"6400002","ADDRESS":"高雄市鼓山區明誠三路639號","TEL":"07-5555570","COUNTYNAME":"高雄市","TOWNNAME":"鼓山區","MARKTYPE":"994","Class":"4"},"geometry":{"x":177705.07670000009,"y":2506907.4545000009}},{"attributes":{"OBJECTID":21162,"LANDMARKID":"6400000000992","LANDMARKCO":"405","LANDMARKNA":"台亞加油站-博愛站（台塑）","LANDMARKAD":"6400002","ADDRESS":"高雄市鼓山區博愛一路536號","TEL":"(07)557-7842","COUNTYNAME":"高雄市","TOWNNAME":"鼓山區","MARKTYPE":"994","Class":"4"},"geometry":{"x":178434.68890000042,"y":2506311.8386000004}},{"attributes":{"OBJECTID":21163,"LANDMARKID":"6400000000079","LANDMARKCO":"103","LANDMARKNA":"高雄市鼓山區衛生所","LANDMARKAD":"6400002","ADDRESS":"高雄市鼓山區登山街16號","TEL":"07-5315753","COUNTYNAME":"高雄市","TOWNNAME":"鼓山區","MARKTYPE":"991","Class":"1"},"geometry":{"x":175366.87980000023,"y":2502784.1379000004}},{"attributes":{"OBJECTID":21164,"LANDMARKID":"6400000000221","LANDMARKCO":"108","LANDMARKNA":"高雄市鼓山區公所","LANDMARKAD":"6400002","ADDRESS":"高雄市鼓山區鼓山二路166號2樓","TEL":"07-5311191","COUNTYNAME":"高雄市","TOWNNAME":"鼓山區","MARKTYPE":"991","Class":"1"},"geometry":{"x":176099.43939999957,"y":2504248.7434999999}},{"attributes":{"OBJECTID":21165,"LANDMARKID":"6400000000190","LANDMARKCO":"107","LANDMARKNA":"高雄市政府警察局鼓山分局","LANDMARKAD":"6400002","ADDRESS":"高雄市鼓山區登山里鼓山一路105號","TEL":"07-5514005","COUNTYNAME":"高雄市","TOWNNAME":"鼓山區","MARKTYPE":"991","Class":"1"},"geometry":{"x":175804.09860000014,"y":2503128.4757000003}},{"attributes":{"OBJECTID":21166,"LANDMARKID":"6400000000191","LANDMARKCO":"107","LANDMARKNA":"高雄市政府警察局新濱派出所","LANDMARKAD":"6400002","ADDRESS":"高雄市鼓山區麗興里臨海三路2號","TEL":"07-5514863","COUNTYNAME":"高雄市","TOWNNAME":"鼓山區","MARKTYPE":"991","Class":"1"},"geometry":{"x":175507.98469999991,"y":2502639.4324999992}},{"attributes":{"OBJECTID":21167,"LANDMARKID":"6400000000192","LANDMARKCO":"107","LANDMARKNA":"高雄市政府警察局鼓山派出所","LANDMARKAD":"6400002","ADDRESS":"高雄市鼓山區興中里鼓山二路81號","TEL":"07-5512673","COUNTYNAME":"高雄市","TOWNNAME":"鼓山區","MARKTYPE":"991","Class":"1"},"geometry":{"x":176236.30460000038,"y":2504011.4110000003}},{"attributes":{"OBJECTID":21168,"LANDMARKID":"6400000000193","LANDMARKCO":"107","LANDMARKNA":"高雄市政府警察局內惟派出所","LANDMARKAD":"6400002","ADDRESS":"高雄市鼓山區建國里九如四路1139號","TEL":"07-5826970","COUNTYNAME":"高雄市","TOWNNAME":"鼓山區","MARKTYPE":"991","Class":"1"},"geometry":{"x":175926.83820000011,"y":2506763.7345000003}},{"attributes":{"OBJECTID":21169,"LANDMARKID":"6400000000194","LANDMARKCO":"107","LANDMARKNA":"高雄市政府警察局龍華派出所","LANDMARKAD":"6400002","ADDRESS":"高雄市鼓山區龍子里中華一路301號","TEL":"07-5551802","COUNTYNAME":"高雄市","TOWNNAME":"鼓山區","MARKTYPE":"991","Class":"1"},"geometry":{"x":177320.72169999965,"y":2506866.0610000007}},{"attributes":{"OBJECTID":21170,"LANDMARKID":"6400000000195","LANDMARKCO":"107","LANDMARKNA":"高雄港務警察局","LANDMARKAD":"6400002","ADDRESS":"高雄市鼓山區維生里蓬萊路24號","TEL":"07-5330535","COUNTYNAME":"高雄市","TOWNNAME":"鼓山區","MARKTYPE":"991","Class":"1"},"geometry":{"x":175915.57930000033,"y":2502252.0371000003}},{"attributes":{"OBJECTID":21171,"LANDMARKID":"6400000000196","LANDMARKCO":"107","LANDMARKNA":"高雄港務消防隊","LANDMARKAD":"6400002","ADDRESS":"高雄市鼓山區蓬萊路28號","TEL":"07-5622601","COUNTYNAME":"高雄市","TOWNNAME":"鼓山區","MARKTYPE":"991","Class":"1"},"geometry":{"x":175878.16650000028,"y":2502376.8488999996}},{"attributes":{"OBJECTID":21172,"LANDMARKID":"6400000000197","LANDMARKCO":"107","LANDMARKNA":"高雄市消防局鼓山消防分隊","LANDMARKAD":"6400002","ADDRESS":"高雄市鼓山區臨海一路61之1號","TEL":"07-5213712","COUNTYNAME":"高雄市","TOWNNAME":"鼓山區","MARKTYPE":"991","Class":"1"},"geometry":{"x":175521.20239999983,"y":2502758.4967999998}},{"attributes":{"OBJECTID":21173,"LANDMARKID":"6400000000117","LANDMARKCO":"106","LANDMARKNA":"高雄市鼓山區戶政事務所","LANDMARKAD":"6400002","ADDRESS":"高雄市鼓山區寶樹里1鄰鼓山二路166號","TEL":"07-5510404","COUNTYNAME":"高雄市","TOWNNAME":"鼓山區","MARKTYPE":"991","Class":"1"},"geometry":{"x":176099.43939999957,"y":2504248.7434999999}},{"attributes":{"OBJECTID":21174,"LANDMARKID":"6400000000094","LANDMARKCO":"104","LANDMARKNA":"關稅總局高雄關稅局","LANDMARKAD":"6400002","ADDRESS":"高雄市鼓山區捷興一街3號","TEL":"07-5613251","COUNTYNAME":"高雄市","TOWNNAME":"鼓山區","MARKTYPE":"991","Class":"1"},"geometry":{"x":175471.60059999954,"y":2502327.2625999991}},{"attributes":{"OBJECTID":21175,"LANDMARKID":"6400000000095","LANDMARKCO":"104","LANDMARKNA":"高雄市國稅局鼓山稽徵所","LANDMARKAD":"6400002","ADDRESS":"高雄市鼓山區鼓山二路166號6樓","TEL":"07-5215258","COUNTYNAME":"高雄市","TOWNNAME":"鼓山區","MARKTYPE":"991","Class":"1"},"geometry":{"x":176099.43939999957,"y":2504248.7434999999}},{"attributes":{"OBJECTID":21176,"LANDMARKID":"6400000000008","LANDMARKCO":"101","LANDMARKNA":"台灣高等法院高雄分院","LANDMARKAD":"6400002","ADDRESS":"高雄市鼓山區明誠三路586號","TEL":"07-5523621","COUNTYNAME":"高雄市","TOWNNAME":"鼓山區","MARKTYPE":"991","Class":"1"},"geometry":{"x":177955.83860000037,"y":2506959.3523999993}},{"attributes":{"OBJECTID":21177,"LANDMARKID":"6400000000009","LANDMARKCO":"101","LANDMARKNA":"交通部高雄港務局","LANDMARKAD":"6400002","ADDRESS":"高雄市鼓山區臨海二路62號","TEL":"07-5612311","COUNTYNAME":"高雄市","TOWNNAME":"鼓山區","MARKTYPE":"991","Class":"1"},"geometry":{"x":174945.60259999987,"y":2502879.4766000006}},{"attributes":{"OBJECTID":21178,"LANDMARKID":"6400000000077","LANDMARKCO":"103","LANDMARKNA":"高雄市政府工務局違章建築處理","LANDMARKAD":"6400002","ADDRESS":"高雄市鼓山區鼓山一路53巷111號","TEL":"07-5618742","COUNTYNAME":"高雄市","TOWNNAME":"鼓山區","MARKTYPE":"991","Class":"1"},"geometry":{"x":175694.33210000023,"y":2503123.3308000006}},{"attributes":{"OBJECTID":21179,"LANDMARKID":"6400000000078","LANDMARKCO":"103","LANDMARKNA":"高雄市政府鼓山漁港管理站","LANDMARKAD":"6400002","ADDRESS":"高雄市鼓山區濱海一路109之4號","TEL":"07-5323448","COUNTYNAME":"高雄市","TOWNNAME":"鼓山區","MARKTYPE":"991","Class":"1"},"geometry":{"x":175003.79289999977,"y":2502327.7764999997}},{"attributes":{"OBJECTID":21180,"LANDMARKID":"6400000000425","LANDMARKCO":"207","LANDMARKNA":"高雄市立美術館","LANDMARKAD":"6400002","ADDRESS":"高雄市鼓山區美術館路20號","TEL":" ","COUNTYNAME":"高雄市","TOWNNAME":"鼓山區","MARKTYPE":"992","Class":"2"},"geometry":{"x":176664.63040000014,"y":2506261.4538000003}},{"attributes":{"OBJECTID":21181,"LANDMARKID":"6400000000410","LANDMARKCO":"204","LANDMARKNA":"高雄市立圖書館鼓山分館","LANDMARKAD":"6400002","ADDRESS":"高雄市鼓山區鼓山三路19之3號","TEL":" ","COUNTYNAME":"高雄市","TOWNNAME":"鼓山區","MARKTYPE":"992","Class":"2"},"geometry":{"x":175529.34549999982,"y":2506233.6786000002}},{"attributes":{"OBJECTID":21182,"LANDMARKID":"6400000000411","LANDMARKCO":"204","LANDMARKNA":"高雄市立圖書館南鼓山分館","LANDMARKAD":"6400002","ADDRESS":"高雄市鼓山區延平街87之13號","TEL":" ","COUNTYNAME":"高雄市","TOWNNAME":"鼓山區","MARKTYPE":"992","Class":"2"},"geometry":{"x":175267.65660000034,"y":2502753.1911999993}},{"attributes":{"OBJECTID":21183,"LANDMARKID":"6400000000340","LANDMARKCO":"203","LANDMARKNA":"市立內惟國小","LANDMARKAD":"6400002","ADDRESS":"高雄市鼓山區內惟路73號","TEL":"07-5515405","COUNTYNAME":"高雄市","TOWNNAME":"鼓山區","MARKTYPE":"992","Class":"2"},"geometry":{"x":175642.43300000019,"y":2506440.7498000003}},{"attributes":{"OBJECTID":21184,"LANDMARKID":"6400000000341","LANDMARKCO":"203","LANDMARKNA":"市立鼓山國小","LANDMARKAD":"6400002","ADDRESS":"高雄市鼓山區臨海二路50號","TEL":"07-5217795","COUNTYNAME":"高雄市","TOWNNAME":"鼓山區","MARKTYPE":"992","Class":"2"},"geometry":{"x":175097.29009999987,"y":2502780.9693999998}},{"attributes":{"OBJECTID":21185,"LANDMARKID":"6400000000256","LANDMARKCO":"202","LANDMARKNA":"私立明誠高中","LANDMARKAD":"6400002","ADDRESS":"高雄市鼓山區中華一路97號","TEL":"07-5521593","COUNTYNAME":"高雄市","TOWNNAME":"鼓山區","MARKTYPE":"992","Class":"2"},"geometry":{"x":177249.90369999968,"y":2507465.7102000006}},{"attributes":{"OBJECTID":21186,"LANDMARKID":"6400000000257","LANDMARKCO":"202","LANDMARKNA":"市立鼓山高中","LANDMARKAD":"6400002","ADDRESS":"高雄市鼓山區明德路2號","TEL":"07-5213258","COUNTYNAME":"高雄市","TOWNNAME":"鼓山區","MARKTYPE":"992","Class":"2"},"geometry":{"x":175455.7592000002,"y":2505868.7491999995}},{"attributes":{"OBJECTID":21187,"LANDMARKID":"6400000000258","LANDMARKCO":"202","LANDMARKNA":"私立中華藝校","LANDMARKAD":"6400002","ADDRESS":"高雄市鼓山區美術館路89號","TEL":"07-5549696","COUNTYNAME":"高雄市","TOWNNAME":"鼓山區","MARKTYPE":"992","Class":"2"},"geometry":{"x":177196.55260000005,"y":2506882.8324999996}},{"attributes":{"OBJECTID":21188,"LANDMARKID":"6400000000360","LANDMARKCO":"203","LANDMARKNA":"市立壽山國中","LANDMARKAD":"6400002","ADDRESS":"高雄市鼓山區鼓山二路37巷108號","TEL":"07-5519150","COUNTYNAME":"高雄市","TOWNNAME":"鼓山區","MARKTYPE":"992","Class":"2"},"geometry":{"x":175841.51260000002,"y":2503865.8855000008}},{"attributes":{"OBJECTID":21189,"LANDMARKID":"6400000000361","LANDMARKCO":"203","LANDMARKNA":"市立九如國小","LANDMARKAD":"6400002","ADDRESS":"高雄市鼓山區九如四路763號","TEL":"07-5317186","COUNTYNAME":"高雄市","TOWNNAME":"鼓山區","MARKTYPE":"992","Class":"2"},"geometry":{"x":175869.09439999983,"y":2505945.9760999996}},{"attributes":{"OBJECTID":21190,"LANDMARKID":"6400000000362","LANDMARKCO":"203","LANDMARKNA":"市立壽山國小","LANDMARKAD":"6400002","ADDRESS":"高雄市鼓山區鼓山二路37巷38弄24號","TEL":"07-5514393","COUNTYNAME":"高雄市","TOWNNAME":"鼓山區","MARKTYPE":"992","Class":"2"},"geometry":{"x":175975.54119999986,"y":2503778.5416000001}},{"attributes":{"OBJECTID":21191,"LANDMARKID":"6400000000363","LANDMARKCO":"203","LANDMARKNA":"市立龍華國小","LANDMARKAD":"6400002","ADDRESS":"高雄市鼓山區大順一路570號","TEL":"07-5553086","COUNTYNAME":"高雄市","TOWNNAME":"鼓山區","MARKTYPE":"992","Class":"2"},"geometry":{"x":178266.40789999999,"y":2506371.4802000001}},{"attributes":{"OBJECTID":21192,"LANDMARKID":"6400000000364","LANDMARKCO":"203","LANDMARKNA":"市立鼓岩國小","LANDMARKAD":"6400002","ADDRESS":"高雄市鼓山區河邊街155號","TEL":"07-5515513","COUNTYNAME":"高雄市","TOWNNAME":"鼓山區","MARKTYPE":"992","Class":"2"},"geometry":{"x":176302.9813000001,"y":2504612.7182999998}},{"attributes":{"OBJECTID":21193,"LANDMARKID":"6400000000365","LANDMARKCO":"203","LANDMARKNA":"市立中山國小","LANDMARKAD":"6400002","ADDRESS":"高雄市鼓山區雄峰路18號","TEL":"07-5821055","COUNTYNAME":"高雄市","TOWNNAME":"鼓山區","MARKTYPE":"992","Class":"2"},"geometry":{"x":176506.46279999986,"y":2507821.2493999992}},{"attributes":{"OBJECTID":21194,"LANDMARKID":"6400000000236","LANDMARKCO":"201","LANDMARKNA":"國立中山大學","LANDMARKAD":"6400002","ADDRESS":"高雄市鼓山區蓮海路70號","TEL":"07-5252000","COUNTYNAME":"高雄市","TOWNNAME":"鼓山區","MARKTYPE":"992","Class":"2"},"geometry":{"x":174567.38800000027,"y":2502396.1426999997}},{"attributes":{"OBJECTID":21195,"LANDMARKID":"6400000000237","LANDMARKCO":"201","LANDMARKNA":"國立中山大學海洋學院","LANDMARKAD":"6400002","ADDRESS":"高雄市鼓山區蓮海路70號","TEL":"07-5252088","COUNTYNAME":"高雄市","TOWNNAME":"鼓山區","MARKTYPE":"992","Class":"2"},"geometry":{"x":174548.09059999976,"y":2503108.5775000006}},{"attributes":{"OBJECTID":21196,"LANDMARKID":"6400000000255","LANDMARKCO":"202","LANDMARKNA":"私立大榮高中","LANDMARKAD":"6400002","ADDRESS":"高雄市鼓山區九如四路大榮街1號","TEL":"07-5613281","COUNTYNAME":"高雄市","TOWNNAME":"鼓山區","MARKTYPE":"992","Class":"2"},"geometry":{"x":176027.97090000007,"y":2506021.2383999992}},{"attributes":{"OBJECTID":21197,"LANDMARKID":"6400000000366","LANDMARKCO":"203","LANDMARKNA":"市立明華國中","LANDMARKAD":"6400002","ADDRESS":"高雄市鼓山區明誠二路582號","TEL":"07-5502002","COUNTYNAME":"高雄市","TOWNNAME":"鼓山區","MARKTYPE":"992","Class":"2"},"geometry":{"x":178228.79470000044,"y":2506970.7903000005}},{"attributes":{"OBJECTID":21198,"LANDMARKID":"6400000000367","LANDMARKCO":"203","LANDMARKNA":"市立鼓山國小柴山分校(廢)","LANDMARKAD":"6400002","ADDRESS":"高雄市鼓山區柴山巷2號","TEL":"07-5250019","COUNTYNAME":"高雄市","TOWNNAME":"鼓山區","MARKTYPE":"992","Class":"2"},"geometry":{"x":173363.97140000015,"y":2505110.8304999992}},{"attributes":{"OBJECTID":21199,"LANDMARKID":"6400000000550","LANDMARKCO":"303","LANDMARKNA":"國立中山大學收費停車場","LANDMARKAD":"6400002","ADDRESS":"高雄市鼓山區蓮海路70號","TEL":" ","COUNTYNAME":"高雄市","TOWNNAME":"鼓山區","MARKTYPE":"993","Class":"303"},"geometry":{"x":174370.33690000046,"y":2502863.3805}},{"attributes":{"OBJECTID":21200,"LANDMARKID":"6400000000551","LANDMARKCO":"303","LANDMARKNA":"壽山動物園停車場","LANDMARKAD":"6400002","ADDRESS":"高雄市鼓山區萬壽路350號","TEL":" ","COUNTYNAME":"高雄市","TOWNNAME":"鼓山區","MARKTYPE":"993","Class":"303"},"geometry":{"x":175746.81510000024,"y":2504044.1629000008}}]}