{"displayFieldName":"COUNTYNAME","fieldAliases":{"OBJECTID":"OBJECTID","LANDMARKID":"LANDMARKID","LANDMARKCO":"LANDMARKCO","LANDMARKNA":"LANDMARKNA","LANDMARKAD":"LANDMARKAD","ADDRESS":"ADDRESS","TEL":"TEL","COUNTYNAME":"COUNTYNAME","TOWNNAME":"TOWNNAME","MARKTYPE":"MARKTYPE","Class":"Class"},"geometryType":"esriGeometryPoint","spatialReference":{"wkid":4326},"fields":[{"name":"OBJECTID","type":"esriFieldTypeOID","alias":"OBJECTID"},{"name":"LANDMARKID","type":"esriFieldTypeString","alias":"LANDMARKID","length":15},{"name":"LANDMARKCO","type":"esriFieldTypeString","alias":"LANDMARKCO","length":15},{"name":"LANDMARKNA","type":"esriFieldTypeString","alias":"LANDMARKNA","length":50},{"name":"LANDMARKAD","type":"esriFieldTypeString","alias":"LANDMARKAD","length":15},{"name":"ADDRESS","type":"esriFieldTypeString","alias":"ADDRESS","length":56},{"name":"TEL","type":"esriFieldTypeString","alias":"TEL","length":36},{"name":"COUNTYNAME","type":"esriFieldTypeString","alias":"COUNTYNAME","length":15},{"name":"TOWNNAME","type":"esriFieldTypeString","alias":"TOWNNAME","length":13},{"name":"MARKTYPE","type":"esriFieldTypeString","alias":"MARKTYPE","length":12},{"name":"Class","type":"esriFieldTypeString","alias":"Class","length":5}],"features":[{"attributes":{"OBJECTID":9001,"LANDMARKID":"6300000001493","LANDMARKCO":"303","LANDMARKNA":"亞太駐車聯盟來來大飯店停車場","LANDMARKAD":"6300005","ADDRESS":"台北市中正區青島東路9號B1","TEL":" ","COUNTYNAME":"台北市","TOWNNAME":"中正區","MARKTYPE":"993","Class":"303"},"geometry":{"x":121.52268954134327,"y":25.043813759606248}},{"attributes":{"OBJECTID":9002,"LANDMARKID":"6300000001494","LANDMARKCO":"303","LANDMARKNA":"亞太駐車聯盟來來站停車場","LANDMARKAD":"6300005","ADDRESS":"台北市中正區青島東路21號B1","TEL":" ","COUNTYNAME":"台北市","TOWNNAME":"中正區","MARKTYPE":"993","Class":"303"},"geometry":{"x":121.52410659510556,"y":25.043449792752288}},{"attributes":{"OBJECTID":9003,"LANDMARKID":"6300000001495","LANDMARKCO":"303","LANDMARKNA":"兒童交通博物館地下停車場","LANDMARKAD":"6300005","ADDRESS":"台北市中正區汀州路三段2號","TEL":" ","COUNTYNAME":"台北市","TOWNNAME":"中正區","MARKTYPE":"993","Class":"303"},"geometry":{"x":121.52546544119033,"y":25.020205715646483}},{"attributes":{"OBJECTID":9004,"LANDMARKID":"6300000001496","LANDMARKCO":"303","LANDMARKNA":"和平停車場","LANDMARKAD":"6300005","ADDRESS":"台北市中正區和平西路一段63號","TEL":" ","COUNTYNAME":"台北市","TOWNNAME":"中正區","MARKTYPE":"993","Class":"303"},"geometry":{"x":121.51948727449307,"y":25.026674655144767}},{"attributes":{"OBJECTID":9005,"LANDMARKID":"6300000001497","LANDMARKCO":"303","LANDMARKNA":"武昌街停車場","LANDMARKAD":"6300005","ADDRESS":"台北市中正區武昌街一段58號","TEL":" ","COUNTYNAME":"台北市","TOWNNAME":"中正區","MARKTYPE":"993","Class":"303"},"geometry":{"x":121.51103696183846,"y":25.044006518665597}},{"attributes":{"OBJECTID":9006,"LANDMARKID":"6300000001498","LANDMARKCO":"303","LANDMARKNA":"金山南路橋下停車場","LANDMARKAD":"6300005","ADDRESS":"台北市中正區金山南路","TEL":" ","COUNTYNAME":"台北市","TOWNNAME":"中正區","MARKTYPE":"993","Class":"303"},"geometry":{"x":121.52990077044984,"y":25.04298251176581}},{"attributes":{"OBJECTID":9007,"LANDMARKID":"6300000001499","LANDMARKCO":"303","LANDMARKNA":"金和興中正站停車場","LANDMARKAD":"6300005","ADDRESS":"台北市中正區中正路二段554之1號","TEL":" ","COUNTYNAME":"台北市","TOWNNAME":"中正區","MARKTYPE":"993","Class":"303"},"geometry":{"x":121.51136530859513,"y":25.048427881218625}},{"attributes":{"OBJECTID":9008,"LANDMARKID":"6300000001500","LANDMARKCO":"303","LANDMARKNA":"金和興同安站停車場","LANDMARKAD":"6300005","ADDRESS":"台北市中正區同安街28巷12號","TEL":" ","COUNTYNAME":"台北市","TOWNNAME":"中正區","MARKTYPE":"993","Class":"303"},"geometry":{"x":121.52093914943316,"y":25.024891470584549}},{"attributes":{"OBJECTID":9009,"LANDMARKID":"6300000001501","LANDMARKCO":"303","LANDMARKNA":"金和興臨沂站停車場","LANDMARKAD":"6300005","ADDRESS":"台北市中正區臨沂街29巷12號","TEL":" ","COUNTYNAME":"台北市","TOWNNAME":"中正區","MARKTYPE":"993","Class":"303"},"geometry":{"x":121.53073480782956,"y":25.039838040259159}},{"attributes":{"OBJECTID":9010,"LANDMARKID":"6300000001502","LANDMARKCO":"303","LANDMARKNA":"金融中心停車場","LANDMARKAD":"6300005","ADDRESS":"台北市中正區忠孝東路二段88號","TEL":" ","COUNTYNAME":"台北市","TOWNNAME":"中正區","MARKTYPE":"993","Class":"303"},"geometry":{"x":121.5294752580962,"y":25.043038255945088}},{"attributes":{"OBJECTID":9011,"LANDMARKID":"6300000001503","LANDMARKCO":"303","LANDMARKNA":"信陽停車場","LANDMARKAD":"6300005","ADDRESS":"台北市中正區信陽街19號","TEL":" ","COUNTYNAME":"台北市","TOWNNAME":"中正區","MARKTYPE":"993","Class":"303"},"geometry":{"x":121.51621982905048,"y":25.044772671611835}},{"attributes":{"OBJECTID":9012,"LANDMARKID":"6300000001504","LANDMARKCO":"303","LANDMARKNA":"信義停車場","LANDMARKAD":"6300005","ADDRESS":"台北市中正區信義路二段213號B1","TEL":" ","COUNTYNAME":"台北市","TOWNNAME":"中正區","MARKTYPE":"993","Class":"303"},"geometry":{"x":121.53055308691367,"y":25.033832928054686}},{"attributes":{"OBJECTID":9013,"LANDMARKID":"6300000001505","LANDMARKCO":"303","LANDMARKNA":"南昌廣場停車場","LANDMARKAD":"6300005","ADDRESS":"台北市中正區南昌路二段6之1號","TEL":" ","COUNTYNAME":"台北市","TOWNNAME":"中正區","MARKTYPE":"993","Class":"303"},"geometry":{"x":121.51994043768131,"y":25.027632524933335}},{"attributes":{"OBJECTID":9014,"LANDMARKID":"6300000001506","LANDMARKCO":"303","LANDMARKNA":"耕莘文教院前臨時平面停車場","LANDMARKAD":"6300005","ADDRESS":"台北市中正區辛亥路一段","TEL":" ","COUNTYNAME":"台北市","TOWNNAME":"中正區","MARKTYPE":"993","Class":"303"},"geometry":{"x":121.52858919867403,"y":25.019159904424662}},{"attributes":{"OBJECTID":9015,"LANDMARKID":"6300000001507","LANDMARKCO":"303","LANDMARKNA":"國立中正文化中心地下停車場","LANDMARKAD":"6300005","ADDRESS":"台北市中正區中山南路20之1號","TEL":" ","COUNTYNAME":"台北市","TOWNNAME":"中正區","MARKTYPE":"993","Class":"303"},"geometry":{"x":121.51673078918611,"y":25.037327383976958}},{"attributes":{"OBJECTID":9016,"LANDMARKID":"6300000001508","LANDMARKCO":"303","LANDMARKNA":"愛國臨時停車場","LANDMARKAD":"6300005","ADDRESS":"台北市中正區延平南路205巷","TEL":" ","COUNTYNAME":"台北市","TOWNNAME":"中正區","MARKTYPE":"993","Class":"303"},"geometry":{"x":121.50798394819988,"y":25.0329959943777}},{"attributes":{"OBJECTID":9017,"LANDMARKID":"6300000001509","LANDMARKCO":"303","LANDMARKNA":"新光人壽摩天大樓停車場","LANDMARKAD":"6300005","ADDRESS":"台北市中正區忠孝西路一段66號B3","TEL":" ","COUNTYNAME":"台北市","TOWNNAME":"中正區","MARKTYPE":"993","Class":"303"},"geometry":{"x":121.51532833812389,"y":25.046222770115218}},{"attributes":{"OBJECTID":9018,"LANDMARKID":"6300000001510","LANDMARKCO":"303","LANDMARKNA":"寧波東街9巷18號停車場","LANDMARKAD":"6300005","ADDRESS":"台北市中正區寧波東街9巷18號","TEL":" ","COUNTYNAME":"台北市","TOWNNAME":"中正區","MARKTYPE":"993","Class":"303"},"geometry":{"x":121.51898712931127,"y":25.032717292014333}},{"attributes":{"OBJECTID":9019,"LANDMARKID":"6300000001511","LANDMARKCO":"303","LANDMARKNA":"寧波東街停車場","LANDMARKAD":"6300005","ADDRESS":"台北市中正區寧波東街9巷7號","TEL":" ","COUNTYNAME":"台北市","TOWNNAME":"中正區","MARKTYPE":"993","Class":"303"},"geometry":{"x":121.51984915957442,"y":25.032796974866642}},{"attributes":{"OBJECTID":9020,"LANDMARKID":"6300000001512","LANDMARKCO":"303","LANDMARKNA":"榮浦車庫新生站停車場","LANDMARKAD":"6300005","ADDRESS":"台北市中正區新生南路一段58巷8號","TEL":" ","COUNTYNAME":"台北市","TOWNNAME":"中正區","MARKTYPE":"993","Class":"303"},"geometry":{"x":121.53222538398846,"y":25.040724786997266}},{"attributes":{"OBJECTID":9021,"LANDMARKID":"6300000001513","LANDMARKCO":"303","LANDMARKNA":"福州廣場停車場","LANDMARKAD":"6300005","ADDRESS":"台北市中正區福州路","TEL":" ","COUNTYNAME":"台北市","TOWNNAME":"中正區","MARKTYPE":"993","Class":"303"},"geometry":{"x":121.51628148514089,"y":25.027632125705583}},{"attributes":{"OBJECTID":9022,"LANDMARKID":"6300000001514","LANDMARKCO":"303","LANDMARKNA":"遠東百貨寶慶分公司停車場","LANDMARKAD":"6300005","ADDRESS":"台北市中正區寶慶路32號B1","TEL":" ","COUNTYNAME":"台北市","TOWNNAME":"中正區","MARKTYPE":"993","Class":"303"},"geometry":{"x":121.50911523019734,"y":25.041624800157507}},{"attributes":{"OBJECTID":9023,"LANDMARKID":"6300000001515","LANDMARKCO":"303","LANDMARKNA":"廣成大廈停車場","LANDMARKAD":"6300005","ADDRESS":"台北市中正區延平南路189號B2樓","TEL":" ","COUNTYNAME":"台北市","TOWNNAME":"中正區","MARKTYPE":"993","Class":"303"},"geometry":{"x":121.50753621262768,"y":25.03377564181476}},{"attributes":{"OBJECTID":9024,"LANDMARKID":"6300000001516","LANDMARKCO":"303","LANDMARKNA":"聯通和平停車場","LANDMARKAD":"6300005","ADDRESS":"台北市中正區和平西路一段26號","TEL":" ","COUNTYNAME":"台北市","TOWNNAME":"中正區","MARKTYPE":"993","Class":"303"},"geometry":{"x":121.52077323342702,"y":25.026532390964164}},{"attributes":{"OBJECTID":9025,"LANDMARKID":"6300000001517","LANDMARKCO":"303","LANDMARKNA":"鴻禧酒店停車場","LANDMARKAD":"6300005","ADDRESS":"台北市中正區忠孝東路一段12號","TEL":" ","COUNTYNAME":"台北市","TOWNNAME":"中正區","MARKTYPE":"993","Class":"303"},"geometry":{"x":121.52208739102788,"y":25.04490109707314}},{"attributes":{"OBJECTID":9026,"LANDMARKID":"6300000001518","LANDMARKCO":"303","LANDMARKNA":"聯通武昌停車場","LANDMARKAD":"6300005","ADDRESS":"台北市中正區武昌街一段54號","TEL":" ","COUNTYNAME":"台北市","TOWNNAME":"中正區","MARKTYPE":"993","Class":"303"},"geometry":{"x":121.51056813245184,"y":25.044026427801928}},{"attributes":{"OBJECTID":9027,"LANDMARKID":"6300000001519","LANDMARKCO":"303","LANDMARKNA":"石園新城停車場","LANDMARKAD":"6300005","ADDRESS":"台北市中正區信義路一段5號","TEL":" ","COUNTYNAME":"台北市","TOWNNAME":"中正區","MARKTYPE":"993","Class":"303"},"geometry":{"x":121.52198175542541,"y":25.036876243835703}},{"attributes":{"OBJECTID":9028,"LANDMARKID":"6300000001520","LANDMARKCO":"303","LANDMARKNA":"牯嶺街停車場","LANDMARKAD":"6300005","ADDRESS":"台北市中正區牯嶺街74號","TEL":" ","COUNTYNAME":"台北市","TOWNNAME":"中正區","MARKTYPE":"993","Class":"303"},"geometry":{"x":121.51854142104229,"y":25.02695041617687}},{"attributes":{"OBJECTID":9029,"LANDMARKID":"6300000001521","LANDMARKCO":"303","LANDMARKNA":"市民大道中林段地下停車場","LANDMARKAD":"6300005","ADDRESS":"台北市中山區市民大道","TEL":" ","COUNTYNAME":"台北市","TOWNNAME":"中正區","MARKTYPE":"993","Class":"303"},"geometry":{"x":121.52185513288856,"y":25.047932740328438}},{"attributes":{"OBJECTID":9030,"LANDMARKID":"6300000001522","LANDMARKCO":"303","LANDMARKNA":"市民大道林金段地下停車場","LANDMARKAD":"6300005","ADDRESS":"台北市中山區市民大道","TEL":" ","COUNTYNAME":"台北市","TOWNNAME":"中正區","MARKTYPE":"993","Class":"303"},"geometry":{"x":121.52650388334544,"y":25.047291862912932}},{"attributes":{"OBJECTID":9031,"LANDMARKID":"6300000001523","LANDMARKCO":"303","LANDMARKNA":"市民大道塔城段地下停車場","LANDMARKAD":"6300005","ADDRESS":"台北市中正區市民大道西寧北路","TEL":" ","COUNTYNAME":"台北市","TOWNNAME":"中正區","MARKTYPE":"993","Class":"303"},"geometry":{"x":121.51088669974337,"y":25.047363307532287}},{"attributes":{"OBJECTID":9032,"LANDMARKID":"6300000001524","LANDMARKCO":"303","LANDMARKNA":"應安停車場-臨沂場","LANDMARKAD":"6300005","ADDRESS":"台北市大安區臨沂街75巷35號","TEL":"0980-933205","COUNTYNAME":"台北市","TOWNNAME":"中正區","MARKTYPE":"993","Class":"303"},"geometry":{"x":121.52897837292701,"y":25.035285810506522}},{"attributes":{"OBJECTID":9033,"LANDMARKID":"6300000001525","LANDMARKCO":"303","LANDMARKNA":"應安停車場-新生南場","LANDMARKAD":"6300005","ADDRESS":"台北市大安區新生南路一段170巷","TEL":"0980-933205","COUNTYNAME":"台北市","TOWNNAME":"中正區","MARKTYPE":"993","Class":"303"},"geometry":{"x":121.53188840690768,"y":25.034355314151124}},{"attributes":{"OBJECTID":9034,"LANDMARKID":"6300000001526","LANDMARKCO":"303","LANDMARKNA":"應安停車場-杭南場","LANDMARKAD":"6300005","ADDRESS":"台北市中正區杭州南路一段101巷8號對面","TEL":" ","COUNTYNAME":"台北市","TOWNNAME":"中正區","MARKTYPE":"993","Class":"303"},"geometry":{"x":121.5253597943326,"y":25.037940807773197}},{"attributes":{"OBJECTID":9035,"LANDMARKID":"6300000001527","LANDMARKCO":"303","LANDMARKNA":"應安停車場-金山場","LANDMARKAD":"6300005","ADDRESS":"台北市中正區金山南路一段8號","TEL":"0980-933205","COUNTYNAME":"台北市","TOWNNAME":"中正區","MARKTYPE":"993","Class":"303"},"geometry":{"x":121.52937441627799,"y":25.042229398504961}},{"attributes":{"OBJECTID":9036,"LANDMARKID":"6300000001528","LANDMARKCO":"303","LANDMARKNA":"應安停車場-愛國場","LANDMARKAD":"6300005","ADDRESS":"台北市中正區延平南路143號","TEL":"0980-933205","COUNTYNAME":"台北市","TOWNNAME":"中正區","MARKTYPE":"993","Class":"303"},"geometry":{"x":121.50785394770928,"y":25.036584241667878}},{"attributes":{"OBJECTID":9037,"LANDMARKID":"6300000001529","LANDMARKCO":"303","LANDMARKNA":"應安停車場-八德場","LANDMARKAD":"6300005","ADDRESS":"台北市中正區忠孝東路二段85號旁","TEL":"0980-933205","COUNTYNAME":"台北市","TOWNNAME":"中正區","MARKTYPE":"993","Class":"303"},"geometry":{"x":121.52948849011852,"y":25.04341099270372}},{"attributes":{"OBJECTID":9038,"LANDMARKID":"6300000001530","LANDMARKCO":"303","LANDMARKNA":"應安停車場-博愛場","LANDMARKAD":"6300005","ADDRESS":"台北市中正區博愛路38號地下室","TEL":"02-23122516","COUNTYNAME":"台北市","TOWNNAME":"中正區","MARKTYPE":"993","Class":"303"},"geometry":{"x":121.51123974853058,"y":25.045830636633202}},{"attributes":{"OBJECTID":9039,"LANDMARKID":"6300000001531","LANDMARKCO":"303","LANDMARKNA":"應安停車場-杭北場","LANDMARKAD":"6300005","ADDRESS":"台北市中正區杭州北路22號","TEL":"0980-933205","COUNTYNAME":"台北市","TOWNNAME":"中正區","MARKTYPE":"993","Class":"303"},"geometry":{"x":121.52700653703252,"y":25.044803974847362}},{"attributes":{"OBJECTID":9040,"LANDMARKID":"6300000001532","LANDMARKCO":"303","LANDMARKNA":"應安停車場-牯嶺場","LANDMARKAD":"6300005","ADDRESS":"台北市中正區牯嶺街74號","TEL":"0980-063920","COUNTYNAME":"台北市","TOWNNAME":"中正區","MARKTYPE":"993","Class":"303"},"geometry":{"x":121.51747433224615,"y":25.028572269362922}},{"attributes":{"OBJECTID":9041,"LANDMARKID":"6300000001533","LANDMARKCO":"303","LANDMARKNA":"永固停車場-華山二","LANDMARKAD":"6300005","ADDRESS":"台北市北平東路30之1號B1-B3","TEL":"02-23219451","COUNTYNAME":"台北市","TOWNNAME":"中正區","MARKTYPE":"993","Class":"303"},"geometry":{"x":121.52635510967463,"y":25.045641284258807}},{"attributes":{"OBJECTID":9042,"LANDMARKID":"6300000001534","LANDMARKCO":"303","LANDMARKNA":"永固停車場-臨沂二","LANDMARKAD":"6300005","ADDRESS":"台北市中正區臨沂街63巷1號","TEL":"02-33223923","COUNTYNAME":"台北市","TOWNNAME":"中正區","MARKTYPE":"993","Class":"303"},"geometry":{"x":121.52992153107326,"y":25.036017450552791}},{"attributes":{"OBJECTID":9043,"LANDMARKID":"6300000001535","LANDMARKCO":"303","LANDMARKNA":"永固停車場-林森三","LANDMARKAD":"6300005","ADDRESS":"台北市林森南路4-1.4-2號及青島東路9號地下一樓","TEL":"02-23924200","COUNTYNAME":"台北市","TOWNNAME":"中正區","MARKTYPE":"993","Class":"303"},"geometry":{"x":121.52294322887374,"y":25.04407854270579}},{"attributes":{"OBJECTID":9044,"LANDMARKID":"6300000001536","LANDMARKCO":"303","LANDMARKNA":"永固停車場-臨沂三","LANDMARKAD":"6300005","ADDRESS":"台北市臨沂街63巷1號旁空地","TEL":" ","COUNTYNAME":"台北市","TOWNNAME":"中正區","MARKTYPE":"993","Class":"303"},"geometry":{"x":121.52891734134434,"y":25.036657028129525}},{"attributes":{"OBJECTID":9045,"LANDMARKID":"6300000001537","LANDMARKCO":"303","LANDMARKNA":"永固停車場-重慶二","LANDMARKAD":"6300005","ADDRESS":"台北市重慶南路三段159號旁空地","TEL":"0922-738-203","COUNTYNAME":"台北市","TOWNNAME":"中正區","MARKTYPE":"993","Class":"303"},"geometry":{"x":121.51696687971976,"y":25.022671035356481}},{"attributes":{"OBJECTID":9046,"LANDMARKID":"6300000001538","LANDMARKCO":"303","LANDMARKNA":"永固停車場-濟南二","LANDMARKAD":"6300005","ADDRESS":"台北市濟南路二段11號對面空地","TEL":"02-23956023","COUNTYNAME":"台北市","TOWNNAME":"中正區","MARKTYPE":"993","Class":"303"},"geometry":{"x":121.52720817238003,"y":25.04126826010036}},{"attributes":{"OBJECTID":9047,"LANDMARKID":"6300000001539","LANDMARKCO":"303","LANDMARKNA":"永固停車場-濟南站","LANDMARKAD":"6300005","ADDRESS":"台北市大安區臨沂街33巷42、44號","TEL":" ","COUNTYNAME":"台北市","TOWNNAME":"中正區","MARKTYPE":"993","Class":"303"},"geometry":{"x":121.53197309447201,"y":25.039838011506838}},{"attributes":{"OBJECTID":9048,"LANDMARKID":"6300000001540","LANDMARKCO":"303","LANDMARKNA":"Times(普客二四停車場)-齊東街停車場","LANDMARKAD":"6300005","ADDRESS":"台北市齊東街55巷11號旁","TEL":" ","COUNTYNAME":"台北市","TOWNNAME":"中正區","MARKTYPE":"993","Class":"303"},"geometry":{"x":121.5287564029035,"y":25.041760599548027}},{"attributes":{"OBJECTID":9049,"LANDMARKID":"6300000001541","LANDMARKCO":"303","LANDMARKNA":"Times(普客二四停車場)-和平西路停車場","LANDMARKAD":"6300005","ADDRESS":"台北市和平西路一段11號右旁","TEL":" ","COUNTYNAME":"台北市","TOWNNAME":"中正區","MARKTYPE":"993","Class":"303"},"geometry":{"x":121.52146096699441,"y":25.027122018001862}},{"attributes":{"OBJECTID":9050,"LANDMARKID":"6300000001542","LANDMARKCO":"303","LANDMARKNA":"Times(普客二四停車場)-戀戀台大停車場","LANDMARKAD":"6300005","ADDRESS":"北市羅斯福路3段68號B3、B4停車場","TEL":" ","COUNTYNAME":"台北市","TOWNNAME":"中正區","MARKTYPE":"993","Class":"303"},"geometry":{"x":121.52610458468644,"y":25.022162174371907}},{"attributes":{"OBJECTID":9051,"LANDMARKID":"6300000001543","LANDMARKCO":"303","LANDMARKNA":"台灣聯通停車場-衡陽場","LANDMARKAD":"6300005","ADDRESS":"台北市衡陽路51號(代表號)","TEL":" ","COUNTYNAME":"台北市","TOWNNAME":"中正區","MARKTYPE":"993","Class":"303"},"geometry":{"x":121.51222028352439,"y":25.042457259590041}},{"attributes":{"OBJECTID":9052,"LANDMARKID":"6300000001544","LANDMARKCO":"303","LANDMARKNA":"台灣聯通停車場-仁愛場","LANDMARKAD":"6300005","ADDRESS":"台北市仁愛路二段13號","TEL":" ","COUNTYNAME":"台北市","TOWNNAME":"中正區","MARKTYPE":"993","Class":"303"},"geometry":{"x":121.52664918505735,"y":25.038496243334258}},{"attributes":{"OBJECTID":9053,"LANDMARKID":"6300000001545","LANDMARKCO":"303","LANDMARKNA":"台灣聯通停車場-杭州場","LANDMARKAD":"6300005","ADDRESS":"台北市杭州南路一段19號","TEL":" ","COUNTYNAME":"台北市","TOWNNAME":"中正區","MARKTYPE":"993","Class":"303"},"geometry":{"x":121.52657202655,"y":25.042609516438663}},{"attributes":{"OBJECTID":9054,"LANDMARKID":"6300000001546","LANDMARKCO":"303","LANDMARKNA":"台灣聯通停車場-中正場","LANDMARKAD":"6300005","ADDRESS":"台北市和平西路一段20號B1","TEL":" ","COUNTYNAME":"台北市","TOWNNAME":"中正區","MARKTYPE":"993","Class":"303"},"geometry":{"x":121.52080588506126,"y":25.026631314925936}},{"attributes":{"OBJECTID":9055,"LANDMARKID":"6300000001547","LANDMARKCO":"303","LANDMARKNA":"台灣聯通停車場-幸安場","LANDMARKAD":"6300005","ADDRESS":"台北市濟南路二段62巷2之4號旁空地","TEL":" ","COUNTYNAME":"台北市","TOWNNAME":"中正區","MARKTYPE":"993","Class":"303"},"geometry":{"x":121.53215395626434,"y":25.040037363893603}},{"attributes":{"OBJECTID":9056,"LANDMARKID":"6300000001548","LANDMARKCO":"303","LANDMARKNA":"台灣聯通停車場-牯嶺場","LANDMARKAD":"6300005","ADDRESS":"台北市中正區牯嶺街101號","TEL":" ","COUNTYNAME":"台北市","TOWNNAME":"中正區","MARKTYPE":"993","Class":"303"},"geometry":{"x":121.51909729266717,"y":25.025782611002363}},{"attributes":{"OBJECTID":9057,"LANDMARKID":"6300000001549","LANDMARKCO":"303","LANDMARKNA":"台灣聯通停車場-愛國場","LANDMARKAD":"6300005","ADDRESS":"台北市中正區中華路一段91巷口旁空地","TEL":" ","COUNTYNAME":"台北市","TOWNNAME":"中正區","MARKTYPE":"993","Class":"303"},"geometry":{"x":121.50738303688446,"y":25.038064850372127}},{"attributes":{"OBJECTID":9058,"LANDMARKID":"6300000001550","LANDMARKCO":"303","LANDMARKNA":"台灣聯通停車場-重慶場","LANDMARKAD":"6300005","ADDRESS":"台北市中正區重慶南路一段57號","TEL":" ","COUNTYNAME":"台北市","TOWNNAME":"中正區","MARKTYPE":"993","Class":"303"},"geometry":{"x":121.51333372374918,"y":25.044002416023027}},{"attributes":{"OBJECTID":9059,"LANDMARKID":"6300000001551","LANDMARKCO":"303","LANDMARKNA":"台灣聯通停車場-台大水源場","LANDMARKAD":"6300005","ADDRESS":"台北市思源街16號(代表號)","TEL":" ","COUNTYNAME":"台北市","TOWNNAME":"中正區","MARKTYPE":"993","Class":"303"},"geometry":{"x":121.52928788112462,"y":25.012949711950693}},{"attributes":{"OBJECTID":9060,"LANDMARKID":"6300000001552","LANDMARKCO":"303","LANDMARKNA":"中興嘟嘟房停車場-北門站","LANDMARKAD":"6300005","ADDRESS":"台北市中華路1段15號旁","TEL":" ","COUNTYNAME":"台北市","TOWNNAME":"中正區","MARKTYPE":"993","Class":"303"},"geometry":{"x":121.50998226166475,"y":25.046683428070786}},{"attributes":{"OBJECTID":9061,"LANDMARKID":"6300000000835","LANDMARKCO":"301","LANDMARKNA":"台北火車站","LANDMARKAD":"6300005","ADDRESS":"台北市中正區黎明里北平西路3號","TEL":"02-23110121","COUNTYNAME":"台北市","TOWNNAME":"中正區","MARKTYPE":"993","Class":"301"},"geometry":{"x":121.51718936424952,"y":25.047372428165701}},{"attributes":{"OBJECTID":9062,"LANDMARKID":"6300000002166","LANDMARKCO":"402","LANDMARKNA":"遠傳電信-遠傳無限城-館前店","LANDMARKAD":"6300005","ADDRESS":"台北市館前路43號","TEL":" ","COUNTYNAME":"台北市","TOWNNAME":"中正區","MARKTYPE":"994","Class":"4"},"geometry":{"x":121.51513790871087,"y":25.045331779237905}},{"attributes":{"OBJECTID":9063,"LANDMARKID":"6300000002167","LANDMARKCO":"402","LANDMARKNA":"中華電信-台北南區營運處","LANDMARKAD":"6300005","ADDRESS":"台北市仁愛路一段42號","TEL":"123或0800-080-123","COUNTYNAME":"台北市","TOWNNAME":"中正區","MARKTYPE":"994","Class":"4"},"geometry":{"x":121.52383337855544,"y":25.038149799898694}},{"attributes":{"OBJECTID":9064,"LANDMARKID":"6300000002168","LANDMARKCO":"402","LANDMARKNA":"中華電信-南機場服務中心","LANDMARKAD":"6300005","ADDRESS":"台北市西藏路125巷20號","TEL":"123或0800-080-123","COUNTYNAME":"台北市","TOWNNAME":"中正區","MARKTYPE":"994","Class":"4"},"geometry":{"x":121.50734523561115,"y":25.030776418401306}},{"attributes":{"OBJECTID":9065,"LANDMARKID":"6300000002169","LANDMARKCO":"402","LANDMARKNA":"中華電信-博愛路服務中心","LANDMARKAD":"6300005","ADDRESS":"台北市博愛路168號","TEL":"(02)2314-0508","COUNTYNAME":"台北市","TOWNNAME":"中正區","MARKTYPE":"994","Class":"4"},"geometry":{"x":121.51104952610298,"y":25.039517779096997}},{"attributes":{"OBJECTID":9066,"LANDMARKID":"6300000002170","LANDMARKCO":"402","LANDMARKNA":"中華電信-立法院服務中心","LANDMARKAD":"6300005","ADDRESS":"台北市濟南路一段1號","TEL":"(02)2349-5656","COUNTYNAME":"台北市","TOWNNAME":"中正區","MARKTYPE":"994","Class":"4"},"geometry":{"x":121.52005694669334,"y":25.043186204455054}},{"attributes":{"OBJECTID":9067,"LANDMARKID":"6300000002171","LANDMARKCO":"402","LANDMARKNA":"遠傳電信-北區維修中心","LANDMARKAD":"6300005","ADDRESS":"台北市館前路43號","TEL":" ","COUNTYNAME":"台北市","TOWNNAME":"中正區","MARKTYPE":"994","Class":"4"},"geometry":{"x":121.51513790871087,"y":25.045331779237905}},{"attributes":{"OBJECTID":9068,"LANDMARKID":"6300000002172","LANDMARKCO":"402","LANDMARKNA":"威寶電信-台北衡陽直營服務中心","LANDMARKAD":"6300005","ADDRESS":"台北市中正區衡陽路55號","TEL":" ","COUNTYNAME":"台北市","TOWNNAME":"中正區","MARKTYPE":"994","Class":"4"},"geometry":{"x":121.51213194133371,"y":25.04237273521089}},{"attributes":{"OBJECTID":9069,"LANDMARKID":"6300000002173","LANDMARKCO":"402","LANDMARKNA":"威寶電信-台北光華特約服務中心","LANDMARKAD":"6300005","ADDRESS":"台北市中正區八德路一段68號","TEL":"(02)23949088","COUNTYNAME":"台北市","TOWNNAME":"中正區","MARKTYPE":"994","Class":"4"},"geometry":{"x":121.53151947154066,"y":25.043920764359999}},{"attributes":{"OBJECTID":9070,"LANDMARKID":"6300000002174","LANDMARKCO":"402","LANDMARKNA":"威寶電信-台北汀州特約服務中心","LANDMARKAD":"6300005","ADDRESS":"台北市中正區汀州路三段141號","TEL":"(02)23698258","COUNTYNAME":"台北市","TOWNNAME":"中正區","MARKTYPE":"994","Class":"4"},"geometry":{"x":121.53104219006943,"y":25.016036390083148}},{"attributes":{"OBJECTID":9071,"LANDMARKID":"6300000002175","LANDMARKCO":"402","LANDMARKNA":"大眾電信-站前店","LANDMARKAD":"6300005","ADDRESS":"台北市中正區館前路2號A03室","TEL":"0968-544489","COUNTYNAME":"台北市","TOWNNAME":"中正區","MARKTYPE":"994","Class":"4"},"geometry":{"x":121.51490911984922,"y":25.046416752263298}},{"attributes":{"OBJECTID":9072,"LANDMARKID":"6300000002176","LANDMARKCO":"402","LANDMARKNA":"大眾電信(皇家通訊)-館前","LANDMARKAD":"6300005","ADDRESS":"台北市中正區館前路2號","TEL":"02-23611999","COUNTYNAME":"台北市","TOWNNAME":"中正區","MARKTYPE":"994","Class":"4"},"geometry":{"x":121.51490911984922,"y":25.046416752263298}},{"attributes":{"OBJECTID":9073,"LANDMARKID":"6300000002177","LANDMARKCO":"402","LANDMARKNA":"大眾電信(震旦通訊)-台北公館店","LANDMARKAD":"6300005","ADDRESS":"台北市汀州路三段179號","TEL":"02-23651879","COUNTYNAME":"台北市","TOWNNAME":"中正區","MARKTYPE":"994","Class":"4"},"geometry":{"x":121.53273601260268,"y":25.014832543502319}},{"attributes":{"OBJECTID":9074,"LANDMARKID":"6300000002178","LANDMARKCO":"402","LANDMARKNA":"大眾電信(太子科技)-館前三星","LANDMARKAD":"6300005","ADDRESS":"台北市館前路2號C02室","TEL":"02-23316145","COUNTYNAME":"台北市","TOWNNAME":"中正區","MARKTYPE":"994","Class":"4"},"geometry":{"x":121.51490911984922,"y":25.046416752263298}},{"attributes":{"OBJECTID":9075,"LANDMARKID":"6300000002179","LANDMARKCO":"402","LANDMARKNA":"大眾電信(太子科技)-館前易利信","LANDMARKAD":"6300005","ADDRESS":"台北市館前路2號C08室","TEL":"02-23895085","COUNTYNAME":"台北市","TOWNNAME":"中正區","MARKTYPE":"994","Class":"4"},"geometry":{"x":121.51490911984922,"y":25.046416752263298}},{"attributes":{"OBJECTID":9076,"LANDMARKID":"6300000002180","LANDMARKCO":"402","LANDMARKNA":"大眾電信-汀州專賣店","LANDMARKAD":"6300005","ADDRESS":"臺北市中正區汀州路三段225號","TEL":"02-25434142","COUNTYNAME":"台北市","TOWNNAME":"中正區","MARKTYPE":"994","Class":"4"},"geometry":{"x":121.53391791648626,"y":25.014021459343947}},{"attributes":{"OBJECTID":9077,"LANDMARKID":"6300000002181","LANDMARKCO":"402","LANDMARKNA":"大眾電信(惠榮資訊)-兆得店","LANDMARKAD":"6300005","ADDRESS":"台北市金山南路一段89巷2號","TEL":"02-2391-1806","COUNTYNAME":"台北市","TOWNNAME":"中正區","MARKTYPE":"994","Class":"4"},"geometry":{"x":121.52800879255246,"y":25.036088258269668}},{"attributes":{"OBJECTID":9078,"LANDMARKID":"6300000002182","LANDMARKCO":"402","LANDMARKNA":"威寶電信-台北和平西特約服務中心","LANDMARKAD":"6300005","ADDRESS":"台北市中正區和平西路二段160-2號","TEL":"02-23024777","COUNTYNAME":"台北市","TOWNNAME":"中正區","MARKTYPE":"994","Class":"4"},"geometry":{"x":121.50546396929839,"y":25.033232967049528}},{"attributes":{"OBJECTID":9079,"LANDMARKID":"6300000002183","LANDMARKCO":"402","LANDMARKNA":"大眾電信-公館店","LANDMARKAD":"6300005","ADDRESS":"台北市中正區汀洲路三段255號","TEL":"0968-544283","COUNTYNAME":"台北市","TOWNNAME":"中正區","MARKTYPE":"994","Class":"4"},"geometry":{"x":121.53500731863011,"y":25.013031065487326}},{"attributes":{"OBJECTID":9080,"LANDMARKID":"6300000002184","LANDMARKCO":"402","LANDMARKNA":"中華電信-台北公館特約服務中心","LANDMARKAD":"6300005","ADDRESS":"台北市羅斯褔路三段252號","TEL":"02-23673030","COUNTYNAME":"台北市","TOWNNAME":"中正區","MARKTYPE":"994","Class":"4"},"geometry":{"x":121.53169753349391,"y":25.017254999923324}},{"attributes":{"OBJECTID":9081,"LANDMARKID":"6300000003558","LANDMARKCO":"603","LANDMARKNA":"皇家大飯店","LANDMARKAD":"6300005","ADDRESS":"台北市中正區懷寧街5-1號1-6樓","TEL":"02-23111668","COUNTYNAME":"台北市","TOWNNAME":"中正區","MARKTYPE":"996","Class":"6"},"geometry":{"x":121.5147605503486,"y":25.0467320613079}},{"attributes":{"OBJECTID":9082,"LANDMARKID":"6300000003559","LANDMARKCO":"603","LANDMARKNA":"金財神旅店","LANDMARKAD":"6300005","ADDRESS":"台北市中正區中華路一段21號3樓","TEL":"02-23110066","COUNTYNAME":"台北市","TOWNNAME":"中正區","MARKTYPE":"996","Class":"6"},"geometry":{"x":121.50992389689772,"y":25.0463868866651}},{"attributes":{"OBJECTID":9083,"LANDMARKID":"6300000003560","LANDMARKCO":"603","LANDMARKNA":"悅來旅館(金財神)","LANDMARKAD":"6300005","ADDRESS":"台北市中正區中華路一段21號6-7樓","TEL":"02-23110066","COUNTYNAME":"台北市","TOWNNAME":"中正區","MARKTYPE":"996","Class":"6"},"geometry":{"x":121.50992389689772,"y":25.0463868866651}},{"attributes":{"OBJECTID":9084,"LANDMARKID":"6300000003561","LANDMARKCO":"603","LANDMARKNA":"儷萊旅館","LANDMARKAD":"6300005","ADDRESS":"台北市中正區中華路一段21號8-11樓","TEL":"02-23111440","COUNTYNAME":"台北市","TOWNNAME":"中正區","MARKTYPE":"996","Class":"6"},"geometry":{"x":121.50992389689772,"y":25.0463868866651}},{"attributes":{"OBJECTID":9085,"LANDMARKID":"6300000003562","LANDMARKCO":"603","LANDMARKNA":"百花商務旅館","LANDMARKAD":"6300005","ADDRESS":"台北市中正區仁愛路1段55號1至4樓","TEL":"02-23949232","COUNTYNAME":"台北市","TOWNNAME":"中正區","MARKTYPE":"996","Class":"6"},"geometry":{"x":121.52479819966763,"y":25.038567317671248}},{"attributes":{"OBJECTID":9086,"LANDMARKID":"6300000003563","LANDMARKCO":"603","LANDMARKNA":"龍祥大飯店","LANDMARKAD":"6300005","ADDRESS":"台北市中正區水源路75號2-6樓","TEL":"02-23670660","COUNTYNAME":"台北市","TOWNNAME":"中正區","MARKTYPE":"996","Class":"6"},"geometry":{"x":121.52005286112335,"y":25.021013213253227}},{"attributes":{"OBJECTID":9087,"LANDMARKID":"6300000003564","LANDMARKCO":"603","LANDMARKNA":"家美旅店","LANDMARKAD":"6300005","ADDRESS":"台北市中正區北平東路12號2-9樓","TEL":"02-23581234","COUNTYNAME":"台北市","TOWNNAME":"中正區","MARKTYPE":"996","Class":"6"},"geometry":{"x":121.52447943771378,"y":25.046035782362122}},{"attributes":{"OBJECTID":9088,"LANDMARKID":"6300000003565","LANDMARKCO":"603","LANDMARKNA":"新尚旅店","LANDMARKAD":"6300005","ADDRESS":"台北市中正區信義路2段73號","TEL":"02-23959009","COUNTYNAME":"台北市","TOWNNAME":"中正區","MARKTYPE":"996","Class":"6"},"geometry":{"x":121.52645127016922,"y":25.034638174732009}},{"attributes":{"OBJECTID":9089,"LANDMARKID":"6300000003566","LANDMARKCO":"603","LANDMARKNA":"唐門客棧","LANDMARKAD":"6300005","ADDRESS":"台北市中正區信義路二段33號2樓","TEL":"02-23963322","COUNTYNAME":"台北市","TOWNNAME":"中正區","MARKTYPE":"996","Class":"6"},"geometry":{"x":121.52585911309932,"y":25.03492224303357}},{"attributes":{"OBJECTID":9090,"LANDMARKID":"6300000003567","LANDMARKCO":"603","LANDMARKNA":"順發 (華美大飯店)","LANDMARKAD":"6300005","ADDRESS":"台北市中正區重慶南路一段1號","TEL":"02-23110212","COUNTYNAME":"台北市","TOWNNAME":"中正區","MARKTYPE":"996","Class":"6"},"geometry":{"x":121.51339546982824,"y":25.046733633381031}},{"attributes":{"OBJECTID":9091,"LANDMARKID":"6300000003568","LANDMARKCO":"603","LANDMARKNA":"群來商務旅館","LANDMARKAD":"6300005","ADDRESS":"台北市中正區紹興北街31巷26號1-5樓","TEL":"02-23217061","COUNTYNAME":"台北市","TOWNNAME":"中正區","MARKTYPE":"996","Class":"6"},"geometry":{"x":121.52620609717249,"y":25.045139567313509}},{"attributes":{"OBJECTID":9092,"LANDMARKID":"6300000003569","LANDMARKCO":"603","LANDMARKNA":"華華大飯店(分店)","LANDMARKAD":"6300005","ADDRESS":"台北市中正區漢口街一段36號","TEL":"02-23123811","COUNTYNAME":"台北市","TOWNNAME":"中正區","MARKTYPE":"996","Class":"6"},"geometry":{"x":121.51384754980322,"y":25.045087371325394}},{"attributes":{"OBJECTID":9093,"LANDMARKID":"6300000003570","LANDMARKCO":"603","LANDMARKNA":"大東旅社","LANDMARKAD":"6300005","ADDRESS":"台北市中正區羅斯福路二段8巷14弄7號1-3樓","TEL":"02-23210907","COUNTYNAME":"台北市","TOWNNAME":"中正區","MARKTYPE":"996","Class":"6"},"geometry":{"x":121.52026824918686,"y":25.028396687008424}},{"attributes":{"OBJECTID":9094,"LANDMARKID":"6300000003571","LANDMARKCO":"603","LANDMARKNA":"儷園旅社","LANDMARKAD":"6300005","ADDRESS":"台北市中正區羅斯福路三段98號1-8樓","TEL":"02-23657367","COUNTYNAME":"台北市","TOWNNAME":"中正區","MARKTYPE":"996","Class":"6"},"geometry":{"x":121.52693354970046,"y":25.021507910034448}},{"attributes":{"OBJECTID":9095,"LANDMARKID":"6300000003572","LANDMARKCO":"603","LANDMARKNA":"友星大飯店","LANDMARKAD":"6300005","ADDRESS":"台北市中正區和平西路一段11號7-11樓","TEL":"02-23943121","COUNTYNAME":"台北市","TOWNNAME":"中正區","MARKTYPE":"996","Class":"6"},"geometry":{"x":121.52149734817844,"y":25.027051934266638}},{"attributes":{"OBJECTID":9096,"LANDMARKID":"6300000003573","LANDMARKCO":"603","LANDMARKNA":"名邑旅店","LANDMARKAD":"6300005","ADDRESS":"台北市中正區漢口街一段4號2-4樓","TEL":"02-23713151","COUNTYNAME":"台北市","TOWNNAME":"中正區","MARKTYPE":"996","Class":"6"},"geometry":{"x":121.5147294921845,"y":25.045081820239709}},{"attributes":{"OBJECTID":9097,"LANDMARKID":"6300000003574","LANDMARKCO":"603","LANDMARKNA":"普亨萊 (儷萊大飯店)","LANDMARKAD":"6300005","ADDRESS":"台北市中正區中華路一段21號12樓","TEL":"02-23111440","COUNTYNAME":"台北市","TOWNNAME":"中正區","MARKTYPE":"996","Class":"6"},"geometry":{"x":121.50992389689772,"y":25.0463868866651}},{"attributes":{"OBJECTID":9098,"LANDMARKID":"6300000003575","LANDMARKCO":"603","LANDMARKNA":"力歐時尚旅館","LANDMARKAD":"6300005","ADDRESS":"台北市中正區延平南路9號1-9樓","TEL":"02-23145296","COUNTYNAME":"台北市","TOWNNAME":"中正區","MARKTYPE":"996","Class":"6"},"geometry":{"x":121.5109043215373,"y":25.046298896043957}},{"attributes":{"OBJECTID":9099,"LANDMARKID":"6300000003576","LANDMARKCO":"603","LANDMARKNA":"全家歡旅店","LANDMARKAD":"6300005","ADDRESS":"台北市中正區忠孝西路一段72號4樓","TEL":"02-23814755","COUNTYNAME":"台北市","TOWNNAME":"中正區","MARKTYPE":"996","Class":"6"},"geometry":{"x":121.51408006163848,"y":25.046828763927156}},{"attributes":{"OBJECTID":9100,"LANDMARKID":"6300000003577","LANDMARKCO":"603","LANDMARKNA":"金來商旅","LANDMARKAD":"6300005","ADDRESS":"台北市中正區金山南路1段71號B1-7樓","TEL":"71之1號2-7樓","COUNTYNAME":"台北市","TOWNNAME":"中正區","MARKTYPE":"996","Class":"6"},"geometry":{"x":121.52821620378968,"y":25.037307802074249}},{"attributes":{"OBJECTID":9101,"LANDMARKID":"6300000003578","LANDMARKCO":"603","LANDMARKNA":"星辰旅館 (喜來登)","LANDMARKAD":"6300005","ADDRESS":"台北市中正區金山南路一段80號B1-7樓","TEL":"02-23971377","COUNTYNAME":"台北市","TOWNNAME":"中正區","MARKTYPE":"996","Class":"6"},"geometry":{"x":121.52761411506171,"y":25.03642650177753}},{"attributes":{"OBJECTID":9102,"LANDMARKID":"6300000003579","LANDMARKCO":"603","LANDMARKNA":"城美大飯店","LANDMARKAD":"6300005","ADDRESS":"台北市中正區漢口街一段88號1-7樓","TEL":"02-23147305","COUNTYNAME":"台北市","TOWNNAME":"中正區","MARKTYPE":"996","Class":"6"},"geometry":{"x":121.51192503639837,"y":25.045100645783737}},{"attributes":{"OBJECTID":9103,"LANDMARKID":"6300000003580","LANDMARKCO":"603","LANDMARKNA":"佳利大飯店","LANDMARKAD":"6300005","ADDRESS":"台北市中正區福州街9號","TEL":"福州街7巷2號","COUNTYNAME":"台北市","TOWNNAME":"中正區","MARKTYPE":"996","Class":"6"},"geometry":{"x":121.52022943982131,"y":25.029669940292106}},{"attributes":{"OBJECTID":9104,"LANDMARKID":"6300000003581","LANDMARKCO":"603","LANDMARKNA":"懷寧旅店","LANDMARKAD":"6300005","ADDRESS":"台北市中正區懷寧街1號2-5樓","TEL":"02-23114811","COUNTYNAME":"台北市","TOWNNAME":"中正區","MARKTYPE":"996","Class":"6"},"geometry":{"x":121.5143047559765,"y":25.046438995558212}},{"attributes":{"OBJECTID":9105,"LANDMARKID":"6300000003582","LANDMARKCO":"603","LANDMARKNA":"新驛旅店","LANDMARKAD":"6300005","ADDRESS":"台北市中正區懷寧街7號","TEL":"02-23148006-9","COUNTYNAME":"台北市","TOWNNAME":"中正區","MARKTYPE":"996","Class":"6"},"geometry":{"x":121.51429311359048,"y":25.046231426774529}},{"attributes":{"OBJECTID":9106,"LANDMARKID":"6300000003583","LANDMARKCO":"603","LANDMARKNA":"凱麗大旅社","LANDMARKAD":"6300005","ADDRESS":"台北市中正區羅斯福路一段24號12樓","TEL":"02-23415167","COUNTYNAME":"台北市","TOWNNAME":"中正區","MARKTYPE":"996","Class":"6"},"geometry":{"x":121.5188271593187,"y":25.031629148739707}},{"attributes":{"OBJECTID":9107,"LANDMARKID":"6300000003584","LANDMARKCO":"603","LANDMARKNA":"帥客大旅社","LANDMARKAD":"6300005","ADDRESS":"台北市中正區羅斯福路一段90巷2號1-5樓","TEL":"02-23223885","COUNTYNAME":"台北市","TOWNNAME":"中正區","MARKTYPE":"996","Class":"6"},"geometry":{"x":121.51964847678721,"y":25.03010736024304}},{"attributes":{"OBJECTID":9108,"LANDMARKID":"6300000003585","LANDMARKCO":"603","LANDMARKNA":"萬事達旅店(重慶店)","LANDMARKAD":"6300005","ADDRESS":"台北市中正區重慶南路1段18號1-7樓","TEL":"02-23887269","COUNTYNAME":"台北市","TOWNNAME":"中正區","MARKTYPE":"996","Class":"6"},"geometry":{"x":121.51314358373627,"y":25.046238821654605}},{"attributes":{"OBJECTID":9109,"LANDMARKID":"6300000003586","LANDMARKCO":"603","LANDMARKNA":"雲鼎商務旅館","LANDMARKAD":"6300005","ADDRESS":"台北市中正區南昌路1段31巷5號","TEL":"02-23937555","COUNTYNAME":"台北市","TOWNNAME":"中正區","MARKTYPE":"996","Class":"6"},"geometry":{"x":121.51721543015725,"y":25.032046654733723}},{"attributes":{"OBJECTID":9110,"LANDMARKID":"6300000003587","LANDMARKCO":"603","LANDMARKNA":"台北青年國際旅館","LANDMARKAD":"6300005","ADDRESS":"台北市中正區許昌街19號","TEL":"02-23113201","COUNTYNAME":"台北市","TOWNNAME":"中正區","MARKTYPE":"996","Class":"6"},"geometry":{"x":121.51654783645424,"y":25.045647003551924}},{"attributes":{"OBJECTID":9111,"LANDMARKID":"6300000003588","LANDMARKCO":"603","LANDMARKNA":"東門大旅社","LANDMARKAD":"6300005","ADDRESS":"台北市中正區臨沂街78號2-4樓","TEL":"02-23515068","COUNTYNAME":"台北市","TOWNNAME":"中正區","MARKTYPE":"996","Class":"6"},"geometry":{"x":121.52779739626688,"y":25.034457899288103}},{"attributes":{"OBJECTID":9112,"LANDMARKID":"6300000003589","LANDMARKCO":"603","LANDMARKNA":"福泰桔子商務旅館","LANDMARKAD":"6300005","ADDRESS":"台北市中正區開封街1段41號2-9樓","TEL":"02-23881523","COUNTYNAME":"台北市","TOWNNAME":"中正區","MARKTYPE":"996","Class":"6"},"geometry":{"x":121.51253756905426,"y":25.046062441792056}},{"attributes":{"OBJECTID":9113,"LANDMARKID":"6300000003590","LANDMARKCO":"603","LANDMARKNA":"寶格力八方美學商旅","LANDMARKAD":"6300005","ADDRESS":"台北市中正區金山南路1段8號","TEL":"02-2358-3500","COUNTYNAME":"台北市","TOWNNAME":"中正區","MARKTYPE":"996","Class":"6"},"geometry":{"x":121.52939444408115,"y":25.0422738807322}},{"attributes":{"OBJECTID":9114,"LANDMARKID":"6300000003372","LANDMARKCO":"601","LANDMARKNA":"台北凱撒大飯店","LANDMARKAD":"6300005","ADDRESS":"台北市中正區忠孝西路1段38號","TEL":"02-2311-5151","COUNTYNAME":"台北市","TOWNNAME":"中正區","MARKTYPE":"996","Class":"6"},"geometry":{"x":121.51641401319814,"y":25.046234768613626}},{"attributes":{"OBJECTID":9115,"LANDMARKID":"6300000003373","LANDMARKCO":"601","LANDMARKNA":"台北寒舍喜來登大飯店","LANDMARKAD":"6300005","ADDRESS":"台北市中正區忠孝東路1段12號","TEL":"02-2321-5511","COUNTYNAME":"台北市","TOWNNAME":"中正區","MARKTYPE":"996","Class":"6"},"geometry":{"x":121.52208145511074,"y":25.044905380995065}},{"attributes":{"OBJECTID":9116,"LANDMARKID":"6300000003403","LANDMARKCO":"602","LANDMARKNA":"天成大飯店","LANDMARKAD":"6300005","ADDRESS":"台北市中正區忠孝西路1段43號","TEL":"02-2361-7856","COUNTYNAME":"台北市","TOWNNAME":"中正區","MARKTYPE":"996","Class":"6"},"geometry":{"x":121.51818787465712,"y":25.046223021546073}},{"attributes":{"OBJECTID":9117,"LANDMARKID":"6300000003404","LANDMARKCO":"602","LANDMARKNA":"華華大飯店","LANDMARKAD":"6300005","ADDRESS":"台北市中正區懷寧街30號-32","TEL":"02-2312-3811","COUNTYNAME":"台北市","TOWNNAME":"中正區","MARKTYPE":"996","Class":"6"},"geometry":{"x":121.51407394015402,"y":25.045389439121685}},{"attributes":{"OBJECTID":9118,"LANDMARKID":"6300000003152","LANDMARKCO":"505","LANDMARKNA":"台北植物園","LANDMARKAD":"6300005","ADDRESS":"台北市中正區南海路53號","TEL":" ","COUNTYNAME":"台北市","TOWNNAME":"中正區","MARKTYPE":"995","Class":"5"},"geometry":{"x":121.50874536830253,"y":25.031188422562256}},{"attributes":{"OBJECTID":9119,"LANDMARKID":"6300000003314","LANDMARKCO":"511","LANDMARKNA":"重慶南路書店街","LANDMARKAD":"6300005","ADDRESS":"台北市中正區","TEL":" ","COUNTYNAME":"台北市","TOWNNAME":"中正區","MARKTYPE":"995","Class":"5"},"geometry":{"x":121.51325525008576,"y":25.044421628665489}},{"attributes":{"OBJECTID":9120,"LANDMARKID":"6300000003315","LANDMARKCO":"511","LANDMARKNA":"牯嶺街舊書街","LANDMARKAD":"6300005","ADDRESS":"台北市中正區","TEL":" ","COUNTYNAME":"台北市","TOWNNAME":"中正區","MARKTYPE":"995","Class":"5"},"geometry":{"x":121.5186721929385,"y":25.027049622141938}},{"attributes":{"OBJECTID":9121,"LANDMARKID":"6300000003316","LANDMARKCO":"511","LANDMARKNA":"光華商場","LANDMARKAD":"6300005","ADDRESS":"台北市中正區","TEL":" ","COUNTYNAME":"台北市","TOWNNAME":"中正區","MARKTYPE":"995","Class":"5"},"geometry":{"x":121.53222562215228,"y":25.045122773250075}},{"attributes":{"OBJECTID":9122,"LANDMARKID":"6300000003317","LANDMARKCO":"511","LANDMARKNA":"南昌路傢俱街","LANDMARKAD":"6300005","ADDRESS":"台北市中正區","TEL":" ","COUNTYNAME":"台北市","TOWNNAME":"中正區","MARKTYPE":"995","Class":"5"},"geometry":{"x":121.51992745651485,"y":25.027800522955221}},{"attributes":{"OBJECTID":9123,"LANDMARKID":"6300000003318","LANDMARKCO":"511","LANDMARKNA":"博愛路相機專賣街","LANDMARKAD":"6300005","ADDRESS":"台北市中正區","TEL":" ","COUNTYNAME":"台北市","TOWNNAME":"中正區","MARKTYPE":"995","Class":"5"},"geometry":{"x":121.51147037282956,"y":25.044719000693973}},{"attributes":{"OBJECTID":9124,"LANDMARKID":"6300000003319","LANDMARKCO":"511","LANDMARKNA":"八德路電腦專賣街","LANDMARKAD":"6300005","ADDRESS":"台北市中正區","TEL":" ","COUNTYNAME":"台北市","TOWNNAME":"中正區","MARKTYPE":"995","Class":"5"},"geometry":{"x":121.53153950362376,"y":25.04401564911733}},{"attributes":{"OBJECTID":9125,"LANDMARKID":"6300000003320","LANDMARKCO":"511","LANDMARKNA":"愛國東路婚紗商店街","LANDMARKAD":"6300005","ADDRESS":"台北市中正區愛國東路","TEL":" ","COUNTYNAME":"台北市","TOWNNAME":"中正區","MARKTYPE":"995","Class":"5"},"geometry":{"x":121.51871000992475,"y":25.034082821129008}},{"attributes":{"OBJECTID":9126,"LANDMARKID":"6300000003321","LANDMARKCO":"511","LANDMARKNA":"南機場夜市","LANDMARKAD":"6300005","ADDRESS":"台北市萬華區","TEL":" ","COUNTYNAME":"台北市","TOWNNAME":"中正區","MARKTYPE":"995","Class":"5"},"geometry":{"x":121.50597693835115,"y":25.029236094558563}},{"attributes":{"OBJECTID":9127,"LANDMARKID":"6300000003123","LANDMARKCO":"503","LANDMARKNA":"新光摩天展望台(停)","LANDMARKAD":"6300005","ADDRESS":"台北市忠孝西路一段66號46樓","TEL":" ","COUNTYNAME":"台北市","TOWNNAME":"中正區","MARKTYPE":"995","Class":"5"},"geometry":{"x":121.5153618929707,"y":25.046242320508764}},{"attributes":{"OBJECTID":9128,"LANDMARKID":"6300000003151","LANDMARKCO":"505","LANDMARKNA":"自來水園區","LANDMARKAD":"6300005","ADDRESS":"台北市思源街1號","TEL":" ","COUNTYNAME":"台北市","TOWNNAME":"中正區","MARKTYPE":"995","Class":"5"},"geometry":{"x":121.53224998086361,"y":25.014755503803976}},{"attributes":{"OBJECTID":9129,"LANDMARKID":"6300000003113","LANDMARKCO":"410","LANDMARKNA":"台灣民主紀念館","LANDMARKAD":"6300005","ADDRESS":"台北市中正區","TEL":" ","COUNTYNAME":"台北市","TOWNNAME":"中正區","MARKTYPE":"994","Class":"4"},"geometry":{"x":121.52188150762366,"y":25.034871503423602}},{"attributes":{"OBJECTID":9130,"LANDMARKID":"6300000002411","LANDMARKCO":"405","LANDMARKNA":"中油加油站-忠孝東路站","LANDMARKAD":"6300002","ADDRESS":"台北市信義區忠孝東路五段69號","TEL":"02-27622418","COUNTYNAME":"台北市","TOWNNAME":"信義區","MARKTYPE":"994","Class":"4"},"geometry":{"x":121.56698007201919,"y":25.041409583048477}},{"attributes":{"OBJECTID":9131,"LANDMARKID":"6300000002412","LANDMARKCO":"405","LANDMARKNA":"中油加油站-松山路站","LANDMARKAD":"6300002","ADDRESS":"台北市信義區松山路480號","TEL":"02-27297328","COUNTYNAME":"台北市","TOWNNAME":"信義區","MARKTYPE":"994","Class":"4"},"geometry":{"x":121.57756513677037,"y":25.039801578947145}},{"attributes":{"OBJECTID":9132,"LANDMARKID":"6300000002317","LANDMARKCO":"402","LANDMARKNA":"My Phone台灣大哥大-台北忠孝直營服務中心","LANDMARKAD":"6300002","ADDRESS":"台北市信義區忠孝東路五段659號","TEL":"0809-000-166","COUNTYNAME":"台北市","TOWNNAME":"信義區","MARKTYPE":"994","Class":"4"},"geometry":{"x":121.57944666203504,"y":25.041923813392557}},{"attributes":{"OBJECTID":9133,"LANDMARKID":"6300000002318","LANDMARKCO":"402","LANDMARKNA":"My Phone台灣大哥大-信義－信義","LANDMARKAD":"6300002","ADDRESS":"台北市信義區信義路六段6號","TEL":"02-27591011","COUNTYNAME":"台北市","TOWNNAME":"信義區","MARKTYPE":"994","Class":"4"},"geometry":{"x":121.57484915002387,"y":25.03357806600637}},{"attributes":{"OBJECTID":9134,"LANDMARKID":"6300000002319","LANDMARKCO":"402","LANDMARKNA":"My Phone台灣大哥大-台北威秀直營服務中心","LANDMARKAD":"6300002","ADDRESS":"台北市信義區松壽路20號","TEL":" ","COUNTYNAME":"台北市","TOWNNAME":"信義區","MARKTYPE":"994","Class":"4"},"geometry":{"x":121.56738205180375,"y":25.035713272112286}},{"attributes":{"OBJECTID":9135,"LANDMARKID":"6300000002320","LANDMARKCO":"402","LANDMARKNA":"My Phone台灣大哥大-大安和平東<註三>","LANDMARKAD":"6300002","ADDRESS":"台北市信義區和平東路3段327號","TEL":"(02)8732-1669","COUNTYNAME":"台北市","TOWNNAME":"信義區","MARKTYPE":"994","Class":"4"},"geometry":{"x":121.55627875877848,"y":25.021098141953896}},{"attributes":{"OBJECTID":9136,"LANDMARKID":"6300000002321","LANDMARKCO":"402","LANDMARKNA":"亞太行動寬頻電信-信義忠孝東加盟服務中心","LANDMARKAD":"6300002","ADDRESS":"台北市信義區忠孝東路5段437號","TEL":"02-27651837","COUNTYNAME":"台北市","TOWNNAME":"信義區","MARKTYPE":"994","Class":"4"},"geometry":{"x":121.5759330623949,"y":25.041010506478067}},{"attributes":{"OBJECTID":9137,"LANDMARKID":"6300000002322","LANDMARKCO":"402","LANDMARKNA":"亞太行動寬頻電信-信義和平東加盟服務中心","LANDMARKAD":"6300002","ADDRESS":"台北市信義區和平東路3段329號;","TEL":"02-23775333","COUNTYNAME":"台北市","TOWNNAME":"信義區","MARKTYPE":"994","Class":"4"},"geometry":{"x":121.55630823764973,"y":25.021070837260709}},{"attributes":{"OBJECTID":9138,"LANDMARKID":"6300000002093","LANDMARKCO":"401","LANDMARKNA":"仁康醫院","LANDMARKAD":"6300002","ADDRESS":"台北市信義區基隆路二段131之24號","TEL":"02-27360226","COUNTYNAME":"台北市","TOWNNAME":"信義區","MARKTYPE":"994","Class":"4"},"geometry":{"x":121.5562111988707,"y":25.027373174495665}},{"attributes":{"OBJECTID":9139,"LANDMARKID":"6300000002094","LANDMARKCO":"401","LANDMARKNA":"臺北醫學大學附設醫院","LANDMARKAD":"6300002","ADDRESS":"台北市信義區吳興街252號","TEL":"02-27372181","COUNTYNAME":"台北市","TOWNNAME":"信義區","MARKTYPE":"994","Class":"4"},"geometry":{"x":121.56364610370255,"y":25.026633827937783}},{"attributes":{"OBJECTID":9140,"LANDMARKID":"6300000002095","LANDMARKCO":"401","LANDMARKNA":"台北市立聯合醫院-松德院區(台北市立療","LANDMARKAD":"6300002","ADDRESS":"台北市信義區松德路309號","TEL":"02-27263141","COUNTYNAME":"台北市","TOWNNAME":"信義區","MARKTYPE":"994","Class":"4"},"geometry":{"x":121.5749414219312,"y":25.030545210562906}},{"attributes":{"OBJECTID":9141,"LANDMARKID":"6300000003109","LANDMARKCO":"410","LANDMARKNA":"紐約紐約","LANDMARKAD":"6300002","ADDRESS":"台北市信義區松壽路12號","TEL":"02-87808111","COUNTYNAME":"台北市","TOWNNAME":"信義區","MARKTYPE":"994","Class":"4"},"geometry":{"x":121.56603661593627,"y":25.035661014323203}},{"attributes":{"OBJECTID":9142,"LANDMARKID":"6300000003110","LANDMARKCO":"410","LANDMARKNA":"誠品(信義旗艦店)","LANDMARKAD":"6300002","ADDRESS":"台北市松高路11號","TEL":"(02)8789-3388","COUNTYNAME":"台北市","TOWNNAME":"信義區","MARKTYPE":"994","Class":"4"},"geometry":{"x":121.56524994430085,"y":25.039510667088731}},{"attributes":{"OBJECTID":9143,"LANDMARKID":"6300000003111","LANDMARKCO":"410","LANDMARKNA":"信義商圈","LANDMARKAD":"6300002","ADDRESS":"臺北101、紐約紐約百貨及新光三越百貨群","TEL":" ","COUNTYNAME":"台北市","TOWNNAME":"信義區","MARKTYPE":"994","Class":"4"},"geometry":{"x":121.56547258201148,"y":25.035860023808176}},{"attributes":{"OBJECTID":9144,"LANDMARKID":"6300000003112","LANDMARKCO":"410","LANDMARKNA":"台北世貿","LANDMARKAD":"6300002","ADDRESS":"台北市信義區信義路5段5號","TEL":" ","COUNTYNAME":"台北市","TOWNNAME":"信義區","MARKTYPE":"994","Class":"4"},"geometry":{"x":121.56232953873048,"y":25.033306436875634}},{"attributes":{"OBJECTID":9145,"LANDMARKID":"6300000003370","LANDMARKCO":"512","LANDMARKNA":"TITA台北市自助旅行協會","LANDMARKAD":"6300002","ADDRESS":"台北市信義區光復南路473巷11弄34號","TEL":"02-27200622","COUNTYNAME":"台北市","TOWNNAME":"信義區","MARKTYPE":"995","Class":"5"},"geometry":{"x":121.55772378999025,"y":25.035231611381537}},{"attributes":{"OBJECTID":9146,"LANDMARKID":"6300000003371","LANDMARKCO":"512","LANDMARKNA":"美國旅遊推展協會","LANDMARKAD":"6300002","ADDRESS":"台北市信義區信義路五段5號7樓D21室","TEL":"02-27231762","COUNTYNAME":"台北市","TOWNNAME":"信義區","MARKTYPE":"995","Class":"5"},"geometry":{"x":121.56595633980605,"y":25.033110321801018}},{"attributes":{"OBJECTID":9147,"LANDMARKID":"6300000002889","LANDMARKCO":"407","LANDMARKNA":"誠品Eslite","LANDMARKAD":"6300002","ADDRESS":"台北市松高路11號","TEL":"02-8789-3388","COUNTYNAME":"台北市","TOWNNAME":"信義區","MARKTYPE":"994","Class":"4"},"geometry":{"x":121.56524994447051,"y":25.039510704103098}},{"attributes":{"OBJECTID":9148,"LANDMARKID":"6300000003052","LANDMARKCO":"408","LANDMARKNA":"郵局-台北市府郵局","LANDMARKAD":"6300002","ADDRESS":"台北市信義區市府路1號地下2樓(台北市政府內)","TEL":"(02)2720-0690","COUNTYNAME":"台北市","TOWNNAME":"信義區","MARKTYPE":"994","Class":"4"},"geometry":{"x":121.56379384123062,"y":25.037511552372578}},{"attributes":{"OBJECTID":9149,"LANDMARKID":"6300000003053","LANDMARKCO":"408","LANDMARKNA":"郵局-台北五分埔郵局","LANDMARKAD":"6300002","ADDRESS":"台北市信義區松德路300號","TEL":"(02)2727-3686","COUNTYNAME":"台北市","TOWNNAME":"信義區","MARKTYPE":"994","Class":"4"},"geometry":{"x":121.57431246705896,"y":25.03202042439705}},{"attributes":{"OBJECTID":9150,"LANDMARKID":"6300000003054","LANDMARKCO":"408","LANDMARKNA":"郵局-台北吳興郵局","LANDMARKAD":"6300002","ADDRESS":"台北市信義區莊敬路418號之1","TEL":"(02)2720-0060","COUNTYNAME":"台北市","TOWNNAME":"信義區","MARKTYPE":"994","Class":"4"},"geometry":{"x":121.56641504752649,"y":25.027110851491386}},{"attributes":{"OBJECTID":9151,"LANDMARKID":"6300000003055","LANDMARKCO":"408","LANDMARKNA":"郵局-台北永吉郵局","LANDMARKAD":"6300002","ADDRESS":"台北市信義區永吉路168號1樓","TEL":"(02)2768-4410","COUNTYNAME":"台北市","TOWNNAME":"信義區","MARKTYPE":"994","Class":"4"},"geometry":{"x":121.57103327136723,"y":25.045468748558083}},{"attributes":{"OBJECTID":9152,"LANDMARKID":"6300000003056","LANDMARKCO":"408","LANDMARKNA":"郵局-台北逸仙郵局","LANDMARKAD":"6300002","ADDRESS":"台北市信義區逸仙路46號","TEL":"(02)2729-0135","COUNTYNAME":"台北市","TOWNNAME":"信義區","MARKTYPE":"994","Class":"4"},"geometry":{"x":121.56169660422422,"y":25.04038933192416}},{"attributes":{"OBJECTID":9153,"LANDMARKID":"6300000003057","LANDMARKCO":"408","LANDMARKNA":"郵局-台北永春郵局","LANDMARKAD":"6300002","ADDRESS":"台北市信義區忠孝東路5段464號","TEL":"(02)2722-7960","COUNTYNAME":"台北市","TOWNNAME":"信義區","MARKTYPE":"994","Class":"4"},"geometry":{"x":121.57668314342087,"y":25.040679711442149}},{"attributes":{"OBJECTID":9154,"LANDMARKID":"6300000003058","LANDMARKCO":"408","LANDMARKNA":"郵局-台北世貿郵局","LANDMARKAD":"6300002","ADDRESS":"台北市信義區信義路5段5號(世貿中心內)","TEL":"(02)2725-2479","COUNTYNAME":"台北市","TOWNNAME":"信義區","MARKTYPE":"994","Class":"4"},"geometry":{"x":121.56235240405783,"y":25.033152917552588}},{"attributes":{"OBJECTID":9155,"LANDMARKID":"6300000003059","LANDMARKCO":"408","LANDMARKNA":"郵局-台北信義郵局","LANDMARKAD":"6300002","ADDRESS":"台北市信義區松廉路76號(信義投遞中心)","TEL":"(02)2725-3080","COUNTYNAME":"台北市","TOWNNAME":"信義區","MARKTYPE":"994","Class":"4"},"geometry":{"x":121.56733954955973,"y":25.033758985182288}},{"attributes":{"OBJECTID":9156,"LANDMARKID":"6300000002782","LANDMARKCO":"406","LANDMARKNA":"五常公園","LANDMARKAD":"6300002","ADDRESS":"台北市信義區","TEL":" ","COUNTYNAME":"台北市","TOWNNAME":"信義區","MARKTYPE":"994","Class":"4"},"geometry":{"x":121.57414210181369,"y":25.0478556802246}},{"attributes":{"OBJECTID":9157,"LANDMARKID":"6300000002783","LANDMARKCO":"406","LANDMARKNA":"雅祥公園","LANDMARKAD":"6300002","ADDRESS":"台北市信義區","TEL":" ","COUNTYNAME":"台北市","TOWNNAME":"信義區","MARKTYPE":"994","Class":"4"},"geometry":{"x":121.5719010964805,"y":25.047314180556061}},{"attributes":{"OBJECTID":9158,"LANDMARKID":"6300000002784","LANDMARKCO":"406","LANDMARKNA":"中坡公園","LANDMARKAD":"6300002","ADDRESS":"台北市信義區","TEL":" ","COUNTYNAME":"台北市","TOWNNAME":"信義區","MARKTYPE":"994","Class":"4"},"geometry":{"x":121.58011631643926,"y":25.047050469919625}},{"attributes":{"OBJECTID":9159,"LANDMARKID":"6300000002785","LANDMARKCO":"406","LANDMARKNA":"正義公園","LANDMARKAD":"6300002","ADDRESS":"台北市信義區","TEL":" ","COUNTYNAME":"台北市","TOWNNAME":"信義區","MARKTYPE":"994","Class":"4"},"geometry":{"x":121.57522138127726,"y":25.046828883637744}},{"attributes":{"OBJECTID":9160,"LANDMARKID":"6300000002786","LANDMARKCO":"406","LANDMARKNA":"福祥公園","LANDMARKAD":"6300002","ADDRESS":"台北市信義區","TEL":" ","COUNTYNAME":"台北市","TOWNNAME":"信義區","MARKTYPE":"994","Class":"4"},"geometry":{"x":121.57063075594444,"y":25.046046993583936}},{"attributes":{"OBJECTID":9161,"LANDMARKID":"6300000002787","LANDMARKCO":"406","LANDMARKNA":"革新公園","LANDMARKAD":"6300002","ADDRESS":"台北市信義區","TEL":" ","COUNTYNAME":"台北市","TOWNNAME":"信義區","MARKTYPE":"994","Class":"4"},"geometry":{"x":121.56741256480574,"y":25.043765091371185}},{"attributes":{"OBJECTID":9162,"LANDMARKID":"6300000002788","LANDMARKCO":"406","LANDMARKNA":"永吉公園","LANDMARKAD":"6300002","ADDRESS":"台北市信義區","TEL":" ","COUNTYNAME":"台北市","TOWNNAME":"信義區","MARKTYPE":"994","Class":"4"},"geometry":{"x":121.57496846660175,"y":25.043558490460377}},{"attributes":{"OBJECTID":9163,"LANDMARKID":"6300000002789","LANDMARKCO":"406","LANDMARKNA":"厚生公園","LANDMARKAD":"6300002","ADDRESS":"台北市信義區","TEL":" ","COUNTYNAME":"台北市","TOWNNAME":"信義區","MARKTYPE":"994","Class":"4"},"geometry":{"x":121.56760403224409,"y":25.043363345144478}},{"attributes":{"OBJECTID":9164,"LANDMARKID":"6300000002790","LANDMARKCO":"406","LANDMARKNA":"春光公園","LANDMARKAD":"6300002","ADDRESS":"台北市信義區","TEL":" ","COUNTYNAME":"台北市","TOWNNAME":"信義區","MARKTYPE":"994","Class":"4"},"geometry":{"x":121.58079216897424,"y":25.042360899152616}},{"attributes":{"OBJECTID":9165,"LANDMARKID":"6300000002791","LANDMARKCO":"406","LANDMARKNA":"永春公園","LANDMARKAD":"6300002","ADDRESS":"台北市信義區","TEL":" ","COUNTYNAME":"台北市","TOWNNAME":"信義區","MARKTYPE":"994","Class":"4"},"geometry":{"x":121.57864758434037,"y":25.042117955386914}},{"attributes":{"OBJECTID":9166,"LANDMARKID":"6300000002792","LANDMARKCO":"406","LANDMARKNA":"富生公園","LANDMARKAD":"6300002","ADDRESS":"台北市信義區","TEL":" ","COUNTYNAME":"台北市","TOWNNAME":"信義區","MARKTYPE":"994","Class":"4"},"geometry":{"x":121.56978686442525,"y":25.042120303029598}},{"attributes":{"OBJECTID":9167,"LANDMARKID":"6300000002793","LANDMARKCO":"406","LANDMARKNA":"兒童公園","LANDMARKAD":"6300002","ADDRESS":"台北市信義區","TEL":" ","COUNTYNAME":"台北市","TOWNNAME":"信義區","MARKTYPE":"994","Class":"4"},"geometry":{"x":121.57228879557701,"y":25.041952591758587}},{"attributes":{"OBJECTID":9168,"LANDMARKID":"6300000002794","LANDMARKCO":"406","LANDMARKNA":"青商福德公園","LANDMARKAD":"6300002","ADDRESS":"台北市信義區","TEL":" ","COUNTYNAME":"台北市","TOWNNAME":"信義區","MARKTYPE":"994","Class":"4"},"geometry":{"x":121.58165649702502,"y":25.039732447838663}},{"attributes":{"OBJECTID":9169,"LANDMARKID":"6300000002795","LANDMARKCO":"406","LANDMARKNA":"林口公園","LANDMARKAD":"6300002","ADDRESS":"台北市信義區","TEL":" ","COUNTYNAME":"台北市","TOWNNAME":"信義區","MARKTYPE":"994","Class":"4"},"geometry":{"x":121.57905816105449,"y":25.039094212803281}},{"attributes":{"OBJECTID":9170,"LANDMARKID":"6300000002796","LANDMARKCO":"406","LANDMARKNA":"百福公園","LANDMARKAD":"6300002","ADDRESS":"台北市信義區","TEL":" ","COUNTYNAME":"台北市","TOWNNAME":"信義區","MARKTYPE":"994","Class":"4"},"geometry":{"x":121.58815959871312,"y":25.038696829979916}},{"attributes":{"OBJECTID":9171,"LANDMARKID":"6300000002797","LANDMARKCO":"406","LANDMARKNA":"中全公園","LANDMARKAD":"6300002","ADDRESS":"台北市信義區","TEL":" ","COUNTYNAME":"台北市","TOWNNAME":"信義區","MARKTYPE":"994","Class":"4"},"geometry":{"x":121.57508028777606,"y":25.038498689537406}},{"attributes":{"OBJECTID":9172,"LANDMARKID":"6300000002798","LANDMARKCO":"406","LANDMARKNA":"中山公園","LANDMARKAD":"6300002","ADDRESS":"台北市信義區","TEL":" ","COUNTYNAME":"台北市","TOWNNAME":"信義區","MARKTYPE":"994","Class":"4"},"geometry":{"x":121.55899354079715,"y":25.038828163528919}},{"attributes":{"OBJECTID":9173,"LANDMARKID":"6300000002799","LANDMARKCO":"406","LANDMARKNA":"福德公園","LANDMARKAD":"6300002","ADDRESS":"台北市信義區","TEL":" ","COUNTYNAME":"台北市","TOWNNAME":"信義區","MARKTYPE":"994","Class":"4"},"geometry":{"x":121.58385859857299,"y":25.038349078451294}},{"attributes":{"OBJECTID":9174,"LANDMARKID":"6300000002800","LANDMARKCO":"406","LANDMARKNA":"安強公園","LANDMARKAD":"6300002","ADDRESS":"台北市信義區","TEL":" ","COUNTYNAME":"台北市","TOWNNAME":"信義區","MARKTYPE":"994","Class":"4"},"geometry":{"x":121.57384362251251,"y":25.037798590629748}},{"attributes":{"OBJECTID":9175,"LANDMARKID":"6300000002801","LANDMARKCO":"406","LANDMARKNA":"松德公園","LANDMARKAD":"6300002","ADDRESS":"台北市信義區","TEL":" ","COUNTYNAME":"台北市","TOWNNAME":"信義區","MARKTYPE":"994","Class":"4"},"geometry":{"x":121.57330080021624,"y":25.035585041789059}},{"attributes":{"OBJECTID":9176,"LANDMARKID":"6300000002802","LANDMARKCO":"406","LANDMARKNA":"虎山溪公園","LANDMARKAD":"6300002","ADDRESS":"台北市信義區","TEL":" ","COUNTYNAME":"台北市","TOWNNAME":"信義區","MARKTYPE":"994","Class":"4"},"geometry":{"x":121.58763977719293,"y":25.035270586697337}},{"attributes":{"OBJECTID":9177,"LANDMARKID":"6300000002803","LANDMARKCO":"406","LANDMARKNA":"中興公園","LANDMARKAD":"6300002","ADDRESS":"台北市信義區","TEL":" ","COUNTYNAME":"台北市","TOWNNAME":"信義區","MARKTYPE":"994","Class":"4"},"geometry":{"x":121.55900648142546,"y":25.03430163124796}},{"attributes":{"OBJECTID":9178,"LANDMARKID":"6300000002804","LANDMARKCO":"406","LANDMARKNA":"松友公園","LANDMARKAD":"6300002","ADDRESS":"台北市信義區","TEL":" ","COUNTYNAME":"台北市","TOWNNAME":"信義區","MARKTYPE":"994","Class":"4"},"geometry":{"x":121.57630363209996,"y":25.033704854452161}},{"attributes":{"OBJECTID":9179,"LANDMARKID":"6300000002805","LANDMARKCO":"406","LANDMARKNA":"虎林公園","LANDMARKAD":"6300002","ADDRESS":"台北市信義區","TEL":" ","COUNTYNAME":"台北市","TOWNNAME":"信義區","MARKTYPE":"994","Class":"4"},"geometry":{"x":121.57468324537648,"y":25.031201599557715}},{"attributes":{"OBJECTID":9180,"LANDMARKID":"6300000002806","LANDMARKCO":"406","LANDMARKNA":"永春崗公園","LANDMARKAD":"6300002","ADDRESS":"台北市信義區","TEL":" ","COUNTYNAME":"台北市","TOWNNAME":"信義區","MARKTYPE":"994","Class":"4"},"geometry":{"x":121.57717109801986,"y":25.031076798136105}},{"attributes":{"OBJECTID":9181,"LANDMARKID":"6300000002807","LANDMARKCO":"406","LANDMARKNA":"中強公園","LANDMARKAD":"6300002","ADDRESS":"台北市信義區","TEL":" ","COUNTYNAME":"台北市","TOWNNAME":"信義區","MARKTYPE":"994","Class":"4"},"geometry":{"x":121.57016252309703,"y":25.029987790785547}},{"attributes":{"OBJECTID":9182,"LANDMARKID":"6300000002808","LANDMARKCO":"406","LANDMARKNA":"景新公園","LANDMARKAD":"6300002","ADDRESS":"台北市信義區","TEL":" ","COUNTYNAME":"台北市","TOWNNAME":"信義區","MARKTYPE":"994","Class":"4"},"geometry":{"x":121.56241552429199,"y":25.030416874993225}},{"attributes":{"OBJECTID":9183,"LANDMARKID":"6300000002809","LANDMARKCO":"406","LANDMARKNA":"景平公園","LANDMARKAD":"6300002","ADDRESS":"台北市信義區","TEL":" ","COUNTYNAME":"台北市","TOWNNAME":"信義區","MARKTYPE":"994","Class":"4"},"geometry":{"x":121.56375025412621,"y":25.030056328400235}},{"attributes":{"OBJECTID":9184,"LANDMARKID":"6300000002810","LANDMARKCO":"406","LANDMARKNA":"三興公園","LANDMARKAD":"6300002","ADDRESS":"台北市信義區","TEL":" ","COUNTYNAME":"台北市","TOWNNAME":"信義區","MARKTYPE":"994","Class":"4"},"geometry":{"x":121.55951220526694,"y":25.028634296047866}},{"attributes":{"OBJECTID":9185,"LANDMARKID":"6300000002811","LANDMARKCO":"406","LANDMARKNA":"三犁公園","LANDMARKAD":"6300002","ADDRESS":"台北市信義區","TEL":" ","COUNTYNAME":"台北市","TOWNNAME":"信義區","MARKTYPE":"994","Class":"4"},"geometry":{"x":121.57008792922176,"y":25.028204330283305}},{"attributes":{"OBJECTID":9186,"LANDMARKID":"6300000002812","LANDMARKCO":"406","LANDMARKNA":"吳興公園","LANDMARKAD":"6300002","ADDRESS":"台北市信義區","TEL":" ","COUNTYNAME":"台北市","TOWNNAME":"信義區","MARKTYPE":"994","Class":"4"},"geometry":{"x":121.56803891919157,"y":25.023649690086391}},{"attributes":{"OBJECTID":9187,"LANDMARKID":"6300000002813","LANDMARKCO":"406","LANDMARKNA":"黎富公園","LANDMARKAD":"6300002","ADDRESS":"台北市信義區","TEL":" ","COUNTYNAME":"台北市","TOWNNAME":"信義區","MARKTYPE":"994","Class":"4"},"geometry":{"x":121.55746113663258,"y":25.020300618748706}},{"attributes":{"OBJECTID":9188,"LANDMARKID":"6300000002814","LANDMARKCO":"406","LANDMARKNA":"六合公園","LANDMARKAD":"6300002","ADDRESS":"台北市信義區","TEL":" ","COUNTYNAME":"台北市","TOWNNAME":"信義區","MARKTYPE":"994","Class":"4"},"geometry":{"x":121.57089621950338,"y":25.019101387061351}},{"attributes":{"OBJECTID":9189,"LANDMARKID":"6300000002815","LANDMARKCO":"406","LANDMARKNA":"黎和公園","LANDMARKAD":"6300002","ADDRESS":"台北市信義區","TEL":" ","COUNTYNAME":"台北市","TOWNNAME":"信義區","MARKTYPE":"994","Class":"4"},"geometry":{"x":121.55958657578448,"y":25.01800252405322}},{"attributes":{"OBJECTID":9190,"LANDMARKID":"6300000002816","LANDMARKCO":"406","LANDMARKNA":"極樂公園","LANDMARKAD":"6300002","ADDRESS":"台北市信義區","TEL":" ","COUNTYNAME":"台北市","TOWNNAME":"信義區","MARKTYPE":"994","Class":"4"},"geometry":{"x":121.56948527049485,"y":25.014104383863739}},{"attributes":{"OBJECTID":9191,"LANDMARKID":"6300000002878","LANDMARKCO":"407","LANDMARKNA":"101","LANDMARKAD":"6300002","ADDRESS":"台北市信義區市府路45號","TEL":"02-81017777","COUNTYNAME":"台北市","TOWNNAME":"信義區","MARKTYPE":"994","Class":"4"},"geometry":{"x":121.56391213196764,"y":25.034027299241156}},{"attributes":{"OBJECTID":9192,"LANDMARKID":"6300000002879","LANDMARKCO":"407","LANDMARKNA":"紐約紐約","LANDMARKAD":"6300002","ADDRESS":"台北市信義區松壽路12號","TEL":"02-87808111","COUNTYNAME":"台北市","TOWNNAME":"信義區","MARKTYPE":"994","Class":"4"},"geometry":{"x":121.56603661611028,"y":25.035661052240371}},{"attributes":{"OBJECTID":9193,"LANDMARKID":"6300000002880","LANDMARKCO":"407","LANDMARKNA":"新光三越","LANDMARKAD":"6300002","ADDRESS":"台北市信義區松壽路11號","TEL":"8780-1000","COUNTYNAME":"台北市","TOWNNAME":"信義區","MARKTYPE":"994","Class":"4"},"geometry":{"x":121.56729765875826,"y":25.036072784425194}},{"attributes":{"OBJECTID":9194,"LANDMARKID":"6300000002881","LANDMARKCO":"407","LANDMARKNA":"Neo19","LANDMARKAD":"6300002","ADDRESS":"台北市信義區松壽路22號","TEL":" ","COUNTYNAME":"台北市","TOWNNAME":"信義區","MARKTYPE":"994","Class":"4"},"geometry":{"x":121.56774942502837,"y":25.035561496857579}},{"attributes":{"OBJECTID":9195,"LANDMARKID":"6300000002882","LANDMARKCO":"407","LANDMARKNA":"先施百貨","LANDMARKAD":"6300002","ADDRESS":"台北市信義區松壽路2號","TEL":"02-27201007","COUNTYNAME":"台北市","TOWNNAME":"信義區","MARKTYPE":"994","Class":"4"},"geometry":{"x":121.56263434177035,"y":25.035642521462936}},{"attributes":{"OBJECTID":9196,"LANDMARKID":"6300000002883","LANDMARKCO":"407","LANDMARKNA":"新光三越","LANDMARKAD":"6300002","ADDRESS":"台北市信義區松高路12號","TEL":"8780-9966","COUNTYNAME":"台北市","TOWNNAME":"信義區","MARKTYPE":"994","Class":"4"},"geometry":{"x":121.5668173877233,"y":25.038814206468135}},{"attributes":{"OBJECTID":9197,"LANDMARKID":"6300000002884","LANDMARKCO":"407","LANDMARKNA":"新光三越","LANDMARKAD":"6300002","ADDRESS":"台北市信義區松壽路9號","TEL":" ","COUNTYNAME":"台北市","TOWNNAME":"信義區","MARKTYPE":"994","Class":"4"},"geometry":{"x":121.56667992674743,"y":25.036082012595983}},{"attributes":{"OBJECTID":9198,"LANDMARKID":"6300000002885","LANDMARKCO":"407","LANDMARKNA":"新光三越","LANDMARKAD":"6300002","ADDRESS":"台北市信義區松高路19號","TEL":"(02)8789-5599","COUNTYNAME":"台北市","TOWNNAME":"信義區","MARKTYPE":"994","Class":"4"},"geometry":{"x":121.56667398874099,"y":25.039359200788944}},{"attributes":{"OBJECTID":9199,"LANDMARKID":"6300000002886","LANDMARKCO":"407","LANDMARKNA":"LV專賣店","LANDMARKAD":"6300002","ADDRESS":"台北市信義區市府路45號3樓之3","TEL":"02-81017968","COUNTYNAME":"台北市","TOWNNAME":"信義區","MARKTYPE":"994","Class":"4"},"geometry":{"x":121.56391213196764,"y":25.034027299241156}},{"attributes":{"OBJECTID":9200,"LANDMARKID":"6300000002887","LANDMARKCO":"407","LANDMARKNA":"Gucci專賣店","LANDMARKAD":"6300002","ADDRESS":"台北市信義區市府路45號3樓","TEL":"02-81017955","COUNTYNAME":"台北市","TOWNNAME":"信義區","MARKTYPE":"994","Class":"4"},"geometry":{"x":121.56391213196764,"y":25.034027299241156}}]}