{"displayFieldName":"COUNTYNAME","fieldAliases":{"OBJECTID":"OBJECTID","LANDMARKID":"LANDMARKID","LANDMARKCO":"LANDMARKCO","LANDMARKNA":"LANDMARKNA","LANDMARKAD":"LANDMARKAD","ADDRESS":"ADDRESS","TEL":"TEL","COUNTYNAME":"COUNTYNAME","TOWNNAME":"TOWNNAME","MARKTYPE":"MARKTYPE","Class":"Class"},"geometryType":"esriGeometryPoint","spatialReference":{"wkid":102443},"fields":[{"name":"OBJECTID","type":"esriFieldTypeOID","alias":"OBJECTID"},{"name":"LANDMARKID","type":"esriFieldTypeString","alias":"LANDMARKID","length":15},{"name":"LANDMARKCO","type":"esriFieldTypeString","alias":"LANDMARKCO","length":15},{"name":"LANDMARKNA","type":"esriFieldTypeString","alias":"LANDMARKNA","length":50},{"name":"LANDMARKAD","type":"esriFieldTypeString","alias":"LANDMARKAD","length":15},{"name":"ADDRESS","type":"esriFieldTypeString","alias":"ADDRESS","length":56},{"name":"TEL","type":"esriFieldTypeString","alias":"TEL","length":36},{"name":"COUNTYNAME","type":"esriFieldTypeString","alias":"COUNTYNAME","length":15},{"name":"TOWNNAME","type":"esriFieldTypeString","alias":"TOWNNAME","length":13},{"name":"MARKTYPE","type":"esriFieldTypeString","alias":"MARKTYPE","length":12},{"name":"Class","type":"esriFieldTypeString","alias":"Class","length":5}],"features":[{"attributes":{"OBJECTID":19401,"LANDMARKID":"1001200000487","LANDMARKCO":"203","LANDMARKNA":"縣立南隆國中","LANDMARKAD":"1001220","ADDRESS":"高雄市美濃區南中街3號","TEL":"07-6831154","COUNTYNAME":"高雄市","TOWNNAME":"美濃區","MARKTYPE":"992","Class":"2"},"geometry":{"x":202204.23159999959,"y":2529530.2967000008}},{"attributes":{"OBJECTID":19402,"LANDMARKID":"1001200000488","LANDMARKCO":"203","LANDMARKNA":"縣立美濃國中","LANDMARKAD":"1001220","ADDRESS":"高雄市美濃區合和里中正路一段191號","TEL":"07-6816166","COUNTYNAME":"高雄市","TOWNNAME":"美濃區","MARKTYPE":"992","Class":"2"},"geometry":{"x":203163.16220000014,"y":2532630.5841000006}},{"attributes":{"OBJECTID":19403,"LANDMARKID":"1001200000489","LANDMARKCO":"203","LANDMARKNA":"縣立龍肚國中","LANDMARKAD":"1001220","ADDRESS":"高雄市美濃區龍山里中華路68號","TEL":"07-6851314","COUNTYNAME":"高雄市","TOWNNAME":"美濃區","MARKTYPE":"992","Class":"2"},"geometry":{"x":206000.80570000038,"y":2530880.5263}},{"attributes":{"OBJECTID":19404,"LANDMARKID":"1001200000490","LANDMARKCO":"203","LANDMARKNA":"縣立福安國小","LANDMARKAD":"1001220","ADDRESS":"高雄市美濃區中山路二段358號","TEL":"07-6812514","COUNTYNAME":"高雄市","TOWNNAME":"美濃區","MARKTYPE":"992","Class":"2"},"geometry":{"x":200701.71530000027,"y":2533070.0144999996}},{"attributes":{"OBJECTID":19405,"LANDMARKID":"1001200000491","LANDMARKCO":"203","LANDMARKNA":"縣立吉洋國小","LANDMARKAD":"1001220","ADDRESS":"高雄市美濃區吉和里忠孝路二段59號","TEL":"07-6831849","COUNTYNAME":"高雄市","TOWNNAME":"美濃區","MARKTYPE":"992","Class":"2"},"geometry":{"x":200838.91399999987,"y":2529010.5033}},{"attributes":{"OBJECTID":19406,"LANDMARKID":"1001200000492","LANDMARKCO":"203","LANDMARKNA":"縣立中壇國小","LANDMARKAD":"1001220","ADDRESS":"高雄市美濃區中壇里忠孝路一段19號","TEL":"07-6812534","COUNTYNAME":"高雄市","TOWNNAME":"美濃區","MARKTYPE":"992","Class":"2"},"geometry":{"x":201885.81199999992,"y":2531500.1706000008}},{"attributes":{"OBJECTID":19407,"LANDMARKID":"1001200000493","LANDMARKCO":"203","LANDMARKNA":"縣立美濃國小","LANDMARKAD":"1001220","ADDRESS":"高雄市美濃區泰安里永安路190號","TEL":"07-6810166","COUNTYNAME":"高雄市","TOWNNAME":"美濃區","MARKTYPE":"992","Class":"2"},"geometry":{"x":203133.88399999961,"y":2533320.4846000001}},{"attributes":{"OBJECTID":19408,"LANDMARKID":"1001200000494","LANDMARKCO":"203","LANDMARKNA":"縣立龍山國小","LANDMARKAD":"1001220","ADDRESS":"高雄市美濃區龍山里龍山街62號","TEL":"07-6833654","COUNTYNAME":"高雄市","TOWNNAME":"美濃區","MARKTYPE":"992","Class":"2"},"geometry":{"x":204523.81850000005,"y":2529340.4008000009}},{"attributes":{"OBJECTID":19409,"LANDMARKID":"1001200000495","LANDMARKCO":"203","LANDMARKNA":"縣立廣興國小","LANDMARKAD":"1001220","ADDRESS":"高雄市美濃區興隆里廣興街124號","TEL":"07-6812857","COUNTYNAME":"高雄市","TOWNNAME":"美濃區","MARKTYPE":"992","Class":"2"},"geometry":{"x":205652.64910000004,"y":2535240.3079000004}},{"attributes":{"OBJECTID":19410,"LANDMARKID":"1001200000496","LANDMARKCO":"203","LANDMARKNA":"縣立龍肚國小","LANDMARKAD":"1001220","ADDRESS":"高雄市美濃區龍肚里龍東街43號","TEL":"07-6851124","COUNTYNAME":"高雄市","TOWNNAME":"美濃區","MARKTYPE":"992","Class":"2"},"geometry":{"x":206961.19039999973,"y":2531710.8114999998}},{"attributes":{"OBJECTID":19411,"LANDMARKID":"1001200000315","LANDMARKCO":"201","LANDMARKNA":"高美醫護管理專科學校","LANDMARKAD":"1001220","ADDRESS":"高雄市美濃區成功路309號","TEL":"07-6812148","COUNTYNAME":"高雄市","TOWNNAME":"美濃區","MARKTYPE":"992","Class":"2"},"geometry":{"x":203911.21399999969,"y":2532000.2535999995}},{"attributes":{"OBJECTID":19412,"LANDMARKID":"1001200000498","LANDMARKCO":"203","LANDMARKNA":"縣立吉東國小","LANDMARKAD":"1001220","ADDRESS":"高雄市美濃區吉東里吉頂路19號","TEL":"07-6831144","COUNTYNAME":"高雄市","TOWNNAME":"美濃區","MARKTYPE":"992","Class":"2"},"geometry":{"x":203401.79260000028,"y":2528120.4780000001}},{"attributes":{"OBJECTID":19413,"LANDMARKID":"1001200000622","LANDMARKCO":"302","LANDMARKNA":"高雄汽車客運美濃站","LANDMARKAD":"1001220","ADDRESS":"高雄市美濃區中山路一段11號","TEL":" ","COUNTYNAME":"高雄市","TOWNNAME":"美濃區","MARKTYPE":"993","Class":"302"},"geometry":{"x":202961.25910000037,"y":2533518.5878999997}},{"attributes":{"OBJECTID":19414,"LANDMARKID":"1001200000649","LANDMARKCO":"303","LANDMARKNA":"高雄休閒農場停車場","LANDMARKAD":"1001220","ADDRESS":"高雄市美濃區吉洋里外六寮500號","TEL":"07-6831115","COUNTYNAME":"高雄市","TOWNNAME":"美濃區","MARKTYPE":"993","Class":"303"},"geometry":{"x":201793.99509999994,"y":2525778.0995000005}},{"attributes":{"OBJECTID":19415,"LANDMARKID":"1001200000650","LANDMARKCO":"303","LANDMARKNA":"美濃黃蝶翠谷休息區停車場","LANDMARKAD":"1001220","ADDRESS":"高雄市美濃區廣林里","TEL":"07-6612031","COUNTYNAME":"高雄市","TOWNNAME":"美濃區","MARKTYPE":"993","Class":"303"},"geometry":{"x":207733.36529999971,"y":2536746.6280000005}},{"attributes":{"OBJECTID":19416,"LANDMARKID":"1001200000651","LANDMARKCO":"303","LANDMARKNA":"高雄休閒農場停車場","LANDMARKAD":"1001220","ADDRESS":"高雄市美濃區外六寮路500號","TEL":" ","COUNTYNAME":"高雄市","TOWNNAME":"美濃區","MARKTYPE":"993","Class":"303"},"geometry":{"x":204037.87019999977,"y":2534539.2025000006}},{"attributes":{"OBJECTID":19417,"LANDMARKID":"1001200000813","LANDMARKCO":"402","LANDMARKNA":"中華電信-美濃服務中心","LANDMARKAD":"1001220","ADDRESS":"高雄市美濃區泰安路103號","TEL":"(07)644-4316","COUNTYNAME":"高雄市","TOWNNAME":"美濃區","MARKTYPE":"994","Class":"4"},"geometry":{"x":202818.97190000024,"y":2533540.2186999992}},{"attributes":{"OBJECTID":19418,"LANDMARKID":"1001200001432","LANDMARKCO":"604","LANDMARKNA":"湖美茵\/快樂\/天然","LANDMARKAD":"1001220","ADDRESS":"高雄市美濃區中山路2段782巷52號","TEL":"07-6812255","COUNTYNAME":"高雄市","TOWNNAME":"美濃區","MARKTYPE":"996","Class":"6"},"geometry":{"x":199690.18340000045,"y":2532628.4978999998}},{"attributes":{"OBJECTID":19419,"LANDMARKID":"1001200001433","LANDMARKCO":"604","LANDMARKNA":"一本書民宿","LANDMARKAD":"1001220","ADDRESS":"高雄市美濃區中華路67號","TEL":"07-6850685","COUNTYNAME":"高雄市","TOWNNAME":"美濃區","MARKTYPE":"996","Class":"6"},"geometry":{"x":205990.88829999976,"y":2530765.1547999997}},{"attributes":{"OBJECTID":19420,"LANDMARKID":"1001200001434","LANDMARKCO":"604","LANDMARKNA":"林家民宿","LANDMARKAD":"1001220","ADDRESS":"高雄市美濃區民族路53-7號","TEL":"07-6820658","COUNTYNAME":"高雄市","TOWNNAME":"美濃區","MARKTYPE":"996","Class":"6"},"geometry":{"x":204166.60300000012,"y":2533662.1707000006}},{"attributes":{"OBJECTID":19421,"LANDMARKID":"1001200001435","LANDMARKCO":"604","LANDMARKNA":"人字山莊","LANDMARKAD":"1001220","ADDRESS":"高雄市美濃區民權路66-5號","TEL":"07-6822159","COUNTYNAME":"高雄市","TOWNNAME":"美濃區","MARKTYPE":"996","Class":"6"},"geometry":{"x":204108.77809999976,"y":2534701.8352000006}},{"attributes":{"OBJECTID":19422,"LANDMARKID":"1001200001436","LANDMARKCO":"604","LANDMARKNA":"自強民宿","LANDMARKAD":"1001220","ADDRESS":"高雄市美濃區自強街1段316號","TEL":"07-6818242","COUNTYNAME":"高雄市","TOWNNAME":"美濃區","MARKTYPE":"996","Class":"6"},"geometry":{"x":202747.50569999963,"y":2533732.8959999997}},{"attributes":{"OBJECTID":19423,"LANDMARKID":"1001200001437","LANDMARKCO":"604","LANDMARKNA":"美濃民宿","LANDMARKAD":"1001220","ADDRESS":"高雄市美濃區自強街1段318號","TEL":"07-6810621","COUNTYNAME":"高雄市","TOWNNAME":"美濃區","MARKTYPE":"996","Class":"6"},"geometry":{"x":202747.50569999963,"y":2533732.8959999997}},{"attributes":{"OBJECTID":19424,"LANDMARKID":"1001200001438","LANDMARKCO":"604","LANDMARKNA":"中正湖民宿","LANDMARKAD":"1001220","ADDRESS":"高雄市美濃區福美路30號","TEL":"07-6812736","COUNTYNAME":"高雄市","TOWNNAME":"美濃區","MARKTYPE":"996","Class":"6"},"geometry":{"x":203981.67970000021,"y":2534748.8971999995}},{"attributes":{"OBJECTID":19425,"LANDMARKID":"1001200001439","LANDMARKCO":"604","LANDMARKNA":"美濃雲山居民宿","LANDMARKAD":"1001220","ADDRESS":"高雄市美濃區龍山街56-1號","TEL":"07-6833808","COUNTYNAME":"高雄市","TOWNNAME":"美濃區","MARKTYPE":"996","Class":"6"},"geometry":{"x":204500.08389999997,"y":2529638.2424999997}},{"attributes":{"OBJECTID":19426,"LANDMARKID":"1001200001440","LANDMARKCO":"604","LANDMARKNA":"峰園民宿","LANDMARKAD":"1001220","ADDRESS":"高雄市美濃區雙峰街8-20號","TEL":"07-6820839","COUNTYNAME":"高雄市","TOWNNAME":"美濃區","MARKTYPE":"996","Class":"6"},"geometry":{"x":202929.83980000019,"y":2533990.4635000005}},{"attributes":{"OBJECTID":19427,"LANDMARKID":"1001200001441","LANDMARKCO":"604","LANDMARKNA":"中正湖歐式山莊","LANDMARKAD":"1001220","ADDRESS":"高雄市美濃區福美路28號","TEL":"07-6812736","COUNTYNAME":"高雄市","TOWNNAME":"美濃區","MARKTYPE":"996","Class":"6"},"geometry":{"x":203972.85769999959,"y":2534750.0044999998}},{"attributes":{"OBJECTID":19428,"LANDMARKID":"1001200001442","LANDMARKCO":"604","LANDMARKNA":"清園民宿","LANDMARKAD":"1001220","ADDRESS":"高雄市美濃區自強路1段320號","TEL":"07-6810621","COUNTYNAME":"高雄市","TOWNNAME":"美濃區","MARKTYPE":"996","Class":"6"},"geometry":{"x":202747.50569999963,"y":2533732.8959999997}},{"attributes":{"OBJECTID":19429,"LANDMARKID":"1001200001443","LANDMARKCO":"604","LANDMARKNA":"百果園民宿","LANDMARKAD":"1001220","ADDRESS":"高雄市美濃區復興街1段58巷5號","TEL":"07-6818587","COUNTYNAME":"高雄市","TOWNNAME":"美濃區","MARKTYPE":"996","Class":"6"},"geometry":{"x":202417.57400000002,"y":2531474.4854000006}},{"attributes":{"OBJECTID":19430,"LANDMARKID":"1001200001378","LANDMARKCO":"603","LANDMARKNA":"中美大旅社","LANDMARKAD":"1001220","ADDRESS":"高雄市美濃區中正路一段687號","TEL":"07-6812205","COUNTYNAME":"高雄市","TOWNNAME":"美濃區","MARKTYPE":"996","Class":"6"},"geometry":{"x":202073.34240000043,"y":2531746.8137999997}},{"attributes":{"OBJECTID":19431,"LANDMARKID":"1001200001241","LANDMARKCO":"505","LANDMARKNA":"美濃黃蝶翠谷","LANDMARKAD":"1001220","ADDRESS":"高雄市美濃區","TEL":"07-6612031","COUNTYNAME":"高雄市","TOWNNAME":"美濃區","MARKTYPE":"995","Class":"5"},"geometry":{"x":208571.89059999958,"y":2536985.1390000004}},{"attributes":{"OBJECTID":19432,"LANDMARKID":"1001200000875","LANDMARKCO":"405","LANDMARKNA":"統一速邁樂加油站-湖內加油站(中油)","LANDMARKAD":"1001214","ADDRESS":"高雄市湖內區太爺村中山路二段336號","TEL":" ","COUNTYNAME":"高雄市","TOWNNAME":"湖內區","MARKTYPE":"994","Class":"4"},"geometry":{"x":170638.80910000019,"y":2535026.8499999996}},{"attributes":{"OBJECTID":19433,"LANDMARKID":"1001200000876","LANDMARKCO":"405","LANDMARKNA":"中油加油站-和宏站","LANDMARKAD":"1001214","ADDRESS":"高雄市湖內區大湖村中山路一段433號","TEL":"07-6938191","COUNTYNAME":"高雄市","TOWNNAME":"湖內區","MARKTYPE":"994","Class":"4"},"geometry":{"x":172444.32249999978,"y":2531933.7777999993}},{"attributes":{"OBJECTID":19434,"LANDMARKID":"1001200000877","LANDMARKCO":"405","LANDMARKNA":"中油加油站-興達站","LANDMARKAD":"1001214","ADDRESS":"高雄市湖內區和平路5號","TEL":"07-6996169","COUNTYNAME":"高雄市","TOWNNAME":"湖內區","MARKTYPE":"994","Class":"4"},"geometry":{"x":170441.18780000042,"y":2530613.6570999995}},{"attributes":{"OBJECTID":19435,"LANDMARKID":"1001200000878","LANDMARKCO":"405","LANDMARKNA":"中油加油站-太爺站","LANDMARKAD":"1001214","ADDRESS":"高雄市湖內區公館村中山路二段61號","TEL":"07-6993073","COUNTYNAME":"高雄市","TOWNNAME":"湖內區","MARKTYPE":"994","Class":"4"},"geometry":{"x":170812.23139999993,"y":2534231.0676000006}},{"attributes":{"OBJECTID":19436,"LANDMARKID":"1001200000879","LANDMARKCO":"405","LANDMARKNA":"中油加油站-大湖站","LANDMARKAD":"1001214","ADDRESS":"高雄市湖內區大湖村中山路一段72號","TEL":"07-6931793","COUNTYNAME":"高雄市","TOWNNAME":"湖內區","MARKTYPE":"994","Class":"4"},"geometry":{"x":173225.32320000045,"y":2531055.2241999991}},{"attributes":{"OBJECTID":19437,"LANDMARKID":"1001200000880","LANDMARKCO":"405","LANDMARKNA":"台糖加油站-大湖站(中油)","LANDMARKAD":"1001214","ADDRESS":"高雄市湖內區１鄰中山路一段200號","TEL":" ","COUNTYNAME":"高雄市","TOWNNAME":"湖內區","MARKTYPE":"994","Class":"4"},"geometry":{"x":172714.48539999966,"y":2531699.4289999995}},{"attributes":{"OBJECTID":19438,"LANDMARKID":"1001200000881","LANDMARKCO":"405","LANDMARKNA":"中油加油站-湖內站","LANDMARKAD":"1001214","ADDRESS":"高雄市湖內區逸賢村湖中路685號","TEL":"07-6998505","COUNTYNAME":"高雄市","TOWNNAME":"湖內區","MARKTYPE":"994","Class":"4"},"geometry":{"x":168726.68070000038,"y":2534108.7447999995}},{"attributes":{"OBJECTID":19439,"LANDMARKID":"1001200001259","LANDMARKCO":"507","LANDMARKNA":"明寧靜王墓","LANDMARKAD":"1001214","ADDRESS":"高雄市湖內區湖內段239地號","TEL":" ","COUNTYNAME":"高雄市","TOWNNAME":"湖內區","MARKTYPE":"995","Class":"5"},"geometry":{"x":172002.3032999998,"y":2531153.3659000006}},{"attributes":{"OBJECTID":19440,"LANDMARKID":"1001200001102","LANDMARKCO":"408","LANDMARKNA":"郵局-湖內郵局","LANDMARKAD":"1001214","ADDRESS":"高雄市湖內區中正路2段13號","TEL":"(07)6993-057","COUNTYNAME":"高雄市","TOWNNAME":"湖內區","MARKTYPE":"994","Class":"4"},"geometry":{"x":169441.48670000024,"y":2534365.3731999993}},{"attributes":{"OBJECTID":19441,"LANDMARKID":"1001200001103","LANDMARKCO":"408","LANDMARKNA":"郵局-湖內大湖郵局","LANDMARKAD":"1001214","ADDRESS":"高雄市湖內區大湖村民權路243號","TEL":"(07)6933-246","COUNTYNAME":"高雄市","TOWNNAME":"湖內區","MARKTYPE":"994","Class":"4"},"geometry":{"x":172248.84559999965,"y":2532581.3765999991}},{"attributes":{"OBJECTID":19442,"LANDMARKID":"1001200001140","LANDMARKCO":"409","LANDMARKNA":"高雄市湖內區農會","LANDMARKAD":"1001214","ADDRESS":"高雄市湖內區中賢村中正路二段29號","TEL":"07-6991216","COUNTYNAME":"高雄市","TOWNNAME":"湖內區","MARKTYPE":"994","Class":"4"},"geometry":{"x":169375.65450000018,"y":2534364.3690000009}},{"attributes":{"OBJECTID":19443,"LANDMARKID":"1001200001141","LANDMARKCO":"409","LANDMARKNA":"湖內農會-大湖分部","LANDMARKAD":"1001214","ADDRESS":"高雄市湖內區民權路111號","TEL":"07-693-10","COUNTYNAME":"高雄市","TOWNNAME":"湖內區","MARKTYPE":"994","Class":"4"},"geometry":{"x":172382.28749999963,"y":2532266.7693000007}},{"attributes":{"OBJECTID":19444,"LANDMARKID":"1001200001142","LANDMARKCO":"409","LANDMARKNA":"湖內農會-海埔分部","LANDMARKAD":"1001214","ADDRESS":"高雄市湖內區忠孝街258~1號","TEL":"07-699-13","COUNTYNAME":"高雄市","TOWNNAME":"湖內區","MARKTYPE":"994","Class":"4"},"geometry":{"x":170428.48830000032,"y":2532945.2580999993}},{"attributes":{"OBJECTID":19445,"LANDMARKID":"1001200001143","LANDMARKCO":"409","LANDMARKNA":"湖內農會-太爺分部","LANDMARKAD":"1001214","ADDRESS":"高雄市湖內區中正路一段60號","TEL":"07-699-59","COUNTYNAME":"高雄市","TOWNNAME":"湖內區","MARKTYPE":"994","Class":"4"},"geometry":{"x":170569.13449999969,"y":2534514.3622999992}},{"attributes":{"OBJECTID":19446,"LANDMARKID":"1001200000829","LANDMARKCO":"404","LANDMARKNA":"台灣省自來水路竹服務所","LANDMARKAD":"1001214","ADDRESS":"高雄市湖內區中山路一段148號","TEL":" ","COUNTYNAME":"高雄市","TOWNNAME":"湖內區","MARKTYPE":"994","Class":"4"},"geometry":{"x":173129.12359999958,"y":2531190.7908999994}},{"attributes":{"OBJECTID":19447,"LANDMARKID":"1001200000819","LANDMARKCO":"403","LANDMARKNA":"電力公司","LANDMARKAD":"1001214","ADDRESS":" ","TEL":" ","COUNTYNAME":"高雄市","TOWNNAME":"湖內區","MARKTYPE":"994","Class":"4"},"geometry":{"x":169398.22159999982,"y":2534363.7993999999}},{"attributes":{"OBJECTID":19448,"LANDMARKID":"1001200000210","LANDMARKCO":"107","LANDMARKNA":"高雄市政府警察局湖內派出所","LANDMARKAD":"1001214","ADDRESS":"高雄市湖內區中賢村中正路二段95號","TEL":"07-6993229","COUNTYNAME":"高雄市","TOWNNAME":"湖內區","MARKTYPE":"991","Class":"1"},"geometry":{"x":168413.57070000004,"y":2534311.0744000003}},{"attributes":{"OBJECTID":19449,"LANDMARKID":"1001200000211","LANDMARKCO":"107","LANDMARKNA":"高雄市消防局湖內消防分隊","LANDMARKAD":"1001214","ADDRESS":"高雄市湖內區菜厝村中正路二段93號","TEL":"07-6995884","COUNTYNAME":"高雄市","TOWNNAME":"湖內區","MARKTYPE":"991","Class":"1"},"geometry":{"x":169093.99689999968,"y":2534350.1204000004}},{"attributes":{"OBJECTID":19450,"LANDMARKID":"1001200000086","LANDMARKCO":"103","LANDMARKNA":"高雄市湖內區鄉民代表會","LANDMARKAD":"1001214","ADDRESS":"高雄市湖內區中正路二段77號","TEL":"07-6993320","COUNTYNAME":"高雄市","TOWNNAME":"湖內區","MARKTYPE":"991","Class":"1"},"geometry":{"x":169103.94299999997,"y":2534360.1736999992}},{"attributes":{"OBJECTID":19451,"LANDMARKID":"1001200000287","LANDMARKCO":"108","LANDMARKNA":"高雄市湖內區公所","LANDMARKAD":"1001214","ADDRESS":"高雄市湖內區中正路二段77號","TEL":"07-6991221","COUNTYNAME":"高雄市","TOWNNAME":"湖內區","MARKTYPE":"991","Class":"1"},"geometry":{"x":169103.99660000019,"y":2534350.1740000006}},{"attributes":{"OBJECTID":19452,"LANDMARKID":"1001200000128","LANDMARKCO":"106","LANDMARKNA":"高雄市湖內區戶政事務所","LANDMARKAD":"1001214","ADDRESS":"高雄市湖內區中賢村4鄰中正路二段97號","TEL":"07-6993191","COUNTYNAME":"高雄市","TOWNNAME":"湖內區","MARKTYPE":"991","Class":"1"},"geometry":{"x":169230.88599999994,"y":2534370.8533999994}},{"attributes":{"OBJECTID":19453,"LANDMARKID":"1001200000087","LANDMARKCO":"103","LANDMARKNA":"高雄市湖內區衛生所","LANDMARKAD":"1001214","ADDRESS":"高雄市湖內區湖中路203號","TEL":"07-6993009","COUNTYNAME":"高雄市","TOWNNAME":"湖內區","MARKTYPE":"991","Class":"1"},"geometry":{"x":170812.8443,"y":2534370.1655000001}},{"attributes":{"OBJECTID":19454,"LANDMARKID":"1001200000203","LANDMARKCO":"107","LANDMARKNA":"高雄市政府警察局湖街派出所","LANDMARKAD":"1001214","ADDRESS":"高雄市湖內區大湖村中山路一段290號","TEL":"07-6934784","COUNTYNAME":"高雄市","TOWNNAME":"湖內區","MARKTYPE":"991","Class":"1"},"geometry":{"x":172535.69479999971,"y":2531930.2935000006}},{"attributes":{"OBJECTID":19455,"LANDMARKID":"1001200000204","LANDMARKCO":"107","LANDMARKNA":"高雄市政府警察局湖內分局","LANDMARKAD":"1001214","ADDRESS":"高雄市湖內區大湖村中山路一段290號","TEL":"07-6932155","COUNTYNAME":"高雄市","TOWNNAME":"湖內區","MARKTYPE":"991","Class":"1"},"geometry":{"x":172538.74600000028,"y":2531920.3092}},{"attributes":{"OBJECTID":19456,"LANDMARKID":"1001200000581","LANDMARKCO":"204","LANDMARKNA":"高雄市立圖書館湖內分館","LANDMARKAD":"1001214","ADDRESS":"高雄市湖內區保生路101號","TEL":" ","COUNTYNAME":"高雄市","TOWNNAME":"湖內區","MARKTYPE":"992","Class":"2"},"geometry":{"x":170227.06749999989,"y":2534141.6714999992}},{"attributes":{"OBJECTID":19457,"LANDMARKID":"1001200000313","LANDMARKCO":"201","LANDMARKNA":"私立樹人醫護管理專校","LANDMARKAD":"1001214","ADDRESS":"高雄市湖內區中山路一段1巷38號","TEL":"07-6931087","COUNTYNAME":"高雄市","TOWNNAME":"湖內區","MARKTYPE":"992","Class":"2"},"geometry":{"x":173026.49050000031,"y":2530431.3811000008}},{"attributes":{"OBJECTID":19458,"LANDMARKID":"1001200000481","LANDMARKCO":"203","LANDMARKNA":"縣立湖內國中","LANDMARKAD":"1001214","ADDRESS":"高雄市湖內區公館村中山路二段63號","TEL":"07-6993008","COUNTYNAME":"高雄市","TOWNNAME":"湖內區","MARKTYPE":"992","Class":"2"},"geometry":{"x":170682.86209999956,"y":2534250.9894999992}},{"attributes":{"OBJECTID":19459,"LANDMARKID":"1001200000482","LANDMARKCO":"203","LANDMARKNA":"縣立三侯國小","LANDMARKAD":"1001214","ADDRESS":"高雄市湖內區中正路二段544號","TEL":"07-6909123","COUNTYNAME":"高雄市","TOWNNAME":"湖內區","MARKTYPE":"992","Class":"2"},"geometry":{"x":167829.34690000024,"y":2534660.9951000009}},{"attributes":{"OBJECTID":19460,"LANDMARKID":"1001200000483","LANDMARKCO":"203","LANDMARKNA":"縣立文賢國小","LANDMARKAD":"1001214","ADDRESS":"高雄市湖內區文賢村中正路二段39號","TEL":"07-6993061","COUNTYNAME":"高雄市","TOWNNAME":"湖內區","MARKTYPE":"992","Class":"2"},"geometry":{"x":169287.66779999994,"y":2534291.1657999996}},{"attributes":{"OBJECTID":19461,"LANDMARKID":"1001200000484","LANDMARKCO":"203","LANDMARKNA":"縣立明宗國小","LANDMARKAD":"1001214","ADDRESS":"高雄市湖內區保生路103號","TEL":"07-6994682","COUNTYNAME":"高雄市","TOWNNAME":"湖內區","MARKTYPE":"992","Class":"2"},"geometry":{"x":170227.50219999999,"y":2534130.0938000008}},{"attributes":{"OBJECTID":19462,"LANDMARKID":"1001200000485","LANDMARKCO":"203","LANDMARKNA":"縣立海埔國小","LANDMARKAD":"1001214","ADDRESS":"高雄市湖內區海埔村忠孝街256號","TEL":"07-6992346","COUNTYNAME":"高雄市","TOWNNAME":"湖內區","MARKTYPE":"992","Class":"2"},"geometry":{"x":170568.12469999958,"y":2532970.4201999996}},{"attributes":{"OBJECTID":19463,"LANDMARKID":"1001200000486","LANDMARKCO":"203","LANDMARKNA":"縣立大湖國小","LANDMARKAD":"1001214","ADDRESS":"高雄市湖內區大湖村民權路2號","TEL":"07-6933808","COUNTYNAME":"高雄市","TOWNNAME":"湖內區","MARKTYPE":"992","Class":"2"},"geometry":{"x":172476.13200000022,"y":2532041.4527000003}},{"attributes":{"OBJECTID":19464,"LANDMARKID":"1001200000314","LANDMARKCO":"201","LANDMARKNA":"東方技術學院","LANDMARKAD":"1001214","ADDRESS":"高雄市湖內區東方路110號","TEL":"07-6932011","COUNTYNAME":"高雄市","TOWNNAME":"湖內區","MARKTYPE":"992","Class":"2"},"geometry":{"x":172674.91029999964,"y":2531161.0303000007}},{"attributes":{"OBJECTID":19465,"LANDMARKID":"1001200001362","LANDMARKCO":"603","LANDMARKNA":"歐美商務汽車旅館","LANDMARKAD":"1001214","ADDRESS":"高雄市湖內區葉厝村湖中路460巷26號","TEL":"07-6998178","COUNTYNAME":"高雄市","TOWNNAME":"湖內區","MARKTYPE":"996","Class":"6"},"geometry":{"x":169695.60300000012,"y":2534131.6342999991}},{"attributes":{"OBJECTID":19466,"LANDMARKID":"1001200001363","LANDMARKCO":"603","LANDMARKNA":"光倫大旅社","LANDMARKAD":"1001214","ADDRESS":"高雄市湖內區大湖村中山路一段303號","TEL":"07-6931921","COUNTYNAME":"高雄市","TOWNNAME":"湖內區","MARKTYPE":"996","Class":"6"},"geometry":{"x":172951.33559999987,"y":2531374.6188999992}},{"attributes":{"OBJECTID":19467,"LANDMARKID":"1001200001364","LANDMARKCO":"603","LANDMARKNA":"元寶大旅社","LANDMARKAD":"1001214","ADDRESS":"高雄市湖內區大湖村中山路一段339號","TEL":"07-3932889","COUNTYNAME":"高雄市","TOWNNAME":"湖內區","MARKTYPE":"996","Class":"6"},"geometry":{"x":172880.02280000038,"y":2531476.3870999999}},{"attributes":{"OBJECTID":19468,"LANDMARKID":"1001200001365","LANDMARKCO":"603","LANDMARKNA":"六峰大旅社","LANDMARKAD":"1001214","ADDRESS":"高雄市湖內區大湖村民權路265號","TEL":"07-6931122","COUNTYNAME":"高雄市","TOWNNAME":"湖內區","MARKTYPE":"996","Class":"6"},"geometry":{"x":172181.84769999981,"y":2532638.6589000002}},{"attributes":{"OBJECTID":19469,"LANDMARKID":"1001200001366","LANDMARKCO":"603","LANDMARKNA":"長興大旅社","LANDMARKAD":"1001214","ADDRESS":"高雄市湖內區中正路二段551號","TEL":"07-6992729","COUNTYNAME":"高雄市","TOWNNAME":"湖內區","MARKTYPE":"996","Class":"6"},"geometry":{"x":167882.86319999956,"y":2534534.2882000003}},{"attributes":{"OBJECTID":19470,"LANDMARKID":"1001200001367","LANDMARKCO":"603","LANDMARKNA":"瑞宮大旅社","LANDMARKAD":"1001214","ADDRESS":"高雄市湖內區田尾村中山路一段540號","TEL":"07-6933937","COUNTYNAME":"高雄市","TOWNNAME":"湖內區","MARKTYPE":"996","Class":"6"},"geometry":{"x":172052.61919999961,"y":2532865.7830999997}},{"attributes":{"OBJECTID":19471,"LANDMARKID":"1001200001368","LANDMARKCO":"603","LANDMARKNA":"皇佳旅社","LANDMARKAD":"1001214","ADDRESS":"高雄市湖內區田尾村中山路一段626號","TEL":"07-6931297","COUNTYNAME":"高雄市","TOWNNAME":"湖內區","MARKTYPE":"996","Class":"6"},"geometry":{"x":171855.32290000003,"y":2533044.1079999991}},{"attributes":{"OBJECTID":19472,"LANDMARKID":"1001200001369","LANDMARKCO":"603","LANDMARKNA":"榮泰大旅社","LANDMARKAD":"1001214","ADDRESS":"高雄市湖內區湖內村中山路一段125號","TEL":"07-6933379","COUNTYNAME":"高雄市","TOWNNAME":"湖內區","MARKTYPE":"996","Class":"6"},"geometry":{"x":173211.73280000035,"y":2531014.9282000009}},{"attributes":{"OBJECTID":19473,"LANDMARKID":"1001200001370","LANDMARKCO":"603","LANDMARKNA":"萬益大旅社","LANDMARKAD":"1001214","ADDRESS":"高雄市湖內區湖內村中山路一段31號","TEL":"07-6931551","COUNTYNAME":"高雄市","TOWNNAME":"湖內區","MARKTYPE":"996","Class":"6"},"geometry":{"x":173386.44020000007,"y":2530627.5590000004}},{"attributes":{"OBJECTID":19474,"LANDMARKID":"1001200001371","LANDMARKCO":"603","LANDMARKNA":"嘉興大旅社","LANDMARKAD":"1001214","ADDRESS":"高雄市湖內區湖內村中山路一段39號","TEL":"07-6931689","COUNTYNAME":"高雄市","TOWNNAME":"湖內區","MARKTYPE":"996","Class":"6"},"geometry":{"x":173386.44020000007,"y":2530627.5590000004}},{"attributes":{"OBJECTID":19475,"LANDMARKID":"1001200001372","LANDMARKCO":"603","LANDMARKNA":"春貴大旅社","LANDMARKAD":"1001214","ADDRESS":"高雄市湖內區湖內村中山路一段42號","TEL":"07-6932310","COUNTYNAME":"高雄市","TOWNNAME":"湖內區","MARKTYPE":"996","Class":"6"},"geometry":{"x":173298.93059999961,"y":2530923.7908999994}},{"attributes":{"OBJECTID":19476,"LANDMARKID":"1001200001373","LANDMARKCO":"603","LANDMARKNA":"心園別館","LANDMARKAD":"1001214","ADDRESS":"高雄市湖內區湖內村中山路一段59號","TEL":"07-6931187","COUNTYNAME":"高雄市","TOWNNAME":"湖內區","MARKTYPE":"996","Class":"6"},"geometry":{"x":173377.42929999996,"y":2530659.3407000005}},{"attributes":{"OBJECTID":19477,"LANDMARKID":"1001200001374","LANDMARKCO":"603","LANDMARKNA":"富賓大旅社","LANDMARKAD":"1001214","ADDRESS":"高雄市湖內區湖內村中山路一段62號","TEL":"07-6932463","COUNTYNAME":"高雄市","TOWNNAME":"湖內區","MARKTYPE":"996","Class":"6"},"geometry":{"x":173274.73560000025,"y":2530964.0995000005}},{"attributes":{"OBJECTID":19478,"LANDMARKID":"1001200001375","LANDMARKCO":"603","LANDMARKNA":"上和大旅社","LANDMARKAD":"1001214","ADDRESS":"高雄市湖內區湖內村民生街246號","TEL":"07-6932305","COUNTYNAME":"高雄市","TOWNNAME":"湖內區","MARKTYPE":"996","Class":"6"},"geometry":{"x":172698.26960000023,"y":2530996.9107000008}},{"attributes":{"OBJECTID":19479,"LANDMARKID":"1001200001376","LANDMARKCO":"603","LANDMARKNA":"東方大旅社","LANDMARKAD":"1001214","ADDRESS":"高雄市湖內區湖內村民生街26號","TEL":"07-6932047","COUNTYNAME":"高雄市","TOWNNAME":"湖內區","MARKTYPE":"996","Class":"6"},"geometry":{"x":173154.27089999989,"y":2531016.6999999993}},{"attributes":{"OBJECTID":19480,"LANDMARKID":"1001200001377","LANDMARKCO":"603","LANDMARKNA":"愛菲爾汽車旅館","LANDMARKAD":"1001214","ADDRESS":"高雄市湖內區湖東村中山路一段143-1號","TEL":"07-6937988","COUNTYNAME":"高雄市","TOWNNAME":"湖內區","MARKTYPE":"996","Class":"6"},"geometry":{"x":173211.73280000035,"y":2531014.9282000009}},{"attributes":{"OBJECTID":19481,"LANDMARKID":"1001200001488","LANDMARKCO":"605","LANDMARKNA":"湖內戶政事務所","LANDMARKAD":"1001214","ADDRESS":"高雄市湖內區","TEL":" ","COUNTYNAME":"高雄市","TOWNNAME":"湖內區","MARKTYPE":"996","Class":"6"},"geometry":{"x":169033.2034,"y":2534337.6754000001}},{"attributes":{"OBJECTID":19482,"LANDMARKID":"1001200001489","LANDMARKCO":"605","LANDMARKNA":"衛生所","LANDMARKAD":"1001214","ADDRESS":"高雄市湖內區","TEL":" ","COUNTYNAME":"高雄市","TOWNNAME":"湖內區","MARKTYPE":"996","Class":"6"},"geometry":{"x":170172.29480000027,"y":2534014.4397}},{"attributes":{"OBJECTID":19483,"LANDMARKID":"1001200001490","LANDMARKCO":"605","LANDMARKNA":"玉川幼稚園","LANDMARKAD":"1001214","ADDRESS":"高雄市湖內區","TEL":" ","COUNTYNAME":"高雄市","TOWNNAME":"湖內區","MARKTYPE":"996","Class":"6"},"geometry":{"x":170138.60089999996,"y":2534365.8384000007}},{"attributes":{"OBJECTID":19484,"LANDMARKID":"1001200000890","LANDMARKCO":"405","LANDMARKNA":"中油加油站-茄萣仁愛站","LANDMARKAD":"1001215","ADDRESS":"高雄市吉安村仁愛路一段2號","TEL":"07-6986836","COUNTYNAME":"高雄市","TOWNNAME":"茄萣區","MARKTYPE":"994","Class":"4"},"geometry":{"x":166543.20999999996,"y":2531926.4319000002}},{"attributes":{"OBJECTID":19485,"LANDMARKID":"1001200001101","LANDMARKCO":"408","LANDMARKNA":"郵局-茄萣郵局","LANDMARKAD":"1001215","ADDRESS":"高雄市茄萣區進學路158號","TEL":"(07)6900-206","COUNTYNAME":"高雄市","TOWNNAME":"茄萣區","MARKTYPE":"994","Class":"4"},"geometry":{"x":166567.04920000024,"y":2533866.0347000007}},{"attributes":{"OBJECTID":19486,"LANDMARKID":"1001200001144","LANDMARKCO":"409","LANDMARKNA":"興達港區漁會","LANDMARKAD":"1001215","ADDRESS":"高雄市茄萣區崎漏村225號","TEL":"07-6988233-4","COUNTYNAME":"高雄市","TOWNNAME":"茄萣區","MARKTYPE":"994","Class":"4"},"geometry":{"x":166107.50449999981,"y":2533301.3244000003}},{"attributes":{"OBJECTID":19487,"LANDMARKID":"1001200001145","LANDMARKCO":"409","LANDMARKNA":"茄萣農會-本部","LANDMARKAD":"1001215","ADDRESS":"高雄市茄萣區仁愛路二段102號","TEL":"07-690-61","COUNTYNAME":"高雄市","TOWNNAME":"茄萣區","MARKTYPE":"994","Class":"4"},"geometry":{"x":166392.04779999983,"y":2533057.0001999997}},{"attributes":{"OBJECTID":19488,"LANDMARKID":"1001200001146","LANDMARKCO":"409","LANDMARKNA":"茄萣農會-白砂崙分","LANDMARKAD":"1001215","ADDRESS":"高雄市茄萣區白砂路143號","TEL":"07-690-07","COUNTYNAME":"高雄市","TOWNNAME":"茄萣區","MARKTYPE":"994","Class":"4"},"geometry":{"x":166354.90950000007,"y":2534659.4005999994}},{"attributes":{"OBJECTID":19489,"LANDMARKID":"1001200001147","LANDMARKCO":"409","LANDMARKNA":"茄萣農會-崎漏分部","LANDMARKAD":"1001215","ADDRESS":"高雄市茄萣區民治路256號","TEL":"07-698-89","COUNTYNAME":"高雄市","TOWNNAME":"茄萣區","MARKTYPE":"994","Class":"4"},"geometry":{"x":167009.31799999997,"y":2530554.9107000008}},{"attributes":{"OBJECTID":19490,"LANDMARKID":"1001200001148","LANDMARKCO":"409","LANDMARKNA":"茄萣區農會","LANDMARKAD":"1001215","ADDRESS":"高雄市茄萣區仁愛路二段102號","TEL":"07-690611","COUNTYNAME":"高雄市","TOWNNAME":"茄萣區","MARKTYPE":"994","Class":"4"},"geometry":{"x":166392.04779999983,"y":2533057.0001999997}},{"attributes":{"OBJECTID":19491,"LANDMARKID":"1001200000206","LANDMARKCO":"107","LANDMARKNA":"高雄市政府警察局茄萣分駐所","LANDMARKAD":"1001215","ADDRESS":"高雄市茄萣區嘉福村茄萣路二段1號","TEL":"07-6902276","COUNTYNAME":"高雄市","TOWNNAME":"茄萣區","MARKTYPE":"991","Class":"1"},"geometry":{"x":165911.36529999971,"y":2533431.4846000001}},{"attributes":{"OBJECTID":19492,"LANDMARKID":"1001200000088","LANDMARKCO":"103","LANDMARKNA":"高雄市茄萣區鄉民代表會","LANDMARKAD":"1001215","ADDRESS":"高雄市茄萣區頂漁路55號2樓","TEL":"07-6900900","COUNTYNAME":"高雄市","TOWNNAME":"茄萣區","MARKTYPE":"991","Class":"1"},"geometry":{"x":166117.1958999997,"y":2533281.0402000006}},{"attributes":{"OBJECTID":19493,"LANDMARKID":"1001200000286","LANDMARKCO":"108","LANDMARKNA":"高雄市茄萣區公所","LANDMARKAD":"1001215","ADDRESS":"高雄市茄萣區濱海路四段27號","TEL":"07-6900001","COUNTYNAME":"高雄市","TOWNNAME":"茄萣區","MARKTYPE":"991","Class":"1"},"geometry":{"x":166162.26599999983,"y":2534191.2622999996}},{"attributes":{"OBJECTID":19494,"LANDMARKID":"1001200000207","LANDMARKCO":"107","LANDMARKNA":"高雄市消防局茄萣消防分隊","LANDMARKAD":"1001215","ADDRESS":"高雄市茄萣區茄萣路二段422號","TEL":"07-6904163","COUNTYNAME":"高雄市","TOWNNAME":"茄萣區","MARKTYPE":"991","Class":"1"},"geometry":{"x":166192.05669999961,"y":2533921.4371000007}},{"attributes":{"OBJECTID":19495,"LANDMARKID":"1001200000129","LANDMARKCO":"106","LANDMARKNA":"高雄市茄萣區戶政事務所","LANDMARKAD":"1001215","ADDRESS":"高雄市茄萣區茄萣路二段3號","TEL":"07-6902004","COUNTYNAME":"高雄市","TOWNNAME":"茄萣區","MARKTYPE":"991","Class":"1"},"geometry":{"x":166242.37519999966,"y":2534170.1230999995}},{"attributes":{"OBJECTID":19496,"LANDMARKID":"1001200000089","LANDMARKCO":"103","LANDMARKNA":"高雄市茄萣區衛生所","LANDMARKAD":"1001215","ADDRESS":"高雄市茄萣區及定村濱海路二段1號","TEL":"07-6988850","COUNTYNAME":"高雄市","TOWNNAME":"茄萣區","MARKTYPE":"991","Class":"1"},"geometry":{"x":166420.13210000005,"y":2532061.1732000001}},{"attributes":{"OBJECTID":19497,"LANDMARKID":"1001200000205","LANDMARKCO":"107","LANDMARKNA":"高雄市政府警察局砂崙派出所","LANDMARKAD":"1001215","ADDRESS":"高雄市茄萣區萬福村白砂路239巷2弄9號","TEL":"07-6900055","COUNTYNAME":"高雄市","TOWNNAME":"茄萣區","MARKTYPE":"991","Class":"1"},"geometry":{"x":166282.57120000012,"y":2534930.3271999992}},{"attributes":{"OBJECTID":19498,"LANDMARKID":"1001200000090","LANDMARKCO":"103","LANDMARKNA":"高雄市政府興達港漁港管理所","LANDMARKAD":"1001215","ADDRESS":"高雄市茄萣區順漁路100號","TEL":"07-6989644","COUNTYNAME":"高雄市","TOWNNAME":"茄萣區","MARKTYPE":"991","Class":"1"},"geometry":{"x":169760.12179999985,"y":2530820.7344000004}},{"attributes":{"OBJECTID":19499,"LANDMARKID":"1001200000582","LANDMARKCO":"204","LANDMARKNA":"高雄市立圖書館茄萣分館","LANDMARKAD":"1001215","ADDRESS":"高雄市茄萣區白砂路31巷3號","TEL":" ","COUNTYNAME":"高雄市","TOWNNAME":"茄萣區","MARKTYPE":"992","Class":"2"},"geometry":{"x":165923.86830000021,"y":2534047.4584999997}},{"attributes":{"OBJECTID":19500,"LANDMARKID":"1001200000323","LANDMARKCO":"202","LANDMARKNA":"私立華德工家","LANDMARKAD":"1001215","ADDRESS":"高雄市茄萣區濱海路四段66號","TEL":"06-6900152","COUNTYNAME":"高雄市","TOWNNAME":"茄萣區","MARKTYPE":"992","Class":"2"},"geometry":{"x":166018.54619999975,"y":2534320.4637000002}},{"attributes":{"OBJECTID":19501,"LANDMARKID":"1001200000476","LANDMARKCO":"203","LANDMARKNA":"縣立茄萣國中","LANDMARKAD":"1001215","ADDRESS":"高雄市茄萣區白雲村濱海路四段29號","TEL":"07-6900054","COUNTYNAME":"高雄市","TOWNNAME":"茄萣區","MARKTYPE":"992","Class":"2"},"geometry":{"x":165998.82589999959,"y":2534090.3540000003}},{"attributes":{"OBJECTID":19502,"LANDMARKID":"1001200000477","LANDMARKCO":"203","LANDMARKNA":"縣立茄萣國小","LANDMARKAD":"1001215","ADDRESS":"高雄市茄萣區茄萣路二段307號","TEL":"07-6900057","COUNTYNAME":"高雄市","TOWNNAME":"茄萣區","MARKTYPE":"992","Class":"2"},"geometry":{"x":166011.67200000025,"y":2533810.4349000007}},{"attributes":{"OBJECTID":19503,"LANDMARKID":"1001200000478","LANDMARKCO":"203","LANDMARKNA":"縣立砂崙國小","LANDMARKAD":"1001215","ADDRESS":"高雄市茄萣區萬福村文化路81號","TEL":"07-6900037","COUNTYNAME":"高雄市","TOWNNAME":"茄萣區","MARKTYPE":"992","Class":"2"},"geometry":{"x":166069.7966,"y":2534890.7298000008}},{"attributes":{"OBJECTID":19504,"LANDMARKID":"1001200000479","LANDMARKCO":"203","LANDMARKNA":"縣立成功國小","LANDMARKAD":"1001215","ADDRESS":"高雄市茄萣區吉定村成功路1號","TEL":"07-6902053","COUNTYNAME":"高雄市","TOWNNAME":"茄萣區","MARKTYPE":"992","Class":"2"},"geometry":{"x":166489.79910000041,"y":2532121.5582999997}},{"attributes":{"OBJECTID":19505,"LANDMARKID":"1001200000480","LANDMARKCO":"203","LANDMARKNA":"縣立興達國小","LANDMARKAD":"1001215","ADDRESS":"高雄市茄萣區民治路2號","TEL":"07-6988099","COUNTYNAME":"高雄市","TOWNNAME":"茄萣區","MARKTYPE":"992","Class":"2"},"geometry":{"x":167589.16160000023,"y":2530821.3512999993}},{"attributes":{"OBJECTID":19506,"LANDMARKID":"1001200000678","LANDMARKCO":"305","LANDMARKNA":"興達漁港","LANDMARKAD":"1001215","ADDRESS":"高雄市茄萣區","TEL":" ","COUNTYNAME":"高雄市","TOWNNAME":"茄萣區","MARKTYPE":"993","Class":"305"},"geometry":{"x":167411.21439999994,"y":2529697.0679000001}},{"attributes":{"OBJECTID":19507,"LANDMARKID":"1001200000679","LANDMARKCO":"305","LANDMARKNA":"興達港","LANDMARKAD":"1001215","ADDRESS":"高雄市茄萣區","TEL":" ","COUNTYNAME":"高雄市","TOWNNAME":"茄萣區","MARKTYPE":"993","Class":"305"},"geometry":{"x":167698.05759999994,"y":2529168.1821999997}},{"attributes":{"OBJECTID":19508,"LANDMARKID":"1001200000680","LANDMARKCO":"305","LANDMARKNA":"興達遠洋港區","LANDMARKAD":"1001215","ADDRESS":"高雄市茄萣區","TEL":" ","COUNTYNAME":"高雄市","TOWNNAME":"茄萣區","MARKTYPE":"993","Class":"305"},"geometry":{"x":168782.16019999981,"y":2529571.0972000007}},{"attributes":{"OBJECTID":19509,"LANDMARKID":"1001200000623","LANDMARKCO":"302","LANDMARKNA":"高雄汽車客運茄萣站","LANDMARKAD":"1001215","ADDRESS":"高雄市茄萣區茄萣路一段13號","TEL":" ","COUNTYNAME":"高雄市","TOWNNAME":"茄萣區","MARKTYPE":"993","Class":"302"},"geometry":{"x":166427.84590000007,"y":2532250.8143000007}},{"attributes":{"OBJECTID":19510,"LANDMARKID":"1001200000811","LANDMARKCO":"402","LANDMARKNA":"中華電信-茄萣服務中心","LANDMARKAD":"1001215","ADDRESS":"高雄市茄萣區白砂路100號","TEL":"(07) 644-9249","COUNTYNAME":"高雄市","TOWNNAME":"茄萣區","MARKTYPE":"994","Class":"4"},"geometry":{"x":166349.06199999992,"y":2534502.9255999997}},{"attributes":{"OBJECTID":19511,"LANDMARKID":"1001200001231","LANDMARKCO":"503","LANDMARKNA":"情人碼頭","LANDMARKAD":"1001215","ADDRESS":"高雄市茄萣區崎洛村大發路88號","TEL":"07-69-0001(茄萣區公","COUNTYNAME":"高雄市","TOWNNAME":"茄萣區","MARKTYPE":"995","Class":"5"},"geometry":{"x":167095.0307,"y":2529980.3946000002}},{"attributes":{"OBJECTID":19512,"LANDMARKID":"1001200000882","LANDMARKCO":"405","LANDMARKNA":"台灣優力加油站-旗鉀站(中油)","LANDMARKAD":"1001219","ADDRESS":"高雄市旗山區旗甲路一段399號","TEL":"07-6627506","COUNTYNAME":"高雄市","TOWNNAME":"旗山區","MARKTYPE":"994","Class":"4"},"geometry":{"x":197552.94849999994,"y":2534158.9953000005}},{"attributes":{"OBJECTID":19513,"LANDMARKID":"1001200000883","LANDMARKCO":"405","LANDMARKNA":"台糖加油站-公正站(中油)","LANDMARKAD":"1001219","ADDRESS":"高雄市旗山區圓富里旗甲路二段10號","TEL":" ","COUNTYNAME":"高雄市","TOWNNAME":"旗山區","MARKTYPE":"994","Class":"4"},"geometry":{"x":198009.18890000042,"y":2534677.0052000005}},{"attributes":{"OBJECTID":19514,"LANDMARKID":"1001200000884","LANDMARKCO":"405","LANDMARKNA":"中油加油站-新光站","LANDMARKAD":"1001219","ADDRESS":"高雄市旗山區旗南三路120-8號","TEL":"07-6662988","COUNTYNAME":"高雄市","TOWNNAME":"旗山區","MARKTYPE":"994","Class":"4"},"geometry":{"x":194736.1595999999,"y":2523585.4065000005}},{"attributes":{"OBJECTID":19515,"LANDMARKID":"1001200000885","LANDMARKCO":"405","LANDMARKNA":"中油加油站-振裕站","LANDMARKAD":"1001219","ADDRESS":"高雄市旗山區延平一路115號","TEL":"07-6622360","COUNTYNAME":"高雄市","TOWNNAME":"旗山區","MARKTYPE":"994","Class":"4"},"geometry":{"x":196918.43790000025,"y":2533135.8099000007}},{"attributes":{"OBJECTID":19516,"LANDMARKID":"1001200000886","LANDMARKCO":"405","LANDMARKNA":"中油加油站-嶺東站","LANDMARKAD":"1001219","ADDRESS":"高雄市旗山區旗南三路204之1號","TEL":"07-6651668","COUNTYNAME":"高雄市","TOWNNAME":"旗山區","MARKTYPE":"994","Class":"4"},"geometry":{"x":193514.84800000023,"y":2519341.8002000004}},{"attributes":{"OBJECTID":19517,"LANDMARKID":"1001200000887","LANDMARKCO":"405","LANDMARKNA":"中油加油站-旗山站","LANDMARKAD":"1001219","ADDRESS":"高雄市旗山區復新街17號","TEL":"07-6612044","COUNTYNAME":"高雄市","TOWNNAME":"旗山區","MARKTYPE":"994","Class":"4"},"geometry":{"x":196881.63889999967,"y":2531620.6281000003}},{"attributes":{"OBJECTID":19518,"LANDMARKID":"1001200000888","LANDMARKCO":"405","LANDMARKNA":"中油加油站-美林站","LANDMARKAD":"1001219","ADDRESS":"高雄市旗山區延平二路114號","TEL":"07-6616525","COUNTYNAME":"高雄市","TOWNNAME":"旗山區","MARKTYPE":"994","Class":"4"},"geometry":{"x":198190.1074000001,"y":2531370.2837000005}},{"attributes":{"OBJECTID":19519,"LANDMARKID":"1001200000889","LANDMARKCO":"405","LANDMARKNA":"中油加油站-宏洋站","LANDMARKAD":"1001219","ADDRESS":"高雄市旗山區延平二路159號","TEL":"07-6611230","COUNTYNAME":"高雄市","TOWNNAME":"旗山區","MARKTYPE":"994","Class":"4"},"geometry":{"x":198069.03280000016,"y":2531337.4169999994}},{"attributes":{"OBJECTID":19520,"LANDMARKID":"1001200000812","LANDMARKCO":"402","LANDMARKNA":"亞太行動寬頻電信-旗山延平加盟服務中心","LANDMARKAD":"1001219","ADDRESS":"高雄市旗山區延平一路647號","TEL":"07-6611288","COUNTYNAME":"高雄市","TOWNNAME":"旗山區","MARKTYPE":"994","Class":"4"},"geometry":{"x":196972.95569999982,"y":2531599.8081999999}},{"attributes":{"OBJECTID":19521,"LANDMARKID":"1001200000733","LANDMARKCO":"401","LANDMARKNA":"溪洲醫院","LANDMARKAD":"1001219","ADDRESS":"高雄市旗山區延平一路412號","TEL":"07-6621985","COUNTYNAME":"高雄市","TOWNNAME":"旗山區","MARKTYPE":"994","Class":"4"},"geometry":{"x":196992.36890000012,"y":2532561.0053000003}},{"attributes":{"OBJECTID":19522,"LANDMARKID":"1001200000734","LANDMARKCO":"401","LANDMARKNA":"重安醫院","LANDMARKAD":"1001219","ADDRESS":"高雄市旗山區大仁街18號","TEL":"07-6621783","COUNTYNAME":"高雄市","TOWNNAME":"旗山區","MARKTYPE":"994","Class":"4"},"geometry":{"x":197120.88410000037,"y":2531490.4642999992}},{"attributes":{"OBJECTID":19523,"LANDMARKID":"1001200000735","LANDMARKCO":"401","LANDMARKNA":"行政院衛生署旗山醫院","LANDMARKAD":"1001219","ADDRESS":"高雄市旗山區中學路60號","TEL":"07-6613811","COUNTYNAME":"高雄市","TOWNNAME":"旗山區","MARKTYPE":"994","Class":"4"},"geometry":{"x":196976.85890000034,"y":2531190.9656000007}},{"attributes":{"OBJECTID":19524,"LANDMARKID":"1001200000736","LANDMARKCO":"401","LANDMARKNA":"廣聖醫院","LANDMARKAD":"1001219","ADDRESS":"高雄市旗山區中華路618號","TEL":"07-6622391","COUNTYNAME":"高雄市","TOWNNAME":"旗山區","MARKTYPE":"994","Class":"4"},"geometry":{"x":197207.35940000042,"y":2531640.7664999999}},{"attributes":{"OBJECTID":19525,"LANDMARKID":"1001200000737","LANDMARKCO":"401","LANDMARKNA":"博愛醫院","LANDMARKAD":"1001219","ADDRESS":"高雄市旗山區延平一路689號","TEL":"07-6617602","COUNTYNAME":"高雄市","TOWNNAME":"旗山區","MARKTYPE":"994","Class":"4"},"geometry":{"x":196979.85039999988,"y":2531500.9724000003}},{"attributes":{"OBJECTID":19526,"LANDMARKID":"1001200001260","LANDMARKCO":"507","LANDMARKNA":"旗山鼓山國小","LANDMARKAD":"1001219","ADDRESS":"高雄市旗山區延平一路111號","TEL":"07-6612051","COUNTYNAME":"高雄市","TOWNNAME":"旗山區","MARKTYPE":"995","Class":"5"},"geometry":{"x":196867.47730000038,"y":2533161.5569000002}},{"attributes":{"OBJECTID":19527,"LANDMARKID":"1001200001261","LANDMARKCO":"507","LANDMARKNA":"旗山國小","LANDMARKAD":"1001219","ADDRESS":"高雄市旗山區鼓山里華中街10鄰44號","TEL":" ","COUNTYNAME":"高雄市","TOWNNAME":"旗山區","MARKTYPE":"995","Class":"5"},"geometry":{"x":196753.63019999955,"y":2532056.1050000004}},{"attributes":{"OBJECTID":19528,"LANDMARKID":"1001200001262","LANDMARKCO":"507","LANDMARKNA":"旗山區農會","LANDMARKAD":"1001219","ADDRESS":"高雄市旗山區中山路67號","TEL":" ","COUNTYNAME":"高雄市","TOWNNAME":"旗山區","MARKTYPE":"995","Class":"5"},"geometry":{"x":196851.31359999999,"y":2531862.5363999996}},{"attributes":{"OBJECTID":19529,"LANDMARKID":"1001200001263","LANDMARKCO":"507","LANDMARKNA":"旗山天后宮","LANDMARKAD":"1001219","ADDRESS":"高雄市旗山區湄洲里永福街23巷16號","TEL":" ","COUNTYNAME":"高雄市","TOWNNAME":"旗山區","MARKTYPE":"995","Class":"5"},"geometry":{"x":197000.72319999989,"y":2531856.3725000005}},{"attributes":{"OBJECTID":19530,"LANDMARKID":"1001200001096","LANDMARKCO":"408","LANDMARKNA":"郵局-旗山郵局","LANDMARKAD":"1001219","ADDRESS":"高雄市旗山區延平一路690號","TEL":"(07)6612-102","COUNTYNAME":"高雄市","TOWNNAME":"旗山區","MARKTYPE":"994","Class":"4"},"geometry":{"x":196952.74289999995,"y":2531527.3914000001}},{"attributes":{"OBJECTID":19531,"LANDMARKID":"1001200001097","LANDMARKCO":"408","LANDMARKNA":"郵局-旗山旗尾郵局","LANDMARKAD":"1001219","ADDRESS":"高雄市旗山區延平二路8、10號","TEL":"(07)6614-790","COUNTYNAME":"高雄市","TOWNNAME":"旗山區","MARKTYPE":"994","Class":"4"},"geometry":{"x":197934.31300000008,"y":2531276.6989999991}},{"attributes":{"OBJECTID":19532,"LANDMARKID":"1001200001098","LANDMARKCO":"408","LANDMARKNA":"郵局-旗山大洲郵局","LANDMARKAD":"1001219","ADDRESS":"高雄市旗山區旗南二路192-1號","TEL":"(07)6661-005","COUNTYNAME":"高雄市","TOWNNAME":"旗山區","MARKTYPE":"994","Class":"4"},"geometry":{"x":194950.79389999993,"y":2526879.0582999997}},{"attributes":{"OBJECTID":19533,"LANDMARKID":"1001200001099","LANDMARKCO":"408","LANDMARKNA":"郵局-旗山圓潭郵局","LANDMARKAD":"1001219","ADDRESS":"高雄市旗山區旗甲路2段354號","TEL":"(07)6691-450","COUNTYNAME":"高雄市","TOWNNAME":"旗山區","MARKTYPE":"994","Class":"4"},"geometry":{"x":198452.00609999988,"y":2535778.0964000002}},{"attributes":{"OBJECTID":19534,"LANDMARKID":"1001200001100","LANDMARKCO":"408","LANDMARKNA":"郵局-旗山四保郵局","LANDMARKAD":"1001219","ADDRESS":"高雄市旗山區中山路242號","TEL":"(07)6613-838","COUNTYNAME":"高雄市","TOWNNAME":"旗山區","MARKTYPE":"994","Class":"4"},"geometry":{"x":196790.49280000012,"y":2532382.4836999997}},{"attributes":{"OBJECTID":19535,"LANDMARKID":"1001200001149","LANDMARKCO":"409","LANDMARKNA":"高雄市旗山區農會","LANDMARKAD":"1001219","ADDRESS":"高雄市旗山區中山路67號","TEL":"07--6615495","COUNTYNAME":"高雄市","TOWNNAME":"旗山區","MARKTYPE":"994","Class":"4"},"geometry":{"x":196852.43730000034,"y":2531871.6804000009}},{"attributes":{"OBJECTID":19536,"LANDMARKID":"1001200001150","LANDMARKCO":"409","LANDMARKNA":"岡山農會嶺口分部","LANDMARKAD":"1001219","ADDRESS":"旗山區南勝里旗南三路223號","TEL":"07-6651630","COUNTYNAME":"高雄市","TOWNNAME":"旗山區","MARKTYPE":"994","Class":"4"},"geometry":{"x":193381.58050000016,"y":2519315.7514999993}},{"attributes":{"OBJECTID":19537,"LANDMARKID":"1001200001151","LANDMARKCO":"409","LANDMARKNA":"旗山農會-旗尾分部","LANDMARKAD":"1001219","ADDRESS":"高雄市旗山區東平里旗屏一路41號","TEL":"07-661-22","COUNTYNAME":"高雄市","TOWNNAME":"旗山區","MARKTYPE":"994","Class":"4"},"geometry":{"x":198257.51889999956,"y":2531275.7183999997}},{"attributes":{"OBJECTID":19538,"LANDMARKID":"1001200001152","LANDMARKCO":"409","LANDMARKNA":"旗山農會-中正分部","LANDMARKAD":"1001219","ADDRESS":"高雄市旗山區旗甲路二段581號","TEL":"07-669-14","COUNTYNAME":"高雄市","TOWNNAME":"旗山區","MARKTYPE":"994","Class":"4"},"geometry":{"x":198761.90000000037,"y":2536370.4426000006}},{"attributes":{"OBJECTID":19539,"LANDMARKID":"1001200001153","LANDMARKCO":"409","LANDMARKNA":"旗山農會-溪洲分部","LANDMARKAD":"1001219","ADDRESS":"高雄市旗山區鯤洲里中洲路75號","TEL":"07-666-27","COUNTYNAME":"高雄市","TOWNNAME":"旗山區","MARKTYPE":"994","Class":"4"},"geometry":{"x":195999.51989999972,"y":2527934.9951000009}},{"attributes":{"OBJECTID":19540,"LANDMARKID":"1001200001154","LANDMARKCO":"409","LANDMARKNA":"旗山農會-南溪洲分部","LANDMARKAD":"1001219","ADDRESS":"高雄市旗山區南洲里旗南二路77號","TEL":"07-666-12","COUNTYNAME":"高雄市","TOWNNAME":"旗山區","MARKTYPE":"994","Class":"4"},"geometry":{"x":195029.50200000033,"y":2527168.3650000002}},{"attributes":{"OBJECTID":19541,"LANDMARKID":"1001200001031","LANDMARKCO":"406","LANDMARKNA":"花旗公園","LANDMARKAD":"1001219","ADDRESS":"高雄市旗山區","TEL":" ","COUNTYNAME":"高雄市","TOWNNAME":"旗山區","MARKTYPE":"994","Class":"4"},"geometry":{"x":194528.41249999963,"y":2530723.9227000009}},{"attributes":{"OBJECTID":19542,"LANDMARKID":"1001200001032","LANDMARKCO":"406","LANDMARKNA":"旗山中山公園","LANDMARKAD":"1001219","ADDRESS":"高雄市旗山區","TEL":" ","COUNTYNAME":"高雄市","TOWNNAME":"旗山區","MARKTYPE":"994","Class":"4"},"geometry":{"x":195832.2424999997,"y":2532204.5427000001}},{"attributes":{"OBJECTID":19543,"LANDMARKID":"1001200001033","LANDMARKCO":"406","LANDMARKNA":"旗山運動公園","LANDMARKAD":"1001219","ADDRESS":"高雄市旗山區","TEL":" ","COUNTYNAME":"高雄市","TOWNNAME":"旗山區","MARKTYPE":"994","Class":"4"},"geometry":{"x":196550.87210000027,"y":2531997.7784000002}},{"attributes":{"OBJECTID":19544,"LANDMARKID":"1001200000828","LANDMARKCO":"404","LANDMARKNA":"台灣省自來水旗山營運所","LANDMARKAD":"1001219","ADDRESS":"高雄市旗山區延平一路499之1號","TEL":" ","COUNTYNAME":"高雄市","TOWNNAME":"旗山區","MARKTYPE":"994","Class":"4"},"geometry":{"x":197003.04079999961,"y":2532112.6016000006}},{"attributes":{"OBJECTID":19545,"LANDMARKID":"1001200001030","LANDMARKCO":"406","LANDMARKNA":"旗北糖廠公園","LANDMARKAD":"1001219","ADDRESS":"高雄市旗山區","TEL":" ","COUNTYNAME":"高雄市","TOWNNAME":"旗山區","MARKTYPE":"994","Class":"4"},"geometry":{"x":197885.07930000033,"y":2531211.4770999998}},{"attributes":{"OBJECTID":19546,"LANDMARKID":"1001200000215","LANDMARKCO":"107","LANDMARKNA":"高雄市政府警察局嶺口派出所","LANDMARKAD":"1001219","ADDRESS":"高雄市旗山區旗南三路212號","TEL":"07-6651021","COUNTYNAME":"高雄市","TOWNNAME":"旗山區","MARKTYPE":"991","Class":"1"},"geometry":{"x":193475.46480000019,"y":2519310.8914000001}},{"attributes":{"OBJECTID":19547,"LANDMARKID":"1001200000216","LANDMARKCO":"107","LANDMARKNA":"高雄市政府警察局大洲派出所","LANDMARKAD":"1001219","ADDRESS":"高雄市旗山區旗南二路128號","TEL":"07-6661305","COUNTYNAME":"高雄市","TOWNNAME":"旗山區","MARKTYPE":"991","Class":"1"},"geometry":{"x":194995.91220000014,"y":2527150.0738999993}},{"attributes":{"OBJECTID":19548,"LANDMARKID":"1001200000003","LANDMARKCO":"101","LANDMARKNA":"林務局屏東林區管理處旗山工作站","LANDMARKAD":"1001219","ADDRESS":"高雄市旗山區旗南一路2號","TEL":"07-6612031","COUNTYNAME":"高雄市","TOWNNAME":"旗山區","MARKTYPE":"991","Class":"1"},"geometry":{"x":196153.27990000043,"y":2531970.0708000008}},{"attributes":{"OBJECTID":19549,"LANDMARKID":"1001200000004","LANDMARKCO":"101","LANDMARKNA":"水利署南區水資源局旗山分局","LANDMARKAD":"1001219","ADDRESS":"高雄市旗山區樂和街15號之33","TEL":"07-6629683","COUNTYNAME":"高雄市","TOWNNAME":"旗山區","MARKTYPE":"991","Class":"1"},"geometry":{"x":196249.46640000027,"y":2531610.4169999994}},{"attributes":{"OBJECTID":19550,"LANDMARKID":"1001200000005","LANDMARKCO":"101","LANDMARKNA":"高雄區監理所旗山監理站","LANDMARKAD":"1001219","ADDRESS":"高雄市旗山區旗文路123之1號","TEL":"07-6613711","COUNTYNAME":"高雄市","TOWNNAME":"旗山區","MARKTYPE":"991","Class":"1"},"geometry":{"x":196426.52089999989,"y":2533440.0095000006}},{"attributes":{"OBJECTID":19551,"LANDMARKID":"1001200000006","LANDMARKCO":"101","LANDMARKNA":"旗山區社福館","LANDMARKAD":"1001219","ADDRESS":"高雄市旗山區中正路199號","TEL":"07-6617464","COUNTYNAME":"高雄市","TOWNNAME":"旗山區","MARKTYPE":"991","Class":"1"},"geometry":{"x":196675.34240000043,"y":2532260.9048999995}},{"attributes":{"OBJECTID":19552,"LANDMARKID":"1001200000083","LANDMARKCO":"103","LANDMARKNA":"高雄市旗山區衛生所","LANDMARKAD":"1001219","ADDRESS":"高雄市旗山區中正路197號","TEL":"07-6612054","COUNTYNAME":"高雄市","TOWNNAME":"旗山區","MARKTYPE":"991","Class":"1"},"geometry":{"x":196766.69460000005,"y":2532160.2192000002}},{"attributes":{"OBJECTID":19553,"LANDMARKID":"1001200000113","LANDMARKCO":"105","LANDMARKNA":"高雄市旗山地政事務所","LANDMARKAD":"1001219","ADDRESS":"高雄市旗山區平和街50號","TEL":"07-6612039","COUNTYNAME":"高雄市","TOWNNAME":"旗山區","MARKTYPE":"991","Class":"1"},"geometry":{"x":196834.83490000013,"y":2532120.4591000006}},{"attributes":{"OBJECTID":19554,"LANDMARKID":"1001200000007","LANDMARKCO":"101","LANDMARKNA":"台灣高雄地方法院旗山簡易庭","LANDMARKAD":"1001219","ADDRESS":"高雄市旗山區民生二街33號","TEL":"07-6622045","COUNTYNAME":"高雄市","TOWNNAME":"旗山區","MARKTYPE":"991","Class":"1"},"geometry":{"x":196889.01750000007,"y":2532660.6459999997}},{"attributes":{"OBJECTID":19555,"LANDMARKID":"1001200000105","LANDMARKCO":"104","LANDMARKNA":"南區國稅局旗山稽徵所","LANDMARKAD":"1001219","ADDRESS":"高雄市旗山區華中街3之1號","TEL":"07-6612027","COUNTYNAME":"高雄市","TOWNNAME":"旗山區","MARKTYPE":"991","Class":"1"},"geometry":{"x":196897.28060000017,"y":2531970.6823999994}},{"attributes":{"OBJECTID":19556,"LANDMARKID":"1001200000217","LANDMARKCO":"107","LANDMARKNA":"高雄市政府警察局旗山分局","LANDMARKAD":"1001219","ADDRESS":"高雄市旗山區鼓山里華中街1號","TEL":"07-6612001","COUNTYNAME":"高雄市","TOWNNAME":"旗山區","MARKTYPE":"991","Class":"1"},"geometry":{"x":196956.2807,"y":2531970.8895999994}},{"attributes":{"OBJECTID":19557,"LANDMARKID":"1001200000218","LANDMARKCO":"107","LANDMARKNA":"高雄市政府警察局建國派出所","LANDMARKAD":"1001219","ADDRESS":"高雄市旗山區華中街1號","TEL":"07-6612045","COUNTYNAME":"高雄市","TOWNNAME":"旗山區","MARKTYPE":"991","Class":"1"},"geometry":{"x":196958.2807,"y":2531970.8966000006}},{"attributes":{"OBJECTID":19558,"LANDMARKID":"1001200000084","LANDMARKCO":"103","LANDMARKNA":"高雄市旗山區鎮民代表會","LANDMARKAD":"1001219","ADDRESS":"高雄市旗山區延平一路499號","TEL":"07-6612219","COUNTYNAME":"高雄市","TOWNNAME":"旗山區","MARKTYPE":"991","Class":"1"},"geometry":{"x":196979.1754999999,"y":2532000.9699000008}},{"attributes":{"OBJECTID":19559,"LANDMARKID":"1001200000285","LANDMARKCO":"108","LANDMARKNA":"高雄市旗山區公所","LANDMARKAD":"1001219","ADDRESS":"高雄市旗山區延平一路499號","TEL":"07-6616100","COUNTYNAME":"高雄市","TOWNNAME":"旗山區","MARKTYPE":"991","Class":"1"},"geometry":{"x":196989.03529999964,"y":2532041.0044999998}},{"attributes":{"OBJECTID":19560,"LANDMARKID":"1001200000219","LANDMARKCO":"107","LANDMARKNA":"高雄市消防局旗山消防分隊","LANDMARKAD":"1001219","ADDRESS":"高雄市旗山區延平一路507號","TEL":"07-6612300","COUNTYNAME":"高雄市","TOWNNAME":"旗山區","MARKTYPE":"991","Class":"1"},"geometry":{"x":196991.10539999977,"y":2532020.0095000006}},{"attributes":{"OBJECTID":19561,"LANDMARKID":"1001200000127","LANDMARKCO":"106","LANDMARKNA":"高雄市旗山區戶政事務所","LANDMARKAD":"1001219","ADDRESS":"高雄市旗山區鼓山里8鄰延平一路503號","TEL":"07-6614461","COUNTYNAME":"高雄市","TOWNNAME":"旗山區","MARKTYPE":"991","Class":"1"},"geometry":{"x":196999.21059999987,"y":2531990.0379000008}},{"attributes":{"OBJECTID":19562,"LANDMARKID":"1001200000212","LANDMARKCO":"107","LANDMARKNA":"高雄市政府警察局旗尾派出所","LANDMARKAD":"1001219","ADDRESS":"高雄市旗山區延平二路21號","TEL":"07-6614306","COUNTYNAME":"高雄市","TOWNNAME":"旗山區","MARKTYPE":"991","Class":"1"},"geometry":{"x":197957.43670000043,"y":2531310.4003999997}},{"attributes":{"OBJECTID":19563,"LANDMARKID":"1001200000213","LANDMARKCO":"107","LANDMARKNA":"高雄市政府警察局圓潭派出所","LANDMARKAD":"1001219","ADDRESS":"高雄市旗山區旗甲路三段165號","TEL":"07-6691307","COUNTYNAME":"高雄市","TOWNNAME":"旗山區","MARKTYPE":"991","Class":"1"},"geometry":{"x":199044.22109999973,"y":2536910.1497000009}},{"attributes":{"OBJECTID":19564,"LANDMARKID":"1001200000214","LANDMARKCO":"107","LANDMARKNA":"高雄市政府警察局廣福派出所","LANDMARKAD":"1001219","ADDRESS":"高雄市旗山區旗屏二路18號","TEL":"07-6613260","COUNTYNAME":"高雄市","TOWNNAME":"旗山區","MARKTYPE":"991","Class":"1"},"geometry":{"x":199149.30769999977,"y":2528580.5969999991}},{"attributes":{"OBJECTID":19565,"LANDMARKID":"1001200000008","LANDMARKCO":"101","LANDMARKNA":"農業委員會農業藥物毒物試驗所","LANDMARKAD":"1001219","ADDRESS":"高雄市旗山區廣福里南隆路3號","TEL":"07-6624188","COUNTYNAME":"高雄市","TOWNNAME":"旗山區","MARKTYPE":"991","Class":"1"},"geometry":{"x":199246.74380000029,"y":2528450.9240000006}},{"attributes":{"OBJECTID":19566,"LANDMARKID":"1001200000579","LANDMARKCO":"204","LANDMARKNA":"高雄市立圖書館旗山分館","LANDMARKAD":"1001219","ADDRESS":"高雄市旗山區鼓山里延平一路499號","TEL":" ","COUNTYNAME":"高雄市","TOWNNAME":"旗山區","MARKTYPE":"992","Class":"2"},"geometry":{"x":196991.56089999992,"y":2532012.6753000002}},{"attributes":{"OBJECTID":19567,"LANDMARKID":"1001200000320","LANDMARKCO":"202","LANDMARKNA":"國立旗山農工","LANDMARKAD":"1001219","ADDRESS":"高雄市旗山區旗甲路一段195號","TEL":"07-6612501","COUNTYNAME":"高雄市","TOWNNAME":"旗山區","MARKTYPE":"992","Class":"2"},"geometry":{"x":196855.51929999981,"y":2533440.5168999992}},{"attributes":{"OBJECTID":19568,"LANDMARKID":"1001200000321","LANDMARKCO":"202","LANDMARKNA":"國立旗美高中","LANDMARKAD":"1001219","ADDRESS":"高雄市旗山區東平里樹人路21號","TEL":"07-6612502","COUNTYNAME":"高雄市","TOWNNAME":"旗山區","MARKTYPE":"992","Class":"2"},"geometry":{"x":198050.94720000029,"y":2531760.7184999995}},{"attributes":{"OBJECTID":19569,"LANDMARKID":"1001200000499","LANDMARKCO":"203","LANDMARKNA":"縣立旗山國中","LANDMARKAD":"1001219","ADDRESS":"高雄市旗山區大德里中學路42號","TEL":"07-6612103","COUNTYNAME":"高雄市","TOWNNAME":"旗山區","MARKTYPE":"992","Class":"2"},"geometry":{"x":196711.95359999966,"y":2531140.0416000001}},{"attributes":{"OBJECTID":19570,"LANDMARKID":"1001200000500","LANDMARKCO":"203","LANDMARKNA":"縣立圓富國中","LANDMARKAD":"1001219","ADDRESS":"高雄市旗山區旗甲路二段609號","TEL":"07-6691004","COUNTYNAME":"高雄市","TOWNNAME":"旗山區","MARKTYPE":"992","Class":"2"},"geometry":{"x":198707.63609999977,"y":2536480.9496999998}},{"attributes":{"OBJECTID":19571,"LANDMARKID":"1001200000501","LANDMARKCO":"203","LANDMARKNA":"縣立溪洲國小","LANDMARKAD":"1001219","ADDRESS":"高雄市旗山區大山里旗南二路126","TEL":"07-6661408","COUNTYNAME":"高雄市","TOWNNAME":"旗山區","MARKTYPE":"992","Class":"2"},"geometry":{"x":195053.80200000014,"y":2527520.2760000005}},{"attributes":{"OBJECTID":19572,"LANDMARKID":"1001200000502","LANDMARKCO":"203","LANDMARKNA":"縣立鼓山國小","LANDMARKAD":"1001219","ADDRESS":"高雄市旗山區延平一路111號","TEL":"07-6623080","COUNTYNAME":"高雄市","TOWNNAME":"旗山區","MARKTYPE":"992","Class":"2"},"geometry":{"x":196897.42219999991,"y":2533160.6679999996}},{"attributes":{"OBJECTID":19573,"LANDMARKID":"1001200000503","LANDMARKCO":"203","LANDMARKNA":"縣立旗山國小","LANDMARKAD":"1001219","ADDRESS":"高雄市旗山區鼓山里華中街44號","TEL":"07-6612052","COUNTYNAME":"高雄市","TOWNNAME":"旗山區","MARKTYPE":"992","Class":"2"},"geometry":{"x":196756.03390000015,"y":2532040.1854999997}},{"attributes":{"OBJECTID":19574,"LANDMARKID":"1001200000504","LANDMARKCO":"203","LANDMARKNA":"縣立旗尾國小","LANDMARKAD":"1001219","ADDRESS":"高雄市旗山區東平里延平二路19號","TEL":"07-6616708","COUNTYNAME":"高雄市","TOWNNAME":"旗山區","MARKTYPE":"992","Class":"2"},"geometry":{"x":197837.36780000012,"y":2531330.9726}},{"attributes":{"OBJECTID":19575,"LANDMARKID":"1001200000505","LANDMARKCO":"203","LANDMARKNA":"縣立圓潭國小","LANDMARKAD":"1001219","ADDRESS":"高雄市旗山區中正里旗甲路三段179號","TEL":"07-6691476","COUNTYNAME":"高雄市","TOWNNAME":"旗山區","MARKTYPE":"992","Class":"2"},"geometry":{"x":199066.92219999991,"y":2537010.2228999995}},{"attributes":{"OBJECTID":19576,"LANDMARKID":"1001200000316","LANDMARKCO":"201","LANDMARKNA":"和春技術學院","LANDMARKAD":"1001219","ADDRESS":"高雄市旗山區旗文路125之8號","TEL":"07-6618851","COUNTYNAME":"高雄市","TOWNNAME":"旗山區","MARKTYPE":"992","Class":"2"},"geometry":{"x":196170.17410000041,"y":2533230.1153999995}},{"attributes":{"OBJECTID":19577,"LANDMARKID":"1001200000506","LANDMARKCO":"203","LANDMARKNA":"縣立大洲國中","LANDMARKAD":"1001219","ADDRESS":"高雄市旗山區新光里新南巷5號","TEL":"07-6661378","COUNTYNAME":"高雄市","TOWNNAME":"旗山區","MARKTYPE":"992","Class":"2"},"geometry":{"x":194659.37509999983,"y":2526100.9420999996}},{"attributes":{"OBJECTID":19578,"LANDMARKID":"1001200000507","LANDMARKCO":"203","LANDMARKNA":"縣立嶺口國小","LANDMARKAD":"1001219","ADDRESS":"高雄市旗山區南勝里龍文巷30號","TEL":"07-6651216","COUNTYNAME":"高雄市","TOWNNAME":"旗山區","MARKTYPE":"992","Class":"2"},"geometry":{"x":193388.64240000024,"y":2519570.5639999993}},{"attributes":{"OBJECTID":19579,"LANDMARKID":"1001200000508","LANDMARKCO":"203","LANDMARKNA":"縣立旗尾國小廣文分校","LANDMARKAD":"1001219","ADDRESS":"高雄市旗山區","TEL":" ","COUNTYNAME":"高雄市","TOWNNAME":"旗山區","MARKTYPE":"992","Class":"2"},"geometry":{"x":199790.54150000028,"y":2528510.8263000008}},{"attributes":{"OBJECTID":19580,"LANDMARKID":"1001200000509","LANDMARKCO":"203","LANDMARKNA":"縣立大林國小","LANDMARKAD":"1001219","ADDRESS":"高雄市旗山區大林里文進巷2號","TEL":"07-6691774","COUNTYNAME":"高雄市","TOWNNAME":"旗山區","MARKTYPE":"992","Class":"2"},"geometry":{"x":200192.64159999974,"y":2539860.1421000008}},{"attributes":{"OBJECTID":19581,"LANDMARKID":"1001200000647","LANDMARKCO":"303","LANDMARKNA":"三桃山森林遊樂區停車場","LANDMARKAD":"1001219","ADDRESS":"高雄市旗山區","TEL":" ","COUNTYNAME":"高雄市","TOWNNAME":"旗山區","MARKTYPE":"993","Class":"303"},"geometry":{"x":196101.77359999996,"y":2530863.4357999992}},{"attributes":{"OBJECTID":19582,"LANDMARKID":"1001200000648","LANDMARKCO":"303","LANDMARKNA":"三桃山森林遊樂區停車場","LANDMARKAD":"1001219","ADDRESS":"高雄市旗山區","TEL":" ","COUNTYNAME":"高雄市","TOWNNAME":"旗山區","MARKTYPE":"993","Class":"303"},"geometry":{"x":196110.49949999992,"y":2530781.3994999994}},{"attributes":{"OBJECTID":19583,"LANDMARKID":"1001200000724","LANDMARKCO":"308","LANDMARKNA":"國10-嶺口交流道-南下","LANDMARKAD":"1001219","ADDRESS":"高雄市旗山區","TEL":" ","COUNTYNAME":"高雄市","TOWNNAME":"旗山區","MARKTYPE":"993","Class":"308"},"geometry":{"x":193782.09009999968,"y":2521954.4061999992}},{"attributes":{"OBJECTID":19584,"LANDMARKID":"1001200000624","LANDMARKCO":"302","LANDMARKNA":"高雄汽車客運旗山站","LANDMARKAD":"1001219","ADDRESS":"高雄市旗山區延平一路187號","TEL":" ","COUNTYNAME":"高雄市","TOWNNAME":"旗山區","MARKTYPE":"993","Class":"302"},"geometry":{"x":197043.6409,"y":2532841.9170999993}},{"attributes":{"OBJECTID":19585,"LANDMARKID":"1001200000646","LANDMARKCO":"303","LANDMARKNA":"旗山運動公園停車場","LANDMARKAD":"1001219","ADDRESS":"高雄市旗山區","TEL":" ","COUNTYNAME":"高雄市","TOWNNAME":"旗山區","MARKTYPE":"993","Class":"303"},"geometry":{"x":196624.16590000037,"y":2531967.0932}},{"attributes":{"OBJECTID":19586,"LANDMARKID":"1001200000815","LANDMARKCO":"402","LANDMARKNA":"中華電信-旗山服務中心","LANDMARKAD":"1001219","ADDRESS":"高雄市旗山區中山南街2號","TEL":"(07)644-1271","COUNTYNAME":"高雄市","TOWNNAME":"旗山區","MARKTYPE":"994","Class":"4"},"geometry":{"x":196734.19820000045,"y":2531560.7225000001}},{"attributes":{"OBJECTID":19587,"LANDMARKID":"1001200001444","LANDMARKCO":"604","LANDMARKNA":"旗山三合院民宿","LANDMARKAD":"1001219","ADDRESS":"高雄市旗山區廣福里中興街6號","TEL":"07-6614318","COUNTYNAME":"高雄市","TOWNNAME":"旗山區","MARKTYPE":"996","Class":"6"},"geometry":{"x":199822.37750000041,"y":2537444.1250999998}},{"attributes":{"OBJECTID":19588,"LANDMARKID":"1001200001445","LANDMARKCO":"604","LANDMARKNA":"旗山民宿","LANDMARKAD":"1001219","ADDRESS":"高雄市旗山區三協里楊厝巷11-1號","TEL":"07-6618983","COUNTYNAME":"高雄市","TOWNNAME":"旗山區","MARKTYPE":"996","Class":"6"},"geometry":{"x":195459.01989999972,"y":2530469.2087999992}},{"attributes":{"OBJECTID":19589,"LANDMARKID":"1001200001354","LANDMARKCO":"603","LANDMARKNA":"益昌別館","LANDMARKAD":"1001219","ADDRESS":"高雄市旗山區永平街55號","TEL":"07-6613805","COUNTYNAME":"高雄市","TOWNNAME":"旗山區","MARKTYPE":"996","Class":"6"},"geometry":{"x":196812.48440000042,"y":2531708.7744999994}},{"attributes":{"OBJECTID":19590,"LANDMARKID":"1001200001355","LANDMARKCO":"603","LANDMARKNA":"青年大旅社","LANDMARKAD":"1001219","ADDRESS":"高雄市旗山區延平一路529號","TEL":"07-6612048","COUNTYNAME":"高雄市","TOWNNAME":"旗山區","MARKTYPE":"996","Class":"6"},"geometry":{"x":196978.34399999958,"y":2531922.6030000001}},{"attributes":{"OBJECTID":19591,"LANDMARKID":"1001200001356","LANDMARKCO":"603","LANDMARKNA":"大益大旅社","LANDMARKAD":"1001219","ADDRESS":"高雄市旗山區延平一路563號","TEL":"07-6612181","COUNTYNAME":"高雄市","TOWNNAME":"旗山區","MARKTYPE":"996","Class":"6"},"geometry":{"x":196968.59690000024,"y":2531841.1022999994}},{"attributes":{"OBJECTID":19592,"LANDMARKID":"1001200001357","LANDMARKCO":"603","LANDMARKNA":"森美堡休閒汽車旅館","LANDMARKAD":"1001219","ADDRESS":"高雄市旗山區花旗二路2號","TEL":"07-6616656","COUNTYNAME":"高雄市","TOWNNAME":"旗山區","MARKTYPE":"996","Class":"6"},"geometry":{"x":195294.89599999972,"y":2531206.1476000007}},{"attributes":{"OBJECTID":19593,"LANDMARKID":"1001200001358","LANDMARKCO":"603","LANDMARKNA":"龍華山莊渡假村","LANDMARKAD":"1001219","ADDRESS":"高雄市旗山區花旗二路300巷1號","TEL":"07-6622018","COUNTYNAME":"高雄市","TOWNNAME":"旗山區","MARKTYPE":"996","Class":"6"},"geometry":{"x":194441.42410000041,"y":2531272.9389999993}},{"attributes":{"OBJECTID":19594,"LANDMARKID":"1001200001359","LANDMARKCO":"603","LANDMARKNA":"春吉大旅社","LANDMARKAD":"1001219","ADDRESS":"高雄市旗山區復新東街6號","TEL":"07-6613816","COUNTYNAME":"高雄市","TOWNNAME":"旗山區","MARKTYPE":"996","Class":"6"},"geometry":{"x":197001.1716,"y":2531628.8187000006}},{"attributes":{"OBJECTID":19595,"LANDMARKID":"1001200001360","LANDMARKCO":"603","LANDMARKNA":"圓潭大旅社","LANDMARKAD":"1001219","ADDRESS":"高雄市旗山區旗甲路二段376號1樓之3","TEL":"07-6692378","COUNTYNAME":"高雄市","TOWNNAME":"旗山區","MARKTYPE":"996","Class":"6"},"geometry":{"x":198472.62339999992,"y":2535826.2661000006}},{"attributes":{"OBJECTID":19596,"LANDMARKID":"1001200001235","LANDMARKCO":"504","LANDMARKNA":"三桃山森林遊樂區","LANDMARKAD":"1001219","ADDRESS":"高雄市旗山區三協里三桃巷9號","TEL":"07-6612482","COUNTYNAME":"高雄市","TOWNNAME":"旗山區","MARKTYPE":"995","Class":"5"},"geometry":{"x":196050.06670000032,"y":2530950.1996999998}},{"attributes":{"OBJECTID":19597,"LANDMARKID":"1001200001300","LANDMARKCO":"510","LANDMARKNA":"大衛營高爾夫球場","LANDMARKAD":"1001219","ADDRESS":"高雄市旗山區大林溝坪路98-1號","TEL":"07-6692800","COUNTYNAME":"高雄市","TOWNNAME":"旗山區","MARKTYPE":"995","Class":"5"},"geometry":{"x":200418.52020000014,"y":2541173.8954000007}},{"attributes":{"OBJECTID":19598,"LANDMARKID":"1001200001486","LANDMARKCO":"605","LANDMARKNA":"昊天宮","LANDMARKAD":"1001219","ADDRESS":"高雄市旗山區","TEL":" ","COUNTYNAME":"高雄市","TOWNNAME":"旗山區","MARKTYPE":"996","Class":"6"},"geometry":{"x":191161.76989999972,"y":2524344.0986000001}},{"attributes":{"OBJECTID":19599,"LANDMARKID":"1001200000897","LANDMARKCO":"405","LANDMARKNA":"中油加油站-阿蓮站","LANDMARKAD":"1001212","ADDRESS":"高雄市阿蓮區阿蓮村中山路351號","TEL":"07-6312139","COUNTYNAME":"高雄市","TOWNNAME":"阿蓮區","MARKTYPE":"994","Class":"4"},"geometry":{"x":180868.91359999962,"y":2530413.2080000006}},{"attributes":{"OBJECTID":19600,"LANDMARKID":"1001200000898","LANDMARKCO":"405","LANDMARKNA":"中油加油站-聯合太子阿蓮站","LANDMARKAD":"1001212","ADDRESS":"高雄市阿蓮區阿蓮村和平路256號","TEL":"07-6321828","COUNTYNAME":"高雄市","TOWNNAME":"阿蓮區","MARKTYPE":"994","Class":"4"},"geometry":{"x":181610.70830000006,"y":2531760.1771000009}}]}