{"displayFieldName":"COUNTYNAME","fieldAliases":{"OBJECTID":"OBJECTID","LANDMARKID":"LANDMARKID","LANDMARKCO":"LANDMARKCO","LANDMARKNA":"LANDMARKNA","LANDMARKAD":"LANDMARKAD","ADDRESS":"ADDRESS","TEL":"TEL","COUNTYNAME":"COUNTYNAME","TOWNNAME":"TOWNNAME","MARKTYPE":"MARKTYPE","Class":"Class"},"geometryType":"esriGeometryPoint","spatialReference":{"wkid":102443},"fields":[{"name":"OBJECTID","type":"esriFieldTypeOID","alias":"OBJECTID"},{"name":"LANDMARKID","type":"esriFieldTypeString","alias":"LANDMARKID","length":15},{"name":"LANDMARKCO","type":"esriFieldTypeString","alias":"LANDMARKCO","length":15},{"name":"LANDMARKNA","type":"esriFieldTypeString","alias":"LANDMARKNA","length":50},{"name":"LANDMARKAD","type":"esriFieldTypeString","alias":"LANDMARKAD","length":15},{"name":"ADDRESS","type":"esriFieldTypeString","alias":"ADDRESS","length":56},{"name":"TEL","type":"esriFieldTypeString","alias":"TEL","length":36},{"name":"COUNTYNAME","type":"esriFieldTypeString","alias":"COUNTYNAME","length":15},{"name":"TOWNNAME","type":"esriFieldTypeString","alias":"TOWNNAME","length":13},{"name":"MARKTYPE","type":"esriFieldTypeString","alias":"MARKTYPE","length":12},{"name":"Class","type":"esriFieldTypeString","alias":"Class","length":5}],"features":[{"attributes":{"OBJECTID":3001,"LANDMARKID":"1001400000536","LANDMARKCO":"405","LANDMARKNA":"中油加油站-富岡站","LANDMARKAD":"1001401","ADDRESS":"台東縣台東市吉林路二段101號","TEL":"089-280382","COUNTYNAME":"台東縣","TOWNNAME":"台東市","MARKTYPE":"994","Class":"4"},"geometry":{"x":268295.88279999979,"y":2519847.2954999991}},{"attributes":{"OBJECTID":3002,"LANDMARKID":"1001400000537","LANDMARKCO":"405","LANDMARKNA":"中油加油站-馬蘭站(中油直營)","LANDMARKAD":"1001401","ADDRESS":"台東縣台東市更生路653號","TEL":"089-226401","COUNTYNAME":"台東縣","TOWNNAME":"台東市","MARKTYPE":"994","Class":"4"},"geometry":{"x":264158.24299999978,"y":2518398.7794000003}},{"attributes":{"OBJECTID":3003,"LANDMARKID":"1001400000538","LANDMARKCO":"405","LANDMARKNA":"台糖加油站-中興二站(中油)","LANDMARKAD":"1001401","ADDRESS":"台東縣台東市臨海路三段431號","TEL":"089-358360","COUNTYNAME":"台東縣","TOWNNAME":"台東市","MARKTYPE":"994","Class":"4"},"geometry":{"x":262063.15070000011,"y":2514416.3576999996}},{"attributes":{"OBJECTID":3004,"LANDMARKID":"1001400000539","LANDMARKCO":"405","LANDMARKNA":"中油加油站-大富岡站","LANDMARKAD":"1001401","ADDRESS":"台東縣台東市吉林路二段725號","TEL":"089-280458","COUNTYNAME":"台東縣","TOWNNAME":"台東市","MARKTYPE":"994","Class":"4"},"geometry":{"x":268979.30950000044,"y":2521113.7943999991}},{"attributes":{"OBJECTID":3005,"LANDMARKID":"1001400000540","LANDMARKCO":"405","LANDMARKNA":"中油加油站-知本站(中油直營)","LANDMARKAD":"1001401","ADDRESS":"台東縣台東市青海路四段270號","TEL":"089-512284","COUNTYNAME":"台東縣","TOWNNAME":"台東市","MARKTYPE":"994","Class":"4"},"geometry":{"x":254318.85599999968,"y":2512170.1917000003}},{"attributes":{"OBJECTID":3006,"LANDMARKID":"1001400000541","LANDMARKCO":"405","LANDMARKNA":"北基加油站-日盛站(中油）","LANDMARKAD":"1001401","ADDRESS":"台東縣台東市新生路76號","TEL":"(089)331-671","COUNTYNAME":"台東縣","TOWNNAME":"台東市","MARKTYPE":"994","Class":"4"},"geometry":{"x":265355.93609999958,"y":2516795.8630999997}},{"attributes":{"OBJECTID":3007,"LANDMARKID":"1001400000542","LANDMARKCO":"405","LANDMARKNA":"中油加油站-卑南站(中油直營)","LANDMARKAD":"1001401","ADDRESS":"台東縣台東市更生北路20號","TEL":"089-222010","COUNTYNAME":"台東縣","TOWNNAME":"台東市","MARKTYPE":"994","Class":"4"},"geometry":{"x":263026.00030000042,"y":2519606.9351000004}},{"attributes":{"OBJECTID":3008,"LANDMARKID":"1001400000543","LANDMARKCO":"405","LANDMARKNA":"中油加油站-台東站","LANDMARKAD":"1001401","ADDRESS":"台東縣台東市中華路二段515號","TEL":"089-343542","COUNTYNAME":"台東縣","TOWNNAME":"台東市","MARKTYPE":"994","Class":"4"},"geometry":{"x":263369.45770000014,"y":2515572.1068999991}},{"attributes":{"OBJECTID":3009,"LANDMARKID":"1001400000544","LANDMARKCO":"405","LANDMARKNA":"中油加油站-北基更生路站","LANDMARKAD":"1001401","ADDRESS":"台東縣台東市更生路1199號","TEL":"089-220731","COUNTYNAME":"台東縣","TOWNNAME":"台東市","MARKTYPE":"994","Class":"4"},"geometry":{"x":263206.27379999962,"y":2519396.8235999998}},{"attributes":{"OBJECTID":3010,"LANDMARKID":"1001400000545","LANDMARKCO":"405","LANDMARKNA":"中油加油站-中山路站(中油直營)","LANDMARKAD":"1001401","ADDRESS":"台東縣台東市新生路136號","TEL":"089-323132","COUNTYNAME":"台東縣","TOWNNAME":"台東市","MARKTYPE":"994","Class":"4"},"geometry":{"x":265204.19369999971,"y":2516925.5780999996}},{"attributes":{"OBJECTID":3011,"LANDMARKID":"1001400000474","LANDMARKCO":"402","LANDMARKNA":"My Phone台灣大哥大-台東中華直營服務中心","LANDMARKAD":"1001401","ADDRESS":"台東市中華路一段518號","TEL":"0809-000-166","COUNTYNAME":"台東縣","TOWNNAME":"台東市","MARKTYPE":"994","Class":"4"},"geometry":{"x":265451.96100000013,"y":2516793.7115000002}},{"attributes":{"OBJECTID":3012,"LANDMARKID":"1001400000475","LANDMARKCO":"402","LANDMARKNA":"亞太行動寬頻電信-台東更生加盟服務中心","LANDMARKAD":"1001401","ADDRESS":"台東縣台東市更生路123號","TEL":"089-331711","COUNTYNAME":"台東縣","TOWNNAME":"台東市","MARKTYPE":"994","Class":"4"},"geometry":{"x":265182.27329999954,"y":2517590.1261}},{"attributes":{"OBJECTID":3013,"LANDMARKID":"1001400000476","LANDMARKCO":"402","LANDMARKNA":"亞太行動寬頻電信-台東中華加盟服務中心","LANDMARKAD":"1001401","ADDRESS":"台東縣台東市中華路一段521號","TEL":"089-330389","COUNTYNAME":"台東縣","TOWNNAME":"台東市","MARKTYPE":"994","Class":"4"},"geometry":{"x":265456.06900000013,"y":2516776.9912999999}},{"attributes":{"OBJECTID":3014,"LANDMARKID":"1001400000468","LANDMARKCO":"401","LANDMARKNA":"台東榮民醫院","LANDMARKAD":"1001401","ADDRESS":"台東縣台東市更生路1000號","TEL":"089-325840","COUNTYNAME":"台東縣","TOWNNAME":"台東市","MARKTYPE":"994","Class":"4"},"geometry":{"x":263591.16940000001,"y":2519056.4481000006}},{"attributes":{"OBJECTID":3015,"LANDMARKID":"1001400000469","LANDMARKCO":"401","LANDMARKNA":"台東榮民醫院-勝利院區","LANDMARKAD":"1001401","ADDRESS":"台東縣台東市勝利路2號","TEL":"089-330671","COUNTYNAME":"台東縣","TOWNNAME":"台東市","MARKTYPE":"994","Class":"4"},"geometry":{"x":266276.2977,"y":2517809.9861999992}},{"attributes":{"OBJECTID":3016,"LANDMARKID":"1001400000470","LANDMARKCO":"401","LANDMARKNA":"財團法人馬偕紀念醫院台東分院","LANDMARKAD":"1001401","ADDRESS":"台東縣台東市長沙街303巷1號","TEL":"089-310150","COUNTYNAME":"台東縣","TOWNNAME":"台東市","MARKTYPE":"994","Class":"4"},"geometry":{"x":264421.65519999992,"y":2516782.2284999993}},{"attributes":{"OBJECTID":3017,"LANDMARKID":"1001400000471","LANDMARKCO":"401","LANDMARKNA":"天主教聖母醫院","LANDMARKAD":"1001401","ADDRESS":"台東縣台東市杭州街2號","TEL":"089-322833","COUNTYNAME":"台東縣","TOWNNAME":"台東市","MARKTYPE":"994","Class":"4"},"geometry":{"x":265034.26400000043,"y":2517489.8070999999}},{"attributes":{"OBJECTID":3018,"LANDMARKID":"1001400000472","LANDMARKCO":"401","LANDMARKNA":"行政院衛生署臺東醫院","LANDMARKAD":"1001401","ADDRESS":"台東縣台東市五權街1號","TEL":"089-324112","COUNTYNAME":"台東縣","TOWNNAME":"台東市","MARKTYPE":"994","Class":"4"},"geometry":{"x":265480.2407999998,"y":2517459.9267999995}},{"attributes":{"OBJECTID":3019,"LANDMARKID":"1001400000473","LANDMARKCO":"401","LANDMARKNA":"財團法人台東基督教醫院","LANDMARKAD":"1001401","ADDRESS":"台東縣台東市開封街350號","TEL":"089-323362","COUNTYNAME":"台東縣","TOWNNAME":"台東市","MARKTYPE":"994","Class":"4"},"geometry":{"x":265013.27840000018,"y":2518119.8270999994}},{"attributes":{"OBJECTID":3020,"LANDMARKID":"1001400000647","LANDMARKCO":"507","LANDMARKNA":"卑南遺址","LANDMARKAD":"1001401","ADDRESS":"台東縣台東市南王里卑南段695-1，750-4，694-1地號","TEL":" ","COUNTYNAME":"台東縣","TOWNNAME":"台東市","MARKTYPE":"995","Class":"5"},"geometry":{"x":262480.99230000004,"y":2521469.7130999994}},{"attributes":{"OBJECTID":3021,"LANDMARKID":"1001400000684","LANDMARKCO":"512","LANDMARKNA":"小野柳遊客服務中心","LANDMARKAD":"1001401","ADDRESS":"台東縣台東市松江路一段500號","TEL":"089-281136","COUNTYNAME":"台東縣","TOWNNAME":"台東市","MARKTYPE":"995","Class":"5"},"geometry":{"x":270221.88439999986,"y":2521714.0677000005}},{"attributes":{"OBJECTID":3022,"LANDMARKID":"1001400000549","LANDMARKCO":"406","LANDMARKNA":"卑南文化公園","LANDMARKAD":"1001401","ADDRESS":"台東縣台東市文化公園路200號","TEL":" ","COUNTYNAME":"台東縣","TOWNNAME":"台東市","MARKTYPE":"994","Class":"4"},"geometry":{"x":262227.03980000038,"y":2521602.7915000003}},{"attributes":{"OBJECTID":3023,"LANDMARKID":"1001400000550","LANDMARKCO":"406","LANDMARKNA":"兒童公園","LANDMARKAD":"1001401","ADDRESS":"台東縣台東市","TEL":" ","COUNTYNAME":"台東縣","TOWNNAME":"台東市","MARKTYPE":"994","Class":"4"},"geometry":{"x":264256.64109999966,"y":2517425.4419}},{"attributes":{"OBJECTID":3024,"LANDMARKID":"1001400000551","LANDMARKCO":"406","LANDMARKNA":"兒童公園","LANDMARKAD":"1001401","ADDRESS":"台東縣台東市","TEL":" ","COUNTYNAME":"台東縣","TOWNNAME":"台東市","MARKTYPE":"994","Class":"4"},"geometry":{"x":264280.74789999984,"y":2516937.8713000007}},{"attributes":{"OBJECTID":3025,"LANDMARKID":"1001400000566","LANDMARKCO":"408","LANDMARKNA":"郵局-台東大同路郵局","LANDMARKAD":"1001401","ADDRESS":"台東縣台東市大同路126號","TEL":"(089)311-654","COUNTYNAME":"台東縣","TOWNNAME":"台東市","MARKTYPE":"994","Class":"4"},"geometry":{"x":265808.83320000023,"y":2516937.7336999997}},{"attributes":{"OBJECTID":3026,"LANDMARKID":"1001400000567","LANDMARKCO":"408","LANDMARKNA":"郵局-台東新生郵局","LANDMARKAD":"1001401","ADDRESS":"台東縣台東市新生路706號","TEL":"(089)227-414","COUNTYNAME":"台東縣","TOWNNAME":"台東市","MARKTYPE":"994","Class":"4"},"geometry":{"x":263907.0717000002,"y":2518188.4914999995}},{"attributes":{"OBJECTID":3027,"LANDMARKID":"1001400000568","LANDMARKCO":"408","LANDMARKNA":"郵局-台東中山路郵局","LANDMARKAD":"1001401","ADDRESS":"台東縣台東市中山路382號","TEL":"(089)324-632","COUNTYNAME":"台東縣","TOWNNAME":"台東市","MARKTYPE":"994","Class":"4"},"geometry":{"x":265238.2416000003,"y":2516965.6136000007}},{"attributes":{"OBJECTID":3028,"LANDMARKID":"1001400000569","LANDMARKCO":"408","LANDMARKNA":"郵局-台東博愛路郵局","LANDMARKAD":"1001401","ADDRESS":"台東縣台東市博愛路135號","TEL":"(089)327-404","COUNTYNAME":"台東縣","TOWNNAME":"台東市","MARKTYPE":"994","Class":"4"},"geometry":{"x":265532.25480000023,"y":2517683.7611999996}},{"attributes":{"OBJECTID":3029,"LANDMARKID":"1001400000570","LANDMARKCO":"408","LANDMARKNA":"郵局-台東卑南郵局","LANDMARKAD":"1001401","ADDRESS":"台東縣台東市更生北路42號","TEL":"(089)223-452","COUNTYNAME":"台東縣","TOWNNAME":"台東市","MARKTYPE":"994","Class":"4"},"geometry":{"x":262973.0839999998,"y":2519671.0832000002}},{"attributes":{"OBJECTID":3030,"LANDMARKID":"1001400000571","LANDMARKCO":"408","LANDMARKNA":"郵局-台東知本郵局","LANDMARKAD":"1001401","ADDRESS":"台東縣台東市青海路4段370號","TEL":"(089)512-543","COUNTYNAME":"台東縣","TOWNNAME":"台東市","MARKTYPE":"994","Class":"4"},"geometry":{"x":254237.97080000024,"y":2511990.8697999995}},{"attributes":{"OBJECTID":3031,"LANDMARKID":"1001400000572","LANDMARKCO":"408","LANDMARKNA":"郵局-台東豐田郵局","LANDMARKAD":"1001401","ADDRESS":"台東縣台東市中興路4段615號","TEL":"(089)382-520","COUNTYNAME":"台東縣","TOWNNAME":"台東市","MARKTYPE":"994","Class":"4"},"geometry":{"x":259186.27219999954,"y":2519298.898}},{"attributes":{"OBJECTID":3032,"LANDMARKID":"1001400000573","LANDMARKCO":"408","LANDMARKNA":"郵局-台東馬蘭郵局","LANDMARKAD":"1001401","ADDRESS":"台東縣台東市鄭州街3號1樓","TEL":"(089)334-708","COUNTYNAME":"台東縣","TOWNNAME":"台東市","MARKTYPE":"994","Class":"4"},"geometry":{"x":264794.09850000031,"y":2517890.3155000005}},{"attributes":{"OBJECTID":3033,"LANDMARKID":"1001400000574","LANDMARKCO":"408","LANDMARKNA":"郵局-台東豐榮郵局","LANDMARKAD":"1001401","ADDRESS":"台東縣台東市中華路2段168號","TEL":"(089)337-500","COUNTYNAME":"台東縣","TOWNNAME":"台東市","MARKTYPE":"994","Class":"4"},"geometry":{"x":264215.30480000004,"y":2516008.2609999999}},{"attributes":{"OBJECTID":3034,"LANDMARKID":"1001400000575","LANDMARKCO":"408","LANDMARKNA":"郵局-台東東方大鎮郵局","LANDMARKAD":"1001401","ADDRESS":"台東縣台東市中興路2段436號","TEL":"(089)238-763","COUNTYNAME":"台東縣","TOWNNAME":"台東市","MARKTYPE":"994","Class":"4"},"geometry":{"x":262760.38350000046,"y":2518702.8435999993}},{"attributes":{"OBJECTID":3035,"LANDMARKID":"1001400000601","LANDMARKCO":"409","LANDMARKNA":"台東縣台東地區農會","LANDMARKAD":"1001401","ADDRESS":"台東市更生北路106號","TEL":"089-223511-4","COUNTYNAME":"台東縣","TOWNNAME":"台東市","MARKTYPE":"994","Class":"4"},"geometry":{"x":262901.49390000012,"y":2519747.1999999993}},{"attributes":{"OBJECTID":3036,"LANDMARKID":"1001400000602","LANDMARKCO":"409","LANDMARKNA":"台東縣農會","LANDMARKAD":"1001401","ADDRESS":"台東縣台東市中正路19號","TEL":"089-324377","COUNTYNAME":"台東縣","TOWNNAME":"台東市","MARKTYPE":"994","Class":"4"},"geometry":{"x":266242.63080000039,"y":2516838.8417000007}},{"attributes":{"OBJECTID":3037,"LANDMARKID":"1001400000603","LANDMARKCO":"409","LANDMARKNA":"台東區漁會","LANDMARKAD":"1001401","ADDRESS":"台東市富岡街297號","TEL":"089-281-050","COUNTYNAME":"台東縣","TOWNNAME":"台東市","MARKTYPE":"994","Class":"4"},"geometry":{"x":269835.97169999965,"y":2521258.3079000004}},{"attributes":{"OBJECTID":3038,"LANDMARKID":"1001400000604","LANDMARKCO":"409","LANDMARKNA":"臺東魚市場","LANDMARKAD":"1001401","ADDRESS":"臺東市富岡街297號","TEL":"089-281050　","COUNTYNAME":"台東縣","TOWNNAME":"台東市","MARKTYPE":"994","Class":"4"},"geometry":{"x":269803.1174999997,"y":2521263.7336999997}},{"attributes":{"OBJECTID":3039,"LANDMARKID":"1001400000552","LANDMARKCO":"406","LANDMARKNA":"南迴鐵路紀念公園","LANDMARKAD":"1001401","ADDRESS":"台東縣台東市","TEL":" ","COUNTYNAME":"台東縣","TOWNNAME":"台東市","MARKTYPE":"994","Class":"4"},"geometry":{"x":262804.91270000022,"y":2521392.1011999995}},{"attributes":{"OBJECTID":3040,"LANDMARKID":"1001400000553","LANDMARKCO":"406","LANDMARKNA":"三角公園","LANDMARKAD":"1001401","ADDRESS":"台東縣台東市","TEL":" ","COUNTYNAME":"台東縣","TOWNNAME":"台東市","MARKTYPE":"994","Class":"4"},"geometry":{"x":264736.50710000005,"y":2517368.9674999993}},{"attributes":{"OBJECTID":3041,"LANDMARKID":"1001400000554","LANDMARKCO":"406","LANDMARKNA":"海濱公園","LANDMARKAD":"1001401","ADDRESS":"台東縣台東市","TEL":" ","COUNTYNAME":"台東縣","TOWNNAME":"台東市","MARKTYPE":"994","Class":"4"},"geometry":{"x":266657.47750000004,"y":2516870.8882999998}},{"attributes":{"OBJECTID":3042,"LANDMARKID":"1001400000555","LANDMARKCO":"406","LANDMARKNA":"台東公園","LANDMARKAD":"1001401","ADDRESS":"台東縣台東市","TEL":" ","COUNTYNAME":"台東縣","TOWNNAME":"台東市","MARKTYPE":"994","Class":"4"},"geometry":{"x":264880.1035000002,"y":2516489.4791999999}},{"attributes":{"OBJECTID":3043,"LANDMARKID":"1001400000489","LANDMARKCO":"404","LANDMARKNA":"台灣省自來水卑南營運所","LANDMARKAD":"1001401","ADDRESS":"台東縣台東市更生北路67號","TEL":" ","COUNTYNAME":"台東縣","TOWNNAME":"台東市","MARKTYPE":"994","Class":"4"},"geometry":{"x":262896.43730000034,"y":2519689.2071000002}},{"attributes":{"OBJECTID":3044,"LANDMARKID":"1001400000490","LANDMARKCO":"404","LANDMARKNA":"台灣省自來水台東給水廠","LANDMARKAD":"1001401","ADDRESS":"台東縣台東市博愛路130號2樓","TEL":" ","COUNTYNAME":"台東縣","TOWNNAME":"台東市","MARKTYPE":"994","Class":"4"},"geometry":{"x":265606.02460000012,"y":2517938.7857000008}},{"attributes":{"OBJECTID":3045,"LANDMARKID":"1001400000491","LANDMARKCO":"404","LANDMARKNA":"台灣省自來水第十區台東縣市管理處","LANDMARKAD":"1001401","ADDRESS":"台東縣台東市四維路二段2號","TEL":" ","COUNTYNAME":"台東縣","TOWNNAME":"台東市","MARKTYPE":"994","Class":"4"},"geometry":{"x":264773.4029000001,"y":2518345.6403000001}},{"attributes":{"OBJECTID":3046,"LANDMARKID":"1001400000492","LANDMARKCO":"404","LANDMARKNA":"台灣省自來水台東服務所","LANDMARKAD":"1001401","ADDRESS":"台東縣台東市博愛路130號","TEL":" ","COUNTYNAME":"台東縣","TOWNNAME":"台東市","MARKTYPE":"994","Class":"4"},"geometry":{"x":265606.00009999983,"y":2517938.9356999993}},{"attributes":{"OBJECTID":3047,"LANDMARKID":"1001400000488","LANDMARKCO":"403","LANDMARKNA":"台灣電力公司台東區營業處","LANDMARKAD":"1001401","ADDRESS":"台東縣台東市正氣路38號","TEL":" ","COUNTYNAME":"台東縣","TOWNNAME":"台東市","MARKTYPE":"994","Class":"4"},"geometry":{"x":265831.71590000018,"y":2516681.8582000006}},{"attributes":{"OBJECTID":3048,"LANDMARKID":"1001400000556","LANDMARKCO":"406","LANDMARKNA":"鯉魚山公園","LANDMARKAD":"1001401","ADDRESS":"台東縣台東市","TEL":" ","COUNTYNAME":"台東縣","TOWNNAME":"台東市","MARKTYPE":"994","Class":"4"},"geometry":{"x":264657.80559999961,"y":2516935.1976999994}},{"attributes":{"OBJECTID":3049,"LANDMARKID":"1001400000564","LANDMARKCO":"407","LANDMARKNA":"誠品Eslite","LANDMARKAD":"1001401","ADDRESS":"台東市博愛路478號","TEL":"089-330-388","COUNTYNAME":"台東縣","TOWNNAME":"台東市","MARKTYPE":"994","Class":"4"},"geometry":{"x":264917.61770000029,"y":2517067.2040999997}},{"attributes":{"OBJECTID":3050,"LANDMARKID":"1001400000565","LANDMARKCO":"407","LANDMARKNA":"三商百貨","LANDMARKAD":"1001401","ADDRESS":"台東縣台東市新生路201號","TEL":"089-337880","COUNTYNAME":"台東縣","TOWNNAME":"台東市","MARKTYPE":"994","Class":"4"},"geometry":{"x":264874.83069999982,"y":2517184.7678999994}},{"attributes":{"OBJECTID":3051,"LANDMARKID":"1001400000546","LANDMARKCO":"405","LANDMARKNA":"台塑加油站-南島站(台塑)","LANDMARKAD":"1001401","ADDRESS":"台東縣台東市大業路116號","TEL":"08-9348028","COUNTYNAME":"台東縣","TOWNNAME":"台東市","MARKTYPE":"994","Class":"4"},"geometry":{"x":263408.39699999988,"y":2517008.2298000008}},{"attributes":{"OBJECTID":3052,"LANDMARKID":"1001400000011","LANDMARKCO":"101","LANDMARKNA":"營建署台東工務所","LANDMARKAD":"1001401","ADDRESS":"台東縣台東市長沙街412巷16號","TEL":"089-341077","COUNTYNAME":"台東縣","TOWNNAME":"台東市","MARKTYPE":"991","Class":"1"},"geometry":{"x":264411.19440000039,"y":2517119.8682000004}},{"attributes":{"OBJECTID":3053,"LANDMARKID":"1001400000012","LANDMARKCO":"101","LANDMARKNA":"聯勤台東縣軍眷服務中心","LANDMARKAD":"1001401","ADDRESS":"台東縣台東市中華路一段234巷36號","TEL":"089-350757","COUNTYNAME":"台東縣","TOWNNAME":"台東市","MARKTYPE":"991","Class":"1"},"geometry":{"x":265857.21499999985,"y":2517429.8334999997}},{"attributes":{"OBJECTID":3054,"LANDMARKID":"1001400000065","LANDMARKCO":"103","LANDMARKNA":"台東縣選舉委員會","LANDMARKAD":"1001401","ADDRESS":"臺東市中山路296巷2號6樓","TEL":"089-337885","COUNTYNAME":"台東縣","TOWNNAME":"台東市","MARKTYPE":"991","Class":"1"},"geometry":{"x":265428.26800000016,"y":2517179.9834000003}},{"attributes":{"OBJECTID":3055,"LANDMARKID":"1001400000128","LANDMARKCO":"107","LANDMARKNA":"台東縣消防局卑南消防分隊","LANDMARKAD":"1001401","ADDRESS":"台東縣台東市更生北路616巷9號","TEL":"089-222394","COUNTYNAME":"台東縣","TOWNNAME":"台東市","MARKTYPE":"991","Class":"1"},"geometry":{"x":261867.23749999981,"y":2520599.8726000004}},{"attributes":{"OBJECTID":3056,"LANDMARKID":"1001400000063","LANDMARKCO":"103","LANDMARKNA":"台東縣政府衛生局","LANDMARKAD":"1001401","ADDRESS":"台東縣台東市博愛路336號","TEL":"089-331174","COUNTYNAME":"台東縣","TOWNNAME":"台東市","MARKTYPE":"991","Class":"1"},"geometry":{"x":265285.21789999958,"y":2517439.8412999995}},{"attributes":{"OBJECTID":3057,"LANDMARKID":"1001400000064","LANDMARKCO":"103","LANDMARKNA":"台東縣台東巿衛生所","LANDMARKAD":"1001401","ADDRESS":"台東縣台東市大同路51號","TEL":"089-350806","COUNTYNAME":"台東縣","TOWNNAME":"台東市","MARKTYPE":"991","Class":"1"},"geometry":{"x":265297.18790000025,"y":2517409.8291999996}},{"attributes":{"OBJECTID":3058,"LANDMARKID":"1001400000210","LANDMARKCO":"108","LANDMARKNA":"台東縣台東市公所","LANDMARKAD":"1001401","ADDRESS":"台東縣台東市博愛路365號","TEL":"089-325301","COUNTYNAME":"台東縣","TOWNNAME":"台東市","MARKTYPE":"991","Class":"1"},"geometry":{"x":265064.2126000002,"y":2517129.7811999992}},{"attributes":{"OBJECTID":3059,"LANDMARKID":"1001400000013","LANDMARKCO":"101","LANDMARKNA":"國有財產局台灣北區辦事處台東分處","LANDMARKAD":"1001401","ADDRESS":"台東縣台東市中山路1號3樓","TEL":"089-331646","COUNTYNAME":"台東縣","TOWNNAME":"台東市","MARKTYPE":"991","Class":"1"},"geometry":{"x":266201.1286000004,"y":2517959.7673000004}},{"attributes":{"OBJECTID":3060,"LANDMARKID":"1001400000014","LANDMARKCO":"101","LANDMARKNA":"國軍退除役官兵輔導委員會","LANDMARKAD":"1001401","ADDRESS":"台東縣台東市中山路49號","TEL":"089-310140","COUNTYNAME":"台東縣","TOWNNAME":"台東市","MARKTYPE":"991","Class":"1"},"geometry":{"x":266124.04330000002,"y":2517879.8493000008}},{"attributes":{"OBJECTID":3061,"LANDMARKID":"1001400000015","LANDMARKCO":"101","LANDMARKNA":"農糧署臺東辦事處","LANDMARKAD":"1001401","ADDRESS":"台東縣台東市大同路67號","TEL":"089-322300","COUNTYNAME":"台東縣","TOWNNAME":"台東市","MARKTYPE":"991","Class":"1"},"geometry":{"x":265947.15859999973,"y":2516759.7401999999}},{"attributes":{"OBJECTID":3062,"LANDMARKID":"1001400000016","LANDMARKCO":"101","LANDMARKNA":"林務局台東林區管理處","LANDMARKAD":"1001401","ADDRESS":"台東縣台東市廣東路297號","TEL":"089-324121","COUNTYNAME":"台東縣","TOWNNAME":"台東市","MARKTYPE":"991","Class":"1"},"geometry":{"x":265698.13580000028,"y":2516739.9991999995}},{"attributes":{"OBJECTID":3063,"LANDMARKID":"1001400000017","LANDMARKCO":"101","LANDMARKNA":"標準檢驗局花蓮分局台東辦事處","LANDMARKAD":"1001401","ADDRESS":"台東縣台東市強國街258號","TEL":"089-322710","COUNTYNAME":"台東縣","TOWNNAME":"台東市","MARKTYPE":"991","Class":"1"},"geometry":{"x":266061.29409999959,"y":2517809.9159999993}},{"attributes":{"OBJECTID":3064,"LANDMARKID":"1001400000062","LANDMARKCO":"103","LANDMARKNA":"台東縣原住民文化會館","LANDMARKAD":"1001401","ADDRESS":"台東縣台東市中山路10號","TEL":"089-340605","COUNTYNAME":"台東縣","TOWNNAME":"台東市","MARKTYPE":"991","Class":"1"},"geometry":{"x":266165.13900000043,"y":2517969.8056000005}},{"attributes":{"OBJECTID":3065,"LANDMARKID":"1001400000021","LANDMARKCO":"101","LANDMARKNA":"教育部台東縣聯絡處","LANDMARKAD":"1001401","ADDRESS":"台東縣台東市中山路128號","TEL":"089-333009","COUNTYNAME":"台東縣","TOWNNAME":"台東市","MARKTYPE":"991","Class":"1"},"geometry":{"x":265917.17640000023,"y":2517699.7705000006}},{"attributes":{"OBJECTID":3066,"LANDMARKID":"1001400000022","LANDMARKCO":"101","LANDMARKNA":"勞工委員會職業訓練局","LANDMARKAD":"1001401","ADDRESS":"台東縣台東市中山路276號","TEL":"089-351661","COUNTYNAME":"台東縣","TOWNNAME":"台東市","MARKTYPE":"991","Class":"1"},"geometry":{"x":265428.26800000016,"y":2517179.9834000003}},{"attributes":{"OBJECTID":3067,"LANDMARKID":"1001400000058","LANDMARKCO":"103","LANDMARKNA":"台東縣台東市公所清潔隊","LANDMARKAD":"1001401","ADDRESS":"台東縣台東市寶桑路12號","TEL":"089-322593","COUNTYNAME":"台東縣","TOWNNAME":"台東市","MARKTYPE":"991","Class":"1"},"geometry":{"x":265517.08059999999,"y":2517609.8924000002}},{"attributes":{"OBJECTID":3068,"LANDMARKID":"1001400000020","LANDMARKCO":"101","LANDMARKNA":"台東區農業改良場","LANDMARKAD":"1001401","ADDRESS":"台東縣台東市中華路一段675號","TEL":"089-325110","COUNTYNAME":"台東縣","TOWNNAME":"台東市","MARKTYPE":"991","Class":"1"},"geometry":{"x":265225.21970000025,"y":2516519.9024}},{"attributes":{"OBJECTID":3069,"LANDMARKID":"1001400000059","LANDMARKCO":"103","LANDMARKNA":"台東縣工商(業)發展投資策進會","LANDMARKAD":"1001401","ADDRESS":"台東縣台東市博愛路277號","TEL":"089-323330","COUNTYNAME":"台東縣","TOWNNAME":"台東市","MARKTYPE":"991","Class":"1"},"geometry":{"x":265428.26800000016,"y":2517179.9834000003}},{"attributes":{"OBJECTID":3070,"LANDMARKID":"1001400000060","LANDMARKCO":"103","LANDMARKNA":"台東縣政府","LANDMARKAD":"1001401","ADDRESS":"台東縣台東市中山路276號","TEL":"089-326141","COUNTYNAME":"台東縣","TOWNNAME":"台東市","MARKTYPE":"991","Class":"1"},"geometry":{"x":265428.26800000016,"y":2517179.9834000003}},{"attributes":{"OBJECTID":3071,"LANDMARKID":"1001400000061","LANDMARKCO":"103","LANDMARKNA":"台東縣台東市市民代表會","LANDMARKAD":"1001401","ADDRESS":"台東縣台東市信義路295號","TEL":"089-321654","COUNTYNAME":"台東縣","TOWNNAME":"台東市","MARKTYPE":"991","Class":"1"},"geometry":{"x":265070.22250000015,"y":2517139.7752999999}},{"attributes":{"OBJECTID":3072,"LANDMARKID":"1001400000023","LANDMARKCO":"101","LANDMARKNA":"職業訓練局新生就業服務台","LANDMARKAD":"1001401","ADDRESS":"台東縣台東市新生路230號","TEL":"089-324042","COUNTYNAME":"台東縣","TOWNNAME":"台東市","MARKTYPE":"991","Class":"1"},"geometry":{"x":264840.04609999992,"y":2517270.0012999997}},{"attributes":{"OBJECTID":3073,"LANDMARKID":"1001400000056","LANDMARKCO":"103","LANDMARKNA":"台東縣審計室","LANDMARKAD":"1001401","ADDRESS":"台東縣台東市中山路125號","TEL":"089-320514","COUNTYNAME":"台東縣","TOWNNAME":"台東市","MARKTYPE":"991","Class":"1"},"geometry":{"x":264765.29829999991,"y":2517529.7983999997}},{"attributes":{"OBJECTID":3074,"LANDMARKID":"1001400000057","LANDMARKCO":"103","LANDMARKNA":"台東縣政府社會局家庭暴力及性","LANDMARKAD":"1001401","ADDRESS":"台東縣台東市桂林北路201號3樓","TEL":"089-326141","COUNTYNAME":"台東縣","TOWNNAME":"台東市","MARKTYPE":"991","Class":"1"},"geometry":{"x":264777.18460000027,"y":2516489.7879000008}},{"attributes":{"OBJECTID":3075,"LANDMARKID":"1001400000024","LANDMARKCO":"101","LANDMARKNA":"台東憲兵隊","LANDMARKAD":"1001401","ADDRESS":"台東縣台東市博愛路261號","TEL":"089-339625","COUNTYNAME":"台東縣","TOWNNAME":"台東市","MARKTYPE":"991","Class":"1"},"geometry":{"x":265329.22860000003,"y":2517449.7970000003}},{"attributes":{"OBJECTID":3076,"LANDMARKID":"1001400000025","LANDMARKCO":"101","LANDMARKNA":"工業局豐樂工業區服務中心","LANDMARKAD":"1001401","ADDRESS":"台東縣台東市大忠路77號","TEL":"089-330775","COUNTYNAME":"台東縣","TOWNNAME":"台東市","MARKTYPE":"991","Class":"1"},"geometry":{"x":263616.06130000018,"y":2517289.8221000005}},{"attributes":{"OBJECTID":3077,"LANDMARKID":"1001400000026","LANDMARKCO":"101","LANDMARKNA":"國軍退除役官兵輔導委員會","LANDMARKAD":"1001401","ADDRESS":"台東縣台東市更生路1010號","TEL":"089-222417","COUNTYNAME":"台東縣","TOWNNAME":"台東市","MARKTYPE":"991","Class":"1"},"geometry":{"x":263564.01150000002,"y":2519079.8670000006}},{"attributes":{"OBJECTID":3078,"LANDMARKID":"1001400000052","LANDMARKCO":"103","LANDMARKNA":"台東縣家畜疾病防治所","LANDMARKAD":"1001401","ADDRESS":"台東縣台東市中興路二段733號","TEL":"089-233720","COUNTYNAME":"台東縣","TOWNNAME":"台東市","MARKTYPE":"991","Class":"1"},"geometry":{"x":262238.22479999997,"y":2518729.8017999995}},{"attributes":{"OBJECTID":3079,"LANDMARKID":"1001400000053","LANDMARKCO":"103","LANDMARKNA":"台東縣環境保護局","LANDMARKAD":"1001401","ADDRESS":"台東縣台東市更生北路136號","TEL":"089-221999","COUNTYNAME":"台東縣","TOWNNAME":"台東市","MARKTYPE":"991","Class":"1"},"geometry":{"x":262806.13360000029,"y":2519839.7932999991}},{"attributes":{"OBJECTID":3080,"LANDMARKID":"1001400000054","LANDMARKCO":"103","LANDMARKNA":"台東縣台東市公所垃圾衛生掩埋","LANDMARKAD":"1001401","ADDRESS":"台東縣台東市知本路一段2巷500號","TEL":"089-516397","COUNTYNAME":"台東縣","TOWNNAME":"台東市","MARKTYPE":"991","Class":"1"},"geometry":{"x":260818.05460000038,"y":2512989.8247999996}},{"attributes":{"OBJECTID":3081,"LANDMARKID":"1001400000018","LANDMARKCO":"101","LANDMARKNA":"內政部國土測繪中心臺東辦公室","LANDMARKAD":"1001401","ADDRESS":"臺東縣臺東市岩灣里新站路200號","TEL":"089-221826","COUNTYNAME":"台東縣","TOWNNAME":"台東市","MARKTYPE":"991","Class":"1"},"geometry":{"x":262564.23020000011,"y":2521189.9944000002}},{"attributes":{"OBJECTID":3082,"LANDMARKID":"1001400000019","LANDMARKCO":"101","LANDMARKNA":"林務局台東林區管理處知本工作站","LANDMARKAD":"1001401","ADDRESS":"台東縣台東市青海路4段501號","TEL":"089-512214","COUNTYNAME":"台東縣","TOWNNAME":"台東市","MARKTYPE":"991","Class":"1"},"geometry":{"x":254143.00829999987,"y":2511709.9678000007}},{"attributes":{"OBJECTID":3083,"LANDMARKID":"1001400000113","LANDMARKCO":"107","LANDMARKNA":"台東縣消防局台東消防分隊","LANDMARKAD":"1001401","ADDRESS":"台東縣台東市四維路二段100號1樓","TEL":"089-324060","COUNTYNAME":"台東縣","TOWNNAME":"台東市","MARKTYPE":"991","Class":"1"},"geometry":{"x":264886.01659999974,"y":2518469.9550999999}},{"attributes":{"OBJECTID":3084,"LANDMARKID":"1001400000114","LANDMARKCO":"107","LANDMARKNA":"台東縣消防局知本消防分隊","LANDMARKAD":"1001401","ADDRESS":"台東縣台東市大和路9號","TEL":"089-512019","COUNTYNAME":"台東縣","TOWNNAME":"台東市","MARKTYPE":"991","Class":"1"},"geometry":{"x":255800.10170000046,"y":2511639.9723000005}},{"attributes":{"OBJECTID":3085,"LANDMARKID":"1001400000115","LANDMARKCO":"107","LANDMARKNA":"台東縣消防局","LANDMARKAD":"1001401","ADDRESS":"台東縣台東市四維路二段100號","TEL":"089-322112","COUNTYNAME":"台東縣","TOWNNAME":"台東市","MARKTYPE":"991","Class":"1"},"geometry":{"x":264898.00679999962,"y":2518459.9432999995}},{"attributes":{"OBJECTID":3086,"LANDMARKID":"1001400000116","LANDMARKCO":"107","LANDMARKNA":"台東縣消防局特搜隊","LANDMARKAD":"1001401","ADDRESS":"台東縣台東市新生路161號","TEL":"089-328614","COUNTYNAME":"台東縣","TOWNNAME":"台東市","MARKTYPE":"991","Class":"1"},"geometry":{"x":264991.1425999999,"y":2517059.8533999994}},{"attributes":{"OBJECTID":3087,"LANDMARKID":"1001400000117","LANDMARKCO":"107","LANDMARKNA":"台東縣警察局","LANDMARKAD":"1001401","ADDRESS":"台東縣台東市中山路268號","TEL":"089-322034","COUNTYNAME":"台東縣","TOWNNAME":"台東市","MARKTYPE":"991","Class":"1"},"geometry":{"x":265497.0270999996,"y":2517249.9132000003}},{"attributes":{"OBJECTID":3088,"LANDMARKID":"1001400000118","LANDMARKCO":"107","LANDMARKNA":"台東縣警察局台東分局","LANDMARKAD":"1001401","ADDRESS":"台東縣台東市文化里博愛路373號","TEL":"089-322306","COUNTYNAME":"台東縣","TOWNNAME":"台東市","MARKTYPE":"991","Class":"1"},"geometry":{"x":265025.17250000034,"y":2517089.8198000006}},{"attributes":{"OBJECTID":3089,"LANDMARKID":"1001400000119","LANDMARKCO":"107","LANDMARKNA":"台東縣警察局寶桑派出所","LANDMARKAD":"1001401","ADDRESS":"台東縣台東市中華路一段276號","TEL":"089-322126","COUNTYNAME":"台東縣","TOWNNAME":"台東市","MARKTYPE":"991","Class":"1"},"geometry":{"x":265881.04820000008,"y":2517269.8087000009}},{"attributes":{"OBJECTID":3090,"LANDMARKID":"1001400000120","LANDMARKCO":"107","LANDMARKNA":"台東縣警察局南王派出所","LANDMARKAD":"1001401","ADDRESS":"台東縣台東市更生北路624號","TEL":"089-223817","COUNTYNAME":"台東縣","TOWNNAME":"台東市","MARKTYPE":"991","Class":"1"},"geometry":{"x":261832.22130000032,"y":2520579.8999000005}},{"attributes":{"OBJECTID":3091,"LANDMARKID":"1001400000121","LANDMARKCO":"107","LANDMARKNA":"台東縣警察局馬蘭派出所","LANDMARKAD":"1001401","ADDRESS":"台東縣台東市更生路678號","TEL":"089-226492","COUNTYNAME":"台東縣","TOWNNAME":"台東市","MARKTYPE":"991","Class":"1"},"geometry":{"x":264197.27560000028,"y":2518439.8034000006}},{"attributes":{"OBJECTID":3092,"LANDMARKID":"1001400000122","LANDMARKCO":"107","LANDMARKNA":"台東縣警察局豐里派出所","LANDMARKAD":"1001401","ADDRESS":"台東縣台東市中華路三段126號","TEL":"089-327815","COUNTYNAME":"台東縣","TOWNNAME":"台東市","MARKTYPE":"991","Class":"1"},"geometry":{"x":262438.01020000037,"y":2515079.8695}},{"attributes":{"OBJECTID":3093,"LANDMARKID":"1001400000123","LANDMARKCO":"107","LANDMARKNA":"台東縣警察局富岡派出所","LANDMARKAD":"1001401","ADDRESS":"台東縣台東市松江路一段431號","TEL":"089-281040","COUNTYNAME":"台東縣","TOWNNAME":"台東市","MARKTYPE":"991","Class":"1"},"geometry":{"x":269084.03010000009,"y":2521249.6809999999}},{"attributes":{"OBJECTID":3094,"LANDMARKID":"1001400000124","LANDMARKCO":"107","LANDMARKNA":"台東縣警察局知本派出所","LANDMARKAD":"1001401","ADDRESS":"台東縣台東市知本里大和路11號","TEL":"089-512614","COUNTYNAME":"台東縣","TOWNNAME":"台東市","MARKTYPE":"991","Class":"1"},"geometry":{"x":255844.11400000006,"y":2511669.9554999992}},{"attributes":{"OBJECTID":3095,"LANDMARKID":"1001400000125","LANDMARKCO":"107","LANDMARKNA":"台東縣警察局永樂派出所","LANDMARKAD":"1001401","ADDRESS":"台東縣台東市正氣北路915號","TEL":"089-227818","COUNTYNAME":"台東縣","TOWNNAME":"台東市","MARKTYPE":"991","Class":"1"},"geometry":{"x":262695.00140000042,"y":2517529.8881000001}},{"attributes":{"OBJECTID":3096,"LANDMARKID":"1001400000126","LANDMARKCO":"107","LANDMARKNA":"台東縣警察局溫泉派出所","LANDMARKAD":"1001401","ADDRESS":"台東縣台東市青海路四段343號","TEL":"089-512379","COUNTYNAME":"台東縣","TOWNNAME":"台東市","MARKTYPE":"991","Class":"1"},"geometry":{"x":254291.07890000008,"y":2511960.0042000003}},{"attributes":{"OBJECTID":3097,"LANDMARKID":"1001400000127","LANDMARKCO":"107","LANDMARKNA":"台東縣警察局中興派出所","LANDMARKAD":"1001401","ADDRESS":"台東縣台東市文化里博愛路373號","TEL":"089-322127","COUNTYNAME":"台東縣","TOWNNAME":"台東市","MARKTYPE":"991","Class":"1"},"geometry":{"x":265026.17250000034,"y":2517089.8188000005}},{"attributes":{"OBJECTID":3098,"LANDMARKID":"1001400000055","LANDMARKCO":"103","LANDMARKNA":"台東縣政府民政局","LANDMARKAD":"1001401","ADDRESS":"台東縣台東市中山路276號2樓","TEL":"089-311090","COUNTYNAME":"台東縣","TOWNNAME":"台東市","MARKTYPE":"991","Class":"1"},"geometry":{"x":265429.26800000016,"y":2517179.9824000001}},{"attributes":{"OBJECTID":3099,"LANDMARKID":"1001400000104","LANDMARKCO":"106","LANDMARKNA":"台東縣台東市戶政事務所","LANDMARKAD":"1001401","ADDRESS":"台東縣台東市14鄰信義路291號","TEL":"089-323490","COUNTYNAME":"台東縣","TOWNNAME":"台東市","MARKTYPE":"991","Class":"1"},"geometry":{"x":265122.17360000033,"y":2517090.0044999998}},{"attributes":{"OBJECTID":3100,"LANDMARKID":"1001400000087","LANDMARKCO":"105","LANDMARKNA":"台東縣政府地政局","LANDMARKAD":"1001401","ADDRESS":"台東縣台東市中山路276號","TEL":"089-326141#0","COUNTYNAME":"台東縣","TOWNNAME":"台東市","MARKTYPE":"991","Class":"1"},"geometry":{"x":265369.00679999962,"y":2517229.7567999996}},{"attributes":{"OBJECTID":3101,"LANDMARKID":"1001400000088","LANDMARKCO":"105","LANDMARKNA":"台東縣台東地政事務所","LANDMARKAD":"1001401","ADDRESS":"台東縣台東市中興路二段735號","TEL":"089-229611","COUNTYNAME":"台東縣","TOWNNAME":"台東市","MARKTYPE":"991","Class":"1"},"geometry":{"x":262228.22470000014,"y":2518729.8098000009}},{"attributes":{"OBJECTID":3102,"LANDMARKID":"1001400000033","LANDMARKCO":"101","LANDMARKNA":"台灣糖業股份有限公司台東營業處","LANDMARKAD":"1001401","ADDRESS":"台東縣台東市中興路二段191號","TEL":"089-221678","COUNTYNAME":"台東縣","TOWNNAME":"台東市","MARKTYPE":"991","Class":"1"},"geometry":{"x":263165.1286000004,"y":2518599.9693}},{"attributes":{"OBJECTID":3103,"LANDMARKID":"1001400000034","LANDMARKCO":"101","LANDMARKNA":"高雄區監理所台東監理站","LANDMARKAD":"1001401","ADDRESS":"台東縣台東市正氣北路441號","TEL":"089-311539","COUNTYNAME":"台東縣","TOWNNAME":"台東市","MARKTYPE":"991","Class":"1"},"geometry":{"x":263601.1484000003,"y":2517079.8355999999}},{"attributes":{"OBJECTID":3104,"LANDMARKID":"1001400000086","LANDMARKCO":"104","LANDMARKNA":"南區國稅局台東縣分局","LANDMARKAD":"1001401","ADDRESS":"台東市中山路1號","TEL":"089-360001","COUNTYNAME":"台東縣","TOWNNAME":"台東市","MARKTYPE":"991","Class":"1"},"geometry":{"x":262324.21009999979,"y":2518709.9596999995}},{"attributes":{"OBJECTID":3105,"LANDMARKID":"1001400000027","LANDMARKCO":"101","LANDMARKNA":"台灣台東地方法院","LANDMARKAD":"1001401","ADDRESS":"台東縣台東市博愛路128號","TEL":"089-310130","COUNTYNAME":"台東縣","TOWNNAME":"台東市","MARKTYPE":"991","Class":"1"},"geometry":{"x":265701.07349999994,"y":2517909.9947999995}},{"attributes":{"OBJECTID":3106,"LANDMARKID":"1001400000028","LANDMARKCO":"101","LANDMARKNA":"調查局台東縣調查站","LANDMARKAD":"1001401","ADDRESS":"台東縣台東市中興路二段731號","TEL":"089-236177-81","COUNTYNAME":"台東縣","TOWNNAME":"台東市","MARKTYPE":"991","Class":"1"},"geometry":{"x":265285.15759999957,"y":2517379.8412999995}},{"attributes":{"OBJECTID":3107,"LANDMARKID":"1001400000029","LANDMARKCO":"101","LANDMARKNA":"台灣岩灣技能訓練所","LANDMARKAD":"1001401","ADDRESS":"台東縣台東市興安路二段642號","TEL":"089-224711","COUNTYNAME":"台東縣","TOWNNAME":"台東市","MARKTYPE":"991","Class":"1"},"geometry":{"x":262963.00420000032,"y":2523069.8959999997}},{"attributes":{"OBJECTID":3108,"LANDMARKID":"1001400000030","LANDMARKCO":"101","LANDMARKNA":"台灣台東監獄","LANDMARKAD":"1001401","ADDRESS":"台東縣台東市廣東路317號","TEL":"089-310185","COUNTYNAME":"台東縣","TOWNNAME":"台東市","MARKTYPE":"991","Class":"1"},"geometry":{"x":265649.02219999954,"y":2516629.7583000008}},{"attributes":{"OBJECTID":3109,"LANDMARKID":"1001400000050","LANDMARKCO":"103","LANDMARKNA":"台東縣議會","LANDMARKAD":"1001401","ADDRESS":"台東縣台東市中興路二段727號","TEL":"089-227119","COUNTYNAME":"台東縣","TOWNNAME":"台東市","MARKTYPE":"991","Class":"1"},"geometry":{"x":262488.17989999987,"y":2518669.8258999996}},{"attributes":{"OBJECTID":3110,"LANDMARKID":"1001400000051","LANDMARKCO":"103","LANDMARKNA":"台東市火葬場","LANDMARKAD":"1001401","ADDRESS":"台東縣台東市民航路200巷160號","TEL":"089-226038","COUNTYNAME":"台東縣","TOWNNAME":"台東市","MARKTYPE":"991","Class":"1"},"geometry":{"x":262139.21320000011,"y":2518146.6442000009}},{"attributes":{"OBJECTID":3111,"LANDMARKID":"1001400000031","LANDMARKCO":"101","LANDMARKNA":"台灣環境保護聯盟台東分會","LANDMARKAD":"1001401","ADDRESS":"台東縣東河鄉都蘭村6鄰那界12-6號","TEL":"089-352751","COUNTYNAME":"台東縣","TOWNNAME":"台東市","MARKTYPE":"991","Class":"1"},"geometry":{"x":265857.06120000035,"y":2517589.8333000001}},{"attributes":{"OBJECTID":3112,"LANDMARKID":"1001400000032","LANDMARKCO":"101","LANDMARKNA":"國立教育廣播電台台東分台","LANDMARKAD":"1001401","ADDRESS":"台東市馬亨亨大道135號","TEL":"089-324110","COUNTYNAME":"台東縣","TOWNNAME":"台東市","MARKTYPE":"991","Class":"1"},"geometry":{"x":266035.2751000002,"y":2518099.9430999998}},{"attributes":{"OBJECTID":3113,"LANDMARKID":"1001400000391","LANDMARKCO":"205","LANDMARKNA":"台東縣政府文化局山地文物陳列室","LANDMARKAD":"1001401","ADDRESS":"台東縣台東市南京路25號","TEL":" ","COUNTYNAME":"台東縣","TOWNNAME":"台東市","MARKTYPE":"992","Class":"2"},"geometry":{"x":265012.13169999979,"y":2517285.4070999995}},{"attributes":{"OBJECTID":3114,"LANDMARKID":"1001400000392","LANDMARKCO":"205","LANDMARKNA":"國立台灣史前文化博物館","LANDMARKAD":"1001401","ADDRESS":"台東縣台東市博物館路1號","TEL":"089-381166","COUNTYNAME":"台東縣","TOWNNAME":"台東市","MARKTYPE":"992","Class":"2"},"geometry":{"x":259678.8515999997,"y":2517927.8994999994}},{"attributes":{"OBJECTID":3115,"LANDMARKID":"1001400000347","LANDMARKCO":"203","LANDMARKNA":"縣立東海國中","LANDMARKAD":"1001401","ADDRESS":"台東縣台東市中華路一段719巷51號","TEL":"089-323271","COUNTYNAME":"台東縣","TOWNNAME":"台東市","MARKTYPE":"992","Class":"2"},"geometry":{"x":264610.0075000003,"y":2515999.9495000001}},{"attributes":{"OBJECTID":3116,"LANDMARKID":"1001400000348","LANDMARKCO":"203","LANDMARKNA":"縣立豐田國中","LANDMARKAD":"1001401","ADDRESS":"台東縣台東市中興路四段611巷56弄27號","TEL":"089-382275","COUNTYNAME":"台東縣","TOWNNAME":"台東市","MARKTYPE":"992","Class":"2"},"geometry":{"x":259612.16669999994,"y":2519019.8826000001}},{"attributes":{"OBJECTID":3117,"LANDMARKID":"1001400000349","LANDMARKCO":"203","LANDMARKNA":"縣立新生國中","LANDMARKAD":"1001401","ADDRESS":"台東縣台東市新生路641巷64號","TEL":"089-229121","COUNTYNAME":"台東縣","TOWNNAME":"台東市","MARKTYPE":"992","Class":"2"},"geometry":{"x":263876.19429999962,"y":2518049.8405000009}},{"attributes":{"OBJECTID":3118,"LANDMARKID":"1001400000350","LANDMARKCO":"203","LANDMARKNA":"縣立豐榮國小","LANDMARKAD":"1001401","ADDRESS":"台東縣台東市中華路二段154巷150號","TEL":"089-323353","COUNTYNAME":"台東縣","TOWNNAME":"台東市","MARKTYPE":"992","Class":"2"},"geometry":{"x":264027.03760000039,"y":2516339.9629999995}},{"attributes":{"OBJECTID":3119,"LANDMARKID":"1001400000351","LANDMARKCO":"203","LANDMARKNA":"縣立光明國小","LANDMARKAD":"1001401","ADDRESS":"台東縣台東市中興路二段150巷29弄1號","TEL":"089-226304","COUNTYNAME":"台東縣","TOWNNAME":"台東市","MARKTYPE":"992","Class":"2"},"geometry":{"x":263254.15550000034,"y":2518629.8918999992}},{"attributes":{"OBJECTID":3120,"LANDMARKID":"1001400000352","LANDMARKCO":"203","LANDMARKNA":"縣立岩灣國小","LANDMARKAD":"1001401","ADDRESS":"台東縣台東市岩灣路50巷401弄11號","TEL":"089-223415","COUNTYNAME":"台東縣","TOWNNAME":"台東市","MARKTYPE":"992","Class":"2"},"geometry":{"x":262828.25380000006,"y":2522749.7725000009}},{"attributes":{"OBJECTID":3121,"LANDMARKID":"1001400000216","LANDMARKCO":"202","LANDMARKNA":"國立台東體育實驗高中","LANDMARKAD":"1001401","ADDRESS":"台東縣台東市中華路一段684號","TEL":"089-383521","COUNTYNAME":"台東縣","TOWNNAME":"台東市","MARKTYPE":"992","Class":"2"},"geometry":{"x":265065.16060000006,"y":2516769.7806000002}},{"attributes":{"OBJECTID":3122,"LANDMARKID":"1001400000217","LANDMARKCO":"202","LANDMARKNA":"國立台東高中","LANDMARKAD":"1001401","ADDRESS":"台東縣台東市中華路一段721號","TEL":"089-322070","COUNTYNAME":"台東縣","TOWNNAME":"台東市","MARKTYPE":"992","Class":"2"},"geometry":{"x":265050.23479999974,"y":2516229.7960000001}},{"attributes":{"OBJECTID":3123,"LANDMARKID":"1001400000218","LANDMARKCO":"202","LANDMARKNA":"私立育仁高中","LANDMARKAD":"1001401","ADDRESS":"台東縣台東市中興路四段485號","TEL":"089-382839","COUNTYNAME":"台東縣","TOWNNAME":"台東市","MARKTYPE":"992","Class":"2"},"geometry":{"x":259446.08459999971,"y":2519199.9866000004}},{"attributes":{"OBJECTID":3124,"LANDMARKID":"1001400000219","LANDMARKCO":"202","LANDMARKNA":"國立台東女中","LANDMARKAD":"1001401","ADDRESS":"台東縣台東市四維路一段690號","TEL":"089-321268","COUNTYNAME":"台東縣","TOWNNAME":"台東市","MARKTYPE":"992","Class":"2"},"geometry":{"x":265845.31120000035,"y":2517829.8455999997}},{"attributes":{"OBJECTID":3125,"LANDMARKID":"1001400000220","LANDMARKCO":"202","LANDMARKNA":"私立公東高工","LANDMARKAD":"1001401","ADDRESS":"台東縣台東市中興路一段560號","TEL":"089-222877","COUNTYNAME":"台東縣","TOWNNAME":"台東市","MARKTYPE":"992","Class":"2"},"geometry":{"x":263854.13480000012,"y":2518599.8600999992}},{"attributes":{"OBJECTID":3126,"LANDMARKID":"1001400000221","LANDMARKCO":"202","LANDMARKNA":"國立台東高商","LANDMARKAD":"1001401","ADDRESS":"台東縣台東市正氣路440號","TEL":"089-350575","COUNTYNAME":"台東縣","TOWNNAME":"台東市","MARKTYPE":"992","Class":"2"},"geometry":{"x":264883.00949999969,"y":2517539.9590000007}},{"attributes":{"OBJECTID":3127,"LANDMARKID":"1001400000222","LANDMARKCO":"202","LANDMARKNA":"私立育仁高中附設國中部","LANDMARKAD":"1001401","ADDRESS":"台東縣台東市中興路四段485號","TEL":"089-382839","COUNTYNAME":"台東縣","TOWNNAME":"台東市","MARKTYPE":"992","Class":"2"},"geometry":{"x":259451.08459999971,"y":2519199.9835000001}},{"attributes":{"OBJECTID":3128,"LANDMARKID":"1001400000223","LANDMARKCO":"202","LANDMARKNA":"國立台東大學附設體育高中","LANDMARKAD":"1001401","ADDRESS":"台東縣台東市中興路5段399號","TEL":"089-383629","COUNTYNAME":"台東縣","TOWNNAME":"台東市","MARKTYPE":"992","Class":"2"},"geometry":{"x":257863.08779999986,"y":2518309.9246999994}},{"attributes":{"OBJECTID":3129,"LANDMARKID":"1001400000326","LANDMARKCO":"203","LANDMARKNA":"縣立寶桑國中","LANDMARKAD":"1001401","ADDRESS":"台東縣台東市仁七街1號","TEL":"089-220011","COUNTYNAME":"台東縣","TOWNNAME":"台東市","MARKTYPE":"992","Class":"2"},"geometry":{"x":264917.30109999981,"y":2518759.9243999999}},{"attributes":{"OBJECTID":3130,"LANDMARKID":"1001400000327","LANDMARKCO":"203","LANDMARKNA":"縣立卑南國中","LANDMARKAD":"1001401","ADDRESS":"台東縣台東市更生北路766號","TEL":"089-224045","COUNTYNAME":"台東縣","TOWNNAME":"台東市","MARKTYPE":"992","Class":"2"},"geometry":{"x":261556.0373999998,"y":2520959.8953000009}},{"attributes":{"OBJECTID":3131,"LANDMARKID":"1001400000328","LANDMARKCO":"203","LANDMARKNA":"縣立知本國中","LANDMARKAD":"1001401","ADDRESS":"台東縣台東市青海路三段680號","TEL":"089-512203","COUNTYNAME":"台東縣","TOWNNAME":"台東市","MARKTYPE":"992","Class":"2"},"geometry":{"x":254878.01279999968,"y":2512949.9986000005}},{"attributes":{"OBJECTID":3132,"LANDMARKID":"1001400000329","LANDMARKCO":"203","LANDMARKNA":"縣立仁愛國小","LANDMARKAD":"1001401","ADDRESS":"台東縣台東市四維路一段400號","TEL":"089-322071","COUNTYNAME":"台東縣","TOWNNAME":"台東市","MARKTYPE":"992","Class":"2"},"geometry":{"x":266311.22070000041,"y":2517429.9526000004}},{"attributes":{"OBJECTID":3133,"LANDMARKID":"1001400000330","LANDMARKCO":"203","LANDMARKNA":"縣立豐里國小","LANDMARKAD":"1001401","ADDRESS":"台東縣台東市中華路三段80號","TEL":"089-324040","COUNTYNAME":"台東縣","TOWNNAME":"台東市","MARKTYPE":"992","Class":"2"},"geometry":{"x":262528.10080000013,"y":2515189.7956000008}},{"attributes":{"OBJECTID":3134,"LANDMARKID":"1001400000331","LANDMARKCO":"203","LANDMARKNA":"縣立豐源國小","LANDMARKAD":"1001401","ADDRESS":"台東縣台東市中華路四段392號","TEL":"089-322063","COUNTYNAME":"台東縣","TOWNNAME":"台東市","MARKTYPE":"992","Class":"2"},"geometry":{"x":261114.20160000026,"y":2514419.8113000002}},{"attributes":{"OBJECTID":3135,"LANDMARKID":"1001400000332","LANDMARKCO":"203","LANDMARKNA":"縣立豐年國小","LANDMARKAD":"1001401","ADDRESS":"台東縣台東市中興路三段320號","TEL":"089-226733","COUNTYNAME":"台東縣","TOWNNAME":"台東市","MARKTYPE":"992","Class":"2"},"geometry":{"x":261412.19689999986,"y":2519020.0052000005}},{"attributes":{"OBJECTID":3136,"LANDMARKID":"1001400000333","LANDMARKCO":"203","LANDMARKNA":"縣立豐田國小","LANDMARKAD":"1001401","ADDRESS":"台東縣台東市中興路四段750號","TEL":"089-380345","COUNTYNAME":"台東縣","TOWNNAME":"台東市","MARKTYPE":"992","Class":"2"},"geometry":{"x":258853.01099999994,"y":2519390.0009000003}},{"attributes":{"OBJECTID":3137,"LANDMARKID":"1001400000334","LANDMARKCO":"203","LANDMARKNA":"縣立卑南國小","LANDMARKAD":"1001401","ADDRESS":"台東縣台東市卑南里更生北路317號","TEL":"089-223096","COUNTYNAME":"台東縣","TOWNNAME":"台東市","MARKTYPE":"992","Class":"2"},"geometry":{"x":262295.10620000027,"y":2520119.9824000001}},{"attributes":{"OBJECTID":3138,"LANDMARKID":"1001400000335","LANDMARKCO":"203","LANDMARKNA":"縣立南王國小","LANDMARKAD":"1001401","ADDRESS":"台東縣台東市南王里更生北路726號","TEL":"089-223203","COUNTYNAME":"台東縣","TOWNNAME":"台東市","MARKTYPE":"992","Class":"2"},"geometry":{"x":261674.1819000002,"y":2520839.8050999995}},{"attributes":{"OBJECTID":3139,"LANDMARKID":"1001400000336","LANDMARKCO":"203","LANDMARKNA":"縣立新生國小","LANDMARKAD":"1001401","ADDRESS":"台東縣台東市更生路474巷45號","TEL":"089-322039","COUNTYNAME":"台東縣","TOWNNAME":"台東市","MARKTYPE":"992","Class":"2"},"geometry":{"x":264630.02379999962,"y":2518169.9283000007}},{"attributes":{"OBJECTID":3140,"LANDMARKID":"1001400000337","LANDMARKCO":"203","LANDMARKNA":"縣立富岡國小","LANDMARKAD":"1001401","ADDRESS":"台東縣台東市松江路一段441號","TEL":"089-281352","COUNTYNAME":"台東縣","TOWNNAME":"台東市","MARKTYPE":"992","Class":"2"},"geometry":{"x":269935.17760000005,"y":2521669.6714999992}},{"attributes":{"OBJECTID":3141,"LANDMARKID":"1001400000338","LANDMARKCO":"203","LANDMARKNA":"縣立知本國小","LANDMARKAD":"1001401","ADDRESS":"台東縣台東市知本路三段107號","TEL":"089-512234","COUNTYNAME":"台東縣","TOWNNAME":"台東市","MARKTYPE":"992","Class":"2"},"geometry":{"x":255581.1015999997,"y":2511649.9497999996}},{"attributes":{"OBJECTID":3142,"LANDMARKID":"1001400000339","LANDMARKCO":"203","LANDMARKNA":"縣立東海國小","LANDMARKAD":"1001401","ADDRESS":"台東縣台東市長沙街329號","TEL":"089-350879","COUNTYNAME":"台東縣","TOWNNAME":"台東市","MARKTYPE":"992","Class":"2"},"geometry":{"x":264370.21989999991,"y":2516839.9071999993}},{"attributes":{"OBJECTID":3143,"LANDMARKID":"1001400000340","LANDMARKCO":"203","LANDMARKNA":"縣立建和國小","LANDMARKAD":"1001401","ADDRESS":"台東縣台東市青海路三段640號","TEL":"089-512381","COUNTYNAME":"台東縣","TOWNNAME":"台東市","MARKTYPE":"992","Class":"2"},"geometry":{"x":255005.09439999983,"y":2512889.9573999997}},{"attributes":{"OBJECTID":3144,"LANDMARKID":"1001400000341","LANDMARKCO":"203","LANDMARKNA":"縣立寶桑國小","LANDMARKAD":"1001401","ADDRESS":"台東縣台東市四維路二段23號","TEL":"089-322807","COUNTYNAME":"台東縣","TOWNNAME":"台東市","MARKTYPE":"992","Class":"2"},"geometry":{"x":265512.14429999981,"y":2517979.8970999997}},{"attributes":{"OBJECTID":3145,"LANDMARKID":"1001400000342","LANDMARKCO":"203","LANDMARKNA":"國立台東大學附設實驗國民小學","LANDMARKAD":"1001401","ADDRESS":"台東縣台東市博愛路345號","TEL":"089-322047","COUNTYNAME":"台東縣","TOWNNAME":"台東市","MARKTYPE":"992","Class":"2"},"geometry":{"x":265110.27280000038,"y":2517189.7355000004}},{"attributes":{"OBJECTID":3146,"LANDMARKID":"1001400000343","LANDMARKCO":"203","LANDMARKNA":"縣立馬蘭國小","LANDMARKAD":"1001401","ADDRESS":"台東縣台東市馬蘭里新社三街6號","TEL":"089-229437","COUNTYNAME":"台東縣","TOWNNAME":"台東市","MARKTYPE":"992","Class":"2"},"geometry":{"x":263919.16970000044,"y":2518329.8010000009}},{"attributes":{"OBJECTID":3147,"LANDMARKID":"1001400000344","LANDMARKCO":"203","LANDMARKNA":"縣立新園國小","LANDMARKAD":"1001401","ADDRESS":"台東縣台東市新園路88號","TEL":"089-382590","COUNTYNAME":"台東縣","TOWNNAME":"台東市","MARKTYPE":"992","Class":"2"},"geometry":{"x":256436.05950000044,"y":2518279.9401999991}},{"attributes":{"OBJECTID":3148,"LANDMARKID":"1001400000345","LANDMARKCO":"203","LANDMARKNA":"縣立康樂國小","LANDMARKAD":"1001401","ADDRESS":"台東縣台東市山西路一段256號","TEL":"089-226131","COUNTYNAME":"台東縣","TOWNNAME":"台東市","MARKTYPE":"992","Class":"2"},"geometry":{"x":262205.21439999994,"y":2517179.8293999992}},{"attributes":{"OBJECTID":3149,"LANDMARKID":"1001400000346","LANDMARKCO":"203","LANDMARKNA":"縣立復興國小","LANDMARKAD":"1001401","ADDRESS":"台東縣台東市鐵花路87巷55號","TEL":"089-322672","COUNTYNAME":"台東縣","TOWNNAME":"台東市","MARKTYPE":"992","Class":"2"},"geometry":{"x":265632.28430000041,"y":2516269.7762000002}},{"attributes":{"OBJECTID":3150,"LANDMARKID":"1001400000213","LANDMARKCO":"201","LANDMARKNA":"國立台東師範學院","LANDMARKAD":"1001401","ADDRESS":"台東縣台東市中華路一段684號","TEL":"089-318855","COUNTYNAME":"台東縣","TOWNNAME":"台東市","MARKTYPE":"992","Class":"2"},"geometry":{"x":265112.24799999967,"y":2516549.7342000008}},{"attributes":{"OBJECTID":3151,"LANDMARKID":"1001400000214","LANDMARKCO":"201","LANDMARKNA":"國立台東大學","LANDMARKAD":"1001401","ADDRESS":"台東縣台東市中華路一段684號","TEL":"089-318855","COUNTYNAME":"台東縣","TOWNNAME":"台東市","MARKTYPE":"992","Class":"2"},"geometry":{"x":265027.1305999998,"y":2516739.8181999996}},{"attributes":{"OBJECTID":3152,"LANDMARKID":"1001400000215","LANDMARKCO":"201","LANDMARKNA":"國立台東專科學校","LANDMARKAD":"1001401","ADDRESS":"台東縣台東市正氣北路889號","TEL":"089-226389","COUNTYNAME":"台東縣","TOWNNAME":"台東市","MARKTYPE":"992","Class":"2"},"geometry":{"x":262738.22539999988,"y":2517489.8521999996}},{"attributes":{"OBJECTID":3153,"LANDMARKID":"1001400000460","LANDMARKCO":"305","LANDMARKNA":"富岡漁港","LANDMARKAD":"1001401","ADDRESS":"台東縣台東市","TEL":" ","COUNTYNAME":"台東縣","TOWNNAME":"台東市","MARKTYPE":"993","Class":"305"},"geometry":{"x":269758.91349999979,"y":2521165.4344999995}},{"attributes":{"OBJECTID":3154,"LANDMARKID":"1001400000459","LANDMARKCO":"304","LANDMARKNA":"台東航空站-台東豐年機場","LANDMARKAD":"1001401","ADDRESS":"台東縣台東市民航路1100號","TEL":" ","COUNTYNAME":"台東縣","TOWNNAME":"台東市","MARKTYPE":"993","Class":"304"},"geometry":{"x":260535.59619999956,"y":2517161.0254999995}},{"attributes":{"OBJECTID":3155,"LANDMARKID":"1001400000423","LANDMARKCO":"302","LANDMARKNA":"國光汽車客運台東站","LANDMARKAD":"1001401","ADDRESS":"台東縣台東市鐵花里5鄰新生路93號","TEL":" ","COUNTYNAME":"台東縣","TOWNNAME":"台東市","MARKTYPE":"993","Class":"302"},"geometry":{"x":265199.54250000045,"y":2516879.1221999992}},{"attributes":{"OBJECTID":3156,"LANDMARKID":"1001400000424","LANDMARKCO":"303","LANDMARKNA":"卑南文化公園停車場","LANDMARKAD":"1001401","ADDRESS":"台東縣台東市文化公園路200號","TEL":" ","COUNTYNAME":"台東縣","TOWNNAME":"台東市","MARKTYPE":"993","Class":"303"},"geometry":{"x":261864.2081000004,"y":2521239.8288000003}},{"attributes":{"OBJECTID":3157,"LANDMARKID":"1001400000425","LANDMARKCO":"303","LANDMARKNA":"琵琶湖停車場","LANDMARKAD":"1001401","ADDRESS":"台東縣台東市台東森林公園內","TEL":" ","COUNTYNAME":"台東縣","TOWNNAME":"台東市","MARKTYPE":"993","Class":"303"},"geometry":{"x":266265.5728000002,"y":2518099.8909000009}},{"attributes":{"OBJECTID":3158,"LANDMARKID":"1001400000426","LANDMARKCO":"303","LANDMARKNA":"豐年機場停車場","LANDMARKAD":"1001401","ADDRESS":"台東縣台東市","TEL":" ","COUNTYNAME":"台東縣","TOWNNAME":"台東市","MARKTYPE":"993","Class":"303"},"geometry":{"x":261117.05570000038,"y":2517272.7328999992}},{"attributes":{"OBJECTID":3159,"LANDMARKID":"1001400000427","LANDMARKCO":"303","LANDMARKNA":"小野柳遊憩區停車場","LANDMARKAD":"1001401","ADDRESS":"台東縣台東市松江路一段500號","TEL":" ","COUNTYNAME":"台東縣","TOWNNAME":"台東市","MARKTYPE":"993","Class":"303"},"geometry":{"x":269952.01040000003,"y":2521486.4634000007}},{"attributes":{"OBJECTID":3160,"LANDMARKID":"1001400000428","LANDMARKCO":"303","LANDMARKNA":"台東市新生地下停車場","LANDMARKAD":"1001401","ADDRESS":"台東縣台東市新生路105號","TEL":" ","COUNTYNAME":"台東縣","TOWNNAME":"台東市","MARKTYPE":"993","Class":"303"},"geometry":{"x":265137.86160000041,"y":2516952.1963999998}},{"attributes":{"OBJECTID":3161,"LANDMARKID":"1001400000393","LANDMARKCO":"301","LANDMARKNA":"馬蘭火車站(閒)","LANDMARKAD":"1001401","ADDRESS":"台東縣台東市","TEL":" ","COUNTYNAME":"台東縣","TOWNNAME":"台東市","MARKTYPE":"993","Class":"301"},"geometry":{"x":263253.93520000018,"y":2518279.8329000007}},{"attributes":{"OBJECTID":3162,"LANDMARKID":"1001400000394","LANDMARKCO":"301","LANDMARKNA":"台東火車站","LANDMARKAD":"1001401","ADDRESS":"台東縣台東市","TEL":"089-229687","COUNTYNAME":"台東縣","TOWNNAME":"台東市","MARKTYPE":"993","Class":"301"},"geometry":{"x":265105.04009999987,"y":2516811.3329000007}},{"attributes":{"OBJECTID":3163,"LANDMARKID":"1001400000395","LANDMARKCO":"301","LANDMARKNA":"台東新火車站","LANDMARKAD":"1001401","ADDRESS":"台東縣台東市岩灣路101巷598號","TEL":" ","COUNTYNAME":"台東縣","TOWNNAME":"台東市","MARKTYPE":"993","Class":"301"},"geometry":{"x":262647.08019999973,"y":2521422.7374000009}},{"attributes":{"OBJECTID":3164,"LANDMARKID":"1001400000396","LANDMARKCO":"301","LANDMARKNA":"知本火車站","LANDMARKAD":"1001401","ADDRESS":"台東縣台東市知本路二段900巷85號","TEL":"089-514482","COUNTYNAME":"台東縣","TOWNNAME":"台東市","MARKTYPE":"993","Class":"301"},"geometry":{"x":256233.60610000044,"y":2512191.3165000007}},{"attributes":{"OBJECTID":3165,"LANDMARKID":"1001400000397","LANDMARKCO":"301","LANDMARKNA":"康樂火車站","LANDMARKAD":"1001401","ADDRESS":"台東市博物館路51巷131號","TEL":"089-383107","COUNTYNAME":"台東縣","TOWNNAME":"台東市","MARKTYPE":"993","Class":"301"},"geometry":{"x":259550.3881000001,"y":2518213.7918999996}},{"attributes":{"OBJECTID":3166,"LANDMARKID":"1001400000477","LANDMARKCO":"402","LANDMARKNA":"中華電信-知本服務中心","LANDMARKAD":"1001401","ADDRESS":"台東市青海路四段271巷11號","TEL":"(089)512-874","COUNTYNAME":"台東縣","TOWNNAME":"台東市","MARKTYPE":"994","Class":"4"},"geometry":{"x":254510.20859999955,"y":2512232.0041000005}},{"attributes":{"OBJECTID":3167,"LANDMARKID":"1001400000478","LANDMARKCO":"402","LANDMARKNA":"中華電信-台東服務中心","LANDMARKAD":"1001401","ADDRESS":"台東縣台東市大同路128號","TEL":"123或0800-080-123","COUNTYNAME":"台東縣","TOWNNAME":"台東市","MARKTYPE":"994","Class":"4"},"geometry":{"x":265762.20820000023,"y":2516972.0600000005}},{"attributes":{"OBJECTID":3168,"LANDMARKID":"1001400000479","LANDMARKCO":"402","LANDMARKNA":"中華電信-台東新生特約服務中心","LANDMARKAD":"1001401","ADDRESS":"台東縣台東市新生路195號","TEL":"089-359898","COUNTYNAME":"台東縣","TOWNNAME":"台東市","MARKTYPE":"994","Class":"4"},"geometry":{"x":264875.81950000022,"y":2517204.0660999995}},{"attributes":{"OBJECTID":3169,"LANDMARKID":"1001400000480","LANDMARKCO":"402","LANDMARKNA":"遠傳電信-台東中華門市","LANDMARKAD":"1001401","ADDRESS":"台東縣台東市中華路一段342號","TEL":" ","COUNTYNAME":"台東縣","TOWNNAME":"台東市","MARKTYPE":"994","Class":"4"},"geometry":{"x":265784.18560000043,"y":2517151.9958999995}},{"attributes":{"OBJECTID":3170,"LANDMARKID":"1001400000481","LANDMARKCO":"402","LANDMARKNA":"威寶電信-台東中華特約服務中心","LANDMARKAD":"1001401","ADDRESS":"台東市中華路一段465號","TEL":"089-342731","COUNTYNAME":"台東縣","TOWNNAME":"台東市","MARKTYPE":"994","Class":"4"},"geometry":{"x":265549.93709999975,"y":2516875.8764999993}},{"attributes":{"OBJECTID":3171,"LANDMARKID":"1001400000482","LANDMARKCO":"402","LANDMARKNA":"威寶電信-台東新生特約服務中心","LANDMARKAD":"1001401","ADDRESS":"台東市新生路232號","TEL":"089-350789","COUNTYNAME":"台東縣","TOWNNAME":"台東市","MARKTYPE":"994","Class":"4"},"geometry":{"x":264973.38279999979,"y":2517127.3303999994}},{"attributes":{"OBJECTID":3172,"LANDMARKID":"1001400000709","LANDMARKCO":"603","LANDMARKNA":"福康大飯店","LANDMARKAD":"1001401","ADDRESS":"台東縣台東市更生路50巷28號1-7樓","TEL":"089-355811","COUNTYNAME":"台東縣","TOWNNAME":"台東市","MARKTYPE":"996","Class":"6"},"geometry":{"x":265515.52139999997,"y":2517363.5305000003}},{"attributes":{"OBJECTID":3173,"LANDMARKID":"1001400000784","LANDMARKCO":"604","LANDMARKNA":"福圓民宿","LANDMARKAD":"1001401","ADDRESS":"台東縣台東市長沙街372巷6號","TEL":"089-329424","COUNTYNAME":"台東縣","TOWNNAME":"台東市","MARKTYPE":"996","Class":"6"},"geometry":{"x":264421.17430000007,"y":2517021.2592999991}},{"attributes":{"OBJECTID":3174,"LANDMARKID":"1001400000785","LANDMARKCO":"604","LANDMARKNA":"普優瑪民宿","LANDMARKAD":"1001401","ADDRESS":"台東縣台東市更生北路731巷17號2樓","TEL":"089-355062","COUNTYNAME":"台東縣","TOWNNAME":"台東市","MARKTYPE":"996","Class":"6"},"geometry":{"x":261563.66449999996,"y":2520670.6129999999}},{"attributes":{"OBJECTID":3175,"LANDMARKID":"1001400000786","LANDMARKCO":"604","LANDMARKNA":"伯陽居民宿","LANDMARKAD":"1001401","ADDRESS":"台東縣台東市更生路776巷1號","TEL":"089-222849","COUNTYNAME":"台東縣","TOWNNAME":"台東市","MARKTYPE":"996","Class":"6"},"geometry":{"x":263985.65469999984,"y":2518667.5471000001}},{"attributes":{"OBJECTID":3176,"LANDMARKID":"1001400000710","LANDMARKCO":"603","LANDMARKNA":"洋洲大飯店","LANDMARKAD":"1001401","ADDRESS":"台東縣台東市光明路90號","TEL":"089-322230","COUNTYNAME":"台東縣","TOWNNAME":"台東市","MARKTYPE":"996","Class":"6"},"geometry":{"x":265689.59140000027,"y":2517295.4316000007}},{"attributes":{"OBJECTID":3177,"LANDMARKID":"1001400000711","LANDMARKCO":"603","LANDMARKNA":"世紀旅社","LANDMARKAD":"1001401","ADDRESS":"台東縣台東市安慶街125號1","TEL":"2樓","COUNTYNAME":"台東縣","TOWNNAME":"台東市","MARKTYPE":"996","Class":"6"},"geometry":{"x":265382.02199999988,"y":2516788.2245000005}},{"attributes":{"OBJECTID":3178,"LANDMARKID":"1001400000712","LANDMARKCO":"603","LANDMARKNA":"千歲門大飯店 (旅行家)","LANDMARKAD":"1001401","ADDRESS":"台東縣台東市安慶街42號","TEL":"089-326456","COUNTYNAME":"台東縣","TOWNNAME":"台東市","MARKTYPE":"996","Class":"6"},"geometry":{"x":265527.23450000025,"y":2516947.6293000001}},{"attributes":{"OBJECTID":3179,"LANDMARKID":"1001400000713","LANDMARKCO":"603","LANDMARKNA":"貴族汽車旅館","LANDMARKAD":"1001401","ADDRESS":"台東縣台東市更生路1049號","TEL":"089-238199","COUNTYNAME":"台東縣","TOWNNAME":"台東市","MARKTYPE":"996","Class":"6"},"geometry":{"x":263442.40539999958,"y":2519115.8217999991}},{"attributes":{"OBJECTID":3180,"LANDMARKID":"1001400000714","LANDMARKCO":"603","LANDMARKNA":"玉山大旅社","LANDMARKAD":"1001401","ADDRESS":"台東縣台東市更生路163號","TEL":"089-322925","COUNTYNAME":"台東縣","TOWNNAME":"台東市","MARKTYPE":"996","Class":"6"},"geometry":{"x":264316.70179999992,"y":2518242.2770000007}},{"attributes":{"OBJECTID":3181,"LANDMARKID":"1001400000715","LANDMARKCO":"603","LANDMARKNA":"蘋果飯店","LANDMARKAD":"1001401","ADDRESS":"台東縣台東市中華路一段857號","TEL":"089-318928","COUNTYNAME":"台東縣","TOWNNAME":"台東市","MARKTYPE":"996","Class":"6"},"geometry":{"x":264741.04899999965,"y":2516265.9100000001}},{"attributes":{"OBJECTID":3182,"LANDMARKID":"1001400000716","LANDMARKCO":"603","LANDMARKNA":"來來汽車旅館","LANDMARKAD":"1001401","ADDRESS":"台東縣台東市中華路二段176號","TEL":"089-351086-7","COUNTYNAME":"台東縣","TOWNNAME":"台東市","MARKTYPE":"996","Class":"6"},"geometry":{"x":264241.80250000022,"y":2516027.0851000007}},{"attributes":{"OBJECTID":3183,"LANDMARKID":"1001400000717","LANDMARKCO":"603","LANDMARKNA":"夏威宜汽車旅館","LANDMARKAD":"1001401","ADDRESS":"台東縣台東市中華路三段77號","TEL":"089-329799","COUNTYNAME":"台東縣","TOWNNAME":"台東市","MARKTYPE":"996","Class":"6"},"geometry":{"x":262281.55119999964,"y":2514958.2875999995}},{"attributes":{"OBJECTID":3184,"LANDMARKID":"1001400000718","LANDMARKCO":"603","LANDMARKNA":"舵戀山藝術休閒旅館","LANDMARKAD":"1001401","ADDRESS":"台東縣台東市中興路一段110號3-5樓","TEL":"089-233060","COUNTYNAME":"台東縣","TOWNNAME":"台東市","MARKTYPE":"996","Class":"6"},"geometry":{"x":264863.63580000028,"y":2518622.9585999995}},{"attributes":{"OBJECTID":3185,"LANDMARKID":"1001400000719","LANDMARKCO":"603","LANDMARKNA":"康橋大飯店-台東店","LANDMARKAD":"1001401","ADDRESS":"台東縣台東市中興路一段209巷16號1-7樓","TEL":"089-229226","COUNTYNAME":"台東縣","TOWNNAME":"台東市","MARKTYPE":"996","Class":"6"},"geometry":{"x":264595.10699999984,"y":2518551.0407999996}},{"attributes":{"OBJECTID":3186,"LANDMARKID":"1001400000720","LANDMARKCO":"603","LANDMARKNA":"南榮旅社","LANDMARKAD":"1001401","ADDRESS":"台東縣台東市正氣路147號","TEL":"089-322270","COUNTYNAME":"台東縣","TOWNNAME":"台東市","MARKTYPE":"996","Class":"6"},"geometry":{"x":265662.70210000034,"y":2516804.5665000007}},{"attributes":{"OBJECTID":3187,"LANDMARKID":"1001400000721","LANDMARKCO":"603","LANDMARKNA":"富岡旅社","LANDMARKAD":"1001401","ADDRESS":"台東縣台東市松江路一段69號","TEL":"089-281236","COUNTYNAME":"台東縣","TOWNNAME":"台東市","MARKTYPE":"996","Class":"6"},"geometry":{"x":269226.42399999965,"y":2521430.4297000002}},{"attributes":{"OBJECTID":3188,"LANDMARKID":"1001400000722","LANDMARKCO":"603","LANDMARKNA":"民橋大飯店","LANDMARKAD":"1001401","ADDRESS":"台東縣台東市知本路二段898號","TEL":"089-510528","COUNTYNAME":"台東縣","TOWNNAME":"台東市","MARKTYPE":"996","Class":"6"},"geometry":{"x":256179.28299999982,"y":2512108.5645000003}},{"attributes":{"OBJECTID":3189,"LANDMARKID":"1001400000723","LANDMARKCO":"603","LANDMARKNA":"皇家庭園汽車旅館","LANDMARKAD":"1001401","ADDRESS":"台東縣台東市南一街52號","TEL":"089-230312","COUNTYNAME":"台東縣","TOWNNAME":"台東市","MARKTYPE":"996","Class":"6"},"geometry":{"x":262789.79729999974,"y":2519680.5891999993}},{"attributes":{"OBJECTID":3190,"LANDMARKID":"1001400000724","LANDMARKCO":"603","LANDMARKNA":"皇賓旅社","LANDMARKAD":"1001401","ADDRESS":"台東縣台東市富岡街135號","TEL":"089-281377","COUNTYNAME":"台東縣","TOWNNAME":"台東市","MARKTYPE":"996","Class":"6"},"geometry":{"x":269369.95569999982,"y":2521371.6317999996}},{"attributes":{"OBJECTID":3191,"LANDMARKID":"1001400000725","LANDMARKCO":"603","LANDMARKNA":"濠景大飯店","LANDMARKAD":"1001401","ADDRESS":"台東縣台東市富貴街69號","TEL":"089-511511","COUNTYNAME":"台東縣","TOWNNAME":"台東市","MARKTYPE":"996","Class":"6"},"geometry":{"x":253979.27120000031,"y":2511702.4596999995}},{"attributes":{"OBJECTID":3192,"LANDMARKID":"1001400000726","LANDMARKCO":"603","LANDMARKNA":"凱悅大飯店","LANDMARKAD":"1001401","ADDRESS":"台東縣台東市富貴街69號1樓之2-5","TEL":"089-510303","COUNTYNAME":"台東縣","TOWNNAME":"台東市","MARKTYPE":"996","Class":"6"},"geometry":{"x":253979.27120000031,"y":2511702.4596999995}},{"attributes":{"OBJECTID":3193,"LANDMARKID":"1001400000727","LANDMARKCO":"603","LANDMARKNA":"統一大旅社","LANDMARKAD":"1001401","ADDRESS":"台東縣台東市新生路120號","TEL":"089-322176","COUNTYNAME":"台東縣","TOWNNAME":"台東市","MARKTYPE":"996","Class":"6"},"geometry":{"x":265254.05740000028,"y":2516883.2305999994}},{"attributes":{"OBJECTID":3194,"LANDMARKID":"1001400000728","LANDMARKCO":"603","LANDMARKNA":"金安旅社","LANDMARKAD":"1001401","ADDRESS":"台東縣台東市新生路96號","TEL":"089-331168","COUNTYNAME":"台東縣","TOWNNAME":"台東市","MARKTYPE":"996","Class":"6"},"geometry":{"x":265291.74839999992,"y":2516835.6168000009}},{"attributes":{"OBJECTID":3195,"LANDMARKID":"1001400000729","LANDMARKCO":"603","LANDMARKNA":"國都大旅社","LANDMARKAD":"1001401","ADDRESS":"台東縣台東市福建路178號","TEL":"089-322733","COUNTYNAME":"台東縣","TOWNNAME":"台東市","MARKTYPE":"996","Class":"6"},"geometry":{"x":265775.36440000031,"y":2516859.3369999994}},{"attributes":{"OBJECTID":3196,"LANDMARKID":"1001400000730","LANDMARKCO":"603","LANDMARKNA":"東成大旅社","LANDMARKAD":"1001401","ADDRESS":"台東縣台東市福建路243號","TEL":"089-322348","COUNTYNAME":"台東縣","TOWNNAME":"台東市","MARKTYPE":"996","Class":"6"},"geometry":{"x":265564.21250000037,"y":2516764.4823000003}},{"attributes":{"OBJECTID":3197,"LANDMARKID":"1001400000731","LANDMARKCO":"603","LANDMARKNA":"皇冠大旅社","LANDMARKAD":"1001401","ADDRESS":"台東縣台東市福建路258號","TEL":"089-323911","COUNTYNAME":"台東縣","TOWNNAME":"台東市","MARKTYPE":"996","Class":"6"},"geometry":{"x":265526.21329999994,"y":2516742.4471000005}},{"attributes":{"OBJECTID":3198,"LANDMARKID":"1001400000732","LANDMARKCO":"603","LANDMARKNA":"陽光假期飯店","LANDMARKAD":"1001401","ADDRESS":"台東縣台東市鄭州街11號3-7樓","TEL":"089-351506","COUNTYNAME":"台東縣","TOWNNAME":"台東市","MARKTYPE":"996","Class":"6"},"geometry":{"x":264817.3069000002,"y":2517887.4364999998}},{"attributes":{"OBJECTID":3199,"LANDMARKID":"1001400000733","LANDMARKCO":"603","LANDMARKNA":"金龍大旅社","LANDMARKAD":"1001401","ADDRESS":"台東縣台東市鐵花路284號","TEL":"089-310151","COUNTYNAME":"台東縣","TOWNNAME":"台東市","MARKTYPE":"996","Class":"6"},"geometry":{"x":265255.08440000005,"y":2516751.7943999991}},{"attributes":{"OBJECTID":3200,"LANDMARKID":"1001400000734","LANDMARKCO":"603","LANDMARKNA":"聯亞大飯店","LANDMARKAD":"1001401","ADDRESS":"台東縣台東市鐵花路296號","TEL":"089-332135","COUNTYNAME":"台東縣","TOWNNAME":"台東市","MARKTYPE":"996","Class":"6"},"geometry":{"x":265227.14989999961,"y":2516781.3593000006}}]}