{"displayFieldName":"COUNTYNAME","fieldAliases":{"OBJECTID":"OBJECTID","LANDMARKID":"LANDMARKID","LANDMARKCO":"LANDMARKCO","LANDMARKNA":"LANDMARKNA","LANDMARKAD":"LANDMARKAD","ADDRESS":"ADDRESS","TEL":"TEL","COUNTYNAME":"COUNTYNAME","TOWNNAME":"TOWNNAME","MARKTYPE":"MARKTYPE","Class":"Class"},"geometryType":"esriGeometryPoint","spatialReference":{"wkid":4326},"fields":[{"name":"OBJECTID","type":"esriFieldTypeOID","alias":"OBJECTID"},{"name":"LANDMARKID","type":"esriFieldTypeString","alias":"LANDMARKID","length":15},{"name":"LANDMARKCO","type":"esriFieldTypeString","alias":"LANDMARKCO","length":15},{"name":"LANDMARKNA","type":"esriFieldTypeString","alias":"LANDMARKNA","length":50},{"name":"LANDMARKAD","type":"esriFieldTypeString","alias":"LANDMARKAD","length":15},{"name":"ADDRESS","type":"esriFieldTypeString","alias":"ADDRESS","length":56},{"name":"TEL","type":"esriFieldTypeString","alias":"TEL","length":36},{"name":"COUNTYNAME","type":"esriFieldTypeString","alias":"COUNTYNAME","length":15},{"name":"TOWNNAME","type":"esriFieldTypeString","alias":"TOWNNAME","length":13},{"name":"MARKTYPE","type":"esriFieldTypeString","alias":"MARKTYPE","length":12},{"name":"Class","type":"esriFieldTypeString","alias":"Class","length":5}],"features":[{"attributes":{"OBJECTID":5401,"LANDMARKID":"1000100001686","LANDMARKCO":"402","LANDMARKNA":"My Phone台灣大哥大-中和中和直營服務中心","LANDMARKAD":"1000103","ADDRESS":"新北市中和區中和路304號","TEL":"0809-000-166","COUNTYNAME":"新北市","TOWNNAME":"中和區","MARKTYPE":"994","Class":"4"},"geometry":{"x":121.50893205751076,"y":25.000043235877047}},{"attributes":{"OBJECTID":5402,"LANDMARKID":"1000100001687","LANDMARKCO":"402","LANDMARKNA":"亞太行動寬頻電信-中和中山二加盟服務中心","LANDMARKAD":"1000103","ADDRESS":"新北市中和區中山路二段473號","TEL":"02-22250089","COUNTYNAME":"新北市","TOWNNAME":"中和區","MARKTYPE":"994","Class":"4"},"geometry":{"x":121.48333043555176,"y":25.004861492378808}},{"attributes":{"OBJECTID":5403,"LANDMARKID":"1000100001688","LANDMARKCO":"402","LANDMARKNA":"亞太行動寬頻電信-中和南勢角加盟服務中心","LANDMARKAD":"1000103","ADDRESS":"新北市中和區安樂路46號","TEL":"02-29428399","COUNTYNAME":"新北市","TOWNNAME":"中和區","MARKTYPE":"994","Class":"4"},"geometry":{"x":121.51203788035419,"y":24.992899214466917}},{"attributes":{"OBJECTID":5404,"LANDMARKID":"1000100001689","LANDMARKCO":"402","LANDMARKNA":"亞太行動寬頻電信-中和景安加盟服務中心","LANDMARKAD":"1000103","ADDRESS":"新北市中和區景安路247號","TEL":"02-86689166","COUNTYNAME":"新北市","TOWNNAME":"中和區","MARKTYPE":"994","Class":"4"},"geometry":{"x":121.50408686922506,"y":24.990740313436866}},{"attributes":{"OBJECTID":5405,"LANDMARKID":"1000100001690","LANDMARKCO":"402","LANDMARKNA":"亞太行動寬頻電信-中和中山加盟服務中心","LANDMARKAD":"1000103","ADDRESS":"新北市中和區中山路二段226號","TEL":"02-22466799","COUNTYNAME":"新北市","TOWNNAME":"中和區","MARKTYPE":"994","Class":"4"},"geometry":{"x":121.49932479986238,"y":25.002761225654574}},{"attributes":{"OBJECTID":5406,"LANDMARKID":"1000100001612","LANDMARKCO":"401","LANDMARKNA":"誠泰醫院","LANDMARKAD":"1000103","ADDRESS":"新北市中和區連城路501號","TEL":"02-22236515","COUNTYNAME":"新北市","TOWNNAME":"中和區","MARKTYPE":"994","Class":"4"},"geometry":{"x":121.48262530729565,"y":24.995404496085651}},{"attributes":{"OBJECTID":5407,"LANDMARKID":"1000100001613","LANDMARKCO":"401","LANDMARKNA":"怡和醫院","LANDMARKAD":"1000103","ADDRESS":"新北市中和區連城路49號","TEL":"02-22450009","COUNTYNAME":"新北市","TOWNNAME":"中和區","MARKTYPE":"994","Class":"4"},"geometry":{"x":121.49851521879835,"y":25.001881885450885}},{"attributes":{"OBJECTID":5408,"LANDMARKID":"1000100001614","LANDMARKCO":"401","LANDMARKNA":"春暉醫院","LANDMARKAD":"1000103","ADDRESS":"新北市中和區中山路二段551號","TEL":"02-32346688","COUNTYNAME":"新北市","TOWNNAME":"中和區","MARKTYPE":"994","Class":"4"},"geometry":{"x":121.48093734169825,"y":25.005436760264828}},{"attributes":{"OBJECTID":5409,"LANDMARKID":"1000100001615","LANDMARKCO":"401","LANDMARKNA":"祥顥醫院","LANDMARKAD":"1000103","ADDRESS":"新北市中和區景平路412號","TEL":"02-29468795","COUNTYNAME":"新北市","TOWNNAME":"中和區","MARKTYPE":"994","Class":"4"},"geometry":{"x":121.50825700520774,"y":24.993294377534102}},{"attributes":{"OBJECTID":5410,"LANDMARKID":"1000100001616","LANDMARKCO":"401","LANDMARKNA":"行政院衛生署雙和醫院","LANDMARKAD":"1000103","ADDRESS":"新北市中和區中正路291號","TEL":"02-22490088","COUNTYNAME":"新北市","TOWNNAME":"中和區","MARKTYPE":"994","Class":"4"},"geometry":{"x":121.49392619929338,"y":24.99377892506655}},{"attributes":{"OBJECTID":5411,"LANDMARKID":"1000100001617","LANDMARKCO":"401","LANDMARKNA":"佑林醫院","LANDMARKAD":"1000103","ADDRESS":"新北市中和區中山路三段71號","TEL":"02-22250180","COUNTYNAME":"新北市","TOWNNAME":"中和區","MARKTYPE":"994","Class":"4"},"geometry":{"x":121.47635115903091,"y":25.005656046634545}},{"attributes":{"OBJECTID":5412,"LANDMARKID":"1000100001618","LANDMARKCO":"401","LANDMARKNA":"中祥醫院","LANDMARKAD":"1000103","ADDRESS":"新北市中和區中山路二段142號","TEL":"02-22405055","COUNTYNAME":"新北市","TOWNNAME":"中和區","MARKTYPE":"994","Class":"4"},"geometry":{"x":121.50197198655471,"y":25.003177009400304}},{"attributes":{"OBJECTID":5413,"LANDMARKID":"1000100001619","LANDMARKCO":"401","LANDMARKNA":"誠泰醫院","LANDMARKAD":"1000103","ADDRESS":"新北市中和區連城路497號","TEL":"02-22236515","COUNTYNAME":"新北市","TOWNNAME":"中和區","MARKTYPE":"994","Class":"4"},"geometry":{"x":121.48270476745427,"y":24.995431100756651}},{"attributes":{"OBJECTID":5414,"LANDMARKID":"1000100002277","LANDMARKCO":"408","LANDMARKNA":"郵局-中和郵局","LANDMARKAD":"1000103","ADDRESS":"新北市中和區民樂路17號","TEL":"(02)2222-4804","COUNTYNAME":"新北市","TOWNNAME":"中和區","MARKTYPE":"994","Class":"4"},"geometry":{"x":121.48228340694334,"y":25.00133830467604}},{"attributes":{"OBJECTID":5415,"LANDMARKID":"1000100002278","LANDMARKCO":"408","LANDMARKNA":"郵局-中和泰和街郵局","LANDMARKAD":"1000103","ADDRESS":"新北市中和區泰和街6號","TEL":"(02)2249-3114","COUNTYNAME":"新北市","TOWNNAME":"中和區","MARKTYPE":"994","Class":"4"},"geometry":{"x":121.49988703920269,"y":25.001231708842692}},{"attributes":{"OBJECTID":5416,"LANDMARKID":"1000100002279","LANDMARKCO":"408","LANDMARKNA":"郵局-中和中山路郵局","LANDMARKAD":"1000103","ADDRESS":"新北市中和區中山路2段362號","TEL":"(02)2240-0278","COUNTYNAME":"新北市","TOWNNAME":"中和區","MARKTYPE":"994","Class":"4"},"geometry":{"x":121.49258694052149,"y":25.002778663055153}},{"attributes":{"OBJECTID":5417,"LANDMARKID":"1000100002280","LANDMARKCO":"408","LANDMARKNA":"郵局-中和南勢角郵局","LANDMARKAD":"1000103","ADDRESS":"新北市中和區景新街442號","TEL":"(02)2942-1652","COUNTYNAME":"新北市","TOWNNAME":"中和區","MARKTYPE":"994","Class":"4"},"geometry":{"x":121.51318993771032,"y":24.988088346234736}},{"attributes":{"OBJECTID":5418,"LANDMARKID":"1000100002281","LANDMARKCO":"408","LANDMARKNA":"郵局-中和連城路郵局","LANDMARKAD":"1000103","ADDRESS":"新北市中和區連城路192-1號","TEL":"(02)2249-4358","COUNTYNAME":"新北市","TOWNNAME":"中和區","MARKTYPE":"994","Class":"4"},"geometry":{"x":121.49211667937308,"y":24.996787103590052}},{"attributes":{"OBJECTID":5419,"LANDMARKID":"1000100002282","LANDMARKCO":"408","LANDMARKNA":"郵局-中和中正路郵局","LANDMARKAD":"1000103","ADDRESS":"新北市中和區中正路277號1樓","TEL":"(02)2245-5356","COUNTYNAME":"新北市","TOWNNAME":"中和區","MARKTYPE":"994","Class":"4"},"geometry":{"x":121.49535224761877,"y":24.993678168733982}},{"attributes":{"OBJECTID":5420,"LANDMARKID":"1000100002283","LANDMARKCO":"408","LANDMARKNA":"郵局-中和秀山郵局","LANDMARKAD":"1000103","ADDRESS":"新北市中和區自立路147號","TEL":"(02)2946-5278","COUNTYNAME":"新北市","TOWNNAME":"中和區","MARKTYPE":"994","Class":"4"},"geometry":{"x":121.52256034865881,"y":24.993153575226557}},{"attributes":{"OBJECTID":5421,"LANDMARKID":"1000100002284","LANDMARKCO":"408","LANDMARKNA":"郵局-中和民富街郵局","LANDMARKAD":"1000103","ADDRESS":"新北市中和區中山路3段110號","TEL":"(02)2225-0253","COUNTYNAME":"新北市","TOWNNAME":"中和區","MARKTYPE":"994","Class":"4"},"geometry":{"x":121.47674365553647,"y":25.006448059453039}},{"attributes":{"OBJECTID":5422,"LANDMARKID":"1000100002285","LANDMARKCO":"408","LANDMARKNA":"郵局-中和宜安郵局","LANDMARKAD":"1000103","ADDRESS":"新北市中和區宜安路99號","TEL":"(02)2941-4979","COUNTYNAME":"新北市","TOWNNAME":"中和區","MARKTYPE":"994","Class":"4"},"geometry":{"x":121.51046853679786,"y":24.997568064899902}},{"attributes":{"OBJECTID":5423,"LANDMARKID":"1000100002286","LANDMARKCO":"408","LANDMARKNA":"郵局-中和國光街郵局","LANDMARKAD":"1000103","ADDRESS":"新北市中和區國光街159號1樓","TEL":"(02)2953-0456","COUNTYNAME":"新北市","TOWNNAME":"中和區","MARKTYPE":"994","Class":"4"},"geometry":{"x":121.46863042441083,"y":25.001164681201889}},{"attributes":{"OBJECTID":5424,"LANDMARKID":"1000100002287","LANDMARKCO":"408","LANDMARKNA":"郵局-中和大華郵局","LANDMARKAD":"1000103","ADDRESS":"新北市中和區中興街132號","TEL":"(02)2245-4264","COUNTYNAME":"新北市","TOWNNAME":"中和區","MARKTYPE":"994","Class":"4"},"geometry":{"x":121.49977917056177,"y":24.992303573442609}},{"attributes":{"OBJECTID":5425,"LANDMARKID":"1000100002474","LANDMARKCO":"409","LANDMARKNA":"新北市中和區農會","LANDMARKAD":"1000103","ADDRESS":"新北市中和區中和路35號","TEL":"02-22491000","COUNTYNAME":"新北市","TOWNNAME":"中和區","MARKTYPE":"994","Class":"4"},"geometry":{"x":121.50019876568845,"y":25.001586082413574}},{"attributes":{"OBJECTID":5426,"LANDMARKID":"1000100002118","LANDMARKCO":"406","LANDMARKNA":"中和區社區運動公園","LANDMARKAD":"1000103","ADDRESS":"新北市中和區","TEL":" ","COUNTYNAME":"新北市","TOWNNAME":"中和區","MARKTYPE":"994","Class":"4"},"geometry":{"x":121.49039848786505,"y":24.992052329562938}},{"attributes":{"OBJECTID":5427,"LANDMARKID":"1000100002119","LANDMARKCO":"406","LANDMARKNA":"清穗公園","LANDMARKAD":"1000103","ADDRESS":"新北市中和區","TEL":" ","COUNTYNAME":"新北市","TOWNNAME":"中和區","MARKTYPE":"994","Class":"4"},"geometry":{"x":121.46904363610372,"y":24.999564831036146}},{"attributes":{"OBJECTID":5428,"LANDMARKID":"1000100002120","LANDMARKCO":"406","LANDMARKNA":"民德公園","LANDMARKAD":"1000103","ADDRESS":"新北市中和區","TEL":" ","COUNTYNAME":"新北市","TOWNNAME":"中和區","MARKTYPE":"994","Class":"4"},"geometry":{"x":121.46923432289816,"y":24.998600234099762}},{"attributes":{"OBJECTID":5429,"LANDMARKID":"1000100002121","LANDMARKCO":"406","LANDMARKNA":"四號公園","LANDMARKAD":"1000103","ADDRESS":"新北市中和區","TEL":" ","COUNTYNAME":"新北市","TOWNNAME":"中和區","MARKTYPE":"994","Class":"4"},"geometry":{"x":121.51302014774438,"y":25.001224606297811}},{"attributes":{"OBJECTID":5430,"LANDMARKID":"1000100002274","LANDMARKCO":"407","LANDMARKNA":"小北百貨","LANDMARKAD":"1000103","ADDRESS":"新北市中和區民生街5號","TEL":"02-29525288","COUNTYNAME":"新北市","TOWNNAME":"中和區","MARKTYPE":"994","Class":"4"},"geometry":{"x":121.47118609189361,"y":25.006372777535503}},{"attributes":{"OBJECTID":5431,"LANDMARKID":"1000100002275","LANDMARKCO":"407","LANDMARKNA":"小北百貨","LANDMARKAD":"1000103","ADDRESS":"新北市中和區中正路221號","TEL":"02-22441077","COUNTYNAME":"新北市","TOWNNAME":"中和區","MARKTYPE":"994","Class":"4"},"geometry":{"x":121.49618855400534,"y":24.993638761156578}},{"attributes":{"OBJECTID":5432,"LANDMARKID":"1000100002276","LANDMARKCO":"407","LANDMARKNA":"環球購物中心","LANDMARKAD":"1000103","ADDRESS":"新北市中和區中山路三段122號","TEL":"02-77317999","COUNTYNAME":"新北市","TOWNNAME":"中和區","MARKTYPE":"994","Class":"4"},"geometry":{"x":121.4749351652702,"y":25.006159120554621}},{"attributes":{"OBJECTID":5433,"LANDMARKID":"1000100002112","LANDMARKCO":"405","LANDMARKNA":"台亞加油站-中和中山路站（台塑）","LANDMARKAD":"1000103","ADDRESS":"新北市中和區中山路二段486號","TEL":"(02)2225-7543","COUNTYNAME":"新北市","TOWNNAME":"中和區","MARKTYPE":"994","Class":"4"},"geometry":{"x":121.48752911573415,"y":25.005087457544143}},{"attributes":{"OBJECTID":5434,"LANDMARKID":"1000100002113","LANDMARKCO":"405","LANDMARKNA":"全國加油站-國揚站（台塑）","LANDMARKAD":"1000103","ADDRESS":"新北市中和區中正路830號","TEL":"02-82212026","COUNTYNAME":"新北市","TOWNNAME":"中和區","MARKTYPE":"994","Class":"4"},"geometry":{"x":121.48487945652127,"y":25.003956522987263}},{"attributes":{"OBJECTID":5435,"LANDMARKID":"1000100002114","LANDMARKCO":"405","LANDMARKNA":"台塑加油站-橋和站(台塑)","LANDMARKAD":"1000103","ADDRESS":"新北市中和區橋和路126號","TEL":"02-22443660","COUNTYNAME":"新北市","TOWNNAME":"中和區","MARKTYPE":"994","Class":"4"},"geometry":{"x":121.49307008752528,"y":25.005920809743095}},{"attributes":{"OBJECTID":5436,"LANDMARKID":"1000100002115","LANDMARKCO":"405","LANDMARKNA":"台亞加油站-中和建一路站（台塑）","LANDMARKAD":"1000103","ADDRESS":"新北市中和區建一路18號","TEL":"(02)8221-6358　","COUNTYNAME":"新北市","TOWNNAME":"中和區","MARKTYPE":"994","Class":"4"},"geometry":{"x":121.48778504359542,"y":25.003920874645956}},{"attributes":{"OBJECTID":5437,"LANDMARKID":"1000100002116","LANDMARKCO":"405","LANDMARKNA":"台亞加油站-中和橋和路站（台塑）","LANDMARKAD":"1000103","ADDRESS":"新北市中和區橋和路81號","TEL":"(02)2221-5322　","COUNTYNAME":"新北市","TOWNNAME":"中和區","MARKTYPE":"994","Class":"4"},"geometry":{"x":121.48938599885295,"y":25.005369920434124}},{"attributes":{"OBJECTID":5438,"LANDMARKID":"1000100002117","LANDMARKCO":"405","LANDMARKNA":"台亞加油站-中和健康路站（台塑）","LANDMARKAD":"1000103","ADDRESS":"新北市中和區建康路191號","TEL":"(02)3234-7434","COUNTYNAME":"新北市","TOWNNAME":"中和區","MARKTYPE":"994","Class":"4"},"geometry":{"x":121.49216140312869,"y":25.00039511928188}},{"attributes":{"OBJECTID":5439,"LANDMARKID":"1000100000063","LANDMARKCO":"103","LANDMARKNA":"新北市選舉委員會","LANDMARKAD":"1000103","ADDRESS":"新北市中和區光環路2段32號","TEL":"02-82211688","COUNTYNAME":"新北市","TOWNNAME":"中和區","MARKTYPE":"991","Class":"1"},"geometry":{"x":121.48415272548249,"y":25.013887889985671}},{"attributes":{"OBJECTID":5440,"LANDMARKID":"1000100000241","LANDMARKCO":"107","LANDMARKNA":"新北市消防局國光分隊","LANDMARKAD":"1000103","ADDRESS":"新北市中和區莒光路160之1號","TEL":"02-89513511","COUNTYNAME":"新北市","TOWNNAME":"中和區","MARKTYPE":"991","Class":"1"},"geometry":{"x":121.47259203842007,"y":24.99963139937185}},{"attributes":{"OBJECTID":5441,"LANDMARKID":"1000100000064","LANDMARKCO":"103","LANDMARKNA":"新北市中和巿衛生所","LANDMARKAD":"1000103","ADDRESS":"新北市中和區南山路4巷3號","TEL":"02-22491936","COUNTYNAME":"新北市","TOWNNAME":"中和區","MARKTYPE":"991","Class":"1"},"geometry":{"x":121.50164354400009,"y":24.998686678534757}},{"attributes":{"OBJECTID":5442,"LANDMARKID":"1000100000424","LANDMARKCO":"108","LANDMARKNA":"新北市中和區公所","LANDMARKAD":"1000103","ADDRESS":"新北市中和區景平路634之2號","TEL":"02-22482688","COUNTYNAME":"新北市","TOWNNAME":"中和區","MARKTYPE":"991","Class":"1"},"geometry":{"x":121.50074069126862,"y":24.998542272293875}},{"attributes":{"OBJECTID":5443,"LANDMARKID":"1000100000065","LANDMARKCO":"103","LANDMARKNA":"新北市中和區市民代表會","LANDMARKAD":"1000103","ADDRESS":"新北市中和區景平路634號之2，5樓","TEL":"02-22493516","COUNTYNAME":"新北市","TOWNNAME":"中和區","MARKTYPE":"991","Class":"1"},"geometry":{"x":121.50022769620989,"y":24.998102537241557}},{"attributes":{"OBJECTID":5444,"LANDMARKID":"1000100000248","LANDMARKCO":"107","LANDMARKNA":"新北市消防局新北市第一大隊部","LANDMARKAD":"1000103","ADDRESS":"新北市中和區中山路二段64巷11號2樓","TEL":"02-22422119","COUNTYNAME":"新北市","TOWNNAME":"中和區","MARKTYPE":"991","Class":"1"},"geometry":{"x":121.50322694713815,"y":25.005628042689299}},{"attributes":{"OBJECTID":5445,"LANDMARKID":"1000100000249","LANDMARKCO":"107","LANDMARKNA":"新北市消防局中和分隊","LANDMARKAD":"1000103","ADDRESS":"新北市中和區中山路二段64巷11號","TEL":"02-22491819","COUNTYNAME":"新北市","TOWNNAME":"中和區","MARKTYPE":"991","Class":"1"},"geometry":{"x":121.50322694713815,"y":25.005628042689299}},{"attributes":{"OBJECTID":5446,"LANDMARKID":"1000100000250","LANDMARKCO":"107","LANDMARKNA":"新北市消防局員山分隊","LANDMARKAD":"1000103","ADDRESS":"新北市中和區中正路1163號","TEL":"02-22259418","COUNTYNAME":"新北市","TOWNNAME":"中和區","MARKTYPE":"991","Class":"1"},"geometry":{"x":121.4816170992106,"y":25.009109174778196}},{"attributes":{"OBJECTID":5447,"LANDMARKID":"1000100000251","LANDMARKCO":"107","LANDMARKNA":"新北市消防局南勢分隊","LANDMARKAD":"1000103","ADDRESS":"新北市中和區南山路236號","TEL":"02-29440056","COUNTYNAME":"新北市","TOWNNAME":"中和區","MARKTYPE":"991","Class":"1"},"geometry":{"x":121.5065875935709,"y":24.989773964037106}},{"attributes":{"OBJECTID":5448,"LANDMARKID":"1000100000252","LANDMARKCO":"107","LANDMARKNA":"新北市政府警察局中和分局","LANDMARKAD":"1000103","ADDRESS":"新北市中和區興南里圓通路30號","TEL":"02-22498950","COUNTYNAME":"新北市","TOWNNAME":"中和區","MARKTYPE":"991","Class":"1"},"geometry":{"x":121.50102046434395,"y":24.997925213391948}},{"attributes":{"OBJECTID":5449,"LANDMARKID":"1000100000253","LANDMARKCO":"107","LANDMARKNA":"新北市政府警察局錦和派出所","LANDMARKAD":"1000103","ADDRESS":"新北市中和區力行里中正路275號","TEL":"02-22482551","COUNTYNAME":"新北市","TOWNNAME":"中和區","MARKTYPE":"991","Class":"1"},"geometry":{"x":121.4955794955678,"y":24.993660718007437}},{"attributes":{"OBJECTID":5450,"LANDMARKID":"1000100000254","LANDMARKCO":"107","LANDMARKNA":"新北市政府警察局國光派出所","LANDMARKAD":"1000103","ADDRESS":"新北市中和區莒光路160號","TEL":"02-29553199","COUNTYNAME":"新北市","TOWNNAME":"中和區","MARKTYPE":"991","Class":"1"},"geometry":{"x":121.47260108125822,"y":24.999657056731476}},{"attributes":{"OBJECTID":5451,"LANDMARKID":"1000100000255","LANDMARKCO":"107","LANDMARKNA":"新北市政府警察局南勢派出所","LANDMARKAD":"1000103","ADDRESS":"新北市中和區南山路322號","TEL":"02-29419445","COUNTYNAME":"新北市","TOWNNAME":"中和區","MARKTYPE":"991","Class":"1"},"geometry":{"x":121.50793774679536,"y":24.986514920249409}},{"attributes":{"OBJECTID":5452,"LANDMARKID":"1000100000256","LANDMARKCO":"107","LANDMARKNA":"新北市政府警察局中和派出所","LANDMARKAD":"1000103","ADDRESS":"新北市中和區中和路102之1號","TEL":"02-22489083","COUNTYNAME":"新北市","TOWNNAME":"中和區","MARKTYPE":"991","Class":"1"},"geometry":{"x":121.50247443227001,"y":24.999650895907472}},{"attributes":{"OBJECTID":5453,"LANDMARKID":"1000100000257","LANDMARKCO":"107","LANDMARKNA":"新北市政府警察局員山派出所","LANDMARKAD":"1000103","ADDRESS":"新北市中和區員山路235巷1號","TEL":"02-22237295","COUNTYNAME":"新北市","TOWNNAME":"中和區","MARKTYPE":"991","Class":"1"},"geometry":{"x":121.48091993682318,"y":24.998258236839828}},{"attributes":{"OBJECTID":5454,"LANDMARKID":"1000100000258","LANDMARKCO":"107","LANDMARKNA":"新北市政府警察局中和分局交通","LANDMARKAD":"1000103","ADDRESS":"新北市中和區中安街175號","TEL":"02-29264110","COUNTYNAME":"新北市","TOWNNAME":"中和區","MARKTYPE":"991","Class":"1"},"geometry":{"x":121.51109399889884,"y":25.000187815478576}},{"attributes":{"OBJECTID":5455,"LANDMARKID":"1000100000165","LANDMARKCO":"106","LANDMARKNA":"新北市中和區戶政事務所","LANDMARKAD":"1000103","ADDRESS":"新北市中和區南山路236號4樓","TEL":"02-29495759","COUNTYNAME":"新北市","TOWNNAME":"中和區","MARKTYPE":"991","Class":"1"},"geometry":{"x":121.5065875935709,"y":24.989773964037106}},{"attributes":{"OBJECTID":5456,"LANDMARKID":"1000100000166","LANDMARKCO":"106","LANDMARKNA":"新北市中和區戶政事務所員山辦","LANDMARKAD":"1000103","ADDRESS":"新北市中和區中正路1163號3樓","TEL":"02-22259730","COUNTYNAME":"新北市","TOWNNAME":"中和區","MARKTYPE":"991","Class":"1"},"geometry":{"x":121.4816170992106,"y":25.009109174778196}},{"attributes":{"OBJECTID":5457,"LANDMARKID":"1000100000133","LANDMARKCO":"105","LANDMARKNA":"新北市中和地政事務所","LANDMARKAD":"1000103","ADDRESS":"新北市中和區復興路278號","TEL":"02-22470101","COUNTYNAME":"新北市","TOWNNAME":"中和區","MARKTYPE":"991","Class":"1"},"geometry":{"x":121.502384490333,"y":24.990503701426146}},{"attributes":{"OBJECTID":5458,"LANDMARKID":"1000100000031","LANDMARKCO":"101","LANDMARKNA":"台北區監理所板橋監理站","LANDMARKAD":"1000103","ADDRESS":"新北市中和區中山路3段116號","TEL":"02-22227835","COUNTYNAME":"新北市","TOWNNAME":"中和區","MARKTYPE":"991","Class":"1"},"geometry":{"x":121.47605150796927,"y":25.006109304879484}},{"attributes":{"OBJECTID":5459,"LANDMARKID":"1000100000130","LANDMARKCO":"104","LANDMARKNA":"北區國稅局中和稽徵所","LANDMARKAD":"1000103","ADDRESS":"新北市中和區中正路866號9樓及868號8樓","TEL":"02-82275168","COUNTYNAME":"新北市","TOWNNAME":"中和區","MARKTYPE":"991","Class":"1"},"geometry":{"x":121.48429148003218,"y":25.005946864530358}},{"attributes":{"OBJECTID":5460,"LANDMARKID":"1000100000026","LANDMARKCO":"101","LANDMARKNA":"調查局北部地區機動工作組","LANDMARKAD":"1000103","ADDRESS":"新北市中和區永和路33號","TEL":"02-22482626","COUNTYNAME":"新北市","TOWNNAME":"中和區","MARKTYPE":"991","Class":"1"},"geometry":{"x":121.49872438215593,"y":25.004416590702927}},{"attributes":{"OBJECTID":5461,"LANDMARKID":"1000100000027","LANDMARKCO":"101","LANDMARKNA":"經濟部中央地質調查所","LANDMARKAD":"1000103","ADDRESS":"新北市中和區華新街109巷2號","TEL":"02-29462793分機","COUNTYNAME":"新北市","TOWNNAME":"中和區","MARKTYPE":"991","Class":"1"},"geometry":{"x":121.50880104970392,"y":24.982473467204777}},{"attributes":{"OBJECTID":5462,"LANDMARKID":"1000100000028","LANDMARKCO":"101","LANDMARKNA":"職業訓練局中和就業服務台","LANDMARKAD":"1000103","ADDRESS":"新北市中和區景平路239之1號","TEL":"02-29461618","COUNTYNAME":"新北市","TOWNNAME":"中和區","MARKTYPE":"991","Class":"1"},"geometry":{"x":121.5096603264426,"y":24.992699479585266}},{"attributes":{"OBJECTID":5463,"LANDMARKID":"1000100000029","LANDMARKCO":"101","LANDMARKNA":"公路總局北部汽車技術訓練中心","LANDMARKAD":"1000103","ADDRESS":"新北市中和區中山路三段79號","TEL":"02-22223600","COUNTYNAME":"新北市","TOWNNAME":"中和區","MARKTYPE":"991","Class":"1"},"geometry":{"x":121.47590565693318,"y":25.005736462051704}},{"attributes":{"OBJECTID":5464,"LANDMARKID":"1000100000030","LANDMARKCO":"101","LANDMARKNA":"營建署市鄉規劃局市北區規劃隊","LANDMARKAD":"1000103","ADDRESS":"新北市中和區南山路60號","TEL":"02-22404154","COUNTYNAME":"新北市","TOWNNAME":"中和區","MARKTYPE":"991","Class":"1"},"geometry":{"x":121.50204660001907,"y":24.997015391687498}},{"attributes":{"OBJECTID":5465,"LANDMARKID":"1000100000242","LANDMARKCO":"107","LANDMARKNA":"新北市警察局保安隊","LANDMARKAD":"1000103","ADDRESS":"新北市中和區中正路1167號","TEL":"02-22252697","COUNTYNAME":"新北市","TOWNNAME":"中和區","MARKTYPE":"991","Class":"1"},"geometry":{"x":121.48127537282318,"y":25.00932398492062}},{"attributes":{"OBJECTID":5466,"LANDMARKID":"1000100000243","LANDMARKCO":"107","LANDMARKNA":"新北市政府警察局安平派出所","LANDMARKAD":"1000103","ADDRESS":"新北市中和區安樂里安平路192-3號","TEL":"0229448713","COUNTYNAME":"新北市","TOWNNAME":"中和區","MARKTYPE":"991","Class":"1"},"geometry":{"x":121.51331263827242,"y":24.999234283718369}},{"attributes":{"OBJECTID":5467,"LANDMARKID":"1000100000244","LANDMARKCO":"107","LANDMARKNA":"新北市政府警察局秀山派出所","LANDMARKAD":"1000103","ADDRESS":"新北市中和區秀山里景平路66號","TEL":"02-29402114","COUNTYNAME":"新北市","TOWNNAME":"中和區","MARKTYPE":"991","Class":"1"},"geometry":{"x":121.52212059918065,"y":24.990873501542907}},{"attributes":{"OBJECTID":5468,"LANDMARKID":"1000100000245","LANDMARKCO":"107","LANDMARKNA":"新北市民防總隊","LANDMARKAD":"1000103","ADDRESS":"新北市新店區","TEL":" ","COUNTYNAME":"新北市","TOWNNAME":"中和區","MARKTYPE":"991","Class":"1"},"geometry":{"x":121.50864761604262,"y":24.979650623045547}},{"attributes":{"OBJECTID":5469,"LANDMARKID":"1000100000246","LANDMARKCO":"107","LANDMARKNA":"錦盛里巡守隊","LANDMARKAD":"1000103","ADDRESS":"新北市中和區錦盛里","TEL":" ","COUNTYNAME":"新北市","TOWNNAME":"中和區","MARKTYPE":"991","Class":"1"},"geometry":{"x":121.49347780825335,"y":24.989537469913383}},{"attributes":{"OBJECTID":5470,"LANDMARKID":"1000100000247","LANDMARKCO":"107","LANDMARKNA":"錦昌里巡守隊","LANDMARKAD":"1000103","ADDRESS":"新北市中和區錦昌里","TEL":" ","COUNTYNAME":"新北市","TOWNNAME":"中和區","MARKTYPE":"991","Class":"1"},"geometry":{"x":121.4923962305904,"y":24.987919578891475}},{"attributes":{"OBJECTID":5471,"LANDMARKID":"1000100000864","LANDMARKCO":"204","LANDMARKNA":"新北市立圖書館中和分館","LANDMARKAD":"1000103","ADDRESS":"新北市中和區中和路60號2樓","TEL":" ","COUNTYNAME":"新北市","TOWNNAME":"中和區","MARKTYPE":"992","Class":"2"},"geometry":{"x":121.50063085179193,"y":25.00067564048403}},{"attributes":{"OBJECTID":5472,"LANDMARKID":"1000100000865","LANDMARKCO":"204","LANDMARKNA":"新北市立圖書館大同分館","LANDMARKAD":"1000103","ADDRESS":"新北市中和區圓通路121巷5號","TEL":" ","COUNTYNAME":"新北市","TOWNNAME":"中和區","MARKTYPE":"992","Class":"2"},"geometry":{"x":121.49990702660401,"y":24.996039126856395}},{"attributes":{"OBJECTID":5473,"LANDMARKID":"1000100000866","LANDMARKCO":"204","LANDMARKNA":"新北市立圖書館員山分館","LANDMARKAD":"1000103","ADDRESS":"新北市中和區員山路455巷10號3樓","TEL":" ","COUNTYNAME":"新北市","TOWNNAME":"中和區","MARKTYPE":"992","Class":"2"},"geometry":{"x":121.48098315770648,"y":25.006398360456568}},{"attributes":{"OBJECTID":5474,"LANDMARKID":"1000100000539","LANDMARKCO":"203","LANDMARKNA":"縣立光復國小","LANDMARKAD":"1000103","ADDRESS":"新北市中和區永和路524巷66號","TEL":"02-32348645","COUNTYNAME":"新北市","TOWNNAME":"中和區","MARKTYPE":"992","Class":"2"},"geometry":{"x":121.48299994555626,"y":25.0150293753744}},{"attributes":{"OBJECTID":5475,"LANDMARKID":"1000100000540","LANDMARKCO":"203","LANDMARKNA":"縣立錦和國小","LANDMARKAD":"1000103","ADDRESS":"新北市中和區圓通路292號","TEL":"02-22479495","COUNTYNAME":"新北市","TOWNNAME":"中和區","MARKTYPE":"992","Class":"2"},"geometry":{"x":121.48942153588575,"y":24.990187092056605}},{"attributes":{"OBJECTID":5476,"LANDMARKID":"1000100000487","LANDMARKCO":"202","LANDMARKNA":"國立中和高中","LANDMARKAD":"1000103","ADDRESS":"新北市中和區連城路460號","TEL":"02-22258551","COUNTYNAME":"新北市","TOWNNAME":"中和區","MARKTYPE":"992","Class":"2"},"geometry":{"x":121.47835303957356,"y":24.993983529611853}},{"attributes":{"OBJECTID":5477,"LANDMARKID":"1000100000488","LANDMARKCO":"202","LANDMARKNA":"私立竹林高中","LANDMARKAD":"1000103","ADDRESS":"新北市中和區華新街143巷12號","TEL":"02-29422128","COUNTYNAME":"新北市","TOWNNAME":"中和區","MARKTYPE":"992","Class":"2"},"geometry":{"x":121.50601346672913,"y":24.979919918741714}},{"attributes":{"OBJECTID":5478,"LANDMARKID":"1000100000489","LANDMARKCO":"202","LANDMARKNA":"私立南山高中","LANDMARKAD":"1000103","ADDRESS":"新北市中和區廣福路41號","TEL":"02-22492474","COUNTYNAME":"新北市","TOWNNAME":"中和區","MARKTYPE":"992","Class":"2"},"geometry":{"x":121.50345456132281,"y":25.001626524181045}},{"attributes":{"OBJECTID":5479,"LANDMARKID":"1000100000490","LANDMARKCO":"202","LANDMARKNA":"縣立錦和高中","LANDMARKAD":"1000103","ADDRESS":"新北市中和區錦和路163號","TEL":"02-22498566","COUNTYNAME":"新北市","TOWNNAME":"中和區","MARKTYPE":"992","Class":"2"},"geometry":{"x":121.49109273974655,"y":24.992533116847049}},{"attributes":{"OBJECTID":5480,"LANDMARKID":"1000100000624","LANDMARKCO":"203","LANDMARKNA":"縣立積穗國中","LANDMARKAD":"1000103","ADDRESS":"新北市中和區民安街66號","TEL":"02-22250233","COUNTYNAME":"新北市","TOWNNAME":"中和區","MARKTYPE":"992","Class":"2"},"geometry":{"x":121.4797812019667,"y":25.000392696492387}},{"attributes":{"OBJECTID":5481,"LANDMARKID":"1000100000625","LANDMARKCO":"203","LANDMARKNA":"縣立自強國中","LANDMARKAD":"1000103","ADDRESS":"新北市中和區莒光路191號","TEL":"02-22259466","COUNTYNAME":"新北市","TOWNNAME":"中和區","MARKTYPE":"992","Class":"2"},"geometry":{"x":121.47181530089674,"y":24.997734629744492}},{"attributes":{"OBJECTID":5482,"LANDMARKID":"1000100000626","LANDMARKCO":"203","LANDMARKNA":"縣立漳和國中","LANDMARKAD":"1000103","ADDRESS":"新北市中和區廣福路39號","TEL":"02-22488616","COUNTYNAME":"新北市","TOWNNAME":"中和區","MARKTYPE":"992","Class":"2"},"geometry":{"x":121.50554168644011,"y":25.002663408927706}},{"attributes":{"OBJECTID":5483,"LANDMARKID":"1000100000627","LANDMARKCO":"203","LANDMARKNA":"縣立中和國中","LANDMARKAD":"1000103","ADDRESS":"新北市中和區興南路二段3巷17號","TEL":"02-29424074","COUNTYNAME":"新北市","TOWNNAME":"中和區","MARKTYPE":"992","Class":"2"},"geometry":{"x":121.508541165648,"y":24.986174896308565}},{"attributes":{"OBJECTID":5484,"LANDMARKID":"1000100000628","LANDMARKCO":"203","LANDMARKNA":"縣立中和國小","LANDMARKAD":"1000103","ADDRESS":"新北市中和區中和路100號","TEL":"02-22492550","COUNTYNAME":"新北市","TOWNNAME":"中和區","MARKTYPE":"992","Class":"2"},"geometry":{"x":121.50162157605615,"y":24.999854917015114}},{"attributes":{"OBJECTID":5485,"LANDMARKID":"1000100000629","LANDMARKCO":"203","LANDMARKNA":"縣立秀山國小","LANDMARKAD":"1000103","ADDRESS":"新北市中和區立人街2號","TEL":"02-29434353","COUNTYNAME":"新北市","TOWNNAME":"中和區","MARKTYPE":"992","Class":"2"},"geometry":{"x":121.52117517210495,"y":24.994217153732095}},{"attributes":{"OBJECTID":5486,"LANDMARKID":"1000100000630","LANDMARKCO":"203","LANDMARKNA":"縣立積穗國小","LANDMARKAD":"1000103","ADDRESS":"新北市中和區員山路154號","TEL":"02-22225533","COUNTYNAME":"新北市","TOWNNAME":"中和區","MARKTYPE":"992","Class":"2"},"geometry":{"x":121.48140491936181,"y":24.999053920487423}},{"attributes":{"OBJECTID":5487,"LANDMARKID":"1000100000631","LANDMARKCO":"203","LANDMARKNA":"縣立自強國小","LANDMARKAD":"1000103","ADDRESS":"新北市中和區莒光路200號","TEL":"02-29557936","COUNTYNAME":"新北市","TOWNNAME":"中和區","MARKTYPE":"992","Class":"2"},"geometry":{"x":121.47053803732057,"y":24.996746689181766}},{"attributes":{"OBJECTID":5488,"LANDMARKID":"1000100000632","LANDMARKCO":"203","LANDMARKNA":"縣立復興國小","LANDMARKAD":"1000103","ADDRESS":"新北市中和區復興路301巷6號","TEL":"02-22472993","COUNTYNAME":"新北市","TOWNNAME":"中和區","MARKTYPE":"992","Class":"2"},"geometry":{"x":121.50193281386062,"y":24.989639775336464}},{"attributes":{"OBJECTID":5489,"LANDMARKID":"1000100000633","LANDMARKCO":"203","LANDMARKNA":"縣立景新國小","LANDMARKAD":"1000103","ADDRESS":"新北市中和區景新街467巷37號","TEL":"02-29448021","COUNTYNAME":"新北市","TOWNNAME":"中和區","MARKTYPE":"992","Class":"2"},"geometry":{"x":121.51499580691301,"y":24.989296774366547}},{"attributes":{"OBJECTID":5490,"LANDMARKID":"1000100000634","LANDMARKCO":"203","LANDMARKNA":"縣立興南國小","LANDMARKAD":"1000103","ADDRESS":"新北市中和區興南路一段135巷24號","TEL":"02-29422349","COUNTYNAME":"新北市","TOWNNAME":"中和區","MARKTYPE":"992","Class":"2"},"geometry":{"x":121.50913016963052,"y":24.986727443998312}},{"attributes":{"OBJECTID":5491,"LANDMARKID":"1000100000439","LANDMARKCO":"201","LANDMARKNA":"華夏技術學院","LANDMARKAD":"1000103","ADDRESS":"新北市中和區工專路111號","TEL":"02-89415100","COUNTYNAME":"新北市","TOWNNAME":"中和區","MARKTYPE":"992","Class":"2"},"geometry":{"x":121.50762793323004,"y":24.982273739486214}},{"attributes":{"OBJECTID":5492,"LANDMARKID":"1000100000440","LANDMARKCO":"201","LANDMARKNA":"國防管理學院","LANDMARKAD":"1000103","ADDRESS":"新北市中和區民安里民安街150號","TEL":" ","COUNTYNAME":"新北市","TOWNNAME":"中和區","MARKTYPE":"992","Class":"2"},"geometry":{"x":121.47770471126523,"y":24.999843548407895}},{"attributes":{"OBJECTID":5493,"LANDMARKID":"1000100001521","LANDMARKCO":"308","LANDMARKNA":"國3-中和交流道-北上","LANDMARKAD":"1000103","ADDRESS":"新北市中和區","TEL":" ","COUNTYNAME":"新北市","TOWNNAME":"中和區","MARKTYPE":"993","Class":"308"},"geometry":{"x":121.48647128928805,"y":24.988418859349544}},{"attributes":{"OBJECTID":5494,"LANDMARKID":"1000100001522","LANDMARKCO":"308","LANDMARKNA":"國3-中和交流道-南下","LANDMARKAD":"1000103","ADDRESS":"新北市中和區","TEL":" ","COUNTYNAME":"新北市","TOWNNAME":"中和區","MARKTYPE":"993","Class":"308"},"geometry":{"x":121.48064870444341,"y":24.989050332482787}},{"attributes":{"OBJECTID":5495,"LANDMARKID":"1000100001523","LANDMARKCO":"308","LANDMARKNA":"台64-中和一交流道-西行","LANDMARKAD":"1000103","ADDRESS":" ","TEL":" ","COUNTYNAME":"新北市","TOWNNAME":"中和區","MARKTYPE":"993","Class":"308"},"geometry":{"x":121.48228645758358,"y":25.008885150227101}},{"attributes":{"OBJECTID":5496,"LANDMARKID":"1000100001524","LANDMARKCO":"308","LANDMARKNA":"台64-中和交流道-西行","LANDMARKAD":"1000103","ADDRESS":" ","TEL":" ","COUNTYNAME":"新北市","TOWNNAME":"中和區","MARKTYPE":"993","Class":"308"},"geometry":{"x":121.48502312348222,"y":25.001561259372636}},{"attributes":{"OBJECTID":5497,"LANDMARKID":"1000100001525","LANDMARKCO":"308","LANDMARKNA":"台64-中和二交流道-西行","LANDMARKAD":"1000103","ADDRESS":" ","TEL":" ","COUNTYNAME":"新北市","TOWNNAME":"中和區","MARKTYPE":"993","Class":"308"},"geometry":{"x":121.50861596884913,"y":24.993155921060314}},{"attributes":{"OBJECTID":5498,"LANDMARKID":"1000100001526","LANDMARKCO":"308","LANDMARKNA":"台64-新店端-西行","LANDMARKAD":"1000103","ADDRESS":" ","TEL":" ","COUNTYNAME":"新北市","TOWNNAME":"中和區","MARKTYPE":"993","Class":"308"},"geometry":{"x":121.52370707354297,"y":24.990486255918903}},{"attributes":{"OBJECTID":5499,"LANDMARKID":"1000100001462","LANDMARKCO":"306","LANDMARKNA":"南勢角捷運站-出口1","LANDMARKAD":"1000103","ADDRESS":" ","TEL":" ","COUNTYNAME":"新北市","TOWNNAME":"中和區","MARKTYPE":"993","Class":"306"},"geometry":{"x":121.50886609156888,"y":24.990005093960232}},{"attributes":{"OBJECTID":5500,"LANDMARKID":"1000100001463","LANDMARKCO":"306","LANDMARKNA":"南勢角捷運站-出口2","LANDMARKAD":"1000103","ADDRESS":" ","TEL":" ","COUNTYNAME":"新北市","TOWNNAME":"中和區","MARKTYPE":"993","Class":"306"},"geometry":{"x":121.50919236309743,"y":24.989842908184762}},{"attributes":{"OBJECTID":5501,"LANDMARKID":"1000100001464","LANDMARKCO":"306","LANDMARKNA":"南勢角捷運站-出口3","LANDMARKAD":"1000103","ADDRESS":" ","TEL":" ","COUNTYNAME":"新北市","TOWNNAME":"中和區","MARKTYPE":"993","Class":"306"},"geometry":{"x":121.50954584482673,"y":24.989669871472039}},{"attributes":{"OBJECTID":5502,"LANDMARKID":"1000100001465","LANDMARKCO":"306","LANDMARKNA":"南勢角捷運站-出口4","LANDMARKAD":"1000103","ADDRESS":" ","TEL":" ","COUNTYNAME":"新北市","TOWNNAME":"中和區","MARKTYPE":"993","Class":"306"},"geometry":{"x":121.50978270629705,"y":24.989542590084685}},{"attributes":{"OBJECTID":5503,"LANDMARKID":"1000100001466","LANDMARKCO":"306","LANDMARKNA":"景安捷運站-出口","LANDMARKAD":"1000103","ADDRESS":" ","TEL":" ","COUNTYNAME":"新北市","TOWNNAME":"中和區","MARKTYPE":"993","Class":"306"},"geometry":{"x":121.50451937970655,"y":24.993714375678845}},{"attributes":{"OBJECTID":5504,"LANDMARKID":"1000100001467","LANDMARKCO":"306","LANDMARKNA":"永安市場捷運站-出口","LANDMARKAD":"1000103","ADDRESS":" ","TEL":" ","COUNTYNAME":"新北市","TOWNNAME":"中和區","MARKTYPE":"993","Class":"306"},"geometry":{"x":121.51091317863643,"y":25.002461753359427}},{"attributes":{"OBJECTID":5505,"LANDMARKID":"1000100000962","LANDMARKCO":"302","LANDMARKNA":"指南汽車客運中和站","LANDMARKAD":"1000103","ADDRESS":"新北市中和區連城路631號之1","TEL":" ","COUNTYNAME":"新北市","TOWNNAME":"中和區","MARKTYPE":"993","Class":"302"},"geometry":{"x":121.47644391184781,"y":24.991606474145325}},{"attributes":{"OBJECTID":5506,"LANDMARKID":"1000100000963","LANDMARKCO":"302","LANDMARKNA":"台北汽車客運中和站","LANDMARKAD":"1000103","ADDRESS":"新北市中和區錦和路203巷1號","TEL":" ","COUNTYNAME":"新北市","TOWNNAME":"中和區","MARKTYPE":"993","Class":"302"},"geometry":{"x":121.49081438658368,"y":24.99054566474819}},{"attributes":{"OBJECTID":5507,"LANDMARKID":"1000100000964","LANDMARKCO":"302","LANDMARKNA":"中興大業巴士永和站","LANDMARKAD":"1000103","ADDRESS":"新北市中和區連城路631號之1","TEL":" ","COUNTYNAME":"新北市","TOWNNAME":"中和區","MARKTYPE":"993","Class":"302"},"geometry":{"x":121.47644624734298,"y":24.99160356049255}},{"attributes":{"OBJECTID":5508,"LANDMARKID":"1000100000965","LANDMARKCO":"302","LANDMARKNA":"中興巴士-中和站","LANDMARKAD":"1000103","ADDRESS":"新北市中和區連城路631-1號","TEL":"(02)2225-9630","COUNTYNAME":"新北市","TOWNNAME":"中和區","MARKTYPE":"993","Class":"302"},"geometry":{"x":121.4764620972029,"y":24.991396778615002}},{"attributes":{"OBJECTID":5509,"LANDMARKID":"1000100000966","LANDMARKCO":"302","LANDMARKNA":"台北客運-中和站","LANDMARKAD":"1000103","ADDRESS":"中和區錦和路201號","TEL":"2247-7620","COUNTYNAME":"新北市","TOWNNAME":"中和區","MARKTYPE":"993","Class":"302"},"geometry":{"x":121.49080322437217,"y":24.990559818027251}},{"attributes":{"OBJECTID":5510,"LANDMARKID":"1000100000967","LANDMARKCO":"302","LANDMARKNA":"飛狗巴士","LANDMARKAD":"1000103","ADDRESS":"新北市中和區中正路502號1樓","TEL":"|","COUNTYNAME":"新北市","TOWNNAME":"中和區","MARKTYPE":"993","Class":"302"},"geometry":{"x":121.48889199405656,"y":24.994453424151306}},{"attributes":{"OBJECTID":5511,"LANDMARKID":"1000100000968","LANDMARKCO":"302","LANDMARKNA":"統聯客運-中和站-自營站","LANDMARKAD":"1000103","ADDRESS":"新北市中和區中正路723號","TEL":"連絡電話:02-822","COUNTYNAME":"新北市","TOWNNAME":"中和區","MARKTYPE":"993","Class":"302"},"geometry":{"x":121.48483841089799,"y":24.998991184018752}},{"attributes":{"OBJECTID":5512,"LANDMARKID":"1000100001163","LANDMARKCO":"303","LANDMARKNA":"民德立體停車場","LANDMARKAD":"1000103","ADDRESS":" ","TEL":" ","COUNTYNAME":"新北市","TOWNNAME":"中和區","MARKTYPE":"993","Class":"303"},"geometry":{"x":121.46810455198268,"y":24.998951580776851}},{"attributes":{"OBJECTID":5513,"LANDMARKID":"1000100001164","LANDMARKCO":"303","LANDMARKNA":"環球購物中心停車場","LANDMARKAD":"1000103","ADDRESS":" ","TEL":" ","COUNTYNAME":"新北市","TOWNNAME":"中和區","MARKTYPE":"993","Class":"303"},"geometry":{"x":121.47372624963519,"y":25.007041327053859}},{"attributes":{"OBJECTID":5514,"LANDMARKID":"1000100001165","LANDMARKCO":"303","LANDMARKNA":"民享市場停車場","LANDMARKAD":"1000103","ADDRESS":"新北市中和區民享街","TEL":" ","COUNTYNAME":"新北市","TOWNNAME":"中和區","MARKTYPE":"993","Class":"303"},"geometry":{"x":121.47409798891141,"y":25.005272670511598}},{"attributes":{"OBJECTID":5515,"LANDMARKID":"1000100001166","LANDMARKCO":"303","LANDMARKNA":"漢寶停車場","LANDMARKAD":"1000103","ADDRESS":" ","TEL":" ","COUNTYNAME":"新北市","TOWNNAME":"中和區","MARKTYPE":"993","Class":"303"},"geometry":{"x":121.48606817987785,"y":24.998793188081088}},{"attributes":{"OBJECTID":5516,"LANDMARKID":"1000100001167","LANDMARKCO":"303","LANDMARKNA":"中正(停二)停車場","LANDMARKAD":"1000103","ADDRESS":"新北市中和區中正路395號","TEL":" ","COUNTYNAME":"新北市","TOWNNAME":"中和區","MARKTYPE":"993","Class":"303"},"geometry":{"x":121.48944432919176,"y":24.994022272384985}},{"attributes":{"OBJECTID":5517,"LANDMARKID":"1000100001168","LANDMARKCO":"303","LANDMARKNA":"中和運動公園停車場","LANDMARKAD":"1000103","ADDRESS":" ","TEL":" ","COUNTYNAME":"新北市","TOWNNAME":"中和區","MARKTYPE":"993","Class":"303"},"geometry":{"x":121.49055686800287,"y":24.99242319242278}},{"attributes":{"OBJECTID":5518,"LANDMARKID":"1000100001169","LANDMARKCO":"303","LANDMARKNA":"中和烘爐地風景區停車場","LANDMARKAD":"1000103","ADDRESS":"新北市中和區興南路二段399巷","TEL":" ","COUNTYNAME":"新北市","TOWNNAME":"中和區","MARKTYPE":"993","Class":"303"},"geometry":{"x":121.49798290383846,"y":24.972943555958704}},{"attributes":{"OBJECTID":5519,"LANDMARKID":"1000100001170","LANDMARKCO":"303","LANDMARKNA":"福德宮立體停車場","LANDMARKAD":"1000103","ADDRESS":"新北市中和區興南路二段399巷","TEL":" ","COUNTYNAME":"新北市","TOWNNAME":"中和區","MARKTYPE":"993","Class":"303"},"geometry":{"x":121.49940513566342,"y":24.971838616251922}},{"attributes":{"OBJECTID":5520,"LANDMARKID":"1000100001171","LANDMARKCO":"303","LANDMARKNA":"興南停車場","LANDMARKAD":"1000103","ADDRESS":"新北市中和區","TEL":" ","COUNTYNAME":"新北市","TOWNNAME":"中和區","MARKTYPE":"993","Class":"303"},"geometry":{"x":121.50325642193732,"y":24.981829732996676}},{"attributes":{"OBJECTID":5521,"LANDMARKID":"1000100001172","LANDMARKCO":"303","LANDMARKNA":"南勢角站地下停車場","LANDMARKAD":"1000103","ADDRESS":"新北市中和區和平街、興南路一段交叉口","TEL":" ","COUNTYNAME":"新北市","TOWNNAME":"中和區","MARKTYPE":"993","Class":"303"},"geometry":{"x":121.50831988302969,"y":24.990583053410361}},{"attributes":{"OBJECTID":5522,"LANDMARKID":"1000100001173","LANDMARKCO":"303","LANDMARKNA":"公四停車場","LANDMARKAD":"1000103","ADDRESS":"新北市永和區安樂路","TEL":" ","COUNTYNAME":"新北市","TOWNNAME":"中和區","MARKTYPE":"993","Class":"303"},"geometry":{"x":121.51101300512991,"y":25.000195458890641}},{"attributes":{"OBJECTID":5523,"LANDMARKID":"1000100001174","LANDMARKCO":"303","LANDMARKNA":"行政大樓停車場","LANDMARKAD":"1000103","ADDRESS":"新北市中和區景平路","TEL":" ","COUNTYNAME":"新北市","TOWNNAME":"中和區","MARKTYPE":"993","Class":"303"},"geometry":{"x":121.52134396472337,"y":24.99118919722876}},{"attributes":{"OBJECTID":5524,"LANDMARKID":"1000100001175","LANDMARKCO":"303","LANDMARKNA":"秀山公園公七地下停車場","LANDMARKAD":"1000103","ADDRESS":"新北市中和區自立路15巷12號","TEL":" ","COUNTYNAME":"新北市","TOWNNAME":"中和區","MARKTYPE":"993","Class":"303"},"geometry":{"x":121.52301243011213,"y":24.995495790123876}},{"attributes":{"OBJECTID":5525,"LANDMARKID":"1000100001176","LANDMARKCO":"303","LANDMARKNA":"停八立體停車場","LANDMARKAD":"1000103","ADDRESS":"新北市中和區清德里民德路","TEL":" ","COUNTYNAME":"新北市","TOWNNAME":"中和區","MARKTYPE":"993","Class":"303"},"geometry":{"x":121.47415864400423,"y":25.001829395386249}},{"attributes":{"OBJECTID":5526,"LANDMARKID":"1000100001177","LANDMARKCO":"303","LANDMARKNA":"中興嘟嘟房停車場-博客加盟-景平站","LANDMARKAD":"1000103","ADDRESS":"新北市中和區景平路250-268號B2","TEL":"(02)8942-2012","COUNTYNAME":"新北市","TOWNNAME":"中和區","MARKTYPE":"993","Class":"303"},"geometry":{"x":121.51323798178085,"y":24.991459675778266}},{"attributes":{"OBJECTID":5527,"LANDMARKID":"1000100001178","LANDMARKCO":"303","LANDMARKNA":"中興嘟嘟房停車場-中和國小站","LANDMARKAD":"1000103","ADDRESS":"新北市中和區景平路632-8號B1~B2","TEL":"(02)2243-9352","COUNTYNAME":"新北市","TOWNNAME":"中和區","MARKTYPE":"993","Class":"303"},"geometry":{"x":121.49949020935955,"y":24.999096477116129}},{"attributes":{"OBJECTID":5528,"LANDMARKID":"1000100001179","LANDMARKCO":"303","LANDMARKNA":"中興嘟嘟房停車場-中和景平站","LANDMARKAD":"1000103","ADDRESS":"新北市中和區景德街1號旁","TEL":"(02)2940-9260","COUNTYNAME":"新北市","TOWNNAME":"中和區","MARKTYPE":"993","Class":"303"},"geometry":{"x":121.51919809178247,"y":24.991503461490165}},{"attributes":{"OBJECTID":5529,"LANDMARKID":"1000100001180","LANDMARKCO":"303","LANDMARKNA":"中和國小操場地下停車場","LANDMARKAD":"1000103","ADDRESS":"新北市中和區中和路100號","TEL":" ","COUNTYNAME":"新北市","TOWNNAME":"中和區","MARKTYPE":"993","Class":"303"},"geometry":{"x":121.50078671540511,"y":24.999314245405806}},{"attributes":{"OBJECTID":5530,"LANDMARKID":"1000100001181","LANDMARKCO":"303","LANDMARKNA":"中敬路停車場","LANDMARKAD":"1000103","ADDRESS":"新北市中和區莊美里莊敬路","TEL":" ","COUNTYNAME":"新北市","TOWNNAME":"中和區","MARKTYPE":"993","Class":"303"},"geometry":{"x":121.50024358033102,"y":25.005189231233363}},{"attributes":{"OBJECTID":5531,"LANDMARKID":"1000100001182","LANDMARKCO":"303","LANDMARKNA":"仁愛公園地下停車場","LANDMARKAD":"1000103","ADDRESS":"新北市中和區保安里仁愛街","TEL":" ","COUNTYNAME":"新北市","TOWNNAME":"中和區","MARKTYPE":"993","Class":"303"},"geometry":{"x":121.51123172579567,"y":24.987523389564217}},{"attributes":{"OBJECTID":5532,"LANDMARKID":"1000100001183","LANDMARKCO":"303","LANDMARKNA":"公一停車場","LANDMARKAD":"1000103","ADDRESS":"新北市中和區","TEL":" ","COUNTYNAME":"新北市","TOWNNAME":"中和區","MARKTYPE":"993","Class":"303"},"geometry":{"x":121.47374397077209,"y":25.005518175894832}},{"attributes":{"OBJECTID":5533,"LANDMARKID":"1000100001184","LANDMARKCO":"303","LANDMARKNA":"公四停車場","LANDMARKAD":"1000103","ADDRESS":"新北市中和區","TEL":" ","COUNTYNAME":"新北市","TOWNNAME":"中和區","MARKTYPE":"993","Class":"303"},"geometry":{"x":121.51277238441781,"y":24.9989543494431}},{"attributes":{"OBJECTID":5534,"LANDMARKID":"1000100001185","LANDMARKCO":"303","LANDMARKNA":"市政大樓枋寮、廟美停車場","LANDMARKAD":"1000103","ADDRESS":"新北市中和區漳和里景平路","TEL":" ","COUNTYNAME":"新北市","TOWNNAME":"中和區","MARKTYPE":"993","Class":"303"},"geometry":{"x":121.50004984735897,"y":24.998532174170847}},{"attributes":{"OBJECTID":5535,"LANDMARKID":"1000100001186","LANDMARKCO":"303","LANDMARKNA":"民享市場地下室停車場","LANDMARKAD":"1000103","ADDRESS":"新北市中和區民有里民享街","TEL":" ","COUNTYNAME":"新北市","TOWNNAME":"中和區","MARKTYPE":"993","Class":"303"},"geometry":{"x":121.47481821733177,"y":25.005156086299163}},{"attributes":{"OBJECTID":5536,"LANDMARKID":"1000100001187","LANDMARKCO":"303","LANDMARKNA":"民樂停一停車場","LANDMARKAD":"1000103","ADDRESS":"新北市中和區平和里民樂路46號","TEL":" ","COUNTYNAME":"新北市","TOWNNAME":"中和區","MARKTYPE":"993","Class":"303"},"geometry":{"x":121.4837969451256,"y":25.001403310398977}},{"attributes":{"OBJECTID":5537,"LANDMARKID":"1000100001188","LANDMARKCO":"303","LANDMARKNA":"自強游泳池停車場","LANDMARKAD":"1000103","ADDRESS":"新北市中和區中山路二段64巷9號","TEL":" ","COUNTYNAME":"新北市","TOWNNAME":"中和區","MARKTYPE":"993","Class":"303"},"geometry":{"x":121.50372853105158,"y":25.004811401651406}},{"attributes":{"OBJECTID":5538,"LANDMARKID":"1000100001189","LANDMARKCO":"303","LANDMARKNA":"行政大樓停車場","LANDMARKAD":"1000103","ADDRESS":"新北市中和區景平路634之2號","TEL":" ","COUNTYNAME":"新北市","TOWNNAME":"中和區","MARKTYPE":"993","Class":"303"},"geometry":{"x":121.50035062886192,"y":24.99808692492687}},{"attributes":{"OBJECTID":5539,"LANDMARKID":"1000100001190","LANDMARKCO":"303","LANDMARKNA":"停二停車場","LANDMARKAD":"1000103","ADDRESS":"新北市中和區民享街37號","TEL":" ","COUNTYNAME":"新北市","TOWNNAME":"中和區","MARKTYPE":"993","Class":"303"},"geometry":{"x":121.47414342156056,"y":25.003743392627801}},{"attributes":{"OBJECTID":5540,"LANDMARKID":"1000100001191","LANDMARKCO":"303","LANDMARKNA":"停二停車場","LANDMARKAD":"1000103","ADDRESS":"新北市中和區錦中里中正路","TEL":" ","COUNTYNAME":"新北市","TOWNNAME":"中和區","MARKTYPE":"993","Class":"303"},"geometry":{"x":121.50286278792504,"y":24.994021230101165}},{"attributes":{"OBJECTID":5541,"LANDMARKID":"1000100001192","LANDMARKCO":"303","LANDMARKNA":"停八停車場","LANDMARKAD":"1000103","ADDRESS":"新北市中和區民德路188號","TEL":" ","COUNTYNAME":"新北市","TOWNNAME":"中和區","MARKTYPE":"993","Class":"303"},"geometry":{"x":121.4681412562459,"y":24.99854040460523}},{"attributes":{"OBJECTID":5542,"LANDMARKID":"1000100001193","LANDMARKCO":"303","LANDMARKNA":"停五停車場","LANDMARKAD":"1000103","ADDRESS":"新北市中和區景新路399巷","TEL":" ","COUNTYNAME":"新北市","TOWNNAME":"中和區","MARKTYPE":"993","Class":"303"},"geometry":{"x":121.50471329662642,"y":24.998579353079606}},{"attributes":{"OBJECTID":5543,"LANDMARKID":"1000100001194","LANDMARKCO":"303","LANDMARKNA":"國道停三停車場","LANDMARKAD":"1000103","ADDRESS":"新北市中和區錦合里國道路","TEL":" ","COUNTYNAME":"新北市","TOWNNAME":"中和區","MARKTYPE":"993","Class":"303"},"geometry":{"x":121.48066265613915,"y":25.009754268960894}},{"attributes":{"OBJECTID":5544,"LANDMARKID":"1000100001195","LANDMARKCO":"303","LANDMARKNA":"莊敬停車場","LANDMARKAD":"1000103","ADDRESS":"新北市中和區莊敬路33巷","TEL":" ","COUNTYNAME":"新北市","TOWNNAME":"中和區","MARKTYPE":"993","Class":"303"},"geometry":{"x":121.50041415042034,"y":25.004901518844171}},{"attributes":{"OBJECTID":5545,"LANDMARKID":"1000100001196","LANDMARKCO":"303","LANDMARKNA":"景新停五停車場","LANDMARKAD":"1000103","ADDRESS":"新北市中和區景南里景新街","TEL":" ","COUNTYNAME":"新北市","TOWNNAME":"中和區","MARKTYPE":"993","Class":"303"},"geometry":{"x":121.50496993929558,"y":24.998490052263762}},{"attributes":{"OBJECTID":5546,"LANDMARKID":"1000100001197","LANDMARKCO":"303","LANDMARKNA":"圓通停三停車場","LANDMARKAD":"1000103","ADDRESS":"新北市中和區圓通路369巷33號","TEL":" ","COUNTYNAME":"新北市","TOWNNAME":"中和區","MARKTYPE":"993","Class":"303"},"geometry":{"x":121.50013150130896,"y":24.99692994699447}},{"attributes":{"OBJECTID":5547,"LANDMARKID":"1000100001198","LANDMARKCO":"303","LANDMARKNA":"錦和運動公園停車場","LANDMARKAD":"1000103","ADDRESS":"新北市中和區錦和路350號","TEL":" ","COUNTYNAME":"新北市","TOWNNAME":"中和區","MARKTYPE":"993","Class":"303"},"geometry":{"x":121.49062234071563,"y":24.9905365494451}},{"attributes":{"OBJECTID":5548,"LANDMARKID":"1000100001199","LANDMARKCO":"303","LANDMARKNA":"福德宮停車場","LANDMARKAD":"1000103","ADDRESS":"新北市中和區興南路二段399巷57弄20號","TEL":"02-29463948","COUNTYNAME":"新北市","TOWNNAME":"中和區","MARKTYPE":"993","Class":"303"},"geometry":{"x":121.4994875694812,"y":24.972175091367667}},{"attributes":{"OBJECTID":5549,"LANDMARKID":"1000100001200","LANDMARKCO":"303","LANDMARKNA":"永固停車場-威力站","LANDMARKAD":"1000103","ADDRESS":"新北市中和區中山路二段291號5-10樓","TEL":"02-22471304","COUNTYNAME":"新北市","TOWNNAME":"中和區","MARKTYPE":"993","Class":"303"},"geometry":{"x":121.49631087793077,"y":25.002209862754967}},{"attributes":{"OBJECTID":5550,"LANDMARKID":"1000100001201","LANDMARKCO":"303","LANDMARKNA":"台灣聯通停車場-華新場","LANDMARKAD":"1000103","ADDRESS":"新北市中和區興南路二段54巷2號","TEL":" ","COUNTYNAME":"新北市","TOWNNAME":"中和區","MARKTYPE":"993","Class":"303"},"geometry":{"x":121.50647649529833,"y":24.98516294735817}},{"attributes":{"OBJECTID":5551,"LANDMARKID":"1000100001748","LANDMARKCO":"402","LANDMARKNA":"中華電信-遠東世紀服務中心","LANDMARKAD":"1000103","ADDRESS":"新北市中和區中正路726號","TEL":"123或0800-080-123","COUNTYNAME":"新北市","TOWNNAME":"中和區","MARKTYPE":"994","Class":"4"},"geometry":{"x":121.48556355416946,"y":24.997552173608398}},{"attributes":{"OBJECTID":5552,"LANDMARKID":"1000100001749","LANDMARKCO":"402","LANDMARKNA":"中華電信-中和中和特約服務中心","LANDMARKAD":"1000103","ADDRESS":"新北市中和區中和路33號","TEL":"02-22458877","COUNTYNAME":"新北市","TOWNNAME":"中和區","MARKTYPE":"994","Class":"4"},"geometry":{"x":121.50003976583034,"y":25.001745577564488}},{"attributes":{"OBJECTID":5553,"LANDMARKID":"1000100001750","LANDMARKCO":"402","LANDMARKNA":"中華電信-中和永安特約服務中心","LANDMARKAD":"1000103","ADDRESS":"新北市中和區中和路430號","TEL":"02-22319797","COUNTYNAME":"新北市","TOWNNAME":"中和區","MARKTYPE":"994","Class":"4"},"geometry":{"x":121.5118307482675,"y":25.003346239950542}},{"attributes":{"OBJECTID":5554,"LANDMARKID":"1000100001751","LANDMARKCO":"402","LANDMARKNA":"中華電信-中和員山特約服務中心","LANDMARKAD":"1000103","ADDRESS":"新北市中和區員山路188號","TEL":"02-22212277","COUNTYNAME":"新北市","TOWNNAME":"中和區","MARKTYPE":"994","Class":"4"},"geometry":{"x":121.48138408333328,"y":25.000351018222656}},{"attributes":{"OBJECTID":5555,"LANDMARKID":"1000100001752","LANDMARKCO":"402","LANDMARKNA":"中華電信-連城服務中心","LANDMARKAD":"1000103","ADDRESS":"新北市中和區連城路94號","TEL":"123或0800-080-123","COUNTYNAME":"新北市","TOWNNAME":"中和區","MARKTYPE":"994","Class":"4"},"geometry":{"x":121.49664186466929,"y":25.000530956388015}},{"attributes":{"OBJECTID":5556,"LANDMARKID":"1000100001753","LANDMARKCO":"402","LANDMARKNA":"中華電信-南勢角服務中心","LANDMARKAD":"1000103","ADDRESS":"新北市中和區景平路157號","TEL":"123或0800-080-123","COUNTYNAME":"新北市","TOWNNAME":"中和區","MARKTYPE":"994","Class":"4"},"geometry":{"x":121.51288437765405,"y":24.99224338626777}},{"attributes":{"OBJECTID":5557,"LANDMARKID":"1000100001754","LANDMARKCO":"402","LANDMARKNA":"中華電信-中和服務中心","LANDMARKAD":"1000103","ADDRESS":"新北市中和區景新街57巷13號","TEL":"123或0800-080-123","COUNTYNAME":"新北市","TOWNNAME":"中和區","MARKTYPE":"994","Class":"4"},"geometry":{"x":121.50453965386772,"y":24.999404322089784}},{"attributes":{"OBJECTID":5558,"LANDMARKID":"1000100001755","LANDMARKCO":"402","LANDMARKNA":"中華電信-中和興南特約服務中心","LANDMARKAD":"1000103","ADDRESS":"新北市中和區興南路一段11號","TEL":"02-31515589","COUNTYNAME":"新北市","TOWNNAME":"中和區","MARKTYPE":"994","Class":"4"},"geometry":{"x":121.51152953710164,"y":24.991133245737299}},{"attributes":{"OBJECTID":5559,"LANDMARKID":"1000100001756","LANDMARKCO":"402","LANDMARKNA":"遠傳電信-中和連城門市","LANDMARKAD":"1000103","ADDRESS":"新北市中和區連城路471號","TEL":" ","COUNTYNAME":"新北市","TOWNNAME":"中和區","MARKTYPE":"994","Class":"4"},"geometry":{"x":121.48344060044067,"y":24.995787462590243}},{"attributes":{"OBJECTID":5560,"LANDMARKID":"1000100001757","LANDMARKCO":"402","LANDMARKNA":"威寶電信-中和中山二特約服務中心","LANDMARKAD":"1000103","ADDRESS":"新北市中和區中山路三段199號","TEL":"02-22239701","COUNTYNAME":"新北市","TOWNNAME":"中和區","MARKTYPE":"994","Class":"4"},"geometry":{"x":121.47226446800495,"y":25.006305285289077}},{"attributes":{"OBJECTID":5561,"LANDMARKID":"1000100001758","LANDMARKCO":"402","LANDMARKNA":"威寶電信-中和員山特約服務中心","LANDMARKAD":"1000103","ADDRESS":"新北市中和區員山路307號","TEL":"02-82267873","COUNTYNAME":"新北市","TOWNNAME":"中和區","MARKTYPE":"994","Class":"4"},"geometry":{"x":121.48114612055559,"y":25.000325473649088}},{"attributes":{"OBJECTID":5562,"LANDMARKID":"1000100001759","LANDMARKCO":"402","LANDMARKNA":"威寶電信-中和景新特約服務中心","LANDMARKAD":"1000103","ADDRESS":"新北市中和區景新街392之1號","TEL":"02-29471718","COUNTYNAME":"新北市","TOWNNAME":"中和區","MARKTYPE":"994","Class":"4"},"geometry":{"x":121.51241942508017,"y":24.989736765874174}},{"attributes":{"OBJECTID":5563,"LANDMARKID":"1000100001760","LANDMARKCO":"402","LANDMARKNA":"威寶電信-中和中山特約服務中心","LANDMARKAD":"1000103","ADDRESS":"新北市中和區中山路二段58號","TEL":"02-22469523","COUNTYNAME":"新北市","TOWNNAME":"中和區","MARKTYPE":"994","Class":"4"},"geometry":{"x":121.50404657639416,"y":25.004887752338476}},{"attributes":{"OBJECTID":5564,"LANDMARKID":"1000100001761","LANDMARKCO":"402","LANDMARKNA":"威寶電信-中和景平特約服務中心","LANDMARKAD":"1000103","ADDRESS":"新北市中和區景福里景平路361號","TEL":"02-22445793","COUNTYNAME":"新北市","TOWNNAME":"中和區","MARKTYPE":"994","Class":"4"},"geometry":{"x":121.50456217539011,"y":24.993319182482548}},{"attributes":{"OBJECTID":5565,"LANDMARKID":"1000100001762","LANDMARKCO":"402","LANDMARKNA":"大眾電信(傑昇通信)-中山店","LANDMARKAD":"1000103","ADDRESS":"新北市中和巿中山路二段202號","TEL":"02-22470901","COUNTYNAME":"新北市","TOWNNAME":"中和區","MARKTYPE":"994","Class":"4"},"geometry":{"x":121.49986869945695,"y":25.002802715080914}},{"attributes":{"OBJECTID":5566,"LANDMARKID":"1000100001763","LANDMARKCO":"402","LANDMARKNA":"大眾電信(皇家通訊)-中和店","LANDMARKAD":"1000103","ADDRESS":"新北市中和區中山路二段197號","TEL":"02-22492111","COUNTYNAME":"新北市","TOWNNAME":"中和區","MARKTYPE":"994","Class":"4"},"geometry":{"x":121.49991751964139,"y":25.002549632611291}},{"attributes":{"OBJECTID":5567,"LANDMARKID":"1000100001764","LANDMARKCO":"402","LANDMARKNA":"大眾電信(震旦通訊)-中和員山店","LANDMARKAD":"1000103","ADDRESS":"新北市中和區員山路214號","TEL":"02-82215500","COUNTYNAME":"新北市","TOWNNAME":"中和區","MARKTYPE":"994","Class":"4"},"geometry":{"x":121.48138823419953,"y":25.000883660836678}},{"attributes":{"OBJECTID":5568,"LANDMARKID":"1000100001765","LANDMARKCO":"402","LANDMARKNA":"大眾電信-景平專賣店","LANDMARKAD":"1000103","ADDRESS":"新北市中和區景平路334號","TEL":"02-29437855","COUNTYNAME":"新北市","TOWNNAME":"中和區","MARKTYPE":"994","Class":"4"},"geometry":{"x":121.51203743222149,"y":24.992845086785479}},{"attributes":{"OBJECTID":5569,"LANDMARKID":"1000100001766","LANDMARKCO":"402","LANDMARKNA":"大眾電信(震旦通訊)-中和中山店","LANDMARKAD":"1000103","ADDRESS":"新北市中和區景平路665號","TEL":"02-22445211","COUNTYNAME":"新北市","TOWNNAME":"中和區","MARKTYPE":"994","Class":"4"},"geometry":{"x":121.49653910006427,"y":25.002535919619106}},{"attributes":{"OBJECTID":5570,"LANDMARKID":"1000100001767","LANDMARKCO":"402","LANDMARKNA":"大眾電信(震旦通訊)-中和景安店","LANDMARKAD":"1000103","ADDRESS":"新北市中和區景安路171號","TEL":"02-89422379","COUNTYNAME":"新北市","TOWNNAME":"中和區","MARKTYPE":"994","Class":"4"},"geometry":{"x":121.50534368792249,"y":24.994397272654258}},{"attributes":{"OBJECTID":5571,"LANDMARKID":"1000100001768","LANDMARKCO":"402","LANDMARKNA":"大眾電信(皇家通訊)-南勢角","LANDMARKAD":"1000103","ADDRESS":"新北市中和區景新街320號","TEL":"02-86688800","COUNTYNAME":"新北市","TOWNNAME":"中和區","MARKTYPE":"994","Class":"4"},"geometry":{"x":121.51154355224378,"y":24.991629704835923}},{"attributes":{"OBJECTID":5572,"LANDMARKID":"1000100001769","LANDMARKCO":"402","LANDMARKNA":"大眾電信-中和店","LANDMARKAD":"1000103","ADDRESS":"新北市中和區興南路一段88號","TEL":"0968-544878","COUNTYNAME":"新北市","TOWNNAME":"中和區","MARKTYPE":"994","Class":"4"},"geometry":{"x":121.50991911650159,"y":24.989247872271019}},{"attributes":{"OBJECTID":5573,"LANDMARKID":"1000100001770","LANDMARKCO":"402","LANDMARKNA":"大眾電信(震旦通訊)-中和中和店","LANDMARKAD":"1000103","ADDRESS":"新北市中和區中和路臨51號","TEL":"02-82421055","COUNTYNAME":"新北市","TOWNNAME":"中和區","MARKTYPE":"994","Class":"4"},"geometry":{"x":121.50039900057942,"y":25.001234737254816}},{"attributes":{"OBJECTID":5574,"LANDMARKID":"1000100002732","LANDMARKCO":"603","LANDMARKNA":"景安精品旅館","LANDMARKAD":"1000103","ADDRESS":"新北市中和區明禮街32號2至9樓","TEL":"02-22438989","COUNTYNAME":"新北市","TOWNNAME":"中和區","MARKTYPE":"996","Class":"6"},"geometry":{"x":121.50433402092938,"y":24.996409812111388}},{"attributes":{"OBJECTID":5575,"LANDMARKID":"1000100002733","LANDMARKCO":"603","LANDMARKNA":"美麗殿精品汽車旅館","LANDMARKAD":"1000103","ADDRESS":"新北市中和區板南路487號","TEL":"02-22226868","COUNTYNAME":"新北市","TOWNNAME":"中和區","MARKTYPE":"996","Class":"6"},"geometry":{"x":121.48794117831075,"y":25.006360086796121}},{"attributes":{"OBJECTID":5576,"LANDMARKID":"1000100002734","LANDMARKCO":"603","LANDMARKNA":"坎城時尚旅店","LANDMARKAD":"1000103","ADDRESS":"新北市中和區建八路3號","TEL":"02-82217070","COUNTYNAME":"新北市","TOWNNAME":"中和區","MARKTYPE":"996","Class":"6"},"geometry":{"x":121.48605109760993,"y":24.998950223973374}},{"attributes":{"OBJECTID":5577,"LANDMARKID":"1000100002735","LANDMARKCO":"603","LANDMARKNA":"美芙精品旅館","LANDMARKAD":"1000103","ADDRESS":"新北市中和區中正路1184號","TEL":"02-22232399","COUNTYNAME":"新北市","TOWNNAME":"中和區","MARKTYPE":"996","Class":"6"},"geometry":{"x":121.48319358786205,"y":25.00723953202187}},{"attributes":{"OBJECTID":5578,"LANDMARKID":"1000100002736","LANDMARKCO":"603","LANDMARKNA":"興南旅社","LANDMARKAD":"1000103","ADDRESS":"新北市中和區興南路1段54之1號","TEL":"02-29428945","COUNTYNAME":"新北市","TOWNNAME":"中和區","MARKTYPE":"996","Class":"6"},"geometry":{"x":121.51083485051687,"y":24.990546512207992}},{"attributes":{"OBJECTID":5579,"LANDMARKID":"1000100002737","LANDMARKCO":"603","LANDMARKNA":"悅池精品旅館","LANDMARKAD":"1000103","ADDRESS":"新北市中和區立德街299號","TEL":"02-22211234","COUNTYNAME":"新北市","TOWNNAME":"中和區","MARKTYPE":"996","Class":"6"},"geometry":{"x":121.48317026484975,"y":25.009934607902796}},{"attributes":{"OBJECTID":5580,"LANDMARKID":"1000100002738","LANDMARKCO":"603","LANDMARKNA":"君迪商旅","LANDMARKAD":"1000103","ADDRESS":"新北市中和區中正路637巷52弄25號及連城路469巷81弄27","TEL":"02-82213666","COUNTYNAME":"新北市","TOWNNAME":"中和區","MARKTYPE":"996","Class":"6"},"geometry":{"x":121.48357835967387,"y":24.99380328251582}},{"attributes":{"OBJECTID":5581,"LANDMARKID":"1000100002739","LANDMARKCO":"603","LANDMARKNA":"中和賓館","LANDMARKAD":"1000103","ADDRESS":"新北市中和區安樂路41號3至4樓(2樓門廳)及安和路1.3號","TEL":"02-29429386","COUNTYNAME":"新北市","TOWNNAME":"中和區","MARKTYPE":"996","Class":"6"},"geometry":{"x":121.51178279951426,"y":24.993198942142026}},{"attributes":{"OBJECTID":5582,"LANDMARKID":"1000100002740","LANDMARKCO":"603","LANDMARKNA":"儷閣經典旅館","LANDMARKAD":"1000103","ADDRESS":"新北市中和區員山路8之6號","TEL":"02-22486688","COUNTYNAME":"新北市","TOWNNAME":"中和區","MARKTYPE":"996","Class":"6"},"geometry":{"x":121.485102826039,"y":24.981006518204826}},{"attributes":{"OBJECTID":5583,"LANDMARKID":"1000100002741","LANDMARKCO":"603","LANDMARKNA":"香格里拉汽車旅館中和館","LANDMARKAD":"1000103","ADDRESS":"新北市中和區連城路469巷79弄25號","TEL":"02-82213666","COUNTYNAME":"新北市","TOWNNAME":"中和區","MARKTYPE":"996","Class":"6"},"geometry":{"x":121.48457857851314,"y":24.994236255592263}},{"attributes":{"OBJECTID":5584,"LANDMARKID":"1000100002742","LANDMARKCO":"603","LANDMARKNA":"皇城商務汽車旅館","LANDMARKAD":"1000103","ADDRESS":"新北市中和區連城路77號","TEL":"02-82423599","COUNTYNAME":"新北市","TOWNNAME":"中和區","MARKTYPE":"996","Class":"6"},"geometry":{"x":121.49712502234414,"y":25.000247851672839}},{"attributes":{"OBJECTID":5585,"LANDMARKID":"1000100002743","LANDMARKCO":"603","LANDMARKNA":"日暉中和旅館","LANDMARKAD":"1000103","ADDRESS":"新北市中和區景平路381號1-7樓","TEL":"02-22479997","COUNTYNAME":"新北市","TOWNNAME":"中和區","MARKTYPE":"996","Class":"6"},"geometry":{"x":121.50398771141671,"y":24.993332104976318}},{"attributes":{"OBJECTID":5586,"LANDMARKID":"1000100002744","LANDMARKCO":"603","LANDMARKNA":"全家旅店","LANDMARKAD":"1000103","ADDRESS":"新北市中和區中和路59號6樓及9至11樓","TEL":"02-82459191","COUNTYNAME":"新北市","TOWNNAME":"中和區","MARKTYPE":"996","Class":"6"},"geometry":{"x":121.50052079548374,"y":25.00120064524716}},{"attributes":{"OBJECTID":5587,"LANDMARKID":"1000100002745","LANDMARKCO":"603","LANDMARKNA":"新萬年大飯店","LANDMARKAD":"1000103","ADDRESS":"新北市中和區中山路2段162號1","TEL":"3-6樓","COUNTYNAME":"新北市","TOWNNAME":"中和區","MARKTYPE":"996","Class":"6"},"geometry":{"x":121.50145516180893,"y":25.002972884490021}},{"attributes":{"OBJECTID":5588,"LANDMARKID":"1000100002746","LANDMARKCO":"603","LANDMARKNA":"瑤宮商務旅店","LANDMARKAD":"1000103","ADDRESS":"新北市中和區中山路2段33號10至12樓之1至之6","TEL":"02-22432000","COUNTYNAME":"新北市","TOWNNAME":"中和區","MARKTYPE":"996","Class":"6"},"geometry":{"x":121.50481146409302,"y":25.005135356358053}},{"attributes":{"OBJECTID":5589,"LANDMARKID":"1000100002747","LANDMARKCO":"603","LANDMARKNA":"香格里拉汽車旅館","LANDMARKAD":"1000103","ADDRESS":"新北市中和區中正路637巷52弄12號","TEL":"02-82213666","COUNTYNAME":"新北市","TOWNNAME":"中和區","MARKTYPE":"996","Class":"6"},"geometry":{"x":121.48466780296157,"y":24.994244702446196}},{"attributes":{"OBJECTID":5590,"LANDMARKID":"1000100002748","LANDMARKCO":"603","LANDMARKNA":"皇都旅館","LANDMARKAD":"1000103","ADDRESS":"新北市中和區中和路13號1至5樓","TEL":"02-22421166","COUNTYNAME":"新北市","TOWNNAME":"中和區","MARKTYPE":"996","Class":"6"},"geometry":{"x":121.49981501940775,"y":25.002125992209315}},{"attributes":{"OBJECTID":5591,"LANDMARKID":"1000100002749","LANDMARKCO":"603","LANDMARKNA":"親親賓館","LANDMARKAD":"1000103","ADDRESS":"新北市中和區景平路669號3樓之1","TEL":"02-22407094","COUNTYNAME":"新北市","TOWNNAME":"中和區","MARKTYPE":"996","Class":"6"},"geometry":{"x":121.49653982552516,"y":25.002626197896031}},{"attributes":{"OBJECTID":5592,"LANDMARKID":"1000100002750","LANDMARKCO":"603","LANDMARKNA":"凱帝賓館","LANDMARKAD":"1000103","ADDRESS":"新北市中和區景平路669號3樓之13至之27號及4樓之5.之7","TEL":"02-22481998","COUNTYNAME":"新北市","TOWNNAME":"中和區","MARKTYPE":"996","Class":"6"},"geometry":{"x":121.49653982552516,"y":25.002626197896031}},{"attributes":{"OBJECTID":5593,"LANDMARKID":"1000100002751","LANDMARKCO":"603","LANDMARKNA":"桂林賓館","LANDMARKAD":"1000103","ADDRESS":"新北市中和區景平路711號1至2至4樓(1樓門廳)","TEL":"02-22403456","COUNTYNAME":"新北市","TOWNNAME":"中和區","MARKTYPE":"996","Class":"6"},"geometry":{"x":121.49640952675071,"y":25.003827791487289}},{"attributes":{"OBJECTID":5594,"LANDMARKID":"1000100002752","LANDMARKCO":"603","LANDMARKNA":"香妮賓館","LANDMARKAD":"1000103","ADDRESS":"新北市中和區景平路726號10至12樓","TEL":"02-22405566","COUNTYNAME":"新北市","TOWNNAME":"中和區","MARKTYPE":"996","Class":"6"},"geometry":{"x":121.49673521171326,"y":25.00367213672267}},{"attributes":{"OBJECTID":5595,"LANDMARKID":"1000100002753","LANDMARKCO":"603","LANDMARKNA":"宏仁旅店","LANDMARKAD":"1000103","ADDRESS":"新北市中和區景新街391號2至5樓","TEL":"02-29449985","COUNTYNAME":"新北市","TOWNNAME":"中和區","MARKTYPE":"996","Class":"6"},"geometry":{"x":121.51252094976786,"y":24.990033999771228}},{"attributes":{"OBJECTID":5596,"LANDMARKID":"1000100002754","LANDMARKCO":"603","LANDMARKNA":"阿月旅社","LANDMARKAD":"1000103","ADDRESS":"新北市中和區景新街57巷28號","TEL":"02-22494688","COUNTYNAME":"新北市","TOWNNAME":"中和區","MARKTYPE":"996","Class":"6"},"geometry":{"x":121.50467856372009,"y":24.999430465008601}},{"attributes":{"OBJECTID":5597,"LANDMARKID":"1000100002755","LANDMARKCO":"603","LANDMARKNA":"青山商務汽車旅館","LANDMARKAD":"1000103","ADDRESS":"新北市中和區新生街45號","TEL":"02-82215888","COUNTYNAME":"新北市","TOWNNAME":"中和區","MARKTYPE":"996","Class":"6"},"geometry":{"x":121.48343385143043,"y":25.002766304848397}},{"attributes":{"OBJECTID":5598,"LANDMARKID":"1000100002756","LANDMARKCO":"603","LANDMARKNA":"台北國際商旅","LANDMARKAD":"1000103","ADDRESS":"新北市中和區中山路2段538號","TEL":"02-22229898","COUNTYNAME":"新北市","TOWNNAME":"中和區","MARKTYPE":"996","Class":"6"},"geometry":{"x":121.4853837372288,"y":25.005182177289385}},{"attributes":{"OBJECTID":5599,"LANDMARKID":"1000100002731","LANDMARKCO":"602","LANDMARKNA":"福朋喜來登飯店","LANDMARKAD":"1000103","ADDRESS":"新北市中和區中正路631號","TEL":"02-2222-9999","COUNTYNAME":"新北市","TOWNNAME":"中和區","MARKTYPE":"996","Class":"6"},"geometry":{"x":121.48528636380539,"y":24.99492678478957}},{"attributes":{"OBJECTID":5600,"LANDMARKID":"1000100002713","LANDMARKCO":"511","LANDMARKNA":"興南夜市","LANDMARKAD":"1000103","ADDRESS":"新北市中和區","TEL":" ","COUNTYNAME":"新北市","TOWNNAME":"中和區","MARKTYPE":"995","Class":"5"},"geometry":{"x":121.51253672688989,"y":24.989609039540344}}]}