{"displayFieldName":"COUNTYNAME","fieldAliases":{"OBJECTID":"OBJECTID","LANDMARKID":"LANDMARKID","LANDMARKCO":"LANDMARKCO","LANDMARKNA":"LANDMARKNA","LANDMARKAD":"LANDMARKAD","ADDRESS":"ADDRESS","TEL":"TEL","COUNTYNAME":"COUNTYNAME","TOWNNAME":"TOWNNAME","MARKTYPE":"MARKTYPE","Class":"Class"},"geometryType":"esriGeometryPoint","spatialReference":{"wkid":102443},"fields":[{"name":"OBJECTID","type":"esriFieldTypeOID","alias":"OBJECTID"},{"name":"LANDMARKID","type":"esriFieldTypeString","alias":"LANDMARKID","length":15},{"name":"LANDMARKCO","type":"esriFieldTypeString","alias":"LANDMARKCO","length":15},{"name":"LANDMARKNA","type":"esriFieldTypeString","alias":"LANDMARKNA","length":50},{"name":"LANDMARKAD","type":"esriFieldTypeString","alias":"LANDMARKAD","length":15},{"name":"ADDRESS","type":"esriFieldTypeString","alias":"ADDRESS","length":56},{"name":"TEL","type":"esriFieldTypeString","alias":"TEL","length":36},{"name":"COUNTYNAME","type":"esriFieldTypeString","alias":"COUNTYNAME","length":15},{"name":"TOWNNAME","type":"esriFieldTypeString","alias":"TOWNNAME","length":13},{"name":"MARKTYPE","type":"esriFieldTypeString","alias":"MARKTYPE","length":12},{"name":"Class","type":"esriFieldTypeString","alias":"Class","length":5}],"features":[{"attributes":{"OBJECTID":7001,"LANDMARKID":"6300000003298","LANDMARKCO":"508","LANDMARKNA":"逃玩小鎮","LANDMARKAD":"6300011","ADDRESS":"台北市士林區菁山路119之2號","TEL":"02-28617777","COUNTYNAME":"台北市","TOWNNAME":"士林區","MARKTYPE":"995","Class":"5"},"geometry":{"x":306466.76080000028,"y":2781988.4130000006}},{"attributes":{"OBJECTID":7002,"LANDMARKID":"6300000003299","LANDMARKCO":"508","LANDMARKNA":"馬槽溫泉","LANDMARKAD":"6300011","ADDRESS":"台北市士林區","TEL":" ","COUNTYNAME":"台北市","TOWNNAME":"士林區","MARKTYPE":"995","Class":"5"},"geometry":{"x":306564.46980000008,"y":2785299.0131999999}},{"attributes":{"OBJECTID":7003,"LANDMARKID":"6300000003300","LANDMARKCO":"508","LANDMARKNA":"菁山小鎮","LANDMARKAD":"6300011","ADDRESS":"台北市士林區菁山路101巷67之1號","TEL":"02-28618080","COUNTYNAME":"台北市","TOWNNAME":"士林區","MARKTYPE":"995","Class":"5"},"geometry":{"x":306618.1640999997,"y":2782642.4947999995}},{"attributes":{"OBJECTID":7004,"LANDMARKID":"6300000003301","LANDMARKCO":"508","LANDMARKNA":"川瀨會館野天湯泉","LANDMARKAD":"6300011","ADDRESS":"台北市士林區至善路三段55號","TEL":"02-28414567","COUNTYNAME":"台北市","TOWNNAME":"士林區","MARKTYPE":"995","Class":"5"},"geometry":{"x":307171.16540000029,"y":2778936.6135000009}},{"attributes":{"OBJECTID":7005,"LANDMARKID":"6300000003302","LANDMARKCO":"508","LANDMARKNA":"椿園日式會館","LANDMARKAD":"6300011","ADDRESS":"台北市士林區至善路三段55號","TEL":"02-28412278","COUNTYNAME":"台北市","TOWNNAME":"士林區","MARKTYPE":"995","Class":"5"},"geometry":{"x":307184.38989999983,"y":2778941.5611000005}},{"attributes":{"OBJECTID":7006,"LANDMARKID":"6300000003303","LANDMARKCO":"508","LANDMARKNA":"日月農莊","LANDMARKAD":"6300011","ADDRESS":"台北市士林區竹子湖路211巷8號","TEL":"02-28614096","COUNTYNAME":"台北市","TOWNNAME":"士林區","MARKTYPE":"995","Class":"5"},"geometry":{"x":307180.28149999958,"y":2785832.5672999993}},{"attributes":{"OBJECTID":7007,"LANDMARKID":"6300000003304","LANDMARKCO":"508","LANDMARKNA":"磺溪溫泉","LANDMARKAD":"6300011","ADDRESS":"台北市士林區","TEL":" ","COUNTYNAME":"台北市","TOWNNAME":"士林區","MARKTYPE":"995","Class":"5"},"geometry":{"x":308162.65809999965,"y":2785189.6477000006}},{"attributes":{"OBJECTID":7008,"LANDMARKID":"6300000003305","LANDMARKCO":"508","LANDMARKNA":"陽明山菁山溫泉渡假村(原櫻花溫泉)","LANDMARKAD":"6300011","ADDRESS":"台北市士林區菁山路101巷71弄16號","TEL":"02-28623666","COUNTYNAME":"台北市","TOWNNAME":"士林區","MARKTYPE":"995","Class":"5"},"geometry":{"x":306251.68549999967,"y":2782860.2207999993}},{"attributes":{"OBJECTID":7009,"LANDMARKID":"6300000003357","LANDMARKCO":"511","LANDMARKNA":"天母東路商店街","LANDMARKAD":"6300011","ADDRESS":"台北市士林區","TEL":" ","COUNTYNAME":"台北市","TOWNNAME":"士林區","MARKTYPE":"995","Class":"5"},"geometry":{"x":303523.38549999986,"y":2778972.7038000003}},{"attributes":{"OBJECTID":7010,"LANDMARKID":"6300000003358","LANDMARKCO":"511","LANDMARKNA":"中山北路傢俱街","LANDMARKAD":"6300011","ADDRESS":"台北市士林區","TEL":" ","COUNTYNAME":"台北市","TOWNNAME":"士林區","MARKTYPE":"995","Class":"5"},"geometry":{"x":302972.10859999992,"y":2777914.1443000007}},{"attributes":{"OBJECTID":7011,"LANDMARKID":"6300000003359","LANDMARKCO":"511","LANDMARKNA":"文林路傢俱街","LANDMARKAD":"6300011","ADDRESS":"台北市士林區","TEL":" ","COUNTYNAME":"台北市","TOWNNAME":"士林區","MARKTYPE":"995","Class":"5"},"geometry":{"x":302857.06080000009,"y":2776645.0233999994}},{"attributes":{"OBJECTID":7012,"LANDMARKID":"6300000003139","LANDMARKCO":"505","LANDMARKNA":"中國電影文化城","LANDMARKAD":"6300011","ADDRESS":"台北市士林區至善路二段34號","TEL":" ","COUNTYNAME":"台北市","TOWNNAME":"士林區","MARKTYPE":"995","Class":"5"},"geometry":{"x":305005.46509999968,"y":2776672.6281000003}},{"attributes":{"OBJECTID":7013,"LANDMARKID":"6300000003140","LANDMARKCO":"505","LANDMARKNA":"明德樂園","LANDMARKAD":"6300011","ADDRESS":"台北市士林區至善路三段55號","TEL":" ","COUNTYNAME":"台北市","TOWNNAME":"士林區","MARKTYPE":"995","Class":"5"},"geometry":{"x":307035.72479999997,"y":2778486.4844000004}},{"attributes":{"OBJECTID":7014,"LANDMARKID":"6300000003119","LANDMARKCO":"503","LANDMARKNA":"冷水坑遊憩區","LANDMARKAD":"6300011","ADDRESS":"台北市士林區菁山路101巷107號","TEL":" ","COUNTYNAME":"台北市","TOWNNAME":"士林區","MARKTYPE":"995","Class":"5"},"geometry":{"x":307031.55260000005,"y":2784375.0162000004}},{"attributes":{"OBJECTID":7015,"LANDMARKID":"6300000003120","LANDMARKCO":"503","LANDMARKNA":"擎天崗遊憩區","LANDMARKAD":"6300011","ADDRESS":"台北市士林區","TEL":" ","COUNTYNAME":"台北市","TOWNNAME":"士林區","MARKTYPE":"995","Class":"5"},"geometry":{"x":307830.42540000007,"y":2784379.0282000005}},{"attributes":{"OBJECTID":7016,"LANDMARKID":"6300000003307","LANDMARKCO":"510","LANDMARKNA":"雙溪高爾夫練習場","LANDMARKAD":"6300011","ADDRESS":"台北市士林區劍南路101巷4號","TEL":"02-28411894","COUNTYNAME":"台北市","TOWNNAME":"士林區","MARKTYPE":"995","Class":"5"},"geometry":{"x":306365.49000000022,"y":2777303.7441000007}},{"attributes":{"OBJECTID":7017,"LANDMARKID":"6300000003297","LANDMARKCO":"508","LANDMARKNA":"陽明山菁山溫泉渡假村(原櫻花溫泉)","LANDMARKAD":"6300011","ADDRESS":" ","TEL":" ","COUNTYNAME":"台北市","TOWNNAME":"士林區","MARKTYPE":"995","Class":"5"},"geometry":{"x":306251.68549999967,"y":2782860.2207999993}},{"attributes":{"OBJECTID":7018,"LANDMARKID":"6300000002447","LANDMARKCO":"405","LANDMARKNA":"中油加油站-協記站","LANDMARKAD":"6300010","ADDRESS":"台北市內湖區新明路305號","TEL":"02-27911903","COUNTYNAME":"台北市","TOWNNAME":"內湖區","MARKTYPE":"994","Class":"4"},"geometry":{"x":309017.24129999988,"y":2772213.8139999993}},{"attributes":{"OBJECTID":7019,"LANDMARKID":"6300000002448","LANDMARKCO":"405","LANDMARKNA":"中油加油站-東湖站(中油直營)","LANDMARKAD":"6300010","ADDRESS":"台北市內湖區康寧路三段225號","TEL":"02-26311524","COUNTYNAME":"台北市","TOWNNAME":"內湖區","MARKTYPE":"994","Class":"4"},"geometry":{"x":311728.63659999985,"y":2773396.4350000005}},{"attributes":{"OBJECTID":7020,"LANDMARKID":"6300000002449","LANDMARKCO":"405","LANDMARKNA":"中油加油站-康寧站","LANDMARKAD":"6300010","ADDRESS":"台北市內湖區康寧路三段30號","TEL":"02-26328788","COUNTYNAME":"台北市","TOWNNAME":"內湖區","MARKTYPE":"994","Class":"4"},"geometry":{"x":311379.30399999954,"y":2773883.3478999995}},{"attributes":{"OBJECTID":7021,"LANDMARKID":"6300000002450","LANDMARKCO":"405","LANDMARKNA":"中油加油站-紫陽站","LANDMARKAD":"6300010","ADDRESS":"台北市內湖區文德路206號","TEL":"02-26579000","COUNTYNAME":"台北市","TOWNNAME":"內湖區","MARKTYPE":"994","Class":"4"},"geometry":{"x":308856.41849999968,"y":2774581.5920000002}},{"attributes":{"OBJECTID":7022,"LANDMARKID":"6300000002451","LANDMARKCO":"405","LANDMARKNA":"中油加油站-西湖站(中油直營)","LANDMARKAD":"6300010","ADDRESS":"台北市內湖區內湖路一段59號","TEL":"02-27992147","COUNTYNAME":"台北市","TOWNNAME":"內湖區","MARKTYPE":"994","Class":"4"},"geometry":{"x":306485.8554999996,"y":2775315.8749000002}},{"attributes":{"OBJECTID":7023,"LANDMARKID":"6300000002452","LANDMARKCO":"405","LANDMARKNA":"中油加油站-內湖站(中油直營)","LANDMARKAD":"6300010","ADDRESS":"台北市內湖區民權東路六段50號","TEL":"02-27920678","COUNTYNAME":"台北市","TOWNNAME":"內湖區","MARKTYPE":"994","Class":"4"},"geometry":{"x":308915.83729999978,"y":2773494.5679000001}},{"attributes":{"OBJECTID":7024,"LANDMARKID":"6300000002453","LANDMARKCO":"405","LANDMARKNA":"統一速邁樂加油站-內湖一站加油站(中油)","LANDMARKAD":"6300010","ADDRESS":"台北市內湖區新明路92號","TEL":" ","COUNTYNAME":"台北市","TOWNNAME":"內湖區","MARKTYPE":"994","Class":"4"},"geometry":{"x":309477.26279999968,"y":2772513.3836000003}},{"attributes":{"OBJECTID":7025,"LANDMARKID":"6300000002454","LANDMARKCO":"405","LANDMARKNA":"中油加油站-安康加油站(中油直營)","LANDMARKAD":"6300010","ADDRESS":"台北市內湖區安康路282號","TEL":"02-27909413","COUNTYNAME":"台北市","TOWNNAME":"內湖區","MARKTYPE":"994","Class":"4"},"geometry":{"x":311128.26439999975,"y":2773015.7248999998}},{"attributes":{"OBJECTID":7026,"LANDMARKID":"6300000002455","LANDMARKCO":"405","LANDMARKNA":"中油加油站-東易站","LANDMARKAD":"6300010","ADDRESS":"台北市內湖區堤頂大道二段191號","TEL":"02-27232996","COUNTYNAME":"台北市","TOWNNAME":"內湖區","MARKTYPE":"994","Class":"4"},"geometry":{"x":307353.3853000002,"y":2774504.2140999995}},{"attributes":{"OBJECTID":7027,"LANDMARKID":"6300000002456","LANDMARKCO":"405","LANDMARKNA":"中油加油站-內湖麗山街站(中油直營)","LANDMARKAD":"6300010","ADDRESS":"台北市內湖區內湖路一段362號","TEL":"02-26577339","COUNTYNAME":"台北市","TOWNNAME":"內湖區","MARKTYPE":"994","Class":"4"},"geometry":{"x":307609.28170000017,"y":2774899.4956}},{"attributes":{"OBJECTID":7028,"LANDMARKID":"6300000002457","LANDMARKCO":"405","LANDMARKNA":"台灣優力加油站-進寶站(中油)","LANDMARKAD":"6300010","ADDRESS":"台北市內湖區港墘路250號","TEL":"02-26596153","COUNTYNAME":"台北市","TOWNNAME":"內湖區","MARKTYPE":"994","Class":"4"},"geometry":{"x":307750.84480000008,"y":2774187.1290000007}},{"attributes":{"OBJECTID":7029,"LANDMARKID":"6300000002458","LANDMARKCO":"405","LANDMARKNA":"中油加油站-麗馳站","LANDMARKAD":"6300010","ADDRESS":"台北市內湖區舊宗路二段133號","TEL":"02-27925356","COUNTYNAME":"台北市","TOWNNAME":"內湖區","MARKTYPE":"994","Class":"4"},"geometry":{"x":308007.1958999997,"y":2773628.6589000002}},{"attributes":{"OBJECTID":7030,"LANDMARKID":"6300000002294","LANDMARKCO":"402","LANDMARKNA":"My Phone台灣大哥大-內湖光電直營服務中心","LANDMARKAD":"6300010","ADDRESS":"台北市內湖區瑞光路498號","TEL":"0809-000-166","COUNTYNAME":"台北市","TOWNNAME":"內湖區","MARKTYPE":"994","Class":"4"},"geometry":{"x":307354.60140000004,"y":2774655.2036000006}},{"attributes":{"OBJECTID":7031,"LANDMARKID":"6300000002295","LANDMARKCO":"402","LANDMARKNA":"My Phone台灣大哥大-內湖－成功II","LANDMARKAD":"6300010","ADDRESS":"台北市內湖區成功路三段131號","TEL":"02-27923139","COUNTYNAME":"台北市","TOWNNAME":"內湖區","MARKTYPE":"994","Class":"4"},"geometry":{"x":309500.7145999996,"y":2774685.5899}},{"attributes":{"OBJECTID":7032,"LANDMARKID":"6300000002296","LANDMARKCO":"402","LANDMARKNA":"My Phone台灣大哥大-內湖東湖","LANDMARKAD":"6300010","ADDRESS":"台北市內湖區東湖路24號之1","TEL":"(02)2632-5917","COUNTYNAME":"台北市","TOWNNAME":"內湖區","MARKTYPE":"994","Class":"4"},"geometry":{"x":311828.0251000002,"y":2773527.2122000009}},{"attributes":{"OBJECTID":7033,"LANDMARKID":"6300000002297","LANDMARKCO":"402","LANDMARKNA":"亞太行動寬頻電信-內湖內湖一加盟服務中心","LANDMARKAD":"6300010","ADDRESS":"台北市內湖區內湖路1段421號","TEL":"02-27987377","COUNTYNAME":"台北市","TOWNNAME":"內湖區","MARKTYPE":"994","Class":"4"},"geometry":{"x":307635.46119999979,"y":2774930.1912999991}},{"attributes":{"OBJECTID":7034,"LANDMARKID":"6300000002298","LANDMARKCO":"402","LANDMARKNA":"亞太行動寬頻電信-內湖康寧加盟服務中心","LANDMARKAD":"6300010","ADDRESS":"台北市內湖區康寧路3段171-1號","TEL":"02-26313308","COUNTYNAME":"台北市","TOWNNAME":"內湖區","MARKTYPE":"994","Class":"4"},"geometry":{"x":311717.37550000008,"y":2773691.7070000004}},{"attributes":{"OBJECTID":7035,"LANDMARKID":"6300000002299","LANDMARKCO":"402","LANDMARKNA":"亞太行動寬頻電信-內湖金龍加盟服務中心","LANDMARKAD":"6300010","ADDRESS":"台北市內湖區金龍路39號","TEL":"02-27922919","COUNTYNAME":"台北市","TOWNNAME":"內湖區","MARKTYPE":"994","Class":"4"},"geometry":{"x":309916.74089999963,"y":2775306.9798000008}},{"attributes":{"OBJECTID":7036,"LANDMARKID":"6300000002096","LANDMARKCO":"401","LANDMARKNA":"財團法人康寧醫院","LANDMARKAD":"6300010","ADDRESS":"台北市內湖區成功路五段420巷26號","TEL":"02-26345500","COUNTYNAME":"台北市","TOWNNAME":"內湖區","MARKTYPE":"994","Class":"4"},"geometry":{"x":311414.47730000038,"y":2774328.7978000008}},{"attributes":{"OBJECTID":7037,"LANDMARKID":"6300000002097","LANDMARKCO":"401","LANDMARKNA":"中國醫藥大學附設醫院台北分院","LANDMARKAD":"6300010","ADDRESS":"台北市內湖區內湖路二段360號","TEL":"02-27919696","COUNTYNAME":"台北市","TOWNNAME":"內湖區","MARKTYPE":"994","Class":"4"},"geometry":{"x":309577.7592000002,"y":2775003.2476000004}},{"attributes":{"OBJECTID":7038,"LANDMARKID":"6300000002098","LANDMARKCO":"401","LANDMARKNA":"三軍總醫院-內湖院區","LANDMARKAD":"6300010","ADDRESS":"台北市內湖區成功路二段325號","TEL":"02-87923311","COUNTYNAME":"台北市","TOWNNAME":"內湖區","MARKTYPE":"994","Class":"4"},"geometry":{"x":309722.14219999965,"y":2773860.8632999994}},{"attributes":{"OBJECTID":7039,"LANDMARKID":"6300000001962","LANDMARKCO":"306","LANDMARKNA":"東湖捷運站-出口3","LANDMARKAD":"6300010","ADDRESS":" ","TEL":" ","COUNTYNAME":"台北市","TOWNNAME":"內湖區","MARKTYPE":"993","Class":"306"},"geometry":{"x":311741.72640000004,"y":2773341.3911000006}},{"attributes":{"OBJECTID":7040,"LANDMARKID":"6300000001963","LANDMARKCO":"306","LANDMARKNA":"內湖捷運站-出口1","LANDMARKAD":"6300010","ADDRESS":" ","TEL":" ","COUNTYNAME":"台北市","TOWNNAME":"內湖區","MARKTYPE":"993","Class":"306"},"geometry":{"x":309956.98940000031,"y":2775200.8067000005}},{"attributes":{"OBJECTID":7041,"LANDMARKID":"6300000001964","LANDMARKCO":"306","LANDMARKNA":"文德捷運站-出口2","LANDMARKAD":"6300010","ADDRESS":" ","TEL":" ","COUNTYNAME":"台北市","TOWNNAME":"內湖區","MARKTYPE":"993","Class":"306"},"geometry":{"x":308948.86029999983,"y":2774581.4256999996}},{"attributes":{"OBJECTID":7042,"LANDMARKID":"6300000001965","LANDMARKCO":"306","LANDMARKNA":"\u007F\u007F文德捷運站-出口1","LANDMARKAD":"6300010","ADDRESS":" ","TEL":" ","COUNTYNAME":"台北市","TOWNNAME":"內湖區","MARKTYPE":"993","Class":"306"},"geometry":{"x":309068.99060000014,"y":2774636.7049000002}},{"attributes":{"OBJECTID":7043,"LANDMARKID":"6300000001966","LANDMARKCO":"306","LANDMARKNA":"港墘捷運站-出口1","LANDMARKAD":"6300010","ADDRESS":" ","TEL":" ","COUNTYNAME":"台北市","TOWNNAME":"內湖區","MARKTYPE":"993","Class":"306"},"geometry":{"x":308089.50619999971,"y":2774772.7895}},{"attributes":{"OBJECTID":7044,"LANDMARKID":"6300000001967","LANDMARKCO":"306","LANDMARKNA":"港墘捷運站-出口2","LANDMARKAD":"6300010","ADDRESS":" ","TEL":" ","COUNTYNAME":"台北市","TOWNNAME":"內湖區","MARKTYPE":"993","Class":"306"},"geometry":{"x":307988.60819999967,"y":2774762.2719000001}},{"attributes":{"OBJECTID":7045,"LANDMARKID":"6300000001968","LANDMARKCO":"306","LANDMARKNA":"西湖捷運站-出口2","LANDMARKAD":"6300010","ADDRESS":" ","TEL":" ","COUNTYNAME":"台北市","TOWNNAME":"內湖區","MARKTYPE":"993","Class":"306"},"geometry":{"x":307217.33750000037,"y":2774979.6819000002}},{"attributes":{"OBJECTID":7046,"LANDMARKID":"6300000001969","LANDMARKCO":"306","LANDMARKNA":"內湖捷運站-出口2","LANDMARKAD":"6300010","ADDRESS":" ","TEL":" ","COUNTYNAME":"台北市","TOWNNAME":"內湖區","MARKTYPE":"993","Class":"306"},"geometry":{"x":309974.56369999982,"y":2775157.9143000003}},{"attributes":{"OBJECTID":7047,"LANDMARKID":"6300000001970","LANDMARKCO":"306","LANDMARKNA":"大湖公園捷運站-出口1","LANDMARKAD":"6300010","ADDRESS":" ","TEL":" ","COUNTYNAME":"台北市","TOWNNAME":"內湖區","MARKTYPE":"993","Class":"306"},"geometry":{"x":310777.08210000023,"y":2775196.2328999992}},{"attributes":{"OBJECTID":7048,"LANDMARKID":"6300000001971","LANDMARKCO":"306","LANDMARKNA":"西湖捷運站-出口1","LANDMARKAD":"6300010","ADDRESS":" ","TEL":" ","COUNTYNAME":"台北市","TOWNNAME":"內湖區","MARKTYPE":"993","Class":"306"},"geometry":{"x":307182.81450000033,"y":2775014.0258000009}},{"attributes":{"OBJECTID":7049,"LANDMARKID":"6300000001972","LANDMARKCO":"306","LANDMARKNA":"葫洲捷運站-出口2","LANDMARKAD":"6300010","ADDRESS":" ","TEL":" ","COUNTYNAME":"台北市","TOWNNAME":"內湖區","MARKTYPE":"993","Class":"306"},"geometry":{"x":311280.71939999983,"y":2773935.5015999991}},{"attributes":{"OBJECTID":7050,"LANDMARKID":"6300000001973","LANDMARKCO":"306","LANDMARKNA":"大湖公園捷運站-出口2","LANDMARKAD":"6300010","ADDRESS":" ","TEL":" ","COUNTYNAME":"台北市","TOWNNAME":"內湖區","MARKTYPE":"993","Class":"306"},"geometry":{"x":310734.64769999962,"y":2775193.6384999994}},{"attributes":{"OBJECTID":7051,"LANDMARKID":"6300000001974","LANDMARKCO":"306","LANDMARKNA":"葫洲捷運站-出口1","LANDMARKAD":"6300010","ADDRESS":" ","TEL":" ","COUNTYNAME":"台北市","TOWNNAME":"內湖區","MARKTYPE":"993","Class":"306"},"geometry":{"x":311346.07060000021,"y":2773963.5870999992}},{"attributes":{"OBJECTID":7052,"LANDMARKID":"6300000001975","LANDMARKCO":"306","LANDMARKNA":"東湖捷運站-出口2","LANDMARKAD":"6300010","ADDRESS":" ","TEL":" ","COUNTYNAME":"台北市","TOWNNAME":"內湖區","MARKTYPE":"993","Class":"306"},"geometry":{"x":311661.13920000009,"y":2773356.5836999994}},{"attributes":{"OBJECTID":7053,"LANDMARKID":"6300000001976","LANDMARKCO":"306","LANDMARKNA":"東湖捷運站-出口1","LANDMARKAD":"6300010","ADDRESS":" ","TEL":" ","COUNTYNAME":"台北市","TOWNNAME":"內湖區","MARKTYPE":"993","Class":"306"},"geometry":{"x":311625.19440000039,"y":2773362.6896000002}},{"attributes":{"OBJECTID":7054,"LANDMARKID":"6300000003175","LANDMARKCO":"507","LANDMARKNA":"內湖郭氏古宅","LANDMARKAD":"6300010","ADDRESS":"台北市內湖區文德路241巷19號","TEL":" ","COUNTYNAME":"台北市","TOWNNAME":"內湖區","MARKTYPE":"995","Class":"5"},"geometry":{"x":309190.30680000037,"y":2774734.4441999998}},{"attributes":{"OBJECTID":7055,"LANDMARKID":"6300000003176","LANDMARKCO":"507","LANDMARKNA":"林秀俊墓","LANDMARKAD":"6300010","ADDRESS":"台北市內湖區文德段四小段598之1號","TEL":" ","COUNTYNAME":"台北市","TOWNNAME":"內湖區","MARKTYPE":"995","Class":"5"},"geometry":{"x":308138.1453999998,"y":2775313.7678999994}},{"attributes":{"OBJECTID":7056,"LANDMARKID":"6300000003177","LANDMARKCO":"507","LANDMARKNA":"內湖清代採石場","LANDMARKAD":"6300010","ADDRESS":"台北市內湖區環山路136巷底","TEL":" ","COUNTYNAME":"台北市","TOWNNAME":"內湖區","MARKTYPE":"995","Class":"5"},"geometry":{"x":308427.79820000008,"y":2773262.7993000001}},{"attributes":{"OBJECTID":7057,"LANDMARKID":"6300000003161","LANDMARKCO":"506","LANDMARKNA":"內湖康寧路果園","LANDMARKAD":"6300010","ADDRESS":"台北市內湖區葫洲里康寧路二段81之3號","TEL":"02-27951343","COUNTYNAME":"台北市","TOWNNAME":"內湖區","MARKTYPE":"995","Class":"5"},"geometry":{"x":310919.57629999984,"y":2774029.8545999993}},{"attributes":{"OBJECTID":7058,"LANDMARKID":"6300000003173","LANDMARKCO":"507","LANDMARKNA":"內湖庄役場會議室","LANDMARKAD":"6300010","ADDRESS":"台北市內湖區內湖路二段342號","TEL":" ","COUNTYNAME":"台北市","TOWNNAME":"內湖區","MARKTYPE":"995","Class":"5"},"geometry":{"x":309773.54389999993,"y":2775164.4696999993}},{"attributes":{"OBJECTID":7059,"LANDMARKID":"6300000003174","LANDMARKCO":"507","LANDMARKNA":"內湖郭氏古宅","LANDMARKAD":"6300010","ADDRESS":"台北市內湖區文德路241巷19號","TEL":" ","COUNTYNAME":"台北市","TOWNNAME":"內湖區","MARKTYPE":"995","Class":"5"},"geometry":{"x":309417.16289999988,"y":2774702.7279000003}},{"attributes":{"OBJECTID":7060,"LANDMARKID":"6300000002944","LANDMARKCO":"408","LANDMARKNA":"郵局-內湖郵局","LANDMARKAD":"6300010","ADDRESS":"台北市內湖區民權東路6段83號","TEL":"(02)2790-1070","COUNTYNAME":"台北市","TOWNNAME":"內湖區","MARKTYPE":"994","Class":"4"},"geometry":{"x":309318.25800000038,"y":2773579.1948000006}},{"attributes":{"OBJECTID":7061,"LANDMARKID":"6300000002945","LANDMARKCO":"408","LANDMARKNA":"郵局-內湖碧湖郵局","LANDMARKAD":"6300010","ADDRESS":"台北市內湖區內湖路2段225號","TEL":"(02)2792-2674","COUNTYNAME":"台北市","TOWNNAME":"內湖區","MARKTYPE":"994","Class":"4"},"geometry":{"x":309402.59470000025,"y":2774964.7982000001}},{"attributes":{"OBJECTID":7062,"LANDMARKID":"6300000002946","LANDMARKCO":"408","LANDMARKNA":"郵局-內湖週美郵局","LANDMARKAD":"6300010","ADDRESS":"台北市內湖區新明路380巷4弄4號","TEL":"(02)2791-0759","COUNTYNAME":"台北市","TOWNNAME":"內湖區","MARKTYPE":"994","Class":"4"},"geometry":{"x":308528.09410000034,"y":2772003.0181000009}},{"attributes":{"OBJECTID":7063,"LANDMARKID":"6300000002947","LANDMARKCO":"408","LANDMARKNA":"郵局-內湖文德郵局","LANDMARKAD":"6300010","ADDRESS":"台北市內湖區文德路26號","TEL":"(02)2797-3893","COUNTYNAME":"台北市","TOWNNAME":"內湖區","MARKTYPE":"994","Class":"4"},"geometry":{"x":308481.26240000036,"y":2774578.1675000004}},{"attributes":{"OBJECTID":7064,"LANDMARKID":"6300000002948","LANDMARKCO":"408","LANDMARKNA":"郵局-內湖金龍郵局","LANDMARKAD":"6300010","ADDRESS":"台北市內湖區內湖路3段131號","TEL":"(02)2790-3378","COUNTYNAME":"台北市","TOWNNAME":"內湖區","MARKTYPE":"994","Class":"4"},"geometry":{"x":309513.33029999956,"y":2775520.5215000007}},{"attributes":{"OBJECTID":7065,"LANDMARKID":"6300000002949","LANDMARKCO":"408","LANDMARKNA":"郵局-內湖西湖郵局","LANDMARKAD":"6300010","ADDRESS":"台北市內湖區內湖路1段331號","TEL":"(02)2798-7290","COUNTYNAME":"台北市","TOWNNAME":"內湖區","MARKTYPE":"994","Class":"4"},"geometry":{"x":307329.80900000036,"y":2775012.3067000005}},{"attributes":{"OBJECTID":7066,"LANDMARKID":"6300000002950","LANDMARKCO":"408","LANDMARKNA":"郵局-內湖東湖郵局","LANDMARKAD":"6300010","ADDRESS":"台北市內湖區康樂街16號","TEL":"(02)2633-3525","COUNTYNAME":"台北市","TOWNNAME":"內湖區","MARKTYPE":"994","Class":"4"},"geometry":{"x":312338.75789999962,"y":2773469.4368999992}},{"attributes":{"OBJECTID":7067,"LANDMARKID":"6300000002951","LANDMARKCO":"408","LANDMARKNA":"郵局-內湖大湖郵局","LANDMARKAD":"6300010","ADDRESS":"台北市內湖區大湖街166巷2號","TEL":"(02)2792-6045","COUNTYNAME":"台北市","TOWNNAME":"內湖區","MARKTYPE":"994","Class":"4"},"geometry":{"x":310589.47819999978,"y":2775249.7171}},{"attributes":{"OBJECTID":7068,"LANDMARKID":"6300000002952","LANDMARKCO":"408","LANDMARKNA":"郵局-內湖江南郵局","LANDMARKAD":"6300010","ADDRESS":"台北市內湖區瑞光路316巷1號","TEL":"(02)2657-2428","COUNTYNAME":"台北市","TOWNNAME":"內湖區","MARKTYPE":"994","Class":"4"},"geometry":{"x":307902.71050000004,"y":2774374.2579999994}},{"attributes":{"OBJECTID":7069,"LANDMARKID":"6300000002953","LANDMARKCO":"408","LANDMARKNA":"郵局-內湖北勢湖郵局","LANDMARKAD":"6300010","ADDRESS":"台北市內湖區內湖路1段91巷2-1號","TEL":"(02)2799-4021","COUNTYNAME":"台北市","TOWNNAME":"內湖區","MARKTYPE":"994","Class":"4"},"geometry":{"x":306640.6381000001,"y":2775278.8436999992}},{"attributes":{"OBJECTID":7070,"LANDMARKID":"6300000002954","LANDMARKCO":"408","LANDMARKNA":"郵局-內湖新明郵局","LANDMARKAD":"6300010","ADDRESS":"台北市內湖區新明路315號","TEL":"(02)2792-7970","COUNTYNAME":"台北市","TOWNNAME":"內湖區","MARKTYPE":"994","Class":"4"},"geometry":{"x":308996.64609999955,"y":2772207.4008000009}},{"attributes":{"OBJECTID":7071,"LANDMARKID":"6300000002955","LANDMARKCO":"408","LANDMARKNA":"郵局-內湖康寧郵局","LANDMARKAD":"6300010","ADDRESS":"台北市內湖區康寧路3段22號之1","TEL":"(02)2633-4746","COUNTYNAME":"台北市","TOWNNAME":"內湖區","MARKTYPE":"994","Class":"4"},"geometry":{"x":311309.03670000006,"y":2773922.0247000009}},{"attributes":{"OBJECTID":7072,"LANDMARKID":"6300000002956","LANDMARKCO":"408","LANDMARKNA":"郵局-內湖三總郵局","LANDMARKAD":"6300010","ADDRESS":"台北市內湖區成功路2段325號2樓","TEL":"(02)8791-2867","COUNTYNAME":"台北市","TOWNNAME":"內湖區","MARKTYPE":"994","Class":"4"},"geometry":{"x":309722.14219999965,"y":2773860.8675999995}},{"attributes":{"OBJECTID":7073,"LANDMARKID":"6300000003098","LANDMARKCO":"409","LANDMARKNA":"內湖區農會","LANDMARKAD":"6300010","ADDRESS":"台北市內湖路二段334號","TEL":"02-2790013","COUNTYNAME":"台北市","TOWNNAME":"內湖區","MARKTYPE":"994","Class":"4"},"geometry":{"x":309406.47709999979,"y":2774938.9992999993}},{"attributes":{"OBJECTID":7074,"LANDMARKID":"6300000002539","LANDMARKCO":"406","LANDMARKNA":"金湖公園","LANDMARKAD":"6300010","ADDRESS":"台北市內湖區","TEL":" ","COUNTYNAME":"台北市","TOWNNAME":"內湖區","MARKTYPE":"994","Class":"4"},"geometry":{"x":309327.65600000042,"y":2775635.5264999997}},{"attributes":{"OBJECTID":7075,"LANDMARKID":"6300000002540","LANDMARKCO":"406","LANDMARKNA":"麗山一號公園","LANDMARKAD":"6300010","ADDRESS":"台北市內湖區","TEL":" ","COUNTYNAME":"台北市","TOWNNAME":"內湖區","MARKTYPE":"994","Class":"4"},"geometry":{"x":307853.64829999954,"y":2775620.0460000001}},{"attributes":{"OBJECTID":7076,"LANDMARKID":"6300000002541","LANDMARKCO":"406","LANDMARKNA":"湖山三號公園","LANDMARKAD":"6300010","ADDRESS":"台北市內湖區","TEL":" ","COUNTYNAME":"台北市","TOWNNAME":"內湖區","MARKTYPE":"994","Class":"4"},"geometry":{"x":310972.2193,"y":2775565.2673000004}},{"attributes":{"OBJECTID":7077,"LANDMARKID":"6300000002542","LANDMARKCO":"406","LANDMARKNA":"金龍公園","LANDMARKAD":"6300010","ADDRESS":"台北市內湖區","TEL":" ","COUNTYNAME":"台北市","TOWNNAME":"內湖區","MARKTYPE":"994","Class":"4"},"geometry":{"x":309715.60800000001,"y":2775556.0023999996}},{"attributes":{"OBJECTID":7078,"LANDMARKID":"6300000002543","LANDMARKCO":"406","LANDMARKNA":"麗山四號公園","LANDMARKAD":"6300010","ADDRESS":"台北市內湖區","TEL":" ","COUNTYNAME":"台北市","TOWNNAME":"內湖區","MARKTYPE":"994","Class":"4"},"geometry":{"x":308034.10940000042,"y":2775486.3947999999}},{"attributes":{"OBJECTID":7079,"LANDMARKID":"6300000002544","LANDMARKCO":"406","LANDMARKNA":"成功公園","LANDMARKAD":"6300010","ADDRESS":"台北市內湖區","TEL":" ","COUNTYNAME":"台北市","TOWNNAME":"內湖區","MARKTYPE":"994","Class":"4"},"geometry":{"x":310217.40629999992,"y":2775230.2847000007}},{"attributes":{"OBJECTID":7080,"LANDMARKID":"6300000002545","LANDMARKCO":"406","LANDMARKNA":"北勢湖公園","LANDMARKAD":"6300010","ADDRESS":"台北市內湖區","TEL":" ","COUNTYNAME":"台北市","TOWNNAME":"內湖區","MARKTYPE":"994","Class":"4"},"geometry":{"x":306649.51790000033,"y":2775185.6821999997}},{"attributes":{"OBJECTID":7081,"LANDMARKID":"6300000002546","LANDMARKCO":"406","LANDMARKNA":"碧湖公園","LANDMARKAD":"6300010","ADDRESS":"台北市內湖區","TEL":" ","COUNTYNAME":"台北市","TOWNNAME":"內湖區","MARKTYPE":"994","Class":"4"},"geometry":{"x":308662.39869999979,"y":2775145.4642999992}},{"attributes":{"OBJECTID":7082,"LANDMARKID":"6300000002547","LANDMARKCO":"406","LANDMARKNA":"大埤公園","LANDMARKAD":"6300010","ADDRESS":"台北市內湖區","TEL":" ","COUNTYNAME":"台北市","TOWNNAME":"內湖區","MARKTYPE":"994","Class":"4"},"geometry":{"x":308894.45839999989,"y":2775105.1393999998}},{"attributes":{"OBJECTID":7083,"LANDMARKID":"6300000002548","LANDMARKCO":"406","LANDMARKNA":"西湖公園","LANDMARKAD":"6300010","ADDRESS":"台北市內湖區","TEL":" ","COUNTYNAME":"台北市","TOWNNAME":"內湖區","MARKTYPE":"994","Class":"4"},"geometry":{"x":306951.97890000045,"y":2775083.2271999996}},{"attributes":{"OBJECTID":7084,"LANDMARKID":"6300000002549","LANDMARKCO":"406","LANDMARKNA":"六十四號公園","LANDMARKAD":"6300010","ADDRESS":"台北市內湖區","TEL":" ","COUNTYNAME":"台北市","TOWNNAME":"內湖區","MARKTYPE":"994","Class":"4"},"geometry":{"x":309964.55310000014,"y":2774979.0623000003}},{"attributes":{"OBJECTID":7085,"LANDMARKID":"6300000002550","LANDMARKCO":"406","LANDMARKNA":"大湖公園","LANDMARKAD":"6300010","ADDRESS":"台北市內湖區","TEL":" ","COUNTYNAME":"台北市","TOWNNAME":"內湖區","MARKTYPE":"994","Class":"4"},"geometry":{"x":310899.23280000035,"y":2775022.6034999993}},{"attributes":{"OBJECTID":7086,"LANDMARKID":"6300000002551","LANDMARKCO":"406","LANDMARKNA":"港墘公園","LANDMARKAD":"6300010","ADDRESS":"台北市內湖區","TEL":" ","COUNTYNAME":"台北市","TOWNNAME":"內湖區","MARKTYPE":"994","Class":"4"},"geometry":{"x":308069.74120000005,"y":2774844.2353000008}},{"attributes":{"OBJECTID":7087,"LANDMARKID":"6300000002552","LANDMARKCO":"406","LANDMARKNA":"港富公園","LANDMARKAD":"6300010","ADDRESS":"台北市內湖區","TEL":" ","COUNTYNAME":"台北市","TOWNNAME":"內湖區","MARKTYPE":"994","Class":"4"},"geometry":{"x":308322.7893000003,"y":2774745.3317000009}},{"attributes":{"OBJECTID":7088,"LANDMARKID":"6300000002553","LANDMARKCO":"406","LANDMARKNA":"十三號公園","LANDMARKAD":"6300010","ADDRESS":"台北市內湖區","TEL":" ","COUNTYNAME":"台北市","TOWNNAME":"內湖區","MARKTYPE":"994","Class":"4"},"geometry":{"x":308844.32919999957,"y":2774724.3792000003}},{"attributes":{"OBJECTID":7089,"LANDMARKID":"6300000002554","LANDMARKCO":"406","LANDMARKNA":"洲子二號公園","LANDMARKAD":"6300010","ADDRESS":"台北市內湖區","TEL":" ","COUNTYNAME":"台北市","TOWNNAME":"內湖區","MARKTYPE":"994","Class":"4"},"geometry":{"x":307395.07969999965,"y":2774703.4348000009}},{"attributes":{"OBJECTID":7090,"LANDMARKID":"6300000002555","LANDMARKCO":"406","LANDMARKNA":"十四號公園","LANDMARKAD":"6300010","ADDRESS":"台北市內湖區","TEL":" ","COUNTYNAME":"台北市","TOWNNAME":"內湖區","MARKTYPE":"994","Class":"4"},"geometry":{"x":308786.15230000019,"y":2774690.2576000001}},{"attributes":{"OBJECTID":7091,"LANDMARKID":"6300000002556","LANDMARKCO":"406","LANDMARKNA":"瑞陽公園","LANDMARKAD":"6300010","ADDRESS":"台北市內湖區","TEL":" ","COUNTYNAME":"台北市","TOWNNAME":"內湖區","MARKTYPE":"994","Class":"4"},"geometry":{"x":308461.77410000004,"y":2774499.3983999994}},{"attributes":{"OBJECTID":7092,"LANDMARKID":"6300000002557","LANDMARKCO":"406","LANDMARKNA":"紫陽公園","LANDMARKAD":"6300010","ADDRESS":"台北市內湖區","TEL":" ","COUNTYNAME":"台北市","TOWNNAME":"內湖區","MARKTYPE":"994","Class":"4"},"geometry":{"x":309166.41770000011,"y":2774429.3132000007}},{"attributes":{"OBJECTID":7093,"LANDMARKID":"6300000002558","LANDMARKCO":"406","LANDMARKNA":"東湖一號公園","LANDMARKAD":"6300010","ADDRESS":"台北市內湖區","TEL":" ","COUNTYNAME":"台北市","TOWNNAME":"內湖區","MARKTYPE":"994","Class":"4"},"geometry":{"x":311744.32490000036,"y":2774296.5544000007}},{"attributes":{"OBJECTID":7094,"LANDMARKID":"6300000002559","LANDMARKCO":"406","LANDMARKNA":"安泰公園","LANDMARKAD":"6300010","ADDRESS":"台北市內湖區","TEL":" ","COUNTYNAME":"台北市","TOWNNAME":"內湖區","MARKTYPE":"994","Class":"4"},"geometry":{"x":312414.78830000013,"y":2774130.5218000002}},{"attributes":{"OBJECTID":7095,"LANDMARKID":"6300000002560","LANDMARKCO":"406","LANDMARKNA":"東湖二號公園","LANDMARKAD":"6300010","ADDRESS":"台北市內湖區","TEL":" ","COUNTYNAME":"台北市","TOWNNAME":"內湖區","MARKTYPE":"994","Class":"4"},"geometry":{"x":311629.40969999973,"y":2774093.2947000004}},{"attributes":{"OBJECTID":7096,"LANDMARKID":"6300000002561","LANDMARKCO":"406","LANDMARKNA":"東湖七號公園","LANDMARKAD":"6300010","ADDRESS":"台北市內湖區","TEL":" ","COUNTYNAME":"台北市","TOWNNAME":"內湖區","MARKTYPE":"994","Class":"4"},"geometry":{"x":311995.92360000033,"y":2773996.4316000007}},{"attributes":{"OBJECTID":7097,"LANDMARKID":"6300000002562","LANDMARKCO":"406","LANDMARKNA":"河濱水岸公園","LANDMARKAD":"6300010","ADDRESS":"台北市內湖區","TEL":" ","COUNTYNAME":"台北市","TOWNNAME":"內湖區","MARKTYPE":"994","Class":"4"},"geometry":{"x":307780.79260000028,"y":2773841.1603999995}},{"attributes":{"OBJECTID":7098,"LANDMARKID":"6300000002563","LANDMARKCO":"406","LANDMARKNA":"東湖四號公園","LANDMARKAD":"6300010","ADDRESS":"台北市內湖區","TEL":" ","COUNTYNAME":"台北市","TOWNNAME":"內湖區","MARKTYPE":"994","Class":"4"},"geometry":{"x":312299.75760000013,"y":2773746.1392999999}},{"attributes":{"OBJECTID":7099,"LANDMARKID":"6300000002564","LANDMARKCO":"406","LANDMARKNA":"東湖三號公園","LANDMARKAD":"6300010","ADDRESS":"台北市內湖區","TEL":" ","COUNTYNAME":"台北市","TOWNNAME":"內湖區","MARKTYPE":"994","Class":"4"},"geometry":{"x":312111.08000000007,"y":2773717.3706}},{"attributes":{"OBJECTID":7100,"LANDMARKID":"6300000002565","LANDMARKCO":"406","LANDMARKNA":"東湖五號公園","LANDMARKAD":"6300010","ADDRESS":"台北市內湖區","TEL":" ","COUNTYNAME":"台北市","TOWNNAME":"內湖區","MARKTYPE":"994","Class":"4"},"geometry":{"x":312633.47059999965,"y":2773679.5824999996}},{"attributes":{"OBJECTID":7101,"LANDMARKID":"6300000002566","LANDMARKCO":"406","LANDMARKNA":"安東公園","LANDMARKAD":"6300010","ADDRESS":"台北市內湖區","TEL":" ","COUNTYNAME":"台北市","TOWNNAME":"內湖區","MARKTYPE":"994","Class":"4"},"geometry":{"x":311652.06020000018,"y":2773579.1179000009}},{"attributes":{"OBJECTID":7102,"LANDMARKID":"6300000002567","LANDMARKCO":"406","LANDMARKNA":"康寧公園","LANDMARKAD":"6300010","ADDRESS":"台北市內湖區","TEL":" ","COUNTYNAME":"台北市","TOWNNAME":"內湖區","MARKTYPE":"994","Class":"4"},"geometry":{"x":311506.99019999988,"y":2773558.9249000009}},{"attributes":{"OBJECTID":7103,"LANDMARKID":"6300000002568","LANDMARKCO":"406","LANDMARKNA":"五分公園","LANDMARKAD":"6300010","ADDRESS":"台北市內湖區","TEL":" ","COUNTYNAME":"台北市","TOWNNAME":"內湖區","MARKTYPE":"994","Class":"4"},"geometry":{"x":312025.41270000022,"y":2773358.3983999994}},{"attributes":{"OBJECTID":7104,"LANDMARKID":"6300000002569","LANDMARKCO":"406","LANDMARKNA":"安康公園","LANDMARKAD":"6300010","ADDRESS":"台北市內湖區","TEL":" ","COUNTYNAME":"台北市","TOWNNAME":"內湖區","MARKTYPE":"994","Class":"4"},"geometry":{"x":311799.66249999963,"y":2773328.9377999995}},{"attributes":{"OBJECTID":7105,"LANDMARKID":"6300000002570","LANDMARKCO":"406","LANDMARKNA":"湖興公園","LANDMARKAD":"6300010","ADDRESS":"台北市內湖區","TEL":" ","COUNTYNAME":"台北市","TOWNNAME":"內湖區","MARKTYPE":"994","Class":"4"},"geometry":{"x":309480.41069999989,"y":2773317.8787999991}},{"attributes":{"OBJECTID":7106,"LANDMARKID":"6300000002571","LANDMARKCO":"406","LANDMARKNA":"河濱公園","LANDMARKAD":"6300010","ADDRESS":"台北市內湖區","TEL":" ","COUNTYNAME":"台北市","TOWNNAME":"內湖區","MARKTYPE":"994","Class":"4"},"geometry":{"x":309333.48159999959,"y":2772195.5721000005}},{"attributes":{"OBJECTID":7107,"LANDMARKID":"6300000002572","LANDMARKCO":"406","LANDMARKNA":"新明公園","LANDMARKAD":"6300010","ADDRESS":"台北市內湖區","TEL":" ","COUNTYNAME":"台北市","TOWNNAME":"內湖區","MARKTYPE":"994","Class":"4"},"geometry":{"x":308458.04760000017,"y":2771901.2083000001}},{"attributes":{"OBJECTID":7108,"LANDMARKID":"6300000002573","LANDMARKCO":"406","LANDMARKNA":"彩虹河濱公園","LANDMARKAD":"6300010","ADDRESS":"台北市內湖區","TEL":" ","COUNTYNAME":"台北市","TOWNNAME":"內湖區","MARKTYPE":"994","Class":"4"},"geometry":{"x":307650.90110000037,"y":2772557.5460999999}},{"attributes":{"OBJECTID":7109,"LANDMARKID":"6300000002917","LANDMARKCO":"407","LANDMARKNA":"德安生活百貨","LANDMARKAD":"6300010","ADDRESS":"台北市內湖區成功路四段180號","TEL":" ","COUNTYNAME":"台北市","TOWNNAME":"內湖區","MARKTYPE":"994","Class":"4"},"geometry":{"x":309899.59009999968,"y":2775151.8095999993}},{"attributes":{"OBJECTID":7110,"LANDMARKID":"6300000002918","LANDMARKCO":"407","LANDMARKNA":"誠品Eslite","LANDMARKAD":"6300010","ADDRESS":"台北市康寧路3段72號","TEL":"02-2633-8434","COUNTYNAME":"台北市","TOWNNAME":"內湖區","MARKTYPE":"994","Class":"4"},"geometry":{"x":311668.69660000037,"y":2773693.6815000009}},{"attributes":{"OBJECTID":7111,"LANDMARKID":"6300000002468","LANDMARKCO":"405","LANDMARKNA":"全國加油站-文德站（台塑）","LANDMARKAD":"6300010","ADDRESS":"台北市內湖區民權東路六段10號","TEL":"02-27938806","COUNTYNAME":"台北市","TOWNNAME":"內湖區","MARKTYPE":"994","Class":"4"},"geometry":{"x":308078.26269999985,"y":2773173.7368000001}},{"attributes":{"OBJECTID":7112,"LANDMARKID":"6300000002469","LANDMARKCO":"405","LANDMARKNA":"全國加油站-民權站（台塑）","LANDMARKAD":"6300010","ADDRESS":"台北市內湖區民權東路六段20號","TEL":"02-87922326","COUNTYNAME":"台北市","TOWNNAME":"內湖區","MARKTYPE":"994","Class":"4"},"geometry":{"x":308349.13900000043,"y":2773261.2602999993}},{"attributes":{"OBJECTID":7113,"LANDMARKID":"6300000002470","LANDMARKCO":"405","LANDMARKNA":"台塑加油站-義祥站(台塑)","LANDMARKAD":"6300010","ADDRESS":"台北市內湖區舊宗路二段111號","TEL":"02-87918388","COUNTYNAME":"台北市","TOWNNAME":"內湖區","MARKTYPE":"994","Class":"4"},"geometry":{"x":308005.16959999967,"y":2773547.2526999991}},{"attributes":{"OBJECTID":7114,"LANDMARKID":"6300000002471","LANDMARKCO":"405","LANDMARKNA":"鯨世界加油站-堤頂站(台塑)","LANDMARKAD":"6300010","ADDRESS":"台北市內湖區堤頂大道二段13號","TEL":" ","COUNTYNAME":"台北市","TOWNNAME":"內湖區","MARKTYPE":"994","Class":"4"},"geometry":{"x":307710.35099999979,"y":2774252.9694999997}},{"attributes":{"OBJECTID":7115,"LANDMARKID":"6300000002472","LANDMARKCO":"405","LANDMARKNA":"西歐加油站-自強站（台塑）","LANDMARKAD":"6300010","ADDRESS":"台北市內湖路一段146號","TEL":"02-26279311","COUNTYNAME":"台北市","TOWNNAME":"內湖區","MARKTYPE":"994","Class":"4"},"geometry":{"x":306911.15930000041,"y":2775058.1472999994}},{"attributes":{"OBJECTID":7116,"LANDMARKID":"6300000002473","LANDMARKCO":"405","LANDMARKNA":"台塑加油站-佳阜站(台塑)","LANDMARKAD":"6300010","ADDRESS":"台北市內湖區安康路160號","TEL":"02-27916240","COUNTYNAME":"台北市","TOWNNAME":"內湖區","MARKTYPE":"994","Class":"4"},"geometry":{"x":310627.91490000021,"y":2772893.5950000007}},{"attributes":{"OBJECTID":7117,"LANDMARKID":"6300000000155","LANDMARKCO":"103","LANDMARKNA":"台北市內湖運動中心","LANDMARKAD":"6300010","ADDRESS":"台北市內湖區洲子街12號","TEL":"02-26277776","COUNTYNAME":"台北市","TOWNNAME":"內湖區","MARKTYPE":"991","Class":"1"},"geometry":{"x":308015.85649999976,"y":2774567.2307999991}},{"attributes":{"OBJECTID":7118,"LANDMARKID":"6300000000009","LANDMARKCO":"101","LANDMARKNA":"台灣士林地方法院內湖簡易庭","LANDMARKAD":"6300010","ADDRESS":"台北市內湖區民權東路六段91號","TEL":"02-27911521","COUNTYNAME":"台北市","TOWNNAME":"內湖區","MARKTYPE":"991","Class":"1"},"geometry":{"x":309337.30470000021,"y":2773610.1061000004}},{"attributes":{"OBJECTID":7119,"LANDMARKID":"6300000000166","LANDMARKCO":"104","LANDMARKNA":"台北市國稅局內湖稽徵所","LANDMARKAD":"6300010","ADDRESS":"台北市民權東路六段114號4、5、6樓","TEL":"02-27928671","COUNTYNAME":"台北市","TOWNNAME":"內湖區","MARKTYPE":"991","Class":"1"},"geometry":{"x":309223.27359999996,"y":2773532.8574999999}},{"attributes":{"OBJECTID":7120,"LANDMARKID":"6300000000192","LANDMARKCO":"106","LANDMARKNA":"台北市內湖區戶政事務所","LANDMARKAD":"6300010","ADDRESS":"台北市內湖區湖興里9鄰民權東路六段99號3樓","TEL":"02-27912277","COUNTYNAME":"台北市","TOWNNAME":"內湖區","MARKTYPE":"991","Class":"1"},"geometry":{"x":309414.95409999974,"y":2773574.7415999994}},{"attributes":{"OBJECTID":7121,"LANDMARKID":"6300000000316","LANDMARKCO":"107","LANDMARKNA":"台北市政府警察局內湖分局","LANDMARKAD":"6300010","ADDRESS":"台北市內湖區民權東路6段101號","TEL":"02-27900505","COUNTYNAME":"台北市","TOWNNAME":"內湖區","MARKTYPE":"991","Class":"1"},"geometry":{"x":309483.22929999977,"y":2773580.1941}},{"attributes":{"OBJECTID":7122,"LANDMARKID":"6300000000317","LANDMARKCO":"107","LANDMARKNA":"台北市政府警察局康樂派出所","LANDMARKAD":"6300010","ADDRESS":"台北市內湖區康樂街110巷16弄20號","TEL":"02-26342237","COUNTYNAME":"台北市","TOWNNAME":"內湖區","MARKTYPE":"991","Class":"1"},"geometry":{"x":312386.40950000007,"y":2773714.4626000002}},{"attributes":{"OBJECTID":7123,"LANDMARKID":"6300000000318","LANDMARKCO":"107","LANDMARKNA":"台北市政府警察局東湖派出所","LANDMARKAD":"6300010","ADDRESS":"台北市內湖區五分街10號1~3樓","TEL":"02-26313350","COUNTYNAME":"台北市","TOWNNAME":"內湖區","MARKTYPE":"991","Class":"1"},"geometry":{"x":311844.17389999982,"y":2773387.6434000004}},{"attributes":{"OBJECTID":7124,"LANDMARKID":"6300000000319","LANDMARKCO":"107","LANDMARKNA":"台北市政府警察局文德派出所","LANDMARKAD":"6300010","ADDRESS":"台北市內湖區文德路22巷120號","TEL":"02-26573363","COUNTYNAME":"台北市","TOWNNAME":"內湖區","MARKTYPE":"991","Class":"1"},"geometry":{"x":308631.62559999991,"y":2774200.9837999996}},{"attributes":{"OBJECTID":7125,"LANDMARKID":"6300000000320","LANDMARKCO":"107","LANDMARKNA":"台北市政府警察局大湖派出所","LANDMARKAD":"6300010","ADDRESS":"台北市內湖區成功路五段1號","TEL":"02-27909521","COUNTYNAME":"台北市","TOWNNAME":"內湖區","MARKTYPE":"991","Class":"1"},"geometry":{"x":310662.94969999976,"y":2775229.1403000001}},{"attributes":{"OBJECTID":7126,"LANDMARKID":"6300000000321","LANDMARKCO":"107","LANDMARKNA":"台北市政府警察局西湖派出所","LANDMARKAD":"6300010","ADDRESS":"台北市內湖區內湖路一段550號","TEL":"02-27987505","COUNTYNAME":"台北市","TOWNNAME":"內湖區","MARKTYPE":"991","Class":"1"},"geometry":{"x":308176.23950000014,"y":2774630.5273000002}},{"attributes":{"OBJECTID":7127,"LANDMARKID":"6300000000322","LANDMARKCO":"107","LANDMARKNA":"台北市政府警察局潭美派出所","LANDMARKAD":"6300010","ADDRESS":"台北市內湖區新明路324號","TEL":"02-27917233","COUNTYNAME":"台北市","TOWNNAME":"內湖區","MARKTYPE":"991","Class":"1"},"geometry":{"x":308682.57990000024,"y":2772029.3047000002}},{"attributes":{"OBJECTID":7128,"LANDMARKID":"6300000000323","LANDMARKCO":"107","LANDMARKNA":"台北市政府警察局內湖派出所","LANDMARKAD":"6300010","ADDRESS":"台北市內湖區內湖路2段352號","TEL":"02-27900571","COUNTYNAME":"台北市","TOWNNAME":"內湖區","MARKTYPE":"991","Class":"1"},"geometry":{"x":309562.42239999957,"y":2774990.5689000003}},{"attributes":{"OBJECTID":7129,"LANDMARKID":"6300000000324","LANDMARKCO":"107","LANDMARKNA":"台北市政府警察局康寧派出所","LANDMARKAD":"6300010","ADDRESS":"台北市內湖區清白里金湖路83號","TEL":"02-87920061","COUNTYNAME":"台北市","TOWNNAME":"內湖區","MARKTYPE":"991","Class":"1"},"geometry":{"x":310276.9040000001,"y":2774903.3675999995}},{"attributes":{"OBJECTID":7130,"LANDMARKID":"6300000000325","LANDMARKCO":"107","LANDMARKNA":"台北市消防局內湖消防中隊","LANDMARKAD":"6300010","ADDRESS":"台北市民權東路6段9號3樓","TEL":"02-27955747","COUNTYNAME":"台北市","TOWNNAME":"內湖區","MARKTYPE":"991","Class":"1"},"geometry":{"x":308336.14699999988,"y":2773313.3115999997}},{"attributes":{"OBJECTID":7131,"LANDMARKID":"6300000000326","LANDMARKCO":"107","LANDMARKNA":"台北市消防局東湖消防分隊","LANDMARKAD":"6300010","ADDRESS":"台北市內湖區五分街8號","TEL":"02-26325393","COUNTYNAME":"台北市","TOWNNAME":"內湖區","MARKTYPE":"991","Class":"1"},"geometry":{"x":311834.61720000021,"y":2773388.9366999995}},{"attributes":{"OBJECTID":7132,"LANDMARKID":"6300000000327","LANDMARKCO":"107","LANDMARKNA":"台北市消防局大湖消防分隊","LANDMARKAD":"6300010","ADDRESS":"台北市內湖區成功路5段3號","TEL":"02-27906455","COUNTYNAME":"台北市","TOWNNAME":"內湖區","MARKTYPE":"991","Class":"1"},"geometry":{"x":310677.09030000027,"y":2775218.5774000008}},{"attributes":{"OBJECTID":7133,"LANDMARKID":"6300000000328","LANDMARKCO":"107","LANDMARKNA":"台北市消防局內湖消防分隊","LANDMARKAD":"6300010","ADDRESS":"台北市內湖區成功路2段378號","TEL":"02-27911511","COUNTYNAME":"台北市","TOWNNAME":"內湖區","MARKTYPE":"991","Class":"1"},"geometry":{"x":309552.96040000021,"y":2773632.6339999996}},{"attributes":{"OBJECTID":7134,"LANDMARKID":"6300000000154","LANDMARKCO":"103","LANDMARKNA":"台北市內湖區健康服務中心","LANDMARKAD":"6300010","ADDRESS":"台北市內湖區民權東路六段99號2樓","TEL":"02-27911162","COUNTYNAME":"台北市","TOWNNAME":"內湖區","MARKTYPE":"991","Class":"1"},"geometry":{"x":309414.95409999974,"y":2773574.7415999994}},{"attributes":{"OBJECTID":7135,"LANDMARKID":"6300000000368","LANDMARKCO":"108","LANDMARKNA":"台北市內湖區公所","LANDMARKAD":"6300010","ADDRESS":"台北市內湖區民權東路六段99號4-5樓","TEL":"02-27925828","COUNTYNAME":"台北市","TOWNNAME":"內湖區","MARKTYPE":"991","Class":"1"},"geometry":{"x":309414.95409999974,"y":2773574.7415999994}},{"attributes":{"OBJECTID":7136,"LANDMARKID":"6300000000156","LANDMARKCO":"103","LANDMARKNA":"台北市環保局內湖垃圾焚化廠","LANDMARKAD":"6300010","ADDRESS":"台北市內湖區安康路290號2樓","TEL":"02-27961833","COUNTYNAME":"台北市","TOWNNAME":"內湖區","MARKTYPE":"991","Class":"1"},"geometry":{"x":310885.73749999981,"y":2772868.1932999995}},{"attributes":{"OBJECTID":7137,"LANDMARKID":"6300000000010","LANDMARKCO":"101","LANDMARKNA":"國道高速公路局北區工程處內湖","LANDMARKAD":"6300010","ADDRESS":"台北市民權東路6段206巷143弄93號","TEL":"02-27914182轉32","COUNTYNAME":"台北市","TOWNNAME":"內湖區","MARKTYPE":"991","Class":"1"},"geometry":{"x":310313.73639999982,"y":2773033.4909000006}},{"attributes":{"OBJECTID":7138,"LANDMARKID":"6300000000811","LANDMARKCO":"205","LANDMARKNA":"國立台灣戲曲專科學校國劇文物館","LANDMARKAD":"6300010","ADDRESS":"台北市內湖區內湖路二段177號","TEL":"02-27944146","COUNTYNAME":"台北市","TOWNNAME":"內湖區","MARKTYPE":"992","Class":"2"},"geometry":{"x":309163.39719999954,"y":2774939.0095000006}},{"attributes":{"OBJECTID":7139,"LANDMARKID":"6300000000731","LANDMARKCO":"204","LANDMARKNA":"台北市立圖書館內湖分館","LANDMARKAD":"6300010","ADDRESS":"台北市內湖區民權東路六段99號6樓","TEL":" ","COUNTYNAME":"台北市","TOWNNAME":"內湖區","MARKTYPE":"992","Class":"2"},"geometry":{"x":309416.88839999959,"y":2773575.4634000007}},{"attributes":{"OBJECTID":7140,"LANDMARKID":"6300000000732","LANDMARKCO":"204","LANDMARKNA":"台北市立圖書館東湖分館","LANDMARKAD":"6300010","ADDRESS":"台北市內湖區五分街6號","TEL":" ","COUNTYNAME":"台北市","TOWNNAME":"內湖區","MARKTYPE":"992","Class":"2"},"geometry":{"x":311803.57459999993,"y":2773396.5205000006}},{"attributes":{"OBJECTID":7141,"LANDMARKID":"6300000000733","LANDMARKCO":"204","LANDMARKNA":"台北市立圖書館西湖分館","LANDMARKAD":"6300010","ADDRESS":"台北市內湖區內湖路一段594號","TEL":" ","COUNTYNAME":"台北市","TOWNNAME":"內湖區","MARKTYPE":"992","Class":"2"},"geometry":{"x":308233.86400000006,"y":2774628.4567000009}},{"attributes":{"OBJECTID":7142,"LANDMARKID":"6300000000442","LANDMARKCO":"202","LANDMARKNA":"市立內湖高中","LANDMARKAD":"6300010","ADDRESS":"台北市內湖區文德路200號","TEL":"02-27977035","COUNTYNAME":"台北市","TOWNNAME":"內湖區","MARKTYPE":"992","Class":"2"},"geometry":{"x":309174.30030000024,"y":2774589.7967000008}},{"attributes":{"OBJECTID":7143,"LANDMARKID":"6300000000443","LANDMARKCO":"202","LANDMARKNA":"私立達人女中","LANDMARKAD":"6300010","ADDRESS":"台北市內湖區湖濱里內湖路二段314號","TEL":"02-27909775","COUNTYNAME":"台北市","TOWNNAME":"內湖區","MARKTYPE":"992","Class":"2"},"geometry":{"x":309277.68310000002,"y":2774906.3419000003}},{"attributes":{"OBJECTID":7144,"LANDMARKID":"6300000000444","LANDMARKCO":"202","LANDMARKNA":"私立方濟中學","LANDMARKAD":"6300010","ADDRESS":"台北市內湖區成功路三段61號","TEL":"02-27910278","COUNTYNAME":"台北市","TOWNNAME":"內湖區","MARKTYPE":"992","Class":"2"},"geometry":{"x":309537.99839999992,"y":2774471.4374000002}},{"attributes":{"OBJECTID":7145,"LANDMARKID":"6300000000445","LANDMARKCO":"202","LANDMARKNA":"私立文德女中","LANDMARKAD":"6300010","ADDRESS":"台北市內湖區成功路三段70號","TEL":"02-27904570","COUNTYNAME":"台北市","TOWNNAME":"內湖區","MARKTYPE":"992","Class":"2"},"geometry":{"x":309494.71430000011,"y":2774499.6262999997}},{"attributes":{"OBJECTID":7146,"LANDMARKID":"6300000000446","LANDMARKCO":"202","LANDMARKNA":"市立麗山高中","LANDMARKAD":"6300010","ADDRESS":"台北市內湖區環山路二段100號","TEL":"02-26570435","COUNTYNAME":"台北市","TOWNNAME":"內湖區","MARKTYPE":"992","Class":"2"},"geometry":{"x":308297.65050000045,"y":2775218.6923999991}},{"attributes":{"OBJECTID":7147,"LANDMARKID":"6300000000447","LANDMARKCO":"202","LANDMARKNA":"私立西湖工商","LANDMARKAD":"6300010","ADDRESS":"台北市內湖區西湖里內湖路一段353號","TEL":"02-27978749","COUNTYNAME":"台北市","TOWNNAME":"內湖區","MARKTYPE":"992","Class":"2"},"geometry":{"x":307410.8339999998,"y":2775017.9657000005}},{"attributes":{"OBJECTID":7148,"LANDMARKID":"6300000000448","LANDMARKCO":"202","LANDMARKNA":"市立內湖高工","LANDMARKAD":"6300010","ADDRESS":"台北市內湖區港墘里內湖路一段520號","TEL":"02-26574874","COUNTYNAME":"台北市","TOWNNAME":"內湖區","MARKTYPE":"992","Class":"2"},"geometry":{"x":308050.0811999999,"y":2774733.0649999995}},{"attributes":{"OBJECTID":7149,"LANDMARKID":"6300000000449","LANDMARKCO":"202","LANDMARKNA":"市立南湖高中","LANDMARKAD":"6300010","ADDRESS":"台北市內湖區康寧路三段220號","TEL":"02-26308889","COUNTYNAME":"台北市","TOWNNAME":"內湖區","MARKTYPE":"992","Class":"2"},"geometry":{"x":311655.55599999987,"y":2773327.2470999993}},{"attributes":{"OBJECTID":7150,"LANDMARKID":"6300000000649","LANDMARKCO":"203","LANDMARKNA":"市立麗山國中","LANDMARKAD":"6300010","ADDRESS":"台北市內湖區內湖路一段629巷42號","TEL":"02-27991867","COUNTYNAME":"台北市","TOWNNAME":"內湖區","MARKTYPE":"992","Class":"2"},"geometry":{"x":308021.99799999967,"y":2774955.1788999997}},{"attributes":{"OBJECTID":7151,"LANDMARKID":"6300000000650","LANDMARKCO":"203","LANDMARKNA":"市立三民國中","LANDMARKAD":"6300010","ADDRESS":"台北市內湖區民權東路六段45號","TEL":"02-27924772","COUNTYNAME":"台北市","TOWNNAME":"內湖區","MARKTYPE":"992","Class":"2"},"geometry":{"x":309147.04609999992,"y":2773567.1882000007}},{"attributes":{"OBJECTID":7152,"LANDMARKID":"6300000000651","LANDMARKCO":"203","LANDMARKNA":"市立明湖國中","LANDMARKAD":"6300010","ADDRESS":"台北市內湖區康寧路三段60號","TEL":"02-26320616","COUNTYNAME":"台北市","TOWNNAME":"內湖區","MARKTYPE":"992","Class":"2"},"geometry":{"x":311610.2268000003,"y":2773740.6819000002}},{"attributes":{"OBJECTID":7153,"LANDMARKID":"6300000000652","LANDMARKCO":"203","LANDMARKNA":"市立東湖國中","LANDMARKAD":"6300010","ADDRESS":"台北市內湖區康樂街131號","TEL":"02-26330373","COUNTYNAME":"台北市","TOWNNAME":"內湖區","MARKTYPE":"992","Class":"2"},"geometry":{"x":312511.52109999955,"y":2774086.6860000007}},{"attributes":{"OBJECTID":7154,"LANDMARKID":"6300000000653","LANDMARKCO":"203","LANDMARKNA":"市立內湖國中","LANDMARKAD":"6300010","ADDRESS":"台北市內湖區陽光街1號","TEL":"02-27900843","COUNTYNAME":"台北市","TOWNNAME":"內湖區","MARKTYPE":"992","Class":"2"},"geometry":{"x":309390.65079999994,"y":2774434.1119999997}},{"attributes":{"OBJECTID":7155,"LANDMARKID":"6300000000654","LANDMARKCO":"203","LANDMARKNA":"市立西湖國中","LANDMARKAD":"6300010","ADDRESS":"台北市內湖區環山路一段27號","TEL":"02-27991817","COUNTYNAME":"台北市","TOWNNAME":"內湖區","MARKTYPE":"992","Class":"2"},"geometry":{"x":307061.47329999972,"y":2775403.7547999993}},{"attributes":{"OBJECTID":7156,"LANDMARKID":"6300000000655","LANDMARKCO":"203","LANDMARKNA":"市立大湖國小","LANDMARKAD":"6300010","ADDRESS":"台北市內湖區大湖里大湖山莊街170號","TEL":"02-27916815","COUNTYNAME":"台北市","TOWNNAME":"內湖區","MARKTYPE":"992","Class":"2"},"geometry":{"x":310559.35580000002,"y":2775677.5947999991}},{"attributes":{"OBJECTID":7157,"LANDMARKID":"6300000000656","LANDMARKCO":"203","LANDMARKNA":"市立內湖國小","LANDMARKAD":"6300010","ADDRESS":"台北市內湖區港富里內湖路二段41號","TEL":"02-27970237","COUNTYNAME":"台北市","TOWNNAME":"內湖區","MARKTYPE":"992","Class":"2"},"geometry":{"x":308530.62870000023,"y":2774663.4556000009}},{"attributes":{"OBJECTID":7158,"LANDMARKID":"6300000000657","LANDMARKCO":"203","LANDMARKNA":"市立文湖國小","LANDMARKAD":"6300010","ADDRESS":"台北市內湖區西康里文湖街15號","TEL":"02-26583515","COUNTYNAME":"台北市","TOWNNAME":"內湖區","MARKTYPE":"992","Class":"2"},"geometry":{"x":306502.39769999962,"y":2775401.0067999996}},{"attributes":{"OBJECTID":7159,"LANDMARKID":"6300000000658","LANDMARKCO":"203","LANDMARKNA":"市立新湖國小","LANDMARKAD":"6300010","ADDRESS":"台北市內湖區湖興里民權東路六段138號","TEL":"02-27963721","COUNTYNAME":"台北市","TOWNNAME":"內湖區","MARKTYPE":"992","Class":"2"},"geometry":{"x":309394.35520000011,"y":2773529.3637000006}},{"attributes":{"OBJECTID":7160,"LANDMARKID":"6300000000659","LANDMARKCO":"203","LANDMARKNA":"市立東湖國小","LANDMARKAD":"6300010","ADDRESS":"台北市內湖區東湖里東湖路115號","TEL":"02-26319432","COUNTYNAME":"台北市","TOWNNAME":"內湖區","MARKTYPE":"992","Class":"2"},"geometry":{"x":312124.94649999961,"y":2773510.1370000001}},{"attributes":{"OBJECTID":7161,"LANDMARKID":"6300000000660","LANDMARKCO":"203","LANDMARKNA":"市立碧湖國小","LANDMARKAD":"6300010","ADDRESS":"台北市內湖區內湖里金龍路100號","TEL":"02-27907161","COUNTYNAME":"台北市","TOWNNAME":"內湖區","MARKTYPE":"992","Class":"2"},"geometry":{"x":309627.23620000016,"y":2775355.5296999998}},{"attributes":{"OBJECTID":7162,"LANDMARKID":"6300000000661","LANDMARKCO":"203","LANDMARKNA":"市立康寧國小","LANDMARKAD":"6300010","ADDRESS":"台北市內湖區紫星里星雲街121號","TEL":"02-27901237","COUNTYNAME":"台北市","TOWNNAME":"內湖區","MARKTYPE":"992","Class":"2"},"geometry":{"x":310017.07029999979,"y":2774774.5344999991}},{"attributes":{"OBJECTID":7163,"LANDMARKID":"6300000000662","LANDMARKCO":"203","LANDMARKNA":"市立明湖國小","LANDMARKAD":"6300010","ADDRESS":"台北市內湖區葫洲里康寧路三段105號","TEL":"02-26323477","COUNTYNAME":"台北市","TOWNNAME":"內湖區","MARKTYPE":"992","Class":"2"},"geometry":{"x":311597.79760000017,"y":2773790.9879999999}},{"attributes":{"OBJECTID":7164,"LANDMARKID":"6300000000663","LANDMARKCO":"203","LANDMARKNA":"市立南湖國小","LANDMARKAD":"6300010","ADDRESS":"台北市內湖區葫洲里康寧路三段200號","TEL":"02-26321296","COUNTYNAME":"台北市","TOWNNAME":"內湖區","MARKTYPE":"992","Class":"2"},"geometry":{"x":311727.58829999994,"y":2773458.6713999994}},{"attributes":{"OBJECTID":7165,"LANDMARKID":"6300000000664","LANDMARKCO":"203","LANDMARKNA":"市立麗山國小","LANDMARKAD":"6300010","ADDRESS":"台北市內湖區港都里港華街100號","TEL":"02-26574153","COUNTYNAME":"台北市","TOWNNAME":"內湖區","MARKTYPE":"992","Class":"2"},"geometry":{"x":307747.02080000006,"y":2775149.6515999995}},{"attributes":{"OBJECTID":7166,"LANDMARKID":"6300000000665","LANDMARKCO":"203","LANDMARKNA":"市立潭美國小","LANDMARKAD":"6300010","ADDRESS":"台北市內湖區石潭里新明路22號","TEL":"02-27917334","COUNTYNAME":"台北市","TOWNNAME":"內湖區","MARKTYPE":"992","Class":"2"},"geometry":{"x":309607.11099999957,"y":2772658.1710999999}},{"attributes":{"OBJECTID":7167,"LANDMARKID":"6300000000666","LANDMARKCO":"203","LANDMARKNA":"市立西湖國小","LANDMARKAD":"6300010","ADDRESS":"台北市內湖區西湖里環山路一段25號","TEL":"02-27971267","COUNTYNAME":"台北市","TOWNNAME":"內湖區","MARKTYPE":"992","Class":"2"},"geometry":{"x":307062.02940000035,"y":2775178.2525999993}},{"attributes":{"OBJECTID":7168,"LANDMARKID":"6300000000667","LANDMARKCO":"203","LANDMARKNA":"市立麗湖國小","LANDMARKAD":"6300010","ADDRESS":"台北市內湖區金湖路363巷8號","TEL":"02-26343888","COUNTYNAME":"台北市","TOWNNAME":"內湖區","MARKTYPE":"992","Class":"2"},"geometry":{"x":310658.8591,"y":2774006.1830000002}},{"attributes":{"OBJECTID":7169,"LANDMARKID":"6300000000413","LANDMARKCO":"201","LANDMARKNA":"康寧醫護暨管理專科學校","LANDMARKAD":"6300010","ADDRESS":"台北市內湖區康寧路三段75巷137號","TEL":"02-26321181","COUNTYNAME":"台北市","TOWNNAME":"內湖區","MARKTYPE":"992","Class":"2"},"geometry":{"x":311543.4057,"y":2774243.4710000008}},{"attributes":{"OBJECTID":7170,"LANDMARKID":"6300000000414","LANDMARKCO":"201","LANDMARKNA":"私立德明技術學院","LANDMARKAD":"6300010","ADDRESS":"台北市內湖區環山路一段56號","TEL":"02-26585801","COUNTYNAME":"台北市","TOWNNAME":"內湖區","MARKTYPE":"992","Class":"2"},"geometry":{"x":307055.33370000031,"y":2775476.5251000002}},{"attributes":{"OBJECTID":7171,"LANDMARKID":"6300000000415","LANDMARKCO":"201","LANDMARKNA":"國立台灣戲曲專科學校","LANDMARKAD":"6300010","ADDRESS":"台北市內湖區內湖路二段177號","TEL":"02-27962666","COUNTYNAME":"台北市","TOWNNAME":"內湖區","MARKTYPE":"992","Class":"2"},"geometry":{"x":309172.68939999957,"y":2774929.5480000004}},{"attributes":{"OBJECTID":7172,"LANDMARKID":"6300000002071","LANDMARKCO":"308","LANDMARKNA":"國1-內湖交流道-南下","LANDMARKAD":"6300010","ADDRESS":"台北市內湖區","TEL":" ","COUNTYNAME":"台北市","TOWNNAME":"內湖區","MARKTYPE":"993","Class":"308"},"geometry":{"x":309458.47030000016,"y":2773172.4331999999}},{"attributes":{"OBJECTID":7173,"LANDMARKID":"6300000002072","LANDMARKCO":"308","LANDMARKNA":"國1-內湖交流道-北上","LANDMARKAD":"6300010","ADDRESS":"台北市內湖區","TEL":" ","COUNTYNAME":"台北市","TOWNNAME":"內湖區","MARKTYPE":"993","Class":"308"},"geometry":{"x":310486.86820000038,"y":2772977.7257000003}},{"attributes":{"OBJECTID":7174,"LANDMARKID":"6300000002073","LANDMARKCO":"308","LANDMARKNA":"國1-堤頂交流道-北上","LANDMARKAD":"6300010","ADDRESS":"台北市內湖區","TEL":" ","COUNTYNAME":"台北市","TOWNNAME":"內湖區","MARKTYPE":"993","Class":"308"},"geometry":{"x":307899.17360000033,"y":2773680.1509000007}},{"attributes":{"OBJECTID":7175,"LANDMARKID":"6300000002074","LANDMARKCO":"308","LANDMARKNA":"國1-東湖交流道-南下","LANDMARKAD":"6300010","ADDRESS":"台北市內湖區","TEL":" ","COUNTYNAME":"台北市","TOWNNAME":"內湖區","MARKTYPE":"993","Class":"308"},"geometry":{"x":311544.13570000045,"y":2773173.1568}},{"attributes":{"OBJECTID":7176,"LANDMARKID":"6300000000868","LANDMARKCO":"302","LANDMARKNA":"飛狗巴士","LANDMARKAD":"6300010","ADDRESS":"台北市內湖區民權東路6段25號","TEL":"|","COUNTYNAME":"台北市","TOWNNAME":"內湖區","MARKTYPE":"993","Class":"302"},"geometry":{"x":308833.30109999981,"y":2773514.8771000002}},{"attributes":{"OBJECTID":7177,"LANDMARKID":"6300000000869","LANDMARKCO":"302","LANDMARKNA":"飛狗巴士","LANDMARKAD":"6300010","ADDRESS":"台北市內湖區行愛路141巷23號2樓","TEL":"|","COUNTYNAME":"台北市","TOWNNAME":"內湖區","MARKTYPE":"993","Class":"302"},"geometry":{"x":308601.5717000002,"y":2773039.8708999995}},{"attributes":{"OBJECTID":7178,"LANDMARKID":"6300000000870","LANDMARKCO":"302","LANDMARKNA":"大有巴士","LANDMARKAD":"6300010","ADDRESS":"114台北市內湖區安康路153號","TEL":"|","COUNTYNAME":"台北市","TOWNNAME":"內湖區","MARKTYPE":"993","Class":"302"},"geometry":{"x":310770.50549999997,"y":2772937.9410999995}},{"attributes":{"OBJECTID":7179,"LANDMARKID":"6300000001068","LANDMARKCO":"303","LANDMARKNA":"麗山街停車場","LANDMARKAD":"6300010","ADDRESS":"台北市內湖區內湖路一段臨372號","TEL":" ","COUNTYNAME":"台北市","TOWNNAME":"內湖區","MARKTYPE":"993","Class":"303"},"geometry":{"x":307674.5334999999,"y":2774874.0274}},{"attributes":{"OBJECTID":7180,"LANDMARKID":"6300000001069","LANDMARKCO":"303","LANDMARKNA":"合益停車場","LANDMARKAD":"6300010","ADDRESS":"台北市內湖區洲子街70號旁空地","TEL":" ","COUNTYNAME":"台北市","TOWNNAME":"內湖區","MARKTYPE":"993","Class":"303"},"geometry":{"x":307629.53060000017,"y":2774748.7979000006}},{"attributes":{"OBJECTID":7181,"LANDMARKID":"6300000001070","LANDMARKCO":"303","LANDMARKNA":"環山平面停車場","LANDMARKAD":"6300010","ADDRESS":"台北市內湖區環山路一段411巷","TEL":" ","COUNTYNAME":"台北市","TOWNNAME":"內湖區","MARKTYPE":"993","Class":"303"},"geometry":{"x":307708.90340000018,"y":2775405.0200999994}},{"attributes":{"OBJECTID":7182,"LANDMARKID":"6300000001071","LANDMARKCO":"303","LANDMARKNA":"台北花市停車場","LANDMARKAD":"6300010","ADDRESS":" ","TEL":" ","COUNTYNAME":"台北市","TOWNNAME":"內湖區","MARKTYPE":"993","Class":"303"},"geometry":{"x":307849.74239999987,"y":2774449.1746999994}},{"attributes":{"OBJECTID":7183,"LANDMARKID":"6300000001072","LANDMARKCO":"303","LANDMARKNA":"瑞光停車場","LANDMARKAD":"6300010","ADDRESS":"台北市內湖區","TEL":" ","COUNTYNAME":"台北市","TOWNNAME":"內湖區","MARKTYPE":"993","Class":"303"},"geometry":{"x":307921.60699999984,"y":2774417.3760000002}},{"attributes":{"OBJECTID":7184,"LANDMARKID":"6300000001073","LANDMARKCO":"303","LANDMARKNA":"大眾集團大樓停車場","LANDMARKAD":"6300010","ADDRESS":"台北市內湖區陽光街300號B1樓","TEL":" ","COUNTYNAME":"台北市","TOWNNAME":"內湖區","MARKTYPE":"993","Class":"303"},"geometry":{"x":307913.55530000012,"y":2773966.4934}},{"attributes":{"OBJECTID":7185,"LANDMARKID":"6300000001074","LANDMARKCO":"303","LANDMARKNA":"民權拖吊停車場","LANDMARKAD":"6300010","ADDRESS":"台北市內湖區民權東路六段15巷50號空地","TEL":" ","COUNTYNAME":"台北市","TOWNNAME":"內湖區","MARKTYPE":"993","Class":"303"},"geometry":{"x":308224.46310000028,"y":2773517.2497000005}},{"attributes":{"OBJECTID":7186,"LANDMARKID":"6300000001075","LANDMARKCO":"303","LANDMARKNA":"陽光停車場","LANDMARKAD":"6300010","ADDRESS":"台北市內湖區陽光街349號旁空地","TEL":" ","COUNTYNAME":"台北市","TOWNNAME":"內湖區","MARKTYPE":"993","Class":"303"},"geometry":{"x":308178.16540000029,"y":2773958.2858000007}},{"attributes":{"OBJECTID":7187,"LANDMARKID":"6300000001076","LANDMARKCO":"303","LANDMARKNA":"內湖港富平面停車場","LANDMARKAD":"6300010","ADDRESS":"台北市內湖區港墘路一段95巷38弄","TEL":" ","COUNTYNAME":"台北市","TOWNNAME":"內湖區","MARKTYPE":"993","Class":"303"},"geometry":{"x":308296.98479999974,"y":2774822.0643000007}},{"attributes":{"OBJECTID":7188,"LANDMARKID":"6300000001077","LANDMARKCO":"303","LANDMARKNA":"內湖加油站停車場","LANDMARKAD":"6300010","ADDRESS":"台北市內湖區民權東路六段50號","TEL":" ","COUNTYNAME":"台北市","TOWNNAME":"內湖區","MARKTYPE":"993","Class":"303"},"geometry":{"x":308982.47020000033,"y":2773462.9760999996}},{"attributes":{"OBJECTID":7189,"LANDMARKID":"6300000001078","LANDMARKCO":"303","LANDMARKNA":"碧山路停車場","LANDMARKAD":"6300010","ADDRESS":"台北市內湖區碧山路","TEL":" ","COUNTYNAME":"台北市","TOWNNAME":"內湖區","MARKTYPE":"993","Class":"303"},"geometry":{"x":309304.78259999957,"y":2776855.8182999995}},{"attributes":{"OBJECTID":7190,"LANDMARKID":"6300000001079","LANDMARKCO":"303","LANDMARKNA":"民權停車場","LANDMARKAD":"6300010","ADDRESS":"台北市內湖區民權東路六段146號旁空地","TEL":" ","COUNTYNAME":"台北市","TOWNNAME":"內湖區","MARKTYPE":"993","Class":"303"},"geometry":{"x":309540.10639999993,"y":2773529.3354000002}},{"attributes":{"OBJECTID":7191,"LANDMARKID":"6300000001080","LANDMARKCO":"303","LANDMARKNA":"平面停車場","LANDMARKAD":"6300010","ADDRESS":"台北市內湖區民權東路六段民權東路六段與成功路二段旁","TEL":" ","COUNTYNAME":"台北市","TOWNNAME":"內湖區","MARKTYPE":"993","Class":"303"},"geometry":{"x":309793.88210000005,"y":2773520.0470000003}},{"attributes":{"OBJECTID":7192,"LANDMARKID":"6300000001081","LANDMARKCO":"303","LANDMARKNA":"成功平面停車場","LANDMARKAD":"6300010","ADDRESS":"台北市內湖區成功路四段與金龍路交叉","TEL":" ","COUNTYNAME":"台北市","TOWNNAME":"內湖區","MARKTYPE":"993","Class":"303"},"geometry":{"x":309958.69379999954,"y":2775257.6793000009}},{"attributes":{"OBJECTID":7193,"LANDMARKID":"6300000001082","LANDMARKCO":"303","LANDMARKNA":"星會通停車場","LANDMARKAD":"6300010","ADDRESS":"台北市內湖區星雲街125號B1(榮耀世紀大樓)","TEL":"02-87922512","COUNTYNAME":"台北市","TOWNNAME":"內湖區","MARKTYPE":"993","Class":"303"},"geometry":{"x":310135.06709999964,"y":2774835.6682999991}},{"attributes":{"OBJECTID":7194,"LANDMARKID":"6300000001083","LANDMARKCO":"303","LANDMARKNA":"內湖垃圾焚化廠停車場","LANDMARKAD":"6300010","ADDRESS":"台北市內湖區安康路290號地下","TEL":" ","COUNTYNAME":"台北市","TOWNNAME":"內湖區","MARKTYPE":"993","Class":"303"},"geometry":{"x":311111.90780000016,"y":2772813.7929999996}},{"attributes":{"OBJECTID":7195,"LANDMARKID":"6300000001084","LANDMARKCO":"303","LANDMARKNA":"台北市立南湖高中地下停車場","LANDMARKAD":"6300010","ADDRESS":"台北市內湖區康寧路三段220號","TEL":"02-26332563","COUNTYNAME":"台北市","TOWNNAME":"內湖區","MARKTYPE":"993","Class":"303"},"geometry":{"x":311641.67009999976,"y":2773324.5064000003}},{"attributes":{"OBJECTID":7196,"LANDMARKID":"6300000001085","LANDMARKCO":"303","LANDMARKNA":"哈拉生活停車場","LANDMARKAD":"6300010","ADDRESS":"台北市內湖區康寧路三段74號","TEL":" ","COUNTYNAME":"台北市","TOWNNAME":"內湖區","MARKTYPE":"993","Class":"303"},"geometry":{"x":311680.63460000046,"y":2773686.3162999991}},{"attributes":{"OBJECTID":7197,"LANDMARKID":"6300000001086","LANDMARKCO":"303","LANDMARKNA":"中興嘟嘟房停車場-康東站","LANDMARKAD":"6300010","ADDRESS":"台北市內湖區東湖路1號B1樓","TEL":" ","COUNTYNAME":"台北市","TOWNNAME":"內湖區","MARKTYPE":"993","Class":"303"},"geometry":{"x":311768.79050000012,"y":2773560.3742999993}},{"attributes":{"OBJECTID":7198,"LANDMARKID":"6300000001087","LANDMARKCO":"303","LANDMARKNA":"安康公車調度站臨時平面停車場","LANDMARKAD":"6300010","ADDRESS":"台北市內湖區五分街12號","TEL":" ","COUNTYNAME":"台北市","TOWNNAME":"內湖區","MARKTYPE":"993","Class":"303"},"geometry":{"x":311879.56680000015,"y":2773388.7963999994}},{"attributes":{"OBJECTID":7199,"LANDMARKID":"6300000001088","LANDMARKCO":"303","LANDMARKNA":"台北市立東湖國小地下停車場","LANDMARKAD":"6300010","ADDRESS":"台北市內湖區東湖路115號","TEL":"02-26306731","COUNTYNAME":"台北市","TOWNNAME":"內湖區","MARKTYPE":"993","Class":"303"},"geometry":{"x":312146.42679999955,"y":2773505.784}},{"attributes":{"OBJECTID":7200,"LANDMARKID":"6300000001089","LANDMARKCO":"303","LANDMARKNA":"中興嘟嘟房停車場-東湖站","LANDMARKAD":"6300010","ADDRESS":"台北市內湖區康樂街61巷","TEL":"02-26306468","COUNTYNAME":"台北市","TOWNNAME":"內湖區","MARKTYPE":"993","Class":"303"},"geometry":{"x":312356.44379999954,"y":2773458.3519000001}}]}