{"displayFieldName":"COUNTYNAME","fieldAliases":{"OBJECTID":"OBJECTID","LANDMARKID":"LANDMARKID","LANDMARKCO":"LANDMARKCO","LANDMARKNA":"LANDMARKNA","LANDMARKAD":"LANDMARKAD","ADDRESS":"ADDRESS","TEL":"TEL","COUNTYNAME":"COUNTYNAME","TOWNNAME":"TOWNNAME","MARKTYPE":"MARKTYPE","Class":"Class"},"geometryType":"esriGeometryPoint","spatialReference":{"wkid":102443},"fields":[{"name":"OBJECTID","type":"esriFieldTypeOID","alias":"OBJECTID"},{"name":"LANDMARKID","type":"esriFieldTypeString","alias":"LANDMARKID","length":15},{"name":"LANDMARKCO","type":"esriFieldTypeString","alias":"LANDMARKCO","length":15},{"name":"LANDMARKNA","type":"esriFieldTypeString","alias":"LANDMARKNA","length":50},{"name":"LANDMARKAD","type":"esriFieldTypeString","alias":"LANDMARKAD","length":15},{"name":"ADDRESS","type":"esriFieldTypeString","alias":"ADDRESS","length":56},{"name":"TEL","type":"esriFieldTypeString","alias":"TEL","length":36},{"name":"COUNTYNAME","type":"esriFieldTypeString","alias":"COUNTYNAME","length":15},{"name":"TOWNNAME","type":"esriFieldTypeString","alias":"TOWNNAME","length":13},{"name":"MARKTYPE","type":"esriFieldTypeString","alias":"MARKTYPE","length":12},{"name":"Class","type":"esriFieldTypeString","alias":"Class","length":5}],"features":[{"attributes":{"OBJECTID":18601,"LANDMARKID":"1000500000439","LANDMARKCO":"301","LANDMARKNA":"三義火車站","LANDMARKAD":"1000513","ADDRESS":"苗栗縣三義鄉雙湖村90號","TEL":"(037)874-763","COUNTYNAME":"苗栗縣","TOWNNAME":"三義鄉","MARKTYPE":"993","Class":"301"},"geometry":{"x":227088.01960000023,"y":2701629.9200999998}},{"attributes":{"OBJECTID":18602,"LANDMARKID":"1000500000938","LANDMARKCO":"604","LANDMARKNA":"馨雅民宿","LANDMARKAD":"1000513","ADDRESS":"苗栗縣三義鄉廣盛村廣聲新城21號","TEL":"037-870551","COUNTYNAME":"苗栗縣","TOWNNAME":"三義鄉","MARKTYPE":"996","Class":"6"},"geometry":{"x":225760.49799999967,"y":2699767.5840000007}},{"attributes":{"OBJECTID":18603,"LANDMARKID":"1000500000939","LANDMARKCO":"604","LANDMARKNA":"久松客棧","LANDMARKAD":"1000513","ADDRESS":"苗栗縣三義鄉龍騰村龍騰3-2號","TEL":"037-875493","COUNTYNAME":"苗栗縣","TOWNNAME":"三義鄉","MARKTYPE":"996","Class":"6"},"geometry":{"x":226993.74299999978,"y":2696677.3951999992}},{"attributes":{"OBJECTID":18604,"LANDMARKID":"1000500000940","LANDMARKCO":"604","LANDMARKNA":"峰州小木屋","LANDMARKAD":"1000513","ADDRESS":"苗栗縣三義鄉龍騰村龍騰6-7號","TEL":"037-876921","COUNTYNAME":"苗栗縣","TOWNNAME":"三義鄉","MARKTYPE":"996","Class":"6"},"geometry":{"x":227881.92449999973,"y":2697506.4609999992}},{"attributes":{"OBJECTID":18605,"LANDMARKID":"1000500000941","LANDMARKCO":"604","LANDMARKNA":"福田瓦舍","LANDMARKAD":"1000513","ADDRESS":"苗栗縣三義鄉龍騰村26號","TEL":"037-876156","COUNTYNAME":"苗栗縣","TOWNNAME":"三義鄉","MARKTYPE":"996","Class":"6"},"geometry":{"x":227784.52969999984,"y":2696484.3198000006}},{"attributes":{"OBJECTID":18606,"LANDMARKID":"1000500000942","LANDMARKCO":"604","LANDMARKNA":"向陽田園","LANDMARKAD":"1000513","ADDRESS":"苗栗縣三義鄉龍騰村9-5號","TEL":"037-874028","COUNTYNAME":"苗栗縣","TOWNNAME":"三義鄉","MARKTYPE":"996","Class":"6"},"geometry":{"x":227831.67960000038,"y":2696717.3443999998}},{"attributes":{"OBJECTID":18607,"LANDMARKID":"1000500000943","LANDMARKCO":"604","LANDMARKNA":"雲洞山莊","LANDMARKAD":"1000513","ADDRESS":"苗栗縣三義鄉雙潭村45號","TEL":"037-951531","COUNTYNAME":"苗栗縣","TOWNNAME":"三義鄉","MARKTYPE":"996","Class":"6"},"geometry":{"x":231951.21470000036,"y":2698094.0804999992}},{"attributes":{"OBJECTID":18608,"LANDMARKID":"1000500000944","LANDMARKCO":"604","LANDMARKNA":"石濤園","LANDMARKAD":"1000513","ADDRESS":"苗栗縣三義鄉雙潭村石峎32號","TEL":"037-331497","COUNTYNAME":"苗栗縣","TOWNNAME":"三義鄉","MARKTYPE":"996","Class":"6"},"geometry":{"x":230199.69730000012,"y":2698813.9525000006}},{"attributes":{"OBJECTID":18609,"LANDMARKID":"1000500000800","LANDMARKCO":"505","LANDMARKNA":"西湖渡假村","LANDMARKAD":"1000513","ADDRESS":"苗栗縣三義鄉西湖村西湖11號","TEL":" ","COUNTYNAME":"苗栗縣","TOWNNAME":"三義鄉","MARKTYPE":"995","Class":"5"},"geometry":{"x":225707.67879999988,"y":2698267.5855999999}},{"attributes":{"OBJECTID":18610,"LANDMARKID":"1000500000842","LANDMARKCO":"513","LANDMARKNA":"龍騰斷橋","LANDMARKAD":"1000513","ADDRESS":"苗栗縣三義鄉","TEL":" ","COUNTYNAME":"苗栗縣","TOWNNAME":"三義鄉","MARKTYPE":"995","Class":"5"},"geometry":{"x":227186.23890000023,"y":2694889.5988999996}},{"attributes":{"OBJECTID":18611,"LANDMARKID":"1000500000611","LANDMARKCO":"405","LANDMARKNA":"中油加油站-卓蘭站(中油直營)","LANDMARKAD":"1000507","ADDRESS":"苗栗縣卓蘭鎮中正西路101號","TEL":"04-25892174","COUNTYNAME":"苗栗縣","TOWNNAME":"卓蘭鎮","MARKTYPE":"994","Class":"4"},"geometry":{"x":232028.31080000009,"y":2689408.4822000004}},{"attributes":{"OBJECTID":18612,"LANDMARKID":"1000500000612","LANDMARKCO":"405","LANDMARKNA":"中油加油站-上新站","LANDMARKAD":"1000507","ADDRESS":"苗栗縣卓蘭鎮中正西路52號","TEL":"04-25897936","COUNTYNAME":"苗栗縣","TOWNNAME":"卓蘭鎮","MARKTYPE":"994","Class":"4"},"geometry":{"x":231910.0410000002,"y":2689378.2931999993}},{"attributes":{"OBJECTID":18613,"LANDMARKID":"1000500000806","LANDMARKCO":"506","LANDMARKNA":"食水坑休閒農場","LANDMARKAD":"1000507","ADDRESS":"苗栗縣卓蘭鎮上新里食水坑39號","TEL":"04-5895078","COUNTYNAME":"苗栗縣","TOWNNAME":"卓蘭鎮","MARKTYPE":"995","Class":"5"},"geometry":{"x":234016.95849999972,"y":2688775.0217000004}},{"attributes":{"OBJECTID":18614,"LANDMARKID":"1000500000807","LANDMARKCO":"506","LANDMARKNA":"卓蘭觀光果園","LANDMARKAD":"1000507","ADDRESS":"苗栗縣卓蘭鎮新厝里中山路127號","TEL":"03-5892101","COUNTYNAME":"苗栗縣","TOWNNAME":"卓蘭鎮","MARKTYPE":"995","Class":"5"},"geometry":{"x":234545.56909999996,"y":2687964.3844000008}},{"attributes":{"OBJECTID":18615,"LANDMARKID":"1000500000808","LANDMARKCO":"506","LANDMARKNA":"怡心園觀光休閒農場","LANDMARKAD":"1000507","ADDRESS":"苗栗縣卓蘭鎮西坪里43之7號","TEL":"04-25894896","COUNTYNAME":"苗栗縣","TOWNNAME":"卓蘭鎮","MARKTYPE":"995","Class":"5"},"geometry":{"x":229415.12990000006,"y":2692382.6749000009}},{"attributes":{"OBJECTID":18616,"LANDMARKID":"1000500000761","LANDMARKCO":"408","LANDMARKNA":"郵局-卓蘭郵局","LANDMARKAD":"1000507","ADDRESS":"苗栗縣卓蘭鎮中山路133號","TEL":"(04)2589-2075","COUNTYNAME":"苗栗縣","TOWNNAME":"卓蘭鎮","MARKTYPE":"994","Class":"4"},"geometry":{"x":232134.84229999967,"y":2689766.7827000003}},{"attributes":{"OBJECTID":18617,"LANDMARKID":"1000500000762","LANDMARKCO":"409","LANDMARKNA":"苗栗縣卓蘭鎮農會","LANDMARKAD":"1000507","ADDRESS":"苗栗縣卓蘭鎮中街里中正路145號","TEL":"04-25892006","COUNTYNAME":"苗栗縣","TOWNNAME":"卓蘭鎮","MARKTYPE":"994","Class":"4"},"geometry":{"x":232279.68730000034,"y":2689506.0590000004}},{"attributes":{"OBJECTID":18618,"LANDMARKID":"1000500000609","LANDMARKCO":"404","LANDMARKNA":"台灣省自來水卓蘭營運所","LANDMARKAD":"1000507","ADDRESS":"苗栗縣卓蘭鎮上新里22之1號","TEL":" ","COUNTYNAME":"苗栗縣","TOWNNAME":"卓蘭鎮","MARKTYPE":"994","Class":"4"},"geometry":{"x":232888.28340000007,"y":2688901.8171999995}},{"attributes":{"OBJECTID":18619,"LANDMARKID":"1000500000610","LANDMARKCO":"405","LANDMARKNA":"台塑加油站-冠証站(台塑)","LANDMARKAD":"1000507","ADDRESS":"苗栗縣卓蘭鎮新厝里新厝5-1號","TEL":"04-25898135","COUNTYNAME":"苗栗縣","TOWNNAME":"卓蘭鎮","MARKTYPE":"994","Class":"4"},"geometry":{"x":232180.45529999956,"y":2689443.2153999992}},{"attributes":{"OBJECTID":18620,"LANDMARKID":"1000500000074","LANDMARKCO":"106","LANDMARKNA":"苗栗縣卓蘭鎮戶政事務所","LANDMARKAD":"1000507","ADDRESS":"苗栗縣卓蘭鎮中山路106之1號","TEL":"04-25892081","COUNTYNAME":"苗栗縣","TOWNNAME":"卓蘭鎮","MARKTYPE":"991","Class":"1"},"geometry":{"x":232276.78619999997,"y":2689660.0567000005}},{"attributes":{"OBJECTID":18621,"LANDMARKID":"1000500000177","LANDMARKCO":"107","LANDMARKNA":"苗栗縣消防局卓蘭消防分隊","LANDMARKAD":"1000507","ADDRESS":"苗栗縣卓蘭鎮新厝里中山路108號","TEL":"04-25892717","COUNTYNAME":"苗栗縣","TOWNNAME":"卓蘭鎮","MARKTYPE":"991","Class":"1"},"geometry":{"x":232494.94959999993,"y":2689530.3287000004}},{"attributes":{"OBJECTID":18622,"LANDMARKID":"1000500000023","LANDMARKCO":"103","LANDMARKNA":"苗栗縣卓蘭鎮衛生所","LANDMARKAD":"1000507","ADDRESS":"苗栗縣卓蘭鎮中正路142號","TEL":"04-25892027","COUNTYNAME":"苗栗縣","TOWNNAME":"卓蘭鎮","MARKTYPE":"991","Class":"1"},"geometry":{"x":232893.79270000011,"y":2689660.1195999999}},{"attributes":{"OBJECTID":18623,"LANDMARKID":"1000500000192","LANDMARKCO":"108","LANDMARKNA":"苗栗縣卓蘭鎮公所","LANDMARKAD":"1000507","ADDRESS":"苗栗縣卓蘭鎮中山路127號","TEL":"04-25892101","COUNTYNAME":"苗栗縣","TOWNNAME":"卓蘭鎮","MARKTYPE":"991","Class":"1"},"geometry":{"x":232192.74749999959,"y":2689690.3082999997}},{"attributes":{"OBJECTID":18624,"LANDMARKID":"1000500000022","LANDMARKCO":"103","LANDMARKNA":"苗栗縣卓蘭鎮鎮民代表會","LANDMARKAD":"1000507","ADDRESS":"苗栗縣卓蘭鎮中山路127號","TEL":"04-5892053","COUNTYNAME":"苗栗縣","TOWNNAME":"卓蘭鎮","MARKTYPE":"991","Class":"1"},"geometry":{"x":232193.74749999959,"y":2689690.3095999993}},{"attributes":{"OBJECTID":18625,"LANDMARKID":"1000500000178","LANDMARKCO":"107","LANDMARKNA":"苗栗縣警察局坪林派出所","LANDMARKAD":"1000507","ADDRESS":"苗栗縣卓蘭鎮坪林里50號","TEL":"04-25921101","COUNTYNAME":"苗栗縣","TOWNNAME":"卓蘭鎮","MARKTYPE":"991","Class":"1"},"geometry":{"x":237213.93240000028,"y":2692020.1731000002}},{"attributes":{"OBJECTID":18626,"LANDMARKID":"1000500000179","LANDMARKCO":"107","LANDMARKNA":"苗栗縣警察局卓蘭分駐所","LANDMARKAD":"1000507","ADDRESS":"苗栗縣卓蘭鎮新厝里106號","TEL":"04-25892017","COUNTYNAME":"苗栗縣","TOWNNAME":"卓蘭鎮","MARKTYPE":"991","Class":"1"},"geometry":{"x":232337.6492999997,"y":2689770.1328999996}},{"attributes":{"OBJECTID":18627,"LANDMARKID":"1000500000411","LANDMARKCO":"204","LANDMARKNA":"苗栗縣立圖書館卓蘭分館","LANDMARKAD":"1000507","ADDRESS":"苗栗縣卓蘭鎮新厝里中山路125之1號","TEL":" ","COUNTYNAME":"苗栗縣","TOWNNAME":"卓蘭鎮","MARKTYPE":"992","Class":"2"},"geometry":{"x":232116.98680000007,"y":2689671.1173999999}},{"attributes":{"OBJECTID":18628,"LANDMARKID":"1000500000255","LANDMARKCO":"203","LANDMARKNA":"縣立卓蘭國小","LANDMARKAD":"1000507","ADDRESS":"苗栗縣卓蘭鎮中山路125號","TEL":"04-25892008","COUNTYNAME":"苗栗縣","TOWNNAME":"卓蘭鎮","MARKTYPE":"992","Class":"2"},"geometry":{"x":232179.84829999972,"y":2689610.2920999993}},{"attributes":{"OBJECTID":18629,"LANDMARKID":"1000500000230","LANDMARKCO":"202","LANDMARKNA":"國立卓蘭實驗高中","LANDMARKAD":"1000507","ADDRESS":"苗栗縣卓蘭鎮老庄里161號","TEL":"037-25892007","COUNTYNAME":"苗栗縣","TOWNNAME":"卓蘭鎮","MARKTYPE":"992","Class":"2"},"geometry":{"x":232940.76910000015,"y":2689680.1764000002}},{"attributes":{"OBJECTID":18630,"LANDMARKID":"1000500000248","LANDMARKCO":"203","LANDMARKNA":"國立卓蘭實驗高中附設國中部","LANDMARKAD":"1000507","ADDRESS":"苗栗縣卓蘭鎮老庄里161號","TEL":"04-25892007","COUNTYNAME":"苗栗縣","TOWNNAME":"卓蘭鎮","MARKTYPE":"992","Class":"2"},"geometry":{"x":232936.74490000028,"y":2689700.1714999992}},{"attributes":{"OBJECTID":18631,"LANDMARKID":"1000500000249","LANDMARKCO":"203","LANDMARKNA":"縣立內灣國小","LANDMARKAD":"1000507","ADDRESS":"苗栗縣卓蘭鎮內灣里120號","TEL":"04-25892094","COUNTYNAME":"苗栗縣","TOWNNAME":"卓蘭鎮","MARKTYPE":"992","Class":"2"},"geometry":{"x":234708.80370000005,"y":2688130.2444000002}},{"attributes":{"OBJECTID":18632,"LANDMARKID":"1000500000250","LANDMARKCO":"203","LANDMARKNA":"縣立內灣國小白帆分班","LANDMARKAD":"1000507","ADDRESS":"苗栗縣卓蘭鎮內灣里白布帆61號","TEL":"04-25891213","COUNTYNAME":"苗栗縣","TOWNNAME":"卓蘭鎮","MARKTYPE":"992","Class":"2"},"geometry":{"x":240624.95079999976,"y":2687710.1503999997}},{"attributes":{"OBJECTID":18633,"LANDMARKID":"1000500000251","LANDMARKCO":"203","LANDMARKNA":"縣立豐田國小","LANDMARKAD":"1000507","ADDRESS":"苗栗縣卓蘭鎮豐田里36號","TEL":"04-25892164","COUNTYNAME":"苗栗縣","TOWNNAME":"卓蘭鎮","MARKTYPE":"992","Class":"2"},"geometry":{"x":232055.63200000022,"y":2691010.1328999996}},{"attributes":{"OBJECTID":18634,"LANDMARKID":"1000500000252","LANDMARKCO":"203","LANDMARKNA":"縣立坪林國小","LANDMARKAD":"1000507","ADDRESS":"苗栗縣卓蘭鎮坪林里86之2號","TEL":"04-25921334","COUNTYNAME":"苗栗縣","TOWNNAME":"卓蘭鎮","MARKTYPE":"992","Class":"2"},"geometry":{"x":237452.78239999991,"y":2692190.1313000005}},{"attributes":{"OBJECTID":18635,"LANDMARKID":"1000500000253","LANDMARKCO":"203","LANDMARKNA":"縣立景山國小","LANDMARKAD":"1000507","ADDRESS":"苗栗縣卓蘭鎮景山里88號","TEL":"04-25921221","COUNTYNAME":"苗栗縣","TOWNNAME":"卓蘭鎮","MARKTYPE":"992","Class":"2"},"geometry":{"x":236281.99010000005,"y":2694110.0982000008}},{"attributes":{"OBJECTID":18636,"LANDMARKID":"1000500000254","LANDMARKCO":"203","LANDMARKNA":"縣立雙連國小","LANDMARKAD":"1000507","ADDRESS":"苗栗縣卓蘭鎮坪林里雙連16-1號","TEL":"04-25892794","COUNTYNAME":"苗栗縣","TOWNNAME":"卓蘭鎮","MARKTYPE":"992","Class":"2"},"geometry":{"x":234606.83160000015,"y":2692410.1287999991}},{"attributes":{"OBJECTID":18637,"LANDMARKID":"1000500000472","LANDMARKCO":"303","LANDMARKNA":"鯉魚潭水庫風景區停車場","LANDMARKAD":"1000507","ADDRESS":"苗栗縣三義鄉鯉魚潭村","TEL":" ","COUNTYNAME":"苗栗縣","TOWNNAME":"卓蘭鎮","MARKTYPE":"993","Class":"303"},"geometry":{"x":227749.85749999993,"y":2692585.3729999997}},{"attributes":{"OBJECTID":18638,"LANDMARKID":"1000500000440","LANDMARKCO":"302","LANDMARKNA":"豐原汽車客運卓蘭站","LANDMARKAD":"1000507","ADDRESS":"苗栗縣卓蘭鎮中山路165號","TEL":" ","COUNTYNAME":"苗栗縣","TOWNNAME":"卓蘭鎮","MARKTYPE":"993","Class":"302"},"geometry":{"x":232127.54509999976,"y":2689849.7687999997}},{"attributes":{"OBJECTID":18639,"LANDMARKID":"1000500000471","LANDMARKCO":"303","LANDMARKNA":"大克山森林冷泉遊樂區停車場","LANDMARKAD":"1000507","ADDRESS":"苗栗縣卓蘭鎮坪林里99之7號","TEL":"037-921109","COUNTYNAME":"苗栗縣","TOWNNAME":"卓蘭鎮","MARKTYPE":"993","Class":"303"},"geometry":{"x":238969.05310000014,"y":2691368.9729999993}},{"attributes":{"OBJECTID":18640,"LANDMARKID":"1000500000946","LANDMARKCO":"604","LANDMARKNA":"長青谷","LANDMARKAD":"1000507","ADDRESS":"苗栗縣卓蘭鎮上新里食水坑78號","TEL":"04-25893329","COUNTYNAME":"苗栗縣","TOWNNAME":"卓蘭鎮","MARKTYPE":"996","Class":"6"},"geometry":{"x":235375.08110000007,"y":2689238.8986000009}},{"attributes":{"OBJECTID":18641,"LANDMARKID":"1000500000947","LANDMARKCO":"604","LANDMARKNA":"怡心園民宿","LANDMARKAD":"1000507","ADDRESS":"苗栗縣卓蘭鎮西坪里4鄰43-7號","TEL":"04-25893362","COUNTYNAME":"苗栗縣","TOWNNAME":"卓蘭鎮","MARKTYPE":"996","Class":"6"},"geometry":{"x":232717.49810000043,"y":2691959.1881000008}},{"attributes":{"OBJECTID":18642,"LANDMARKID":"1000500000948","LANDMARKCO":"604","LANDMARKNA":"小雪霸休閒村","LANDMARKAD":"1000507","ADDRESS":"苗栗縣卓蘭鎮坪林里3鄰坪林25號","TEL":"04-25921234","COUNTYNAME":"苗栗縣","TOWNNAME":"卓蘭鎮","MARKTYPE":"996","Class":"6"},"geometry":{"x":237397.06940000039,"y":2692929.7937000003}},{"attributes":{"OBJECTID":18643,"LANDMARKID":"1000500000949","LANDMARKCO":"604","LANDMARKNA":"金葉山莊","LANDMARKAD":"1000507","ADDRESS":"苗栗縣卓蘭鎮豐田里13鄰豐田185號","TEL":"04-25892292","COUNTYNAME":"苗栗縣","TOWNNAME":"卓蘭鎮","MARKTYPE":"996","Class":"6"},"geometry":{"x":231832.32400000002,"y":2691469.5173000004}},{"attributes":{"OBJECTID":18644,"LANDMARKID":"1000500000794","LANDMARKCO":"504","LANDMARKNA":"小雪霸渡假村","LANDMARKAD":"1000507","ADDRESS":"苗栗縣卓蘭鎮坪林里25號","TEL":"04-25921234","COUNTYNAME":"苗栗縣","TOWNNAME":"卓蘭鎮","MARKTYPE":"995","Class":"5"},"geometry":{"x":237404.00889999978,"y":2692916.3628000002}},{"attributes":{"OBJECTID":18645,"LANDMARKID":"1000500000795","LANDMARKCO":"504","LANDMARKNA":"大克山森林冷泉遊樂區","LANDMARKAD":"1000507","ADDRESS":"苗栗縣卓蘭鎮坪林村99之7號","TEL":"04-25921337","COUNTYNAME":"苗栗縣","TOWNNAME":"卓蘭鎮","MARKTYPE":"995","Class":"5"},"geometry":{"x":239048.01169999968,"y":2691333.7832999993}},{"attributes":{"OBJECTID":18646,"LANDMARKID":"1000500000788","LANDMARKCO":"503","LANDMARKNA":"鯉魚潭水庫","LANDMARKAD":"1000507","ADDRESS":"苗栗縣大湖鄉","TEL":" ","COUNTYNAME":"苗栗縣","TOWNNAME":"卓蘭鎮","MARKTYPE":"995","Class":"5"},"geometry":{"x":227759.3013000004,"y":2692605.4155000001}},{"attributes":{"OBJECTID":18647,"LANDMARKID":"1000500000799","LANDMARKCO":"505","LANDMARKNA":"長青谷森林遊樂區","LANDMARKAD":"1000507","ADDRESS":"苗栗縣卓蘭鎮上新里食水坑78號","TEL":" ","COUNTYNAME":"苗栗縣","TOWNNAME":"卓蘭鎮","MARKTYPE":"995","Class":"5"},"geometry":{"x":236811.31950000022,"y":2689804.4563999996}},{"attributes":{"OBJECTID":18648,"LANDMARKID":"1001700000321","LANDMARKCO":"405","LANDMARKNA":"中油加油站-西定路站(中油直營)","LANDMARKAD":"1001705","ADDRESS":"基隆市中山區西定路190號","TEL":"02-24226918","COUNTYNAME":"基隆市","TOWNNAME":"中山區","MARKTYPE":"994","Class":"4"},"geometry":{"x":323919.74239999987,"y":2781063.6502}},{"attributes":{"OBJECTID":18649,"LANDMARKID":"1001700000322","LANDMARKCO":"405","LANDMARKNA":"中油加油站-中山二路站(中油直營)","LANDMARKAD":"1001705","ADDRESS":"基隆市中山區中山二路60號","TEL":"02-24225404","COUNTYNAME":"基隆市","TOWNNAME":"中山區","MARKTYPE":"994","Class":"4"},"geometry":{"x":324520.28170000017,"y":2781640.3223000001}},{"attributes":{"OBJECTID":18650,"LANDMARKID":"1001700000281","LANDMARKCO":"402","LANDMARKNA":"亞太行動寬頻電信-基隆安一加盟服務中心","LANDMARKAD":"1001705","ADDRESS":"基隆市中山區安一路71號","TEL":"02-24241166","COUNTYNAME":"基隆市","TOWNNAME":"中山區","MARKTYPE":"994","Class":"4"},"geometry":{"x":324206.45540000033,"y":2780534.2354000006}},{"attributes":{"OBJECTID":18651,"LANDMARKID":"1001700000395","LANDMARKCO":"513","LANDMARKNA":"外木山海岸","LANDMARKAD":"1001705","ADDRESS":"基隆市中山區","TEL":" ","COUNTYNAME":"基隆市","TOWNNAME":"中山區","MARKTYPE":"995","Class":"5"},"geometry":{"x":323961.14599999972,"y":2783792.9556000009}},{"attributes":{"OBJECTID":18652,"LANDMARKID":"1001700000389","LANDMARKCO":"507","LANDMARKNA":"白米甕砲台","LANDMARKAD":"1001705","ADDRESS":"基隆市中山區太白里光華路37號巷底","TEL":" ","COUNTYNAME":"基隆市","TOWNNAME":"中山區","MARKTYPE":"995","Class":"5"},"geometry":{"x":324582.01449999958,"y":2783193.0908000004}},{"attributes":{"OBJECTID":18653,"LANDMARKID":"1001700000360","LANDMARKCO":"408","LANDMARKNA":"郵局-基隆港西街郵局","LANDMARKAD":"1001705","ADDRESS":"基隆市仁愛區港西街10號","TEL":"(02)2421-0157","COUNTYNAME":"基隆市","TOWNNAME":"中山區","MARKTYPE":"994","Class":"4"},"geometry":{"x":324705.25769999996,"y":2780796.9054000005}},{"attributes":{"OBJECTID":18654,"LANDMARKID":"1001700000361","LANDMARKCO":"408","LANDMARKNA":"郵局-基隆新民郵局","LANDMARKAD":"1001705","ADDRESS":"基隆市中山區新民路19號","TEL":"(02)2421-0158","COUNTYNAME":"基隆市","TOWNNAME":"中山區","MARKTYPE":"994","Class":"4"},"geometry":{"x":324255.00590000022,"y":2780441.8487}},{"attributes":{"OBJECTID":18655,"LANDMARKID":"1001700000362","LANDMARKCO":"408","LANDMARKNA":"郵局-基隆中山郵局","LANDMARKAD":"1001705","ADDRESS":"基隆市中山區中華路3號","TEL":"(02)2421-0160","COUNTYNAME":"基隆市","TOWNNAME":"中山區","MARKTYPE":"994","Class":"4"},"geometry":{"x":324464.21040000021,"y":2782017.6585000008}},{"attributes":{"OBJECTID":18656,"LANDMARKID":"1001700000363","LANDMARKCO":"408","LANDMARKNA":"郵局-基隆復興路郵局","LANDMARKAD":"1001705","ADDRESS":"基隆市中山區復興路38號","TEL":"(02)2437-8290","COUNTYNAME":"基隆市","TOWNNAME":"中山區","MARKTYPE":"994","Class":"4"},"geometry":{"x":323289.08899999969,"y":2781681.9834000003}},{"attributes":{"OBJECTID":18657,"LANDMARKID":"1001700000364","LANDMARKCO":"408","LANDMARKNA":"郵局-基隆西定路郵局","LANDMARKAD":"1001705","ADDRESS":"基隆市中山區西定路120號","TEL":"(02)2421-0164","COUNTYNAME":"基隆市","TOWNNAME":"中山區","MARKTYPE":"994","Class":"4"},"geometry":{"x":324111.46949999966,"y":2780833.0966999996}},{"attributes":{"OBJECTID":18658,"LANDMARKID":"1001700000341","LANDMARKCO":"406","LANDMARKNA":"大慶新公園","LANDMARKAD":"1001705","ADDRESS":"基隆市中山區","TEL":" ","COUNTYNAME":"基隆市","TOWNNAME":"中山區","MARKTYPE":"994","Class":"4"},"geometry":{"x":322064.56799999997,"y":2782680.0583999995}},{"attributes":{"OBJECTID":18659,"LANDMARKID":"1001700000342","LANDMARKCO":"406","LANDMARKNA":"德和公園","LANDMARKAD":"1001705","ADDRESS":"基隆市中山區","TEL":" ","COUNTYNAME":"基隆市","TOWNNAME":"中山區","MARKTYPE":"994","Class":"4"},"geometry":{"x":323777.9665000001,"y":2782070.4573999997}},{"attributes":{"OBJECTID":18660,"LANDMARKID":"1001700000323","LANDMARKCO":"405","LANDMARKNA":"全國加油站-肥基站（台塑）","LANDMARKAD":"1001705","ADDRESS":"基隆市中山區文化路48號","TEL":"02-24214535","COUNTYNAME":"基隆市","TOWNNAME":"中山區","MARKTYPE":"994","Class":"4"},"geometry":{"x":324249.55140000023,"y":2782872.1827000007}},{"attributes":{"OBJECTID":18661,"LANDMARKID":"1001700000001","LANDMARKCO":"101","LANDMARKNA":"行政院衛生署疾病管制局第一分局基隆辦事處","LANDMARKAD":"1001705","ADDRESS":"基隆市仁愛區港西街6號5樓","TEL":"(02)2421-0305","COUNTYNAME":"基隆市","TOWNNAME":"中山區","MARKTYPE":"991","Class":"1"},"geometry":{"x":324675.49749999959,"y":2780715.0780999996}},{"attributes":{"OBJECTID":18662,"LANDMARKID":"1001700000039","LANDMARKCO":"103","LANDMARKNA":"基隆巿中山區衛生所","LANDMARKAD":"1001705","ADDRESS":"基隆市中山區中山二路15號","TEL":"02-24229860","COUNTYNAME":"基隆市","TOWNNAME":"中山區","MARKTYPE":"991","Class":"1"},"geometry":{"x":324693.95179999992,"y":2781185.4581000004}},{"attributes":{"OBJECTID":18663,"LANDMARKID":"1001700000096","LANDMARKCO":"108","LANDMARKNA":"基隆市中山區公所","LANDMARKAD":"1001705","ADDRESS":"基隆市中山區文化路168號2樓","TEL":"02-24232181","COUNTYNAME":"基隆市","TOWNNAME":"中山區","MARKTYPE":"991","Class":"1"},"geometry":{"x":323548.31120000035,"y":2782884.3150999993}},{"attributes":{"OBJECTID":18664,"LANDMARKID":"1001700000078","LANDMARKCO":"107","LANDMARKNA":"基隆市消防局中山消防分隊","LANDMARKAD":"1001705","ADDRESS":"基隆市中山區復興路204號","TEL":"02-24372478","COUNTYNAME":"基隆市","TOWNNAME":"中山區","MARKTYPE":"991","Class":"1"},"geometry":{"x":323279.8805999998,"y":2782136.5240000002}},{"attributes":{"OBJECTID":18665,"LANDMARKID":"1001700000079","LANDMARKCO":"107","LANDMARKNA":"基隆市警察局第四分局","LANDMARKAD":"1001705","ADDRESS":"基隆市中山區西定路1號","TEL":"02-24225477","COUNTYNAME":"基隆市","TOWNNAME":"中山區","MARKTYPE":"991","Class":"1"},"geometry":{"x":324142.80350000039,"y":2780580.9352000002}},{"attributes":{"OBJECTID":18666,"LANDMARKID":"1001700000080","LANDMARKCO":"107","LANDMARKNA":"基隆市警察局中華路派出所","LANDMARKAD":"1001705","ADDRESS":"基隆市中山區通明街2號","TEL":"02-24246944","COUNTYNAME":"基隆市","TOWNNAME":"中山區","MARKTYPE":"991","Class":"1"},"geometry":{"x":324475.08690000046,"y":2782297.0895000007}},{"attributes":{"OBJECTID":18667,"LANDMARKID":"1001700000081","LANDMARKCO":"107","LANDMARKNA":"基隆市警察局中山派出所","LANDMARKAD":"1001705","ADDRESS":"基隆市中山區中山一路64號","TEL":"02-24242440","COUNTYNAME":"基隆市","TOWNNAME":"中山區","MARKTYPE":"991","Class":"1"},"geometry":{"x":324694.91289999988,"y":2781035.7120999992}},{"attributes":{"OBJECTID":18668,"LANDMARKID":"1001700000051","LANDMARKCO":"106","LANDMARKNA":"基隆市中山區戶政事務所","LANDMARKAD":"1001705","ADDRESS":"基隆市中山區文化路168號","TEL":"02-24242426","COUNTYNAME":"基隆市","TOWNNAME":"中山區","MARKTYPE":"991","Class":"1"},"geometry":{"x":323548.31120000035,"y":2782884.3150999993}},{"attributes":{"OBJECTID":18669,"LANDMARKID":"1001700000042","LANDMARKCO":"104","LANDMARKNA":"財務部基隆關稅局","LANDMARKAD":"1001705","ADDRESS":"基隆市仁愛區港西街6號","TEL":"02-24228854","COUNTYNAME":"基隆市","TOWNNAME":"中山區","MARKTYPE":"991","Class":"1"},"geometry":{"x":324675.46490000002,"y":2780714.8282999992}},{"attributes":{"OBJECTID":18670,"LANDMARKID":"1001700000002","LANDMARKCO":"101","LANDMARKNA":"交通部基隆港務局環保所","LANDMARKAD":"1001705","ADDRESS":"基隆市仁愛區港西街18號2樓","TEL":"02-24237093","COUNTYNAME":"基隆市","TOWNNAME":"中山區","MARKTYPE":"991","Class":"1"},"geometry":{"x":324809.16359999962,"y":2781042.6214000005}},{"attributes":{"OBJECTID":18671,"LANDMARKID":"1001700000077","LANDMARKCO":"107","LANDMARKNA":"內政部入出國及移民署","LANDMARKAD":"1001705","ADDRESS":"基隆市中山區港西街6號200室","TEL":"02-24273005","COUNTYNAME":"基隆市","TOWNNAME":"中山區","MARKTYPE":"991","Class":"1"},"geometry":{"x":324696.04920000024,"y":2780758.9559000004}},{"attributes":{"OBJECTID":18672,"LANDMARKID":"1001700000003","LANDMARKCO":"101","LANDMARKNA":"標準檢驗局基隆分局","LANDMARKAD":"1001705","ADDRESS":"基隆市中山區港西街8號","TEL":"02-24231151","COUNTYNAME":"基隆市","TOWNNAME":"中山區","MARKTYPE":"991","Class":"1"},"geometry":{"x":324679.21449999977,"y":2780789.0483999997}},{"attributes":{"OBJECTID":18673,"LANDMARKID":"1001700000180","LANDMARKCO":"204","LANDMARKNA":"基隆市立圖書館中山分館","LANDMARKAD":"1001705","ADDRESS":"基隆市中山區西定路230號3樓","TEL":" ","COUNTYNAME":"基隆市","TOWNNAME":"中山區","MARKTYPE":"992","Class":"2"},"geometry":{"x":323895.84379999992,"y":2781102.5442999993}},{"attributes":{"OBJECTID":18674,"LANDMARKID":"1001700000110","LANDMARKCO":"202","LANDMARKNA":"市立中山高中","LANDMARKAD":"1001705","ADDRESS":"基隆市中山區文化路162號","TEL":"02-24248191","COUNTYNAME":"基隆市","TOWNNAME":"中山區","MARKTYPE":"992","Class":"2"},"geometry":{"x":323665.44159999955,"y":2783055.6865999997}},{"attributes":{"OBJECTID":18675,"LANDMARKID":"1001700000111","LANDMARKCO":"202","LANDMARKNA":"私立聖心高中","LANDMARKAD":"1001705","ADDRESS":"基隆市中山區西定路166號","TEL":"02-24282464","COUNTYNAME":"基隆市","TOWNNAME":"中山區","MARKTYPE":"992","Class":"2"},"geometry":{"x":323967.15139999986,"y":2780998.8823000006}},{"attributes":{"OBJECTID":18676,"LANDMARKID":"1001700000112","LANDMARKCO":"202","LANDMARKNA":"私立聖心高中附設國中部","LANDMARKAD":"1001705","ADDRESS":"基隆市中山區西定路166號","TEL":"02-24282464","COUNTYNAME":"基隆市","TOWNNAME":"中山區","MARKTYPE":"992","Class":"2"},"geometry":{"x":323967.15139999986,"y":2780998.8823000006}},{"attributes":{"OBJECTID":18677,"LANDMARKID":"1001700000146","LANDMARKCO":"203","LANDMARKNA":"市立大德國中","LANDMARKAD":"1001705","ADDRESS":"基隆市中山區中山二路105巷144號","TEL":"02-24242802","COUNTYNAME":"基隆市","TOWNNAME":"中山區","MARKTYPE":"992","Class":"2"},"geometry":{"x":324106.55730000045,"y":2781544.8550000004}},{"attributes":{"OBJECTID":18678,"LANDMARKID":"1001700000147","LANDMARKCO":"203","LANDMARKNA":"市立太平國小","LANDMARKAD":"1001705","ADDRESS":"基隆市中山區中山一路189巷135號","TEL":"02-24224294","COUNTYNAME":"基隆市","TOWNNAME":"中山區","MARKTYPE":"992","Class":"2"},"geometry":{"x":324294.3273,"y":2780859.8747000005}},{"attributes":{"OBJECTID":18679,"LANDMARKID":"1001700000148","LANDMARKCO":"203","LANDMARKNA":"市立港西國小","LANDMARKAD":"1001705","ADDRESS":"基隆市中山區中山一路291巷45號","TEL":"02-24223068","COUNTYNAME":"基隆市","TOWNNAME":"中山區","MARKTYPE":"992","Class":"2"},"geometry":{"x":324590.8602,"y":2781106.2739000004}},{"attributes":{"OBJECTID":18680,"LANDMARKID":"1001700000149","LANDMARKCO":"203","LANDMARKNA":"市立中和國小","LANDMARKAD":"1001705","ADDRESS":"基隆市中山區中和路64號","TEL":"02-24371751","COUNTYNAME":"基隆市","TOWNNAME":"中山區","MARKTYPE":"992","Class":"2"},"geometry":{"x":322634.09680000041,"y":2782163.7393999994}},{"attributes":{"OBJECTID":18681,"LANDMARKID":"1001700000150","LANDMARKCO":"203","LANDMARKNA":"市立中華國小","LANDMARKAD":"1001705","ADDRESS":"基隆市中山區中華路46巷26號","TEL":"02-24225530","COUNTYNAME":"基隆市","TOWNNAME":"中山區","MARKTYPE":"992","Class":"2"},"geometry":{"x":324443.54619999975,"y":2782535.0121999998}},{"attributes":{"OBJECTID":18682,"LANDMARKID":"1001700000151","LANDMARKCO":"203","LANDMARKNA":"市立仙洞國小","LANDMARKAD":"1001705","ADDRESS":"基隆市中山區仁安街141號","TEL":"02-24223031#80","COUNTYNAME":"基隆市","TOWNNAME":"中山區","MARKTYPE":"992","Class":"2"},"geometry":{"x":325277.60319999978,"y":2782304.5322999991}},{"attributes":{"OBJECTID":18683,"LANDMARKID":"1001700000152","LANDMARKCO":"203","LANDMARKNA":"市立德和國小","LANDMARKAD":"1001705","ADDRESS":"基隆市中山區文化路164號","TEL":"02-24278095","COUNTYNAME":"基隆市","TOWNNAME":"中山區","MARKTYPE":"992","Class":"2"},"geometry":{"x":323622.22730000038,"y":2783158.9057}},{"attributes":{"OBJECTID":18684,"LANDMARKID":"1001700000153","LANDMARKCO":"203","LANDMARKNA":"私立聖心小學","LANDMARKAD":"1001705","ADDRESS":"基隆市中山區西定路166號","TEL":"02-24261546","COUNTYNAME":"基隆市","TOWNNAME":"中山區","MARKTYPE":"992","Class":"2"},"geometry":{"x":323967.15139999986,"y":2780998.8823000006}},{"attributes":{"OBJECTID":18685,"LANDMARKID":"1001700000154","LANDMARKCO":"203","LANDMARKNA":"市立中山國小","LANDMARKAD":"1001705","ADDRESS":"基隆市中山區通仁街28號","TEL":"02-24223053#50","COUNTYNAME":"基隆市","TOWNNAME":"中山區","MARKTYPE":"992","Class":"2"},"geometry":{"x":324384.92239999957,"y":2782142.0924999993}},{"attributes":{"OBJECTID":18686,"LANDMARKID":"1001700000244","LANDMARKCO":"305","LANDMARKNA":"外木山漁港","LANDMARKAD":"1001705","ADDRESS":"基隆市中山區","TEL":" ","COUNTYNAME":"基隆市","TOWNNAME":"中山區","MARKTYPE":"993","Class":"305"},"geometry":{"x":323993.74419999961,"y":2783755.5648999996}},{"attributes":{"OBJECTID":18687,"LANDMARKID":"1001700000231","LANDMARKCO":"303","LANDMARKNA":"通明里停車場","LANDMARKAD":"1001705","ADDRESS":"基隆市中山區中華路46巷","TEL":" ","COUNTYNAME":"基隆市","TOWNNAME":"中山區","MARKTYPE":"993","Class":"303"},"geometry":{"x":324422.76829999965,"y":2782333.1822999995}},{"attributes":{"OBJECTID":18688,"LANDMARKID":"1001700000195","LANDMARKCO":"302","LANDMARKNA":"基隆市公共汽車太白莊分站","LANDMARKAD":"1001705","ADDRESS":"基隆市中山區","TEL":" ","COUNTYNAME":"基隆市","TOWNNAME":"中山區","MARKTYPE":"993","Class":"302"},"geometry":{"x":324975.64580000006,"y":2782724.1258000005}},{"attributes":{"OBJECTID":18689,"LANDMARKID":"1001700000196","LANDMARKCO":"302","LANDMARKNA":"基隆市公共汽車管理處總站","LANDMARKAD":"1001705","ADDRESS":"基隆市仁愛區港西街2號","TEL":" ","COUNTYNAME":"基隆市","TOWNNAME":"中山區","MARKTYPE":"993","Class":"302"},"geometry":{"x":324611.79640000034,"y":2780671.7590999994}},{"attributes":{"OBJECTID":18690,"LANDMARKID":"1001700000197","LANDMARKCO":"302","LANDMARKNA":"國光汽車客運基隆站","LANDMARKAD":"1001705","ADDRESS":"基隆市仁愛區基隆市仁愛區港西街3號","TEL":" ","COUNTYNAME":"基隆市","TOWNNAME":"中山區","MARKTYPE":"993","Class":"302"},"geometry":{"x":324572.58640000038,"y":2780580.6773000006}},{"attributes":{"OBJECTID":18691,"LANDMARKID":"1001700000198","LANDMARKCO":"302","LANDMARKNA":"國光汽車客運基隆站","LANDMARKAD":"1001705","ADDRESS":"200基隆市仁愛區港西街3號","TEL":"|","COUNTYNAME":"基隆市","TOWNNAME":"中山區","MARKTYPE":"993","Class":"302"},"geometry":{"x":324566.95179999992,"y":2780625.8824000005}},{"attributes":{"OBJECTID":18692,"LANDMARKID":"1001700000227","LANDMARKCO":"303","LANDMARKNA":"文化社區停車場","LANDMARKAD":"1001705","ADDRESS":"基隆市中山區","TEL":" ","COUNTYNAME":"基隆市","TOWNNAME":"中山區","MARKTYPE":"993","Class":"303"},"geometry":{"x":323607.0290000001,"y":2783299.5374999996}},{"attributes":{"OBJECTID":18693,"LANDMARKID":"1001700000228","LANDMARKCO":"303","LANDMARKNA":"健民社區停車場","LANDMARKAD":"1001705","ADDRESS":"基隆市中山區健民路","TEL":" ","COUNTYNAME":"基隆市","TOWNNAME":"中山區","MARKTYPE":"993","Class":"303"},"geometry":{"x":324449.10219999962,"y":2781707.7708999999}},{"attributes":{"OBJECTID":18694,"LANDMARKID":"1001700000229","LANDMARKCO":"303","LANDMARKNA":"仙洞里民會堂地下停車場","LANDMARKAD":"1001705","ADDRESS":"基隆市中山區太白路2之7號","TEL":" ","COUNTYNAME":"基隆市","TOWNNAME":"中山區","MARKTYPE":"993","Class":"303"},"geometry":{"x":325034.2268000003,"y":2782445.2167000007}},{"attributes":{"OBJECTID":18695,"LANDMARKID":"1001700000230","LANDMARKCO":"303","LANDMARKNA":"健民里社區停車場","LANDMARKAD":"1001705","ADDRESS":"基隆市中山區健民路2號","TEL":" ","COUNTYNAME":"基隆市","TOWNNAME":"中山區","MARKTYPE":"993","Class":"303"},"geometry":{"x":324376.50200000033,"y":2781815.9199999999}},{"attributes":{"OBJECTID":18696,"LANDMARKID":"1001700000187","LANDMARKCO":"301","LANDMARKNA":"基隆火車站","LANDMARKAD":"1001705","ADDRESS":"基隆市仁愛區文昌里港西街5號","TEL":"02-24263743","COUNTYNAME":"基隆市","TOWNNAME":"中山區","MARKTYPE":"993","Class":"301"},"geometry":{"x":324513.99469999969,"y":2780651.6961000003}},{"attributes":{"OBJECTID":18697,"LANDMARKID":"1001700000280","LANDMARKCO":"402","LANDMARKNA":"中華電信-基隆安一特約服務中心","LANDMARKAD":"1001705","ADDRESS":"基隆市中山區安一路80號","TEL":"02-24226969","COUNTYNAME":"基隆市","TOWNNAME":"中山區","MARKTYPE":"994","Class":"4"},"geometry":{"x":324216.62899999972,"y":2780554.5326000005}},{"attributes":{"OBJECTID":18698,"LANDMARKID":"1001700000382","LANDMARKCO":"503","LANDMARKNA":"仙洞巖","LANDMARKAD":"1001705","ADDRESS":"基隆市中山區仁安街","TEL":" ","COUNTYNAME":"基隆市","TOWNNAME":"中山區","MARKTYPE":"995","Class":"5"},"geometry":{"x":325462.36780000012,"y":2782083.0006000008}},{"attributes":{"OBJECTID":18699,"LANDMARKID":"1001700000242","LANDMARKCO":"305","LANDMARKNA":"基隆漁港","LANDMARKAD":"1001701","ADDRESS":"基隆市中正區","TEL":" ","COUNTYNAME":"基隆市","TOWNNAME":"中正區","MARKTYPE":"993","Class":"305"},"geometry":{"x":327127.66260000039,"y":2782896.1436999999}},{"attributes":{"OBJECTID":18700,"LANDMARKID":"1001700000243","LANDMARKCO":"305","LANDMARKNA":"牛稠港","LANDMARKAD":"1001705","ADDRESS":"基隆市中正區","TEL":" ","COUNTYNAME":"基隆市","TOWNNAME":"中山區","MARKTYPE":"993","Class":"305"},"geometry":{"x":324704.98120000027,"y":2781727.9037999995}},{"attributes":{"OBJECTID":18701,"LANDMARKID":"1001700000316","LANDMARKCO":"405","LANDMARKNA":"中油加油站-大武崙站(中油直營)","LANDMARKAD":"1001706","ADDRESS":"基隆市安樂區基金三路2-1號","TEL":"02-24321537","COUNTYNAME":"基隆市","TOWNNAME":"安樂區","MARKTYPE":"994","Class":"4"},"geometry":{"x":320646.16860000044,"y":2782348.1118999999}},{"attributes":{"OBJECTID":18702,"LANDMARKID":"1001700000317","LANDMARKCO":"405","LANDMARKNA":"台灣優力加油站-大武崙站(中油)","LANDMARKAD":"1001706","ADDRESS":"基隆市安樂區武訓街72號","TEL":"02-24344246","COUNTYNAME":"基隆市","TOWNNAME":"安樂區","MARKTYPE":"994","Class":"4"},"geometry":{"x":320536.88929999992,"y":2782401.3121000007}},{"attributes":{"OBJECTID":18703,"LANDMARKID":"1001700000318","LANDMARKCO":"405","LANDMARKNA":"中油加油站-安樂站(中油直營)","LANDMARKAD":"1001706","ADDRESS":"基隆市安樂區麥金路441號","TEL":"02-24311788","COUNTYNAME":"基隆市","TOWNNAME":"安樂區","MARKTYPE":"994","Class":"4"},"geometry":{"x":322492.26559999958,"y":2779968.4737}},{"attributes":{"OBJECTID":18704,"LANDMARKID":"1001700000319","LANDMARKCO":"405","LANDMARKNA":"統一速邁樂加油站-基隆一站(中油)","LANDMARKAD":"1001706","ADDRESS":"基隆市安樂區基金一路346號","TEL":"02-24318691","COUNTYNAME":"基隆市","TOWNNAME":"安樂區","MARKTYPE":"994","Class":"4"},"geometry":{"x":321179.63960000034,"y":2781693.6576000005}},{"attributes":{"OBJECTID":18705,"LANDMARKID":"1001700000320","LANDMARKCO":"405","LANDMARKNA":"中油加油站-泉益站","LANDMARKAD":"1001706","ADDRESS":"基隆市安樂區麥金路120號","TEL":"02-24313103","COUNTYNAME":"基隆市","TOWNNAME":"安樂區","MARKTYPE":"994","Class":"4"},"geometry":{"x":323204.80719999969,"y":2778997.2810999993}},{"attributes":{"OBJECTID":18706,"LANDMARKID":"1001700000273","LANDMARKCO":"401","LANDMARKNA":"南光神經精神科醫院","LANDMARKAD":"1001706","ADDRESS":"基隆市安樂區基金一路91號","TEL":" ","COUNTYNAME":"基隆市","TOWNNAME":"安樂區","MARKTYPE":"994","Class":"4"},"geometry":{"x":322451.24349999987,"y":2781278.9956999999}},{"attributes":{"OBJECTID":18707,"LANDMARKID":"1001700000274","LANDMARKCO":"401","LANDMARKNA":"長庚紀念醫院基隆分院","LANDMARKAD":"1001706","ADDRESS":"基隆市安樂區麥金路222號","TEL":"02-24313131","COUNTYNAME":"基隆市","TOWNNAME":"安樂區","MARKTYPE":"994","Class":"4"},"geometry":{"x":322848.86969999969,"y":2779364.9125999995}},{"attributes":{"OBJECTID":18708,"LANDMARKID":"1001700000388","LANDMARKCO":"507","LANDMARKNA":"大武崙砲台","LANDMARKAD":"1001706","ADDRESS":"基隆市安樂區大武崙段內寮小段477之4地號","TEL":" ","COUNTYNAME":"基隆市","TOWNNAME":"安樂區","MARKTYPE":"995","Class":"5"},"geometry":{"x":321743.72910000011,"y":2783679.7835000008}},{"attributes":{"OBJECTID":18709,"LANDMARKID":"1001700000357","LANDMARKCO":"408","LANDMARKNA":"郵局-基隆樂利郵局","LANDMARKAD":"1001706","ADDRESS":"基隆市安樂區樂利三街261號","TEL":"(02)2432-8638","COUNTYNAME":"基隆市","TOWNNAME":"安樂區","MARKTYPE":"994","Class":"4"},"geometry":{"x":322186.97420000006,"y":2779996.9550000001}},{"attributes":{"OBJECTID":18710,"LANDMARKID":"1001700000358","LANDMARKCO":"408","LANDMARKNA":"郵局-基隆安樂路郵局","LANDMARKAD":"1001706","ADDRESS":"基隆市安樂區安樂路2段132號","TEL":"(02)2431-5275","COUNTYNAME":"基隆市","TOWNNAME":"安樂區","MARKTYPE":"994","Class":"4"},"geometry":{"x":323010.26400000043,"y":2779438.0521000009}},{"attributes":{"OBJECTID":18711,"LANDMARKID":"1001700000359","LANDMARKCO":"408","LANDMARKNA":"郵局-基隆大武崙郵局","LANDMARKAD":"1001706","ADDRESS":"基隆市安樂區基金一路131-24號","TEL":"(02)2432-4246","COUNTYNAME":"基隆市","TOWNNAME":"安樂區","MARKTYPE":"994","Class":"4"},"geometry":{"x":321770.81030000001,"y":2781503.5310999993}},{"attributes":{"OBJECTID":18712,"LANDMARKID":"1001700000301","LANDMARKCO":"404","LANDMARKNA":"台灣自來水新山給水廠","LANDMARKAD":"1001706","ADDRESS":"基隆市安樂區麥金路720號","TEL":"02-24319680","COUNTYNAME":"基隆市","TOWNNAME":"安樂區","MARKTYPE":"994","Class":"4"},"geometry":{"x":322613.45239999983,"y":2780660.0974000003}},{"attributes":{"OBJECTID":18713,"LANDMARKID":"1001700000302","LANDMARKCO":"404","LANDMARKNA":"台灣自來水北區第一工務所","LANDMARKAD":"1001706","ADDRESS":"基隆市安和二街5之1號","TEL":"02-24310528","COUNTYNAME":"基隆市","TOWNNAME":"安樂區","MARKTYPE":"994","Class":"4"},"geometry":{"x":322767.91920000035,"y":2780449.2833999991}},{"attributes":{"OBJECTID":18714,"LANDMARKID":"1001700000303","LANDMARKCO":"404","LANDMARKNA":"台灣省自來水新山給水廠","LANDMARKAD":"1001706","ADDRESS":"基隆市安樂區麥金路720號","TEL":" ","COUNTYNAME":"基隆市","TOWNNAME":"安樂區","MARKTYPE":"994","Class":"4"},"geometry":{"x":322703.03619999997,"y":2780520.1704999991}},{"attributes":{"OBJECTID":18715,"LANDMARKID":"1001700000343","LANDMARKCO":"406","LANDMARKNA":"松柏公園","LANDMARKAD":"1001706","ADDRESS":"基隆市安樂區","TEL":" ","COUNTYNAME":"基隆市","TOWNNAME":"安樂區","MARKTYPE":"994","Class":"4"},"geometry":{"x":323319.25939999986,"y":2780944.9210999999}},{"attributes":{"OBJECTID":18716,"LANDMARKID":"1001700000313","LANDMARKCO":"405","LANDMARKNA":"台亞加油站-情人湖站（台塑）","LANDMARKAD":"1001706","ADDRESS":"基隆市安樂區基金一路348號","TEL":"(02)2433-3322","COUNTYNAME":"基隆市","TOWNNAME":"安樂區","MARKTYPE":"994","Class":"4"},"geometry":{"x":321118.3356999997,"y":2781684.2239999995}},{"attributes":{"OBJECTID":18717,"LANDMARKID":"1001700000314","LANDMARKCO":"405","LANDMARKNA":"台亞加油站-武嶺站（台塑）","LANDMARKAD":"1001706","ADDRESS":"基隆市安樂區基金一路343號","TEL":"(02)2433-3322","COUNTYNAME":"基隆市","TOWNNAME":"安樂區","MARKTYPE":"994","Class":"4"},"geometry":{"x":321104.71939999983,"y":2781650.1071000006}},{"attributes":{"OBJECTID":18718,"LANDMARKID":"1001700000315","LANDMARKCO":"405","LANDMARKNA":"台亞加油站-麥金站(台塑)","LANDMARKAD":"1001706","ADDRESS":"基隆市安樂區麥金路760號","TEL":"02-24301710","COUNTYNAME":"基隆市","TOWNNAME":"安樂區","MARKTYPE":"994","Class":"4"},"geometry":{"x":322773.27479999978,"y":2780954.2807}},{"attributes":{"OBJECTID":18719,"LANDMARKID":"1001700000040","LANDMARKCO":"103","LANDMARKNA":"基隆巿安樂區衛生所","LANDMARKAD":"1001706","ADDRESS":"基隆市安樂路二段164號1樓","TEL":"02-24318061","COUNTYNAME":"基隆市","TOWNNAME":"安樂區","MARKTYPE":"991","Class":"1"},"geometry":{"x":322933.83579999954,"y":2779381.7118999995}},{"attributes":{"OBJECTID":18720,"LANDMARKID":"1001700000095","LANDMARKCO":"108","LANDMARKNA":"基隆市安樂區公所","LANDMARKAD":"1001706","ADDRESS":"基隆市安樂區安樂路二段164號2樓","TEL":"02-24312118","COUNTYNAME":"基隆市","TOWNNAME":"安樂區","MARKTYPE":"991","Class":"1"},"geometry":{"x":322933.83579999954,"y":2779381.7118999995}},{"attributes":{"OBJECTID":18721,"LANDMARKID":"1001700000082","LANDMARKCO":"107","LANDMARKNA":"基隆市警察局安樂分駐所","LANDMARKAD":"1001706","ADDRESS":"基隆市安樂區麥金路125號","TEL":"02-24316212","COUNTYNAME":"基隆市","TOWNNAME":"安樂區","MARKTYPE":"991","Class":"1"},"geometry":{"x":322835.44990000036,"y":2779268.9888000004}},{"attributes":{"OBJECTID":18722,"LANDMARKID":"1001700000083","LANDMARKCO":"107","LANDMARKNA":"基隆市警察局安定派出所","LANDMARKAD":"1001706","ADDRESS":"基隆市安樂區安一路307號","TEL":"02-24246946","COUNTYNAME":"基隆市","TOWNNAME":"安樂區","MARKTYPE":"991","Class":"1"},"geometry":{"x":323355.14099999983,"y":2780663.6634}},{"attributes":{"OBJECTID":18723,"LANDMARKID":"1001700000050","LANDMARKCO":"106","LANDMARKNA":"基隆市安樂區戶政事務所","LANDMARKAD":"1001706","ADDRESS":"基隆市安樂區鶯歌里14鄰安樂路二段164號1樓","TEL":"02-24312159","COUNTYNAME":"基隆市","TOWNNAME":"安樂區","MARKTYPE":"991","Class":"1"},"geometry":{"x":322933.83579999954,"y":2779381.7118999995}},{"attributes":{"OBJECTID":18724,"LANDMARKID":"1001700000049","LANDMARKCO":"105","LANDMARKNA":"基隆市安樂地政事務所","LANDMARKAD":"1001706","ADDRESS":"基隆市安樂區安樂路二段164號3樓","TEL":"02-24324001","COUNTYNAME":"基隆市","TOWNNAME":"安樂區","MARKTYPE":"991","Class":"1"},"geometry":{"x":322933.83579999954,"y":2779381.7118999995}},{"attributes":{"OBJECTID":18725,"LANDMARKID":"1001700000041","LANDMARKCO":"104","LANDMARKNA":"北區國稅局基隆市分局","LANDMARKAD":"1001706","ADDRESS":"基隆市安樂區安樂路二段162號","TEL":"02-24331900","COUNTYNAME":"基隆市","TOWNNAME":"安樂區","MARKTYPE":"991","Class":"1"},"geometry":{"x":322951.03079999983,"y":2779441.3697999995}},{"attributes":{"OBJECTID":18726,"LANDMARKID":"1001700000037","LANDMARKCO":"103","LANDMARKNA":"基隆市政府家庭暴力暨性侵害防治中心","LANDMARKAD":"1001706","ADDRESS":"基隆市安樂區麥金路482號5樓","TEL":"02-24340458","COUNTYNAME":"基隆市","TOWNNAME":"安樂區","MARKTYPE":"991","Class":"1"},"geometry":{"x":322560.01009999961,"y":2779923.6963999998}},{"attributes":{"OBJECTID":18727,"LANDMARKID":"1001700000038","LANDMARKCO":"103","LANDMARKNA":"基隆市安樂社區老人休閒活動中心","LANDMARKAD":"1001706","ADDRESS":"基隆市安樂區麥金路572號","TEL":"02-24321149","COUNTYNAME":"基隆市","TOWNNAME":"安樂區","MARKTYPE":"991","Class":"1"},"geometry":{"x":322620.42009999976,"y":2780155.8652999997}},{"attributes":{"OBJECTID":18728,"LANDMARKID":"1001700000084","LANDMARKCO":"107","LANDMARKNA":"基隆市消防局","LANDMARKAD":"1001706","ADDRESS":"基隆市安樂區基金一路129巷6號","TEL":"02-24302691","COUNTYNAME":"基隆市","TOWNNAME":"安樂區","MARKTYPE":"991","Class":"1"},"geometry":{"x":322095.41139999963,"y":2781429.3969999999}},{"attributes":{"OBJECTID":18729,"LANDMARKID":"1001700000085","LANDMARKCO":"107","LANDMARKNA":"基隆市消防局安樂消防分隊","LANDMARKAD":"1001706","ADDRESS":"基隆市安樂區基金一路129巷6號","TEL":"02-24302691#9","COUNTYNAME":"基隆市","TOWNNAME":"安樂區","MARKTYPE":"991","Class":"1"},"geometry":{"x":322099.4112999998,"y":2781429.3758000005}},{"attributes":{"OBJECTID":18730,"LANDMARKID":"1001700000086","LANDMARKCO":"107","LANDMARKNA":"基隆市警察局大武崙派出所","LANDMARKAD":"1001706","ADDRESS":"基隆市基金一路355號","TEL":"02-24310118","COUNTYNAME":"基隆市","TOWNNAME":"安樂區","MARKTYPE":"991","Class":"1"},"geometry":{"x":320940.18769999966,"y":2781689.5800999999}},{"attributes":{"OBJECTID":18731,"LANDMARKID":"1001700000004","LANDMARKCO":"101","LANDMARKNA":"工業局大武崙工業區服務中心","LANDMARKAD":"1001706","ADDRESS":"基隆市安樂區武訓街58號","TEL":"02-24310849","COUNTYNAME":"基隆市","TOWNNAME":"安樂區","MARKTYPE":"991","Class":"1"},"geometry":{"x":320469.41540000029,"y":2782539.1038000006}},{"attributes":{"OBJECTID":18732,"LANDMARKID":"1001700000005","LANDMARKCO":"101","LANDMARKNA":"工業局大武崙工業區服務中心","LANDMARKAD":"1001706","ADDRESS":"基隆市安樂區武訓街59號","TEL":"02-24310017","COUNTYNAME":"基隆市","TOWNNAME":"安樂區","MARKTYPE":"991","Class":"1"},"geometry":{"x":320310.08349999972,"y":2782589.9207000006}},{"attributes":{"OBJECTID":18733,"LANDMARKID":"1001700000043","LANDMARKCO":"104","LANDMARKNA":"基隆市稅捐稽徵處","LANDMARKAD":"1001706","ADDRESS":"基隆市信義區安樂路二段162號6樓","TEL":"02-24331888","COUNTYNAME":"基隆市","TOWNNAME":"安樂區","MARKTYPE":"991","Class":"1"},"geometry":{"x":322972.10900000017,"y":2779409.2567999996}},{"attributes":{"OBJECTID":18734,"LANDMARKID":"1001700000181","LANDMARKCO":"204","LANDMARKNA":"基隆市立圖書館安樂分館","LANDMARKAD":"1001706","ADDRESS":"基隆市安樂區安樂路二段164號5樓","TEL":" ","COUNTYNAME":"基隆市","TOWNNAME":"安樂區","MARKTYPE":"992","Class":"2"},"geometry":{"x":322939.99029999971,"y":2779371.4454999994}},{"attributes":{"OBJECTID":18735,"LANDMARKID":"1001700000145","LANDMARKCO":"203","LANDMARKNA":"市立建德國中","LANDMARKAD":"1001706","ADDRESS":"基隆市安樂區安和一街29號","TEL":"02-24321234","COUNTYNAME":"基隆市","TOWNNAME":"安樂區","MARKTYPE":"992","Class":"2"},"geometry":{"x":322787.56429999974,"y":2780108.7310000006}},{"attributes":{"OBJECTID":18736,"LANDMARKID":"1001700000113","LANDMARKCO":"202","LANDMARKNA":"市立安樂高中","LANDMARKAD":"1001706","ADDRESS":"基隆市安樂區安一路360號","TEL":"02-24233126","COUNTYNAME":"基隆市","TOWNNAME":"安樂區","MARKTYPE":"992","Class":"2"},"geometry":{"x":323689.93680000026,"y":2780849.1171000004}},{"attributes":{"OBJECTID":18737,"LANDMARKID":"1001700000137","LANDMARKCO":"203","LANDMARKNA":"市立安樂國小","LANDMARKAD":"1001706","ADDRESS":"基隆市安樂區安一路177巷23號","TEL":"02-24220814","COUNTYNAME":"基隆市","TOWNNAME":"安樂區","MARKTYPE":"992","Class":"2"},"geometry":{"x":323800.8685999997,"y":2780574.7748000007}},{"attributes":{"OBJECTID":18738,"LANDMARKID":"1001700000138","LANDMARKCO":"203","LANDMARKNA":"市立建德國小","LANDMARKAD":"1001706","ADDRESS":"基隆市安樂區安和一街392號","TEL":"02-24313034","COUNTYNAME":"基隆市","TOWNNAME":"安樂區","MARKTYPE":"992","Class":"2"},"geometry":{"x":322817.95999999996,"y":2779804.8271999992}},{"attributes":{"OBJECTID":18739,"LANDMARKID":"1001700000139","LANDMARKCO":"203","LANDMARKNA":"市立西定國小","LANDMARKAD":"1001706","ADDRESS":"基隆市安樂區新西街1號","TEL":"02-24223856","COUNTYNAME":"基隆市","TOWNNAME":"安樂區","MARKTYPE":"992","Class":"2"},"geometry":{"x":323834.26989999972,"y":2781097.0753000006}},{"attributes":{"OBJECTID":18740,"LANDMARKID":"1001700000140","LANDMARKCO":"203","LANDMARKNA":"市立長樂國小","LANDMARKAD":"1001706","ADDRESS":"基隆市安樂區樂利三街30巷123號","TEL":"02-24322765","COUNTYNAME":"基隆市","TOWNNAME":"安樂區","MARKTYPE":"992","Class":"2"},"geometry":{"x":321761.9068,"y":2779930.4744000006}},{"attributes":{"OBJECTID":18741,"LANDMARKID":"1001700000141","LANDMARKCO":"203","LANDMARKNA":"市立武崙國中","LANDMARKAD":"1001706","ADDRESS":"基隆市安樂區基金二路3巷1號","TEL":"02-24342456","COUNTYNAME":"基隆市","TOWNNAME":"安樂區","MARKTYPE":"992","Class":"2"},"geometry":{"x":320833.60699999984,"y":2781768.6789999995}},{"attributes":{"OBJECTID":18742,"LANDMARKID":"1001700000142","LANDMARKCO":"203","LANDMARKNA":"市立隆聖國小","LANDMARKAD":"1001706","ADDRESS":"基隆市安樂區武隆街107號","TEL":"02-24311480","COUNTYNAME":"基隆市","TOWNNAME":"安樂區","MARKTYPE":"992","Class":"2"},"geometry":{"x":319958.27049999963,"y":2783238.8342000004}},{"attributes":{"OBJECTID":18743,"LANDMARKID":"1001700000143","LANDMARKCO":"203","LANDMARKNA":"市立武崙國小","LANDMARKAD":"1001706","ADDRESS":"基隆市安樂區武崙街203號","TEL":"02-24310018","COUNTYNAME":"基隆市","TOWNNAME":"安樂區","MARKTYPE":"992","Class":"2"},"geometry":{"x":321268.46559999976,"y":2781319.3428000007}},{"attributes":{"OBJECTID":18744,"LANDMARKID":"1001700000245","LANDMARKCO":"305","LANDMARKNA":"大武崙漁港","LANDMARKAD":"1001706","ADDRESS":"基隆市安樂區","TEL":" ","COUNTYNAME":"基隆市","TOWNNAME":"安樂區","MARKTYPE":"993","Class":"305"},"geometry":{"x":321439.3992999997,"y":2784779.4246999994}},{"attributes":{"OBJECTID":18745,"LANDMARKID":"1001700000144","LANDMARKCO":"203","LANDMARKNA":"國立基隆特殊教育學校","LANDMARKAD":"1001706","ADDRESS":"基隆市安樂區安一路370巷1之6號","TEL":"02-24287712","COUNTYNAME":"基隆市","TOWNNAME":"安樂區","MARKTYPE":"992","Class":"2"},"geometry":{"x":323286.52070000023,"y":2780839.0242999997}},{"attributes":{"OBJECTID":18746,"LANDMARKID":"1001700000254","LANDMARKCO":"308","LANDMARKNA":"國1-基隆交流道-北上","LANDMARKAD":"1001706","ADDRESS":"基隆市七堵區","TEL":" ","COUNTYNAME":"基隆市","TOWNNAME":"安樂區","MARKTYPE":"993","Class":"308"},"geometry":{"x":323591.93450000044,"y":2778732.8135000002}},{"attributes":{"OBJECTID":18747,"LANDMARKID":"1001700000255","LANDMARKCO":"308","LANDMARKNA":"國3-基金交流道-南下","LANDMARKAD":"1001706","ADDRESS":"基隆市安樂區","TEL":" ","COUNTYNAME":"基隆市","TOWNNAME":"安樂區","MARKTYPE":"993","Class":"308"},"geometry":{"x":321667.03390000015,"y":2781233.4640999995}},{"attributes":{"OBJECTID":18748,"LANDMARKID":"1001700000256","LANDMARKCO":"308","LANDMARKNA":"台62-安樂端-東行","LANDMARKAD":"1001706","ADDRESS":" ","TEL":" ","COUNTYNAME":"基隆市","TOWNNAME":"安樂區","MARKTYPE":"993","Class":"308"},"geometry":{"x":320927.62959999964,"y":2781500.5711000003}},{"attributes":{"OBJECTID":18749,"LANDMARKID":"1001700000199","LANDMARKCO":"302","LANDMARKNA":"基隆市公共汽車安樂分站","LANDMARKAD":"1001706","ADDRESS":"基隆市安樂區安和二街15號B棟","TEL":" ","COUNTYNAME":"基隆市","TOWNNAME":"安樂區","MARKTYPE":"993","Class":"302"},"geometry":{"x":322891.2368999999,"y":2780459.7030999996}},{"attributes":{"OBJECTID":18750,"LANDMARKID":"1001700000219","LANDMARKCO":"303","LANDMARKNA":"情人湖停車場","LANDMARKAD":"1001706","ADDRESS":" ","TEL":" ","COUNTYNAME":"基隆市","TOWNNAME":"安樂區","MARKTYPE":"993","Class":"303"},"geometry":{"x":321153.63790000044,"y":2783329.8373000007}},{"attributes":{"OBJECTID":18751,"LANDMARKID":"1001700000220","LANDMARKCO":"303","LANDMARKNA":"大武崙漁港停車場","LANDMARKAD":"1001706","ADDRESS":"基隆市安樂區大武崙","TEL":" ","COUNTYNAME":"基隆市","TOWNNAME":"安樂區","MARKTYPE":"993","Class":"303"},"geometry":{"x":321330.66280000005,"y":2784510.7523999996}},{"attributes":{"OBJECTID":18752,"LANDMARKID":"1001700000221","LANDMARKCO":"303","LANDMARKNA":"大武崙砲台停車場","LANDMARKAD":"1001706","ADDRESS":" ","TEL":" ","COUNTYNAME":"基隆市","TOWNNAME":"安樂區","MARKTYPE":"993","Class":"303"},"geometry":{"x":321485.70949999988,"y":2783524.7667999994}},{"attributes":{"OBJECTID":18753,"LANDMARKID":"1001700000222","LANDMARKCO":"303","LANDMARKNA":"四期二標停車場","LANDMARKAD":"1001706","ADDRESS":"基隆市安和二路2號前","TEL":" ","COUNTYNAME":"基隆市","TOWNNAME":"安樂區","MARKTYPE":"993","Class":"303"},"geometry":{"x":322641.43769999966,"y":2780332.6586000007}},{"attributes":{"OBJECTID":18754,"LANDMARKID":"1001700000223","LANDMARKCO":"303","LANDMARKNA":"樂利三街停車場","LANDMARKAD":"1001706","ADDRESS":"基隆市安樂區","TEL":" ","COUNTYNAME":"基隆市","TOWNNAME":"安樂區","MARKTYPE":"993","Class":"303"},"geometry":{"x":322381.15460000001,"y":2780160.9743000008}},{"attributes":{"OBJECTID":18755,"LANDMARKID":"1001700000224","LANDMARKCO":"303","LANDMARKNA":"四期二標停車場","LANDMARKAD":"1001706","ADDRESS":"基隆市安樂區","TEL":" ","COUNTYNAME":"基隆市","TOWNNAME":"安樂區","MARKTYPE":"993","Class":"303"},"geometry":{"x":322627.46119999979,"y":2780328.8621999994}},{"attributes":{"OBJECTID":18756,"LANDMARKID":"1001700000225","LANDMARKCO":"303","LANDMARKNA":"二期國宅停車場","LANDMARKAD":"1001706","ADDRESS":"基隆市三民里","TEL":" ","COUNTYNAME":"基隆市","TOWNNAME":"安樂區","MARKTYPE":"993","Class":"303"},"geometry":{"x":321348.8356999997,"y":2784113.7676999997}},{"attributes":{"OBJECTID":18757,"LANDMARKID":"1001700000226","LANDMARKCO":"303","LANDMARKNA":"鐵路局宿舍前停車場","LANDMARKAD":"1001706","ADDRESS":"基隆市安樂區","TEL":" ","COUNTYNAME":"基隆市","TOWNNAME":"安樂區","MARKTYPE":"993","Class":"303"},"geometry":{"x":320842.18429999985,"y":2783977.5212999992}},{"attributes":{"OBJECTID":18758,"LANDMARKID":"1001700000284","LANDMARKCO":"402","LANDMARKNA":"中華電信-安樂服務中心","LANDMARKAD":"1001706","ADDRESS":"基隆市安樂路二段129號","TEL":"123或0800-080-123","COUNTYNAME":"基隆市","TOWNNAME":"安樂區","MARKTYPE":"994","Class":"4"},"geometry":{"x":323122.48840000015,"y":2779480.9516000003}},{"attributes":{"OBJECTID":18759,"LANDMARKID":"1001700000406","LANDMARKCO":"603","LANDMARKNA":"北極星汽車旅館","LANDMARKAD":"1001706","ADDRESS":"基隆市安樂區樂利三街21號","TEL":"02-24320099","COUNTYNAME":"基隆市","TOWNNAME":"安樂區","MARKTYPE":"996","Class":"6"},"geometry":{"x":322320.63300000038,"y":2780248.2667999994}},{"attributes":{"OBJECTID":18760,"LANDMARKID":"1001700000407","LANDMARKCO":"603","LANDMARKNA":"蔚藍海岸休閒SPA汽車旅館","LANDMARKAD":"1001706","ADDRESS":"基隆市安樂區武隆街67號","TEL":"02-24332366","COUNTYNAME":"基隆市","TOWNNAME":"安樂區","MARKTYPE":"996","Class":"6"},"geometry":{"x":320129.53490000032,"y":2783216.9033000004}},{"attributes":{"OBJECTID":18761,"LANDMARKID":"1001700000381","LANDMARKCO":"503","LANDMARKNA":"情人湖公園","LANDMARKAD":"1001706","ADDRESS":"基隆市基金一路208巷19號","TEL":" ","COUNTYNAME":"基隆市","TOWNNAME":"安樂區","MARKTYPE":"995","Class":"5"},"geometry":{"x":321163.9606999997,"y":2783370.5236000009}},{"attributes":{"OBJECTID":18762,"LANDMARKID":"1001700000324","LANDMARKCO":"405","LANDMARKNA":"中油加油站-中正三路站(中油直營)","LANDMARKAD":"1001701","ADDRESS":"基隆市中正區中正路459號","TEL":"02-24622381","COUNTYNAME":"基隆市","TOWNNAME":"中正區","MARKTYPE":"994","Class":"4"},"geometry":{"x":327368.3992999997,"y":2782791.4227000009}},{"attributes":{"OBJECTID":18763,"LANDMARKID":"1001700000325","LANDMARKCO":"405","LANDMARKNA":"中油加油站-北寧路站(中油直營)","LANDMARKAD":"1001701","ADDRESS":"基隆市中正區北寧路37號","TEL":"02-24628621","COUNTYNAME":"基隆市","TOWNNAME":"中正區","MARKTYPE":"994","Class":"4"},"geometry":{"x":328011.00160000008,"y":2782789.3640999999}},{"attributes":{"OBJECTID":18764,"LANDMARKID":"1001700000326","LANDMARKCO":"405","LANDMARKNA":"中油加油站-祥豊街站(中油直營)","LANDMARKAD":"1001701","ADDRESS":"基隆市中正區祥豊街108號","TEL":"02-24627356","COUNTYNAME":"基隆市","TOWNNAME":"中正區","MARKTYPE":"994","Class":"4"},"geometry":{"x":327260.12820000015,"y":2781918.1002999991}},{"attributes":{"OBJECTID":18765,"LANDMARKID":"1001700000327","LANDMARKCO":"405","LANDMARKNA":"中油加油站-同成漁船站","LANDMARKAD":"1001701","ADDRESS":"基隆市中正區和一路41巷4弄13號","TEL":"02-24635522","COUNTYNAME":"基隆市","TOWNNAME":"中正區","MARKTYPE":"994","Class":"4"},"geometry":{"x":327357.90820000041,"y":2783173.8439000007}},{"attributes":{"OBJECTID":18766,"LANDMARKID":"1001700000282","LANDMARKCO":"402","LANDMARKNA":"My Phone台灣大哥大-基隆義一直營服務中心","LANDMARKAD":"1001701","ADDRESS":"基隆市中正區義一路38號","TEL":"0809-000166","COUNTYNAME":"基隆市","TOWNNAME":"中正區","MARKTYPE":"994","Class":"4"},"geometry":{"x":325177.20490000024,"y":2780663.3902000003}},{"attributes":{"OBJECTID":18767,"LANDMARKID":"1001700000283","LANDMARKCO":"402","LANDMARKNA":"亞太行動寬頻電信-基隆市","LANDMARKAD":"1001701","ADDRESS":"基隆市信一路160號","TEL":" ","COUNTYNAME":"基隆市","TOWNNAME":"中正區","MARKTYPE":"994","Class":"4"},"geometry":{"x":325214.42920000013,"y":2780396.1939000003}},{"attributes":{"OBJECTID":18768,"LANDMARKID":"1001700000271","LANDMARKCO":"401","LANDMARKNA":"新昆明醫院","LANDMARKAD":"1001701","ADDRESS":"基隆市中正區中正路30號","TEL":" ","COUNTYNAME":"基隆市","TOWNNAME":"中正區","MARKTYPE":"994","Class":"4"},"geometry":{"x":325105.60900000017,"y":2780736.7857000008}},{"attributes":{"OBJECTID":18769,"LANDMARKID":"1001700000272","LANDMARKCO":"401","LANDMARKNA":"國軍基隆醫院","LANDMARKAD":"1001701","ADDRESS":"基隆市中正區正榮街100號","TEL":"02-4631979","COUNTYNAME":"基隆市","TOWNNAME":"中正區","MARKTYPE":"994","Class":"4"},"geometry":{"x":326922.13430000003,"y":2782016.9635000005}},{"attributes":{"OBJECTID":18770,"LANDMARKID":"1001700000390","LANDMARKCO":"507","LANDMARKNA":"基隆二沙灣砲台(海門天險)","LANDMARKAD":"1001701","ADDRESS":"基隆市中正區中正路大沙灣民族英雄墓對面山上","TEL":" ","COUNTYNAME":"基隆市","TOWNNAME":"中正區","MARKTYPE":"995","Class":"5"},"geometry":{"x":326280.80900000036,"y":2781474.8811000008}},{"attributes":{"OBJECTID":18771,"LANDMARKID":"1001700000391","LANDMARKCO":"507","LANDMARKNA":"十八羅漢洞","LANDMARKAD":"1001701","ADDRESS":"基隆市中正區","TEL":" ","COUNTYNAME":"基隆市","TOWNNAME":"中正區","MARKTYPE":"995","Class":"5"},"geometry":{"x":326098.5270999996,"y":2781193.3103999998}},{"attributes":{"OBJECTID":18772,"LANDMARKID":"1001700000392","LANDMARKCO":"507","LANDMARKNA":"海門天險","LANDMARKAD":"1001701","ADDRESS":"基隆市中正區","TEL":" ","COUNTYNAME":"基隆市","TOWNNAME":"中正區","MARKTYPE":"995","Class":"5"},"geometry":{"x":326380.80310000014,"y":2781380.8643999994}},{"attributes":{"OBJECTID":18773,"LANDMARKID":"1001700000393","LANDMARKCO":"507","LANDMARKNA":"清法戰爭遺址","LANDMARKAD":"1001701","ADDRESS":"基隆市中正區中濱段2號","TEL":" ","COUNTYNAME":"基隆市","TOWNNAME":"中正區","MARKTYPE":"995","Class":"5"},"geometry":{"x":326375.86739999987,"y":2781607.4480000008}},{"attributes":{"OBJECTID":18774,"LANDMARKID":"1001700000365","LANDMARKCO":"408","LANDMARKNA":"郵局-基隆港東郵局","LANDMARKAD":"1001701","ADDRESS":"基隆市中正區中正路56號","TEL":"(02)2421-0156","COUNTYNAME":"基隆市","TOWNNAME":"中正區","MARKTYPE":"994","Class":"4"},"geometry":{"x":325183.51559999958,"y":2780846.3502999991}},{"attributes":{"OBJECTID":18775,"LANDMARKID":"1001700000366","LANDMARKCO":"408","LANDMARKNA":"郵局-基隆中正郵局","LANDMARKAD":"1001701","ADDRESS":"基隆市中正區中正路393巷18號","TEL":"(02)2462-3324","COUNTYNAME":"基隆市","TOWNNAME":"中正區","MARKTYPE":"994","Class":"4"},"geometry":{"x":327258.67879999988,"y":2782729.6231999993}},{"attributes":{"OBJECTID":18776,"LANDMARKID":"1001700000367","LANDMARKCO":"408","LANDMARKNA":"郵局-基隆和平島郵局","LANDMARKAD":"1001701","ADDRESS":"基隆市中正區和一路129號","TEL":"(02)2462-2371","COUNTYNAME":"基隆市","TOWNNAME":"中正區","MARKTYPE":"994","Class":"4"},"geometry":{"x":327168.32440000027,"y":2783151.1264999993}},{"attributes":{"OBJECTID":18777,"LANDMARKID":"1001700000368","LANDMARKCO":"408","LANDMARKNA":"郵局-海洋大學郵局","LANDMARKAD":"1001701","ADDRESS":"基隆市中正區北寧路2號","TEL":"(02)2462-1990","COUNTYNAME":"基隆市","TOWNNAME":"中正區","MARKTYPE":"994","Class":"4"},"geometry":{"x":327895.55470000021,"y":2782711.7749000005}},{"attributes":{"OBJECTID":18778,"LANDMARKID":"1001700000369","LANDMARKCO":"408","LANDMARKNA":"郵局-基隆八斗子郵局","LANDMARKAD":"1001701","ADDRESS":"基隆市中正區八斗街14號","TEL":"(02)2469-2134","COUNTYNAME":"基隆市","TOWNNAME":"中正區","MARKTYPE":"994","Class":"4"},"geometry":{"x":330288.73620000016,"y":2781521.9103999995}},{"attributes":{"OBJECTID":18779,"LANDMARKID":"1001700000370","LANDMARKCO":"408","LANDMARKNA":"郵局-基隆安瀾橋郵局","LANDMARKAD":"1001701","ADDRESS":"基隆市中正區中正路330號","TEL":"(02)2462-1989","COUNTYNAME":"基隆市","TOWNNAME":"中正區","MARKTYPE":"994","Class":"4"},"geometry":{"x":326738.68570000026,"y":2781805.4364999998}},{"attributes":{"OBJECTID":18780,"LANDMARKID":"1001700000371","LANDMARKCO":"408","LANDMARKNA":"郵局-基隆三沙灣郵局","LANDMARKAD":"1001701","ADDRESS":"基隆市中正區中船路112巷28號","TEL":"(02)2421-0165","COUNTYNAME":"基隆市","TOWNNAME":"中正區","MARKTYPE":"994","Class":"4"},"geometry":{"x":325847.3881000001,"y":2781312.7578999996}},{"attributes":{"OBJECTID":18781,"LANDMARKID":"1001700000372","LANDMARKCO":"408","LANDMARKNA":"郵局-基隆新豐街郵局","LANDMARKAD":"1001701","ADDRESS":"基隆市中正區新豐街482號2樓","TEL":"(02)2460-1533","COUNTYNAME":"基隆市","TOWNNAME":"中正區","MARKTYPE":"994","Class":"4"},"geometry":{"x":329176.45889999997,"y":2781025.8997000009}},{"attributes":{"OBJECTID":18782,"LANDMARKID":"1001700000380","LANDMARKCO":"409","LANDMARKNA":"基隆區漁會","LANDMARKAD":"1001701","ADDRESS":"基隆市環港街５號","TEL":"02-24695516","COUNTYNAME":"基隆市","TOWNNAME":"中正區","MARKTYPE":"994","Class":"4"},"geometry":{"x":329916.88929999992,"y":2781690.4538000003}},{"attributes":{"OBJECTID":18783,"LANDMARKID":"1001700000297","LANDMARKCO":"404","LANDMARKNA":"台灣自來水第一區管理處","LANDMARKAD":"1001701","ADDRESS":"基隆市中正區中正路106號","TEL":"02-24228185~9","COUNTYNAME":"基隆市","TOWNNAME":"中正區","MARKTYPE":"994","Class":"4"},"geometry":{"x":325592.04420000035,"y":2781235.4059999995}},{"attributes":{"OBJECTID":18784,"LANDMARKID":"1001700000298","LANDMARKCO":"404","LANDMARKNA":"台灣自來水基隆服務所","LANDMARKAD":"1001701","ADDRESS":"基隆市中正區義一路21號","TEL":"02-24252103","COUNTYNAME":"基隆市","TOWNNAME":"中正區","MARKTYPE":"994","Class":"4"},"geometry":{"x":325149.69010000024,"y":2780677.5551999994}},{"attributes":{"OBJECTID":18785,"LANDMARKID":"1001700000299","LANDMARKCO":"404","LANDMARKNA":"台灣省自來水基隆服務所","LANDMARKAD":"1001701","ADDRESS":"基隆市中正區義一路21號","TEL":" ","COUNTYNAME":"基隆市","TOWNNAME":"中正區","MARKTYPE":"994","Class":"4"},"geometry":{"x":325145.50590000022,"y":2780689.2265000008}},{"attributes":{"OBJECTID":18786,"LANDMARKID":"1001700000300","LANDMARKCO":"404","LANDMARKNA":"台灣省自來水第一區台北基隆管理處","LANDMARKAD":"1001701","ADDRESS":"基隆市中正區中正路106號","TEL":" ","COUNTYNAME":"基隆市","TOWNNAME":"中正區","MARKTYPE":"994","Class":"4"},"geometry":{"x":327626.62210000027,"y":2782823.0399999991}},{"attributes":{"OBJECTID":18787,"LANDMARKID":"1001700000337","LANDMARKCO":"406","LANDMARKNA":"碧砂公園","LANDMARKAD":"1001701","ADDRESS":"基隆市中正區","TEL":" ","COUNTYNAME":"基隆市","TOWNNAME":"中正區","MARKTYPE":"994","Class":"4"},"geometry":{"x":329144.04999999981,"y":2782113.2130999994}},{"attributes":{"OBJECTID":18788,"LANDMARKID":"1001700000338","LANDMARKCO":"406","LANDMARKNA":"濱海公園","LANDMARKAD":"1001701","ADDRESS":"基隆市中正區","TEL":" ","COUNTYNAME":"基隆市","TOWNNAME":"中正區","MARKTYPE":"994","Class":"4"},"geometry":{"x":326936.89800000004,"y":2783901.5625999998}},{"attributes":{"OBJECTID":18789,"LANDMARKID":"1001700000339","LANDMARKCO":"406","LANDMARKNA":"八斗子濱海公園","LANDMARKAD":"1001701","ADDRESS":"基隆市中正區","TEL":" ","COUNTYNAME":"基隆市","TOWNNAME":"中正區","MARKTYPE":"994","Class":"4"},"geometry":{"x":330524.02010000031,"y":2782130.4421999995}},{"attributes":{"OBJECTID":18790,"LANDMARKID":"1001700000340","LANDMARKCO":"406","LANDMARKNA":"中正公園","LANDMARKAD":"1001701","ADDRESS":"基隆市中正區","TEL":" ","COUNTYNAME":"基隆市","TOWNNAME":"中正區","MARKTYPE":"994","Class":"4"},"geometry":{"x":325838.01910000015,"y":2780869.0989999995}},{"attributes":{"OBJECTID":18791,"LANDMARKID":"1001700000333","LANDMARKCO":"405","LANDMARKNA":"台亞加油站-璟昇站（台塑）","LANDMARKAD":"1001701","ADDRESS":"基隆市中正區中正路502號","TEL":"(02)2463-6828","COUNTYNAME":"基隆市","TOWNNAME":"中正區","MARKTYPE":"994","Class":"4"},"geometry":{"x":326962.14329999965,"y":2782476.0329999998}},{"attributes":{"OBJECTID":18792,"LANDMARKID":"1001700000334","LANDMARKCO":"405","LANDMARKNA":"台亞加油站-基隆中正路站（台塑）","LANDMARKAD":"1001701","ADDRESS":"基隆市中正區中正路46號","TEL":"(02)2427-9700","COUNTYNAME":"基隆市","TOWNNAME":"中正區","MARKTYPE":"994","Class":"4"},"geometry":{"x":325149.84069999959,"y":2780814.5599000007}},{"attributes":{"OBJECTID":18793,"LANDMARKID":"1001700000006","LANDMARKCO":"101","LANDMARKNA":"農業委員會水產試驗所","LANDMARKAD":"1001701","ADDRESS":"基隆市中正區和一路199號","TEL":"02-24622101","COUNTYNAME":"基隆市","TOWNNAME":"中正區","MARKTYPE":"991","Class":"1"},"geometry":{"x":326964.31620000023,"y":2783148.6992000006}},{"attributes":{"OBJECTID":18794,"LANDMARKID":"1001700000007","LANDMARKCO":"101","LANDMARKNA":"交通部基隆港務局船舶交通管制","LANDMARKAD":"1001701","ADDRESS":"基隆市中正區平一路480號","TEL":"02-24627031","COUNTYNAME":"基隆市","TOWNNAME":"中正區","MARKTYPE":"991","Class":"1"},"geometry":{"x":326360.67659999989,"y":2783648.9338000007}},{"attributes":{"OBJECTID":18795,"LANDMARKID":"1001700000034","LANDMARKCO":"103","LANDMARKNA":"基隆巿中正區衛生所","LANDMARKAD":"1001701","ADDRESS":"基隆市中正區中正路786-1號","TEL":"02-24621632","COUNTYNAME":"基隆市","TOWNNAME":"中正區","MARKTYPE":"991","Class":"1"},"geometry":{"x":327729.21320000011,"y":2782770.8758000005}},{"attributes":{"OBJECTID":18796,"LANDMARKID":"1001700000099","LANDMARKCO":"108","LANDMARKNA":"基隆市中正區公所","LANDMARKAD":"1001701","ADDRESS":"基隆市中正區中正路674號","TEL":"02-24633341","COUNTYNAME":"基隆市","TOWNNAME":"中正區","MARKTYPE":"991","Class":"1"},"geometry":{"x":327407.18169999961,"y":2782780.8681000005}},{"attributes":{"OBJECTID":18797,"LANDMARKID":"1001700000087","LANDMARKCO":"107","LANDMARKNA":"基隆市消防局救助消防分隊","LANDMARKAD":"1001701","ADDRESS":"基隆市中正區信二路299號","TEL":"02-24222615","COUNTYNAME":"基隆市","TOWNNAME":"中正區","MARKTYPE":"991","Class":"1"},"geometry":{"x":325247.35890000034,"y":2780482.0066999998}},{"attributes":{"OBJECTID":18798,"LANDMARKID":"1001700000088","LANDMARKCO":"107","LANDMARKNA":"基隆市消防局中正消防分隊","LANDMARKAD":"1001701","ADDRESS":"基隆市中正區碧沙里環港街100號","TEL":"02-24696891","COUNTYNAME":"基隆市","TOWNNAME":"中正區","MARKTYPE":"991","Class":"1"},"geometry":{"x":329992.65809999965,"y":2781534.0083000008}},{"attributes":{"OBJECTID":18799,"LANDMARKID":"1001700000089","LANDMARKCO":"107","LANDMARKNA":"基隆市警察局第二分局","LANDMARKAD":"1001701","ADDRESS":"基隆市中正區義二路128號","TEL":"02-24222742","COUNTYNAME":"基隆市","TOWNNAME":"中正區","MARKTYPE":"991","Class":"1"},"geometry":{"x":325325.71449999977,"y":2780698.5730000008}},{"attributes":{"OBJECTID":18800,"LANDMARKID":"1001700000090","LANDMARKCO":"107","LANDMARKNA":"基隆市警察局信六路派出所","LANDMARKAD":"1001701","ADDRESS":"基隆市中正區義一路148號","TEL":"02-24246948","COUNTYNAME":"基隆市","TOWNNAME":"中正區","MARKTYPE":"991","Class":"1"},"geometry":{"x":325358.61799999978,"y":2780967.6799999997}}]}