{"displayFieldName":"COUNTYNAME","fieldAliases":{"OBJECTID":"OBJECTID","LANDMARKID":"LANDMARKID","LANDMARKCO":"LANDMARKCO","LANDMARKNA":"LANDMARKNA","LANDMARKAD":"LANDMARKAD","ADDRESS":"ADDRESS","TEL":"TEL","COUNTYNAME":"COUNTYNAME","TOWNNAME":"TOWNNAME","MARKTYPE":"MARKTYPE","Class":"Class"},"geometryType":"esriGeometryPoint","spatialReference":{"wkid":4326},"fields":[{"name":"OBJECTID","type":"esriFieldTypeOID","alias":"OBJECTID"},{"name":"LANDMARKID","type":"esriFieldTypeString","alias":"LANDMARKID","length":15},{"name":"LANDMARKCO","type":"esriFieldTypeString","alias":"LANDMARKCO","length":15},{"name":"LANDMARKNA","type":"esriFieldTypeString","alias":"LANDMARKNA","length":50},{"name":"LANDMARKAD","type":"esriFieldTypeString","alias":"LANDMARKAD","length":15},{"name":"ADDRESS","type":"esriFieldTypeString","alias":"ADDRESS","length":56},{"name":"TEL","type":"esriFieldTypeString","alias":"TEL","length":36},{"name":"COUNTYNAME","type":"esriFieldTypeString","alias":"COUNTYNAME","length":15},{"name":"TOWNNAME","type":"esriFieldTypeString","alias":"TOWNNAME","length":13},{"name":"MARKTYPE","type":"esriFieldTypeString","alias":"MARKTYPE","length":12},{"name":"Class","type":"esriFieldTypeString","alias":"Class","length":5}],"features":[{"attributes":{"OBJECTID":28001,"LANDMARKID":"1000700000106","LANDMARKCO":"105","LANDMARKNA":"彰化縣田中地政事務所","LANDMARKAD":"1000712","ADDRESS":"彰化縣田中鎮西路里明慶街158號","TEL":"04-8742622","COUNTYNAME":"彰化縣","TOWNNAME":"田中鎮","MARKTYPE":"991","Class":"1"},"geometry":{"x":120.58159265840196,"y":23.864412867140409}},{"attributes":{"OBJECTID":28002,"LANDMARKID":"1000700000023","LANDMARKCO":"101","LANDMARKNA":"台灣彰化少年輔育院","LANDMARKAD":"1000712","ADDRESS":"彰化縣田中鎮平和里山腳路五段360巷170號","TEL":"04-8742111","COUNTYNAME":"彰化縣","TOWNNAME":"田中鎮","MARKTYPE":"991","Class":"1"},"geometry":{"x":120.60789295766355,"y":23.877036369451979}},{"attributes":{"OBJECTID":28003,"LANDMARKID":"1000700000280","LANDMARKCO":"108","LANDMARKNA":"彰化縣田中鎮公所","LANDMARKAD":"1000712","ADDRESS":"彰化縣田中鎮西路里斗中路一段198號","TEL":"04-8761122","COUNTYNAME":"彰化縣","TOWNNAME":"田中鎮","MARKTYPE":"991","Class":"1"},"geometry":{"x":120.58094581585186,"y":23.861515157166306}},{"attributes":{"OBJECTID":28004,"LANDMARKID":"1000700000033","LANDMARKCO":"103","LANDMARKNA":"彰化縣田中鎮衛生所","LANDMARKAD":"1000712","ADDRESS":"彰化縣田中鎮西路里斗中路一段222號","TEL":"04-8748598","COUNTYNAME":"彰化縣","TOWNNAME":"田中鎮","MARKTYPE":"991","Class":"1"},"geometry":{"x":120.58053447639666,"y":23.861525390218869}},{"attributes":{"OBJECTID":28005,"LANDMARKID":"1000700000034","LANDMARKCO":"103","LANDMARKNA":"彰化縣田中鎮民代表會","LANDMARKAD":"1000712","ADDRESS":"彰化縣田中鎮斗中路一段210號","TEL":"04-8742318","COUNTYNAME":"彰化縣","TOWNNAME":"田中鎮","MARKTYPE":"991","Class":"1"},"geometry":{"x":120.58075290207017,"y":23.861529674485375}},{"attributes":{"OBJECTID":28006,"LANDMARKID":"1000700000154","LANDMARKCO":"107","LANDMARKNA":"彰化縣消防局田中消防分隊","LANDMARKAD":"1000712","ADDRESS":"彰化縣田中鎮斗中路一段230號","TEL":"04-8742050","COUNTYNAME":"彰化縣","TOWNNAME":"田中鎮","MARKTYPE":"991","Class":"1"},"geometry":{"x":120.58020141588118,"y":23.861632582972813}},{"attributes":{"OBJECTID":28007,"LANDMARKID":"1000700000155","LANDMARKCO":"107","LANDMARKNA":"彰化縣警察局田中分局","LANDMARKAD":"1000712","ADDRESS":"彰化縣田中鎮沙崙里興酪路一段299號","TEL":"04-8756910","COUNTYNAME":"彰化縣","TOWNNAME":"田中鎮","MARKTYPE":"991","Class":"1"},"geometry":{"x":120.5747167160464,"y":23.847502412841315}},{"attributes":{"OBJECTID":28008,"LANDMARKID":"1000700000156","LANDMARKCO":"107","LANDMARKNA":"彰化縣警察局田中派出所","LANDMARKAD":"1000712","ADDRESS":"彰化縣田中鎮新民里公館路242號","TEL":"04-8742051","COUNTYNAME":"彰化縣","TOWNNAME":"田中鎮","MARKTYPE":"991","Class":"1"},"geometry":{"x":120.58581082707261,"y":23.853022445577061}},{"attributes":{"OBJECTID":28009,"LANDMARKID":"1000700000157","LANDMARKCO":"107","LANDMARKNA":"彰化縣警察局內安派出所","LANDMARKAD":"1000712","ADDRESS":"彰化縣田中鎮碧峰村中南路二段601號","TEL":"04-8742008","COUNTYNAME":"彰化縣","TOWNNAME":"田中鎮","MARKTYPE":"991","Class":"1"},"geometry":{"x":120.60174594297038,"y":23.852908637797686}},{"attributes":{"OBJECTID":28010,"LANDMARKID":"1000700000136","LANDMARKCO":"106","LANDMARKNA":"彰化縣田中鎮戶政事務所","LANDMARKAD":"1000712","ADDRESS":"彰化縣田中鎮西路里2鄰員集路二段463號","TEL":"04-8745657","COUNTYNAME":"彰化縣","TOWNNAME":"田中鎮","MARKTYPE":"991","Class":"1"},"geometry":{"x":120.58468325533971,"y":23.860439493525963}},{"attributes":{"OBJECTID":28011,"LANDMARKID":"1000700000024","LANDMARKCO":"101","LANDMARKNA":"內政部中區老人之家","LANDMARKAD":"1000712","ADDRESS":"彰化縣田中鎮中南路二段210號","TEL":"04-8742811","COUNTYNAME":"彰化縣","TOWNNAME":"田中鎮","MARKTYPE":"991","Class":"1"},"geometry":{"x":120.60935921313384,"y":23.853730657675772}},{"attributes":{"OBJECTID":28012,"LANDMARKID":"1000700000032","LANDMARKCO":"103","LANDMARKNA":"彰化榮譽國民之家","LANDMARKAD":"1000712","ADDRESS":"彰化縣田中鎮中南路二段421號","TEL":"04-8747647","COUNTYNAME":"彰化縣","TOWNNAME":"田中鎮","MARKTYPE":"991","Class":"1"},"geometry":{"x":120.60592932543521,"y":23.852115204172016}},{"attributes":{"OBJECTID":28013,"LANDMARKID":"1000700000554","LANDMARKCO":"204","LANDMARKNA":"彰化縣立圖書館田中分館","LANDMARKAD":"1000712","ADDRESS":"彰化縣田中鎮中新路229號","TEL":" ","COUNTYNAME":"彰化縣","TOWNNAME":"田中鎮","MARKTYPE":"992","Class":"2"},"geometry":{"x":120.588683981125,"y":23.856632735968077}},{"attributes":{"OBJECTID":28014,"LANDMARKID":"1000700000327","LANDMARKCO":"203","LANDMARKNA":"縣立明禮國小","LANDMARKAD":"1000712","ADDRESS":"彰化縣田中鎮三光里民光路一段394號","TEL":"04-8742344","COUNTYNAME":"彰化縣","TOWNNAME":"田中鎮","MARKTYPE":"992","Class":"2"},"geometry":{"x":120.56676165210037,"y":23.876649507281073}},{"attributes":{"OBJECTID":28015,"LANDMARKID":"1000700000309","LANDMARKCO":"202","LANDMARKNA":"私立文興高中","LANDMARKAD":"1000712","ADDRESS":"彰化縣田中鎮員集路三段93號","TEL":"04-8742109","COUNTYNAME":"彰化縣","TOWNNAME":"田中鎮","MARKTYPE":"992","Class":"2"},"geometry":{"x":120.58653043272594,"y":23.867469596196123}},{"attributes":{"OBJECTID":28016,"LANDMARKID":"1000700000310","LANDMARKCO":"202","LANDMARKNA":"私立達德商工","LANDMARKAD":"1000712","ADDRESS":"彰化縣田中鎮中南路二段277號","TEL":"04-8753929","COUNTYNAME":"彰化縣","TOWNNAME":"田中鎮","MARKTYPE":"992","Class":"2"},"geometry":{"x":120.60859550475166,"y":23.852804714772535}},{"attributes":{"OBJECTID":28017,"LANDMARKID":"1000700000328","LANDMARKCO":"203","LANDMARKNA":"縣立田中國中","LANDMARKAD":"1000712","ADDRESS":"彰化縣田中鎮南路里文化街23號","TEL":"04-8745820","COUNTYNAME":"彰化縣","TOWNNAME":"田中鎮","MARKTYPE":"992","Class":"2"},"geometry":{"x":120.58871460664095,"y":23.854974727673653}},{"attributes":{"OBJECTID":28018,"LANDMARKID":"1000700000329","LANDMARKCO":"203","LANDMARKNA":"縣立大安國小","LANDMARKAD":"1000712","ADDRESS":"彰化縣田中鎮三安里大安路一段200號","TEL":"04-8742327","COUNTYNAME":"彰化縣","TOWNNAME":"田中鎮","MARKTYPE":"992","Class":"2"},"geometry":{"x":120.5944154694452,"y":23.840647768603603}},{"attributes":{"OBJECTID":28019,"LANDMARKID":"1000700000330","LANDMARKCO":"203","LANDMARKNA":"縣立田中國小","LANDMARKAD":"1000712","ADDRESS":"彰化縣田中鎮南路里中州路一段177號","TEL":"04-8742013","COUNTYNAME":"彰化縣","TOWNNAME":"田中鎮","MARKTYPE":"992","Class":"2"},"geometry":{"x":120.58749871643155,"y":23.85733123656172}},{"attributes":{"OBJECTID":28020,"LANDMARKID":"1000700000331","LANDMARKCO":"203","LANDMARKNA":"縣立內安國小","LANDMARKAD":"1000712","ADDRESS":"彰化縣田中鎮新庄里中南路三段54號","TEL":"04-8742252","COUNTYNAME":"彰化縣","TOWNNAME":"田中鎮","MARKTYPE":"992","Class":"2"},"geometry":{"x":120.59972986825835,"y":23.853694279100527}},{"attributes":{"OBJECTID":28021,"LANDMARKID":"1000700000332","LANDMARKCO":"203","LANDMARKNA":"縣立三潭國小","LANDMARKAD":"1000712","ADDRESS":"彰化縣田中鎮北路里員集路二段715號","TEL":"04-8742254","COUNTYNAME":"彰化縣","TOWNNAME":"田中鎮","MARKTYPE":"992","Class":"2"},"geometry":{"x":120.58619093159966,"y":23.865542651294849}},{"attributes":{"OBJECTID":28022,"LANDMARKID":"1000700000333","LANDMARKCO":"203","LANDMARKNA":"縣立新民國小","LANDMARKAD":"1000712","ADDRESS":"彰化縣田中鎮公館路320號","TEL":"04-8756166","COUNTYNAME":"彰化縣","TOWNNAME":"田中鎮","MARKTYPE":"992","Class":"2"},"geometry":{"x":120.58573476574715,"y":23.8542891891762}},{"attributes":{"OBJECTID":28023,"LANDMARKID":"1000700000334","LANDMARKCO":"203","LANDMARKNA":"縣立東和國小","LANDMARKAD":"1000712","ADDRESS":"彰化縣田中鎮山腳路四段188巷109號","TEL":"04-8742708","COUNTYNAME":"彰化縣","TOWNNAME":"田中鎮","MARKTYPE":"992","Class":"2"},"geometry":{"x":120.60591218045946,"y":23.867545180693057}},{"attributes":{"OBJECTID":28024,"LANDMARKID":"1000700000311","LANDMARKCO":"202","LANDMARKNA":"私立進德商工","LANDMARKAD":"1000712","ADDRESS":"彰化縣田中鎮","TEL":" ","COUNTYNAME":"彰化縣","TOWNNAME":"田中鎮","MARKTYPE":"992","Class":"2"},"geometry":{"x":120.60907876530588,"y":23.851842735411257}},{"attributes":{"OBJECTID":28025,"LANDMARKID":"1000700000593","LANDMARKCO":"303","LANDMARKNA":"彰化客運停車場","LANDMARKAD":"1000712","ADDRESS":"彰化縣田中鎮復興路","TEL":" ","COUNTYNAME":"彰化縣","TOWNNAME":"田中鎮","MARKTYPE":"993","Class":"303"},"geometry":{"x":120.58408173464923,"y":23.859720200892227}},{"attributes":{"OBJECTID":28026,"LANDMARKID":"1000700000594","LANDMARKCO":"303","LANDMARKNA":"田中槌球場停車場","LANDMARKAD":"1000712","ADDRESS":"彰化縣田中鎮新福路","TEL":" ","COUNTYNAME":"彰化縣","TOWNNAME":"田中鎮","MARKTYPE":"993","Class":"303"},"geometry":{"x":120.5857394770446,"y":23.862847581115005}},{"attributes":{"OBJECTID":28027,"LANDMARKID":"1000700000595","LANDMARKCO":"303","LANDMARKNA":"達德商工停車場","LANDMARKAD":"1000712","ADDRESS":"彰化縣田中鎮內灣段1之10地號","TEL":"04-8741513","COUNTYNAME":"彰化縣","TOWNNAME":"田中鎮","MARKTYPE":"993","Class":"303"},"geometry":{"x":120.60840077805554,"y":23.852758939105684}},{"attributes":{"OBJECTID":28028,"LANDMARKID":"1000700000596","LANDMARKCO":"303","LANDMARKNA":"田中森林公園停車場","LANDMARKAD":"1000712","ADDRESS":"彰化縣田中鎮中商路","TEL":" ","COUNTYNAME":"彰化縣","TOWNNAME":"田中鎮","MARKTYPE":"993","Class":"303"},"geometry":{"x":120.61074269282271,"y":23.85395025107011}},{"attributes":{"OBJECTID":28029,"LANDMARKID":"1000700000572","LANDMARKCO":"301","LANDMARKNA":"田中火車站","LANDMARKAD":"1000712","ADDRESS":"彰化縣田中鎮中州路一段1號","TEL":"04-8742142","COUNTYNAME":"彰化縣","TOWNNAME":"田中鎮","MARKTYPE":"993","Class":"301"},"geometry":{"x":120.59117102609073,"y":23.858753155382725}},{"attributes":{"OBJECTID":28030,"LANDMARKID":"1000700000753","LANDMARKCO":"402","LANDMARKNA":"中華電信-田中服務中心","LANDMARKAD":"1000712","ADDRESS":"彰化縣田中鎮中州路一段77號","TEL":"(04)874-4040","COUNTYNAME":"彰化縣","TOWNNAME":"田中鎮","MARKTYPE":"994","Class":"4"},"geometry":{"x":120.58961753780393,"y":23.858176099274282}},{"attributes":{"OBJECTID":28031,"LANDMARKID":"1000700000754","LANDMARKCO":"402","LANDMARKNA":"遠傳電信-田中中州門市","LANDMARKAD":"1000712","ADDRESS":"彰化縣田中鎮中州路一段200號","TEL":" ","COUNTYNAME":"彰化縣","TOWNNAME":"田中鎮","MARKTYPE":"994","Class":"4"},"geometry":{"x":120.58653567853523,"y":23.858013550291979}},{"attributes":{"OBJECTID":28032,"LANDMARKID":"1000700000755","LANDMARKCO":"402","LANDMARKNA":"威寶電信-田中中州特約服務中心","LANDMARKAD":"1000712","ADDRESS":"彰化縣田中鎮中州路一段224號","TEL":"04-8747775","COUNTYNAME":"彰化縣","TOWNNAME":"田中鎮","MARKTYPE":"994","Class":"4"},"geometry":{"x":120.58594698669529,"y":23.857954668893463}},{"attributes":{"OBJECTID":28033,"LANDMARKID":"1000700000756","LANDMARKCO":"402","LANDMARKNA":"大眾電信(震旦通訊)-田中員集店","LANDMARKAD":"1000712","ADDRESS":"彰化縣田中鎮員集路二段350號","TEL":"04-8758855","COUNTYNAME":"彰化縣","TOWNNAME":"田中鎮","MARKTYPE":"994","Class":"4"},"geometry":{"x":120.5857899581773,"y":23.857944795407388}},{"attributes":{"OBJECTID":28034,"LANDMARKID":"1000700001199","LANDMARKCO":"603","LANDMARKNA":"好彩頭汽車旅館","LANDMARKAD":"1000712","ADDRESS":"彰化縣田中鎮沙崙路536號","TEL":"04-8746166","COUNTYNAME":"彰化縣","TOWNNAME":"田中鎮","MARKTYPE":"996","Class":"6"},"geometry":{"x":120.58098128939062,"y":23.856075240208774}},{"attributes":{"OBJECTID":28035,"LANDMARKID":"1000700001083","LANDMARKCO":"504","LANDMARKNA":"田中森林公園","LANDMARKAD":"1000712","ADDRESS":"彰化縣田中鎮","TEL":" ","COUNTYNAME":"彰化縣","TOWNNAME":"田中鎮","MARKTYPE":"995","Class":"5"},"geometry":{"x":120.61177286083073,"y":23.852380295447755}},{"attributes":{"OBJECTID":28036,"LANDMARKID":"1000700000812","LANDMARKCO":"405","LANDMARKNA":"中油加油站-竹塘站","LANDMARKAD":"1000725","ADDRESS":"彰化縣竹塘鄉竹林路一段165號","TEL":"04-8975525","COUNTYNAME":"彰化縣","TOWNNAME":"竹塘鄉","MARKTYPE":"994","Class":"4"},"geometry":{"x":120.42967887871546,"y":23.858096106659165}},{"attributes":{"OBJECTID":28037,"LANDMARKID":"1000700001095","LANDMARKCO":"506","LANDMARKNA":"醒靈休閒農場","LANDMARKAD":"1000725","ADDRESS":"彰化縣竹塘鄉竹林路一段305號","TEL":"04-8972011","COUNTYNAME":"彰化縣","TOWNNAME":"竹塘鄉","MARKTYPE":"995","Class":"5"},"geometry":{"x":120.42778240909458,"y":23.860701203169494}},{"attributes":{"OBJECTID":28038,"LANDMARKID":"1000700001037","LANDMARKCO":"408","LANDMARKNA":"郵局-竹塘郵局","LANDMARKAD":"1000725","ADDRESS":"彰化縣竹塘鄉竹林路1段366號","TEL":"(04)8972-004","COUNTYNAME":"彰化縣","TOWNNAME":"竹塘鄉","MARKTYPE":"994","Class":"4"},"geometry":{"x":120.42687380443418,"y":23.860878056545598}},{"attributes":{"OBJECTID":28039,"LANDMARKID":"1000700001046","LANDMARKCO":"409","LANDMARKNA":"彰化縣竹塘鄉農會","LANDMARKAD":"1000725","ADDRESS":"彰化縣竹塘鄉竹元村東陽路一段16號","TEL":"04-8972002","COUNTYNAME":"彰化縣","TOWNNAME":"竹塘鄉","MARKTYPE":"994","Class":"4"},"geometry":{"x":120.42019275655507,"y":23.856242505821168}},{"attributes":{"OBJECTID":28040,"LANDMARKID":"1000700000814","LANDMARKCO":"405","LANDMARKNA":"台塑加油站-中央站(台塑)","LANDMARKAD":"1000725","ADDRESS":"彰化縣竹塘鄉中央路二段563號","TEL":"04-8972886","COUNTYNAME":"彰化縣","TOWNNAME":"竹塘鄉","MARKTYPE":"994","Class":"4"},"geometry":{"x":120.43065029633924,"y":23.858686765279622}},{"attributes":{"OBJECTID":28041,"LANDMARKID":"1000700000282","LANDMARKCO":"108","LANDMARKNA":"彰化縣竹塘鄉公所","LANDMARKAD":"1000725","ADDRESS":"彰化縣竹塘鄉竹塘村竹林路一段305號","TEL":"04-8972001","COUNTYNAME":"彰化縣","TOWNNAME":"竹塘鄉","MARKTYPE":"991","Class":"1"},"geometry":{"x":120.42742756671726,"y":23.860220990979368}},{"attributes":{"OBJECTID":28042,"LANDMARKID":"1000700000035","LANDMARKCO":"103","LANDMARKNA":"彰化縣竹塘鄉衛生所","LANDMARKAD":"1000725","ADDRESS":"彰化縣竹塘鄉竹林路一段304號","TEL":"04-8971181","COUNTYNAME":"彰化縣","TOWNNAME":"竹塘鄉","MARKTYPE":"991","Class":"1"},"geometry":{"x":120.42798404147699,"y":23.860575964482926}},{"attributes":{"OBJECTID":28043,"LANDMARKID":"1000700000036","LANDMARKCO":"103","LANDMARKNA":"彰化縣竹塘鄉鄉民代表會","LANDMARKAD":"1000725","ADDRESS":"彰化縣竹塘鄉竹林路一段305號","TEL":"04-8972414","COUNTYNAME":"彰化縣","TOWNNAME":"竹塘鄉","MARKTYPE":"991","Class":"1"},"geometry":{"x":120.42778689579545,"y":23.860664795994673}},{"attributes":{"OBJECTID":28044,"LANDMARKID":"1000700000148","LANDMARKCO":"107","LANDMARKNA":"彰化縣消防局竹塘消防分隊","LANDMARKAD":"1000725","ADDRESS":"彰化縣竹塘鄉竹林路一段285號","TEL":"04-8972424","COUNTYNAME":"彰化縣","TOWNNAME":"竹塘鄉","MARKTYPE":"991","Class":"1"},"geometry":{"x":120.42767697223672,"y":23.85977136624636}},{"attributes":{"OBJECTID":28045,"LANDMARKID":"1000700000149","LANDMARKCO":"107","LANDMARKNA":"彰化縣警察局永安派出所","LANDMARKAD":"1000725","ADDRESS":"彰化縣竹塘鄉永安村東陽路二段221號","TEL":"04-8972684","COUNTYNAME":"彰化縣","TOWNNAME":"竹塘鄉","MARKTYPE":"991","Class":"1"},"geometry":{"x":120.38233697880514,"y":23.846681365503123}},{"attributes":{"OBJECTID":28046,"LANDMARKID":"1000700000137","LANDMARKCO":"106","LANDMARKNA":"彰化縣竹塘鄉戶政事務所","LANDMARKAD":"1000725","ADDRESS":"彰化縣竹塘鄉竹塘村11鄰竹林路一段253號","TEL":"04-8972674","COUNTYNAME":"彰化縣","TOWNNAME":"竹塘鄉","MARKTYPE":"991","Class":"1"},"geometry":{"x":120.42567526138853,"y":23.860749716686303}},{"attributes":{"OBJECTID":28047,"LANDMARKID":"1000700000147","LANDMARKCO":"107","LANDMARKNA":"彰化縣警察局竹塘分駐所","LANDMARKAD":"1000725","ADDRESS":"彰化縣竹塘鄉竹塘村竹塘路一段255號","TEL":"04-8972014","COUNTYNAME":"彰化縣","TOWNNAME":"竹塘鄉","MARKTYPE":"991","Class":"1"},"geometry":{"x":120.42581964470607,"y":23.86246636846754}},{"attributes":{"OBJECTID":28048,"LANDMARKID":"1000700000553","LANDMARKCO":"204","LANDMARKNA":"彰化縣立圖書館竹塘分館","LANDMARKAD":"1000725","ADDRESS":"彰化縣竹塘鄉竹塘村竹林路一段305號","TEL":" ","COUNTYNAME":"彰化縣","TOWNNAME":"竹塘鄉","MARKTYPE":"992","Class":"2"},"geometry":{"x":120.42773013060459,"y":23.860321258785344}},{"attributes":{"OBJECTID":28049,"LANDMARKID":"1000700000335","LANDMARKCO":"203","LANDMARKNA":"縣立竹塘國中","LANDMARKAD":"1000725","ADDRESS":"彰化縣竹塘鄉竹塘村竹林路一段550號","TEL":"04-8972034","COUNTYNAME":"彰化縣","TOWNNAME":"竹塘鄉","MARKTYPE":"992","Class":"2"},"geometry":{"x":120.4261171351602,"y":23.864635640796106}},{"attributes":{"OBJECTID":28050,"LANDMARKID":"1000700000336","LANDMARKCO":"203","LANDMARKNA":"縣立竹塘國小","LANDMARKAD":"1000725","ADDRESS":"彰化縣竹塘鄉竹塘村文化街20號","TEL":"04-8972039","COUNTYNAME":"彰化縣","TOWNNAME":"竹塘鄉","MARKTYPE":"992","Class":"2"},"geometry":{"x":120.42917464984752,"y":23.861668304764684}},{"attributes":{"OBJECTID":28051,"LANDMARKID":"1000700000337","LANDMARKCO":"203","LANDMARKNA":"縣立民靖國小","LANDMARKAD":"1000725","ADDRESS":"彰化縣竹塘鄉民靖村文昌路152號","TEL":"04-8972693","COUNTYNAME":"彰化縣","TOWNNAME":"竹塘鄉","MARKTYPE":"992","Class":"2"},"geometry":{"x":120.41614137583409,"y":23.875708710629514}},{"attributes":{"OBJECTID":28052,"LANDMARKID":"1000700000338","LANDMARKCO":"203","LANDMARKNA":"縣立田頭國小","LANDMARKAD":"1000725","ADDRESS":"彰化縣竹塘鄉田頭村光明路60號","TEL":"04-8972189","COUNTYNAME":"彰化縣","TOWNNAME":"竹塘鄉","MARKTYPE":"992","Class":"2"},"geometry":{"x":120.44917951219439,"y":23.836911933986517}},{"attributes":{"OBJECTID":28053,"LANDMARKID":"1000700000339","LANDMARKCO":"203","LANDMARKNA":"縣立土庫國小","LANDMARKAD":"1000725","ADDRESS":"彰化縣竹塘鄉土庫村東陽路一段362號","TEL":"04-8972140","COUNTYNAME":"彰化縣","TOWNNAME":"竹塘鄉","MARKTYPE":"992","Class":"2"},"geometry":{"x":120.40952376372775,"y":23.84985538252392}},{"attributes":{"OBJECTID":28054,"LANDMARKID":"1000700000340","LANDMARKCO":"203","LANDMARKNA":"縣立長安國小","LANDMARKAD":"1000725","ADDRESS":"彰化縣竹塘鄉長安村東陽路二段123號","TEL":"04-8971087","COUNTYNAME":"彰化縣","TOWNNAME":"竹塘鄉","MARKTYPE":"992","Class":"2"},"geometry":{"x":120.38687685716249,"y":23.847598302076971}},{"attributes":{"OBJECTID":28055,"LANDMARKID":"1000700000815","LANDMARKCO":"405","LANDMARKNA":"中油加油站-成功站","LANDMARKAD":"1000726","ADDRESS":"彰化縣溪州鄉登山路三段130號","TEL":"04-8801461","COUNTYNAME":"彰化縣","TOWNNAME":"溪州鄉","MARKTYPE":"994","Class":"4"},"geometry":{"x":120.54715832026029,"y":23.823516203178862}},{"attributes":{"OBJECTID":28056,"LANDMARKID":"1000700000816","LANDMARKCO":"405","LANDMARKNA":"中油加油站-溪州站(中油直營)","LANDMARKAD":"1000726","ADDRESS":"彰化縣溪州鄉溪州村中山路三段6號","TEL":"04-8892079","COUNTYNAME":"彰化縣","TOWNNAME":"溪州鄉","MARKTYPE":"994","Class":"4"},"geometry":{"x":120.48899425458373,"y":23.852021758604604}},{"attributes":{"OBJECTID":28057,"LANDMARKID":"1000700001036","LANDMARKCO":"408","LANDMARKNA":"郵局-溪州郵局","LANDMARKAD":"1000726","ADDRESS":"彰化縣溪州鄉中央路3段321號","TEL":"(04)8895-039","COUNTYNAME":"彰化縣","TOWNNAME":"溪州鄉","MARKTYPE":"994","Class":"4"},"geometry":{"x":120.4947814168803,"y":23.851440177479649}},{"attributes":{"OBJECTID":28058,"LANDMARKID":"1000700001047","LANDMARKCO":"409","LANDMARKNA":"彰化縣溪州鄉農會","LANDMARKAD":"1000726","ADDRESS":"彰化縣溪州鄉溪州村中央路三段324號","TEL":"04-8895610","COUNTYNAME":"彰化縣","TOWNNAME":"溪州鄉","MARKTYPE":"994","Class":"4"},"geometry":{"x":120.49511438194477,"y":23.851467123307078}},{"attributes":{"OBJECTID":28059,"LANDMARKID":"1000700000813","LANDMARKCO":"405","LANDMARKNA":"台塑加油站-溪東站(台塑)","LANDMARKAD":"1000726","ADDRESS":"彰化縣溪州鄉中山路四段38號","TEL":"04-8894575","COUNTYNAME":"彰化縣","TOWNNAME":"溪州鄉","MARKTYPE":"994","Class":"4"},"geometry":{"x":120.50442261411334,"y":23.858804251870836}},{"attributes":{"OBJECTID":28060,"LANDMARKID":"1000700000281","LANDMARKCO":"108","LANDMARKNA":"彰化縣溪州鄉公所","LANDMARKAD":"1000726","ADDRESS":"彰化縣溪州鄉尾厝村溪下路4段560號","TEL":"04-8896100","COUNTYNAME":"彰化縣","TOWNNAME":"溪州鄉","MARKTYPE":"991","Class":"1"},"geometry":{"x":120.49928100822882,"y":23.851620095969118}},{"attributes":{"OBJECTID":28061,"LANDMARKID":"1000700000037","LANDMARKCO":"103","LANDMARKNA":"彰化縣溪州鄉衛生所","LANDMARKAD":"1000726","ADDRESS":"彰化縣溪州鄉尾厝村溪下路四段570號","TEL":"04-8890330","COUNTYNAME":"彰化縣","TOWNNAME":"溪州鄉","MARKTYPE":"991","Class":"1"},"geometry":{"x":120.49804614096281,"y":23.851341169067773}},{"attributes":{"OBJECTID":28062,"LANDMARKID":"1000700000038","LANDMARKCO":"103","LANDMARKNA":"彰化縣溪州鄉民代表會","LANDMARKAD":"1000726","ADDRESS":"彰化縣溪洲鄉尾厝村溪下路4段560號","TEL":"04-8893341","COUNTYNAME":"彰化縣","TOWNNAME":"溪州鄉","MARKTYPE":"991","Class":"1"},"geometry":{"x":120.49862743117792,"y":23.851074066332632}},{"attributes":{"OBJECTID":28063,"LANDMARKID":"1000700000151","LANDMARKCO":"107","LANDMARKNA":"彰化縣消防局溪州消防分隊","LANDMARKAD":"1000726","ADDRESS":"彰化縣溪州鄉中山路三段278號","TEL":"04-8895439","COUNTYNAME":"彰化縣","TOWNNAME":"溪州鄉","MARKTYPE":"991","Class":"1"},"geometry":{"x":120.49322335956354,"y":23.853043415596336}},{"attributes":{"OBJECTID":28064,"LANDMARKID":"1000700000152","LANDMARKCO":"107","LANDMARKNA":"彰化縣警察局溪州分駐所","LANDMARKAD":"1000726","ADDRESS":"彰化縣溪州鄉溪洲村中山路三段292號","TEL":"04-8895029","COUNTYNAME":"彰化縣","TOWNNAME":"溪州鄉","MARKTYPE":"991","Class":"1"},"geometry":{"x":120.49365601350071,"y":23.852955964473445}},{"attributes":{"OBJECTID":28065,"LANDMARKID":"1000700000153","LANDMARKCO":"107","LANDMARKNA":"彰化縣警察局成功派出所","LANDMARKAD":"1000726","ADDRESS":"彰化縣溪州鄉成功村庄中路20號","TEL":"04-8802163","COUNTYNAME":"彰化縣","TOWNNAME":"溪州鄉","MARKTYPE":"991","Class":"1"},"geometry":{"x":120.54767386319615,"y":23.826030105010123}},{"attributes":{"OBJECTID":28066,"LANDMARKID":"1000700000135","LANDMARKCO":"106","LANDMARKNA":"彰化縣溪州鄉戶政事務所","LANDMARKAD":"1000726","ADDRESS":"彰化縣溪州鄉溪州村11鄰中山路三段284號","TEL":"04-8895441","COUNTYNAME":"彰化縣","TOWNNAME":"溪州鄉","MARKTYPE":"991","Class":"1"},"geometry":{"x":120.49350594994523,"y":23.853316163110989}},{"attributes":{"OBJECTID":28067,"LANDMARKID":"1000700000039","LANDMARKCO":"103","LANDMARKNA":"溪洲鄉公所垃圾處理廠管理所","LANDMARKAD":"1000726","ADDRESS":"彰化縣溪州鄉過溪路164號","TEL":"04-8804709","COUNTYNAME":"彰化縣","TOWNNAME":"溪州鄉","MARKTYPE":"991","Class":"1"},"geometry":{"x":120.52876992145201,"y":23.823176026446941}},{"attributes":{"OBJECTID":28068,"LANDMARKID":"1000700000150","LANDMARKCO":"107","LANDMARKNA":"彰化縣警察局三條派出所","LANDMARKAD":"1000726","ADDRESS":"彰化縣溪州鄉三條村南九甲巷5號","TEL":"04-8895432","COUNTYNAME":"彰化縣","TOWNNAME":"溪州鄉","MARKTYPE":"991","Class":"1"},"geometry":{"x":120.49450171965933,"y":23.827489139782116}},{"attributes":{"OBJECTID":28069,"LANDMARKID":"1000700000552","LANDMARKCO":"204","LANDMARKNA":"彰化縣立圖書館溪州分館","LANDMARKAD":"1000726","ADDRESS":"彰化縣溪州鄉溪下路三段556號","TEL":" ","COUNTYNAME":"彰化縣","TOWNNAME":"溪州鄉","MARKTYPE":"992","Class":"2"},"geometry":{"x":120.50019589291624,"y":23.850887095148305}},{"attributes":{"OBJECTID":28070,"LANDMARKID":"1000700000341","LANDMARKCO":"203","LANDMARKNA":"縣立溪陽國中","LANDMARKAD":"1000726","ADDRESS":"彰化縣溪州鄉成功村下柑路1號","TEL":"04-8802151","COUNTYNAME":"彰化縣","TOWNNAME":"溪州鄉","MARKTYPE":"992","Class":"2"},"geometry":{"x":120.54388740928009,"y":23.824308598276417}},{"attributes":{"OBJECTID":28071,"LANDMARKID":"1000700000342","LANDMARKCO":"203","LANDMARKNA":"縣立溪州國中","LANDMARKAD":"1000726","ADDRESS":"彰化縣溪州鄉溪州村中央路三段300號","TEL":"04-8895054","COUNTYNAME":"彰化縣","TOWNNAME":"溪州鄉","MARKTYPE":"992","Class":"2"},"geometry":{"x":120.49571803315652,"y":23.850251497323313}},{"attributes":{"OBJECTID":28072,"LANDMARKID":"1000700000343","LANDMARKCO":"203","LANDMARKNA":"縣立僑義國小","LANDMARKAD":"1000726","ADDRESS":"彰化縣溪州鄉溪厝村中山路二段326號","TEL":"04-8892244","COUNTYNAME":"彰化縣","TOWNNAME":"溪州鄉","MARKTYPE":"992","Class":"2"},"geometry":{"x":120.47918525063538,"y":23.843695862903687}},{"attributes":{"OBJECTID":28073,"LANDMARKID":"1000700000344","LANDMARKCO":"203","LANDMARKNA":"縣立溪州國小","LANDMARKAD":"1000726","ADDRESS":"彰化縣溪州鄉尾厝村中山路三段451號","TEL":"04-8895013","COUNTYNAME":"彰化縣","TOWNNAME":"溪州鄉","MARKTYPE":"992","Class":"2"},"geometry":{"x":120.49755562280392,"y":23.853956528740078}},{"attributes":{"OBJECTID":28074,"LANDMARKID":"1000700000345","LANDMARKCO":"203","LANDMARKNA":"縣立三條國小","LANDMARKAD":"1000726","ADDRESS":"彰化縣溪州鄉三條村中央路二段31號","TEL":"04-8895080","COUNTYNAME":"彰化縣","TOWNNAME":"溪州鄉","MARKTYPE":"992","Class":"2"},"geometry":{"x":120.49453816181834,"y":23.826586412416805}},{"attributes":{"OBJECTID":28075,"LANDMARKID":"1000700000346","LANDMARKCO":"203","LANDMARKNA":"縣立水尾國小","LANDMARKAD":"1000726","ADDRESS":"彰化縣溪州鄉水尾村太平路137號","TEL":"04-8892442","COUNTYNAME":"彰化縣","TOWNNAME":"溪州鄉","MARKTYPE":"992","Class":"2"},"geometry":{"x":120.47169911476976,"y":23.831573803578969}},{"attributes":{"OBJECTID":28076,"LANDMARKID":"1000700000347","LANDMARKCO":"203","LANDMARKNA":"縣立潮洋國小","LANDMARKAD":"1000726","ADDRESS":"彰化縣溪州鄉潮洋村陸軍路一段146號","TEL":"04-8803059","COUNTYNAME":"彰化縣","TOWNNAME":"溪州鄉","MARKTYPE":"992","Class":"2"},"geometry":{"x":120.51953115378065,"y":23.814024868933608}},{"attributes":{"OBJECTID":28077,"LANDMARKID":"1000700000348","LANDMARKCO":"203","LANDMARKNA":"縣立成功國小","LANDMARKAD":"1000726","ADDRESS":"彰化縣溪州鄉成功村登山路二段362號","TEL":"04-8802225","COUNTYNAME":"彰化縣","TOWNNAME":"溪州鄉","MARKTYPE":"992","Class":"2"},"geometry":{"x":120.54470044768588,"y":23.82593048718461}},{"attributes":{"OBJECTID":28078,"LANDMARKID":"1000700000349","LANDMARKCO":"203","LANDMARKNA":"縣立圳寮國小","LANDMARKAD":"1000726","ADDRESS":"彰化縣溪州鄉圳寮村下樹巷29號","TEL":"04-8802165","COUNTYNAME":"彰化縣","TOWNNAME":"溪州鄉","MARKTYPE":"992","Class":"2"},"geometry":{"x":120.52290574579251,"y":23.83877824106883}},{"attributes":{"OBJECTID":28079,"LANDMARKID":"1000700000350","LANDMARKCO":"203","LANDMARKNA":"縣立大莊國小","LANDMARKAD":"1000726","ADDRESS":"彰化縣溪州鄉大庄村中橫巷1號","TEL":"04-8802438","COUNTYNAME":"彰化縣","TOWNNAME":"溪州鄉","MARKTYPE":"992","Class":"2"},"geometry":{"x":120.56719620805673,"y":23.816153740949972}},{"attributes":{"OBJECTID":28080,"LANDMARKID":"1000700000351","LANDMARKCO":"203","LANDMARKNA":"縣立南州國小","LANDMARKAD":"1000726","ADDRESS":"彰化縣溪州鄉溪州村光復路12號","TEL":"04-8892224","COUNTYNAME":"彰化縣","TOWNNAME":"溪州鄉","MARKTYPE":"992","Class":"2"},"geometry":{"x":120.49079991566957,"y":23.852856030930564}},{"attributes":{"OBJECTID":28081,"LANDMARKID":"1000700000352","LANDMARKCO":"203","LANDMARKNA":"縣立成功國小西畔分校","LANDMARKAD":"1000726","ADDRESS":"彰化縣溪州鄉廣一巷24號","TEL":"04-8802179","COUNTYNAME":"彰化縣","TOWNNAME":"溪州鄉","MARKTYPE":"992","Class":"2"},"geometry":{"x":120.54023662669822,"y":23.847862370802094}},{"attributes":{"OBJECTID":28082,"LANDMARKID":"1000700000597","LANDMARKCO":"303","LANDMARKNA":"彰化溪州花博公園停車場","LANDMARKAD":"1000726","ADDRESS":"彰化縣溪州鄉中央路三段138號","TEL":" ","COUNTYNAME":"彰化縣","TOWNNAME":"溪州鄉","MARKTYPE":"993","Class":"303"},"geometry":{"x":120.49660140503988,"y":23.84226927613123}},{"attributes":{"OBJECTID":28083,"LANDMARKID":"1000700001201","LANDMARKCO":"604","LANDMARKNA":"藝坊民宿","LANDMARKAD":"1000726","ADDRESS":"彰化縣溪州鄉西畔村西斗路468號","TEL":"04-8802975","COUNTYNAME":"彰化縣","TOWNNAME":"溪州鄉","MARKTYPE":"996","Class":"6"},"geometry":{"x":120.53525994568518,"y":23.842242894146569}},{"attributes":{"OBJECTID":28084,"LANDMARKID":"1000700001197","LANDMARKCO":"603","LANDMARKNA":"華僑旅社","LANDMARKAD":"1000726","ADDRESS":"彰化縣溪州鄉溪厝村中山路二段120巷3弄10號","TEL":"04-8887202","COUNTYNAME":"彰化縣","TOWNNAME":"溪州鄉","MARKTYPE":"996","Class":"6"},"geometry":{"x":120.47510596550686,"y":23.840636433425257}},{"attributes":{"OBJECTID":28085,"LANDMARKID":"1000700001082","LANDMARKCO":"503","LANDMARKNA":"溪州花博公園","LANDMARKAD":"1000726","ADDRESS":"彰化縣溪州鄉中央路三段138號","TEL":"04-8899812","COUNTYNAME":"彰化縣","TOWNNAME":"溪州鄉","MARKTYPE":"995","Class":"5"},"geometry":{"x":120.49581724590635,"y":23.841674345693896}},{"attributes":{"OBJECTID":28086,"LANDMARKID":"1000700000792","LANDMARKCO":"405","LANDMARKNA":"中油加油站-二水站(中油直營)","LANDMARKAD":"1000718","ADDRESS":"彰化縣二水鄉裕民村南通路二段680號","TEL":"04-8790305","COUNTYNAME":"彰化縣","TOWNNAME":"二水鄉","MARKTYPE":"994","Class":"4"},"geometry":{"x":120.6202317552666,"y":23.80573515185333}},{"attributes":{"OBJECTID":28087,"LANDMARKID":"1000700001042","LANDMARKCO":"408","LANDMARKNA":"郵局-二水郵局","LANDMARKAD":"1000718","ADDRESS":"彰化縣二水鄉員集路3段741號","TEL":"(04)8792-024","COUNTYNAME":"彰化縣","TOWNNAME":"二水鄉","MARKTYPE":"994","Class":"4"},"geometry":{"x":120.615413464024,"y":23.810891880199854}},{"attributes":{"OBJECTID":28088,"LANDMARKID":"1000700001043","LANDMARKCO":"409","LANDMARKNA":"彰化縣二水鄉農會","LANDMARKAD":"1000718","ADDRESS":"彰化縣二水鄉聖化村員集路三段678號","TEL":"04-8792111-3","COUNTYNAME":"彰化縣","TOWNNAME":"二水鄉","MARKTYPE":"994","Class":"4"},"geometry":{"x":120.61583866101054,"y":23.81023184651275}},{"attributes":{"OBJECTID":28089,"LANDMARKID":"1000700000791","LANDMARKCO":"404","LANDMARKNA":"台灣省自來水二水營運所","LANDMARKAD":"1000718","ADDRESS":"彰化縣二水鄉員集路三段391號","TEL":" ","COUNTYNAME":"彰化縣","TOWNNAME":"二水鄉","MARKTYPE":"994","Class":"4"},"geometry":{"x":120.61913357838029,"y":23.809462718185323}},{"attributes":{"OBJECTID":28090,"LANDMARKID":"1000700000279","LANDMARKCO":"108","LANDMARKNA":"彰化縣二水鄉公所","LANDMARKAD":"1000718","ADDRESS":"彰化縣二水鄉裕民村南通路二段764號","TEL":"04-8790100","COUNTYNAME":"彰化縣","TOWNNAME":"二水鄉","MARKTYPE":"991","Class":"1"},"geometry":{"x":120.61874342918392,"y":23.807083177417223}},{"attributes":{"OBJECTID":28091,"LANDMARKID":"1000700000030","LANDMARKCO":"103","LANDMARKNA":"彰化縣二水鄉鄉民代表會","LANDMARKAD":"1000718","ADDRESS":"彰化縣二水鄉南通路二段764號2樓","TEL":"04-8790030","COUNTYNAME":"彰化縣","TOWNNAME":"二水鄉","MARKTYPE":"991","Class":"1"},"geometry":{"x":120.6189924671952,"y":23.806452326215979}},{"attributes":{"OBJECTID":28092,"LANDMARKID":"1000700000158","LANDMARKCO":"107","LANDMARKNA":"彰化縣警察局二水分駐所","LANDMARKAD":"1000718","ADDRESS":"彰化縣二水鄉二水村員集路三段711號","TEL":"04-8790015","COUNTYNAME":"彰化縣","TOWNNAME":"二水鄉","MARKTYPE":"991","Class":"1"},"geometry":{"x":120.61587997260298,"y":23.811139237265387}},{"attributes":{"OBJECTID":28093,"LANDMARKID":"1000700000031","LANDMARKCO":"103","LANDMARKNA":"彰化縣二水鄉衛生所","LANDMARKAD":"1000718","ADDRESS":"彰化縣二水鄉二水村過圳路19號","TEL":"04-8791077","COUNTYNAME":"彰化縣","TOWNNAME":"二水鄉","MARKTYPE":"991","Class":"1"},"geometry":{"x":120.61553057018881,"y":23.811816804978253}},{"attributes":{"OBJECTID":28094,"LANDMARKID":"1000700000159","LANDMARKCO":"107","LANDMARKNA":"彰化縣消防局二水消防分隊","LANDMARKAD":"1000718","ADDRESS":"彰化縣二水鄉員集路三段739號","TEL":"04-8793004","COUNTYNAME":"彰化縣","TOWNNAME":"二水鄉","MARKTYPE":"991","Class":"1"},"geometry":{"x":120.61545446178091,"y":23.811195082884133}},{"attributes":{"OBJECTID":28095,"LANDMARKID":"1000700000160","LANDMARKCO":"107","LANDMARKNA":"彰化縣警察局源泉派出所","LANDMARKAD":"1000718","ADDRESS":"彰化縣二水鄉源泉村月眉巷1之1號","TEL":"04-8792374","COUNTYNAME":"彰化縣","TOWNNAME":"二水鄉","MARKTYPE":"991","Class":"1"},"geometry":{"x":120.64490843540425,"y":23.799870208182369}},{"attributes":{"OBJECTID":28096,"LANDMARKID":"1000700000134","LANDMARKCO":"106","LANDMARKNA":"彰化縣二水鄉戶政事務所","LANDMARKAD":"1000718","ADDRESS":"彰化縣二水鄉文化村11鄰員集路三段472號","TEL":"04-8792373","COUNTYNAME":"彰化縣","TOWNNAME":"二水鄉","MARKTYPE":"991","Class":"1"},"geometry":{"x":120.61964820528637,"y":23.809618885564607}},{"attributes":{"OBJECTID":28097,"LANDMARKID":"1000700000029","LANDMARKCO":"103","LANDMARKNA":"二水台灣獼猴生態教育館","LANDMARKAD":"1000718","ADDRESS":"彰化縣二水鄉員集路一段20號","TEL":"04-8797640","COUNTYNAME":"彰化縣","TOWNNAME":"二水鄉","MARKTYPE":"991","Class":"1"},"geometry":{"x":120.6704876671843,"y":23.81260321262787}},{"attributes":{"OBJECTID":28098,"LANDMARKID":"1000700000555","LANDMARKCO":"204","LANDMARKNA":"彰化縣立圖書館二水分館","LANDMARKAD":"1000718","ADDRESS":"彰化縣二水鄉聖化村溪邊巷72號","TEL":" ","COUNTYNAME":"彰化縣","TOWNNAME":"二水鄉","MARKTYPE":"992","Class":"2"},"geometry":{"x":120.62706214381151,"y":23.814320837148269}},{"attributes":{"OBJECTID":28099,"LANDMARKID":"1000700000323","LANDMARKCO":"203","LANDMARKNA":"縣立源泉國小","LANDMARKAD":"1000718","ADDRESS":"彰化縣二水鄉大園村員集路二段316號","TEL":"04-8792304","COUNTYNAME":"彰化縣","TOWNNAME":"二水鄉","MARKTYPE":"992","Class":"2"},"geometry":{"x":120.64258361199481,"y":23.800455255363783}},{"attributes":{"OBJECTID":28100,"LANDMARKID":"1000700000324","LANDMARKCO":"203","LANDMARKNA":"縣立二水國中","LANDMARKAD":"1000718","ADDRESS":"彰化縣二水鄉源泉村月眉巷13號","TEL":"04-8791557","COUNTYNAME":"彰化縣","TOWNNAME":"二水鄉","MARKTYPE":"992","Class":"2"},"geometry":{"x":120.64578223621719,"y":23.803851561887512}},{"attributes":{"OBJECTID":28101,"LANDMARKID":"1000700000325","LANDMARKCO":"203","LANDMARKNA":"縣立二水國小","LANDMARKAD":"1000718","ADDRESS":"彰化縣二水鄉文化村光文路119號","TEL":"04-8792040","COUNTYNAME":"彰化縣","TOWNNAME":"二水鄉","MARKTYPE":"992","Class":"2"},"geometry":{"x":120.61784246093282,"y":23.810774934053281}},{"attributes":{"OBJECTID":28102,"LANDMARKID":"1000700000326","LANDMARKCO":"203","LANDMARKNA":"縣立復興國小","LANDMARKAD":"1000718","ADDRESS":"彰化縣二水鄉復興村員集路五段472號","TEL":"04-8745935","COUNTYNAME":"彰化縣","TOWNNAME":"二水鄉","MARKTYPE":"992","Class":"2"},"geometry":{"x":120.6047584945515,"y":23.829561291464501}},{"attributes":{"OBJECTID":28103,"LANDMARKID":"1000700000598","LANDMARKCO":"303","LANDMARKNA":"豐柏廣場停車場","LANDMARKAD":"1000718","ADDRESS":"彰化縣二水鄉","TEL":" ","COUNTYNAME":"彰化縣","TOWNNAME":"二水鄉","MARKTYPE":"993","Class":"303"},"geometry":{"x":120.61912691673062,"y":23.822936185921289}},{"attributes":{"OBJECTID":28104,"LANDMARKID":"1000700000570","LANDMARKCO":"301","LANDMARKNA":"二水火車站","LANDMARKAD":"1000718","ADDRESS":"彰化縣二水鄉光文路1號","TEL":"(04)2879-0753","COUNTYNAME":"彰化縣","TOWNNAME":"二水鄉","MARKTYPE":"993","Class":"301"},"geometry":{"x":120.61807919584054,"y":23.813321044617517}},{"attributes":{"OBJECTID":28105,"LANDMARKID":"1000700000571","LANDMARKCO":"301","LANDMARKNA":"源泉火車站","LANDMARKAD":"1000718","ADDRESS":"彰化縣二水鄉","TEL":" ","COUNTYNAME":"彰化縣","TOWNNAME":"二水鄉","MARKTYPE":"993","Class":"301"},"geometry":{"x":120.64243693356946,"y":23.79860266882115}},{"attributes":{"OBJECTID":28106,"LANDMARKID":"1000700000746","LANDMARKCO":"402","LANDMARKNA":"中華電信-二水服務中心","LANDMARKAD":"1000718","ADDRESS":"彰化縣二水鄉員集路三段743號","TEL":"(04)879-0004","COUNTYNAME":"彰化縣","TOWNNAME":"二水鄉","MARKTYPE":"994","Class":"4"},"geometry":{"x":120.61557456277291,"y":23.811336369584907}},{"attributes":{"OBJECTID":28107,"LANDMARKID":"1000700001198","LANDMARKCO":"603","LANDMARKNA":"二水亞洲旅社","LANDMARKAD":"1000718","ADDRESS":"彰化縣二水鄉光化村光文路5號","TEL":"04-8793925","COUNTYNAME":"彰化縣","TOWNNAME":"二水鄉","MARKTYPE":"996","Class":"6"},"geometry":{"x":120.61802918206072,"y":23.812840572572295}},{"attributes":{"OBJECTID":28108,"LANDMARKID":"1000700001202","LANDMARKCO":"604","LANDMARKNA":"二水渡假民宿","LANDMARKAD":"1000718","ADDRESS":"彰化縣二水鄉大園村員集路二段408號","TEL":"0928-962938","COUNTYNAME":"彰化縣","TOWNNAME":"二水鄉","MARKTYPE":"996","Class":"6"},"geometry":{"x":120.64049327674248,"y":23.800461048002703}},{"attributes":{"OBJECTID":28109,"LANDMARKID":"1000700000795","LANDMARKCO":"405","LANDMARKNA":"中油加油站-彰工站","LANDMARKAD":"1000702","ADDRESS":"彰化縣鹿港鎮海埔里彰濱五路2段332號","TEL":"04-7780988","COUNTYNAME":"彰化縣","TOWNNAME":"鹿港鎮","MARKTYPE":"994","Class":"4"},"geometry":{"x":120.43100795173082,"y":24.078921738639583}},{"attributes":{"OBJECTID":28110,"LANDMARKID":"1000700000796","LANDMARKCO":"405","LANDMARKNA":"中油加油站-柯厝站","LANDMARKAD":"1000702","ADDRESS":"彰化縣鹿港鎮鹿草路2段311-1號","TEL":"04-7774213","COUNTYNAME":"彰化縣","TOWNNAME":"鹿港鎮","MARKTYPE":"994","Class":"4"},"geometry":{"x":120.44781841377021,"y":24.090486533742563}},{"attributes":{"OBJECTID":28111,"LANDMARKID":"1000700000797","LANDMARKCO":"405","LANDMARKNA":"中油加油站-草港站","LANDMARKAD":"1000702","ADDRESS":"彰化縣鹿港鎮鹿草路4段227號","TEL":"04-7718342","COUNTYNAME":"彰化縣","TOWNNAME":"鹿港鎮","MARKTYPE":"994","Class":"4"},"geometry":{"x":120.45665598323707,"y":24.108096637202568}},{"attributes":{"OBJECTID":28112,"LANDMARKID":"1000700000798","LANDMARKCO":"405","LANDMARKNA":"中油加油站-頂番婆站","LANDMARKAD":"1000702","ADDRESS":"彰化縣鹿港鎮彰頂路186號","TEL":"04-7715347","COUNTYNAME":"彰化縣","TOWNNAME":"鹿港鎮","MARKTYPE":"994","Class":"4"},"geometry":{"x":120.48516469823564,"y":24.084410232093813}},{"attributes":{"OBJECTID":28113,"LANDMARKID":"1000700000799","LANDMARKCO":"405","LANDMARKNA":"中油加油站-仁好站","LANDMARKAD":"1000702","ADDRESS":"彰化縣鹿港鎮草中里鹿草路四段66號","TEL":"04-7713793","COUNTYNAME":"彰化縣","TOWNNAME":"鹿港鎮","MARKTYPE":"994","Class":"4"},"geometry":{"x":120.45460087180872,"y":24.102986026832031}},{"attributes":{"OBJECTID":28114,"LANDMARKID":"1000700000747","LANDMARKCO":"402","LANDMARKNA":"亞太行動寬頻電信-鹿港中正加盟服務中心","LANDMARKAD":"1000702","ADDRESS":"彰化縣鹿港鎮中正路259-1號","TEL":"04-7776006","COUNTYNAME":"彰化縣","TOWNNAME":"鹿港鎮","MARKTYPE":"994","Class":"4"},"geometry":{"x":120.44018741510706,"y":24.055965394722936}},{"attributes":{"OBJECTID":28115,"LANDMARKID":"1000700000748","LANDMARKCO":"402","LANDMARKNA":"亞太行動寬頻電信-鹿港民權加盟服務中心","LANDMARKAD":"1000702","ADDRESS":"彰化縣鹿港鎮民權路38號","TEL":"04-7841111","COUNTYNAME":"彰化縣","TOWNNAME":"鹿港鎮","MARKTYPE":"994","Class":"4"},"geometry":{"x":120.43815254326496,"y":24.058425664120552}},{"attributes":{"OBJECTID":28116,"LANDMARKID":"1000700000688","LANDMARKCO":"401","LANDMARKNA":"財團法人彰化基督教醫院鹿東分院","LANDMARKAD":"1000702","ADDRESS":"彰化縣鹿港鎮鹿東路二段888號","TEL":"04-7789595","COUNTYNAME":"彰化縣","TOWNNAME":"鹿港鎮","MARKTYPE":"994","Class":"4"},"geometry":{"x":120.46850848852482,"y":24.055652626165237}},{"attributes":{"OBJECTID":28117,"LANDMARKID":"1000700000689","LANDMARKCO":"401","LANDMARKNA":"財團法人彰濱秀傳紀念醫院","LANDMARKAD":"1000702","ADDRESS":"彰化縣鹿港鎮鹿工路6號","TEL":"04-7813888","COUNTYNAME":"彰化縣","TOWNNAME":"鹿港鎮","MARKTYPE":"994","Class":"4"},"geometry":{"x":120.41143450757259,"y":24.077681450525478}},{"attributes":{"OBJECTID":28118,"LANDMARKID":"1000700000690","LANDMARKCO":"401","LANDMARKNA":"溫建益醫院","LANDMARKAD":"1000702","ADDRESS":"彰化縣鹿港鎮民權路126號","TEL":"04-7777077","COUNTYNAME":"彰化縣","TOWNNAME":"鹿港鎮","MARKTYPE":"994","Class":"4"},"geometry":{"x":120.43609565230697,"y":24.057313694524375}},{"attributes":{"OBJECTID":28119,"LANDMARKID":"1000700000691","LANDMARKCO":"401","LANDMARKNA":"財團法人彰化基督教醫院鹿基分院","LANDMARKAD":"1000702","ADDRESS":"彰化縣鹿港鎮埔崙里中正路480號","TEL":"04-7779595","COUNTYNAME":"彰化縣","TOWNNAME":"鹿港鎮","MARKTYPE":"994","Class":"4"},"geometry":{"x":120.43820431226814,"y":24.06038541625033}},{"attributes":{"OBJECTID":28120,"LANDMARKID":"1000700001096","LANDMARKCO":"507","LANDMARKNA":"鹿港三山國王廟","LANDMARKAD":"1000702","ADDRESS":"彰化縣鹿港鎮順興里中山路276號","TEL":" ","COUNTYNAME":"彰化縣","TOWNNAME":"鹿港鎮","MARKTYPE":"995","Class":"5"},"geometry":{"x":120.43395789022236,"y":24.056292938594474}},{"attributes":{"OBJECTID":28121,"LANDMARKID":"1000700001097","LANDMARKCO":"507","LANDMARKNA":"鹿港文武廟","LANDMARKAD":"1000702","ADDRESS":"彰化縣鹿港鎮街尾里青雲路2號","TEL":" ","COUNTYNAME":"彰化縣","TOWNNAME":"鹿港鎮","MARKTYPE":"995","Class":"5"},"geometry":{"x":120.43812779946515,"y":24.048820876202491}},{"attributes":{"OBJECTID":28122,"LANDMARKID":"1000700001098","LANDMARKCO":"507","LANDMARKNA":"鹿港地藏王廟","LANDMARKAD":"1000702","ADDRESS":"彰化縣鹿港鎮街尾里力行街2號","TEL":" ","COUNTYNAME":"彰化縣","TOWNNAME":"鹿港鎮","MARKTYPE":"995","Class":"5"},"geometry":{"x":120.43691845680726,"y":24.048305005878994}},{"attributes":{"OBJECTID":28123,"LANDMARKID":"1000700001099","LANDMARKCO":"507","LANDMARKNA":"鹿港龍山寺","LANDMARKAD":"1000702","ADDRESS":"彰化縣鹿港鎮龍山里金門巷81號","TEL":" ","COUNTYNAME":"彰化縣","TOWNNAME":"鹿港鎮","MARKTYPE":"995","Class":"5"},"geometry":{"x":120.43578226018772,"y":24.050523457039539}},{"attributes":{"OBJECTID":28124,"LANDMARKID":"1000700001100","LANDMARKCO":"507","LANDMARKNA":"鹿港興安宮","LANDMARKAD":"1000702","ADDRESS":"彰化縣鹿港鎮長興里中山路89號後段","TEL":" ","COUNTYNAME":"彰化縣","TOWNNAME":"鹿港鎮","MARKTYPE":"995","Class":"5"},"geometry":{"x":120.4357679357333,"y":24.052414661727902}},{"attributes":{"OBJECTID":28125,"LANDMARKID":"1000700001101","LANDMARKCO":"507","LANDMARKNA":"鹿港天后宮","LANDMARKAD":"1000702","ADDRESS":"彰化縣鹿港鎮玉順里中山路430號","TEL":" ","COUNTYNAME":"彰化縣","TOWNNAME":"鹿港鎮","MARKTYPE":"995","Class":"5"},"geometry":{"x":120.43112013107698,"y":24.059195184421345}},{"attributes":{"OBJECTID":28126,"LANDMARKID":"1000700001102","LANDMARKCO":"507","LANDMARKNA":"鹿港城隍廟","LANDMARKAD":"1000702","ADDRESS":"彰化縣鹿港鎮順興里中山路366號","TEL":" ","COUNTYNAME":"彰化縣","TOWNNAME":"鹿港鎮","MARKTYPE":"995","Class":"5"},"geometry":{"x":120.43202507388834,"y":24.058384827553908}},{"attributes":{"OBJECTID":28127,"LANDMARKID":"1000700001103","LANDMARKCO":"507","LANDMARKNA":"鹿港日茂行","LANDMARKAD":"1000702","ADDRESS":"彰化縣鹿港鎮新宮里泉州街66號","TEL":" ","COUNTYNAME":"彰化縣","TOWNNAME":"鹿港鎮","MARKTYPE":"995","Class":"5"},"geometry":{"x":120.4295246054152,"y":24.059131759234528}},{"attributes":{"OBJECTID":28128,"LANDMARKID":"1000700001104","LANDMARKCO":"507","LANDMARKNA":"鹿港南靖宮","LANDMARKAD":"1000702","ADDRESS":"彰化縣鹿港鎮洛津里埔頭街74號","TEL":" ","COUNTYNAME":"彰化縣","TOWNNAME":"鹿港鎮","MARKTYPE":"995","Class":"5"},"geometry":{"x":120.43175518972856,"y":24.057613825458223}},{"attributes":{"OBJECTID":28129,"LANDMARKID":"1000700001105","LANDMARKCO":"507","LANDMARKNA":"鹿港公會堂","LANDMARKAD":"1000702","ADDRESS":"彰化縣鹿港鎮洛津里埔頭街72號","TEL":" ","COUNTYNAME":"彰化縣","TOWNNAME":"鹿港鎮","MARKTYPE":"995","Class":"5"},"geometry":{"x":120.43183431242005,"y":24.057531079339565}},{"attributes":{"OBJECTID":28130,"LANDMARKID":"1000700001106","LANDMARKCO":"507","LANDMARKNA":"鹿港隘門","LANDMARKAD":"1000702","ADDRESS":"彰化縣鹿港鎮洛津里後車巷內","TEL":" ","COUNTYNAME":"彰化縣","TOWNNAME":"鹿港鎮","MARKTYPE":"995","Class":"5"},"geometry":{"x":120.43267419625521,"y":24.056978992116296}},{"attributes":{"OBJECTID":28131,"LANDMARKID":"1000700001107","LANDMARKCO":"507","LANDMARKNA":"鹿港三山國王廟","LANDMARKAD":"1000702","ADDRESS":"505彰化縣鹿港鎮順興里中山路276號","TEL":" ","COUNTYNAME":"彰化縣","TOWNNAME":"鹿港鎮","MARKTYPE":"995","Class":"5"},"geometry":{"x":120.43390231729427,"y":24.056386425625718}},{"attributes":{"OBJECTID":28132,"LANDMARKID":"1000700001038","LANDMARKCO":"408","LANDMARKNA":"郵局-鹿港郵局","LANDMARKAD":"1000702","ADDRESS":"彰化縣鹿港鎮成功路1號","TEL":"(04)7767-365","COUNTYNAME":"彰化縣","TOWNNAME":"鹿港鎮","MARKTYPE":"994","Class":"4"},"geometry":{"x":120.43232458395106,"y":24.055373644212924}},{"attributes":{"OBJECTID":28133,"LANDMARKID":"1000700001039","LANDMARKCO":"408","LANDMARKNA":"郵局-鹿港頂番郵局","LANDMARKAD":"1000702","ADDRESS":"彰化縣鹿港鎮彰頂路349號","TEL":"(04)7711-673","COUNTYNAME":"彰化縣","TOWNNAME":"鹿港鎮","MARKTYPE":"994","Class":"4"},"geometry":{"x":120.48177231092647,"y":24.085743201854587}},{"attributes":{"OBJECTID":28134,"LANDMARKID":"1000700001040","LANDMARKCO":"408","LANDMARKNA":"郵局-鹿港龍山郵局","LANDMARKAD":"1000702","ADDRESS":"彰化縣鹿港鎮三民路113號","TEL":"(04)7770-958","COUNTYNAME":"彰化縣","TOWNNAME":"鹿港鎮","MARKTYPE":"994","Class":"4"},"geometry":{"x":120.43563764033037,"y":24.050768585675346}},{"attributes":{"OBJECTID":28135,"LANDMARKID":"1000700001041","LANDMARKCO":"408","LANDMARKNA":"郵局-鹿港草港郵局","LANDMARKAD":"1000702","ADDRESS":"彰化縣鹿港鎮頂草路4段406號","TEL":"(04)7712-983","COUNTYNAME":"彰化縣","TOWNNAME":"鹿港鎮","MARKTYPE":"994","Class":"4"},"geometry":{"x":120.45965143607937,"y":24.108072739860177}},{"attributes":{"OBJECTID":28136,"LANDMARKID":"1000700001044","LANDMARKCO":"409","LANDMARKNA":"彰化縣鹿港鎮農會","LANDMARKAD":"1000702","ADDRESS":"彰化縣鹿港鎮中山路252號","TEL":"04-7772026","COUNTYNAME":"彰化縣","TOWNNAME":"鹿港鎮","MARKTYPE":"994","Class":"4"},"geometry":{"x":120.43405693836309,"y":24.055977298550708}},{"attributes":{"OBJECTID":28137,"LANDMARKID":"1000700001045","LANDMARKCO":"409","LANDMARKNA":"彰化區漁會","LANDMARKAD":"1000702","ADDRESS":"彰化縣鹿港鎮復興路485號","TEL":"04-7774298","COUNTYNAME":"彰化縣","TOWNNAME":"鹿港鎮","MARKTYPE":"994","Class":"4"},"geometry":{"x":120.43450118937857,"y":24.058770238352889}},{"attributes":{"OBJECTID":28138,"LANDMARKID":"1000700000790","LANDMARKCO":"404","LANDMARKNA":"台灣省自來水鹿港營運所","LANDMARKAD":"1000702","ADDRESS":"彰化縣鹿港鎮鹿和路一段184號","TEL":" ","COUNTYNAME":"彰化縣","TOWNNAME":"鹿港鎮","MARKTYPE":"994","Class":"4"},"geometry":{"x":120.44206158539492,"y":24.060523709667049}},{"attributes":{"OBJECTID":28139,"LANDMARKID":"1000700000793","LANDMARKCO":"405","LANDMARKNA":"台亞加油站-鹿港站（台塑）","LANDMARKAD":"1000702","ADDRESS":"彰化縣鹿港鎮鹿和路1段200號","TEL":"(04)777-7322","COUNTYNAME":"彰化縣","TOWNNAME":"鹿港鎮","MARKTYPE":"994","Class":"4"},"geometry":{"x":120.44304877775031,"y":24.061310158688517}},{"attributes":{"OBJECTID":28140,"LANDMARKID":"1000700000794","LANDMARKCO":"405","LANDMARKNA":"台亞加油站-彰鹿站（台塑）","LANDMARKAD":"1000702","ADDRESS":"彰化縣鹿港鎮彰鹿路5段242號","TEL":"(04)776-6333","COUNTYNAME":"彰化縣","TOWNNAME":"鹿港鎮","MARKTYPE":"994","Class":"4"},"geometry":{"x":120.47226374575087,"y":24.048868246159081}},{"attributes":{"OBJECTID":28141,"LANDMARKID":"1000700000025","LANDMARKCO":"101","LANDMARKNA":"工業局彰濱工業區服務中心","LANDMARKAD":"1000702","ADDRESS":"彰化縣鹿港鎮鹿工路2號","TEL":"04-7810211","COUNTYNAME":"彰化縣","TOWNNAME":"鹿港鎮","MARKTYPE":"991","Class":"1"},"geometry":{"x":120.41414321211255,"y":24.078671903308241}},{"attributes":{"OBJECTID":28142,"LANDMARKID":"1000700000168","LANDMARKCO":"107","LANDMARKNA":"彰化縣警察局和興派出所","LANDMARKAD":"1000702","ADDRESS":"彰化縣鹿港鎮泰興里中山路108號","TEL":"04-7772119","COUNTYNAME":"彰化縣","TOWNNAME":"鹿港鎮","MARKTYPE":"991","Class":"1"},"geometry":{"x":120.43637019805827,"y":24.052299847233808}},{"attributes":{"OBJECTID":28143,"LANDMARKID":"1000700000278","LANDMARKCO":"108","LANDMARKNA":"彰化縣鹿港鎮公所","LANDMARKAD":"1000702","ADDRESS":"彰化縣鹿港鎮民權路168號","TEL":"04-7772006","COUNTYNAME":"彰化縣","TOWNNAME":"鹿港鎮","MARKTYPE":"991","Class":"1"},"geometry":{"x":120.43504412230048,"y":24.057275057891978}},{"attributes":{"OBJECTID":28144,"LANDMARKID":"1000700000027","LANDMARKCO":"103","LANDMARKNA":"彰化縣鹿港鎮鎮民代表會","LANDMARKAD":"1000702","ADDRESS":"彰化縣鹿港鎮民權路168號3樓","TEL":"04-7761581","COUNTYNAME":"彰化縣","TOWNNAME":"鹿港鎮","MARKTYPE":"991","Class":"1"},"geometry":{"x":120.43504412230048,"y":24.057275057891978}},{"attributes":{"OBJECTID":28145,"LANDMARKID":"1000700000028","LANDMARKCO":"103","LANDMARKNA":"彰化縣鹿港鎮衛生所","LANDMARKAD":"1000702","ADDRESS":"彰化縣鹿港鎮順興里復興路423號","TEL":"04-7765415","COUNTYNAME":"彰化縣","TOWNNAME":"鹿港鎮","MARKTYPE":"991","Class":"1"},"geometry":{"x":120.43576006523983,"y":24.058496550904586}},{"attributes":{"OBJECTID":28146,"LANDMARKID":"1000700000161","LANDMARKCO":"107","LANDMARKNA":"彰化縣消防局第三消防大隊部","LANDMARKAD":"1000702","ADDRESS":"彰化縣鹿港鎮埔崙里建國路489號4樓","TEL":"04-7740119","COUNTYNAME":"彰化縣","TOWNNAME":"鹿港鎮","MARKTYPE":"991","Class":"1"},"geometry":{"x":120.43695054636112,"y":24.065766129844661}},{"attributes":{"OBJECTID":28147,"LANDMARKID":"1000700000162","LANDMARKCO":"107","LANDMARKNA":"彰化縣消防局鹿港消防分隊","LANDMARKAD":"1000702","ADDRESS":"彰化縣鹿港鎮中山路296號","TEL":"04-7773484","COUNTYNAME":"彰化縣","TOWNNAME":"鹿港鎮","MARKTYPE":"991","Class":"1"},"geometry":{"x":120.43343341127033,"y":24.056989197473058}},{"attributes":{"OBJECTID":28148,"LANDMARKID":"1000700000163","LANDMARKCO":"107","LANDMARKNA":"彰化縣警察局鹿港分局","LANDMARKAD":"1000702","ADDRESS":"彰化縣鹿港鎮順興里中山路300號","TEL":"04-7772120","COUNTYNAME":"彰化縣","TOWNNAME":"鹿港鎮","MARKTYPE":"991","Class":"1"},"geometry":{"x":120.43332526823436,"y":24.057125930121913}},{"attributes":{"OBJECTID":28149,"LANDMARKID":"1000700000164","LANDMARKCO":"107","LANDMARKNA":"彰化縣警察局鹿港派出所","LANDMARKAD":"1000702","ADDRESS":"彰化縣鹿港鎮順興里中山路300號","TEL":"04-7772118","COUNTYNAME":"彰化縣","TOWNNAME":"鹿港鎮","MARKTYPE":"991","Class":"1"},"geometry":{"x":120.43332526823436,"y":24.057125930121913}},{"attributes":{"OBJECTID":28150,"LANDMARKID":"1000700000165","LANDMARKCO":"107","LANDMARKNA":"彰化縣警察局海埔派出所","LANDMARKAD":"1000702","ADDRESS":"彰化縣鹿港鎮海埔里鹿草路二段909號","TEL":"04-7775565","COUNTYNAME":"彰化縣","TOWNNAME":"鹿港鎮","MARKTYPE":"991","Class":"1"},"geometry":{"x":120.44424173348104,"y":24.084512632003705}},{"attributes":{"OBJECTID":28151,"LANDMARKID":"1000700000166","LANDMARKCO":"107","LANDMARKNA":"彰化縣警察局草港派出所","LANDMARKAD":"1000702","ADDRESS":"彰化縣鹿港鎮草中里頂草路四段460號","TEL":"04-7713404","COUNTYNAME":"彰化縣","TOWNNAME":"鹿港鎮","MARKTYPE":"991","Class":"1"},"geometry":{"x":120.45836114636805,"y":24.10865426867986}},{"attributes":{"OBJECTID":28152,"LANDMARKID":"1000700000167","LANDMARKCO":"107","LANDMARKNA":"彰化縣警察局頂番派出所","LANDMARKAD":"1000702","ADDRESS":"彰化縣鹿港鎮頂番里鹿和路四段25號","TEL":"04-7711934","COUNTYNAME":"彰化縣","TOWNNAME":"鹿港鎮","MARKTYPE":"991","Class":"1"},"geometry":{"x":120.4813303729053,"y":24.08622069418983}},{"attributes":{"OBJECTID":28153,"LANDMARKID":"1000700000133","LANDMARKCO":"106","LANDMARKNA":"彰化縣鹿港鎮戶政事務所","LANDMARKAD":"1000702","ADDRESS":"彰化縣鹿港鎮順興里2鄰中山路292號","TEL":"04-7773744","COUNTYNAME":"彰化縣","TOWNNAME":"鹿港鎮","MARKTYPE":"991","Class":"1"},"geometry":{"x":120.43350746537129,"y":24.056796970530407}},{"attributes":{"OBJECTID":28154,"LANDMARKID":"1000700000107","LANDMARKCO":"105","LANDMARKNA":"彰化縣鹿港地政事務所","LANDMARKAD":"1000702","ADDRESS":"彰化縣鹿港鎮景福里民權路152號","TEL":"04-7771375","COUNTYNAME":"彰化縣","TOWNNAME":"鹿港鎮","MARKTYPE":"991","Class":"1"},"geometry":{"x":120.43552287008637,"y":24.05713258345391}},{"attributes":{"OBJECTID":28155,"LANDMARKID":"1000700000026","LANDMARKCO":"101","LANDMARKNA":"農業委員會水產試驗所","LANDMARKAD":"1000702","ADDRESS":"彰化縣鹿港鎮海埔巷106號","TEL":"047-772175","COUNTYNAME":"彰化縣","TOWNNAME":"鹿港鎮","MARKTYPE":"991","Class":"1"},"geometry":{"x":120.43580970792743,"y":24.087189202858692}},{"attributes":{"OBJECTID":28156,"LANDMARKID":"1000700000557","LANDMARKCO":"205","LANDMARKNA":"白蘭氏健康博物館","LANDMARKAD":"1000702","ADDRESS":"彰化縣鹿港鎮鹿工路18號","TEL":"04-7810077","COUNTYNAME":"彰化縣","TOWNNAME":"鹿港鎮","MARKTYPE":"992","Class":"2"},"geometry":{"x":120.40082038316069,"y":24.077689772519346}},{"attributes":{"OBJECTID":28157,"LANDMARKID":"1000700000558","LANDMARKCO":"205","LANDMARKNA":"鹿港民俗文物館","LANDMARKAD":"1000702","ADDRESS":"彰化縣鹿港鎮中山路152號","TEL":" ","COUNTYNAME":"彰化縣","TOWNNAME":"鹿港鎮","MARKTYPE":"992","Class":"2"},"geometry":{"x":120.43624297612779,"y":24.054134377546312}},{"attributes":{"OBJECTID":28158,"LANDMARKID":"1000700000559","LANDMARKCO":"205","LANDMARKNA":"鹿港天后宮媽祖文物館","LANDMARKAD":"1000702","ADDRESS":"彰化縣鹿港鎮中山路430號","TEL":" ","COUNTYNAME":"彰化縣","TOWNNAME":"鹿港鎮","MARKTYPE":"992","Class":"2"},"geometry":{"x":120.43146383504182,"y":24.059304247782489}},{"attributes":{"OBJECTID":28159,"LANDMARKID":"1000700000560","LANDMARKCO":"205","LANDMARKNA":"彰化縣漁業文物館","LANDMARKAD":"1000702","ADDRESS":"彰化縣鹿港鎮復興路485號","TEL":" ","COUNTYNAME":"彰化縣","TOWNNAME":"鹿港鎮","MARKTYPE":"992","Class":"2"},"geometry":{"x":120.43435934926814,"y":24.058682860395898}},{"attributes":{"OBJECTID":28160,"LANDMARKID":"1000700000556","LANDMARKCO":"204","LANDMARKNA":"彰化縣立圖書館鹿港分館","LANDMARKAD":"1000702","ADDRESS":"彰化縣鹿港鎮洛津里公園一路83號","TEL":" ","COUNTYNAME":"彰化縣","TOWNNAME":"鹿港鎮","MARKTYPE":"992","Class":"2"},"geometry":{"x":120.43145331465458,"y":24.054891903613804}},{"attributes":{"OBJECTID":28161,"LANDMARKID":"1000700000322","LANDMARKCO":"203","LANDMARKNA":"縣立草港國小","LANDMARKAD":"1000702","ADDRESS":"彰化縣鹿港鎮草中里頂草路四段251號","TEL":"04-7712834","COUNTYNAME":"彰化縣","TOWNNAME":"鹿港鎮","MARKTYPE":"992","Class":"2"},"geometry":{"x":120.46116464911486,"y":24.106383055127434}},{"attributes":{"OBJECTID":28162,"LANDMARKID":"1000700000312","LANDMARKCO":"202","LANDMARKNA":"國立鹿港高中","LANDMARKAD":"1000702","ADDRESS":"彰化縣鹿港鎮東石里中山路661號","TEL":"04-7772110","COUNTYNAME":"彰化縣","TOWNNAME":"鹿港鎮","MARKTYPE":"992","Class":"2"},"geometry":{"x":120.42486808292404,"y":24.060749019695486}},{"attributes":{"OBJECTID":28163,"LANDMARKID":"1000700000313","LANDMARKCO":"203","LANDMARKNA":"縣立鹿鳴國中","LANDMARKAD":"1000702","ADDRESS":"彰化縣鹿港鎮頭南里頂草路三段167號","TEL":"04-7713846","COUNTYNAME":"彰化縣","TOWNNAME":"鹿港鎮","MARKTYPE":"992","Class":"2"},"geometry":{"x":120.46892548011535,"y":24.098491170841729}},{"attributes":{"OBJECTID":28164,"LANDMARKID":"1000700000314","LANDMARKCO":"203","LANDMARKNA":"縣立鹿港國小","LANDMARKAD":"1000702","ADDRESS":"彰化縣鹿港鎮菜園里三民路192號","TEL":"04-7772038","COUNTYNAME":"彰化縣","TOWNNAME":"鹿港鎮","MARKTYPE":"992","Class":"2"},"geometry":{"x":120.43368499040528,"y":24.051213983396341}},{"attributes":{"OBJECTID":28165,"LANDMARKID":"1000700000315","LANDMARKCO":"203","LANDMARKNA":"縣立洛津國小","LANDMARKAD":"1000702","ADDRESS":"彰化縣鹿港鎮洛津里公園三路51號","TEL":"04-7772041","COUNTYNAME":"彰化縣","TOWNNAME":"鹿港鎮","MARKTYPE":"992","Class":"2"},"geometry":{"x":120.43063416120567,"y":24.054530918179914}},{"attributes":{"OBJECTID":28166,"LANDMARKID":"1000700000316","LANDMARKCO":"203","LANDMARKNA":"縣立文開國小","LANDMARKAD":"1000702","ADDRESS":"彰化縣鹿港鎮新宮里文開路60號","TEL":"04-7772042","COUNTYNAME":"彰化縣","TOWNNAME":"鹿港鎮","MARKTYPE":"992","Class":"2"},"geometry":{"x":120.43022790689295,"y":24.057200876838031}},{"attributes":{"OBJECTID":28167,"LANDMARKID":"1000700000317","LANDMARKCO":"203","LANDMARKNA":"縣立鹿東國小","LANDMARKAD":"1000702","ADDRESS":"彰化縣鹿港鎮長安路125號","TEL":"04-7756521","COUNTYNAME":"彰化縣","TOWNNAME":"鹿港鎮","MARKTYPE":"992","Class":"2"},"geometry":{"x":120.44330448638263,"y":24.058349077425742}},{"attributes":{"OBJECTID":28168,"LANDMARKID":"1000700000318","LANDMARKCO":"203","LANDMARKNA":"縣立新興國小","LANDMARKAD":"1000702","ADDRESS":"彰化縣鹿港鎮詔安里某旦巷85號","TEL":"04-7785911","COUNTYNAME":"彰化縣","TOWNNAME":"鹿港鎮","MARKTYPE":"992","Class":"2"},"geometry":{"x":120.45705373235158,"y":24.072569571833824}},{"attributes":{"OBJECTID":28169,"LANDMARKID":"1000700000319","LANDMARKCO":"203","LANDMARKNA":"縣立頂番國小","LANDMARKAD":"1000702","ADDRESS":"彰化縣鹿港鎮頂草路一段100號","TEL":"04-7711414","COUNTYNAME":"彰化縣","TOWNNAME":"鹿港鎮","MARKTYPE":"992","Class":"2"},"geometry":{"x":120.48018346807251,"y":24.08795852940381}},{"attributes":{"OBJECTID":28170,"LANDMARKID":"1000700000320","LANDMARKCO":"203","LANDMARKNA":"縣立海埔國小","LANDMARKAD":"1000702","ADDRESS":"彰化縣鹿港鎮海埔里鹿草路二段889號","TEL":"04-7781316","COUNTYNAME":"彰化縣","TOWNNAME":"鹿港鎮","MARKTYPE":"992","Class":"2"},"geometry":{"x":120.44427639523767,"y":24.083937445731053}},{"attributes":{"OBJECTID":28171,"LANDMARKID":"1000700000321","LANDMARKCO":"203","LANDMARKNA":"縣立東興國小","LANDMARKAD":"1000702","ADDRESS":"彰化縣鹿港鎮東崎里東崎7巷52號","TEL":"04-7781693","COUNTYNAME":"彰化縣","TOWNNAME":"鹿港鎮","MARKTYPE":"992","Class":"2"},"geometry":{"x":120.47549149197565,"y":24.057857171430012}},{"attributes":{"OBJECTID":28172,"LANDMARKID":"1000700000662","LANDMARKCO":"308","LANDMARKNA":"台61-鹿港交流道-南下","LANDMARKAD":"1000702","ADDRESS":" ","TEL":" ","COUNTYNAME":"彰化縣","TOWNNAME":"鹿港鎮","MARKTYPE":"993","Class":"308"},"geometry":{"x":120.41598022863987,"y":24.07480198511432}},{"attributes":{"OBJECTID":28173,"LANDMARKID":"1000700000663","LANDMARKCO":"308","LANDMARKNA":"台61-鹿港交流道-北上","LANDMARKAD":"1000702","ADDRESS":" ","TEL":" ","COUNTYNAME":"彰化縣","TOWNNAME":"鹿港鎮","MARKTYPE":"993","Class":"308"},"geometry":{"x":120.41827136438864,"y":24.079401569192417}},{"attributes":{"OBJECTID":28174,"LANDMARKID":"1000700000664","LANDMARKCO":"308","LANDMARKNA":"台61-彰濱四號平交匝道-南下","LANDMARKAD":"1000702","ADDRESS":" ","TEL":" ","COUNTYNAME":"彰化縣","TOWNNAME":"鹿港鎮","MARKTYPE":"993","Class":"308"},"geometry":{"x":120.43269705083871,"y":24.096099362052001}},{"attributes":{"OBJECTID":28175,"LANDMARKID":"1000700000665","LANDMARKCO":"308","LANDMARKNA":"台61-彰濱四號平交匝道-北上","LANDMARKAD":"1000702","ADDRESS":" ","TEL":" ","COUNTYNAME":"彰化縣","TOWNNAME":"鹿港鎮","MARKTYPE":"993","Class":"308"},"geometry":{"x":120.43375563980379,"y":24.101995217287932}},{"attributes":{"OBJECTID":28176,"LANDMARKID":"1000700000599","LANDMARKCO":"303","LANDMARKNA":"鹿港天后宮停車場","LANDMARKAD":"1000702","ADDRESS":"彰化縣鹿港鎮復興南路","TEL":" ","COUNTYNAME":"彰化縣","TOWNNAME":"鹿港鎮","MARKTYPE":"993","Class":"303"},"geometry":{"x":120.42739191691167,"y":24.057278476989641}},{"attributes":{"OBJECTID":28177,"LANDMARKID":"1000700000600","LANDMARKCO":"303","LANDMARKNA":"鹿港鎮立體停車場","LANDMARKAD":"1000702","ADDRESS":"彰化縣鹿港鎮公園一路","TEL":" ","COUNTYNAME":"彰化縣","TOWNNAME":"鹿港鎮","MARKTYPE":"993","Class":"303"},"geometry":{"x":120.43246977257951,"y":24.053597614787289}},{"attributes":{"OBJECTID":28178,"LANDMARKID":"1000700000601","LANDMARKCO":"303","LANDMARKNA":"體育場周邊停車場","LANDMARKAD":"1000702","ADDRESS":"彰化縣鹿港鎮復興路","TEL":" ","COUNTYNAME":"彰化縣","TOWNNAME":"鹿港鎮","MARKTYPE":"993","Class":"303"},"geometry":{"x":120.43439589522784,"y":24.058935755641048}},{"attributes":{"OBJECTID":28179,"LANDMARKID":"1000700000602","LANDMARKCO":"303","LANDMARKNA":"鹿港鎮立運動場停車場","LANDMARKAD":"1000702","ADDRESS":"彰化縣鹿港鎮中正路","TEL":" ","COUNTYNAME":"彰化縣","TOWNNAME":"鹿港鎮","MARKTYPE":"993","Class":"303"},"geometry":{"x":120.43653590598915,"y":24.061361655608042}},{"attributes":{"OBJECTID":28180,"LANDMARKID":"1000700000603","LANDMARKCO":"303","LANDMARKNA":"鹿港夜市停車場","LANDMARKAD":"1000702","ADDRESS":"彰化縣鹿港鎮","TEL":" ","COUNTYNAME":"彰化縣","TOWNNAME":"鹿港鎮","MARKTYPE":"993","Class":"303"},"geometry":{"x":120.43375545184888,"y":24.054610201186254}},{"attributes":{"OBJECTID":28181,"LANDMARKID":"1000700000749","LANDMARKCO":"402","LANDMARKNA":"中華電信-鹿港彰鹿特約服務中心","LANDMARKAD":"1000702","ADDRESS":"彰化縣鹿港鎮街尾里復興南路1號","TEL":"04-7841119","COUNTYNAME":"彰化縣","TOWNNAME":"鹿港鎮","MARKTYPE":"994","Class":"4"},"geometry":{"x":120.43978919784085,"y":24.04896488699729}},{"attributes":{"OBJECTID":28182,"LANDMARKID":"1000700000750","LANDMARKCO":"402","LANDMARKNA":"威寶電信-鹿港民權特約服務中心","LANDMARKAD":"1000702","ADDRESS":"彰化縣鹿港鎮民權路8號","TEL":"04-7766688","COUNTYNAME":"彰化縣","TOWNNAME":"鹿港鎮","MARKTYPE":"994","Class":"4"},"geometry":{"x":120.4388169909036,"y":24.05890913163913}},{"attributes":{"OBJECTID":28183,"LANDMARKID":"1000700000751","LANDMARKCO":"402","LANDMARKNA":"中華電信-鹿港服務中心","LANDMARKAD":"1000702","ADDRESS":"彰化縣鹿港鎮民權路82號","TEL":"04-7770383","COUNTYNAME":"彰化縣","TOWNNAME":"鹿港鎮","MARKTYPE":"994","Class":"4"},"geometry":{"x":120.43705292895287,"y":24.057864539787424}},{"attributes":{"OBJECTID":28184,"LANDMARKID":"1000700001194","LANDMARKCO":"603","LANDMARKNA":"全忠旅社","LANDMARKAD":"1000702","ADDRESS":"彰化縣鹿港鎮中山路104號","TEL":"04-7772640","COUNTYNAME":"彰化縣","TOWNNAME":"鹿港鎮","MARKTYPE":"996","Class":"6"},"geometry":{"x":120.43609688457363,"y":24.052804278474376}},{"attributes":{"OBJECTID":28185,"LANDMARKID":"1000700001195","LANDMARKCO":"603","LANDMARKNA":"和平旅社","LANDMARKAD":"1000702","ADDRESS":"彰化縣鹿港鎮中山路230號","TEL":"04-7772600","COUNTYNAME":"彰化縣","TOWNNAME":"鹿港鎮","MARKTYPE":"996","Class":"6"},"geometry":{"x":120.43448236096933,"y":24.055434322484373}},{"attributes":{"OBJECTID":28186,"LANDMARKID":"1000700001196","LANDMARKCO":"603","LANDMARKNA":"麗景汽車旅館","LANDMARKAD":"1000702","ADDRESS":"彰化縣鹿港鎮長安路58號","TEL":"04-7755887","COUNTYNAME":"彰化縣","TOWNNAME":"鹿港鎮","MARKTYPE":"996","Class":"6"},"geometry":{"x":120.44377981517792,"y":24.057850545979836}},{"attributes":{"OBJECTID":28187,"LANDMARKID":"1000700001135","LANDMARKCO":"511","LANDMARKNA":"鹿港夜市","LANDMARKAD":"1000702","ADDRESS":"彰化縣鹿港鎮","TEL":" ","COUNTYNAME":"彰化縣","TOWNNAME":"鹿港鎮","MARKTYPE":"995","Class":"5"},"geometry":{"x":120.43418875229236,"y":24.054285169701849}},{"attributes":{"OBJECTID":28188,"LANDMARKID":"1000900000959","LANDMARKCO":"604","LANDMARKNA":"米多力民宿","LANDMARKAD":"1000903","ADDRESS":"雲林縣虎尾鎮頂溪里頂竹圍3-10號","TEL":"05-6330662","COUNTYNAME":"雲林縣","TOWNNAME":"虎尾鎮","MARKTYPE":"996","Class":"6"},"geometry":{"x":120.47038562887556,"y":23.725243356988074}},{"attributes":{"OBJECTID":28189,"LANDMARKID":"1000300000558","LANDMARKCO":"205","LANDMARKNA":"桃園海洋生物教育館","LANDMARKAD":"1000307","ADDRESS":"桃園縣龜山鄉南上路663巷129號","TEL":"03-3527007","COUNTYNAME":"桃園市","TOWNNAME":"龜山區","MARKTYPE":"992","Class":"2"},"geometry":{"x":121.31343364985258,"y":25.047777918386007}},{"attributes":{"OBJECTID":28190,"LANDMARKID":"1000600000797","LANDMARKCO":"402","LANDMARKNA":"威寶電信-太平中山二特約服務中心","LANDMARKAD":"1000619","ADDRESS":"台中市太平區中山路三段190號","TEL":"04-22758535","COUNTYNAME":"台中市","TOWNNAME":"太平區","MARKTYPE":"994","Class":"4"},"geometry":{"x":120.71699574217394,"y":24.148809774137675}},{"attributes":{"OBJECTID":28191,"LANDMARKID":"1001300001155","LANDMARKCO":"408","LANDMARKNA":"郵局-霧台郵局","LANDMARKAD":"1001327","ADDRESS":"屏東縣霧台鄉霧台村中山巷66號","TEL":"08-7902256","COUNTYNAME":"屏東縣","TOWNNAME":"霧台鄉","MARKTYPE":"994","Class":"4"},"geometry":{"x":120.73141924135699,"y":22.744008082880864}},{"attributes":{"OBJECTID":28192,"LANDMARKID":"1001200001112","LANDMARKCO":"408","LANDMARKNA":"郵局-鳥松長庚醫院郵局","LANDMARKAD":"1001207","ADDRESS":"高雄市鳥松區鳥松村大埤路125號(長庚兒童醫院內)","TEL":"07-7332527","COUNTYNAME":"高雄市","TOWNNAME":"鳥松區","MARKTYPE":"994","Class":"4"},"geometry":{"x":120.35388705466019,"y":22.649822061936643}},{"attributes":{"OBJECTID":28193,"LANDMARKID":"1001500000927","LANDMARKCO":"603","LANDMARKNA":"經典假日飯店","LANDMARKAD":"1001501","ADDRESS":"花蓮縣花蓮市國聯五路139號","TEL":"03-8359966","COUNTYNAME":"花蓮縣","TOWNNAME":"花蓮市","MARKTYPE":"996","Class":"6"},"geometry":{"x":121.60480190478839,"y":23.993294949286231}},{"attributes":{"OBJECTID":28194,"LANDMARKID":"1001500000928","LANDMARKCO":"604","LANDMARKNA":"戀戀長虹民宿","LANDMARKAD":"1001508","ADDRESS":"花蓮縣豐濱鄉靜浦村靜浦8-1號","TEL":"03-8781707","COUNTYNAME":"花蓮縣","TOWNNAME":"豐濱鄉","MARKTYPE":"996","Class":"6"},"geometry":{"x":121.48840174001178,"y":23.466141412539461}},{"attributes":{"OBJECTID":28195,"LANDMARKID":"1000400000053","LANDMARKCO":"103","LANDMARKNA":"新竹市審計室","LANDMARKAD":"1000401","ADDRESS":"新竹縣竹北市復興二路161號","TEL":"03-6576033","COUNTYNAME":"新竹縣","TOWNNAME":"竹北市","MARKTYPE":"991","Class":"1"},"geometry":{"x":121.0352299545178,"y":24.810963345045987}},{"attributes":{"OBJECTID":28196,"LANDMARKID":"1000700001193","LANDMARKCO":"603","LANDMARKNA":"春城四季旅館","LANDMARKAD":"1000720","ADDRESS":"彰化縣二林鎮豐田里仁愛路171號","TEL":"04-8950288","COUNTYNAME":"彰化縣","TOWNNAME":"二林鎮","MARKTYPE":"996","Class":"6"},"geometry":{"x":120.37449512162488,"y":23.903113516417356}},{"attributes":{"OBJECTID":28197,"LANDMARKID":"1000300000124","LANDMARKCO":"107","LANDMARKNA":"國公路警察局第六警察隊部","LANDMARKAD":"1000309","ADDRESS":"桃園縣龍潭鄉高原村大庄8之3號","TEL":"03-4116623","COUNTYNAME":"桃園市","TOWNNAME":"龍潭區","MARKTYPE":"991","Class":"1"},"geometry":{"x":121.19790903543758,"y":24.8359057856816}},{"attributes":{"OBJECTID":28198,"LANDMARKID":"1000100002944","LANDMARKCO":"603","LANDMARKNA":"中央旅社","LANDMARKAD":"1000111","ADDRESS":"新北市汐止區光明街5號","TEL":"02-26412932","COUNTYNAME":"新北市","TOWNNAME":"汐止區","MARKTYPE":"996","Class":"6"},"geometry":{"x":121.66082101704562,"y":25.068681488144268}},{"attributes":{"OBJECTID":28199,"LANDMARKID":"1000100000192","LANDMARKCO":"107","LANDMARKNA":"新北市政府警察局烘內派出所","LANDMARKAD":"1000111","ADDRESS":"新北市汐止區拱北里汐萬路二段230號","TEL":"02-26462564","COUNTYNAME":"新北市","TOWNNAME":"汐止區","MARKTYPE":"991","Class":"1"},"geometry":{"x":121.64677187540354,"y":25.088434172956074}},{"attributes":{"OBJECTID":28200,"LANDMARKID":"1002100000372","LANDMARKCO":"402","LANDMARKNA":"威寶電信-台南民族直營服務中心","LANDMARKAD":"1002102","ADDRESS":"台南市西區民族路二段51號","TEL":" ","COUNTYNAME":"台南市","TOWNNAME":"中西區","MARKTYPE":"994","Class":"4"},"geometry":{"x":120.21037378588288,"y":22.994311514849016}}]}