{"displayFieldName":"COUNTYNAME","fieldAliases":{"OBJECTID":"OBJECTID","LANDMARKID":"LANDMARKID","LANDMARKCO":"LANDMARKCO","LANDMARKNA":"LANDMARKNA","LANDMARKAD":"LANDMARKAD","ADDRESS":"ADDRESS","TEL":"TEL","COUNTYNAME":"COUNTYNAME","TOWNNAME":"TOWNNAME","MARKTYPE":"MARKTYPE","Class":"Class"},"geometryType":"esriGeometryPoint","spatialReference":{"wkid":4326},"fields":[{"name":"OBJECTID","type":"esriFieldTypeOID","alias":"OBJECTID"},{"name":"LANDMARKID","type":"esriFieldTypeString","alias":"LANDMARKID","length":15},{"name":"LANDMARKCO","type":"esriFieldTypeString","alias":"LANDMARKCO","length":15},{"name":"LANDMARKNA","type":"esriFieldTypeString","alias":"LANDMARKNA","length":50},{"name":"LANDMARKAD","type":"esriFieldTypeString","alias":"LANDMARKAD","length":15},{"name":"ADDRESS","type":"esriFieldTypeString","alias":"ADDRESS","length":56},{"name":"TEL","type":"esriFieldTypeString","alias":"TEL","length":36},{"name":"COUNTYNAME","type":"esriFieldTypeString","alias":"COUNTYNAME","length":15},{"name":"TOWNNAME","type":"esriFieldTypeString","alias":"TOWNNAME","length":13},{"name":"MARKTYPE","type":"esriFieldTypeString","alias":"MARKTYPE","length":12},{"name":"Class","type":"esriFieldTypeString","alias":"Class","length":5}],"features":[{"attributes":{"OBJECTID":9801,"LANDMARKID":"6300000002358","LANDMARKCO":"402","LANDMARKNA":"威寶電信-台北六張犁特約服務中心","LANDMARKAD":"6300003","ADDRESS":"台北市大安區黎孝里和平東路三段256號","TEL":"02-87322304","COUNTYNAME":"台北市","TOWNNAME":"大安區","MARKTYPE":"994","Class":"4"},"geometry":{"x":121.5553215453307,"y":25.021528339841282}},{"attributes":{"OBJECTID":9802,"LANDMARKID":"6300000002359","LANDMARKCO":"402","LANDMARKNA":"威寶電信-台北通化特約服務中心","LANDMARKAD":"6300003","ADDRESS":"台北市大安區通化街6號","TEL":"02-27085219","COUNTYNAME":"台北市","TOWNNAME":"大安區","MARKTYPE":"994","Class":"4"},"geometry":{"x":121.55418828380506,"y":25.032189918349374}},{"attributes":{"OBJECTID":9803,"LANDMARKID":"6300000002360","LANDMARKCO":"402","LANDMARKNA":"大眾電信(皇家通訊)-創世紀-2","LANDMARKAD":"6300003","ADDRESS":"台北市八德路二段22號","TEL":"02-27772889","COUNTYNAME":"台北市","TOWNNAME":"大安區","MARKTYPE":"994","Class":"4"},"geometry":{"x":121.5344774055722,"y":25.044703926372708}},{"attributes":{"OBJECTID":9804,"LANDMARKID":"6300000002361","LANDMARKCO":"402","LANDMARKNA":"大眾電信-忠孝專賣店","LANDMARKAD":"6300003","ADDRESS":"台北市大安區忠孝東路4段216巷29號","TEL":"02-87719227","COUNTYNAME":"台北市","TOWNNAME":"大安區","MARKTYPE":"994","Class":"4"},"geometry":{"x":121.5530795771773,"y":25.039799799564591}},{"attributes":{"OBJECTID":9805,"LANDMARKID":"6300000002362","LANDMARKCO":"402","LANDMARKNA":"大眾電信-頂好店","LANDMARKAD":"6300003","ADDRESS":"台北市大安區忠孝東路四段67號","TEL":"0968-544205","COUNTYNAME":"台北市","TOWNNAME":"大安區","MARKTYPE":"994","Class":"4"},"geometry":{"x":121.54656725684687,"y":25.042128403575774}},{"attributes":{"OBJECTID":9806,"LANDMARKID":"6300000002363","LANDMARKCO":"402","LANDMARKNA":"大眾電信-師大專賣店","LANDMARKAD":"6300003","ADDRESS":"台北市大安區師大路65號","TEL":"02-83691888","COUNTYNAME":"台北市","TOWNNAME":"大安區","MARKTYPE":"994","Class":"4"},"geometry":{"x":121.52861664848488,"y":25.023898237336205}},{"attributes":{"OBJECTID":9807,"LANDMARKID":"6300000002364","LANDMARKCO":"402","LANDMARKNA":"大眾電信-通化店","LANDMARKAD":"6300003","ADDRESS":"台北市大安區通化街20號","TEL":"0968-544632","COUNTYNAME":"台北市","TOWNNAME":"大安區","MARKTYPE":"994","Class":"4"},"geometry":{"x":121.55417602371543,"y":25.031928191541557}},{"attributes":{"OBJECTID":9808,"LANDMARKID":"6300000002365","LANDMARKCO":"402","LANDMARKNA":"大眾電信(震旦通訊)-台北師大店","LANDMARKAD":"6300003","ADDRESS":"台北市和平東路一段173號","TEL":"02-23579320","COUNTYNAME":"台北市","TOWNNAME":"大安區","MARKTYPE":"994","Class":"4"},"geometry":{"x":121.53191696531552,"y":25.026520784341216}},{"attributes":{"OBJECTID":9809,"LANDMARKID":"6300000002366","LANDMARKCO":"402","LANDMARKNA":"大眾電信(震旦通訊)-台北忠復店","LANDMARKAD":"6300003","ADDRESS":"台北市忠孝東路三段305號","TEL":"02-27730221","COUNTYNAME":"台北市","TOWNNAME":"大安區","MARKTYPE":"994","Class":"4"},"geometry":{"x":121.54355240840538,"y":25.041878552382048}},{"attributes":{"OBJECTID":9810,"LANDMARKID":"6300000003410","LANDMARKCO":"603","LANDMARKNA":"麗都大飯店","LANDMARKAD":"6300003","ADDRESS":"台北市大安區信義路三段11號1-11樓","TEL":"02-27065600","COUNTYNAME":"台北市","TOWNNAME":"大安區","MARKTYPE":"996","Class":"6"},"geometry":{"x":121.53375707291583,"y":25.033785129854092}},{"attributes":{"OBJECTID":9811,"LANDMARKID":"6300000003411","LANDMARKCO":"603","LANDMARKNA":"台北商旅(大安館)","LANDMARKAD":"6300003","ADDRESS":"台北市大安區大安路一段135號","TEL":"02-87733799","COUNTYNAME":"台北市","TOWNNAME":"大安區","MARKTYPE":"996","Class":"6"},"geometry":{"x":121.54618467069356,"y":25.038673501108093}},{"attributes":{"OBJECTID":9812,"LANDMARKID":"6300000003412","LANDMARKCO":"603","LANDMARKNA":"豪麗HOTEL","LANDMARKAD":"6300003","ADDRESS":"台北市大安區大安路一段81號B2-7樓","TEL":"02-27766599","COUNTYNAME":"台北市","TOWNNAME":"大安區","MARKTYPE":"996","Class":"6"},"geometry":{"x":121.5462331990818,"y":25.041065576876594}},{"attributes":{"OBJECTID":9813,"LANDMARKID":"6300000003413","LANDMARKCO":"603","LANDMARKNA":"安和旅館","LANDMARKAD":"6300003","ADDRESS":"台北市大安區安和路一段139號B1-7樓","TEL":"02-27005088","COUNTYNAME":"台北市","TOWNNAME":"大安區","MARKTYPE":"996","Class":"6"},"geometry":{"x":121.55268551139457,"y":25.033960290126252}},{"attributes":{"OBJECTID":9814,"LANDMARKID":"6300000003414","LANDMARKCO":"603","LANDMARKNA":"泰安大旅社","LANDMARKAD":"6300003","ADDRESS":"台北市大安區和平東路一段99號2-4樓","TEL":"02-23910288","COUNTYNAME":"台北市","TOWNNAME":"大安區","MARKTYPE":"996","Class":"6"},"geometry":{"x":121.52615411684877,"y":25.027002518694836}},{"attributes":{"OBJECTID":9815,"LANDMARKID":"6300000003415","LANDMARKCO":"603","LANDMARKNA":"高雅旅店","LANDMARKAD":"6300003","ADDRESS":"台北市大安區和平東路三段139號1-7樓","TEL":"141號1-5樓","COUNTYNAME":"台北市","TOWNNAME":"大安區","MARKTYPE":"996","Class":"6"},"geometry":{"x":121.5525345313775,"y":25.024825035777937}},{"attributes":{"OBJECTID":9816,"LANDMARKID":"6300000003416","LANDMARKCO":"603","LANDMARKNA":"丹迪旅店","LANDMARKAD":"6300003","ADDRESS":"台北市大安區信義路三段33號3-10樓","TEL":"02-27087065","COUNTYNAME":"台北市","TOWNNAME":"大安區","MARKTYPE":"996","Class":"6"},"geometry":{"x":121.53462889848606,"y":25.0337608053553}},{"attributes":{"OBJECTID":9817,"LANDMARKID":"6300000003417","LANDMARKCO":"603","LANDMARKNA":"多郎明哥旅館","LANDMARKAD":"6300003","ADDRESS":"台北市大安區信義路三段73號2-6樓","TEL":"02-27001200","COUNTYNAME":"台北市","TOWNNAME":"大安區","MARKTYPE":"996","Class":"6"},"geometry":{"x":121.53695721217282,"y":25.033717899521331}},{"attributes":{"OBJECTID":9818,"LANDMARKID":"6300000003418","LANDMARKCO":"603","LANDMARKNA":"香城大飯店","LANDMARKAD":"6300003","ADDRESS":"台北市大安區信義路四段295號1至11樓","TEL":"02-27049546","COUNTYNAME":"台北市","TOWNNAME":"大安區","MARKTYPE":"996","Class":"6"},"geometry":{"x":121.55527858190996,"y":25.033319334548256}},{"attributes":{"OBJECTID":9819,"LANDMARKID":"6300000003419","LANDMARKCO":"603","LANDMARKNA":"環宇宬世旅館","LANDMARKAD":"6300003","ADDRESS":"台北市大安區建國南路一段212巷1號","TEL":"02-87731616","COUNTYNAME":"台北市","TOWNNAME":"大安區","MARKTYPE":"996","Class":"6"},"geometry":{"x":121.53730255786448,"y":25.039737140378922}},{"attributes":{"OBJECTID":9820,"LANDMARKID":"6300000003420","LANDMARKCO":"603","LANDMARKNA":"喬合大飯店","LANDMARKAD":"6300003","ADDRESS":"台北市大安區復興南路一段136號1-4樓","TEL":"02-27765877","COUNTYNAME":"台北市","TOWNNAME":"大安區","MARKTYPE":"996","Class":"6"},"geometry":{"x":121.54356987923551,"y":25.042736105348116}},{"attributes":{"OBJECTID":9821,"LANDMARKID":"6300000003421","LANDMARKCO":"603","LANDMARKNA":"豪城大飯店 (復興店)","LANDMARKAD":"6300003","ADDRESS":"台北市大安區復興南路一段275號","TEL":"02-27039990","COUNTYNAME":"台北市","TOWNNAME":"大安區","MARKTYPE":"996","Class":"6"},"geometry":{"x":121.54386162571365,"y":25.03569209589601}},{"attributes":{"OBJECTID":9822,"LANDMARKID":"6300000003422","LANDMARKCO":"603","LANDMARKNA":"台北馥敦飯店-復南館","LANDMARKAD":"6300003","ADDRESS":"台北市大安區復興南路二段41號","TEL":"02-27031234","COUNTYNAME":"台北市","TOWNNAME":"大安區","MARKTYPE":"996","Class":"6"},"geometry":{"x":121.54377644891322,"y":25.031386301838015}},{"attributes":{"OBJECTID":9823,"LANDMARKID":"6300000003423","LANDMARKCO":"603","LANDMARKNA":"富濠大飯店","LANDMARKAD":"6300003","ADDRESS":"台北市大安區復興南路二段9號1-8","TEL":"11-12樓","COUNTYNAME":"台北市","TOWNNAME":"大安區","MARKTYPE":"996","Class":"6"},"geometry":{"x":121.54380836371359,"y":25.032758358567175}},{"attributes":{"OBJECTID":9824,"LANDMARKID":"6300000003424","LANDMARKCO":"603","LANDMARKNA":"最愛旅館","LANDMARKAD":"6300003","ADDRESS":"台北市大安區忠孝東路三段219號","TEL":"02-27788586","COUNTYNAME":"台北市","TOWNNAME":"大安區","MARKTYPE":"996","Class":"6"},"geometry":{"x":121.53978643971875,"y":25.041859797930726}},{"attributes":{"OBJECTID":9825,"LANDMARKID":"6300000003425","LANDMARKCO":"603","LANDMARKNA":"香榭峇里賓館","LANDMARKAD":"6300003","ADDRESS":"台北市大安區忠孝東路三段305號7樓","TEL":"02-27114159","COUNTYNAME":"台北市","TOWNNAME":"大安區","MARKTYPE":"996","Class":"6"},"geometry":{"x":121.54355240840538,"y":25.041878552382048}},{"attributes":{"OBJECTID":9826,"LANDMARKID":"6300000003426","LANDMARKCO":"603","LANDMARKNA":"凱統大飯店","LANDMARKAD":"6300003","ADDRESS":"台北市大安區忠孝東路3段8號3-9樓","TEL":"02-27211162","COUNTYNAME":"台北市","TOWNNAME":"大安區","MARKTYPE":"996","Class":"6"},"geometry":{"x":121.53353454877065,"y":25.04201131033663}},{"attributes":{"OBJECTID":9827,"LANDMARKID":"6300000003427","LANDMARKCO":"603","LANDMARKNA":"友統旅館","LANDMARKAD":"6300003","ADDRESS":"台北市大安區忠孝東路4段197號13樓及13樓之4-9","TEL":"02-27735177","COUNTYNAME":"台北市","TOWNNAME":"大安區","MARKTYPE":"996","Class":"6"},"geometry":{"x":121.55162723009433,"y":25.041678110711167}},{"attributes":{"OBJECTID":9828,"LANDMARKID":"6300000003428","LANDMARKCO":"603","LANDMARKNA":"瑞華大飯店","LANDMARKAD":"6300003","ADDRESS":"台北市大安區忠孝東路四段235號4-5樓","TEL":"02-27413147","COUNTYNAME":"台北市","TOWNNAME":"大安區","MARKTYPE":"996","Class":"6"},"geometry":{"x":121.55379952021552,"y":25.041618134750415}},{"attributes":{"OBJECTID":9829,"LANDMARKID":"6300000003429","LANDMARKCO":"603","LANDMARKNA":"友泰商務旅館","LANDMARKAD":"6300003","ADDRESS":"台北市大安區新生南路一段143-6號1-7樓","TEL":"02-27092177","COUNTYNAME":"台北市","TOWNNAME":"大安區","MARKTYPE":"996","Class":"6"},"geometry":{"x":121.53300223775469,"y":25.035875153662399}},{"attributes":{"OBJECTID":9830,"LANDMARKID":"6300000003430","LANDMARKCO":"603","LANDMARKNA":"欣和大旅社","LANDMARKAD":"6300003","ADDRESS":"台北市大安區羅斯福路二段75-1號2-6樓","TEL":"02-23660105","COUNTYNAME":"台北市","TOWNNAME":"大安區","MARKTYPE":"996","Class":"6"},"geometry":{"x":121.52319629312164,"y":25.026417750429378}},{"attributes":{"OBJECTID":9831,"LANDMARKID":"6300000003431","LANDMARKCO":"603","LANDMARKNA":"客來思樂賓館","LANDMARKAD":"6300003","ADDRESS":"台北市大安區羅斯福路3段241號3-6樓","TEL":"02-23626555","COUNTYNAME":"台北市","TOWNNAME":"大安區","MARKTYPE":"996","Class":"6"},"geometry":{"x":121.52990961968517,"y":25.019374994339888}},{"attributes":{"OBJECTID":9832,"LANDMARKID":"6300000003432","LANDMARKCO":"603","LANDMARKNA":"華弘商旅","LANDMARKAD":"6300003","ADDRESS":"台北市大安區敦化南路1段370號","TEL":"02-27020659","COUNTYNAME":"台北市","TOWNNAME":"大安區","MARKTYPE":"996","Class":"6"},"geometry":{"x":121.54845165005526,"y":25.033674446697624}},{"attributes":{"OBJECTID":9833,"LANDMARKID":"6300000003433","LANDMARKCO":"603","LANDMARKNA":"宏都金殿大飯店","LANDMARKAD":"6300003","ADDRESS":"台北市大安區安和路2段100號2-9樓","TEL":"02-27556599","COUNTYNAME":"台北市","TOWNNAME":"大安區","MARKTYPE":"996","Class":"6"},"geometry":{"x":121.54974672863086,"y":25.028329288132749}},{"attributes":{"OBJECTID":9834,"LANDMARKID":"6300000003434","LANDMARKCO":"603","LANDMARKNA":"東鑫商務旅館","LANDMARKAD":"6300003","ADDRESS":"台北市大安區忠孝東路4段209號11樓","TEL":"02-87736638","COUNTYNAME":"台北市","TOWNNAME":"大安區","MARKTYPE":"996","Class":"6"},"geometry":{"x":121.55202352690576,"y":25.041666139229466}},{"attributes":{"OBJECTID":9835,"LANDMARKID":"6300000003375","LANDMARKCO":"601","LANDMARKNA":"神旺大飯店","LANDMARKAD":"6300003","ADDRESS":"台北市大安區忠孝東路4段172號","TEL":"02-2772-2121","COUNTYNAME":"台北市","TOWNNAME":"大安區","MARKTYPE":"996","Class":"6"},"geometry":{"x":121.55101163569547,"y":25.041267427877987}},{"attributes":{"OBJECTID":9836,"LANDMARKID":"6300000003376","LANDMARKCO":"601","LANDMARKNA":"國聯大飯店","LANDMARKAD":"6300003","ADDRESS":"台北市大安區光復南路200號","TEL":"02-2773-1515","COUNTYNAME":"台北市","TOWNNAME":"大安區","MARKTYPE":"996","Class":"6"},"geometry":{"x":121.55749810892762,"y":25.042142477172153}},{"attributes":{"OBJECTID":9837,"LANDMARKID":"6300000003377","LANDMARKCO":"601","LANDMARKNA":"福華大飯店","LANDMARKAD":"6300003","ADDRESS":"台北市大安區仁愛路3段160號","TEL":"02-2700-2323","COUNTYNAME":"台北市","TOWNNAME":"大安區","MARKTYPE":"996","Class":"6"},"geometry":{"x":121.54310396108134,"y":25.037692829709322}},{"attributes":{"OBJECTID":9838,"LANDMARKID":"6300000003378","LANDMARKCO":"601","LANDMARKNA":"遠東國際大飯店","LANDMARKAD":"6300003","ADDRESS":"台北市大安區敦化南路2段201號","TEL":"02-2378-8888","COUNTYNAME":"台北市","TOWNNAME":"大安區","MARKTYPE":"996","Class":"6"},"geometry":{"x":121.54917896289285,"y":25.026609139641582}},{"attributes":{"OBJECTID":9839,"LANDMARKID":"6300000003402","LANDMARKCO":"602","LANDMARKNA":"福容大飯店 台北","LANDMARKAD":"6300003","ADDRESS":"台北市大安區建國南路1段266號","TEL":"02-27019266","COUNTYNAME":"台北市","TOWNNAME":"大安區","MARKTYPE":"996","Class":"6"},"geometry":{"x":121.53719857552726,"y":25.036650284086431}},{"attributes":{"OBJECTID":9840,"LANDMARKID":"6300000003324","LANDMARKCO":"511","LANDMARKNA":"臨江觀光夜市","LANDMARKAD":"6300003","ADDRESS":"台北市大安區","TEL":" ","COUNTYNAME":"台北市","TOWNNAME":"大安區","MARKTYPE":"995","Class":"5"},"geometry":{"x":121.55518569136007,"y":25.029980273325179}},{"attributes":{"OBJECTID":9841,"LANDMARKID":"6300000003325","LANDMARKCO":"511","LANDMARKNA":"永康街商店街","LANDMARKAD":"6300003","ADDRESS":"台北市大安區信義路","TEL":" ","COUNTYNAME":"台北市","TOWNNAME":"大安區","MARKTYPE":"995","Class":"5"},"geometry":{"x":121.5297434718874,"y":25.032417917151992}},{"attributes":{"OBJECTID":9842,"LANDMARKID":"6300000003326","LANDMARKCO":"511","LANDMARKNA":"頂好商圈","LANDMARKAD":"6300003","ADDRESS":"台北市大安區忠孝東路四段","TEL":" ","COUNTYNAME":"台北市","TOWNNAME":"大安區","MARKTYPE":"995","Class":"5"},"geometry":{"x":121.54685147900905,"y":25.04193765009553}},{"attributes":{"OBJECTID":9843,"LANDMARKID":"6300000003327","LANDMARKCO":"511","LANDMARKNA":"文昌街傢俱街","LANDMARKAD":"6300003","ADDRESS":"台北市大安區","TEL":" ","COUNTYNAME":"台北市","TOWNNAME":"大安區","MARKTYPE":"995","Class":"5"},"geometry":{"x":121.55419194546467,"y":25.032442755670445}},{"attributes":{"OBJECTID":9844,"LANDMARKID":"6300000003328","LANDMARKCO":"511","LANDMARKNA":"建國假日花市","LANDMARKAD":"6300003","ADDRESS":"台北市大安區","TEL":" ","COUNTYNAME":"台北市","TOWNNAME":"大安區","MARKTYPE":"995","Class":"5"},"geometry":{"x":121.53785369963722,"y":25.036112102236416}},{"attributes":{"OBJECTID":9845,"LANDMARKID":"6300000003329","LANDMARKCO":"511","LANDMARKNA":"建國假日玉市","LANDMARKAD":"6300003","ADDRESS":"台北市大安區","TEL":" ","COUNTYNAME":"台北市","TOWNNAME":"大安區","MARKTYPE":"995","Class":"5"},"geometry":{"x":121.53788470717835,"y":25.039145274080685}},{"attributes":{"OBJECTID":9846,"LANDMARKID":"6300000002416","LANDMARKCO":"405","LANDMARKNA":"中油加油站-世新站","LANDMARKAD":"6300008","ADDRESS":"台北市文山區景興路293號","TEL":"02-29354466","COUNTYNAME":"台北市","TOWNNAME":"文山區","MARKTYPE":"994","Class":"4"},"geometry":{"x":121.54248749183336,"y":24.989263019388311}},{"attributes":{"OBJECTID":9847,"LANDMARKID":"6300000002417","LANDMARKCO":"405","LANDMARKNA":"中油加油站-萬隆站(刷卡自助)","LANDMARKAD":"6300008","ADDRESS":"台北市文山區興隆路一段13號","TEL":"02-29312829","COUNTYNAME":"台北市","TOWNNAME":"文山區","MARKTYPE":"994","Class":"4"},"geometry":{"x":121.53932833023387,"y":25.004519818750936}},{"attributes":{"OBJECTID":9848,"LANDMARKID":"6300000002418","LANDMARKCO":"405","LANDMARKNA":"台灣優力加油站-中華辛亥站(中油)","LANDMARKAD":"6300008","ADDRESS":"台北市文山區辛亥路4段100號","TEL":"02-8663-9825","COUNTYNAME":"台北市","TOWNNAME":"文山區","MARKTYPE":"994","Class":"4"},"geometry":{"x":121.55783496269088,"y":25.006086667574799}},{"attributes":{"OBJECTID":9849,"LANDMARKID":"6300000002419","LANDMARKCO":"405","LANDMARKNA":"中油加油站-木柵站(中油直營)","LANDMARKAD":"6300008","ADDRESS":"台北市文山區木柵路三段2號","TEL":"02-29392990","COUNTYNAME":"台北市","TOWNNAME":"文山區","MARKTYPE":"994","Class":"4"},"geometry":{"x":121.56420906091556,"y":24.988510440258239}},{"attributes":{"OBJECTID":9850,"LANDMARKID":"6300000002367","LANDMARKCO":"402","LANDMARKNA":"My Phone台灣大哥大-文山－興隆","LANDMARKAD":"6300008","ADDRESS":"台北市文山區興隆路三段37號","TEL":"02-29347008","COUNTYNAME":"台北市","TOWNNAME":"文山區","MARKTYPE":"994","Class":"4"},"geometry":{"x":121.55564613776799,"y":25.000536855768974}},{"attributes":{"OBJECTID":9851,"LANDMARKID":"6300000002368","LANDMARKCO":"402","LANDMARKNA":"My Phone台灣大哥大-文山－景美(全面-2)","LANDMARKAD":"6300008","ADDRESS":"台北市文山區羅斯福路六段238號","TEL":"02-29331399","COUNTYNAME":"台北市","TOWNNAME":"文山區","MARKTYPE":"994","Class":"4"},"geometry":{"x":121.54037394630282,"y":24.992282193382049}},{"attributes":{"OBJECTID":9852,"LANDMARKID":"6300000002369","LANDMARKCO":"402","LANDMARKNA":"My Phone台灣大哥大-台北木新直營服務中心","LANDMARKAD":"6300008","ADDRESS":"台北市文山區木新路3段163號","TEL":" ","COUNTYNAME":"台北市","TOWNNAME":"文山區","MARKTYPE":"994","Class":"4"},"geometry":{"x":121.56087245465518,"y":24.981594145130316}},{"attributes":{"OBJECTID":9853,"LANDMARKID":"6300000002370","LANDMARKCO":"402","LANDMARKNA":"My Phone台灣大哥大-台北木柵直營服務中心","LANDMARKAD":"6300008","ADDRESS":"台北市文山區木柵路3段80號","TEL":" ","COUNTYNAME":"台北市","TOWNNAME":"文山區","MARKTYPE":"994","Class":"4"},"geometry":{"x":121.56678433002254,"y":24.988532520446284}},{"attributes":{"OBJECTID":9854,"LANDMARKID":"6300000002371","LANDMARKCO":"402","LANDMARKNA":"亞太行動寬頻電信-文山興隆加盟服務中心","LANDMARKAD":"6300008","ADDRESS":"台北市文山區興隆路3段145號","TEL":"02-22301331","COUNTYNAME":"台北市","TOWNNAME":"文山區","MARKTYPE":"994","Class":"4"},"geometry":{"x":121.55892643754758,"y":24.998184405253451}},{"attributes":{"OBJECTID":9855,"LANDMARKID":"6300000002372","LANDMARKCO":"402","LANDMARKNA":"亞太行動寬頻電信-文山木柵加盟服務中心","LANDMARKAD":"6300008","ADDRESS":"台北市文山區木柵路二段166號","TEL":"02-86611518","COUNTYNAME":"台北市","TOWNNAME":"文山區","MARKTYPE":"994","Class":"4"},"geometry":{"x":121.56247780044184,"y":24.988805968810315}},{"attributes":{"OBJECTID":9856,"LANDMARKID":"6300000002084","LANDMARKCO":"401","LANDMARKNA":"台北市立萬芳醫院","LANDMARKAD":"6300008","ADDRESS":"臺北市文山區興隆路三段111號","TEL":"02-29307930","COUNTYNAME":"台北市","TOWNNAME":"文山區","MARKTYPE":"994","Class":"4"},"geometry":{"x":121.55777937131809,"y":24.999509770741934}},{"attributes":{"OBJECTID":9857,"LANDMARKID":"6300000002085","LANDMARKCO":"401","LANDMARKNA":"景美醫院","LANDMARKAD":"6300008","ADDRESS":"台北市文山區羅斯福路六段280號","TEL":"02-29331010","COUNTYNAME":"台北市","TOWNNAME":"文山區","MARKTYPE":"994","Class":"4"},"geometry":{"x":121.54047600284738,"y":24.99262452607746}},{"attributes":{"OBJECTID":9858,"LANDMARKID":"6300000003154","LANDMARKCO":"506","LANDMARKNA":"山水客茶園","LANDMARKAD":"6300008","ADDRESS":"台北市文山區指南路三段40巷10號","TEL":"02-22341239","COUNTYNAME":"台北市","TOWNNAME":"文山區","MARKTYPE":"995","Class":"5"},"geometry":{"x":121.59526720683608,"y":24.968429156097518}},{"attributes":{"OBJECTID":9859,"LANDMARKID":"6300000003155","LANDMARKCO":"506","LANDMARKNA":"指南茶莊","LANDMARKAD":"6300008","ADDRESS":"台北市文山區萬壽路68號","TEL":"02-29391439","COUNTYNAME":"台北市","TOWNNAME":"文山區","MARKTYPE":"995","Class":"5"},"geometry":{"x":121.58496590045326,"y":24.979418382776689}},{"attributes":{"OBJECTID":9860,"LANDMARKID":"6300000003156","LANDMARKCO":"506","LANDMARKNA":"貓空寬裕茶園","LANDMARKAD":"6300008","ADDRESS":"台北市文山區指南路三段40巷10號","TEL":"02-22341239","COUNTYNAME":"台北市","TOWNNAME":"文山區","MARKTYPE":"995","Class":"5"},"geometry":{"x":121.59526695608304,"y":24.96842870659755}},{"attributes":{"OBJECTID":9861,"LANDMARKID":"6300000003157","LANDMARKCO":"506","LANDMARKNA":"張迺妙茶師紀念館","LANDMARKAD":"6300008","ADDRESS":"台北市文山區指南路三段34巷53號","TEL":"02-29382579","COUNTYNAME":"台北市","TOWNNAME":"文山區","MARKTYPE":"995","Class":"5"},"geometry":{"x":121.58283809046814,"y":24.965636913157166}},{"attributes":{"OBJECTID":9862,"LANDMARKID":"6300000003158","LANDMARKCO":"506","LANDMARKNA":"木柵觀光茶園","LANDMARKAD":"6300008","ADDRESS":"台北市文山區指南路三段34巷13號","TEL":"02-29393277","COUNTYNAME":"台北市","TOWNNAME":"文山區","MARKTYPE":"995","Class":"5"},"geometry":{"x":121.58341085608407,"y":24.965743559295284}},{"attributes":{"OBJECTID":9863,"LANDMARKID":"6300000003251","LANDMARKCO":"507","LANDMARKNA":"景美集應廟","LANDMARKAD":"6300008","ADDRESS":"台北市文山區景美街37號","TEL":" ","COUNTYNAME":"台北市","TOWNNAME":"文山區","MARKTYPE":"995","Class":"5"},"geometry":{"x":121.54195106362451,"y":24.991587203865265}},{"attributes":{"OBJECTID":9864,"LANDMARKID":"6300000003153","LANDMARKCO":"506","LANDMARKNA":"三墩石休閒農場","LANDMARKAD":"6300008","ADDRESS":"台北市文山區指南路三段34巷36號","TEL":"02-29383797","COUNTYNAME":"台北市","TOWNNAME":"文山區","MARKTYPE":"995","Class":"5"},"geometry":{"x":121.58944407418603,"y":24.979729853021201}},{"attributes":{"OBJECTID":9865,"LANDMARKID":"6300000003077","LANDMARKCO":"408","LANDMARKNA":"郵局-文山興隆路郵局","LANDMARKAD":"6300008","ADDRESS":"台北市文山區興隆路2段171號","TEL":"(02)2935-7813","COUNTYNAME":"台北市","TOWNNAME":"文山區","MARKTYPE":"994","Class":"4"},"geometry":{"x":121.54902013382193,"y":25.000708691059152}},{"attributes":{"OBJECTID":9866,"LANDMARKID":"6300000003078","LANDMARKCO":"408","LANDMARKNA":"郵局-文山武功郵局","LANDMARKAD":"6300008","ADDRESS":"台北市文山區羅斯福路5段147號","TEL":"(02)2935-6135","COUNTYNAME":"台北市","TOWNNAME":"文山區","MARKTYPE":"994","Class":"4"},"geometry":{"x":121.5389523332675,"y":25.004074259038347}},{"attributes":{"OBJECTID":9867,"LANDMARKID":"6300000003079","LANDMARKCO":"408","LANDMARKNA":"郵局-文山萬盛郵局","LANDMARKAD":"6300008","ADDRESS":"台北市文山區汀州路4段88號(師大分部內)","TEL":"(02)2932-0183","COUNTYNAME":"台北市","TOWNNAME":"文山區","MARKTYPE":"994","Class":"4"},"geometry":{"x":121.53718969661097,"y":25.007832686210012}},{"attributes":{"OBJECTID":9868,"LANDMARKID":"6300000003080","LANDMARKCO":"408","LANDMARKNA":"郵局-文山萬芳郵局","LANDMARKAD":"6300008","ADDRESS":"台北市文山區興隆路3段178號","TEL":"(02)2230-5857","COUNTYNAME":"台北市","TOWNNAME":"文山區","MARKTYPE":"994","Class":"4"},"geometry":{"x":121.55864833532786,"y":24.99810527933716}},{"attributes":{"OBJECTID":9869,"LANDMARKID":"6300000003081","LANDMARKCO":"408","LANDMARKNA":"郵局-木柵郵局","LANDMARKAD":"6300008","ADDRESS":"台北市文山區木柵路3段27號","TEL":"(02)2939-2781","COUNTYNAME":"台北市","TOWNNAME":"文山區","MARKTYPE":"994","Class":"4"},"geometry":{"x":121.56543682872916,"y":24.988496148058402}},{"attributes":{"OBJECTID":9870,"LANDMARKID":"6300000003082","LANDMARKCO":"408","LANDMARKNA":"郵局-文山指南郵局","LANDMARKAD":"6300008","ADDRESS":"台北市文山區指南路2段115號","TEL":"(02)2939-3767","COUNTYNAME":"台北市","TOWNNAME":"文山區","MARKTYPE":"994","Class":"4"},"geometry":{"x":121.57633518004573,"y":24.987642503457455}},{"attributes":{"OBJECTID":9871,"LANDMARKID":"6300000003083","LANDMARKCO":"408","LANDMARKNA":"郵局-文山溝子口郵局","LANDMARKAD":"6300008","ADDRESS":"台北市文山區木柵路1段119號","TEL":"(02)2236-0561","COUNTYNAME":"台北市","TOWNNAME":"文山區","MARKTYPE":"994","Class":"4"},"geometry":{"x":121.54848735109596,"y":24.987314897666955}},{"attributes":{"OBJECTID":9872,"LANDMARKID":"6300000003084","LANDMARKCO":"408","LANDMARKNA":"郵局-文山木新郵局","LANDMARKAD":"6300008","ADDRESS":"台北市文山區木新路3段329號","TEL":"(02)2936-0439","COUNTYNAME":"台北市","TOWNNAME":"文山區","MARKTYPE":"994","Class":"4"},"geometry":{"x":121.55629862648509,"y":24.980471574820427}},{"attributes":{"OBJECTID":9873,"LANDMARKID":"6300000003085","LANDMARKCO":"408","LANDMARKNA":"郵局-世新大學郵局","LANDMARKAD":"6300008","ADDRESS":"台北市文山區木柵路1段17巷1號","TEL":"(02)2236-4310","COUNTYNAME":"台北市","TOWNNAME":"文山區","MARKTYPE":"994","Class":"4"},"geometry":{"x":121.54411062895302,"y":24.988617749822122}},{"attributes":{"OBJECTID":9874,"LANDMARKID":"6300000003086","LANDMARKCO":"408","LANDMARKNA":"郵局-文山樟腳里郵局","LANDMARKAD":"6300008","ADDRESS":"台北市文山區木新路3段25號","TEL":"(02)2939-9424","COUNTYNAME":"台北市","TOWNNAME":"文山區","MARKTYPE":"994","Class":"4"},"geometry":{"x":121.56474386313282,"y":24.982515762027919}},{"attributes":{"OBJECTID":9875,"LANDMARKID":"6300000003087","LANDMARKCO":"408","LANDMARKNA":"郵局-政大郵局","LANDMARKAD":"6300008","ADDRESS":"台北市文山區指南路2段64號(國立政治大學藝文中心內)","TEL":"(02)2938-7146","COUNTYNAME":"台北市","TOWNNAME":"文山區","MARKTYPE":"994","Class":"4"},"geometry":{"x":121.57652127337224,"y":24.98741535512487}},{"attributes":{"OBJECTID":9876,"LANDMARKID":"6300000003088","LANDMARKCO":"408","LANDMARKNA":"郵局-文山萬美街郵局","LANDMARKAD":"6300008","ADDRESS":"台北市文山區萬美街1段51號","TEL":"(02)2230-8803","COUNTYNAME":"台北市","TOWNNAME":"文山區","MARKTYPE":"994","Class":"4"},"geometry":{"x":121.56850138427357,"y":25.002296336508497}},{"attributes":{"OBJECTID":9877,"LANDMARKID":"6300000003089","LANDMARKCO":"408","LANDMARKNA":"郵局-文山景美郵局","LANDMARKAD":"6300008","ADDRESS":"台北市文山區羅斯福路6段389號","TEL":"(02)2931-2010","COUNTYNAME":"台北市","TOWNNAME":"文山區","MARKTYPE":"994","Class":"4"},"geometry":{"x":121.54082395780414,"y":24.992571058392397}},{"attributes":{"OBJECTID":9878,"LANDMARKID":"6300000003090","LANDMARKCO":"409","LANDMARKNA":"台北市景美區農會","LANDMARKAD":"6300008","ADDRESS":"台北市文山區景文街1號","TEL":"02-29313446","COUNTYNAME":"台北市","TOWNNAME":"文山區","MARKTYPE":"994","Class":"4"},"geometry":{"x":121.54143803153913,"y":24.994547727917659}},{"attributes":{"OBJECTID":9879,"LANDMARKID":"6300000003091","LANDMARKCO":"409","LANDMARKNA":"木柵區農會","LANDMARKAD":"6300008","ADDRESS":"台北市文山區木柵路三段77號","TEL":"02-293980","COUNTYNAME":"台北市","TOWNNAME":"文山區","MARKTYPE":"994","Class":"4"},"geometry":{"x":121.56717214498218,"y":24.98875815307284}},{"attributes":{"OBJECTID":9880,"LANDMARKID":"6300000002743","LANDMARKCO":"406","LANDMARKNA":"興旺公園","LANDMARKAD":"6300008","ADDRESS":"台北市文山區","TEL":" ","COUNTYNAME":"台北市","TOWNNAME":"文山區","MARKTYPE":"994","Class":"4"},"geometry":{"x":121.55054300852974,"y":25.005910333371716}},{"attributes":{"OBJECTID":9881,"LANDMARKID":"6300000002744","LANDMARKCO":"406","LANDMARKNA":"萬年公園","LANDMARKAD":"6300008","ADDRESS":"台北市文山區","TEL":" ","COUNTYNAME":"台北市","TOWNNAME":"文山區","MARKTYPE":"994","Class":"4"},"geometry":{"x":121.53661883012771,"y":25.005670906614352}},{"attributes":{"OBJECTID":9882,"LANDMARKID":"6300000002745","LANDMARKCO":"406","LANDMARKNA":"第十一號公園","LANDMARKAD":"6300008","ADDRESS":"台北市文山區","TEL":" ","COUNTYNAME":"台北市","TOWNNAME":"文山區","MARKTYPE":"994","Class":"4"},"geometry":{"x":121.53620132016626,"y":25.003992548972683}},{"attributes":{"OBJECTID":9883,"LANDMARKID":"6300000002746","LANDMARKCO":"406","LANDMARKNA":"萬芳八號公園","LANDMARKAD":"6300008","ADDRESS":"台北市文山區","TEL":" ","COUNTYNAME":"台北市","TOWNNAME":"文山區","MARKTYPE":"994","Class":"4"},"geometry":{"x":121.56005109079467,"y":25.003078398079602}},{"attributes":{"OBJECTID":9884,"LANDMARKID":"6300000002747","LANDMARKCO":"406","LANDMARKNA":"萬芳十一號公園","LANDMARKAD":"6300008","ADDRESS":"台北市文山區","TEL":" ","COUNTYNAME":"台北市","TOWNNAME":"文山區","MARKTYPE":"994","Class":"4"},"geometry":{"x":121.56406738776823,"y":25.002702453857204}},{"attributes":{"OBJECTID":9885,"LANDMARKID":"6300000002748","LANDMARKCO":"406","LANDMARKNA":"第十號公園","LANDMARKAD":"6300008","ADDRESS":"台北市文山區","TEL":" ","COUNTYNAME":"台北市","TOWNNAME":"文山區","MARKTYPE":"994","Class":"4"},"geometry":{"x":121.53658001735441,"y":25.002625127293207}},{"attributes":{"OBJECTID":9886,"LANDMARKID":"6300000002749","LANDMARKCO":"406","LANDMARKNA":"萬芳九號公園","LANDMARKAD":"6300008","ADDRESS":"台北市文山區","TEL":" ","COUNTYNAME":"台北市","TOWNNAME":"文山區","MARKTYPE":"994","Class":"4"},"geometry":{"x":121.56098655574544,"y":25.001960793772323}},{"attributes":{"OBJECTID":9887,"LANDMARKID":"6300000002750","LANDMARKCO":"406","LANDMARKNA":"萬康公園","LANDMARKAD":"6300008","ADDRESS":"台北市文山區","TEL":" ","COUNTYNAME":"台北市","TOWNNAME":"文山區","MARKTYPE":"994","Class":"4"},"geometry":{"x":121.53713904684108,"y":25.001838015948749}},{"attributes":{"OBJECTID":9888,"LANDMARKID":"6300000002751","LANDMARKCO":"406","LANDMARKNA":"博嘉公園","LANDMARKAD":"6300008","ADDRESS":"台北市文山區","TEL":" ","COUNTYNAME":"台北市","TOWNNAME":"文山區","MARKTYPE":"994","Class":"4"},"geometry":{"x":121.57345922045187,"y":25.000603603831376}},{"attributes":{"OBJECTID":9889,"LANDMARKID":"6300000002752","LANDMARKCO":"406","LANDMARKNA":"萬有二號公園","LANDMARKAD":"6300008","ADDRESS":"台北市文山區","TEL":" ","COUNTYNAME":"台北市","TOWNNAME":"文山區","MARKTYPE":"994","Class":"4"},"geometry":{"x":121.54170840337216,"y":25.000528517223138}},{"attributes":{"OBJECTID":9890,"LANDMARKID":"6300000002753","LANDMARKCO":"406","LANDMARKNA":"萬有公園","LANDMARKAD":"6300008","ADDRESS":"台北市文山區","TEL":" ","COUNTYNAME":"台北市","TOWNNAME":"文山區","MARKTYPE":"994","Class":"4"},"geometry":{"x":121.54207850284619,"y":25.000384605980884}},{"attributes":{"OBJECTID":9891,"LANDMARKID":"6300000002754","LANDMARKCO":"406","LANDMARKNA":"興隆公園","LANDMARKAD":"6300008","ADDRESS":"台北市文山區","TEL":" ","COUNTYNAME":"台北市","TOWNNAME":"文山區","MARKTYPE":"994","Class":"4"},"geometry":{"x":121.55127371250678,"y":25.000199842693466}},{"attributes":{"OBJECTID":9892,"LANDMARKID":"6300000002755","LANDMARKCO":"406","LANDMARKNA":"萬盛公園","LANDMARKAD":"6300008","ADDRESS":"台北市文山區","TEL":" ","COUNTYNAME":"台北市","TOWNNAME":"文山區","MARKTYPE":"994","Class":"4"},"geometry":{"x":121.54487662754636,"y":25.000141428041392}},{"attributes":{"OBJECTID":9893,"LANDMARKID":"6300000002756","LANDMARKCO":"406","LANDMARKNA":"景豐公園","LANDMARKAD":"6300008","ADDRESS":"台北市文山區","TEL":" ","COUNTYNAME":"台北市","TOWNNAME":"文山區","MARKTYPE":"994","Class":"4"},"geometry":{"x":121.54272657758406,"y":24.999502960009817}},{"attributes":{"OBJECTID":9894,"LANDMARKID":"6300000002757","LANDMARKCO":"406","LANDMARKNA":"仙岩公園","LANDMARKAD":"6300008","ADDRESS":"台北市文山區","TEL":" ","COUNTYNAME":"台北市","TOWNNAME":"文山區","MARKTYPE":"994","Class":"4"},"geometry":{"x":121.54937266329978,"y":24.998190199500833}},{"attributes":{"OBJECTID":9895,"LANDMARKID":"6300000002758","LANDMARKCO":"406","LANDMARKNA":"興福公園","LANDMARKAD":"6300008","ADDRESS":"台北市文山區","TEL":" ","COUNTYNAME":"台北市","TOWNNAME":"文山區","MARKTYPE":"994","Class":"4"},"geometry":{"x":121.54602328960827,"y":24.996965046845389}},{"attributes":{"OBJECTID":9896,"LANDMARKID":"6300000002759","LANDMARKCO":"406","LANDMARKNA":"景仁公園","LANDMARKAD":"6300008","ADDRESS":"台北市文山區","TEL":" ","COUNTYNAME":"台北市","TOWNNAME":"文山區","MARKTYPE":"994","Class":"4"},"geometry":{"x":121.54012617472021,"y":24.996706503671103}},{"attributes":{"OBJECTID":9897,"LANDMARKID":"6300000002760","LANDMARKCO":"406","LANDMARKNA":"文山一號公園","LANDMARKAD":"6300008","ADDRESS":"台北市文山區","TEL":" ","COUNTYNAME":"台北市","TOWNNAME":"文山區","MARKTYPE":"994","Class":"4"},"geometry":{"x":121.54376065201748,"y":24.995618783047725}},{"attributes":{"OBJECTID":9898,"LANDMARKID":"6300000002761","LANDMARKCO":"406","LANDMARKNA":"景行公園","LANDMARKAD":"6300008","ADDRESS":"台北市文山區","TEL":" ","COUNTYNAME":"台北市","TOWNNAME":"文山區","MARKTYPE":"994","Class":"4"},"geometry":{"x":121.54301724366995,"y":24.99247318162951}},{"attributes":{"OBJECTID":9899,"LANDMARKID":"6300000002762","LANDMARKCO":"406","LANDMARKNA":"華興公園","LANDMARKAD":"6300008","ADDRESS":"台北市文山區","TEL":" ","COUNTYNAME":"台北市","TOWNNAME":"文山區","MARKTYPE":"994","Class":"4"},"geometry":{"x":121.55067804415017,"y":24.989562991272511}},{"attributes":{"OBJECTID":9900,"LANDMARKID":"6300000002763","LANDMARKCO":"406","LANDMARKNA":"久康公園","LANDMARKAD":"6300008","ADDRESS":"台北市文山區","TEL":" ","COUNTYNAME":"台北市","TOWNNAME":"文山區","MARKTYPE":"994","Class":"4"},"geometry":{"x":121.56455144689536,"y":24.98913082295871}},{"attributes":{"OBJECTID":9901,"LANDMARKID":"6300000002764","LANDMARKCO":"406","LANDMARKNA":"景美河濱公園","LANDMARKAD":"6300008","ADDRESS":"台北市文山區","TEL":" ","COUNTYNAME":"台北市","TOWNNAME":"文山區","MARKTYPE":"994","Class":"4"},"geometry":{"x":121.53707878892754,"y":24.988822619101764}},{"attributes":{"OBJECTID":9902,"LANDMARKID":"6300000002765","LANDMARKCO":"406","LANDMARKNA":"試院公園","LANDMARKAD":"6300008","ADDRESS":"台北市文山區","TEL":" ","COUNTYNAME":"台北市","TOWNNAME":"文山區","MARKTYPE":"994","Class":"4"},"geometry":{"x":121.54745376651543,"y":24.987360924501008}},{"attributes":{"OBJECTID":9903,"LANDMARKID":"6300000002766","LANDMARKCO":"406","LANDMARKNA":"木柵一號公園","LANDMARKAD":"6300008","ADDRESS":"台北市文山區","TEL":" ","COUNTYNAME":"台北市","TOWNNAME":"文山區","MARKTYPE":"994","Class":"4"},"geometry":{"x":121.55963624593815,"y":24.98703305750275}},{"attributes":{"OBJECTID":9904,"LANDMARKID":"6300000002767","LANDMARKCO":"406","LANDMARKNA":"木南公園","LANDMARKAD":"6300008","ADDRESS":"台北市文山區","TEL":" ","COUNTYNAME":"台北市","TOWNNAME":"文山區","MARKTYPE":"994","Class":"4"},"geometry":{"x":121.57094159242445,"y":24.986745524873065}},{"attributes":{"OBJECTID":9905,"LANDMARKID":"6300000002768","LANDMARKCO":"406","LANDMARKNA":"安康公園","LANDMARKAD":"6300008","ADDRESS":"台北市文山區","TEL":" ","COUNTYNAME":"台北市","TOWNNAME":"文山區","MARKTYPE":"994","Class":"4"},"geometry":{"x":121.55744661076092,"y":24.986779212776085}},{"attributes":{"OBJECTID":9906,"LANDMARKID":"6300000002769","LANDMARKCO":"406","LANDMARKNA":"光輝公園","LANDMARKAD":"6300008","ADDRESS":"台北市文山區","TEL":" ","COUNTYNAME":"台北市","TOWNNAME":"文山區","MARKTYPE":"994","Class":"4"},"geometry":{"x":121.5554918774554,"y":24.986140567871601}},{"attributes":{"OBJECTID":9907,"LANDMARKID":"6300000002770","LANDMARKCO":"406","LANDMARKNA":"保儀公園","LANDMARKAD":"6300008","ADDRESS":"台北市文山區","TEL":" ","COUNTYNAME":"台北市","TOWNNAME":"文山區","MARKTYPE":"994","Class":"4"},"geometry":{"x":121.5634601373271,"y":24.983570854267416}},{"attributes":{"OBJECTID":9908,"LANDMARKID":"6300000002771","LANDMARKCO":"406","LANDMARKNA":"新榮公園","LANDMARKAD":"6300008","ADDRESS":"台北市文山區","TEL":" ","COUNTYNAME":"台北市","TOWNNAME":"文山區","MARKTYPE":"994","Class":"4"},"geometry":{"x":121.57036553447213,"y":24.983445928805939}},{"attributes":{"OBJECTID":9909,"LANDMARKID":"6300000002772","LANDMARKCO":"406","LANDMARKNA":"忠順公園","LANDMARKAD":"6300008","ADDRESS":"台北市文山區","TEL":" ","COUNTYNAME":"台北市","TOWNNAME":"文山區","MARKTYPE":"994","Class":"4"},"geometry":{"x":121.56120744262954,"y":24.983092035748363}},{"attributes":{"OBJECTID":9910,"LANDMARKID":"6300000002773","LANDMARKCO":"406","LANDMARKNA":"樟新公園","LANDMARKAD":"6300008","ADDRESS":"台北市文山區","TEL":" ","COUNTYNAME":"台北市","TOWNNAME":"文山區","MARKTYPE":"994","Class":"4"},"geometry":{"x":121.55922852807345,"y":24.982753592643672}},{"attributes":{"OBJECTID":9911,"LANDMARKID":"6300000002774","LANDMARKCO":"406","LANDMARKNA":"木新公園","LANDMARKAD":"6300008","ADDRESS":"台北市文山區","TEL":" ","COUNTYNAME":"台北市","TOWNNAME":"文山區","MARKTYPE":"994","Class":"4"},"geometry":{"x":121.55803225446061,"y":24.982209688082289}},{"attributes":{"OBJECTID":9912,"LANDMARKID":"6300000002775","LANDMARKCO":"406","LANDMARKNA":"三角公園","LANDMARKAD":"6300008","ADDRESS":"台北市文山區","TEL":" ","COUNTYNAME":"台北市","TOWNNAME":"文山區","MARKTYPE":"994","Class":"4"},"geometry":{"x":121.55948577280252,"y":24.98057084827547}},{"attributes":{"OBJECTID":9913,"LANDMARKID":"6300000002776","LANDMARKCO":"406","LANDMARKNA":"堤外公園","LANDMARKAD":"6300008","ADDRESS":"台北市文山區","TEL":" ","COUNTYNAME":"台北市","TOWNNAME":"文山區","MARKTYPE":"994","Class":"4"},"geometry":{"x":121.55439021646384,"y":24.977690991443716}},{"attributes":{"OBJECTID":9914,"LANDMARKID":"6300000002777","LANDMARKCO":"406","LANDMARKNA":"道南河濱公園","LANDMARKAD":"6300008","ADDRESS":"台北市文山區","TEL":" ","COUNTYNAME":"台北市","TOWNNAME":"文山區","MARKTYPE":"994","Class":"4"},"geometry":{"x":121.56330039540943,"y":24.980023538757337}},{"attributes":{"OBJECTID":9915,"LANDMARKID":"6300000002778","LANDMARKCO":"406","LANDMARKNA":"木柵河濱公園","LANDMARKAD":"6300008","ADDRESS":"台北市文山區","TEL":" ","COUNTYNAME":"台北市","TOWNNAME":"文山區","MARKTYPE":"994","Class":"4"},"geometry":{"x":121.54477890369175,"y":24.985250672679676}},{"attributes":{"OBJECTID":9916,"LANDMARKID":"6300000002779","LANDMARKCO":"406","LANDMARKNA":"新店河濱公園","LANDMARKAD":"6300008","ADDRESS":"台北市文山區","TEL":" ","COUNTYNAME":"台北市","TOWNNAME":"文山區","MARKTYPE":"994","Class":"4"},"geometry":{"x":121.53338914378126,"y":24.995916076753929}},{"attributes":{"OBJECTID":9917,"LANDMARKID":"6300000002780","LANDMARKCO":"406","LANDMARKNA":"福和河濱公園","LANDMARKAD":"6300008","ADDRESS":"台北市文山區","TEL":" ","COUNTYNAME":"台北市","TOWNNAME":"文山區","MARKTYPE":"994","Class":"4"},"geometry":{"x":121.53491962614413,"y":25.003453403528571}},{"attributes":{"OBJECTID":9918,"LANDMARKID":"6300000002781","LANDMARKCO":"406","LANDMARKNA":"福德坑環保公園","LANDMARKAD":"6300008","ADDRESS":"台北市木柵路五段43巷","TEL":"02-82301969","COUNTYNAME":"台北市","TOWNNAME":"文山區","MARKTYPE":"994","Class":"4"},"geometry":{"x":121.58890745393148,"y":25.010227946685102}},{"attributes":{"OBJECTID":9919,"LANDMARKID":"6300000002413","LANDMARKCO":"405","LANDMARKNA":"台塑加油站-政大站(台塑)","LANDMARKAD":"6300008","ADDRESS":"台北市文山區指南路一段53號","TEL":"02-29398177","COUNTYNAME":"台北市","TOWNNAME":"文山區","MARKTYPE":"994","Class":"4"},"geometry":{"x":121.5708291769849,"y":24.987834624954477}},{"attributes":{"OBJECTID":9920,"LANDMARKID":"6300000002414","LANDMARKCO":"405","LANDMARKNA":"台塑加油站-福華站(台塑)","LANDMARKAD":"6300008","ADDRESS":"台北市文山區興隆路二段244巷1號","TEL":"02-29347533","COUNTYNAME":"台北市","TOWNNAME":"文山區","MARKTYPE":"994","Class":"4"},"geometry":{"x":121.55394859901286,"y":25.000875758839204}},{"attributes":{"OBJECTID":9921,"LANDMARKID":"6300000002415","LANDMARKCO":"405","LANDMARKNA":"全國加油站-景美站（台塑）","LANDMARKAD":"6300008","ADDRESS":"台北市文山區羅斯福路六段140號2樓","TEL":"02-29356519","COUNTYNAME":"台北市","TOWNNAME":"文山區","MARKTYPE":"994","Class":"4"},"geometry":{"x":121.54070885045037,"y":24.99627466274567}},{"attributes":{"OBJECTID":9922,"LANDMARKID":"6300000000109","LANDMARKCO":"101","LANDMARKNA":"公務人員保障暨培訓委員會","LANDMARKAD":"6300008","ADDRESS":"台北市文山區試院路一之三號","TEL":"02-82367000","COUNTYNAME":"台北市","TOWNNAME":"文山區","MARKTYPE":"991","Class":"1"},"geometry":{"x":121.54937733701465,"y":24.988256301037804}},{"attributes":{"OBJECTID":9923,"LANDMARKID":"6300000000110","LANDMARKCO":"101","LANDMARKNA":"公務人員退休撫卹基金監理委員","LANDMARKAD":"6300008","ADDRESS":"台北市文山區試院路1號傳賢樓3樓?","TEL":"02-82367300","COUNTYNAME":"台北市","TOWNNAME":"文山區","MARKTYPE":"991","Class":"1"},"geometry":{"x":121.54930446430235,"y":24.987475893313935}},{"attributes":{"OBJECTID":9924,"LANDMARKID":"6300000000111","LANDMARKCO":"101","LANDMARKNA":"考試院","LANDMARKAD":"6300008","ADDRESS":"台北市文山區試院路1號","TEL":"02-82366000","COUNTYNAME":"台北市","TOWNNAME":"文山區","MARKTYPE":"991","Class":"1"},"geometry":{"x":121.54930446430235,"y":24.987475893313935}},{"attributes":{"OBJECTID":9925,"LANDMARKID":"6300000000112","LANDMARKCO":"101","LANDMARKNA":"銓敘部","LANDMARKAD":"6300008","ADDRESS":"台北市文山區試院路1之2號","TEL":"02-82366666","COUNTYNAME":"台北市","TOWNNAME":"文山區","MARKTYPE":"991","Class":"1"},"geometry":{"x":121.54872653344567,"y":24.988662861751951}},{"attributes":{"OBJECTID":9926,"LANDMARKID":"6300000000113","LANDMARKCO":"101","LANDMARKNA":"考選部","LANDMARKAD":"6300008","ADDRESS":"台北市文山區試院路1-1號","TEL":"02-22369188","COUNTYNAME":"台北市","TOWNNAME":"文山區","MARKTYPE":"991","Class":"1"},"geometry":{"x":121.5489658353021,"y":24.987932063083104}},{"attributes":{"OBJECTID":9927,"LANDMARKID":"6300000000185","LANDMARKCO":"105","LANDMARKNA":"台北市古亭地政事務所","LANDMARKAD":"6300008","ADDRESS":"臺北市文山區萬隆街47之12號3至4樓","TEL":"02-29355369","COUNTYNAME":"台北市","TOWNNAME":"文山區","MARKTYPE":"991","Class":"1"},"geometry":{"x":121.53672017779935,"y":25.000798633848479}},{"attributes":{"OBJECTID":9928,"LANDMARKID":"6300000000200","LANDMARKCO":"106","LANDMARKNA":"台北市文山二戶政事務所","LANDMARKAD":"6300008","ADDRESS":"台北市文山區興業里2鄰興隆路二段160號3樓","TEL":"02-29314505","COUNTYNAME":"台北市","TOWNNAME":"文山區","MARKTYPE":"991","Class":"1"},"geometry":{"x":121.55141209462782,"y":25.001554411356704}},{"attributes":{"OBJECTID":9929,"LANDMARKID":"6300000000224","LANDMARKCO":"107","LANDMARKNA":"台北市政府警察局文山第二分局","LANDMARKAD":"6300008","ADDRESS":"台北市文山區景中街2號","TEL":"02-29313843","COUNTYNAME":"台北市","TOWNNAME":"文山區","MARKTYPE":"991","Class":"1"},"geometry":{"x":121.54110588518002,"y":24.992755410712334}},{"attributes":{"OBJECTID":9930,"LANDMARKID":"6300000000225","LANDMARKCO":"107","LANDMARKNA":"台北市政府警察局萬盛派出所","LANDMARKAD":"6300008","ADDRESS":"台北市文山區萬祥里羅斯福路五段151號","TEL":"02-29312502","COUNTYNAME":"台北市","TOWNNAME":"文山區","MARKTYPE":"991","Class":"1"},"geometry":{"x":121.53893533712061,"y":25.003900588908468}},{"attributes":{"OBJECTID":9931,"LANDMARKID":"6300000000226","LANDMARKCO":"107","LANDMARKNA":"台北市政府警察局景美派出所","LANDMARKAD":"6300008","ADDRESS":"台北市文山區景行里景中街2號","TEL":"02-29313459","COUNTYNAME":"台北市","TOWNNAME":"文山區","MARKTYPE":"991","Class":"1"},"geometry":{"x":121.54110588518002,"y":24.992755410712334}},{"attributes":{"OBJECTID":9932,"LANDMARKID":"6300000000227","LANDMARKCO":"107","LANDMARKNA":"台北市政府警察局興隆派出所","LANDMARKAD":"6300008","ADDRESS":"台北市文山區萬祥里興隆路二段156號","TEL":"02-29313842","COUNTYNAME":"台北市","TOWNNAME":"文山區","MARKTYPE":"991","Class":"1"},"geometry":{"x":121.55120074425616,"y":25.001531150090432}},{"attributes":{"OBJECTID":9933,"LANDMARKID":"6300000000228","LANDMARKCO":"107","LANDMARKNA":"台北市政府警察局木新派出所","LANDMARKAD":"6300008","ADDRESS":"台北市文山區樟腳里木新路三段147號","TEL":"02-29372488","COUNTYNAME":"台北市","TOWNNAME":"文山區","MARKTYPE":"991","Class":"1"},"geometry":{"x":121.56144066989813,"y":24.981758340620612}},{"attributes":{"OBJECTID":9934,"LANDMARKID":"6300000000229","LANDMARKCO":"107","LANDMARKNA":"台北市政府警察局指南派出所","LANDMARKAD":"6300008","ADDRESS":"台北市文山區萬興里指南路二段177號","TEL":"02-29382712","COUNTYNAME":"台北市","TOWNNAME":"文山區","MARKTYPE":"991","Class":"1"},"geometry":{"x":121.57794483105511,"y":24.987311245568275}},{"attributes":{"OBJECTID":9935,"LANDMARKID":"6300000000230","LANDMARKCO":"107","LANDMARKNA":"台北市政府警察局萬芳派出所","LANDMARKAD":"6300008","ADDRESS":"台北市文山區萬美里萬美街一段50號","TEL":"02-22391753","COUNTYNAME":"台北市","TOWNNAME":"文山區","MARKTYPE":"991","Class":"1"},"geometry":{"x":121.56683145119793,"y":25.002266198858422}},{"attributes":{"OBJECTID":9936,"LANDMARKID":"6300000000231","LANDMARKCO":"107","LANDMARKNA":"內政部警政署警察電訊所","LANDMARKAD":"6300008","ADDRESS":"台北市文山區萬盛里萬盛街15號之1","TEL":"02-29310572","COUNTYNAME":"台北市","TOWNNAME":"文山區","MARKTYPE":"991","Class":"1"},"geometry":{"x":121.53984684375411,"y":25.007101223079303}},{"attributes":{"OBJECTID":9937,"LANDMARKID":"6300000000232","LANDMARKCO":"107","LANDMARKNA":"國公路第九警察隊木柵分隊","LANDMARKAD":"6300008","ADDRESS":"台北市文山區萬興里新光路二段96號","TEL":"02-22393815","COUNTYNAME":"台北市","TOWNNAME":"文山區","MARKTYPE":"991","Class":"1"},"geometry":{"x":121.5971723881073,"y":24.999826015658797}},{"attributes":{"OBJECTID":9938,"LANDMARKID":"6300000000233","LANDMARKCO":"107","LANDMARKNA":"台北市消防局萬芳消防分隊","LANDMARKAD":"6300008","ADDRESS":"台北市文山區萬美街一段52號","TEL":"02-22305720","COUNTYNAME":"台北市","TOWNNAME":"文山區","MARKTYPE":"991","Class":"1"},"geometry":{"x":121.56669901237892,"y":25.002206266703023}},{"attributes":{"OBJECTID":9939,"LANDMARKID":"6300000000234","LANDMARKCO":"107","LANDMARKNA":"台北市消防局景美消防分隊","LANDMARKAD":"6300008","ADDRESS":"台北市文山區景文街30號","TEL":"02-29311405","COUNTYNAME":"台北市","TOWNNAME":"文山區","MARKTYPE":"991","Class":"1"},"geometry":{"x":121.54120017125965,"y":24.992280740627756}},{"attributes":{"OBJECTID":9940,"LANDMARKID":"6300000000114","LANDMARKCO":"101","LANDMARKNA":"國道高速公路局北區工程處木柵","LANDMARKAD":"6300008","ADDRESS":"台北市文山區新光路二段100號","TEL":"02-22308308轉32","COUNTYNAME":"台北市","TOWNNAME":"文山區","MARKTYPE":"991","Class":"1"},"geometry":{"x":121.59723599548542,"y":24.999974310800038}},{"attributes":{"OBJECTID":9941,"LANDMARKID":"6300000000115","LANDMARKCO":"101","LANDMARKNA":"海岸巡防署","LANDMARKAD":"6300008","ADDRESS":"台北市文山區興隆路三段296號之1","TEL":"02-22399201","COUNTYNAME":"台北市","TOWNNAME":"文山區","MARKTYPE":"991","Class":"1"},"geometry":{"x":121.55956950077535,"y":24.995468921385559}},{"attributes":{"OBJECTID":9942,"LANDMARKID":"6300000000116","LANDMARKCO":"103","LANDMARKNA":"台北市政府公務人員訓練中心","LANDMARKAD":"6300008","ADDRESS":"台北市文山區萬美街二段21巷20號","TEL":"02-29320212#3","COUNTYNAME":"台北市","TOWNNAME":"文山區","MARKTYPE":"991","Class":"1"},"geometry":{"x":121.56079690589659,"y":25.003413429512371}},{"attributes":{"OBJECTID":9943,"LANDMARKID":"6300000000782","LANDMARKCO":"205","LANDMARKNA":"國立政治大學民族學博物館","LANDMARKAD":"6300008","ADDRESS":"台北市文山區指南路二段64號綜合院館南棟5樓","TEL":"02-29393091","COUNTYNAME":"台北市","TOWNNAME":"文山區","MARKTYPE":"992","Class":"2"},"geometry":{"x":121.57353155852931,"y":24.985814936477009}},{"attributes":{"OBJECTID":9944,"LANDMARKID":"6300000000783","LANDMARKCO":"205","LANDMARKNA":"鼎銘畫陳列館","LANDMARKAD":"6300008","ADDRESS":"台北市辛亥路七段63號","TEL":" ","COUNTYNAME":"台北市","TOWNNAME":"文山區","MARKTYPE":"992","Class":"2"},"geometry":{"x":121.55441116172027,"y":24.983928851706995}},{"attributes":{"OBJECTID":9945,"LANDMARKID":"6300000000753","LANDMARKCO":"204","LANDMARKNA":"台北市立圖書館景美分館","LANDMARKAD":"6300008","ADDRESS":"台北市文山區羅斯福路五段176巷50號2~4樓","TEL":" ","COUNTYNAME":"台北市","TOWNNAME":"文山區","MARKTYPE":"992","Class":"2"},"geometry":{"x":121.53657163067807,"y":25.003893551882168}},{"attributes":{"OBJECTID":9946,"LANDMARKID":"6300000000754","LANDMARKCO":"204","LANDMARKNA":"台北市立圖書館木柵分館","LANDMARKAD":"6300008","ADDRESS":"台北市文山區保儀路13巷3號3~4樓","TEL":" ","COUNTYNAME":"台北市","TOWNNAME":"文山區","MARKTYPE":"992","Class":"2"},"geometry":{"x":121.56921643040609,"y":24.988478087674146}},{"attributes":{"OBJECTID":9947,"LANDMARKID":"6300000000755","LANDMARKCO":"204","LANDMARKNA":"台北市立圖書館萬興分館","LANDMARKAD":"6300008","ADDRESS":"台北市文山區萬壽路27號4~5樓","TEL":" ","COUNTYNAME":"台北市","TOWNNAME":"文山區","MARKTYPE":"992","Class":"2"},"geometry":{"x":121.5765251199728,"y":24.988500938710061}},{"attributes":{"OBJECTID":9948,"LANDMARKID":"6300000000756","LANDMARKCO":"204","LANDMARKNA":"台北市立圖書館文山分館","LANDMARKAD":"6300008","ADDRESS":"台北市文山區興隆路二段160號7~9樓","TEL":" ","COUNTYNAME":"台北市","TOWNNAME":"文山區","MARKTYPE":"992","Class":"2"},"geometry":{"x":121.55142877255639,"y":25.001556851222016}},{"attributes":{"OBJECTID":9949,"LANDMARKID":"6300000000757","LANDMARKCO":"204","LANDMARKNA":"台北市立圖書館力行分館","LANDMARKAD":"6300008","ADDRESS":"台北市文山區一壽街22號5~8樓","TEL":" ","COUNTYNAME":"台北市","TOWNNAME":"文山區","MARKTYPE":"992","Class":"2"},"geometry":{"x":121.55629897811254,"y":24.979707557072054}},{"attributes":{"OBJECTID":9950,"LANDMARKID":"6300000000758","LANDMARKCO":"204","LANDMARKNA":"台北市立圖書館景新分館","LANDMARKAD":"6300008","ADDRESS":"台北市文山區景後街151號5~10樓","TEL":" ","COUNTYNAME":"台北市","TOWNNAME":"文山區","MARKTYPE":"992","Class":"2"},"geometry":{"x":121.54181961607954,"y":24.99214623047283}},{"attributes":{"OBJECTID":9951,"LANDMARKID":"6300000000759","LANDMARKCO":"204","LANDMARKNA":"台北市立圖書館安康民眾閱覽室","LANDMARKAD":"6300008","ADDRESS":"台北市文山區興隆路四段105巷1號4樓","TEL":" ","COUNTYNAME":"台北市","TOWNNAME":"文山區","MARKTYPE":"992","Class":"2"},"geometry":{"x":121.56089165215533,"y":24.987753100333084}},{"attributes":{"OBJECTID":9952,"LANDMARKID":"6300000000760","LANDMARKCO":"204","LANDMARKNA":"台北市立圖書館萬芳民眾閱覽室","LANDMARKAD":"6300008","ADDRESS":"台北市文山區萬和街8號3樓","TEL":" ","COUNTYNAME":"台北市","TOWNNAME":"文山區","MARKTYPE":"992","Class":"2"},"geometry":{"x":121.56779510687809,"y":25.001929312035983}},{"attributes":{"OBJECTID":9953,"LANDMARKID":"6300000000572","LANDMARKCO":"203","LANDMARKNA":"國立政大附設實驗國小","LANDMARKAD":"6300008","ADDRESS":"台北市文山區指南路三段12號","TEL":"02-29393610","COUNTYNAME":"台北市","TOWNNAME":"文山區","MARKTYPE":"992","Class":"2"},"geometry":{"x":121.57977408852305,"y":24.984875740916003}},{"attributes":{"OBJECTID":9954,"LANDMARKID":"6300000000573","LANDMARKCO":"203","LANDMARKNA":"市立景美國小","LANDMARKAD":"6300008","ADDRESS":"台北市文山區景行里景文街108號","TEL":"02-29314212","COUNTYNAME":"台北市","TOWNNAME":"文山區","MARKTYPE":"992","Class":"2"},"geometry":{"x":121.54027231381704,"y":24.989466191848489}},{"attributes":{"OBJECTID":9955,"LANDMARKID":"6300000000574","LANDMARKCO":"203","LANDMARKNA":"市立溪口國小","LANDMARKAD":"6300008","ADDRESS":"台北市文山區景慶里景福街225號","TEL":"02-29350954","COUNTYNAME":"台北市","TOWNNAME":"文山區","MARKTYPE":"992","Class":"2"},"geometry":{"x":121.53916282996225,"y":24.99425918224005}},{"attributes":{"OBJECTID":9956,"LANDMARKID":"6300000000575","LANDMARKCO":"203","LANDMARKNA":"市立永建國小","LANDMARKAD":"6300008","ADDRESS":"台北市文山區華興里試院路2號","TEL":"02-22363855","COUNTYNAME":"台北市","TOWNNAME":"文山區","MARKTYPE":"992","Class":"2"},"geometry":{"x":121.55036469947859,"y":24.987898113573497}},{"attributes":{"OBJECTID":9957,"LANDMARKID":"6300000000576","LANDMARKCO":"203","LANDMARKNA":"市立興德國小","LANDMARKAD":"6300008","ADDRESS":"台北市文山區興豐里興隆路二段235號","TEL":"02-29329431","COUNTYNAME":"台北市","TOWNNAME":"文山區","MARKTYPE":"992","Class":"2"},"geometry":{"x":121.5511332635003,"y":25.002156856757455}},{"attributes":{"OBJECTID":9958,"LANDMARKID":"6300000000577","LANDMARKCO":"203","LANDMARKNA":"市立明道國小","LANDMARKAD":"6300008","ADDRESS":"台北市文山區興隆路四段109巷81號","TEL":"02-29392821","COUNTYNAME":"台北市","TOWNNAME":"文山區","MARKTYPE":"992","Class":"2"},"geometry":{"x":121.56348603729693,"y":24.987480252477539}},{"attributes":{"OBJECTID":9959,"LANDMARKID":"6300000000578","LANDMARKCO":"203","LANDMARKNA":"市立博嘉國小","LANDMARKAD":"6300008","ADDRESS":"台北市文山區木柵路4段159巷14號之1","TEL":"02-22301524","COUNTYNAME":"台北市","TOWNNAME":"文山區","MARKTYPE":"992","Class":"2"},"geometry":{"x":121.57342625783235,"y":24.997828920056516}},{"attributes":{"OBJECTID":9960,"LANDMARKID":"6300000000471","LANDMARKCO":"202","LANDMARKNA":"市立萬芳高中","LANDMARKAD":"6300008","ADDRESS":"台北市文山區興隆路三段115巷1號","TEL":"02-22309585","COUNTYNAME":"台北市","TOWNNAME":"文山區","MARKTYPE":"992","Class":"2"},"geometry":{"x":121.55878890927232,"y":25.000557605524129}},{"attributes":{"OBJECTID":9961,"LANDMARKID":"6300000000472","LANDMARKCO":"202","LANDMARKNA":"市立景美女中","LANDMARKAD":"6300008","ADDRESS":"台北市文山區木新路三段312號","TEL":"02-29368847","COUNTYNAME":"台北市","TOWNNAME":"文山區","MARKTYPE":"992","Class":"2"},"geometry":{"x":121.55623372317973,"y":24.980736090622816}},{"attributes":{"OBJECTID":9962,"LANDMARKID":"6300000000473","LANDMARKCO":"202","LANDMARKNA":"私立東山中學","LANDMARKAD":"6300008","ADDRESS":"台北市文山區老泉街26巷3號","TEL":"02-29395826","COUNTYNAME":"台北市","TOWNNAME":"文山區","MARKTYPE":"992","Class":"2"},"geometry":{"x":121.56096391182275,"y":24.974167876216345}},{"attributes":{"OBJECTID":9963,"LANDMARKID":"6300000000474","LANDMARKCO":"202","LANDMARKNA":"私立大誠中學","LANDMARKAD":"6300008","ADDRESS":"台北市文山區秀明路二段175號","TEL":"02-22348989","COUNTYNAME":"台北市","TOWNNAME":"文山區","MARKTYPE":"992","Class":"2"},"geometry":{"x":121.57823389725534,"y":24.990976679776431}},{"attributes":{"OBJECTID":9964,"LANDMARKID":"6300000000475","LANDMARKCO":"202","LANDMARKNA":"私立景文高中","LANDMARKAD":"6300008","ADDRESS":"台北市文山區保儀路127號","TEL":"02-29390310","COUNTYNAME":"台北市","TOWNNAME":"文山區","MARKTYPE":"992","Class":"2"},"geometry":{"x":121.5674084721547,"y":24.985363443224415}},{"attributes":{"OBJECTID":9965,"LANDMARKID":"6300000000476","LANDMARKCO":"202","LANDMARKNA":"私立再興中學","LANDMARKAD":"6300008","ADDRESS":"台北市文山區興隆路四段2號","TEL":"02-29369074","COUNTYNAME":"台北市","TOWNNAME":"文山區","MARKTYPE":"992","Class":"2"},"geometry":{"x":121.55912411293251,"y":24.990443621604179}},{"attributes":{"OBJECTID":9966,"LANDMARKID":"6300000000477","LANDMARKCO":"202","LANDMARKNA":"私立滬江中學","LANDMARKAD":"6300008","ADDRESS":"台北市文山區羅斯福路六段336號","TEL":"02-86631122","COUNTYNAME":"台北市","TOWNNAME":"文山區","MARKTYPE":"992","Class":"2"},"geometry":{"x":121.53917331467598,"y":24.989778868875472}},{"attributes":{"OBJECTID":9967,"LANDMARKID":"6300000000478","LANDMARKCO":"202","LANDMARKNA":"國立政大附中","LANDMARKAD":"6300008","ADDRESS":"[116]台北市文山區政大一街353號","TEL":"02-82377500","COUNTYNAME":"台北市","TOWNNAME":"文山區","MARKTYPE":"992","Class":"2"},"geometry":{"x":121.58598254681947,"y":24.987200084905712}},{"attributes":{"OBJECTID":9968,"LANDMARKID":"6300000000479","LANDMARKCO":"202","LANDMARKNA":"市立木柵高工","LANDMARKAD":"6300008","ADDRESS":"台北市文山區木柵路四段77號","TEL":"02-22300506","COUNTYNAME":"台北市","TOWNNAME":"文山區","MARKTYPE":"992","Class":"2"},"geometry":{"x":121.57188898285376,"y":24.99587778655172}},{"attributes":{"OBJECTID":9969,"LANDMARKID":"6300000000548","LANDMARKCO":"203","LANDMARKNA":"市立實踐國中","LANDMARKAD":"6300008","ADDRESS":"台北市文山區辛亥路七段67號","TEL":"02-22362825","COUNTYNAME":"台北市","TOWNNAME":"文山區","MARKTYPE":"992","Class":"2"},"geometry":{"x":121.55474295806688,"y":24.98342725661696}},{"attributes":{"OBJECTID":9970,"LANDMARKID":"6300000000549","LANDMARKCO":"203","LANDMARKNA":"市立北政國中","LANDMARKAD":"6300008","ADDRESS":"台北市文山區指南路三段2巷14號","TEL":"02-29393651","COUNTYNAME":"台北市","TOWNNAME":"文山區","MARKTYPE":"992","Class":"2"},"geometry":{"x":121.57828399188877,"y":24.984884571805413}},{"attributes":{"OBJECTID":9971,"LANDMARKID":"6300000000550","LANDMARKCO":"203","LANDMARKNA":"市立景美國中","LANDMARKAD":"6300008","ADDRESS":"台北市文山區景中街27號","TEL":"02-29326813","COUNTYNAME":"台北市","TOWNNAME":"文山區","MARKTYPE":"992","Class":"2"},"geometry":{"x":121.54295280211539,"y":24.993009346394533}},{"attributes":{"OBJECTID":9972,"LANDMARKID":"6300000000551","LANDMARKCO":"203","LANDMARKNA":"市立景興國中","LANDMARKAD":"6300008","ADDRESS":"台北市文山區景興路46巷2號","TEL":"02-29323794","COUNTYNAME":"台北市","TOWNNAME":"文山區","MARKTYPE":"992","Class":"2"},"geometry":{"x":121.5443575426452,"y":24.996179243844878}},{"attributes":{"OBJECTID":9973,"LANDMARKID":"6300000000552","LANDMARKCO":"203","LANDMARKNA":"市立興福國中","LANDMARKAD":"6300008","ADDRESS":"台北市文山區福興路80號","TEL":"02-29324794","COUNTYNAME":"台北市","TOWNNAME":"文山區","MARKTYPE":"992","Class":"2"},"geometry":{"x":121.54975704453092,"y":25.00489005536587}},{"attributes":{"OBJECTID":9974,"LANDMARKID":"6300000000553","LANDMARKCO":"203","LANDMARKNA":"私立靜心中學","LANDMARKAD":"6300008","ADDRESS":"台北市文山區興隆路二段46號","TEL":"02-29323118","COUNTYNAME":"台北市","TOWNNAME":"文山區","MARKTYPE":"992","Class":"2"},"geometry":{"x":121.54668415703782,"y":24.99895072457555}},{"attributes":{"OBJECTID":9975,"LANDMARKID":"6300000000554","LANDMARKCO":"203","LANDMARKNA":"市立木柵國中","LANDMARKAD":"6300008","ADDRESS":"台北市文山區木柵路三段102巷12號","TEL":"02-29392049","COUNTYNAME":"台北市","TOWNNAME":"文山區","MARKTYPE":"992","Class":"2"},"geometry":{"x":121.56769768037077,"y":24.987469289520373}},{"attributes":{"OBJECTID":9976,"LANDMARKID":"6300000000555","LANDMARKCO":"203","LANDMARKNA":"市立力行國小","LANDMARKAD":"6300008","ADDRESS":"台北市文山區樟腳里木新路三段155巷7號","TEL":"02-29363995","COUNTYNAME":"台北市","TOWNNAME":"文山區","MARKTYPE":"992","Class":"2"},"geometry":{"x":121.56100677270049,"y":24.980909279955124}},{"attributes":{"OBJECTID":9977,"LANDMARKID":"6300000000556","LANDMARKCO":"203","LANDMARKNA":"市立萬興國小","LANDMARKAD":"6300008","ADDRESS":"台北市文山區萬興里秀明路二段114號","TEL":"02-29381721","COUNTYNAME":"台北市","TOWNNAME":"文山區","MARKTYPE":"992","Class":"2"},"geometry":{"x":121.57663824317196,"y":24.990425323692087}},{"attributes":{"OBJECTID":9978,"LANDMARKID":"6300000000557","LANDMARKCO":"203","LANDMARKNA":"市立辛亥國小","LANDMARKAD":"6300008","ADDRESS":"台北市文山區興昌里辛亥路四段103號","TEL":"02-29357283","COUNTYNAME":"台北市","TOWNNAME":"文山區","MARKTYPE":"992","Class":"2"},"geometry":{"x":121.55855770076172,"y":25.006285418049092}},{"attributes":{"OBJECTID":9979,"LANDMARKID":"6300000000558","LANDMARKCO":"203","LANDMARKNA":"市立指南國小","LANDMARKAD":"6300008","ADDRESS":"台北市文山區指南路三段38巷5號之2","TEL":"02-29393546","COUNTYNAME":"台北市","TOWNNAME":"文山區","MARKTYPE":"992","Class":"2"},"geometry":{"x":121.58366821490293,"y":24.976946568280415}},{"attributes":{"OBJECTID":9980,"LANDMARKID":"6300000000559","LANDMARKCO":"203","LANDMARKNA":"市立景興國小","LANDMARKAD":"6300008","ADDRESS":"台北市文山區興安里景華街150巷21號","TEL":"02-29329438","COUNTYNAME":"台北市","TOWNNAME":"文山區","MARKTYPE":"992","Class":"2"},"geometry":{"x":121.54821737910997,"y":24.996083203212066}},{"attributes":{"OBJECTID":9981,"LANDMARKID":"6300000000560","LANDMARKCO":"203","LANDMARKNA":"市立志清國小","LANDMARKAD":"6300008","ADDRESS":"台北市文山區景仁里景福街21巷5號","TEL":"02-29323875","COUNTYNAME":"台北市","TOWNNAME":"文山區","MARKTYPE":"992","Class":"2"},"geometry":{"x":121.53885369442195,"y":24.998679665845131}},{"attributes":{"OBJECTID":9982,"LANDMARKID":"6300000000561","LANDMARKCO":"203","LANDMARKNA":"市立萬芳國小","LANDMARKAD":"6300008","ADDRESS":"台北市文山區萬芳里萬和街1號","TEL":"02-22301232","COUNTYNAME":"台北市","TOWNNAME":"文山區","MARKTYPE":"992","Class":"2"},"geometry":{"x":121.5675839649723,"y":25.001310236254231}},{"attributes":{"OBJECTID":9983,"LANDMARKID":"6300000000562","LANDMARKCO":"203","LANDMARKNA":"市立興隆國小","LANDMARKAD":"6300008","ADDRESS":"台北市文山區興望里福興路2號","TEL":"02-29323131","COUNTYNAME":"台北市","TOWNNAME":"文山區","MARKTYPE":"992","Class":"2"},"geometry":{"x":121.55193088373785,"y":25.002410504414058}},{"attributes":{"OBJECTID":9984,"LANDMARKID":"6300000000563","LANDMARKCO":"203","LANDMARKNA":"市立武功國小","LANDMARKAD":"6300008","ADDRESS":"台北市文山區萬祥里興隆路一段68號","TEL":"02-29314360","COUNTYNAME":"台北市","TOWNNAME":"文山區","MARKTYPE":"992","Class":"2"},"geometry":{"x":121.54049836123744,"y":25.00388473104783}},{"attributes":{"OBJECTID":9985,"LANDMARKID":"6300000000564","LANDMARKCO":"203","LANDMARKNA":"私立靜心小學","LANDMARKAD":"6300008","ADDRESS":"台北市文山區興福里興隆路二段46號","TEL":"02-29313346","COUNTYNAME":"台北市","TOWNNAME":"文山區","MARKTYPE":"992","Class":"2"},"geometry":{"x":121.54668415703782,"y":24.99895072457555}},{"attributes":{"OBJECTID":9986,"LANDMARKID":"6300000000565","LANDMARKCO":"203","LANDMARKNA":"市立興華國小","LANDMARKAD":"6300008","ADDRESS":"台北市文山區興光里興隆路三段125巷6號","TEL":"02-22393070","COUNTYNAME":"台北市","TOWNNAME":"文山區","MARKTYPE":"992","Class":"2"},"geometry":{"x":121.55868782278769,"y":24.998843043352373}},{"attributes":{"OBJECTID":9987,"LANDMARKID":"6300000000566","LANDMARKCO":"203","LANDMARKNA":"私立再興小學","LANDMARKAD":"6300008","ADDRESS":"台北市文山區明義里興隆路四段2號","TEL":"02-29371118","COUNTYNAME":"台北市","TOWNNAME":"文山區","MARKTYPE":"992","Class":"2"},"geometry":{"x":121.55912411293251,"y":24.990443621604179}},{"attributes":{"OBJECTID":9988,"LANDMARKID":"6300000000567","LANDMARKCO":"203","LANDMARKNA":"市立木柵國小","LANDMARKAD":"6300008","ADDRESS":"台北市文山區木柵路三段191號","TEL":" ","COUNTYNAME":"台北市","TOWNNAME":"文山區","MARKTYPE":"992","Class":"2"},"geometry":{"x":121.56986517991291,"y":24.990002475116867}},{"attributes":{"OBJECTID":9989,"LANDMARKID":"6300000000396","LANDMARKCO":"201","LANDMARKNA":"國立政治大學","LANDMARKAD":"6300008","ADDRESS":"台北市文山區指南路二段64號","TEL":"02-29393091","COUNTYNAME":"台北市","TOWNNAME":"文山區","MARKTYPE":"992","Class":"2"},"geometry":{"x":121.5765165879691,"y":24.987410877281672}},{"attributes":{"OBJECTID":9990,"LANDMARKID":"6300000000397","LANDMARKCO":"201","LANDMARKNA":"中國科技大學台北校區","LANDMARKAD":"6300008","ADDRESS":"台北市文山區興隆路三段56號","TEL":"02-29313416","COUNTYNAME":"台北市","TOWNNAME":"文山區","MARKTYPE":"992","Class":"2"},"geometry":{"x":121.55541927137851,"y":24.999253045624339}},{"attributes":{"OBJECTID":9991,"LANDMARKID":"6300000000398","LANDMARKCO":"201","LANDMARKNA":"國立台灣師範大學分部","LANDMARKAD":"6300008","ADDRESS":"台北市文山區汀州路四段88號3樓","TEL":"02-29356662","COUNTYNAME":"台北市","TOWNNAME":"文山區","MARKTYPE":"992","Class":"2"},"geometry":{"x":121.53718909616443,"y":25.007834948116333}},{"attributes":{"OBJECTID":9992,"LANDMARKID":"6300000000399","LANDMARKCO":"201","LANDMARKNA":"臺灣警察專科學校","LANDMARKAD":"6300008","ADDRESS":"台北市文山區興隆路三段153號","TEL":"02-22308512","COUNTYNAME":"台北市","TOWNNAME":"文山區","MARKTYPE":"992","Class":"2"},"geometry":{"x":121.55931369232485,"y":24.998043852882329}},{"attributes":{"OBJECTID":9993,"LANDMARKID":"6300000000400","LANDMARKCO":"201","LANDMARKNA":"世新大學","LANDMARKAD":"6300008","ADDRESS":"台北市木柵路一段17巷1號","TEL":"02-22368225","COUNTYNAME":"台北市","TOWNNAME":"文山區","MARKTYPE":"992","Class":"2"},"geometry":{"x":121.54411337564991,"y":24.988613215781669}},{"attributes":{"OBJECTID":9994,"LANDMARKID":"6300000000401","LANDMARKCO":"201","LANDMARKNA":"國立臺灣戲曲學院木柵校區","LANDMARKAD":"6300008","ADDRESS":"台北市木柵路三段66巷8之1號","TEL":"02-27962666","COUNTYNAME":"台北市","TOWNNAME":"文山區","MARKTYPE":"992","Class":"2"},"geometry":{"x":121.56665068405694,"y":24.986848282658386}},{"attributes":{"OBJECTID":9995,"LANDMARKID":"6300000000402","LANDMARKCO":"201","LANDMARKNA":"政治大學國際關係研究中心","LANDMARKAD":"6300008","ADDRESS":"台北市文山區萬壽路64號","TEL":"02-82377277","COUNTYNAME":"台北市","TOWNNAME":"文山區","MARKTYPE":"992","Class":"2"},"geometry":{"x":121.58094239306226,"y":24.988982432783004}},{"attributes":{"OBJECTID":9996,"LANDMARKID":"6300000000403","LANDMARKCO":"201","LANDMARKNA":"世新大學管院大樓","LANDMARKAD":"6300008","ADDRESS":"台北市木柵路一段111號","TEL":"02-22368225","COUNTYNAME":"台北市","TOWNNAME":"文山區","MARKTYPE":"992","Class":"2"},"geometry":{"x":121.54781134017563,"y":24.987182196849997}},{"attributes":{"OBJECTID":9997,"LANDMARKID":"6300000000569","LANDMARKCO":"203","LANDMARKNA":"市立實踐國小","LANDMARKAD":"6300008","ADDRESS":"台北市文山區樟新里忠順路一段4號","TEL":"02-29360725","COUNTYNAME":"台北市","TOWNNAME":"文山區","MARKTYPE":"992","Class":"2"},"geometry":{"x":121.55747928340992,"y":24.983171177528412}},{"attributes":{"OBJECTID":9998,"LANDMARKID":"6300000000570","LANDMARKCO":"203","LANDMARKNA":"市立萬福國小","LANDMARKAD":"6300008","ADDRESS":"台北市文山區羅斯福五段170巷32號","TEL":"02-29353123","COUNTYNAME":"台北市","TOWNNAME":"文山區","MARKTYPE":"992","Class":"2"},"geometry":{"x":121.53693109821754,"y":25.005189317589327}},{"attributes":{"OBJECTID":9999,"LANDMARKID":"6300000000571","LANDMARKCO":"203","LANDMARKNA":"台北市立文山特殊教育學校","LANDMARKAD":"6300008","ADDRESS":"台北市文山區秀明路一段169號","TEL":"02-86615183","COUNTYNAME":"台北市","TOWNNAME":"文山區","MARKTYPE":"992","Class":"2"},"geometry":{"x":121.56926633202217,"y":24.991492889757069}},{"attributes":{"OBJECTID":10000,"LANDMARKID":"6300000001630","LANDMARKCO":"303","LANDMARKNA":"停車場(安全島)","LANDMARKAD":"6300008","ADDRESS":"台北市文山區新光路二段","TEL":" ","COUNTYNAME":"台北市","TOWNNAME":"文山區","MARKTYPE":"993","Class":"303"},"geometry":{"x":121.57541506874739,"y":24.995962494111055}}]}