{"displayFieldName":"COUNTYNAME","fieldAliases":{"OBJECTID":"OBJECTID","LANDMARKID":"LANDMARKID","LANDMARKCO":"LANDMARKCO","LANDMARKNA":"LANDMARKNA","LANDMARKAD":"LANDMARKAD","ADDRESS":"ADDRESS","TEL":"TEL","COUNTYNAME":"COUNTYNAME","TOWNNAME":"TOWNNAME","MARKTYPE":"MARKTYPE","Class":"Class"},"geometryType":"esriGeometryPoint","spatialReference":{"wkid":4326},"fields":[{"name":"OBJECTID","type":"esriFieldTypeOID","alias":"OBJECTID"},{"name":"LANDMARKID","type":"esriFieldTypeString","alias":"LANDMARKID","length":15},{"name":"LANDMARKCO","type":"esriFieldTypeString","alias":"LANDMARKCO","length":15},{"name":"LANDMARKNA","type":"esriFieldTypeString","alias":"LANDMARKNA","length":50},{"name":"LANDMARKAD","type":"esriFieldTypeString","alias":"LANDMARKAD","length":15},{"name":"ADDRESS","type":"esriFieldTypeString","alias":"ADDRESS","length":56},{"name":"TEL","type":"esriFieldTypeString","alias":"TEL","length":36},{"name":"COUNTYNAME","type":"esriFieldTypeString","alias":"COUNTYNAME","length":15},{"name":"TOWNNAME","type":"esriFieldTypeString","alias":"TOWNNAME","length":13},{"name":"MARKTYPE","type":"esriFieldTypeString","alias":"MARKTYPE","length":12},{"name":"Class","type":"esriFieldTypeString","alias":"Class","length":5}],"features":[{"attributes":{"OBJECTID":1801,"LANDMARKID":"1000300000420","LANDMARKCO":"203","LANDMARKNA":"縣立龍岡國中","LANDMARKAD":"1000302","ADDRESS":"桃園縣中壢市龍東路147號","TEL":"03-4562137","COUNTYNAME":"桃園市","TOWNNAME":"中壢區","MARKTYPE":"992","Class":"2"},"geometry":{"x":121.25161558998222,"y":24.930107571034853}},{"attributes":{"OBJECTID":1802,"LANDMARKID":"1000300000421","LANDMARKCO":"203","LANDMARKNA":"縣立龍興國中","LANDMARKAD":"1000302","ADDRESS":"桃園縣中壢市龍勇路100號","TEL":"03-4575200","COUNTYNAME":"桃園市","TOWNNAME":"中壢區","MARKTYPE":"992","Class":"2"},"geometry":{"x":121.23608804654675,"y":24.937886667367543}},{"attributes":{"OBJECTID":1803,"LANDMARKID":"1000300000422","LANDMARKCO":"203","LANDMARKNA":"縣立大崙國中","LANDMARKAD":"1000302","ADDRESS":"桃園縣中壢市月眉路1段50號","TEL":"03-4982840","COUNTYNAME":"桃園市","TOWNNAME":"中壢區","MARKTYPE":"992","Class":"2"},"geometry":{"x":121.18008668551747,"y":24.992326476903376}},{"attributes":{"OBJECTID":1804,"LANDMARKID":"1000300000423","LANDMARKCO":"203","LANDMARKNA":"縣立大崙國小","LANDMARKAD":"1000302","ADDRESS":"桃園縣中壢市內厝里月眉路一段8號","TEL":"03-4983424","COUNTYNAME":"桃園市","TOWNNAME":"中壢區","MARKTYPE":"992","Class":"2"},"geometry":{"x":121.18037301311062,"y":24.990610396030871}},{"attributes":{"OBJECTID":1805,"LANDMARKID":"1000300000424","LANDMARKCO":"203","LANDMARKNA":"縣立自立國小","LANDMARKAD":"1000302","ADDRESS":"桃園縣中壢市永福路1200號","TEL":"03-4559130","COUNTYNAME":"桃園市","TOWNNAME":"中壢區","MARKTYPE":"992","Class":"2"},"geometry":{"x":121.25182127397856,"y":24.968477519057224}},{"attributes":{"OBJECTID":1806,"LANDMARKID":"1000300000425","LANDMARKCO":"203","LANDMARKNA":"縣立普仁國小","LANDMARKAD":"1000302","ADDRESS":"桃園縣中壢市中山東路二段425號","TEL":"03-4563830","COUNTYNAME":"桃園市","TOWNNAME":"中壢區","MARKTYPE":"992","Class":"2"},"geometry":{"x":121.24471972148542,"y":24.948719824205682}},{"attributes":{"OBJECTID":1807,"LANDMARKID":"1000300000426","LANDMARKCO":"203","LANDMARKNA":"縣立富台國小","LANDMARKAD":"1000302","ADDRESS":"桃園縣中壢市中山東路三段369號","TEL":"03-4563335","COUNTYNAME":"桃園市","TOWNNAME":"中壢區","MARKTYPE":"992","Class":"2"},"geometry":{"x":121.2526055986809,"y":24.940486883154502}},{"attributes":{"OBJECTID":1808,"LANDMARKID":"1000300000427","LANDMARKCO":"203","LANDMARKNA":"縣立中原國小","LANDMARKAD":"1000302","ADDRESS":"桃園縣中壢市中北路88號","TEL":"03-4385257","COUNTYNAME":"桃園市","TOWNNAME":"中壢區","MARKTYPE":"992","Class":"2"},"geometry":{"x":121.23887010987524,"y":24.956218930988186}},{"attributes":{"OBJECTID":1809,"LANDMARKID":"1000300000428","LANDMARKCO":"203","LANDMARKNA":"縣立新明國小","LANDMARKAD":"1000302","ADDRESS":"桃園縣中壢市中央西路二段97號","TEL":"03-4933262","COUNTYNAME":"桃園市","TOWNNAME":"中壢區","MARKTYPE":"992","Class":"2"},"geometry":{"x":121.21583126362063,"y":24.959415629748346}},{"attributes":{"OBJECTID":1810,"LANDMARKID":"1000300000429","LANDMARKCO":"203","LANDMARKNA":"縣立興國國小","LANDMARKAD":"1000302","ADDRESS":"桃園縣中壢市元化路二段62號","TEL":"03-4258158","COUNTYNAME":"桃園市","TOWNNAME":"中壢區","MARKTYPE":"992","Class":"2"},"geometry":{"x":121.22172055432715,"y":24.96401088413209}},{"attributes":{"OBJECTID":1811,"LANDMARKID":"1000300000430","LANDMARKCO":"203","LANDMARKNA":"縣立信義國小","LANDMARKAD":"1000302","ADDRESS":"桃園縣中壢市信義里成都路55號","TEL":"03-4573780","COUNTYNAME":"桃園市","TOWNNAME":"中壢區","MARKTYPE":"992","Class":"2"},"geometry":{"x":121.23227450914712,"y":24.950814056300032}},{"attributes":{"OBJECTID":1812,"LANDMARKID":"1000300000431","LANDMARKCO":"203","LANDMARKNA":"縣立忠福國小","LANDMARKAD":"1000302","ADDRESS":"桃園縣中壢市西園路57號","TEL":"03-4340196","COUNTYNAME":"桃園市","TOWNNAME":"中壢區","MARKTYPE":"992","Class":"2"},"geometry":{"x":121.23531480695711,"y":24.976359146571539}},{"attributes":{"OBJECTID":1813,"LANDMARKID":"1000300000432","LANDMARKCO":"203","LANDMARKNA":"縣立內定國小","LANDMARKAD":"1000302","ADDRESS":"桃園縣中壢市內定里定寧路31號","TEL":"03-4524624","COUNTYNAME":"桃園市","TOWNNAME":"中壢區","MARKTYPE":"992","Class":"2"},"geometry":{"x":121.2497540881872,"y":24.993939789216711}},{"attributes":{"OBJECTID":1814,"LANDMARKID":"1000300000433","LANDMARKCO":"203","LANDMARKNA":"縣立新街國小","LANDMARKAD":"1000302","ADDRESS":"桃園縣中壢市新街里延平路176號","TEL":"03-4523202","COUNTYNAME":"桃園市","TOWNNAME":"中壢區","MARKTYPE":"992","Class":"2"},"geometry":{"x":121.22804270082111,"y":24.963552891258068}},{"attributes":{"OBJECTID":1815,"LANDMARKID":"1000300000434","LANDMARKCO":"203","LANDMARKNA":"縣立中壢國小","LANDMARKAD":"1000302","ADDRESS":"桃園縣中壢市中榮里延平路622號","TEL":"03-4255216","COUNTYNAME":"桃園市","TOWNNAME":"中壢區","MARKTYPE":"992","Class":"2"},"geometry":{"x":121.22102381598607,"y":24.95471372162126}},{"attributes":{"OBJECTID":1816,"LANDMARKID":"1000300000435","LANDMARKCO":"203","LANDMARKNA":"縣立林森國小","LANDMARKAD":"1000302","ADDRESS":"桃園縣中壢市林森路95號","TEL":"03-4579213","COUNTYNAME":"桃園市","TOWNNAME":"中壢區","MARKTYPE":"992","Class":"2"},"geometry":{"x":121.22697768044921,"y":24.945675704144737}},{"attributes":{"OBJECTID":1817,"LANDMARKID":"1000300000436","LANDMARKCO":"203","LANDMARKNA":"縣立青埔國小","LANDMARKAD":"1000302","ADDRESS":"桃園縣中壢市新生路三段1006號","TEL":"03-4531626","COUNTYNAME":"桃園市","TOWNNAME":"中壢區","MARKTYPE":"992","Class":"2"},"geometry":{"x":121.21419169414695,"y":25.007180401211464}},{"attributes":{"OBJECTID":1818,"LANDMARKID":"1000300000437","LANDMARKCO":"203","LANDMARKNA":"縣立華勛國小","LANDMARKAD":"1000302","ADDRESS":"桃園縣中壢市榮民南路205號","TEL":"03-4661587","COUNTYNAME":"桃園市","TOWNNAME":"中壢區","MARKTYPE":"992","Class":"2"},"geometry":{"x":121.25749346985158,"y":24.953661018324443}},{"attributes":{"OBJECTID":1819,"LANDMARKID":"1000300000438","LANDMARKCO":"203","LANDMARKNA":"縣立內壢國小","LANDMARKAD":"1000302","ADDRESS":"桃園縣中壢市福德路20號","TEL":"03-4635888","COUNTYNAME":"桃園市","TOWNNAME":"中壢區","MARKTYPE":"992","Class":"2"},"geometry":{"x":121.25960040323463,"y":24.974604310330776}},{"attributes":{"OBJECTID":1820,"LANDMARKID":"1000300000439","LANDMARKCO":"203","LANDMARKNA":"縣立興仁國小","LANDMARKAD":"1000302","ADDRESS":"桃園縣中壢市遠東路210號","TEL":"03-4355753","COUNTYNAME":"桃園市","TOWNNAME":"中壢區","MARKTYPE":"992","Class":"2"},"geometry":{"x":121.26203075857745,"y":24.968009936567697}},{"attributes":{"OBJECTID":1821,"LANDMARKID":"1000300000440","LANDMARKCO":"203","LANDMARKNA":"縣立中正國小","LANDMARKAD":"1000302","ADDRESS":"桃園縣中壢市興仁路二段404號","TEL":"03-4556890","COUNTYNAME":"桃園市","TOWNNAME":"中壢區","MARKTYPE":"992","Class":"2"},"geometry":{"x":121.26290862442676,"y":24.962048120882237}},{"attributes":{"OBJECTID":1822,"LANDMARKID":"1000300000441","LANDMARKCO":"203","LANDMARKNA":"縣立龍岡國小","LANDMARKAD":"1000302","ADDRESS":"桃園縣中壢市龍岡路二段232號","TEL":"03-4588582","COUNTYNAME":"桃園市","TOWNNAME":"中壢區","MARKTYPE":"992","Class":"2"},"geometry":{"x":121.22953386209252,"y":24.941970446095514}},{"attributes":{"OBJECTID":1823,"LANDMARKID":"1000300000258","LANDMARKCO":"201","LANDMARKNA":"聖德基督學院","LANDMARKAD":"1000302","ADDRESS":"桃園縣中壢市新生路二段421號","TEL":"03-4532632","COUNTYNAME":"桃園市","TOWNNAME":"中壢區","MARKTYPE":"992","Class":"2"},"geometry":{"x":121.22186975686022,"y":24.984956259564612}},{"attributes":{"OBJECTID":1824,"LANDMARKID":"1000300000259","LANDMARKCO":"201","LANDMARKNA":"中原大學","LANDMARKAD":"1000302","ADDRESS":"桃園縣中壢市中北路200號","TEL":"03-2659999","COUNTYNAME":"桃園市","TOWNNAME":"中壢區","MARKTYPE":"992","Class":"2"},"geometry":{"x":121.2407563054432,"y":24.957390979897045}},{"attributes":{"OBJECTID":1825,"LANDMARKID":"1000300000260","LANDMARKCO":"201","LANDMARKNA":"南亞技術學院","LANDMARKAD":"1000302","ADDRESS":"桃園縣中壢市中山東路三段414號","TEL":"03-4361070","COUNTYNAME":"桃園市","TOWNNAME":"中壢區","MARKTYPE":"992","Class":"2"},"geometry":{"x":121.25183630552704,"y":24.937419831027274}},{"attributes":{"OBJECTID":1826,"LANDMARKID":"1000300000261","LANDMARKCO":"201","LANDMARKNA":"清雲科技大學","LANDMARKAD":"1000302","ADDRESS":"桃園縣中壢市健行路229號","TEL":"03-4581196","COUNTYNAME":"桃園市","TOWNNAME":"中壢區","MARKTYPE":"992","Class":"2"},"geometry":{"x":121.22906288778515,"y":24.94720837499084}},{"attributes":{"OBJECTID":1827,"LANDMARKID":"1000300000262","LANDMARKCO":"201","LANDMARKNA":"萬能科技大學","LANDMARKAD":"1000302","ADDRESS":"桃園縣中壢市萬能路1號","TEL":"03-4515811","COUNTYNAME":"桃園市","TOWNNAME":"中壢區","MARKTYPE":"992","Class":"2"},"geometry":{"x":121.23248970149952,"y":24.990628496720451}},{"attributes":{"OBJECTID":1828,"LANDMARKID":"1000300000263","LANDMARKCO":"201","LANDMARKNA":"陸軍專科學校","LANDMARKAD":"1000302","ADDRESS":"桃園縣中壢市中山東路四段113號","TEL":"03-4360927","COUNTYNAME":"桃園市","TOWNNAME":"中壢區","MARKTYPE":"992","Class":"2"},"geometry":{"x":121.25766712904371,"y":24.935693927408291}},{"attributes":{"OBJECTID":1829,"LANDMARKID":"1000300000264","LANDMARKCO":"201","LANDMARKNA":"元智大學","LANDMARKAD":"1000302","ADDRESS":"桃園縣中壢市遠東路135號","TEL":"03-4638800","COUNTYNAME":"桃園市","TOWNNAME":"中壢區","MARKTYPE":"992","Class":"2"},"geometry":{"x":121.2633113331611,"y":24.970081938428546}},{"attributes":{"OBJECTID":1830,"LANDMARKID":"1000300000265","LANDMARKCO":"201","LANDMARKNA":"國立中央大學","LANDMARKAD":"1000302","ADDRESS":"桃園縣中壢市中大路300號","TEL":"03-4227151","COUNTYNAME":"桃園市","TOWNNAME":"中壢區","MARKTYPE":"992","Class":"2"},"geometry":{"x":121.19542477049674,"y":24.968293147068287}},{"attributes":{"OBJECTID":1831,"LANDMARKID":"1000300000283","LANDMARKCO":"202","LANDMARKNA":"國立中壢家商","LANDMARKAD":"1000302","ADDRESS":"桃園縣中壢市德育路36號","TEL":"03-4271627","COUNTYNAME":"桃園市","TOWNNAME":"中壢區","MARKTYPE":"992","Class":"2"},"geometry":{"x":121.2196540822125,"y":24.952460675568751}},{"attributes":{"OBJECTID":1832,"LANDMARKID":"1000300000447","LANDMARKCO":"203","LANDMARKNA":"縣立中平國小","LANDMARKAD":"1000302","ADDRESS":"桃園縣中壢市過嶺里1鄰1號","TEL":"03-4902025","COUNTYNAME":"桃園市","TOWNNAME":"中壢區","MARKTYPE":"992","Class":"2"},"geometry":{"x":121.17749454567932,"y":24.959556384001949}},{"attributes":{"OBJECTID":1833,"LANDMARKID":"1000300000448","LANDMARKCO":"203","LANDMARKNA":"縣立芭里國小","LANDMARKAD":"1000302","ADDRESS":"桃園縣中壢市芝芭里8鄰63號","TEL":"03-4228086","COUNTYNAME":"桃園市","TOWNNAME":"中壢區","MARKTYPE":"992","Class":"2"},"geometry":{"x":121.20162626807522,"y":24.994737086157127}},{"attributes":{"OBJECTID":1834,"LANDMARKID":"1000300000449","LANDMARKCO":"203","LANDMARKNA":"縣立山東國小","LANDMARKAD":"1000302","ADDRESS":"桃園縣中壢市山東里13鄰163號","TEL":"03-4981323","COUNTYNAME":"桃園市","TOWNNAME":"中壢區","MARKTYPE":"992","Class":"2"},"geometry":{"x":121.17293037398063,"y":25.016171769744666}},{"attributes":{"OBJECTID":1835,"LANDMARKID":"1000300000566","LANDMARKCO":"205","LANDMARKNA":"憶聲電子文物館","LANDMARKAD":"1000302","ADDRESS":"桃園縣中壢市中園路198號","TEL":"03-4515494","COUNTYNAME":"桃園市","TOWNNAME":"中壢區","MARKTYPE":"992","Class":"2"},"geometry":{"x":121.23911191223861,"y":24.986582720694816}},{"attributes":{"OBJECTID":1836,"LANDMARKID":"1000300000704","LANDMARKCO":"308","LANDMARKNA":"中壢服務區","LANDMARKAD":"1000302","ADDRESS":" ","TEL":" ","COUNTYNAME":"桃園市","TOWNNAME":"中壢區","MARKTYPE":"993","Class":"308"},"geometry":{"x":121.25255630450391,"y":25.003185957661834}},{"attributes":{"OBJECTID":1837,"LANDMARKID":"1000300000705","LANDMARKCO":"308","LANDMARKNA":"國1-內壢交流道-南下","LANDMARKAD":"1000302","ADDRESS":"桃園縣中壢市","TEL":" ","COUNTYNAME":"桃園市","TOWNNAME":"中壢區","MARKTYPE":"993","Class":"308"},"geometry":{"x":121.23520575644014,"y":24.986376835172674}},{"attributes":{"OBJECTID":1838,"LANDMARKID":"1000300000706","LANDMARKCO":"308","LANDMARKNA":"國1-內壢交流道-北上","LANDMARKAD":"1000302","ADDRESS":"桃園縣中壢市","TEL":" ","COUNTYNAME":"桃園市","TOWNNAME":"中壢區","MARKTYPE":"993","Class":"308"},"geometry":{"x":121.24056854499807,"y":24.991056381861487}},{"attributes":{"OBJECTID":1839,"LANDMARKID":"1000300000707","LANDMARKCO":"308","LANDMARKNA":"國1-中壢交流道-北上","LANDMARKAD":"1000302","ADDRESS":"桃園縣平鎮市","TEL":" ","COUNTYNAME":"桃園市","TOWNNAME":"中壢區","MARKTYPE":"993","Class":"308"},"geometry":{"x":121.20105074925817,"y":24.958136631134021}},{"attributes":{"OBJECTID":1840,"LANDMARKID":"1000300000696","LANDMARKCO":"307","LANDMARKNA":"高鐵桃園站(青埔站)-出口1","LANDMARKAD":"1000302","ADDRESS":" ","TEL":" ","COUNTYNAME":"桃園市","TOWNNAME":"中壢區","MARKTYPE":"993","Class":"307"},"geometry":{"x":121.21529229540333,"y":25.013098985524859}},{"attributes":{"OBJECTID":1841,"LANDMARKID":"1000300000697","LANDMARKCO":"307","LANDMARKNA":"高鐵桃園站(青埔站)-出口2","LANDMARKAD":"1000302","ADDRESS":" ","TEL":" ","COUNTYNAME":"桃園市","TOWNNAME":"中壢區","MARKTYPE":"993","Class":"307"},"geometry":{"x":121.21523442618007,"y":25.012905578731541}},{"attributes":{"OBJECTID":1842,"LANDMARKID":"1000300000698","LANDMARKCO":"307","LANDMARKNA":"高鐵桃園站(青埔站)-出口3","LANDMARKAD":"1000302","ADDRESS":" ","TEL":" ","COUNTYNAME":"桃園市","TOWNNAME":"中壢區","MARKTYPE":"993","Class":"307"},"geometry":{"x":121.21499053624582,"y":25.012671761126121}},{"attributes":{"OBJECTID":1843,"LANDMARKID":"1000300000699","LANDMARKCO":"307","LANDMARKNA":"高鐵桃園站(青埔站)-出口4","LANDMARKAD":"1000302","ADDRESS":" ","TEL":" ","COUNTYNAME":"桃園市","TOWNNAME":"中壢區","MARKTYPE":"993","Class":"307"},"geometry":{"x":121.21477388202803,"y":25.012591262540997}},{"attributes":{"OBJECTID":1844,"LANDMARKID":"1000300000700","LANDMARKCO":"307","LANDMARKNA":"高鐵桃園站(青埔站)-出口5","LANDMARKAD":"1000302","ADDRESS":" ","TEL":" ","COUNTYNAME":"桃園市","TOWNNAME":"中壢區","MARKTYPE":"993","Class":"307"},"geometry":{"x":121.21439963093005,"y":25.012901540082183}},{"attributes":{"OBJECTID":1845,"LANDMARKID":"1000300000701","LANDMARKCO":"307","LANDMARKNA":"高鐵桃園站(青埔站)-出口6","LANDMARKAD":"1000302","ADDRESS":" ","TEL":" ","COUNTYNAME":"桃園市","TOWNNAME":"中壢區","MARKTYPE":"993","Class":"307"},"geometry":{"x":121.21445670063888,"y":25.013120259271936}},{"attributes":{"OBJECTID":1846,"LANDMARKID":"1000300000702","LANDMARKCO":"307","LANDMARKNA":"高鐵桃園站(青埔站)-出口7","LANDMARKAD":"1000302","ADDRESS":" ","TEL":" ","COUNTYNAME":"桃園市","TOWNNAME":"中壢區","MARKTYPE":"993","Class":"307"},"geometry":{"x":121.21466919842774,"y":25.013330805603452}},{"attributes":{"OBJECTID":1847,"LANDMARKID":"1000300000703","LANDMARKCO":"307","LANDMARKNA":"高鐵桃園站(青埔站)-出口8","LANDMARKAD":"1000302","ADDRESS":" ","TEL":" ","COUNTYNAME":"桃園市","TOWNNAME":"中壢區","MARKTYPE":"993","Class":"307"},"geometry":{"x":121.21491755136418,"y":25.013416490432014}},{"attributes":{"OBJECTID":1848,"LANDMARKID":"1000300000598","LANDMARKCO":"302","LANDMARKNA":"桃園汽車客運中壢市公車站","LANDMARKAD":"1000302","ADDRESS":"桃園縣中壢市中正路51號","TEL":" ","COUNTYNAME":"桃園市","TOWNNAME":"中壢區","MARKTYPE":"993","Class":"302"},"geometry":{"x":121.22416792070871,"y":24.954184257007142}},{"attributes":{"OBJECTID":1849,"LANDMARKID":"1000300000599","LANDMARKCO":"302","LANDMARKNA":"桃園汽車客運中壢總站","LANDMARKAD":"1000302","ADDRESS":"桃園縣中壢市中和路225號","TEL":" ","COUNTYNAME":"桃園市","TOWNNAME":"中壢區","MARKTYPE":"993","Class":"302"},"geometry":{"x":121.22366506075399,"y":24.953191801942079}},{"attributes":{"OBJECTID":1850,"LANDMARKID":"1000300000600","LANDMARKCO":"302","LANDMARKNA":"新竹汽車客運中壢總站","LANDMARKAD":"1000302","ADDRESS":"桃園縣中壢市元化路2號之36","TEL":" ","COUNTYNAME":"桃園市","TOWNNAME":"中壢區","MARKTYPE":"993","Class":"302"},"geometry":{"x":121.2265250793828,"y":24.954630983158328}},{"attributes":{"OBJECTID":1851,"LANDMARKID":"1000300000601","LANDMARKCO":"302","LANDMARKNA":"國光汽車客運中壢站","LANDMARKAD":"1000302","ADDRESS":"桃園縣中壢市石頭里13鄰建國路100號","TEL":" ","COUNTYNAME":"桃園市","TOWNNAME":"中壢區","MARKTYPE":"993","Class":"302"},"geometry":{"x":121.22422434861426,"y":24.953474862636813}},{"attributes":{"OBJECTID":1852,"LANDMARKID":"1000300000602","LANDMARKCO":"302","LANDMARKNA":"統聯汽車客運中壢服務區","LANDMARKAD":"1000302","ADDRESS":"桃園縣中壢市內定里下內壢85之13號","TEL":" ","COUNTYNAME":"桃園市","TOWNNAME":"中壢區","MARKTYPE":"993","Class":"302"},"geometry":{"x":121.25141327947651,"y":25.004639522596641}},{"attributes":{"OBJECTID":1853,"LANDMARKID":"1000300000619","LANDMARKCO":"303","LANDMARKNA":"鄉城高爾夫練習場停車場","LANDMARKAD":"1000302","ADDRESS":"桃園縣中壢市中大路170巷19之5號","TEL":"03-4221999","COUNTYNAME":"桃園市","TOWNNAME":"中壢區","MARKTYPE":"993","Class":"303"},"geometry":{"x":121.19890901928724,"y":24.969048519468735}},{"attributes":{"OBJECTID":1854,"LANDMARKID":"1000300000620","LANDMARKCO":"303","LANDMARKNA":"中壢客運地下停車場","LANDMARKAD":"1000302","ADDRESS":"桃園縣中壢市中光路16號","TEL":" ","COUNTYNAME":"桃園市","TOWNNAME":"中壢區","MARKTYPE":"993","Class":"303"},"geometry":{"x":121.22618170560301,"y":24.956443962549589}},{"attributes":{"OBJECTID":1855,"LANDMARKID":"1000300000621","LANDMARKCO":"303","LANDMARKNA":"大江國際購物中心停車場","LANDMARKAD":"1000302","ADDRESS":"桃園縣中壢市中園路二段501號","TEL":" ","COUNTYNAME":"桃園市","TOWNNAME":"中壢區","MARKTYPE":"993","Class":"303"},"geometry":{"x":121.22801930152073,"y":25.000943920216887}},{"attributes":{"OBJECTID":1856,"LANDMARKID":"1000300000622","LANDMARKCO":"303","LANDMARKNA":"中壢市中正公園立體停車塔","LANDMARKAD":"1000302","ADDRESS":"桃園縣中壢市","TEL":" ","COUNTYNAME":"桃園市","TOWNNAME":"中壢區","MARKTYPE":"993","Class":"303"},"geometry":{"x":121.2260555572603,"y":24.958664976041423}},{"attributes":{"OBJECTID":1857,"LANDMARKID":"1000300000623","LANDMARKCO":"303","LANDMARKNA":"中美停車場","LANDMARKAD":"1000302","ADDRESS":"桃園縣中壢市","TEL":" ","COUNTYNAME":"桃園市","TOWNNAME":"中壢區","MARKTYPE":"993","Class":"303"},"geometry":{"x":121.21997643159013,"y":24.960038286000504}},{"attributes":{"OBJECTID":1858,"LANDMARKID":"1000300000624","LANDMARKCO":"303","LANDMARKNA":"公七停車場","LANDMARKAD":"1000302","ADDRESS":"桃園縣中壢市中央東路83號","TEL":" ","COUNTYNAME":"桃園市","TOWNNAME":"中壢區","MARKTYPE":"993","Class":"303"},"geometry":{"x":121.22688283782604,"y":24.956380044215649}},{"attributes":{"OBJECTID":1859,"LANDMARKID":"1000300000625","LANDMARKCO":"303","LANDMARKNA":"立體停車場","LANDMARKAD":"1000302","ADDRESS":"桃園縣中壢市中北路二段151號","TEL":" ","COUNTYNAME":"桃園市","TOWNNAME":"中壢區","MARKTYPE":"993","Class":"303"},"geometry":{"x":121.2266566965,"y":24.952075295278128}},{"attributes":{"OBJECTID":1860,"LANDMARKID":"1000300000626","LANDMARKCO":"303","LANDMARKNA":"中興嘟嘟房停車場-中壢中美站","LANDMARKAD":"1000302","ADDRESS":"桃園縣中壢市中美路一段18號B2-B3","TEL":" ","COUNTYNAME":"桃園市","TOWNNAME":"中壢區","MARKTYPE":"993","Class":"303"},"geometry":{"x":121.22395287848556,"y":24.959472914057674}},{"attributes":{"OBJECTID":1861,"LANDMARKID":"1000300000627","LANDMARKCO":"303","LANDMARKNA":"中台停車場","LANDMARKAD":"1000302","ADDRESS":"桃園縣中壢市中台路16號","TEL":" ","COUNTYNAME":"桃園市","TOWNNAME":"中壢區","MARKTYPE":"993","Class":"303"},"geometry":{"x":121.22714546412989,"y":24.957239758724835}},{"attributes":{"OBJECTID":1862,"LANDMARKID":"1000300000628","LANDMARKCO":"303","LANDMARKNA":"中壢市公所原有辦工廳地面臨時停車場","LANDMARKAD":"1000302","ADDRESS":"桃園縣中壢市延平路525號","TEL":" ","COUNTYNAME":"桃園市","TOWNNAME":"中壢區","MARKTYPE":"993","Class":"303"},"geometry":{"x":121.2232526762358,"y":24.955815012639707}},{"attributes":{"OBJECTID":1863,"LANDMARKID":"1000300000629","LANDMARKCO":"303","LANDMARKNA":"台灣聯通停車場-中壢長春","LANDMARKAD":"1000302","ADDRESS":"桃園縣中壢市長春路119號旁","TEL":" ","COUNTYNAME":"桃園市","TOWNNAME":"中壢區","MARKTYPE":"993","Class":"303"},"geometry":{"x":121.2477113531323,"y":24.977954265783339}},{"attributes":{"OBJECTID":1864,"LANDMARKID":"1000300000577","LANDMARKCO":"301","LANDMARKNA":"內壢火車站","LANDMARKAD":"1000302","ADDRESS":"桃園縣中壢市中原里中華路一段267號","TEL":"03-4559725","COUNTYNAME":"桃園市","TOWNNAME":"中壢區","MARKTYPE":"993","Class":"301"},"geometry":{"x":121.25711548167988,"y":24.972231913369185}},{"attributes":{"OBJECTID":1865,"LANDMARKID":"1000300000578","LANDMARKCO":"301","LANDMARKNA":"中壢火車站","LANDMARKAD":"1000302","ADDRESS":"桃園縣中壢市石頭里中和路139號","TEL":"03-4223235","COUNTYNAME":"桃園市","TOWNNAME":"中壢區","MARKTYPE":"993","Class":"301"},"geometry":{"x":121.22612318208562,"y":24.95347114555609}},{"attributes":{"OBJECTID":1866,"LANDMARKID":"1000300000804","LANDMARKCO":"402","LANDMARKNA":"中華電信-中壢中原特約服務中心","LANDMARKAD":"1000302","ADDRESS":"桃園縣中壢市中山東路二段39號","TEL":"03-4569090","COUNTYNAME":"桃園市","TOWNNAME":"中壢區","MARKTYPE":"994","Class":"4"},"geometry":{"x":121.2375788421803,"y":24.954258744896354}},{"attributes":{"OBJECTID":1867,"LANDMARKID":"1000300000805","LANDMARKCO":"402","LANDMARKNA":"中華電信-中壢服務中心","LANDMARKAD":"1000302","ADDRESS":"桃園縣中壢市中山路152號","TEL":"123或0800-080-123","COUNTYNAME":"桃園市","TOWNNAME":"中壢區","MARKTYPE":"994","Class":"4"},"geometry":{"x":121.22444390681504,"y":24.956055747648865}},{"attributes":{"OBJECTID":1868,"LANDMARKID":"1000300000806","LANDMARKCO":"402","LANDMARKNA":"中華電信-中壢中正特約服務中心","LANDMARKAD":"1000302","ADDRESS":"桃園縣中壢市中正路322號","TEL":"03-4025067","COUNTYNAME":"桃園市","TOWNNAME":"中壢區","MARKTYPE":"994","Class":"4"},"geometry":{"x":121.2176265133705,"y":24.955345679803088}},{"attributes":{"OBJECTID":1869,"LANDMARKID":"1000300000807","LANDMARKCO":"402","LANDMARKNA":"中華電信-內壢中華特約服務中心","LANDMARKAD":"1000302","ADDRESS":"桃園縣中壢市中華路一段254號","TEL":"03-4331010","COUNTYNAME":"桃園市","TOWNNAME":"中壢區","MARKTYPE":"994","Class":"4"},"geometry":{"x":121.25813086606682,"y":24.973116636275272}},{"attributes":{"OBJECTID":1870,"LANDMARKID":"1000300000808","LANDMARKCO":"402","LANDMARKNA":"中華電信-中壢元化特約服務中心","LANDMARKAD":"1000302","ADDRESS":"桃園縣中壢市元化路二段10號","TEL":"03-4260388","COUNTYNAME":"桃園市","TOWNNAME":"中壢區","MARKTYPE":"994","Class":"4"},"geometry":{"x":121.22272244770687,"y":24.9624713318121}},{"attributes":{"OBJECTID":1871,"LANDMARKID":"1000300000809","LANDMARKCO":"402","LANDMARKNA":"中華電信-內壢服務中心","LANDMARKAD":"1000302","ADDRESS":"桃園縣中壢市興仁路一段188號","TEL":"123或0800-080-123","COUNTYNAME":"桃園市","TOWNNAME":"中壢區","MARKTYPE":"994","Class":"4"},"geometry":{"x":121.26176159040794,"y":24.968836936480294}},{"attributes":{"OBJECTID":1872,"LANDMARKID":"1000300000810","LANDMARKCO":"402","LANDMARKNA":"中華電信-中壢龍岡特約服務中心","LANDMARKAD":"1000302","ADDRESS":"桃園縣中壢市龍岡路二段137號","TEL":"03-4288066","COUNTYNAME":"桃園市","TOWNNAME":"中壢區","MARKTYPE":"994","Class":"4"},"geometry":{"x":121.2296206720212,"y":24.944807250060759}},{"attributes":{"OBJECTID":1873,"LANDMARKID":"1000300000811","LANDMARKCO":"402","LANDMARKNA":"遠傳電信-中壢中央門市","LANDMARKAD":"1000302","ADDRESS":"桃園縣中壢市中央西路一段123號","TEL":" ","COUNTYNAME":"桃園市","TOWNNAME":"中壢區","MARKTYPE":"994","Class":"4"},"geometry":{"x":121.21975420331455,"y":24.957923621750819}},{"attributes":{"OBJECTID":1874,"LANDMARKID":"1000300000812","LANDMARKCO":"402","LANDMARKNA":"遠傳電信-中壢延平門市","LANDMARKAD":"1000302","ADDRESS":"桃園縣中壢市延平路602號","TEL":" ","COUNTYNAME":"桃園市","TOWNNAME":"中壢區","MARKTYPE":"994","Class":"4"},"geometry":{"x":121.22215672816982,"y":24.954298058297198}},{"attributes":{"OBJECTID":1875,"LANDMARKID":"1000300000813","LANDMARKCO":"402","LANDMARKNA":"遠傳電信-中壢新生門市","LANDMARKAD":"1000302","ADDRESS":"桃園縣中壢市新生路266號","TEL":" ","COUNTYNAME":"桃園市","TOWNNAME":"中壢區","MARKTYPE":"994","Class":"4"},"geometry":{"x":121.22314890988933,"y":24.96327969345101}},{"attributes":{"OBJECTID":1876,"LANDMARKID":"1000300000814","LANDMARKCO":"402","LANDMARKNA":"威寶電信-中壢中山直營服務中心","LANDMARKAD":"1000302","ADDRESS":"桃園縣中壢市中山路185號","TEL":" ","COUNTYNAME":"桃園市","TOWNNAME":"中壢區","MARKTYPE":"994","Class":"4"},"geometry":{"x":121.22336914027849,"y":24.956187363019897}},{"attributes":{"OBJECTID":1877,"LANDMARKID":"1000300000815","LANDMARKCO":"402","LANDMARKNA":"威寶電信-中壢中正特約服務中心","LANDMARKAD":"1000302","ADDRESS":"桃園縣中壢市中正路310號","TEL":"03-2812125","COUNTYNAME":"桃園市","TOWNNAME":"中壢區","MARKTYPE":"994","Class":"4"},"geometry":{"x":121.21783947570431,"y":24.955321368334936}},{"attributes":{"OBJECTID":1878,"LANDMARKID":"1000300000816","LANDMARKCO":"402","LANDMARKNA":"威寶電信-內壢忠孝特約服務中心","LANDMARKAD":"1000302","ADDRESS":"桃園縣中壢市忠孝路63號","TEL":"03-4355599","COUNTYNAME":"桃園市","TOWNNAME":"中壢區","MARKTYPE":"994","Class":"4"},"geometry":{"x":121.25599391190543,"y":24.974112325682267}},{"attributes":{"OBJECTID":1879,"LANDMARKID":"1000300000817","LANDMARKCO":"402","LANDMARKNA":"威寶電信-中壢新生特約服務中心","LANDMARKAD":"1000302","ADDRESS":"桃園縣中壢市新生路237號","TEL":"03-4222525","COUNTYNAME":"桃園市","TOWNNAME":"中壢區","MARKTYPE":"994","Class":"4"},"geometry":{"x":121.22291712281259,"y":24.962845040438879}},{"attributes":{"OBJECTID":1880,"LANDMARKID":"1000300000818","LANDMARKCO":"402","LANDMARKNA":"威寶電信-中壢健行特約服務中心","LANDMARKAD":"1000302","ADDRESS":"桃園縣中壢市健行路161號","TEL":"03-4576969","COUNTYNAME":"桃園市","TOWNNAME":"中壢區","MARKTYPE":"994","Class":"4"},"geometry":{"x":121.22761391864901,"y":24.948810108375081}},{"attributes":{"OBJECTID":1881,"LANDMARKID":"1000300000819","LANDMARKCO":"402","LANDMARKNA":"威寶電信-中壢元化特約服務中心","LANDMARKAD":"1000302","ADDRESS":"桃園縣中壢市元化路1號","TEL":"03-4276688","COUNTYNAME":"桃園市","TOWNNAME":"中壢區","MARKTYPE":"994","Class":"4"},"geometry":{"x":121.22705874545758,"y":24.955961954929833}},{"attributes":{"OBJECTID":1882,"LANDMARKID":"1000300000820","LANDMARKCO":"402","LANDMARKNA":"威寶電信-中壢中山東特約服務中心","LANDMARKAD":"1000302","ADDRESS":"桃園縣中壢市中山東路二段96號","TEL":"03-4383386","COUNTYNAME":"桃園市","TOWNNAME":"中壢區","MARKTYPE":"994","Class":"4"},"geometry":{"x":121.23859018201193,"y":24.953391128234163}},{"attributes":{"OBJECTID":1883,"LANDMARKID":"1000300000821","LANDMARKCO":"402","LANDMARKNA":"大眾電信(傑昇通信)-中壢中山店","LANDMARKAD":"1000302","ADDRESS":"桃園縣中壢市中山路265號","TEL":"(03)425-3667","COUNTYNAME":"桃園市","TOWNNAME":"中壢區","MARKTYPE":"994","Class":"4"},"geometry":{"x":121.2208460326185,"y":24.95669500701916}},{"attributes":{"OBJECTID":1884,"LANDMARKID":"1000300000822","LANDMARKCO":"402","LANDMARKNA":"大眾電信(傑昇通信)-中壢新生店","LANDMARKAD":"1000302","ADDRESS":"桃園縣中壢市新生路93號","TEL":"(03)426-1855","COUNTYNAME":"桃園市","TOWNNAME":"中壢區","MARKTYPE":"994","Class":"4"},"geometry":{"x":121.22263369237268,"y":24.959274464292513}},{"attributes":{"OBJECTID":1885,"LANDMARKID":"1000300000823","LANDMARKCO":"402","LANDMARKNA":"大眾電信(皇家通訊)-中壢三星","LANDMARKAD":"1000302","ADDRESS":"桃園縣中壢市中山東路二段83號","TEL":"03-4568588","COUNTYNAME":"桃園市","TOWNNAME":"中壢區","MARKTYPE":"994","Class":"4"},"geometry":{"x":121.23857863045859,"y":24.953624146866858}},{"attributes":{"OBJECTID":1886,"LANDMARKID":"1000300000824","LANDMARKCO":"402","LANDMARKNA":"大眾電信(震旦通訊)-中壢中正店","LANDMARKAD":"1000302","ADDRESS":"桃園縣中壢市中正路312號","TEL":"03-4920520","COUNTYNAME":"桃園市","TOWNNAME":"中壢區","MARKTYPE":"994","Class":"4"},"geometry":{"x":121.21783947570431,"y":24.955321368334936}},{"attributes":{"OBJECTID":1887,"LANDMARKID":"1000300000825","LANDMARKCO":"402","LANDMARKNA":"大眾電信-中正專賣店","LANDMARKAD":"1000302","ADDRESS":"桃園縣中壢市中正路333號","TEL":"03-4010010","COUNTYNAME":"桃園市","TOWNNAME":"中壢區","MARKTYPE":"994","Class":"4"},"geometry":{"x":121.21703544648814,"y":24.955314541927152}},{"attributes":{"OBJECTID":1888,"LANDMARKID":"1000300000826","LANDMARKCO":"402","LANDMARKNA":"大眾電信(傑昇通信)-中壢中正店","LANDMARKAD":"1000302","ADDRESS":"桃園縣中壢市中正路341號","TEL":"03-401-5223","COUNTYNAME":"桃園市","TOWNNAME":"中壢區","MARKTYPE":"994","Class":"4"},"geometry":{"x":121.21686149814182,"y":24.955345795167837}},{"attributes":{"OBJECTID":1889,"LANDMARKID":"1000300000827","LANDMARKCO":"402","LANDMARKNA":"大眾電信-內壢中華店","LANDMARKAD":"1000302","ADDRESS":"桃園縣中壢市中華路一段200號","TEL":"0968-544611","COUNTYNAME":"桃園市","TOWNNAME":"中壢區","MARKTYPE":"994","Class":"4"},"geometry":{"x":121.25935414148408,"y":24.973720303920722}},{"attributes":{"OBJECTID":1890,"LANDMARKID":"1000300000828","LANDMARKCO":"402","LANDMARKNA":"大眾電信(震旦通訊)-內壢中華店","LANDMARKAD":"1000302","ADDRESS":"桃園縣中壢市中華路一段233號","TEL":"03-4555599","COUNTYNAME":"桃園市","TOWNNAME":"中壢區","MARKTYPE":"994","Class":"4"},"geometry":{"x":121.25873468833714,"y":24.973029381788258}},{"attributes":{"OBJECTID":1891,"LANDMARKID":"1000300000829","LANDMARKCO":"402","LANDMARKNA":"大眾電信(傑昇通信)-內壢中華店","LANDMARKAD":"1000302","ADDRESS":"桃園縣中壢市中華路一段234號","TEL":"03-461-7987","COUNTYNAME":"桃園市","TOWNNAME":"中壢區","MARKTYPE":"994","Class":"4"},"geometry":{"x":121.25854706618217,"y":24.973210708206693}},{"attributes":{"OBJECTID":1892,"LANDMARKID":"1000300000830","LANDMARKCO":"402","LANDMARKNA":"大眾電信(傑昇通信)-中壢延平店","LANDMARKAD":"1000302","ADDRESS":"桃園縣中壢市延平路598號","TEL":"03-422-1667","COUNTYNAME":"桃園市","TOWNNAME":"中壢區","MARKTYPE":"994","Class":"4"},"geometry":{"x":121.22220189674545,"y":24.954391990955585}},{"attributes":{"OBJECTID":1893,"LANDMARKID":"1000300000831","LANDMARKCO":"402","LANDMARKNA":"大眾電信(震旦通訊)-中壢健行店","LANDMARKAD":"1000302","ADDRESS":"桃園縣中壢市健行路153號","TEL":"03-4581621","COUNTYNAME":"桃園市","TOWNNAME":"中壢區","MARKTYPE":"994","Class":"4"},"geometry":{"x":121.22751841029906,"y":24.94907825413889}},{"attributes":{"OBJECTID":1894,"LANDMARKID":"1000300000832","LANDMARKCO":"402","LANDMARKNA":"大眾電信-中壢復興店","LANDMARKAD":"1000302","ADDRESS":"桃園縣中壢市復興路51號","TEL":"0968-544610","COUNTYNAME":"桃園市","TOWNNAME":"中壢區","MARKTYPE":"994","Class":"4"},"geometry":{"x":121.22512648478295,"y":24.95692188725225}},{"attributes":{"OBJECTID":1895,"LANDMARKID":"1000300000833","LANDMARKCO":"402","LANDMARKNA":"大眾電信(震旦通訊)-中壢新生店","LANDMARKAD":"1000302","ADDRESS":"桃園縣中壢市新生路225號","TEL":"03-4251355","COUNTYNAME":"桃園市","TOWNNAME":"中壢區","MARKTYPE":"994","Class":"4"},"geometry":{"x":121.22292341675281,"y":24.962453030333958}},{"attributes":{"OBJECTID":1896,"LANDMARKID":"1000300000834","LANDMARKCO":"402","LANDMARKNA":"大眾電信(震旦通訊)-中壢士校店","LANDMARKAD":"1000302","ADDRESS":"桃園縣中壢市龍東路390號","TEL":"03-4657221","COUNTYNAME":"桃園市","TOWNNAME":"中壢區","MARKTYPE":"994","Class":"4"},"geometry":{"x":121.25578292637589,"y":24.932942688110053}},{"attributes":{"OBJECTID":1897,"LANDMARKID":"1000300001484","LANDMARKCO":"603","LANDMARKNA":"伯爵商務旅店","LANDMARKAD":"1000302","ADDRESS":"桃園縣中壢市中北路二段437巷8號1-4樓","TEL":"03-4595959","COUNTYNAME":"桃園市","TOWNNAME":"中壢區","MARKTYPE":"996","Class":"6"},"geometry":{"x":121.23208167555929,"y":24.95473870899092}},{"attributes":{"OBJECTID":1898,"LANDMARKID":"1000300001485","LANDMARKCO":"603","LANDMARKNA":"當代商務飯店","LANDMARKAD":"1000302","ADDRESS":"桃園縣中壢市新興路194巷5號2-6樓","TEL":"03-4598881","COUNTYNAME":"桃園市","TOWNNAME":"中壢區","MARKTYPE":"996","Class":"6"},"geometry":{"x":121.22731289943023,"y":24.953267567449625}},{"attributes":{"OBJECTID":1899,"LANDMARKID":"1000300001486","LANDMARKCO":"603","LANDMARKNA":"信大賓館","LANDMARKAD":"1000302","ADDRESS":"桃園縣中壢市中正路15號6樓-1","TEL":"03-4225250","COUNTYNAME":"桃園市","TOWNNAME":"中壢區","MARKTYPE":"996","Class":"6"},"geometry":{"x":121.2248979169281,"y":24.953833063577907}},{"attributes":{"OBJECTID":1900,"LANDMARKID":"1000300001487","LANDMARKCO":"603","LANDMARKNA":"公爵旅館","LANDMARKAD":"1000302","ADDRESS":"桃園縣中壢市新興路198號7-9樓","TEL":"03-4598822","COUNTYNAME":"桃園市","TOWNNAME":"中壢區","MARKTYPE":"996","Class":"6"},"geometry":{"x":121.22742512410245,"y":24.953389395935783}},{"attributes":{"OBJECTID":1901,"LANDMARKID":"1000300001488","LANDMARKCO":"603","LANDMARKNA":"廣東大旅社","LANDMARKAD":"1000302","ADDRESS":"桃園縣中壢市大同路60號2、3、4樓","TEL":"03-4222060","COUNTYNAME":"桃園市","TOWNNAME":"中壢區","MARKTYPE":"996","Class":"6"},"geometry":{"x":121.22340576738772,"y":24.958197307611943}},{"attributes":{"OBJECTID":1902,"LANDMARKID":"1000300001489","LANDMARKCO":"603","LANDMARKNA":"五木旅社","LANDMARKAD":"1000302","ADDRESS":"桃園縣中壢市中正路15號8樓之1.11.17.19.21","TEL":"03-4255970","COUNTYNAME":"桃園市","TOWNNAME":"中壢區","MARKTYPE":"996","Class":"6"},"geometry":{"x":121.2248979169281,"y":24.953833063577907}},{"attributes":{"OBJECTID":1903,"LANDMARKID":"1000300001490","LANDMARKCO":"603","LANDMARKNA":"羅曼蒂旅社","LANDMARKAD":"1000302","ADDRESS":"桃園縣中壢市中正路15號9樓之1.2.3.4.7.9.10.13.14.16","TEL":"03-4223343","COUNTYNAME":"桃園市","TOWNNAME":"中壢區","MARKTYPE":"996","Class":"6"},"geometry":{"x":121.2248979169281,"y":24.953833063577907}},{"attributes":{"OBJECTID":1904,"LANDMARKID":"1000300001491","LANDMARKCO":"603","LANDMARKNA":"寶山旅社","LANDMARKAD":"1000302","ADDRESS":"桃園縣中壢市中正路16號2-4樓","TEL":"03-4223284","COUNTYNAME":"桃園市","TOWNNAME":"中壢區","MARKTYPE":"996","Class":"6"},"geometry":{"x":121.22502440445639,"y":24.954101042027524}},{"attributes":{"OBJECTID":1905,"LANDMARKID":"1000300001492","LANDMARKCO":"603","LANDMARKNA":"福容大飯店 中壢","LANDMARKAD":"1000302","ADDRESS":"桃園縣中壢市中正路89號1","TEL":"4-6","COUNTYNAME":"桃園市","TOWNNAME":"中壢區","MARKTYPE":"996","Class":"6"},"geometry":{"x":121.22395908195976,"y":24.955034477868651}},{"attributes":{"OBJECTID":1906,"LANDMARKID":"1000300001493","LANDMARKCO":"603","LANDMARKNA":"花漾旅館","LANDMARKAD":"1000302","ADDRESS":"桃園縣中壢市中和路178、178-1、180、180-1號4-7樓","TEL":"03-4253108","COUNTYNAME":"桃園市","TOWNNAME":"中壢區","MARKTYPE":"996","Class":"6"},"geometry":{"x":121.22395498856368,"y":24.953324483713534}},{"attributes":{"OBJECTID":1907,"LANDMARKID":"1000300001494","LANDMARKCO":"603","LANDMARKNA":"華泰大旅社","LANDMARKAD":"1000302","ADDRESS":"桃園縣中壢市中美路二段120號","TEL":"03-4222660","COUNTYNAME":"桃園市","TOWNNAME":"中壢區","MARKTYPE":"996","Class":"6"},"geometry":{"x":121.22141104725793,"y":24.960037167784645}},{"attributes":{"OBJECTID":1908,"LANDMARKID":"1000300001495","LANDMARKCO":"603","LANDMARKNA":"健倫商務旅館","LANDMARKAD":"1000302","ADDRESS":"桃園縣中壢市永嘉街98號1-2樓;中美路2段153號3樓-6","TEL":"4","COUNTYNAME":"桃園市","TOWNNAME":"中壢區","MARKTYPE":"996","Class":"6"},"geometry":{"x":121.21990308952624,"y":24.95950940207096}},{"attributes":{"OBJECTID":1909,"LANDMARKID":"1000300001496","LANDMARKCO":"603","LANDMARKNA":"松荷御宿汽車旅館","LANDMARKAD":"1000302","ADDRESS":"桃園縣中壢市成章三街91號1-3樓","TEL":"03-4355737","COUNTYNAME":"桃園市","TOWNNAME":"中壢區","MARKTYPE":"996","Class":"6"},"geometry":{"x":121.25635647502853,"y":24.979936701550777}},{"attributes":{"OBJECTID":1910,"LANDMARKID":"1000300001497","LANDMARKCO":"603","LANDMARKNA":"喬爵大飯店","LANDMARKAD":"1000302","ADDRESS":"桃園縣中壢市延平路216號2-7樓","TEL":"03-4622345","COUNTYNAME":"桃園市","TOWNNAME":"中壢區","MARKTYPE":"996","Class":"6"},"geometry":{"x":121.22772577681162,"y":24.961913935864814}},{"attributes":{"OBJECTID":1911,"LANDMARKID":"1000300001498","LANDMARKCO":"603","LANDMARKNA":"中壢大飯店","LANDMARKAD":"1000302","ADDRESS":"桃園縣中壢市延平路645號4-11樓","TEL":"03-4224168","COUNTYNAME":"桃園市","TOWNNAME":"中壢區","MARKTYPE":"996","Class":"6"},"geometry":{"x":121.22193609673546,"y":24.953389387623172}},{"attributes":{"OBJECTID":1912,"LANDMARKID":"1000300001499","LANDMARKCO":"603","LANDMARKNA":"佳佳旅館","LANDMARKAD":"1000302","ADDRESS":"桃園縣中壢市東興街48-1至48-21號","TEL":"48號2樓之1、之2","COUNTYNAME":"桃園市","TOWNNAME":"中壢區","MARKTYPE":"996","Class":"6"},"geometry":{"x":121.22538936650965,"y":24.951849489440345}},{"attributes":{"OBJECTID":1913,"LANDMARKID":"1000300001500","LANDMARKCO":"603","LANDMARKNA":"金樺旅館","LANDMARKAD":"1000302","ADDRESS":"桃園縣中壢市長興街55巷1","TEL":"2","COUNTYNAME":"桃園市","TOWNNAME":"中壢區","MARKTYPE":"996","Class":"6"},"geometry":{"x":121.25063046670329,"y":24.969675019034192}},{"attributes":{"OBJECTID":1914,"LANDMARKID":"1000300001501","LANDMARKCO":"603","LANDMARKNA":"麗莊汽車旅館","LANDMARKAD":"1000302","ADDRESS":"桃園縣中壢市復華街269號1-2樓","TEL":"03-4345988","COUNTYNAME":"桃園市","TOWNNAME":"中壢區","MARKTYPE":"996","Class":"6"},"geometry":{"x":121.2481553549311,"y":24.975675525806796}},{"attributes":{"OBJECTID":1915,"LANDMARKID":"1000300001502","LANDMARKCO":"603","LANDMARKNA":"貝多芬旅館","LANDMARKAD":"1000302","ADDRESS":"桃園縣中壢市新興路22號1-5樓","TEL":"03-4577226","COUNTYNAME":"桃園市","TOWNNAME":"中壢區","MARKTYPE":"996","Class":"6"},"geometry":{"x":121.22286090018343,"y":24.951611124720021}},{"attributes":{"OBJECTID":1916,"LANDMARKID":"1000300001503","LANDMARKCO":"603","LANDMARKNA":"名仕賓館","LANDMARKAD":"1000302","ADDRESS":"桃園縣中壢市新興路242號1-6樓","TEL":"03-4574533-6","COUNTYNAME":"桃園市","TOWNNAME":"中壢區","MARKTYPE":"996","Class":"6"},"geometry":{"x":121.22825871013224,"y":24.953705342587483}},{"attributes":{"OBJECTID":1917,"LANDMARKID":"1000300001504","LANDMARKCO":"603","LANDMARKNA":"東帝位客棧","LANDMARKAD":"1000302","ADDRESS":"桃園縣中壢市新興路250號","TEL":"03-4573152-3","COUNTYNAME":"桃園市","TOWNNAME":"中壢區","MARKTYPE":"996","Class":"6"},"geometry":{"x":121.22847785679397,"y":24.953784006868286}},{"attributes":{"OBJECTID":1918,"LANDMARKID":"1000300001505","LANDMARKCO":"603","LANDMARKNA":"賓士旅館","LANDMARKAD":"1000302","ADDRESS":"桃園縣中壢市新興路256、258號1-4樓","TEL":"03-4595466","COUNTYNAME":"桃園市","TOWNNAME":"中壢區","MARKTYPE":"996","Class":"6"},"geometry":{"x":121.22847785679397,"y":24.953784006868286}},{"attributes":{"OBJECTID":1919,"LANDMARKID":"1000300001506","LANDMARKCO":"603","LANDMARKNA":"桂冠旅館","LANDMARKAD":"1000302","ADDRESS":"桃園縣中壢市裕民街24號2-3樓","TEL":"03-4221022","COUNTYNAME":"桃園市","TOWNNAME":"中壢區","MARKTYPE":"996","Class":"6"},"geometry":{"x":121.22873308576391,"y":24.953906615293338}},{"attributes":{"OBJECTID":1920,"LANDMARKID":"1000300001507","LANDMARKCO":"603","LANDMARKNA":"金城大旅社","LANDMARKAD":"1000302","ADDRESS":"桃園縣中壢市興農路91號","TEL":"03-4550734","COUNTYNAME":"桃園市","TOWNNAME":"中壢區","MARKTYPE":"996","Class":"6"},"geometry":{"x":121.25697791617694,"y":24.973144630663494}},{"attributes":{"OBJECTID":1921,"LANDMARKID":"1000300001508","LANDMARKCO":"603","LANDMARKNA":"星光旅店","LANDMARKAD":"1000302","ADDRESS":"桃園縣中壢市環北路191號1-7樓","TEL":"03-4520001","COUNTYNAME":"桃園市","TOWNNAME":"中壢區","MARKTYPE":"996","Class":"6"},"geometry":{"x":121.22231752382442,"y":24.966406936263731}},{"attributes":{"OBJECTID":1922,"LANDMARKID":"1000300001509","LANDMARKCO":"603","LANDMARKNA":"蓮園商務旅館","LANDMARKAD":"1000302","ADDRESS":"桃園縣中壢市中美路二段153號5樓之2至5、6樓之2至5、7","TEL":"03-4258163","COUNTYNAME":"桃園市","TOWNNAME":"中壢區","MARKTYPE":"996","Class":"6"},"geometry":{"x":121.21985706435487,"y":24.960058470064485}},{"attributes":{"OBJECTID":1923,"LANDMARKID":"1000300001510","LANDMARKCO":"603","LANDMARKNA":"桃企大飯店","LANDMARKAD":"1000302","ADDRESS":"桃園縣中壢市復興路161號9-12樓","TEL":"03-4266628","COUNTYNAME":"桃園市","TOWNNAME":"中壢區","MARKTYPE":"996","Class":"6"},"geometry":{"x":121.22373007119405,"y":24.953923821334836}},{"attributes":{"OBJECTID":1924,"LANDMARKID":"1000300001511","LANDMARKCO":"603","LANDMARKNA":"中壢中信大飯店","LANDMARKAD":"1000302","ADDRESS":"桃園縣中壢市中央西路一段120號24-29樓","TEL":"03-4279966","COUNTYNAME":"桃園市","TOWNNAME":"中壢區","MARKTYPE":"996","Class":"6"},"geometry":{"x":121.22024821602254,"y":24.958454891771478}},{"attributes":{"OBJECTID":1925,"LANDMARKID":"1000300001512","LANDMARKCO":"603","LANDMARKNA":"福隆大旅社","LANDMARKAD":"1000302","ADDRESS":"桃園縣中壢市中平路16號2-3樓","TEL":"03-4222182","COUNTYNAME":"桃園市","TOWNNAME":"中壢區","MARKTYPE":"996","Class":"6"},"geometry":{"x":121.22575315652213,"y":24.954508939127422}},{"attributes":{"OBJECTID":1926,"LANDMARKID":"1000300001513","LANDMARKCO":"603","LANDMARKNA":"裕民大旅社","LANDMARKAD":"1000302","ADDRESS":"桃園縣中壢市中平路176號","TEL":"03-4253317","COUNTYNAME":"桃園市","TOWNNAME":"中壢區","MARKTYPE":"996","Class":"6"},"geometry":{"x":121.22177399057274,"y":24.956108628226378}},{"attributes":{"OBJECTID":1927,"LANDMARKID":"1000300001514","LANDMARKCO":"603","LANDMARKNA":"運春旅社","LANDMARKAD":"1000302","ADDRESS":"桃園縣中壢市中平路52號2-5樓","TEL":"03-4224156","COUNTYNAME":"桃園市","TOWNNAME":"中壢區","MARKTYPE":"996","Class":"6"},"geometry":{"x":121.22500772577514,"y":24.95482806681332}},{"attributes":{"OBJECTID":1928,"LANDMARKID":"1000300001515","LANDMARKCO":"603","LANDMARKNA":"中央大飯店","LANDMARKAD":"1000302","ADDRESS":"桃園縣中壢市中平路55號2-7樓","TEL":"03-4223125-8","COUNTYNAME":"桃園市","TOWNNAME":"中壢區","MARKTYPE":"996","Class":"6"},"geometry":{"x":121.22473763320828,"y":24.954779305018793}},{"attributes":{"OBJECTID":1929,"LANDMARKID":"1000300001516","LANDMARKCO":"603","LANDMARKNA":"帝國大旅社","LANDMARKAD":"1000302","ADDRESS":"桃園縣中壢市中正路15號11樓-1","TEL":"03-4268181","COUNTYNAME":"桃園市","TOWNNAME":"中壢區","MARKTYPE":"996","Class":"6"},"geometry":{"x":121.2248979169281,"y":24.953833063577907}},{"attributes":{"OBJECTID":1930,"LANDMARKID":"1000300001517","LANDMARKCO":"603","LANDMARKNA":"怡香賓館","LANDMARKAD":"1000302","ADDRESS":"桃園縣中壢市中美路二段153號6樓之12","TEL":"03-4253839","COUNTYNAME":"桃園市","TOWNNAME":"中壢區","MARKTYPE":"996","Class":"6"},"geometry":{"x":121.21985706435487,"y":24.960058470064485}},{"attributes":{"OBJECTID":1931,"LANDMARKID":"1000300001518","LANDMARKCO":"603","LANDMARKNA":"天堂島汽車旅館","LANDMARKAD":"1000302","ADDRESS":"桃園縣中壢市中美路二段160號2-3樓","TEL":"03-2806888","COUNTYNAME":"桃園市","TOWNNAME":"中壢區","MARKTYPE":"996","Class":"6"},"geometry":{"x":121.22000340652052,"y":24.960250253470178}},{"attributes":{"OBJECTID":1932,"LANDMARKID":"1000300001519","LANDMARKCO":"603","LANDMARKNA":"月谷大旅館","LANDMARKAD":"1000302","ADDRESS":"桃園縣中壢市中華路一段428號3-5樓","TEL":"03-4555132","COUNTYNAME":"桃園市","TOWNNAME":"中壢區","MARKTYPE":"996","Class":"6"},"geometry":{"x":121.25459329200376,"y":24.971529985332221}},{"attributes":{"OBJECTID":1933,"LANDMARKID":"1000300001520","LANDMARKCO":"603","LANDMARKNA":"百老?旅館","LANDMARKAD":"1000302","ADDRESS":"桃園縣中壢市元化路二段122號","TEL":"03-4226322","COUNTYNAME":"桃園市","TOWNNAME":"中壢區","MARKTYPE":"996","Class":"6"},"geometry":{"x":121.2198430330061,"y":24.962818490164686}},{"attributes":{"OBJECTID":1934,"LANDMARKID":"1000300001521","LANDMARKCO":"603","LANDMARKNA":"一六八旅館-中壢館","LANDMARKAD":"1000302","ADDRESS":"桃園縣中壢市正光街191號2樓","TEL":"03-4945533","COUNTYNAME":"桃園市","TOWNNAME":"中壢區","MARKTYPE":"996","Class":"6"},"geometry":{"x":121.20454350695915,"y":24.960455664338642}},{"attributes":{"OBJECTID":1935,"LANDMARKID":"1000300001522","LANDMARKCO":"603","LANDMARKNA":"儷灣經典旅館","LANDMARKAD":"1000302","ADDRESS":"桃園縣中壢市華夏路173號2-3樓","TEL":"03-4336789","COUNTYNAME":"桃園市","TOWNNAME":"中壢區","MARKTYPE":"996","Class":"6"},"geometry":{"x":121.22516549188299,"y":24.971362828442846}},{"attributes":{"OBJECTID":1936,"LANDMARKID":"1000300001523","LANDMARKCO":"603","LANDMARKNA":"景園大飯店","LANDMARKAD":"1000302","ADDRESS":"桃園縣中壢市新生路65-1號7-10樓","TEL":"03-4257151","COUNTYNAME":"桃園市","TOWNNAME":"中壢區","MARKTYPE":"996","Class":"6"},"geometry":{"x":121.22214765458826,"y":24.958698071048321}},{"attributes":{"OBJECTID":1937,"LANDMARKID":"1000300001524","LANDMARKCO":"603","LANDMARKNA":"大享賓館","LANDMARKAD":"1000302","ADDRESS":"桃園縣中壢市新興路114號1-4樓","TEL":"03-4582568","COUNTYNAME":"桃園市","TOWNNAME":"中壢區","MARKTYPE":"996","Class":"6"},"geometry":{"x":121.22530256227689,"y":24.952507621038134}},{"attributes":{"OBJECTID":1938,"LANDMARKID":"1000300001525","LANDMARKCO":"603","LANDMARKNA":"愛愛大旅社","LANDMARKAD":"1000302","ADDRESS":"桃園縣中壢市新興路116號1-4樓","TEL":"03-4572166","COUNTYNAME":"桃園市","TOWNNAME":"中壢區","MARKTYPE":"996","Class":"6"},"geometry":{"x":121.22530256227689,"y":24.952507621038134}},{"attributes":{"OBJECTID":1939,"LANDMARKID":"1000300001526","LANDMARKCO":"603","LANDMARKNA":"佳美旅館","LANDMARKAD":"1000302","ADDRESS":"桃園縣中壢市新興路120號1-4樓","TEL":"03-4590129","COUNTYNAME":"桃園市","TOWNNAME":"中壢區","MARKTYPE":"996","Class":"6"},"geometry":{"x":121.22547670240712,"y":24.95258235734789}},{"attributes":{"OBJECTID":1940,"LANDMARKID":"1000300001527","LANDMARKCO":"603","LANDMARKNA":"七星國際旅館","LANDMARKAD":"1000302","ADDRESS":"桃園縣中壢市中華路二段152號","TEL":"03-4636666","COUNTYNAME":"桃園市","TOWNNAME":"中壢區","MARKTYPE":"996","Class":"6"},"geometry":{"x":121.24026131429588,"y":24.966110870760485}},{"attributes":{"OBJECTID":1941,"LANDMARKID":"1000300001528","LANDMARKCO":"603","LANDMARKNA":"摩斯汽車旅館","LANDMARKAD":"1000302","ADDRESS":"桃園縣中壢市中園路75號","TEL":"03-4351919","COUNTYNAME":"桃園市","TOWNNAME":"中壢區","MARKTYPE":"996","Class":"6"},"geometry":{"x":121.23622031571479,"y":24.966149905731427}},{"attributes":{"OBJECTID":1942,"LANDMARKID":"1000300001529","LANDMARKCO":"603","LANDMARKNA":"蓬萊旅社","LANDMARKAD":"1000302","ADDRESS":"桃園縣中壢市中平路174號","TEL":"03-4222053","COUNTYNAME":"桃園市","TOWNNAME":"中壢區","MARKTYPE":"996","Class":"6"},"geometry":{"x":121.22177399057274,"y":24.956108628226378}},{"attributes":{"OBJECTID":1943,"LANDMARKID":"1000300001483","LANDMARKCO":"602","LANDMARKNA":"古華花園飯店","LANDMARKAD":"1000302","ADDRESS":"桃園縣中壢市民權路398號","TEL":"03-281-1818","COUNTYNAME":"桃園市","TOWNNAME":"中壢區","MARKTYPE":"996","Class":"6"},"geometry":{"x":121.21690233378683,"y":24.964649735535495}},{"attributes":{"OBJECTID":1944,"LANDMARKID":"1000300001472","LANDMARKCO":"511","LANDMARKNA":"中壢觀光夜市(新明夜市)","LANDMARKAD":"1000302","ADDRESS":"桃園縣中壢市新明路","TEL":" ","COUNTYNAME":"桃園市","TOWNNAME":"中壢區","MARKTYPE":"995","Class":"5"},"geometry":{"x":121.21505889364396,"y":24.959189508713589}},{"attributes":{"OBJECTID":1945,"LANDMARKID":"1000300001473","LANDMARKCO":"511","LANDMARKNA":"萬利花市","LANDMARKAD":"1000302","ADDRESS":"桃園縣中壢市","TEL":" ","COUNTYNAME":"桃園市","TOWNNAME":"中壢區","MARKTYPE":"995","Class":"5"},"geometry":{"x":121.21856766304245,"y":24.958393681090183}},{"attributes":{"OBJECTID":1946,"LANDMARKID":"1000300001466","LANDMARKCO":"510","LANDMARKNA":"鄉城高爾夫練習場","LANDMARKAD":"1000302","ADDRESS":"桃園縣中壢市中大路170巷19-5號","TEL":"03-4221999","COUNTYNAME":"桃園市","TOWNNAME":"中壢區","MARKTYPE":"995","Class":"5"},"geometry":{"x":121.19890345181429,"y":24.969029891416533}},{"attributes":{"OBJECTID":1947,"LANDMARKID":"1000300001471","LANDMARKCO":"511","LANDMARKNA":"中原夜市","LANDMARKAD":"1000302","ADDRESS":"國道一號公路下內壢交流道，入中壢市區經中園路，接忠","TEL":" ","COUNTYNAME":"桃園市","TOWNNAME":"中壢區","MARKTYPE":"995","Class":"5"},"geometry":{"x":121.23980890397709,"y":24.957054600214729}},{"attributes":{"OBJECTID":1948,"LANDMARKID":"1000300001042","LANDMARKCO":"405","LANDMARKNA":"中油加油站-永新站","LANDMARKAD":"1000311","ADDRESS":"桃園縣新屋鄉中山西路3段669號","TEL":"03-4863655","COUNTYNAME":"桃園市","TOWNNAME":"新屋區","MARKTYPE":"994","Class":"4"},"geometry":{"x":121.02462705652006,"y":24.988020090783873}},{"attributes":{"OBJECTID":1949,"LANDMARKID":"1000300001043","LANDMARKCO":"405","LANDMARKNA":"中油加油站-富源站","LANDMARKAD":"1000311","ADDRESS":"桃園縣新屋鄉民族路六段435號","TEL":"03-4905377","COUNTYNAME":"桃園市","TOWNNAME":"新屋區","MARKTYPE":"994","Class":"4"},"geometry":{"x":121.15604806232609,"y":24.962746544233077}},{"attributes":{"OBJECTID":1950,"LANDMARKID":"1000300001044","LANDMARKCO":"405","LANDMARKNA":"中油加油站-大加站","LANDMARKAD":"1000311","ADDRESS":"桃園縣新屋鄉深圳村深圳2之3號","TEL":"03-4760862","COUNTYNAME":"桃園市","TOWNNAME":"新屋區","MARKTYPE":"994","Class":"4"},"geometry":{"x":121.01074402114081,"y":24.961356904264363}},{"attributes":{"OBJECTID":1951,"LANDMARKID":"1000300001045","LANDMARKCO":"405","LANDMARKNA":"台灣優力加油站-新屋站(中油)","LANDMARKAD":"1000311","ADDRESS":"桃園縣新屋鄉中山東路一段620號","TEL":"03-4971039","COUNTYNAME":"桃園市","TOWNNAME":"新屋區","MARKTYPE":"994","Class":"4"},"geometry":{"x":121.12887290085027,"y":24.972035328867868}},{"attributes":{"OBJECTID":1952,"LANDMARKID":"1000300001046","LANDMARKCO":"405","LANDMARKNA":"中油加油站-北海站","LANDMARKAD":"1000311","ADDRESS":"桃園縣新屋鄉新屋村15鄰三民路61號","TEL":"03-4972025","COUNTYNAME":"桃園市","TOWNNAME":"新屋區","MARKTYPE":"994","Class":"4"},"geometry":{"x":121.10960147843362,"y":24.969985111764462}},{"attributes":{"OBJECTID":1953,"LANDMARKID":"1000300001047","LANDMARKCO":"405","LANDMARKNA":"中油加油站-永安海濱站","LANDMARKAD":"1000311","ADDRESS":"桃園縣新屋鄉永安村下庄子229-20號","TEL":"03-4861614","COUNTYNAME":"桃園市","TOWNNAME":"新屋區","MARKTYPE":"994","Class":"4"},"geometry":{"x":121.02169565666691,"y":24.990030079185406}},{"attributes":{"OBJECTID":1954,"LANDMARKID":"1000300001048","LANDMARKCO":"405","LANDMARKNA":"中油加油站-新屋站(中油直營)","LANDMARKAD":"1000311","ADDRESS":"桃園縣新屋鄉中山路85號","TEL":"03-4772644","COUNTYNAME":"桃園市","TOWNNAME":"新屋區","MARKTYPE":"994","Class":"4"},"geometry":{"x":121.10910696597504,"y":24.971673494632114}},{"attributes":{"OBJECTID":1955,"LANDMARKID":"1000300000785","LANDMARKCO":"401","LANDMARKNA":"行政院衛生署桃園醫院新屋分院","LANDMARKAD":"1000311","ADDRESS":"桃園縣新屋鄉新福二路6號","TEL":"03-4971989","COUNTYNAME":"桃園市","TOWNNAME":"新屋區","MARKTYPE":"994","Class":"4"},"geometry":{"x":121.1067393493403,"y":24.969363154628201}},{"attributes":{"OBJECTID":1956,"LANDMARKID":"1000300001436","LANDMARKCO":"507","LANDMARKNA":"新屋范姜祖堂","LANDMARKAD":"1000311","ADDRESS":"桃園縣新屋鄉新生村中正路110巷9號","TEL":" ","COUNTYNAME":"桃園市","TOWNNAME":"新屋區","MARKTYPE":"995","Class":"5"},"geometry":{"x":121.10479511802664,"y":24.97426515144975}},{"attributes":{"OBJECTID":1957,"LANDMARKID":"1000300001434","LANDMARKCO":"506","LANDMARKNA":"九斗村休閒農場","LANDMARKAD":"1000311","ADDRESS":"桃園縣新屋鄉九斗村4鄰5號","TEL":"03-4772249","COUNTYNAME":"桃園市","TOWNNAME":"新屋區","MARKTYPE":"995","Class":"5"},"geometry":{"x":121.12811302440271,"y":24.960659199028914}},{"attributes":{"OBJECTID":1958,"LANDMARKID":"1000300001342","LANDMARKCO":"408","LANDMARKNA":"郵局-新屋郵局","LANDMARKAD":"1000311","ADDRESS":"桃園縣新屋鄉中山路279號","TEL":"(03)4772-624","COUNTYNAME":"桃園市","TOWNNAME":"新屋區","MARKTYPE":"994","Class":"4"},"geometry":{"x":121.1048833042889,"y":24.972581610491208}},{"attributes":{"OBJECTID":1959,"LANDMARKID":"1000300001343","LANDMARKCO":"408","LANDMARKNA":"郵局-新屋永安郵局","LANDMARKAD":"1000311","ADDRESS":"桃園縣新屋鄉中山西路三段222、224號","TEL":"(03)4864-908","COUNTYNAME":"桃園市","TOWNNAME":"新屋區","MARKTYPE":"994","Class":"4"},"geometry":{"x":121.04099562403607,"y":24.987995513378994}},{"attributes":{"OBJECTID":1960,"LANDMARKID":"1000300001387","LANDMARKCO":"409","LANDMARKNA":"桃園縣新屋鄉農會","LANDMARKAD":"1000311","ADDRESS":"桃園縣新屋鄉新屋村中華路242號","TEL":"03-4772124-5","COUNTYNAME":"桃園市","TOWNNAME":"新屋區","MARKTYPE":"994","Class":"4"},"geometry":{"x":121.10725079792587,"y":24.979095733156189}},{"attributes":{"OBJECTID":1961,"LANDMARKID":"1000300001249","LANDMARKCO":"406","LANDMARKNA":"永安海濱公園","LANDMARKAD":"1000311","ADDRESS":"桃園縣新屋鄉","TEL":" ","COUNTYNAME":"桃園市","TOWNNAME":"新屋區","MARKTYPE":"994","Class":"4"},"geometry":{"x":121.01402928427804,"y":24.980178721152367}},{"attributes":{"OBJECTID":1962,"LANDMARKID":"1000300001272","LANDMARKCO":"407","LANDMARKNA":"小北百貨","LANDMARKAD":"1000311","ADDRESS":"桃園縣桃園市中山路382號","TEL":"(03)3331110???","COUNTYNAME":"桃園市","TOWNNAME":"新屋區","MARKTYPE":"994","Class":"4"},"geometry":{"x":121.04073019814882,"y":24.992267586286587}},{"attributes":{"OBJECTID":1963,"LANDMARKID":"1000300001018","LANDMARKCO":"405","LANDMARKNA":"台塑加油站-豫章站(台塑)","LANDMARKAD":"1000311","ADDRESS":"桃園縣新屋鄉三民路455號","TEL":"03-4870082","COUNTYNAME":"桃園市","TOWNNAME":"新屋區","MARKTYPE":"994","Class":"4"},"geometry":{"x":121.10037338769735,"y":24.969561338971577}},{"attributes":{"OBJECTID":1964,"LANDMARKID":"1000300000248","LANDMARKCO":"108","LANDMARKNA":"桃園縣新屋鄉公所","LANDMARKAD":"1000311","ADDRESS":"桃園縣新屋鄉中山路265號","TEL":"03-4772111","COUNTYNAME":"桃園市","TOWNNAME":"新屋區","MARKTYPE":"991","Class":"1"},"geometry":{"x":121.10576189251461,"y":24.972267177818448}},{"attributes":{"OBJECTID":1965,"LANDMARKID":"1000300000054","LANDMARKCO":"103","LANDMARKNA":"桃園縣新屋鄉鄉民代表會","LANDMARKAD":"1000311","ADDRESS":"桃園縣新屋鄉中山路269號","TEL":"03-4772626","COUNTYNAME":"桃園市","TOWNNAME":"新屋區","MARKTYPE":"991","Class":"1"},"geometry":{"x":121.10521775036365,"y":24.972627141307058}},{"attributes":{"OBJECTID":1966,"LANDMARKID":"1000300000164","LANDMARKCO":"107","LANDMARKNA":"桃園縣消防局新屋消防分隊","LANDMARKAD":"1000311","ADDRESS":"桃園縣新屋鄉中華路436號","TEL":"03-4777270","COUNTYNAME":"桃園市","TOWNNAME":"新屋區","MARKTYPE":"991","Class":"1"},"geometry":{"x":121.1063601474807,"y":24.975967971153828}},{"attributes":{"OBJECTID":1967,"LANDMARKID":"1000300000165","LANDMARKCO":"107","LANDMARKNA":"桃園縣政府警察局埔頂派出所","LANDMARKAD":"1000311","ADDRESS":"桃園縣新屋鄉埔頂村中華南路二段445號","TEL":"03-4779178","COUNTYNAME":"桃園市","TOWNNAME":"新屋區","MARKTYPE":"991","Class":"1"},"geometry":{"x":121.11832328012034,"y":24.953387177578811}},{"attributes":{"OBJECTID":1968,"LANDMARKID":"1000300000166","LANDMARKCO":"107","LANDMARKNA":"桃園縣政府警察局新屋分駐所","LANDMARKAD":"1000311","ADDRESS":"桃園縣新屋鄉新屋村中山路239號","TEL":"03-4772014","COUNTYNAME":"桃園市","TOWNNAME":"新屋區","MARKTYPE":"991","Class":"1"},"geometry":{"x":121.10686161798043,"y":24.972446175209576}},{"attributes":{"OBJECTID":1969,"LANDMARKID":"1000300000167","LANDMARKCO":"107","LANDMARKNA":"桃園縣政府警察局永安派出所","LANDMARKAD":"1000311","ADDRESS":"桃園縣新屋鄉永安村中山西路三段62號","TEL":"03-4861092","COUNTYNAME":"桃園市","TOWNNAME":"新屋區","MARKTYPE":"991","Class":"1"},"geometry":{"x":121.04511196058202,"y":24.987646142417116}},{"attributes":{"OBJECTID":1970,"LANDMARKID":"1000300000105","LANDMARKCO":"106","LANDMARKNA":"桃園縣新屋鄉戶政事務所","LANDMARKAD":"1000311","ADDRESS":"桃園縣新屋鄉新屋村7鄰中山路241號","TEL":"03-4772102","COUNTYNAME":"桃園市","TOWNNAME":"新屋區","MARKTYPE":"991","Class":"1"},"geometry":{"x":121.10623777915809,"y":24.972537352627352}},{"attributes":{"OBJECTID":1971,"LANDMARKID":"1000300000052","LANDMARKCO":"103","LANDMARKNA":"桃園縣新屋鄉衛生所","LANDMARKAD":"1000311","ADDRESS":"桃園縣新屋鄉新生村中山路450號","TEL":"03-4772018","COUNTYNAME":"桃園市","TOWNNAME":"新屋區","MARKTYPE":"991","Class":"1"},"geometry":{"x":121.09590929731915,"y":24.973898174882386}},{"attributes":{"OBJECTID":1972,"LANDMARKID":"1000300000169","LANDMARKCO":"107","LANDMARKNA":"桃園縣政府警察局大坡派出所","LANDMARKAD":"1000311","ADDRESS":"桃園縣新屋鄉大坡村三角堀94號","TEL":"03-4768410","COUNTYNAME":"桃園市","TOWNNAME":"新屋區","MARKTYPE":"991","Class":"1"},"geometry":{"x":121.04111025007496,"y":24.957943423482032}},{"attributes":{"OBJECTID":1973,"LANDMARKID":"1000300000026","LANDMARKCO":"101","LANDMARKNA":"農業委員會桃園區農業改良場","LANDMARKAD":"1000311","ADDRESS":"桃園縣新屋鄉後庄村7鄰16號","TEL":"03-4768216","COUNTYNAME":"桃園市","TOWNNAME":"新屋區","MARKTYPE":"991","Class":"1"},"geometry":{"x":121.03026270754673,"y":24.94765371378049}},{"attributes":{"OBJECTID":1974,"LANDMARKID":"1000300000027","LANDMARKCO":"101","LANDMARKNA":"中央社國際收報總台","LANDMARKAD":"1000311","ADDRESS":"桃園縣新屋鄉下埔村4鄰3號","TEL":"03-4861854","COUNTYNAME":"桃園市","TOWNNAME":"新屋區","MARKTYPE":"991","Class":"1"},"geometry":{"x":121.04956767377389,"y":25.007235755952379}},{"attributes":{"OBJECTID":1975,"LANDMARKID":"1000300000551","LANDMARKCO":"204","LANDMARKNA":"桃園縣立圖書館新屋分館","LANDMARKAD":"1000311","ADDRESS":"桃園縣新屋鄉新生村中山路269號3樓","TEL":" ","COUNTYNAME":"桃園市","TOWNNAME":"新屋區","MARKTYPE":"992","Class":"2"},"geometry":{"x":121.10570063582274,"y":24.972615582372672}},{"attributes":{"OBJECTID":1976,"LANDMARKID":"1000300000404","LANDMARKCO":"203","LANDMARKNA":"縣立頭洲國小","LANDMARKAD":"1000311","ADDRESS":"桃園縣新屋鄉中山東路二段668巷64號","TEL":"03-4901204","COUNTYNAME":"桃園市","TOWNNAME":"新屋區","MARKTYPE":"992","Class":"2"},"geometry":{"x":121.14175765402153,"y":24.963389483203599}},{"attributes":{"OBJECTID":1977,"LANDMARKID":"1000300000292","LANDMARKCO":"202","LANDMARKNA":"私立清華高中附設國中部","LANDMARKAD":"1000311","ADDRESS":"桃園縣新屋鄉中華路658號","TEL":"03-4771196","COUNTYNAME":"桃園市","TOWNNAME":"新屋區","MARKTYPE":"992","Class":"2"},"geometry":{"x":121.10787015315836,"y":24.981292553532683}},{"attributes":{"OBJECTID":1978,"LANDMARKID":"1000300000391","LANDMARKCO":"203","LANDMARKNA":"縣立永安國中","LANDMARKAD":"1000311","ADDRESS":"桃園縣新屋鄉中山西路三段96號","TEL":"03-4762507","COUNTYNAME":"桃園市","TOWNNAME":"新屋區","MARKTYPE":"992","Class":"2"},"geometry":{"x":121.04356706857376,"y":24.988278247321777}},{"attributes":{"OBJECTID":1979,"LANDMARKID":"1000300000392","LANDMARKCO":"203","LANDMARKNA":"縣立新屋國中","LANDMARKAD":"1000311","ADDRESS":"桃園縣新屋鄉中興路111號","TEL":"03-4772029","COUNTYNAME":"桃園市","TOWNNAME":"新屋區","MARKTYPE":"992","Class":"2"},"geometry":{"x":121.10161973431498,"y":24.969650873384158}},{"attributes":{"OBJECTID":1980,"LANDMARKID":"1000300000393","LANDMARKCO":"203","LANDMARKNA":"縣立東明國小","LANDMARKAD":"1000311","ADDRESS":"桃園縣新屋鄉東明村中山西路一段474號","TEL":"03-4772500","COUNTYNAME":"桃園市","TOWNNAME":"新屋區","MARKTYPE":"992","Class":"2"},"geometry":{"x":121.0847779966664,"y":24.976613572543972}},{"attributes":{"OBJECTID":1981,"LANDMARKID":"1000300000394","LANDMARKCO":"203","LANDMARKNA":"縣立永安國小","LANDMARKAD":"1000311","ADDRESS":"桃園縣新屋鄉中山西路二段1320號","TEL":"03-4762224","COUNTYNAME":"桃園市","TOWNNAME":"新屋區","MARKTYPE":"992","Class":"2"},"geometry":{"x":121.04675635667377,"y":24.987645127464727}},{"attributes":{"OBJECTID":1982,"LANDMARKID":"1000300000395","LANDMARKCO":"203","LANDMARKNA":"縣立新屋國小","LANDMARKAD":"1000311","ADDRESS":"桃園縣新屋鄉新生村中正路196號","TEL":"03-4772016","COUNTYNAME":"桃園市","TOWNNAME":"新屋區","MARKTYPE":"992","Class":"2"},"geometry":{"x":121.10213992550865,"y":24.974164366383942}},{"attributes":{"OBJECTID":1983,"LANDMARKID":"1000300000396","LANDMARKCO":"203","LANDMARKNA":"縣立埔頂國小","LANDMARKAD":"1000311","ADDRESS":"桃園縣新屋鄉中華南路二段50號","TEL":"03-4772240","COUNTYNAME":"桃園市","TOWNNAME":"新屋區","MARKTYPE":"992","Class":"2"},"geometry":{"x":121.11545685511446,"y":24.957723170849423}},{"attributes":{"OBJECTID":1984,"LANDMARKID":"1000300000397","LANDMARKCO":"203","LANDMARKNA":"縣立大坡國中","LANDMARKAD":"1000311","ADDRESS":"桃園縣新屋鄉大坡村5鄰156號","TEL":"03-4768350","COUNTYNAME":"桃園市","TOWNNAME":"新屋區","MARKTYPE":"992","Class":"2"},"geometry":{"x":121.04003163691179,"y":24.962097088397542}},{"attributes":{"OBJECTID":1985,"LANDMARKID":"1000300000398","LANDMARKCO":"203","LANDMARKNA":"縣立笨港國小","LANDMARKAD":"1000311","ADDRESS":"桃園縣新屋鄉笨港村2鄰1之1號","TEL":"03-4769113","COUNTYNAME":"桃園市","TOWNNAME":"新屋區","MARKTYPE":"992","Class":"2"},"geometry":{"x":121.02617905549258,"y":24.974740056445253}},{"attributes":{"OBJECTID":1986,"LANDMARKID":"1000300000399","LANDMARKCO":"203","LANDMARKNA":"縣立北湖國小","LANDMARKAD":"1000311","ADDRESS":"桃園縣新屋鄉石牌村32號","TEL":"03-4762415","COUNTYNAME":"桃園市","TOWNNAME":"新屋區","MARKTYPE":"992","Class":"2"},"geometry":{"x":121.04958664677915,"y":25.004798082538311}},{"attributes":{"OBJECTID":1987,"LANDMARKID":"1000300000400","LANDMARKCO":"203","LANDMARKNA":"縣立蚵間國小","LANDMARKAD":"1000311","ADDRESS":"桃園縣新屋鄉後庄村3鄰40號","TEL":"03-4768413","COUNTYNAME":"桃園市","TOWNNAME":"新屋區","MARKTYPE":"992","Class":"2"},"geometry":{"x":121.00893230501194,"y":24.948018105981415}},{"attributes":{"OBJECTID":1988,"LANDMARKID":"1000300000401","LANDMARKCO":"203","LANDMARKNA":"縣立啟文國小","LANDMARKAD":"1000311","ADDRESS":"桃園縣新屋鄉清華村3鄰62號","TEL":"03-4772077","COUNTYNAME":"桃園市","TOWNNAME":"新屋區","MARKTYPE":"992","Class":"2"},"geometry":{"x":121.11686160173225,"y":24.978488469281192}},{"attributes":{"OBJECTID":1989,"LANDMARKID":"1000300000402","LANDMARKCO":"203","LANDMARKNA":"縣立大坡國小","LANDMARKAD":"1000311","ADDRESS":"桃園縣新屋鄉大坡村5鄰5號","TEL":"03-4768311","COUNTYNAME":"桃園市","TOWNNAME":"新屋區","MARKTYPE":"992","Class":"2"},"geometry":{"x":121.04038680907355,"y":24.957221544504023}},{"attributes":{"OBJECTID":1990,"LANDMARKID":"1000300000403","LANDMARKCO":"203","LANDMARKNA":"縣立社子國小","LANDMARKAD":"1000311","ADDRESS":"桃園縣新屋鄉社子村10鄰3之1號","TEL":"03-4772444","COUNTYNAME":"桃園市","TOWNNAME":"新屋區","MARKTYPE":"992","Class":"2"},"geometry":{"x":121.08197059996546,"y":24.956210963822638}},{"attributes":{"OBJECTID":1991,"LANDMARKID":"1000300000572","LANDMARKCO":"206","LANDMARKNA":"老k牌彈簧床體驗館","LANDMARKAD":"1000311","ADDRESS":"桃園縣新屋鄉頭洲村梅高路3段97號","TEL":"800321086","COUNTYNAME":"桃園市","TOWNNAME":"新屋區","MARKTYPE":"992","Class":"2"},"geometry":{"x":121.14711178818757,"y":24.953441468031851}},{"attributes":{"OBJECTID":1992,"LANDMARKID":"1000300000695","LANDMARKCO":"305","LANDMARKNA":"永安漁港","LANDMARKAD":"1000311","ADDRESS":"桃園縣新屋鄉","TEL":" ","COUNTYNAME":"桃園市","TOWNNAME":"新屋區","MARKTYPE":"993","Class":"305"},"geometry":{"x":121.01348252611963,"y":24.990895538573444}},{"attributes":{"OBJECTID":1993,"LANDMARKID":"1000300000708","LANDMARKCO":"308","LANDMARKNA":"台66-新屋交流道-東行","LANDMARKAD":"1000311","ADDRESS":" ","TEL":" ","COUNTYNAME":"桃園市","TOWNNAME":"新屋區","MARKTYPE":"993","Class":"308"},"geometry":{"x":121.13411121583897,"y":24.964957427620124}},{"attributes":{"OBJECTID":1994,"LANDMARKID":"1000300000603","LANDMARKCO":"302","LANDMARKNA":"桃園汽車客運復興站","LANDMARKAD":"1000311","ADDRESS":"桃園縣新屋鄉生村中山路361號","TEL":" ","COUNTYNAME":"桃園市","TOWNNAME":"新屋區","MARKTYPE":"993","Class":"302"},"geometry":{"x":121.10733973933783,"y":24.972657118537096}},{"attributes":{"OBJECTID":1995,"LANDMARKID":"1000300000608","LANDMARKCO":"303","LANDMARKNA":"永安停車場","LANDMARKAD":"1000311","ADDRESS":"桃園縣新屋鄉","TEL":" ","COUNTYNAME":"桃園市","TOWNNAME":"新屋區","MARKTYPE":"993","Class":"303"},"geometry":{"x":121.0174267734174,"y":24.985586508405039}},{"attributes":{"OBJECTID":1996,"LANDMARKID":"1000300000609","LANDMARKCO":"303","LANDMARKNA":"永安魚港北岸海濱遊憩區停車場","LANDMARKAD":"1000311","ADDRESS":"桃園縣新屋鄉永安村","TEL":" ","COUNTYNAME":"桃園市","TOWNNAME":"新屋區","MARKTYPE":"993","Class":"303"},"geometry":{"x":121.01540257540945,"y":24.98939698272083}},{"attributes":{"OBJECTID":1997,"LANDMARKID":"1000300000610","LANDMARKCO":"303","LANDMARKNA":"永安魚港南岸海濱遊憩區停車場","LANDMARKAD":"1000311","ADDRESS":"桃園縣新屋鄉東港村","TEL":" ","COUNTYNAME":"桃園市","TOWNNAME":"新屋區","MARKTYPE":"993","Class":"303"},"geometry":{"x":121.0152185136519,"y":24.988005978596391}},{"attributes":{"OBJECTID":1998,"LANDMARKID":"1000300000611","LANDMARKCO":"303","LANDMARKNA":"新屋鄉停一立體停車場","LANDMARKAD":"1000311","ADDRESS":"桃園縣新屋鄉中山路257號","TEL":" ","COUNTYNAME":"桃園市","TOWNNAME":"新屋區","MARKTYPE":"993","Class":"303"},"geometry":{"x":121.10591602544174,"y":24.97260248166349}},{"attributes":{"OBJECTID":1999,"LANDMARKID":"1000300000612","LANDMARKCO":"303","LANDMARKNA":"新屋鄉第一公有零售市場附設停車場","LANDMARKAD":"1000311","ADDRESS":"桃園縣新屋鄉中山路370號","TEL":" ","COUNTYNAME":"桃園市","TOWNNAME":"新屋區","MARKTYPE":"993","Class":"303"},"geometry":{"x":121.08813181004693,"y":24.975555826895295}},{"attributes":{"OBJECTID":2000,"LANDMARKID":"1000300000843","LANDMARKCO":"402","LANDMARKNA":"中華電信-新屋服務中心","LANDMARKAD":"1000311","ADDRESS":"桃園縣新屋鄉電信街10號","TEL":"123或0800-080-123","COUNTYNAME":"桃園市","TOWNNAME":"新屋區","MARKTYPE":"994","Class":"4"},"geometry":{"x":121.10889280659825,"y":24.971497670617687}}]}