{"displayFieldName":"COUNTYNAME","fieldAliases":{"OBJECTID":"OBJECTID","LANDMARKID":"LANDMARKID","LANDMARKCO":"LANDMARKCO","LANDMARKNA":"LANDMARKNA","LANDMARKAD":"LANDMARKAD","ADDRESS":"ADDRESS","TEL":"TEL","COUNTYNAME":"COUNTYNAME","TOWNNAME":"TOWNNAME","MARKTYPE":"MARKTYPE","Class":"Class"},"geometryType":"esriGeometryPoint","spatialReference":{"wkid":102443},"fields":[{"name":"OBJECTID","type":"esriFieldTypeOID","alias":"OBJECTID"},{"name":"LANDMARKID","type":"esriFieldTypeString","alias":"LANDMARKID","length":15},{"name":"LANDMARKCO","type":"esriFieldTypeString","alias":"LANDMARKCO","length":15},{"name":"LANDMARKNA","type":"esriFieldTypeString","alias":"LANDMARKNA","length":50},{"name":"LANDMARKAD","type":"esriFieldTypeString","alias":"LANDMARKAD","length":15},{"name":"ADDRESS","type":"esriFieldTypeString","alias":"ADDRESS","length":56},{"name":"TEL","type":"esriFieldTypeString","alias":"TEL","length":36},{"name":"COUNTYNAME","type":"esriFieldTypeString","alias":"COUNTYNAME","length":15},{"name":"TOWNNAME","type":"esriFieldTypeString","alias":"TOWNNAME","length":13},{"name":"MARKTYPE","type":"esriFieldTypeString","alias":"MARKTYPE","length":12},{"name":"Class","type":"esriFieldTypeString","alias":"Class","length":5}],"features":[{"attributes":{"OBJECTID":3201,"LANDMARKID":"1001400000735","LANDMARKCO":"603","LANDMARKNA":"東錦大飯店","LANDMARKAD":"1001401","ADDRESS":"台東縣台東市大同路141號6-8樓","TEL":"089-345705","COUNTYNAME":"台東縣","TOWNNAME":"台東市","MARKTYPE":"996","Class":"6"},"geometry":{"x":265719.29000000004,"y":2516859.3369999994}},{"attributes":{"OBJECTID":3202,"LANDMARKID":"1001400000736","LANDMARKCO":"603","LANDMARKNA":"東之鄉大飯店","LANDMARKAD":"1001401","ADDRESS":"台東縣台東市中山路374號","TEL":"089-310171-7","COUNTYNAME":"台東縣","TOWNNAME":"台東市","MARKTYPE":"996","Class":"6"},"geometry":{"x":265266.48369999975,"y":2516995.9535000008}},{"attributes":{"OBJECTID":3203,"LANDMARKID":"1001400000737","LANDMARKCO":"603","LANDMARKNA":"三博大飯店","LANDMARKAD":"1001401","ADDRESS":"台東縣台東市中山路393號9-12樓","TEL":"089-324696","COUNTYNAME":"台東縣","TOWNNAME":"台東市","MARKTYPE":"996","Class":"6"},"geometry":{"x":265234.33910000045,"y":2516923.6469999999}},{"attributes":{"OBJECTID":3204,"LANDMARKID":"1001400000738","LANDMARKCO":"603","LANDMARKNA":"金佳園旅社","LANDMARKAD":"1001401","ADDRESS":"台東縣台東市中華路一段564號","TEL":"089-324150","COUNTYNAME":"台東縣","TOWNNAME":"台東市","MARKTYPE":"996","Class":"6"},"geometry":{"x":265413.34559999965,"y":2516752.3021000009}},{"attributes":{"OBJECTID":3205,"LANDMARKID":"1001400000739","LANDMARKCO":"603","LANDMARKNA":"中泰賓館","LANDMARKAD":"1001401","ADDRESS":"台東縣台東市中山路414號","TEL":"089-325167","COUNTYNAME":"台東縣","TOWNNAME":"台東市","MARKTYPE":"996","Class":"6"},"geometry":{"x":265112.12820000015,"y":2516918.2726000007}},{"attributes":{"OBJECTID":3206,"LANDMARKID":"1001400000740","LANDMARKCO":"603","LANDMARKNA":"新福治大旅社","LANDMARKAD":"1001401","ADDRESS":"台東縣台東市中山路417號","TEL":"089-331101","COUNTYNAME":"台東縣","TOWNNAME":"台東市","MARKTYPE":"996","Class":"6"},"geometry":{"x":265234.33910000045,"y":2516923.6469999999}},{"attributes":{"OBJECTID":3207,"LANDMARKID":"1001400000741","LANDMARKCO":"603","LANDMARKNA":"新新大旅社","LANDMARKAD":"1001401","ADDRESS":"台東縣台東市中山路429號","TEL":"089-324185","COUNTYNAME":"台東縣","TOWNNAME":"台東市","MARKTYPE":"996","Class":"6"},"geometry":{"x":265211.95029999968,"y":2516905.2657999992}},{"attributes":{"OBJECTID":3208,"LANDMARKID":"1001400000742","LANDMARKCO":"603","LANDMARKNA":"上陞商務大飯店","LANDMARKAD":"1001401","ADDRESS":"台東縣台東市中華路一段136號","TEL":"089-311166","COUNTYNAME":"台東縣","TOWNNAME":"台東市","MARKTYPE":"996","Class":"6"},"geometry":{"x":266149.13850000035,"y":2517557.7854999993}},{"attributes":{"OBJECTID":3209,"LANDMARKID":"1001400000743","LANDMARKCO":"603","LANDMARKNA":"緯龍大飯店","LANDMARKAD":"1001401","ADDRESS":"台東縣台東市中華路一段237號","TEL":"089-311033","COUNTYNAME":"台東縣","TOWNNAME":"台東市","MARKTYPE":"996","Class":"6"},"geometry":{"x":265955.57459999993,"y":2517292.1798}},{"attributes":{"OBJECTID":3210,"LANDMARKID":"1001400000744","LANDMARKCO":"603","LANDMARKNA":"山大王別館","LANDMARKAD":"1001401","ADDRESS":"台東縣台東市中華路一段435號","TEL":"089-324233","COUNTYNAME":"台東縣","TOWNNAME":"台東市","MARKTYPE":"996","Class":"6"},"geometry":{"x":265601.17729999963,"y":2516931.1305999998}},{"attributes":{"OBJECTID":3211,"LANDMARKID":"1001400000773","LANDMARKCO":"604","LANDMARKNA":"台東旅行民宿","LANDMARKAD":"1001401","ADDRESS":"台東縣台東市文昌路42號","TEL":"089-238497","COUNTYNAME":"台東縣","TOWNNAME":"台東市","MARKTYPE":"996","Class":"6"},"geometry":{"x":262948.36170000024,"y":2521126.7412999999}},{"attributes":{"OBJECTID":3212,"LANDMARKID":"1001400000774","LANDMARKCO":"604","LANDMARKNA":"飛碟屋民宿","LANDMARKAD":"1001401","ADDRESS":"台東縣台東市新生路359號","TEL":"0919-873298","COUNTYNAME":"台東縣","TOWNNAME":"台東市","MARKTYPE":"996","Class":"6"},"geometry":{"x":264510.34580000024,"y":2517531.6129000001}},{"attributes":{"OBJECTID":3213,"LANDMARKID":"1001400000775","LANDMARKCO":"604","LANDMARKNA":"綠園民宿","LANDMARKAD":"1001401","ADDRESS":"台東縣台東市興盛路122號","TEL":"089-235966","COUNTYNAME":"台東縣","TOWNNAME":"台東市","MARKTYPE":"996","Class":"6"},"geometry":{"x":263042.21800000034,"y":2520595.5687000006}},{"attributes":{"OBJECTID":3214,"LANDMARKID":"1001400000776","LANDMARKCO":"604","LANDMARKNA":"大台東民宿","LANDMARKAD":"1001401","ADDRESS":"台東縣台東市北安路6號","TEL":"089-225048","COUNTYNAME":"台東縣","TOWNNAME":"台東市","MARKTYPE":"996","Class":"6"},"geometry":{"x":263069.70289999992,"y":2521735.5362}},{"attributes":{"OBJECTID":3215,"LANDMARKID":"1001400000777","LANDMARKCO":"604","LANDMARKNA":"晚崙西亞台東民宿","LANDMARKAD":"1001401","ADDRESS":"台東縣台東市正氣北路161巷24弄4號","TEL":"089-337027","COUNTYNAME":"台東縣","TOWNNAME":"台東市","MARKTYPE":"996","Class":"6"},"geometry":{"x":264326.38379999995,"y":2517161.2216999996}},{"attributes":{"OBJECTID":3216,"LANDMARKID":"1001400000778","LANDMARKCO":"604","LANDMARKNA":"伊亞民宿","LANDMARKAD":"1001401","ADDRESS":"台東縣台東市正氣北路76巷62弄11號","TEL":"089-333010","COUNTYNAME":"台東縣","TOWNNAME":"台東市","MARKTYPE":"996","Class":"6"},"geometry":{"x":264343.15979999956,"y":2517585.4276000001}},{"attributes":{"OBJECTID":3217,"LANDMARKID":"1001400000779","LANDMARKCO":"604","LANDMARKNA":"愛的真地民宿","LANDMARKAD":"1001401","ADDRESS":"台東縣台東市永安街88號","TEL":"089-221819","COUNTYNAME":"台東縣","TOWNNAME":"台東市","MARKTYPE":"996","Class":"6"},"geometry":{"x":262767.10120000038,"y":2520087.7435999997}},{"attributes":{"OBJECTID":3218,"LANDMARKID":"1001400000780","LANDMARKCO":"604","LANDMARKNA":"陽明山莊民宿","LANDMARKAD":"1001401","ADDRESS":"台東縣台東市永樂路36之9號","TEL":"089-336922","COUNTYNAME":"台東縣","TOWNNAME":"台東市","MARKTYPE":"996","Class":"6"},"geometry":{"x":261506.83210000023,"y":2516812.7843999993}},{"attributes":{"OBJECTID":3219,"LANDMARKID":"1001400000781","LANDMARKCO":"604","LANDMARKNA":"雲海灣海景民宿","LANDMARKAD":"1001401","ADDRESS":"台東縣台東市吉林路2段578號","TEL":"089-280199","COUNTYNAME":"台東縣","TOWNNAME":"台東市","MARKTYPE":"996","Class":"6"},"geometry":{"x":268849.87770000007,"y":2520910.5263}},{"attributes":{"OBJECTID":3220,"LANDMARKID":"1001400000782","LANDMARKCO":"604","LANDMARKNA":"畫衣民宿","LANDMARKAD":"1001401","ADDRESS":"台東縣台東市志航路1段130號","TEL":"089-238688","COUNTYNAME":"台東縣","TOWNNAME":"台東市","MARKTYPE":"996","Class":"6"},"geometry":{"x":263064.92489999998,"y":2519843.6006000005}},{"attributes":{"OBJECTID":3221,"LANDMARKID":"1001400000783","LANDMARKCO":"604","LANDMARKNA":"歡喜精品民宿","LANDMARKAD":"1001401","ADDRESS":"台東縣台東市豐榮路90巷23號","TEL":"089-330986","COUNTYNAME":"台東縣","TOWNNAME":"台東市","MARKTYPE":"996","Class":"6"},"geometry":{"x":264227.13640000019,"y":2516562.6842999998}},{"attributes":{"OBJECTID":3222,"LANDMARKID":"1001400000708","LANDMARKCO":"603","LANDMARKNA":"龍星旅館","LANDMARKAD":"1001401","ADDRESS":"台東縣台東市新興路625號","TEL":"089-228005-6","COUNTYNAME":"台東縣","TOWNNAME":"台東市","MARKTYPE":"996","Class":"6"},"geometry":{"x":262957.54499999993,"y":2521425.6021999996}},{"attributes":{"OBJECTID":3223,"LANDMARKID":"1001400000787","LANDMARKCO":"604","LANDMARKNA":"東美民宿","LANDMARKAD":"1001401","ADDRESS":"台東縣台東市志航路1段136號","TEL":"089-237199","COUNTYNAME":"台東縣","TOWNNAME":"台東市","MARKTYPE":"996","Class":"6"},"geometry":{"x":263076.93840000033,"y":2519843.8221000005}},{"attributes":{"OBJECTID":3224,"LANDMARKID":"1001400000696","LANDMARKCO":"601","LANDMARKNA":"娜路彎大酒店","LANDMARKAD":"1001401","ADDRESS":"台東縣台東市連航路66號","TEL":"089-239666","COUNTYNAME":"台東縣","TOWNNAME":"台東市","MARKTYPE":"996","Class":"6"},"geometry":{"x":262514.3984000003,"y":2518851.9855000004}},{"attributes":{"OBJECTID":3225,"LANDMARKID":"1001400000624","LANDMARKCO":"503","LANDMARKNA":"台東森林公園","LANDMARKAD":"1001401","ADDRESS":"台東縣台東市","TEL":" ","COUNTYNAME":"台東縣","TOWNNAME":"台東市","MARKTYPE":"995","Class":"5"},"geometry":{"x":267155.88910000026,"y":2517634.4372000005}},{"attributes":{"OBJECTID":3226,"LANDMARKID":"1001400000682","LANDMARKCO":"511","LANDMARKNA":"台東光明路夜市","LANDMARKAD":"1001401","ADDRESS":"台東縣台東市","TEL":" ","COUNTYNAME":"台東縣","TOWNNAME":"台東市","MARKTYPE":"995","Class":"5"},"geometry":{"x":265402.29470000044,"y":2516984.0228000004}},{"attributes":{"OBJECTID":3227,"LANDMARKID":"1001400000623","LANDMARKCO":"503","LANDMARKNA":"小野柳地形景觀區","LANDMARKAD":"1001401","ADDRESS":"台東縣台東市","TEL":" ","COUNTYNAME":"台東縣","TOWNNAME":"台東市","MARKTYPE":"995","Class":"5"},"geometry":{"x":270231.19809999969,"y":2521487.4735000003}},{"attributes":{"OBJECTID":3228,"LANDMARKID":"1001400000683","LANDMARKCO":"511","LANDMARKNA":"台東夜市","LANDMARKAD":"1001401","ADDRESS":"台東縣台東市","TEL":" ","COUNTYNAME":"台東縣","TOWNNAME":"台東市","MARKTYPE":"995","Class":"5"},"geometry":{"x":265335.96310000028,"y":2516907.3971999995}},{"attributes":{"OBJECTID":3229,"LANDMARKID":"1001400000625","LANDMARKCO":"503","LANDMARKNA":"伽蘭港","LANDMARKAD":"1001401","ADDRESS":"台東縣台東市","TEL":" ","COUNTYNAME":"台東縣","TOWNNAME":"台東市","MARKTYPE":"995","Class":"5"},"geometry":{"x":269776.31149999984,"y":2521146.9768000003}},{"attributes":{"OBJECTID":3230,"LANDMARKID":"1001400000626","LANDMARKCO":"503","LANDMARKNA":"夢幻湖","LANDMARKAD":"1001401","ADDRESS":"台東縣台東市","TEL":" ","COUNTYNAME":"台東縣","TOWNNAME":"台東市","MARKTYPE":"995","Class":"5"},"geometry":{"x":256786.77670000028,"y":2510279.3945000004}},{"attributes":{"OBJECTID":3231,"LANDMARKID":"1001400000627","LANDMARKCO":"503","LANDMARKNA":"小野柳風景遊憩區","LANDMARKAD":"1001401","ADDRESS":"台東縣台東市","TEL":" ","COUNTYNAME":"台東縣","TOWNNAME":"台東市","MARKTYPE":"995","Class":"5"},"geometry":{"x":270213.96109999996,"y":2521696.9603000004}},{"attributes":{"OBJECTID":3232,"LANDMARKID":"1001400000681","LANDMARKCO":"510","LANDMARKNA":"中興高爾夫練習場","LANDMARKAD":"1001401","ADDRESS":"台東縣台東市豐年路一段9號","TEL":"089-222206","COUNTYNAME":"台東縣","TOWNNAME":"台東市","MARKTYPE":"995","Class":"5"},"geometry":{"x":262655.07780000009,"y":2518601.5200999994}},{"attributes":{"OBJECTID":3233,"LANDMARKID":"1001400000547","LANDMARKCO":"405","LANDMARKNA":"中油加油站-綠島站(中油直營)","LANDMARKAD":"1001411","ADDRESS":"台東縣綠島鄉南寮村漁港路7號","TEL":"089-672313","COUNTYNAME":"台東縣","TOWNNAME":"綠島鄉","MARKTYPE":"994","Class":"4"},"geometry":{"x":298799.90230000019,"y":2506798.7087999992}},{"attributes":{"OBJECTID":3234,"LANDMARKID":"1001400000576","LANDMARKCO":"408","LANDMARKNA":"郵局-綠島郵局","LANDMARKAD":"1001411","ADDRESS":"台東縣綠島鄉南寮村南寮路141-1號","TEL":"(089)672-559","COUNTYNAME":"台東縣","TOWNNAME":"綠島鄉","MARKTYPE":"994","Class":"4"},"geometry":{"x":298217.77359999996,"y":2507595.2777999993}},{"attributes":{"OBJECTID":3235,"LANDMARKID":"1001400000049","LANDMARKCO":"103","LANDMARKNA":"台東縣綠島鄉衛生所","LANDMARKAD":"1001411","ADDRESS":"台東縣綠島鄉中寮村1號","TEL":"089-672511","COUNTYNAME":"台東縣","TOWNNAME":"綠島鄉","MARKTYPE":"991","Class":"1"},"geometry":{"x":298378.55530000012,"y":2508239.5678000003}},{"attributes":{"OBJECTID":3236,"LANDMARKID":"1001400000211","LANDMARKCO":"108","LANDMARKNA":"台東縣綠島鄉公所","LANDMARKAD":"1001411","ADDRESS":"臺東縣綠島鄉南寮村194-1號","TEL":"089-672510","COUNTYNAME":"台東縣","TOWNNAME":"綠島鄉","MARKTYPE":"991","Class":"1"},"geometry":{"x":298058.20110000018,"y":2507819.6832999997}},{"attributes":{"OBJECTID":3237,"LANDMARKID":"1001400000110","LANDMARKCO":"107","LANDMARKNA":"台東縣消防局綠島消防分隊","LANDMARKAD":"1001411","ADDRESS":"台東縣綠島鄉南寮村194號","TEL":"089-672083","COUNTYNAME":"台東縣","TOWNNAME":"綠島鄉","MARKTYPE":"991","Class":"1"},"geometry":{"x":298052.23259999976,"y":2507829.7020999994}},{"attributes":{"OBJECTID":3238,"LANDMARKID":"1001400000111","LANDMARKCO":"107","LANDMARKNA":"台東縣警察局公館派出所","LANDMARKAD":"1001411","ADDRESS":"台東縣綠島鄉公館村98號","TEL":"089-672564","COUNTYNAME":"台東縣","TOWNNAME":"綠島鄉","MARKTYPE":"991","Class":"1"},"geometry":{"x":300548.72240000032,"y":2508289.9227000009}},{"attributes":{"OBJECTID":3239,"LANDMARKID":"1001400000112","LANDMARKCO":"107","LANDMARKNA":"台東縣警察局綠島分駐所","LANDMARKAD":"1001411","ADDRESS":"台東縣綠島鄉南寮村160號","TEL":"089-672521","COUNTYNAME":"台東縣","TOWNNAME":"綠島鄉","MARKTYPE":"991","Class":"1"},"geometry":{"x":298078.10649999976,"y":2507789.6206999999}},{"attributes":{"OBJECTID":3240,"LANDMARKID":"1001400000107","LANDMARKCO":"106","LANDMARKNA":"台東縣綠島鄉戶政事務所","LANDMARKAD":"1001411","ADDRESS":"台東縣綠島鄉南寮村160號","TEL":"089-672330","COUNTYNAME":"台東縣","TOWNNAME":"綠島鄉","MARKTYPE":"991","Class":"1"},"geometry":{"x":298079.10649999976,"y":2507789.6174999997}},{"attributes":{"OBJECTID":3241,"LANDMARKID":"1001400000035","LANDMARKCO":"101","LANDMARKNA":"台灣綠島監獄","LANDMARKAD":"1001411","ADDRESS":"台東縣綠島鄉中寮村192號","TEL":"089-672502","COUNTYNAME":"台東縣","TOWNNAME":"綠島鄉","MARKTYPE":"991","Class":"1"},"geometry":{"x":298957.04320000019,"y":2508079.5383000001}},{"attributes":{"OBJECTID":3242,"LANDMARKID":"1001400000046","LANDMARKCO":"103","LANDMARKNA":"台東縣綠島鄉鄉民代表會","LANDMARKAD":"1001411","ADDRESS":"台東縣綠島鄉南寮村196號","TEL":"089-672206","COUNTYNAME":"台東縣","TOWNNAME":"綠島鄉","MARKTYPE":"991","Class":"1"},"geometry":{"x":298045.26400000043,"y":2507839.7239999995}},{"attributes":{"OBJECTID":3243,"LANDMARKID":"1001400000375","LANDMARKCO":"204","LANDMARKNA":"台東縣立圖書館綠島分館","LANDMARKAD":"1001411","ADDRESS":"台東縣綠島鄉南寮村176號","TEL":" ","COUNTYNAME":"台東縣","TOWNNAME":"綠島鄉","MARKTYPE":"992","Class":"2"},"geometry":{"x":298072.36990000028,"y":2507796.9826999996}},{"attributes":{"OBJECTID":3244,"LANDMARKID":"1001400000356","LANDMARKCO":"203","LANDMARKNA":"縣立綠島國中","LANDMARKAD":"1001411","ADDRESS":"台東縣綠島鄉中寮村4號","TEL":"089-672506","COUNTYNAME":"台東縣","TOWNNAME":"綠島鄉","MARKTYPE":"992","Class":"2"},"geometry":{"x":298381.36519999988,"y":2508179.5589000005}},{"attributes":{"OBJECTID":3245,"LANDMARKID":"1001400000357","LANDMARKCO":"203","LANDMARKNA":"縣立綠島國小","LANDMARKAD":"1001411","ADDRESS":"台東縣綠島鄉中寮村3號","TEL":"089-672543","COUNTYNAME":"台東縣","TOWNNAME":"綠島鄉","MARKTYPE":"992","Class":"2"},"geometry":{"x":298299.46030000038,"y":2508209.8180999998}},{"attributes":{"OBJECTID":3246,"LANDMARKID":"1001400000358","LANDMARKCO":"203","LANDMARKNA":"縣立公館國小","LANDMARKAD":"1001411","ADDRESS":"台東縣綠島鄉公館村98號","TEL":"089-672548","COUNTYNAME":"台東縣","TOWNNAME":"綠島鄉","MARKTYPE":"992","Class":"2"},"geometry":{"x":300662.8554999996,"y":2508329.5445000008}},{"attributes":{"OBJECTID":3247,"LANDMARKID":"1001400000359","LANDMARKCO":"203","LANDMARKNA":"縣立公館國小溫泉分校","LANDMARKAD":"1001411","ADDRESS":"台東縣綠島鄉","TEL":" ","COUNTYNAME":"台東縣","TOWNNAME":"綠島鄉","MARKTYPE":"992","Class":"2"},"geometry":{"x":301252.41640000045,"y":2505429.5083000008}},{"attributes":{"OBJECTID":3248,"LANDMARKID":"1001400000458","LANDMARKCO":"304","LANDMARKNA":"綠島輔助站綠島機場","LANDMARKAD":"1001411","ADDRESS":"台東縣綠島鄉南寮村南寮231號","TEL":" ","COUNTYNAME":"台東縣","TOWNNAME":"綠島鄉","MARKTYPE":"993","Class":"304"},"geometry":{"x":298031.38449999969,"y":2508085.4368999992}},{"attributes":{"OBJECTID":3249,"LANDMARKID":"1001400000429","LANDMARKCO":"303","LANDMARKNA":"白沙橋潛水基地停車場","LANDMARKAD":"1001411","ADDRESS":"台東縣綠島鄉白沙橋","TEL":" ","COUNTYNAME":"台東縣","TOWNNAME":"綠島鄉","MARKTYPE":"993","Class":"303"},"geometry":{"x":300710.61720000021,"y":2504362.9883999992}},{"attributes":{"OBJECTID":3250,"LANDMARKID":"1001400000430","LANDMARKCO":"303","LANDMARKNA":"石朗潛水基地停車場","LANDMARKAD":"1001411","ADDRESS":"台東縣綠島鄉南寮村石朗","TEL":" ","COUNTYNAME":"台東縣","TOWNNAME":"綠島鄉","MARKTYPE":"993","Class":"303"},"geometry":{"x":298764.48369999975,"y":2506185.0958999991}},{"attributes":{"OBJECTID":3251,"LANDMARKID":"1001400000431","LANDMARKCO":"303","LANDMARKNA":"柴口潛水基地停車場","LANDMARKAD":"1001411","ADDRESS":"台東縣綠島鄉中寮村柒口","TEL":" ","COUNTYNAME":"台東縣","TOWNNAME":"綠島鄉","MARKTYPE":"993","Class":"303"},"geometry":{"x":299613.90909999982,"y":2508640.6991000008}},{"attributes":{"OBJECTID":3252,"LANDMARKID":"1001400000432","LANDMARKCO":"303","LANDMARKNA":"海參平遊客中心停車場","LANDMARKAD":"1001411","ADDRESS":"台東縣綠島鄉","TEL":" ","COUNTYNAME":"台東縣","TOWNNAME":"綠島鄉","MARKTYPE":"993","Class":"303"},"geometry":{"x":302100.17200000025,"y":2506448.1292000003}},{"attributes":{"OBJECTID":3253,"LANDMARKID":"1001400000433","LANDMARKCO":"303","LANDMARKNA":"將軍岩休息區停車場","LANDMARKAD":"1001411","ADDRESS":"台東縣綠島鄉公館村","TEL":" ","COUNTYNAME":"台東縣","TOWNNAME":"綠島鄉","MARKTYPE":"993","Class":"303"},"geometry":{"x":300894.20430000033,"y":2508556.8871999998}},{"attributes":{"OBJECTID":3254,"LANDMARKID":"1001400000434","LANDMARKCO":"303","LANDMARKNA":"綠島遊客中心停車場","LANDMARKAD":"1001411","ADDRESS":"台東縣綠島鄉南寮村柒口","TEL":" ","COUNTYNAME":"台東縣","TOWNNAME":"綠島鄉","MARKTYPE":"993","Class":"303"},"geometry":{"x":298219.13729999959,"y":2508041.8279999997}},{"attributes":{"OBJECTID":3255,"LANDMARKID":"1001400000435","LANDMARKCO":"303","LANDMARKNA":"觀音洞遊憩區停車場","LANDMARKAD":"1001411","ADDRESS":"台東縣綠島鄉公館村觀音洞","TEL":" ","COUNTYNAME":"台東縣","TOWNNAME":"綠島鄉","MARKTYPE":"993","Class":"303"},"geometry":{"x":302078.55570000038,"y":2507952.8282999992}},{"attributes":{"OBJECTID":3256,"LANDMARKID":"1001400000436","LANDMARKCO":"303","LANDMARKNA":"大白沙休息區停車場","LANDMARKAD":"1001411","ADDRESS":"台東縣綠島鄉溫泉","TEL":" ","COUNTYNAME":"台東縣","TOWNNAME":"綠島鄉","MARKTYPE":"993","Class":"303"},"geometry":{"x":300841.4057,"y":2504102.7984999996}},{"attributes":{"OBJECTID":3257,"LANDMARKID":"1001400000628","LANDMARKCO":"503","LANDMARKNA":"綠島文化園區","LANDMARKAD":"1001411","ADDRESS":"台東縣綠島鄉公館村將軍岩20號","TEL":" ","COUNTYNAME":"台東縣","TOWNNAME":"綠島鄉","MARKTYPE":"995","Class":"5"},"geometry":{"x":300876.18250000011,"y":2506304.1907000002}},{"attributes":{"OBJECTID":3258,"LANDMARKID":"1001400000548","LANDMARKCO":"405","LANDMARKNA":"中油加油站-金崙站","LANDMARKAD":"1001414","ADDRESS":"台東縣金峰鄉賓茂村賓茂路64號","TEL":"089-771009","COUNTYNAME":"台東縣","TOWNNAME":"金峰鄉","MARKTYPE":"994","Class":"4"},"geometry":{"x":236851.34480000008,"y":2498261.9554999992}},{"attributes":{"OBJECTID":3259,"LANDMARKID":"1001400000047","LANDMARKCO":"103","LANDMARKNA":"台東縣金峰鄉衛生所","LANDMARKAD":"1001414","ADDRESS":"台東縣金峰鄉正興村32號","TEL":"089-780036","COUNTYNAME":"台東縣","TOWNNAME":"金峰鄉","MARKTYPE":"991","Class":"1"},"geometry":{"x":247238.99700000044,"y":2499700.0244999994}},{"attributes":{"OBJECTID":3260,"LANDMARKID":"1001400000212","LANDMARKCO":"108","LANDMARKNA":"台東縣金峰鄉公所","LANDMARKAD":"1001414","ADDRESS":"台東縣金峰鄉嘉蘭村135號","TEL":"089-751144","COUNTYNAME":"台東縣","TOWNNAME":"金峰鄉","MARKTYPE":"991","Class":"1"},"geometry":{"x":247047.97620000038,"y":2499500.0449000001}},{"attributes":{"OBJECTID":3261,"LANDMARKID":"1001400000048","LANDMARKCO":"103","LANDMARKNA":"台東縣金峰鄉鄉民代表會","LANDMARKAD":"1001414","ADDRESS":"台東縣金峰鄉嘉蘭村嘉蘭街133號","TEL":"089-751011","COUNTYNAME":"台東縣","TOWNNAME":"金峰鄉","MARKTYPE":"991","Class":"1"},"geometry":{"x":245872.93780000042,"y":2499300.0502000004}},{"attributes":{"OBJECTID":3262,"LANDMARKID":"1001400000108","LANDMARKCO":"107","LANDMARKNA":"台東縣警察局金峰分駐所","LANDMARKAD":"1001414","ADDRESS":"台東縣金峰鄉嘉蘭村30號","TEL":"089-751204","COUNTYNAME":"台東縣","TOWNNAME":"金峰鄉","MARKTYPE":"991","Class":"1"},"geometry":{"x":246804.99509999994,"y":2499400.0572999995}},{"attributes":{"OBJECTID":3263,"LANDMARKID":"1001400000109","LANDMARKCO":"107","LANDMARKNA":"台東縣警察局歷坵派出所","LANDMARKAD":"1001414","ADDRESS":"台東縣金峰鄉壢坵村33號","TEL":"089-771162","COUNTYNAME":"台東縣","TOWNNAME":"金峰鄉","MARKTYPE":"991","Class":"1"},"geometry":{"x":242279.97919999994,"y":2491730.1505999994}},{"attributes":{"OBJECTID":3264,"LANDMARKID":"1001400000106","LANDMARKCO":"106","LANDMARKNA":"台東縣金峰鄉戶政事務所","LANDMARKAD":"1001414","ADDRESS":"台東縣金峰鄉3鄰嘉蘭31號","TEL":"089-751002","COUNTYNAME":"台東縣","TOWNNAME":"金峰鄉","MARKTYPE":"991","Class":"1"},"geometry":{"x":247236.98489999957,"y":2499460.0241999999}},{"attributes":{"OBJECTID":3265,"LANDMARKID":"1001400000376","LANDMARKCO":"204","LANDMARKNA":"台東縣立圖書館金峰分館","LANDMARKAD":"1001414","ADDRESS":"台東縣金峰鄉嘉蘭村9鄰135號","TEL":" ","COUNTYNAME":"台東縣","TOWNNAME":"金峰鄉","MARKTYPE":"992","Class":"2"},"geometry":{"x":247050.27929999959,"y":2499476.5454999991}},{"attributes":{"OBJECTID":3266,"LANDMARKID":"1001400000353","LANDMARKCO":"203","LANDMARKNA":"縣立新興國小","LANDMARKAD":"1001414","ADDRESS":"台東縣金峰鄉新興村1鄰1號","TEL":"089-781687","COUNTYNAME":"台東縣","TOWNNAME":"金峰鄉","MARKTYPE":"992","Class":"2"},"geometry":{"x":250394.00200000033,"y":2503450.0047999993}},{"attributes":{"OBJECTID":3267,"LANDMARKID":"1001400000354","LANDMARKCO":"203","LANDMARKNA":"縣立嘉蘭國小","LANDMARKAD":"1001414","ADDRESS":"台東縣金峰鄉嘉蘭村1鄰9號","TEL":"089-751224","COUNTYNAME":"台東縣","TOWNNAME":"金峰鄉","MARKTYPE":"992","Class":"2"},"geometry":{"x":246076.97860000003,"y":2499460.0265999995}},{"attributes":{"OBJECTID":3268,"LANDMARKID":"1001400000355","LANDMARKCO":"203","LANDMARKNA":"縣立歷坵國小","LANDMARKAD":"1001414","ADDRESS":"台東縣金峰鄉","TEL":" ","COUNTYNAME":"台東縣","TOWNNAME":"金峰鄉","MARKTYPE":"992","Class":"2"},"geometry":{"x":242394.94979999959,"y":2491790.0618999992}},{"attributes":{"OBJECTID":3269,"LANDMARKID":"1001400000652","LANDMARKCO":"508","LANDMARKNA":"都飛魯溫泉","LANDMARKAD":"1001414","ADDRESS":"台東縣金峰鄉","TEL":" ","COUNTYNAME":"台東縣","TOWNNAME":"金峰鄉","MARKTYPE":"995","Class":"5"},"geometry":{"x":233780.00930000003,"y":2491804.9815999996}},{"attributes":{"OBJECTID":3270,"LANDMARKID":"1001400000653","LANDMARKCO":"508","LANDMARKNA":"近黃溫泉","LANDMARKAD":"1001414","ADDRESS":"台東縣金峰鄉","TEL":" ","COUNTYNAME":"台東縣","TOWNNAME":"金峰鄉","MARKTYPE":"995","Class":"5"},"geometry":{"x":234996.28870000038,"y":2490476.5212999992}},{"attributes":{"OBJECTID":3271,"LANDMARKID":"1001400000654","LANDMARKCO":"508","LANDMARKNA":"比魯溫泉","LANDMARKAD":"1001414","ADDRESS":"台東縣金峰鄉","TEL":" ","COUNTYNAME":"台東縣","TOWNNAME":"金峰鄉","MARKTYPE":"995","Class":"5"},"geometry":{"x":234239.14099999983,"y":2498145.0940000005}},{"attributes":{"OBJECTID":3272,"LANDMARKID":"1001400000655","LANDMARKCO":"508","LANDMARKNA":"金峰溫泉","LANDMARKAD":"1001414","ADDRESS":"台東縣金峰鄉","TEL":" ","COUNTYNAME":"台東縣","TOWNNAME":"金峰鄉","MARKTYPE":"995","Class":"5"},"geometry":{"x":243672.06830000039,"y":2499173.6063000001}},{"attributes":{"OBJECTID":3273,"LANDMARKID":"1001400000656","LANDMARKCO":"508","LANDMARKNA":"名泉山莊","LANDMARKAD":"1001414","ADDRESS":"台東縣卑南鄉龍泉路267巷2號","TEL":"089-513996","COUNTYNAME":"台東縣","TOWNNAME":"金峰鄉","MARKTYPE":"995","Class":"5"},"geometry":{"x":249340.05150000006,"y":2509823.8870000001}},{"attributes":{"OBJECTID":3274,"LANDMARKID":"1001400000631","LANDMARKCO":"504","LANDMARKNA":"知本森林遊樂區觀林吊橋","LANDMARKAD":"1001414","ADDRESS":"台東縣卑南鄉","TEL":" ","COUNTYNAME":"台東縣","TOWNNAME":"金峰鄉","MARKTYPE":"995","Class":"5"},"geometry":{"x":249250.53519999981,"y":2509946.0386999995}},{"attributes":{"OBJECTID":3275,"LANDMARKID":"1001400000499","LANDMARKCO":"405","LANDMARKNA":"中油加油站-太麻里站(中油直營)","LANDMARKAD":"1001409","ADDRESS":"台東縣太麻里太麻里街13號","TEL":"089-781303","COUNTYNAME":"台東縣","TOWNNAME":"太麻里鄉","MARKTYPE":"994","Class":"4"},"geometry":{"x":250696.0831000004,"y":2501393.3309000004}},{"attributes":{"OBJECTID":3276,"LANDMARKID":"1001400000500","LANDMARKCO":"405","LANDMARKNA":"中油加油站-主成站","LANDMARKAD":"1001409","ADDRESS":"台東縣太麻里美和村美和路86之31號","TEL":"089-515915","COUNTYNAME":"台東縣","TOWNNAME":"太麻里鄉","MARKTYPE":"994","Class":"4"},"geometry":{"x":254529.00829999987,"y":2509513.9433999993}},{"attributes":{"OBJECTID":3277,"LANDMARKID":"1001400000501","LANDMARKCO":"405","LANDMARKNA":"中油加油站-荒野站","LANDMARKAD":"1001409","ADDRESS":"台東縣太麻里美和村荒野2-2號","TEL":"089-514447","COUNTYNAME":"台東縣","TOWNNAME":"太麻里鄉","MARKTYPE":"994","Class":"4"},"geometry":{"x":254405.04839999974,"y":2510816.1784000006}},{"attributes":{"OBJECTID":3278,"LANDMARKID":"1001400000591","LANDMARKCO":"408","LANDMARKNA":"郵局-太麻里郵局","LANDMARKAD":"1001409","ADDRESS":"台東縣台東市泰和村太麻里街47號","TEL":"(089)781-319","COUNTYNAME":"台東縣","TOWNNAME":"太麻里鄉","MARKTYPE":"994","Class":"4"},"geometry":{"x":250665.5504999999,"y":2501322.0258000009}},{"attributes":{"OBJECTID":3279,"LANDMARKID":"1001400000592","LANDMARKCO":"408","LANDMARKNA":"郵局-金峰金崙郵局","LANDMARKAD":"1001409","ADDRESS":"台東縣台東市金崙村323號","TEL":"(089)771-056","COUNTYNAME":"台東縣","TOWNNAME":"太麻里鄉","MARKTYPE":"994","Class":"4"},"geometry":{"x":246291.43879999965,"y":2492707.3485000003}},{"attributes":{"OBJECTID":3280,"LANDMARKID":"1001400000593","LANDMARKCO":"409","LANDMARKNA":"台東縣太麻里鄉農會","LANDMARKAD":"1001409","ADDRESS":"台東縣太麻里鄉泰和村 太麻里街107號","TEL":"089-781100","COUNTYNAME":"台東縣","TOWNNAME":"太麻里鄉","MARKTYPE":"994","Class":"4"},"geometry":{"x":250531.17100000009,"y":2501120.7174999993}},{"attributes":{"OBJECTID":3281,"LANDMARKID":"1001400000496","LANDMARKCO":"404","LANDMARKNA":"台灣省自來水太麻里營運所","LANDMARKAD":"1001409","ADDRESS":"台東縣太麻里鄉泰和村88之2號","TEL":" ","COUNTYNAME":"台東縣","TOWNNAME":"太麻里鄉","MARKTYPE":"994","Class":"4"},"geometry":{"x":250503.91679999977,"y":2501101.7371999994}},{"attributes":{"OBJECTID":3282,"LANDMARKID":"1001400000497","LANDMARKCO":"405","LANDMARKNA":"台塑加油站-太峰站(台塑)","LANDMARKAD":"1001409","ADDRESS":"台東縣太麻里鄉泰和村331號","TEL":"08-9783228","COUNTYNAME":"台東縣","TOWNNAME":"太麻里鄉","MARKTYPE":"994","Class":"4"},"geometry":{"x":248880.58980000019,"y":2500389.2753999997}},{"attributes":{"OBJECTID":3283,"LANDMARKID":"1001400000498","LANDMARKCO":"405","LANDMARKNA":"台塑加油站-東屏站(台塑)","LANDMARKAD":"1001409","ADDRESS":"台東縣太麻里鄉美和村美和110號之9","TEL":" ","COUNTYNAME":"台東縣","TOWNNAME":"太麻里鄉","MARKTYPE":"994","Class":"4"},"geometry":{"x":254548.95289999992,"y":2509587.0260000005}},{"attributes":{"OBJECTID":3284,"LANDMARKID":"1001400000092","LANDMARKCO":"106","LANDMARKNA":"台東縣太麻里鄉戶政事務所","LANDMARKAD":"1001409","ADDRESS":"台東縣太麻里鄉6鄰太麻里街142之2號","TEL":"089-781174","COUNTYNAME":"台東縣","TOWNNAME":"太麻里鄉","MARKTYPE":"991","Class":"1"},"geometry":{"x":249581.9972000001,"y":2500710.0120999999}},{"attributes":{"OBJECTID":3285,"LANDMARKID":"1001400000038","LANDMARKCO":"103","LANDMARKNA":"台東縣太麻里鄉衛生所","LANDMARKAD":"1001409","ADDRESS":"台東縣太麻里鄉泰和村1鄰70號","TEL":"089-781220","COUNTYNAME":"台東縣","TOWNNAME":"太麻里鄉","MARKTYPE":"991","Class":"1"},"geometry":{"x":250738.00679999962,"y":2501670.0000999998}},{"attributes":{"OBJECTID":3286,"LANDMARKID":"1001400000197","LANDMARKCO":"108","LANDMARKNA":"台東縣太麻里鄉公所","LANDMARKAD":"1001409","ADDRESS":"台東縣太麻里鄉泰和村北橋56號","TEL":"089-781301","COUNTYNAME":"台東縣","TOWNNAME":"太麻里鄉","MARKTYPE":"991","Class":"1"},"geometry":{"x":250758.0083999997,"y":2501699.9990999997}},{"attributes":{"OBJECTID":3287,"LANDMARKID":"1001400000037","LANDMARKCO":"103","LANDMARKNA":"台東縣太麻里鄉鄉民代表會","LANDMARKAD":"1001409","ADDRESS":"台東縣太麻里鄉泰和村北橋56號","TEL":"089-781155","COUNTYNAME":"台東縣","TOWNNAME":"太麻里鄉","MARKTYPE":"991","Class":"1"},"geometry":{"x":250757.00549999997,"y":2501639.9990999997}},{"attributes":{"OBJECTID":3288,"LANDMARKID":"1001400000036","LANDMARKCO":"101","LANDMARKNA":"農業委員會林業試驗所太麻里研究中心","LANDMARKAD":"1001409","ADDRESS":"台東縣太麻里鄉大王村橋頭6號","TEL":"089-781302","COUNTYNAME":"台東縣","TOWNNAME":"太麻里鄉","MARKTYPE":"991","Class":"1"},"geometry":{"x":247908.97599999979,"y":2499860.0348000005}},{"attributes":{"OBJECTID":3289,"LANDMARKID":"1001400000188","LANDMARKCO":"107","LANDMARKNA":"台東縣消防局太麻里消防分隊","LANDMARKAD":"1001409","ADDRESS":"台東縣太麻里鄉泰和村南理巷16號","TEL":"089-781314","COUNTYNAME":"台東縣","TOWNNAME":"太麻里鄉","MARKTYPE":"991","Class":"1"},"geometry":{"x":250641.00619999971,"y":2501370.0044}},{"attributes":{"OBJECTID":3290,"LANDMARKID":"1001400000189","LANDMARKCO":"107","LANDMARKNA":"台東縣警察局正興派出所","LANDMARKAD":"1001409","ADDRESS":"台東縣金峰鄉正興村51號","TEL":"089-781364","COUNTYNAME":"台東縣","TOWNNAME":"太麻里鄉","MARKTYPE":"991","Class":"1"},"geometry":{"x":249768.99590000045,"y":2500570.0080999993}},{"attributes":{"OBJECTID":3291,"LANDMARKID":"1001400000190","LANDMARKCO":"107","LANDMARKNA":"台東縣警察局太麻里分駐所","LANDMARKAD":"1001409","ADDRESS":"台東縣太麻里鄉太麻里街142號","TEL":"089-781134","COUNTYNAME":"台東縣","TOWNNAME":"太麻里鄉","MARKTYPE":"991","Class":"1"},"geometry":{"x":250630.00530000031,"y":2501350.0048999991}},{"attributes":{"OBJECTID":3292,"LANDMARKID":"1001400000191","LANDMARKCO":"107","LANDMARKNA":"台東縣警察局多良派出所","LANDMARKAD":"1001409","ADDRESS":"台東縣太麻里鄉多良村大溪262號","TEL":"089-761368","COUNTYNAME":"台東縣","TOWNNAME":"太麻里鄉","MARKTYPE":"991","Class":"1"},"geometry":{"x":244140.89499999955,"y":2484890.0625}},{"attributes":{"OBJECTID":3293,"LANDMARKID":"1001400000192","LANDMARKCO":"107","LANDMARKNA":"台東縣警察局金崙派出所","LANDMARKAD":"1001409","ADDRESS":"台東縣太麻里鄉金崙村金崙439號","TEL":"089-771086","COUNTYNAME":"台東縣","TOWNNAME":"太麻里鄉","MARKTYPE":"991","Class":"1"},"geometry":{"x":243866.9972000001,"y":2492310.0689000003}},{"attributes":{"OBJECTID":3294,"LANDMARKID":"1001400000193","LANDMARKCO":"107","LANDMARKNA":"台東縣警察局美和派出所","LANDMARKAD":"1001409","ADDRESS":"台東縣太麻里鄉美和村6鄰84號","TEL":"089-512542","COUNTYNAME":"台東縣","TOWNNAME":"太麻里鄉","MARKTYPE":"991","Class":"1"},"geometry":{"x":254552.02190000005,"y":2509599.9287999999}},{"attributes":{"OBJECTID":3295,"LANDMARKID":"1001400000091","LANDMARKCO":"105","LANDMARKNA":"台東縣太麻里地政事務所","LANDMARKAD":"1001409","ADDRESS":"台東縣太麻里鄉泰和村北橋54號","TEL":"089-781804","COUNTYNAME":"台東縣","TOWNNAME":"太麻里鄉","MARKTYPE":"991","Class":"1"},"geometry":{"x":250769.00960000046,"y":2501719.9985000007}},{"attributes":{"OBJECTID":3296,"LANDMARKID":"1001400000385","LANDMARKCO":"204","LANDMARKNA":"台東縣立圖書館太麻里分館","LANDMARKAD":"1001409","ADDRESS":"台東縣太麻里鄉太和村北橋56號","TEL":" ","COUNTYNAME":"台東縣","TOWNNAME":"太麻里鄉","MARKTYPE":"992","Class":"2"},"geometry":{"x":250749.99459999986,"y":2501688.9697999991}},{"attributes":{"OBJECTID":3297,"LANDMARKID":"1001400000246","LANDMARKCO":"203","LANDMARKNA":"縣立大王國中","LANDMARKAD":"1001409","ADDRESS":"台東縣太麻里鄉大王村633號","TEL":"089-781324","COUNTYNAME":"台東縣","TOWNNAME":"太麻里鄉","MARKTYPE":"992","Class":"2"},"geometry":{"x":250646.00800000038,"y":2501720.0042000003}},{"attributes":{"OBJECTID":3298,"LANDMARKID":"1001400000247","LANDMARKCO":"203","LANDMARKNA":"縣立賓茂國中","LANDMARKAD":"1001409","ADDRESS":"台東縣太麻里鄉金崙村77號","TEL":"089-771076","COUNTYNAME":"台東縣","TOWNNAME":"太麻里鄉","MARKTYPE":"992","Class":"2"},"geometry":{"x":246636.95889999997,"y":2492490.0216000006}},{"attributes":{"OBJECTID":3299,"LANDMARKID":"1001400000248","LANDMARKCO":"203","LANDMARKNA":"縣立大王國小","LANDMARKAD":"1001409","ADDRESS":"台東縣太麻里鄉大王村1鄰33號","TEL":"089-781342","COUNTYNAME":"台東縣","TOWNNAME":"太麻里鄉","MARKTYPE":"992","Class":"2"},"geometry":{"x":250397.00540000014,"y":2501430.0046999995}},{"attributes":{"OBJECTID":3300,"LANDMARKID":"1001400000249","LANDMARKCO":"203","LANDMARKNA":"縣立香蘭國小","LANDMARKAD":"1001409","ADDRESS":"台東縣太麻里鄉香蘭村4鄰28號","TEL":"089-781505","COUNTYNAME":"台東縣","TOWNNAME":"太麻里鄉","MARKTYPE":"992","Class":"2"},"geometry":{"x":249347.99289999995,"y":2498620.0172000006}},{"attributes":{"OBJECTID":3301,"LANDMARKID":"1001400000250","LANDMARKCO":"203","LANDMARKNA":"縣立大溪國小","LANDMARKAD":"1001409","ADDRESS":"台東縣太麻里鄉多良村15鄰大溪85號","TEL":"089-761017","COUNTYNAME":"台東縣","TOWNNAME":"太麻里鄉","MARKTYPE":"992","Class":"2"},"geometry":{"x":243912.9581000004,"y":2484720.0881999992}},{"attributes":{"OBJECTID":3302,"LANDMARKID":"1001400000251","LANDMARKCO":"203","LANDMARKNA":"縣立美和國小","LANDMARKAD":"1001409","ADDRESS":"台東縣太麻里鄉美和村美和90號","TEL":"089-512487","COUNTYNAME":"台東縣","TOWNNAME":"太麻里鄉","MARKTYPE":"992","Class":"2"},"geometry":{"x":254594.05520000029,"y":2509709.9989}},{"attributes":{"OBJECTID":3303,"LANDMARKID":"1001400000252","LANDMARKCO":"203","LANDMARKNA":"縣立三和國小","LANDMARKAD":"1001409","ADDRESS":"台東縣太麻里鄉三和村漁場94號","TEL":"089-512291","COUNTYNAME":"台東縣","TOWNNAME":"太麻里鄉","MARKTYPE":"992","Class":"2"},"geometry":{"x":253847.00789999962,"y":2508019.9735000003}},{"attributes":{"OBJECTID":3304,"LANDMARKID":"1001400000253","LANDMARKCO":"203","LANDMARKNA":"縣立介達國小","LANDMARKAD":"1001409","ADDRESS":"台東縣金峰鄉正興村105號","TEL":"089-781583","COUNTYNAME":"台東縣","TOWNNAME":"太麻里鄉","MARKTYPE":"992","Class":"2"},"geometry":{"x":249585.99459999986,"y":2500500.0121999998}},{"attributes":{"OBJECTID":3305,"LANDMARKID":"1001400000254","LANDMARKCO":"203","LANDMARKNA":"縣立賓茂國小","LANDMARKAD":"1001409","ADDRESS":"台東縣金峰鄉賓茂村68號","TEL":"089-771007","COUNTYNAME":"台東縣","TOWNNAME":"太麻里鄉","MARKTYPE":"992","Class":"2"},"geometry":{"x":245386.9467000002,"y":2492480.0823999997}},{"attributes":{"OBJECTID":3306,"LANDMARKID":"1001400000255","LANDMARKCO":"203","LANDMARKNA":"縣立樂山國小","LANDMARKAD":"1001409","ADDRESS":"台東縣太麻里鄉","TEL":" ","COUNTYNAME":"台東縣","TOWNNAME":"太麻里鄉","MARKTYPE":"992","Class":"2"},"geometry":{"x":250626.00499999989,"y":2509340.0050000008}},{"attributes":{"OBJECTID":3307,"LANDMARKID":"1001400000256","LANDMARKCO":"203","LANDMARKNA":"縣立秀山國小(廢)","LANDMARKAD":"1001409","ADDRESS":"台東縣太麻里鄉","TEL":" ","COUNTYNAME":"台東縣","TOWNNAME":"太麻里鄉","MARKTYPE":"992","Class":"2"},"geometry":{"x":252952.05730000045,"y":2507669.9887000006}},{"attributes":{"OBJECTID":3308,"LANDMARKID":"1001400000257","LANDMARKCO":"203","LANDMARKNA":"縣立華源國小(廢)","LANDMARKAD":"1001409","ADDRESS":"台東縣太麻里鄉","TEL":" ","COUNTYNAME":"台東縣","TOWNNAME":"太麻里鄉","MARKTYPE":"992","Class":"2"},"geometry":{"x":252763.03650000039,"y":2506959.9734000005}},{"attributes":{"OBJECTID":3309,"LANDMARKID":"1001400000258","LANDMARKCO":"203","LANDMARKNA":"縣立華源國小分校","LANDMARKAD":"1001409","ADDRESS":"台東縣太麻里鄉","TEL":" ","COUNTYNAME":"台東縣","TOWNNAME":"太麻里鄉","MARKTYPE":"992","Class":"2"},"geometry":{"x":251476.0214999998,"y":2504520.0024999995}},{"attributes":{"OBJECTID":3310,"LANDMARKID":"1001400000259","LANDMARKCO":"203","LANDMARKNA":"縣立香蘭國小溪頭分班","LANDMARKAD":"1001409","ADDRESS":"台東縣太麻里鄉","TEL":" ","COUNTYNAME":"台東縣","TOWNNAME":"太麻里鄉","MARKTYPE":"992","Class":"2"},"geometry":{"x":247716.95849999972,"y":2499040.0074000005}},{"attributes":{"OBJECTID":3311,"LANDMARKID":"1001400000260","LANDMARKCO":"203","LANDMARKNA":"縣立多良國小(廢)","LANDMARKAD":"1001409","ADDRESS":"台東縣太麻里鄉","TEL":" ","COUNTYNAME":"台東縣","TOWNNAME":"太麻里鄉","MARKTYPE":"992","Class":"2"},"geometry":{"x":245778.99500000011,"y":2489860.0252}},{"attributes":{"OBJECTID":3312,"LANDMARKID":"1001400000261","LANDMARKCO":"203","LANDMARKNA":"縣立樂山國小停校","LANDMARKAD":"1001409","ADDRESS":"台東縣太麻里鄉","TEL":" ","COUNTYNAME":"台東縣","TOWNNAME":"太麻里鄉","MARKTYPE":"992","Class":"2"},"geometry":{"x":250636.00549999997,"y":2509350.0045999996}},{"attributes":{"OBJECTID":3313,"LANDMARKID":"1001400000454","LANDMARKCO":"303","LANDMARKNA":"知本溫泉停車場","LANDMARKAD":"1001409","ADDRESS":"台東縣卑南鄉","TEL":" ","COUNTYNAME":"台東縣","TOWNNAME":"太麻里鄉","MARKTYPE":"993","Class":"303"},"geometry":{"x":251776.4375,"y":2510291.3112000003}},{"attributes":{"OBJECTID":3314,"LANDMARKID":"1001400000414","LANDMARKCO":"301","LANDMARKNA":"多良火車站(閒)","LANDMARKAD":"1001409","ADDRESS":"台東縣太麻里鄉","TEL":" ","COUNTYNAME":"台東縣","TOWNNAME":"太麻里鄉","MARKTYPE":"993","Class":"301"},"geometry":{"x":245785.12519999966,"y":2489776.7002000008}},{"attributes":{"OBJECTID":3315,"LANDMARKID":"1001400000415","LANDMARKCO":"301","LANDMARKNA":"香蘭火車站(閒)","LANDMARKAD":"1001409","ADDRESS":"台東縣太麻里鄉","TEL":" ","COUNTYNAME":"台東縣","TOWNNAME":"太麻里鄉","MARKTYPE":"993","Class":"301"},"geometry":{"x":248791.10720000044,"y":2497672.8647000007}},{"attributes":{"OBJECTID":3316,"LANDMARKID":"1001400000416","LANDMARKCO":"301","LANDMARKNA":"舊香蘭火車站","LANDMARKAD":"1001409","ADDRESS":"台東縣太麻里鄉","TEL":" ","COUNTYNAME":"台東縣","TOWNNAME":"太麻里鄉","MARKTYPE":"993","Class":"301"},"geometry":{"x":249142.18230000045,"y":2498543.7318999991}},{"attributes":{"OBJECTID":3317,"LANDMARKID":"1001400000417","LANDMARKCO":"301","LANDMARKNA":"三和火車站(閒)","LANDMARKAD":"1001409","ADDRESS":"台東縣太麻里鄉","TEL":" ","COUNTYNAME":"台東縣","TOWNNAME":"太麻里鄉","MARKTYPE":"993","Class":"301"},"geometry":{"x":253654.60089999996,"y":2507864.6986999996}},{"attributes":{"OBJECTID":3318,"LANDMARKID":"1001400000418","LANDMARKCO":"301","LANDMARKNA":"瀧溪火車站","LANDMARKAD":"1001409","ADDRESS":"台東縣太麻里鄉","TEL":" ","COUNTYNAME":"台東縣","TOWNNAME":"太麻里鄉","MARKTYPE":"993","Class":"301"},"geometry":{"x":243992.60250000004,"y":2484598.5166999996}},{"attributes":{"OBJECTID":3319,"LANDMARKID":"1001400000419","LANDMARKCO":"301","LANDMARKNA":"金崙火車站","LANDMARKAD":"1001409","ADDRESS":"台東縣太麻里鄉金崙村47之17號","TEL":"089-771068","COUNTYNAME":"台東縣","TOWNNAME":"太麻里鄉","MARKTYPE":"993","Class":"301"},"geometry":{"x":246639.40130000003,"y":2492350.1692999993}},{"attributes":{"OBJECTID":3320,"LANDMARKID":"1001400000420","LANDMARKCO":"301","LANDMARKNA":"太麻里火車站","LANDMARKAD":"1001409","ADDRESS":"台東縣太麻里鄉大王村276之13號","TEL":"089-781544","COUNTYNAME":"台東縣","TOWNNAME":"太麻里鄉","MARKTYPE":"993","Class":"301"},"geometry":{"x":250513.18919999991,"y":2502063.6574000008}},{"attributes":{"OBJECTID":3321,"LANDMARKID":"1001400000487","LANDMARKCO":"402","LANDMARKNA":"中華電信-太麻里服務中心","LANDMARKAD":"1001409","ADDRESS":"台東縣太麻里鄉大王村611號","TEL":"(089)781-304","COUNTYNAME":"台東縣","TOWNNAME":"太麻里鄉","MARKTYPE":"994","Class":"4"},"geometry":{"x":250660.29420000035,"y":2501608.9209000003}},{"attributes":{"OBJECTID":3322,"LANDMARKID":"1001400000700","LANDMARKCO":"603","LANDMARKNA":"富野溫泉休閒會館","LANDMARKAD":"1001409","ADDRESS":"台東縣卑南鄉溫泉村龍泉路16號","TEL":"089-510510","COUNTYNAME":"台東縣","TOWNNAME":"太麻里鄉","MARKTYPE":"996","Class":"6"},"geometry":{"x":252164.95490000024,"y":2510125.4726}},{"attributes":{"OBJECTID":3323,"LANDMARKID":"1001400000701","LANDMARKCO":"603","LANDMARKNA":"朝陽假期飯店","LANDMARKAD":"1001409","ADDRESS":"台東縣卑南鄉溫泉村龍泉路55號","TEL":"089-514760","COUNTYNAME":"台東縣","TOWNNAME":"太麻里鄉","MARKTYPE":"996","Class":"6"},"geometry":{"x":251481.04959999956,"y":2510307.5571999997}},{"attributes":{"OBJECTID":3324,"LANDMARKID":"1001400000702","LANDMARKCO":"603","LANDMARKNA":"宏宜大飯店","LANDMARKAD":"1001409","ADDRESS":"台東縣卑南鄉溫泉村龍泉路57號","TEL":"089-514008","COUNTYNAME":"台東縣","TOWNNAME":"太麻里鄉","MARKTYPE":"996","Class":"6"},"geometry":{"x":251403.05379999988,"y":2510321.8171999995}},{"attributes":{"OBJECTID":3325,"LANDMARKID":"1001400000703","LANDMARKCO":"603","LANDMARKNA":"統茂大飯店","LANDMARKAD":"1001409","ADDRESS":"台東縣卑南鄉溫泉村龍泉路61號1-6樓","TEL":"089-514899","COUNTYNAME":"台東縣","TOWNNAME":"太麻里鄉","MARKTYPE":"996","Class":"6"},"geometry":{"x":251299.60429999977,"y":2510341.3054000009}},{"attributes":{"OBJECTID":3326,"LANDMARKID":"1001400000704","LANDMARKCO":"603","LANDMARKNA":"東方賓館","LANDMARKAD":"1001409","ADDRESS":"台東縣太麻里鄉泰和村太麻里街25號1-4樓","TEL":"089-781123","COUNTYNAME":"台東縣","TOWNNAME":"太麻里鄉","MARKTYPE":"996","Class":"6"},"geometry":{"x":250720.55040000007,"y":2501493.5427999999}},{"attributes":{"OBJECTID":3327,"LANDMARKID":"1001400000705","LANDMARKCO":"603","LANDMARKNA":"狀元樓大旅社","LANDMARKAD":"1001409","ADDRESS":"台東縣太麻里鄉泰和村太麻里街74號","TEL":"089-781346","COUNTYNAME":"台東縣","TOWNNAME":"太麻里鄉","MARKTYPE":"996","Class":"6"},"geometry":{"x":250539.01009999961,"y":2501156.9230000004}},{"attributes":{"OBJECTID":3328,"LANDMARKID":"1001400000706","LANDMARKCO":"603","LANDMARKNA":"泓泉渡假村","LANDMARKAD":"1001409","ADDRESS":"台東縣卑南鄉溫泉村龍泉路139巷1號","TEL":"089-510150-9","COUNTYNAME":"台東縣","TOWNNAME":"太麻里鄉","MARKTYPE":"996","Class":"6"},"geometry":{"x":249920.57760000043,"y":2510050.2705000006}},{"attributes":{"OBJECTID":3329,"LANDMARKID":"1001400000707","LANDMARKCO":"603","LANDMARKNA":"東台溫泉飯店","LANDMARKAD":"1001409","ADDRESS":"台東縣卑南鄉溫泉村龍泉路147號","TEL":"089-512290","COUNTYNAME":"台東縣","TOWNNAME":"太麻里鄉","MARKTYPE":"996","Class":"6"},"geometry":{"x":249618.40240000002,"y":2510054.1539999992}},{"attributes":{"OBJECTID":3330,"LANDMARKID":"1001400000697","LANDMARKCO":"601","LANDMARKNA":"知本老爺大酒店","LANDMARKAD":"1001409","ADDRESS":"台東縣卑南鄉溫泉村龍泉路113巷23號","TEL":"089-510-666","COUNTYNAME":"台東縣","TOWNNAME":"太麻里鄉","MARKTYPE":"996","Class":"6"},"geometry":{"x":250645.94930000044,"y":2510163.1109999996}},{"attributes":{"OBJECTID":3331,"LANDMARKID":"1001400000629","LANDMARKCO":"503","LANDMARKNA":"知本風景區","LANDMARKAD":"1001409","ADDRESS":"台東縣卑南鄉龍泉路","TEL":" ","COUNTYNAME":"台東縣","TOWNNAME":"太麻里鄉","MARKTYPE":"995","Class":"5"},"geometry":{"x":250077.82199999969,"y":2510055.5571999997}},{"attributes":{"OBJECTID":3332,"LANDMARKID":"1001400000630","LANDMARKCO":"503","LANDMARKNA":"第一道曙光紀念園地","LANDMARKAD":"1001409","ADDRESS":"台東縣太麻里鄉","TEL":" ","COUNTYNAME":"台東縣","TOWNNAME":"太麻里鄉","MARKTYPE":"995","Class":"5"},"geometry":{"x":251101.5075000003,"y":2501852.5810000002}},{"attributes":{"OBJECTID":3333,"LANDMARKID":"1001400000666","LANDMARKCO":"508","LANDMARKNA":"金崙溫泉","LANDMARKAD":"1001409","ADDRESS":"台東縣太麻里鄉","TEL":" ","COUNTYNAME":"台東縣","TOWNNAME":"太麻里鄉","MARKTYPE":"995","Class":"5"},"geometry":{"x":243613.75079999957,"y":2492141.8330000006}},{"attributes":{"OBJECTID":3334,"LANDMARKID":"1001400000667","LANDMARKCO":"508","LANDMARKNA":"東太陽SPA溫泉會館","LANDMARKAD":"1001409","ADDRESS":"台東縣太麻里鄉金崙村溫泉1之6號","TEL":"089-772128","COUNTYNAME":"台東縣","TOWNNAME":"太麻里鄉","MARKTYPE":"995","Class":"5"},"geometry":{"x":245703.82120000012,"y":2492736.8896999992}},{"attributes":{"OBJECTID":3335,"LANDMARKID":"1001400000668","LANDMARKCO":"508","LANDMARKNA":"龍泉山莊","LANDMARKAD":"1001409","ADDRESS":"台東縣卑南鄉龍泉路216號","TEL":"089-513930","COUNTYNAME":"台東縣","TOWNNAME":"太麻里鄉","MARKTYPE":"995","Class":"5"},"geometry":{"x":249435.01790000033,"y":2510075.2287000008}},{"attributes":{"OBJECTID":3336,"LANDMARKID":"1001400000669","LANDMARKCO":"508","LANDMARKNA":"東台溫泉飯店","LANDMARKAD":"1001409","ADDRESS":"台東縣卑南鄉龍泉路147號","TEL":"089-512918","COUNTYNAME":"台東縣","TOWNNAME":"太麻里鄉","MARKTYPE":"995","Class":"5"},"geometry":{"x":249616.28259999957,"y":2510045.4477999993}},{"attributes":{"OBJECTID":3337,"LANDMARKID":"1001400000670","LANDMARKCO":"508","LANDMARKNA":"知本泓泉溫泉渡假村","LANDMARKAD":"1001409","ADDRESS":"台東縣卑南鄉龍泉路139巷1號","TEL":"089-510150","COUNTYNAME":"台東縣","TOWNNAME":"太麻里鄉","MARKTYPE":"995","Class":"5"},"geometry":{"x":249903.5318,"y":2510018.1608000007}},{"attributes":{"OBJECTID":3338,"LANDMARKID":"1001400000671","LANDMARKCO":"508","LANDMARKNA":"ㄚㄧㄚ旺溫泉渡假村","LANDMARKAD":"1001409","ADDRESS":"台東縣卑南鄉龍泉路136號","TEL":"089-515827","COUNTYNAME":"台東縣","TOWNNAME":"太麻里鄉","MARKTYPE":"995","Class":"5"},"geometry":{"x":250134.13690000027,"y":2510147.3388999999}},{"attributes":{"OBJECTID":3339,"LANDMARKID":"1001400000672","LANDMARKCO":"508","LANDMARKNA":"知本老爺大酒店","LANDMARKAD":"1001409","ADDRESS":"台東縣卑南鄉龍泉路113巷23號","TEL":"089-510666","COUNTYNAME":"台東縣","TOWNNAME":"太麻里鄉","MARKTYPE":"995","Class":"5"},"geometry":{"x":250716.63690000027,"y":2510150.9326000009}},{"attributes":{"OBJECTID":3340,"LANDMARKID":"1001400000673","LANDMARKCO":"508","LANDMARKNA":"統茂統信大飯店","LANDMARKAD":"1001409","ADDRESS":"台東縣卑南鄉龍泉路61號","TEL":"089-514899","COUNTYNAME":"台東縣","TOWNNAME":"太麻里鄉","MARKTYPE":"995","Class":"5"},"geometry":{"x":251374.48340000026,"y":2510323.8453000002}},{"attributes":{"OBJECTID":3341,"LANDMARKID":"1001400000674","LANDMARKCO":"508","LANDMARKNA":"喜悅渡假山莊","LANDMARKAD":"1001409","ADDRESS":"台東縣卑南鄉龍泉路53巷1號","TEL":"089-510198","COUNTYNAME":"台東縣","TOWNNAME":"太麻里鄉","MARKTYPE":"995","Class":"5"},"geometry":{"x":251523.77099999972,"y":2510231.8318000007}},{"attributes":{"OBJECTID":3342,"LANDMARKID":"1001400000675","LANDMARKCO":"508","LANDMARKNA":"知本溫泉","LANDMARKAD":"1001409","ADDRESS":"台東縣卑南鄉","TEL":" ","COUNTYNAME":"台東縣","TOWNNAME":"太麻里鄉","MARKTYPE":"995","Class":"5"},"geometry":{"x":251684.30510000046,"y":2510430.9247999992}},{"attributes":{"OBJECTID":3343,"LANDMARKID":"1001400000676","LANDMARKCO":"508","LANDMARKNA":"湯之知本大飯店","LANDMARKAD":"1001409","ADDRESS":"台東縣卑南鄉龍泉路35號","TEL":"089-510111","COUNTYNAME":"台東縣","TOWNNAME":"太麻里鄉","MARKTYPE":"995","Class":"5"},"geometry":{"x":251884.93269999977,"y":2510222.7848000005}},{"attributes":{"OBJECTID":3344,"LANDMARKID":"1001400000677","LANDMARKCO":"508","LANDMARKNA":"豐泰大飯店","LANDMARKAD":"1001409","ADDRESS":"台東縣卑南鄉龍泉路30之2號","TEL":"089-515005","COUNTYNAME":"台東縣","TOWNNAME":"太麻里鄉","MARKTYPE":"995","Class":"5"},"geometry":{"x":251987.10699999984,"y":2510209.4801000003}},{"attributes":{"OBJECTID":3345,"LANDMARKID":"1001400000678","LANDMARKCO":"508","LANDMARKNA":"知本富野溫泉休閒會館","LANDMARKAD":"1001409","ADDRESS":"台東縣卑南鄉龍泉路16號","TEL":"089-510510","COUNTYNAME":"台東縣","TOWNNAME":"太麻里鄉","MARKTYPE":"995","Class":"5"},"geometry":{"x":252162.16940000001,"y":2510223.8310000002}},{"attributes":{"OBJECTID":3346,"LANDMARKID":"1001400000503","LANDMARKCO":"405","LANDMARKNA":"中油加油站-大武站(中油直營)","LANDMARKAD":"1001410","ADDRESS":"台東縣大武鄉尚武村尚武路8號","TEL":"089-791453","COUNTYNAME":"台東縣","TOWNNAME":"大武鄉","MARKTYPE":"994","Class":"4"},"geometry":{"x":239212.01169999968,"y":2471414.0496999994}},{"attributes":{"OBJECTID":3347,"LANDMARKID":"1001400000590","LANDMARKCO":"408","LANDMARKNA":"郵局-大武郵局","LANDMARKAD":"1001410","ADDRESS":"台東縣大武鄉大武村大武街60號","TEL":"(089)791-031","COUNTYNAME":"台東縣","TOWNNAME":"大武鄉","MARKTYPE":"994","Class":"4"},"geometry":{"x":240156.59559999965,"y":2473092.4936999995}},{"attributes":{"OBJECTID":3348,"LANDMARKID":"1001400000495","LANDMARKCO":"404","LANDMARKNA":"台灣省自來水大武營運所","LANDMARKAD":"1001410","ADDRESS":"台東縣大武鄉尚武村客庄193之1號","TEL":" ","COUNTYNAME":"台東縣","TOWNNAME":"大武鄉","MARKTYPE":"994","Class":"4"},"geometry":{"x":238641.43769999966,"y":2471296.8695999999}},{"attributes":{"OBJECTID":3349,"LANDMARKID":"1001400000502","LANDMARKCO":"405","LANDMARKNA":"台塑加油站-南迴站(台塑)","LANDMARKAD":"1001410","ADDRESS":"台東縣大武鄉尚武村尚武路31號之2","TEL":" ","COUNTYNAME":"台東縣","TOWNNAME":"大武鄉","MARKTYPE":"994","Class":"4"},"geometry":{"x":239209.95170000009,"y":2471438.6320999991}},{"attributes":{"OBJECTID":3350,"LANDMARKID":"1001400000198","LANDMARKCO":"108","LANDMARKNA":"台東縣大武鄉公所","LANDMARKAD":"1001410","ADDRESS":"台東縣大武鄉尚武村政通三街5號","TEL":"089-791340?","COUNTYNAME":"台東縣","TOWNNAME":"大武鄉","MARKTYPE":"991","Class":"1"},"geometry":{"x":238661.92219999991,"y":2471190.0854000002}},{"attributes":{"OBJECTID":3351,"LANDMARKID":"1001400000039","LANDMARKCO":"103","LANDMARKNA":"台東縣大武鄉鄉民代表會","LANDMARKAD":"1001410","ADDRESS":"台東縣大武鄉政通三街3號","TEL":"089-791563","COUNTYNAME":"台東縣","TOWNNAME":"大武鄉","MARKTYPE":"991","Class":"1"},"geometry":{"x":238782.95189999975,"y":2471150.1732999999}},{"attributes":{"OBJECTID":3352,"LANDMARKID":"1001400000194","LANDMARKCO":"107","LANDMARKNA":"台東縣警察局尚武派出所","LANDMARKAD":"1001410","ADDRESS":"台東縣大武鄉尚武村客庄路9號","TEL":"089-791105","COUNTYNAME":"台東縣","TOWNNAME":"大武鄉","MARKTYPE":"991","Class":"1"},"geometry":{"x":238914.93809999991,"y":2471170.0598000009}},{"attributes":{"OBJECTID":3353,"LANDMARKID":"1001400000195","LANDMARKCO":"107","LANDMARKNA":"台東縣警察局大武分局","LANDMARKAD":"1001410","ADDRESS":"台東縣大武鄉大武村大武街52號","TEL":"089-791001","COUNTYNAME":"台東縣","TOWNNAME":"大武鄉","MARKTYPE":"991","Class":"1"},"geometry":{"x":240263.84169999976,"y":2473180.1832999997}},{"attributes":{"OBJECTID":3354,"LANDMARKID":"1001400000196","LANDMARKCO":"107","LANDMARKNA":"台東縣警察局大武派出所","LANDMARKAD":"1001410","ADDRESS":"台東縣大武鄉大武村大武街52號","TEL":"089-791125","COUNTYNAME":"台東縣","TOWNNAME":"大武鄉","MARKTYPE":"991","Class":"1"},"geometry":{"x":240264.83550000004,"y":2473190.1839000005}},{"attributes":{"OBJECTID":3355,"LANDMARKID":"1001400000093","LANDMARKCO":"106","LANDMARKNA":"台東縣大武鄉戶政事務所","LANDMARKAD":"1001410","ADDRESS":"台東縣大武鄉10鄰大武街10號","TEL":"089-791451","COUNTYNAME":"台東縣","TOWNNAME":"大武鄉","MARKTYPE":"991","Class":"1"},"geometry":{"x":240142.90969999973,"y":2473070.1070000008}},{"attributes":{"OBJECTID":3356,"LANDMARKID":"1001400000040","LANDMARKCO":"103","LANDMARKNA":"台東縣大武鄉衛生所","LANDMARKAD":"1001410","ADDRESS":"台東縣大武鄉大武村濱海路100號","TEL":"089-791143","COUNTYNAME":"台東縣","TOWNNAME":"大武鄉","MARKTYPE":"991","Class":"1"},"geometry":{"x":240105.92850000039,"y":2473040.0833999999}},{"attributes":{"OBJECTID":3357,"LANDMARKID":"1001400000041","LANDMARKCO":"103","LANDMARKNA":"尚武漁港管理站","LANDMARKAD":"1001410","ADDRESS":"台東縣大武鄉尚武村5鄰55號之1","TEL":"089-792932","COUNTYNAME":"台東縣","TOWNNAME":"大武鄉","MARKTYPE":"991","Class":"1"},"geometry":{"x":238652.80530000012,"y":2471350.0788000003}},{"attributes":{"OBJECTID":3358,"LANDMARKID":"1001400000187","LANDMARKCO":"107","LANDMARKNA":"台東縣消防局大武消防分隊","LANDMARKAD":"1001410","ADDRESS":"台東縣大武鄉尚武村學府路2號","TEL":"089-791211","COUNTYNAME":"台東縣","TOWNNAME":"大武鄉","MARKTYPE":"991","Class":"1"},"geometry":{"x":238788.91579999961,"y":2471200.1776000001}},{"attributes":{"OBJECTID":3359,"LANDMARKID":"1001400000386","LANDMARKCO":"204","LANDMARKNA":"台東縣立圖書館大武分館","LANDMARKAD":"1001410","ADDRESS":"台東縣大武鄉尚武村客庄256之1號","TEL":" ","COUNTYNAME":"台東縣","TOWNNAME":"大武鄉","MARKTYPE":"992","Class":"2"},"geometry":{"x":238611.11440000031,"y":2471201.9458000008}},{"attributes":{"OBJECTID":3360,"LANDMARKID":"1001400000238","LANDMARKCO":"203","LANDMARKNA":"縣立大武國中","LANDMARKAD":"1001410","ADDRESS":"台東縣大武鄉大武村復興路1號","TEL":"089-791023","COUNTYNAME":"台東縣","TOWNNAME":"大武鄉","MARKTYPE":"992","Class":"2"},"geometry":{"x":240427.96320000011,"y":2473910.1030999999}},{"attributes":{"OBJECTID":3361,"LANDMARKID":"1001400000239","LANDMARKCO":"203","LANDMARKNA":"縣立大武國小","LANDMARKAD":"1001410","ADDRESS":"台東縣大武鄉民族街2巷49號","TEL":"089-791135","COUNTYNAME":"台東縣","TOWNNAME":"大武鄉","MARKTYPE":"992","Class":"2"},"geometry":{"x":240354.84939999972,"y":2473170.0581999999}},{"attributes":{"OBJECTID":3362,"LANDMARKID":"1001400000240","LANDMARKCO":"203","LANDMARKNA":"縣立尚武國小","LANDMARKAD":"1001410","ADDRESS":"台東縣大武鄉尚武村254號之1","TEL":"089-791458","COUNTYNAME":"台東縣","TOWNNAME":"大武鄉","MARKTYPE":"992","Class":"2"},"geometry":{"x":238511.92870000005,"y":2471180.1886999998}},{"attributes":{"OBJECTID":3363,"LANDMARKID":"1001400000241","LANDMARKCO":"203","LANDMARKNA":"縣立大鳥國小","LANDMARKAD":"1001410","ADDRESS":"台東縣大武鄉大鳥村1鄰13號","TEL":"089-791530","COUNTYNAME":"台東縣","TOWNNAME":"大武鄉","MARKTYPE":"992","Class":"2"},"geometry":{"x":240803.83710000012,"y":2475970.1532000005}},{"attributes":{"OBJECTID":3364,"LANDMARKID":"1001400000242","LANDMARKCO":"203","LANDMARKNA":"縣立大竹國小愛國埔分班","LANDMARKAD":"1001410","ADDRESS":"台東縣大武鄉","TEL":" ","COUNTYNAME":"台東縣","TOWNNAME":"大武鄉","MARKTYPE":"992","Class":"2"},"geometry":{"x":242011.90130000003,"y":2484190.0156999994}},{"attributes":{"OBJECTID":3365,"LANDMARKID":"1001400000243","LANDMARKCO":"203","LANDMARKNA":"縣立大竹國小","LANDMARKAD":"1001410","ADDRESS":"台東縣大武鄉","TEL":" ","COUNTYNAME":"台東縣","TOWNNAME":"大武鄉","MARKTYPE":"992","Class":"2"},"geometry":{"x":243678.9143000003,"y":2482670.1135000009}},{"attributes":{"OBJECTID":3366,"LANDMARKID":"1001400000244","LANDMARKCO":"203","LANDMARKNA":"縣立大武國小分校","LANDMARKAD":"1001410","ADDRESS":"台東縣大武鄉","TEL":" ","COUNTYNAME":"台東縣","TOWNNAME":"大武鄉","MARKTYPE":"992","Class":"2"},"geometry":{"x":237302.76879999973,"y":2473520.1525999997}},{"attributes":{"OBJECTID":3367,"LANDMARKID":"1001400000245","LANDMARKCO":"203","LANDMARKNA":"縣立南興國小","LANDMARKAD":"1001410","ADDRESS":"台東縣大武鄉","TEL":" ","COUNTYNAME":"台東縣","TOWNNAME":"大武鄉","MARKTYPE":"992","Class":"2"},"geometry":{"x":238429.86639999971,"y":2467880.1294999998}},{"attributes":{"OBJECTID":3368,"LANDMARKID":"1001400000465","LANDMARKCO":"305","LANDMARKNA":"尚武漁港","LANDMARKAD":"1001410","ADDRESS":"台東縣大武鄉","TEL":" ","COUNTYNAME":"台東縣","TOWNNAME":"大武鄉","MARKTYPE":"993","Class":"305"},"geometry":{"x":239103.91669999994,"y":2471123.3452000003}},{"attributes":{"OBJECTID":3369,"LANDMARKID":"1001400000455","LANDMARKCO":"303","LANDMARKNA":"大武鄉第二停車場","LANDMARKAD":"1001410","ADDRESS":"台東縣大武鄉","TEL":" ","COUNTYNAME":"台東縣","TOWNNAME":"大武鄉","MARKTYPE":"993","Class":"303"},"geometry":{"x":239019.44830000028,"y":2471268.3403999992}},{"attributes":{"OBJECTID":3370,"LANDMARKID":"1001400000456","LANDMARKCO":"303","LANDMARKNA":"大武鄉第一停車場","LANDMARKAD":"1001410","ADDRESS":"台東縣大武鄉","TEL":" ","COUNTYNAME":"台東縣","TOWNNAME":"大武鄉","MARKTYPE":"993","Class":"303"},"geometry":{"x":240382.33550000004,"y":2473714.2554000001}},{"attributes":{"OBJECTID":3371,"LANDMARKID":"1001400000411","LANDMARKCO":"301","LANDMARKNA":"富山火車站(閒)","LANDMARKAD":"1001410","ADDRESS":"台東縣大武鄉","TEL":" ","COUNTYNAME":"台東縣","TOWNNAME":"大武鄉","MARKTYPE":"993","Class":"301"},"geometry":{"x":243240.9188000001,"y":2481316.3741999995}},{"attributes":{"OBJECTID":3372,"LANDMARKID":"1001400000412","LANDMARKCO":"301","LANDMARKNA":"古莊火車站","LANDMARKAD":"1001410","ADDRESS":"台東縣大武鄉尚武村古莊83號","TEL":"089-791820","COUNTYNAME":"台東縣","TOWNNAME":"大武鄉","MARKTYPE":"993","Class":"301"},"geometry":{"x":237437.07969999965,"y":2471824.0657000002}},{"attributes":{"OBJECTID":3373,"LANDMARKID":"1001400000413","LANDMARKCO":"301","LANDMARKNA":"大武火車站","LANDMARKAD":"1001410","ADDRESS":"台東縣大武鄉和平路69號","TEL":"089-792056","COUNTYNAME":"台東縣","TOWNNAME":"大武鄉","MARKTYPE":"993","Class":"301"},"geometry":{"x":239645.81599999964,"y":2473964.2977000009}},{"attributes":{"OBJECTID":3374,"LANDMARKID":"1001400000486","LANDMARKCO":"402","LANDMARKNA":"中華電信-大武服務中心","LANDMARKAD":"1001410","ADDRESS":"台東縣大武鄉民生街51號","TEL":"(089)791-000","COUNTYNAME":"台東縣","TOWNNAME":"大武鄉","MARKTYPE":"994","Class":"4"},"geometry":{"x":239980.97860000003,"y":2473721.4836999997}},{"attributes":{"OBJECTID":3375,"LANDMARKID":"1001400000698","LANDMARKCO":"603","LANDMARKNA":"輔都大旅社","LANDMARKAD":"1001410","ADDRESS":"台東縣大武鄉大武村復興路132號","TEL":"089-791035","COUNTYNAME":"台東縣","TOWNNAME":"大武鄉","MARKTYPE":"996","Class":"6"},"geometry":{"x":240450.09109999985,"y":2473685.9041000009}},{"attributes":{"OBJECTID":3376,"LANDMARKID":"1001400000699","LANDMARKCO":"603","LANDMARKNA":"華園大旅社","LANDMARKAD":"1001410","ADDRESS":"台東縣大武鄉尚武村客庄路12號","TEL":"089-791006","COUNTYNAME":"台東縣","TOWNNAME":"大武鄉","MARKTYPE":"996","Class":"6"},"geometry":{"x":238969.94269999955,"y":2471201.5537}},{"attributes":{"OBJECTID":3377,"LANDMARKID":"1001400000504","LANDMARKCO":"405","LANDMARKNA":"中油加油站-山海關站","LANDMARKAD":"1001415","ADDRESS":"台東縣達仁鄉安朔村復興路37號","TEL":"089-702727","COUNTYNAME":"台東縣","TOWNNAME":"達仁鄉","MARKTYPE":"994","Class":"4"},"geometry":{"x":238179.13489999995,"y":2466204.2356000002}},{"attributes":{"OBJECTID":3378,"LANDMARKID":"1001400000589","LANDMARKCO":"408","LANDMARKNA":"郵局-達仁郵局","LANDMARKAD":"1001415","ADDRESS":"台東縣達仁鄉安朔村復興路130號","TEL":"(089)702-168","COUNTYNAME":"台東縣","TOWNNAME":"達仁鄉","MARKTYPE":"994","Class":"4"},"geometry":{"x":237919.58970000036,"y":2466204.6835999992}},{"attributes":{"OBJECTID":3379,"LANDMARKID":"1001400000042","LANDMARKCO":"103","LANDMARKNA":"台東縣達仁鄉衛生所","LANDMARKAD":"1001415","ADDRESS":"台東縣達仁鄉安朔村復興路158號","TEL":"089-702209","COUNTYNAME":"台東縣","TOWNNAME":"達仁鄉","MARKTYPE":"991","Class":"1"},"geometry":{"x":238099.8300999999,"y":2465770.1001999993}},{"attributes":{"OBJECTID":3380,"LANDMARKID":"1001400000199","LANDMARKCO":"108","LANDMARKNA":"台東縣達仁鄉公所","LANDMARKAD":"1001415","ADDRESS":"台東縣達仁鄉安朔村復興路14號","TEL":"089-702666","COUNTYNAME":"台東縣","TOWNNAME":"達仁鄉","MARKTYPE":"991","Class":"1"},"geometry":{"x":238048.97149999999,"y":2466200.0609000009}},{"attributes":{"OBJECTID":3381,"LANDMARKID":"1001400000043","LANDMARKCO":"103","LANDMARKNA":"台東縣達仁鄉鄉民代表會","LANDMARKAD":"1001415","ADDRESS":"台東縣達仁鄉安塑村復興路13號","TEL":"089-702293","COUNTYNAME":"台東縣","TOWNNAME":"達仁鄉","MARKTYPE":"991","Class":"1"},"geometry":{"x":238462.97229999956,"y":2466200.1548999995}},{"attributes":{"OBJECTID":3382,"LANDMARKID":"1001400000181","LANDMARKCO":"107","LANDMARKNA":"台東縣警察局達仁分駐所","LANDMARKAD":"1001415","ADDRESS":"台東縣達仁鄉安塑村復興路100號","TEL":"089-702247","COUNTYNAME":"台東縣","TOWNNAME":"達仁鄉","MARKTYPE":"991","Class":"1"},"geometry":{"x":238001.94830000028,"y":2466230.0247000009}},{"attributes":{"OBJECTID":3383,"LANDMARKID":"1001400000182","LANDMARKCO":"107","LANDMARKNA":"台東縣警察局森永派出所","LANDMARKAD":"1001415","ADDRESS":"台東縣達仁鄉森永村森永路6號","TEL":"089-702297","COUNTYNAME":"台東縣","TOWNNAME":"達仁鄉","MARKTYPE":"991","Class":"1"},"geometry":{"x":236054.75980000012,"y":2464280.0799000002}},{"attributes":{"OBJECTID":3384,"LANDMARKID":"1001400000094","LANDMARKCO":"106","LANDMARKNA":"台東縣達仁鄉戶政事務所","LANDMARKAD":"1001415","ADDRESS":"台東縣達仁鄉12鄰復興路110號","TEL":"089-702186","COUNTYNAME":"台東縣","TOWNNAME":"達仁鄉","MARKTYPE":"991","Class":"1"},"geometry":{"x":238043.93310000002,"y":2466250.057}},{"attributes":{"OBJECTID":3385,"LANDMARKID":"1001400000178","LANDMARKCO":"107","LANDMARKNA":"台東縣警察局土阪派出所","LANDMARKAD":"1001415","ADDRESS":"台東縣達仁鄉土阪村107號","TEL":"089-761027","COUNTYNAME":"台東縣","TOWNNAME":"達仁鄉","MARKTYPE":"991","Class":"1"},"geometry":{"x":238347.84460000042,"y":2483900.0595999993}},{"attributes":{"OBJECTID":3386,"LANDMARKID":"1001400000179","LANDMARKCO":"107","LANDMARKNA":"台東縣警察局新化派出所","LANDMARKAD":"1001415","ADDRESS":"台東縣達仁鄉新化村1號","TEL":"089-791749","COUNTYNAME":"台東縣","TOWNNAME":"達仁鄉","MARKTYPE":"991","Class":"1"},"geometry":{"x":235453.79550000001,"y":2475610.0465999991}},{"attributes":{"OBJECTID":3387,"LANDMARKID":"1001400000180","LANDMARKCO":"107","LANDMARKNA":"台東縣警察局台板派出所","LANDMARKAD":"1001415","ADDRESS":"台東縣達仁鄉台板村13-1號","TEL":"089-761047","COUNTYNAME":"台東縣","TOWNNAME":"達仁鄉","MARKTYPE":"991","Class":"1"},"geometry":{"x":241295.89850000013,"y":2485410.0967999995}},{"attributes":{"OBJECTID":3388,"LANDMARKID":"1001400000388","LANDMARKCO":"204","LANDMARKNA":"台東縣立圖書館達仁分館","LANDMARKAD":"1001415","ADDRESS":"台東縣達仁鄉安朔村復興路46號","TEL":" ","COUNTYNAME":"台東縣","TOWNNAME":"達仁鄉","MARKTYPE":"992","Class":"2"},"geometry":{"x":238189.68910000008,"y":2466206.6063000001}},{"attributes":{"OBJECTID":3389,"LANDMARKID":"1001400000232","LANDMARKCO":"203","LANDMARKNA":"縣立安朔國小","LANDMARKAD":"1001415","ADDRESS":"台東縣達仁鄉安朔村8鄰113號","TEL":"089-702257","COUNTYNAME":"台東縣","TOWNNAME":"達仁鄉","MARKTYPE":"992","Class":"2"},"geometry":{"x":236384.77840000018,"y":2466110.1153999995}},{"attributes":{"OBJECTID":3390,"LANDMARKID":"1001400000233","LANDMARKCO":"203","LANDMARKNA":"縣立土板國小","LANDMARKAD":"1001415","ADDRESS":"台東縣達仁鄉土板村10號","TEL":"089-761225","COUNTYNAME":"台東縣","TOWNNAME":"達仁鄉","MARKTYPE":"992","Class":"2"},"geometry":{"x":238422.93549999967,"y":2483780.1161000002}},{"attributes":{"OBJECTID":3391,"LANDMARKID":"1001400000234","LANDMARKCO":"203","LANDMARKNA":"縣立台板國小","LANDMARKAD":"1001415","ADDRESS":"台東縣達仁鄉台板村10鄰59號之1","TEL":"089-761252","COUNTYNAME":"台東縣","TOWNNAME":"達仁鄉","MARKTYPE":"992","Class":"2"},"geometry":{"x":240492.83550000004,"y":2486420.1390000004}},{"attributes":{"OBJECTID":3392,"LANDMARKID":"1001400000235","LANDMARKCO":"203","LANDMARKNA":"安朔國小新化分校","LANDMARKAD":"1001415","ADDRESS":"台東縣達仁鄉新化村57號","TEL":"089-791747","COUNTYNAME":"台東縣","TOWNNAME":"達仁鄉","MARKTYPE":"992","Class":"2"},"geometry":{"x":235288.88590000011,"y":2475820.1625999995}},{"attributes":{"OBJECTID":3393,"LANDMARKID":"1001400000236","LANDMARKCO":"203","LANDMARKNA":"縣立森永國小","LANDMARKAD":"1001415","ADDRESS":"台東縣達仁鄉","TEL":" ","COUNTYNAME":"台東縣","TOWNNAME":"達仁鄉","MARKTYPE":"992","Class":"2"},"geometry":{"x":236096.76709999982,"y":2464580.1172000002}},{"attributes":{"OBJECTID":3394,"LANDMARKID":"1001400000237","LANDMARKCO":"203","LANDMARKNA":"縣立安朔國小南田分班","LANDMARKAD":"1001415","ADDRESS":"台東縣達仁鄉","TEL":" ","COUNTYNAME":"台東縣","TOWNNAME":"達仁鄉","MARKTYPE":"992","Class":"2"},"geometry":{"x":238682.99780000001,"y":2464320.1041000001}},{"attributes":{"OBJECTID":3395,"LANDMARKID":"1001400000410","LANDMARKCO":"301","LANDMARKNA":"菩安火車站(閒)","LANDMARKAD":"1001415","ADDRESS":"台東縣達仁鄉","TEL":" ","COUNTYNAME":"台東縣","TOWNNAME":"達仁鄉","MARKTYPE":"993","Class":"301"},"geometry":{"x":231523.26559999958,"y":2466065.8896999992}},{"attributes":{"OBJECTID":3396,"LANDMARKID":"1001400000505","LANDMARKCO":"405","LANDMARKNA":"中油加油站-蘭嶼站(中油直營)","LANDMARKAD":"1001416","ADDRESS":"台東縣蘭嶼鄉椰油村269號","TEL":"089-732157","COUNTYNAME":"台東縣","TOWNNAME":"蘭嶼鄉","MARKTYPE":"994","Class":"4"},"geometry":{"x":302509.40280000027,"y":2440106.4249000009}},{"attributes":{"OBJECTID":3397,"LANDMARKID":"1001400000588","LANDMARKCO":"408","LANDMARKNA":"郵局-蘭嶼郵局","LANDMARKAD":"1001416","ADDRESS":"台東縣蘭嶼鄉紅頭村37號","TEL":"(089)731-570","COUNTYNAME":"台東縣","TOWNNAME":"蘭嶼鄉","MARKTYPE":"994","Class":"4"},"geometry":{"x":307179.21889999975,"y":2436468.5164999999}},{"attributes":{"OBJECTID":3398,"LANDMARKID":"1001400000563","LANDMARKCO":"406","LANDMARKNA":"中正公園","LANDMARKAD":"1001416","ADDRESS":"台東縣蘭嶼鄉","TEL":" ","COUNTYNAME":"台東縣","TOWNNAME":"蘭嶼鄉","MARKTYPE":"994","Class":"4"},"geometry":{"x":302536.8069000002,"y":2439849.8870999999}},{"attributes":{"OBJECTID":3399,"LANDMARKID":"1001400000044","LANDMARKCO":"103","LANDMARKNA":"台東縣蘭嶼鄉衛生所","LANDMARKAD":"1001416","ADDRESS":"台東縣蘭嶼鄉紅頭村36-1號","TEL":"089-732575","COUNTYNAME":"台東縣","TOWNNAME":"蘭嶼鄉","MARKTYPE":"991","Class":"1"},"geometry":{"x":307428.01190000027,"y":2436399.7368999999}},{"attributes":{"OBJECTID":3400,"LANDMARKID":"1001400000200","LANDMARKCO":"108","LANDMARKNA":"台東縣蘭嶼鄉公所","LANDMARKAD":"1001416","ADDRESS":"台東縣蘭嶼鄉椰油村忠孝街168號","TEL":"089-732001","COUNTYNAME":"台東縣","TOWNNAME":"蘭嶼鄉","MARKTYPE":"991","Class":"1"},"geometry":{"x":302559.01499999966,"y":2440099.6977999993}}]}