{"displayFieldName":"COUNTYNAME","fieldAliases":{"OBJECTID":"OBJECTID","LANDMARKID":"LANDMARKID","LANDMARKCO":"LANDMARKCO","LANDMARKNA":"LANDMARKNA","LANDMARKAD":"LANDMARKAD","ADDRESS":"ADDRESS","TEL":"TEL","COUNTYNAME":"COUNTYNAME","TOWNNAME":"TOWNNAME","MARKTYPE":"MARKTYPE","Class":"Class"},"geometryType":"esriGeometryPoint","spatialReference":{"wkid":102443},"fields":[{"name":"OBJECTID","type":"esriFieldTypeOID","alias":"OBJECTID"},{"name":"LANDMARKID","type":"esriFieldTypeString","alias":"LANDMARKID","length":15},{"name":"LANDMARKCO","type":"esriFieldTypeString","alias":"LANDMARKCO","length":15},{"name":"LANDMARKNA","type":"esriFieldTypeString","alias":"LANDMARKNA","length":50},{"name":"LANDMARKAD","type":"esriFieldTypeString","alias":"LANDMARKAD","length":15},{"name":"ADDRESS","type":"esriFieldTypeString","alias":"ADDRESS","length":56},{"name":"TEL","type":"esriFieldTypeString","alias":"TEL","length":36},{"name":"COUNTYNAME","type":"esriFieldTypeString","alias":"COUNTYNAME","length":15},{"name":"TOWNNAME","type":"esriFieldTypeString","alias":"TOWNNAME","length":13},{"name":"MARKTYPE","type":"esriFieldTypeString","alias":"MARKTYPE","length":12},{"name":"Class","type":"esriFieldTypeString","alias":"Class","length":5}],"features":[{"attributes":{"OBJECTID":13601,"LANDMARKID":"1000600000122","LANDMARKCO":"107","LANDMARKNA":"台中市警察局霧峰分局","LANDMARKAD":"1000618","ADDRESS":"台中市霧峰區吉峰村中正路1236號","TEL":"04-23302139","COUNTYNAME":"台中市","TOWNNAME":"霧峰區","MARKTYPE":"991","Class":"1"},"geometry":{"x":219528.20679999981,"y":2663386.7186999992}},{"attributes":{"OBJECTID":13602,"LANDMARKID":"1000600000123","LANDMARKCO":"107","LANDMARKNA":"台中市警察局霧峰派出所","LANDMARKAD":"1000618","ADDRESS":"台中市霧峰區民權街37號","TEL":"04-23393013","COUNTYNAME":"台中市","TOWNNAME":"霧峰區","MARKTYPE":"991","Class":"1"},"geometry":{"x":219534.12990000006,"y":2662467.0354999993}},{"attributes":{"OBJECTID":13603,"LANDMARKID":"1000600000124","LANDMARKCO":"107","LANDMARKNA":"台中市警察局萬豐派出所","LANDMARKAD":"1000618","ADDRESS":"台中市霧峰區萬豐村中正路157號","TEL":"04-23302873","COUNTYNAME":"台中市","TOWNNAME":"霧峰區","MARKTYPE":"991","Class":"1"},"geometry":{"x":219125.06840000022,"y":2657928.2858000007}},{"attributes":{"OBJECTID":13604,"LANDMARKID":"1000600000125","LANDMARKCO":"107","LANDMARKNA":"台中市警察局吉峰派出所","LANDMARKAD":"1000618","ADDRESS":"台中市霧峰區吉峰村中正路1236號","TEL":"04-23334342","COUNTYNAME":"台中市","TOWNNAME":"霧峰區","MARKTYPE":"991","Class":"1"},"geometry":{"x":219528.20679999981,"y":2663386.7186999992}},{"attributes":{"OBJECTID":13605,"LANDMARKID":"1000600000120","LANDMARKCO":"106","LANDMARKNA":"台中市霧峰區戶政事務所","LANDMARKAD":"1000618","ADDRESS":"台中市霧峰區吉峰路16號","TEL":"04-23393497","COUNTYNAME":"台中市","TOWNNAME":"霧峰區","MARKTYPE":"991","Class":"1"},"geometry":{"x":219551.55310000014,"y":2663407.2485000007}},{"attributes":{"OBJECTID":13606,"LANDMARKID":"1000600000121","LANDMARKCO":"107","LANDMARKNA":"台中市消防局霧峰分隊","LANDMARKAD":"1000618","ADDRESS":"台中市霧峰區中正路1340號之8","TEL":"04-23393053","COUNTYNAME":"台中市","TOWNNAME":"霧峰區","MARKTYPE":"991","Class":"1"},"geometry":{"x":219498.17810000014,"y":2663624.8846000005}},{"attributes":{"OBJECTID":13607,"LANDMARKID":"1000600000032","LANDMARKCO":"103","LANDMARKNA":"台中市霧峰區衛生所","LANDMARKAD":"1000618","ADDRESS":"台中市霧峰區本堂村民生路1之9號","TEL":"04-23393022","COUNTYNAME":"台中市","TOWNNAME":"霧峰區","MARKTYPE":"991","Class":"1"},"geometry":{"x":219567.0438000001,"y":2661781.8498999998}},{"attributes":{"OBJECTID":13608,"LANDMARKID":"1000600000558","LANDMARKCO":"205","LANDMARKNA":"林獻堂文物紀念館","LANDMARKAD":"1000618","ADDRESS":"台中市霧峰區萊園路91號","TEL":"04-23393071","COUNTYNAME":"台中市","TOWNNAME":"霧峰區","MARKTYPE":"992","Class":"2"},"geometry":{"x":219849.18290000036,"y":2661819.0702999998}},{"attributes":{"OBJECTID":13609,"LANDMARKID":"1000600000557","LANDMARKCO":"204","LANDMARKNA":"台中市立圖書館霧峰以文分館","LANDMARKAD":"1000618","ADDRESS":"台中市霧峰區大同路8號","TEL":" ","COUNTYNAME":"台中市","TOWNNAME":"霧峰區","MARKTYPE":"992","Class":"2"},"geometry":{"x":219390.62669999991,"y":2661875.4542999994}},{"attributes":{"OBJECTID":13610,"LANDMARKID":"1000600000572","LANDMARKCO":"206","LANDMARKNA":"台灣省農業試驗所昆蟲標本館","LANDMARKAD":"1000618","ADDRESS":"台中市霧峰區中正路189號","TEL":" ","COUNTYNAME":"台中市","TOWNNAME":"霧峰區","MARKTYPE":"992","Class":"2"},"geometry":{"x":219128.19180000015,"y":2658030.3589999992}},{"attributes":{"OBJECTID":13611,"LANDMARKID":"1000600000311","LANDMARKCO":"202","LANDMARKNA":"國立霧峰農工","LANDMARKAD":"1000618","ADDRESS":"台中市霧峰區中正路1222號","TEL":"04-23323520","COUNTYNAME":"台中市","TOWNNAME":"霧峰區","MARKTYPE":"992","Class":"2"},"geometry":{"x":219659.07679999992,"y":2663229.7986999992}},{"attributes":{"OBJECTID":13612,"LANDMARKID":"1000600000312","LANDMARKCO":"202","LANDMARKNA":"私立明台高中","LANDMARKAD":"1000618","ADDRESS":"台中市霧峰區萊園路91號","TEL":"04-23393071","COUNTYNAME":"台中市","TOWNNAME":"霧峰區","MARKTYPE":"992","Class":"2"},"geometry":{"x":219901.08889999986,"y":2661786.5270000007}},{"attributes":{"OBJECTID":13613,"LANDMARKID":"1000600000313","LANDMARKCO":"203","LANDMARKNA":"縣立霧峰國中","LANDMARKAD":"1000618","ADDRESS":"台中市霧峰區國中路110號","TEL":"04-23393175","COUNTYNAME":"台中市","TOWNNAME":"霧峰區","MARKTYPE":"992","Class":"2"},"geometry":{"x":218370.17289999966,"y":2662548.4233999997}},{"attributes":{"OBJECTID":13614,"LANDMARKID":"1000600000314","LANDMARKCO":"203","LANDMARKNA":"縣立光復國中","LANDMARKAD":"1000618","ADDRESS":"台中市霧峰區南柳村柳豐路535號","TEL":"04-23393141","COUNTYNAME":"台中市","TOWNNAME":"霧峰區","MARKTYPE":"992","Class":"2"},"geometry":{"x":218464.0717000002,"y":2659871.3741999995}},{"attributes":{"OBJECTID":13615,"LANDMARKID":"1000600000315","LANDMARKCO":"203","LANDMARKNA":"縣立四德國小","LANDMARKAD":"1000618","ADDRESS":"台中市霧峰區四德路504號","TEL":"04-23393374","COUNTYNAME":"台中市","TOWNNAME":"霧峰區","MARKTYPE":"992","Class":"2"},"geometry":{"x":216169.6847000001,"y":2661896.8484000005}},{"attributes":{"OBJECTID":13616,"LANDMARKID":"1000600000316","LANDMARKCO":"203","LANDMARKNA":"縣立萬豐國小","LANDMARKAD":"1000618","ADDRESS":"台中市霧峰區萬豐村中正路224號","TEL":"04-23393417","COUNTYNAME":"台中市","TOWNNAME":"霧峰區","MARKTYPE":"992","Class":"2"},"geometry":{"x":219203.18829999957,"y":2658240.2419000007}},{"attributes":{"OBJECTID":13617,"LANDMARKID":"1000600000317","LANDMARKCO":"203","LANDMARKNA":"縣立霧峰國小","LANDMARKAD":"1000618","ADDRESS":"台中市霧峰區中正路736號","TEL":"04-23393069","COUNTYNAME":"台中市","TOWNNAME":"霧峰區","MARKTYPE":"992","Class":"2"},"geometry":{"x":219331.64120000042,"y":2661380.8438000008}},{"attributes":{"OBJECTID":13618,"LANDMARKID":"1000600000318","LANDMARKCO":"203","LANDMARKNA":"縣立僑榮國小","LANDMARKAD":"1000618","ADDRESS":"台中市霧峰區甲寅村民生路156號","TEL":"04-23335553","COUNTYNAME":"台中市","TOWNNAME":"霧峰區","MARKTYPE":"992","Class":"2"},"geometry":{"x":219830.82540000044,"y":2662790.6833999995}},{"attributes":{"OBJECTID":13619,"LANDMARKID":"1000600000319","LANDMARKCO":"203","LANDMARKNA":"縣立吉峰國小","LANDMARKAD":"1000618","ADDRESS":"台中市霧峰區甲寅村民生路349號","TEL":"04-23300893","COUNTYNAME":"台中市","TOWNNAME":"霧峰區","MARKTYPE":"992","Class":"2"},"geometry":{"x":221437.89570000023,"y":2663868.0451999996}},{"attributes":{"OBJECTID":13620,"LANDMARKID":"1000600000320","LANDMARKCO":"203","LANDMARKNA":"縣立桐林國小","LANDMARKAD":"1000618","ADDRESS":"台中市霧峰區民生路675號","TEL":"04-23304311","COUNTYNAME":"台中市","TOWNNAME":"霧峰區","MARKTYPE":"992","Class":"2"},"geometry":{"x":223134.12600000016,"y":2662328.6539999992}},{"attributes":{"OBJECTID":13621,"LANDMARKID":"1000600000321","LANDMARKCO":"203","LANDMARKNA":"縣立光復國小","LANDMARKAD":"1000618","ADDRESS":"台中市霧峰區光復新村信義路50號","TEL":"04-23306075","COUNTYNAME":"台中市","TOWNNAME":"霧峰區","MARKTYPE":"992","Class":"2"},"geometry":{"x":219166.55999999959,"y":2659778.0868999995}},{"attributes":{"OBJECTID":13622,"LANDMARKID":"1000600000322","LANDMARKCO":"203","LANDMARKNA":"縣立峰谷國小","LANDMARKAD":"1000618","ADDRESS":"台中市霧峰區豐谷村峰谷路496號","TEL":"04-23399271","COUNTYNAME":"台中市","TOWNNAME":"霧峰區","MARKTYPE":"992","Class":"2"},"geometry":{"x":222015.44020000007,"y":2658962.3882999998}},{"attributes":{"OBJECTID":13623,"LANDMARKID":"1000600000323","LANDMARKCO":"203","LANDMARKNA":"縣立五福國小","LANDMARKAD":"1000618","ADDRESS":"台中市霧峰區五福村新埔路239號","TEL":"04-23396119","COUNTYNAME":"台中市","TOWNNAME":"霧峰區","MARKTYPE":"992","Class":"2"},"geometry":{"x":216429.9768000003,"y":2663638.1264999993}},{"attributes":{"OBJECTID":13624,"LANDMARKID":"1000600000324","LANDMARKCO":"203","LANDMARKNA":"縣立光正國小","LANDMARKAD":"1000618","ADDRESS":"台中市霧峰區豐正路566號","TEL":"04-23398687","COUNTYNAME":"台中市","TOWNNAME":"霧峰區","MARKTYPE":"992","Class":"2"},"geometry":{"x":216309.16569999978,"y":2659128.0528999995}},{"attributes":{"OBJECTID":13625,"LANDMARKID":"1000600000325","LANDMARKCO":"203","LANDMARKNA":"縣立光復國小","LANDMARKAD":"1000618","ADDRESS":"台中市霧峰區柳豐路535號","TEL":"04-23393141","COUNTYNAME":"台中市","TOWNNAME":"霧峰區","MARKTYPE":"992","Class":"2"},"geometry":{"x":218464.0717000002,"y":2659871.3741999995}},{"attributes":{"OBJECTID":13626,"LANDMARKID":"1000600000268","LANDMARKCO":"201","LANDMARKNA":"朝陽科技大學","LANDMARKAD":"1000618","ADDRESS":"台中市霧峰區吉峰東路168號","TEL":"04-23323000","COUNTYNAME":"台中市","TOWNNAME":"霧峰區","MARKTYPE":"992","Class":"2"},"geometry":{"x":221003.48610000033,"y":2662689.1372999996}},{"attributes":{"OBJECTID":13627,"LANDMARKID":"1000600000269","LANDMARKCO":"201","LANDMARKNA":"私立台中健康暨管理學院","LANDMARKAD":"1000618","ADDRESS":"台中市霧峰區柳豐路500號","TEL":"04-23323456","COUNTYNAME":"台中市","TOWNNAME":"霧峰區","MARKTYPE":"992","Class":"2"},"geometry":{"x":218126.05920000002,"y":2660286.3412999995}},{"attributes":{"OBJECTID":13628,"LANDMARKID":"1000600000270","LANDMARKCO":"201","LANDMARKNA":"亞洲大學","LANDMARKAD":"1000618","ADDRESS":"台中市霧峰區柳豐路500號","TEL":"04-23323456","COUNTYNAME":"台中市","TOWNNAME":"霧峰區","MARKTYPE":"992","Class":"2"},"geometry":{"x":218126.05920000002,"y":2660286.3412999995}},{"attributes":{"OBJECTID":13629,"LANDMARKID":"1000600000310","LANDMARKCO":"202","LANDMARKNA":"私立慈明高中","LANDMARKAD":"1000618","ADDRESS":"台中市太平區光興路487巷臨6號","TEL":"04-22713911","COUNTYNAME":"台中市","TOWNNAME":"霧峰區","MARKTYPE":"992","Class":"2"},"geometry":{"x":219496.34509999957,"y":2660900.0231999997}},{"attributes":{"OBJECTID":13630,"LANDMARKID":"1000600000690","LANDMARKCO":"308","LANDMARKNA":"國6-中橫系統交流道-東行","LANDMARKAD":"1000618","ADDRESS":"台中市霧峰區","TEL":" ","COUNTYNAME":"台中市","TOWNNAME":"霧峰區","MARKTYPE":"993","Class":"308"},"geometry":{"x":216276.82789999992,"y":2657943.9505000003}},{"attributes":{"OBJECTID":13631,"LANDMARKID":"1000600000691","LANDMARKCO":"308","LANDMARKNA":"國6-中橫系統交流道-東行","LANDMARKAD":"1000618","ADDRESS":"台中市霧峰區","TEL":" ","COUNTYNAME":"台中市","TOWNNAME":"霧峰區","MARKTYPE":"993","Class":"308"},"geometry":{"x":216369.28409999982,"y":2658271.9857999999}},{"attributes":{"OBJECTID":13632,"LANDMARKID":"1000600000692","LANDMARKCO":"308","LANDMARKNA":"國3-霧峰系統交流道聯絡道-東行","LANDMARKAD":"1000618","ADDRESS":"台中市霧峰區","TEL":" ","COUNTYNAME":"台中市","TOWNNAME":"霧峰區","MARKTYPE":"993","Class":"308"},"geometry":{"x":217043.74289999995,"y":2661217.1364999991}},{"attributes":{"OBJECTID":13633,"LANDMARKID":"1000600000693","LANDMARKCO":"308","LANDMARKNA":"國3-霧峰系統交流道聯絡道-東行","LANDMARKAD":"1000618","ADDRESS":"台中市霧峰區","TEL":" ","COUNTYNAME":"台中市","TOWNNAME":"霧峰區","MARKTYPE":"993","Class":"308"},"geometry":{"x":217408.59549999982,"y":2660254.7827000003}},{"attributes":{"OBJECTID":13634,"LANDMARKID":"1000600000694","LANDMARKCO":"308","LANDMARKNA":"國3-中投公路交流道-北上","LANDMARKAD":"1000618","ADDRESS":"台中市霧峰區","TEL":" ","COUNTYNAME":"台中市","TOWNNAME":"霧峰區","MARKTYPE":"993","Class":"308"},"geometry":{"x":215148.73730000015,"y":2662514.4975000005}},{"attributes":{"OBJECTID":13635,"LANDMARKID":"1000600000695","LANDMARKCO":"308","LANDMARKNA":"國3-霧峰系統交流道-南下","LANDMARKAD":"1000618","ADDRESS":"台中市霧峰區","TEL":" ","COUNTYNAME":"台中市","TOWNNAME":"霧峰區","MARKTYPE":"993","Class":"308"},"geometry":{"x":217307.07100000046,"y":2660475.4697999991}},{"attributes":{"OBJECTID":13636,"LANDMARKID":"1000600000696","LANDMARKCO":"308","LANDMARKNA":"國3-中投公路交流道-南下","LANDMARKAD":"1000618","ADDRESS":"台中市霧峰區","TEL":" ","COUNTYNAME":"台中市","TOWNNAME":"霧峰區","MARKTYPE":"993","Class":"308"},"geometry":{"x":216038.17970000021,"y":2662112.5415000003}},{"attributes":{"OBJECTID":13637,"LANDMARKID":"1000600000697","LANDMARKCO":"308","LANDMARKNA":"國3-霧峰系統交流道-北上","LANDMARKAD":"1000618","ADDRESS":"台中市霧峰區","TEL":" ","COUNTYNAME":"台中市","TOWNNAME":"霧峰區","MARKTYPE":"993","Class":"308"},"geometry":{"x":217234.62260000035,"y":2661022.1800999995}},{"attributes":{"OBJECTID":13638,"LANDMARKID":"1000600000698","LANDMARKCO":"308","LANDMARKNA":"台63-中投交流道北側五福路匝道-北上","LANDMARKAD":"1000618","ADDRESS":"台中市霧峰區","TEL":" ","COUNTYNAME":"台中市","TOWNNAME":"霧峰區","MARKTYPE":"993","Class":"308"},"geometry":{"x":215771.98909999989,"y":2663193.7927999999}},{"attributes":{"OBJECTID":13639,"LANDMARKID":"1000600000699","LANDMARKCO":"308","LANDMARKNA":"台63-中投交流道南側127線匝道-南下","LANDMARKAD":"1000618","ADDRESS":"台中市霧峰區","TEL":" ","COUNTYNAME":"台中市","TOWNNAME":"霧峰區","MARKTYPE":"993","Class":"308"},"geometry":{"x":215656.20739999972,"y":2661371.9532999992}},{"attributes":{"OBJECTID":13640,"LANDMARKID":"1000600000700","LANDMARKCO":"308","LANDMARKNA":"台63-丁台交流道-北側匝道-北上","LANDMARKAD":"1000618","ADDRESS":"台中市霧峰區","TEL":" ","COUNTYNAME":"台中市","TOWNNAME":"霧峰區","MARKTYPE":"993","Class":"308"},"geometry":{"x":216213.68039999995,"y":2660120.2266000006}},{"attributes":{"OBJECTID":13641,"LANDMARKID":"1000600000701","LANDMARKCO":"308","LANDMARKNA":"台63-丁台交流道-南側匝道-南下","LANDMARKAD":"1000618","ADDRESS":"台中市霧峰區","TEL":" ","COUNTYNAME":"台中市","TOWNNAME":"霧峰區","MARKTYPE":"993","Class":"308"},"geometry":{"x":217005.89099999983,"y":2659583.4562999997}},{"attributes":{"OBJECTID":13642,"LANDMARKID":"1000600000702","LANDMARKCO":"308","LANDMARKNA":"台63-萬豐交流道-北上","LANDMARKAD":"1000618","ADDRESS":"台中市霧峰區","TEL":" ","COUNTYNAME":"台中市","TOWNNAME":"霧峰區","MARKTYPE":"993","Class":"308"},"geometry":{"x":217970.37750000041,"y":2658442.2296999991}},{"attributes":{"OBJECTID":13643,"LANDMARKID":"1000600000703","LANDMARKCO":"308","LANDMARKNA":"台63-萬豐交流道-南下","LANDMARKAD":"1000618","ADDRESS":"台中市霧峰區","TEL":" ","COUNTYNAME":"台中市","TOWNNAME":"霧峰區","MARKTYPE":"993","Class":"308"},"geometry":{"x":218053.7770999996,"y":2658141.0007000007}},{"attributes":{"OBJECTID":13644,"LANDMARKID":"1000600000704","LANDMARKCO":"308","LANDMARKNA":"國3-中橫系統交流道-北上","LANDMARKAD":"1000618","ADDRESS":"台中市霧峰區","TEL":" ","COUNTYNAME":"台中市","TOWNNAME":"霧峰區","MARKTYPE":"993","Class":"308"},"geometry":{"x":216479.50810000021,"y":2658020.0348000005}},{"attributes":{"OBJECTID":13645,"LANDMARKID":"1000600000705","LANDMARKCO":"308","LANDMARKNA":"國3-中橫系統交流道-南下","LANDMARKAD":"1000618","ADDRESS":"台中市霧峰區","TEL":" ","COUNTYNAME":"台中市","TOWNNAME":"霧峰區","MARKTYPE":"993","Class":"308"},"geometry":{"x":216456.81799999997,"y":2658006.9988000002}},{"attributes":{"OBJECTID":13646,"LANDMARKID":"1000600000706","LANDMARKCO":"308","LANDMARKNA":"國3-霧峰交流道聯絡道-霧峰端-西行","LANDMARKAD":"1000618","ADDRESS":"台中市霧峰區","TEL":" ","COUNTYNAME":"台中市","TOWNNAME":"霧峰區","MARKTYPE":"993","Class":"308"},"geometry":{"x":218889.28529999964,"y":2660829.7381999996}},{"attributes":{"OBJECTID":13647,"LANDMARKID":"1000600000674","LANDMARKCO":"303","LANDMARKNA":"金陵山宗教藝術園區停車場","LANDMARKAD":"1000618","ADDRESS":"台中市霧峰區峰谷路900號","TEL":"04-23395092","COUNTYNAME":"台中市","TOWNNAME":"霧峰區","MARKTYPE":"993","Class":"303"},"geometry":{"x":221648.2193,"y":2658621.4190999996}},{"attributes":{"OBJECTID":13648,"LANDMARKID":"1000600000795","LANDMARKCO":"402","LANDMARKNA":"威寶電信-霧峰中正特約服務中心","LANDMARKAD":"1000618","ADDRESS":"台中市霧峰區中正路920號","TEL":"04-23331809","COUNTYNAME":"台中市","TOWNNAME":"霧峰區","MARKTYPE":"994","Class":"4"},"geometry":{"x":219377.82739999983,"y":2662212.3686999995}},{"attributes":{"OBJECTID":13649,"LANDMARKID":"1000600000796","LANDMARKCO":"402","LANDMARKNA":"大眾電信(震旦通訊)-霧峰神農店","LANDMARKAD":"1000618","ADDRESS":"台中市霧峰區四德路84號","TEL":"04-23322015","COUNTYNAME":"台中市","TOWNNAME":"霧峰區","MARKTYPE":"994","Class":"4"},"geometry":{"x":219124.57870000042,"y":2662327.4352000002}},{"attributes":{"OBJECTID":13650,"LANDMARKID":"1000600001427","LANDMARKCO":"603","LANDMARKNA":"新峰旅社","LANDMARKAD":"1000618","ADDRESS":"台中市霧峰區本堂村中正路875號","TEL":"04-23393007","COUNTYNAME":"台中市","TOWNNAME":"霧峰區","MARKTYPE":"996","Class":"6"},"geometry":{"x":219328.98840000015,"y":2662137.2639000006}},{"attributes":{"OBJECTID":13651,"LANDMARKID":"1000600001324","LANDMARKCO":"510","LANDMARKNA":"霧峰高爾夫球場","LANDMARKAD":"1000618","ADDRESS":"臺中縣霧峰區峰谷路668號","TEL":"04-23301199","COUNTYNAME":"台中市","TOWNNAME":"霧峰區","MARKTYPE":"995","Class":"5"},"geometry":{"x":224244.3284,"y":2658753.4173000008}},{"attributes":{"OBJECTID":13652,"LANDMARKID":"1001900000711","LANDMARKCO":"405","LANDMARKNA":"中油加油站-松竹路站(中油直營)","LANDMARKAD":"1001908","ADDRESS":"台中市北屯區松和里松竹路427號","TEL":"04-22451915","COUNTYNAME":"台中市","TOWNNAME":"北屯區","MARKTYPE":"994","Class":"4"},"geometry":{"x":220470.4199000001,"y":2675273.0395999998}},{"attributes":{"OBJECTID":13653,"LANDMARKID":"1001900000712","LANDMARKCO":"405","LANDMARKNA":"台灣優力加油站-松竹站(中油)","LANDMARKAD":"1001908","ADDRESS":"台中市北屯區松竹路一段1200號","TEL":"04-24378749","COUNTYNAME":"台中市","TOWNNAME":"北屯區","MARKTYPE":"994","Class":"4"},"geometry":{"x":220432.11840000004,"y":2675268.8610999994}},{"attributes":{"OBJECTID":13654,"LANDMARKID":"1001900000713","LANDMARKCO":"405","LANDMARKNA":"統一速邁樂加油站-北屯加油站(中油)","LANDMARKAD":"1001908","ADDRESS":"台中市北屯區北屯路211號","TEL":" ","COUNTYNAME":"台中市","TOWNNAME":"北屯區","MARKTYPE":"994","Class":"4"},"geometry":{"x":218884.96839999966,"y":2673282.7081000004}},{"attributes":{"OBJECTID":13655,"LANDMARKID":"1001900000714","LANDMARKCO":"405","LANDMARKNA":"中油加油站-豐樂站","LANDMARKAD":"1001908","ADDRESS":"台中市北屯區崇德路3段595號","TEL":"04-24223929","COUNTYNAME":"台中市","TOWNNAME":"北屯區","MARKTYPE":"994","Class":"4"},"geometry":{"x":218120.37990000006,"y":2676608.8517000005}},{"attributes":{"OBJECTID":13656,"LANDMARKID":"1001900000715","LANDMARKCO":"405","LANDMARKNA":"中油加油站-洋基站","LANDMARKAD":"1001908","ADDRESS":"台中市北屯區梅川東路五段146號","TEL":"04-22425655","COUNTYNAME":"台中市","TOWNNAME":"北屯區","MARKTYPE":"994","Class":"4"},"geometry":{"x":217710.48089999985,"y":2674901.3318000007}},{"attributes":{"OBJECTID":13657,"LANDMARKID":"1001900000716","LANDMARKCO":"405","LANDMARKNA":"中油加油站-昌平路站(中油直營)","LANDMARKAD":"1001908","ADDRESS":"台中市北屯區昌平路一段95號","TEL":"04-22348061","COUNTYNAME":"台中市","TOWNNAME":"北屯區","MARKTYPE":"994","Class":"4"},"geometry":{"x":218572.6007000003,"y":2673986.2978000008}},{"attributes":{"OBJECTID":13658,"LANDMARKID":"1001900000717","LANDMARKCO":"405","LANDMARKNA":"中油加油站-南北通站","LANDMARKAD":"1001908","ADDRESS":"台中市北屯區同榮里環中路1段1200號","TEL":"04-24259911","COUNTYNAME":"台中市","TOWNNAME":"北屯區","MARKTYPE":"994","Class":"4"},"geometry":{"x":216465.3245000001,"y":2677369.8629999999}},{"attributes":{"OBJECTID":13659,"LANDMARKID":"1001900000718","LANDMARKCO":"405","LANDMARKNA":"中油加油站-水湳站","LANDMARKAD":"1001908","ADDRESS":"台中市北屯區中清路90號","TEL":"04-22911146","COUNTYNAME":"台中市","TOWNNAME":"北屯區","MARKTYPE":"994","Class":"4"},"geometry":{"x":216022.80900000036,"y":2675417.3211000003}},{"attributes":{"OBJECTID":13660,"LANDMARKID":"1001900000719","LANDMARKCO":"405","LANDMARKNA":"中油加油站-仁美站","LANDMARKAD":"1001908","ADDRESS":"台中市北屯區環中路一段７９號","TEL":"04-24229030","COUNTYNAME":"台中市","TOWNNAME":"北屯區","MARKTYPE":"994","Class":"4"},"geometry":{"x":218920.14800000004,"y":2677282.2927999999}},{"attributes":{"OBJECTID":13661,"LANDMARKID":"1001900000720","LANDMARKCO":"405","LANDMARKNA":"中油加油站-北屯站(中油直營)","LANDMARKAD":"1001908","ADDRESS":"台中市北屯區北屯路436號","TEL":"04-22435121","COUNTYNAME":"台中市","TOWNNAME":"北屯區","MARKTYPE":"994","Class":"4"},"geometry":{"x":219644.67709999997,"y":2674939.9233999997}},{"attributes":{"OBJECTID":13662,"LANDMARKID":"1001900000721","LANDMARKCO":"405","LANDMARKNA":"統一速邁樂加油站-文心一站加油站(中油)","LANDMARKAD":"1001908","ADDRESS":"台中市北屯區平田里文心路四段891號","TEL":"04-22469450","COUNTYNAME":"台中市","TOWNNAME":"北屯區","MARKTYPE":"994","Class":"4"},"geometry":{"x":218898.57990000024,"y":2674050.3193999995}},{"attributes":{"OBJECTID":13663,"LANDMARKID":"1001900000722","LANDMARKCO":"405","LANDMARKNA":"中油加油站-信毅站","LANDMARKAD":"1001908","ADDRESS":"台中市北屯區軍功路二段168號","TEL":"04-22399561","COUNTYNAME":"台中市","TOWNNAME":"北屯區","MARKTYPE":"994","Class":"4"},"geometry":{"x":221537.3077999996,"y":2674912.7967000008}},{"attributes":{"OBJECTID":13664,"LANDMARKID":"1001900000723","LANDMARKCO":"405","LANDMARKNA":"中油加油站-安泰站","LANDMARKAD":"1001908","ADDRESS":"台中市北屯區仁美里崇德路十五路40號","TEL":"04-23252899","COUNTYNAME":"台中市","TOWNNAME":"北屯區","MARKTYPE":"994","Class":"4"},"geometry":{"x":218172.73390000034,"y":2676631.8593000006}},{"attributes":{"OBJECTID":13665,"LANDMARKID":"1001900000724","LANDMARKCO":"405","LANDMARKNA":"中油加油站-太原站","LANDMARKAD":"1001908","ADDRESS":"台中市北屯區太原路三段388號","TEL":"04-22315627","COUNTYNAME":"台中市","TOWNNAME":"北屯區","MARKTYPE":"994","Class":"4"},"geometry":{"x":218956.86959999986,"y":2673305.4155999999}},{"attributes":{"OBJECTID":13666,"LANDMARKID":"1001900000725","LANDMARKCO":"405","LANDMARKNA":"中油加油站-興安路站","LANDMARKAD":"1001908","ADDRESS":"台中市北屯區文心路4段932號","TEL":"04-22331970","COUNTYNAME":"台中市","TOWNNAME":"北屯區","MARKTYPE":"994","Class":"4"},"geometry":{"x":218911.17750000022,"y":2673978.2653999999}},{"attributes":{"OBJECTID":13667,"LANDMARKID":"1001900000726","LANDMARKCO":"405","LANDMARKNA":"中油加油站-東山路站(刷卡自助)(中油直營)","LANDMARKAD":"1001908","ADDRESS":"台中市北屯區東山路一段377-5號","TEL":"04-22392062","COUNTYNAME":"台中市","TOWNNAME":"北屯區","MARKTYPE":"994","Class":"4"},"geometry":{"x":222371.13449999969,"y":2674639.7274999991}},{"attributes":{"OBJECTID":13668,"LANDMARKID":"1001900000727","LANDMARKCO":"405","LANDMARKNA":"統一速邁樂加油站-文心二站加油站(中油)","LANDMARKAD":"1001908","ADDRESS":"台中市北屯區平田里文心路四段930號","TEL":"04-22333801","COUNTYNAME":"台中市","TOWNNAME":"北屯區","MARKTYPE":"994","Class":"4"},"geometry":{"x":218891.16289999988,"y":2673980.0617999993}},{"attributes":{"OBJECTID":13669,"LANDMARKID":"1001900000579","LANDMARKCO":"402","LANDMARKNA":"My Phone台灣大哥大-台中崇德直營服務中心","LANDMARKAD":"1001908","ADDRESS":"台中市北屯區崇德路2段3號","TEL":" ","COUNTYNAME":"台中市","TOWNNAME":"北屯區","MARKTYPE":"994","Class":"4"},"geometry":{"x":217993.51429999992,"y":2673733.3881999999}},{"attributes":{"OBJECTID":13670,"LANDMARKID":"1001900000580","LANDMARKCO":"402","LANDMARKNA":"亞太行動寬頻電信-台中東山加盟服務中心","LANDMARKAD":"1001908","ADDRESS":"台中市北屯區東山路一段290號","TEL":"04-24369108","COUNTYNAME":"台中市","TOWNNAME":"北屯區","MARKTYPE":"994","Class":"4"},"geometry":{"x":221518.84100000001,"y":2674512.0529999994}},{"attributes":{"OBJECTID":13671,"LANDMARKID":"1001900000581","LANDMARKCO":"402","LANDMARKNA":"亞太行動寬頻電信-台中水湳加盟服務中心","LANDMARKAD":"1001908","ADDRESS":"台中市北屯區中清路99之13號","TEL":"04-22954256","COUNTYNAME":"台中市","TOWNNAME":"北屯區","MARKTYPE":"994","Class":"4"},"geometry":{"x":216246.68599999975,"y":2674884.2752}},{"attributes":{"OBJECTID":13672,"LANDMARKID":"1001900000582","LANDMARKCO":"402","LANDMARKNA":"亞太行動寬頻電信-台中松竹加盟服務中心","LANDMARKAD":"1001908","ADDRESS":"台中市北屯區松強里松竹路二段398號","TEL":"04-22424818","COUNTYNAME":"台中市","TOWNNAME":"北屯區","MARKTYPE":"994","Class":"4"},"geometry":{"x":218361.60500000045,"y":2675232.5687000006}},{"attributes":{"OBJECTID":13673,"LANDMARKID":"1001900000583","LANDMARKCO":"402","LANDMARKNA":"亞太行動寬頻電信-台中興安加盟服務中心","LANDMARKAD":"1001908","ADDRESS":"台中市北屯區興安路一段330號","TEL":"04-22474888","COUNTYNAME":"台中市","TOWNNAME":"北屯區","MARKTYPE":"994","Class":"4"},"geometry":{"x":218980.46380000003,"y":2674376.0625999998}},{"attributes":{"OBJECTID":13674,"LANDMARKID":"1001900000584","LANDMARKCO":"402","LANDMARKNA":"亞太行動寬頻電信-台中北屯加盟服務中心","LANDMARKAD":"1001908","ADDRESS":"台中市北屯區北屯路186號","TEL":"04-22308777","COUNTYNAME":"台中市","TOWNNAME":"北屯區","MARKTYPE":"994","Class":"4"},"geometry":{"x":219002.57569999993,"y":2673402.1151999999}},{"attributes":{"OBJECTID":13675,"LANDMARKID":"1001900000585","LANDMARKCO":"402","LANDMARKNA":"亞太行動寬頻電信-台中文心加盟服務中心","LANDMARKAD":"1001908","ADDRESS":"台中市北屯區文心路四段613號","TEL":"04-35005718","COUNTYNAME":"台中市","TOWNNAME":"北屯區","MARKTYPE":"994","Class":"4"},"geometry":{"x":218082.96920000017,"y":2674146.5862000007}},{"attributes":{"OBJECTID":13676,"LANDMARKID":"1001900000564","LANDMARKCO":"401","LANDMARKNA":"聯合中醫醫院","LANDMARKAD":"1001908","ADDRESS":"台中市北屯區大連路二段36號","TEL":"04-22465979","COUNTYNAME":"台中市","TOWNNAME":"北屯區","MARKTYPE":"994","Class":"4"},"geometry":{"x":217805.7611999996,"y":2674546.5976999998}},{"attributes":{"OBJECTID":13677,"LANDMARKID":"1001900000565","LANDMARKCO":"401","LANDMARKNA":"弘光科技大學附設老人醫院","LANDMARKAD":"1001908","ADDRESS":"台中市北屯區太原路三段1141號","TEL":"04-22390600","COUNTYNAME":"台中市","TOWNNAME":"北屯區","MARKTYPE":"994","Class":"4"},"geometry":{"x":221875.65739999991,"y":2673067.2026000004}},{"attributes":{"OBJECTID":13678,"LANDMARKID":"1001900000566","LANDMARKCO":"401","LANDMARKNA":"聯安醫院","LANDMARKAD":"1001908","ADDRESS":"台中市北屯區東山路一段37號","TEL":"04-22441995","COUNTYNAME":"台中市","TOWNNAME":"北屯區","MARKTYPE":"994","Class":"4"},"geometry":{"x":219441.7070000004,"y":2673958.4493000004}},{"attributes":{"OBJECTID":13679,"LANDMARKID":"1001900000567","LANDMARKCO":"401","LANDMARKNA":"博愛外科醫院","LANDMARKAD":"1001908","ADDRESS":"台中市北屯區文心路三段431號","TEL":"04-22954722","COUNTYNAME":"台中市","TOWNNAME":"北屯區","MARKTYPE":"994","Class":"4"},"geometry":{"x":216261.66179999989,"y":2674279.3140999991}},{"attributes":{"OBJECTID":13680,"LANDMARKID":"1001900000568","LANDMARKCO":"401","LANDMARKNA":"全民醫院","LANDMARKAD":"1001908","ADDRESS":"台中市北屯區中清路72-42號","TEL":"04-22916666","COUNTYNAME":"台中市","TOWNNAME":"北屯區","MARKTYPE":"994","Class":"4"},"geometry":{"x":216125.71329999994,"y":2675180.6610000003}},{"attributes":{"OBJECTID":13681,"LANDMARKID":"1001900000569","LANDMARKCO":"401","LANDMARKNA":"中山醫學大學附設復健醫院","LANDMARKAD":"1001908","ADDRESS":"台中市北屯區太原路三段1142號","TEL":"04-22393855","COUNTYNAME":"台中市","TOWNNAME":"北屯區","MARKTYPE":"994","Class":"4"},"geometry":{"x":221697.92850000039,"y":2672930.4166000001}},{"attributes":{"OBJECTID":13682,"LANDMARKID":"1001900001006","LANDMARKCO":"507","LANDMARKNA":"台中文昌廟","LANDMARKAD":"1001908","ADDRESS":"台中市北屯區仁美里昌平路二段41號","TEL":" ","COUNTYNAME":"台中市","TOWNNAME":"北屯區","MARKTYPE":"995","Class":"5"},"geometry":{"x":217968.34059999976,"y":2676223.9824000001}},{"attributes":{"OBJECTID":13683,"LANDMARKID":"1001900001004","LANDMARKCO":"506","LANDMARKNA":"青青休閒農園","LANDMARKAD":"1001908","ADDRESS":"台中市北屯區北坑巷68號","TEL":"04-22391211","COUNTYNAME":"台中市","TOWNNAME":"北屯區","MARKTYPE":"995","Class":"5"},"geometry":{"x":225219.16309999954,"y":2673785.2451000009}},{"attributes":{"OBJECTID":13684,"LANDMARKID":"1001900001005","LANDMARKCO":"507","LANDMARKNA":"積善樓","LANDMARKAD":"1001908","ADDRESS":"台中市北屯區興安路一段163號","TEL":" ","COUNTYNAME":"台中市","TOWNNAME":"北屯區","MARKTYPE":"995","Class":"5"},"geometry":{"x":218887.88310000021,"y":2673809.0998999998}},{"attributes":{"OBJECTID":13685,"LANDMARKID":"1001900000968","LANDMARKCO":"408","LANDMARKNA":"郵局-台中水湳郵局","LANDMARKAD":"1001908","ADDRESS":"台中市北屯區四平路1號","TEL":"(04)2291-4800","COUNTYNAME":"台中市","TOWNNAME":"北屯區","MARKTYPE":"994","Class":"4"},"geometry":{"x":216430.32400000002,"y":2674730.0461999997}},{"attributes":{"OBJECTID":13686,"LANDMARKID":"1001900000969","LANDMARKCO":"408","LANDMARKNA":"郵局-台中中清路郵局","LANDMARKAD":"1001908","ADDRESS":"台中市北屯區中清路108-2號","TEL":"(04)2425-4069","COUNTYNAME":"台中市","TOWNNAME":"北屯區","MARKTYPE":"994","Class":"4"},"geometry":{"x":215831.82620000001,"y":2675748.6390000004}},{"attributes":{"OBJECTID":13687,"LANDMARKID":"1001900000970","LANDMARKCO":"408","LANDMARKNA":"郵局-台中軍功郵局","LANDMARKAD":"1001908","ADDRESS":"台中市北屯區軍福路1066號","TEL":"(04)2436-9107","COUNTYNAME":"台中市","TOWNNAME":"北屯區","MARKTYPE":"994","Class":"4"},"geometry":{"x":221667.86319999956,"y":2674501.3548000008}},{"attributes":{"OBJECTID":13688,"LANDMARKID":"1001900000971","LANDMARKCO":"408","LANDMARKNA":"郵局-台中松竹郵局","LANDMARKAD":"1001908","ADDRESS":"台中市北屯區松竹北路110號","TEL":"(04)2243-7285","COUNTYNAME":"台中市","TOWNNAME":"北屯區","MARKTYPE":"994","Class":"4"},"geometry":{"x":219449.50299999956,"y":2675591.4631999992}},{"attributes":{"OBJECTID":13689,"LANDMARKID":"1001900000972","LANDMARKCO":"408","LANDMARKNA":"郵局-台中北屯郵局","LANDMARKAD":"1001908","ADDRESS":"台中市北屯區進化北路37-1號","TEL":"(04)2237-2725","COUNTYNAME":"台中市","TOWNNAME":"北屯區","MARKTYPE":"994","Class":"4"},"geometry":{"x":218622.14250000007,"y":2673084.8803000003}},{"attributes":{"OBJECTID":13690,"LANDMARKID":"1001900000973","LANDMARKCO":"408","LANDMARKNA":"郵局-台中四張犁郵局","LANDMARKAD":"1001908","ADDRESS":"台中市北屯區四平路360號","TEL":"(04)2422-4016","COUNTYNAME":"台中市","TOWNNAME":"北屯區","MARKTYPE":"994","Class":"4"},"geometry":{"x":217521.35940000042,"y":2675997.3027999997}},{"attributes":{"OBJECTID":13691,"LANDMARKID":"1001900000974","LANDMARKCO":"408","LANDMARKNA":"郵局-台中大坑口郵局","LANDMARKAD":"1001908","ADDRESS":"台中市北屯區東山路1段38-1號","TEL":"(04)2231-5030","COUNTYNAME":"台中市","TOWNNAME":"北屯區","MARKTYPE":"994","Class":"4"},"geometry":{"x":219481.45299999975,"y":2673893.9392000008}},{"attributes":{"OBJECTID":13692,"LANDMARKID":"1001900000975","LANDMARKCO":"408","LANDMARKNA":"郵局-台中文心路郵局","LANDMARKAD":"1001908","ADDRESS":"台中市北屯區文心路4段536號","TEL":"(04)2235-6388","COUNTYNAME":"台中市","TOWNNAME":"北屯區","MARKTYPE":"994","Class":"4"},"geometry":{"x":217997.86120000016,"y":2674103.8344999999}},{"attributes":{"OBJECTID":13693,"LANDMARKID":"1001900000702","LANDMARKCO":"404","LANDMARKNA":"台灣自來水臺中給水廠","LANDMARKAD":"1001908","ADDRESS":"臺中市北屯區遼寧路一段3號","TEL":"04-22450114","COUNTYNAME":"台中市","TOWNNAME":"北屯區","MARKTYPE":"994","Class":"4"},"geometry":{"x":219214.29629999958,"y":2674065.8300000001}},{"attributes":{"OBJECTID":13694,"LANDMARKID":"1001900000703","LANDMARKCO":"404","LANDMARKNA":"台灣自來水中區第一工務所","LANDMARKAD":"1001908","ADDRESS":"臺中市瀋陽路三段396號","TEL":"04-22419127","COUNTYNAME":"台中市","TOWNNAME":"北屯區","MARKTYPE":"994","Class":"4"},"geometry":{"x":219148.14570000023,"y":2674111.1479000002}},{"attributes":{"OBJECTID":13695,"LANDMARKID":"1001900000890","LANDMARKCO":"406","LANDMARKNA":"四平公園","LANDMARKAD":"1001908","ADDRESS":"台中市北屯區","TEL":" ","COUNTYNAME":"台中市","TOWNNAME":"北屯區","MARKTYPE":"994","Class":"4"},"geometry":{"x":217491.92750000022,"y":2676339.4635000005}},{"attributes":{"OBJECTID":13696,"LANDMARKID":"1001900000891","LANDMARKCO":"406","LANDMARKNA":"瀋陽公園","LANDMARKAD":"1001908","ADDRESS":"台中市西屯區","TEL":" ","COUNTYNAME":"台中市","TOWNNAME":"北屯區","MARKTYPE":"994","Class":"4"},"geometry":{"x":216708.32479999959,"y":2674656.5154999997}},{"attributes":{"OBJECTID":13697,"LANDMARKID":"1001900000892","LANDMARKCO":"406","LANDMARKNA":"民俗公園","LANDMARKAD":"1001908","ADDRESS":"台中市北屯區","TEL":" ","COUNTYNAME":"台中市","TOWNNAME":"北屯區","MARKTYPE":"994","Class":"4"},"geometry":{"x":218217.2313000001,"y":2674452.2201000005}},{"attributes":{"OBJECTID":13698,"LANDMARKID":"1001900000893","LANDMARKCO":"406","LANDMARKNA":"熱河公園","LANDMARKAD":"1001908","ADDRESS":"台中市北屯區","TEL":" ","COUNTYNAME":"台中市","TOWNNAME":"北屯區","MARKTYPE":"994","Class":"4"},"geometry":{"x":218272.75329999998,"y":2674394.2041999996}},{"attributes":{"OBJECTID":13699,"LANDMARKID":"1001900000894","LANDMARKCO":"406","LANDMARKNA":"遼寧公園","LANDMARKAD":"1001908","ADDRESS":"台中市北屯區","TEL":" ","COUNTYNAME":"台中市","TOWNNAME":"北屯區","MARKTYPE":"994","Class":"4"},"geometry":{"x":219161.28619999997,"y":2674332.7780000009}},{"attributes":{"OBJECTID":13700,"LANDMARKID":"1001900000895","LANDMARKCO":"406","LANDMARKNA":"舊社公園","LANDMARKAD":"1001908","ADDRESS":"台中市北屯區","TEL":" ","COUNTYNAME":"台中市","TOWNNAME":"北屯區","MARKTYPE":"994","Class":"4"},"geometry":{"x":219545.25889999978,"y":2675123.1466000006}},{"attributes":{"OBJECTID":13701,"LANDMARKID":"1001900000896","LANDMARKCO":"406","LANDMARKNA":"松竹公園","LANDMARKAD":"1001908","ADDRESS":"台中市北屯區","TEL":" ","COUNTYNAME":"台中市","TOWNNAME":"北屯區","MARKTYPE":"994","Class":"4"},"geometry":{"x":218239.12100000028,"y":2674987.3848999999}},{"attributes":{"OBJECTID":13702,"LANDMARKID":"1001900000897","LANDMARKCO":"406","LANDMARKNA":"同榮公園","LANDMARKAD":"1001908","ADDRESS":"台中市西屯區","TEL":" ","COUNTYNAME":"台中市","TOWNNAME":"北屯區","MARKTYPE":"994","Class":"4"},"geometry":{"x":215782.46100000013,"y":2676948.2079000007}},{"attributes":{"OBJECTID":13703,"LANDMARKID":"1001900000898","LANDMARKCO":"406","LANDMARKNA":"后庄公園","LANDMARKAD":"1001908","ADDRESS":"台中市西屯區","TEL":" ","COUNTYNAME":"台中市","TOWNNAME":"北屯區","MARKTYPE":"994","Class":"4"},"geometry":{"x":215722.53019999992,"y":2676282.7548999991}},{"attributes":{"OBJECTID":13704,"LANDMARKID":"1001900000899","LANDMARKCO":"406","LANDMARKNA":"梅川公園","LANDMARKAD":"1001908","ADDRESS":"台中市北區","TEL":" ","COUNTYNAME":"台中市","TOWNNAME":"北屯區","MARKTYPE":"994","Class":"4"},"geometry":{"x":217376.94649999961,"y":2673908.9253000002}},{"attributes":{"OBJECTID":13705,"LANDMARKID":"1001900000900","LANDMARKCO":"406","LANDMARKNA":"東新公園","LANDMARKAD":"1001908","ADDRESS":"台中市北屯區","TEL":" ","COUNTYNAME":"台中市","TOWNNAME":"北屯區","MARKTYPE":"994","Class":"4"},"geometry":{"x":217562.61500000022,"y":2674479.3129999992}},{"attributes":{"OBJECTID":13706,"LANDMARKID":"1001900000901","LANDMARKCO":"406","LANDMARKNA":"松安公園","LANDMARKAD":"1001908","ADDRESS":"台中市北屯區","TEL":" ","COUNTYNAME":"台中市","TOWNNAME":"北屯區","MARKTYPE":"994","Class":"4"},"geometry":{"x":218680.38239999954,"y":2674996.2415999994}},{"attributes":{"OBJECTID":13707,"LANDMARKID":"1001900000902","LANDMARKCO":"406","LANDMARKNA":"旅順公園","LANDMARKAD":"1001908","ADDRESS":"台中市北屯區","TEL":" ","COUNTYNAME":"台中市","TOWNNAME":"北屯區","MARKTYPE":"994","Class":"4"},"geometry":{"x":218703.01800000016,"y":2674287.3583000004}},{"attributes":{"OBJECTID":13708,"LANDMARKID":"1001900000903","LANDMARKCO":"406","LANDMARKNA":"兒童公園","LANDMARKAD":"1001908","ADDRESS":"台中市北屯區","TEL":" ","COUNTYNAME":"台中市","TOWNNAME":"北屯區","MARKTYPE":"994","Class":"4"},"geometry":{"x":218976.92970000021,"y":2673715.3366}},{"attributes":{"OBJECTID":13709,"LANDMARKID":"1001900000904","LANDMARKCO":"406","LANDMARKNA":"崇德公園","LANDMARKAD":"1001908","ADDRESS":"台中市北區","TEL":" ","COUNTYNAME":"台中市","TOWNNAME":"北屯區","MARKTYPE":"994","Class":"4"},"geometry":{"x":217865.81410000008,"y":2673816.9590000007}},{"attributes":{"OBJECTID":13710,"LANDMARKID":"1001900000905","LANDMARKCO":"406","LANDMARKNA":"福光公園","LANDMARKAD":"1001908","ADDRESS":"台中市北屯區","TEL":" ","COUNTYNAME":"台中市","TOWNNAME":"北屯區","MARKTYPE":"994","Class":"4"},"geometry":{"x":219444.13080000039,"y":2674008.0456000008}},{"attributes":{"OBJECTID":13711,"LANDMARKID":"1001900000906","LANDMARKCO":"406","LANDMARKNA":"水景公園","LANDMARKAD":"1001908","ADDRESS":"台中市北屯區","TEL":" ","COUNTYNAME":"台中市","TOWNNAME":"北屯區","MARKTYPE":"994","Class":"4"},"geometry":{"x":220872.17109999992,"y":2674302.6582999993}},{"attributes":{"OBJECTID":13712,"LANDMARKID":"1001900000907","LANDMARKCO":"406","LANDMARKNA":"東光公園","LANDMARKAD":"1001908","ADDRESS":"台中市北屯區","TEL":" ","COUNTYNAME":"台中市","TOWNNAME":"北屯區","MARKTYPE":"994","Class":"4"},"geometry":{"x":218398.35560000036,"y":2673748.9371000007}},{"attributes":{"OBJECTID":13713,"LANDMARKID":"1001900000701","LANDMARKCO":"404","LANDMARKNA":"台灣省自來水台中給水廠","LANDMARKAD":"1001908","ADDRESS":"台中市北屯區遼寧路一段3號","TEL":" ","COUNTYNAME":"台中市","TOWNNAME":"北屯區","MARKTYPE":"994","Class":"4"},"geometry":{"x":219146.6529000001,"y":2674057.7043999992}},{"attributes":{"OBJECTID":13714,"LANDMARKID":"1001900000908","LANDMARKCO":"407","LANDMARKNA":"小北百貨","LANDMARKAD":"1001908","ADDRESS":"台中市北屯區昌平路一段103-2號??","TEL":"(04)24754386??","COUNTYNAME":"台中市","TOWNNAME":"北屯區","MARKTYPE":"994","Class":"4"},"geometry":{"x":218531.58270000014,"y":2674247.5408999994}},{"attributes":{"OBJECTID":13715,"LANDMARKID":"1001900000704","LANDMARKCO":"405","LANDMARKNA":"鯨世界加油站-仁美站(台塑)","LANDMARKAD":"1001908","ADDRESS":"台中市北屯區同樂巷23-6號","TEL":" ","COUNTYNAME":"台中市","TOWNNAME":"北屯區","MARKTYPE":"994","Class":"4"},"geometry":{"x":217777.62750000041,"y":2677381.3785999995}},{"attributes":{"OBJECTID":13716,"LANDMARKID":"1001900000705","LANDMARKCO":"405","LANDMARKNA":"全國加油站-中清站（台塑）","LANDMARKAD":"1001908","ADDRESS":"台中市北屯區中清路110-25號","TEL":"04-24254017","COUNTYNAME":"台中市","TOWNNAME":"北屯區","MARKTYPE":"994","Class":"4"},"geometry":{"x":215651.08420000039,"y":2676086.9340000004}},{"attributes":{"OBJECTID":13717,"LANDMARKID":"1001900000706","LANDMARKCO":"405","LANDMARKNA":"福懋加油站-文心路站(台塑)","LANDMARKAD":"1001908","ADDRESS":"台中市北屯區文心路四段613號","TEL":"04-22450958","COUNTYNAME":"台中市","TOWNNAME":"北屯區","MARKTYPE":"994","Class":"4"},"geometry":{"x":218082.95820000023,"y":2674147.3716000002}},{"attributes":{"OBJECTID":13718,"LANDMARKID":"1001900000707","LANDMARKCO":"405","LANDMARKNA":"全國加油站-大坑站（台塑）","LANDMARKAD":"1001908","ADDRESS":"台中市北屯區松竹路一段640號","TEL":"04-22397553","COUNTYNAME":"台中市","TOWNNAME":"北屯區","MARKTYPE":"994","Class":"4"},"geometry":{"x":221467.64599999972,"y":2675256.5259000007}},{"attributes":{"OBJECTID":13719,"LANDMARKID":"1001900000708","LANDMARKCO":"405","LANDMARKNA":"全國加油站-軍功站（台塑）","LANDMARKAD":"1001908","ADDRESS":"台中市北屯區軍功路二段526號","TEL":"04-22396115","COUNTYNAME":"台中市","TOWNNAME":"北屯區","MARKTYPE":"994","Class":"4"},"geometry":{"x":221460.56140000001,"y":2675572.1766999997}},{"attributes":{"OBJECTID":13720,"LANDMARKID":"1001900000709","LANDMARKCO":"405","LANDMARKNA":"全國加油站-昌平站（台塑）","LANDMARKAD":"1001908","ADDRESS":"台中市北屯區崇德路二段36號","TEL":"04-22367893","COUNTYNAME":"台中市","TOWNNAME":"北屯區","MARKTYPE":"994","Class":"4"},"geometry":{"x":218052.09200000018,"y":2673845.9179999996}},{"attributes":{"OBJECTID":13721,"LANDMARKID":"1001900000710","LANDMARKCO":"405","LANDMARKNA":"全國加油站-台中仁美站（台塑）","LANDMARKAD":"1001908","ADDRESS":"台中市北屯區崇德路三段1000號","TEL":"04-24211555","COUNTYNAME":"台中市","TOWNNAME":"北屯區","MARKTYPE":"994","Class":"4"},"geometry":{"x":218193.07299999986,"y":2677783.7969000004}},{"attributes":{"OBJECTID":13722,"LANDMARKID":"1001900000103","LANDMARKCO":"107","LANDMARKNA":"松安派出所","LANDMARKAD":"1001908","ADDRESS":"台中市北屯區松竹路二段五號","TEL":"04-22461713","COUNTYNAME":"台中市","TOWNNAME":"北屯區","MARKTYPE":"991","Class":"1"},"geometry":{"x":219676.66229999997,"y":2675210.3430000003}},{"attributes":{"OBJECTID":13723,"LANDMARKID":"1001900000056","LANDMARKCO":"104","LANDMARKNA":"中區國稅局東山稽徵所","LANDMARKAD":"1001908","ADDRESS":"台中市北屯區豐樂路二段168號","TEL":"04-24225822","COUNTYNAME":"台中市","TOWNNAME":"北屯區","MARKTYPE":"991","Class":"1"},"geometry":{"x":217444.11319999956,"y":2676661.9597999994}},{"attributes":{"OBJECTID":13724,"LANDMARKID":"1001900000123","LANDMARKCO":"108","LANDMARKNA":"台中市北屯區公所","LANDMARKAD":"1001908","ADDRESS":"臺中市北屯區崇德路三段10號","TEL":"04-35056000","COUNTYNAME":"台中市","TOWNNAME":"北屯區","MARKTYPE":"991","Class":"1"},"geometry":{"x":218166.13239999954,"y":2675292.4881999996}},{"attributes":{"OBJECTID":13725,"LANDMARKID":"1001900000104","LANDMARKCO":"107","LANDMARKNA":"台中市警察局第五分局","LANDMARKAD":"1001908","ADDRESS":"台中市北屯區北屯路106號","TEL":"04-22341902","COUNTYNAME":"台中市","TOWNNAME":"北屯區","MARKTYPE":"991","Class":"1"},"geometry":{"x":218891.47059999965,"y":2673204.6799999997}},{"attributes":{"OBJECTID":13726,"LANDMARKID":"1001900000105","LANDMARKCO":"107","LANDMARKNA":"台中市警察局東山派出所","LANDMARKAD":"1001908","ADDRESS":"台中市北屯區東山路二段30號","TEL":"04-22392713","COUNTYNAME":"台中市","TOWNNAME":"北屯區","MARKTYPE":"991","Class":"1"},"geometry":{"x":223623.77919999976,"y":2674893.2010999992}},{"attributes":{"OBJECTID":13727,"LANDMARKID":"1001900000106","LANDMARKCO":"107","LANDMARKNA":"台中市警察局四平派出所","LANDMARKAD":"1001908","ADDRESS":"台中市北屯區昌平路二段63號","TEL":"04-24222714","COUNTYNAME":"台中市","TOWNNAME":"北屯區","MARKTYPE":"991","Class":"1"},"geometry":{"x":217704.47180000041,"y":2676389.1082000006}},{"attributes":{"OBJECTID":13728,"LANDMARKID":"1001900000107","LANDMARKCO":"107","LANDMARKNA":"台中市警察局水湳派出所","LANDMARKAD":"1001908","ADDRESS":"台中市北屯區中清路99號","TEL":"04-22912715","COUNTYNAME":"台中市","TOWNNAME":"北屯區","MARKTYPE":"991","Class":"1"},"geometry":{"x":216285.23749999981,"y":2674828.1587000005}},{"attributes":{"OBJECTID":13729,"LANDMARKID":"1001900000108","LANDMARKCO":"107","LANDMARKNA":"台中市警察局北屯派出所","LANDMARKAD":"1001908","ADDRESS":"台中市北屯區北屯路106號","TEL":"04-22332712","COUNTYNAME":"台中市","TOWNNAME":"北屯區","MARKTYPE":"991","Class":"1"},"geometry":{"x":218891.47059999965,"y":2673204.6799999997}},{"attributes":{"OBJECTID":13730,"LANDMARKID":"1001900000109","LANDMARKCO":"107","LANDMARKNA":"台中市消防局北屯消防分隊","LANDMARKAD":"1001908","ADDRESS":"臺中市北屯區北屯路88號","TEL":"04-22337630","COUNTYNAME":"台中市","TOWNNAME":"北屯區","MARKTYPE":"991","Class":"1"},"geometry":{"x":218861.25459999964,"y":2673122.1739000008}},{"attributes":{"OBJECTID":13731,"LANDMARKID":"1001900000110","LANDMARKCO":"107","LANDMARKNA":"台中市消防局四平消防分隊","LANDMARKAD":"1001908","ADDRESS":"臺中市北屯區后庄路909號","TEL":"04-24223651","COUNTYNAME":"台中市","TOWNNAME":"北屯區","MARKTYPE":"991","Class":"1"},"geometry":{"x":217687.21150000021,"y":2676397.9989999998}},{"attributes":{"OBJECTID":13732,"LANDMARKID":"1001900000066","LANDMARKCO":"106","LANDMARKNA":"台中市北屯區戶政事務所","LANDMARKAD":"1001908","ADDRESS":"臺中市北屯區崇德路三段10號","TEL":"04-35033371","COUNTYNAME":"台中市","TOWNNAME":"北屯區","MARKTYPE":"991","Class":"1"},"geometry":{"x":218166.13239999954,"y":2675292.4881999996}},{"attributes":{"OBJECTID":13733,"LANDMARKID":"1001900000064","LANDMARKCO":"105","LANDMARKNA":"台中市中正地政事務所","LANDMARKAD":"1001908","ADDRESS":"台中市北屯區北平路三段36號","TEL":"04-22372388","COUNTYNAME":"台中市","TOWNNAME":"北屯區","MARKTYPE":"991","Class":"1"},"geometry":{"x":217551.30339999963,"y":2673985.6379000004}},{"attributes":{"OBJECTID":13734,"LANDMARKID":"1001900000053","LANDMARKCO":"103","LANDMARKNA":"台中市立仁愛之家","LANDMARKAD":"1001908","ADDRESS":"台中市北屯區軍功路二段490號","TEL":"04-22392074","COUNTYNAME":"台中市","TOWNNAME":"北屯區","MARKTYPE":"991","Class":"1"},"geometry":{"x":221561.65490000043,"y":2675437.1210999992}},{"attributes":{"OBJECTID":13735,"LANDMARKID":"1001900000054","LANDMARKCO":"103","LANDMARKNA":"台中市北屯區衛生所","LANDMARKAD":"1001908","ADDRESS":"臺中市北屯區軍功路二段16號","TEL":"04-22392638","COUNTYNAME":"台中市","TOWNNAME":"北屯區","MARKTYPE":"991","Class":"1"},"geometry":{"x":221504.02460000012,"y":2674565.1152999997}},{"attributes":{"OBJECTID":13736,"LANDMARKID":"1001900000119","LANDMARKCO":"107","LANDMARKNA":"台中市警察局文昌派出所","LANDMARKAD":"1001908","ADDRESS":"台中市北屯區文昌東三街48號","TEL":"04-22377714","COUNTYNAME":"台中市","TOWNNAME":"北屯區","MARKTYPE":"991","Class":"1"},"geometry":{"x":217557.03639999963,"y":2673932.2729000002}},{"attributes":{"OBJECTID":13737,"LANDMARKID":"1001900000120","LANDMARKCO":"107","LANDMARKNA":"台中市消防局文昌消防分隊","LANDMARKAD":"1001908","ADDRESS":"台中市北屯區文昌東三街48號","TEL":"04-22331023","COUNTYNAME":"台中市","TOWNNAME":"北屯區","MARKTYPE":"991","Class":"1"},"geometry":{"x":217557.03639999963,"y":2673932.2729000002}},{"attributes":{"OBJECTID":13738,"LANDMARKID":"1001900000121","LANDMARKCO":"107","LANDMARKNA":"台中市消防局水湳消防分隊","LANDMARKAD":"1001908","ADDRESS":"台中市北屯區中清號99號","TEL":"04-22922522","COUNTYNAME":"台中市","TOWNNAME":"北屯區","MARKTYPE":"991","Class":"1"},"geometry":{"x":216271.81429999974,"y":2674830.3388999999}},{"attributes":{"OBJECTID":13739,"LANDMARKID":"1001900000286","LANDMARKCO":"205","LANDMARKNA":"台灣民俗文物館","LANDMARKAD":"1001908","ADDRESS":"台中市北屯區旅順路二段73號","TEL":"04-22451310","COUNTYNAME":"台中市","TOWNNAME":"北屯區","MARKTYPE":"992","Class":"2"},"geometry":{"x":218224.39589999989,"y":2674385.6363999993}},{"attributes":{"OBJECTID":13740,"LANDMARKID":"1001900000270","LANDMARKCO":"204","LANDMARKNA":"台中市立圖書館北屯區分館","LANDMARKAD":"1001908","ADDRESS":"台中市北屯區大連路三段122號","TEL":" ","COUNTYNAME":"台中市","TOWNNAME":"北屯區","MARKTYPE":"992","Class":"2"},"geometry":{"x":218899.48120000027,"y":2674386.3123000003}},{"attributes":{"OBJECTID":13741,"LANDMARKID":"1001900000287","LANDMARKCO":"206","LANDMARKNA":"台中市政府文化局兒童館","LANDMARKAD":"1001908","ADDRESS":"台中市北屯區興安路一段162號","TEL":" ","COUNTYNAME":"台中市","TOWNNAME":"北屯區","MARKTYPE":"992","Class":"2"},"geometry":{"x":218926.6007000003,"y":2673786.9914999995}},{"attributes":{"OBJECTID":13742,"LANDMARKID":"1001900000245","LANDMARKCO":"203","LANDMARKNA":"市立北新國中","LANDMARKAD":"1001908","ADDRESS":"台中市北屯區僑孝街80號","TEL":"04-22449374","COUNTYNAME":"台中市","TOWNNAME":"北屯區","MARKTYPE":"992","Class":"2"},"geometry":{"x":219318.55960000027,"y":2674920.9339000005}},{"attributes":{"OBJECTID":13743,"LANDMARKID":"1001900000246","LANDMARKCO":"203","LANDMARKNA":"市立逢甲國小","LANDMARKAD":"1001908","ADDRESS":"台中市北屯區北坑巷60號","TEL":"04-22390047","COUNTYNAME":"台中市","TOWNNAME":"北屯區","MARKTYPE":"992","Class":"2"},"geometry":{"x":225540.72860000003,"y":2673660.1745999996}},{"attributes":{"OBJECTID":13744,"LANDMARKID":"1001900000150","LANDMARKCO":"202","LANDMARKNA":"私立衛道高中","LANDMARKAD":"1001908","ADDRESS":"台中市北屯區四平路161號","TEL":"04-22911187","COUNTYNAME":"台中市","TOWNNAME":"北屯區","MARKTYPE":"992","Class":"2"},"geometry":{"x":216936.15799999982,"y":2675433.0899}},{"attributes":{"OBJECTID":13745,"LANDMARKID":"1001900000151","LANDMARKCO":"202","LANDMARKNA":"私立衛道高中附設國中部","LANDMARKAD":"1001908","ADDRESS":"台中市北屯區四平路161號","TEL":"04-22911187","COUNTYNAME":"台中市","TOWNNAME":"北屯區","MARKTYPE":"992","Class":"2"},"geometry":{"x":216936.15799999982,"y":2675433.0899}},{"attributes":{"OBJECTID":13746,"LANDMARKID":"1001900000247","LANDMARKCO":"203","LANDMARKNA":"市立大德國中","LANDMARKAD":"1001908","ADDRESS":"台中市北屯區中清路70之1號","TEL":"04-22916984","COUNTYNAME":"台中市","TOWNNAME":"北屯區","MARKTYPE":"992","Class":"2"},"geometry":{"x":216359.33899999969,"y":2675038.9383000005}},{"attributes":{"OBJECTID":13747,"LANDMARKID":"1001900000248","LANDMARKCO":"203","LANDMARKNA":"市立四張犁國中","LANDMARKAD":"1001908","ADDRESS":"台中市北屯區同榮里后庄路699號","TEL":"04-24210380","COUNTYNAME":"台中市","TOWNNAME":"北屯區","MARKTYPE":"992","Class":"2"},"geometry":{"x":217194.4495000001,"y":2676556.9850999992}},{"attributes":{"OBJECTID":13748,"LANDMARKID":"1001900000249","LANDMARKCO":"203","LANDMARKNA":"市立崇德國中","LANDMARKAD":"1001908","ADDRESS":"台中市北屯區崇德路二段227號","TEL":"04-22454081","COUNTYNAME":"台中市","TOWNNAME":"北屯區","MARKTYPE":"992","Class":"2"},"geometry":{"x":217951.76279999968,"y":2674455.2466000002}},{"attributes":{"OBJECTID":13749,"LANDMARKID":"1001900000250","LANDMARKCO":"203","LANDMARKNA":"市立仁愛國小","LANDMARKAD":"1001908","ADDRESS":"台中市北屯區四平路71號","TEL":"04-22923861#710","COUNTYNAME":"台中市","TOWNNAME":"北屯區","MARKTYPE":"992","Class":"2"},"geometry":{"x":216626.66339999996,"y":2675019.9738999996}},{"attributes":{"OBJECTID":13750,"LANDMARKID":"1001900000251","LANDMARKCO":"203","LANDMARKNA":"市立文心國小","LANDMARKAD":"1001908","ADDRESS":"台中市北屯區文心路四段575號","TEL":"04-22445906","COUNTYNAME":"台中市","TOWNNAME":"北屯區","MARKTYPE":"992","Class":"2"},"geometry":{"x":217757.52589999977,"y":2674238.4855000004}},{"attributes":{"OBJECTID":13751,"LANDMARKID":"1001900000252","LANDMARKCO":"203","LANDMARKNA":"市立四維國小","LANDMARKAD":"1001908","ADDRESS":"台中市北屯區文心路四段956號","TEL":"04-22302319","COUNTYNAME":"台中市","TOWNNAME":"北屯區","MARKTYPE":"992","Class":"2"},"geometry":{"x":219005.23259999976,"y":2673934.3850999996}},{"attributes":{"OBJECTID":13752,"LANDMARKID":"1001900000253","LANDMARKCO":"203","LANDMARKNA":"市立僑孝國小","LANDMARKAD":"1001908","ADDRESS":"台中市北屯區北屯路435號","TEL":"04-22447049","COUNTYNAME":"台中市","TOWNNAME":"北屯區","MARKTYPE":"992","Class":"2"},"geometry":{"x":219473.45199999958,"y":2674733.5118000004}},{"attributes":{"OBJECTID":13753,"LANDMARKID":"1001900000254","LANDMARKCO":"203","LANDMARKNA":"市立四張犁國小","LANDMARKAD":"1001908","ADDRESS":"台中市北屯區后庄路910號","TEL":"04-24227046","COUNTYNAME":"台中市","TOWNNAME":"北屯區","MARKTYPE":"992","Class":"2"},"geometry":{"x":217296.33849999961,"y":2676395.1519000009}},{"attributes":{"OBJECTID":13754,"LANDMARKID":"1001900000255","LANDMARKCO":"203","LANDMARKNA":"市立文昌國小","LANDMARKAD":"1001908","ADDRESS":"台中市北屯區昌平路一段91號","TEL":"04-22361953","COUNTYNAME":"台中市","TOWNNAME":"北屯區","MARKTYPE":"992","Class":"2"},"geometry":{"x":218649.47869999986,"y":2673684.7653999999}},{"attributes":{"OBJECTID":13755,"LANDMARKID":"1001900000256","LANDMARKCO":"203","LANDMARKNA":"市立松竹國小","LANDMARKAD":"1001908","ADDRESS":"台中市北屯區昌平路二段12號","TEL":"04-22447043","COUNTYNAME":"台中市","TOWNNAME":"北屯區","MARKTYPE":"992","Class":"2"},"geometry":{"x":218495.74859999958,"y":2675092.1320999991}},{"attributes":{"OBJECTID":13756,"LANDMARKID":"1001900000257","LANDMARKCO":"203","LANDMARKNA":"市立光正國小","LANDMARKAD":"1001908","ADDRESS":"台中市北屯區東山路二段112號","TEL":"04-22390748","COUNTYNAME":"台中市","TOWNNAME":"北屯區","MARKTYPE":"992","Class":"2"},"geometry":{"x":224432.5859000003,"y":2676777.4419999998}},{"attributes":{"OBJECTID":13757,"LANDMARKID":"1001900000258","LANDMARKCO":"203","LANDMARKNA":"市立建功國小","LANDMARKAD":"1001908","ADDRESS":"台中市北屯區軍和街43號","TEL":"04-24367042","COUNTYNAME":"台中市","TOWNNAME":"北屯區","MARKTYPE":"992","Class":"2"},"geometry":{"x":221088.88879999984,"y":2674539.6202000007}},{"attributes":{"OBJECTID":13758,"LANDMARKID":"1001900000259","LANDMARKCO":"203","LANDMARKNA":"市立陳平國小","LANDMARKAD":"1001908","ADDRESS":"台中市北屯區陳平路58號","TEL":"04-22973558","COUNTYNAME":"台中市","TOWNNAME":"北屯區","MARKTYPE":"992","Class":"2"},"geometry":{"x":216216.53259999957,"y":2675530.3211000003}},{"attributes":{"OBJECTID":13759,"LANDMARKID":"1001900000260","LANDMARKCO":"203","LANDMARKNA":"市立北屯國小","LANDMARKAD":"1001908","ADDRESS":"台中市北屯區進化北路2號","TEL":"04-22332110","COUNTYNAME":"台中市","TOWNNAME":"北屯區","MARKTYPE":"992","Class":"2"},"geometry":{"x":218628.62050000019,"y":2673147.5022999998}},{"attributes":{"OBJECTID":13760,"LANDMARKID":"1001900000261","LANDMARKCO":"203","LANDMARKNA":"市立新興國小","LANDMARKAD":"1001908","ADDRESS":"台中市北屯區新興路20號","TEL":"04-24258514","COUNTYNAME":"台中市","TOWNNAME":"北屯區","MARKTYPE":"992","Class":"2"},"geometry":{"x":215713.98419999983,"y":2676629.0318}},{"attributes":{"OBJECTID":13761,"LANDMARKID":"1001900000262","LANDMARKCO":"203","LANDMARKNA":"私立明道普霖斯頓小學","LANDMARKAD":"1001908","ADDRESS":"台中市北屯區河北路三段16號","TEL":"04-22425588","COUNTYNAME":"台中市","TOWNNAME":"北屯區","MARKTYPE":"992","Class":"2"},"geometry":{"x":217889.8694000002,"y":2674663.8769000005}},{"attributes":{"OBJECTID":13762,"LANDMARKID":"1001900000263","LANDMARKCO":"203","LANDMARKNA":"私立慎齋小學","LANDMARKAD":"1001908","ADDRESS":"台中市北屯區山西路二段270號","TEL":"04-22928199","COUNTYNAME":"台中市","TOWNNAME":"北屯區","MARKTYPE":"992","Class":"2"},"geometry":{"x":217196.5449000001,"y":2674537.4004999995}},{"attributes":{"OBJECTID":13763,"LANDMARKID":"1001900000264","LANDMARKCO":"203","LANDMARKNA":"市立東光國小","LANDMARKAD":"1001908","ADDRESS":"台中市北屯區東光路926號","TEL":"04-24377215","COUNTYNAME":"台中市","TOWNNAME":"北屯區","MARKTYPE":"992","Class":"2"},"geometry":{"x":219693.53199999966,"y":2674083.2973999996}},{"attributes":{"OBJECTID":13764,"LANDMARKID":"1001900000265","LANDMARKCO":"203","LANDMARKNA":"市立仁美國小","LANDMARKAD":"1001908","ADDRESS":"台中市北屯區北屯路435號","TEL":"04-24211136","COUNTYNAME":"台中市","TOWNNAME":"北屯區","MARKTYPE":"992","Class":"2"},"geometry":{"x":219473.45199999958,"y":2674733.5118000004}},{"attributes":{"OBJECTID":13765,"LANDMARKID":"1001900000266","LANDMARKCO":"203","LANDMARKNA":"市立三光國中","LANDMARKAD":"1001908","ADDRESS":"台中市北屯區三光一街77號","TEL":"04-22313699","COUNTYNAME":"台中市","TOWNNAME":"北屯區","MARKTYPE":"992","Class":"2"},"geometry":{"x":219296.82870000042,"y":2673617.8170999996}},{"attributes":{"OBJECTID":13766,"LANDMARKID":"1001900000267","LANDMARKCO":"203","LANDMARKNA":"市立軍功國小","LANDMARKAD":"1001908","ADDRESS":"台中市北屯區軍福十三路300號","TEL":"04-24370696","COUNTYNAME":"台中市","TOWNNAME":"北屯區","MARKTYPE":"992","Class":"2"},"geometry":{"x":221478.56830000039,"y":2674240.3112000003}},{"attributes":{"OBJECTID":13767,"LANDMARKID":"1001900000268","LANDMARKCO":"203","LANDMARKNA":"市立東山國中","LANDMARKAD":"1001908","ADDRESS":"台中市北屯區景賢六路一段200號","TEL":"04-24360166","COUNTYNAME":"台中市","TOWNNAME":"北屯區","MARKTYPE":"992","Class":"2"},"geometry":{"x":220784.69429999962,"y":2673660.2940999996}},{"attributes":{"OBJECTID":13768,"LANDMARKID":"1001900000269","LANDMARKCO":"203","LANDMARKNA":"市立建仁國小","LANDMARKAD":"1001908","ADDRESS":"台中市北屯區后內庄路24號","TEL":"04-4227046","COUNTYNAME":"台中市","TOWNNAME":"北屯區","MARKTYPE":"992","Class":"2"},"geometry":{"x":215805.2918999996,"y":2675970.5752000008}},{"attributes":{"OBJECTID":13769,"LANDMARKID":"1001900000149","LANDMARKCO":"201","LANDMARKNA":"中台科技大學","LANDMARKAD":"1001908","ADDRESS":"台中市北屯區_子里_子巷11號","TEL":"04-22391647","COUNTYNAME":"台中市","TOWNNAME":"北屯區","MARKTYPE":"992","Class":"2"},"geometry":{"x":223149.55009999964,"y":2674360.4719999991}},{"attributes":{"OBJECTID":13770,"LANDMARKID":"1001900000299","LANDMARKCO":"302","LANDMARKNA":"統聯客運-水湳站-自營站","LANDMARKAD":"1001908","ADDRESS":"台中市北屯區中清路72號","TEL":"連絡電話:04-229","COUNTYNAME":"台中市","TOWNNAME":"北屯區","MARKTYPE":"993","Class":"302"},"geometry":{"x":216265.51140000019,"y":2674940.7225000001}},{"attributes":{"OBJECTID":13771,"LANDMARKID":"1001900000300","LANDMARKCO":"302","LANDMARKNA":"統聯汽車客運中清站","LANDMARKAD":"1001908","ADDRESS":"台中市北屯區中清路180之32號","TEL":" ","COUNTYNAME":"台中市","TOWNNAME":"北屯區","MARKTYPE":"993","Class":"302"},"geometry":{"x":216241.5504999999,"y":2674973.7704000007}},{"attributes":{"OBJECTID":13772,"LANDMARKID":"1001900000495","LANDMARKCO":"303","LANDMARKNA":"雷中停車場","LANDMARKAD":"1001908","ADDRESS":"台中市北屯區雷中街59巷","TEL":" ","COUNTYNAME":"台中市","TOWNNAME":"北屯區","MARKTYPE":"993","Class":"303"},"geometry":{"x":216360.41019999981,"y":2675300.3873999994}},{"attributes":{"OBJECTID":13773,"LANDMARKID":"1001900000496","LANDMARKCO":"303","LANDMARKNA":"中興網球場停車場","LANDMARKAD":"1001908","ADDRESS":"台中市北屯區山西路二段","TEL":" ","COUNTYNAME":"台中市","TOWNNAME":"北屯區","MARKTYPE":"993","Class":"303"},"geometry":{"x":217108.04480000027,"y":2674417.9695999995}},{"attributes":{"OBJECTID":13774,"LANDMARKID":"1001900000497","LANDMARKCO":"303","LANDMARKNA":"廣七廣場資料館停車場","LANDMARKAD":"1001908","ADDRESS":" ","TEL":" ","COUNTYNAME":"台中市","TOWNNAME":"北屯區","MARKTYPE":"993","Class":"303"},"geometry":{"x":217541.3320000004,"y":2673876.2032999992}},{"attributes":{"OBJECTID":13775,"LANDMARKID":"1001900000498","LANDMARKCO":"303","LANDMARKNA":"民俗公園廣場停車場","LANDMARKAD":"1001908","ADDRESS":"台中市北屯區旅順路二段73號","TEL":"04-22451310","COUNTYNAME":"台中市","TOWNNAME":"北屯區","MARKTYPE":"993","Class":"303"},"geometry":{"x":218286.06379999965,"y":2674382.2408000007}},{"attributes":{"OBJECTID":13776,"LANDMARKID":"1001900000499","LANDMARKCO":"303","LANDMARKNA":"兒童公園停車場","LANDMARKAD":"1001908","ADDRESS":" ","TEL":" ","COUNTYNAME":"台中市","TOWNNAME":"北屯區","MARKTYPE":"993","Class":"303"},"geometry":{"x":218936.18539999984,"y":2673548.1442000009}},{"attributes":{"OBJECTID":13777,"LANDMARKID":"1001900000500","LANDMARKCO":"303","LANDMARKNA":"三光停車場","LANDMARKAD":"1001908","ADDRESS":" ","TEL":" ","COUNTYNAME":"台中市","TOWNNAME":"北屯區","MARKTYPE":"993","Class":"303"},"geometry":{"x":219152.11340000015,"y":2673737.8545999993}},{"attributes":{"OBJECTID":13778,"LANDMARKID":"1001900000501","LANDMARKCO":"303","LANDMARKNA":"亞加達高爾夫練習場停車場","LANDMARKAD":"1001908","ADDRESS":"台中市北屯區北屯路490巷32號","TEL":"04-24362183","COUNTYNAME":"台中市","TOWNNAME":"北屯區","MARKTYPE":"993","Class":"303"},"geometry":{"x":219869.05750000011,"y":2675152.2985999994}},{"attributes":{"OBJECTID":13779,"LANDMARKID":"1001900000502","LANDMARKCO":"303","LANDMARKNA":"登山口停車場","LANDMARKAD":"1001908","ADDRESS":"台中市北屯區","TEL":"04-22394272","COUNTYNAME":"台中市","TOWNNAME":"北屯區","MARKTYPE":"993","Class":"303"},"geometry":{"x":222604.52479999978,"y":2675803.4342}},{"attributes":{"OBJECTID":13780,"LANDMARKID":"1001900000503","LANDMARKCO":"303","LANDMARKNA":"地震公園停車場","LANDMARKAD":"1001908","ADDRESS":"台中市北屯區","TEL":" ","COUNTYNAME":"台中市","TOWNNAME":"北屯區","MARKTYPE":"993","Class":"303"},"geometry":{"x":222915.46580000035,"y":2674716.7942999993}},{"attributes":{"OBJECTID":13781,"LANDMARKID":"1001900000504","LANDMARKCO":"303","LANDMARKNA":"大坑九號登山步道口停車場","LANDMARKAD":"1001908","ADDRESS":"台中市北屯區","TEL":" ","COUNTYNAME":"台中市","TOWNNAME":"北屯區","MARKTYPE":"993","Class":"303"},"geometry":{"x":222807.93809999991,"y":2674636.9024}},{"attributes":{"OBJECTID":13782,"LANDMARKID":"1001900000505","LANDMARKCO":"303","LANDMARKNA":"綠野遊樂渡假山莊停車場","LANDMARKAD":"1001908","ADDRESS":"台中市北屯區東山路一段459號","TEL":"04-22399317","COUNTYNAME":"台中市","TOWNNAME":"北屯區","MARKTYPE":"993","Class":"303"},"geometry":{"x":223308.13769999985,"y":2675215.0134999994}},{"attributes":{"OBJECTID":13783,"LANDMARKID":"1001900000506","LANDMARKCO":"303","LANDMARKNA":"麒麟峰日式溫泉停車場","LANDMARKAD":"1001908","ADDRESS":"台中市北屯區東山路二段65巷15號","TEL":"04-22396969","COUNTYNAME":"台中市","TOWNNAME":"北屯區","MARKTYPE":"993","Class":"303"},"geometry":{"x":223950.12550000008,"y":2675836.4682}},{"attributes":{"OBJECTID":13784,"LANDMARKID":"1001900000507","LANDMARKCO":"303","LANDMARKNA":"天 停車場","LANDMARKAD":"1001908","ADDRESS":"台中市北屯區東山路二段77之11號","TEL":"04-22392411","COUNTYNAME":"台中市","TOWNNAME":"北屯區","MARKTYPE":"993","Class":"303"},"geometry":{"x":224314.77979999967,"y":2676417.8727000002}},{"attributes":{"OBJECTID":13785,"LANDMARKID":"1001900000508","LANDMARKCO":"303","LANDMARKNA":"霞客溫泉停車場","LANDMARKAD":"1001908","ADDRESS":"台中市北屯區橫坑巷47之66號","TEL":"04-24392438","COUNTYNAME":"台中市","TOWNNAME":"北屯區","MARKTYPE":"993","Class":"303"},"geometry":{"x":224403.97970000003,"y":2675109.4052000009}},{"attributes":{"OBJECTID":13786,"LANDMARKID":"1001900000509","LANDMARKCO":"303","LANDMARKNA":"亞哥花園停車場","LANDMARKAD":"1001908","ADDRESS":"台中市北屯區苧園巷43號","TEL":"04-22399299","COUNTYNAME":"台中市","TOWNNAME":"北屯區","MARKTYPE":"993","Class":"303"},"geometry":{"x":225347.19249999989,"y":2674477.2622999996}},{"attributes":{"OBJECTID":13787,"LANDMARKID":"1001900000510","LANDMARKCO":"303","LANDMARKNA":"東山樂園停車場","LANDMARKAD":"1001908","ADDRESS":"台中市北屯區東山路二段151之2號","TEL":"04-22391435","COUNTYNAME":"台中市","TOWNNAME":"北屯區","MARKTYPE":"993","Class":"303"},"geometry":{"x":226009.69770000037,"y":2677080.0806000009}},{"attributes":{"OBJECTID":13788,"LANDMARKID":"1001900000511","LANDMARKCO":"303","LANDMARKNA":"登山三號停車場","LANDMARKAD":"1001908","ADDRESS":"台中市北屯區","TEL":" ","COUNTYNAME":"台中市","TOWNNAME":"北屯區","MARKTYPE":"993","Class":"303"},"geometry":{"x":227970.03670000006,"y":2674847.3868000004}},{"attributes":{"OBJECTID":13789,"LANDMARKID":"1001900000512","LANDMARKCO":"303","LANDMARKNA":"登山一號停車場","LANDMARKAD":"1001908","ADDRESS":"台中市北屯區","TEL":"04-22394272","COUNTYNAME":"台中市","TOWNNAME":"北屯區","MARKTYPE":"993","Class":"303"},"geometry":{"x":228094.7834999999,"y":2676112.8639000002}},{"attributes":{"OBJECTID":13790,"LANDMARKID":"1001900000513","LANDMARKCO":"303","LANDMARKNA":"登山二號停車場","LANDMARKAD":"1001908","ADDRESS":"台中市北屯區","TEL":" ","COUNTYNAME":"台中市","TOWNNAME":"北屯區","MARKTYPE":"993","Class":"303"},"geometry":{"x":228160.9040000001,"y":2675449.0920000002}},{"attributes":{"OBJECTID":13791,"LANDMARKID":"1001900000514","LANDMARKCO":"303","LANDMARKNA":"中興游泳池停車場","LANDMARKAD":"1001908","ADDRESS":"台中市北屯區山西路、旅順路交叉口","TEL":" ","COUNTYNAME":"台中市","TOWNNAME":"北屯區","MARKTYPE":"993","Class":"303"},"geometry":{"x":217127.65809999965,"y":2674504.6297999993}},{"attributes":{"OBJECTID":13792,"LANDMARKID":"1001900000515","LANDMARKCO":"303","LANDMARKNA":"裕毛屋停車場","LANDMARKAD":"1001908","ADDRESS":"台中市北屯區崇德路二段","TEL":" ","COUNTYNAME":"台中市","TOWNNAME":"北屯區","MARKTYPE":"993","Class":"303"},"geometry":{"x":218135.94469999988,"y":2674745.7985999994}},{"attributes":{"OBJECTID":13793,"LANDMARKID":"1001900000516","LANDMARKCO":"303","LANDMARKNA":"台中牛排館停車場","LANDMARKAD":"1001908","ADDRESS":"台中市北屯區崇德路一段","TEL":" ","COUNTYNAME":"台中市","TOWNNAME":"北屯區","MARKTYPE":"993","Class":"303"},"geometry":{"x":218062.9757000003,"y":2674816.0593999997}},{"attributes":{"OBJECTID":13794,"LANDMARKID":"1001900000517","LANDMARKCO":"303","LANDMARKNA":"新天地停車場","LANDMARKAD":"1001908","ADDRESS":"台中市北屯區河北路三段、河北二街口","TEL":" ","COUNTYNAME":"台中市","TOWNNAME":"北屯區","MARKTYPE":"993","Class":"303"},"geometry":{"x":217891.46870000008,"y":2674816.4155000001}},{"attributes":{"OBJECTID":13795,"LANDMARKID":"1001900000298","LANDMARKCO":"301","LANDMARKNA":"太原車站","LANDMARKAD":"1001908","ADDRESS":"台中市北屯區東光路833號","TEL":"04-22227236","COUNTYNAME":"台中市","TOWNNAME":"北屯區","MARKTYPE":"993","Class":"301"},"geometry":{"x":219536.41490000021,"y":2673542.0134999994}},{"attributes":{"OBJECTID":13796,"LANDMARKID":"1001900000586","LANDMARKCO":"402","LANDMARKNA":"中華電信-台中北屯特約服務中心","LANDMARKAD":"1001908","ADDRESS":"台中市文心路四段995號","TEL":"04-22410808","COUNTYNAME":"台中市","TOWNNAME":"北屯區","MARKTYPE":"994","Class":"4"},"geometry":{"x":219192.62119999994,"y":2673997.5293000005}},{"attributes":{"OBJECTID":13797,"LANDMARKID":"1001900000587","LANDMARKCO":"402","LANDMARKNA":"中華電信-台中北平特約服務中心","LANDMARKAD":"1001908","ADDRESS":"台中市北屯區北平路三段46號","TEL":"04-22360725","COUNTYNAME":"台中市","TOWNNAME":"北屯區","MARKTYPE":"994","Class":"4"},"geometry":{"x":217622.60529999994,"y":2673999.1925000008}},{"attributes":{"OBJECTID":13798,"LANDMARKID":"1001900000588","LANDMARKCO":"402","LANDMARKNA":"中華電信-台中松竹特約服務中心","LANDMARKAD":"1001908","ADDRESS":"台中市北屯區松竹路二段208號","TEL":"04-22427755","COUNTYNAME":"台中市","TOWNNAME":"北屯區","MARKTYPE":"994","Class":"4"},"geometry":{"x":218958.97140000015,"y":2675374.0138000008}},{"attributes":{"OBJECTID":13799,"LANDMARKID":"1001900000589","LANDMARKCO":"402","LANDMARKNA":"中華電信-台中昌平特約服務中心","LANDMARKAD":"1001908","ADDRESS":"台中市昌平路一段109號","TEL":"04-22470828","COUNTYNAME":"台中市","TOWNNAME":"北屯區","MARKTYPE":"994","Class":"4"},"geometry":{"x":218526.35199999996,"y":2674424.3125}},{"attributes":{"OBJECTID":13800,"LANDMARKID":"1001900000590","LANDMARKCO":"402","LANDMARKNA":"中華電信-台中東山特約服務中心","LANDMARKAD":"1001908","ADDRESS":"北屯區東山路一段289-9號","TEL":"04-22390288","COUNTYNAME":"台中市","TOWNNAME":"北屯區","MARKTYPE":"994","Class":"4"},"geometry":{"x":221512.77689999994,"y":2674544.0449000001}}]}