{"displayFieldName":"COUNTYNAME","fieldAliases":{"OBJECTID":"OBJECTID","LANDMARKID":"LANDMARKID","LANDMARKCO":"LANDMARKCO","LANDMARKNA":"LANDMARKNA","LANDMARKAD":"LANDMARKAD","ADDRESS":"ADDRESS","TEL":"TEL","COUNTYNAME":"COUNTYNAME","TOWNNAME":"TOWNNAME","MARKTYPE":"MARKTYPE","Class":"Class"},"geometryType":"esriGeometryPoint","spatialReference":{"wkid":4326},"fields":[{"name":"OBJECTID","type":"esriFieldTypeOID","alias":"OBJECTID"},{"name":"LANDMARKID","type":"esriFieldTypeString","alias":"LANDMARKID","length":15},{"name":"LANDMARKCO","type":"esriFieldTypeString","alias":"LANDMARKCO","length":15},{"name":"LANDMARKNA","type":"esriFieldTypeString","alias":"LANDMARKNA","length":50},{"name":"LANDMARKAD","type":"esriFieldTypeString","alias":"LANDMARKAD","length":15},{"name":"ADDRESS","type":"esriFieldTypeString","alias":"ADDRESS","length":56},{"name":"TEL","type":"esriFieldTypeString","alias":"TEL","length":36},{"name":"COUNTYNAME","type":"esriFieldTypeString","alias":"COUNTYNAME","length":15},{"name":"TOWNNAME","type":"esriFieldTypeString","alias":"TOWNNAME","length":13},{"name":"MARKTYPE","type":"esriFieldTypeString","alias":"MARKTYPE","length":12},{"name":"Class","type":"esriFieldTypeString","alias":"Class","length":5}],"features":[{"attributes":{"OBJECTID":8401,"LANDMARKID":"6300000002426","LANDMARKCO":"405","LANDMARKNA":"中油加油站-桂林路站(中油直營)","LANDMARKAD":"6300007","ADDRESS":"台北市萬華區桂林路53號","TEL":"02-23819053","COUNTYNAME":"台北市","TOWNNAME":"萬華區","MARKTYPE":"994","Class":"4"},"geometry":{"x":121.50314281476481,"y":25.038271824228492}},{"attributes":{"OBJECTID":8402,"LANDMARKID":"6300000002143","LANDMARKCO":"402","LANDMARKNA":"My Phone台灣大哥大-萬華－萬大","LANDMARKAD":"6300007","ADDRESS":"台北市萬華區萬大路445號","TEL":"02-23059869","COUNTYNAME":"台北市","TOWNNAME":"萬華區","MARKTYPE":"994","Class":"4"},"geometry":{"x":121.49847185924671,"y":25.02095864514531}},{"attributes":{"OBJECTID":8403,"LANDMARKID":"6300000002144","LANDMARKCO":"402","LANDMARKNA":"My Phone台灣大哥大-萬華西寧南","LANDMARKAD":"6300007","ADDRESS":"台北市萬華區西寧南路30號","TEL":"(02)2381-0500","COUNTYNAME":"台北市","TOWNNAME":"萬華區","MARKTYPE":"994","Class":"4"},"geometry":{"x":121.50673848971685,"y":25.045884558697718}},{"attributes":{"OBJECTID":8404,"LANDMARKID":"6300000002145","LANDMARKCO":"402","LANDMARKNA":"My Phone台灣大哥大-台北西門町直營服務中心","LANDMARKAD":"6300007","ADDRESS":"台北市萬華區峨眉街12號","TEL":"0809-000-166","COUNTYNAME":"台北市","TOWNNAME":"萬華區","MARKTYPE":"994","Class":"4"},"geometry":{"x":121.50758137162538,"y":25.043350940643137}},{"attributes":{"OBJECTID":8405,"LANDMARKID":"6300000002146","LANDMARKCO":"402","LANDMARKNA":"My Phone台灣大哥大-萬華－桂林","LANDMARKAD":"6300007","ADDRESS":"台北市萬華區桂林路168號","TEL":"02-23361811","COUNTYNAME":"台北市","TOWNNAME":"萬華區","MARKTYPE":"994","Class":"4"},"geometry":{"x":121.49744558887062,"y":25.038416898348618}},{"attributes":{"OBJECTID":8406,"LANDMARKID":"6300000002147","LANDMARKCO":"402","LANDMARKNA":"My Phone台灣大哥大-萬華－貴陽","LANDMARKAD":"6300007","ADDRESS":"台北市萬華區貴陽街二段80號","TEL":"02-23889669","COUNTYNAME":"台北市","TOWNNAME":"萬華區","MARKTYPE":"994","Class":"4"},"geometry":{"x":121.5038072012894,"y":25.039737896784615}},{"attributes":{"OBJECTID":8407,"LANDMARKID":"6300000002148","LANDMARKCO":"402","LANDMARKNA":"亞太行動寬頻電信-萬華萬大加盟服務中心","LANDMARKAD":"6300007","ADDRESS":"台北市萬華區萬大路443號","TEL":"02-23329880","COUNTYNAME":"台北市","TOWNNAME":"萬華區","MARKTYPE":"994","Class":"4"},"geometry":{"x":121.49849196683276,"y":25.020994623462705}},{"attributes":{"OBJECTID":8408,"LANDMARKID":"6300000002149","LANDMARKCO":"402","LANDMARKNA":"亞太行動寬頻電信-萬華中華加盟服務中心","LANDMARKAD":"6300007","ADDRESS":"台北市萬華區中華路一段158號","TEL":"02-23831818","COUNTYNAME":"台北市","TOWNNAME":"萬華區","MARKTYPE":"994","Class":"4"},"geometry":{"x":121.50790419248676,"y":25.042199029825539}},{"attributes":{"OBJECTID":8409,"LANDMARKID":"6300000002150","LANDMARKCO":"402","LANDMARKNA":"亞太行動寬頻電信-萬華西寧南加盟服務中心","LANDMARKAD":"6300007","ADDRESS":"台北市萬華區西寧南路36之91號","TEL":"02-23719059","COUNTYNAME":"台北市","TOWNNAME":"萬華區","MARKTYPE":"994","Class":"4"},"geometry":{"x":121.50648347138649,"y":25.045001532240175}},{"attributes":{"OBJECTID":8410,"LANDMARKID":"6300000002130","LANDMARKCO":"401","LANDMARKNA":"全昌堂傳統中醫醫院","LANDMARKAD":"6300007","ADDRESS":"台北市萬華區漢中街154號","TEL":"02-23753383","COUNTYNAME":"台北市","TOWNNAME":"萬華區","MARKTYPE":"994","Class":"4"},"geometry":{"x":121.50671378803128,"y":25.041307458618139}},{"attributes":{"OBJECTID":8411,"LANDMARKID":"6300000002131","LANDMARKCO":"401","LANDMARKNA":"國立臺灣大學醫學院附設醫院北護分院","LANDMARKAD":"6300007","ADDRESS":"台北市萬華區康定路37號","TEL":"02-23717101","COUNTYNAME":"台北市","TOWNNAME":"萬華區","MARKTYPE":"994","Class":"4"},"geometry":{"x":121.50279856616397,"y":25.04382545115412}},{"attributes":{"OBJECTID":8412,"LANDMARKID":"6300000002132","LANDMARKCO":"401","LANDMARKNA":"財團法人同仁院萬華醫院","LANDMARKAD":"6300007","ADDRESS":"台北市萬華區中華路二段606巷2號","TEL":"02-23059292","COUNTYNAME":"台北市","TOWNNAME":"萬華區","MARKTYPE":"994","Class":"4"},"geometry":{"x":121.50889658714732,"y":25.024879919700602}},{"attributes":{"OBJECTID":8413,"LANDMARKID":"6300000002133","LANDMARKCO":"401","LANDMARKNA":"西園醫院","LANDMARKAD":"6300007","ADDRESS":"台北市萬華區西園路二段276號","TEL":"02-23076968","COUNTYNAME":"台北市","TOWNNAME":"萬華區","MARKTYPE":"994","Class":"4"},"geometry":{"x":121.49430153500775,"y":25.027585651705468}},{"attributes":{"OBJECTID":8414,"LANDMARKID":"6300000002134","LANDMARKCO":"401","LANDMARKNA":"財團法人台灣省私立台北仁濟院附設仁濟","LANDMARKAD":"6300007","ADDRESS":"台北市萬華區廣州街243號","TEL":"02-23021131","COUNTYNAME":"台北市","TOWNNAME":"萬華區","MARKTYPE":"994","Class":"4"},"geometry":{"x":121.49800787233913,"y":25.036869302981405}},{"attributes":{"OBJECTID":8415,"LANDMARKID":"6300000002135","LANDMARKCO":"401","LANDMARKNA":"台北市立聯合醫院-中醫門診中心","LANDMARKAD":"6300007","ADDRESS":"台北市萬華區昆明街100號","TEL":"02-23887088","COUNTYNAME":"台北市","TOWNNAME":"萬華區","MARKTYPE":"994","Class":"4"},"geometry":{"x":121.50508155349492,"y":25.044075067984835}},{"attributes":{"OBJECTID":8416,"LANDMARKID":"6300000002136","LANDMARKCO":"401","LANDMARKNA":"台北市立聯合醫院-昆明院區","LANDMARKAD":"6300007","ADDRESS":"台北市萬華區昆明街100號","TEL":"02-23703739","COUNTYNAME":"台北市","TOWNNAME":"萬華區","MARKTYPE":"994","Class":"4"},"geometry":{"x":121.50508078541657,"y":25.044076267722399}},{"attributes":{"OBJECTID":8417,"LANDMARKID":"6300000003215","LANDMARKCO":"507","LANDMARKNA":"西門紅樓","LANDMARKAD":"6300007","ADDRESS":"台北市萬華區成都路10號","TEL":" ","COUNTYNAME":"台北市","TOWNNAME":"萬華區","MARKTYPE":"995","Class":"5"},"geometry":{"x":121.50685732345235,"y":25.042027342215512}},{"attributes":{"OBJECTID":8418,"LANDMARKID":"6300000003104","LANDMARKCO":"410","LANDMARKNA":"西門町徒步區（萬華區）","LANDMARKAD":"6300007","ADDRESS":"台北市萬華區武昌街二段","TEL":" ","COUNTYNAME":"台北市","TOWNNAME":"萬華區","MARKTYPE":"994","Class":"4"},"geometry":{"x":121.50544752416977,"y":25.045059982774653}},{"attributes":{"OBJECTID":8419,"LANDMARKID":"6300000003209","LANDMARKCO":"507","LANDMARKNA":"西門紅樓","LANDMARKAD":"6300007","ADDRESS":"台北市萬華區成都路10號","TEL":" ","COUNTYNAME":"台北市","TOWNNAME":"萬華區","MARKTYPE":"995","Class":"5"},"geometry":{"x":121.50708388145436,"y":25.042399081338591}},{"attributes":{"OBJECTID":8420,"LANDMARKID":"6300000003210","LANDMARKCO":"507","LANDMARKNA":"艋舺地藏庵","LANDMARKAD":"6300007","ADDRESS":"台北市萬華區西昌街245號","TEL":" ","COUNTYNAME":"台北市","TOWNNAME":"萬華區","MARKTYPE":"995","Class":"5"},"geometry":{"x":121.50067869344477,"y":25.036915636300101}},{"attributes":{"OBJECTID":8421,"LANDMARKID":"6300000003211","LANDMARKCO":"507","LANDMARKNA":"學海書院","LANDMARKAD":"6300007","ADDRESS":"台北市萬華區環河南路二段93號","TEL":" ","COUNTYNAME":"台北市","TOWNNAME":"萬華區","MARKTYPE":"995","Class":"5"},"geometry":{"x":121.49563653342669,"y":25.036322147101746}},{"attributes":{"OBJECTID":8422,"LANDMARKID":"6300000003212","LANDMARKCO":"507","LANDMARKNA":"艋舺清水巖","LANDMARKAD":"6300007","ADDRESS":"台北市萬華區康定路81號","TEL":" ","COUNTYNAME":"台北市","TOWNNAME":"萬華區","MARKTYPE":"995","Class":"5"},"geometry":{"x":121.50220784847484,"y":25.040271259483763}},{"attributes":{"OBJECTID":8423,"LANDMARKID":"6300000003213","LANDMARKCO":"507","LANDMARKNA":"慈雲寺","LANDMARKAD":"6300007","ADDRESS":"台北市華萬區漢口街二段119號","TEL":" ","COUNTYNAME":"台北市","TOWNNAME":"萬華區","MARKTYPE":"995","Class":"5"},"geometry":{"x":121.50401734423228,"y":25.04659140417893}},{"attributes":{"OBJECTID":8424,"LANDMARKID":"6300000003214","LANDMARKCO":"507","LANDMARKNA":"老松國小","LANDMARKAD":"6300007","ADDRESS":"台北市萬華區桂林路64號","TEL":"02-23361266","COUNTYNAME":"台北市","TOWNNAME":"萬華區","MARKTYPE":"995","Class":"5"},"geometry":{"x":121.50276003339302,"y":25.037652568040077}},{"attributes":{"OBJECTID":8425,"LANDMARKID":"6300000003016","LANDMARKCO":"408","LANDMARKNA":"郵局-台北漢中街郵局","LANDMARKAD":"6300007","ADDRESS":"台北市萬華區漢中街173號","TEL":"(02)2361-6809","COUNTYNAME":"台北市","TOWNNAME":"萬華區","MARKTYPE":"994","Class":"4"},"geometry":{"x":121.50698164734519,"y":25.041341818594272}},{"attributes":{"OBJECTID":8426,"LANDMARKID":"6300000003017","LANDMARKCO":"408","LANDMARKNA":"郵局-台北西園郵局","LANDMARKAD":"6300007","ADDRESS":"台北市萬華區長沙街2段156號","TEL":"(02)2331-4524","COUNTYNAME":"台北市","TOWNNAME":"萬華區","MARKTYPE":"994","Class":"4"},"geometry":{"x":121.50110994533226,"y":25.040739909398859}},{"attributes":{"OBJECTID":8427,"LANDMARKID":"6300000003018","LANDMARKCO":"408","LANDMARKNA":"郵局-台北龍山郵局","LANDMARKAD":"6300007","ADDRESS":"台北市萬華區廣州街67號","TEL":"(02)2306-4755","COUNTYNAME":"台北市","TOWNNAME":"萬華區","MARKTYPE":"994","Class":"4"},"geometry":{"x":121.50458554228588,"y":25.03658183795044}},{"attributes":{"OBJECTID":8428,"LANDMARKID":"6300000003019","LANDMARKCO":"408","LANDMARKNA":"郵局-台北東園郵局","LANDMARKAD":"6300007","ADDRESS":"台北市萬華區東園街148號","TEL":"(02)2309-9202","COUNTYNAME":"台北市","TOWNNAME":"萬華區","MARKTYPE":"994","Class":"4"},"geometry":{"x":121.49756855611541,"y":25.02337524290397}},{"attributes":{"OBJECTID":8429,"LANDMARKID":"6300000003020","LANDMARKCO":"408","LANDMARKNA":"郵局-台北莒光郵局","LANDMARKAD":"6300007","ADDRESS":"台北市萬華區莒光路210號","TEL":"(02)2302-4644","COUNTYNAME":"台北市","TOWNNAME":"萬華區","MARKTYPE":"994","Class":"4"},"geometry":{"x":121.50110722073151,"y":25.031359702705618}},{"attributes":{"OBJECTID":8430,"LANDMARKID":"6300000003021","LANDMARKCO":"408","LANDMARKNA":"郵局-台北老松郵局","LANDMARKAD":"6300007","ADDRESS":"台北市萬華區桂林路51號","TEL":"(02)2389-4549","COUNTYNAME":"台北市","TOWNNAME":"萬華區","MARKTYPE":"994","Class":"4"},"geometry":{"x":121.50400338690804,"y":25.038102533308582}},{"attributes":{"OBJECTID":8431,"LANDMARKID":"6300000003022","LANDMARKCO":"408","LANDMARKNA":"郵局-台北萬大路郵局","LANDMARKAD":"6300007","ADDRESS":"台北市萬華區萬大路524號","TEL":"(02)2301-2793","COUNTYNAME":"台北市","TOWNNAME":"萬華區","MARKTYPE":"994","Class":"4"},"geometry":{"x":121.49682169736862,"y":25.018902061464701}},{"attributes":{"OBJECTID":8432,"LANDMARKID":"6300000003023","LANDMARKCO":"408","LANDMARKNA":"郵局-台北華江橋郵局","LANDMARKAD":"6300007","ADDRESS":"台北市萬華區和平西路3段310號","TEL":"(02)2302-0953","COUNTYNAME":"台北市","TOWNNAME":"萬華區","MARKTYPE":"994","Class":"4"},"geometry":{"x":121.49301185916168,"y":25.035286213967037}},{"attributes":{"OBJECTID":8433,"LANDMARKID":"6300000003024","LANDMARKCO":"408","LANDMARKNA":"郵局-台北青年郵局","LANDMARKAD":"6300007","ADDRESS":"台北市萬華區國興路34號","TEL":"(02)2309-8054","COUNTYNAME":"台北市","TOWNNAME":"萬華區","MARKTYPE":"994","Class":"4"},"geometry":{"x":121.50817315965288,"y":25.024866406605337}},{"attributes":{"OBJECTID":8434,"LANDMARKID":"6300000002712","LANDMARKCO":"406","LANDMARKNA":"長沙公園","LANDMARKAD":"6300007","ADDRESS":"台北市萬華區","TEL":" ","COUNTYNAME":"台北市","TOWNNAME":"萬華區","MARKTYPE":"994","Class":"4"},"geometry":{"x":121.49993682186907,"y":25.041587098460301}},{"attributes":{"OBJECTID":8435,"LANDMARKID":"6300000002713","LANDMARKCO":"406","LANDMARKNA":"河濱公園","LANDMARKAD":"6300007","ADDRESS":"台北市萬華區","TEL":" ","COUNTYNAME":"台北市","TOWNNAME":"萬華區","MARKTYPE":"994","Class":"4"},"geometry":{"x":121.49724031652231,"y":25.039829811965379}},{"attributes":{"OBJECTID":8436,"LANDMARKID":"6300000002714","LANDMARKCO":"406","LANDMARKNA":"桂林公園","LANDMARKAD":"6300007","ADDRESS":"台北市萬華區","TEL":" ","COUNTYNAME":"台北市","TOWNNAME":"萬華區","MARKTYPE":"994","Class":"4"},"geometry":{"x":121.49703635514184,"y":25.038789911975282}},{"attributes":{"OBJECTID":8437,"LANDMARKID":"6300000002715","LANDMARKCO":"406","LANDMARKNA":"華西公園","LANDMARKAD":"6300007","ADDRESS":"台北市萬華區","TEL":" ","COUNTYNAME":"台北市","TOWNNAME":"萬華區","MARKTYPE":"994","Class":"4"},"geometry":{"x":121.49881113638868,"y":25.03871835751789}},{"attributes":{"OBJECTID":8438,"LANDMARKID":"6300000002716","LANDMARKCO":"406","LANDMARKNA":"老松公園","LANDMARKAD":"6300007","ADDRESS":"台北市萬華區","TEL":" ","COUNTYNAME":"台北市","TOWNNAME":"萬華區","MARKTYPE":"994","Class":"4"},"geometry":{"x":121.50274886949434,"y":25.038584214861942}},{"attributes":{"OBJECTID":8439,"LANDMARKID":"6300000002717","LANDMARKCO":"406","LANDMARKNA":"柳鄉公園","LANDMARKAD":"6300007","ADDRESS":"台北市萬華區","TEL":" ","COUNTYNAME":"台北市","TOWNNAME":"萬華區","MARKTYPE":"994","Class":"4"},"geometry":{"x":121.49523355786474,"y":25.037536992690917}},{"attributes":{"OBJECTID":8440,"LANDMARKID":"6300000002718","LANDMARKCO":"406","LANDMARKNA":"華江一號公園","LANDMARKAD":"6300007","ADDRESS":"台北市萬華區","TEL":" ","COUNTYNAME":"台北市","TOWNNAME":"萬華區","MARKTYPE":"994","Class":"4"},"geometry":{"x":121.49366331381147,"y":25.036028795618741}},{"attributes":{"OBJECTID":8441,"LANDMARKID":"6300000002719","LANDMARKCO":"406","LANDMARKNA":"龍山寺公園","LANDMARKAD":"6300007","ADDRESS":"台北市萬華區廣州街、西園路交叉口","TEL":" ","COUNTYNAME":"台北市","TOWNNAME":"萬華區","MARKTYPE":"994","Class":"4"},"geometry":{"x":121.49993545060897,"y":25.035752255798709}},{"attributes":{"OBJECTID":8442,"LANDMARKID":"6300000002720","LANDMARKCO":"406","LANDMARKNA":"華江八號公園","LANDMARKAD":"6300007","ADDRESS":"台北市萬華區","TEL":" ","COUNTYNAME":"台北市","TOWNNAME":"萬華區","MARKTYPE":"994","Class":"4"},"geometry":{"x":121.49231695733347,"y":25.033815068057056}},{"attributes":{"OBJECTID":8443,"LANDMARKID":"6300000002721","LANDMARKCO":"406","LANDMARKNA":"壽前公園","LANDMARKAD":"6300007","ADDRESS":"台北市萬華區","TEL":" ","COUNTYNAME":"台北市","TOWNNAME":"萬華區","MARKTYPE":"994","Class":"4"},"geometry":{"x":121.49905526195941,"y":25.033573096198076}},{"attributes":{"OBJECTID":8444,"LANDMARKID":"6300000002722","LANDMARKCO":"406","LANDMARKNA":"雁鴨公園","LANDMARKAD":"6300007","ADDRESS":"台北市萬華區","TEL":" ","COUNTYNAME":"台北市","TOWNNAME":"萬華區","MARKTYPE":"994","Class":"4"},"geometry":{"x":121.48780440234431,"y":25.033190081367767}},{"attributes":{"OBJECTID":8445,"LANDMARKID":"6300000002723","LANDMARKCO":"406","LANDMARKNA":"華江六號公園","LANDMARKAD":"6300007","ADDRESS":"台北市萬華區","TEL":" ","COUNTYNAME":"台北市","TOWNNAME":"萬華區","MARKTYPE":"994","Class":"4"},"geometry":{"x":121.49256286790884,"y":25.032957642010302}},{"attributes":{"OBJECTID":8446,"LANDMARKID":"6300000002724","LANDMARKCO":"406","LANDMARKNA":"西園公園","LANDMARKAD":"6300007","ADDRESS":"台北市萬華區","TEL":" ","COUNTYNAME":"台北市","TOWNNAME":"萬華區","MARKTYPE":"994","Class":"4"},"geometry":{"x":121.49723599782537,"y":25.027077042992083}},{"attributes":{"OBJECTID":8447,"LANDMARKID":"6300000002725","LANDMARKCO":"406","LANDMARKNA":"青年公園","LANDMARKAD":"6300007","ADDRESS":"台北市萬華區","TEL":" ","COUNTYNAME":"台北市","TOWNNAME":"萬華區","MARKTYPE":"994","Class":"4"},"geometry":{"x":121.50544876661516,"y":25.023477718563196}},{"attributes":{"OBJECTID":8448,"LANDMARKID":"6300000002726","LANDMARKCO":"406","LANDMARKNA":"東興公園","LANDMARKAD":"6300007","ADDRESS":"台北市萬華區","TEL":" ","COUNTYNAME":"台北市","TOWNNAME":"萬華區","MARKTYPE":"994","Class":"4"},"geometry":{"x":121.49669449148287,"y":25.021115679682612}},{"attributes":{"OBJECTID":8449,"LANDMARKID":"6300000002727","LANDMARKCO":"406","LANDMARKNA":"馬場町紀念公園","LANDMARKAD":"6300007","ADDRESS":"台北市萬華區","TEL":" ","COUNTYNAME":"台北市","TOWNNAME":"萬華區","MARKTYPE":"994","Class":"4"},"geometry":{"x":121.50576177993376,"y":25.020136378144766}},{"attributes":{"OBJECTID":8450,"LANDMARKID":"6300000002728","LANDMARKCO":"406","LANDMARKNA":"華中河濱公園","LANDMARKAD":"6300007","ADDRESS":"台北市萬華區","TEL":" ","COUNTYNAME":"台北市","TOWNNAME":"萬華區","MARKTYPE":"994","Class":"4"},"geometry":{"x":121.49742685441632,"y":25.013970674874933}},{"attributes":{"OBJECTID":8451,"LANDMARKID":"6300000002729","LANDMARKCO":"406","LANDMARKNA":"雙園河濱公園","LANDMARKAD":"6300007","ADDRESS":"台北市萬華區","TEL":" ","COUNTYNAME":"台北市","TOWNNAME":"萬華區","MARKTYPE":"994","Class":"4"},"geometry":{"x":121.48657526170778,"y":25.033087582322089}},{"attributes":{"OBJECTID":8452,"LANDMARKID":"6300000002897","LANDMARKCO":"407","LANDMARKNA":"誠品Eslite","LANDMARKAD":"6300007","ADDRESS":"台北市峨嵋街54號3F","TEL":"02-2388-6588","COUNTYNAME":"台北市","TOWNNAME":"萬華區","MARKTYPE":"994","Class":"4"},"geometry":{"x":121.50528192916286,"y":25.043845583836859}},{"attributes":{"OBJECTID":8453,"LANDMARKID":"6300000002898","LANDMARKCO":"407","LANDMARKNA":"獅子林百貨","LANDMARKAD":"6300007","ADDRESS":"台北市西寧南路36號","TEL":" ","COUNTYNAME":"台北市","TOWNNAME":"萬華區","MARKTYPE":"994","Class":"4"},"geometry":{"x":121.50664901973832,"y":25.045587276936775}},{"attributes":{"OBJECTID":8454,"LANDMARKID":"6300000002899","LANDMARKCO":"407","LANDMARKNA":"萬年大樓","LANDMARKAD":"6300007","ADDRESS":"台北市西寧南路70號","TEL":" ","COUNTYNAME":"台北市","TOWNNAME":"萬華區","MARKTYPE":"994","Class":"4"},"geometry":{"x":121.50605875556421,"y":25.04348550556405}},{"attributes":{"OBJECTID":8455,"LANDMARKID":"6300000000268","LANDMARKCO":"107","LANDMARKNA":"台北市政府警察局華江派出所","LANDMARKAD":"6300007","ADDRESS":"台北市萬華區華江里環河南路二段196號","TEL":"02-23061531","COUNTYNAME":"台北市","TOWNNAME":"萬華區","MARKTYPE":"991","Class":"1"},"geometry":{"x":121.49295242764366,"y":25.03404973860918}},{"attributes":{"OBJECTID":8456,"LANDMARKID":"6300000000269","LANDMARKCO":"107","LANDMARKNA":"台北市政府警察局大理街派出所","LANDMARKAD":"6300007","ADDRESS":"台北市大理街99號","TEL":"02-23027631","COUNTYNAME":"台北市","TOWNNAME":"萬華區","MARKTYPE":"991","Class":"1"},"geometry":{"x":121.49836647827311,"y":25.034483520929697}},{"attributes":{"OBJECTID":8457,"LANDMARKID":"6300000000270","LANDMARKCO":"107","LANDMARKNA":"台北市政府警察局康定路派出所","LANDMARKAD":"6300007","ADDRESS":"台北市和平西路3段112號","TEL":"02-23027632","COUNTYNAME":"台北市","TOWNNAME":"萬華區","MARKTYPE":"991","Class":"1"},"geometry":{"x":121.50032373253067,"y":25.035111664458348}},{"attributes":{"OBJECTID":8458,"LANDMARKID":"6300000000271","LANDMARKCO":"107","LANDMARKNA":"台北市政府警察局漢中街派出所","LANDMARKAD":"6300007","ADDRESS":"台北市萬華區西門里漢中街122號","TEL":"02-23312790","COUNTYNAME":"台北市","TOWNNAME":"萬華區","MARKTYPE":"991","Class":"1"},"geometry":{"x":121.50729379432657,"y":25.042125104868102}},{"attributes":{"OBJECTID":8459,"LANDMARKID":"6300000000173","LANDMARKCO":"104","LANDMARKNA":"台北市國稅局萬華稽徵所","LANDMARKAD":"6300007","ADDRESS":"台北市萬華區桂林路52號6樓","TEL":"02-23042270","COUNTYNAME":"台北市","TOWNNAME":"萬華區","MARKTYPE":"991","Class":"1"},"geometry":{"x":121.50442672692307,"y":25.037799471273626}},{"attributes":{"OBJECTID":8460,"LANDMARKID":"6300000000174","LANDMARKCO":"104","LANDMARKNA":"台北市國稅局","LANDMARKAD":"6300007","ADDRESS":"台北市萬華區中華路一段2號","TEL":"02-23113711","COUNTYNAME":"台北市","TOWNNAME":"萬華區","MARKTYPE":"991","Class":"1"},"geometry":{"x":121.50920345430941,"y":25.047843077023572}},{"attributes":{"OBJECTID":8461,"LANDMARKID":"6300000000187","LANDMARKCO":"105","LANDMARKNA":"台北市建成地政事務所","LANDMARKAD":"6300007","ADDRESS":"台北市和平西路三段120號7至9樓","TEL":"02-23062122","COUNTYNAME":"台北市","TOWNNAME":"萬華區","MARKTYPE":"991","Class":"1"},"geometry":{"x":121.49982305868285,"y":25.035001888996067}},{"attributes":{"OBJECTID":8462,"LANDMARKID":"6300000000197","LANDMARKCO":"106","LANDMARKNA":"臺北市萬華區第一暨第二戶政事務所","LANDMARKAD":"6300007","ADDRESS":"台北市萬華區和平西路3段120號4樓","TEL":"02-23062706","COUNTYNAME":"台北市","TOWNNAME":"萬華區","MARKTYPE":"991","Class":"1"},"geometry":{"x":121.49982305868285,"y":25.035001888996067}},{"attributes":{"OBJECTID":8463,"LANDMARKID":"6300000000257","LANDMARKCO":"107","LANDMARKNA":"台北市政府警察局萬華分局","LANDMARKAD":"6300007","ADDRESS":"台北市萬華區桂林路135號","TEL":"02-23140364","COUNTYNAME":"台北市","TOWNNAME":"萬華區","MARKTYPE":"991","Class":"1"},"geometry":{"x":121.49960386022593,"y":25.038576249683537}},{"attributes":{"OBJECTID":8464,"LANDMARKID":"6300000000258","LANDMARKCO":"107","LANDMARKNA":"台北市政府警察局東園街派出所","LANDMARKAD":"6300007","ADDRESS":"台北市萬華區全德里長泰街130號","TEL":"02-23033247","COUNTYNAME":"台北市","TOWNNAME":"萬華區","MARKTYPE":"991","Class":"1"},"geometry":{"x":121.49821892464712,"y":25.02242969146846}},{"attributes":{"OBJECTID":8465,"LANDMARKID":"6300000000259","LANDMARKCO":"107","LANDMARKNA":"台北市政府警察局西園路派出所","LANDMARKAD":"6300007","ADDRESS":"台北市萬華區日善里東園街17號","TEL":"02-23032943","COUNTYNAME":"台北市","TOWNNAME":"萬華區","MARKTYPE":"991","Class":"1"},"geometry":{"x":121.49563004790437,"y":25.028177370659069}},{"attributes":{"OBJECTID":8466,"LANDMARKID":"6300000000260","LANDMARKCO":"107","LANDMARKNA":"台北市政府警察局莒光派出所","LANDMARKAD":"6300007","ADDRESS":"台北市莒光路171號","TEL":"02-23029771","COUNTYNAME":"台北市","TOWNNAME":"萬華區","MARKTYPE":"991","Class":"1"},"geometry":{"x":121.50270787243174,"y":25.031091586230968}},{"attributes":{"OBJECTID":8467,"LANDMARKID":"6300000000261","LANDMARKCO":"107","LANDMARKNA":"台北市政府警察局桂林路派出所","LANDMARKAD":"6300007","ADDRESS":"台北市萬華區青山里桂林路135號","TEL":"02-23314823","COUNTYNAME":"台北市","TOWNNAME":"萬華區","MARKTYPE":"991","Class":"1"},"geometry":{"x":121.49960386022593,"y":25.038576249683537}},{"attributes":{"OBJECTID":8468,"LANDMARKID":"6300000000262","LANDMARKCO":"107","LANDMARKNA":"台北市政府警察局昆明街派出所","LANDMARKAD":"6300007","ADDRESS":"台北市萬華區仁德里昆明街245號","TEL":"02-23082353","COUNTYNAME":"台北市","TOWNNAME":"萬華區","MARKTYPE":"991","Class":"1"},"geometry":{"x":121.50390241081925,"y":25.037872998390238}},{"attributes":{"OBJECTID":8469,"LANDMARKID":"6300000000263","LANDMARKCO":"107","LANDMARKNA":"台北市政府警察局武昌街派出所","LANDMARKAD":"6300007","ADDRESS":"台北市萬華區福星里西寧南路4號","TEL":"02-23312212","COUNTYNAME":"台北市","TOWNNAME":"萬華區","MARKTYPE":"991","Class":"1"},"geometry":{"x":121.50705171550348,"y":25.04792731398199}},{"attributes":{"OBJECTID":8470,"LANDMARKID":"6300000000264","LANDMARKCO":"107","LANDMARKNA":"台北市政府警察局萬華分局警備","LANDMARKAD":"6300007","ADDRESS":"台北市萬華區長沙街二段169號","TEL":"02-23610080","COUNTYNAME":"台北市","TOWNNAME":"萬華區","MARKTYPE":"991","Class":"1"},"geometry":{"x":121.50188092201921,"y":25.040606052970436}},{"attributes":{"OBJECTID":8471,"LANDMARKID":"6300000000265","LANDMARKCO":"107","LANDMARKNA":"台北市消防局雙園消防分隊","LANDMARKAD":"6300007","ADDRESS":"台北市萬華區西藏路213號之1","TEL":"02-23053374","COUNTYNAME":"台北市","TOWNNAME":"萬華區","MARKTYPE":"991","Class":"1"},"geometry":{"x":121.49617657389841,"y":25.02852131200676}},{"attributes":{"OBJECTID":8472,"LANDMARKID":"6300000000266","LANDMARKCO":"107","LANDMARKNA":"台北市消防局龍山消防分隊","LANDMARKAD":"6300007","ADDRESS":"台北市萬華區桂林路137號","TEL":"02-23122496","COUNTYNAME":"台北市","TOWNNAME":"萬華區","MARKTYPE":"991","Class":"1"},"geometry":{"x":121.49933572060755,"y":25.038582566045246}},{"attributes":{"OBJECTID":8473,"LANDMARKID":"6300000000267","LANDMARKCO":"107","LANDMARKNA":"台北市消防局萬華消防中隊","LANDMARKAD":"6300007","ADDRESS":"台北市萬華區西藏路213號之1","TEL":"02-23374419","COUNTYNAME":"台北市","TOWNNAME":"萬華區","MARKTYPE":"991","Class":"1"},"geometry":{"x":121.49617657389841,"y":25.02852131200676}},{"attributes":{"OBJECTID":8474,"LANDMARKID":"6300000000138","LANDMARKCO":"103","LANDMARKNA":"台北市萬華區健康服務中心","LANDMARKAD":"6300007","ADDRESS":"台北市萬華區東園街152號","TEL":"02-23033092","COUNTYNAME":"台北市","TOWNNAME":"萬華區","MARKTYPE":"991","Class":"1"},"geometry":{"x":121.49762206929954,"y":25.023176263365375}},{"attributes":{"OBJECTID":8475,"LANDMARKID":"6300000000373","LANDMARKCO":"108","LANDMARKNA":"台北市萬華區公所","LANDMARKAD":"6300007","ADDRESS":"台北市萬華區和平西路3段120號10~13樓","TEL":"02-23064468","COUNTYNAME":"台北市","TOWNNAME":"萬華區","MARKTYPE":"991","Class":"1"},"geometry":{"x":121.49982305868285,"y":25.035001888996067}},{"attributes":{"OBJECTID":8476,"LANDMARKID":"6300000000137","LANDMARKCO":"103","LANDMARKNA":"台北市政府國民住宅處","LANDMARKAD":"6300007","ADDRESS":"台北市萬華區青年路52號1樓之19","TEL":"02-23097240","COUNTYNAME":"台北市","TOWNNAME":"萬華區","MARKTYPE":"991","Class":"1"},"geometry":{"x":121.50349715270602,"y":25.025389837808664}},{"attributes":{"OBJECTID":8477,"LANDMARKID":"6300000000272","LANDMARKCO":"107","LANDMARKNA":"台北市政府警察局青年路派出所","LANDMARKAD":"6300007","ADDRESS":"台北市萬大路423巷114號","TEL":"02-23054219","COUNTYNAME":"台北市","TOWNNAME":"萬華區","MARKTYPE":"991","Class":"1"},"geometry":{"x":121.50226888965265,"y":25.021937806483258}},{"attributes":{"OBJECTID":8478,"LANDMARKID":"6300000000139","LANDMARKCO":"103","LANDMARKNA":"台北市萬華運動中心","LANDMARKAD":"6300007","ADDRESS":"台北市萬華區西寧南路6之1號","TEL":"02-23818878","COUNTYNAME":"台北市","TOWNNAME":"萬華區","MARKTYPE":"991","Class":"1"},"geometry":{"x":121.50714725092701,"y":25.047493307008281}},{"attributes":{"OBJECTID":8479,"LANDMARKID":"6300000000140","LANDMARKCO":"103","LANDMARKNA":"台北市政府勞工局西門就業服務站","LANDMARKAD":"6300007","ADDRESS":"台北市萬華區峨嵋街81號","TEL":"02-23813344","COUNTYNAME":"台北市","TOWNNAME":"萬華區","MARKTYPE":"991","Class":"1"},"geometry":{"x":121.50574288402821,"y":25.04394132484013}},{"attributes":{"OBJECTID":8480,"LANDMARKID":"6300000000592","LANDMARKCO":"203","LANDMARKNA":"老松國小","LANDMARKAD":"6300007","ADDRESS":"台北市萬華區桂林路64號","TEL":"02-23361266","COUNTYNAME":"台北市","TOWNNAME":"萬華區","MARKTYPE":"992","Class":"2"},"geometry":{"x":121.50277419202648,"y":25.038054089658878}},{"attributes":{"OBJECTID":8481,"LANDMARKID":"6300000000746","LANDMARKCO":"204","LANDMARKNA":"台北市立圖書館龍山分館","LANDMARKAD":"6300007","ADDRESS":"台北市萬華區桂林路65巷6號","TEL":" ","COUNTYNAME":"台北市","TOWNNAME":"萬華區","MARKTYPE":"992","Class":"2"},"geometry":{"x":121.50253889741178,"y":25.038439791915284}},{"attributes":{"OBJECTID":8482,"LANDMARKID":"6300000000747","LANDMARKCO":"204","LANDMARKNA":"台北市立圖書館東園分館","LANDMARKAD":"6300007","ADDRESS":"台北市萬華區東園街199號","TEL":" ","COUNTYNAME":"台北市","TOWNNAME":"萬華區","MARKTYPE":"992","Class":"2"},"geometry":{"x":121.49818132891659,"y":25.022645914889399}},{"attributes":{"OBJECTID":8483,"LANDMARKID":"6300000000748","LANDMARKCO":"204","LANDMARKNA":"台北市立圖書館西園分館","LANDMARKAD":"6300007","ADDRESS":"台北市萬華區興寧街6號5~6樓","TEL":" ","COUNTYNAME":"台北市","TOWNNAME":"萬華區","MARKTYPE":"992","Class":"2"},"geometry":{"x":121.5018657917758,"y":25.032230060366754}},{"attributes":{"OBJECTID":8484,"LANDMARKID":"6300000000749","LANDMARKCO":"204","LANDMARKNA":"台北市立圖書館萬華分館","LANDMARKAD":"6300007","ADDRESS":"台北市萬華區東園街19號5~7樓","TEL":" ","COUNTYNAME":"台北市","TOWNNAME":"萬華區","MARKTYPE":"992","Class":"2"},"geometry":{"x":121.49584722373135,"y":25.027675221277697}},{"attributes":{"OBJECTID":8485,"LANDMARKID":"6300000000750","LANDMARKCO":"204","LANDMARKNA":"台北市立圖書館柳鄉民眾閱覽室","LANDMARKAD":"6300007","ADDRESS":"台北市萬華區環河南路二段102號4樓","TEL":" ","COUNTYNAME":"台北市","TOWNNAME":"萬華區","MARKTYPE":"992","Class":"2"},"geometry":{"x":121.49536794263129,"y":25.036804441918349}},{"attributes":{"OBJECTID":8486,"LANDMARKID":"6300000000593","LANDMARKCO":"203","LANDMARKNA":"市立大理國小","LANDMARKAD":"6300007","ADDRESS":"台北市萬華區綠堤里雙園街89巷1號","TEL":"02-23021271","COUNTYNAME":"台北市","TOWNNAME":"萬華區","MARKTYPE":"992","Class":"2"},"geometry":{"x":121.49726320659613,"y":25.030067146570783}},{"attributes":{"OBJECTID":8487,"LANDMARKID":"6300000000594","LANDMARKCO":"203","LANDMARKNA":"市立西門國小","LANDMARKAD":"6300007","ADDRESS":"台北市萬華區西門里成都路98號","TEL":"02-23312238","COUNTYNAME":"台北市","TOWNNAME":"萬華區","MARKTYPE":"992","Class":"2"},"geometry":{"x":121.50365291090858,"y":25.042862710980323}},{"attributes":{"OBJECTID":8488,"LANDMARKID":"6300000000595","LANDMARKCO":"203","LANDMARKNA":"市立福星國小","LANDMARKAD":"6300007","ADDRESS":"台北市萬華區福星里開封街二段3號","TEL":"02-23144668","COUNTYNAME":"台北市","TOWNNAME":"萬華區","MARKTYPE":"992","Class":"2"},"geometry":{"x":121.50847061421297,"y":25.046821175516953}},{"attributes":{"OBJECTID":8489,"LANDMARKID":"6300000000596","LANDMARKCO":"203","LANDMARKNA":"市立龍山國小","LANDMARKAD":"6300007","ADDRESS":"台北市萬華區青山里廣州街224號","TEL":"02-23082977","COUNTYNAME":"台北市","TOWNNAME":"萬華區","MARKTYPE":"992","Class":"2"},"geometry":{"x":121.49631697252977,"y":25.035932488487088}},{"attributes":{"OBJECTID":8490,"LANDMARKID":"6300000000468","LANDMARKCO":"202","LANDMARKNA":"市立華江高中","LANDMARKAD":"6300007","ADDRESS":"台北市萬華區西藏路213號","TEL":"02-23019946","COUNTYNAME":"台北市","TOWNNAME":"萬華區","MARKTYPE":"992","Class":"2"},"geometry":{"x":121.49617657389841,"y":25.02852131200676}},{"attributes":{"OBJECTID":8491,"LANDMARKID":"6300000000469","LANDMARKCO":"202","LANDMARKNA":"私立立人高中","LANDMARKAD":"6300007","ADDRESS":"台北市萬華區桂林路171號","TEL":"02-23113423","COUNTYNAME":"台北市","TOWNNAME":"萬華區","MARKTYPE":"992","Class":"2"},"geometry":{"x":121.49647767422783,"y":25.038741416334982}},{"attributes":{"OBJECTID":8492,"LANDMARKID":"6300000000470","LANDMARKCO":"202","LANDMARKNA":"市立大理高中","LANDMARKAD":"6300007","ADDRESS":"台北市萬華區長順街2號","TEL":"02-23026959","COUNTYNAME":"台北市","TOWNNAME":"萬華區","MARKTYPE":"992","Class":"2"},"geometry":{"x":121.49128668851965,"y":25.030828559786229}},{"attributes":{"OBJECTID":8493,"LANDMARKID":"6300000000579","LANDMARKCO":"203","LANDMARKNA":"市立萬華國中","LANDMARKAD":"6300007","ADDRESS":"台北市萬華區西藏路201號","TEL":"02-23394567","COUNTYNAME":"台北市","TOWNNAME":"萬華區","MARKTYPE":"992","Class":"2"},"geometry":{"x":121.49871250636542,"y":25.029154610162237}},{"attributes":{"OBJECTID":8494,"LANDMARKID":"6300000000580","LANDMARKCO":"203","LANDMARKNA":"市立龍山國中","LANDMARKAD":"6300007","ADDRESS":"台北市萬華區南寧路46號","TEL":"02-23362789","COUNTYNAME":"台北市","TOWNNAME":"萬華區","MARKTYPE":"992","Class":"2"},"geometry":{"x":121.50461336889373,"y":25.036058049751567}},{"attributes":{"OBJECTID":8495,"LANDMARKID":"6300000000581","LANDMARKCO":"203","LANDMARKNA":"市立雙園國中","LANDMARKAD":"6300007","ADDRESS":"台北市萬華區興義街2號","TEL":"02-23030827","COUNTYNAME":"台北市","TOWNNAME":"萬華區","MARKTYPE":"992","Class":"2"},"geometry":{"x":121.49273774802339,"y":25.02762541702127}},{"attributes":{"OBJECTID":8496,"LANDMARKID":"6300000000582","LANDMARKCO":"203","LANDMARKNA":"市立新和國小","LANDMARKAD":"6300007","ADDRESS":"台北市萬華區西藏路125巷31號","TEL":"02-23078502","COUNTYNAME":"台北市","TOWNNAME":"萬華區","MARKTYPE":"992","Class":"2"},"geometry":{"x":121.50334393742851,"y":25.026004797415716}},{"attributes":{"OBJECTID":8497,"LANDMARKID":"6300000000583","LANDMARKCO":"203","LANDMARKNA":"市立東園國小","LANDMARKAD":"6300007","ADDRESS":"台北市萬華區全德里東園街195號","TEL":"02-23037846","COUNTYNAME":"台北市","TOWNNAME":"萬華區","MARKTYPE":"992","Class":"2"},"geometry":{"x":121.4978716675799,"y":25.023140736150616}},{"attributes":{"OBJECTID":8498,"LANDMARKID":"6300000000584","LANDMARKCO":"203","LANDMARKNA":"市立西園國小","LANDMARKAD":"6300007","ADDRESS":"台北市萬華區日善里東園街73巷65號","TEL":"02-23035573","COUNTYNAME":"台北市","TOWNNAME":"萬華區","MARKTYPE":"992","Class":"2"},"geometry":{"x":121.49887631592229,"y":25.026616610391972}},{"attributes":{"OBJECTID":8499,"LANDMARKID":"6300000000585","LANDMARKCO":"203","LANDMARKNA":"市立老松國小","LANDMARKAD":"6300007","ADDRESS":"台北市萬華區福音里桂林路64號","TEL":"02-23361266","COUNTYNAME":"台北市","TOWNNAME":"萬華區","MARKTYPE":"992","Class":"2"},"geometry":{"x":121.50277419202648,"y":25.038054089658878}},{"attributes":{"OBJECTID":8500,"LANDMARKID":"6300000000586","LANDMARKCO":"203","LANDMARKNA":"市立雙園國小","LANDMARKAD":"6300007","ADDRESS":"台北市萬華區雙園里莒光路315號","TEL":"02-23088950","COUNTYNAME":"台北市","TOWNNAME":"萬華區","MARKTYPE":"992","Class":"2"},"geometry":{"x":121.49818164124146,"y":25.030952497182376}},{"attributes":{"OBJECTID":8501,"LANDMARKID":"6300000000587","LANDMARKCO":"203","LANDMARKNA":"市立中興國小","LANDMARKAD":"6300007","ADDRESS":"台北市萬華區福星里開封街二段23號","TEL":"02-23111332","COUNTYNAME":"台北市","TOWNNAME":"萬華區","MARKTYPE":"992","Class":"2"},"geometry":{"x":121.50639099112803,"y":25.046825902695176}},{"attributes":{"OBJECTID":8502,"LANDMARKID":"6300000000588","LANDMARKCO":"203","LANDMARKNA":"市立萬大國小","LANDMARKAD":"6300007","ADDRESS":"台北市萬華區全德里萬大路346號","TEL":"02-23398019","COUNTYNAME":"台北市","TOWNNAME":"萬華區","MARKTYPE":"992","Class":"2"},"geometry":{"x":121.49935351717085,"y":25.022972800965899}},{"attributes":{"OBJECTID":8503,"LANDMARKID":"6300000000589","LANDMARKCO":"203","LANDMARKNA":"私立光仁小學","LANDMARKAD":"6300007","ADDRESS":"台北市萬華區壽德里萬大路423巷15號","TEL":"02-23030806","COUNTYNAME":"台北市","TOWNNAME":"萬華區","MARKTYPE":"992","Class":"2"},"geometry":{"x":121.49975151757231,"y":25.021329279433402}},{"attributes":{"OBJECTID":8504,"LANDMARKID":"6300000000590","LANDMARKCO":"203","LANDMARKNA":"市立華江國小","LANDMARKAD":"6300007","ADDRESS":"台北市萬華區環河南路二段250巷42弄2號","TEL":"02-23064352","COUNTYNAME":"台北市","TOWNNAME":"萬華區","MARKTYPE":"992","Class":"2"},"geometry":{"x":121.49120420850183,"y":25.034070208716752}},{"attributes":{"OBJECTID":8505,"LANDMARKID":"6300000000591","LANDMARKCO":"203","LANDMARKNA":"市立福星國小","LANDMARKAD":"6300007","ADDRESS":"台北市萬華區福星里中華路一段66號","TEL":"02-23144668#102","COUNTYNAME":"台北市","TOWNNAME":"萬華區","MARKTYPE":"992","Class":"2"},"geometry":{"x":121.50891854264209,"y":25.04634412648047}},{"attributes":{"OBJECTID":8506,"LANDMARKID":"6300000000405","LANDMARKCO":"201","LANDMARKNA":"國立台北護理學院城區部","LANDMARKAD":"6300007","ADDRESS":"台北市萬華區內江街89號","TEL":"02-23885111","COUNTYNAME":"台北市","TOWNNAME":"萬華區","MARKTYPE":"992","Class":"2"},"geometry":{"x":121.50334890102145,"y":25.041738499734592}},{"attributes":{"OBJECTID":8507,"LANDMARKID":"6300000001907","LANDMARKCO":"306","LANDMARKNA":"西門捷運站-出口1","LANDMARKAD":"6300007","ADDRESS":" ","TEL":" ","COUNTYNAME":"台北市","TOWNNAME":"萬華區","MARKTYPE":"993","Class":"306"},"geometry":{"x":121.50770212784496,"y":25.042106724656438}},{"attributes":{"OBJECTID":8508,"LANDMARKID":"6300000001908","LANDMARKCO":"306","LANDMARKNA":"西門捷運站-出口6","LANDMARKAD":"6300007","ADDRESS":" ","TEL":" ","COUNTYNAME":"台北市","TOWNNAME":"萬華區","MARKTYPE":"993","Class":"306"},"geometry":{"x":121.50780884142854,"y":25.042549188383365}},{"attributes":{"OBJECTID":8509,"LANDMARKID":"6300000001909","LANDMARKCO":"306","LANDMARKNA":"龍山寺捷運站-出口1","LANDMARKAD":"6300007","ADDRESS":" ","TEL":" ","COUNTYNAME":"台北市","TOWNNAME":"萬華區","MARKTYPE":"993","Class":"306"},"geometry":{"x":121.49946276294699,"y":25.035444276503235}},{"attributes":{"OBJECTID":8510,"LANDMARKID":"6300000001910","LANDMARKCO":"306","LANDMARKNA":"龍山寺捷運站-出口2","LANDMARKAD":"6300007","ADDRESS":" ","TEL":" ","COUNTYNAME":"台北市","TOWNNAME":"萬華區","MARKTYPE":"993","Class":"306"},"geometry":{"x":121.49980414710761,"y":25.035104507508514}},{"attributes":{"OBJECTID":8511,"LANDMARKID":"6300000001911","LANDMARKCO":"306","LANDMARKNA":"龍山寺捷運站-出口3","LANDMARKAD":"6300007","ADDRESS":" ","TEL":" ","COUNTYNAME":"台北市","TOWNNAME":"萬華區","MARKTYPE":"993","Class":"306"},"geometry":{"x":121.50163264300306,"y":25.035378016913597}},{"attributes":{"OBJECTID":8512,"LANDMARKID":"6300000001553","LANDMARKCO":"303","LANDMARKNA":"長順街底平面停車場","LANDMARKAD":"6300007","ADDRESS":" ","TEL":" ","COUNTYNAME":"台北市","TOWNNAME":"萬華區","MARKTYPE":"993","Class":"303"},"geometry":{"x":121.48878535399071,"y":25.032159327999981}},{"attributes":{"OBJECTID":8513,"LANDMARKID":"6300000001554","LANDMARKCO":"303","LANDMARKNA":"環河快速道路停車場","LANDMARKAD":"6300007","ADDRESS":" ","TEL":" ","COUNTYNAME":"台北市","TOWNNAME":"萬華區","MARKTYPE":"993","Class":"303"},"geometry":{"x":121.48921205277081,"y":25.032082035404859}},{"attributes":{"OBJECTID":8514,"LANDMARKID":"6300000001555","LANDMARKCO":"303","LANDMARKNA":"環河南路停車場","LANDMARKAD":"6300007","ADDRESS":" ","TEL":" ","COUNTYNAME":"台北市","TOWNNAME":"萬華區","MARKTYPE":"993","Class":"303"},"geometry":{"x":121.49008781862076,"y":25.033271386843502}},{"attributes":{"OBJECTID":8515,"LANDMARKID":"6300000001556","LANDMARKCO":"303","LANDMARKNA":"萬板地下停車場","LANDMARKAD":"6300007","ADDRESS":" ","TEL":" ","COUNTYNAME":"台北市","TOWNNAME":"萬華區","MARKTYPE":"993","Class":"303"},"geometry":{"x":121.49068784356253,"y":25.028103874903099}},{"attributes":{"OBJECTID":8516,"LANDMARKID":"6300000001557","LANDMARKCO":"303","LANDMARKNA":"雙園國中地下停車場","LANDMARKAD":"6300007","ADDRESS":" ","TEL":" ","COUNTYNAME":"台北市","TOWNNAME":"萬華區","MARKTYPE":"993","Class":"303"},"geometry":{"x":121.49160479755515,"y":25.027907059750579}},{"attributes":{"OBJECTID":8517,"LANDMARKID":"6300000001558","LANDMARKCO":"303","LANDMARKNA":"艋舺大道平面停車場","LANDMARKAD":"6300007","ADDRESS":" ","TEL":" ","COUNTYNAME":"台北市","TOWNNAME":"萬華區","MARKTYPE":"993","Class":"303"},"geometry":{"x":121.49874489266126,"y":25.033249996958162}},{"attributes":{"OBJECTID":8518,"LANDMARKID":"6300000001559","LANDMARKCO":"303","LANDMARKNA":"艋舺公園地下停車場","LANDMARKAD":"6300007","ADDRESS":" ","TEL":" ","COUNTYNAME":"台北市","TOWNNAME":"萬華區","MARKTYPE":"993","Class":"303"},"geometry":{"x":121.49946040284937,"y":25.036210592853468}},{"attributes":{"OBJECTID":8519,"LANDMARKID":"6300000001560","LANDMARKCO":"303","LANDMARKNA":"萬華區行政中心地下停車場","LANDMARKAD":"6300007","ADDRESS":" ","TEL":" ","COUNTYNAME":"台北市","TOWNNAME":"萬華區","MARKTYPE":"993","Class":"303"},"geometry":{"x":121.49992204534854,"y":25.034578222152799}},{"attributes":{"OBJECTID":8520,"LANDMARKID":"6300000001561","LANDMARKCO":"303","LANDMARKNA":"青年公園棒球場地下停車場","LANDMARKAD":"6300007","ADDRESS":" ","TEL":"02-23092133","COUNTYNAME":"台北市","TOWNNAME":"萬華區","MARKTYPE":"993","Class":"303"},"geometry":{"x":121.50295588899397,"y":25.023794965369287}},{"attributes":{"OBJECTID":8521,"LANDMARKID":"6300000001562","LANDMARKCO":"303","LANDMARKNA":"地下停車場","LANDMARKAD":"6300007","ADDRESS":" ","TEL":"02-23719292","COUNTYNAME":"台北市","TOWNNAME":"萬華區","MARKTYPE":"993","Class":"303"},"geometry":{"x":121.50499785351303,"y":25.04404755317546}},{"attributes":{"OBJECTID":8522,"LANDMARKID":"6300000001563","LANDMARKCO":"303","LANDMARKNA":"台灣聯通停車場-誠品場","LANDMARKAD":"6300007","ADDRESS":"台北市武昌街二段77號B2~B3","TEL":"02-16626317","COUNTYNAME":"台北市","TOWNNAME":"萬華區","MARKTYPE":"993","Class":"303"},"geometry":{"x":121.50552287211018,"y":25.045072154492274}},{"attributes":{"OBJECTID":8523,"LANDMARKID":"6300000001564","LANDMARKCO":"303","LANDMARKNA":"馬場町公園平面停車場","LANDMARKAD":"6300007","ADDRESS":" ","TEL":" ","COUNTYNAME":"台北市","TOWNNAME":"萬華區","MARKTYPE":"993","Class":"303"},"geometry":{"x":121.50620761344072,"y":25.020713878143585}},{"attributes":{"OBJECTID":8524,"LANDMARKID":"6300000001565","LANDMARKCO":"303","LANDMARKNA":"福金寶長沙停車場","LANDMARKAD":"6300007","ADDRESS":" ","TEL":" ","COUNTYNAME":"台北市","TOWNNAME":"萬華區","MARKTYPE":"993","Class":"303"},"geometry":{"x":121.50737399436863,"y":25.040681492734258}},{"attributes":{"OBJECTID":8525,"LANDMARKID":"6300000001566","LANDMARKCO":"303","LANDMARKNA":"中正河濱公園停車場","LANDMARKAD":"6300007","ADDRESS":" ","TEL":" ","COUNTYNAME":"台北市","TOWNNAME":"萬華區","MARKTYPE":"993","Class":"303"},"geometry":{"x":121.50714098037554,"y":25.021394732322602}},{"attributes":{"OBJECTID":8526,"LANDMARKID":"6300000001567","LANDMARKCO":"303","LANDMARKNA":"青年公園高爾夫球地下停車場","LANDMARKAD":"6300007","ADDRESS":" ","TEL":"02-23379616","COUNTYNAME":"台北市","TOWNNAME":"萬華區","MARKTYPE":"993","Class":"303"},"geometry":{"x":121.50741974808582,"y":25.02482428742006}},{"attributes":{"OBJECTID":8527,"LANDMARKID":"6300000001568","LANDMARKCO":"303","LANDMARKNA":"古亭國中地下停車場","LANDMARKAD":"6300007","ADDRESS":"台北市萬華區中華路二段606巷1號","TEL":"02-23390684","COUNTYNAME":"台北市","TOWNNAME":"萬華區","MARKTYPE":"993","Class":"303"},"geometry":{"x":121.51012801989945,"y":25.023902268798775}},{"attributes":{"OBJECTID":8528,"LANDMARKID":"6300000001569","LANDMARKCO":"303","LANDMARKNA":"家禽批發市場停車場","LANDMARKAD":"6300007","ADDRESS":" ","TEL":" ","COUNTYNAME":"台北市","TOWNNAME":"萬華區","MARKTYPE":"993","Class":"303"},"geometry":{"x":121.48965560938441,"y":25.028005831570855}},{"attributes":{"OBJECTID":8529,"LANDMARKID":"6300000001570","LANDMARKCO":"303","LANDMARKNA":"祖師廟停車場","LANDMARKAD":"6300007","ADDRESS":" ","TEL":" ","COUNTYNAME":"台北市","TOWNNAME":"萬華區","MARKTYPE":"993","Class":"303"},"geometry":{"x":121.50308916883867,"y":25.040318547510008}},{"attributes":{"OBJECTID":8530,"LANDMARKID":"6300000001571","LANDMARKCO":"303","LANDMARKNA":"龍山國中停車場","LANDMARKAD":"6300007","ADDRESS":" ","TEL":" ","COUNTYNAME":"台北市","TOWNNAME":"萬華區","MARKTYPE":"993","Class":"303"},"geometry":{"x":121.50560513140489,"y":25.036179360575428}},{"attributes":{"OBJECTID":8531,"LANDMARKID":"6300000001572","LANDMARKCO":"303","LANDMARKNA":"貴陽街停車場","LANDMARKAD":"6300007","ADDRESS":"台北市萬華區貴陽街二段26號","TEL":" ","COUNTYNAME":"台北市","TOWNNAME":"萬華區","MARKTYPE":"993","Class":"303"},"geometry":{"x":121.50533130737507,"y":25.03799509480168}},{"attributes":{"OBJECTID":8532,"LANDMARKID":"6300000001573","LANDMARKCO":"303","LANDMARKNA":"中興嘟嘟房停車場-長沙站","LANDMARKAD":"6300007","ADDRESS":"台北市萬華區西昌街109號(無對外營業)","TEL":"(02)2375-3753","COUNTYNAME":"台北市","TOWNNAME":"萬華區","MARKTYPE":"993","Class":"303"},"geometry":{"x":121.50078676939023,"y":25.040631269515906}},{"attributes":{"OBJECTID":8533,"LANDMARKID":"6300000001574","LANDMARKCO":"303","LANDMARKNA":"今日育樂大樓車輛保管處","LANDMARKAD":"6300007","ADDRESS":"台北市萬華區峨嵋街52號","TEL":" ","COUNTYNAME":"台北市","TOWNNAME":"萬華區","MARKTYPE":"993","Class":"303"},"geometry":{"x":121.5061056476451,"y":25.044219087662505}},{"attributes":{"OBJECTID":8534,"LANDMARKID":"6300000001575","LANDMARKCO":"303","LANDMARKNA":"六福大樓停車場","LANDMARKAD":"6300007","ADDRESS":"台北市萬華區漢口街二段54號B2","TEL":" ","COUNTYNAME":"台北市","TOWNNAME":"萬華區","MARKTYPE":"993","Class":"303"},"geometry":{"x":121.50600339907943,"y":25.045784984416393}},{"attributes":{"OBJECTID":8535,"LANDMARKID":"6300000001576","LANDMARKCO":"303","LANDMARKNA":"台北市立性病防治所地下停車場","LANDMARKAD":"6300007","ADDRESS":"台北市萬華區昆明街100號","TEL":" ","COUNTYNAME":"台北市","TOWNNAME":"萬華區","MARKTYPE":"993","Class":"303"},"geometry":{"x":121.50501651654957,"y":25.044104466093103}},{"attributes":{"OBJECTID":8536,"LANDMARKID":"6300000001577","LANDMARKCO":"303","LANDMARKNA":"長順街底堤外雙園平面停車場","LANDMARKAD":"6300007","ADDRESS":"台北市萬華區長順街底","TEL":" ","COUNTYNAME":"台北市","TOWNNAME":"萬華區","MARKTYPE":"993","Class":"303"},"geometry":{"x":121.48829959485873,"y":25.032618957079354}},{"attributes":{"OBJECTID":8537,"LANDMARKID":"6300000001578","LANDMARKCO":"303","LANDMARKNA":"原林長沙街停車場","LANDMARKAD":"6300007","ADDRESS":"台北市萬華區西昌街111號","TEL":" ","COUNTYNAME":"台北市","TOWNNAME":"萬華區","MARKTYPE":"993","Class":"303"},"geometry":{"x":121.50079690496707,"y":25.040584839894876}},{"attributes":{"OBJECTID":8538,"LANDMARKID":"6300000001579","LANDMARKCO":"303","LANDMARKNA":"桂林路底堤外平面停車場","LANDMARKAD":"6300007","ADDRESS":"台北市萬華區桂林路底堤防外","TEL":" ","COUNTYNAME":"台北市","TOWNNAME":"萬華區","MARKTYPE":"993","Class":"303"},"geometry":{"x":121.49578662095921,"y":25.03906825196924}},{"attributes":{"OBJECTID":8539,"LANDMARKID":"6300000001580","LANDMARKCO":"303","LANDMARKNA":"莒光社區停車場","LANDMARKAD":"6300007","ADDRESS":"台北市萬華區西藏路131號B1","TEL":" ","COUNTYNAME":"台北市","TOWNNAME":"萬華區","MARKTYPE":"993","Class":"303"},"geometry":{"x":121.50200289759064,"y":25.029332750359274}},{"attributes":{"OBJECTID":8540,"LANDMARKID":"6300000001581","LANDMARKCO":"303","LANDMARKNA":"莒光路廣場停車場","LANDMARKAD":"6300007","ADDRESS":"台北市萬華區莒光路145號","TEL":" ","COUNTYNAME":"台北市","TOWNNAME":"萬華區","MARKTYPE":"993","Class":"303"},"geometry":{"x":121.50355940057857,"y":25.031088300060759}},{"attributes":{"OBJECTID":8541,"LANDMARKID":"6300000001582","LANDMARKCO":"303","LANDMARKNA":"堤外防汛道停車場","LANDMARKAD":"6300007","ADDRESS":"台北市萬華區(桂林路至長順街)","TEL":" ","COUNTYNAME":"台北市","TOWNNAME":"萬華區","MARKTYPE":"993","Class":"303"},"geometry":{"x":121.49167212549916,"y":25.036947629264095}},{"attributes":{"OBJECTID":8542,"LANDMARKID":"6300000001583","LANDMARKCO":"303","LANDMARKNA":"華中橋堤外停車場","LANDMARKAD":"6300007","ADDRESS":"台北市萬華區華中橋下堤外","TEL":" ","COUNTYNAME":"台北市","TOWNNAME":"萬華區","MARKTYPE":"993","Class":"303"},"geometry":{"x":121.49667805522729,"y":25.015806321954738}},{"attributes":{"OBJECTID":8543,"LANDMARKID":"6300000001584","LANDMARKCO":"303","LANDMARKNA":"華江橋下立體停車場","LANDMARKAD":"6300007","ADDRESS":"台北市萬華區環河南路二段華江橋下","TEL":" ","COUNTYNAME":"台北市","TOWNNAME":"萬華區","MARKTYPE":"993","Class":"303"},"geometry":{"x":121.49274344480042,"y":25.035421783943566}},{"attributes":{"OBJECTID":8544,"LANDMARKID":"6300000001585","LANDMARKCO":"303","LANDMARKNA":"獅子林停車場","LANDMARKAD":"6300007","ADDRESS":"台北市萬華區西寧南路36號B2","TEL":" ","COUNTYNAME":"台北市","TOWNNAME":"萬華區","MARKTYPE":"993","Class":"303"},"geometry":{"x":121.50659663866404,"y":25.04557177736628}},{"attributes":{"OBJECTID":8545,"LANDMARKID":"6300000001586","LANDMARKCO":"303","LANDMARKNA":"環河快速道路停車場","LANDMARKAD":"6300007","ADDRESS":"台北市萬華區(高架橋下停車場，長順街至雙園抽水站)","TEL":" ","COUNTYNAME":"台北市","TOWNNAME":"萬華區","MARKTYPE":"993","Class":"303"},"geometry":{"x":121.48907754740951,"y":25.032479054987924}},{"attributes":{"OBJECTID":8546,"LANDMARKID":"6300000001587","LANDMARKCO":"303","LANDMARKNA":"環河南路路外停車場","LANDMARKAD":"6300007","ADDRESS":"台北市萬華區華江段二小段209之1地號","TEL":" ","COUNTYNAME":"台北市","TOWNNAME":"萬華區","MARKTYPE":"993","Class":"303"},"geometry":{"x":121.48844903189463,"y":25.028265976605311}},{"attributes":{"OBJECTID":8547,"LANDMARKID":"6300000001588","LANDMARKCO":"303","LANDMARKNA":"豐群來來百貨停車場","LANDMARKAD":"6300007","ADDRESS":"台北市萬華區武昌街二段77號B2","TEL":" ","COUNTYNAME":"台北市","TOWNNAME":"萬華區","MARKTYPE":"993","Class":"303"},"geometry":{"x":121.50631090271723,"y":25.045085587043918}},{"attributes":{"OBJECTID":8548,"LANDMARKID":"6300000001589","LANDMARKCO":"303","LANDMARKNA":"洛陽綜合立體停車場","LANDMARKAD":"6300007","ADDRESS":"台北市萬華區環河南路一段1號","TEL":" ","COUNTYNAME":"台北市","TOWNNAME":"萬華區","MARKTYPE":"993","Class":"303"},"geometry":{"x":121.50589251973392,"y":25.048310244839996}},{"attributes":{"OBJECTID":8549,"LANDMARKID":"6300000001590","LANDMARKCO":"303","LANDMARKNA":"峨嵋立體停車場","LANDMARKAD":"6300007","ADDRESS":"台北市萬華區峨嵋街83號","TEL":" ","COUNTYNAME":"台北市","TOWNNAME":"萬華區","MARKTYPE":"993","Class":"303"},"geometry":{"x":121.50541088666841,"y":25.044338001943007}},{"attributes":{"OBJECTID":8550,"LANDMARKID":"6300000001591","LANDMARKCO":"303","LANDMARKNA":"環南市場地下停車場","LANDMARKAD":"6300007","ADDRESS":"台北市萬華區環河南路二段249號B1","TEL":" ","COUNTYNAME":"台北市","TOWNNAME":"萬華區","MARKTYPE":"993","Class":"303"},"geometry":{"x":121.49012493251833,"y":25.030214579568696}},{"attributes":{"OBJECTID":8551,"LANDMARKID":"6300000001592","LANDMARKCO":"303","LANDMARKNA":"忠孝西路橋下停車場","LANDMARKAD":"6300007","ADDRESS":"台北市萬華區忠孝西路二段橋下","TEL":" ","COUNTYNAME":"台北市","TOWNNAME":"萬華區","MARKTYPE":"993","Class":"303"},"geometry":{"x":121.50811933365721,"y":25.048370596507606}},{"attributes":{"OBJECTID":8552,"LANDMARKID":"6300000001593","LANDMARKCO":"303","LANDMARKNA":"永固停車場-獅子林","LANDMARKAD":"6300007","ADDRESS":"台北市萬華區西寧南路36號B2","TEL":"02-23119583","COUNTYNAME":"台北市","TOWNNAME":"萬華區","MARKTYPE":"993","Class":"303"},"geometry":{"x":121.50656323749311,"y":25.045475646302272}},{"attributes":{"OBJECTID":8553,"LANDMARKID":"6300000001594","LANDMARKCO":"303","LANDMARKNA":"永固停車場-長沙二","LANDMARKAD":"6300007","ADDRESS":"台北市萬華區長沙街二段55號空地","TEL":"02-23898605","COUNTYNAME":"台北市","TOWNNAME":"萬華區","MARKTYPE":"993","Class":"303"},"geometry":{"x":121.50567058482289,"y":25.040738687598182}},{"attributes":{"OBJECTID":8554,"LANDMARKID":"6300000001595","LANDMARKCO":"303","LANDMARKNA":"永固停車場-昆明站","LANDMARKAD":"6300007","ADDRESS":"台北市萬華區昆明街46號地下2.3樓","TEL":"02-23755951","COUNTYNAME":"台北市","TOWNNAME":"萬華區","MARKTYPE":"993","Class":"303"},"geometry":{"x":121.50571324964646,"y":25.046455542281048}},{"attributes":{"OBJECTID":8555,"LANDMARKID":"6300000001596","LANDMARKCO":"303","LANDMARKNA":"永固停車場-大世界","LANDMARKAD":"6300007","ADDRESS":"台北市成都路81號地下1樓","TEL":"02-23140398","COUNTYNAME":"台北市","TOWNNAME":"萬華區","MARKTYPE":"993","Class":"303"},"geometry":{"x":121.50526369531444,"y":25.043056646512671}},{"attributes":{"OBJECTID":8556,"LANDMARKID":"6300000001597","LANDMARKCO":"303","LANDMARKNA":"永固停車場-東園站","LANDMARKAD":"6300007","ADDRESS":"台北市萬華區萬大路344巷與東園街交口空地","TEL":" ","COUNTYNAME":"台北市","TOWNNAME":"萬華區","MARKTYPE":"993","Class":"303"},"geometry":{"x":121.49925633297894,"y":25.024282261641279}},{"attributes":{"OBJECTID":8557,"LANDMARKID":"6300000001598","LANDMARKCO":"303","LANDMARKNA":"Times(普客二四停車場)-內江街停車場","LANDMARKAD":"6300007","ADDRESS":"北市萬華區內江街59、61號空地","TEL":" ","COUNTYNAME":"台北市","TOWNNAME":"萬華區","MARKTYPE":"993","Class":"303"},"geometry":{"x":121.50504499466749,"y":25.041665389978498}},{"attributes":{"OBJECTID":8558,"LANDMARKID":"6300000001599","LANDMARKCO":"303","LANDMARKNA":"Times(普客二四停車場)-中華路停車場","LANDMARKAD":"6300007","ADDRESS":"北市萬華區中華路一段158號旁","TEL":" ","COUNTYNAME":"台北市","TOWNNAME":"萬華區","MARKTYPE":"993","Class":"303"},"geometry":{"x":121.5076819265242,"y":25.041891829142273}},{"attributes":{"OBJECTID":8559,"LANDMARKID":"6300000001600","LANDMARKCO":"303","LANDMARKNA":"中興嘟嘟房停車場-西門中華站","LANDMARKAD":"6300007","ADDRESS":"台北市中華路1段172巷2號旁","TEL":"02-23122249","COUNTYNAME":"台北市","TOWNNAME":"萬華區","MARKTYPE":"993","Class":"303"},"geometry":{"x":121.50813922180102,"y":25.044147264985909}},{"attributes":{"OBJECTID":8560,"LANDMARKID":"6300000001601","LANDMARKCO":"303","LANDMARKNA":"中興嘟嘟房停車場-萬華站","LANDMARKAD":"6300007","ADDRESS":"台北市萬華區水源路213巷","TEL":" ","COUNTYNAME":"台北市","TOWNNAME":"萬華區","MARKTYPE":"993","Class":"303"},"geometry":{"x":121.49886562395014,"y":25.020093573678295}},{"attributes":{"OBJECTID":8561,"LANDMARKID":"6300000000837","LANDMARKCO":"301","LANDMARKNA":"萬華火車站(西站)","LANDMARKAD":"6300007","ADDRESS":"台北市萬華區富福里康定路382號","TEL":"02-23020481","COUNTYNAME":"台北市","TOWNNAME":"萬華區","MARKTYPE":"993","Class":"301"},"geometry":{"x":121.5002656256232,"y":25.03356670661147}},{"attributes":{"OBJECTID":8562,"LANDMARKID":"6300000000838","LANDMARKCO":"301","LANDMARKNA":"萬華火車站(東站)","LANDMARKAD":"6300007","ADDRESS":"台北市萬華區富福里康定路319號","TEL":"02-23063715","COUNTYNAME":"台北市","TOWNNAME":"萬華區","MARKTYPE":"993","Class":"301"},"geometry":{"x":121.50131192630064,"y":25.033616891889249}},{"attributes":{"OBJECTID":8563,"LANDMARKID":"6300000002156","LANDMARKCO":"402","LANDMARKNA":"中華電信-台北萬華特約服務中心","LANDMARKAD":"6300007","ADDRESS":"台北市西園路一段154號","TEL":"02-23080066","COUNTYNAME":"台北市","TOWNNAME":"萬華區","MARKTYPE":"994","Class":"4"},"geometry":{"x":121.49936902153169,"y":25.037302590633669}},{"attributes":{"OBJECTID":8564,"LANDMARKID":"6300000002157","LANDMARKCO":"402","LANDMARKNA":"中華電信-台北西門特約服務中心","LANDMARKAD":"6300007","ADDRESS":"台北市西寧南路36號","TEL":"02-23317979","COUNTYNAME":"台北市","TOWNNAME":"萬華區","MARKTYPE":"994","Class":"4"},"geometry":{"x":121.50664685142797,"y":25.045587291553865}},{"attributes":{"OBJECTID":8565,"LANDMARKID":"6300000002158","LANDMARKCO":"402","LANDMARKNA":"遠傳電信-西門門市","LANDMARKAD":"6300007","ADDRESS":"台北市萬華區漢中街35號","TEL":" ","COUNTYNAME":"台北市","TOWNNAME":"萬華區","MARKTYPE":"994","Class":"4"},"geometry":{"x":121.50775208212367,"y":25.045010967089226}},{"attributes":{"OBJECTID":8566,"LANDMARKID":"6300000002159","LANDMARKCO":"402","LANDMARKNA":"威寶電信-台北西寧南特約服務中心","LANDMARKAD":"6300007","ADDRESS":"台北市萬華區西寧南路111號","TEL":"02-23119361","COUNTYNAME":"台北市","TOWNNAME":"萬華區","MARKTYPE":"994","Class":"4"},"geometry":{"x":121.50668144549239,"y":25.044973136404931}},{"attributes":{"OBJECTID":8567,"LANDMARKID":"6300000002160","LANDMARKCO":"402","LANDMARKNA":"大眾電信(震旦通訊)-台北西園店","LANDMARKAD":"6300007","ADDRESS":"台北市西園路二段235號","TEL":"02-23390022","COUNTYNAME":"台北市","TOWNNAME":"萬華區","MARKTYPE":"994","Class":"4"},"geometry":{"x":121.49369964661022,"y":25.02666881018672}},{"attributes":{"OBJECTID":8568,"LANDMARKID":"6300000002161","LANDMARKCO":"402","LANDMARKNA":"大眾電信(渥克門科技)-西寧門市","LANDMARKAD":"6300007","ADDRESS":"台北市西寧南路36-57號","TEL":"0968-666222","COUNTYNAME":"台北市","TOWNNAME":"萬華區","MARKTYPE":"994","Class":"4"},"geometry":{"x":121.50637676096596,"y":25.045282174262788}},{"attributes":{"OBJECTID":8569,"LANDMARKID":"6300000002162","LANDMARKCO":"402","LANDMARKNA":"大眾電信(震旦通訊)-台北西寧店","LANDMARKAD":"6300007","ADDRESS":"台北市西寧南路36-65號","TEL":"02-23110789","COUNTYNAME":"台北市","TOWNNAME":"萬華區","MARKTYPE":"994","Class":"4"},"geometry":{"x":121.5064158079376,"y":25.045209681849823}},{"attributes":{"OBJECTID":8570,"LANDMARKID":"6300000002163","LANDMARKCO":"402","LANDMARKNA":"大眾電信(震旦通訊)-台北萬大店","LANDMARKAD":"6300007","ADDRESS":"台北市萬大路269號","TEL":"02-23012382","COUNTYNAME":"台北市","TOWNNAME":"萬華區","MARKTYPE":"994","Class":"4"},"geometry":{"x":121.50058758330002,"y":25.025603257692257}},{"attributes":{"OBJECTID":8571,"LANDMARKID":"6300000002164","LANDMARKCO":"402","LANDMARKNA":"大眾電信(傑昇通信)-西園店","LANDMARKAD":"6300007","ADDRESS":"台北市萬華區寶興街46號","TEL":"02-23079559","COUNTYNAME":"台北市","TOWNNAME":"萬華區","MARKTYPE":"994","Class":"4"},"geometry":{"x":121.49347536129228,"y":25.027121712758067}},{"attributes":{"OBJECTID":8572,"LANDMARKID":"6300000002165","LANDMARKCO":"402","LANDMARKNA":"大眾電信-西寧專賣店","LANDMARKAD":"6300007","ADDRESS":"台北市中正區西寧南路36-57號","TEL":"0968-666-222","COUNTYNAME":"台北市","TOWNNAME":"萬華區","MARKTYPE":"994","Class":"4"},"geometry":{"x":121.50663115873012,"y":25.04618641450665}},{"attributes":{"OBJECTID":8573,"LANDMARKID":"6300000003498","LANDMARKCO":"603","LANDMARKNA":"富粧商務旅店","LANDMARKAD":"6300007","ADDRESS":"台北市萬華區康定路6-8號2-5樓","TEL":"02-23711247","COUNTYNAME":"台北市","TOWNNAME":"萬華區","MARKTYPE":"996","Class":"6"},"geometry":{"x":121.50321414724493,"y":25.04546060188186}},{"attributes":{"OBJECTID":8574,"LANDMARKID":"6300000003499","LANDMARKCO":"603","LANDMARKNA":"夜光大旅社","LANDMARKAD":"6300007","ADDRESS":"台北市萬華區內江街55巷11號1-4","TEL":"2-4樓","COUNTYNAME":"台北市","TOWNNAME":"萬華區","MARKTYPE":"996","Class":"6"},"geometry":{"x":121.50532362229181,"y":25.042306442896333}},{"attributes":{"OBJECTID":8575,"LANDMARKID":"6300000003500","LANDMARKCO":"603","LANDMARKNA":"華冠大旅社","LANDMARKAD":"6300007","ADDRESS":"台北市萬華區西昌街137-139號1-6樓","TEL":"02-23616076","COUNTYNAME":"台北市","TOWNNAME":"萬華區","MARKTYPE":"996","Class":"6"},"geometry":{"x":121.5006991967187,"y":25.039922725213767}},{"attributes":{"OBJECTID":8576,"LANDMARKID":"6300000003501","LANDMARKCO":"603","LANDMARKNA":"紅菱閣賓館","LANDMARKAD":"6300007","ADDRESS":"台北市萬華區峨嵋街80號","TEL":"02-23619696","COUNTYNAME":"台北市","TOWNNAME":"萬華區","MARKTYPE":"996","Class":"6"},"geometry":{"x":121.50424793490781,"y":25.044096096674028}},{"attributes":{"OBJECTID":8577,"LANDMARKID":"6300000003502","LANDMARKCO":"603","LANDMARKNA":"聯賓大旅社","LANDMARKAD":"6300007","ADDRESS":"台北市萬華區西園路一段148號","TEL":"02-23062357","COUNTYNAME":"台北市","TOWNNAME":"萬華區","MARKTYPE":"996","Class":"6"},"geometry":{"x":121.49943030524024,"y":25.03752788443451}},{"attributes":{"OBJECTID":8578,"LANDMARKID":"6300000003503","LANDMARKCO":"603","LANDMARKNA":"國都旅社","LANDMARKAD":"6300007","ADDRESS":"台北市萬華區昆明街287號","TEL":"02-23087477","COUNTYNAME":"台北市","TOWNNAME":"萬華區","MARKTYPE":"996","Class":"6"},"geometry":{"x":121.50360320609595,"y":25.036425994698927}},{"attributes":{"OBJECTID":8579,"LANDMARKID":"6300000003504","LANDMARKCO":"603","LANDMARKNA":"宓琪賓館","LANDMARKAD":"6300007","ADDRESS":"台北市萬華區昆明街34號2樓","TEL":"02-23318638","COUNTYNAME":"台北市","TOWNNAME":"萬華區","MARKTYPE":"996","Class":"6"},"geometry":{"x":121.50589541598946,"y":25.047009844067148}},{"attributes":{"OBJECTID":8580,"LANDMARKID":"6300000003505","LANDMARKCO":"603","LANDMARKNA":"一加一旅館","LANDMARKAD":"6300007","ADDRESS":"台北市萬華區昆明街34號3樓","TEL":"02-23892886","COUNTYNAME":"台北市","TOWNNAME":"萬華區","MARKTYPE":"996","Class":"6"},"geometry":{"x":121.50589541598946,"y":25.047009844067148}},{"attributes":{"OBJECTID":8581,"LANDMARKID":"6300000003506","LANDMARKCO":"603","LANDMARKNA":"世新旅社","LANDMARKAD":"6300007","ADDRESS":"台北市萬華區昆明街34號4樓","TEL":"02-23112848","COUNTYNAME":"台北市","TOWNNAME":"萬華區","MARKTYPE":"996","Class":"6"},"geometry":{"x":121.50589541598946,"y":25.047009844067148}},{"attributes":{"OBJECTID":8582,"LANDMARKID":"6300000003507","LANDMARKCO":"603","LANDMARKNA":"黛芬旅館","LANDMARKAD":"6300007","ADDRESS":"台北市萬華區昆明街76號3樓","TEL":"02-23719751","COUNTYNAME":"台北市","TOWNNAME":"萬華區","MARKTYPE":"996","Class":"6"},"geometry":{"x":121.50553830366917,"y":25.045756953825041}},{"attributes":{"OBJECTID":8583,"LANDMARKID":"6300000003508","LANDMARKCO":"603","LANDMARKNA":"金麗麗旅社","LANDMARKAD":"6300007","ADDRESS":"台北市萬華區長沙街二段11號10樓","TEL":"02-23886235","COUNTYNAME":"台北市","TOWNNAME":"萬華區","MARKTYPE":"996","Class":"6"},"geometry":{"x":121.50694664831931,"y":25.040701053635441}},{"attributes":{"OBJECTID":8584,"LANDMARKID":"6300000003509","LANDMARKCO":"603","LANDMARKNA":"松林大旅社","LANDMARKAD":"6300007","ADDRESS":"台北市萬華區桂林路174號3-4樓","TEL":"176號1-4樓","COUNTYNAME":"台北市","TOWNNAME":"萬華區","MARKTYPE":"996","Class":"6"},"geometry":{"x":121.49728710890261,"y":25.038427026592416}},{"attributes":{"OBJECTID":8585,"LANDMARKID":"6300000003510","LANDMARKCO":"603","LANDMARKNA":"直興旅館","LANDMARKAD":"6300007","ADDRESS":"台北市萬華區康定路172巷2號2樓","TEL":"02-23817021","COUNTYNAME":"台北市","TOWNNAME":"萬華區","MARKTYPE":"996","Class":"6"},"geometry":{"x":121.50160336651908,"y":25.039264977824494}},{"attributes":{"OBJECTID":8586,"LANDMARKID":"6300000003511","LANDMARKCO":"603","LANDMARKNA":"帝華旅社","LANDMARKAD":"6300007","ADDRESS":"台北市萬華區康定路206號11-12樓","TEL":"02-23118411","COUNTYNAME":"台北市","TOWNNAME":"萬華區","MARKTYPE":"996","Class":"6"},"geometry":{"x":121.50171860206827,"y":25.038641289748657}},{"attributes":{"OBJECTID":8587,"LANDMARKID":"6300000003512","LANDMARKCO":"603","LANDMARKNA":"良夜大飯店","LANDMARKAD":"6300007","ADDRESS":"台北市萬華區康定路25巷13號","TEL":"02-23817834","COUNTYNAME":"台北市","TOWNNAME":"萬華區","MARKTYPE":"996","Class":"6"},"geometry":{"x":121.50330507759031,"y":25.043957483897135}},{"attributes":{"OBJECTID":8588,"LANDMARKID":"6300000003513","LANDMARKCO":"603","LANDMARKNA":"東龍大飯店","LANDMARKAD":"6300007","ADDRESS":"台北市萬華區漢口街二段23號1-7樓","TEL":"02-2311-6969","COUNTYNAME":"台北市","TOWNNAME":"萬華區","MARKTYPE":"996","Class":"6"},"geometry":{"x":121.50796413169063,"y":25.045488012804114}},{"attributes":{"OBJECTID":8589,"LANDMARKID":"6300000003514","LANDMARKCO":"603","LANDMARKNA":"來來旅館","LANDMARKAD":"6300007","ADDRESS":"台北市萬華區漢口街二段74巷2號1-2樓","TEL":"02-23142921","COUNTYNAME":"台北市","TOWNNAME":"萬華區","MARKTYPE":"996","Class":"6"},"geometry":{"x":121.50468582266164,"y":25.045735665967854}},{"attributes":{"OBJECTID":8590,"LANDMARKID":"6300000003515","LANDMARKCO":"603","LANDMARKNA":"金夜大飯店","LANDMARKAD":"6300007","ADDRESS":"台北市萬華區漢中街147巷6號1-4樓","TEL":"02-23116606","COUNTYNAME":"台北市","TOWNNAME":"萬華區","MARKTYPE":"996","Class":"6"},"geometry":{"x":121.50754731923115,"y":25.041437267202372}},{"attributes":{"OBJECTID":8591,"LANDMARKID":"6300000003516","LANDMARKCO":"603","LANDMARKNA":"大順大飯店","LANDMARKAD":"6300007","ADDRESS":"台北市萬華區漢中街170號2-6樓","TEL":"02-23818710","COUNTYNAME":"台北市","TOWNNAME":"萬華區","MARKTYPE":"996","Class":"6"},"geometry":{"x":121.50645376242744,"y":25.041020402788593}},{"attributes":{"OBJECTID":8592,"LANDMARKID":"6300000003517","LANDMARKCO":"603","LANDMARKNA":"凰殿大飯店 (長虹)","LANDMARKAD":"6300007","ADDRESS":"台北市萬華區漢中街36號1","TEL":"3-8樓","COUNTYNAME":"台北市","TOWNNAME":"萬華區","MARKTYPE":"996","Class":"6"},"geometry":{"x":121.50742059842457,"y":25.044471538550241}},{"attributes":{"OBJECTID":8593,"LANDMARKID":"6300000003518","LANDMARKCO":"603","LANDMARKNA":"宏洲旅社","LANDMARKAD":"6300007","ADDRESS":"台北市萬華區漢中街4號1-7樓","TEL":"02-23319841","COUNTYNAME":"台北市","TOWNNAME":"萬華區","MARKTYPE":"996","Class":"6"},"geometry":{"x":121.50783879860985,"y":25.045913197049444}},{"attributes":{"OBJECTID":8594,"LANDMARKID":"6300000003519","LANDMARKCO":"603","LANDMARKNA":"富園國際商務飯店","LANDMARKAD":"6300007","ADDRESS":"台北市萬華區中華路1段178號","TEL":"02-23887890","COUNTYNAME":"台北市","TOWNNAME":"萬華區","MARKTYPE":"996","Class":"6"},"geometry":{"x":121.50701323119243,"y":25.039156771185095}},{"attributes":{"OBJECTID":8595,"LANDMARKID":"6300000003520","LANDMARKCO":"603","LANDMARKNA":"西門大飯店","LANDMARKAD":"6300007","ADDRESS":"台北市萬華區中華路1段78號4-5樓","TEL":"02-23819922","COUNTYNAME":"台北市","TOWNNAME":"萬華區","MARKTYPE":"996","Class":"6"},"geometry":{"x":121.50885673676758,"y":25.045572637239474}},{"attributes":{"OBJECTID":8596,"LANDMARKID":"6300000003521","LANDMARKCO":"603","LANDMARKNA":"萬事達旅店","LANDMARKAD":"6300007","ADDRESS":"台北市萬華區中華路1段82號1-9樓","TEL":"02-23820889","COUNTYNAME":"台北市","TOWNNAME":"萬華區","MARKTYPE":"996","Class":"6"},"geometry":{"x":121.5087060012164,"y":25.045320879521764}},{"attributes":{"OBJECTID":8597,"LANDMARKID":"6300000003522","LANDMARKCO":"603","LANDMARKNA":"晶樺商務旅店","LANDMARKAD":"6300007","ADDRESS":"台北市萬華區西園路一段168號10樓","TEL":"02-23043795","COUNTYNAME":"台北市","TOWNNAME":"萬華區","MARKTYPE":"996","Class":"6"},"geometry":{"x":121.49926598160377,"y":25.036815758047389}},{"attributes":{"OBJECTID":8598,"LANDMARKID":"6300000003523","LANDMARKCO":"603","LANDMARKNA":"美上美旅館","LANDMARKAD":"6300007","ADDRESS":"台北市萬華區西園路一段168號11樓","TEL":"02-23088105","COUNTYNAME":"台北市","TOWNNAME":"萬華區","MARKTYPE":"996","Class":"6"},"geometry":{"x":121.49926598160377,"y":25.036815758047389}},{"attributes":{"OBJECTID":8599,"LANDMARKID":"6300000003524","LANDMARKCO":"603","LANDMARKNA":"乃晶旅社","LANDMARKAD":"6300007","ADDRESS":"台北市萬華區西園路一段168號12樓","TEL":"02-23043795","COUNTYNAME":"台北市","TOWNNAME":"萬華區","MARKTYPE":"996","Class":"6"},"geometry":{"x":121.49926598160377,"y":25.036815758047389}},{"attributes":{"OBJECTID":8600,"LANDMARKID":"6300000003525","LANDMARKCO":"603","LANDMARKNA":"內江賓館","LANDMARKAD":"6300007","ADDRESS":"台北市萬華區西寧南路112號3-6樓","TEL":"02-23812147-8","COUNTYNAME":"台北市","TOWNNAME":"萬華區","MARKTYPE":"996","Class":"6"},"geometry":{"x":121.505932920831,"y":25.041556617540085}}]}