{"displayFieldName":"COUNTYNAME","fieldAliases":{"OBJECTID":"OBJECTID","LANDMARKID":"LANDMARKID","LANDMARKCO":"LANDMARKCO","LANDMARKNA":"LANDMARKNA","LANDMARKAD":"LANDMARKAD","ADDRESS":"ADDRESS","TEL":"TEL","COUNTYNAME":"COUNTYNAME","TOWNNAME":"TOWNNAME","MARKTYPE":"MARKTYPE","Class":"Class"},"geometryType":"esriGeometryPoint","spatialReference":{"wkid":4326},"fields":[{"name":"OBJECTID","type":"esriFieldTypeOID","alias":"OBJECTID"},{"name":"LANDMARKID","type":"esriFieldTypeString","alias":"LANDMARKID","length":15},{"name":"LANDMARKCO","type":"esriFieldTypeString","alias":"LANDMARKCO","length":15},{"name":"LANDMARKNA","type":"esriFieldTypeString","alias":"LANDMARKNA","length":50},{"name":"LANDMARKAD","type":"esriFieldTypeString","alias":"LANDMARKAD","length":15},{"name":"ADDRESS","type":"esriFieldTypeString","alias":"ADDRESS","length":56},{"name":"TEL","type":"esriFieldTypeString","alias":"TEL","length":36},{"name":"COUNTYNAME","type":"esriFieldTypeString","alias":"COUNTYNAME","length":15},{"name":"TOWNNAME","type":"esriFieldTypeString","alias":"TOWNNAME","length":13},{"name":"MARKTYPE","type":"esriFieldTypeString","alias":"MARKTYPE","length":12},{"name":"Class","type":"esriFieldTypeString","alias":"Class","length":5}],"features":[{"attributes":{"OBJECTID":12601,"LANDMARKID":"1000600001336","LANDMARKCO":"513","LANDMARKNA":"南湖大山","LANDMARKAD":"1000621","ADDRESS":"台中市和平區","TEL":" ","COUNTYNAME":"台中市","TOWNNAME":"和平區","MARKTYPE":"995","Class":"5"},"geometry":{"x":121.43938255197479,"y":24.361803125127199}},{"attributes":{"OBJECTID":12602,"LANDMARKID":"1000600001337","LANDMARKCO":"513","LANDMARKNA":"中央尖山","LANDMARKAD":"1000621","ADDRESS":"台中市和平區","TEL":" ","COUNTYNAME":"台中市","TOWNNAME":"和平區","MARKTYPE":"995","Class":"5"},"geometry":{"x":121.41623191758947,"y":24.31022552542764}},{"attributes":{"OBJECTID":12603,"LANDMARKID":"1000600001338","LANDMARKCO":"513","LANDMARKNA":"大劍山","LANDMARKAD":"1000621","ADDRESS":"台中市和平區","TEL":" ","COUNTYNAME":"台中市","TOWNNAME":"和平區","MARKTYPE":"995","Class":"5"},"geometry":{"x":121.20050353487007,"y":24.340945715959549}},{"attributes":{"OBJECTID":12604,"LANDMARKID":"1000600001339","LANDMARKCO":"513","LANDMARKNA":"品田山","LANDMARKAD":"1000621","ADDRESS":"台中市和平區","TEL":" ","COUNTYNAME":"台中市","TOWNNAME":"和平區","MARKTYPE":"995","Class":"5"},"geometry":{"x":121.26683235041916,"y":24.428219628747442}},{"attributes":{"OBJECTID":12605,"LANDMARKID":"1000600001340","LANDMARKCO":"513","LANDMARKNA":"頭鷹山","LANDMARKAD":"1000621","ADDRESS":"台中市和平區","TEL":" ","COUNTYNAME":"台中市","TOWNNAME":"和平區","MARKTYPE":"995","Class":"5"},"geometry":{"x":121.14073136000496,"y":24.359612597826775}},{"attributes":{"OBJECTID":12606,"LANDMARKID":"1000600001341","LANDMARKCO":"513","LANDMARKNA":"白姑大山","LANDMARKAD":"1000621","ADDRESS":"台中市和平區","TEL":" ","COUNTYNAME":"台中市","TOWNNAME":"和平區","MARKTYPE":"995","Class":"5"},"geometry":{"x":121.10897739785263,"y":24.202681726424913}},{"attributes":{"OBJECTID":12607,"LANDMARKID":"1000600001342","LANDMARKCO":"513","LANDMARKNA":"志佳陽大山","LANDMARKAD":"1000621","ADDRESS":"台中市和平區","TEL":" ","COUNTYNAME":"台中市","TOWNNAME":"和平區","MARKTYPE":"995","Class":"5"},"geometry":{"x":121.2513411212046,"y":24.357780096414519}},{"attributes":{"OBJECTID":12608,"LANDMARKID":"1000600001343","LANDMARKCO":"513","LANDMARKNA":"桃山","LANDMARKAD":"1000621","ADDRESS":"台中市和平區","TEL":" ","COUNTYNAME":"台中市","TOWNNAME":"和平區","MARKTYPE":"995","Class":"5"},"geometry":{"x":121.30492361636426,"y":24.43262195165503}},{"attributes":{"OBJECTID":12609,"LANDMARKID":"1000600001344","LANDMARKCO":"513","LANDMARKNA":"佳陽山","LANDMARKAD":"1000621","ADDRESS":"台中市和平區","TEL":" ","COUNTYNAME":"台中市","TOWNNAME":"和平區","MARKTYPE":"995","Class":"5"},"geometry":{"x":121.1880138996449,"y":24.306630499547882}},{"attributes":{"OBJECTID":12610,"LANDMARKID":"1000600001345","LANDMARKCO":"513","LANDMARKNA":"鈴鳴山","LANDMARKAD":"1000621","ADDRESS":"台中市和平區","TEL":" ","COUNTYNAME":"台中市","TOWNNAME":"和平區","MARKTYPE":"995","Class":"5"},"geometry":{"x":121.35167431063184,"y":24.244378196568654}},{"attributes":{"OBJECTID":12611,"LANDMARKID":"1000600001346","LANDMARKCO":"513","LANDMARKNA":"劍山","LANDMARKAD":"1000621","ADDRESS":"台中市和平區","TEL":" ","COUNTYNAME":"台中市","TOWNNAME":"和平區","MARKTYPE":"995","Class":"5"},"geometry":{"x":121.17021528495654,"y":24.295574005229504}},{"attributes":{"OBJECTID":12612,"LANDMARKID":"1000600001347","LANDMARKCO":"513","LANDMARKNA":"雪山東峰","LANDMARKAD":"1000621","ADDRESS":"台中市和平區","TEL":" ","COUNTYNAME":"台中市","TOWNNAME":"和平區","MARKTYPE":"995","Class":"5"},"geometry":{"x":121.27209711190045,"y":24.38868491661432}},{"attributes":{"OBJECTID":12613,"LANDMARKID":"1000600001348","LANDMARKCO":"513","LANDMARKNA":"閂山","LANDMARKAD":"1000621","ADDRESS":"台中市和平區","TEL":" ","COUNTYNAME":"台中市","TOWNNAME":"和平區","MARKTYPE":"995","Class":"5"},"geometry":{"x":121.30987980412533,"y":24.258709286894344}},{"attributes":{"OBJECTID":12614,"LANDMARKID":"1000600001349","LANDMARKCO":"513","LANDMARKNA":"甘藷峰","LANDMARKAD":"1000621","ADDRESS":"台中市和平區","TEL":" ","COUNTYNAME":"台中市","TOWNNAME":"和平區","MARKTYPE":"995","Class":"5"},"geometry":{"x":121.38984337098613,"y":24.290390090730394}},{"attributes":{"OBJECTID":12615,"LANDMARKID":"1000600001350","LANDMARKCO":"513","LANDMARKNA":"南湖大山東峰","LANDMARKAD":"1000621","ADDRESS":"台中市和平區","TEL":" ","COUNTYNAME":"台中市","TOWNNAME":"和平區","MARKTYPE":"995","Class":"5"},"geometry":{"x":121.45068758314844,"y":24.365895614182314}},{"attributes":{"OBJECTID":12616,"LANDMARKID":"1000600001351","LANDMARKCO":"513","LANDMARKNA":"南湖大山南峰","LANDMARKAD":"1000621","ADDRESS":"台中市和平區","TEL":" ","COUNTYNAME":"台中市","TOWNNAME":"和平區","MARKTYPE":"995","Class":"5"},"geometry":{"x":121.43460296932595,"y":24.347783378900957}},{"attributes":{"OBJECTID":12617,"LANDMARKID":"1000600000977","LANDMARKCO":"405","LANDMARKNA":"中油加油站-豐原交流道站(中油直營)","LANDMARKAD":"1000608","ADDRESS":"台中市神岡區岸裡村中山路88號","TEL":"04-25228204","COUNTYNAME":"台中市","TOWNNAME":"神岡區","MARKTYPE":"994","Class":"4"},"geometry":{"x":120.69631761212293,"y":24.248815476863182}},{"attributes":{"OBJECTID":12618,"LANDMARKID":"1000600000978","LANDMARKCO":"405","LANDMARKNA":"中油加油站-豐洲站","LANDMARKAD":"1000608","ADDRESS":"台中市神岡區豐洲村豐洲路535號","TEL":"04-5246933","COUNTYNAME":"台中市","TOWNNAME":"神岡區","MARKTYPE":"994","Class":"4"},"geometry":{"x":120.70224487617794,"y":24.262204963272666}},{"attributes":{"OBJECTID":12619,"LANDMARKID":"1000600000979","LANDMARKCO":"405","LANDMARKNA":"中油加油站-瑞豐站","LANDMARKAD":"1000608","ADDRESS":"台中市神岡區岸裡村中山路1號","TEL":"04-25253797","COUNTYNAME":"台中市","TOWNNAME":"神岡區","MARKTYPE":"994","Class":"4"},"geometry":{"x":120.69893420031646,"y":24.248688315936231}},{"attributes":{"OBJECTID":12620,"LANDMARKID":"1000600000980","LANDMARKCO":"405","LANDMARKNA":"中油加油站-崇德路站","LANDMARKAD":"1000608","ADDRESS":"台中市神岡區崇德路119號","TEL":"04-25359922","COUNTYNAME":"台中市","TOWNNAME":"神岡區","MARKTYPE":"994","Class":"4"},"geometry":{"x":120.69105142205528,"y":24.23174744481426}},{"attributes":{"OBJECTID":12621,"LANDMARKID":"1000600000981","LANDMARKCO":"405","LANDMARKNA":"中油加油站-台大神岡站","LANDMARKAD":"1000608","ADDRESS":"台中市神岡區民生路119號","TEL":"04-25618371","COUNTYNAME":"台中市","TOWNNAME":"神岡區","MARKTYPE":"994","Class":"4"},"geometry":{"x":120.676344402166,"y":24.241447767322853}},{"attributes":{"OBJECTID":12622,"LANDMARKID":"1000600000982","LANDMARKCO":"405","LANDMARKNA":"中油加油站-神崗站","LANDMARKAD":"1000608","ADDRESS":"台中市神岡區中山路1130號","TEL":"04-25610541","COUNTYNAME":"台中市","TOWNNAME":"神岡區","MARKTYPE":"994","Class":"4"},"geometry":{"x":120.67074988775823,"y":24.256882133182799}},{"attributes":{"OBJECTID":12623,"LANDMARKID":"1000600000814","LANDMARKCO":"402","LANDMARKNA":"亞太行動寬頻電信-神岡中山加盟服務中心","LANDMARKAD":"1000608","ADDRESS":"台中市神岡區中山路541號","TEL":"04-25624991","COUNTYNAME":"台中市","TOWNNAME":"神岡區","MARKTYPE":"994","Class":"4"},"geometry":{"x":120.68455667894486,"y":24.246250247649346}},{"attributes":{"OBJECTID":12624,"LANDMARKID":"1000600000781","LANDMARKCO":"401","LANDMARKNA":"神岡童醫院","LANDMARKAD":"1000608","ADDRESS":"台中市神岡區社南村中山路501號","TEL":"04-25629595","COUNTYNAME":"台中市","TOWNNAME":"神岡區","MARKTYPE":"994","Class":"4"},"geometry":{"x":120.68602285453899,"y":24.246482043737256}},{"attributes":{"OBJECTID":12625,"LANDMARKID":"1000600001297","LANDMARKCO":"507","LANDMARKNA":"社口林宅","LANDMARKAD":"1000608","ADDRESS":"台中市神岡區社口村中山路600巷8、9、10號","TEL":" ","COUNTYNAME":"台中市","TOWNNAME":"神岡區","MARKTYPE":"995","Class":"5"},"geometry":{"x":120.68286162327044,"y":24.246953642519824}},{"attributes":{"OBJECTID":12626,"LANDMARKID":"1000600001298","LANDMARKCO":"507","LANDMARKNA":"神岡筱雲山莊","LANDMARKAD":"1000608","ADDRESS":"台中市神岡區三角村5鄰大豐路116號","TEL":" ","COUNTYNAME":"台中市","TOWNNAME":"神岡區","MARKTYPE":"995","Class":"5"},"geometry":{"x":120.69468210686306,"y":24.233203852715508}},{"attributes":{"OBJECTID":12627,"LANDMARKID":"1000600001200","LANDMARKCO":"408","LANDMARKNA":"郵局-神岡郵局","LANDMARKAD":"1000608","ADDRESS":"台中市神岡區神岡路4號","TEL":"(04)2562-2092","COUNTYNAME":"台中市","TOWNNAME":"神岡區","MARKTYPE":"994","Class":"4"},"geometry":{"x":120.66254336621489,"y":24.258113189221451}},{"attributes":{"OBJECTID":12628,"LANDMARKID":"1000600001201","LANDMARKCO":"408","LANDMARKNA":"郵局-神岡圳堵郵局","LANDMARKAD":"1000608","ADDRESS":"台中市神岡區神清路273號","TEL":"(04)2562-2957","COUNTYNAME":"台中市","TOWNNAME":"神岡區","MARKTYPE":"994","Class":"4"},"geometry":{"x":120.65668093342239,"y":24.271020150870601}},{"attributes":{"OBJECTID":12629,"LANDMARKID":"1000600001202","LANDMARKCO":"408","LANDMARKNA":"郵局-神岡社口郵局","LANDMARKAD":"1000608","ADDRESS":"台中市神岡區中山路611號","TEL":"(04)2562-1779","COUNTYNAME":"台中市","TOWNNAME":"神岡區","MARKTYPE":"994","Class":"4"},"geometry":{"x":120.6820528316034,"y":24.246760335319191}},{"attributes":{"OBJECTID":12630,"LANDMARKID":"1000600001203","LANDMARKCO":"408","LANDMARKNA":"郵局-神岡岸裡郵局","LANDMARKAD":"1000608","ADDRESS":"台中市神岡區中山路49號","TEL":"(04)2524-7483","COUNTYNAME":"台中市","TOWNNAME":"神岡區","MARKTYPE":"994","Class":"4"},"geometry":{"x":120.69803415775306,"y":24.248488850658113}},{"attributes":{"OBJECTID":12631,"LANDMARKID":"1000600001204","LANDMARKCO":"408","LANDMARKNA":"郵局-神岡豐洲郵局","LANDMARKAD":"1000608","ADDRESS":"台中市神岡區豐洲路359號","TEL":"(04)2513-0137","COUNTYNAME":"台中市","TOWNNAME":"神岡區","MARKTYPE":"994","Class":"4"},"geometry":{"x":120.70589097968387,"y":24.260846195018772}},{"attributes":{"OBJECTID":12632,"LANDMARKID":"1000600001205","LANDMARKCO":"408","LANDMARKNA":"郵局-神岡陽東郵局","LANDMARKAD":"1000608","ADDRESS":"台中市神岡區陽東營區勇六路","TEL":"(04)2562-5582","COUNTYNAME":"台中市","TOWNNAME":"神岡區","MARKTYPE":"994","Class":"4"},"geometry":{"x":120.64745104794943,"y":24.258678605233197}},{"attributes":{"OBJECTID":12633,"LANDMARKID":"1000600001235","LANDMARKCO":"409","LANDMARKNA":"台中市神岡區農會","LANDMARKAD":"1000608","ADDRESS":"台中市神岡區神清路35號","TEL":"04-25622551","COUNTYNAME":"台中市","TOWNNAME":"神岡區","MARKTYPE":"994","Class":"4"},"geometry":{"x":120.65840819881461,"y":24.258299646411263}},{"attributes":{"OBJECTID":12634,"LANDMARKID":"1000600000974","LANDMARKCO":"405","LANDMARKNA":"全國加油站-豐交站（台塑）","LANDMARKAD":"1000608","ADDRESS":"台中市神岡區中山路255號","TEL":"04-25151242","COUNTYNAME":"台中市","TOWNNAME":"神岡區","MARKTYPE":"994","Class":"4"},"geometry":{"x":120.69299124947958,"y":24.248024388935956}},{"attributes":{"OBJECTID":12635,"LANDMARKID":"1000600000975","LANDMARKCO":"405","LANDMARKNA":"全國加油站-神岡站（台塑）","LANDMARKAD":"1000608","ADDRESS":"台中市神岡區北庄村中山路1221號","TEL":"04-25618881","COUNTYNAME":"台中市","TOWNNAME":"神岡區","MARKTYPE":"994","Class":"4"},"geometry":{"x":120.69531076074863,"y":24.248753520012194}},{"attributes":{"OBJECTID":12636,"LANDMARKID":"1000600000976","LANDMARKCO":"405","LANDMARKNA":"福懋加油站-神岡站(台塑)","LANDMARKAD":"1000608","ADDRESS":"台中市神岡區社南村中山路853號","TEL":"04-25633926","COUNTYNAME":"台中市","TOWNNAME":"神岡區","MARKTYPE":"994","Class":"4"},"geometry":{"x":120.67450712626155,"y":24.2518322899646}},{"attributes":{"OBJECTID":12637,"LANDMARKID":"1000600000254","LANDMARKCO":"108","LANDMARKNA":"台中市神岡區公所","LANDMARKAD":"1000608","ADDRESS":"台中市神岡區神岡路30號","TEL":"04-25620841","COUNTYNAME":"台中市","TOWNNAME":"神岡區","MARKTYPE":"991","Class":"1"},"geometry":{"x":120.66139002062111,"y":24.258069147947825}},{"attributes":{"OBJECTID":12638,"LANDMARKID":"1000600000069","LANDMARKCO":"103","LANDMARKNA":"台中市神岡區鄉民代表會","LANDMARKAD":"1000608","ADDRESS":"台中市神岡區神岡路30號","TEL":"04-25610969","COUNTYNAME":"台中市","TOWNNAME":"神岡區","MARKTYPE":"991","Class":"1"},"geometry":{"x":120.66139002062111,"y":24.258069147947825}},{"attributes":{"OBJECTID":12639,"LANDMARKID":"1000600000193","LANDMARKCO":"107","LANDMARKNA":"台中市警察局社口派出所","LANDMARKAD":"1000608","ADDRESS":"台中市神岡區社口村中山路516號","TEL":"04-25625392","COUNTYNAME":"台中市","TOWNNAME":"神岡區","MARKTYPE":"991","Class":"1"},"geometry":{"x":120.68528723457328,"y":24.247000659925664}},{"attributes":{"OBJECTID":12640,"LANDMARKID":"1000600000194","LANDMARKCO":"107","LANDMARKNA":"台中市警察局神岡分駐所","LANDMARKAD":"1000608","ADDRESS":"台中市神岡區神岡村神岡路121號","TEL":"04-25622422","COUNTYNAME":"台中市","TOWNNAME":"神岡區","MARKTYPE":"991","Class":"1"},"geometry":{"x":120.65886357689283,"y":24.25642156593166}},{"attributes":{"OBJECTID":12641,"LANDMARKID":"1000600000107","LANDMARKCO":"106","LANDMARKNA":"台中市神岡區戶政事務所","LANDMARKAD":"1000608","ADDRESS":"臺中縣神岡區神岡路121之1號","TEL":"04-25622183","COUNTYNAME":"台中市","TOWNNAME":"神岡區","MARKTYPE":"991","Class":"1"},"geometry":{"x":120.65874260171655,"y":24.256520615437442}},{"attributes":{"OBJECTID":12642,"LANDMARKID":"1000600000192","LANDMARKCO":"107","LANDMARKNA":"台中市消防局神岡分隊","LANDMARKAD":"1000608","ADDRESS":"台中市神岡區厚生路9號","TEL":"04-25622304","COUNTYNAME":"台中市","TOWNNAME":"神岡區","MARKTYPE":"991","Class":"1"},"geometry":{"x":120.67086065829832,"y":24.257001835210609}},{"attributes":{"OBJECTID":12643,"LANDMARKID":"1000600000068","LANDMARKCO":"103","LANDMARKNA":"台中市神岡區衛生所","LANDMARKAD":"1000608","ADDRESS":"台中市神岡區神岡路2號","TEL":"04-25622792","COUNTYNAME":"台中市","TOWNNAME":"神岡區","MARKTYPE":"991","Class":"1"},"geometry":{"x":120.66278668980361,"y":24.258288352063467}},{"attributes":{"OBJECTID":12644,"LANDMARKID":"1000600000548","LANDMARKCO":"204","LANDMARKNA":"台中市立圖書館神岡分館","LANDMARKAD":"1000608","ADDRESS":"台中市神岡區中山路1460號","TEL":" ","COUNTYNAME":"台中市","TOWNNAME":"神岡區","MARKTYPE":"992","Class":"2"},"geometry":{"x":120.66095086550884,"y":24.259104959183592}},{"attributes":{"OBJECTID":12645,"LANDMARKID":"1000600000401","LANDMARKCO":"203","LANDMARKNA":"縣立神岡國中","LANDMARKAD":"1000608","ADDRESS":"台中市神岡區中正路627號","TEL":"04-25623421","COUNTYNAME":"台中市","TOWNNAME":"神岡區","MARKTYPE":"992","Class":"2"},"geometry":{"x":120.68136430829867,"y":24.246594928536414}},{"attributes":{"OBJECTID":12646,"LANDMARKID":"1000600000402","LANDMARKCO":"203","LANDMARKNA":"縣立神圳國中","LANDMARKAD":"1000608","ADDRESS":"台中市神岡區神清路61號","TEL":"04-25624669","COUNTYNAME":"台中市","TOWNNAME":"神岡區","MARKTYPE":"992","Class":"2"},"geometry":{"x":120.6581465586343,"y":24.260954103305565}},{"attributes":{"OBJECTID":12647,"LANDMARKID":"1000600000403","LANDMARKCO":"203","LANDMARKNA":"縣立圳堵國小","LANDMARKAD":"1000608","ADDRESS":"台中市神岡區圳堵村5鄰和睦路70號","TEL":"04-25623734","COUNTYNAME":"台中市","TOWNNAME":"神岡區","MARKTYPE":"992","Class":"2"},"geometry":{"x":120.65881676379038,"y":24.273062638054327}},{"attributes":{"OBJECTID":12648,"LANDMARKID":"1000600000404","LANDMARKCO":"203","LANDMARKNA":"縣立岸裡國小","LANDMARKAD":"1000608","ADDRESS":"台中市神岡區中山路52號","TEL":"04-25222215","COUNTYNAME":"台中市","TOWNNAME":"神岡區","MARKTYPE":"992","Class":"2"},"geometry":{"x":120.69735139089961,"y":24.249532265542655}},{"attributes":{"OBJECTID":12649,"LANDMARKID":"1000600000405","LANDMARKCO":"203","LANDMARKNA":"縣立社口國小","LANDMARKAD":"1000608","ADDRESS":"台中市神岡區社南村民族路23號","TEL":"04-25626834#31","COUNTYNAME":"台中市","TOWNNAME":"神岡區","MARKTYPE":"992","Class":"2"},"geometry":{"x":120.68470247664315,"y":24.245700556192062}},{"attributes":{"OBJECTID":12650,"LANDMARKID":"1000600000406","LANDMARKCO":"203","LANDMARKNA":"縣立神岡國小","LANDMARKAD":"1000608","ADDRESS":"台中市神岡區神岡村神圳路1號","TEL":"04-25622406","COUNTYNAME":"台中市","TOWNNAME":"神岡區","MARKTYPE":"992","Class":"2"},"geometry":{"x":120.66069823705459,"y":24.258405439924534}},{"attributes":{"OBJECTID":12651,"LANDMARKID":"1000600000407","LANDMARKCO":"203","LANDMARKNA":"縣立豐洲國小","LANDMARKAD":"1000608","ADDRESS":"台中市神岡區豐洲村豐洲路482號","TEL":"04-25223351","COUNTYNAME":"台中市","TOWNNAME":"神岡區","MARKTYPE":"992","Class":"2"},"geometry":{"x":120.70393796287387,"y":24.262572472505859}},{"attributes":{"OBJECTID":12652,"LANDMARKID":"1000600000734","LANDMARKCO":"308","LANDMARKNA":"國1-豐原交流道-北上","LANDMARKAD":"1000608","ADDRESS":"台中市神岡區","TEL":" ","COUNTYNAME":"台中市","TOWNNAME":"神岡區","MARKTYPE":"993","Class":"308"},"geometry":{"x":120.69097788892678,"y":24.253205629724455}},{"attributes":{"OBJECTID":12653,"LANDMARKID":"1000600000735","LANDMARKCO":"308","LANDMARKNA":"國4-台中系統交流道-北上","LANDMARKAD":"1000608","ADDRESS":"台中市神岡區","TEL":" ","COUNTYNAME":"台中市","TOWNNAME":"神岡區","MARKTYPE":"993","Class":"308"},"geometry":{"x":120.69337036881757,"y":24.27338115581637}},{"attributes":{"OBJECTID":12654,"LANDMARKID":"1000600000736","LANDMARKCO":"308","LANDMARKNA":"國4-台中系統交流道-南下","LANDMARKAD":"1000608","ADDRESS":"台中市神岡區","TEL":" ","COUNTYNAME":"台中市","TOWNNAME":"神岡區","MARKTYPE":"993","Class":"308"},"geometry":{"x":120.69230185909905,"y":24.267919210604074}},{"attributes":{"OBJECTID":12655,"LANDMARKID":"1000600000737","LANDMARKCO":"308","LANDMARKNA":"國4-台中系統交流道-西行","LANDMARKAD":"1000608","ADDRESS":"台中市神岡區","TEL":" ","COUNTYNAME":"台中市","TOWNNAME":"神岡區","MARKTYPE":"993","Class":"308"},"geometry":{"x":120.68896892313809,"y":24.270584332378753}},{"attributes":{"OBJECTID":12656,"LANDMARKID":"1000600000738","LANDMARKCO":"308","LANDMARKNA":"國4-神岡交流道-北上","LANDMARKAD":"1000608","ADDRESS":"台中市神岡區","TEL":" ","COUNTYNAME":"台中市","TOWNNAME":"神岡區","MARKTYPE":"993","Class":"308"},"geometry":{"x":120.66628314588442,"y":24.281025102349144}},{"attributes":{"OBJECTID":12657,"LANDMARKID":"1000600000739","LANDMARKCO":"308","LANDMARKNA":"國1-豐原交流道-南下","LANDMARKAD":"1000608","ADDRESS":"台中市神岡區","TEL":" ","COUNTYNAME":"台中市","TOWNNAME":"神岡區","MARKTYPE":"993","Class":"308"},"geometry":{"x":120.68980988411762,"y":24.249581565807315}},{"attributes":{"OBJECTID":12658,"LANDMARKID":"1000600000740","LANDMARKCO":"308","LANDMARKNA":"國4-神岡交流道-南下","LANDMARKAD":"1000608","ADDRESS":"台中市神岡區","TEL":" ","COUNTYNAME":"台中市","TOWNNAME":"神岡區","MARKTYPE":"993","Class":"308"},"geometry":{"x":120.67111577993423,"y":24.275951298587824}},{"attributes":{"OBJECTID":12659,"LANDMARKID":"1000600000741","LANDMARKCO":"308","LANDMARKNA":"國4-台中系統交流道-東行","LANDMARKAD":"1000608","ADDRESS":"台中市神岡區","TEL":" ","COUNTYNAME":"台中市","TOWNNAME":"神岡區","MARKTYPE":"993","Class":"308"},"geometry":{"x":120.69625836869999,"y":24.271070219978508}},{"attributes":{"OBJECTID":12660,"LANDMARKID":"1000600000640","LANDMARKCO":"303","LANDMARKNA":"第一停車場","LANDMARKAD":"1000608","ADDRESS":"台中市神岡區","TEL":" ","COUNTYNAME":"台中市","TOWNNAME":"神岡區","MARKTYPE":"993","Class":"303"},"geometry":{"x":120.71306809909315,"y":24.256631733362909}},{"attributes":{"OBJECTID":12661,"LANDMARKID":"1000600000641","LANDMARKCO":"303","LANDMARKNA":"神岡區收費停車場","LANDMARKAD":"1000608","ADDRESS":"台中市神岡區","TEL":" ","COUNTYNAME":"台中市","TOWNNAME":"神岡區","MARKTYPE":"993","Class":"303"},"geometry":{"x":120.65712662916923,"y":24.260049562095748}},{"attributes":{"OBJECTID":12662,"LANDMARKID":"1000600000582","LANDMARKCO":"301","LANDMARKNA":"神岡火車站(閒)","LANDMARKAD":"1000608","ADDRESS":"台中市神岡區","TEL":" ","COUNTYNAME":"台中市","TOWNNAME":"神岡區","MARKTYPE":"993","Class":"301"},"geometry":{"x":120.64608960894148,"y":24.255336035147813}},{"attributes":{"OBJECTID":12663,"LANDMARKID":"1000600000812","LANDMARKCO":"402","LANDMARKNA":"中華電信-神岡社口特約服務中心","LANDMARKAD":"1000608","ADDRESS":"台中市神岡區中山路505號","TEL":"04-25613925","COUNTYNAME":"台中市","TOWNNAME":"神岡區","MARKTYPE":"994","Class":"4"},"geometry":{"x":120.68576734931709,"y":24.246372673862812}},{"attributes":{"OBJECTID":12664,"LANDMARKID":"1000600000813","LANDMARKCO":"402","LANDMARKNA":"大眾電信(震旦通訊)-社口中山店","LANDMARKAD":"1000608","ADDRESS":"台中市神岡區社口村中山路542號之1","TEL":"04-25614900","COUNTYNAME":"台中市","TOWNNAME":"神岡區","MARKTYPE":"994","Class":"4"},"geometry":{"x":120.68439468927332,"y":24.24659727935612}},{"attributes":{"OBJECTID":12665,"LANDMARKID":"1000600001353","LANDMARKCO":"603","LANDMARKNA":"后豐商務會館","LANDMARKAD":"1000608","ADDRESS":"台中市神岡區五權路128號","TEL":"04-25122211","COUNTYNAME":"台中市","TOWNNAME":"神岡區","MARKTYPE":"996","Class":"6"},"geometry":{"x":120.71204843026017,"y":24.256850136191463}},{"attributes":{"OBJECTID":12666,"LANDMARKID":"1000600000191","LANDMARKCO":"107","LANDMARKNA":"台中港務消防隊西碼頭小隊","LANDMARKAD":"1000606","ADDRESS":"台中市梧棲區南堤路三段8號","TEL":"04-26302066","COUNTYNAME":"台中市(海)","TOWNNAME":"梧棲區(海)","MARKTYPE":"991","Class":"1"},"geometry":{"x":120.50821782393056,"y":24.281895805436488}},{"attributes":{"OBJECTID":12667,"LANDMARKID":"1000600000677","LANDMARKCO":"305","LANDMARKNA":"梧棲漁港","LANDMARKAD":"1000606","ADDRESS":"台中市梧棲區","TEL":" ","COUNTYNAME":"台中市(海)","TOWNNAME":"梧棲區(海)","MARKTYPE":"993","Class":"305"},"geometry":{"x":120.50425471374112,"y":24.290179668519865}},{"attributes":{"OBJECTID":12668,"LANDMARKID":"1000600000678","LANDMARKCO":"305","LANDMARKNA":"台中港","LANDMARKAD":"1000606","ADDRESS":"台中市梧棲區","TEL":" ","COUNTYNAME":"台中市(海)","TOWNNAME":"梧棲區(海)","MARKTYPE":"993","Class":"305"},"geometry":{"x":120.50820277188718,"y":24.279895957837908}},{"attributes":{"OBJECTID":12669,"LANDMARKID":"1000600000960","LANDMARKCO":"405","LANDMARKNA":"中油加油站-石岡豐勢路站(刷卡自助)(中油直營)","LANDMARKAD":"1000612","ADDRESS":"台中市九房村明德路2號","TEL":"04-25722984","COUNTYNAME":"台中市","TOWNNAME":"石岡區","MARKTYPE":"994","Class":"4"},"geometry":{"x":120.78182443756992,"y":24.274627023705438}},{"attributes":{"OBJECTID":12670,"LANDMARKID":"1000600000961","LANDMARKCO":"405","LANDMARKNA":"中油加油站-石岡豐勢路站(中油直營)","LANDMARKAD":"1000612","ADDRESS":"台中市石岡區明德路２號","TEL":" ","COUNTYNAME":"台中市","TOWNNAME":"石岡區","MARKTYPE":"994","Class":"4"},"geometry":{"x":120.78182443756992,"y":24.274627023705438}},{"attributes":{"OBJECTID":12671,"LANDMARKID":"1000600000962","LANDMARKCO":"405","LANDMARKNA":"統一速邁樂加油站-石岡加油站(中油)","LANDMARKAD":"1000612","ADDRESS":"台中市石岡區金星村明德路195號","TEL":" ","COUNTYNAME":"台中市","TOWNNAME":"石岡區","MARKTYPE":"994","Class":"4"},"geometry":{"x":120.77188153975308,"y":24.274694370056654}},{"attributes":{"OBJECTID":12672,"LANDMARKID":"1000600000782","LANDMARKCO":"401","LANDMARKNA":"清海醫院","LANDMARKAD":"1000612","ADDRESS":"台中市石岡區金星村石岡街下坑巷41之2號","TEL":"04-25721694","COUNTYNAME":"台中市","TOWNNAME":"石岡區","MARKTYPE":"994","Class":"4"},"geometry":{"x":120.77409691772336,"y":24.278273894007288}},{"attributes":{"OBJECTID":12673,"LANDMARKID":"1000600001206","LANDMARKCO":"408","LANDMARKNA":"郵局-石岡郵局","LANDMARKAD":"1000612","ADDRESS":"台中市石岡區石岡街86號","TEL":"(04)2572-2960","COUNTYNAME":"台中市","TOWNNAME":"石岡區","MARKTYPE":"994","Class":"4"},"geometry":{"x":120.77518265843273,"y":24.276250472518605}},{"attributes":{"OBJECTID":12674,"LANDMARKID":"1000600001234","LANDMARKCO":"409","LANDMARKNA":"台中市石岡區農會","LANDMARKAD":"1000612","ADDRESS":"台中市石岡區萬安村石岡街67號","TEL":"04-25721246","COUNTYNAME":"台中市","TOWNNAME":"石岡區","MARKTYPE":"994","Class":"4"},"geometry":{"x":120.7759697967719,"y":24.275855949427079}},{"attributes":{"OBJECTID":12675,"LANDMARKID":"1000600000898","LANDMARKCO":"404","LANDMARKNA":"台灣自來水豐原給水廠","LANDMARKAD":"1000612","ADDRESS":"臺中縣石岡區明德路415號","TEL":"04-25721924","COUNTYNAME":"台中市","TOWNNAME":"石岡區","MARKTYPE":"994","Class":"4"},"geometry":{"x":120.77317064947015,"y":24.273866790126139}},{"attributes":{"OBJECTID":12676,"LANDMARKID":"1000600000899","LANDMARKCO":"404","LANDMARKNA":"台灣省自來水豐原給水廠","LANDMARKAD":"1000612","ADDRESS":"台中市石岡區明德路415號","TEL":" ","COUNTYNAME":"台中市","TOWNNAME":"石岡區","MARKTYPE":"994","Class":"4"},"geometry":{"x":120.76517937585659,"y":24.276328060475279}},{"attributes":{"OBJECTID":12677,"LANDMARKID":"1000600000959","LANDMARKCO":"405","LANDMARKNA":"台亞加油站-石岡站（台塑）","LANDMARKAD":"1000612","ADDRESS":"台中市石岡區豐勢路1322號","TEL":"(04)2572-2177","COUNTYNAME":"台中市","TOWNNAME":"石岡區","MARKTYPE":"994","Class":"4"},"geometry":{"x":120.76374652464106,"y":24.277525991807032}},{"attributes":{"OBJECTID":12678,"LANDMARKID":"1000600000255","LANDMARKCO":"108","LANDMARKNA":"台中市石岡區公所","LANDMARKAD":"1000612","ADDRESS":"台中市石岡區豐勢路1033號","TEL":"04-25722511","COUNTYNAME":"台中市","TOWNNAME":"石岡區","MARKTYPE":"991","Class":"1"},"geometry":{"x":120.78035830318991,"y":24.274761228437139}},{"attributes":{"OBJECTID":12679,"LANDMARKID":"1000600000003","LANDMARKCO":"101","LANDMARKNA":"水利署中區水資源局石岡壩管理處","LANDMARKAD":"1000612","ADDRESS":"台中市石岡區豐勢路1238號","TEL":"04-25722830","COUNTYNAME":"台中市","TOWNNAME":"石岡區","MARKTYPE":"991","Class":"1"},"geometry":{"x":120.76999444411074,"y":24.280024345904081}},{"attributes":{"OBJECTID":12680,"LANDMARKID":"1000600000189","LANDMARKCO":"107","LANDMARKNA":"台中市警察局土牛派出所","LANDMARKAD":"1000612","ADDRESS":"台中市石岡區和盛村豐勢路19號","TEL":"04-25817493","COUNTYNAME":"台中市","TOWNNAME":"石岡區","MARKTYPE":"991","Class":"1"},"geometry":{"x":120.81614608146043,"y":24.260058461325247}},{"attributes":{"OBJECTID":12681,"LANDMARKID":"1000600000190","LANDMARKCO":"107","LANDMARKNA":"台中市警察局石岡分駐所","LANDMARKAD":"1000612","ADDRESS":"台中市石岡區九房村豐勢路1021號","TEL":"04-25722781","COUNTYNAME":"台中市","TOWNNAME":"石岡區","MARKTYPE":"991","Class":"1"},"geometry":{"x":120.7809389225404,"y":24.274684647901559}},{"attributes":{"OBJECTID":12682,"LANDMARKID":"1000600000108","LANDMARKCO":"106","LANDMARKNA":"台中市石岡區戶政事務所","LANDMARKAD":"1000612","ADDRESS":"台中市石岡區九房村11鄰明德路18號","TEL":"04-25722949","COUNTYNAME":"台中市","TOWNNAME":"石岡區","MARKTYPE":"991","Class":"1"},"geometry":{"x":120.78096589904881,"y":24.274487076195733}},{"attributes":{"OBJECTID":12683,"LANDMARKID":"1000600000188","LANDMARKCO":"107","LANDMARKNA":"台中市消防局石岡分隊","LANDMARKAD":"1000612","ADDRESS":"台中市石岡區豐勢路1171號","TEL":"04-25724505","COUNTYNAME":"台中市","TOWNNAME":"石岡區","MARKTYPE":"991","Class":"1"},"geometry":{"x":120.77526788030472,"y":24.276441150868934}},{"attributes":{"OBJECTID":12684,"LANDMARKID":"1000600000067","LANDMARKCO":"103","LANDMARKNA":"台中市石岡區衛生所","LANDMARKAD":"1000612","ADDRESS":"台中市石岡區石岡街6號","TEL":"04-25721887","COUNTYNAME":"台中市","TOWNNAME":"石岡區","MARKTYPE":"991","Class":"1"},"geometry":{"x":120.777609205445,"y":24.276026643702668}},{"attributes":{"OBJECTID":12685,"LANDMARKID":"1000600000564","LANDMARKCO":"205","LANDMARKNA":"石岡客家文物館","LANDMARKAD":"1000612","ADDRESS":"台中市石岡區明德路175號","TEL":"04-25722435","COUNTYNAME":"台中市","TOWNNAME":"石岡區","MARKTYPE":"992","Class":"2"},"geometry":{"x":120.7760389474301,"y":24.273963264014739}},{"attributes":{"OBJECTID":12686,"LANDMARKID":"1000600000547","LANDMARKCO":"204","LANDMARKNA":"台中市立圖書館石岡分館","LANDMARKAD":"1000612","ADDRESS":"台中市石岡區明德路175號","TEL":" ","COUNTYNAME":"台中市","TOWNNAME":"石岡區","MARKTYPE":"992","Class":"2"},"geometry":{"x":120.77622814008721,"y":24.273940810656779}},{"attributes":{"OBJECTID":12687,"LANDMARKID":"1000600000398","LANDMARKCO":"203","LANDMARKNA":"縣立石岡國小","LANDMARKAD":"1000612","ADDRESS":"台中市石岡區石崗村石岡街123號","TEL":"04-25723006","COUNTYNAME":"台中市","TOWNNAME":"石岡區","MARKTYPE":"992","Class":"2"},"geometry":{"x":120.7737949619287,"y":24.275925440286688}},{"attributes":{"OBJECTID":12688,"LANDMARKID":"1000600000399","LANDMARKCO":"203","LANDMARKNA":"縣立土牛國小","LANDMARKAD":"1000612","ADDRESS":"台中市石岡區土牛村豐勢路308號","TEL":"04-25816043","COUNTYNAME":"台中市","TOWNNAME":"石岡區","MARKTYPE":"992","Class":"2"},"geometry":{"x":120.80784793815681,"y":24.266121165794193}},{"attributes":{"OBJECTID":12689,"LANDMARKID":"1000600000400","LANDMARKCO":"203","LANDMARKNA":"縣立石岡國小龍興分班","LANDMARKAD":"1000612","ADDRESS":"台中市石岡區","TEL":" ","COUNTYNAME":"台中市","TOWNNAME":"石岡區","MARKTYPE":"992","Class":"2"},"geometry":{"x":120.78958495541919,"y":24.25707565609585}},{"attributes":{"OBJECTID":12690,"LANDMARKID":"1000600000580","LANDMARKCO":"301","LANDMARKNA":"石岡火車站(閒)","LANDMARKAD":"1000612","ADDRESS":"台中市石岡區","TEL":" ","COUNTYNAME":"台中市","TOWNNAME":"石岡區","MARKTYPE":"993","Class":"301"},"geometry":{"x":120.77734722537404,"y":24.276551913536522}},{"attributes":{"OBJECTID":12691,"LANDMARKID":"1000600001449","LANDMARKCO":"604","LANDMARKNA":"綠色走廊休閒民宅民宿","LANDMARKAD":"1000612","ADDRESS":"台中市石岡區梅子村豐勢路梅子巷37之7號","TEL":"04-25824032","COUNTYNAME":"台中市","TOWNNAME":"石岡區","MARKTYPE":"996","Class":"6"},"geometry":{"x":120.8000763071078,"y":24.27330417475256}},{"attributes":{"OBJECTID":12692,"LANDMARKID":"1000600001450","LANDMARKCO":"604","LANDMARKNA":"慧千園民宿","LANDMARKAD":"1000612","ADDRESS":"台中市石岡區龍興村萬仙街仙塘坪巷20號","TEL":"04-25816438","COUNTYNAME":"台中市","TOWNNAME":"石岡區","MARKTYPE":"996","Class":"6"},"geometry":{"x":120.79112978920547,"y":24.264682524896013}},{"attributes":{"OBJECTID":12693,"LANDMARKID":"1000600001255","LANDMARKCO":"503","LANDMARKNA":"五福臨門神木","LANDMARKAD":"1000612","ADDRESS":"台中市石岡區","TEL":" ","COUNTYNAME":"台中市","TOWNNAME":"石岡區","MARKTYPE":"995","Class":"5"},"geometry":{"x":120.78639781653169,"y":24.264088190430023}},{"attributes":{"OBJECTID":12694,"LANDMARKID":"1000600001256","LANDMARKCO":"503","LANDMARKNA":"石岡水壩風景區","LANDMARKAD":"1000612","ADDRESS":"台中市石岡區豐勢路1238號","TEL":" ","COUNTYNAME":"台中市","TOWNNAME":"石岡區","MARKTYPE":"995","Class":"5"},"geometry":{"x":120.77000887630281,"y":24.279965444996016}},{"attributes":{"OBJECTID":12695,"LANDMARKID":"1000600000963","LANDMARKCO":"405","LANDMARKNA":"中油加油站-台大豐原站","LANDMARKAD":"1000601","ADDRESS":"台中市豐原區三豐路925號","TEL":"04-52121770","COUNTYNAME":"台中市","TOWNNAME":"豐原區","MARKTYPE":"994","Class":"4"},"geometry":{"x":120.72118958085284,"y":24.272231549400431}},{"attributes":{"OBJECTID":12696,"LANDMARKID":"1000600000964","LANDMARKCO":"405","LANDMARKNA":"中油加油站-合作站","LANDMARKAD":"1000601","ADDRESS":"台中市豐原區西勢路495號","TEL":"04-25354667","COUNTYNAME":"台中市","TOWNNAME":"豐原區","MARKTYPE":"994","Class":"4"},"geometry":{"x":120.70229582740465,"y":24.237301537666205}},{"attributes":{"OBJECTID":12697,"LANDMARKID":"1000600000965","LANDMARKCO":"405","LANDMARKNA":"台灣優力加油站-豐原站(中油)","LANDMARKAD":"1000601","ADDRESS":"台中市豐原區圓環東路850號","TEL":"04-25250160","COUNTYNAME":"台中市","TOWNNAME":"豐原區","MARKTYPE":"994","Class":"4"},"geometry":{"x":120.73021716608817,"y":24.254984517478178}},{"attributes":{"OBJECTID":12698,"LANDMARKID":"1000600000966","LANDMARKCO":"405","LANDMARKNA":"中油加油站-大億站","LANDMARKAD":"1000601","ADDRESS":"台中市豐原區社皮里三角路303號","TEL":"04-25325858","COUNTYNAME":"台中市","TOWNNAME":"豐原區","MARKTYPE":"994","Class":"4"},"geometry":{"x":120.69691024850113,"y":24.24161741493505}},{"attributes":{"OBJECTID":12699,"LANDMARKID":"1000600000967","LANDMARKCO":"405","LANDMARKNA":"中油加油站-豐源站","LANDMARKAD":"1000601","ADDRESS":"台中市豐原區中山路82號","TEL":"04-25313658","COUNTYNAME":"台中市","TOWNNAME":"豐原區","MARKTYPE":"994","Class":"4"},"geometry":{"x":120.71112877268867,"y":24.237753266949863}},{"attributes":{"OBJECTID":12700,"LANDMARKID":"1000600000968","LANDMARKCO":"405","LANDMARKNA":"中油加油站-中豐路站","LANDMARKAD":"1000601","ADDRESS":"台中市豐原區鎌村路462號","TEL":"04-25385000","COUNTYNAME":"台中市","TOWNNAME":"豐原區","MARKTYPE":"994","Class":"4"},"geometry":{"x":120.72419370982107,"y":24.225806568331361}},{"attributes":{"OBJECTID":12701,"LANDMARKID":"1000600000969","LANDMARKCO":"405","LANDMARKNA":"中油加油站-豐南站","LANDMARKAD":"1000601","ADDRESS":"台中市豐原區圓環東路152號","TEL":"04-25292129","COUNTYNAME":"台中市","TOWNNAME":"豐原區","MARKTYPE":"994","Class":"4"},"geometry":{"x":120.71843412635717,"y":24.243076314731457}},{"attributes":{"OBJECTID":12702,"LANDMARKID":"1000600000970","LANDMARKCO":"405","LANDMARKNA":"統一速邁樂加油站-豐原加油站(中油)","LANDMARKAD":"1000601","ADDRESS":"豐原區翁子里豐勢路一段526號","TEL":" ","COUNTYNAME":"台中市","TOWNNAME":"豐原區","MARKTYPE":"994","Class":"4"},"geometry":{"x":120.73298979533149,"y":24.258916785686822}},{"attributes":{"OBJECTID":12703,"LANDMARKID":"1000600000971","LANDMARKCO":"405","LANDMARKNA":"中油加油站-豐原大湳站(中油直營)","LANDMARKAD":"1000601","ADDRESS":"台中市豐原區三豐路502號","TEL":"04-25225504","COUNTYNAME":"台中市","TOWNNAME":"豐原區","MARKTYPE":"994","Class":"4"},"geometry":{"x":120.72047922444415,"y":24.262984050023146}},{"attributes":{"OBJECTID":12704,"LANDMARKID":"1000600000972","LANDMARKCO":"405","LANDMARKNA":"統一速邁樂加油站-豐原二站加油站(中油)","LANDMARKAD":"1000601","ADDRESS":"台中市豐原區豐原大道一段370號","TEL":" ","COUNTYNAME":"台中市","TOWNNAME":"豐原區","MARKTYPE":"994","Class":"4"},"geometry":{"x":120.70299874545046,"y":24.243499488358601}},{"attributes":{"OBJECTID":12705,"LANDMARKID":"1000600000973","LANDMARKCO":"405","LANDMARKNA":"中油加油站-翁子站(中油直營)","LANDMARKAD":"1000601","ADDRESS":"台中市豐原區豐勢路一段588號","TEL":"04-25225510","COUNTYNAME":"台中市","TOWNNAME":"豐原區","MARKTYPE":"994","Class":"4"},"geometry":{"x":120.73468938656114,"y":24.259741846420539}},{"attributes":{"OBJECTID":12706,"LANDMARKID":"1000600000815","LANDMARKCO":"402","LANDMARKNA":"My Phone台灣大哥大-豐原中正直營服務中心","LANDMARKAD":"1000601","ADDRESS":"台中市豐原區中正路448號","TEL":"0809-000-166","COUNTYNAME":"台中市","TOWNNAME":"豐原區","MARKTYPE":"994","Class":"4"},"geometry":{"x":120.7102706394853,"y":24.250844227881831}},{"attributes":{"OBJECTID":12707,"LANDMARKID":"1000600000816","LANDMARKCO":"402","LANDMARKNA":"亞太行動寬頻電信-豐原向陽加盟服務中心","LANDMARKAD":"1000601","ADDRESS":"台中市豐原區向陽路282號","TEL":"04-25228880","COUNTYNAME":"台中市","TOWNNAME":"豐原區","MARKTYPE":"994","Class":"4"},"geometry":{"x":120.72785786597399,"y":24.251144020889001}},{"attributes":{"OBJECTID":12708,"LANDMARKID":"1000600000817","LANDMARKCO":"402","LANDMARKNA":"亞太行動寬頻電信-豐原中正加盟服務中心","LANDMARKAD":"1000601","ADDRESS":"台中市豐原區中正路91號","TEL":"04-25130982","COUNTYNAME":"台中市","TOWNNAME":"豐原區","MARKTYPE":"994","Class":"4"},"geometry":{"x":120.72130436008383,"y":24.252191854231398}},{"attributes":{"OBJECTID":12709,"LANDMARKID":"1000600000818","LANDMARKCO":"402","LANDMARKNA":"亞太行動寬頻電信-豐原廟東加盟服務中心","LANDMARKAD":"1000601","ADDRESS":"台中市豐原區中正路258號","TEL":"04-25251010","COUNTYNAME":"台中市","TOWNNAME":"豐原區","MARKTYPE":"994","Class":"4"},"geometry":{"x":120.71639106846452,"y":24.251976368564097}},{"attributes":{"OBJECTID":12710,"LANDMARKID":"1000600000819","LANDMARKCO":"402","LANDMARKNA":"亞太行動寬頻電信-豐原豐東加盟服務中心","LANDMARKAD":"1000601","ADDRESS":"台中市豐原區豐東路75之8號","TEL":"04-25291177","COUNTYNAME":"台中市","TOWNNAME":"豐原區","MARKTYPE":"994","Class":"4"},"geometry":{"x":120.73004910593444,"y":24.248578502289359}},{"attributes":{"OBJECTID":12711,"LANDMARKID":"1000600000771","LANDMARKCO":"401","LANDMARKNA":"新惠生醫院","LANDMARKAD":"1000601","ADDRESS":"台中市豐原區圓環北路一段319號","TEL":"04-25228792","COUNTYNAME":"台中市","TOWNNAME":"豐原區","MARKTYPE":"994","Class":"4"},"geometry":{"x":120.71957967533857,"y":24.258405034042934}},{"attributes":{"OBJECTID":12712,"LANDMARKID":"1000600000772","LANDMARKCO":"401","LANDMARKNA":"大同中醫醫院","LANDMARKAD":"1000601","ADDRESS":"台中市豐原區下街里仁愛街11號","TEL":"04-25274601","COUNTYNAME":"台中市","TOWNNAME":"豐原區","MARKTYPE":"994","Class":"4"},"geometry":{"x":120.71737372900134,"y":24.2524623748876}},{"attributes":{"OBJECTID":12713,"LANDMARKID":"1000600000773","LANDMARKCO":"401","LANDMARKNA":"天心中醫醫院","LANDMARKAD":"1000601","ADDRESS":"台中市豐原區田心里中山路206號","TEL":"04-25275666","COUNTYNAME":"台中市","TOWNNAME":"豐原區","MARKTYPE":"994","Class":"4"},"geometry":{"x":120.71257701068825,"y":24.240473081519085}},{"attributes":{"OBJECTID":12714,"LANDMARKID":"1000600000774","LANDMARKCO":"401","LANDMARKNA":"福平醫院","LANDMARKAD":"1000601","ADDRESS":"台中市豐原區中正路71號","TEL":"04-25235695","COUNTYNAME":"台中市","TOWNNAME":"豐原區","MARKTYPE":"994","Class":"4"},"geometry":{"x":120.72159846561105,"y":24.252499925757185}},{"attributes":{"OBJECTID":12715,"LANDMARKID":"1000600000775","LANDMARKCO":"401","LANDMARKNA":"文化醫院","LANDMARKAD":"1000601","ADDRESS":"台中市豐原區圓環東路721號","TEL":"04-25208068","COUNTYNAME":"台中市","TOWNNAME":"豐原區","MARKTYPE":"994","Class":"4"},"geometry":{"x":120.72937233793886,"y":24.253036526702413}},{"attributes":{"OBJECTID":12716,"LANDMARKID":"1000600000776","LANDMARKCO":"401","LANDMARKNA":"行政院衛生署豐原醫院","LANDMARKAD":"1000601","ADDRESS":"台中市豐原區安康路100號","TEL":"04-25271180","COUNTYNAME":"台中市","TOWNNAME":"豐原區","MARKTYPE":"994","Class":"4"},"geometry":{"x":120.72511943252725,"y":24.242552384612431}},{"attributes":{"OBJECTID":12717,"LANDMARKID":"1000600000777","LANDMARKCO":"401","LANDMARKNA":"豐安醫院","LANDMARKAD":"1000601","ADDRESS":"台中市豐原區中山里中正路115號","TEL":"04-25231180","COUNTYNAME":"台中市","TOWNNAME":"豐原區","MARKTYPE":"994","Class":"4"},"geometry":{"x":120.72062756451959,"y":24.251566354189727}},{"attributes":{"OBJECTID":12718,"LANDMARKID":"1000600000778","LANDMARKCO":"401","LANDMARKNA":"漢忠醫院","LANDMARKAD":"1000601","ADDRESS":"台中市豐原區中正路218號","TEL":"04-25222209","COUNTYNAME":"台中市","TOWNNAME":"豐原區","MARKTYPE":"994","Class":"4"},"geometry":{"x":120.71770055045923,"y":24.252048275617554}},{"attributes":{"OBJECTID":12719,"LANDMARKID":"1000600000779","LANDMARKCO":"401","LANDMARKNA":"杏豐醫院","LANDMARKAD":"1000601","ADDRESS":"台中市豐原區三民路106號","TEL":"04-25234112","COUNTYNAME":"台中市","TOWNNAME":"豐原區","MARKTYPE":"994","Class":"4"},"geometry":{"x":120.72014129108398,"y":24.253803808305065}},{"attributes":{"OBJECTID":12720,"LANDMARKID":"1000600000780","LANDMARKCO":"401","LANDMARKNA":"祥恩醫院","LANDMARKAD":"1000601","ADDRESS":"台中市豐原區中興路35號","TEL":"04-25267550","COUNTYNAME":"台中市","TOWNNAME":"豐原區","MARKTYPE":"994","Class":"4"},"geometry":{"x":120.71763357425849,"y":24.247984876978524}},{"attributes":{"OBJECTID":12721,"LANDMARKID":"1000600001295","LANDMARKCO":"506","LANDMARKNA":"公老坪觀光果園","LANDMARKAD":"1000601","ADDRESS":"台中市豐原區南嵩里水源路坪頂巷12之1號","TEL":"04-25233563","COUNTYNAME":"台中市","TOWNNAME":"豐原區","MARKTYPE":"995","Class":"5"},"geometry":{"x":120.76163793554159,"y":24.262326208871098}},{"attributes":{"OBJECTID":12722,"LANDMARKID":"1000600001296","LANDMARKCO":"506","LANDMARKNA":"雲仙谷綜合觀光果園","LANDMARKAD":"1000601","ADDRESS":"台中市豐原區南嵩里水源路坪頂巷21號","TEL":"04-25245776","COUNTYNAME":"台中市","TOWNNAME":"豐原區","MARKTYPE":"995","Class":"5"},"geometry":{"x":120.76062717649194,"y":24.262556088062233}},{"attributes":{"OBJECTID":12723,"LANDMARKID":"1000600001328","LANDMARKCO":"512","LANDMARKNA":"台中市風景區管理所","LANDMARKAD":"1000601","ADDRESS":"台中市豐原區陽明街36號","TEL":"04-25297015","COUNTYNAME":"台中市","TOWNNAME":"豐原區","MARKTYPE":"995","Class":"5"},"geometry":{"x":120.72071845646846,"y":24.247033621855454}},{"attributes":{"OBJECTID":12724,"LANDMARKID":"1000600001191","LANDMARKCO":"408","LANDMARKNA":"郵局-豐原中正路郵局","LANDMARKAD":"1000601","ADDRESS":"台中市豐原區中正路298號","TEL":"(04)2527-1140","COUNTYNAME":"台中市","TOWNNAME":"豐原區","MARKTYPE":"994","Class":"4"},"geometry":{"x":120.71497504316916,"y":24.251501592328456}},{"attributes":{"OBJECTID":12725,"LANDMARKID":"1000600001192","LANDMARKCO":"408","LANDMARKNA":"郵局-豐原中山路郵局","LANDMARKAD":"1000601","ADDRESS":"台中市豐原區大明路2號","TEL":"(04)2524-4282","COUNTYNAME":"台中市","TOWNNAME":"豐原區","MARKTYPE":"994","Class":"4"},"geometry":{"x":120.71109326334233,"y":24.239768547530591}},{"attributes":{"OBJECTID":12726,"LANDMARKID":"1000600001193","LANDMARKCO":"408","LANDMARKNA":"郵局-豐原三民路郵局","LANDMARKAD":"1000601","ADDRESS":"台中市豐原區三民路108號","TEL":"(04)2522-7074","COUNTYNAME":"台中市","TOWNNAME":"豐原區","MARKTYPE":"994","Class":"4"},"geometry":{"x":120.7199936873057,"y":24.253776213420352}},{"attributes":{"OBJECTID":12727,"LANDMARKID":"1000600001194","LANDMARKCO":"408","LANDMARKNA":"郵局-豐原南陽郵局","LANDMARKAD":"1000601","ADDRESS":"台中市豐原區圓環東路402號","TEL":"(04)2524-5424","COUNTYNAME":"台中市","TOWNNAME":"豐原區","MARKTYPE":"994","Class":"4"},"geometry":{"x":120.72492723115188,"y":24.245130099234554}},{"attributes":{"OBJECTID":12728,"LANDMARKID":"1000600001195","LANDMARKCO":"408","LANDMARKNA":"郵局-豐原博愛郵局","LANDMARKAD":"1000601","ADDRESS":"台中市豐原區博愛街112號","TEL":"(04)2526-1371","COUNTYNAME":"台中市","TOWNNAME":"豐原區","MARKTYPE":"994","Class":"4"},"geometry":{"x":120.71966844590833,"y":24.248808953480907}},{"attributes":{"OBJECTID":12729,"LANDMARKID":"1000600001196","LANDMARKCO":"408","LANDMARKNA":"郵局-豐原大湳郵局","LANDMARKAD":"1000601","ADDRESS":"台中市豐原區三豐路734號","TEL":"(04)2526-6323","COUNTYNAME":"台中市","TOWNNAME":"豐原區","MARKTYPE":"994","Class":"4"},"geometry":{"x":120.72126896002518,"y":24.268642963183478}},{"attributes":{"OBJECTID":12730,"LANDMARKID":"1000600001197","LANDMARKCO":"408","LANDMARKNA":"郵局-豐原翁子郵局","LANDMARKAD":"1000601","ADDRESS":"台中市豐原區豐勢路1段576、578號","TEL":"(04)2524-4650","COUNTYNAME":"台中市","TOWNNAME":"豐原區","MARKTYPE":"994","Class":"4"},"geometry":{"x":120.73433435358919,"y":24.259606826083985}},{"attributes":{"OBJECTID":12731,"LANDMARKID":"1000600001198","LANDMARKCO":"408","LANDMARKNA":"郵局-豐原水源郵局","LANDMARKAD":"1000601","ADDRESS":"台中市豐原區水源路594-2號","TEL":"(04)2528-0930","COUNTYNAME":"台中市","TOWNNAME":"豐原區","MARKTYPE":"994","Class":"4"},"geometry":{"x":120.73010086121033,"y":24.255212213850918}},{"attributes":{"OBJECTID":12732,"LANDMARKID":"1000600001199","LANDMARKCO":"408","LANDMARKNA":"郵局-豐原鐮村郵局","LANDMARKAD":"1000601","ADDRESS":"台中市豐原區鐮村路169號","TEL":"(04)2536-2138","COUNTYNAME":"台中市","TOWNNAME":"豐原區","MARKTYPE":"994","Class":"4"},"geometry":{"x":120.72476016776422,"y":24.231407683341001}},{"attributes":{"OBJECTID":12733,"LANDMARKID":"1000600001236","LANDMARKCO":"409","LANDMARKNA":"台中市豐原區農會","LANDMARKAD":"1000601","ADDRESS":"台中市豐原區中山里中正路127號","TEL":"04-25274310","COUNTYNAME":"台中市","TOWNNAME":"豐原區","MARKTYPE":"994","Class":"4"},"geometry":{"x":120.72032253238257,"y":24.25155814421483}},{"attributes":{"OBJECTID":12734,"LANDMARKID":"1000600001237","LANDMARKCO":"409","LANDMARKNA":"台中市農會","LANDMARKAD":"1000601","ADDRESS":"台中市豐原區田心里中山路231號","TEL":"04-25262110","COUNTYNAME":"台中市","TOWNNAME":"豐原區","MARKTYPE":"994","Class":"4"},"geometry":{"x":120.7139751748451,"y":24.24437432549523}},{"attributes":{"OBJECTID":12735,"LANDMARKID":"1000600001130","LANDMARKCO":"406","LANDMARKNA":"公老坪休閒公園","LANDMARKAD":"1000601","ADDRESS":"台中市豐原區","TEL":" ","COUNTYNAME":"台中市","TOWNNAME":"豐原區","MARKTYPE":"994","Class":"4"},"geometry":{"x":120.75817361366421,"y":24.26224529369517}},{"attributes":{"OBJECTID":12736,"LANDMARKID":"1000600001131","LANDMARKCO":"406","LANDMARKNA":"翁明公園","LANDMARKAD":"1000601","ADDRESS":"台中市豐原區","TEL":" ","COUNTYNAME":"台中市","TOWNNAME":"豐原區","MARKTYPE":"994","Class":"4"},"geometry":{"x":120.726809445455,"y":24.258265004809598}},{"attributes":{"OBJECTID":12737,"LANDMARKID":"1000600001132","LANDMARKCO":"406","LANDMARKNA":"中正公園","LANDMARKAD":"1000601","ADDRESS":"台中市豐原區","TEL":" ","COUNTYNAME":"台中市","TOWNNAME":"豐原區","MARKTYPE":"994","Class":"4"},"geometry":{"x":120.74806489573901,"y":24.255449184725897}},{"attributes":{"OBJECTID":12738,"LANDMARKID":"1000600001133","LANDMARKCO":"406","LANDMARKNA":"豐圳公園","LANDMARKAD":"1000601","ADDRESS":"台中市豐原區","TEL":" ","COUNTYNAME":"台中市","TOWNNAME":"豐原區","MARKTYPE":"994","Class":"4"},"geometry":{"x":120.70735091871647,"y":24.253306294470423}},{"attributes":{"OBJECTID":12739,"LANDMARKID":"1000600001134","LANDMARKCO":"406","LANDMARKNA":"田心公園","LANDMARKAD":"1000601","ADDRESS":"台中市豐原區","TEL":" ","COUNTYNAME":"台中市","TOWNNAME":"豐原區","MARKTYPE":"994","Class":"4"},"geometry":{"x":120.71859654955473,"y":24.242456919115597}},{"attributes":{"OBJECTID":12740,"LANDMARKID":"1000600001135","LANDMARKCO":"406","LANDMARKNA":"軟埤溪親水公園","LANDMARKAD":"1000601","ADDRESS":"台中市豐原區","TEL":" ","COUNTYNAME":"台中市","TOWNNAME":"豐原區","MARKTYPE":"994","Class":"4"},"geometry":{"x":120.75695687685047,"y":24.267060431175334}},{"attributes":{"OBJECTID":12741,"LANDMARKID":"1000600000897","LANDMARKCO":"404","LANDMARKNA":"台灣省自來水豐原服務所","LANDMARKAD":"1000601","ADDRESS":"台中市豐原區南陽路298巷15號","TEL":" ","COUNTYNAME":"台中市","TOWNNAME":"豐原區","MARKTYPE":"994","Class":"4"},"geometry":{"x":120.7262985234954,"y":24.246062634737328}},{"attributes":{"OBJECTID":12742,"LANDMARKID":"1000600001150","LANDMARKCO":"407","LANDMARKNA":"誠品Eslite","LANDMARKAD":"1000601","ADDRESS":"台中市豐原區復興路2號B2F","TEL":"04-2526-1346","COUNTYNAME":"台中市","TOWNNAME":"豐原區","MARKTYPE":"994","Class":"4"},"geometry":{"x":120.72051584553735,"y":24.250899621773911}},{"attributes":{"OBJECTID":12743,"LANDMARKID":"1000600000983","LANDMARKCO":"405","LANDMARKNA":"福懋加油站-豐原站(台塑)","LANDMARKAD":"1000601","ADDRESS":"台中市豐原區鐮村路186號","TEL":"04-25364855","COUNTYNAME":"台中市","TOWNNAME":"豐原區","MARKTYPE":"994","Class":"4"},"geometry":{"x":120.7241597698133,"y":24.23112661541202}},{"attributes":{"OBJECTID":12744,"LANDMARKID":"1000600000984","LANDMARKCO":"405","LANDMARKNA":"全國加油站-三豐路站（台塑）","LANDMARKAD":"1000601","ADDRESS":"台中市豐原區東湳里三豐路1012號","TEL":"04-25158173","COUNTYNAME":"台中市","TOWNNAME":"豐原區","MARKTYPE":"994","Class":"4"},"geometry":{"x":120.7224285805668,"y":24.277283627009776}},{"attributes":{"OBJECTID":12745,"LANDMARKID":"1000600000985","LANDMARKCO":"405","LANDMARKNA":"台亞加油站-豐原大道站（台塑）","LANDMARKAD":"1000601","ADDRESS":"台中市豐原區西勢路512之1號","TEL":"(04)2535-7779","COUNTYNAME":"台中市","TOWNNAME":"豐原區","MARKTYPE":"994","Class":"4"},"geometry":{"x":120.70118784031322,"y":24.237464429604184}},{"attributes":{"OBJECTID":12746,"LANDMARKID":"1000600000986","LANDMARKCO":"405","LANDMARKNA":"西歐加油站-向陽站（台塑）","LANDMARKAD":"1000601","ADDRESS":"台中市豐原區圓環東路651號","TEL":"04-25235597","COUNTYNAME":"台中市","TOWNNAME":"豐原區","MARKTYPE":"994","Class":"4"},"geometry":{"x":120.72845390179067,"y":24.251459300694602}},{"attributes":{"OBJECTID":12747,"LANDMARKID":"1000600000987","LANDMARKCO":"405","LANDMARKNA":"全國加油站-國道四號站（台塑）","LANDMARKAD":"1000601","ADDRESS":"台中市豐原區國豐路三段505號","TEL":"04-25247381","COUNTYNAME":"台中市","TOWNNAME":"豐原區","MARKTYPE":"994","Class":"4"},"geometry":{"x":120.74975027418712,"y":24.269080274540691}},{"attributes":{"OBJECTID":12748,"LANDMARKID":"1000600000988","LANDMARKCO":"405","LANDMARKNA":"台亞加油站-豐原站（台塑）","LANDMARKAD":"1000601","ADDRESS":"台中市豐原區豐勢路二段562號","TEL":"(04)2524-8488","COUNTYNAME":"台中市","TOWNNAME":"豐原區","MARKTYPE":"994","Class":"4"},"geometry":{"x":120.74867740493097,"y":24.266847915294722}},{"attributes":{"OBJECTID":12749,"LANDMARKID":"1000600000004","LANDMARKCO":"101","LANDMARKNA":"國軍退除役官兵輔導委員會","LANDMARKAD":"1000601","ADDRESS":"台中市豐原區陽明街20號","TEL":"04-25271288","COUNTYNAME":"台中市","TOWNNAME":"豐原區","MARKTYPE":"991","Class":"1"},"geometry":{"x":120.72065453284047,"y":24.247124121713387}},{"attributes":{"OBJECTID":12750,"LANDMARKID":"1000600000065","LANDMARKCO":"103","LANDMARKNA":"台中市議會","LANDMARKAD":"1000601","ADDRESS":"台中市豐原區圓環南路70號","TEL":"04-25224192","COUNTYNAME":"台中市","TOWNNAME":"豐原區","MARKTYPE":"991","Class":"1"},"geometry":{"x":120.71168688825068,"y":24.246293628517204}},{"attributes":{"OBJECTID":12751,"LANDMARKID":"1000600000066","LANDMARKCO":"103","LANDMARKNA":"台中市政府衛生局","LANDMARKAD":"1000601","ADDRESS":"台中市豐原區中興路136號","TEL":"04-25265394","COUNTYNAME":"台中市","TOWNNAME":"豐原區","MARKTYPE":"991","Class":"1"},"geometry":{"x":120.71400704139842,"y":24.248313446872203}},{"attributes":{"OBJECTID":12752,"LANDMARKID":"1000600000253","LANDMARKCO":"108","LANDMARKNA":"台中市豐原區公所","LANDMARKAD":"1000601","ADDRESS":"台中市豐原區市政路2號","TEL":"04-25222106","COUNTYNAME":"台中市","TOWNNAME":"豐原區","MARKTYPE":"991","Class":"1"},"geometry":{"x":120.71825777526792,"y":24.241864965129338}},{"attributes":{"OBJECTID":12753,"LANDMARKID":"1000600000006","LANDMARKCO":"101","LANDMARKNA":"台中區監理所豐原監理站","LANDMARKAD":"1000601","ADDRESS":"台中市豐原區豐東路120號","TEL":"04-25274229","COUNTYNAME":"台中市","TOWNNAME":"豐原區","MARKTYPE":"991","Class":"1"},"geometry":{"x":120.73114027295452,"y":24.247306410619164}},{"attributes":{"OBJECTID":12754,"LANDMARKID":"1000600000007","LANDMARKCO":"101","LANDMARKNA":"豐原憲兵隊","LANDMARKAD":"1000601","ADDRESS":"台中市豐原區三豐路456號","TEL":"04-25238384","COUNTYNAME":"台中市","TOWNNAME":"豐原區","MARKTYPE":"991","Class":"1"},"geometry":{"x":120.72015043045137,"y":24.261731876876787}},{"attributes":{"OBJECTID":12755,"LANDMARKID":"1000600000062","LANDMARKCO":"103","LANDMARKNA":"台中市環境保護局","LANDMARKAD":"1000601","ADDRESS":"台中市豐原區中興路136號","TEL":"04-25269140","COUNTYNAME":"台中市","TOWNNAME":"豐原區","MARKTYPE":"991","Class":"1"},"geometry":{"x":120.71400704139842,"y":24.248313446872203}},{"attributes":{"OBJECTID":12756,"LANDMARKID":"1000600000008","LANDMARKCO":"101","LANDMARKNA":"農業委員會水土保持局臺中分局","LANDMARKAD":"1000601","ADDRESS":"台中市豐原區陽明里陽明街22號","TEL":"04-25261165","COUNTYNAME":"台中市","TOWNNAME":"豐原區","MARKTYPE":"991","Class":"1"},"geometry":{"x":120.719835273497,"y":24.247127158973392}},{"attributes":{"OBJECTID":12757,"LANDMARKID":"1000600000061","LANDMARKCO":"103","LANDMARKNA":"台中市豐重市市民代表會","LANDMARKAD":"1000601","ADDRESS":"台中市豐原區市政路2號","TEL":"04-25234098","COUNTYNAME":"台中市","TOWNNAME":"豐原區","MARKTYPE":"991","Class":"1"},"geometry":{"x":120.71825777526792,"y":24.241864965129338}},{"attributes":{"OBJECTID":12758,"LANDMARKID":"1000600000087","LANDMARKCO":"104","LANDMARKNA":"台中市稅捐稽徵處","LANDMARKAD":"1000601","ADDRESS":"台中市豐原區中山路219號","TEL":"04-25262172","COUNTYNAME":"台中市","TOWNNAME":"豐原區","MARKTYPE":"991","Class":"1"},"geometry":{"x":120.7128256618157,"y":24.24236480353229}},{"attributes":{"OBJECTID":12759,"LANDMARKID":"1000600000005","LANDMARKCO":"101","LANDMARKNA":"勞工保險局台中市辦事處","LANDMARKAD":"1000601","ADDRESS":"台中市豐原區成功路616號","TEL":"04-25203707","COUNTYNAME":"台中市","TOWNNAME":"豐原區","MARKTYPE":"991","Class":"1"},"geometry":{"x":120.70660106701263,"y":24.254682445911783}},{"attributes":{"OBJECTID":12760,"LANDMARKID":"1000600000198","LANDMARKCO":"107","LANDMARKNA":"台中市警察局總局","LANDMARKAD":"1000601","ADDRESS":"台中市豐原區田心里中山路225號","TEL":"04-25263304","COUNTYNAME":"台中市","TOWNNAME":"豐原區","MARKTYPE":"991","Class":"1"},"geometry":{"x":120.71350747219812,"y":24.24371083678113}},{"attributes":{"OBJECTID":12761,"LANDMARKID":"1000600000199","LANDMARKCO":"107","LANDMARKNA":"台中市警察局豐原分局","LANDMARKAD":"1000601","ADDRESS":"台中市豐原區葫蘆里中山路508號","TEL":"04-25224684","COUNTYNAME":"台中市","TOWNNAME":"豐原區","MARKTYPE":"991","Class":"1"},"geometry":{"x":120.71473786295957,"y":24.250715068670498}},{"attributes":{"OBJECTID":12762,"LANDMARKID":"1000600000200","LANDMARKCO":"107","LANDMARKNA":"台中市警察局合作派出所","LANDMARKAD":"1000601","ADDRESS":"台中市豐原區田心里育英路52號","TEL":"04-25293134","COUNTYNAME":"台中市","TOWNNAME":"豐原區","MARKTYPE":"991","Class":"1"},"geometry":{"x":120.71587127846392,"y":24.242933332092509}},{"attributes":{"OBJECTID":12763,"LANDMARKID":"1000600000201","LANDMARKCO":"107","LANDMARKNA":"台中市警察局豐東派出所","LANDMARKAD":"1000601","ADDRESS":"台中市豐原區北原里豐東路162號","TEL":"04-25286917","COUNTYNAME":"台中市","TOWNNAME":"豐原區","MARKTYPE":"991","Class":"1"},"geometry":{"x":120.73053953056224,"y":24.248625513614904}},{"attributes":{"OBJECTID":12764,"LANDMARKID":"1000600000202","LANDMARKCO":"107","LANDMARKNA":"台中市警察局翁子派出所","LANDMARKAD":"1000601","ADDRESS":"台中市豐原區翁子里豐勢路二段10號","TEL":"04-25226021","COUNTYNAME":"台中市","TOWNNAME":"豐原區","MARKTYPE":"991","Class":"1"},"geometry":{"x":120.73663366846358,"y":24.260686539175868}},{"attributes":{"OBJECTID":12765,"LANDMARKID":"1000600000203","LANDMARKCO":"107","LANDMARKNA":"台中市警察局頂街派出所","LANDMARKAD":"1000601","ADDRESS":"台中市豐原區豐原里中正路5號","TEL":"04-25228150","COUNTYNAME":"台中市","TOWNNAME":"豐原區","MARKTYPE":"991","Class":"1"},"geometry":{"x":120.72255763605604,"y":24.253625930903901}},{"attributes":{"OBJECTID":12766,"LANDMARKID":"1000600000204","LANDMARKCO":"107","LANDMARKNA":"台中市警察局豐原派出所","LANDMARKAD":"1000601","ADDRESS":"台中市豐原區葫蘆里中山路508號","TEL":"04-25228941","COUNTYNAME":"台中市","TOWNNAME":"豐原區","MARKTYPE":"991","Class":"1"},"geometry":{"x":120.71473786295957,"y":24.250715068670498}},{"attributes":{"OBJECTID":12767,"LANDMARKID":"1000600000063","LANDMARKCO":"103","LANDMARKNA":"台中市政府","LANDMARKAD":"1000601","ADDRESS":"台中市豐原區陽明街36號","TEL":"04-25263100","COUNTYNAME":"台中市","TOWNNAME":"豐原區","MARKTYPE":"991","Class":"1"},"geometry":{"x":120.72078586937997,"y":24.247053943925078}},{"attributes":{"OBJECTID":12768,"LANDMARKID":"1000600000097","LANDMARKCO":"105","LANDMARKNA":"台中市政府地政局","LANDMARKAD":"1000601","ADDRESS":"台中市豐原區陽明街36號","TEL":"04-25263958","COUNTYNAME":"台中市","TOWNNAME":"豐原區","MARKTYPE":"991","Class":"1"},"geometry":{"x":120.72078586937997,"y":24.247053943925078}},{"attributes":{"OBJECTID":12769,"LANDMARKID":"1000600000098","LANDMARKCO":"105","LANDMARKNA":"台中市豐原地政事務所","LANDMARKAD":"1000601","ADDRESS":"台中市豐原區西安街21號","TEL":"04-25263188","COUNTYNAME":"台中市","TOWNNAME":"豐原區","MARKTYPE":"991","Class":"1"},"geometry":{"x":120.71380504893835,"y":24.249023300154384}},{"attributes":{"OBJECTID":12770,"LANDMARKID":"1000600000064","LANDMARKCO":"103","LANDMARKNA":"台中市政府民政局","LANDMARKAD":"1000601","ADDRESS":"台中市豐原區陽明街36號","TEL":"04-25264046","COUNTYNAME":"台中市","TOWNNAME":"豐原區","MARKTYPE":"991","Class":"1"},"geometry":{"x":120.72078586937997,"y":24.247053943925078}},{"attributes":{"OBJECTID":12771,"LANDMARKID":"1000600000106","LANDMARKCO":"106","LANDMARKNA":"台中市豐原區戶政事務所","LANDMARKAD":"1000601","ADDRESS":"台中市豐原區西勢里4鄰西安街21號","TEL":"04-25221044","COUNTYNAME":"台中市","TOWNNAME":"豐原區","MARKTYPE":"991","Class":"1"},"geometry":{"x":120.71380504893835,"y":24.249023300154384}},{"attributes":{"OBJECTID":12772,"LANDMARKID":"1000600000088","LANDMARKCO":"104","LANDMARKNA":"中區國稅局台中市分局","LANDMARKAD":"1000601","ADDRESS":"台中市豐原區大明路36號","TEL":"04-25291040","COUNTYNAME":"台中市","TOWNNAME":"豐原區","MARKTYPE":"991","Class":"1"},"geometry":{"x":120.71025806404772,"y":24.240194984461798}},{"attributes":{"OBJECTID":12773,"LANDMARKID":"1000600000195","LANDMARKCO":"107","LANDMARKNA":"台中市消防局","LANDMARKAD":"1000601","ADDRESS":"台中市豐原區圓環北路一段321號","TEL":"04-25156119","COUNTYNAME":"台中市","TOWNNAME":"豐原區","MARKTYPE":"991","Class":"1"},"geometry":{"x":120.71956714509015,"y":24.258510546947868}},{"attributes":{"OBJECTID":12774,"LANDMARKID":"1000600000196","LANDMARKCO":"107","LANDMARKNA":"台中市消防局第一大隊部","LANDMARKAD":"1000601","ADDRESS":"台中市豐原區圓環北路一段321號","TEL":"04-25278783","COUNTYNAME":"台中市","TOWNNAME":"豐原區","MARKTYPE":"991","Class":"1"},"geometry":{"x":120.71956714509015,"y":24.258510546947868}},{"attributes":{"OBJECTID":12775,"LANDMARKID":"1000600000197","LANDMARKCO":"107","LANDMARKNA":"台中市消防局豐原分隊","LANDMARKAD":"1000601","ADDRESS":"台中市豐原區圓環北路一段321號","TEL":"04-25222300","COUNTYNAME":"台中市","TOWNNAME":"豐原區","MARKTYPE":"991","Class":"1"},"geometry":{"x":120.71956714509015,"y":24.258510546947868}},{"attributes":{"OBJECTID":12776,"LANDMARKID":"1000600000009","LANDMARKCO":"101","LANDMARKNA":"調查局台中市調查站","LANDMARKAD":"1000601","ADDRESS":"台中市豐原區南陽路130號","TEL":"04-25271113","COUNTYNAME":"台中市","TOWNNAME":"豐原區","MARKTYPE":"991","Class":"1"},"geometry":{"x":120.73086845005271,"y":24.24273251344778}},{"attributes":{"OBJECTID":12777,"LANDMARKID":"1000600000060","LANDMARKCO":"103","LANDMARKNA":"台中市豐原區衛生所","LANDMARKAD":"1000601","ADDRESS":"台中市豐原區中興路136號","TEL":"04-25261170","COUNTYNAME":"台中市","TOWNNAME":"豐原區","MARKTYPE":"991","Class":"1"},"geometry":{"x":120.71400704139842,"y":24.248313446872203}},{"attributes":{"OBJECTID":12778,"LANDMARKID":"1000600000562","LANDMARKCO":"205","LANDMARKNA":"葫蘆墩文物館","LANDMARKAD":"1000601","ADDRESS":"台中市豐原區環北路二段65號","TEL":"04-25274894","COUNTYNAME":"台中市","TOWNNAME":"豐原區","MARKTYPE":"992","Class":"2"},"geometry":{"x":120.72182146158217,"y":24.260508470208109}},{"attributes":{"OBJECTID":12779,"LANDMARKID":"1000600000563","LANDMARKCO":"205","LANDMARKNA":"台中市立文化中心編織工藝館","LANDMARKAD":"1000601","ADDRESS":"台中市豐原區圓環東路782號","TEL":" ","COUNTYNAME":"台中市","TOWNNAME":"豐原區","MARKTYPE":"992","Class":"2"},"geometry":{"x":120.73010464762139,"y":24.25296603816696}},{"attributes":{"OBJECTID":12780,"LANDMARKID":"1000600000571","LANDMARKCO":"206","LANDMARKNA":"台中市政府文化中心","LANDMARKAD":"1000601","ADDRESS":"台中市豐原區圓環東路782號","TEL":" ","COUNTYNAME":"台中市","TOWNNAME":"豐原區","MARKTYPE":"992","Class":"2"},"geometry":{"x":120.72992218010417,"y":24.252935751810938}},{"attributes":{"OBJECTID":12781,"LANDMARKID":"1000600000549","LANDMARKCO":"204","LANDMARKNA":"台中市立圖書館豐原分館","LANDMARKAD":"1000601","ADDRESS":"台中市豐原區市政路2號","TEL":" ","COUNTYNAME":"台中市","TOWNNAME":"豐原區","MARKTYPE":"992","Class":"2"},"geometry":{"x":120.71762277559837,"y":24.241615468444106}},{"attributes":{"OBJECTID":12782,"LANDMARKID":"1000600000397","LANDMARKCO":"203","LANDMARKNA":"縣立翁子國小","LANDMARKAD":"1000601","ADDRESS":"台中市豐原區翁子里豐勢路854號","TEL":"04-25223369","COUNTYNAME":"台中市","TOWNNAME":"豐原區","MARKTYPE":"992","Class":"2"},"geometry":{"x":120.74319674037233,"y":24.262694447636733}},{"attributes":{"OBJECTID":12783,"LANDMARKID":"1000600000301","LANDMARKCO":"202","LANDMARKNA":"國立豐原高中","LANDMARKAD":"1000601","ADDRESS":"台中市豐原區水源路150號","TEL":"04-25245135","COUNTYNAME":"台中市","TOWNNAME":"豐原區","MARKTYPE":"992","Class":"2"},"geometry":{"x":120.74193921326487,"y":24.256210193801099}},{"attributes":{"OBJECTID":12784,"LANDMARKID":"1000600000302","LANDMARKCO":"202","LANDMARKNA":"國立豐原高商","LANDMARKAD":"1000601","ADDRESS":"台中市豐原區圓環南路50號","TEL":"04-25283556","COUNTYNAME":"台中市","TOWNNAME":"豐原區","MARKTYPE":"992","Class":"2"},"geometry":{"x":120.71294196388597,"y":24.246056751645355}},{"attributes":{"OBJECTID":12785,"LANDMARKID":"1000600000383","LANDMARKCO":"203","LANDMARKNA":"縣立豐原國中","LANDMARKAD":"1000601","ADDRESS":"台中市豐原區三豐路467號","TEL":"04-25251200","COUNTYNAME":"台中市","TOWNNAME":"豐原區","MARKTYPE":"992","Class":"2"},"geometry":{"x":120.71893197190781,"y":24.261142833384699}},{"attributes":{"OBJECTID":12786,"LANDMARKID":"1000600000384","LANDMARKCO":"203","LANDMARKNA":"縣立豐陽國中","LANDMARKAD":"1000601","ADDRESS":"台中市豐原區朝陽路33號","TEL":"04-25203470","COUNTYNAME":"台中市","TOWNNAME":"豐原區","MARKTYPE":"992","Class":"2"},"geometry":{"x":120.74495615086717,"y":24.262029589019072}},{"attributes":{"OBJECTID":12787,"LANDMARKID":"1000600000385","LANDMARKCO":"203","LANDMARKNA":"縣立豐東國中","LANDMARKAD":"1000601","ADDRESS":"台中市豐原區豐東路75號","TEL":"04-25221743","COUNTYNAME":"台中市","TOWNNAME":"豐原區","MARKTYPE":"992","Class":"2"},"geometry":{"x":120.72897684562335,"y":24.247398485457516}},{"attributes":{"OBJECTID":12788,"LANDMARKID":"1000600000386","LANDMARKCO":"203","LANDMARKNA":"縣立豐南國中","LANDMARKAD":"1000601","ADDRESS":"台中市豐原區豐南街151號","TEL":"04-25280185","COUNTYNAME":"台中市","TOWNNAME":"豐原區","MARKTYPE":"992","Class":"2"},"geometry":{"x":120.71687701720951,"y":24.23937924337551}},{"attributes":{"OBJECTID":12789,"LANDMARKID":"1000600000387","LANDMARKCO":"203","LANDMARKNA":"縣立富春國小","LANDMARKAD":"1000601","ADDRESS":"台中市豐原區豐西里中山路455號","TEL":"04-25222542","COUNTYNAME":"台中市","TOWNNAME":"豐原區","MARKTYPE":"992","Class":"2"},"geometry":{"x":120.71325501661752,"y":24.252415761805516}},{"attributes":{"OBJECTID":12790,"LANDMARKID":"1000600000388","LANDMARKCO":"203","LANDMARKNA":"縣立豐村國小","LANDMARKAD":"1000601","ADDRESS":"台中市豐原區水源路341號","TEL":"04-25222468","COUNTYNAME":"台中市","TOWNNAME":"豐原區","MARKTYPE":"992","Class":"2"},"geometry":{"x":120.73665888843428,"y":24.255277407231084}},{"attributes":{"OBJECTID":12791,"LANDMARKID":"1000600000389","LANDMARKCO":"203","LANDMARKNA":"縣立豐田國小","LANDMARKAD":"1000601","ADDRESS":"台中市豐原區田心路二段290號","TEL":"04-25262891","COUNTYNAME":"台中市","TOWNNAME":"豐原區","MARKTYPE":"992","Class":"2"},"geometry":{"x":120.72202005605523,"y":24.237039050077524}},{"attributes":{"OBJECTID":12792,"LANDMARKID":"1000600000390","LANDMARKCO":"203","LANDMARKNA":"縣立瑞穗國小","LANDMARKAD":"1000601","ADDRESS":"台中市豐原區西安街72號","TEL":"04-25262064","COUNTYNAME":"台中市","TOWNNAME":"豐原區","MARKTYPE":"992","Class":"2"},"geometry":{"x":120.71166401712033,"y":24.24928239154821}},{"attributes":{"OBJECTID":12793,"LANDMARKID":"1000600000391","LANDMARKCO":"203","LANDMARKNA":"縣立合作國小","LANDMARKAD":"1000601","ADDRESS":"台中市豐原區三村里西勢路410號","TEL":"04-25323241","COUNTYNAME":"台中市","TOWNNAME":"豐原區","MARKTYPE":"992","Class":"2"},"geometry":{"x":120.70399420258198,"y":24.240206907704412}},{"attributes":{"OBJECTID":12794,"LANDMARKID":"1000600000392","LANDMARKCO":"203","LANDMARKNA":"縣立南陽國小","LANDMARKAD":"1000601","ADDRESS":"台中市豐原區中陽里南陽路440號","TEL":"04-25222521","COUNTYNAME":"台中市","TOWNNAME":"豐原區","MARKTYPE":"992","Class":"2"},"geometry":{"x":120.72335166923193,"y":24.248055451356407}},{"attributes":{"OBJECTID":12795,"LANDMARKID":"1000600000393","LANDMARKCO":"203","LANDMARKNA":"縣立豐原國小","LANDMARKAD":"1000601","ADDRESS":"台中市豐原區新生北路155號","TEL":"04-25222066","COUNTYNAME":"台中市","TOWNNAME":"豐原區","MARKTYPE":"992","Class":"2"},"geometry":{"x":120.72113225949361,"y":24.25539888834227}},{"attributes":{"OBJECTID":12796,"LANDMARKID":"1000600000394","LANDMARKCO":"203","LANDMARKNA":"縣立葫蘆墩國小","LANDMARKAD":"1000601","ADDRESS":"台中市豐原區葫蘆墩一街250號","TEL":"04-25205136","COUNTYNAME":"台中市","TOWNNAME":"豐原區","MARKTYPE":"992","Class":"2"},"geometry":{"x":120.71434055933821,"y":24.261127764746874}},{"attributes":{"OBJECTID":12797,"LANDMARKID":"1000600000395","LANDMARKCO":"203","LANDMARKNA":"縣立福陽國小","LANDMARKAD":"1000601","ADDRESS":"台中市豐原區南陽路440號","TEL":"04-25291101","COUNTYNAME":"台中市","TOWNNAME":"豐原區","MARKTYPE":"992","Class":"2"},"geometry":{"x":120.72335166923193,"y":24.248055451356407}},{"attributes":{"OBJECTID":12798,"LANDMARKID":"1000600000396","LANDMARKCO":"203","LANDMARKNA":"中縣立福陽國小","LANDMARKAD":"1000601","ADDRESS":"台中市豐原區南陽路綠山巷83號","TEL":"04-25291101","COUNTYNAME":"台中市","TOWNNAME":"豐原區","MARKTYPE":"992","Class":"2"},"geometry":{"x":120.72732520255816,"y":24.246146767551981}},{"attributes":{"OBJECTID":12799,"LANDMARKID":"1000600000742","LANDMARKCO":"308","LANDMARKNA":"國4-后豐交流道-西行","LANDMARKAD":"1000601","ADDRESS":"台中市豐原區","TEL":" ","COUNTYNAME":"台中市","TOWNNAME":"豐原區","MARKTYPE":"993","Class":"308"},"geometry":{"x":120.71802322075705,"y":24.278298435870443}},{"attributes":{"OBJECTID":12800,"LANDMARKID":"1000600000743","LANDMARKCO":"308","LANDMARKNA":"國4-豐原端-往西","LANDMARKAD":"1000601","ADDRESS":"台中市豐原區","TEL":" ","COUNTYNAME":"台中市","TOWNNAME":"豐原區","MARKTYPE":"993","Class":"308"},"geometry":{"x":120.74952272279613,"y":24.268685796845251}}]}