{"displayFieldName":"COUNTYNAME","fieldAliases":{"OBJECTID":"OBJECTID","LANDMARKID":"LANDMARKID","LANDMARKCO":"LANDMARKCO","LANDMARKNA":"LANDMARKNA","LANDMARKAD":"LANDMARKAD","ADDRESS":"ADDRESS","TEL":"TEL","COUNTYNAME":"COUNTYNAME","TOWNNAME":"TOWNNAME","MARKTYPE":"MARKTYPE","Class":"Class"},"geometryType":"esriGeometryPoint","spatialReference":{"wkid":102443},"fields":[{"name":"OBJECTID","type":"esriFieldTypeOID","alias":"OBJECTID"},{"name":"LANDMARKID","type":"esriFieldTypeString","alias":"LANDMARKID","length":15},{"name":"LANDMARKCO","type":"esriFieldTypeString","alias":"LANDMARKCO","length":15},{"name":"LANDMARKNA","type":"esriFieldTypeString","alias":"LANDMARKNA","length":50},{"name":"LANDMARKAD","type":"esriFieldTypeString","alias":"LANDMARKAD","length":15},{"name":"ADDRESS","type":"esriFieldTypeString","alias":"ADDRESS","length":56},{"name":"TEL","type":"esriFieldTypeString","alias":"TEL","length":36},{"name":"COUNTYNAME","type":"esriFieldTypeString","alias":"COUNTYNAME","length":15},{"name":"TOWNNAME","type":"esriFieldTypeString","alias":"TOWNNAME","length":13},{"name":"MARKTYPE","type":"esriFieldTypeString","alias":"MARKTYPE","length":12},{"name":"Class","type":"esriFieldTypeString","alias":"Class","length":5}],"features":[{"attributes":{"OBJECTID":23201,"LANDMARKID":"1000200000029","LANDMARKCO":"101","LANDMARKNA":"林務局羅東林區管理處南澳工作站","LANDMARKAD":"1000212","ADDRESS":"宜蘭縣南澳鄉中正路55號","TEL":"03-9981060","COUNTYNAME":"宜蘭縣","TOWNNAME":"南澳鄉","MARKTYPE":"991","Class":"1"},"geometry":{"x":330593.15930000041,"y":2707139.6777999997}},{"attributes":{"OBJECTID":23202,"LANDMARKID":"1000200000030","LANDMARKCO":"103","LANDMARKNA":"宜蘭縣南澳鄉衛生所","LANDMARKAD":"1000212","ADDRESS":"宜蘭縣南澳鄉南澳村蘇花路二段375號","TEL":"03-9981019","COUNTYNAME":"宜蘭縣","TOWNNAME":"南澳鄉","MARKTYPE":"991","Class":"1"},"geometry":{"x":331537.41820000019,"y":2706879.1068999991}},{"attributes":{"OBJECTID":23203,"LANDMARKID":"1000200000081","LANDMARKCO":"106","LANDMARKNA":"宜蘭縣南澳鄉戶政事務所","LANDMARKAD":"1000212","ADDRESS":"宜蘭縣南澳鄉蘇花路二段431號","TEL":"03-9981044","COUNTYNAME":"宜蘭縣","TOWNNAME":"南澳鄉","MARKTYPE":"991","Class":"1"},"geometry":{"x":331270.90099999961,"y":2706789.0226000007}},{"attributes":{"OBJECTID":23204,"LANDMARKID":"1000200000101","LANDMARKCO":"107","LANDMARKNA":"宜蘭縣警察局澳花派出所","LANDMARKAD":"1000212","ADDRESS":"宜蘭縣南澳鄉澳花村中央路50號","TEL":"039-985152","COUNTYNAME":"宜蘭縣","TOWNNAME":"南澳鄉","MARKTYPE":"991","Class":"1"},"geometry":{"x":325385.62320000026,"y":2691949.3684999999}},{"attributes":{"OBJECTID":23205,"LANDMARKID":"1000200000102","LANDMARKCO":"107","LANDMARKNA":"宜蘭縣警察局武塔派出所","LANDMARKAD":"1000212","ADDRESS":"宜蘭縣南澳鄉武塔村新溪路5號","TEL":"039-981902","COUNTYNAME":"宜蘭縣","TOWNNAME":"南澳鄉","MARKTYPE":"991","Class":"1"},"geometry":{"x":329030.03809999954,"y":2704959.0412000008}},{"attributes":{"OBJECTID":23206,"LANDMARKID":"1000200000103","LANDMARKCO":"107","LANDMARKNA":"宜蘭縣警察局金岳派出所","LANDMARKAD":"1000212","ADDRESS":"宜蘭縣南澳鄉金岳村金岳路10號","TEL":"039-981901","COUNTYNAME":"宜蘭縣","TOWNNAME":"南澳鄉","MARKTYPE":"991","Class":"1"},"geometry":{"x":328827.86620000005,"y":2707388.5197999999}},{"attributes":{"OBJECTID":23207,"LANDMARKID":"1000200000104","LANDMARKCO":"107","LANDMARKNA":"宜蘭縣警察局碧候派出所","LANDMARKAD":"1000212","ADDRESS":"宜蘭縣南澳鄉碧候村信義路78號","TEL":"039-981903","COUNTYNAME":"宜蘭縣","TOWNNAME":"南澳鄉","MARKTYPE":"991","Class":"1"},"geometry":{"x":329814.37100000028,"y":2707789.2854999993}},{"attributes":{"OBJECTID":23208,"LANDMARKID":"1000200000105","LANDMARKCO":"107","LANDMARKNA":"宜蘭縣警察局東澳派出所","LANDMARKAD":"1000212","ADDRESS":"宜蘭縣南澳鄉東岳村蘇花路三段161號","TEL":"03-9986080","COUNTYNAME":"宜蘭縣","TOWNNAME":"南澳鄉","MARKTYPE":"991","Class":"1"},"geometry":{"x":334414.74370000046,"y":2712928.4815999996}},{"attributes":{"OBJECTID":23209,"LANDMARKID":"1000200000106","LANDMARKCO":"107","LANDMARKNA":"宜蘭縣警察局南澳分駐所","LANDMARKAD":"1000212","ADDRESS":"宜蘭縣南澳鄉南澳村蘇花路二段373號","TEL":"03-9981120","COUNTYNAME":"宜蘭縣","TOWNNAME":"南澳鄉","MARKTYPE":"991","Class":"1"},"geometry":{"x":331280.84279999975,"y":2706778.9649}},{"attributes":{"OBJECTID":23210,"LANDMARKID":"1000200000107","LANDMARKCO":"107","LANDMARKNA":"宜蘭縣消防局南澳消防分隊","LANDMARKAD":"1000212","ADDRESS":"宜蘭縣南澳鄉大通路66-2號","TEL":"03-9981119","COUNTYNAME":"宜蘭縣","TOWNNAME":"南澳鄉","MARKTYPE":"991","Class":"1"},"geometry":{"x":331573.09329999983,"y":2706958.8890000004}},{"attributes":{"OBJECTID":23211,"LANDMARKID":"1000200000108","LANDMARKCO":"107","LANDMARKNA":"宜蘭縣警察局金洋派出所","LANDMARKAD":"1000212","ADDRESS":"宜蘭縣南澳鄉金洋村金洋路9號","TEL":"039-981459","COUNTYNAME":"宜蘭縣","TOWNNAME":"南澳鄉","MARKTYPE":"991","Class":"1"},"geometry":{"x":325947.33930000011,"y":2702359.0684999991}},{"attributes":{"OBJECTID":23212,"LANDMARKID":"1000200000327","LANDMARKCO":"204","LANDMARKNA":"宜蘭縣立圖書館南澳分館","LANDMARKAD":"1000212","ADDRESS":"宜蘭縣南澳鄉大通路60號3樓","TEL":" ","COUNTYNAME":"宜蘭縣","TOWNNAME":"南澳鄉","MARKTYPE":"992","Class":"2"},"geometry":{"x":331620.63310000021,"y":2706947.8192999996}},{"attributes":{"OBJECTID":23213,"LANDMARKID":"1000200000208","LANDMARKCO":"202","LANDMARKNA":"縣立南澳高中","LANDMARKAD":"1000212","ADDRESS":"宜蘭縣南澳鄉蘇花路二段301號","TEL":"03-9981024","COUNTYNAME":"宜蘭縣","TOWNNAME":"南澳鄉","MARKTYPE":"992","Class":"2"},"geometry":{"x":331285.19049999956,"y":2706838.9397}},{"attributes":{"OBJECTID":23214,"LANDMARKID":"1000200000230","LANDMARKCO":"203","LANDMARKNA":"縣立澳花國小","LANDMARKAD":"1000212","ADDRESS":"宜蘭縣南澳鄉澳花村中央路19號","TEL":"03-9985141","COUNTYNAME":"宜蘭縣","TOWNNAME":"南澳鄉","MARKTYPE":"992","Class":"2"},"geometry":{"x":325014.77759999968,"y":2691669.8526000008}},{"attributes":{"OBJECTID":23215,"LANDMARKID":"1000200000231","LANDMARKCO":"203","LANDMARKNA":"縣立南澳國小","LANDMARKAD":"1000212","ADDRESS":"宜蘭縣南澳鄉南澳村中正路15號","TEL":"03-9981228","COUNTYNAME":"宜蘭縣","TOWNNAME":"南澳鄉","MARKTYPE":"992","Class":"2"},"geometry":{"x":331152.16490000021,"y":2706969.6997999996}},{"attributes":{"OBJECTID":23216,"LANDMARKID":"1000200000232","LANDMARKCO":"203","LANDMARKNA":"縣立武塔國小","LANDMARKAD":"1000212","ADDRESS":"宜蘭縣南澳鄉武塔村新溪路1號","TEL":"03-9981632","COUNTYNAME":"宜蘭縣","TOWNNAME":"南澳鄉","MARKTYPE":"992","Class":"2"},"geometry":{"x":328871.91540000029,"y":2704629.9404000007}},{"attributes":{"OBJECTID":23217,"LANDMARKID":"1000200000233","LANDMARKCO":"203","LANDMARKNA":"縣立金岳國小","LANDMARKAD":"1000212","ADDRESS":"宜蘭縣南澳鄉金岳村2號","TEL":"03-9981636","COUNTYNAME":"宜蘭縣","TOWNNAME":"南澳鄉","MARKTYPE":"992","Class":"2"},"geometry":{"x":328767.09210000001,"y":2707428.8613000009}},{"attributes":{"OBJECTID":23218,"LANDMARKID":"1000200000234","LANDMARKCO":"203","LANDMARKNA":"縣立東澳國小","LANDMARKAD":"1000212","ADDRESS":"宜蘭縣南澳鄉東岳村6巷2號","TEL":"03-9986217","COUNTYNAME":"宜蘭縣","TOWNNAME":"南澳鄉","MARKTYPE":"992","Class":"2"},"geometry":{"x":334409.28689999972,"y":2713018.5144999996}},{"attributes":{"OBJECTID":23219,"LANDMARKID":"1000200000235","LANDMARKCO":"203","LANDMARKNA":"縣立金洋國小","LANDMARKAD":"1000212","ADDRESS":"宜蘭縣南澳鄉金洋村11號","TEL":"03-9981486","COUNTYNAME":"宜蘭縣","TOWNNAME":"南澳鄉","MARKTYPE":"992","Class":"2"},"geometry":{"x":325981.60890000034,"y":2702408.8831999991}},{"attributes":{"OBJECTID":23220,"LANDMARKID":"1000200000236","LANDMARKCO":"203","LANDMARKNA":"縣立太平國小","LANDMARKAD":"1000212","ADDRESS":"宜蘭縣南澳鄉","TEL":" ","COUNTYNAME":"宜蘭縣","TOWNNAME":"南澳鄉","MARKTYPE":"992","Class":"2"},"geometry":{"x":304409.07290000003,"y":2709599.7250999995}},{"attributes":{"OBJECTID":23221,"LANDMARKID":"1000200000412","LANDMARKCO":"303","LANDMARKNA":"翠峰湖停車場","LANDMARKAD":"1000212","ADDRESS":"宜蘭縣南澳鄉","TEL":" ","COUNTYNAME":"宜蘭縣","TOWNNAME":"南澳鄉","MARKTYPE":"993","Class":"303"},"geometry":{"x":311594.45779999997,"y":2711711.9901999999}},{"attributes":{"OBJECTID":23222,"LANDMARKID":"1000200000413","LANDMARKCO":"303","LANDMARKNA":"碧候停車場","LANDMARKAD":"1000212","ADDRESS":"宜蘭縣南澳鄉","TEL":" ","COUNTYNAME":"宜蘭縣","TOWNNAME":"南澳鄉","MARKTYPE":"993","Class":"303"},"geometry":{"x":329527.3786000004,"y":2708020.9584999997}},{"attributes":{"OBJECTID":23223,"LANDMARKID":"1000200000414","LANDMARKCO":"303","LANDMARKNA":"澳花停車場","LANDMARKAD":"1000212","ADDRESS":"宜蘭縣南澳鄉","TEL":" ","COUNTYNAME":"宜蘭縣","TOWNNAME":"南澳鄉","MARKTYPE":"993","Class":"303"},"geometry":{"x":325393.13279999979,"y":2691929.6163999997}},{"attributes":{"OBJECTID":23224,"LANDMARKID":"1000200000360","LANDMARKCO":"301","LANDMARKNA":"武塔火車站","LANDMARKAD":"1000212","ADDRESS":"宜蘭縣南澳鄉","TEL":" ","COUNTYNAME":"宜蘭縣","TOWNNAME":"南澳鄉","MARKTYPE":"993","Class":"301"},"geometry":{"x":328666.82220000029,"y":2704958.2718000002}},{"attributes":{"OBJECTID":23225,"LANDMARKID":"1000200000361","LANDMARKCO":"301","LANDMARKNA":"東澳火車站","LANDMARKAD":"1000212","ADDRESS":"宜蘭縣南澳鄉東岳村1號","TEL":"03-9986053","COUNTYNAME":"宜蘭縣","TOWNNAME":"南澳鄉","MARKTYPE":"993","Class":"301"},"geometry":{"x":334153.95569999982,"y":2712823.6794000007}},{"attributes":{"OBJECTID":23226,"LANDMARKID":"1000200000362","LANDMARKCO":"301","LANDMARKNA":"漢本火車站","LANDMARKAD":"1000212","ADDRESS":"宜蘭縣南澳鄉澳花村碧海路34之1號","TEL":"03-9985238","COUNTYNAME":"宜蘭縣","TOWNNAME":"南澳鄉","MARKTYPE":"993","Class":"301"},"geometry":{"x":327957.4422000004,"y":2692300.0184000004}},{"attributes":{"OBJECTID":23227,"LANDMARKID":"1000200001108","LANDMARKCO":"604","LANDMARKNA":"三枝的家","LANDMARKAD":"1000212","ADDRESS":"宜蘭縣南澳鄉武塔村新溪路20-1號","TEL":"03-9981782","COUNTYNAME":"宜蘭縣","TOWNNAME":"南澳鄉","MARKTYPE":"996","Class":"6"},"geometry":{"x":328793.73249999993,"y":2704670.6313000005}},{"attributes":{"OBJECTID":23228,"LANDMARKID":"1000200001109","LANDMARKCO":"604","LANDMARKNA":"紅樓夢豪華渡假別墅","LANDMARKAD":"1000212","ADDRESS":"宜蘭縣三星鄉三星路6段361號","TEL":"03-9895917","COUNTYNAME":"宜蘭縣","TOWNNAME":"南澳鄉","MARKTYPE":"996","Class":"6"},"geometry":{"x":314919.75540000014,"y":2695751.2901000008}},{"attributes":{"OBJECTID":23229,"LANDMARKID":"1000200001110","LANDMARKCO":"604","LANDMARKNA":"憧憬園民宿","LANDMARKAD":"1000212","ADDRESS":"宜蘭縣南澳鄉南澳村大通路146-6號","TEL":"03-9984088","COUNTYNAME":"宜蘭縣","TOWNNAME":"南澳鄉","MARKTYPE":"996","Class":"6"},"geometry":{"x":330611.95179999992,"y":2706830.2344000004}},{"attributes":{"OBJECTID":23230,"LANDMARKID":"1000200001111","LANDMARKCO":"604","LANDMARKNA":"晨溪休閒民宿","LANDMARKAD":"1000212","ADDRESS":"宜蘭縣冬山鄉中山村中山路63-2號","TEL":"03-9680988","COUNTYNAME":"宜蘭縣","TOWNNAME":"南澳鄉","MARKTYPE":"996","Class":"6"},"geometry":{"x":323913.97809999995,"y":2723709.2347999997}},{"attributes":{"OBJECTID":23231,"LANDMARKID":"1000200001112","LANDMARKCO":"604","LANDMARKNA":"東風茶館民宿","LANDMARKAD":"1000212","ADDRESS":"宜蘭縣冬山鄉中山村中山路768巷11號","TEL":"03-9587511","COUNTYNAME":"宜蘭縣","TOWNNAME":"南澳鄉","MARKTYPE":"996","Class":"6"},"geometry":{"x":323818.18969999999,"y":2723782.8915999997}},{"attributes":{"OBJECTID":23232,"LANDMARKID":"1000200000693","LANDMARKCO":"508","LANDMARKNA":"南澳溫泉(烏帽溫泉)","LANDMARKAD":"1000212","ADDRESS":"宜蘭縣南澳鄉","TEL":" ","COUNTYNAME":"宜蘭縣","TOWNNAME":"南澳鄉","MARKTYPE":"995","Class":"5"},"geometry":{"x":323320.49409999978,"y":2713421.7249999996}},{"attributes":{"OBJECTID":23233,"LANDMARKID":"1000200000651","LANDMARKCO":"504","LANDMARKNA":"太平山森林遊樂區","LANDMARKAD":"1000212","ADDRESS":"宜蘭縣大同鄉太平村太平巷58之1號","TEL":"03-9548757","COUNTYNAME":"宜蘭縣","TOWNNAME":"南澳鄉","MARKTYPE":"995","Class":"5"},"geometry":{"x":304426.86760000046,"y":2709832.7578999996}},{"attributes":{"OBJECTID":23234,"LANDMARKID":"1001500000633","LANDMARKCO":"405","LANDMARKNA":"中油加油站-太魯閣站(中油自營)","LANDMARKAD":"1001511","ADDRESS":"花蓮縣秀林鄉富世村154-1號","TEL":"03-8611009","COUNTYNAME":"花蓮縣","TOWNNAME":"秀林鄉","MARKTYPE":"994","Class":"4"},"geometry":{"x":313283.08889999986,"y":2672235.9074000008}},{"attributes":{"OBJECTID":23235,"LANDMARKID":"1001500000634","LANDMARKCO":"405","LANDMARKNA":"中油加油站-關原站(中油自營)","LANDMARKAD":"1001511","ADDRESS":"花蓮縣秀林鄉富世村關原15號","TEL":"04-25991176","COUNTYNAME":"花蓮縣","TOWNNAME":"秀林鄉","MARKTYPE":"994","Class":"4"},"geometry":{"x":285358.42619999964,"y":2675950.2936000004}},{"attributes":{"OBJECTID":23236,"LANDMARKID":"1001500000635","LANDMARKCO":"405","LANDMARKNA":"中油加油站-崇德盈站","LANDMARKAD":"1001511","ADDRESS":"花蓮縣秀林鄉崇德村崇德95之5號","TEL":"03-8621626","COUNTYNAME":"花蓮縣","TOWNNAME":"秀林鄉","MARKTYPE":"994","Class":"4"},"geometry":{"x":316164.7472000001,"y":2672835.9674999993}},{"attributes":{"OBJECTID":23237,"LANDMARKID":"1001500000636","LANDMARKCO":"405","LANDMARKNA":"中油加油站-和平站(中油自營)","LANDMARKAD":"1001511","ADDRESS":"花蓮縣秀林鄉和平村和平路32-1號","TEL":"03-8681261","COUNTYNAME":"花蓮縣","TOWNNAME":"秀林鄉","MARKTYPE":"994","Class":"4"},"geometry":{"x":325222.31680000015,"y":2690590.9075000007}},{"attributes":{"OBJECTID":23238,"LANDMARKID":"1001500000769","LANDMARKCO":"507","LANDMARKNA":"富世遺址","LANDMARKAD":"1001511","ADDRESS":"花蓮縣秀林鄉富世段111號","TEL":" ","COUNTYNAME":"花蓮縣","TOWNNAME":"秀林鄉","MARKTYPE":"995","Class":"5"},"geometry":{"x":313625.13040000014,"y":2671718.0518999994}},{"attributes":{"OBJECTID":23239,"LANDMARKID":"1001500000730","LANDMARKCO":"502","LANDMARKNA":"太魯閣國家公園","LANDMARKAD":"1001511","ADDRESS":"花蓮縣秀林鄉富世村富世291號","TEL":"03-8621111","COUNTYNAME":"花蓮縣","TOWNNAME":"秀林鄉","MARKTYPE":"995","Class":"5"},"geometry":{"x":314098.60429999977,"y":2674355.8456999995}},{"attributes":{"OBJECTID":23240,"LANDMARKID":"1001500000694","LANDMARKCO":"408","LANDMARKNA":"郵局-秀林天祥郵局","LANDMARKAD":"1001511","ADDRESS":"花蓮縣秀林鄉富世村天祥21號","TEL":"(03)8691-128","COUNTYNAME":"花蓮縣","TOWNNAME":"秀林鄉","MARKTYPE":"994","Class":"4"},"geometry":{"x":300285.39199999999,"y":2675387.8690000009}},{"attributes":{"OBJECTID":23241,"LANDMARKID":"1001500000695","LANDMARKCO":"408","LANDMARKNA":"郵局-秀林和平郵局","LANDMARKAD":"1001511","ADDRESS":"花蓮縣秀林鄉和平村113號","TEL":"(03)8681-062","COUNTYNAME":"花蓮縣","TOWNNAME":"秀林鄉","MARKTYPE":"994","Class":"4"},"geometry":{"x":325997.01829999965,"y":2689822.5357000008}},{"attributes":{"OBJECTID":23242,"LANDMARKID":"1001500000194","LANDMARKCO":"107","LANDMARKNA":"花蓮縣警察局天祥派出所","LANDMARKAD":"1001511","ADDRESS":"花蓮縣秀林鄉富世村天祥路22之1號","TEL":"03-8691139","COUNTYNAME":"花蓮縣","TOWNNAME":"秀林鄉","MARKTYPE":"991","Class":"1"},"geometry":{"x":300210.9254999999,"y":2675369.1002999991}},{"attributes":{"OBJECTID":23243,"LANDMARKID":"1001500000085","LANDMARKCO":"103","LANDMARKNA":"花蓮縣秀林鄉衛生所","LANDMARKAD":"1001511","ADDRESS":"花蓮縣秀林鄉秀林路88號","TEL":"03-8612122","COUNTYNAME":"花蓮縣","TOWNNAME":"秀林鄉","MARKTYPE":"991","Class":"1"},"geometry":{"x":313589.64439999964,"y":2668229.7506000008}},{"attributes":{"OBJECTID":23244,"LANDMARKID":"1001500000193","LANDMARKCO":"107","LANDMARKNA":"花蓮縣消防局和平消防分隊","LANDMARKAD":"1001511","ADDRESS":"花蓮縣秀林鄉和平村和平路229之30號","TEL":"03-8681361","COUNTYNAME":"花蓮縣","TOWNNAME":"秀林鄉","MARKTYPE":"991","Class":"1"},"geometry":{"x":325825.0092000002,"y":2689868.5836999994}},{"attributes":{"OBJECTID":23245,"LANDMARKID":"1001500000228","LANDMARKCO":"108","LANDMARKNA":"花蓮縣秀林鄉公所","LANDMARKAD":"1001511","ADDRESS":"花蓮縣秀林鄉秀林村62號","TEL":"03-8612116","COUNTYNAME":"花蓮縣","TOWNNAME":"秀林鄉","MARKTYPE":"991","Class":"1"},"geometry":{"x":313507.31350000016,"y":2668378.8618000001}},{"attributes":{"OBJECTID":23246,"LANDMARKID":"1001500000084","LANDMARKCO":"103","LANDMARKNA":"花蓮縣秀林鄉鄉民代表會","LANDMARKAD":"1001511","ADDRESS":"花蓮縣秀林鄉秀林87號","TEL":"03-8611284","COUNTYNAME":"花蓮縣","TOWNNAME":"秀林鄉","MARKTYPE":"991","Class":"1"},"geometry":{"x":313576.51070000045,"y":2668199.8092}},{"attributes":{"OBJECTID":23247,"LANDMARKID":"1001500000195","LANDMARKCO":"107","LANDMARKNA":"花蓮縣警察局水源派出所","LANDMARKAD":"1001511","ADDRESS":"花蓮縣秀林鄉水源村109號","TEL":"03-8572083","COUNTYNAME":"花蓮縣","TOWNNAME":"秀林鄉","MARKTYPE":"991","Class":"1"},"geometry":{"x":306462.18919999991,"y":2655489.1338999998}},{"attributes":{"OBJECTID":23248,"LANDMARKID":"1001500000196","LANDMARKCO":"107","LANDMARKNA":"花蓮縣警察局銅門派出所","LANDMARKAD":"1001511","ADDRESS":"花蓮縣秀林鄉銅門村65號","TEL":"03-8641051","COUNTYNAME":"花蓮縣","TOWNNAME":"秀林鄉","MARKTYPE":"991","Class":"1"},"geometry":{"x":299270.9319000002,"y":2651379.7278000005}},{"attributes":{"OBJECTID":23249,"LANDMARKID":"1001500000197","LANDMARKCO":"107","LANDMARKNA":"花蓮縣警察局文蘭派出所","LANDMARKAD":"1001511","ADDRESS":"花蓮縣秀林鄉文蘭村72號","TEL":"03-8641285","COUNTYNAME":"花蓮縣","TOWNNAME":"秀林鄉","MARKTYPE":"991","Class":"1"},"geometry":{"x":301503.54459999967,"y":2649729.8388999999}},{"attributes":{"OBJECTID":23250,"LANDMARKID":"1001500000198","LANDMARKCO":"107","LANDMARKNA":"花蓮縣警察局和平派出所","LANDMARKAD":"1001511","ADDRESS":"花蓮縣秀林鄉和平村和平121號","TEL":"03-8681034","COUNTYNAME":"花蓮縣","TOWNNAME":"秀林鄉","MARKTYPE":"991","Class":"1"},"geometry":{"x":325867.47140000015,"y":2689769.8668000009}},{"attributes":{"OBJECTID":23251,"LANDMARKID":"1001500000199","LANDMARKCO":"107","LANDMARKNA":"花蓮縣警察局和仁派出所","LANDMARKAD":"1001511","ADDRESS":"花蓮縣秀林鄉和平村和仁59號","TEL":"03-8681206","COUNTYNAME":"花蓮縣","TOWNNAME":"秀林鄉","MARKTYPE":"991","Class":"1"},"geometry":{"x":323285.18310000002,"y":2682318.8442000002}},{"attributes":{"OBJECTID":23252,"LANDMARKID":"1001500000200","LANDMARKCO":"107","LANDMARKNA":"花蓮縣警察局崇德派出所","LANDMARKAD":"1001511","ADDRESS":"花蓮縣秀林鄉崇德村82號","TEL":"03-8621043","COUNTYNAME":"花蓮縣","TOWNNAME":"秀林鄉","MARKTYPE":"991","Class":"1"},"geometry":{"x":316268.79079999961,"y":2673188.9923}},{"attributes":{"OBJECTID":23253,"LANDMARKID":"1001500000201","LANDMARKCO":"107","LANDMARKNA":"花蓮縣警察局富世派出所","LANDMARKAD":"1001511","ADDRESS":"花蓮縣秀林鄉富世村135之1號","TEL":"03-8611344","COUNTYNAME":"花蓮縣","TOWNNAME":"秀林鄉","MARKTYPE":"991","Class":"1"},"geometry":{"x":313688.18859999999,"y":2671819.2360999994}},{"attributes":{"OBJECTID":23254,"LANDMARKID":"1001500000202","LANDMARKCO":"107","LANDMARKNA":"花蓮縣警察局洛韶派出所","LANDMARKAD":"1001511","ADDRESS":"花蓮縣秀林鄉富世村洛韶17號","TEL":"03-8691329","COUNTYNAME":"花蓮縣","TOWNNAME":"秀林鄉","MARKTYPE":"991","Class":"1"},"geometry":{"x":295982.25069999974,"y":2677939.1320999991}},{"attributes":{"OBJECTID":23255,"LANDMARKID":"1001500000203","LANDMARKCO":"107","LANDMARKNA":"花蓮縣警察局合歡派出所","LANDMARKAD":"1001511","ADDRESS":"花蓮縣秀林鄉富世村關原20之1號","TEL":"04-25991114","COUNTYNAME":"花蓮縣","TOWNNAME":"秀林鄉","MARKTYPE":"991","Class":"1"},"geometry":{"x":281264.51449999958,"y":2674979.5269000009}},{"attributes":{"OBJECTID":23256,"LANDMARKID":"1001500000204","LANDMARKCO":"107","LANDMARKNA":"花蓮縣警察局秀林分駐所","LANDMARKAD":"1001511","ADDRESS":"花蓮縣秀林鄉秀林村69號","TEL":"03-8611090","COUNTYNAME":"花蓮縣","TOWNNAME":"秀林鄉","MARKTYPE":"991","Class":"1"},"geometry":{"x":313492.26900000032,"y":2668368.9287999999}},{"attributes":{"OBJECTID":23257,"LANDMARKID":"1001500000205","LANDMARKCO":"107","LANDMARKNA":"花蓮縣警察局加灣派出所","LANDMARKAD":"1001511","ADDRESS":"花蓮縣秀林鄉景美村加灣117號","TEL":"03-8260769","COUNTYNAME":"花蓮縣","TOWNNAME":"秀林鄉","MARKTYPE":"991","Class":"1"},"geometry":{"x":311708.17650000006,"y":2664349.4225999992}},{"attributes":{"OBJECTID":23258,"LANDMARKID":"1001500000206","LANDMARKCO":"107","LANDMARKNA":"花蓮縣警察局三棧派出所","LANDMARKAD":"1001511","ADDRESS":"花蓮縣秀林鄉景美村三棧26號","TEL":"03-8611745","COUNTYNAME":"花蓮縣","TOWNNAME":"秀林鄉","MARKTYPE":"991","Class":"1"},"geometry":{"x":311836.64180000033,"y":2666378.8256000001}},{"attributes":{"OBJECTID":23259,"LANDMARKID":"1001500000207","LANDMARKCO":"107","LANDMARKNA":"花蓮縣警察局佳民派出所","LANDMARKAD":"1001511","ADDRESS":"花蓮縣秀林鄉佳民村123號","TEL":"03-8263274","COUNTYNAME":"花蓮縣","TOWNNAME":"秀林鄉","MARKTYPE":"991","Class":"1"},"geometry":{"x":310907.69070000015,"y":2661159.2873}},{"attributes":{"OBJECTID":23260,"LANDMARKID":"1001500000208","LANDMARKCO":"107","LANDMARKNA":"花蓮縣警察局慈恩派出所","LANDMARKAD":"1001511","ADDRESS":"花蓮縣秀林鄉富世村關原2號","TEL":" ","COUNTYNAME":"花蓮縣","TOWNNAME":"秀林鄉","MARKTYPE":"991","Class":"1"},"geometry":{"x":289439.50800000038,"y":2676179.4176000003}},{"attributes":{"OBJECTID":23261,"LANDMARKID":"1001500000209","LANDMARKCO":"107","LANDMARKNA":"國家公園警察大隊太魯閣國家公園","LANDMARKAD":"1001511","ADDRESS":"花蓮縣秀林鄉富世村293號","TEL":"03-8621405","COUNTYNAME":"花蓮縣","TOWNNAME":"秀林鄉","MARKTYPE":"991","Class":"1"},"geometry":{"x":314149.53619999997,"y":2674359.6447000001}},{"attributes":{"OBJECTID":23262,"LANDMARKID":"1001500000100","LANDMARKCO":"106","LANDMARKNA":"花蓮縣秀林鄉戶政事務所","LANDMARKAD":"1001511","ADDRESS":"花蓮縣秀林鄉秀林村12鄰秀林78號","TEL":"03-8611544","COUNTYNAME":"花蓮縣","TOWNNAME":"秀林鄉","MARKTYPE":"991","Class":"1"},"geometry":{"x":313691.38580000028,"y":2668479.2901000008}},{"attributes":{"OBJECTID":23263,"LANDMARKID":"1001500000086","LANDMARKCO":"103","LANDMARKNA":"崇德漁港安檢所","LANDMARKAD":"1001511","ADDRESS":"花蓮縣秀林鄉崇德村2鄰崇德21號","TEL":"03-8621129","COUNTYNAME":"花蓮縣","TOWNNAME":"秀林鄉","MARKTYPE":"991","Class":"1"},"geometry":{"x":316764.70299999975,"y":2673479.2991000004}},{"attributes":{"OBJECTID":23264,"LANDMARKID":"1001500000420","LANDMARKCO":"205","LANDMARKNA":"太魯閣國家公園遊客中心文物陳列室","LANDMARKAD":"1001511","ADDRESS":"花蓮縣秀林鄉富世村富士段291號","TEL":" ","COUNTYNAME":"花蓮縣","TOWNNAME":"秀林鄉","MARKTYPE":"992","Class":"2"},"geometry":{"x":313274.12719999999,"y":2672650.9450000003}},{"attributes":{"OBJECTID":23265,"LANDMARKID":"1001500000404","LANDMARKCO":"204","LANDMARKNA":"花蓮縣立圖書館秀林分館","LANDMARKAD":"1001511","ADDRESS":"花蓮縣秀林鄉秀林村12鄰66號","TEL":" ","COUNTYNAME":"花蓮縣","TOWNNAME":"秀林鄉","MARKTYPE":"992","Class":"2"},"geometry":{"x":316833.85989999957,"y":2669692.1986999996}},{"attributes":{"OBJECTID":23266,"LANDMARKID":"1001500000355","LANDMARKCO":"203","LANDMARKNA":"縣立秀林國小","LANDMARKAD":"1001511","ADDRESS":"花蓮縣秀林鄉秀林村秀林路76號","TEL":"03-8611393","COUNTYNAME":"花蓮縣","TOWNNAME":"秀林鄉","MARKTYPE":"992","Class":"2"},"geometry":{"x":313491.46710000001,"y":2668188.9323999994}},{"attributes":{"OBJECTID":23267,"LANDMARKID":"1001500000356","LANDMARKCO":"203","LANDMARKNA":"縣立水源國小","LANDMARKAD":"1001511","ADDRESS":"花蓮縣秀林鄉水源村111號","TEL":"03-8327416","COUNTYNAME":"花蓮縣","TOWNNAME":"秀林鄉","MARKTYPE":"992","Class":"2"},"geometry":{"x":306636.50320000015,"y":2655569.5579000004}},{"attributes":{"OBJECTID":23268,"LANDMARKID":"1001500000357","LANDMARKCO":"203","LANDMARKNA":"縣立和平國小","LANDMARKAD":"1001511","ADDRESS":"花蓮縣秀林鄉和平村112號","TEL":"03-8681056","COUNTYNAME":"花蓮縣","TOWNNAME":"秀林鄉","MARKTYPE":"992","Class":"2"},"geometry":{"x":326021.5728000002,"y":2689359.0561999995}},{"attributes":{"OBJECTID":23269,"LANDMARKID":"1001500000358","LANDMARKCO":"203","LANDMARKNA":"縣立佳民國小","LANDMARKAD":"1001511","ADDRESS":"花蓮縣秀林鄉佳民村119號","TEL":"03-8264900","COUNTYNAME":"花蓮縣","TOWNNAME":"秀林鄉","MARKTYPE":"992","Class":"2"},"geometry":{"x":310942.4347000001,"y":2661099.1392000001}},{"attributes":{"OBJECTID":23270,"LANDMARKID":"1001500000359","LANDMARKCO":"203","LANDMARKNA":"縣立富世國小","LANDMARKAD":"1001511","ADDRESS":"花蓮縣秀林鄉富世村127號","TEL":"03-8611431","COUNTYNAME":"花蓮縣","TOWNNAME":"秀林鄉","MARKTYPE":"992","Class":"2"},"geometry":{"x":313960.30819999985,"y":2671539.2846000008}},{"attributes":{"OBJECTID":23271,"LANDMARKID":"1001500000360","LANDMARKCO":"203","LANDMARKNA":"縣立三棧國小","LANDMARKAD":"1001511","ADDRESS":"花蓮縣秀林鄉景美村15鄰三棧102號","TEL":"03-8260330","COUNTYNAME":"花蓮縣","TOWNNAME":"秀林鄉","MARKTYPE":"992","Class":"2"},"geometry":{"x":311649.29179999977,"y":2666529.6366000008}},{"attributes":{"OBJECTID":23272,"LANDMARKID":"1001500000361","LANDMARKCO":"203","LANDMARKNA":"縣立銅門國小","LANDMARKAD":"1001511","ADDRESS":"花蓮縣秀林鄉銅門村69號","TEL":"03-8641174","COUNTYNAME":"花蓮縣","TOWNNAME":"秀林鄉","MARKTYPE":"992","Class":"2"},"geometry":{"x":300210.41359999962,"y":2651229.4036999997}},{"attributes":{"OBJECTID":23273,"LANDMARKID":"1001500000362","LANDMARKCO":"203","LANDMARKNA":"縣立崇德國小","LANDMARKAD":"1001511","ADDRESS":"花蓮縣秀林鄉崇德村72號","TEL":"03-8621220","COUNTYNAME":"花蓮縣","TOWNNAME":"秀林鄉","MARKTYPE":"992","Class":"2"},"geometry":{"x":316344.1370000001,"y":2673049.9547000006}},{"attributes":{"OBJECTID":23274,"LANDMARKID":"1001500000363","LANDMARKCO":"203","LANDMARKNA":"縣立銅蘭國小","LANDMARKAD":"1001511","ADDRESS":"花蓮縣秀林鄉文蘭村70號","TEL":"03-8641005","COUNTYNAME":"花蓮縣","TOWNNAME":"秀林鄉","MARKTYPE":"992","Class":"2"},"geometry":{"x":301607.93090000004,"y":2649529.4682}},{"attributes":{"OBJECTID":23275,"LANDMARKID":"1001500000364","LANDMARKCO":"203","LANDMARKNA":"縣立景美國小","LANDMARKAD":"1001511","ADDRESS":"花蓮縣秀林鄉景美村加灣112號","TEL":"03-8266707","COUNTYNAME":"花蓮縣","TOWNNAME":"秀林鄉","MARKTYPE":"992","Class":"2"},"geometry":{"x":311640.91739999969,"y":2664289.7130999994}},{"attributes":{"OBJECTID":23276,"LANDMARKID":"1001500000365","LANDMARKCO":"203","LANDMARKNA":"縣立西寶國小","LANDMARKAD":"1001511","ADDRESS":"花蓮縣秀林鄉富世村西寶11號","TEL":"03-8691040","COUNTYNAME":"花蓮縣","TOWNNAME":"秀林鄉","MARKTYPE":"992","Class":"2"},"geometry":{"x":299241.77740000002,"y":2677789.5107000005}},{"attributes":{"OBJECTID":23277,"LANDMARKID":"1001500000366","LANDMARKCO":"203","LANDMARKNA":"縣立文蘭國小","LANDMARKAD":"1001511","ADDRESS":"花蓮縣秀林鄉文蘭村米亞丸1號","TEL":"03-8641020","COUNTYNAME":"花蓮縣","TOWNNAME":"秀林鄉","MARKTYPE":"992","Class":"2"},"geometry":{"x":301028.14190000016,"y":2646539.5602000002}},{"attributes":{"OBJECTID":23278,"LANDMARKID":"1001500000367","LANDMARKCO":"203","LANDMARKNA":"縣立和平國小和中分校","LANDMARKAD":"1001511","ADDRESS":"花蓮縣秀林鄉","TEL":" ","COUNTYNAME":"花蓮縣","TOWNNAME":"秀林鄉","MARKTYPE":"992","Class":"2"},"geometry":{"x":325281.17870000005,"y":2684788.6290000007}},{"attributes":{"OBJECTID":23279,"LANDMARKID":"1001500000368","LANDMARKCO":"203","LANDMARKNA":"縣立文蘭國小重光分校","LANDMARKAD":"1001511","ADDRESS":"花蓮縣秀林鄉","TEL":" ","COUNTYNAME":"花蓮縣","TOWNNAME":"秀林鄉","MARKTYPE":"992","Class":"2"},"geometry":{"x":301037.51020000037,"y":2643259.5700000003}},{"attributes":{"OBJECTID":23280,"LANDMARKID":"1001500000506","LANDMARKCO":"303","LANDMARKNA":"慈母橋停車場","LANDMARKAD":"1001511","ADDRESS":"花蓮縣秀林鄉天祥路","TEL":" ","COUNTYNAME":"花蓮縣","TOWNNAME":"秀林鄉","MARKTYPE":"993","Class":"303"},"geometry":{"x":305374.39680000022,"y":2674326.1065999996}},{"attributes":{"OBJECTID":23281,"LANDMARKID":"1001500000507","LANDMARKCO":"303","LANDMARKNA":"天祥停車場","LANDMARKAD":"1001511","ADDRESS":"花蓮縣秀林鄉天祥路","TEL":" ","COUNTYNAME":"花蓮縣","TOWNNAME":"秀林鄉","MARKTYPE":"993","Class":"303"},"geometry":{"x":313704.23309999984,"y":2671845.8926999997}},{"attributes":{"OBJECTID":23282,"LANDMARKID":"1001500000508","LANDMARKCO":"303","LANDMARKNA":"合歡山莊停車場","LANDMARKAD":"1001511","ADDRESS":"花蓮縣秀林鄉","TEL":" ","COUNTYNAME":"花蓮縣","TOWNNAME":"秀林鄉","MARKTYPE":"993","Class":"303"},"geometry":{"x":278904.4637000002,"y":2670793.4318000004}},{"attributes":{"OBJECTID":23283,"LANDMARKID":"1001500000509","LANDMARKCO":"303","LANDMARKNA":"關原停車場","LANDMARKAD":"1001511","ADDRESS":"花蓮縣秀林鄉關原台8線117K","TEL":" ","COUNTYNAME":"花蓮縣","TOWNNAME":"秀林鄉","MARKTYPE":"993","Class":"303"},"geometry":{"x":283938.30319999997,"y":2675984.9495999999}},{"attributes":{"OBJECTID":23284,"LANDMARKID":"1001500000510","LANDMARKCO":"303","LANDMARKNA":"碧綠神木停車場","LANDMARKAD":"1001511","ADDRESS":"花蓮縣秀林鄉","TEL":" ","COUNTYNAME":"花蓮縣","TOWNNAME":"秀林鄉","MARKTYPE":"993","Class":"303"},"geometry":{"x":290981.14639999997,"y":2675063.3287000004}},{"attributes":{"OBJECTID":23285,"LANDMARKID":"1001500000511","LANDMARKCO":"303","LANDMARKNA":"長春祠停車場","LANDMARKAD":"1001511","ADDRESS":"花蓮縣秀林鄉","TEL":" ","COUNTYNAME":"花蓮縣","TOWNNAME":"秀林鄉","MARKTYPE":"993","Class":"303"},"geometry":{"x":311396.91060000006,"y":2673070.5847999994}},{"attributes":{"OBJECTID":23286,"LANDMARKID":"1001500000512","LANDMARKCO":"303","LANDMARKNA":"砂卡礑步道停車場","LANDMARKAD":"1001511","ADDRESS":"花蓮縣秀林鄉","TEL":" ","COUNTYNAME":"花蓮縣","TOWNNAME":"秀林鄉","MARKTYPE":"993","Class":"303"},"geometry":{"x":312304.40519999992,"y":2673021.9124999996}},{"attributes":{"OBJECTID":23287,"LANDMARKID":"1001500000513","LANDMARKCO":"303","LANDMARKNA":"太魯閣國家公園遊客中心停車場","LANDMARKAD":"1001511","ADDRESS":"花蓮縣秀林鄉富世村富士段291號","TEL":" ","COUNTYNAME":"花蓮縣","TOWNNAME":"秀林鄉","MARKTYPE":"993","Class":"303"},"geometry":{"x":313281.87559999991,"y":2672606.7804000005}},{"attributes":{"OBJECTID":23288,"LANDMARKID":"1001500000514","LANDMARKCO":"303","LANDMARKNA":"太魯閣國家公園管理處布洛管理區","LANDMARKAD":"1001511","ADDRESS":"花蓮縣秀林鄉富世村富世段223號","TEL":" ","COUNTYNAME":"花蓮縣","TOWNNAME":"秀林鄉","MARKTYPE":"993","Class":"303"},"geometry":{"x":310618.46389999986,"y":2674127.2770000007}},{"attributes":{"OBJECTID":23289,"LANDMARKID":"1001500000515","LANDMARKCO":"303","LANDMARKNA":"文山溫泉停車場","LANDMARKAD":"1001511","ADDRESS":"花蓮縣秀林鄉文祥路","TEL":" ","COUNTYNAME":"花蓮縣","TOWNNAME":"秀林鄉","MARKTYPE":"993","Class":"303"},"geometry":{"x":300000.72360000014,"y":2677265.4660999998}},{"attributes":{"OBJECTID":23290,"LANDMARKID":"1001500000516","LANDMARKCO":"303","LANDMARKNA":"白揚停車場","LANDMARKAD":"1001511","ADDRESS":"花蓮縣秀林鄉","TEL":" ","COUNTYNAME":"花蓮縣","TOWNNAME":"秀林鄉","MARKTYPE":"993","Class":"303"},"geometry":{"x":300176.88659999985,"y":2675310.1866999995}},{"attributes":{"OBJECTID":23291,"LANDMARKID":"1001500000517","LANDMARKCO":"303","LANDMARKNA":"神禾服務站停車場","LANDMARKAD":"1001511","ADDRESS":"花蓮縣秀林鄉富世村省道台八線129K","TEL":" ","COUNTYNAME":"花蓮縣","TOWNNAME":"秀林鄉","MARKTYPE":"993","Class":"303"},"geometry":{"x":299123.4785000002,"y":2678849.2413999997}},{"attributes":{"OBJECTID":23292,"LANDMARKID":"1001500000424","LANDMARKCO":"301","LANDMARKNA":"景美火車站","LANDMARKAD":"1001511","ADDRESS":"花蓮縣秀林鄉","TEL":" ","COUNTYNAME":"花蓮縣","TOWNNAME":"秀林鄉","MARKTYPE":"993","Class":"301"},"geometry":{"x":312091.36099999957,"y":2665131.9219000004}},{"attributes":{"OBJECTID":23293,"LANDMARKID":"1001500000425","LANDMARKCO":"301","LANDMARKNA":"崇德火車站","LANDMARKAD":"1001511","ADDRESS":"花蓮縣秀林鄉海濱路96號","TEL":"03-8621365","COUNTYNAME":"花蓮縣","TOWNNAME":"秀林鄉","MARKTYPE":"993","Class":"301"},"geometry":{"x":316592.76919999998,"y":2674228.4458000008}},{"attributes":{"OBJECTID":23294,"LANDMARKID":"1001500000426","LANDMARKCO":"301","LANDMARKNA":"和仁火車站","LANDMARKAD":"1001511","ADDRESS":"花蓮縣秀林鄉和仁路71號","TEL":"03-8681221","COUNTYNAME":"花蓮縣","TOWNNAME":"秀林鄉","MARKTYPE":"993","Class":"301"},"geometry":{"x":322334.19610000029,"y":2682060.8324999996}},{"attributes":{"OBJECTID":23295,"LANDMARKID":"1001500000427","LANDMARKCO":"301","LANDMARKNA":"和平火車站","LANDMARKAD":"1001511","ADDRESS":"花蓮縣秀林鄉和平村276號","TEL":"03-8681009","COUNTYNAME":"花蓮縣","TOWNNAME":"秀林鄉","MARKTYPE":"993","Class":"301"},"geometry":{"x":326572.91000000015,"y":2688311.8923000004}},{"attributes":{"OBJECTID":23296,"LANDMARKID":"1001500001286","LANDMARKCO":"604","LANDMARKNA":"嵐天小築民宿","LANDMARKAD":"1001511","ADDRESS":"花蓮縣秀林鄉秀林村民治路35-5號","TEL":"03-8612429","COUNTYNAME":"花蓮縣","TOWNNAME":"秀林鄉","MARKTYPE":"996","Class":"6"},"geometry":{"x":314704.23809999973,"y":2669080.2390000001}},{"attributes":{"OBJECTID":23297,"LANDMARKID":"1001500001287","LANDMARKCO":"604","LANDMARKNA":"荖萊居民宿","LANDMARKAD":"1001511","ADDRESS":"花蓮縣秀林鄉秀林村民治路75-5號","TEL":"03-8610199","COUNTYNAME":"花蓮縣","TOWNNAME":"秀林鄉","MARKTYPE":"996","Class":"6"},"geometry":{"x":314087.09829999972,"y":2668899.1039000005}},{"attributes":{"OBJECTID":23298,"LANDMARKID":"1001500001288","LANDMARKCO":"604","LANDMARKNA":"禾歆部落山居民宿","LANDMARKAD":"1001511","ADDRESS":"花蓮縣秀林鄉文蘭村重光36號","TEL":"03-8650214","COUNTYNAME":"花蓮縣","TOWNNAME":"秀林鄉","MARKTYPE":"996","Class":"6"},"geometry":{"x":301106.90130000003,"y":2643360.0446000006}},{"attributes":{"OBJECTID":23299,"LANDMARKID":"1001500001289","LANDMARKCO":"604","LANDMARKNA":"山中傳奇民宿","LANDMARKAD":"1001511","ADDRESS":"花蓮縣秀林鄉水源村水源112-7號","TEL":"03-8581188","COUNTYNAME":"花蓮縣","TOWNNAME":"秀林鄉","MARKTYPE":"996","Class":"6"},"geometry":{"x":306734.77759999968,"y":2655853.9210999999}},{"attributes":{"OBJECTID":23300,"LANDMARKID":"1001500001290","LANDMARKCO":"604","LANDMARKNA":"雙橡園山莊民宿","LANDMARKAD":"1001511","ADDRESS":"花蓮縣秀林鄉水源村金嵐2-8號","TEL":"03-8461737","COUNTYNAME":"花蓮縣","TOWNNAME":"秀林鄉","MARKTYPE":"996","Class":"6"},"geometry":{"x":305363.01180000044,"y":2655820.6180000007}},{"attributes":{"OBJECTID":23301,"LANDMARKID":"1001500001291","LANDMARKCO":"604","LANDMARKNA":"翔廬渡假民宿","LANDMARKAD":"1001511","ADDRESS":"花蓮縣秀林鄉佳民村佳民95-3號","TEL":"03-8261111","COUNTYNAME":"花蓮縣","TOWNNAME":"秀林鄉","MARKTYPE":"996","Class":"6"},"geometry":{"x":310303.67499999981,"y":2661170.1197999995}},{"attributes":{"OBJECTID":23302,"LANDMARKID":"1001500001292","LANDMARKCO":"604","LANDMARKNA":"自在園民宿","LANDMARKAD":"1001511","ADDRESS":"花蓮縣秀林鄉佳民村佳民95-6號","TEL":"03-8263033","COUNTYNAME":"花蓮縣","TOWNNAME":"秀林鄉","MARKTYPE":"996","Class":"6"},"geometry":{"x":310327.49749999959,"y":2661373.4603000004}},{"attributes":{"OBJECTID":23303,"LANDMARKID":"1001500001293","LANDMARKCO":"604","LANDMARKNA":"星光小筑民宿","LANDMARKAD":"1001511","ADDRESS":"花蓮縣秀林鄉佳民村佳民95-5號","TEL":"03-8260633","COUNTYNAME":"花蓮縣","TOWNNAME":"秀林鄉","MARKTYPE":"996","Class":"6"},"geometry":{"x":310411.37920000032,"y":2661118.6202000007}},{"attributes":{"OBJECTID":23304,"LANDMARKID":"1001500001294","LANDMARKCO":"604","LANDMARKNA":"宇馨藝民宿","LANDMARKAD":"1001511","ADDRESS":"花蓮縣秀林鄉富世村富世1-16號","TEL":"03-8611598","COUNTYNAME":"花蓮縣","TOWNNAME":"秀林鄉","MARKTYPE":"996","Class":"6"},"geometry":{"x":315137.82849999983,"y":2670460.7385000009}},{"attributes":{"OBJECTID":23305,"LANDMARKID":"1001500001295","LANDMARKCO":"604","LANDMARKNA":"砂卡礑民宿","LANDMARKAD":"1001511","ADDRESS":"花蓮縣秀林鄉富世村富世141號","TEL":"03-8611623","COUNTYNAME":"花蓮縣","TOWNNAME":"秀林鄉","MARKTYPE":"996","Class":"6"},"geometry":{"x":313631.3786000004,"y":2671879.2170000002}},{"attributes":{"OBJECTID":23306,"LANDMARKID":"1001500001296","LANDMARKCO":"604","LANDMARKNA":"布拉旦的家民宿","LANDMARKAD":"1001511","ADDRESS":"花蓮縣秀林鄉景美村三棧30號","TEL":"03-8612684","COUNTYNAME":"花蓮縣","TOWNNAME":"秀林鄉","MARKTYPE":"996","Class":"6"},"geometry":{"x":311887.82409999985,"y":2666420.8200000003}},{"attributes":{"OBJECTID":23307,"LANDMARKID":"1001500001297","LANDMARKCO":"604","LANDMARKNA":"莎集雅築民宿","LANDMARKAD":"1001511","ADDRESS":"花蓮縣秀林鄉景美村加灣179-11號","TEL":"03-8261811","COUNTYNAME":"花蓮縣","TOWNNAME":"秀林鄉","MARKTYPE":"996","Class":"6"},"geometry":{"x":311938.66260000039,"y":2663920.0252999999}},{"attributes":{"OBJECTID":23308,"LANDMARKID":"1001500000833","LANDMARKCO":"601","LANDMARKNA":"天祥晶華度假酒店","LANDMARKAD":"1001511","ADDRESS":"花蓮縣秀林鄉富世村天祥路18號","TEL":"038-691-158","COUNTYNAME":"花蓮縣","TOWNNAME":"秀林鄉","MARKTYPE":"996","Class":"6"},"geometry":{"x":300207.2603000002,"y":2675215.9828999992}},{"attributes":{"OBJECTID":23309,"LANDMARKID":"1001500000731","LANDMARKCO":"503","LANDMARKNA":"天祥風景區","LANDMARKAD":"1001511","ADDRESS":"花蓮縣秀林鄉","TEL":" ","COUNTYNAME":"花蓮縣","TOWNNAME":"秀林鄉","MARKTYPE":"995","Class":"5"},"geometry":{"x":300191.89670000039,"y":2675247.5205000006}},{"attributes":{"OBJECTID":23310,"LANDMARKID":"1001500000755","LANDMARKCO":"505","LANDMARKNA":"東方夏威夷遊樂園","LANDMARKAD":"1001511","ADDRESS":"花蓮縣秀林鄉水源村1之9號","TEL":" ","COUNTYNAME":"花蓮縣","TOWNNAME":"秀林鄉","MARKTYPE":"995","Class":"5"},"geometry":{"x":305151.20189999975,"y":2656170.1154999994}},{"attributes":{"OBJECTID":23311,"LANDMARKID":"1001500000732","LANDMARKCO":"503","LANDMARKNA":"布洛灣遊憩區","LANDMARKAD":"1001511","ADDRESS":"花蓮縣秀林鄉","TEL":" ","COUNTYNAME":"花蓮縣","TOWNNAME":"秀林鄉","MARKTYPE":"995","Class":"5"},"geometry":{"x":308201.21729999967,"y":2674037.5589000005}},{"attributes":{"OBJECTID":23312,"LANDMARKID":"1001500000802","LANDMARKCO":"513","LANDMARKNA":"奇萊主山北峰","LANDMARKAD":"1001511","ADDRESS":"花蓮縣秀林鄉","TEL":" ","COUNTYNAME":"花蓮縣","TOWNNAME":"秀林鄉","MARKTYPE":"995","Class":"5"},"geometry":{"x":284007.73680000007,"y":2668168.5965}},{"attributes":{"OBJECTID":23313,"LANDMARKID":"1001500000803","LANDMARKCO":"513","LANDMARKNA":"無明山","LANDMARKAD":"1001511","ADDRESS":"花蓮縣秀林鄉","TEL":" ","COUNTYNAME":"花蓮縣","TOWNNAME":"秀林鄉","MARKTYPE":"995","Class":"5"},"geometry":{"x":289061.28600000031,"y":2683361.8060999997}},{"attributes":{"OBJECTID":23314,"LANDMARKID":"1001500000804","LANDMARKCO":"513","LANDMARKNA":"巴巴山","LANDMARKAD":"1001511","ADDRESS":"花蓮縣秀林鄉","TEL":" ","COUNTYNAME":"花蓮縣","TOWNNAME":"秀林鄉","MARKTYPE":"995","Class":"5"},"geometry":{"x":294427.90990000032,"y":2693014.8070999999}},{"attributes":{"OBJECTID":23315,"LANDMARKID":"1001500000805","LANDMARKCO":"513","LANDMARKNA":"能高山南峰","LANDMARKAD":"1001511","ADDRESS":"花蓮縣秀林鄉","TEL":" ","COUNTYNAME":"花蓮縣","TOWNNAME":"秀林鄉","MARKTYPE":"995","Class":"5"},"geometry":{"x":278301.40330000035,"y":2651215.5105000008}},{"attributes":{"OBJECTID":23316,"LANDMARKID":"1001500000806","LANDMARKCO":"513","LANDMARKNA":"太魯閣大山","LANDMARKAD":"1001511","ADDRESS":"花蓮縣秀林鄉","TEL":" ","COUNTYNAME":"花蓮縣","TOWNNAME":"秀林鄉","MARKTYPE":"995","Class":"5"},"geometry":{"x":292806.88709999993,"y":2663844.2818}},{"attributes":{"OBJECTID":23317,"LANDMARKID":"1001500000807","LANDMARKCO":"513","LANDMARKNA":"能高山","LANDMARKAD":"1001511","ADDRESS":"花蓮縣秀林鄉","TEL":" ","COUNTYNAME":"花蓮縣","TOWNNAME":"秀林鄉","MARKTYPE":"995","Class":"5"},"geometry":{"x":276481.1950000003,"y":2654197.2846000008}},{"attributes":{"OBJECTID":23318,"LANDMARKID":"1001500000808","LANDMARKCO":"513","LANDMARKNA":"屏風山","LANDMARKAD":"1001511","ADDRESS":"花蓮縣秀林鄉","TEL":" ","COUNTYNAME":"花蓮縣","TOWNNAME":"秀林鄉","MARKTYPE":"995","Class":"5"},"geometry":{"x":284852.89039999992,"y":2671597.6400000006}},{"attributes":{"OBJECTID":23319,"LANDMARKID":"1001500000809","LANDMARKCO":"513","LANDMARKNA":"石門山","LANDMARKAD":"1001511","ADDRESS":"花蓮縣秀林鄉","TEL":" ","COUNTYNAME":"花蓮縣","TOWNNAME":"秀林鄉","MARKTYPE":"995","Class":"5"},"geometry":{"x":278921.75870000012,"y":2671933.7390000001}},{"attributes":{"OBJECTID":23320,"LANDMARKID":"1001500000810","LANDMARKCO":"513","LANDMARKNA":"馬比杉山","LANDMARKAD":"1001511","ADDRESS":"花蓮縣秀林鄉","TEL":" ","COUNTYNAME":"花蓮縣","TOWNNAME":"秀林鄉","MARKTYPE":"995","Class":"5"},"geometry":{"x":299278.18250000011,"y":2693685.5247000009}},{"attributes":{"OBJECTID":23321,"LANDMARKID":"1001500000811","LANDMARKCO":"513","LANDMARKNA":"南華山","LANDMARKAD":"1001511","ADDRESS":"花蓮縣秀林鄉","TEL":" ","COUNTYNAME":"花蓮縣","TOWNNAME":"秀林鄉","MARKTYPE":"995","Class":"5"},"geometry":{"x":279082.24430000037,"y":2659408.2042999994}},{"attributes":{"OBJECTID":23322,"LANDMARKID":"1001500000812","LANDMARKCO":"513","LANDMARKNA":"磐石山","LANDMARKAD":"1001511","ADDRESS":"花蓮縣秀林鄉","TEL":" ","COUNTYNAME":"花蓮縣","TOWNNAME":"秀林鄉","MARKTYPE":"995","Class":"5"},"geometry":{"x":289475.99920000043,"y":2666675.2139999997}},{"attributes":{"OBJECTID":23323,"LANDMARKID":"1001500000813","LANDMARKCO":"513","LANDMARKNA":"帕托魯山","LANDMARKAD":"1001511","ADDRESS":"花蓮縣秀林鄉","TEL":" ","COUNTYNAME":"花蓮縣","TOWNNAME":"秀林鄉","MARKTYPE":"995","Class":"5"},"geometry":{"x":297439.38320000004,"y":2666113.8531999998}},{"attributes":{"OBJECTID":23324,"LANDMARKID":"1001500000814","LANDMARKCO":"513","LANDMARKNA":"立霧主山","LANDMARKAD":"1001511","ADDRESS":"花蓮縣秀林鄉","TEL":" ","COUNTYNAME":"花蓮縣","TOWNNAME":"秀林鄉","MARKTYPE":"995","Class":"5"},"geometry":{"x":295305.48429999966,"y":2668928.4342}},{"attributes":{"OBJECTID":23325,"LANDMARKID":"1001500000815","LANDMARKCO":"513","LANDMARKNA":"羊頭山","LANDMARKAD":"1001511","ADDRESS":"花蓮縣秀林鄉","TEL":" ","COUNTYNAME":"花蓮縣","TOWNNAME":"秀林鄉","MARKTYPE":"995","Class":"5"},"geometry":{"x":288578.26109999977,"y":2678139.5237000007}},{"attributes":{"OBJECTID":23326,"LANDMARKID":"1001500000628","LANDMARKCO":"405","LANDMARKNA":"中油加油站-堅登站","LANDMARKAD":"1001504","ADDRESS":"花蓮縣新城鄉新城村中正路21號","TEL":"03-8610823","COUNTYNAME":"花蓮縣","TOWNNAME":"新城鄉","MARKTYPE":"994","Class":"4"},"geometry":{"x":315989.74480000045,"y":2669256.5073000006}},{"attributes":{"OBJECTID":23327,"LANDMARKID":"1001500000629","LANDMARKCO":"405","LANDMARKNA":"中油加油站-北埔站(中油自營)","LANDMARKAD":"1001504","ADDRESS":"花蓮縣新城鄉北埔村北埔路368號","TEL":"03-8266825","COUNTYNAME":"花蓮縣","TOWNNAME":"新城鄉","MARKTYPE":"994","Class":"4"},"geometry":{"x":311386.99349999987,"y":2659579.7129999995}},{"attributes":{"OBJECTID":23328,"LANDMARKID":"1001500000630","LANDMARKCO":"405","LANDMARKNA":"中油加油站-順安站","LANDMARKAD":"1001504","ADDRESS":"花蓮縣新城鄉順安村草林1-25號","TEL":"03-8611472","COUNTYNAME":"花蓮縣","TOWNNAME":"新城鄉","MARKTYPE":"994","Class":"4"},"geometry":{"x":313882.87100000028,"y":2667459.2504999992}},{"attributes":{"OBJECTID":23329,"LANDMARKID":"1001500000631","LANDMARKCO":"405","LANDMARKNA":"中油加油站-億隆站","LANDMARKAD":"1001504","ADDRESS":"花蓮縣新城鄉順安村北三棧61-3號","TEL":"03-8612778","COUNTYNAME":"花蓮縣","TOWNNAME":"新城鄉","MARKTYPE":"994","Class":"4"},"geometry":{"x":313610.61959999986,"y":2667304.2116}},{"attributes":{"OBJECTID":23330,"LANDMARKID":"1001500000632","LANDMARKCO":"405","LANDMARKNA":"中油加油站-民益站","LANDMARKAD":"1001504","ADDRESS":"花蓮縣新城鄉嘉新村嘉新路23號","TEL":"03-8228690","COUNTYNAME":"花蓮縣","TOWNNAME":"新城鄉","MARKTYPE":"994","Class":"4"},"geometry":{"x":312479.65560000017,"y":2656282.6915000007}},{"attributes":{"OBJECTID":23331,"LANDMARKID":"1001500000537","LANDMARKCO":"401","LANDMARKNA":"國軍花蓮總醫院","LANDMARKAD":"1001504","ADDRESS":"花蓮縣新城鄉嘉里村嘉里路163號","TEL":"03-8263151","COUNTYNAME":"花蓮縣","TOWNNAME":"新城鄉","MARKTYPE":"994","Class":"4"},"geometry":{"x":311795.00339999981,"y":2657849.1654000003}},{"attributes":{"OBJECTID":23332,"LANDMARKID":"1001500000801","LANDMARKCO":"512","LANDMARKNA":"花蓮縣觀光協進會機場旅遊服務中心","LANDMARKAD":"1001504","ADDRESS":"花蓮縣新城鄉機場巷1號","TEL":"03-8263787","COUNTYNAME":"花蓮縣","TOWNNAME":"新城鄉","MARKTYPE":"995","Class":"5"},"geometry":{"x":312379.4682,"y":2658017.7453000005}},{"attributes":{"OBJECTID":23333,"LANDMARKID":"1001500000692","LANDMARKCO":"408","LANDMARKNA":"郵局-新城北埔郵局","LANDMARKAD":"1001504","ADDRESS":"花蓮縣新城鄉大漢村光復路578號","TEL":"(03)8266-674","COUNTYNAME":"花蓮縣","TOWNNAME":"新城鄉","MARKTYPE":"994","Class":"4"},"geometry":{"x":311675.0831000004,"y":2658741.9186000004}},{"attributes":{"OBJECTID":23334,"LANDMARKID":"1001500000693","LANDMARKCO":"408","LANDMARKNA":"郵局-新城郵局","LANDMARKAD":"1001504","ADDRESS":"花蓮縣新城鄉新城村中山路45號","TEL":"(03)8611-629","COUNTYNAME":"花蓮縣","TOWNNAME":"新城鄉","MARKTYPE":"994","Class":"4"},"geometry":{"x":316372.98350000009,"y":2669174.5263999999}},{"attributes":{"OBJECTID":23335,"LANDMARKID":"1001500000724","LANDMARKCO":"409","LANDMARKNA":"花蓮縣新秀地區農會","LANDMARKAD":"1001504","ADDRESS":"花蓮縣新城鄉北埔村樹 仁街2號","TEL":"03-8267751","COUNTYNAME":"花蓮縣","TOWNNAME":"新城鄉","MARKTYPE":"994","Class":"4"},"geometry":{"x":311394.11510000005,"y":2659475.4019000009}},{"attributes":{"OBJECTID":23336,"LANDMARKID":"1001500000640","LANDMARKCO":"406","LANDMARKNA":"新城公園","LANDMARKAD":"1001504","ADDRESS":"花蓮縣新城鄉","TEL":" ","COUNTYNAME":"花蓮縣","TOWNNAME":"新城鄉","MARKTYPE":"994","Class":"4"},"geometry":{"x":316027.14109999966,"y":2669455.7682000007}},{"attributes":{"OBJECTID":23337,"LANDMARKID":"1001500000192","LANDMARKCO":"107","LANDMARKNA":"花蓮縣消防局新秀消防分隊","LANDMARKAD":"1001504","ADDRESS":"花蓮縣新城鄉仁愛路1巷23號","TEL":"03-8611755","COUNTYNAME":"花蓮縣","TOWNNAME":"新城鄉","MARKTYPE":"991","Class":"1"},"geometry":{"x":316369.06579999998,"y":2669249.9254000001}},{"attributes":{"OBJECTID":23338,"LANDMARKID":"1001500000229","LANDMARKCO":"108","LANDMARKNA":"花蓮縣新城鄉公所","LANDMARKAD":"1001504","ADDRESS":"花蓮縣新城鄉北埔村光復路570號","TEL":"03-8267223","COUNTYNAME":"花蓮縣","TOWNNAME":"新城鄉","MARKTYPE":"991","Class":"1"},"geometry":{"x":311458.12040000036,"y":2659489.3720999993}},{"attributes":{"OBJECTID":23339,"LANDMARKID":"1001500000083","LANDMARKCO":"103","LANDMARKNA":"花蓮縣新城鄉鄉民代表會","LANDMARKAD":"1001504","ADDRESS":"花蓮縣新城鄉光復路574號","TEL":"03-8261886","COUNTYNAME":"花蓮縣","TOWNNAME":"新城鄉","MARKTYPE":"991","Class":"1"},"geometry":{"x":311422.46449999977,"y":2659569.5252}},{"attributes":{"OBJECTID":23340,"LANDMARKID":"1001500000187","LANDMARKCO":"107","LANDMARKNA":"花蓮縣消防局北埔消防分隊","LANDMARKAD":"1001504","ADDRESS":"花蓮縣新城鄉北埔路269號","TEL":"03-8262596","COUNTYNAME":"花蓮縣","TOWNNAME":"新城鄉","MARKTYPE":"991","Class":"1"},"geometry":{"x":311462.05709999986,"y":2658859.3665999994}},{"attributes":{"OBJECTID":23341,"LANDMARKID":"1001500000188","LANDMARKCO":"107","LANDMARKNA":"花蓮縣警察局新城分局","LANDMARKAD":"1001504","ADDRESS":"花蓮縣新城鄉中山路59號","TEL":"03-8611204","COUNTYNAME":"花蓮縣","TOWNNAME":"新城鄉","MARKTYPE":"991","Class":"1"},"geometry":{"x":316438.9720999999,"y":2669229.5996000003}},{"attributes":{"OBJECTID":23342,"LANDMARKID":"1001500000189","LANDMARKCO":"107","LANDMARKNA":"花蓮縣警察局北埔派出所","LANDMARKAD":"1001504","ADDRESS":"花蓮縣新城鄉北埔村北埔路271號","TEL":"03-8262484","COUNTYNAME":"花蓮縣","TOWNNAME":"新城鄉","MARKTYPE":"991","Class":"1"},"geometry":{"x":311453.14319999982,"y":2658879.4048999995}},{"attributes":{"OBJECTID":23343,"LANDMARKID":"1001500000190","LANDMARKCO":"107","LANDMARKNA":"花蓮縣警察局嘉里派出所","LANDMARKAD":"1001504","ADDRESS":"花蓮縣新城鄉嘉里三街47號","TEL":"03-8264135","COUNTYNAME":"花蓮縣","TOWNNAME":"新城鄉","MARKTYPE":"991","Class":"1"},"geometry":{"x":311764.23149999976,"y":2656979.3193999995}},{"attributes":{"OBJECTID":23344,"LANDMARKID":"1001500000191","LANDMARKCO":"107","LANDMARKNA":"花蓮縣警察局新城派出所","LANDMARKAD":"1001504","ADDRESS":"花蓮縣新城鄉中山路59號","TEL":"03-8611004","COUNTYNAME":"花蓮縣","TOWNNAME":"新城鄉","MARKTYPE":"991","Class":"1"},"geometry":{"x":316440.9720999999,"y":2669229.5902999993}},{"attributes":{"OBJECTID":23345,"LANDMARKID":"1001500000101","LANDMARKCO":"106","LANDMARKNA":"花蓮縣新城鄉戶政事務所","LANDMARKAD":"1001504","ADDRESS":"花蓮縣新城鄉北埔村12鄰北埔路267號","TEL":"03-8261040","COUNTYNAME":"花蓮縣","TOWNNAME":"新城鄉","MARKTYPE":"991","Class":"1"},"geometry":{"x":311380.61620000005,"y":2658989.7161999997}},{"attributes":{"OBJECTID":23346,"LANDMARKID":"1001500000001","LANDMARKCO":"101","LANDMARKNA":"林務局花蓮林區管理處新城工作站","LANDMARKAD":"1001504","ADDRESS":"花蓮縣新城鄉新城村中山路49號","TEL":"03-8611002","COUNTYNAME":"花蓮縣","TOWNNAME":"新城鄉","MARKTYPE":"991","Class":"1"},"geometry":{"x":316360.64659999963,"y":2669159.9647000004}},{"attributes":{"OBJECTID":23347,"LANDMARKID":"1001500000082","LANDMARKCO":"103","LANDMARKNA":"花蓮縣新城鄉衛生所","LANDMARKAD":"1001504","ADDRESS":"花蓮縣新城鄉北埔路160號","TEL":"03-8266781","COUNTYNAME":"花蓮縣","TOWNNAME":"新城鄉","MARKTYPE":"991","Class":"1"},"geometry":{"x":311587.23959999997,"y":2658518.8399}},{"attributes":{"OBJECTID":23348,"LANDMARKID":"1001500000417","LANDMARKCO":"205","LANDMARKNA":"花蓮宇宙樂園光隆博物館","LANDMARKAD":"1001504","ADDRESS":"花蓮縣新城鄉康樂村加灣1之2號","TEL":"03-8268688","COUNTYNAME":"花蓮縣","TOWNNAME":"新城鄉","MARKTYPE":"992","Class":"2"},"geometry":{"x":311879.53780000005,"y":2661599.8232000005}},{"attributes":{"OBJECTID":23349,"LANDMARKID":"1001500000418","LANDMARKCO":"205","LANDMARKNA":"七星柴魚博物館","LANDMARKAD":"1001504","ADDRESS":"花蓮縣新城鄉七星街148號","TEL":"03-8236100","COUNTYNAME":"花蓮縣","TOWNNAME":"新城鄉","MARKTYPE":"992","Class":"2"},"geometry":{"x":314016.32969999965,"y":2658159.1833999995}},{"attributes":{"OBJECTID":23350,"LANDMARKID":"1001500000419","LANDMARKCO":"205","LANDMARKNA":"光隆礦石科技博物館","LANDMARKAD":"1001504","ADDRESS":"花蓮縣新城鄉康樂村加灣1-2號","TEL":" ","COUNTYNAME":"花蓮縣","TOWNNAME":"新城鄉","MARKTYPE":"992","Class":"2"},"geometry":{"x":312125.70069999993,"y":2663335.9827999994}},{"attributes":{"OBJECTID":23351,"LANDMARKID":"1001500000405","LANDMARKCO":"204","LANDMARKNA":"花蓮縣立圖書館新城分館","LANDMARKAD":"1001504","ADDRESS":"花蓮縣新城鄉光復路572號","TEL":" ","COUNTYNAME":"花蓮縣","TOWNNAME":"新城鄉","MARKTYPE":"992","Class":"2"},"geometry":{"x":311447.03749999963,"y":2659521.4453999996}},{"attributes":{"OBJECTID":23352,"LANDMARKID":"1001500000352","LANDMARKCO":"203","LANDMARKNA":"縣立秀林國中","LANDMARKAD":"1001504","ADDRESS":"花蓮縣新城鄉中山路56號","TEL":"03-8611010","COUNTYNAME":"花蓮縣","TOWNNAME":"新城鄉","MARKTYPE":"992","Class":"2"},"geometry":{"x":316471.13210000005,"y":2669049.4495999999}},{"attributes":{"OBJECTID":23353,"LANDMARKID":"1001500000353","LANDMARKCO":"203","LANDMARKNA":"縣立新城國中","LANDMARKAD":"1001504","ADDRESS":"花蓮縣新城鄉北埔村北埔路143號","TEL":"03-8263911","COUNTYNAME":"花蓮縣","TOWNNAME":"新城鄉","MARKTYPE":"992","Class":"2"},"geometry":{"x":311465.23940000031,"y":2658519.3643999994}},{"attributes":{"OBJECTID":23354,"LANDMARKID":"1001500000354","LANDMARKCO":"203","LANDMARKNA":"縣立新城國小","LANDMARKAD":"1001504","ADDRESS":"花蓮縣新城鄉新城村博愛路30號","TEL":"03-8611006","COUNTYNAME":"花蓮縣","TOWNNAME":"新城鄉","MARKTYPE":"992","Class":"2"},"geometry":{"x":316194.39199999999,"y":2669319.4258999992}},{"attributes":{"OBJECTID":23355,"LANDMARKID":"1001500000243","LANDMARKCO":"201","LANDMARKNA":"大漢技術學院","LANDMARKAD":"1001504","ADDRESS":"花蓮縣新城鄉樹人街1號","TEL":"03-8210888","COUNTYNAME":"花蓮縣","TOWNNAME":"新城鄉","MARKTYPE":"992","Class":"2"},"geometry":{"x":311559.29079999961,"y":2659528.9371000007}},{"attributes":{"OBJECTID":23356,"LANDMARKID":"1001500000255","LANDMARKCO":"202","LANDMARKNA":"私立海星高中","LANDMARKAD":"1001504","ADDRESS":"花蓮縣新城鄉嘉新178號","TEL":"03-8223116","COUNTYNAME":"花蓮縣","TOWNNAME":"新城鄉","MARKTYPE":"992","Class":"2"},"geometry":{"x":312478.12100000028,"y":2656109.9065000005}},{"attributes":{"OBJECTID":23357,"LANDMARKID":"1001500000349","LANDMARKCO":"203","LANDMARKNA":"縣立康樂國小","LANDMARKAD":"1001504","ADDRESS":"花蓮縣新城鄉康樂村87號","TEL":"03-8265597","COUNTYNAME":"花蓮縣","TOWNNAME":"新城鄉","MARKTYPE":"992","Class":"2"},"geometry":{"x":311830.01979999989,"y":2660928.9597999994}},{"attributes":{"OBJECTID":23358,"LANDMARKID":"1001500000350","LANDMARKCO":"203","LANDMARKNA":"縣立嘉里國小","LANDMARKAD":"1001504","ADDRESS":"花蓮縣新城鄉嘉里村三街28號","TEL":"03-8261180","COUNTYNAME":"花蓮縣","TOWNNAME":"新城鄉","MARKTYPE":"992","Class":"2"},"geometry":{"x":311973.36629999988,"y":2656779.6344000008}},{"attributes":{"OBJECTID":23359,"LANDMARKID":"1001500000351","LANDMARKCO":"203","LANDMARKNA":"縣立北埔國小","LANDMARKAD":"1001504","ADDRESS":"花蓮縣新城鄉北埔村北埔170號","TEL":"03-8264624","COUNTYNAME":"花蓮縣","TOWNNAME":"新城鄉","MARKTYPE":"992","Class":"2"},"geometry":{"x":311579.73340000026,"y":2658708.8664999995}},{"attributes":{"OBJECTID":23360,"LANDMARKID":"1001500000520","LANDMARKCO":"304","LANDMARKNA":"花蓮航空站-花蓮機場","LANDMARKAD":"1001504","ADDRESS":"花蓮縣新城鄉嘉里村機場1號","TEL":" ","COUNTYNAME":"花蓮縣","TOWNNAME":"新城鄉","MARKTYPE":"993","Class":"304"},"geometry":{"x":312371.59779999964,"y":2657958.9539000001}},{"attributes":{"OBJECTID":23361,"LANDMARKID":"1001500000505","LANDMARKCO":"303","LANDMARKNA":"花蓮宇宙樂園停車場","LANDMARKAD":"1001504","ADDRESS":"花蓮縣新城鄉","TEL":" ","COUNTYNAME":"花蓮縣","TOWNNAME":"新城鄉","MARKTYPE":"993","Class":"303"},"geometry":{"x":311930.71059999987,"y":2661707.5982000008}},{"attributes":{"OBJECTID":23362,"LANDMARKID":"1001500000428","LANDMARKCO":"301","LANDMARKNA":"北埔火車站","LANDMARKAD":"1001504","ADDRESS":"花蓮縣新城鄉自強街113號","TEL":"03-8263809","COUNTYNAME":"花蓮縣","TOWNNAME":"新城鄉","MARKTYPE":"993","Class":"301"},"geometry":{"x":311197.7145999996,"y":2658749.7891000006}},{"attributes":{"OBJECTID":23363,"LANDMARKID":"1001500000429","LANDMARKCO":"301","LANDMARKNA":"新城火車站","LANDMARKAD":"1001504","ADDRESS":"花蓮縣新城鄉新城村新興1路73號","TEL":"03-8611237","COUNTYNAME":"花蓮縣","TOWNNAME":"新城鄉","MARKTYPE":"993","Class":"301"},"geometry":{"x":315130.92679999955,"y":2669299.4155999999}},{"attributes":{"OBJECTID":23364,"LANDMARKID":"1001500000538","LANDMARKCO":"402","LANDMARKNA":"中華電信-新城服務中心","LANDMARKAD":"1001504","ADDRESS":"花蓮縣新城鄉北埔路11號","TEL":"123或0800-080-123","COUNTYNAME":"花蓮縣","TOWNNAME":"新城鄉","MARKTYPE":"994","Class":"4"},"geometry":{"x":311716.49199999962,"y":2658044.7366000004}},{"attributes":{"OBJECTID":23365,"LANDMARKID":"1001500001264","LANDMARKCO":"604","LANDMARKNA":"望海樓民宿","LANDMARKAD":"1001504","ADDRESS":"花蓮縣新城鄉大漢村七星街18號","TEL":"03-8226894","COUNTYNAME":"花蓮縣","TOWNNAME":"新城鄉","MARKTYPE":"996","Class":"6"},"geometry":{"x":314000.0354000004,"y":2658170.0464999992}},{"attributes":{"OBJECTID":23366,"LANDMARKID":"1001500001265","LANDMARKCO":"604","LANDMARKNA":"靜思優質民宿","LANDMARKAD":"1001504","ADDRESS":"花蓮縣新城鄉北埔村樹林街231-8號","TEL":"03-8261988","COUNTYNAME":"花蓮縣","TOWNNAME":"新城鄉","MARKTYPE":"996","Class":"6"},"geometry":{"x":310673.50389999989,"y":2660039.6491999999}},{"attributes":{"OBJECTID":23367,"LANDMARKID":"1001500001266","LANDMARKCO":"604","LANDMARKNA":"樸實居民宿","LANDMARKAD":"1001504","ADDRESS":"花蓮縣新城鄉北埔村樹林街233巷1弄12號","TEL":"03-8269886","COUNTYNAME":"花蓮縣","TOWNNAME":"新城鄉","MARKTYPE":"996","Class":"6"},"geometry":{"x":310672.50389999989,"y":2660169.8933000006}},{"attributes":{"OBJECTID":23368,"LANDMARKID":"1001500001267","LANDMARKCO":"604","LANDMARKNA":"瑪嚕宿malusu民宿","LANDMARKAD":"1001504","ADDRESS":"花蓮縣新城鄉嘉里村嘉里三路9號","TEL":"03-8265388","COUNTYNAME":"花蓮縣","TOWNNAME":"新城鄉","MARKTYPE":"996","Class":"6"},"geometry":{"x":311933.79499999993,"y":2657348.8841999993}},{"attributes":{"OBJECTID":23369,"LANDMARKID":"1001500001268","LANDMARKCO":"604","LANDMARKNA":"上豪民宿","LANDMARKAD":"1001504","ADDRESS":"花蓮縣新城鄉康樂村康樂路281號","TEL":"03-8261049","COUNTYNAME":"花蓮縣","TOWNNAME":"新城鄉","MARKTYPE":"996","Class":"6"},"geometry":{"x":311530.6314000003,"y":2660874.4507999998}},{"attributes":{"OBJECTID":23370,"LANDMARKID":"1001500001269","LANDMARKCO":"604","LANDMARKNA":"國順民宿","LANDMARKAD":"1001504","ADDRESS":"花蓮縣新城鄉新城村中正路20號","TEL":"03-8611287","COUNTYNAME":"花蓮縣","TOWNNAME":"新城鄉","MARKTYPE":"996","Class":"6"},"geometry":{"x":315872.97879999969,"y":2668843.7445}},{"attributes":{"OBJECTID":23371,"LANDMARKID":"1001500001270","LANDMARKCO":"604","LANDMARKNA":"太魯閣勝境民宿","LANDMARKAD":"1001504","ADDRESS":"花蓮縣新城鄉新城村中正路24號","TEL":"03-8610300","COUNTYNAME":"花蓮縣","TOWNNAME":"新城鄉","MARKTYPE":"996","Class":"6"},"geometry":{"x":315895.64670000039,"y":2668840.2004000004}},{"attributes":{"OBJECTID":23372,"LANDMARKID":"1001500001271","LANDMARKCO":"604","LANDMARKNA":"太魯閣樺城民宿","LANDMARKAD":"1001504","ADDRESS":"花蓮縣新城鄉新城村中正路30號","TEL":"03-8610277","COUNTYNAME":"花蓮縣","TOWNNAME":"新城鄉","MARKTYPE":"996","Class":"6"},"geometry":{"x":315901.23739999998,"y":2668890.2610999998}},{"attributes":{"OBJECTID":23373,"LANDMARKID":"1001500001272","LANDMARKCO":"604","LANDMARKNA":"安安民宿","LANDMARKAD":"1001504","ADDRESS":"花蓮縣新城鄉新城村新興路12-2號","TEL":"03-8611608","COUNTYNAME":"花蓮縣","TOWNNAME":"新城鄉","MARKTYPE":"996","Class":"6"},"geometry":{"x":315510.01329999976,"y":2669730.4668000005}},{"attributes":{"OBJECTID":23374,"LANDMARKID":"1001500001273","LANDMARKCO":"604","LANDMARKNA":"東方戀人民宿","LANDMARKAD":"1001504","ADDRESS":"花蓮縣新城鄉北埔村樹林街233巷2弄25號","TEL":"03-8327941","COUNTYNAME":"花蓮縣","TOWNNAME":"新城鄉","MARKTYPE":"996","Class":"6"},"geometry":{"x":310640.66860000044,"y":2660163.8019999992}},{"attributes":{"OBJECTID":23375,"LANDMARKID":"1001500001274","LANDMARKCO":"604","LANDMARKNA":"古井民宿","LANDMARKAD":"1001504","ADDRESS":"花蓮縣新城鄉大漢村古井街5號","TEL":"03-8264085","COUNTYNAME":"花蓮縣","TOWNNAME":"新城鄉","MARKTYPE":"996","Class":"6"},"geometry":{"x":312031.98929999955,"y":2659664.0395}},{"attributes":{"OBJECTID":23376,"LANDMARKID":"1001500001275","LANDMARKCO":"604","LANDMARKNA":"花蓮遊民宿","LANDMARKAD":"1001504","ADDRESS":"花蓮縣新城鄉大漢村立業街4巷16-1號","TEL":"0932-656423","COUNTYNAME":"花蓮縣","TOWNNAME":"新城鄉","MARKTYPE":"996","Class":"6"},"geometry":{"x":312089.96669999976,"y":2659516.4070999995}},{"attributes":{"OBJECTID":23377,"LANDMARKID":"1001500001276","LANDMARKCO":"604","LANDMARKNA":"日月星海濱渡假休閒民宿","LANDMARKAD":"1001504","ADDRESS":"花蓮縣新城鄉大漢村明潭街1號","TEL":"03-8223446","COUNTYNAME":"花蓮縣","TOWNNAME":"新城鄉","MARKTYPE":"996","Class":"6"},"geometry":{"x":314110.50989999995,"y":2658110.3511999995}},{"attributes":{"OBJECTID":23378,"LANDMARKID":"1001500001277","LANDMARKCO":"604","LANDMARKNA":"金軒民宿","LANDMARKAD":"1001504","ADDRESS":"花蓮縣新城鄉大漢村華德街18號","TEL":"03-8269659","COUNTYNAME":"花蓮縣","TOWNNAME":"新城鄉","MARKTYPE":"996","Class":"6"},"geometry":{"x":312390.67449999973,"y":2658968.7456}},{"attributes":{"OBJECTID":23379,"LANDMARKID":"1001500001278","LANDMARKCO":"604","LANDMARKNA":"汎水淩山花園民宿","LANDMARKAD":"1001504","ADDRESS":"花蓮縣新城鄉佳林村佳林2-1號","TEL":"03-8261989","COUNTYNAME":"花蓮縣","TOWNNAME":"新城鄉","MARKTYPE":"996","Class":"6"},"geometry":{"x":311422.79860000033,"y":2656829.2431000005}},{"attributes":{"OBJECTID":23380,"LANDMARKID":"1001500001279","LANDMARKCO":"604","LANDMARKNA":"生活農場 (國際YH)","LANDMARKAD":"1001504","ADDRESS":"花蓮縣新城鄉康樂村19-58號","TEL":"03-8263672","COUNTYNAME":"花蓮縣","TOWNNAME":"新城鄉","MARKTYPE":"996","Class":"6"},"geometry":{"x":310942.66889999993,"y":2660845.0157999992}},{"attributes":{"OBJECTID":23381,"LANDMARKID":"1001500001280","LANDMARKCO":"604","LANDMARKNA":"紫園民宿","LANDMARKAD":"1001504","ADDRESS":"花蓮縣新城鄉康樂村紫園三巷8號","TEL":"03-8265348","COUNTYNAME":"花蓮縣","TOWNNAME":"新城鄉","MARKTYPE":"996","Class":"6"},"geometry":{"x":311646.16060000006,"y":2661377.2611999996}},{"attributes":{"OBJECTID":23382,"LANDMARKID":"1001500001281","LANDMARKCO":"604","LANDMARKNA":"福田民宿","LANDMARKAD":"1001504","ADDRESS":"花蓮縣新城鄉康樂村精舍街88巷2號","TEL":"03-8260847","COUNTYNAME":"花蓮縣","TOWNNAME":"新城鄉","MARKTYPE":"996","Class":"6"},"geometry":{"x":311318.78299999982,"y":2661487.2420000006}},{"attributes":{"OBJECTID":23383,"LANDMARKID":"1001500001282","LANDMARKCO":"604","LANDMARKNA":"花草集民宿","LANDMARKAD":"1001504","ADDRESS":"花蓮縣新城鄉順安村北三棧63號","TEL":"03-8612595","COUNTYNAME":"花蓮縣","TOWNNAME":"新城鄉","MARKTYPE":"996","Class":"6"},"geometry":{"x":314469.34470000025,"y":2667409.1315000001}},{"attributes":{"OBJECTID":23384,"LANDMARKID":"1001500001283","LANDMARKCO":"604","LANDMARKNA":"太魯閣藝術民宿","LANDMARKAD":"1001504","ADDRESS":"花蓮縣新城鄉順安村草林路114-6號","TEL":"03-8612380","COUNTYNAME":"花蓮縣","TOWNNAME":"新城鄉","MARKTYPE":"996","Class":"6"},"geometry":{"x":315090.13920000009,"y":2668265.4911000002}},{"attributes":{"OBJECTID":23385,"LANDMARKID":"1001500001284","LANDMARKCO":"604","LANDMARKNA":"華馨民宿","LANDMARKAD":"1001504","ADDRESS":"花蓮縣新城鄉大漢村華德街59號","TEL":"03-8269372","COUNTYNAME":"花蓮縣","TOWNNAME":"新城鄉","MARKTYPE":"996","Class":"6"},"geometry":{"x":312326.99820000026,"y":2659077.9469000008}},{"attributes":{"OBJECTID":23386,"LANDMARKID":"1001500001285","LANDMARKCO":"604","LANDMARKNA":"後山圓夢民宿","LANDMARKAD":"1001504","ADDRESS":"花蓮縣新城鄉康樂村精舍街88巷2-1號","TEL":"03-8268263","COUNTYNAME":"花蓮縣","TOWNNAME":"新城鄉","MARKTYPE":"996","Class":"6"},"geometry":{"x":311346.44579999987,"y":2661401.1875999998}},{"attributes":{"OBJECTID":23387,"LANDMARKID":"1001500000851","LANDMARKCO":"603","LANDMARKNA":"樂城大飯店","LANDMARKAD":"1001504","ADDRESS":"花蓮縣新城鄉嘉里路59號","TEL":"03-8267733","COUNTYNAME":"花蓮縣","TOWNNAME":"新城鄉","MARKTYPE":"996","Class":"6"},"geometry":{"x":312057.41810000036,"y":2657127.7133000009}},{"attributes":{"OBJECTID":23388,"LANDMARKID":"1001500000756","LANDMARKCO":"505","LANDMARKNA":"花蓮宇宙樂園","LANDMARKAD":"1001504","ADDRESS":"花蓮縣新城鄉康樂村加灣1之2號","TEL":"03-8268688","COUNTYNAME":"花蓮縣","TOWNNAME":"新城鄉","MARKTYPE":"995","Class":"5"},"geometry":{"x":311875.90359999985,"y":2661728.9031000007}},{"attributes":{"OBJECTID":23389,"LANDMARKID":"1001500000733","LANDMARKCO":"503","LANDMARKNA":"七星潭風景特定區","LANDMARKAD":"1001504","ADDRESS":"花蓮縣壽豐鄉","TEL":" ","COUNTYNAME":"花蓮縣","TOWNNAME":"新城鄉","MARKTYPE":"995","Class":"5"},"geometry":{"x":313773.75650000013,"y":2658578.8860999998}},{"attributes":{"OBJECTID":23390,"LANDMARKID":"1001500000734","LANDMARKCO":"503","LANDMARKNA":"花蓮縣觀光協進會機場旅遊服務中","LANDMARKAD":"1001504","ADDRESS":"花蓮縣新城鄉機場巷1號","TEL":" ","COUNTYNAME":"花蓮縣","TOWNNAME":"新城鄉","MARKTYPE":"995","Class":"5"},"geometry":{"x":312379.4682,"y":2658017.7490999997}},{"attributes":{"OBJECTID":23391,"LANDMARKID":"1001500000616","LANDMARKCO":"405","LANDMARKNA":"中油加油站-中山路站(中油自營)","LANDMARKAD":"1001501","ADDRESS":"花蓮縣花蓮市中山路752號","TEL":"03-8561117","COUNTYNAME":"花蓮縣","TOWNNAME":"花蓮市","MARKTYPE":"994","Class":"4"},"geometry":{"x":310546.86180000007,"y":2654702.0373999998}},{"attributes":{"OBJECTID":23392,"LANDMARKID":"1001500000617","LANDMARKCO":"405","LANDMARKNA":"中油加油站-上美倫站","LANDMARKAD":"1001501","ADDRESS":"花蓮縣花蓮市中美路136-1號","TEL":"03-8330849","COUNTYNAME":"花蓮縣","TOWNNAME":"花蓮市","MARKTYPE":"994","Class":"4"},"geometry":{"x":313297.18070000038,"y":2653664.2854999993}},{"attributes":{"OBJECTID":23393,"LANDMARKID":"1001500000618","LANDMARKCO":"405","LANDMARKNA":"中油加油站-由倉站","LANDMARKAD":"1001501","ADDRESS":"花蓮縣花蓮市國聯里國聯二路2號","TEL":"03-8339689","COUNTYNAME":"花蓮縣","TOWNNAME":"花蓮市","MARKTYPE":"994","Class":"4"},"geometry":{"x":311492.39460000023,"y":2654226.7009999994}},{"attributes":{"OBJECTID":23394,"LANDMARKID":"1001500000619","LANDMARKCO":"405","LANDMARKNA":"中油加油站-北基軒轅路站","LANDMARKAD":"1001501","ADDRESS":"花蓮縣花蓮市軒轅路12號之1","TEL":"03-8322828","COUNTYNAME":"花蓮縣","TOWNNAME":"花蓮市","MARKTYPE":"994","Class":"4"},"geometry":{"x":312260.37459999975,"y":2652384.2353000008}},{"attributes":{"OBJECTID":23395,"LANDMARKID":"1001500000620","LANDMARKCO":"405","LANDMARKNA":"中油加油站-尚志路站","LANDMARKAD":"1001501","ADDRESS":"花蓮縣花蓮市尚志路25號","TEL":"03-8226644","COUNTYNAME":"花蓮縣","TOWNNAME":"花蓮市","MARKTYPE":"994","Class":"4"},"geometry":{"x":312115.71349999961,"y":2654382.4473000001}},{"attributes":{"OBJECTID":23396,"LANDMARKID":"1001500000621","LANDMARKCO":"405","LANDMARKNA":"中油加油站-中華路站(中油自營)","LANDMARKAD":"1001501","ADDRESS":"花蓮縣花蓮市中華路333-1號","TEL":"03-8323424","COUNTYNAME":"花蓮縣","TOWNNAME":"花蓮市","MARKTYPE":"994","Class":"4"},"geometry":{"x":310800.10130000021,"y":2652321.4131000005}},{"attributes":{"OBJECTID":23397,"LANDMARKID":"1001500000622","LANDMARKCO":"405","LANDMARKNA":"中油加油站-東部站","LANDMARKAD":"1001501","ADDRESS":"花蓮縣花蓮市中正路516號","TEL":"03-8322307","COUNTYNAME":"花蓮縣","TOWNNAME":"花蓮市","MARKTYPE":"994","Class":"4"},"geometry":{"x":311817.03359999973,"y":2652623.6798}},{"attributes":{"OBJECTID":23398,"LANDMARKID":"1001500000623","LANDMARKCO":"405","LANDMARKNA":"山隆加油站-重慶站(中油)","LANDMARKAD":"1001501","ADDRESS":"花蓮市重慶路456號","TEL":"(03)833-1482","COUNTYNAME":"花蓮縣","TOWNNAME":"花蓮市","MARKTYPE":"994","Class":"4"},"geometry":{"x":311886.96630000044,"y":2651995.4262000006}},{"attributes":{"OBJECTID":23399,"LANDMARKID":"1001500000624","LANDMARKCO":"405","LANDMARKNA":"中油加油站-港口站(中油自營)","LANDMARKAD":"1001501","ADDRESS":"花蓮縣花蓮市吉林路2號","TEL":"03-8228640","COUNTYNAME":"花蓮縣","TOWNNAME":"花蓮市","MARKTYPE":"994","Class":"4"},"geometry":{"x":314205.21059999987,"y":2654853.4843000006}},{"attributes":{"OBJECTID":23400,"LANDMARKID":"1001500000625","LANDMARKCO":"405","LANDMARKNA":"北基加油站-豐川站(中油)","LANDMARKAD":"1001501","ADDRESS":"花蓮市中央路4段311號","TEL":"(03)858-0859","COUNTYNAME":"花蓮縣","TOWNNAME":"花蓮市","MARKTYPE":"994","Class":"4"},"geometry":{"x":310819.46910000034,"y":2655208.9967999998}}]}