{"displayFieldName":"COUNTYNAME","fieldAliases":{"OBJECTID":"OBJECTID","LANDMARKID":"LANDMARKID","LANDMARKCO":"LANDMARKCO","LANDMARKNA":"LANDMARKNA","LANDMARKAD":"LANDMARKAD","ADDRESS":"ADDRESS","TEL":"TEL","COUNTYNAME":"COUNTYNAME","TOWNNAME":"TOWNNAME","MARKTYPE":"MARKTYPE","Class":"Class"},"geometryType":"esriGeometryPoint","spatialReference":{"wkid":4326},"fields":[{"name":"OBJECTID","type":"esriFieldTypeOID","alias":"OBJECTID"},{"name":"LANDMARKID","type":"esriFieldTypeString","alias":"LANDMARKID","length":15},{"name":"LANDMARKCO","type":"esriFieldTypeString","alias":"LANDMARKCO","length":15},{"name":"LANDMARKNA","type":"esriFieldTypeString","alias":"LANDMARKNA","length":50},{"name":"LANDMARKAD","type":"esriFieldTypeString","alias":"LANDMARKAD","length":15},{"name":"ADDRESS","type":"esriFieldTypeString","alias":"ADDRESS","length":56},{"name":"TEL","type":"esriFieldTypeString","alias":"TEL","length":36},{"name":"COUNTYNAME","type":"esriFieldTypeString","alias":"COUNTYNAME","length":15},{"name":"TOWNNAME","type":"esriFieldTypeString","alias":"TOWNNAME","length":13},{"name":"MARKTYPE","type":"esriFieldTypeString","alias":"MARKTYPE","length":12},{"name":"Class","type":"esriFieldTypeString","alias":"Class","length":5}],"features":[{"attributes":{"OBJECTID":19201,"LANDMARKID":"1001200000256","LANDMARKCO":"107","LANDMARKNA":"高雄市政府警察局義寶派出所","LANDMARKAD":"1001221","ADDRESS":"高雄市六龜區民生路1號","TEL":"07-6891049","COUNTYNAME":"高雄市","TOWNNAME":"六龜區","MARKTYPE":"991","Class":"1"},"geometry":{"x":120.6335591359437,"y":22.998374529454548}},{"attributes":{"OBJECTID":19202,"LANDMARKID":"1001200000104","LANDMARKCO":"103","LANDMARKNA":"高雄市六龜區衛生所","LANDMARKAD":"1001221","ADDRESS":"高雄市六龜區六龜村民治路16號","TEL":"07-6891244","COUNTYNAME":"高雄市","TOWNNAME":"六龜區","MARKTYPE":"991","Class":"1"},"geometry":{"x":120.63361083318726,"y":22.997832928037262}},{"attributes":{"OBJECTID":19203,"LANDMARKID":"1001200000254","LANDMARKCO":"107","LANDMARKNA":"高雄市消防局六龜消防分隊","LANDMARKAD":"1001221","ADDRESS":"高雄市六龜區六龜村民治路9號","TEL":"07-6891324","COUNTYNAME":"高雄市","TOWNNAME":"六龜區","MARKTYPE":"991","Class":"1"},"geometry":{"x":120.63368740768536,"y":22.998104202243308}},{"attributes":{"OBJECTID":19204,"LANDMARKID":"1001200000120","LANDMARKCO":"106","LANDMARKNA":"高雄市六龜區戶政事務所","LANDMARKAD":"1001221","ADDRESS":"高雄市六龜區民治路18之2號","TEL":"07-6891401","COUNTYNAME":"高雄市","TOWNNAME":"六龜區","MARKTYPE":"991","Class":"1"},"geometry":{"x":120.63478701839564,"y":22.995400097021992}},{"attributes":{"OBJECTID":19205,"LANDMARKID":"1001200000251","LANDMARKCO":"107","LANDMARKNA":"高雄市政府警察局荖濃派出所","LANDMARKAD":"1001221","ADDRESS":"高雄市六龜區荖濃村裕濃路18號","TEL":"07-6881014","COUNTYNAME":"高雄市","TOWNNAME":"六龜區","MARKTYPE":"991","Class":"1"},"geometry":{"x":120.6726659551147,"y":23.072240510682544}},{"attributes":{"OBJECTID":19206,"LANDMARKID":"1001200000252","LANDMARKCO":"107","LANDMARKNA":"高雄市政府警察局寶來派出所","LANDMARKAD":"1001221","ADDRESS":"高雄市六龜區寶來村中正路21號","TEL":"07-6881170","COUNTYNAME":"高雄市","TOWNNAME":"六龜區","MARKTYPE":"991","Class":"1"},"geometry":{"x":120.71703642319423,"y":23.102126798742233}},{"attributes":{"OBJECTID":19207,"LANDMARKID":"1001200000253","LANDMARKCO":"107","LANDMARKNA":"高雄市政府警察局新威派出所","LANDMARKAD":"1001221","ADDRESS":"高雄市六龜區新威村新威路127號","TEL":"07-6871176","COUNTYNAME":"高雄市","TOWNNAME":"六龜區","MARKTYPE":"991","Class":"1"},"geometry":{"x":120.62815176080251,"y":22.902185754935282}},{"attributes":{"OBJECTID":19208,"LANDMARKID":"1001200000001","LANDMARKCO":"101","LANDMARKNA":"林務局屏東林區管理處六龜工作站","LANDMARKAD":"1001221","ADDRESS":"高雄市六龜區中興村中庄197號","TEL":"07-6891002","COUNTYNAME":"高雄市","TOWNNAME":"六龜區","MARKTYPE":"991","Class":"1"},"geometry":{"x":120.63818106859409,"y":22.995499574836018}},{"attributes":{"OBJECTID":19209,"LANDMARKID":"1001200000002","LANDMARKCO":"101","LANDMARKNA":"農業委員會林業試驗所六龜分所","LANDMARKAD":"1001221","ADDRESS":"高雄市六龜區中興村中庄198號","TEL":"07-6891028","COUNTYNAME":"高雄市","TOWNNAME":"六龜區","MARKTYPE":"991","Class":"1"},"geometry":{"x":120.64384793232961,"y":22.992351873871584}},{"attributes":{"OBJECTID":19210,"LANDMARKID":"1001200000265","LANDMARKCO":"107","LANDMARKNA":"高雄市政府警察局建山派出所","LANDMARKAD":"1001221","ADDRESS":"高雄市桃源區建山村建山巷36號","TEL":"07-6881442","COUNTYNAME":"高雄市","TOWNNAME":"六龜區","MARKTYPE":"991","Class":"1"},"geometry":{"x":120.68436165757723,"y":23.107033027756803}},{"attributes":{"OBJECTID":19211,"LANDMARKID":"1001200000573","LANDMARKCO":"204","LANDMARKNA":"高雄市立圖書館六龜分館","LANDMARKAD":"1001221","ADDRESS":"高雄市六龜區六龜村民治路18號","TEL":" ","COUNTYNAME":"高雄市","TOWNNAME":"六龜區","MARKTYPE":"992","Class":"2"},"geometry":{"x":120.63330400680124,"y":22.997948950430636}},{"attributes":{"OBJECTID":19212,"LANDMARKID":"1001200000319","LANDMARKCO":"202","LANDMARKNA":"縣立六龜高中","LANDMARKAD":"1001221","ADDRESS":"高雄市六龜區光復路212號","TEL":"07-6891023","COUNTYNAME":"高雄市","TOWNNAME":"六龜區","MARKTYPE":"992","Class":"2"},"geometry":{"x":120.63460636234998,"y":22.993141613099951}},{"attributes":{"OBJECTID":19213,"LANDMARKID":"1001200000521","LANDMARKCO":"203","LANDMARKNA":"縣立寶來國中","LANDMARKAD":"1001221","ADDRESS":"高雄市六龜區寶來村中正路137號","TEL":"07-6881258","COUNTYNAME":"高雄市","TOWNNAME":"六龜區","MARKTYPE":"992","Class":"2"},"geometry":{"x":120.70366860428975,"y":23.109237398218355}},{"attributes":{"OBJECTID":19214,"LANDMARKID":"1001200000522","LANDMARKCO":"203","LANDMARKNA":"縣立六龜國小","LANDMARKAD":"1001221","ADDRESS":"高雄市六龜區義寶村光復路40號","TEL":"07-6891053","COUNTYNAME":"高雄市","TOWNNAME":"六龜區","MARKTYPE":"992","Class":"2"},"geometry":{"x":120.63379744547586,"y":22.996208288417339}},{"attributes":{"OBJECTID":19215,"LANDMARKID":"1001200000523","LANDMARKCO":"203","LANDMARKNA":"縣立新發國小","LANDMARKAD":"1001221","ADDRESS":"高雄市六龜區新發村和平路130號","TEL":"07-6791387","COUNTYNAME":"高雄市","TOWNNAME":"六龜區","MARKTYPE":"992","Class":"2"},"geometry":{"x":120.66273848852774,"y":23.032126476171282}},{"attributes":{"OBJECTID":19216,"LANDMARKID":"1001200000524","LANDMARKCO":"203","LANDMARKNA":"縣立荖濃國小","LANDMARKAD":"1001221","ADDRESS":"高雄市六龜區荖濃村南橫路72號","TEL":"07-6881311","COUNTYNAME":"高雄市","TOWNNAME":"六龜區","MARKTYPE":"992","Class":"2"},"geometry":{"x":120.67255378754184,"y":23.073233411320807}},{"attributes":{"OBJECTID":19217,"LANDMARKID":"1001200000525","LANDMARKCO":"203","LANDMARKNA":"縣立寶來國小","LANDMARKAD":"1001221","ADDRESS":"高雄市六龜區中正路89號","TEL":"07-6881009","COUNTYNAME":"高雄市","TOWNNAME":"六龜區","MARKTYPE":"992","Class":"2"},"geometry":{"x":120.70139589042299,"y":23.108782557917571}},{"attributes":{"OBJECTID":19218,"LANDMARKID":"1001200000526","LANDMARKCO":"203","LANDMARKNA":"縣立新威國小","LANDMARKAD":"1001221","ADDRESS":"高雄市六龜區新興村新威路212號","TEL":"07-6871134","COUNTYNAME":"高雄市","TOWNNAME":"六龜區","MARKTYPE":"992","Class":"2"},"geometry":{"x":120.62741380690105,"y":22.898486229047126}},{"attributes":{"OBJECTID":19219,"LANDMARKID":"1001200000527","LANDMARKCO":"203","LANDMARKNA":"縣立龍興國小","LANDMARKAD":"1001221","ADDRESS":"高雄市六龜區中興村中庄路193號","TEL":"07-6891140","COUNTYNAME":"高雄市","TOWNNAME":"六龜區","MARKTYPE":"992","Class":"2"},"geometry":{"x":120.6452552196163,"y":22.993706531685827}},{"attributes":{"OBJECTID":19220,"LANDMARKID":"1001200000528","LANDMARKCO":"203","LANDMARKNA":"縣立龍興國小大津分校","LANDMARKAD":"1001221","ADDRESS":"高雄市六龜區","TEL":" ","COUNTYNAME":"高雄市","TOWNNAME":"六龜區","MARKTYPE":"992","Class":"2"},"geometry":{"x":120.64661861681851,"y":22.888776070245672}},{"attributes":{"OBJECTID":19221,"LANDMARKID":"1001200000529","LANDMARKCO":"203","LANDMARKNA":"縣立新發國小新開分校","LANDMARKAD":"1001221","ADDRESS":"高雄市六龜區","TEL":" ","COUNTYNAME":"高雄市","TOWNNAME":"六龜區","MARKTYPE":"992","Class":"2"},"geometry":{"x":120.67637357258555,"y":23.055995033161075}},{"attributes":{"OBJECTID":19222,"LANDMARKID":"1001200000530","LANDMARKCO":"203","LANDMARKNA":"縣立建山國小","LANDMARKAD":"1001221","ADDRESS":"高雄市桃源區建山村96號","TEL":"07-6881134","COUNTYNAME":"高雄市","TOWNNAME":"六龜區","MARKTYPE":"992","Class":"2"},"geometry":{"x":120.68250915436317,"y":23.105134790434107}},{"attributes":{"OBJECTID":19223,"LANDMARKID":"1001200000531","LANDMARKCO":"203","LANDMARKNA":"縣立寶山國小二集團分校","LANDMARKAD":"1001221","ADDRESS":"高雄市桃源區","TEL":" ","COUNTYNAME":"高雄市","TOWNNAME":"六龜區","MARKTYPE":"992","Class":"2"},"geometry":{"x":120.72172466156259,"y":23.055631042698497}},{"attributes":{"OBJECTID":19224,"LANDMARKID":"1001200000627","LANDMARKCO":"302","LANDMARKNA":"高雄汽車客運六龜站","LANDMARKAD":"1001221","ADDRESS":"高雄市六龜區華南街30號","TEL":" ","COUNTYNAME":"高雄市","TOWNNAME":"六龜區","MARKTYPE":"993","Class":"302"},"geometry":{"x":120.65679797578724,"y":23.067708374076041}},{"attributes":{"OBJECTID":19225,"LANDMARKID":"1001200000628","LANDMARKCO":"303","LANDMARKNA":"邦腹停車場","LANDMARKAD":"1001221","ADDRESS":"高雄市六龜區","TEL":" ","COUNTYNAME":"高雄市","TOWNNAME":"六龜區","MARKTYPE":"993","Class":"303"},"geometry":{"x":120.65703998067144,"y":23.00556330510792}},{"attributes":{"OBJECTID":19226,"LANDMARKID":"1001200000629","LANDMARKCO":"303","LANDMARKNA":"新發大橋停車場","LANDMARKAD":"1001221","ADDRESS":"高雄市六龜區新發村","TEL":" ","COUNTYNAME":"高雄市","TOWNNAME":"六龜區","MARKTYPE":"993","Class":"303"},"geometry":{"x":120.66994207808425,"y":23.037781409175754}},{"attributes":{"OBJECTID":19227,"LANDMARKID":"1001200000818","LANDMARKCO":"402","LANDMARKNA":"中華電信-六龜服務中心","LANDMARKAD":"1001221","ADDRESS":"高雄市六龜區華南街34號","TEL":"(07)689-2005","COUNTYNAME":"高雄市","TOWNNAME":"六龜區","MARKTYPE":"994","Class":"4"},"geometry":{"x":120.63430019244075,"y":22.997893302157753}},{"attributes":{"OBJECTID":19228,"LANDMARKID":"1001200001453","LANDMARKCO":"604","LANDMARKNA":"龍樺山莊","LANDMARKAD":"1001221","ADDRESS":"高雄市六龜區新發村和平路130-5號","TEL":"07-6791785","COUNTYNAME":"高雄市","TOWNNAME":"六龜區","MARKTYPE":"996","Class":"6"},"geometry":{"x":120.66273065518331,"y":23.034677527862904}},{"attributes":{"OBJECTID":19229,"LANDMARKID":"1001200001454","LANDMARKCO":"604","LANDMARKNA":"土夏生機花園民宿","LANDMARKAD":"1001221","ADDRESS":"高雄市六龜區新發村和平路130-72號","TEL":"07-6791000","COUNTYNAME":"高雄市","TOWNNAME":"六龜區","MARKTYPE":"996","Class":"6"},"geometry":{"x":120.66137342325922,"y":23.042697629505621}},{"attributes":{"OBJECTID":19230,"LANDMARKID":"1001200001455","LANDMARKCO":"604","LANDMARKNA":"荖濃溪溫泉民宿","LANDMARKAD":"1001221","ADDRESS":"高雄市六龜區新發村新開路62-10號","TEL":"07-3110960","COUNTYNAME":"高雄市","TOWNNAME":"六龜區","MARKTYPE":"996","Class":"6"},"geometry":{"x":120.6801530821613,"y":23.063191892467881}},{"attributes":{"OBJECTID":19231,"LANDMARKID":"1001200001456","LANDMARKCO":"604","LANDMARKNA":"草地人溫泉民宿","LANDMARKAD":"1001221","ADDRESS":"高雄市六龜區新發村新開路33-1號","TEL":"07-6791736","COUNTYNAME":"高雄市","TOWNNAME":"六龜區","MARKTYPE":"996","Class":"6"},"geometry":{"x":120.67728480120549,"y":23.056477747636823}},{"attributes":{"OBJECTID":19232,"LANDMARKID":"1001200001457","LANDMARKCO":"604","LANDMARKNA":"亞力民宿","LANDMARKAD":"1001221","ADDRESS":"高雄市桃源區建山村86-2號","TEL":"07-6882042","COUNTYNAME":"高雄市","TOWNNAME":"六龜區","MARKTYPE":"996","Class":"6"},"geometry":{"x":120.68392833753087,"y":23.103915260081447}},{"attributes":{"OBJECTID":19233,"LANDMARKID":"1001200001458","LANDMARKCO":"604","LANDMARKNA":"扇平山莊(民宿)","LANDMARKAD":"1001221","ADDRESS":"高雄市六龜區中興村尾庄45-3號","TEL":"07-6895882","COUNTYNAME":"高雄市","TOWNNAME":"六龜區","MARKTYPE":"996","Class":"6"},"geometry":{"x":120.65186409896641,"y":22.973745171757969}},{"attributes":{"OBJECTID":19234,"LANDMARKID":"1001200001459","LANDMARKCO":"604","LANDMARKNA":"山下華園","LANDMARKAD":"1001221","ADDRESS":"高雄市六龜區中興村尾庄68-68號","TEL":"07-6891888","COUNTYNAME":"高雄市","TOWNNAME":"六龜區","MARKTYPE":"996","Class":"6"},"geometry":{"x":120.64982685657556,"y":22.984940843447411}},{"attributes":{"OBJECTID":19235,"LANDMARKID":"1001200001460","LANDMARKCO":"604","LANDMARKNA":"松柏林民宿","LANDMARKAD":"1001221","ADDRESS":"高雄市六龜區興龍村土?37-8號","TEL":"07-6891010","COUNTYNAME":"高雄市","TOWNNAME":"六龜區","MARKTYPE":"996","Class":"6"},"geometry":{"x":120.65760226239644,"y":23.052664512122856}},{"attributes":{"OBJECTID":19236,"LANDMARKID":"1001200001461","LANDMARKCO":"604","LANDMARKNA":"木森林香草民宿","LANDMARKAD":"1001221","ADDRESS":"高雄市六龜區興龍村舊潭21-1號","TEL":"07-6895021","COUNTYNAME":"高雄市","TOWNNAME":"六龜區","MARKTYPE":"996","Class":"6"},"geometry":{"x":120.66610582156304,"y":23.012808758211122}},{"attributes":{"OBJECTID":19237,"LANDMARKID":"1001200001462","LANDMARKCO":"604","LANDMARKNA":"梅礦民宿","LANDMARKAD":"1001221","ADDRESS":"高雄市六龜區寶來村竹林路65-31號","TEL":"07-6883330","COUNTYNAME":"高雄市","TOWNNAME":"六龜區","MARKTYPE":"996","Class":"6"},"geometry":{"x":120.7302458652088,"y":23.102571304744586}},{"attributes":{"OBJECTID":19238,"LANDMARKID":"1001200001463","LANDMARKCO":"604","LANDMARKNA":"山水炎民宿","LANDMARKAD":"1001221","ADDRESS":"高雄市六龜區中興村尾庄55之2號","TEL":"07-6891257","COUNTYNAME":"高雄市","TOWNNAME":"六龜區","MARKTYPE":"996","Class":"6"},"geometry":{"x":120.64725561168065,"y":22.98070514115102}},{"attributes":{"OBJECTID":19239,"LANDMARKID":"1001200001464","LANDMARKCO":"604","LANDMARKNA":"日景園","LANDMARKAD":"1001221","ADDRESS":"高雄市六龜區文武村光明巷37-1號","TEL":"07-6891317","COUNTYNAME":"高雄市","TOWNNAME":"六龜區","MARKTYPE":"996","Class":"6"},"geometry":{"x":120.63682832241939,"y":22.983960712770951}},{"attributes":{"OBJECTID":19240,"LANDMARKID":"1001200001353","LANDMARKCO":"603","LANDMARKNA":"不老溫泉山莊","LANDMARKAD":"1001221","ADDRESS":"高雄市六龜區新發村新開路82號","TEL":"07-6791888","COUNTYNAME":"高雄市","TOWNNAME":"六龜區","MARKTYPE":"996","Class":"6"},"geometry":{"x":120.683617873156,"y":23.066509637764394}},{"attributes":{"OBJECTID":19241,"LANDMARKID":"1001200001278","LANDMARKCO":"508","LANDMARKNA":"松興溫泉山莊","LANDMARKAD":"1001221","ADDRESS":"高雄市六龜區和平路305號","TEL":"07-6791776","COUNTYNAME":"高雄市","TOWNNAME":"六龜區","MARKTYPE":"995","Class":"5"},"geometry":{"x":120.66784347515927,"y":23.04492245526513}},{"attributes":{"OBJECTID":19242,"LANDMARKID":"1001200001279","LANDMARKCO":"508","LANDMARKNA":"新開溫泉山莊","LANDMARKAD":"1001221","ADDRESS":"高雄市六龜區新開路1號","TEL":"07-6791976","COUNTYNAME":"高雄市","TOWNNAME":"六龜區","MARKTYPE":"995","Class":"5"},"geometry":{"x":120.67578411522813,"y":23.051039550893247}},{"attributes":{"OBJECTID":19243,"LANDMARKID":"1001200001280","LANDMARKCO":"508","LANDMARKNA":"天闊溫泉SPA會館","LANDMARKAD":"1001221","ADDRESS":"高雄市六龜區新開路63號","TEL":"07-6791155","COUNTYNAME":"高雄市","TOWNNAME":"六龜區","MARKTYPE":"995","Class":"5"},"geometry":{"x":120.68120623376778,"y":23.061552750457381}},{"attributes":{"OBJECTID":19244,"LANDMARKID":"1001200001281","LANDMARKCO":"508","LANDMARKNA":"不老溫泉山莊","LANDMARKAD":"1001221","ADDRESS":"高雄市六龜區新開路82號","TEL":"07-6791888","COUNTYNAME":"高雄市","TOWNNAME":"六龜區","MARKTYPE":"995","Class":"5"},"geometry":{"x":120.68364277931462,"y":23.06631610571964}},{"attributes":{"OBJECTID":19245,"LANDMARKID":"1001200001282","LANDMARKCO":"508","LANDMARKNA":"長欣溫泉山莊","LANDMARKAD":"1001221","ADDRESS":"高雄市六龜區新開路75之1號","TEL":"07-6791035","COUNTYNAME":"高雄市","TOWNNAME":"六龜區","MARKTYPE":"995","Class":"5"},"geometry":{"x":120.68360045731413,"y":23.064548619091841}},{"attributes":{"OBJECTID":19246,"LANDMARKID":"1001200001283","LANDMARKCO":"508","LANDMARKNA":"長青溫泉山莊","LANDMARKAD":"1001221","ADDRESS":"高雄市六龜區新開路83之1號","TEL":"07-6791167","COUNTYNAME":"高雄市","TOWNNAME":"六龜區","MARKTYPE":"995","Class":"5"},"geometry":{"x":120.68492409783381,"y":23.065135262886777}},{"attributes":{"OBJECTID":19247,"LANDMARKID":"1001200001284","LANDMARKCO":"508","LANDMARKNA":"青松溫泉山莊","LANDMARKAD":"1001221","ADDRESS":"高雄市六龜區新開路83之13號","TEL":"07-6791212","COUNTYNAME":"高雄市","TOWNNAME":"六龜區","MARKTYPE":"995","Class":"5"},"geometry":{"x":120.68565055160083,"y":23.065859391413266}},{"attributes":{"OBJECTID":19248,"LANDMARKID":"1001200001285","LANDMARKCO":"508","LANDMARKNA":"美崙山溫泉山莊","LANDMARKAD":"1001221","ADDRESS":"高雄市六龜區新開路86號","TEL":"07-6791919","COUNTYNAME":"高雄市","TOWNNAME":"六龜區","MARKTYPE":"995","Class":"5"},"geometry":{"x":120.68603688835398,"y":23.067622878008962}},{"attributes":{"OBJECTID":19249,"LANDMARKID":"1001200001286","LANDMARKCO":"508","LANDMARKNA":"檳園溫泉山莊","LANDMARKAD":"1001221","ADDRESS":"高雄市六龜區新開路86之1號","TEL":"07-3791280","COUNTYNAME":"高雄市","TOWNNAME":"六龜區","MARKTYPE":"995","Class":"5"},"geometry":{"x":120.68639316621488,"y":23.068364302146044}},{"attributes":{"OBJECTID":19250,"LANDMARKID":"1001200001287","LANDMARKCO":"508","LANDMARKNA":"清水溫泉山莊","LANDMARKAD":"1001221","ADDRESS":"高雄市六龜區新開路83之10號","TEL":"07-6791577","COUNTYNAME":"高雄市","TOWNNAME":"六龜區","MARKTYPE":"995","Class":"5"},"geometry":{"x":120.68552464229445,"y":23.065949325589965}},{"attributes":{"OBJECTID":19251,"LANDMARKID":"1001200001288","LANDMARKCO":"508","LANDMARKNA":"青山溫泉渡假村","LANDMARKAD":"1001221","ADDRESS":"高雄市六龜區新開路129號","TEL":"07-6791717","COUNTYNAME":"高雄市","TOWNNAME":"六龜區","MARKTYPE":"995","Class":"5"},"geometry":{"x":120.68962362806468,"y":23.077412620525283}},{"attributes":{"OBJECTID":19252,"LANDMARKID":"1001200001289","LANDMARKCO":"508","LANDMARKNA":"澗鳴山莊溫泉小木屋","LANDMARKAD":"1001221","ADDRESS":"高雄市六龜區新開路118號","TEL":"07-6791110","COUNTYNAME":"高雄市","TOWNNAME":"六龜區","MARKTYPE":"995","Class":"5"},"geometry":{"x":120.69258681957955,"y":23.076176769316316}},{"attributes":{"OBJECTID":19253,"LANDMARKID":"1001200001290","LANDMARKCO":"508","LANDMARKNA":"嘉寶溫泉渡假村","LANDMARKAD":"1001221","ADDRESS":"高雄市六龜區新寶路7號","TEL":"07-6882717","COUNTYNAME":"高雄市","TOWNNAME":"六龜區","MARKTYPE":"995","Class":"5"},"geometry":{"x":120.69302991321999,"y":23.094326972222834}},{"attributes":{"OBJECTID":19254,"LANDMARKID":"1001200001291","LANDMARKCO":"508","LANDMARKNA":"新寶來溫泉渡假村","LANDMARKAD":"1001221","ADDRESS":"高雄市六龜區新寶路1之1號","TEL":"07-6881700","COUNTYNAME":"高雄市","TOWNNAME":"六龜區","MARKTYPE":"995","Class":"5"},"geometry":{"x":120.6968470164481,"y":23.105545736054445}},{"attributes":{"OBJECTID":19255,"LANDMARKID":"1001200001292","LANDMARKCO":"508","LANDMARKNA":"鴻來溫泉渡假山莊","LANDMARKAD":"1001221","ADDRESS":"高雄市六龜區中正路122號","TEL":"07-6881981","COUNTYNAME":"高雄市","TOWNNAME":"六龜區","MARKTYPE":"995","Class":"5"},"geometry":{"x":120.70071089572178,"y":23.109800660497402}},{"attributes":{"OBJECTID":19256,"LANDMARKID":"1001200001293","LANDMARKCO":"508","LANDMARKNA":"國蘭溫泉山莊","LANDMARKAD":"1001221","ADDRESS":"高雄市六龜區中正路81之2號","TEL":"07-6882233","COUNTYNAME":"高雄市","TOWNNAME":"六龜區","MARKTYPE":"995","Class":"5"},"geometry":{"x":120.70039791336599,"y":23.108871058481061}},{"attributes":{"OBJECTID":19257,"LANDMARKID":"1001200001294","LANDMARKCO":"508","LANDMARKNA":"上寶來山莊","LANDMARKAD":"1001221","ADDRESS":"高雄市六龜區中正路99號","TEL":"07-6882035","COUNTYNAME":"高雄市","TOWNNAME":"六龜區","MARKTYPE":"995","Class":"5"},"geometry":{"x":120.7016489202836,"y":23.10960360884005}},{"attributes":{"OBJECTID":19258,"LANDMARKID":"1001200001295","LANDMARKCO":"508","LANDMARKNA":"國蘭花園溫泉會館","LANDMARKAD":"1001221","ADDRESS":"高雄市六龜區寶來2巷36之30號","TEL":"07-6882231","COUNTYNAME":"高雄市","TOWNNAME":"六龜區","MARKTYPE":"995","Class":"5"},"geometry":{"x":120.70238690207947,"y":23.105343024103512}},{"attributes":{"OBJECTID":19259,"LANDMARKID":"1001200001296","LANDMARKCO":"508","LANDMARKNA":"芳晨溫泉渡假村","LANDMARKAD":"1001221","ADDRESS":"高雄市六龜區中正路132號","TEL":"07-6882311","COUNTYNAME":"高雄市","TOWNNAME":"六龜區","MARKTYPE":"995","Class":"5"},"geometry":{"x":120.70228387287654,"y":23.110858972835747}},{"attributes":{"OBJECTID":19260,"LANDMARKID":"1001200001297","LANDMARKCO":"508","LANDMARKNA":"竹林溫泉鄉","LANDMARKAD":"1001221","ADDRESS":"高雄市六龜區寶來村竹林7號","TEL":"07-6882145","COUNTYNAME":"高雄市","TOWNNAME":"六龜區","MARKTYPE":"995","Class":"5"},"geometry":{"x":120.71781554986939,"y":23.101468271072388}},{"attributes":{"OBJECTID":19261,"LANDMARKID":"1001200001298","LANDMARKCO":"508","LANDMARKNA":"來來山莊","LANDMARKAD":"1001221","ADDRESS":"高雄市六龜區寶來村竹林63之12號","TEL":"07-6882772","COUNTYNAME":"高雄市","TOWNNAME":"六龜區","MARKTYPE":"995","Class":"5"},"geometry":{"x":120.7281543639364,"y":23.105036296355106}},{"attributes":{"OBJECTID":19262,"LANDMARKID":"1001200001230","LANDMARKCO":"503","LANDMARKNA":"荖濃溪泛舟終點","LANDMARKAD":"1001221","ADDRESS":"高雄市六龜區","TEL":" ","COUNTYNAME":"高雄市","TOWNNAME":"六龜區","MARKTYPE":"995","Class":"5"},"geometry":{"x":120.66772862249674,"y":23.047349080772314}},{"attributes":{"OBJECTID":19263,"LANDMARKID":"1001200001239","LANDMARKCO":"505","LANDMARKNA":"新威森林公園(新威苗圃)","LANDMARKAD":"1001221","ADDRESS":"高雄市六龜區新威村171號","TEL":" ","COUNTYNAME":"高雄市","TOWNNAME":"六龜區","MARKTYPE":"995","Class":"5"},"geometry":{"x":120.62237172580971,"y":22.89459702710591}},{"attributes":{"OBJECTID":19264,"LANDMARKID":"1001200001223","LANDMARKCO":"503","LANDMARKNA":"六龜彩蝶谷","LANDMARKAD":"1001221","ADDRESS":"高雄市六龜區","TEL":" ","COUNTYNAME":"高雄市","TOWNNAME":"六龜區","MARKTYPE":"995","Class":"5"},"geometry":{"x":120.63811539590399,"y":23.011755959240272}},{"attributes":{"OBJECTID":19265,"LANDMARKID":"1001200001224","LANDMARKCO":"503","LANDMARKNA":"邦腹溪遊憩區","LANDMARKAD":"1001221","ADDRESS":"高雄市六龜區興隆村","TEL":" ","COUNTYNAME":"高雄市","TOWNNAME":"六龜區","MARKTYPE":"995","Class":"5"},"geometry":{"x":120.65764201099954,"y":23.004478788754888}},{"attributes":{"OBJECTID":19266,"LANDMARKID":"1001200001225","LANDMARKCO":"503","LANDMARKNA":"飛虹瀑布","LANDMARKAD":"1001221","ADDRESS":"高雄市六龜區","TEL":" ","COUNTYNAME":"高雄市","TOWNNAME":"六龜區","MARKTYPE":"995","Class":"5"},"geometry":{"x":120.6524902577647,"y":23.042677872327431}},{"attributes":{"OBJECTID":19267,"LANDMARKID":"1001200001226","LANDMARKCO":"503","LANDMARKNA":"大智瀑布","LANDMARKAD":"1001221","ADDRESS":"高雄市六龜區","TEL":" ","COUNTYNAME":"高雄市","TOWNNAME":"六龜區","MARKTYPE":"995","Class":"5"},"geometry":{"x":120.65211643378022,"y":22.945859706119766}},{"attributes":{"OBJECTID":19268,"LANDMARKID":"1001200001227","LANDMARKCO":"503","LANDMARKNA":"飛雪瀑布","LANDMARKAD":"1001221","ADDRESS":"高雄市六龜區","TEL":" ","COUNTYNAME":"高雄市","TOWNNAME":"六龜區","MARKTYPE":"995","Class":"5"},"geometry":{"x":120.65671618912513,"y":22.98169259830933}},{"attributes":{"OBJECTID":19269,"LANDMARKID":"1001200001228","LANDMARKCO":"503","LANDMARKNA":"邦腹溪瀑布","LANDMARKAD":"1001221","ADDRESS":"高雄市六龜區","TEL":" ","COUNTYNAME":"高雄市","TOWNNAME":"六龜區","MARKTYPE":"995","Class":"5"},"geometry":{"x":120.6639704576093,"y":23.000266690980272}},{"attributes":{"OBJECTID":19270,"LANDMARKID":"1001200001229","LANDMARKCO":"503","LANDMARKNA":"荖濃溪泛舟起點","LANDMARKAD":"1001221","ADDRESS":"高雄市六龜區","TEL":" ","COUNTYNAME":"高雄市","TOWNNAME":"六龜區","MARKTYPE":"995","Class":"5"},"geometry":{"x":120.70351745249752,"y":23.111910711848999}},{"attributes":{"OBJECTID":19271,"LANDMARKID":"1001200000867","LANDMARKCO":"405","LANDMARKNA":"中油加油站-杉林站","LANDMARKAD":"1001223","ADDRESS":"高雄市杉林區月眉村清水路304號","TEL":"07-6772888","COUNTYNAME":"高雄市","TOWNNAME":"杉林區","MARKTYPE":"994","Class":"4"},"geometry":{"x":120.53819827606793,"y":22.970261479703343}},{"attributes":{"OBJECTID":19272,"LANDMARKID":"1001200001087","LANDMARKCO":"408","LANDMARKNA":"郵局-杉林郵局","LANDMARKAD":"1001223","ADDRESS":"高雄市杉林區上平村山仙路26號","TEL":"(07)6771-163","COUNTYNAME":"高雄市","TOWNNAME":"杉林區","MARKTYPE":"994","Class":"4"},"geometry":{"x":120.5408323165438,"y":22.973016707547838}},{"attributes":{"OBJECTID":19273,"LANDMARKID":"1001200001164","LANDMARKCO":"409","LANDMARKNA":"高雄市杉林區農會","LANDMARKAD":"1001223","ADDRESS":"高雄市杉林區上平村山仙路32號","TEL":"07-6772210-1","COUNTYNAME":"高雄市","TOWNNAME":"杉林區","MARKTYPE":"994","Class":"4"},"geometry":{"x":120.54317810152376,"y":22.976364632469256}},{"attributes":{"OBJECTID":19274,"LANDMARKID":"1001200001165","LANDMARKCO":"409","LANDMARKNA":"杉林農會-本部","LANDMARKAD":"1001223","ADDRESS":"高雄市杉林區上平村山仙路32號","TEL":"07-677-22","COUNTYNAME":"高雄市","TOWNNAME":"杉林區","MARKTYPE":"994","Class":"4"},"geometry":{"x":120.54091791808678,"y":22.973134955129503}},{"attributes":{"OBJECTID":19275,"LANDMARKID":"1001200000091","LANDMARKCO":"103","LANDMARKNA":"高雄市杉林區鄉民代表會","LANDMARKAD":"1001223","ADDRESS":"高雄市杉林區山仙路6號","TEL":"07-6771105","COUNTYNAME":"高雄市","TOWNNAME":"杉林區","MARKTYPE":"991","Class":"1"},"geometry":{"x":120.53930275338291,"y":22.971037477144034}},{"attributes":{"OBJECTID":19276,"LANDMARKID":"1001200000119","LANDMARKCO":"106","LANDMARKNA":"高雄市杉林區戶政事務所","LANDMARKAD":"1001223","ADDRESS":"高雄市杉林區上平村6鄰山仙路87號","TEL":"07-6771344","COUNTYNAME":"高雄市","TOWNNAME":"杉林區","MARKTYPE":"991","Class":"1"},"geometry":{"x":120.53999739031055,"y":22.969325712770566}},{"attributes":{"OBJECTID":19277,"LANDMARKID":"1001200000257","LANDMARKCO":"107","LANDMARKNA":"高雄市政府警察局茄興派出所","LANDMARKAD":"1001223","ADDRESS":"高雄市杉林區木梓村茄苳巷144號","TEL":"07-6779274","COUNTYNAME":"高雄市","TOWNNAME":"杉林區","MARKTYPE":"991","Class":"1"},"geometry":{"x":120.53170849740778,"y":23.04064274925204}},{"attributes":{"OBJECTID":19278,"LANDMARKID":"1001200000258","LANDMARKCO":"107","LANDMARKNA":"高雄市消防局杉林消防分隊","LANDMARKAD":"1001223","ADDRESS":"高雄市杉林區月眉村中學巷6號之1","TEL":"07-6772204","COUNTYNAME":"高雄市","TOWNNAME":"杉林區","MARKTYPE":"991","Class":"1"},"geometry":{"x":120.54098604676109,"y":22.96734469809196}},{"attributes":{"OBJECTID":19279,"LANDMARKID":"1001200000259","LANDMARKCO":"107","LANDMARKNA":"高雄市政府警察局集來派出所","LANDMARKAD":"1001223","ADDRESS":"高雄市杉林區通仙巷331號","TEL":"07-6779064","COUNTYNAME":"高雄市","TOWNNAME":"杉林區","MARKTYPE":"991","Class":"1"},"geometry":{"x":120.56233717482681,"y":23.023391839814529}},{"attributes":{"OBJECTID":19280,"LANDMARKID":"1001200000260","LANDMARKCO":"107","LANDMARKNA":"高雄市政府警察局合森派出所","LANDMARKAD":"1001223","ADDRESS":"高雄市杉林區合森巷62號","TEL":"07-6771144","COUNTYNAME":"高雄市","TOWNNAME":"杉林區","MARKTYPE":"991","Class":"1"},"geometry":{"x":120.55006212672984,"y":22.999333002134875}},{"attributes":{"OBJECTID":19281,"LANDMARKID":"1001200000279","LANDMARKCO":"108","LANDMARKNA":"杉林區公所","LANDMARKAD":"1001223","ADDRESS":"高雄市杉林區上平村山仙路六號","TEL":"07-677-1340","COUNTYNAME":"高雄市","TOWNNAME":"杉林區","MARKTYPE":"991","Class":"1"},"geometry":{"x":120.5401820925193,"y":22.971821936859477}},{"attributes":{"OBJECTID":19282,"LANDMARKID":"1001200000571","LANDMARKCO":"204","LANDMARKNA":"高雄市立圖書館杉林分館","LANDMARKAD":"1001223","ADDRESS":"高雄市杉林區上平村山仙路6號3樓","TEL":" ","COUNTYNAME":"高雄市","TOWNNAME":"杉林區","MARKTYPE":"992","Class":"2"},"geometry":{"x":120.53953387437325,"y":22.970991903928294}},{"attributes":{"OBJECTID":19283,"LANDMARKID":"1001200000318","LANDMARKCO":"202","LANDMARKNA":"杉林國中消防隊","LANDMARKAD":"1001223","ADDRESS":" ","TEL":" ","COUNTYNAME":"高雄市","TOWNNAME":"杉林區","MARKTYPE":"992","Class":"2"},"geometry":{"x":120.52950436482217,"y":22.958008626983748}},{"attributes":{"OBJECTID":19284,"LANDMARKID":"1001200000549","LANDMARKCO":"203","LANDMARKNA":"縣立新庄國小","LANDMARKAD":"1001223","ADDRESS":"高雄市杉林區新庄村司馬路45巷5號","TEL":"07-6771755","COUNTYNAME":"高雄市","TOWNNAME":"杉林區","MARKTYPE":"992","Class":"2"},"geometry":{"x":120.55981630823182,"y":22.989250120133143}},{"attributes":{"OBJECTID":19285,"LANDMARKID":"1001200000550","LANDMARKCO":"203","LANDMARKNA":"縣立杉林國中","LANDMARKAD":"1001223","ADDRESS":"高雄市杉林區月眉村清水路中學巷6號","TEL":"07-6771108","COUNTYNAME":"高雄市","TOWNNAME":"杉林區","MARKTYPE":"992","Class":"2"},"geometry":{"x":120.54157727304906,"y":22.967889958537754}},{"attributes":{"OBJECTID":19286,"LANDMARKID":"1001200000551","LANDMARKCO":"203","LANDMARKNA":"縣立上平國小","LANDMARKAD":"1001223","ADDRESS":"高雄市杉林區上平村山仙路212號","TEL":"07-6771102","COUNTYNAME":"高雄市","TOWNNAME":"杉林區","MARKTYPE":"992","Class":"2"},"geometry":{"x":120.54409242344208,"y":22.976565759230599}},{"attributes":{"OBJECTID":19287,"LANDMARKID":"1001200000552","LANDMARKCO":"203","LANDMARKNA":"縣立月美國小","LANDMARKAD":"1001223","ADDRESS":"高雄市杉林區象寮巷39號","TEL":"07-6771404","COUNTYNAME":"高雄市","TOWNNAME":"杉林區","MARKTYPE":"992","Class":"2"},"geometry":{"x":120.53566405999349,"y":22.958479993342365}},{"attributes":{"OBJECTID":19288,"LANDMARKID":"1001200000553","LANDMARKCO":"203","LANDMARKNA":"縣立木梓國小(廢)","LANDMARKAD":"1001223","ADDRESS":"高雄市杉林區木梓村茄苳巷160號","TEL":" ","COUNTYNAME":"高雄市","TOWNNAME":"杉林區","MARKTYPE":"992","Class":"2"},"geometry":{"x":120.54638036803055,"y":23.019827167535844}},{"attributes":{"OBJECTID":19289,"LANDMARKID":"1001200000554","LANDMARKCO":"203","LANDMARKNA":"縣立杉林國小","LANDMARKAD":"1001223","ADDRESS":"高雄市杉林區杉林村合森巷41號","TEL":"07-6772658","COUNTYNAME":"高雄市","TOWNNAME":"杉林區","MARKTYPE":"992","Class":"2"},"geometry":{"x":120.54785804505038,"y":22.997793159322242}},{"attributes":{"OBJECTID":19290,"LANDMARKID":"1001200000555","LANDMARKCO":"203","LANDMARKNA":"縣立集來國小","LANDMARKAD":"1001223","ADDRESS":"高雄市杉林區集來村通仙巷333號","TEL":"07-6779196","COUNTYNAME":"高雄市","TOWNNAME":"杉林區","MARKTYPE":"992","Class":"2"},"geometry":{"x":120.56150397978455,"y":23.022484166462263}},{"attributes":{"OBJECTID":19291,"LANDMARKID":"1001200001447","LANDMARKCO":"604","LANDMARKNA":"月光山香草民宿休閒山莊","LANDMARKAD":"1001223","ADDRESS":"高雄市杉林區桐竹村208-2號","TEL":"07-6772586","COUNTYNAME":"高雄市","TOWNNAME":"杉林區","MARKTYPE":"996","Class":"6"},"geometry":{"x":120.53328983269012,"y":22.943757131744096}},{"attributes":{"OBJECTID":19292,"LANDMARKID":"1001200001222","LANDMARKCO":"503","LANDMARKNA":"白水泉瀑布","LANDMARKAD":"1001223","ADDRESS":"高雄市杉林區","TEL":" ","COUNTYNAME":"高雄市","TOWNNAME":"杉林區","MARKTYPE":"995","Class":"5"},"geometry":{"x":120.55466765452812,"y":23.019566300150974}},{"attributes":{"OBJECTID":19293,"LANDMARKID":"1001200001476","LANDMARKCO":"605","LANDMARKNA":"衛生所","LANDMARKAD":"1001223","ADDRESS":"高雄市杉林區","TEL":" ","COUNTYNAME":"高雄市","TOWNNAME":"杉林區","MARKTYPE":"996","Class":"6"},"geometry":{"x":120.53904668920163,"y":22.970657292903589}},{"attributes":{"OBJECTID":19294,"LANDMARKID":"1001200001477","LANDMARKCO":"605","LANDMARKNA":"樂善堂","LANDMARKAD":"1001223","ADDRESS":"高雄市杉林區","TEL":" ","COUNTYNAME":"高雄市","TOWNNAME":"杉林區","MARKTYPE":"996","Class":"6"},"geometry":{"x":120.52842044340572,"y":22.935863477986832}},{"attributes":{"OBJECTID":19295,"LANDMARKID":"1001200000868","LANDMARKCO":"405","LANDMARKNA":"中油加油站-內門站","LANDMARKAD":"1001224","ADDRESS":"高雄市內門區南屏路125號","TEL":"07-6671661","COUNTYNAME":"高雄市","TOWNNAME":"內門區","MARKTYPE":"994","Class":"4"},"geometry":{"x":120.45540597451691,"y":22.920952084952123}},{"attributes":{"OBJECTID":19296,"LANDMARKID":"1001200001247","LANDMARKCO":"506","LANDMARKNA":"龍眼觀光果園","LANDMARKAD":"1001224","ADDRESS":"高雄市內門區木柵地區台三線","TEL":"07-6671211","COUNTYNAME":"高雄市","TOWNNAME":"內門區","MARKTYPE":"995","Class":"5"},"geometry":{"x":120.44497357454696,"y":22.944767133065188}},{"attributes":{"OBJECTID":19297,"LANDMARKID":"1001200001086","LANDMARKCO":"408","LANDMARKNA":"郵局-內門郵局","LANDMARKAD":"1001224","ADDRESS":"高雄市內門區內豐村內埔121號","TEL":"(07)6671-271","COUNTYNAME":"高雄市","TOWNNAME":"內門區","MARKTYPE":"994","Class":"4"},"geometry":{"x":120.46206132476448,"y":22.936788290185298}},{"attributes":{"OBJECTID":19298,"LANDMARKID":"1001200001166","LANDMARKCO":"409","LANDMARKNA":"高雄市內門區農會","LANDMARKAD":"1001224","ADDRESS":"高雄市內門區內豊村內埔1之1號","TEL":"07-6672161","COUNTYNAME":"高雄市","TOWNNAME":"內門區","MARKTYPE":"994","Class":"4"},"geometry":{"x":120.45930605710988,"y":22.940295107082978}},{"attributes":{"OBJECTID":19299,"LANDMARKID":"1001200001035","LANDMARKCO":"406","LANDMARKNA":"紫竹寺公園","LANDMARKAD":"1001224","ADDRESS":"高雄市內門區","TEL":" ","COUNTYNAME":"高雄市","TOWNNAME":"內門區","MARKTYPE":"994","Class":"4"},"geometry":{"x":120.45581571125877,"y":22.916112545410172}},{"attributes":{"OBJECTID":19300,"LANDMARKID":"1001200001036","LANDMARKCO":"406","LANDMARKNA":"內門運動公園","LANDMARKAD":"1001224","ADDRESS":"高雄市內門區","TEL":" ","COUNTYNAME":"高雄市","TOWNNAME":"內門區","MARKTYPE":"994","Class":"4"},"geometry":{"x":120.47167295993171,"y":22.911082088719652}},{"attributes":{"OBJECTID":19301,"LANDMARKID":"1001200000273","LANDMARKCO":"107","LANDMARKNA":"高雄市政府警察局中埔派出所","LANDMARKAD":"1001224","ADDRESS":"高雄市內門區中埔村36號","TEL":"07-6673308","COUNTYNAME":"高雄市","TOWNNAME":"內門區","MARKTYPE":"991","Class":"1"},"geometry":{"x":120.45053987239852,"y":22.919913603659047}},{"attributes":{"OBJECTID":19302,"LANDMARKID":"1001200000092","LANDMARKCO":"103","LANDMARKNA":"高雄市內門區衛生所","LANDMARKAD":"1001224","ADDRESS":"高雄市內門區觀亭村中埔頭20號","TEL":"07-6671088","COUNTYNAME":"高雄市","TOWNNAME":"內門區","MARKTYPE":"991","Class":"1"},"geometry":{"x":120.45403045004805,"y":22.92489491061421}},{"attributes":{"OBJECTID":19303,"LANDMARKID":"1001200000263","LANDMARKCO":"107","LANDMARKNA":"高雄市消防局內門消防分隊","LANDMARKAD":"1001224","ADDRESS":"高雄市內門區光興村菜公坑50號","TEL":"07-6673334","COUNTYNAME":"高雄市","TOWNNAME":"內門區","MARKTYPE":"991","Class":"1"},"geometry":{"x":120.45887359456222,"y":22.930417645349873}},{"attributes":{"OBJECTID":19304,"LANDMARKID":"1001200000264","LANDMARKCO":"107","LANDMARKNA":"高雄市政府警察局內門分駐所","LANDMARKAD":"1001224","ADDRESS":"高雄市內門區內門村內門114號","TEL":"07-6671309","COUNTYNAME":"高雄市","TOWNNAME":"內門區","MARKTYPE":"991","Class":"1"},"geometry":{"x":120.46215932138627,"y":22.940905932391225}},{"attributes":{"OBJECTID":19305,"LANDMARKID":"1001200000278","LANDMARKCO":"108","LANDMARKNA":"高雄市內門區公所","LANDMARKAD":"1001224","ADDRESS":"高雄市內門區內門路20號","TEL":"07-6671211","COUNTYNAME":"高雄市","TOWNNAME":"內門區","MARKTYPE":"991","Class":"1"},"geometry":{"x":120.46227564303014,"y":22.943615876538896}},{"attributes":{"OBJECTID":19306,"LANDMARKID":"1001200000093","LANDMARKCO":"103","LANDMARKNA":"高雄市內門區鄉民代表會","LANDMARKAD":"1001224","ADDRESS":"高雄市內門區內門村內門22號","TEL":"07-6671135","COUNTYNAME":"高雄市","TOWNNAME":"內門區","MARKTYPE":"991","Class":"1"},"geometry":{"x":120.46281761268222,"y":22.942897096161666}},{"attributes":{"OBJECTID":19307,"LANDMARKID":"1001200000118","LANDMARKCO":"106","LANDMARKNA":"高雄市內門區戶政事務所","LANDMARKAD":"1001224","ADDRESS":"高雄市內門區內門村9鄰內門114號","TEL":"07-6671595","COUNTYNAME":"高雄市","TOWNNAME":"內門區","MARKTYPE":"991","Class":"1"},"geometry":{"x":120.46357101341913,"y":22.943805258060181}},{"attributes":{"OBJECTID":19308,"LANDMARKID":"1001200000261","LANDMARKCO":"107","LANDMARKNA":"高雄市政府警察局三和派出所","LANDMARKAD":"1001224","ADDRESS":"高雄市內門區木柵村木柵村60號","TEL":"07-6681110","COUNTYNAME":"高雄市","TOWNNAME":"內門區","MARKTYPE":"991","Class":"1"},"geometry":{"x":120.46903647455112,"y":22.97606216909189}},{"attributes":{"OBJECTID":19309,"LANDMARKID":"1001200000262","LANDMARKCO":"107","LANDMARKNA":"高雄市政府警察局溝坪派出所","LANDMARKAD":"1001224","ADDRESS":"高雄市內門區永興村頂庄9號","TEL":"07-6601670","COUNTYNAME":"高雄市","TOWNNAME":"內門區","MARKTYPE":"991","Class":"1"},"geometry":{"x":120.49986174007319,"y":22.982032658757021}},{"attributes":{"OBJECTID":19310,"LANDMARKID":"1001200000572","LANDMARKCO":"204","LANDMARKNA":"高雄市立圖書館內門分館","LANDMARKAD":"1001224","ADDRESS":"高雄市內門區觀亭村中正路115巷18之1號","TEL":" ","COUNTYNAME":"高雄市","TOWNNAME":"內門區","MARKTYPE":"992","Class":"2"},"geometry":{"x":120.4552167378293,"y":22.917104633345762}},{"attributes":{"OBJECTID":19311,"LANDMARKID":"1001200000556","LANDMARKCO":"203","LANDMARKNA":"縣立內門國中","LANDMARKAD":"1001224","ADDRESS":"高雄市內門區中正路160巷30號","TEL":"07-6672938","COUNTYNAME":"高雄市","TOWNNAME":"內門區","MARKTYPE":"992","Class":"2"},"geometry":{"x":120.45546218479026,"y":22.920028222137798}},{"attributes":{"OBJECTID":19312,"LANDMARKID":"1001200000557","LANDMARKCO":"203","LANDMARKNA":"縣立觀亭國小","LANDMARKAD":"1001224","ADDRESS":"高雄市內門區觀亭村中正路203號","TEL":"07-6671672","COUNTYNAME":"高雄市","TOWNNAME":"內門區","MARKTYPE":"992","Class":"2"},"geometry":{"x":120.45358155867463,"y":22.917306141917159}},{"attributes":{"OBJECTID":19313,"LANDMARKID":"1001200000558","LANDMARKCO":"203","LANDMARKNA":"縣立西門國小","LANDMARKAD":"1001224","ADDRESS":"高雄市內門區內東村柿子園24號","TEL":"07-6671494","COUNTYNAME":"高雄市","TOWNNAME":"內門區","MARKTYPE":"992","Class":"2"},"geometry":{"x":120.43033022639138,"y":22.919940013205519}},{"attributes":{"OBJECTID":19314,"LANDMARKID":"1001200000559","LANDMARKCO":"203","LANDMARKNA":"縣立旗山國小旗峰分校","LANDMARKAD":"1001224","ADDRESS":"高雄市內門區","TEL":" ","COUNTYNAME":"高雄市","TOWNNAME":"內門區","MARKTYPE":"992","Class":"2"},"geometry":{"x":120.45718594687771,"y":22.889055640273721}},{"attributes":{"OBJECTID":19315,"LANDMARKID":"1001200000560","LANDMARKCO":"203","LANDMARKNA":"縣立內門國小","LANDMARKAD":"1001224","ADDRESS":"高雄市內門區內豐村內埔24號","TEL":"07-6672078","COUNTYNAME":"高雄市","TOWNNAME":"內門區","MARKTYPE":"992","Class":"2"},"geometry":{"x":120.46051464286792,"y":22.939278706456367}},{"attributes":{"OBJECTID":19316,"LANDMARKID":"1001200000561","LANDMARKCO":"203","LANDMARKNA":"縣立木柵國小","LANDMARKAD":"1001224","ADDRESS":"高雄市內門區木柵村3號","TEL":"07-6681183","COUNTYNAME":"高雄市","TOWNNAME":"內門區","MARKTYPE":"992","Class":"2"},"geometry":{"x":120.4675868740789,"y":22.975600914093388}},{"attributes":{"OBJECTID":19317,"LANDMARKID":"1001200000562","LANDMARKCO":"203","LANDMARKNA":"縣立景義國小","LANDMARKAD":"1001224","ADDRESS":"高雄市內門區永富村萊坑8號","TEL":"07-6601979","COUNTYNAME":"高雄市","TOWNNAME":"內門區","MARKTYPE":"992","Class":"2"},"geometry":{"x":120.49417590394532,"y":22.956367583738267}},{"attributes":{"OBJECTID":19318,"LANDMARKID":"1001200000563","LANDMARKCO":"203","LANDMARKNA":"縣立溝坪國小","LANDMARKAD":"1001224","ADDRESS":"高雄市內門區溝坪村廣福巷47號","TEL":"07-6601788","COUNTYNAME":"高雄市","TOWNNAME":"內門區","MARKTYPE":"992","Class":"2"},"geometry":{"x":120.50118577207584,"y":22.99323005292857}},{"attributes":{"OBJECTID":19319,"LANDMARKID":"1001200000564","LANDMARKCO":"203","LANDMARKNA":"縣立金竹國小","LANDMARKAD":"1001224","ADDRESS":"高雄市內門區金竹村吉民28號","TEL":"07-6601106","COUNTYNAME":"高雄市","TOWNNAME":"內門區","MARKTYPE":"992","Class":"2"},"geometry":{"x":120.51434000609254,"y":23.008981644075732}},{"attributes":{"OBJECTID":19320,"LANDMARKID":"1001200000565","LANDMARKCO":"203","LANDMARKNA":"縣立木柵國小","LANDMARKAD":"1001224","ADDRESS":"高雄市內門區木柵路3號","TEL":" ","COUNTYNAME":"高雄市","TOWNNAME":"內門區","MARKTYPE":"992","Class":"2"},"geometry":{"x":120.4674496304343,"y":22.975690298349853}},{"attributes":{"OBJECTID":19321,"LANDMARKID":"1001200000317","LANDMARKCO":"201","LANDMARKNA":"實踐大學高雄校區","LANDMARKAD":"1001224","ADDRESS":"高雄市內門區大學路200號","TEL":"07-6678888","COUNTYNAME":"高雄市","TOWNNAME":"內門區","MARKTYPE":"992","Class":"2"},"geometry":{"x":120.46817497531194,"y":22.904173347407919}},{"attributes":{"OBJECTID":19322,"LANDMARKID":"1001200001307","LANDMARKCO":"512","LANDMARKNA":"茂林風景區管理處","LANDMARKAD":"1001225","ADDRESS":"高雄市茂林區茂林村12之5號","TEL":"07-6801488","COUNTYNAME":"高雄市","TOWNNAME":"茂林區","MARKTYPE":"995","Class":"5"},"geometry":{"x":120.65008542150676,"y":22.880796691923205}},{"attributes":{"OBJECTID":19323,"LANDMARKID":"1001200001308","LANDMARKCO":"512","LANDMARKNA":"處本部旅遊服務中心","LANDMARKAD":"1001225","ADDRESS":"高雄市茂林區茂林村12之5號","TEL":"07-6801488","COUNTYNAME":"高雄市","TOWNNAME":"茂林區","MARKTYPE":"995","Class":"5"},"geometry":{"x":120.65009263053274,"y":22.880716176033928}},{"attributes":{"OBJECTID":19324,"LANDMARKID":"1001200001210","LANDMARKCO":"501","LANDMARKNA":"茂林國家風景區","LANDMARKAD":"1001225","ADDRESS":"高雄市茂林區茂林村12之5號","TEL":"07-6801441","COUNTYNAME":"高雄市","TOWNNAME":"茂林區","MARKTYPE":"995","Class":"5"},"geometry":{"x":120.66226867284747,"y":22.876816590695768}},{"attributes":{"OBJECTID":19325,"LANDMARKID":"1001200001255","LANDMARKCO":"507","LANDMARKNA":"萬山岩雕","LANDMARKAD":"1001225","ADDRESS":"高雄市茂林區","TEL":" ","COUNTYNAME":"高雄市","TOWNNAME":"茂林區","MARKTYPE":"995","Class":"5"},"geometry":{"x":120.67684913852825,"y":22.97114401642251}},{"attributes":{"OBJECTID":19326,"LANDMARKID":"1001200001090","LANDMARKCO":"408","LANDMARKNA":"郵局-茂林郵局","LANDMARKAD":"1001225","ADDRESS":"高雄市茂林區茂林村8-3號","TEL":"(07)6801-156","COUNTYNAME":"高雄市","TOWNNAME":"茂林區","MARKTYPE":"994","Class":"4"},"geometry":{"x":120.66445789340139,"y":22.886561267442531}},{"attributes":{"OBJECTID":19327,"LANDMARKID":"1001200000275","LANDMARKCO":"108","LANDMARKNA":"高雄市茂林區公所","LANDMARKAD":"1001225","ADDRESS":"高雄市茂林區茂林村11號","TEL":"07-6801045","COUNTYNAME":"高雄市","TOWNNAME":"茂林區","MARKTYPE":"991","Class":"1"},"geometry":{"x":120.66292484053845,"y":22.88691401545119}},{"attributes":{"OBJECTID":19328,"LANDMARKID":"1001200000274","LANDMARKCO":"107","LANDMARKNA":"高雄市政府警察局茂林分駐所","LANDMARKAD":"1001225","ADDRESS":"高雄市茂林區茂林村茂林巷13號","TEL":"07-6801200","COUNTYNAME":"高雄市","TOWNNAME":"茂林區","MARKTYPE":"991","Class":"1"},"geometry":{"x":120.66398945895169,"y":22.886461085286083}},{"attributes":{"OBJECTID":19329,"LANDMARKID":"1001200000094","LANDMARKCO":"103","LANDMARKNA":"高雄市茂林區衛生所","LANDMARKAD":"1001225","ADDRESS":"高雄市茂林區茂林村8之4號","TEL":"07-6801046","COUNTYNAME":"高雄市","TOWNNAME":"茂林區","MARKTYPE":"991","Class":"1"},"geometry":{"x":120.66430931874571,"y":22.886823669392658}},{"attributes":{"OBJECTID":19330,"LANDMARKID":"1001200000095","LANDMARKCO":"103","LANDMARKNA":"高雄市茂林區鄉民代表會","LANDMARKAD":"1001225","ADDRESS":"高雄市茂林區茂林村12號","TEL":"07-6861079","COUNTYNAME":"高雄市","TOWNNAME":"茂林區","MARKTYPE":"991","Class":"1"},"geometry":{"x":120.66440856078022,"y":22.886462856311706}},{"attributes":{"OBJECTID":19331,"LANDMARKID":"1001200000117","LANDMARKCO":"106","LANDMARKNA":"高雄市茂林區戶政事務所","LANDMARKAD":"1001225","ADDRESS":"高雄市茂林區茂林村1鄰茂林巷13之1號","TEL":"07-6801231","COUNTYNAME":"高雄市","TOWNNAME":"茂林區","MARKTYPE":"991","Class":"1"},"geometry":{"x":120.66606238194569,"y":22.887101976291451}},{"attributes":{"OBJECTID":19332,"LANDMARKID":"1001200000266","LANDMARKCO":"107","LANDMARKNA":"高雄市政府警察局萬山派出所","LANDMARKAD":"1001225","ADDRESS":"高雄市茂林區萬山村1號","TEL":"07-6801203","COUNTYNAME":"高雄市","TOWNNAME":"茂林區","MARKTYPE":"991","Class":"1"},"geometry":{"x":120.6792338995795,"y":22.909884961684075}},{"attributes":{"OBJECTID":19333,"LANDMARKID":"1001200000267","LANDMARKCO":"107","LANDMARKNA":"高雄市政府警察局多納派出所","LANDMARKAD":"1001225","ADDRESS":"高雄市茂林區多納村1號","TEL":"07-6801208","COUNTYNAME":"高雄市","TOWNNAME":"茂林區","MARKTYPE":"991","Class":"1"},"geometry":{"x":120.71703799808395,"y":22.911399419636602}},{"attributes":{"OBJECTID":19334,"LANDMARKID":"1001200000268","LANDMARKCO":"107","LANDMARKNA":"高雄市消防局茂林消防分隊","LANDMARKAD":"1001225","ADDRESS":"高雄市茂林區茂林村119號","TEL":"07-6801610","COUNTYNAME":"高雄市","TOWNNAME":"茂林區","MARKTYPE":"991","Class":"1"},"geometry":{"x":120.66822446301923,"y":22.894239486731085}},{"attributes":{"OBJECTID":19335,"LANDMARKID":"1001200000570","LANDMARKCO":"204","LANDMARKNA":"高雄市立圖書館茂林分館","LANDMARKAD":"1001225","ADDRESS":"高雄市茂林區茂林村8號之3","TEL":" ","COUNTYNAME":"高雄市","TOWNNAME":"茂林區","MARKTYPE":"992","Class":"2"},"geometry":{"x":120.66461848221313,"y":22.886783222838087}},{"attributes":{"OBJECTID":19336,"LANDMARKID":"1001200000566","LANDMARKCO":"203","LANDMARKNA":"縣立茂林國中","LANDMARKAD":"1001225","ADDRESS":"高雄市茂林區茂林村4之5號","TEL":"07-6801153","COUNTYNAME":"高雄市","TOWNNAME":"茂林區","MARKTYPE":"992","Class":"2"},"geometry":{"x":120.6648722364891,"y":22.885922977665569}},{"attributes":{"OBJECTID":19337,"LANDMARKID":"1001200000567","LANDMARKCO":"203","LANDMARKNA":"縣立茂林國小","LANDMARKAD":"1001225","ADDRESS":"高雄市茂林區茂林村4之3號","TEL":"07-6801043","COUNTYNAME":"高雄市","TOWNNAME":"茂林區","MARKTYPE":"992","Class":"2"},"geometry":{"x":120.66432642251817,"y":22.885920674925327}},{"attributes":{"OBJECTID":19338,"LANDMARKID":"1001200000568","LANDMARKCO":"203","LANDMARKNA":"縣立國小茂林分校","LANDMARKAD":"1001225","ADDRESS":"高雄市茂林區","TEL":" ","COUNTYNAME":"高雄市","TOWNNAME":"茂林區","MARKTYPE":"992","Class":"2"},"geometry":{"x":120.68153152071318,"y":22.908443670808627}},{"attributes":{"OBJECTID":19339,"LANDMARKID":"1001200000569","LANDMARKCO":"203","LANDMARKNA":"縣立多納國小","LANDMARKAD":"1001225","ADDRESS":"高雄市茂林區多納村1-2號","TEL":"07-6801178","COUNTYNAME":"高雄市","TOWNNAME":"茂林區","MARKTYPE":"992","Class":"2"},"geometry":{"x":120.71666478961399,"y":22.910675636184543}},{"attributes":{"OBJECTID":19340,"LANDMARKID":"1001200000635","LANDMARKCO":"303","LANDMARKNA":"美雅谷停車場","LANDMARKAD":"1001225","ADDRESS":"高雄市茂林區","TEL":" ","COUNTYNAME":"高雄市","TOWNNAME":"茂林區","MARKTYPE":"993","Class":"303"},"geometry":{"x":120.68299971699061,"y":22.923588864645101}},{"attributes":{"OBJECTID":19341,"LANDMARKID":"1001200000636","LANDMARKCO":"303","LANDMARKNA":"扇平森林生態科學園區停車場","LANDMARKAD":"1001225","ADDRESS":"高雄市茂林區茂林巷125號","TEL":" ","COUNTYNAME":"高雄市","TOWNNAME":"茂林區","MARKTYPE":"993","Class":"303"},"geometry":{"x":120.68521896491164,"y":22.96652617132769}},{"attributes":{"OBJECTID":19342,"LANDMARKID":"1001200000637","LANDMARKCO":"303","LANDMARKNA":"紅塵峽谷停車場","LANDMARKAD":"1001225","ADDRESS":"高雄市茂林區","TEL":" ","COUNTYNAME":"高雄市","TOWNNAME":"茂林區","MARKTYPE":"993","Class":"303"},"geometry":{"x":120.70889989192661,"y":22.921028382141621}},{"attributes":{"OBJECTID":19343,"LANDMARKID":"1001200000638","LANDMARKCO":"303","LANDMARKNA":"美雅谷停車場","LANDMARKAD":"1001225","ADDRESS":"高雄市茂林區萬山村","TEL":" ","COUNTYNAME":"高雄市","TOWNNAME":"茂林區","MARKTYPE":"993","Class":"303"},"geometry":{"x":120.68781085637029,"y":22.911847926443478}},{"attributes":{"OBJECTID":19344,"LANDMARKID":"1001200000639","LANDMARKCO":"303","LANDMARKNA":"情人谷停車場","LANDMARKAD":"1001225","ADDRESS":"高雄市茂林區茂林村","TEL":" ","COUNTYNAME":"高雄市","TOWNNAME":"茂林區","MARKTYPE":"993","Class":"303"},"geometry":{"x":120.66092599351057,"y":22.882075932496569}},{"attributes":{"OBJECTID":19345,"LANDMARKID":"1001200000640","LANDMARKCO":"303","LANDMARKNA":"邦腹溪停車場","LANDMARKAD":"1001225","ADDRESS":"高雄市茂林區龍興村","TEL":" ","COUNTYNAME":"高雄市","TOWNNAME":"茂林區","MARKTYPE":"993","Class":"303"},"geometry":{"x":120.67684682148722,"y":22.971141875946675}},{"attributes":{"OBJECTID":19346,"LANDMARKID":"1001200000641","LANDMARKCO":"303","LANDMARKNA":"關光石門入口停車場","LANDMARKAD":"1001225","ADDRESS":"高雄市茂林區茂林村","TEL":" ","COUNTYNAME":"高雄市","TOWNNAME":"茂林區","MARKTYPE":"993","Class":"303"},"geometry":{"x":120.67685273427712,"y":22.971147336200705}},{"attributes":{"OBJECTID":19347,"LANDMARKID":"1001200000642","LANDMARKCO":"303","LANDMARKNA":"紅塵峽谷停車場","LANDMARKAD":"1001225","ADDRESS":"高雄市茂林區多納村","TEL":" ","COUNTYNAME":"高雄市","TOWNNAME":"茂林區","MARKTYPE":"993","Class":"303"},"geometry":{"x":120.67897413088765,"y":22.959522241390456}},{"attributes":{"OBJECTID":19348,"LANDMARKID":"1001200000643","LANDMARKCO":"303","LANDMARKNA":"茂林谷停車場","LANDMARKAD":"1001225","ADDRESS":"高雄市茂林區","TEL":" ","COUNTYNAME":"高雄市","TOWNNAME":"茂林區","MARKTYPE":"993","Class":"303"},"geometry":{"x":120.70006120216749,"y":22.924773897122456}},{"attributes":{"OBJECTID":19349,"LANDMARKID":"1001200000644","LANDMARKCO":"303","LANDMARKNA":"多納村部落停車場","LANDMARKAD":"1001225","ADDRESS":"高雄市茂林區多納村","TEL":" ","COUNTYNAME":"高雄市","TOWNNAME":"茂林區","MARKTYPE":"993","Class":"303"},"geometry":{"x":120.71377901625483,"y":22.907835759942632}},{"attributes":{"OBJECTID":19350,"LANDMARKID":"1001200000645","LANDMARKCO":"303","LANDMARKNA":"多納溫泉停車場","LANDMARKAD":"1001225","ADDRESS":"高雄市茂林區多納村","TEL":" ","COUNTYNAME":"高雄市","TOWNNAME":"茂林區","MARKTYPE":"993","Class":"303"},"geometry":{"x":120.72614382114,"y":22.909684330877205}},{"attributes":{"OBJECTID":19351,"LANDMARKID":"1001200001448","LANDMARKCO":"604","LANDMARKNA":"友生民宿","LANDMARKAD":"1001225","ADDRESS":"高雄市茂林區多納村2鄰30-1號","TEL":"07-6801101","COUNTYNAME":"高雄市","TOWNNAME":"茂林區","MARKTYPE":"996","Class":"6"},"geometry":{"x":120.71693589795558,"y":22.911160546624707}},{"attributes":{"OBJECTID":19352,"LANDMARKID":"1001200001449","LANDMARKCO":"604","LANDMARKNA":"阿拉斯民宿","LANDMARKAD":"1001225","ADDRESS":"高雄市茂林區多納村2鄰32號","TEL":"07-6801277","COUNTYNAME":"高雄市","TOWNNAME":"茂林區","MARKTYPE":"996","Class":"6"},"geometry":{"x":120.71689151116271,"y":22.911346466883472}},{"attributes":{"OBJECTID":19353,"LANDMARKID":"1001200001450","LANDMARKCO":"604","LANDMARKNA":"多納民宿","LANDMARKAD":"1001225","ADDRESS":"高雄市茂林區多納村85號","TEL":"07-6801720","COUNTYNAME":"高雄市","TOWNNAME":"茂林區","MARKTYPE":"996","Class":"6"},"geometry":{"x":120.71650810652426,"y":22.911540761812731}},{"attributes":{"OBJECTID":19354,"LANDMARKID":"1001200001451","LANDMARKCO":"604","LANDMARKNA":"古木拉民宿","LANDMARKAD":"1001225","ADDRESS":"高雄市茂林區多納村90-2號","TEL":"07-6801509","COUNTYNAME":"高雄市","TOWNNAME":"茂林區","MARKTYPE":"996","Class":"6"},"geometry":{"x":120.71509688708049,"y":22.91078023778142}},{"attributes":{"OBJECTID":19355,"LANDMARKID":"1001200001452","LANDMARKCO":"604","LANDMARKNA":"得恩谷之民宿","LANDMARKAD":"1001225","ADDRESS":"高雄市茂林區茂林村6鄰138號","TEL":"07-6801540","COUNTYNAME":"高雄市","TOWNNAME":"茂林區","MARKTYPE":"996","Class":"6"},"geometry":{"x":120.67516660777326,"y":22.897129406956658}},{"attributes":{"OBJECTID":19356,"LANDMARKID":"1001200001219","LANDMARKCO":"503","LANDMARKNA":"老鷹谷","LANDMARKAD":"1001225","ADDRESS":"高雄市茂林區","TEL":" ","COUNTYNAME":"高雄市","TOWNNAME":"茂林區","MARKTYPE":"995","Class":"5"},"geometry":{"x":120.68839444805846,"y":22.911387211957951}},{"attributes":{"OBJECTID":19357,"LANDMARKID":"1001200001277","LANDMARKCO":"508","LANDMARKNA":"多納溫泉","LANDMARKAD":"1001225","ADDRESS":"高雄市茂林區多納村","TEL":" ","COUNTYNAME":"高雄市","TOWNNAME":"茂林區","MARKTYPE":"995","Class":"5"},"geometry":{"x":120.72141894503524,"y":22.914954706874422}},{"attributes":{"OBJECTID":19358,"LANDMARKID":"1001200001240","LANDMARKCO":"505","LANDMARKNA":"扇平森林生態科學園","LANDMARKAD":"1001225","ADDRESS":"高雄市茂林區茂林村茂林巷125號","TEL":" ","COUNTYNAME":"高雄市","TOWNNAME":"茂林區","MARKTYPE":"995","Class":"5"},"geometry":{"x":120.68515239424748,"y":22.966974565010961}},{"attributes":{"OBJECTID":19359,"LANDMARKID":"1001200001220","LANDMARKCO":"503","LANDMARKNA":"情人谷瀑布","LANDMARKAD":"1001225","ADDRESS":"高雄市茂林區","TEL":" ","COUNTYNAME":"高雄市","TOWNNAME":"茂林區","MARKTYPE":"995","Class":"5"},"geometry":{"x":120.66670536321193,"y":22.876475933138501}},{"attributes":{"OBJECTID":19360,"LANDMARKID":"1001200001221","LANDMARKCO":"503","LANDMARKNA":"美雅谷瀑布","LANDMARKAD":"1001225","ADDRESS":"高雄市茂林區","TEL":" ","COUNTYNAME":"高雄市","TOWNNAME":"茂林區","MARKTYPE":"995","Class":"5"},"geometry":{"x":120.68735200159556,"y":22.929430371309643}},{"attributes":{"OBJECTID":19361,"LANDMARKID":"1001200000863","LANDMARKCO":"405","LANDMARKNA":"中油加油站-清豐站","LANDMARKAD":"1001220","ADDRESS":"高雄市美濃區中正路2段655號","TEL":"07-6834101","COUNTYNAME":"高雄市","TOWNNAME":"美濃區","MARKTYPE":"994","Class":"4"},"geometry":{"x":120.53686927974766,"y":22.871330032862616}},{"attributes":{"OBJECTID":19362,"LANDMARKID":"1001200000864","LANDMARKCO":"405","LANDMARKNA":"中油加油站-美濃站","LANDMARKAD":"1001220","ADDRESS":"高雄市美濃區和合里成功路133號","TEL":"07-6812044","COUNTYNAME":"高雄市","TOWNNAME":"美濃區","MARKTYPE":"994","Class":"4"},"geometry":{"x":120.54679777634448,"y":22.894111181157673}},{"attributes":{"OBJECTID":19363,"LANDMARKID":"1001200000865","LANDMARKCO":"405","LANDMARKNA":"中油加油站-美德站","LANDMARKAD":"1001220","ADDRESS":"高雄市美濃區中興路一段401號","TEL":"07-6818556","COUNTYNAME":"高雄市","TOWNNAME":"美濃區","MARKTYPE":"994","Class":"4"},"geometry":{"x":120.53658868783454,"y":22.885487443242514}},{"attributes":{"OBJECTID":19364,"LANDMARKID":"1001200000866","LANDMARKCO":"405","LANDMARKNA":"千越加油站-路竹站(中油)","LANDMARKAD":"1001220","ADDRESS":"高雄市美濃區中山路一段152號","TEL":"07-6938689","COUNTYNAME":"高雄市","TOWNNAME":"美濃區","MARKTYPE":"994","Class":"4"},"geometry":{"x":120.53762313819696,"y":22.901877505382789}},{"attributes":{"OBJECTID":19365,"LANDMARKID":"1001200000817","LANDMARKCO":"402","LANDMARKNA":"亞太行動寬頻電信-美濃中正加盟服務中心","LANDMARKAD":"1001220","ADDRESS":"高雄市美濃區中正路一段37號","TEL":"07-6816888","COUNTYNAME":"高雄市","TOWNNAME":"美濃區","MARKTYPE":"994","Class":"4"},"geometry":{"x":120.5416579018118,"y":22.900922044615413}},{"attributes":{"OBJECTID":19366,"LANDMARKID":"1001200001254","LANDMARKCO":"507","LANDMARKNA":"金瓜寮聖蹟亭","LANDMARKAD":"1001220","ADDRESS":"高雄市美濃區德興段574地號","TEL":" ","COUNTYNAME":"高雄市","TOWNNAME":"美濃區","MARKTYPE":"995","Class":"5"},"geometry":{"x":120.52538335589001,"y":22.873762548064548}},{"attributes":{"OBJECTID":19367,"LANDMARKID":"1001200001246","LANDMARKCO":"506","LANDMARKNA":"高雄休閒農場","LANDMARKAD":"1001220","ADDRESS":"高雄市美濃區吉洋里外六寮500號","TEL":"07-6831115","COUNTYNAME":"高雄市","TOWNNAME":"美濃區","MARKTYPE":"995","Class":"5"},"geometry":{"x":120.53296229933838,"y":22.844199569333679}},{"attributes":{"OBJECTID":19368,"LANDMARKID":"1001200001248","LANDMARKCO":"507","LANDMARKNA":"濔濃庄敬字亭","LANDMARKAD":"1001220","ADDRESS":"高雄市美濃區美濃段1181之2號","TEL":" ","COUNTYNAME":"高雄市","TOWNNAME":"美濃區","MARKTYPE":"995","Class":"5"},"geometry":{"x":120.5339822912831,"y":22.899781762574751}},{"attributes":{"OBJECTID":19369,"LANDMARKID":"1001200001249","LANDMARKCO":"507","LANDMARKNA":"瀰濃庄里社貞官伯公","LANDMARKAD":"1001220","ADDRESS":"高雄市美濃區瀰濃里","TEL":" ","COUNTYNAME":"高雄市","TOWNNAME":"美濃區","MARKTYPE":"995","Class":"5"},"geometry":{"x":120.5351276061017,"y":22.909527583540719}},{"attributes":{"OBJECTID":19370,"LANDMARKID":"1001200001250","LANDMARKCO":"507","LANDMARKNA":"瀰濃東門樓","LANDMARKAD":"1001220","ADDRESS":"高雄市美濃區東門段415、414、416地號","TEL":" ","COUNTYNAME":"高雄市","TOWNNAME":"美濃區","MARKTYPE":"995","Class":"5"},"geometry":{"x":120.54894149445225,"y":22.896396284684037}},{"attributes":{"OBJECTID":19371,"LANDMARKID":"1001200001251","LANDMARKCO":"507","LANDMARKNA":"龍肚庄里社貞官伯公","LANDMARKAD":"1001220","ADDRESS":"高雄市美濃區龍肚里","TEL":" ","COUNTYNAME":"高雄市","TOWNNAME":"美濃區","MARKTYPE":"995","Class":"5"},"geometry":{"x":120.57981246939825,"y":22.887783191201574}},{"attributes":{"OBJECTID":19372,"LANDMARKID":"1001200001252","LANDMARKCO":"507","LANDMARKNA":"竹門電廠","LANDMARKAD":"1001220","ADDRESS":"高雄市美濃區獅山里竹門20號","TEL":" ","COUNTYNAME":"高雄市","TOWNNAME":"美濃區","MARKTYPE":"995","Class":"5"},"geometry":{"x":120.58489993792882,"y":22.884207307602594}},{"attributes":{"OBJECTID":19373,"LANDMARKID":"1001200001253","LANDMARKCO":"507","LANDMARKNA":"九芎林里社貞官伯公","LANDMARKAD":"1001220","ADDRESS":"高雄市美濃區廣林里","TEL":" ","COUNTYNAME":"高雄市","TOWNNAME":"美濃區","MARKTYPE":"995","Class":"5"},"geometry":{"x":120.58635719458381,"y":22.922976674927757}},{"attributes":{"OBJECTID":19374,"LANDMARKID":"1001200001088","LANDMARKCO":"408","LANDMARKNA":"郵局-美濃郵局","LANDMARKAD":"1001220","ADDRESS":"高雄市美濃區中正路1段39號","TEL":"(07)6819-051","COUNTYNAME":"高雄市","TOWNNAME":"美濃區","MARKTYPE":"994","Class":"4"},"geometry":{"x":120.54183592218169,"y":22.900618554744746}},{"attributes":{"OBJECTID":19375,"LANDMARKID":"1001200001089","LANDMARKCO":"408","LANDMARKNA":"郵局-美濃中壇郵局","LANDMARKAD":"1001220","ADDRESS":"高雄市美濃區中興路1段788號","TEL":"(07)6813-014","COUNTYNAME":"高雄市","TOWNNAME":"美濃區","MARKTYPE":"994","Class":"4"},"geometry":{"x":120.53135260244099,"y":22.886809417580622}},{"attributes":{"OBJECTID":19376,"LANDMARKID":"1001200001159","LANDMARKCO":"409","LANDMARKNA":"高雄市美濃區農會","LANDMARKAD":"1001220","ADDRESS":"高雄市美濃區中正路一段1號","TEL":"07-6813311-5","COUNTYNAME":"高雄市","TOWNNAME":"美濃區","MARKTYPE":"994","Class":"4"},"geometry":{"x":120.54135186119782,"y":22.902202725917718}},{"attributes":{"OBJECTID":19377,"LANDMARKID":"1001200001160","LANDMARKCO":"409","LANDMARKNA":"美濃農會-廣興分部","LANDMARKAD":"1001220","ADDRESS":"高雄市美濃區民族路99號","TEL":"07-681-21","COUNTYNAME":"高雄市","TOWNNAME":"美濃區","MARKTYPE":"994","Class":"4"},"geometry":{"x":120.56499944462244,"y":22.913479111812201}},{"attributes":{"OBJECTID":19378,"LANDMARKID":"1001200001161","LANDMARKCO":"409","LANDMARKNA":"美濃農會-中壇分部","LANDMARKAD":"1001220","ADDRESS":"高雄市美濃區中正路二段318號","TEL":"07-681-21","COUNTYNAME":"高雄市","TOWNNAME":"美濃區","MARKTYPE":"994","Class":"4"},"geometry":{"x":120.53384779178184,"y":22.884858575600816}},{"attributes":{"OBJECTID":19379,"LANDMARKID":"1001200001162","LANDMARKCO":"409","LANDMARKNA":"美濃農會-南隆分部","LANDMARKAD":"1001220","ADDRESS":"高雄市美濃區中正路二段654號","TEL":"07-683-10","COUNTYNAME":"高雄市","TOWNNAME":"美濃區","MARKTYPE":"994","Class":"4"},"geometry":{"x":120.5366463924631,"y":22.871097625978493}},{"attributes":{"OBJECTID":19380,"LANDMARKID":"1001200001163","LANDMARKCO":"409","LANDMARKNA":"美濃農會-龍肚分部","LANDMARKAD":"1001220","ADDRESS":"高雄市美濃區龍肚街62號","TEL":"07-685-10","COUNTYNAME":"高雄市","TOWNNAME":"美濃區","MARKTYPE":"994","Class":"4"},"geometry":{"x":120.57153006332526,"y":22.882128699505976}},{"attributes":{"OBJECTID":19381,"LANDMARKID":"1001200000830","LANDMARKCO":"404","LANDMARKNA":"台灣省自來水美濃營運所","LANDMARKAD":"1001220","ADDRESS":"高雄市美濃區中正路二段169巷1號","TEL":" ","COUNTYNAME":"高雄市","TOWNNAME":"美濃區","MARKTYPE":"994","Class":"4"},"geometry":{"x":120.53656644987744,"y":22.888086712517154}},{"attributes":{"OBJECTID":19382,"LANDMARKID":"1001200000861","LANDMARKCO":"405","LANDMARKNA":"台塑加油站-東昇站(台塑)","LANDMARKAD":"1001220","ADDRESS":"高雄市美濃區忠孝路一段7號","TEL":"07-6818508","COUNTYNAME":"高雄市","TOWNNAME":"美濃區","MARKTYPE":"994","Class":"4"},"geometry":{"x":120.53055567575015,"y":22.885763537636137}},{"attributes":{"OBJECTID":19383,"LANDMARKID":"1001200000862","LANDMARKCO":"405","LANDMARKNA":"台塑加油站-久井美濃站(台塑)","LANDMARKAD":"1001220","ADDRESS":"高雄市美濃區中山路二段15號","TEL":"07-6810989","COUNTYNAME":"高雄市","TOWNNAME":"美濃區","MARKTYPE":"994","Class":"4"},"geometry":{"x":120.52641623168475,"y":22.900005754563399}},{"attributes":{"OBJECTID":19384,"LANDMARKID":"1001200000271","LANDMARKCO":"107","LANDMARKNA":"高雄市政府警察局中壇派出所","LANDMARKAD":"1001220","ADDRESS":"高雄市美濃區中興路一段636號","TEL":"07-6812798","COUNTYNAME":"高雄市","TOWNNAME":"美濃區","MARKTYPE":"991","Class":"1"},"geometry":{"x":120.53372708857286,"y":22.88622370130042}},{"attributes":{"OBJECTID":19385,"LANDMARKID":"1001200000272","LANDMARKCO":"107","LANDMARKNA":"高雄市政府警察局吉東派出所","LANDMARKAD":"1001220","ADDRESS":"高雄市美濃區中正路三段416號","TEL":"07-6831744","COUNTYNAME":"高雄市","TOWNNAME":"美濃區","MARKTYPE":"991","Class":"1"},"geometry":{"x":120.53523974751867,"y":22.85634102692276}},{"attributes":{"OBJECTID":19386,"LANDMARKID":"1001200000115","LANDMARKCO":"105","LANDMARKNA":"高雄市美濃地政事務所","LANDMARKAD":"1001220","ADDRESS":"高雄市美濃區美中路250號","TEL":"07-6819425","COUNTYNAME":"高雄市","TOWNNAME":"美濃區","MARKTYPE":"991","Class":"1"},"geometry":{"x":120.54209372371763,"y":22.899884407100682}},{"attributes":{"OBJECTID":19387,"LANDMARKID":"1001200000276","LANDMARKCO":"108","LANDMARKNA":"高雄市美濃區公所","LANDMARKAD":"1001220","ADDRESS":"高雄市美濃區美中路260號","TEL":"07-6814311","COUNTYNAME":"高雄市","TOWNNAME":"美濃區","MARKTYPE":"991","Class":"1"},"geometry":{"x":120.54234192102521,"y":22.894918957312999}},{"attributes":{"OBJECTID":19388,"LANDMARKID":"1001200000096","LANDMARKCO":"103","LANDMARKNA":"高雄市美濃區鎮民代表會","LANDMARKAD":"1001220","ADDRESS":"高雄市美濃區合和里美中路262號","TEL":"07-6812143","COUNTYNAME":"高雄市","TOWNNAME":"美濃區","MARKTYPE":"991","Class":"1"},"geometry":{"x":120.54235287909019,"y":22.894738405578046}},{"attributes":{"OBJECTID":19389,"LANDMARKID":"1001200000269","LANDMARKCO":"107","LANDMARKNA":"高雄市政府警察局美濃分駐所","LANDMARKAD":"1001220","ADDRESS":"高雄市美濃區永安路212號","TEL":"07-6812029","COUNTYNAME":"高雄市","TOWNNAME":"美濃區","MARKTYPE":"991","Class":"1"},"geometry":{"x":120.54237700581592,"y":22.899795732021502}},{"attributes":{"OBJECTID":19390,"LANDMARKID":"1001200000270","LANDMARKCO":"107","LANDMARKNA":"高雄市消防局美濃消防分隊","LANDMARKAD":"1001220","ADDRESS":"高雄市美濃區民生路75號","TEL":"07-6812039","COUNTYNAME":"高雄市","TOWNNAME":"美濃區","MARKTYPE":"991","Class":"1"},"geometry":{"x":120.54245763758863,"y":22.900789550405456}},{"attributes":{"OBJECTID":19391,"LANDMARKID":"1001200000116","LANDMARKCO":"106","LANDMARKNA":"高雄市美濃區戶政事務所","LANDMARKAD":"1001220","ADDRESS":"高雄市美濃區泰安里7鄰民生路77號","TEL":"07-6812734","COUNTYNAME":"高雄市","TOWNNAME":"美濃區","MARKTYPE":"991","Class":"1"},"geometry":{"x":120.54262008537967,"y":22.8998874390279}},{"attributes":{"OBJECTID":19392,"LANDMARKID":"1001200000085","LANDMARKCO":"103","LANDMARKNA":"高雄市美濃區衛生所","LANDMARKAD":"1001220","ADDRESS":"高雄市美濃區合和里美中路246號","TEL":"07-6812064","COUNTYNAME":"高雄市","TOWNNAME":"美濃區","MARKTYPE":"991","Class":"1"},"geometry":{"x":120.54382224729576,"y":22.895108082664841}},{"attributes":{"OBJECTID":19393,"LANDMARKID":"1001200000208","LANDMARKCO":"107","LANDMARKNA":"高雄市政府警察局廣興派出所","LANDMARKAD":"1001220","ADDRESS":"高雄市美濃區民族路100號","TEL":"07-6812794","COUNTYNAME":"高雄市","TOWNNAME":"美濃區","MARKTYPE":"991","Class":"1"},"geometry":{"x":120.56478830147738,"y":22.914037214794249}},{"attributes":{"OBJECTID":19394,"LANDMARKID":"1001200000209","LANDMARKCO":"107","LANDMARKNA":"高雄市政府警察局龍肚派出所","LANDMARKAD":"1001220","ADDRESS":"高雄市美濃區龍肚街63號","TEL":"07-6851797","COUNTYNAME":"高雄市","TOWNNAME":"美濃區","MARKTYPE":"991","Class":"1"},"geometry":{"x":120.57215286063476,"y":22.879745505114535}},{"attributes":{"OBJECTID":19395,"LANDMARKID":"1001200000603","LANDMARKCO":"205","LANDMARKNA":"美濃客家文物館","LANDMARKAD":"1001220","ADDRESS":"高雄市美濃區民族路49之3號","TEL":"07-6818338","COUNTYNAME":"高雄市","TOWNNAME":"美濃區","MARKTYPE":"992","Class":"2"},"geometry":{"x":120.55791159299133,"y":22.909217582512568}},{"attributes":{"OBJECTID":19396,"LANDMARKID":"1001200000604","LANDMARKCO":"205","LANDMARKNA":"鍾理和紀念館","LANDMARKAD":"1001220","ADDRESS":"高雄市美濃區廣林里朝元95號","TEL":" ","COUNTYNAME":"高雄市","TOWNNAME":"美濃區","MARKTYPE":"992","Class":"2"},"geometry":{"x":120.58615154830987,"y":22.933079996546535}},{"attributes":{"OBJECTID":19397,"LANDMARKID":"1001200000580","LANDMARKCO":"204","LANDMARKNA":"高雄市立圖書館美濃分館","LANDMARKAD":"1001220","ADDRESS":"高雄市美濃區合和里美中路256號","TEL":" ","COUNTYNAME":"高雄市","TOWNNAME":"美濃區","MARKTYPE":"992","Class":"2"},"geometry":{"x":120.54312528606397,"y":22.895546664008446}},{"attributes":{"OBJECTID":19398,"LANDMARKID":"1001200000609","LANDMARKCO":"207","LANDMARKNA":"高雄市立文化局美濃田園藝廊","LANDMARKAD":"1001220","ADDRESS":"高雄市美濃區民族路99號","TEL":" ","COUNTYNAME":"高雄市","TOWNNAME":"美濃區","MARKTYPE":"992","Class":"2"},"geometry":{"x":120.56463413910058,"y":22.913413748702638}},{"attributes":{"OBJECTID":19399,"LANDMARKID":"1001200000497","LANDMARKCO":"203","LANDMARKNA":"縣立東門國小","LANDMARKAD":"1001220","ADDRESS":"高雄市美濃區東門里民族路36巷2號","TEL":"07-6812811","COUNTYNAME":"高雄市","TOWNNAME":"美濃區","MARKTYPE":"992","Class":"2"},"geometry":{"x":120.55345995574039,"y":22.899827127883398}},{"attributes":{"OBJECTID":19400,"LANDMARKID":"1001200000322","LANDMARKCO":"202","LANDMARKNA":"私立旗美商工","LANDMARKAD":"1001220","ADDRESS":"高雄市美濃區中興路二段275號","TEL":"07-6812152","COUNTYNAME":"高雄市","TOWNNAME":"美濃區","MARKTYPE":"992","Class":"2"},"geometry":{"x":120.52005779627574,"y":22.884106684732764}}]}