{"displayFieldName":"COUNTYNAME","fieldAliases":{"OBJECTID":"OBJECTID","LANDMARKID":"LANDMARKID","LANDMARKCO":"LANDMARKCO","LANDMARKNA":"LANDMARKNA","LANDMARKAD":"LANDMARKAD","ADDRESS":"ADDRESS","TEL":"TEL","COUNTYNAME":"COUNTYNAME","TOWNNAME":"TOWNNAME","MARKTYPE":"MARKTYPE","Class":"Class"},"geometryType":"esriGeometryPoint","spatialReference":{"wkid":102443},"fields":[{"name":"OBJECTID","type":"esriFieldTypeOID","alias":"OBJECTID"},{"name":"LANDMARKID","type":"esriFieldTypeString","alias":"LANDMARKID","length":15},{"name":"LANDMARKCO","type":"esriFieldTypeString","alias":"LANDMARKCO","length":15},{"name":"LANDMARKNA","type":"esriFieldTypeString","alias":"LANDMARKNA","length":50},{"name":"LANDMARKAD","type":"esriFieldTypeString","alias":"LANDMARKAD","length":15},{"name":"ADDRESS","type":"esriFieldTypeString","alias":"ADDRESS","length":56},{"name":"TEL","type":"esriFieldTypeString","alias":"TEL","length":36},{"name":"COUNTYNAME","type":"esriFieldTypeString","alias":"COUNTYNAME","length":15},{"name":"TOWNNAME","type":"esriFieldTypeString","alias":"TOWNNAME","length":13},{"name":"MARKTYPE","type":"esriFieldTypeString","alias":"MARKTYPE","length":12},{"name":"Class","type":"esriFieldTypeString","alias":"Class","length":5}],"features":[{"attributes":{"OBJECTID":17801,"LANDMARKID":"1000500000640","LANDMARKCO":"405","LANDMARKNA":"中油加油站-自強路站(中油直營)","LANDMARKAD":"1000505","ADDRESS":"苗栗縣頭份鎮東庄里六鄰自強路二段170號","TEL":"037-615343","COUNTYNAME":"苗栗縣","TOWNNAME":"頭份鎮","MARKTYPE":"994","Class":"4"},"geometry":{"x":239144.43869999982,"y":2730661.1180000007}},{"attributes":{"OBJECTID":17802,"LANDMARKID":"1000500000641","LANDMARKCO":"405","LANDMARKNA":"中油加油站-武雄站","LANDMARKAD":"1000505","ADDRESS":"苗栗縣頭份鎮中正二路71號","TEL":"037-680833","COUNTYNAME":"苗栗縣","TOWNNAME":"頭份鎮","MARKTYPE":"994","Class":"4"},"geometry":{"x":244173.44330000039,"y":2730554.8835000005}},{"attributes":{"OBJECTID":17803,"LANDMARKID":"1000500000642","LANDMARKCO":"405","LANDMARKNA":"中油加油站-頭份工業區站(中油直營)","LANDMARKAD":"1000505","ADDRESS":"苗栗縣頭份鎮蘆竹里中華路519號","TEL":"037-626224","COUNTYNAME":"苗栗縣","TOWNNAME":"頭份鎮","MARKTYPE":"994","Class":"4"},"geometry":{"x":239451.65450000018,"y":2729986.3201000001}},{"attributes":{"OBJECTID":17804,"LANDMARKID":"1000500000643","LANDMARKCO":"405","LANDMARKNA":"中油加油站-蘆竹站(中油直營)","LANDMARKAD":"1000505","ADDRESS":"苗栗縣頭份鎮中華路444號","TEL":"037-623740","COUNTYNAME":"苗栗縣","TOWNNAME":"頭份鎮","MARKTYPE":"994","Class":"4"},"geometry":{"x":239450.29989999998,"y":2729921.9913999997}},{"attributes":{"OBJECTID":17805,"LANDMARKID":"1000500000644","LANDMARKCO":"405","LANDMARKNA":"中油加油站-東怡站","LANDMARKAD":"1000505","ADDRESS":"苗栗縣頭份鎮山下里中華路1755號","TEL":"037-684885","COUNTYNAME":"苗栗縣","TOWNNAME":"頭份鎮","MARKTYPE":"994","Class":"4"},"geometry":{"x":242050.96810000017,"y":2732879.4232999999}},{"attributes":{"OBJECTID":17806,"LANDMARKID":"1000500000645","LANDMARKCO":"405","LANDMARKNA":"中油加油站-長利站","LANDMARKAD":"1000505","ADDRESS":"苗栗縣頭份鎮中華路1686號","TEL":"037-689092","COUNTYNAME":"苗栗縣","TOWNNAME":"頭份鎮","MARKTYPE":"994","Class":"4"},"geometry":{"x":242048.27419999987,"y":2732797.8605000004}},{"attributes":{"OBJECTID":17807,"LANDMARKID":"1000500000646","LANDMARKCO":"405","LANDMARKNA":"中油加油站-頭份站(中油直營)","LANDMARKAD":"1000505","ADDRESS":"苗栗縣頭份鎮自強路2號","TEL":"037-663242","COUNTYNAME":"苗栗縣","TOWNNAME":"頭份鎮","MARKTYPE":"994","Class":"4"},"geometry":{"x":241154.03699999955,"y":2731500.5263999999}},{"attributes":{"OBJECTID":17808,"LANDMARKID":"1000500000647","LANDMARKCO":"405","LANDMARKNA":"中油加油站-新華站","LANDMARKAD":"1000505","ADDRESS":"苗栗縣頭份鎮中正一路268號","TEL":"037-691503","COUNTYNAME":"苗栗縣","TOWNNAME":"頭份鎮","MARKTYPE":"994","Class":"4"},"geometry":{"x":242994.22009999957,"y":2730921.5702999998}},{"attributes":{"OBJECTID":17809,"LANDMARKID":"1000500000648","LANDMARKCO":"405","LANDMARKNA":"統一速邁樂加油站-頭份加油站(中油)","LANDMARKAD":"1000505","ADDRESS":"苗栗縣頭份鎮自強路252號","TEL":" ","COUNTYNAME":"苗栗縣","TOWNNAME":"頭份鎮","MARKTYPE":"994","Class":"4"},"geometry":{"x":240261.39699999988,"y":2730986.5880999994}},{"attributes":{"OBJECTID":17810,"LANDMARKID":"1000500000582","LANDMARKCO":"402","LANDMARKNA":"亞太行動寬頻電信-頭份中正加盟服務中心","LANDMARKAD":"1000505","ADDRESS":"苗栗縣頭份鎮中正路141號","TEL":"037-680659","COUNTYNAME":"苗栗縣","TOWNNAME":"頭份鎮","MARKTYPE":"994","Class":"4"},"geometry":{"x":240886.9896999998,"y":2731057.2370999996}},{"attributes":{"OBJECTID":17811,"LANDMARKID":"1000500000583","LANDMARKCO":"402","LANDMARKNA":"亞太行動寬頻電信-頭份中華加盟服務中心","LANDMARKAD":"1000505","ADDRESS":"苗栗縣頭份鎮中華路1003號","TEL":"037-696866","COUNTYNAME":"苗栗縣","TOWNNAME":"頭份鎮","MARKTYPE":"994","Class":"4"},"geometry":{"x":240610.72159999982,"y":2730978.5687000006}},{"attributes":{"OBJECTID":17812,"LANDMARKID":"1000500000565","LANDMARKCO":"401","LANDMARKNA":"財團法人為恭紀念醫院","LANDMARKAD":"1000505","ADDRESS":"苗栗縣頭份鎮信義路128號","TEL":"037-676811","COUNTYNAME":"苗栗縣","TOWNNAME":"頭份鎮","MARKTYPE":"994","Class":"4"},"geometry":{"x":240605.06570000015,"y":2731113}},{"attributes":{"OBJECTID":17813,"LANDMARKID":"1000500000566","LANDMARKCO":"401","LANDMARKNA":"崇仁醫院","LANDMARKAD":"1000505","ADDRESS":"苗栗縣頭份鎮東興路110號","TEL":"037-663185","COUNTYNAME":"苗栗縣","TOWNNAME":"頭份鎮","MARKTYPE":"994","Class":"4"},"geometry":{"x":240356.97709999979,"y":2730740.1415999997}},{"attributes":{"OBJECTID":17814,"LANDMARKID":"1000500000567","LANDMARKCO":"401","LANDMARKNA":"重光醫院","LANDMARKAD":"1000505","ADDRESS":"苗栗縣頭份鎮中華路1039號","TEL":"037-663030","COUNTYNAME":"苗栗縣","TOWNNAME":"頭份鎮","MARKTYPE":"994","Class":"4"},"geometry":{"x":240705.96960000042,"y":2731060.1831}},{"attributes":{"OBJECTID":17815,"LANDMARKID":"1000500000743","LANDMARKCO":"408","LANDMARKNA":"郵局-頭份郵局","LANDMARKAD":"1000505","ADDRESS":"苗栗縣頭份鎮和平路102號","TEL":"(037)663-114","COUNTYNAME":"苗栗縣","TOWNNAME":"頭份鎮","MARKTYPE":"994","Class":"4"},"geometry":{"x":240496.26750000007,"y":2731001.7211000007}},{"attributes":{"OBJECTID":17816,"LANDMARKID":"1000500000744","LANDMARKCO":"408","LANDMARKNA":"郵局-頭份斗煥郵局","LANDMARKAD":"1000505","ADDRESS":"苗栗縣頭份鎮中正二路157號","TEL":"(037)668-114","COUNTYNAME":"苗栗縣","TOWNNAME":"頭份鎮","MARKTYPE":"994","Class":"4"},"geometry":{"x":244421.68560000043,"y":2730506.7003000006}},{"attributes":{"OBJECTID":17817,"LANDMARKID":"1000500000745","LANDMARKCO":"408","LANDMARKNA":"郵局-頭份田寮郵局","LANDMARKAD":"1000505","ADDRESS":"苗栗縣頭份鎮民族路738號","TEL":"(037)612-776","COUNTYNAME":"苗栗縣","TOWNNAME":"頭份鎮","MARKTYPE":"994","Class":"4"},"geometry":{"x":238515.43209999986,"y":2730916.2708000001}},{"attributes":{"OBJECTID":17818,"LANDMARKID":"1000500000746","LANDMARKCO":"408","LANDMARKNA":"郵局-頭份上公園郵局","LANDMARKAD":"1000505","ADDRESS":"苗栗縣頭份鎮中正路221-1號","TEL":"(037)661-124","COUNTYNAME":"苗栗縣","TOWNNAME":"頭份鎮","MARKTYPE":"994","Class":"4"},"geometry":{"x":241317.5745000001,"y":2731265.5438000001}},{"attributes":{"OBJECTID":17819,"LANDMARKID":"1000500000747","LANDMARKCO":"408","LANDMARKNA":"郵局-頭份尖山郵局","LANDMARKAD":"1000505","ADDRESS":"苗栗縣頭份鎮中華路87號","TEL":"(037)621-644","COUNTYNAME":"苗栗縣","TOWNNAME":"頭份鎮","MARKTYPE":"994","Class":"4"},"geometry":{"x":237778.67559999973,"y":2728553.9925999995}},{"attributes":{"OBJECTID":17820,"LANDMARKID":"1000500000748","LANDMARKCO":"408","LANDMARKNA":"郵局-頭份蟠桃郵局","LANDMARKAD":"1000505","ADDRESS":"苗栗縣頭份鎮建國路192、194號","TEL":"(037)689-056","COUNTYNAME":"苗栗縣","TOWNNAME":"頭份鎮","MARKTYPE":"994","Class":"4"},"geometry":{"x":240691.99870000035,"y":2732209.3083999995}},{"attributes":{"OBJECTID":17821,"LANDMARKID":"1000500000775","LANDMARKCO":"409","LANDMARKNA":"頭份鎮農會","LANDMARKAD":"1000505","ADDRESS":"苗栗縣頭份鎮和平里中華路890-2號","TEL":"037-66330","COUNTYNAME":"苗栗縣","TOWNNAME":"頭份鎮","MARKTYPE":"994","Class":"4"},"geometry":{"x":240503.85730000027,"y":2730835.5853000004}},{"attributes":{"OBJECTID":17822,"LANDMARKID":"1000500000606","LANDMARKCO":"404","LANDMARKNA":"台灣省自來水竹南頭份營運所","LANDMARKAD":"1000505","ADDRESS":"苗栗縣頭份鎮民族路522號","TEL":" ","COUNTYNAME":"苗栗縣","TOWNNAME":"頭份鎮","MARKTYPE":"994","Class":"4"},"geometry":{"x":239054.15589999966,"y":2730948.7061999999}},{"attributes":{"OBJECTID":17823,"LANDMARKID":"1000500000607","LANDMARKCO":"404","LANDMARKNA":"台灣省自來水東興給水廠","LANDMARKAD":"1000505","ADDRESS":"苗栗縣頭份鎮水源路417巷14號","TEL":" ","COUNTYNAME":"苗栗縣","TOWNNAME":"頭份鎮","MARKTYPE":"994","Class":"4"},"geometry":{"x":241911.83050000016,"y":2729159.9516000003}},{"attributes":{"OBJECTID":17824,"LANDMARKID":"1000500000717","LANDMARKCO":"406","LANDMARKNA":"東興河濱公園","LANDMARKAD":"1000505","ADDRESS":"苗栗縣頭份鎮","TEL":" ","COUNTYNAME":"苗栗縣","TOWNNAME":"頭份鎮","MARKTYPE":"994","Class":"4"},"geometry":{"x":240686.30539999995,"y":2730188.4210000001}},{"attributes":{"OBJECTID":17825,"LANDMARKID":"1000500000718","LANDMARKCO":"406","LANDMARKNA":"上公園","LANDMARKAD":"1000505","ADDRESS":"苗栗縣頭份鎮","TEL":" ","COUNTYNAME":"苗栗縣","TOWNNAME":"頭份鎮","MARKTYPE":"994","Class":"4"},"geometry":{"x":240971.69230000023,"y":2731121.6400000006}},{"attributes":{"OBJECTID":17826,"LANDMARKID":"1000500000719","LANDMARKCO":"406","LANDMARKNA":"下公園","LANDMARKAD":"1000505","ADDRESS":"苗栗縣頭份鎮","TEL":" ","COUNTYNAME":"苗栗縣","TOWNNAME":"頭份鎮","MARKTYPE":"994","Class":"4"},"geometry":{"x":240504.60020000022,"y":2730763.8740999997}},{"attributes":{"OBJECTID":17827,"LANDMARKID":"1000500000720","LANDMARKCO":"406","LANDMARKNA":"仁愛公園","LANDMARKAD":"1000505","ADDRESS":"苗栗縣頭份鎮","TEL":" ","COUNTYNAME":"苗栗縣","TOWNNAME":"頭份鎮","MARKTYPE":"994","Class":"4"},"geometry":{"x":240671.06639999989,"y":2730467.6543000005}},{"attributes":{"OBJECTID":17828,"LANDMARKID":"1000500000721","LANDMARKCO":"406","LANDMARKNA":"蟠桃公園","LANDMARKAD":"1000505","ADDRESS":"苗栗縣頭份鎮","TEL":" ","COUNTYNAME":"苗栗縣","TOWNNAME":"頭份鎮","MARKTYPE":"994","Class":"4"},"geometry":{"x":241012.25380000006,"y":2732158.4167999998}},{"attributes":{"OBJECTID":17829,"LANDMARKID":"1000500000631","LANDMARKCO":"405","LANDMARKNA":"台塑加油站-斗煥和昌站(台塑)","LANDMARKAD":"1000505","ADDRESS":"苗栗縣頭份鎮中正二路72號","TEL":"03-7672960","COUNTYNAME":"苗栗縣","TOWNNAME":"頭份鎮","MARKTYPE":"994","Class":"4"},"geometry":{"x":244168.91839999985,"y":2730528.4203999992}},{"attributes":{"OBJECTID":17830,"LANDMARKID":"1000500000632","LANDMARKCO":"405","LANDMARKNA":"台亞加油站-頭份站（台塑）","LANDMARKAD":"1000505","ADDRESS":"苗栗縣頭份鎮後莊里公義路254號","TEL":"(03)762-2222","COUNTYNAME":"苗栗縣","TOWNNAME":"頭份鎮","MARKTYPE":"994","Class":"4"},"geometry":{"x":238423.06099999975,"y":2732741.0386999995}},{"attributes":{"OBJECTID":17831,"LANDMARKID":"1000500000633","LANDMARKCO":"405","LANDMARKNA":"台塑加油站-逢濱站(台塑)","LANDMARKAD":"1000505","ADDRESS":"苗栗縣頭份鎮東庄里中央路37號","TEL":"03-7597711","COUNTYNAME":"苗栗縣","TOWNNAME":"頭份鎮","MARKTYPE":"994","Class":"4"},"geometry":{"x":240498.50650000013,"y":2731216.8321000002}},{"attributes":{"OBJECTID":17832,"LANDMARKID":"1000500000634","LANDMARKCO":"405","LANDMARKNA":"台塑加油站-廣興站(台塑)","LANDMARKAD":"1000505","ADDRESS":"苗栗縣頭份鎮尖豐路221號","TEL":"03-7612859","COUNTYNAME":"苗栗縣","TOWNNAME":"頭份鎮","MARKTYPE":"994","Class":"4"},"geometry":{"x":238055.88150000013,"y":2727935.3912000004}},{"attributes":{"OBJECTID":17833,"LANDMARKID":"1000500000635","LANDMARKCO":"405","LANDMARKNA":"福懋加油站-頭份站(台塑)","LANDMARKAD":"1000505","ADDRESS":"苗栗縣頭份鎮蘆竹里中華路330號","TEL":"03-7626160","COUNTYNAME":"苗栗縣","TOWNNAME":"頭份鎮","MARKTYPE":"994","Class":"4"},"geometry":{"x":238166.28000000026,"y":2729155.6884000003}},{"attributes":{"OBJECTID":17834,"LANDMARKID":"1000500000004","LANDMARKCO":"101","LANDMARKNA":"內政部國土測繪中心通霄辦公室","LANDMARKAD":"1000505","ADDRESS":"苗栗縣通霄鎮平元里平新路39號","TEL":"037-752063","COUNTYNAME":"苗栗縣","TOWNNAME":"頭份鎮","MARKTYPE":"991","Class":"1"},"geometry":{"x":241206.94570000004,"y":2731100.1379000004}},{"attributes":{"OBJECTID":17835,"LANDMARKID":"1000500000083","LANDMARKCO":"106","LANDMARKNA":"苗栗縣頭份鎮戶政事務所","LANDMARKAD":"1000505","ADDRESS":"苗栗縣頭份鎮信義里11鄰和平路68號","TEL":"037-665732","COUNTYNAME":"苗栗縣","TOWNNAME":"頭份鎮","MARKTYPE":"991","Class":"1"},"geometry":{"x":240616.86950000003,"y":2730900.1274999995}},{"attributes":{"OBJECTID":17836,"LANDMARKID":"1000500000124","LANDMARKCO":"107","LANDMARKNA":"苗栗縣警察局頭份分局","LANDMARKAD":"1000505","ADDRESS":"苗栗縣頭份鎮中正路223號","TEL":"037-663306","COUNTYNAME":"苗栗縣","TOWNNAME":"頭份鎮","MARKTYPE":"991","Class":"1"},"geometry":{"x":241377.84729999956,"y":2731260.0658999998}},{"attributes":{"OBJECTID":17837,"LANDMARKID":"1000500000125","LANDMARKCO":"107","LANDMARKNA":"苗栗縣警察局頭份派出所","LANDMARKAD":"1000505","ADDRESS":"苗栗縣頭份鎮中正路223號","TEL":"037-663004","COUNTYNAME":"苗栗縣","TOWNNAME":"頭份鎮","MARKTYPE":"991","Class":"1"},"geometry":{"x":241376.84729999956,"y":2731260.0653000008}},{"attributes":{"OBJECTID":17838,"LANDMARKID":"1000500000126","LANDMARKCO":"107","LANDMARKNA":"苗栗縣警察局斗坪派出所","LANDMARKAD":"1000505","ADDRESS":"苗栗縣頭份鎮19鄰中正二路215號","TEL":"037-665770","COUNTYNAME":"苗栗縣","TOWNNAME":"頭份鎮","MARKTYPE":"991","Class":"1"},"geometry":{"x":244614.91060000006,"y":2730320.1024999991}},{"attributes":{"OBJECTID":17839,"LANDMARKID":"1000500000127","LANDMARKCO":"107","LANDMARKNA":"苗栗縣警察局尖山派出所","LANDMARKAD":"1000505","ADDRESS":"苗栗縣頭份鎮2鄰中華路160號","TEL":"037-622763","COUNTYNAME":"苗栗縣","TOWNNAME":"頭份鎮","MARKTYPE":"991","Class":"1"},"geometry":{"x":238212.91299999971,"y":2728350.0265999995}},{"attributes":{"OBJECTID":17840,"LANDMARKID":"1000500000128","LANDMARKCO":"107","LANDMARKNA":"苗栗縣消防局第三消防大隊","LANDMARKAD":"1000505","ADDRESS":"苗栗縣頭份鎮水源路1巷10號","TEL":"037-663040","COUNTYNAME":"苗栗縣","TOWNNAME":"頭份鎮","MARKTYPE":"991","Class":"1"},"geometry":{"x":241396.84759999998,"y":2731260.0777000003}},{"attributes":{"OBJECTID":17841,"LANDMARKID":"1000500000129","LANDMARKCO":"107","LANDMARKNA":"苗栗縣消防局頭份消防分隊","LANDMARKAD":"1000505","ADDRESS":"苗栗縣頭份鎮水源路1巷10號","TEL":"037-663040","COUNTYNAME":"苗栗縣","TOWNNAME":"頭份鎮","MARKTYPE":"991","Class":"1"},"geometry":{"x":241396.84759999998,"y":2731260.0777000003}},{"attributes":{"OBJECTID":17842,"LANDMARKID":"1000500000054","LANDMARKCO":"103","LANDMARKNA":"苗栗縣頭份鎮衛生所","LANDMARKAD":"1000505","ADDRESS":"苗栗縣頭份鎮忠孝里信東路90號","TEL":"037-663049","COUNTYNAME":"苗栗縣","TOWNNAME":"頭份鎮","MARKTYPE":"991","Class":"1"},"geometry":{"x":240926.81329999957,"y":2731300.1426999997}},{"attributes":{"OBJECTID":17843,"LANDMARKID":"1000500000198","LANDMARKCO":"108","LANDMARKNA":"苗栗縣頭份鎮公所","LANDMARKAD":"1000505","ADDRESS":"苗栗縣頭份鎮仁愛里中山路232號","TEL":"037-663038","COUNTYNAME":"苗栗縣","TOWNNAME":"頭份鎮","MARKTYPE":"991","Class":"1"},"geometry":{"x":241191.99629999977,"y":2731020.1283999998}},{"attributes":{"OBJECTID":17844,"LANDMARKID":"1000500000055","LANDMARKCO":"103","LANDMARKNA":"苗栗縣頭份鎮鎮民代表會","LANDMARKAD":"1000505","ADDRESS":"苗栗縣頭份鎮中山路230號","TEL":"037-663502","COUNTYNAME":"苗栗縣","TOWNNAME":"頭份鎮","MARKTYPE":"991","Class":"1"},"geometry":{"x":241191.98359999992,"y":2731040.1283999998}},{"attributes":{"OBJECTID":17845,"LANDMARKID":"1000500000069","LANDMARKCO":"105","LANDMARKNA":"苗栗縣頭份地政事務所","LANDMARKAD":"1000505","ADDRESS":"苗栗縣頭份鎮忠孝里忠孝一路276號","TEL":"037-672050","COUNTYNAME":"苗栗縣","TOWNNAME":"頭份鎮","MARKTYPE":"991","Class":"1"},"geometry":{"x":240949.88239999954,"y":2731810.1575000007}},{"attributes":{"OBJECTID":17846,"LANDMARKID":"1000500000395","LANDMARKCO":"204","LANDMARKNA":"苗栗縣立圖書館頭份分館","LANDMARKAD":"1000505","ADDRESS":"苗栗縣頭份鎮中華路1082號","TEL":" ","COUNTYNAME":"苗栗縣","TOWNNAME":"頭份鎮","MARKTYPE":"992","Class":"2"},"geometry":{"x":241024.68840000033,"y":2731197.8417000007}},{"attributes":{"OBJECTID":17847,"LANDMARKID":"1000500000214","LANDMARKCO":"202","LANDMARKNA":"縣立興華高中","LANDMARKAD":"1000505","ADDRESS":"苗栗縣頭份鎮新華里中正一路401號","TEL":"037-663403","COUNTYNAME":"苗栗縣","TOWNNAME":"頭份鎮","MARKTYPE":"992","Class":"2"},"geometry":{"x":243548.97819999978,"y":2731060.0152000003}},{"attributes":{"OBJECTID":17848,"LANDMARKID":"1000500000347","LANDMARKCO":"203","LANDMARKNA":"縣立頭份國中","LANDMARKAD":"1000505","ADDRESS":"苗栗縣頭份鎮中華路599號","TEL":"037-663207","COUNTYNAME":"苗栗縣","TOWNNAME":"頭份鎮","MARKTYPE":"992","Class":"2"},"geometry":{"x":239578.92669999972,"y":2730190.2071000002}},{"attributes":{"OBJECTID":17849,"LANDMARKID":"1000500000348","LANDMARKCO":"203","LANDMARKNA":"縣立建國國中","LANDMARKAD":"1000505","ADDRESS":"苗栗縣頭份鎮建國路119號","TEL":"037-962610","COUNTYNAME":"苗栗縣","TOWNNAME":"頭份鎮","MARKTYPE":"992","Class":"2"},"geometry":{"x":240884.9654000001,"y":2731990.1149000004}},{"attributes":{"OBJECTID":17850,"LANDMARKID":"1000500000349","LANDMARKCO":"203","LANDMARKNA":"縣立僑善國小","LANDMARKAD":"1000505","ADDRESS":"苗栗縣頭份鎮中正一路395號","TEL":"037-663137","COUNTYNAME":"苗栗縣","TOWNNAME":"頭份鎮","MARKTYPE":"992","Class":"2"},"geometry":{"x":243400.96339999977,"y":2731090.0792999994}},{"attributes":{"OBJECTID":17851,"LANDMARKID":"1000500000350","LANDMARKCO":"203","LANDMARKNA":"縣立斗煥國小","LANDMARKAD":"1000505","ADDRESS":"苗栗縣頭份鎮斗煥里中正二路221號","TEL":"037-663848","COUNTYNAME":"苗栗縣","TOWNNAME":"頭份鎮","MARKTYPE":"992","Class":"2"},"geometry":{"x":244629.9757000003,"y":2730460.1083000004}},{"attributes":{"OBJECTID":17852,"LANDMARKID":"1000500000351","LANDMARKCO":"203","LANDMARKNA":"縣立尖山國小","LANDMARKAD":"1000505","ADDRESS":"苗栗縣頭份鎮尖下里尖豐路305號","TEL":"037-624474","COUNTYNAME":"苗栗縣","TOWNNAME":"頭份鎮","MARKTYPE":"992","Class":"2"},"geometry":{"x":238249.82629999984,"y":2727530.0585999992}},{"attributes":{"OBJECTID":17853,"LANDMARKID":"1000500000352","LANDMARKCO":"203","LANDMARKNA":"縣立新興國小","LANDMARKAD":"1000505","ADDRESS":"苗栗縣頭份鎮下興里水源路157號","TEL":"037-663855","COUNTYNAME":"苗栗縣","TOWNNAME":"頭份鎮","MARKTYPE":"992","Class":"2"},"geometry":{"x":241198.96420000028,"y":2729840.1334000006}},{"attributes":{"OBJECTID":17854,"LANDMARKID":"1000500000353","LANDMARKCO":"203","LANDMARKNA":"縣立永貞國小","LANDMARKAD":"1000505","ADDRESS":"苗栗縣頭份鎮田寮里永貞路一段335號","TEL":"037-623290","COUNTYNAME":"苗栗縣","TOWNNAME":"頭份鎮","MARKTYPE":"992","Class":"2"},"geometry":{"x":238273.77489999961,"y":2730360.0767999999}},{"attributes":{"OBJECTID":17855,"LANDMARKID":"1000500000354","LANDMARKCO":"203","LANDMARKNA":"縣立信德國小","LANDMARKAD":"1000505","ADDRESS":"苗栗縣頭份鎮流東里信德路58號","TEL":"037-602880","COUNTYNAME":"苗栗縣","TOWNNAME":"頭份鎮","MARKTYPE":"992","Class":"2"},"geometry":{"x":245979.96580000035,"y":2731130.0668000001}},{"attributes":{"OBJECTID":17856,"LANDMARKID":"1000500000355","LANDMARKCO":"203","LANDMARKNA":"縣立頭份國小","LANDMARKAD":"1000505","ADDRESS":"苗栗縣頭份鎮中正路219號","TEL":"037-663020","COUNTYNAME":"苗栗縣","TOWNNAME":"頭份鎮","MARKTYPE":"992","Class":"2"},"geometry":{"x":241184.84389999975,"y":2731260.1239}},{"attributes":{"OBJECTID":17857,"LANDMARKID":"1000500000356","LANDMARKCO":"203","LANDMARKNA":"縣立六合國小","LANDMARKAD":"1000505","ADDRESS":"苗栗縣頭份鎮東庄里民族路252號","TEL":"037-663065","COUNTYNAME":"苗栗縣","TOWNNAME":"頭份鎮","MARKTYPE":"992","Class":"2"},"geometry":{"x":239935.78060000017,"y":2731010.0489000008}},{"attributes":{"OBJECTID":17858,"LANDMARKID":"1000500000357","LANDMARKCO":"203","LANDMARKNA":"縣立建國國小","LANDMARKAD":"1000505","ADDRESS":"苗栗縣頭份鎮建國路80號","TEL":"037-665905","COUNTYNAME":"苗栗縣","TOWNNAME":"頭份鎮","MARKTYPE":"992","Class":"2"},"geometry":{"x":241127.93429999985,"y":2732040.0874000005}},{"attributes":{"OBJECTID":17859,"LANDMARKID":"1000500000358","LANDMARKCO":"203","LANDMARKNA":"縣立信義國小","LANDMARKAD":"1000505","ADDRESS":"苗栗縣頭份鎮信中路36號","TEL":" ","COUNTYNAME":"苗栗縣","TOWNNAME":"頭份鎮","MARKTYPE":"992","Class":"2"},"geometry":{"x":238965.77639999986,"y":2732220.1763000004}},{"attributes":{"OBJECTID":17860,"LANDMARKID":"1000500000209","LANDMARKCO":"201","LANDMARKNA":"親民技術學院","LANDMARKAD":"1000505","ADDRESS":"苗栗縣頭份鎮學府路110號","TEL":"037-605552","COUNTYNAME":"苗栗縣","TOWNNAME":"頭份鎮","MARKTYPE":"992","Class":"2"},"geometry":{"x":246894.9478000002,"y":2730630.0711000003}},{"attributes":{"OBJECTID":17861,"LANDMARKID":"1000500000212","LANDMARKCO":"202","LANDMARKNA":"私立大成高中","LANDMARKAD":"1000505","ADDRESS":"苗栗縣頭份鎮新華里下新店65號","TEL":"037-663371","COUNTYNAME":"苗栗縣","TOWNNAME":"頭份鎮","MARKTYPE":"992","Class":"2"},"geometry":{"x":243785.96750000026,"y":2730470.1234000009}},{"attributes":{"OBJECTID":17862,"LANDMARKID":"1000500000213","LANDMARKCO":"202","LANDMARKNA":"私立大成高中附設國中部","LANDMARKAD":"1000505","ADDRESS":"苗栗縣頭份鎮新華里下新店65號","TEL":"037-663371","COUNTYNAME":"苗栗縣","TOWNNAME":"頭份鎮","MARKTYPE":"992","Class":"2"},"geometry":{"x":243793.97649999987,"y":2730450.1269000005}},{"attributes":{"OBJECTID":17863,"LANDMARKID":"1000500000359","LANDMARKCO":"203","LANDMARKNA":"縣立文英國中","LANDMARKAD":"1000505","ADDRESS":"苗栗縣頭份鎮尖下里200號","TEL":"037-624260","COUNTYNAME":"苗栗縣","TOWNNAME":"頭份鎮","MARKTYPE":"992","Class":"2"},"geometry":{"x":237930.95000000019,"y":2727690.0269000009}},{"attributes":{"OBJECTID":17864,"LANDMARKID":"1000500000360","LANDMARKCO":"203","LANDMARKNA":"縣立蟠桃國小","LANDMARKAD":"1000505","ADDRESS":"苗栗縣頭份鎮東信路285號","TEL":"037-685410","COUNTYNAME":"苗栗縣","TOWNNAME":"頭份鎮","MARKTYPE":"992","Class":"2"},"geometry":{"x":240502.92470000032,"y":2731740.0495999996}},{"attributes":{"OBJECTID":17865,"LANDMARKID":"1000500000361","LANDMARKCO":"203","LANDMARKNA":"縣立后庄國小","LANDMARKAD":"1000505","ADDRESS":"苗栗縣頭份鎮後庄里130號","TEL":"037-663858","COUNTYNAME":"苗栗縣","TOWNNAME":"頭份鎮","MARKTYPE":"992","Class":"2"},"geometry":{"x":239762.85850000009,"y":2732130.1295999996}},{"attributes":{"OBJECTID":17866,"LANDMARKID":"1000500000500","LANDMARKCO":"308","LANDMARKNA":"國1-頭份交流道-北上","LANDMARKAD":"1000505","ADDRESS":"苗栗縣頭份鎮","TEL":" ","COUNTYNAME":"苗栗縣","TOWNNAME":"頭份鎮","MARKTYPE":"993","Class":"308"},"geometry":{"x":241929.70449999999,"y":2731919.3138999995}},{"attributes":{"OBJECTID":17867,"LANDMARKID":"1000500000501","LANDMARKCO":"308","LANDMARKNA":"國1-頭份交流道-南下","LANDMARKAD":"1000505","ADDRESS":"苗栗縣頭份鎮","TEL":" ","COUNTYNAME":"苗栗縣","TOWNNAME":"頭份鎮","MARKTYPE":"993","Class":"308"},"geometry":{"x":241553.29849999957,"y":2731329.6479000002}},{"attributes":{"OBJECTID":17868,"LANDMARKID":"1000500000448","LANDMARKCO":"302","LANDMARKNA":"國光汽車客運頭份站","LANDMARKAD":"1000505","ADDRESS":"苗栗縣頭份鎮忠孝里中華路1179號","TEL":" ","COUNTYNAME":"苗栗縣","TOWNNAME":"頭份鎮","MARKTYPE":"993","Class":"302"},"geometry":{"x":241035.13150000013,"y":2731277.0738999993}},{"attributes":{"OBJECTID":17869,"LANDMARKID":"1000500000449","LANDMARKCO":"302","LANDMARKNA":"新竹汽車客運珊珠湖站","LANDMARKAD":"1000505","ADDRESS":"苗栗縣頭份鎮親民路6號","TEL":" ","COUNTYNAME":"苗栗縣","TOWNNAME":"頭份鎮","MARKTYPE":"993","Class":"302"},"geometry":{"x":245992.68360000011,"y":2730850.9686999992}},{"attributes":{"OBJECTID":17870,"LANDMARKID":"1000500000450","LANDMARKCO":"302","LANDMARKNA":"統聯汽車客運頭份站","LANDMARKAD":"1000505","ADDRESS":"苗栗縣頭份鎮中華路1236之1號","TEL":" ","COUNTYNAME":"苗栗縣","TOWNNAME":"頭份鎮","MARKTYPE":"993","Class":"302"},"geometry":{"x":241315.82299999986,"y":2731630.1369000003}},{"attributes":{"OBJECTID":17871,"LANDMARKID":"1000500000451","LANDMARKCO":"303","LANDMARKNA":"頭份鎮立體停車場","LANDMARKAD":"1000505","ADDRESS":"苗栗縣頭份鎮自強路185號","TEL":"037-688477","COUNTYNAME":"苗栗縣","TOWNNAME":"頭份鎮","MARKTYPE":"993","Class":"303"},"geometry":{"x":240482.21580000035,"y":2731061.2986999992}},{"attributes":{"OBJECTID":17872,"LANDMARKID":"1000500000577","LANDMARKCO":"402","LANDMARKNA":"中華電信-竹南服務中心","LANDMARKAD":"1000505","ADDRESS":"苗栗縣頭份鎮民族路739號","TEL":"(037)632-015","COUNTYNAME":"苗栗縣","TOWNNAME":"頭份鎮","MARKTYPE":"994","Class":"4"},"geometry":{"x":238366.87440000009,"y":2730852.3783999998}},{"attributes":{"OBJECTID":17873,"LANDMARKID":"1000500000578","LANDMARKCO":"402","LANDMARKNA":"中華電信-頭份服務中心","LANDMARKAD":"1000505","ADDRESS":"苗栗縣頭份鎮和平路70號","TEL":"(037)669-014","COUNTYNAME":"苗栗縣","TOWNNAME":"頭份鎮","MARKTYPE":"994","Class":"4"},"geometry":{"x":240604.44739999995,"y":2730906.4699000008}},{"attributes":{"OBJECTID":17874,"LANDMARKID":"1000500000579","LANDMARKCO":"402","LANDMARKNA":"威寶電信-苗栗(頭份)中華特約服務中心","LANDMARKAD":"1000505","ADDRESS":"苗栗縣頭份鎮中華路1007號","TEL":"037-695909","COUNTYNAME":"苗栗縣","TOWNNAME":"頭份鎮","MARKTYPE":"994","Class":"4"},"geometry":{"x":240622.9665000001,"y":2730987.1011999995}},{"attributes":{"OBJECTID":17875,"LANDMARKID":"1000500000580","LANDMARKCO":"402","LANDMARKNA":"大眾電信-頭份專賣店","LANDMARKAD":"1000505","ADDRESS":"苗栗縣頭份鎮中華路997號","TEL":"037-689740","COUNTYNAME":"苗栗縣","TOWNNAME":"頭份鎮","MARKTYPE":"994","Class":"4"},"geometry":{"x":240599.89350000024,"y":2730968.0508999992}},{"attributes":{"OBJECTID":17876,"LANDMARKID":"1000500000875","LANDMARKCO":"603","LANDMARKNA":"豪華大旅社","LANDMARKAD":"1000505","ADDRESS":"苗栗縣頭份鎮東興路128號","TEL":"037-663488","COUNTYNAME":"苗栗縣","TOWNNAME":"頭份鎮","MARKTYPE":"996","Class":"6"},"geometry":{"x":240203.50380000006,"y":2730756.7009999994}},{"attributes":{"OBJECTID":17877,"LANDMARKID":"1000500000876","LANDMARKCO":"603","LANDMARKNA":"東園大飯店","LANDMARKAD":"1000505","ADDRESS":"苗栗縣頭份鎮信東路115號","TEL":"037-665688","COUNTYNAME":"苗栗縣","TOWNNAME":"頭份鎮","MARKTYPE":"996","Class":"6"},"geometry":{"x":240892.85900000017,"y":2731271.5567000005}},{"attributes":{"OBJECTID":17878,"LANDMARKID":"1000500000877","LANDMARKCO":"603","LANDMARKNA":"愛伊堡汽車旅館","LANDMARKAD":"1000505","ADDRESS":"苗栗縣頭份鎮興隆路一段176號","TEL":"037-691166","COUNTYNAME":"苗栗縣","TOWNNAME":"頭份鎮","MARKTYPE":"996","Class":"6"},"geometry":{"x":243503.55740000028,"y":2732262.8144000005}},{"attributes":{"OBJECTID":17879,"LANDMARKID":"1000500000878","LANDMARKCO":"603","LANDMARKNA":"泰莉莎賓館","LANDMARKAD":"1000505","ADDRESS":"苗栗縣頭份鎮中華路1091號4樓","TEL":"037-673757","COUNTYNAME":"苗栗縣","TOWNNAME":"頭份鎮","MARKTYPE":"996","Class":"6"},"geometry":{"x":240830.82650000043,"y":2731152.6033999994}},{"attributes":{"OBJECTID":17880,"LANDMARKID":"1000500000879","LANDMARKCO":"603","LANDMARKNA":"凱儷賓館","LANDMARKAD":"1000505","ADDRESS":"苗栗縣頭份鎮中華路1091號5樓","TEL":"037-660378","COUNTYNAME":"苗栗縣","TOWNNAME":"頭份鎮","MARKTYPE":"996","Class":"6"},"geometry":{"x":240830.82650000043,"y":2731152.6033999994}},{"attributes":{"OBJECTID":17881,"LANDMARKID":"1000500000880","LANDMARKCO":"603","LANDMARKNA":"豪美旅店","LANDMARKAD":"1000505","ADDRESS":"苗栗縣頭份鎮中華路1319號1-5樓","TEL":"037-663388","COUNTYNAME":"苗栗縣","TOWNNAME":"頭份鎮","MARKTYPE":"996","Class":"6"},"geometry":{"x":241303.79260000028,"y":2731712.0065000001}},{"attributes":{"OBJECTID":17882,"LANDMARKID":"1000500000881","LANDMARKCO":"603","LANDMARKNA":"亞立大飯店","LANDMARKAD":"1000505","ADDRESS":"苗栗縣頭份鎮中華路951號9-12樓","TEL":"037-689898","COUNTYNAME":"苗栗縣","TOWNNAME":"頭份鎮","MARKTYPE":"996","Class":"6"},"geometry":{"x":240479.13119999971,"y":2729765.4495000001}},{"attributes":{"OBJECTID":17883,"LANDMARKID":"1000500000882","LANDMARKCO":"603","LANDMARKNA":"東方大旅社","LANDMARKAD":"1000505","ADDRESS":"苗栗縣頭份鎮仁愛路101號","TEL":"037-663126","COUNTYNAME":"苗栗縣","TOWNNAME":"頭份鎮","MARKTYPE":"996","Class":"6"},"geometry":{"x":240708.5828999998,"y":2731116.3549000006}},{"attributes":{"OBJECTID":17884,"LANDMARKID":"1000500000883","LANDMARKCO":"603","LANDMARKNA":"頭份中央旅社","LANDMARKAD":"1000505","ADDRESS":"苗栗縣頭份鎮仁愛路104號","TEL":"037-663142","COUNTYNAME":"苗栗縣","TOWNNAME":"頭份鎮","MARKTYPE":"996","Class":"6"},"geometry":{"x":240742.68560000043,"y":2731131.8916999996}},{"attributes":{"OBJECTID":17885,"LANDMARKID":"1000500000884","LANDMARKCO":"603","LANDMARKNA":"佳來大旅社","LANDMARKAD":"1000505","ADDRESS":"苗栗縣頭份鎮和平路92號","TEL":"037-663188","COUNTYNAME":"苗栗縣","TOWNNAME":"頭份鎮","MARKTYPE":"996","Class":"6"},"geometry":{"x":240499.80939999968,"y":2730990.7562000006}},{"attributes":{"OBJECTID":17886,"LANDMARKID":"1000500000885","LANDMARKCO":"603","LANDMARKNA":"首都大飯店","LANDMARKAD":"1000505","ADDRESS":"苗栗縣頭份鎮忠孝二路129號","TEL":"037-676128","COUNTYNAME":"苗栗縣","TOWNNAME":"頭份鎮","MARKTYPE":"996","Class":"6"},"geometry":{"x":240955.89969999995,"y":2731867.3202999998}},{"attributes":{"OBJECTID":17887,"LANDMARKID":"1000500000667","LANDMARKCO":"405","LANDMARKNA":"中油加油站-三灣站(中油直營)","LANDMARKAD":"1000516","ADDRESS":"苗栗縣三灣鄉三灣村中正路7-2號","TEL":"037-831137","COUNTYNAME":"苗栗縣","TOWNNAME":"三灣鄉","MARKTYPE":"994","Class":"4"},"geometry":{"x":245409.96329999994,"y":2726801.6391000003}},{"attributes":{"OBJECTID":17888,"LANDMARKID":"1000500000802","LANDMARKCO":"506","LANDMARKNA":"穎川果園","LANDMARKAD":"1000516","ADDRESS":"苗栗縣三灣鄉三灣村7鄰中正路160號","TEL":"037-832867","COUNTYNAME":"苗栗縣","TOWNNAME":"三灣鄉","MARKTYPE":"995","Class":"5"},"geometry":{"x":245451.30649999995,"y":2727131.4964000005}},{"attributes":{"OBJECTID":17889,"LANDMARKID":"1000500000752","LANDMARKCO":"408","LANDMARKNA":"郵局-三灣郵局","LANDMARKAD":"1000516","ADDRESS":"苗栗縣三灣鄉中正路310號","TEL":"(037)831-004","COUNTYNAME":"苗栗縣","TOWNNAME":"三灣鄉","MARKTYPE":"994","Class":"4"},"geometry":{"x":245839.67250000034,"y":2727746.6936000008}},{"attributes":{"OBJECTID":17890,"LANDMARKID":"1000500000772","LANDMARKCO":"409","LANDMARKNA":"苗栗縣三灣鄉農會","LANDMARKAD":"1000516","ADDRESS":"苗栗縣三灣鄉三灣村7鄰中正路176號","TEL":"037-831007","COUNTYNAME":"苗栗縣","TOWNNAME":"三灣鄉","MARKTYPE":"994","Class":"4"},"geometry":{"x":245559.57290000003,"y":2727401.4864000008}},{"attributes":{"OBJECTID":17891,"LANDMARKID":"1000500000078","LANDMARKCO":"106","LANDMARKNA":"苗栗縣三灣鄉戶政事務所","LANDMARKAD":"1000516","ADDRESS":"苗栗縣三灣鄉三灣村5鄰中正路256號","TEL":"037-831080","COUNTYNAME":"苗栗縣","TOWNNAME":"三灣鄉","MARKTYPE":"991","Class":"1"},"geometry":{"x":245641.91229999997,"y":2727600.0533000007}},{"attributes":{"OBJECTID":17892,"LANDMARKID":"1000500000152","LANDMARKCO":"107","LANDMARKNA":"苗栗縣警察局三灣分駐所","LANDMARKAD":"1000516","ADDRESS":"苗栗縣三灣鄉中正路254號","TEL":"037-831071","COUNTYNAME":"苗栗縣","TOWNNAME":"三灣鄉","MARKTYPE":"991","Class":"1"},"geometry":{"x":245641.92169999983,"y":2727570.0533000007}},{"attributes":{"OBJECTID":17893,"LANDMARKID":"1000500000153","LANDMARKCO":"107","LANDMARKNA":"苗栗縣消防局三灣消防分隊","LANDMARKAD":"1000516","ADDRESS":"苗栗縣三灣鄉中山路43號","TEL":"037-831092","COUNTYNAME":"苗栗縣","TOWNNAME":"三灣鄉","MARKTYPE":"991","Class":"1"},"geometry":{"x":245465.93479999993,"y":2727520.0909000002}},{"attributes":{"OBJECTID":17894,"LANDMARKID":"1000500000154","LANDMARKCO":"107","LANDMARKNA":"苗栗縣警察局大河派出所","LANDMARKAD":"1000516","ADDRESS":"苗栗縣三灣鄉大河村6鄰大河48號","TEL":"037-831081","COUNTYNAME":"苗栗縣","TOWNNAME":"三灣鄉","MARKTYPE":"991","Class":"1"},"geometry":{"x":244674.97360000014,"y":2723390.0156999994}},{"attributes":{"OBJECTID":17895,"LANDMARKID":"1000500000056","LANDMARKCO":"103","LANDMARKNA":"苗栗縣三灣鄉衛生所","LANDMARKAD":"1000516","ADDRESS":"苗栗縣三灣鄉親民路17號","TEL":"037-831140","COUNTYNAME":"苗栗縣","TOWNNAME":"三灣鄉","MARKTYPE":"991","Class":"1"},"geometry":{"x":245647.91000000015,"y":2727300.0552999992}},{"attributes":{"OBJECTID":17896,"LANDMARKID":"1000500000197","LANDMARKCO":"108","LANDMARKNA":"苗栗縣三灣鄉公所","LANDMARKAD":"1000516","ADDRESS":"苗栗縣三灣鄉親民路19號","TEL":"037-831001","COUNTYNAME":"苗栗縣","TOWNNAME":"三灣鄉","MARKTYPE":"991","Class":"1"},"geometry":{"x":245561.91139999963,"y":2727290.0281000007}},{"attributes":{"OBJECTID":17897,"LANDMARKID":"1000500000057","LANDMARKCO":"103","LANDMARKNA":"苗栗縣三灣鄉民代表會","LANDMARKAD":"1000516","ADDRESS":"苗栗縣三灣鄉三灣村親民路20號","TEL":"037-831203","COUNTYNAME":"苗栗縣","TOWNNAME":"三灣鄉","MARKTYPE":"991","Class":"1"},"geometry":{"x":245564.90189999994,"y":2727320.0289999992}},{"attributes":{"OBJECTID":17898,"LANDMARKID":"1000500000394","LANDMARKCO":"204","LANDMARKNA":"苗栗縣立圖書館三灣分館","LANDMARKAD":"1000516","ADDRESS":"苗栗縣三灣鄉19鄰親民路17之1號","TEL":" ","COUNTYNAME":"苗栗縣","TOWNNAME":"三灣鄉","MARKTYPE":"992","Class":"2"},"geometry":{"x":245630.1473000003,"y":2727341.5872000009}},{"attributes":{"OBJECTID":17899,"LANDMARKID":"1000500000370","LANDMARKCO":"203","LANDMARKNA":"縣立三灣國中","LANDMARKAD":"1000516","ADDRESS":"苗栗縣三灣鄉三灣村忠信路17號","TEL":"037-831002","COUNTYNAME":"苗栗縣","TOWNNAME":"三灣鄉","MARKTYPE":"992","Class":"2"},"geometry":{"x":245304.90039999969,"y":2727000.0374999996}},{"attributes":{"OBJECTID":17900,"LANDMARKID":"1000500000371","LANDMARKCO":"203","LANDMARKNA":"縣立三灣國小","LANDMARKAD":"1000516","ADDRESS":"苗栗縣三灣鄉三灣村中山路49號","TEL":"037-831006","COUNTYNAME":"苗栗縣","TOWNNAME":"三灣鄉","MARKTYPE":"992","Class":"2"},"geometry":{"x":245530.97360000014,"y":2727710.0181000009}},{"attributes":{"OBJECTID":17901,"LANDMARKID":"1000500000372","LANDMARKCO":"203","LANDMARKNA":"縣立大坪國小","LANDMARKAD":"1000516","ADDRESS":"苗栗縣三灣鄉大坪村4鄰42號","TEL":"037-541968","COUNTYNAME":"苗栗縣","TOWNNAME":"三灣鄉","MARKTYPE":"992","Class":"2"},"geometry":{"x":241388.90890000015,"y":2723470.0755000003}},{"attributes":{"OBJECTID":17902,"LANDMARKID":"1000500000373","LANDMARKCO":"203","LANDMARKNA":"縣立大河國小","LANDMARKAD":"1000516","ADDRESS":"苗栗縣三灣鄉大河村64號","TEL":"037-831468","COUNTYNAME":"苗栗縣","TOWNNAME":"三灣鄉","MARKTYPE":"992","Class":"2"},"geometry":{"x":244543.97300000023,"y":2723390.0757999998}},{"attributes":{"OBJECTID":17903,"LANDMARKID":"1000500000374","LANDMARKCO":"203","LANDMARKNA":"縣立三灣國小東山分班","LANDMARKAD":"1000516","ADDRESS":"苗栗縣三灣鄉頂寮村15號","TEL":"037-831030","COUNTYNAME":"苗栗縣","TOWNNAME":"三灣鄉","MARKTYPE":"992","Class":"2"},"geometry":{"x":248926.98990000039,"y":2727450.0125999991}},{"attributes":{"OBJECTID":17904,"LANDMARKID":"1000500000375","LANDMARKCO":"203","LANDMARKNA":"縣立三灣國小永和分校","LANDMARKAD":"1000516","ADDRESS":"苗栗縣三灣鄉永和村石馬店17號","TEL":"037-831979","COUNTYNAME":"苗栗縣","TOWNNAME":"三灣鄉","MARKTYPE":"992","Class":"2"},"geometry":{"x":242530.92659999989,"y":2725920.0753000006}},{"attributes":{"OBJECTID":17905,"LANDMARKID":"1000500000888","LANDMARKCO":"604","LANDMARKNA":"侑橘休閒農園","LANDMARKAD":"1000516","ADDRESS":"苗栗縣三灣鄉永和村北坑12-1號","TEL":"037-832779","COUNTYNAME":"苗栗縣","TOWNNAME":"三灣鄉","MARKTYPE":"996","Class":"6"},"geometry":{"x":243488.41490000021,"y":2726967.9641999993}},{"attributes":{"OBJECTID":17906,"LANDMARKID":"1000500000668","LANDMARKCO":"405","LANDMARKNA":"中油加油站-造橋站","LANDMARKAD":"1000515","ADDRESS":"苗栗縣造橋鄉造橋村14鄰老庄27號","TEL":"03-7652100","COUNTYNAME":"苗栗縣","TOWNNAME":"造橋鄉","MARKTYPE":"994","Class":"4"},"geometry":{"x":236147.6157999998,"y":2725756.2419000007}},{"attributes":{"OBJECTID":17907,"LANDMARKID":"1000500000669","LANDMARKCO":"405","LANDMARKNA":"中油加油站-大坪站(中油直營)","LANDMARKAD":"1000515","ADDRESS":"苗栗縣造橋鄉錦水村錦水7-30號","TEL":"03-7541881","COUNTYNAME":"苗栗縣","TOWNNAME":"造橋鄉","MARKTYPE":"994","Class":"4"},"geometry":{"x":239050.36230000015,"y":2723082.2229999993}},{"attributes":{"OBJECTID":17908,"LANDMARKID":"1000500000670","LANDMARKCO":"405","LANDMARKNA":"中油加油站-金源興站","LANDMARKAD":"1000515","ADDRESS":"苗栗縣造橋鄉談文村仁愛路18-1號","TEL":"037-622655","COUNTYNAME":"苗栗縣","TOWNNAME":"造橋鄉","MARKTYPE":"994","Class":"4"},"geometry":{"x":234851.87789999973,"y":2726867.5122999996}},{"attributes":{"OBJECTID":17909,"LANDMARKID":"1000500000750","LANDMARKCO":"408","LANDMARKNA":"郵局-造橋郵局","LANDMARKAD":"1000515","ADDRESS":"苗栗縣造橋鄉造橋村平仁路32號","TEL":"(037)562-644","COUNTYNAME":"苗栗縣","TOWNNAME":"造橋鄉","MARKTYPE":"994","Class":"4"},"geometry":{"x":236677.79260000028,"y":2727092.7153999992}},{"attributes":{"OBJECTID":17910,"LANDMARKID":"1000500000751","LANDMARKCO":"408","LANDMARKNA":"郵局-造橋大西郵局","LANDMARKAD":"1000515","ADDRESS":"苗栗縣造橋鄉大西村十字路18號","TEL":"(037)542-644","COUNTYNAME":"苗栗縣","TOWNNAME":"造橋鄉","MARKTYPE":"994","Class":"4"},"geometry":{"x":238951.98369999975,"y":2724004.3715000004}},{"attributes":{"OBJECTID":17911,"LANDMARKID":"1000500000773","LANDMARKCO":"409","LANDMARKNA":"苗栗縣造橋鄉農會","LANDMARKAD":"1000515","ADDRESS":"苗栗縣造橋鄉造橋村平仁路34號","TEL":"037-563215","COUNTYNAME":"苗栗縣","TOWNNAME":"造橋鄉","MARKTYPE":"994","Class":"4"},"geometry":{"x":236725.53600000031,"y":2725912.2523999996}},{"attributes":{"OBJECTID":17912,"LANDMARKID":"1000500000710","LANDMARKCO":"406","LANDMARKNA":"自然運動公園","LANDMARKAD":"1000515","ADDRESS":"苗栗縣造橋鄉","TEL":" ","COUNTYNAME":"苗栗縣","TOWNNAME":"造橋鄉","MARKTYPE":"994","Class":"4"},"geometry":{"x":235371.68939999957,"y":2728420.1050000004}},{"attributes":{"OBJECTID":17913,"LANDMARKID":"1000500000711","LANDMARKCO":"406","LANDMARKNA":"福德公園","LANDMARKAD":"1000515","ADDRESS":"苗栗縣造橋鄉","TEL":" ","COUNTYNAME":"苗栗縣","TOWNNAME":"造橋鄉","MARKTYPE":"994","Class":"4"},"geometry":{"x":238584.98110000044,"y":2722144.9116999991}},{"attributes":{"OBJECTID":17914,"LANDMARKID":"1000500000155","LANDMARKCO":"107","LANDMARKNA":"苗栗縣警察局造橋分駐所","LANDMARKAD":"1000515","ADDRESS":"苗栗縣造橋鄉平仁路51號","TEL":"037-563224","COUNTYNAME":"苗栗縣","TOWNNAME":"造橋鄉","MARKTYPE":"991","Class":"1"},"geometry":{"x":236599.74729999993,"y":2726050.1027000006}},{"attributes":{"OBJECTID":17915,"LANDMARKID":"1000500000079","LANDMARKCO":"106","LANDMARKNA":"苗栗縣造橋鄉戶政事務所","LANDMARKAD":"1000515","ADDRESS":"苗栗縣造橋鄉造橋村13鄰東興5之5號","TEL":"037-540085","COUNTYNAME":"苗栗縣","TOWNNAME":"造橋鄉","MARKTYPE":"991","Class":"1"},"geometry":{"x":236619.98809999973,"y":2725800.1221999992}},{"attributes":{"OBJECTID":17916,"LANDMARKID":"1000500000148","LANDMARKCO":"107","LANDMARKNA":"苗栗縣警察局談文派出所","LANDMARKAD":"1000515","ADDRESS":"苗栗縣造橋鄉談文村8鄰51之17號","TEL":"037-622664","COUNTYNAME":"苗栗縣","TOWNNAME":"造橋鄉","MARKTYPE":"991","Class":"1"},"geometry":{"x":235161.89049999975,"y":2727430.0769999996}},{"attributes":{"OBJECTID":17917,"LANDMARKID":"1000500000149","LANDMARKCO":"107","LANDMARKNA":"國公路警察局第二警察隊部","LANDMARKAD":"1000515","ADDRESS":"苗栗縣造橋鄉造橋村雙鵝山9號","TEL":"037-563333","COUNTYNAME":"苗栗縣","TOWNNAME":"造橋鄉","MARKTYPE":"991","Class":"1"},"geometry":{"x":237165.82909999974,"y":2726280.1019000001}},{"attributes":{"OBJECTID":17918,"LANDMARKID":"1000500000150","LANDMARKCO":"107","LANDMARKNA":"國公路第二警察隊造橋分隊","LANDMARKAD":"1000515","ADDRESS":"苗栗縣造橋鄉造橋村雙鵝山9號","TEL":"037-631914","COUNTYNAME":"苗栗縣","TOWNNAME":"造橋鄉","MARKTYPE":"991","Class":"1"},"geometry":{"x":237167.82919999957,"y":2726280.1038000006}},{"attributes":{"OBJECTID":17919,"LANDMARKID":"1000500000151","LANDMARKCO":"107","LANDMARKNA":"苗栗縣消防局造橋消防分隊","LANDMARKAD":"1000515","ADDRESS":"苗栗縣造橋鄉造橋村老庄14鄰2之1號","TEL":"037-541724","COUNTYNAME":"苗栗縣","TOWNNAME":"造橋鄉","MARKTYPE":"991","Class":"1"},"geometry":{"x":236470.99780000001,"y":2725790.2537999991}},{"attributes":{"OBJECTID":17920,"LANDMARKID":"1000500000058","LANDMARKCO":"103","LANDMARKNA":"苗栗縣造橋鄉衛生所","LANDMARKAD":"1000515","ADDRESS":"苗栗縣造橋鄉造橋村14鄰8-2號","TEL":"037-542755","COUNTYNAME":"苗栗縣","TOWNNAME":"造橋鄉","MARKTYPE":"991","Class":"1"},"geometry":{"x":236399.73859999981,"y":2725440.1849000007}},{"attributes":{"OBJECTID":17921,"LANDMARKID":"1000500000196","LANDMARKCO":"108","LANDMARKNA":"苗栗縣造橋鄉公所","LANDMARKAD":"1000515","ADDRESS":"苗栗縣造橋鄉造橋村14鄰3之1號","TEL":"037-542255","COUNTYNAME":"苗栗縣","TOWNNAME":"造橋鄉","MARKTYPE":"991","Class":"1"},"geometry":{"x":236525.70959999971,"y":2725780.0315000005}},{"attributes":{"OBJECTID":17922,"LANDMARKID":"1000500000059","LANDMARKCO":"103","LANDMARKNA":"苗栗縣造橋鄉民代表會","LANDMARKAD":"1000515","ADDRESS":"苗栗縣造橋鄉造橋村14鄰老庄311號","TEL":"037-542870","COUNTYNAME":"苗栗縣","TOWNNAME":"造橋鄉","MARKTYPE":"991","Class":"1"},"geometry":{"x":236490.94919999968,"y":2725840.2731999997}},{"attributes":{"OBJECTID":17923,"LANDMARKID":"1000500000396","LANDMARKCO":"204","LANDMARKNA":"苗栗縣立圖書館造橋分館","LANDMARKAD":"1000515","ADDRESS":"苗栗縣造橋鄉造橋村14鄰1號","TEL":" ","COUNTYNAME":"苗栗縣","TOWNNAME":"造橋鄉","MARKTYPE":"992","Class":"2"},"geometry":{"x":236664.68910000008,"y":2726069.5595999993}},{"attributes":{"OBJECTID":17924,"LANDMARKID":"1000500000362","LANDMARKCO":"203","LANDMARKNA":"縣立大西國中","LANDMARKAD":"1000515","ADDRESS":"苗栗縣造橋鄉大西村14鄰48號","TEL":"037-541080","COUNTYNAME":"苗栗縣","TOWNNAME":"造橋鄉","MARKTYPE":"992","Class":"2"},"geometry":{"x":239344.97470000014,"y":2724280.0329}},{"attributes":{"OBJECTID":17925,"LANDMARKID":"1000500000363","LANDMARKCO":"203","LANDMARKNA":"縣立造橋國中","LANDMARKAD":"1000515","ADDRESS":"苗栗縣造橋鄉造橋村27號","TEL":"037-622773","COUNTYNAME":"苗栗縣","TOWNNAME":"造橋鄉","MARKTYPE":"992","Class":"2"},"geometry":{"x":236212.93859999999,"y":2725850.2818}},{"attributes":{"OBJECTID":17926,"LANDMARKID":"1000500000364","LANDMARKCO":"203","LANDMARKNA":"縣立僑樂國小","LANDMARKAD":"1000515","ADDRESS":"苗栗縣造橋鄉錦水村306號","TEL":"037-541143","COUNTYNAME":"苗栗縣","TOWNNAME":"造橋鄉","MARKTYPE":"992","Class":"2"},"geometry":{"x":238500.89800000004,"y":2721910.0362}},{"attributes":{"OBJECTID":17927,"LANDMARKID":"1000500000365","LANDMARKCO":"203","LANDMARKNA":"縣立豐湖國小","LANDMARKAD":"1000515","ADDRESS":"苗栗縣造橋鄉豐湖村4鄰5號","TEL":"037-561031","COUNTYNAME":"苗栗縣","TOWNNAME":"造橋鄉","MARKTYPE":"992","Class":"2"},"geometry":{"x":233522.63850000035,"y":2723020.1477000006}},{"attributes":{"OBJECTID":17928,"LANDMARKID":"1000500000366","LANDMARKCO":"203","LANDMARKNA":"縣立談文國小","LANDMARKAD":"1000515","ADDRESS":"苗栗縣造橋鄉談文村6鄰54號","TEL":"037-624044","COUNTYNAME":"苗栗縣","TOWNNAME":"造橋鄉","MARKTYPE":"992","Class":"2"},"geometry":{"x":234811.72709999979,"y":2727270.3133000005}},{"attributes":{"OBJECTID":17929,"LANDMARKID":"1000500000367","LANDMARKCO":"203","LANDMARKNA":"縣立龍昇國小","LANDMARKAD":"1000515","ADDRESS":"苗栗縣造橋鄉龍昇村8鄰16之1號","TEL":"037-651363","COUNTYNAME":"苗栗縣","TOWNNAME":"造橋鄉","MARKTYPE":"992","Class":"2"},"geometry":{"x":232756.68010000046,"y":2726050.2468999997}},{"attributes":{"OBJECTID":17930,"LANDMARKID":"1000500000368","LANDMARKCO":"203","LANDMARKNA":"縣立錦水國小","LANDMARKAD":"1000515","ADDRESS":"苗栗縣造橋鄉大西村13鄰大坪1號","TEL":"037-541978","COUNTYNAME":"苗栗縣","TOWNNAME":"造橋鄉","MARKTYPE":"992","Class":"2"},"geometry":{"x":239280.86099999957,"y":2724120.2026000004}},{"attributes":{"OBJECTID":17931,"LANDMARKID":"1000500000369","LANDMARKCO":"203","LANDMARKNA":"縣立造橋國小","LANDMARKAD":"1000515","ADDRESS":"苗栗縣造橋鄉造橋村14鄰3號","TEL":"037-542686","COUNTYNAME":"苗栗縣","TOWNNAME":"造橋鄉","MARKTYPE":"992","Class":"2"},"geometry":{"x":236318.81340000033,"y":2725670.1052999999}},{"attributes":{"OBJECTID":17932,"LANDMARKID":"1000500000211","LANDMARKCO":"201","LANDMARKNA":"育達商業技術學院","LANDMARKAD":"1000515","ADDRESS":"苗栗縣造橋鄉談文村學府路168號","TEL":"037-651188","COUNTYNAME":"苗栗縣","TOWNNAME":"造橋鄉","MARKTYPE":"992","Class":"2"},"geometry":{"x":234039.6939000003,"y":2726980.0857999995}},{"attributes":{"OBJECTID":17933,"LANDMARKID":"1000500000454","LANDMARKCO":"303","LANDMARKNA":"香格里拉樂園停車場","LANDMARKAD":"1000515","ADDRESS":"苗栗縣造橋鄉豐湖村乳姑山15之3號","TEL":"037-561369","COUNTYNAME":"苗栗縣","TOWNNAME":"造橋鄉","MARKTYPE":"993","Class":"303"},"geometry":{"x":234285.12990000006,"y":2724362.6876999997}},{"attributes":{"OBJECTID":17934,"LANDMARKID":"1000500000455","LANDMARKCO":"303","LANDMARKNA":"香格里拉樂園停車場","LANDMARKAD":"1000515","ADDRESS":"苗栗縣造橋鄉豐湖村乳姑山15之3號","TEL":"037-561369","COUNTYNAME":"苗栗縣","TOWNNAME":"造橋鄉","MARKTYPE":"993","Class":"303"},"geometry":{"x":234119.7237999998,"y":2724453.4378999993}},{"attributes":{"OBJECTID":17935,"LANDMARKID":"1000500000456","LANDMARKCO":"303","LANDMARKNA":"香格里拉樂園停車場","LANDMARKAD":"1000515","ADDRESS":"苗栗縣造橋鄉豐湖村乳姑山15之3號","TEL":"037-561369","COUNTYNAME":"苗栗縣","TOWNNAME":"造橋鄉","MARKTYPE":"993","Class":"303"},"geometry":{"x":234039.38520000037,"y":2724459.534}},{"attributes":{"OBJECTID":17936,"LANDMARKID":"1000500000525","LANDMARKCO":"308","LANDMARKNA":"後龍收費站","LANDMARKAD":"1000515","ADDRESS":" ","TEL":" ","COUNTYNAME":"苗栗縣","TOWNNAME":"造橋鄉","MARKTYPE":"993","Class":"308"},"geometry":{"x":232994.59009999968,"y":2727028.6624999996}},{"attributes":{"OBJECTID":17937,"LANDMARKID":"1000500000526","LANDMARKCO":"308","LANDMARKNA":"造橋收費站","LANDMARKAD":"1000515","ADDRESS":" ","TEL":" ","COUNTYNAME":"苗栗縣","TOWNNAME":"造橋鄉","MARKTYPE":"993","Class":"308"},"geometry":{"x":237190.54499999993,"y":2726421.1295999996}},{"attributes":{"OBJECTID":17938,"LANDMARKID":"1000500000427","LANDMARKCO":"301","LANDMARKNA":"談文火車站","LANDMARKAD":"1000515","ADDRESS":"苗栗縣造橋鄉談文村仁愛路29號","TEL":" ","COUNTYNAME":"苗栗縣","TOWNNAME":"造橋鄉","MARKTYPE":"993","Class":"301"},"geometry":{"x":235607.68499999959,"y":2727745.9486999996}},{"attributes":{"OBJECTID":17939,"LANDMARKID":"1000500000428","LANDMARKCO":"301","LANDMARKNA":"造橋火車站","LANDMARKAD":"1000515","ADDRESS":"苗栗縣造橋鄉造橋村平仁路54號","TEL":" ","COUNTYNAME":"苗栗縣","TOWNNAME":"造橋鄉","MARKTYPE":"993","Class":"301"},"geometry":{"x":236591.67650000006,"y":2726132.0537}},{"attributes":{"OBJECTID":17940,"LANDMARKID":"1000500000887","LANDMARKCO":"604","LANDMARKNA":"牛奶故鄉","LANDMARKAD":"1000515","ADDRESS":"苗栗縣造橋鄉豐湖村5鄰上山下2-2號","TEL":"037-561126","COUNTYNAME":"苗栗縣","TOWNNAME":"造橋鄉","MARKTYPE":"996","Class":"6"},"geometry":{"x":234396.93709999975,"y":2722847.1210999992}},{"attributes":{"OBJECTID":17941,"LANDMARKID":"1000500000801","LANDMARKCO":"505","LANDMARKNA":"香格里拉樂園","LANDMARKAD":"1000515","ADDRESS":"苗栗縣造橋鄉豐湖村1鄰乳姑山15之3號","TEL":" ","COUNTYNAME":"苗栗縣","TOWNNAME":"造橋鄉","MARKTYPE":"995","Class":"5"},"geometry":{"x":234048.29829999991,"y":2724410.5504000001}},{"attributes":{"OBJECTID":17942,"LANDMARKID":"1000500000831","LANDMARKCO":"510","LANDMARKNA":"皇家高爾夫球場","LANDMARKAD":"1000515","ADDRESS":"苗栗縣頭屋鄉明德村一鄰20號","TEL":"037-543122","COUNTYNAME":"苗栗縣","TOWNNAME":"造橋鄉","MARKTYPE":"995","Class":"5"},"geometry":{"x":242171.55630000029,"y":2721075.1950000003}},{"attributes":{"OBJECTID":17943,"LANDMARKID":"1000500000671","LANDMARKCO":"405","LANDMARKNA":"中油加油站-後龍站(中油直營)","LANDMARKAD":"1000506","ADDRESS":"苗栗縣後龍鎮中華路51-2號","TEL":"037-722041","COUNTYNAME":"苗栗縣","TOWNNAME":"後龍鎮","MARKTYPE":"994","Class":"4"},"geometry":{"x":228997.06010000035,"y":2723298.2283999994}},{"attributes":{"OBJECTID":17944,"LANDMARKID":"1000500000672","LANDMARKCO":"405","LANDMARKNA":"中油加油站-豐富站","LANDMARKAD":"1000506","ADDRESS":"苗栗縣後龍鎮新東路52之27號","TEL":"037-722422","COUNTYNAME":"苗栗縣","TOWNNAME":"後龍鎮","MARKTYPE":"994","Class":"4"},"geometry":{"x":232781.60379999969,"y":2721520.0537}},{"attributes":{"OBJECTID":17945,"LANDMARKID":"1000500000673","LANDMARKCO":"405","LANDMARKNA":"中油加油站-吉盛站","LANDMARKAD":"1000506","ADDRESS":"苗栗縣後龍鎮龍坑里十班坑155之8號","TEL":"037-733376","COUNTYNAME":"苗栗縣","TOWNNAME":"後龍鎮","MARKTYPE":"994","Class":"4"},"geometry":{"x":227722.92470000032,"y":2721649.9143000003}},{"attributes":{"OBJECTID":17946,"LANDMARKID":"1000500000674","LANDMARKCO":"405","LANDMARKNA":"中油加油站-龍昌站","LANDMARKAD":"1000506","ADDRESS":"苗栗縣後龍鎮龍坑里十班坑169號","TEL":"037-722575","COUNTYNAME":"苗栗縣","TOWNNAME":"後龍鎮","MARKTYPE":"994","Class":"4"},"geometry":{"x":227229.67509999964,"y":2720685.0206000004}},{"attributes":{"OBJECTID":17947,"LANDMARKID":"1000500000581","LANDMARKCO":"402","LANDMARKNA":"亞太行動寬頻電信-苗栗後龍加盟服務中心","LANDMARKAD":"1000506","ADDRESS":"苗栗縣後龍鎮中北街70-1號","TEL":"037-728097","COUNTYNAME":"苗栗縣","TOWNNAME":"後龍鎮","MARKTYPE":"994","Class":"4"},"geometry":{"x":228542.39950000029,"y":2723195.7352000009}},{"attributes":{"OBJECTID":17948,"LANDMARKID":"1000500000816","LANDMARKCO":"507","LANDMARKNA":"鄭崇和墓","LANDMARKAD":"1000506","ADDRESS":"苗栗縣後龍鎮龍坑里16鄰轄區","TEL":" ","COUNTYNAME":"苗栗縣","TOWNNAME":"後龍鎮","MARKTYPE":"995","Class":"5"},"geometry":{"x":227993.38999999966,"y":2721644.6265999991}},{"attributes":{"OBJECTID":17949,"LANDMARKID":"1000500000753","LANDMARKCO":"408","LANDMARKNA":"郵局-後龍郵局","LANDMARKAD":"1000506","ADDRESS":"苗栗縣後龍鎮中龍里中華路161號","TEL":"(037)722-056","COUNTYNAME":"苗栗縣","TOWNNAME":"後龍鎮","MARKTYPE":"994","Class":"4"},"geometry":{"x":228343.23369999975,"y":2723067.5939000007}},{"attributes":{"OBJECTID":17950,"LANDMARKID":"1000500000769","LANDMARKCO":"409","LANDMARKNA":"苗栗縣後龍鎮農會","LANDMARKAD":"1000506","ADDRESS":"苗栗縣後龍鎮中華路153號","TEL":"037-727111-4","COUNTYNAME":"苗栗縣","TOWNNAME":"後龍鎮","MARKTYPE":"994","Class":"4"},"geometry":{"x":228443.45559999999,"y":2723151.9005999994}},{"attributes":{"OBJECTID":17951,"LANDMARKID":"1000500000770","LANDMARKCO":"409","LANDMARKNA":"南龍區漁會","LANDMARKAD":"1000506","ADDRESS":"苗栗縣後龍鎮海埔里131之7號","TEL":"037-432023","COUNTYNAME":"苗栗縣","TOWNNAME":"後龍鎮","MARKTYPE":"994","Class":"4"},"geometry":{"x":227029.1847000001,"y":2727057.5442999993}},{"attributes":{"OBJECTID":17952,"LANDMARKID":"1000500000771","LANDMARKCO":"409","LANDMARKNA":"南龍魚市場","LANDMARKAD":"1000506","ADDRESS":"後龍鎮海埔里8鄰131之4號","TEL":"037-432023　","COUNTYNAME":"苗栗縣","TOWNNAME":"後龍鎮","MARKTYPE":"994","Class":"4"},"geometry":{"x":226981.81149999984,"y":2727115.6919}},{"attributes":{"OBJECTID":17953,"LANDMARKID":"1000500000712","LANDMARKCO":"406","LANDMARKNA":"大腳山海濱公園","LANDMARKAD":"1000506","ADDRESS":"苗栗縣後龍鎮外埔里","TEL":" ","COUNTYNAME":"苗栗縣","TOWNNAME":"後龍鎮","MARKTYPE":"994","Class":"4"},"geometry":{"x":228109.95880000014,"y":2727973.7125000004}},{"attributes":{"OBJECTID":17954,"LANDMARKID":"1000500000713","LANDMARKCO":"406","LANDMARKNA":"小公園","LANDMARKAD":"1000506","ADDRESS":"苗栗縣後龍鎮","TEL":" ","COUNTYNAME":"苗栗縣","TOWNNAME":"後龍鎮","MARKTYPE":"994","Class":"4"},"geometry":{"x":232218.97780000046,"y":2721497.6687000003}},{"attributes":{"OBJECTID":17955,"LANDMARKID":"1000500000081","LANDMARKCO":"106","LANDMARKNA":"苗栗縣後龍鎮戶政事務所","LANDMARKAD":"1000506","ADDRESS":"苗栗縣後龍鎮大庄里19鄰中山路142號","TEL":"037-722061","COUNTYNAME":"苗栗縣","TOWNNAME":"後龍鎮","MARKTYPE":"991","Class":"1"},"geometry":{"x":228901.99739999976,"y":2723030.4319000002}},{"attributes":{"OBJECTID":17956,"LANDMARKID":"1000500000137","LANDMARKCO":"107","LANDMARKNA":"苗栗縣警察局新港派出所","LANDMARKAD":"1000506","ADDRESS":"苗栗縣後龍鎮復興里建興路111號","TEL":"037-722474","COUNTYNAME":"苗栗縣","TOWNNAME":"後龍鎮","MARKTYPE":"991","Class":"1"},"geometry":{"x":231117.95590000041,"y":2722750.3412999995}},{"attributes":{"OBJECTID":17957,"LANDMARKID":"1000500000138","LANDMARKCO":"107","LANDMARKNA":"苗栗縣警察局後龍分駐所","LANDMARKAD":"1000506","ADDRESS":"苗栗縣後龍鎮中龍里三民路107號","TEL":"037-722520","COUNTYNAME":"苗栗縣","TOWNNAME":"後龍鎮","MARKTYPE":"991","Class":"1"},"geometry":{"x":228375.55209999997,"y":2723010.0598000009}},{"attributes":{"OBJECTID":17958,"LANDMARKID":"1000500000139","LANDMARKCO":"107","LANDMARKNA":"苗栗縣消防局後龍消防分隊","LANDMARKAD":"1000506","ADDRESS":"苗栗縣後龍鎮光華路299號","TEL":"037-722069","COUNTYNAME":"苗栗縣","TOWNNAME":"後龍鎮","MARKTYPE":"991","Class":"1"},"geometry":{"x":228630.6333999997,"y":2722960.0188999996}},{"attributes":{"OBJECTID":17959,"LANDMARKID":"1000500000060","LANDMARKCO":"103","LANDMARKNA":"苗栗縣後龍鎮衛生所","LANDMARKAD":"1000506","ADDRESS":"苗栗縣後龍鎮大庄里中山路156巷21號","TEL":"037-722008","COUNTYNAME":"苗栗縣","TOWNNAME":"後龍鎮","MARKTYPE":"991","Class":"1"},"geometry":{"x":228963.9972000001,"y":2723030.0967999995}},{"attributes":{"OBJECTID":17960,"LANDMARKID":"1000500000199","LANDMARKCO":"108","LANDMARKNA":"苗栗縣後龍鎮公所","LANDMARKAD":"1000506","ADDRESS":"苗栗縣後龍鎮大庄里中山路152號","TEL":"037-721381","COUNTYNAME":"苗栗縣","TOWNNAME":"後龍鎮","MARKTYPE":"991","Class":"1"},"geometry":{"x":228941.56240000017,"y":2723010.0636}},{"attributes":{"OBJECTID":17961,"LANDMARKID":"1000500000061","LANDMARKCO":"103","LANDMARKNA":"苗栗縣後龍鎮民代表會","LANDMARKAD":"1000506","ADDRESS":"苗栗縣後龍鎮中山路146號","TEL":"037-722040","COUNTYNAME":"苗栗縣","TOWNNAME":"後龍鎮","MARKTYPE":"991","Class":"1"},"geometry":{"x":228887.54629999958,"y":2723020.4107000008}},{"attributes":{"OBJECTID":17962,"LANDMARKID":"1000500000144","LANDMARKCO":"107","LANDMARKNA":"苗栗縣警察局大山派出所","LANDMARKAD":"1000506","ADDRESS":"苗栗縣後龍鎮灣寶里5鄰93號","TEL":"037-431764","COUNTYNAME":"苗栗縣","TOWNNAME":"後龍鎮","MARKTYPE":"991","Class":"1"},"geometry":{"x":230903.8041000003,"y":2726860.0418999996}},{"attributes":{"OBJECTID":17963,"LANDMARKID":"1000500000145","LANDMARKCO":"107","LANDMARKNA":"苗栗縣警察局外埔派出所","LANDMARKAD":"1000506","ADDRESS":"苗栗縣後龍鎮海埔里海埔5號","TEL":"037-431361","COUNTYNAME":"苗栗縣","TOWNNAME":"後龍鎮","MARKTYPE":"991","Class":"1"},"geometry":{"x":227478.66000000015,"y":2727240.4223999996}},{"attributes":{"OBJECTID":17964,"LANDMARKID":"1000500000146","LANDMARKCO":"107","LANDMARKNA":"苗栗縣警察局聯港派出所","LANDMARKAD":"1000506","ADDRESS":"苗栗縣後龍鎮津龍里5鄰59號","TEL":"037-450734","COUNTYNAME":"苗栗縣","TOWNNAME":"後龍鎮","MARKTYPE":"991","Class":"1"},"geometry":{"x":225675.50800000038,"y":2722700.2643999998}},{"attributes":{"OBJECTID":17965,"LANDMARKID":"1000500000147","LANDMARKCO":"107","LANDMARKNA":"苗栗縣警察局南勢派出所","LANDMARKAD":"1000506","ADDRESS":"苗栗縣後龍鎮南港里南勢山1鄰15號之10","TEL":"037-921445","COUNTYNAME":"苗栗縣","TOWNNAME":"後龍鎮","MARKTYPE":"991","Class":"1"},"geometry":{"x":227296.8518000003,"y":2719430.1469000001}},{"attributes":{"OBJECTID":17966,"LANDMARKID":"1000500000393","LANDMARKCO":"204","LANDMARKNA":"苗栗縣立圖書館後龍分館","LANDMARKAD":"1000506","ADDRESS":"苗栗縣後龍鎮大庄里中山路142之1號3樓","TEL":" ","COUNTYNAME":"苗栗縣","TOWNNAME":"後龍鎮","MARKTYPE":"992","Class":"2"},"geometry":{"x":228919.84240000043,"y":2723053.5052000005}},{"attributes":{"OBJECTID":17967,"LANDMARKID":"1000500000376","LANDMARKCO":"203","LANDMARKNA":"縣立維真國中","LANDMARKAD":"1000506","ADDRESS":"苗栗縣後龍鎮大庄里中山路252號","TEL":"037-722537","COUNTYNAME":"苗栗縣","TOWNNAME":"後龍鎮","MARKTYPE":"992","Class":"2"},"geometry":{"x":229232.70199999958,"y":2722920.0776000004}},{"attributes":{"OBJECTID":17968,"LANDMARKID":"1000500000377","LANDMARKCO":"203","LANDMARKNA":"縣立後龍國中","LANDMARKAD":"1000506","ADDRESS":"苗栗縣後龍鎮南龍里勝利路250號","TEL":"037-722028","COUNTYNAME":"苗栗縣","TOWNNAME":"後龍鎮","MARKTYPE":"992","Class":"2"},"geometry":{"x":228241.90149999969,"y":2723400.2903000005}},{"attributes":{"OBJECTID":17969,"LANDMARKID":"1000500000378","LANDMARKCO":"203","LANDMARKNA":"縣立後龍國小","LANDMARKAD":"1000506","ADDRESS":"苗栗縣後龍鎮成功路254號","TEL":"037-722049","COUNTYNAME":"苗栗縣","TOWNNAME":"後龍鎮","MARKTYPE":"992","Class":"2"},"geometry":{"x":229349.92229999974,"y":2723080.2512999997}},{"attributes":{"OBJECTID":17970,"LANDMARKID":"1000500000379","LANDMARKCO":"203","LANDMARKNA":"縣立新港國小","LANDMARKAD":"1000506","ADDRESS":"苗栗縣後龍鎮埔頂里頂東路30號","TEL":"037-722547","COUNTYNAME":"苗栗縣","TOWNNAME":"後龍鎮","MARKTYPE":"992","Class":"2"},"geometry":{"x":231716.75930000003,"y":2722900.3792000003}},{"attributes":{"OBJECTID":17971,"LANDMARKID":"1000500000380","LANDMARKCO":"203","LANDMARKNA":"縣立成功國小","LANDMARKAD":"1000506","ADDRESS":"苗栗縣後龍鎮水尾里104之1號","TEL":"037-722211","COUNTYNAME":"苗栗縣","TOWNNAME":"後龍鎮","MARKTYPE":"992","Class":"2"},"geometry":{"x":225934.63520000037,"y":2725090.216}},{"attributes":{"OBJECTID":17972,"LANDMARKID":"1000500000381","LANDMARKCO":"203","LANDMARKNA":"縣立大山國小","LANDMARKAD":"1000506","ADDRESS":"苗栗縣後龍鎮灣寶里109號","TEL":"037-432784","COUNTYNAME":"苗栗縣","TOWNNAME":"後龍鎮","MARKTYPE":"992","Class":"2"},"geometry":{"x":230738.83359999955,"y":2726530.2045000009}},{"attributes":{"OBJECTID":17973,"LANDMARKID":"1000500000382","LANDMARKCO":"203","LANDMARKNA":"縣立龍坑國小","LANDMARKAD":"1000506","ADDRESS":"苗栗縣後龍鎮龍坑里158號","TEL":"037-722027","COUNTYNAME":"苗栗縣","TOWNNAME":"後龍鎮","MARKTYPE":"992","Class":"2"},"geometry":{"x":227546.64900000021,"y":2721710.0888999999}},{"attributes":{"OBJECTID":17974,"LANDMARKID":"1000500000383","LANDMARKCO":"203","LANDMARKNA":"縣立富田國小","LANDMARKAD":"1000506","ADDRESS":"苗栗縣後龍鎮豐富里55號","TEL":"037-722824","COUNTYNAME":"苗栗縣","TOWNNAME":"後龍鎮","MARKTYPE":"992","Class":"2"},"geometry":{"x":232665.83189999964,"y":2721620.1404999997}},{"attributes":{"OBJECTID":17975,"LANDMARKID":"1000500000384","LANDMARKCO":"203","LANDMARKNA":"縣立海寶國小","LANDMARKAD":"1000506","ADDRESS":"苗栗縣後龍鎮海寶里5鄰52之2號","TEL":"037-431235","COUNTYNAME":"苗栗縣","TOWNNAME":"後龍鎮","MARKTYPE":"992","Class":"2"},"geometry":{"x":231910.95349999983,"y":2728290.2518000007}},{"attributes":{"OBJECTID":17976,"LANDMARKID":"1000500000385","LANDMARKCO":"203","LANDMARKNA":"縣立溪洲國小","LANDMARKAD":"1000506","ADDRESS":"苗栗縣後龍鎮溪洲里87之3號","TEL":"037-723853","COUNTYNAME":"苗栗縣","TOWNNAME":"後龍鎮","MARKTYPE":"992","Class":"2"},"geometry":{"x":227411.70139999967,"y":2723830.3223999999}},{"attributes":{"OBJECTID":17977,"LANDMARKID":"1000500000386","LANDMARKCO":"203","LANDMARKNA":"縣立外埔國小","LANDMARKAD":"1000506","ADDRESS":"苗栗縣後龍鎮海埔里8號","TEL":"037-431809","COUNTYNAME":"苗栗縣","TOWNNAME":"後龍鎮","MARKTYPE":"992","Class":"2"},"geometry":{"x":227274.56329999957,"y":2726990.0910999998}},{"attributes":{"OBJECTID":17978,"LANDMARKID":"1000500000387","LANDMARKCO":"203","LANDMARKNA":"縣立中和國小","LANDMARKAD":"1000506","ADDRESS":"苗栗縣後龍鎮中和里14鄰152號","TEL":"037-921451","COUNTYNAME":"苗栗縣","TOWNNAME":"後龍鎮","MARKTYPE":"992","Class":"2"},"geometry":{"x":223163.63740000036,"y":2720150.3376000002}},{"attributes":{"OBJECTID":17979,"LANDMARKID":"1000500000388","LANDMARKCO":"203","LANDMARKNA":"縣立同光國小","LANDMARKAD":"1000506","ADDRESS":"苗栗縣後龍鎮龍津里同興94號","TEL":"037-450738","COUNTYNAME":"苗栗縣","TOWNNAME":"後龍鎮","MARKTYPE":"992","Class":"2"},"geometry":{"x":225891.73670000024,"y":2722570.1491}},{"attributes":{"OBJECTID":17980,"LANDMARKID":"1000500000210","LANDMARKCO":"201","LANDMARKNA":"仁德醫護管理專科學校","LANDMARKAD":"1000506","ADDRESS":"苗栗縣後龍鎮溪洲里砂崙湖79之9號","TEL":"037-722074","COUNTYNAME":"苗栗縣","TOWNNAME":"後龍鎮","MARKTYPE":"992","Class":"2"},"geometry":{"x":227799.60989999957,"y":2723890.0373999998}},{"attributes":{"OBJECTID":17981,"LANDMARKID":"1000500000482","LANDMARKCO":"305","LANDMARKNA":"外埔漁港","LANDMARKAD":"1000506","ADDRESS":"苗栗縣後龍鎮海埔里","TEL":" ","COUNTYNAME":"苗栗縣","TOWNNAME":"後龍鎮","MARKTYPE":"993","Class":"305"},"geometry":{"x":226896.26329999976,"y":2726825.8839999996}},{"attributes":{"OBJECTID":17982,"LANDMARKID":"1000500000483","LANDMARKCO":"305","LANDMARKNA":"龍港漁港","LANDMARKAD":"1000506","ADDRESS":"苗栗縣後龍鎮龍津里","TEL":" ","COUNTYNAME":"苗栗縣","TOWNNAME":"後龍鎮","MARKTYPE":"993","Class":"305"},"geometry":{"x":225265.69699999969,"y":2722971.3633999992}},{"attributes":{"OBJECTID":17983,"LANDMARKID":"1000500000502","LANDMARKCO":"308","LANDMARKNA":"國3-後龍交流道-南下","LANDMARKAD":"1000506","ADDRESS":"苗栗縣後龍鎮","TEL":" ","COUNTYNAME":"苗栗縣","TOWNNAME":"後龍鎮","MARKTYPE":"993","Class":"308"},"geometry":{"x":228169.35659999959,"y":2721130.3061999995}},{"attributes":{"OBJECTID":17984,"LANDMARKID":"1000500000503","LANDMARKCO":"308","LANDMARKNA":"國3-後龍交流道-北上","LANDMARKAD":"1000506","ADDRESS":"苗栗縣後龍鎮","TEL":" ","COUNTYNAME":"苗栗縣","TOWNNAME":"後龍鎮","MARKTYPE":"993","Class":"308"},"geometry":{"x":228622.32579999976,"y":2721619.3983999994}},{"attributes":{"OBJECTID":17985,"LANDMARKID":"1000500000504","LANDMARKCO":"308","LANDMARKNA":"台72-後龍端-東行","LANDMARKAD":"1000506","ADDRESS":" ","TEL":" ","COUNTYNAME":"苗栗縣","TOWNNAME":"後龍鎮","MARKTYPE":"993","Class":"308"},"geometry":{"x":228891.92119999975,"y":2722781.8048}},{"attributes":{"OBJECTID":17986,"LANDMARKID":"1000500000505","LANDMARKCO":"308","LANDMARKNA":"台72-後龍端-東行","LANDMARKAD":"1000506","ADDRESS":" ","TEL":" ","COUNTYNAME":"苗栗縣","TOWNNAME":"後龍鎮","MARKTYPE":"993","Class":"308"},"geometry":{"x":228909.64549999963,"y":2722780.2021999992}},{"attributes":{"OBJECTID":17987,"LANDMARKID":"1000500000506","LANDMARKCO":"308","LANDMARKNA":"台72-造橋交流道-西行","LANDMARKAD":"1000506","ADDRESS":" ","TEL":" ","COUNTYNAME":"苗栗縣","TOWNNAME":"後龍鎮","MARKTYPE":"993","Class":"308"},"geometry":{"x":232081.03980000038,"y":2721408.0651999991}},{"attributes":{"OBJECTID":17988,"LANDMARKID":"1000500000507","LANDMARKCO":"308","LANDMARKNA":"台72-造橋交流道-東行","LANDMARKAD":"1000506","ADDRESS":" ","TEL":" ","COUNTYNAME":"苗栗縣","TOWNNAME":"後龍鎮","MARKTYPE":"993","Class":"308"},"geometry":{"x":232934.76539999992,"y":2720830.1920999996}},{"attributes":{"OBJECTID":17989,"LANDMARKID":"1000500000508","LANDMARKCO":"308","LANDMARKNA":"台61-苗8線平交匝道-北上","LANDMARKAD":"1000506","ADDRESS":" ","TEL":" ","COUNTYNAME":"苗栗縣","TOWNNAME":"後龍鎮","MARKTYPE":"993","Class":"308"},"geometry":{"x":229703.68269999977,"y":2726738.6745999996}},{"attributes":{"OBJECTID":17990,"LANDMARKID":"1000500000509","LANDMARKCO":"308","LANDMARKNA":"台61-苗8線平交匝道-南下","LANDMARKAD":"1000506","ADDRESS":" ","TEL":" ","COUNTYNAME":"苗栗縣","TOWNNAME":"後龍鎮","MARKTYPE":"993","Class":"308"},"geometry":{"x":229245.83349999972,"y":2726450.6405999996}},{"attributes":{"OBJECTID":17991,"LANDMARKID":"1000500000510","LANDMARKCO":"308","LANDMARKNA":"台61-苗11線平交匝道-北上","LANDMARKAD":"1000506","ADDRESS":" ","TEL":" ","COUNTYNAME":"苗栗縣","TOWNNAME":"後龍鎮","MARKTYPE":"993","Class":"308"},"geometry":{"x":228338.91509999987,"y":2725929.0634000003}},{"attributes":{"OBJECTID":17992,"LANDMARKID":"1000500000511","LANDMARKCO":"308","LANDMARKNA":"台61-苗11線平交匝道-南下","LANDMARKAD":"1000506","ADDRESS":" ","TEL":" ","COUNTYNAME":"苗栗縣","TOWNNAME":"後龍鎮","MARKTYPE":"993","Class":"308"},"geometry":{"x":227830.20949999988,"y":2725428.7024000008}},{"attributes":{"OBJECTID":17993,"LANDMARKID":"1000500000512","LANDMARKCO":"308","LANDMARKNA":"台61-溪洲交流道-南下","LANDMARKAD":"1000506","ADDRESS":" ","TEL":" ","COUNTYNAME":"苗栗縣","TOWNNAME":"後龍鎮","MARKTYPE":"993","Class":"308"},"geometry":{"x":226820.67929999996,"y":2724066.1899999995}},{"attributes":{"OBJECTID":17994,"LANDMARKID":"1000500000513","LANDMARKCO":"308","LANDMARKNA":"台61-溪洲交流道-北上","LANDMARKAD":"1000506","ADDRESS":" ","TEL":" ","COUNTYNAME":"苗栗縣","TOWNNAME":"後龍鎮","MARKTYPE":"993","Class":"308"},"geometry":{"x":227252.0262000002,"y":2724563.3040999994}},{"attributes":{"OBJECTID":17995,"LANDMARKID":"1000500000514","LANDMARKCO":"308","LANDMARKNA":"台61-後龍交流道-南下","LANDMARKAD":"1000506","ADDRESS":" ","TEL":" ","COUNTYNAME":"苗栗縣","TOWNNAME":"後龍鎮","MARKTYPE":"993","Class":"308"},"geometry":{"x":225382.26180000044,"y":2722711.4824999999}},{"attributes":{"OBJECTID":17996,"LANDMARKID":"1000500000515","LANDMARKCO":"308","LANDMARKNA":"台61-後龍交流道匝道-北上","LANDMARKAD":"1000506","ADDRESS":" ","TEL":" ","COUNTYNAME":"苗栗縣","TOWNNAME":"後龍鎮","MARKTYPE":"993","Class":"308"},"geometry":{"x":225778.86880000029,"y":2722761.2681000009}},{"attributes":{"OBJECTID":17997,"LANDMARKID":"1000500000516","LANDMARKCO":"308","LANDMARKNA":"台61-後龍交流道匝道-南下","LANDMARKAD":"1000506","ADDRESS":" ","TEL":" ","COUNTYNAME":"苗栗縣","TOWNNAME":"後龍鎮","MARKTYPE":"993","Class":"308"},"geometry":{"x":225004.03699999955,"y":2722643.7334000003}},{"attributes":{"OBJECTID":17998,"LANDMARKID":"1000500000517","LANDMARKCO":"308","LANDMARKNA":"台61-後龍交流道-北上","LANDMARKAD":"1000506","ADDRESS":" ","TEL":" ","COUNTYNAME":"苗栗縣","TOWNNAME":"後龍鎮","MARKTYPE":"993","Class":"308"},"geometry":{"x":225433.01750000007,"y":2722642.6824999992}},{"attributes":{"OBJECTID":17999,"LANDMARKID":"1000500000518","LANDMARKCO":"308","LANDMARKNA":"台61-赤土崎交流道-北上","LANDMARKAD":"1000506","ADDRESS":" ","TEL":" ","COUNTYNAME":"苗栗縣","TOWNNAME":"後龍鎮","MARKTYPE":"993","Class":"308"},"geometry":{"x":222987.10419999994,"y":2720480.1436000001}},{"attributes":{"OBJECTID":18000,"LANDMARKID":"1000500000519","LANDMARKCO":"308","LANDMARKNA":"台61-赤土崎交流道-南下","LANDMARKAD":"1000506","ADDRESS":" ","TEL":" ","COUNTYNAME":"苗栗縣","TOWNNAME":"後龍鎮","MARKTYPE":"993","Class":"308"},"geometry":{"x":222441.55680000037,"y":2719878.6859000009}}]}