{"displayFieldName":"COUNTYNAME","fieldAliases":{"OBJECTID":"OBJECTID","LANDMARKID":"LANDMARKID","LANDMARKCO":"LANDMARKCO","LANDMARKNA":"LANDMARKNA","LANDMARKAD":"LANDMARKAD","ADDRESS":"ADDRESS","TEL":"TEL","COUNTYNAME":"COUNTYNAME","TOWNNAME":"TOWNNAME","MARKTYPE":"MARKTYPE","Class":"Class"},"geometryType":"esriGeometryPoint","spatialReference":{"wkid":102443},"fields":[{"name":"OBJECTID","type":"esriFieldTypeOID","alias":"OBJECTID"},{"name":"LANDMARKID","type":"esriFieldTypeString","alias":"LANDMARKID","length":15},{"name":"LANDMARKCO","type":"esriFieldTypeString","alias":"LANDMARKCO","length":15},{"name":"LANDMARKNA","type":"esriFieldTypeString","alias":"LANDMARKNA","length":50},{"name":"LANDMARKAD","type":"esriFieldTypeString","alias":"LANDMARKAD","length":15},{"name":"ADDRESS","type":"esriFieldTypeString","alias":"ADDRESS","length":56},{"name":"TEL","type":"esriFieldTypeString","alias":"TEL","length":36},{"name":"COUNTYNAME","type":"esriFieldTypeString","alias":"COUNTYNAME","length":15},{"name":"TOWNNAME","type":"esriFieldTypeString","alias":"TOWNNAME","length":13},{"name":"MARKTYPE","type":"esriFieldTypeString","alias":"MARKTYPE","length":12},{"name":"Class","type":"esriFieldTypeString","alias":"Class","length":5}],"features":[{"attributes":{"OBJECTID":7601,"LANDMARKID":"6300000000985","LANDMARKCO":"303","LANDMARKNA":"高能駐車停車場","LANDMARKAD":"6300004","ADDRESS":"台北市中山區林森北路107巷28號","TEL":" ","COUNTYNAME":"台北市","TOWNNAME":"中山區","MARKTYPE":"993","Class":"303"},"geometry":{"x":303066.41700000037,"y":2771420.3897999991}},{"attributes":{"OBJECTID":7602,"LANDMARKID":"6300000000986","LANDMARKCO":"303","LANDMARKNA":"國賓大飯店停車場","LANDMARKAD":"6300004","ADDRESS":"台北市中山區中山北路二段63號","TEL":" ","COUNTYNAME":"台北市","TOWNNAME":"中山區","MARKTYPE":"993","Class":"303"},"geometry":{"x":302772.80640000012,"y":2772174.3363000005}},{"attributes":{"OBJECTID":7603,"LANDMARKID":"6300000000987","LANDMARKCO":"303","LANDMARKNA":"第二邱大樓停車場","LANDMARKAD":"6300004","ADDRESS":"台北市中山區南京西路1號B2","TEL":" ","COUNTYNAME":"台北市","TOWNNAME":"中山區","MARKTYPE":"993","Class":"303"},"geometry":{"x":302680.29420000035,"y":2771689.4748999998}},{"attributes":{"OBJECTID":7604,"LANDMARKID":"6300000000988","LANDMARKCO":"303","LANDMARKNA":"敦煌路平面停車場","LANDMARKAD":"6300004","ADDRESS":"台北市中山區兒童育樂中心旁","TEL":" ","COUNTYNAME":"台北市","TOWNNAME":"中山區","MARKTYPE":"993","Class":"303"},"geometry":{"x":302570.18530000001,"y":2774151.7043999992}},{"attributes":{"OBJECTID":7605,"LANDMARKID":"6300000000989","LANDMARKCO":"303","LANDMARKNA":"森北停車場","LANDMARKAD":"6300004","ADDRESS":"台北市中山區正義段二小段222號","TEL":" ","COUNTYNAME":"台北市","TOWNNAME":"中山區","MARKTYPE":"993","Class":"303"},"geometry":{"x":305496.96659999993,"y":2775436.5510000009}},{"attributes":{"OBJECTID":7606,"LANDMARKID":"6300000000990","LANDMARKCO":"303","LANDMARKNA":"華泰大飯店停車場","LANDMARKAD":"6300004","ADDRESS":"台北市中山區林森北路369號","TEL":" ","COUNTYNAME":"台北市","TOWNNAME":"中山區","MARKTYPE":"993","Class":"303"},"geometry":{"x":303040.67339999974,"y":2772276.4669000003}},{"attributes":{"OBJECTID":7607,"LANDMARKID":"6300000000991","LANDMARKCO":"303","LANDMARKNA":"華德停車場","LANDMARKAD":"6300004","ADDRESS":"台北市中山區林森北路575號B1","TEL":" ","COUNTYNAME":"台北市","TOWNNAME":"中山區","MARKTYPE":"993","Class":"303"},"geometry":{"x":303055.72009999957,"y":2773090.7186999992}},{"attributes":{"OBJECTID":7608,"LANDMARKID":"6300000000992","LANDMARKCO":"303","LANDMARKNA":"貴族停車場","LANDMARKAD":"6300004","ADDRESS":"台北市中山區松江路26巷8號","TEL":" ","COUNTYNAME":"台北市","TOWNNAME":"中山區","MARKTYPE":"993","Class":"303"},"geometry":{"x":303714.44890000019,"y":2771088.6982000005}},{"attributes":{"OBJECTID":7609,"LANDMARKID":"6300000000993","LANDMARKCO":"303","LANDMARKNA":"進安公園地下停車場","LANDMARKAD":"6300004","ADDRESS":"台北市中山區八德路二段158號","TEL":" ","COUNTYNAME":"台北市","TOWNNAME":"中山區","MARKTYPE":"993","Class":"303"},"geometry":{"x":304271.54090000037,"y":2770989.8234000001}},{"attributes":{"OBJECTID":7610,"LANDMARKID":"6300000000994","LANDMARKCO":"303","LANDMARKNA":"愛馬屋P1停車場","LANDMARKAD":"6300004","ADDRESS":"台北市中山區南京東路二段41巷3弄6號","TEL":" ","COUNTYNAME":"台北市","TOWNNAME":"中山區","MARKTYPE":"993","Class":"303"},"geometry":{"x":303435.85219999962,"y":2771740.6348999999}},{"attributes":{"OBJECTID":7611,"LANDMARKID":"6300000000995","LANDMARKCO":"303","LANDMARKNA":"愛馬屋P2停車場","LANDMARKAD":"6300004","ADDRESS":"台北市中山區松江路204巷26號","TEL":" ","COUNTYNAME":"台北市","TOWNNAME":"中山區","MARKTYPE":"993","Class":"303"},"geometry":{"x":303676.62210000027,"y":2772237.2512999997}},{"attributes":{"OBJECTID":7612,"LANDMARKID":"6300000000996","LANDMARKCO":"303","LANDMARKNA":"新生公園廣場停車場","LANDMARKAD":"6300004","ADDRESS":"台北市中山區","TEL":" ","COUNTYNAME":"台北市","TOWNNAME":"中山區","MARKTYPE":"993","Class":"303"},"geometry":{"x":303670.06599999964,"y":2772239.5632000007}},{"attributes":{"OBJECTID":7613,"LANDMARKID":"6300000000997","LANDMARKCO":"303","LANDMARKNA":"新生北路高架橋下停車場","LANDMARKAD":"6300004","ADDRESS":"台北市中山區新生高架橋下停車場市民大道與民族東路間","TEL":" ","COUNTYNAME":"台北市","TOWNNAME":"中山區","MARKTYPE":"993","Class":"303"},"geometry":{"x":303480.67379999999,"y":2771175.9057}},{"attributes":{"OBJECTID":7614,"LANDMARKID":"6300000000998","LANDMARKCO":"303","LANDMARKNA":"新光三越百貨附設停車場","LANDMARKAD":"6300004","ADDRESS":"台北市中山區南京西路12號","TEL":" ","COUNTYNAME":"台北市","TOWNNAME":"中山區","MARKTYPE":"993","Class":"303"},"geometry":{"x":302595.91480000038,"y":2771674.2343000006}},{"attributes":{"OBJECTID":7615,"LANDMARKID":"6300000000999","LANDMARKCO":"303","LANDMARKNA":"新光中山停車場","LANDMARKAD":"6300004","ADDRESS":"台北市中山區中山北路二段44號B2","TEL":" ","COUNTYNAME":"台北市","TOWNNAME":"中山區","MARKTYPE":"993","Class":"303"},"geometry":{"x":302719.17700000014,"y":2771993.6264999993}},{"attributes":{"OBJECTID":7616,"LANDMARKID":"6300000001000","LANDMARKCO":"303","LANDMARKNA":"新長越公司民生西路停車場","LANDMARKAD":"6300004","ADDRESS":"台北市中山區民生西路16號B1","TEL":" ","COUNTYNAME":"台北市","TOWNNAME":"中山區","MARKTYPE":"993","Class":"303"},"geometry":{"x":302676.20830000006,"y":2772267.0376999993}},{"attributes":{"OBJECTID":7617,"LANDMARKID":"6300000001001","LANDMARKCO":"303","LANDMARKNA":"新長越公司長安東路停車場","LANDMARKAD":"6300004","ADDRESS":"台北市中山區長安東路二段178號B1","TEL":" ","COUNTYNAME":"台北市","TOWNNAME":"中山區","MARKTYPE":"993","Class":"303"},"geometry":{"x":304548.2424999997,"y":2771220.6440999992}},{"attributes":{"OBJECTID":7618,"LANDMARKID":"6300000001002","LANDMARKCO":"303","LANDMARKNA":"萬通商業大樓停車場","LANDMARKAD":"6300004","ADDRESS":"台北市中山區松江路200號B1","TEL":" ","COUNTYNAME":"台北市","TOWNNAME":"中山區","MARKTYPE":"993","Class":"303"},"geometry":{"x":303767.2603000002,"y":2772225.7960000001}},{"attributes":{"OBJECTID":7619,"LANDMARKID":"6300000001003","LANDMARKCO":"303","LANDMARKNA":"萬萬電腦收費停車場","LANDMARKAD":"6300004","ADDRESS":"台北市中山區中山北路三段25號B1","TEL":" ","COUNTYNAME":"台北市","TOWNNAME":"中山區","MARKTYPE":"993","Class":"303"},"geometry":{"x":302715.47109999973,"y":2773102.3420000002}},{"attributes":{"OBJECTID":7620,"LANDMARKID":"6300000001004","LANDMARKCO":"303","LANDMARKNA":"中興嘟嘟房停車場-民權站","LANDMARKAD":"6300004","ADDRESS":"台北市中山區民權東路二段92巷2弄5號","TEL":" ","COUNTYNAME":"台北市","TOWNNAME":"中山區","MARKTYPE":"993","Class":"303"},"geometry":{"x":303642.49700000044,"y":2772727.4985000007}},{"attributes":{"OBJECTID":7621,"LANDMARKID":"6300000001005","LANDMARKCO":"303","LANDMARKNA":"中興嘟嘟房停車場-伊通站","LANDMARKAD":"6300004","ADDRESS":"台北市中山區建國北路一段50巷25號","TEL":" ","COUNTYNAME":"台北市","TOWNNAME":"中山區","MARKTYPE":"993","Class":"303"},"geometry":{"x":304004.78679999989,"y":2771194.3369999994}},{"attributes":{"OBJECTID":7622,"LANDMARKID":"6300000001006","LANDMARKCO":"303","LANDMARKNA":"中興嘟嘟房停車場-松江站","LANDMARKAD":"6300004","ADDRESS":"台北市中山區松江路93巷1之1號","TEL":" ","COUNTYNAME":"台北市","TOWNNAME":"中山區","MARKTYPE":"993","Class":"303"},"geometry":{"x":303830.24729999993,"y":2771497.3805}},{"attributes":{"OBJECTID":7623,"LANDMARKID":"6300000001007","LANDMARKCO":"303","LANDMARKNA":"中興嘟嘟房停車場-國賓站停車場","LANDMARKAD":"6300004","ADDRESS":"台北市中山區中山北路二段65巷10號","TEL":" ","COUNTYNAME":"台北市","TOWNNAME":"中山區","MARKTYPE":"993","Class":"303"},"geometry":{"x":302871.77950000018,"y":2772189.8511999995}},{"attributes":{"OBJECTID":7624,"LANDMARKID":"6300000001008","LANDMARKCO":"303","LANDMARKNA":"中興嘟嘟房停車場-農安站","LANDMARKAD":"6300004","ADDRESS":"台北市中山區民權東路二段135巷30弄1號","TEL":"(02)2515-8794","COUNTYNAME":"台北市","TOWNNAME":"中山區","MARKTYPE":"993","Class":"303"},"geometry":{"x":303966.09439999983,"y":2773005.1817000005}},{"attributes":{"OBJECTID":7625,"LANDMARKID":"6300000001009","LANDMARKCO":"303","LANDMARKNA":"撫順街臨時停車場","LANDMARKAD":"6300004","ADDRESS":"台北市中山區中山段二小段89地號","TEL":" ","COUNTYNAME":"台北市","TOWNNAME":"中山區","MARKTYPE":"993","Class":"303"},"geometry":{"x":305496.75879999995,"y":2775436.3618000001}},{"attributes":{"OBJECTID":7626,"LANDMARKID":"6300000001010","LANDMARKCO":"303","LANDMARKNA":"歐華酒店附設停車場","LANDMARKAD":"6300004","ADDRESS":"台北市中山區林森北路646號","TEL":" ","COUNTYNAME":"台北市","TOWNNAME":"中山區","MARKTYPE":"993","Class":"303"},"geometry":{"x":303027.45199999958,"y":2773425.4492000006}},{"attributes":{"OBJECTID":7627,"LANDMARKID":"6300000001011","LANDMARKCO":"303","LANDMARKNA":"誼通天祥停車場","LANDMARKAD":"6300004","ADDRESS":"台北市中山區中山段二小段41地號","TEL":" ","COUNTYNAME":"台北市","TOWNNAME":"中山區","MARKTYPE":"993","Class":"303"},"geometry":{"x":305496.59250000026,"y":2775436.1834999993}},{"attributes":{"OBJECTID":7628,"LANDMARKID":"6300000001012","LANDMARKCO":"303","LANDMARKNA":"興南吉發商業大樓停車場","LANDMARKAD":"6300004","ADDRESS":"台北市中山區中山北路三段11號B3樓","TEL":" ","COUNTYNAME":"台北市","TOWNNAME":"中山區","MARKTYPE":"993","Class":"303"},"geometry":{"x":302723.64680000022,"y":2772986.1969000008}},{"attributes":{"OBJECTID":7629,"LANDMARKID":"6300000001013","LANDMARKCO":"303","LANDMARKNA":"遼寧街、龍江路口平面停車場","LANDMARKAD":"6300004","ADDRESS":"台北市中山區遼寧街","TEL":" ","COUNTYNAME":"台北市","TOWNNAME":"中山區","MARKTYPE":"993","Class":"303"},"geometry":{"x":304687.67200000025,"y":2771975.3750999998}},{"attributes":{"OBJECTID":7630,"LANDMARKID":"6300000001014","LANDMARKCO":"303","LANDMARKNA":"龍江站停車場","LANDMARKAD":"6300004","ADDRESS":"台北市中山區新生高架橋下停車場市民大道與民族東路間","TEL":" ","COUNTYNAME":"台北市","TOWNNAME":"中山區","MARKTYPE":"993","Class":"303"},"geometry":{"x":304523.74670000002,"y":2771923.6501000002}},{"attributes":{"OBJECTID":7631,"LANDMARKID":"6300000001015","LANDMARKCO":"303","LANDMARKNA":"濱江橋下停車場","LANDMARKAD":"6300004","ADDRESS":"台北市中山區濱江街248號對面介於濱江街180巷及大直橋","TEL":" ","COUNTYNAME":"台北市","TOWNNAME":"中山區","MARKTYPE":"993","Class":"303"},"geometry":{"x":304497.32749999966,"y":2773946.7083999999}},{"attributes":{"OBJECTID":7632,"LANDMARKID":"6300000001016","LANDMARKCO":"303","LANDMARKNA":"麗晶停車場","LANDMARKAD":"6300004","ADDRESS":"台北市中山區中山北路二段39巷3號B3","TEL":" ","COUNTYNAME":"台北市","TOWNNAME":"中山區","MARKTYPE":"993","Class":"303"},"geometry":{"x":302989.6950000003,"y":2771859.9459000006}},{"attributes":{"OBJECTID":7633,"LANDMARKID":"6300000001017","LANDMARKCO":"303","LANDMARKNA":"寶馬行宮NO.2停車場","LANDMARKAD":"6300004","ADDRESS":"台北市中山區吉林路200巷5號","TEL":" ","COUNTYNAME":"台北市","TOWNNAME":"中山區","MARKTYPE":"993","Class":"303"},"geometry":{"x":303453.73060000036,"y":2772369.9276999999}},{"attributes":{"OBJECTID":7634,"LANDMARKID":"6300000001018","LANDMARKCO":"303","LANDMARKNA":"新協和大樓停車場","LANDMARKAD":"6300004","ADDRESS":"台北市大安區復興南路一段2號","TEL":" ","COUNTYNAME":"台北市","TOWNNAME":"中山區","MARKTYPE":"993","Class":"303"},"geometry":{"x":304861.88779999968,"y":2771112.0549999997}},{"attributes":{"OBJECTID":7635,"LANDMARKID":"6300000001019","LANDMARKCO":"303","LANDMARKNA":"美僑協會平面停車場","LANDMARKAD":"6300004","ADDRESS":"台北市中山區北安路73號(圓山飯店旁)","TEL":" ","COUNTYNAME":"台北市","TOWNNAME":"中山區","MARKTYPE":"993","Class":"303"},"geometry":{"x":303321.76989999972,"y":2774517.8848999999}},{"attributes":{"OBJECTID":7636,"LANDMARKID":"6300000001020","LANDMARKCO":"303","LANDMARKNA":"延吉停車場","LANDMARKAD":"6300004","ADDRESS":"台北市大安區仁愛段三小段338地號","TEL":" ","COUNTYNAME":"台北市","TOWNNAME":"中山區","MARKTYPE":"993","Class":"303"},"geometry":{"x":304181.73469999991,"y":2770856.3816999998}},{"attributes":{"OBJECTID":7637,"LANDMARKID":"6300000001021","LANDMARKCO":"303","LANDMARKNA":"學府停車場","LANDMARKAD":"6300004","ADDRESS":"台北市大安區學府段三小段182地號","TEL":" ","COUNTYNAME":"台北市","TOWNNAME":"中山區","MARKTYPE":"993","Class":"303"},"geometry":{"x":304183.30159999989,"y":2770854.6691999994}},{"attributes":{"OBJECTID":7638,"LANDMARKID":"6300000001022","LANDMARKCO":"303","LANDMARKNA":"應安停車場-民生場","LANDMARKAD":"6300004","ADDRESS":"台北市松山區民生東路三段73巷14號","TEL":"0980-933205","COUNTYNAME":"台北市","TOWNNAME":"中山區","MARKTYPE":"993","Class":"303"},"geometry":{"x":304840.83559999987,"y":2772448.4354999997}},{"attributes":{"OBJECTID":7639,"LANDMARKID":"6300000001023","LANDMARKCO":"303","LANDMARKNA":"應安停車場-僑信場","LANDMARKAD":"6300004","ADDRESS":"台北市新生北路二段68巷9號B1~B6","TEL":"0980-933205","COUNTYNAME":"台北市","TOWNNAME":"中山區","MARKTYPE":"993","Class":"303"},"geometry":{"x":303093.82270000037,"y":2772149.6055999994}},{"attributes":{"OBJECTID":7640,"LANDMARKID":"6300000001024","LANDMARKCO":"303","LANDMARKNA":"應安停車場-中山場","LANDMARKAD":"6300004","ADDRESS":"台北市中山區中山北路一段83巷12號","TEL":"0980-933205","COUNTYNAME":"台北市","TOWNNAME":"中山區","MARKTYPE":"993","Class":"303"},"geometry":{"x":302760.41459999979,"y":2771461.8849999998}},{"attributes":{"OBJECTID":7641,"LANDMARKID":"6300000001025","LANDMARKCO":"303","LANDMARKNA":"應安停車場-林森場","LANDMARKAD":"6300004","ADDRESS":"台北市中山區林森北路289號","TEL":"0980-933205","COUNTYNAME":"台北市","TOWNNAME":"中山區","MARKTYPE":"993","Class":"303"},"geometry":{"x":303027.31579999998,"y":2772031.7509000003}},{"attributes":{"OBJECTID":7642,"LANDMARKID":"6300000001026","LANDMARKCO":"303","LANDMARKNA":"應安停車場-吉林場","LANDMARKAD":"6300004","ADDRESS":"台北市中山區吉林路8巷2號","TEL":"0980-933205","COUNTYNAME":"台北市","TOWNNAME":"中山區","MARKTYPE":"993","Class":"303"},"geometry":{"x":303465.51080000028,"y":2771359.3863999993}},{"attributes":{"OBJECTID":7643,"LANDMARKID":"6300000001027","LANDMARKCO":"303","LANDMARKNA":"應安停車場-長春場","LANDMARKAD":"6300004","ADDRESS":"台北市中山區長春路與遼寧街交叉口","TEL":"0980-933205","COUNTYNAME":"台北市","TOWNNAME":"中山區","MARKTYPE":"993","Class":"303"},"geometry":{"x":304689.43589999992,"y":2771931.9342}},{"attributes":{"OBJECTID":7644,"LANDMARKID":"6300000001028","LANDMARKCO":"303","LANDMARKNA":"應安停車場-龍江場","LANDMARKAD":"6300004","ADDRESS":"台北市中山區龍江路151號","TEL":"0980-933205","COUNTYNAME":"台北市","TOWNNAME":"中山區","MARKTYPE":"993","Class":"303"},"geometry":{"x":304527.99629999977,"y":2771870.8906999994}},{"attributes":{"OBJECTID":7645,"LANDMARKID":"6300000001029","LANDMARKCO":"303","LANDMARKNA":"永固停車場-松江站","LANDMARKAD":"6300004","ADDRESS":"台北市中山區松江路336號","TEL":"02-25651009","COUNTYNAME":"台北市","TOWNNAME":"中山區","MARKTYPE":"993","Class":"303"},"geometry":{"x":303770.43740000017,"y":2772684.3541000001}},{"attributes":{"OBJECTID":7646,"LANDMARKID":"6300000001030","LANDMARKCO":"303","LANDMARKNA":"永固停車場-南京站","LANDMARKAD":"6300004","ADDRESS":"台北市中山區建國北路二段3巷17號B2~4","TEL":"02-25171031","COUNTYNAME":"台北市","TOWNNAME":"中山區","MARKTYPE":"993","Class":"303"},"geometry":{"x":304262.54119999986,"y":2771714.4836999997}},{"attributes":{"OBJECTID":7647,"LANDMARKID":"6300000001031","LANDMARKCO":"303","LANDMARKNA":"永固停車場-環泥站","LANDMARKAD":"6300004","ADDRESS":"台北市中山區龍江路120巷9號B1~3","TEL":" ","COUNTYNAME":"台北市","TOWNNAME":"中山區","MARKTYPE":"993","Class":"303"},"geometry":{"x":304485.92109999992,"y":2771808.6403999999}},{"attributes":{"OBJECTID":7648,"LANDMARKID":"6300000001032","LANDMARKCO":"303","LANDMARKNA":"永固停車場-建國站","LANDMARKAD":"6300004","ADDRESS":"台北市中山區建國北路二段11巷內空地","TEL":"02-25048176","COUNTYNAME":"台北市","TOWNNAME":"中山區","MARKTYPE":"993","Class":"303"},"geometry":{"x":304242.7527999999,"y":2771820.1542000007}},{"attributes":{"OBJECTID":7649,"LANDMARKID":"6300000001033","LANDMARKCO":"303","LANDMARKNA":"永固停車場-長安二","LANDMARKAD":"6300004","ADDRESS":"台北市中山區長安東路一段30巷巷口空地","TEL":"02-25362023","COUNTYNAME":"台北市","TOWNNAME":"中山區","MARKTYPE":"993","Class":"303"},"geometry":{"x":303099.1277999999,"y":2771269.7943999991}},{"attributes":{"OBJECTID":7650,"LANDMARKID":"6300000001034","LANDMARKCO":"303","LANDMARKNA":"永固停車場-建國三","LANDMARKAD":"6300004","ADDRESS":"台北市建國北路一段90號地下2.3.4樓","TEL":"02-25157413","COUNTYNAME":"台北市","TOWNNAME":"中山區","MARKTYPE":"993","Class":"303"},"geometry":{"x":304121.18630000018,"y":2771416.6347000003}},{"attributes":{"OBJECTID":7651,"LANDMARKID":"6300000001035","LANDMARKCO":"303","LANDMARKNA":"永固停車場-長安三","LANDMARKAD":"6300004","ADDRESS":"台北市長安東路一段57號空地","TEL":"02-25817957","COUNTYNAME":"台北市","TOWNNAME":"中山區","MARKTYPE":"993","Class":"303"},"geometry":{"x":303163.30279999971,"y":2771285.0800999999}},{"attributes":{"OBJECTID":7652,"LANDMARKID":"6300000001036","LANDMARKCO":"303","LANDMARKNA":"永固停車場-長春二","LANDMARKAD":"6300004","ADDRESS":"台北市中山區長春路206號之1旁空地","TEL":" ","COUNTYNAME":"台北市","TOWNNAME":"中山區","MARKTYPE":"993","Class":"303"},"geometry":{"x":304105.73099999968,"y":2771939.3380999994}},{"attributes":{"OBJECTID":7653,"LANDMARKID":"6300000001037","LANDMARKCO":"303","LANDMARKNA":"永固停車場-中山站","LANDMARKAD":"6300004","ADDRESS":"台北市中山區中山北路2段89號","TEL":"02-25816061","COUNTYNAME":"台北市","TOWNNAME":"中山區","MARKTYPE":"993","Class":"303"},"geometry":{"x":302777.93429999985,"y":2772415.7982999999}},{"attributes":{"OBJECTID":7654,"LANDMARKID":"6300000001038","LANDMARKCO":"303","LANDMARKNA":"永固停車場-內湖三","LANDMARKAD":"6300004","ADDRESS":"台北市內湖區內湖路1段288巷巷口空地","TEL":" ","COUNTYNAME":"台北市","TOWNNAME":"中山區","MARKTYPE":"993","Class":"303"},"geometry":{"x":306577.62799999956,"y":2774964.6821999997}},{"attributes":{"OBJECTID":7655,"LANDMARKID":"6300000001039","LANDMARKCO":"303","LANDMARKNA":"Times(普客二四停車場)-行天宮停車場","LANDMARKAD":"6300004","ADDRESS":"北市中山區民權東路2段135巷17號旁","TEL":" ","COUNTYNAME":"台北市","TOWNNAME":"中山區","MARKTYPE":"993","Class":"303"},"geometry":{"x":303983.21380000003,"y":2772969.2383999992}},{"attributes":{"OBJECTID":7656,"LANDMARKID":"6300000001040","LANDMARKCO":"303","LANDMARKNA":"Times(普客二四停車場)-雙城街停車場","LANDMARKAD":"6300004","ADDRESS":"北市中山區雙城街13巷20之1號旁","TEL":" ","COUNTYNAME":"台北市","TOWNNAME":"中山區","MARKTYPE":"993","Class":"303"},"geometry":{"x":302924.87229999993,"y":2772975.6081000008}},{"attributes":{"OBJECTID":7657,"LANDMARKID":"6300000001041","LANDMARKCO":"303","LANDMARKNA":"Times(普客二四停車場)-南京東路停車場","LANDMARKAD":"6300004","ADDRESS":"台北市中山區南京東路一段118號旁","TEL":" ","COUNTYNAME":"台北市","TOWNNAME":"中山區","MARKTYPE":"993","Class":"303"},"geometry":{"x":303143.53890000004,"y":2771630.1148000006}},{"attributes":{"OBJECTID":7658,"LANDMARKID":"6300000001042","LANDMARKCO":"303","LANDMARKNA":"Times(普客二四停車場)-長安東路停車場","LANDMARKAD":"6300004","ADDRESS":"台北市中山區長安東路2段168號旁空地","TEL":" ","COUNTYNAME":"台北市","TOWNNAME":"中山區","MARKTYPE":"993","Class":"303"},"geometry":{"x":304454.47310000006,"y":2771223.4649999999}},{"attributes":{"OBJECTID":7659,"LANDMARKID":"6300000001043","LANDMARKCO":"303","LANDMARKNA":"Times(普客二四停車場)-德惠街停車場","LANDMARKAD":"6300004","ADDRESS":"台北市雙城街38號旁","TEL":" ","COUNTYNAME":"台北市","TOWNNAME":"中山區","MARKTYPE":"993","Class":"303"},"geometry":{"x":302887.45990000013,"y":2773285.8629999999}},{"attributes":{"OBJECTID":7660,"LANDMARKID":"6300000001044","LANDMARKCO":"303","LANDMARKNA":"Times(普客二四停車場)-林森北路停車場","LANDMARKAD":"6300004","ADDRESS":"台北市新生北路68巷24號旁","TEL":" ","COUNTYNAME":"台北市","TOWNNAME":"中山區","MARKTYPE":"993","Class":"303"},"geometry":{"x":303092.85489999969,"y":2773204.4276000001}},{"attributes":{"OBJECTID":7661,"LANDMARKID":"6300000001045","LANDMARKCO":"303","LANDMARKNA":"台灣聯通停車場-華國場","LANDMARKAD":"6300004","ADDRESS":"台北市雙城街25巷13號","TEL":" ","COUNTYNAME":"台北市","TOWNNAME":"中山區","MARKTYPE":"993","Class":"303"},"geometry":{"x":303003.56680000015,"y":2773220.2671000008}},{"attributes":{"OBJECTID":7662,"LANDMARKID":"6300000001046","LANDMARKCO":"303","LANDMARKNA":"台灣聯通停車場-松江場","LANDMARKAD":"6300004","ADDRESS":"台北市松江路111號","TEL":" ","COUNTYNAME":"台北市","TOWNNAME":"中山區","MARKTYPE":"993","Class":"303"},"geometry":{"x":303801.41930000018,"y":2771567.1710999999}},{"attributes":{"OBJECTID":7663,"LANDMARKID":"6300000001047","LANDMARKCO":"303","LANDMARKNA":"台灣聯通停車場-亞都場","LANDMARKAD":"6300004","ADDRESS":"台北市錦州街175巷11號","TEL":" ","COUNTYNAME":"台北市","TOWNNAME":"中山區","MARKTYPE":"993","Class":"303"},"geometry":{"x":303565.42310000025,"y":2772679.3696999997}},{"attributes":{"OBJECTID":7664,"LANDMARKID":"6300000001048","LANDMARKCO":"303","LANDMARKNA":"台灣聯通停車場-吉林場","LANDMARKAD":"6300004","ADDRESS":"台北市吉林路95號","TEL":" ","COUNTYNAME":"台北市","TOWNNAME":"中山區","MARKTYPE":"993","Class":"303"},"geometry":{"x":303501.04430000018,"y":2772086.2304999996}},{"attributes":{"OBJECTID":7665,"LANDMARKID":"6300000001049","LANDMARKCO":"303","LANDMARKNA":"台灣聯通停車場-林森場","LANDMARKAD":"6300004","ADDRESS":"台北市錦州街46、48、50號B1、B2","TEL":" ","COUNTYNAME":"台北市","TOWNNAME":"中山區","MARKTYPE":"993","Class":"303"},"geometry":{"x":303122.69249999989,"y":2772543.9313999992}},{"attributes":{"OBJECTID":7666,"LANDMARKID":"6300000001050","LANDMARKCO":"303","LANDMARKNA":"台灣聯通停車場-南京場","LANDMARKAD":"6300004","ADDRESS":"台北市南京東路二段139號B1~B6","TEL":" ","COUNTYNAME":"台北市","TOWNNAME":"中山區","MARKTYPE":"993","Class":"303"},"geometry":{"x":304033.89740000013,"y":2771669.7343000006}},{"attributes":{"OBJECTID":7667,"LANDMARKID":"6300000001051","LANDMARKCO":"303","LANDMARKNA":"台灣聯通停車場-德惠場","LANDMARKAD":"6300004","ADDRESS":"台北市中山北路三段39號B1","TEL":" ","COUNTYNAME":"台北市","TOWNNAME":"中山區","MARKTYPE":"993","Class":"303"},"geometry":{"x":302715.12100000028,"y":2773203.8964000009}},{"attributes":{"OBJECTID":7668,"LANDMARKID":"6300000001052","LANDMARKCO":"303","LANDMARKNA":"台灣聯通停車場-新欣場","LANDMARKAD":"6300004","ADDRESS":"台北市林森北路261、263號B1~B3","TEL":" ","COUNTYNAME":"台北市","TOWNNAME":"中山區","MARKTYPE":"993","Class":"303"},"geometry":{"x":303024.38970000017,"y":2771916.1116000004}},{"attributes":{"OBJECTID":7669,"LANDMARKID":"6300000001053","LANDMARKCO":"303","LANDMARKNA":"台灣聯通停車場-安東場","LANDMARKAD":"6300004","ADDRESS":"台北市安東街8號","TEL":" ","COUNTYNAME":"台北市","TOWNNAME":"中山區","MARKTYPE":"993","Class":"303"},"geometry":{"x":304675.57540000044,"y":2770968.3829999994}},{"attributes":{"OBJECTID":7670,"LANDMARKID":"6300000001054","LANDMARKCO":"303","LANDMARKNA":"台灣聯通停車場-長春場","LANDMARKAD":"6300004","ADDRESS":"台北市長春路21號B1","TEL":" ","COUNTYNAME":"台北市","TOWNNAME":"中山區","MARKTYPE":"993","Class":"303"},"geometry":{"x":302883.9375,"y":2771979.2709999997}},{"attributes":{"OBJECTID":7671,"LANDMARKID":"6300000001055","LANDMARKCO":"303","LANDMARKNA":"台灣聯通停車場-國賓場","LANDMARKAD":"6300004","ADDRESS":"台北市中山北路二段66、68號","TEL":" ","COUNTYNAME":"台北市","TOWNNAME":"中山區","MARKTYPE":"993","Class":"303"},"geometry":{"x":302726.25380000006,"y":2772181.0858999994}},{"attributes":{"OBJECTID":7672,"LANDMARKID":"6300000001056","LANDMARKCO":"303","LANDMARKNA":"台灣聯通停車場-建國場","LANDMARKAD":"6300004","ADDRESS":"台北市建國北路一段15號B1~B4","TEL":" ","COUNTYNAME":"台北市","TOWNNAME":"中山區","MARKTYPE":"993","Class":"303"},"geometry":{"x":304192.23300000001,"y":2771018.3213999998}},{"attributes":{"OBJECTID":7673,"LANDMARKID":"6300000001057","LANDMARKCO":"303","LANDMARKNA":"台灣聯通停車場-天津場","LANDMARKAD":"6300004","ADDRESS":"台北市中山北路一段105巷3-3號","TEL":" ","COUNTYNAME":"台北市","TOWNNAME":"中山區","MARKTYPE":"993","Class":"303"},"geometry":{"x":302746.59109999985,"y":2771527.6797000002}},{"attributes":{"OBJECTID":7674,"LANDMARKID":"6300000001058","LANDMARKCO":"303","LANDMARKNA":"台灣聯通停車場-市民場","LANDMARKAD":"6300004","ADDRESS":"台北市市民大道三段65號","TEL":" ","COUNTYNAME":"台北市","TOWNNAME":"中山區","MARKTYPE":"993","Class":"303"},"geometry":{"x":304076.19049999956,"y":2770870.6710999999}},{"attributes":{"OBJECTID":7675,"LANDMARKID":"6300000001059","LANDMARKCO":"303","LANDMARKNA":"台灣聯通停車場-長榮場","LANDMARKAD":"6300004","ADDRESS":"台北市松江路63號","TEL":" ","COUNTYNAME":"台北市","TOWNNAME":"中山區","MARKTYPE":"993","Class":"303"},"geometry":{"x":303796.98099999968,"y":2771286.8234000001}},{"attributes":{"OBJECTID":7676,"LANDMARKID":"6300000001060","LANDMARKCO":"303","LANDMARKNA":"台灣聯通停車場-民權場","LANDMARKAD":"6300004","ADDRESS":"台北市林森北路522號","TEL":" ","COUNTYNAME":"台北市","TOWNNAME":"中山區","MARKTYPE":"993","Class":"303"},"geometry":{"x":303018.46800000034,"y":2772573.2842999995}},{"attributes":{"OBJECTID":7677,"LANDMARKID":"6300000001061","LANDMARKCO":"303","LANDMARKNA":"台灣聯通停車場-晴光場","LANDMARKAD":"6300004","ADDRESS":"台北市中山北路二段183巷5-1號","TEL":" ","COUNTYNAME":"台北市","TOWNNAME":"中山區","MARKTYPE":"993","Class":"303"},"geometry":{"x":302826.68630000018,"y":2772948.0274}},{"attributes":{"OBJECTID":7678,"LANDMARKID":"6300000001062","LANDMARKCO":"303","LANDMARKNA":"台灣聯通停車場-行天宮場","LANDMARKAD":"6300004","ADDRESS":"台北市中山區民權東路二段137號","TEL":" ","COUNTYNAME":"台北市","TOWNNAME":"中山區","MARKTYPE":"993","Class":"303"},"geometry":{"x":303831.88109999988,"y":2772823.3597999997}},{"attributes":{"OBJECTID":7679,"LANDMARKID":"6300000001063","LANDMARKCO":"303","LANDMARKNA":"台灣聯通停車場-全球場","LANDMARKAD":"6300004","ADDRESS":"台北市建國北路二段238號B2~B5","TEL":" ","COUNTYNAME":"台北市","TOWNNAME":"中山區","MARKTYPE":"993","Class":"303"},"geometry":{"x":304136.67839999963,"y":2772711.1543000005}},{"attributes":{"OBJECTID":7680,"LANDMARKID":"6300000001064","LANDMARKCO":"303","LANDMARKNA":"台灣聯通停車場-長春二場","LANDMARKAD":"6300004","ADDRESS":"台北市長春路21號旁","TEL":" ","COUNTYNAME":"台北市","TOWNNAME":"中山區","MARKTYPE":"993","Class":"303"},"geometry":{"x":302942.15649999958,"y":2771981.0431999993}},{"attributes":{"OBJECTID":7681,"LANDMARKID":"6300000001065","LANDMARKCO":"303","LANDMARKNA":"台灣聯通停車場-遼寧場","LANDMARKAD":"6300004","ADDRESS":"台北市遼寧街139號","TEL":" ","COUNTYNAME":"台北市","TOWNNAME":"中山區","MARKTYPE":"993","Class":"303"},"geometry":{"x":304704.26809999999,"y":2771757.9211999997}},{"attributes":{"OBJECTID":7682,"LANDMARKID":"6300000001066","LANDMARKCO":"303","LANDMARKNA":"台灣聯通停車場-新生場","LANDMARKAD":"6300004","ADDRESS":"台北市新生北路二段68巷13號(代表號)","TEL":" ","COUNTYNAME":"台北市","TOWNNAME":"中山區","MARKTYPE":"993","Class":"303"},"geometry":{"x":303156.68169999961,"y":2772145.1749000009}},{"attributes":{"OBJECTID":7683,"LANDMARKID":"6300000001067","LANDMARKCO":"303","LANDMARKNA":"台灣聯通停車場-六福場","LANDMARKAD":"6300004","ADDRESS":"台北市長春路160號","TEL":" ","COUNTYNAME":"台北市","TOWNNAME":"中山區","MARKTYPE":"993","Class":"303"},"geometry":{"x":303726.24739999976,"y":2771937.6822999995}},{"attributes":{"OBJECTID":7684,"LANDMARKID":"6300000002249","LANDMARKCO":"402","LANDMARKNA":"中華電信-大直北安特約服務中心","LANDMARKAD":"6300004","ADDRESS":"台北市中山區北安路594號","TEL":"02-25321798","COUNTYNAME":"台北市","TOWNNAME":"中山區","MARKTYPE":"994","Class":"4"},"geometry":{"x":305364.46499999985,"y":2774926.3463000003}},{"attributes":{"OBJECTID":7685,"LANDMARKID":"6300000002250","LANDMARKCO":"402","LANDMARKNA":"中華電信-建北服務中心","LANDMARKAD":"6300004","ADDRESS":"台北市建國北路二段216號","TEL":"0800080123","COUNTYNAME":"台北市","TOWNNAME":"中山區","MARKTYPE":"994","Class":"4"},"geometry":{"x":304136.99930000026,"y":2772597.8223000001}},{"attributes":{"OBJECTID":7686,"LANDMARKID":"6300000002251","LANDMARKCO":"402","LANDMARKNA":"中華電信-大直服務中心","LANDMARKAD":"6300004","ADDRESS":"台北市明水路397巷2弄20號","TEL":"123或0800-080-123","COUNTYNAME":"台北市","TOWNNAME":"中山區","MARKTYPE":"994","Class":"4"},"geometry":{"x":305126.0895999996,"y":2774525.1856999993}},{"attributes":{"OBJECTID":7687,"LANDMARKID":"6300000002252","LANDMARKCO":"402","LANDMARKNA":"中華電信-長春服務中心","LANDMARKAD":"6300004","ADDRESS":"台北市長春路27號","TEL":"123或0800-080-123","COUNTYNAME":"台北市","TOWNNAME":"中山區","MARKTYPE":"994","Class":"4"},"geometry":{"x":302988.98909999989,"y":2771980.9401999991}},{"attributes":{"OBJECTID":7688,"LANDMARKID":"6300000002253","LANDMARKCO":"402","LANDMARKNA":"遠傳電信-台北民權門市","LANDMARKAD":"6300004","ADDRESS":"台北市中山區民權東路三段59號","TEL":" ","COUNTYNAME":"台北市","TOWNNAME":"中山區","MARKTYPE":"994","Class":"4"},"geometry":{"x":304807.63690000027,"y":2772814.3737000003}},{"attributes":{"OBJECTID":7689,"LANDMARKID":"6300000002254","LANDMARKCO":"402","LANDMARKNA":"威寶電信-台北龍江特約服務中心","LANDMARKAD":"6300004","ADDRESS":"台北市中山區龍江路272號","TEL":"02-25153034","COUNTYNAME":"台北市","TOWNNAME":"中山區","MARKTYPE":"994","Class":"4"},"geometry":{"x":304547.0083999997,"y":2772599.3034000006}},{"attributes":{"OBJECTID":7690,"LANDMARKID":"6300000002255","LANDMARKCO":"402","LANDMARKNA":"威寶電信-台北北安特約服務中心","LANDMARKAD":"6300004","ADDRESS":"台北市中山區北安路596之1號","TEL":"02-85093244","COUNTYNAME":"台北市","TOWNNAME":"中山區","MARKTYPE":"994","Class":"4"},"geometry":{"x":305368.52990000043,"y":2774942.3298000004}},{"attributes":{"OBJECTID":7691,"LANDMARKID":"6300000002256","LANDMARKCO":"402","LANDMARKNA":"大眾電信-八德專賣店","LANDMARKAD":"6300004","ADDRESS":"台北市八德路二段69號","TEL":"02-27319781","COUNTYNAME":"台北市","TOWNNAME":"中山區","MARKTYPE":"994","Class":"4"},"geometry":{"x":304002.43859999999,"y":2770917.2719999999}},{"attributes":{"OBJECTID":7692,"LANDMARKID":"6300000002257","LANDMARKCO":"402","LANDMARKNA":"大眾電信(皇家通訊)-皇家(總公司)","LANDMARKAD":"6300004","ADDRESS":"台北市中山區中原街110號","TEL":"02-25679298","COUNTYNAME":"台北市","TOWNNAME":"中山區","MARKTYPE":"994","Class":"4"},"geometry":{"x":303356.06350000016,"y":2772614.5913999993}},{"attributes":{"OBJECTID":7693,"LANDMARKID":"6300000002258","LANDMARKCO":"402","LANDMARKNA":"大眾電信-大直專賣店","LANDMARKAD":"6300004","ADDRESS":"台北市中山區北安路610號","TEL":"02-25327791","COUNTYNAME":"台北市","TOWNNAME":"中山區","MARKTYPE":"994","Class":"4"},"geometry":{"x":305378.72080000024,"y":2774989.2884}},{"attributes":{"OBJECTID":7694,"LANDMARKID":"6300000002259","LANDMARKCO":"402","LANDMARKNA":"大眾電信-吉林專賣店","LANDMARKAD":"6300004","ADDRESS":"台北市中山區吉林路390號","TEL":"02-25863535","COUNTYNAME":"台北市","TOWNNAME":"中山區","MARKTYPE":"994","Class":"4"},"geometry":{"x":303496.53749999963,"y":2773095.0318999998}},{"attributes":{"OBJECTID":7695,"LANDMARKID":"6300000002260","LANDMARKCO":"402","LANDMARKNA":"大眾電信-建北店","LANDMARKAD":"6300004","ADDRESS":"台北市中山區建國北路一段80號","TEL":"0968-544149","COUNTYNAME":"台北市","TOWNNAME":"中山區","MARKTYPE":"994","Class":"4"},"geometry":{"x":304113.0175999999,"y":2771371.9367999993}},{"attributes":{"OBJECTID":7696,"LANDMARKID":"6300000002261","LANDMARKCO":"402","LANDMARKNA":"大眾電信(惠榮資訊)-撫順店","LANDMARKAD":"6300004","ADDRESS":"台北市中山區撫順街4-1號","TEL":"02-2587-2528","COUNTYNAME":"台北市","TOWNNAME":"中山區","MARKTYPE":"994","Class":"4"},"geometry":{"x":302629.1074000001,"y":2772934.1547999997}},{"attributes":{"OBJECTID":7697,"LANDMARKID":"6300000002262","LANDMARKCO":"402","LANDMARKNA":"大眾電信-佧德-美成遼寧店","LANDMARKAD":"6300004","ADDRESS":"台北市中山區遼寧街236號","TEL":"02-25183118","COUNTYNAME":"台北市","TOWNNAME":"中山區","MARKTYPE":"994","Class":"4"},"geometry":{"x":304694.54260000028,"y":2772175.8374000005}},{"attributes":{"OBJECTID":7698,"LANDMARKID":"6300000002263","LANDMARKCO":"402","LANDMARKNA":"大眾電信(惠榮資訊)-美成","LANDMARKAD":"6300004","ADDRESS":"台北市中山區遼寧街236號","TEL":"02-25183118","COUNTYNAME":"台北市","TOWNNAME":"中山區","MARKTYPE":"994","Class":"4"},"geometry":{"x":304694.54260000028,"y":2772175.8374000005}},{"attributes":{"OBJECTID":7699,"LANDMARKID":"6300000002264","LANDMARKCO":"402","LANDMARKNA":"大眾電信-錦州專賣店","LANDMARKAD":"6300004","ADDRESS":"台北市中山區錦州街380號","TEL":"966751688","COUNTYNAME":"台北市","TOWNNAME":"中山區","MARKTYPE":"994","Class":"4"},"geometry":{"x":304525.80860000011,"y":2772549.3881000001}},{"attributes":{"OBJECTID":7700,"LANDMARKID":"6300000002265","LANDMARKCO":"402","LANDMARKNA":"大眾電信-錦西專賣店","LANDMARKAD":"6300004","ADDRESS":"台北市中山區錦西街18號","TEL":"968029969","COUNTYNAME":"台北市","TOWNNAME":"中山區","MARKTYPE":"994","Class":"4"},"geometry":{"x":302584.82070000004,"y":2772552.3300999999}},{"attributes":{"OBJECTID":7701,"LANDMARKID":"6300000002266","LANDMARKCO":"402","LANDMARKNA":"大眾電信(震旦通訊)-台北民權二店","LANDMARKAD":"6300004","ADDRESS":"台北市民權東路三段20號","TEL":"02-25167175","COUNTYNAME":"台北市","TOWNNAME":"中山區","MARKTYPE":"994","Class":"4"},"geometry":{"x":304526.45029999968,"y":2772767.3805999998}},{"attributes":{"OBJECTID":7702,"LANDMARKID":"6300000002267","LANDMARKCO":"402","LANDMARKNA":"大眾電信(震旦通訊)-台北北安店","LANDMARKAD":"6300004","ADDRESS":"台北市北安路618號","TEL":"02-25322345","COUNTYNAME":"台北市","TOWNNAME":"中山區","MARKTYPE":"994","Class":"4"},"geometry":{"x":305386.86290000007,"y":2775024.2553000003}},{"attributes":{"OBJECTID":7703,"LANDMARKID":"6300000002268","LANDMARKCO":"402","LANDMARKNA":"大眾電信-佧德-北自營店","LANDMARKAD":"6300004","ADDRESS":"台北市建國北路一段15號","TEL":"02-8772-6768","COUNTYNAME":"台北市","TOWNNAME":"中山區","MARKTYPE":"994","Class":"4"},"geometry":{"x":304199.07610000018,"y":2771078.6004000008}},{"attributes":{"OBJECTID":7704,"LANDMARKID":"6300000002269","LANDMARKCO":"402","LANDMARKNA":"大眾電信(震旦通訊)-台北天津店","LANDMARKAD":"6300004","ADDRESS":"台北市長安東路一段19號","TEL":"02-25374444","COUNTYNAME":"台北市","TOWNNAME":"中山區","MARKTYPE":"994","Class":"4"},"geometry":{"x":302771.03199999966,"y":2771376.7090000007}},{"attributes":{"OBJECTID":7705,"LANDMARKID":"6300000002270","LANDMARKCO":"402","LANDMARKNA":"大眾電信(震旦通訊)-台北長安店","LANDMARKAD":"6300004","ADDRESS":"台北市長安東路二段118-5號","TEL":"02-25152828","COUNTYNAME":"台北市","TOWNNAME":"中山區","MARKTYPE":"994","Class":"4"},"geometry":{"x":304116.45490000024,"y":2771229.9232000001}},{"attributes":{"OBJECTID":7706,"LANDMARKID":"6300000002271","LANDMARKCO":"402","LANDMARKNA":"大眾電信-伊通專賣店","LANDMARKAD":"6300004","ADDRESS":"台北市長春路186號(伊通街口)","TEL":"(02)25098699","COUNTYNAME":"台北市","TOWNNAME":"中山區","MARKTYPE":"994","Class":"4"},"geometry":{"x":303979.83019999973,"y":2771939.3466999996}},{"attributes":{"OBJECTID":7707,"LANDMARKID":"6300000002272","LANDMARKCO":"402","LANDMARKNA":"大眾電信(皇家通訊)-創世紀","LANDMARKAD":"6300004","ADDRESS":"台北市中山區八德路二段59-2號","TEL":"02-27775151","COUNTYNAME":"台北市","TOWNNAME":"中山區","MARKTYPE":"994","Class":"4"},"geometry":{"x":303959.13900000043,"y":2770886.7321000006}},{"attributes":{"OBJECTID":7708,"LANDMARKID":"6300000003634","LANDMARKCO":"603","LANDMARKNA":"太豪大飯店(香城興安)","LANDMARKAD":"6300004","ADDRESS":"台北市松山區興安街137號1-6樓","TEL":"02-27195152","COUNTYNAME":"台北市","TOWNNAME":"中山區","MARKTYPE":"996","Class":"6"},"geometry":{"x":304885.6595999999,"y":2772091.5478000008}},{"attributes":{"OBJECTID":7709,"LANDMARKID":"6300000003635","LANDMARKCO":"603","LANDMARKNA":"比堤飯店","LANDMARKAD":"6300004","ADDRESS":"台北市中山區建國北路2段91號1樓","TEL":"93號1至7樓","COUNTYNAME":"台北市","TOWNNAME":"中山區","MARKTYPE":"996","Class":"6"},"geometry":{"x":304202.77450000029,"y":2772399.2377000004}},{"attributes":{"OBJECTID":7710,"LANDMARKID":"6300000003636","LANDMARKCO":"603","LANDMARKNA":"上賓大旅社","LANDMARKAD":"6300004","ADDRESS":"台北市中山區錦州街23巷4號","TEL":"02-25113232","COUNTYNAME":"台北市","TOWNNAME":"中山區","MARKTYPE":"996","Class":"6"},"geometry":{"x":302986.08069999982,"y":2772593.3329000007}},{"attributes":{"OBJECTID":7711,"LANDMARKID":"6300000003637","LANDMARKCO":"603","LANDMARKNA":"綺茵旅館(MOON HOTEL)","LANDMARKAD":"6300004","ADDRESS":"台北市中山區新生北路一段122號1-7樓","TEL":"02-25213301","COUNTYNAME":"台北市","TOWNNAME":"中山區","MARKTYPE":"996","Class":"6"},"geometry":{"x":303249.34509999957,"y":2771506.9319000002}},{"attributes":{"OBJECTID":7712,"LANDMARKID":"6300000003638","LANDMARKCO":"603","LANDMARKNA":"凱旋大飯店","LANDMARKAD":"6300004","ADDRESS":"台北市中山區一江街33號1-5樓","TEL":"02-25223170","COUNTYNAME":"台北市","TOWNNAME":"中山區","MARKTYPE":"996","Class":"6"},"geometry":{"x":303639.33509999979,"y":2771813.5868999995}},{"attributes":{"OBJECTID":7713,"LANDMARKID":"6300000003639","LANDMARKCO":"603","LANDMARKNA":"子爵飯店","LANDMARKAD":"6300004","ADDRESS":"台北市中山區一江街3號","TEL":"3號2至5樓","COUNTYNAME":"台北市","TOWNNAME":"中山區","MARKTYPE":"996","Class":"6"},"geometry":{"x":303636.32600000035,"y":2771503.6035999991}},{"attributes":{"OBJECTID":7714,"LANDMARKID":"6300000003640","LANDMARKCO":"603","LANDMARKNA":"協美大飯店","LANDMARKAD":"6300004","ADDRESS":"台北市中山區中山北路二段181號10-12樓","TEL":"02-25971281","COUNTYNAME":"台北市","TOWNNAME":"中山區","MARKTYPE":"996","Class":"6"},"geometry":{"x":302738.91870000027,"y":2772885.8100000005}},{"attributes":{"OBJECTID":7715,"LANDMARKID":"6300000003641","LANDMARKCO":"603","LANDMARKNA":"山水閣大飯店","LANDMARKAD":"6300004","ADDRESS":"台北市中山區中山北路二段181號1-5樓","TEL":"02-25971281","COUNTYNAME":"台北市","TOWNNAME":"中山區","MARKTYPE":"996","Class":"6"},"geometry":{"x":302738.91870000027,"y":2772885.8100000005}},{"attributes":{"OBJECTID":7716,"LANDMARKID":"6300000003642","LANDMARKCO":"603","LANDMARKNA":"慶天閣大飯店","LANDMARKAD":"6300004","ADDRESS":"台北市中山區中山北路二段181號8-9樓","TEL":"02-25971281","COUNTYNAME":"台北市","TOWNNAME":"中山區","MARKTYPE":"996","Class":"6"},"geometry":{"x":302738.91870000027,"y":2772885.8100000005}},{"attributes":{"OBJECTID":7717,"LANDMARKID":"6300000003643","LANDMARKCO":"603","LANDMARKNA":"東芳蒂旅店","LANDMARKAD":"6300004","ADDRESS":"台北市中山區中山北路二段183巷30號3樓","TEL":"02-25861880","COUNTYNAME":"台北市","TOWNNAME":"中山區","MARKTYPE":"996","Class":"6"},"geometry":{"x":302887.10130000021,"y":2772932.2365000006}},{"attributes":{"OBJECTID":7718,"LANDMARKID":"6300000003644","LANDMARKCO":"603","LANDMARKNA":"大欣旅社","LANDMARKAD":"6300004","ADDRESS":"台北市中山區中山北路二段27巷2-2號1-5樓","TEL":"02-25652155","COUNTYNAME":"台北市","TOWNNAME":"中山區","MARKTYPE":"996","Class":"6"},"geometry":{"x":302792.14919999987,"y":2771763.6181000005}},{"attributes":{"OBJECTID":7719,"LANDMARKID":"6300000003645","LANDMARKCO":"603","LANDMARKNA":"九龍賓館","LANDMARKAD":"6300004","ADDRESS":"台北市中山區中山北路二段65巷2弄3號1-4樓","TEL":"02-25114447","COUNTYNAME":"台北市","TOWNNAME":"中山區","MARKTYPE":"996","Class":"6"},"geometry":{"x":302852.5175999999,"y":2772166.3798999991}},{"attributes":{"OBJECTID":7720,"LANDMARKID":"6300000003646","LANDMARKCO":"603","LANDMARKNA":"優美飯店","LANDMARKAD":"6300004","ADDRESS":"台北市中山區民生東路一段28號1-8樓","TEL":"02-25255678","COUNTYNAME":"台北市","TOWNNAME":"中山區","MARKTYPE":"996","Class":"6"},"geometry":{"x":302875.01719999965,"y":2772295.2927000001}},{"attributes":{"OBJECTID":7721,"LANDMARKID":"6300000003647","LANDMARKCO":"603","LANDMARKNA":"雅莊旅館","LANDMARKAD":"6300004","ADDRESS":"台北市中山區民族東路438號B1至4樓","TEL":"440號B1至5樓","COUNTYNAME":"台北市","TOWNNAME":"中山區","MARKTYPE":"996","Class":"6"},"geometry":{"x":304426.56940000039,"y":2773412.7696000002}},{"attributes":{"OBJECTID":7722,"LANDMARKID":"6300000003648","LANDMARKCO":"603","LANDMARKNA":"友春大飯店","LANDMARKAD":"6300004","ADDRESS":"台北市中山區民權西路55號","TEL":"02-25972588","COUNTYNAME":"台北市","TOWNNAME":"中山區","MARKTYPE":"996","Class":"6"},"geometry":{"x":302504.8180999998,"y":2772859.6336000003}},{"attributes":{"OBJECTID":7723,"LANDMARKID":"6300000003649","LANDMARKCO":"603","LANDMARKNA":"台灣燦路都飯店","LANDMARKAD":"6300004","ADDRESS":"台北市中山區民權東路一段9號2-10樓","TEL":"02-25973610","COUNTYNAME":"台北市","TOWNNAME":"中山區","MARKTYPE":"996","Class":"6"},"geometry":{"x":302799.78729999997,"y":2772851.5746999998}},{"attributes":{"OBJECTID":7724,"LANDMARKID":"6300000003650","LANDMARKCO":"603","LANDMARKNA":"豪爵旅館","LANDMARKAD":"6300004","ADDRESS":"台北市中山區吉林路379巷20號B1-7樓","TEL":"德惠街170巷24號1","COUNTYNAME":"台北市","TOWNNAME":"中山區","MARKTYPE":"996","Class":"6"},"geometry":{"x":303625.56429999974,"y":2773102.6218999997}},{"attributes":{"OBJECTID":7725,"LANDMARKID":"6300000003651","LANDMARKCO":"603","LANDMARKNA":"月球大飯店","LANDMARKAD":"6300004","ADDRESS":"台北市中山區林森北路107巷10號","TEL":"02-25604886","COUNTYNAME":"台北市","TOWNNAME":"中山區","MARKTYPE":"996","Class":"6"},"geometry":{"x":303018.06359999999,"y":2771434.8320000004}},{"attributes":{"OBJECTID":7726,"LANDMARKID":"6300000003652","LANDMARKCO":"603","LANDMARKNA":"伊倫商務旅館","LANDMARKAD":"6300004","ADDRESS":"台北市中山區松江路123巷10號1-4樓","TEL":"02-25076666","COUNTYNAME":"台北市","TOWNNAME":"中山區","MARKTYPE":"996","Class":"6"},"geometry":{"x":303895.02869999968,"y":2771736.6818000004}},{"attributes":{"OBJECTID":7727,"LANDMARKID":"6300000003653","LANDMARKCO":"603","LANDMARKNA":"長榮桂冠酒店〈台北〉","LANDMARKAD":"6300004","ADDRESS":"台北市中山區松江路63號","TEL":"02-25019988","COUNTYNAME":"台北市","TOWNNAME":"中山區","MARKTYPE":"996","Class":"6"},"geometry":{"x":303799.71719999984,"y":2771294.9655000009}},{"attributes":{"OBJECTID":7728,"LANDMARKID":"6300000003654","LANDMARKCO":"603","LANDMARKNA":"世聯商務飯店","LANDMARKAD":"6300004","ADDRESS":"台北市中山區松江路90巷5號1-7樓","TEL":"02-25626161","COUNTYNAME":"台北市","TOWNNAME":"中山區","MARKTYPE":"996","Class":"6"},"geometry":{"x":303674.25879999995,"y":2771486.4545000009}},{"attributes":{"OBJECTID":7729,"LANDMARKID":"6300000003655","LANDMARKCO":"603","LANDMARKNA":"豪悅大飯店","LANDMARKAD":"6300004","ADDRESS":"台北市中山區松江路93巷9號1-8樓","TEL":"9號2-5樓-1~7","COUNTYNAME":"台北市","TOWNNAME":"中山區","MARKTYPE":"996","Class":"6"},"geometry":{"x":303924.32330000028,"y":2771503.5709000006}},{"attributes":{"OBJECTID":7730,"LANDMARKID":"6300000003656","LANDMARKCO":"603","LANDMARKNA":"富麗安旅館","LANDMARKAD":"6300004","ADDRESS":"台北市中山區松江路95-1號5樓","TEL":"02-25041188","COUNTYNAME":"台北市","TOWNNAME":"中山區","MARKTYPE":"996","Class":"6"},"geometry":{"x":303801.3992999997,"y":2771521.9540999997}},{"attributes":{"OBJECTID":7731,"LANDMARKID":"6300000003657","LANDMARKCO":"603","LANDMARKNA":"香都大飯店 (香城長安)","LANDMARKAD":"6300004","ADDRESS":"台北市中山區長安東路一段52號1-7樓","TEL":"02-25312121","COUNTYNAME":"台北市","TOWNNAME":"中山區","MARKTYPE":"996","Class":"6"},"geometry":{"x":303265.45679999981,"y":2771228.9640999995}},{"attributes":{"OBJECTID":7732,"LANDMARKID":"6300000003658","LANDMARKCO":"603","LANDMARKNA":"凱林賓館","LANDMARKAD":"6300004","ADDRESS":"台北市中山區新生北路二段149巷32號1-4樓","TEL":"02-25417992","COUNTYNAME":"台北市","TOWNNAME":"中山區","MARKTYPE":"996","Class":"6"},"geometry":{"x":303339.38460000046,"y":2772748.6519000009}},{"attributes":{"OBJECTID":7733,"LANDMARKID":"6300000003659","LANDMARKCO":"603","LANDMARKNA":"姿美飯店","LANDMARKAD":"6300004","ADDRESS":"台北市中山區新生北路二段25號1-6樓","TEL":"02-25111399","COUNTYNAME":"台北市","TOWNNAME":"中山區","MARKTYPE":"996","Class":"6"},"geometry":{"x":303253.37760000024,"y":2771824.0018000007}},{"attributes":{"OBJECTID":7734,"LANDMARKID":"6300000003660","LANDMARKCO":"603","LANDMARKNA":"衣蝶旅館","LANDMARKAD":"6300004","ADDRESS":"台北市中山區新生北路三段10號1-3樓","TEL":"02-25913328","COUNTYNAME":"台北市","TOWNNAME":"中山區","MARKTYPE":"996","Class":"6"},"geometry":{"x":303209.91980000027,"y":2772885.0665000007}},{"attributes":{"OBJECTID":7735,"LANDMARKID":"6300000003661","LANDMARKCO":"603","LANDMARKNA":"台北綠蒂大飯店","LANDMARKAD":"6300004","ADDRESS":"台北市中山區新生北路三段56巷14號","TEL":"02-25943901","COUNTYNAME":"台北市","TOWNNAME":"中山區","MARKTYPE":"996","Class":"6"},"geometry":{"x":303153.61330000032,"y":2773114.2813000008}},{"attributes":{"OBJECTID":7736,"LANDMARKID":"6300000003662","LANDMARKCO":"603","LANDMARKNA":"新凱飯店","LANDMARKAD":"6300004","ADDRESS":"台北市中山區新生北路3段76之1號1至10樓","TEL":"02-25855000","COUNTYNAME":"台北市","TOWNNAME":"中山區","MARKTYPE":"996","Class":"6"},"geometry":{"x":303206.12789999973,"y":2773246.0766000003}},{"attributes":{"OBJECTID":7737,"LANDMARKID":"6300000003663","LANDMARKCO":"603","LANDMARKNA":"統一大飯店（維也納）","LANDMARKAD":"6300004","ADDRESS":"台北市中山區農安街36號3-10樓","TEL":"02-25923977","COUNTYNAME":"台北市","TOWNNAME":"中山區","MARKTYPE":"996","Class":"6"},"geometry":{"x":303170.39890000038,"y":2773059.2159000002}},{"attributes":{"OBJECTID":7738,"LANDMARKID":"6300000003664","LANDMARKCO":"603","LANDMARKNA":"友萊大飯店","LANDMARKAD":"6300004","ADDRESS":"台北市中山區雙城街23-1號1-7樓及5樓之1","TEL":"02-25978800","COUNTYNAME":"台北市","TOWNNAME":"中山區","MARKTYPE":"996","Class":"6"},"geometry":{"x":302909.8507000003,"y":2773175.1436999999}},{"attributes":{"OBJECTID":7739,"LANDMARKID":"6300000003665","LANDMARKCO":"603","LANDMARKNA":"上華飯店","LANDMARKAD":"6300004","ADDRESS":"台北市中山區雙城街5號B1-6樓","TEL":"02-25911190","COUNTYNAME":"台北市","TOWNNAME":"中山區","MARKTYPE":"996","Class":"6"},"geometry":{"x":302913.05099999998,"y":2772919.1359000001}},{"attributes":{"OBJECTID":7740,"LANDMARKID":"6300000003666","LANDMARKCO":"603","LANDMARKNA":"儂美大飯店","LANDMARKAD":"6300004","ADDRESS":"台北市中山區中山北路一段105巷15號1-7樓","TEL":"02-25429511","COUNTYNAME":"台北市","TOWNNAME":"中山區","MARKTYPE":"996","Class":"6"},"geometry":{"x":302828.31390000042,"y":2771498.4828999992}},{"attributes":{"OBJECTID":7741,"LANDMARKID":"6300000003667","LANDMARKCO":"603","LANDMARKNA":"鴨川旅館","LANDMARKAD":"6300004","ADDRESS":"台北市中山區中山北路二段65巷2弄60號1-6樓","TEL":"02-25603965","COUNTYNAME":"台北市","TOWNNAME":"中山區","MARKTYPE":"996","Class":"6"},"geometry":{"x":302955.44720000029,"y":2772147.9810000006}},{"attributes":{"OBJECTID":7742,"LANDMARKID":"6300000003668","LANDMARKCO":"603","LANDMARKNA":"儷仕飯店","LANDMARKAD":"6300004","ADDRESS":"台北市中山區林森北路107巷16號1-7樓","TEL":"02-25810146","COUNTYNAME":"台北市","TOWNNAME":"中山區","MARKTYPE":"996","Class":"6"},"geometry":{"x":303034.03619999997,"y":2771427.7698999997}},{"attributes":{"OBJECTID":7743,"LANDMARKID":"6300000003669","LANDMARKCO":"603","LANDMARKNA":"喜瑞飯店","LANDMARKAD":"6300004","ADDRESS":"台北市中山區長安東路一段64號B1-10樓","TEL":"02-25410077","COUNTYNAME":"台北市","TOWNNAME":"中山區","MARKTYPE":"996","Class":"6"},"geometry":{"x":303416.30719999969,"y":2771190.3748000003}},{"attributes":{"OBJECTID":7744,"LANDMARKID":"6300000003670","LANDMARKCO":"603","LANDMARKNA":"麗雅精品旅館","LANDMARKAD":"6300004","ADDRESS":"台北市中山區長春路62號8樓之1","TEL":"02-25411133","COUNTYNAME":"台北市","TOWNNAME":"中山區","MARKTYPE":"996","Class":"6"},"geometry":{"x":303098.8805999998,"y":2771952.5131999999}},{"attributes":{"OBJECTID":7745,"LANDMARKID":"6300000003671","LANDMARKCO":"603","LANDMARKNA":"芝加格旅館","LANDMARKAD":"6300004","ADDRESS":"台北市中山區林森北路119巷41號","TEL":"02-25612707","COUNTYNAME":"台北市","TOWNNAME":"中山區","MARKTYPE":"996","Class":"6"},"geometry":{"x":303126.20220000017,"y":2771470.4115999993}},{"attributes":{"OBJECTID":7746,"LANDMARKID":"6300000003672","LANDMARKCO":"603","LANDMARKNA":"陸玖賓館","LANDMARKAD":"6300004","ADDRESS":"台北市中山區林森北路289號4樓之1-3","TEL":"02-25239890","COUNTYNAME":"台北市","TOWNNAME":"中山區","MARKTYPE":"996","Class":"6"},"geometry":{"x":303029.01549999975,"y":2772037.7800999992}},{"attributes":{"OBJECTID":7747,"LANDMARKID":"6300000003673","LANDMARKCO":"603","LANDMARKNA":"凱微精品旅館","LANDMARKAD":"6300004","ADDRESS":"台北市中山區林森北路381號9-10樓","TEL":"02-25426879","COUNTYNAME":"台北市","TOWNNAME":"中山區","MARKTYPE":"996","Class":"6"},"geometry":{"x":303035.06709999964,"y":2772358.7519000005}},{"attributes":{"OBJECTID":7748,"LANDMARKID":"6300000003674","LANDMARKCO":"603","LANDMARKNA":"首都唯客樂飯店","LANDMARKAD":"6300004","ADDRESS":"台北市中山區長春路187號1-9樓","TEL":"02-25070168","COUNTYNAME":"台北市","TOWNNAME":"中山區","MARKTYPE":"996","Class":"6"},"geometry":{"x":304257.90950000007,"y":2771959.352}},{"attributes":{"OBJECTID":7749,"LANDMARKID":"6300000003675","LANDMARKCO":"603","LANDMARKNA":"大新飯店","LANDMARKAD":"6300004","ADDRESS":"台北市中山區長春路246號11-12樓","TEL":"02-25068866","COUNTYNAME":"台北市","TOWNNAME":"中山區","MARKTYPE":"996","Class":"6"},"geometry":{"x":304321.80209999997,"y":2771932.0978999995}},{"attributes":{"OBJECTID":7750,"LANDMARKID":"6300000003676","LANDMARKCO":"603","LANDMARKNA":"密都大飯店","LANDMARKAD":"6300004","ADDRESS":"台北市中山區長春路246號3-10樓","TEL":"02-25068866","COUNTYNAME":"台北市","TOWNNAME":"中山區","MARKTYPE":"996","Class":"6"},"geometry":{"x":304321.80209999997,"y":2771932.0978999995}},{"attributes":{"OBJECTID":7751,"LANDMARKID":"6300000003677","LANDMARKCO":"603","LANDMARKNA":"友友大飯店","LANDMARKAD":"6300004","ADDRESS":"台北市中山區長春路24號2-8樓","TEL":"02-25316767","COUNTYNAME":"台北市","TOWNNAME":"中山區","MARKTYPE":"996","Class":"6"},"geometry":{"x":302891.89190000016,"y":2771955.2320000008}},{"attributes":{"OBJECTID":7752,"LANDMARKID":"6300000003678","LANDMARKCO":"603","LANDMARKNA":"北城大飯店","LANDMARKAD":"6300004","ADDRESS":"台北市中山區長春路279號B1-12樓","TEL":"02-25017601","COUNTYNAME":"台北市","TOWNNAME":"中山區","MARKTYPE":"996","Class":"6"},"geometry":{"x":304626.8777999999,"y":2771950.9940000009}},{"attributes":{"OBJECTID":7753,"LANDMARKID":"6300000003679","LANDMARKCO":"603","LANDMARKNA":"京都商務旅館","LANDMARKAD":"6300004","ADDRESS":"台北市中山區長春路38號3-10樓","TEL":"02-25673366","COUNTYNAME":"台北市","TOWNNAME":"中山區","MARKTYPE":"996","Class":"6"},"geometry":{"x":302967.88819999993,"y":2771953.9374000002}},{"attributes":{"OBJECTID":7754,"LANDMARKID":"6300000003680","LANDMARKCO":"603","LANDMARKNA":"弘宮大飯店","LANDMARKAD":"6300004","ADDRESS":"台北市中山區長春路39號2-6樓","TEL":"02-25643106","COUNTYNAME":"台北市","TOWNNAME":"中山區","MARKTYPE":"996","Class":"6"},"geometry":{"x":303063.96999999974,"y":2771975.6489000004}},{"attributes":{"OBJECTID":7755,"LANDMARKID":"6300000003681","LANDMARKCO":"603","LANDMARKNA":"老爺商務會館","LANDMARKAD":"6300004","ADDRESS":"台北市中山區南京西路1號8-11樓","TEL":"02-25316171","COUNTYNAME":"台北市","TOWNNAME":"中山區","MARKTYPE":"996","Class":"6"},"geometry":{"x":302679.05599999987,"y":2771689.9806999993}},{"attributes":{"OBJECTID":7756,"LANDMARKID":"6300000003682","LANDMARKCO":"603","LANDMARKNA":"台北國際飯店","LANDMARKAD":"6300004","ADDRESS":"台北市中山區南京東路一段66號B1-10樓","TEL":"02-25627569","COUNTYNAME":"台北市","TOWNNAME":"中山區","MARKTYPE":"996","Class":"6"},"geometry":{"x":302980.83249999955,"y":2771632.9765000008}},{"attributes":{"OBJECTID":7757,"LANDMARKID":"6300000003683","LANDMARKCO":"603","LANDMARKNA":"宣美飯店","LANDMARKAD":"6300004","ADDRESS":"台北市中山區建國北路一段52號","TEL":"54號1-6樓","COUNTYNAME":"台北市","TOWNNAME":"中山區","MARKTYPE":"996","Class":"6"},"geometry":{"x":304118.3518000003,"y":2771203.9156999998}},{"attributes":{"OBJECTID":7758,"LANDMARKID":"6300000003684","LANDMARKCO":"603","LANDMARKNA":"情覓汽車旅館","LANDMARKAD":"6300004","ADDRESS":"台北市中山區植福路189號","TEL":"02-85020689","COUNTYNAME":"台北市","TOWNNAME":"中山區","MARKTYPE":"996","Class":"6"},"geometry":{"x":306550.14740000013,"y":2775093.0640999991}},{"attributes":{"OBJECTID":7759,"LANDMARKID":"6300000003685","LANDMARKCO":"603","LANDMARKNA":"伊都汽車旅館 (SPA會館)","LANDMARKAD":"6300004","ADDRESS":"台北市中山區植福路289號2樓","TEL":"02-85022238","COUNTYNAME":"台北市","TOWNNAME":"中山區","MARKTYPE":"996","Class":"6"},"geometry":{"x":306622.44579999987,"y":2774924.9245999996}},{"attributes":{"OBJECTID":7760,"LANDMARKID":"6300000003686","LANDMARKCO":"603","LANDMARKNA":"維多麗亞酒店","LANDMARKAD":"6300004","ADDRESS":"台北市中山區敬業四路168號5-10樓","TEL":"02-85020000","COUNTYNAME":"台北市","TOWNNAME":"中山區","MARKTYPE":"996","Class":"6"},"geometry":{"x":306362.43709999975,"y":2775229.8362000007}},{"attributes":{"OBJECTID":7761,"LANDMARKID":"6300000003687","LANDMARKCO":"603","LANDMARKNA":"台北戀館","LANDMARKAD":"6300004","ADDRESS":"台北市中山區樂群三路123號","TEL":"02-85020505","COUNTYNAME":"台北市","TOWNNAME":"中山區","MARKTYPE":"996","Class":"6"},"geometry":{"x":305952.03050000034,"y":2775065.2282999996}},{"attributes":{"OBJECTID":7762,"LANDMARKID":"6300000003688","LANDMARKCO":"603","LANDMARKNA":"國宣大飯店","LANDMARKAD":"6300004","ADDRESS":"台北市中山區錦州街10號","TEL":"02-25215205","COUNTYNAME":"台北市","TOWNNAME":"中山區","MARKTYPE":"996","Class":"6"},"geometry":{"x":302847.82859999966,"y":2772554.3934000004}},{"attributes":{"OBJECTID":7763,"LANDMARKID":"6300000003689","LANDMARKCO":"603","LANDMARKNA":"緒遠旅館","LANDMARKAD":"6300004","ADDRESS":"台北市中山區錦州街20號3樓","TEL":"02-29447804","COUNTYNAME":"台北市","TOWNNAME":"中山區","MARKTYPE":"996","Class":"6"},"geometry":{"x":302880.82479999959,"y":2772553.2655999996}},{"attributes":{"OBJECTID":7764,"LANDMARKID":"6300000003690","LANDMARKCO":"603","LANDMARKNA":"薇閣旅館","LANDMARKAD":"6300004","ADDRESS":"台北市中山區錦州街29號","TEL":"31號2-4樓","COUNTYNAME":"台北市","TOWNNAME":"中山區","MARKTYPE":"996","Class":"6"},"geometry":{"x":303142.89109999966,"y":2772570.3324999996}},{"attributes":{"OBJECTID":7765,"LANDMARKID":"6300000003691","LANDMARKCO":"603","LANDMARKNA":"正統(百利)大飯店","LANDMARKAD":"6300004","ADDRESS":"台北市中山區錦西街6號4-10樓","TEL":"02-25117111-6","COUNTYNAME":"台北市","TOWNNAME":"中山區","MARKTYPE":"996","Class":"6"},"geometry":{"x":302663.80920000002,"y":2772549.0254999995}},{"attributes":{"OBJECTID":7766,"LANDMARKID":"6300000003692","LANDMARKCO":"603","LANDMARKNA":"丹迪旅店","LANDMARKAD":"6300004","ADDRESS":"台北市中山區中山北路一段135巷13號","TEL":"02-25415788","COUNTYNAME":"台北市","TOWNNAME":"中山區","MARKTYPE":"996","Class":"6"},"geometry":{"x":302802.68149999995,"y":2771593.5820000004}},{"attributes":{"OBJECTID":7767,"LANDMARKID":"6300000003693","LANDMARKCO":"603","LANDMARKNA":"柯旅天閣飯店(林森店)","LANDMARKAD":"6300004","ADDRESS":"台北市中山區中山北路一段83巷15號","TEL":"02-25319999","COUNTYNAME":"台北市","TOWNNAME":"中山區","MARKTYPE":"996","Class":"6"},"geometry":{"x":302907.01090000011,"y":2771420.1780999992}},{"attributes":{"OBJECTID":7768,"LANDMARKID":"6300000003694","LANDMARKCO":"603","LANDMARKNA":"柯達大飯店 (台北一店)","LANDMARKAD":"6300004","ADDRESS":"台北市中山區中山北路二段11巷1號","TEL":"02-25422222","COUNTYNAME":"台北市","TOWNNAME":"中山區","MARKTYPE":"996","Class":"6"},"geometry":{"x":302791.02539999969,"y":2771731.6225000005}},{"attributes":{"OBJECTID":7769,"LANDMARKID":"6300000003695","LANDMARKCO":"603","LANDMARKNA":"柯達大飯店台北二店","LANDMARKAD":"6300004","ADDRESS":"台北市中山區中山北路二段139號","TEL":"02-25255555","COUNTYNAME":"台北市","TOWNNAME":"中山區","MARKTYPE":"996","Class":"6"},"geometry":{"x":302772.3077999996,"y":2772727.6809999999}},{"attributes":{"OBJECTID":7770,"LANDMARKID":"6300000003696","LANDMARKCO":"603","LANDMARKNA":"微風商務旅館","LANDMARKAD":"6300004","ADDRESS":"台北市中山區中山北路二段77巷17-3號1-5樓","TEL":"02-25633369","COUNTYNAME":"台北市","TOWNNAME":"中山區","MARKTYPE":"996","Class":"6"},"geometry":{"x":302854.85830000043,"y":2772254.3707999997}},{"attributes":{"OBJECTID":7771,"LANDMARKID":"6300000003697","LANDMARKCO":"603","LANDMARKNA":"綠峰大飯店","LANDMARKAD":"6300004","ADDRESS":"台北市中山區中山北路二段77巷18號","TEL":"02-25112611","COUNTYNAME":"台北市","TOWNNAME":"中山區","MARKTYPE":"996","Class":"6"},"geometry":{"x":302931.78089999966,"y":2772234.0726999994}},{"attributes":{"OBJECTID":7772,"LANDMARKID":"6300000003698","LANDMARKCO":"603","LANDMARKNA":"天津飯店","LANDMARKAD":"6300004","ADDRESS":"台北市中山區天津街57號1-8樓","TEL":"02-25365678","COUNTYNAME":"台北市","TOWNNAME":"中山區","MARKTYPE":"996","Class":"6"},"geometry":{"x":302806.44170000032,"y":2771531.5675000008}},{"attributes":{"OBJECTID":7773,"LANDMARKID":"6300000003699","LANDMARKCO":"603","LANDMARKNA":"新仕商務旅店","LANDMARKAD":"6300004","ADDRESS":"台北市中山區民生西路8號B1-12樓","TEL":"02-25627466","COUNTYNAME":"台北市","TOWNNAME":"中山區","MARKTYPE":"996","Class":"6"},"geometry":{"x":302695.92370000016,"y":2772271.9853000008}},{"attributes":{"OBJECTID":7774,"LANDMARKID":"6300000003700","LANDMARKCO":"603","LANDMARKNA":"神旺商務酒店","LANDMARKAD":"6300004","ADDRESS":"台北市中山區南京東路一段128號","TEL":"02-25115185","COUNTYNAME":"台北市","TOWNNAME":"中山區","MARKTYPE":"996","Class":"6"},"geometry":{"x":303178.81699999981,"y":2771628.2068000007}},{"attributes":{"OBJECTID":7775,"LANDMARKID":"6300000003701","LANDMARKCO":"603","LANDMARKNA":"儂安會館","LANDMARKAD":"6300004","ADDRESS":"台北市中山區農安街34號3樓及7樓","TEL":"02-25963969","COUNTYNAME":"台北市","TOWNNAME":"中山區","MARKTYPE":"996","Class":"6"},"geometry":{"x":303150.39910000004,"y":2773059.2938000001}},{"attributes":{"OBJECTID":7776,"LANDMARKID":"6300000003702","LANDMARKCO":"603","LANDMARKNA":"金殿唯客樂飯店","LANDMARKAD":"6300004","ADDRESS":"台北市中山區植福路288號","TEL":"02-85026161","COUNTYNAME":"台北市","TOWNNAME":"中山區","MARKTYPE":"996","Class":"6"},"geometry":{"x":306598.38790000044,"y":2774909.8640000001}},{"attributes":{"OBJECTID":7777,"LANDMARKID":"6300000003703","LANDMARKCO":"603","LANDMARKNA":"柔美商旅","LANDMARKAD":"6300004","ADDRESS":"台北市中山區建國北路二段64巷9號","TEL":"02-25031133","COUNTYNAME":"台北市","TOWNNAME":"中山區","MARKTYPE":"996","Class":"6"},"geometry":{"x":304065.71530000027,"y":2771910.0068999995}},{"attributes":{"OBJECTID":7778,"LANDMARKID":"6300000003383","LANDMARKCO":"601","LANDMARKNA":"圓山大飯店","LANDMARKAD":"6300004","ADDRESS":"台北市中山區中山北路4段1巷1號","TEL":"02-2886-8888","COUNTYNAME":"台北市","TOWNNAME":"中山區","MARKTYPE":"996","Class":"6"},"geometry":{"x":303346.26040000003,"y":2774870.5918000005}},{"attributes":{"OBJECTID":7779,"LANDMARKID":"6300000003384","LANDMARKCO":"601","LANDMARKNA":"國賓大飯店","LANDMARKAD":"6300004","ADDRESS":"台北市中山區中山北路2段63號","TEL":"02-25511111","COUNTYNAME":"台北市","TOWNNAME":"中山區","MARKTYPE":"996","Class":"6"},"geometry":{"x":302771.54889999982,"y":2772174.6931999996}},{"attributes":{"OBJECTID":7780,"LANDMARKID":"6300000003385","LANDMARKCO":"601","LANDMARKNA":"台北華國大飯店","LANDMARKAD":"6300004","ADDRESS":"台北市中山區林森北路600號","TEL":"02-2596-5111","COUNTYNAME":"台北市","TOWNNAME":"中山區","MARKTYPE":"996","Class":"6"},"geometry":{"x":303027.90909999982,"y":2773190.7704000007}},{"attributes":{"OBJECTID":7781,"LANDMARKID":"6300000003386","LANDMARKCO":"601","LANDMARKNA":"國王大飯店","LANDMARKAD":"6300004","ADDRESS":"台北市中山區南京東路1段118號","TEL":"02-2581-1111","COUNTYNAME":"台北市","TOWNNAME":"中山區","MARKTYPE":"996","Class":"6"},"geometry":{"x":303136.8208999997,"y":2771629.3703000005}},{"attributes":{"OBJECTID":7782,"LANDMARKID":"6300000003387","LANDMARKCO":"601","LANDMARKNA":"康華大飯店","LANDMARKAD":"6300004","ADDRESS":"台北市中山區松江路306號","TEL":"02-2521-5151","COUNTYNAME":"台北市","TOWNNAME":"中山區","MARKTYPE":"996","Class":"6"},"geometry":{"x":303771.79739999957,"y":2772546.0560999997}},{"attributes":{"OBJECTID":7783,"LANDMARKID":"6300000003388","LANDMARKCO":"601","LANDMARKNA":"亞都麗緻大飯店","LANDMARKAD":"6300004","ADDRESS":"台北市中山區民權東路2段41號","TEL":"02-2597-1234","COUNTYNAME":"台北市","TOWNNAME":"中山區","MARKTYPE":"996","Class":"6"},"geometry":{"x":303471.72439999972,"y":2772835.1338999998}},{"attributes":{"OBJECTID":7784,"LANDMARKID":"6300000003389","LANDMARKCO":"601","LANDMARKNA":"台北老爺大酒店","LANDMARKAD":"6300004","ADDRESS":"台北市中山區中山北路2段37之1號","TEL":"02-2542-3266","COUNTYNAME":"台北市","TOWNNAME":"中山區","MARKTYPE":"996","Class":"6"},"geometry":{"x":302754.40469999984,"y":2771829.7641000003}},{"attributes":{"OBJECTID":7785,"LANDMARKID":"6300000003390","LANDMARKCO":"601","LANDMARKNA":"晶華酒店","LANDMARKAD":"6300004","ADDRESS":"台北市中山區中山北路2段41號","TEL":"02-2523-8000","COUNTYNAME":"台北市","TOWNNAME":"中山區","MARKTYPE":"996","Class":"6"},"geometry":{"x":302844.60919999983,"y":2771882.4152000006}},{"attributes":{"OBJECTID":7786,"LANDMARKID":"6300000003391","LANDMARKCO":"601","LANDMARKNA":"六福皇宮","LANDMARKAD":"6300004","ADDRESS":"台北市中山區南京東路3段133號","TEL":"02-8770-6565","COUNTYNAME":"台北市","TOWNNAME":"中山區","MARKTYPE":"996","Class":"6"},"geometry":{"x":304612.96850000042,"y":2771666.0546000004}},{"attributes":{"OBJECTID":7787,"LANDMARKID":"6300000003392","LANDMARKCO":"601","LANDMARKNA":"美麗信花園酒店","LANDMARKAD":"6300004","ADDRESS":"台北市中山區市民大道3段83號","TEL":"02-87728800","COUNTYNAME":"台北市","TOWNNAME":"中山區","MARKTYPE":"996","Class":"6"},"geometry":{"x":304203.25449999981,"y":2770871.5837999992}},{"attributes":{"OBJECTID":7788,"LANDMARKID":"6300000003396","LANDMARKCO":"602","LANDMARKNA":"亞士都飯店","LANDMARKAD":"6300004","ADDRESS":"台北市中山區林森北路98號","TEL":"02-2551-3131","COUNTYNAME":"台北市","TOWNNAME":"中山區","MARKTYPE":"996","Class":"6"},"geometry":{"x":302947.0839999998,"y":2771439.0228000004}},{"attributes":{"OBJECTID":7789,"LANDMARKID":"6300000003397","LANDMARKCO":"602","LANDMARKNA":"第一大飯店","LANDMARKAD":"6300004","ADDRESS":"台北市中山區南京東路2段63號","TEL":"02-2541-8234","COUNTYNAME":"台北市","TOWNNAME":"中山區","MARKTYPE":"996","Class":"6"},"geometry":{"x":303502.98170000035,"y":2771670.0306000002}},{"attributes":{"OBJECTID":7790,"LANDMARKID":"6300000003398","LANDMARKCO":"602","LANDMARKNA":"帝后大飯店","LANDMARKAD":"6300004","ADDRESS":"台北市中山區德惠街14號","TEL":"02-2591-3261","COUNTYNAME":"台北市","TOWNNAME":"中山區","MARKTYPE":"996","Class":"6"},"geometry":{"x":302850.15280000027,"y":2773253.375}},{"attributes":{"OBJECTID":7791,"LANDMARKID":"6300000003399","LANDMARKCO":"602","LANDMARKNA":"歐華酒店","LANDMARKAD":"6300004","ADDRESS":"台北市中山區林森北路646號","TEL":"02-2585-3258","COUNTYNAME":"台北市","TOWNNAME":"中山區","MARKTYPE":"996","Class":"6"},"geometry":{"x":303029.61890000012,"y":2773423.7590999994}},{"attributes":{"OBJECTID":7792,"LANDMARKID":"6300000003400","LANDMARKCO":"602","LANDMARKNA":"慶泰大飯店","LANDMARKAD":"6300004","ADDRESS":"台北市中山區松江路186號","TEL":"02-2541-5511","COUNTYNAME":"台北市","TOWNNAME":"中山區","MARKTYPE":"996","Class":"6"},"geometry":{"x":303765.44940000027,"y":2772150.0859999992}},{"attributes":{"OBJECTID":7793,"LANDMARKID":"6300000003382","LANDMARKCO":"601","LANDMARKNA":"華泰王子大飯店","LANDMARKAD":"6300004","ADDRESS":"台北市中山區林森北路370號","TEL":"02-2581-8111","COUNTYNAME":"台北市","TOWNNAME":"中山區","MARKTYPE":"996","Class":"6"},"geometry":{"x":303008.76630000025,"y":2772272.1124000009}},{"attributes":{"OBJECTID":7794,"LANDMARKID":"6300000003401","LANDMARKCO":"602","LANDMARKNA":"六福客棧","LANDMARKAD":"6300004","ADDRESS":"台北市中山區長春路168號","TEL":"02-2507-3211","COUNTYNAME":"台北市","TOWNNAME":"中山區","MARKTYPE":"996","Class":"6"},"geometry":{"x":303828.25690000039,"y":2771939.8918999992}},{"attributes":{"OBJECTID":7795,"LANDMARKID":"6300000003142","LANDMARKCO":"505","LANDMARKNA":"兒童育樂中心神話世界區","LANDMARKAD":"6300004","ADDRESS":"台北市中山區中山北路三段66號","TEL":"02-25932211","COUNTYNAME":"台北市","TOWNNAME":"中山區","MARKTYPE":"995","Class":"5"},"geometry":{"x":302681.4841,"y":2774069.6930999998}},{"attributes":{"OBJECTID":7796,"LANDMARKID":"6300000003143","LANDMARKCO":"505","LANDMARKNA":"兒童育樂中心民俗童玩區","LANDMARKAD":"6300004","ADDRESS":"台北市中山區中山北路三段66號","TEL":"02-25932211","COUNTYNAME":"台北市","TOWNNAME":"中山區","MARKTYPE":"995","Class":"5"},"geometry":{"x":302657.31850000005,"y":2773988.0470000003}},{"attributes":{"OBJECTID":7797,"LANDMARKID":"6300000003144","LANDMARKCO":"505","LANDMARKNA":"兒童育樂中心民俗工藝區","LANDMARKAD":"6300004","ADDRESS":"台北市中山區中山北路三段66號","TEL":"02-25932211","COUNTYNAME":"台北市","TOWNNAME":"中山區","MARKTYPE":"995","Class":"5"},"geometry":{"x":302715.57809999958,"y":2773962.8602000009}},{"attributes":{"OBJECTID":7798,"LANDMARKID":"6300000003145","LANDMARKCO":"505","LANDMARKNA":"兒童育樂中心遊樂世界","LANDMARKAD":"6300004","ADDRESS":"台北市中山區中山北路三段66號","TEL":"02-25932211","COUNTYNAME":"台北市","TOWNNAME":"中山區","MARKTYPE":"995","Class":"5"},"geometry":{"x":302802.9495000001,"y":2774175.2225000001}},{"attributes":{"OBJECTID":7799,"LANDMARKID":"6300000003146","LANDMARKCO":"505","LANDMARKNA":"台北市立兒童育樂中心","LANDMARKAD":"6300004","ADDRESS":"台北市中山區中山北路三段66號","TEL":"02-25932211","COUNTYNAME":"台北市","TOWNNAME":"中山區","MARKTYPE":"995","Class":"5"},"geometry":{"x":302654.59109999985,"y":2774163.3897999991}},{"attributes":{"OBJECTID":7800,"LANDMARKID":"6300000003147","LANDMARKCO":"505","LANDMARKNA":"兒童育樂中心民俗文化區","LANDMARKAD":"6300004","ADDRESS":"台北市中山區中山北路三段66號","TEL":"02-25932211","COUNTYNAME":"台北市","TOWNNAME":"中山區","MARKTYPE":"995","Class":"5"},"geometry":{"x":302756.15139999986,"y":2773998.7656999994}}]}