{"displayFieldName":"COUNTYNAME","fieldAliases":{"OBJECTID":"OBJECTID","LANDMARKID":"LANDMARKID","LANDMARKCO":"LANDMARKCO","LANDMARKNA":"LANDMARKNA","LANDMARKAD":"LANDMARKAD","ADDRESS":"ADDRESS","TEL":"TEL","COUNTYNAME":"COUNTYNAME","TOWNNAME":"TOWNNAME","MARKTYPE":"MARKTYPE","Class":"Class"},"geometryType":"esriGeometryPoint","spatialReference":{"wkid":4326},"fields":[{"name":"OBJECTID","type":"esriFieldTypeOID","alias":"OBJECTID"},{"name":"LANDMARKID","type":"esriFieldTypeString","alias":"LANDMARKID","length":15},{"name":"LANDMARKCO","type":"esriFieldTypeString","alias":"LANDMARKCO","length":15},{"name":"LANDMARKNA","type":"esriFieldTypeString","alias":"LANDMARKNA","length":50},{"name":"LANDMARKAD","type":"esriFieldTypeString","alias":"LANDMARKAD","length":15},{"name":"ADDRESS","type":"esriFieldTypeString","alias":"ADDRESS","length":56},{"name":"TEL","type":"esriFieldTypeString","alias":"TEL","length":36},{"name":"COUNTYNAME","type":"esriFieldTypeString","alias":"COUNTYNAME","length":15},{"name":"TOWNNAME","type":"esriFieldTypeString","alias":"TOWNNAME","length":13},{"name":"MARKTYPE","type":"esriFieldTypeString","alias":"MARKTYPE","length":12},{"name":"Class","type":"esriFieldTypeString","alias":"Class","length":5}],"features":[{"attributes":{"OBJECTID":23001,"LANDMARKID":"1000200001063","LANDMARKCO":"604","LANDMARKNA":"香杉屋民宿","LANDMARKAD":"1000208","ADDRESS":"宜蘭縣冬山鄉得安村大埤二路223號","TEL":"02-24518899","COUNTYNAME":"宜蘭縣","TOWNNAME":"冬山鄉","MARKTYPE":"996","Class":"6"},"geometry":{"x":121.728850958332,"y":24.645987877717282}},{"attributes":{"OBJECTID":23002,"LANDMARKID":"1000200001064","LANDMARKCO":"604","LANDMARKNA":"微風小棧","LANDMARKAD":"1000208","ADDRESS":"宜蘭縣冬山鄉水井一路250巷36號","TEL":"03-9519448","COUNTYNAME":"宜蘭縣","TOWNNAME":"冬山鄉","MARKTYPE":"996","Class":"6"},"geometry":{"x":121.74989619666472,"y":24.677810748820203}},{"attributes":{"OBJECTID":23003,"LANDMARKID":"1000200001065","LANDMARKCO":"604","LANDMARKNA":"遇而歡田園民宿","LANDMARKAD":"1000208","ADDRESS":"宜蘭縣冬山鄉永和路800號","TEL":"03-9680682","COUNTYNAME":"宜蘭縣","TOWNNAME":"冬山鄉","MARKTYPE":"996","Class":"6"},"geometry":{"x":121.7781526218584,"y":24.649904136716703}},{"attributes":{"OBJECTID":23004,"LANDMARKID":"1000200001066","LANDMARKCO":"604","LANDMARKNA":"永美民宿","LANDMARKAD":"1000208","ADDRESS":"宜蘭縣冬山鄉永美村二塹路173巷2號","TEL":"03-9581281","COUNTYNAME":"宜蘭縣","TOWNNAME":"冬山鄉","MARKTYPE":"996","Class":"6"},"geometry":{"x":121.77862541725999,"y":24.651034687553619}},{"attributes":{"OBJECTID":23005,"LANDMARKID":"1000200001067","LANDMARKCO":"604","LANDMARKNA":"得安民宿","LANDMARKAD":"1000208","ADDRESS":"宜蘭縣冬山鄉永美村二塹路173巷7號","TEL":"03-9516496","COUNTYNAME":"宜蘭縣","TOWNNAME":"冬山鄉","MARKTYPE":"996","Class":"6"},"geometry":{"x":121.77862541725999,"y":24.651034687553619}},{"attributes":{"OBJECTID":23006,"LANDMARKID":"1000200001068","LANDMARKCO":"604","LANDMARKNA":"新屋民宿","LANDMARKAD":"1000208","ADDRESS":"宜蘭縣冬山鄉永美村冬山路3段181巷223弄30號","TEL":"03-9589029","COUNTYNAME":"宜蘭縣","TOWNNAME":"冬山鄉","MARKTYPE":"996","Class":"6"},"geometry":{"x":121.77354170908153,"y":24.659097289973467}},{"attributes":{"OBJECTID":23007,"LANDMARKID":"1000200001069","LANDMARKCO":"604","LANDMARKNA":"武荖坑渡假民宿","LANDMARKAD":"1000208","ADDRESS":"宜蘭縣冬山鄉東城村冬山路一段37巷9弄28號","TEL":"0910 -145309","COUNTYNAME":"宜蘭縣","TOWNNAME":"冬山鄉","MARKTYPE":"996","Class":"6"},"geometry":{"x":121.80990565100235,"y":24.615542621368142}},{"attributes":{"OBJECTID":23008,"LANDMARKID":"1000200001070","LANDMARKCO":"604","LANDMARKNA":"休閒家渡假民宿","LANDMARKAD":"1000208","ADDRESS":"宜蘭縣冬山鄉東城村冬山路一段37巷9弄3號","TEL":"03-9596266","COUNTYNAME":"宜蘭縣","TOWNNAME":"冬山鄉","MARKTYPE":"996","Class":"6"},"geometry":{"x":121.81024678231738,"y":24.615251784890617}},{"attributes":{"OBJECTID":23009,"LANDMARKID":"1000200001071","LANDMARKCO":"604","LANDMARKNA":"東城民宿","LANDMARKAD":"1000208","ADDRESS":"宜蘭縣冬山鄉東城村冬山路一段67號","TEL":"03-9590359","COUNTYNAME":"宜蘭縣","TOWNNAME":"冬山鄉","MARKTYPE":"996","Class":"6"},"geometry":{"x":121.79370199049249,"y":24.633245348343678}},{"attributes":{"OBJECTID":23010,"LANDMARKID":"1000200001072","LANDMARKCO":"604","LANDMARKNA":"檜木屋民宿","LANDMARKAD":"1000208","ADDRESS":"宜蘭縣冬山鄉得安村大埤二路238號","TEL":"02-24518899","COUNTYNAME":"宜蘭縣","TOWNNAME":"冬山鄉","MARKTYPE":"996","Class":"6"},"geometry":{"x":121.72818587374096,"y":24.646492100198753}},{"attributes":{"OBJECTID":23011,"LANDMARKID":"1000200001073","LANDMARKCO":"604","LANDMARKNA":"湖畔人家民宿","LANDMARKAD":"1000208","ADDRESS":"宜蘭縣冬山鄉得安村大埤二路250號","TEL":"03-9610819","COUNTYNAME":"宜蘭縣","TOWNNAME":"冬山鄉","MARKTYPE":"996","Class":"6"},"geometry":{"x":121.7279693843672,"y":24.647098148931828}},{"attributes":{"OBJECTID":23012,"LANDMARKID":"1000200001074","LANDMARKCO":"604","LANDMARKNA":"內湖27民宿","LANDMARKAD":"1000208","ADDRESS":"宜蘭縣冬山鄉得安村內湖路203巷27號","TEL":"03-9602320","COUNTYNAME":"宜蘭縣","TOWNNAME":"冬山鄉","MARKTYPE":"996","Class":"6"},"geometry":{"x":121.74541770152722,"y":24.642290254112119}},{"attributes":{"OBJECTID":23013,"LANDMARKID":"1000200001075","LANDMARKCO":"604","LANDMARKNA":"內湖29渡假民宿","LANDMARKAD":"1000208","ADDRESS":"宜蘭縣冬山鄉得安村內湖路203巷29號","TEL":"03-9602320","COUNTYNAME":"宜蘭縣","TOWNNAME":"冬山鄉","MARKTYPE":"996","Class":"6"},"geometry":{"x":121.74541770152722,"y":24.642290254112119}},{"attributes":{"OBJECTID":23014,"LANDMARKID":"1000200001076","LANDMARKCO":"604","LANDMARKNA":"庭民宿","LANDMARKAD":"1000208","ADDRESS":"宜蘭縣冬山鄉得安村梅花路976號","TEL":"03-9510976","COUNTYNAME":"宜蘭縣","TOWNNAME":"冬山鄉","MARKTYPE":"996","Class":"6"},"geometry":{"x":121.73137706172595,"y":24.656939080862337}},{"attributes":{"OBJECTID":23015,"LANDMARKID":"1000200001077","LANDMARKCO":"604","LANDMARKNA":"梅花客棧","LANDMARKAD":"1000208","ADDRESS":"宜蘭縣冬山鄉梅湖路59號","TEL":"03-9513610","COUNTYNAME":"宜蘭縣","TOWNNAME":"冬山鄉","MARKTYPE":"996","Class":"6"},"geometry":{"x":121.73317200065256,"y":24.649962336052752}},{"attributes":{"OBJECTID":23016,"LANDMARKID":"1000200001078","LANDMARKCO":"604","LANDMARKNA":"耕園民宿","LANDMARKAD":"1000208","ADDRESS":"宜蘭縣冬山鄉鹿埔路655巷8號","TEL":"03-9515268","COUNTYNAME":"宜蘭縣","TOWNNAME":"冬山鄉","MARKTYPE":"996","Class":"6"},"geometry":{"x":121.75232834244733,"y":24.659224437368547}},{"attributes":{"OBJECTID":23017,"LANDMARKID":"1000200001079","LANDMARKCO":"604","LANDMARKNA":"北成庄民宿","LANDMARKAD":"1000208","ADDRESS":"宜蘭縣羅東鎮北成路二段135巷55號","TEL":"03-9611229","COUNTYNAME":"宜蘭縣","TOWNNAME":"冬山鄉","MARKTYPE":"996","Class":"6"},"geometry":{"x":121.74867205361436,"y":24.676348856560207}},{"attributes":{"OBJECTID":23018,"LANDMARKID":"1000200001080","LANDMARKCO":"604","LANDMARKNA":"山水民宿","LANDMARKAD":"1000208","ADDRESS":"宜蘭縣冬山鄉東城村冬山路一段71號","TEL":"03-9591851","COUNTYNAME":"宜蘭縣","TOWNNAME":"冬山鄉","MARKTYPE":"996","Class":"6"},"geometry":{"x":121.81032614874846,"y":24.615929356682983}},{"attributes":{"OBJECTID":23019,"LANDMARKID":"1000200001081","LANDMARKCO":"604","LANDMARKNA":"勤禾園民宿","LANDMARKAD":"1000208","ADDRESS":"宜蘭縣冬山鄉柯林村4鄰柯林路406號","TEL":"03-9513665","COUNTYNAME":"宜蘭縣","TOWNNAME":"冬山鄉","MARKTYPE":"996","Class":"6"},"geometry":{"x":121.73793218151023,"y":24.680926139334467}},{"attributes":{"OBJECTID":23020,"LANDMARKID":"1000200001082","LANDMARKCO":"604","LANDMARKNA":"近水小築民宿","LANDMARKAD":"1000208","ADDRESS":"宜蘭縣冬山鄉順安村鹿安路609巷2號","TEL":"03-9356594","COUNTYNAME":"宜蘭縣","TOWNNAME":"冬山鄉","MARKTYPE":"996","Class":"6"},"geometry":{"x":121.75645976909907,"y":24.660617528154926}},{"attributes":{"OBJECTID":23021,"LANDMARKID":"1000200001083","LANDMARKCO":"604","LANDMARKNA":"糖果屋","LANDMARKAD":"1000208","ADDRESS":"宜蘭縣冬山鄉群英村富英路77號","TEL":"03-9506084","COUNTYNAME":"宜蘭縣","TOWNNAME":"冬山鄉","MARKTYPE":"996","Class":"6"},"geometry":{"x":121.78090561835856,"y":24.65661925768638}},{"attributes":{"OBJECTID":23022,"LANDMARKID":"1000200001084","LANDMARKCO":"604","LANDMARKNA":"綠中海民宿","LANDMARKAD":"1000208","ADDRESS":"宜蘭縣冬山鄉廣安村水井二路126號","TEL":"03-9617507","COUNTYNAME":"宜蘭縣","TOWNNAME":"冬山鄉","MARKTYPE":"996","Class":"6"},"geometry":{"x":121.7412909272215,"y":24.676679240183397}},{"attributes":{"OBJECTID":23023,"LANDMARKID":"1000200001085","LANDMARKCO":"604","LANDMARKNA":"雲天楓泉","LANDMARKAD":"1000208","ADDRESS":"宜蘭縣冬山鄉廣安村水井三路472號","TEL":"03-9615511","COUNTYNAME":"宜蘭縣","TOWNNAME":"冬山鄉","MARKTYPE":"996","Class":"6"},"geometry":{"x":121.74679036785867,"y":24.677839429944687}},{"attributes":{"OBJECTID":23024,"LANDMARKID":"1000200001086","LANDMARKCO":"604","LANDMARKNA":"童話村民宿","LANDMARKAD":"1000208","ADDRESS":"宜蘭縣冬山鄉廣興村梅花路300號","TEL":"03-9613385","COUNTYNAME":"宜蘭縣","TOWNNAME":"冬山鄉","MARKTYPE":"996","Class":"6"},"geometry":{"x":121.741097794399,"y":24.665039196221343}},{"attributes":{"OBJECTID":23025,"LANDMARKID":"1000200001087","LANDMARKCO":"604","LANDMARKNA":"碧霞民宿","LANDMARKAD":"1000208","ADDRESS":"宜蘭縣冬山鄉廣興村廣興路158巷2弄16號","TEL":"03-9553123","COUNTYNAME":"宜蘭縣","TOWNNAME":"冬山鄉","MARKTYPE":"996","Class":"6"},"geometry":{"x":121.7491155006791,"y":24.670867646990292}},{"attributes":{"OBJECTID":23026,"LANDMARKID":"1000200001088","LANDMARKCO":"604","LANDMARKNA":"松豐軒","LANDMARKAD":"1000208","ADDRESS":"宜蘭縣冬山鄉順安村31鄰永興路二段273巷9號","TEL":"03-9587156","COUNTYNAME":"宜蘭縣","TOWNNAME":"冬山鄉","MARKTYPE":"996","Class":"6"},"geometry":{"x":121.75540921658494,"y":24.657086871537704}},{"attributes":{"OBJECTID":23027,"LANDMARKID":"1000200000648","LANDMARKCO":"503","LANDMARKNA":"分洪堰風景區","LANDMARKAD":"1000208","ADDRESS":"宜蘭縣冬山鄉安農溪旁","TEL":"03-9892018","COUNTYNAME":"宜蘭縣","TOWNNAME":"冬山鄉","MARKTYPE":"995","Class":"5"},"geometry":{"x":121.72730093803582,"y":24.686044486568512}},{"attributes":{"OBJECTID":23028,"LANDMARKID":"1000200000649","LANDMARKCO":"503","LANDMARKNA":"梅花湖風景特定區","LANDMARKAD":"1000208","ADDRESS":"宜蘭縣冬山鄉","TEL":" ","COUNTYNAME":"宜蘭縣","TOWNNAME":"冬山鄉","MARKTYPE":"995","Class":"5"},"geometry":{"x":121.73700602801965,"y":24.641918544763925}},{"attributes":{"OBJECTID":23029,"LANDMARKID":"1000200000663","LANDMARKCO":"505","LANDMARKNA":"仁山植物園","LANDMARKAD":"1000208","ADDRESS":"宜蘭縣冬山鄉中山村138號","TEL":" ","COUNTYNAME":"宜蘭縣","TOWNNAME":"冬山鄉","MARKTYPE":"995","Class":"5"},"geometry":{"x":121.76116551914218,"y":24.627120000384995}},{"attributes":{"OBJECTID":23030,"LANDMARKID":"1000200000522","LANDMARKCO":"405","LANDMARKNA":"中油加油站-南山站(中油直營)","LANDMARKAD":"1000211","ADDRESS":"宜蘭縣大同鄉南山村泰雅路7段226號","TEL":"039-809050","COUNTYNAME":"宜蘭縣","TOWNNAME":"大同鄉","MARKTYPE":"994","Class":"4"},"geometry":{"x":121.37863876378201,"y":24.438710904010382}},{"attributes":{"OBJECTID":23031,"LANDMARKID":"1000200000523","LANDMARKCO":"405","LANDMARKNA":"中油加油站-大同站(中油直營)","LANDMARKAD":"1000211","ADDRESS":"宜蘭縣大同鄉崙埤村泰雅路一段92號","TEL":"039-801181","COUNTYNAME":"宜蘭縣","TOWNNAME":"大同鄉","MARKTYPE":"994","Class":"4"},"geometry":{"x":121.60449837424999,"y":24.671200617496012}},{"attributes":{"OBJECTID":23032,"LANDMARKID":"1000200000666","LANDMARKCO":"506","LANDMARKNA":"茶之鄉茶園","LANDMARKAD":"1000211","ADDRESS":"宜蘭縣大同鄉鹿場路2號","TEL":"03-9801118","COUNTYNAME":"宜蘭縣","TOWNNAME":"大同鄉","MARKTYPE":"995","Class":"5"},"geometry":{"x":121.47327926179213,"y":24.656294008982513}},{"attributes":{"OBJECTID":23033,"LANDMARKID":"1000200000667","LANDMARKCO":"506","LANDMARKNA":"玉蘭茶園","LANDMARKAD":"1000211","ADDRESS":"宜蘭縣大同鄉玉蘭村松羅村鹿場路1號","TEL":"03-9801259","COUNTYNAME":"宜蘭縣","TOWNNAME":"大同鄉","MARKTYPE":"995","Class":"5"},"geometry":{"x":121.46920271836471,"y":24.639405516643127}},{"attributes":{"OBJECTID":23034,"LANDMARKID":"1000200000619","LANDMARKCO":"408","LANDMARKNA":"郵局-大同郵局","LANDMARKAD":"1000211","ADDRESS":"宜蘭縣大同鄉崙埤村泰雅路1段58號","TEL":"(03)9801-127","COUNTYNAME":"宜蘭縣","TOWNNAME":"大同鄉","MARKTYPE":"994","Class":"4"},"geometry":{"x":121.60961877703494,"y":24.675776864510244}},{"attributes":{"OBJECTID":23035,"LANDMARKID":"1000200000188","LANDMARKCO":"108","LANDMARKNA":"宜蘭縣大同鄉公所","LANDMARKAD":"1000211","ADDRESS":"宜蘭縣大同鄉崙埤村朝陽38號","TEL":"03-9801004","COUNTYNAME":"宜蘭縣","TOWNNAME":"大同鄉","MARKTYPE":"991","Class":"1"},"geometry":{"x":121.62267798361161,"y":24.682999950273651}},{"attributes":{"OBJECTID":23036,"LANDMARKID":"1000200000035","LANDMARKCO":"103","LANDMARKNA":"宜蘭縣大同鄉鄉民代表會","LANDMARKAD":"1000211","ADDRESS":"宜蘭縣大同鄉崙埤村朝陽37之1號2樓","TEL":"03-9801171","COUNTYNAME":"宜蘭縣","TOWNNAME":"大同鄉","MARKTYPE":"991","Class":"1"},"geometry":{"x":121.60928956442582,"y":24.677274682151328}},{"attributes":{"OBJECTID":23037,"LANDMARKID":"1000200000080","LANDMARKCO":"106","LANDMARKNA":"宜蘭縣大同鄉戶政事務所","LANDMARKAD":"1000211","ADDRESS":"宜蘭縣大同鄉崙埤村6鄰朝陽50號","TEL":"039-801178","COUNTYNAME":"宜蘭縣","TOWNNAME":"大同鄉","MARKTYPE":"991","Class":"1"},"geometry":{"x":121.60835958963634,"y":24.678546173916999}},{"attributes":{"OBJECTID":23038,"LANDMARKID":"1000200000109","LANDMARKCO":"107","LANDMARKNA":"宜蘭縣消防局大同消防分隊","LANDMARKAD":"1000211","ADDRESS":"宜蘭縣大同鄉朝陽巷42號","TEL":"03-9801123","COUNTYNAME":"宜蘭縣","TOWNNAME":"大同鄉","MARKTYPE":"991","Class":"1"},"geometry":{"x":121.60890510335331,"y":24.677368087696749}},{"attributes":{"OBJECTID":23039,"LANDMARKID":"1000200000034","LANDMARKCO":"103","LANDMARKNA":"宜蘭縣大同鄉衛生所","LANDMARKAD":"1000211","ADDRESS":"宜蘭縣大同鄉崙埤村朝陽40號","TEL":"03-9801175","COUNTYNAME":"宜蘭縣","TOWNNAME":"大同鄉","MARKTYPE":"991","Class":"1"},"geometry":{"x":121.60882859041523,"y":24.678000655768653}},{"attributes":{"OBJECTID":23040,"LANDMARKID":"1000200000110","LANDMARKCO":"107","LANDMARKNA":"宜蘭縣警察局松羅派出所","LANDMARKAD":"1000211","ADDRESS":"宜蘭縣大同鄉松羅村松羅西巷16號","TEL":"039-801196","COUNTYNAME":"宜蘭縣","TOWNNAME":"大同鄉","MARKTYPE":"991","Class":"1"},"geometry":{"x":121.5799866396608,"y":24.656259393009403}},{"attributes":{"OBJECTID":23041,"LANDMARKID":"1000200000111","LANDMARKCO":"107","LANDMARKNA":"宜蘭縣警察局明池派出所","LANDMARKAD":"1000211","ADDRESS":"宜蘭縣大同鄉太平村黑帽巷6號","TEL":"03-9801727","COUNTYNAME":"宜蘭縣","TOWNNAME":"大同鄉","MARKTYPE":"991","Class":"1"},"geometry":{"x":121.47309787420215,"y":24.650319632830385}},{"attributes":{"OBJECTID":23042,"LANDMARKID":"1000200000112","LANDMARKCO":"107","LANDMARKNA":"宜蘭縣警察局茂安派出所","LANDMARKAD":"1000211","ADDRESS":"宜蘭縣大同鄉茂安村志航巷15之1號","TEL":"03-9809659","COUNTYNAME":"宜蘭縣","TOWNNAME":"大同鄉","MARKTYPE":"991","Class":"1"},"geometry":{"x":121.44958959723337,"y":24.52470806194588}},{"attributes":{"OBJECTID":23043,"LANDMARKID":"1000200000113","LANDMARKCO":"107","LANDMARKNA":"宜蘭縣警察局南山派出所","LANDMARKAD":"1000211","ADDRESS":"宜蘭縣大同鄉埤南巷7號","TEL":"03-9809175","COUNTYNAME":"宜蘭縣","TOWNNAME":"大同鄉","MARKTYPE":"991","Class":"1"},"geometry":{"x":121.37908066755085,"y":24.439763152482993}},{"attributes":{"OBJECTID":23044,"LANDMARKID":"1000200000114","LANDMARKCO":"107","LANDMARKNA":"宜蘭縣警察局四季派出所","LANDMARKAD":"1000211","ADDRESS":"宜蘭縣大同鄉四季村和勳巷12號","TEL":"039-809435","COUNTYNAME":"宜蘭縣","TOWNNAME":"大同鄉","MARKTYPE":"991","Class":"1"},"geometry":{"x":121.42875755316525,"y":24.486581063846351}},{"attributes":{"OBJECTID":23045,"LANDMARKID":"1000200000115","LANDMARKCO":"107","LANDMARKNA":"宜蘭縣警察局太平山派出所","LANDMARKAD":"1000211","ADDRESS":"宜蘭縣南澳鄉太平村太平巷94之2號","TEL":"039-809802","COUNTYNAME":"宜蘭縣","TOWNNAME":"大同鄉","MARKTYPE":"991","Class":"1"},"geometry":{"x":121.5334882795099,"y":24.498257939376039}},{"attributes":{"OBJECTID":23046,"LANDMARKID":"1000200000116","LANDMARKCO":"107","LANDMARKNA":"宜蘭縣警察局土場派出所","LANDMARKAD":"1000211","ADDRESS":"宜蘭縣大同鄉太平村土場巷20號","TEL":"03-9809612","COUNTYNAME":"宜蘭縣","TOWNNAME":"大同鄉","MARKTYPE":"991","Class":"1"},"geometry":{"x":121.49804777375454,"y":24.573495743509774}},{"attributes":{"OBJECTID":23047,"LANDMARKID":"1000200000117","LANDMARKCO":"107","LANDMARKNA":"宜蘭縣警察局碼崙派出所","LANDMARKAD":"1000211","ADDRESS":"宜蘭縣大同鄉樂水村碼崙路59號","TEL":"039-801422","COUNTYNAME":"宜蘭縣","TOWNNAME":"大同鄉","MARKTYPE":"991","Class":"1"},"geometry":{"x":121.52959575702837,"y":24.598213214635113}},{"attributes":{"OBJECTID":23048,"LANDMARKID":"1000200000118","LANDMARKCO":"107","LANDMARKNA":"宜蘭縣警察局英士派出所","LANDMARKAD":"1000211","ADDRESS":"宜蘭縣大同鄉英士村梵梵巷72號","TEL":"039-801325","COUNTYNAME":"宜蘭縣","TOWNNAME":"大同鄉","MARKTYPE":"991","Class":"1"},"geometry":{"x":121.52463867050807,"y":24.614841187927869}},{"attributes":{"OBJECTID":23049,"LANDMARKID":"1000200000119","LANDMARKCO":"107","LANDMARKNA":"宜蘭縣警察局牛鬥派出所","LANDMARKAD":"1000211","ADDRESS":"宜蘭縣大同鄉復興村泰雅1路牛鬥巷52號","TEL":"03-9898910","COUNTYNAME":"宜蘭縣","TOWNNAME":"大同鄉","MARKTYPE":"991","Class":"1"},"geometry":{"x":121.56637858032985,"y":24.639788261088718}},{"attributes":{"OBJECTID":23050,"LANDMARKID":"1000200000120","LANDMARKCO":"107","LANDMARKNA":"宜蘭縣警察局大同分駐所","LANDMARKAD":"1000211","ADDRESS":"宜蘭縣大同鄉崙埤村朝陽巷39號","TEL":"039-801176","COUNTYNAME":"宜蘭縣","TOWNNAME":"大同鄉","MARKTYPE":"991","Class":"1"},"geometry":{"x":121.604887819406,"y":24.671961090582492}},{"attributes":{"OBJECTID":23051,"LANDMARKID":"1000200000121","LANDMARKCO":"107","LANDMARKNA":"宜蘭縣警察局寒溪派出所","LANDMARKAD":"1000211","ADDRESS":"宜蘭縣大同鄉寒溪村寒溪巷65之2號","TEL":"039-517465","COUNTYNAME":"宜蘭縣","TOWNNAME":"大同鄉","MARKTYPE":"991","Class":"1"},"geometry":{"x":121.68869986408198,"y":24.608037009177828}},{"attributes":{"OBJECTID":23052,"LANDMARKID":"1000200000221","LANDMARKCO":"203","LANDMARKNA":"縣立大同國中","LANDMARKAD":"1000211","ADDRESS":"宜蘭縣大同鄉太平村一鄰泰雅路四段35號","TEL":"03-9809611","COUNTYNAME":"宜蘭縣","TOWNNAME":"大同鄉","MARKTYPE":"992","Class":"2"},"geometry":{"x":121.47784455393469,"y":24.574376285114514}},{"attributes":{"OBJECTID":23053,"LANDMARKID":"1000200000222","LANDMARKCO":"203","LANDMARKNA":"縣立大同國小樂水分校","LANDMARKAD":"1000211","ADDRESS":"宜蘭縣大同鄉樂水村碼崙路21號","TEL":"03-9801415","COUNTYNAME":"宜蘭縣","TOWNNAME":"大同鄉","MARKTYPE":"992","Class":"2"},"geometry":{"x":121.52958331640507,"y":24.600470446682177}},{"attributes":{"OBJECTID":23054,"LANDMARKID":"1000200000223","LANDMARKCO":"203","LANDMARKNA":"縣立寒溪國小","LANDMARKAD":"1000211","ADDRESS":"宜蘭縣大同鄉寒溪村寒溪巷16號","TEL":"03-9517441","COUNTYNAME":"宜蘭縣","TOWNNAME":"大同鄉","MARKTYPE":"992","Class":"2"},"geometry":{"x":121.68739799064464,"y":24.609583715627245}},{"attributes":{"OBJECTID":23055,"LANDMARKID":"1000200000224","LANDMARKCO":"203","LANDMARKNA":"縣立四季國小","LANDMARKAD":"1000211","ADDRESS":"宜蘭縣大同鄉四季村和勳巷1號","TEL":"03-9809312","COUNTYNAME":"宜蘭縣","TOWNNAME":"大同鄉","MARKTYPE":"992","Class":"2"},"geometry":{"x":121.42641054569511,"y":24.48821171596553}},{"attributes":{"OBJECTID":23056,"LANDMARKID":"1000200000225","LANDMARKCO":"203","LANDMARKNA":"縣立四季國小英士分班","LANDMARKAD":"1000211","ADDRESS":"宜蘭縣大同鄉英士村100號","TEL":"03-9801312","COUNTYNAME":"宜蘭縣","TOWNNAME":"大同鄉","MARKTYPE":"992","Class":"2"},"geometry":{"x":121.52633912813369,"y":24.61366528295332}},{"attributes":{"OBJECTID":23057,"LANDMARKID":"1000200000226","LANDMARKCO":"203","LANDMARKNA":"縣立南山國小","LANDMARKAD":"1000211","ADDRESS":"宜蘭縣大同鄉南山村四鄰埤南巷31之3號","TEL":"03-9809113","COUNTYNAME":"宜蘭縣","TOWNNAME":"大同鄉","MARKTYPE":"992","Class":"2"},"geometry":{"x":121.38090542646752,"y":24.438406619656853}},{"attributes":{"OBJECTID":23058,"LANDMARKID":"1000200000227","LANDMARKCO":"203","LANDMARKNA":"縣立崙埤國小","LANDMARKAD":"1000211","ADDRESS":"宜蘭縣大同鄉","TEL":" ","COUNTYNAME":"宜蘭縣","TOWNNAME":"大同鄉","MARKTYPE":"992","Class":"2"},"geometry":{"x":121.60656915464044,"y":24.682792825061192}},{"attributes":{"OBJECTID":23059,"LANDMARKID":"1000200000228","LANDMARKCO":"203","LANDMARKNA":"縣立玉蘭國小","LANDMARKAD":"1000211","ADDRESS":"宜蘭縣大同鄉","TEL":" ","COUNTYNAME":"宜蘭縣","TOWNNAME":"大同鄉","MARKTYPE":"992","Class":"2"},"geometry":{"x":121.59123344362723,"y":24.665062783970555}},{"attributes":{"OBJECTID":23060,"LANDMARKID":"1000200000229","LANDMARKCO":"203","LANDMARKNA":"縣立松羅國小","LANDMARKAD":"1000211","ADDRESS":"宜蘭縣大同鄉","TEL":" ","COUNTYNAME":"宜蘭縣","TOWNNAME":"大同鄉","MARKTYPE":"992","Class":"2"},"geometry":{"x":121.57872953864236,"y":24.655998226514626}},{"attributes":{"OBJECTID":23061,"LANDMARKID":"1000200000426","LANDMARKCO":"303","LANDMARKNA":"太平山停車場","LANDMARKAD":"1000211","ADDRESS":"宜蘭縣大同鄉","TEL":" ","COUNTYNAME":"宜蘭縣","TOWNNAME":"大同鄉","MARKTYPE":"993","Class":"303"},"geometry":{"x":121.4965019858015,"y":24.573195797601628}},{"attributes":{"OBJECTID":23062,"LANDMARKID":"1000200000427","LANDMARKCO":"303","LANDMARKNA":"玉蘭茶園停車場","LANDMARKAD":"1000211","ADDRESS":"宜蘭縣大同鄉","TEL":" ","COUNTYNAME":"宜蘭縣","TOWNNAME":"大同鄉","MARKTYPE":"993","Class":"303"},"geometry":{"x":121.59290221221487,"y":24.665240231330248}},{"attributes":{"OBJECTID":23063,"LANDMARKID":"1000200000428","LANDMARKCO":"303","LANDMARKNA":"明池森林遊樂區停車場","LANDMARKAD":"1000211","ADDRESS":"宜蘭縣大同鄉明池巷41號","TEL":" ","COUNTYNAME":"宜蘭縣","TOWNNAME":"大同鄉","MARKTYPE":"993","Class":"303"},"geometry":{"x":121.46638725983077,"y":24.652531039775578}},{"attributes":{"OBJECTID":23064,"LANDMARKID":"1000200000429","LANDMARKCO":"303","LANDMARKNA":"松羅停車場","LANDMARKAD":"1000211","ADDRESS":"宜蘭縣大同鄉松羅巷","TEL":" ","COUNTYNAME":"宜蘭縣","TOWNNAME":"大同鄉","MARKTYPE":"993","Class":"303"},"geometry":{"x":121.48379060770228,"y":24.640417566021878}},{"attributes":{"OBJECTID":23065,"LANDMARKID":"1000200000430","LANDMARKCO":"303","LANDMARKNA":"棲蘭森林遊樂區停車場","LANDMARKAD":"1000211","ADDRESS":"宜蘭縣大同鄉土場巷62號","TEL":" ","COUNTYNAME":"宜蘭縣","TOWNNAME":"大同鄉","MARKTYPE":"993","Class":"303"},"geometry":{"x":121.48974678157082,"y":24.581130173898675}},{"attributes":{"OBJECTID":23066,"LANDMARKID":"1000200000431","LANDMARKCO":"303","LANDMARKNA":"太平山森林遊樂區停車場","LANDMARKAD":"1000211","ADDRESS":"宜蘭縣大同鄉太平巷581號","TEL":" ","COUNTYNAME":"宜蘭縣","TOWNNAME":"大同鄉","MARKTYPE":"993","Class":"303"},"geometry":{"x":121.53067219733953,"y":24.500686840869427}},{"attributes":{"OBJECTID":23067,"LANDMARKID":"1000200001095","LANDMARKCO":"604","LANDMARKNA":"雅韻民宿","LANDMARKAD":"1000211","ADDRESS":"宜蘭縣大同鄉崙埤村2鄰16號","TEL":"03-9801070","COUNTYNAME":"宜蘭縣","TOWNNAME":"大同鄉","MARKTYPE":"996","Class":"6"},"geometry":{"x":121.60702346595554,"y":24.683130150409848}},{"attributes":{"OBJECTID":23068,"LANDMARKID":"1000200001096","LANDMARKCO":"604","LANDMARKNA":"牡庫．夏民宿","LANDMARKAD":"1000211","ADDRESS":"宜蘭縣大同鄉崙埤村2鄰崙埤18號","TEL":"03-9801933","COUNTYNAME":"宜蘭縣","TOWNNAME":"大同鄉","MARKTYPE":"996","Class":"6"},"geometry":{"x":121.60750064573739,"y":24.683165220042056}},{"attributes":{"OBJECTID":23069,"LANDMARKID":"1000200001097","LANDMARKCO":"604","LANDMARKNA":"山泉之戀休閒民宿","LANDMARKAD":"1000211","ADDRESS":"宜蘭縣大同鄉崙埤村林家7號","TEL":"03-9801136","COUNTYNAME":"宜蘭縣","TOWNNAME":"大同鄉","MARKTYPE":"996","Class":"6"},"geometry":{"x":121.60033434932308,"y":24.673339741271487}},{"attributes":{"OBJECTID":23070,"LANDMARKID":"1000200001098","LANDMARKCO":"604","LANDMARKNA":"香林茶園民宿","LANDMARKAD":"1000211","ADDRESS":"宜蘭縣大同鄉崙埤村林家8號","TEL":"03-9801915","COUNTYNAME":"宜蘭縣","TOWNNAME":"大同鄉","MARKTYPE":"996","Class":"6"},"geometry":{"x":121.60012482572473,"y":24.673439578245784}},{"attributes":{"OBJECTID":23071,"LANDMARKID":"1000200001099","LANDMARKCO":"604","LANDMARKNA":"森情休閒民宿","LANDMARKAD":"1000211","ADDRESS":"宜蘭縣大同鄉崙埤村林家9號","TEL":"03-9801857","COUNTYNAME":"宜蘭縣","TOWNNAME":"大同鄉","MARKTYPE":"996","Class":"6"},"geometry":{"x":121.59996930450829,"y":24.673540129162667}},{"attributes":{"OBJECTID":23072,"LANDMARKID":"1000200001100","LANDMARKCO":"604","LANDMARKNA":"部落山莊民宿","LANDMARKAD":"1000211","ADDRESS":"宜蘭縣大同鄉崙埤村崙埤12號","TEL":"03-9801132","COUNTYNAME":"宜蘭縣","TOWNNAME":"大同鄉","MARKTYPE":"996","Class":"6"},"geometry":{"x":121.60692791167911,"y":24.682809536129131}},{"attributes":{"OBJECTID":23073,"LANDMARKID":"1000200001101","LANDMARKCO":"604","LANDMARKNA":"大溪民宿","LANDMARKAD":"1000211","ADDRESS":"宜蘭縣大同鄉復興村泰雅一路28號","TEL":"0920-337212","COUNTYNAME":"宜蘭縣","TOWNNAME":"大同鄉","MARKTYPE":"996","Class":"6"},"geometry":{"x":121.6077441806132,"y":24.632040248525701}},{"attributes":{"OBJECTID":23074,"LANDMARKID":"1000200001102","LANDMARKCO":"604","LANDMARKNA":"茶之鄉民宿","LANDMARKAD":"1000211","ADDRESS":"宜蘭縣大同鄉松羅村泰雅路二段28號","TEL":"03-9801118","COUNTYNAME":"宜蘭縣","TOWNNAME":"大同鄉","MARKTYPE":"996","Class":"6"},"geometry":{"x":121.59220232846558,"y":24.664593966554037}},{"attributes":{"OBJECTID":23075,"LANDMARKID":"1000200001103","LANDMARKCO":"604","LANDMARKNA":"永興茶園","LANDMARKAD":"1000211","ADDRESS":"宜蘭縣大同鄉松羅村鹿場路11-2號","TEL":"03-9801997","COUNTYNAME":"宜蘭縣","TOWNNAME":"大同鄉","MARKTYPE":"996","Class":"6"},"geometry":{"x":121.59081249569589,"y":24.6671965250633}},{"attributes":{"OBJECTID":23076,"LANDMARKID":"1000200001104","LANDMARKCO":"604","LANDMARKNA":"茶鄉園","LANDMARKAD":"1000211","ADDRESS":"宜蘭縣大同鄉松羅村鹿場路1-1號","TEL":"03-9801153","COUNTYNAME":"宜蘭縣","TOWNNAME":"大同鄉","MARKTYPE":"996","Class":"6"},"geometry":{"x":121.59298794020857,"y":24.665991867866239}},{"attributes":{"OBJECTID":23077,"LANDMARKID":"1000200001105","LANDMARKCO":"604","LANDMARKNA":"清馨茶園民宿","LANDMARKAD":"1000211","ADDRESS":"宜蘭縣大同鄉松羅村鹿場路7-2號","TEL":"03-9802085","COUNTYNAME":"宜蘭縣","TOWNNAME":"大同鄉","MARKTYPE":"996","Class":"6"},"geometry":{"x":121.59182685745486,"y":24.666402445694889}},{"attributes":{"OBJECTID":23078,"LANDMARKID":"1000200001106","LANDMARKCO":"604","LANDMARKNA":"玉蘭茶園民宿","LANDMARKAD":"1000211","ADDRESS":"宜蘭縣大同鄉松羅村鹿場路1號","TEL":"03-9323896","COUNTYNAME":"宜蘭縣","TOWNNAME":"大同鄉","MARKTYPE":"996","Class":"6"},"geometry":{"x":121.59279466433021,"y":24.6657226306342}},{"attributes":{"OBJECTID":23079,"LANDMARKID":"1000200001107","LANDMARKCO":"604","LANDMARKNA":"英仕山莊民宿","LANDMARKAD":"1000211","ADDRESS":"宜蘭縣大同鄉英士村泰雅路三段21巷3號","TEL":"03-9801701","COUNTYNAME":"宜蘭縣","TOWNNAME":"大同鄉","MARKTYPE":"996","Class":"6"},"geometry":{"x":121.54057488572909,"y":24.625671027491641}},{"attributes":{"OBJECTID":23080,"LANDMARKID":"1000200000640","LANDMARKCO":"503","LANDMARKNA":"加羅湖","LANDMARKAD":"1000211","ADDRESS":"宜蘭縣大同鄉","TEL":" ","COUNTYNAME":"宜蘭縣","TOWNNAME":"大同鄉","MARKTYPE":"995","Class":"5"},"geometry":{"x":121.47863341014704,"y":24.474218836201498}},{"attributes":{"OBJECTID":23081,"LANDMARKID":"1000200000641","LANDMARKCO":"503","LANDMARKNA":"明池神木","LANDMARKAD":"1000211","ADDRESS":"宜蘭縣大同鄉英士村","TEL":" ","COUNTYNAME":"宜蘭縣","TOWNNAME":"大同鄉","MARKTYPE":"995","Class":"5"},"geometry":{"x":121.47143096045762,"y":24.653634007347335}},{"attributes":{"OBJECTID":23082,"LANDMARKID":"1000200000642","LANDMARKCO":"503","LANDMARKNA":"國父百年紀念林","LANDMARKAD":"1000211","ADDRESS":"宜蘭縣大同鄉","TEL":" ","COUNTYNAME":"宜蘭縣","TOWNNAME":"大同鄉","MARKTYPE":"995","Class":"5"},"geometry":{"x":121.47358422108123,"y":24.651214187274874}},{"attributes":{"OBJECTID":23083,"LANDMARKID":"1000200000688","LANDMARKCO":"508","LANDMARKNA":"排骨溪溫泉","LANDMARKAD":"1000211","ADDRESS":"宜蘭縣大同鄉","TEL":" ","COUNTYNAME":"宜蘭縣","TOWNNAME":"大同鄉","MARKTYPE":"995","Class":"5"},"geometry":{"x":121.50714227163731,"y":24.60348250857794}},{"attributes":{"OBJECTID":23084,"LANDMARKID":"1000200000689","LANDMARKCO":"508","LANDMARKNA":"鳩之澤溫泉(仁澤溫泉)","LANDMARKAD":"1000211","ADDRESS":"宜蘭縣大同鄉","TEL":" ","COUNTYNAME":"宜蘭縣","TOWNNAME":"大同鄉","MARKTYPE":"995","Class":"5"},"geometry":{"x":121.50836128375425,"y":24.545531641764331}},{"attributes":{"OBJECTID":23085,"LANDMARKID":"1000200000690","LANDMARKCO":"508","LANDMARKNA":"梵梵溫泉","LANDMARKAD":"1000211","ADDRESS":"宜蘭縣大同鄉","TEL":" ","COUNTYNAME":"宜蘭縣","TOWNNAME":"大同鄉","MARKTYPE":"995","Class":"5"},"geometry":{"x":121.52313571979344,"y":24.616618483794586}},{"attributes":{"OBJECTID":23086,"LANDMARKID":"1000200000691","LANDMARKCO":"508","LANDMARKNA":"逢春園渡假別墅","LANDMARKAD":"1000211","ADDRESS":"宜蘭縣大同鄉松羅村玉蘭20號","TEL":"03-9801942","COUNTYNAME":"宜蘭縣","TOWNNAME":"大同鄉","MARKTYPE":"995","Class":"5"},"geometry":{"x":121.59810103890514,"y":24.668684596787372}},{"attributes":{"OBJECTID":23087,"LANDMARKID":"1000200000692","LANDMARKCO":"508","LANDMARKNA":"清水地熱","LANDMARKAD":"1000211","ADDRESS":"宜蘭縣大同鄉清水村南側的清水溪谷中","TEL":" ","COUNTYNAME":"宜蘭縣","TOWNNAME":"大同鄉","MARKTYPE":"995","Class":"5"},"geometry":{"x":121.63431892227979,"y":24.612832207251849}},{"attributes":{"OBJECTID":23088,"LANDMARKID":"1000200000654","LANDMARKCO":"504","LANDMARKNA":"中國歷代神木園區","LANDMARKAD":"1000211","ADDRESS":"宜蘭縣大同鄉","TEL":" ","COUNTYNAME":"宜蘭縣","TOWNNAME":"大同鄉","MARKTYPE":"995","Class":"5"},"geometry":{"x":121.44000663257953,"y":24.59139355272384}},{"attributes":{"OBJECTID":23089,"LANDMARKID":"1000200000655","LANDMARKCO":"504","LANDMARKNA":"明池森林遊樂區大門","LANDMARKAD":"1000211","ADDRESS":"宜蘭縣大同鄉英士村明池山莊1號","TEL":"03-9894106","COUNTYNAME":"宜蘭縣","TOWNNAME":"大同鄉","MARKTYPE":"995","Class":"5"},"geometry":{"x":121.47287195803342,"y":24.65073376165104}},{"attributes":{"OBJECTID":23090,"LANDMARKID":"1000200000656","LANDMARKCO":"504","LANDMARKNA":"土場收費站","LANDMARKAD":"1000211","ADDRESS":"宜蘭縣大同鄉","TEL":"03-9809619","COUNTYNAME":"宜蘭縣","TOWNNAME":"大同鄉","MARKTYPE":"995","Class":"5"},"geometry":{"x":121.49648484125647,"y":24.572391173478671}},{"attributes":{"OBJECTID":23091,"LANDMARKID":"1000200000657","LANDMARKCO":"504","LANDMARKNA":"仁澤森林遊樂區","LANDMARKAD":"1000211","ADDRESS":"宜蘭縣大同鄉","TEL":"03-9809803","COUNTYNAME":"宜蘭縣","TOWNNAME":"大同鄉","MARKTYPE":"995","Class":"5"},"geometry":{"x":121.50655427196772,"y":24.548041896345417}},{"attributes":{"OBJECTID":23092,"LANDMARKID":"1000200000643","LANDMARKCO":"503","LANDMARKNA":"松羅湖步道","LANDMARKAD":"1000211","ADDRESS":"宜蘭縣大同鄉","TEL":" ","COUNTYNAME":"宜蘭縣","TOWNNAME":"大同鄉","MARKTYPE":"995","Class":"5"},"geometry":{"x":121.56440129398652,"y":24.668095306583883}},{"attributes":{"OBJECTID":23093,"LANDMARKID":"1000200000652","LANDMARKCO":"504","LANDMARKNA":"棲蘭森林遊樂區","LANDMARKAD":"1000211","ADDRESS":"宜蘭縣大同鄉土場巷62號","TEL":" ","COUNTYNAME":"宜蘭縣","TOWNNAME":"大同鄉","MARKTYPE":"995","Class":"5"},"geometry":{"x":121.4897311180781,"y":24.581141780624023}},{"attributes":{"OBJECTID":23094,"LANDMARKID":"1000200000653","LANDMARKCO":"504","LANDMARKNA":"明池森林遊樂區","LANDMARKAD":"1000211","ADDRESS":"宜蘭縣大同鄉","TEL":" ","COUNTYNAME":"宜蘭縣","TOWNNAME":"大同鄉","MARKTYPE":"995","Class":"5"},"geometry":{"x":121.46779252755226,"y":24.650206297314167}},{"attributes":{"OBJECTID":23095,"LANDMARKID":"1000200000731","LANDMARKCO":"513","LANDMARKNA":"南湖北山","LANDMARKAD":"1000211","ADDRESS":"宜蘭縣大同鄉","TEL":" ","COUNTYNAME":"宜蘭縣","TOWNNAME":"大同鄉","MARKTYPE":"995","Class":"5"},"geometry":{"x":121.43718958178549,"y":24.383667371152228}},{"attributes":{"OBJECTID":23096,"LANDMARKID":"1000200000732","LANDMARKCO":"513","LANDMARKNA":"審馬陣山","LANDMARKAD":"1000211","ADDRESS":"宜蘭縣大同鄉","TEL":" ","COUNTYNAME":"宜蘭縣","TOWNNAME":"大同鄉","MARKTYPE":"995","Class":"5"},"geometry":{"x":121.41747832362506,"y":24.380211604447638}},{"attributes":{"OBJECTID":23097,"LANDMARKID":"1000200000733","LANDMARKCO":"513","LANDMARKNA":"喀拉業山","LANDMARKAD":"1000211","ADDRESS":"宜蘭縣大同鄉","TEL":" ","COUNTYNAME":"宜蘭縣","TOWNNAME":"大同鄉","MARKTYPE":"995","Class":"5"},"geometry":{"x":121.32131125752205,"y":24.449960405870673}},{"attributes":{"OBJECTID":23098,"LANDMARKID":"1000200000505","LANDMARKCO":"405","LANDMARKNA":"中油加油站-南方澳站(中油直營)","LANDMARKAD":"1000203","ADDRESS":"宜蘭縣蘇澳鎮南安里漁港路52-1號","TEL":"039-962209","COUNTYNAME":"宜蘭縣","TOWNNAME":"蘇澳鎮","MARKTYPE":"994","Class":"4"},"geometry":{"x":121.86789964427909,"y":24.582398695755909}},{"attributes":{"OBJECTID":23099,"LANDMARKID":"1000200000506","LANDMARKCO":"405","LANDMARKNA":"中油加油站-蘇澳站(中油直營)","LANDMARKAD":"1000203","ADDRESS":"宜蘭縣蘇澳鎮中山路一段196號","TEL":"03-9963524","COUNTYNAME":"宜蘭縣","TOWNNAME":"蘇澳鎮","MARKTYPE":"994","Class":"4"},"geometry":{"x":121.8470069371611,"y":24.596069661974177}},{"attributes":{"OBJECTID":23100,"LANDMARKID":"1000200000507","LANDMARKCO":"405","LANDMARKNA":"中油加油站-南興站","LANDMARKAD":"1000203","ADDRESS":"宜蘭縣南澳鄉蘇花路二段45號","TEL":"03-9982383","COUNTYNAME":"宜蘭縣","TOWNNAME":"蘇澳鎮","MARKTYPE":"994","Class":"4"},"geometry":{"x":121.79037868648558,"y":24.462022275017901}},{"attributes":{"OBJECTID":23101,"LANDMARKID":"1000200000508","LANDMARKCO":"405","LANDMARKNA":"山隆加油站-龍德站(中油)","LANDMARKAD":"1000203","ADDRESS":"宜蘭縣蘇澳鎮自強路1-1號","TEL":"(03)990-9633","COUNTYNAME":"宜蘭縣","TOWNNAME":"蘇澳鎮","MARKTYPE":"994","Class":"4"},"geometry":{"x":121.83161812321885,"y":24.63380518559784}},{"attributes":{"OBJECTID":23102,"LANDMARKID":"1000200000509","LANDMARKCO":"405","LANDMARKNA":"中油加油站-龍澤站","LANDMARKAD":"1000203","ADDRESS":"宜蘭縣蘇澳鎮濱海路三段52號","TEL":"03-9906680","COUNTYNAME":"宜蘭縣","TOWNNAME":"蘇澳鎮","MARKTYPE":"994","Class":"4"},"geometry":{"x":121.83318954789493,"y":24.636344485783894}},{"attributes":{"OBJECTID":23103,"LANDMARKID":"1000200000510","LANDMARKCO":"405","LANDMARKNA":"中油加油站-馬賽站(中油直營)","LANDMARKAD":"1000203","ADDRESS":"宜蘭縣蘇澳鎮濱海路二段459號","TEL":" ","COUNTYNAME":"宜蘭縣","TOWNNAME":"蘇澳鎮","MARKTYPE":"994","Class":"4"},"geometry":{"x":121.83398994642387,"y":24.625745399556767}},{"attributes":{"OBJECTID":23104,"LANDMARKID":"1000200000511","LANDMARKCO":"405","LANDMARKNA":"中油加油站-南聖湖","LANDMARKAD":"1000203","ADDRESS":"宜蘭縣蘇澳鎮中山路二段399號","TEL":"03-9961111","COUNTYNAME":"宜蘭縣","TOWNNAME":"蘇澳鎮","MARKTYPE":"994","Class":"4"},"geometry":{"x":121.81892090869052,"y":24.61510015163968}},{"attributes":{"OBJECTID":23105,"LANDMARKID":"1000200000474","LANDMARKCO":"402","LANDMARKNA":"亞太行動寬頻電信-蘇澳中山加盟服務中心","LANDMARKAD":"1000203","ADDRESS":"宜蘭縣蘇澳鎮中山路1段49號","TEL":"03-9969773","COUNTYNAME":"宜蘭縣","TOWNNAME":"蘇澳鎮","MARKTYPE":"994","Class":"4"},"geometry":{"x":121.85199022527287,"y":24.596102788627167}},{"attributes":{"OBJECTID":23106,"LANDMARKID":"1000200000472","LANDMARKCO":"401","LANDMARKNA":"蘇澳榮民醫院","LANDMARKAD":"1000203","ADDRESS":"宜蘭縣蘇澳鎮濱海路一段301號","TEL":"03-9905106","COUNTYNAME":"宜蘭縣","TOWNNAME":"蘇澳鎮","MARKTYPE":"994","Class":"4"},"geometry":{"x":121.85054602154062,"y":24.613628090409932}},{"attributes":{"OBJECTID":23107,"LANDMARKID":"1000200000473","LANDMARKCO":"401","LANDMARKNA":"建生醫院","LANDMARKAD":"1000203","ADDRESS":"宜蘭縣蘇澳鎮中山路218號","TEL":"03-9962246","COUNTYNAME":"宜蘭縣","TOWNNAME":"蘇澳鎮","MARKTYPE":"994","Class":"4"},"geometry":{"x":121.8464020943053,"y":24.596038501934892}},{"attributes":{"OBJECTID":23108,"LANDMARKID":"1000200000608","LANDMARKCO":"408","LANDMARKNA":"郵局-蘇澳郵局","LANDMARKAD":"1000203","ADDRESS":"宜蘭縣蘇澳鎮中山路1段1號","TEL":"(03)9961-581","COUNTYNAME":"宜蘭縣","TOWNNAME":"蘇澳鎮","MARKTYPE":"994","Class":"4"},"geometry":{"x":121.85306174275642,"y":24.596029467725838}},{"attributes":{"OBJECTID":23109,"LANDMARKID":"1000200000609","LANDMARKCO":"408","LANDMARKNA":"郵局-蘇澳南方澳郵局","LANDMARKAD":"1000203","ADDRESS":"宜蘭縣蘇澳鎮江夏路13號","TEL":"(03)9962-754","COUNTYNAME":"宜蘭縣","TOWNNAME":"蘇澳鎮","MARKTYPE":"994","Class":"4"},"geometry":{"x":121.86511587560352,"y":24.581702033382456}},{"attributes":{"OBJECTID":23110,"LANDMARKID":"1000200000610","LANDMARKCO":"408","LANDMARKNA":"郵局-蘇澳港邊里郵局","LANDMARKAD":"1000203","ADDRESS":"宜蘭縣蘇澳鎮蘇濱路1段301號","TEL":"(03)9904-792","COUNTYNAME":"宜蘭縣","TOWNNAME":"蘇澳鎮","MARKTYPE":"994","Class":"4"},"geometry":{"x":121.85029136804006,"y":24.613088430217392}},{"attributes":{"OBJECTID":23111,"LANDMARKID":"1000200000611","LANDMARKCO":"408","LANDMARKNA":"郵局-蘇澳馬賽郵局","LANDMARKAD":"1000203","ADDRESS":"宜蘭縣蘇澳鎮大同路226號","TEL":"(03)9902-818","COUNTYNAME":"宜蘭縣","TOWNNAME":"蘇澳鎮","MARKTYPE":"994","Class":"4"},"geometry":{"x":121.83252467422633,"y":24.627517189815524}},{"attributes":{"OBJECTID":23112,"LANDMARKID":"1000200000612","LANDMARKCO":"408","LANDMARKNA":"郵局-蘇澳蘇西里郵局","LANDMARKAD":"1000203","ADDRESS":"宜蘭縣蘇澳鎮中山路1段253號","TEL":"(03)9961-791","COUNTYNAME":"宜蘭縣","TOWNNAME":"蘇澳鎮","MARKTYPE":"994","Class":"4"},"geometry":{"x":121.8441505300202,"y":24.595567169690867}},{"attributes":{"OBJECTID":23113,"LANDMARKID":"1000200000623","LANDMARKCO":"409","LANDMARKNA":"宜蘭縣蘇澳地區農會","LANDMARKAD":"1000203","ADDRESS":"宜蘭縣蘇澳鎮中山路98號","TEL":"03-9965111","COUNTYNAME":"宜蘭縣","TOWNNAME":"蘇澳鎮","MARKTYPE":"994","Class":"4"},"geometry":{"x":121.8497495342092,"y":24.596171992102242}},{"attributes":{"OBJECTID":23114,"LANDMARKID":"1000200000624","LANDMARKCO":"409","LANDMARKNA":"蘇澳區魚市場","LANDMARKAD":"1000203","ADDRESS":"蘇澳鎮南安里港邊路126號","TEL":"03-996-2419","COUNTYNAME":"宜蘭縣","TOWNNAME":"蘇澳鎮","MARKTYPE":"994","Class":"4"},"geometry":{"x":121.86628258228075,"y":24.58356332631935}},{"attributes":{"OBJECTID":23115,"LANDMARKID":"1000200000504","LANDMARKCO":"404","LANDMARKNA":"台灣省自來水蘇澳營運所","LANDMARKAD":"1000203","ADDRESS":"宜蘭縣蘇澳鎮光明路5號","TEL":" ","COUNTYNAME":"宜蘭縣","TOWNNAME":"蘇澳鎮","MARKTYPE":"994","Class":"4"},"geometry":{"x":121.85278461059819,"y":24.592289427228501}},{"attributes":{"OBJECTID":23116,"LANDMARKID":"1000200000577","LANDMARKCO":"406","LANDMARKNA":"蘇澳運動公園","LANDMARKAD":"1000203","ADDRESS":"宜蘭縣蘇澳鎮","TEL":" ","COUNTYNAME":"宜蘭縣","TOWNNAME":"蘇澳鎮","MARKTYPE":"994","Class":"4"},"geometry":{"x":121.83598776628291,"y":24.602783528929891}},{"attributes":{"OBJECTID":23117,"LANDMARKID":"1000200000578","LANDMARKCO":"406","LANDMARKNA":"永光公園","LANDMARKAD":"1000203","ADDRESS":"宜蘭縣蘇澳鎮","TEL":" ","COUNTYNAME":"宜蘭縣","TOWNNAME":"蘇澳鎮","MARKTYPE":"994","Class":"4"},"geometry":{"x":121.85063066176656,"y":24.592177184903893}},{"attributes":{"OBJECTID":23118,"LANDMARKID":"1000200000512","LANDMARKCO":"405","LANDMARKNA":"台塑加油站-新馬站(台塑)","LANDMARKAD":"1000203","ADDRESS":"宜蘭縣蘇澳鎮蘇濱路二段566號","TEL":"03-9905601","COUNTYNAME":"宜蘭縣","TOWNNAME":"蘇澳鎮","MARKTYPE":"994","Class":"4"},"geometry":{"x":121.83222016841709,"y":24.631033874529656}},{"attributes":{"OBJECTID":23119,"LANDMARKID":"1000200000185","LANDMARKCO":"108","LANDMARKNA":"宜蘭縣蘇澳鎮公所","LANDMARKAD":"1000203","ADDRESS":"宜蘭縣蘇澳鎮蘇港路215號","TEL":"03-9973421","COUNTYNAME":"宜蘭縣","TOWNNAME":"蘇澳鎮","MARKTYPE":"991","Class":"1"},"geometry":{"x":121.84262098322462,"y":24.594620835324193}},{"attributes":{"OBJECTID":23120,"LANDMARKID":"1000200000069","LANDMARKCO":"104","LANDMARKNA":"關稅總局基隆關稅局蘇澳支局","LANDMARKAD":"1000203","ADDRESS":"宜蘭縣蘇澳鎮港區路1號","TEL":"03-9961106","COUNTYNAME":"宜蘭縣","TOWNNAME":"蘇澳鎮","MARKTYPE":"991","Class":"1"},"geometry":{"x":121.85856104729324,"y":24.604827035411407}},{"attributes":{"OBJECTID":23121,"LANDMARKID":"1000200000032","LANDMARKCO":"103","LANDMARKNA":"宜蘭縣蘇澳鎮鎮民代表會","LANDMARKAD":"1000203","ADDRESS":"宜蘭縣蘇澳鎮蘇港路217號","TEL":"03-9963531","COUNTYNAME":"宜蘭縣","TOWNNAME":"蘇澳鎮","MARKTYPE":"991","Class":"1"},"geometry":{"x":121.84204210401278,"y":24.594898170293529}},{"attributes":{"OBJECTID":23122,"LANDMARKID":"1000200000033","LANDMARKCO":"103","LANDMARKNA":"宜蘭縣蘇澳鎮衛生所","LANDMARKAD":"1000203","ADDRESS":"宜蘭縣蘇澳鎮志成路60號","TEL":"03-9962185","COUNTYNAME":"宜蘭縣","TOWNNAME":"蘇澳鎮","MARKTYPE":"991","Class":"1"},"geometry":{"x":121.84247335236751,"y":24.593268307255947}},{"attributes":{"OBJECTID":23123,"LANDMARKID":"1000200000027","LANDMARKCO":"101","LANDMARKNA":"工業局龍德工業區服務中心","LANDMARKAD":"1000203","ADDRESS":"宜蘭縣蘇澳鎮自強路12號","TEL":"03-9901728","COUNTYNAME":"宜蘭縣","TOWNNAME":"蘇澳鎮","MARKTYPE":"991","Class":"1"},"geometry":{"x":121.83120532063826,"y":24.634139401471415}},{"attributes":{"OBJECTID":23124,"LANDMARKID":"1000200000125","LANDMARKCO":"107","LANDMARKNA":"宜蘭縣消防局蘇澳消防分隊","LANDMARKAD":"1000203","ADDRESS":"宜蘭縣蘇澳鎮太平路5號","TEL":"03-9964119","COUNTYNAME":"宜蘭縣","TOWNNAME":"蘇澳鎮","MARKTYPE":"991","Class":"1"},"geometry":{"x":121.84388312991624,"y":24.595960980447657}},{"attributes":{"OBJECTID":23125,"LANDMARKID":"1000200000126","LANDMARKCO":"107","LANDMARKNA":"宜蘭縣消防局南方澳消防分隊","LANDMARKAD":"1000203","ADDRESS":"宜蘭縣蘇澳鎮江夏路50號","TEL":"03-9962119","COUNTYNAME":"宜蘭縣","TOWNNAME":"蘇澳鎮","MARKTYPE":"991","Class":"1"},"geometry":{"x":121.86501432644512,"y":24.583297846969639}},{"attributes":{"OBJECTID":23126,"LANDMARKID":"1000200000127","LANDMARKCO":"107","LANDMARKNA":"蘇澳港消防分隊","LANDMARKAD":"1000203","ADDRESS":"宜蘭縣蘇澳鎮港區路7號","TEL":"039-972017","COUNTYNAME":"宜蘭縣","TOWNNAME":"蘇澳鎮","MARKTYPE":"991","Class":"1"},"geometry":{"x":121.85680500424348,"y":24.597157291055176}},{"attributes":{"OBJECTID":23127,"LANDMARKID":"1000200000128","LANDMARKCO":"107","LANDMARKNA":"宜蘭縣警察局南方澳派出所","LANDMARKAD":"1000203","ADDRESS":"宜蘭縣蘇澳鎮南安里漁港路84號","TEL":"039-963580","COUNTYNAME":"宜蘭縣","TOWNNAME":"蘇澳鎮","MARKTYPE":"991","Class":"1"},"geometry":{"x":121.86614831791131,"y":24.582472241741684}},{"attributes":{"OBJECTID":23128,"LANDMARKID":"1000200000129","LANDMARKCO":"107","LANDMARKNA":"宜蘭縣警察局馬賽派出所","LANDMARKAD":"1000203","ADDRESS":"宜蘭縣蘇澳鎮和平路50號","TEL":"03-9902604","COUNTYNAME":"宜蘭縣","TOWNNAME":"蘇澳鎮","MARKTYPE":"991","Class":"1"},"geometry":{"x":121.83562599137534,"y":24.620924624853949}},{"attributes":{"OBJECTID":23129,"LANDMARKID":"1000200000130","LANDMARKCO":"107","LANDMARKNA":"宜蘭縣警察局蘇澳派出所","LANDMARKAD":"1000203","ADDRESS":"宜蘭縣蘇澳鎮中山路一段252號","TEL":"03-9962126","COUNTYNAME":"宜蘭縣","TOWNNAME":"蘇澳鎮","MARKTYPE":"991","Class":"1"},"geometry":{"x":121.8452777702966,"y":24.596141458880343}},{"attributes":{"OBJECTID":23130,"LANDMARKID":"1000200000131","LANDMARKCO":"107","LANDMARKNA":"宜蘭縣警察局蘇澳分局","LANDMARKAD":"1000203","ADDRESS":"宜蘭縣蘇澳鎮中山路一段252號","TEL":"03-9951356","COUNTYNAME":"宜蘭縣","TOWNNAME":"蘇澳鎮","MARKTYPE":"991","Class":"1"},"geometry":{"x":121.84526789690952,"y":24.596141570292112}},{"attributes":{"OBJECTID":23131,"LANDMARKID":"1000200000028","LANDMARKCO":"101","LANDMARKNA":"標準檢驗局蘇澳辦事處","LANDMARKAD":"1000203","ADDRESS":"宜蘭縣蘇澳鎮蘇澳港行政大樓1樓","TEL":"03-9965028","COUNTYNAME":"宜蘭縣","TOWNNAME":"蘇澳鎮","MARKTYPE":"991","Class":"1"},"geometry":{"x":121.85856104729324,"y":24.604827035411407}},{"attributes":{"OBJECTID":23132,"LANDMARKID":"1000200000079","LANDMARKCO":"106","LANDMARKNA":"宜蘭縣蘇澳鎮戶政事務所","LANDMARKAD":"1000203","ADDRESS":"宜蘭縣蘇澳鎮礁溪路四段126號","TEL":"03-9882470","COUNTYNAME":"宜蘭縣","TOWNNAME":"蘇澳鎮","MARKTYPE":"991","Class":"1"},"geometry":{"x":121.84509762834533,"y":24.595962910601834}},{"attributes":{"OBJECTID":23133,"LANDMARKID":"1000200000122","LANDMARKCO":"107","LANDMARKNA":"宜蘭縣警察局新城派出所","LANDMARKAD":"1000203","ADDRESS":"宜蘭縣蘇澳鎮新城南路26號","TEL":"039-969827","COUNTYNAME":"宜蘭縣","TOWNNAME":"蘇澳鎮","MARKTYPE":"991","Class":"1"},"geometry":{"x":121.82327285279916,"y":24.61314516578825}},{"attributes":{"OBJECTID":23134,"LANDMARKID":"1000200000123","LANDMARKCO":"107","LANDMARKNA":"宜蘭縣警察局港邊派出所","LANDMARKAD":"1000203","ADDRESS":"宜蘭縣蘇澳鎮港邊里濱海路一段195號","TEL":"03-9905608","COUNTYNAME":"宜蘭縣","TOWNNAME":"蘇澳鎮","MARKTYPE":"991","Class":"1"},"geometry":{"x":121.85254705003209,"y":24.611890056196412}},{"attributes":{"OBJECTID":23135,"LANDMARKID":"1000200000124","LANDMARKCO":"107","LANDMARKNA":"宜蘭縣消防局馬賽消防分隊","LANDMARKAD":"1000203","ADDRESS":"宜蘭縣澳鎮隘丁路341號","TEL":"03-9907666","COUNTYNAME":"宜蘭縣","TOWNNAME":"蘇澳鎮","MARKTYPE":"991","Class":"1"},"geometry":{"x":121.83542968931614,"y":24.621017090554282}},{"attributes":{"OBJECTID":23136,"LANDMARKID":"1000200000328","LANDMARKCO":"205","LANDMARKNA":"珊瑚法界博物館","LANDMARKAD":"1000203","ADDRESS":"宜蘭縣蘇澳鎮南安路220號","TEL":"03-9963355","COUNTYNAME":"宜蘭縣","TOWNNAME":"蘇澳鎮","MARKTYPE":"992","Class":"2"},"geometry":{"x":121.8640459099162,"y":24.582520923992568}},{"attributes":{"OBJECTID":23137,"LANDMARKID":"1000200000329","LANDMARKCO":"205","LANDMARKNA":"白米社區木屐博物館","LANDMARKAD":"1000203","ADDRESS":"宜蘭縣蘇澳鎮永春路126號","TEL":"03-9952653","COUNTYNAME":"宜蘭縣","TOWNNAME":"蘇澳鎮","MARKTYPE":"992","Class":"2"},"geometry":{"x":121.84592443676554,"y":24.581441534156657}},{"attributes":{"OBJECTID":23138,"LANDMARKID":"1000200000209","LANDMARKCO":"202","LANDMARKNA":"國立蘇澳海事","LANDMARKAD":"1000203","ADDRESS":"宜蘭縣蘇澳鎮蘇港路213號","TEL":"03-9951661","COUNTYNAME":"宜蘭縣","TOWNNAME":"蘇澳鎮","MARKTYPE":"992","Class":"2"},"geometry":{"x":121.84430226615008,"y":24.593428387764757}},{"attributes":{"OBJECTID":23139,"LANDMARKID":"1000200000210","LANDMARKCO":"203","LANDMARKNA":"縣立文化國中","LANDMARKAD":"1000203","ADDRESS":"宜蘭縣蘇澳鎮新馬路2號","TEL":"03-9903060","COUNTYNAME":"宜蘭縣","TOWNNAME":"蘇澳鎮","MARKTYPE":"992","Class":"2"},"geometry":{"x":121.83328265428224,"y":24.61858794138433}},{"attributes":{"OBJECTID":23140,"LANDMARKID":"1000200000211","LANDMARKCO":"203","LANDMARKNA":"縣立蘇澳國中","LANDMARKAD":"1000203","ADDRESS":"宜蘭縣蘇澳鎮聖湖路1號","TEL":"03-9962137","COUNTYNAME":"宜蘭縣","TOWNNAME":"蘇澳鎮","MARKTYPE":"992","Class":"2"},"geometry":{"x":121.83597082855987,"y":24.595732053286682}},{"attributes":{"OBJECTID":23141,"LANDMARKID":"1000200000212","LANDMARKCO":"203","LANDMARKNA":"縣立南安國中","LANDMARKAD":"1000203","ADDRESS":"宜蘭縣蘇澳鎮學府路117號","TEL":"03-9962317","COUNTYNAME":"宜蘭縣","TOWNNAME":"蘇澳鎮","MARKTYPE":"992","Class":"2"},"geometry":{"x":121.8678404256511,"y":24.578496261519483}},{"attributes":{"OBJECTID":23142,"LANDMARKID":"1000200000213","LANDMARKCO":"203","LANDMARKNA":"縣立永樂國小","LANDMARKAD":"1000203","ADDRESS":"宜蘭縣蘇澳鎮永樂路1號","TEL":"03-9962840","COUNTYNAME":"宜蘭縣","TOWNNAME":"蘇澳鎮","MARKTYPE":"992","Class":"2"},"geometry":{"x":121.84445566586341,"y":24.5759274084953}},{"attributes":{"OBJECTID":23143,"LANDMARKID":"1000200000214","LANDMARKCO":"203","LANDMARKNA":"縣立馬賽國小","LANDMARKAD":"1000203","ADDRESS":"宜蘭縣蘇澳鎮大同路108號","TEL":"03-9902907","COUNTYNAME":"宜蘭縣","TOWNNAME":"蘇澳鎮","MARKTYPE":"992","Class":"2"},"geometry":{"x":121.83515290591504,"y":24.62174244783305}},{"attributes":{"OBJECTID":23144,"LANDMARKID":"1000200000215","LANDMARKCO":"203","LANDMARKNA":"縣立士敏國小","LANDMARKAD":"1000203","ADDRESS":"宜蘭縣蘇澳鎮光明路8號","TEL":"03-9962342","COUNTYNAME":"宜蘭縣","TOWNNAME":"蘇澳鎮","MARKTYPE":"992","Class":"2"},"geometry":{"x":121.85388324913129,"y":24.592209132135565}},{"attributes":{"OBJECTID":23145,"LANDMARKID":"1000200000216","LANDMARKCO":"203","LANDMARKNA":"縣立蓬萊國小","LANDMARKAD":"1000203","ADDRESS":"宜蘭縣蘇澳鎮南澳路85號","TEL":"03-9981062","COUNTYNAME":"宜蘭縣","TOWNNAME":"蘇澳鎮","MARKTYPE":"992","Class":"2"},"geometry":{"x":121.80309340850872,"y":24.464832121853537}},{"attributes":{"OBJECTID":23146,"LANDMARKID":"1000200000217","LANDMARKCO":"203","LANDMARKNA":"縣立南安國小","LANDMARKAD":"1000203","ADDRESS":"宜蘭縣蘇澳鎮學府路122號","TEL":"03-9962664","COUNTYNAME":"宜蘭縣","TOWNNAME":"蘇澳鎮","MARKTYPE":"992","Class":"2"},"geometry":{"x":121.86904859119963,"y":24.579475471031138}},{"attributes":{"OBJECTID":23147,"LANDMARKID":"1000200000218","LANDMARKCO":"203","LANDMARKNA":"縣立岳明國小","LANDMARKAD":"1000203","ADDRESS":"宜蘭縣蘇澳鎮嶺腳路140號","TEL":"03-9903044","COUNTYNAME":"宜蘭縣","TOWNNAME":"蘇澳鎮","MARKTYPE":"992","Class":"2"},"geometry":{"x":121.852740233253,"y":24.614415750214246}},{"attributes":{"OBJECTID":23148,"LANDMARKID":"1000200000219","LANDMARKCO":"203","LANDMARKNA":"縣立蘇澳國小","LANDMARKAD":"1000203","ADDRESS":"宜蘭縣蘇澳鎮文聖路46號","TEL":"03-9902694","COUNTYNAME":"宜蘭縣","TOWNNAME":"蘇澳鎮","MARKTYPE":"992","Class":"2"},"geometry":{"x":121.84123439254314,"y":24.596516839360472}},{"attributes":{"OBJECTID":23149,"LANDMARKID":"1000200000220","LANDMARKCO":"203","LANDMARKNA":"縣立育英國小","LANDMARKAD":"1000203","ADDRESS":"宜蘭縣蘇澳鎮褔德路134號","TEL":"03-9901294","COUNTYNAME":"宜蘭縣","TOWNNAME":"蘇澳鎮","MARKTYPE":"992","Class":"2"},"geometry":{"x":121.8327857718606,"y":24.639899962080062}},{"attributes":{"OBJECTID":23150,"LANDMARKID":"1000200000447","LANDMARKCO":"305","LANDMARKNA":"蘇澳商港","LANDMARKAD":"1000203","ADDRESS":"宜蘭縣蘇澳鎮","TEL":" ","COUNTYNAME":"宜蘭縣","TOWNNAME":"蘇澳鎮","MARKTYPE":"993","Class":"305"},"geometry":{"x":121.85718237387184,"y":24.596127055086168}},{"attributes":{"OBJECTID":23151,"LANDMARKID":"1000200000448","LANDMARKCO":"305","LANDMARKNA":"內埤漁港","LANDMARKAD":"1000203","ADDRESS":"宜蘭縣蘇澳鎮","TEL":" ","COUNTYNAME":"宜蘭縣","TOWNNAME":"蘇澳鎮","MARKTYPE":"993","Class":"305"},"geometry":{"x":121.86866471373389,"y":24.578626466367808}},{"attributes":{"OBJECTID":23152,"LANDMARKID":"1000200000449","LANDMARKCO":"305","LANDMARKNA":"蘇澳港","LANDMARKAD":"1000203","ADDRESS":"宜蘭縣蘇澳鎮","TEL":" ","COUNTYNAME":"宜蘭縣","TOWNNAME":"蘇澳鎮","MARKTYPE":"993","Class":"305"},"geometry":{"x":121.85790336870316,"y":24.596976450064343}},{"attributes":{"OBJECTID":23153,"LANDMARKID":"1000200000450","LANDMARKCO":"305","LANDMARKNA":"南方澳漁港","LANDMARKAD":"1000203","ADDRESS":"宜蘭縣蘇澳鎮","TEL":" ","COUNTYNAME":"宜蘭縣","TOWNNAME":"蘇澳鎮","MARKTYPE":"993","Class":"305"},"geometry":{"x":121.86529797732543,"y":24.582197883629696}},{"attributes":{"OBJECTID":23154,"LANDMARKID":"1000200000451","LANDMARKCO":"305","LANDMARKNA":"粉鳥林漁港","LANDMARKAD":"1000203","ADDRESS":"宜蘭縣蘇澳鎮","TEL":" ","COUNTYNAME":"宜蘭縣","TOWNNAME":"蘇澳鎮","MARKTYPE":"993","Class":"305"},"geometry":{"x":121.84203586974395,"y":24.497255856601761}},{"attributes":{"OBJECTID":23155,"LANDMARKID":"1000200000415","LANDMARKCO":"303","LANDMARKNA":"武荖坑風景區第一停車場","LANDMARKAD":"1000203","ADDRESS":"宜蘭縣蘇澳鎮武荖坑路75號","TEL":"03-9952852","COUNTYNAME":"宜蘭縣","TOWNNAME":"蘇澳鎮","MARKTYPE":"993","Class":"303"},"geometry":{"x":121.81332908270988,"y":24.612249482369709}},{"attributes":{"OBJECTID":23156,"LANDMARKID":"1000200000416","LANDMARKCO":"303","LANDMARKNA":"武荖風景區第三停車場","LANDMARKAD":"1000203","ADDRESS":"宜蘭縣蘇澳鎮武荖坑路75號","TEL":" ","COUNTYNAME":"宜蘭縣","TOWNNAME":"蘇澳鎮","MARKTYPE":"993","Class":"303"},"geometry":{"x":121.81298973656268,"y":24.604567518070589}},{"attributes":{"OBJECTID":23157,"LANDMARKID":"1000200000417","LANDMARKCO":"303","LANDMARKNA":"武荖坑風景區大門停車場","LANDMARKAD":"1000203","ADDRESS":"宜蘭縣蘇澳鎮武荖坑路75號","TEL":"03-9952852","COUNTYNAME":"宜蘭縣","TOWNNAME":"蘇澳鎮","MARKTYPE":"993","Class":"303"},"geometry":{"x":121.81398579092287,"y":24.612487432525498}},{"attributes":{"OBJECTID":23158,"LANDMARKID":"1000200000418","LANDMARKCO":"303","LANDMARKNA":"武荖坑風景區第二停車場","LANDMARKAD":"1000203","ADDRESS":"宜蘭縣蘇澳鎮武荖坑路75號","TEL":"03-9952852","COUNTYNAME":"宜蘭縣","TOWNNAME":"蘇澳鎮","MARKTYPE":"993","Class":"303"},"geometry":{"x":121.8135042899779,"y":24.607006181390233}},{"attributes":{"OBJECTID":23159,"LANDMARKID":"1000200000419","LANDMARKCO":"303","LANDMARKNA":"蘇澳冷泉停車場","LANDMARKAD":"1000203","ADDRESS":"宜蘭縣蘇澳鎮","TEL":" ","COUNTYNAME":"宜蘭縣","TOWNNAME":"蘇澳鎮","MARKTYPE":"993","Class":"303"},"geometry":{"x":121.84939647478028,"y":24.59951484298913}},{"attributes":{"OBJECTID":23160,"LANDMARKID":"1000200000420","LANDMARKCO":"303","LANDMARKNA":"烏巖角停車場","LANDMARKAD":"1000203","ADDRESS":"宜蘭縣蘇澳鎮","TEL":" ","COUNTYNAME":"宜蘭縣","TOWNNAME":"蘇澳鎮","MARKTYPE":"993","Class":"303"},"geometry":{"x":121.86556639262118,"y":24.531053575014763}},{"attributes":{"OBJECTID":23161,"LANDMARKID":"1000200000421","LANDMARKCO":"303","LANDMARKNA":"台汽南方澳站停車場","LANDMARKAD":"1000203","ADDRESS":"宜蘭縣蘇澳鎮","TEL":" ","COUNTYNAME":"宜蘭縣","TOWNNAME":"蘇澳鎮","MARKTYPE":"993","Class":"303"},"geometry":{"x":121.87039781509515,"y":24.580426650523901}},{"attributes":{"OBJECTID":23162,"LANDMARKID":"1000200000422","LANDMARKCO":"303","LANDMARKNA":"武荖風景區第二停車場","LANDMARKAD":"1000203","ADDRESS":"宜蘭縣蘇澳鎮新城南街43之30號","TEL":" ","COUNTYNAME":"宜蘭縣","TOWNNAME":"蘇澳鎮","MARKTYPE":"993","Class":"303"},"geometry":{"x":121.84013366076303,"y":24.589672066507994}},{"attributes":{"OBJECTID":23163,"LANDMARKID":"1000200000423","LANDMARKCO":"303","LANDMARKNA":"武荖風景區第三停車場","LANDMARKAD":"1000203","ADDRESS":"宜蘭縣蘇澳鎮新城南街43之30號","TEL":" ","COUNTYNAME":"宜蘭縣","TOWNNAME":"蘇澳鎮","MARKTYPE":"993","Class":"303"},"geometry":{"x":121.84013284624849,"y":24.589672075566739}},{"attributes":{"OBJECTID":23164,"LANDMARKID":"1000200000424","LANDMARKCO":"303","LANDMARKNA":"武荖風景區第一停車場","LANDMARKAD":"1000203","ADDRESS":"宜蘭縣蘇澳鎮新城南街43之30號","TEL":" ","COUNTYNAME":"宜蘭縣","TOWNNAME":"蘇澳鎮","MARKTYPE":"993","Class":"303"},"geometry":{"x":121.83998627802325,"y":24.589470817814405}},{"attributes":{"OBJECTID":23165,"LANDMARKID":"1000200000425","LANDMARKCO":"303","LANDMARKNA":"中興嘟嘟房停車場-南方澳站","LANDMARKAD":"1000203","ADDRESS":"宜蘭縣蘇澳鎮漁港路旁公共造產停車場","TEL":"03-9952271","COUNTYNAME":"宜蘭縣","TOWNNAME":"蘇澳鎮","MARKTYPE":"993","Class":"303"},"geometry":{"x":121.86526221016952,"y":24.582374026336886}},{"attributes":{"OBJECTID":23166,"LANDMARKID":"1000200000354","LANDMARKCO":"301","LANDMARKNA":"永春火車站(閒)","LANDMARKAD":"1000203","ADDRESS":"宜蘭縣蘇澳鎮","TEL":" ","COUNTYNAME":"宜蘭縣","TOWNNAME":"蘇澳鎮","MARKTYPE":"993","Class":"301"},"geometry":{"x":121.84562008684374,"y":24.577568550095478}},{"attributes":{"OBJECTID":23167,"LANDMARKID":"1000200000355","LANDMARKCO":"301","LANDMARKNA":"蘇澳新火車站","LANDMARKAD":"1000203","ADDRESS":"宜蘭縣蘇澳鎮中山路2段238號之1","TEL":"03-9961004","COUNTYNAME":"宜蘭縣","TOWNNAME":"蘇澳鎮","MARKTYPE":"993","Class":"301"},"geometry":{"x":121.82901912707663,"y":24.607061500217021}},{"attributes":{"OBJECTID":23168,"LANDMARKID":"1000200000356","LANDMARKCO":"301","LANDMARKNA":"新馬火車站","LANDMARKAD":"1000203","ADDRESS":"宜蘭縣蘇澳鎮","TEL":" ","COUNTYNAME":"宜蘭縣","TOWNNAME":"蘇澳鎮","MARKTYPE":"993","Class":"301"},"geometry":{"x":121.8228820371405,"y":24.615710966795625}},{"attributes":{"OBJECTID":23169,"LANDMARKID":"1000200000357","LANDMARKCO":"301","LANDMARKNA":"蘇澳火車站","LANDMARKAD":"1000203","ADDRESS":"宜蘭縣蘇澳鎮蘇南里太平路1號","TEL":"03-9962028","COUNTYNAME":"宜蘭縣","TOWNNAME":"蘇澳鎮","MARKTYPE":"993","Class":"301"},"geometry":{"x":121.85124538016782,"y":24.59507536430192}},{"attributes":{"OBJECTID":23170,"LANDMARKID":"1000200000358","LANDMARKCO":"301","LANDMARKNA":"南澳火車站","LANDMARKAD":"1000203","ADDRESS":"宜蘭縣蘇澳鎮南強里大通路243號","TEL":"03-9981971","COUNTYNAME":"宜蘭縣","TOWNNAME":"蘇澳鎮","MARKTYPE":"993","Class":"301"},"geometry":{"x":121.80112217510364,"y":24.463295850775545}},{"attributes":{"OBJECTID":23171,"LANDMARKID":"1000200000359","LANDMARKCO":"301","LANDMARKNA":"永樂火車站","LANDMARKAD":"1000203","ADDRESS":"宜蘭縣蘇澳鎮永樂里圳頭路60號","TEL":"03-9961889","COUNTYNAME":"宜蘭縣","TOWNNAME":"蘇澳鎮","MARKTYPE":"993","Class":"301"},"geometry":{"x":121.84318837343456,"y":24.565625051454649}},{"attributes":{"OBJECTID":23172,"LANDMARKID":"1000200000475","LANDMARKCO":"402","LANDMARKNA":"中華電信-蘇澳服務中心","LANDMARKAD":"1000203","ADDRESS":"宜蘭縣蘇澳鎮中山路一段220號","TEL":"(03)995-3450","COUNTYNAME":"宜蘭縣","TOWNNAME":"蘇澳鎮","MARKTYPE":"994","Class":"4"},"geometry":{"x":121.84594343917323,"y":24.595997660481942}},{"attributes":{"OBJECTID":23173,"LANDMARKID":"1000200001093","LANDMARKCO":"604","LANDMARKNA":"海山民宿","LANDMARKAD":"1000203","ADDRESS":"宜蘭縣南澳鄉南澳村蘇花路二段67號","TEL":"03-9982450","COUNTYNAME":"宜蘭縣","TOWNNAME":"蘇澳鎮","MARKTYPE":"996","Class":"6"},"geometry":{"x":121.79157371924894,"y":24.462346039831591}},{"attributes":{"OBJECTID":23174,"LANDMARKID":"1000200001094","LANDMARKCO":"604","LANDMARKNA":"玉荷塘民宿","LANDMARKAD":"1000203","ADDRESS":"宜蘭縣蘇澳鎮新城里武荖坑路92號","TEL":"03-9955561","COUNTYNAME":"宜蘭縣","TOWNNAME":"蘇澳鎮","MARKTYPE":"996","Class":"6"},"geometry":{"x":121.81253007952013,"y":24.610822421633468}},{"attributes":{"OBJECTID":23175,"LANDMARKID":"1000200000882","LANDMARKCO":"603","LANDMARKNA":"日新大飯店","LANDMARKAD":"1000203","ADDRESS":"宜蘭縣蘇澳鎮江夏路53號","TEL":"03-9962531","COUNTYNAME":"宜蘭縣","TOWNNAME":"蘇澳鎮","MARKTYPE":"996","Class":"6"},"geometry":{"x":121.8648819494623,"y":24.58273237697863}},{"attributes":{"OBJECTID":23176,"LANDMARKID":"1000200000883","LANDMARKCO":"603","LANDMARKNA":"金華大旅社","LANDMARKAD":"1000203","ADDRESS":"宜蘭縣蘇澳鎮冷泉路1號","TEL":"03-9962526","COUNTYNAME":"宜蘭縣","TOWNNAME":"蘇澳鎮","MARKTYPE":"996","Class":"6"},"geometry":{"x":121.85109965544365,"y":24.59646386363254}},{"attributes":{"OBJECTID":23177,"LANDMARKID":"1000200000884","LANDMARKCO":"603","LANDMARKNA":"自家園旅社","LANDMARKAD":"1000203","ADDRESS":"宜蘭縣蘇澳鎮林森路6號","TEL":"03-9962367","COUNTYNAME":"宜蘭縣","TOWNNAME":"蘇澳鎮","MARKTYPE":"996","Class":"6"},"geometry":{"x":121.85200022998188,"y":24.596398769813717}},{"attributes":{"OBJECTID":23178,"LANDMARKID":"1000200000885","LANDMARKCO":"603","LANDMARKNA":"蘇澳大飯店","LANDMARKAD":"1000203","ADDRESS":"宜蘭縣蘇澳鎮蘇東中路7號6-7樓","TEL":"03-9965181-2","COUNTYNAME":"宜蘭縣","TOWNNAME":"蘇澳鎮","MARKTYPE":"996","Class":"6"},"geometry":{"x":121.85547339226973,"y":24.596414782631417}},{"attributes":{"OBJECTID":23179,"LANDMARKID":"1000200000886","LANDMARKCO":"603","LANDMARKNA":"新悅汽車旅館","LANDMARKAD":"1000203","ADDRESS":"宜蘭縣蘇澳鎮蘇東北路2-15號","TEL":"03-9952345","COUNTYNAME":"宜蘭縣","TOWNNAME":"蘇澳鎮","MARKTYPE":"996","Class":"6"},"geometry":{"x":121.85527454816139,"y":24.597449912091083}},{"attributes":{"OBJECTID":23180,"LANDMARKID":"1000200000887","LANDMARKCO":"603","LANDMARKNA":"東海峰旅館","LANDMARKAD":"1000203","ADDRESS":"宜蘭縣蘇澳鎮蘇花路3段190號","TEL":"03-9986336","COUNTYNAME":"宜蘭縣","TOWNNAME":"蘇澳鎮","MARKTYPE":"996","Class":"6"},"geometry":{"x":121.83277011273651,"y":24.519764870038625}},{"attributes":{"OBJECTID":23181,"LANDMARKID":"1000200000888","LANDMARKCO":"603","LANDMARKNA":"興華旅社","LANDMARKAD":"1000203","ADDRESS":"宜蘭縣蘇澳鎮蘇南路13號","TEL":"03-9962581","COUNTYNAME":"宜蘭縣","TOWNNAME":"蘇澳鎮","MARKTYPE":"996","Class":"6"},"geometry":{"x":121.85156823211649,"y":24.595661213839314}},{"attributes":{"OBJECTID":23182,"LANDMARKID":"1000200000889","LANDMARKCO":"603","LANDMARKNA":"亞洲旅社","LANDMARKAD":"1000203","ADDRESS":"宜蘭縣蘇澳鎮蘇南路18號","TEL":"03-9964085","COUNTYNAME":"宜蘭縣","TOWNNAME":"蘇澳鎮","MARKTYPE":"996","Class":"6"},"geometry":{"x":121.85115320347232,"y":24.595657561632787}},{"attributes":{"OBJECTID":23183,"LANDMARKID":"1000200000890","LANDMARKCO":"603","LANDMARKNA":"新貴汽車旅館","LANDMARKAD":"1000203","ADDRESS":"宜蘭縣蘇澳鎮中正路35號","TEL":"03-9967177","COUNTYNAME":"宜蘭縣","TOWNNAME":"蘇澳鎮","MARKTYPE":"996","Class":"6"},"geometry":{"x":121.8530631788171,"y":24.594618459249553}},{"attributes":{"OBJECTID":23184,"LANDMARKID":"1000200000891","LANDMARKCO":"603","LANDMARKNA":"立都大飯店","LANDMARKAD":"1000203","ADDRESS":"宜蘭縣蘇澳鎮蘇東里蘇東北路2-63","TEL":"2-65號1-4樓","COUNTYNAME":"宜蘭縣","TOWNNAME":"蘇澳鎮","MARKTYPE":"996","Class":"6"},"geometry":{"x":121.85618845843717,"y":24.59802447759596}},{"attributes":{"OBJECTID":23185,"LANDMARKID":"1000200001089","LANDMARKCO":"604","LANDMARKNA":"大南澳民宿(位於南澳鄉)","LANDMARKAD":"1000203","ADDRESS":"宜蘭縣蘇澳鎮南強里大通路38-1號","TEL":"03-9981256","COUNTYNAME":"宜蘭縣","TOWNNAME":"蘇澳鎮","MARKTYPE":"996","Class":"6"},"geometry":{"x":121.80457351335676,"y":24.465543526819442}},{"attributes":{"OBJECTID":23186,"LANDMARKID":"1000200001090","LANDMARKCO":"604","LANDMARKNA":"吉緣","LANDMARKAD":"1000203","ADDRESS":"宜蘭縣蘇澳鎮龍德里福德路324號","TEL":"03-9901138","COUNTYNAME":"宜蘭縣","TOWNNAME":"蘇澳鎮","MARKTYPE":"996","Class":"6"},"geometry":{"x":121.83000426379385,"y":24.644278800573595}},{"attributes":{"OBJECTID":23187,"LANDMARKID":"1000200001091","LANDMARKCO":"604","LANDMARKNA":"美茵宮渡假別墅","LANDMARKAD":"1000203","ADDRESS":"宜蘭縣蘇澳鎮龍德里福德路366巷8號","TEL":"03-9903300","COUNTYNAME":"宜蘭縣","TOWNNAME":"蘇澳鎮","MARKTYPE":"996","Class":"6"},"geometry":{"x":121.83067284015119,"y":24.645478428836967}},{"attributes":{"OBJECTID":23188,"LANDMARKID":"1000200000881","LANDMARKCO":"603","LANDMARKNA":"集東旅社","LANDMARKAD":"1000203","ADDRESS":"宜蘭縣蘇澳鎮蘇花路3段150號","TEL":"03-9986164","COUNTYNAME":"宜蘭縣","TOWNNAME":"蘇澳鎮","MARKTYPE":"996","Class":"6"},"geometry":{"x":121.8322327625564,"y":24.519210834419543}},{"attributes":{"OBJECTID":23189,"LANDMARKID":"1000200001092","LANDMARKCO":"604","LANDMARKNA":"南澳民宿","LANDMARKAD":"1000203","ADDRESS":"宜蘭縣蘇澳鎮南強里蘇花路二段426號","TEL":"03-9981188","COUNTYNAME":"宜蘭縣","TOWNNAME":"蘇澳鎮","MARKTYPE":"996","Class":"6"},"geometry":{"x":121.80484017330296,"y":24.466276107204788}},{"attributes":{"OBJECTID":23190,"LANDMARKID":"1000200000644","LANDMARKCO":"503","LANDMARKNA":"砲台山公園","LANDMARKAD":"1000203","ADDRESS":"宜蘭縣蘇澳鎮","TEL":" ","COUNTYNAME":"宜蘭縣","TOWNNAME":"蘇澳鎮","MARKTYPE":"995","Class":"5"},"geometry":{"x":121.85602749031408,"y":24.593733627164141}},{"attributes":{"OBJECTID":23191,"LANDMARKID":"1000200000645","LANDMARKCO":"503","LANDMARKNA":"南方澳大橋","LANDMARKAD":"1000203","ADDRESS":"宜蘭縣蘇澳鎮","TEL":" ","COUNTYNAME":"宜蘭縣","TOWNNAME":"蘇澳鎮","MARKTYPE":"995","Class":"5"},"geometry":{"x":121.86840500145649,"y":24.585820660720724}},{"attributes":{"OBJECTID":23192,"LANDMARKID":"1000200000646","LANDMARKCO":"503","LANDMARKNA":"豆腐岬風景區","LANDMARKAD":"1000203","ADDRESS":"宜蘭縣蘇澳鎮","TEL":" ","COUNTYNAME":"宜蘭縣","TOWNNAME":"蘇澳鎮","MARKTYPE":"995","Class":"5"},"geometry":{"x":121.87127331445068,"y":24.583819205066465}},{"attributes":{"OBJECTID":23193,"LANDMARKID":"1000200000722","LANDMARKCO":"509","LANDMARKNA":"豆腐岬海水浴場","LANDMARKAD":"1000203","ADDRESS":"宜蘭縣蘇澳鎮","TEL":" ","COUNTYNAME":"宜蘭縣","TOWNNAME":"蘇澳鎮","MARKTYPE":"995","Class":"5"},"geometry":{"x":121.87211115104104,"y":24.58377306599607}},{"attributes":{"OBJECTID":23194,"LANDMARKID":"1000200000647","LANDMARKCO":"503","LANDMARKNA":"武荖坑風景區","LANDMARKAD":"1000203","ADDRESS":"宜蘭縣蘇澳鎮新城南街43之30號","TEL":" ","COUNTYNAME":"宜蘭縣","TOWNNAME":"蘇澳鎮","MARKTYPE":"995","Class":"5"},"geometry":{"x":121.81560694309073,"y":24.609941787078547}},{"attributes":{"OBJECTID":23195,"LANDMARKID":"1000200000606","LANDMARKCO":"408","LANDMARKNA":"郵局-蘇澳東澳路郵局","LANDMARKAD":"1000212","ADDRESS":"宜蘭縣南澳鄉蘇花路3段171號","TEL":"(03)9986-190","COUNTYNAME":"宜蘭縣","TOWNNAME":"南澳鄉","MARKTYPE":"994","Class":"4"},"geometry":{"x":121.83246285278133,"y":24.519725565125405}},{"attributes":{"OBJECTID":23196,"LANDMARKID":"1000200000607","LANDMARKCO":"408","LANDMARKNA":"郵局-南澳郵局","LANDMARKAD":"1000212","ADDRESS":"宜蘭縣南澳鄉蘇花路2段351號","TEL":"(03)9981-047","COUNTYNAME":"宜蘭縣","TOWNNAME":"南澳鄉","MARKTYPE":"994","Class":"4"},"geometry":{"x":121.80225815548992,"y":24.465176106460191}},{"attributes":{"OBJECTID":23197,"LANDMARKID":"1000200000579","LANDMARKCO":"406","LANDMARKNA":"太平山公園","LANDMARKAD":"1000212","ADDRESS":"宜蘭縣南澳鄉","TEL":" ","COUNTYNAME":"宜蘭縣","TOWNNAME":"南澳鄉","MARKTYPE":"994","Class":"4"},"geometry":{"x":121.53407564071686,"y":24.496271129858243}},{"attributes":{"OBJECTID":23198,"LANDMARKID":"1000200000580","LANDMARKCO":"406","LANDMARKNA":"金洋公園","LANDMARKAD":"1000212","ADDRESS":"宜蘭縣南澳鄉","TEL":" ","COUNTYNAME":"宜蘭縣","TOWNNAME":"南澳鄉","MARKTYPE":"994","Class":"4"},"geometry":{"x":121.75046749765002,"y":24.427567087069065}},{"attributes":{"OBJECTID":23199,"LANDMARKID":"1000200000186","LANDMARKCO":"108","LANDMARKNA":"宜蘭縣南澳鄉公所","LANDMARKAD":"1000212","ADDRESS":"宜蘭縣南澳鄉蘇花路二段381號","TEL":"03-9981915","COUNTYNAME":"宜蘭縣","TOWNNAME":"南澳鄉","MARKTYPE":"991","Class":"1"},"geometry":{"x":121.80517773994647,"y":24.466615689693043}},{"attributes":{"OBJECTID":23200,"LANDMARKID":"1000200000031","LANDMARKCO":"103","LANDMARKNA":"宜蘭縣南澳鄉民代表會","LANDMARKAD":"1000212","ADDRESS":"宜蘭縣南澳鄉南澳村蘇花路二段377號","TEL":"03-9981034","COUNTYNAME":"宜蘭縣","TOWNNAME":"南澳鄉","MARKTYPE":"991","Class":"1"},"geometry":{"x":121.80517773994647,"y":24.466615689693043}}]}