{"displayFieldName":"COUNTYNAME","fieldAliases":{"OBJECTID":"OBJECTID","LANDMARKID":"LANDMARKID","LANDMARKCO":"LANDMARKCO","LANDMARKNA":"LANDMARKNA","LANDMARKAD":"LANDMARKAD","ADDRESS":"ADDRESS","TEL":"TEL","COUNTYNAME":"COUNTYNAME","TOWNNAME":"TOWNNAME","MARKTYPE":"MARKTYPE","Class":"Class"},"geometryType":"esriGeometryPoint","spatialReference":{"wkid":4326},"fields":[{"name":"OBJECTID","type":"esriFieldTypeOID","alias":"OBJECTID"},{"name":"LANDMARKID","type":"esriFieldTypeString","alias":"LANDMARKID","length":15},{"name":"LANDMARKCO","type":"esriFieldTypeString","alias":"LANDMARKCO","length":15},{"name":"LANDMARKNA","type":"esriFieldTypeString","alias":"LANDMARKNA","length":50},{"name":"LANDMARKAD","type":"esriFieldTypeString","alias":"LANDMARKAD","length":15},{"name":"ADDRESS","type":"esriFieldTypeString","alias":"ADDRESS","length":56},{"name":"TEL","type":"esriFieldTypeString","alias":"TEL","length":36},{"name":"COUNTYNAME","type":"esriFieldTypeString","alias":"COUNTYNAME","length":15},{"name":"TOWNNAME","type":"esriFieldTypeString","alias":"TOWNNAME","length":13},{"name":"MARKTYPE","type":"esriFieldTypeString","alias":"MARKTYPE","length":12},{"name":"Class","type":"esriFieldTypeString","alias":"Class","length":5}],"features":[{"attributes":{"OBJECTID":20601,"LANDMARKID":"6400000001221","LANDMARKCO":"512","LANDMARKNA":"高雄都會公園管理站","LANDMARKAD":"6400004","ADDRESS":"高雄市楠梓區德民路24號","TEL":"07-3645781","COUNTYNAME":"高雄市","TOWNNAME":"楠梓區","MARKTYPE":"995","Class":"5"},"geometry":{"x":120.31870273668591,"y":22.732697785569371}},{"attributes":{"OBJECTID":20602,"LANDMARKID":"6400000001035","LANDMARKCO":"406","LANDMARKNA":"高雄都會公園","LANDMARKAD":"6400004","ADDRESS":"高雄市楠梓區德民路24號","TEL":" ","COUNTYNAME":"高雄市","TOWNNAME":"楠梓區","MARKTYPE":"994","Class":"4"},"geometry":{"x":120.318701781277,"y":22.732697270365527}},{"attributes":{"OBJECTID":20603,"LANDMARKID":"6400000001096","LANDMARKCO":"408","LANDMARKNA":"郵局-楠梓郵局","LANDMARKAD":"6400004","ADDRESS":"高雄市楠梓區楠梓新路247號","TEL":"(07)3517-250","COUNTYNAME":"高雄市","TOWNNAME":"楠梓區","MARKTYPE":"994","Class":"4"},"geometry":{"x":120.32577218968201,"y":22.728358055932095}},{"attributes":{"OBJECTID":20604,"LANDMARKID":"6400000001097","LANDMARKCO":"408","LANDMARKNA":"郵局-楠梓右昌郵局","LANDMARKAD":"6400004","ADDRESS":"高雄市楠梓區右昌街347號","TEL":"(07)3614-445","COUNTYNAME":"高雄市","TOWNNAME":"楠梓區","MARKTYPE":"994","Class":"4"},"geometry":{"x":120.28882059635009,"y":22.714552541700446}},{"attributes":{"OBJECTID":20605,"LANDMARKID":"6400000001098","LANDMARKCO":"408","LANDMARKNA":"郵局-海軍官校郵局","LANDMARKAD":"6400004","ADDRESS":"高雄市楠梓區軍校路669號","TEL":"(07)5827-759","COUNTYNAME":"高雄市","TOWNNAME":"楠梓區","MARKTYPE":"994","Class":"4"},"geometry":{"x":120.29234454360829,"y":22.705185399616521}},{"attributes":{"OBJECTID":20606,"LANDMARKID":"6400000001099","LANDMARKCO":"408","LANDMARKNA":"郵局-楠梓後勁郵局","LANDMARKAD":"6400004","ADDRESS":"高雄市楠梓區後昌路128號","TEL":"(07)3613-972","COUNTYNAME":"高雄市","TOWNNAME":"楠梓區","MARKTYPE":"994","Class":"4"},"geometry":{"x":120.31024028126147,"y":22.718390240643235}},{"attributes":{"OBJECTID":20607,"LANDMARKID":"6400000001100","LANDMARKCO":"408","LANDMARKNA":"郵局-楠梓亞洲城郵局","LANDMARKAD":"6400004","ADDRESS":"高雄市楠梓區壽民路222號","TEL":"(07)3639-199","COUNTYNAME":"高雄市","TOWNNAME":"楠梓區","MARKTYPE":"994","Class":"4"},"geometry":{"x":120.29657035037756,"y":22.716318018884934}},{"attributes":{"OBJECTID":20608,"LANDMARKID":"6400000001101","LANDMARKCO":"408","LANDMARKNA":"郵局-楠梓建楠郵局","LANDMARKAD":"6400004","ADDRESS":"高雄市楠梓區建楠路3號","TEL":"(07)3523-590","COUNTYNAME":"高雄市","TOWNNAME":"楠梓區","MARKTYPE":"994","Class":"4"},"geometry":{"x":120.32955151333442,"y":22.727755074701971}},{"attributes":{"OBJECTID":20609,"LANDMARKID":"6400000001102","LANDMARKCO":"408","LANDMARKNA":"郵局-高雄高等行政法院郵局","LANDMARKAD":"6400004","ADDRESS":"高雄市楠梓區興楠路180號","TEL":"(07)3550-418","COUNTYNAME":"高雄市","TOWNNAME":"楠梓區","MARKTYPE":"994","Class":"4"},"geometry":{"x":120.33542529886677,"y":22.731185361307009}},{"attributes":{"OBJECTID":20610,"LANDMARKID":"6400000001103","LANDMARKCO":"408","LANDMARKNA":"郵局-楠梓翠屏郵局","LANDMARKAD":"6400004","ADDRESS":"高雄市楠梓區德祥路129號","TEL":"(07)3603-893","COUNTYNAME":"高雄市","TOWNNAME":"楠梓區","MARKTYPE":"994","Class":"4"},"geometry":{"x":120.31011870898692,"y":22.7269140738997}},{"attributes":{"OBJECTID":20611,"LANDMARKID":"6400000001104","LANDMARKCO":"408","LANDMARKNA":"郵局-楠梓煉油廠郵局","LANDMARKAD":"6400004","ADDRESS":"高雄市楠梓區後昌路510號","TEL":"(07)3612-330","COUNTYNAME":"高雄市","TOWNNAME":"楠梓區","MARKTYPE":"994","Class":"4"},"geometry":{"x":120.30660738707405,"y":22.708653627979999}},{"attributes":{"OBJECTID":20612,"LANDMARKID":"6400000001105","LANDMARKCO":"408","LANDMARKNA":"郵局-楠梓加工區郵局","LANDMARKAD":"6400004","ADDRESS":"高雄市楠梓區加昌路600-15號(楠梓加工出口區內)","TEL":"(07)3612-885","COUNTYNAME":"高雄市","TOWNNAME":"楠梓區","MARKTYPE":"994","Class":"4"},"geometry":{"x":120.30278448912375,"y":22.724099095059163}},{"attributes":{"OBJECTID":20613,"LANDMARKID":"6400000001172","LANDMARKCO":"409","LANDMARKNA":"援中港辦事處","LANDMARKAD":"6400004","ADDRESS":"高雄市楠梓區德中路50號","TEL":"07-361-2641","COUNTYNAME":"高雄市","TOWNNAME":"楠梓區","MARKTYPE":"994","Class":"4"},"geometry":{"x":120.2809956413151,"y":22.720946268076716}},{"attributes":{"OBJECTID":20614,"LANDMARKID":"6400000001072","LANDMARKCO":"407","LANDMARKNA":"小北百貨","LANDMARKAD":"6400004","ADDRESS":"高雄市楠梓區後昌路837巷69號","TEL":"07-3622735","COUNTYNAME":"高雄市","TOWNNAME":"楠梓區","MARKTYPE":"994","Class":"4"},"geometry":{"x":120.29336647377075,"y":22.71046377341213}},{"attributes":{"OBJECTID":20615,"LANDMARKID":"6400000001006","LANDMARKCO":"405","LANDMARKNA":"台塑加油站-加昌站(台塑)","LANDMARKAD":"6400004","ADDRESS":"高雄市楠梓區加昌路119號","TEL":"07-3620448","COUNTYNAME":"高雄市","TOWNNAME":"楠梓區","MARKTYPE":"994","Class":"4"},"geometry":{"x":120.31653224235237,"y":22.722055513916921}},{"attributes":{"OBJECTID":20616,"LANDMARKID":"6400000001007","LANDMARKCO":"405","LANDMARKNA":"台亞加油站-楠梓交流道站（台塑）","LANDMARKAD":"6400004","ADDRESS":"高雄市楠梓區鳳楠路45號","TEL":"(07)354-0601","COUNTYNAME":"高雄市","TOWNNAME":"楠梓區","MARKTYPE":"994","Class":"4"},"geometry":{"x":120.33107689718071,"y":22.722152931501213}},{"attributes":{"OBJECTID":20617,"LANDMARKID":"6400000000088","LANDMARKCO":"103","LANDMARKNA":"高雄市楠梓區衛生所","LANDMARKAD":"6400004","ADDRESS":"高雄市楠梓區楠梓路202號","TEL":"07-3512110","COUNTYNAME":"高雄市","TOWNNAME":"楠梓區","MARKTYPE":"991","Class":"1"},"geometry":{"x":120.32840206610814,"y":22.732111697951716}},{"attributes":{"OBJECTID":20618,"LANDMARKID":"6400000000220","LANDMARKCO":"108","LANDMARKNA":"高雄市楠梓區公所","LANDMARKAD":"6400004","ADDRESS":"高雄市楠梓區楠梓新路264號","TEL":"07-3517121","COUNTYNAME":"高雄市","TOWNNAME":"楠梓區","MARKTYPE":"991","Class":"1"},"geometry":{"x":120.32626193859814,"y":22.728348640193595}},{"attributes":{"OBJECTID":20619,"LANDMARKID":"6400000000199","LANDMARKCO":"107","LANDMARKNA":"高雄市政府警察局楠梓分局","LANDMARKAD":"6400004","ADDRESS":"高雄市楠梓區加昌里外環西路119號","TEL":"07-3653190","COUNTYNAME":"高雄市","TOWNNAME":"楠梓區","MARKTYPE":"991","Class":"1"},"geometry":{"x":120.29996432347269,"y":22.717974599017065}},{"attributes":{"OBJECTID":20620,"LANDMARKID":"6400000000200","LANDMARKCO":"107","LANDMARKNA":"高雄市政府警察局翠屏派出所","LANDMARKAD":"6400004","ADDRESS":"高雄市楠梓區翠屏里德祥路147號","TEL":"07-3649783","COUNTYNAME":"高雄市","TOWNNAME":"楠梓區","MARKTYPE":"991","Class":"1"},"geometry":{"x":120.30951510499403,"y":22.726597300266658}},{"attributes":{"OBJECTID":20621,"LANDMARKID":"6400000000201","LANDMARKCO":"107","LANDMARKNA":"高雄市政府警察局楠梓派出所","LANDMARKAD":"6400004","ADDRESS":"高雄市楠梓區旗楠路25號","TEL":"07-3511145","COUNTYNAME":"高雄市","TOWNNAME":"楠梓區","MARKTYPE":"991","Class":"1"},"geometry":{"x":120.32884639263041,"y":22.73147424452663}},{"attributes":{"OBJECTID":20622,"LANDMARKID":"6400000000202","LANDMARKCO":"107","LANDMARKNA":"高雄市政府警察局後勁派出所","LANDMARKAD":"6400004","ADDRESS":"高雄市楠梓區宏毅里後昌路214號","TEL":"07-3612554","COUNTYNAME":"高雄市","TOWNNAME":"楠梓區","MARKTYPE":"991","Class":"1"},"geometry":{"x":120.30785526376079,"y":22.718216856383087}},{"attributes":{"OBJECTID":20623,"LANDMARKID":"6400000000203","LANDMARKCO":"107","LANDMARKNA":"高雄市政府警察局右昌派出所","LANDMARKAD":"6400004","ADDRESS":"高雄市楠梓區建昌里右昌街250號","TEL":"07-3612977","COUNTYNAME":"高雄市","TOWNNAME":"楠梓區","MARKTYPE":"991","Class":"1"},"geometry":{"x":120.28952988689477,"y":22.7123565712863}},{"attributes":{"OBJECTID":20624,"LANDMARKID":"6400000000204","LANDMARKCO":"107","LANDMARKNA":"高雄市政府警察局加昌派出所","LANDMARKAD":"6400004","ADDRESS":"高雄市楠梓區加昌里外環西路119號","TEL":"07-3655961","COUNTYNAME":"高雄市","TOWNNAME":"楠梓區","MARKTYPE":"991","Class":"1"},"geometry":{"x":120.29996432347269,"y":22.717974599017065}},{"attributes":{"OBJECTID":20625,"LANDMARKID":"6400000000205","LANDMARKCO":"107","LANDMARKNA":"高雄市消防局北一消防中隊","LANDMARKAD":"6400004","ADDRESS":"高雄市楠梓區楠梓路418號3樓","TEL":"07-3526040","COUNTYNAME":"高雄市","TOWNNAME":"楠梓區","MARKTYPE":"991","Class":"1"},"geometry":{"x":120.32713493851087,"y":22.734451663329228}},{"attributes":{"OBJECTID":20626,"LANDMARKID":"6400000000206","LANDMARKCO":"107","LANDMARKNA":"高雄市消防局楠梓消防分隊","LANDMARKAD":"6400004","ADDRESS":"高雄市楠梓區楠梓路418號","TEL":"07-3533651","COUNTYNAME":"高雄市","TOWNNAME":"楠梓區","MARKTYPE":"991","Class":"1"},"geometry":{"x":120.32713493851087,"y":22.734451663329228}},{"attributes":{"OBJECTID":20627,"LANDMARKID":"6400000000207","LANDMARKCO":"107","LANDMARKNA":"高雄市消防局右昌消防分隊","LANDMARKAD":"6400004","ADDRESS":"高雄市楠梓區後昌路1133號","TEL":"07-3651482","COUNTYNAME":"高雄市","TOWNNAME":"楠梓區","MARKTYPE":"991","Class":"1"},"geometry":{"x":120.29176368876071,"y":22.717719183983572}},{"attributes":{"OBJECTID":20628,"LANDMARKID":"6400000000112","LANDMARKCO":"105","LANDMARKNA":"高雄市楠梓地政事務所","LANDMARKAD":"6400004","ADDRESS":"高雄市楠梓區楠梓新路264號4-5樓","TEL":"07-3521212","COUNTYNAME":"高雄市","TOWNNAME":"楠梓區","MARKTYPE":"991","Class":"1"},"geometry":{"x":120.32626193859814,"y":22.728348640193595}},{"attributes":{"OBJECTID":20629,"LANDMARKID":"6400000000113","LANDMARKCO":"106","LANDMARKNA":"高雄市楠梓區戶政事務所","LANDMARKAD":"6400004","ADDRESS":"高雄市楠梓區惠楠里6鄰楠梓新路264號1樓","TEL":"07-3511895","COUNTYNAME":"高雄市","TOWNNAME":"楠梓區","MARKTYPE":"991","Class":"1"},"geometry":{"x":120.32626193859814,"y":22.728348640193595}},{"attributes":{"OBJECTID":20630,"LANDMARKID":"6400000000001","LANDMARKCO":"101","LANDMARKNA":"高雄市監理處","LANDMARKAD":"6400004","ADDRESS":"高雄市楠梓區德民路71號","TEL":"07-3613161","COUNTYNAME":"高雄市","TOWNNAME":"楠梓區","MARKTYPE":"991","Class":"1"},"geometry":{"x":120.31929085002852,"y":22.730194352803633}},{"attributes":{"OBJECTID":20631,"LANDMARKID":"6400000000087","LANDMARKCO":"103","LANDMARKNA":"高雄市裁決所","LANDMARKAD":"6400004","ADDRESS":"高雄市楠梓區德民路71號3樓","TEL":"07-2258530","COUNTYNAME":"高雄市","TOWNNAME":"楠梓區","MARKTYPE":"991","Class":"1"},"geometry":{"x":120.31929085002852,"y":22.730194352803633}},{"attributes":{"OBJECTID":20632,"LANDMARKID":"6400000000089","LANDMARKCO":"104","LANDMARKNA":"高雄市國稅局楠梓稽徵所","LANDMARKAD":"6400004","ADDRESS":"高雄市楠梓區楠梓新路264號6樓","TEL":"07-3522491","COUNTYNAME":"高雄市","TOWNNAME":"楠梓區","MARKTYPE":"991","Class":"1"},"geometry":{"x":120.32626193859814,"y":22.728348640193595}},{"attributes":{"OBJECTID":20633,"LANDMARKID":"6400000000090","LANDMARKCO":"104","LANDMARKNA":"高雄市國稅局楠梓加工區稽徵所","LANDMARKAD":"6400004","ADDRESS":"高雄市楠梓區加昌路600號之9","TEL":"07-3614112","COUNTYNAME":"高雄市","TOWNNAME":"楠梓區","MARKTYPE":"991","Class":"1"},"geometry":{"x":120.30586975983891,"y":22.719190772731888}},{"attributes":{"OBJECTID":20634,"LANDMARKID":"6400000000002","LANDMARKCO":"101","LANDMARKNA":"台灣高雄高等行政法院","LANDMARKAD":"6400004","ADDRESS":"高雄市楠梓區興楠路180號","TEL":"07-3573700","COUNTYNAME":"高雄市","TOWNNAME":"楠梓區","MARKTYPE":"991","Class":"1"},"geometry":{"x":120.33542564583183,"y":22.731180848346231}},{"attributes":{"OBJECTID":20635,"LANDMARKID":"6400000000003","LANDMARKCO":"101","LANDMARKNA":"台灣高雄少年法院","LANDMARKAD":"6400004","ADDRESS":"高雄市楠梓區興楠路182號","TEL":"07-3573511","COUNTYNAME":"高雄市","TOWNNAME":"楠梓區","MARKTYPE":"991","Class":"1"},"geometry":{"x":120.33508678208418,"y":22.731568612416385}},{"attributes":{"OBJECTID":20636,"LANDMARKID":"6400000000004","LANDMARKCO":"101","LANDMARKNA":"國軍退除役官兵輔導委員會","LANDMARKAD":"6400004","ADDRESS":"高雄市楠梓區加昌路633號","TEL":"07-3613183","COUNTYNAME":"高雄市","TOWNNAME":"楠梓區","MARKTYPE":"991","Class":"1"},"geometry":{"x":120.29944694688636,"y":22.715576971656162}},{"attributes":{"OBJECTID":20637,"LANDMARKID":"6400000000005","LANDMARKCO":"101","LANDMARKNA":"經濟部加工出口區管理處","LANDMARKAD":"6400004","ADDRESS":"高雄市楠梓區加昌路600號","TEL":"07-3611212","COUNTYNAME":"高雄市","TOWNNAME":"楠梓區","MARKTYPE":"991","Class":"1"},"geometry":{"x":120.30586975983891,"y":22.719190772731888}},{"attributes":{"OBJECTID":20638,"LANDMARKID":"6400000000091","LANDMARKCO":"104","LANDMARKNA":"關稅總局高雄關稅局加工出口區","LANDMARKAD":"6400004","ADDRESS":"高雄市楠梓區楠梓加工出口區中三街6號","TEL":"07-3612801","COUNTYNAME":"高雄市","TOWNNAME":"楠梓區","MARKTYPE":"991","Class":"1"},"geometry":{"x":120.30289027283767,"y":22.72409407567762}},{"attributes":{"OBJECTID":20639,"LANDMARKID":"6400000000403","LANDMARKCO":"204","LANDMARKNA":"高雄市立圖書館楠梓分館","LANDMARKAD":"6400004","ADDRESS":"高雄市楠梓區藍昌路72號","TEL":" ","COUNTYNAME":"高雄市","TOWNNAME":"楠梓區","MARKTYPE":"992","Class":"2"},"geometry":{"x":120.29024256298798,"y":22.715120786719471}},{"attributes":{"OBJECTID":20640,"LANDMARKID":"6400000000404","LANDMARKCO":"204","LANDMARKNA":"高雄市立圖書館楠梓民眾閱覽室","LANDMARKAD":"6400004","ADDRESS":"高雄市楠梓區楠梓路146號","TEL":" ","COUNTYNAME":"高雄市","TOWNNAME":"楠梓區","MARKTYPE":"992","Class":"2"},"geometry":{"x":120.32876217403707,"y":22.730534178826677}},{"attributes":{"OBJECTID":20641,"LANDMARKID":"6400000000405","LANDMARKCO":"204","LANDMARKNA":"高雄市立圖書館翠屏分館","LANDMARKAD":"6400004","ADDRESS":"高雄市楠梓區德惠路55號3樓","TEL":" ","COUNTYNAME":"高雄市","TOWNNAME":"楠梓區","MARKTYPE":"992","Class":"2"},"geometry":{"x":120.30307282295716,"y":22.725911796518933}},{"attributes":{"OBJECTID":20642,"LANDMARKID":"6400000000249","LANDMARKCO":"202","LANDMARKNA":"國立中山大學附屬國光高中","LANDMARKAD":"6400004","ADDRESS":"高雄市楠梓區後昌路512號","TEL":"07-3603600","COUNTYNAME":"高雄市","TOWNNAME":"楠梓區","MARKTYPE":"992","Class":"2"},"geometry":{"x":120.3048258923488,"y":22.708217106817578}},{"attributes":{"OBJECTID":20643,"LANDMARKID":"6400000000389","LANDMARKCO":"203","LANDMARKNA":"市立後勁國中","LANDMARKAD":"6400004","ADDRESS":"高雄市楠梓區加昌路180號","TEL":"07-3654111","COUNTYNAME":"高雄市","TOWNNAME":"楠梓區","MARKTYPE":"992","Class":"2"},"geometry":{"x":120.31603818945756,"y":22.722534038566678}},{"attributes":{"OBJECTID":20644,"LANDMARKID":"6400000000390","LANDMARKCO":"203","LANDMARKNA":"市立援中國小","LANDMARKAD":"6400004","ADDRESS":"高雄市楠梓區德正路360號","TEL":"07-3612193","COUNTYNAME":"高雄市","TOWNNAME":"楠梓區","MARKTYPE":"992","Class":"2"},"geometry":{"x":120.27815911449004,"y":22.727778413060364}},{"attributes":{"OBJECTID":20645,"LANDMARKID":"6400000000246","LANDMARKCO":"201","LANDMARKNA":"海軍軍官學校","LANDMARKAD":"6400004","ADDRESS":"高雄市左營區軍校路669號","TEL":"07-5813141","COUNTYNAME":"高雄市","TOWNNAME":"楠梓區","MARKTYPE":"992","Class":"2"},"geometry":{"x":120.2922667731363,"y":22.705175680041091}},{"attributes":{"OBJECTID":20646,"LANDMARKID":"6400000000247","LANDMARKCO":"202","LANDMARKNA":"市立中山高中","LANDMARKAD":"6400004","ADDRESS":"高雄市楠梓區藍昌路416號","TEL":"07-3641116","COUNTYNAME":"高雄市","TOWNNAME":"楠梓區","MARKTYPE":"992","Class":"2"},"geometry":{"x":120.29220898041471,"y":22.729489967562476}},{"attributes":{"OBJECTID":20647,"LANDMARKID":"6400000000248","LANDMARKCO":"202","LANDMARKNA":"市立楠梓高中","LANDMARKAD":"6400004","ADDRESS":"高雄市楠梓區清豐路19號","TEL":"07-3373116","COUNTYNAME":"高雄市","TOWNNAME":"楠梓區","MARKTYPE":"992","Class":"2"},"geometry":{"x":120.33242713841729,"y":22.74328655994049}},{"attributes":{"OBJECTID":20648,"LANDMARKID":"6400000000392","LANDMARKCO":"203","LANDMARKNA":"市立右昌國中","LANDMARKAD":"6400004","ADDRESS":"高雄市楠梓區盛昌街161號","TEL":"07-3640451","COUNTYNAME":"高雄市","TOWNNAME":"楠梓區","MARKTYPE":"992","Class":"2"},"geometry":{"x":120.28690443220621,"y":22.713591824673379}},{"attributes":{"OBJECTID":20649,"LANDMARKID":"6400000000393","LANDMARKCO":"203","LANDMARKNA":"市立楠梓國中","LANDMARKAD":"6400004","ADDRESS":"高雄市楠梓區楠梓路336號","TEL":"07-3517191","COUNTYNAME":"高雄市","TOWNNAME":"楠梓區","MARKTYPE":"992","Class":"2"},"geometry":{"x":120.32750783646739,"y":22.733949077944608}},{"attributes":{"OBJECTID":20650,"LANDMARKID":"6400000000394","LANDMARKCO":"203","LANDMARKNA":"市立國昌國中","LANDMARKAD":"6400004","ADDRESS":"高雄市楠梓區德民路1010號","TEL":"07-3644300","COUNTYNAME":"高雄市","TOWNNAME":"楠梓區","MARKTYPE":"992","Class":"2"},"geometry":{"x":120.2860588180416,"y":22.719448517321588}},{"attributes":{"OBJECTID":20651,"LANDMARKID":"6400000000395","LANDMARKCO":"203","LANDMARKNA":"市立後徑國小","LANDMARKAD":"6400004","ADDRESS":"高雄市楠梓區加昌路216號","TEL":"07-3626342","COUNTYNAME":"高雄市","TOWNNAME":"楠梓區","MARKTYPE":"992","Class":"2"},"geometry":{"x":120.31420894111287,"y":22.721710170461439}},{"attributes":{"OBJECTID":20652,"LANDMARKID":"6400000000396","LANDMARKCO":"203","LANDMARKNA":"市立右昌國小","LANDMARKAD":"6400004","ADDRESS":"高雄市楠梓區加昌路910號","TEL":"07-3612368","COUNTYNAME":"高雄市","TOWNNAME":"楠梓區","MARKTYPE":"992","Class":"2"},"geometry":{"x":120.29198163895424,"y":22.713612236649524}},{"attributes":{"OBJECTID":20653,"LANDMARKID":"6400000000397","LANDMARKCO":"203","LANDMARKNA":"市立油廠國小","LANDMARKAD":"6400004","ADDRESS":"高雄市楠梓區左楠路4號","TEL":"07-5824141","COUNTYNAME":"高雄市","TOWNNAME":"楠梓區","MARKTYPE":"992","Class":"2"},"geometry":{"x":120.30256223567669,"y":22.709225434962857}},{"attributes":{"OBJECTID":20654,"LANDMARKID":"6400000000398","LANDMARKCO":"203","LANDMARKNA":"市立莒光國小","LANDMARKAD":"6400004","ADDRESS":"高雄市楠梓區後昌路842號","TEL":"07-3612078","COUNTYNAME":"高雄市","TOWNNAME":"楠梓區","MARKTYPE":"992","Class":"2"},"geometry":{"x":120.29532502894376,"y":22.711651748191517}},{"attributes":{"OBJECTID":20655,"LANDMARKID":"6400000000399","LANDMARKCO":"203","LANDMARKNA":"市立楠梓國小","LANDMARKAD":"6400004","ADDRESS":"高雄市楠梓區楠梓路262號","TEL":"07-3511140","COUNTYNAME":"高雄市","TOWNNAME":"楠梓區","MARKTYPE":"992","Class":"2"},"geometry":{"x":120.32836082767805,"y":22.732237782428406}},{"attributes":{"OBJECTID":20656,"LANDMARKID":"6400000000400","LANDMARKCO":"203","LANDMARKNA":"市立楠陽國小","LANDMARKAD":"6400004","ADDRESS":"高雄市楠梓區楠陽路100號","TEL":"07-3520675","COUNTYNAME":"高雄市","TOWNNAME":"楠梓區","MARKTYPE":"992","Class":"2"},"geometry":{"x":120.33094058317673,"y":22.724192463992555}},{"attributes":{"OBJECTID":20657,"LANDMARKID":"6400000000401","LANDMARKCO":"203","LANDMARKNA":"市立加昌國小","LANDMARKAD":"6400004","ADDRESS":"高雄市楠梓區樂群路220號","TEL":"07-3627169","COUNTYNAME":"高雄市","TOWNNAME":"楠梓區","MARKTYPE":"992","Class":"2"},"geometry":{"x":120.29654769533903,"y":22.720404123672807}},{"attributes":{"OBJECTID":20658,"LANDMARKID":"6400000000402","LANDMARKCO":"203","LANDMARKNA":"市立翠屏國(中)小","LANDMARKAD":"6400004","ADDRESS":"高雄市楠梓區翠屏路135號","TEL":"07-3683017","COUNTYNAME":"高雄市","TOWNNAME":"楠梓區","MARKTYPE":"992","Class":"2"},"geometry":{"x":120.29944259579572,"y":22.729490797083734}},{"attributes":{"OBJECTID":20659,"LANDMARKID":"6400000000243","LANDMARKCO":"201","LANDMARKNA":"國立高雄第一科技大學西校區","LANDMARKAD":"6400004","ADDRESS":"高雄市楠梓區卓越路2號","TEL":"07-6011000","COUNTYNAME":"高雄市","TOWNNAME":"楠梓區","MARKTYPE":"992","Class":"2"},"geometry":{"x":120.33144866582563,"y":22.751920659098907}},{"attributes":{"OBJECTID":20660,"LANDMARKID":"6400000000244","LANDMARKCO":"201","LANDMARKNA":"國立高雄海洋科技大學","LANDMARKAD":"6400004","ADDRESS":"高雄市楠梓區海專路142號","TEL":"07-3617141","COUNTYNAME":"高雄市","TOWNNAME":"楠梓區","MARKTYPE":"992","Class":"2"},"geometry":{"x":120.3144897062089,"y":22.724719771518963}},{"attributes":{"OBJECTID":20661,"LANDMARKID":"6400000000245","LANDMARKCO":"201","LANDMARKNA":"國立高雄大學","LANDMARKAD":"6400004","ADDRESS":"高雄市楠梓區藍田里高雄大學路700號","TEL":"07-5919000","COUNTYNAME":"高雄市","TOWNNAME":"楠梓區","MARKTYPE":"992","Class":"2"},"geometry":{"x":120.2828129832169,"y":22.733903347422029}},{"attributes":{"OBJECTID":20662,"LANDMARKID":"6400000000391","LANDMARKCO":"203","LANDMARKNA":"高雄市立楠梓特殊教育學校","LANDMARKAD":"6400004","ADDRESS":"高雄市楠梓區德民路211號","TEL":"07-3642007","COUNTYNAME":"高雄市","TOWNNAME":"楠梓區","MARKTYPE":"992","Class":"2"},"geometry":{"x":120.31137236028725,"y":22.726809035861571}},{"attributes":{"OBJECTID":20663,"LANDMARKID":"6400000000710","LANDMARKCO":"308","LANDMARKNA":"國1-楠梓交流道-南下","LANDMARKAD":"6400004","ADDRESS":"高雄市楠梓區","TEL":" ","COUNTYNAME":"高雄市","TOWNNAME":"楠梓區","MARKTYPE":"993","Class":"308"},"geometry":{"x":120.33203018297793,"y":22.720884983942714}},{"attributes":{"OBJECTID":20664,"LANDMARKID":"6400000000711","LANDMARKCO":"308","LANDMARKNA":"國1-楠梓交流道-北上","LANDMARKAD":"6400004","ADDRESS":"高雄市楠梓區","TEL":" ","COUNTYNAME":"高雄市","TOWNNAME":"楠梓區","MARKTYPE":"993","Class":"308"},"geometry":{"x":120.33464869113044,"y":22.740117313648142}},{"attributes":{"OBJECTID":20665,"LANDMARKID":"6400000000653","LANDMARKCO":"306","LANDMARKNA":"世運捷運站-出口1","LANDMARKAD":"6400004","ADDRESS":" ","TEL":" ","COUNTYNAME":"高雄市","TOWNNAME":"楠梓區","MARKTYPE":"993","Class":"306"},"geometry":{"x":120.30232068750952,"y":22.701130925842374}},{"attributes":{"OBJECTID":20666,"LANDMARKID":"6400000000654","LANDMARKCO":"306","LANDMARKNA":"世運捷運站-出口2","LANDMARKAD":"6400004","ADDRESS":" ","TEL":" ","COUNTYNAME":"高雄市","TOWNNAME":"楠梓區","MARKTYPE":"993","Class":"306"},"geometry":{"x":120.30232828029108,"y":22.702006975202764}},{"attributes":{"OBJECTID":20667,"LANDMARKID":"6400000000655","LANDMARKCO":"306","LANDMARKNA":"世運捷運站-出口3","LANDMARKAD":"6400004","ADDRESS":" ","TEL":" ","COUNTYNAME":"高雄市","TOWNNAME":"楠梓區","MARKTYPE":"993","Class":"306"},"geometry":{"x":120.30269371145305,"y":22.701154549569377}},{"attributes":{"OBJECTID":20668,"LANDMARKID":"6400000000656","LANDMARKCO":"306","LANDMARKNA":"世運捷運站-出口4","LANDMARKAD":"6400004","ADDRESS":" ","TEL":" ","COUNTYNAME":"高雄市","TOWNNAME":"楠梓區","MARKTYPE":"993","Class":"306"},"geometry":{"x":120.30265247776961,"y":22.70197415169886}},{"attributes":{"OBJECTID":20669,"LANDMARKID":"6400000000657","LANDMARKCO":"306","LANDMARKNA":"油廠國小捷運站-出口1","LANDMARKAD":"6400004","ADDRESS":" ","TEL":" ","COUNTYNAME":"高雄市","TOWNNAME":"楠梓區","MARKTYPE":"993","Class":"306"},"geometry":{"x":120.30209347348271,"y":22.708348833443782}},{"attributes":{"OBJECTID":20670,"LANDMARKID":"6400000000658","LANDMARKCO":"306","LANDMARKNA":"油廠國小捷運站-出口3","LANDMARKAD":"6400004","ADDRESS":" ","TEL":" ","COUNTYNAME":"高雄市","TOWNNAME":"楠梓區","MARKTYPE":"993","Class":"306"},"geometry":{"x":120.30247957109607,"y":22.708425404574193}},{"attributes":{"OBJECTID":20671,"LANDMARKID":"6400000000659","LANDMARKCO":"306","LANDMARKNA":"油廠國小捷運站-出口4","LANDMARKAD":"6400004","ADDRESS":" ","TEL":" ","COUNTYNAME":"高雄市","TOWNNAME":"楠梓區","MARKTYPE":"993","Class":"306"},"geometry":{"x":120.30247310285039,"y":22.708812615478994}},{"attributes":{"OBJECTID":20672,"LANDMARKID":"6400000000660","LANDMARKCO":"306","LANDMARKNA":"油廠國小捷運站-出口2","LANDMARKAD":"6400004","ADDRESS":" ","TEL":" ","COUNTYNAME":"高雄市","TOWNNAME":"楠梓區","MARKTYPE":"993","Class":"306"},"geometry":{"x":120.30207812313232,"y":22.708858759323608}},{"attributes":{"OBJECTID":20673,"LANDMARKID":"6400000000661","LANDMARKCO":"306","LANDMARKNA":"楠梓加工區捷運站-出口1","LANDMARKAD":"6400004","ADDRESS":" ","TEL":" ","COUNTYNAME":"高雄市","TOWNNAME":"楠梓區","MARKTYPE":"993","Class":"306"},"geometry":{"x":120.30608140782103,"y":22.718490621505868}},{"attributes":{"OBJECTID":20674,"LANDMARKID":"6400000000662","LANDMARKCO":"306","LANDMARKNA":"楠梓加工區捷運站-出口2","LANDMARKAD":"6400004","ADDRESS":" ","TEL":" ","COUNTYNAME":"高雄市","TOWNNAME":"楠梓區","MARKTYPE":"993","Class":"306"},"geometry":{"x":120.3062144194168,"y":22.718168645887989}},{"attributes":{"OBJECTID":20675,"LANDMARKID":"6400000000663","LANDMARKCO":"306","LANDMARKNA":"楠梓加工區捷運站-出口3","LANDMARKAD":"6400004","ADDRESS":" ","TEL":" ","COUNTYNAME":"高雄市","TOWNNAME":"楠梓區","MARKTYPE":"993","Class":"306"},"geometry":{"x":120.307235022478,"y":22.718551312314162}},{"attributes":{"OBJECTID":20676,"LANDMARKID":"6400000000664","LANDMARKCO":"306","LANDMARKNA":"楠梓加工區捷運站-出口4","LANDMARKAD":"6400004","ADDRESS":" ","TEL":" ","COUNTYNAME":"高雄市","TOWNNAME":"楠梓區","MARKTYPE":"993","Class":"306"},"geometry":{"x":120.30783362918415,"y":22.718790924077624}},{"attributes":{"OBJECTID":20677,"LANDMARKID":"6400000000665","LANDMARKCO":"306","LANDMARKNA":"楠梓加工區捷運站-出口5","LANDMARKAD":"6400004","ADDRESS":" ","TEL":" ","COUNTYNAME":"高雄市","TOWNNAME":"楠梓區","MARKTYPE":"993","Class":"306"},"geometry":{"x":120.30820445694471,"y":22.719269324995832}},{"attributes":{"OBJECTID":20678,"LANDMARKID":"6400000000666","LANDMARKCO":"306","LANDMARKNA":"後徑捷運站-出口1","LANDMARKAD":"6400004","ADDRESS":" ","TEL":" ","COUNTYNAME":"高雄市","TOWNNAME":"楠梓區","MARKTYPE":"993","Class":"306"},"geometry":{"x":120.31598620935783,"y":22.722421433128922}},{"attributes":{"OBJECTID":20679,"LANDMARKID":"6400000000667","LANDMARKCO":"306","LANDMARKNA":"後徑捷運站-出口2","LANDMARKAD":"6400004","ADDRESS":" ","TEL":" ","COUNTYNAME":"高雄市","TOWNNAME":"楠梓區","MARKTYPE":"993","Class":"306"},"geometry":{"x":120.31695122207653,"y":22.722785664541103}},{"attributes":{"OBJECTID":20680,"LANDMARKID":"6400000000668","LANDMARKCO":"306","LANDMARKNA":"後徑捷運站-出口3","LANDMARKAD":"6400004","ADDRESS":" ","TEL":" ","COUNTYNAME":"高雄市","TOWNNAME":"楠梓區","MARKTYPE":"993","Class":"306"},"geometry":{"x":120.31704570965492,"y":22.722415787451244}},{"attributes":{"OBJECTID":20681,"LANDMARKID":"6400000000669","LANDMARKCO":"306","LANDMARKNA":"都會公園捷運站-出口1","LANDMARKAD":"6400004","ADDRESS":" ","TEL":" ","COUNTYNAME":"高雄市","TOWNNAME":"楠梓區","MARKTYPE":"993","Class":"306"},"geometry":{"x":120.32093427629937,"y":22.728601725481024}},{"attributes":{"OBJECTID":20682,"LANDMARKID":"6400000000670","LANDMARKCO":"306","LANDMARKNA":"都會公園捷運站-出口2","LANDMARKAD":"6400004","ADDRESS":" ","TEL":" ","COUNTYNAME":"高雄市","TOWNNAME":"楠梓區","MARKTYPE":"993","Class":"306"},"geometry":{"x":120.32139188032522,"y":22.728873998759084}},{"attributes":{"OBJECTID":20683,"LANDMARKID":"6400000000671","LANDMARKCO":"306","LANDMARKNA":"都會公園捷運站-出口3","LANDMARKAD":"6400004","ADDRESS":" ","TEL":" ","COUNTYNAME":"高雄市","TOWNNAME":"楠梓區","MARKTYPE":"993","Class":"306"},"geometry":{"x":120.32103391288969,"y":22.730054297461674}},{"attributes":{"OBJECTID":20684,"LANDMARKID":"6400000000672","LANDMARKCO":"306","LANDMARKNA":"都會公園捷運站-出口4","LANDMARKAD":"6400004","ADDRESS":" ","TEL":" ","COUNTYNAME":"高雄市","TOWNNAME":"楠梓區","MARKTYPE":"993","Class":"306"},"geometry":{"x":120.32052659957407,"y":22.72993205836239}},{"attributes":{"OBJECTID":20685,"LANDMARKID":"6400000000434","LANDMARKCO":"302","LANDMARKNA":"國光汽車客運楠梓站","LANDMARKAD":"6400004","ADDRESS":"811高雄市楠梓區楠陽路113號","TEL":"|","COUNTYNAME":"高雄市","TOWNNAME":"楠梓區","MARKTYPE":"993","Class":"302"},"geometry":{"x":120.33074326119529,"y":22.724154973827009}},{"attributes":{"OBJECTID":20686,"LANDMARKID":"6400000000435","LANDMARKCO":"302","LANDMARKNA":"統聯客運-楠梓站-自營站","LANDMARKAD":"6400004","ADDRESS":"高雄市楠梓區經建路30號","TEL":"連絡電話:07-352","COUNTYNAME":"高雄市","TOWNNAME":"楠梓區","MARKTYPE":"993","Class":"302"},"geometry":{"x":120.33223385527931,"y":22.723038557215848}},{"attributes":{"OBJECTID":20687,"LANDMARKID":"6400000000436","LANDMARKCO":"302","LANDMARKNA":"統聯客運-興楠站-自營站","LANDMARKAD":"6400004","ADDRESS":"高雄市楠梓區興楠路263號","TEL":"連絡電話:07-354","COUNTYNAME":"高雄市","TOWNNAME":"楠梓區","MARKTYPE":"993","Class":"302"},"geometry":{"x":120.33356745796051,"y":22.729847306022638}},{"attributes":{"OBJECTID":20688,"LANDMARKID":"6400000000437","LANDMARKCO":"302","LANDMARKNA":"和欣客運-楠梓站","LANDMARKAD":"6400004","ADDRESS":"高雄市經建路46號","TEL":"(07)355-5699","COUNTYNAME":"高雄市","TOWNNAME":"楠梓區","MARKTYPE":"993","Class":"302"},"geometry":{"x":120.33196260715803,"y":22.722900827894552}},{"attributes":{"OBJECTID":20689,"LANDMARKID":"6400000000438","LANDMARKCO":"302","LANDMARKNA":"統聯汽車客運楠梓站","LANDMARKAD":"6400004","ADDRESS":"高雄市楠梓區經建路30號","TEL":" ","COUNTYNAME":"高雄市","TOWNNAME":"楠梓區","MARKTYPE":"993","Class":"302"},"geometry":{"x":120.33275621543294,"y":22.72544927854981}},{"attributes":{"OBJECTID":20690,"LANDMARKID":"6400000000561","LANDMARKCO":"303","LANDMARKNA":"高雄市監理處停車場","LANDMARKAD":"6400004","ADDRESS":"高雄市楠梓區","TEL":" ","COUNTYNAME":"高雄市","TOWNNAME":"楠梓區","MARKTYPE":"993","Class":"303"},"geometry":{"x":120.31782910673765,"y":22.731542046928659}},{"attributes":{"OBJECTID":20691,"LANDMARKID":"6400000000562","LANDMARKCO":"303","LANDMARKNA":"營建署高雄部都會公園停車場","LANDMARKAD":"6400004","ADDRESS":"高雄市楠梓區德民路24號","TEL":" ","COUNTYNAME":"高雄市","TOWNNAME":"楠梓區","MARKTYPE":"993","Class":"303"},"geometry":{"x":120.31248332890731,"y":22.728602318022162}},{"attributes":{"OBJECTID":20692,"LANDMARKID":"6400000000433","LANDMARKCO":"301","LANDMARKNA":"楠梓火車站","LANDMARKAD":"6400004","ADDRESS":"高雄市楠梓區建楠路229號","TEL":"07-3510175","COUNTYNAME":"高雄市","TOWNNAME":"楠梓區","MARKTYPE":"993","Class":"301"},"geometry":{"x":120.32428673435705,"y":22.727076385541139}},{"attributes":{"OBJECTID":20693,"LANDMARKID":"6400000000801","LANDMARKCO":"402","LANDMARKNA":"中華電信-高雄後昌特約服務中心","LANDMARKAD":"6400004","ADDRESS":"高雄市後昌路765號","TEL":"07-3611288","COUNTYNAME":"高雄市","TOWNNAME":"楠梓區","MARKTYPE":"994","Class":"4"},"geometry":{"x":120.29605020412319,"y":22.710145539978921}},{"attributes":{"OBJECTID":20694,"LANDMARKID":"6400000000802","LANDMARKCO":"402","LANDMARKNA":"中華電信-楠梓服務中心","LANDMARKAD":"6400004","ADDRESS":"高雄市楠梓區楠梓新路245號","TEL":"123或0800-080-123","COUNTYNAME":"高雄市","TOWNNAME":"楠梓區","MARKTYPE":"994","Class":"4"},"geometry":{"x":120.32562688094693,"y":22.728284584088733}},{"attributes":{"OBJECTID":20695,"LANDMARKID":"6400000000803","LANDMARKCO":"402","LANDMARKNA":"威寶電信-高雄惠民特約服務中心","LANDMARKAD":"6400004","ADDRESS":"高雄市楠梓區惠民路241號","TEL":"07-3630239","COUNTYNAME":"高雄市","TOWNNAME":"楠梓區","MARKTYPE":"994","Class":"4"},"geometry":{"x":120.29334855007473,"y":22.723300553973655}},{"attributes":{"OBJECTID":20696,"LANDMARKID":"6400000000804","LANDMARKCO":"402","LANDMARKNA":"威寶電信-高雄後昌特約服務中心","LANDMARKAD":"6400004","ADDRESS":"高雄市楠梓區後昌路755號","TEL":"07-3633699","COUNTYNAME":"高雄市","TOWNNAME":"楠梓區","MARKTYPE":"994","Class":"4"},"geometry":{"x":120.29627609897734,"y":22.709948849956231}},{"attributes":{"OBJECTID":20697,"LANDMARKID":"6400000000805","LANDMARKCO":"402","LANDMARKNA":"威寶電信-高雄楠梓新特約服務中心","LANDMARKAD":"6400004","ADDRESS":"高雄市楠梓區楠梓新路216號","TEL":"07-3537890","COUNTYNAME":"高雄市","TOWNNAME":"楠梓區","MARKTYPE":"994","Class":"4"},"geometry":{"x":120.32580477347041,"y":22.727617863548133}},{"attributes":{"OBJECTID":20698,"LANDMARKID":"6400000000806","LANDMARKCO":"402","LANDMARKNA":"大眾電信(震旦通訊)-高雄建楠店","LANDMARKAD":"6400004","ADDRESS":"高雄市楠梓區建楠路114號","TEL":"07-3552558","COUNTYNAME":"高雄市","TOWNNAME":"楠梓區","MARKTYPE":"994","Class":"4"},"geometry":{"x":120.32777669416133,"y":22.727062858353271}},{"attributes":{"OBJECTID":20699,"LANDMARKID":"6400000000807","LANDMARKCO":"402","LANDMARKNA":"大眾電信(震旦通訊)-高雄右昌店","LANDMARKAD":"6400004","ADDRESS":"高雄市楠梓區軍校路973號1.","TEL":"07-3635886","COUNTYNAME":"高雄市","TOWNNAME":"楠梓區","MARKTYPE":"994","Class":"4"},"geometry":{"x":120.29181375937169,"y":22.711745893930125}},{"attributes":{"OBJECTID":20700,"LANDMARKID":"6400000001347","LANDMARKCO":"603","LANDMARKNA":"維也納花園旅館","LANDMARKAD":"6400004","ADDRESS":"高雄市楠梓區興楠路355巷82弄1號","TEL":"07-3535799","COUNTYNAME":"高雄市","TOWNNAME":"楠梓區","MARKTYPE":"996","Class":"6"},"geometry":{"x":120.33237578230965,"y":22.728028677686503}},{"attributes":{"OBJECTID":20701,"LANDMARKID":"6400000001348","LANDMARKCO":"603","LANDMARKNA":"加州汽車旅館","LANDMARKAD":"6400004","ADDRESS":"高雄市楠梓區玉田街108號","TEL":"07-3525505","COUNTYNAME":"高雄市","TOWNNAME":"楠梓區","MARKTYPE":"996","Class":"6"},"geometry":{"x":120.33098085315245,"y":22.730996845761801}},{"attributes":{"OBJECTID":20702,"LANDMARKID":"6400000001349","LANDMARKCO":"603","LANDMARKNA":"欣麗華花園汽車旅館","LANDMARKAD":"6400004","ADDRESS":"高雄市楠梓區盛昌街320號","TEL":"07-3662818","COUNTYNAME":"高雄市","TOWNNAME":"楠梓區","MARKTYPE":"996","Class":"6"},"geometry":{"x":120.28911355857394,"y":22.715717064513878}},{"attributes":{"OBJECTID":20703,"LANDMARKID":"6400000001350","LANDMARKCO":"603","LANDMARKNA":"華城大旅社","LANDMARKAD":"6400004","ADDRESS":"高雄市楠梓區加昌路273-2號","TEL":"07-3612670","COUNTYNAME":"高雄市","TOWNNAME":"楠梓區","MARKTYPE":"996","Class":"6"},"geometry":{"x":120.31323756030247,"y":22.720935212837926}},{"attributes":{"OBJECTID":20704,"LANDMARKID":"6400000001351","LANDMARKCO":"603","LANDMARKNA":"御宿汽車旅館楠梓館","LANDMARKAD":"6400004","ADDRESS":"高雄市楠梓區興西路145號","TEL":"07-3516699","COUNTYNAME":"高雄市","TOWNNAME":"楠梓區","MARKTYPE":"996","Class":"6"},"geometry":{"x":120.3331477513683,"y":22.727526899790028}},{"attributes":{"OBJECTID":20705,"LANDMARKID":"6400000001352","LANDMARKCO":"603","LANDMARKNA":"亞泰賓館","LANDMARKAD":"6400004","ADDRESS":"高雄市楠梓區建楠路139號12樓","TEL":"07-3533157-8","COUNTYNAME":"高雄市","TOWNNAME":"楠梓區","MARKTYPE":"996","Class":"6"},"geometry":{"x":120.32684486157902,"y":22.72678676565679}},{"attributes":{"OBJECTID":20706,"LANDMARKID":"6400000001353","LANDMARKCO":"603","LANDMARKNA":"王筑大飯店","LANDMARKAD":"6400004","ADDRESS":"高雄市楠梓區後昌路843號","TEL":"07-3648118","COUNTYNAME":"高雄市","TOWNNAME":"楠梓區","MARKTYPE":"996","Class":"6"},"geometry":{"x":120.29446979430298,"y":22.711874492059906}},{"attributes":{"OBJECTID":20707,"LANDMARKID":"6400000001354","LANDMARKCO":"603","LANDMARKNA":"楠都賓館","LANDMARKAD":"6400004","ADDRESS":"高雄市楠梓區朝陽路142巷3號","TEL":"07-3515656","COUNTYNAME":"高雄市","TOWNNAME":"楠梓區","MARKTYPE":"996","Class":"6"},"geometry":{"x":120.32595079154514,"y":22.72563232041373}},{"attributes":{"OBJECTID":20708,"LANDMARKID":"6400000001355","LANDMARKCO":"603","LANDMARKNA":"龍陽賓館","LANDMARKAD":"6400004","ADDRESS":"高雄市楠梓區楠梓東街116號1-7樓","TEL":"07-3512633","COUNTYNAME":"高雄市","TOWNNAME":"楠梓區","MARKTYPE":"996","Class":"6"},"geometry":{"x":120.3295689909275,"y":22.730347001923967}},{"attributes":{"OBJECTID":20709,"LANDMARKID":"6400000001356","LANDMARKCO":"603","LANDMARKNA":"和光大旅社","LANDMARKAD":"6400004","ADDRESS":"高雄市楠梓區楠梓新路190巷67號","TEL":"07-3511442","COUNTYNAME":"高雄市","TOWNNAME":"楠梓區","MARKTYPE":"996","Class":"6"},"geometry":{"x":120.32765688496691,"y":22.726378183932169}},{"attributes":{"OBJECTID":20710,"LANDMARKID":"6400000001186","LANDMARKCO":"503","LANDMARKNA":"高雄都會公園","LANDMARKAD":"6400004","ADDRESS":"高雄市楠梓區德民路24號","TEL":" ","COUNTYNAME":"高雄市","TOWNNAME":"楠梓區","MARKTYPE":"995","Class":"5"},"geometry":{"x":120.31683776946649,"y":22.731731979629679}},{"attributes":{"OBJECTID":20711,"LANDMARKID":"6400000001210","LANDMARKCO":"511","LANDMARKNA":"後勁夜市","LANDMARKAD":"6400004","ADDRESS":"高雄市楠梓區","TEL":" ","COUNTYNAME":"高雄市","TOWNNAME":"楠梓區","MARKTYPE":"995","Class":"5"},"geometry":{"x":120.31152907288983,"y":22.72010233220287}},{"attributes":{"OBJECTID":20712,"LANDMARKID":"6400000001205","LANDMARKCO":"510","LANDMARKNA":"高雄煉油廠高爾夫球場","LANDMARKAD":"6400004","ADDRESS":"高雄市楠梓區左楠路2號","TEL":"07-5824141","COUNTYNAME":"高雄市","TOWNNAME":"楠梓區","MARKTYPE":"995","Class":"5"},"geometry":{"x":120.29861278909173,"y":22.702819196870831}},{"attributes":{"OBJECTID":20713,"LANDMARKID":"6400000001206","LANDMARKCO":"510","LANDMARKNA":"友蕙高爾夫練習場","LANDMARKAD":"6400004","ADDRESS":"高雄市楠梓區德明路71-29號","TEL":"07-3659315","COUNTYNAME":"高雄市","TOWNNAME":"楠梓區","MARKTYPE":"995","Class":"5"},"geometry":{"x":120.31576321840679,"y":22.730146129240698}},{"attributes":{"OBJECTID":20714,"LANDMARKID":"6400000001008","LANDMARKCO":"405","LANDMARKNA":"中油加油站-宏達站","LANDMARKAD":"6400003","ADDRESS":"高雄市左營區大中一路443號","TEL":"07-3414698","COUNTYNAME":"高雄市","TOWNNAME":"左營區","MARKTYPE":"994","Class":"4"},"geometry":{"x":120.31949854493296,"y":22.678275279723113}},{"attributes":{"OBJECTID":20715,"LANDMARKID":"6400000001009","LANDMARKCO":"405","LANDMARKNA":"中油加油站-松詠站","LANDMARKAD":"6400003","ADDRESS":"高雄市左營區左營大路920號","TEL":"07-5850266","COUNTYNAME":"高雄市","TOWNNAME":"左營區","MARKTYPE":"994","Class":"4"},"geometry":{"x":120.30171891495797,"y":22.69698159644684}},{"attributes":{"OBJECTID":20716,"LANDMARKID":"6400000001010","LANDMARKCO":"405","LANDMARKNA":"中油加油站-高楠站","LANDMARKAD":"6400003","ADDRESS":"高雄市左營區民族一路697號","TEL":"07-3416206","COUNTYNAME":"高雄市","TOWNNAME":"左營區","MARKTYPE":"994","Class":"4"},"geometry":{"x":120.31727974410857,"y":22.67099884700718}},{"attributes":{"OBJECTID":20717,"LANDMARKID":"6400000001011","LANDMARKCO":"405","LANDMARKNA":"中油加油站-左新站","LANDMARKAD":"6400003","ADDRESS":"高雄市左營區政德路171號","TEL":"07-3453500","COUNTYNAME":"高雄市","TOWNNAME":"左營區","MARKTYPE":"994","Class":"4"},"geometry":{"x":120.29936260716019,"y":22.676933863594002}},{"attributes":{"OBJECTID":20718,"LANDMARKID":"6400000001012","LANDMARKCO":"405","LANDMARKNA":"中油加油站-上豐站","LANDMARKAD":"6400003","ADDRESS":"高雄市左營區自由三路157號","TEL":"07-3452235","COUNTYNAME":"高雄市","TOWNNAME":"左營區","MARKTYPE":"994","Class":"4"},"geometry":{"x":120.31081005786332,"y":22.671634726114842}},{"attributes":{"OBJECTID":20719,"LANDMARKID":"6400000001013","LANDMARKCO":"405","LANDMARKNA":"中油加油站-大順站","LANDMARKAD":"6400003","ADDRESS":"高雄市左營區大順一路350號","TEL":"07-5570139","COUNTYNAME":"高雄市","TOWNNAME":"左營區","MARKTYPE":"994","Class":"4"},"geometry":{"x":120.30544080736259,"y":22.656877937079678}},{"attributes":{"OBJECTID":20720,"LANDMARKID":"6400000001014","LANDMARKCO":"405","LANDMARKNA":"統一速邁樂加油站-左營加油站(中油)","LANDMARKAD":"6400003","ADDRESS":"高雄市左營區民族一路936號","TEL":" ","COUNTYNAME":"高雄市","TOWNNAME":"左營區","MARKTYPE":"994","Class":"4"},"geometry":{"x":120.31840766053229,"y":22.674060870865226}},{"attributes":{"OBJECTID":20721,"LANDMARKID":"6400000001015","LANDMARKCO":"405","LANDMARKNA":"中油加油站-源豐站","LANDMARKAD":"6400003","ADDRESS":"高雄市左營區博愛二路616號","TEL":"07-5577111","COUNTYNAME":"高雄市","TOWNNAME":"左營區","MARKTYPE":"994","Class":"4"},"geometry":{"x":120.30360599550947,"y":22.668385356546498}},{"attributes":{"OBJECTID":20722,"LANDMARKID":"6400000001016","LANDMARKCO":"405","LANDMARKNA":"中油加油站-裕誠站","LANDMARKAD":"6400003","ADDRESS":"高雄市左營區博愛二路402號","TEL":"07-5563797","COUNTYNAME":"高雄市","TOWNNAME":"左營區","MARKTYPE":"994","Class":"4"},"geometry":{"x":120.3035500620193,"y":22.66559434967894}},{"attributes":{"OBJECTID":20723,"LANDMARKID":"6400000000779","LANDMARKCO":"402","LANDMARKNA":"My Phone台灣大哥大-高雄榮總直營服務中心","LANDMARKAD":"6400003","ADDRESS":"高雄市左營區榮總路1號","TEL":"0809-000-166","COUNTYNAME":"高雄市","TOWNNAME":"左營區","MARKTYPE":"994","Class":"4"},"geometry":{"x":120.32169106358452,"y":22.67788388389539}},{"attributes":{"OBJECTID":20724,"LANDMARKID":"6400000000780","LANDMARKCO":"402","LANDMARKNA":"My Phone台灣大哥大-高雄巨蛋直營服務中心","LANDMARKAD":"6400003","ADDRESS":"高雄市左營區新庄仔路179號","TEL":"0809-000-166","COUNTYNAME":"高雄市","TOWNNAME":"左營區","MARKTYPE":"994","Class":"4"},"geometry":{"x":120.30382841736994,"y":22.670388128109639}},{"attributes":{"OBJECTID":20725,"LANDMARKID":"6400000000781","LANDMARKCO":"402","LANDMARKNA":"亞太行動寬頻電信-高雄大順加盟服務中心","LANDMARKAD":"6400003","ADDRESS":"高雄市左營區大順一路200號","TEL":"07-5571233","COUNTYNAME":"高雄市","TOWNNAME":"左營區","MARKTYPE":"994","Class":"4"},"geometry":{"x":120.30865248529953,"y":22.656895981923832}},{"attributes":{"OBJECTID":20726,"LANDMARKID":"6400000000782","LANDMARKCO":"402","LANDMARKNA":"亞太行動寬頻電信-高雄自由加盟服務中心","LANDMARKAD":"6400003","ADDRESS":"高雄市左營區自由二路358號","TEL":"07-5507575","COUNTYNAME":"高雄市","TOWNNAME":"左營區","MARKTYPE":"994","Class":"4"},"geometry":{"x":120.30899107633611,"y":22.66626987189089}},{"attributes":{"OBJECTID":20727,"LANDMARKID":"6400000000783","LANDMARKCO":"402","LANDMARKNA":"亞太行動寬頻電信-高雄華夏加盟服務中心","LANDMARKAD":"6400003","ADDRESS":"高雄市左營區華夏路981號","TEL":"07-3431335","COUNTYNAME":"高雄市","TOWNNAME":"左營區","MARKTYPE":"994","Class":"4"},"geometry":{"x":120.30520338990388,"y":22.681453568513863}},{"attributes":{"OBJECTID":20728,"LANDMARKID":"6400000000784","LANDMARKCO":"402","LANDMARKNA":"亞太行動寬頻電信-左營大路加盟服務中心","LANDMARKAD":"6400003","ADDRESS":"高雄市左營區左營大路419號","TEL":"07-5810189","COUNTYNAME":"高雄市","TOWNNAME":"左營區","MARKTYPE":"994","Class":"4"},"geometry":{"x":120.29397809045312,"y":22.688475131922569}},{"attributes":{"OBJECTID":20729,"LANDMARKID":"6400000000785","LANDMARKCO":"402","LANDMARKNA":"亞太行動寬頻電信-自由市場加盟服務中心","LANDMARKAD":"6400003","ADDRESS":"高雄市左營區自由三路276號","TEL":"07-3430567","COUNTYNAME":"高雄市","TOWNNAME":"左營區","MARKTYPE":"994","Class":"4"},"geometry":{"x":120.31198589548451,"y":22.673438808186265}},{"attributes":{"OBJECTID":20730,"LANDMARKID":"6400000000758","LANDMARKCO":"401","LANDMARKNA":"柏仁醫院","LANDMARKAD":"6400003","ADDRESS":"高雄市左營區博愛二路350號地下1樓至地上1-5樓","TEL":"07-5508888","COUNTYNAME":"高雄市","TOWNNAME":"左營區","MARKTYPE":"994","Class":"4"},"geometry":{"x":120.30363747221105,"y":22.664353961562718}},{"attributes":{"OBJECTID":20731,"LANDMARKID":"6400000000759","LANDMARKCO":"401","LANDMARKNA":"榮生醫院","LANDMARKAD":"6400003","ADDRESS":"高雄市左營區實踐路51號","TEL":"07-5828181","COUNTYNAME":"高雄市","TOWNNAME":"左營區","MARKTYPE":"994","Class":"4"},"geometry":{"x":120.29302195289056,"y":22.690092175182478}},{"attributes":{"OBJECTID":20732,"LANDMARKID":"6400000000760","LANDMARKCO":"401","LANDMARKNA":"陽明醫院","LANDMARKAD":"6400003","ADDRESS":"高雄市左營區左營大路12之2號","TEL":"07-5816325","COUNTYNAME":"高雄市","TOWNNAME":"左營區","MARKTYPE":"994","Class":"4"},"geometry":{"x":120.28766838671824,"y":22.679900948576208}},{"attributes":{"OBJECTID":20733,"LANDMARKID":"6400000000761","LANDMARKCO":"401","LANDMARKNA":"馨蕙馨醫院","LANDMARKAD":"6400003","ADDRESS":"高雄市左營區明誠二路541號","TEL":"07-5586080","COUNTYNAME":"高雄市","TOWNNAME":"左營區","MARKTYPE":"994","Class":"4"},"geometry":{"x":120.30382112304127,"y":22.660734337077947}},{"attributes":{"OBJECTID":20734,"LANDMARKID":"6400000000762","LANDMARKCO":"401","LANDMARKNA":"博正醫院","LANDMARKAD":"6400003","ADDRESS":"高雄市左營區博愛二路100號","TEL":"07-5562212","COUNTYNAME":"高雄市","TOWNNAME":"左營區","MARKTYPE":"994","Class":"4"},"geometry":{"x":120.3032979461081,"y":22.658156058381646}},{"attributes":{"OBJECTID":20735,"LANDMARKID":"6400000000763","LANDMARKCO":"401","LANDMARKNA":"高雄榮民總醫院","LANDMARKAD":"6400003","ADDRESS":"高雄市左營區大中一路386號","TEL":"07-3422121","COUNTYNAME":"高雄市","TOWNNAME":"左營區","MARKTYPE":"994","Class":"4"},"geometry":{"x":120.32161239301782,"y":22.6775671959794}},{"attributes":{"OBJECTID":20736,"LANDMARKID":"6400000000764","LANDMARKCO":"401","LANDMARKNA":"國軍左營醫院","LANDMARKAD":"6400003","ADDRESS":"高雄市左營區軍校路553號","TEL":"07-5811648","COUNTYNAME":"高雄市","TOWNNAME":"左營區","MARKTYPE":"994","Class":"4"},"geometry":{"x":120.29223383778431,"y":22.700362008495727}},{"attributes":{"OBJECTID":20737,"LANDMARKID":"6400000001202","LANDMARKCO":"507","LANDMARKNA":"鳳山舊城孔子廟崇聖祠","LANDMARKAD":"6400003","ADDRESS":"高雄市左營區蓮潭路47號","TEL":" ","COUNTYNAME":"高雄市","TOWNNAME":"左營區","MARKTYPE":"995","Class":"5"},"geometry":{"x":120.2926192240819,"y":22.684341792031745}},{"attributes":{"OBJECTID":20738,"LANDMARKID":"6400000001219","LANDMARKCO":"512","LANDMARKNA":"高雄市觀光協會","LANDMARKAD":"6400003","ADDRESS":"高雄市左營區翠華路1435號3樓","TEL":"07-5816316","COUNTYNAME":"高雄市","TOWNNAME":"左營區","MARKTYPE":"995","Class":"5"},"geometry":{"x":120.29834902614628,"y":22.680053849459419}},{"attributes":{"OBJECTID":20739,"LANDMARKID":"6400000001220","LANDMARKCO":"512","LANDMARKNA":"高雄市風景區管理所","LANDMARKAD":"6400003","ADDRESS":"高雄市左營區翠華路1435號","TEL":"07-5883242","COUNTYNAME":"高雄市","TOWNNAME":"左營區","MARKTYPE":"995","Class":"5"},"geometry":{"x":120.2983473452942,"y":22.680042988191165}},{"attributes":{"OBJECTID":20740,"LANDMARKID":"6400000001106","LANDMARKCO":"408","LANDMARKNA":"郵局-左營郵局","LANDMARKAD":"6400003","ADDRESS":"高雄市左營區實踐路43號","TEL":"(07)5830-331","COUNTYNAME":"高雄市","TOWNNAME":"左營區","MARKTYPE":"994","Class":"4"},"geometry":{"x":120.29352791104671,"y":22.690105705479329}},{"attributes":{"OBJECTID":20741,"LANDMARKID":"6400000001107","LANDMARKCO":"408","LANDMARKNA":"郵局-左營果貿郵局","LANDMARKAD":"6400003","ADDRESS":"高雄市左營區翠峰路2號","TEL":"(07)5820-716","COUNTYNAME":"高雄市","TOWNNAME":"左營區","MARKTYPE":"994","Class":"4"},"geometry":{"x":120.29028897905037,"y":22.671685004138638}},{"attributes":{"OBJECTID":20742,"LANDMARKID":"6400000001108","LANDMARKCO":"408","LANDMARKNA":"郵局-左營新莊仔郵局","LANDMARKAD":"6400003","ADDRESS":"高雄市左營區富民路356號","TEL":"(07)5561-083","COUNTYNAME":"高雄市","TOWNNAME":"左營區","MARKTYPE":"994","Class":"4"},"geometry":{"x":120.30528592151545,"y":22.664928246513309}},{"attributes":{"OBJECTID":20743,"LANDMARKID":"6400000001109","LANDMARKCO":"408","LANDMARKNA":"郵局-左營榮總郵局","LANDMARKAD":"6400003","ADDRESS":"高雄市左營區大中一路386號(榮總高雄分院內)","TEL":"(07)3455-239","COUNTYNAME":"高雄市","TOWNNAME":"左營區","MARKTYPE":"994","Class":"4"},"geometry":{"x":120.32161239286232,"y":22.677567227586032}},{"attributes":{"OBJECTID":20744,"LANDMARKID":"6400000001110","LANDMARKCO":"408","LANDMARKNA":"郵局-左營菜公郵局","LANDMARKAD":"6400003","ADDRESS":"高雄市左營區博愛三路520號","TEL":"(07)3455-598","COUNTYNAME":"高雄市","TOWNNAME":"左營區","MARKTYPE":"994","Class":"4"},"geometry":{"x":120.30877265182819,"y":22.679320155200891}},{"attributes":{"OBJECTID":20745,"LANDMARKID":"6400000001111","LANDMARKCO":"408","LANDMARKNA":"郵局-左營福山郵局","LANDMARKAD":"6400003","ADDRESS":"高雄市左營區華夏路1708號","TEL":"(07)3598-435","COUNTYNAME":"高雄市","TOWNNAME":"左營區","MARKTYPE":"994","Class":"4"},"geometry":{"x":120.31952860719029,"y":22.688169574045752}},{"attributes":{"OBJECTID":20746,"LANDMARKID":"6400000001112","LANDMARKCO":"408","LANDMARKNA":"郵局-高雄郵件中心郵局","LANDMARKAD":"6400003","ADDRESS":"高雄市左營區民族一路853號","TEL":"(07)3109-655","COUNTYNAME":"高雄市","TOWNNAME":"左營區","MARKTYPE":"994","Class":"4"},"geometry":{"x":120.31767304758768,"y":22.677364965966561}},{"attributes":{"OBJECTID":20747,"LANDMARKID":"6400000001113","LANDMARKCO":"408","LANDMARKNA":"郵局-左營南站郵局","LANDMARKAD":"6400003","ADDRESS":"高雄市左營區左營大路75號","TEL":"(07)5827-641","COUNTYNAME":"高雄市","TOWNNAME":"左營區","MARKTYPE":"994","Class":"4"},"geometry":{"x":120.28819998183828,"y":22.682302365146352}},{"attributes":{"OBJECTID":20748,"LANDMARKID":"6400000001114","LANDMARKCO":"408","LANDMARKNA":"郵局-左營軍港郵局","LANDMARKAD":"6400003","ADDRESS":"高雄市左營區艦隊休服中心四海樓","TEL":"(07)5820-718","COUNTYNAME":"高雄市","TOWNNAME":"左營區","MARKTYPE":"994","Class":"4"},"geometry":{"x":120.2847791791643,"y":22.693751533258666}},{"attributes":{"OBJECTID":20749,"LANDMARKID":"6400000001115","LANDMARKCO":"408","LANDMARKNA":"郵局-左營新訓中心郵局","LANDMARKAD":"6400003","ADDRESS":"高雄市左營區左營海軍新兵訓練中心","TEL":"(07)5811-814","COUNTYNAME":"高雄市","TOWNNAME":"左營區","MARKTYPE":"994","Class":"4"},"geometry":{"x":120.28620555659252,"y":22.701050486459213}},{"attributes":{"OBJECTID":20750,"LANDMARKID":"6400000001075","LANDMARKCO":"407","LANDMARKNA":"小北百貨","LANDMARKAD":"6400003","ADDRESS":"高雄市左營區崇德路355號","TEL":"07-3432511","COUNTYNAME":"高雄市","TOWNNAME":"左營區","MARKTYPE":"994","Class":"4"},"geometry":{"x":120.30316062867105,"y":22.676012532397859}},{"attributes":{"OBJECTID":20751,"LANDMARKID":"6400000001076","LANDMARKCO":"407","LANDMARKNA":"三商百貨","LANDMARKAD":"6400003","ADDRESS":"高雄市左營區左營大路270號","TEL":"07-5828333","COUNTYNAME":"高雄市","TOWNNAME":"左營區","MARKTYPE":"994","Class":"4"},"geometry":{"x":120.29064453668281,"y":22.685879771557254}},{"attributes":{"OBJECTID":20752,"LANDMARKID":"6400000001077","LANDMARKCO":"407","LANDMARKNA":"小北百貨","LANDMARKAD":"6400003","ADDRESS":"高雄市左營區裕誠路453號","TEL":"07-5586373","COUNTYNAME":"高雄市","TOWNNAME":"左營區","MARKTYPE":"994","Class":"4"},"geometry":{"x":120.30531120889339,"y":22.66554256293788}},{"attributes":{"OBJECTID":20753,"LANDMARKID":"6400000001017","LANDMARKCO":"405","LANDMARKNA":"台塑加油站-桂華站(台塑)","LANDMARKAD":"6400003","ADDRESS":"高雄市左營區博愛四路19號","TEL":"07-3416037","COUNTYNAME":"高雄市","TOWNNAME":"左營區","MARKTYPE":"994","Class":"4"},"geometry":{"x":120.3105767307095,"y":22.681832306249678}},{"attributes":{"OBJECTID":20754,"LANDMARKID":"6400000001018","LANDMARKCO":"405","LANDMARKNA":"西歐加油站-華夏站(台塑)","LANDMARKAD":"6400003","ADDRESS":"高雄市左營區華夏路1162號","TEL":"07-3502692","COUNTYNAME":"高雄市","TOWNNAME":"左營區","MARKTYPE":"994","Class":"4"},"geometry":{"x":120.30907866553159,"y":22.683835833502449}},{"attributes":{"OBJECTID":20755,"LANDMARKID":"6400000001074","LANDMARKCO":"407","LANDMARKNA":"漢神巨蛋購物廣場","LANDMARKAD":"6400003","ADDRESS":"高雄市左營區博愛二路777號","TEL":"(07)555-9688","COUNTYNAME":"高雄市","TOWNNAME":"左營區","MARKTYPE":"994","Class":"4"},"geometry":{"x":120.30305505113998,"y":22.669502074245738}},{"attributes":{"OBJECTID":20756,"LANDMARKID":"6400000000085","LANDMARKCO":"103","LANDMARKNA":"高雄市政府勞工局楠梓加工區就","LANDMARKAD":"6400003","ADDRESS":"高雄市楠梓區德惠路55號4樓","TEL":"07-3609521","COUNTYNAME":"高雄市","TOWNNAME":"左營區","MARKTYPE":"991","Class":"1"},"geometry":{"x":120.29520460704481,"y":22.689837295124896}},{"attributes":{"OBJECTID":20757,"LANDMARKID":"6400000000208","LANDMARKCO":"107","LANDMARKNA":"高雄市消防局北區第三中隊","LANDMARKAD":"6400003","ADDRESS":"高雄市鼓山區中華一路2320號","TEL":"07-5555170","COUNTYNAME":"高雄市","TOWNNAME":"左營區","MARKTYPE":"991","Class":"1"},"geometry":{"x":120.28625000695422,"y":22.671733712104537}},{"attributes":{"OBJECTID":20758,"LANDMARKID":"6400000000086","LANDMARKCO":"103","LANDMARKNA":"高雄市政府公教人力資源發展局","LANDMARKAD":"6400003","ADDRESS":"高雄市左營區崇德路801號","TEL":"07-3422101","COUNTYNAME":"高雄市","TOWNNAME":"左營區","MARKTYPE":"991","Class":"1"},"geometry":{"x":120.30190406184805,"y":22.676777233324881}},{"attributes":{"OBJECTID":20759,"LANDMARKID":"6400000000219","LANDMARKCO":"108","LANDMARKNA":"高雄市左營區公所","LANDMARKAD":"6400003","ADDRESS":"高雄市左營區左營大路479號4樓、5樓","TEL":"07-5831111","COUNTYNAME":"高雄市","TOWNNAME":"左營區","MARKTYPE":"991","Class":"1"},"geometry":{"x":120.29528095950448,"y":22.689806360115572}},{"attributes":{"OBJECTID":20760,"LANDMARKID":"6400000000210","LANDMARKCO":"107","LANDMARKNA":"高雄市政府警察局左營分局","LANDMARKAD":"6400003","ADDRESS":"高雄市左營區進學里進學路1號","TEL":"07-5820032","COUNTYNAME":"高雄市","TOWNNAME":"左營區","MARKTYPE":"991","Class":"1"},"geometry":{"x":120.29550730905197,"y":22.690603063894244}},{"attributes":{"OBJECTID":20761,"LANDMARKID":"6400000000211","LANDMARKCO":"107","LANDMARKNA":"高雄市政府警察局博愛四路派出","LANDMARKAD":"6400003","ADDRESS":"高雄市左營區福山里博愛四路437號","TEL":"07-3487976","COUNTYNAME":"高雄市","TOWNNAME":"左營區","MARKTYPE":"991","Class":"1"},"geometry":{"x":120.31690891900031,"y":22.687802374687124}},{"attributes":{"OBJECTID":20762,"LANDMARKID":"6400000000212","LANDMARKCO":"107","LANDMARKNA":"高雄市政府警察局新莊派出所","LANDMARKAD":"6400003","ADDRESS":"高雄市左營區富民路435號","TEL":"07-5562630","COUNTYNAME":"高雄市","TOWNNAME":"左營區","MARKTYPE":"991","Class":"1"},"geometry":{"x":120.30570054119106,"y":22.66804890289189}},{"attributes":{"OBJECTID":20763,"LANDMARKID":"6400000000213","LANDMARKCO":"107","LANDMARKNA":"高雄市政府警察局啟文派出所","LANDMARKAD":"6400003","ADDRESS":"高雄市左營區自助里中華一路2號","TEL":"07-5831597","COUNTYNAME":"高雄市","TOWNNAME":"左營區","MARKTYPE":"991","Class":"1"},"geometry":{"x":120.28621571567609,"y":22.671638582525446}},{"attributes":{"OBJECTID":20764,"LANDMARKID":"6400000000214","LANDMARKCO":"107","LANDMARKNA":"高雄市政府警察局舊城派出所","LANDMARKAD":"6400003","ADDRESS":"高雄市左營區路東里左營大路101號","TEL":"07-5853036","COUNTYNAME":"高雄市","TOWNNAME":"左營區","MARKTYPE":"991","Class":"1"},"geometry":{"x":120.28843815670369,"y":22.682892446783988}},{"attributes":{"OBJECTID":20765,"LANDMARKID":"6400000000215","LANDMARKCO":"107","LANDMARKNA":"高雄市政府警察局左營派出所","LANDMARKAD":"6400003","ADDRESS":"高雄市左營區進學里進學路1號","TEL":"07-5813019","COUNTYNAME":"高雄市","TOWNNAME":"左營區","MARKTYPE":"991","Class":"1"},"geometry":{"x":120.29550730905197,"y":22.690603063894244}},{"attributes":{"OBJECTID":20766,"LANDMARKID":"6400000000216","LANDMARKCO":"107","LANDMARKNA":"高雄市消防局新莊消防分隊","LANDMARKAD":"6400003","ADDRESS":"高雄市左營區民族一路749號","TEL":"07-3455506","COUNTYNAME":"高雄市","TOWNNAME":"左營區","MARKTYPE":"991","Class":"1"},"geometry":{"x":120.31812857693095,"y":22.675431730764746}},{"attributes":{"OBJECTID":20767,"LANDMARKID":"6400000000217","LANDMARKCO":"107","LANDMARKNA":"高雄市消防局左營消防分隊","LANDMARKAD":"6400003","ADDRESS":"高雄市左營區鼓山三路450號","TEL":"07-5818550","COUNTYNAME":"高雄市","TOWNNAME":"左營區","MARKTYPE":"991","Class":"1"},"geometry":{"x":120.28592578376482,"y":22.67256045263861}},{"attributes":{"OBJECTID":20768,"LANDMARKID":"6400000000218","LANDMARKCO":"107","LANDMARKNA":"高雄市消防局左營消防小隊","LANDMARKAD":"6400003","ADDRESS":"高雄市左營區進學路1之1號","TEL":"07-5838920","COUNTYNAME":"高雄市","TOWNNAME":"左營區","MARKTYPE":"991","Class":"1"},"geometry":{"x":120.2953437518739,"y":22.690610654804104}},{"attributes":{"OBJECTID":20769,"LANDMARKID":"6400000000115","LANDMARKCO":"106","LANDMARKNA":"高雄市左營區戶政事務所","LANDMARKAD":"6400003","ADDRESS":"高雄市左營區左營大路479號3樓","TEL":"07-5829803","COUNTYNAME":"高雄市","TOWNNAME":"左營區","MARKTYPE":"991","Class":"1"},"geometry":{"x":120.29528095950448,"y":22.689806360115572}},{"attributes":{"OBJECTID":20770,"LANDMARKID":"6400000000092","LANDMARKCO":"104","LANDMARKNA":"高雄市國稅局左營稽徵所","LANDMARKAD":"6400003","ADDRESS":"高雄市左營區左營大路479號7樓","TEL":"07-5874709","COUNTYNAME":"高雄市","TOWNNAME":"左營區","MARKTYPE":"991","Class":"1"},"geometry":{"x":120.29528095950448,"y":22.689806360115572}},{"attributes":{"OBJECTID":20771,"LANDMARKID":"6400000000006","LANDMARKCO":"101","LANDMARKNA":"衛生署藥物食品檢驗局南部檢驗站","LANDMARKAD":"6400003","ADDRESS":"高雄市左營區自由二路180號3樓","TEL":"07-5581884","COUNTYNAME":"高雄市","TOWNNAME":"左營區","MARKTYPE":"991","Class":"1"},"geometry":{"x":120.30857107078522,"y":22.663049717005393}},{"attributes":{"OBJECTID":20772,"LANDMARKID":"6400000000084","LANDMARKCO":"103","LANDMARKNA":"高雄市政府勞工局左營就業服務","LANDMARKAD":"6400003","ADDRESS":"高雄市左營區左營大路479號1樓","TEL":"07-5855902","COUNTYNAME":"高雄市","TOWNNAME":"左營區","MARKTYPE":"991","Class":"1"},"geometry":{"x":120.29528095950448,"y":22.689806360115572}},{"attributes":{"OBJECTID":20773,"LANDMARKID":"6400000000209","LANDMARKCO":"107","LANDMARKNA":"高雄市政府警察局四海派出所","LANDMARKAD":"6400003","ADDRESS":"高雄市左營區明德新村35號","TEL":"07-5811544","COUNTYNAME":"高雄市","TOWNNAME":"左營區","MARKTYPE":"991","Class":"1"},"geometry":{"x":120.28888058123972,"y":22.697584603287673}},{"attributes":{"OBJECTID":20774,"LANDMARKID":"6400000000406","LANDMARKCO":"204","LANDMARKNA":"高雄市立圖書館左營分館","LANDMARKAD":"6400003","ADDRESS":"高雄市左營區自助新村333號","TEL":" ","COUNTYNAME":"高雄市","TOWNNAME":"左營區","MARKTYPE":"992","Class":"2"},"geometry":{"x":120.28534434269831,"y":22.673286988939292}},{"attributes":{"OBJECTID":20775,"LANDMARKID":"6400000000253","LANDMARKCO":"202","LANDMARKNA":"市立三民家商","LANDMARKAD":"6400003","ADDRESS":"高雄市左營區裕誠路1102號","TEL":"07-5525887","COUNTYNAME":"高雄市","TOWNNAME":"左營區","MARKTYPE":"992","Class":"2"},"geometry":{"x":120.30120738034252,"y":22.666024707862878}},{"attributes":{"OBJECTID":20776,"LANDMARKID":"6400000000372","LANDMARKCO":"203","LANDMARKNA":"市立大義國中","LANDMARKAD":"6400003","ADDRESS":"高雄市左營區翠華路687號","TEL":"07-5820191","COUNTYNAME":"高雄市","TOWNNAME":"左營區","MARKTYPE":"992","Class":"2"},"geometry":{"x":120.29280654945487,"y":22.674295782853953}},{"attributes":{"OBJECTID":20777,"LANDMARKID":"6400000000373","LANDMARKCO":"203","LANDMARKNA":"市立左營國中新校區","LANDMARKAD":"6400003","ADDRESS":"高雄市左營區曾子路281號","TEL":"07-3433080","COUNTYNAME":"高雄市","TOWNNAME":"左營區","MARKTYPE":"992","Class":"2"},"geometry":{"x":120.30676270974472,"y":22.678872288348707}},{"attributes":{"OBJECTID":20778,"LANDMARKID":"6400000000374","LANDMARKCO":"203","LANDMARKNA":"市立新上國小","LANDMARKAD":"6400003","ADDRESS":"高雄市左營區大順一路100號","TEL":"07-5565940","COUNTYNAME":"高雄市","TOWNNAME":"左營區","MARKTYPE":"992","Class":"2"},"geometry":{"x":120.31095188703476,"y":22.65659070995558}},{"attributes":{"OBJECTID":20779,"LANDMARKID":"6400000000375","LANDMARKCO":"203","LANDMARKNA":"市立新莊國小","LANDMARKAD":"6400003","ADDRESS":"高雄市左營區新中里自由三路1號","TEL":"07-3411373","COUNTYNAME":"高雄市","TOWNNAME":"左營區","MARKTYPE":"992","Class":"2"},"geometry":{"x":120.30992626777788,"y":22.669766627802726}},{"attributes":{"OBJECTID":20780,"LANDMARKID":"6400000000376","LANDMARKCO":"203","LANDMARKNA":"市立舊城國小","LANDMARKAD":"6400003","ADDRESS":"高雄市左營區蓮潭路47號","TEL":"07-5810017","COUNTYNAME":"高雄市","TOWNNAME":"左營區","MARKTYPE":"992","Class":"2"},"geometry":{"x":120.2929239420004,"y":22.683146834392467}},{"attributes":{"OBJECTID":20781,"LANDMARKID":"6400000000377","LANDMARKCO":"203","LANDMARKNA":"市立福山國小","LANDMARKAD":"6400003","ADDRESS":"高雄市左營區重愛路99號","TEL":"07-3487633","COUNTYNAME":"高雄市","TOWNNAME":"左營區","MARKTYPE":"992","Class":"2"},"geometry":{"x":120.31733040636118,"y":22.683701517878582}},{"attributes":{"OBJECTID":20782,"LANDMARKID":"6400000000250","LANDMARKCO":"202","LANDMARKNA":"市立新莊高中","LANDMARKAD":"6400003","ADDRESS":"高雄市左營區文慈路99號","TEL":"07-3420103","COUNTYNAME":"高雄市","TOWNNAME":"左營區","MARKTYPE":"992","Class":"2"},"geometry":{"x":120.31758971304914,"y":22.681233853971595}},{"attributes":{"OBJECTID":20783,"LANDMARKID":"6400000000251","LANDMARKCO":"202","LANDMARKNA":"市立左營高中","LANDMARKAD":"6400003","ADDRESS":"高雄市左營區海功路55號","TEL":"07-5822010","COUNTYNAME":"高雄市","TOWNNAME":"左營區","MARKTYPE":"992","Class":"2"},"geometry":{"x":120.29644110452742,"y":22.692715394753836}},{"attributes":{"OBJECTID":20784,"LANDMARKID":"6400000000252","LANDMARKCO":"202","LANDMARKNA":"市立海青工商","LANDMARKAD":"6400003","ADDRESS":"高雄市左營區左營大路1號","TEL":"07-5819155","COUNTYNAME":"高雄市","TOWNNAME":"左營區","MARKTYPE":"992","Class":"2"},"geometry":{"x":120.28563760939376,"y":22.675185788157744}},{"attributes":{"OBJECTID":20785,"LANDMARKID":"6400000000378","LANDMARKCO":"203","LANDMARKNA":"市立龍華國中","LANDMARKAD":"6400003","ADDRESS":"高雄市左營區自由二路2號","TEL":"07-5570720","COUNTYNAME":"高雄市","TOWNNAME":"左營區","MARKTYPE":"992","Class":"2"},"geometry":{"x":120.30903210830937,"y":22.658574452010491}},{"attributes":{"OBJECTID":20786,"LANDMARKID":"6400000000379","LANDMARKCO":"203","LANDMARKNA":"市立立德國中","LANDMARKAD":"6400003","ADDRESS":"高雄市左營區海平路101號","TEL":"07-5811985","COUNTYNAME":"高雄市","TOWNNAME":"左營區","MARKTYPE":"992","Class":"2"},"geometry":{"x":120.28797142449208,"y":22.689182579279787}},{"attributes":{"OBJECTID":20787,"LANDMARKID":"6400000000380","LANDMARKCO":"203","LANDMARKNA":"市立左營國中","LANDMARKAD":"6400003","ADDRESS":"高雄市左營區新庄仔路30號","TEL":"07-5814097","COUNTYNAME":"高雄市","TOWNNAME":"左營區","MARKTYPE":"992","Class":"2"},"geometry":{"x":120.2934712956388,"y":22.678487311534244}},{"attributes":{"OBJECTID":20788,"LANDMARKID":"6400000000381","LANDMARKCO":"203","LANDMARKNA":"市立福山國中","LANDMARKAD":"6400003","ADDRESS":"高雄市左營區重信路215號","TEL":"07-3501581","COUNTYNAME":"高雄市","TOWNNAME":"左營區","MARKTYPE":"992","Class":"2"},"geometry":{"x":120.31478272388478,"y":22.681047913246253}},{"attributes":{"OBJECTID":20789,"LANDMARKID":"6400000000382","LANDMARKCO":"203","LANDMARKNA":"市立永清國小","LANDMARKAD":"6400003","ADDRESS":"高雄市左營區左營大路2之2號","TEL":"07-5822830","COUNTYNAME":"高雄市","TOWNNAME":"左營區","MARKTYPE":"992","Class":"2"},"geometry":{"x":120.2873878901031,"y":22.678394852884651}},{"attributes":{"OBJECTID":20790,"LANDMARKID":"6400000000383","LANDMARKCO":"203","LANDMARKNA":"市立屏山國小","LANDMARKAD":"6400003","ADDRESS":"高雄市左營區海功東路2號","TEL":"07-5873410","COUNTYNAME":"高雄市","TOWNNAME":"左營區","MARKTYPE":"992","Class":"2"},"geometry":{"x":120.30031895602264,"y":22.694847178303114}},{"attributes":{"OBJECTID":20791,"LANDMARKID":"6400000000384","LANDMARKCO":"203","LANDMARKNA":"市立新民國小","LANDMARKAD":"6400003","ADDRESS":"高雄市左營區自由三路478號","TEL":"07-3411888","COUNTYNAME":"高雄市","TOWNNAME":"左營區","MARKTYPE":"992","Class":"2"},"geometry":{"x":120.31315383347858,"y":22.676704424450868}},{"attributes":{"OBJECTID":20792,"LANDMARKID":"6400000000385","LANDMARKCO":"203","LANDMARKNA":"市立勝利國小","LANDMARKAD":"6400003","ADDRESS":"高雄市左營區南屏路1號","TEL":"07-5522541","COUNTYNAME":"高雄市","TOWNNAME":"左營區","MARKTYPE":"992","Class":"2"},"geometry":{"x":120.29510742018289,"y":22.672463776740173}},{"attributes":{"OBJECTID":20793,"LANDMARKID":"6400000000386","LANDMARKCO":"203","LANDMARKNA":"市立左營國小","LANDMARKAD":"6400003","ADDRESS":"高雄市左營區實踐路42號","TEL":"07-5820042","COUNTYNAME":"高雄市","TOWNNAME":"左營區","MARKTYPE":"992","Class":"2"},"geometry":{"x":120.29332339861656,"y":22.691363697480444}},{"attributes":{"OBJECTID":20794,"LANDMARKID":"6400000000387","LANDMARKCO":"203","LANDMARKNA":"市立文府國小","LANDMARKAD":"6400003","ADDRESS":"高雄市左營區文府路399號","TEL":"07-3482070","COUNTYNAME":"高雄市","TOWNNAME":"左營區","MARKTYPE":"992","Class":"2"},"geometry":{"x":120.31508062797658,"y":22.691896252175486}},{"attributes":{"OBJECTID":20795,"LANDMARKID":"6400000000388","LANDMARKCO":"203","LANDMARKNA":"市立明德國小","LANDMARKAD":"6400003","ADDRESS":"高雄市左營區自立新村362號","TEL":"07-5811853","COUNTYNAME":"高雄市","TOWNNAME":"左營區","MARKTYPE":"992","Class":"2"},"geometry":{"x":120.28932016857954,"y":22.688094054629744}},{"attributes":{"OBJECTID":20796,"LANDMARKID":"6400000000709","LANDMARKCO":"308","LANDMARKNA":"國10-左營端-南下","LANDMARKAD":"6400003","ADDRESS":"高雄市三民區","TEL":" ","COUNTYNAME":"高雄市","TOWNNAME":"左營區","MARKTYPE":"993","Class":"308"},"geometry":{"x":120.31379006604085,"y":22.679199260173309}},{"attributes":{"OBJECTID":20797,"LANDMARKID":"6400000000673","LANDMARKCO":"306","LANDMARKNA":"凹子底捷運站-出口2","LANDMARKAD":"6400003","ADDRESS":" ","TEL":" ","COUNTYNAME":"高雄市","TOWNNAME":"左營區","MARKTYPE":"993","Class":"306"},"geometry":{"x":120.30348784026063,"y":22.657058500998652}},{"attributes":{"OBJECTID":20798,"LANDMARKID":"6400000000674","LANDMARKCO":"306","LANDMARKNA":"凹子底捷運站-出口3","LANDMARKAD":"6400003","ADDRESS":" ","TEL":" ","COUNTYNAME":"高雄市","TOWNNAME":"左營區","MARKTYPE":"993","Class":"306"},"geometry":{"x":120.30314458982686,"y":22.658064965825542}},{"attributes":{"OBJECTID":20799,"LANDMARKID":"6400000000675","LANDMARKCO":"306","LANDMARKNA":"巨蛋捷運站-出口1","LANDMARKAD":"6400003","ADDRESS":" ","TEL":" ","COUNTYNAME":"高雄市","TOWNNAME":"左營區","MARKTYPE":"993","Class":"306"},"geometry":{"x":120.30274978233997,"y":22.665909765846894}},{"attributes":{"OBJECTID":20800,"LANDMARKID":"6400000000676","LANDMARKCO":"306","LANDMARKNA":"巨蛋捷運站-出口4","LANDMARKAD":"6400003","ADDRESS":" ","TEL":" ","COUNTYNAME":"高雄市","TOWNNAME":"左營區","MARKTYPE":"993","Class":"306"},"geometry":{"x":120.30341331249149,"y":22.666771493620242}}]}