{"displayFieldName":"COUNTYNAME","fieldAliases":{"OBJECTID":"OBJECTID","LANDMARKID":"LANDMARKID","LANDMARKCO":"LANDMARKCO","LANDMARKNA":"LANDMARKNA","LANDMARKAD":"LANDMARKAD","ADDRESS":"ADDRESS","TEL":"TEL","COUNTYNAME":"COUNTYNAME","TOWNNAME":"TOWNNAME","MARKTYPE":"MARKTYPE","Class":"Class"},"geometryType":"esriGeometryPoint","spatialReference":{"wkid":102443},"fields":[{"name":"OBJECTID","type":"esriFieldTypeOID","alias":"OBJECTID"},{"name":"LANDMARKID","type":"esriFieldTypeString","alias":"LANDMARKID","length":15},{"name":"LANDMARKCO","type":"esriFieldTypeString","alias":"LANDMARKCO","length":15},{"name":"LANDMARKNA","type":"esriFieldTypeString","alias":"LANDMARKNA","length":50},{"name":"LANDMARKAD","type":"esriFieldTypeString","alias":"LANDMARKAD","length":15},{"name":"ADDRESS","type":"esriFieldTypeString","alias":"ADDRESS","length":56},{"name":"TEL","type":"esriFieldTypeString","alias":"TEL","length":36},{"name":"COUNTYNAME","type":"esriFieldTypeString","alias":"COUNTYNAME","length":15},{"name":"TOWNNAME","type":"esriFieldTypeString","alias":"TOWNNAME","length":13},{"name":"MARKTYPE","type":"esriFieldTypeString","alias":"MARKTYPE","length":12},{"name":"Class","type":"esriFieldTypeString","alias":"Class","length":5}],"features":[{"attributes":{"OBJECTID":801,"LANDMARKID":"1000900000938","LANDMARKCO":"604","LANDMARKNA":"大自然民宿","LANDMARKAD":"1000907","ADDRESS":"雲林縣古坑鄉華山村華山56號","TEL":"05-5900200","COUNTYNAME":"雲林縣","TOWNNAME":"古坑鄉","MARKTYPE":"996","Class":"6"},"geometry":{"x":208403.37760000024,"y":2610388.2280000001}},{"attributes":{"OBJECTID":802,"LANDMARKID":"1000900000939","LANDMARKCO":"604","LANDMARKNA":"愛玉伯ㄟ厝民宿","LANDMARKAD":"1000907","ADDRESS":"雲林縣古坑鄉華山村華山81-4號","TEL":"05-5900339","COUNTYNAME":"雲林縣","TOWNNAME":"古坑鄉","MARKTYPE":"996","Class":"6"},"geometry":{"x":207962.96920000017,"y":2610489.5932999998}},{"attributes":{"OBJECTID":803,"LANDMARKID":"1000900000940","LANDMARKCO":"604","LANDMARKNA":"茗鎮民宿","LANDMARKAD":"1000907","ADDRESS":"雲林縣古坑鄉華山村華山1-7號","TEL":"05-5901808","COUNTYNAME":"雲林縣","TOWNNAME":"古坑鄉","MARKTYPE":"996","Class":"6"},"geometry":{"x":210379.17250000034,"y":2610469.1939000003}},{"attributes":{"OBJECTID":804,"LANDMARKID":"1000900000941","LANDMARKCO":"604","LANDMARKNA":"采楓民宿","LANDMARKAD":"1000907","ADDRESS":"雲林縣古坑鄉華山村華山49-1號","TEL":"05-5901713","COUNTYNAME":"雲林縣","TOWNNAME":"古坑鄉","MARKTYPE":"996","Class":"6"},"geometry":{"x":208758.91920000035,"y":2610197.4299999997}},{"attributes":{"OBJECTID":805,"LANDMARKID":"1000900000942","LANDMARKCO":"604","LANDMARKNA":"山田民宿","LANDMARKAD":"1000907","ADDRESS":"雲林縣古坑鄉華山村華山78-2號","TEL":"05-5901981","COUNTYNAME":"雲林縣","TOWNNAME":"古坑鄉","MARKTYPE":"996","Class":"6"},"geometry":{"x":208170.58499999996,"y":2610315.3748000003}},{"attributes":{"OBJECTID":806,"LANDMARKID":"1000900000943","LANDMARKCO":"604","LANDMARKNA":"河岸咖啡民宿","LANDMARKAD":"1000907","ADDRESS":"雲林縣古坑鄉華山村華山86-12號","TEL":"05-5900212","COUNTYNAME":"雲林縣","TOWNNAME":"古坑鄉","MARKTYPE":"996","Class":"6"},"geometry":{"x":207727.85230000038,"y":2610530.7372999992}},{"attributes":{"OBJECTID":807,"LANDMARKID":"1000900000944","LANDMARKCO":"604","LANDMARKNA":"賞星月目小木屋民宿","LANDMARKAD":"1000907","ADDRESS":"雲林縣古坑鄉華山村華山86-6號","TEL":"05-5901123","COUNTYNAME":"雲林縣","TOWNNAME":"古坑鄉","MARKTYPE":"996","Class":"6"},"geometry":{"x":207728.75970000029,"y":2610562.7400000002}},{"attributes":{"OBJECTID":808,"LANDMARKID":"1000900000945","LANDMARKCO":"604","LANDMARKNA":"大湖底民宿","LANDMARKAD":"1000907","ADDRESS":"雲林縣古坑鄉華山村華山86-8號","TEL":"05-5901599","COUNTYNAME":"雲林縣","TOWNNAME":"古坑鄉","MARKTYPE":"996","Class":"6"},"geometry":{"x":207850.61799999978,"y":2610611.2696000002}},{"attributes":{"OBJECTID":809,"LANDMARKID":"1000900000946","LANDMARKCO":"604","LANDMARKNA":"華億民宿","LANDMARKAD":"1000907","ADDRESS":"雲林縣古坑鄉華山村華山90號","TEL":"05-5901375","COUNTYNAME":"雲林縣","TOWNNAME":"古坑鄉","MARKTYPE":"996","Class":"6"},"geometry":{"x":207855.28039999958,"y":2610728.2829999998}},{"attributes":{"OBJECTID":810,"LANDMARKID":"1000900000947","LANDMARKCO":"604","LANDMARKNA":"驛棧民宿","LANDMARKAD":"1000907","ADDRESS":"雲林縣古坑鄉永昌村光昌路218號","TEL":"05-5820299","COUNTYNAME":"雲林縣","TOWNNAME":"古坑鄉","MARKTYPE":"996","Class":"6"},"geometry":{"x":204164.20179999992,"y":2613820.2591999993}},{"attributes":{"OBJECTID":811,"LANDMARKID":"1000900000948","LANDMARKCO":"604","LANDMARKNA":"雲頂民宿","LANDMARKAD":"1000907","ADDRESS":"雲林縣古坑鄉桂林村桃源1-3號","TEL":"05-5900369","COUNTYNAME":"雲林縣","TOWNNAME":"古坑鄉","MARKTYPE":"996","Class":"6"},"geometry":{"x":209706.5569000002,"y":2610634.6874000002}},{"attributes":{"OBJECTID":812,"LANDMARKID":"1000900000949","LANDMARKCO":"604","LANDMARKNA":"懷古驛棧民宿","LANDMARKAD":"1000907","ADDRESS":"雲林縣古坑鄉華山村華山97號","TEL":"05-5910048","COUNTYNAME":"雲林縣","TOWNNAME":"古坑鄉","MARKTYPE":"996","Class":"6"},"geometry":{"x":207507.1202999996,"y":2610782.0968999993}},{"attributes":{"OBJECTID":813,"LANDMARKID":"1000900000950","LANDMARKCO":"604","LANDMARKNA":"橙香朋集休閒民宿","LANDMARKAD":"1000907","ADDRESS":"雲林縣古坑鄉荷苞村小坑16號","TEL":"05-5265383","COUNTYNAME":"雲林縣","TOWNNAME":"古坑鄉","MARKTYPE":"996","Class":"6"},"geometry":{"x":207326.7106999997,"y":2617039.3443999998}},{"attributes":{"OBJECTID":814,"LANDMARKID":"1000900000842","LANDMARKCO":"503","LANDMARKNA":"華山咖啡休閒風景區","LANDMARKAD":"1000907","ADDRESS":"雲林縣古坑鄉","TEL":" ","COUNTYNAME":"雲林縣","TOWNNAME":"古坑鄉","MARKTYPE":"995","Class":"5"},"geometry":{"x":208372.15689999983,"y":2610502.9989}},{"attributes":{"OBJECTID":815,"LANDMARKID":"1000900000843","LANDMARKCO":"503","LANDMARKNA":"樟湖風景區","LANDMARKAD":"1000907","ADDRESS":"雲林縣古坑鄉","TEL":" ","COUNTYNAME":"雲林縣","TOWNNAME":"古坑鄉","MARKTYPE":"995","Class":"5"},"geometry":{"x":213106.15000000037,"y":2611846.3023000006}},{"attributes":{"OBJECTID":816,"LANDMARKID":"1000900000844","LANDMARKCO":"503","LANDMARKNA":"草嶺風景區茄苳步道口","LANDMARKAD":"1000907","ADDRESS":"雲林縣古坑鄉","TEL":" ","COUNTYNAME":"雲林縣","TOWNNAME":"古坑鄉","MARKTYPE":"995","Class":"5"},"geometry":{"x":218768.61110000033,"y":2608583.9867000002}},{"attributes":{"OBJECTID":817,"LANDMARKID":"1000900000845","LANDMARKCO":"503","LANDMARKNA":"石壁風景區","LANDMARKAD":"1000907","ADDRESS":"雲林縣古坑鄉","TEL":" ","COUNTYNAME":"雲林縣","TOWNNAME":"古坑鄉","MARKTYPE":"995","Class":"5"},"geometry":{"x":220353.0549999997,"y":2611524.1882000007}},{"attributes":{"OBJECTID":818,"LANDMARKID":"1000900000846","LANDMARKCO":"503","LANDMARKNA":"草嶺風景區","LANDMARKAD":"1000907","ADDRESS":"雲林縣古坑鄉","TEL":" ","COUNTYNAME":"雲林縣","TOWNNAME":"古坑鄉","MARKTYPE":"995","Class":"5"},"geometry":{"x":218842.57969999965,"y":2608503.3541999999}},{"attributes":{"OBJECTID":819,"LANDMARKID":"1000900000850","LANDMARKCO":"505","LANDMARKNA":"劍湖山世界","LANDMARKAD":"1000907","ADDRESS":"雲林縣古坑鄉永光村大湖口67號","TEL":" ","COUNTYNAME":"雲林縣","TOWNNAME":"古坑鄉","MARKTYPE":"995","Class":"5"},"geometry":{"x":207081.1054999996,"y":2612550.3004999999}},{"attributes":{"OBJECTID":820,"LANDMARKID":"1000900000660","LANDMARKCO":"405","LANDMARKNA":"台糖加油站-北港站中油）","LANDMARKAD":"1000906","ADDRESS":"雲林縣北港鎮華南路66號","TEL":" ","COUNTYNAME":"雲林縣","TOWNNAME":"北港鎮","MARKTYPE":"994","Class":"4"},"geometry":{"x":178531.49739999976,"y":2607536.1264999993}},{"attributes":{"OBJECTID":821,"LANDMARKID":"1000900000661","LANDMARKCO":"405","LANDMARKNA":"中油加油站-旭峰站","LANDMARKAD":"1000906","ADDRESS":"雲林縣北港鎮草湖里東湖路57-9號","TEL":"05-7730160","COUNTYNAME":"雲林縣","TOWNNAME":"北港鎮","MARKTYPE":"994","Class":"4"},"geometry":{"x":179517.20459999982,"y":2611236.8836000003}},{"attributes":{"OBJECTID":822,"LANDMARKID":"1000900000662","LANDMARKCO":"405","LANDMARKNA":"中油加油站-北港新德路站(中油直營)","LANDMARKAD":"1000906","ADDRESS":"雲林縣北港鎮新街里新德路27號","TEL":"05-7824045","COUNTYNAME":"雲林縣","TOWNNAME":"北港鎮","MARKTYPE":"994","Class":"4"},"geometry":{"x":178704.57620000001,"y":2609287.8059}},{"attributes":{"OBJECTID":823,"LANDMARKID":"1000900000663","LANDMARKCO":"405","LANDMARKNA":"中油加油站-國濱站","LANDMARKAD":"1000906","ADDRESS":"雲林縣北港鎮民樂路465號","TEL":"05-7822349","COUNTYNAME":"雲林縣","TOWNNAME":"北港鎮","MARKTYPE":"994","Class":"4"},"geometry":{"x":177401.89159999974,"y":2609402.6807000004}},{"attributes":{"OBJECTID":824,"LANDMARKID":"1000900000643","LANDMARKCO":"402","LANDMARKNA":"亞太行動寬頻電信-北港大同加盟服務中心","LANDMARKAD":"1000906","ADDRESS":"雲林縣北港鎮大同路219號","TEL":"05-7836828","COUNTYNAME":"雲林縣","TOWNNAME":"北港鎮","MARKTYPE":"994","Class":"4"},"geometry":{"x":178574.67190000042,"y":2607788.1502999999}},{"attributes":{"OBJECTID":825,"LANDMARKID":"1000900000583","LANDMARKCO":"401","LANDMARKNA":"中國醫藥大學北港附設醫院","LANDMARKAD":"1000906","ADDRESS":"雲林縣北港鎮新德路123號","TEL":"05-7837901","COUNTYNAME":"雲林縣","TOWNNAME":"北港鎮","MARKTYPE":"994","Class":"4"},"geometry":{"x":179366.00609999988,"y":2609734.7910999991}},{"attributes":{"OBJECTID":826,"LANDMARKID":"1000900000584","LANDMARKCO":"401","LANDMARKNA":"全生醫院","LANDMARKAD":"1000906","ADDRESS":"雲林縣北港鎮中正路100號","TEL":"05-7832851","COUNTYNAME":"雲林縣","TOWNNAME":"北港鎮","MARKTYPE":"994","Class":"4"},"geometry":{"x":178703.69000000041,"y":2607579.7797999997}},{"attributes":{"OBJECTID":827,"LANDMARKID":"1000900000585","LANDMARKCO":"401","LANDMARKNA":"諸元內科醫院","LANDMARKAD":"1000906","ADDRESS":"雲林縣北港鎮中山路125號","TEL":"05-7832068","COUNTYNAME":"雲林縣","TOWNNAME":"北港鎮","MARKTYPE":"994","Class":"4"},"geometry":{"x":178970.75960000046,"y":2607256.7038000003}},{"attributes":{"OBJECTID":828,"LANDMARKID":"1000900000586","LANDMARKCO":"401","LANDMARKNA":"婦友醫院","LANDMARKAD":"1000906","ADDRESS":"雲林縣北港鎮公園路155號","TEL":"05-7833333","COUNTYNAME":"雲林縣","TOWNNAME":"北港鎮","MARKTYPE":"994","Class":"4"},"geometry":{"x":178667.70660000015,"y":2608396.5898000002}},{"attributes":{"OBJECTID":829,"LANDMARKID":"1000900000856","LANDMARKCO":"507","LANDMARKNA":"北港朝天宮","LANDMARKAD":"1000906","ADDRESS":"雲林縣北港鎮光民里中山路178號","TEL":"05-7832055","COUNTYNAME":"雲林縣","TOWNNAME":"北港鎮","MARKTYPE":"995","Class":"5"},"geometry":{"x":179011.40000000037,"y":2607362.4945999999}},{"attributes":{"OBJECTID":830,"LANDMARKID":"1000900000857","LANDMARKCO":"507","LANDMARKNA":"北港義民廟","LANDMARKAD":"1000906","ADDRESS":"雲林縣北港鎮義民里1鄰旌義街20號","TEL":" ","COUNTYNAME":"雲林縣","TOWNNAME":"北港鎮","MARKTYPE":"995","Class":"5"},"geometry":{"x":178809.97670000046,"y":2607340.4560000002}},{"attributes":{"OBJECTID":831,"LANDMARKID":"1000900000808","LANDMARKCO":"408","LANDMARKNA":"郵局-北港郵局","LANDMARKAD":"1000906","ADDRESS":"雲林縣北港鎮文化路54號","TEL":"(05)7832-229","COUNTYNAME":"雲林縣","TOWNNAME":"北港鎮","MARKTYPE":"994","Class":"4"},"geometry":{"x":178741.6194000002,"y":2607491.9757000003}},{"attributes":{"OBJECTID":832,"LANDMARKID":"1000900000809","LANDMARKCO":"408","LANDMARKNA":"郵局-北港南陽郵局","LANDMARKAD":"1000906","ADDRESS":"雲林縣北港鎮中山路6號","TEL":"(05)7833-074","COUNTYNAME":"雲林縣","TOWNNAME":"北港鎮","MARKTYPE":"994","Class":"4"},"geometry":{"x":178967.83910000045,"y":2606932.7005000003}},{"attributes":{"OBJECTID":833,"LANDMARKID":"1000900000810","LANDMARKCO":"408","LANDMARKNA":"郵局-北港北辰郵局","LANDMARKAD":"1000906","ADDRESS":"雲林縣北港鎮民有路26號","TEL":"(05)7836-643","COUNTYNAME":"雲林縣","TOWNNAME":"北港鎮","MARKTYPE":"994","Class":"4"},"geometry":{"x":178713.26889999956,"y":2607973.8230000008}},{"attributes":{"OBJECTID":834,"LANDMARKID":"1000900000823","LANDMARKCO":"409","LANDMARKNA":"雲林縣北港鎮農會","LANDMARKAD":"1000906","ADDRESS":"雲林縣北港鎮中正路20號","TEL":"05-7832031","COUNTYNAME":"雲林縣","TOWNNAME":"北港鎮","MARKTYPE":"994","Class":"4"},"geometry":{"x":179013.78309999965,"y":2607417.0204000007}},{"attributes":{"OBJECTID":835,"LANDMARKID":"1000900000657","LANDMARKCO":"404","LANDMARKNA":"台灣省自來水北港營運所","LANDMARKAD":"1000906","ADDRESS":"雲林縣北港鎮文仁路152號","TEL":" ","COUNTYNAME":"雲林縣","TOWNNAME":"北港鎮","MARKTYPE":"994","Class":"4"},"geometry":{"x":178571.85709999967,"y":2608566.5859999992}},{"attributes":{"OBJECTID":836,"LANDMARKID":"1000900000773","LANDMARKCO":"406","LANDMARKNA":"中山公園","LANDMARKAD":"1000906","ADDRESS":"雲林縣北港鎮","TEL":" ","COUNTYNAME":"雲林縣","TOWNNAME":"北港鎮","MARKTYPE":"994","Class":"4"},"geometry":{"x":178943.71980000008,"y":2608337.8935000002}},{"attributes":{"OBJECTID":837,"LANDMARKID":"1000900000774","LANDMARKCO":"406","LANDMARKNA":"大眾公園","LANDMARKAD":"1000906","ADDRESS":"雲林縣北港鎮","TEL":" ","COUNTYNAME":"雲林縣","TOWNNAME":"北港鎮","MARKTYPE":"994","Class":"4"},"geometry":{"x":178386.57349999994,"y":2607613.3321000002}},{"attributes":{"OBJECTID":838,"LANDMARKID":"1000900000671","LANDMARKCO":"405","LANDMARKNA":"福懋加油站-北港站(台塑)","LANDMARKAD":"1000906","ADDRESS":"雲林縣北港鎮新街里華勝路353號","TEL":"05-7730368","COUNTYNAME":"雲林縣","TOWNNAME":"北港鎮","MARKTYPE":"994","Class":"4"},"geometry":{"x":178408.07540000044,"y":2608888.9184000008}},{"attributes":{"OBJECTID":839,"LANDMARKID":"1000900000672","LANDMARKCO":"405","LANDMARKNA":"台亞加油站-北港站（台塑）","LANDMARKAD":"1000906","ADDRESS":"雲林縣北港鎮新德路120號","TEL":"(05)773-0077","COUNTYNAME":"雲林縣","TOWNNAME":"北港鎮","MARKTYPE":"994","Class":"4"},"geometry":{"x":179127.76640000008,"y":2609547.8306000009}},{"attributes":{"OBJECTID":840,"LANDMARKID":"1000900000239","LANDMARKCO":"108","LANDMARKNA":"雲林縣北港鎮公所","LANDMARKAD":"1000906","ADDRESS":"雲林縣北港鎮北辰路1號","TEL":"05-7836102~4","COUNTYNAME":"雲林縣","TOWNNAME":"北港鎮","MARKTYPE":"991","Class":"1"},"geometry":{"x":178793.36390000023,"y":2608238.8991}},{"attributes":{"OBJECTID":841,"LANDMARKID":"1000900000039","LANDMARKCO":"103","LANDMARKNA":"雲林縣北港鎮衛生所","LANDMARKAD":"1000906","ADDRESS":"雲林縣北港鎮北辰路3號","TEL":"05-7832103","COUNTYNAME":"雲林縣","TOWNNAME":"北港鎮","MARKTYPE":"991","Class":"1"},"geometry":{"x":178821.39890000038,"y":2608280.2266000006}},{"attributes":{"OBJECTID":842,"LANDMARKID":"1000900000040","LANDMARKCO":"103","LANDMARKNA":"雲林縣北港鎮民代表會","LANDMARKAD":"1000906","ADDRESS":"雲林縣北港鎮北辰路1號3樓","TEL":"05-7832602","COUNTYNAME":"雲林縣","TOWNNAME":"北港鎮","MARKTYPE":"991","Class":"1"},"geometry":{"x":178793.36390000023,"y":2608238.8991}},{"attributes":{"OBJECTID":843,"LANDMARKID":"1000900000154","LANDMARKCO":"107","LANDMARKNA":"雲林縣消防局第三消防大隊部","LANDMARKAD":"1000906","ADDRESS":"雲林縣北港鎮文仁路10號","TEL":"05-7832200","COUNTYNAME":"雲林縣","TOWNNAME":"北港鎮","MARKTYPE":"991","Class":"1"},"geometry":{"x":179028.61699999962,"y":2608678.1077999994}},{"attributes":{"OBJECTID":844,"LANDMARKID":"1000900000155","LANDMARKCO":"107","LANDMARKNA":"雲林縣消防局北港消防分隊","LANDMARKAD":"1000906","ADDRESS":"雲林縣北港鎮文仁路10號","TEL":"05-7832200","COUNTYNAME":"雲林縣","TOWNNAME":"北港鎮","MARKTYPE":"991","Class":"1"},"geometry":{"x":179028.61699999962,"y":2608678.1077999994}},{"attributes":{"OBJECTID":845,"LANDMARKID":"1000900000156","LANDMARKCO":"107","LANDMARKNA":"雲林縣警察局北港分局","LANDMARKAD":"1000906","ADDRESS":"雲林縣北港鎮新街里文仁路12號","TEL":"05-7832015","COUNTYNAME":"雲林縣","TOWNNAME":"北港鎮","MARKTYPE":"991","Class":"1"},"geometry":{"x":179000.53789999988,"y":2608694.2935000006}},{"attributes":{"OBJECTID":846,"LANDMARKID":"1000900000157","LANDMARKCO":"107","LANDMARKNA":"雲林縣警察局北辰派出所","LANDMARKAD":"1000906","ADDRESS":"雲林縣北港鎮新街里華勝路399號","TEL":"05-7834082","COUNTYNAME":"雲林縣","TOWNNAME":"北港鎮","MARKTYPE":"991","Class":"1"},"geometry":{"x":178457.38509999961,"y":2609105.1545000002}},{"attributes":{"OBJECTID":847,"LANDMARKID":"1000900000158","LANDMARKCO":"107","LANDMARKNA":"雲林縣警察局北港派出所","LANDMARKAD":"1000906","ADDRESS":"雲林縣北港鎮西勢里義民路51號","TEL":"05-7832064","COUNTYNAME":"雲林縣","TOWNNAME":"北港鎮","MARKTYPE":"991","Class":"1"},"geometry":{"x":178761.92179999966,"y":2607364.8805}},{"attributes":{"OBJECTID":848,"LANDMARKID":"1000900000121","LANDMARKCO":"106","LANDMARKNA":"雲林縣北港鎮戶政事務所","LANDMARKAD":"1000906","ADDRESS":"雲林縣北港鎮388鄰慶華街2號","TEL":"05-7833441","COUNTYNAME":"雲林縣","TOWNNAME":"北港鎮","MARKTYPE":"991","Class":"1"},"geometry":{"x":179003.19209999964,"y":2608718.3594000004}},{"attributes":{"OBJECTID":849,"LANDMARKID":"1000900000101","LANDMARKCO":"105","LANDMARKNA":"雲林縣北港地政事務所","LANDMARKAD":"1000906","ADDRESS":"雲林縣北港鎮文仁路2號","TEL":"05-7836196#0、1","COUNTYNAME":"雲林縣","TOWNNAME":"北港鎮","MARKTYPE":"991","Class":"1"},"geometry":{"x":179098.87559999991,"y":2608688.1267000008}},{"attributes":{"OBJECTID":850,"LANDMARKID":"1000900000034","LANDMARKCO":"101","LANDMARKNA":"台灣雲林地方法院北港簡易庭","LANDMARKAD":"1000906","ADDRESS":"雲林縣北港鎮文仁路471號","TEL":"05-7831546","COUNTYNAME":"雲林縣","TOWNNAME":"北港鎮","MARKTYPE":"991","Class":"1"},"geometry":{"x":177886.46609999985,"y":2607748.7218999993}},{"attributes":{"OBJECTID":851,"LANDMARKID":"1000900000099","LANDMARKCO":"104","LANDMARKNA":"雲林縣稅務局北港分局","LANDMARKAD":"1000906","ADDRESS":"雲林縣北港鎮文仁路6號","TEL":"05-7836146","COUNTYNAME":"雲林縣","TOWNNAME":"北港鎮","MARKTYPE":"991","Class":"1"},"geometry":{"x":179056.50509999972,"y":2608704.7621999998}},{"attributes":{"OBJECTID":852,"LANDMARKID":"1000900000100","LANDMARKCO":"104","LANDMARKNA":"中區國稅局北港稽徵所","LANDMARKAD":"1000906","ADDRESS":"雲林縣北港鎮民樂路58號","TEL":"05-7820249","COUNTYNAME":"雲林縣","TOWNNAME":"北港鎮","MARKTYPE":"991","Class":"1"},"geometry":{"x":178276.02859999985,"y":2608094.4412999991}},{"attributes":{"OBJECTID":853,"LANDMARKID":"1000900000033","LANDMARKCO":"101","LANDMARKNA":"職業訓練局北港就業服務站","LANDMARKAD":"1000906","ADDRESS":"雲林縣北港鎮華勝里文星路79號","TEL":"05-7835644","COUNTYNAME":"雲林縣","TOWNNAME":"北港鎮","MARKTYPE":"991","Class":"1"},"geometry":{"x":178507.25389999989,"y":2608297.9302999992}},{"attributes":{"OBJECTID":854,"LANDMARKID":"1000900000038","LANDMARKCO":"103","LANDMARKNA":"雲林縣北港鎮公所體育館","LANDMARKAD":"1000906","ADDRESS":"雲林縣北港鎮成功路1號","TEL":"05-7827401","COUNTYNAME":"雲林縣","TOWNNAME":"北港鎮","MARKTYPE":"991","Class":"1"},"geometry":{"x":179097.7145999996,"y":2608306.9091999996}},{"attributes":{"OBJECTID":855,"LANDMARKID":"1000900000153","LANDMARKCO":"107","LANDMARKNA":"雲林縣警察局好收派出所","LANDMARKAD":"1000906","ADDRESS":"雲林縣北港鎮好收里好收路23號","TEL":"05-7922194","COUNTYNAME":"雲林縣","TOWNNAME":"北港鎮","MARKTYPE":"991","Class":"1"},"geometry":{"x":176410.55480000004,"y":2610890.6068999991}},{"attributes":{"OBJECTID":856,"LANDMARKID":"1000900000497","LANDMARKCO":"204","LANDMARKNA":"雲林縣立圖書館北港分館","LANDMARKAD":"1000906","ADDRESS":"雲林縣北港鎮北辰路2之5號","TEL":" ","COUNTYNAME":"雲林縣","TOWNNAME":"北港鎮","MARKTYPE":"992","Class":"2"},"geometry":{"x":178899.11780000012,"y":2608362.5335000008}},{"attributes":{"OBJECTID":857,"LANDMARKID":"1000900000285","LANDMARKCO":"203","LANDMARKNA":"縣立北辰國小","LANDMARKAD":"1000906","ADDRESS":"雲林縣北港鎮新街里成功路3號","TEL":"05-7832153","COUNTYNAME":"雲林縣","TOWNNAME":"北港鎮","MARKTYPE":"992","Class":"2"},"geometry":{"x":178784.84379999992,"y":2608471.1574000008}},{"attributes":{"OBJECTID":858,"LANDMARKID":"1000900000272","LANDMARKCO":"202","LANDMARKNA":"私立巨人高中","LANDMARKAD":"1000906","ADDRESS":"雲林縣北港鎮大同路647號","TEL":"05-7835937","COUNTYNAME":"雲林縣","TOWNNAME":"北港鎮","MARKTYPE":"992","Class":"2"},"geometry":{"x":177408.43649999984,"y":2608113.5724999998}},{"attributes":{"OBJECTID":859,"LANDMARKID":"1000900000273","LANDMARKCO":"202","LANDMARKNA":"國立北港高中","LANDMARKAD":"1000906","ADDRESS":"雲林縣北港鎮成功路26號","TEL":"05-7821411","COUNTYNAME":"雲林縣","TOWNNAME":"北港鎮","MARKTYPE":"992","Class":"2"},"geometry":{"x":179019.96879999992,"y":2608478.5417999998}},{"attributes":{"OBJECTID":860,"LANDMARKID":"1000900000274","LANDMARKCO":"202","LANDMARKNA":"國立北港農工","LANDMARKAD":"1000906","ADDRESS":"雲林縣北港鎮太平路80號","TEL":"05-7832246","COUNTYNAME":"雲林縣","TOWNNAME":"北港鎮","MARKTYPE":"992","Class":"2"},"geometry":{"x":179471.87100000028,"y":2608716.6654000003}},{"attributes":{"OBJECTID":861,"LANDMARKID":"1000900000275","LANDMARKCO":"202","LANDMARKNA":"私立巨人高中附設國中部","LANDMARKAD":"1000906","ADDRESS":"雲林縣北港鎮大同路647號","TEL":"05-7835937","COUNTYNAME":"雲林縣","TOWNNAME":"北港鎮","MARKTYPE":"992","Class":"2"},"geometry":{"x":177408.43649999984,"y":2608113.5724999998}},{"attributes":{"OBJECTID":862,"LANDMARKID":"1000900000276","LANDMARKCO":"203","LANDMARKNA":"縣立建國國中","LANDMARKAD":"1000906","ADDRESS":"雲林縣北港鎮大同路468號","TEL":"05-7832724","COUNTYNAME":"雲林縣","TOWNNAME":"北港鎮","MARKTYPE":"992","Class":"2"},"geometry":{"x":178094.17339999974,"y":2608029.7190000005}},{"attributes":{"OBJECTID":863,"LANDMARKID":"1000900000277","LANDMARKCO":"203","LANDMARKNA":"縣立北港國中","LANDMARKAD":"1000906","ADDRESS":"雲林縣北港鎮民生路102號","TEL":"05-7832022","COUNTYNAME":"雲林縣","TOWNNAME":"北港鎮","MARKTYPE":"992","Class":"2"},"geometry":{"x":178527.11000000034,"y":2607170.0784000009}},{"attributes":{"OBJECTID":864,"LANDMARKID":"1000900000278","LANDMARKCO":"203","LANDMARKNA":"縣立南陽國小","LANDMARKAD":"1000906","ADDRESS":"雲林縣北港鎮南安里光明路59號","TEL":"05-7832106","COUNTYNAME":"雲林縣","TOWNNAME":"北港鎮","MARKTYPE":"992","Class":"2"},"geometry":{"x":178556.28780000005,"y":2607185.2208999991}},{"attributes":{"OBJECTID":865,"LANDMARKID":"1000900000279","LANDMARKCO":"203","LANDMARKNA":"縣立僑美國小","LANDMARKAD":"1000906","ADDRESS":"雲林縣北港鎮草湖里華勝路655號","TEL":"05-7832307","COUNTYNAME":"雲林縣","TOWNNAME":"北港鎮","MARKTYPE":"992","Class":"2"},"geometry":{"x":178732.54239999969,"y":2610141.1593999993}},{"attributes":{"OBJECTID":866,"LANDMARKID":"1000900000280","LANDMARKCO":"203","LANDMARKNA":"縣立東榮國小","LANDMARKAD":"1000906","ADDRESS":"雲林縣北港鎮溝皂里174號","TEL":"05-7921304","COUNTYNAME":"雲林縣","TOWNNAME":"北港鎮","MARKTYPE":"992","Class":"2"},"geometry":{"x":177930.22869999986,"y":2612291.0628999993}},{"attributes":{"OBJECTID":867,"LANDMARKID":"1000900000281","LANDMARKCO":"203","LANDMARKNA":"縣立辰光國小","LANDMARKAD":"1000906","ADDRESS":"雲林縣北港鎮新厝里49號","TEL":"05-7834320","COUNTYNAME":"雲林縣","TOWNNAME":"北港鎮","MARKTYPE":"992","Class":"2"},"geometry":{"x":180428.49029999971,"y":2609460.8353000004}},{"attributes":{"OBJECTID":868,"LANDMARKID":"1000900000282","LANDMARKCO":"203","LANDMARKNA":"縣立朝陽國小","LANDMARKAD":"1000906","ADDRESS":"雲林縣北港鎮扶朝里76號","TEL":"05-7832904","COUNTYNAME":"雲林縣","TOWNNAME":"北港鎮","MARKTYPE":"992","Class":"2"},"geometry":{"x":177043.98020000011,"y":2606191.0478000008}},{"attributes":{"OBJECTID":869,"LANDMARKID":"1000900000283","LANDMARKCO":"203","LANDMARKNA":"縣立育英國小","LANDMARKAD":"1000906","ADDRESS":"雲林縣北港鎮番溝里84號","TEL":"05-7921224","COUNTYNAME":"雲林縣","TOWNNAME":"北港鎮","MARKTYPE":"992","Class":"2"},"geometry":{"x":176336.86010000017,"y":2613400.1651000008}},{"attributes":{"OBJECTID":870,"LANDMARKID":"1000900000284","LANDMARKCO":"203","LANDMARKNA":"縣立好收國小","LANDMARKAD":"1000906","ADDRESS":"雲林縣北港鎮好收里好收路20號","TEL":"05-7922254","COUNTYNAME":"雲林縣","TOWNNAME":"北港鎮","MARKTYPE":"992","Class":"2"},"geometry":{"x":176520.95669999998,"y":2610811.1627999991}},{"attributes":{"OBJECTID":871,"LANDMARKID":"1000900000512","LANDMARKCO":"302","LANDMARKNA":"台西汽車客運北港站","LANDMARKAD":"1000906","ADDRESS":"雲林縣北港鎮中正路117號","TEL":" ","COUNTYNAME":"雲林縣","TOWNNAME":"北港鎮","MARKTYPE":"993","Class":"302"},"geometry":{"x":178657.79619999975,"y":2607549.8784999996}},{"attributes":{"OBJECTID":872,"LANDMARKID":"1000900000513","LANDMARKCO":"302","LANDMARKNA":"嘉義汽車客運北港站","LANDMARKAD":"1000906","ADDRESS":"雲林縣北港鎮文化路89號","TEL":" ","COUNTYNAME":"雲林縣","TOWNNAME":"北港鎮","MARKTYPE":"993","Class":"302"},"geometry":{"x":178767.64460000023,"y":2607653.1642000005}},{"attributes":{"OBJECTID":873,"LANDMARKID":"1000900000514","LANDMARKCO":"302","LANDMARKNA":"統聯汽車客運北港站","LANDMARKAD":"1000906","ADDRESS":"雲林縣北港鎮中正路127號","TEL":" ","COUNTYNAME":"雲林縣","TOWNNAME":"北港鎮","MARKTYPE":"993","Class":"302"},"geometry":{"x":178619.58710000012,"y":2607566.9287}},{"attributes":{"OBJECTID":874,"LANDMARKID":"1000900000515","LANDMARKCO":"303","LANDMARKNA":"北港鎮公共造產第一停車場","LANDMARKAD":"1000906","ADDRESS":"雲林縣北港鎮中山南路21巷36號","TEL":" ","COUNTYNAME":"雲林縣","TOWNNAME":"北港鎮","MARKTYPE":"993","Class":"303"},"geometry":{"x":178763.83420000039,"y":2606962.2870000005}},{"attributes":{"OBJECTID":875,"LANDMARKID":"1000900000516","LANDMARKCO":"303","LANDMARKNA":"北港鎮公共造產第二停車場","LANDMARKAD":"1000906","ADDRESS":"雲林縣北港鎮華南路40號","TEL":" ","COUNTYNAME":"雲林縣","TOWNNAME":"北港鎮","MARKTYPE":"993","Class":"303"},"geometry":{"x":178486.2862999998,"y":2607427.0210999995}},{"attributes":{"OBJECTID":876,"LANDMARKID":"1000900000639","LANDMARKCO":"402","LANDMARKNA":"中華電信-北港服務中心","LANDMARKAD":"1000906","ADDRESS":"雲林縣北港鎮中正路20-1號","TEL":"(05)782-4167","COUNTYNAME":"雲林縣","TOWNNAME":"北港鎮","MARKTYPE":"994","Class":"4"},"geometry":{"x":178957.76910000015,"y":2607460.6445000004}},{"attributes":{"OBJECTID":877,"LANDMARKID":"1000900000640","LANDMARKCO":"402","LANDMARKNA":"中華電信-北港華勝特約服務中心","LANDMARKAD":"1000906","ADDRESS":"雲林縣北港鎮華勝路52-1號","TEL":"05-7825828","COUNTYNAME":"雲林縣","TOWNNAME":"北港鎮","MARKTYPE":"994","Class":"4"},"geometry":{"x":178527.24689999968,"y":2607979.3033000007}},{"attributes":{"OBJECTID":878,"LANDMARKID":"1000900000641","LANDMARKCO":"402","LANDMARKNA":"遠傳電信-北港文化門市","LANDMARKAD":"1000906","ADDRESS":"雲林縣北港鎮文化路55-1號","TEL":" ","COUNTYNAME":"雲林縣","TOWNNAME":"北港鎮","MARKTYPE":"994","Class":"4"},"geometry":{"x":178696.68790000025,"y":2607477.7566999998}},{"attributes":{"OBJECTID":879,"LANDMARKID":"1000900000642","LANDMARKCO":"402","LANDMARKNA":"威寶電信-北港大同特約服務中心","LANDMARKAD":"1000906","ADDRESS":"雲林縣北港鎮大同路197號","TEL":"05-7827032","COUNTYNAME":"雲林縣","TOWNNAME":"北港鎮","MARKTYPE":"994","Class":"4"},"geometry":{"x":178635.74959999975,"y":2607772.4521999992}},{"attributes":{"OBJECTID":880,"LANDMARKID":"1000900000912","LANDMARKCO":"603","LANDMARKNA":"世一賓館","LANDMARKAD":"1000906","ADDRESS":"雲林縣北港鎮中山路105號","TEL":"05-7832225","COUNTYNAME":"雲林縣","TOWNNAME":"北港鎮","MARKTYPE":"996","Class":"6"},"geometry":{"x":178977.97790000029,"y":2607211.7425999995}},{"attributes":{"OBJECTID":881,"LANDMARKID":"1000900000913","LANDMARKCO":"603","LANDMARKNA":"大福旅社","LANDMARKAD":"1000906","ADDRESS":"雲林縣北港鎮中山路53號","TEL":"05-7383265","COUNTYNAME":"雲林縣","TOWNNAME":"北港鎮","MARKTYPE":"996","Class":"6"},"geometry":{"x":178957.05269999988,"y":2607094.6481999997}},{"attributes":{"OBJECTID":882,"LANDMARKID":"1000900000914","LANDMARKCO":"603","LANDMARKNA":"興南旅社","LANDMARKAD":"1000906","ADDRESS":"雲林縣北港鎮中山路41號","TEL":"05-7832127","COUNTYNAME":"雲林縣","TOWNNAME":"北港鎮","MARKTYPE":"996","Class":"6"},"geometry":{"x":178953.17410000041,"y":2607069.6294}},{"attributes":{"OBJECTID":883,"LANDMARKID":"1000900000915","LANDMARKCO":"603","LANDMARKNA":"笨港客棧","LANDMARKAD":"1000906","ADDRESS":"雲林縣北港鎮仁和路7號","TEL":"05-7832457","COUNTYNAME":"雲林縣","TOWNNAME":"北港鎮","MARKTYPE":"996","Class":"6"},"geometry":{"x":179044.82670000009,"y":2607449.0670999996}},{"attributes":{"OBJECTID":884,"LANDMARKID":"1000900000916","LANDMARKCO":"603","LANDMARKNA":"邦尼熊主題汽車旅館","LANDMARKAD":"1000906","ADDRESS":"雲林縣北港鎮天祥路29號","TEL":"05-7825432","COUNTYNAME":"雲林縣","TOWNNAME":"北港鎮","MARKTYPE":"996","Class":"6"},"geometry":{"x":178666.62810000032,"y":2609130.5665000007}},{"attributes":{"OBJECTID":885,"LANDMARKID":"1000900000917","LANDMARKCO":"603","LANDMARKNA":"親和旅社","LANDMARKAD":"1000906","ADDRESS":"雲林縣北港鎮中山路198號","TEL":"05-7832455","COUNTYNAME":"雲林縣","TOWNNAME":"北港鎮","MARKTYPE":"996","Class":"6"},"geometry":{"x":179065.19519999996,"y":2607373.1658999994}},{"attributes":{"OBJECTID":886,"LANDMARKID":"1000900000918","LANDMARKCO":"603","LANDMARKNA":"源發旅社","LANDMARKAD":"1000906","ADDRESS":"雲林縣北港鎮民主路30號","TEL":"05-7832019","COUNTYNAME":"雲林縣","TOWNNAME":"北港鎮","MARKTYPE":"996","Class":"6"},"geometry":{"x":178924.18719999958,"y":2607374.4813999999}},{"attributes":{"OBJECTID":887,"LANDMARKID":"1000900000919","LANDMARKCO":"603","LANDMARKNA":"福泰大旅社","LANDMARKAD":"1000906","ADDRESS":"雲林縣北港鎮義民路63號","TEL":"05-7823911","COUNTYNAME":"雲林縣","TOWNNAME":"北港鎮","MARKTYPE":"996","Class":"6"},"geometry":{"x":178812.64829999954,"y":2607486.3214999996}},{"attributes":{"OBJECTID":888,"LANDMARKID":"1000900000920","LANDMARKCO":"603","LANDMARKNA":"金山大旅社","LANDMARKAD":"1000906","ADDRESS":"雲林縣北港鎮文化路48號","TEL":"05-7832140","COUNTYNAME":"雲林縣","TOWNNAME":"北港鎮","MARKTYPE":"996","Class":"6"},"geometry":{"x":178717.76080000028,"y":2607462.8594000004}},{"attributes":{"OBJECTID":889,"LANDMARKID":"1000900000858","LANDMARKCO":"511","LANDMARKNA":"北港夜市","LANDMARKAD":"1000906","ADDRESS":"雲林縣北港鎮","TEL":" ","COUNTYNAME":"雲林縣","TOWNNAME":"北港鎮","MARKTYPE":"995","Class":"5"},"geometry":{"x":179011.70760000031,"y":2607321.0514000002}},{"attributes":{"OBJECTID":890,"LANDMARKID":"1000900000673","LANDMARKCO":"405","LANDMARKNA":"中油加油站-沿海站","LANDMARKAD":"1000919","ADDRESS":"雲林縣口湖鄉中山路2號","TEL":"057-992675","COUNTYNAME":"雲林縣","TOWNNAME":"口湖鄉","MARKTYPE":"994","Class":"4"},"geometry":{"x":164589.22499999963,"y":2612108.1271000002}},{"attributes":{"OBJECTID":891,"LANDMARKID":"1000900000674","LANDMARKCO":"405","LANDMARKNA":"中油加油站-口湖站(中油直營)","LANDMARKAD":"1000919","ADDRESS":"雲林縣口湖鄉湖東村中正路一段99號","TEL":"05-7892504","COUNTYNAME":"雲林縣","TOWNNAME":"口湖鄉","MARKTYPE":"994","Class":"4"},"geometry":{"x":166815.50590000022,"y":2608950.7252999991}},{"attributes":{"OBJECTID":892,"LANDMARKID":"1000900000815","LANDMARKCO":"408","LANDMARKNA":"郵局-口湖郵局","LANDMARKAD":"1000919","ADDRESS":"雲林縣口湖鄉湖東村廟前街26號","TEL":"(05)7892-042","COUNTYNAME":"雲林縣","TOWNNAME":"口湖鄉","MARKTYPE":"994","Class":"4"},"geometry":{"x":166605.47439999972,"y":2609386.4091999996}},{"attributes":{"OBJECTID":893,"LANDMARKID":"1000900000816","LANDMARKCO":"408","LANDMARKNA":"郵局-口湖梧郵局","LANDMARKAD":"1000919","ADDRESS":"雲林縣口湖鄉光明路36號","TEL":"(05)7907-002","COUNTYNAME":"雲林縣","TOWNNAME":"口湖鄉","MARKTYPE":"994","Class":"4"},"geometry":{"x":167420.80429999996,"y":2605019.3312999997}},{"attributes":{"OBJECTID":894,"LANDMARKID":"1000900000819","LANDMARKCO":"409","LANDMARKNA":"雲林縣口湖鄉農會","LANDMARKAD":"1000919","ADDRESS":"雲林縣口湖鄉湖東村133號","TEL":"05-7892701","COUNTYNAME":"雲林縣","TOWNNAME":"口湖鄉","MARKTYPE":"994","Class":"4"},"geometry":{"x":166419.11419999972,"y":2609275.2532000002}},{"attributes":{"OBJECTID":895,"LANDMARKID":"1000900000820","LANDMARKCO":"409","LANDMARKNA":"雲林區漁會","LANDMARKAD":"1000919","ADDRESS":"雲林縣口湖鄉下崙村漁港路322號","TEL":"05-7721512","COUNTYNAME":"雲林縣","TOWNNAME":"口湖鄉","MARKTYPE":"994","Class":"4"},"geometry":{"x":162959.19620000012,"y":2608176.5681999996}},{"attributes":{"OBJECTID":896,"LANDMARKID":"1000900000148","LANDMARKCO":"107","LANDMARKNA":"雲林縣警察局金湖派出所","LANDMARKAD":"1000919","ADDRESS":"雲林縣口湖鄉港西村三民路1號","TEL":"05-7971081","COUNTYNAME":"雲林縣","TOWNNAME":"口湖鄉","MARKTYPE":"991","Class":"1"},"geometry":{"x":163008.79569999967,"y":2608250.3442000002}},{"attributes":{"OBJECTID":897,"LANDMARKID":"1000900000149","LANDMARKCO":"107","LANDMARKNA":"雲林縣警察局口湖分駐所","LANDMARKAD":"1000919","ADDRESS":"雲林縣口湖鄉口湖村口湖路104號","TEL":"05-7892014","COUNTYNAME":"雲林縣","TOWNNAME":"口湖鄉","MARKTYPE":"991","Class":"1"},"geometry":{"x":166535.07510000002,"y":2609281.0073000006}},{"attributes":{"OBJECTID":898,"LANDMARKID":"1000900000240","LANDMARKCO":"108","LANDMARKNA":"雲林縣口湖鄉公所","LANDMARKAD":"1000919","ADDRESS":"雲林縣口湖鄉湖東村中正路一段118號","TEL":"05-7892001","COUNTYNAME":"雲林縣","TOWNNAME":"口湖鄉","MARKTYPE":"991","Class":"1"},"geometry":{"x":166892.79839999974,"y":2609049.4487999994}},{"attributes":{"OBJECTID":899,"LANDMARKID":"1000900000035","LANDMARKCO":"103","LANDMARKNA":"雲林縣古坑鄉鄉民代表會","LANDMARKAD":"1000919","ADDRESS":"雲林縣口坑鄉中山路47號","TEL":"05-5821023","COUNTYNAME":"雲林縣","TOWNNAME":"口湖鄉","MARKTYPE":"991","Class":"1"},"geometry":{"x":164733.50480000023,"y":2612860.7772000004}},{"attributes":{"OBJECTID":900,"LANDMARKID":"1000900000036","LANDMARKCO":"103","LANDMARKNA":"雲林縣口湖鄉鄉民代表會","LANDMARKAD":"1000919","ADDRESS":"雲林縣口湖鄉湖東村中正路一段122號","TEL":"05-7892021","COUNTYNAME":"雲林縣","TOWNNAME":"口湖鄉","MARKTYPE":"991","Class":"1"},"geometry":{"x":166854.64319999982,"y":2609032.1508000009}},{"attributes":{"OBJECTID":901,"LANDMARKID":"1000900000037","LANDMARKCO":"103","LANDMARKNA":"雲林縣口湖鄉衛生所","LANDMARKAD":"1000919","ADDRESS":"雲林縣口湖鄉湖東村中正路一段114號","TEL":"05-7892004","COUNTYNAME":"雲林縣","TOWNNAME":"口湖鄉","MARKTYPE":"991","Class":"1"},"geometry":{"x":166889.03340000007,"y":2609003.8863999993}},{"attributes":{"OBJECTID":902,"LANDMARKID":"1000900000150","LANDMARKCO":"107","LANDMARKNA":"雲林縣消防局口湖消防分隊","LANDMARKAD":"1000919","ADDRESS":"雲林縣口湖鄉口湖村中正路一段288號","TEL":"05-7892119","COUNTYNAME":"雲林縣","TOWNNAME":"口湖鄉","MARKTYPE":"991","Class":"1"},"geometry":{"x":166349.5279000001,"y":2609331.9288999997}},{"attributes":{"OBJECTID":903,"LANDMARKID":"1000900000151","LANDMARKCO":"107","LANDMARKNA":"雲林縣警察局下崙派出所","LANDMARKAD":"1000919","ADDRESS":"雲林縣口湖鄉崙中村中山路59號","TEL":"05-7991084","COUNTYNAME":"雲林縣","TOWNNAME":"口湖鄉","MARKTYPE":"991","Class":"1"},"geometry":{"x":164737.68800000008,"y":2612928.3476}},{"attributes":{"OBJECTID":904,"LANDMARKID":"1000900000152","LANDMARKCO":"107","LANDMARKNA":"雲林縣警察局宜梧派出所","LANDMARKAD":"1000919","ADDRESS":"雲林縣口湖鄉梧南村光明路124號","TEL":"05-7907180","COUNTYNAME":"雲林縣","TOWNNAME":"口湖鄉","MARKTYPE":"991","Class":"1"},"geometry":{"x":167195.23450000025,"y":2604990.9514000006}},{"attributes":{"OBJECTID":905,"LANDMARKID":"1000900000122","LANDMARKCO":"106","LANDMARKNA":"雲林縣口湖鄉戶政事務所","LANDMARKAD":"1000919","ADDRESS":"雲林縣口湖鄉湖東村文明路16號","TEL":"05-7892794","COUNTYNAME":"雲林縣","TOWNNAME":"口湖鄉","MARKTYPE":"991","Class":"1"},"geometry":{"x":166739.25399999972,"y":2609228.3671000004}},{"attributes":{"OBJECTID":906,"LANDMARKID":"1000900000496","LANDMARKCO":"204","LANDMARKNA":"雲林縣立圖書館口湖分館","LANDMARKAD":"1000919","ADDRESS":"雲林縣口湖鄉湖東村400號","TEL":" ","COUNTYNAME":"雲林縣","TOWNNAME":"口湖鄉","MARKTYPE":"992","Class":"2"},"geometry":{"x":166921.23450000025,"y":2608966.3649000004}},{"attributes":{"OBJECTID":907,"LANDMARKID":"1000900000286","LANDMARKCO":"203","LANDMARKNA":"縣立宜梧國中","LANDMARKAD":"1000919","ADDRESS":"雲林縣口湖鄉梧南村光明路1號","TEL":"05-7907254","COUNTYNAME":"雲林縣","TOWNNAME":"口湖鄉","MARKTYPE":"992","Class":"2"},"geometry":{"x":167878.55090000015,"y":2605079.0824999996}},{"attributes":{"OBJECTID":908,"LANDMARKID":"1000900000287","LANDMARKCO":"203","LANDMARKNA":"縣立崇文國小","LANDMARKAD":"1000919","ADDRESS":"雲林縣口湖鄉蚵寮村崇文路二段285號","TEL":"05-7892186","COUNTYNAME":"雲林縣","TOWNNAME":"口湖鄉","MARKTYPE":"992","Class":"2"},"geometry":{"x":166036.34090000018,"y":2608223.4319000002}},{"attributes":{"OBJECTID":909,"LANDMARKID":"1000900000288","LANDMARKCO":"203","LANDMARKNA":"縣立文光國小","LANDMARKAD":"1000919","ADDRESS":"雲林縣口湖鄉梧南村文光路100號","TEL":"05-7907189","COUNTYNAME":"雲林縣","TOWNNAME":"口湖鄉","MARKTYPE":"992","Class":"2"},"geometry":{"x":167240.38960000034,"y":2604498.1142999995}},{"attributes":{"OBJECTID":910,"LANDMARKID":"1000900000289","LANDMARKCO":"203","LANDMARKNA":"縣立台興國小","LANDMARKAD":"1000919","ADDRESS":"雲林縣口湖鄉台子村台興路125號","TEL":"05-7971494","COUNTYNAME":"雲林縣","TOWNNAME":"口湖鄉","MARKTYPE":"992","Class":"2"},"geometry":{"x":162323.04069999978,"y":2606765.0519999992}},{"attributes":{"OBJECTID":911,"LANDMARKID":"1000900000290","LANDMARKCO":"203","LANDMARKNA":"縣立金湖國小","LANDMARKAD":"1000919","ADDRESS":"雲林縣口湖鄉港東村民主路15號","TEL":"05-7971188","COUNTYNAME":"雲林縣","TOWNNAME":"口湖鄉","MARKTYPE":"992","Class":"2"},"geometry":{"x":163650.55279999971,"y":2608113.4946999997}},{"attributes":{"OBJECTID":912,"LANDMARKID":"1000900000291","LANDMARKCO":"203","LANDMARKNA":"縣立下崙國小","LANDMARKAD":"1000919","ADDRESS":"雲林縣口湖鄉下崙村福安路200號","TEL":"05-7991184","COUNTYNAME":"雲林縣","TOWNNAME":"口湖鄉","MARKTYPE":"992","Class":"2"},"geometry":{"x":164047.66280000005,"y":2612372.4567000009}},{"attributes":{"OBJECTID":913,"LANDMARKID":"1000900000292","LANDMARKCO":"203","LANDMARKNA":"縣立口湖國中","LANDMARKAD":"1000919","ADDRESS":"雲林縣口湖鄉湖東村52號","TEL":"05-7892027","COUNTYNAME":"雲林縣","TOWNNAME":"口湖鄉","MARKTYPE":"992","Class":"2"},"geometry":{"x":166709.94369999971,"y":2609610.3750999998}},{"attributes":{"OBJECTID":914,"LANDMARKID":"1000900000293","LANDMARKCO":"203","LANDMARKNA":"縣立過港國小","LANDMARKAD":"1000919","ADDRESS":"雲林縣口湖鄉過港村119號","TEL":"05-7892183","COUNTYNAME":"雲林縣","TOWNNAME":"口湖鄉","MARKTYPE":"992","Class":"2"},"geometry":{"x":167621.52689999994,"y":2607350.7830999997}},{"attributes":{"OBJECTID":915,"LANDMARKID":"1000900000294","LANDMARKCO":"203","LANDMARKNA":"縣立頂湖國小","LANDMARKAD":"1000919","ADDRESS":"雲林縣口湖鄉頂湖村121號","TEL":"05-7892185","COUNTYNAME":"雲林縣","TOWNNAME":"口湖鄉","MARKTYPE":"992","Class":"2"},"geometry":{"x":166226.86050000042,"y":2610990.8090000004}},{"attributes":{"OBJECTID":916,"LANDMARKID":"1000900000295","LANDMARKCO":"203","LANDMARKNA":"縣立成龍國小","LANDMARKAD":"1000919","ADDRESS":"雲林縣口湖鄉成龍村201號","TEL":"05-7971187","COUNTYNAME":"雲林縣","TOWNNAME":"口湖鄉","MARKTYPE":"992","Class":"2"},"geometry":{"x":165086.28949999996,"y":2606480.9363000002}},{"attributes":{"OBJECTID":917,"LANDMARKID":"1000900000296","LANDMARKCO":"203","LANDMARKNA":"縣立口湖國小","LANDMARKAD":"1000919","ADDRESS":"雲林縣口湖鄉湖東村47號","TEL":"05-7892154","COUNTYNAME":"雲林縣","TOWNNAME":"口湖鄉","MARKTYPE":"992","Class":"2"},"geometry":{"x":166650.51530000009,"y":2609510.0362999998}},{"attributes":{"OBJECTID":918,"LANDMARKID":"1000900000297","LANDMARKCO":"203","LANDMARKNA":"縣立口湖國小青蚶分校","LANDMARKAD":"1000919","ADDRESS":"雲林縣口湖鄉清蚶村93號","TEL":"05-7892804","COUNTYNAME":"雲林縣","TOWNNAME":"口湖鄉","MARKTYPE":"992","Class":"2"},"geometry":{"x":164350.70040000044,"y":2610721.4743000008}},{"attributes":{"OBJECTID":919,"LANDMARKID":"1000900000298","LANDMARKCO":"203","LANDMARKNA":"縣立興南國小","LANDMARKAD":"1000919","ADDRESS":"雲林縣口湖鄉埔南村9號","TEL":"05-7892190","COUNTYNAME":"雲林縣","TOWNNAME":"口湖鄉","MARKTYPE":"992","Class":"2"},"geometry":{"x":167389.36770000029,"y":2610940.9693}},{"attributes":{"OBJECTID":920,"LANDMARKID":"1000900000299","LANDMARKCO":"203","LANDMARKNA":"縣立文光國小湖口分校","LANDMARKAD":"1000919","ADDRESS":"雲林縣口湖鄉湖口村","TEL":"05-7906930","COUNTYNAME":"雲林縣","TOWNNAME":"口湖鄉","MARKTYPE":"992","Class":"2"},"geometry":{"x":164644.42509999964,"y":2603690.1109999996}},{"attributes":{"OBJECTID":921,"LANDMARKID":"1000900000300","LANDMARKCO":"203","LANDMARKNA":"口湖國小學前特教班","LANDMARKAD":"1000919","ADDRESS":"雲林縣口湖鄉湖東村47號","TEL":"05-7892154","COUNTYNAME":"雲林縣","TOWNNAME":"口湖鄉","MARKTYPE":"992","Class":"2"},"geometry":{"x":166653.51520000026,"y":2609510.0534000006}},{"attributes":{"OBJECTID":922,"LANDMARKID":"1000900000578","LANDMARKCO":"308","LANDMARKNA":"台61-水井交流道-南下","LANDMARKAD":"1000919","ADDRESS":" ","TEL":" ","COUNTYNAME":"雲林縣","TOWNNAME":"口湖鄉","MARKTYPE":"993","Class":"308"},"geometry":{"x":166857.59839999955,"y":2602731.9033000004}},{"attributes":{"OBJECTID":923,"LANDMARKID":"1000900000579","LANDMARKCO":"308","LANDMARKNA":"台61-水井交流道-北上","LANDMARKAD":"1000919","ADDRESS":" ","TEL":" ","COUNTYNAME":"雲林縣","TOWNNAME":"口湖鄉","MARKTYPE":"993","Class":"308"},"geometry":{"x":165724.19149999972,"y":2605661.1301000006}},{"attributes":{"OBJECTID":924,"LANDMARKID":"1000900000580","LANDMARKCO":"308","LANDMARKNA":"台61-口湖交流道-南下","LANDMARKAD":"1000919","ADDRESS":" ","TEL":" ","COUNTYNAME":"雲林縣","TOWNNAME":"口湖鄉","MARKTYPE":"993","Class":"308"},"geometry":{"x":163649.13790000044,"y":2607717.2137000002}},{"attributes":{"OBJECTID":925,"LANDMARKID":"1000900000581","LANDMARKCO":"308","LANDMARKNA":"台61-口湖交流道-南下","LANDMARKAD":"1000919","ADDRESS":" ","TEL":" ","COUNTYNAME":"雲林縣","TOWNNAME":"口湖鄉","MARKTYPE":"993","Class":"308"},"geometry":{"x":163296.39070000034,"y":2609083.3741999995}},{"attributes":{"OBJECTID":926,"LANDMARKID":"1000900000582","LANDMARKCO":"308","LANDMARKNA":"台61-口湖交流道-北上","LANDMARKAD":"1000919","ADDRESS":" ","TEL":" ","COUNTYNAME":"雲林縣","TOWNNAME":"口湖鄉","MARKTYPE":"993","Class":"308"},"geometry":{"x":164515.2921000002,"y":2611585.0697000008}},{"attributes":{"OBJECTID":927,"LANDMARKID":"1000900000517","LANDMARKCO":"303","LANDMARKNA":"口湖都市計畫停車場","LANDMARKAD":"1000919","ADDRESS":"雲林縣口湖鄉","TEL":" ","COUNTYNAME":"雲林縣","TOWNNAME":"口湖鄉","MARKTYPE":"993","Class":"303"},"geometry":{"x":163128.2416000003,"y":2608611.8446999993}},{"attributes":{"OBJECTID":928,"LANDMARKID":"1000900000644","LANDMARKCO":"402","LANDMARKNA":"中華電信-口湖服務中心","LANDMARKAD":"1000919","ADDRESS":"雲林縣口湖鄉湖東村文明路88號","TEL":"(05)789-1003","COUNTYNAME":"雲林縣","TOWNNAME":"口湖鄉","MARKTYPE":"994","Class":"4"},"geometry":{"x":166871.66870000027,"y":2609483.2959000003}},{"attributes":{"OBJECTID":929,"LANDMARKID":"1000900000957","LANDMARKCO":"604","LANDMARKNA":"鄉海民宿","LANDMARKAD":"1000919","ADDRESS":"雲林縣口湖鄉下崙村漁港路2-16號","TEL":"05-7992851","COUNTYNAME":"雲林縣","TOWNNAME":"口湖鄉","MARKTYPE":"996","Class":"6"},"geometry":{"x":164233.44909999985,"y":2613087.7126000002}},{"attributes":{"OBJECTID":930,"LANDMARKID":"1000900000958","LANDMARKCO":"604","LANDMARKNA":"北海民宿","LANDMARKAD":"1000919","ADDRESS":"雲林縣口湖鄉崙東村民生路45號","TEL":"05-7991799","COUNTYNAME":"雲林縣","TOWNNAME":"口湖鄉","MARKTYPE":"996","Class":"6"},"geometry":{"x":164774.40770000033,"y":2612785.5666000005}},{"attributes":{"OBJECTID":931,"LANDMARKID":"1000900000676","LANDMARKCO":"405","LANDMARKNA":"中油加油站-水林站(中油直營)","LANDMARKAD":"1000920","ADDRESS":"雲林縣水林鄉水北村顏厝寮97號","TEL":"05-7854194","COUNTYNAME":"雲林縣","TOWNNAME":"水林鄉","MARKTYPE":"994","Class":"4"},"geometry":{"x":173319.02630000003,"y":2607855.2630000003}},{"attributes":{"OBJECTID":932,"LANDMARKID":"1000900000817","LANDMARKCO":"408","LANDMARKNA":"郵局-水林郵局","LANDMARKAD":"1000920","ADDRESS":"雲林縣水林鄉水林路10號","TEL":"(05)7852-604","COUNTYNAME":"雲林縣","TOWNNAME":"水林鄉","MARKTYPE":"994","Class":"4"},"geometry":{"x":173048.7564000003,"y":2607898.9228000008}},{"attributes":{"OBJECTID":933,"LANDMARKID":"1000900000818","LANDMARKCO":"409","LANDMARKNA":"雲林縣水林鄉農會","LANDMARKAD":"1000920","ADDRESS":"雲林縣水林鄉水北村水林路130號","TEL":"05-7852605","COUNTYNAME":"雲林縣","TOWNNAME":"水林鄉","MARKTYPE":"994","Class":"4"},"geometry":{"x":172652.56280000042,"y":2607830.9550000001}},{"attributes":{"OBJECTID":934,"LANDMARKID":"1000900000656","LANDMARKCO":"404","LANDMARKNA":"台灣省自來水水林營運所","LANDMARKAD":"1000920","ADDRESS":"雲林縣水林鄉水南村水林路49號","TEL":" ","COUNTYNAME":"雲林縣","TOWNNAME":"水林鄉","MARKTYPE":"994","Class":"4"},"geometry":{"x":173354.81089999992,"y":2607746.4561999999}},{"attributes":{"OBJECTID":935,"LANDMARKID":"1000900000675","LANDMARKCO":"405","LANDMARKNA":"台亞加油站-水林站（台塑）","LANDMARKAD":"1000920","ADDRESS":"雲林縣水林鄉水南村外環路306號","TEL":"(05)785-7799","COUNTYNAME":"雲林縣","TOWNNAME":"水林鄉","MARKTYPE":"994","Class":"4"},"geometry":{"x":173316.55200000014,"y":2607580.3431000002}},{"attributes":{"OBJECTID":936,"LANDMARKID":"1000900000143","LANDMARKCO":"107","LANDMARKNA":"雲林縣警察局蔦松派出所","LANDMARKAD":"1000920","ADDRESS":"雲林縣水林鄉松中村14鄰蔦松路20號","TEL":"05-7841891","COUNTYNAME":"雲林縣","TOWNNAME":"水林鄉","MARKTYPE":"991","Class":"1"},"geometry":{"x":171432.5987999998,"y":2602090.0436000004}},{"attributes":{"OBJECTID":937,"LANDMARKID":"1000900000241","LANDMARKCO":"108","LANDMARKNA":"雲林縣水林鄉公所","LANDMARKAD":"1000920","ADDRESS":"雲林縣水林鄉水林路12號","TEL":"05-7850001","COUNTYNAME":"雲林縣","TOWNNAME":"水林鄉","MARKTYPE":"991","Class":"1"},"geometry":{"x":173030.5680999998,"y":2607955.4021000005}},{"attributes":{"OBJECTID":938,"LANDMARKID":"1000900000041","LANDMARKCO":"103","LANDMARKNA":"雲林縣水林鄉民代表會","LANDMARKAD":"1000920","ADDRESS":"雲林縣水林鄉水林路12號2樓","TEL":"05-7852624","COUNTYNAME":"雲林縣","TOWNNAME":"水林鄉","MARKTYPE":"991","Class":"1"},"geometry":{"x":173030.5680999998,"y":2607955.4021000005}},{"attributes":{"OBJECTID":939,"LANDMARKID":"1000900000042","LANDMARKCO":"103","LANDMARKNA":"雲林縣水林鄉衛生所","LANDMARKAD":"1000920","ADDRESS":"雲林縣水林鄉水林路8號","TEL":"05-7852612","COUNTYNAME":"雲林縣","TOWNNAME":"水林鄉","MARKTYPE":"991","Class":"1"},"geometry":{"x":173067.9486999996,"y":2607904.0256999992}},{"attributes":{"OBJECTID":940,"LANDMARKID":"1000900000144","LANDMARKCO":"107","LANDMARKNA":"雲林縣消防局水林消防分隊","LANDMARKAD":"1000920","ADDRESS":"雲林縣水林鄉水北村水林路62號","TEL":"05-7852609","COUNTYNAME":"雲林縣","TOWNNAME":"水林鄉","MARKTYPE":"991","Class":"1"},"geometry":{"x":172808.67289999966,"y":2607859.0807000007}},{"attributes":{"OBJECTID":941,"LANDMARKID":"1000900000145","LANDMARKCO":"107","LANDMARKNA":"雲林縣警察局宏仁派出所","LANDMARKAD":"1000920","ADDRESS":"雲林縣水林鄉灣西村宏仁路77號","TEL":"05-7851885","COUNTYNAME":"雲林縣","TOWNNAME":"水林鄉","MARKTYPE":"991","Class":"1"},"geometry":{"x":172258.71690000035,"y":2611654.1351999994}},{"attributes":{"OBJECTID":942,"LANDMARKID":"1000900000146","LANDMARKCO":"107","LANDMARKNA":"雲林縣警察局土厝派出所","LANDMARKAD":"1000920","ADDRESS":"雲林縣水林鄉土厝村大庄46號","TEL":"05-7852884","COUNTYNAME":"雲林縣","TOWNNAME":"水林鄉","MARKTYPE":"991","Class":"1"},"geometry":{"x":175318.1520999996,"y":2607502.5274999999}},{"attributes":{"OBJECTID":943,"LANDMARKID":"1000900000147","LANDMARKCO":"107","LANDMARKNA":"雲林縣警察局水林分駐所","LANDMARKAD":"1000920","ADDRESS":"雲林縣水林鄉水北村水林路60號","TEL":"05-7853541","COUNTYNAME":"雲林縣","TOWNNAME":"水林鄉","MARKTYPE":"991","Class":"1"},"geometry":{"x":172809.45309999958,"y":2607891.8158}},{"attributes":{"OBJECTID":944,"LANDMARKID":"1000900000123","LANDMARKCO":"106","LANDMARKNA":"雲林縣水林鄉戶政事務所","LANDMARKAD":"1000920","ADDRESS":"雲林縣水林鄉水北村14鄰水林路58之1號","TEL":"05-7853906","COUNTYNAME":"雲林縣","TOWNNAME":"水林鄉","MARKTYPE":"991","Class":"1"},"geometry":{"x":172822.55399999954,"y":2607865.1259000003}},{"attributes":{"OBJECTID":945,"LANDMARKID":"1000900000495","LANDMARKCO":"204","LANDMARKNA":"雲林縣立圖書館水林分館","LANDMARKAD":"1000920","ADDRESS":"雲林縣水林鄉文化路6號","TEL":" ","COUNTYNAME":"雲林縣","TOWNNAME":"水林鄉","MARKTYPE":"992","Class":"2"},"geometry":{"x":173019.14499999955,"y":2607917.0867999997}},{"attributes":{"OBJECTID":946,"LANDMARKID":"1000900000301","LANDMARKCO":"203","LANDMARKNA":"縣立水林國中","LANDMARKAD":"1000920","ADDRESS":"雲林縣水林鄉水北村水林路2號","TEL":"05-7852618","COUNTYNAME":"雲林縣","TOWNNAME":"水林鄉","MARKTYPE":"992","Class":"2"},"geometry":{"x":173176.19440000039,"y":2607911.2201000005}},{"attributes":{"OBJECTID":947,"LANDMARKID":"1000900000302","LANDMARKCO":"203","LANDMARKNA":"縣立水林國小","LANDMARKAD":"1000920","ADDRESS":"雲林縣水林鄉水北村文化路45號","TEL":"05-7852610","COUNTYNAME":"雲林縣","TOWNNAME":"水林鄉","MARKTYPE":"992","Class":"2"},"geometry":{"x":172948.30179999955,"y":2608180.4353}},{"attributes":{"OBJECTID":948,"LANDMARKID":"1000900000303","LANDMARKCO":"203","LANDMARKNA":"縣立燦林國小","LANDMARKAD":"1000920","ADDRESS":"雲林縣水林鄉水林村水林路6號","TEL":"05-7852845","COUNTYNAME":"雲林縣","TOWNNAME":"水林鄉","MARKTYPE":"992","Class":"2"},"geometry":{"x":173125.83849999961,"y":2607938.5241999999}},{"attributes":{"OBJECTID":949,"LANDMARKID":"1000900000304","LANDMARKCO":"203","LANDMARKNA":"縣立宏仁國小","LANDMARKAD":"1000920","ADDRESS":"雲林縣水林鄉灣東村宏仁路30號","TEL":"05-7857080","COUNTYNAME":"雲林縣","TOWNNAME":"水林鄉","MARKTYPE":"992","Class":"2"},"geometry":{"x":172540.27099999972,"y":2611458.8593000006}},{"attributes":{"OBJECTID":950,"LANDMARKID":"1000900000305","LANDMARKCO":"203","LANDMARKNA":"縣立蔦松國小","LANDMARKAD":"1000920","ADDRESS":"雲林縣水林鄉松中村蔦松路213號","TEL":"05-7841230","COUNTYNAME":"雲林縣","TOWNNAME":"水林鄉","MARKTYPE":"992","Class":"2"},"geometry":{"x":171388.01630000025,"y":2601397.2829}},{"attributes":{"OBJECTID":951,"LANDMARKID":"1000900000306","LANDMARKCO":"203","LANDMARKNA":"縣立蔦松國中","LANDMARKAD":"1000920","ADDRESS":"雲林縣水林鄉水林鄉松北路1之1號","TEL":"05-7841801","COUNTYNAME":"雲林縣","TOWNNAME":"水林鄉","MARKTYPE":"992","Class":"2"},"geometry":{"x":171261.42129999958,"y":2602310.6482999995}},{"attributes":{"OBJECTID":952,"LANDMARKID":"1000900000307","LANDMARKCO":"203","LANDMARKNA":"縣立中興國小","LANDMARKAD":"1000920","ADDRESS":"雲林縣水林鄉瓊埔村148號","TEL":"05-7841064","COUNTYNAME":"雲林縣","TOWNNAME":"水林鄉","MARKTYPE":"992","Class":"2"},"geometry":{"x":169066.84289999958,"y":2601931.0892999992}},{"attributes":{"OBJECTID":953,"LANDMARKID":"1000900000308","LANDMARKCO":"203","LANDMARKNA":"縣立大興國小","LANDMARKAD":"1000920","ADDRESS":"雲林縣水林鄉大溝村1號","TEL":"05-7851300","COUNTYNAME":"雲林縣","TOWNNAME":"水林鄉","MARKTYPE":"992","Class":"2"},"geometry":{"x":169466.77840000018,"y":2607171.5689000003}},{"attributes":{"OBJECTID":954,"LANDMARKID":"1000900000309","LANDMARKCO":"203","LANDMARKNA":"縣立誠正國小","LANDMARKAD":"1000920","ADDRESS":"雲林縣水林鄉蘇秦村1號","TEL":"05-7921114","COUNTYNAME":"雲林縣","TOWNNAME":"水林鄉","MARKTYPE":"992","Class":"2"},"geometry":{"x":174638.34570000041,"y":2613200.1883000005}},{"attributes":{"OBJECTID":955,"LANDMARKID":"1000900000310","LANDMARKCO":"203","LANDMARKNA":"縣立和安國小","LANDMARKAD":"1000920","ADDRESS":"雲林縣水林鄉溪漧村41號","TEL":"05-7853932","COUNTYNAME":"雲林縣","TOWNNAME":"水林鄉","MARKTYPE":"992","Class":"2"},"geometry":{"x":174935.14230000041,"y":2604010.4985000007}},{"attributes":{"OBJECTID":956,"LANDMARKID":"1000900000311","LANDMARKCO":"203","LANDMARKNA":"縣立尖山國小","LANDMARKAD":"1000920","ADDRESS":"雲林縣水林鄉大山村大山路6號","TEL":"05-7851756","COUNTYNAME":"雲林縣","TOWNNAME":"水林鄉","MARKTYPE":"992","Class":"2"},"geometry":{"x":170706.89470000006,"y":2606530.5968999993}},{"attributes":{"OBJECTID":957,"LANDMARKID":"1000900000312","LANDMARKCO":"203","LANDMARKNA":"縣立文正國小","LANDMARKAD":"1000920","ADDRESS":"雲林縣水林鄉山腳村蕃東路1號","TEL":"05-7841051","COUNTYNAME":"雲林縣","TOWNNAME":"水林鄉","MARKTYPE":"992","Class":"2"},"geometry":{"x":170834.95590000041,"y":2604181.3522999994}},{"attributes":{"OBJECTID":958,"LANDMARKID":"1000900000645","LANDMARKCO":"402","LANDMARKNA":"中華電信-水林服務中心","LANDMARKAD":"1000920","ADDRESS":"雲林縣水林鄉水北村新興北路20號","TEL":"(05)785-3344","COUNTYNAME":"雲林縣","TOWNNAME":"水林鄉","MARKTYPE":"994","Class":"4"},"geometry":{"x":172400.42769999988,"y":2607963.4987000003}},{"attributes":{"OBJECTID":959,"LANDMARKID":"1000300001086","LANDMARKCO":"405","LANDMARKNA":"中油加油站-桃園機場第三站(中油直營)","LANDMARKAD":"1000306","ADDRESS":"桃園縣大園鄉埔心村航勤南路2號","TEL":"03-3834374","COUNTYNAME":"桃園市","TOWNNAME":"大園區","MARKTYPE":"994","Class":"4"},"geometry":{"x":275151.55950000044,"y":2775663.6976999994}},{"attributes":{"OBJECTID":960,"LANDMARKID":"1000300001087","LANDMARKCO":"405","LANDMARKNA":"中油加油站-大園國際站(中油直營)","LANDMARKAD":"1000306","ADDRESS":"桃園縣大園鄉圳頭村國際路一段772號","TEL":"03-3856800","COUNTYNAME":"桃園市","TOWNNAME":"大園區","MARKTYPE":"994","Class":"4"},"geometry":{"x":270508.80530000012,"y":2774117.1976999994}},{"attributes":{"OBJECTID":961,"LANDMARKID":"1000300001088","LANDMARKCO":"405","LANDMARKNA":"台灣優力加油站-豐隆站(中油)","LANDMARKAD":"1000306","ADDRESS":"桃園縣大園鄉民生南路196號","TEL":"03-3855005","COUNTYNAME":"桃園市","TOWNNAME":"大園區","MARKTYPE":"994","Class":"4"},"geometry":{"x":270375.26939999964,"y":2772845.8311000001}},{"attributes":{"OBJECTID":962,"LANDMARKID":"1000300001089","LANDMARKCO":"405","LANDMARKNA":"中油加油站-仕博站","LANDMARKAD":"1000306","ADDRESS":"桃園縣大園鄉埔心村中正東路一段287號","TEL":"03-3816982","COUNTYNAME":"桃園市","TOWNNAME":"大園區","MARKTYPE":"994","Class":"4"},"geometry":{"x":271786.73089999985,"y":2772185.2699999996}},{"attributes":{"OBJECTID":963,"LANDMARKID":"1000300001090","LANDMARKCO":"405","LANDMARKNA":"中油加油站-信用站","LANDMARKAD":"1000306","ADDRESS":"桃園縣大園鄉田心村和平西路222號","TEL":"03-3857735","COUNTYNAME":"桃園市","TOWNNAME":"大園區","MARKTYPE":"994","Class":"4"},"geometry":{"x":269599.7527999999,"y":2771843.7776999995}},{"attributes":{"OBJECTID":964,"LANDMARKID":"1000300001091","LANDMARKCO":"405","LANDMARKNA":"中油加油站-福岡站","LANDMARKAD":"1000306","ADDRESS":"桃園縣大園鄉海口村15鄰建國路50號","TEL":"03-3936906","COUNTYNAME":"桃園市","TOWNNAME":"大園區","MARKTYPE":"994","Class":"4"},"geometry":{"x":275460.04009999987,"y":2778120.0588000007}},{"attributes":{"OBJECTID":965,"LANDMARKID":"1000300001092","LANDMARKCO":"405","LANDMARKNA":"中油加油站-上野站","LANDMARKAD":"1000306","ADDRESS":"桃園縣大園鄉國際路2段285號","TEL":"03-3936100","COUNTYNAME":"桃園市","TOWNNAME":"大園區","MARKTYPE":"994","Class":"4"},"geometry":{"x":272325.96300000045,"y":2775187.9513000008}},{"attributes":{"OBJECTID":966,"LANDMARKID":"1000300001093","LANDMARKCO":"405","LANDMARKNA":"中油加油站-海口站(中油直營)","LANDMARKAD":"1000306","ADDRESS":"桃園縣大園鄉海口村三民路一段158號","TEL":"03-3935333","COUNTYNAME":"桃園市","TOWNNAME":"大園區","MARKTYPE":"994","Class":"4"},"geometry":{"x":275076.40110000037,"y":2777038.1800999995}},{"attributes":{"OBJECTID":967,"LANDMARKID":"1000300001094","LANDMARKCO":"405","LANDMARKNA":"中油加油站-福井站","LANDMARKAD":"1000306","ADDRESS":"桃園縣大園鄉國際路三段156號","TEL":"03-3936760","COUNTYNAME":"桃園市","TOWNNAME":"大園區","MARKTYPE":"994","Class":"4"},"geometry":{"x":273610.1557,"y":2776711.5495999996}},{"attributes":{"OBJECTID":968,"LANDMARKID":"1000300001095","LANDMARKCO":"405","LANDMARKNA":"中油加油站-大園站(中油直營)","LANDMARKAD":"1000306","ADDRESS":"桃園縣大園鄉中正東路58號","TEL":"03-3862243","COUNTYNAME":"桃園市","TOWNNAME":"大園區","MARKTYPE":"994","Class":"4"},"geometry":{"x":270123.14419999998,"y":2772808.2030999996}},{"attributes":{"OBJECTID":969,"LANDMARKID":"1000300001096","LANDMARKCO":"405","LANDMARKNA":"中油加油站-百鼎站","LANDMARKAD":"1000306","ADDRESS":"桃園縣大園鄉中正東路340號","TEL":"03-3869888","COUNTYNAME":"桃園市","TOWNNAME":"大園區","MARKTYPE":"994","Class":"4"},"geometry":{"x":270915.00040000025,"y":2772477.7762000002}},{"attributes":{"OBJECTID":970,"LANDMARKID":"1000300001097","LANDMARKCO":"405","LANDMARKNA":"中油加油站-中正東路站","LANDMARKAD":"1000306","ADDRESS":"桃園縣大園鄉中正東路311號","TEL":"03-3851892","COUNTYNAME":"桃園市","TOWNNAME":"大園區","MARKTYPE":"994","Class":"4"},"geometry":{"x":270713.95859999955,"y":2772593.7083000001}},{"attributes":{"OBJECTID":971,"LANDMARKID":"1000300001098","LANDMARKCO":"405","LANDMARKNA":"中油加油站-大園民生加油站(中油直營)","LANDMARKAD":"1000306","ADDRESS":"桃園縣大園鄉橫峰村1鄰民生南路163號","TEL":"03-3856171","COUNTYNAME":"桃園市","TOWNNAME":"大園區","MARKTYPE":"994","Class":"4"},"geometry":{"x":270388.90230000019,"y":2772940.7928999998}},{"attributes":{"OBJECTID":972,"LANDMARKID":"1000300001099","LANDMARKCO":"405","LANDMARKNA":"中油加油站-台億竹圍站","LANDMARKAD":"1000306","ADDRESS":"桃園縣大園鄉海口村國際路三段625號","TEL":"03-3831296","COUNTYNAME":"桃園市","TOWNNAME":"大園區","MARKTYPE":"994","Class":"4"},"geometry":{"x":274480.80840000045,"y":2777761.8527000006}},{"attributes":{"OBJECTID":973,"LANDMARKID":"1000300001100","LANDMARKCO":"405","LANDMARKNA":"山隆加油站-大園站(中油)","LANDMARKAD":"1000306","ADDRESS":"桃園縣大園鄉民生路79號","TEL":"(03)385-0738","COUNTYNAME":"桃園市","TOWNNAME":"大園區","MARKTYPE":"994","Class":"4"},"geometry":{"x":269947.59020000044,"y":2773553.9111000001}},{"attributes":{"OBJECTID":974,"LANDMARKID":"1000300001101","LANDMARKCO":"405","LANDMARKNA":"中油加油站-日野站","LANDMARKAD":"1000306","ADDRESS":"桃園縣大園鄉內海村國際路一段338號","TEL":"03-3856671","COUNTYNAME":"桃園市","TOWNNAME":"大園區","MARKTYPE":"994","Class":"4"},"geometry":{"x":269887.1716,"y":2773584.9550000001}},{"attributes":{"OBJECTID":975,"LANDMARKID":"1000300001102","LANDMARKCO":"405","LANDMARKNA":"中油加油站-桃園機場第四站","LANDMARKAD":"1000306","ADDRESS":"桃園縣大園鄉埔心村航站北路33號","TEL":"03-3834375","COUNTYNAME":"桃園市","TOWNNAME":"大園區","MARKTYPE":"994","Class":"4"},"geometry":{"x":272978.47780000046,"y":2773764.2980000004}},{"attributes":{"OBJECTID":976,"LANDMARKID":"1000300001103","LANDMARKCO":"405","LANDMARKNA":"中油加油站-嘉豐站","LANDMARKAD":"1000306","ADDRESS":"桃園縣大園鄉五權村中正東路二段493號","TEL":"03-3813649","COUNTYNAME":"桃園市","TOWNNAME":"大園區","MARKTYPE":"994","Class":"4"},"geometry":{"x":273272.29250000045,"y":2768654.9787000008}},{"attributes":{"OBJECTID":977,"LANDMARKID":"1000300001104","LANDMARKCO":"405","LANDMARKNA":"中油加油站-慶亞站","LANDMARKAD":"1000306","ADDRESS":"桃園縣大園鄉果林村三民路二段668號","TEL":"03-3837128","COUNTYNAME":"桃園市","TOWNNAME":"大園區","MARKTYPE":"994","Class":"4"},"geometry":{"x":276243.16899999976,"y":2773922.9861999992}},{"attributes":{"OBJECTID":978,"LANDMARKID":"1000300000855","LANDMARKCO":"402","LANDMARKNA":"My Phone台灣大哥大-桃園機場一航站直營服務中心","LANDMARKAD":"1000306","ADDRESS":"桃園縣大園鄉埔心村航站南路15號","TEL":"0809-000-166","COUNTYNAME":"桃園市","TOWNNAME":"大園區","MARKTYPE":"994","Class":"4"},"geometry":{"x":273992.33980000019,"y":2774834.0370000005}},{"attributes":{"OBJECTID":979,"LANDMARKID":"1000300000856","LANDMARKCO":"402","LANDMARKNA":"My Phone台灣大哥大-桃園機場二航站直營服務中心","LANDMARKAD":"1000306","ADDRESS":"桃園縣大園鄉埔心村航站南路9號","TEL":"0809-000-166","COUNTYNAME":"桃園市","TOWNNAME":"大園區","MARKTYPE":"994","Class":"4"},"geometry":{"x":273281.11459999997,"y":2774242.2566999998}},{"attributes":{"OBJECTID":980,"LANDMARKID":"1000300000857","LANDMARKCO":"402","LANDMARKNA":"亞太行動寬頻電信-大園中華加盟服務中心","LANDMARKAD":"1000306","ADDRESS":"桃園縣大園鄉中華路14號","TEL":"03-3841588","COUNTYNAME":"桃園市","TOWNNAME":"大園區","MARKTYPE":"994","Class":"4"},"geometry":{"x":269956.83050000016,"y":2773130.6326000001}},{"attributes":{"OBJECTID":981,"LANDMARKID":"1000300000775","LANDMARKCO":"401","LANDMARKNA":"敏盛綜合醫院大園分院","LANDMARKAD":"1000306","ADDRESS":"桃園縣大園鄉華中街2號","TEL":"03-3867521","COUNTYNAME":"桃園市","TOWNNAME":"大園區","MARKTYPE":"994","Class":"4"},"geometry":{"x":269774.18730000034,"y":2772689.7783000004}},{"attributes":{"OBJECTID":982,"LANDMARKID":"1000300000776","LANDMARKCO":"401","LANDMARKNA":"居善醫院","LANDMARKAD":"1000306","ADDRESS":"桃園縣大園鄉南港村4鄰許厝港103之40號","TEL":"03-3866511","COUNTYNAME":"桃園市","TOWNNAME":"大園區","MARKTYPE":"994","Class":"4"},"geometry":{"x":267560.15739999991,"y":2772679.7681000009}},{"attributes":{"OBJECTID":983,"LANDMARKID":"1000300001475","LANDMARKCO":"512","LANDMARKNA":"中正國際機場旅客服務中心第一航廈","LANDMARKAD":"1000306","ADDRESS":"桃園縣大園鄉航站南路15號","TEL":"03-3982194","COUNTYNAME":"桃園市","TOWNNAME":"大園區","MARKTYPE":"995","Class":"5"},"geometry":{"x":271763.04509999976,"y":2771744.2136000004}},{"attributes":{"OBJECTID":984,"LANDMARKID":"1000300001476","LANDMARKCO":"512","LANDMARKNA":"中正國際機場旅客服務中心第二航廈","LANDMARKAD":"1000306","ADDRESS":"桃園縣大園鄉航站南路15號","TEL":"03-3983341","COUNTYNAME":"桃園市","TOWNNAME":"大園區","MARKTYPE":"995","Class":"5"},"geometry":{"x":271771.57639999967,"y":2771752.6872000005}},{"attributes":{"OBJECTID":985,"LANDMARKID":"1000300001307","LANDMARKCO":"408","LANDMARKNA":"郵局-大園郵局","LANDMARKAD":"1000306","ADDRESS":"桃園縣大園鄉中華路2號","TEL":"(03)3869-118","COUNTYNAME":"桃園市","TOWNNAME":"大園區","MARKTYPE":"994","Class":"4"},"geometry":{"x":269931.91110000014,"y":2773113.3578999992}},{"attributes":{"OBJECTID":986,"LANDMARKID":"1000300001308","LANDMARKCO":"408","LANDMARKNA":"郵局-大園埔心街郵局","LANDMARKAD":"1000306","ADDRESS":"桃園縣大園鄉埔心街50號","TEL":"(03)3813-510","COUNTYNAME":"桃園市","TOWNNAME":"大園區","MARKTYPE":"994","Class":"4"},"geometry":{"x":272622.62090000045,"y":2771717.2218999993}},{"attributes":{"OBJECTID":987,"LANDMARKID":"1000300001309","LANDMARKCO":"408","LANDMARKNA":"郵局-大園航勤北路郵局","LANDMARKAD":"1000306","ADDRESS":"桃園縣大園鄉航勤北路20號","TEL":"(03)3834-011","COUNTYNAME":"桃園市","TOWNNAME":"大園區","MARKTYPE":"994","Class":"4"},"geometry":{"x":274284.28450000007,"y":2775428.7808999997}},{"attributes":{"OBJECTID":988,"LANDMARKID":"1000300001310","LANDMARKCO":"408","LANDMARKNA":"郵局-大園林郵局","LANDMARKAD":"1000306","ADDRESS":"桃園縣大園鄉林村2鄰9-25號","TEL":"(03)3836-423","COUNTYNAME":"桃園市","TOWNNAME":"大園區","MARKTYPE":"994","Class":"4"},"geometry":{"x":276144.05169999972,"y":2774099.4583999999}},{"attributes":{"OBJECTID":989,"LANDMARKID":"1000300001311","LANDMARKCO":"408","LANDMARKNA":"郵局-臺灣桃園國際機場郵","LANDMARKAD":"1000306","ADDRESS":"桃園縣大園鄉臺灣桃園國際機場第一航站大廈內","TEL":"(03)3931-701","COUNTYNAME":"桃園市","TOWNNAME":"大園區","MARKTYPE":"994","Class":"4"},"geometry":{"x":274012.11120000016,"y":2774825.5124999993}},{"attributes":{"OBJECTID":990,"LANDMARKID":"1000300001391","LANDMARKCO":"409","LANDMARKNA":"桃園縣大園鄉農會","LANDMARKAD":"1000306","ADDRESS":"桃園縣大園鄉橫峰村中正東路103號","TEL":"03-3863173-6","COUNTYNAME":"桃園市","TOWNNAME":"大園區","MARKTYPE":"994","Class":"4"},"geometry":{"x":270297.1791000003,"y":2772742.6298999991}},{"attributes":{"OBJECTID":991,"LANDMARKID":"1000300001392","LANDMARKCO":"409","LANDMARKNA":"桃園區漁會","LANDMARKAD":"1000306","ADDRESS":"桃園縣大園鄉沙崙村1鄰10號","TEL":"03-3835601","COUNTYNAME":"桃園市","TOWNNAME":"大園區","MARKTYPE":"994","Class":"4"},"geometry":{"x":274701.39749999996,"y":2778732.1002999991}},{"attributes":{"OBJECTID":992,"LANDMARKID":"1000300000937","LANDMARKCO":"404","LANDMARKNA":"台灣省自來水大園服務所","LANDMARKAD":"1000306","ADDRESS":"桃園縣大園鄉忠孝一街10號","TEL":" ","COUNTYNAME":"桃園市","TOWNNAME":"大園區","MARKTYPE":"994","Class":"4"},"geometry":{"x":270000.74949999992,"y":2773063.3600999992}},{"attributes":{"OBJECTID":993,"LANDMARKID":"1000300001085","LANDMARKCO":"405","LANDMARKNA":"全國加油站-中正機場站（台塑）","LANDMARKAD":"1000306","ADDRESS":"桃園縣大園鄉三民路二段50號","TEL":"03-3832183","COUNTYNAME":"桃園市","TOWNNAME":"大園區","MARKTYPE":"994","Class":"4"},"geometry":{"x":275562.69469999988,"y":2775532.2693000007}},{"attributes":{"OBJECTID":994,"LANDMARKID":"1000300000243","LANDMARKCO":"108","LANDMARKNA":"桃園縣大園鄉公所","LANDMARKAD":"1000306","ADDRESS":"桃園縣大園鄉中正西路12號","TEL":"03-3867703","COUNTYNAME":"桃園市","TOWNNAME":"大園區","MARKTYPE":"991","Class":"1"},"geometry":{"x":269698.00250000041,"y":2772869.8922000006}},{"attributes":{"OBJECTID":995,"LANDMARKID":"1000300000219","LANDMARKCO":"107","LANDMARKNA":"桃園縣消防局大園消防分隊","LANDMARKAD":"1000306","ADDRESS":"桃園縣大園鄉和平二街18號","TEL":"03-3862332","COUNTYNAME":"桃園市","TOWNNAME":"大園區","MARKTYPE":"991","Class":"1"},"geometry":{"x":270315.05730000045,"y":2772599.8055000007}},{"attributes":{"OBJECTID":996,"LANDMARKID":"1000300000220","LANDMARKCO":"107","LANDMARKNA":"桃園縣政府警察局大園分局","LANDMARKAD":"1000306","ADDRESS":"桃園縣大園鄉中正西路13號","TEL":"03-3866555","COUNTYNAME":"桃園市","TOWNNAME":"大園區","MARKTYPE":"991","Class":"1"},"geometry":{"x":269769.37559999991,"y":2772819.7896999996}},{"attributes":{"OBJECTID":997,"LANDMARKID":"1000300000221","LANDMARKCO":"107","LANDMARKNA":"桃園縣政府警察局竹圍派出所","LANDMARKAD":"1000306","ADDRESS":"桃園縣大園鄉竹圍村竹圍街10號","TEL":"03-3835089","COUNTYNAME":"桃園市","TOWNNAME":"大園區","MARKTYPE":"991","Class":"1"},"geometry":{"x":274412.38399999961,"y":2777089.9403000008}},{"attributes":{"OBJECTID":998,"LANDMARKID":"1000300000222","LANDMARKCO":"107","LANDMARKNA":"桃園縣政府警察局埔心派出所","LANDMARKAD":"1000306","ADDRESS":"桃園縣大園鄉埔心村埔心街1號","TEL":"03-3811684","COUNTYNAME":"桃園市","TOWNNAME":"大園區","MARKTYPE":"991","Class":"1"},"geometry":{"x":273047.37959999964,"y":2771559.8995999992}},{"attributes":{"OBJECTID":999,"LANDMARKID":"1000300000223","LANDMARKCO":"107","LANDMARKNA":"桃園縣政府警察局大園派出所","LANDMARKAD":"1000306","ADDRESS":"桃園縣大園鄉田心村中正西路13號","TEL":"03-3862804","COUNTYNAME":"桃園市","TOWNNAME":"大園區","MARKTYPE":"991","Class":"1"},"geometry":{"x":269765.37559999991,"y":2772819.7953999992}},{"attributes":{"OBJECTID":1000,"LANDMARKID":"1000300000224","LANDMARKCO":"107","LANDMARKNA":"桃園縣政府警察局三果派出所","LANDMARKAD":"1000306","ADDRESS":"桃園縣大園鄉三石村三和路25號","TEL":"03-3936118","COUNTYNAME":"桃園市","TOWNNAME":"大園區","MARKTYPE":"991","Class":"1"},"geometry":{"x":275916.54779999983,"y":2774089.7512999997}}]}