{"displayFieldName":"COUNTYNAME","fieldAliases":{"OBJECTID":"OBJECTID","LANDMARKID":"LANDMARKID","LANDMARKCO":"LANDMARKCO","LANDMARKNA":"LANDMARKNA","LANDMARKAD":"LANDMARKAD","ADDRESS":"ADDRESS","TEL":"TEL","COUNTYNAME":"COUNTYNAME","TOWNNAME":"TOWNNAME","MARKTYPE":"MARKTYPE","Class":"Class"},"geometryType":"esriGeometryPoint","spatialReference":{"wkid":4326},"fields":[{"name":"OBJECTID","type":"esriFieldTypeOID","alias":"OBJECTID"},{"name":"LANDMARKID","type":"esriFieldTypeString","alias":"LANDMARKID","length":15},{"name":"LANDMARKCO","type":"esriFieldTypeString","alias":"LANDMARKCO","length":15},{"name":"LANDMARKNA","type":"esriFieldTypeString","alias":"LANDMARKNA","length":50},{"name":"LANDMARKAD","type":"esriFieldTypeString","alias":"LANDMARKAD","length":15},{"name":"ADDRESS","type":"esriFieldTypeString","alias":"ADDRESS","length":56},{"name":"TEL","type":"esriFieldTypeString","alias":"TEL","length":36},{"name":"COUNTYNAME","type":"esriFieldTypeString","alias":"COUNTYNAME","length":15},{"name":"TOWNNAME","type":"esriFieldTypeString","alias":"TOWNNAME","length":13},{"name":"MARKTYPE","type":"esriFieldTypeString","alias":"MARKTYPE","length":12},{"name":"Class","type":"esriFieldTypeString","alias":"Class","length":5}],"features":[{"attributes":{"OBJECTID":4001,"LANDMARKID":"1000100001450","LANDMARKCO":"305","LANDMARKNA":"深澳漁港","LANDMARKAD":"1000112","ADDRESS":"新北市瑞芳區","TEL":" ","COUNTYNAME":"新北市","TOWNNAME":"瑞芳區","MARKTYPE":"993","Class":"305"},"geometry":{"x":121.82163623957408,"y":25.134117395729742}},{"attributes":{"OBJECTID":4002,"LANDMARKID":"1000100001542","LANDMARKCO":"308","LANDMARKNA":"台62-瑞濱端-西行","LANDMARKAD":"1000112","ADDRESS":" ","TEL":" ","COUNTYNAME":"新北市","TOWNNAME":"瑞芳區","MARKTYPE":"993","Class":"308"},"geometry":{"x":121.81863276713381,"y":25.121297121968833}},{"attributes":{"OBJECTID":4003,"LANDMARKID":"1000100001543","LANDMARKCO":"308","LANDMARKNA":"台62-瑞濱端-西行","LANDMARKAD":"1000112","ADDRESS":" ","TEL":" ","COUNTYNAME":"新北市","TOWNNAME":"瑞芳區","MARKTYPE":"993","Class":"308"},"geometry":{"x":121.81861616288774,"y":25.121509651228379}},{"attributes":{"OBJECTID":4004,"LANDMARKID":"1000100001302","LANDMARKCO":"303","LANDMARKNA":"市一立體停車場","LANDMARKAD":"1000112","ADDRESS":"新北市瑞芳區明燈路三段2號","TEL":" ","COUNTYNAME":"新北市","TOWNNAME":"瑞芳區","MARKTYPE":"993","Class":"303"},"geometry":{"x":121.80871397917079,"y":25.10774907138401}},{"attributes":{"OBJECTID":4005,"LANDMARKID":"1000100001303","LANDMARKCO":"303","LANDMARKNA":"瑞濱海岸觀景停車場","LANDMARKAD":"1000112","ADDRESS":" ","TEL":" ","COUNTYNAME":"新北市","TOWNNAME":"瑞芳區","MARKTYPE":"993","Class":"303"},"geometry":{"x":121.82714150085447,"y":25.121813538536529}},{"attributes":{"OBJECTID":4006,"LANDMARKID":"1000100001304","LANDMARKCO":"303","LANDMARKNA":"九號停車場","LANDMARKAD":"1000112","ADDRESS":" ","TEL":" ","COUNTYNAME":"新北市","TOWNNAME":"瑞芳區","MARKTYPE":"993","Class":"303"},"geometry":{"x":121.83446479885691,"y":25.111670735468582}},{"attributes":{"OBJECTID":4007,"LANDMARKID":"1000100001305","LANDMARKCO":"303","LANDMARKNA":"金山寺停車場","LANDMARKAD":"1000112","ADDRESS":" ","TEL":" ","COUNTYNAME":"新北市","TOWNNAME":"瑞芳區","MARKTYPE":"993","Class":"303"},"geometry":{"x":121.83807113429262,"y":25.111065248227384}},{"attributes":{"OBJECTID":4008,"LANDMARKID":"1000100001306","LANDMARKCO":"303","LANDMARKNA":"大竿林橋停車場","LANDMARKAD":"1000112","ADDRESS":" ","TEL":" ","COUNTYNAME":"新北市","TOWNNAME":"瑞芳區","MARKTYPE":"993","Class":"303"},"geometry":{"x":121.8427409857962,"y":25.109789997517904}},{"attributes":{"OBJECTID":4009,"LANDMARKID":"1000100001307","LANDMARKCO":"303","LANDMARKNA":"台陽停車場","LANDMARKAD":"1000112","ADDRESS":"新北市瑞芳區坑尾巷","TEL":" ","COUNTYNAME":"新北市","TOWNNAME":"瑞芳區","MARKTYPE":"993","Class":"303"},"geometry":{"x":121.84361432079083,"y":25.110545414138251}},{"attributes":{"OBJECTID":4010,"LANDMARKID":"1000100001308","LANDMARKCO":"303","LANDMARKNA":"基山街停車場","LANDMARKAD":"1000112","ADDRESS":"新北市瑞芳區汽車路30號","TEL":" ","COUNTYNAME":"新北市","TOWNNAME":"瑞芳區","MARKTYPE":"993","Class":"303"},"geometry":{"x":121.84527640612099,"y":25.110731406254864}},{"attributes":{"OBJECTID":4011,"LANDMARKID":"1000100001309","LANDMARKCO":"303","LANDMARKNA":"土地公坪停車場","LANDMARKAD":"1000112","ADDRESS":" ","TEL":" ","COUNTYNAME":"新北市","TOWNNAME":"瑞芳區","MARKTYPE":"993","Class":"303"},"geometry":{"x":121.84694723316139,"y":25.106827011321585}},{"attributes":{"OBJECTID":4012,"LANDMARKID":"1000100001310","LANDMARKCO":"303","LANDMARKNA":"基隆山登山步道口停車場","LANDMARKAD":"1000112","ADDRESS":" ","TEL":" ","COUNTYNAME":"新北市","TOWNNAME":"瑞芳區","MARKTYPE":"993","Class":"303"},"geometry":{"x":121.84771654319549,"y":25.112015275062681}},{"attributes":{"OBJECTID":4013,"LANDMARKID":"1000100001311","LANDMARKCO":"303","LANDMARKNA":"金光停車場","LANDMARKAD":"1000112","ADDRESS":"瑞芳區金光路","TEL":" ","COUNTYNAME":"新北市","TOWNNAME":"瑞芳區","MARKTYPE":"993","Class":"303"},"geometry":{"x":121.85556258081283,"y":25.108704059154221}},{"attributes":{"OBJECTID":4014,"LANDMARKID":"1000100001312","LANDMARKCO":"303","LANDMARKNA":"站頂停車場","LANDMARKAD":"1000112","ADDRESS":" ","TEL":" ","COUNTYNAME":"新北市","TOWNNAME":"瑞芳區","MARKTYPE":"993","Class":"303"},"geometry":{"x":121.85630990196059,"y":25.108125745256832}},{"attributes":{"OBJECTID":4015,"LANDMARKID":"1000100001313","LANDMARKCO":"303","LANDMARKNA":"黃金博物園區停車場","LANDMARKAD":"1000112","ADDRESS":"新北市瑞芳區金光路51-1號","TEL":" ","COUNTYNAME":"新北市","TOWNNAME":"瑞芳區","MARKTYPE":"993","Class":"303"},"geometry":{"x":121.8576268223303,"y":25.109130019213293}},{"attributes":{"OBJECTID":4016,"LANDMARKID":"1000100001314","LANDMARKCO":"303","LANDMARKNA":"水湳洞停車場","LANDMARKAD":"1000112","ADDRESS":"新北市瑞芳區北部濱海公路旁","TEL":" ","COUNTYNAME":"新北市","TOWNNAME":"瑞芳區","MARKTYPE":"993","Class":"303"},"geometry":{"x":121.86992846107132,"y":25.123434832279148}},{"attributes":{"OBJECTID":4017,"LANDMARKID":"1000100001315","LANDMARKCO":"303","LANDMARKNA":"南港漁港旁停車場","LANDMARKAD":"1000112","ADDRESS":"新北市瑞芳區","TEL":" ","COUNTYNAME":"新北市","TOWNNAME":"瑞芳區","MARKTYPE":"993","Class":"303"},"geometry":{"x":121.88651648043451,"y":25.121885284142017}},{"attributes":{"OBJECTID":4018,"LANDMARKID":"1000100001316","LANDMARKCO":"303","LANDMARKNA":"南雅停車場","LANDMARKAD":"1000112","ADDRESS":"新北市瑞芳區","TEL":" ","COUNTYNAME":"新北市","TOWNNAME":"瑞芳區","MARKTYPE":"993","Class":"303"},"geometry":{"x":121.89648850423094,"y":25.119531382442709}},{"attributes":{"OBJECTID":4019,"LANDMARKID":"1000100001317","LANDMARKCO":"303","LANDMARKNA":"鼻頭港服務區停車場","LANDMARKAD":"1000112","ADDRESS":"新北市瑞芳區鼻頭路","TEL":" ","COUNTYNAME":"新北市","TOWNNAME":"瑞芳區","MARKTYPE":"993","Class":"303"},"geometry":{"x":121.91229640342789,"y":25.123708636248239}},{"attributes":{"OBJECTID":4020,"LANDMARKID":"1000100001318","LANDMARKCO":"303","LANDMARKNA":"台陽停車場","LANDMARKAD":"1000112","ADDRESS":"新北市瑞芳區","TEL":" ","COUNTYNAME":"新北市","TOWNNAME":"瑞芳區","MARKTYPE":"993","Class":"303"},"geometry":{"x":121.84299296263889,"y":25.109774476704249}},{"attributes":{"OBJECTID":4021,"LANDMARKID":"1000100001319","LANDMARKCO":"303","LANDMARKNA":"瑞雙停車場","LANDMARKAD":"1000112","ADDRESS":"新北市瑞芳區","TEL":" ","COUNTYNAME":"新北市","TOWNNAME":"瑞芳區","MARKTYPE":"993","Class":"303"},"geometry":{"x":121.84711551950866,"y":25.106047388292954}},{"attributes":{"OBJECTID":4022,"LANDMARKID":"1000100001320","LANDMARKCO":"303","LANDMARKNA":"九份停車場","LANDMARKAD":"1000112","ADDRESS":"新北市瑞芳區","TEL":" ","COUNTYNAME":"新北市","TOWNNAME":"瑞芳區","MARKTYPE":"993","Class":"303"},"geometry":{"x":121.8483033677215,"y":25.111737894757685}},{"attributes":{"OBJECTID":4023,"LANDMARKID":"1000100001321","LANDMARKCO":"303","LANDMARKNA":"東北角海岸停車場","LANDMARKAD":"1000112","ADDRESS":"新北市瑞芳區","TEL":" ","COUNTYNAME":"新北市","TOWNNAME":"瑞芳區","MARKTYPE":"993","Class":"303"},"geometry":{"x":121.84436186429456,"y":25.126832775894634}},{"attributes":{"OBJECTID":4024,"LANDMARKID":"1000100001322","LANDMARKCO":"303","LANDMARKNA":"火車站前地下停車場","LANDMARKAD":"1000112","ADDRESS":"新北市瑞芳區龍興里明燈路","TEL":" ","COUNTYNAME":"新北市","TOWNNAME":"瑞芳區","MARKTYPE":"993","Class":"303"},"geometry":{"x":121.80596741386971,"y":25.108282716986814}},{"attributes":{"OBJECTID":4025,"LANDMARKID":"1000100001323","LANDMARKCO":"303","LANDMARKNA":"市一立體停車場","LANDMARKAD":"1000112","ADDRESS":"新北市瑞芳區龍興里明燈路","TEL":" ","COUNTYNAME":"新北市","TOWNNAME":"瑞芳區","MARKTYPE":"993","Class":"303"},"geometry":{"x":121.81377993200273,"y":25.108506073303108}},{"attributes":{"OBJECTID":4026,"LANDMARKID":"1000100001324","LANDMARKCO":"303","LANDMARKNA":"吉安社區停車場","LANDMARKAD":"1000112","ADDRESS":"新北市瑞芳區吉安里大埔路","TEL":" ","COUNTYNAME":"新北市","TOWNNAME":"瑞芳區","MARKTYPE":"993","Class":"303"},"geometry":{"x":121.76170149061096,"y":25.100295825557367}},{"attributes":{"OBJECTID":4027,"LANDMARKID":"1000100001325","LANDMARKCO":"303","LANDMARKNA":"瑞濱浴場停車場","LANDMARKAD":"1000112","ADDRESS":"新北市瑞芳區瑞濱里瑞濱路","TEL":" ","COUNTYNAME":"新北市","TOWNNAME":"瑞芳區","MARKTYPE":"993","Class":"303"},"geometry":{"x":121.82300298065228,"y":25.121286451990038}},{"attributes":{"OBJECTID":4028,"LANDMARKID":"1000100001326","LANDMARKCO":"303","LANDMARKNA":"隔頂停車場","LANDMARKAD":"1000112","ADDRESS":"新北市瑞芳區基山里汽車路","TEL":" ","COUNTYNAME":"新北市","TOWNNAME":"瑞芳區","MARKTYPE":"993","Class":"303"},"geometry":{"x":121.81751394546701,"y":25.12846314248203}},{"attributes":{"OBJECTID":4029,"LANDMARKID":"1000100000930","LANDMARKCO":"301","LANDMARKNA":"四腳亭火車站","LANDMARKAD":"1000112","ADDRESS":"新北市瑞芳區吉慶里中央路65號","TEL":"02-24579346","COUNTYNAME":"新北市","TOWNNAME":"瑞芳區","MARKTYPE":"993","Class":"301"},"geometry":{"x":121.76173577613106,"y":25.102674228297346}},{"attributes":{"OBJECTID":4030,"LANDMARKID":"1000100000931","LANDMARKCO":"301","LANDMARKNA":"候硐火車站","LANDMARKAD":"1000112","ADDRESS":"新北市瑞芳區光復里柴寮路70號","TEL":"02-24977747","COUNTYNAME":"新北市","TOWNNAME":"瑞芳區","MARKTYPE":"993","Class":"301"},"geometry":{"x":121.82743972652716,"y":25.087112078507491}},{"attributes":{"OBJECTID":4031,"LANDMARKID":"1000100000932","LANDMARKCO":"301","LANDMARKNA":"瑞芳火車站","LANDMARKAD":"1000112","ADDRESS":"新北市瑞芳區龍潭里明燈路三段82號","TEL":"02-24972033","COUNTYNAME":"新北市","TOWNNAME":"瑞芳區","MARKTYPE":"993","Class":"301"},"geometry":{"x":121.80591588450076,"y":25.108881576151877}},{"attributes":{"OBJECTID":4032,"LANDMARKID":"1000100000933","LANDMARKCO":"301","LANDMARKNA":"三貂嶺火車站","LANDMARKAD":"1000112","ADDRESS":"新北市瑞芳區碩仁里魚寮路1號","TEL":"02-24977896","COUNTYNAME":"新北市","TOWNNAME":"瑞芳區","MARKTYPE":"993","Class":"301"},"geometry":{"x":121.82222340697054,"y":25.066046005474913}},{"attributes":{"OBJECTID":4033,"LANDMARKID":"1000100002854","LANDMARKCO":"603","LANDMARKNA":"悅賓大旅社","LANDMARKAD":"1000112","ADDRESS":"新北市瑞芳區一坑路18號","TEL":"02-24972239","COUNTYNAME":"新北市","TOWNNAME":"瑞芳區","MARKTYPE":"996","Class":"6"},"geometry":{"x":121.80470238426491,"y":25.108697647275431}},{"attributes":{"OBJECTID":4034,"LANDMARKID":"1000100002855","LANDMARKCO":"603","LANDMARKNA":"清芳旅社","LANDMARKAD":"1000112","ADDRESS":"新北市瑞芳區民生街30巷14號","TEL":"02-24972075","COUNTYNAME":"新北市","TOWNNAME":"瑞芳區","MARKTYPE":"996","Class":"6"},"geometry":{"x":121.80534238882895,"y":25.10729417330715}},{"attributes":{"OBJECTID":4035,"LANDMARKID":"1000100002950","LANDMARKCO":"604","LANDMARKNA":"悅山海民宿","LANDMARKAD":"1000112","ADDRESS":"新北市瑞芳區崙頂路103號","TEL":"02-24976328","COUNTYNAME":"新北市","TOWNNAME":"瑞芳區","MARKTYPE":"996","Class":"6"},"geometry":{"x":121.8446134598092,"y":25.107078117546358}},{"attributes":{"OBJECTID":4036,"LANDMARKID":"1000100002951","LANDMARKCO":"604","LANDMARKNA":"九份民宿-龍門客棧","LANDMARKAD":"1000112","ADDRESS":"新北市瑞芳區崙頂路110號","TEL":"02-24966036","COUNTYNAME":"新北市","TOWNNAME":"瑞芳區","MARKTYPE":"996","Class":"6"},"geometry":{"x":121.84414931131539,"y":25.107202968245311}},{"attributes":{"OBJECTID":4037,"LANDMARKID":"1000100002952","LANDMARKCO":"604","LANDMARKNA":"九份A-HOME民宿","LANDMARKAD":"1000112","ADDRESS":"新北市瑞芳區崙頂路55號","TEL":"02-24969454","COUNTYNAME":"新北市","TOWNNAME":"瑞芳區","MARKTYPE":"996","Class":"6"},"geometry":{"x":121.84386567748518,"y":25.107402582673529}},{"attributes":{"OBJECTID":4038,"LANDMARKID":"1000100002953","LANDMARKCO":"604","LANDMARKNA":"利未莊園民宿","LANDMARKAD":"1000112","ADDRESS":"新北市瑞芳區山尖路97號","TEL":"02-24961658","COUNTYNAME":"新北市","TOWNNAME":"瑞芳區","MARKTYPE":"996","Class":"6"},"geometry":{"x":121.85389131882162,"y":25.114078670472171}},{"attributes":{"OBJECTID":4039,"LANDMARKID":"1000100002954","LANDMARKCO":"604","LANDMARKNA":"金瓜石藝棧民宿","LANDMARKAD":"1000112","ADDRESS":"新北市瑞芳區山尖路2號","TEL":"02-24961010","COUNTYNAME":"新北市","TOWNNAME":"瑞芳區","MARKTYPE":"996","Class":"6"},"geometry":{"x":121.85444390746898,"y":25.115601486496427}},{"attributes":{"OBJECTID":4040,"LANDMARKID":"1000100002955","LANDMARKCO":"604","LANDMARKNA":"石山水禪民宿","LANDMARKAD":"1000112","ADDRESS":"新北市瑞芳區山尖路54號","TEL":"02-24961096","COUNTYNAME":"新北市","TOWNNAME":"瑞芳區","MARKTYPE":"996","Class":"6"},"geometry":{"x":121.85425194987687,"y":25.115032592981191}},{"attributes":{"OBJECTID":4041,"LANDMARKID":"1000100002956","LANDMARKCO":"604","LANDMARKNA":"阿婆民宿","LANDMARKAD":"1000112","ADDRESS":"新北市瑞芳區輕便路121號","TEL":"02-24960773","COUNTYNAME":"新北市","TOWNNAME":"瑞芳區","MARKTYPE":"996","Class":"6"},"geometry":{"x":121.84388688179314,"y":25.109044460626826}},{"attributes":{"OBJECTID":4042,"LANDMARKID":"1000100002957","LANDMARKCO":"604","LANDMARKNA":"雲山水民宿","LANDMARKAD":"1000112","ADDRESS":"新北市瑞芳區山尖路93之1號","TEL":"02-24962201","COUNTYNAME":"新北市","TOWNNAME":"瑞芳區","MARKTYPE":"996","Class":"6"},"geometry":{"x":121.85457950754403,"y":25.114105705207798}},{"attributes":{"OBJECTID":4043,"LANDMARKID":"1000100002489","LANDMARKCO":"503","LANDMARKNA":"深澳岬角","LANDMARKAD":"1000112","ADDRESS":"新北市瑞芳區","TEL":" ","COUNTYNAME":"新北市","TOWNNAME":"瑞芳區","MARKTYPE":"995","Class":"5"},"geometry":{"x":121.82591269245673,"y":25.135470049831984}},{"attributes":{"OBJECTID":4044,"LANDMARKID":"1000100002490","LANDMARKCO":"503","LANDMARKNA":"九份風景區","LANDMARKAD":"1000112","ADDRESS":"新北市瑞芳區","TEL":" ","COUNTYNAME":"新北市","TOWNNAME":"瑞芳區","MARKTYPE":"995","Class":"5"},"geometry":{"x":121.84501166266175,"y":25.110013885495935}},{"attributes":{"OBJECTID":4045,"LANDMARKID":"1000100002491","LANDMARKCO":"503","LANDMARKNA":"本山五坑","LANDMARKAD":"1000112","ADDRESS":"新北市瑞芳區","TEL":" ","COUNTYNAME":"新北市","TOWNNAME":"瑞芳區","MARKTYPE":"995","Class":"5"},"geometry":{"x":121.85896621620371,"y":25.106588434604571}},{"attributes":{"OBJECTID":4046,"LANDMARKID":"1000100002492","LANDMARKCO":"503","LANDMARKNA":"水湳洞","LANDMARKAD":"1000112","ADDRESS":"新北市瑞芳區","TEL":" ","COUNTYNAME":"新北市","TOWNNAME":"瑞芳區","MARKTYPE":"995","Class":"5"},"geometry":{"x":121.86094355216059,"y":25.123017498590073}},{"attributes":{"OBJECTID":4047,"LANDMARKID":"1000100002493","LANDMARKCO":"503","LANDMARKNA":"鼻頭角海岸","LANDMARKAD":"1000112","ADDRESS":"新北市瑞芳區","TEL":" ","COUNTYNAME":"新北市","TOWNNAME":"瑞芳區","MARKTYPE":"995","Class":"5"},"geometry":{"x":121.92004145160841,"y":25.127731505248587}},{"attributes":{"OBJECTID":4048,"LANDMARKID":"1000100002494","LANDMARKCO":"503","LANDMARKNA":"鼻頭角燈塔","LANDMARKAD":"1000112","ADDRESS":"新北市瑞芳區","TEL":" ","COUNTYNAME":"新北市","TOWNNAME":"瑞芳區","MARKTYPE":"995","Class":"5"},"geometry":{"x":121.92332389720484,"y":25.128570383820119}},{"attributes":{"OBJECTID":4049,"LANDMARKID":"1000100002495","LANDMARKCO":"503","LANDMARKNA":"陰陽海","LANDMARKAD":"1000112","ADDRESS":"新北市瑞芳區","TEL":" ","COUNTYNAME":"新北市","TOWNNAME":"瑞芳區","MARKTYPE":"995","Class":"5"},"geometry":{"x":121.86372717976211,"y":25.122657310048073}},{"attributes":{"OBJECTID":4050,"LANDMARKID":"1000100002718","LANDMARKCO":"511","LANDMARKNA":"九份形象商圈","LANDMARKAD":"1000112","ADDRESS":"新北市瑞芳區","TEL":" ","COUNTYNAME":"新北市","TOWNNAME":"瑞芳區","MARKTYPE":"995","Class":"5"},"geometry":{"x":121.84566621428182,"y":25.110673980602503}},{"attributes":{"OBJECTID":4051,"LANDMARKID":"1000100002487","LANDMARKCO":"503","LANDMARKNA":"瑞芳風景特定區","LANDMARKAD":"1000112","ADDRESS":"新北市瑞芳區","TEL":" ","COUNTYNAME":"新北市","TOWNNAME":"瑞芳區","MARKTYPE":"995","Class":"5"},"geometry":{"x":121.86325681162432,"y":25.121526528120437}},{"attributes":{"OBJECTID":4052,"LANDMARKID":"1000100002488","LANDMARKCO":"503","LANDMARKNA":"鼻頭服務區","LANDMARKAD":"1000112","ADDRESS":"新北市瑞芳區","TEL":" ","COUNTYNAME":"新北市","TOWNNAME":"瑞芳區","MARKTYPE":"995","Class":"5"},"geometry":{"x":121.91286095374579,"y":25.124091435059018}},{"attributes":{"OBJECTID":4053,"LANDMARKID":"1000100002475","LANDMARKCO":"410","LANDMARKNA":"黃金博物園區","LANDMARKAD":"1000112","ADDRESS":"新北市瑞芳區","TEL":" ","COUNTYNAME":"新北市","TOWNNAME":"瑞芳區","MARKTYPE":"994","Class":"4"},"geometry":{"x":121.85787456076096,"y":25.107785645071537}},{"attributes":{"OBJECTID":4054,"LANDMARKID":"1000100001954","LANDMARKCO":"405","LANDMARKNA":"中油加油站-蘆洲中山二路站(刷卡自助)(中油直營)","LANDMARKAD":"1000114","ADDRESS":"新北市蘆洲區中山二路309號","TEL":"02-22859867","COUNTYNAME":"新北市","TOWNNAME":"蘆洲區","MARKTYPE":"994","Class":"4"},"geometry":{"x":121.46897841049376,"y":25.07728033344668}},{"attributes":{"OBJECTID":4055,"LANDMARKID":"1000100001955","LANDMARKCO":"405","LANDMARKNA":"中油加油站-北基蘆洲站","LANDMARKAD":"1000114","ADDRESS":"新北市蘆洲區中山一路310號","TEL":"02-22812383","COUNTYNAME":"新北市","TOWNNAME":"蘆洲區","MARKTYPE":"994","Class":"4"},"geometry":{"x":121.46946040602008,"y":25.077466990398261}},{"attributes":{"OBJECTID":4056,"LANDMARKID":"1000100001956","LANDMARKCO":"405","LANDMARKNA":"中油加油站-蘆洲站(中油直營)","LANDMARKAD":"1000114","ADDRESS":"新北市蘆洲區三民路99號","TEL":"02-22812333","COUNTYNAME":"新北市","TOWNNAME":"蘆洲區","MARKTYPE":"994","Class":"4"},"geometry":{"x":121.47341660904492,"y":25.085172607616414}},{"attributes":{"OBJECTID":4057,"LANDMARKID":"1000100001957","LANDMARKCO":"405","LANDMARKNA":"中油加油站-蘆洲三民路站(中油直營)","LANDMARKAD":"1000114","ADDRESS":"新北市蘆洲區三民路550號","TEL":"02-22890485","COUNTYNAME":"新北市","TOWNNAME":"蘆洲區","MARKTYPE":"994","Class":"4"},"geometry":{"x":121.46157671153202,"y":25.093455612037445}},{"attributes":{"OBJECTID":4058,"LANDMARKID":"1000100001838","LANDMARKCO":"402","LANDMARKNA":"亞太行動寬頻電信-蘆洲九芎加盟服務中心","LANDMARKAD":"1000114","ADDRESS":"新北市蘆洲區九芎街107號","TEL":"02-22824422","COUNTYNAME":"新北市","TOWNNAME":"蘆洲區","MARKTYPE":"994","Class":"4"},"geometry":{"x":121.46580933694933,"y":25.079718495618618}},{"attributes":{"OBJECTID":4059,"LANDMARKID":"1000100001839","LANDMARKCO":"402","LANDMARKNA":"亞太行動寬頻電信-蘆洲光華加盟服務中心","LANDMARKAD":"1000114","ADDRESS":"新北市蘆洲區光華路19號","TEL":"02-22883833","COUNTYNAME":"新北市","TOWNNAME":"蘆洲區","MARKTYPE":"994","Class":"4"},"geometry":{"x":121.4696128011566,"y":25.083287124291051}},{"attributes":{"OBJECTID":4060,"LANDMARKID":"1000100001840","LANDMARKCO":"402","LANDMARKNA":"亞太行動寬頻電信-蘆洲中山加盟服務中心","LANDMARKAD":"1000114","ADDRESS":"新北市蘆洲區中山一路44號","TEL":"02-28488838","COUNTYNAME":"新北市","TOWNNAME":"蘆洲區","MARKTYPE":"994","Class":"4"},"geometry":{"x":121.47945867311915,"y":25.080957592789378}},{"attributes":{"OBJECTID":4061,"LANDMARKID":"1000100001841","LANDMARKCO":"402","LANDMARKNA":"亞太行動寬頻電信-蘆洲民族加盟服務中心","LANDMARKAD":"1000114","ADDRESS":"新北市蘆洲區民族路174號","TEL":"02-22824888","COUNTYNAME":"新北市","TOWNNAME":"蘆洲區","MARKTYPE":"994","Class":"4"},"geometry":{"x":121.47986768119421,"y":25.086606525158153}},{"attributes":{"OBJECTID":4062,"LANDMARKID":"1000100001580","LANDMARKCO":"401","LANDMARKNA":"全民醫院","LANDMARKAD":"1000114","ADDRESS":"新北市蘆洲區三民路7號","TEL":"02-22821575","COUNTYNAME":"新北市","TOWNNAME":"蘆洲區","MARKTYPE":"994","Class":"4"},"geometry":{"x":121.47573986110871,"y":25.082065023278837}},{"attributes":{"OBJECTID":4063,"LANDMARKID":"1000100002590","LANDMARKCO":"507","LANDMARKNA":"蘆洲李宅","LANDMARKAD":"1000114","ADDRESS":"新北市蘆洲區中原村中正路243巷11號","TEL":"02-22810375","COUNTYNAME":"新北市","TOWNNAME":"蘆洲區","MARKTYPE":"995","Class":"5"},"geometry":{"x":121.46346762103862,"y":25.085572917232337}},{"attributes":{"OBJECTID":4064,"LANDMARKID":"1000100002405","LANDMARKCO":"408","LANDMARKNA":"郵局-蘆洲郵局","LANDMARKAD":"1000114","ADDRESS":"新北市蘆洲區中山一路161號","TEL":"(02)2282-1162-","COUNTYNAME":"新北市","TOWNNAME":"蘆洲區","MARKTYPE":"994","Class":"4"},"geometry":{"x":121.47547765877867,"y":25.081488938390063}},{"attributes":{"OBJECTID":4065,"LANDMARKID":"1000100002406","LANDMARKCO":"408","LANDMARKNA":"郵局-蘆洲空大郵局","LANDMARKAD":"1000114","ADDRESS":"新北市蘆洲區中正路172號(國立空中大學內)","TEL":"(02)2281-5284","COUNTYNAME":"新北市","TOWNNAME":"蘆洲區","MARKTYPE":"994","Class":"4"},"geometry":{"x":121.46804263131905,"y":25.08686342094521}},{"attributes":{"OBJECTID":4066,"LANDMARKID":"1000100002407","LANDMARKCO":"408","LANDMARKNA":"郵局-蘆洲中山路郵局","LANDMARKAD":"1000114","ADDRESS":"新北市蘆洲區中山一路37號","TEL":"(02)2281-7374","COUNTYNAME":"新北市","TOWNNAME":"蘆洲區","MARKTYPE":"994","Class":"4"},"geometry":{"x":121.47897175076265,"y":25.080807297376264}},{"attributes":{"OBJECTID":4067,"LANDMARKID":"1000100002408","LANDMARKCO":"408","LANDMARKNA":"郵局-蘆洲光華路郵局","LANDMARKAD":"1000114","ADDRESS":"新北市蘆洲區光華路108號","TEL":"(02)2281-5221","COUNTYNAME":"新北市","TOWNNAME":"蘆洲區","MARKTYPE":"994","Class":"4"},"geometry":{"x":121.46726879218075,"y":25.082706367768765}},{"attributes":{"OBJECTID":4068,"LANDMARKID":"1000100002409","LANDMARKCO":"408","LANDMARKNA":"郵局-蘆洲中原路郵局","LANDMARKAD":"1000114","ADDRESS":"新北市蘆洲區長安街225號","TEL":"(02)2285-3560","COUNTYNAME":"新北市","TOWNNAME":"蘆洲區","MARKTYPE":"994","Class":"4"},"geometry":{"x":121.45941620792752,"y":25.082557894832419}},{"attributes":{"OBJECTID":4069,"LANDMARKID":"1000100002410","LANDMARKCO":"408","LANDMARKNA":"郵局-蘆洲民族路郵局","LANDMARKAD":"1000114","ADDRESS":"新北市蘆洲區民族路271號1樓","TEL":"(02)2288-6362","COUNTYNAME":"新北市","TOWNNAME":"蘆洲區","MARKTYPE":"994","Class":"4"},"geometry":{"x":121.47597286378566,"y":25.090721496732371}},{"attributes":{"OBJECTID":4070,"LANDMARKID":"1000100002457","LANDMARKCO":"409","LANDMARKNA":"新北市蘆洲區農會","LANDMARKAD":"1000114","ADDRESS":"新北市蘆洲區中山一路129號","TEL":"02-82820777","COUNTYNAME":"新北市","TOWNNAME":"蘆洲區","MARKTYPE":"994","Class":"4"},"geometry":{"x":121.47550003867673,"y":25.08139241064622}},{"attributes":{"OBJECTID":4071,"LANDMARKID":"1000100001880","LANDMARKCO":"404","LANDMARKNA":"台灣自來水蘆洲服務所","LANDMARKAD":"1000114","ADDRESS":"新北市蘆洲區中原路68號","TEL":"02-22821817","COUNTYNAME":"新北市","TOWNNAME":"蘆洲區","MARKTYPE":"994","Class":"4"},"geometry":{"x":121.45853609695419,"y":25.082124994890108}},{"attributes":{"OBJECTID":4072,"LANDMARKID":"1000100001881","LANDMARKCO":"404","LANDMARKNA":"台灣省自來水蘆洲服務所","LANDMARKAD":"1000114","ADDRESS":"新北市蘆洲區中原路68號","TEL":" ","COUNTYNAME":"新北市","TOWNNAME":"蘆洲區","MARKTYPE":"994","Class":"4"},"geometry":{"x":121.45813568650075,"y":25.081886471437549}},{"attributes":{"OBJECTID":4073,"LANDMARKID":"1000100002230","LANDMARKCO":"406","LANDMARKNA":"三民公園","LANDMARKAD":"1000114","ADDRESS":"新北市蘆洲區","TEL":" ","COUNTYNAME":"新北市","TOWNNAME":"蘆洲區","MARKTYPE":"994","Class":"4"},"geometry":{"x":121.45991455997947,"y":25.093899192152694}},{"attributes":{"OBJECTID":4074,"LANDMARKID":"1000100001944","LANDMARKCO":"405","LANDMARKNA":"全國加油站-蘆洲站（台塑）","LANDMARKAD":"1000114","ADDRESS":"新北市蘆洲區中山一路417號","TEL":"02-28486369","COUNTYNAME":"新北市","TOWNNAME":"蘆洲區","MARKTYPE":"994","Class":"4"},"geometry":{"x":121.4687418792119,"y":25.07653901188743}},{"attributes":{"OBJECTID":4075,"LANDMARKID":"1000100000415","LANDMARKCO":"108","LANDMARKNA":"新北市蘆洲區公所","LANDMARKAD":"1000114","ADDRESS":"新北市蘆洲區三民路95號","TEL":"02-22811484","COUNTYNAME":"新北市","TOWNNAME":"蘆洲區","MARKTYPE":"991","Class":"1"},"geometry":{"x":121.47375395232686,"y":25.084804513363913}},{"attributes":{"OBJECTID":4076,"LANDMARKID":"1000100000097","LANDMARKCO":"103","LANDMARKNA":"新北市蘆洲區市民代表會","LANDMARKAD":"1000114","ADDRESS":"新北市蘆洲區三民路95號6樓","TEL":"02-22816235","COUNTYNAME":"新北市","TOWNNAME":"蘆洲區","MARKTYPE":"991","Class":"1"},"geometry":{"x":121.47375395232686,"y":25.084804513363913}},{"attributes":{"OBJECTID":4077,"LANDMARKID":"1000100000319","LANDMARKCO":"107","LANDMARKNA":"新北市消防局新北市第三大隊部","LANDMARKAD":"1000114","ADDRESS":"新北市蘆洲區三民路607號","TEL":"02-28471230","COUNTYNAME":"新北市","TOWNNAME":"蘆洲區","MARKTYPE":"991","Class":"1"},"geometry":{"x":121.46042198124418,"y":25.09373566711135}},{"attributes":{"OBJECTID":4078,"LANDMARKID":"1000100000320","LANDMARKCO":"107","LANDMARKNA":"新北市消防局蘆洲分隊","LANDMARKAD":"1000114","ADDRESS":"新北市蘆洲區三民路607號","TEL":"02-22858100","COUNTYNAME":"新北市","TOWNNAME":"蘆洲區","MARKTYPE":"991","Class":"1"},"geometry":{"x":121.46042198124418,"y":25.09373566711135}},{"attributes":{"OBJECTID":4079,"LANDMARKID":"1000100000321","LANDMARKCO":"107","LANDMARKNA":"新北市消防局成功分隊","LANDMARKAD":"1000114","ADDRESS":"新北市蘆洲區中山二路94號","TEL":"02-22821119","COUNTYNAME":"新北市","TOWNNAME":"蘆洲區","MARKTYPE":"991","Class":"1"},"geometry":{"x":121.47267752462173,"y":25.081943122110381}},{"attributes":{"OBJECTID":4080,"LANDMARKID":"1000100000322","LANDMARKCO":"107","LANDMARKNA":"新北市政府警察局蘆洲分局","LANDMARKAD":"1000114","ADDRESS":"新北市蘆洲區南港里三民路609號","TEL":"02-22810555","COUNTYNAME":"新北市","TOWNNAME":"蘆洲區","MARKTYPE":"991","Class":"1"},"geometry":{"x":121.46027860198585,"y":25.093504856816786}},{"attributes":{"OBJECTID":4081,"LANDMARKID":"1000100000323","LANDMARKCO":"107","LANDMARKNA":"新北市政府警察局延平派出所","LANDMARKAD":"1000114","ADDRESS":"新北市蘆洲區忠義里長安街108巷2號","TEL":"02-82821991","COUNTYNAME":"新北市","TOWNNAME":"蘆洲區","MARKTYPE":"991","Class":"1"},"geometry":{"x":121.46142683958684,"y":25.08184113417289}},{"attributes":{"OBJECTID":4082,"LANDMARKID":"1000100000324","LANDMARKCO":"107","LANDMARKNA":"新北市政府警察局三民派出所","LANDMARKAD":"1000114","ADDRESS":"新北市蘆洲區南港里三民路609號","TEL":"02-22823775","COUNTYNAME":"新北市","TOWNNAME":"蘆洲區","MARKTYPE":"991","Class":"1"},"geometry":{"x":121.46027860198585,"y":25.093504856816786}},{"attributes":{"OBJECTID":4083,"LANDMARKID":"1000100000325","LANDMARKCO":"107","LANDMARKNA":"新北市政府警察局蘆洲派出所","LANDMARKAD":"1000114","ADDRESS":"新北市蘆洲區保和里中山二路92號","TEL":"02-22813358","COUNTYNAME":"新北市","TOWNNAME":"蘆洲區","MARKTYPE":"991","Class":"1"},"geometry":{"x":121.47274058372882,"y":25.081957053817586}},{"attributes":{"OBJECTID":4084,"LANDMARKID":"1000100000155","LANDMARKCO":"106","LANDMARKNA":"新北市蘆洲區戶政事務所","LANDMARKAD":"1000114","ADDRESS":"新北市蘆洲區集賢路245號8樓","TEL":"02-22818536","COUNTYNAME":"新北市","TOWNNAME":"蘆洲區","MARKTYPE":"991","Class":"1"},"geometry":{"x":121.48160806473963,"y":25.084808561491929}},{"attributes":{"OBJECTID":4085,"LANDMARKID":"1000100000904","LANDMARKCO":"205","LANDMARKNA":"紫禁城文物館","LANDMARKAD":"1000114","ADDRESS":"新北市蘆洲區得勝街30之1號","TEL":"02-82827504","COUNTYNAME":"新北市","TOWNNAME":"蘆洲區","MARKTYPE":"992","Class":"2"},"geometry":{"x":121.47361812666728,"y":25.084001755559836}},{"attributes":{"OBJECTID":4086,"LANDMARKID":"1000100000835","LANDMARKCO":"204","LANDMARKNA":"新北市立圖書館蘆洲分館","LANDMARKAD":"1000114","ADDRESS":"新北市蘆洲區信義路61號","TEL":" ","COUNTYNAME":"新北市","TOWNNAME":"蘆洲區","MARKTYPE":"992","Class":"2"},"geometry":{"x":121.47540524270963,"y":25.080403433154089}},{"attributes":{"OBJECTID":4087,"LANDMARKID":"1000100000836","LANDMARKCO":"204","LANDMARKNA":"新北市立圖書館長安分館","LANDMARKAD":"1000114","ADDRESS":"新北市蘆洲區長安街96號3樓","TEL":" ","COUNTYNAME":"新北市","TOWNNAME":"蘆洲區","MARKTYPE":"992","Class":"2"},"geometry":{"x":121.46159872072619,"y":25.080939798031682}},{"attributes":{"OBJECTID":4088,"LANDMARKID":"1000100000743","LANDMARKCO":"203","LANDMARKNA":"縣立鷺江國中","LANDMARKAD":"1000114","ADDRESS":"[247]新北市蘆洲區長樂路235號","TEL":"02-8285-313582","COUNTYNAME":"新北市","TOWNNAME":"蘆洲區","MARKTYPE":"992","Class":"2"},"geometry":{"x":121.46207342024283,"y":25.090382798202377}},{"attributes":{"OBJECTID":4089,"LANDMARKID":"1000100000466","LANDMARKCO":"202","LANDMARKNA":"縣立三民高中","LANDMARKAD":"1000114","ADDRESS":"新北市蘆洲區三民路96號","TEL":"02-22894675","COUNTYNAME":"新北市","TOWNNAME":"蘆洲區","MARKTYPE":"992","Class":"2"},"geometry":{"x":121.47232779495505,"y":25.086633764660178}},{"attributes":{"OBJECTID":4090,"LANDMARKID":"1000100000467","LANDMARKCO":"202","LANDMARKNA":"私立徐匯高中","LANDMARKAD":"1000114","ADDRESS":"新北市蘆洲區中山一路1號","TEL":"02-22817562","COUNTYNAME":"新北市","TOWNNAME":"蘆洲區","MARKTYPE":"992","Class":"2"},"geometry":{"x":121.47998433670742,"y":25.080260137408583}},{"attributes":{"OBJECTID":4091,"LANDMARKID":"1000100000738","LANDMARKCO":"203","LANDMARKNA":"縣立蘆洲國中","LANDMARKAD":"1000114","ADDRESS":"新北市蘆洲區中正路265號","TEL":"02-22823833","COUNTYNAME":"新北市","TOWNNAME":"蘆洲區","MARKTYPE":"992","Class":"2"},"geometry":{"x":121.46659714453874,"y":25.086948111981307}},{"attributes":{"OBJECTID":4092,"LANDMARKID":"1000100000739","LANDMARKCO":"203","LANDMARKNA":"縣立蘆洲國小","LANDMARKAD":"1000114","ADDRESS":"新北市蘆洲區中正路100號","TEL":"02-22816202","COUNTYNAME":"新北市","TOWNNAME":"蘆洲區","MARKTYPE":"992","Class":"2"},"geometry":{"x":121.47012059254384,"y":25.084388226668452}},{"attributes":{"OBJECTID":4093,"LANDMARKID":"1000100000740","LANDMARKCO":"203","LANDMARKNA":"縣立仁愛國小","LANDMARKAD":"1000114","ADDRESS":"新北市蘆洲區民族路488號","TEL":"02-22838815","COUNTYNAME":"新北市","TOWNNAME":"蘆洲區","MARKTYPE":"992","Class":"2"},"geometry":{"x":121.47100288437709,"y":25.091449624610394}},{"attributes":{"OBJECTID":4094,"LANDMARKID":"1000100000741","LANDMARKCO":"203","LANDMARKNA":"縣立鷺江國小","LANDMARKAD":"1000114","ADDRESS":"新北市蘆洲區民權路1號","TEL":"02-22819980","COUNTYNAME":"新北市","TOWNNAME":"蘆洲區","MARKTYPE":"992","Class":"2"},"geometry":{"x":121.47693473921258,"y":25.085329711209727}},{"attributes":{"OBJECTID":4095,"LANDMARKID":"1000100000742","LANDMARKCO":"203","LANDMARKNA":"縣立成功國小","LANDMARKAD":"1000114","ADDRESS":"新北市蘆洲區長安街311號","TEL":"02-22858998","COUNTYNAME":"新北市","TOWNNAME":"蘆洲區","MARKTYPE":"992","Class":"2"},"geometry":{"x":121.45746693028437,"y":25.085666765179496}},{"attributes":{"OBJECTID":4096,"LANDMARKID":"1000100000448","LANDMARKCO":"201","LANDMARKNA":"國立空中大學","LANDMARKAD":"1000114","ADDRESS":"新北市蘆洲區中正路172號","TEL":"02-22829355","COUNTYNAME":"新北市","TOWNNAME":"蘆洲區","MARKTYPE":"992","Class":"2"},"geometry":{"x":121.46804223545251,"y":25.086864902799459}},{"attributes":{"OBJECTID":4097,"LANDMARKID":"1000100000940","LANDMARKCO":"302","LANDMARKNA":"首都汽車客運分子尾站","LANDMARKAD":"1000114","ADDRESS":"新北市蘆洲區復興路232巷188號","TEL":" ","COUNTYNAME":"新北市","TOWNNAME":"蘆洲區","MARKTYPE":"993","Class":"302"},"geometry":{"x":121.48284748633415,"y":25.091095172291308}},{"attributes":{"OBJECTID":4098,"LANDMARKID":"1000100000941","LANDMARKCO":"302","LANDMARKNA":"三重汽車客運蘆洲站","LANDMARKAD":"1000114","ADDRESS":"新北市蘆洲區復興路355巷7號之7","TEL":" ","COUNTYNAME":"新北市","TOWNNAME":"蘆洲區","MARKTYPE":"993","Class":"302"},"geometry":{"x":121.48284748633415,"y":25.091095172291308}},{"attributes":{"OBJECTID":4099,"LANDMARKID":"1000100001405","LANDMARKCO":"303","LANDMARKNA":"長安市場停車場","LANDMARKAD":"1000114","ADDRESS":"新北市蘆洲區長安街100號","TEL":"02-22811484","COUNTYNAME":"新北市","TOWNNAME":"蘆洲區","MARKTYPE":"993","Class":"303"},"geometry":{"x":121.46145383196004,"y":25.081044033781613}},{"attributes":{"OBJECTID":4100,"LANDMARKID":"1000100001406","LANDMARKCO":"303","LANDMARKNA":"仁愛停一停車場","LANDMARKAD":"1000114","ADDRESS":" ","TEL":" ","COUNTYNAME":"新北市","TOWNNAME":"蘆洲區","MARKTYPE":"993","Class":"303"},"geometry":{"x":121.47119375756098,"y":25.090967280460635}},{"attributes":{"OBJECTID":4101,"LANDMARKID":"1000100001407","LANDMARKCO":"303","LANDMARKNA":"中山立體停車場(W3)","LANDMARKAD":"1000114","ADDRESS":" ","TEL":" ","COUNTYNAME":"新北市","TOWNNAME":"蘆洲區","MARKTYPE":"993","Class":"303"},"geometry":{"x":121.47313681875552,"y":25.083451175800977}},{"attributes":{"OBJECTID":4102,"LANDMARKID":"1000100001408","LANDMARKCO":"303","LANDMARKNA":"蘆洲拖吊停車場","LANDMARKAD":"1000114","ADDRESS":" ","TEL":"02-22855463","COUNTYNAME":"新北市","TOWNNAME":"蘆洲區","MARKTYPE":"993","Class":"303"},"geometry":{"x":121.4772677963291,"y":25.085422196543728}},{"attributes":{"OBJECTID":4103,"LANDMARKID":"1000100001409","LANDMARKCO":"303","LANDMARKNA":"長安廣場地下停車場","LANDMARKAD":"1000114","ADDRESS":"新北市蘆洲區長安路","TEL":" ","COUNTYNAME":"新北市","TOWNNAME":"蘆洲區","MARKTYPE":"993","Class":"303"},"geometry":{"x":121.45820543049182,"y":25.085041230472921}},{"attributes":{"OBJECTID":4104,"LANDMARKID":"1000100001410","LANDMARKCO":"303","LANDMARKNA":"忠義臨時停車場","LANDMARKAD":"1000114","ADDRESS":"新北市蘆洲區長安街134號","TEL":" ","COUNTYNAME":"新北市","TOWNNAME":"蘆洲區","MARKTYPE":"993","Class":"303"},"geometry":{"x":121.45733441130496,"y":25.084013138339106}},{"attributes":{"OBJECTID":4105,"LANDMARKID":"1000100001411","LANDMARKCO":"303","LANDMARKNA":"停四立體停車場","LANDMARKAD":"1000114","ADDRESS":"新北市蘆洲區仁復里三民路","TEL":" ","COUNTYNAME":"新北市","TOWNNAME":"蘆洲區","MARKTYPE":"993","Class":"303"},"geometry":{"x":121.47242884369348,"y":25.086084796637635}},{"attributes":{"OBJECTID":4106,"LANDMARKID":"1000100001412","LANDMARKCO":"303","LANDMARKNA":"蘆洲停車場","LANDMARKAD":"1000114","ADDRESS":"新北市蘆洲區","TEL":" ","COUNTYNAME":"新北市","TOWNNAME":"蘆洲區","MARKTYPE":"993","Class":"303"},"geometry":{"x":121.46573169601247,"y":25.089172067973763}},{"attributes":{"OBJECTID":4107,"LANDMARKID":"1000100001413","LANDMARKCO":"303","LANDMARKNA":"三民停三停車場","LANDMARKAD":"1000114","ADDRESS":"新北市蘆洲區三民路","TEL":" ","COUNTYNAME":"新北市","TOWNNAME":"蘆洲區","MARKTYPE":"993","Class":"303"},"geometry":{"x":121.46519638419102,"y":25.091110490089989}},{"attributes":{"OBJECTID":4108,"LANDMARKID":"1000100001414","LANDMARKCO":"303","LANDMARKNA":"中山立體停車場","LANDMARKAD":"1000114","ADDRESS":"新北市蘆洲區三民路63號","TEL":" ","COUNTYNAME":"新北市","TOWNNAME":"蘆洲區","MARKTYPE":"993","Class":"303"},"geometry":{"x":121.47497194926913,"y":25.084484704801667}},{"attributes":{"OBJECTID":4109,"LANDMARKID":"1000100001415","LANDMARKCO":"303","LANDMARKNA":"仁愛停車場","LANDMARKAD":"1000114","ADDRESS":"新北市蘆洲區民族路373號","TEL":" ","COUNTYNAME":"新北市","TOWNNAME":"蘆洲區","MARKTYPE":"993","Class":"303"},"geometry":{"x":121.47378266360451,"y":25.087911235460634}},{"attributes":{"OBJECTID":4110,"LANDMARKID":"1000100001416","LANDMARKCO":"303","LANDMARKNA":"成功廣場地下停車場","LANDMARKAD":"1000114","ADDRESS":"新北市蘆洲區永樂里民安路","TEL":" ","COUNTYNAME":"新北市","TOWNNAME":"蘆洲區","MARKTYPE":"993","Class":"303"},"geometry":{"x":121.4815308592369,"y":25.090853738905736}},{"attributes":{"OBJECTID":4111,"LANDMARKID":"1000100001417","LANDMARKCO":"303","LANDMARKNA":"停二立體停車場","LANDMARKAD":"1000114","ADDRESS":"新北市蘆洲區鷺江里民權路","TEL":" ","COUNTYNAME":"新北市","TOWNNAME":"蘆洲區","MARKTYPE":"993","Class":"303"},"geometry":{"x":121.47437703114301,"y":25.087403128584935}},{"attributes":{"OBJECTID":4112,"LANDMARKID":"1000100001418","LANDMARKCO":"303","LANDMARKNA":"鷺江停車場","LANDMARKAD":"1000114","ADDRESS":"新北市蘆洲區","TEL":" ","COUNTYNAME":"新北市","TOWNNAME":"蘆洲區","MARKTYPE":"993","Class":"303"},"geometry":{"x":121.47724483439518,"y":25.084744674370643}},{"attributes":{"OBJECTID":4113,"LANDMARKID":"1000100001419","LANDMARKCO":"303","LANDMARKNA":"Times(普客二四停車場)-佳瑪蘆洲停車場","LANDMARKAD":"1000114","ADDRESS":"北縣蘆洲區長榮路8號後方空地","TEL":" ","COUNTYNAME":"新北市","TOWNNAME":"蘆洲區","MARKTYPE":"993","Class":"303"},"geometry":{"x":121.46398913748321,"y":25.082183765805254}},{"attributes":{"OBJECTID":4114,"LANDMARKID":"1000100001420","LANDMARKCO":"303","LANDMARKNA":"台灣聯通停車場-重陽場","LANDMARKAD":"1000114","ADDRESS":"新北市蘆洲區重陽街46號旁","TEL":" ","COUNTYNAME":"新北市","TOWNNAME":"蘆洲區","MARKTYPE":"993","Class":"303"},"geometry":{"x":121.48122026981942,"y":25.08267092581314}},{"attributes":{"OBJECTID":4115,"LANDMARKID":"1000100001842","LANDMARKCO":"402","LANDMARKNA":"中華電信-蘆洲服務中心","LANDMARKAD":"1000114","ADDRESS":"新北市蘆洲區三民路91號","TEL":"123或0800-080-123","COUNTYNAME":"新北市","TOWNNAME":"蘆洲區","MARKTYPE":"994","Class":"4"},"geometry":{"x":121.47413208729559,"y":25.084504065436988}},{"attributes":{"OBJECTID":4116,"LANDMARKID":"1000100001843","LANDMARKCO":"402","LANDMARKNA":"中華電信-蘆洲光華特約服務中心","LANDMARKAD":"1000114","ADDRESS":"新北市蘆洲區光華路95號","TEL":"02-82825757","COUNTYNAME":"新北市","TOWNNAME":"蘆洲區","MARKTYPE":"994","Class":"4"},"geometry":{"x":121.46742575670955,"y":25.08248870189038}},{"attributes":{"OBJECTID":4117,"LANDMARKID":"1000100001844","LANDMARKCO":"402","LANDMARKNA":"威寶電信-蘆洲長安特約服務中心","LANDMARKAD":"1000114","ADDRESS":"新北市蘆洲區長安街158號","TEL":"02-28486048","COUNTYNAME":"新北市","TOWNNAME":"蘆洲區","MARKTYPE":"994","Class":"4"},"geometry":{"x":121.45953766002637,"y":25.082891186356623}},{"attributes":{"OBJECTID":4118,"LANDMARKID":"1000100001845","LANDMARKCO":"402","LANDMARKNA":"威寶電信-蘆洲中山特約服務中心","LANDMARKAD":"1000114","ADDRESS":"新北市蘆洲區中山一路23號","TEL":"02-28479966","COUNTYNAME":"新北市","TOWNNAME":"蘆洲區","MARKTYPE":"994","Class":"4"},"geometry":{"x":121.47928804651842,"y":25.08068788832222}},{"attributes":{"OBJECTID":4119,"LANDMARKID":"1000100001846","LANDMARKCO":"402","LANDMARKNA":"大眾電信(傑昇通信)-蘆洲店","LANDMARKAD":"1000114","ADDRESS":"新北市蘆洲巿中正路71號","TEL":"02-82820833","COUNTYNAME":"新北市","TOWNNAME":"蘆洲區","MARKTYPE":"994","Class":"4"},"geometry":{"x":121.47035525682242,"y":25.083147037772363}},{"attributes":{"OBJECTID":4120,"LANDMARKID":"1000100001847","LANDMARKCO":"402","LANDMARKNA":"大眾電信(傑昇通信)-蘆民店","LANDMARKAD":"1000114","ADDRESS":"新北市蘆洲巿民族路109號","TEL":"02-22889168","COUNTYNAME":"新北市","TOWNNAME":"蘆洲區","MARKTYPE":"994","Class":"4"},"geometry":{"x":121.47970056285651,"y":25.086788208380241}},{"attributes":{"OBJECTID":4121,"LANDMARKID":"1000100001848","LANDMARKCO":"402","LANDMARKNA":"大眾電信(震旦通訊)-蘆洲中山店","LANDMARKAD":"1000114","ADDRESS":"新北市蘆洲區中山一路125號","TEL":"02-82825449","COUNTYNAME":"新北市","TOWNNAME":"蘆洲區","MARKTYPE":"994","Class":"4"},"geometry":{"x":121.47595361898352,"y":25.081503943150594}},{"attributes":{"OBJECTID":4122,"LANDMARKID":"1000100001849","LANDMARKCO":"402","LANDMARKNA":"大眾電信(太子科技)-蘆洲聯強","LANDMARKAD":"1000114","ADDRESS":"新北市蘆洲區長安街87號(左)","TEL":"02-82832550","COUNTYNAME":"新北市","TOWNNAME":"蘆洲區","MARKTYPE":"994","Class":"4"},"geometry":{"x":121.46223455147009,"y":25.080237810358636}},{"attributes":{"OBJECTID":4123,"LANDMARKID":"1000100001850","LANDMARKCO":"402","LANDMARKNA":"大眾電信-蘆洲專賣店","LANDMARKAD":"1000114","ADDRESS":"新北市蘆洲區長安街97號","TEL":"02-28486197","COUNTYNAME":"新北市","TOWNNAME":"蘆洲區","MARKTYPE":"994","Class":"4"},"geometry":{"x":121.46166234546988,"y":25.080674693237761}},{"attributes":{"OBJECTID":4124,"LANDMARKID":"1000100001851","LANDMARKCO":"402","LANDMARKNA":"大眾電信(傑昇通信)-五股二店","LANDMARKAD":"1000114","ADDRESS":"蘆洲巿中正路191號","TEL":"28481616","COUNTYNAME":"新北市","TOWNNAME":"蘆洲區","MARKTYPE":"994","Class":"4"},"geometry":{"x":121.46855955838309,"y":25.085659442064401}},{"attributes":{"OBJECTID":4125,"LANDMARKID":"1000100001852","LANDMARKCO":"402","LANDMARKNA":"中華電信-蘆洲長安特約服務中心","LANDMARKAD":"1000114","ADDRESS":"新北市蘆洲區長安街152號","TEL":"02-28488080","COUNTYNAME":"新北市","TOWNNAME":"蘆洲區","MARKTYPE":"994","Class":"4"},"geometry":{"x":121.45972440758197,"y":25.082538776795303}},{"attributes":{"OBJECTID":4126,"LANDMARKID":"1000100002923","LANDMARKCO":"603","LANDMARKNA":"嘉年華汽車旅館","LANDMARKAD":"1000114","ADDRESS":"新北市蘆洲區集賢路385號","TEL":"02-28475211","COUNTYNAME":"新北市","TOWNNAME":"蘆洲區","MARKTYPE":"996","Class":"6"},"geometry":{"x":121.48229619376629,"y":25.085934432134597}},{"attributes":{"OBJECTID":4127,"LANDMARKID":"1000100002924","LANDMARKCO":"603","LANDMARKNA":"西賓大旅社","LANDMARKAD":"1000114","ADDRESS":"新北市蘆洲區中山二路51號","TEL":"02-22819189","COUNTYNAME":"新北市","TOWNNAME":"蘆洲區","MARKTYPE":"996","Class":"6"},"geometry":{"x":121.47335097942008,"y":25.081850483524654}},{"attributes":{"OBJECTID":4128,"LANDMARKID":"1000100002925","LANDMARKCO":"603","LANDMARKNA":"香奈爾汽車旅館","LANDMARKAD":"1000114","ADDRESS":"新北市蘆洲區長樂路56號","TEL":"02-22829934","COUNTYNAME":"新北市","TOWNNAME":"蘆洲區","MARKTYPE":"996","Class":"6"},"geometry":{"x":121.46340555599674,"y":25.086789932050316}},{"attributes":{"OBJECTID":4129,"LANDMARKID":"1000100002926","LANDMARKCO":"603","LANDMARKNA":"友品大飯店","LANDMARKAD":"1000114","ADDRESS":"新北市板橋區公園路16號","TEL":"02-29560856","COUNTYNAME":"新北市","TOWNNAME":"蘆洲區","MARKTYPE":"996","Class":"6"},"geometry":{"x":121.46279422223796,"y":25.091074839184369}},{"attributes":{"OBJECTID":4130,"LANDMARKID":"1000100002927","LANDMARKCO":"603","LANDMARKNA":"馨記旅館","LANDMARKAD":"1000114","ADDRESS":"新北市蘆洲區九芎街95號","TEL":"02-28480296","COUNTYNAME":"新北市","TOWNNAME":"蘆洲區","MARKTYPE":"996","Class":"6"},"geometry":{"x":121.46612415585071,"y":25.079400570587591}},{"attributes":{"OBJECTID":4131,"LANDMARKID":"1000100002928","LANDMARKCO":"603","LANDMARKNA":"摩根時尚旅館","LANDMARKAD":"1000114","ADDRESS":"新北市蘆洲區中正路367號","TEL":"02-22887000","COUNTYNAME":"新北市","TOWNNAME":"蘆洲區","MARKTYPE":"996","Class":"6"},"geometry":{"x":121.46535614748016,"y":25.089580033613384}},{"attributes":{"OBJECTID":4132,"LANDMARKID":"1000100002929","LANDMARKCO":"603","LANDMARKNA":"薇薇精品旅館","LANDMARKAD":"1000114","ADDRESS":"新北市蘆洲區永安北路2段42-1號","TEL":"02-82856633","COUNTYNAME":"新北市","TOWNNAME":"蘆洲區","MARKTYPE":"996","Class":"6"},"geometry":{"x":121.48221644083003,"y":25.082465466051193}},{"attributes":{"OBJECTID":4133,"LANDMARKID":"1000100002688","LANDMARKCO":"510","LANDMARKNA":"重陽高爾夫練習場","LANDMARKAD":"1000114","ADDRESS":"新北市蘆洲區民族路336巷39號","TEL":"02-22852551","COUNTYNAME":"新北市","TOWNNAME":"蘆洲區","MARKTYPE":"995","Class":"5"},"geometry":{"x":121.4777740626769,"y":25.092058350226733}},{"attributes":{"OBJECTID":4134,"LANDMARKID":"1000100001945","LANDMARKCO":"405","LANDMARKNA":"中油加油站-汐平站","LANDMARKAD":"1000111","ADDRESS":"新北市汐止區新台五路二段652號","TEL":"02-26481530","COUNTYNAME":"新北市","TOWNNAME":"汐止區","MARKTYPE":"994","Class":"4"},"geometry":{"x":121.68345372387753,"y":25.068377020028169}},{"attributes":{"OBJECTID":4135,"LANDMARKID":"1000100001946","LANDMARKCO":"405","LANDMARKNA":"中油加油站-明湖站","LANDMARKAD":"1000111","ADDRESS":"新北市汐止區康寧街536號","TEL":"02-26951863","COUNTYNAME":"新北市","TOWNNAME":"汐止區","MARKTYPE":"994","Class":"4"},"geometry":{"x":121.63449240241138,"y":25.069074110324792}},{"attributes":{"OBJECTID":4136,"LANDMARKID":"1000100001947","LANDMARKCO":"405","LANDMARKNA":"中油加油站-四海站","LANDMARKAD":"1000111","ADDRESS":"新北市汐止區汐止鎮大同路一段一號","TEL":"02-86463339","COUNTYNAME":"新北市","TOWNNAME":"汐止區","MARKTYPE":"994","Class":"4"},"geometry":{"x":121.62268521868407,"y":25.055021272395329}},{"attributes":{"OBJECTID":4137,"LANDMARKID":"1000100001948","LANDMARKCO":"405","LANDMARKNA":"中油加油站-淳寶站","LANDMARKAD":"1000111","ADDRESS":"新北市汐止區新台五路二段236號","TEL":"02-2691-0917","COUNTYNAME":"新北市","TOWNNAME":"汐止區","MARKTYPE":"994","Class":"4"},"geometry":{"x":121.67384634142512,"y":25.065413678483413}},{"attributes":{"OBJECTID":4138,"LANDMARKID":"1000100001949","LANDMARKCO":"405","LANDMARKNA":"中油加油站-平安站","LANDMARKAD":"1000111","ADDRESS":"新北市汐止區大同路三段575號","TEL":"02-86486686","COUNTYNAME":"新北市","TOWNNAME":"汐止區","MARKTYPE":"994","Class":"4"},"geometry":{"x":121.68308635013676,"y":25.073006416123242}},{"attributes":{"OBJECTID":4139,"LANDMARKID":"1000100001950","LANDMARKCO":"405","LANDMARKNA":"中油加油站-汐止站(刷卡自助)(中油直營)","LANDMARKAD":"1000111","ADDRESS":"新北市汐止區大同路一段353號","TEL":"02-26412246","COUNTYNAME":"新北市","TOWNNAME":"汐止區","MARKTYPE":"994","Class":"4"},"geometry":{"x":121.63957887010913,"y":25.060042089550539}},{"attributes":{"OBJECTID":4140,"LANDMARKID":"1000100001951","LANDMARKCO":"405","LANDMARKNA":"中油加油站-保長坑站(中油直營)","LANDMARKAD":"1000111","ADDRESS":"新北市汐止區大同路三段186-1號","TEL":"02-86485318","COUNTYNAME":"新北市","TOWNNAME":"汐止區","MARKTYPE":"994","Class":"4"},"geometry":{"x":121.67425106129761,"y":25.074537173418573}},{"attributes":{"OBJECTID":4141,"LANDMARKID":"1000100001952","LANDMARKCO":"405","LANDMARKNA":"中油加油站-伯爵站","LANDMARKAD":"1000111","ADDRESS":"新北市汐止區汐止鎮汐萬路一段39號","TEL":"02-26434463","COUNTYNAME":"新北市","TOWNNAME":"汐止區","MARKTYPE":"994","Class":"4"},"geometry":{"x":121.65490566626063,"y":25.069301970280492}},{"attributes":{"OBJECTID":4142,"LANDMARKID":"1000100001953","LANDMARKCO":"405","LANDMARKNA":"中油加油站-中華汐科站","LANDMARKAD":"1000111","ADDRESS":"新北市汐止區新台五路一段132號","TEL":"02-87518909","COUNTYNAME":"新北市","TOWNNAME":"汐止區","MARKTYPE":"994","Class":"4"},"geometry":{"x":121.65333647254387,"y":25.061954582948484}},{"attributes":{"OBJECTID":4143,"LANDMARKID":"1000100001581","LANDMARKCO":"401","LANDMARKNA":"財團法人國泰綜合醫院汐止分院","LANDMARKAD":"1000111","ADDRESS":"新北市汐止區建成路59巷2號","TEL":"02-26482121","COUNTYNAME":"新北市","TOWNNAME":"汐止區","MARKTYPE":"994","Class":"4"},"geometry":{"x":121.66121428673594,"y":25.073059733513723}},{"attributes":{"OBJECTID":4144,"LANDMARKID":"1000100002589","LANDMARKCO":"506","LANDMARKNA":"廖三郎文旦觀光果園","LANDMARKAD":"1000111","ADDRESS":"新北市汐止區汐萬路三段499巷10號","TEL":"02-26461407","COUNTYNAME":"新北市","TOWNNAME":"汐止區","MARKTYPE":"995","Class":"5"},"geometry":{"x":121.63091859519939,"y":25.100755155221165}},{"attributes":{"OBJECTID":4145,"LANDMARKID":"1000100002397","LANDMARKCO":"408","LANDMARKNA":"郵局-汐止郵局","LANDMARKAD":"1000111","ADDRESS":"新北市汐止區大同路2段393號","TEL":"(02)2643-1356","COUNTYNAME":"新北市","TOWNNAME":"汐止區","MARKTYPE":"994","Class":"4"},"geometry":{"x":121.65806454996762,"y":25.067330979829531}},{"attributes":{"OBJECTID":4146,"LANDMARKID":"1000100002398","LANDMARKCO":"408","LANDMARKNA":"郵局-汐止保長坑郵局","LANDMARKAD":"1000111","ADDRESS":"新北市汐止區大同路3段188-1號","TEL":"(02)8647-1112","COUNTYNAME":"新北市","TOWNNAME":"汐止區","MARKTYPE":"994","Class":"4"},"geometry":{"x":121.67456018855393,"y":25.07389947339184}},{"attributes":{"OBJECTID":4147,"LANDMARKID":"1000100002399","LANDMARKCO":"408","LANDMARKNA":"郵局-汐止樟樹灣郵局","LANDMARKAD":"1000111","ADDRESS":"新北市汐止區大同路1段322號","TEL":"(02)2641-8422","COUNTYNAME":"新北市","TOWNNAME":"汐止區","MARKTYPE":"994","Class":"4"},"geometry":{"x":121.63756463841186,"y":25.058649846238406}},{"attributes":{"OBJECTID":4148,"LANDMARKID":"1000100002400","LANDMARKCO":"408","LANDMARKNA":"郵局-汐止社后郵局","LANDMARKAD":"1000111","ADDRESS":"新北市汐止區康寧街426號","TEL":"(02)2695-1315","COUNTYNAME":"新北市","TOWNNAME":"汐止區","MARKTYPE":"994","Class":"4"},"geometry":{"x":121.63118271726562,"y":25.067977414584977}},{"attributes":{"OBJECTID":4149,"LANDMARKID":"1000100002401","LANDMARKCO":"408","LANDMARKNA":"郵局-汐止龍安郵局","LANDMARKAD":"1000111","ADDRESS":"新北市汐止區龍安路42號","TEL":"(02)2642-6626","COUNTYNAME":"新北市","TOWNNAME":"汐止區","MARKTYPE":"994","Class":"4"},"geometry":{"x":121.65410889149139,"y":25.063539220882888}},{"attributes":{"OBJECTID":4150,"LANDMARKID":"1000100002402","LANDMARKCO":"408","LANDMARKNA":"郵局-汐止厚德郵局","LANDMARKAD":"1000111","ADDRESS":"新北市汐止區樟樹一路224號","TEL":"(02)2647-7134","COUNTYNAME":"新北市","TOWNNAME":"汐止區","MARKTYPE":"994","Class":"4"},"geometry":{"x":121.6424728194726,"y":25.066346592748307}},{"attributes":{"OBJECTID":4151,"LANDMARKID":"1000100002403","LANDMARKCO":"408","LANDMARKNA":"郵局-汐止翠柏郵局","LANDMARKAD":"1000111","ADDRESS":"新北市汐止區永春一路5號","TEL":"(02)2645-1457","COUNTYNAME":"新北市","TOWNNAME":"汐止區","MARKTYPE":"994","Class":"4"},"geometry":{"x":121.60234024551848,"y":25.112181590938114}},{"attributes":{"OBJECTID":4152,"LANDMARKID":"1000100002404","LANDMARKCO":"408","LANDMARKNA":"郵局-汐止南昌郵局","LANDMARKAD":"1000111","ADDRESS":"新北市汐止區新昌路72號","TEL":"(02)2649-8837","COUNTYNAME":"新北市","TOWNNAME":"汐止區","MARKTYPE":"994","Class":"4"},"geometry":{"x":121.66400873867066,"y":25.069581542781343}},{"attributes":{"OBJECTID":4153,"LANDMARKID":"1000100002458","LANDMARKCO":"409","LANDMARKNA":"新北市汐止區農會","LANDMARKAD":"1000111","ADDRESS":"新北市汐止區新台五路一段207號","TEL":"02-26416666","COUNTYNAME":"新北市","TOWNNAME":"汐止區","MARKTYPE":"994","Class":"4"},"geometry":{"x":121.65683796373547,"y":25.063756960323492}},{"attributes":{"OBJECTID":4154,"LANDMARKID":"1000100001882","LANDMARKCO":"404","LANDMARKNA":"台灣省自來水汐止營運所","LANDMARKAD":"1000111","ADDRESS":"新北市汐止區大同路一段501號2樓","TEL":" ","COUNTYNAME":"新北市","TOWNNAME":"汐止區","MARKTYPE":"994","Class":"4"},"geometry":{"x":121.67259584438108,"y":25.078684454371899}},{"attributes":{"OBJECTID":4155,"LANDMARKID":"1000100002231","LANDMARKCO":"406","LANDMARKNA":"休閒公園","LANDMARKAD":"1000111","ADDRESS":"新北市汐止區","TEL":" ","COUNTYNAME":"新北市","TOWNNAME":"汐止區","MARKTYPE":"994","Class":"4"},"geometry":{"x":121.67024703295372,"y":25.07996526415873}},{"attributes":{"OBJECTID":4156,"LANDMARKID":"1000100002232","LANDMARKCO":"406","LANDMARKNA":"汐止公園","LANDMARKAD":"1000111","ADDRESS":"新北市汐止區","TEL":" ","COUNTYNAME":"新北市","TOWNNAME":"汐止區","MARKTYPE":"994","Class":"4"},"geometry":{"x":121.65889891354216,"y":25.067866600592399}},{"attributes":{"OBJECTID":4157,"LANDMARKID":"1000100002233","LANDMARKCO":"406","LANDMARKNA":"運動公園","LANDMARKAD":"1000111","ADDRESS":"新北市汐止區","TEL":" ","COUNTYNAME":"新北市","TOWNNAME":"汐止區","MARKTYPE":"994","Class":"4"},"geometry":{"x":121.65836684609613,"y":25.065079234371293}},{"attributes":{"OBJECTID":4158,"LANDMARKID":"1000100002234","LANDMARKCO":"406","LANDMARKNA":"豉窟事件紀念公園","LANDMARKAD":"1000111","ADDRESS":"新北市汐止區","TEL":" ","COUNTYNAME":"新北市","TOWNNAME":"汐止區","MARKTYPE":"994","Class":"4"},"geometry":{"x":121.67214925964596,"y":25.034513317423087}},{"attributes":{"OBJECTID":4159,"LANDMARKID":"1000100001938","LANDMARKCO":"405","LANDMARKNA":"台塑加油站-東湖站(台塑)","LANDMARKAD":"1000111","ADDRESS":"新北市汐止區康寧街6號","TEL":"02-26922728","COUNTYNAME":"新北市","TOWNNAME":"汐止區","MARKTYPE":"994","Class":"4"},"geometry":{"x":121.61783421586188,"y":25.067614968410197}},{"attributes":{"OBJECTID":4160,"LANDMARKID":"1000100001939","LANDMARKCO":"405","LANDMARKNA":"台亞加油站-汐止純安站（台塑）","LANDMARKAD":"1000111","ADDRESS":"新北市汐止區康寧街227號","TEL":"(02)2692-4333","COUNTYNAME":"新北市","TOWNNAME":"汐止區","MARKTYPE":"994","Class":"4"},"geometry":{"x":121.62524166028032,"y":25.066907897865697}},{"attributes":{"OBJECTID":4161,"LANDMARKID":"1000100001940","LANDMARKCO":"405","LANDMARKNA":"全國加油站-厚生站（台塑）","LANDMARKAD":"1000111","ADDRESS":"新北市汐止區大同路三段279號","TEL":"02-86482373","COUNTYNAME":"新北市","TOWNNAME":"汐止區","MARKTYPE":"994","Class":"4"},"geometry":{"x":121.68213807792996,"y":25.07349983512189}},{"attributes":{"OBJECTID":4162,"LANDMARKID":"1000100001941","LANDMARKCO":"405","LANDMARKNA":"台亞加油站-汐止站（台塑）","LANDMARKAD":"1000111","ADDRESS":"新北市汐止區大同路二段37號","TEL":"02)2691-9781","COUNTYNAME":"新北市","TOWNNAME":"汐止區","MARKTYPE":"994","Class":"4"},"geometry":{"x":121.64784094025629,"y":25.063001400281074}},{"attributes":{"OBJECTID":4163,"LANDMARKID":"1000100001942","LANDMARKCO":"405","LANDMARKNA":"台亞加油站-汐止好市多站（台塑）","LANDMARKAD":"1000111","ADDRESS":"新北市汐止區大同路一段154號","TEL":"(02)2641-9309","COUNTYNAME":"新北市","TOWNNAME":"汐止區","MARKTYPE":"994","Class":"4"},"geometry":{"x":121.63236419406671,"y":25.055593409066859}},{"attributes":{"OBJECTID":4164,"LANDMARKID":"1000100001943","LANDMARKCO":"405","LANDMARKNA":"台亞加油站-汐止新台五一站（台塑）","LANDMARKAD":"1000111","ADDRESS":"新北市汐止區新台五路一段115號","TEL":"(02)2691-7983","COUNTYNAME":"新北市","TOWNNAME":"汐止區","MARKTYPE":"994","Class":"4"},"geometry":{"x":121.64946614130814,"y":25.061517302003921}},{"attributes":{"OBJECTID":4165,"LANDMARKID":"1000100000009","LANDMARKCO":"101","LANDMARKNA":"勞工安全衛生研究所","LANDMARKAD":"1000111","ADDRESS":"新北市汐止區橫科路407巷99號","TEL":"02-26607600","COUNTYNAME":"新北市","TOWNNAME":"汐止區","MARKTYPE":"991","Class":"1"},"geometry":{"x":121.63115834905764,"y":25.050140217451176}},{"attributes":{"OBJECTID":4166,"LANDMARKID":"1000100000096","LANDMARKCO":"103","LANDMARKNA":"新北市汐止區衛生所","LANDMARKAD":"1000111","ADDRESS":"新北市汐止區新興路3號","TEL":"02-26412030","COUNTYNAME":"新北市","TOWNNAME":"汐止區","MARKTYPE":"991","Class":"1"},"geometry":{"x":121.65887102959888,"y":25.063381439991904}},{"attributes":{"OBJECTID":4167,"LANDMARKID":"1000100000414","LANDMARKCO":"108","LANDMARKNA":"新北市汐止區公所","LANDMARKAD":"1000111","ADDRESS":"新北市汐止區新台五路一段268號","TEL":"02-26411111","COUNTYNAME":"新北市","TOWNNAME":"汐止區","MARKTYPE":"991","Class":"1"},"geometry":{"x":121.65909197022707,"y":25.063650322928343}},{"attributes":{"OBJECTID":4168,"LANDMARKID":"1000100000095","LANDMARKCO":"103","LANDMARKNA":"新北市汐止區市民代表會","LANDMARKAD":"1000111","ADDRESS":"新北市汐止區仁愛路10號","TEL":"02-26430688","COUNTYNAME":"新北市","TOWNNAME":"汐止區","MARKTYPE":"991","Class":"1"},"geometry":{"x":121.65884419385306,"y":25.063652522162393}},{"attributes":{"OBJECTID":4169,"LANDMARKID":"1000100000125","LANDMARKCO":"104","LANDMARKNA":"北區國稅局汐止稽徵所瑞芳服務","LANDMARKAD":"1000111","ADDRESS":"新北市瑞芳區明燈路3段42號4樓","TEL":"02)24969641","COUNTYNAME":"新北市","TOWNNAME":"汐止區","MARKTYPE":"991","Class":"1"},"geometry":{"x":121.6568727877614,"y":25.063747982378082}},{"attributes":{"OBJECTID":4170,"LANDMARKID":"1000100000327","LANDMARKCO":"107","LANDMARKNA":"新北市消防局汐止分隊","LANDMARKAD":"1000111","ADDRESS":"新北市汐止區大同路二段447號","TEL":"02-26413249","COUNTYNAME":"新北市","TOWNNAME":"汐止區","MARKTYPE":"991","Class":"1"},"geometry":{"x":121.65959040622133,"y":25.067618142341004}},{"attributes":{"OBJECTID":4171,"LANDMARKID":"1000100000328","LANDMARKCO":"107","LANDMARKNA":"新北市政府警察局汐止分局","LANDMARKAD":"1000111","ADDRESS":"新北市汐止區義民里民生街1號","TEL":"02-26412610","COUNTYNAME":"新北市","TOWNNAME":"汐止區","MARKTYPE":"991","Class":"1"},"geometry":{"x":121.66007775808296,"y":25.068697185442218}},{"attributes":{"OBJECTID":4172,"LANDMARKID":"1000100000329","LANDMARKCO":"107","LANDMARKNA":"新北市政府警察局東山派出所","LANDMARKAD":"1000111","ADDRESS":"新北市汐止區汐平路二段68號","TEL":"02-26415841","COUNTYNAME":"新北市","TOWNNAME":"汐止區","MARKTYPE":"991","Class":"1"},"geometry":{"x":121.69832444856144,"y":25.060670541046306}},{"attributes":{"OBJECTID":4173,"LANDMARKID":"1000100000330","LANDMARKCO":"107","LANDMARKNA":"新北市政府警察局八連派出所","LANDMARKAD":"1000111","ADDRESS":"新北市汐止區長青路188巷1之1號","TEL":"02-26451281","COUNTYNAME":"新北市","TOWNNAME":"汐止區","MARKTYPE":"991","Class":"1"},"geometry":{"x":121.60568101581997,"y":25.111187057685814}},{"attributes":{"OBJECTID":4174,"LANDMARKID":"1000100000331","LANDMARKCO":"107","LANDMARKNA":"新北市政府警察局橫科派出所","LANDMARKAD":"1000111","ADDRESS":"新北市汐止區民權街二段87號","TEL":"02-26401237","COUNTYNAME":"新北市","TOWNNAME":"汐止區","MARKTYPE":"991","Class":"1"},"geometry":{"x":121.61877520873439,"y":25.050637518977705}},{"attributes":{"OBJECTID":4175,"LANDMARKID":"1000100000332","LANDMARKCO":"107","LANDMARKNA":"新北市政府警察局社后派出所","LANDMARKAD":"1000111","ADDRESS":"新北市汐止區中興路108號","TEL":"02-26942819","COUNTYNAME":"新北市","TOWNNAME":"汐止區","MARKTYPE":"991","Class":"1"},"geometry":{"x":121.63387659384955,"y":25.063670873994987}},{"attributes":{"OBJECTID":4176,"LANDMARKID":"1000100000333","LANDMARKCO":"107","LANDMARKNA":"新北市政府警察局長安派出所","LANDMARKAD":"1000111","ADDRESS":"新北市汐止區大同路三段99號","TEL":"02-86482618","COUNTYNAME":"新北市","TOWNNAME":"汐止區","MARKTYPE":"991","Class":"1"},"geometry":{"x":121.66861072169672,"y":25.077776129413881}},{"attributes":{"OBJECTID":4177,"LANDMARKID":"1000100000334","LANDMARKCO":"107","LANDMARKNA":"新北市政府警察局汐止派出所","LANDMARKAD":"1000111","ADDRESS":"新北市汐止區義民里大同路二段459號","TEL":"02-26412827","COUNTYNAME":"新北市","TOWNNAME":"汐止區","MARKTYPE":"991","Class":"1"},"geometry":{"x":121.65990055712585,"y":25.06788622927975}},{"attributes":{"OBJECTID":4178,"LANDMARKID":"1000100000335","LANDMARKCO":"107","LANDMARKNA":"國公路第一警察隊汐止分隊","LANDMARKAD":"1000111","ADDRESS":"新北市汐止區長江街254號","TEL":"02-26411141","COUNTYNAME":"新北市","TOWNNAME":"汐止區","MARKTYPE":"991","Class":"1"},"geometry":{"x":121.66194371053456,"y":25.078172172197672}},{"attributes":{"OBJECTID":4179,"LANDMARKID":"1000100000151","LANDMARKCO":"106","LANDMARKNA":"新北市汐止區戶政事務所","LANDMARKAD":"1000111","ADDRESS":"新北市汐止區新台五路一段268號六樓","TEL":"02-26429866","COUNTYNAME":"新北市","TOWNNAME":"汐止區","MARKTYPE":"991","Class":"1"},"geometry":{"x":121.66000547519353,"y":25.068426984494486}},{"attributes":{"OBJECTID":4180,"LANDMARKID":"1000100000139","LANDMARKCO":"105","LANDMARKNA":"新北市汐止地政事務所","LANDMARKAD":"1000111","ADDRESS":"新北市汐止區新台五路一段262號","TEL":"02-26421621","COUNTYNAME":"新北市","TOWNNAME":"汐止區","MARKTYPE":"991","Class":"1"},"geometry":{"x":121.65834960519116,"y":25.063747191612904}},{"attributes":{"OBJECTID":4181,"LANDMARKID":"1000100000126","LANDMARKCO":"104","LANDMARKNA":"北區國稅局汐止服務處","LANDMARKAD":"1000111","ADDRESS":"新北市汐止區新台五路1段268號9樓","TEL":"02-26486301","COUNTYNAME":"新北市","TOWNNAME":"汐止區","MARKTYPE":"991","Class":"1"},"geometry":{"x":121.65637530890397,"y":25.063571820380481}},{"attributes":{"OBJECTID":4182,"LANDMARKID":"1000100000010","LANDMARKCO":"101","LANDMARKNA":"經濟部標準檢驗局","LANDMARKAD":"1000111","ADDRESS":"新北市汐止區茄苳路157號1樓","TEL":"02-86488058","COUNTYNAME":"新北市","TOWNNAME":"汐止區","MARKTYPE":"991","Class":"1"},"geometry":{"x":121.66964814035293,"y":25.069654178412225}},{"attributes":{"OBJECTID":4183,"LANDMARKID":"1000100000154","LANDMARKCO":"106","LANDMARKNA":"戶政事務所","LANDMARKAD":"1000111","ADDRESS":"新北市汐止區復興里新興路","TEL":" ","COUNTYNAME":"新北市","TOWNNAME":"汐止區","MARKTYPE":"991","Class":"1"},"geometry":{"x":121.65632730939809,"y":25.065106961686269}},{"attributes":{"OBJECTID":4184,"LANDMARKID":"1000100000326","LANDMARKCO":"107","LANDMARKNA":"新北市消防局社后分隊","LANDMARKAD":"1000111","ADDRESS":"新北市汐止區褔德二路193之1號","TEL":"02-86931911","COUNTYNAME":"新北市","TOWNNAME":"汐止區","MARKTYPE":"991","Class":"1"},"geometry":{"x":121.62979986245598,"y":25.064765293393428}},{"attributes":{"OBJECTID":4185,"LANDMARKID":"1000100000837","LANDMARKCO":"204","LANDMARKNA":"新北市立圖書館汐止分館","LANDMARKAD":"1000111","ADDRESS":"新北市汐止區大同路二段451號","TEL":" ","COUNTYNAME":"新北市","TOWNNAME":"汐止區","MARKTYPE":"992","Class":"2"},"geometry":{"x":121.65942357954354,"y":25.068246330671073}},{"attributes":{"OBJECTID":4186,"LANDMARKID":"1000100000838","LANDMARKCO":"204","LANDMARKNA":"新北市立圖書館江北分館","LANDMARKAD":"1000111","ADDRESS":"新北市汐止區汐萬路一段81號","TEL":" ","COUNTYNAME":"新北市","TOWNNAME":"汐止區","MARKTYPE":"992","Class":"2"},"geometry":{"x":121.65484504783387,"y":25.069141569627007}},{"attributes":{"OBJECTID":4187,"LANDMARKID":"1000100000839","LANDMARKCO":"204","LANDMARKNA":"新北市立圖書館北峰分館","LANDMARKAD":"1000111","ADDRESS":"新北市汐止區福德一路102巷11號","TEL":" ","COUNTYNAME":"新北市","TOWNNAME":"汐止區","MARKTYPE":"992","Class":"2"},"geometry":{"x":121.63169326973168,"y":25.064338308960149}},{"attributes":{"OBJECTID":4188,"LANDMARKID":"1000100000840","LANDMARKCO":"204","LANDMARKNA":"新北市立圖書館新昌分館","LANDMARKAD":"1000111","ADDRESS":"新北市汐止區忠孝東路284巷23號2樓","TEL":" ","COUNTYNAME":"新北市","TOWNNAME":"汐止區","MARKTYPE":"992","Class":"2"},"geometry":{"x":121.66490362416478,"y":25.067530407220772}},{"attributes":{"OBJECTID":4189,"LANDMARKID":"1000100000841","LANDMARKCO":"204","LANDMARKNA":"新北市立圖書館茄苳分館","LANDMARKAD":"1000111","ADDRESS":"新北市汐止區茄苳路225巷35號","TEL":" ","COUNTYNAME":"新北市","TOWNNAME":"汐止區","MARKTYPE":"992","Class":"2"},"geometry":{"x":121.67222879430908,"y":25.069283497544976}},{"attributes":{"OBJECTID":4190,"LANDMARKID":"1000100000842","LANDMARKCO":"204","LANDMARKNA":"新北市立圖書館自強分館","LANDMARKAD":"1000111","ADDRESS":"新北市汐止區新興路54號2樓","TEL":" ","COUNTYNAME":"新北市","TOWNNAME":"汐止區","MARKTYPE":"992","Class":"2"},"geometry":{"x":121.65684304396891,"y":25.063175048515653}},{"attributes":{"OBJECTID":4191,"LANDMARKID":"1000100000695","LANDMARKCO":"203","LANDMARKNA":"縣立樟樹國小","LANDMARKAD":"1000111","ADDRESS":"新北市汐止區樟樹一路141巷2號","TEL":"02-26421407","COUNTYNAME":"新北市","TOWNNAME":"汐止區","MARKTYPE":"992","Class":"2"},"geometry":{"x":121.64169637853438,"y":25.06734088751892}},{"attributes":{"OBJECTID":4192,"LANDMARKID":"1000100000476","LANDMARKCO":"202","LANDMARKNA":"私立崇義高中","LANDMARKAD":"1000111","ADDRESS":"新北市汐止區大同路三段68號","TEL":"02-26439734","COUNTYNAME":"新北市","TOWNNAME":"汐止區","MARKTYPE":"992","Class":"2"},"geometry":{"x":121.66900257207473,"y":25.076869855610436}},{"attributes":{"OBJECTID":4193,"LANDMARKID":"1000100000477","LANDMARKCO":"202","LANDMARKNA":"縣立秀峰中學","LANDMARKAD":"1000111","ADDRESS":"新北市汐止區忠孝東路201號","TEL":"02-26412134","COUNTYNAME":"新北市","TOWNNAME":"汐止區","MARKTYPE":"992","Class":"2"},"geometry":{"x":121.66049680291458,"y":25.06571424227829}},{"attributes":{"OBJECTID":4194,"LANDMARKID":"1000100000702","LANDMARKCO":"203","LANDMARKNA":"縣立汐止國中","LANDMARKAD":"1000111","ADDRESS":"新北市汐止區禮門里大同路二段394號","TEL":"02-26412803","COUNTYNAME":"新北市","TOWNNAME":"汐止區","MARKTYPE":"992","Class":"2"},"geometry":{"x":121.65833487578074,"y":25.066533686155879}},{"attributes":{"OBJECTID":4195,"LANDMARKID":"1000100000703","LANDMARKCO":"203","LANDMARKNA":"縣立樟樹國中","LANDMARKAD":"1000111","ADDRESS":"新北市汐止區樟樹二路135號","TEL":"02-26430686","COUNTYNAME":"新北市","TOWNNAME":"汐止區","MARKTYPE":"992","Class":"2"},"geometry":{"x":121.6392042623682,"y":25.065544842979147}},{"attributes":{"OBJECTID":4196,"LANDMARKID":"1000100000704","LANDMARKCO":"203","LANDMARKNA":"縣立青山國中","LANDMARKAD":"1000111","ADDRESS":"新北市汐止區莊敬街33號","TEL":"02-26917877","COUNTYNAME":"新北市","TOWNNAME":"汐止區","MARKTYPE":"992","Class":"2"},"geometry":{"x":121.65643853312483,"y":25.061133663647762}},{"attributes":{"OBJECTID":4197,"LANDMARKID":"1000100000705","LANDMARKCO":"203","LANDMARKNA":"縣立青山國小","LANDMARKAD":"1000111","ADDRESS":"新北市汐止區莊敬街33號","TEL":"02-26917877","COUNTYNAME":"新北市","TOWNNAME":"汐止區","MARKTYPE":"992","Class":"2"},"geometry":{"x":121.65659710354196,"y":25.061132262012304}},{"attributes":{"OBJECTID":4198,"LANDMARKID":"1000100000706","LANDMARKCO":"203","LANDMARKNA":"縣立汐止國小","LANDMARKAD":"1000111","ADDRESS":"新北市汐止區大同路二段313號","TEL":"02-26477271","COUNTYNAME":"新北市","TOWNNAME":"汐止區","MARKTYPE":"992","Class":"2"},"geometry":{"x":121.65462792617932,"y":25.067005569847218}},{"attributes":{"OBJECTID":4199,"LANDMARKID":"1000100000707","LANDMARKCO":"203","LANDMARKNA":"縣立保長國小","LANDMARKAD":"1000111","ADDRESS":"新北市汐止區大同路三段553號","TEL":"02-26412502","COUNTYNAME":"新北市","TOWNNAME":"汐止區","MARKTYPE":"992","Class":"2"},"geometry":{"x":121.67946760938007,"y":25.072040344537331}},{"attributes":{"OBJECTID":4200,"LANDMARKID":"1000100000708","LANDMARKCO":"203","LANDMARKNA":"縣立秀峰國小","LANDMARKAD":"1000111","ADDRESS":"新北市汐止區仁愛路90號","TEL":"02-26480611","COUNTYNAME":"新北市","TOWNNAME":"汐止區","MARKTYPE":"992","Class":"2"},"geometry":{"x":121.66188619425249,"y":25.062644712498209}}]}