{"displayFieldName":"COUNTYNAME","fieldAliases":{"OBJECTID":"OBJECTID","LANDMARKID":"LANDMARKID","LANDMARKCO":"LANDMARKCO","LANDMARKNA":"LANDMARKNA","LANDMARKAD":"LANDMARKAD","ADDRESS":"ADDRESS","TEL":"TEL","COUNTYNAME":"COUNTYNAME","TOWNNAME":"TOWNNAME","MARKTYPE":"MARKTYPE","Class":"Class"},"geometryType":"esriGeometryPoint","spatialReference":{"wkid":102443},"fields":[{"name":"OBJECTID","type":"esriFieldTypeOID","alias":"OBJECTID"},{"name":"LANDMARKID","type":"esriFieldTypeString","alias":"LANDMARKID","length":15},{"name":"LANDMARKCO","type":"esriFieldTypeString","alias":"LANDMARKCO","length":15},{"name":"LANDMARKNA","type":"esriFieldTypeString","alias":"LANDMARKNA","length":50},{"name":"LANDMARKAD","type":"esriFieldTypeString","alias":"LANDMARKAD","length":15},{"name":"ADDRESS","type":"esriFieldTypeString","alias":"ADDRESS","length":56},{"name":"TEL","type":"esriFieldTypeString","alias":"TEL","length":36},{"name":"COUNTYNAME","type":"esriFieldTypeString","alias":"COUNTYNAME","length":15},{"name":"TOWNNAME","type":"esriFieldTypeString","alias":"TOWNNAME","length":13},{"name":"MARKTYPE","type":"esriFieldTypeString","alias":"MARKTYPE","length":12},{"name":"Class","type":"esriFieldTypeString","alias":"Class","length":5}],"features":[{"attributes":{"OBJECTID":18201,"LANDMARKID":"1000500000593","LANDMARKCO":"402","LANDMARKNA":"遠傳電信-南苗中正門市","LANDMARKAD":"1000501","ADDRESS":"苗栗市中正路1043號","TEL":" ","COUNTYNAME":"苗栗縣","TOWNNAME":"苗栗市","MARKTYPE":"994","Class":"4"},"geometry":{"x":231383.44350000005,"y":2715784.6204000004}},{"attributes":{"OBJECTID":18202,"LANDMARKID":"1000500000594","LANDMARKCO":"402","LANDMARKNA":"威寶電信-苗栗中正二特約服務中心","LANDMARKAD":"1000501","ADDRESS":"苗栗縣苗栗市中正路887號","TEL":"037-376789","COUNTYNAME":"苗栗縣","TOWNNAME":"苗栗市","MARKTYPE":"994","Class":"4"},"geometry":{"x":231382.13129999954,"y":2716149.7814000007}},{"attributes":{"OBJECTID":18203,"LANDMARKID":"1000500000595","LANDMARKCO":"402","LANDMARKNA":"威寶電信-苗栗中正特約服務中心","LANDMARKAD":"1000501","ADDRESS":"苗栗市中正路581號","TEL":"037-373575","COUNTYNAME":"苗栗縣","TOWNNAME":"苗栗市","MARKTYPE":"994","Class":"4"},"geometry":{"x":231811.85730000027,"y":2716741.2432000004}},{"attributes":{"OBJECTID":18204,"LANDMARKID":"1000500000596","LANDMARKCO":"402","LANDMARKNA":"威寶電信-苗栗府前特約服務中心","LANDMARKAD":"1000501","ADDRESS":"苗栗縣苗栗市府前路151號","TEL":"037-377222","COUNTYNAME":"苗栗縣","TOWNNAME":"苗栗市","MARKTYPE":"994","Class":"4"},"geometry":{"x":231584.94489999954,"y":2717090.0518999994}},{"attributes":{"OBJECTID":18205,"LANDMARKID":"1000500000597","LANDMARKCO":"402","LANDMARKNA":"大眾電信(震旦通訊)-苗栗中正店","LANDMARKAD":"1000501","ADDRESS":"苗栗市中正路3號","TEL":"035-269418","COUNTYNAME":"苗栗縣","TOWNNAME":"苗栗市","MARKTYPE":"994","Class":"4"},"geometry":{"x":232229.34949999955,"y":2718148.4717999995}},{"attributes":{"OBJECTID":18206,"LANDMARKID":"1000500000849","LANDMARKCO":"603","LANDMARKNA":"王府大飯店","LANDMARKAD":"1000501","ADDRESS":"苗栗縣苗栗市為公路三東巷3號","TEL":"037-273055","COUNTYNAME":"苗栗縣","TOWNNAME":"苗栗市","MARKTYPE":"996","Class":"6"},"geometry":{"x":232063.94419999979,"y":2718276.284}},{"attributes":{"OBJECTID":18207,"LANDMARKID":"1000500000850","LANDMARKCO":"603","LANDMARKNA":"南苗大旅社","LANDMARKAD":"1000501","ADDRESS":"苗栗縣苗栗市中正路898號","TEL":"037-321961-2","COUNTYNAME":"苗栗縣","TOWNNAME":"苗栗市","MARKTYPE":"996","Class":"6"},"geometry":{"x":231352.2463999996,"y":2716134.7186999992}},{"attributes":{"OBJECTID":18208,"LANDMARKID":"1000500000851","LANDMARKCO":"603","LANDMARKNA":"泉順賓館","LANDMARKAD":"1000501","ADDRESS":"苗栗縣苗栗市中正路889號1-4樓","TEL":"037-337506","COUNTYNAME":"苗栗縣","TOWNNAME":"苗栗市","MARKTYPE":"996","Class":"6"},"geometry":{"x":231397.12440000009,"y":2716161.3000000007}},{"attributes":{"OBJECTID":18209,"LANDMARKID":"1000500000852","LANDMARKCO":"603","LANDMARKNA":"綠庭商務旅館","LANDMARKAD":"1000501","ADDRESS":"苗栗縣苗栗市中正路462號5樓","TEL":"037-358789","COUNTYNAME":"苗栗縣","TOWNNAME":"苗栗市","MARKTYPE":"996","Class":"6"},"geometry":{"x":231927.73790000007,"y":2717026.2173999995}},{"attributes":{"OBJECTID":18210,"LANDMARKID":"1000500000853","LANDMARKCO":"603","LANDMARKNA":"栗華飯店","LANDMARKAD":"1000501","ADDRESS":"苗栗縣苗栗市中華路83","TEL":"85號","COUNTYNAME":"苗栗縣","TOWNNAME":"苗栗市","MARKTYPE":"996","Class":"6"},"geometry":{"x":232227.00650000013,"y":2718446.5156999994}},{"attributes":{"OBJECTID":18211,"LANDMARKID":"1000500000854","LANDMARKCO":"603","LANDMARKNA":"園霖大飯店","LANDMARKAD":"1000501","ADDRESS":"苗栗縣苗栗市至公路3號","TEL":"037-321500","COUNTYNAME":"苗栗縣","TOWNNAME":"苗栗市","MARKTYPE":"996","Class":"6"},"geometry":{"x":231800.91679999977,"y":2716684.9792999998}},{"attributes":{"OBJECTID":18212,"LANDMARKID":"1000500000855","LANDMARKCO":"603","LANDMARKNA":"富泰大旅社","LANDMARKAD":"1000501","ADDRESS":"苗栗縣苗栗市為公路35號","TEL":"037-261000","COUNTYNAME":"苗栗縣","TOWNNAME":"苗栗市","MARKTYPE":"996","Class":"6"},"geometry":{"x":232126.5410000002,"y":2718172.1734999996}},{"attributes":{"OBJECTID":18213,"LANDMARKID":"1000500000856","LANDMARKCO":"603","LANDMARKNA":"來來大旅社","LANDMARKAD":"1000501","ADDRESS":"苗栗縣苗栗市為公路559-1號","TEL":"037-265991","COUNTYNAME":"苗栗縣","TOWNNAME":"苗栗市","MARKTYPE":"996","Class":"6"},"geometry":{"x":233493.39740000013,"y":2718557.8530999999}},{"attributes":{"OBJECTID":18214,"LANDMARKID":"1000500000857","LANDMARKCO":"603","LANDMARKNA":"福星大旅社","LANDMARKAD":"1000501","ADDRESS":"苗栗縣苗栗市中山路236號","TEL":"037-321372","COUNTYNAME":"苗栗縣","TOWNNAME":"苗栗市","MARKTYPE":"996","Class":"6"},"geometry":{"x":232082.19680000003,"y":2717548.3970999997}},{"attributes":{"OBJECTID":18215,"LANDMARKID":"1000500000858","LANDMARKCO":"603","LANDMARKNA":"新興旅社","LANDMARKAD":"1000501","ADDRESS":"苗栗縣苗栗市建國街3號","TEL":"037-260133","COUNTYNAME":"苗栗縣","TOWNNAME":"苗栗市","MARKTYPE":"996","Class":"6"},"geometry":{"x":232176.57780000009,"y":2718126.5420999993}},{"attributes":{"OBJECTID":18216,"LANDMARKID":"1000500000859","LANDMARKCO":"603","LANDMARKNA":"華王大旅社","LANDMARKAD":"1000501","ADDRESS":"苗栗縣苗栗市中山路3號","TEL":"037-265969","COUNTYNAME":"苗栗縣","TOWNNAME":"苗栗市","MARKTYPE":"996","Class":"6"},"geometry":{"x":232149.73620000016,"y":2718133.6305}},{"attributes":{"OBJECTID":18217,"LANDMARKID":"1000500000860","LANDMARKCO":"603","LANDMARKNA":"丸松大旅社","LANDMARKAD":"1000501","ADDRESS":"苗栗縣苗栗市中山路658號","TEL":"037-320283","COUNTYNAME":"苗栗縣","TOWNNAME":"苗栗市","MARKTYPE":"996","Class":"6"},"geometry":{"x":231618.47479999997,"y":2716625.5427000001}},{"attributes":{"OBJECTID":18218,"LANDMARKID":"1000500000861","LANDMARKCO":"603","LANDMARKNA":"高賓旅社","LANDMARKAD":"1000501","ADDRESS":"苗栗縣苗栗市中正路116號","TEL":"037-260268","COUNTYNAME":"苗栗縣","TOWNNAME":"苗栗市","MARKTYPE":"996","Class":"6"},"geometry":{"x":232161.80159999989,"y":2717875.9017999992}},{"attributes":{"OBJECTID":18219,"LANDMARKID":"1000500000862","LANDMARKCO":"603","LANDMARKNA":"吉祥大旅社","LANDMARKAD":"1000501","ADDRESS":"苗栗縣苗栗市中正路582號","TEL":"037-320488","COUNTYNAME":"苗栗縣","TOWNNAME":"苗栗市","MARKTYPE":"996","Class":"6"},"geometry":{"x":231797.16870000027,"y":2716756.6381999999}},{"attributes":{"OBJECTID":18220,"LANDMARKID":"1000500000863","LANDMARKCO":"603","LANDMARKNA":"三統大飯店","LANDMARKAD":"1000501","ADDRESS":"苗栗縣苗栗市中正路617號","TEL":"037-325959","COUNTYNAME":"苗栗縣","TOWNNAME":"苗栗市","MARKTYPE":"996","Class":"6"},"geometry":{"x":231759.48500000034,"y":2716634.807}},{"attributes":{"OBJECTID":18221,"LANDMARKID":"1000500000687","LANDMARKCO":"405","LANDMARKNA":"中油加油站-西湖站(中油直營)","LANDMARKAD":"1000514","ADDRESS":"苗栗縣西湖鄉湖東村埔頂9-3號","TEL":"037-921048","COUNTYNAME":"苗栗縣","TOWNNAME":"西湖鄉","MARKTYPE":"994","Class":"4"},"geometry":{"x":225472.60300000012,"y":2718085.1480999999}},{"attributes":{"OBJECTID":18222,"LANDMARKID":"1000500000735","LANDMARKCO":"408","LANDMARKNA":"郵局-西湖郵局","LANDMARKAD":"1000514","ADDRESS":"苗栗縣西湖鄉金獅村11-6號","TEL":"(037)921-004","COUNTYNAME":"苗栗縣","TOWNNAME":"西湖鄉","MARKTYPE":"994","Class":"4"},"geometry":{"x":225446.94290000014,"y":2716738.2606000006}},{"attributes":{"OBJECTID":18223,"LANDMARKID":"1000500000779","LANDMARKCO":"409","LANDMARKNA":"西湖鄉農會","LANDMARKAD":"1000514","ADDRESS":"苗栗縣西湖鄉三湖村4鄰店仔街71號","TEL":"037-92171","COUNTYNAME":"苗栗縣","TOWNNAME":"西湖鄉","MARKTYPE":"994","Class":"4"},"geometry":{"x":223945.19479999971,"y":2715637.8078000005}},{"attributes":{"OBJECTID":18224,"LANDMARKID":"1000500000013","LANDMARKCO":"101","LANDMARKNA":"西湖鄉公所垃圾衛生掩埋場","LANDMARKAD":"1000514","ADDRESS":"苗栗縣西湖鄉二湖村二湖段596之14地號","TEL":"037-923012","COUNTYNAME":"苗栗縣","TOWNNAME":"西湖鄉","MARKTYPE":"991","Class":"1"},"geometry":{"x":224279.69319999963,"y":2718280.3128999993}},{"attributes":{"OBJECTID":18225,"LANDMARKID":"1000500000086","LANDMARKCO":"106","LANDMARKNA":"苗栗縣西湖鄉戶政事務所","LANDMARKAD":"1000514","ADDRESS":"苗栗縣西湖鄉金獅村2鄰金獅26之7號","TEL":"037-921344","COUNTYNAME":"苗栗縣","TOWNNAME":"西湖鄉","MARKTYPE":"991","Class":"1"},"geometry":{"x":225317.54220000003,"y":2717140.1488000005}},{"attributes":{"OBJECTID":18226,"LANDMARKID":"1000500000109","LANDMARKCO":"107","LANDMARKNA":"苗栗縣警察局高湖派出所","LANDMARKAD":"1000514","ADDRESS":"苗栗縣西湖鄉五福村6鄰97號","TEL":"037-911414","COUNTYNAME":"苗栗縣","TOWNNAME":"西湖鄉","MARKTYPE":"991","Class":"1"},"geometry":{"x":227211.51229999959,"y":2712870.0256999992}},{"attributes":{"OBJECTID":18227,"LANDMARKID":"1000500000110","LANDMARKCO":"107","LANDMARKNA":"苗栗縣警察局西湖分駐所","LANDMARKAD":"1000514","ADDRESS":"苗栗縣西湖鄉金獅村2鄰26之6號","TEL":"037-921031","COUNTYNAME":"苗栗縣","TOWNNAME":"西湖鄉","MARKTYPE":"991","Class":"1"},"geometry":{"x":225421.58320000023,"y":2716810.3333000001}},{"attributes":{"OBJECTID":18228,"LANDMARKID":"1000500000111","LANDMARKCO":"107","LANDMARKNA":"苗栗縣消防局西湖消防分隊","LANDMARKAD":"1000514","ADDRESS":"苗栗縣西湖鄉金獅村金獅26號之5","TEL":"037-922825","COUNTYNAME":"苗栗縣","TOWNNAME":"西湖鄉","MARKTYPE":"991","Class":"1"},"geometry":{"x":225421.58320000023,"y":2716810.3333000001}},{"attributes":{"OBJECTID":18229,"LANDMARKID":"1000500000032","LANDMARKCO":"103","LANDMARKNA":"苗栗縣西湖鄉衛生所","LANDMARKAD":"1000514","ADDRESS":"苗栗縣西湖鄉龍洞村1鄰16號","TEL":"037-921211","COUNTYNAME":"苗栗縣","TOWNNAME":"西湖鄉","MARKTYPE":"991","Class":"1"},"geometry":{"x":225174.73039999977,"y":2716110.4002999999}},{"attributes":{"OBJECTID":18230,"LANDMARKID":"1000500000203","LANDMARKCO":"108","LANDMARKNA":"苗栗縣西湖鄉公所","LANDMARKAD":"1000514","ADDRESS":"苗栗縣西湖鄉龍洞村1鄰5號","TEL":"037-921515","COUNTYNAME":"苗栗縣","TOWNNAME":"西湖鄉","MARKTYPE":"991","Class":"1"},"geometry":{"x":225422.77680000011,"y":2716700.3354000002}},{"attributes":{"OBJECTID":18231,"LANDMARKID":"1000500000033","LANDMARKCO":"103","LANDMARKNA":"苗栗縣西湖鄉民代表會","LANDMARKAD":"1000514","ADDRESS":"苗栗縣西湖鄉龍洞村1鄰5號","TEL":"037-921049","COUNTYNAME":"苗栗縣","TOWNNAME":"西湖鄉","MARKTYPE":"991","Class":"1"},"geometry":{"x":225389.74139999971,"y":2716720.2772000004}},{"attributes":{"OBJECTID":18232,"LANDMARKID":"1000500000400","LANDMARKCO":"204","LANDMARKNA":"苗栗縣立圖書館西湖分館","LANDMARKAD":"1000514","ADDRESS":"苗栗縣西湖鄉金獅村2鄰26之3號","TEL":" ","COUNTYNAME":"苗栗縣","TOWNNAME":"西湖鄉","MARKTYPE":"992","Class":"2"},"geometry":{"x":225472.01439999975,"y":2716985.7389000002}},{"attributes":{"OBJECTID":18233,"LANDMARKID":"1000500000317","LANDMARKCO":"203","LANDMARKNA":"縣立西湖國中","LANDMARKAD":"1000514","ADDRESS":"苗栗縣西湖鄉龍洞村1鄰1之1號","TEL":"037-921016","COUNTYNAME":"苗栗縣","TOWNNAME":"西湖鄉","MARKTYPE":"992","Class":"2"},"geometry":{"x":225469.48269999959,"y":2716560.4184000008}},{"attributes":{"OBJECTID":18234,"LANDMARKID":"1000500000318","LANDMARKCO":"203","LANDMARKNA":"縣立僑文國小","LANDMARKAD":"1000514","ADDRESS":"苗栗縣西湖鄉二湖村2鄰22號","TEL":"037-921065","COUNTYNAME":"苗栗縣","TOWNNAME":"西湖鄉","MARKTYPE":"992","Class":"2"},"geometry":{"x":224467.70779999997,"y":2717350.1422000006}},{"attributes":{"OBJECTID":18235,"LANDMARKID":"1000500000319","LANDMARKCO":"203","LANDMARKNA":"縣立五湖國小","LANDMARKAD":"1000514","ADDRESS":"苗栗縣西湖鄉五湖村上湖96號","TEL":"037-911244","COUNTYNAME":"苗栗縣","TOWNNAME":"西湖鄉","MARKTYPE":"992","Class":"2"},"geometry":{"x":227358.53120000008,"y":2712860.2643999998}},{"attributes":{"OBJECTID":18236,"LANDMARKID":"1000500000320","LANDMARKCO":"203","LANDMARKNA":"縣立西湖國小","LANDMARKAD":"1000514","ADDRESS":"苗栗縣西湖鄉龍洞村18號","TEL":"037-921022","COUNTYNAME":"苗栗縣","TOWNNAME":"西湖鄉","MARKTYPE":"992","Class":"2"},"geometry":{"x":225492.67190000042,"y":2716760.4582000002}},{"attributes":{"OBJECTID":18237,"LANDMARKID":"1000500000321","LANDMARKCO":"203","LANDMARKNA":"縣立瑞湖國小","LANDMARKAD":"1000514","ADDRESS":"苗栗縣西湖鄉四湖村老屋16號","TEL":"037-921614","COUNTYNAME":"苗栗縣","TOWNNAME":"西湖鄉","MARKTYPE":"992","Class":"2"},"geometry":{"x":224812.4598000003,"y":2713490.2678999994}},{"attributes":{"OBJECTID":18238,"LANDMARKID":"1000500000533","LANDMARKCO":"308","LANDMARKNA":"西湖服務區","LANDMARKAD":"1000514","ADDRESS":" ","TEL":" ","COUNTYNAME":"苗栗縣","TOWNNAME":"西湖鄉","MARKTYPE":"993","Class":"308"},"geometry":{"x":225743.00109999999,"y":2717891.9054000005}},{"attributes":{"OBJECTID":18239,"LANDMARKID":"1000500000686","LANDMARKCO":"405","LANDMARKNA":"中油加油站-獅潭站(中油直營)","LANDMARKAD":"1000517","ADDRESS":"苗栗縣獅潭鄉新店村新店9-1號","TEL":"037-931276","COUNTYNAME":"苗栗縣","TOWNNAME":"獅潭鄉","MARKTYPE":"994","Class":"4"},"geometry":{"x":241885.75569999963,"y":2714826.8842999991}},{"attributes":{"OBJECTID":18240,"LANDMARKID":"1000500000736","LANDMARKCO":"408","LANDMARKNA":"郵局-獅潭郵局","LANDMARKAD":"1000517","ADDRESS":"苗栗縣獅潭鄉新店村7鄰58-2號","TEL":"(037)931-316","COUNTYNAME":"苗栗縣","TOWNNAME":"獅潭鄉","MARKTYPE":"994","Class":"4"},"geometry":{"x":242125.38119999971,"y":2715038.5951000005}},{"attributes":{"OBJECTID":18241,"LANDMARKID":"1000500000778","LANDMARKCO":"409","LANDMARKNA":"苗栗縣獅潭鄉農會","LANDMARKAD":"1000517","ADDRESS":"苗栗縣獅潭鄉新店村11鄰125號","TEL":"037-931306","COUNTYNAME":"苗栗縣","TOWNNAME":"獅潭鄉","MARKTYPE":"994","Class":"4"},"geometry":{"x":242059.8638000004,"y":2714962.0642000008}},{"attributes":{"OBJECTID":18242,"LANDMARKID":"1000500000014","LANDMARKCO":"101","LANDMARKNA":"農業委員會苗栗農田水利會","LANDMARKAD":"1000517","ADDRESS":"苗栗市建功里民族路61號3樓","TEL":"037-335911","COUNTYNAME":"苗栗縣","TOWNNAME":"獅潭鄉","MARKTYPE":"991","Class":"1"},"geometry":{"x":242088.82899999991,"y":2715010.1523000002}},{"attributes":{"OBJECTID":18243,"LANDMARKID":"1000500000087","LANDMARKCO":"106","LANDMARKNA":"苗栗縣獅潭鄉戶政事務所","LANDMARKAD":"1000517","ADDRESS":"苗栗縣獅潭鄉新店村130之5號","TEL":"037-931277","COUNTYNAME":"苗栗縣","TOWNNAME":"獅潭鄉","MARKTYPE":"991","Class":"1"},"geometry":{"x":241875.96980000008,"y":2714760.0302000009}},{"attributes":{"OBJECTID":18244,"LANDMARKID":"1000500000104","LANDMARKCO":"107","LANDMARKNA":"苗栗縣警察局百壽派出所","LANDMARKAD":"1000517","ADDRESS":"苗栗縣獅潭鄉百壽村百壽39之1號","TEL":"037-931231","COUNTYNAME":"苗栗縣","TOWNNAME":"獅潭鄉","MARKTYPE":"991","Class":"1"},"geometry":{"x":243929.9104000004,"y":2719220.0609000009}},{"attributes":{"OBJECTID":18245,"LANDMARKID":"1000500000105","LANDMARKCO":"107","LANDMARKNA":"苗栗縣警察局汶水派出所","LANDMARKAD":"1000517","ADDRESS":"苗栗縣獅潭鄉竹木村16鄰24號","TEL":"037-991648","COUNTYNAME":"苗栗縣","TOWNNAME":"獅潭鄉","MARKTYPE":"991","Class":"1"},"geometry":{"x":237673.75530000031,"y":2705760.0653000008}},{"attributes":{"OBJECTID":18246,"LANDMARKID":"1000500000106","LANDMARKCO":"107","LANDMARKNA":"苗栗縣警察局獅潭分駐所","LANDMARKAD":"1000517","ADDRESS":"苗栗縣獅潭鄉新店村七鄰63號","TEL":"037-931348","COUNTYNAME":"苗栗縣","TOWNNAME":"獅潭鄉","MARKTYPE":"991","Class":"1"},"geometry":{"x":241867.83150000032,"y":2714690.0254999995}},{"attributes":{"OBJECTID":18247,"LANDMARKID":"1000500000107","LANDMARKCO":"107","LANDMARKNA":"苗栗縣警察局和興派出所","LANDMARKAD":"1000517","ADDRESS":"苗栗縣獅潭鄉和興村12鄰27號","TEL":"037-931230","COUNTYNAME":"苗栗縣","TOWNNAME":"獅潭鄉","MARKTYPE":"991","Class":"1"},"geometry":{"x":240924.87650000025,"y":2712130.1487000007}},{"attributes":{"OBJECTID":18248,"LANDMARKID":"1000500000108","LANDMARKCO":"107","LANDMARKNA":"苗栗縣消防局獅潭消防分隊","LANDMARKAD":"1000517","ADDRESS":"苗栗縣獅潭鄉新店村46-6號","TEL":"037-932240","COUNTYNAME":"苗栗縣","TOWNNAME":"獅潭鄉","MARKTYPE":"991","Class":"1"},"geometry":{"x":241892.98139999993,"y":2714740.0399999991}},{"attributes":{"OBJECTID":18249,"LANDMARKID":"1000500000030","LANDMARKCO":"103","LANDMARKNA":"苗栗縣獅潭鄉衛生所","LANDMARKAD":"1000517","ADDRESS":"苗栗縣獅潭鄉新店村130之6號","TEL":"037-931309","COUNTYNAME":"苗栗縣","TOWNNAME":"獅潭鄉","MARKTYPE":"991","Class":"1"},"geometry":{"x":242199.97520000022,"y":2715060.0530999992}},{"attributes":{"OBJECTID":18250,"LANDMARKID":"1000500000204","LANDMARKCO":"108","LANDMARKNA":"苗栗縣獅潭鄉公所","LANDMARKAD":"1000517","ADDRESS":"苗栗縣獅潭鄉新店村新店130之2號","TEL":"037-931301","COUNTYNAME":"苗栗縣","TOWNNAME":"獅潭鄉","MARKTYPE":"991","Class":"1"},"geometry":{"x":242043.86789999995,"y":2714940.1268000007}},{"attributes":{"OBJECTID":18251,"LANDMARKID":"1000500000031","LANDMARKCO":"103","LANDMARKNA":"苗栗縣獅潭鄉鄉民代表會","LANDMARKAD":"1000517","ADDRESS":"苗栗縣獅潭鄉新店村130之2號","TEL":"037-931355","COUNTYNAME":"苗栗縣","TOWNNAME":"獅潭鄉","MARKTYPE":"991","Class":"1"},"geometry":{"x":242044.86789999995,"y":2714940.1273999996}},{"attributes":{"OBJECTID":18252,"LANDMARKID":"1000500000399","LANDMARKCO":"204","LANDMARKNA":"苗栗縣立圖書館獅潭分館","LANDMARKAD":"1000517","ADDRESS":"苗栗縣獅潭鄉新店村11鄰130之2號","TEL":" ","COUNTYNAME":"苗栗縣","TOWNNAME":"獅潭鄉","MARKTYPE":"992","Class":"2"},"geometry":{"x":241905.69350000005,"y":2714726.1306999996}},{"attributes":{"OBJECTID":18253,"LANDMARKID":"1000500000322","LANDMARKCO":"203","LANDMARKNA":"縣立獅潭國中","LANDMARKAD":"1000517","ADDRESS":"苗栗縣獅潭鄉新店村21號","TEL":"037-931328","COUNTYNAME":"苗栗縣","TOWNNAME":"獅潭鄉","MARKTYPE":"992","Class":"2"},"geometry":{"x":242217.95160000026,"y":2715410.0631000008}},{"attributes":{"OBJECTID":18254,"LANDMARKID":"1000500000323","LANDMARKCO":"203","LANDMARKNA":"縣立豐林國小","LANDMARKAD":"1000517","ADDRESS":"苗栗縣獅潭鄉新豐村56號","TEL":"037-931664","COUNTYNAME":"苗栗縣","TOWNNAME":"獅潭鄉","MARKTYPE":"992","Class":"2"},"geometry":{"x":238871.85240000021,"y":2707820.1159000006}},{"attributes":{"OBJECTID":18255,"LANDMARKID":"1000500000324","LANDMARKCO":"203","LANDMARKNA":"縣立獅潭國小","LANDMARKAD":"1000517","ADDRESS":"苗栗縣獅潭鄉新店村11鄰129號","TEL":"03-5931305","COUNTYNAME":"苗栗縣","TOWNNAME":"獅潭鄉","MARKTYPE":"992","Class":"2"},"geometry":{"x":241971.91839999985,"y":2714850.0855999999}},{"attributes":{"OBJECTID":18256,"LANDMARKID":"1000500000325","LANDMARKCO":"203","LANDMARKNA":"縣立永興國小","LANDMARKAD":"1000517","ADDRESS":"苗栗縣獅潭鄉百壽村大坪1號","TEL":"037-931292","COUNTYNAME":"苗栗縣","TOWNNAME":"獅潭鄉","MARKTYPE":"992","Class":"2"},"geometry":{"x":243926.95930000022,"y":2718800.0596999992}},{"attributes":{"OBJECTID":18257,"LANDMARKID":"1000500000542","LANDMARKCO":"308","LANDMARKNA":"台72-獅潭端-西行","LANDMARKAD":"1000517","ADDRESS":" ","TEL":" ","COUNTYNAME":"苗栗縣","TOWNNAME":"獅潭鄉","MARKTYPE":"993","Class":"308"},"geometry":{"x":237630.1043999996,"y":2705528.5648999996}},{"attributes":{"OBJECTID":18258,"LANDMARKID":"1000500000543","LANDMARKCO":"308","LANDMARKNA":"台72-獅潭端-西行","LANDMARKAD":"1000517","ADDRESS":" ","TEL":" ","COUNTYNAME":"苗栗縣","TOWNNAME":"獅潭鄉","MARKTYPE":"993","Class":"308"},"geometry":{"x":237615.83710000012,"y":2705518.0097000003}},{"attributes":{"OBJECTID":18259,"LANDMARKID":"1000500000899","LANDMARKCO":"604","LANDMARKNA":"霖園民宿","LANDMARKAD":"1000517","ADDRESS":"苗栗縣獅潭鄉永興村3鄰16-6號","TEL":"037-932716","COUNTYNAME":"苗栗縣","TOWNNAME":"獅潭鄉","MARKTYPE":"996","Class":"6"},"geometry":{"x":242727.56570000015,"y":2716818.0145999994}},{"attributes":{"OBJECTID":18260,"LANDMARKID":"1000500000681","LANDMARKCO":"405","LANDMARKNA":"中油加油站-館南站","LANDMARKAD":"1000509","ADDRESS":"苗栗縣公館鄉館南村9鄰館南253-1號","TEL":"03-7237433","COUNTYNAME":"苗栗縣","TOWNNAME":"公館鄉","MARKTYPE":"994","Class":"4"},"geometry":{"x":232594.64109999966,"y":2710018.8986000009}},{"attributes":{"OBJECTID":18261,"LANDMARKID":"1000500000682","LANDMARKCO":"405","LANDMARKNA":"中油加油站-公館站(中油直營)","LANDMARKAD":"1000509","ADDRESS":"苗栗縣公館鄉玉泉村玉泉24-4號","TEL":"03-7222834","COUNTYNAME":"苗栗縣","TOWNNAME":"公館鄉","MARKTYPE":"994","Class":"4"},"geometry":{"x":232260.76460000034,"y":2711719.9079999998}},{"attributes":{"OBJECTID":18262,"LANDMARKID":"1000500000683","LANDMARKCO":"405","LANDMARKNA":"中油加油站-銓豐站","LANDMARKAD":"1000509","ADDRESS":"苗栗縣公館鄉五谷村13鄰五谷86號","TEL":"03-7230736","COUNTYNAME":"苗栗縣","TOWNNAME":"公館鄉","MARKTYPE":"994","Class":"4"},"geometry":{"x":231636.61280000024,"y":2713544.5426000003}},{"attributes":{"OBJECTID":18263,"LANDMARKID":"1000500000684","LANDMARKCO":"405","LANDMARKNA":"中油加油站-百成站(中油直營)","LANDMARKAD":"1000509","ADDRESS":"苗栗縣公館鄉五谷村2鄰五谷76-1號","TEL":"03-7227112","COUNTYNAME":"苗栗縣","TOWNNAME":"公館鄉","MARKTYPE":"994","Class":"4"},"geometry":{"x":231687.88680000044,"y":2713524.4998000003}},{"attributes":{"OBJECTID":18264,"LANDMARKID":"1000500000805","LANDMARKCO":"506","LANDMARKNA":"紅棗觀光果園","LANDMARKAD":"1000509","ADDRESS":"苗栗縣公館鄉石墻村14鄰292之1號","TEL":"037-225804","COUNTYNAME":"苗栗縣","TOWNNAME":"公館鄉","MARKTYPE":"995","Class":"5"},"geometry":{"x":232169.90079999994,"y":2710304.0138000008}},{"attributes":{"OBJECTID":18265,"LANDMARKID":"1000500000737","LANDMARKCO":"408","LANDMARKNA":"郵局-公館郵局","LANDMARKAD":"1000509","ADDRESS":"苗栗縣公館鄉大同路115號","TEL":"(037)222-933","COUNTYNAME":"苗栗縣","TOWNNAME":"公館鄉","MARKTYPE":"994","Class":"4"},"geometry":{"x":232559.68350000028,"y":2710563.4574999996}},{"attributes":{"OBJECTID":18266,"LANDMARKID":"1000500000738","LANDMARKCO":"408","LANDMARKNA":"郵局-公館鶴岡郵局","LANDMARKAD":"1000509","ADDRESS":"苗栗縣公館鄉鶴山村239號","TEL":"(037)227-796","COUNTYNAME":"苗栗縣","TOWNNAME":"公館鄉","MARKTYPE":"994","Class":"4"},"geometry":{"x":233096.03610000014,"y":2713903.8118999992}},{"attributes":{"OBJECTID":18267,"LANDMARKID":"1000500000777","LANDMARKCO":"409","LANDMARKNA":"苗栗縣公館鄉農會","LANDMARKAD":"1000509","ADDRESS":"苗栗縣公館鄉館東村1鄰大同路266號","TEL":"037-225211","COUNTYNAME":"苗栗縣","TOWNNAME":"公館鄉","MARKTYPE":"994","Class":"4"},"geometry":{"x":232510.8694000002,"y":2710988.8504000008}},{"attributes":{"OBJECTID":18268,"LANDMARKID":"1000500000685","LANDMARKCO":"405","LANDMARKNA":"台塑加油站-玉泉村站(台塑)","LANDMARKAD":"1000509","ADDRESS":"苗栗縣公館鄉玉泉村八鄰211-3號","TEL":"03-7233897","COUNTYNAME":"苗栗縣","TOWNNAME":"公館鄉","MARKTYPE":"994","Class":"4"},"geometry":{"x":232297.23149999976,"y":2711717.2261999995}},{"attributes":{"OBJECTID":18269,"LANDMARKID":"1000500000085","LANDMARKCO":"106","LANDMARKNA":"苗栗縣公館鄉戶政事務所","LANDMARKAD":"1000509","ADDRESS":"苗栗縣公館鄉館中村14鄰大同路181號","TEL":"037-224436","COUNTYNAME":"苗栗縣","TOWNNAME":"公館鄉","MARKTYPE":"991","Class":"1"},"geometry":{"x":232484.89630000014,"y":2710800.2851999998}},{"attributes":{"OBJECTID":18270,"LANDMARKID":"1000500000114","LANDMARKCO":"107","LANDMARKNA":"苗栗縣警察局公館分駐所","LANDMARKAD":"1000509","ADDRESS":"苗栗縣公館鄉館中村大同路181號","TEL":"037-225683","COUNTYNAME":"苗栗縣","TOWNNAME":"公館鄉","MARKTYPE":"991","Class":"1"},"geometry":{"x":232485.88379999995,"y":2710810.2863999996}},{"attributes":{"OBJECTID":18271,"LANDMARKID":"1000500000115","LANDMARKCO":"107","LANDMARKNA":"苗栗縣消防局公館消防分隊","LANDMARKAD":"1000509","ADDRESS":"苗栗縣公館鄉大同路181號","TEL":"037-222964","COUNTYNAME":"苗栗縣","TOWNNAME":"公館鄉","MARKTYPE":"991","Class":"1"},"geometry":{"x":232443.89609999955,"y":2710800.2337999996}},{"attributes":{"OBJECTID":18272,"LANDMARKID":"1000500000035","LANDMARKCO":"103","LANDMARKNA":"苗栗縣公館鄉衛生所","LANDMARKAD":"1000509","ADDRESS":"苗栗縣公館鄉館中村大同路75號","TEL":"037-224732","COUNTYNAME":"苗栗縣","TOWNNAME":"公館鄉","MARKTYPE":"991","Class":"1"},"geometry":{"x":232715.64389999956,"y":2710390.2191000003}},{"attributes":{"OBJECTID":18273,"LANDMARKID":"1000500000112","LANDMARKCO":"107","LANDMARKNA":"苗栗縣警察局福基派出所","LANDMARKAD":"1000509","ADDRESS":"苗栗縣公館鄉福基村5鄰133號","TEL":"037-225984","COUNTYNAME":"苗栗縣","TOWNNAME":"公館鄉","MARKTYPE":"991","Class":"1"},"geometry":{"x":232873.97860000003,"y":2707350.0695999991}},{"attributes":{"OBJECTID":18274,"LANDMARKID":"1000500000113","LANDMARKCO":"107","LANDMARKNA":"苗栗縣警察局鶴岡派出所","LANDMARKAD":"1000509","ADDRESS":"苗栗縣公館鄉鶴山村11鄰232號","TEL":"037-226975","COUNTYNAME":"苗栗縣","TOWNNAME":"公館鄉","MARKTYPE":"991","Class":"1"},"geometry":{"x":233105.65880000032,"y":2713460.3428000007}},{"attributes":{"OBJECTID":18275,"LANDMARKID":"1000500000202","LANDMARKCO":"108","LANDMARKNA":"苗栗縣公館鄉公所","LANDMARKAD":"1000509","ADDRESS":"苗栗縣公館鄉玉泉村14鄰368-10號","TEL":"037-222210","COUNTYNAME":"苗栗縣","TOWNNAME":"公館鄉","MARKTYPE":"991","Class":"1"},"geometry":{"x":232399.66309999954,"y":2710370.1791999992}},{"attributes":{"OBJECTID":18276,"LANDMARKID":"1000500000036","LANDMARKCO":"103","LANDMARKNA":"苗栗縣公館鄉民代表會","LANDMARKAD":"1000509","ADDRESS":"苗栗縣公館鄉玉泉村14鄰368之10號3樓","TEL":"037-222725","COUNTYNAME":"苗栗縣","TOWNNAME":"公館鄉","MARKTYPE":"991","Class":"1"},"geometry":{"x":232395.65039999969,"y":2710380.1741000004}},{"attributes":{"OBJECTID":18277,"LANDMARKID":"1000500000420","LANDMARKCO":"205","LANDMARKNA":"台灣油礦陳列館","LANDMARKAD":"1000509","ADDRESS":"苗栗縣公館鄉開礦村36號","TEL":"037-221300","COUNTYNAME":"苗栗縣","TOWNNAME":"公館鄉","MARKTYPE":"992","Class":"2"},"geometry":{"x":235415.26609999966,"y":2705973.1105000004}},{"attributes":{"OBJECTID":18278,"LANDMARKID":"1000500000402","LANDMARKCO":"204","LANDMARKNA":"苗栗縣立圖書館公館分館","LANDMARKAD":"1000509","ADDRESS":"苗栗縣公館鄉館中村8鄰宮前路6之1號3樓","TEL":" ","COUNTYNAME":"苗栗縣","TOWNNAME":"公館鄉","MARKTYPE":"992","Class":"2"},"geometry":{"x":232398.51719999965,"y":2710416.2200000007}},{"attributes":{"OBJECTID":18279,"LANDMARKID":"1000500000326","LANDMARKCO":"203","LANDMARKNA":"縣立公館國中","LANDMARKAD":"1000509","ADDRESS":"苗栗縣公館鄉館中村大同路3號","TEL":"037-222729","COUNTYNAME":"苗栗縣","TOWNNAME":"公館鄉","MARKTYPE":"992","Class":"2"},"geometry":{"x":232439.87689999957,"y":2710200.2296999991}},{"attributes":{"OBJECTID":18280,"LANDMARKID":"1000500000327","LANDMARKCO":"203","LANDMARKNA":"縣立公館國小","LANDMARKAD":"1000509","ADDRESS":"苗栗縣公館鄉館中村大同路15號","TEL":"037-230103","COUNTYNAME":"苗栗縣","TOWNNAME":"公館鄉","MARKTYPE":"992","Class":"2"},"geometry":{"x":232450.76420000009,"y":2710290.2433000002}},{"attributes":{"OBJECTID":18281,"LANDMARKID":"1000500000328","LANDMARKCO":"203","LANDMARKNA":"縣立鶴岡國中","LANDMARKAD":"1000509","ADDRESS":"苗栗縣公館鄉鶴岡村178號","TEL":"037-227685","COUNTYNAME":"苗栗縣","TOWNNAME":"公館鄉","MARKTYPE":"992","Class":"2"},"geometry":{"x":232836.98230000027,"y":2713500.0151000004}},{"attributes":{"OBJECTID":18282,"LANDMARKID":"1000500000329","LANDMARKCO":"203","LANDMARKNA":"縣立開礦國小","LANDMARKAD":"1000509","ADDRESS":"苗栗縣公館鄉開礦村143號","TEL":"037-224559","COUNTYNAME":"苗栗縣","TOWNNAME":"公館鄉","MARKTYPE":"992","Class":"2"},"geometry":{"x":235879.92030000035,"y":2705870.2537999991}},{"attributes":{"OBJECTID":18283,"LANDMARKID":"1000500000330","LANDMARKCO":"203","LANDMARKNA":"縣立鶴岡國小","LANDMARKAD":"1000509","ADDRESS":"苗栗縣公館鄉鶴山村197號","TEL":"037-226205","COUNTYNAME":"苗栗縣","TOWNNAME":"公館鄉","MARKTYPE":"992","Class":"2"},"geometry":{"x":232955.84240000043,"y":2714230.1597000007}},{"attributes":{"OBJECTID":18284,"LANDMARKID":"1000500000331","LANDMARKCO":"203","LANDMARKNA":"縣立南河國小","LANDMARKAD":"1000509","ADDRESS":"苗栗縣公館鄉南河村21號","TEL":"037-226806","COUNTYNAME":"苗栗縣","TOWNNAME":"公館鄉","MARKTYPE":"992","Class":"2"},"geometry":{"x":235121.67329999991,"y":2713790.0494999997}},{"attributes":{"OBJECTID":18285,"LANDMARKID":"1000500000332","LANDMARKCO":"203","LANDMARKNA":"縣立五穀國小","LANDMARKAD":"1000509","ADDRESS":"苗栗縣公館鄉五穀村260號","TEL":"037-226731","COUNTYNAME":"苗栗縣","TOWNNAME":"公館鄉","MARKTYPE":"992","Class":"2"},"geometry":{"x":232044.74789999984,"y":2712760.0840000007}},{"attributes":{"OBJECTID":18286,"LANDMARKID":"1000500000333","LANDMARKCO":"203","LANDMARKNA":"縣立福基國小","LANDMARKAD":"1000509","ADDRESS":"苗栗縣公館鄉福基村275號","TEL":"037-224020","COUNTYNAME":"苗栗縣","TOWNNAME":"公館鄉","MARKTYPE":"992","Class":"2"},"geometry":{"x":233054.70629999973,"y":2706960.2901000008}},{"attributes":{"OBJECTID":18287,"LANDMARKID":"1000500000334","LANDMARKCO":"203","LANDMARKNA":"縣立福德國小","LANDMARKAD":"1000509","ADDRESS":"苗栗縣公館鄉福德村65號","TEL":"037-222003","COUNTYNAME":"苗栗縣","TOWNNAME":"公館鄉","MARKTYPE":"992","Class":"2"},"geometry":{"x":235944.76559999958,"y":2706640.0329}},{"attributes":{"OBJECTID":18288,"LANDMARKID":"1000500000335","LANDMARKCO":"203","LANDMARKNA":"縣立仁愛國小","LANDMARKAD":"1000509","ADDRESS":"苗栗縣公館鄉中村仁愛路二段123號","TEL":"037-235328","COUNTYNAME":"苗栗縣","TOWNNAME":"公館鄉","MARKTYPE":"992","Class":"2"},"geometry":{"x":232230.73020000011,"y":2710930.3243000004}},{"attributes":{"OBJECTID":18289,"LANDMARKID":"1000500000534","LANDMARKCO":"308","LANDMARKNA":"國1-苗栗交流道-南下","LANDMARKAD":"1000509","ADDRESS":"苗栗縣公館鄉","TEL":" ","COUNTYNAME":"苗栗縣","TOWNNAME":"公館鄉","MARKTYPE":"993","Class":"308"},"geometry":{"x":231599.52610000037,"y":2713004.0226000007}},{"attributes":{"OBJECTID":18290,"LANDMARKID":"1000500000535","LANDMARKCO":"308","LANDMARKNA":"國1-苗栗交流道-北上","LANDMARKAD":"1000509","ADDRESS":"苗栗縣公館鄉","TEL":" ","COUNTYNAME":"苗栗縣","TOWNNAME":"公館鄉","MARKTYPE":"993","Class":"308"},"geometry":{"x":231957.75609999988,"y":2713157.6393999998}},{"attributes":{"OBJECTID":18291,"LANDMARKID":"1000500000536","LANDMARKCO":"308","LANDMARKNA":"台72-頭屋二交流道-東行","LANDMARKAD":"1000509","ADDRESS":" ","TEL":" ","COUNTYNAME":"苗栗縣","TOWNNAME":"公館鄉","MARKTYPE":"993","Class":"308"},"geometry":{"x":233865.16610000003,"y":2716886.9553999994}},{"attributes":{"OBJECTID":18292,"LANDMARKID":"1000500000537","LANDMARKCO":"308","LANDMARKNA":"台72-公館交流道-西行","LANDMARKAD":"1000509","ADDRESS":" ","TEL":" ","COUNTYNAME":"苗栗縣","TOWNNAME":"公館鄉","MARKTYPE":"993","Class":"308"},"geometry":{"x":231761.9282999998,"y":2714340.7664000001}},{"attributes":{"OBJECTID":18293,"LANDMARKID":"1000500000538","LANDMARKCO":"308","LANDMARKNA":"台72-石圍牆平交路口","LANDMARKAD":"1000509","ADDRESS":" ","TEL":" ","COUNTYNAME":"苗栗縣","TOWNNAME":"公館鄉","MARKTYPE":"993","Class":"308"},"geometry":{"x":232089.25160000008,"y":2706683.2010999992}},{"attributes":{"OBJECTID":18294,"LANDMARKID":"1000500000539","LANDMARKCO":"308","LANDMARKNA":"台72-開礦村二號平交路口","LANDMARKAD":"1000509","ADDRESS":" ","TEL":" ","COUNTYNAME":"苗栗縣","TOWNNAME":"公館鄉","MARKTYPE":"993","Class":"308"},"geometry":{"x":235709.49880000018,"y":2706045.8271999992}},{"attributes":{"OBJECTID":18295,"LANDMARKID":"1000500000540","LANDMARKCO":"308","LANDMARKNA":"台72-開礦村三號平交路口","LANDMARKAD":"1000509","ADDRESS":" ","TEL":" ","COUNTYNAME":"苗栗縣","TOWNNAME":"公館鄉","MARKTYPE":"993","Class":"308"},"geometry":{"x":236779.78259999957,"y":2706263.7616000008}},{"attributes":{"OBJECTID":18296,"LANDMARKID":"1000500000541","LANDMARKCO":"308","LANDMARKNA":"台72-開礦村一號平交路口","LANDMARKAD":"1000509","ADDRESS":" ","TEL":" ","COUNTYNAME":"苗栗縣","TOWNNAME":"公館鄉","MARKTYPE":"993","Class":"308"},"geometry":{"x":233551.21920000017,"y":2706464.5969999991}},{"attributes":{"OBJECTID":18297,"LANDMARKID":"1000500000443","LANDMARKCO":"302","LANDMARKNA":"統聯汽車客運公館站","LANDMARKAD":"1000509","ADDRESS":"苗栗縣公館鄉五谷村248之1號","TEL":" ","COUNTYNAME":"苗栗縣","TOWNNAME":"公館鄉","MARKTYPE":"993","Class":"302"},"geometry":{"x":232282.78859999962,"y":2712859.5292000007}},{"attributes":{"OBJECTID":18298,"LANDMARKID":"1000500000460","LANDMARKCO":"303","LANDMARKNA":"公館鄉廣用停車場一","LANDMARKAD":"1000509","ADDRESS":"苗栗縣公館鄉館中村仁愛路","TEL":" ","COUNTYNAME":"苗栗縣","TOWNNAME":"公館鄉","MARKTYPE":"993","Class":"303"},"geometry":{"x":232162.62399999984,"y":2710949.0033}},{"attributes":{"OBJECTID":18299,"LANDMARKID":"1000500000461","LANDMARKCO":"303","LANDMARKNA":"公館鄉廣用停車場二","LANDMARKAD":"1000509","ADDRESS":"苗栗縣公館鄉通明路","TEL":" ","COUNTYNAME":"苗栗縣","TOWNNAME":"公館鄉","MARKTYPE":"993","Class":"303"},"geometry":{"x":232037.02529999986,"y":2713242.9493000004}},{"attributes":{"OBJECTID":18300,"LANDMARKID":"1000500000889","LANDMARKCO":"604","LANDMARKNA":"阿諾妮民宿","LANDMARKAD":"1000509","ADDRESS":"苗栗縣公館鄉福星村福星162-6號","TEL":"037-233550","COUNTYNAME":"苗栗縣","TOWNNAME":"公館鄉","MARKTYPE":"996","Class":"6"},"geometry":{"x":232540.62619999982,"y":2707932.1709000003}},{"attributes":{"OBJECTID":18301,"LANDMARKID":"1000500000890","LANDMARKCO":"604","LANDMARKNA":"柿子紅了","LANDMARKAD":"1000509","ADDRESS":"苗栗縣公館鄉福德村福德21號","TEL":"037-231425","COUNTYNAME":"苗栗縣","TOWNNAME":"公館鄉","MARKTYPE":"996","Class":"6"},"geometry":{"x":234757.69070000015,"y":2706823.5091999993}},{"attributes":{"OBJECTID":18302,"LANDMARKID":"1000500000891","LANDMARKCO":"604","LANDMARKNA":"桐莊","LANDMARKAD":"1000509","ADDRESS":"苗栗縣公館鄉福德村福德35-12號","TEL":"037-232041","COUNTYNAME":"苗栗縣","TOWNNAME":"公館鄉","MARKTYPE":"996","Class":"6"},"geometry":{"x":235334.14250000007,"y":2707829.4331999999}},{"attributes":{"OBJECTID":18303,"LANDMARKID":"1000500000892","LANDMARKCO":"604","LANDMARKNA":"攬月莊民宿","LANDMARKAD":"1000509","ADDRESS":"苗栗縣公館鄉福德村福德35-2號","TEL":"037-233305","COUNTYNAME":"苗栗縣","TOWNNAME":"公館鄉","MARKTYPE":"996","Class":"6"},"geometry":{"x":235288.12280000001,"y":2707808.3899000008}},{"attributes":{"OBJECTID":18304,"LANDMARKID":"1000500000893","LANDMARKCO":"604","LANDMARKNA":"境築","LANDMARKAD":"1000509","ADDRESS":"苗栗縣公館鄉福德村福德36-15號","TEL":"037-236377","COUNTYNAME":"苗栗縣","TOWNNAME":"公館鄉","MARKTYPE":"996","Class":"6"},"geometry":{"x":235294.10329999961,"y":2707898.4331}},{"attributes":{"OBJECTID":18305,"LANDMARKID":"1000500000894","LANDMARKCO":"604","LANDMARKNA":"油桐花小徑","LANDMARKAD":"1000509","ADDRESS":"苗栗縣公館鄉福德村福德36-20號","TEL":"037-239988","COUNTYNAME":"苗栗縣","TOWNNAME":"公館鄉","MARKTYPE":"996","Class":"6"},"geometry":{"x":235338.09570000041,"y":2707839.5118000004}},{"attributes":{"OBJECTID":18306,"LANDMARKID":"1000500000895","LANDMARKCO":"604","LANDMARKNA":"福村養生農場","LANDMARKAD":"1000509","ADDRESS":"苗栗縣公館鄉福德村福德7-1號","TEL":"037-220675","COUNTYNAME":"苗栗縣","TOWNNAME":"公館鄉","MARKTYPE":"996","Class":"6"},"geometry":{"x":234566.16530000046,"y":2706704.7806000002}},{"attributes":{"OBJECTID":18307,"LANDMARKID":"1000500000896","LANDMARKCO":"604","LANDMARKNA":"皇家民宿休閒中心","LANDMARKAD":"1000509","ADDRESS":"苗栗縣公館鄉館南村10鄰265之5號","TEL":"037-228789","COUNTYNAME":"苗栗縣","TOWNNAME":"公館鄉","MARKTYPE":"996","Class":"6"},"geometry":{"x":232156.37079999968,"y":2709626.9640999995}},{"attributes":{"OBJECTID":18308,"LANDMARKID":"1000500000897","LANDMARKCO":"604","LANDMARKNA":"山水築情","LANDMARKAD":"1000509","ADDRESS":"苗栗縣公館鄉開礦村2鄰30號","TEL":"037-237640","COUNTYNAME":"苗栗縣","TOWNNAME":"公館鄉","MARKTYPE":"996","Class":"6"},"geometry":{"x":234331.54669999983,"y":2706309.3697999995}},{"attributes":{"OBJECTID":18309,"LANDMARKID":"1000500000864","LANDMARKCO":"603","LANDMARKNA":"圓緣汽車旅館","LANDMARKAD":"1000509","ADDRESS":"苗栗縣公館鄉館南村通明街182巷9號","TEL":"037-237889","COUNTYNAME":"苗栗縣","TOWNNAME":"公館鄉","MARKTYPE":"996","Class":"6"},"geometry":{"x":231927.08820000011,"y":2710582.8103}},{"attributes":{"OBJECTID":18310,"LANDMARKID":"1000500000677","LANDMARKCO":"405","LANDMARKNA":"中油加油站-通利站(中油直營)","LANDMARKAD":"1000503","ADDRESS":"苗栗縣通霄鎮平安里12鄰平元105-9號","TEL":"03-7764736","COUNTYNAME":"苗栗縣","TOWNNAME":"通霄鎮","MARKTYPE":"994","Class":"4"},"geometry":{"x":218869.26009999961,"y":2710224.9594000001}},{"attributes":{"OBJECTID":18311,"LANDMARKID":"1000500000678","LANDMARKCO":"405","LANDMARKNA":"中油加油站-通霄站(中油直營)","LANDMARKAD":"1000503","ADDRESS":"苗栗縣通霄鎮中山路297號","TEL":"037-752075","COUNTYNAME":"苗栗縣","TOWNNAME":"通霄鎮","MARKTYPE":"994","Class":"4"},"geometry":{"x":217547.39599999972,"y":2709647.6853}},{"attributes":{"OBJECTID":18312,"LANDMARKID":"1000500000679","LANDMARKCO":"405","LANDMARKNA":"中油加油站-新埔站","LANDMARKAD":"1000503","ADDRESS":"苗栗縣通霄鎮新埔里中山路399號","TEL":"037-793866","COUNTYNAME":"苗栗縣","TOWNNAME":"通霄鎮","MARKTYPE":"994","Class":"4"},"geometry":{"x":219212.90649999958,"y":2714915.6436999999}},{"attributes":{"OBJECTID":18313,"LANDMARKID":"1000500000680","LANDMARKCO":"405","LANDMARKNA":"中油加油站-南北通站","LANDMARKAD":"1000503","ADDRESS":"苗栗縣通霄鎮內湖里烏眉路226號","TEL":"037-765656","COUNTYNAME":"苗栗縣","TOWNNAME":"通霄鎮","MARKTYPE":"994","Class":"4"},"geometry":{"x":219762.40529999975,"y":2709998.5807000007}},{"attributes":{"OBJECTID":18314,"LANDMARKID":"1000500000599","LANDMARKCO":"402","LANDMARKNA":"亞太行動寬頻電信-通霄中正加盟服務中心","LANDMARKAD":"1000503","ADDRESS":"苗栗縣通霄鎮通西里四鄰中正路36號","TEL":"037-752484","COUNTYNAME":"苗栗縣","TOWNNAME":"通霄鎮","MARKTYPE":"994","Class":"4"},"geometry":{"x":217692.73529999983,"y":2709361.5021000002}},{"attributes":{"OBJECTID":18315,"LANDMARKID":"1000500000556","LANDMARKCO":"401","LANDMARKNA":"通霄光田醫院","LANDMARKAD":"1000503","ADDRESS":"苗栗縣通霄鎮中山路88號","TEL":"037-759999","COUNTYNAME":"苗栗縣","TOWNNAME":"通霄鎮","MARKTYPE":"994","Class":"4"},"geometry":{"x":217385.99039999954,"y":2709210.1078999992}},{"attributes":{"OBJECTID":18316,"LANDMARKID":"1000500000804","LANDMARKCO":"506","LANDMARKNA":"中部酪農村休閒農場","LANDMARKAD":"1000503","ADDRESS":"苗栗縣通霄鎮南和里166號","TEL":"037-782999","COUNTYNAME":"苗栗縣","TOWNNAME":"通霄鎮","MARKTYPE":"995","Class":"5"},"geometry":{"x":223916.09630000032,"y":2704042.8310000002}},{"attributes":{"OBJECTID":18317,"LANDMARKID":"1000500000709","LANDMARKCO":"406","LANDMARKNA":"虎頭山公園","LANDMARKAD":"1000503","ADDRESS":"苗栗縣通霄鎮","TEL":" ","COUNTYNAME":"苗栗縣","TOWNNAME":"通霄鎮","MARKTYPE":"994","Class":"4"},"geometry":{"x":217867.3200000003,"y":2709664.3455999997}},{"attributes":{"OBJECTID":18318,"LANDMARKID":"1000500000733","LANDMARKCO":"408","LANDMARKNA":"郵局-通霄郵局","LANDMARKAD":"1000503","ADDRESS":"苗栗縣通霄鎮通西里中正路76號","TEL":"(037)752-264","COUNTYNAME":"苗栗縣","TOWNNAME":"通霄鎮","MARKTYPE":"994","Class":"4"},"geometry":{"x":217557.22420000006,"y":2709397.7123000007}},{"attributes":{"OBJECTID":18319,"LANDMARKID":"1000500000734","LANDMARKCO":"408","LANDMARKNA":"郵局-通霄白沙屯郵局","LANDMARKAD":"1000503","ADDRESS":"苗栗縣通霄鎮白東里142號","TEL":"(037)792-976","COUNTYNAME":"苗栗縣","TOWNNAME":"通霄鎮","MARKTYPE":"994","Class":"4"},"geometry":{"x":220709.52159999963,"y":2717768.4022000004}},{"attributes":{"OBJECTID":18320,"LANDMARKID":"1000500000780","LANDMARKCO":"409","LANDMARKNA":"通霄鎮農會","LANDMARKAD":"1000503","ADDRESS":"苗栗縣通霄鎮通東里中正路17號","TEL":"037-75311","COUNTYNAME":"苗栗縣","TOWNNAME":"通霄鎮","MARKTYPE":"994","Class":"4"},"geometry":{"x":217804.93479999993,"y":2709351.5382000003}},{"attributes":{"OBJECTID":18321,"LANDMARKID":"1000500000605","LANDMARKCO":"404","LANDMARKNA":"台灣省自來水通霄營運所","LANDMARKAD":"1000503","ADDRESS":"苗栗縣通霄鎮平元里8號","TEL":" ","COUNTYNAME":"苗栗縣","TOWNNAME":"通霄鎮","MARKTYPE":"994","Class":"4"},"geometry":{"x":217912.16550000012,"y":2708654.4940000009}},{"attributes":{"OBJECTID":18322,"LANDMARKID":"1000500000675","LANDMARKCO":"405","LANDMARKNA":"福懋加油站-通宵站(台塑)","LANDMARKAD":"1000503","ADDRESS":"苗栗縣通霄鎮通南里中山路2-1號","TEL":"03-7758080","COUNTYNAME":"苗栗縣","TOWNNAME":"通霄鎮","MARKTYPE":"994","Class":"4"},"geometry":{"x":217099.46300000045,"y":2708118.4224999994}},{"attributes":{"OBJECTID":18323,"LANDMARKID":"1000500000676","LANDMARKCO":"405","LANDMARKNA":"台塑加油站-通苑站(台塑)","LANDMARKAD":"1000503","ADDRESS":"苗栗縣通霄鎮五南里7鄰中山路436號","TEL":"03-7852237","COUNTYNAME":"苗栗縣","TOWNNAME":"通霄鎮","MARKTYPE":"994","Class":"4"},"geometry":{"x":216136.59240000043,"y":2706980.0077}},{"attributes":{"OBJECTID":18324,"LANDMARKID":"1000500000084","LANDMARKCO":"106","LANDMARKNA":"苗栗縣通霄鎮戶政事務所","LANDMARKAD":"1000503","ADDRESS":"苗栗縣通霄鎮通東里23鄰中正路14號","TEL":"037-753144","COUNTYNAME":"苗栗縣","TOWNNAME":"通霄鎮","MARKTYPE":"991","Class":"1"},"geometry":{"x":217825.55179999955,"y":2709400.4748999998}},{"attributes":{"OBJECTID":18325,"LANDMARKID":"1000500000116","LANDMARKCO":"107","LANDMARKNA":"苗栗縣警察局通霄分局","LANDMARKAD":"1000503","ADDRESS":"苗栗縣通霄鎮通東里中正路16號","TEL":"037-752464","COUNTYNAME":"苗栗縣","TOWNNAME":"通霄鎮","MARKTYPE":"991","Class":"1"},"geometry":{"x":217780.45940000005,"y":2709440.3713000007}},{"attributes":{"OBJECTID":18326,"LANDMARKID":"1000500000117","LANDMARKCO":"107","LANDMARKNA":"苗栗縣警察局通霄派出所","LANDMARKAD":"1000503","ADDRESS":"苗栗縣通霄鎮中正路16號","TEL":"037-752001","COUNTYNAME":"苗栗縣","TOWNNAME":"通霄鎮","MARKTYPE":"991","Class":"1"},"geometry":{"x":217785.48249999993,"y":2709430.3827999998}},{"attributes":{"OBJECTID":18327,"LANDMARKID":"1000500000118","LANDMARKCO":"107","LANDMARKNA":"苗栗縣消防局通霄消防分隊","LANDMARKAD":"1000503","ADDRESS":"苗栗縣通霄鎮中正路18號","TEL":"037-752405","COUNTYNAME":"苗栗縣","TOWNNAME":"通霄鎮","MARKTYPE":"991","Class":"1"},"geometry":{"x":217801.52859999985,"y":2709410.4197000004}},{"attributes":{"OBJECTID":18328,"LANDMARKID":"1000500000037","LANDMARKCO":"103","LANDMARKNA":"苗栗縣通霄鎮衛生所","LANDMARKAD":"1000503","ADDRESS":"苗栗縣通霄鎮中正路9之6號","TEL":"037-752048","COUNTYNAME":"苗栗縣","TOWNNAME":"通霄鎮","MARKTYPE":"991","Class":"1"},"geometry":{"x":217876.59810000006,"y":2709380.5921}},{"attributes":{"OBJECTID":18329,"LANDMARKID":"1000500000201","LANDMARKCO":"108","LANDMARKNA":"苗栗縣通霄鎮公所","LANDMARKAD":"1000503","ADDRESS":"苗栗縣通霄鎮中正路8號","TEL":"037-752104","COUNTYNAME":"苗栗縣","TOWNNAME":"通霄鎮","MARKTYPE":"991","Class":"1"},"geometry":{"x":217952.48429999966,"y":2709430.1180000007}},{"attributes":{"OBJECTID":18330,"LANDMARKID":"1000500000038","LANDMARKCO":"103","LANDMARKNA":"苗栗縣通霄鎮鎮民代表會","LANDMARKAD":"1000503","ADDRESS":"苗栗縣通霄鎮中正路8號","TEL":"037-752027","COUNTYNAME":"苗栗縣","TOWNNAME":"通霄鎮","MARKTYPE":"991","Class":"1"},"geometry":{"x":217953.48429999966,"y":2709430.1203000005}},{"attributes":{"OBJECTID":18331,"LANDMARKID":"1000500000067","LANDMARKCO":"105","LANDMARKNA":"苗栗縣通霄地政事務所","LANDMARKAD":"1000503","ADDRESS":"苗栗縣通霄鎮中正路12之2號","TEL":"037-757265","COUNTYNAME":"苗栗縣","TOWNNAME":"通霄鎮","MARKTYPE":"991","Class":"1"},"geometry":{"x":217832.45999999996,"y":2709440.4908000007}},{"attributes":{"OBJECTID":18332,"LANDMARKID":"1000500000119","LANDMARKCO":"107","LANDMARKNA":"苗栗縣警察局埔口派出所","LANDMARKAD":"1000503","ADDRESS":"苗栗縣通霄鎮通灣里17之18號","TEL":"037-792143","COUNTYNAME":"苗栗縣","TOWNNAME":"通霄鎮","MARKTYPE":"991","Class":"1"},"geometry":{"x":218897.61050000042,"y":2714300.3147999998}},{"attributes":{"OBJECTID":18333,"LANDMARKID":"1000500000120","LANDMARKCO":"107","LANDMARKNA":"苗栗縣警察局中和派出所","LANDMARKAD":"1000503","ADDRESS":"苗栗縣通霄鎮南和里9鄰112號","TEL":"037-782254","COUNTYNAME":"苗栗縣","TOWNNAME":"通霄鎮","MARKTYPE":"991","Class":"1"},"geometry":{"x":221873.58660000004,"y":2704480.0832000002}},{"attributes":{"OBJECTID":18334,"LANDMARKID":"1000500000121","LANDMARKCO":"107","LANDMARKNA":"苗栗縣警察局白沙派出所","LANDMARKAD":"1000503","ADDRESS":"苗栗縣通霄鎮白東里133號","TEL":"037-792134","COUNTYNAME":"苗栗縣","TOWNNAME":"通霄鎮","MARKTYPE":"991","Class":"1"},"geometry":{"x":220674.43900000025,"y":2718080.4677000009}},{"attributes":{"OBJECTID":18335,"LANDMARKID":"1000500000122","LANDMARKCO":"107","LANDMARKNA":"苗栗縣警察局五福派出所","LANDMARKAD":"1000503","ADDRESS":"苗栗縣通霄鎮五南里5鄰44號","TEL":"037-752805","COUNTYNAME":"苗栗縣","TOWNNAME":"通霄鎮","MARKTYPE":"991","Class":"1"},"geometry":{"x":216580.79540000018,"y":2707140.2208999991}},{"attributes":{"OBJECTID":18336,"LANDMARKID":"1000500000123","LANDMARKCO":"107","LANDMARKNA":"苗栗縣警察局烏眉派出所","LANDMARKAD":"1000503","ADDRESS":"苗栗縣通霄鎮烏眉里4鄰41號","TEL":"037-753164","COUNTYNAME":"苗栗縣","TOWNNAME":"通霄鎮","MARKTYPE":"991","Class":"1"},"geometry":{"x":222026.89890000038,"y":2711400.3620999996}},{"attributes":{"OBJECTID":18337,"LANDMARKID":"1000500000421","LANDMARKCO":"205","LANDMARKNA":"圳頭窯藝博物館(醉陶)","LANDMARKAD":"1000503","ADDRESS":"苗栗縣通霄鎮圳頭里25之25號","TEL":"037-762999","COUNTYNAME":"苗栗縣","TOWNNAME":"通霄鎮","MARKTYPE":"992","Class":"2"},"geometry":{"x":222155.08509999979,"y":2706965.0304000005}},{"attributes":{"OBJECTID":18338,"LANDMARKID":"1000500000401","LANDMARKCO":"204","LANDMARKNA":"苗栗縣立圖書館通霄分館","LANDMARKAD":"1000503","ADDRESS":"苗栗縣通霄鎮中正路9之5號","TEL":" ","COUNTYNAME":"苗栗縣","TOWNNAME":"通霄鎮","MARKTYPE":"992","Class":"2"},"geometry":{"x":217913.21040000021,"y":2709388.2217999995}},{"attributes":{"OBJECTID":18339,"LANDMARKID":"1000500000314","LANDMARKCO":"203","LANDMARKNA":"縣立通霄國中","LANDMARKAD":"1000503","ADDRESS":"苗栗縣通霄鎮中山路190巷1號","TEL":"037-752002","COUNTYNAME":"苗栗縣","TOWNNAME":"通霄鎮","MARKTYPE":"992","Class":"2"},"geometry":{"x":217633.72950000037,"y":2709630.0314000007}},{"attributes":{"OBJECTID":18340,"LANDMARKID":"1000500000315","LANDMARKCO":"203","LANDMARKNA":"縣立通霄國小","LANDMARKAD":"1000503","ADDRESS":"苗栗縣通霄鎮通東里中正路12號","TEL":"037-752008","COUNTYNAME":"苗栗縣","TOWNNAME":"通霄鎮","MARKTYPE":"992","Class":"2"},"geometry":{"x":217903.39209999982,"y":2709470.6535}},{"attributes":{"OBJECTID":18341,"LANDMARKID":"1000500000219","LANDMARKCO":"202","LANDMARKNA":"私立賢德工商","LANDMARKAD":"1000503","ADDRESS":"苗栗縣通霄鎮五北里74之1號","TEL":"037-751011","COUNTYNAME":"苗栗縣","TOWNNAME":"通霄鎮","MARKTYPE":"992","Class":"2"},"geometry":{"x":217101.85510000028,"y":2707730.1151999999}},{"attributes":{"OBJECTID":18342,"LANDMARKID":"1000500000301","LANDMARKCO":"203","LANDMARKNA":"縣立南和國中","LANDMARKAD":"1000503","ADDRESS":"苗栗縣通霄鎮南和里112之1號","TEL":"037-782404","COUNTYNAME":"苗栗縣","TOWNNAME":"通霄鎮","MARKTYPE":"992","Class":"2"},"geometry":{"x":221757.9227,"y":2704620.4176000003}},{"attributes":{"OBJECTID":18343,"LANDMARKID":"1000500000302","LANDMARKCO":"203","LANDMARKNA":"縣立啟新國中","LANDMARKAD":"1000503","ADDRESS":"苗栗縣通霄鎮白東里135之2號","TEL":"037-792804","COUNTYNAME":"苗栗縣","TOWNNAME":"通霄鎮","MARKTYPE":"992","Class":"2"},"geometry":{"x":220967.99380000029,"y":2717200.4912}},{"attributes":{"OBJECTID":18344,"LANDMARKID":"1000500000303","LANDMARKCO":"203","LANDMARKNA":"縣立烏眉國中","LANDMARKAD":"1000503","ADDRESS":"苗栗縣通霄鎮內湖里1號","TEL":"037-752409","COUNTYNAME":"苗栗縣","TOWNNAME":"通霄鎮","MARKTYPE":"992","Class":"2"},"geometry":{"x":221215.82189999986,"y":2711130.4428000003}},{"attributes":{"OBJECTID":18345,"LANDMARKID":"1000500000304","LANDMARKCO":"203","LANDMARKNA":"縣立楓樹國小","LANDMARKAD":"1000503","ADDRESS":"苗栗縣通霄鎮楓樹里116號","TEL":"037-754004","COUNTYNAME":"苗栗縣","TOWNNAME":"通霄鎮","MARKTYPE":"992","Class":"2"},"geometry":{"x":221916.84229999967,"y":2709890.1478000004}},{"attributes":{"OBJECTID":18346,"LANDMARKID":"1000500000305","LANDMARKCO":"203","LANDMARKNA":"縣立南和國小","LANDMARKAD":"1000503","ADDRESS":"苗栗縣通霄鎮南和里117號","TEL":"037-782304","COUNTYNAME":"苗栗縣","TOWNNAME":"通霄鎮","MARKTYPE":"992","Class":"2"},"geometry":{"x":221716.74139999971,"y":2704710.3346999995}},{"attributes":{"OBJECTID":18347,"LANDMARKID":"1000500000306","LANDMARKCO":"203","LANDMARKNA":"縣立烏眉國小","LANDMARKAD":"1000503","ADDRESS":"苗栗縣通霄鎮烏眉里39號","TEL":"037-753084","COUNTYNAME":"苗栗縣","TOWNNAME":"通霄鎮","MARKTYPE":"992","Class":"2"},"geometry":{"x":221724.55559999961,"y":2711570.3235999998}},{"attributes":{"OBJECTID":18348,"LANDMARKID":"1000500000307","LANDMARKCO":"203","LANDMARKNA":"縣立五福國小","LANDMARKAD":"1000503","ADDRESS":"苗栗縣通霄鎮五北里30之1號","TEL":"037-754814","COUNTYNAME":"苗栗縣","TOWNNAME":"通霄鎮","MARKTYPE":"992","Class":"2"},"geometry":{"x":216119.83789999969,"y":2707430.4701000005}},{"attributes":{"OBJECTID":18349,"LANDMARKID":"1000500000308","LANDMARKCO":"203","LANDMARKNA":"縣立新埔國小","LANDMARKAD":"1000503","ADDRESS":"苗栗縣通霄鎮新埔里55號","TEL":"037-792094","COUNTYNAME":"苗栗縣","TOWNNAME":"通霄鎮","MARKTYPE":"992","Class":"2"},"geometry":{"x":219096.88379999995,"y":2715100.1261999998}},{"attributes":{"OBJECTID":18350,"LANDMARKID":"1000500000309","LANDMARKCO":"203","LANDMARKNA":"縣立福興國小","LANDMARKAD":"1000503","ADDRESS":"苗栗縣通霄鎮福興里58之2號","TEL":"037-782984","COUNTYNAME":"苗栗縣","TOWNNAME":"通霄鎮","MARKTYPE":"992","Class":"2"},"geometry":{"x":222399.91959999967,"y":2702160.0174000002}},{"attributes":{"OBJECTID":18351,"LANDMARKID":"1000500000310","LANDMARKCO":"203","LANDMARKNA":"縣立坪頂國小","LANDMARKAD":"1000503","ADDRESS":"苗栗縣通霄鎮坪頂里50號","TEL":"037-782214","COUNTYNAME":"苗栗縣","TOWNNAME":"通霄鎮","MARKTYPE":"992","Class":"2"},"geometry":{"x":220132.52610000037,"y":2704500.5804999992}},{"attributes":{"OBJECTID":18352,"LANDMARKID":"1000500000311","LANDMARKCO":"203","LANDMARKNA":"縣立圳頭國小","LANDMARKAD":"1000503","ADDRESS":"苗栗縣通霄鎮圳頭里60號","TEL":"037-754434","COUNTYNAME":"苗栗縣","TOWNNAME":"通霄鎮","MARKTYPE":"992","Class":"2"},"geometry":{"x":220458.8814000003,"y":2708640.0541999992}},{"attributes":{"OBJECTID":18353,"LANDMARKID":"1000500000312","LANDMARKCO":"203","LANDMARKNA":"縣立城中國小","LANDMARKAD":"1000503","ADDRESS":"苗栗縣通霄鎮城北里13之1號","TEL":"037-754504","COUNTYNAME":"苗栗縣","TOWNNAME":"通霄鎮","MARKTYPE":"992","Class":"2"},"geometry":{"x":220033.98720000032,"y":2707360.3567999993}},{"attributes":{"OBJECTID":18354,"LANDMARKID":"1000500000313","LANDMARKCO":"203","LANDMARKNA":"縣立啟明國小","LANDMARKAD":"1000503","ADDRESS":"苗栗縣通霄鎮內島里15號","TEL":"037-792537","COUNTYNAME":"苗栗縣","TOWNNAME":"通霄鎮","MARKTYPE":"992","Class":"2"},"geometry":{"x":220525.83179999981,"y":2716970.1587000005}},{"attributes":{"OBJECTID":18355,"LANDMARKID":"1000500000481","LANDMARKCO":"305","LANDMARKNA":"通霄漁港","LANDMARKAD":"1000503","ADDRESS":"苗栗縣通霄鎮通灣里","TEL":" ","COUNTYNAME":"苗栗縣","TOWNNAME":"通霄鎮","MARKTYPE":"993","Class":"305"},"geometry":{"x":217109.16289999988,"y":2710208.6634}},{"attributes":{"OBJECTID":18356,"LANDMARKID":"1000500000527","LANDMARKCO":"308","LANDMARKNA":"國3-通霄交流道-南下","LANDMARKAD":"1000503","ADDRESS":"苗栗縣通霄鎮","TEL":" ","COUNTYNAME":"苗栗縣","TOWNNAME":"通霄鎮","MARKTYPE":"993","Class":"308"},"geometry":{"x":220023.9765999997,"y":2709865.6086999997}},{"attributes":{"OBJECTID":18357,"LANDMARKID":"1000500000528","LANDMARKCO":"308","LANDMARKNA":"國3-通霄交流道-北上","LANDMARKAD":"1000503","ADDRESS":"苗栗縣通霄鎮","TEL":" ","COUNTYNAME":"苗栗縣","TOWNNAME":"通霄鎮","MARKTYPE":"993","Class":"308"},"geometry":{"x":220209.72130000032,"y":2710290.5315000005}},{"attributes":{"OBJECTID":18358,"LANDMARKID":"1000500000529","LANDMARKCO":"308","LANDMARKNA":"台61-台1線平交匝道-北上","LANDMARKAD":"1000503","ADDRESS":" ","TEL":" ","COUNTYNAME":"苗栗縣","TOWNNAME":"通霄鎮","MARKTYPE":"993","Class":"308"},"geometry":{"x":221290.0597000001,"y":2718292.6173}},{"attributes":{"OBJECTID":18359,"LANDMARKID":"1000500000530","LANDMARKCO":"308","LANDMARKNA":"台61-通霄連絡道平交匝道-南下","LANDMARKAD":"1000503","ADDRESS":" ","TEL":" ","COUNTYNAME":"苗栗縣","TOWNNAME":"通霄鎮","MARKTYPE":"993","Class":"308"},"geometry":{"x":217778.84860000014,"y":2711008.3290999997}},{"attributes":{"OBJECTID":18360,"LANDMARKID":"1000500000531","LANDMARKCO":"308","LANDMARKNA":"台61-通霄交流道-北上","LANDMARKAD":"1000503","ADDRESS":" ","TEL":" ","COUNTYNAME":"苗栗縣","TOWNNAME":"通霄鎮","MARKTYPE":"993","Class":"308"},"geometry":{"x":217243.49060000014,"y":2709992.0567000005}},{"attributes":{"OBJECTID":18361,"LANDMARKID":"1000500000476","LANDMARKCO":"303","LANDMARKNA":"通霄西濱海洋生態教育園區停車場","LANDMARKAD":"1000503","ADDRESS":"苗栗縣通霄鎮海濱路41之1號","TEL":"037-761777","COUNTYNAME":"苗栗縣","TOWNNAME":"通霄鎮","MARKTYPE":"993","Class":"303"},"geometry":{"x":217038.64429999981,"y":2709627.0624000002}},{"attributes":{"OBJECTID":18362,"LANDMARKID":"1000500000431","LANDMARKCO":"301","LANDMARKNA":"通霄火車站","LANDMARKAD":"1000503","ADDRESS":"苗栗縣通霄鎮通西里中山路109號","TEL":"037-758300","COUNTYNAME":"苗栗縣","TOWNNAME":"通霄鎮","MARKTYPE":"993","Class":"301"},"geometry":{"x":217397.86730000004,"y":2709494.5339000002}},{"attributes":{"OBJECTID":18363,"LANDMARKID":"1000500000432","LANDMARKCO":"301","LANDMARKNA":"新埔火車站","LANDMARKAD":"1000503","ADDRESS":"苗栗縣通霄鎮新埔里8鄰57號","TEL":" ","COUNTYNAME":"苗栗縣","TOWNNAME":"通霄鎮","MARKTYPE":"993","Class":"301"},"geometry":{"x":219143.63819999993,"y":2714944.4958999995}},{"attributes":{"OBJECTID":18364,"LANDMARKID":"1000500000433","LANDMARKCO":"301","LANDMARKNA":"白沙屯火車站","LANDMARKAD":"1000503","ADDRESS":"苗栗縣通霄鎮白西里131號","TEL":"037-793066","COUNTYNAME":"苗栗縣","TOWNNAME":"通霄鎮","MARKTYPE":"993","Class":"301"},"geometry":{"x":220340.6716,"y":2717451.4966000002}},{"attributes":{"OBJECTID":18365,"LANDMARKID":"1000500000598","LANDMARKCO":"402","LANDMARKNA":"中華電信-通霄服務中心","LANDMARKAD":"1000503","ADDRESS":"苗栗縣通霄鎮中正路74-2號","TEL":"(037)752-521","COUNTYNAME":"苗栗縣","TOWNNAME":"通霄鎮","MARKTYPE":"994","Class":"4"},"geometry":{"x":217568.47449999955,"y":2709394.8325999994}},{"attributes":{"OBJECTID":18366,"LANDMARKID":"1000500000898","LANDMARKCO":"604","LANDMARKNA":"如意園","LANDMARKAD":"1000503","ADDRESS":"苗栗縣通霄鎮福興里4鄰33-9號","TEL":"037-783665","COUNTYNAME":"苗栗縣","TOWNNAME":"通霄鎮","MARKTYPE":"996","Class":"6"},"geometry":{"x":223942.58920000028,"y":2702251.7407000009}},{"attributes":{"OBJECTID":18367,"LANDMARKID":"1000500000846","LANDMARKCO":"603","LANDMARKNA":"國賓大旅社","LANDMARKAD":"1000503","ADDRESS":"苗栗縣通霄鎮中正路105號","TEL":"037-752176","COUNTYNAME":"苗栗縣","TOWNNAME":"通霄鎮","MARKTYPE":"996","Class":"6"},"geometry":{"x":217439.95689999964,"y":2709429.4990999997}},{"attributes":{"OBJECTID":18368,"LANDMARKID":"1000500000847","LANDMARKCO":"603","LANDMARKNA":"銀座大旅社","LANDMARKAD":"1000503","ADDRESS":"苗栗縣通霄鎮光復路65號","TEL":"037-752114","COUNTYNAME":"苗栗縣","TOWNNAME":"通霄鎮","MARKTYPE":"996","Class":"6"},"geometry":{"x":217447.05169999972,"y":2709273.9984000009}},{"attributes":{"OBJECTID":18369,"LANDMARKID":"1000500000829","LANDMARKCO":"509","LANDMARKNA":"通霄海水浴場","LANDMARKAD":"1000503","ADDRESS":"苗栗縣通霄鎮海濱路41之1號","TEL":" ","COUNTYNAME":"苗栗縣","TOWNNAME":"通霄鎮","MARKTYPE":"995","Class":"5"},"geometry":{"x":216679.63430000003,"y":2709984.5777000003}},{"attributes":{"OBJECTID":18370,"LANDMARKID":"1000500000617","LANDMARKCO":"405","LANDMARKNA":"山隆加油站-苗栗站(中油)","LANDMARKAD":"1000510","ADDRESS":"苗栗縣銅鑼鄉中平村中隆一路1號","TEL":"03-7234529","COUNTYNAME":"苗栗縣","TOWNNAME":"銅鑼鄉","MARKTYPE":"994","Class":"4"},"geometry":{"x":229815.27219999954,"y":2709838.8923000004}},{"attributes":{"OBJECTID":18371,"LANDMARKID":"1000500000618","LANDMARKCO":"405","LANDMARKNA":"統一速邁樂加油站-銅鑼加油站(中油)","LANDMARKAD":"1000510","ADDRESS":"苗栗縣銅鑼鄉中興一街1號","TEL":" ","COUNTYNAME":"苗栗縣","TOWNNAME":"銅鑼鄉","MARKTYPE":"994","Class":"4"},"geometry":{"x":229879.27859999985,"y":2709813.2836000007}},{"attributes":{"OBJECTID":18372,"LANDMARKID":"1000500000619","LANDMARKCO":"405","LANDMARKNA":"中油加油站-銅鑼站(中油直營)","LANDMARKAD":"1000510","ADDRESS":"苗栗縣銅鑼鄉銅鑼村中正路151號","TEL":"037-981124","COUNTYNAME":"苗栗縣","TOWNNAME":"銅鑼鄉","MARKTYPE":"994","Class":"4"},"geometry":{"x":228511.75030000042,"y":2709340.2962999996}},{"attributes":{"OBJECTID":18373,"LANDMARKID":"1000500000620","LANDMARKCO":"405","LANDMARKNA":"中油加油站-銅鑼站","LANDMARKAD":"1000510","ADDRESS":"苗栗縣銅鑼鄉樟樹村竹圍35號之1","TEL":"037-986855","COUNTYNAME":"苗栗縣","TOWNNAME":"銅鑼鄉","MARKTYPE":"994","Class":"4"},"geometry":{"x":226649.55339999963,"y":2705648.6918000001}},{"attributes":{"OBJECTID":18374,"LANDMARKID":"1000500000621","LANDMARKCO":"405","LANDMARKNA":"中油加油站-福員站","LANDMARKAD":"1000510","ADDRESS":"苗栗縣銅鑼鄉中平村中平131之5號","TEL":"037-236097","COUNTYNAME":"苗栗縣","TOWNNAME":"銅鑼鄉","MARKTYPE":"994","Class":"4"},"geometry":{"x":230689.32419999968,"y":2709899.1959000006}},{"attributes":{"OBJECTID":18375,"LANDMARKID":"1000500000622","LANDMARKCO":"405","LANDMARKNA":"中油加油站-松豐站","LANDMARKAD":"1000510","ADDRESS":"苗栗縣銅鑼鄉中正路17-8號","TEL":"037-986721","COUNTYNAME":"苗栗縣","TOWNNAME":"銅鑼鄉","MARKTYPE":"994","Class":"4"},"geometry":{"x":228464.81300000008,"y":2709551.5950000007}},{"attributes":{"OBJECTID":18376,"LANDMARKID":"1000500000757","LANDMARKCO":"408","LANDMARKNA":"郵局-銅鑼郵局","LANDMARKAD":"1000510","ADDRESS":"苗栗縣銅鑼鄉中正路153號","TEL":"(037)981-133","COUNTYNAME":"苗栗縣","TOWNNAME":"銅鑼鄉","MARKTYPE":"994","Class":"4"},"geometry":{"x":228424.05850000028,"y":2709111.2705000006}},{"attributes":{"OBJECTID":18377,"LANDMARKID":"1000500000766","LANDMARKCO":"409","LANDMARKNA":"苗栗縣銅鑼鄉農會","LANDMARKAD":"1000510","ADDRESS":"苗栗縣銅鑼鄉銅鑼村永樂路22號","TEL":"037-981047","COUNTYNAME":"苗栗縣","TOWNNAME":"銅鑼鄉","MARKTYPE":"994","Class":"4"},"geometry":{"x":228460.87870000023,"y":2709133.5439999998}},{"attributes":{"OBJECTID":18378,"LANDMARKID":"1000500000608","LANDMARKCO":"404","LANDMARKNA":"台灣省自來水銅鑼營運所","LANDMARKAD":"1000510","ADDRESS":"苗栗縣銅鑼鄉中平村瑞興北街1號","TEL":" ","COUNTYNAME":"苗栗縣","TOWNNAME":"銅鑼鄉","MARKTYPE":"994","Class":"4"},"geometry":{"x":228183.9907999998,"y":2709635.9759999998}},{"attributes":{"OBJECTID":18379,"LANDMARKID":"1000500000175","LANDMARKCO":"107","LANDMARKNA":"苗栗縣警察局銅鑼分駐所","LANDMARKAD":"1000510","ADDRESS":"苗栗縣銅鑼鄉銅鑼村中正路122號","TEL":"037-981014","COUNTYNAME":"苗栗縣","TOWNNAME":"銅鑼鄉","MARKTYPE":"991","Class":"1"},"geometry":{"x":228376.91810000036,"y":2708930.0946999993}},{"attributes":{"OBJECTID":18380,"LANDMARKID":"1000500000176","LANDMARKCO":"107","LANDMARKNA":"苗栗縣消防局銅鑼消防分隊","LANDMARKAD":"1000510","ADDRESS":"苗栗縣銅鑼鄉武聖街7號","TEL":"037-981540","COUNTYNAME":"苗栗縣","TOWNNAME":"銅鑼鄉","MARKTYPE":"991","Class":"1"},"geometry":{"x":228382.87179999985,"y":2708960.1039000005}},{"attributes":{"OBJECTID":18381,"LANDMARKID":"1000500000026","LANDMARKCO":"103","LANDMARKNA":"苗栗縣銅鑼鄉衛生所","LANDMARKAD":"1000510","ADDRESS":"苗栗縣銅鑼鄉銅鑼村新興路81號","TEL":"037-981006","COUNTYNAME":"苗栗縣","TOWNNAME":"銅鑼鄉","MARKTYPE":"991","Class":"1"},"geometry":{"x":229211.88190000039,"y":2708340.0782999992}},{"attributes":{"OBJECTID":18382,"LANDMARKID":"1000500000193","LANDMARKCO":"108","LANDMARKNA":"苗栗縣銅鑼鄉公所","LANDMARKAD":"1000510","ADDRESS":"苗栗縣銅鑼鄉銅鑼村永樂路15號","TEL":"037-982130","COUNTYNAME":"苗栗縣","TOWNNAME":"銅鑼鄉","MARKTYPE":"991","Class":"1"},"geometry":{"x":228504.85690000001,"y":2708970.2916000001}},{"attributes":{"OBJECTID":18383,"LANDMARKID":"1000500000027","LANDMARKCO":"103","LANDMARKNA":"苗栗縣銅鑼鄉民代表會","LANDMARKAD":"1000510","ADDRESS":"苗栗縣銅鑼鄉銅鑼村永樂路15號","TEL":"037-981069","COUNTYNAME":"苗栗縣","TOWNNAME":"銅鑼鄉","MARKTYPE":"991","Class":"1"},"geometry":{"x":228504.85690000001,"y":2708970.2916000001}},{"attributes":{"OBJECTID":18384,"LANDMARKID":"1000500000070","LANDMARKCO":"105","LANDMARKNA":"苗栗縣銅鑼地政事務所","LANDMARKAD":"1000510","ADDRESS":"苗栗縣銅鑼鄉福興村平陽路46之2號","TEL":"037-984131","COUNTYNAME":"苗栗縣","TOWNNAME":"銅鑼鄉","MARKTYPE":"991","Class":"1"},"geometry":{"x":228645.81989999954,"y":2709610.0728999991}},{"attributes":{"OBJECTID":18385,"LANDMARKID":"1000500000075","LANDMARKCO":"106","LANDMARKNA":"苗栗縣銅鑼鄉戶政事務所","LANDMARKAD":"1000510","ADDRESS":"苗栗縣銅鑼鄉福興村復興路18鄰16號","TEL":"037-981546","COUNTYNAME":"苗栗縣","TOWNNAME":"銅鑼鄉","MARKTYPE":"991","Class":"1"},"geometry":{"x":228715.67200000025,"y":2709400.1798999999}},{"attributes":{"OBJECTID":18386,"LANDMARKID":"1000500000174","LANDMARKCO":"107","LANDMARKNA":"苗栗縣警察局雞隆派出所","LANDMARKAD":"1000510","ADDRESS":"苗栗縣銅鑼鄉盛隆村35號","TEL":"037-971012","COUNTYNAME":"苗栗縣","TOWNNAME":"銅鑼鄉","MARKTYPE":"991","Class":"1"},"geometry":{"x":230571.86270000041,"y":2702820.0178999994}},{"attributes":{"OBJECTID":18387,"LANDMARKID":"1000500000409","LANDMARKCO":"204","LANDMARKNA":"苗栗縣立圖書館銅鑼分館","LANDMARKAD":"1000510","ADDRESS":"苗栗縣銅鑼鄉銅鑼村新興路1號","TEL":" ","COUNTYNAME":"苗栗縣","TOWNNAME":"銅鑼鄉","MARKTYPE":"992","Class":"2"},"geometry":{"x":228434.42320000008,"y":2708870.1878999993}},{"attributes":{"OBJECTID":18388,"LANDMARKID":"1000500000266","LANDMARKCO":"203","LANDMARKNA":"縣立文林國中","LANDMARKAD":"1000510","ADDRESS":"苗栗縣銅鑼鄉朝陽村文化街12號","TEL":"037-981018","COUNTYNAME":"苗栗縣","TOWNNAME":"銅鑼鄉","MARKTYPE":"992","Class":"2"},"geometry":{"x":228665.68649999984,"y":2709390.1039000005}},{"attributes":{"OBJECTID":18389,"LANDMARKID":"1000500000267","LANDMARKCO":"203","LANDMARKNA":"縣立銅鑼國小","LANDMARKAD":"1000510","ADDRESS":"苗栗縣銅鑼鄉福興村文化街1號","TEL":"037-981013","COUNTYNAME":"苗栗縣","TOWNNAME":"銅鑼鄉","MARKTYPE":"992","Class":"2"},"geometry":{"x":228853.73419999983,"y":2709360.3890000004}},{"attributes":{"OBJECTID":18390,"LANDMARKID":"1000500000268","LANDMARKCO":"203","LANDMARKNA":"縣立興隆國小","LANDMARKAD":"1000510","ADDRESS":"苗栗縣銅鑼鄉興隆村117號","TEL":"037-982804","COUNTYNAME":"苗栗縣","TOWNNAME":"銅鑼鄉","MARKTYPE":"992","Class":"2"},"geometry":{"x":230907.74729999993,"y":2706290.0855}},{"attributes":{"OBJECTID":18391,"LANDMARKID":"1000500000269","LANDMARKCO":"203","LANDMARKNA":"縣立中興國小","LANDMARKAD":"1000510","ADDRESS":"苗栗縣銅鑼鄉中平村150號","TEL":"037-224458","COUNTYNAME":"苗栗縣","TOWNNAME":"銅鑼鄉","MARKTYPE":"992","Class":"2"},"geometry":{"x":230717.92310000025,"y":2710160.2057000007}},{"attributes":{"OBJECTID":18392,"LANDMARKID":"1000500000270","LANDMARKCO":"203","LANDMARKNA":"縣立九湖國小","LANDMARKAD":"1000510","ADDRESS":"苗栗縣銅鑼鄉九湖村91之1號","TEL":"037-981149","COUNTYNAME":"苗栗縣","TOWNNAME":"銅鑼鄉","MARKTYPE":"992","Class":"2"},"geometry":{"x":227364.79059999995,"y":2707470.2877999991}},{"attributes":{"OBJECTID":18393,"LANDMARKID":"1000500000271","LANDMARKCO":"203","LANDMARKNA":"縣立文峰國小","LANDMARKAD":"1000510","ADDRESS":"苗栗縣銅鑼鄉樟樹村12之1號","TEL":"037-981143","COUNTYNAME":"苗栗縣","TOWNNAME":"銅鑼鄉","MARKTYPE":"992","Class":"2"},"geometry":{"x":228266.86969999969,"y":2706500.3684999999}},{"attributes":{"OBJECTID":18394,"LANDMARKID":"1000500000272","LANDMARKCO":"203","LANDMARKNA":"縣立新隆國小","LANDMARKAD":"1000510","ADDRESS":"苗栗縣銅鑼鄉新隆村18號","TEL":"037-971102","COUNTYNAME":"苗栗縣","TOWNNAME":"銅鑼鄉","MARKTYPE":"992","Class":"2"},"geometry":{"x":230663.68740000017,"y":2702640.1451999992}},{"attributes":{"OBJECTID":18395,"LANDMARKID":"1000500000273","LANDMARKCO":"203","LANDMARKNA":"縣立文林國中文隆分部","LANDMARKAD":"1000510","ADDRESS":"苗栗縣銅鑼鄉新隆村11之5號","TEL":"037-971104","COUNTYNAME":"苗栗縣","TOWNNAME":"銅鑼鄉","MARKTYPE":"992","Class":"2"},"geometry":{"x":230749.6612999998,"y":2702660.2632999998}},{"attributes":{"OBJECTID":18396,"LANDMARKID":"1000500000547","LANDMARKCO":"308","LANDMARKNA":"台72-銅鑼交流道-東行","LANDMARKAD":"1000510","ADDRESS":" ","TEL":" ","COUNTYNAME":"苗栗縣","TOWNNAME":"銅鑼鄉","MARKTYPE":"993","Class":"308"},"geometry":{"x":230008.49509999994,"y":2709577.6184999999}},{"attributes":{"OBJECTID":18397,"LANDMARKID":"1000500000548","LANDMARKCO":"308","LANDMARKNA":"台72-銅鑼交流道-西行","LANDMARKAD":"1000510","ADDRESS":" ","TEL":" ","COUNTYNAME":"苗栗縣","TOWNNAME":"銅鑼鄉","MARKTYPE":"993","Class":"308"},"geometry":{"x":229990.01929999981,"y":2710197.9881999996}},{"attributes":{"OBJECTID":18398,"LANDMARKID":"1000500000549","LANDMARKCO":"308","LANDMARKNA":"台72-119甲平交路口","LANDMARKAD":"1000510","ADDRESS":" ","TEL":" ","COUNTYNAME":"苗栗縣","TOWNNAME":"銅鑼鄉","MARKTYPE":"993","Class":"308"},"geometry":{"x":230625.68699999992,"y":2707935.3162999991}},{"attributes":{"OBJECTID":18399,"LANDMARKID":"1000500000475","LANDMARKCO":"303","LANDMARKNA":"銅鑼鄉停一停車場","LANDMARKAD":"1000510","ADDRESS":"苗栗縣銅鑼鄉大同路9號","TEL":" ","COUNTYNAME":"苗栗縣","TOWNNAME":"銅鑼鄉","MARKTYPE":"993","Class":"303"},"geometry":{"x":228834.16280000005,"y":2704641.9249000009}},{"attributes":{"OBJECTID":18400,"LANDMARKID":"1000500000436","LANDMARKCO":"301","LANDMARKNA":"銅鑼火車站","LANDMARKAD":"1000510","ADDRESS":"苗栗縣銅鑼鄉銅鑼村大同路13號","TEL":"037-983838","COUNTYNAME":"苗栗縣","TOWNNAME":"銅鑼鄉","MARKTYPE":"993","Class":"301"},"geometry":{"x":228323.53569999989,"y":2708894.2651000004}}]}