{"displayFieldName":"COUNTYNAME","fieldAliases":{"OBJECTID":"OBJECTID","LANDMARKID":"LANDMARKID","LANDMARKCO":"LANDMARKCO","LANDMARKNA":"LANDMARKNA","LANDMARKAD":"LANDMARKAD","ADDRESS":"ADDRESS","TEL":"TEL","COUNTYNAME":"COUNTYNAME","TOWNNAME":"TOWNNAME","MARKTYPE":"MARKTYPE","Class":"Class"},"geometryType":"esriGeometryPoint","spatialReference":{"wkid":4326},"fields":[{"name":"OBJECTID","type":"esriFieldTypeOID","alias":"OBJECTID"},{"name":"LANDMARKID","type":"esriFieldTypeString","alias":"LANDMARKID","length":15},{"name":"LANDMARKCO","type":"esriFieldTypeString","alias":"LANDMARKCO","length":15},{"name":"LANDMARKNA","type":"esriFieldTypeString","alias":"LANDMARKNA","length":50},{"name":"LANDMARKAD","type":"esriFieldTypeString","alias":"LANDMARKAD","length":15},{"name":"ADDRESS","type":"esriFieldTypeString","alias":"ADDRESS","length":56},{"name":"TEL","type":"esriFieldTypeString","alias":"TEL","length":36},{"name":"COUNTYNAME","type":"esriFieldTypeString","alias":"COUNTYNAME","length":15},{"name":"TOWNNAME","type":"esriFieldTypeString","alias":"TOWNNAME","length":13},{"name":"MARKTYPE","type":"esriFieldTypeString","alias":"MARKTYPE","length":12},{"name":"Class","type":"esriFieldTypeString","alias":"Class","length":5}],"features":[{"attributes":{"OBJECTID":25001,"LANDMARKID":"1000400000660","LANDMARKCO":"603","LANDMARKNA":"金山大旅社","LANDMARKAD":"1000404","ADDRESS":"新竹縣關西鎮光明路3號","TEL":"03-5872519","COUNTYNAME":"新竹縣","TOWNNAME":"關西鎮","MARKTYPE":"996","Class":"6"},"geometry":{"x":121.17640714131936,"y":24.794671410404863}},{"attributes":{"OBJECTID":25002,"LANDMARKID":"1000400000661","LANDMARKCO":"603","LANDMARKNA":"建誠旅社","LANDMARKAD":"1000404","ADDRESS":"新竹縣關西鎮北斗里正義路142號","TEL":"03-5872102","COUNTYNAME":"新竹縣","TOWNNAME":"關西鎮","MARKTYPE":"996","Class":"6"},"geometry":{"x":121.17611119338568,"y":24.794942966439127}},{"attributes":{"OBJECTID":25003,"LANDMARKID":"1000400000598","LANDMARKCO":"505","LANDMARKNA":"南太平洋村","LANDMARKAD":"1000404","ADDRESS":"新竹縣關西鎮","TEL":" ","COUNTYNAME":"新竹縣","TOWNNAME":"關西鎮","MARKTYPE":"995","Class":"5"},"geometry":{"x":121.18126467207635,"y":24.819906239291107}},{"attributes":{"OBJECTID":25004,"LANDMARKID":"1000400000599","LANDMARKCO":"505","LANDMARKNA":"阿拉伯皇宮","LANDMARKAD":"1000404","ADDRESS":"新竹縣關西鎮","TEL":" ","COUNTYNAME":"新竹縣","TOWNNAME":"關西鎮","MARKTYPE":"995","Class":"5"},"geometry":{"x":121.18145564821867,"y":24.821949007852051}},{"attributes":{"OBJECTID":25005,"LANDMARKID":"1000400000600","LANDMARKCO":"505","LANDMARKNA":"六福村主題遊樂園售票處","LANDMARKAD":"1000404","ADDRESS":"新竹縣關西鎮仁安里拱子溝60號","TEL":"03-5475665","COUNTYNAME":"新竹縣","TOWNNAME":"關西鎮","MARKTYPE":"995","Class":"5"},"geometry":{"x":121.1844421059796,"y":24.820866733817642}},{"attributes":{"OBJECTID":25006,"LANDMARKID":"1000400000601","LANDMARKCO":"505","LANDMARKNA":"六福村主題遊樂園入園廣場","LANDMARKAD":"1000404","ADDRESS":"新竹縣關西鎮","TEL":"03-5475665","COUNTYNAME":"新竹縣","TOWNNAME":"關西鎮","MARKTYPE":"995","Class":"5"},"geometry":{"x":121.18465699706128,"y":24.820791468312056}},{"attributes":{"OBJECTID":25007,"LANDMARKID":"1000400000595","LANDMARKCO":"504","LANDMARKNA":"錦仙森林世界公園(馬武督探索森林)","LANDMARKAD":"1000404","ADDRESS":"新竹縣關西鎮錦山里138之3號","TEL":"03-5478645","COUNTYNAME":"新竹縣","TOWNNAME":"關西鎮","MARKTYPE":"995","Class":"5"},"geometry":{"x":121.27038849476874,"y":24.769185622432797}},{"attributes":{"OBJECTID":25008,"LANDMARKID":"1000400000596","LANDMARKCO":"505","LANDMARKNA":"六福村主題遊樂園","LANDMARKAD":"1000404","ADDRESS":"新竹縣關西鎮仁安里拱子溝60號","TEL":" ","COUNTYNAME":"新竹縣","TOWNNAME":"關西鎮","MARKTYPE":"995","Class":"5"},"geometry":{"x":121.18095225103259,"y":24.825232094154948}},{"attributes":{"OBJECTID":25009,"LANDMARKID":"1000400000597","LANDMARKCO":"505","LANDMARKNA":"金鳥海族樂園","LANDMARKAD":"1000404","ADDRESS":"新竹縣關西鎮錦山里錦山126之16號","TEL":" ","COUNTYNAME":"新竹縣","TOWNNAME":"關西鎮","MARKTYPE":"995","Class":"5"},"geometry":{"x":121.26372041336518,"y":24.774327429993715}},{"attributes":{"OBJECTID":25010,"LANDMARKID":"1000400000645","LANDMARKCO":"510","LANDMARKNA":"旭陽高爾夫球場","LANDMARKAD":"1000404","ADDRESS":"新竹縣關西鎮南新里南窩100號","TEL":"03-5476169","COUNTYNAME":"新竹縣","TOWNNAME":"關西鎮","MARKTYPE":"995","Class":"5"},"geometry":{"x":121.1837228713724,"y":24.747866828125737}},{"attributes":{"OBJECTID":25011,"LANDMARKID":"1000400000646","LANDMARKCO":"510","LANDMARKNA":"立益高爾夫球場","LANDMARKAD":"1000404","ADDRESS":"新竹縣關西鎮東山里湖肚55號","TEL":"03-5875111","COUNTYNAME":"新竹縣","TOWNNAME":"關西鎮","MARKTYPE":"995","Class":"5"},"geometry":{"x":121.19553996926413,"y":24.783088687538747}},{"attributes":{"OBJECTID":25012,"LANDMARKID":"1000400000647","LANDMARKCO":"510","LANDMARKNA":"老爺關西高爾夫球場","LANDMARKAD":"1000404","ADDRESS":"新竹縣關西鎮玉山里一鄰赤柯山一號","TEL":"03-5476331","COUNTYNAME":"新竹縣","TOWNNAME":"關西鎮","MARKTYPE":"995","Class":"5"},"geometry":{"x":121.19759337805795,"y":24.752136625316595}},{"attributes":{"OBJECTID":25013,"LANDMARKID":"1000400000648","LANDMARKCO":"510","LANDMARKNA":"山溪地高爾夫球場","LANDMARKAD":"1000404","ADDRESS":"新竹縣關西鎮玉山里2鄰13號","TEL":"03-5476288","COUNTYNAME":"新竹縣","TOWNNAME":"關西鎮","MARKTYPE":"995","Class":"5"},"geometry":{"x":121.21276107924997,"y":24.762331779125944}},{"attributes":{"OBJECTID":25014,"LANDMARKID":"1000400000493","LANDMARKCO":"405","LANDMARKNA":"中油加油站-福林站","LANDMARKAD":"1000407","ADDRESS":"新竹縣芎林鄉石潭村6鄰竹林路8號","TEL":"03-5924366","COUNTYNAME":"新竹縣","TOWNNAME":"芎林鄉","MARKTYPE":"994","Class":"4"},"geometry":{"x":121.09644217863615,"y":24.7495675159538}},{"attributes":{"OBJECTID":25015,"LANDMARKID":"1000400000494","LANDMARKCO":"405","LANDMARKNA":"中油加油站-芎林站(中油直營)","LANDMARKAD":"1000407","ADDRESS":"新竹縣芎林鄉上山村文山路554號","TEL":"03-5923740","COUNTYNAME":"新竹縣","TOWNNAME":"芎林鄉","MARKTYPE":"994","Class":"4"},"geometry":{"x":121.07723649846469,"y":24.777883021204239}},{"attributes":{"OBJECTID":25016,"LANDMARKID":"1000400000495","LANDMARKCO":"405","LANDMARKNA":"中油加油站-信政站","LANDMARKAD":"1000407","ADDRESS":"新竹縣芎林鄉文林村富林路2段131號","TEL":"03-5928151","COUNTYNAME":"新竹縣","TOWNNAME":"芎林鄉","MARKTYPE":"994","Class":"4"},"geometry":{"x":121.09384884587752,"y":24.753903707346865}},{"attributes":{"OBJECTID":25017,"LANDMARKID":"1000400000496","LANDMARKCO":"405","LANDMARKNA":"台灣優力加油站-芎林二站(中油)","LANDMARKAD":"1000407","ADDRESS":"新竹縣芎林鄉上山村富林路三段373號","TEL":"035-921042","COUNTYNAME":"新竹縣","TOWNNAME":"芎林鄉","MARKTYPE":"994","Class":"4"},"geometry":{"x":121.07298700050769,"y":24.775444798613243}},{"attributes":{"OBJECTID":25018,"LANDMARKID":"1000400000497","LANDMARKCO":"405","LANDMARKNA":"台灣優力加油站-芎林一站(中油)","LANDMARKAD":"1000407","ADDRESS":"新竹縣芎林鄉上山村富林路三段360號","TEL":"035-921841","COUNTYNAME":"新竹縣","TOWNNAME":"芎林鄉","MARKTYPE":"994","Class":"4"},"geometry":{"x":121.07357877448547,"y":24.775364312041692}},{"attributes":{"OBJECTID":25019,"LANDMARKID":"1000400000498","LANDMARKCO":"405","LANDMARKNA":"中油加油站-開順站","LANDMARKAD":"1000407","ADDRESS":"新竹縣芎林鄉上山村文明路30號","TEL":"03-5926007","COUNTYNAME":"新竹縣","TOWNNAME":"芎林鄉","MARKTYPE":"994","Class":"4"},"geometry":{"x":121.07260171319543,"y":24.77490570193358}},{"attributes":{"OBJECTID":25020,"LANDMARKID":"1000400000499","LANDMARKCO":"405","LANDMARKNA":"中油加油站-正晟站","LANDMARKAD":"1000407","ADDRESS":"新竹縣芎林鄉上山村13鄰文明路61號","TEL":"03-5928518","COUNTYNAME":"新竹縣","TOWNNAME":"芎林鄉","MARKTYPE":"994","Class":"4"},"geometry":{"x":121.07180555765453,"y":24.774593303549636}},{"attributes":{"OBJECTID":25021,"LANDMARKID":"1000400000556","LANDMARKCO":"408","LANDMARKNA":"郵局-芎林郵局","LANDMARKAD":"1000407","ADDRESS":"新竹縣芎林鄉文衡路426號","TEL":"(03)5922-849","COUNTYNAME":"新竹縣","TOWNNAME":"芎林鄉","MARKTYPE":"994","Class":"4"},"geometry":{"x":121.08390756029064,"y":24.772145474219339}},{"attributes":{"OBJECTID":25022,"LANDMARKID":"1000400000566","LANDMARKCO":"409","LANDMARKNA":"新竹縣芎林鄉農會","LANDMARKAD":"1000407","ADDRESS":"新竹縣芎林鄉文林村6鄰文昌街120號","TEL":"03-5921173","COUNTYNAME":"新竹縣","TOWNNAME":"芎林鄉","MARKTYPE":"994","Class":"4"},"geometry":{"x":121.07902501181763,"y":24.77550004375934}},{"attributes":{"OBJECTID":25023,"LANDMARKID":"1000400000567","LANDMARKCO":"409","LANDMARKNA":"新竹縣農會","LANDMARKAD":"1000407","ADDRESS":"新竹縣芎林鄉文山路989號","TEL":"03-5921018","COUNTYNAME":"新竹縣","TOWNNAME":"芎林鄉","MARKTYPE":"994","Class":"4"},"geometry":{"x":121.0686468748512,"y":24.787582625387955}},{"attributes":{"OBJECTID":25024,"LANDMARKID":"1000400000512","LANDMARKCO":"406","LANDMARKNA":"鳳林公園","LANDMARKAD":"1000407","ADDRESS":"新竹縣芎林鄉","TEL":" ","COUNTYNAME":"新竹縣","TOWNNAME":"芎林鄉","MARKTYPE":"994","Class":"4"},"geometry":{"x":121.07822511096003,"y":24.779135091678789}},{"attributes":{"OBJECTID":25025,"LANDMARKID":"1000400000500","LANDMARKCO":"405","LANDMARKNA":"台塑加油站-竹林站(台塑)","LANDMARKAD":"1000407","ADDRESS":"新竹縣芎林鄉富林路二段738號","TEL":"03-5925448","COUNTYNAME":"新竹縣","TOWNNAME":"芎林鄉","MARKTYPE":"994","Class":"4"},"geometry":{"x":121.08573236456985,"y":24.764706724066453}},{"attributes":{"OBJECTID":25026,"LANDMARKID":"1000400000165","LANDMARKCO":"108","LANDMARKNA":"新竹縣芎林鄉公所","LANDMARKAD":"1000407","ADDRESS":"新竹縣芎林鄉文林村文昌街51號","TEL":"035-921135","COUNTYNAME":"新竹縣","TOWNNAME":"芎林鄉","MARKTYPE":"991","Class":"1"},"geometry":{"x":121.08200469810133,"y":24.773206205714597}},{"attributes":{"OBJECTID":25027,"LANDMARKID":"1000400000024","LANDMARKCO":"103","LANDMARKNA":"新竹縣芎林鄉鄉民代表會","LANDMARKAD":"1000407","ADDRESS":"新竹縣芎林鄉文昌街51號","TEL":"035-923314","COUNTYNAME":"新竹縣","TOWNNAME":"芎林鄉","MARKTYPE":"991","Class":"1"},"geometry":{"x":121.08200469810133,"y":24.773206205714597}},{"attributes":{"OBJECTID":25028,"LANDMARKID":"1000400000025","LANDMARKCO":"103","LANDMARKNA":"新竹縣芎林鄉衛生所","LANDMARKAD":"1000407","ADDRESS":"新竹縣芎林鄉文山路532號","TEL":"035-924787","COUNTYNAME":"新竹縣","TOWNNAME":"芎林鄉","MARKTYPE":"991","Class":"1"},"geometry":{"x":121.07788004033372,"y":24.77736232004904}},{"attributes":{"OBJECTID":25029,"LANDMARKID":"1000400000084","LANDMARKCO":"107","LANDMARKNA":"新竹縣消防局芎林消防分隊","LANDMARKAD":"1000407","ADDRESS":"新竹縣芎林鄉文山路337號","TEL":"03-5921978","COUNTYNAME":"新竹縣","TOWNNAME":"芎林鄉","MARKTYPE":"991","Class":"1"},"geometry":{"x":121.08134545666397,"y":24.774609977733004}},{"attributes":{"OBJECTID":25030,"LANDMARKID":"1000400000085","LANDMARKCO":"107","LANDMARKNA":"新竹縣警察局芎林分駐所","LANDMARKAD":"1000407","ADDRESS":"新竹縣芎林鄉文山路349號","TEL":"03-5924572","COUNTYNAME":"新竹縣","TOWNNAME":"芎林鄉","MARKTYPE":"991","Class":"1"},"geometry":{"x":121.08106471305103,"y":24.774692894692741}},{"attributes":{"OBJECTID":25031,"LANDMARKID":"1000400000071","LANDMARKCO":"106","LANDMARKNA":"新竹縣芎林鄉戶政事務所","LANDMARKAD":"1000407","ADDRESS":"新竹縣芎林鄉文林村7鄰文山路339號","TEL":"035-922197","COUNTYNAME":"新竹縣","TOWNNAME":"芎林鄉","MARKTYPE":"991","Class":"1"},"geometry":{"x":121.08127084261619,"y":24.774647527767797}},{"attributes":{"OBJECTID":25032,"LANDMARKID":"1000400000083","LANDMARKCO":"107","LANDMARKNA":"新竹縣警察局秀湖派出所","LANDMARKAD":"1000407","ADDRESS":"新竹縣芎林鄉秀湖村五合街5號","TEL":"03-5932812","COUNTYNAME":"新竹縣","TOWNNAME":"芎林鄉","MARKTYPE":"991","Class":"1"},"geometry":{"x":121.11841112248463,"y":24.733812478881692}},{"attributes":{"OBJECTID":25033,"LANDMARKID":"1000400000313","LANDMARKCO":"205","LANDMARKNA":"瑞龍博物館","LANDMARKAD":"1000407","ADDRESS":"新竹縣芎林鄉文山路42巷21弄1號","TEL":" ","COUNTYNAME":"新竹縣","TOWNNAME":"芎林鄉","MARKTYPE":"992","Class":"2"},"geometry":{"x":121.0867563270772,"y":24.775531458160895}},{"attributes":{"OBJECTID":25034,"LANDMARKID":"1000400000310","LANDMARKCO":"204","LANDMARKNA":"新竹縣立圖書館芎林分館","LANDMARKAD":"1000407","ADDRESS":"新竹縣芎林鄉文林村文山街202之1號","TEL":" ","COUNTYNAME":"新竹縣","TOWNNAME":"芎林鄉","MARKTYPE":"992","Class":"2"},"geometry":{"x":121.08202432464275,"y":24.774439220574951}},{"attributes":{"OBJECTID":25035,"LANDMARKID":"1000400000221","LANDMARKCO":"203","LANDMARKNA":"縣立碧潭國小","LANDMARKAD":"1000407","ADDRESS":"新竹縣芎林鄉石潭村福昌街90號","TEL":"035-923191","COUNTYNAME":"新竹縣","TOWNNAME":"芎林鄉","MARKTYPE":"992","Class":"2"},"geometry":{"x":121.10354346882126,"y":24.746745099163459}},{"attributes":{"OBJECTID":25036,"LANDMARKID":"1000400000168","LANDMARKCO":"201","LANDMARKNA":"大華技術學院","LANDMARKAD":"1000407","ADDRESS":"新竹縣芎林鄉大華路1號","TEL":"03-5927700","COUNTYNAME":"新竹縣","TOWNNAME":"芎林鄉","MARKTYPE":"992","Class":"2"},"geometry":{"x":121.08888540010011,"y":24.777389383847357}},{"attributes":{"OBJECTID":25037,"LANDMARKID":"1000400000217","LANDMARKCO":"203","LANDMARKNA":"縣立芎林國中","LANDMARKAD":"1000407","ADDRESS":"新竹縣芎林鄉新鳳村74號","TEL":"035-922775","COUNTYNAME":"新竹縣","TOWNNAME":"芎林鄉","MARKTYPE":"992","Class":"2"},"geometry":{"x":121.09130575434276,"y":24.762091117501676}},{"attributes":{"OBJECTID":25038,"LANDMARKID":"1000400000218","LANDMARKCO":"203","LANDMARKNA":"縣立五龍國小","LANDMARKAD":"1000407","ADDRESS":"新竹縣芎林鄉五龍村105號","TEL":"035-932320","COUNTYNAME":"新竹縣","TOWNNAME":"芎林鄉","MARKTYPE":"992","Class":"2"},"geometry":{"x":121.12352606005332,"y":24.737239553621503}},{"attributes":{"OBJECTID":25039,"LANDMARKID":"1000400000219","LANDMARKCO":"203","LANDMARKNA":"縣立芎林國小","LANDMARKAD":"1000407","ADDRESS":"新竹縣芎林鄉文林路288號","TEL":"035-923184","COUNTYNAME":"新竹縣","TOWNNAME":"芎林鄉","MARKTYPE":"992","Class":"2"},"geometry":{"x":121.08276132111634,"y":24.774194733679685}},{"attributes":{"OBJECTID":25040,"LANDMARKID":"1000400000220","LANDMARKCO":"203","LANDMARKNA":"私立雅歌實驗小學","LANDMARKAD":"1000407","ADDRESS":"新竹縣芎林鄉","TEL":" ","COUNTYNAME":"新竹縣","TOWNNAME":"芎林鄉","MARKTYPE":"992","Class":"2"},"geometry":{"x":121.0709914758863,"y":24.789549942906731}},{"attributes":{"OBJECTID":25041,"LANDMARKID":"1000400000373","LANDMARKCO":"308","LANDMARKNA":"國3-竹林交流道-北上","LANDMARKAD":"1000407","ADDRESS":"新竹縣芎林鄉","TEL":" ","COUNTYNAME":"新竹縣","TOWNNAME":"芎林鄉","MARKTYPE":"993","Class":"308"},"geometry":{"x":121.08256637051893,"y":24.767580315968921}},{"attributes":{"OBJECTID":25042,"LANDMARKID":"1000400000354","LANDMARKCO":"303","LANDMARKNA":"芎林停車場","LANDMARKAD":"1000407","ADDRESS":"新竹縣芎林鄉","TEL":" ","COUNTYNAME":"新竹縣","TOWNNAME":"芎林鄉","MARKTYPE":"993","Class":"303"},"geometry":{"x":121.08345221332272,"y":24.773039678898638}},{"attributes":{"OBJECTID":25043,"LANDMARKID":"1000400000658","LANDMARKCO":"603","LANDMARKNA":"酈園花苑汽車旅館","LANDMARKAD":"1000407","ADDRESS":"新竹縣芎林鄉富林路二段779號","TEL":"03-5926176","COUNTYNAME":"新竹縣","TOWNNAME":"芎林鄉","MARKTYPE":"996","Class":"6"},"geometry":{"x":121.08405141012167,"y":24.764498675807218}},{"attributes":{"OBJECTID":25044,"LANDMARKID":"1000400000585","LANDMARKCO":"503","LANDMARKNA":"飛鳳山步道","LANDMARKAD":"1000407","ADDRESS":"新竹縣芎林鄉","TEL":" ","COUNTYNAME":"新竹縣","TOWNNAME":"芎林鄉","MARKTYPE":"995","Class":"5"},"geometry":{"x":121.10801197449281,"y":24.764886746611285}},{"attributes":{"OBJECTID":25045,"LANDMARKID":"1000400000501","LANDMARKCO":"405","LANDMARKNA":"中油加油站-寶山站(中油直營)","LANDMARKAD":"1000410","ADDRESS":"新竹縣寶山鄉雙溪村寶新路56號","TEL":"03-5204346","COUNTYNAME":"新竹縣","TOWNNAME":"寶山鄉","MARKTYPE":"994","Class":"4"},"geometry":{"x":120.98653331079475,"y":24.7627195961953}},{"attributes":{"OBJECTID":25046,"LANDMARKID":"1000400000502","LANDMARKCO":"405","LANDMARKNA":"中油加油站-辰鴻站","LANDMARKAD":"1000410","ADDRESS":"新竹縣寶山鄉大崎村雙園路341號","TEL":"03-5772912","COUNTYNAME":"新竹縣","TOWNNAME":"寶山鄉","MARKTYPE":"994","Class":"4"},"geometry":{"x":121.00517922707751,"y":24.770659120783602}},{"attributes":{"OBJECTID":25047,"LANDMARKID":"1000400000554","LANDMARKCO":"408","LANDMARKNA":"郵局-寶山郵局","LANDMARKAD":"1000410","ADDRESS":"新竹縣寶山鄉雙園路59號","TEL":"(03)5202-268","COUNTYNAME":"新竹縣","TOWNNAME":"寶山鄉","MARKTYPE":"994","Class":"4"},"geometry":{"x":120.99037876653867,"y":24.76484684723729}},{"attributes":{"OBJECTID":25048,"LANDMARKID":"1000400000555","LANDMARKCO":"408","LANDMARKNA":"郵局-寶山大崎郵局","LANDMARKAD":"1000410","ADDRESS":"新竹縣寶山鄉大崎村園區三路103號","TEL":"(03)5638-152","COUNTYNAME":"新竹縣","TOWNNAME":"寶山鄉","MARKTYPE":"994","Class":"4"},"geometry":{"x":121.00116100193499,"y":24.772390072906244}},{"attributes":{"OBJECTID":25049,"LANDMARKID":"1000400000568","LANDMARKCO":"409","LANDMARKNA":"新竹縣寶山鄉農會","LANDMARKAD":"1000410","ADDRESS":"新竹縣寶山鄉雙溪村雙園路78號","TEL":"03-5201119","COUNTYNAME":"新竹縣","TOWNNAME":"寶山鄉","MARKTYPE":"994","Class":"4"},"geometry":{"x":120.99014973902196,"y":24.76520319292802}},{"attributes":{"OBJECTID":25050,"LANDMARKID":"1000400000164","LANDMARKCO":"108","LANDMARKNA":"新竹縣寶山鄉公所","LANDMARKAD":"1000410","ADDRESS":"新竹縣寶山鄉雙溪村雙豐路15號","TEL":"03-5200090","COUNTYNAME":"新竹縣","TOWNNAME":"寶山鄉","MARKTYPE":"991","Class":"1"},"geometry":{"x":120.98855544370205,"y":24.763653864096113}},{"attributes":{"OBJECTID":25051,"LANDMARKID":"1000400000026","LANDMARKCO":"103","LANDMARKNA":"新竹縣寶山鄉鄉民代表會","LANDMARKAD":"1000410","ADDRESS":"新竹縣寶山鄉雙溪村雙園路61號3樓","TEL":"03-5201503","COUNTYNAME":"新竹縣","TOWNNAME":"寶山鄉","MARKTYPE":"991","Class":"1"},"geometry":{"x":120.99046240899587,"y":24.764928748012736}},{"attributes":{"OBJECTID":25052,"LANDMARKID":"1000400000027","LANDMARKCO":"103","LANDMARKNA":"新竹縣寶山鄉衛生所","LANDMARKAD":"1000410","ADDRESS":"新竹縣寶山鄉雙溪村雙園路123號","TEL":"03-5207694","COUNTYNAME":"新竹縣","TOWNNAME":"寶山鄉","MARKTYPE":"991","Class":"1"},"geometry":{"x":120.99495261465923,"y":24.766793746347982}},{"attributes":{"OBJECTID":25053,"LANDMARKID":"1000400000086","LANDMARKCO":"107","LANDMARKNA":"新竹縣消防局寶山消防分隊","LANDMARKAD":"1000410","ADDRESS":"新竹縣寶山鄉雙溪村雙園路96號","TEL":"03-5204755","COUNTYNAME":"新竹縣","TOWNNAME":"寶山鄉","MARKTYPE":"991","Class":"1"},"geometry":{"x":120.99123207640244,"y":24.765860148925171}},{"attributes":{"OBJECTID":25054,"LANDMARKID":"1000400000087","LANDMARKCO":"107","LANDMARKNA":"新竹縣警察局寶山分駐所","LANDMARKAD":"1000410","ADDRESS":"新竹縣寶山鄉雙溪村三峰路2號","TEL":"03-5204139","COUNTYNAME":"新竹縣","TOWNNAME":"寶山鄉","MARKTYPE":"991","Class":"1"},"geometry":{"x":120.99098987850523,"y":24.765391532336849}},{"attributes":{"OBJECTID":25055,"LANDMARKID":"1000400000088","LANDMARKCO":"107","LANDMARKNA":"新竹縣警察局新城派出所","LANDMARKAD":"1000410","ADDRESS":"新竹縣寶山鄉新城村3鄰寶新路421號","TEL":"03-5762353","COUNTYNAME":"新竹縣","TOWNNAME":"寶山鄉","MARKTYPE":"991","Class":"1"},"geometry":{"x":120.96641380160698,"y":24.732890364418061}},{"attributes":{"OBJECTID":25056,"LANDMARKID":"1000400000089","LANDMARKCO":"107","LANDMARKNA":"新竹縣警察局楓橋派出所","LANDMARKAD":"1000410","ADDRESS":"新竹縣寶山鄉寶山村新湖路309號","TEL":"03-5761140","COUNTYNAME":"新竹縣","TOWNNAME":"寶山鄉","MARKTYPE":"991","Class":"1"},"geometry":{"x":121.02796070058936,"y":24.733644794623206}},{"attributes":{"OBJECTID":25057,"LANDMARKID":"1000400000070","LANDMARKCO":"106","LANDMARKNA":"新竹縣寶山鄉戶政事務所","LANDMARKAD":"1000410","ADDRESS":"新竹縣寶山鄉雙溪村14鄰三峰路6號","TEL":"03-5202804","COUNTYNAME":"新竹縣","TOWNNAME":"寶山鄉","MARKTYPE":"991","Class":"1"},"geometry":{"x":120.99098692001321,"y":24.765336005860476}},{"attributes":{"OBJECTID":25058,"LANDMARKID":"1000400000009","LANDMARKCO":"101","LANDMARKNA":"農業委員會農業試驗所關西工作站","LANDMARKAD":"1000410","ADDRESS":"新竹縣寶山鄉新湖路82號之1","TEL":"035-762475","COUNTYNAME":"新竹縣","TOWNNAME":"寶山鄉","MARKTYPE":"991","Class":"1"},"geometry":{"x":120.98105880972443,"y":24.7228669258417}},{"attributes":{"OBJECTID":25059,"LANDMARKID":"1000400000312","LANDMARKCO":"204","LANDMARKNA":"新竹縣立圖書館寶山分館","LANDMARKAD":"1000410","ADDRESS":"新竹縣寶山鄉雙溪村9鄰153之15號","TEL":" ","COUNTYNAME":"新竹縣","TOWNNAME":"寶山鄉","MARKTYPE":"992","Class":"2"},"geometry":{"x":120.99221975063747,"y":24.765584987169571}},{"attributes":{"OBJECTID":25060,"LANDMARKID":"1000400000198","LANDMARKCO":"203","LANDMARKNA":"縣立寶山國中","LANDMARKAD":"1000410","ADDRESS":"新竹縣寶山鄉雙溪村三峰路18號","TEL":"035-202104","COUNTYNAME":"新竹縣","TOWNNAME":"寶山鄉","MARKTYPE":"992","Class":"2"},"geometry":{"x":120.99135338826319,"y":24.764700123108714}},{"attributes":{"OBJECTID":25061,"LANDMARKID":"1000400000199","LANDMARKCO":"203","LANDMARKNA":"縣立寶山國小山湖分校","LANDMARKAD":"1000410","ADDRESS":"新竹縣寶山鄉新湖路356號","TEL":"03-5761215","COUNTYNAME":"新竹縣","TOWNNAME":"寶山鄉","MARKTYPE":"992","Class":"2"},"geometry":{"x":121.03916112867861,"y":24.745412149273825}},{"attributes":{"OBJECTID":25062,"LANDMARKID":"1000400000200","LANDMARKCO":"203","LANDMARKNA":"縣立三峰國小","LANDMARKAD":"1000410","ADDRESS":"新竹縣寶山鄉三峰村新湖路150號","TEL":"035-760057","COUNTYNAME":"新竹縣","TOWNNAME":"寶山鄉","MARKTYPE":"992","Class":"2"},"geometry":{"x":120.9964959311764,"y":24.7211477461504}},{"attributes":{"OBJECTID":25063,"LANDMARKID":"1000400000201","LANDMARKCO":"203","LANDMARKNA":"縣立雙溪國小","LANDMARKAD":"1000410","ADDRESS":"新竹縣寶山鄉雙溪村雙園路84號","TEL":"035-202151","COUNTYNAME":"新竹縣","TOWNNAME":"寶山鄉","MARKTYPE":"992","Class":"2"},"geometry":{"x":120.99014183195901,"y":24.766186399688561}},{"attributes":{"OBJECTID":25064,"LANDMARKID":"1000400000202","LANDMARKCO":"203","LANDMARKNA":"縣立寶山國小","LANDMARKAD":"1000410","ADDRESS":"新竹縣寶山鄉寶山路416號","TEL":"035-761390","COUNTYNAME":"新竹縣","TOWNNAME":"寶山鄉","MARKTYPE":"992","Class":"2"},"geometry":{"x":121.02211223624909,"y":24.740370012137252}},{"attributes":{"OBJECTID":25065,"LANDMARKID":"1000400000203","LANDMARKCO":"203","LANDMARKNA":"縣立新城國小","LANDMARKAD":"1000410","ADDRESS":"新竹縣寶山鄉寶新路320號","TEL":"035-762707","COUNTYNAME":"新竹縣","TOWNNAME":"寶山鄉","MARKTYPE":"992","Class":"2"},"geometry":{"x":120.96701954507499,"y":24.733187485470854}},{"attributes":{"OBJECTID":25066,"LANDMARKID":"1000400000204","LANDMARKCO":"203","LANDMARKNA":"縣立寶山國中莒光分部","LANDMARKAD":"1000410","ADDRESS":"新竹縣寶山鄉新湖路280號","TEL":"03-5761278","COUNTYNAME":"新竹縣","TOWNNAME":"寶山鄉","MARKTYPE":"992","Class":"2"},"geometry":{"x":121.02606293938938,"y":24.736921505337218}},{"attributes":{"OBJECTID":25067,"LANDMARKID":"1000400000374","LANDMARKCO":"308","LANDMARKNA":"國3-新竹系統交流道-東行","LANDMARKAD":"1000410","ADDRESS":"新竹縣寶山鄉","TEL":" ","COUNTYNAME":"新竹縣","TOWNNAME":"寶山鄉","MARKTYPE":"993","Class":"308"},"geometry":{"x":120.98994586387113,"y":24.756295938558107}},{"attributes":{"OBJECTID":25068,"LANDMARKID":"1000400000375","LANDMARKCO":"308","LANDMARKNA":"國3-寶山交流道-北上","LANDMARKAD":"1000410","ADDRESS":"新竹縣寶山鄉","TEL":" ","COUNTYNAME":"新竹縣","TOWNNAME":"寶山鄉","MARKTYPE":"993","Class":"308"},"geometry":{"x":121.00974137797986,"y":24.756208138175996}},{"attributes":{"OBJECTID":25069,"LANDMARKID":"1000400000376","LANDMARKCO":"308","LANDMARKNA":"寶山休息站","LANDMARKAD":"1000410","ADDRESS":" ","TEL":" ","COUNTYNAME":"新竹縣","TOWNNAME":"寶山鄉","MARKTYPE":"993","Class":"308"},"geometry":{"x":121.02549241780831,"y":24.755552889920946}},{"attributes":{"OBJECTID":25070,"LANDMARKID":"1000400000377","LANDMARKCO":"308","LANDMARKNA":"國3-新竹系統交流道-南下","LANDMARKAD":"1000410","ADDRESS":"新竹縣寶山鄉","TEL":" ","COUNTYNAME":"新竹縣","TOWNNAME":"寶山鄉","MARKTYPE":"993","Class":"308"},"geometry":{"x":120.98444062092608,"y":24.754652254006285}},{"attributes":{"OBJECTID":25071,"LANDMARKID":"1000400000378","LANDMARKCO":"308","LANDMARKNA":"國3-新竹系統交流道-西行","LANDMARKAD":"1000410","ADDRESS":"新竹縣寶山鄉","TEL":" ","COUNTYNAME":"新竹縣","TOWNNAME":"寶山鄉","MARKTYPE":"993","Class":"308"},"geometry":{"x":120.98525505441087,"y":24.758438112955965}},{"attributes":{"OBJECTID":25072,"LANDMARKID":"1000400000379","LANDMARKCO":"308","LANDMARKNA":"國3-新竹系統交流道-北上","LANDMARKAD":"1000410","ADDRESS":"新竹縣寶山鄉","TEL":" ","COUNTYNAME":"新竹縣","TOWNNAME":"寶山鄉","MARKTYPE":"993","Class":"308"},"geometry":{"x":120.99168253243762,"y":24.759442764135564}},{"attributes":{"OBJECTID":25073,"LANDMARKID":"1000400000380","LANDMARKCO":"308","LANDMARKNA":"國3-寶山交流道-南下","LANDMARKAD":"1000410","ADDRESS":"新竹縣寶山鄉","TEL":" ","COUNTYNAME":"新竹縣","TOWNNAME":"寶山鄉","MARKTYPE":"993","Class":"308"},"geometry":{"x":121.00320582577032,"y":24.75737690376484}},{"attributes":{"OBJECTID":25074,"LANDMARKID":"1000400000381","LANDMARKCO":"308","LANDMARKNA":"國1-新竹交流道-南下","LANDMARKAD":"1000410","ADDRESS":"新竹市東區","TEL":" ","COUNTYNAME":"新竹縣","TOWNNAME":"寶山鄉","MARKTYPE":"993","Class":"308"},"geometry":{"x":121.00323294437094,"y":24.774871730365223}},{"attributes":{"OBJECTID":25075,"LANDMARKID":"1000400000584","LANDMARKCO":"503","LANDMARKNA":"寶山水庫","LANDMARKAD":"1000410","ADDRESS":"新竹縣寶山鄉","TEL":" ","COUNTYNAME":"新竹縣","TOWNNAME":"寶山鄉","MARKTYPE":"995","Class":"5"},"geometry":{"x":121.04155937816925,"y":24.748438257089663}},{"attributes":{"OBJECTID":25076,"LANDMARKID":"1000400000641","LANDMARKCO":"510","LANDMARKNA":"啟寶高爾夫球場","LANDMARKAD":"1000410","ADDRESS":"新竹縣寶山鄉深井村9鄰寶新路676號","TEL":"03-5762200","COUNTYNAME":"新竹縣","TOWNNAME":"寶山鄉","MARKTYPE":"995","Class":"5"},"geometry":{"x":120.94457881620248,"y":24.712149740456191}},{"attributes":{"OBJECTID":25077,"LANDMARKID":"1000400000642","LANDMARKCO":"510","LANDMARKNA":"寶山高爾夫球場","LANDMARKAD":"1000410","ADDRESS":"新竹縣寶山鄉寶新路318號","TEL":"03-5762888","COUNTYNAME":"新竹縣","TOWNNAME":"寶山鄉","MARKTYPE":"995","Class":"5"},"geometry":{"x":120.96911478594131,"y":24.733529341310291}},{"attributes":{"OBJECTID":25078,"LANDMARKID":"1000400000643","LANDMARKCO":"510","LANDMARKNA":"鴻福高爾夫俱樂部","LANDMARKAD":"1000410","ADDRESS":"新竹縣北埔鄉埔尾村中正路60之2號","TEL":"03-5804323","COUNTYNAME":"新竹縣","TOWNNAME":"寶山鄉","MARKTYPE":"995","Class":"5"},"geometry":{"x":121.03242300719117,"y":24.71141237756348}},{"attributes":{"OBJECTID":25079,"LANDMARKID":"1000400000644","LANDMARKCO":"510","LANDMARKNA":"鴻福高爾夫球場","LANDMARKAD":"1000410","ADDRESS":"新竹縣北埔鄉埔尾村中正路60之2號","TEL":"03-5804323","COUNTYNAME":"新竹縣","TOWNNAME":"寶山鄉","MARKTYPE":"995","Class":"5"},"geometry":{"x":121.03241702639453,"y":24.711213723307434}},{"attributes":{"OBJECTID":25080,"LANDMARKID":"1000400000487","LANDMARKCO":"405","LANDMARKNA":"中油加油站-員山站","LANDMARKAD":"1000402","ADDRESS":"新竹縣竹東鎮員山路428號","TEL":"03-5827583","COUNTYNAME":"新竹縣","TOWNNAME":"竹東鎮","MARKTYPE":"994","Class":"4"},"geometry":{"x":121.04858871338507,"y":24.78443432280411}},{"attributes":{"OBJECTID":25081,"LANDMARKID":"1000400000488","LANDMARKCO":"405","LANDMARKNA":"統一速邁樂加油站-竹東站(中油)","LANDMARKAD":"1000402","ADDRESS":"新竹縣竹東鎮中興路四段26號","TEL":"03-5822237","COUNTYNAME":"新竹縣","TOWNNAME":"竹東鎮","MARKTYPE":"994","Class":"4"},"geometry":{"x":121.05046853103474,"y":24.771925949954376}},{"attributes":{"OBJECTID":25082,"LANDMARKID":"1000400000489","LANDMARKCO":"405","LANDMARKNA":"中油加油站-東林路站(中油直營)","LANDMARKAD":"1000402","ADDRESS":"新竹縣竹東鎮東林路111號","TEL":"035-957003","COUNTYNAME":"新竹縣","TOWNNAME":"竹東鎮","MARKTYPE":"994","Class":"4"},"geometry":{"x":121.09225279349666,"y":24.737185698924506}},{"attributes":{"OBJECTID":25083,"LANDMARKID":"1000400000490","LANDMARKCO":"405","LANDMARKNA":"中油加油站-竹東站(中油直營)","LANDMARKAD":"1000402","ADDRESS":"新竹縣竹東鎮東寧路一段2號","TEL":"03-5962447","COUNTYNAME":"新竹縣","TOWNNAME":"竹東鎮","MARKTYPE":"994","Class":"4"},"geometry":{"x":121.09650128021269,"y":24.722585748702915}},{"attributes":{"OBJECTID":25084,"LANDMARKID":"1000400000491","LANDMARKCO":"405","LANDMARKNA":"北基加油站-工研院站(中油)","LANDMARKAD":"1000402","ADDRESS":"新竹縣竹東鎮中興路4段491號","TEL":"(03)583-1515","COUNTYNAME":"新竹縣","TOWNNAME":"竹東鎮","MARKTYPE":"994","Class":"4"},"geometry":{"x":121.04222142927965,"y":24.778521356224168}},{"attributes":{"OBJECTID":25085,"LANDMARKID":"1000400000492","LANDMARKCO":"405","LANDMARKNA":"中油加油站-良奇站","LANDMARKAD":"1000402","ADDRESS":"新竹縣竹東鎮中興路一段109號","TEL":"03-5942727","COUNTYNAME":"新竹縣","TOWNNAME":"竹東鎮","MARKTYPE":"994","Class":"4"},"geometry":{"x":121.07470519661078,"y":24.752740781437552}},{"attributes":{"OBJECTID":25086,"LANDMARKID":"1000400000416","LANDMARKCO":"402","LANDMARKNA":"亞太行動寬頻電信-新竹竹東加盟服務中心","LANDMARKAD":"1000402","ADDRESS":"新竹縣竹東鎮杞林路90號","TEL":"03-5960202","COUNTYNAME":"新竹縣","TOWNNAME":"竹東鎮","MARKTYPE":"994","Class":"4"},"geometry":{"x":121.0922752920027,"y":24.736549434878384}},{"attributes":{"OBJECTID":25087,"LANDMARKID":"1000400000417","LANDMARKCO":"402","LANDMARKNA":"亞太行動寬頻電信-竹東長春加盟服務中心","LANDMARKAD":"1000402","ADDRESS":"新竹縣竹東鎮長春路3段163號","TEL":"03-5950859","COUNTYNAME":"新竹縣","TOWNNAME":"竹東鎮","MARKTYPE":"994","Class":"4"},"geometry":{"x":121.08386747781162,"y":24.74313636544483}},{"attributes":{"OBJECTID":25088,"LANDMARKID":"1000400000389","LANDMARKCO":"401","LANDMARKNA":"宏安中醫醫院","LANDMARKAD":"1000402","ADDRESS":"新竹縣竹東鎮仁愛路342號","TEL":"03-5965228","COUNTYNAME":"新竹縣","TOWNNAME":"竹東鎮","MARKTYPE":"994","Class":"4"},"geometry":{"x":121.09126952391466,"y":24.738327612313263}},{"attributes":{"OBJECTID":25089,"LANDMARKID":"1000400000390","LANDMARKCO":"401","LANDMARKNA":"竹信醫院","LANDMARKAD":"1000402","ADDRESS":"新竹縣竹東鎮仁愛路196號","TEL":"03-5962998","COUNTYNAME":"新竹縣","TOWNNAME":"竹東鎮","MARKTYPE":"994","Class":"4"},"geometry":{"x":121.09130526848688,"y":24.734336920461917}},{"attributes":{"OBJECTID":25090,"LANDMARKID":"1000400000391","LANDMARKCO":"401","LANDMARKNA":"行政院衛生署竹東醫院","LANDMARKAD":"1000402","ADDRESS":"新竹縣竹東鎮至善路52號","TEL":"03-5943248","COUNTYNAME":"新竹縣","TOWNNAME":"竹東鎮","MARKTYPE":"994","Class":"4"},"geometry":{"x":121.09324185368679,"y":24.718680434612555}},{"attributes":{"OBJECTID":25091,"LANDMARKID":"1000400000392","LANDMARKCO":"401","LANDMARKNA":"林醫院","LANDMARKAD":"1000402","ADDRESS":"新竹縣竹東鎮東林路76號","TEL":"03-5962316","COUNTYNAME":"新竹縣","TOWNNAME":"竹東鎮","MARKTYPE":"994","Class":"4"},"geometry":{"x":121.09135591419371,"y":24.736557916983056}},{"attributes":{"OBJECTID":25092,"LANDMARKID":"1000400000393","LANDMARKCO":"401","LANDMARKNA":"竹東榮民醫院","LANDMARKAD":"1000402","ADDRESS":"新竹縣竹東鎮中豐路一段81號","TEL":"03-5962134","COUNTYNAME":"新竹縣","TOWNNAME":"竹東鎮","MARKTYPE":"994","Class":"4"},"geometry":{"x":121.09958152349034,"y":24.722700266091561}},{"attributes":{"OBJECTID":25093,"LANDMARKID":"1000400000609","LANDMARKCO":"506","LANDMARKNA":"五指山柑橘觀光果園","LANDMARKAD":"1000402","ADDRESS":"新竹縣竹東鎮","TEL":" ","COUNTYNAME":"新竹縣","TOWNNAME":"竹東鎮","MARKTYPE":"995","Class":"5"},"geometry":{"x":121.09383175910918,"y":24.743848369637703}},{"attributes":{"OBJECTID":25094,"LANDMARKID":"1000400000610","LANDMARKCO":"506","LANDMARKNA":"大山背柑橘觀光果園","LANDMARKAD":"1000402","ADDRESS":"新竹縣竹東鎮上坪里5鄰58號","TEL":"035-959281","COUNTYNAME":"新竹縣","TOWNNAME":"竹東鎮","MARKTYPE":"995","Class":"5"},"geometry":{"x":121.04490693537923,"y":24.769065555741236}},{"attributes":{"OBJECTID":25095,"LANDMARKID":"1000400000549","LANDMARKCO":"408","LANDMARKNA":"郵局-竹東下公館郵局","LANDMARKAD":"1000402","ADDRESS":"新竹縣竹東鎮東寧路1段77號","TEL":"(03)5965-516","COUNTYNAME":"新竹縣","TOWNNAME":"竹東鎮","MARKTYPE":"994","Class":"4"},"geometry":{"x":121.09514326291099,"y":24.723799087064958}},{"attributes":{"OBJECTID":25096,"LANDMARKID":"1000400000550","LANDMARKCO":"408","LANDMARKNA":"郵局-竹東工研院郵局","LANDMARKAD":"1000402","ADDRESS":"新竹縣竹東鎮中興路4段195號","TEL":"(03)5916-084","COUNTYNAME":"新竹縣","TOWNNAME":"竹東鎮","MARKTYPE":"994","Class":"4"},"geometry":{"x":121.04029868856519,"y":24.776930633397978}},{"attributes":{"OBJECTID":25097,"LANDMARKID":"1000400000551","LANDMARKCO":"408","LANDMARKNA":"郵局-竹東郵局","LANDMARKAD":"1000402","ADDRESS":"新竹縣竹東鎮東林路128號","TEL":"(03)5962-892","COUNTYNAME":"新竹縣","TOWNNAME":"竹東鎮","MARKTYPE":"994","Class":"4"},"geometry":{"x":121.09273953549945,"y":24.736833417738982}},{"attributes":{"OBJECTID":25098,"LANDMARKID":"1000400000552","LANDMARKCO":"408","LANDMARKNA":"郵局-竹東二重埔郵局","LANDMARKAD":"1000402","ADDRESS":"新竹縣竹東鎮中興路3段97號","TEL":"(03)5821-136","COUNTYNAME":"新竹縣","TOWNNAME":"竹東鎮","MARKTYPE":"994","Class":"4"},"geometry":{"x":121.05674314770938,"y":24.766414632160167}},{"attributes":{"OBJECTID":25099,"LANDMARKID":"1000400000553","LANDMARKCO":"408","LANDMARKNA":"郵局-竹東長春郵局","LANDMARKAD":"1000402","ADDRESS":"新竹縣竹東鎮長春路2段60號","TEL":"(03)5956-993","COUNTYNAME":"新竹縣","TOWNNAME":"竹東鎮","MARKTYPE":"994","Class":"4"},"geometry":{"x":121.08848062872232,"y":24.73841169815541}},{"attributes":{"OBJECTID":25100,"LANDMARKID":"1000400000569","LANDMARKCO":"409","LANDMARKNA":"新竹縣竹東地區農會","LANDMARKAD":"1000402","ADDRESS":"新竹縣竹東鎮東寧路三段130號","TEL":"03-5963131","COUNTYNAME":"新竹縣","TOWNNAME":"竹東鎮","MARKTYPE":"994","Class":"4"},"geometry":{"x":121.08612682039934,"y":24.739633790424744}},{"attributes":{"OBJECTID":25101,"LANDMARKID":"1000400000426","LANDMARKCO":"404","LANDMARKNA":"台灣自來水竹東營運所","LANDMARKAD":"1000402","ADDRESS":"新竹縣竹東鎮長安路123號","TEL":"03-5963356","COUNTYNAME":"新竹縣","TOWNNAME":"竹東鎮","MARKTYPE":"994","Class":"4"},"geometry":{"x":121.09159103943784,"y":24.73522724462239}},{"attributes":{"OBJECTID":25102,"LANDMARKID":"1000400000427","LANDMARKCO":"404","LANDMARKNA":"台灣省自來水竹東營運所","LANDMARKAD":"1000402","ADDRESS":"新竹縣竹東鎮長安路123號","TEL":" ","COUNTYNAME":"新竹縣","TOWNNAME":"竹東鎮","MARKTYPE":"994","Class":"4"},"geometry":{"x":121.09120796446757,"y":24.735721032664468}},{"attributes":{"OBJECTID":25103,"LANDMARKID":"1000400000428","LANDMARKCO":"404","LANDMARKNA":"台灣省自來水寶山給水廠","LANDMARKAD":"1000402","ADDRESS":"新竹縣竹東鎮柯子湖路三段305巷120號","TEL":" ","COUNTYNAME":"新竹縣","TOWNNAME":"竹東鎮","MARKTYPE":"994","Class":"4"},"geometry":{"x":121.03505969551613,"y":24.754949023893619}},{"attributes":{"OBJECTID":25104,"LANDMARKID":"1000400000513","LANDMARKCO":"406","LANDMARKNA":"育樂公園","LANDMARKAD":"1000402","ADDRESS":"新竹縣竹東鎮","TEL":" ","COUNTYNAME":"新竹縣","TOWNNAME":"竹東鎮","MARKTYPE":"994","Class":"4"},"geometry":{"x":121.09087667214507,"y":24.737560943027525}},{"attributes":{"OBJECTID":25105,"LANDMARKID":"1000400000514","LANDMARKCO":"406","LANDMARKNA":"大同公園","LANDMARKAD":"1000402","ADDRESS":"新竹縣竹東鎮","TEL":" ","COUNTYNAME":"新竹縣","TOWNNAME":"竹東鎮","MARKTYPE":"994","Class":"4"},"geometry":{"x":121.08993852396095,"y":24.741598826659452}},{"attributes":{"OBJECTID":25106,"LANDMARKID":"1000400000485","LANDMARKCO":"405","LANDMARKNA":"全國加油站-竹東站（台塑）","LANDMARKAD":"1000402","ADDRESS":"新竹縣竹東鎮中興路四段876號","TEL":"03-5826535","COUNTYNAME":"新竹縣","TOWNNAME":"竹東鎮","MARKTYPE":"994","Class":"4"},"geometry":{"x":121.0315123362959,"y":24.778402341777756}},{"attributes":{"OBJECTID":25107,"LANDMARKID":"1000400000486","LANDMARKCO":"405","LANDMARKNA":"台塑加油站-北興路站(台塑)","LANDMARKAD":"1000402","ADDRESS":"新竹縣竹東鎮東林路178號","TEL":"03-5100875","COUNTYNAME":"新竹縣","TOWNNAME":"竹東鎮","MARKTYPE":"994","Class":"4"},"geometry":{"x":121.09436201710706,"y":24.737323961657157}},{"attributes":{"OBJECTID":25108,"LANDMARKID":"1000400000023","LANDMARKCO":"103","LANDMARKNA":"新竹縣竹東鎮衛生所","LANDMARKAD":"1000402","ADDRESS":"新竹縣竹東鎮中正路221號","TEL":"03-5946170","COUNTYNAME":"新竹縣","TOWNNAME":"竹東鎮","MARKTYPE":"991","Class":"1"},"geometry":{"x":121.09110900316705,"y":24.736720772418561}},{"attributes":{"OBJECTID":25109,"LANDMARKID":"1000400000095","LANDMARKCO":"107","LANDMARKNA":"新竹縣消防局第二消防大隊部","LANDMARKAD":"1000402","ADDRESS":"新竹縣竹東鎮長安路77號","TEL":"035-944860","COUNTYNAME":"新竹縣","TOWNNAME":"竹東鎮","MARKTYPE":"991","Class":"1"},"geometry":{"x":121.09323466663933,"y":24.735455814996254}},{"attributes":{"OBJECTID":25110,"LANDMARKID":"1000400000163","LANDMARKCO":"108","LANDMARKNA":"新竹縣竹東鎮公所","LANDMARKAD":"1000402","ADDRESS":"新竹縣竹東鎮東林路88號","TEL":"035-966177","COUNTYNAME":"新竹縣","TOWNNAME":"竹東鎮","MARKTYPE":"991","Class":"1"},"geometry":{"x":121.09170463905804,"y":24.736591614953866}},{"attributes":{"OBJECTID":25111,"LANDMARKID":"1000400000022","LANDMARKCO":"103","LANDMARKNA":"新竹縣竹東鎮鎮民代表會","LANDMARKAD":"1000402","ADDRESS":"新竹縣竹東鎮杞林路87號2樓","TEL":"03-5963097","COUNTYNAME":"新竹縣","TOWNNAME":"竹東鎮","MARKTYPE":"991","Class":"1"},"geometry":{"x":121.09146911986157,"y":24.736431325262281}},{"attributes":{"OBJECTID":25112,"LANDMARKID":"1000400000096","LANDMARKCO":"107","LANDMARKNA":"新竹縣消防局竹東消防分隊","LANDMARKAD":"1000402","ADDRESS":"新竹縣竹東鎮中正路206號","TEL":"035-962066","COUNTYNAME":"新竹縣","TOWNNAME":"竹東鎮","MARKTYPE":"991","Class":"1"},"geometry":{"x":121.09344382648369,"y":24.735371046187385}},{"attributes":{"OBJECTID":25113,"LANDMARKID":"1000400000097","LANDMARKCO":"107","LANDMARKNA":"新竹縣消防局二重消防分隊","LANDMARKAD":"1000402","ADDRESS":"新竹縣竹東鎮二重里中興路四段99號","TEL":"035-829233","COUNTYNAME":"新竹縣","TOWNNAME":"竹東鎮","MARKTYPE":"991","Class":"1"},"geometry":{"x":121.04903014461003,"y":24.772826736425365}},{"attributes":{"OBJECTID":25114,"LANDMARKID":"1000400000098","LANDMARKCO":"107","LANDMARKNA":"新竹縣警察局竹東分局","LANDMARKAD":"1000402","ADDRESS":"新竹縣竹東鎮商華里康寧街93號","TEL":"035-962081","COUNTYNAME":"新竹縣","TOWNNAME":"竹東鎮","MARKTYPE":"991","Class":"1"},"geometry":{"x":121.08675862939697,"y":24.736892156202785}},{"attributes":{"OBJECTID":25115,"LANDMARKID":"1000400000099","LANDMARKCO":"107","LANDMARKNA":"新竹縣警察局竹東派出所","LANDMARKAD":"1000402","ADDRESS":"新竹縣竹東鎮商華里康寧街93號","TEL":"03-5962057","COUNTYNAME":"新竹縣","TOWNNAME":"竹東鎮","MARKTYPE":"991","Class":"1"},"geometry":{"x":121.08675862939697,"y":24.736892156202785}},{"attributes":{"OBJECTID":25116,"LANDMARKID":"1000400000100","LANDMARKCO":"107","LANDMARKNA":"新竹縣警察局二重埔派出所","LANDMARKAD":"1000402","ADDRESS":"新竹縣竹東鎮中興路三段95號","TEL":"035-823504","COUNTYNAME":"新竹縣","TOWNNAME":"竹東鎮","MARKTYPE":"991","Class":"1"},"geometry":{"x":121.05692686352302,"y":24.76606289785439}},{"attributes":{"OBJECTID":25117,"LANDMARKID":"1000400000066","LANDMARKCO":"106","LANDMARKNA":"新竹縣竹東鎮戶政事務所","LANDMARKAD":"1000402","ADDRESS":"新竹縣竹東鎮商華里3鄰康寧街89號","TEL":"035-966334","COUNTYNAME":"新竹縣","TOWNNAME":"竹東鎮","MARKTYPE":"991","Class":"1"},"geometry":{"x":121.08692028670663,"y":24.737263047981585}},{"attributes":{"OBJECTID":25118,"LANDMARKID":"1000400000057","LANDMARKCO":"105","LANDMARKNA":"新竹縣竹東地政事務所","LANDMARKAD":"1000402","ADDRESS":"新竹縣竹東鎮長安路124巷8號","TEL":"035-957789","COUNTYNAME":"新竹縣","TOWNNAME":"竹東鎮","MARKTYPE":"991","Class":"1"},"geometry":{"x":121.09169370402918,"y":24.736213778029487}},{"attributes":{"OBJECTID":25119,"LANDMARKID":"1000400000056","LANDMARKCO":"104","LANDMARKNA":"北區國稅局竹東稽徵所","LANDMARKAD":"1000402","ADDRESS":"新竹縣竹東鎮東林路128號2樓","TEL":"03-5946640","COUNTYNAME":"新竹縣","TOWNNAME":"竹東鎮","MARKTYPE":"991","Class":"1"},"geometry":{"x":121.09290219414139,"y":24.736507076939162}},{"attributes":{"OBJECTID":25120,"LANDMARKID":"1000400000010","LANDMARKCO":"101","LANDMARKNA":"台灣新竹地方法院竹東簡易庭","LANDMARKAD":"1000402","ADDRESS":"新竹縣竹東鎮中正路202號","TEL":"035-943011","COUNTYNAME":"新竹縣","TOWNNAME":"竹東鎮","MARKTYPE":"991","Class":"1"},"geometry":{"x":121.09351143979524,"y":24.73496963610534}},{"attributes":{"OBJECTID":25121,"LANDMARKID":"1000400000011","LANDMARKCO":"101","LANDMARKNA":"工業安全衛生技術服務團","LANDMARKAD":"1000402","ADDRESS":"新竹縣竹東鎮中興路四段195號","TEL":"035-820411","COUNTYNAME":"新竹縣","TOWNNAME":"竹東鎮","MARKTYPE":"991","Class":"1"},"geometry":{"x":121.04029611804238,"y":24.776932621295824}},{"attributes":{"OBJECTID":25122,"LANDMARKID":"1000400000012","LANDMARKCO":"101","LANDMARKNA":"財團法人工業技術研究院","LANDMARKAD":"1000402","ADDRESS":"新竹縣竹東鎮中興路四段195號","TEL":"035-820100","COUNTYNAME":"新竹縣","TOWNNAME":"竹東鎮","MARKTYPE":"991","Class":"1"},"geometry":{"x":121.04029611804238,"y":24.776932621295824}},{"attributes":{"OBJECTID":25123,"LANDMARKID":"1000400000013","LANDMARKCO":"101","LANDMARKNA":"水利署中區水資源局","LANDMARKAD":"1000402","ADDRESS":"新竹縣竹東鎮中豐路二段300號3樓","TEL":"035-944622","COUNTYNAME":"新竹縣","TOWNNAME":"竹東鎮","MARKTYPE":"991","Class":"1"},"geometry":{"x":121.09026773511177,"y":24.724949468063919}},{"attributes":{"OBJECTID":25124,"LANDMARKID":"1000400000101","LANDMARKCO":"107","LANDMARKNA":"新竹縣警察局上坪派出所","LANDMARKAD":"1000402","ADDRESS":"新竹縣竹東鎮上坪里七鄰86號","TEL":"035-961744","COUNTYNAME":"新竹縣","TOWNNAME":"竹東鎮","MARKTYPE":"991","Class":"1"},"geometry":{"x":121.12276916711322,"y":24.660225704907287}},{"attributes":{"OBJECTID":25125,"LANDMARKID":"1000400000014","LANDMARKCO":"101","LANDMARKNA":"竹東鎮立火葬場","LANDMARKAD":"1000402","ADDRESS":"新竹縣竹東鎮","TEL":"03-5966177","COUNTYNAME":"新竹縣","TOWNNAME":"竹東鎮","MARKTYPE":"991","Class":"1"},"geometry":{"x":121.07631324994931,"y":24.74956446128164}},{"attributes":{"OBJECTID":25126,"LANDMARKID":"1000400000307","LANDMARKCO":"204","LANDMARKNA":"新竹縣立圖書館竹東分館","LANDMARKAD":"1000402","ADDRESS":"新竹縣竹東鎮環山路1號","TEL":" ","COUNTYNAME":"新竹縣","TOWNNAME":"竹東鎮","MARKTYPE":"992","Class":"2"},"geometry":{"x":121.08432622052672,"y":24.734308986867987}},{"attributes":{"OBJECTID":25127,"LANDMARKID":"1000400000229","LANDMARKCO":"203","LANDMARKNA":"私立上智國小","LANDMARKAD":"1000402","ADDRESS":"新竹縣竹東鎮東寧路三段205號","TEL":"035-962082","COUNTYNAME":"新竹縣","TOWNNAME":"竹東鎮","MARKTYPE":"992","Class":"2"},"geometry":{"x":121.08463793899382,"y":24.741239513362089}},{"attributes":{"OBJECTID":25128,"LANDMARKID":"1000400000182","LANDMARKCO":"202","LANDMARKNA":"國立竹東高中","LANDMARKAD":"1000402","ADDRESS":"新竹縣竹東鎮大林路2號","TEL":"035-962024","COUNTYNAME":"新竹縣","TOWNNAME":"竹東鎮","MARKTYPE":"992","Class":"2"},"geometry":{"x":121.08682963661686,"y":24.732567328796058}},{"attributes":{"OBJECTID":25129,"LANDMARKID":"1000400000183","LANDMARKCO":"202","LANDMARKNA":"私立東泰高中","LANDMARKAD":"1000402","ADDRESS":"新竹縣竹東鎮東峰路343號","TEL":"03-5961232","COUNTYNAME":"新竹縣","TOWNNAME":"竹東鎮","MARKTYPE":"992","Class":"2"},"geometry":{"x":121.09887577891423,"y":24.711259210997319}},{"attributes":{"OBJECTID":25130,"LANDMARKID":"1000400000184","LANDMARKCO":"203","LANDMARKNA":"縣立自強國中","LANDMARKAD":"1000402","ADDRESS":"新竹縣竹東鎮自強路169號","TEL":"035-103291","COUNTYNAME":"新竹縣","TOWNNAME":"竹東鎮","MARKTYPE":"992","Class":"2"},"geometry":{"x":121.08556506941642,"y":24.74515763202599}},{"attributes":{"OBJECTID":25131,"LANDMARKID":"1000400000185","LANDMARKCO":"203","LANDMARKNA":"縣立員東國中","LANDMARKAD":"1000402","ADDRESS":"新竹縣竹東鎮東峰路521號","TEL":"035-963324","COUNTYNAME":"新竹縣","TOWNNAME":"竹東鎮","MARKTYPE":"992","Class":"2"},"geometry":{"x":121.09800662432232,"y":24.707304867294464}},{"attributes":{"OBJECTID":25132,"LANDMARKID":"1000400000186","LANDMARKCO":"203","LANDMARKNA":"縣立竹東國中","LANDMARKAD":"1000402","ADDRESS":"新竹縣竹東鎮康寧街45號","TEL":"035-961207","COUNTYNAME":"新竹縣","TOWNNAME":"竹東鎮","MARKTYPE":"992","Class":"2"},"geometry":{"x":121.08684395014848,"y":24.735721036347446}},{"attributes":{"OBJECTID":25133,"LANDMARKID":"1000400000187","LANDMARKCO":"203","LANDMARKNA":"縣立二重國中","LANDMARKAD":"1000402","ADDRESS":"新竹縣竹東鎮學府路132號","TEL":"035-823083","COUNTYNAME":"新竹縣","TOWNNAME":"竹東鎮","MARKTYPE":"992","Class":"2"},"geometry":{"x":121.0543805870023,"y":24.764913082921375}},{"attributes":{"OBJECTID":25134,"LANDMARKID":"1000400000188","LANDMARKCO":"203","LANDMARKNA":"縣立中山國小","LANDMARKAD":"1000402","ADDRESS":"新竹縣竹東鎮中山路70號","TEL":"035-962102","COUNTYNAME":"新竹縣","TOWNNAME":"竹東鎮","MARKTYPE":"992","Class":"2"},"geometry":{"x":121.09401369584894,"y":24.733360996132152}},{"attributes":{"OBJECTID":25135,"LANDMARKID":"1000400000189","LANDMARKCO":"203","LANDMARKNA":"縣立二重國小","LANDMARKAD":"1000402","ADDRESS":"新竹縣竹東鎮二重里光明路32號","TEL":"035-822098","COUNTYNAME":"新竹縣","TOWNNAME":"竹東鎮","MARKTYPE":"992","Class":"2"},"geometry":{"x":121.05748970281294,"y":24.76765692876987}},{"attributes":{"OBJECTID":25136,"LANDMARKID":"1000400000190","LANDMARKCO":"203","LANDMARKNA":"縣立竹中國小","LANDMARKAD":"1000402","ADDRESS":"新竹縣竹東鎮頭重里竹中路104巷14號","TEL":"035-823822","COUNTYNAME":"新竹縣","TOWNNAME":"竹東鎮","MARKTYPE":"992","Class":"2"},"geometry":{"x":121.03003270006049,"y":24.780459211321819}},{"attributes":{"OBJECTID":25137,"LANDMARKID":"1000400000191","LANDMARKCO":"203","LANDMARKNA":"縣立員崠國小","LANDMARKAD":"1000402","ADDRESS":"新竹縣竹東鎮東峰路281號","TEL":"035-962143","COUNTYNAME":"新竹縣","TOWNNAME":"竹東鎮","MARKTYPE":"992","Class":"2"},"geometry":{"x":121.09879184087022,"y":24.713811742683589}},{"attributes":{"OBJECTID":25138,"LANDMARKID":"1000400000192","LANDMARKCO":"203","LANDMARKNA":"縣立竹東國小","LANDMARKAD":"1000402","ADDRESS":"新竹縣竹東鎮康寧街1號","TEL":"035-962025","COUNTYNAME":"新竹縣","TOWNNAME":"竹東鎮","MARKTYPE":"992","Class":"2"},"geometry":{"x":121.08779149976964,"y":24.735350659200016}},{"attributes":{"OBJECTID":25139,"LANDMARKID":"1000400000193","LANDMARKCO":"203","LANDMARKNA":"縣立大同國小","LANDMARKAD":"1000402","ADDRESS":"新竹縣竹東鎮莊敬路111號","TEL":"035-961160","COUNTYNAME":"新竹縣","TOWNNAME":"竹東鎮","MARKTYPE":"992","Class":"2"},"geometry":{"x":121.08858108154564,"y":24.740353882656059}},{"attributes":{"OBJECTID":25140,"LANDMARKID":"1000400000194","LANDMARKCO":"203","LANDMARKNA":"縣立上館國小","LANDMARKAD":"1000402","ADDRESS":"新竹縣竹東鎮中豐路二段399號","TEL":"03-5103777","COUNTYNAME":"新竹縣","TOWNNAME":"竹東鎮","MARKTYPE":"992","Class":"2"},"geometry":{"x":121.0881087742498,"y":24.725920668093096}},{"attributes":{"OBJECTID":25141,"LANDMARKID":"1000400000195","LANDMARKCO":"203","LANDMARKNA":"縣立東寧國中","LANDMARKAD":"1000402","ADDRESS":"新竹縣竹東鎮","TEL":" ","COUNTYNAME":"新竹縣","TOWNNAME":"竹東鎮","MARKTYPE":"992","Class":"2"},"geometry":{"x":121.09067478282523,"y":24.722094801435638}},{"attributes":{"OBJECTID":25142,"LANDMARKID":"1000400000196","LANDMARKCO":"203","LANDMARKNA":"縣立瑞峰國小","LANDMARKAD":"1000402","ADDRESS":"新竹縣竹東鎮上坪里43號","TEL":"035-949052","COUNTYNAME":"新竹縣","TOWNNAME":"竹東鎮","MARKTYPE":"992","Class":"2"},"geometry":{"x":121.12199863505269,"y":24.661669329932042}},{"attributes":{"OBJECTID":25143,"LANDMARKID":"1000400000197","LANDMARKCO":"203","LANDMARKNA":"縣立陸豐國小","LANDMARKAD":"1000402","ADDRESS":"新竹縣竹東鎮陸豐里48號","TEL":"035-923697","COUNTYNAME":"新竹縣","TOWNNAME":"竹東鎮","MARKTYPE":"992","Class":"2"},"geometry":{"x":121.07729801360082,"y":24.76634275754013}},{"attributes":{"OBJECTID":25144,"LANDMARKID":"1000400000382","LANDMARKCO":"308","LANDMARKNA":"台68-竹東交流道-西行","LANDMARKAD":"1000402","ADDRESS":"新竹縣竹東鎮","TEL":" ","COUNTYNAME":"新竹縣","TOWNNAME":"竹東鎮","MARKTYPE":"993","Class":"308"},"geometry":{"x":121.08629664726713,"y":24.746770213036047}},{"attributes":{"OBJECTID":25145,"LANDMARKID":"1000400000383","LANDMARKCO":"308","LANDMARKNA":"台68-芎林交流道-西行","LANDMARKAD":"1000402","ADDRESS":"新竹縣竹東鎮","TEL":" ","COUNTYNAME":"新竹縣","TOWNNAME":"竹東鎮","MARKTYPE":"993","Class":"308"},"geometry":{"x":121.05911109100842,"y":24.777172466482654}},{"attributes":{"OBJECTID":25146,"LANDMARKID":"1000400000384","LANDMARKCO":"308","LANDMARKNA":"國3-竹林交流道-南下","LANDMARKAD":"1000402","ADDRESS":"新竹縣芎林鄉","TEL":" ","COUNTYNAME":"新竹縣","TOWNNAME":"竹東鎮","MARKTYPE":"993","Class":"308"},"geometry":{"x":121.07926340624024,"y":24.765325132179846}},{"attributes":{"OBJECTID":25147,"LANDMARKID":"1000400000385","LANDMARKCO":"308","LANDMARKNA":"台68-芎林交流道-東行","LANDMARKAD":"1000402","ADDRESS":"新竹縣竹東鎮","TEL":" ","COUNTYNAME":"新竹縣","TOWNNAME":"竹東鎮","MARKTYPE":"993","Class":"308"},"geometry":{"x":121.06048251787048,"y":24.774296561740524}},{"attributes":{"OBJECTID":25148,"LANDMARKID":"1000400000386","LANDMARKCO":"308","LANDMARKNA":"台68-竹東交流道-西行","LANDMARKAD":"1000402","ADDRESS":" ","TEL":" ","COUNTYNAME":"新竹縣","TOWNNAME":"竹東鎮","MARKTYPE":"993","Class":"308"},"geometry":{"x":121.07618794346151,"y":24.755185769348415}},{"attributes":{"OBJECTID":25149,"LANDMARKID":"1000400000387","LANDMARKCO":"308","LANDMARKNA":"台68-竹東端-西行","LANDMARKAD":"1000402","ADDRESS":" ","TEL":" ","COUNTYNAME":"新竹縣","TOWNNAME":"竹東鎮","MARKTYPE":"993","Class":"308"},"geometry":{"x":121.10207974507831,"y":24.723184400647153}},{"attributes":{"OBJECTID":25150,"LANDMARKID":"1000400000388","LANDMARKCO":"308","LANDMARKNA":"台68-竹東端-西行","LANDMARKAD":"1000402","ADDRESS":" ","TEL":" ","COUNTYNAME":"新竹縣","TOWNNAME":"竹東鎮","MARKTYPE":"993","Class":"308"},"geometry":{"x":121.10217056305628,"y":24.723276502052443}},{"attributes":{"OBJECTID":25151,"LANDMARKID":"1000400000343","LANDMARKCO":"303","LANDMARKNA":"停二平面停車場","LANDMARKAD":"1000402","ADDRESS":"新竹縣竹東鎮火車站後站","TEL":" ","COUNTYNAME":"新竹縣","TOWNNAME":"竹東鎮","MARKTYPE":"993","Class":"303"},"geometry":{"x":121.08850413130003,"y":24.729974785887752}},{"attributes":{"OBJECTID":25152,"LANDMARKID":"1000400000344","LANDMARKCO":"303","LANDMARKNA":"信義路平面停車場","LANDMARKAD":"1000402","ADDRESS":"新竹縣竹東鎮信義路","TEL":" ","COUNTYNAME":"新竹縣","TOWNNAME":"竹東鎮","MARKTYPE":"993","Class":"303"},"geometry":{"x":121.09015374326349,"y":24.738683454505299}},{"attributes":{"OBJECTID":25153,"LANDMARKID":"1000400000345","LANDMARKCO":"303","LANDMARKNA":"信義路停車場","LANDMARKAD":"1000402","ADDRESS":"新竹縣竹東鎮信義路","TEL":" ","COUNTYNAME":"新竹縣","TOWNNAME":"竹東鎮","MARKTYPE":"993","Class":"303"},"geometry":{"x":121.09020361687786,"y":24.737915220974816}},{"attributes":{"OBJECTID":25154,"LANDMARKID":"1000400000346","LANDMARKCO":"303","LANDMARKNA":"仁愛路停車場","LANDMARKAD":"1000402","ADDRESS":"新竹縣竹東鎮","TEL":" ","COUNTYNAME":"新竹縣","TOWNNAME":"竹東鎮","MARKTYPE":"993","Class":"303"},"geometry":{"x":121.09058157215217,"y":24.735430813938162}},{"attributes":{"OBJECTID":25155,"LANDMARKID":"1000400000325","LANDMARKCO":"301","LANDMARKNA":"竹中火車站","LANDMARKAD":"1000402","ADDRESS":"新竹縣竹東鎮頭重里竹中路6號","TEL":" ","COUNTYNAME":"新竹縣","TOWNNAME":"竹東鎮","MARKTYPE":"993","Class":"301"},"geometry":{"x":121.03262443302178,"y":24.781370132602529}},{"attributes":{"OBJECTID":25156,"LANDMARKID":"1000400000326","LANDMARKCO":"301","LANDMARKNA":"竹東火車站","LANDMARKAD":"1000402","ADDRESS":"新竹縣竹東鎮雞林里東林路196號","TEL":" ","COUNTYNAME":"新竹縣","TOWNNAME":"竹東鎮","MARKTYPE":"993","Class":"301"},"geometry":{"x":121.09473944038898,"y":24.738193435826446}},{"attributes":{"OBJECTID":25157,"LANDMARKID":"1000400000327","LANDMARKCO":"301","LANDMARKNA":"上員火車站","LANDMARKAD":"1000402","ADDRESS":"新竹縣竹東鎮上員里","TEL":" ","COUNTYNAME":"新竹縣","TOWNNAME":"竹東鎮","MARKTYPE":"993","Class":"301"},"geometry":{"x":121.06270007334084,"y":24.769236072581279}},{"attributes":{"OBJECTID":25158,"LANDMARKID":"1000400000328","LANDMARKCO":"301","LANDMARKNA":"榮華車站","LANDMARKAD":"1000402","ADDRESS":"新竹縣竹東鎮仁愛里(無站房)","TEL":" ","COUNTYNAME":"新竹縣","TOWNNAME":"竹東鎮","MARKTYPE":"993","Class":"301"},"geometry":{"x":121.08337851242784,"y":24.748070363519421}},{"attributes":{"OBJECTID":25159,"LANDMARKID":"1000400000420","LANDMARKCO":"402","LANDMARKNA":"中華電信-竹東服務中心","LANDMARKAD":"1000402","ADDRESS":"新竹縣竹東鎮杞林路68號","TEL":"123或0800-080-123","COUNTYNAME":"新竹縣","TOWNNAME":"竹東鎮","MARKTYPE":"994","Class":"4"},"geometry":{"x":121.09222724488281,"y":24.736098098370281}},{"attributes":{"OBJECTID":25160,"LANDMARKID":"1000400000421","LANDMARKCO":"402","LANDMARKNA":"中華電信-竹東長春特約服務中心","LANDMARKAD":"1000402","ADDRESS":"新竹縣竹東鎮長春路三段122號","TEL":"03-5953939","COUNTYNAME":"新竹縣","TOWNNAME":"竹東鎮","MARKTYPE":"994","Class":"4"},"geometry":{"x":121.08468745923498,"y":24.742693075304828}},{"attributes":{"OBJECTID":25161,"LANDMARKID":"1000400000422","LANDMARKCO":"402","LANDMARKNA":"威寶電信-竹東東寧特約服務中心","LANDMARKAD":"1000402","ADDRESS":"新竹縣竹東鎮東寧路三段79號","TEL":"03-5954009","COUNTYNAME":"新竹縣","TOWNNAME":"竹東鎮","MARKTYPE":"994","Class":"4"},"geometry":{"x":121.08685051855605,"y":24.738421601526049}},{"attributes":{"OBJECTID":25162,"LANDMARKID":"1000400000423","LANDMARKCO":"402","LANDMARKNA":"大眾電信-竹東專賣店","LANDMARKAD":"1000402","ADDRESS":"新竹縣竹東鎮大同路59號","TEL":"03-5100870","COUNTYNAME":"新竹縣","TOWNNAME":"竹東鎮","MARKTYPE":"994","Class":"4"},"geometry":{"x":121.0885215697117,"y":24.73861827754029}},{"attributes":{"OBJECTID":25163,"LANDMARKID":"1000400000424","LANDMARKCO":"402","LANDMARKNA":"大眾電信(震旦通訊)-竹東東寧店","LANDMARKAD":"1000402","ADDRESS":"新竹縣竹東鎮東寧路3段12號","TEL":"03-5940588","COUNTYNAME":"新竹縣","TOWNNAME":"竹東鎮","MARKTYPE":"994","Class":"4"},"geometry":{"x":121.08852906520576,"y":24.736929903071776}},{"attributes":{"OBJECTID":25164,"LANDMARKID":"1000400000425","LANDMARKCO":"402","LANDMARKNA":"大眾電信(震旦通訊)-竹東長春店","LANDMARKAD":"1000402","ADDRESS":"新竹縣竹東鎮長春路三段183號","TEL":"03-5948868","COUNTYNAME":"新竹縣","TOWNNAME":"竹東鎮","MARKTYPE":"994","Class":"4"},"geometry":{"x":121.08346274509783,"y":24.743597318912045}},{"attributes":{"OBJECTID":25165,"LANDMARKID":"1000400000689","LANDMARKCO":"604","LANDMARKNA":"隴西園民宿","LANDMARKAD":"1000402","ADDRESS":"新竹縣竹東鎮上坪里136-5號","TEL":"03-5946120","COUNTYNAME":"新竹縣","TOWNNAME":"竹東鎮","MARKTYPE":"996","Class":"6"},"geometry":{"x":121.11322755813848,"y":24.658951496925408}},{"attributes":{"OBJECTID":25166,"LANDMARKID":"1000400000690","LANDMARKCO":"604","LANDMARKNA":"老農夫山莊","LANDMARKAD":"1000402","ADDRESS":"新竹縣竹東鎮瑞峰里25-2號","TEL":"03-5949192","COUNTYNAME":"新竹縣","TOWNNAME":"竹東鎮","MARKTYPE":"996","Class":"6"},"geometry":{"x":121.11527655842515,"y":24.665585018679685}},{"attributes":{"OBJECTID":25167,"LANDMARKID":"1000400000691","LANDMARKCO":"604","LANDMARKNA":"築夢","LANDMARKAD":"1000402","ADDRESS":"新竹縣竹東鎮瑞峰里2鄰26號","TEL":"03-5949177","COUNTYNAME":"新竹縣","TOWNNAME":"竹東鎮","MARKTYPE":"996","Class":"6"},"geometry":{"x":121.11607844728127,"y":24.66545340188204}},{"attributes":{"OBJECTID":25168,"LANDMARKID":"1000400000692","LANDMARKCO":"604","LANDMARKNA":"景園山莊","LANDMARKAD":"1000402","ADDRESS":"新竹縣竹東鎮瑞峰里4鄰96號","TEL":"03-5804951","COUNTYNAME":"新竹縣","TOWNNAME":"竹東鎮","MARKTYPE":"996","Class":"6"},"geometry":{"x":121.10013690554483,"y":24.649610986008501}},{"attributes":{"OBJECTID":25169,"LANDMARKID":"1000400000653","LANDMARKCO":"603","LANDMARKNA":"成豐夢幻世界旅館部","LANDMARKAD":"1000402","ADDRESS":"新竹縣竹東鎮瑞峰里瑞峰81號","TEL":"03-5949888","COUNTYNAME":"新竹縣","TOWNNAME":"竹東鎮","MARKTYPE":"996","Class":"6"},"geometry":{"x":121.09523172269013,"y":24.660603580176367}},{"attributes":{"OBJECTID":25170,"LANDMARKID":"1000400000654","LANDMARKCO":"603","LANDMARKNA":"千禧園汽車旅館","LANDMARKAD":"1000402","ADDRESS":"新竹縣竹東鎮東榮路51","TEL":"53","COUNTYNAME":"新竹縣","TOWNNAME":"竹東鎮","MARKTYPE":"996","Class":"6"},"geometry":{"x":121.09861547732307,"y":24.721319167759429}},{"attributes":{"OBJECTID":25171,"LANDMARKID":"1000400000655","LANDMARKCO":"603","LANDMARKNA":"愛得美汽車旅館","LANDMARKAD":"1000402","ADDRESS":"新竹縣竹東鎮北興路二段265號","TEL":"03-5951177","COUNTYNAME":"新竹縣","TOWNNAME":"竹東鎮","MARKTYPE":"996","Class":"6"},"geometry":{"x":121.08964974600718,"y":24.742193917920776}},{"attributes":{"OBJECTID":25172,"LANDMARKID":"1000400000656","LANDMARKCO":"603","LANDMARKNA":"東園大旅社","LANDMARKAD":"1000402","ADDRESS":"新竹縣竹東鎮杞林路43號","TEL":"03-5962620","COUNTYNAME":"新竹縣","TOWNNAME":"竹東鎮","MARKTYPE":"996","Class":"6"},"geometry":{"x":121.09183039644287,"y":24.735141544100237}},{"attributes":{"OBJECTID":25173,"LANDMARKID":"1000400000657","LANDMARKCO":"603","LANDMARKNA":"王子大飯店","LANDMARKAD":"1000402","ADDRESS":"新竹縣竹東鎮東林路43號","TEL":"03-5963120","COUNTYNAME":"新竹縣","TOWNNAME":"竹東鎮","MARKTYPE":"996","Class":"6"},"geometry":{"x":121.08963689094928,"y":24.737345527159512}},{"attributes":{"OBJECTID":25174,"LANDMARKID":"1000400000503","LANDMARKCO":"405","LANDMARKNA":"中油加油站-橫山站(中油直營)","LANDMARKAD":"1000408","ADDRESS":"新竹縣橫山鄉大肚村中豐路二段96號","TEL":"03-5932902","COUNTYNAME":"新竹縣","TOWNNAME":"橫山鄉","MARKTYPE":"994","Class":"4"},"geometry":{"x":121.12857847936409,"y":24.72629258950122}},{"attributes":{"OBJECTID":25175,"LANDMARKID":"1000400000580","LANDMARKCO":"503","LANDMARKNA":"內灣風景區","LANDMARKAD":"1000408","ADDRESS":"新竹縣橫山鄉橫山村23鄰23號","TEL":" ","COUNTYNAME":"新竹縣","TOWNNAME":"橫山鄉","MARKTYPE":"995","Class":"5"},"geometry":{"x":121.12121656193294,"y":24.710979619788475}},{"attributes":{"OBJECTID":25176,"LANDMARKID":"1000400000557","LANDMARKCO":"408","LANDMARKNA":"郵局-橫山郵局","LANDMARKAD":"1000408","ADDRESS":"新竹縣橫山鄉新興村新興街137號","TEL":"(03)5932-951","COUNTYNAME":"新竹縣","TOWNNAME":"橫山鄉","MARKTYPE":"994","Class":"4"},"geometry":{"x":121.14014104548879,"y":24.717599912812126}},{"attributes":{"OBJECTID":25177,"LANDMARKID":"1000400000558","LANDMARKCO":"408","LANDMARKNA":"郵局-橫山內灣郵局","LANDMARKAD":"1000408","ADDRESS":"新竹縣橫山鄉內灣村中正路309號","TEL":"(03)5849-174","COUNTYNAME":"新竹縣","TOWNNAME":"橫山鄉","MARKTYPE":"994","Class":"4"},"geometry":{"x":121.18077924047628,"y":24.706414807468775}},{"attributes":{"OBJECTID":25178,"LANDMARKID":"1000400000565","LANDMARKCO":"409","LANDMARKNA":"新竹縣橫山地區農會","LANDMARKAD":"1000408","ADDRESS":"新竹縣橫山鄉新興村新興街119號","TEL":"03-5932006","COUNTYNAME":"新竹縣","TOWNNAME":"橫山鄉","MARKTYPE":"994","Class":"4"},"geometry":{"x":121.14110441475852,"y":24.716720233069427}},{"attributes":{"OBJECTID":25179,"LANDMARKID":"1000400000511","LANDMARKCO":"406","LANDMARKNA":"社區公園","LANDMARKAD":"1000408","ADDRESS":"新竹縣橫山鄉","TEL":" ","COUNTYNAME":"新竹縣","TOWNNAME":"橫山鄉","MARKTYPE":"994","Class":"4"},"geometry":{"x":121.11513571261254,"y":24.71756389110271}},{"attributes":{"OBJECTID":25180,"LANDMARKID":"1000400000504","LANDMARKCO":"405","LANDMARKNA":"福懋加油站-橫山站(台塑)","LANDMARKAD":"1000408","ADDRESS":"新竹縣橫山鄉中豐路二段99號","TEL":"03-5931949","COUNTYNAME":"新竹縣","TOWNNAME":"橫山鄉","MARKTYPE":"994","Class":"4"},"geometry":{"x":121.12859593422968,"y":24.726377028981833}},{"attributes":{"OBJECTID":25181,"LANDMARKID":"1000400000160","LANDMARKCO":"108","LANDMARKNA":"新竹縣橫山鄉公所","LANDMARKAD":"1000408","ADDRESS":"新竹縣橫山鄉新興街110號","TEL":"03-5932001","COUNTYNAME":"新竹縣","TOWNNAME":"橫山鄉","MARKTYPE":"991","Class":"1"},"geometry":{"x":121.14168913199822,"y":24.71685625106003}},{"attributes":{"OBJECTID":25182,"LANDMARKID":"1000400000015","LANDMARKCO":"103","LANDMARKNA":"新竹縣橫山鄉鄉民代表會","LANDMARKAD":"1000408","ADDRESS":"新竹縣橫山鄉新興街110號","TEL":"035-931234","COUNTYNAME":"新竹縣","TOWNNAME":"橫山鄉","MARKTYPE":"991","Class":"1"},"geometry":{"x":121.14168913199822,"y":24.71685625106003}},{"attributes":{"OBJECTID":25183,"LANDMARKID":"1000400000016","LANDMARKCO":"103","LANDMARKNA":"新竹縣橫山鄉衛生所","LANDMARKAD":"1000408","ADDRESS":"新竹縣橫山鄉新興村新興街127巷2號","TEL":"035-932004","COUNTYNAME":"新竹縣","TOWNNAME":"橫山鄉","MARKTYPE":"991","Class":"1"},"geometry":{"x":121.14084947751853,"y":24.716864263839771}},{"attributes":{"OBJECTID":25184,"LANDMARKID":"1000400000122","LANDMARKCO":"107","LANDMARKNA":"新竹縣消防局橫山消防分隊","LANDMARKAD":"1000408","ADDRESS":"新竹縣橫山鄉新興村新興街120號","TEL":"03-5932475","COUNTYNAME":"新竹縣","TOWNNAME":"橫山鄉","MARKTYPE":"991","Class":"1"},"geometry":{"x":121.1415122215445,"y":24.717081963270282}},{"attributes":{"OBJECTID":25185,"LANDMARKID":"1000400000123","LANDMARKCO":"107","LANDMARKNA":"新竹縣警察局橫山分局","LANDMARKAD":"1000408","ADDRESS":"新竹縣橫山鄉新興街103號","TEL":"03-5931004","COUNTYNAME":"新竹縣","TOWNNAME":"橫山鄉","MARKTYPE":"991","Class":"1"},"geometry":{"x":121.1416183265745,"y":24.716281369846886}},{"attributes":{"OBJECTID":25186,"LANDMARKID":"1000400000124","LANDMARKCO":"107","LANDMARKNA":"新竹縣警察局橫村派出所","LANDMARKAD":"1000408","ADDRESS":"新竹縣橫山鄉橫山村1鄰治安街1號","TEL":"035-934387","COUNTYNAME":"新竹縣","TOWNNAME":"橫山鄉","MARKTYPE":"991","Class":"1"},"geometry":{"x":121.11812844871973,"y":24.718443368658914}},{"attributes":{"OBJECTID":25187,"LANDMARKID":"1000400000125","LANDMARKCO":"107","LANDMARKNA":"新竹縣警察局沙坑派出所","LANDMARKAD":"1000408","ADDRESS":"新竹縣橫山鄉沙坑村中豐路3段10巷1號","TEL":"03-5811054","COUNTYNAME":"新竹縣","TOWNNAME":"橫山鄉","MARKTYPE":"991","Class":"1"},"geometry":{"x":121.16298745731031,"y":24.736688870472367}},{"attributes":{"OBJECTID":25188,"LANDMARKID":"1000400000126","LANDMARKCO":"107","LANDMARKNA":"新竹縣警察局橫山派出所","LANDMARKAD":"1000408","ADDRESS":"新竹縣橫山鄉新興街103號","TEL":"03-5931002","COUNTYNAME":"新竹縣","TOWNNAME":"橫山鄉","MARKTYPE":"991","Class":"1"},"geometry":{"x":121.1416183265745,"y":24.716281369846886}},{"attributes":{"OBJECTID":25189,"LANDMARKID":"1000400000068","LANDMARKCO":"106","LANDMARKNA":"新竹縣橫山鄉戶政事務所","LANDMARKAD":"1000408","ADDRESS":"新竹縣橫山鄉新興村11鄰新興街105號","TEL":"035-932473","COUNTYNAME":"新竹縣","TOWNNAME":"橫山鄉","MARKTYPE":"991","Class":"1"},"geometry":{"x":121.14133729867619,"y":24.716363610129061}},{"attributes":{"OBJECTID":25190,"LANDMARKID":"1000400000119","LANDMARKCO":"107","LANDMARKNA":"新竹縣警察局內灣派出所","LANDMARKAD":"1000408","ADDRESS":"新竹縣橫山鄉內灣村4鄰1-1號","TEL":"03-5849164","COUNTYNAME":"新竹縣","TOWNNAME":"橫山鄉","MARKTYPE":"991","Class":"1"},"geometry":{"x":121.18431486265203,"y":24.703680570726416}},{"attributes":{"OBJECTID":25191,"LANDMARKID":"1000400000308","LANDMARKCO":"204","LANDMARKNA":"新竹縣立圖書館橫山分館","LANDMARKAD":"1000408","ADDRESS":"新竹縣橫山鄉新興村7鄰新興街67巷7號","TEL":" ","COUNTYNAME":"新竹縣","TOWNNAME":"橫山鄉","MARKTYPE":"992","Class":"2"},"geometry":{"x":121.1430742535721,"y":24.715828581867196}},{"attributes":{"OBJECTID":25192,"LANDMARKID":"1000400000222","LANDMARKCO":"203","LANDMARKNA":"縣立橫山國中","LANDMARKAD":"1000408","ADDRESS":"新竹縣橫山鄉中豐路二段415號","TEL":"035-931665","COUNTYNAME":"新竹縣","TOWNNAME":"橫山鄉","MARKTYPE":"992","Class":"2"},"geometry":{"x":121.14670907897718,"y":24.718199041987578}},{"attributes":{"OBJECTID":25193,"LANDMARKID":"1000400000223","LANDMARKCO":"203","LANDMARKNA":"縣立華山國中","LANDMARKAD":"1000408","ADDRESS":"新竹縣橫山鄉橫山街一段29號","TEL":"035-934084","COUNTYNAME":"新竹縣","TOWNNAME":"橫山鄉","MARKTYPE":"992","Class":"2"},"geometry":{"x":121.10941598844003,"y":24.717720362777929}},{"attributes":{"OBJECTID":25194,"LANDMARKID":"1000400000224","LANDMARKCO":"203","LANDMARKNA":"縣立大肚國小","LANDMARKAD":"1000408","ADDRESS":"新竹縣橫山鄉大肚村中豐路二段157號","TEL":"035-932380","COUNTYNAME":"新竹縣","TOWNNAME":"橫山鄉","MARKTYPE":"992","Class":"2"},"geometry":{"x":121.14012496035872,"y":24.719074044574324}},{"attributes":{"OBJECTID":25195,"LANDMARKID":"1000400000225","LANDMARKCO":"203","LANDMARKNA":"縣立田寮國小","LANDMARKAD":"1000408","ADDRESS":"新竹縣橫山鄉田寮村田洋街128號","TEL":"035-934164","COUNTYNAME":"新竹縣","TOWNNAME":"橫山鄉","MARKTYPE":"992","Class":"2"},"geometry":{"x":121.10570757760857,"y":24.705363382350662}},{"attributes":{"OBJECTID":25196,"LANDMARKID":"1000400000226","LANDMARKCO":"203","LANDMARKNA":"縣立內灣國小","LANDMARKAD":"1000408","ADDRESS":"新竹縣橫山鄉內灣村三鄰110號","TEL":"035-848019","COUNTYNAME":"新竹縣","TOWNNAME":"橫山鄉","MARKTYPE":"992","Class":"2"},"geometry":{"x":121.18359602945775,"y":24.704585204951751}},{"attributes":{"OBJECTID":25197,"LANDMARKID":"1000400000227","LANDMARKCO":"203","LANDMARKNA":"縣立沙坑國小","LANDMARKAD":"1000408","ADDRESS":"新竹縣橫山鄉三鄰沙坑街48號","TEL":"035-811034","COUNTYNAME":"新竹縣","TOWNNAME":"橫山鄉","MARKTYPE":"992","Class":"2"},"geometry":{"x":121.16184644304553,"y":24.739460528645193}},{"attributes":{"OBJECTID":25198,"LANDMARKID":"1000400000228","LANDMARKCO":"203","LANDMARKNA":"縣立橫山國小","LANDMARKAD":"1000408","ADDRESS":"新竹縣橫山鄉橫山村橫山100號","TEL":"035-933780","COUNTYNAME":"新竹縣","TOWNNAME":"橫山鄉","MARKTYPE":"992","Class":"2"},"geometry":{"x":121.11490858505503,"y":24.718467002327156}},{"attributes":{"OBJECTID":25199,"LANDMARKID":"1000400000169","LANDMARKCO":"201","LANDMARKNA":"中華技術學院新竹分部","LANDMARKAD":"1000408","ADDRESS":"新竹縣橫山鄉中華街200號","TEL":"03-5935707","COUNTYNAME":"新竹縣","TOWNNAME":"橫山鄉","MARKTYPE":"992","Class":"2"},"geometry":{"x":121.11408296114737,"y":24.714224765424923}},{"attributes":{"OBJECTID":25200,"LANDMARKID":"1000400000347","LANDMARKCO":"303","LANDMARKNA":"騎龍古道停車場","LANDMARKAD":"1000408","ADDRESS":"新竹縣橫山鄉","TEL":" ","COUNTYNAME":"新竹縣","TOWNNAME":"橫山鄉","MARKTYPE":"993","Class":"303"},"geometry":{"x":121.13874168752858,"y":24.685587561737449}}]}