{"displayFieldName":"COUNTYNAME","fieldAliases":{"OBJECTID":"OBJECTID","LANDMARKID":"LANDMARKID","LANDMARKCO":"LANDMARKCO","LANDMARKNA":"LANDMARKNA","LANDMARKAD":"LANDMARKAD","ADDRESS":"ADDRESS","TEL":"TEL","COUNTYNAME":"COUNTYNAME","TOWNNAME":"TOWNNAME","MARKTYPE":"MARKTYPE","Class":"Class"},"geometryType":"esriGeometryPoint","spatialReference":{"wkid":102443},"fields":[{"name":"OBJECTID","type":"esriFieldTypeOID","alias":"OBJECTID"},{"name":"LANDMARKID","type":"esriFieldTypeString","alias":"LANDMARKID","length":15},{"name":"LANDMARKCO","type":"esriFieldTypeString","alias":"LANDMARKCO","length":15},{"name":"LANDMARKNA","type":"esriFieldTypeString","alias":"LANDMARKNA","length":50},{"name":"LANDMARKAD","type":"esriFieldTypeString","alias":"LANDMARKAD","length":15},{"name":"ADDRESS","type":"esriFieldTypeString","alias":"ADDRESS","length":56},{"name":"TEL","type":"esriFieldTypeString","alias":"TEL","length":36},{"name":"COUNTYNAME","type":"esriFieldTypeString","alias":"COUNTYNAME","length":15},{"name":"TOWNNAME","type":"esriFieldTypeString","alias":"TOWNNAME","length":13},{"name":"MARKTYPE","type":"esriFieldTypeString","alias":"MARKTYPE","length":12},{"name":"Class","type":"esriFieldTypeString","alias":"Class","length":5}],"features":[{"attributes":{"OBJECTID":11201,"LANDMARKID":"1001100001006","LANDMARKCO":"405","LANDMARKNA":"福懋加油站-長城站(台塑)","LANDMARKAD":"1001131","ADDRESS":"台南市永康區甲頂里中華路1076號","TEL":"06-2818777","COUNTYNAME":"台南市","TOWNNAME":"永康區","MARKTYPE":"994","Class":"4"},"geometry":{"x":169340.73039999977,"y":2547054.5835999995}},{"attributes":{"OBJECTID":11202,"LANDMARKID":"1001100001007","LANDMARKCO":"405","LANDMARKNA":"台亞加油站-永康站（台塑）","LANDMARKAD":"1001131","ADDRESS":"台南市永康區中山北路815號","TEL":"(06)204-1488","COUNTYNAME":"台南市","TOWNNAME":"永康區","MARKTYPE":"994","Class":"4"},"geometry":{"x":176187.02139999997,"y":2547997.3136999998}},{"attributes":{"OBJECTID":11203,"LANDMARKID":"1001100001008","LANDMARKCO":"405","LANDMARKNA":"台亞加油站-永康交流道站（台塑）","LANDMARKAD":"1001131","ADDRESS":"台南市永康區鹽行村中正北路320號","TEL":"(06)243-6630","COUNTYNAME":"台南市","TOWNNAME":"永康區","MARKTYPE":"994","Class":"4"},"geometry":{"x":172949.55169999972,"y":2549075.6008000001}},{"attributes":{"OBJECTID":11204,"LANDMARKID":"1001100001009","LANDMARKCO":"405","LANDMARKNA":"福懋加油站-公園站(台塑)","LANDMARKAD":"1001131","ADDRESS":"台南市永康區中正南路35號","TEL":"06-2516199","COUNTYNAME":"台南市","TOWNNAME":"永康區","MARKTYPE":"994","Class":"4"},"geometry":{"x":169528.9160000002,"y":2546792.9190999996}},{"attributes":{"OBJECTID":11205,"LANDMARKID":"1001100000158","LANDMARKCO":"107","LANDMARKNA":"台南市消防局復興消防分隊","LANDMARKAD":"1001131","ADDRESS":"台南市永康區復興路172號","TEL":"06-3117228","COUNTYNAME":"台南市","TOWNNAME":"永康區","MARKTYPE":"991","Class":"1"},"geometry":{"x":172641.09719999973,"y":2544350.5119000003}},{"attributes":{"OBJECTID":11206,"LANDMARKID":"1001100000021","LANDMARKCO":"101","LANDMARKNA":"工業局永康工業區服務中心","LANDMARKAD":"1001131","ADDRESS":"台南市永康區王行里環工路6號","TEL":"06-2322350","COUNTYNAME":"台南市","TOWNNAME":"永康區","MARKTYPE":"991","Class":"1"},"geometry":{"x":175645.94149999972,"y":2549911.1372999996}},{"attributes":{"OBJECTID":11207,"LANDMARKID":"1001100000159","LANDMARKCO":"107","LANDMARKNA":"台南市警察局大橋派出所","LANDMARKAD":"1001131","ADDRESS":"台南市永康區大橋二街146號","TEL":"06-2044835","COUNTYNAME":"台南市","TOWNNAME":"永康區","MARKTYPE":"991","Class":"1"},"geometry":{"x":171029.65170000028,"y":2546728.2169000003}},{"attributes":{"OBJECTID":11208,"LANDMARKID":"1001100000160","LANDMARKCO":"107","LANDMARKNA":"台南市消防局鹽行消防分隊","LANDMARKAD":"1001131","ADDRESS":"台南市永康區中正南路426號","TEL":"06-2536326","COUNTYNAME":"台南市","TOWNNAME":"永康區","MARKTYPE":"991","Class":"1"},"geometry":{"x":171109.64699999988,"y":2548347.0855999999}},{"attributes":{"OBJECTID":11209,"LANDMARKID":"1001100000161","LANDMARKCO":"107","LANDMARKNA":"台南市警察局復興派出所","LANDMARKAD":"1001131","ADDRESS":"臺南縣永康區中華路32號","TEL":"06-3115874","COUNTYNAME":"台南市","TOWNNAME":"永康區","MARKTYPE":"991","Class":"1"},"geometry":{"x":171591.33299999963,"y":2544560.8773999996}},{"attributes":{"OBJECTID":11210,"LANDMARKID":"1001100000162","LANDMARKCO":"107","LANDMARKNA":"台南市警察局鹽行派出所","LANDMARKAD":"1001131","ADDRESS":"台南市永康區鹽行里中正北路65號","TEL":"06-2531444","COUNTYNAME":"台南市","TOWNNAME":"永康區","MARKTYPE":"991","Class":"1"},"geometry":{"x":172066.97620000038,"y":2549102.4601000007}},{"attributes":{"OBJECTID":11211,"LANDMARKID":"1001100000163","LANDMARKCO":"107","LANDMARKNA":"台南市消防局第三消防大隊","LANDMARKAD":"1001131","ADDRESS":"台南市永康區正強街10號","TEL":"06-2016462","COUNTYNAME":"台南市","TOWNNAME":"永康區","MARKTYPE":"991","Class":"1"},"geometry":{"x":173396.63559999969,"y":2547168.8863999993}},{"attributes":{"OBJECTID":11212,"LANDMARKID":"1001100000134","LANDMARKCO":"106","LANDMARKNA":"台南市永康區戶政事務所","LANDMARKAD":"1001131","ADDRESS":"台南市永康區永康里大同街735號","TEL":"06-2326734","COUNTYNAME":"台南市","TOWNNAME":"永康區","MARKTYPE":"991","Class":"1"},"geometry":{"x":174468.21939999983,"y":2546808.2850000001}},{"attributes":{"OBJECTID":11213,"LANDMARKID":"1001100000036","LANDMARKCO":"103","LANDMARKNA":"台南市永康區市民代表會","LANDMARKAD":"1001131","ADDRESS":"台南市永康區中山南路655號","TEL":"06-2324255","COUNTYNAME":"台南市","TOWNNAME":"永康區","MARKTYPE":"991","Class":"1"},"geometry":{"x":173837.45079999976,"y":2547396.9662999995}},{"attributes":{"OBJECTID":11214,"LANDMARKID":"1001100000329","LANDMARKCO":"108","LANDMARKNA":"台南市永康區公所","LANDMARKAD":"1001131","ADDRESS":"台南市永康區中山南路655號","TEL":"06-2010308","COUNTYNAME":"台南市","TOWNNAME":"永康區","MARKTYPE":"991","Class":"1"},"geometry":{"x":173837.45079999976,"y":2547396.9662999995}},{"attributes":{"OBJECTID":11215,"LANDMARKID":"1001100000166","LANDMARKCO":"107","LANDMARKNA":"台南市警察局永康派出所","LANDMARKAD":"1001131","ADDRESS":"台南市永康區永康里中山北路2號","TEL":"06-2326081","COUNTYNAME":"台南市","TOWNNAME":"永康區","MARKTYPE":"991","Class":"1"},"geometry":{"x":173888.30740000028,"y":2547344.4741999991}},{"attributes":{"OBJECTID":11216,"LANDMARKID":"1001100000167","LANDMARKCO":"107","LANDMARKNA":"台南市消防局永康消防分隊","LANDMARKAD":"1001131","ADDRESS":"台南市永康區正強街10號","TEL":"06-2326951","COUNTYNAME":"台南市","TOWNNAME":"永康區","MARKTYPE":"991","Class":"1"},"geometry":{"x":173396.63559999969,"y":2547168.8863999993}},{"attributes":{"OBJECTID":11217,"LANDMARKID":"1001100000023","LANDMARKCO":"101","LANDMARKNA":"內政部國土測繪中心永康辦公室","LANDMARKAD":"1001131","ADDRESS":"台南市永康區永安路175號","TEL":"06-2434463","COUNTYNAME":"台南市","TOWNNAME":"永康區","MARKTYPE":"991","Class":"1"},"geometry":{"x":172553.65979999956,"y":2549524.1050000004}},{"attributes":{"OBJECTID":11218,"LANDMARKID":"1001100000101","LANDMARKCO":"105","LANDMARKNA":"台南市永康地政事務所","LANDMARKAD":"1001131","ADDRESS":"台南市永康區文化路55號","TEL":"06-2328565","COUNTYNAME":"台南市","TOWNNAME":"永康區","MARKTYPE":"991","Class":"1"},"geometry":{"x":174215.23440000042,"y":2546288.1045999993}},{"attributes":{"OBJECTID":11219,"LANDMARKID":"1001100000022","LANDMARKCO":"101","LANDMARKNA":"職業訓練局永康就業服務站","LANDMARKAD":"1001131","ADDRESS":"台南市永康區中山北路147號","TEL":"06-2038560","COUNTYNAME":"台南市","TOWNNAME":"永康區","MARKTYPE":"991","Class":"1"},"geometry":{"x":174176.20050000027,"y":2547515.0566000007}},{"attributes":{"OBJECTID":11220,"LANDMARKID":"1001100000037","LANDMARKCO":"103","LANDMARKNA":"台南市永康區衛生所","LANDMARKAD":"1001131","ADDRESS":"台南市永康區文化路51號","TEL":"06-2326507","COUNTYNAME":"台南市","TOWNNAME":"永康區","MARKTYPE":"991","Class":"1"},"geometry":{"x":174270.92379999999,"y":2546302.8568999991}},{"attributes":{"OBJECTID":11221,"LANDMARKID":"1001100000168","LANDMARKCO":"107","LANDMARKNA":"台南市警察局永康分局","LANDMARKAD":"1001131","ADDRESS":"台南市永康區龍潭里龍埔街137號","TEL":"06-2333324","COUNTYNAME":"台南市","TOWNNAME":"永康區","MARKTYPE":"991","Class":"1"},"geometry":{"x":174566.1043999996,"y":2548218.6849000007}},{"attributes":{"OBJECTID":11222,"LANDMARKID":"1001100000169","LANDMARKCO":"107","LANDMARKNA":"台南市警察局大灣派出所","LANDMARKAD":"1001131","ADDRESS":"台南市永康區東灣里民族路295號","TEL":"06-2712274","COUNTYNAME":"台南市","TOWNNAME":"永康區","MARKTYPE":"991","Class":"1"},"geometry":{"x":175071.61230000015,"y":2545093.9043000005}},{"attributes":{"OBJECTID":11223,"LANDMARKID":"1001100000170","LANDMARKCO":"107","LANDMARKNA":"台南市消防局大灣消防分隊","LANDMARKAD":"1001131","ADDRESS":"台南市永康區民族路297號","TEL":"06-2711995","COUNTYNAME":"台南市","TOWNNAME":"永康區","MARKTYPE":"991","Class":"1"},"geometry":{"x":175060.22310000006,"y":2545107.7774999999}},{"attributes":{"OBJECTID":11224,"LANDMARKID":"1001100000171","LANDMARKCO":"107","LANDMARKNA":"台南市警察局龍潭派出所","LANDMARKAD":"1001131","ADDRESS":"台南市永康區龍潭里龍埔街137號","TEL":"06-2327954","COUNTYNAME":"台南市","TOWNNAME":"永康區","MARKTYPE":"991","Class":"1"},"geometry":{"x":174566.1043999996,"y":2548218.6849000007}},{"attributes":{"OBJECTID":11225,"LANDMARKID":"1001100000659","LANDMARKCO":"205","LANDMARKNA":"大地化石礦石博物館","LANDMARKAD":"1001131","ADDRESS":"台南市永康區中山北路499巷24弄38號","TEL":"06-2328026","COUNTYNAME":"台南市","TOWNNAME":"永康區","MARKTYPE":"992","Class":"2"},"geometry":{"x":175312.78830000013,"y":2548324.8105999995}},{"attributes":{"OBJECTID":11226,"LANDMARKID":"1001100000668","LANDMARKCO":"207","LANDMARKNA":"台南佛光緣美術館","LANDMARKAD":"1001131","ADDRESS":"台南市永康區中華路425號11樓","TEL":" ","COUNTYNAME":"台南市","TOWNNAME":"永康區","MARKTYPE":"992","Class":"2"},"geometry":{"x":171333.68850000016,"y":2545631.2701999992}},{"attributes":{"OBJECTID":11227,"LANDMARKID":"1001100000644","LANDMARKCO":"204","LANDMARKNA":"台南市立圖書館永康分館","LANDMARKAD":"1001131","ADDRESS":"台南市永康區永大二路88號","TEL":" ","COUNTYNAME":"台南市","TOWNNAME":"永康區","MARKTYPE":"992","Class":"2"},"geometry":{"x":174088.38879999984,"y":2546560.8365000002}},{"attributes":{"OBJECTID":11228,"LANDMARKID":"1001100000473","LANDMARKCO":"203","LANDMARKNA":"縣立三村國小","LANDMARKAD":"1001131","ADDRESS":"台南市永康區鹽洲村鹽行路2號","TEL":"06-2531850","COUNTYNAME":"台南市","TOWNNAME":"永康區","MARKTYPE":"992","Class":"2"},"geometry":{"x":171815.63910000026,"y":2549170.5351999998}},{"attributes":{"OBJECTID":11229,"LANDMARKID":"1001100000474","LANDMARKCO":"203","LANDMARKNA":"縣立大橋國中","LANDMARKAD":"1001131","ADDRESS":"台南市永康區大橋二街273號","TEL":"06-3021793","COUNTYNAME":"台南市","TOWNNAME":"永康區","MARKTYPE":"992","Class":"2"},"geometry":{"x":171181.86160000041,"y":2546860.2685000002}},{"attributes":{"OBJECTID":11230,"LANDMARKID":"1001100000475","LANDMARKCO":"203","LANDMARKNA":"縣立永信國小","LANDMARKAD":"1001131","ADDRESS":"台南市永康區復華七街166號","TEL":"06-2320783","COUNTYNAME":"台南市","TOWNNAME":"永康區","MARKTYPE":"992","Class":"2"},"geometry":{"x":172945.63430000003,"y":2546090.5632000007}},{"attributes":{"OBJECTID":11231,"LANDMARKID":"1001100000340","LANDMARKCO":"201","LANDMARKNA":"私立台南女子技術學院第二校區","LANDMARKAD":"1001131","ADDRESS":" ","TEL":" ","COUNTYNAME":"台南市","TOWNNAME":"永康區","MARKTYPE":"992","Class":"2"},"geometry":{"x":171817.58229999989,"y":2548450.5702999998}},{"attributes":{"OBJECTID":11232,"LANDMARKID":"1001100000373","LANDMARKCO":"202","LANDMARKNA":"國立台南高工","LANDMARKAD":"1001131","ADDRESS":"台南市永康區中山南路193號","TEL":"06-2322131","COUNTYNAME":"台南市","TOWNNAME":"永康區","MARKTYPE":"992","Class":"2"},"geometry":{"x":171438.73350000009,"y":2546098.6385999992}},{"attributes":{"OBJECTID":11233,"LANDMARKID":"1001100000374","LANDMARKCO":"202","LANDMARKNA":"國立台南大學附中","LANDMARKAD":"1001131","ADDRESS":"台南市永康區中山南路948號","TEL":"06-2338501","COUNTYNAME":"台南市","TOWNNAME":"永康區","MARKTYPE":"992","Class":"2"},"geometry":{"x":173665.91189999972,"y":2547029.3026000001}},{"attributes":{"OBJECTID":11234,"LANDMARKID":"1001100000375","LANDMARKCO":"202","LANDMARKNA":"縣立大灣中學","LANDMARKAD":"1001131","ADDRESS":"台南市永康區文賢街68巷1號","TEL":"06-2714223","COUNTYNAME":"台南市","TOWNNAME":"永康區","MARKTYPE":"992","Class":"2"},"geometry":{"x":175441.69579999987,"y":2545168.9868000001}},{"attributes":{"OBJECTID":11235,"LANDMARKID":"1001100000376","LANDMARKCO":"202","LANDMARKNA":"縣立永仁高中","LANDMARKAD":"1001131","ADDRESS":"台南市永康區忠孝路74號","TEL":"06-3115605","COUNTYNAME":"台南市","TOWNNAME":"永康區","MARKTYPE":"992","Class":"2"},"geometry":{"x":172112.9617999997,"y":2544852.7138999999}},{"attributes":{"OBJECTID":11236,"LANDMARKID":"1001100000462","LANDMARKCO":"203","LANDMARKNA":"縣立永仁國中","LANDMARKAD":"1001131","ADDRESS":"台南市永康區忠孝路74號","TEL":"06-2346859","COUNTYNAME":"台南市","TOWNNAME":"永康區","MARKTYPE":"992","Class":"2"},"geometry":{"x":172112.9617999997,"y":2544852.7138999999}},{"attributes":{"OBJECTID":11237,"LANDMARKID":"1001100000463","LANDMARKCO":"203","LANDMARKNA":"縣立永康國中","LANDMARKAD":"1001131","ADDRESS":"台南市永康區中山路43號","TEL":"06-2324514","COUNTYNAME":"台南市","TOWNNAME":"永康區","MARKTYPE":"992","Class":"2"},"geometry":{"x":173797.60850000009,"y":2547590.6962000001}},{"attributes":{"OBJECTID":11238,"LANDMARKID":"1001100000464","LANDMARKCO":"203","LANDMARKNA":"縣立大橋國小","LANDMARKAD":"1001131","ADDRESS":"台南市永康區大橋三街173號","TEL":"06-2033001","COUNTYNAME":"台南市","TOWNNAME":"永康區","MARKTYPE":"992","Class":"2"},"geometry":{"x":170725.20669999998,"y":2546720.8663999997}},{"attributes":{"OBJECTID":11239,"LANDMARKID":"1001100000465","LANDMARKCO":"203","LANDMARKNA":"縣立五王國小","LANDMARKAD":"1001131","ADDRESS":"台南市永康區中華二路150號","TEL":"06-2336842","COUNTYNAME":"台南市","TOWNNAME":"永康區","MARKTYPE":"992","Class":"2"},"geometry":{"x":171783.44859999977,"y":2545483.2171999998}},{"attributes":{"OBJECTID":11240,"LANDMARKID":"1001100000466","LANDMARKCO":"203","LANDMARKNA":"縣立復興國小","LANDMARKAD":"1001131","ADDRESS":"台南市永康區華興街2號","TEL":"06-3111569","COUNTYNAME":"台南市","TOWNNAME":"永康區","MARKTYPE":"992","Class":"2"},"geometry":{"x":171980.48099999968,"y":2544587.5550999995}},{"attributes":{"OBJECTID":11241,"LANDMARKID":"1001100000467","LANDMARKCO":"203","LANDMARKNA":"縣立永康國小","LANDMARKAD":"1001131","ADDRESS":"台南市永康區永康村中山南路637號","TEL":"06-2324462","COUNTYNAME":"台南市","TOWNNAME":"永康區","MARKTYPE":"992","Class":"2"},"geometry":{"x":173762.05620000046,"y":2547378.0336000007}},{"attributes":{"OBJECTID":11242,"LANDMARKID":"1001100000468","LANDMARKCO":"203","LANDMARKNA":"縣立崑山國小","LANDMARKAD":"1001131","ADDRESS":"台南市永康區國光五街72號","TEL":"06-2715730","COUNTYNAME":"台南市","TOWNNAME":"永康區","MARKTYPE":"992","Class":"2"},"geometry":{"x":173964.48269999959,"y":2545158.7344000004}},{"attributes":{"OBJECTID":11243,"LANDMARKID":"1001100000469","LANDMARKCO":"203","LANDMARKNA":"縣立大灣國小","LANDMARKAD":"1001131","ADDRESS":"台南市永康區大灣路283號","TEL":"06-2719024","COUNTYNAME":"台南市","TOWNNAME":"永康區","MARKTYPE":"992","Class":"2"},"geometry":{"x":174894.83889999986,"y":2545071.1095000003}},{"attributes":{"OBJECTID":11244,"LANDMARKID":"1001100000470","LANDMARKCO":"203","LANDMARKNA":"縣立龍潭國小","LANDMARKAD":"1001131","ADDRESS":"台南市永康區龍潭街214號","TEL":"06-2324313","COUNTYNAME":"台南市","TOWNNAME":"永康區","MARKTYPE":"992","Class":"2"},"geometry":{"x":174906.12870000023,"y":2548276.6117000002}},{"attributes":{"OBJECTID":11245,"LANDMARKID":"1001100000471","LANDMARKCO":"203","LANDMARKNA":"縣立西勢國小","LANDMARKAD":"1001131","ADDRESS":"台南市永康區富強路一段278號","TEL":"06-2712841","COUNTYNAME":"台南市","TOWNNAME":"永康區","MARKTYPE":"992","Class":"2"},"geometry":{"x":175786.08889999986,"y":2546547.5007000007}},{"attributes":{"OBJECTID":11246,"LANDMARKID":"1001100000472","LANDMARKCO":"203","LANDMARKNA":"縣立勝利國小","LANDMARKAD":"1001131","ADDRESS":"台南市永康區勝學路111號","TEL":"06-3130011","COUNTYNAME":"台南市","TOWNNAME":"永康區","MARKTYPE":"992","Class":"2"},"geometry":{"x":171103.51549999975,"y":2544893.4053000007}},{"attributes":{"OBJECTID":11247,"LANDMARKID":"1001100000337","LANDMARKCO":"201","LANDMARKNA":"南台科技大學","LANDMARKAD":"1001131","ADDRESS":"台南市永康區南台街1號","TEL":"06-2533131","COUNTYNAME":"台南市","TOWNNAME":"永康區","MARKTYPE":"992","Class":"2"},"geometry":{"x":170617.7938000001,"y":2547100.7904000003}},{"attributes":{"OBJECTID":11248,"LANDMARKID":"1001100000338","LANDMARKCO":"201","LANDMARKNA":"台南科技大學","LANDMARKAD":"1001131","ADDRESS":"台南市永康區中正路529號","TEL":"06-2532106","COUNTYNAME":"台南市","TOWNNAME":"永康區","MARKTYPE":"992","Class":"2"},"geometry":{"x":171958.2248999998,"y":2548840.7859000005}},{"attributes":{"OBJECTID":11249,"LANDMARKID":"1001100000339","LANDMARKCO":"201","LANDMARKNA":"崑山科技大學","LANDMARKAD":"1001131","ADDRESS":"台南市永康區大灣路949號","TEL":"06-2727175","COUNTYNAME":"台南市","TOWNNAME":"永康區","MARKTYPE":"992","Class":"2"},"geometry":{"x":173411.7949000001,"y":2544297.3204999994}},{"attributes":{"OBJECTID":11250,"LANDMARKID":"1001100000801","LANDMARKCO":"308","LANDMARKNA":"國1-永康交流道-北上","LANDMARKAD":"1001131","ADDRESS":"台南市永康區","TEL":" ","COUNTYNAME":"台南市","TOWNNAME":"永康區","MARKTYPE":"993","Class":"308"},"geometry":{"x":173366.96109999996,"y":2549448.5756999999}},{"attributes":{"OBJECTID":11251,"LANDMARKID":"1001100000802","LANDMARKCO":"308","LANDMARKNA":"國1-永康交流道-南下","LANDMARKAD":"1001131","ADDRESS":"台南市永康區","TEL":" ","COUNTYNAME":"台南市","TOWNNAME":"永康區","MARKTYPE":"993","Class":"308"},"geometry":{"x":173219.82440000027,"y":2548884.6445000004}},{"attributes":{"OBJECTID":11252,"LANDMARKID":"1001100000697","LANDMARKCO":"303","LANDMARKNA":"勝利街旁停車場","LANDMARKAD":"1001131","ADDRESS":"台南市永康區","TEL":" ","COUNTYNAME":"台南市","TOWNNAME":"永康區","MARKTYPE":"993","Class":"303"},"geometry":{"x":171300.90639999975,"y":2544899.6296999995}},{"attributes":{"OBJECTID":11253,"LANDMARKID":"1001100000698","LANDMARKCO":"303","LANDMARKNA":"廣濟雷音寺旁停車場","LANDMARKAD":"1001131","ADDRESS":"台南市永康區","TEL":" ","COUNTYNAME":"台南市","TOWNNAME":"永康區","MARKTYPE":"993","Class":"303"},"geometry":{"x":171172.61760000046,"y":2545071.9567000009}},{"attributes":{"OBJECTID":11254,"LANDMARKID":"1001100000699","LANDMARKCO":"303","LANDMARKNA":"永康區公所中華立體停車場","LANDMARKAD":"1001131","ADDRESS":"台南市永康區","TEL":" ","COUNTYNAME":"台南市","TOWNNAME":"永康區","MARKTYPE":"993","Class":"303"},"geometry":{"x":171747.99880000018,"y":2544548.0903999992}},{"attributes":{"OBJECTID":11255,"LANDMARKID":"1001100000669","LANDMARKCO":"301","LANDMARKNA":"永康火車站","LANDMARKAD":"1001131","ADDRESS":"台南市永康區埔園里中山路459號","TEL":" ","COUNTYNAME":"台南市","TOWNNAME":"永康區","MARKTYPE":"993","Class":"301"},"geometry":{"x":173466.81780000031,"y":2548738.4858999997}},{"attributes":{"OBJECTID":11256,"LANDMARKID":"1001100000670","LANDMARKCO":"301","LANDMARKNA":"大橋車站","LANDMARKAD":"1001131","ADDRESS":"台南市永康區","TEL":" ","COUNTYNAME":"台南市","TOWNNAME":"永康區","MARKTYPE":"993","Class":"301"},"geometry":{"x":170496.75150000025,"y":2546649.1458999999}},{"attributes":{"OBJECTID":11257,"LANDMARKID":"1001100000882","LANDMARKCO":"402","LANDMARKNA":"中華電信-永康大灣特約服務中心","LANDMARKAD":"1001131","ADDRESS":"台南市永康區大灣路457號","TEL":"06-2051992","COUNTYNAME":"台南市","TOWNNAME":"永康區","MARKTYPE":"994","Class":"4"},"geometry":{"x":174666.7966,"y":2544712.6528999992}},{"attributes":{"OBJECTID":11258,"LANDMARKID":"1001100000883","LANDMARKCO":"402","LANDMARKNA":"中華電信-永康服務中心","LANDMARKAD":"1001131","ADDRESS":"台南市永康區中山南路515號","TEL":"(06)244-2290","COUNTYNAME":"台南市","TOWNNAME":"永康區","MARKTYPE":"994","Class":"4"},"geometry":{"x":173205.57160000037,"y":2547024.4102999996}},{"attributes":{"OBJECTID":11259,"LANDMARKID":"1001100000884","LANDMARKCO":"402","LANDMARKNA":"遠傳電信-永康中山門市","LANDMARKAD":"1001131","ADDRESS":"台南市永康區中山南路463號","TEL":" ","COUNTYNAME":"台南市","TOWNNAME":"永康區","MARKTYPE":"994","Class":"4"},"geometry":{"x":172941.76829999965,"y":2546874.5273000002}},{"attributes":{"OBJECTID":11260,"LANDMARKID":"1001100000885","LANDMARKCO":"402","LANDMARKNA":"威寶電信-永康農會特約服務中心","LANDMARKAD":"1001131","ADDRESS":"台南市永康區中山南路1058號","TEL":"06-2247281","COUNTYNAME":"台南市","TOWNNAME":"永康區","MARKTYPE":"994","Class":"4"},"geometry":{"x":173731.71129999962,"y":2547302.1794000007}},{"attributes":{"OBJECTID":11261,"LANDMARKID":"1001100000886","LANDMARKCO":"402","LANDMARKNA":"威寶電信-永康永大特約服務中心","LANDMARKAD":"1001131","ADDRESS":"台南市永康區大安街488號","TEL":"06-2054522","COUNTYNAME":"台南市","TOWNNAME":"永康區","MARKTYPE":"994","Class":"4"},"geometry":{"x":174578.47780000046,"y":2546006.1790999994}},{"attributes":{"OBJECTID":11262,"LANDMARKID":"1001100000887","LANDMARKCO":"402","LANDMARKNA":"威寶電信-永康大灣特約服務中心","LANDMARKAD":"1001131","ADDRESS":"台南市永康鄉大灣路980號","TEL":"06-2051207","COUNTYNAME":"台南市","TOWNNAME":"永康區","MARKTYPE":"994","Class":"4"},"geometry":{"x":173525.79959999956,"y":2544406.6609000005}},{"attributes":{"OBJECTID":11263,"LANDMARKID":"1001100000888","LANDMARKCO":"402","LANDMARKNA":"中華電信-永康中山特約服務中心","LANDMARKAD":"1001131","ADDRESS":"台南市永康區中山南路32-6號","TEL":"06-3038188","COUNTYNAME":"台南市","TOWNNAME":"永康區","MARKTYPE":"994","Class":"4"},"geometry":{"x":170862.14400000032,"y":2545877.8315999992}},{"attributes":{"OBJECTID":11264,"LANDMARKID":"1001100001363","LANDMARKCO":"603","LANDMARKNA":"卡儂旅館","LANDMARKAD":"1001131","ADDRESS":"台南市永康區永中街107號","TEL":"06-2010633","COUNTYNAME":"台南市","TOWNNAME":"永康區","MARKTYPE":"996","Class":"6"},"geometry":{"x":173986.65510000009,"y":2547312.0281000007}},{"attributes":{"OBJECTID":11265,"LANDMARKID":"1001100001364","LANDMARKCO":"603","LANDMARKNA":"皇家汽車旅館","LANDMARKAD":"1001131","ADDRESS":"台南市永康區埔園街156號","TEL":"06-2037666","COUNTYNAME":"台南市","TOWNNAME":"永康區","MARKTYPE":"996","Class":"6"},"geometry":{"x":173925.83800000045,"y":2548200.1410000008}},{"attributes":{"OBJECTID":11266,"LANDMARKID":"1001100001365","LANDMARKCO":"603","LANDMARKNA":"嘉賓旅社","LANDMARKAD":"1001131","ADDRESS":"台南市永康區復興路282巷8號","TEL":"06-3115563","COUNTYNAME":"台南市","TOWNNAME":"永康區","MARKTYPE":"996","Class":"6"},"geometry":{"x":172384.93580000009,"y":2544382.6615999993}},{"attributes":{"OBJECTID":11267,"LANDMARKID":"1001100001366","LANDMARKCO":"603","LANDMARKNA":"永康劍橋大飯店","LANDMARKAD":"1001131","ADDRESS":"台南市永康區新行街128號1-4樓","TEL":"06-2426666","COUNTYNAME":"台南市","TOWNNAME":"永康區","MARKTYPE":"996","Class":"6"},"geometry":{"x":172347.63030000031,"y":2549055.3462000005}},{"attributes":{"OBJECTID":11268,"LANDMARKID":"1001100001367","LANDMARKCO":"603","LANDMARKNA":"二王旅社","LANDMARKAD":"1001131","ADDRESS":"台南市永康區中山南路670號","TEL":"06-2329617","COUNTYNAME":"台南市","TOWNNAME":"永康區","MARKTYPE":"996","Class":"6"},"geometry":{"x":172455.67709999997,"y":2546699.9617999997}},{"attributes":{"OBJECTID":11269,"LANDMARKID":"1001100001362","LANDMARKCO":"602","LANDMARKNA":"遠百企業觀光旅館","LANDMARKAD":"1001131","ADDRESS":"台南市永康區中正南路533號","TEL":"06-254-2532","COUNTYNAME":"台南市","TOWNNAME":"永康區","MARKTYPE":"996","Class":"6"},"geometry":{"x":170979.28000000026,"y":2548319.6597000007}},{"attributes":{"OBJECTID":11270,"LANDMARKID":"1001100001357","LANDMARKCO":"511","LANDMARKNA":"復華夜市","LANDMARKAD":"1001131","ADDRESS":"台南市永康區","TEL":" ","COUNTYNAME":"台南市","TOWNNAME":"永康區","MARKTYPE":"995","Class":"5"},"geometry":{"x":172721.83540000021,"y":2545486.8978000004}},{"attributes":{"OBJECTID":11271,"LANDMARKID":"1001100001421","LANDMARKCO":"605","LANDMARKNA":"天后宮","LANDMARKAD":"1001131","ADDRESS":"台南市永康區","TEL":" ","COUNTYNAME":"台南市","TOWNNAME":"永康區","MARKTYPE":"996","Class":"6"},"geometry":{"x":171638.54889999982,"y":2548873.2531000003}},{"attributes":{"OBJECTID":11272,"LANDMARKID":"1001100001422","LANDMARKCO":"605","LANDMARKNA":"三老爺宮","LANDMARKAD":"1001131","ADDRESS":"台南市永康區","TEL":" ","COUNTYNAME":"台南市","TOWNNAME":"永康區","MARKTYPE":"996","Class":"6"},"geometry":{"x":173762.91399999987,"y":2549564.4243999999}},{"attributes":{"OBJECTID":11273,"LANDMARKID":"1001100001423","LANDMARKCO":"605","LANDMARKNA":"姑婆廟","LANDMARKAD":"1001131","ADDRESS":"台南市永康區","TEL":" ","COUNTYNAME":"台南市","TOWNNAME":"永康區","MARKTYPE":"996","Class":"6"},"geometry":{"x":170771.71640000027,"y":2547312.3092999998}},{"attributes":{"OBJECTID":11274,"LANDMARKID":"1001100001424","LANDMARKCO":"605","LANDMARKNA":"高帝宮","LANDMARKAD":"1001131","ADDRESS":"台南市永康區","TEL":" ","COUNTYNAME":"台南市","TOWNNAME":"永康區","MARKTYPE":"996","Class":"6"},"geometry":{"x":171707.63559999969,"y":2549121.0792999994}},{"attributes":{"OBJECTID":11275,"LANDMARKID":"1001100001425","LANDMARKCO":"605","LANDMARKNA":"長億城","LANDMARKAD":"1001131","ADDRESS":"台南市永康區","TEL":" ","COUNTYNAME":"台南市","TOWNNAME":"永康區","MARKTYPE":"996","Class":"6"},"geometry":{"x":170763.47609999962,"y":2546402.0635000002}},{"attributes":{"OBJECTID":11276,"LANDMARKID":"1001100001024","LANDMARKCO":"405","LANDMARKNA":"中油加油站-左鎮站(中油直營)","LANDMARKAD":"1001126","ADDRESS":"台南市左鎮區睦光村睦光5-2號","TEL":"06-5731946","COUNTYNAME":"台南市","TOWNNAME":"左鎮區","MARKTYPE":"994","Class":"4"},"geometry":{"x":190148.25370000023,"y":2551074.8308000006}},{"attributes":{"OBJECTID":11277,"LANDMARKID":"1001100001227","LANDMARKCO":"408","LANDMARKNA":"郵局-左鎮郵局","LANDMARKAD":"1001126","ADDRESS":"台南市左鎮區中正村15-3號","TEL":"(06)5731-035","COUNTYNAME":"台南市","TOWNNAME":"左鎮區","MARKTYPE":"994","Class":"4"},"geometry":{"x":189170.84949999955,"y":2550866.4146999996}},{"attributes":{"OBJECTID":11278,"LANDMARKID":"1001100001270","LANDMARKCO":"409","LANDMARKNA":"台南市左鎮區農會","LANDMARKAD":"1001126","ADDRESS":"台南市左鎮區中正村98之1號","TEL":"06-5731716-8","COUNTYNAME":"台南市","TOWNNAME":"左鎮區","MARKTYPE":"994","Class":"4"},"geometry":{"x":189270.08629999962,"y":2550874.8979000002}},{"attributes":{"OBJECTID":11279,"LANDMARKID":"1001100001271","LANDMARKCO":"409","LANDMARKNA":"左鎮農會特產中心","LANDMARKAD":"1001126","ADDRESS":" ","TEL":" ","COUNTYNAME":"台南市","TOWNNAME":"左鎮區","MARKTYPE":"994","Class":"4"},"geometry":{"x":187395.15579999983,"y":2551386.4921000004}},{"attributes":{"OBJECTID":11280,"LANDMARKID":"1001100000135","LANDMARKCO":"106","LANDMARKNA":"台南市左鎮區戶政事務所","LANDMARKAD":"1001126","ADDRESS":"台南市左鎮區左鎮村12鄰左鎮122號2樓","TEL":"06-5731201","COUNTYNAME":"台南市","TOWNNAME":"左鎮區","MARKTYPE":"991","Class":"1"},"geometry":{"x":189024.62609999999,"y":2550540.9209000003}},{"attributes":{"OBJECTID":11281,"LANDMARKID":"1001100000151","LANDMARKCO":"107","LANDMARKNA":"台南市警察局左鎮分駐所","LANDMARKAD":"1001126","ADDRESS":"台南市左鎮區左鎮村122號","TEL":"06-5731017","COUNTYNAME":"台南市","TOWNNAME":"左鎮區","MARKTYPE":"991","Class":"1"},"geometry":{"x":189052.99540000036,"y":2550561.0311999992}},{"attributes":{"OBJECTID":11282,"LANDMARKID":"1001100000331","LANDMARKCO":"108","LANDMARKNA":"台南市左鎮區公所","LANDMARKAD":"1001126","ADDRESS":"台南市左鎮區中正村171之4號","TEL":"06-5731611","COUNTYNAME":"台南市","TOWNNAME":"左鎮區","MARKTYPE":"991","Class":"1"},"geometry":{"x":189226.06010000035,"y":2550790.5745000001}},{"attributes":{"OBJECTID":11283,"LANDMARKID":"1001100000035","LANDMARKCO":"103","LANDMARKNA":"台南市左鎮區鄉民代表會","LANDMARKAD":"1001126","ADDRESS":"台南市左鎮區左鎮村171號之4","TEL":"06-5732569","COUNTYNAME":"台南市","TOWNNAME":"左鎮區","MARKTYPE":"991","Class":"1"},"geometry":{"x":189449.42339999974,"y":2550700.3245000001}},{"attributes":{"OBJECTID":11284,"LANDMARKID":"1001100000152","LANDMARKCO":"107","LANDMARKNA":"台南市警察局岡林派出所","LANDMARKAD":"1001126","ADDRESS":"台南市左鎮區岡林村37號","TEL":"06-5730032","COUNTYNAME":"台南市","TOWNNAME":"左鎮區","MARKTYPE":"991","Class":"1"},"geometry":{"x":190003.54349999968,"y":2545440.3438000008}},{"attributes":{"OBJECTID":11285,"LANDMARKID":"1001100000660","LANDMARKCO":"205","LANDMARKNA":"左鎮拔馬平埔文物館","LANDMARKAD":"1001126","ADDRESS":"台南市左鎮區左鎮村128號","TEL":"06-5731076","COUNTYNAME":"台南市","TOWNNAME":"左鎮區","MARKTYPE":"992","Class":"2"},"geometry":{"x":189085.84360000025,"y":2550609.0401000008}},{"attributes":{"OBJECTID":11286,"LANDMARKID":"1001100000628","LANDMARKCO":"204","LANDMARKNA":"台南市立圖書館左鎮分館","LANDMARKAD":"1001126","ADDRESS":"台南市左鎮區中正村176之19號","TEL":" ","COUNTYNAME":"台南市","TOWNNAME":"左鎮區","MARKTYPE":"992","Class":"2"},"geometry":{"x":189277.65579999983,"y":2550822.0986000001}},{"attributes":{"OBJECTID":11287,"LANDMARKID":"1001100000476","LANDMARKCO":"203","LANDMARKNA":"縣立左鎮國中","LANDMARKAD":"1001126","ADDRESS":"台南市左鎮區中正村170號","TEL":"06-5731015","COUNTYNAME":"台南市","TOWNNAME":"左鎮區","MARKTYPE":"992","Class":"2"},"geometry":{"x":189670.62320000026,"y":2550650.0677000005}},{"attributes":{"OBJECTID":11288,"LANDMARKID":"1001100000477","LANDMARKCO":"203","LANDMARKNA":"縣立澄山國小","LANDMARKAD":"1001126","ADDRESS":"台南市左鎮區","TEL":" ","COUNTYNAME":"台南市","TOWNNAME":"左鎮區","MARKTYPE":"992","Class":"2"},"geometry":{"x":186979.25999999978,"y":2547360.7825000007}},{"attributes":{"OBJECTID":11289,"LANDMARKID":"1001100000478","LANDMARKCO":"203","LANDMARKNA":"縣立光榮國小","LANDMARKAD":"1001126","ADDRESS":"台南市左鎮區榮和村61之1號","TEL":"06-5731658","COUNTYNAME":"台南市","TOWNNAME":"左鎮區","MARKTYPE":"992","Class":"2"},"geometry":{"x":187474.70040000044,"y":2551560.3933000006}},{"attributes":{"OBJECTID":11290,"LANDMARKID":"1001100000479","LANDMARKCO":"203","LANDMARKNA":"縣立左鎮國小","LANDMARKAD":"1001126","ADDRESS":"台南市左鎮區中正村7號","TEL":"06-5731019","COUNTYNAME":"台南市","TOWNNAME":"左鎮區","MARKTYPE":"992","Class":"2"},"geometry":{"x":188901.99780000001,"y":2550560.4166000001}},{"attributes":{"OBJECTID":11291,"LANDMARKID":"1001100000480","LANDMARKCO":"203","LANDMARKNA":"縣立岡林國小草山分校","LANDMARKAD":"1001126","ADDRESS":"台南市左鎮區","TEL":" ","COUNTYNAME":"台南市","TOWNNAME":"左鎮區","MARKTYPE":"992","Class":"2"},"geometry":{"x":189973.23379999958,"y":2545210.2276000008}},{"attributes":{"OBJECTID":11292,"LANDMARKID":"1001100000481","LANDMARKCO":"203","LANDMARKNA":"縣立岡林國小","LANDMARKAD":"1001126","ADDRESS":"台南市左鎮區","TEL":" ","COUNTYNAME":"台南市","TOWNNAME":"左鎮區","MARKTYPE":"992","Class":"2"},"geometry":{"x":192018.45770000014,"y":2542690.4571000002}},{"attributes":{"OBJECTID":11293,"LANDMARKID":"1001100001426","LANDMARKCO":"605","LANDMARKNA":"噶瑪噶居寺","LANDMARKAD":"1001126","ADDRESS":"台南市左鎮區","TEL":" ","COUNTYNAME":"台南市","TOWNNAME":"左鎮區","MARKTYPE":"996","Class":"6"},"geometry":{"x":187406.87909999955,"y":2551256.3706999999}},{"attributes":{"OBJECTID":11294,"LANDMARKID":"1001100001022","LANDMARKCO":"405","LANDMARKNA":"中油加油站-關廟服務區北上站(中油直營)","LANDMARKAD":"1001130","ADDRESS":"台南市龍崎區楠坑村楠坑12-1號","TEL":"06-5552485","COUNTYNAME":"台南市","TOWNNAME":"龍崎區","MARKTYPE":"994","Class":"4"},"geometry":{"x":183571.49689999968,"y":2536578.7409000006}},{"attributes":{"OBJECTID":11295,"LANDMARKID":"1001100001023","LANDMARKCO":"405","LANDMARKNA":"中油加油站-龍崎站(中油直營)","LANDMARKAD":"1001130","ADDRESS":"台南市龍崎區崎頂村新市子102-1號","TEL":"06-5941164","COUNTYNAME":"台南市","TOWNNAME":"龍崎區","MARKTYPE":"994","Class":"4"},"geometry":{"x":184847.97420000006,"y":2540378.3362000007}},{"attributes":{"OBJECTID":11296,"LANDMARKID":"1001100001226","LANDMARKCO":"408","LANDMARKNA":"郵局-龍崎郵局","LANDMARKAD":"1001130","ADDRESS":"台南市龍崎區崎頂村新市仔186號","TEL":"(06)5941-365","COUNTYNAME":"台南市","TOWNNAME":"龍崎區","MARKTYPE":"994","Class":"4"},"geometry":{"x":184394.3546000002,"y":2540535.1868999992}},{"attributes":{"OBJECTID":11297,"LANDMARKID":"1001100000154","LANDMARKCO":"107","LANDMARKNA":"台南市警察局龍崎分駐所","LANDMARKAD":"1001130","ADDRESS":"台南市龍崎區崎頂村新市子37號","TEL":"06-5941010","COUNTYNAME":"台南市","TOWNNAME":"龍崎區","MARKTYPE":"991","Class":"1"},"geometry":{"x":184281.85300000012,"y":2540599.3524999991}},{"attributes":{"OBJECTID":11298,"LANDMARKID":"1001100000330","LANDMARKCO":"108","LANDMARKNA":"台南市龍崎區公所","LANDMARKAD":"1001130","ADDRESS":"台南市龍崎區崎頂村新市子103號","TEL":"06-5941326","COUNTYNAME":"台南市","TOWNNAME":"龍崎區","MARKTYPE":"991","Class":"1"},"geometry":{"x":184873.54279999994,"y":2540339.4504000004}},{"attributes":{"OBJECTID":11299,"LANDMARKID":"1001100000033","LANDMARKCO":"103","LANDMARKNA":"台南市龍崎區鄉民代表會","LANDMARKAD":"1001130","ADDRESS":"台南市龍崎區崎頂村新市子103號","TEL":"06-5941124","COUNTYNAME":"台南市","TOWNNAME":"龍崎區","MARKTYPE":"991","Class":"1"},"geometry":{"x":184873.54279999994,"y":2540339.4504000004}},{"attributes":{"OBJECTID":11300,"LANDMARKID":"1001100000034","LANDMARKCO":"103","LANDMARKNA":"台南市龍崎區衛生所","LANDMARKAD":"1001130","ADDRESS":"台南市龍崎區崎頂村新市子158號","TEL":"06-5941397","COUNTYNAME":"台南市","TOWNNAME":"龍崎區","MARKTYPE":"991","Class":"1"},"geometry":{"x":184556.06830000039,"y":2540572.3048}},{"attributes":{"OBJECTID":11301,"LANDMARKID":"1001100000153","LANDMARKCO":"107","LANDMARKNA":"台南市警察局龍船派出所","LANDMARKAD":"1001130","ADDRESS":"台南市龍崎區石槽村米市園1號","TEL":"06-5941099","COUNTYNAME":"台南市","TOWNNAME":"龍崎區","MARKTYPE":"991","Class":"1"},"geometry":{"x":187669.29870000016,"y":2538689.2390000001}},{"attributes":{"OBJECTID":11302,"LANDMARKID":"1001100000643","LANDMARKCO":"204","LANDMARKNA":"台南市立圖書館龍崎分館","LANDMARKAD":"1001130","ADDRESS":"台南市龍崎區崎頂村38號","TEL":" ","COUNTYNAME":"台南市","TOWNNAME":"龍崎區","MARKTYPE":"992","Class":"2"},"geometry":{"x":184310.54640000034,"y":2540608.8291999996}},{"attributes":{"OBJECTID":11303,"LANDMARKID":"1001100000482","LANDMARKCO":"203","LANDMARKNA":"縣立龍崎國小","LANDMARKAD":"1001130","ADDRESS":"台南市龍崎區崎頂村新市子41號","TEL":"06-5941204","COUNTYNAME":"台南市","TOWNNAME":"龍崎區","MARKTYPE":"992","Class":"2"},"geometry":{"x":184308.02400000021,"y":2540491.4667000007}},{"attributes":{"OBJECTID":11304,"LANDMARKID":"1001100000483","LANDMARKCO":"203","LANDMARKNA":"縣立龍崎國小龍船分校","LANDMARKAD":"1001130","ADDRESS":"台南市龍崎區龍船村苦苓湖10號","TEL":"06-5947083","COUNTYNAME":"台南市","TOWNNAME":"龍崎區","MARKTYPE":"992","Class":"2"},"geometry":{"x":189967.47840000037,"y":2538250.3166000005}},{"attributes":{"OBJECTID":11305,"LANDMARKID":"1001100000484","LANDMARKCO":"203","LANDMARKNA":"縣立龍崎國小分校","LANDMARKAD":"1001130","ADDRESS":"台南市龍崎區","TEL":" ","COUNTYNAME":"台南市","TOWNNAME":"龍崎區","MARKTYPE":"992","Class":"2"},"geometry":{"x":185064.82890000008,"y":2536390.1194000002}},{"attributes":{"OBJECTID":11306,"LANDMARKID":"1001100000485","LANDMARKCO":"203","LANDMARKNA":"縣立土崎國小","LANDMARKAD":"1001130","ADDRESS":"台南市龍崎區","TEL":" ","COUNTYNAME":"台南市","TOWNNAME":"龍崎區","MARKTYPE":"992","Class":"2"},"geometry":{"x":186974.48539999966,"y":2543000.8372000009}},{"attributes":{"OBJECTID":11307,"LANDMARKID":"1001100000486","LANDMARKCO":"203","LANDMARKNA":"縣立龍崎國小大坪分校","LANDMARKAD":"1001130","ADDRESS":"台南市龍崎區","TEL":" ","COUNTYNAME":"台南市","TOWNNAME":"龍崎區","MARKTYPE":"992","Class":"2"},"geometry":{"x":187476.95449999999,"y":2536360.6660999991}},{"attributes":{"OBJECTID":11308,"LANDMARKID":"1001100000800","LANDMARKCO":"308","LANDMARKNA":"關廟服務區","LANDMARKAD":"1001130","ADDRESS":" ","TEL":" ","COUNTYNAME":"台南市","TOWNNAME":"龍崎區","MARKTYPE":"993","Class":"308"},"geometry":{"x":183447.36560000014,"y":2536861.7913000006}},{"attributes":{"OBJECTID":11309,"LANDMARKID":"1001100000700","LANDMARKCO":"303","LANDMARKNA":"虎形山公園停車場","LANDMARKAD":"1001130","ADDRESS":"台南市龍崎區","TEL":" ","COUNTYNAME":"台南市","TOWNNAME":"龍崎區","MARKTYPE":"993","Class":"303"},"geometry":{"x":184304.06149999984,"y":2540553.0883000009}},{"attributes":{"OBJECTID":11310,"LANDMARKID":"1001100001010","LANDMARKCO":"405","LANDMARKNA":"中油加油站-台南高鐵站","LANDMARKAD":"1001128","ADDRESS":"台南市歸仁區武東村中正南路二段135號","TEL":"06-2782899","COUNTYNAME":"台南市","TOWNNAME":"歸仁區","MARKTYPE":"994","Class":"4"},"geometry":{"x":175559.29129999969,"y":2535671.0464999992}},{"attributes":{"OBJECTID":11311,"LANDMARKID":"1001100001011","LANDMARKCO":"405","LANDMARKNA":"統一速邁樂加油站-台南高鐵站(中油)","LANDMARKAD":"1001128","ADDRESS":"台南市歸仁區六甲村成功路3段261號","TEL":" ","COUNTYNAME":"台南市","TOWNNAME":"歸仁區","MARKTYPE":"994","Class":"4"},"geometry":{"x":175987.23429999966,"y":2538962.2617000006}},{"attributes":{"OBJECTID":11312,"LANDMARKID":"1001100001012","LANDMARKCO":"405","LANDMARKNA":"台糖加油站-六甲站(中油)","LANDMARKAD":"1001128","ADDRESS":"台南市歸仁區六甲村中正南路一段2200號","TEL":" ","COUNTYNAME":"台南市","TOWNNAME":"歸仁區","MARKTYPE":"994","Class":"4"},"geometry":{"x":175900.18460000027,"y":2538582.2517000008}},{"attributes":{"OBJECTID":11313,"LANDMARKID":"1001100001013","LANDMARKCO":"405","LANDMARKNA":"中油加油站-億歸站","LANDMARKAD":"1001128","ADDRESS":"台南市歸仁區大德路652號","TEL":"06-3303208","COUNTYNAME":"台南市","TOWNNAME":"歸仁區","MARKTYPE":"994","Class":"4"},"geometry":{"x":176964.2993999999,"y":2541570.7956000008}},{"attributes":{"OBJECTID":11314,"LANDMARKID":"1001100001014","LANDMARKCO":"405","LANDMARKNA":"中油加油站-歸仁高鐵站(中油直營)","LANDMARKAD":"1001128","ADDRESS":"台南市歸仁區中正南路二段11號","TEL":"06-3032093","COUNTYNAME":"台南市","TOWNNAME":"歸仁區","MARKTYPE":"994","Class":"4"},"geometry":{"x":175917.77469999995,"y":2536596.3818999995}},{"attributes":{"OBJECTID":11315,"LANDMARKID":"1001100001015","LANDMARKCO":"405","LANDMARKNA":"中油加油站-大旺站","LANDMARKAD":"1001128","ADDRESS":"台南市歸仁區南興村中山路3段596號","TEL":"06-2396156","COUNTYNAME":"台南市","TOWNNAME":"歸仁區","MARKTYPE":"994","Class":"4"},"geometry":{"x":175565.60589999985,"y":2541058.9517999999}},{"attributes":{"OBJECTID":11316,"LANDMARKID":"1001100001016","LANDMARKCO":"405","LANDMARKNA":"中油加油站-統佳站","LANDMARKAD":"1001128","ADDRESS":"台南市歸仁區八甲村中正北路一段261號","TEL":"06-3308206","COUNTYNAME":"台南市","TOWNNAME":"歸仁區","MARKTYPE":"994","Class":"4"},"geometry":{"x":177757.36569999997,"y":2541737.4846000001}},{"attributes":{"OBJECTID":11317,"LANDMARKID":"1001100001017","LANDMARKCO":"405","LANDMARKNA":"中油加油站-大正站","LANDMARKAD":"1001128","ADDRESS":"台南市歸仁區武東村大武路3段55號","TEL":"06-3032006","COUNTYNAME":"台南市","TOWNNAME":"歸仁區","MARKTYPE":"994","Class":"4"},"geometry":{"x":175355.16220000014,"y":2535717.0381000005}},{"attributes":{"OBJECTID":11318,"LANDMARKID":"1001100001018","LANDMARKCO":"405","LANDMARKNA":"中油加油站-大佳站","LANDMARKAD":"1001128","ADDRESS":"台南市歸仁區後市村民族北街2號","TEL":"06-2399630","COUNTYNAME":"台南市","TOWNNAME":"歸仁區","MARKTYPE":"994","Class":"4"},"geometry":{"x":177440.13310000021,"y":2540843.3515000008}},{"attributes":{"OBJECTID":11319,"LANDMARKID":"1001100001019","LANDMARKCO":"405","LANDMARKNA":"中油加油站-歸仁站(中油直營)","LANDMARKAD":"1001128","ADDRESS":"台南市歸仁區中山路三段201號","TEL":"06-2301003","COUNTYNAME":"台南市","TOWNNAME":"歸仁區","MARKTYPE":"994","Class":"4"},"geometry":{"x":176466.97780000046,"y":2540900.1697000004}},{"attributes":{"OBJECTID":11320,"LANDMARKID":"1001100001020","LANDMARKCO":"405","LANDMARKNA":"中油加油站-慶昇站","LANDMARKAD":"1001128","ADDRESS":"台南市歸仁區新厝村中正南路一段387號","TEL":"06-3309925","COUNTYNAME":"台南市","TOWNNAME":"歸仁區","MARKTYPE":"994","Class":"4"},"geometry":{"x":177095.24810000043,"y":2540125.0839000009}},{"attributes":{"OBJECTID":11321,"LANDMARKID":"1001100001021","LANDMARKCO":"405","LANDMARKNA":"統一速邁樂加油站-歸仁加油站(中油)","LANDMARKAD":"1001128","ADDRESS":"台南市歸仁區歸仁村中山路一段172號","TEL":" ","COUNTYNAME":"台南市","TOWNNAME":"歸仁區","MARKTYPE":"994","Class":"4"},"geometry":{"x":179022.98759999964,"y":2540519.1001999993}},{"attributes":{"OBJECTID":11322,"LANDMARKID":"1001100000889","LANDMARKCO":"402","LANDMARKNA":"亞太行動寬頻電信-歸仁中山二加盟服務中心","LANDMARKAD":"1001128","ADDRESS":"台南市歸仁區後市村中山路二段160號","TEL":"06-2305566","COUNTYNAME":"台南市","TOWNNAME":"歸仁區","MARKTYPE":"994","Class":"4"},"geometry":{"x":177185.62330000009,"y":2540846.4996000007}},{"attributes":{"OBJECTID":11323,"LANDMARKID":"1001100001224","LANDMARKCO":"408","LANDMARKNA":"郵局-歸仁郵局","LANDMARKAD":"1001128","ADDRESS":"台南市歸仁區中山路1段637號","TEL":"(06)2307-454","COUNTYNAME":"台南市","TOWNNAME":"歸仁區","MARKTYPE":"994","Class":"4"},"geometry":{"x":177663.66540000029,"y":2540736.0664000008}},{"attributes":{"OBJECTID":11324,"LANDMARKID":"1001100001225","LANDMARKCO":"408","LANDMARKNA":"郵局-歸仁南保郵局","LANDMARKAD":"1001128","ADDRESS":"台南市歸仁區文化街3段34號","TEL":"(06)2395-210","COUNTYNAME":"台南市","TOWNNAME":"歸仁區","MARKTYPE":"994","Class":"4"},"geometry":{"x":176917.15529999975,"y":2541251.5775000006}},{"attributes":{"OBJECTID":11325,"LANDMARKID":"1001100001272","LANDMARKCO":"409","LANDMARKNA":"歸仁區農會","LANDMARKAD":"1001128","ADDRESS":"台南市歸仁區 中正北路一段171號","TEL":"06-2302101","COUNTYNAME":"台南市","TOWNNAME":"歸仁區","MARKTYPE":"994","Class":"4"},"geometry":{"x":177753.55649999995,"y":2541473.4769000001}},{"attributes":{"OBJECTID":11326,"LANDMARKID":"1001100000912","LANDMARKCO":"404","LANDMARKNA":"台灣省自來水歸仁服務所","LANDMARKAD":"1001128","ADDRESS":"台南市歸仁區中山路二段6號","TEL":" ","COUNTYNAME":"台南市","TOWNNAME":"歸仁區","MARKTYPE":"994","Class":"4"},"geometry":{"x":177595.96250000037,"y":2540829.0106000006}},{"attributes":{"OBJECTID":11327,"LANDMARKID":"1001100001158","LANDMARKCO":"406","LANDMARKNA":"體育公園","LANDMARKAD":"1001128","ADDRESS":"台南市歸仁區","TEL":" ","COUNTYNAME":"台南市","TOWNNAME":"歸仁區","MARKTYPE":"994","Class":"4"},"geometry":{"x":177880.33669999987,"y":2540307.5171000008}},{"attributes":{"OBJECTID":11328,"LANDMARKID":"1001100000905","LANDMARKCO":"403","LANDMARKNA":"電力公司","LANDMARKAD":"1001128","ADDRESS":" ","TEL":" ","COUNTYNAME":"台南市","TOWNNAME":"歸仁區","MARKTYPE":"994","Class":"4"},"geometry":{"x":177817.89719999954,"y":2541686.1393999998}},{"attributes":{"OBJECTID":11329,"LANDMARKID":"1001100001159","LANDMARKCO":"406","LANDMARKNA":"體育公園","LANDMARKAD":"1001128","ADDRESS":" ","TEL":" ","COUNTYNAME":"台南市","TOWNNAME":"歸仁區","MARKTYPE":"994","Class":"4"},"geometry":{"x":177912.11539999954,"y":2540440.7125000004}},{"attributes":{"OBJECTID":11330,"LANDMARKID":"1001100001180","LANDMARKCO":"407","LANDMARKNA":"小北百貨","LANDMARKAD":"1001128","ADDRESS":"台南市歸仁區中山路二段1號","TEL":"(06)3386751??","COUNTYNAME":"台南市","TOWNNAME":"歸仁區","MARKTYPE":"994","Class":"4"},"geometry":{"x":177575.29250000045,"y":2540771.2559999991}},{"attributes":{"OBJECTID":11331,"LANDMARKID":"1001100001128","LANDMARKCO":"405","LANDMARKNA":"福懋加油站-歸仁站站(台塑)","LANDMARKAD":"1001128","ADDRESS":"台南市歸仁區看東村中山路一段117號","TEL":"06-3306883","COUNTYNAME":"台南市","TOWNNAME":"歸仁區","MARKTYPE":"994","Class":"4"},"geometry":{"x":179072.25050000008,"y":2540463.3358999994}},{"attributes":{"OBJECTID":11332,"LANDMARKID":"1001100000024","LANDMARKCO":"101","LANDMARKNA":"內政部建築研究所防火實驗室","LANDMARKAD":"1001128","ADDRESS":"台南市歸仁區六甲村中正南路一段2502號","TEL":"06-2392755","COUNTYNAME":"台南市","TOWNNAME":"歸仁區","MARKTYPE":"991","Class":"1"},"geometry":{"x":175780.7237999998,"y":2537427.6895000003}},{"attributes":{"OBJECTID":11333,"LANDMARKID":"1001100000155","LANDMARKCO":"107","LANDMARKNA":"台南市警察局大潭派出所","LANDMARKAD":"1001128","ADDRESS":"台南市歸仁區大潭村長榮路1段295號","TEL":"06-2781450","COUNTYNAME":"台南市","TOWNNAME":"歸仁區","MARKTYPE":"991","Class":"1"},"geometry":{"x":175269.06850000005,"y":2534527.0576000009}},{"attributes":{"OBJECTID":11334,"LANDMARKID":"1001100000156","LANDMARKCO":"107","LANDMARKNA":"台南市警察局歸南派出所","LANDMARKAD":"1001128","ADDRESS":"臺南縣歸仁區六甲村中正南路一段1209號","TEL":"06-2307887","COUNTYNAME":"台南市","TOWNNAME":"歸仁區","MARKTYPE":"991","Class":"1"},"geometry":{"x":175957.54000000004,"y":2538590.1342999991}},{"attributes":{"OBJECTID":11335,"LANDMARKID":"1001100000157","LANDMARKCO":"107","LANDMARKNA":"台南市警察局歸仁分局","LANDMARKAD":"1001128","ADDRESS":"台南市歸仁區六甲村中正南路一段1209號","TEL":"06-2304964","COUNTYNAME":"台南市","TOWNNAME":"歸仁區","MARKTYPE":"991","Class":"1"},"geometry":{"x":175957.54000000004,"y":2538590.1342999991}},{"attributes":{"OBJECTID":11336,"LANDMARKID":"1001100000108","LANDMARKCO":"105","LANDMARKNA":"台南市歸仁地政事務所","LANDMARKAD":"1001128","ADDRESS":"台南市歸仁區六甲村中正南路一段1203號","TEL":"06-3308377","COUNTYNAME":"台南市","TOWNNAME":"歸仁區","MARKTYPE":"991","Class":"1"},"geometry":{"x":175973.42530000024,"y":2538697.2049000002}},{"attributes":{"OBJECTID":11337,"LANDMARKID":"1001100000306","LANDMARKCO":"108","LANDMARKNA":"台南市歸仁區公所","LANDMARKAD":"1001128","ADDRESS":"台南市歸仁區中山路二段2號","TEL":"06-2304538","COUNTYNAME":"台南市","TOWNNAME":"歸仁區","MARKTYPE":"991","Class":"1"},"geometry":{"x":177603.19749999978,"y":2540830.1401000004}},{"attributes":{"OBJECTID":11338,"LANDMARKID":"1001100000028","LANDMARKCO":"103","LANDMARKNA":"台南市歸仁區鄉民代表會","LANDMARKAD":"1001128","ADDRESS":"台南市歸仁區中山路二段2號","TEL":"06-2304780","COUNTYNAME":"台南市","TOWNNAME":"歸仁區","MARKTYPE":"991","Class":"1"},"geometry":{"x":177603.19749999978,"y":2540830.1401000004}},{"attributes":{"OBJECTID":11339,"LANDMARKID":"1001100000304","LANDMARKCO":"107","LANDMARKNA":"台南市警察局媽廟派出所","LANDMARKAD":"1001128","ADDRESS":"台南市歸仁區媽廟村中正北路三段100號","TEL":"06-2309731","COUNTYNAME":"台南市","TOWNNAME":"歸仁區","MARKTYPE":"991","Class":"1"},"geometry":{"x":177617.5532999998,"y":2543753.1461999994}},{"attributes":{"OBJECTID":11340,"LANDMARKID":"1001100000305","LANDMARKCO":"107","LANDMARKNA":"台南市警察局歸仁派出所","LANDMARKAD":"1001128","ADDRESS":"台南市歸仁區歸仁村忠孝北路160號","TEL":"06-2304028","COUNTYNAME":"台南市","TOWNNAME":"歸仁區","MARKTYPE":"991","Class":"1"},"geometry":{"x":178202.52740000002,"y":2541129.2656999994}},{"attributes":{"OBJECTID":11341,"LANDMARKID":"1001100000025","LANDMARKCO":"101","LANDMARKNA":"台灣台南看守所","LANDMARKAD":"1001128","ADDRESS":"台南市歸仁區武東村2號","TEL":"06-2781764","COUNTYNAME":"台南市","TOWNNAME":"歸仁區","MARKTYPE":"991","Class":"1"},"geometry":{"x":175164.96509999968,"y":2536680.4893999994}},{"attributes":{"OBJECTID":11342,"LANDMARKID":"1001100000026","LANDMARKCO":"101","LANDMARKNA":"台灣台南監獄","LANDMARKAD":"1001128","ADDRESS":"台南市歸仁區武東村10鄰1號","TEL":"06-2781116","COUNTYNAME":"台南市","TOWNNAME":"歸仁區","MARKTYPE":"991","Class":"1"},"geometry":{"x":175216.41069999989,"y":2536590.7445999999}},{"attributes":{"OBJECTID":11343,"LANDMARKID":"1001100000629","LANDMARKCO":"204","LANDMARKNA":"台南市立圖書館歸仁分館","LANDMARKAD":"1001128","ADDRESS":"台南市歸仁區天德路127號","TEL":" ","COUNTYNAME":"台南市","TOWNNAME":"歸仁區","MARKTYPE":"992","Class":"2"},"geometry":{"x":177962.75860000029,"y":2541350.1157000009}},{"attributes":{"OBJECTID":11344,"LANDMARKID":"1001100000667","LANDMARKCO":"206","LANDMARKNA":"南區文化中心","LANDMARKAD":"1001128","ADDRESS":" ","TEL":" ","COUNTYNAME":"台南市","TOWNNAME":"歸仁區","MARKTYPE":"992","Class":"2"},"geometry":{"x":178073.23039999977,"y":2540510.1670999993}},{"attributes":{"OBJECTID":11345,"LANDMARKID":"1001100000604","LANDMARKCO":"203","LANDMARKNA":"縣立歸南國小","LANDMARKAD":"1001128","ADDRESS":" ","TEL":" ","COUNTYNAME":"台南市","TOWNNAME":"歸仁區","MARKTYPE":"992","Class":"2"},"geometry":{"x":177046.86029999983,"y":2540491.2207999993}},{"attributes":{"OBJECTID":11346,"LANDMARKID":"1001100000605","LANDMARKCO":"203","LANDMARKNA":"歸南國小","LANDMARKAD":"1001128","ADDRESS":" ","TEL":" ","COUNTYNAME":"台南市","TOWNNAME":"歸仁區","MARKTYPE":"992","Class":"2"},"geometry":{"x":176923.66139999963,"y":2540430.6305999998}},{"attributes":{"OBJECTID":11347,"LANDMARKID":"1001100000348","LANDMARKCO":"201","LANDMARKNA":"成太航太所","LANDMARKAD":"1001128","ADDRESS":" ","TEL":" ","COUNTYNAME":"台南市","TOWNNAME":"歸仁區","MARKTYPE":"992","Class":"2"},"geometry":{"x":175782.87370000035,"y":2537620.7002000008}},{"attributes":{"OBJECTID":11348,"LANDMARKID":"1001100000350","LANDMARKCO":"202","LANDMARKNA":"國立新豐高中","LANDMARKAD":"1001128","ADDRESS":"台南市歸仁區中正北路一段148號","TEL":"06-2304082","COUNTYNAME":"台南市","TOWNNAME":"歸仁區","MARKTYPE":"992","Class":"2"},"geometry":{"x":177771.84159999993,"y":2541356.5716999993}},{"attributes":{"OBJECTID":11349,"LANDMARKID":"1001100000598","LANDMARKCO":"203","LANDMARKNA":"縣立歸仁國中","LANDMARKAD":"1001128","ADDRESS":"台南市歸仁區後市村文化街二段2號","TEL":"06-2301873","COUNTYNAME":"台南市","TOWNNAME":"歸仁區","MARKTYPE":"992","Class":"2"},"geometry":{"x":177597.4534,"y":2541126.1054999996}},{"attributes":{"OBJECTID":11350,"LANDMARKID":"1001100000599","LANDMARKCO":"203","LANDMARKNA":"縣立大潭國小","LANDMARKAD":"1001128","ADDRESS":"台南市歸仁區中正南路三段97號","TEL":"06-2781953","COUNTYNAME":"台南市","TOWNNAME":"歸仁區","MARKTYPE":"992","Class":"2"},"geometry":{"x":175292.67489999998,"y":2534959.1596000008}},{"attributes":{"OBJECTID":11351,"LANDMARKID":"1001100000600","LANDMARKCO":"203","LANDMARKNA":"縣立文化國小","LANDMARKAD":"1001128","ADDRESS":"台南市歸仁區文化街二段136號","TEL":"06-3301666","COUNTYNAME":"台南市","TOWNNAME":"歸仁區","MARKTYPE":"992","Class":"2"},"geometry":{"x":177101.21920000017,"y":2541258.0876000002}},{"attributes":{"OBJECTID":11352,"LANDMARKID":"1001100000601","LANDMARKCO":"203","LANDMARKNA":"縣立保西國小","LANDMARKAD":"1001128","ADDRESS":"台南市歸仁區媽廟村中正北路三段60號","TEL":"06-2309683","COUNTYNAME":"台南市","TOWNNAME":"歸仁區","MARKTYPE":"992","Class":"2"},"geometry":{"x":177572.41949999984,"y":2543593.9287999999}},{"attributes":{"OBJECTID":11353,"LANDMARKID":"1001100000602","LANDMARKCO":"203","LANDMARKNA":"縣立歸仁國小","LANDMARKAD":"1001128","ADDRESS":"台南市歸仁區文化街一段100號","TEL":"06-2304740","COUNTYNAME":"台南市","TOWNNAME":"歸仁區","MARKTYPE":"992","Class":"2"},"geometry":{"x":177870.2762000002,"y":2541141.0436000004}},{"attributes":{"OBJECTID":11354,"LANDMARKID":"1001100000603","LANDMARKCO":"203","LANDMARKNA":"縣立紅瓦厝國小","LANDMARKAD":"1001128","ADDRESS":"台南市歸仁區信義南路100號","TEL":"06-2309012","COUNTYNAME":"台南市","TOWNNAME":"歸仁區","MARKTYPE":"992","Class":"2"},"geometry":{"x":178077.03000000026,"y":2540247.6875}},{"attributes":{"OBJECTID":11355,"LANDMARKID":"1001100000349","LANDMARKCO":"201","LANDMARKNA":"長榮大學","LANDMARKAD":"1001128","ADDRESS":"台南市歸仁區長榮路一段396號","TEL":"06-2785123","COUNTYNAME":"台南市","TOWNNAME":"歸仁區","MARKTYPE":"992","Class":"2"},"geometry":{"x":175469.13659999985,"y":2534451.6348000001}},{"attributes":{"OBJECTID":11356,"LANDMARKID":"1001100000743","LANDMARKCO":"308","LANDMARKNA":"台86-大潭交流道-西行","LANDMARKAD":"1001128","ADDRESS":" ","TEL":" ","COUNTYNAME":"台南市","TOWNNAME":"歸仁區","MARKTYPE":"993","Class":"308"},"geometry":{"x":175708.50439999998,"y":2536960.6353999991}},{"attributes":{"OBJECTID":11357,"LANDMARKID":"1001100000744","LANDMARKCO":"308","LANDMARKNA":"台86-大潭交流道-東行","LANDMARKAD":"1001128","ADDRESS":" ","TEL":" ","COUNTYNAME":"台南市","TOWNNAME":"歸仁區","MARKTYPE":"993","Class":"308"},"geometry":{"x":176269.44120000023,"y":2537003.0521000009}},{"attributes":{"OBJECTID":11358,"LANDMARKID":"1001100000745","LANDMARKCO":"308","LANDMARKNA":"台86-歸仁交流道-西行","LANDMARKAD":"1001128","ADDRESS":" ","TEL":" ","COUNTYNAME":"台南市","TOWNNAME":"歸仁區","MARKTYPE":"993","Class":"308"},"geometry":{"x":179012.03589999955,"y":2539832.4718999993}},{"attributes":{"OBJECTID":11359,"LANDMARKID":"1001100000739","LANDMARKCO":"307","LANDMARKNA":"高鐵台南站-出口1","LANDMARKAD":"1001128","ADDRESS":" ","TEL":" ","COUNTYNAME":"台南市","TOWNNAME":"歸仁區","MARKTYPE":"993","Class":"307"},"geometry":{"x":176749.28809999954,"y":2536091.7677999996}},{"attributes":{"OBJECTID":11360,"LANDMARKID":"1001100000740","LANDMARKCO":"307","LANDMARKNA":"高鐵台南站-出口2","LANDMARKAD":"1001128","ADDRESS":" ","TEL":" ","COUNTYNAME":"台南市","TOWNNAME":"歸仁區","MARKTYPE":"993","Class":"307"},"geometry":{"x":176728.43020000029,"y":2536057.3936999999}},{"attributes":{"OBJECTID":11361,"LANDMARKID":"1001100000741","LANDMARKCO":"307","LANDMARKNA":"高鐵台南站-出口3","LANDMARKAD":"1001128","ADDRESS":" ","TEL":" ","COUNTYNAME":"台南市","TOWNNAME":"歸仁區","MARKTYPE":"993","Class":"307"},"geometry":{"x":176687.9609000003,"y":2536147.0554000009}},{"attributes":{"OBJECTID":11362,"LANDMARKID":"1001100000742","LANDMARKCO":"307","LANDMARKNA":"高鐵台南站-出口4","LANDMARKAD":"1001128","ADDRESS":" ","TEL":" ","COUNTYNAME":"台南市","TOWNNAME":"歸仁區","MARKTYPE":"993","Class":"307"},"geometry":{"x":176728.9123999998,"y":2536136.0219999999}},{"attributes":{"OBJECTID":11363,"LANDMARKID":"1001100000841","LANDMARKCO":"402","LANDMARKNA":"中華電信-歸仁服務中心","LANDMARKAD":"1001128","ADDRESS":"台南市歸仁區文化街二段15號","TEL":"(06)2306044","COUNTYNAME":"台南市","TOWNNAME":"歸仁區","MARKTYPE":"994","Class":"4"},"geometry":{"x":177601.90720000025,"y":2541094.1269000005}},{"attributes":{"OBJECTID":11364,"LANDMARKID":"1001100000842","LANDMARKCO":"402","LANDMARKNA":"中華電信-歸仁中山特約服務中心","LANDMARKAD":"1001128","ADDRESS":"歸仁區中山路二段255號","TEL":"06-3300766","COUNTYNAME":"台南市","TOWNNAME":"歸仁區","MARKTYPE":"994","Class":"4"},"geometry":{"x":177017.66999999993,"y":2540838.0722000003}},{"attributes":{"OBJECTID":11365,"LANDMARKID":"1001100000843","LANDMARKCO":"402","LANDMARKNA":"威寶電信-歸仁中山特約服務中心","LANDMARKAD":"1001128","ADDRESS":"台南市歸仁區中山路二段32號","TEL":"06-3300500","COUNTYNAME":"台南市","TOWNNAME":"歸仁區","MARKTYPE":"994","Class":"4"},"geometry":{"x":177510.81960000005,"y":2540804.6955999993}},{"attributes":{"OBJECTID":11366,"LANDMARKID":"1001100001399","LANDMARKCO":"603","LANDMARKNA":"香賓旅社","LANDMARKAD":"1001128","ADDRESS":"台南市歸仁區新厝村中正一街16巷7號","TEL":"06-2300466","COUNTYNAME":"台南市","TOWNNAME":"歸仁區","MARKTYPE":"996","Class":"6"},"geometry":{"x":177675.96789999958,"y":2540673.1254999992}},{"attributes":{"OBJECTID":11367,"LANDMARKID":"1001100001437","LANDMARKCO":"605","LANDMARKNA":"代天府","LANDMARKAD":"1001128","ADDRESS":"台南市歸仁區","TEL":" ","COUNTYNAME":"台南市","TOWNNAME":"歸仁區","MARKTYPE":"996","Class":"6"},"geometry":{"x":176149.60170000046,"y":2540212.3016999997}},{"attributes":{"OBJECTID":11368,"LANDMARKID":"1001100001438","LANDMARKCO":"605","LANDMARKNA":"六甲北極殿","LANDMARKAD":"1001128","ADDRESS":"台南市歸仁區","TEL":" ","COUNTYNAME":"台南市","TOWNNAME":"歸仁區","MARKTYPE":"996","Class":"6"},"geometry":{"x":175889.91970000044,"y":2539374.6107999999}},{"attributes":{"OBJECTID":11369,"LANDMARKID":"1001100001129","LANDMARKCO":"405","LANDMARKNA":"中油加油站-下湖站","LANDMARKAD":"1001129","ADDRESS":"台南市關廟區下湖村下湖一之三十七號","TEL":"06-5967333","COUNTYNAME":"台南市","TOWNNAME":"關廟區","MARKTYPE":"994","Class":"4"},"geometry":{"x":180158.80769999977,"y":2542854.9351000004}},{"attributes":{"OBJECTID":11370,"LANDMARKID":"1001100001130","LANDMARKCO":"405","LANDMARKNA":"中油加油站-亞柏關廟站","LANDMARKAD":"1001129","ADDRESS":"台南市關廟區關廟村中山路2段235號","TEL":"06-5961358","COUNTYNAME":"台南市","TOWNNAME":"關廟區","MARKTYPE":"994","Class":"4"},"geometry":{"x":180172.88750000019,"y":2540164.1379000004}},{"attributes":{"OBJECTID":11371,"LANDMARKID":"1001100001131","LANDMARKCO":"405","LANDMARKNA":"中油加油站-中華太子關廟站","LANDMARKAD":"1001129","ADDRESS":"台南市關廟區南雄路一段589號","TEL":"06-5951308","COUNTYNAME":"台南市","TOWNNAME":"關廟區","MARKTYPE":"994","Class":"4"},"geometry":{"x":181535.46810000017,"y":2538580.8723000009}},{"attributes":{"OBJECTID":11372,"LANDMARKID":"1001100001132","LANDMARKCO":"405","LANDMARKNA":"中油加油站-瑞泉加油站(中油直營)","LANDMARKAD":"1001129","ADDRESS":"台南市關廟區埤頭村埤頭１００之３０號","TEL":" ","COUNTYNAME":"台南市","TOWNNAME":"關廟區","MARKTYPE":"994","Class":"4"},"geometry":{"x":179126.89180000033,"y":2544558.1568}},{"attributes":{"OBJECTID":11373,"LANDMARKID":"1001100001133","LANDMARKCO":"405","LANDMARKNA":"中油加油站-上曜站","LANDMARKAD":"1001129","ADDRESS":"台南市關廟區下湖村下湖一之三十八號","TEL":"06-5967333","COUNTYNAME":"台南市","TOWNNAME":"關廟區","MARKTYPE":"994","Class":"4"},"geometry":{"x":180162.49880000018,"y":2542890.9250000007}},{"attributes":{"OBJECTID":11374,"LANDMARKID":"1001100001134","LANDMARKCO":"405","LANDMARKNA":"中油加油站-大關廟站","LANDMARKAD":"1001129","ADDRESS":"台南市關廟區下湖村下湖1-32號","TEL":"06-5966074","COUNTYNAME":"台南市","TOWNNAME":"關廟區","MARKTYPE":"994","Class":"4"},"geometry":{"x":180271.91540000029,"y":2541646.2478}},{"attributes":{"OBJECTID":11375,"LANDMARKID":"1001100001135","LANDMARKCO":"405","LANDMARKNA":"中油加油站-關廟站(中油直營)","LANDMARKAD":"1001129","ADDRESS":"台南市關廟區中山路二段166號","TEL":"06-5952131","COUNTYNAME":"台南市","TOWNNAME":"關廟區","MARKTYPE":"994","Class":"4"},"geometry":{"x":180828.31659999955,"y":2540064.2171999998}},{"attributes":{"OBJECTID":11376,"LANDMARKID":"1001100000839","LANDMARKCO":"401","LANDMARKNA":"恆生醫院","LANDMARKAD":"1001129","ADDRESS":"台南市關廟區中正路1021號","TEL":"06-5959436","COUNTYNAME":"台南市","TOWNNAME":"關廟區","MARKTYPE":"994","Class":"4"},"geometry":{"x":180943.10659999959,"y":2540330.7376000006}},{"attributes":{"OBJECTID":11377,"LANDMARKID":"1001100000840","LANDMARKCO":"401","LANDMARKNA":"銘生醫院","LANDMARKAD":"1001129","ADDRESS":"台南市關廟區北花村中正路435號","TEL":"06-5957456","COUNTYNAME":"台南市","TOWNNAME":"關廟區","MARKTYPE":"994","Class":"4"},"geometry":{"x":182766.81309999991,"y":2540785.2193999998}},{"attributes":{"OBJECTID":11378,"LANDMARKID":"1001100001289","LANDMARKCO":"409","LANDMARKNA":"關廟區農會","LANDMARKAD":"1001129","ADDRESS":"台南市關廟區中正路963號","TEL":"06-5952626","COUNTYNAME":"台南市","TOWNNAME":"關廟區","MARKTYPE":"994","Class":"4"},"geometry":{"x":181183.41540000029,"y":2540262.5346000008}},{"attributes":{"OBJECTID":11379,"LANDMARKID":"1001100001189","LANDMARKCO":"408","LANDMARKNA":"郵局-關廟郵局","LANDMARKAD":"1001129","ADDRESS":"台南市關廟區中央路222號","TEL":"(06)5950-850","COUNTYNAME":"台南市","TOWNNAME":"關廟區","MARKTYPE":"994","Class":"4"},"geometry":{"x":181198.76840000041,"y":2540096.6110999994}},{"attributes":{"OBJECTID":11380,"LANDMARKID":"1001100001190","LANDMARKCO":"408","LANDMARKNA":"郵局-關廟文衡路郵局","LANDMARKAD":"1001129","ADDRESS":"台南市關廟區文衡路20號","TEL":"(06)5950-858","COUNTYNAME":"台南市","TOWNNAME":"關廟區","MARKTYPE":"994","Class":"4"},"geometry":{"x":180900.75100000016,"y":2540100.5533000007}},{"attributes":{"OBJECTID":11381,"LANDMARKID":"1001100000109","LANDMARKCO":"106","LANDMARKNA":"台南市龍崎區戶政事務所","LANDMARKAD":"1001129","ADDRESS":"台南市龍崎區崎頂村新市子201號2樓","TEL":"06-5941182","COUNTYNAME":"台南市","TOWNNAME":"關廟區","MARKTYPE":"991","Class":"1"},"geometry":{"x":184392.37390000001,"y":2540594.8344999999}},{"attributes":{"OBJECTID":11382,"LANDMARKID":"1001100000300","LANDMARKCO":"107","LANDMARKNA":"台南市警察局保東派出所","LANDMARKAD":"1001129","ADDRESS":"台南市關廟區埤頭村埤頭62號","TEL":"06-5955799","COUNTYNAME":"台南市","TOWNNAME":"關廟區","MARKTYPE":"991","Class":"1"},"geometry":{"x":179107.36099999957,"y":2544013.0820000004}},{"attributes":{"OBJECTID":11383,"LANDMARKID":"1001100000301","LANDMARKCO":"107","LANDMARKNA":"台南市消防局關廟消防分隊","LANDMARKAD":"1001129","ADDRESS":"台南市關廟區中山路二段185號","TEL":"06-5952895","COUNTYNAME":"台南市","TOWNNAME":"關廟區","MARKTYPE":"991","Class":"1"},"geometry":{"x":180696.25409999955,"y":2540056.9254999999}},{"attributes":{"OBJECTID":11384,"LANDMARKID":"1001100000302","LANDMARKCO":"107","LANDMARKNA":"台南市警察局關廟分駐所","LANDMARKAD":"1001129","ADDRESS":"台南市關廟區關廟村文衡路19號","TEL":"06-5952013","COUNTYNAME":"台南市","TOWNNAME":"關廟區","MARKTYPE":"991","Class":"1"},"geometry":{"x":180874.90060000028,"y":2540111.4345999993}},{"attributes":{"OBJECTID":11385,"LANDMARKID":"1001100000110","LANDMARKCO":"106","LANDMARKNA":"台南市關廟區戶政事務所","LANDMARKAD":"1001129","ADDRESS":"台南市關廟區關廟村4鄰文衡路19號","TEL":"06-5952062","COUNTYNAME":"台南市","TOWNNAME":"關廟區","MARKTYPE":"991","Class":"1"},"geometry":{"x":180874.90060000028,"y":2540111.4345999993}},{"attributes":{"OBJECTID":11386,"LANDMARKID":"1001100000029","LANDMARKCO":"103","LANDMARKNA":"台南市關廟區衛生所","LANDMARKAD":"1001129","ADDRESS":"台南市關廟區山西村中正路1000號","TEL":"06-5952395","COUNTYNAME":"台南市","TOWNNAME":"關廟區","MARKTYPE":"991","Class":"1"},"geometry":{"x":181012.62820000015,"y":2540348.0598000009}},{"attributes":{"OBJECTID":11387,"LANDMARKID":"1001100000307","LANDMARKCO":"108","LANDMARKNA":"台南市關廟區公所","LANDMARKAD":"1001129","ADDRESS":"台南市關廟區香洋村中正路998號","TEL":"06-5950002","COUNTYNAME":"台南市","TOWNNAME":"關廟區","MARKTYPE":"991","Class":"1"},"geometry":{"x":181060.63239999954,"y":2540347.2796}},{"attributes":{"OBJECTID":11388,"LANDMARKID":"1001100000030","LANDMARKCO":"103","LANDMARKNA":"台南市關廟區鄉民代表會","LANDMARKAD":"1001129","ADDRESS":"台南市關廟區香洋村忠孝街142號","TEL":"06-5952003","COUNTYNAME":"台南市","TOWNNAME":"關廟區","MARKTYPE":"991","Class":"1"},"geometry":{"x":181073.84009999968,"y":2540388.0335000008}},{"attributes":{"OBJECTID":11389,"LANDMARKID":"1001100000303","LANDMARKCO":"107","LANDMARKNA":"台南市警察局南雄派出所","LANDMARKAD":"1001129","ADDRESS":"台南市關廟區田中村2號","TEL":"06-5551907","COUNTYNAME":"台南市","TOWNNAME":"關廟區","MARKTYPE":"991","Class":"1"},"geometry":{"x":184074.86450000014,"y":2534000.8169999998}},{"attributes":{"OBJECTID":11390,"LANDMARKID":"1001100000627","LANDMARKCO":"204","LANDMARKNA":"台南市立圖書館關廟分館","LANDMARKAD":"1001129","ADDRESS":"台南市關廟區文化街1號","TEL":" ","COUNTYNAME":"台南市","TOWNNAME":"關廟區","MARKTYPE":"992","Class":"2"},"geometry":{"x":180691.88659999985,"y":2540046.0196000002}},{"attributes":{"OBJECTID":11391,"LANDMARKID":"1001100000606","LANDMARKCO":"203","LANDMARKNA":"縣立龍崎國中","LANDMARKAD":"1001129","ADDRESS":"台南市龍崎區新市子258號","TEL":"06-5941475","COUNTYNAME":"台南市","TOWNNAME":"關廟區","MARKTYPE":"992","Class":"2"},"geometry":{"x":184446.28019999992,"y":2540947.0635000002}},{"attributes":{"OBJECTID":11392,"LANDMARKID":"1001100000607","LANDMARKCO":"203","LANDMARKNA":"縣立關廟國中","LANDMARKAD":"1001129","ADDRESS":"台南市關廟區中山路二段172號","TEL":"06-5951181","COUNTYNAME":"台南市","TOWNNAME":"關廟區","MARKTYPE":"992","Class":"2"},"geometry":{"x":180740.09970000014,"y":2540134.1272}},{"attributes":{"OBJECTID":11393,"LANDMARKID":"1001100000608","LANDMARKCO":"203","LANDMARKNA":"縣立關廟國小","LANDMARKAD":"1001129","ADDRESS":"台南市關廟區山西村文衡路121號","TEL":"06-5952209","COUNTYNAME":"台南市","TOWNNAME":"關廟區","MARKTYPE":"992","Class":"2"},"geometry":{"x":180882.34979999997,"y":2540454.4559000004}},{"attributes":{"OBJECTID":11394,"LANDMARKID":"1001100000609","LANDMARKCO":"203","LANDMARKNA":"縣立五甲國小","LANDMARKAD":"1001129","ADDRESS":"台南市關廟區和平路246號","TEL":"06-5952155","COUNTYNAME":"台南市","TOWNNAME":"關廟區","MARKTYPE":"992","Class":"2"},"geometry":{"x":181720.57770000026,"y":2539851.3890000004}},{"attributes":{"OBJECTID":11395,"LANDMARKID":"1001100000610","LANDMARKCO":"203","LANDMARKNA":"縣立保東國小","LANDMARKAD":"1001129","ADDRESS":"台南市關廟區埤頭村15號","TEL":"06-5952344","COUNTYNAME":"台南市","TOWNNAME":"關廟區","MARKTYPE":"992","Class":"2"},"geometry":{"x":179169.62060000002,"y":2543820.3822000008}},{"attributes":{"OBJECTID":11396,"LANDMARKID":"1001100000611","LANDMARKCO":"203","LANDMARKNA":"縣立深坑國小","LANDMARKAD":"1001129","ADDRESS":"台南市關廟區深坑村66號","TEL":"06-5952409","COUNTYNAME":"台南市","TOWNNAME":"關廟區","MARKTYPE":"992","Class":"2"},"geometry":{"x":181602.50679999962,"y":2537781.1926000006}},{"attributes":{"OBJECTID":11397,"LANDMARKID":"1001100000612","LANDMARKCO":"203","LANDMARKNA":"縣立文和國小","LANDMARKAD":"1001129","ADDRESS":"台南市關廟區布袋村169號","TEL":"06-5551937","COUNTYNAME":"台南市","TOWNNAME":"關廟區","MARKTYPE":"992","Class":"2"},"geometry":{"x":183095.8638000004,"y":2535460.2541000005}},{"attributes":{"OBJECTID":11398,"LANDMARKID":"1001100000613","LANDMARKCO":"203","LANDMARKNA":"縣立崇和國小","LANDMARKAD":"1001129","ADDRESS":"台南市關廟區田中村72號","TEL":"06-5551040","COUNTYNAME":"台南市","TOWNNAME":"關廟區","MARKTYPE":"992","Class":"2"},"geometry":{"x":183544.1361999996,"y":2533861.0024999995}},{"attributes":{"OBJECTID":11399,"LANDMARKID":"1001100000614","LANDMARKCO":"203","LANDMARKNA":"縣立新光國小","LANDMARKAD":"1001129","ADDRESS":"台南市關廟區新光村2號","TEL":"06-5952419","COUNTYNAME":"台南市","TOWNNAME":"關廟區","MARKTYPE":"992","Class":"2"},"geometry":{"x":183681.96779999975,"y":2541280.2105999999}},{"attributes":{"OBJECTID":11400,"LANDMARKID":"1001100000746","LANDMARKCO":"308","LANDMARKNA":"國3-關廟交流道-北上","LANDMARKAD":"1001129","ADDRESS":"台南市關廟區","TEL":" ","COUNTYNAME":"台南市","TOWNNAME":"關廟區","MARKTYPE":"993","Class":"308"},"geometry":{"x":180917.97630000021,"y":2541755.1682999991}}]}