{"displayFieldName":"COUNTYNAME","fieldAliases":{"OBJECTID":"OBJECTID","LANDMARKID":"LANDMARKID","LANDMARKCO":"LANDMARKCO","LANDMARKNA":"LANDMARKNA","LANDMARKAD":"LANDMARKAD","ADDRESS":"ADDRESS","TEL":"TEL","COUNTYNAME":"COUNTYNAME","TOWNNAME":"TOWNNAME","MARKTYPE":"MARKTYPE","Class":"Class"},"geometryType":"esriGeometryPoint","spatialReference":{"wkid":4326},"fields":[{"name":"OBJECTID","type":"esriFieldTypeOID","alias":"OBJECTID"},{"name":"LANDMARKID","type":"esriFieldTypeString","alias":"LANDMARKID","length":15},{"name":"LANDMARKCO","type":"esriFieldTypeString","alias":"LANDMARKCO","length":15},{"name":"LANDMARKNA","type":"esriFieldTypeString","alias":"LANDMARKNA","length":50},{"name":"LANDMARKAD","type":"esriFieldTypeString","alias":"LANDMARKAD","length":15},{"name":"ADDRESS","type":"esriFieldTypeString","alias":"ADDRESS","length":56},{"name":"TEL","type":"esriFieldTypeString","alias":"TEL","length":36},{"name":"COUNTYNAME","type":"esriFieldTypeString","alias":"COUNTYNAME","length":15},{"name":"TOWNNAME","type":"esriFieldTypeString","alias":"TOWNNAME","length":13},{"name":"MARKTYPE","type":"esriFieldTypeString","alias":"MARKTYPE","length":12},{"name":"Class","type":"esriFieldTypeString","alias":"Class","length":5}],"features":[{"attributes":{"OBJECTID":6801,"LANDMARKID":"6300000000355","LANDMARKCO":"107","LANDMARKNA":"台北市政府警察局文林派出所","LANDMARKAD":"6300011","ADDRESS":"台北市士林區仁勇里大東路80號","TEL":"02-28812211","COUNTYNAME":"台北市","TOWNNAME":"士林區","MARKTYPE":"991","Class":"1"},"geometry":{"x":121.52581212691004,"y":25.090828843289184}},{"attributes":{"OBJECTID":6802,"LANDMARKID":"6300000000356","LANDMARKCO":"107","LANDMARKNA":"台北市政府警察局平等駐在所","LANDMARKAD":"6300011","ADDRESS":"台北市士林區平菁街86號","TEL":"02-28610411","COUNTYNAME":"台北市","TOWNNAME":"士林區","MARKTYPE":"991","Class":"1"},"geometry":{"x":121.57646461623848,"y":25.131263646177022}},{"attributes":{"OBJECTID":6803,"LANDMARKID":"6300000000357","LANDMARKCO":"107","LANDMARKNA":"台北市政府警察局士林交通分隊","LANDMARKAD":"6300011","ADDRESS":"台北市士林區福港街151號6樓","TEL":"02-28881995","COUNTYNAME":"台北市","TOWNNAME":"士林區","MARKTYPE":"991","Class":"1"},"geometry":{"x":121.51806148485809,"y":25.087414429114631}},{"attributes":{"OBJECTID":6804,"LANDMARKID":"6300000000358","LANDMARKCO":"107","LANDMARKNA":"台北市消防局士林消防中隊","LANDMARKAD":"6300011","ADDRESS":"台北市士林區中山北路五段376號","TEL":"02-28812629","COUNTYNAME":"台北市","TOWNNAME":"士林區","MARKTYPE":"991","Class":"1"},"geometry":{"x":121.52788405405012,"y":25.090094960123107}},{"attributes":{"OBJECTID":6805,"LANDMARKID":"6300000000359","LANDMARKCO":"107","LANDMARKNA":"台北市消防局山仔后消防分隊","LANDMARKAD":"6300011","ADDRESS":"台北市士林區仰德大道四段161號","TEL":"02-28616431","COUNTYNAME":"台北市","TOWNNAME":"士林區","MARKTYPE":"991","Class":"1"},"geometry":{"x":121.54571255517975,"y":25.133897643516949}},{"attributes":{"OBJECTID":6806,"LANDMARKID":"6300000000360","LANDMARKCO":"107","LANDMARKNA":"台北市消防局天母消防分隊","LANDMARKAD":"6300011","ADDRESS":"台北市士林區中山北路七段194號","TEL":"02-28714111","COUNTYNAME":"台北市","TOWNNAME":"士林區","MARKTYPE":"991","Class":"1"},"geometry":{"x":121.53292441175167,"y":25.125271237048874}},{"attributes":{"OBJECTID":6807,"LANDMARKID":"6300000000361","LANDMARKCO":"107","LANDMARKNA":"台北市消防局福安消防分隊","LANDMARKAD":"6300011","ADDRESS":"台北市士林區延平北路七段112號","TEL":"02-28108454","COUNTYNAME":"台北市","TOWNNAME":"士林區","MARKTYPE":"991","Class":"1"},"geometry":{"x":121.49448915279724,"y":25.097301762346461}},{"attributes":{"OBJECTID":6808,"LANDMARKID":"6300000000362","LANDMARKCO":"107","LANDMARKNA":"台北市消防局社子消防分隊","LANDMARKAD":"6300011","ADDRESS":"台北市士林區延平北路五段2之1號","TEL":"02-28118221","COUNTYNAME":"台北市","TOWNNAME":"士林區","MARKTYPE":"991","Class":"1"},"geometry":{"x":121.51140554721536,"y":25.079137819262101}},{"attributes":{"OBJECTID":6809,"LANDMARKID":"6300000000363","LANDMARKCO":"107","LANDMARKNA":"台北市消防局劍潭消防分隊","LANDMARKAD":"6300011","ADDRESS":"台北市士林區中山北路五段376號","TEL":"02-28813019","COUNTYNAME":"台北市","TOWNNAME":"士林區","MARKTYPE":"991","Class":"1"},"geometry":{"x":121.52788405405012,"y":25.090094960123107}},{"attributes":{"OBJECTID":6810,"LANDMARKID":"6300000000364","LANDMARKCO":"107","LANDMARKNA":"台北市消防局雙溪消防分隊","LANDMARKAD":"6300011","ADDRESS":"台北市士林區至善路二段41號","TEL":"02-88611296","COUNTYNAME":"台北市","TOWNNAME":"士林區","MARKTYPE":"991","Class":"1"},"geometry":{"x":121.54470309941912,"y":25.097626135652455}},{"attributes":{"OBJECTID":6811,"LANDMARKID":"6300000000160","LANDMARKCO":"103","LANDMARKNA":"台北市士林區健康服務中心","LANDMARKAD":"6300011","ADDRESS":"台北市士林區中正路439號2樓","TEL":"02-28813039","COUNTYNAME":"台北市","TOWNNAME":"士林區","MARKTYPE":"991","Class":"1"},"geometry":{"x":121.51970663764152,"y":25.0928452388493}},{"attributes":{"OBJECTID":6812,"LANDMARKID":"6300000000366","LANDMARKCO":"108","LANDMARKNA":"台北市士林區公所","LANDMARKAD":"6300011","ADDRESS":"台北市士林區中正路439號8樓","TEL":"02-28826200","COUNTYNAME":"台北市","TOWNNAME":"士林區","MARKTYPE":"991","Class":"1"},"geometry":{"x":121.51970663764152,"y":25.0928452388493}},{"attributes":{"OBJECTID":6813,"LANDMARKID":"6300000000158","LANDMARKCO":"103","LANDMARKNA":"台北市政府勞工局職業訓練中心","LANDMARKAD":"6300011","ADDRESS":"台北市士林區士東路301號","TEL":"02-28721940","COUNTYNAME":"台北市","TOWNNAME":"士林區","MARKTYPE":"991","Class":"1"},"geometry":{"x":121.53772814549332,"y":25.114727656374018}},{"attributes":{"OBJECTID":6814,"LANDMARKID":"6300000000365","LANDMARKCO":"107","LANDMARKNA":"台北市警察局蘭雅派出所","LANDMARKAD":"6300011","ADDRESS":"台北市士林區中山北路六段153號","TEL":"02-28315001","COUNTYNAME":"台北市","TOWNNAME":"士林區","MARKTYPE":"991","Class":"1"},"geometry":{"x":121.52475175360648,"y":25.106652648124715}},{"attributes":{"OBJECTID":6815,"LANDMARKID":"6300000000007","LANDMARKCO":"101","LANDMARKNA":"消費者保護委員會","LANDMARKAD":"6300011","ADDRESS":"台北市士林區基河路12號","TEL":"02-28863200","COUNTYNAME":"台北市","TOWNNAME":"士林區","MARKTYPE":"991","Class":"1"},"geometry":{"x":121.5238520116141,"y":25.081394081310595}},{"attributes":{"OBJECTID":6816,"LANDMARKID":"6300000000157","LANDMARKCO":"103","LANDMARKNA":"台北市士林運動中心","LANDMARKAD":"6300011","ADDRESS":"台北市士林區士商路1號","TEL":"02-28806066","COUNTYNAME":"台北市","TOWNNAME":"士林區","MARKTYPE":"991","Class":"1"},"geometry":{"x":121.52143351610755,"y":25.08932797695411}},{"attributes":{"OBJECTID":6817,"LANDMARKID":"6300000000008","LANDMARKCO":"101","LANDMARKNA":"交通部國際衛星電台","LANDMARKAD":"6300011","ADDRESS":"台北市士林區","TEL":" ","COUNTYNAME":"台北市","TOWNNAME":"士林區","MARKTYPE":"991","Class":"1"},"geometry":{"x":121.56634781852503,"y":25.143834272250395}},{"attributes":{"OBJECTID":6818,"LANDMARKID":"6300000000815","LANDMARKCO":"205","LANDMARKNA":"郭元益糕餅博物館","LANDMARKAD":"6300011","ADDRESS":"台北市士林區文林路546號4樓","TEL":"02-28382700","COUNTYNAME":"台北市","TOWNNAME":"士林區","MARKTYPE":"992","Class":"2"},"geometry":{"x":121.52440252173704,"y":25.097539294417398}},{"attributes":{"OBJECTID":6819,"LANDMARKID":"6300000000816","LANDMARKCO":"205","LANDMARKNA":"故宮博物院","LANDMARKAD":"6300011","ADDRESS":"台北市士林區至善路二段221號","TEL":"02-28812021","COUNTYNAME":"台北市","TOWNNAME":"士林區","MARKTYPE":"992","Class":"2"},"geometry":{"x":121.54872855091268,"y":25.101934281534465}},{"attributes":{"OBJECTID":6820,"LANDMARKID":"6300000000817","LANDMARKCO":"205","LANDMARKNA":"張大千先生紀念館","LANDMARKAD":"6300011","ADDRESS":"台北市至善路二段342巷2號","TEL":" ","COUNTYNAME":"台北市","TOWNNAME":"士林區","MARKTYPE":"992","Class":"2"},"geometry":{"x":121.55491078168323,"y":25.102731532806594}},{"attributes":{"OBJECTID":6821,"LANDMARKID":"6300000000818","LANDMARKCO":"205","LANDMARKNA":"玩石家博物館","LANDMARKAD":"6300011","ADDRESS":"台北市至善路一段282號","TEL":" ","COUNTYNAME":"台北市","TOWNNAME":"士林區","MARKTYPE":"992","Class":"2"},"geometry":{"x":121.54213908723965,"y":25.097024431155639}},{"attributes":{"OBJECTID":6822,"LANDMARKID":"6300000000819","LANDMARKCO":"205","LANDMARKNA":"林語堂故居","LANDMARKAD":"6300011","ADDRESS":"台北市士林區仰德大道二段141號","TEL":" ","COUNTYNAME":"台北市","TOWNNAME":"士林區","MARKTYPE":"992","Class":"2"},"geometry":{"x":121.54640232998032,"y":25.109256800567902}},{"attributes":{"OBJECTID":6823,"LANDMARKID":"6300000000820","LANDMARKCO":"205","LANDMARKNA":"中國文化大學華岡博物館","LANDMARKAD":"6300011","ADDRESS":"台北市士林區華岡路55號","TEL":" ","COUNTYNAME":"台北市","TOWNNAME":"士林區","MARKTYPE":"992","Class":"2"},"geometry":{"x":121.54103903377019,"y":25.137157089337439}},{"attributes":{"OBJECTID":6824,"LANDMARKID":"6300000000724","LANDMARKCO":"204","LANDMARKNA":"台北市立圖書館天母分館","LANDMARKAD":"6300011","ADDRESS":"台北市士林區中山北路七段154巷6號3~4樓","TEL":" ","COUNTYNAME":"台北市","TOWNNAME":"士林區","MARKTYPE":"992","Class":"2"},"geometry":{"x":121.53296768134241,"y":25.123436698851194}},{"attributes":{"OBJECTID":6825,"LANDMARKID":"6300000000725","LANDMARKCO":"204","LANDMARKNA":"台北市立圖書館士林分館","LANDMARKAD":"6300011","ADDRESS":"台北市士林區華聲街1號3樓","TEL":" ","COUNTYNAME":"台北市","TOWNNAME":"士林區","MARKTYPE":"992","Class":"2"},"geometry":{"x":121.52183882105143,"y":25.096988457979798}},{"attributes":{"OBJECTID":6826,"LANDMARKID":"6300000000726","LANDMARKCO":"204","LANDMARKNA":"台北市立圖書館蘭雅民眾閱覽室","LANDMARKAD":"6300011","ADDRESS":"台北市士林區磺溪街57號","TEL":" ","COUNTYNAME":"台北市","TOWNNAME":"士林區","MARKTYPE":"992","Class":"2"},"geometry":{"x":121.5231582445346,"y":25.108407453138881}},{"attributes":{"OBJECTID":6827,"LANDMARKID":"6300000000822","LANDMARKCO":"206","LANDMARKNA":"市立天文科學教育館","LANDMARKAD":"6300011","ADDRESS":"台北市士林區基河路363號","TEL":" ","COUNTYNAME":"台北市","TOWNNAME":"士林區","MARKTYPE":"992","Class":"2"},"geometry":{"x":121.51775400587248,"y":25.09621990865914}},{"attributes":{"OBJECTID":6828,"LANDMARKID":"6300000000723","LANDMARKCO":"204","LANDMARKNA":"林語堂紀念圖書館","LANDMARKAD":"6300011","ADDRESS":"台北市士林區仰德大道二段141號","TEL":" ","COUNTYNAME":"台北市","TOWNNAME":"士林區","MARKTYPE":"992","Class":"2"},"geometry":{"x":121.54707779118854,"y":25.109459184001565}},{"attributes":{"OBJECTID":6829,"LANDMARKID":"6300000000435","LANDMARKCO":"202","LANDMARKNA":"私立泰北中學","LANDMARKAD":"6300011","ADDRESS":"台北市士林區福林里福林路240號","TEL":"02-28825560","COUNTYNAME":"台北市","TOWNNAME":"士林區","MARKTYPE":"992","Class":"2"},"geometry":{"x":121.53461693118149,"y":25.097191996081975}},{"attributes":{"OBJECTID":6830,"LANDMARKID":"6300000000694","LANDMARKCO":"203","LANDMARKNA":"市立福林國小","LANDMARKAD":"6300011","ADDRESS":"台北市士林區福志里志成街36號","TEL":"02-28313430","COUNTYNAME":"台北市","TOWNNAME":"士林區","MARKTYPE":"992","Class":"2"},"geometry":{"x":121.52993316766641,"y":25.098108510848235}},{"attributes":{"OBJECTID":6831,"LANDMARKID":"6300000000695","LANDMARKCO":"203","LANDMARKNA":"市立劍潭國小","LANDMARKAD":"6300011","ADDRESS":"台北市士林區明勝里通河街16號","TEL":"02-25955491","COUNTYNAME":"台北市","TOWNNAME":"士林區","MARKTYPE":"992","Class":"2"},"geometry":{"x":121.52275915499692,"y":25.079542025699247}},{"attributes":{"OBJECTID":6832,"LANDMARKID":"6300000000696","LANDMARKCO":"203","LANDMARKNA":"市立葫蘆國小","LANDMARKAD":"6300011","ADDRESS":"台北市士林區葫蘆里葫蘆街125號","TEL":"02-28129586","COUNTYNAME":"台北市","TOWNNAME":"士林區","MARKTYPE":"992","Class":"2"},"geometry":{"x":121.5075611592121,"y":25.083381580892723}},{"attributes":{"OBJECTID":6833,"LANDMARKID":"6300000000423","LANDMARKCO":"201","LANDMARKNA":"台灣神學院","LANDMARKAD":"6300011","ADDRESS":"台北市士林區仰德大道二段二巷20號","TEL":"02-28822370","COUNTYNAME":"台北市","TOWNNAME":"士林區","MARKTYPE":"992","Class":"2"},"geometry":{"x":121.54086750211097,"y":25.101590459565887}},{"attributes":{"OBJECTID":6834,"LANDMARKID":"6300000000429","LANDMARKCO":"202","LANDMARKNA":"市立陽明高中","LANDMARKAD":"6300011","ADDRESS":"台北市士林區後港里中正路510號","TEL":"02-28316200","COUNTYNAME":"台北市","TOWNNAME":"士林區","MARKTYPE":"992","Class":"2"},"geometry":{"x":121.51721042446664,"y":25.091848602155245}},{"attributes":{"OBJECTID":6835,"LANDMARKID":"6300000000430","LANDMARKCO":"202","LANDMARKNA":"私立華興中學","LANDMARKAD":"6300011","ADDRESS":"台北市士林區芝山里仰德大道一段101號","TEL":"02-28343513","COUNTYNAME":"台北市","TOWNNAME":"士林區","MARKTYPE":"992","Class":"2"},"geometry":{"x":121.53822137549754,"y":25.10459694365279}},{"attributes":{"OBJECTID":6836,"LANDMARKID":"6300000000431","LANDMARKCO":"202","LANDMARKNA":"私立衛理女中","LANDMARKAD":"6300011","ADDRESS":"台北市士林區翠山里至善路二段321號","TEL":"02-28411487","COUNTYNAME":"台北市","TOWNNAME":"士林區","MARKTYPE":"992","Class":"2"},"geometry":{"x":121.55227849925461,"y":25.101716423010103}},{"attributes":{"OBJECTID":6837,"LANDMARKID":"6300000000432","LANDMARKCO":"202","LANDMARKNA":"市立百齡高中","LANDMARKAD":"6300011","ADDRESS":"台北市士林區義信里承德路四段177號","TEL":"02-28831568","COUNTYNAME":"台北市","TOWNNAME":"士林區","MARKTYPE":"992","Class":"2"},"geometry":{"x":121.52305644872344,"y":25.087012876621088}},{"attributes":{"OBJECTID":6838,"LANDMARKID":"6300000000433","LANDMARKCO":"202","LANDMARKNA":"市立士林高商","LANDMARKAD":"6300011","ADDRESS":"台北市士林區後港里士商路150號","TEL":"02-28313114","COUNTYNAME":"台北市","TOWNNAME":"士林區","MARKTYPE":"992","Class":"2"},"geometry":{"x":121.516353303497,"y":25.094984429716416}},{"attributes":{"OBJECTID":6839,"LANDMARKID":"6300000000434","LANDMARKCO":"202","LANDMARKNA":"私立華岡藝校","LANDMARKAD":"6300011","ADDRESS":"台北市士林區建業路73巷8號","TEL":"02-28612354","COUNTYNAME":"台北市","TOWNNAME":"士林區","MARKTYPE":"992","Class":"2"},"geometry":{"x":121.54896184017915,"y":25.137063974425825}},{"attributes":{"OBJECTID":6840,"LANDMARKID":"6300000000697","LANDMARKCO":"203","LANDMARKNA":"市立士林國中","LANDMARKAD":"6300011","ADDRESS":"台北市士林區福德里中正路345號","TEL":"02-28818673","COUNTYNAME":"台北市","TOWNNAME":"士林區","MARKTYPE":"992","Class":"2"},"geometry":{"x":121.52258740022889,"y":25.094349226139393}},{"attributes":{"OBJECTID":6841,"LANDMARKID":"6300000000698","LANDMARKCO":"203","LANDMARKNA":"市立天母國中","LANDMARKAD":"6300011","ADDRESS":"台北市士林區天和里天母東路120號","TEL":"02-28754864","COUNTYNAME":"台北市","TOWNNAME":"士林區","MARKTYPE":"992","Class":"2"},"geometry":{"x":121.53817198868323,"y":25.117967745217943}},{"attributes":{"OBJECTID":6842,"LANDMARKID":"6300000000699","LANDMARKCO":"203","LANDMARKNA":"市立格致國中","LANDMARKAD":"6300011","ADDRESS":"台北市士林區陽明里仰德大道四段75號","TEL":"02-28616195","COUNTYNAME":"台北市","TOWNNAME":"士林區","MARKTYPE":"992","Class":"2"},"geometry":{"x":121.54681482465304,"y":25.131102135810835}},{"attributes":{"OBJECTID":6843,"LANDMARKID":"6300000000700","LANDMARKCO":"203","LANDMARKNA":"市立至善國中","LANDMARKAD":"6300011","ADDRESS":"台北市士林區翠山里至善路二段360號","TEL":"02-28411450","COUNTYNAME":"台北市","TOWNNAME":"士林區","MARKTYPE":"992","Class":"2"},"geometry":{"x":121.55548603710059,"y":25.103558027376323}},{"attributes":{"OBJECTID":6844,"LANDMARKID":"6300000000701","LANDMARKCO":"203","LANDMARKNA":"市立福安國中","LANDMARKAD":"6300011","ADDRESS":"台北市士林區福安里延平北路七段250號","TEL":"02-28105062","COUNTYNAME":"台北市","TOWNNAME":"士林區","MARKTYPE":"992","Class":"2"},"geometry":{"x":121.48740207558151,"y":25.103349616528323}},{"attributes":{"OBJECTID":6845,"LANDMARKID":"6300000000702","LANDMARKCO":"203","LANDMARKNA":"市立蘭雅國中","LANDMARKAD":"6300011","ADDRESS":"台北市士林區三玉里忠誠路二段51號","TEL":"02-28329376","COUNTYNAME":"台北市","TOWNNAME":"士林區","MARKTYPE":"992","Class":"2"},"geometry":{"x":121.53107235158086,"y":25.110582482500948}},{"attributes":{"OBJECTID":6846,"LANDMARKID":"6300000000703","LANDMARKCO":"203","LANDMARKNA":"市立士林國小","LANDMARKAD":"6300011","ADDRESS":"台北市士林區福德里大東路165號","TEL":"02-28818212","COUNTYNAME":"台北市","TOWNNAME":"士林區","MARKTYPE":"992","Class":"2"},"geometry":{"x":121.52508280405478,"y":25.092833705276952}},{"attributes":{"OBJECTID":6847,"LANDMARKID":"6300000000704","LANDMARKCO":"203","LANDMARKNA":"市立士東國小","LANDMARKAD":"6300011","ADDRESS":"台北市士林區蘭雅里中山北路六段392號","TEL":"02-28719253","COUNTYNAME":"台北市","TOWNNAME":"士林區","MARKTYPE":"992","Class":"2"},"geometry":{"x":121.5268277424282,"y":25.112971862470587}},{"attributes":{"OBJECTID":6848,"LANDMARKID":"6300000000705","LANDMARKCO":"203","LANDMARKNA":"市立雙溪國小","LANDMARKAD":"6300011","ADDRESS":"台北市士林區翠山里中社路二段66號","TEL":"02-28411038","COUNTYNAME":"台北市","TOWNNAME":"士林區","MARKTYPE":"992","Class":"2"},"geometry":{"x":121.56383252925117,"y":25.106090269611002}},{"attributes":{"OBJECTID":6849,"LANDMARKID":"6300000000706","LANDMARKCO":"203","LANDMARKNA":"市立三玉國小","LANDMARKAD":"6300011","ADDRESS":"台北市士林區三玉里天母東路116號","TEL":"02-28751369","COUNTYNAME":"台北市","TOWNNAME":"士林區","MARKTYPE":"992","Class":"2"},"geometry":{"x":121.53733302896272,"y":25.117991887680635}},{"attributes":{"OBJECTID":6850,"LANDMARKID":"6300000000707","LANDMARKCO":"203","LANDMARKNA":"市立天母國小","LANDMARKAD":"6300011","ADDRESS":"台北市士林區天玉里天玉街12號","TEL":"02-28723336","COUNTYNAME":"台北市","TOWNNAME":"士林區","MARKTYPE":"992","Class":"2"},"geometry":{"x":121.52746229578692,"y":25.119729293236492}},{"attributes":{"OBJECTID":6851,"LANDMARKID":"6300000000708","LANDMARKCO":"203","LANDMARKNA":"市立平等國小","LANDMARKAD":"6300011","ADDRESS":"台北市士林區平等里平菁街101號","TEL":"02-28610503","COUNTYNAME":"台北市","TOWNNAME":"士林區","MARKTYPE":"992","Class":"2"},"geometry":{"x":121.57632314492334,"y":25.129066456909687}},{"attributes":{"OBJECTID":6852,"LANDMARKID":"6300000000709","LANDMARKCO":"203","LANDMARKNA":"私立華興小學","LANDMARKAD":"6300011","ADDRESS":"台北市士林區芝山里仰德大道一段101號","TEL":"02-28315530","COUNTYNAME":"台北市","TOWNNAME":"士林區","MARKTYPE":"992","Class":"2"},"geometry":{"x":121.53822137549754,"y":25.10459694365279}},{"attributes":{"OBJECTID":6853,"LANDMARKID":"6300000000710","LANDMARKCO":"203","LANDMARKNA":"市立陽明山國小","LANDMARKAD":"6300011","ADDRESS":"台北市士林區新安里仰德大道三段61號","TEL":"02-28616366","COUNTYNAME":"台北市","TOWNNAME":"士林區","MARKTYPE":"992","Class":"2"},"geometry":{"x":121.55292744529338,"y":25.119827499400799}},{"attributes":{"OBJECTID":6854,"LANDMARKID":"6300000000711","LANDMARKCO":"203","LANDMARKNA":"市立溪山國小","LANDMARKAD":"6300011","ADDRESS":"台北市士林區溪山里至善路三段199號","TEL":"02-28411010","COUNTYNAME":"台北市","TOWNNAME":"士林區","MARKTYPE":"992","Class":"2"},"geometry":{"x":121.579624359523,"y":25.119784321115635}},{"attributes":{"OBJECTID":6855,"LANDMARKID":"6300000000712","LANDMARKCO":"203","LANDMARKNA":"市立雨聲國小","LANDMARKAD":"6300011","ADDRESS":"台北市士林區岩山里至誠路一段62巷70號","TEL":"02-28311004","COUNTYNAME":"台北市","TOWNNAME":"士林區","MARKTYPE":"992","Class":"2"},"geometry":{"x":121.53525209261508,"y":25.102674184841383}},{"attributes":{"OBJECTID":6856,"LANDMARKID":"6300000000713","LANDMARKCO":"203","LANDMARKNA":"市立富安國小","LANDMARKAD":"6300011","ADDRESS":"台北市士林區富洲里延平北路八段135號","TEL":"02-28102841","COUNTYNAME":"台北市","TOWNNAME":"士林區","MARKTYPE":"992","Class":"2"},"geometry":{"x":121.48244469010925,"y":25.10585792407921}},{"attributes":{"OBJECTID":6857,"LANDMARKID":"6300000000714","LANDMARKCO":"203","LANDMARKNA":"市立社子國小","LANDMARKAD":"6300011","ADDRESS":"台北市士林區永倫里延平北路六段308號","TEL":"02-28129059","COUNTYNAME":"台北市","TOWNNAME":"士林區","MARKTYPE":"992","Class":"2"},"geometry":{"x":121.502949920796,"y":25.089802187817799}},{"attributes":{"OBJECTID":6858,"LANDMARKID":"6300000000715","LANDMARKCO":"203","LANDMARKNA":"市立雨農國小","LANDMARKAD":"6300011","ADDRESS":"台北市士林區名山里忠義街1號","TEL":"02-28329700","COUNTYNAME":"台北市","TOWNNAME":"士林區","MARKTYPE":"992","Class":"2"},"geometry":{"x":121.52994627956237,"y":25.105283450726763}},{"attributes":{"OBJECTID":6859,"LANDMARKID":"6300000000716","LANDMARKCO":"203","LANDMARKNA":"市立百齡國小","LANDMARKAD":"6300011","ADDRESS":"台北市士林區福中里福港街205號","TEL":"02-28817683","COUNTYNAME":"台北市","TOWNNAME":"士林區","MARKTYPE":"992","Class":"2"},"geometry":{"x":121.51782945578294,"y":25.086201759493743}},{"attributes":{"OBJECTID":6860,"LANDMARKID":"6300000000717","LANDMARKCO":"203","LANDMARKNA":"市立芝山國小","LANDMARKAD":"6300011","ADDRESS":"台北市士林區芝山里德行東路285號","TEL":"02-28316115","COUNTYNAME":"台北市","TOWNNAME":"士林區","MARKTYPE":"992","Class":"2"},"geometry":{"x":121.53644337528283,"y":25.110385491666943}},{"attributes":{"OBJECTID":6861,"LANDMARKID":"6300000000718","LANDMARKCO":"203","LANDMARKNA":"市立蘭雅國小","LANDMARKAD":"6300011","ADDRESS":"台北市士林區蘭興里磺溪街57號","TEL":"02-28366052","COUNTYNAME":"台北市","TOWNNAME":"士林區","MARKTYPE":"992","Class":"2"},"geometry":{"x":121.52315163949366,"y":25.108404087326139}},{"attributes":{"OBJECTID":6862,"LANDMARKID":"6300000000719","LANDMARKCO":"203","LANDMARKNA":"市立葫蘆國小","LANDMARKAD":"6300011","ADDRESS":"台北市士林區環河北路三段95號","TEL":"02-28129586","COUNTYNAME":"台北市","TOWNNAME":"士林區","MARKTYPE":"992","Class":"2"},"geometry":{"x":121.50703291955486,"y":25.08375309083689}},{"attributes":{"OBJECTID":6863,"LANDMARKID":"6300000000424","LANDMARKCO":"201","LANDMARKNA":"台北海洋技術學院士林校區","LANDMARKAD":"6300011","ADDRESS":"台北市士林區延平北路九段212號","TEL":"02-28102292","COUNTYNAME":"台北市","TOWNNAME":"士林區","MARKTYPE":"992","Class":"2"},"geometry":{"x":121.47095261301172,"y":25.108318019824775}},{"attributes":{"OBJECTID":6864,"LANDMARKID":"6300000000425","LANDMARKCO":"201","LANDMARKNA":"銘傳大學","LANDMARKAD":"6300011","ADDRESS":"台北市士林區中山北路五段250號","TEL":"02-28824564","COUNTYNAME":"台北市","TOWNNAME":"士林區","MARKTYPE":"992","Class":"2"},"geometry":{"x":121.52701914418856,"y":25.087193255769243}},{"attributes":{"OBJECTID":6865,"LANDMARKID":"6300000000426","LANDMARKCO":"201","LANDMARKNA":"中國文化大學","LANDMARKAD":"6300011","ADDRESS":"台北市士林區華岡路55號","TEL":"02-28610511","COUNTYNAME":"台北市","TOWNNAME":"士林區","MARKTYPE":"992","Class":"2"},"geometry":{"x":121.54112928513898,"y":25.137810311575222}},{"attributes":{"OBJECTID":6866,"LANDMARKID":"6300000000427","LANDMARKCO":"201","LANDMARKNA":"東吳大學","LANDMARKAD":"6300011","ADDRESS":"台北市士林區臨溪路70號","TEL":"02-28819471","COUNTYNAME":"台北市","TOWNNAME":"士林區","MARKTYPE":"992","Class":"2"},"geometry":{"x":121.54575671748292,"y":25.094442784884365}},{"attributes":{"OBJECTID":6867,"LANDMARKID":"6300000000428","LANDMARKCO":"201","LANDMARKNA":"台北市立體育學院","LANDMARKAD":"6300011","ADDRESS":"台北市士林區忠誠路二段101號","TEL":"02-28718288","COUNTYNAME":"台北市","TOWNNAME":"士林區","MARKTYPE":"992","Class":"2"},"geometry":{"x":121.53654615153452,"y":25.116239403851928}},{"attributes":{"OBJECTID":6868,"LANDMARKID":"6300000000720","LANDMARKCO":"203","LANDMARKNA":"市立文昌國小","LANDMARKAD":"6300011","ADDRESS":"台北市士林區文林路一段615巷20號","TEL":"02-28365400","COUNTYNAME":"台北市","TOWNNAME":"士林區","MARKTYPE":"992","Class":"2"},"geometry":{"x":121.52147710210409,"y":25.099402972724171}},{"attributes":{"OBJECTID":6869,"LANDMARKID":"6300000000721","LANDMARKCO":"203","LANDMARKNA":"台北市立啟明學校","LANDMARKAD":"6300011","ADDRESS":"台北市士林區忠誠路二段207巷1號","TEL":"02-28740670","COUNTYNAME":"台北市","TOWNNAME":"士林區","MARKTYPE":"992","Class":"2"},"geometry":{"x":121.53523923475569,"y":25.116539017986693}},{"attributes":{"OBJECTID":6870,"LANDMARKID":"6300000000722","LANDMARKCO":"203","LANDMARKNA":"台北市立啟智學校","LANDMARKAD":"6300011","ADDRESS":"台北市士林區忠誠路二段207巷3號","TEL":"02-28749117","COUNTYNAME":"台北市","TOWNNAME":"士林區","MARKTYPE":"992","Class":"2"},"geometry":{"x":121.5363793745212,"y":25.116552081337719}},{"attributes":{"OBJECTID":6871,"LANDMARKID":"6300000002075","LANDMARKCO":"308","LANDMARKNA":"國1-台北交流道-南下","LANDMARKAD":"6300011","ADDRESS":"台北市大同區","TEL":" ","COUNTYNAME":"台北市","TOWNNAME":"士林區","MARKTYPE":"993","Class":"308"},"geometry":{"x":121.51150245950815,"y":25.078646594754776}},{"attributes":{"OBJECTID":6872,"LANDMARKID":"6300000002076","LANDMARKCO":"308","LANDMARKNA":"國1-環北交流道-南下","LANDMARKAD":"6300011","ADDRESS":"台北市大同區","TEL":" ","COUNTYNAME":"台北市","TOWNNAME":"士林區","MARKTYPE":"993","Class":"308"},"geometry":{"x":121.5064630771171,"y":25.078387082425884}},{"attributes":{"OBJECTID":6873,"LANDMARKID":"6300000001957","LANDMARKCO":"306","LANDMARKNA":"劍潭捷運站-出口1","LANDMARKAD":"6300011","ADDRESS":" ","TEL":" ","COUNTYNAME":"台北市","TOWNNAME":"士林區","MARKTYPE":"993","Class":"306"},"geometry":{"x":121.5252346322452,"y":25.085393144124136}},{"attributes":{"OBJECTID":6874,"LANDMARKID":"6300000001958","LANDMARKCO":"306","LANDMARKNA":"劍潭捷運站-出口2","LANDMARKAD":"6300011","ADDRESS":" ","TEL":" ","COUNTYNAME":"台北市","TOWNNAME":"士林區","MARKTYPE":"993","Class":"306"},"geometry":{"x":121.52470942389522,"y":25.083122159778679}},{"attributes":{"OBJECTID":6875,"LANDMARKID":"6300000001959","LANDMARKCO":"306","LANDMARKNA":"士林捷運站-出口2","LANDMARKAD":"6300011","ADDRESS":" ","TEL":" ","COUNTYNAME":"台北市","TOWNNAME":"士林區","MARKTYPE":"993","Class":"306"},"geometry":{"x":121.52651665156422,"y":25.0927596910144}},{"attributes":{"OBJECTID":6876,"LANDMARKID":"6300000001960","LANDMARKCO":"306","LANDMARKNA":"士林捷運站-出口1","LANDMARKAD":"6300011","ADDRESS":" ","TEL":" ","COUNTYNAME":"台北市","TOWNNAME":"士林區","MARKTYPE":"993","Class":"306"},"geometry":{"x":121.52606346516257,"y":25.094155470171565}},{"attributes":{"OBJECTID":6877,"LANDMARKID":"6300000001961","LANDMARKCO":"306","LANDMARKNA":"芝山捷運站-出口","LANDMARKAD":"6300011","ADDRESS":" ","TEL":" ","COUNTYNAME":"台北市","TOWNNAME":"士林區","MARKTYPE":"993","Class":"306"},"geometry":{"x":121.52266925181226,"y":25.102131532584188}},{"attributes":{"OBJECTID":6878,"LANDMARKID":"6300000000861","LANDMARKCO":"302","LANDMARKNA":"中興巴士-故宮站","LANDMARKAD":"6300011","ADDRESS":"台北市士林區力行街8巷2號1樓","TEL":"(02)2882-2126","COUNTYNAME":"台北市","TOWNNAME":"士林區","MARKTYPE":"993","Class":"302"},"geometry":{"x":121.54775305892771,"y":25.098212764958696}},{"attributes":{"OBJECTID":6879,"LANDMARKID":"6300000001210","LANDMARKCO":"303","LANDMARKNA":"社正路平面停車場","LANDMARKAD":"6300011","ADDRESS":" ","TEL":" ","COUNTYNAME":"台北市","TOWNNAME":"士林區","MARKTYPE":"993","Class":"303"},"geometry":{"x":121.50908026654804,"y":25.087963077616521}},{"attributes":{"OBJECTID":6880,"LANDMARKID":"6300000001211","LANDMARKCO":"303","LANDMARKNA":"士林社中街平面停車場","LANDMARKAD":"6300011","ADDRESS":" ","TEL":" ","COUNTYNAME":"台北市","TOWNNAME":"士林區","MARKTYPE":"993","Class":"303"},"geometry":{"x":121.51046623938464,"y":25.089562510001883}},{"attributes":{"OBJECTID":6881,"LANDMARKID":"6300000001212","LANDMARKCO":"303","LANDMARKNA":"延平停車場","LANDMARKAD":"6300011","ADDRESS":" ","TEL":" ","COUNTYNAME":"台北市","TOWNNAME":"士林區","MARKTYPE":"993","Class":"303"},"geometry":{"x":121.51120459646614,"y":25.078895817564646}},{"attributes":{"OBJECTID":6882,"LANDMARKID":"6300000001213","LANDMARKCO":"303","LANDMARKNA":"聯通百齡平面停車場","LANDMARKAD":"6300011","ADDRESS":" ","TEL":" ","COUNTYNAME":"台北市","TOWNNAME":"士林區","MARKTYPE":"993","Class":"303"},"geometry":{"x":121.51063070819518,"y":25.088298161539054}},{"attributes":{"OBJECTID":6883,"LANDMARKID":"6300000001214","LANDMARKCO":"303","LANDMARKNA":"百齡橋堤外平面停車場","LANDMARKAD":"6300011","ADDRESS":" ","TEL":" ","COUNTYNAME":"台北市","TOWNNAME":"士林區","MARKTYPE":"993","Class":"303"},"geometry":{"x":121.51189349616651,"y":25.09008099257969}},{"attributes":{"OBJECTID":6884,"LANDMARKID":"6300000001215","LANDMARKCO":"303","LANDMARKNA":"百齡橋堤外槌球場南側臨時平面停車場","LANDMARKAD":"6300011","ADDRESS":" ","TEL":" ","COUNTYNAME":"台北市","TOWNNAME":"士林區","MARKTYPE":"993","Class":"303"},"geometry":{"x":121.51275777458375,"y":25.085919418259518}},{"attributes":{"OBJECTID":6885,"LANDMARKID":"6300000001216","LANDMARKCO":"303","LANDMARKNA":"國立台灣科學教育館地下停車場","LANDMARKAD":"6300011","ADDRESS":" ","TEL":" ","COUNTYNAME":"台北市","TOWNNAME":"士林區","MARKTYPE":"993","Class":"303"},"geometry":{"x":121.51671740581462,"y":25.095159191403724}},{"attributes":{"OBJECTID":6886,"LANDMARKID":"6300000001217","LANDMARKCO":"303","LANDMARKNA":"三腳渡平面停車場","LANDMARKAD":"6300011","ADDRESS":" ","TEL":" ","COUNTYNAME":"台北市","TOWNNAME":"士林區","MARKTYPE":"993","Class":"303"},"geometry":{"x":121.5195768769405,"y":25.079470412230751}},{"attributes":{"OBJECTID":6887,"LANDMARKID":"6300000001218","LANDMARKCO":"303","LANDMARKNA":"劍潭抽水站停車場","LANDMARKAD":"6300011","ADDRESS":" ","TEL":" ","COUNTYNAME":"台北市","TOWNNAME":"士林區","MARKTYPE":"993","Class":"303"},"geometry":{"x":121.51803163224855,"y":25.081162331492965}},{"attributes":{"OBJECTID":6888,"LANDMARKID":"6300000001219","LANDMARKCO":"303","LANDMARKNA":"新光醫院平面停車場","LANDMARKAD":"6300011","ADDRESS":" ","TEL":" ","COUNTYNAME":"台北市","TOWNNAME":"士林區","MARKTYPE":"993","Class":"303"},"geometry":{"x":121.52074316129659,"y":25.095973101111515}},{"attributes":{"OBJECTID":6889,"LANDMARKID":"6300000001220","LANDMARKCO":"303","LANDMARKNA":"新光醫院地下停車場","LANDMARKAD":"6300011","ADDRESS":" ","TEL":" ","COUNTYNAME":"台北市","TOWNNAME":"士林區","MARKTYPE":"993","Class":"303"},"geometry":{"x":121.52083595608956,"y":25.096472462999643}},{"attributes":{"OBJECTID":6890,"LANDMARKID":"6300000001221","LANDMARKCO":"303","LANDMARKNA":"前港公園地下停車場","LANDMARKAD":"6300011","ADDRESS":"台北市士林區前港街45號","TEL":"02-28817033","COUNTYNAME":"台北市","TOWNNAME":"士林區","MARKTYPE":"993","Class":"303"},"geometry":{"x":121.52133047251904,"y":25.085569484903768}},{"attributes":{"OBJECTID":6891,"LANDMARKID":"6300000001222","LANDMARKCO":"303","LANDMARKNA":"文昌國小地下停車場","LANDMARKAD":"6300011","ADDRESS":"台北市士林區文林路615巷20號地下室","TEL":"02-28385519","COUNTYNAME":"台北市","TOWNNAME":"士林區","MARKTYPE":"993","Class":"303"},"geometry":{"x":121.52134521186038,"y":25.099395430293022}},{"attributes":{"OBJECTID":6892,"LANDMARKID":"6300000001223","LANDMARKCO":"303","LANDMARKNA":"平面停車場","LANDMARKAD":"6300011","ADDRESS":" ","TEL":" ","COUNTYNAME":"台北市","TOWNNAME":"士林區","MARKTYPE":"993","Class":"303"},"geometry":{"x":121.52068922625082,"y":25.090935278430891}},{"attributes":{"OBJECTID":6893,"LANDMARKID":"6300000001224","LANDMARKCO":"303","LANDMARKNA":"台北海洋生活館停車場","LANDMARKAD":"6300011","ADDRESS":"台北市士林區基河路128號","TEL":" ","COUNTYNAME":"台北市","TOWNNAME":"士林區","MARKTYPE":"993","Class":"303"},"geometry":{"x":121.52285829358303,"y":25.088533858830395}},{"attributes":{"OBJECTID":6894,"LANDMARKID":"6300000001225","LANDMARKCO":"303","LANDMARKNA":"美孚大樓停車場","LANDMARKAD":"6300011","ADDRESS":" ","TEL":" ","COUNTYNAME":"台北市","TOWNNAME":"士林區","MARKTYPE":"993","Class":"303"},"geometry":{"x":121.5232052935829,"y":25.087826636270716}},{"attributes":{"OBJECTID":6895,"LANDMARKID":"6300000001226","LANDMARKCO":"303","LANDMARKNA":"百齡高中地下停車場","LANDMARKAD":"6300011","ADDRESS":" ","TEL":"02-28823992","COUNTYNAME":"台北市","TOWNNAME":"士林區","MARKTYPE":"993","Class":"303"},"geometry":{"x":121.52320077858607,"y":25.087032859619448}},{"attributes":{"OBJECTID":6896,"LANDMARKID":"6300000001227","LANDMARKCO":"303","LANDMARKNA":"劍潭青年活動中心停車場","LANDMARKAD":"6300011","ADDRESS":" ","TEL":" ","COUNTYNAME":"台北市","TOWNNAME":"士林區","MARKTYPE":"993","Class":"303"},"geometry":{"x":121.52401714753196,"y":25.079691772132893}},{"attributes":{"OBJECTID":6897,"LANDMARKID":"6300000001228","LANDMARKCO":"303","LANDMARKNA":"基河路旁停車場","LANDMARKAD":"6300011","ADDRESS":"台北市士林區基河路18號","TEL":" ","COUNTYNAME":"台北市","TOWNNAME":"士林區","MARKTYPE":"993","Class":"303"},"geometry":{"x":121.52442586950799,"y":25.083302550997747}},{"attributes":{"OBJECTID":6898,"LANDMARKID":"6300000001229","LANDMARKCO":"303","LANDMARKNA":"捷運淡水線士林站旁停車場","LANDMARKAD":"6300011","ADDRESS":" ","TEL":" ","COUNTYNAME":"台北市","TOWNNAME":"士林區","MARKTYPE":"993","Class":"303"},"geometry":{"x":121.52742989528373,"y":25.092660251782654}},{"attributes":{"OBJECTID":6899,"LANDMARKID":"6300000001230","LANDMARKCO":"303","LANDMARKNA":"三玉廣場停車場","LANDMARKAD":"6300011","ADDRESS":"台北市士林區天母西路8號","TEL":"02-28963772","COUNTYNAME":"台北市","TOWNNAME":"士林區","MARKTYPE":"993","Class":"303"},"geometry":{"x":121.52902227608028,"y":25.118274240129203}},{"attributes":{"OBJECTID":6900,"LANDMARKID":"6300000001231","LANDMARKCO":"303","LANDMARKNA":"福志停車場","LANDMARKAD":"6300011","ADDRESS":" ","TEL":" ","COUNTYNAME":"台北市","TOWNNAME":"士林區","MARKTYPE":"993","Class":"303"},"geometry":{"x":121.52893478469817,"y":25.098799978263905}},{"attributes":{"OBJECTID":6901,"LANDMARKID":"6300000001232","LANDMARKCO":"303","LANDMARKNA":"福林公園公有停車場","LANDMARKAD":"6300011","ADDRESS":" ","TEL":" ","COUNTYNAME":"台北市","TOWNNAME":"士林區","MARKTYPE":"993","Class":"303"},"geometry":{"x":121.52945852455707,"y":25.09590868876754}},{"attributes":{"OBJECTID":6902,"LANDMARKID":"6300000001233","LANDMARKCO":"303","LANDMARKNA":"天母西側停車場","LANDMARKAD":"6300011","ADDRESS":" ","TEL":" ","COUNTYNAME":"台北市","TOWNNAME":"士林區","MARKTYPE":"993","Class":"303"},"geometry":{"x":121.52940231951358,"y":25.118496424649521}},{"attributes":{"OBJECTID":6903,"LANDMARKID":"6300000001234","LANDMARKCO":"303","LANDMARKNA":"天玉停車場","LANDMARKAD":"6300011","ADDRESS":"台北市士林區天玉街38巷18弄2號","TEL":" ","COUNTYNAME":"台北市","TOWNNAME":"士林區","MARKTYPE":"993","Class":"303"},"geometry":{"x":121.52988487744422,"y":25.119253241341504}},{"attributes":{"OBJECTID":6904,"LANDMARKID":"6300000001235","LANDMARKCO":"303","LANDMARKNA":"芝山岩文化遺址停車場","LANDMARKAD":"6300011","ADDRESS":" ","TEL":" ","COUNTYNAME":"台北市","TOWNNAME":"士林區","MARKTYPE":"993","Class":"303"},"geometry":{"x":121.53102254206223,"y":25.104701396064982}},{"attributes":{"OBJECTID":6905,"LANDMARKID":"6300000001236","LANDMARKCO":"303","LANDMARKNA":"至誠停車場","LANDMARKAD":"6300011","ADDRESS":" ","TEL":" ","COUNTYNAME":"台北市","TOWNNAME":"士林區","MARKTYPE":"993","Class":"303"},"geometry":{"x":121.53121541945254,"y":25.10197191438078}},{"attributes":{"OBJECTID":6906,"LANDMARKID":"6300000001237","LANDMARKCO":"303","LANDMARKNA":"陽明醫院院區停車場","LANDMARKAD":"6300011","ADDRESS":"台北市士林區雨聲街105號","TEL":"02-34565210","COUNTYNAME":"台北市","TOWNNAME":"士林區","MARKTYPE":"993","Class":"303"},"geometry":{"x":121.53142493532462,"y":25.105130642934839}},{"attributes":{"OBJECTID":6907,"LANDMARKID":"6300000001238","LANDMARKCO":"303","LANDMARKNA":"陽明醫院停車場","LANDMARKAD":"6300011","ADDRESS":" ","TEL":" ","COUNTYNAME":"台北市","TOWNNAME":"士林區","MARKTYPE":"993","Class":"303"},"geometry":{"x":121.53269093710544,"y":25.104586197566551}},{"attributes":{"OBJECTID":6908,"LANDMARKID":"6300000001239","LANDMARKCO":"303","LANDMARKNA":"東和公園停車場","LANDMARKAD":"6300011","ADDRESS":" ","TEL":" ","COUNTYNAME":"台北市","TOWNNAME":"士林區","MARKTYPE":"993","Class":"303"},"geometry":{"x":121.53321095073193,"y":25.120229313770317}},{"attributes":{"OBJECTID":6909,"LANDMARKID":"6300000001240","LANDMARKCO":"303","LANDMARKNA":"天母棒球停車場","LANDMARKAD":"6300011","ADDRESS":" ","TEL":" ","COUNTYNAME":"台北市","TOWNNAME":"士林區","MARKTYPE":"993","Class":"303"},"geometry":{"x":121.53397862488966,"y":25.115900398020027}},{"attributes":{"OBJECTID":6910,"LANDMARKID":"6300000001241","LANDMARKCO":"303","LANDMARKNA":"新光三越天母店地下停車場","LANDMARKAD":"6300011","ADDRESS":" ","TEL":"02-28756000","COUNTYNAME":"台北市","TOWNNAME":"士林區","MARKTYPE":"993","Class":"303"},"geometry":{"x":121.53358700785554,"y":25.117922302460421}},{"attributes":{"OBJECTID":6911,"LANDMARKID":"6300000001242","LANDMARKCO":"303","LANDMARKNA":"大恩館停車場","LANDMARKAD":"6300011","ADDRESS":"台北市士林區華岡路55號","TEL":" ","COUNTYNAME":"台北市","TOWNNAME":"士林區","MARKTYPE":"993","Class":"303"},"geometry":{"x":121.53867975894283,"y":25.137122197770022}},{"attributes":{"OBJECTID":6912,"LANDMARKID":"6300000001243","LANDMARKCO":"303","LANDMARKNA":"機車停車場","LANDMARKAD":"6300011","ADDRESS":"台北市士林區華岡路1巷","TEL":" ","COUNTYNAME":"台北市","TOWNNAME":"士林區","MARKTYPE":"993","Class":"303"},"geometry":{"x":121.5438667792326,"y":25.138454406994011}},{"attributes":{"OBJECTID":6913,"LANDMARKID":"6300000001244","LANDMARKCO":"303","LANDMARKNA":"中影文化城停車場","LANDMARKAD":"6300011","ADDRESS":"台北市士林區至善路二段34號","TEL":" ","COUNTYNAME":"台北市","TOWNNAME":"士林區","MARKTYPE":"993","Class":"303"},"geometry":{"x":121.54401187966808,"y":25.096904517208266}},{"attributes":{"OBJECTID":6914,"LANDMARKID":"6300000001245","LANDMARKCO":"303","LANDMARKNA":"至善公園停車場","LANDMARKAD":"6300011","ADDRESS":" ","TEL":" ","COUNTYNAME":"台北市","TOWNNAME":"士林區","MARKTYPE":"993","Class":"303"},"geometry":{"x":121.54898023738845,"y":25.100264466138444}},{"attributes":{"OBJECTID":6915,"LANDMARKID":"6300000001246","LANDMARKCO":"303","LANDMARKNA":"故宮站前停車場","LANDMARKAD":"6300011","ADDRESS":" ","TEL":" ","COUNTYNAME":"台北市","TOWNNAME":"士林區","MARKTYPE":"993","Class":"303"},"geometry":{"x":121.54775532546576,"y":25.1016948498538}},{"attributes":{"OBJECTID":6916,"LANDMARKID":"6300000001247","LANDMARKCO":"303","LANDMARKNA":"陽明山國家公園菁山停車場","LANDMARKAD":"6300011","ADDRESS":" ","TEL":" ","COUNTYNAME":"台北市","TOWNNAME":"士林區","MARKTYPE":"993","Class":"303"},"geometry":{"x":121.56194659924243,"y":25.156122931527833}},{"attributes":{"OBJECTID":6917,"LANDMARKID":"6300000001248","LANDMARKCO":"303","LANDMARKNA":"冷水坑停車場","LANDMARKAD":"6300011","ADDRESS":" ","TEL":" ","COUNTYNAME":"台北市","TOWNNAME":"士林區","MARKTYPE":"993","Class":"303"},"geometry":{"x":121.56313796318128,"y":25.167918855763613}},{"attributes":{"OBJECTID":6918,"LANDMARKID":"6300000001249","LANDMARKCO":"303","LANDMARKNA":"冷水坑停車場","LANDMARKAD":"6300011","ADDRESS":" ","TEL":" ","COUNTYNAME":"台北市","TOWNNAME":"士林區","MARKTYPE":"993","Class":"303"},"geometry":{"x":121.56351298220606,"y":25.166306476008256}},{"attributes":{"OBJECTID":6919,"LANDMARKID":"6300000001250","LANDMARKCO":"303","LANDMARKNA":"日月農莊停車場(一)","LANDMARKAD":"6300011","ADDRESS":" ","TEL":"02-28614096","COUNTYNAME":"台北市","TOWNNAME":"士林區","MARKTYPE":"993","Class":"303"},"geometry":{"x":121.56748210943046,"y":25.179983477456013}},{"attributes":{"OBJECTID":6920,"LANDMARKID":"6300000001251","LANDMARKCO":"303","LANDMARKNA":"日月農莊停車場(二)","LANDMARKAD":"6300011","ADDRESS":" ","TEL":"02-28614096","COUNTYNAME":"台北市","TOWNNAME":"士林區","MARKTYPE":"993","Class":"303"},"geometry":{"x":121.56752721286833,"y":25.180320280906262}},{"attributes":{"OBJECTID":6921,"LANDMARKID":"6300000001252","LANDMARKCO":"303","LANDMARKNA":"廢河道平面停車場","LANDMARKAD":"6300011","ADDRESS":"台北市士林區承德路四段175號","TEL":" ","COUNTYNAME":"台北市","TOWNNAME":"士林區","MARKTYPE":"993","Class":"303"},"geometry":{"x":121.52371008740506,"y":25.085699543401287}},{"attributes":{"OBJECTID":6922,"LANDMARKID":"6300000001253","LANDMARKCO":"303","LANDMARKNA":"中興嘟嘟房停車場-博客加盟-天母站","LANDMARKAD":"6300011","ADDRESS":"台北市士林區天母西路3號B1","TEL":"2873-3922","COUNTYNAME":"台北市","TOWNNAME":"士林區","MARKTYPE":"993","Class":"303"},"geometry":{"x":121.52920604433015,"y":25.118947450610104}},{"attributes":{"OBJECTID":6923,"LANDMARKID":"6300000001254","LANDMARKCO":"303","LANDMARKNA":"中興嘟嘟房停車場-重慶北站","LANDMARKAD":"6300011","ADDRESS":"台北市士林區重慶北路4段49巷15弄56號B1","TEL":" ","COUNTYNAME":"台北市","TOWNNAME":"士林區","MARKTYPE":"993","Class":"303"},"geometry":{"x":121.51183771756313,"y":25.081906935888409}},{"attributes":{"OBJECTID":6924,"LANDMARKID":"6300000001255","LANDMARKCO":"303","LANDMARKNA":"中興嘟嘟房停車場-博客加盟-士林站","LANDMARKAD":"6300011","ADDRESS":"台北市士林區中正路187巷1號","TEL":"(02)2883-8902","COUNTYNAME":"台北市","TOWNNAME":"士林區","MARKTYPE":"993","Class":"303"},"geometry":{"x":121.52737324727629,"y":25.095298744502884}},{"attributes":{"OBJECTID":6925,"LANDMARKID":"6300000001256","LANDMARKCO":"303","LANDMARKNA":"士林停車場","LANDMARKAD":"6300011","ADDRESS":"台北市士林區文林路437號旁","TEL":" ","COUNTYNAME":"台北市","TOWNNAME":"士林區","MARKTYPE":"993","Class":"303"},"geometry":{"x":121.52458222776741,"y":25.094836205542382}},{"attributes":{"OBJECTID":6926,"LANDMARKID":"6300000001257","LANDMARKCO":"303","LANDMARKNA":"士林區行政中心地下停車場","LANDMARKAD":"6300011","ADDRESS":"台北市士林區中正路439號B1","TEL":" ","COUNTYNAME":"台北市","TOWNNAME":"士林區","MARKTYPE":"993","Class":"303"},"geometry":{"x":121.51971491349768,"y":25.092847018173064}},{"attributes":{"OBJECTID":6927,"LANDMARKID":"6300000001258","LANDMARKCO":"303","LANDMARKNA":"士商臨時路外停車場","LANDMARKAD":"6300011","ADDRESS":"台北市士林區士商路33號","TEL":" ","COUNTYNAME":"台北市","TOWNNAME":"士林區","MARKTYPE":"993","Class":"303"},"geometry":{"x":121.51953404855668,"y":25.091605202242285}},{"attributes":{"OBJECTID":6928,"LANDMARKID":"6300000001259","LANDMARKCO":"303","LANDMARKNA":"大葉天母停車場","LANDMARKAD":"6300011","ADDRESS":"台北市士林區忠誠路二段55號","TEL":" ","COUNTYNAME":"台北市","TOWNNAME":"士林區","MARKTYPE":"993","Class":"303"},"geometry":{"x":121.53145295779566,"y":25.111809686671606}},{"attributes":{"OBJECTID":6929,"LANDMARKID":"6300000001260","LANDMARKCO":"303","LANDMARKNA":"天文科學教育館地下停車場","LANDMARKAD":"6300011","ADDRESS":"台北市士林區基河路363號","TEL":" ","COUNTYNAME":"台北市","TOWNNAME":"士林區","MARKTYPE":"993","Class":"303"},"geometry":{"x":121.51792932583683,"y":25.096179067761017}},{"attributes":{"OBJECTID":6930,"LANDMARKID":"6300000001261","LANDMARKCO":"303","LANDMARKNA":"天母公園平面停車場","LANDMARKAD":"6300011","ADDRESS":"台北市士林區中山北路七段141巷43號","TEL":" ","COUNTYNAME":"台北市","TOWNNAME":"士林區","MARKTYPE":"993","Class":"303"},"geometry":{"x":121.53021670633268,"y":25.124530795688447}},{"attributes":{"OBJECTID":6931,"LANDMARKID":"6300000001262","LANDMARKCO":"303","LANDMARKNA":"百齡橋旁平面停車場","LANDMARKAD":"6300011","ADDRESS":"台北市士林區社中街及通河西街、中正路間","TEL":" ","COUNTYNAME":"台北市","TOWNNAME":"士林區","MARKTYPE":"993","Class":"303"},"geometry":{"x":121.51134915622818,"y":25.08889047829787}},{"attributes":{"OBJECTID":6932,"LANDMARKID":"6300000001263","LANDMARKCO":"303","LANDMARKNA":"百齡橋堤外平面停車場","LANDMARKAD":"6300011","ADDRESS":"台北市士林區士林通河西街旁堤防外","TEL":" ","COUNTYNAME":"台北市","TOWNNAME":"士林區","MARKTYPE":"993","Class":"303"},"geometry":{"x":121.5121636621793,"y":25.088847582726064}},{"attributes":{"OBJECTID":6933,"LANDMARKID":"6300000001264","LANDMARKCO":"303","LANDMARKNA":"亞太駐車聯盟陽明站停車場","LANDMARKAD":"6300011","ADDRESS":"台北市士林區德行東路230號B1","TEL":" ","COUNTYNAME":"台北市","TOWNNAME":"士林區","MARKTYPE":"993","Class":"303"},"geometry":{"x":121.53306411473815,"y":25.109243276332275}},{"attributes":{"OBJECTID":6934,"LANDMARKID":"6300000001265","LANDMARKCO":"303","LANDMARKNA":"忠誠一二平面停車場","LANDMARKAD":"6300011","ADDRESS":"台北市士林區忠誠路一段182號旁","TEL":" ","COUNTYNAME":"台北市","TOWNNAME":"士林區","MARKTYPE":"993","Class":"303"},"geometry":{"x":121.52924327801644,"y":25.106293900060844}},{"attributes":{"OBJECTID":6935,"LANDMARKID":"6300000001266","LANDMARKCO":"303","LANDMARKNA":"社中街平面停車場","LANDMARKAD":"6300011","ADDRESS":"台北市士林區社中街旁","TEL":" ","COUNTYNAME":"台北市","TOWNNAME":"士林區","MARKTYPE":"993","Class":"303"},"geometry":{"x":121.51088426950803,"y":25.090299344769111}},{"attributes":{"OBJECTID":6936,"LANDMARKID":"6300000001267","LANDMARKCO":"303","LANDMARKNA":"社正路平面停車場","LANDMARKAD":"6300011","ADDRESS":"台北市士林區社正路12號旁介於延平北路及社正路路口","TEL":" ","COUNTYNAME":"台北市","TOWNNAME":"士林區","MARKTYPE":"993","Class":"303"},"geometry":{"x":121.50881216383425,"y":25.088666334935233}},{"attributes":{"OBJECTID":6937,"LANDMARKID":"6300000001268","LANDMARKCO":"303","LANDMARKNA":"美德街平面停車場","LANDMARKAD":"6300011","ADDRESS":"台北市士林區美德街99號","TEL":" ","COUNTYNAME":"台北市","TOWNNAME":"士林區","MARKTYPE":"993","Class":"303"},"geometry":{"x":121.52459046289009,"y":25.097179410380996}},{"attributes":{"OBJECTID":6938,"LANDMARKID":"6300000001269","LANDMARKCO":"303","LANDMARKNA":"基河路停車場","LANDMARKAD":"6300011","ADDRESS":"台北市士林區基河路18號","TEL":" ","COUNTYNAME":"台北市","TOWNNAME":"士林區","MARKTYPE":"993","Class":"303"},"geometry":{"x":121.5217140264822,"y":25.090324869218961}},{"attributes":{"OBJECTID":6939,"LANDMARKID":"6300000001270","LANDMARKCO":"303","LANDMARKNA":"捷運淡水線芝山站停車場","LANDMARKAD":"6300011","ADDRESS":"台北市士林區福國路70號","TEL":" ","COUNTYNAME":"台北市","TOWNNAME":"士林區","MARKTYPE":"993","Class":"303"},"geometry":{"x":121.52232806294518,"y":25.102084143026101}},{"attributes":{"OBJECTID":6940,"LANDMARKID":"6300000001271","LANDMARKCO":"303","LANDMARKNA":"淡水線士林站停車場","LANDMARKAD":"6300011","ADDRESS":"台北市士林區福德路1號","TEL":" ","COUNTYNAME":"台北市","TOWNNAME":"士林區","MARKTYPE":"993","Class":"303"},"geometry":{"x":121.52520700988435,"y":25.092098544127623}},{"attributes":{"OBJECTID":6941,"LANDMARKID":"6300000001272","LANDMARKCO":"303","LANDMARKNA":"淡水線劍潭站停車場","LANDMARKAD":"6300011","ADDRESS":"台北市士林區中山北路五段65號","TEL":" ","COUNTYNAME":"台北市","TOWNNAME":"士林區","MARKTYPE":"993","Class":"303"},"geometry":{"x":121.52528352000407,"y":25.084363622531228}},{"attributes":{"OBJECTID":6942,"LANDMARKID":"6300000001273","LANDMARKCO":"303","LANDMARKNA":"新光天母傑仕堡停車場","LANDMARKAD":"6300011","ADDRESS":"台北市士林區忠誠路二段180號","TEL":" ","COUNTYNAME":"台北市","TOWNNAME":"士林區","MARKTYPE":"993","Class":"303"},"geometry":{"x":121.53384076367236,"y":25.116618280149577}},{"attributes":{"OBJECTID":6943,"LANDMARKID":"6300000001274","LANDMARKCO":"303","LANDMARKNA":"農民團體幹部聯合訓練協會停車場","LANDMARKAD":"6300011","ADDRESS":"台北市士林區中山北路七段113號B1","TEL":" ","COUNTYNAME":"台北市","TOWNNAME":"士林區","MARKTYPE":"993","Class":"303"},"geometry":{"x":121.53163588657783,"y":25.122391318497328}},{"attributes":{"OBJECTID":6944,"LANDMARKID":"6300000001275","LANDMARKCO":"303","LANDMARKNA":"福林加油站停車場","LANDMARKAD":"6300011","ADDRESS":"台北市士林區中山北路465號","TEL":" ","COUNTYNAME":"台北市","TOWNNAME":"士林區","MARKTYPE":"993","Class":"303"},"geometry":{"x":121.52754962549589,"y":25.092087140625992}},{"attributes":{"OBJECTID":6945,"LANDMARKID":"6300000001276","LANDMARKCO":"303","LANDMARKNA":"福港街廣場停車場","LANDMARKAD":"6300011","ADDRESS":"台北市士林區士林福港街149巷2號","TEL":" ","COUNTYNAME":"台北市","TOWNNAME":"士林區","MARKTYPE":"993","Class":"303"},"geometry":{"x":121.51831230484392,"y":25.087376754910483}},{"attributes":{"OBJECTID":6946,"LANDMARKID":"6300000001277","LANDMARKCO":"303","LANDMARKNA":"劍潭抽水站堤外平面停車場","LANDMARKAD":"6300011","ADDRESS":"台北市士林區通河街323巷底","TEL":" ","COUNTYNAME":"台北市","TOWNNAME":"士林區","MARKTYPE":"993","Class":"303"},"geometry":{"x":121.51834149919574,"y":25.081072439775067}},{"attributes":{"OBJECTID":6947,"LANDMARKID":"6300000001278","LANDMARKCO":"303","LANDMARKNA":"擎天崗停車場","LANDMARKAD":"6300011","ADDRESS":"台北市士林區菁山路101巷246號","TEL":" ","COUNTYNAME":"台北市","TOWNNAME":"士林區","MARKTYPE":"993","Class":"303"},"geometry":{"x":121.57402491359808,"y":25.1671725859816}},{"attributes":{"OBJECTID":6948,"LANDMARKID":"6300000001279","LANDMARKCO":"303","LANDMARKNA":"雙溪公園停車場","LANDMARKAD":"6300011","ADDRESS":"台北市士林區福林路254巷","TEL":" ","COUNTYNAME":"台北市","TOWNNAME":"士林區","MARKTYPE":"993","Class":"303"},"geometry":{"x":121.53688559571059,"y":25.097995982923379}},{"attributes":{"OBJECTID":6949,"LANDMARKID":"6300000001280","LANDMARKCO":"303","LANDMARKNA":"故宮廣場停車場","LANDMARKAD":"6300011","ADDRESS":"台北市士林區至善路故宮博物院斜對面","TEL":" ","COUNTYNAME":"台北市","TOWNNAME":"士林區","MARKTYPE":"993","Class":"303"},"geometry":{"x":121.54804126853365,"y":25.098449434665159}},{"attributes":{"OBJECTID":6950,"LANDMARKID":"6300000001281","LANDMARKCO":"303","LANDMARKNA":"社園立體停車場","LANDMARKAD":"6300011","ADDRESS":"台北市士林區延平北路六段180號","TEL":" ","COUNTYNAME":"台北市","TOWNNAME":"士林區","MARKTYPE":"993","Class":"303"},"geometry":{"x":121.50636334768754,"y":25.089638257529735}},{"attributes":{"OBJECTID":6951,"LANDMARKID":"6300000001282","LANDMARKCO":"303","LANDMARKNA":"士林204K01平面停車場","LANDMARKAD":"6300011","ADDRESS":"台北市士林區社中街","TEL":" ","COUNTYNAME":"台北市","TOWNNAME":"士林區","MARKTYPE":"993","Class":"303"},"geometry":{"x":121.5194877160276,"y":25.088885269374185}},{"attributes":{"OBJECTID":6952,"LANDMARKID":"6300000001283","LANDMARKCO":"303","LANDMARKNA":"忠誠路(一臨時平面停車場)","LANDMARKAD":"6300011","ADDRESS":"台北市士林區士林區忠誠路1段182號旁","TEL":" ","COUNTYNAME":"台北市","TOWNNAME":"士林區","MARKTYPE":"993","Class":"303"},"geometry":{"x":121.52947556413253,"y":25.106502709320527}},{"attributes":{"OBJECTID":6953,"LANDMARKID":"6300000001284","LANDMARKCO":"303","LANDMARKNA":"大南路臨時平面停車場","LANDMARKAD":"6300011","ADDRESS":"台北市士林區大南路與承德路口","TEL":" ","COUNTYNAME":"台北市","TOWNNAME":"士林區","MARKTYPE":"993","Class":"303"},"geometry":{"x":121.51568119230878,"y":25.089453691750602}},{"attributes":{"OBJECTID":6954,"LANDMARKID":"6300000001285","LANDMARKCO":"303","LANDMARKNA":"東河平面停車場","LANDMARKAD":"6300011","ADDRESS":"台北市士林區天母東路69巷內","TEL":" ","COUNTYNAME":"台北市","TOWNNAME":"士林區","MARKTYPE":"993","Class":"303"},"geometry":{"x":121.53442302986196,"y":25.119352564143}},{"attributes":{"OBJECTID":6955,"LANDMARKID":"6300000001286","LANDMARKCO":"303","LANDMARKNA":"全磐停車場","LANDMARKAD":"6300011","ADDRESS":"台北市士林區光華段二小段1018之1地號","TEL":" ","COUNTYNAME":"台北市","TOWNNAME":"士林區","MARKTYPE":"993","Class":"303"},"geometry":{"x":121.55117097258366,"y":25.148385707430872}},{"attributes":{"OBJECTID":6956,"LANDMARKID":"6300000001287","LANDMARKCO":"303","LANDMARKNA":"應安停車場-士林場","LANDMARKAD":"6300011","ADDRESS":"台北市士林區忠誠路二段53巷7號","TEL":"02-28386502","COUNTYNAME":"台北市","TOWNNAME":"士林區","MARKTYPE":"993","Class":"303"},"geometry":{"x":121.53233045721726,"y":25.111216718315603}},{"attributes":{"OBJECTID":6957,"LANDMARKID":"6300000001288","LANDMARKCO":"303","LANDMARKNA":"永固停車場-永平站","LANDMARKAD":"6300011","ADDRESS":"台北市士林區永平街62號旁空地","TEL":" ","COUNTYNAME":"台北市","TOWNNAME":"士林區","MARKTYPE":"993","Class":"303"},"geometry":{"x":121.50507484497884,"y":25.091287276791686}},{"attributes":{"OBJECTID":6958,"LANDMARKID":"6300000001289","LANDMARKCO":"303","LANDMARKNA":"Times(普客二四停車場)-富安天母停車場","LANDMARKAD":"6300011","ADDRESS":"北市天母北路62號B2、B3停車場","TEL":" ","COUNTYNAME":"台北市","TOWNNAME":"士林區","MARKTYPE":"993","Class":"303"},"geometry":{"x":121.52666682729321,"y":25.121737166755015}},{"attributes":{"OBJECTID":6959,"LANDMARKID":"6300000001290","LANDMARKCO":"303","LANDMARKNA":"台灣聯通停車場-新光場","LANDMARKAD":"6300011","ADDRESS":"台北市基河路240巷8號對面","TEL":" ","COUNTYNAME":"台北市","TOWNNAME":"士林區","MARKTYPE":"993","Class":"303"},"geometry":{"x":121.52069372078996,"y":25.090949700285893}},{"attributes":{"OBJECTID":6960,"LANDMARKID":"6300000001291","LANDMARKCO":"303","LANDMARKNA":"台灣聯通停車場-克強場","LANDMARKAD":"6300011","ADDRESS":"台北市克強路10巷14號","TEL":" ","COUNTYNAME":"台北市","TOWNNAME":"士林區","MARKTYPE":"993","Class":"303"},"geometry":{"x":121.52451930490317,"y":25.109107971805237}},{"attributes":{"OBJECTID":6961,"LANDMARKID":"6300000002300","LANDMARKCO":"402","LANDMARKNA":"中華電信-天母中山特約服務中心","LANDMARKAD":"6300011","ADDRESS":"台北市士林區中山北路六段146號","TEL":"02-28337890","COUNTYNAME":"台北市","TOWNNAME":"士林區","MARKTYPE":"994","Class":"4"},"geometry":{"x":121.52503000541424,"y":25.106294846576024}},{"attributes":{"OBJECTID":6962,"LANDMARKID":"6300000002301","LANDMARKCO":"402","LANDMARKNA":"中華電信-士林中正特約服務中心","LANDMARKAD":"6300011","ADDRESS":"台北市士林區中正路363號","TEL":"02-28822005","COUNTYNAME":"台北市","TOWNNAME":"士林區","MARKTYPE":"994","Class":"4"},"geometry":{"x":121.52204209725259,"y":25.094271088187462}},{"attributes":{"OBJECTID":6963,"LANDMARKID":"6300000002302","LANDMARKCO":"402","LANDMARKNA":"中華電信-士林夜市服務中心","LANDMARKAD":"6300011","ADDRESS":"台北市士林區文林路158號","TEL":"123或0800-080-123","COUNTYNAME":"台北市","TOWNNAME":"士林區","MARKTYPE":"994","Class":"4"},"geometry":{"x":121.52687736208217,"y":25.089065307692319}},{"attributes":{"OBJECTID":6964,"LANDMARKID":"6300000002303","LANDMARKCO":"402","LANDMARKNA":"中華電信-芝山服務中心","LANDMARKAD":"6300011","ADDRESS":"台北市士林區福國路95號","TEL":"123或0800-080-123","COUNTYNAME":"台北市","TOWNNAME":"士林區","MARKTYPE":"994","Class":"4"},"geometry":{"x":121.52215642533268,"y":25.101393373674043}},{"attributes":{"OBJECTID":6965,"LANDMARKID":"6300000002304","LANDMARKCO":"402","LANDMARKNA":"中華電信-台北天母特約服務中心","LANDMARKAD":"6300011","ADDRESS":"台北市天母西路28-1號","TEL":"02-28722699","COUNTYNAME":"台北市","TOWNNAME":"士林區","MARKTYPE":"994","Class":"4"},"geometry":{"x":121.52655281817299,"y":25.118309357313784}},{"attributes":{"OBJECTID":6966,"LANDMARKID":"6300000002305","LANDMARKCO":"402","LANDMARKNA":"中華電信-士林營運處","LANDMARKAD":"6300011","ADDRESS":"台北市基河路10號","TEL":"123或0800-080-123","COUNTYNAME":"台北市","TOWNNAME":"士林區","MARKTYPE":"994","Class":"4"},"geometry":{"x":121.52372108345499,"y":25.080970681402512}},{"attributes":{"OBJECTID":6967,"LANDMARKID":"6300000002306","LANDMARKCO":"402","LANDMARKNA":"遠傳電信-士林中正門市","LANDMARKAD":"6300011","ADDRESS":"台北市士林區中正路387號","TEL":" ","COUNTYNAME":"台北市","TOWNNAME":"士林區","MARKTYPE":"994","Class":"4"},"geometry":{"x":121.52144565205805,"y":25.094085692659345}},{"attributes":{"OBJECTID":6968,"LANDMARKID":"6300000002307","LANDMARKCO":"402","LANDMARKNA":"威寶電信-台北延平北特約服務中心","LANDMARKAD":"6300011","ADDRESS":"台北市士林區延平北路五段324號","TEL":"02-28127612","COUNTYNAME":"台北市","TOWNNAME":"士林區","MARKTYPE":"994","Class":"4"},"geometry":{"x":121.50951759488781,"y":25.086393032900862}},{"attributes":{"OBJECTID":6969,"LANDMARKID":"6300000002308","LANDMARKCO":"402","LANDMARKNA":"威寶電信-台北德行東特約服務中心","LANDMARKAD":"6300011","ADDRESS":"台北市士林區德行東路188號","TEL":"(02)28348529","COUNTYNAME":"台北市","TOWNNAME":"士林區","MARKTYPE":"994","Class":"4"},"geometry":{"x":121.53104616438601,"y":25.108555852658693}},{"attributes":{"OBJECTID":6970,"LANDMARKID":"6300000002309","LANDMARKCO":"402","LANDMARKNA":"威寶電信-台北文林特約服務中心","LANDMARKAD":"6300011","ADDRESS":"台北市士林區文林路155號","TEL":"(02)28836008","COUNTYNAME":"台北市","TOWNNAME":"士林區","MARKTYPE":"994","Class":"4"},"geometry":{"x":121.52663022418736,"y":25.089148315748727}},{"attributes":{"OBJECTID":6971,"LANDMARKID":"6300000002310","LANDMARKCO":"402","LANDMARKNA":"大眾電信-士東專賣店","LANDMARKAD":"6300011","ADDRESS":"台北市士林區士東路1號","TEL":"02-28745138","COUNTYNAME":"台北市","TOWNNAME":"士林區","MARKTYPE":"994","Class":"4"},"geometry":{"x":121.52646189658252,"y":25.111863999817903}},{"attributes":{"OBJECTID":6972,"LANDMARKID":"6300000002311","LANDMARKCO":"402","LANDMARKNA":"大眾電信-天母店","LANDMARKAD":"6300011","ADDRESS":"台北市士林區天母西路59號","TEL":"0968-544791","COUNTYNAME":"台北市","TOWNNAME":"士林區","MARKTYPE":"994","Class":"4"},"geometry":{"x":121.52660471807251,"y":25.118579832200297}},{"attributes":{"OBJECTID":6973,"LANDMARKID":"6300000002312","LANDMARKCO":"402","LANDMARKNA":"大眾電信(傑昇通信)-台北社子店","LANDMARKAD":"6300011","ADDRESS":"台北市士林區延平北路6段125之1號","TEL":"02-2813-2128","COUNTYNAME":"台北市","TOWNNAME":"士林區","MARKTYPE":"994","Class":"4"},"geometry":{"x":121.50806002402381,"y":25.088758919153165}},{"attributes":{"OBJECTID":6974,"LANDMARKID":"6300000002313","LANDMARKCO":"402","LANDMARKNA":"大眾電信(皇家通訊)-天母NOKIA","LANDMARKAD":"6300011","ADDRESS":"台北市士林區德行東路211號之1","TEL":"02-28339900","COUNTYNAME":"台北市","TOWNNAME":"士林區","MARKTYPE":"994","Class":"4"},"geometry":{"x":121.53256939992389,"y":25.109267177906023}},{"attributes":{"OBJECTID":6975,"LANDMARKID":"6300000002314","LANDMARKCO":"402","LANDMARKNA":"大眾電信(震旦通訊)-台北延平店","LANDMARKAD":"6300011","ADDRESS":"台北市延平北路五段318號","TEL":"02-88111501","COUNTYNAME":"台北市","TOWNNAME":"士林區","MARKTYPE":"994","Class":"4"},"geometry":{"x":121.50955605116255,"y":25.086248317570224}},{"attributes":{"OBJECTID":6976,"LANDMARKID":"6300000002315","LANDMARKCO":"402","LANDMARKNA":"大眾電信(震旦通訊)-台北德行店","LANDMARKAD":"6300011","ADDRESS":"台北市德行東路35號1.","TEL":"02-88665185","COUNTYNAME":"台北市","TOWNNAME":"士林區","MARKTYPE":"994","Class":"4"},"geometry":{"x":121.52624609862725,"y":25.107044589778994}},{"attributes":{"OBJECTID":6977,"LANDMARKID":"6300000002316","LANDMARKCO":"402","LANDMARKNA":"大眾電信-士林店","LANDMARKAD":"6300011","ADDRESS":"臺北市士林區文林路289號","TEL":"0968-544-284","COUNTYNAME":"台北市","TOWNNAME":"士林區","MARKTYPE":"994","Class":"4"},"geometry":{"x":121.52616404817464,"y":25.091670438670196}},{"attributes":{"OBJECTID":6978,"LANDMARKID":"6300000003394","LANDMARKCO":"601","LANDMARKNA":"陽明山中國麗緻大飯店","LANDMARKAD":"6300011","ADDRESS":"台北市士林區格致路237號","TEL":"02-2861-6661","COUNTYNAME":"台北市","TOWNNAME":"士林區","MARKTYPE":"996","Class":"6"},"geometry":{"x":121.54894779624688,"y":25.143469418774608}},{"attributes":{"OBJECTID":6979,"LANDMARKID":"6300000003591","LANDMARKCO":"603","LANDMARKNA":"新榮大旅社","LANDMARKAD":"6300011","ADDRESS":"台北市士林區文林路116號","TEL":"02-28812531","COUNTYNAME":"台北市","TOWNNAME":"士林區","MARKTYPE":"996","Class":"6"},"geometry":{"x":121.52640614450462,"y":25.088220047256307}},{"attributes":{"OBJECTID":6980,"LANDMARKID":"6300000003592","LANDMARKCO":"603","LANDMARKNA":"君閣旅社","LANDMARKAD":"6300011","ADDRESS":"台北市士林區文林路490號8樓","TEL":"02-28352300","COUNTYNAME":"台北市","TOWNNAME":"士林區","MARKTYPE":"996","Class":"6"},"geometry":{"x":121.52436832763892,"y":25.096395035978567}},{"attributes":{"OBJECTID":6981,"LANDMARKID":"6300000003593","LANDMARKCO":"603","LANDMARKNA":"甜言蜜語旅館","LANDMARKAD":"6300011","ADDRESS":"台北市士林區文林路494號","TEL":"02-28313186","COUNTYNAME":"台北市","TOWNNAME":"士林區","MARKTYPE":"996","Class":"6"},"geometry":{"x":121.5243490385735,"y":25.096458369828675}},{"attributes":{"OBJECTID":6982,"LANDMARKID":"6300000003594","LANDMARKCO":"603","LANDMARKNA":"佳賓旅社","LANDMARKAD":"6300011","ADDRESS":"台北市士林區延平北路五段39號","TEL":"02-28128951","COUNTYNAME":"台北市","TOWNNAME":"士林區","MARKTYPE":"996","Class":"6"},"geometry":{"x":121.51085617651081,"y":25.079865602910012}},{"attributes":{"OBJECTID":6983,"LANDMARKID":"6300000003595","LANDMARKCO":"603","LANDMARKNA":"真珠賓館","LANDMARKAD":"6300011","ADDRESS":"台北市士林區延平北路五段67號3樓","TEL":"02-28127971","COUNTYNAME":"台北市","TOWNNAME":"士林區","MARKTYPE":"996","Class":"6"},"geometry":{"x":121.51062265190915,"y":25.080589424551416}},{"attributes":{"OBJECTID":6984,"LANDMARKID":"6300000003596","LANDMARKCO":"603","LANDMARKNA":"貴族商務旅館","LANDMARKAD":"6300011","ADDRESS":"台北市士林區忠誠路二段21巷10號1-6樓","TEL":"02-28323388","COUNTYNAME":"台北市","TOWNNAME":"士林區","MARKTYPE":"996","Class":"6"},"geometry":{"x":121.53115077459688,"y":25.109187073299847}},{"attributes":{"OBJECTID":6985,"LANDMARKID":"6300000003597","LANDMARKCO":"603","LANDMARKNA":"葫蘆商務旅社","LANDMARKAD":"6300011","ADDRESS":"台北市士林區重慶北路四段202號","TEL":"02-28119395","COUNTYNAME":"台北市","TOWNNAME":"士林區","MARKTYPE":"996","Class":"6"},"geometry":{"x":121.51169085772912,"y":25.085268164216941}},{"attributes":{"OBJECTID":6986,"LANDMARKID":"6300000003598","LANDMARKCO":"603","LANDMARKNA":"花翎旅館","LANDMARKAD":"6300011","ADDRESS":"台北市士林區中山北路六段728巷2號1-7樓","TEL":"02-28735511","COUNTYNAME":"台北市","TOWNNAME":"士林區","MARKTYPE":"996","Class":"6"},"geometry":{"x":121.52810177629678,"y":25.11485046842829}},{"attributes":{"OBJECTID":6987,"LANDMARKID":"6300000003599","LANDMARKCO":"603","LANDMARKNA":"星美飯店","LANDMARKAD":"6300011","ADDRESS":"台北市士林區前港街38-1號","TEL":"02-28828080","COUNTYNAME":"台北市","TOWNNAME":"士林區","MARKTYPE":"996","Class":"6"},"geometry":{"x":121.52128235588089,"y":25.084688643799598}},{"attributes":{"OBJECTID":6988,"LANDMARKID":"6300000003600","LANDMARKCO":"603","LANDMARKNA":"杰洋旅館(櫻花溫泉渡假村)","LANDMARKAD":"6300011","ADDRESS":"台北市士林區菁山路101巷71弄16號","TEL":"02-28623666","COUNTYNAME":"台北市","TOWNNAME":"士林區","MARKTYPE":"996","Class":"6"},"geometry":{"x":121.5592934923464,"y":25.15348154555797}},{"attributes":{"OBJECTID":6989,"LANDMARKID":"6300000003601","LANDMARKCO":"603","LANDMARKNA":"麗敦精緻旅店","LANDMARKAD":"6300011","ADDRESS":"台北市士林區福國路106號1樓","TEL":"2-6樓之1至7","COUNTYNAME":"台北市","TOWNNAME":"士林區","MARKTYPE":"996","Class":"6"},"geometry":{"x":121.52154046901437,"y":25.102417888891683}},{"attributes":{"OBJECTID":6990,"LANDMARKID":"6300000003602","LANDMARKCO":"603","LANDMARKNA":"富玉莊旅社","LANDMARKAD":"6300011","ADDRESS":"台北市士林區福港街149巷15弄8號2-3樓","TEL":"02-28822308","COUNTYNAME":"台北市","TOWNNAME":"士林區","MARKTYPE":"996","Class":"6"},"geometry":{"x":121.51910448180536,"y":25.087619300917151}},{"attributes":{"OBJECTID":6991,"LANDMARKID":"6300000003296","LANDMARKCO":"508","LANDMARKNA":"七股溫泉","LANDMARKAD":"6300011","ADDRESS":"台北市北投區","TEL":" ","COUNTYNAME":"台北市","TOWNNAME":"士林區","MARKTYPE":"995","Class":"5"},"geometry":{"x":121.56470175857665,"y":25.178378538331579}},{"attributes":{"OBJECTID":6992,"LANDMARKID":"6300000003125","LANDMARKCO":"504","LANDMARKNA":"陽明山菁山自然中心","LANDMARKAD":"6300011","ADDRESS":"台北市士林區","TEL":" ","COUNTYNAME":"台北市","TOWNNAME":"士林區","MARKTYPE":"995","Class":"5"},"geometry":{"x":121.56162893913286,"y":25.155504885791359}},{"attributes":{"OBJECTID":6993,"LANDMARKID":"6300000003126","LANDMARKCO":"504","LANDMARKNA":"絹絲瀑布步道口","LANDMARKAD":"6300011","ADDRESS":"台北市士林區","TEL":" ","COUNTYNAME":"台北市","TOWNNAME":"士林區","MARKTYPE":"995","Class":"5"},"geometry":{"x":121.56236233118261,"y":25.151789922790332}},{"attributes":{"OBJECTID":6994,"LANDMARKID":"6300000003127","LANDMARKCO":"504","LANDMARKNA":"馬槽遊憩區","LANDMARKAD":"6300011","ADDRESS":"台北市士林區","TEL":" ","COUNTYNAME":"台北市","TOWNNAME":"士林區","MARKTYPE":"995","Class":"5"},"geometry":{"x":121.56892966787593,"y":25.181326404352262}},{"attributes":{"OBJECTID":6995,"LANDMARKID":"6300000003128","LANDMARKCO":"504","LANDMARKNA":"內雙溪森林自然公園","LANDMARKAD":"6300011","ADDRESS":"台北市士林區","TEL":" ","COUNTYNAME":"台北市","TOWNNAME":"士林區","MARKTYPE":"995","Class":"5"},"geometry":{"x":121.58083453745533,"y":25.11475887541183}},{"attributes":{"OBJECTID":6996,"LANDMARKID":"6300000003129","LANDMARKCO":"504","LANDMARKNA":"風櫃嘴觀景台","LANDMARKAD":"6300011","ADDRESS":"台北市士林區","TEL":" ","COUNTYNAME":"台北市","TOWNNAME":"士林區","MARKTYPE":"995","Class":"5"},"geometry":{"x":121.60229251008489,"y":25.137097018877785}},{"attributes":{"OBJECTID":6997,"LANDMARKID":"6300000003130","LANDMARKCO":"504","LANDMARKNA":"頂山、石梯嶺步道口","LANDMARKAD":"6300011","ADDRESS":"台北市士林區","TEL":" ","COUNTYNAME":"台北市","TOWNNAME":"士林區","MARKTYPE":"995","Class":"5"},"geometry":{"x":121.60263925768687,"y":25.137439915707091}},{"attributes":{"OBJECTID":6998,"LANDMARKID":"6300000003121","LANDMARKCO":"503","LANDMARKNA":"天母水管路古道入口","LANDMARKAD":"6300011","ADDRESS":"台北市士林區","TEL":" ","COUNTYNAME":"台北市","TOWNNAME":"士林區","MARKTYPE":"995","Class":"5"},"geometry":{"x":121.53538548882331,"y":25.130464029743742}},{"attributes":{"OBJECTID":6999,"LANDMARKID":"6300000003122","LANDMARKCO":"503","LANDMARKNA":"文化大學後山夜景","LANDMARKAD":"6300011","ADDRESS":"台北市士林區華岡路55號","TEL":" ","COUNTYNAME":"台北市","TOWNNAME":"士林區","MARKTYPE":"995","Class":"5"},"geometry":{"x":121.54002359911193,"y":25.134561364341742}},{"attributes":{"OBJECTID":7000,"LANDMARKID":"6300000003138","LANDMARKCO":"505","LANDMARKNA":"中華文化城(中影文化城)停","LANDMARKAD":"6300011","ADDRESS":"台北市士林區至善路二段34號","TEL":"02-28821022","COUNTYNAME":"台北市","TOWNNAME":"士林區","MARKTYPE":"995","Class":"5"},"geometry":{"x":121.5442879551678,"y":25.096671214902376}}]}