{"displayFieldName":"COUNTYNAME","fieldAliases":{"OBJECTID":"OBJECTID","LANDMARKID":"LANDMARKID","LANDMARKCO":"LANDMARKCO","LANDMARKNA":"LANDMARKNA","LANDMARKAD":"LANDMARKAD","ADDRESS":"ADDRESS","TEL":"TEL","COUNTYNAME":"COUNTYNAME","TOWNNAME":"TOWNNAME","MARKTYPE":"MARKTYPE","Class":"Class"},"geometryType":"esriGeometryPoint","spatialReference":{"wkid":4326},"fields":[{"name":"OBJECTID","type":"esriFieldTypeOID","alias":"OBJECTID"},{"name":"LANDMARKID","type":"esriFieldTypeString","alias":"LANDMARKID","length":15},{"name":"LANDMARKCO","type":"esriFieldTypeString","alias":"LANDMARKCO","length":15},{"name":"LANDMARKNA","type":"esriFieldTypeString","alias":"LANDMARKNA","length":50},{"name":"LANDMARKAD","type":"esriFieldTypeString","alias":"LANDMARKAD","length":15},{"name":"ADDRESS","type":"esriFieldTypeString","alias":"ADDRESS","length":56},{"name":"TEL","type":"esriFieldTypeString","alias":"TEL","length":36},{"name":"COUNTYNAME","type":"esriFieldTypeString","alias":"COUNTYNAME","length":15},{"name":"TOWNNAME","type":"esriFieldTypeString","alias":"TOWNNAME","length":13},{"name":"MARKTYPE","type":"esriFieldTypeString","alias":"MARKTYPE","length":12},{"name":"Class","type":"esriFieldTypeString","alias":"Class","length":5}],"features":[{"attributes":{"OBJECTID":3801,"LANDMARKID":"1000100000827","LANDMARKCO":"204","LANDMARKNA":"新北市立圖書館八里分館","LANDMARKAD":"1000123","ADDRESS":"新北市八里區訊塘村廈竹圍60號3樓","TEL":" ","COUNTYNAME":"新北市","TOWNNAME":"八里區","MARKTYPE":"992","Class":"2"},"geometry":{"x":121.45125375995671,"y":25.132080239887525}},{"attributes":{"OBJECTID":3802,"LANDMARKID":"1000100000460","LANDMARKCO":"202","LANDMARKNA":"私立聖心女中","LANDMARKAD":"1000123","ADDRESS":"新北市八里區龍米路一段263號","TEL":"02-26182287","COUNTYNAME":"新北市","TOWNNAME":"八里區","MARKTYPE":"992","Class":"2"},"geometry":{"x":121.45507847907149,"y":25.122733447660394}},{"attributes":{"OBJECTID":3803,"LANDMARKID":"1000100000789","LANDMARKCO":"203","LANDMARKNA":"縣立八里國中","LANDMARKAD":"1000123","ADDRESS":"新北市八里區荖阡坑路15號","TEL":"02-26102016","COUNTYNAME":"新北市","TOWNNAME":"八里區","MARKTYPE":"992","Class":"2"},"geometry":{"x":121.40118544620998,"y":25.139233768649976}},{"attributes":{"OBJECTID":3804,"LANDMARKID":"1000100000790","LANDMARKCO":"203","LANDMARKNA":"縣立八里國小","LANDMARKAD":"1000123","ADDRESS":"新北市八里區舊城村中山路82號","TEL":"02-26104925","COUNTYNAME":"新北市","TOWNNAME":"八里區","MARKTYPE":"992","Class":"2"},"geometry":{"x":121.4030027374443,"y":25.149794284391604}},{"attributes":{"OBJECTID":3805,"LANDMARKID":"1000100000791","LANDMARKCO":"203","LANDMARKNA":"私立聖心國小","LANDMARKAD":"1000123","ADDRESS":"新北市八里區龍米路一段261號","TEL":"02-26182330","COUNTYNAME":"新北市","TOWNNAME":"八里區","MARKTYPE":"992","Class":"2"},"geometry":{"x":121.45499981701363,"y":25.122824212490858}},{"attributes":{"OBJECTID":3806,"LANDMARKID":"1000100000461","LANDMARKCO":"202","LANDMARKNA":"私立聖心女中","LANDMARKAD":"1000123","ADDRESS":"新北市八里區龍形46之2號","TEL":"02-26182279","COUNTYNAME":"新北市","TOWNNAME":"八里區","MARKTYPE":"992","Class":"2"},"geometry":{"x":121.44789980568203,"y":25.135219034345763}},{"attributes":{"OBJECTID":3807,"LANDMARKID":"1000100000785","LANDMARKCO":"203","LANDMARKNA":"縣立米倉國小分班","LANDMARKAD":"1000123","ADDRESS":"新北市八里區","TEL":" ","COUNTYNAME":"新北市","TOWNNAME":"八里區","MARKTYPE":"992","Class":"2"},"geometry":{"x":121.421859893497,"y":25.158402420353195}},{"attributes":{"OBJECTID":3808,"LANDMARKID":"1000100000786","LANDMARKCO":"203","LANDMARKNA":"縣立長坑國小","LANDMARKAD":"1000123","ADDRESS":"新北市八里區長坑村12鄰長坑口25號","TEL":"02-26102037","COUNTYNAME":"新北市","TOWNNAME":"八里區","MARKTYPE":"992","Class":"2"},"geometry":{"x":121.39008404653289,"y":25.125540786169477}},{"attributes":{"OBJECTID":3809,"LANDMARKID":"1000100000787","LANDMARKCO":"203","LANDMARKNA":"縣立米倉國小","LANDMARKAD":"1000123","ADDRESS":"新北市八里區米倉村烏山頭33號","TEL":"02-26182202","COUNTYNAME":"新北市","TOWNNAME":"八里區","MARKTYPE":"992","Class":"2"},"geometry":{"x":121.4453925826796,"y":25.146510836669556}},{"attributes":{"OBJECTID":3810,"LANDMARKID":"1000100000788","LANDMARKCO":"203","LANDMARKNA":"私立聖心國小","LANDMARKAD":"1000123","ADDRESS":"新北市八里區龍形46之7號","TEL":"02-26182330","COUNTYNAME":"新北市","TOWNNAME":"八里區","MARKTYPE":"992","Class":"2"},"geometry":{"x":121.45014181719716,"y":25.133949916466648}},{"attributes":{"OBJECTID":3811,"LANDMARKID":"1000100001447","LANDMARKCO":"305","LANDMARKNA":"台北港","LANDMARKAD":"1000123","ADDRESS":"新北市八里區臨港大道","TEL":" ","COUNTYNAME":"新北市","TOWNNAME":"八里區","MARKTYPE":"993","Class":"305"},"geometry":{"x":121.39256844080779,"y":25.150345155537785}},{"attributes":{"OBJECTID":3812,"LANDMARKID":"1000100001551","LANDMARKCO":"308","LANDMARKNA":"台61甲-八里交流道-北上","LANDMARKAD":"1000123","ADDRESS":"新北市八里區","TEL":" ","COUNTYNAME":"新北市","TOWNNAME":"八里區","MARKTYPE":"993","Class":"308"},"geometry":{"x":121.37653386654502,"y":25.13889751085674}},{"attributes":{"OBJECTID":3813,"LANDMARKID":"1000100001552","LANDMARKCO":"308","LANDMARKNA":"台61甲-八里交流道-北上","LANDMARKAD":"1000123","ADDRESS":"新北市八里區","TEL":" ","COUNTYNAME":"新北市","TOWNNAME":"八里區","MARKTYPE":"993","Class":"308"},"geometry":{"x":121.37672955777441,"y":25.138965325342358}},{"attributes":{"OBJECTID":3814,"LANDMARKID":"1000100001553","LANDMARKCO":"308","LANDMARKNA":"台61甲-台北港端","LANDMARKAD":"1000123","ADDRESS":"新北市八里區","TEL":" ","COUNTYNAME":"新北市","TOWNNAME":"八里區","MARKTYPE":"993","Class":"308"},"geometry":{"x":121.39505918948211,"y":25.152153442260612}},{"attributes":{"OBJECTID":3815,"LANDMARKID":"1000100001554","LANDMARKCO":"308","LANDMARKNA":"台64-八里交流道-東行","LANDMARKAD":"1000123","ADDRESS":"新北市八里區","TEL":" ","COUNTYNAME":"新北市","TOWNNAME":"八里區","MARKTYPE":"993","Class":"308"},"geometry":{"x":121.39786796824694,"y":25.143358808694781}},{"attributes":{"OBJECTID":3816,"LANDMARKID":"1000100001327","LANDMARKCO":"303","LANDMARKNA":"八里立體停車場","LANDMARKAD":"1000123","ADDRESS":"新北市八里區中山路233巷2號","TEL":" ","COUNTYNAME":"新北市","TOWNNAME":"八里區","MARKTYPE":"993","Class":"303"},"geometry":{"x":121.40012501661658,"y":25.146804746634448}},{"attributes":{"OBJECTID":3817,"LANDMARKID":"1000100001328","LANDMARKCO":"303","LANDMARKNA":"十三行博物館第二停車場","LANDMARKAD":"1000123","ADDRESS":" ","TEL":"02-26191313","COUNTYNAME":"新北市","TOWNNAME":"八里區","MARKTYPE":"993","Class":"303"},"geometry":{"x":121.40622681850462,"y":25.15558694963136}},{"attributes":{"OBJECTID":3818,"LANDMARKID":"1000100001329","LANDMARKCO":"303","LANDMARKNA":"第二停車場","LANDMARKAD":"1000123","ADDRESS":" ","TEL":" ","COUNTYNAME":"新北市","TOWNNAME":"八里區","MARKTYPE":"993","Class":"303"},"geometry":{"x":121.41179562195006,"y":25.154349542261201}},{"attributes":{"OBJECTID":3819,"LANDMARKID":"1000100001330","LANDMARKCO":"303","LANDMARKNA":"龍形平面停車場","LANDMARKAD":"1000123","ADDRESS":"新北市八里區","TEL":"02-28937779","COUNTYNAME":"新北市","TOWNNAME":"八里區","MARKTYPE":"993","Class":"303"},"geometry":{"x":121.4512328254503,"y":25.130452350694089}},{"attributes":{"OBJECTID":3820,"LANDMARKID":"1000100001331","LANDMARKCO":"303","LANDMARKNA":"十三行博物館第一停車場","LANDMARKAD":"1000123","ADDRESS":"新北市八里區博物館路200號","TEL":"02-26191313","COUNTYNAME":"新北市","TOWNNAME":"八里區","MARKTYPE":"993","Class":"303"},"geometry":{"x":121.40625634364866,"y":25.157627127650034}},{"attributes":{"OBJECTID":3821,"LANDMARKID":"1000100001332","LANDMARKCO":"303","LANDMARKNA":"八里第一停車場","LANDMARKAD":"1000123","ADDRESS":"新北市八里區舊陳村中山路","TEL":" ","COUNTYNAME":"新北市","TOWNNAME":"八里區","MARKTYPE":"993","Class":"303"},"geometry":{"x":121.42360024308243,"y":25.158939419245833}},{"attributes":{"OBJECTID":3822,"LANDMARKID":"1000100001333","LANDMARKCO":"303","LANDMARKNA":"八里都市計劃第二停車場","LANDMARKAD":"1000123","ADDRESS":"新北市八里區舊陳村","TEL":" ","COUNTYNAME":"新北市","TOWNNAME":"八里區","MARKTYPE":"993","Class":"303"},"geometry":{"x":121.42359958455351,"y":25.15893888125342}},{"attributes":{"OBJECTID":3823,"LANDMARKID":"1000100001334","LANDMARKCO":"303","LANDMARKNA":"台灣聯通停車場-左岸場","LANDMARKAD":"1000123","ADDRESS":"新北市八里區觀海大道36號","TEL":" ","COUNTYNAME":"新北市","TOWNNAME":"八里區","MARKTYPE":"993","Class":"303"},"geometry":{"x":121.42994336838383,"y":25.161005807122994}},{"attributes":{"OBJECTID":3824,"LANDMARKID":"1000100002859","LANDMARKCO":"603","LANDMARKNA":"新八里汽車旅館","LANDMARKAD":"1000123","ADDRESS":"新北市八里區頂寮一街12號","TEL":"02-26188866","COUNTYNAME":"新北市","TOWNNAME":"八里區","MARKTYPE":"996","Class":"6"},"geometry":{"x":121.45037141429617,"y":25.123971951067993}},{"attributes":{"OBJECTID":3825,"LANDMARKID":"1000100002860","LANDMARKCO":"603","LANDMARKNA":"好地方汽車旅館","LANDMARKAD":"1000123","ADDRESS":"新北市八里區中華路一段280","TEL":"280-2至-18","COUNTYNAME":"新北市","TOWNNAME":"八里區","MARKTYPE":"996","Class":"6"},"geometry":{"x":121.41398500297541,"y":25.154556811625451}},{"attributes":{"OBJECTID":3826,"LANDMARKID":"1000100002861","LANDMARKCO":"603","LANDMARKNA":"金園旅社","LANDMARKAD":"1000123","ADDRESS":"新北市八里區中山路2段363號2至3樓","TEL":"02-26102047","COUNTYNAME":"新北市","TOWNNAME":"八里區","MARKTYPE":"996","Class":"6"},"geometry":{"x":121.39890658063418,"y":25.147084553388481}},{"attributes":{"OBJECTID":3827,"LANDMARKID":"1000100002511","LANDMARKCO":"503","LANDMARKNA":"觀音山風景區","LANDMARKAD":"1000123","ADDRESS":"新北市八里區","TEL":" ","COUNTYNAME":"新北市","TOWNNAME":"八里區","MARKTYPE":"995","Class":"5"},"geometry":{"x":121.4264900352114,"y":25.13633488521214}},{"attributes":{"OBJECTID":3828,"LANDMARKID":"1000100002633","LANDMARKCO":"508","LANDMARKNA":"大唐溫泉會館(八仙樂園內)","LANDMARKAD":"1000123","ADDRESS":"新北市八里區下罟村下罟子1之6號","TEL":"02-26105218","COUNTYNAME":"新北市","TOWNNAME":"八里區","MARKTYPE":"995","Class":"5"},"geometry":{"x":121.38932323817728,"y":25.143282445592238}},{"attributes":{"OBJECTID":3829,"LANDMARKID":"1000100002571","LANDMARKCO":"505","LANDMARKNA":"八仙海岸","LANDMARKAD":"1000123","ADDRESS":"新北市八里區下罟子1之6號","TEL":" ","COUNTYNAME":"新北市","TOWNNAME":"八里區","MARKTYPE":"995","Class":"5"},"geometry":{"x":121.38969115724161,"y":25.142354005178479}},{"attributes":{"OBJECTID":3830,"LANDMARKID":"1000100001892","LANDMARKCO":"405","LANDMARKNA":"中油加油站-林口站(刷卡自助)(中油直營)","LANDMARKAD":"1000117","ADDRESS":"新北市林口區東林村中山路１號","TEL":"02-26015017","COUNTYNAME":"新北市","TOWNNAME":"林口區","MARKTYPE":"994","Class":"4"},"geometry":{"x":121.39694917288796,"y":25.077838172350067}},{"attributes":{"OBJECTID":3831,"LANDMARKID":"1000100001893","LANDMARKCO":"405","LANDMARKNA":"山隆加油站-林口站(中油)","LANDMARKAD":"1000117","ADDRESS":"新北市林口區中山路1號","TEL":"02-86011805","COUNTYNAME":"新北市","TOWNNAME":"林口區","MARKTYPE":"994","Class":"4"},"geometry":{"x":121.39694032759036,"y":25.077879386932324}},{"attributes":{"OBJECTID":3832,"LANDMARKID":"1000100001894","LANDMARKCO":"405","LANDMARKNA":"統一速邁樂加油站-林口二站加油站(中油)","LANDMARKAD":"1000117","ADDRESS":"新北市林口區粉寮路15-3號","TEL":" ","COUNTYNAME":"新北市","TOWNNAME":"林口區","MARKTYPE":"994","Class":"4"},"geometry":{"x":121.39983321855566,"y":25.082162047931536}},{"attributes":{"OBJECTID":3833,"LANDMARKID":"1000100001895","LANDMARKCO":"405","LANDMARKNA":"中油加油站-新林口站","LANDMARKAD":"1000117","ADDRESS":"新北市林口區中山路27號","TEL":"02-26023366","COUNTYNAME":"新北市","TOWNNAME":"林口區","MARKTYPE":"994","Class":"4"},"geometry":{"x":121.39658928715605,"y":25.078309890932449}},{"attributes":{"OBJECTID":3834,"LANDMARKID":"1000100001896","LANDMARKCO":"405","LANDMARKNA":"中油加油站-車容坊文化二路站","LANDMARKAD":"1000117","ADDRESS":"新北市林口區文化二路一段413號","TEL":"02-26089208","COUNTYNAME":"新北市","TOWNNAME":"林口區","MARKTYPE":"994","Class":"4"},"geometry":{"x":121.37518124442302,"y":25.077705581671619}},{"attributes":{"OBJECTID":3835,"LANDMARKID":"1000100002421","LANDMARKCO":"408","LANDMARKNA":"郵局-林口中正路郵局","LANDMARKAD":"1000117","ADDRESS":"新北市林口區中正路115號","TEL":"(02)2601-1016","COUNTYNAME":"新北市","TOWNNAME":"林口區","MARKTYPE":"994","Class":"4"},"geometry":{"x":121.39377760248018,"y":25.077064494612827}},{"attributes":{"OBJECTID":3836,"LANDMARKID":"1000100002422","LANDMARKCO":"408","LANDMARKNA":"郵局-林口台師大郵局","LANDMARKAD":"1000117","ADDRESS":"新北市林口區仁愛路1段2號(國立台灣師範大學林口校區)","TEL":"(02)2601-6241","COUNTYNAME":"新北市","TOWNNAME":"林口區","MARKTYPE":"994","Class":"4"},"geometry":{"x":121.39745636499246,"y":25.068019453314253}},{"attributes":{"OBJECTID":3837,"LANDMARKID":"1000100002423","LANDMARKCO":"408","LANDMARKNA":"郵局-林口國宅郵局","LANDMARKAD":"1000117","ADDRESS":"新北市林口區麗園一街6巷1號1F之1","TEL":"(02)2609-9141","COUNTYNAME":"新北市","TOWNNAME":"林口區","MARKTYPE":"994","Class":"4"},"geometry":{"x":121.37671462640512,"y":25.070629738017782}},{"attributes":{"OBJECTID":3838,"LANDMARKID":"1000100002424","LANDMARKCO":"408","LANDMARKNA":"郵局-林口中湖頭郵局","LANDMARKAD":"1000117","ADDRESS":"新北市林口區林口路208號","TEL":"(02)2602-1606","COUNTYNAME":"新北市","TOWNNAME":"林口區","MARKTYPE":"994","Class":"4"},"geometry":{"x":121.38715751309272,"y":25.0834963523852}},{"attributes":{"OBJECTID":3839,"LANDMARKID":"1000100002425","LANDMARKCO":"408","LANDMARKNA":"郵局-林口郵局","LANDMARKAD":"1000117","ADDRESS":"新北市林口區文化二路1段8號","TEL":"02-26085028","COUNTYNAME":"新北市","TOWNNAME":"林口區","MARKTYPE":"994","Class":"4"},"geometry":{"x":121.36457368788594,"y":25.066486398926344}},{"attributes":{"OBJECTID":3840,"LANDMARKID":"1000100002452","LANDMARKCO":"409","LANDMARKNA":"新北市林口區農會","LANDMARKAD":"1000117","ADDRESS":"新北市林口區西林村1鄰林口路29號","TEL":"02-26011226","COUNTYNAME":"新北市","TOWNNAME":"林口區","MARKTYPE":"994","Class":"4"},"geometry":{"x":121.39084454522329,"y":25.078300920744663}},{"attributes":{"OBJECTID":3841,"LANDMARKID":"1000100001886","LANDMARKCO":"404","LANDMARKNA":"台灣省自來水林口營運所","LANDMARKAD":"1000117","ADDRESS":"新北市林口區佳林路40號","TEL":" ","COUNTYNAME":"新北市","TOWNNAME":"林口區","MARKTYPE":"994","Class":"4"},"geometry":{"x":121.38607516783617,"y":25.081436397765291}},{"attributes":{"OBJECTID":3842,"LANDMARKID":"1000100001891","LANDMARKCO":"405","LANDMARKNA":"台亞加油站-林口中山站(台塑)","LANDMARKAD":"1000117","ADDRESS":"新北市林口區文化三路300號","TEL":"02-26019341","COUNTYNAME":"新北市","TOWNNAME":"林口區","MARKTYPE":"994","Class":"4"},"geometry":{"x":121.3655524511307,"y":25.073047992492121}},{"attributes":{"OBJECTID":3843,"LANDMARKID":"1000100000104","LANDMARKCO":"103","LANDMARKNA":"新北市林口區衛生所","LANDMARKAD":"1000117","ADDRESS":"新北市林口區菁湖村林口路70號","TEL":"02-26011005","COUNTYNAME":"新北市","TOWNNAME":"林口區","MARKTYPE":"991","Class":"1"},"geometry":{"x":121.39021874505632,"y":25.079406381685345}},{"attributes":{"OBJECTID":3844,"LANDMARKID":"1000100000377","LANDMARKCO":"107","LANDMARKNA":"新北市消防局林口分隊","LANDMARKAD":"1000117","ADDRESS":"新北市林口區中山路137號","TEL":"02-26011166","COUNTYNAME":"新北市","TOWNNAME":"林口區","MARKTYPE":"991","Class":"1"},"geometry":{"x":121.38845022144366,"y":25.078776432034026}},{"attributes":{"OBJECTID":3845,"LANDMARKID":"1000100000378","LANDMARKCO":"107","LANDMARKNA":"新北市政府警察局文化派出所","LANDMARKAD":"1000117","ADDRESS":"新北市林口區麗園一街5號","TEL":"02-26095766","COUNTYNAME":"新北市","TOWNNAME":"林口區","MARKTYPE":"991","Class":"1"},"geometry":{"x":121.37620476729069,"y":25.072310743673423}},{"attributes":{"OBJECTID":3846,"LANDMARKID":"1000100000379","LANDMARKCO":"107","LANDMARKNA":"新北市政府警察局林口分駐所","LANDMARKAD":"1000117","ADDRESS":"新北市林口區林口村中正路102號","TEL":"02-26011630","COUNTYNAME":"新北市","TOWNNAME":"林口區","MARKTYPE":"991","Class":"1"},"geometry":{"x":121.39380344766364,"y":25.07740856382302}},{"attributes":{"OBJECTID":3847,"LANDMARKID":"1000100000146","LANDMARKCO":"106","LANDMARKNA":"新北市林口區戶政事務所","LANDMARKAD":"1000117","ADDRESS":"新北市林口區西林村13鄰竹林路2號","TEL":"02-26011574","COUNTYNAME":"新北市","TOWNNAME":"林口區","MARKTYPE":"991","Class":"1"},"geometry":{"x":121.38665280141319,"y":25.07688991276348}},{"attributes":{"OBJECTID":3848,"LANDMARKID":"1000100000407","LANDMARKCO":"108","LANDMARKNA":"新北市林口區公所","LANDMARKAD":"1000117","ADDRESS":"新北市林口區仁愛路一段378號","TEL":"02-26033111","COUNTYNAME":"新北市","TOWNNAME":"林口區","MARKTYPE":"991","Class":"1"},"geometry":{"x":121.39158408549106,"y":25.077593567652613}},{"attributes":{"OBJECTID":3849,"LANDMARKID":"1000100000103","LANDMARKCO":"103","LANDMARKNA":"新北市林口區鄉民代表會","LANDMARKAD":"1000117","ADDRESS":"新北市林口區仁愛路一段378號6樓","TEL":"02-26010670","COUNTYNAME":"新北市","TOWNNAME":"林口區","MARKTYPE":"991","Class":"1"},"geometry":{"x":121.39139574040186,"y":25.077594560978493}},{"attributes":{"OBJECTID":3850,"LANDMARKID":"1000100000375","LANDMARKCO":"107","LANDMARKNA":"新北市政府警察局下福派出所","LANDMARKAD":"1000117","ADDRESS":"新北市林口區下福村下福6號","TEL":"02-26062835","COUNTYNAME":"新北市","TOWNNAME":"林口區","MARKTYPE":"991","Class":"1"},"geometry":{"x":121.31686919152328,"y":25.109828555663857}},{"attributes":{"OBJECTID":3851,"LANDMARKID":"1000100000376","LANDMARKCO":"107","LANDMARKNA":"新北市政府警察局瑞平派出所","LANDMARKAD":"1000117","ADDRESS":"新北市林口區瑞平村44號","TEL":"02-26052724","COUNTYNAME":"新北市","TOWNNAME":"林口區","MARKTYPE":"991","Class":"1"},"geometry":{"x":121.3331710771115,"y":25.12233651393236}},{"attributes":{"OBJECTID":3852,"LANDMARKID":"1000100000005","LANDMARKCO":"101","LANDMARKNA":"林口火力發電廠","LANDMARKAD":"1000117","ADDRESS":"新北市林口區下福里139號之1","TEL":"02-26062221","COUNTYNAME":"新北市","TOWNNAME":"林口區","MARKTYPE":"991","Class":"1"},"geometry":{"x":121.29875098677735,"y":25.12105844614209}},{"attributes":{"OBJECTID":3853,"LANDMARKID":"1000100000826","LANDMARKCO":"204","LANDMARKNA":"新北市立圖書館林口分館","LANDMARKAD":"1000117","ADDRESS":"新北市林口區忠孝路399巷120號","TEL":" ","COUNTYNAME":"新北市","TOWNNAME":"林口區","MARKTYPE":"992","Class":"2"},"geometry":{"x":121.37434558876414,"y":25.074442282545753}},{"attributes":{"OBJECTID":3854,"LANDMARKID":"1000100000458","LANDMARKCO":"202","LANDMARKNA":"私立醒吾高中","LANDMARKAD":"1000117","ADDRESS":"新北市林口區力行路1號","TEL":"02-26012644","COUNTYNAME":"新北市","TOWNNAME":"林口區","MARKTYPE":"992","Class":"2"},"geometry":{"x":121.39523006735287,"y":25.080207062219497}},{"attributes":{"OBJECTID":3855,"LANDMARKID":"1000100000797","LANDMARKCO":"203","LANDMARKNA":"縣立興福國小","LANDMARKAD":"1000117","ADDRESS":"新北市林口區下福村下福路10之1號","TEL":"02-26012895","COUNTYNAME":"新北市","TOWNNAME":"林口區","MARKTYPE":"992","Class":"2"},"geometry":{"x":121.31269058532088,"y":25.112362420049767}},{"attributes":{"OBJECTID":3856,"LANDMARKID":"1000100000798","LANDMARKCO":"203","LANDMARKNA":"縣立麗林國小","LANDMARKAD":"1000117","ADDRESS":"新北市林口區文化一路一段11號","TEL":"02-26008457","COUNTYNAME":"新北市","TOWNNAME":"林口區","MARKTYPE":"992","Class":"2"},"geometry":{"x":121.36813613638635,"y":25.06790658561491}},{"attributes":{"OBJECTID":3857,"LANDMARKID":"1000100000799","LANDMARKCO":"203","LANDMARKNA":"縣立麗園國小","LANDMARKAD":"1000117","ADDRESS":"新北市林口區忠孝路591號","TEL":"02-26091061","COUNTYNAME":"新北市","TOWNNAME":"林口區","MARKTYPE":"992","Class":"2"},"geometry":{"x":121.37646895968847,"y":25.068968998771656}},{"attributes":{"OBJECTID":3858,"LANDMARKID":"1000100000800","LANDMARKCO":"203","LANDMARKNA":"縣立林口國小","LANDMARKAD":"1000117","ADDRESS":"新北市林口區林口路76號","TEL":"02-26011010","COUNTYNAME":"新北市","TOWNNAME":"林口區","MARKTYPE":"992","Class":"2"},"geometry":{"x":121.39047115241799,"y":25.08012731174032}},{"attributes":{"OBJECTID":3859,"LANDMARKID":"1000100000459","LANDMARKCO":"202","LANDMARKNA":"國立林口高中","LANDMARKAD":"1000117","ADDRESS":"新北市林口區仁愛路二段173號","TEL":"02-26009482","COUNTYNAME":"新北市","TOWNNAME":"林口區","MARKTYPE":"992","Class":"2"},"geometry":{"x":121.3804743381654,"y":25.073469694943231}},{"attributes":{"OBJECTID":3860,"LANDMARKID":"1000100000792","LANDMARKCO":"203","LANDMARKNA":"縣立崇林國中","LANDMARKAD":"1000117","ADDRESS":"新北市林口區文化一路20號","TEL":"02-26095829","COUNTYNAME":"新北市","TOWNNAME":"林口區","MARKTYPE":"992","Class":"2"},"geometry":{"x":121.37025516975744,"y":25.067541803336461}},{"attributes":{"OBJECTID":3861,"LANDMARKID":"1000100000793","LANDMARKCO":"203","LANDMARKNA":"縣立林口國中","LANDMARKAD":"1000117","ADDRESS":"新北市林口區頭湖150號","TEL":"02-26011969","COUNTYNAME":"新北市","TOWNNAME":"林口區","MARKTYPE":"992","Class":"2"},"geometry":{"x":121.37670023284839,"y":25.076912609688229}},{"attributes":{"OBJECTID":3862,"LANDMARKID":"1000100000794","LANDMARKCO":"203","LANDMARKNA":"縣立嘉寶國小","LANDMARKAD":"1000117","ADDRESS":"新北市林口區嘉寶村22號","TEL":"02-26012716","COUNTYNAME":"新北市","TOWNNAME":"林口區","MARKTYPE":"992","Class":"2"},"geometry":{"x":121.33899334997439,"y":25.108425594235506}},{"attributes":{"OBJECTID":3863,"LANDMARKID":"1000100000795","LANDMARKCO":"203","LANDMARKNA":"縣立南勢國小","LANDMARKAD":"1000117","ADDRESS":"新北市林口區南勢村南勢埔52號","TEL":"02-26011020","COUNTYNAME":"新北市","TOWNNAME":"林口區","MARKTYPE":"992","Class":"2"},"geometry":{"x":121.35878643173493,"y":25.075064271039388}},{"attributes":{"OBJECTID":3864,"LANDMARKID":"1000100000796","LANDMARKCO":"203","LANDMARKNA":"縣立瑞平國小","LANDMARKAD":"1000117","ADDRESS":"新北市林口區太平村後坑路34之1號","TEL":"02-26012779","COUNTYNAME":"新北市","TOWNNAME":"林口區","MARKTYPE":"992","Class":"2"},"geometry":{"x":121.34973193886405,"y":25.128618011610669}},{"attributes":{"OBJECTID":3865,"LANDMARKID":"1000100000455","LANDMARKCO":"201","LANDMARKNA":"國立僑生大學先修班","LANDMARKAD":"1000117","ADDRESS":"新北市林口區新寮46號1樓","TEL":"02-26012641","COUNTYNAME":"新北市","TOWNNAME":"林口區","MARKTYPE":"992","Class":"2"},"geometry":{"x":121.4018117222665,"y":25.068449988630253}},{"attributes":{"OBJECTID":3866,"LANDMARKID":"1000100000456","LANDMARKCO":"201","LANDMARKNA":"醒吾技術學院","LANDMARKAD":"1000117","ADDRESS":"新北市林口區粉寮路1段101號","TEL":"02-26015310","COUNTYNAME":"新北市","TOWNNAME":"林口區","MARKTYPE":"992","Class":"2"},"geometry":{"x":121.39762964636326,"y":25.080291933623489}},{"attributes":{"OBJECTID":3867,"LANDMARKID":"1000100000816","LANDMARKCO":"203","LANDMARKNA":"國立林口啟智學校","LANDMARKAD":"1000117","ADDRESS":"新北市林口區湖南村頭湖96號","TEL":"02-26006768","COUNTYNAME":"新北市","TOWNNAME":"林口區","MARKTYPE":"992","Class":"2"},"geometry":{"x":121.36535186982529,"y":25.078657031472968}},{"attributes":{"OBJECTID":3868,"LANDMARKID":"1000100001544","LANDMARKCO":"308","LANDMARKNA":"台61甲-八里交流道-南下","LANDMARKAD":"1000117","ADDRESS":"新北市八里區","TEL":" ","COUNTYNAME":"新北市","TOWNNAME":"林口區","MARKTYPE":"993","Class":"308"},"geometry":{"x":121.36304565105758,"y":25.134633542206878}},{"attributes":{"OBJECTID":3869,"LANDMARKID":"1000100001293","LANDMARKCO":"303","LANDMARKNA":"觀音寺停車場(一)","LANDMARKAD":"1000117","ADDRESS":" ","TEL":" ","COUNTYNAME":"新北市","TOWNNAME":"林口區","MARKTYPE":"993","Class":"303"},"geometry":{"x":121.38919537990586,"y":25.084718295455591}},{"attributes":{"OBJECTID":3870,"LANDMARKID":"1000100001294","LANDMARKCO":"303","LANDMARKNA":"觀音寺停車場(二)","LANDMARKAD":"1000117","ADDRESS":" ","TEL":" ","COUNTYNAME":"新北市","TOWNNAME":"林口區","MARKTYPE":"993","Class":"303"},"geometry":{"x":121.3902301458709,"y":25.084325577479568}},{"attributes":{"OBJECTID":3871,"LANDMARKID":"1000100001295","LANDMARKCO":"303","LANDMARKNA":"觀音寺停車場(三)","LANDMARKAD":"1000117","ADDRESS":" ","TEL":" ","COUNTYNAME":"新北市","TOWNNAME":"林口區","MARKTYPE":"993","Class":"303"},"geometry":{"x":121.39122429948415,"y":25.083741959963476}},{"attributes":{"OBJECTID":3872,"LANDMARKID":"1000100001296","LANDMARKCO":"303","LANDMARKNA":"停六停車場","LANDMARKAD":"1000117","ADDRESS":" ","TEL":" ","COUNTYNAME":"新北市","TOWNNAME":"林口區","MARKTYPE":"993","Class":"303"},"geometry":{"x":121.3947344747078,"y":25.075962000016908}},{"attributes":{"OBJECTID":3873,"LANDMARKID":"1000100001297","LANDMARKCO":"303","LANDMARKNA":"停三停車場","LANDMARKAD":"1000117","ADDRESS":"新北市林口區西林村中山路","TEL":" ","COUNTYNAME":"新北市","TOWNNAME":"林口區","MARKTYPE":"993","Class":"303"},"geometry":{"x":121.38941191859304,"y":25.078702353923319}},{"attributes":{"OBJECTID":3874,"LANDMARKID":"1000100001298","LANDMARKCO":"303","LANDMARKNA":"停五停車場","LANDMARKAD":"1000117","ADDRESS":"新北市林口區中山路","TEL":" ","COUNTYNAME":"新北市","TOWNNAME":"林口區","MARKTYPE":"993","Class":"303"},"geometry":{"x":121.39360382958637,"y":25.078357924855528}},{"attributes":{"OBJECTID":3875,"LANDMARKID":"1000100001299","LANDMARKCO":"303","LANDMARKNA":"停一停車場","LANDMARKAD":"1000117","ADDRESS":"新北市林口區竹林路","TEL":" ","COUNTYNAME":"新北市","TOWNNAME":"林口區","MARKTYPE":"993","Class":"303"},"geometry":{"x":121.38979228553183,"y":25.081984539838498}},{"attributes":{"OBJECTID":3876,"LANDMARKID":"1000100001300","LANDMARKCO":"303","LANDMARKNA":"林口區停車場","LANDMARKAD":"1000117","ADDRESS":"新北市林口區","TEL":" ","COUNTYNAME":"新北市","TOWNNAME":"林口區","MARKTYPE":"993","Class":"303"},"geometry":{"x":121.39510514628601,"y":25.075924387507875}},{"attributes":{"OBJECTID":3877,"LANDMARKID":"1000100001301","LANDMARKCO":"303","LANDMARKNA":"停七停車場","LANDMARKAD":"1000117","ADDRESS":"新北市林口區林口村仁愛路","TEL":" ","COUNTYNAME":"新北市","TOWNNAME":"林口區","MARKTYPE":"993","Class":"303"},"geometry":{"x":121.3838472781505,"y":25.075112692973136}},{"attributes":{"OBJECTID":3878,"LANDMARKID":"1000100002853","LANDMARKCO":"603","LANDMARKNA":"城市旅館","LANDMARKAD":"1000117","ADDRESS":"新北市林口區中山路97巷12號5樓","TEL":"02-86013347","COUNTYNAME":"新北市","TOWNNAME":"林口區","MARKTYPE":"996","Class":"6"},"geometry":{"x":121.38941908969787,"y":25.078754689364924}},{"attributes":{"OBJECTID":3879,"LANDMARKID":"1000100002564","LANDMARKCO":"504","LANDMARKNA":"永安雪屋森林樂園","LANDMARKAD":"1000117","ADDRESS":"新北市林口區下福村13之1號","TEL":"02-26099712","COUNTYNAME":"新北市","TOWNNAME":"林口區","MARKTYPE":"995","Class":"5"},"geometry":{"x":121.31801672274072,"y":25.105471470709094}},{"attributes":{"OBJECTID":3880,"LANDMARKID":"1000100002565","LANDMARKCO":"504","LANDMARKNA":"林口渡假村","LANDMARKAD":"1000117","ADDRESS":"新北市林口區下福村13之1號","TEL":"02-26099712","COUNTYNAME":"新北市","TOWNNAME":"林口區","MARKTYPE":"995","Class":"5"},"geometry":{"x":121.31898294634833,"y":25.105287835688205}},{"attributes":{"OBJECTID":3881,"LANDMARKID":"1000100002566","LANDMARKCO":"504","LANDMARKNA":"林口渡假村大門入口","LANDMARKAD":"1000117","ADDRESS":"新北市林口區下福村13之1號","TEL":"02-26099712","COUNTYNAME":"新北市","TOWNNAME":"林口區","MARKTYPE":"995","Class":"5"},"geometry":{"x":121.31898449120088,"y":25.105288622329923}},{"attributes":{"OBJECTID":3882,"LANDMARKID":"1000100002570","LANDMARKCO":"505","LANDMARKNA":"大自然花園遊樂區(停)","LANDMARKAD":"1000117","ADDRESS":"新北市林口區10之2號","TEL":" ","COUNTYNAME":"新北市","TOWNNAME":"林口區","MARKTYPE":"995","Class":"5"},"geometry":{"x":121.31413194763384,"y":25.111241501374082}},{"attributes":{"OBJECTID":3883,"LANDMARKID":"1000100002690","LANDMARKCO":"510","LANDMARKNA":"東華高爾夫球場","LANDMARKAD":"1000117","ADDRESS":"新北市林口區下福村東華路99號","TEL":"02-26061790","COUNTYNAME":"新北市","TOWNNAME":"林口區","MARKTYPE":"995","Class":"5"},"geometry":{"x":121.2864258267456,"y":25.112578217688874}},{"attributes":{"OBJECTID":3884,"LANDMARKID":"1000100002691","LANDMARKCO":"510","LANDMARKNA":"幸福高爾夫球場","LANDMARKAD":"1000117","ADDRESS":"新北市林口區下福村71-2號","TEL":"02-26062345","COUNTYNAME":"新北市","TOWNNAME":"林口區","MARKTYPE":"995","Class":"5"},"geometry":{"x":121.30510181172619,"y":25.107091353584511}},{"attributes":{"OBJECTID":3885,"LANDMARKID":"1000100002692","LANDMARKCO":"510","LANDMARKNA":"美麗華高爾夫球場","LANDMARKAD":"1000117","ADDRESS":"新北市林口區下福村下福路9號","TEL":"02-26063456","COUNTYNAME":"新北市","TOWNNAME":"林口區","MARKTYPE":"995","Class":"5"},"geometry":{"x":121.316489142937,"y":25.100299764943852}},{"attributes":{"OBJECTID":3886,"LANDMARKID":"1000100002693","LANDMARKCO":"510","LANDMARKNA":"八里國際高爾夫球場","LANDMARKAD":"1000117","ADDRESS":"新北市林口區嘉寶村寶斗厝里91號","TEL":"02-26052222","COUNTYNAME":"新北市","TOWNNAME":"林口區","MARKTYPE":"995","Class":"5"},"geometry":{"x":121.32546678437625,"y":25.115886263680416}},{"attributes":{"OBJECTID":3887,"LANDMARKID":"1000100002694","LANDMARKCO":"510","LANDMARKNA":"林口高爾夫球場","LANDMARKAD":"1000117","ADDRESS":"新北市林口區湖北村後湖50-1號","TEL":"02-26014104","COUNTYNAME":"新北市","TOWNNAME":"林口區","MARKTYPE":"995","Class":"5"},"geometry":{"x":121.38564249891184,"y":25.108811129410938}},{"attributes":{"OBJECTID":3888,"LANDMARKID":"1000100001913","LANDMARKCO":"405","LANDMARKNA":"中油加油站-昇易站","LANDMARKAD":"1000115","ADDRESS":"新北市五股區新五路二段129號","TEL":"02-22916276","COUNTYNAME":"新北市","TOWNNAME":"五股區","MARKTYPE":"994","Class":"4"},"geometry":{"x":121.43780556614789,"y":25.078218070945518}},{"attributes":{"OBJECTID":3889,"LANDMARKID":"1000100001914","LANDMARKCO":"405","LANDMARKNA":"中油加油站-北基中興路站","LANDMARKAD":"1000115","ADDRESS":"新北市五股區中興路2段1號","TEL":"02-8981-0170","COUNTYNAME":"新北市","TOWNNAME":"五股區","MARKTYPE":"994","Class":"4"},"geometry":{"x":121.46317416660924,"y":25.07412761693341}},{"attributes":{"OBJECTID":3890,"LANDMARKID":"1000100001915","LANDMARKCO":"405","LANDMARKNA":"中油加油站-上群站","LANDMARKAD":"1000115","ADDRESS":"新北市五股區新五路二段126號","TEL":"02-22927872","COUNTYNAME":"新北市","TOWNNAME":"五股區","MARKTYPE":"994","Class":"4"},"geometry":{"x":121.43829375846336,"y":25.077990630162045}},{"attributes":{"OBJECTID":3891,"LANDMARKID":"1000100001916","LANDMARKCO":"405","LANDMARKNA":"中油加油站-中華成泰站","LANDMARKAD":"1000115","ADDRESS":"新北市五股區成泰路一段76號","TEL":"09-82926529","COUNTYNAME":"新北市","TOWNNAME":"五股區","MARKTYPE":"994","Class":"4"},"geometry":{"x":121.43598564243071,"y":25.070473274940205}},{"attributes":{"OBJECTID":3892,"LANDMARKID":"1000100001917","LANDMARKCO":"405","LANDMARKNA":"中油加油站-五股站(中油直營)","LANDMARKAD":"1000115","ADDRESS":"新北市五股區中興路四段21號","TEL":"02-22917541","COUNTYNAME":"新北市","TOWNNAME":"五股區","MARKTYPE":"994","Class":"4"},"geometry":{"x":121.43903405990201,"y":25.082537559103375}},{"attributes":{"OBJECTID":3893,"LANDMARKID":"1000100001918","LANDMARKCO":"405","LANDMARKNA":"中油加油站-車容坊站","LANDMARKAD":"1000115","ADDRESS":"新北市五股區新五路二段371號","TEL":"02-22939662","COUNTYNAME":"新北市","TOWNNAME":"五股區","MARKTYPE":"994","Class":"4"},"geometry":{"x":121.44207463223982,"y":25.085179845191725}},{"attributes":{"OBJECTID":3894,"LANDMARKID":"1000100001919","LANDMARKCO":"405","LANDMARKNA":"中油加油站-聯華五股站","LANDMARKAD":"1000115","ADDRESS":"新北市五股區成泰路二段250號","TEL":"02-82923939","COUNTYNAME":"新北市","TOWNNAME":"五股區","MARKTYPE":"994","Class":"4"},"geometry":{"x":121.44029442337852,"y":25.087067876277114}},{"attributes":{"OBJECTID":3895,"LANDMARKID":"1000100002617","LANDMARKCO":"507","LANDMARKNA":"五股西雲寺","LANDMARKAD":"1000115","ADDRESS":"新北市五股區成州村西雲路179巷3號","TEL":" ","COUNTYNAME":"新北市","TOWNNAME":"五股區","MARKTYPE":"995","Class":"5"},"geometry":{"x":121.4462904449461,"y":25.094671476502789}},{"attributes":{"OBJECTID":3896,"LANDMARKID":"1000100002727","LANDMARKCO":"512","LANDMARKNA":"觀音山旅客服務中心","LANDMARKAD":"1000115","ADDRESS":"新北市五股區凌雲路三段130號","TEL":"02-22928888","COUNTYNAME":"新北市","TOWNNAME":"五股區","MARKTYPE":"995","Class":"5"},"geometry":{"x":121.41814327073055,"y":25.129355652283639}},{"attributes":{"OBJECTID":3897,"LANDMARKID":"1000100002415","LANDMARKCO":"408","LANDMARKNA":"郵局-五股郵局","LANDMARKAD":"1000115","ADDRESS":"新北市五股區成泰路3段541號","TEL":"(02)8295-1026","COUNTYNAME":"新北市","TOWNNAME":"五股區","MARKTYPE":"994","Class":"4"},"geometry":{"x":121.45164207085593,"y":25.101653089214704}},{"attributes":{"OBJECTID":3898,"LANDMARKID":"1000100002416","LANDMARKCO":"408","LANDMARKNA":"郵局-五股褒仔寮郵局","LANDMARKAD":"1000115","ADDRESS":"新北市五股區中興路1段5號","TEL":"(02)2988-7489","COUNTYNAME":"新北市","TOWNNAME":"五股區","MARKTYPE":"994","Class":"4"},"geometry":{"x":121.46892932307094,"y":25.072306948874864}},{"attributes":{"OBJECTID":3899,"LANDMARKID":"1000100002417","LANDMARKCO":"408","LANDMARKNA":"郵局-五股中興路郵局","LANDMARKAD":"1000115","ADDRESS":"新北市五股區中興路4段48巷15號","TEL":"(02)2291-7490","COUNTYNAME":"新北市","TOWNNAME":"五股區","MARKTYPE":"994","Class":"4"},"geometry":{"x":121.43835439226255,"y":25.083443469978949}},{"attributes":{"OBJECTID":3900,"LANDMARKID":"1000100002418","LANDMARKCO":"408","LANDMARKNA":"郵局-五股德音郵局","LANDMARKAD":"1000115","ADDRESS":"新北市五股區成泰路1段77號","TEL":"(02)2909-7191","COUNTYNAME":"新北市","TOWNNAME":"五股區","MARKTYPE":"994","Class":"4"},"geometry":{"x":121.43455954266679,"y":25.067716637467701}},{"attributes":{"OBJECTID":3901,"LANDMARKID":"1000100002454","LANDMARKCO":"409","LANDMARKNA":"新北市五股區農會","LANDMARKAD":"1000115","ADDRESS":"新北市五股區民義路一段13號","TEL":"02-22914060","COUNTYNAME":"新北市","TOWNNAME":"五股區","MARKTYPE":"994","Class":"4"},"geometry":{"x":121.43721360018947,"y":25.083376992039991}},{"attributes":{"OBJECTID":3902,"LANDMARKID":"1000100002251","LANDMARKCO":"406","LANDMARKNA":"獅子公園","LANDMARKAD":"1000115","ADDRESS":"新北市五股區","TEL":" ","COUNTYNAME":"新北市","TOWNNAME":"五股區","MARKTYPE":"994","Class":"4"},"geometry":{"x":121.41954516569058,"y":25.129205807573879}},{"attributes":{"OBJECTID":3903,"LANDMARKID":"1000100002252","LANDMARKCO":"406","LANDMARKNA":"徨宗公園","LANDMARKAD":"1000115","ADDRESS":"新北市五股區","TEL":" ","COUNTYNAME":"新北市","TOWNNAME":"五股區","MARKTYPE":"994","Class":"4"},"geometry":{"x":121.42691890701381,"y":25.076514640353533}},{"attributes":{"OBJECTID":3904,"LANDMARKID":"1000100002265","LANDMARKCO":"407","LANDMARKNA":"先施百貨","LANDMARKAD":"1000115","ADDRESS":"新北市五股區五工二路106巷1號2樓","TEL":"02-22982524","COUNTYNAME":"新北市","TOWNNAME":"五股區","MARKTYPE":"994","Class":"4"},"geometry":{"x":121.45759242750135,"y":25.068665815355043}},{"attributes":{"OBJECTID":3905,"LANDMARKID":"1000100001905","LANDMARKCO":"405","LANDMARKNA":"台塑加油站-信誠站(台塑)","LANDMARKAD":"1000115","ADDRESS":"新北市五股區中興路四段1號","TEL":"02-22966556","COUNTYNAME":"新北市","TOWNNAME":"五股區","MARKTYPE":"994","Class":"4"},"geometry":{"x":121.44018118803383,"y":25.082006252212768}},{"attributes":{"OBJECTID":3906,"LANDMARKID":"1000100000101","LANDMARKCO":"103","LANDMARKNA":"新北市五股區衛生所","LANDMARKAD":"1000115","ADDRESS":"新北市五股區中興路四段67-1號","TEL":"02-22929849","COUNTYNAME":"新北市","TOWNNAME":"五股區","MARKTYPE":"991","Class":"1"},"geometry":{"x":121.43750437424684,"y":25.083517118982776}},{"attributes":{"OBJECTID":3907,"LANDMARKID":"1000100000404","LANDMARKCO":"108","LANDMARKNA":"新北市五股區公所","LANDMARKAD":"1000115","ADDRESS":"新北市五股區中興路四段50號","TEL":"02-22916051","COUNTYNAME":"新北市","TOWNNAME":"五股區","MARKTYPE":"991","Class":"1"},"geometry":{"x":121.43789765642445,"y":25.08306341770955}},{"attributes":{"OBJECTID":3908,"LANDMARKID":"1000100000400","LANDMARKCO":"107","LANDMARKNA":"新北市消防局五股分隊","LANDMARKAD":"1000115","ADDRESS":"新北市五股區工商路1號","TEL":"02-22921119","COUNTYNAME":"新北市","TOWNNAME":"五股區","MARKTYPE":"991","Class":"1"},"geometry":{"x":121.43980642687703,"y":25.082428343217217}},{"attributes":{"OBJECTID":3909,"LANDMARKID":"1000100000401","LANDMARKCO":"107","LANDMARKNA":"新北市政府警察局更寮派出所","LANDMARKAD":"1000115","ADDRESS":"新北市五股區中興路二段147號","TEL":"02-29711126","COUNTYNAME":"新北市","TOWNNAME":"五股區","MARKTYPE":"991","Class":"1"},"geometry":{"x":121.45910467475422,"y":25.077946443263762}},{"attributes":{"OBJECTID":3910,"LANDMARKID":"1000100000402","LANDMARKCO":"107","LANDMARKNA":"新北市政府警察局成洲派出所","LANDMARKAD":"1000115","ADDRESS":"新北市五股區成州村成泰路三段539號","TEL":"02-22913334","COUNTYNAME":"新北市","TOWNNAME":"五股區","MARKTYPE":"991","Class":"1"},"geometry":{"x":121.45148128663612,"y":25.101169921964171}},{"attributes":{"OBJECTID":3911,"LANDMARKID":"1000100000403","LANDMARKCO":"107","LANDMARKNA":"新北市政府警察局五股分駐所","LANDMARKAD":"1000115","ADDRESS":"新北市五股區五股村中興路四段67號","TEL":"02-22916948","COUNTYNAME":"新北市","TOWNNAME":"五股區","MARKTYPE":"991","Class":"1"},"geometry":{"x":121.43792803829943,"y":25.08315352069819}},{"attributes":{"OBJECTID":3912,"LANDMARKID":"1000100000142","LANDMARKCO":"106","LANDMARKNA":"新北市五股區戶政事務所","LANDMARKAD":"1000115","ADDRESS":"新北市五股區中興路四段70號","TEL":"02-22916698","COUNTYNAME":"新北市","TOWNNAME":"五股區","MARKTYPE":"991","Class":"1"},"geometry":{"x":121.43673115202756,"y":25.083521673413568}},{"attributes":{"OBJECTID":3913,"LANDMARKID":"1000100000102","LANDMARKCO":"103","LANDMARKNA":"新北市五股區鄉民代表會","LANDMARKAD":"1000115","ADDRESS":"新北市五新北市股鄉成泰路二段49號2樓","TEL":"02-22915605","COUNTYNAME":"新北市","TOWNNAME":"五股區","MARKTYPE":"991","Class":"1"},"geometry":{"x":121.43741796976147,"y":25.082524554907945}},{"attributes":{"OBJECTID":3914,"LANDMARKID":"1000100000824","LANDMARKCO":"204","LANDMARKNA":"新北市立圖書館五股分館","LANDMARKAD":"1000115","ADDRESS":"新北市五股區工商路1號3樓","TEL":" ","COUNTYNAME":"新北市","TOWNNAME":"五股區","MARKTYPE":"992","Class":"2"},"geometry":{"x":121.43971654027018,"y":25.082533614628876}},{"attributes":{"OBJECTID":3915,"LANDMARKID":"1000100000825","LANDMARKCO":"204","LANDMARKNA":"新北市立圖書館成州分館","LANDMARKAD":"1000115","ADDRESS":"新北市五股區西雲路267號2樓","TEL":" ","COUNTYNAME":"新北市","TOWNNAME":"五股區","MARKTYPE":"992","Class":"2"},"geometry":{"x":121.44777680581133,"y":25.095965035517636}},{"attributes":{"OBJECTID":3916,"LANDMARKID":"1000100000817","LANDMARKCO":"203","LANDMARKNA":"縣立五股國中","LANDMARKAD":"1000115","ADDRESS":"新北市五股區成泰路二段49巷15號","TEL":"02-22915241","COUNTYNAME":"新北市","TOWNNAME":"五股區","MARKTYPE":"992","Class":"2"},"geometry":{"x":121.43530515839181,"y":25.082348278400598}},{"attributes":{"OBJECTID":3917,"LANDMARKID":"1000100000818","LANDMARKCO":"203","LANDMARKNA":"縣立更寮國小","LANDMARKAD":"1000115","ADDRESS":"新北市五股區四維路2號","TEL":"02-29824591","COUNTYNAME":"新北市","TOWNNAME":"五股區","MARKTYPE":"992","Class":"2"},"geometry":{"x":121.46801789603957,"y":25.070062295447762}},{"attributes":{"OBJECTID":3918,"LANDMARKID":"1000100000819","LANDMARKCO":"203","LANDMARKNA":"縣立五股國小","LANDMARKAD":"1000115","ADDRESS":"新北市五股區五股村成泰路二段49號","TEL":"02-22917191","COUNTYNAME":"新北市","TOWNNAME":"五股區","MARKTYPE":"992","Class":"2"},"geometry":{"x":121.43683501485643,"y":25.082798835243178}},{"attributes":{"OBJECTID":3919,"LANDMARKID":"1000100000820","LANDMARKCO":"203","LANDMARKNA":"縣立成州國小","LANDMARKAD":"1000115","ADDRESS":"新北市五股區成泰路三段493號","TEL":"02-22933613","COUNTYNAME":"新北市","TOWNNAME":"五股區","MARKTYPE":"992","Class":"2"},"geometry":{"x":121.45018140807011,"y":25.099643064286255}},{"attributes":{"OBJECTID":3920,"LANDMARKID":"1000100000821","LANDMARKCO":"203","LANDMARKNA":"縣立德音國小","LANDMARKAD":"1000115","ADDRESS":"新北市五股區明德路2號","TEL":"02-22924152","COUNTYNAME":"新北市","TOWNNAME":"五股區","MARKTYPE":"992","Class":"2"},"geometry":{"x":121.43485406729241,"y":25.071878310058654}},{"attributes":{"OBJECTID":3921,"LANDMARKID":"1000100000822","LANDMARKCO":"203","LANDMARKNA":"成州國小附設幼稚園","LANDMARKAD":"1000115","ADDRESS":"新北市五股區成泰路三段493號","TEL":"02-22933613#72","COUNTYNAME":"新北市","TOWNNAME":"五股區","MARKTYPE":"992","Class":"2"},"geometry":{"x":121.45031029716084,"y":25.099642281236772}},{"attributes":{"OBJECTID":3922,"LANDMARKID":"1000100000823","LANDMARKCO":"203","LANDMARKNA":"縣立德觀國小","LANDMARKAD":"1000115","ADDRESS":"新北市五股區","TEL":" ","COUNTYNAME":"新北市","TOWNNAME":"五股區","MARKTYPE":"992","Class":"2"},"geometry":{"x":121.43478311818861,"y":25.070253646117596}},{"attributes":{"OBJECTID":3923,"LANDMARKID":"1000100001545","LANDMARKCO":"308","LANDMARKNA":"國1-五股交流道-南下","LANDMARKAD":"1000115","ADDRESS":"新北市五股區","TEL":" ","COUNTYNAME":"新北市","TOWNNAME":"五股區","MARKTYPE":"993","Class":"308"},"geometry":{"x":121.43901854339462,"y":25.06932963147883}},{"attributes":{"OBJECTID":3924,"LANDMARKID":"1000100001546","LANDMARKCO":"308","LANDMARKNA":"國1-五股交流道-北上","LANDMARKAD":"1000115","ADDRESS":"新北市五股區","TEL":" ","COUNTYNAME":"新北市","TOWNNAME":"五股區","MARKTYPE":"993","Class":"308"},"geometry":{"x":121.4488827250059,"y":25.07143173987588}},{"attributes":{"OBJECTID":3925,"LANDMARKID":"1000100001547","LANDMARKCO":"308","LANDMARKNA":"國1-五股交流道-北上","LANDMARKAD":"1000115","ADDRESS":"新北市五股區","TEL":" ","COUNTYNAME":"新北市","TOWNNAME":"五股區","MARKTYPE":"993","Class":"308"},"geometry":{"x":121.4368598456286,"y":25.07152313546818}},{"attributes":{"OBJECTID":3926,"LANDMARKID":"1000100001548","LANDMARKCO":"308","LANDMARKNA":"國1-五股交流道-南下","LANDMARKAD":"1000115","ADDRESS":"新北市五股區","TEL":" ","COUNTYNAME":"新北市","TOWNNAME":"五股區","MARKTYPE":"993","Class":"308"},"geometry":{"x":121.43678494930923,"y":25.071513092676664}},{"attributes":{"OBJECTID":3927,"LANDMARKID":"1000100001549","LANDMARKCO":"308","LANDMARKNA":"台64-觀音山交流道-東行","LANDMARKAD":"1000115","ADDRESS":"新北市五股區","TEL":" ","COUNTYNAME":"新北市","TOWNNAME":"五股區","MARKTYPE":"993","Class":"308"},"geometry":{"x":121.42940640633917,"y":25.108466432243723}},{"attributes":{"OBJECTID":3928,"LANDMARKID":"1000100001550","LANDMARKCO":"308","LANDMARKNA":"台64-觀音山交流道-西行","LANDMARKAD":"1000115","ADDRESS":"新北市五股區","TEL":" ","COUNTYNAME":"新北市","TOWNNAME":"五股區","MARKTYPE":"993","Class":"308"},"geometry":{"x":121.42892640063587,"y":25.108988993026131}},{"attributes":{"OBJECTID":3929,"LANDMARKID":"1000100000953","LANDMARKCO":"302","LANDMARKNA":"三重汽車客運陸光站","LANDMARKAD":"1000115","ADDRESS":"新北市五股區民義路一段247號之1","TEL":" ","COUNTYNAME":"新北市","TOWNNAME":"五股區","MARKTYPE":"993","Class":"302"},"geometry":{"x":121.42853142145397,"y":25.090618981639306}},{"attributes":{"OBJECTID":3930,"LANDMARKID":"1000100001286","LANDMARKCO":"303","LANDMARKNA":"新北市工商展覽中心地下停車場","LANDMARKAD":"1000115","ADDRESS":" ","TEL":"02-22996688","COUNTYNAME":"新北市","TOWNNAME":"五股區","MARKTYPE":"993","Class":"303"},"geometry":{"x":121.44801337062111,"y":25.064823460650526}},{"attributes":{"OBJECTID":3931,"LANDMARKID":"1000100001287","LANDMARKCO":"303","LANDMARKNA":"疏洪蘆堤公園停車場","LANDMARKAD":"1000115","ADDRESS":"新北市五股區疏洪一路(疏洪蘆堤公園內)","TEL":" ","COUNTYNAME":"新北市","TOWNNAME":"五股區","MARKTYPE":"993","Class":"303"},"geometry":{"x":121.45249541296614,"y":25.084805510930664}},{"attributes":{"OBJECTID":3932,"LANDMARKID":"1000100001288","LANDMARKCO":"303","LANDMARKNA":"堤七停車場","LANDMARKAD":"1000115","ADDRESS":" ","TEL":" ","COUNTYNAME":"新北市","TOWNNAME":"五股區","MARKTYPE":"993","Class":"303"},"geometry":{"x":121.45805156375546,"y":25.070940418972587}},{"attributes":{"OBJECTID":3933,"LANDMARKID":"1000100001289","LANDMARKCO":"303","LANDMARKNA":"五股區綜合停車場","LANDMARKAD":"1000115","ADDRESS":"新北市五股區","TEL":" ","COUNTYNAME":"新北市","TOWNNAME":"五股區","MARKTYPE":"993","Class":"303"},"geometry":{"x":121.43943640108787,"y":25.082535654168943}},{"attributes":{"OBJECTID":3934,"LANDMARKID":"1000100001290","LANDMARKCO":"303","LANDMARKNA":"工商路立體停車場","LANDMARKAD":"1000115","ADDRESS":"新北市五股區五股村工商路","TEL":" ","COUNTYNAME":"新北市","TOWNNAME":"五股區","MARKTYPE":"993","Class":"303"},"geometry":{"x":121.43535515834476,"y":25.086512044148257}},{"attributes":{"OBJECTID":3935,"LANDMARKID":"1000100001291","LANDMARKCO":"303","LANDMARKNA":"觀音山風景區管理所停車場","LANDMARKAD":"1000115","ADDRESS":"新北市五股區凌雲路三段130號","TEL":" ","COUNTYNAME":"新北市","TOWNNAME":"五股區","MARKTYPE":"993","Class":"303"},"geometry":{"x":121.41824521284724,"y":25.128635473469892}},{"attributes":{"OBJECTID":3936,"LANDMARKID":"1000100001292","LANDMARKCO":"303","LANDMARKNA":"永固停車場-五股站","LANDMARKAD":"1000115","ADDRESS":"新北市五股區中興路一段10號地下1.2樓","TEL":" ","COUNTYNAME":"新北市","TOWNNAME":"五股區","MARKTYPE":"993","Class":"303"},"geometry":{"x":121.46875821568753,"y":25.072541489500509}},{"attributes":{"OBJECTID":3937,"LANDMARKID":"1000100001906","LANDMARKCO":"405","LANDMARKNA":"中油加油站-瑞隆加油站站","LANDMARKAD":"1000112","ADDRESS":"新北市瑞芳區魚坑路356號","TEL":"02-2496-6190","COUNTYNAME":"新北市","TOWNNAME":"瑞芳區","MARKTYPE":"994","Class":"4"},"geometry":{"x":121.78051237958752,"y":25.097439676837112}},{"attributes":{"OBJECTID":3938,"LANDMARKID":"1000100001907","LANDMARKCO":"405","LANDMARKNA":"台灣優力加油站-瑞芳服務站(中油)","LANDMARKAD":"1000112","ADDRESS":"新北市瑞芳區魚坑路331號","TEL":"02-2497-8420","COUNTYNAME":"新北市","TOWNNAME":"瑞芳區","MARKTYPE":"994","Class":"4"},"geometry":{"x":121.7933215129044,"y":25.103167197185559}},{"attributes":{"OBJECTID":3939,"LANDMARKID":"1000100001908","LANDMARKCO":"405","LANDMARKNA":"中油加油站-海濱站(中油直營)","LANDMARKAD":"1000112","ADDRESS":"新北市瑞芳區海濱路157-2號","TEL":"02-24973124","COUNTYNAME":"新北市","TOWNNAME":"瑞芳區","MARKTYPE":"994","Class":"4"},"geometry":{"x":121.7994589119774,"y":25.119658132548366}},{"attributes":{"OBJECTID":3940,"LANDMARKID":"1000100001909","LANDMARKCO":"405","LANDMARKNA":"中油加油站-林長站","LANDMARKAD":"1000112","ADDRESS":"新北市瑞芳區瑞濱路32-6號","TEL":"02-24966888","COUNTYNAME":"新北市","TOWNNAME":"瑞芳區","MARKTYPE":"994","Class":"4"},"geometry":{"x":121.82351087299797,"y":25.121215906807052}},{"attributes":{"OBJECTID":3941,"LANDMARKID":"1000100001910","LANDMARKCO":"405","LANDMARKNA":"中油加油站-瑞泉站","LANDMARKAD":"1000112","ADDRESS":"新北市瑞芳區桀魚坑路1號","TEL":"02-24960890","COUNTYNAME":"新北市","TOWNNAME":"瑞芳區","MARKTYPE":"994","Class":"4"},"geometry":{"x":121.79481796918432,"y":25.110339058281262}},{"attributes":{"OBJECTID":3942,"LANDMARKID":"1000100001911","LANDMARKCO":"405","LANDMARKNA":"中油加油站-本泉站","LANDMARKAD":"1000112","ADDRESS":"新北市瑞芳區大寮路93號之3","TEL":"02-24966163","COUNTYNAME":"新北市","TOWNNAME":"瑞芳區","MARKTYPE":"994","Class":"4"},"geometry":{"x":121.79486305139962,"y":25.110351797534214}},{"attributes":{"OBJECTID":3943,"LANDMARKID":"1000100001912","LANDMARKCO":"405","LANDMARKNA":"中油加油站-瑞芳站(中油直營)","LANDMARKAD":"1000112","ADDRESS":"新北市瑞芳區中山路200號","TEL":"02-24972341","COUNTYNAME":"新北市","TOWNNAME":"瑞芳區","MARKTYPE":"994","Class":"4"},"geometry":{"x":121.80121215574704,"y":25.106960516086641}},{"attributes":{"OBJECTID":3944,"LANDMARKID":"1000100001593","LANDMARKCO":"401","LANDMARKNA":"財團法人台灣區煤礦礦工福利委員會瑞芳","LANDMARKAD":"1000112","ADDRESS":"新北市瑞芳區一坑路71之2號","TEL":"02-24974101","COUNTYNAME":"新北市","TOWNNAME":"瑞芳區","MARKTYPE":"994","Class":"4"},"geometry":{"x":121.80212821624609,"y":25.108618493519756}},{"attributes":{"OBJECTID":3945,"LANDMARKID":"1000100002618","LANDMARKCO":"507","LANDMARKNA":"金字碑","LANDMARKAD":"1000112","ADDRESS":"新北市瑞芳區猴硐里三貂嶺頭","TEL":" ","COUNTYNAME":"新北市","TOWNNAME":"瑞芳區","MARKTYPE":"995","Class":"5"},"geometry":{"x":121.8454746710232,"y":25.089636001342921}},{"attributes":{"OBJECTID":3946,"LANDMARKID":"1000100002411","LANDMARKCO":"408","LANDMARKNA":"郵局-瑞芳郵局","LANDMARKAD":"1000112","ADDRESS":"新北市瑞芳區中正路13號","TEL":"(02)2497-2158","COUNTYNAME":"新北市","TOWNNAME":"瑞芳區","MARKTYPE":"994","Class":"4"},"geometry":{"x":121.80828818154187,"y":25.106952210004042}},{"attributes":{"OBJECTID":3947,"LANDMARKID":"1000100002412","LANDMARKCO":"408","LANDMARKNA":"郵局-瑞芳九份郵局","LANDMARKAD":"1000112","ADDRESS":"新北市瑞芳區基山街84號","TEL":"(02)2497-2854","COUNTYNAME":"新北市","TOWNNAME":"瑞芳區","MARKTYPE":"994","Class":"4"},"geometry":{"x":121.84654827010338,"y":25.109389083535032}},{"attributes":{"OBJECTID":3948,"LANDMARKID":"1000100002413","LANDMARKCO":"408","LANDMARKNA":"郵局-瑞芳四腳亭郵局","LANDMARKAD":"1000112","ADDRESS":"新北市瑞芳區大埔路132-1號","TEL":"(02)2457-7730","COUNTYNAME":"新北市","TOWNNAME":"瑞芳區","MARKTYPE":"994","Class":"4"},"geometry":{"x":121.76168076673088,"y":25.100608155688008}},{"attributes":{"OBJECTID":3949,"LANDMARKID":"1000100002414","LANDMARKCO":"408","LANDMARKNA":"郵局-瑞芳金瓜石郵局","LANDMARKAD":"1000112","ADDRESS":"新北市瑞芳區金光路51-1號","TEL":"(02)2496-1419","COUNTYNAME":"新北市","TOWNNAME":"瑞芳區","MARKTYPE":"994","Class":"4"},"geometry":{"x":121.85774003857692,"y":25.108284460562796}},{"attributes":{"OBJECTID":3950,"LANDMARKID":"1000100002455","LANDMARKCO":"409","LANDMARKNA":"新北市瑞芳地區農會","LANDMARKAD":"1000112","ADDRESS":"新北市瑞芳區逢甲路39號","TEL":"02-24972760-3","COUNTYNAME":"新北市","TOWNNAME":"瑞芳區","MARKTYPE":"994","Class":"4"},"geometry":{"x":121.80882161666057,"y":25.108892775081593}},{"attributes":{"OBJECTID":3951,"LANDMARKID":"1000100002456","LANDMARKCO":"409","LANDMARKNA":"瑞芳區漁會","LANDMARKAD":"1000112","ADDRESS":"新北市瑞芳區深澳路12號","TEL":"02-24972815","COUNTYNAME":"新北市","TOWNNAME":"瑞芳區","MARKTYPE":"994","Class":"4"},"geometry":{"x":121.81670528993827,"y":25.129174867536531}},{"attributes":{"OBJECTID":3952,"LANDMARKID":"1000100001885","LANDMARKCO":"404","LANDMARKNA":"台灣省自來水瑞芳營運所","LANDMARKAD":"1000112","ADDRESS":"新北市瑞芳區三爪子坑路13巷5號","TEL":" ","COUNTYNAME":"新北市","TOWNNAME":"瑞芳區","MARKTYPE":"994","Class":"4"},"geometry":{"x":121.81411888736784,"y":25.107578507058616}},{"attributes":{"OBJECTID":3953,"LANDMARKID":"1000100002253","LANDMARKCO":"406","LANDMARKNA":"瑞芳公園","LANDMARKAD":"1000112","ADDRESS":"新北市瑞芳區","TEL":" ","COUNTYNAME":"新北市","TOWNNAME":"瑞芳區","MARKTYPE":"994","Class":"4"},"geometry":{"x":121.82019808812815,"y":25.108847924629021}},{"attributes":{"OBJECTID":3954,"LANDMARKID":"1000100002254","LANDMARKCO":"406","LANDMARKNA":"長仁公園","LANDMARKAD":"1000112","ADDRESS":"新北市瑞芳區","TEL":" ","COUNTYNAME":"新北市","TOWNNAME":"瑞芳區","MARKTYPE":"994","Class":"4"},"geometry":{"x":121.86610849093549,"y":25.120639810342453}},{"attributes":{"OBJECTID":3955,"LANDMARKID":"1000100002255","LANDMARKCO":"406","LANDMARKNA":"瓜山公園","LANDMARKAD":"1000112","ADDRESS":"新北市瑞芳區","TEL":" ","COUNTYNAME":"新北市","TOWNNAME":"瑞芳區","MARKTYPE":"994","Class":"4"},"geometry":{"x":121.85391622930319,"y":25.111467148459941}},{"attributes":{"OBJECTID":3956,"LANDMARKID":"1000100002256","LANDMARKCO":"406","LANDMARKNA":"新山公園","LANDMARKAD":"1000112","ADDRESS":"新北市瑞芳區","TEL":" ","COUNTYNAME":"新北市","TOWNNAME":"瑞芳區","MARKTYPE":"994","Class":"4"},"geometry":{"x":121.85276160427318,"y":25.107776818641454}},{"attributes":{"OBJECTID":3957,"LANDMARKID":"1000100002257","LANDMARKCO":"406","LANDMARKNA":"頌德公園","LANDMARKAD":"1000112","ADDRESS":"新北市瑞芳區","TEL":" ","COUNTYNAME":"新北市","TOWNNAME":"瑞芳區","MARKTYPE":"994","Class":"4"},"geometry":{"x":121.83829922577722,"y":25.107926222929756}},{"attributes":{"OBJECTID":3958,"LANDMARKID":"1000100000099","LANDMARKCO":"103","LANDMARKNA":"新北市瑞芳區衛生所","LANDMARKAD":"1000112","ADDRESS":"新北市瑞芳區明燈路三段1號","TEL":"02-24972132","COUNTYNAME":"新北市","TOWNNAME":"瑞芳區","MARKTYPE":"991","Class":"1"},"geometry":{"x":121.80899060575166,"y":25.107325345511153}},{"attributes":{"OBJECTID":3959,"LANDMARKID":"1000100000405","LANDMARKCO":"108","LANDMARKNA":"新北市瑞芳區公所","LANDMARKAD":"1000112","ADDRESS":"新北市瑞芳區逢甲路82號","TEL":"02-24972250","COUNTYNAME":"新北市","TOWNNAME":"瑞芳區","MARKTYPE":"991","Class":"1"},"geometry":{"x":121.8100533189458,"y":25.10884840172924}},{"attributes":{"OBJECTID":3960,"LANDMARKID":"1000100000100","LANDMARKCO":"103","LANDMARKNA":"新北市瑞芳區鎮民代表會","LANDMARKAD":"1000112","ADDRESS":"新北市瑞芳區逢甲路82號3樓","TEL":"02-24972163","COUNTYNAME":"新北市","TOWNNAME":"瑞芳區","MARKTYPE":"991","Class":"1"},"geometry":{"x":121.80989707465788,"y":25.10903066799732}},{"attributes":{"OBJECTID":3961,"LANDMARKID":"1000100000392","LANDMARKCO":"107","LANDMARKNA":"新北市消防局瑞芳分隊","LANDMARKAD":"1000112","ADDRESS":"新北市瑞芳區明燈路三段25號","TEL":"02-24971600","COUNTYNAME":"新北市","TOWNNAME":"瑞芳區","MARKTYPE":"991","Class":"1"},"geometry":{"x":121.80794200052945,"y":25.10750222345871}},{"attributes":{"OBJECTID":3962,"LANDMARKID":"1000100000393","LANDMARKCO":"107","LANDMARKNA":"新北市政府警察局瑞芳分局","LANDMARKAD":"1000112","ADDRESS":"新北市瑞芳區龍興里明燈路三段25號","TEL":"02-24062602","COUNTYNAME":"新北市","TOWNNAME":"瑞芳區","MARKTYPE":"991","Class":"1"},"geometry":{"x":121.80766440954731,"y":25.107505247751732}},{"attributes":{"OBJECTID":3963,"LANDMARKID":"1000100000394","LANDMARKCO":"107","LANDMARKNA":"新北市政府警察局四腳亭派出所","LANDMARKAD":"1000112","ADDRESS":"新北市瑞芳區吉慶里瑞竹路124號","TEL":"02-24576947","COUNTYNAME":"新北市","TOWNNAME":"瑞芳區","MARKTYPE":"991","Class":"1"},"geometry":{"x":121.76199967042034,"y":25.104052435427356}},{"attributes":{"OBJECTID":3964,"LANDMARKID":"1000100000395","LANDMARKCO":"107","LANDMARKNA":"新北市政府警察局金瓜石派出所","LANDMARKAD":"1000112","ADDRESS":"新北市瑞芳區瓜山里金光路51號","TEL":"02-24961528","COUNTYNAME":"新北市","TOWNNAME":"瑞芳區","MARKTYPE":"991","Class":"1"},"geometry":{"x":121.85586824300162,"y":25.108688898285724}},{"attributes":{"OBJECTID":3965,"LANDMARKID":"1000100000396","LANDMARKCO":"107","LANDMARKNA":"新北市政府警察局瑞濱派出所","LANDMARKAD":"1000112","ADDRESS":"新北市瑞芳區瑞濱里建基路一段5之1號","TEL":"02-24972009","COUNTYNAME":"新北市","TOWNNAME":"瑞芳區","MARKTYPE":"991","Class":"1"},"geometry":{"x":121.81860757892122,"y":25.126674884546375}},{"attributes":{"OBJECTID":3966,"LANDMARKID":"1000100000397","LANDMARKCO":"107","LANDMARKNA":"新北市政府警察局侯硐派出所","LANDMARKAD":"1000112","ADDRESS":"新北市瑞芳區弓橋里九芎橋路96號","TEL":"02-24972527","COUNTYNAME":"新北市","TOWNNAME":"瑞芳區","MARKTYPE":"991","Class":"1"},"geometry":{"x":121.83356002259544,"y":25.094462543267266}},{"attributes":{"OBJECTID":3967,"LANDMARKID":"1000100000398","LANDMARKCO":"107","LANDMARKNA":"新北市政府警察局水湳洞派出所","LANDMARKAD":"1000112","ADDRESS":"新北市瑞芳區濂洞里洞頂路8號","TEL":"02-24961529","COUNTYNAME":"新北市","TOWNNAME":"瑞芳區","MARKTYPE":"991","Class":"1"},"geometry":{"x":121.86214788205297,"y":25.12155781612071}},{"attributes":{"OBJECTID":3968,"LANDMARKID":"1000100000399","LANDMARKCO":"107","LANDMARKNA":"新北市政府警察局瑞芳派出所","LANDMARKAD":"1000112","ADDRESS":"新北市瑞芳區龍興里明燈路三段25號","TEL":"02-24972141","COUNTYNAME":"新北市","TOWNNAME":"瑞芳區","MARKTYPE":"991","Class":"1"},"geometry":{"x":121.80769415108833,"y":25.107504924166239}},{"attributes":{"OBJECTID":3969,"LANDMARKID":"1000100000143","LANDMARKCO":"106","LANDMARKNA":"新北市瑞芳區戶政事務所","LANDMARKAD":"1000112","ADDRESS":"新北市瑞芳區龍興里8鄰中正路30號","TEL":"02-24972229","COUNTYNAME":"新北市","TOWNNAME":"瑞芳區","MARKTYPE":"991","Class":"1"},"geometry":{"x":121.80792335929149,"y":25.107592706478734}},{"attributes":{"OBJECTID":3970,"LANDMARKID":"1000100000141","LANDMARKCO":"105","LANDMARKNA":"新北市瑞芳地政事務所","LANDMARKAD":"1000112","ADDRESS":"新北市瑞芳區明燈路3段32號","TEL":"02-24974106","COUNTYNAME":"新北市","TOWNNAME":"瑞芳區","MARKTYPE":"991","Class":"1"},"geometry":{"x":121.80810418412095,"y":25.107771296052292}},{"attributes":{"OBJECTID":3971,"LANDMARKID":"1000100000098","LANDMARKCO":"103","LANDMARKNA":"新北市瑞芳區公有零售市場","LANDMARKAD":"1000112","ADDRESS":"新北市瑞芳區明燈路三段2號","TEL":"02-24974251","COUNTYNAME":"新北市","TOWNNAME":"瑞芳區","MARKTYPE":"991","Class":"1"},"geometry":{"x":121.80921108935704,"y":25.10750349979012}},{"attributes":{"OBJECTID":3972,"LANDMARKID":"1000100000006","LANDMARKCO":"101","LANDMARKNA":"台灣礦務瑞芳礦場保安中心","LANDMARKAD":"1000112","ADDRESS":"新北市瑞芳區一坑路6號","TEL":"02-24972339","COUNTYNAME":"新北市","TOWNNAME":"瑞芳區","MARKTYPE":"991","Class":"1"},"geometry":{"x":121.80382005874496,"y":25.108344382411516}},{"attributes":{"OBJECTID":3973,"LANDMARKID":"1000100000007","LANDMARKCO":"101","LANDMARKNA":"中央氣象局五分山雷達站","LANDMARKAD":"1000112","ADDRESS":"新北市瑞芳區八分寮路50號","TEL":"02-24958445","COUNTYNAME":"新北市","TOWNNAME":"瑞芳區","MARKTYPE":"991","Class":"1"},"geometry":{"x":121.79690341072009,"y":25.092666012836439}},{"attributes":{"OBJECTID":3974,"LANDMARKID":"1000100000389","LANDMARKCO":"107","LANDMARKNA":"新北市政府警察局鼻頭派出所","LANDMARKAD":"1000112","ADDRESS":"新北市瑞芳區鼻頭里鼻頭路101號","TEL":"0224911579","COUNTYNAME":"新北市","TOWNNAME":"瑞芳區","MARKTYPE":"991","Class":"1"},"geometry":{"x":121.9194547295736,"y":25.121021618695604}},{"attributes":{"OBJECTID":3975,"LANDMARKID":"1000100000390","LANDMARKCO":"107","LANDMARKNA":"新北市政府警察局九份派出所","LANDMARKAD":"1000112","ADDRESS":"新北市瑞芳區頌德里豎崎路24號","TEL":"02-24972609","COUNTYNAME":"新北市","TOWNNAME":"瑞芳區","MARKTYPE":"991","Class":"1"},"geometry":{"x":121.84177078147285,"y":25.107416724408136}},{"attributes":{"OBJECTID":3976,"LANDMARKID":"1000100000391","LANDMARKCO":"107","LANDMARKNA":"新北市政府警察局大寮派出所","LANDMARKAD":"1000112","ADDRESS":"新北市瑞芳區傑角里傑角坑路278號","TEL":"02-24972608","COUNTYNAME":"新北市","TOWNNAME":"瑞芳區","MARKTYPE":"991","Class":"1"},"geometry":{"x":121.7873878897818,"y":25.106716193563049}},{"attributes":{"OBJECTID":3977,"LANDMARKID":"1000100000008","LANDMARKCO":"101","LANDMARKNA":"深澳火力發電廠","LANDMARKAD":"1000112","ADDRESS":"新北市瑞芳區瑞濱里台電新村26號","TEL":"02-24968311","COUNTYNAME":"新北市","TOWNNAME":"瑞芳區","MARKTYPE":"991","Class":"1"},"geometry":{"x":121.81433578788949,"y":25.12535247561955}},{"attributes":{"OBJECTID":3978,"LANDMARKID":"1000100000905","LANDMARKCO":"205","LANDMARKNA":"泥人吳","LANDMARKAD":"1000112","ADDRESS":"新北市瑞芳區九份中山巷7之1號","TEL":"02-24962016","COUNTYNAME":"新北市","TOWNNAME":"瑞芳區","MARKTYPE":"992","Class":"2"},"geometry":{"x":121.84358337311463,"y":25.107836100994266}},{"attributes":{"OBJECTID":3979,"LANDMARKID":"1000100000906","LANDMARKCO":"205","LANDMARKNA":"九份金礦博物館","LANDMARKAD":"1000112","ADDRESS":"新北市瑞芳區頌德里石碑巷66號","TEL":" ","COUNTYNAME":"新北市","TOWNNAME":"瑞芳區","MARKTYPE":"992","Class":"2"},"geometry":{"x":121.84227757979156,"y":25.10798402505684}},{"attributes":{"OBJECTID":3980,"LANDMARKID":"1000100000907","LANDMARKCO":"205","LANDMARKNA":"九份風箏博物館","LANDMARKAD":"1000112","ADDRESS":"新北市瑞芳區九份頌德里坑尾巷20號","TEL":" ","COUNTYNAME":"新北市","TOWNNAME":"瑞芳區","MARKTYPE":"992","Class":"2"},"geometry":{"x":121.84441258274583,"y":25.110682303270053}},{"attributes":{"OBJECTID":3981,"LANDMARKID":"1000100000834","LANDMARKCO":"204","LANDMARKNA":"新北市立圖書館瑞芳分館","LANDMARKAD":"1000112","ADDRESS":"新北市瑞芳區中正路1號","TEL":" ","COUNTYNAME":"新北市","TOWNNAME":"瑞芳區","MARKTYPE":"992","Class":"2"},"geometry":{"x":121.80906615794301,"y":25.107071466977636}},{"attributes":{"OBJECTID":3982,"LANDMARKID":"1000100000744","LANDMARKCO":"203","LANDMARKNA":"縣立濂洞國小","LANDMARKAD":"1000112","ADDRESS":"新北市瑞芳區洞頂路101巷80號","TEL":"02-24961330","COUNTYNAME":"新北市","TOWNNAME":"瑞芳區","MARKTYPE":"992","Class":"2"},"geometry":{"x":121.85975886332774,"y":25.122291580288106}},{"attributes":{"OBJECTID":3983,"LANDMARKID":"1000100000457","LANDMARKCO":"202","LANDMARKNA":"國立瑞芳高工","LANDMARKAD":"1000112","ADDRESS":"新北市瑞芳區瑞芳街60號","TEL":"02-24972516","COUNTYNAME":"新北市","TOWNNAME":"瑞芳區","MARKTYPE":"992","Class":"2"},"geometry":{"x":121.8037183268265,"y":25.1104219243527}},{"attributes":{"OBJECTID":3984,"LANDMARKID":"1000100000801","LANDMARKCO":"203","LANDMARKNA":"縣立欽賢國中","LANDMARKAD":"1000112","ADDRESS":"[新北市瑞芳區崙頂路3之1號","TEL":"02-24972261","COUNTYNAME":"新北市","TOWNNAME":"瑞芳區","MARKTYPE":"992","Class":"2"},"geometry":{"x":121.84647743117237,"y":25.10647613432705}},{"attributes":{"OBJECTID":3985,"LANDMARKID":"1000100000802","LANDMARKCO":"203","LANDMARKNA":"縣立瑞亭國小","LANDMARKAD":"1000112","ADDRESS":"新北市瑞芳區四腳亭埔路23號","TEL":"02-24971726","COUNTYNAME":"新北市","TOWNNAME":"瑞芳區","MARKTYPE":"992","Class":"2"},"geometry":{"x":121.77730209966408,"y":25.102791893636958}},{"attributes":{"OBJECTID":3986,"LANDMARKID":"1000100000803","LANDMARKCO":"203","LANDMARKNA":"縣立侯硐國小","LANDMARKAD":"1000112","ADDRESS":"新北市瑞芳區芎橋里九芎橋路78號","TEL":"02-24971114","COUNTYNAME":"新北市","TOWNNAME":"瑞芳區","MARKTYPE":"992","Class":"2"},"geometry":{"x":121.83389886996231,"y":25.092472681182471}},{"attributes":{"OBJECTID":3987,"LANDMARKID":"1000100000804","LANDMARKCO":"203","LANDMARKNA":"縣立吉慶國小","LANDMARKAD":"1000112","ADDRESS":"新北市瑞芳區吉安里大埔路95號","TEL":"02-24576405","COUNTYNAME":"新北市","TOWNNAME":"瑞芳區","MARKTYPE":"992","Class":"2"},"geometry":{"x":121.76372569492636,"y":25.100333276262003}},{"attributes":{"OBJECTID":3988,"LANDMARKID":"1000100000805","LANDMARKCO":"203","LANDMARKNA":"縣立瑞芳國小","LANDMARKAD":"1000112","ADDRESS":"新北市瑞芳區龍川里中山路2號","TEL":"02-24972058","COUNTYNAME":"新北市","TOWNNAME":"瑞芳區","MARKTYPE":"992","Class":"2"},"geometry":{"x":121.80389180284004,"y":25.107892303519421}},{"attributes":{"OBJECTID":3989,"LANDMARKID":"1000100000806","LANDMARKCO":"203","LANDMARKNA":"縣立瑞柑國小","LANDMARKAD":"1000112","ADDRESS":"新北市瑞芳區明燈路一段18巷13號","TEL":"02-24971009","COUNTYNAME":"新北市","TOWNNAME":"瑞芳區","MARKTYPE":"992","Class":"2"},"geometry":{"x":121.82323765949484,"y":25.11013373994675}},{"attributes":{"OBJECTID":3990,"LANDMARKID":"1000100000807","LANDMARKCO":"203","LANDMARKNA":"縣立九份國小","LANDMARKAD":"1000112","ADDRESS":"新北市瑞芳區永慶里崙頂路145號","TEL":"02-24972263","COUNTYNAME":"新北市","TOWNNAME":"瑞芳區","MARKTYPE":"992","Class":"2"},"geometry":{"x":121.84334336310415,"y":25.107128014257842}},{"attributes":{"OBJECTID":3991,"LANDMARKID":"1000100000808","LANDMARKCO":"203","LANDMARKNA":"縣立義方國小","LANDMARKAD":"1000112","ADDRESS":"新北市瑞芳區龍山里逢甲路360號","TEL":"02-24970961","COUNTYNAME":"新北市","TOWNNAME":"瑞芳區","MARKTYPE":"992","Class":"2"},"geometry":{"x":121.80244778379412,"y":25.113219253204846}},{"attributes":{"OBJECTID":3992,"LANDMARKID":"1000100000809","LANDMARKCO":"203","LANDMARKNA":"縣立瑞濱國小","LANDMARKAD":"1000112","ADDRESS":"新北市瑞芳區瑞濱路34號","TEL":"02-24972625","COUNTYNAME":"新北市","TOWNNAME":"瑞芳區","MARKTYPE":"992","Class":"2"},"geometry":{"x":121.82016039735697,"y":25.120624514019617}},{"attributes":{"OBJECTID":3993,"LANDMARKID":"1000100000810","LANDMARKCO":"203","LANDMARKNA":"縣立鼻頭國小","LANDMARKAD":"1000112","ADDRESS":"新北市瑞芳區鼻頭里鼻頭路99號","TEL":"02-24911571","COUNTYNAME":"新北市","TOWNNAME":"瑞芳區","MARKTYPE":"992","Class":"2"},"geometry":{"x":121.91934972303849,"y":25.121293759034348}},{"attributes":{"OBJECTID":3994,"LANDMARKID":"1000100000811","LANDMARKCO":"203","LANDMARKNA":"縣立瑞芳國中","LANDMARKAD":"1000112","ADDRESS":"新北市瑞芳區三瓜子坑路1號","TEL":"02-24972415","COUNTYNAME":"新北市","TOWNNAME":"瑞芳區","MARKTYPE":"992","Class":"2"},"geometry":{"x":121.81543093296391,"y":25.107736582840907}},{"attributes":{"OBJECTID":3995,"LANDMARKID":"1000100000812","LANDMARKCO":"203","LANDMARKNA":"私立時雨國中","LANDMARKAD":"1000112","ADDRESS":"新北市瑞芳區銅山里祈堂路217號","TEL":"02-24962217","COUNTYNAME":"新北市","TOWNNAME":"瑞芳區","MARKTYPE":"992","Class":"2"},"geometry":{"x":121.85553985958042,"y":25.109308644151024}},{"attributes":{"OBJECTID":3996,"LANDMARKID":"1000100000813","LANDMARKCO":"203","LANDMARKNA":"縣立碩仁國小","LANDMARKAD":"1000112","ADDRESS":"新北市瑞芳區","TEL":" ","COUNTYNAME":"新北市","TOWNNAME":"瑞芳區","MARKTYPE":"992","Class":"2"},"geometry":{"x":121.82042214288883,"y":25.059143134438923}},{"attributes":{"OBJECTID":3997,"LANDMARKID":"1000100000814","LANDMARKCO":"203","LANDMARKNA":"縣立瓜山國小","LANDMARKAD":"1000112","ADDRESS":"新北市瑞芳區石山里5號路306號","TEL":"02-24961364","COUNTYNAME":"新北市","TOWNNAME":"瑞芳區","MARKTYPE":"992","Class":"2"},"geometry":{"x":121.85692082103489,"y":25.110933730021923}},{"attributes":{"OBJECTID":3998,"LANDMARKID":"1000100000815","LANDMARKCO":"203","LANDMARKNA":"縣立欽賢國中鼻頭分部","LANDMARKAD":"1000112","ADDRESS":"新北市瑞芳區南雅里87之1號","TEL":"02-24911580","COUNTYNAME":"新北市","TOWNNAME":"瑞芳區","MARKTYPE":"992","Class":"2"},"geometry":{"x":121.88676221904426,"y":25.121053621907169}},{"attributes":{"OBJECTID":3999,"LANDMARKID":"1000100001448","LANDMARKCO":"305","LANDMARKNA":"鼻頭漁港","LANDMARKAD":"1000112","ADDRESS":"新北市瑞芳區","TEL":" ","COUNTYNAME":"新北市","TOWNNAME":"瑞芳區","MARKTYPE":"993","Class":"305"},"geometry":{"x":121.91507044337118,"y":25.125037497595091}},{"attributes":{"OBJECTID":4000,"LANDMARKID":"1000100001449","LANDMARKCO":"305","LANDMARKNA":"深澳石油港","LANDMARKAD":"1000112","ADDRESS":"新北市瑞芳區","TEL":" ","COUNTYNAME":"新北市","TOWNNAME":"瑞芳區","MARKTYPE":"993","Class":"305"},"geometry":{"x":121.83005091241996,"y":25.124974989100128}}]}