{"displayFieldName":"COUNTYNAME","fieldAliases":{"OBJECTID":"OBJECTID","LANDMARKID":"LANDMARKID","LANDMARKCO":"LANDMARKCO","LANDMARKNA":"LANDMARKNA","LANDMARKAD":"LANDMARKAD","ADDRESS":"ADDRESS","TEL":"TEL","COUNTYNAME":"COUNTYNAME","TOWNNAME":"TOWNNAME","MARKTYPE":"MARKTYPE","Class":"Class"},"geometryType":"esriGeometryPoint","spatialReference":{"wkid":102443},"fields":[{"name":"OBJECTID","type":"esriFieldTypeOID","alias":"OBJECTID"},{"name":"LANDMARKID","type":"esriFieldTypeString","alias":"LANDMARKID","length":15},{"name":"LANDMARKCO","type":"esriFieldTypeString","alias":"LANDMARKCO","length":15},{"name":"LANDMARKNA","type":"esriFieldTypeString","alias":"LANDMARKNA","length":50},{"name":"LANDMARKAD","type":"esriFieldTypeString","alias":"LANDMARKAD","length":15},{"name":"ADDRESS","type":"esriFieldTypeString","alias":"ADDRESS","length":56},{"name":"TEL","type":"esriFieldTypeString","alias":"TEL","length":36},{"name":"COUNTYNAME","type":"esriFieldTypeString","alias":"COUNTYNAME","length":15},{"name":"TOWNNAME","type":"esriFieldTypeString","alias":"TOWNNAME","length":13},{"name":"MARKTYPE","type":"esriFieldTypeString","alias":"MARKTYPE","length":12},{"name":"Class","type":"esriFieldTypeString","alias":"Class","length":5}],"features":[{"attributes":{"OBJECTID":2601,"LANDMARKID":"1000300001666","LANDMARKCO":"604","LANDMARKNA":"北橫之星","LANDMARKAD":"1000313","ADDRESS":"桃園縣復興鄉羅浮村高坡33-1號","TEL":"03-3821433","COUNTYNAME":"桃園市","TOWNNAME":"復興區","MARKTYPE":"996","Class":"6"},"geometry":{"x":285543.42389999982,"y":2740074.9101999998}},{"attributes":{"OBJECTID":2602,"LANDMARKID":"1000300001667","LANDMARKCO":"604","LANDMARKNA":"綠光森林","LANDMARKAD":"1000313","ADDRESS":"桃園縣復興鄉霞雲村志繼19-2號","TEL":"03-3872540","COUNTYNAME":"桃園市","TOWNNAME":"復興區","MARKTYPE":"996","Class":"6"},"geometry":{"x":287906.52630000003,"y":2745586.5147999991}},{"attributes":{"OBJECTID":2603,"LANDMARKID":"1000300001668","LANDMARKCO":"604","LANDMARKNA":"普拉多鄉村步調","LANDMARKAD":"1000313","ADDRESS":"桃園縣復興鄉三民村基國派72-15號","TEL":"03-3826460","COUNTYNAME":"桃園市","TOWNNAME":"復興區","MARKTYPE":"996","Class":"6"},"geometry":{"x":284959.54920000024,"y":2746988.5709000006}},{"attributes":{"OBJECTID":2604,"LANDMARKID":"1000300001669","LANDMARKCO":"604","LANDMARKNA":"峽湖民宿","LANDMARKAD":"1000313","ADDRESS":"桃園縣復興鄉羅浮村2鄰合流58號","TEL":"03-3821725","COUNTYNAME":"桃園市","TOWNNAME":"復興區","MARKTYPE":"996","Class":"6"},"geometry":{"x":287518.60360000003,"y":2743892.7780000009}},{"attributes":{"OBJECTID":2605,"LANDMARKID":"1000300001670","LANDMARKCO":"604","LANDMARKNA":"爺亨泰嵐別館〈民宿〉","LANDMARKAD":"1000313","ADDRESS":"桃園縣復興鄉三光村爺亨13號","TEL":"0989-044998","COUNTYNAME":"桃園市","TOWNNAME":"復興區","MARKTYPE":"996","Class":"6"},"geometry":{"x":287894.71870000008,"y":2729398.4537000004}},{"attributes":{"OBJECTID":2606,"LANDMARKID":"1000300001671","LANDMARKCO":"604","LANDMARKNA":"山頂厝","LANDMARKAD":"1000313","ADDRESS":"桃園縣復興鄉義盛村1鄰12-1號","TEL":"03-3821328","COUNTYNAME":"桃園市","TOWNNAME":"復興區","MARKTYPE":"996","Class":"6"},"geometry":{"x":290549.2731999997,"y":2727682.8473000005}},{"attributes":{"OBJECTID":2607,"LANDMARKID":"1000300001411","LANDMARKCO":"503","LANDMARKNA":"拉拉山收費站","LANDMARKAD":"1000313","ADDRESS":"桃園縣復興鄉","TEL":"03-3912761","COUNTYNAME":"桃園市","TOWNNAME":"復興區","MARKTYPE":"995","Class":"5"},"geometry":{"x":288833.52969999984,"y":2730371.8162999991}},{"attributes":{"OBJECTID":2608,"LANDMARKID":"1000300001412","LANDMARKCO":"503","LANDMARKNA":"三民蝙蝠洞入口處","LANDMARKAD":"1000313","ADDRESS":"桃園縣復興鄉","TEL":" ","COUNTYNAME":"桃園市","TOWNNAME":"復興區","MARKTYPE":"995","Class":"5"},"geometry":{"x":285325.56340000033,"y":2747898.4166000001}},{"attributes":{"OBJECTID":2609,"LANDMARKID":"1000300001413","LANDMARKCO":"503","LANDMARKNA":"三民蝙蝠洞","LANDMARKAD":"1000313","ADDRESS":"桃園縣復興鄉","TEL":" ","COUNTYNAME":"桃園市","TOWNNAME":"復興區","MARKTYPE":"995","Class":"5"},"geometry":{"x":285796.26350000035,"y":2747632.6113000009}},{"attributes":{"OBJECTID":2610,"LANDMARKID":"1000300001414","LANDMARKCO":"503","LANDMARKNA":"小烏來瀑布風景區","LANDMARKAD":"1000313","ADDRESS":"桃園縣復興鄉義盛村42號","TEL":"03-3821235","COUNTYNAME":"桃園市","TOWNNAME":"復興區","MARKTYPE":"995","Class":"5"},"geometry":{"x":288022.9952999996,"y":2743019.3998000007}},{"attributes":{"OBJECTID":2611,"LANDMARKID":"1000300001446","LANDMARKCO":"508","LANDMARKNA":"高義溫泉舊址","LANDMARKAD":"1000313","ADDRESS":"桃園縣復興鄉","TEL":" ","COUNTYNAME":"桃園市","TOWNNAME":"復興區","MARKTYPE":"995","Class":"5"},"geometry":{"x":285796.17559999973,"y":2735021.0490000006}},{"attributes":{"OBJECTID":2612,"LANDMARKID":"1000300001447","LANDMARKCO":"508","LANDMARKNA":"爺亨溫泉山莊","LANDMARKAD":"1000313","ADDRESS":"桃園縣復興鄉三光村八鄰爺亨2-2號","TEL":"03-3376868","COUNTYNAME":"桃園市","TOWNNAME":"復興區","MARKTYPE":"995","Class":"5"},"geometry":{"x":287955.42140000034,"y":2729853.7550000008}},{"attributes":{"OBJECTID":2613,"LANDMARKID":"1000300001448","LANDMARKCO":"508","LANDMARKNA":"嘎拉賀溫泉(新興溫泉)","LANDMARKAD":"1000313","ADDRESS":"桃園縣復興鄉","TEL":" ","COUNTYNAME":"桃園市","TOWNNAME":"復興區","MARKTYPE":"995","Class":"5"},"geometry":{"x":291408.78600000031,"y":2725056.6491999999}},{"attributes":{"OBJECTID":2614,"LANDMARKID":"1000300001449","LANDMARKCO":"508","LANDMARKNA":"四陵溫泉入口","LANDMARKAD":"1000313","ADDRESS":"桃園縣復興鄉","TEL":" ","COUNTYNAME":"桃園市","TOWNNAME":"復興區","MARKTYPE":"995","Class":"5"},"geometry":{"x":293985.34590000007,"y":2726514.3292999994}},{"attributes":{"OBJECTID":2615,"LANDMARKID":"1000300001450","LANDMARKCO":"508","LANDMARKNA":"四陵溫泉","LANDMARKAD":"1000313","ADDRESS":"桃園縣復興鄉","TEL":" ","COUNTYNAME":"桃園市","TOWNNAME":"復興區","MARKTYPE":"995","Class":"5"},"geometry":{"x":294275.2265999997,"y":2725912.0373}},{"attributes":{"OBJECTID":2616,"LANDMARKID":"1000300001420","LANDMARKCO":"504","LANDMARKNA":"拉拉山自然保護區入口處","LANDMARKAD":"1000313","ADDRESS":"桃園縣復興鄉","TEL":" ","COUNTYNAME":"桃園市","TOWNNAME":"復興區","MARKTYPE":"995","Class":"5"},"geometry":{"x":292656.53689999972,"y":2733037.6056999993}},{"attributes":{"OBJECTID":2617,"LANDMARKID":"1000300001421","LANDMARKCO":"504","LANDMARKNA":"拉拉山生態教育館","LANDMARKAD":"1000313","ADDRESS":"桃園縣復興鄉","TEL":"03-3912063","COUNTYNAME":"桃園市","TOWNNAME":"復興區","MARKTYPE":"995","Class":"5"},"geometry":{"x":293842.20839999989,"y":2733795.2877999991}},{"attributes":{"OBJECTID":2618,"LANDMARKID":"1000300001407","LANDMARKCO":"503","LANDMARKNA":"爺亨梯田","LANDMARKAD":"1000313","ADDRESS":"桃園縣復興鄉","TEL":" ","COUNTYNAME":"桃園市","TOWNNAME":"復興區","MARKTYPE":"995","Class":"5"},"geometry":{"x":287746.86679999996,"y":2729609.3324999996}},{"attributes":{"OBJECTID":2619,"LANDMARKID":"1000300001408","LANDMARKCO":"503","LANDMARKNA":"塔曼山登山口","LANDMARKAD":"1000313","ADDRESS":"桃園縣復興鄉","TEL":" ","COUNTYNAME":"桃園市","TOWNNAME":"復興區","MARKTYPE":"995","Class":"5"},"geometry":{"x":293071.41229999997,"y":2732502.0866}},{"attributes":{"OBJECTID":2620,"LANDMARKID":"1000300001417","LANDMARKCO":"504","LANDMARKNA":"嘎拉賀神木群A區(把加灣山區)","LANDMARKAD":"1000313","ADDRESS":"桃園縣復興鄉","TEL":" ","COUNTYNAME":"桃園市","TOWNNAME":"復興區","MARKTYPE":"995","Class":"5"},"geometry":{"x":288912.38080000039,"y":2725509.9957999997}},{"attributes":{"OBJECTID":2621,"LANDMARKID":"1000300001418","LANDMARKCO":"504","LANDMARKNA":"嘎拉賀神木群B區(唐穗山區)","LANDMARKAD":"1000313","ADDRESS":"桃園縣復興鄉","TEL":" ","COUNTYNAME":"桃園市","TOWNNAME":"復興區","MARKTYPE":"995","Class":"5"},"geometry":{"x":290918.82980000041,"y":2722749.0192000009}},{"attributes":{"OBJECTID":2622,"LANDMARKID":"1000300001419","LANDMARKCO":"504","LANDMARKNA":"嘎拉賀神木群C區(卡曼斯山區)","LANDMARKAD":"1000313","ADDRESS":"桃園縣復興鄉","TEL":" ","COUNTYNAME":"桃園市","TOWNNAME":"復興區","MARKTYPE":"995","Class":"5"},"geometry":{"x":292227.23890000023,"y":2723079.7006000001}},{"attributes":{"OBJECTID":2623,"LANDMARKID":"1000300001409","LANDMARKCO":"503","LANDMARKNA":"小烏來瀑布","LANDMARKAD":"1000313","ADDRESS":"桃園縣復興鄉","TEL":" ","COUNTYNAME":"桃園市","TOWNNAME":"復興區","MARKTYPE":"995","Class":"5"},"geometry":{"x":290343.65689999983,"y":2741658.6692999993}},{"attributes":{"OBJECTID":2624,"LANDMARKID":"1000300001416","LANDMARKCO":"504","LANDMARKNA":"東眼山森林遊樂區","LANDMARKAD":"1000313","ADDRESS":"桃園縣復興鄉霞雲村5鄰加志路30號","TEL":"03-3821506","COUNTYNAME":"桃園市","TOWNNAME":"復興區","MARKTYPE":"995","Class":"5"},"geometry":{"x":290981.91139999963,"y":2747746.9087000005}},{"attributes":{"OBJECTID":2625,"LANDMARKID":"1000300001410","LANDMARKCO":"503","LANDMARKNA":"小烏來風景特定區","LANDMARKAD":"1000313","ADDRESS":"桃園縣復興鄉","TEL":" ","COUNTYNAME":"桃園市","TOWNNAME":"復興區","MARKTYPE":"995","Class":"5"},"geometry":{"x":288248.99370000046,"y":2743027.5868999995}},{"attributes":{"OBJECTID":2626,"LANDMARKID":"1000300001415","LANDMARKCO":"504","LANDMARKNA":"拉拉山自然保護區","LANDMARKAD":"1000313","ADDRESS":"桃園縣復興鄉","TEL":" ","COUNTYNAME":"桃園市","TOWNNAME":"復興區","MARKTYPE":"995","Class":"5"},"geometry":{"x":294253.96999999974,"y":2733588.6688999999}},{"attributes":{"OBJECTID":2627,"LANDMARKID":"1000300001406","LANDMARKCO":"503","LANDMARKNA":"角板山行館風景區","LANDMARKAD":"1000313","ADDRESS":"桃園縣復興鄉","TEL":" ","COUNTYNAME":"桃園市","TOWNNAME":"復興區","MARKTYPE":"995","Class":"5"},"geometry":{"x":285488.64169999957,"y":2745596.6283}},{"attributes":{"OBJECTID":2628,"LANDMARKID":"1001400000513","LANDMARKCO":"405","LANDMARKNA":"中油加油站-長濱站(中油直營)","LANDMARKAD":"1001408","ADDRESS":"台東縣長濱鄉長濱村124號","TEL":"089-831027","COUNTYNAME":"台東縣","TOWNNAME":"長濱鄉","MARKTYPE":"994","Class":"4"},"geometry":{"x":296892.62640000042,"y":2579950.3019999992}},{"attributes":{"OBJECTID":2629,"LANDMARKID":"1001400000514","LANDMARKCO":"405","LANDMARKNA":"中油加油站-長馨站","LANDMARKAD":"1001408","ADDRESS":"台東縣長濱鄉長濱村271號","TEL":"089-832961","COUNTYNAME":"台東縣","TOWNNAME":"長濱鄉","MARKTYPE":"994","Class":"4"},"geometry":{"x":296024.35240000021,"y":2579799.9810000006}},{"attributes":{"OBJECTID":2630,"LANDMARKID":"1001400000633","LANDMARKCO":"504","LANDMARKNA":"八仙洞風景遊憩區","LANDMARKAD":"1001408","ADDRESS":"台東縣長濱鄉","TEL":" ","COUNTYNAME":"台東縣","TOWNNAME":"長濱鄉","MARKTYPE":"995","Class":"5"},"geometry":{"x":298604.49120000005,"y":2588179.2047000006}},{"attributes":{"OBJECTID":2631,"LANDMARKID":"1001400000645","LANDMARKCO":"507","LANDMARKNA":"八仙洞遺址","LANDMARKAD":"1001408","ADDRESS":"台東縣長濱鄉三間村","TEL":"089-881418","COUNTYNAME":"台東縣","TOWNNAME":"長濱鄉","MARKTYPE":"995","Class":"5"},"geometry":{"x":298923.51939999964,"y":2588783.1289000008}},{"attributes":{"OBJECTID":2632,"LANDMARKID":"1001400000685","LANDMARKCO":"512","LANDMARKNA":"八仙洞遊客服務中心","LANDMARKAD":"1001408","ADDRESS":"台東縣長濱鄉水母丁1之4號","TEL":"089-881418","COUNTYNAME":"台東縣","TOWNNAME":"長濱鄉","MARKTYPE":"995","Class":"5"},"geometry":{"x":298604.09960000031,"y":2588189.8592000008}},{"attributes":{"OBJECTID":2633,"LANDMARKID":"1001400000580","LANDMARKCO":"408","LANDMARKNA":"郵局-長濱郵局","LANDMARKAD":"1001408","ADDRESS":"台東縣長濱鄉長濱村中興路16號","TEL":"(089)831-011","COUNTYNAME":"台東縣","TOWNNAME":"長濱鄉","MARKTYPE":"994","Class":"4"},"geometry":{"x":296504.56039999984,"y":2579517.0709000006}},{"attributes":{"OBJECTID":2634,"LANDMARKID":"1001400000597","LANDMARKCO":"409","LANDMARKNA":"台東縣長濱鄉農會","LANDMARKAD":"1001408","ADDRESS":"台東縣長濱鄉長濱村7鄰58號","TEL":"089-832089","COUNTYNAME":"台東縣","TOWNNAME":"長濱鄉","MARKTYPE":"994","Class":"4"},"geometry":{"x":296559.40390000027,"y":2579423.7293999996}},{"attributes":{"OBJECTID":2635,"LANDMARKID":"1001400000081","LANDMARKCO":"103","LANDMARKNA":"台東縣長濱鄉衛生所","LANDMARKAD":"1001408","ADDRESS":"台東縣長濱鄉長濱村中興路46號","TEL":"089-831022","COUNTYNAME":"台東縣","TOWNNAME":"長濱鄉","MARKTYPE":"991","Class":"1"},"geometry":{"x":296345.09580000024,"y":2579759.8841999993}},{"attributes":{"OBJECTID":2636,"LANDMARKID":"1001400000209","LANDMARKCO":"108","LANDMARKNA":"台東縣長濱鄉公所","LANDMARKAD":"1001408","ADDRESS":"台東縣長濱鄉長濱村4鄰9號","TEL":"089-832139","COUNTYNAME":"台東縣","TOWNNAME":"長濱鄉","MARKTYPE":"991","Class":"1"},"geometry":{"x":296045.42530000024,"y":2579249.9394000005}},{"attributes":{"OBJECTID":2637,"LANDMARKID":"1001400000082","LANDMARKCO":"103","LANDMARKNA":"台東縣長濱鄉鄉民代表會","LANDMARKAD":"1001408","ADDRESS":"台東縣長濱鄉長濱村7號","TEL":"089-831014","COUNTYNAME":"台東縣","TOWNNAME":"長濱鄉","MARKTYPE":"991","Class":"1"},"geometry":{"x":296365.7070000004,"y":2579339.8257999998}},{"attributes":{"OBJECTID":2638,"LANDMARKID":"1001400000131","LANDMARKCO":"107","LANDMARKNA":"台東縣消防局長濱消防分隊","LANDMARKAD":"1001408","ADDRESS":"台東縣長濱鄉長濱村長濱35號","TEL":"089-831084","COUNTYNAME":"台東縣","TOWNNAME":"長濱鄉","MARKTYPE":"991","Class":"1"},"geometry":{"x":292574.02120000031,"y":2571419.3734000009}},{"attributes":{"OBJECTID":2639,"LANDMARKID":"1001400000132","LANDMARKCO":"107","LANDMARKNA":"台東縣警察局三間派出所","LANDMARKAD":"1001408","ADDRESS":"台東縣長濱鄉三間村三間屋5號","TEL":"089-831044","COUNTYNAME":"台東縣","TOWNNAME":"長濱鄉","MARKTYPE":"991","Class":"1"},"geometry":{"x":297767.86340000015,"y":2583999.8311000001}},{"attributes":{"OBJECTID":2640,"LANDMARKID":"1001400000133","LANDMARKCO":"107","LANDMARKNA":"台東縣警察局竹湖派出所","LANDMARKAD":"1001408","ADDRESS":"台東縣長濱鄉竹湖村南竹湖3號","TEL":"089-831086","COUNTYNAME":"台東縣","TOWNNAME":"長濱鄉","MARKTYPE":"991","Class":"1"},"geometry":{"x":293389.60300000012,"y":2575619.4343999997}},{"attributes":{"OBJECTID":2641,"LANDMARKID":"1001400000134","LANDMARKCO":"107","LANDMARKNA":"台東縣警察局寧埔派出所","LANDMARKAD":"1001408","ADDRESS":"台東縣長濱鄉寧埔村寧埔8號","TEL":"089-801257","COUNTYNAME":"台東縣","TOWNNAME":"長濱鄉","MARKTYPE":"991","Class":"1"},"geometry":{"x":292580.22180000041,"y":2571489.3555999994}},{"attributes":{"OBJECTID":2642,"LANDMARKID":"1001400000135","LANDMARKCO":"107","LANDMARKNA":"台東縣警察局長濱分駐所","LANDMARKAD":"1001408","ADDRESS":"台東縣長濱鄉長濱村41號","TEL":"089-831034","COUNTYNAME":"台東縣","TOWNNAME":"長濱鄉","MARKTYPE":"991","Class":"1"},"geometry":{"x":296660.46399999969,"y":2579569.7880000006}},{"attributes":{"OBJECTID":2643,"LANDMARKID":"1001400000136","LANDMARKCO":"107","LANDMARKNA":"台東縣警察局樟原派出所","LANDMARKAD":"1001408","ADDRESS":"台東縣長濱鄉樟原村10號","TEL":"089-881027","COUNTYNAME":"台東縣","TOWNNAME":"長濱鄉","MARKTYPE":"991","Class":"1"},"geometry":{"x":299214.80140000023,"y":2590129.6674000006}},{"attributes":{"OBJECTID":2644,"LANDMARKID":"1001400000103","LANDMARKCO":"106","LANDMARKNA":"台東縣長濱鄉戶政事務所","LANDMARKAD":"1001408","ADDRESS":"台東縣長濱鄉6鄰長濱43號","TEL":"089-831064","COUNTYNAME":"台東縣","TOWNNAME":"長濱鄉","MARKTYPE":"991","Class":"1"},"geometry":{"x":296284.80790000036,"y":2579679.1899999995}},{"attributes":{"OBJECTID":2645,"LANDMARKID":"1001400000378","LANDMARKCO":"204","LANDMARKNA":"台東縣立圖書館長濱分館","LANDMARKAD":"1001408","ADDRESS":"台東縣長濱鄉長濱路9號","TEL":" ","COUNTYNAME":"台東縣","TOWNNAME":"長濱鄉","MARKTYPE":"992","Class":"2"},"geometry":{"x":296306.68950000033,"y":2579320.3477999996}},{"attributes":{"OBJECTID":2646,"LANDMARKID":"1001400000306","LANDMARKCO":"203","LANDMARKNA":"縣立長濱國中","LANDMARKAD":"1001408","ADDRESS":"台東縣長濱鄉長濱村15鄰180號","TEL":"089-831017","COUNTYNAME":"台東縣","TOWNNAME":"長濱鄉","MARKTYPE":"992","Class":"2"},"geometry":{"x":296940.29779999983,"y":2579209.8033000007}},{"attributes":{"OBJECTID":2647,"LANDMARKID":"1001400000307","LANDMARKCO":"203","LANDMARKNA":"縣立忠勇國小","LANDMARKAD":"1001408","ADDRESS":"台東縣長濱鄉忠勇村5鄰58號","TEL":"089-831180","COUNTYNAME":"台東縣","TOWNNAME":"長濱鄉","MARKTYPE":"992","Class":"2"},"geometry":{"x":294970.3331000004,"y":2580449.7435999997}},{"attributes":{"OBJECTID":2648,"LANDMARKID":"1001400000308","LANDMARKCO":"203","LANDMARKNA":"縣立長濱國小","LANDMARKAD":"1001408","ADDRESS":"台東縣長濱鄉長濱村5鄰11號","TEL":"089-831038","COUNTYNAME":"台東縣","TOWNNAME":"長濱鄉","MARKTYPE":"992","Class":"2"},"geometry":{"x":296206.70610000007,"y":2579339.4370000008}},{"attributes":{"OBJECTID":2649,"LANDMARKID":"1001400000309","LANDMARKCO":"203","LANDMARKNA":"縣立三間國小","LANDMARKAD":"1001408","ADDRESS":"台東縣長濱鄉三間村7鄰16號","TEL":"089-831306","COUNTYNAME":"台東縣","TOWNNAME":"長濱鄉","MARKTYPE":"992","Class":"2"},"geometry":{"x":297875.98589999974,"y":2583729.4844000004}},{"attributes":{"OBJECTID":2650,"LANDMARKID":"1001400000310","LANDMARKCO":"203","LANDMARKNA":"縣立竹湖國小","LANDMARKAD":"1001408","ADDRESS":"台東縣長濱鄉竹湖村10鄰14號","TEL":"089-831295","COUNTYNAME":"台東縣","TOWNNAME":"長濱鄉","MARKTYPE":"992","Class":"2"},"geometry":{"x":293846.67179999966,"y":2575949.7535999995}},{"attributes":{"OBJECTID":2651,"LANDMARKID":"1001400000311","LANDMARKCO":"203","LANDMARKNA":"縣立寧埔國小","LANDMARKAD":"1001408","ADDRESS":"台東縣長濱鄉寧埔村10鄰41號","TEL":"089-801082","COUNTYNAME":"台東縣","TOWNNAME":"長濱鄉","MARKTYPE":"992","Class":"2"},"geometry":{"x":292411.87200000044,"y":2571409.8397000004}},{"attributes":{"OBJECTID":2652,"LANDMARKID":"1001400000312","LANDMARKCO":"203","LANDMARKNA":"縣立樟原國小","LANDMARKAD":"1001408","ADDRESS":"台東縣長濱鄉三間村16鄰南溪6號","TEL":"089-881296","COUNTYNAME":"台東縣","TOWNNAME":"長濱鄉","MARKTYPE":"992","Class":"2"},"geometry":{"x":299248.50079999957,"y":2590039.5548}},{"attributes":{"OBJECTID":2653,"LANDMARKID":"1001400000313","LANDMARKCO":"203","LANDMARKNA":"縣立南溪國小","LANDMARKAD":"1001408","ADDRESS":"台東縣長濱鄉","TEL":" ","COUNTYNAME":"台東縣","TOWNNAME":"長濱鄉","MARKTYPE":"992","Class":"2"},"geometry":{"x":296986.5421000002,"y":2589129.5559}},{"attributes":{"OBJECTID":2654,"LANDMARKID":"1001400000462","LANDMARKCO":"305","LANDMARKNA":"烏石鼻漁港","LANDMARKAD":"1001408","ADDRESS":"台東縣長濱鄉","TEL":" ","COUNTYNAME":"台東縣","TOWNNAME":"長濱鄉","MARKTYPE":"993","Class":"305"},"geometry":{"x":292500.52020000014,"y":2569560.2393999994}},{"attributes":{"OBJECTID":2655,"LANDMARKID":"1001400000444","LANDMARKCO":"303","LANDMARKNA":"八仙洞遊憩區停車場","LANDMARKAD":"1001408","ADDRESS":"台東縣長濱鄉三間林水母丁1之14號","TEL":" ","COUNTYNAME":"台東縣","TOWNNAME":"長濱鄉","MARKTYPE":"993","Class":"303"},"geometry":{"x":298598.3518000003,"y":2587978.5454999991}},{"attributes":{"OBJECTID":2656,"LANDMARKID":"1001400000445","LANDMARKCO":"303","LANDMARKNA":"齒草橋休息區停車場","LANDMARKAD":"1001408","ADDRESS":"台東縣長濱鄉永福","TEL":" ","COUNTYNAME":"台東縣","TOWNNAME":"長濱鄉","MARKTYPE":"993","Class":"303"},"geometry":{"x":294853.53170000017,"y":2577500.8758000005}},{"attributes":{"OBJECTID":2657,"LANDMARKID":"1001400000611","LANDMARKCO":"503","LANDMARKNA":"烏石鼻","LANDMARKAD":"1001408","ADDRESS":"台東縣長濱鄉","TEL":" ","COUNTYNAME":"台東縣","TOWNNAME":"長濱鄉","MARKTYPE":"995","Class":"5"},"geometry":{"x":292726.32820000034,"y":2569330.0975000001}},{"attributes":{"OBJECTID":2658,"LANDMARKID":"1001400000612","LANDMARKCO":"503","LANDMARKNA":"八仙洞風景遊憩區","LANDMARKAD":"1001408","ADDRESS":"台東縣長濱鄉","TEL":" ","COUNTYNAME":"台東縣","TOWNNAME":"長濱鄉","MARKTYPE":"995","Class":"5"},"geometry":{"x":298604.49120000005,"y":2588179.2083000001}},{"attributes":{"OBJECTID":2659,"LANDMARKID":"1001400000515","LANDMARKCO":"405","LANDMARKNA":"中油加油站-海端站","LANDMARKAD":"1001412","ADDRESS":"台東縣海端鄉海端村2鄰山平路52號","TEL":"089-931721","COUNTYNAME":"台東縣(海)","TOWNNAME":"海端鄉","MARKTYPE":"994","Class":"4"},"geometry":{"x":266482.17410000041,"y":2559340.2061999999}},{"attributes":{"OBJECTID":2660,"LANDMARKID":"1001400000579","LANDMARKCO":"408","LANDMARKNA":"郵局-海端郵局","LANDMARKAD":"1001412","ADDRESS":"台東縣海端鄉海端村山界27號","TEL":"(089)931-174","COUNTYNAME":"台東縣(海)","TOWNNAME":"海端鄉","MARKTYPE":"994","Class":"4"},"geometry":{"x":268100.46710000001,"y":2555478.3035000004}},{"attributes":{"OBJECTID":2661,"LANDMARKID":"1001400000129","LANDMARKCO":"107","LANDMARKNA":"台東縣警察局崁頂派出所","LANDMARKAD":"1001412","ADDRESS":"台東縣海端鄉坎頂村中福路25號","TEL":"089-811418","COUNTYNAME":"台東縣(海)","TOWNNAME":"海端鄉","MARKTYPE":"991","Class":"1"},"geometry":{"x":265128.08860000037,"y":2549299.9661999997}},{"attributes":{"OBJECTID":2662,"LANDMARKID":"1001400000130","LANDMARKCO":"107","LANDMARKNA":"台東縣警察局海端分駐所","LANDMARKAD":"1001412","ADDRESS":"台東縣海端鄉山界路17號","TEL":"089-931354","COUNTYNAME":"台東縣(海)","TOWNNAME":"海端鄉","MARKTYPE":"991","Class":"1"},"geometry":{"x":268084.1118999999,"y":2555459.8177000005}},{"attributes":{"OBJECTID":2663,"LANDMARKID":"1001400000083","LANDMARKCO":"103","LANDMARKNA":"台東縣海端鄉衛生所","LANDMARKAD":"1001412","ADDRESS":"台東縣海端鄉海端村山界29號","TEL":"089-931391","COUNTYNAME":"台東縣(海)","TOWNNAME":"海端鄉","MARKTYPE":"991","Class":"1"},"geometry":{"x":267830.28340000007,"y":2556219.7831999995}},{"attributes":{"OBJECTID":2664,"LANDMARKID":"1001400000208","LANDMARKCO":"108","LANDMARKNA":"台東縣海端鄉公所","LANDMARKAD":"1001412","ADDRESS":"台東縣海端鄉海端村4鄰山界43號","TEL":"089-931346","COUNTYNAME":"台東縣(海)","TOWNNAME":"海端鄉","MARKTYPE":"991","Class":"1"},"geometry":{"x":267880.23629999999,"y":2556179.7236000001}},{"attributes":{"OBJECTID":2665,"LANDMARKID":"1001400000084","LANDMARKCO":"103","LANDMARKNA":"台東縣海端鄉民代表會","LANDMARKAD":"1001412","ADDRESS":"台東縣海端鄉海端村山界40號","TEL":"089-931225","COUNTYNAME":"台東縣(海)","TOWNNAME":"海端鄉","MARKTYPE":"991","Class":"1"},"geometry":{"x":268103.28139999975,"y":2555599.7945000008}},{"attributes":{"OBJECTID":2666,"LANDMARKID":"1001400000137","LANDMARKCO":"107","LANDMARKNA":"台東縣警察局加南派出所","LANDMARKAD":"1001412","ADDRESS":"台東縣海端鄉加南村4號","TEL":"089-811488","COUNTYNAME":"台東縣(海)","TOWNNAME":"海端鄉","MARKTYPE":"991","Class":"1"},"geometry":{"x":263412.00079999957,"y":2544289.9821000006}},{"attributes":{"OBJECTID":2667,"LANDMARKID":"1001400000138","LANDMARKCO":"107","LANDMARKNA":"台東縣警察局景平派出所","LANDMARKAD":"1001412","ADDRESS":"台東縣海端鄉廣原村錦屏路5號","TEL":"089-862474","COUNTYNAME":"台東縣(海)","TOWNNAME":"海端鄉","MARKTYPE":"991","Class":"1"},"geometry":{"x":267984.07120000012,"y":2558809.9332999997}},{"attributes":{"OBJECTID":2668,"LANDMARKID":"1001400000139","LANDMARKCO":"107","LANDMARKNA":"台東縣警察局龍泉派出所","LANDMARKAD":"1001412","ADDRESS":"台東縣海端鄉廣原村龍泉路1號","TEL":"089-861344","COUNTYNAME":"台東縣(海)","TOWNNAME":"海端鄉","MARKTYPE":"991","Class":"1"},"geometry":{"x":269627.25820000004,"y":2561410.0058999993}},{"attributes":{"OBJECTID":2669,"LANDMARKID":"1001400000140","LANDMARKCO":"107","LANDMARKNA":"台東縣警察局廣原派出所","LANDMARKAD":"1001412","ADDRESS":"台東縣海端鄉廣原村大埔路10號","TEL":"089-861244","COUNTYNAME":"台東縣(海)","TOWNNAME":"海端鄉","MARKTYPE":"991","Class":"1"},"geometry":{"x":271087.00270000007,"y":2560909.9534000009}},{"attributes":{"OBJECTID":2670,"LANDMARKID":"1001400000141","LANDMARKCO":"107","LANDMARKNA":"台東縣警察局利稻派出所","LANDMARKAD":"1001412","ADDRESS":"台東縣海端鄉利稻村文化路2號","TEL":"089-938064","COUNTYNAME":"台東縣(海)","TOWNNAME":"海端鄉","MARKTYPE":"991","Class":"1"},"geometry":{"x":252637.04169999994,"y":2564819.9940000009}},{"attributes":{"OBJECTID":2671,"LANDMARKID":"1001400000142","LANDMARKCO":"107","LANDMARKNA":"台東縣警察局啞口派出所","LANDMARKAD":"1001412","ADDRESS":"台東縣海端鄉利稻村啞口1號","TEL":" ","COUNTYNAME":"台東縣(海)","TOWNNAME":"海端鄉","MARKTYPE":"991","Class":"1"},"geometry":{"x":247437.96729999967,"y":2574310.0585999992}},{"attributes":{"OBJECTID":2672,"LANDMARKID":"1001400000143","LANDMARKCO":"107","LANDMARKNA":"台東縣警察局向陽派出所","LANDMARKAD":"1001412","ADDRESS":"台東縣海端鄉向陽路1號","TEL":"089-095763","COUNTYNAME":"台東縣(海)","TOWNNAME":"海端鄉","MARKTYPE":"991","Class":"1"},"geometry":{"x":248500.99689999968,"y":2571690.0298999995}},{"attributes":{"OBJECTID":2673,"LANDMARKID":"1001400000144","LANDMARKCO":"107","LANDMARKNA":"台東縣警察局新武派出所","LANDMARKAD":"1001412","ADDRESS":"台東縣海端鄉海端村新武路9號","TEL":"089-931386","COUNTYNAME":"台東縣(海)","TOWNNAME":"海端鄉","MARKTYPE":"991","Class":"1"},"geometry":{"x":262730.12320000026,"y":2558889.8276000004}},{"attributes":{"OBJECTID":2674,"LANDMARKID":"1001400000145","LANDMARKCO":"107","LANDMARKNA":"台東縣警察局霧鹿派出所","LANDMARKAD":"1001412","ADDRESS":"台東縣海端鄉霧鹿村1號","TEL":"089-935024","COUNTYNAME":"台東縣(海)","TOWNNAME":"海端鄉","MARKTYPE":"991","Class":"1"},"geometry":{"x":254079.04800000042,"y":2563529.9812000003}},{"attributes":{"OBJECTID":2675,"LANDMARKID":"1001400000146","LANDMARKCO":"107","LANDMARKNA":"台東縣警察局初來派出所","LANDMARKAD":"1001412","ADDRESS":"台東縣海端鄉海端村初來路70號","TEL":"089-931004","COUNTYNAME":"台東縣(海)","TOWNNAME":"海端鄉","MARKTYPE":"991","Class":"1"},"geometry":{"x":266541.15050000045,"y":2558269.9627}},{"attributes":{"OBJECTID":2676,"LANDMARKID":"1001400000147","LANDMARKCO":"107","LANDMARKNA":"台東縣警察局紅石派出所","LANDMARKAD":"1001412","ADDRESS":"台東縣海端鄉崁頂村5鄰中石路37號","TEL":"089-811444","COUNTYNAME":"台東縣(海)","TOWNNAME":"海端鄉","MARKTYPE":"991","Class":"1"},"geometry":{"x":265872.12569999974,"y":2552099.7775999997}},{"attributes":{"OBJECTID":2677,"LANDMARKID":"1001400000102","LANDMARKCO":"106","LANDMARKNA":"台東縣海端鄉戶政事務所","LANDMARKAD":"1001412","ADDRESS":"台東縣海端鄉3鄰山界13之5號","TEL":"089-931594","COUNTYNAME":"台東縣(海)","TOWNNAME":"海端鄉","MARKTYPE":"991","Class":"1"},"geometry":{"x":267837.26549999975,"y":2556819.7739000004}},{"attributes":{"OBJECTID":2678,"LANDMARKID":"1001400000377","LANDMARKCO":"204","LANDMARKNA":"台東縣立圖書館海端分館","LANDMARKAD":"1001412","ADDRESS":"台東縣海端鄉海端山界路1號","TEL":" ","COUNTYNAME":"台東縣(海)","TOWNNAME":"海端鄉","MARKTYPE":"992","Class":"2"},"geometry":{"x":267992.50700000022,"y":2555087.5651999991}},{"attributes":{"OBJECTID":2679,"LANDMARKID":"1001400000314","LANDMARKCO":"203","LANDMARKNA":"縣立海端國中","LANDMARKAD":"1001412","ADDRESS":"台東縣海端鄉海端村山界1號","TEL":"089-931390","COUNTYNAME":"台東縣(海)","TOWNNAME":"海端鄉","MARKTYPE":"992","Class":"2"},"geometry":{"x":267952.36039999966,"y":2555359.9769000001}},{"attributes":{"OBJECTID":2680,"LANDMARKID":"1001400000315","LANDMARKCO":"203","LANDMARKNA":"縣立初來國小","LANDMARKAD":"1001412","ADDRESS":"台東縣海端鄉海端村7鄰5號","TEL":"089-931049","COUNTYNAME":"台東縣(海)","TOWNNAME":"海端鄉","MARKTYPE":"992","Class":"2"},"geometry":{"x":267362.03239999991,"y":2557239.9995000008}},{"attributes":{"OBJECTID":2681,"LANDMARKID":"1001400000316","LANDMARKCO":"203","LANDMARKNA":"縣立霧鹿國小","LANDMARKAD":"1001412","ADDRESS":"台東縣海端鄉霧鹿村12號","TEL":"089-935070","COUNTYNAME":"台東縣(海)","TOWNNAME":"海端鄉","MARKTYPE":"992","Class":"2"},"geometry":{"x":254255.06859999988,"y":2562979.932}},{"attributes":{"OBJECTID":2682,"LANDMARKID":"1001400000317","LANDMARKCO":"203","LANDMARKNA":"縣立廣原國小","LANDMARKAD":"1001412","ADDRESS":"台東縣海端鄉廣原村大埔路1鄰1號","TEL":"089-862923","COUNTYNAME":"台東縣(海)","TOWNNAME":"海端鄉","MARKTYPE":"992","Class":"2"},"geometry":{"x":271207.36849999987,"y":2560859.7833999991}},{"attributes":{"OBJECTID":2683,"LANDMARKID":"1001400000318","LANDMARKCO":"203","LANDMARKNA":"縣立海端國小","LANDMARKAD":"1001412","ADDRESS":"台東縣海端鄉海端村山界36號","TEL":"089-931184","COUNTYNAME":"台東縣(海)","TOWNNAME":"海端鄉","MARKTYPE":"992","Class":"2"},"geometry":{"x":268047.19620000012,"y":2555529.8622999992}},{"attributes":{"OBJECTID":2684,"LANDMARKID":"1001400000319","LANDMARKCO":"203","LANDMARKNA":"縣立崁頂國小","LANDMARKAD":"1001412","ADDRESS":"台東縣海端鄉崁頂村中福21號","TEL":"089-811447","COUNTYNAME":"台東縣(海)","TOWNNAME":"海端鄉","MARKTYPE":"992","Class":"2"},"geometry":{"x":265040.02799999993,"y":2549239.7710999995}},{"attributes":{"OBJECTID":2685,"LANDMARKID":"1001400000320","LANDMARKCO":"203","LANDMARKNA":"縣立加拿國小","LANDMARKAD":"1001412","ADDRESS":"台東縣海端鄉加拿村加南5號","TEL":"089-811108","COUNTYNAME":"台東縣(海)","TOWNNAME":"海端鄉","MARKTYPE":"992","Class":"2"},"geometry":{"x":263437.12590000033,"y":2544429.9596999995}},{"attributes":{"OBJECTID":2686,"LANDMARKID":"1001400000321","LANDMARKCO":"203","LANDMARKNA":"縣立錦屏國小","LANDMARKAD":"1001412","ADDRESS":"台東縣海端鄉廣原村錦屏1號","TEL":"089-861762","COUNTYNAME":"台東縣(海)","TOWNNAME":"海端鄉","MARKTYPE":"992","Class":"2"},"geometry":{"x":268059.19230000023,"y":2558909.8427000009}},{"attributes":{"OBJECTID":2687,"LANDMARKID":"1001400000322","LANDMARKCO":"203","LANDMARKNA":"縣立利稻國小","LANDMARKAD":"1001412","ADDRESS":"台東縣海端鄉","TEL":" ","COUNTYNAME":"台東縣(海)","TOWNNAME":"海端鄉","MARKTYPE":"992","Class":"2"},"geometry":{"x":252593.00480000023,"y":2564920.0017000008}},{"attributes":{"OBJECTID":2688,"LANDMARKID":"1001400000323","LANDMARKCO":"203","LANDMARKNA":"縣立霧鹿國小分班(廢)","LANDMARKAD":"1001412","ADDRESS":"台東縣海端鄉","TEL":" ","COUNTYNAME":"台東縣(海)","TOWNNAME":"海端鄉","MARKTYPE":"992","Class":"2"},"geometry":{"x":256365.0513000004,"y":2561629.9619999994}},{"attributes":{"OBJECTID":2689,"LANDMARKID":"1001400000324","LANDMARKCO":"203","LANDMARKNA":"縣立初來國小新武分校","LANDMARKAD":"1001412","ADDRESS":"台東縣海端鄉","TEL":" ","COUNTYNAME":"台東縣(海)","TOWNNAME":"海端鄉","MARKTYPE":"992","Class":"2"},"geometry":{"x":262826.20139999967,"y":2558979.9865000006}},{"attributes":{"OBJECTID":2690,"LANDMARKID":"1001400000325","LANDMARKCO":"203","LANDMARKNA":"縣立崁頂國小紅石分校","LANDMARKAD":"1001412","ADDRESS":"台東縣海端鄉","TEL":" ","COUNTYNAME":"台東縣(海)","TOWNNAME":"海端鄉","MARKTYPE":"992","Class":"2"},"geometry":{"x":266386.04999999981,"y":2551719.8301999997}},{"attributes":{"OBJECTID":2691,"LANDMARKID":"1001400000614","LANDMARKCO":"503","LANDMARKNA":"利稻風景區","LANDMARKAD":"1001412","ADDRESS":"台東縣海端鄉","TEL":" ","COUNTYNAME":"台東縣(海)","TOWNNAME":"海端鄉","MARKTYPE":"995","Class":"5"},"geometry":{"x":252456.93099999987,"y":2565054.5555000007}},{"attributes":{"OBJECTID":2692,"LANDMARKID":"1001400000659","LANDMARKCO":"508","LANDMARKNA":"摩刻南野溪溫泉","LANDMARKAD":"1001412","ADDRESS":"台東縣海端鄉","TEL":" ","COUNTYNAME":"台東縣(海)","TOWNNAME":"海端鄉","MARKTYPE":"995","Class":"5"},"geometry":{"x":252851.96659999993,"y":2563919.3030999992}},{"attributes":{"OBJECTID":2693,"LANDMARKID":"1001400000660","LANDMARKCO":"508","LANDMARKNA":"碧山溫泉","LANDMARKAD":"1001412","ADDRESS":"台東縣海端鄉","TEL":" ","COUNTYNAME":"台東縣(海)","TOWNNAME":"海端鄉","MARKTYPE":"995","Class":"5"},"geometry":{"x":253047.8208999997,"y":2563757.2694000006}},{"attributes":{"OBJECTID":2694,"LANDMARKID":"1001400000661","LANDMARKCO":"508","LANDMARKNA":"碧山溫泉休閒農莊","LANDMARKAD":"1001412","ADDRESS":"台東縣海端鄉霧鹿村1之8號","TEL":"089-935022","COUNTYNAME":"台東縣(海)","TOWNNAME":"海端鄉","MARKTYPE":"995","Class":"5"},"geometry":{"x":253506.06130000018,"y":2563361.9886000007}},{"attributes":{"OBJECTID":2695,"LANDMARKID":"1001400000662","LANDMARKCO":"508","LANDMARKNA":"霧鹿溫泉","LANDMARKAD":"1001412","ADDRESS":"台東縣海端鄉","TEL":" ","COUNTYNAME":"台東縣(海)","TOWNNAME":"海端鄉","MARKTYPE":"995","Class":"5"},"geometry":{"x":254296.44460000005,"y":2563510.0431999993}},{"attributes":{"OBJECTID":2696,"LANDMARKID":"1001400000663","LANDMARKCO":"508","LANDMARKNA":"天龍飯店","LANDMARKAD":"1001412","ADDRESS":"台東縣海端鄉霧鹿村1之1號","TEL":"089-935075","COUNTYNAME":"台東縣(海)","TOWNNAME":"海端鄉","MARKTYPE":"995","Class":"5"},"geometry":{"x":254303.05020000041,"y":2563457.5318999998}},{"attributes":{"OBJECTID":2697,"LANDMARKID":"1001400000664","LANDMARKCO":"508","LANDMARKNA":"彩霞溫泉","LANDMARKAD":"1001412","ADDRESS":"台東縣海端鄉","TEL":" ","COUNTYNAME":"台東縣(海)","TOWNNAME":"海端鄉","MARKTYPE":"995","Class":"5"},"geometry":{"x":260644.96569999959,"y":2559703.5602000002}},{"attributes":{"OBJECTID":2698,"LANDMARKID":"1001400000665","LANDMARKCO":"508","LANDMARKNA":"下馬溫泉","LANDMARKAD":"1001412","ADDRESS":"台東縣海端鄉","TEL":" ","COUNTYNAME":"台東縣(海)","TOWNNAME":"海端鄉","MARKTYPE":"995","Class":"5"},"geometry":{"x":255905.09130000044,"y":2562089.5742000006}},{"attributes":{"OBJECTID":2699,"LANDMARKID":"1001400000691","LANDMARKCO":"513","LANDMARKNA":"關山","LANDMARKAD":"1001412","ADDRESS":"台東縣海端鄉","TEL":" ","COUNTYNAME":"台東縣(海)","TOWNNAME":"海端鄉","MARKTYPE":"995","Class":"5"},"geometry":{"x":240964.76929999981,"y":2569540.1956999991}},{"attributes":{"OBJECTID":2700,"LANDMARKID":"1001400000692","LANDMARKCO":"513","LANDMARKNA":"三叉山","LANDMARKAD":"1001412","ADDRESS":"台東縣海端鄉","TEL":" ","COUNTYNAME":"台東縣(海)","TOWNNAME":"海端鄉","MARKTYPE":"995","Class":"5"},"geometry":{"x":252933.14250000007,"y":2577190.2081000004}},{"attributes":{"OBJECTID":2701,"LANDMARKID":"1001400000693","LANDMARKCO":"513","LANDMARKNA":"塔關山","LANDMARKAD":"1001412","ADDRESS":"台東縣海端鄉","TEL":" ","COUNTYNAME":"台東縣(海)","TOWNNAME":"海端鄉","MARKTYPE":"995","Class":"5"},"geometry":{"x":244087.78399999999,"y":2572183.2111000009}},{"attributes":{"OBJECTID":2702,"LANDMARKID":"1001400000694","LANDMARKCO":"513","LANDMARKNA":"布拉克桑山","LANDMARKAD":"1001412","ADDRESS":"台東縣海端鄉","TEL":" ","COUNTYNAME":"台東縣(海)","TOWNNAME":"海端鄉","MARKTYPE":"995","Class":"5"},"geometry":{"x":258054.27089999989,"y":2570065.9946999997}},{"attributes":{"OBJECTID":2703,"LANDMARKID":"1001400000509","LANDMARKCO":"405","LANDMARKNA":"中油加油站-成功站(中油直營)","LANDMARKAD":"1001402","ADDRESS":"台東縣成功鎮中山路43號","TEL":"089-851069","COUNTYNAME":"台東縣","TOWNNAME":"成功鎮","MARKTYPE":"994","Class":"4"},"geometry":{"x":288815.73149999976,"y":2555653.1717000008}},{"attributes":{"OBJECTID":2704,"LANDMARKID":"1001400000510","LANDMARKCO":"405","LANDMARKNA":"中油加油站-全滿站","LANDMARKAD":"1001402","ADDRESS":"台東縣成功鎮大同路2號","TEL":"089-853789","COUNTYNAME":"台東縣","TOWNNAME":"成功鎮","MARKTYPE":"994","Class":"4"},"geometry":{"x":287600.68259999994,"y":2555436.7116}},{"attributes":{"OBJECTID":2705,"LANDMARKID":"1001400000511","LANDMARKCO":"405","LANDMARKNA":"中油加油站-興盛站","LANDMARKAD":"1001402","ADDRESS":"台東縣成功鎮信義里隧道路68之3號","TEL":"089-896381","COUNTYNAME":"台東縣","TOWNNAME":"成功鎮","MARKTYPE":"994","Class":"4"},"geometry":{"x":282242.88009999972,"y":2543772.6031999998}},{"attributes":{"OBJECTID":2706,"LANDMARKID":"1001400000512","LANDMARKCO":"405","LANDMARKNA":"中油加油站-三仙台站","LANDMARKAD":"1001402","ADDRESS":"台東縣成功鎮三仙里芝田路186-1號","TEL":"089-853851","COUNTYNAME":"台東縣","TOWNNAME":"成功鎮","MARKTYPE":"994","Class":"4"},"geometry":{"x":289576.18300000019,"y":2556731.5427999999}},{"attributes":{"OBJECTID":2707,"LANDMARKID":"1001400000466","LANDMARKCO":"401","LANDMARKNA":"行政院衛生署臺東醫院成功分院門診部","LANDMARKAD":"1001402","ADDRESS":"台東縣成功鎮中山東路32號","TEL":"089-854748","COUNTYNAME":"台東縣","TOWNNAME":"成功鎮","MARKTYPE":"994","Class":"4"},"geometry":{"x":288702.60769999959,"y":2555335.9637000002}},{"attributes":{"OBJECTID":2708,"LANDMARKID":"1001400000613","LANDMARKCO":"503","LANDMARKNA":"東部海岸國家風景區","LANDMARKAD":"1001402","ADDRESS":"台東縣成功鎮新村路25號","TEL":"089-841520","COUNTYNAME":"台東縣","TOWNNAME":"成功鎮","MARKTYPE":"995","Class":"5"},"geometry":{"x":283492.82430000044,"y":2546380.3724000007}},{"attributes":{"OBJECTID":2709,"LANDMARKID":"1001400000695","LANDMARKCO":"513","LANDMARKNA":"三仙台","LANDMARKAD":"1001402","ADDRESS":"台東縣成功鎮","TEL":" ","COUNTYNAME":"台東縣","TOWNNAME":"成功鎮","MARKTYPE":"995","Class":"5"},"geometry":{"x":292677.03550000023,"y":2558152.557}},{"attributes":{"OBJECTID":2710,"LANDMARKID":"1001400000644","LANDMARKCO":"506","LANDMARKNA":"柑橘觀光果園","LANDMARKAD":"1001402","ADDRESS":"台東縣成功鎮忠孝里15鄰石傘路112號","TEL":"089-871402","COUNTYNAME":"台東縣","TOWNNAME":"成功鎮","MARKTYPE":"995","Class":"5"},"geometry":{"x":290068.46889999975,"y":2563225.6362999994}},{"attributes":{"OBJECTID":2711,"LANDMARKID":"1001400000605","LANDMARKCO":"501","LANDMARKNA":"東部海岸風景特定區","LANDMARKAD":"1001402","ADDRESS":"台東縣成功鎮信義里新村路25號","TEL":"089-841520","COUNTYNAME":"台東縣","TOWNNAME":"成功鎮","MARKTYPE":"995","Class":"5"},"geometry":{"x":284156.83889999986,"y":2547589.9551999997}},{"attributes":{"OBJECTID":2712,"LANDMARKID":"1001400000686","LANDMARKCO":"512","LANDMARKNA":"三仙台遊客服務中心","LANDMARKAD":"1001402","ADDRESS":"台東縣成功鎮三仙里基翬路72號","TEL":"089-850785","COUNTYNAME":"台東縣","TOWNNAME":"成功鎮","MARKTYPE":"995","Class":"5"},"geometry":{"x":291868.35850000009,"y":2557956.2847000007}},{"attributes":{"OBJECTID":2713,"LANDMARKID":"1001400000687","LANDMARKCO":"512","LANDMARKNA":"東海岸國家風景區管理處","LANDMARKAD":"1001402","ADDRESS":"台東縣成功鎮信義里新村路25號","TEL":"089-841520","COUNTYNAME":"台東縣","TOWNNAME":"成功鎮","MARKTYPE":"995","Class":"5"},"geometry":{"x":284146.19579999987,"y":2547591.3946000002}},{"attributes":{"OBJECTID":2714,"LANDMARKID":"1001400000688","LANDMARKCO":"512","LANDMARKNA":"都歷遊客服務中心","LANDMARKAD":"1001402","ADDRESS":"台東縣成功鎮信義里新村路25號","TEL":"089-841520","COUNTYNAME":"台東縣","TOWNNAME":"成功鎮","MARKTYPE":"995","Class":"5"},"geometry":{"x":284143.82909999974,"y":2547580.7536999993}},{"attributes":{"OBJECTID":2715,"LANDMARKID":"1001400000577","LANDMARKCO":"408","LANDMARKNA":"郵局-成功郵局","LANDMARKAD":"1001402","ADDRESS":"台東縣成功鎮中華路77號","TEL":"(089)853-620","COUNTYNAME":"台東縣","TOWNNAME":"成功鎮","MARKTYPE":"994","Class":"4"},"geometry":{"x":288743.05489999987,"y":2555467.0119000003}},{"attributes":{"OBJECTID":2716,"LANDMARKID":"1001400000599","LANDMARKCO":"409","LANDMARKNA":"台東縣成功鎮農會","LANDMARKAD":"1001402","ADDRESS":"台東縣成功鎮中華路139號","TEL":"089-851017","COUNTYNAME":"台東縣","TOWNNAME":"成功鎮","MARKTYPE":"994","Class":"4"},"geometry":{"x":288932.23400000017,"y":2555514.8403999992}},{"attributes":{"OBJECTID":2717,"LANDMARKID":"1001400000600","LANDMARKCO":"409","LANDMARKNA":"新港區漁會","LANDMARKAD":"1001402","ADDRESS":"台東縣成功鎮港邊路19號","TEL":"089-851152","COUNTYNAME":"台東縣","TOWNNAME":"成功鎮","MARKTYPE":"994","Class":"4"},"geometry":{"x":288960.20529999956,"y":2555306.8875999991}},{"attributes":{"OBJECTID":2718,"LANDMARKID":"1001400000562","LANDMARKCO":"406","LANDMARKNA":"成功海濱公園","LANDMARKAD":"1001402","ADDRESS":"台東縣成功鎮","TEL":" ","COUNTYNAME":"台東縣","TOWNNAME":"成功鎮","MARKTYPE":"994","Class":"4"},"geometry":{"x":289486.38069999963,"y":2555692.5943999998}},{"attributes":{"OBJECTID":2719,"LANDMARKID":"1001400000494","LANDMARKCO":"404","LANDMARKNA":"台灣省自來水成功營運所","LANDMARKAD":"1001402","ADDRESS":"台東縣成功鎮開封街12號","TEL":" ","COUNTYNAME":"台東縣","TOWNNAME":"成功鎮","MARKTYPE":"994","Class":"4"},"geometry":{"x":288488.76370000001,"y":2555734.9683999997}},{"attributes":{"OBJECTID":2720,"LANDMARKID":"1001400000080","LANDMARKCO":"103","LANDMARKNA":"台東縣成功鎮衛生所","LANDMARKAD":"1001402","ADDRESS":"台東縣成功鎮中山東路64號","TEL":"089-851419","COUNTYNAME":"台東縣","TOWNNAME":"成功鎮","MARKTYPE":"991","Class":"1"},"geometry":{"x":288857.75490000006,"y":2555389.5966999996}},{"attributes":{"OBJECTID":2721,"LANDMARKID":"1001400000206","LANDMARKCO":"108","LANDMARKNA":"台東縣成功鎮公所","LANDMARKAD":"1001402","ADDRESS":"台東縣成功鎮中山東路75號","TEL":"089-851004","COUNTYNAME":"台東縣","TOWNNAME":"成功鎮","MARKTYPE":"991","Class":"1"},"geometry":{"x":288895.0597000001,"y":2555429.4977000002}},{"attributes":{"OBJECTID":2722,"LANDMARKID":"1001400000085","LANDMARKCO":"104","LANDMARKNA":"關稅總局新港燈塔","LANDMARKAD":"1001402","ADDRESS":"台東縣成功鎮成功路民恆路6號","TEL":"089-850106","COUNTYNAME":"台東縣","TOWNNAME":"成功鎮","MARKTYPE":"991","Class":"1"},"geometry":{"x":289067.00659999996,"y":2555409.7884}},{"attributes":{"OBJECTID":2723,"LANDMARKID":"1001400000002","LANDMARKCO":"101","LANDMARKNA":"農業委員會水產試驗所","LANDMARKAD":"1001402","ADDRESS":"台東縣成功鎮五權路22號","TEL":"089-850090","COUNTYNAME":"台東縣","TOWNNAME":"成功鎮","MARKTYPE":"991","Class":"1"},"geometry":{"x":289136.47070000041,"y":2555279.6088999994}},{"attributes":{"OBJECTID":2724,"LANDMARKID":"1001400000076","LANDMARKCO":"103","LANDMARKNA":"台東縣成功鎮鎮民代表會","LANDMARKAD":"1001402","ADDRESS":"台東縣成功鎮中山路1號之1","TEL":"089-851243","COUNTYNAME":"台東縣","TOWNNAME":"成功鎮","MARKTYPE":"991","Class":"1"},"geometry":{"x":288895.0597000001,"y":2555429.4977000002}},{"attributes":{"OBJECTID":2725,"LANDMARKID":"1001400000077","LANDMARKCO":"103","LANDMARKNA":"台東縣政府新港漁港管理站","LANDMARKAD":"1001402","ADDRESS":"台東縣成功鎮五權路22號","TEL":"089-851023","COUNTYNAME":"台東縣","TOWNNAME":"成功鎮","MARKTYPE":"991","Class":"1"},"geometry":{"x":289137.47070000041,"y":2555279.6063000001}},{"attributes":{"OBJECTID":2726,"LANDMARKID":"1001400000001","LANDMARKCO":"101","LANDMARKNA":"中央氣象局成功氣象站","LANDMARKAD":"1001402","ADDRESS":"台東縣成功鎮公民路84號","TEL":"089-851038","COUNTYNAME":"台東縣","TOWNNAME":"成功鎮","MARKTYPE":"991","Class":"1"},"geometry":{"x":288264.76669999957,"y":2555089.6658999994}},{"attributes":{"OBJECTID":2727,"LANDMARKID":"1001400000151","LANDMARKCO":"107","LANDMARKNA":"台東縣消防局成功消防分隊","LANDMARKAD":"1001402","ADDRESS":"台東縣成功鎮中山東路73號","TEL":"089-851033","COUNTYNAME":"台東縣","TOWNNAME":"成功鎮","MARKTYPE":"991","Class":"1"},"geometry":{"x":288852.00800000038,"y":2555409.6095000003}},{"attributes":{"OBJECTID":2728,"LANDMARKID":"1001400000152","LANDMARKCO":"107","LANDMARKNA":"台東縣警察局成功分局","LANDMARKAD":"1001402","ADDRESS":"台東縣成功鎮忠仁里公民路87號","TEL":"089-851001","COUNTYNAME":"台東縣","TOWNNAME":"成功鎮","MARKTYPE":"991","Class":"1"},"geometry":{"x":288423.54389999993,"y":2555309.9847999997}},{"attributes":{"OBJECTID":2729,"LANDMARKID":"1001400000153","LANDMARKCO":"107","LANDMARKNA":"台東縣警察局都歷派出所","LANDMARKAD":"1001402","ADDRESS":"台東縣成功鎮信義里都歷路46號","TEL":"089-841290","COUNTYNAME":"台東縣","TOWNNAME":"成功鎮","MARKTYPE":"991","Class":"1"},"geometry":{"x":284107.43120000046,"y":2547279.4922000002}},{"attributes":{"OBJECTID":2730,"LANDMARKID":"1001400000154","LANDMARKCO":"107","LANDMARKNA":"台東縣警察局新豐派出所","LANDMARKAD":"1001402","ADDRESS":"台東縣成功鎮忠仁里公民路87號","TEL":"089-851054","COUNTYNAME":"台東縣","TOWNNAME":"成功鎮","MARKTYPE":"991","Class":"1"},"geometry":{"x":288424.54389999993,"y":2555309.9823000003}},{"attributes":{"OBJECTID":2731,"LANDMARKID":"1001400000155","LANDMARKCO":"107","LANDMARKNA":"台東縣警察局忠孝派出所","LANDMARKAD":"1001402","ADDRESS":"台東縣成功鎮忠孝里成廣路9號","TEL":"089-871444","COUNTYNAME":"台東縣","TOWNNAME":"成功鎮","MARKTYPE":"991","Class":"1"},"geometry":{"x":290913.81039999984,"y":2561859.3506000005}},{"attributes":{"OBJECTID":2732,"LANDMARKID":"1001400000100","LANDMARKCO":"106","LANDMARKNA":"台東縣成功鎮戶政事務所","LANDMARKAD":"1001402","ADDRESS":"台東縣成功鎮光復路58號","TEL":"089-851281","COUNTYNAME":"台東縣","TOWNNAME":"成功鎮","MARKTYPE":"991","Class":"1"},"geometry":{"x":288960.6063000001,"y":2555639.3270999994}},{"attributes":{"OBJECTID":2733,"LANDMARKID":"1001400000089","LANDMARKCO":"105","LANDMARKNA":"台東縣成功地政事務所","LANDMARKAD":"1001402","ADDRESS":"台東縣成功鎮公民路93號","TEL":"089-851966","COUNTYNAME":"台東縣","TOWNNAME":"成功鎮","MARKTYPE":"991","Class":"1"},"geometry":{"x":288421.51819999982,"y":2555299.9900000002}},{"attributes":{"OBJECTID":2734,"LANDMARKID":"1001400000003","LANDMARKCO":"101","LANDMARKNA":"台灣台東地方法院成功簡易庭","LANDMARKAD":"1001402","ADDRESS":"台東縣成功鎮中山路176號","TEL":"089-850645","COUNTYNAME":"台東縣","TOWNNAME":"成功鎮","MARKTYPE":"991","Class":"1"},"geometry":{"x":288995.79540000018,"y":2556019.9721000008}},{"attributes":{"OBJECTID":2735,"LANDMARKID":"1001400000390","LANDMARKCO":"205","LANDMARKNA":"台東縣自然史教育館","LANDMARKAD":"1001402","ADDRESS":"台東縣成功鎮三仙里基翬路16號(三仙國小內)","TEL":" ","COUNTYNAME":"台東縣","TOWNNAME":"成功鎮","MARKTYPE":"992","Class":"2"},"geometry":{"x":290304.20859999955,"y":2557657.8636000007}},{"attributes":{"OBJECTID":2736,"LANDMARKID":"1001400000380","LANDMARKCO":"204","LANDMARKNA":"台東縣立圖書館成功分館","LANDMARKAD":"1001402","ADDRESS":"台東縣成功鎮公民路15號","TEL":" ","COUNTYNAME":"台東縣","TOWNNAME":"成功鎮","MARKTYPE":"992","Class":"2"},"geometry":{"x":288453.58829999994,"y":2555398.6022999994}},{"attributes":{"OBJECTID":2737,"LANDMARKID":"1001400000224","LANDMARKCO":"202","LANDMARKNA":"國立成功商業水產","LANDMARKAD":"1001402","ADDRESS":"台東縣成功鎮太平路52號","TEL":"089-850011","COUNTYNAME":"台東縣","TOWNNAME":"成功鎮","MARKTYPE":"992","Class":"2"},"geometry":{"x":289133.79729999974,"y":2556019.6116000004}},{"attributes":{"OBJECTID":2738,"LANDMARKID":"1001400000293","LANDMARKCO":"203","LANDMARKNA":"縣立新港國中","LANDMARKAD":"1001402","ADDRESS":"台東縣成功鎮中正路1號","TEL":"089-851218","COUNTYNAME":"台東縣","TOWNNAME":"成功鎮","MARKTYPE":"992","Class":"2"},"geometry":{"x":288550.24189999979,"y":2555499.6568}},{"attributes":{"OBJECTID":2739,"LANDMARKID":"1001400000294","LANDMARKCO":"203","LANDMARKNA":"縣立三民國小","LANDMARKAD":"1001402","ADDRESS":"台東縣成功鎮三民路18號","TEL":"089-851024","COUNTYNAME":"台東縣","TOWNNAME":"成功鎮","MARKTYPE":"992","Class":"2"},"geometry":{"x":288071.39470000006,"y":2555559.4324999992}},{"attributes":{"OBJECTID":2740,"LANDMARKID":"1001400000295","LANDMARKCO":"203","LANDMARKNA":"縣立成功國小","LANDMARKAD":"1001402","ADDRESS":"台東縣成功鎮太平路28號","TEL":"089-851021","COUNTYNAME":"台東縣","TOWNNAME":"成功鎮","MARKTYPE":"992","Class":"2"},"geometry":{"x":289265.60890000034,"y":2555639.2683000006}},{"attributes":{"OBJECTID":2741,"LANDMARKID":"1001400000296","LANDMARKCO":"203","LANDMARKNA":"縣立忠孝國小","LANDMARKAD":"1001402","ADDRESS":"台東縣成功鎮忠孝里成廣路8號","TEL":"089-871109","COUNTYNAME":"台東縣","TOWNNAME":"成功鎮","MARKTYPE":"992","Class":"2"},"geometry":{"x":290955.45399999991,"y":2561729.2364000008}},{"attributes":{"OBJECTID":2742,"LANDMARKID":"1001400000297","LANDMARKCO":"203","LANDMARKNA":"縣立博愛國小","LANDMARKAD":"1001402","ADDRESS":"台東縣成功鎮博愛里重安路2號","TEL":"089-871216","COUNTYNAME":"台東縣","TOWNNAME":"成功鎮","MARKTYPE":"992","Class":"2"},"geometry":{"x":290531.74909999967,"y":2565529.5930000003}},{"attributes":{"OBJECTID":2743,"LANDMARKID":"1001400000298","LANDMARKCO":"203","LANDMARKNA":"縣立三仙國小","LANDMARKAD":"1001402","ADDRESS":"台東縣成功鎮三仙里基翬路16號","TEL":"089-851960","COUNTYNAME":"台東縣","TOWNNAME":"成功鎮","MARKTYPE":"992","Class":"2"},"geometry":{"x":290329.25889999978,"y":2557659.4320999999}},{"attributes":{"OBJECTID":2744,"LANDMARKID":"1001400000299","LANDMARKCO":"203","LANDMARKNA":"縣立信義國小","LANDMARKAD":"1001402","ADDRESS":"台東縣成功鎮信義里都歷路58號","TEL":"089-841029","COUNTYNAME":"台東縣","TOWNNAME":"成功鎮","MARKTYPE":"992","Class":"2"},"geometry":{"x":283898.31670000032,"y":2547229.9658000004}},{"attributes":{"OBJECTID":2745,"LANDMARKID":"1001400000300","LANDMARKCO":"203","LANDMARKNA":"縣立和平國小","LANDMARKAD":"1001402","ADDRESS":"台東縣成功鎮和平里跋邊路24號","TEL":"089-851941","COUNTYNAME":"台東縣","TOWNNAME":"成功鎮","MARKTYPE":"992","Class":"2"},"geometry":{"x":286096.04430000018,"y":2552649.4395000003}},{"attributes":{"OBJECTID":2746,"LANDMARKID":"1001400000463","LANDMARKCO":"305","LANDMARKNA":"小港漁港","LANDMARKAD":"1001402","ADDRESS":"台東縣成功鎮","TEL":" ","COUNTYNAME":"台東縣","TOWNNAME":"成功鎮","MARKTYPE":"993","Class":"305"},"geometry":{"x":291157.03149999958,"y":2561885.6919}},{"attributes":{"OBJECTID":2747,"LANDMARKID":"1001400000464","LANDMARKCO":"305","LANDMARKNA":"新港漁港","LANDMARKAD":"1001402","ADDRESS":"台東縣成功鎮","TEL":" ","COUNTYNAME":"台東縣","TOWNNAME":"成功鎮","MARKTYPE":"993","Class":"305"},"geometry":{"x":288899.26850000024,"y":2555157.7661000006}},{"attributes":{"OBJECTID":2748,"LANDMARKID":"1001400000422","LANDMARKCO":"302","LANDMARKNA":"鼎東汽車客運成功站","LANDMARKAD":"1001402","ADDRESS":"台東縣成功鎮五權路168號","TEL":" ","COUNTYNAME":"台東縣","TOWNNAME":"成功鎮","MARKTYPE":"993","Class":"302"},"geometry":{"x":288945.59350000042,"y":2555968.5427999999}},{"attributes":{"OBJECTID":2749,"LANDMARKID":"1001400000440","LANDMARKCO":"303","LANDMARKNA":"東海岸風景區管理處停車場","LANDMARKAD":"1001402","ADDRESS":"台東縣成功鎮新村路義里25號","TEL":"089-841520","COUNTYNAME":"台東縣","TOWNNAME":"成功鎮","MARKTYPE":"993","Class":"303"},"geometry":{"x":283309.8041000003,"y":2546383.6564000007}},{"attributes":{"OBJECTID":2750,"LANDMARKID":"1001400000441","LANDMARKCO":"303","LANDMARKNA":"石雨傘休憩區停車場","LANDMARKAD":"1001402","ADDRESS":"台東縣成功鎮石傘","TEL":" ","COUNTYNAME":"台東縣","TOWNNAME":"成功鎮","MARKTYPE":"993","Class":"303"},"geometry":{"x":291032.15369999968,"y":2563336.1172000002}},{"attributes":{"OBJECTID":2751,"LANDMARKID":"1001400000442","LANDMARKCO":"303","LANDMARKNA":"三仙台遊憩區停車場","LANDMARKAD":"1001402","ADDRESS":"台東縣成功鎮三仙里基暈路74號","TEL":" ","COUNTYNAME":"台東縣","TOWNNAME":"成功鎮","MARKTYPE":"993","Class":"303"},"geometry":{"x":291698.47329999972,"y":2557923.2007999998}},{"attributes":{"OBJECTID":2752,"LANDMARKID":"1001400000443","LANDMARKCO":"303","LANDMARKNA":"東河橋休息區停車場","LANDMARKAD":"1001402","ADDRESS":"台東縣成功鎮小馬","TEL":" ","COUNTYNAME":"台東縣","TOWNNAME":"成功鎮","MARKTYPE":"993","Class":"303"},"geometry":{"x":281680.07129999995,"y":2541796.0360000003}},{"attributes":{"OBJECTID":2753,"LANDMARKID":"1001400000484","LANDMARKCO":"402","LANDMARKNA":"中華電信-成功服務中心","LANDMARKAD":"1001402","ADDRESS":"台東縣成功鎮中華路79號","TEL":"123或0800-080-123","COUNTYNAME":"台東縣","TOWNNAME":"成功鎮","MARKTYPE":"994","Class":"4"},"geometry":{"x":288574.72259999998,"y":2555390.5350000001}},{"attributes":{"OBJECTID":2754,"LANDMARKID":"1001400000748","LANDMARKCO":"603","LANDMARKNA":"慶濱大旅社","LANDMARKAD":"1001402","ADDRESS":"台東縣成功鎮中山路10號","TEL":"089-851103","COUNTYNAME":"台東縣","TOWNNAME":"成功鎮","MARKTYPE":"996","Class":"6"},"geometry":{"x":288915.15099999961,"y":2555449.2940999996}},{"attributes":{"OBJECTID":2755,"LANDMARKID":"1001400000749","LANDMARKCO":"603","LANDMARKNA":"東海旅社","LANDMARKAD":"1001402","ADDRESS":"台東縣成功鎮民族路24號","TEL":"089-851037","COUNTYNAME":"台東縣","TOWNNAME":"成功鎮","MARKTYPE":"996","Class":"6"},"geometry":{"x":288674.72860000003,"y":2555456.2015000004}},{"attributes":{"OBJECTID":2756,"LANDMARKID":"1001400000750","LANDMARKCO":"603","LANDMARKNA":"大統休閒旅館","LANDMARKAD":"1001402","ADDRESS":"台東縣成功鎮石傘路36之2號1至4樓","TEL":"089-871728","COUNTYNAME":"台東縣","TOWNNAME":"成功鎮","MARKTYPE":"996","Class":"6"},"geometry":{"x":291006.30750000011,"y":2563370.0417999998}},{"attributes":{"OBJECTID":2757,"LANDMARKID":"1001400000606","LANDMARKCO":"503","LANDMARKNA":"三仙台","LANDMARKAD":"1001402","ADDRESS":"台東縣成功鎮","TEL":" ","COUNTYNAME":"台東縣","TOWNNAME":"成功鎮","MARKTYPE":"995","Class":"5"},"geometry":{"x":292677.03550000023,"y":2558152.5604999997}},{"attributes":{"OBJECTID":2758,"LANDMARKID":"1001400000607","LANDMARKCO":"503","LANDMARKNA":"東河橋休憩區","LANDMARKAD":"1001402","ADDRESS":"台東縣成功鎮","TEL":" ","COUNTYNAME":"台東縣","TOWNNAME":"成功鎮","MARKTYPE":"995","Class":"5"},"geometry":{"x":281260.77170000039,"y":2541747.8004000001}},{"attributes":{"OBJECTID":2759,"LANDMARKID":"1001400000608","LANDMARKCO":"503","LANDMARKNA":"石雨傘","LANDMARKAD":"1001402","ADDRESS":"台東縣成功鎮","TEL":" ","COUNTYNAME":"台東縣","TOWNNAME":"成功鎮","MARKTYPE":"995","Class":"5"},"geometry":{"x":291310.7098000003,"y":2563992.6447999999}},{"attributes":{"OBJECTID":2760,"LANDMARKID":"1001400000609","LANDMARKCO":"503","LANDMARKNA":"東部海岸風景特定區","LANDMARKAD":"1001402","ADDRESS":"台東縣成功鎮信義里新村路25號","TEL":" ","COUNTYNAME":"台東縣","TOWNNAME":"成功鎮","MARKTYPE":"995","Class":"5"},"geometry":{"x":284156.83889999986,"y":2547589.9585999995}},{"attributes":{"OBJECTID":2761,"LANDMARKID":"1001400000610","LANDMARKCO":"503","LANDMARKNA":"三仙台遊憩區","LANDMARKAD":"1001402","ADDRESS":"台東縣成功鎮","TEL":" ","COUNTYNAME":"台東縣","TOWNNAME":"成功鎮","MARKTYPE":"995","Class":"5"},"geometry":{"x":292021.49839999992,"y":2557853.1494999994}},{"attributes":{"OBJECTID":2762,"LANDMARKID":"1001400000507","LANDMARKCO":"405","LANDMARKNA":"中油加油站-新東漁船站","LANDMARKAD":"1001402","ADDRESS":"台東縣成功鎮忠仁里港邊路1之10號","TEL":"089-220731","COUNTYNAME":"台東縣","TOWNNAME":"成功鎮","MARKTYPE":"994","Class":"4"},"geometry":{"x":289419.05960000027,"y":2555231.5211999994}},{"attributes":{"OBJECTID":2763,"LANDMARKID":"1001400000508","LANDMARKCO":"405","LANDMARKNA":"中油加油站-池上站(中油直營)","LANDMARKAD":"1001406","ADDRESS":"台東縣池上鄉福源村中山路85號","TEL":"089-862634","COUNTYNAME":"台東縣","TOWNNAME":"池上鄉","MARKTYPE":"994","Class":"4"},"geometry":{"x":271792.6671000002,"y":2557662.5036999993}},{"attributes":{"OBJECTID":2764,"LANDMARKID":"1001400000643","LANDMARKCO":"506","LANDMARKNA":"池上蠶桑休閒農場","LANDMARKAD":"1001406","ADDRESS":"台東縣池上鄉萬安村7鄰27號","TEL":"089-864973","COUNTYNAME":"台東縣","TOWNNAME":"池上鄉","MARKTYPE":"995","Class":"5"},"geometry":{"x":271743.40589999966,"y":2554666.0205000006}},{"attributes":{"OBJECTID":2765,"LANDMARKID":"1001400000578","LANDMARKCO":"408","LANDMARKNA":"郵局-池上郵局","LANDMARKAD":"1001406","ADDRESS":"台東縣池上鄉中山路201號","TEL":"(089)862-071","COUNTYNAME":"台東縣","TOWNNAME":"池上鄉","MARKTYPE":"994","Class":"4"},"geometry":{"x":272328.67080000043,"y":2558059.9463}},{"attributes":{"OBJECTID":2766,"LANDMARKID":"1001400000598","LANDMARKCO":"409","LANDMARKNA":"台東縣池上鄉農會","LANDMARKAD":"1001406","ADDRESS":"台東縣池上鄉中山路302號","TEL":"089-862201","COUNTYNAME":"台東縣","TOWNNAME":"池上鄉","MARKTYPE":"994","Class":"4"},"geometry":{"x":272467.67700000014,"y":2558128.0441999994}},{"attributes":{"OBJECTID":2767,"LANDMARKID":"1001400000561","LANDMARKCO":"406","LANDMARKNA":"三號公園","LANDMARKAD":"1001406","ADDRESS":"台東縣池上鄉","TEL":" ","COUNTYNAME":"台東縣","TOWNNAME":"池上鄉","MARKTYPE":"994","Class":"4"},"geometry":{"x":271585.08800000045,"y":2557733.2583000008}},{"attributes":{"OBJECTID":2768,"LANDMARKID":"1001400000493","LANDMARKCO":"404","LANDMARKNA":"台灣省自來水池上營運所","LANDMARKAD":"1001406","ADDRESS":"台東縣池上鄉中山路198號","TEL":" ","COUNTYNAME":"台東縣","TOWNNAME":"池上鄉","MARKTYPE":"994","Class":"4"},"geometry":{"x":272223.56479999982,"y":2557903.0975000001}},{"attributes":{"OBJECTID":2769,"LANDMARKID":"1001400000506","LANDMARKCO":"405","LANDMARKNA":"台塑加油站-富池站(台塑)","LANDMARKAD":"1001406","ADDRESS":"台東縣池上鄉慶豐村慶豐65-5號","TEL":"08-9865008","COUNTYNAME":"台東縣","TOWNNAME":"池上鄉","MARKTYPE":"994","Class":"4"},"geometry":{"x":273635.97740000021,"y":2558412.5188999996}},{"attributes":{"OBJECTID":2770,"LANDMARKID":"1001400000078","LANDMARKCO":"103","LANDMARKNA":"台東縣池上鄉衛生所","LANDMARKAD":"1001406","ADDRESS":"台東縣池上鄉中山路104號","TEL":"089-862171","COUNTYNAME":"台東縣","TOWNNAME":"池上鄉","MARKTYPE":"991","Class":"1"},"geometry":{"x":271999.37409999967,"y":2557779.8717}},{"attributes":{"OBJECTID":2771,"LANDMARKID":"1001400000207","LANDMARKCO":"108","LANDMARKNA":"台東縣池上鄉公所","LANDMARKAD":"1001406","ADDRESS":"台東縣池上鄉中山路101號","TEL":"089-862041","COUNTYNAME":"台東縣","TOWNNAME":"池上鄉","MARKTYPE":"991","Class":"1"},"geometry":{"x":272047.00960000046,"y":2557839.8007999994}},{"attributes":{"OBJECTID":2772,"LANDMARKID":"1001400000079","LANDMARKCO":"103","LANDMARKNA":"台東縣池上鄉鄉民代表會","LANDMARKAD":"1001406","ADDRESS":"台東縣池上鄉中山路101號","TEL":"089-862059","COUNTYNAME":"台東縣","TOWNNAME":"池上鄉","MARKTYPE":"991","Class":"1"},"geometry":{"x":272051.4486999996,"y":2557829.7949000001}},{"attributes":{"OBJECTID":2773,"LANDMARKID":"1001400000149","LANDMARKCO":"107","LANDMARKNA":"台東縣消防局池上消防分隊","LANDMARKAD":"1001406","ADDRESS":"台東縣池上鄉東欣路119號","TEL":"089-862669","COUNTYNAME":"台東縣","TOWNNAME":"池上鄉","MARKTYPE":"991","Class":"1"},"geometry":{"x":272378.39829999954,"y":2558099.7280000001}},{"attributes":{"OBJECTID":2774,"LANDMARKID":"1001400000150","LANDMARKCO":"107","LANDMARKNA":"台東縣警察局池上分駐所","LANDMARKAD":"1001406","ADDRESS":"台東縣池上鄉中山路211號","TEL":"089-862004","COUNTYNAME":"台東縣","TOWNNAME":"池上鄉","MARKTYPE":"991","Class":"1"},"geometry":{"x":272391.41349999979,"y":2558109.7084999997}},{"attributes":{"OBJECTID":2775,"LANDMARKID":"1001400000101","LANDMARKCO":"106","LANDMARKNA":"台東縣池上鄉戶政事務所","LANDMARKAD":"1001406","ADDRESS":"台東縣池上鄉新興村東欣路118號","TEL":"089-862034","COUNTYNAME":"台東縣","TOWNNAME":"池上鄉","MARKTYPE":"991","Class":"1"},"geometry":{"x":272403.41370000038,"y":2558109.6905000005}},{"attributes":{"OBJECTID":2776,"LANDMARKID":"1001400000148","LANDMARKCO":"107","LANDMARKNA":"台東縣警察局錦安派出所","LANDMARKAD":"1001406","ADDRESS":"台東縣池上鄉萬安村12號","TEL":"089-862344","COUNTYNAME":"台東縣","TOWNNAME":"池上鄉","MARKTYPE":"991","Class":"1"},"geometry":{"x":272567.31560000032,"y":2554659.8769000005}},{"attributes":{"OBJECTID":2777,"LANDMARKID":"1001400000379","LANDMARKCO":"204","LANDMARKNA":"台東縣立圖書館池上分館","LANDMARKAD":"1001406","ADDRESS":"台東縣池上鄉大埔村5鄰49之1號","TEL":" ","COUNTYNAME":"台東縣","TOWNNAME":"池上鄉","MARKTYPE":"992","Class":"2"},"geometry":{"x":271963.03670000006,"y":2557493.1767999995}},{"attributes":{"OBJECTID":2778,"LANDMARKID":"1001400000301","LANDMARKCO":"203","LANDMARKNA":"縣立福原國小","LANDMARKAD":"1001406","ADDRESS":"台東縣池上鄉福原村中華路17號","TEL":"089-862017","COUNTYNAME":"台東縣","TOWNNAME":"池上鄉","MARKTYPE":"992","Class":"2"},"geometry":{"x":271988.0279000001,"y":2558159.8870999999}},{"attributes":{"OBJECTID":2779,"LANDMARKID":"1001400000302","LANDMARKCO":"203","LANDMARKNA":"縣立池上國中","LANDMARKAD":"1001406","ADDRESS":"台東縣池上鄉新興村88號","TEL":"089-862040","COUNTYNAME":"台東縣","TOWNNAME":"池上鄉","MARKTYPE":"992","Class":"2"},"geometry":{"x":270941.30939999968,"y":2557129.7681000009}},{"attributes":{"OBJECTID":2780,"LANDMARKID":"1001400000303","LANDMARKCO":"203","LANDMARKNA":"縣立萬安國小振興分校","LANDMARKAD":"1001406","ADDRESS":"台東縣池上鄉振興村6鄰36號","TEL":"089-951026","COUNTYNAME":"台東縣","TOWNNAME":"池上鄉","MARKTYPE":"992","Class":"2"},"geometry":{"x":270020.25310000032,"y":2549099.8830999993}},{"attributes":{"OBJECTID":2781,"LANDMARKID":"1001400000304","LANDMARKCO":"203","LANDMARKNA":"縣立萬安國小","LANDMARKAD":"1001406","ADDRESS":"台東縣池上鄉萬安村1鄰5之2號","TEL":"089-862371","COUNTYNAME":"台東縣","TOWNNAME":"池上鄉","MARKTYPE":"992","Class":"2"},"geometry":{"x":272409.13769999985,"y":2554849.6890999991}},{"attributes":{"OBJECTID":2782,"LANDMARKID":"1001400000305","LANDMARKCO":"203","LANDMARKNA":"縣立大坡國小","LANDMARKAD":"1001406","ADDRESS":"台東縣池上鄉慶豐村8鄰87號","TEL":"089-862664","COUNTYNAME":"台東縣","TOWNNAME":"池上鄉","MARKTYPE":"992","Class":"2"},"geometry":{"x":273618.04179999977,"y":2558169.9995000008}},{"attributes":{"OBJECTID":2783,"LANDMARKID":"1001400000421","LANDMARKCO":"302","LANDMARKNA":"鼎東汽車客運池上站","LANDMARKAD":"1001406","ADDRESS":"台東縣池上鄉","TEL":" ","COUNTYNAME":"台東縣","TOWNNAME":"池上鄉","MARKTYPE":"993","Class":"302"},"geometry":{"x":272220.61440000031,"y":2557975.8924000002}},{"attributes":{"OBJECTID":2784,"LANDMARKID":"1001400000402","LANDMARKCO":"301","LANDMARKNA":"池上火車站","LANDMARKAD":"1001406","ADDRESS":"台東縣池上鄉鐵花路30號","TEL":"089-862097","COUNTYNAME":"台東縣","TOWNNAME":"池上鄉","MARKTYPE":"993","Class":"301"},"geometry":{"x":272478.54619999975,"y":2558251.9697999991}},{"attributes":{"OBJECTID":2785,"LANDMARKID":"1001400000485","LANDMARKCO":"402","LANDMARKNA":"中華電信-池上服務中心","LANDMARKAD":"1001406","ADDRESS":"台東縣池上鄉中山路103之1號","TEL":"123或0800-080-123","COUNTYNAME":"台東縣","TOWNNAME":"池上鄉","MARKTYPE":"994","Class":"4"},"geometry":{"x":272059.5103000002,"y":2557854.6664000005}},{"attributes":{"OBJECTID":2786,"LANDMARKID":"1001400000766","LANDMARKCO":"604","LANDMARKNA":"燕之家民宿","LANDMARKAD":"1001406","ADDRESS":"台東縣池上鄉福原村仁愛路189號","TEL":"089-865690","COUNTYNAME":"台東縣","TOWNNAME":"池上鄉","MARKTYPE":"996","Class":"6"},"geometry":{"x":272494.48919999972,"y":2557857.6153999995}},{"attributes":{"OBJECTID":2787,"LANDMARKID":"1001400000767","LANDMARKCO":"604","LANDMARKNA":"池畔驛站","LANDMARKAD":"1001406","ADDRESS":"台東縣池上鄉福原村仁愛路320號","TEL":"089-865937","COUNTYNAME":"台東縣","TOWNNAME":"池上鄉","MARKTYPE":"996","Class":"6"},"geometry":{"x":272779.11510000005,"y":2558045.1885000002}},{"attributes":{"OBJECTID":2788,"LANDMARKID":"1001400000768","LANDMARKCO":"604","LANDMARKNA":"居之安民宿","LANDMARKAD":"1001406","ADDRESS":"台東縣池上鄉福原村忠孝路219號","TEL":"0932-661703","COUNTYNAME":"台東縣","TOWNNAME":"池上鄉","MARKTYPE":"996","Class":"6"},"geometry":{"x":272442.04999999981,"y":2557905.1384999994}},{"attributes":{"OBJECTID":2789,"LANDMARKID":"1001400000769","LANDMARKCO":"604","LANDMARKNA":"岑池軒民宿","LANDMARKAD":"1001406","ADDRESS":"台東縣池上鄉福原村慶福路52巷2號","TEL":"089-862100","COUNTYNAME":"台東縣","TOWNNAME":"池上鄉","MARKTYPE":"996","Class":"6"},"geometry":{"x":272698.96490000002,"y":2558163.1338}},{"attributes":{"OBJECTID":2790,"LANDMARKID":"1001400000615","LANDMARKCO":"503","LANDMARKNA":"大坡池風景區","LANDMARKAD":"1001406","ADDRESS":"台東縣池上鄉","TEL":" ","COUNTYNAME":"台東縣","TOWNNAME":"池上鄉","MARKTYPE":"995","Class":"5"},"geometry":{"x":272862.14639999997,"y":2557616.7357000001}},{"attributes":{"OBJECTID":2791,"LANDMARKID":"1001400000634","LANDMARKCO":"505","LANDMARKNA":"池上牧野渡假村","LANDMARKAD":"1001406","ADDRESS":"台東縣池上鄉新興村110號","TEL":" ","COUNTYNAME":"台東縣","TOWNNAME":"池上鄉","MARKTYPE":"995","Class":"5"},"geometry":{"x":270141.9523,"y":2557496.2423999999}},{"attributes":{"OBJECTID":2792,"LANDMARKID":"1001400000520","LANDMARKCO":"405","LANDMARKNA":"中油加油站-關山站(中油直營)","LANDMARKAD":"1001403","ADDRESS":"台東縣關山鎮和平路24號","TEL":"089-811124","COUNTYNAME":"台東縣","TOWNNAME":"關山鎮","MARKTYPE":"994","Class":"4"},"geometry":{"x":266750.15780000016,"y":2549358.3728}},{"attributes":{"OBJECTID":2793,"LANDMARKID":"1001400000467","LANDMARKCO":"401","LANDMARKNA":"佛教慈濟綜合醫院-關山院區","LANDMARKAD":"1001403","ADDRESS":"台東縣關山鎮和平路125號之5","TEL":"089-814880","COUNTYNAME":"台東縣","TOWNNAME":"關山鎮","MARKTYPE":"994","Class":"4"},"geometry":{"x":266858.24540000036,"y":2549739.9326000009}},{"attributes":{"OBJECTID":2794,"LANDMARKID":"1001400000635","LANDMARKCO":"506","LANDMARKNA":"香丁觀光果園","LANDMARKAD":"1001403","ADDRESS":"台東縣關山鎮月眉國小西側","TEL":"089-811680","COUNTYNAME":"台東縣","TOWNNAME":"關山鎮","MARKTYPE":"995","Class":"5"},"geometry":{"x":265808.4645999996,"y":2545166.9794999994}},{"attributes":{"OBJECTID":2795,"LANDMARKID":"1001400000581","LANDMARKCO":"408","LANDMARKNA":"郵局-關山郵局","LANDMARKAD":"1001403","ADDRESS":"台東縣關山鎮中正路25號","TEL":"(089)811-116","COUNTYNAME":"台東縣","TOWNNAME":"關山鎮","MARKTYPE":"994","Class":"4"},"geometry":{"x":266466.56830000039,"y":2549571.8928999994}},{"attributes":{"OBJECTID":2796,"LANDMARKID":"1001400000596","LANDMARKCO":"409","LANDMARKNA":"台東縣關山鎮農會","LANDMARKAD":"1001403","ADDRESS":"台東縣關山鎮和平路78號","TEL":"089-811009","COUNTYNAME":"台東縣","TOWNNAME":"關山鎮","MARKTYPE":"994","Class":"4"},"geometry":{"x":266832.31429999974,"y":2549593.5701000001}},{"attributes":{"OBJECTID":2797,"LANDMARKID":"1001400000558","LANDMARKCO":"406","LANDMARKNA":"豐泉公園","LANDMARKAD":"1001403","ADDRESS":"台東縣關山鎮","TEL":" ","COUNTYNAME":"台東縣","TOWNNAME":"關山鎮","MARKTYPE":"994","Class":"4"},"geometry":{"x":266628.30580000021,"y":2549996.8148999996}},{"attributes":{"OBJECTID":2798,"LANDMARKID":"1001400000559","LANDMARKCO":"406","LANDMARKNA":"里攏公園","LANDMARKAD":"1001403","ADDRESS":"台東縣關山鎮","TEL":" ","COUNTYNAME":"台東縣","TOWNNAME":"關山鎮","MARKTYPE":"994","Class":"4"},"geometry":{"x":266536.24139999971,"y":2549249.9149999991}},{"attributes":{"OBJECTID":2799,"LANDMARKID":"1001400000560","LANDMARKCO":"406","LANDMARKNA":"關山環保親水公園","LANDMARKAD":"1001403","ADDRESS":"台東縣關山鎮中山路54號","TEL":" ","COUNTYNAME":"台東縣","TOWNNAME":"關山鎮","MARKTYPE":"994","Class":"4"},"geometry":{"x":267657.7555999998,"y":2548528.7272999994}},{"attributes":{"OBJECTID":2800,"LANDMARKID":"1001400000521","LANDMARKCO":"405","LANDMARKNA":"台塑加油站-德高站(台塑)","LANDMARKAD":"1001403","ADDRESS":"台東縣關山鎮德高里永豐70-3號","TEL":"08-9930018","COUNTYNAME":"台東縣","TOWNNAME":"關山鎮","MARKTYPE":"994","Class":"4"},"geometry":{"x":268032.57270000037,"y":2553099.3518000003}}]}