{"displayFieldName":"COUNTYNAME","fieldAliases":{"OBJECTID":"OBJECTID","LANDMARKID":"LANDMARKID","LANDMARKCO":"LANDMARKCO","LANDMARKNA":"LANDMARKNA","LANDMARKAD":"LANDMARKAD","ADDRESS":"ADDRESS","TEL":"TEL","COUNTYNAME":"COUNTYNAME","TOWNNAME":"TOWNNAME","MARKTYPE":"MARKTYPE","Class":"Class"},"geometryType":"esriGeometryPoint","spatialReference":{"wkid":4326},"fields":[{"name":"OBJECTID","type":"esriFieldTypeOID","alias":"OBJECTID"},{"name":"LANDMARKID","type":"esriFieldTypeString","alias":"LANDMARKID","length":15},{"name":"LANDMARKCO","type":"esriFieldTypeString","alias":"LANDMARKCO","length":15},{"name":"LANDMARKNA","type":"esriFieldTypeString","alias":"LANDMARKNA","length":50},{"name":"LANDMARKAD","type":"esriFieldTypeString","alias":"LANDMARKAD","length":15},{"name":"ADDRESS","type":"esriFieldTypeString","alias":"ADDRESS","length":56},{"name":"TEL","type":"esriFieldTypeString","alias":"TEL","length":36},{"name":"COUNTYNAME","type":"esriFieldTypeString","alias":"COUNTYNAME","length":15},{"name":"TOWNNAME","type":"esriFieldTypeString","alias":"TOWNNAME","length":13},{"name":"MARKTYPE","type":"esriFieldTypeString","alias":"MARKTYPE","length":12},{"name":"Class","type":"esriFieldTypeString","alias":"Class","length":5}],"features":[{"attributes":{"OBJECTID":201,"LANDMARKID":"1000900000434","LANDMARKCO":"203","LANDMARKNA":"縣立重興國小","LANDMARKAD":"1000910","ADDRESS":"雲林縣林內鄉重興村重興路15號","TEL":"05-5892044","COUNTYNAME":"雲林縣","TOWNNAME":"林內鄉","MARKTYPE":"992","Class":"2"},"geometry":{"x":120.57889106135875,"y":23.764447708827241}},{"attributes":{"OBJECTID":202,"LANDMARKID":"1000900000435","LANDMARKCO":"203","LANDMARKNA":"縣立民生國小","LANDMARKAD":"1000910","ADDRESS":"雲林縣林內鄉烏塗村華興路1號","TEL":"05-5892714","COUNTYNAME":"雲林縣","TOWNNAME":"林內鄉","MARKTYPE":"992","Class":"2"},"geometry":{"x":120.59692322555125,"y":23.767479064515634}},{"attributes":{"OBJECTID":203,"LANDMARKID":"1000900000253","LANDMARKCO":"202","LANDMARKNA":"私立義峰高中","LANDMARKAD":"1000910","ADDRESS":"雲林縣林內鄉烏麻村長源路3之10號","TEL":"05-5898412","COUNTYNAME":"雲林縣","TOWNNAME":"林內鄉","MARKTYPE":"992","Class":"2"},"geometry":{"x":120.59378683967405,"y":23.755279861302409}},{"attributes":{"OBJECTID":204,"LANDMARKID":"1000900000416","LANDMARKCO":"203","LANDMARKNA":"私立淵明國中","LANDMARKAD":"1000910","ADDRESS":"雲林縣林內鄉公園路3號","TEL":"05-5892027","COUNTYNAME":"雲林縣","TOWNNAME":"林內鄉","MARKTYPE":"992","Class":"2"},"geometry":{"x":120.61460234228998,"y":23.753974901423973}},{"attributes":{"OBJECTID":205,"LANDMARKID":"1000900000417","LANDMARKCO":"203","LANDMARKNA":"縣立成功國小","LANDMARKAD":"1000910","ADDRESS":"雲林縣林內鄉坪頂村1號","TEL":"05-5892090","COUNTYNAME":"雲林縣","TOWNNAME":"林內鄉","MARKTYPE":"992","Class":"2"},"geometry":{"x":120.64010029584306,"y":23.756926952178169}},{"attributes":{"OBJECTID":206,"LANDMARKID":"1000900000418","LANDMARKCO":"203","LANDMARKNA":"縣立林中國小","LANDMARKAD":"1000910","ADDRESS":"雲林縣林內鄉林中村公園路4號","TEL":"05-5892064","COUNTYNAME":"雲林縣","TOWNNAME":"林內鄉","MARKTYPE":"992","Class":"2"},"geometry":{"x":120.61498890052414,"y":23.754970105739744}},{"attributes":{"OBJECTID":207,"LANDMARKID":"1000900000564","LANDMARKCO":"308","LANDMARKNA":"國3-斗六交流道-北上","LANDMARKAD":"1000910","ADDRESS":"雲林縣林內鄉","TEL":" ","COUNTYNAME":"雲林縣","TOWNNAME":"林內鄉","MARKTYPE":"993","Class":"308"},"geometry":{"x":120.5950264129186,"y":23.733798468734609}},{"attributes":{"OBJECTID":208,"LANDMARKID":"1000900000505","LANDMARKCO":"301","LANDMARKNA":"林內火車站","LANDMARKAD":"1000910","ADDRESS":"雲林縣林內鄉中山路42號","TEL":"05-5892040","COUNTYNAME":"雲林縣","TOWNNAME":"林內鄉","MARKTYPE":"993","Class":"301"},"geometry":{"x":120.61442821016958,"y":23.759183075020957}},{"attributes":{"OBJECTID":209,"LANDMARKID":"1000900000634","LANDMARKCO":"402","LANDMARKNA":"中華電信-林內服務中心","LANDMARKAD":"1000910","ADDRESS":"雲林縣林內鄉中正路382號","TEL":"(05)589-2081","COUNTYNAME":"雲林縣","TOWNNAME":"林內鄉","MARKTYPE":"994","Class":"4"},"geometry":{"x":120.6128665803369,"y":23.755526314014805}},{"attributes":{"OBJECTID":210,"LANDMARKID":"1000900000910","LANDMARKCO":"603","LANDMARKNA":"林內大旅社","LANDMARKAD":"1000910","ADDRESS":"雲林縣林內鄉林中村中山路4號","TEL":"05-5891368","COUNTYNAME":"雲林縣","TOWNNAME":"林內鄉","MARKTYPE":"996","Class":"6"},"geometry":{"x":120.61574654273471,"y":23.759037243395621}},{"attributes":{"OBJECTID":211,"LANDMARKID":"1000900000715","LANDMARKCO":"405","LANDMARKNA":"台糖加油站-龍林站(中油）","LANDMARKAD":"1000915","ADDRESS":"雲林縣褒忠鄉潮厝村潮厝46-18號","TEL":" ","COUNTYNAME":"雲林縣","TOWNNAME":"褒忠鄉","MARKTYPE":"994","Class":"4"},"geometry":{"x":120.32759361753386,"y":23.719786971525046}},{"attributes":{"OBJECTID":212,"LANDMARKID":"1000900000716","LANDMARKCO":"405","LANDMARKNA":"中油加油站-褒忠站(中油直營)","LANDMARKAD":"1000915","ADDRESS":"雲林縣褒忠鄉埔姜村三民路231號","TEL":"05-6974165","COUNTYNAME":"雲林縣","TOWNNAME":"褒忠鄉","MARKTYPE":"994","Class":"4"},"geometry":{"x":120.31647276807725,"y":23.70163284805006}},{"attributes":{"OBJECTID":213,"LANDMARKID":"1000900000796","LANDMARKCO":"408","LANDMARKNA":"郵局-褒忠郵局","LANDMARKAD":"1000915","ADDRESS":"雲林縣褒忠鄉三民路44號","TEL":"(05)6972-043","COUNTYNAME":"雲林縣","TOWNNAME":"褒忠鄉","MARKTYPE":"994","Class":"4"},"geometry":{"x":120.31167946598433,"y":23.693374004195508}},{"attributes":{"OBJECTID":214,"LANDMARKID":"1000900000830","LANDMARKCO":"409","LANDMARKNA":"雲林縣褒忠鄉農會","LANDMARKAD":"1000915","ADDRESS":"雲林縣褒忠鄉中正路131號","TEL":"05-6972111","COUNTYNAME":"雲林縣","TOWNNAME":"褒忠鄉","MARKTYPE":"994","Class":"4"},"geometry":{"x":120.31125838839044,"y":23.694760373548171}},{"attributes":{"OBJECTID":215,"LANDMARKID":"1000900000651","LANDMARKCO":"404","LANDMARKNA":"台灣省自來水褒忠營運所","LANDMARKAD":"1000915","ADDRESS":"雲林縣褒忠鄉三民路46巷17號","TEL":" ","COUNTYNAME":"雲林縣","TOWNNAME":"褒忠鄉","MARKTYPE":"994","Class":"4"},"geometry":{"x":120.31177518159704,"y":23.692439486999294}},{"attributes":{"OBJECTID":216,"LANDMARKID":"1000900000766","LANDMARKCO":"406","LANDMARKNA":"中正紀念公園","LANDMARKAD":"1000915","ADDRESS":"雲林縣褒忠鄉","TEL":" ","COUNTYNAME":"雲林縣","TOWNNAME":"褒忠鄉","MARKTYPE":"994","Class":"4"},"geometry":{"x":120.27690001183268,"y":23.698452936140459}},{"attributes":{"OBJECTID":217,"LANDMARKID":"1000900000227","LANDMARKCO":"108","LANDMARKNA":"雲林縣褒忠鄉公所","LANDMARKAD":"1000915","ADDRESS":"雲林縣褒忠鄉中正路451號","TEL":"05-6972005","COUNTYNAME":"雲林縣","TOWNNAME":"褒忠鄉","MARKTYPE":"991","Class":"1"},"geometry":{"x":120.30394361451478,"y":23.691197252281299}},{"attributes":{"OBJECTID":218,"LANDMARKID":"1000900000081","LANDMARKCO":"103","LANDMARKNA":"雲林縣褒忠鄉衛生所","LANDMARKAD":"1000915","ADDRESS":"雲林縣褒忠鄉添財街21號","TEL":"05-6972004","COUNTYNAME":"雲林縣","TOWNNAME":"褒忠鄉","MARKTYPE":"991","Class":"1"},"geometry":{"x":120.30415456132313,"y":23.69347121700773}},{"attributes":{"OBJECTID":219,"LANDMARKID":"1000900000082","LANDMARKCO":"103","LANDMARKNA":"雲林縣褒忠鄉鄉民代表會","LANDMARKAD":"1000915","ADDRESS":"雲林縣褒忠鄉中正路451號2樓","TEL":"05-6972075","COUNTYNAME":"雲林縣","TOWNNAME":"褒忠鄉","MARKTYPE":"991","Class":"1"},"geometry":{"x":120.30394361451478,"y":23.691197252281299}},{"attributes":{"OBJECTID":220,"LANDMARKID":"1000900000219","LANDMARKCO":"107","LANDMARKNA":"雲林縣消防局褒忠消防分隊","LANDMARKAD":"1000915","ADDRESS":"雲林縣褒忠鄉中勝村中正路453號","TEL":"05-6972146","COUNTYNAME":"雲林縣","TOWNNAME":"褒忠鄉","MARKTYPE":"991","Class":"1"},"geometry":{"x":120.30340892295841,"y":23.690895871489886}},{"attributes":{"OBJECTID":221,"LANDMARKID":"1000900000220","LANDMARKCO":"107","LANDMARKNA":"雲林縣警察局龍岩派出所","LANDMARKAD":"1000915","ADDRESS":"雲林縣褒忠鄉田洋村中新路1號","TEL":"05-6972544","COUNTYNAME":"雲林縣","TOWNNAME":"褒忠鄉","MARKTYPE":"991","Class":"1"},"geometry":{"x":120.3100823624614,"y":23.719838381990151}},{"attributes":{"OBJECTID":222,"LANDMARKID":"1000900000221","LANDMARKCO":"107","LANDMARKNA":"雲林縣警察局褒忠分駐所","LANDMARKAD":"1000915","ADDRESS":"雲林縣褒忠鄉中勝村中正路274號","TEL":"05-6972040","COUNTYNAME":"雲林縣","TOWNNAME":"褒忠鄉","MARKTYPE":"991","Class":"1"},"geometry":{"x":120.31055103004893,"y":23.694692136017956}},{"attributes":{"OBJECTID":223,"LANDMARKID":"1000900000110","LANDMARKCO":"106","LANDMARKNA":"雲林縣褒忠鄉戶政事務所","LANDMARKAD":"1000915","ADDRESS":"雲林縣褒忠鄉中勝村14鄰泰安路3號","TEL":"05-6972348","COUNTYNAME":"雲林縣","TOWNNAME":"褒忠鄉","MARKTYPE":"991","Class":"1"},"geometry":{"x":120.30474885880771,"y":23.692607439207332}},{"attributes":{"OBJECTID":224,"LANDMARKID":"1000900000485","LANDMARKCO":"204","LANDMARKNA":"雲林縣立圖書館褒忠分館","LANDMARKAD":"1000915","ADDRESS":"雲林縣褒忠鄉埔姜村中勝路70號","TEL":" ","COUNTYNAME":"雲林縣","TOWNNAME":"褒忠鄉","MARKTYPE":"992","Class":"2"},"geometry":{"x":120.30987815475017,"y":23.6993256856206}},{"attributes":{"OBJECTID":225,"LANDMARKID":"1000900000419","LANDMARKCO":"203","LANDMARKNA":"縣立龍巖國小","LANDMARKAD":"1000915","ADDRESS":"雲林縣褒忠鄉民生路28巷15號","TEL":"05-6972454","COUNTYNAME":"雲林縣","TOWNNAME":"褒忠鄉","MARKTYPE":"992","Class":"2"},"geometry":{"x":120.30836752382054,"y":23.722386588189178}},{"attributes":{"OBJECTID":226,"LANDMARKID":"1000900000420","LANDMARKCO":"203","LANDMARKNA":"縣立褒忠國中","LANDMARKAD":"1000915","ADDRESS":"雲林縣褒忠鄉中勝路62號","TEL":"05-6972056","COUNTYNAME":"雲林縣","TOWNNAME":"褒忠鄉","MARKTYPE":"992","Class":"2"},"geometry":{"x":120.31078290946743,"y":23.699191876114206}},{"attributes":{"OBJECTID":227,"LANDMARKID":"1000900000421","LANDMARKCO":"203","LANDMARKNA":"縣立褒忠國小","LANDMARKAD":"1000915","ADDRESS":"雲林縣褒忠鄉埔姜村中勝路72號","TEL":"05-6972054","COUNTYNAME":"雲林縣","TOWNNAME":"褒忠鄉","MARKTYPE":"992","Class":"2"},"geometry":{"x":120.31045276102529,"y":23.700857747893842}},{"attributes":{"OBJECTID":228,"LANDMARKID":"1000900000422","LANDMARKCO":"203","LANDMARKNA":"縣立復興國小","LANDMARKAD":"1000915","ADDRESS":"雲林縣褒忠鄉新湖村復興路71號","TEL":"05-6972490","COUNTYNAME":"雲林縣","TOWNNAME":"褒忠鄉","MARKTYPE":"992","Class":"2"},"geometry":{"x":120.28391921235668,"y":23.704807101979622}},{"attributes":{"OBJECTID":229,"LANDMARKID":"1000900000423","LANDMARKCO":"203","LANDMARKNA":"縣立潮厝國小","LANDMARKAD":"1000915","ADDRESS":"雲林縣褒忠鄉潮厝村96號","TEL":"05-6972644","COUNTYNAME":"雲林縣","TOWNNAME":"褒忠鄉","MARKTYPE":"992","Class":"2"},"geometry":{"x":120.33854168707215,"y":23.720361759814534}},{"attributes":{"OBJECTID":230,"LANDMARKID":"1000900000532","LANDMARKCO":"303","LANDMARKNA":"馬鳴山鎮安宮停車場","LANDMARKAD":"1000915","ADDRESS":"雲林縣褒忠鄉鎮安路31號","TEL":" ","COUNTYNAME":"雲林縣","TOWNNAME":"褒忠鄉","MARKTYPE":"993","Class":"303"},"geometry":{"x":120.27835129244653,"y":23.699351763361573}},{"attributes":{"OBJECTID":231,"LANDMARKID":"1000900000533","LANDMARKCO":"303","LANDMARKNA":"馬鳴山鎮安宮停車場","LANDMARKAD":"1000915","ADDRESS":"雲林縣褒忠鄉鎮安路31號","TEL":" ","COUNTYNAME":"雲林縣","TOWNNAME":"褒忠鄉","MARKTYPE":"993","Class":"303"},"geometry":{"x":120.27899023292503,"y":23.699033880396996}},{"attributes":{"OBJECTID":232,"LANDMARKID":"1000900000506","LANDMARKCO":"302","LANDMARKNA":"台西汽車客運褒忠站","LANDMARKAD":"1000915","ADDRESS":"雲林縣褒忠鄉中正路105號","TEL":" ","COUNTYNAME":"雲林縣","TOWNNAME":"褒忠鄉","MARKTYPE":"993","Class":"302"},"geometry":{"x":120.31272694067906,"y":23.694889957291341}},{"attributes":{"OBJECTID":233,"LANDMARKID":"1000900000531","LANDMARKCO":"303","LANDMARKNA":"褒忠鄉三民路停車場","LANDMARKAD":"1000915","ADDRESS":"雲林縣褒忠鄉三民路147巷","TEL":" ","COUNTYNAME":"雲林縣","TOWNNAME":"褒忠鄉","MARKTYPE":"993","Class":"303"},"geometry":{"x":120.30967565854775,"y":23.719620122406848}},{"attributes":{"OBJECTID":234,"LANDMARKID":"1000900000633","LANDMARKCO":"402","LANDMARKNA":"中華電信-褒忠服務中心","LANDMARKAD":"1000915","ADDRESS":"雲林縣褒忠鄉中正路67號","TEL":"(05)697-3044","COUNTYNAME":"雲林縣","TOWNNAME":"褒忠鄉","MARKTYPE":"994","Class":"4"},"geometry":{"x":120.3144300107912,"y":23.695219043163362}},{"attributes":{"OBJECTID":235,"LANDMARKID":"1000900000713","LANDMARKCO":"405","LANDMARKNA":"中油加油站-臺西站(中油直營)","LANDMARKAD":"1000916","ADDRESS":"雲林縣台西鄉中山路３６號","TEL":" ","COUNTYNAME":"雲林縣","TOWNNAME":"台西鄉","MARKTYPE":"994","Class":"4"},"geometry":{"x":120.20276484304786,"y":23.699059301554293}},{"attributes":{"OBJECTID":236,"LANDMARKID":"1000900000714","LANDMARKCO":"405","LANDMARKNA":"中油加油站-全民站","LANDMARKAD":"1000916","ADDRESS":"雲林縣台西鄉海豐路398號","TEL":"05-6980160","COUNTYNAME":"雲林縣","TOWNNAME":"台西鄉","MARKTYPE":"994","Class":"4"},"geometry":{"x":120.19081358980723,"y":23.705043508595811}},{"attributes":{"OBJECTID":237,"LANDMARKID":"1000900000587","LANDMARKCO":"401","LANDMARKNA":"全民醫院","LANDMARKAD":"1000916","ADDRESS":"雲林縣台西鄉中山路391號","TEL":"05-6983885","COUNTYNAME":"雲林縣","TOWNNAME":"台西鄉","MARKTYPE":"994","Class":"4"},"geometry":{"x":120.1935075794063,"y":23.700620923754261}},{"attributes":{"OBJECTID":238,"LANDMARKID":"1000900000795","LANDMARKCO":"408","LANDMARKNA":"郵局-台西郵局","LANDMARKAD":"1000916","ADDRESS":"雲林縣台西鄉中山路161號","TEL":"(05)6982-048","COUNTYNAME":"雲林縣","TOWNNAME":"台西鄉","MARKTYPE":"994","Class":"4"},"geometry":{"x":120.19831822982493,"y":23.700289751513782}},{"attributes":{"OBJECTID":239,"LANDMARKID":"1000900000831","LANDMARKCO":"409","LANDMARKNA":"雲林縣台西鄉農會","LANDMARKAD":"1000916","ADDRESS":"雲林縣台西鄉中山路122號","TEL":"05-6985301","COUNTYNAME":"雲林縣","TOWNNAME":"台西鄉","MARKTYPE":"994","Class":"4"},"geometry":{"x":120.19671748051441,"y":23.700614449573454}},{"attributes":{"OBJECTID":240,"LANDMARKID":"1000900000652","LANDMARKCO":"404","LANDMARKNA":"台灣省自來水台西營運所","LANDMARKAD":"1000916","ADDRESS":"雲林縣台西鄉民權路7號","TEL":" ","COUNTYNAME":"雲林縣","TOWNNAME":"台西鄉","MARKTYPE":"994","Class":"4"},"geometry":{"x":120.19956194782178,"y":23.700553225004846}},{"attributes":{"OBJECTID":241,"LANDMARKID":"1000900000767","LANDMARKCO":"406","LANDMARKNA":"三姓農地重劃紀念公園","LANDMARKAD":"1000916","ADDRESS":"雲林縣台西鄉","TEL":" ","COUNTYNAME":"雲林縣","TOWNNAME":"台西鄉","MARKTYPE":"994","Class":"4"},"geometry":{"x":120.22542005678049,"y":23.746432072837379}},{"attributes":{"OBJECTID":242,"LANDMARKID":"1000900000712","LANDMARKCO":"405","LANDMARKNA":"台塑加油站-五港站(台塑)","LANDMARKAD":"1000916","ADDRESS":"雲林縣台西鄉五港村五港路653號","TEL":"05-6986400","COUNTYNAME":"雲林縣","TOWNNAME":"台西鄉","MARKTYPE":"994","Class":"4"},"geometry":{"x":120.20632956043528,"y":23.714797774269215}},{"attributes":{"OBJECTID":243,"LANDMARKID":"1000900000229","LANDMARKCO":"108","LANDMARKNA":"雲林縣台西鄉公所","LANDMARKAD":"1000916","ADDRESS":"雲林縣台西鄉中山路293號","TEL":"05-6982004","COUNTYNAME":"雲林縣","TOWNNAME":"台西鄉","MARKTYPE":"991","Class":"1"},"geometry":{"x":120.19441072112234,"y":23.700540068579638}},{"attributes":{"OBJECTID":244,"LANDMARKID":"1000900000074","LANDMARKCO":"103","LANDMARKNA":"雲林縣台西鄉鄉民代表會","LANDMARKAD":"1000916","ADDRESS":"雲林縣台西鄉中山路293號2樓","TEL":"05-6982059","COUNTYNAME":"雲林縣","TOWNNAME":"台西鄉","MARKTYPE":"991","Class":"1"},"geometry":{"x":120.19673673568866,"y":23.700369172190864}},{"attributes":{"OBJECTID":245,"LANDMARKID":"1000900000075","LANDMARKCO":"103","LANDMARKNA":"雲林縣台西鄉衛生所","LANDMARKAD":"1000916","ADDRESS":"雲林縣台西鄉民生路36號","TEL":"05-6982148","COUNTYNAME":"雲林縣","TOWNNAME":"台西鄉","MARKTYPE":"991","Class":"1"},"geometry":{"x":120.1997780615106,"y":23.6988512997508}},{"attributes":{"OBJECTID":246,"LANDMARKID":"1000900000208","LANDMARKCO":"107","LANDMARKNA":"雲林縣消防局台西消防分隊","LANDMARKAD":"1000916","ADDRESS":"雲林縣台西鄉中山路110巷38號","TEL":"05-6982209","COUNTYNAME":"雲林縣","TOWNNAME":"台西鄉","MARKTYPE":"991","Class":"1"},"geometry":{"x":120.19604930234915,"y":23.700452330816795}},{"attributes":{"OBJECTID":247,"LANDMARKID":"1000900000209","LANDMARKCO":"107","LANDMARKNA":"雲林縣警察局台西分局","LANDMARKAD":"1000916","ADDRESS":"雲林縣台西鄉台西村中山路108號","TEL":"05-6982041","COUNTYNAME":"雲林縣","TOWNNAME":"台西鄉","MARKTYPE":"991","Class":"1"},"geometry":{"x":120.19957038051633,"y":23.700384099624273}},{"attributes":{"OBJECTID":248,"LANDMARKID":"1000900000210","LANDMARKCO":"107","LANDMARKNA":"雲林縣警察局崙豐派出所","LANDMARKAD":"1000916","ADDRESS":"雲林縣台西鄉富琦村崙豐路194號","TEL":"05-6901560","COUNTYNAME":"雲林縣","TOWNNAME":"台西鄉","MARKTYPE":"991","Class":"1"},"geometry":{"x":120.21792778484769,"y":23.725934920831062}},{"attributes":{"OBJECTID":249,"LANDMARKID":"1000900000211","LANDMARKCO":"107","LANDMARKNA":"雲林縣警察局台西派出所","LANDMARKAD":"1000916","ADDRESS":"雲林縣台西鄉台西村中山路108號","TEL":"05-6982224","COUNTYNAME":"雲林縣","TOWNNAME":"台西鄉","MARKTYPE":"991","Class":"1"},"geometry":{"x":120.19953986485652,"y":23.700474079802827}},{"attributes":{"OBJECTID":250,"LANDMARKID":"1000900000112","LANDMARKCO":"106","LANDMARKNA":"雲林縣台西鄉戶政事務所","LANDMARKAD":"1000916","ADDRESS":"雲林縣臺西鄉民權路1號","TEL":"05-6982374","COUNTYNAME":"雲林縣","TOWNNAME":"台西鄉","MARKTYPE":"991","Class":"1"},"geometry":{"x":120.19581398884665,"y":23.700449885870992}},{"attributes":{"OBJECTID":251,"LANDMARKID":"1000900000106","LANDMARKCO":"105","LANDMARKNA":"雲林縣台西地政事務所","LANDMARKAD":"1000916","ADDRESS":"雲林縣台西鄉五港村中央路420號","TEL":"05-6980579#109","COUNTYNAME":"雲林縣","TOWNNAME":"台西鄉","MARKTYPE":"991","Class":"1"},"geometry":{"x":120.2003518613154,"y":23.717804408597299}},{"attributes":{"OBJECTID":252,"LANDMARKID":"1000900000076","LANDMARKCO":"103","LANDMARKNA":"雲林縣台西鄉調解委員會","LANDMARKAD":"1000916","ADDRESS":"雲林縣台西鄉中山路295號","TEL":"05-6983543","COUNTYNAME":"雲林縣","TOWNNAME":"台西鄉","MARKTYPE":"991","Class":"1"},"geometry":{"x":120.1967454360537,"y":23.7004595593442}},{"attributes":{"OBJECTID":253,"LANDMARKID":"1000900000077","LANDMARKCO":"103","LANDMARKNA":"雲林縣政府台西漁港管理站","LANDMARKAD":"1000916","ADDRESS":"雲林縣台西鄉","TEL":" ","COUNTYNAME":"雲林縣","TOWNNAME":"台西鄉","MARKTYPE":"991","Class":"1"},"geometry":{"x":120.18996130550576,"y":23.701140229619924}},{"attributes":{"OBJECTID":254,"LANDMARKID":"1000900000078","LANDMARKCO":"103","LANDMARKNA":"菜尾示範公墓殯儀館","LANDMARKAD":"1000916","ADDRESS":"雲林縣台西鄉","TEL":"05-6982754","COUNTYNAME":"雲林縣","TOWNNAME":"台西鄉","MARKTYPE":"991","Class":"1"},"geometry":{"x":120.19892240876422,"y":23.689799919456089}},{"attributes":{"OBJECTID":255,"LANDMARKID":"1000900000482","LANDMARKCO":"204","LANDMARKNA":"雲林縣立圖書館台西分館","LANDMARKAD":"1000916","ADDRESS":"雲林縣台西鄉五港路505號","TEL":" ","COUNTYNAME":"雲林縣","TOWNNAME":"台西鄉","MARKTYPE":"992","Class":"2"},"geometry":{"x":120.2109005199713,"y":23.738860232771014}},{"attributes":{"OBJECTID":256,"LANDMARKID":"1000900000436","LANDMARKCO":"203","LANDMARKNA":"縣立台西國中","LANDMARKAD":"1000916","ADDRESS":"雲林縣台西鄉中山路408號","TEL":"05-6982047","COUNTYNAME":"雲林縣","TOWNNAME":"台西鄉","MARKTYPE":"992","Class":"2"},"geometry":{"x":120.19256169022421,"y":23.701784945014801}},{"attributes":{"OBJECTID":257,"LANDMARKID":"1000900000437","LANDMARKCO":"203","LANDMARKNA":"縣立台西國小","LANDMARKAD":"1000916","ADDRESS":"雲林縣台西鄉台西村民權路9號","TEL":"05-6982045","COUNTYNAME":"雲林縣","TOWNNAME":"台西鄉","MARKTYPE":"992","Class":"2"},"geometry":{"x":120.19865181011863,"y":23.701729036137525}},{"attributes":{"OBJECTID":258,"LANDMARKID":"1000900000438","LANDMARKCO":"203","LANDMARKNA":"縣立崙豐國小","LANDMARKAD":"1000916","ADDRESS":"雲林縣台西鄉永豐村崙豐路42號","TEL":"05-6982142","COUNTYNAME":"雲林縣","TOWNNAME":"台西鄉","MARKTYPE":"992","Class":"2"},"geometry":{"x":120.20941227780766,"y":23.7201119908622}},{"attributes":{"OBJECTID":259,"LANDMARKID":"1000900000439","LANDMARKCO":"203","LANDMARKNA":"縣立新興國小","LANDMARKAD":"1000916","ADDRESS":"雲林縣台西鄉和豐村復興路53號","TEL":"05-6900143","COUNTYNAME":"雲林縣","TOWNNAME":"台西鄉","MARKTYPE":"992","Class":"2"},"geometry":{"x":120.2227519716254,"y":23.739589796608865}},{"attributes":{"OBJECTID":260,"LANDMARKID":"1000900000440","LANDMARKCO":"203","LANDMARKNA":"縣立尚德國小","LANDMARKAD":"1000916","ADDRESS":"雲林縣台西鄉溪頂村12號","TEL":"05-6982074","COUNTYNAME":"雲林縣","TOWNNAME":"台西鄉","MARKTYPE":"992","Class":"2"},"geometry":{"x":120.18950647117364,"y":23.682986568803933}},{"attributes":{"OBJECTID":261,"LANDMARKID":"1000900000441","LANDMARKCO":"203","LANDMARKNA":"縣立台西國小五榔分校","LANDMARKAD":"1000916","ADDRESS":"雲林縣台西鄉五榔村17號","TEL":"05-6982784","COUNTYNAME":"雲林縣","TOWNNAME":"台西鄉","MARKTYPE":"992","Class":"2"},"geometry":{"x":120.22816632094288,"y":23.689593570806085}},{"attributes":{"OBJECTID":262,"LANDMARKID":"1000900000442","LANDMARKCO":"203","LANDMARKNA":"縣立泉州國小","LANDMARKAD":"1000916","ADDRESS":"雲林縣台西鄉牛厝村舊泉州20號","TEL":"05-6982145","COUNTYNAME":"雲林縣","TOWNNAME":"台西鄉","MARKTYPE":"992","Class":"2"},"geometry":{"x":120.20386745246353,"y":23.675568999135759}},{"attributes":{"OBJECTID":263,"LANDMARKID":"1000900000535","LANDMARKCO":"305","LANDMARKNA":"台西漁港","LANDMARKAD":"1000916","ADDRESS":"雲林縣台西鄉","TEL":" ","COUNTYNAME":"雲林縣","TOWNNAME":"台西鄉","MARKTYPE":"993","Class":"305"},"geometry":{"x":120.17388138992573,"y":23.70361990764523}},{"attributes":{"OBJECTID":264,"LANDMARKID":"1000900000559","LANDMARKCO":"308","LANDMARKNA":"台61-五條港交流道-南下","LANDMARKAD":"1000916","ADDRESS":" ","TEL":" ","COUNTYNAME":"雲林縣","TOWNNAME":"台西鄉","MARKTYPE":"993","Class":"308"},"geometry":{"x":120.19377388480794,"y":23.712301788079785}},{"attributes":{"OBJECTID":265,"LANDMARKID":"1000900000560","LANDMARKCO":"308","LANDMARKNA":"台61-五條港交流道-北上","LANDMARKAD":"1000916","ADDRESS":" ","TEL":" ","COUNTYNAME":"雲林縣","TOWNNAME":"台西鄉","MARKTYPE":"993","Class":"308"},"geometry":{"x":120.20442620986651,"y":23.714694661702353}},{"attributes":{"OBJECTID":266,"LANDMARKID":"1000900000561","LANDMARKCO":"308","LANDMARKNA":"台61-下新興交流道-南下","LANDMARKAD":"1000916","ADDRESS":" ","TEL":" ","COUNTYNAME":"雲林縣","TOWNNAME":"台西鄉","MARKTYPE":"993","Class":"308"},"geometry":{"x":120.22198360544658,"y":23.72874296944893}},{"attributes":{"OBJECTID":267,"LANDMARKID":"1000900000562","LANDMARKCO":"308","LANDMARKNA":"台61-湖子內交流道-南下","LANDMARKAD":"1000916","ADDRESS":" ","TEL":" ","COUNTYNAME":"雲林縣","TOWNNAME":"台西鄉","MARKTYPE":"993","Class":"308"},"geometry":{"x":120.23717887196806,"y":23.736762993080038}},{"attributes":{"OBJECTID":268,"LANDMARKID":"1000900000563","LANDMARKCO":"308","LANDMARKNA":"台78-蘇厝平交路口-東行","LANDMARKAD":"1000916","ADDRESS":"雲林縣台西鄉","TEL":" ","COUNTYNAME":"雲林縣","TOWNNAME":"台西鄉","MARKTYPE":"993","Class":"308"},"geometry":{"x":120.18562924425362,"y":23.689649801122183}},{"attributes":{"OBJECTID":269,"LANDMARKID":"1000900000507","LANDMARKCO":"302","LANDMARKNA":"台西汽車客運台西站","LANDMARKAD":"1000916","ADDRESS":"雲林縣台西鄉民族路65號","TEL":" ","COUNTYNAME":"雲林縣","TOWNNAME":"台西鄉","MARKTYPE":"993","Class":"302"},"geometry":{"x":120.19868393086531,"y":23.69842507703105}},{"attributes":{"OBJECTID":270,"LANDMARKID":"1000900000530","LANDMARKCO":"303","LANDMARKNA":"台西鄉停一停車場","LANDMARKAD":"1000916","ADDRESS":"雲林縣台西鄉中山路293號","TEL":" ","COUNTYNAME":"雲林縣","TOWNNAME":"台西鄉","MARKTYPE":"993","Class":"303"},"geometry":{"x":120.19594434193843,"y":23.700492235188769}},{"attributes":{"OBJECTID":271,"LANDMARKID":"1000900000629","LANDMARKCO":"402","LANDMARKNA":"中華電信-台西服務中心","LANDMARKAD":"1000916","ADDRESS":"雲林縣台西鄉民生路78號","TEL":"(05)698-0824","COUNTYNAME":"雲林縣","TOWNNAME":"台西鄉","MARKTYPE":"994","Class":"4"},"geometry":{"x":120.19920547329228,"y":23.697636343347796}},{"attributes":{"OBJECTID":272,"LANDMARKID":"1000900000911","LANDMARKCO":"603","LANDMARKNA":"大豐旅社","LANDMARKAD":"1000916","ADDRESS":"雲林縣台西鄉台西村中山路223號","TEL":"05-6981176","COUNTYNAME":"雲林縣","TOWNNAME":"台西鄉","MARKTYPE":"996","Class":"6"},"geometry":{"x":120.1973245924665,"y":23.700393602268822}},{"attributes":{"OBJECTID":273,"LANDMARKID":"1000900000704","LANDMARKCO":"405","LANDMARKNA":"中油加油站-亞柏虎尾站","LANDMARKAD":"1000903","ADDRESS":"雲林縣虎尾鎮德興里林森路一段530號","TEL":"05-6311266","COUNTYNAME":"雲林縣","TOWNNAME":"虎尾鎮","MARKTYPE":"994","Class":"4"},"geometry":{"x":120.43289950165902,"y":23.709142644655564}},{"attributes":{"OBJECTID":274,"LANDMARKID":"1000900000705","LANDMARKCO":"405","LANDMARKNA":"中油加油站-虎尾新生路站(中油直營)","LANDMARKAD":"1000903","ADDRESS":"雲林縣虎尾鎮新生路155號","TEL":"05-6322812","COUNTYNAME":"雲林縣","TOWNNAME":"虎尾鎮","MARKTYPE":"994","Class":"4"},"geometry":{"x":120.43605174996156,"y":23.707146426082321}},{"attributes":{"OBJECTID":275,"LANDMARKID":"1000900000706","LANDMARKCO":"405","LANDMARKNA":"中油加油站-虎尾站(中油直營)","LANDMARKAD":"1000903","ADDRESS":"雲林縣虎尾鎮平和里光復路131號","TEL":"05-6322524","COUNTYNAME":"雲林縣","TOWNNAME":"虎尾鎮","MARKTYPE":"994","Class":"4"},"geometry":{"x":120.44666595597714,"y":23.709048187875315}},{"attributes":{"OBJECTID":276,"LANDMARKID":"1000900000707","LANDMARKCO":"405","LANDMARKNA":"中油加油站-永美站","LANDMARKAD":"1000903","ADDRESS":"雲林縣虎尾鎮延平里中南58號","TEL":"056-327947","COUNTYNAME":"雲林縣","TOWNNAME":"虎尾鎮","MARKTYPE":"994","Class":"4"},"geometry":{"x":120.40896175143951,"y":23.684928095171635}},{"attributes":{"OBJECTID":277,"LANDMARKID":"1000900000708","LANDMARKCO":"405","LANDMARKNA":"中油加油站-雲林斗南交流道站(中油直營)","LANDMARKAD":"1000903","ADDRESS":"雲林縣虎尾鎮興南里竹圍60號","TEL":"05-6366381","COUNTYNAME":"雲林縣","TOWNNAME":"虎尾鎮","MARKTYPE":"994","Class":"4"},"geometry":{"x":120.45967362831973,"y":23.696703297883438}},{"attributes":{"OBJECTID":278,"LANDMARKID":"1000900000709","LANDMARKCO":"405","LANDMARKNA":"台灣優力加油站-虎尾站（中油）","LANDMARKAD":"1000903","ADDRESS":"雲林縣虎尾鎮平和里平和24-80號","TEL":"05-6325884","COUNTYNAME":"雲林縣","TOWNNAME":"虎尾鎮","MARKTYPE":"994","Class":"4"},"geometry":{"x":120.46069076993867,"y":23.697952941317624}},{"attributes":{"OBJECTID":279,"LANDMARKID":"1000900000710","LANDMARKCO":"405","LANDMARKNA":"統一速邁樂加油站-虎尾加油站（中油）","LANDMARKAD":"1000903","ADDRESS":"雲林縣虎尾鎮林森路一段96號","TEL":" ","COUNTYNAME":"雲林縣","TOWNNAME":"虎尾鎮","MARKTYPE":"994","Class":"4"},"geometry":{"x":120.4410181092173,"y":23.717634136051743}},{"attributes":{"OBJECTID":280,"LANDMARKID":"1000900000711","LANDMARKCO":"405","LANDMARKNA":"中油加油站-大華站","LANDMARKAD":"1000903","ADDRESS":"雲林縣虎尾鎮林森路一段107-27號","TEL":"05-63608558","COUNTYNAME":"雲林縣","TOWNNAME":"虎尾鎮","MARKTYPE":"994","Class":"4"},"geometry":{"x":120.44031857892395,"y":23.716325978583832}},{"attributes":{"OBJECTID":281,"LANDMARKID":"1000900000630","LANDMARKCO":"402","LANDMARKNA":"My Phone台灣大哥大-雲林虎尾直營服務中心","LANDMARKAD":"1000903","ADDRESS":"雲林縣虎尾鎮林森路1段488-3號","TEL":" ","COUNTYNAME":"雲林縣","TOWNNAME":"虎尾鎮","MARKTYPE":"994","Class":"4"},"geometry":{"x":120.43394524744186,"y":23.709481176986898}},{"attributes":{"OBJECTID":282,"LANDMARKID":"1000900000631","LANDMARKCO":"402","LANDMARKNA":"亞太行動寬頻電信-虎尾林森加盟服務中心","LANDMARKAD":"1000903","ADDRESS":"雲林縣虎尾鎮林森路一段535號","TEL":"05-6336757","COUNTYNAME":"雲林縣","TOWNNAME":"虎尾鎮","MARKTYPE":"994","Class":"4"},"geometry":{"x":120.43161989258225,"y":23.708228264913384}},{"attributes":{"OBJECTID":283,"LANDMARKID":"1000900000632","LANDMARKCO":"402","LANDMARKNA":"亞太行動寬頻電信-虎尾科大加盟服務中心","LANDMARKAD":"1000903","ADDRESS":"雲林縣虎尾鎮林森路二段261號","TEL":"05-6328599","COUNTYNAME":"雲林縣","TOWNNAME":"虎尾鎮","MARKTYPE":"994","Class":"4"},"geometry":{"x":120.427778925616,"y":23.703090371735104}},{"attributes":{"OBJECTID":284,"LANDMARKID":"1000900000588","LANDMARKCO":"401","LANDMARKNA":"財團法人天主教若瑟醫院","LANDMARKAD":"1000903","ADDRESS":"雲林縣虎尾鎮新生路74號","TEL":"05-6337333","COUNTYNAME":"雲林縣","TOWNNAME":"虎尾鎮","MARKTYPE":"994","Class":"4"},"geometry":{"x":120.43787667710507,"y":23.708217508282804}},{"attributes":{"OBJECTID":285,"LANDMARKID":"1000900000589","LANDMARKCO":"401","LANDMARKNA":"國立臺灣大學醫學院附設醫院雲林分院-","LANDMARKAD":"1000903","ADDRESS":"雲林縣虎尾鎮興中里15鄰興中360號","TEL":"05-6330002","COUNTYNAME":"雲林縣","TOWNNAME":"虎尾鎮","MARKTYPE":"994","Class":"4"},"geometry":{"x":120.42687444898124,"y":23.735508698365386}},{"attributes":{"OBJECTID":286,"LANDMARKID":"1000900000791","LANDMARKCO":"408","LANDMARKNA":"郵局-虎尾郵局","LANDMARKAD":"1000903","ADDRESS":"雲林縣虎尾鎮林森路1段495號","TEL":"(05)6334-310","COUNTYNAME":"雲林縣","TOWNNAME":"虎尾鎮","MARKTYPE":"994","Class":"4"},"geometry":{"x":120.43343937842982,"y":23.709007961600761}},{"attributes":{"OBJECTID":287,"LANDMARKID":"1000900000792","LANDMARKCO":"408","LANDMARKNA":"郵局-虎尾圓環郵局","LANDMARKAD":"1000903","ADDRESS":"雲林縣虎尾鎮光復路387號","TEL":"(05)6324-204","COUNTYNAME":"雲林縣","TOWNNAME":"虎尾鎮","MARKTYPE":"994","Class":"4"},"geometry":{"x":120.4379430625922,"y":23.709870429606024}},{"attributes":{"OBJECTID":288,"LANDMARKID":"1000900000793","LANDMARKCO":"408","LANDMARKNA":"郵局-虎尾安慶郵局","LANDMARKAD":"1000903","ADDRESS":"雲林縣虎尾鎮民主路1-1號","TEL":"(05)6324-284","COUNTYNAME":"雲林縣","TOWNNAME":"虎尾鎮","MARKTYPE":"994","Class":"4"},"geometry":{"x":120.43597004533579,"y":23.703888599828723}},{"attributes":{"OBJECTID":289,"LANDMARKID":"1000900000794","LANDMARKCO":"408","LANDMARKNA":"郵局-虎尾科技大學郵局","LANDMARKAD":"1000903","ADDRESS":"雲林縣虎尾鎮文化路64號","TEL":"(05)6326-035","COUNTYNAME":"雲林縣","TOWNNAME":"虎尾鎮","MARKTYPE":"994","Class":"4"},"geometry":{"x":120.42957361309286,"y":23.701686026673237}},{"attributes":{"OBJECTID":290,"LANDMARKID":"1000900000832","LANDMARKCO":"409","LANDMARKNA":"雲林縣虎尾鎮農會","LANDMARKAD":"1000903","ADDRESS":"雲林縣虎尾鎮和平路68號","TEL":"05-6323511","COUNTYNAME":"雲林縣","TOWNNAME":"虎尾鎮","MARKTYPE":"994","Class":"4"},"geometry":{"x":120.43675989079627,"y":23.709109965477705}},{"attributes":{"OBJECTID":291,"LANDMARKID":"1000900000833","LANDMARKCO":"409","LANDMARKNA":"虎尾魚市場","LANDMARKAD":"1000903","ADDRESS":"虎尾鎮平和里光明路68號","TEL":"05-6322179　","COUNTYNAME":"雲林縣","TOWNNAME":"虎尾鎮","MARKTYPE":"994","Class":"4"},"geometry":{"x":120.44846263491529,"y":23.705642497294878}},{"attributes":{"OBJECTID":292,"LANDMARKID":"1000900000653","LANDMARKCO":"404","LANDMARKNA":"台灣省自來水虎尾營運所","LANDMARKAD":"1000903","ADDRESS":"雲林縣虎尾鎮明正路21號","TEL":" ","COUNTYNAME":"雲林縣","TOWNNAME":"虎尾鎮","MARKTYPE":"994","Class":"4"},"geometry":{"x":120.43267084107698,"y":23.712819835259378}},{"attributes":{"OBJECTID":293,"LANDMARKID":"1000900000768","LANDMARKCO":"406","LANDMARKNA":"虎尾馬術公園","LANDMARKAD":"1000903","ADDRESS":"雲林縣虎尾鎮","TEL":" ","COUNTYNAME":"雲林縣","TOWNNAME":"虎尾鎮","MARKTYPE":"994","Class":"4"},"geometry":{"x":120.43690941772179,"y":23.718321544019954}},{"attributes":{"OBJECTID":294,"LANDMARKID":"1000900000769","LANDMARKCO":"406","LANDMARKNA":"廉使公園","LANDMARKAD":"1000903","ADDRESS":"雲林縣虎尾鎮","TEL":" ","COUNTYNAME":"雲林縣","TOWNNAME":"虎尾鎮","MARKTYPE":"994","Class":"4"},"geometry":{"x":120.42773896888542,"y":23.715434576051834}},{"attributes":{"OBJECTID":295,"LANDMARKID":"1000900000770","LANDMARKCO":"406","LANDMARKNA":"社區公園","LANDMARKAD":"1000903","ADDRESS":"雲林縣虎尾鎮","TEL":" ","COUNTYNAME":"雲林縣","TOWNNAME":"虎尾鎮","MARKTYPE":"994","Class":"4"},"geometry":{"x":120.42285013581359,"y":23.714180202621858}},{"attributes":{"OBJECTID":296,"LANDMARKID":"1000900000771","LANDMARKCO":"406","LANDMARKNA":"虎尾公園","LANDMARKAD":"1000903","ADDRESS":"雲林縣虎尾鎮","TEL":" ","COUNTYNAME":"雲林縣","TOWNNAME":"虎尾鎮","MARKTYPE":"994","Class":"4"},"geometry":{"x":120.4346467474743,"y":23.712588707218544}},{"attributes":{"OBJECTID":297,"LANDMARKID":"1000900000772","LANDMARKCO":"406","LANDMARKNA":"同心公園","LANDMARKAD":"1000903","ADDRESS":"雲林縣虎尾鎮","TEL":" ","COUNTYNAME":"雲林縣","TOWNNAME":"虎尾鎮","MARKTYPE":"994","Class":"4"},"geometry":{"x":120.43625630182851,"y":23.702882320913776}},{"attributes":{"OBJECTID":298,"LANDMARKID":"1000900000776","LANDMARKCO":"407","LANDMARKNA":"三商百貨","LANDMARKAD":"1000903","ADDRESS":"雲林縣虎尾鎮和平路105號","TEL":"05-6322533","COUNTYNAME":"雲林縣","TOWNNAME":"虎尾鎮","MARKTYPE":"994","Class":"4"},"geometry":{"x":120.43597193337793,"y":23.70847709344795}},{"attributes":{"OBJECTID":299,"LANDMARKID":"1000900000701","LANDMARKCO":"405","LANDMARKNA":"福懋加油站-虎尾站(台塑)","LANDMARKAD":"1000903","ADDRESS":"雲林縣虎尾鎮廉使里廉使123號","TEL":"05-6366368","COUNTYNAME":"雲林縣","TOWNNAME":"虎尾鎮","MARKTYPE":"994","Class":"4"},"geometry":{"x":120.42920785314581,"y":23.717994476466551}},{"attributes":{"OBJECTID":300,"LANDMARKID":"1000900000702","LANDMARKCO":"405","LANDMARKNA":"台亞加油站-虎尾站（台塑）","LANDMARKAD":"1000903","ADDRESS":"雲林縣虎尾鎮平和里平和1-2號","TEL":"(05)632-8802","COUNTYNAME":"雲林縣","TOWNNAME":"虎尾鎮","MARKTYPE":"994","Class":"4"},"geometry":{"x":120.45272191120158,"y":23.705559128289551}},{"attributes":{"OBJECTID":301,"LANDMARKID":"1000900000703","LANDMARKCO":"405","LANDMARKNA":"福懋加油站-林森站(台塑)","LANDMARKAD":"1000903","ADDRESS":"雲林縣虎尾鎮頂南路19號","TEL":"05-6328921","COUNTYNAME":"雲林縣","TOWNNAME":"虎尾鎮","MARKTYPE":"994","Class":"4"},"geometry":{"x":120.41917646870714,"y":23.693821506807108}},{"attributes":{"OBJECTID":302,"LANDMARKID":"1000900000005","LANDMARKCO":"101","LANDMARKNA":"台灣雲林地方法院虎尾簡易庭","LANDMARKAD":"1000903","ADDRESS":"雲林縣虎尾鎮明正路40巷5號","TEL":"05-6336511","COUNTYNAME":"雲林縣","TOWNNAME":"虎尾鎮","MARKTYPE":"991","Class":"1"},"geometry":{"x":120.43338463660174,"y":23.715852029273034}},{"attributes":{"OBJECTID":303,"LANDMARKID":"1000900000228","LANDMARKCO":"108","LANDMARKNA":"雲林縣虎尾鎮公所","LANDMARKAD":"1000903","ADDRESS":"雲林縣虎尾鎮行政路6號","TEL":"05-6322132","COUNTYNAME":"雲林縣","TOWNNAME":"虎尾鎮","MARKTYPE":"991","Class":"1"},"geometry":{"x":120.44508408991373,"y":23.70836787829667}},{"attributes":{"OBJECTID":304,"LANDMARKID":"1000900000072","LANDMARKCO":"103","LANDMARKNA":"雲林縣虎尾鎮衛生所","LANDMARKAD":"1000903","ADDRESS":"雲林縣虎尾鎮明正路11號","TEL":"05-6322211","COUNTYNAME":"雲林縣","TOWNNAME":"虎尾鎮","MARKTYPE":"991","Class":"1"},"geometry":{"x":120.43368713897503,"y":23.714609131755537}},{"attributes":{"OBJECTID":305,"LANDMARKID":"1000900000073","LANDMARKCO":"103","LANDMARKNA":"雲林縣虎尾鎮鎮民代表會","LANDMARKAD":"1000903","ADDRESS":"雲林縣虎尾鎮行政路6號","TEL":"05-6328139","COUNTYNAME":"雲林縣","TOWNNAME":"虎尾鎮","MARKTYPE":"991","Class":"1"},"geometry":{"x":120.44508408991373,"y":23.70836787829667}},{"attributes":{"OBJECTID":306,"LANDMARKID":"1000900000212","LANDMARKCO":"107","LANDMARKNA":"雲林縣消防局第二消防大隊部","LANDMARKAD":"1000903","ADDRESS":"雲林縣虎尾鎮行政路10號","TEL":"05-6322150","COUNTYNAME":"雲林縣","TOWNNAME":"虎尾鎮","MARKTYPE":"991","Class":"1"},"geometry":{"x":120.44498886062837,"y":23.708866992778468}},{"attributes":{"OBJECTID":307,"LANDMARKID":"1000900000213","LANDMARKCO":"107","LANDMARKNA":"雲林縣消防局虎尾消防分隊","LANDMARKAD":"1000903","ADDRESS":"雲林縣虎尾鎮行政路10號","TEL":"05-6322150","COUNTYNAME":"雲林縣","TOWNNAME":"虎尾鎮","MARKTYPE":"991","Class":"1"},"geometry":{"x":120.44498886062837,"y":23.708866992778468}},{"attributes":{"OBJECTID":308,"LANDMARKID":"1000900000214","LANDMARKCO":"107","LANDMARKNA":"雲林縣警察局虎尾分局","LANDMARKAD":"1000903","ADDRESS":"雲林縣虎尾鎮新興里光復路151號","TEL":"05-6331771","COUNTYNAME":"雲林縣","TOWNNAME":"虎尾鎮","MARKTYPE":"991","Class":"1"},"geometry":{"x":120.44537800923028,"y":23.709073856315147}},{"attributes":{"OBJECTID":309,"LANDMARKID":"1000900000215","LANDMARKCO":"107","LANDMARKNA":"雲林縣警察局埒內派出所","LANDMARKAD":"1000903","ADDRESS":"雲林縣虎尾鎮埒內里埒內45號","TEL":"05-6221995","COUNTYNAME":"雲林縣","TOWNNAME":"虎尾鎮","MARKTYPE":"991","Class":"1"},"geometry":{"x":120.44578872139145,"y":23.722493099278161}},{"attributes":{"OBJECTID":310,"LANDMARKID":"1000900000216","LANDMARKCO":"107","LANDMARKNA":"雲林縣警察局虎尾派出所","LANDMARKAD":"1000903","ADDRESS":"雲林縣虎尾鎮新興里光復路151號","TEL":"05-6322118","COUNTYNAME":"雲林縣","TOWNNAME":"虎尾鎮","MARKTYPE":"991","Class":"1"},"geometry":{"x":120.44537800923028,"y":23.709073856315147}},{"attributes":{"OBJECTID":311,"LANDMARKID":"1000900000111","LANDMARKCO":"106","LANDMARKNA":"雲林縣虎尾鎮戶政事務所","LANDMARKAD":"1000903","ADDRESS":"雲林縣虎尾鎮新興里行政路8號","TEL":"05-6329274","COUNTYNAME":"雲林縣","TOWNNAME":"虎尾鎮","MARKTYPE":"991","Class":"1"},"geometry":{"x":120.44491991568121,"y":23.708728342924161}},{"attributes":{"OBJECTID":312,"LANDMARKID":"1000900000105","LANDMARKCO":"105","LANDMARKNA":"雲林縣虎尾地政事務所","LANDMARKAD":"1000903","ADDRESS":"雲林縣虎尾鎮新興里光明路120號","TEL":"05-6322070","COUNTYNAME":"雲林縣","TOWNNAME":"虎尾鎮","MARKTYPE":"991","Class":"1"},"geometry":{"x":120.44488409582847,"y":23.707980011964843}},{"attributes":{"OBJECTID":313,"LANDMARKID":"1000900000095","LANDMARKCO":"104","LANDMARKNA":"中區國稅局虎尾稽徵所","LANDMARKAD":"1000903","ADDRESS":"雲林縣虎尾鎮光明路118號4樓","TEL":"05-6338571","COUNTYNAME":"雲林縣","TOWNNAME":"虎尾鎮","MARKTYPE":"991","Class":"1"},"geometry":{"x":120.44528349134782,"y":23.707775643433429}},{"attributes":{"OBJECTID":314,"LANDMARKID":"1000900000006","LANDMARKCO":"101","LANDMARKNA":"台灣雲林地方法院","LANDMARKAD":"1000903","ADDRESS":"雲林縣虎尾鎮明正路38號","TEL":"05-6336511","COUNTYNAME":"雲林縣","TOWNNAME":"虎尾鎮","MARKTYPE":"991","Class":"1"},"geometry":{"x":120.43416912678654,"y":23.715715824432184}},{"attributes":{"OBJECTID":315,"LANDMARKID":"1000900000007","LANDMARKCO":"101","LANDMARKNA":"台灣雲林監獄","LANDMARKAD":"1000903","ADDRESS":"雲林縣虎尾鎮興南里仁愛新村1號","TEL":"05-6339660","COUNTYNAME":"雲林縣","TOWNNAME":"虎尾鎮","MARKTYPE":"991","Class":"1"},"geometry":{"x":120.43642472237212,"y":23.688863791882302}},{"attributes":{"OBJECTID":316,"LANDMARKID":"1000900000008","LANDMARKCO":"101","LANDMARKNA":"台灣雲林第二監獄","LANDMARKAD":"1000903","ADDRESS":"雲林縣虎尾鎮建國里建國四村5之18號","TEL":"05-6362788","COUNTYNAME":"雲林縣","TOWNNAME":"虎尾鎮","MARKTYPE":"991","Class":"1"},"geometry":{"x":120.40193120669643,"y":23.711191255742182}},{"attributes":{"OBJECTID":317,"LANDMARKID":"1000900000009","LANDMARKCO":"101","LANDMARKNA":"財團法人犯罪被害人保護協會","LANDMARKAD":"1000903","ADDRESS":"雲林縣虎尾鎮明正路38號","TEL":"05-6329914","COUNTYNAME":"雲林縣","TOWNNAME":"虎尾鎮","MARKTYPE":"991","Class":"1"},"geometry":{"x":120.43416912678654,"y":23.715715824432184}},{"attributes":{"OBJECTID":318,"LANDMARKID":"1000900000010","LANDMARKCO":"101","LANDMARKNA":"台灣更生保護會雲林分會","LANDMARKAD":"1000903","ADDRESS":"雲林縣虎尾鎮明正路38號","TEL":"05-6320041","COUNTYNAME":"雲林縣","TOWNNAME":"虎尾鎮","MARKTYPE":"991","Class":"1"},"geometry":{"x":120.43416912678654,"y":23.715715824432184}},{"attributes":{"OBJECTID":319,"LANDMARKID":"1000900000096","LANDMARKCO":"104","LANDMARKNA":"雲林縣稅務局虎尾分局","LANDMARKAD":"1000903","ADDRESS":"雲林縣虎尾鎮光明路118號","TEL":"05-6338940","COUNTYNAME":"雲林縣","TOWNNAME":"虎尾鎮","MARKTYPE":"991","Class":"1"},"geometry":{"x":120.44528349134782,"y":23.707775643433429}},{"attributes":{"OBJECTID":320,"LANDMARKID":"1000900000217","LANDMARKCO":"107","LANDMARKNA":"雲林縣警察局惠來派出所","LANDMARKAD":"1000903","ADDRESS":"雲林縣虎尾鎮惠來里惠來路100號","TEL":"05-6222065","COUNTYNAME":"雲林縣","TOWNNAME":"虎尾鎮","MARKTYPE":"991","Class":"1"},"geometry":{"x":120.48856756151486,"y":23.72815195604257}},{"attributes":{"OBJECTID":321,"LANDMARKID":"1000900000218","LANDMARKCO":"107","LANDMARKNA":"雲林縣警察局東屯派出所","LANDMARKAD":"1000903","ADDRESS":"雲林縣虎尾鎮東屯里大屯路143號","TEL":"05-6651474","COUNTYNAME":"雲林縣","TOWNNAME":"虎尾鎮","MARKTYPE":"991","Class":"1"},"geometry":{"x":120.38804688713009,"y":23.702503669546442}},{"attributes":{"OBJECTID":322,"LANDMARKID":"1000900000071","LANDMARKCO":"103","LANDMARKNA":"虎尾鎮殯儀館","LANDMARKAD":"1000903","ADDRESS":"雲林縣虎尾鎮惠來里201號","TEL":"05-6224472","COUNTYNAME":"雲林縣","TOWNNAME":"虎尾鎮","MARKTYPE":"991","Class":"1"},"geometry":{"x":120.48668470620713,"y":23.724193320975125}},{"attributes":{"OBJECTID":323,"LANDMARKID":"1000900000499","LANDMARKCO":"205","LANDMARKNA":"虎尾糖廠糖業文物館","LANDMARKAD":"1000903","ADDRESS":"雲林縣虎尾鎮中山路2號","TEL":"05-6321540","COUNTYNAME":"雲林縣","TOWNNAME":"虎尾鎮","MARKTYPE":"992","Class":"2"},"geometry":{"x":120.43629315166901,"y":23.703787186836898}},{"attributes":{"OBJECTID":324,"LANDMARKID":"1000900000486","LANDMARKCO":"204","LANDMARKNA":"雲林縣立圖書館虎尾分館","LANDMARKAD":"1000903","ADDRESS":"雲林縣虎尾鎮水源路14號","TEL":" ","COUNTYNAME":"雲林縣","TOWNNAME":"虎尾鎮","MARKTYPE":"992","Class":"2"},"geometry":{"x":120.43315431984232,"y":23.714090042097236}},{"attributes":{"OBJECTID":325,"LANDMARKID":"1000900000258","LANDMARKCO":"202","LANDMARKNA":"國立虎尾農工","LANDMARKAD":"1000903","ADDRESS":"雲林縣虎尾鎮公安里博愛路65號","TEL":"05-6322767","COUNTYNAME":"雲林縣","TOWNNAME":"虎尾鎮","MARKTYPE":"992","Class":"2"},"geometry":{"x":120.43524822348967,"y":23.714691789015507}},{"attributes":{"OBJECTID":326,"LANDMARKID":"1000900000259","LANDMARKCO":"202","LANDMARKNA":"私立大成商工","LANDMARKAD":"1000903","ADDRESS":"雲林縣虎尾鎮光復路130號","TEL":"05-6322534","COUNTYNAME":"雲林縣","TOWNNAME":"虎尾鎮","MARKTYPE":"992","Class":"2"},"geometry":{"x":120.44560259033356,"y":23.711204823899635}},{"attributes":{"OBJECTID":327,"LANDMARKID":"1000900000260","LANDMARKCO":"202","LANDMARKNA":"國立虎尾高中","LANDMARKAD":"1000903","ADDRESS":"雲林縣虎尾鎮光復路222號","TEL":"05-6322121","COUNTYNAME":"雲林縣","TOWNNAME":"虎尾鎮","MARKTYPE":"992","Class":"2"},"geometry":{"x":120.44209215131166,"y":23.710231390665982}},{"attributes":{"OBJECTID":328,"LANDMARKID":"1000900000261","LANDMARKCO":"202","LANDMARKNA":"私立揚子高中","LANDMARKAD":"1000903","ADDRESS":"雲林縣虎尾鎮潁川里林森路二段541號","TEL":"05-6330181","COUNTYNAME":"雲林縣","TOWNNAME":"虎尾鎮","MARKTYPE":"992","Class":"2"},"geometry":{"x":120.42395658012514,"y":23.696403323755078}},{"attributes":{"OBJECTID":329,"LANDMARKID":"1000900000262","LANDMARKCO":"202","LANDMARKNA":"私立揚子高中附設國中部","LANDMARKAD":"1000903","ADDRESS":"雲林縣虎尾鎮潁川里林森路二段541號","TEL":"05-6330181","COUNTYNAME":"雲林縣","TOWNNAME":"虎尾鎮","MARKTYPE":"992","Class":"2"},"geometry":{"x":120.42395658012514,"y":23.696403323755078}},{"attributes":{"OBJECTID":330,"LANDMARKID":"1000900000385","LANDMARKCO":"203","LANDMARKNA":"縣立東仁國中","LANDMARKAD":"1000903","ADDRESS":"雲林縣虎尾鎮東明路85號","TEL":"05-6312888","COUNTYNAME":"雲林縣","TOWNNAME":"虎尾鎮","MARKTYPE":"992","Class":"2"},"geometry":{"x":120.44015740926925,"y":23.714096901889388}},{"attributes":{"OBJECTID":331,"LANDMARKID":"1000900000386","LANDMARKCO":"203","LANDMARKNA":"縣立安慶國小","LANDMARKAD":"1000903","ADDRESS":"雲林縣虎尾鎮民主路36號","TEL":"05-6322161","COUNTYNAME":"雲林縣","TOWNNAME":"虎尾鎮","MARKTYPE":"992","Class":"2"},"geometry":{"x":120.43371501639767,"y":23.703393372705847}},{"attributes":{"OBJECTID":332,"LANDMARKID":"1000900000387","LANDMARKCO":"203","LANDMARKNA":"縣立立仁國小","LANDMARKAD":"1000903","ADDRESS":"雲林縣虎尾鎮立仁街40號","TEL":"05-6322205","COUNTYNAME":"雲林縣","TOWNNAME":"虎尾鎮","MARKTYPE":"992","Class":"2"},"geometry":{"x":120.42789412193441,"y":23.705820639768874}},{"attributes":{"OBJECTID":333,"LANDMARKID":"1000900000388","LANDMARKCO":"203","LANDMARKNA":"縣立平和國小","LANDMARKAD":"1000903","ADDRESS":"雲林縣虎尾鎮平和里光復路22號","TEL":"05-6322742","COUNTYNAME":"雲林縣","TOWNNAME":"虎尾鎮","MARKTYPE":"992","Class":"2"},"geometry":{"x":120.45124245841389,"y":23.707512586541394}},{"attributes":{"OBJECTID":334,"LANDMARKID":"1000900000389","LANDMARKCO":"203","LANDMARKNA":"縣立虎尾國小","LANDMARKAD":"1000903","ADDRESS":"雲林縣虎尾鎮明正路88號","TEL":"05-6322026","COUNTYNAME":"雲林縣","TOWNNAME":"虎尾鎮","MARKTYPE":"992","Class":"2"},"geometry":{"x":120.43147954217207,"y":23.713473921866186}},{"attributes":{"OBJECTID":335,"LANDMARKID":"1000900000390","LANDMARKCO":"203","LANDMARKNA":"縣立中正國小","LANDMARKAD":"1000903","ADDRESS":"雲林縣虎尾鎮林森路一段64號","TEL":"05-6322710","COUNTYNAME":"雲林縣","TOWNNAME":"虎尾鎮","MARKTYPE":"992","Class":"2"},"geometry":{"x":120.44154054974348,"y":23.719004688721729}},{"attributes":{"OBJECTID":336,"LANDMARKID":"1000900000245","LANDMARKCO":"201","LANDMARKNA":"國立虎尾科技大學","LANDMARKAD":"1000903","ADDRESS":"雲林縣虎尾鎮文化路64號","TEL":"05-6315000","COUNTYNAME":"雲林縣","TOWNNAME":"虎尾鎮","MARKTYPE":"992","Class":"2"},"geometry":{"x":120.42957053664348,"y":23.70169015722372}},{"attributes":{"OBJECTID":337,"LANDMARKID":"1000900000391","LANDMARKCO":"203","LANDMARKNA":"縣立虎尾國中","LANDMARKAD":"1000903","ADDRESS":"雲林縣虎尾鎮中興路153號","TEL":"05-6220981","COUNTYNAME":"雲林縣","TOWNNAME":"虎尾鎮","MARKTYPE":"992","Class":"2"},"geometry":{"x":120.45716684041206,"y":23.723617949575765}},{"attributes":{"OBJECTID":338,"LANDMARKID":"1000900000392","LANDMARKCO":"203","LANDMARKNA":"縣立崇德國中","LANDMARKAD":"1000903","ADDRESS":"雲林縣虎尾鎮廉使里50號","TEL":"05-6322806","COUNTYNAME":"雲林縣","TOWNNAME":"虎尾鎮","MARKTYPE":"992","Class":"2"},"geometry":{"x":120.4170006965706,"y":23.716514610909712}},{"attributes":{"OBJECTID":339,"LANDMARKID":"1000900000393","LANDMARKCO":"203","LANDMARKNA":"縣立惠來國小","LANDMARKAD":"1000903","ADDRESS":"雲林縣虎尾鎮惠來里114號","TEL":"05-6222344","COUNTYNAME":"雲林縣","TOWNNAME":"虎尾鎮","MARKTYPE":"992","Class":"2"},"geometry":{"x":120.48467231551676,"y":23.729580113305481}},{"attributes":{"OBJECTID":340,"LANDMARKID":"1000900000394","LANDMARKCO":"203","LANDMARKNA":"縣立大屯國小","LANDMARKAD":"1000903","ADDRESS":"雲林縣虎尾鎮東屯里147號","TEL":"05-6651284","COUNTYNAME":"雲林縣","TOWNNAME":"虎尾鎮","MARKTYPE":"992","Class":"2"},"geometry":{"x":120.38819511092002,"y":23.701330974876491}},{"attributes":{"OBJECTID":341,"LANDMARKID":"1000900000395","LANDMARKCO":"203","LANDMARKNA":"縣立廉使國小","LANDMARKAD":"1000903","ADDRESS":"雲林縣虎尾鎮廉使里32號","TEL":"05-6322703","COUNTYNAME":"雲林縣","TOWNNAME":"虎尾鎮","MARKTYPE":"992","Class":"2"},"geometry":{"x":120.42064735431507,"y":23.716983001151839}},{"attributes":{"OBJECTID":342,"LANDMARKID":"1000900000396","LANDMARKCO":"203","LANDMARKNA":"縣立光復國小","LANDMARKAD":"1000903","ADDRESS":"雲林縣虎尾鎮墾地里11鄰光復莊39號","TEL":"05-6326357","COUNTYNAME":"雲林縣","TOWNNAME":"虎尾鎮","MARKTYPE":"992","Class":"2"},"geometry":{"x":120.40113070079475,"y":23.74101751863806}},{"attributes":{"OBJECTID":343,"LANDMARKID":"1000900000397","LANDMARKCO":"203","LANDMARKNA":"縣立拯民國小","LANDMARKAD":"1000903","ADDRESS":"雲林縣虎尾鎮建國3村10號","TEL":"05-6326451","COUNTYNAME":"雲林縣","TOWNNAME":"虎尾鎮","MARKTYPE":"992","Class":"2"},"geometry":{"x":120.40782714851369,"y":23.708721739368436}},{"attributes":{"OBJECTID":344,"LANDMARKID":"1000900000398","LANDMARKCO":"203","LANDMARKNA":"縣立中溪國小","LANDMARKAD":"1000903","ADDRESS":"雲林縣虎尾鎮頂溪里過溪路64號","TEL":"05-6222385","COUNTYNAME":"雲林縣","TOWNNAME":"虎尾鎮","MARKTYPE":"992","Class":"2"},"geometry":{"x":120.46340656788287,"y":23.727163606287004}},{"attributes":{"OBJECTID":345,"LANDMARKID":"1000900000552","LANDMARKCO":"308","LANDMARKNA":"台78-虎尾交流道-東行","LANDMARKAD":"1000903","ADDRESS":"雲林縣虎尾鎮","TEL":" ","COUNTYNAME":"雲林縣","TOWNNAME":"虎尾鎮","MARKTYPE":"993","Class":"308"},"geometry":{"x":120.41715128260284,"y":23.688524630045105}},{"attributes":{"OBJECTID":346,"LANDMARKID":"1000900000553","LANDMARKCO":"308","LANDMARKNA":"台78-虎尾交流道-西行","LANDMARKAD":"1000903","ADDRESS":"雲林縣虎尾鎮","TEL":" ","COUNTYNAME":"雲林縣","TOWNNAME":"虎尾鎮","MARKTYPE":"993","Class":"308"},"geometry":{"x":120.41288732313892,"y":23.690727752259225}},{"attributes":{"OBJECTID":347,"LANDMARKID":"1000900000524","LANDMARKCO":"303","LANDMARKNA":"雲林地方法院停車場","LANDMARKAD":"1000903","ADDRESS":"雲林縣虎尾鎮明正路","TEL":" ","COUNTYNAME":"雲林縣","TOWNNAME":"虎尾鎮","MARKTYPE":"993","Class":"303"},"geometry":{"x":120.43372760105531,"y":23.715219633762686}},{"attributes":{"OBJECTID":348,"LANDMARKID":"1000900000608","LANDMARKCO":"402","LANDMARKNA":"中華電信-虎尾林森特約服務中心","LANDMARKAD":"1000903","ADDRESS":"雲林縣虎尾鎮林森路二段175號","TEL":"05-6363699","COUNTYNAME":"雲林縣","TOWNNAME":"虎尾鎮","MARKTYPE":"994","Class":"4"},"geometry":{"x":120.42883493175755,"y":23.704570058777946}},{"attributes":{"OBJECTID":349,"LANDMARKID":"1000900000609","LANDMARKCO":"402","LANDMARKNA":"中華電信-虎尾服務中心","LANDMARKAD":"1000903","ADDRESS":"雲林縣虎尾鎮新生路136號","TEL":"(05)6324400","COUNTYNAME":"雲林縣","TOWNNAME":"虎尾鎮","MARKTYPE":"994","Class":"4"},"geometry":{"x":120.43591248646933,"y":23.707409746970235}},{"attributes":{"OBJECTID":350,"LANDMARKID":"1000900000610","LANDMARKCO":"402","LANDMARKNA":"遠傳電信-雲林虎尾門市","LANDMARKAD":"1000903","ADDRESS":"雲林縣虎尾鎮林森路一段486號","TEL":" ","COUNTYNAME":"雲林縣","TOWNNAME":"虎尾鎮","MARKTYPE":"994","Class":"4"},"geometry":{"x":120.43416004974547,"y":23.70959114058957}},{"attributes":{"OBJECTID":351,"LANDMARKID":"1000900000611","LANDMARKCO":"402","LANDMARKNA":"威寶電信-虎尾中正特約服務中心","LANDMARKAD":"1000903","ADDRESS":"雲林縣虎尾鎮中正路306號","TEL":"05-6321188","COUNTYNAME":"雲林縣","TOWNNAME":"虎尾鎮","MARKTYPE":"994","Class":"4"},"geometry":{"x":120.42956174584351,"y":23.70443997407542}},{"attributes":{"OBJECTID":352,"LANDMARKID":"1000900000612","LANDMARKCO":"402","LANDMARKNA":"威寶電信-虎尾光復特約服務中心","LANDMARKAD":"1000903","ADDRESS":"雲林縣虎尾鎮光復路316-1號","TEL":"05-6321008","COUNTYNAME":"雲林縣","TOWNNAME":"虎尾鎮","MARKTYPE":"994","Class":"4"},"geometry":{"x":120.43841167770782,"y":23.710117635570484}},{"attributes":{"OBJECTID":353,"LANDMARKID":"1000900000862","LANDMARKCO":"603","LANDMARKNA":"風華渡假旅館","LANDMARKAD":"1000903","ADDRESS":"雲林縣虎尾鎮平和里平和20-15號","TEL":"05-6366666","COUNTYNAME":"雲林縣","TOWNNAME":"虎尾鎮","MARKTYPE":"996","Class":"6"},"geometry":{"x":120.4565038485179,"y":23.706799404676055}},{"attributes":{"OBJECTID":354,"LANDMARKID":"1000900000863","LANDMARKCO":"603","LANDMARKNA":"華南大旅社","LANDMARKAD":"1000903","ADDRESS":"雲林縣虎尾鎮光復路346-1號1","TEL":"3-4樓","COUNTYNAME":"雲林縣","TOWNNAME":"虎尾鎮","MARKTYPE":"996","Class":"6"},"geometry":{"x":120.4377436857187,"y":23.710248230674761}},{"attributes":{"OBJECTID":355,"LANDMARKID":"1000900000864","LANDMARKCO":"603","LANDMARKNA":"上毅飯店","LANDMARKAD":"1000903","ADDRESS":"雲林縣虎尾鎮信義路28號","TEL":"05-6310311","COUNTYNAME":"雲林縣","TOWNNAME":"虎尾鎮","MARKTYPE":"996","Class":"6"},"geometry":{"x":120.43770993219495,"y":23.710753652145609}},{"attributes":{"OBJECTID":356,"LANDMARKID":"1000900000865","LANDMARKCO":"603","LANDMARKNA":"天生大飯店","LANDMARKAD":"1000903","ADDRESS":"雲林縣虎尾鎮民生路11號","TEL":"05-6322126","COUNTYNAME":"雲林縣","TOWNNAME":"虎尾鎮","MARKTYPE":"996","Class":"6"},"geometry":{"x":120.43802106645943,"y":23.708778394898882}},{"attributes":{"OBJECTID":357,"LANDMARKID":"1000900000866","LANDMARKCO":"603","LANDMARKNA":"琥珀旅社","LANDMARKAD":"1000903","ADDRESS":"雲林縣虎尾鎮新興路88號4-6樓","TEL":"05-6325772","COUNTYNAME":"雲林縣","TOWNNAME":"虎尾鎮","MARKTYPE":"996","Class":"6"},"geometry":{"x":120.4345520655644,"y":23.709621095373734}},{"attributes":{"OBJECTID":358,"LANDMARKID":"1000900000748","LANDMARKCO":"405","LANDMARKNA":"中油加油站-斗六站(中油直營)","LANDMARKAD":"1000901","ADDRESS":"雲林縣斗六市雲林路二段334號","TEL":"05-5322534","COUNTYNAME":"雲林縣","TOWNNAME":"斗六市","MARKTYPE":"994","Class":"4"},"geometry":{"x":120.52765564249917,"y":23.70080696774054}},{"attributes":{"OBJECTID":359,"LANDMARKID":"1000900000749","LANDMARKCO":"405","LANDMARKNA":"中油加油站-斗六南環路站(中油直營)","LANDMARKAD":"1000901","ADDRESS":"雲林縣斗六市文化路522號","TEL":"05-5339692","COUNTYNAME":"雲林縣","TOWNNAME":"斗六市","MARKTYPE":"994","Class":"4"},"geometry":{"x":120.55760157686342,"y":23.712487736594809}},{"attributes":{"OBJECTID":360,"LANDMARKID":"1000900000750","LANDMARKCO":"405","LANDMARKNA":"中油加油站-新南環路站","LANDMARKAD":"1000901","ADDRESS":"雲林縣斗六市鎮東里大學路1段28號","TEL":"05-5321629","COUNTYNAME":"雲林縣","TOWNNAME":"斗六市","MARKTYPE":"994","Class":"4"},"geometry":{"x":120.55634155399122,"y":23.710866919357176}},{"attributes":{"OBJECTID":361,"LANDMARKID":"1000900000751","LANDMARKCO":"405","LANDMARKNA":"中油加油站-北基斗中站","LANDMARKAD":"1000901","ADDRESS":"雲林縣斗六市榴中里石榴路59-8號","TEL":"055-570120","COUNTYNAME":"雲林縣","TOWNNAME":"斗六市","MARKTYPE":"994","Class":"4"},"geometry":{"x":120.58124931121785,"y":23.721851466425314}},{"attributes":{"OBJECTID":362,"LANDMARKID":"1000900000752","LANDMARKCO":"405","LANDMARKNA":"中油加油站-大學站","LANDMARKAD":"1000901","ADDRESS":"雲林縣斗六市大學路二段268號","TEL":"05-5341685","COUNTYNAME":"雲林縣","TOWNNAME":"斗六市","MARKTYPE":"994","Class":"4"},"geometry":{"x":120.54816224913175,"y":23.700613852267125}},{"attributes":{"OBJECTID":363,"LANDMARKID":"1000900000753","LANDMARKCO":"405","LANDMARKNA":"中油加油站-佳得美石榴站","LANDMARKAD":"1000901","ADDRESS":"雲林縣斗六市榴中里石榴路230號","TEL":"05-5576998","COUNTYNAME":"雲林縣","TOWNNAME":"斗六市","MARKTYPE":"994","Class":"4"},"geometry":{"x":120.58911241657285,"y":23.727100631013265}},{"attributes":{"OBJECTID":364,"LANDMARKID":"1000900000754","LANDMARKCO":"405","LANDMARKNA":"台糖加油站-文化站（中油）","LANDMARKAD":"1000901","ADDRESS":"雲林縣斗六市大學路三段301號","TEL":" ","COUNTYNAME":"雲林縣","TOWNNAME":"斗六市","MARKTYPE":"994","Class":"4"},"geometry":{"x":120.53056872102216,"y":23.692828267620051}},{"attributes":{"OBJECTID":365,"LANDMARKID":"1000900000755","LANDMARKCO":"405","LANDMARKNA":"中油加油站-臺灣斗六站","LANDMARKAD":"1000901","ADDRESS":"雲林縣斗六市虎溪里西平路739號","TEL":"055-515639","COUNTYNAME":"雲林縣","TOWNNAME":"斗六市","MARKTYPE":"994","Class":"4"},"geometry":{"x":120.52112419289118,"y":23.728647464882481}},{"attributes":{"OBJECTID":366,"LANDMARKID":"1000900000756","LANDMARKCO":"405","LANDMARKNA":"中油加油站-佳得美黑松站","LANDMARKAD":"1000901","ADDRESS":"雲林縣斗六市八德里文化路567號","TEL":"05-5320288","COUNTYNAME":"雲林縣","TOWNNAME":"斗六市","MARKTYPE":"994","Class":"4"},"geometry":{"x":120.56184007937382,"y":23.714903864980258}},{"attributes":{"OBJECTID":367,"LANDMARKID":"1000900000757","LANDMARKCO":"405","LANDMARKNA":"統一速邁樂加油站-斗六加油站（中油）","LANDMARKAD":"1000901","ADDRESS":"雲林縣斗六市明德北路一段432號","TEL":" ","COUNTYNAME":"雲林縣","TOWNNAME":"斗六市","MARKTYPE":"994","Class":"4"},"geometry":{"x":120.54737433657871,"y":23.718836580546597}},{"attributes":{"OBJECTID":368,"LANDMARKID":"1000900000758","LANDMARKCO":"405","LANDMARKNA":"中油加油站-雅虎站(中油直營)","LANDMARKAD":"1000901","ADDRESS":"雲林縣斗六市虎溪里西平路776號","TEL":"05-5514796","COUNTYNAME":"雲林縣","TOWNNAME":"斗六市","MARKTYPE":"994","Class":"4"},"geometry":{"x":120.52361855253112,"y":23.7266863439717}},{"attributes":{"OBJECTID":369,"LANDMARKID":"1000900000759","LANDMARKCO":"405","LANDMARKNA":"中油加油站-佳得美斗六站","LANDMARKAD":"1000901","ADDRESS":"雲林縣斗六市大學路二段245號","TEL":"05-5320577","COUNTYNAME":"雲林縣","TOWNNAME":"斗六市","MARKTYPE":"994","Class":"4"},"geometry":{"x":120.54878933883865,"y":23.699954930329135}},{"attributes":{"OBJECTID":370,"LANDMARKID":"1000900000760","LANDMARKCO":"405","LANDMARKNA":"中油加油站-日升站","LANDMARKAD":"1000901","ADDRESS":"雲林縣斗六市溝埧里仁義路182號","TEL":"05-5222218","COUNTYNAME":"雲林縣","TOWNNAME":"斗六市","MARKTYPE":"994","Class":"4"},"geometry":{"x":120.53663478592009,"y":23.672731044626488}},{"attributes":{"OBJECTID":371,"LANDMARKID":"1000900000604","LANDMARKCO":"402","LANDMARKNA":"My Phone台灣大哥大-斗六鎮北直營服務中心","LANDMARKAD":"1000901","ADDRESS":"雲林縣斗六市鎮北路10號","TEL":"0809-000-166","COUNTYNAME":"雲林縣","TOWNNAME":"斗六市","MARKTYPE":"994","Class":"4"},"geometry":{"x":120.54349252766947,"y":23.711435491733639}},{"attributes":{"OBJECTID":372,"LANDMARKID":"1000900000605","LANDMARKCO":"402","LANDMARKNA":"亞太行動寬頻電信-斗六文化加盟服務中心","LANDMARKAD":"1000901","ADDRESS":"雲林縣斗六市文化路74號","TEL":"05-5377715","COUNTYNAME":"雲林縣","TOWNNAME":"斗六市","MARKTYPE":"994","Class":"4"},"geometry":{"x":120.54716430637774,"y":23.710889046268928}},{"attributes":{"OBJECTID":373,"LANDMARKID":"1000900000606","LANDMARKCO":"402","LANDMARKNA":"亞太行動寬頻電信-斗六鎮北加盟服務中心","LANDMARKAD":"1000901","ADDRESS":"雲林縣斗六市鎮北路9號","TEL":"05-5351818","COUNTYNAME":"雲林縣","TOWNNAME":"斗六市","MARKTYPE":"994","Class":"4"},"geometry":{"x":120.54325597515171,"y":23.711605662190451}},{"attributes":{"OBJECTID":374,"LANDMARKID":"1000900000607","LANDMARKCO":"402","LANDMARKNA":"亞太行動寬頻電信-斗六中山加盟服務中心","LANDMARKAD":"1000901","ADDRESS":"雲林縣斗六市中山路360號","TEL":"05-5337185","COUNTYNAME":"雲林縣","TOWNNAME":"斗六市","MARKTYPE":"994","Class":"4"},"geometry":{"x":120.53806415221507,"y":23.699654117418827}},{"attributes":{"OBJECTID":375,"LANDMARKID":"1000900000592","LANDMARKCO":"401","LANDMARKNA":"洪揚醫院","LANDMARKAD":"1000901","ADDRESS":"雲林縣斗六市文化路138號","TEL":"05-5323039","COUNTYNAME":"雲林縣","TOWNNAME":"斗六市","MARKTYPE":"994","Class":"4"},"geometry":{"x":120.54879237388811,"y":23.710872344710296}},{"attributes":{"OBJECTID":376,"LANDMARKID":"1000900000593","LANDMARKCO":"401","LANDMARKNA":"國立臺灣大學醫學院附設醫院雲林分院-","LANDMARKAD":"1000901","ADDRESS":"雲林縣斗六市鎮西里雲林路二段579號","TEL":"05-5323911","COUNTYNAME":"雲林縣","TOWNNAME":"斗六市","MARKTYPE":"994","Class":"4"},"geometry":{"x":120.5259286891567,"y":23.697663994287275}},{"attributes":{"OBJECTID":377,"LANDMARKID":"1000900000594","LANDMARKCO":"401","LANDMARKNA":"國立成功大學醫學院附設醫院斗六分院","LANDMARKAD":"1000901","ADDRESS":"雲林縣斗六市莊敬路345號","TEL":"05-5322017","COUNTYNAME":"雲林縣","TOWNNAME":"斗六市","MARKTYPE":"994","Class":"4"},"geometry":{"x":120.54510075409793,"y":23.703039113968941}},{"attributes":{"OBJECTID":378,"LANDMARKID":"1000900000595","LANDMARKCO":"401","LANDMARKNA":"安生醫院","LANDMARKAD":"1000901","ADDRESS":"雲林縣斗六市仁愛里永樂街120號","TEL":"05-5325386","COUNTYNAME":"雲林縣","TOWNNAME":"斗六市","MARKTYPE":"994","Class":"4"},"geometry":{"x":120.54696614396894,"y":23.708341476636591}},{"attributes":{"OBJECTID":379,"LANDMARKID":"1000900000596","LANDMARKCO":"401","LANDMARKNA":"信安醫院","LANDMARKAD":"1000901","ADDRESS":"雲林縣斗六市瓦厝路159號","TEL":"05-5223788","COUNTYNAME":"雲林縣","TOWNNAME":"斗六市","MARKTYPE":"994","Class":"4"},"geometry":{"x":120.51125358029201,"y":23.668639591526745}},{"attributes":{"OBJECTID":380,"LANDMARKID":"1000900000861","LANDMARKCO":"512","LANDMARKNA":"雲林縣風景區管理所","LANDMARKAD":"1000901","ADDRESS":"雲林縣斗六市雲林路二段519號3樓","TEL":"05-5345466","COUNTYNAME":"雲林縣","TOWNNAME":"斗六市","MARKTYPE":"995","Class":"5"},"geometry":{"x":120.52600204830945,"y":23.698696521039345}},{"attributes":{"OBJECTID":381,"LANDMARKID":"1000900000778","LANDMARKCO":"408","LANDMARKNA":"郵局-斗六大崙郵局","LANDMARKAD":"1000901","ADDRESS":"雲林縣斗六市仁義路89號","TEL":"(05)5222-884","COUNTYNAME":"雲林縣","TOWNNAME":"斗六市","MARKTYPE":"994","Class":"4"},"geometry":{"x":120.53847418692764,"y":23.679032650230731}},{"attributes":{"OBJECTID":382,"LANDMARKID":"1000900000779","LANDMARKCO":"408","LANDMARKNA":"郵局-斗六石榴郵局","LANDMARKAD":"1000901","ADDRESS":"雲林縣斗六市榴中里工業路77號","TEL":"(05)5573-894","COUNTYNAME":"雲林縣","TOWNNAME":"斗六市","MARKTYPE":"994","Class":"4"},"geometry":{"x":120.58901703920884,"y":23.72172559455737}},{"attributes":{"OBJECTID":383,"LANDMARKID":"1000900000780","LANDMARKCO":"408","LANDMARKNA":"郵局-斗六鎮北郵局","LANDMARKAD":"1000901","ADDRESS":"雲林縣斗六市慶生路37號","TEL":"(05)5325-702","COUNTYNAME":"雲林縣","TOWNNAME":"斗六市","MARKTYPE":"994","Class":"4"},"geometry":{"x":120.53971568248986,"y":23.713001619733042}},{"attributes":{"OBJECTID":384,"LANDMARKID":"1000900000781","LANDMARKCO":"408","LANDMARKNA":"郵局-斗六永安郵局","LANDMARKAD":"1000901","ADDRESS":"雲林縣斗六市永安路8號","TEL":"(05)5321-272","COUNTYNAME":"雲林縣","TOWNNAME":"斗六市","MARKTYPE":"994","Class":"4"},"geometry":{"x":120.54780326449227,"y":23.710667949186917}},{"attributes":{"OBJECTID":385,"LANDMARKID":"1000900000782","LANDMARKCO":"408","LANDMARKNA":"郵局-斗六西平路郵局","LANDMARKAD":"1000901","ADDRESS":"雲林縣斗六市西平路1號","TEL":"(05)5322-245","COUNTYNAME":"雲林縣","TOWNNAME":"斗六市","MARKTYPE":"994","Class":"4"},"geometry":{"x":120.53962287482827,"y":23.70673125706702}},{"attributes":{"OBJECTID":386,"LANDMARKID":"1000900000841","LANDMARKCO":"409","LANDMARKNA":"雲林縣斗六市農會","LANDMARKAD":"1000901","ADDRESS":"雲林縣斗六市雲林路一段18號","TEL":"05-5322041","COUNTYNAME":"雲林縣","TOWNNAME":"斗六市","MARKTYPE":"994","Class":"4"},"geometry":{"x":120.54104392404527,"y":23.709340104089339}},{"attributes":{"OBJECTID":387,"LANDMARKID":"1000900000647","LANDMARKCO":"404","LANDMARKNA":"台灣省自來水斗六營運所","LANDMARKAD":"1000901","ADDRESS":"雲林縣斗六市成功路293號","TEL":" ","COUNTYNAME":"雲林縣","TOWNNAME":"斗六市","MARKTYPE":"994","Class":"4"},"geometry":{"x":120.54860895330422,"y":23.707290092199255}},{"attributes":{"OBJECTID":388,"LANDMARKID":"1000900000646","LANDMARKCO":"403","LANDMARKNA":"台灣電力公司雲林區營業處","LANDMARKAD":"1000901","ADDRESS":"雲林縣斗六市西平路250號","TEL":" ","COUNTYNAME":"雲林縣","TOWNNAME":"斗六市","MARKTYPE":"994","Class":"4"},"geometry":{"x":120.53524438026626,"y":23.712304450374116}},{"attributes":{"OBJECTID":389,"LANDMARKID":"1000900000761","LANDMARKCO":"406","LANDMARKNA":"漢記公園市","LANDMARKAD":"1000901","ADDRESS":"雲林縣斗六市","TEL":" ","COUNTYNAME":"雲林縣","TOWNNAME":"斗六市","MARKTYPE":"994","Class":"4"},"geometry":{"x":120.5608298796127,"y":23.736039450476387}},{"attributes":{"OBJECTID":390,"LANDMARKID":"1000900000762","LANDMARKCO":"406","LANDMARKNA":"鄰里公園","LANDMARKAD":"1000901","ADDRESS":"雲林縣斗六市","TEL":" ","COUNTYNAME":"雲林縣","TOWNNAME":"斗六市","MARKTYPE":"994","Class":"4"},"geometry":{"x":120.55589253577588,"y":23.713659305410292}},{"attributes":{"OBJECTID":391,"LANDMARKID":"1000900000763","LANDMARKCO":"406","LANDMARKNA":"中山紀念公園","LANDMARKAD":"1000901","ADDRESS":"雲林縣斗六市","TEL":" ","COUNTYNAME":"雲林縣","TOWNNAME":"斗六市","MARKTYPE":"994","Class":"4"},"geometry":{"x":120.54927017251583,"y":23.704431099399951}},{"attributes":{"OBJECTID":392,"LANDMARKID":"1000900000777","LANDMARKCO":"407","LANDMARKNA":"三商百貨","LANDMARKAD":"1000901","ADDRESS":"雲林縣斗六市民生路98號","TEL":"05-5332778","COUNTYNAME":"雲林縣","TOWNNAME":"斗六市","MARKTYPE":"994","Class":"4"},"geometry":{"x":120.53964420765391,"y":23.71011493411153}},{"attributes":{"OBJECTID":393,"LANDMARKID":"1000900000742","LANDMARKCO":"405","LANDMARKNA":"福懋加油站-鎮南站(台塑)","LANDMARKAD":"1000901","ADDRESS":"雲林縣斗六市中山路239號","TEL":"05-5333159","COUNTYNAME":"雲林縣","TOWNNAME":"斗六市","MARKTYPE":"994","Class":"4"},"geometry":{"x":120.53924612152264,"y":23.703667680332305}},{"attributes":{"OBJECTID":394,"LANDMARKID":"1000900000743","LANDMARKCO":"405","LANDMARKNA":"福懋加油站-吉祥站(台塑)","LANDMARKAD":"1000901","ADDRESS":"雲林縣斗六市石榴路26號","TEL":"05-5574066","COUNTYNAME":"雲林縣","TOWNNAME":"斗六市","MARKTYPE":"994","Class":"4"},"geometry":{"x":120.57872252759958,"y":23.720292568697079}},{"attributes":{"OBJECTID":395,"LANDMARKID":"1000900000744","LANDMARKCO":"405","LANDMARKNA":"福懋加油站-石榴班站(台塑)","LANDMARKAD":"1000901","ADDRESS":"雲林縣斗六市石榴路345號","TEL":"05-5575009","COUNTYNAME":"雲林縣","TOWNNAME":"斗六市","MARKTYPE":"994","Class":"4"},"geometry":{"x":120.59022518517358,"y":23.728825039072188}},{"attributes":{"OBJECTID":396,"LANDMARKID":"1000900000745","LANDMARKCO":"405","LANDMARKNA":"福懋加油站-西平站(台塑)","LANDMARKAD":"1000901","ADDRESS":"雲林縣斗六市西平路273號","TEL":"05-5519228","COUNTYNAME":"雲林縣","TOWNNAME":"斗六市","MARKTYPE":"994","Class":"4"},"geometry":{"x":120.53137241414943,"y":23.714426296450785}},{"attributes":{"OBJECTID":397,"LANDMARKID":"1000900000746","LANDMARKCO":"405","LANDMARKNA":"福懋加油站-百利站(台塑)","LANDMARKAD":"1000901","ADDRESS":"雲林縣斗六市明德北路二段408號","TEL":"05-5515706","COUNTYNAME":"雲林縣","TOWNNAME":"斗六市","MARKTYPE":"994","Class":"4"},"geometry":{"x":120.53350163469341,"y":23.714205197419311}},{"attributes":{"OBJECTID":398,"LANDMARKID":"1000900000747","LANDMARKCO":"405","LANDMARKNA":"福懋加油站-雲林路站(台塑)","LANDMARKAD":"1000901","ADDRESS":"雲林縣斗六市雲林路三段45號","TEL":"05-5223808","COUNTYNAME":"雲林縣","TOWNNAME":"斗六市","MARKTYPE":"994","Class":"4"},"geometry":{"x":120.52014350774635,"y":23.695755165701669}},{"attributes":{"OBJECTID":399,"LANDMARKID":"1000900000063","LANDMARKCO":"103","LANDMARKNA":"雲林縣審計室","LANDMARKAD":"1000901","ADDRESS":"雲林縣斗六市雲林路一段180巷12號1樓","TEL":"05-5347431","COUNTYNAME":"雲林縣","TOWNNAME":"斗六市","MARKTYPE":"991","Class":"1"},"geometry":{"x":120.53661007938024,"y":23.70698661690361}},{"attributes":{"OBJECTID":400,"LANDMARKID":"1000900000014","LANDMARKCO":"101","LANDMARKNA":"雲林憲兵隊","LANDMARKAD":"1000901","ADDRESS":"雲林縣斗六市公正街214巷1號","TEL":"05-5321284","COUNTYNAME":"雲林縣","TOWNNAME":"斗六市","MARKTYPE":"991","Class":"1"},"geometry":{"x":120.54371721227312,"y":23.710172705773626}}]}