{"displayFieldName":"COUNTYNAME","fieldAliases":{"OBJECTID":"OBJECTID","LANDMARKID":"LANDMARKID","LANDMARKCO":"LANDMARKCO","LANDMARKNA":"LANDMARKNA","LANDMARKAD":"LANDMARKAD","ADDRESS":"ADDRESS","TEL":"TEL","COUNTYNAME":"COUNTYNAME","TOWNNAME":"TOWNNAME","MARKTYPE":"MARKTYPE","Class":"Class"},"geometryType":"esriGeometryPoint","spatialReference":{"wkid":4326},"fields":[{"name":"OBJECTID","type":"esriFieldTypeOID","alias":"OBJECTID"},{"name":"LANDMARKID","type":"esriFieldTypeString","alias":"LANDMARKID","length":15},{"name":"LANDMARKCO","type":"esriFieldTypeString","alias":"LANDMARKCO","length":15},{"name":"LANDMARKNA","type":"esriFieldTypeString","alias":"LANDMARKNA","length":50},{"name":"LANDMARKAD","type":"esriFieldTypeString","alias":"LANDMARKAD","length":15},{"name":"ADDRESS","type":"esriFieldTypeString","alias":"ADDRESS","length":56},{"name":"TEL","type":"esriFieldTypeString","alias":"TEL","length":36},{"name":"COUNTYNAME","type":"esriFieldTypeString","alias":"COUNTYNAME","length":15},{"name":"TOWNNAME","type":"esriFieldTypeString","alias":"TOWNNAME","length":13},{"name":"MARKTYPE","type":"esriFieldTypeString","alias":"MARKTYPE","length":12},{"name":"Class","type":"esriFieldTypeString","alias":"Class","length":5}],"features":[{"attributes":{"OBJECTID":27401,"LANDMARKID":"1000700001086","LANDMARKCO":"505","LANDMARKNA":"台灣民俗村售票處","LANDMARKAD":"1000708","ADDRESS":"彰化縣花壇鄉三芬路360號","TEL":"04-7873988","COUNTYNAME":"彰化縣","TOWNNAME":"花壇鄉","MARKTYPE":"995","Class":"5"},"geometry":{"x":120.59080078693738,"y":24.020462723786103}},{"attributes":{"OBJECTID":27402,"LANDMARKID":"1000700001087","LANDMARKCO":"505","LANDMARKNA":"台灣民俗村","LANDMARKAD":"1000708","ADDRESS":"彰化縣花壇鄉三芬路360號","TEL":" ","COUNTYNAME":"彰化縣","TOWNNAME":"花壇鄉","MARKTYPE":"995","Class":"5"},"geometry":{"x":120.58835730859299,"y":24.020746343415926}},{"attributes":{"OBJECTID":27403,"LANDMARKID":"1000700000896","LANDMARKCO":"405","LANDMARKNA":"中油加油站-福興站(中油直營)","LANDMARKAD":"1000706","ADDRESS":"彰化縣福興鄉橋頭村彰鹿路七段477號","TEL":"04-7772534","COUNTYNAME":"彰化縣","TOWNNAME":"福興鄉","MARKTYPE":"994","Class":"4"},"geometry":{"x":120.4452512046866,"y":24.047743041268685}},{"attributes":{"OBJECTID":27404,"LANDMARKID":"1000700000897","LANDMARKCO":"405","LANDMARKNA":"中油加油站-有信站","LANDMARKAD":"1000706","ADDRESS":"彰化縣福興鄉福南村臨海路一段39號","TEL":"04-7755081","COUNTYNAME":"彰化縣","TOWNNAME":"福興鄉","MARKTYPE":"994","Class":"4"},"geometry":{"x":120.42111506285389,"y":24.039400334985991}},{"attributes":{"OBJECTID":27405,"LANDMARKID":"1000700000898","LANDMARKCO":"405","LANDMARKNA":"中油加油站-福樂站","LANDMARKAD":"1000706","ADDRESS":"彰化縣福興鄉西勢村員鹿路二段11號","TEL":"04-7756249","COUNTYNAME":"彰化縣","TOWNNAME":"福興鄉","MARKTYPE":"994","Class":"4"},"geometry":{"x":120.43626562735993,"y":24.036136768146548}},{"attributes":{"OBJECTID":27406,"LANDMARKID":"1000700000899","LANDMARKCO":"405","LANDMARKNA":"中油加油站-永益站","LANDMARKAD":"1000706","ADDRESS":"彰化縣福興鄉沿海路三段213號","TEL":"04-7704117","COUNTYNAME":"彰化縣","TOWNNAME":"福興鄉","MARKTYPE":"994","Class":"4"},"geometry":{"x":120.41342897006488,"y":24.029546948149218}},{"attributes":{"OBJECTID":27407,"LANDMARKID":"1000700000900","LANDMARKCO":"405","LANDMARKNA":"中油加油站-金界站","LANDMARKAD":"1000706","ADDRESS":"彰化縣福興鄉沿海路五段112號","TEL":"04-7755536","COUNTYNAME":"彰化縣","TOWNNAME":"福興鄉","MARKTYPE":"994","Class":"4"},"geometry":{"x":120.42863374031981,"y":24.045633252578018}},{"attributes":{"OBJECTID":27408,"LANDMARKID":"1000700001003","LANDMARKCO":"408","LANDMARKNA":"郵局-福興郵局","LANDMARKAD":"1000706","ADDRESS":"彰化縣福興鄉員鹿路2段184號","TEL":"(04)7775-418","COUNTYNAME":"彰化縣","TOWNNAME":"福興鄉","MARKTYPE":"994","Class":"4"},"geometry":{"x":120.43604556300576,"y":24.039676085261672}},{"attributes":{"OBJECTID":27409,"LANDMARKID":"1000700001004","LANDMARKCO":"408","LANDMARKNA":"郵局-福興福工郵局","LANDMARKAD":"1000706","ADDRESS":"彰化縣福興鄉福工路1號","TEL":"(04)7696-145","COUNTYNAME":"彰化縣","TOWNNAME":"福興鄉","MARKTYPE":"994","Class":"4"},"geometry":{"x":120.48681922851868,"y":24.012061445740862}},{"attributes":{"OBJECTID":27410,"LANDMARKID":"1000700001066","LANDMARKCO":"409","LANDMARKNA":"彰化縣福興鄉農會","LANDMARKAD":"1000706","ADDRESS":"彰化縣福興鄉橋頭村復興路28號","TEL":"04-7789226-8","COUNTYNAME":"彰化縣","TOWNNAME":"福興鄉","MARKTYPE":"994","Class":"4"},"geometry":{"x":120.43964414740755,"y":24.049763545920314}},{"attributes":{"OBJECTID":27411,"LANDMARKID":"1000700000781","LANDMARKCO":"404","LANDMARKNA":"台灣省自來水福興營運所","LANDMARKAD":"1000706","ADDRESS":"彰化縣福興鄉萬豐村福工路1之1號","TEL":" ","COUNTYNAME":"彰化縣","TOWNNAME":"福興鄉","MARKTYPE":"994","Class":"4"},"geometry":{"x":120.48867253124961,"y":24.011742749285357}},{"attributes":{"OBJECTID":27412,"LANDMARKID":"1000700000980","LANDMARKCO":"407","LANDMARKNA":"三商百貨","LANDMARKAD":"1000706","ADDRESS":"彰化縣福興鄉橋頭村中正路210之1號","TEL":"04-7768057","COUNTYNAME":"彰化縣","TOWNNAME":"福興鄉","MARKTYPE":"994","Class":"4"},"geometry":{"x":120.44122267624904,"y":24.053132148964622}},{"attributes":{"OBJECTID":27413,"LANDMARKID":"1000700000893","LANDMARKCO":"405","LANDMARKNA":"台塑加油站-全億站(台塑)","LANDMARKAD":"1000706","ADDRESS":"彰化縣福興鄉沿海路一段352號","TEL":"04-7702051","COUNTYNAME":"彰化縣","TOWNNAME":"福興鄉","MARKTYPE":"994","Class":"4"},"geometry":{"x":120.39575263691334,"y":24.018456255299615}},{"attributes":{"OBJECTID":27414,"LANDMARKID":"1000700000894","LANDMARKCO":"405","LANDMARKNA":"台亞加油站-福興站（台塑）","LANDMARKAD":"1000706","ADDRESS":"彰化縣福興鄉沿海路四段256號","TEL":"(04)775-6442","COUNTYNAME":"彰化縣","TOWNNAME":"福興鄉","MARKTYPE":"994","Class":"4"},"geometry":{"x":120.42086991740734,"y":24.036352487684031}},{"attributes":{"OBJECTID":27415,"LANDMARKID":"1000700000895","LANDMARKCO":"405","LANDMARKNA":"台亞加油站-福鹿站(台塑)","LANDMARKAD":"1000706","ADDRESS":"彰化縣福興鄉中正路88號","TEL":"04-7769910","COUNTYNAME":"彰化縣","TOWNNAME":"福興鄉","MARKTYPE":"994","Class":"4"},"geometry":{"x":120.44208771461821,"y":24.050184236853109}},{"attributes":{"OBJECTID":27416,"LANDMARKID":"1000700000270","LANDMARKCO":"108","LANDMARKNA":"彰化縣福興鄉公所","LANDMARKAD":"1000706","ADDRESS":"彰化縣福興鄉橋頭村彰鹿路七段495號","TEL":"04-7772066","COUNTYNAME":"彰化縣","TOWNNAME":"福興鄉","MARKTYPE":"991","Class":"1"},"geometry":{"x":120.44384948367971,"y":24.047934283956018}},{"attributes":{"OBJECTID":27417,"LANDMARKID":"1000700000068","LANDMARKCO":"103","LANDMARKNA":"彰化縣福興鄉鄉民代表會","LANDMARKAD":"1000706","ADDRESS":"彰化縣福興鄉彰鹿路七段495號","TEL":"04-7773794","COUNTYNAME":"彰化縣","TOWNNAME":"福興鄉","MARKTYPE":"991","Class":"1"},"geometry":{"x":120.44384948367971,"y":24.047934283956018}},{"attributes":{"OBJECTID":27418,"LANDMARKID":"1000700000069","LANDMARKCO":"103","LANDMARKNA":"彰化縣福興鄉衛生所","LANDMARKAD":"1000706","ADDRESS":"彰化縣福興鄉福興村福興路51巷2號","TEL":"04-7772371","COUNTYNAME":"彰化縣","TOWNNAME":"福興鄉","MARKTYPE":"991","Class":"1"},"geometry":{"x":120.42789329027819,"y":24.047440942114033}},{"attributes":{"OBJECTID":27419,"LANDMARKID":"1000700000197","LANDMARKCO":"107","LANDMARKNA":"彰化縣消防局福興消防分隊","LANDMARKAD":"1000706","ADDRESS":"彰化縣福興鄉外中街237號","TEL":"04-7792875","COUNTYNAME":"彰化縣","TOWNNAME":"福興鄉","MARKTYPE":"991","Class":"1"},"geometry":{"x":120.47205159595565,"y":24.017621992442582}},{"attributes":{"OBJECTID":27420,"LANDMARKID":"1000700000198","LANDMARKCO":"107","LANDMARKNA":"彰化縣警察局福興分駐所","LANDMARKAD":"1000706","ADDRESS":"彰化縣福興鄉橋頭村彰鹿路七段489號","TEL":"04-7775405","COUNTYNAME":"彰化縣","TOWNNAME":"福興鄉","MARKTYPE":"991","Class":"1"},"geometry":{"x":120.44420714032547,"y":24.047961875887282}},{"attributes":{"OBJECTID":27421,"LANDMARKID":"1000700000199","LANDMARKCO":"107","LANDMARKNA":"彰化縣警察局洪堀派出所","LANDMARKAD":"1000706","ADDRESS":"彰化縣福興鄉秀厝村福三路三段468號","TEL":"04-7704441","COUNTYNAME":"彰化縣","TOWNNAME":"福興鄉","MARKTYPE":"991","Class":"1"},"geometry":{"x":120.42667737409101,"y":24.029990436168884}},{"attributes":{"OBJECTID":27422,"LANDMARKID":"1000700000200","LANDMARKCO":"107","LANDMARKNA":"彰化縣警察局外中派出所","LANDMARKAD":"1000706","ADDRESS":"彰化縣福興鄉外中村外中街237號","TEL":"04-7792048","COUNTYNAME":"彰化縣","TOWNNAME":"福興鄉","MARKTYPE":"991","Class":"1"},"geometry":{"x":120.47205159595565,"y":24.017621992442582}},{"attributes":{"OBJECTID":27423,"LANDMARKID":"1000700000124","LANDMARKCO":"106","LANDMARKNA":"彰化縣福興鄉戶政事務所","LANDMARKAD":"1000706","ADDRESS":"彰化縣福興鄉橋頭村6鄰彰鹿路七段491號","TEL":"04-7773394","COUNTYNAME":"彰化縣","TOWNNAME":"福興鄉","MARKTYPE":"991","Class":"1"},"geometry":{"x":120.4441356348879,"y":24.047980623733384}},{"attributes":{"OBJECTID":27424,"LANDMARKID":"1000700000011","LANDMARKCO":"101","LANDMARKNA":"工業局福興兼埤頭及田中工業區","LANDMARKAD":"1000706","ADDRESS":"彰化縣福興鄉萬豐村福工路1號","TEL":"04-7693884","COUNTYNAME":"彰化縣","TOWNNAME":"福興鄉","MARKTYPE":"991","Class":"1"},"geometry":{"x":120.48704118985523,"y":24.011920163846625}},{"attributes":{"OBJECTID":27425,"LANDMARKID":"1000700000540","LANDMARKCO":"204","LANDMARKNA":"彰化縣立圖書館福興分館","LANDMARKAD":"1000706","ADDRESS":"彰化縣福興鄉橋頭村彰鹿路七段495號","TEL":" ","COUNTYNAME":"彰化縣","TOWNNAME":"福興鄉","MARKTYPE":"992","Class":"2"},"geometry":{"x":120.44321821979339,"y":24.048108759390463}},{"attributes":{"OBJECTID":27426,"LANDMARKID":"1000700000458","LANDMARKCO":"203","LANDMARKNA":"縣立福興國中","LANDMARKAD":"1000706","ADDRESS":"彰化縣福興鄉西勢村員鹿路二段270號","TEL":"04-7772009","COUNTYNAME":"彰化縣","TOWNNAME":"福興鄉","MARKTYPE":"992","Class":"2"},"geometry":{"x":120.43667463553601,"y":24.040967112010065}},{"attributes":{"OBJECTID":27427,"LANDMARKID":"1000700000459","LANDMARKCO":"203","LANDMARKNA":"縣立鹿港國中","LANDMARKAD":"1000706","ADDRESS":"彰化縣福興鄉橋頭村復興路78號","TEL":"04-7772037","COUNTYNAME":"彰化縣","TOWNNAME":"福興鄉","MARKTYPE":"992","Class":"2"},"geometry":{"x":120.4394528701643,"y":24.050985456465892}},{"attributes":{"OBJECTID":27428,"LANDMARKID":"1000700000460","LANDMARKCO":"203","LANDMARKNA":"縣立管嶼國小","LANDMARKAD":"1000706","ADDRESS":"彰化縣福興鄉廈粘村沿海路三段100號","TEL":"04-7702949","COUNTYNAME":"彰化縣","TOWNNAME":"福興鄉","MARKTYPE":"992","Class":"2"},"geometry":{"x":120.41281273957973,"y":24.028135773563921}},{"attributes":{"OBJECTID":27429,"LANDMARKID":"1000700000461","LANDMARKCO":"203","LANDMARKNA":"縣立西勢國小","LANDMARKAD":"1000706","ADDRESS":"彰化縣福興鄉西勢村員鹿路二段412號","TEL":"04-7772317","COUNTYNAME":"彰化縣","TOWNNAME":"福興鄉","MARKTYPE":"992","Class":"2"},"geometry":{"x":120.43726220307217,"y":24.044037712556726}},{"attributes":{"OBJECTID":27430,"LANDMARKID":"1000700000462","LANDMARKCO":"203","LANDMARKNA":"縣立大興國小","LANDMARKAD":"1000706","ADDRESS":"彰化縣福興鄉外埔村復興路15號","TEL":"04-7792251","COUNTYNAME":"彰化縣","TOWNNAME":"福興鄉","MARKTYPE":"992","Class":"2"},"geometry":{"x":120.47361036373078,"y":24.026676204999273}},{"attributes":{"OBJECTID":27431,"LANDMARKID":"1000700000463","LANDMARKCO":"203","LANDMARKNA":"縣立日新國小","LANDMARKAD":"1000706","ADDRESS":"彰化縣福興鄉番婆村彰鹿路六段546號","TEL":"04-7773861","COUNTYNAME":"彰化縣","TOWNNAME":"福興鄉","MARKTYPE":"992","Class":"2"},"geometry":{"x":120.45948024517348,"y":24.046231571586773}},{"attributes":{"OBJECTID":27432,"LANDMARKID":"1000700000464","LANDMARKCO":"203","LANDMARKNA":"縣立育新國小","LANDMARKAD":"1000706","ADDRESS":"彰化縣福興鄉二港村福正路4號","TEL":"04-7772521","COUNTYNAME":"彰化縣","TOWNNAME":"福興鄉","MARKTYPE":"992","Class":"2"},"geometry":{"x":120.41305521405576,"y":24.04138081737911}},{"attributes":{"OBJECTID":27433,"LANDMARKID":"1000700000465","LANDMARKCO":"203","LANDMARKNA":"縣立文昌國小","LANDMARKAD":"1000706","ADDRESS":"彰化縣福興鄉鎮平村鎮平街1號","TEL":"04-7702812","COUNTYNAME":"彰化縣","TOWNNAME":"福興鄉","MARKTYPE":"992","Class":"2"},"geometry":{"x":120.41908748360099,"y":24.0080709162057}},{"attributes":{"OBJECTID":27434,"LANDMARKID":"1000700000466","LANDMARKCO":"203","LANDMARKNA":"縣立永豐國小","LANDMARKAD":"1000706","ADDRESS":"彰化縣福興鄉番社村80號","TEL":"04-7792748","COUNTYNAME":"彰化縣","TOWNNAME":"福興鄉","MARKTYPE":"992","Class":"2"},"geometry":{"x":120.45515202721013,"y":24.025648725587381}},{"attributes":{"OBJECTID":27435,"LANDMARKID":"1000700000643","LANDMARKCO":"308","LANDMARKNA":"台61-福興交流道-北上","LANDMARKAD":"1000706","ADDRESS":" ","TEL":" ","COUNTYNAME":"彰化縣","TOWNNAME":"福興鄉","MARKTYPE":"993","Class":"308"},"geometry":{"x":120.40961129223784,"y":24.059442961601196}},{"attributes":{"OBJECTID":27436,"LANDMARKID":"1000700001163","LANDMARKCO":"603","LANDMARKNA":"紅樓精品旅館","LANDMARKAD":"1000706","ADDRESS":"彰化縣福興鄉橋頭村橋和街62號","TEL":"04-7841201","COUNTYNAME":"彰化縣","TOWNNAME":"福興鄉","MARKTYPE":"996","Class":"6"},"geometry":{"x":120.44271546465028,"y":24.053319132511518}},{"attributes":{"OBJECTID":27437,"LANDMARKID":"1000700001076","LANDMARKCO":"503","LANDMARKNA":"福寶自然生態園區","LANDMARKAD":"1000706","ADDRESS":"彰化縣福興鄉","TEL":" ","COUNTYNAME":"彰化縣","TOWNNAME":"福興鄉","MARKTYPE":"995","Class":"5"},"geometry":{"x":120.40192148302896,"y":24.043308003427672}},{"attributes":{"OBJECTID":27438,"LANDMARKID":"1000700001077","LANDMARKCO":"503","LANDMARKNA":"福寶溼地","LANDMARKAD":"1000706","ADDRESS":"彰化縣芳苑鄉芳漢路485巷","TEL":" ","COUNTYNAME":"彰化縣","TOWNNAME":"福興鄉","MARKTYPE":"995","Class":"5"},"geometry":{"x":120.3988396036672,"y":24.043612276325291}},{"attributes":{"OBJECTID":27439,"LANDMARKID":"1000700000901","LANDMARKCO":"405","LANDMARKNA":"中油加油站-龍益站","LANDMARKAD":"1000709","ADDRESS":"彰化縣芬園鄉溪頭村員草路一段63號","TEL":"049-2525891","COUNTYNAME":"彰化縣","TOWNNAME":"芬園鄉","MARKTYPE":"994","Class":"4"},"geometry":{"x":120.63998467423298,"y":23.974149963733471}},{"attributes":{"OBJECTID":27440,"LANDMARKID":"1000700000902","LANDMARKCO":"405","LANDMARKNA":"中油加油站-芬園站(中油直營)","LANDMARKAD":"1000709","ADDRESS":"彰化縣芬園鄉彰南路四段354號","TEL":"049-2522244","COUNTYNAME":"彰化縣","TOWNNAME":"芬園鄉","MARKTYPE":"994","Class":"4"},"geometry":{"x":120.62767036960859,"y":24.018274566321793}},{"attributes":{"OBJECTID":27441,"LANDMARKID":"1000700001088","LANDMARKCO":"506","LANDMARKNA":"荔枝觀光果園","LANDMARKAD":"1000709","ADDRESS":"彰化縣芬園鄉彰南路五段720號","TEL":"049-2526092","COUNTYNAME":"彰化縣","TOWNNAME":"芬園鄉","MARKTYPE":"995","Class":"5"},"geometry":{"x":120.62019914187078,"y":24.040813259227029}},{"attributes":{"OBJECTID":27442,"LANDMARKID":"1000700001130","LANDMARKCO":"507","LANDMARKNA":"芬園寶藏寺","LANDMARKAD":"1000709","ADDRESS":"彰化縣芬園鄉進芬村彰南路三段100號","TEL":" ","COUNTYNAME":"彰化縣","TOWNNAME":"芬園鄉","MARKTYPE":"995","Class":"5"},"geometry":{"x":120.62807227852467,"y":24.002270498549677}},{"attributes":{"OBJECTID":27443,"LANDMARKID":"1000700001005","LANDMARKCO":"408","LANDMARKNA":"郵局-芬園郵局","LANDMARKAD":"1000709","ADDRESS":"彰化縣芬園鄉芬草路2段225號","TEL":"(049)2522-517","COUNTYNAME":"彰化縣","TOWNNAME":"芬園鄉","MARKTYPE":"994","Class":"4"},"geometry":{"x":120.62864867130688,"y":24.01331518597248}},{"attributes":{"OBJECTID":27444,"LANDMARKID":"1000700001065","LANDMARKCO":"409","LANDMARKNA":"彰化縣芬園鄉農會","LANDMARKAD":"1000709","ADDRESS":"彰化縣芬園鄉彰南路四段337號","TEL":"049-2522216","COUNTYNAME":"彰化縣","TOWNNAME":"芬園鄉","MARKTYPE":"994","Class":"4"},"geometry":{"x":120.62736489630203,"y":24.017958015060273}},{"attributes":{"OBJECTID":27445,"LANDMARKID":"1000700000962","LANDMARKCO":"406","LANDMARKNA":"德興公園","LANDMARKAD":"1000709","ADDRESS":"彰化縣芬園鄉","TEL":" ","COUNTYNAME":"彰化縣","TOWNNAME":"芬園鄉","MARKTYPE":"994","Class":"4"},"geometry":{"x":120.61126673385388,"y":24.030185587710278}},{"attributes":{"OBJECTID":27446,"LANDMARKID":"1000700000878","LANDMARKCO":"405","LANDMARKNA":"台塑加油站-芬草站(台塑)","LANDMARKAD":"1000709","ADDRESS":"彰化縣芬園鄉芬草路二段31號","TEL":"04-9521921","COUNTYNAME":"彰化縣","TOWNNAME":"芬園鄉","MARKTYPE":"994","Class":"4"},"geometry":{"x":120.64840211391052,"y":24.010130801904744}},{"attributes":{"OBJECTID":27447,"LANDMARKID":"1000700000202","LANDMARKCO":"107","LANDMARKNA":"彰化縣警察局縣庄派出所","LANDMARKAD":"1000709","ADDRESS":"彰化縣芬園鄉圳墘村彰南路二段131號","TEL":"049-2525151","COUNTYNAME":"彰化縣","TOWNNAME":"芬園鄉","MARKTYPE":"991","Class":"1"},"geometry":{"x":120.63596606241299,"y":23.988800958366991}},{"attributes":{"OBJECTID":27448,"LANDMARKID":"1000700000203","LANDMARKCO":"107","LANDMARKNA":"彰化縣警察局芬園分駐所","LANDMARKAD":"1000709","ADDRESS":"彰化縣芬園鄉芬園村彰南路一段175號","TEL":"049-2522419","COUNTYNAME":"彰化縣","TOWNNAME":"芬園鄉","MARKTYPE":"991","Class":"1"},"geometry":{"x":120.62827620926872,"y":24.015414318916388}},{"attributes":{"OBJECTID":27449,"LANDMARKID":"1000700000268","LANDMARKCO":"108","LANDMARKNA":"彰化縣芬園鄉公所","LANDMARKAD":"1000709","ADDRESS":"彰化縣芬園鄉社口村芬草路二段300號","TEL":"049-2522556","COUNTYNAME":"彰化縣","TOWNNAME":"芬園鄉","MARKTYPE":"991","Class":"1"},"geometry":{"x":120.62902336562996,"y":24.013720865758373}},{"attributes":{"OBJECTID":27450,"LANDMARKID":"1000700000072","LANDMARKCO":"103","LANDMARKNA":"彰化縣芬園鄉衛生所","LANDMARKAD":"1000709","ADDRESS":"彰化縣芬園鄉社口村公園一街11號","TEL":"049-2524065","COUNTYNAME":"彰化縣","TOWNNAME":"芬園鄉","MARKTYPE":"991","Class":"1"},"geometry":{"x":120.63053254766889,"y":24.014098075226059}},{"attributes":{"OBJECTID":27451,"LANDMARKID":"1000700000073","LANDMARKCO":"103","LANDMARKNA":"彰化縣芬園鄉鄉民代表會","LANDMARKAD":"1000709","ADDRESS":"彰化縣芬園鄉芬草路二段300號3樓","TEL":"049-2522095","COUNTYNAME":"彰化縣","TOWNNAME":"芬園鄉","MARKTYPE":"991","Class":"1"},"geometry":{"x":120.62902336562996,"y":24.013720865758373}},{"attributes":{"OBJECTID":27452,"LANDMARKID":"1000700000204","LANDMARKCO":"107","LANDMARKNA":"彰化縣消防局芬園消防分隊","LANDMARKAD":"1000709","ADDRESS":"彰化縣芬園鄉社口村彰南路四段189號","TEL":"049-2523653","COUNTYNAME":"彰化縣","TOWNNAME":"芬園鄉","MARKTYPE":"991","Class":"1"},"geometry":{"x":120.62844079382309,"y":24.0154429268695}},{"attributes":{"OBJECTID":27453,"LANDMARKID":"1000700000205","LANDMARKCO":"107","LANDMARKNA":"彰化縣警察局安山派出所","LANDMARKAD":"1000709","ADDRESS":"彰化縣芬園鄉同安村大彰路三段147巷63號","TEL":"04-8590056","COUNTYNAME":"彰化縣","TOWNNAME":"芬園鄉","MARKTYPE":"991","Class":"1"},"geometry":{"x":120.61074459845311,"y":23.993112120516869}},{"attributes":{"OBJECTID":27454,"LANDMARKID":"1000700000120","LANDMARKCO":"106","LANDMARKNA":"彰化縣芬園鄉戶政事務所","LANDMARKAD":"1000709","ADDRESS":"彰化縣芬園鄉社口村4鄰彰南路四段177號","TEL":"049-2522844","COUNTYNAME":"彰化縣","TOWNNAME":"芬園鄉","MARKTYPE":"991","Class":"1"},"geometry":{"x":120.62835751408261,"y":24.015343470716967}},{"attributes":{"OBJECTID":27455,"LANDMARKID":"1000700000536","LANDMARKCO":"204","LANDMARKNA":"彰化縣立圖書館芬園分館","LANDMARKAD":"1000709","ADDRESS":"彰化縣芬園鄉社口村彰南路四段25號","TEL":" ","COUNTYNAME":"彰化縣","TOWNNAME":"芬園鄉","MARKTYPE":"992","Class":"2"},"geometry":{"x":120.62807038324634,"y":24.012663805317278}},{"attributes":{"OBJECTID":27456,"LANDMARKID":"1000700000450","LANDMARKCO":"203","LANDMARKNA":"縣立寶山國小","LANDMARKAD":"1000709","ADDRESS":"彰化縣芬園鄉圳墘村彰南路二段36號","TEL":"049-2525010","COUNTYNAME":"彰化縣","TOWNNAME":"芬園鄉","MARKTYPE":"992","Class":"2"},"geometry":{"x":120.64008468099101,"y":23.986911015820368}},{"attributes":{"OBJECTID":27457,"LANDMARKID":"1000700000451","LANDMARKCO":"203","LANDMARKNA":"縣立芬園國中","LANDMARKAD":"1000709","ADDRESS":"彰化縣芬園鄉彰南路四段27巷80號","TEL":"049-2522001","COUNTYNAME":"彰化縣","TOWNNAME":"芬園鄉","MARKTYPE":"992","Class":"2"},"geometry":{"x":120.62632473823396,"y":24.011938333338172}},{"attributes":{"OBJECTID":27458,"LANDMARKID":"1000700000452","LANDMARKCO":"203","LANDMARKNA":"縣立富山國小","LANDMARKAD":"1000709","ADDRESS":"彰化縣芬園鄉大埔村大埔路6號","TEL":"049-2522084","COUNTYNAME":"彰化縣","TOWNNAME":"芬園鄉","MARKTYPE":"992","Class":"2"},"geometry":{"x":120.61948727570652,"y":24.027191387013328}},{"attributes":{"OBJECTID":27459,"LANDMARKID":"1000700000453","LANDMARKCO":"203","LANDMARKNA":"縣立文德國小","LANDMARKAD":"1000709","ADDRESS":"彰化縣芬園鄉大竹村大彰路一段617號","TEL":"04-8590012","COUNTYNAME":"彰化縣","TOWNNAME":"芬園鄉","MARKTYPE":"992","Class":"2"},"geometry":{"x":120.62832066252035,"y":23.963364740922067}},{"attributes":{"OBJECTID":27460,"LANDMARKID":"1000700000454","LANDMARKCO":"203","LANDMARKNA":"縣立茄荖國小","LANDMARKAD":"1000709","ADDRESS":"彰化縣芬園鄉茄荖村嘉北街96號","TEL":"049-2523018","COUNTYNAME":"彰化縣","TOWNNAME":"芬園鄉","MARKTYPE":"992","Class":"2"},"geometry":{"x":120.64341422011559,"y":24.015335590442902}},{"attributes":{"OBJECTID":27461,"LANDMARKID":"1000700000455","LANDMARKCO":"203","LANDMARKNA":"縣立芬園國小","LANDMARKAD":"1000709","ADDRESS":"彰化縣芬園鄉彰南路四段27巷28號","TEL":"049-2522208","COUNTYNAME":"彰化縣","TOWNNAME":"芬園鄉","MARKTYPE":"992","Class":"2"},"geometry":{"x":120.62716537239525,"y":24.01212725994791}},{"attributes":{"OBJECTID":27462,"LANDMARKID":"1000700000456","LANDMARKCO":"203","LANDMARKNA":"縣立同安國小","LANDMARKAD":"1000709","ADDRESS":"彰化縣芬園鄉大彰路二段400巷36號","TEL":"04-8590502","COUNTYNAME":"彰化縣","TOWNNAME":"芬園鄉","MARKTYPE":"992","Class":"2"},"geometry":{"x":120.62107980703389,"y":23.977656442529266}},{"attributes":{"OBJECTID":27463,"LANDMARKID":"1000700000457","LANDMARKCO":"203","LANDMARKNA":"縣立同安國小安山分校","LANDMARKAD":"1000709","ADDRESS":"彰化縣芬園鄉","TEL":" ","COUNTYNAME":"彰化縣","TOWNNAME":"芬園鄉","MARKTYPE":"992","Class":"2"},"geometry":{"x":120.61239768069278,"y":23.993345213667247}},{"attributes":{"OBJECTID":27464,"LANDMARKID":"1000700000627","LANDMARKCO":"303","LANDMARKNA":"八卦山脈寶藏寺古蹟遊憩區停車場","LANDMARKAD":"1000709","ADDRESS":"彰化縣芬園鄉","TEL":" ","COUNTYNAME":"彰化縣","TOWNNAME":"芬園鄉","MARKTYPE":"993","Class":"303"},"geometry":{"x":120.61144175690154,"y":24.032427621347981}},{"attributes":{"OBJECTID":27465,"LANDMARKID":"1000700000721","LANDMARKCO":"402","LANDMARKNA":"中華電信-芬園服務中心","LANDMARKAD":"1000709","ADDRESS":"彰化縣芬園鄉彰南路三段496號","TEL":"(049)252-8976","COUNTYNAME":"彰化縣","TOWNNAME":"芬園鄉","MARKTYPE":"994","Class":"4"},"geometry":{"x":120.62875144686798,"y":24.010333052640142}},{"attributes":{"OBJECTID":27466,"LANDMARKID":"1000700001211","LANDMARKCO":"604","LANDMARKNA":"碧山廬禪的民宿","LANDMARKAD":"1000709","ADDRESS":"彰化縣芬園鄉溪頭村彰南路1段103巷130號","TEL":"049-2528288","COUNTYNAME":"彰化縣","TOWNNAME":"芬園鄉","MARKTYPE":"996","Class":"6"},"geometry":{"x":120.64132184280733,"y":23.967084777615231}},{"attributes":{"OBJECTID":27467,"LANDMARKID":"1000700001166","LANDMARKCO":"603","LANDMARKNA":"安麗都汽車旅館","LANDMARKAD":"1000709","ADDRESS":"彰化縣芬園鄉茄荖村芬草路1段639號","TEL":"049-252100","COUNTYNAME":"彰化縣","TOWNNAME":"芬園鄉","MARKTYPE":"996","Class":"6"},"geometry":{"x":120.64133434572754,"y":24.013319021651959}},{"attributes":{"OBJECTID":27468,"LANDMARKID":"1000700001208","LANDMARKCO":"604","LANDMARKNA":"八卦山蝴蝶園","LANDMARKAD":"1000709","ADDRESS":"彰化縣芬園鄉舊社村大彰路5段51號","TEL":"049-2520677","COUNTYNAME":"彰化縣","TOWNNAME":"芬園鄉","MARKTYPE":"996","Class":"6"},"geometry":{"x":120.59825750065427,"y":24.021037635866204}},{"attributes":{"OBJECTID":27469,"LANDMARKID":"1000700001209","LANDMARKCO":"604","LANDMARKNA":"古早雞民宿","LANDMARKAD":"1000709","ADDRESS":"彰化縣芬園鄉舊社村彰南路5段451巷36號","TEL":"049-2524362","COUNTYNAME":"彰化縣","TOWNNAME":"芬園鄉","MARKTYPE":"996","Class":"6"},"geometry":{"x":120.62088158007398,"y":24.037005943226891}},{"attributes":{"OBJECTID":27470,"LANDMARKID":"1000700000876","LANDMARKCO":"405","LANDMARKNA":"中油加油站-埔鹽站(中油直營)","LANDMARKAD":"1000714","ADDRESS":"彰化縣埔鹽鄉好修村員鹿路二段99號","TEL":"04-8651196","COUNTYNAME":"彰化縣","TOWNNAME":"埔鹽鄉","MARKTYPE":"994","Class":"4"},"geometry":{"x":120.46047793322957,"y":24.005015891770189}},{"attributes":{"OBJECTID":27471,"LANDMARKID":"1000700000877","LANDMARKCO":"405","LANDMARKNA":"中油加油站-光明站","LANDMARKAD":"1000714","ADDRESS":"彰化縣埔鹽鄉彰水路2段174號","TEL":"04-8651552","COUNTYNAME":"彰化縣","TOWNNAME":"埔鹽鄉","MARKTYPE":"994","Class":"4"},"geometry":{"x":120.48066424228335,"y":24.002917497117128}},{"attributes":{"OBJECTID":27472,"LANDMARKID":"1000700001018","LANDMARKCO":"408","LANDMARKNA":"郵局-埔鹽郵局","LANDMARKAD":"1000714","ADDRESS":"彰化縣埔鹽鄉彰水路2段100號","TEL":"(04)8659-430","COUNTYNAME":"彰化縣","TOWNNAME":"埔鹽鄉","MARKTYPE":"994","Class":"4"},"geometry":{"x":120.47726083064823,"y":23.99220379536602}},{"attributes":{"OBJECTID":27473,"LANDMARKID":"1000700001059","LANDMARKCO":"409","LANDMARKNA":"彰化縣埔鹽鄉農會","LANDMARKAD":"1000714","ADDRESS":"彰化縣埔鹽鄉好修村員鹿路二段72號","TEL":"04-8653016","COUNTYNAME":"彰化縣","TOWNNAME":"埔鹽鄉","MARKTYPE":"994","Class":"4"},"geometry":{"x":120.46293702366961,"y":24.000936990233043}},{"attributes":{"OBJECTID":27474,"LANDMARKID":"1000700000879","LANDMARKCO":"405","LANDMARKNA":"台亞加油站-埔鹽站（台塑）","LANDMARKAD":"1000714","ADDRESS":"彰化縣埔鹽鄉員鹿路2段96號","TEL":"(04)865-6899","COUNTYNAME":"彰化縣","TOWNNAME":"埔鹽鄉","MARKTYPE":"994","Class":"4"},"geometry":{"x":120.46377965191458,"y":23.999682572586376}},{"attributes":{"OBJECTID":27475,"LANDMARKID":"1000700000066","LANDMARKCO":"103","LANDMARKNA":"彰化縣埔鹽鄉衛生所","LANDMARKAD":"1000714","ADDRESS":"彰化縣埔鹽鄉好修村員鹿路二段五58號","TEL":"04-8654814","COUNTYNAME":"彰化縣","TOWNNAME":"埔鹽鄉","MARKTYPE":"991","Class":"1"},"geometry":{"x":120.4632213849937,"y":24.000303823220751}},{"attributes":{"OBJECTID":27476,"LANDMARKID":"1000700000265","LANDMARKCO":"108","LANDMARKNA":"彰化縣埔鹽鄉公所","LANDMARKAD":"1000714","ADDRESS":"彰化縣埔鹽鄉好修村中正路192號","TEL":"04-8652301","COUNTYNAME":"彰化縣","TOWNNAME":"埔鹽鄉","MARKTYPE":"991","Class":"1"},"geometry":{"x":120.46366147918955,"y":24.000509885302662}},{"attributes":{"OBJECTID":27477,"LANDMARKID":"1000700000067","LANDMARKCO":"103","LANDMARKNA":"彰化縣埔鹽鄉鄉民代表會","LANDMARKAD":"1000714","ADDRESS":"彰化縣埔鹽鄉員鹿路二段60號","TEL":"04-8653723","COUNTYNAME":"彰化縣","TOWNNAME":"埔鹽鄉","MARKTYPE":"991","Class":"1"},"geometry":{"x":120.46323262211553,"y":24.000526286990056}},{"attributes":{"OBJECTID":27478,"LANDMARKID":"1000700000218","LANDMARKCO":"107","LANDMARKNA":"彰化縣消防局埔鹽消防分隊","LANDMARKAD":"1000714","ADDRESS":"彰化縣埔鹽鄉員鹿路二段160號","TEL":"04-8653437","COUNTYNAME":"彰化縣","TOWNNAME":"埔鹽鄉","MARKTYPE":"991","Class":"1"},"geometry":{"x":120.45991406312694,"y":24.00743772370387}},{"attributes":{"OBJECTID":27479,"LANDMARKID":"1000700000219","LANDMARKCO":"107","LANDMARKNA":"彰化縣警察局埔鹽分駐所","LANDMARKAD":"1000714","ADDRESS":"彰化縣埔鹽鄉好修村員鹿路二段160號","TEL":"04-8653553","COUNTYNAME":"彰化縣","TOWNNAME":"埔鹽鄉","MARKTYPE":"991","Class":"1"},"geometry":{"x":120.45991406312694,"y":24.00743772370387}},{"attributes":{"OBJECTID":27480,"LANDMARKID":"1000700000220","LANDMARKCO":"107","LANDMARKNA":"彰化縣警察局埔東派出所","LANDMARKAD":"1000714","ADDRESS":"彰化縣埔鹽鄉埔鹽村中正路48號","TEL":"04-8653784","COUNTYNAME":"彰化縣","TOWNNAME":"埔鹽鄉","MARKTYPE":"991","Class":"1"},"geometry":{"x":120.47541043969299,"y":23.996850675593944}},{"attributes":{"OBJECTID":27481,"LANDMARKID":"1000700000122","LANDMARKCO":"106","LANDMARKNA":"彰化縣埔鹽鄉戶政事務所","LANDMARKAD":"1000714","ADDRESS":"彰化縣埔鹽鄉好修村5鄰員鹿路二段160號2樓","TEL":"04-8653706","COUNTYNAME":"彰化縣","TOWNNAME":"埔鹽鄉","MARKTYPE":"991","Class":"1"},"geometry":{"x":120.45991406312694,"y":24.00743772370387}},{"attributes":{"OBJECTID":27482,"LANDMARKID":"1000700000538","LANDMARKCO":"204","LANDMARKNA":"彰化縣立圖書館埔鹽分館","LANDMARKAD":"1000714","ADDRESS":"彰化縣埔鹽鄉好修村員鹿路二段60號","TEL":" ","COUNTYNAME":"彰化縣","TOWNNAME":"埔鹽鄉","MARKTYPE":"992","Class":"2"},"geometry":{"x":120.46315336028491,"y":24.000601699494162}},{"attributes":{"OBJECTID":27483,"LANDMARKID":"1000700000472","LANDMARKCO":"203","LANDMARKNA":"縣立永樂國小","LANDMARKAD":"1000714","ADDRESS":"彰化縣埔鹽鄉大新路2巷109之1號","TEL":"04-8652263","COUNTYNAME":"彰化縣","TOWNNAME":"埔鹽鄉","MARKTYPE":"992","Class":"2"},"geometry":{"x":120.43144509270977,"y":24.000365773950119}},{"attributes":{"OBJECTID":27484,"LANDMARKID":"1000700000473","LANDMARKCO":"203","LANDMARKNA":"縣立埔鹽國小","LANDMARKAD":"1000714","ADDRESS":"彰化縣埔鹽鄉埔南村彰水路一段252號","TEL":"04-8852882","COUNTYNAME":"彰化縣","TOWNNAME":"埔鹽鄉","MARKTYPE":"992","Class":"2"},"geometry":{"x":120.47800964813618,"y":23.992944230226563}},{"attributes":{"OBJECTID":27485,"LANDMARKID":"1000700000474","LANDMARKCO":"203","LANDMARKNA":"縣立埔鹽國中","LANDMARKAD":"1000714","ADDRESS":"彰化縣埔鹽鄉好修村中正路162號","TEL":"04-8653424","COUNTYNAME":"彰化縣","TOWNNAME":"埔鹽鄉","MARKTYPE":"992","Class":"2"},"geometry":{"x":120.46602197976087,"y":23.999495145237564}},{"attributes":{"OBJECTID":27486,"LANDMARKID":"1000700000475","LANDMARKCO":"203","LANDMARKNA":"縣立新水國小","LANDMARKAD":"1000714","ADDRESS":"彰化縣埔鹽鄉新水村大新路一橫巷15號","TEL":"04-8651112","COUNTYNAME":"彰化縣","TOWNNAME":"埔鹽鄉","MARKTYPE":"992","Class":"2"},"geometry":{"x":120.44525271570461,"y":23.985790860608894}},{"attributes":{"OBJECTID":27487,"LANDMARKID":"1000700000476","LANDMARKCO":"203","LANDMARKNA":"縣立大園國小","LANDMARKAD":"1000714","ADDRESS":"彰化縣埔鹽鄉豐澤村埔打路45之1號","TEL":"04-8853760","COUNTYNAME":"彰化縣","TOWNNAME":"埔鹽鄉","MARKTYPE":"992","Class":"2"},"geometry":{"x":120.48824158215417,"y":23.97979228797638}},{"attributes":{"OBJECTID":27488,"LANDMARKID":"1000700000477","LANDMARKCO":"203","LANDMARKNA":"縣立南港國小","LANDMARKAD":"1000714","ADDRESS":"彰化縣埔鹽鄉南港村埔菜路29之2號","TEL":"04-8850169","COUNTYNAME":"彰化縣","TOWNNAME":"埔鹽鄉","MARKTYPE":"992","Class":"2"},"geometry":{"x":120.49576599435032,"y":23.987981249859338}},{"attributes":{"OBJECTID":27489,"LANDMARKID":"1000700000478","LANDMARKCO":"203","LANDMARKNA":"縣立天盛國小","LANDMARKAD":"1000714","ADDRESS":"彰化縣埔鹽鄉天盛村番金路68之1號","TEL":"04-8650842","COUNTYNAME":"彰化縣","TOWNNAME":"埔鹽鄉","MARKTYPE":"992","Class":"2"},"geometry":{"x":120.42877864057699,"y":23.984995504694844}},{"attributes":{"OBJECTID":27490,"LANDMARKID":"1000700000479","LANDMARKCO":"203","LANDMARKNA":"縣立好修國小","LANDMARKAD":"1000714","ADDRESS":"彰化縣埔鹽鄉好修村員鹿路149號","TEL":"04-8653555","COUNTYNAME":"彰化縣","TOWNNAME":"埔鹽鄉","MARKTYPE":"992","Class":"2"},"geometry":{"x":120.45901098491103,"y":24.007056010378548}},{"attributes":{"OBJECTID":27491,"LANDMARKID":"1000700000634","LANDMARKCO":"308","LANDMARKNA":"台76-埔鹽交流道-東行","LANDMARKAD":"1000714","ADDRESS":"彰化縣埔鹽鄉","TEL":" ","COUNTYNAME":"彰化縣","TOWNNAME":"埔鹽鄉","MARKTYPE":"993","Class":"308"},"geometry":{"x":120.48011853523423,"y":24.01097655748341}},{"attributes":{"OBJECTID":27492,"LANDMARKID":"1000700000635","LANDMARKCO":"308","LANDMARKNA":"台76-埔鹽交流道-東行","LANDMARKAD":"1000714","ADDRESS":"彰化縣埔鹽鄉","TEL":" ","COUNTYNAME":"彰化縣","TOWNNAME":"埔鹽鄉","MARKTYPE":"993","Class":"308"},"geometry":{"x":120.49039706044792,"y":24.008862125138243}},{"attributes":{"OBJECTID":27493,"LANDMARKID":"1000700000636","LANDMARKCO":"308","LANDMARKNA":"國1-埔鹽系統交流道-南下","LANDMARKAD":"1000714","ADDRESS":"彰化縣埔鹽鄉","TEL":" ","COUNTYNAME":"彰化縣","TOWNNAME":"埔鹽鄉","MARKTYPE":"993","Class":"308"},"geometry":{"x":120.50665654400574,"y":23.981680053601568}},{"attributes":{"OBJECTID":27494,"LANDMARKID":"1000700000637","LANDMARKCO":"308","LANDMARKNA":"台76-埔鹽系統交流道-東行","LANDMARKAD":"1000714","ADDRESS":" ","TEL":" ","COUNTYNAME":"彰化縣","TOWNNAME":"埔鹽鄉","MARKTYPE":"993","Class":"308"},"geometry":{"x":120.5082843247105,"y":23.981799965033638}},{"attributes":{"OBJECTID":27495,"LANDMARKID":"1000700000638","LANDMARKCO":"308","LANDMARKNA":"台76-埔鹽系統交流道-東行","LANDMARKAD":"1000714","ADDRESS":" ","TEL":" ","COUNTYNAME":"彰化縣","TOWNNAME":"埔鹽鄉","MARKTYPE":"993","Class":"308"},"geometry":{"x":120.50908014822915,"y":23.980074325128371}},{"attributes":{"OBJECTID":27496,"LANDMARKID":"1000700000639","LANDMARKCO":"308","LANDMARKNA":"台76-埔鹽系統交流道-西行","LANDMARKAD":"1000714","ADDRESS":" ","TEL":" ","COUNTYNAME":"彰化縣","TOWNNAME":"埔鹽鄉","MARKTYPE":"993","Class":"308"},"geometry":{"x":120.50496526452658,"y":23.988120161083039}},{"attributes":{"OBJECTID":27497,"LANDMARKID":"1000700000874","LANDMARKCO":"405","LANDMARKNA":"中油加油站-大村站","LANDMARKAD":"1000713","ADDRESS":"彰化縣大村鄉過溝村中正西路278號","TEL":"04-8535872","COUNTYNAME":"彰化縣","TOWNNAME":"大村鄉","MARKTYPE":"994","Class":"4"},"geometry":{"x":120.54974249259131,"y":23.992040033878446}},{"attributes":{"OBJECTID":27498,"LANDMARKID":"1000700000875","LANDMARKCO":"405","LANDMARKNA":"中油加油站-花壇二站(中油直營)","LANDMARKAD":"1000713","ADDRESS":"彰化縣大村鄉中山路三段205號","TEL":"04-8535569","COUNTYNAME":"彰化縣","TOWNNAME":"大村鄉","MARKTYPE":"994","Class":"4"},"geometry":{"x":120.55701450833529,"y":24.001604277628967}},{"attributes":{"OBJECTID":27499,"LANDMARKID":"1000700000707","LANDMARKCO":"401","LANDMARKNA":"員林郭醫院大村分院","LANDMARKAD":"1000713","ADDRESS":"彰化縣大村鄉大村村田洋橫巷2-9號","TEL":"04-8539888","COUNTYNAME":"彰化縣","TOWNNAME":"大村鄉","MARKTYPE":"994","Class":"4"},"geometry":{"x":120.53815402023911,"y":23.999052898965068}},{"attributes":{"OBJECTID":27500,"LANDMARKID":"1000700001091","LANDMARKCO":"506","LANDMARKNA":"大村觀光葡萄園","LANDMARKAD":"1000713","ADDRESS":"彰化縣大村鄉","TEL":"04-8520149","COUNTYNAME":"彰化縣","TOWNNAME":"大村鄉","MARKTYPE":"995","Class":"5"},"geometry":{"x":120.55680525814918,"y":23.997667350775622}},{"attributes":{"OBJECTID":27501,"LANDMARKID":"1000700001017","LANDMARKCO":"408","LANDMARKNA":"郵局-大村郵局","LANDMARKAD":"1000713","ADDRESS":"彰化縣大村鄉大溪路2號","TEL":"(04)8522-774","COUNTYNAME":"彰化縣","TOWNNAME":"大村鄉","MARKTYPE":"994","Class":"4"},"geometry":{"x":120.54479642850004,"y":23.994104118613066}},{"attributes":{"OBJECTID":27502,"LANDMARKID":"1000700001060","LANDMARKCO":"409","LANDMARKNA":"彰化縣大村鄉農會","LANDMARKAD":"1000713","ADDRESS":"彰化縣大村鄉擺塘村中正西路92號","TEL":"04-8520327","COUNTYNAME":"彰化縣","TOWNNAME":"大村鄉","MARKTYPE":"994","Class":"4"},"geometry":{"x":120.55997690767688,"y":23.988908993074922}},{"attributes":{"OBJECTID":27503,"LANDMARKID":"1000700000964","LANDMARKCO":"406","LANDMARKNA":"兒童公園","LANDMARKAD":"1000713","ADDRESS":"彰化縣大村鄉","TEL":" ","COUNTYNAME":"彰化縣","TOWNNAME":"大村鄉","MARKTYPE":"994","Class":"4"},"geometry":{"x":120.54501715036906,"y":23.998158814841453}},{"attributes":{"OBJECTID":27504,"LANDMARKID":"1000700000867","LANDMARKCO":"405","LANDMARKNA":"台塑加油站-大彰站(台塑)","LANDMARKAD":"1000713","ADDRESS":"彰化縣大村鄉中山路二段72號","TEL":"04-8536321","COUNTYNAME":"彰化縣","TOWNNAME":"大村鄉","MARKTYPE":"994","Class":"4"},"geometry":{"x":120.56841657790019,"y":23.983098319327478}},{"attributes":{"OBJECTID":27505,"LANDMARKID":"1000700000868","LANDMARKCO":"405","LANDMARKNA":"福懋加油站-村上站(台塑)","LANDMARKAD":"1000713","ADDRESS":"彰化縣大村鄉村上村中山路二段85號","TEL":"04-8520216","COUNTYNAME":"彰化縣","TOWNNAME":"大村鄉","MARKTYPE":"994","Class":"4"},"geometry":{"x":120.57142913081698,"y":23.976616825432188}},{"attributes":{"OBJECTID":27506,"LANDMARKID":"1000700000012","LANDMARKCO":"101","LANDMARKNA":"農業委員會台中區農業改良場","LANDMARKAD":"1000713","ADDRESS":"彰化縣大村鄉松槐路370號","TEL":"04-8523101~7","COUNTYNAME":"彰化縣","TOWNNAME":"大村鄉","MARKTYPE":"991","Class":"1"},"geometry":{"x":120.53383669794263,"y":24.000892430639674}},{"attributes":{"OBJECTID":27507,"LANDMARKID":"1000700000266","LANDMARKCO":"108","LANDMARKNA":"彰化縣大村鄉公所","LANDMARKAD":"1000713","ADDRESS":"彰化縣大村鄉大村村中正西路338號","TEL":"04-8520149","COUNTYNAME":"彰化縣","TOWNNAME":"大村鄉","MARKTYPE":"991","Class":"1"},"geometry":{"x":120.54725594008374,"y":23.993344180461889}},{"attributes":{"OBJECTID":27508,"LANDMARKID":"1000700000064","LANDMARKCO":"103","LANDMARKNA":"彰化縣大村鄉鄉民代表會","LANDMARKAD":"1000713","ADDRESS":"彰化縣大村鄉中正西路338號4樓","TEL":"04-8524931","COUNTYNAME":"彰化縣","TOWNNAME":"大村鄉","MARKTYPE":"991","Class":"1"},"geometry":{"x":120.54713797545084,"y":23.993351710323616}},{"attributes":{"OBJECTID":27509,"LANDMARKID":"1000700000065","LANDMARKCO":"103","LANDMARKNA":"彰化縣大村鄉衛生所","LANDMARKAD":"1000713","ADDRESS":"彰化縣大村鄉中正西路340號","TEL":"04-8526324","COUNTYNAME":"彰化縣","TOWNNAME":"大村鄉","MARKTYPE":"991","Class":"1"},"geometry":{"x":120.54691130111549,"y":23.993440665700483}},{"attributes":{"OBJECTID":27510,"LANDMARKID":"1000700000215","LANDMARKCO":"107","LANDMARKNA":"彰化縣消防局大村消防分隊","LANDMARKAD":"1000713","ADDRESS":"彰化縣大村鄉茄苳路一段52號","TEL":"04-8523495","COUNTYNAME":"彰化縣","TOWNNAME":"大村鄉","MARKTYPE":"991","Class":"1"},"geometry":{"x":120.54475477709923,"y":23.995414352135967}},{"attributes":{"OBJECTID":27511,"LANDMARKID":"1000700000216","LANDMARKCO":"107","LANDMARKNA":"彰化縣警察局大村分駐所","LANDMARKAD":"1000713","ADDRESS":"彰化縣大村鄉大村村茄苳路一段50號","TEL":"04-8522014","COUNTYNAME":"彰化縣","TOWNNAME":"大村鄉","MARKTYPE":"991","Class":"1"},"geometry":{"x":120.54475223701722,"y":23.995775516639011}},{"attributes":{"OBJECTID":27512,"LANDMARKID":"1000700000217","LANDMARKCO":"107","LANDMARKNA":"彰化縣警察局村上派出所","LANDMARKAD":"1000713","ADDRESS":"彰化縣大村鄉村上村中山路二段246號","TEL":"04-8525474","COUNTYNAME":"彰化縣","TOWNNAME":"大村鄉","MARKTYPE":"991","Class":"1"},"geometry":{"x":120.56426724961979,"y":23.98924088852441}},{"attributes":{"OBJECTID":27513,"LANDMARKID":"1000700000121","LANDMARKCO":"106","LANDMARKNA":"彰化縣大村鄉戶政事務所","LANDMARKAD":"1000713","ADDRESS":"彰化縣大村鄉大村村3鄰茄苳路一段50號","TEL":"04-8523164","COUNTYNAME":"彰化縣","TOWNNAME":"大村鄉","MARKTYPE":"991","Class":"1"},"geometry":{"x":120.54460735720444,"y":23.995413476511679}},{"attributes":{"OBJECTID":27514,"LANDMARKID":"1000700000537","LANDMARKCO":"204","LANDMARKNA":"彰化縣立圖書館大村分館","LANDMARKAD":"1000713","ADDRESS":"彰化縣大村鄉中正西路381號","TEL":" ","COUNTYNAME":"彰化縣","TOWNNAME":"大村鄉","MARKTYPE":"992","Class":"2"},"geometry":{"x":120.54516375741062,"y":23.993910762289303}},{"attributes":{"OBJECTID":27515,"LANDMARKID":"1000700000467","LANDMARKCO":"203","LANDMARKNA":"縣立大西國小","LANDMARKAD":"1000713","ADDRESS":"彰化縣大村鄉大崙村大崙路10之1號","TEL":"04-8522677","COUNTYNAME":"彰化縣","TOWNNAME":"大村鄉","MARKTYPE":"992","Class":"2"},"geometry":{"x":120.52607863735048,"y":23.984080555303823}},{"attributes":{"OBJECTID":27516,"LANDMARKID":"1000700000468","LANDMARKCO":"203","LANDMARKNA":"縣立大村國中","LANDMARKAD":"1000713","ADDRESS":"彰化縣大村鄉村上村中山路二段240號","TEL":"04-8521231","COUNTYNAME":"彰化縣","TOWNNAME":"大村鄉","MARKTYPE":"992","Class":"2"},"geometry":{"x":120.56608451202845,"y":23.987987087548628}},{"attributes":{"OBJECTID":27517,"LANDMARKID":"1000700000469","LANDMARKCO":"203","LANDMARKNA":"縣立村東國小","LANDMARKAD":"1000713","ADDRESS":"彰化縣大村鄉福興村山腳路102之1號","TEL":"04-8526328","COUNTYNAME":"彰化縣","TOWNNAME":"大村鄉","MARKTYPE":"992","Class":"2"},"geometry":{"x":120.58543741620458,"y":23.993548038512035}},{"attributes":{"OBJECTID":27518,"LANDMARKID":"1000700000470","LANDMARKCO":"203","LANDMARKNA":"縣立村上國小","LANDMARKAD":"1000713","ADDRESS":"彰化縣大村鄉村上村中山路二段242號","TEL":"04-8526590","COUNTYNAME":"彰化縣","TOWNNAME":"大村鄉","MARKTYPE":"992","Class":"2"},"geometry":{"x":120.56578251078591,"y":23.988978597477416}},{"attributes":{"OBJECTID":27519,"LANDMARKID":"1000700000471","LANDMARKCO":"203","LANDMARKNA":"縣立大村國小","LANDMARKAD":"1000713","ADDRESS":"彰化縣大村鄉大村村中正西路381號","TEL":"04-8522794","COUNTYNAME":"彰化縣","TOWNNAME":"大村鄉","MARKTYPE":"992","Class":"2"},"geometry":{"x":120.54506428178402,"y":23.993339435720273}},{"attributes":{"OBJECTID":27520,"LANDMARKID":"1000700000287","LANDMARKCO":"201","LANDMARKNA":"大葉大學","LANDMARKAD":"1000713","ADDRESS":"彰化縣大村鄉山腳路112號","TEL":"04-8511888","COUNTYNAME":"彰化縣","TOWNNAME":"大村鄉","MARKTYPE":"992","Class":"2"},"geometry":{"x":120.59710404063999,"y":24.000803976302787}},{"attributes":{"OBJECTID":27521,"LANDMARKID":"1000700000632","LANDMARKCO":"308","LANDMARKNA":"國1-埔鹽系統交流道-北上","LANDMARKAD":"1000713","ADDRESS":"彰化縣埔鹽鄉","TEL":" ","COUNTYNAME":"彰化縣","TOWNNAME":"大村鄉","MARKTYPE":"993","Class":"308"},"geometry":{"x":120.50871979182833,"y":23.988471355389141}},{"attributes":{"OBJECTID":27522,"LANDMARKID":"1000700000633","LANDMARKCO":"308","LANDMARKNA":"台76-埔鹽系統交流道-西行","LANDMARKAD":"1000713","ADDRESS":" ","TEL":" ","COUNTYNAME":"彰化縣","TOWNNAME":"大村鄉","MARKTYPE":"993","Class":"308"},"geometry":{"x":120.50667246536638,"y":23.985585644027669}},{"attributes":{"OBJECTID":27523,"LANDMARKID":"1000700000573","LANDMARKCO":"301","LANDMARKNA":"大村站","LANDMARKAD":"1000713","ADDRESS":"彰化縣大村鄉過溝村福進路100號","TEL":" ","COUNTYNAME":"彰化縣","TOWNNAME":"大村鄉","MARKTYPE":"993","Class":"301"},"geometry":{"x":120.56039321852198,"y":23.98979413278628}},{"attributes":{"OBJECTID":27524,"LANDMARKID":"1000700001165","LANDMARKCO":"603","LANDMARKNA":"伊都汽車旅館","LANDMARKAD":"1000713","ADDRESS":"彰化縣大村鄉中山路二段177-6.8.10.12.16.18號","TEL":"04-8538901","COUNTYNAME":"彰化縣","TOWNNAME":"大村鄉","MARKTYPE":"996","Class":"6"},"geometry":{"x":120.56567123619604,"y":23.986935130203534}},{"attributes":{"OBJECTID":27525,"LANDMARKID":"1000700001133","LANDMARKCO":"510","LANDMARKNA":"台豐高爾夫球場","LANDMARKAD":"1000713","ADDRESS":"彰化縣大村鄉福興村山腳路77-5號","TEL":"04-8521102","COUNTYNAME":"彰化縣","TOWNNAME":"大村鄉","MARKTYPE":"995","Class":"5"},"geometry":{"x":120.59307413224568,"y":23.995992847560107}},{"attributes":{"OBJECTID":27526,"LANDMARKID":"1000700000869","LANDMARKCO":"405","LANDMARKNA":"中油加油站-芳苑站(中油直營)","LANDMARKAD":"1000723","ADDRESS":"彰化縣芳苑鄉仁愛村斗苑路10號","TEL":"04-8984558","COUNTYNAME":"彰化縣","TOWNNAME":"芳苑鄉","MARKTYPE":"994","Class":"4"},"geometry":{"x":120.32727465643178,"y":23.919653389887085}},{"attributes":{"OBJECTID":27527,"LANDMARKID":"1000700000870","LANDMARKCO":"405","LANDMARKNA":"中油加油站-東亞正站","LANDMARKAD":"1000723","ADDRESS":"彰化縣芳苑鄉和平村芳漢路王功段251號","TEL":"04-8931820","COUNTYNAME":"彰化縣","TOWNNAME":"芳苑鄉","MARKTYPE":"994","Class":"4"},"geometry":{"x":120.33667046914198,"y":23.959414472720212}},{"attributes":{"OBJECTID":27528,"LANDMARKID":"1000700001014","LANDMARKCO":"408","LANDMARKNA":"郵局-芳苑郵局","LANDMARKAD":"1000723","ADDRESS":"彰化縣芳苑鄉斗苑路芳苑段231號","TEL":"(04)8983-137","COUNTYNAME":"彰化縣","TOWNNAME":"芳苑鄉","MARKTYPE":"994","Class":"4"},"geometry":{"x":120.32157250842174,"y":23.923273480573993}},{"attributes":{"OBJECTID":27529,"LANDMARKID":"1000700001015","LANDMARKCO":"408","LANDMARKNA":"郵局-芳苑王功郵局","LANDMARKAD":"1000723","ADDRESS":"彰化縣芳苑鄉芳漢路王功段300、302號","TEL":"(04)8936-308","COUNTYNAME":"彰化縣","TOWNNAME":"芳苑鄉","MARKTYPE":"994","Class":"4"},"geometry":{"x":120.33803656080727,"y":23.96198038801284}},{"attributes":{"OBJECTID":27530,"LANDMARKID":"1000700001016","LANDMARKCO":"408","LANDMARKNA":"郵局-芳苑草湖郵局","LANDMARKAD":"1000723","ADDRESS":"彰化縣芳苑鄉建平村二溪路草2段462號","TEL":"(04)8861-787","COUNTYNAME":"彰化縣","TOWNNAME":"芳苑鄉","MARKTYPE":"994","Class":"4"},"geometry":{"x":120.38242933219756,"y":23.956955620623869}},{"attributes":{"OBJECTID":27531,"LANDMARKID":"1000700001061","LANDMARKCO":"409","LANDMARKNA":"彰化縣芳苑鄉農會","LANDMARKAD":"1000723","ADDRESS":"彰化縣芳苑鄉仁愛村斗苑路芳苑段195號","TEL":"04-8984111","COUNTYNAME":"彰化縣","TOWNNAME":"芳苑鄉","MARKTYPE":"994","Class":"4"},"geometry":{"x":120.32076830202948,"y":23.923427048298166}},{"attributes":{"OBJECTID":27532,"LANDMARKID":"1000700000965","LANDMARKCO":"406","LANDMARKNA":"福海公園","LANDMARKAD":"1000723","ADDRESS":"彰化縣芳苑鄉","TEL":" ","COUNTYNAME":"彰化縣","TOWNNAME":"芳苑鄉","MARKTYPE":"994","Class":"4"},"geometry":{"x":120.33474455996601,"y":23.954002188287465}},{"attributes":{"OBJECTID":27533,"LANDMARKID":"1000700000871","LANDMARKCO":"405","LANDMARKNA":"台塑加油站-彰興站(台塑)","LANDMARKAD":"1000723","ADDRESS":"彰化縣芳苑鄉芳漢路460-1號","TEL":"04-8935525","COUNTYNAME":"彰化縣","TOWNNAME":"芳苑鄉","MARKTYPE":"994","Class":"4"},"geometry":{"x":120.32986113603882,"y":23.944890276855102}},{"attributes":{"OBJECTID":27534,"LANDMARKID":"1000700000872","LANDMARKCO":"405","LANDMARKNA":"台塑加油站-金來站(台塑)","LANDMARKAD":"1000723","ADDRESS":"彰化縣芳苑鄉新街村芳新路新街段156號","TEL":"04-8981469","COUNTYNAME":"彰化縣","TOWNNAME":"芳苑鄉","MARKTYPE":"994","Class":"4"},"geometry":{"x":120.30872158011705,"y":23.907578862628203}},{"attributes":{"OBJECTID":27535,"LANDMARKID":"1000700000873","LANDMARKCO":"405","LANDMARKNA":"台塑加油站-新寶站(台塑)","LANDMARKAD":"1000723","ADDRESS":"彰化縣芳苑鄉新寶村中正路382-1號","TEL":"04-8936755","COUNTYNAME":"彰化縣","TOWNNAME":"芳苑鄉","MARKTYPE":"994","Class":"4"},"geometry":{"x":120.36135550652189,"y":23.971457225071227}},{"attributes":{"OBJECTID":27536,"LANDMARKID":"1000700000264","LANDMARKCO":"108","LANDMARKNA":"彰化縣芳苑鄉公所","LANDMARKAD":"1000723","ADDRESS":"彰化縣芳苑鄉斗苑路芳苑段202號","TEL":"04-8983589","COUNTYNAME":"彰化縣","TOWNNAME":"芳苑鄉","MARKTYPE":"991","Class":"1"},"geometry":{"x":120.32098764851325,"y":23.924435901806021}},{"attributes":{"OBJECTID":27537,"LANDMARKID":"1000700000062","LANDMARKCO":"103","LANDMARKNA":"彰化縣芳苑鄉衛生所","LANDMARKAD":"1000723","ADDRESS":"彰化縣芳苑鄉芳苑村斗苑路194巷48號","TEL":"04-8983134","COUNTYNAME":"彰化縣","TOWNNAME":"芳苑鄉","MARKTYPE":"991","Class":"1"},"geometry":{"x":120.32091379302011,"y":23.923983776765112}},{"attributes":{"OBJECTID":27538,"LANDMARKID":"1000700000063","LANDMARKCO":"103","LANDMARKNA":"彰化縣芳苑鄉鄉民代表會","LANDMARKAD":"1000723","ADDRESS":"彰化縣芳苑鄉斗苑路芳苑段202號3樓","TEL":"04-8983147","COUNTYNAME":"彰化縣","TOWNNAME":"芳苑鄉","MARKTYPE":"991","Class":"1"},"geometry":{"x":120.32014483777874,"y":23.92424786124305}},{"attributes":{"OBJECTID":27539,"LANDMARKID":"1000700000221","LANDMARKCO":"107","LANDMARKNA":"彰化縣消防局芳苑消防分隊","LANDMARKAD":"1000723","ADDRESS":"彰化縣芳苑鄉斗苑路芳苑段194巷50號","TEL":"04-8983677","COUNTYNAME":"彰化縣","TOWNNAME":"芳苑鄉","MARKTYPE":"991","Class":"1"},"geometry":{"x":120.31790380380502,"y":23.92577526909044}},{"attributes":{"OBJECTID":27540,"LANDMARKID":"1000700000222","LANDMARKCO":"107","LANDMARKNA":"彰化縣警察局漢寶派出所","LANDMARKAD":"1000723","ADDRESS":"彰化縣芳苑鄉漢寶村草漢路漢寶段495號","TEL":"04-8991219","COUNTYNAME":"彰化縣","TOWNNAME":"芳苑鄉","MARKTYPE":"991","Class":"1"},"geometry":{"x":120.38403549078325,"y":24.004516222036596}},{"attributes":{"OBJECTID":27541,"LANDMARKID":"1000700000223","LANDMARKCO":"107","LANDMARKNA":"彰化縣警察局草湖派出所","LANDMARKAD":"1000723","ADDRESS":"彰化縣大城鄉草港村中央路10號","TEL":"04-8862438","COUNTYNAME":"彰化縣","TOWNNAME":"芳苑鄉","MARKTYPE":"991","Class":"1"},"geometry":{"x":120.38294829010587,"y":23.955399564646335}},{"attributes":{"OBJECTID":27542,"LANDMARKID":"1000700000119","LANDMARKCO":"106","LANDMARKNA":"彰化縣芳苑鄉戶政事務所","LANDMARKAD":"1000723","ADDRESS":"彰化縣芳苑鄉芳苑村斗苑路芳苑段202號2樓","TEL":"04-8983693","COUNTYNAME":"彰化縣","TOWNNAME":"芳苑鄉","MARKTYPE":"991","Class":"1"},"geometry":{"x":120.31597354199484,"y":23.925319014422509}},{"attributes":{"OBJECTID":27543,"LANDMARKID":"1000700000013","LANDMARKCO":"101","LANDMARKNA":"工業局芳苑工業區服務中心","LANDMARKAD":"1000723","ADDRESS":"彰化縣芳苑鄉後寮村工區路18號","TEL":"04-8967775","COUNTYNAME":"彰化縣","TOWNNAME":"芳苑鄉","MARKTYPE":"991","Class":"1"},"geometry":{"x":120.3467318892139,"y":23.912180255081285}},{"attributes":{"OBJECTID":27544,"LANDMARKID":"1000700000224","LANDMARKCO":"107","LANDMARKNA":"彰化縣警察局芳苑派出所","LANDMARKAD":"1000723","ADDRESS":"彰化縣芳苑鄉信義村芳新路20號","TEL":"04-8983432","COUNTYNAME":"彰化縣","TOWNNAME":"芳苑鄉","MARKTYPE":"991","Class":"1"},"geometry":{"x":120.31607366412928,"y":23.925139316905941}},{"attributes":{"OBJECTID":27545,"LANDMARKID":"1000700000225","LANDMARKCO":"107","LANDMARKNA":"彰化縣警察局路上派出所","LANDMARKAD":"1000723","ADDRESS":"彰化縣芳苑鄉路平村上林路上段338號","TEL":"04-8983844","COUNTYNAME":"彰化縣","TOWNNAME":"芳苑鄉","MARKTYPE":"991","Class":"1"},"geometry":{"x":120.33655952595574,"y":23.8925353475849}},{"attributes":{"OBJECTID":27546,"LANDMARKID":"1000700000226","LANDMARKCO":"107","LANDMARKNA":"彰化縣警察局王功派出所","LANDMARKAD":"1000723","ADDRESS":"彰化縣芳苑鄉王功村新興巷23號","TEL":"04-8932151","COUNTYNAME":"彰化縣","TOWNNAME":"芳苑鄉","MARKTYPE":"991","Class":"1"},"geometry":{"x":120.34177880932873,"y":23.96596421338743}},{"attributes":{"OBJECTID":27547,"LANDMARKID":"1000700000565","LANDMARKCO":"206","LANDMARKNA":"王功蚵藝文化館","LANDMARKAD":"1000723","ADDRESS":"彰化縣芳苑鄉王功村王功漁港路1號","TEL":"(04)893-6657","COUNTYNAME":"彰化縣","TOWNNAME":"芳苑鄉","MARKTYPE":"992","Class":"2"},"geometry":{"x":120.32492727009738,"y":23.970214443683712}},{"attributes":{"OBJECTID":27548,"LANDMARKID":"1000700000535","LANDMARKCO":"204","LANDMARKNA":"彰化縣立圖書館芳苑分館","LANDMARKAD":"1000723","ADDRESS":"彰化縣芳苑鄉芳苑村斗苑路芳苑段202號","TEL":" ","COUNTYNAME":"彰化縣","TOWNNAME":"芳苑鄉","MARKTYPE":"992","Class":"2"},"geometry":{"x":120.32041381725826,"y":23.924629848095421}},{"attributes":{"OBJECTID":27549,"LANDMARKID":"1000700000480","LANDMARKCO":"203","LANDMARKNA":"縣立芳苑國中","LANDMARKAD":"1000723","ADDRESS":"彰化縣芳苑鄉仁愛村斗苑路芳苑段211號","TEL":"04-8983264","COUNTYNAME":"彰化縣","TOWNNAME":"芳苑鄉","MARKTYPE":"992","Class":"2"},"geometry":{"x":120.31972307104976,"y":23.923250889023791}},{"attributes":{"OBJECTID":27550,"LANDMARKID":"1000700000481","LANDMARKCO":"203","LANDMARKNA":"縣立草湖國中","LANDMARKAD":"1000723","ADDRESS":"彰化縣芳苑鄉草湖村功湖路草湖段140號","TEL":"04-8861051","COUNTYNAME":"彰化縣","TOWNNAME":"芳苑鄉","MARKTYPE":"992","Class":"2"},"geometry":{"x":120.37840296896518,"y":23.958805211511045}},{"attributes":{"OBJECTID":27551,"LANDMARKID":"1000700000482","LANDMARKCO":"203","LANDMARKNA":"縣立育華國小","LANDMARKAD":"1000723","ADDRESS":"彰化縣芳苑鄉永興村太平路300號","TEL":"04-8933261","COUNTYNAME":"彰化縣","TOWNNAME":"芳苑鄉","MARKTYPE":"992","Class":"2"},"geometry":{"x":120.33244274065054,"y":23.945886753044071}},{"attributes":{"OBJECTID":27552,"LANDMARKID":"1000700000483","LANDMARKCO":"203","LANDMARKNA":"縣立芳苑國小","LANDMARKAD":"1000723","ADDRESS":"彰化縣芳苑鄉芳苑村斗苑路230號","TEL":"04-8983993","COUNTYNAME":"彰化縣","TOWNNAME":"芳苑鄉","MARKTYPE":"992","Class":"2"},"geometry":{"x":120.31916671349214,"y":23.925244702174403}},{"attributes":{"OBJECTID":27553,"LANDMARKID":"1000700000484","LANDMARKCO":"203","LANDMARKNA":"縣立草湖國小","LANDMARKAD":"1000723","ADDRESS":"彰化縣芳苑鄉文津村芳草路66號","TEL":"04-8933327","COUNTYNAME":"彰化縣","TOWNNAME":"芳苑鄉","MARKTYPE":"992","Class":"2"},"geometry":{"x":120.3674119085119,"y":23.95605208085237}},{"attributes":{"OBJECTID":27554,"LANDMARKID":"1000700000485","LANDMARKCO":"203","LANDMARKNA":"縣立後寮國小","LANDMARKAD":"1000723","ADDRESS":"彰化縣芳苑鄉後寮村芳寮路30號","TEL":"04-8983184","COUNTYNAME":"彰化縣","TOWNNAME":"芳苑鄉","MARKTYPE":"992","Class":"2"},"geometry":{"x":120.34146126990551,"y":23.920827186965884}},{"attributes":{"OBJECTID":27555,"LANDMARKID":"1000700000486","LANDMARKCO":"203","LANDMARKNA":"縣立建新國小","LANDMARKAD":"1000723","ADDRESS":"彰化縣芳苑鄉新生村草漢路草二段86號","TEL":"04-8862328","COUNTYNAME":"彰化縣","TOWNNAME":"芳苑鄉","MARKTYPE":"992","Class":"2"},"geometry":{"x":120.39053791987718,"y":23.981340775304847}},{"attributes":{"OBJECTID":27556,"LANDMARKID":"1000700000487","LANDMARKCO":"203","LANDMARKNA":"縣立漢寶國小","LANDMARKAD":"1000723","ADDRESS":"彰化縣芳苑鄉漢寶村草漢路漢寶段541號","TEL":"04-8991062","COUNTYNAME":"彰化縣","TOWNNAME":"芳苑鄉","MARKTYPE":"992","Class":"2"},"geometry":{"x":120.38463105292288,"y":24.006326830834681}},{"attributes":{"OBJECTID":27557,"LANDMARKID":"1000700000488","LANDMARKCO":"203","LANDMARKNA":"縣立路上國小","LANDMARKAD":"1000723","ADDRESS":"彰化縣芳苑鄉路上村新上路12號","TEL":"04-8982014","COUNTYNAME":"彰化縣","TOWNNAME":"芳苑鄉","MARKTYPE":"992","Class":"2"},"geometry":{"x":120.32837346419315,"y":23.896383112142423}},{"attributes":{"OBJECTID":27558,"LANDMARKID":"1000700000489","LANDMARKCO":"203","LANDMARKNA":"縣立新街國小","LANDMARKAD":"1000723","ADDRESS":"彰化縣芳苑鄉新上路1號","TEL":"04-8982066","COUNTYNAME":"彰化縣","TOWNNAME":"芳苑鄉","MARKTYPE":"992","Class":"2"},"geometry":{"x":120.31145694923042,"y":23.902447178963872}},{"attributes":{"OBJECTID":27559,"LANDMARKID":"1000700000490","LANDMARKCO":"203","LANDMARKNA":"縣立王功國小","LANDMARKAD":"1000723","ADDRESS":"彰化縣芳苑鄉王功村育嬰巷75號","TEL":"04-8932182","COUNTYNAME":"彰化縣","TOWNNAME":"芳苑鄉","MARKTYPE":"992","Class":"2"},"geometry":{"x":120.34199705797141,"y":23.964792261949214}},{"attributes":{"OBJECTID":27560,"LANDMARKID":"1000700000491","LANDMARKCO":"203","LANDMARKNA":"縣立新寶國小","LANDMARKAD":"1000723","ADDRESS":"彰化縣芳苑鄉芳漢路新段129巷100號","TEL":"04-8932885","COUNTYNAME":"彰化縣","TOWNNAME":"芳苑鄉","MARKTYPE":"992","Class":"2"},"geometry":{"x":120.34508063438584,"y":23.978711738547453}},{"attributes":{"OBJECTID":27561,"LANDMARKID":"1000700000492","LANDMARKCO":"203","LANDMARKNA":"縣立民權國小","LANDMARKAD":"1000723","ADDRESS":"彰化縣芳苑鄉五俊村新生巷5之1號","TEL":"04-8932625","COUNTYNAME":"彰化縣","TOWNNAME":"芳苑鄉","MARKTYPE":"992","Class":"2"},"geometry":{"x":120.34721956724489,"y":23.933403176619613}},{"attributes":{"OBJECTID":27562,"LANDMARKID":"1000700000493","LANDMARKCO":"203","LANDMARKNA":"縣立路上國小頂廓分校(廢)","LANDMARKAD":"1000723","ADDRESS":"彰化縣芳苑鄉","TEL":" ","COUNTYNAME":"彰化縣","TOWNNAME":"芳苑鄉","MARKTYPE":"992","Class":"2"},"geometry":{"x":120.3289500791181,"y":23.911647586307065}},{"attributes":{"OBJECTID":27563,"LANDMARKID":"1000700000631","LANDMARKCO":"305","LANDMARKNA":"王功漁港","LANDMARKAD":"1000723","ADDRESS":"芳苑鄉王功村漁港路","TEL":" ","COUNTYNAME":"彰化縣","TOWNNAME":"芳苑鄉","MARKTYPE":"993","Class":"305"},"geometry":{"x":120.32501762298384,"y":23.967978500759575}},{"attributes":{"OBJECTID":27564,"LANDMARKID":"1000700001210","LANDMARKCO":"604","LANDMARKNA":"福海渡假漁村民宿","LANDMARKAD":"1000723","ADDRESS":"彰化縣芳苑鄉王功村1鄰海埔1884-2號","TEL":"04-8934557","COUNTYNAME":"彰化縣","TOWNNAME":"芳苑鄉","MARKTYPE":"996","Class":"6"},"geometry":{"x":120.32796232258865,"y":23.969960880755099}},{"attributes":{"OBJECTID":27565,"LANDMARKID":"1000700001079","LANDMARKCO":"503","LANDMARKNA":"芳苑燈塔","LANDMARKAD":"1000723","ADDRESS":"彰化縣芳苑鄉","TEL":" ","COUNTYNAME":"彰化縣","TOWNNAME":"芳苑鄉","MARKTYPE":"995","Class":"5"},"geometry":{"x":120.32414754491086,"y":23.971150152343185}},{"attributes":{"OBJECTID":27566,"LANDMARKID":"1000700001080","LANDMARKCO":"503","LANDMARKNA":"王者之弓橋","LANDMARKAD":"1000723","ADDRESS":"彰化縣芳苑鄉","TEL":" ","COUNTYNAME":"彰化縣","TOWNNAME":"芳苑鄉","MARKTYPE":"995","Class":"5"},"geometry":{"x":120.3242983351351,"y":23.968053365184062}},{"attributes":{"OBJECTID":27567,"LANDMARKID":"1000700000861","LANDMARKCO":"405","LANDMARKNA":"中油加油站-永村員林站","LANDMARKAD":"1000710","ADDRESS":"彰化縣員林鎮員水路2段112號","TEL":"04-8390666","COUNTYNAME":"彰化縣","TOWNNAME":"員林鎮","MARKTYPE":"994","Class":"4"},"geometry":{"x":120.59282111466652,"y":23.953095583726107}},{"attributes":{"OBJECTID":27568,"LANDMARKID":"1000700000862","LANDMARKCO":"405","LANDMARKNA":"中油加油站-員東路站(刷卡自助)(中油直營)","LANDMARKAD":"1000710","ADDRESS":"彰化縣員林鎮員東路二段413號","TEL":"04-8329743","COUNTYNAME":"彰化縣","TOWNNAME":"員林鎮","MARKTYPE":"994","Class":"4"},"geometry":{"x":120.57918680422976,"y":23.957680410750491}},{"attributes":{"OBJECTID":27569,"LANDMARKID":"1000700000863","LANDMARKCO":"405","LANDMARKNA":"中油加油站-橋頭站(中油直營)","LANDMARKAD":"1000710","ADDRESS":"彰化縣員林鎮員集路一段46號","TEL":"04-8721990","COUNTYNAME":"彰化縣","TOWNNAME":"員林鎮","MARKTYPE":"994","Class":"4"},"geometry":{"x":120.58091093554873,"y":23.924579378025797}},{"attributes":{"OBJECTID":27570,"LANDMARKID":"1000700000864","LANDMARKCO":"405","LANDMARKNA":"統一速邁樂加油站-員林加油站(中油)","LANDMARKAD":"1000710","ADDRESS":"彰化縣員林鎮員集路二段456號","TEL":" ","COUNTYNAME":"彰化縣","TOWNNAME":"員林鎮","MARKTYPE":"994","Class":"4"},"geometry":{"x":120.5760361883798,"y":23.946834918449802}},{"attributes":{"OBJECTID":27571,"LANDMARKID":"1000700000865","LANDMARKCO":"405","LANDMARKNA":"中油加油站-饒明站","LANDMARKAD":"1000710","ADDRESS":"彰化縣員林鎮中央里員集路二段227號","TEL":"04-8336710","COUNTYNAME":"彰化縣","TOWNNAME":"員林鎮","MARKTYPE":"994","Class":"4"},"geometry":{"x":120.57611516892744,"y":23.941319162460289}},{"attributes":{"OBJECTID":27572,"LANDMARKID":"1000700000866","LANDMARKCO":"405","LANDMARKNA":"中油加油站-員林站(中油直營)","LANDMARKAD":"1000710","ADDRESS":"彰化縣員林鎮三多里中山路二段495號","TEL":"04-8320294","COUNTYNAME":"彰化縣","TOWNNAME":"員林鎮","MARKTYPE":"994","Class":"4"},"geometry":{"x":120.57128633296772,"y":23.971738788135848}},{"attributes":{"OBJECTID":27573,"LANDMARKID":"1000700000716","LANDMARKCO":"402","LANDMARKNA":"My Phone台灣大哥大-彰化員林直營服務中心","LANDMARKAD":"1000710","ADDRESS":"彰化縣員林鎮中山南路4號","TEL":" ","COUNTYNAME":"彰化縣","TOWNNAME":"員林鎮","MARKTYPE":"994","Class":"4"},"geometry":{"x":120.5708338774345,"y":23.956196927617409}},{"attributes":{"OBJECTID":27574,"LANDMARKID":"1000700000717","LANDMARKCO":"402","LANDMARKNA":"亞太行動寬頻電信-員林中正加盟服務中心","LANDMARKAD":"1000710","ADDRESS":"彰化縣員林鎮中正路545號","TEL":"04-8327588","COUNTYNAME":"彰化縣","TOWNNAME":"員林鎮","MARKTYPE":"994","Class":"4"},"geometry":{"x":120.57155037309123,"y":23.960489385213538}},{"attributes":{"OBJECTID":27575,"LANDMARKID":"1000700000718","LANDMARKCO":"402","LANDMARKNA":"亞太行動寬頻電信-員林林森加盟服務中心","LANDMARKAD":"1000710","ADDRESS":"彰化縣員林鎮林森路260號","TEL":"04-8391288","COUNTYNAME":"彰化縣","TOWNNAME":"員林鎮","MARKTYPE":"994","Class":"4"},"geometry":{"x":120.57747204676441,"y":23.959486389179816}},{"attributes":{"OBJECTID":27576,"LANDMARKID":"1000700000719","LANDMARKCO":"402","LANDMARKNA":"亞太行動寬頻電信-彰化員林加盟服務中心","LANDMARKAD":"1000710","ADDRESS":"彰化縣員林鎮中正路118號","TEL":"04-8352005","COUNTYNAME":"彰化縣","TOWNNAME":"員林鎮","MARKTYPE":"994","Class":"4"},"geometry":{"x":120.5758525639791,"y":23.952046217454729}},{"attributes":{"OBJECTID":27577,"LANDMARKID":"1000700000708","LANDMARKCO":"401","LANDMARKNA":"敦仁醫院","LANDMARKAD":"1000710","ADDRESS":"彰化縣員林鎮員水路一段102巷74弄99號","TEL":"04-7071727","COUNTYNAME":"彰化縣","TOWNNAME":"員林鎮","MARKTYPE":"994","Class":"4"},"geometry":{"x":120.60447715466111,"y":23.950920705079852}},{"attributes":{"OBJECTID":27578,"LANDMARKID":"1000700000709","LANDMARKCO":"401","LANDMARKNA":"皓生醫院","LANDMARKAD":"1000710","ADDRESS":"彰化縣員林鎮萬年路三段133號","TEL":" ","COUNTYNAME":"彰化縣","TOWNNAME":"員林鎮","MARKTYPE":"994","Class":"4"},"geometry":{"x":120.57361050622963,"y":23.959184879777045}},{"attributes":{"OBJECTID":27579,"LANDMARKID":"1000700000710","LANDMARKCO":"401","LANDMARKNA":"員榮綜合醫院","LANDMARKAD":"1000710","ADDRESS":"彰化縣員林鎮中正路201號","TEL":"04-8326161","COUNTYNAME":"彰化縣","TOWNNAME":"員林鎮","MARKTYPE":"994","Class":"4"},"geometry":{"x":120.57448396457833,"y":23.953879331539639}},{"attributes":{"OBJECTID":27580,"LANDMARKID":"1000700000711","LANDMARKCO":"401","LANDMARKNA":"員林何醫院","LANDMARKAD":"1000710","ADDRESS":"彰化縣員林鎮民族街33號","TEL":"04-8327666","COUNTYNAME":"彰化縣","TOWNNAME":"員林鎮","MARKTYPE":"994","Class":"4"},"geometry":{"x":120.57046284761054,"y":23.957142403048646}},{"attributes":{"OBJECTID":27581,"LANDMARKID":"1000700000712","LANDMARKCO":"401","LANDMARKNA":"宏仁醫院","LANDMARKAD":"1000710","ADDRESS":"彰化縣員林鎮惠來里惠來街89號","TEL":"04-8375878","COUNTYNAME":"彰化縣","TOWNNAME":"員林鎮","MARKTYPE":"994","Class":"4"},"geometry":{"x":120.57027941141807,"y":23.955263256765836}},{"attributes":{"OBJECTID":27582,"LANDMARKID":"1000700000713","LANDMARKCO":"401","LANDMARKNA":"協和醫院","LANDMARKAD":"1000710","ADDRESS":"彰化縣員林鎮惠來街98號","TEL":"04-8321047","COUNTYNAME":"彰化縣","TOWNNAME":"員林鎮","MARKTYPE":"994","Class":"4"},"geometry":{"x":120.57005247466553,"y":23.955406458972128}},{"attributes":{"OBJECTID":27583,"LANDMARKID":"1000700000714","LANDMARKCO":"401","LANDMARKNA":"員生醫院","LANDMARKAD":"1000710","ADDRESS":"彰化縣員林鎮莒光路359號","TEL":"04-8339595","COUNTYNAME":"彰化縣","TOWNNAME":"員林鎮","MARKTYPE":"994","Class":"4"},"geometry":{"x":120.56640007439727,"y":23.959257158614015}},{"attributes":{"OBJECTID":27584,"LANDMARKID":"1000700000715","LANDMARKCO":"401","LANDMARKNA":"員林郭醫院","LANDMARKAD":"1000710","ADDRESS":"彰化縣員林鎮三民街38之1號","TEL":"04-8356878","COUNTYNAME":"彰化縣","TOWNNAME":"員林鎮","MARKTYPE":"994","Class":"4"},"geometry":{"x":120.57302665340484,"y":23.958629759548145}},{"attributes":{"OBJECTID":27585,"LANDMARKID":"1000700001090","LANDMARKCO":"506","LANDMARKNA":"百果山楊桃觀光果園","LANDMARKAD":"1000710","ADDRESS":"彰化縣員林鎮湖水里湖水巷5號","TEL":"04-8311246","COUNTYNAME":"彰化縣","TOWNNAME":"員林鎮","MARKTYPE":"995","Class":"5"},"geometry":{"x":120.61236031711165,"y":23.951081170466388}},{"attributes":{"OBJECTID":27586,"LANDMARKID":"1000700001125","LANDMARKCO":"507","LANDMARKNA":"興賢書院","LANDMARKAD":"1000710","ADDRESS":"彰化縣員林鎮中正里三民街1號","TEL":" ","COUNTYNAME":"彰化縣","TOWNNAME":"員林鎮","MARKTYPE":"995","Class":"5"},"geometry":{"x":120.57478575155842,"y":23.958303273014103}},{"attributes":{"OBJECTID":27587,"LANDMARKID":"1000700001008","LANDMARKCO":"408","LANDMARKNA":"郵局-員林郵局","LANDMARKAD":"1000710","ADDRESS":"彰化縣員林鎮員東路2段488號","TEL":"(04)8324-541轉","COUNTYNAME":"彰化縣","TOWNNAME":"員林鎮","MARKTYPE":"994","Class":"4"},"geometry":{"x":120.57743402914983,"y":23.957694790671077}},{"attributes":{"OBJECTID":27588,"LANDMARKID":"1000700001009","LANDMARKCO":"408","LANDMARKNA":"郵局-員林惠來郵局","LANDMARKAD":"1000710","ADDRESS":"彰化縣員林鎮中山南路15號","TEL":"(04)8323-744","COUNTYNAME":"彰化縣","TOWNNAME":"員林鎮","MARKTYPE":"994","Class":"4"},"geometry":{"x":120.57111242367782,"y":23.955729740647193}},{"attributes":{"OBJECTID":27589,"LANDMARKID":"1000700001010","LANDMARKCO":"408","LANDMARKNA":"郵局-員林三橋郵局","LANDMARKAD":"1000710","ADDRESS":"彰化縣員林鎮育英路607號","TEL":"(04)8336-830","COUNTYNAME":"彰化縣","TOWNNAME":"員林鎮","MARKTYPE":"994","Class":"4"},"geometry":{"x":120.57348524565184,"y":23.96967358766231}},{"attributes":{"OBJECTID":27590,"LANDMARKID":"1000700001011","LANDMARKCO":"408","LANDMARKNA":"郵局-員林西門郵局","LANDMARKAD":"1000710","ADDRESS":"彰化縣員林鎮新生路85號","TEL":"(04)8353-980","COUNTYNAME":"彰化縣","TOWNNAME":"員林鎮","MARKTYPE":"994","Class":"4"},"geometry":{"x":120.56860286445296,"y":23.958301524865217}},{"attributes":{"OBJECTID":27591,"LANDMARKID":"1000700001012","LANDMARKCO":"408","LANDMARKNA":"郵局-員林南門郵局","LANDMARKAD":"1000710","ADDRESS":"彰化縣員林鎮中正路63、65號","TEL":"(04)8344-597","COUNTYNAME":"彰化縣","TOWNNAME":"員林鎮","MARKTYPE":"994","Class":"4"},"geometry":{"x":120.57563031097469,"y":23.950821816121028}},{"attributes":{"OBJECTID":27592,"LANDMARKID":"1000700001013","LANDMARKCO":"408","LANDMARKNA":"郵局-員林中正路郵局","LANDMARKAD":"1000710","ADDRESS":"彰化縣員林鎮中正路457號","TEL":"(04)8349-424","COUNTYNAME":"彰化縣","TOWNNAME":"員林鎮","MARKTYPE":"994","Class":"4"},"geometry":{"x":120.57215326672647,"y":23.958555646020791}},{"attributes":{"OBJECTID":27593,"LANDMARKID":"1000700001062","LANDMARKCO":"409","LANDMARKNA":"彰化縣員林鎮農會","LANDMARKAD":"1000710","ADDRESS":"彰化縣員林鎮中正路462號","TEL":"04-8358176","COUNTYNAME":"彰化縣","TOWNNAME":"員林鎮","MARKTYPE":"994","Class":"4"},"geometry":{"x":120.57212439379838,"y":23.959126048443856}},{"attributes":{"OBJECTID":27594,"LANDMARKID":"1000700000783","LANDMARKCO":"404","LANDMARKNA":"台灣省自來水員林營運所","LANDMARKAD":"1000710","ADDRESS":"彰化縣員林鎮靜修路74之21號","TEL":" ","COUNTYNAME":"彰化縣","TOWNNAME":"員林鎮","MARKTYPE":"994","Class":"4"},"geometry":{"x":120.56361932218609,"y":23.963214313382085}},{"attributes":{"OBJECTID":27595,"LANDMARKID":"1000700000966","LANDMARKCO":"406","LANDMARKNA":"員林公園","LANDMARKAD":"1000710","ADDRESS":"彰化縣員林鎮","TEL":" ","COUNTYNAME":"彰化縣","TOWNNAME":"員林鎮","MARKTYPE":"994","Class":"4"},"geometry":{"x":120.57489691678168,"y":23.957465375164041}},{"attributes":{"OBJECTID":27596,"LANDMARKID":"1000700000979","LANDMARKCO":"407","LANDMARKNA":"三商百貨","LANDMARKAD":"1000710","ADDRESS":"彰化縣員林鎮中正路672號","TEL":"04-8350001","COUNTYNAME":"彰化縣","TOWNNAME":"員林鎮","MARKTYPE":"994","Class":"4"},"geometry":{"x":120.5714306206346,"y":23.963241290449105}},{"attributes":{"OBJECTID":27597,"LANDMARKID":"1000700000858","LANDMARKCO":"405","LANDMARKNA":"福懋加油站-員林站(台塑)","LANDMARKAD":"1000710","ADDRESS":"彰化縣員林鎮中山路一段18號","TEL":"04-8378909","COUNTYNAME":"彰化縣","TOWNNAME":"員林鎮","MARKTYPE":"994","Class":"4"},"geometry":{"x":120.56169575347292,"y":23.942770265798138}},{"attributes":{"OBJECTID":27598,"LANDMARKID":"1000700000859","LANDMARKCO":"405","LANDMARKNA":"台塑加油站-員投站(台塑)","LANDMARKAD":"1000710","ADDRESS":"彰化縣員林鎮員水路一段551號","TEL":"04-8350848","COUNTYNAME":"彰化縣","TOWNNAME":"員林鎮","MARKTYPE":"994","Class":"4"},"geometry":{"x":120.59215788012862,"y":23.953085366643656}},{"attributes":{"OBJECTID":27599,"LANDMARKID":"1000700000860","LANDMARKCO":"405","LANDMARKNA":"台塑加油站-東區站(台塑)","LANDMARKAD":"1000710","ADDRESS":"彰化縣員林鎮員東路二段86號","TEL":"04-8313403","COUNTYNAME":"彰化縣","TOWNNAME":"員林鎮","MARKTYPE":"994","Class":"4"},"geometry":{"x":120.58557071339597,"y":23.961535795777564}},{"attributes":{"OBJECTID":27600,"LANDMARKID":"1000700000227","LANDMARKCO":"107","LANDMARKNA":"彰化縣警察局東山派出所","LANDMARKAD":"1000710","ADDRESS":"彰化縣員林鎮鎮興里山腳路四段2號","TEL":"04-8313374","COUNTYNAME":"彰化縣","TOWNNAME":"員林鎮","MARKTYPE":"991","Class":"1"},"geometry":{"x":120.60101010645187,"y":23.963157002205655}}]}