{"displayFieldName":"COUNTYNAME","fieldAliases":{"OBJECTID":"OBJECTID","LANDMARKID":"LANDMARKID","LANDMARKCO":"LANDMARKCO","LANDMARKNA":"LANDMARKNA","LANDMARKAD":"LANDMARKAD","ADDRESS":"ADDRESS","TEL":"TEL","COUNTYNAME":"COUNTYNAME","TOWNNAME":"TOWNNAME","MARKTYPE":"MARKTYPE","Class":"Class"},"geometryType":"esriGeometryPoint","spatialReference":{"wkid":102443},"fields":[{"name":"OBJECTID","type":"esriFieldTypeOID","alias":"OBJECTID"},{"name":"LANDMARKID","type":"esriFieldTypeString","alias":"LANDMARKID","length":15},{"name":"LANDMARKCO","type":"esriFieldTypeString","alias":"LANDMARKCO","length":15},{"name":"LANDMARKNA","type":"esriFieldTypeString","alias":"LANDMARKNA","length":50},{"name":"LANDMARKAD","type":"esriFieldTypeString","alias":"LANDMARKAD","length":15},{"name":"ADDRESS","type":"esriFieldTypeString","alias":"ADDRESS","length":56},{"name":"TEL","type":"esriFieldTypeString","alias":"TEL","length":36},{"name":"COUNTYNAME","type":"esriFieldTypeString","alias":"COUNTYNAME","length":15},{"name":"TOWNNAME","type":"esriFieldTypeString","alias":"TOWNNAME","length":13},{"name":"MARKTYPE","type":"esriFieldTypeString","alias":"MARKTYPE","length":12},{"name":"Class","type":"esriFieldTypeString","alias":"Class","length":5}],"features":[{"attributes":{"OBJECTID":26601,"LANDMARKID":"1001000000744","LANDMARKCO":"408","LANDMARKNA":"郵局-布袋大寮郵局","LANDMARKAD":"1001003","ADDRESS":"嘉義縣布袋鎮東港里埔仔厝86號之1","TEL":"(05)3471-860","COUNTYNAME":"嘉義縣","TOWNNAME":"布袋鎮","MARKTYPE":"994","Class":"4"},"geometry":{"x":166666.90789999999,"y":2585930.8885999992}},{"attributes":{"OBJECTID":26602,"LANDMARKID":"1001000000745","LANDMARKCO":"408","LANDMARKNA":"郵局-布袋新塭郵局","LANDMARKAD":"1001003","ADDRESS":"嘉義縣布袋鎮復興里新塭24-17號","TEL":"(05)3432-646","COUNTYNAME":"嘉義縣","TOWNNAME":"布袋鎮","MARKTYPE":"994","Class":"4"},"geometry":{"x":164306.48610000033,"y":2580474.5844000001}},{"attributes":{"OBJECTID":26603,"LANDMARKID":"1001000000746","LANDMARKCO":"408","LANDMARKNA":"郵局-布袋過溝郵局","LANDMARKAD":"1001003","ADDRESS":"嘉義縣布袋鎮中安里頂厝11號","TEL":"(05)3451-401","COUNTYNAME":"嘉義縣","TOWNNAME":"布袋鎮","MARKTYPE":"994","Class":"4"},"geometry":{"x":166420.98099999968,"y":2590688.2511}},{"attributes":{"OBJECTID":26604,"LANDMARKID":"1001000000759","LANDMARKCO":"409","LANDMARKNA":"嘉義縣布袋鎮農會","LANDMARKAD":"1001003","ADDRESS":"嘉義縣布袋鎮太平路116號","TEL":"05-3472024","COUNTYNAME":"嘉義縣","TOWNNAME":"布袋鎮","MARKTYPE":"994","Class":"4"},"geometry":{"x":164344.20309999958,"y":2586426.1331999991}},{"attributes":{"OBJECTID":26605,"LANDMARKID":"1001000000760","LANDMARKCO":"409","LANDMARKNA":"新塭辦事處","LANDMARKAD":"1001003","ADDRESS":"嘉義縣布袋鎮新民里292之1號","TEL":"05-3431304","COUNTYNAME":"嘉義縣","TOWNNAME":"布袋鎮","MARKTYPE":"994","Class":"4"},"geometry":{"x":163996.03770000022,"y":2580866.3895999994}},{"attributes":{"OBJECTID":26606,"LANDMARKID":"1001000000761","LANDMARKCO":"409","LANDMARKNA":"嘉義區漁會","LANDMARKAD":"1001003","ADDRESS":"嘉義縣布袋鎮興中里後寮路76號","TEL":"05-3472606","COUNTYNAME":"嘉義縣","TOWNNAME":"布袋鎮","MARKTYPE":"994","Class":"4"},"geometry":{"x":164005.57390000019,"y":2586604.2809999995}},{"attributes":{"OBJECTID":26607,"LANDMARKID":"1001000000762","LANDMARKCO":"409","LANDMARKNA":"布袋魚市場","LANDMARKAD":"1001003","ADDRESS":"嘉義縣布袋鎮岑海里中山路3號","TEL":"05-3472038","COUNTYNAME":"嘉義縣","TOWNNAME":"布袋鎮","MARKTYPE":"994","Class":"4"},"geometry":{"x":163664.11679999996,"y":2586575.6095000003}},{"attributes":{"OBJECTID":26608,"LANDMARKID":"1001000000763","LANDMARKCO":"409","LANDMARKNA":"布袋直銷中心","LANDMARKAD":"1001003","ADDRESS":"嘉義縣布袋鎮岑海里中山路3號","TEL":"05-3474136","COUNTYNAME":"嘉義縣","TOWNNAME":"布袋鎮","MARKTYPE":"994","Class":"4"},"geometry":{"x":163664.11679999996,"y":2586575.6095000003}},{"attributes":{"OBJECTID":26609,"LANDMARKID":"1001000000682","LANDMARKCO":"405","LANDMARKNA":"全國加油站-清安站（台塑）","LANDMARKAD":"1001003","ADDRESS":"嘉義縣布袋鎮太平東路186號","TEL":"05-3477927","COUNTYNAME":"嘉義縣","TOWNNAME":"布袋鎮","MARKTYPE":"994","Class":"4"},"geometry":{"x":165624.82579999976,"y":2586001.6583999991}},{"attributes":{"OBJECTID":26610,"LANDMARKID":"1001000000207","LANDMARKCO":"108","LANDMARKNA":"嘉義縣布袋鎮公所","LANDMARKAD":"1001003","ADDRESS":"嘉義縣布袋鎮自由路2號","TEL":"05-3475979","COUNTYNAME":"嘉義縣","TOWNNAME":"布袋鎮","MARKTYPE":"991","Class":"1"},"geometry":{"x":164842.85680000018,"y":2586412.1291000005}},{"attributes":{"OBJECTID":26611,"LANDMARKID":"1001000000177","LANDMARKCO":"107","LANDMARKNA":"嘉義縣警察局布袋分局","LANDMARKAD":"1001003","ADDRESS":"嘉義縣布袋鎮光復里自由路1號","TEL":"05-3472574","COUNTYNAME":"嘉義縣","TOWNNAME":"布袋鎮","MARKTYPE":"991","Class":"1"},"geometry":{"x":164787.65130000003,"y":2586425.9528999999}},{"attributes":{"OBJECTID":26612,"LANDMARKID":"1001000000178","LANDMARKCO":"107","LANDMARKNA":"嘉義縣警察局布袋派出所","LANDMARKAD":"1001003","ADDRESS":"嘉義縣布袋鎮岑海里中山路206號","TEL":"05-3472047","COUNTYNAME":"嘉義縣","TOWNNAME":"布袋鎮","MARKTYPE":"991","Class":"1"},"geometry":{"x":163358.44269999955,"y":2586612.5458000004}},{"attributes":{"OBJECTID":26613,"LANDMARKID":"1001000000079","LANDMARKCO":"106","LANDMARKNA":"嘉義縣布袋鎮戶政事務所","LANDMARKAD":"1001003","ADDRESS":"嘉義縣布袋鎮光復里自由路3號","TEL":"05-3472501","COUNTYNAME":"嘉義縣","TOWNNAME":"布袋鎮","MARKTYPE":"991","Class":"1"},"geometry":{"x":164794.80759999994,"y":2586445.8872999996}},{"attributes":{"OBJECTID":26614,"LANDMARKID":"1001000000026","LANDMARKCO":"103","LANDMARKNA":"嘉義縣布袋鎮鎮民代表會","LANDMARKAD":"1001003","ADDRESS":"嘉義縣布袋鎮自由路6號","TEL":"05-3472065","COUNTYNAME":"嘉義縣","TOWNNAME":"布袋鎮","MARKTYPE":"991","Class":"1"},"geometry":{"x":164848.99069999997,"y":2586426.5262000002}},{"attributes":{"OBJECTID":26615,"LANDMARKID":"1001000000017","LANDMARKCO":"101","LANDMARKNA":"公路總局西部濱海公路南區工程處","LANDMARKAD":"1001003","ADDRESS":"嘉義縣布袋鎮博愛一街27號","TEL":"05-3472676","COUNTYNAME":"嘉義縣","TOWNNAME":"布袋鎮","MARKTYPE":"991","Class":"1"},"geometry":{"x":164939.97730000038,"y":2586536.1649999991}},{"attributes":{"OBJECTID":26616,"LANDMARKID":"1001000000022","LANDMARKCO":"103","LANDMARKNA":"嘉義縣布袋鎮衛生所","LANDMARKAD":"1001003","ADDRESS":"嘉義縣布袋鎮新厝里21號","TEL":"05-3472011","COUNTYNAME":"嘉義縣","TOWNNAME":"布袋鎮","MARKTYPE":"991","Class":"1"},"geometry":{"x":165112.70260000043,"y":2586720.1017000005}},{"attributes":{"OBJECTID":26617,"LANDMARKID":"1001000000173","LANDMARKCO":"107","LANDMARKNA":"嘉義縣警察局新塭派出所","LANDMARKAD":"1001003","ADDRESS":"嘉義縣布袋鎮新民里293號","TEL":"05-3431154","COUNTYNAME":"嘉義縣","TOWNNAME":"布袋鎮","MARKTYPE":"991","Class":"1"},"geometry":{"x":164033.82220000029,"y":2580860.6319999993}},{"attributes":{"OBJECTID":26618,"LANDMARKID":"1001000000174","LANDMARKCO":"107","LANDMARKNA":"嘉義縣警察局景山派出所","LANDMARKAD":"1001003","ADDRESS":"嘉義縣布袋鎮東港里埔仔庴34號","TEL":"05-3472607","COUNTYNAME":"嘉義縣","TOWNNAME":"布袋鎮","MARKTYPE":"991","Class":"1"},"geometry":{"x":166955.40880000032,"y":2585840.9109000005}},{"attributes":{"OBJECTID":26619,"LANDMARKID":"1001000000175","LANDMARKCO":"107","LANDMARKNA":"嘉義縣警察局過溝派出所","LANDMARKAD":"1001003","ADDRESS":"嘉義縣布袋鎮中安里110號","TEL":"05-3451064","COUNTYNAME":"嘉義縣","TOWNNAME":"布袋鎮","MARKTYPE":"991","Class":"1"},"geometry":{"x":165980.17320000008,"y":2590500.0695999991}},{"attributes":{"OBJECTID":26620,"LANDMARKID":"1001000000176","LANDMARKCO":"107","LANDMARKNA":"嘉義縣消防局布袋消防分隊","LANDMARKAD":"1001003","ADDRESS":"嘉義縣布袋鎮龍江里2號之2","TEL":"05-3472074","COUNTYNAME":"嘉義縣","TOWNNAME":"布袋鎮","MARKTYPE":"991","Class":"1"},"geometry":{"x":164855.91629999969,"y":2586550.2690999992}},{"attributes":{"OBJECTID":26621,"LANDMARKID":"1001000000023","LANDMARKCO":"103","LANDMARKNA":"嘉義縣政府新塭林務所","LANDMARKAD":"1001003","ADDRESS":"嘉義縣布袋鎮好美里150號之1","TEL":"05-3431410","COUNTYNAME":"嘉義縣","TOWNNAME":"布袋鎮","MARKTYPE":"991","Class":"1"},"geometry":{"x":161366.97420000006,"y":2582081.6524999999}},{"attributes":{"OBJECTID":26622,"LANDMARKID":"1001000000445","LANDMARKCO":"204","LANDMARKNA":"嘉義縣立圖書館布袋分館","LANDMARKAD":"1001003","ADDRESS":"嘉義縣布袋鎮光復里東安庄64號","TEL":" ","COUNTYNAME":"嘉義縣","TOWNNAME":"布袋鎮","MARKTYPE":"992","Class":"2"},"geometry":{"x":165103.66579999961,"y":2586229.5851000007}},{"attributes":{"OBJECTID":26623,"LANDMARKID":"1001000000416","LANDMARKCO":"203","LANDMARKNA":"縣立布袋國中","LANDMARKAD":"1001003","ADDRESS":"嘉義縣布袋鎮光復里六棟寮40號","TEL":"05-3472044","COUNTYNAME":"嘉義縣","TOWNNAME":"布袋鎮","MARKTYPE":"992","Class":"2"},"geometry":{"x":166247.58179999981,"y":2584336.3757000007}},{"attributes":{"OBJECTID":26624,"LANDMARKID":"1001000000417","LANDMARKCO":"203","LANDMARKNA":"縣立布新國小","LANDMARKAD":"1001003","ADDRESS":"嘉義縣布袋鎮岑海里文昌街61號","TEL":"05-3476886","COUNTYNAME":"嘉義縣","TOWNNAME":"布袋鎮","MARKTYPE":"992","Class":"2"},"geometry":{"x":163325.72829999961,"y":2586499.5842000004}},{"attributes":{"OBJECTID":26625,"LANDMARKID":"1001000000418","LANDMARKCO":"203","LANDMARKNA":"縣立貴林國小下庄分班","LANDMARKAD":"1001003","ADDRESS":"嘉義縣布袋鎮樹林里下庄仔46號","TEL":"05-3452587","COUNTYNAME":"嘉義縣","TOWNNAME":"布袋鎮","MARKTYPE":"992","Class":"2"},"geometry":{"x":171591.58050000016,"y":2590762.5033}},{"attributes":{"OBJECTID":26626,"LANDMARKID":"1001000000419","LANDMARKCO":"203","LANDMARKNA":"縣立好美國小","LANDMARKAD":"1001003","ADDRESS":"嘉義縣布袋鎮好美里106號","TEL":"05-3431524","COUNTYNAME":"嘉義縣","TOWNNAME":"布袋鎮","MARKTYPE":"992","Class":"2"},"geometry":{"x":161836.55439999979,"y":2581841.0657000002}},{"attributes":{"OBJECTID":26627,"LANDMARKID":"1001000000420","LANDMARKCO":"203","LANDMARKNA":"縣立永安國小","LANDMARKAD":"1001003","ADDRESS":"嘉義縣布袋鎮永安里126之2號","TEL":"05-3472654","COUNTYNAME":"嘉義縣","TOWNNAME":"布袋鎮","MARKTYPE":"992","Class":"2"},"geometry":{"x":166323.81469999999,"y":2585640.5665000007}},{"attributes":{"OBJECTID":26628,"LANDMARKID":"1001000000421","LANDMARKCO":"203","LANDMARKNA":"縣立景山國小","LANDMARKAD":"1001003","ADDRESS":"嘉義縣布袋鎮東港里136號","TEL":"05-3472734","COUNTYNAME":"嘉義縣","TOWNNAME":"布袋鎮","MARKTYPE":"992","Class":"2"},"geometry":{"x":167488.51730000041,"y":2586920.6812999994}},{"attributes":{"OBJECTID":26629,"LANDMARKID":"1001000000422","LANDMARKCO":"203","LANDMARKNA":"縣立新塭國小","LANDMARKAD":"1001003","ADDRESS":"嘉義縣布袋鎮新民里374號","TEL":"05-3431064","COUNTYNAME":"嘉義縣","TOWNNAME":"布袋鎮","MARKTYPE":"992","Class":"2"},"geometry":{"x":164112.25229999982,"y":2581131.0876000002}},{"attributes":{"OBJECTID":26630,"LANDMARKID":"1001000000423","LANDMARKCO":"203","LANDMARKNA":"縣立新岑國小","LANDMARKAD":"1001003","ADDRESS":"嘉義縣布袋鎮新岑里4號","TEL":"05-3431525","COUNTYNAME":"嘉義縣","TOWNNAME":"布袋鎮","MARKTYPE":"992","Class":"2"},"geometry":{"x":165584.1930999998,"y":2582501.3142000008}},{"attributes":{"OBJECTID":26631,"LANDMARKID":"1001000000424","LANDMARKCO":"203","LANDMARKNA":"縣立布袋國小","LANDMARKAD":"1001003","ADDRESS":"嘉義縣布袋鎮新厝里65號","TEL":"05-3472007","COUNTYNAME":"嘉義縣","TOWNNAME":"布袋鎮","MARKTYPE":"992","Class":"2"},"geometry":{"x":165369.17889999971,"y":2586811.5746999998}},{"attributes":{"OBJECTID":26632,"LANDMARKID":"1001000000425","LANDMARKCO":"203","LANDMARKNA":"縣立貴林國小","LANDMARKAD":"1001003","ADDRESS":"嘉義縣布袋鎮樹林里82號","TEL":"05-3451641","COUNTYNAME":"嘉義縣","TOWNNAME":"布袋鎮","MARKTYPE":"992","Class":"2"},"geometry":{"x":169699.88839999959,"y":2590970.2068000007}},{"attributes":{"OBJECTID":26633,"LANDMARKID":"1001000000426","LANDMARKCO":"203","LANDMARKNA":"縣立過溝國小","LANDMARKAD":"1001003","ADDRESS":"嘉義縣布袋鎮中安里頂厝1號","TEL":"05-3451010","COUNTYNAME":"嘉義縣","TOWNNAME":"布袋鎮","MARKTYPE":"992","Class":"2"},"geometry":{"x":166579.75569999963,"y":2591010.2294999994}},{"attributes":{"OBJECTID":26634,"LANDMARKID":"1001000000427","LANDMARKCO":"203","LANDMARKNA":"縣立景山國小振寮分校","LANDMARKAD":"1001003","ADDRESS":"嘉義縣布袋鎮振寮里194號","TEL":"05-3471194","COUNTYNAME":"嘉義縣","TOWNNAME":"布袋鎮","MARKTYPE":"992","Class":"2"},"geometry":{"x":166373.90930000041,"y":2587600.7816000003}},{"attributes":{"OBJECTID":26635,"LANDMARKID":"1001000000428","LANDMARKCO":"203","LANDMARKNA":"縣立正義國小","LANDMARKAD":"1001003","ADDRESS":"嘉義縣布袋鎮","TEL":" ","COUNTYNAME":"嘉義縣","TOWNNAME":"布袋鎮","MARKTYPE":"992","Class":"2"},"geometry":{"x":169926.53490000032,"y":2587651.5388999991}},{"attributes":{"OBJECTID":26636,"LANDMARKID":"1001000000524","LANDMARKCO":"305","LANDMARKNA":"布袋港","LANDMARKAD":"1001003","ADDRESS":"嘉義縣布袋鎮","TEL":" ","COUNTYNAME":"嘉義縣","TOWNNAME":"布袋鎮","MARKTYPE":"993","Class":"305"},"geometry":{"x":163951.78309999965,"y":2586950.6538999993}},{"attributes":{"OBJECTID":26637,"LANDMARKID":"1001000000543","LANDMARKCO":"308","LANDMARKNA":"台61-布袋交流道布袋連絡道-南下","LANDMARKAD":"1001003","ADDRESS":" ","TEL":" ","COUNTYNAME":"嘉義縣","TOWNNAME":"布袋鎮","MARKTYPE":"993","Class":"308"},"geometry":{"x":163616.63109999988,"y":2585560.9365999997}},{"attributes":{"OBJECTID":26638,"LANDMARKID":"1001000000544","LANDMARKCO":"308","LANDMARKNA":"台61-布袋交流道北側匝道-北上","LANDMARKAD":"1001003","ADDRESS":" ","TEL":" ","COUNTYNAME":"嘉義縣","TOWNNAME":"布袋鎮","MARKTYPE":"993","Class":"308"},"geometry":{"x":164934.20909999963,"y":2588158.8456999995}},{"attributes":{"OBJECTID":26639,"LANDMARKID":"1001000000592","LANDMARKCO":"402","LANDMARKNA":"中華電信-布袋服務中心","LANDMARKAD":"1001003","ADDRESS":"嘉義縣布袋鎮自由路8號","TEL":"(05)347-2169","COUNTYNAME":"嘉義縣","TOWNNAME":"布袋鎮","MARKTYPE":"994","Class":"4"},"geometry":{"x":164842.50509999972,"y":2586448.1917000003}},{"attributes":{"OBJECTID":26640,"LANDMARKID":"1001000000593","LANDMARKCO":"402","LANDMARKNA":"中華電信-過溝服務中心","LANDMARKAD":"1001003","ADDRESS":"嘉義縣布袋鎮中安里過溝頂厝11-1號","TEL":"(05)345-1044","COUNTYNAME":"嘉義縣","TOWNNAME":"布袋鎮","MARKTYPE":"994","Class":"4"},"geometry":{"x":166426.60989999957,"y":2591058.5877999999}},{"attributes":{"OBJECTID":26641,"LANDMARKID":"1001000000594","LANDMARKCO":"402","LANDMARKNA":"中華電信-新塭服務中心","LANDMARKAD":"1001003","ADDRESS":"嘉義縣布袋鎮復興里24-17號","TEL":"(05)343-1044","COUNTYNAME":"嘉義縣","TOWNNAME":"布袋鎮","MARKTYPE":"994","Class":"4"},"geometry":{"x":164304.60489999969,"y":2580472.6997999996}},{"attributes":{"OBJECTID":26642,"LANDMARKID":"1001000000839","LANDMARKCO":"603","LANDMARKNA":"龍園旅館","LANDMARKAD":"1001003","ADDRESS":"嘉義縣布袋鎮東港里埔仔厝205號","TEL":"05-3474618","COUNTYNAME":"嘉義縣","TOWNNAME":"布袋鎮","MARKTYPE":"996","Class":"6"},"geometry":{"x":167206.40670000017,"y":2585710.7324999999}},{"attributes":{"OBJECTID":26643,"LANDMARKID":"1001000000840","LANDMARKCO":"603","LANDMARKNA":"海王星旅社","LANDMARKAD":"1001003","ADDRESS":"嘉義縣布袋鎮興中里太平路120號2樓","TEL":"05-3472107","COUNTYNAME":"嘉義縣","TOWNNAME":"布袋鎮","MARKTYPE":"996","Class":"6"},"geometry":{"x":164323.65299999993,"y":2586425.4780999999}},{"attributes":{"OBJECTID":26644,"LANDMARKID":"1001000000917","LANDMARKCO":"604","LANDMARKNA":"布袋港民宿","LANDMARKAD":"1001003","ADDRESS":"嘉義縣布袋鎮新厝里新厝仔341-8號","TEL":"05-3472802","COUNTYNAME":"嘉義縣","TOWNNAME":"布袋鎮","MARKTYPE":"996","Class":"6"},"geometry":{"x":165398.0477,"y":2587448.0890999995}},{"attributes":{"OBJECTID":26645,"LANDMARKID":"1001000000783","LANDMARKCO":"503","LANDMARKNA":"布袋觀光海運港碼頭","LANDMARKAD":"1001003","ADDRESS":" ","TEL":" ","COUNTYNAME":"嘉義縣","TOWNNAME":"布袋鎮","MARKTYPE":"995","Class":"5"},"geometry":{"x":162907.62079999968,"y":2586585.0369000006}},{"attributes":{"OBJECTID":26646,"LANDMARKID":"1001000000678","LANDMARKCO":"405","LANDMARKNA":"台灣優力加油站-溪洲站(中油)","LANDMARKAD":"1001010","ADDRESS":"嘉義縣義竹鄉溪洲村溪洲農場5號","TEL":"05-3420471","COUNTYNAME":"嘉義縣","TOWNNAME":"義竹鄉","MARKTYPE":"994","Class":"4"},"geometry":{"x":172837.57459999993,"y":2588638.2323000003}},{"attributes":{"OBJECTID":26647,"LANDMARKID":"1001000000679","LANDMARKCO":"405","LANDMARKNA":"中油加油站-義竹站","LANDMARKAD":"1001010","ADDRESS":"嘉義縣義竹鄉義竹村118號之6","TEL":"05-3412054","COUNTYNAME":"嘉義縣","TOWNNAME":"義竹鄉","MARKTYPE":"994","Class":"4"},"geometry":{"x":173232.1640999997,"y":2582039.4024}},{"attributes":{"OBJECTID":26648,"LANDMARKID":"1001000000742","LANDMARKCO":"408","LANDMARKNA":"郵局-義竹郵局","LANDMARKAD":"1001010","ADDRESS":"嘉義縣義竹鄉仁里村422-2號","TEL":"(05)3412-049","COUNTYNAME":"嘉義縣","TOWNNAME":"義竹鄉","MARKTYPE":"994","Class":"4"},"geometry":{"x":172639.73759999964,"y":2581678.6402000003}},{"attributes":{"OBJECTID":26649,"LANDMARKID":"1001000000764","LANDMARKCO":"409","LANDMARKNA":"嘉義縣義竹鄉農會","LANDMARKAD":"1001010","ADDRESS":"嘉義縣義竹鄉仁里村421號","TEL":"05-3411301~5","COUNTYNAME":"嘉義縣","TOWNNAME":"義竹鄉","MARKTYPE":"994","Class":"4"},"geometry":{"x":172614.69840000011,"y":2581739.2124000005}},{"attributes":{"OBJECTID":26650,"LANDMARKID":"1001000000596","LANDMARKCO":"404","LANDMARKNA":"台灣省自來水義竹營運所","LANDMARKAD":"1001010","ADDRESS":"嘉義縣義竹鄉傳芳村475之2號","TEL":" ","COUNTYNAME":"嘉義縣","TOWNNAME":"義竹鄉","MARKTYPE":"994","Class":"4"},"geometry":{"x":172506.58509999979,"y":2582204.2035000008}},{"attributes":{"OBJECTID":26651,"LANDMARKID":"1001000000019","LANDMARKCO":"103","LANDMARKNA":"嘉義縣義竹鄉衛生所","LANDMARKAD":"1001010","ADDRESS":"嘉義縣義竹鄉仁里村11鄰422-1號","TEL":"05-3412032","COUNTYNAME":"嘉義縣","TOWNNAME":"義竹鄉","MARKTYPE":"991","Class":"1"},"geometry":{"x":172592.45069999993,"y":2581810.7340999991}},{"attributes":{"OBJECTID":26652,"LANDMARKID":"1001000000209","LANDMARKCO":"108","LANDMARKNA":"嘉義縣義竹鄉公所","LANDMARKAD":"1001010","ADDRESS":"嘉義縣義竹鄉仁里村389號","TEL":"05-3413512~4","COUNTYNAME":"嘉義縣","TOWNNAME":"義竹鄉","MARKTYPE":"991","Class":"1"},"geometry":{"x":172623.8685999997,"y":2581730.8984999992}},{"attributes":{"OBJECTID":26653,"LANDMARKID":"1001000000024","LANDMARKCO":"103","LANDMARKNA":"嘉義縣義竹鄉民代表會","LANDMARKAD":"1001010","ADDRESS":"嘉義縣義竹鄉仁里村389號","TEL":"05-3412040","COUNTYNAME":"嘉義縣","TOWNNAME":"義竹鄉","MARKTYPE":"991","Class":"1"},"geometry":{"x":172612.46870000008,"y":2581690.8473000005}},{"attributes":{"OBJECTID":26654,"LANDMARKID":"1001000000168","LANDMARKCO":"107","LANDMARKNA":"嘉義縣警察局新店派出所","LANDMARKAD":"1001010","ADDRESS":"嘉義縣義竹鄉新店村3號","TEL":"05-3426104","COUNTYNAME":"嘉義縣","TOWNNAME":"義竹鄉","MARKTYPE":"991","Class":"1"},"geometry":{"x":167957.22360000014,"y":2581870.2767999992}},{"attributes":{"OBJECTID":26655,"LANDMARKID":"1001000000169","LANDMARKCO":"107","LANDMARKNA":"嘉義縣警察局過路派出所","LANDMARKAD":"1001010","ADDRESS":"嘉義縣義竹鄉西過村301號","TEL":"05-3436575","COUNTYNAME":"嘉義縣","TOWNNAME":"義竹鄉","MARKTYPE":"991","Class":"1"},"geometry":{"x":168847.54009999987,"y":2578300.5935999993}},{"attributes":{"OBJECTID":26656,"LANDMARKID":"1001000000170","LANDMARKCO":"107","LANDMARKNA":"嘉義縣警察局光榮派出所","LANDMARKAD":"1001010","ADDRESS":"嘉義縣義竹鄉東光村7號","TEL":"05-3421223","COUNTYNAME":"嘉義縣","TOWNNAME":"義竹鄉","MARKTYPE":"991","Class":"1"},"geometry":{"x":173017.69460000005,"y":2586261.352}},{"attributes":{"OBJECTID":26657,"LANDMARKID":"1001000000171","LANDMARKCO":"107","LANDMARKNA":"嘉義縣警察局義竹分駐所","LANDMARKAD":"1001010","ADDRESS":"嘉義縣義竹鄉仁里村五鄰義竹路359號之5","TEL":"05-3412009","COUNTYNAME":"嘉義縣","TOWNNAME":"義竹鄉","MARKTYPE":"991","Class":"1"},"geometry":{"x":172560.66079999972,"y":2581770.5677000005}},{"attributes":{"OBJECTID":26658,"LANDMARKID":"1001000000172","LANDMARKCO":"107","LANDMARKNA":"嘉義縣消防局義竹消防分隊","LANDMARKAD":"1001010","ADDRESS":"嘉義縣義竹鄉仁里村435號之3","TEL":"05-3412044","COUNTYNAME":"嘉義縣","TOWNNAME":"義竹鄉","MARKTYPE":"991","Class":"1"},"geometry":{"x":172562.87009999994,"y":2581730.5792999994}},{"attributes":{"OBJECTID":26659,"LANDMARKID":"1001000000081","LANDMARKCO":"106","LANDMARKNA":"嘉義縣義竹鄉戶政事務所","LANDMARKAD":"1001010","ADDRESS":"嘉義縣義竹鄉仁里村389之2號","TEL":"05-3412274","COUNTYNAME":"嘉義縣","TOWNNAME":"義竹鄉","MARKTYPE":"991","Class":"1"},"geometry":{"x":172578.50329999998,"y":2581800.6611000001}},{"attributes":{"OBJECTID":26660,"LANDMARKID":"1001000000018","LANDMARKCO":"101","LANDMARKNA":"農業委員會台南區農業改良場","LANDMARKAD":"1001010","ADDRESS":"嘉義縣義竹鄉中平村84號","TEL":"05-3412416","COUNTYNAME":"嘉義縣","TOWNNAME":"義竹鄉","MARKTYPE":"991","Class":"1"},"geometry":{"x":176239.88740000036,"y":2584170.4123999998}},{"attributes":{"OBJECTID":26661,"LANDMARKID":"1001000000446","LANDMARKCO":"204","LANDMARKNA":"嘉義縣立圖書館義竹分館","LANDMARKAD":"1001010","ADDRESS":"嘉義縣義竹鄉六桂村238號","TEL":" ","COUNTYNAME":"嘉義縣","TOWNNAME":"義竹鄉","MARKTYPE":"992","Class":"2"},"geometry":{"x":172618.5569000002,"y":2581671.9867000002}},{"attributes":{"OBJECTID":26662,"LANDMARKID":"1001000000403","LANDMARKCO":"203","LANDMARKNA":"縣立義竹國中","LANDMARKAD":"1001010","ADDRESS":"嘉義縣義竹鄉岸腳村59之2號","TEL":"05-3412025","COUNTYNAME":"嘉義縣","TOWNNAME":"義竹鄉","MARKTYPE":"992","Class":"2"},"geometry":{"x":173321.72269999981,"y":2582370.0728999991}},{"attributes":{"OBJECTID":26663,"LANDMARKID":"1001000000404","LANDMARKCO":"203","LANDMARKNA":"縣立東華國小","LANDMARKAD":"1001010","ADDRESS":"嘉義縣義竹鄉平溪村1號","TEL":"05-3426194","COUNTYNAME":"嘉義縣","TOWNNAME":"義竹鄉","MARKTYPE":"992","Class":"2"},"geometry":{"x":170236.24969999958,"y":2584010.2419000007}},{"attributes":{"OBJECTID":26664,"LANDMARKID":"1001000000405","LANDMARKCO":"203","LANDMARKNA":"縣立義竹國小","LANDMARKAD":"1001010","ADDRESS":"嘉義縣義竹鄉六桂村208號","TEL":"05-3417623","COUNTYNAME":"嘉義縣","TOWNNAME":"義竹鄉","MARKTYPE":"992","Class":"2"},"geometry":{"x":172852.62339999992,"y":2581660.6152999997}},{"attributes":{"OBJECTID":26665,"LANDMARKID":"1001000000406","LANDMARKCO":"203","LANDMARKNA":"縣立過路國小","LANDMARKAD":"1001010","ADDRESS":"嘉義縣義竹鄉西過村279號","TEL":"05-3437884","COUNTYNAME":"嘉義縣","TOWNNAME":"義竹鄉","MARKTYPE":"992","Class":"2"},"geometry":{"x":168988.18159999978,"y":2578491.3542999998}},{"attributes":{"OBJECTID":26666,"LANDMARKID":"1001000000407","LANDMARKCO":"203","LANDMARKNA":"縣立和順國小","LANDMARKAD":"1001010","ADDRESS":"嘉義縣義竹鄉官順村356號","TEL":"05-3436121","COUNTYNAME":"嘉義縣","TOWNNAME":"義竹鄉","MARKTYPE":"992","Class":"2"},"geometry":{"x":166315.12559999991,"y":2578510.7424999997}},{"attributes":{"OBJECTID":26667,"LANDMARKID":"1001000000408","LANDMARKCO":"203","LANDMARKNA":"縣立光榮國小","LANDMARKAD":"1001010","ADDRESS":"嘉義縣義竹鄉東光村64號","TEL":"05-3412004","COUNTYNAME":"嘉義縣","TOWNNAME":"義竹鄉","MARKTYPE":"992","Class":"2"},"geometry":{"x":173032.2034,"y":2586471.4193999991}},{"attributes":{"OBJECTID":26668,"LANDMARKID":"1001000000409","LANDMARKCO":"203","LANDMARKNA":"縣立南興國小","LANDMARKAD":"1001010","ADDRESS":"嘉義縣義竹鄉新店村77號","TEL":"05-3427394","COUNTYNAME":"嘉義縣","TOWNNAME":"義竹鄉","MARKTYPE":"992","Class":"2"},"geometry":{"x":167457.83019999973,"y":2582250.6528999992}},{"attributes":{"OBJECTID":26669,"LANDMARKID":"1001000000410","LANDMARKCO":"203","LANDMARKNA":"縣立信義國小","LANDMARKAD":"1001010","ADDRESS":"嘉義縣義竹鄉五厝村91號","TEL":"05-3412194","COUNTYNAME":"嘉義縣","TOWNNAME":"義竹鄉","MARKTYPE":"992","Class":"2"},"geometry":{"x":175683.81190000009,"y":2583880.4833000004}},{"attributes":{"OBJECTID":26670,"LANDMARKID":"1001000000411","LANDMARKCO":"203","LANDMARKNA":"縣立過路國小新富分校","LANDMARKAD":"1001010","ADDRESS":"嘉義縣義竹鄉新富村78號","TEL":"05-3411884","COUNTYNAME":"嘉義縣","TOWNNAME":"義竹鄉","MARKTYPE":"992","Class":"2"},"geometry":{"x":170527.88640000019,"y":2579770.4058999997}},{"attributes":{"OBJECTID":26671,"LANDMARKID":"1001000000412","LANDMARKCO":"203","LANDMARKNA":"縣立義竹國小埤前分校","LANDMARKAD":"1001010","ADDRESS":"嘉義縣義竹鄉埤前村86號","TEL":"05-3417003","COUNTYNAME":"嘉義縣","TOWNNAME":"義竹鄉","MARKTYPE":"992","Class":"2"},"geometry":{"x":170530.43510000035,"y":2582930.3311000001}},{"attributes":{"OBJECTID":26672,"LANDMARKID":"1001000000413","LANDMARKCO":"203","LANDMARKNA":"縣立光榮國小龍蛟分校","LANDMARKAD":"1001010","ADDRESS":"嘉義縣義竹鄉龍蛟村1號","TEL":"05-3420184","COUNTYNAME":"嘉義縣","TOWNNAME":"義竹鄉","MARKTYPE":"992","Class":"2"},"geometry":{"x":170925.64969999995,"y":2585350.8552999999}},{"attributes":{"OBJECTID":26673,"LANDMARKID":"1001000000414","LANDMARKCO":"203","LANDMARKNA":"縣立光榮國小溪洲分班","LANDMARKAD":"1001010","ADDRESS":"嘉義縣義竹鄉溪洲村145號","TEL":"05-3420122","COUNTYNAME":"嘉義縣","TOWNNAME":"義竹鄉","MARKTYPE":"992","Class":"2"},"geometry":{"x":172668.93730000034,"y":2588060.9675999992}},{"attributes":{"OBJECTID":26674,"LANDMARKID":"1001000000415","LANDMARKCO":"203","LANDMARKNA":"縣立義竹國小頭竹分校","LANDMARKAD":"1001010","ADDRESS":"嘉義縣義竹鄉頭竹村110號","TEL":"05-3416573","COUNTYNAME":"嘉義縣","TOWNNAME":"義竹鄉","MARKTYPE":"992","Class":"2"},"geometry":{"x":171496.08700000029,"y":2580960.9824000001}},{"attributes":{"OBJECTID":26675,"LANDMARKID":"1001000000488","LANDMARKCO":"302","LANDMARKNA":"新營汽車客運義竹站","LANDMARKAD":"1001010","ADDRESS":"嘉義縣義竹鄉","TEL":" ","COUNTYNAME":"嘉義縣","TOWNNAME":"義竹鄉","MARKTYPE":"993","Class":"302"},"geometry":{"x":172709.9299999997,"y":2581868.8692000005}},{"attributes":{"OBJECTID":26676,"LANDMARKID":"1001000000595","LANDMARKCO":"402","LANDMARKNA":"中華電信-義竹服務中心","LANDMARKAD":"1001010","ADDRESS":"嘉義縣義竹鄉岸腳村59-23號","TEL":"(05)341-2426","COUNTYNAME":"嘉義縣","TOWNNAME":"義竹鄉","MARKTYPE":"994","Class":"4"},"geometry":{"x":173504.19510000013,"y":2582301.3413999993}},{"attributes":{"OBJECTID":26677,"LANDMARKID":"1001000000680","LANDMARKCO":"405","LANDMARKNA":"中油加油站-大埔站(中油直營)","LANDMARKAD":"1001017","ADDRESS":"嘉義縣大埔鄉和平村雙溪路14-3號","TEL":"05-2521484","COUNTYNAME":"嘉義縣","TOWNNAME":"大埔鄉","MARKTYPE":"994","Class":"4"},"geometry":{"x":209229.70079999976,"y":2578342.1722999997}},{"attributes":{"OBJECTID":26678,"LANDMARKID":"1001000000830","LANDMARKCO":"513","LANDMARKNA":"曾文水庫","LANDMARKAD":"1001017","ADDRESS":"嘉義縣大埔鄉","TEL":" ","COUNTYNAME":"嘉義縣","TOWNNAME":"大埔鄉","MARKTYPE":"995","Class":"5"},"geometry":{"x":202613.7675999999,"y":2572095.2551000006}},{"attributes":{"OBJECTID":26679,"LANDMARKID":"1001000000805","LANDMARKCO":"506","LANDMARKNA":"三腳石觀光果園","LANDMARKAD":"1001017","ADDRESS":"嘉義縣大埔鄉近曾文水庫","TEL":"05-2521410","COUNTYNAME":"嘉義縣","TOWNNAME":"大埔鄉","MARKTYPE":"995","Class":"5"},"geometry":{"x":206984.03039999958,"y":2584364.6382999998}},{"attributes":{"OBJECTID":26680,"LANDMARKID":"1001000000806","LANDMARKCO":"506","LANDMARKNA":"嘉義農場","LANDMARKAD":"1001017","ADDRESS":"嘉義縣大埔鄉西興村4鄰3號","TEL":"05-2521054","COUNTYNAME":"嘉義縣","TOWNNAME":"大埔鄉","MARKTYPE":"995","Class":"5"},"geometry":{"x":205217.13609999977,"y":2571960.8084999993}},{"attributes":{"OBJECTID":26681,"LANDMARKID":"1001000000807","LANDMARKCO":"506","LANDMARKNA":"跳跳休閒農場","LANDMARKAD":"1001017","ADDRESS":"嘉義縣大埔鄉西興村菜瓜坪1號","TEL":"05-2521529","COUNTYNAME":"嘉義縣","TOWNNAME":"大埔鄉","MARKTYPE":"995","Class":"5"},"geometry":{"x":206247.82749999966,"y":2571117.4518999998}},{"attributes":{"OBJECTID":26682,"LANDMARKID":"1001000000741","LANDMARKCO":"408","LANDMARKNA":"郵局-大埔郵局","LANDMARKAD":"1001017","ADDRESS":"嘉義縣大埔鄉大埔村262號之1","TEL":"(05)2521-224","COUNTYNAME":"嘉義縣","TOWNNAME":"大埔鄉","MARKTYPE":"994","Class":"4"},"geometry":{"x":208430.23379999958,"y":2577485.3280999996}},{"attributes":{"OBJECTID":26683,"LANDMARKID":"1001000000705","LANDMARKCO":"406","LANDMARKNA":"湖濱公園","LANDMARKAD":"1001017","ADDRESS":"嘉義縣大埔鄉","TEL":" ","COUNTYNAME":"嘉義縣","TOWNNAME":"大埔鄉","MARKTYPE":"994","Class":"4"},"geometry":{"x":207488.09310000017,"y":2577437.6857999992}},{"attributes":{"OBJECTID":26684,"LANDMARKID":"1001000000020","LANDMARKCO":"103","LANDMARKNA":"嘉義縣大埔鄉衛生所","LANDMARKAD":"1001017","ADDRESS":"嘉義縣大埔鄉大埔村53之1號","TEL":"05-2521214","COUNTYNAME":"嘉義縣","TOWNNAME":"大埔鄉","MARKTYPE":"991","Class":"1"},"geometry":{"x":208515.37440000009,"y":2577170.8038999997}},{"attributes":{"OBJECTID":26685,"LANDMARKID":"1001000000208","LANDMARKCO":"108","LANDMARKNA":"嘉義縣大埔鄉公所","LANDMARKAD":"1001017","ADDRESS":"嘉義縣大埔鄉大埔村54號","TEL":"05-2521310","COUNTYNAME":"嘉義縣","TOWNNAME":"大埔鄉","MARKTYPE":"991","Class":"1"},"geometry":{"x":208408.14900000021,"y":2577250.5033}},{"attributes":{"OBJECTID":26686,"LANDMARKID":"1001000000021","LANDMARKCO":"103","LANDMARKNA":"嘉義縣大埔鄉民代表會","LANDMARKAD":"1001017","ADDRESS":"嘉義縣大埔鄉大埔村53號","TEL":"05-2521223","COUNTYNAME":"嘉義縣","TOWNNAME":"大埔鄉","MARKTYPE":"991","Class":"1"},"geometry":{"x":208358.93520000018,"y":2576970.3650000002}},{"attributes":{"OBJECTID":26687,"LANDMARKID":"1001000000166","LANDMARKCO":"107","LANDMARKNA":"嘉義縣警察局大埔分駐所","LANDMARKAD":"1001017","ADDRESS":"嘉義縣大埔鄉大埔村大埔13號","TEL":"05-2521034","COUNTYNAME":"嘉義縣","TOWNNAME":"大埔鄉","MARKTYPE":"991","Class":"1"},"geometry":{"x":208434.59140000027,"y":2577400.5750999991}},{"attributes":{"OBJECTID":26688,"LANDMARKID":"1001000000167","LANDMARKCO":"107","LANDMARKNA":"嘉義縣消防局大埔消防分隊","LANDMARKAD":"1001017","ADDRESS":"嘉義縣大埔鄉大埔村大埔街133號","TEL":"05-2521424","COUNTYNAME":"嘉義縣","TOWNNAME":"大埔鄉","MARKTYPE":"991","Class":"1"},"geometry":{"x":208428.79449999984,"y":2577020.5612000003}},{"attributes":{"OBJECTID":26689,"LANDMARKID":"1001000000080","LANDMARKCO":"106","LANDMARKNA":"嘉義縣大埔鄉戶政事務所","LANDMARKAD":"1001017","ADDRESS":"嘉義縣大埔鄉大埔村4鄰大埔53號","TEL":"05-2521072","COUNTYNAME":"嘉義縣","TOWNNAME":"大埔鄉","MARKTYPE":"991","Class":"1"},"geometry":{"x":208561.23489999957,"y":2577220.1339999996}},{"attributes":{"OBJECTID":26690,"LANDMARKID":"1001000000447","LANDMARKCO":"204","LANDMARKNA":"嘉義縣立圖書館大埔分館","LANDMARKAD":"1001017","ADDRESS":"嘉義縣大埔鄉大埔村4鄰53之2號","TEL":" ","COUNTYNAME":"嘉義縣","TOWNNAME":"大埔鄉","MARKTYPE":"992","Class":"2"},"geometry":{"x":208337.71740000043,"y":2576868.8686999995}},{"attributes":{"OBJECTID":26691,"LANDMARKID":"1001000000399","LANDMARKCO":"203","LANDMARKNA":"縣立大埔國中","LANDMARKAD":"1001017","ADDRESS":"嘉義縣大埔鄉茄苳村竹圍仔5號","TEL":"05-2521014","COUNTYNAME":"嘉義縣","TOWNNAME":"大埔鄉","MARKTYPE":"992","Class":"2"},"geometry":{"x":208170.40689999983,"y":2576850.6401000004}},{"attributes":{"OBJECTID":26692,"LANDMARKID":"1001000000400","LANDMARKCO":"203","LANDMARKNA":"縣立大埔國小","LANDMARKAD":"1001017","ADDRESS":"嘉義縣大埔鄉大埔村57號","TEL":"05-2521024","COUNTYNAME":"嘉義縣","TOWNNAME":"大埔鄉","MARKTYPE":"992","Class":"2"},"geometry":{"x":208250.29470000044,"y":2576890.0617999993}},{"attributes":{"OBJECTID":26693,"LANDMARKID":"1001000000401","LANDMARKCO":"203","LANDMARKNA":"縣立坪林國小","LANDMARKAD":"1001017","ADDRESS":"嘉義縣大埔鄉坪林里80號","TEL":"05-2650887","COUNTYNAME":"嘉義縣","TOWNNAME":"大埔鄉","MARKTYPE":"992","Class":"2"},"geometry":{"x":211358.30879999977,"y":2571360.0493999999}},{"attributes":{"OBJECTID":26694,"LANDMARKID":"1001000000402","LANDMARKCO":"203","LANDMARKNA":"縣立大埔國小埔頂分校","LANDMARKAD":"1001017","ADDRESS":"嘉義縣大埔鄉","TEL":" ","COUNTYNAME":"嘉義縣","TOWNNAME":"大埔鄉","MARKTYPE":"992","Class":"2"},"geometry":{"x":207274.69900000002,"y":2578900.5107000005}},{"attributes":{"OBJECTID":26695,"LANDMARKID":"1001000000516","LANDMARKCO":"303","LANDMARKNA":"嘉義農場露營區停車場","LANDMARKAD":"1001017","ADDRESS":"嘉義縣大埔鄉","TEL":" ","COUNTYNAME":"嘉義縣","TOWNNAME":"大埔鄉","MARKTYPE":"993","Class":"303"},"geometry":{"x":204902.85059999954,"y":2572078.2485000007}},{"attributes":{"OBJECTID":26696,"LANDMARKID":"1001000000517","LANDMARKCO":"303","LANDMARKNA":"嘉義農場停車場","LANDMARKAD":"1001017","ADDRESS":"嘉義縣大埔鄉","TEL":" ","COUNTYNAME":"嘉義縣","TOWNNAME":"大埔鄉","MARKTYPE":"993","Class":"303"},"geometry":{"x":205151.62440000009,"y":2571975.5686000008}},{"attributes":{"OBJECTID":26697,"LANDMARKID":"1001000000518","LANDMARKCO":"303","LANDMARKNA":"嘉義農場停車場","LANDMARKAD":"1001017","ADDRESS":"嘉義縣大埔鄉西興村3號","TEL":" ","COUNTYNAME":"嘉義縣","TOWNNAME":"大埔鄉","MARKTYPE":"993","Class":"303"},"geometry":{"x":205485.00079999957,"y":2572067.3212000001}},{"attributes":{"OBJECTID":26698,"LANDMARKID":"1001000000519","LANDMARKCO":"303","LANDMARKNA":"大埔停車場","LANDMARKAD":"1001017","ADDRESS":"嘉義縣大埔鄉","TEL":" ","COUNTYNAME":"嘉義縣","TOWNNAME":"大埔鄉","MARKTYPE":"993","Class":"303"},"geometry":{"x":207270.51339999959,"y":2584215.1184}},{"attributes":{"OBJECTID":26699,"LANDMARKID":"1001000000520","LANDMARKCO":"303","LANDMARKNA":"嘉義農場停車場","LANDMARKAD":"1001017","ADDRESS":"嘉義縣大埔鄉西興村4鄰3號","TEL":" ","COUNTYNAME":"嘉義縣","TOWNNAME":"大埔鄉","MARKTYPE":"993","Class":"303"},"geometry":{"x":206663.39460000023,"y":2584274.0899999999}},{"attributes":{"OBJECTID":26700,"LANDMARKID":"1001000000921","LANDMARKCO":"604","LANDMARKNA":"松竹梅休閒渡假民宿","LANDMARKAD":"1001017","ADDRESS":"嘉義縣大埔鄉和平村雙溪14-2號","TEL":"05-2521166","COUNTYNAME":"嘉義縣","TOWNNAME":"大埔鄉","MARKTYPE":"996","Class":"6"},"geometry":{"x":208975.05420000013,"y":2577687.2754999995}},{"attributes":{"OBJECTID":26701,"LANDMARKID":"1001000000922","LANDMARKCO":"604","LANDMARKNA":"友愛民宿","LANDMARKAD":"1001017","ADDRESS":"嘉義縣大埔鄉西興村三重溪埔7-1號","TEL":"07-3800593","COUNTYNAME":"嘉義縣","TOWNNAME":"大埔鄉","MARKTYPE":"996","Class":"6"},"geometry":{"x":207365.51449999958,"y":2573030.3377}},{"attributes":{"OBJECTID":26702,"LANDMARKID":"1001000000923","LANDMARKCO":"604","LANDMARKNA":"茶米民宿","LANDMARKAD":"1001017","ADDRESS":"嘉義縣大埔鄉和平村雙溪45號","TEL":"05-2521326","COUNTYNAME":"嘉義縣","TOWNNAME":"大埔鄉","MARKTYPE":"996","Class":"6"},"geometry":{"x":208624.21289999969,"y":2577787.4013}},{"attributes":{"OBJECTID":26703,"LANDMARKID":"1001000000784","LANDMARKCO":"503","LANDMARKNA":"同心吊橋","LANDMARKAD":"1001017","ADDRESS":"嘉義縣大埔鄉","TEL":" ","COUNTYNAME":"嘉義縣","TOWNNAME":"大埔鄉","MARKTYPE":"995","Class":"5"},"geometry":{"x":207793.52020000014,"y":2577813.1952999998}},{"attributes":{"OBJECTID":26704,"LANDMARKID":"1001000000785","LANDMARKCO":"503","LANDMARKNA":"情人公園","LANDMARKAD":"1001017","ADDRESS":"嘉義縣大埔鄉","TEL":" ","COUNTYNAME":"嘉義縣","TOWNNAME":"大埔鄉","MARKTYPE":"995","Class":"5"},"geometry":{"x":207926.43589999992,"y":2577888.2694000006}},{"attributes":{"OBJECTID":26705,"LANDMARKID":"1001000000786","LANDMARKCO":"503","LANDMARKNA":"青龍瀑布","LANDMARKAD":"1001017","ADDRESS":"嘉義縣大埔鄉","TEL":" ","COUNTYNAME":"嘉義縣","TOWNNAME":"大埔鄉","MARKTYPE":"995","Class":"5"},"geometry":{"x":208573.46200000029,"y":2581155.6887999997}},{"attributes":{"OBJECTID":26706,"LANDMARKID":"1001000000787","LANDMARKCO":"503","LANDMARKNA":"三龍瀑布","LANDMARKAD":"1001017","ADDRESS":"嘉義縣大埔鄉","TEL":" ","COUNTYNAME":"嘉義縣","TOWNNAME":"大埔鄉","MARKTYPE":"995","Class":"5"},"geometry":{"x":208606.36359999981,"y":2580472.3721999992}},{"attributes":{"OBJECTID":26707,"LANDMARKID":"1001000000788","LANDMARKCO":"503","LANDMARKNA":"月桃瀑布","LANDMARKAD":"1001017","ADDRESS":"嘉義縣大埔鄉","TEL":" ","COUNTYNAME":"嘉義縣","TOWNNAME":"大埔鄉","MARKTYPE":"995","Class":"5"},"geometry":{"x":209451.09229999967,"y":2569661.8830999993}},{"attributes":{"OBJECTID":26708,"LANDMARKID":"1001000000789","LANDMARKCO":"503","LANDMARKNA":"曾文水庫風景區","LANDMARKAD":"1001017","ADDRESS":"嘉義縣大埔鄉","TEL":" ","COUNTYNAME":"嘉義縣","TOWNNAME":"大埔鄉","MARKTYPE":"995","Class":"5"},"geometry":{"x":203416.89580000006,"y":2571063.8839999996}},{"attributes":{"OBJECTID":26709,"LANDMARKID":"1002000000192","LANDMARKCO":"405","LANDMARKNA":"中油加油站-吳鳳路站(刷卡自助)(中油直營)","LANDMARKAD":"1002001","ADDRESS":"嘉義市東區吳鳳南路92號","TEL":"05-2224070","COUNTYNAME":"嘉義市","TOWNNAME":"東區","MARKTYPE":"994","Class":"4"},"geometry":{"x":194225.44409999996,"y":2596328.4620999992}},{"attributes":{"OBJECTID":26710,"LANDMARKID":"1002000000193","LANDMARKCO":"405","LANDMARKNA":"中油加油站-嘉峰站","LANDMARKAD":"1002001","ADDRESS":"嘉義市大雅路2段497號","TEL":"05-2789508","COUNTYNAME":"嘉義市","TOWNNAME":"東區","MARKTYPE":"994","Class":"4"},"geometry":{"x":195943.74340000004,"y":2597261.2788999993}},{"attributes":{"OBJECTID":26711,"LANDMARKID":"1002000000194","LANDMARKCO":"405","LANDMARKNA":"中油加油站-新生路(嘉義市)","LANDMARKAD":"1002001","ADDRESS":"嘉義市新生路702號","TEL":"05-2778220","COUNTYNAME":"嘉義市","TOWNNAME":"東區","MARKTYPE":"994","Class":"4"},"geometry":{"x":194471.34520000033,"y":2599182.9959999993}},{"attributes":{"OBJECTID":26712,"LANDMARKID":"1002000000195","LANDMARKCO":"405","LANDMARKNA":"中油加油站-中山路站(中油直營)","LANDMARKAD":"1002001","ADDRESS":"嘉義市中山路90號","TEL":"05-2789320","COUNTYNAME":"嘉義市","TOWNNAME":"東區","MARKTYPE":"994","Class":"4"},"geometry":{"x":194775.11620000005,"y":2597799.8630999997}},{"attributes":{"OBJECTID":26713,"LANDMARKID":"1002000000159","LANDMARKCO":"402","LANDMARKNA":"亞太行動寬頻電信-嘉義吳鳳南加盟服務中心","LANDMARKAD":"1002001","ADDRESS":"嘉義市東區吳鳳南路106-1號","TEL":"05-2233879","COUNTYNAME":"嘉義市","TOWNNAME":"東區","MARKTYPE":"994","Class":"4"},"geometry":{"x":194276.14709999971,"y":2595983.6882000007}},{"attributes":{"OBJECTID":26714,"LANDMARKID":"1002000000160","LANDMARKCO":"402","LANDMARKNA":"亞太行動寬頻電信-嘉義縣","LANDMARKAD":"1002001","ADDRESS":"嘉義市東區民族路121號","TEL":" ","COUNTYNAME":"嘉義市","TOWNNAME":"東區","MARKTYPE":"994","Class":"4"},"geometry":{"x":194662.51020000037,"y":2597175.1712999996}},{"attributes":{"OBJECTID":26715,"LANDMARKID":"1002000000155","LANDMARKCO":"401","LANDMARKNA":"陽明醫院","LANDMARKAD":"1002001","ADDRESS":"嘉義市東區吳鳳北路252號","TEL":"05-2284567","COUNTYNAME":"嘉義市","TOWNNAME":"東區","MARKTYPE":"994","Class":"4"},"geometry":{"x":194144.99349999987,"y":2597606.1604999993}},{"attributes":{"OBJECTID":26716,"LANDMARKID":"1002000000156","LANDMARKCO":"401","LANDMARKNA":"財團法人天主教聖馬爾定醫院","LANDMARKAD":"1002001","ADDRESS":"嘉義市大雅路二段565號","TEL":"05-2756000","COUNTYNAME":"嘉義市","TOWNNAME":"東區","MARKTYPE":"994","Class":"4"},"geometry":{"x":195563.7209999999,"y":2597059.1681999993}},{"attributes":{"OBJECTID":26717,"LANDMARKID":"1002000000157","LANDMARKCO":"401","LANDMARKNA":"財團法人嘉義基督教醫院","LANDMARKAD":"1002001","ADDRESS":"嘉義市忠孝路539號","TEL":"05-2765041","COUNTYNAME":"嘉義市","TOWNNAME":"東區","MARKTYPE":"994","Class":"4"},"geometry":{"x":193735.0477,"y":2599700.7432000004}},{"attributes":{"OBJECTID":26718,"LANDMARKID":"1002000000158","LANDMARKCO":"401","LANDMARKNA":"建興醫院","LANDMARKAD":"1002001","ADDRESS":"嘉義市中山路148號","TEL":"05-2270302","COUNTYNAME":"嘉義市","TOWNNAME":"東區","MARKTYPE":"994","Class":"4"},"geometry":{"x":194354.46009999979,"y":2597746.9589000009}},{"attributes":{"OBJECTID":26719,"LANDMARKID":"1002000000116","LANDMARKCO":"301","LANDMARKNA":"北門火車站","LANDMARKAD":"1002001","ADDRESS":"嘉義市東區","TEL":" ","COUNTYNAME":"嘉義市","TOWNNAME":"東區","MARKTYPE":"993","Class":"301"},"geometry":{"x":194314.92210000008,"y":2598444.8608999997}},{"attributes":{"OBJECTID":26720,"LANDMARKID":"1002000000261","LANDMARKCO":"507","LANDMARKNA":"王祖母徐太夫人墓","LANDMARKAD":"1002001","ADDRESS":"嘉義市東區盧厝里羌母寮41號","TEL":" ","COUNTYNAME":"嘉義市","TOWNNAME":"東區","MARKTYPE":"995","Class":"5"},"geometry":{"x":198127.03399999999,"y":2597721.5250000004}},{"attributes":{"OBJECTID":26721,"LANDMARKID":"1002000000262","LANDMARKCO":"507","LANDMARKNA":"阿里山鐵路北門驛","LANDMARKAD":"1002001","ADDRESS":"嘉義市東區共和路482號","TEL":" ","COUNTYNAME":"嘉義市","TOWNNAME":"東區","MARKTYPE":"995","Class":"5"},"geometry":{"x":194295.2137000002,"y":2598723.1614999995}},{"attributes":{"OBJECTID":26722,"LANDMARKID":"1002000000263","LANDMARKCO":"507","LANDMARKNA":"嘉義仁武宮","LANDMARKAD":"1002001","ADDRESS":"嘉義市東區北榮街54號","TEL":" ","COUNTYNAME":"嘉義市","TOWNNAME":"東區","MARKTYPE":"995","Class":"5"},"geometry":{"x":194163.40880000032,"y":2597899.1062000003}},{"attributes":{"OBJECTID":26723,"LANDMARKID":"1002000000264","LANDMARKCO":"507","LANDMARKNA":"嘉義營林俱樂部(招待所)","LANDMARKAD":"1002001","ADDRESS":"嘉義市東區共和路370號","TEL":" ","COUNTYNAME":"嘉義市","TOWNNAME":"東區","MARKTYPE":"995","Class":"5"},"geometry":{"x":194371.64439999964,"y":2597961.6468000002}},{"attributes":{"OBJECTID":26724,"LANDMARKID":"1002000000257","LANDMARKCO":"506","LANDMARKNA":"嘉義樹木茶園","LANDMARKAD":"1002001","ADDRESS":"嘉義市東區","TEL":" ","COUNTYNAME":"嘉義市","TOWNNAME":"東區","MARKTYPE":"995","Class":"5"},"geometry":{"x":194200.42339999974,"y":2600703.3742999993}},{"attributes":{"OBJECTID":26725,"LANDMARKID":"1002000000258","LANDMARKCO":"507","LANDMARKNA":"八掌溪義渡","LANDMARKAD":"1002001","ADDRESS":"嘉義市東區短竹里彌陀路1號","TEL":" ","COUNTYNAME":"嘉義市","TOWNNAME":"東區","MARKTYPE":"995","Class":"5"},"geometry":{"x":195948.18740000017,"y":2595666.7173999995}},{"attributes":{"OBJECTID":26726,"LANDMARKID":"1002000000259","LANDMARKCO":"507","LANDMARKNA":"日本神社附屬館所(原嘉義神社附屬館所)","LANDMARKAD":"1002001","ADDRESS":"嘉義市東區公園街42號","TEL":" ","COUNTYNAME":"嘉義市","TOWNNAME":"東區","MARKTYPE":"995","Class":"5"},"geometry":{"x":195533.93879999965,"y":2597555.4311999995}},{"attributes":{"OBJECTID":26727,"LANDMARKID":"1002000000260","LANDMARKCO":"507","LANDMARKNA":"嘉義蘇周連宗祠","LANDMARKAD":"1002001","ADDRESS":"嘉義市垂楊路326號","TEL":" ","COUNTYNAME":"嘉義市","TOWNNAME":"東區","MARKTYPE":"995","Class":"5"},"geometry":{"x":193970.60250000004,"y":2596909.5230999999}},{"attributes":{"OBJECTID":26728,"LANDMARKID":"1002000000242","LANDMARKCO":"408","LANDMARKNA":"郵局-嘉義文化路郵局","LANDMARKAD":"1002001","ADDRESS":"嘉義市文化路134號","TEL":"(05)2259-408","COUNTYNAME":"嘉義市","TOWNNAME":"東區","MARKTYPE":"994","Class":"4"},"geometry":{"x":193812.96150000021,"y":2597309.0761999991}},{"attributes":{"OBJECTID":26729,"LANDMARKID":"1002000000243","LANDMARKCO":"408","LANDMARKNA":"郵局-嘉義中山路郵局","LANDMARKAD":"1002001","ADDRESS":"嘉義市中山路107號","TEL":"(05)2785-145","COUNTYNAME":"嘉義市","TOWNNAME":"東區","MARKTYPE":"994","Class":"4"},"geometry":{"x":194614.43620000035,"y":2597752.8682000004}},{"attributes":{"OBJECTID":26730,"LANDMARKID":"1002000000244","LANDMARKCO":"408","LANDMARKNA":"郵局-嘉義忠孝郵局","LANDMARKAD":"1002001","ADDRESS":"嘉義市民權路208-1號","TEL":"(05)2783-079","COUNTYNAME":"嘉義市","TOWNNAME":"東區","MARKTYPE":"994","Class":"4"},"geometry":{"x":194286.87619999982,"y":2597900.7064999994}},{"attributes":{"OBJECTID":26731,"LANDMARKID":"1002000000245","LANDMARKCO":"408","LANDMARKNA":"郵局-嘉義東門郵局","LANDMARKAD":"1002001","ADDRESS":"嘉義市中正路141號","TEL":"(05)2273-549","COUNTYNAME":"嘉義市","TOWNNAME":"東區","MARKTYPE":"994","Class":"4"},"geometry":{"x":194427.28340000007,"y":2597485.1656999998}},{"attributes":{"OBJECTID":26732,"LANDMARKID":"1002000000246","LANDMARKCO":"408","LANDMARKNA":"郵局-嘉義興業路郵局","LANDMARKAD":"1002001","ADDRESS":"嘉義市興業東路12號","TEL":"(05)2241-450","COUNTYNAME":"嘉義市","TOWNNAME":"東區","MARKTYPE":"994","Class":"4"},"geometry":{"x":194170.05810000002,"y":2596314.2850000001}},{"attributes":{"OBJECTID":26733,"LANDMARKID":"1002000000247","LANDMARKCO":"408","LANDMARKNA":"郵局-嘉義彌陀郵局","LANDMARKAD":"1002001","ADDRESS":"嘉義市彌陀路268號","TEL":"(05)2782-918","COUNTYNAME":"嘉義市","TOWNNAME":"東區","MARKTYPE":"994","Class":"4"},"geometry":{"x":195128.2034,"y":2596891.6714999992}},{"attributes":{"OBJECTID":26734,"LANDMARKID":"1002000000248","LANDMARKCO":"408","LANDMARKNA":"郵局-嘉義大學郵局","LANDMARKAD":"1002001","ADDRESS":"嘉義市學府路300號","TEL":"(05)2771-612","COUNTYNAME":"嘉義市","TOWNNAME":"東區","MARKTYPE":"994","Class":"4"},"geometry":{"x":197236.94660000037,"y":2595733.0812999997}},{"attributes":{"OBJECTID":26735,"LANDMARKID":"1002000000249","LANDMARKCO":"408","LANDMARKNA":"郵局-嘉義林森郵局","LANDMARKAD":"1002001","ADDRESS":"嘉義市林森東路488號","TEL":"(05)2766-074","COUNTYNAME":"嘉義市","TOWNNAME":"東區","MARKTYPE":"994","Class":"4"},"geometry":{"x":195915.91210000031,"y":2598852.3982999995}},{"attributes":{"OBJECTID":26736,"LANDMARKID":"1002000000250","LANDMARKCO":"408","LANDMARKNA":"郵局-嘉義後湖郵局","LANDMARKAD":"1002001","ADDRESS":"嘉義市東區保健街30-5號","TEL":"(05)2771-054","COUNTYNAME":"嘉義市","TOWNNAME":"東區","MARKTYPE":"994","Class":"4"},"geometry":{"x":194349.76939999964,"y":2599880.9285000004}},{"attributes":{"OBJECTID":26737,"LANDMARKID":"1002000000251","LANDMARKCO":"409","LANDMARKNA":"嘉義市魚市場","LANDMARKAD":"1002001","ADDRESS":"嘉義市博愛路一段109號","TEL":"05-2772077　","COUNTYNAME":"嘉義市","TOWNNAME":"東區","MARKTYPE":"994","Class":"4"},"geometry":{"x":193924.88709999993,"y":2598578.3981999997}},{"attributes":{"OBJECTID":26738,"LANDMARKID":"1002000000182","LANDMARKCO":"404","LANDMARKNA":"台灣自來水第五區管理處","LANDMARKAD":"1002001","ADDRESS":"嘉義市民權路293號","TEL":"05-2252670","COUNTYNAME":"嘉義市","TOWNNAME":"東區","MARKTYPE":"994","Class":"4"},"geometry":{"x":194354.44710000046,"y":2597885.4221999999}},{"attributes":{"OBJECTID":26739,"LANDMARKID":"1002000000183","LANDMARKCO":"404","LANDMARKNA":"台灣自來水嘉義服務所","LANDMARKAD":"1002001","ADDRESS":"嘉義市民權路293號","TEL":"05-2257495","COUNTYNAME":"嘉義市","TOWNNAME":"東區","MARKTYPE":"994","Class":"4"},"geometry":{"x":194354.44710000046,"y":2597885.4221999999}},{"attributes":{"OBJECTID":26740,"LANDMARKID":"1002000000184","LANDMARKCO":"404","LANDMARKNA":"台灣自來水嘉義給水廠","LANDMARKAD":"1002001","ADDRESS":"嘉義市民權東路46號","TEL":"05-2762286","COUNTYNAME":"嘉義市","TOWNNAME":"東區","MARKTYPE":"994","Class":"4"},"geometry":{"x":196587.16999999993,"y":2597959.9805999994}},{"attributes":{"OBJECTID":26741,"LANDMARKID":"1002000000185","LANDMARKCO":"404","LANDMARKNA":"台灣省自來水嘉義給水廠","LANDMARKAD":"1002001","ADDRESS":"嘉義市東區民權東路46號","TEL":" ","COUNTYNAME":"嘉義市","TOWNNAME":"東區","MARKTYPE":"994","Class":"4"},"geometry":{"x":196703.62650000025,"y":2598021.6174999997}},{"attributes":{"OBJECTID":26742,"LANDMARKID":"1002000000186","LANDMARKCO":"404","LANDMARKNA":"台灣省自來水嘉義服務所","LANDMARKAD":"1002001","ADDRESS":"嘉義市東區民權路293號","TEL":" ","COUNTYNAME":"嘉義市","TOWNNAME":"東區","MARKTYPE":"994","Class":"4"},"geometry":{"x":194364.44460000005,"y":2597854.5210999995}},{"attributes":{"OBJECTID":26743,"LANDMARKID":"1002000000187","LANDMARKCO":"404","LANDMARKNA":"台灣省自來水第五區雲林嘉義管理處","LANDMARKAD":"1002001","ADDRESS":"嘉義市東區民權路293號","TEL":" ","COUNTYNAME":"嘉義市","TOWNNAME":"東區","MARKTYPE":"994","Class":"4"},"geometry":{"x":194364.73680000007,"y":2597855.1432000007}},{"attributes":{"OBJECTID":26744,"LANDMARKID":"1002000000181","LANDMARKCO":"403","LANDMARKNA":"台灣電力公司嘉義區營業處","LANDMARKAD":"1002001","ADDRESS":"嘉義市東區垂楊路223號","TEL":" ","COUNTYNAME":"嘉義市","TOWNNAME":"東區","MARKTYPE":"994","Class":"4"},"geometry":{"x":194312.97790000029,"y":2596877.8786999993}},{"attributes":{"OBJECTID":26745,"LANDMARKID":"1002000000222","LANDMARKCO":"406","LANDMARKNA":"二二八和平紀念公園","LANDMARKAD":"1002001","ADDRESS":"嘉義市東區","TEL":" ","COUNTYNAME":"嘉義市","TOWNNAME":"東區","MARKTYPE":"994","Class":"4"},"geometry":{"x":195094.42929999996,"y":2597159.0855}},{"attributes":{"OBJECTID":26746,"LANDMARKID":"1002000000223","LANDMARKCO":"406","LANDMARKNA":"興業公園","LANDMARKAD":"1002001","ADDRESS":"嘉義市東區","TEL":" ","COUNTYNAME":"嘉義市","TOWNNAME":"東區","MARKTYPE":"994","Class":"4"},"geometry":{"x":194514.82880000025,"y":2596503.0543000009}},{"attributes":{"OBJECTID":26747,"LANDMARKID":"1002000000224","LANDMARKCO":"406","LANDMARKNA":"宣信公園","LANDMARKAD":"1002001","ADDRESS":"嘉義市東區","TEL":" ","COUNTYNAME":"嘉義市","TOWNNAME":"東區","MARKTYPE":"994","Class":"4"},"geometry":{"x":194843.87550000008,"y":2596311.2072000001}},{"attributes":{"OBJECTID":26748,"LANDMARKID":"1002000000225","LANDMARKCO":"406","LANDMARKNA":"嘉義中山公園","LANDMARKAD":"1002001","ADDRESS":"嘉義市東區","TEL":" ","COUNTYNAME":"嘉義市","TOWNNAME":"東區","MARKTYPE":"994","Class":"4"},"geometry":{"x":195331.26379999984,"y":2597868.8508000001}},{"attributes":{"OBJECTID":26749,"LANDMARKID":"1002000000226","LANDMARKCO":"406","LANDMARKNA":"蘭潭公園","LANDMARKAD":"1002001","ADDRESS":"嘉義市東區","TEL":" ","COUNTYNAME":"嘉義市","TOWNNAME":"東區","MARKTYPE":"994","Class":"4"},"geometry":{"x":195707.45880000014,"y":2597825.7536999993}},{"attributes":{"OBJECTID":26750,"LANDMARKID":"1002000000227","LANDMARKCO":"406","LANDMARKNA":"長春公園","LANDMARKAD":"1002001","ADDRESS":"嘉義市東區","TEL":" ","COUNTYNAME":"嘉義市","TOWNNAME":"東區","MARKTYPE":"994","Class":"4"},"geometry":{"x":195038.15990000032,"y":2596923.7842999995}},{"attributes":{"OBJECTID":26751,"LANDMARKID":"1002000000228","LANDMARKCO":"407","LANDMARKNA":"耐斯廣場","LANDMARKAD":"1002001","ADDRESS":"嘉義市忠孝路600號","TEL":"05-2780111","COUNTYNAME":"嘉義市","TOWNNAME":"東區","MARKTYPE":"994","Class":"4"},"geometry":{"x":194083.51489999983,"y":2599373.4945}},{"attributes":{"OBJECTID":26752,"LANDMARKID":"1002000000188","LANDMARKCO":"405","LANDMARKNA":"福懋加油站-文化站(台塑)","LANDMARKAD":"1002001","ADDRESS":"嘉義市文化路1160號","TEL":"05-2344566","COUNTYNAME":"嘉義市","TOWNNAME":"東區","MARKTYPE":"994","Class":"4"},"geometry":{"x":192450.31570000015,"y":2600628.7754999995}},{"attributes":{"OBJECTID":26753,"LANDMARKID":"1002000000189","LANDMARKCO":"405","LANDMARKNA":"福懋加油站-嘉義站(台塑)","LANDMARKAD":"1002001","ADDRESS":"嘉義市忠孝路674號","TEL":"05-2769059","COUNTYNAME":"嘉義市","TOWNNAME":"東區","MARKTYPE":"994","Class":"4"},"geometry":{"x":193770.22329999972,"y":2600029.0518999994}},{"attributes":{"OBJECTID":26754,"LANDMARKID":"1002000000190","LANDMARKCO":"405","LANDMARKNA":"福懋加油站-欣隆站(台塑)","LANDMARKAD":"1002001","ADDRESS":"嘉義市林森東路556號","TEL":"05-2768800","COUNTYNAME":"嘉義市","TOWNNAME":"東區","MARKTYPE":"994","Class":"4"},"geometry":{"x":196074.20270000026,"y":2598863.4776000008}},{"attributes":{"OBJECTID":26755,"LANDMARKID":"1002000000191","LANDMARKCO":"405","LANDMARKNA":"台塑加油站-威盛嘉義站(台塑)","LANDMARKAD":"1002001","ADDRESS":"嘉義市博東路80號","TEL":"05-2710292","COUNTYNAME":"嘉義市","TOWNNAME":"東區","MARKTYPE":"994","Class":"4"},"geometry":{"x":195055.88750000019,"y":2598711.9564999994}},{"attributes":{"OBJECTID":26756,"LANDMARKID":"1002000000001","LANDMARKCO":"101","LANDMARKNA":"水利署第五河川局","LANDMARKAD":"1002001","ADDRESS":"嘉義市親水路123號","TEL":"05-2304406","COUNTYNAME":"嘉義市","TOWNNAME":"東區","MARKTYPE":"991","Class":"1"},"geometry":{"x":194933.50050000008,"y":2595092.2842999995}},{"attributes":{"OBJECTID":26757,"LANDMARKID":"1002000000056","LANDMARKCO":"108","LANDMARKNA":"嘉義市東區區公所","LANDMARKAD":"1002001","ADDRESS":"嘉義市吳鳳北路184號4樓","TEL":"05-2289019","COUNTYNAME":"嘉義市","TOWNNAME":"東區","MARKTYPE":"991","Class":"1"},"geometry":{"x":194168.41559999995,"y":2597401.2610999998}},{"attributes":{"OBJECTID":26758,"LANDMARKID":"1002000000025","LANDMARKCO":"103","LANDMARKNA":"嘉義市政府文化局","LANDMARKAD":"1002001","ADDRESS":"嘉義市忠孝路275號","TEL":"05-2788225","COUNTYNAME":"嘉義市","TOWNNAME":"東區","MARKTYPE":"991","Class":"1"},"geometry":{"x":194079.99459999986,"y":2598394.4941000007}},{"attributes":{"OBJECTID":26759,"LANDMARKID":"1002000000032","LANDMARKCO":"107","LANDMARKNA":"嘉義市警察局第二分局","LANDMARKAD":"1002001","ADDRESS":"嘉義市安寮里吳鳳南路367號","TEL":"05-2254393","COUNTYNAME":"嘉義市","TOWNNAME":"東區","MARKTYPE":"991","Class":"1"},"geometry":{"x":194399.59300000034,"y":2595757.8329000007}},{"attributes":{"OBJECTID":26760,"LANDMARKID":"1002000000033","LANDMARKCO":"107","LANDMARKNA":"嘉義市警察局長竹派出所","LANDMARKAD":"1002001","ADDRESS":"嘉義市民權東路34號","TEL":"05-2770641","COUNTYNAME":"嘉義市","TOWNNAME":"東區","MARKTYPE":"991","Class":"1"},"geometry":{"x":196954.16309999954,"y":2597821.3073999994}},{"attributes":{"OBJECTID":26761,"LANDMARKID":"1002000000034","LANDMARKCO":"107","LANDMARKNA":"嘉義市警察局興安派出所","LANDMARKAD":"1002001","ADDRESS":"嘉義市安寮里吳鳳南路367號","TEL":"05-2224593","COUNTYNAME":"嘉義市","TOWNNAME":"東區","MARKTYPE":"991","Class":"1"},"geometry":{"x":194399.59300000034,"y":2595757.8329000007}},{"attributes":{"OBJECTID":26762,"LANDMARKID":"1002000000035","LANDMARKCO":"107","LANDMARKNA":"嘉義市警察局新南派出所","LANDMARKAD":"1002001","ADDRESS":"嘉義市興南里吳鳳南路75號","TEL":"05-2222731","COUNTYNAME":"嘉義市","TOWNNAME":"東區","MARKTYPE":"991","Class":"1"},"geometry":{"x":194256.84740000032,"y":2596644.8600999992}},{"attributes":{"OBJECTID":26763,"LANDMARKID":"1002000000036","LANDMARKCO":"107","LANDMARKNA":"嘉義市警察局後湖派出所","LANDMARKAD":"1002001","ADDRESS":"嘉義市忠孝路537號","TEL":"05-2762726","COUNTYNAME":"嘉義市","TOWNNAME":"東區","MARKTYPE":"991","Class":"1"},"geometry":{"x":193877.35290000029,"y":2599595.9530999996}},{"attributes":{"OBJECTID":26764,"LANDMARKID":"1002000000037","LANDMARKCO":"107","LANDMARKNA":"嘉義市警察局公園派出所","LANDMARKAD":"1002001","ADDRESS":"嘉義市東平里中山路2號","TEL":"05-2783141","COUNTYNAME":"嘉義市","TOWNNAME":"東區","MARKTYPE":"991","Class":"1"},"geometry":{"x":195155.32919999957,"y":2597852.0100999996}},{"attributes":{"OBJECTID":26765,"LANDMARKID":"1002000000038","LANDMARKCO":"107","LANDMARKNA":"嘉義市警察局北門派出所","LANDMARKAD":"1002001","ADDRESS":"嘉義市民權路268號","TEL":"05-2782727","COUNTYNAME":"嘉義市","TOWNNAME":"東區","MARKTYPE":"991","Class":"1"},"geometry":{"x":194030.66930000018,"y":2597856.3149999995}},{"attributes":{"OBJECTID":26766,"LANDMARKID":"1002000000039","LANDMARKCO":"107","LANDMARKNA":"嘉義市警察局南門派出所","LANDMARKAD":"1002001","ADDRESS":"嘉義市民族路230號","TEL":"05-2222725","COUNTYNAME":"嘉義市","TOWNNAME":"東區","MARKTYPE":"991","Class":"1"},"geometry":{"x":194370.52840000018,"y":2597179.7821999993}},{"attributes":{"OBJECTID":26767,"LANDMARKID":"1002000000040","LANDMARKCO":"107","LANDMARKNA":"嘉義市消防局","LANDMARKAD":"1002001","ADDRESS":"嘉義市立學街16號","TEL":"05-2716660","COUNTYNAME":"嘉義市","TOWNNAME":"東區","MARKTYPE":"991","Class":"1"},"geometry":{"x":195588.07469999976,"y":2596698.2663000003}},{"attributes":{"OBJECTID":26768,"LANDMARKID":"1002000000041","LANDMARKCO":"107","LANDMARKNA":"嘉義市消防局第二消防分隊","LANDMARKAD":"1002001","ADDRESS":"嘉義市吳鳳南路367號","TEL":"05-2236696","COUNTYNAME":"嘉義市","TOWNNAME":"東區","MARKTYPE":"991","Class":"1"},"geometry":{"x":194399.59300000034,"y":2595757.8329000007}},{"attributes":{"OBJECTID":26769,"LANDMARKID":"1002000000042","LANDMARKCO":"107","LANDMARKNA":"嘉義市消防局東區消防分隊","LANDMARKAD":"1002001","ADDRESS":"嘉義市新生路306號","TEL":"05-2763207","COUNTYNAME":"嘉義市","TOWNNAME":"東區","MARKTYPE":"991","Class":"1"},"geometry":{"x":194918.46970000025,"y":2598192.9357999992}},{"attributes":{"OBJECTID":26770,"LANDMARKID":"1002000000043","LANDMARKCO":"107","LANDMARKNA":"嘉義市消防局蘭潭消防分隊","LANDMARKAD":"1002001","ADDRESS":"嘉義市立學街16號","TEL":"05-2715390","COUNTYNAME":"嘉義市","TOWNNAME":"東區","MARKTYPE":"991","Class":"1"},"geometry":{"x":195588.07469999976,"y":2596698.2663000003}},{"attributes":{"OBJECTID":26771,"LANDMARKID":"1002000000028","LANDMARKCO":"105","LANDMARKNA":"嘉義市政府地政局","LANDMARKAD":"1002001","ADDRESS":"嘉義市中山路199號","TEL":"05-2254321","COUNTYNAME":"嘉義市","TOWNNAME":"東區","MARKTYPE":"991","Class":"1"},"geometry":{"x":194177.76520000026,"y":2597686.7921999991}},{"attributes":{"OBJECTID":26772,"LANDMARKID":"1002000000024","LANDMARKCO":"103","LANDMARKNA":"嘉義市政府民政處","LANDMARKAD":"1002001","ADDRESS":"嘉義市中山路199號","TEL":"05-2254321","COUNTYNAME":"嘉義市","TOWNNAME":"東區","MARKTYPE":"991","Class":"1"},"geometry":{"x":194177.76520000026,"y":2597686.7921999991}},{"attributes":{"OBJECTID":26773,"LANDMARKID":"1002000000031","LANDMARKCO":"106","LANDMARKNA":"嘉義市東區戶政事務所","LANDMARKAD":"1002001","ADDRESS":"嘉義市吳鳳北路184號4樓","TEL":"05-2226330","COUNTYNAME":"嘉義市","TOWNNAME":"東區","MARKTYPE":"991","Class":"1"},"geometry":{"x":194168.41559999995,"y":2597401.2610999998}},{"attributes":{"OBJECTID":26774,"LANDMARKID":"1002000000026","LANDMARKCO":"104","LANDMARKNA":"南區國稅局嘉義市分局","LANDMARKAD":"1002001","ADDRESS":"嘉義市中山路199號4~5樓","TEL":"05-2282233","COUNTYNAME":"嘉義市","TOWNNAME":"東區","MARKTYPE":"991","Class":"1"},"geometry":{"x":194177.76520000026,"y":2597686.7921999991}},{"attributes":{"OBJECTID":26775,"LANDMARKID":"1002000000002","LANDMARKCO":"101","LANDMARKNA":"台灣嘉義地方法院","LANDMARKAD":"1002001","ADDRESS":"嘉義市林森東路282號","TEL":"05-2783671","COUNTYNAME":"嘉義市","TOWNNAME":"東區","MARKTYPE":"991","Class":"1"},"geometry":{"x":195143.31900000013,"y":2598432.2069000006}},{"attributes":{"OBJECTID":26776,"LANDMARKID":"1002000000003","LANDMARKCO":"101","LANDMARKNA":"調查局嘉義市調查站","LANDMARKAD":"1002001","ADDRESS":"嘉義市文化路308號","TEL":"05-2773345","COUNTYNAME":"嘉義市","TOWNNAME":"東區","MARKTYPE":"991","Class":"1"},"geometry":{"x":193679.42260000017,"y":2598093.3059999999}},{"attributes":{"OBJECTID":26777,"LANDMARKID":"1002000000022","LANDMARKCO":"103","LANDMARKNA":"嘉義市立體育館","LANDMARKAD":"1002001","ADDRESS":"嘉義市彌陀路381號","TEL":"05-2226860","COUNTYNAME":"嘉義市","TOWNNAME":"東區","MARKTYPE":"991","Class":"1"},"geometry":{"x":195086.49469999969,"y":2596817.7656999994}},{"attributes":{"OBJECTID":26778,"LANDMARKID":"1002000000023","LANDMARKCO":"103","LANDMARKNA":"嘉義市立兒童館","LANDMARKAD":"1002001","ADDRESS":"嘉義市興業東路555號","TEL":"05-2258542","COUNTYNAME":"嘉義市","TOWNNAME":"東區","MARKTYPE":"991","Class":"1"},"geometry":{"x":195052.6632000003,"y":2596456.6435000002}},{"attributes":{"OBJECTID":26779,"LANDMARKID":"1002000000004","LANDMARKCO":"101","LANDMARKNA":"嘉義市後備司令部","LANDMARKAD":"1002001","ADDRESS":"嘉義市民權路295號","TEL":"05-2287081","COUNTYNAME":"嘉義市","TOWNNAME":"東區","MARKTYPE":"991","Class":"1"},"geometry":{"x":194294.2106999997,"y":2597878.4843000006}},{"attributes":{"OBJECTID":26780,"LANDMARKID":"1002000000005","LANDMARKCO":"101","LANDMARKNA":"台灣嘉義監獄典獄長室","LANDMARKAD":"1002001","ADDRESS":"嘉義市維新路130巷8號","TEL":"05-2760592","COUNTYNAME":"嘉義市","TOWNNAME":"東區","MARKTYPE":"991","Class":"1"},"geometry":{"x":194772.40720000025,"y":2598096.6371999998}},{"attributes":{"OBJECTID":26781,"LANDMARKID":"1002000000021","LANDMARKCO":"103","LANDMARKNA":"嘉義市家庭教育服務中心","LANDMARKAD":"1002001","ADDRESS":"嘉義市山子頂269-1號","TEL":"05-2754334","COUNTYNAME":"嘉義市","TOWNNAME":"東區","MARKTYPE":"991","Class":"1"},"geometry":{"x":195294.24149999954,"y":2597812.2174999993}},{"attributes":{"OBJECTID":26782,"LANDMARKID":"1002000000006","LANDMARKCO":"101","LANDMARKNA":"林務局嘉義林區管理處","LANDMARKAD":"1002001","ADDRESS":"嘉義市林森西路1號","TEL":"05-2787006","COUNTYNAME":"嘉義市","TOWNNAME":"東區","MARKTYPE":"991","Class":"1"},"geometry":{"x":194143.18149999995,"y":2598151.9063000008}},{"attributes":{"OBJECTID":26783,"LANDMARKID":"1002000000020","LANDMARKCO":"103","LANDMARKNA":"嘉義市政府","LANDMARKAD":"1002001","ADDRESS":"嘉義市中山路199號","TEL":"05-2254321","COUNTYNAME":"嘉義市","TOWNNAME":"東區","MARKTYPE":"991","Class":"1"},"geometry":{"x":194177.76520000026,"y":2597686.7921999991}},{"attributes":{"OBJECTID":26784,"LANDMARKID":"1002000000027","LANDMARKCO":"104","LANDMARKNA":"嘉義市稅捐稽徵處","LANDMARKAD":"1002001","ADDRESS":"嘉義市中山路154號","TEL":"05-2224371","COUNTYNAME":"嘉義市","TOWNNAME":"東區","MARKTYPE":"991","Class":"1"},"geometry":{"x":194250.2873999998,"y":2597734.5677000005}},{"attributes":{"OBJECTID":26785,"LANDMARKID":"1002000000008","LANDMARKCO":"101","LANDMARKNA":"勞工保險局嘉義連絡處","LANDMARKAD":"1002001","ADDRESS":"嘉義市大業街2號","TEL":"05-2223301","COUNTYNAME":"嘉義市","TOWNNAME":"東區","MARKTYPE":"991","Class":"1"},"geometry":{"x":194341.21190000046,"y":2595721.1929000001}},{"attributes":{"OBJECTID":26786,"LANDMARKID":"1002000000017","LANDMARKCO":"103","LANDMARKNA":"嘉義市環境保護局","LANDMARKAD":"1002001","ADDRESS":"嘉義市吳鳳北路184號5樓","TEL":"05-2251775","COUNTYNAME":"嘉義市","TOWNNAME":"東區","MARKTYPE":"991","Class":"1"},"geometry":{"x":194168.41559999995,"y":2597401.2610999998}},{"attributes":{"OBJECTID":26787,"LANDMARKID":"1002000000018","LANDMARKCO":"103","LANDMARKNA":"嘉義市選舉委員會","LANDMARKAD":"1002001","ADDRESS":"嘉義市博東路333號","TEL":"05-2754633","COUNTYNAME":"嘉義市","TOWNNAME":"東區","MARKTYPE":"991","Class":"1"},"geometry":{"x":194270.12689999957,"y":2598662.6297999993}},{"attributes":{"OBJECTID":26788,"LANDMARKID":"1002000000007","LANDMARKCO":"101","LANDMARKNA":"國有財產局台灣南區辦事處嘉義分處","LANDMARKAD":"1002001","ADDRESS":"嘉義市中山路94號","TEL":"05-2718165","COUNTYNAME":"嘉義市","TOWNNAME":"東區","MARKTYPE":"991","Class":"1"},"geometry":{"x":194654.79999999981,"y":2597793.2704000007}},{"attributes":{"OBJECTID":26789,"LANDMARKID":"1002000000019","LANDMARKCO":"103","LANDMARKNA":"嘉義市東區衛生所","LANDMARKAD":"1002001","ADDRESS":"嘉義市大雅路二段625號","TEL":"05-2750423","COUNTYNAME":"嘉義市","TOWNNAME":"東區","MARKTYPE":"991","Class":"1"},"geometry":{"x":195480.94240000006,"y":2597189.9199999999}},{"attributes":{"OBJECTID":26790,"LANDMARKID":"1002000000044","LANDMARKCO":"107","LANDMARKNA":"嘉義市警察局","LANDMARKAD":"1002001","ADDRESS":"嘉義市中山路195號","TEL":"05-2274454","COUNTYNAME":"嘉義市","TOWNNAME":"東區","MARKTYPE":"991","Class":"1"},"geometry":{"x":194287.06340000033,"y":2597698.9572000001}},{"attributes":{"OBJECTID":26791,"LANDMARKID":"1002000000045","LANDMARKCO":"107","LANDMARKNA":"嘉義市消防局後湖消防分隊","LANDMARKAD":"1002001","ADDRESS":"嘉義市保健街123號","TEL":"05-2761851","COUNTYNAME":"嘉義市","TOWNNAME":"東區","MARKTYPE":"991","Class":"1"},"geometry":{"x":194076.76339999959,"y":2599820.9598999992}},{"attributes":{"OBJECTID":26792,"LANDMARKID":"1002000000009","LANDMARKCO":"101","LANDMARKNA":"嘉義區監理所","LANDMARKAD":"1002001","ADDRESS":"嘉義市保健街89號","TEL":"05-2770150","COUNTYNAME":"嘉義市","TOWNNAME":"東區","MARKTYPE":"991","Class":"1"},"geometry":{"x":194250.83750000037,"y":2599800.5390000008}},{"attributes":{"OBJECTID":26793,"LANDMARKID":"1002000000114","LANDMARKCO":"205","LANDMARKNA":"嘉義市立博物館","LANDMARKAD":"1002001","ADDRESS":"嘉義市東區忠孝路275之1號","TEL":"05-2780303","COUNTYNAME":"嘉義市","TOWNNAME":"東區","MARKTYPE":"992","Class":"2"},"geometry":{"x":194062.45909999963,"y":2598361.8465}},{"attributes":{"OBJECTID":26794,"LANDMARKID":"1002000000112","LANDMARKCO":"204","LANDMARKNA":"嘉義市立圖書館","LANDMARKAD":"1002001","ADDRESS":"嘉義市東區忠孝路275號","TEL":" ","COUNTYNAME":"嘉義市","TOWNNAME":"東區","MARKTYPE":"992","Class":"2"},"geometry":{"x":194080.4606999997,"y":2598343.8217999991}},{"attributes":{"OBJECTID":26795,"LANDMARKID":"1002000000066","LANDMARKCO":"202","LANDMARKNA":"國立嘉義高中","LANDMARKAD":"1002001","ADDRESS":"嘉義市大雅路二段738號","TEL":"05-2762804","COUNTYNAME":"嘉義市","TOWNNAME":"東區","MARKTYPE":"992","Class":"2"},"geometry":{"x":195325.67250000034,"y":2597203.0930000003}},{"attributes":{"OBJECTID":26796,"LANDMARKID":"1002000000067","LANDMARKCO":"202","LANDMARKNA":"私立輔仁高中","LANDMARKAD":"1002001","ADDRESS":"嘉義市吳鳳南路270號","TEL":"05-2281001","COUNTYNAME":"嘉義市","TOWNNAME":"東區","MARKTYPE":"992","Class":"2"},"geometry":{"x":194529.05059999973,"y":2595402.3307000007}},{"attributes":{"OBJECTID":26797,"LANDMARKID":"1002000000068","LANDMARKCO":"202","LANDMARKNA":"私立宏仁女中","LANDMARKAD":"1002001","ADDRESS":"嘉義市忠孝路667號","TEL":"05-2322802","COUNTYNAME":"嘉義市","TOWNNAME":"東區","MARKTYPE":"992","Class":"2"},"geometry":{"x":193462.1484000003,"y":2600431.0287999995}},{"attributes":{"OBJECTID":26798,"LANDMARKID":"1002000000069","LANDMARKCO":"202","LANDMARKNA":"私立興華高中","LANDMARKAD":"1002001","ADDRESS":"嘉義市林森東路239號","TEL":"05-2764317","COUNTYNAME":"嘉義市","TOWNNAME":"東區","MARKTYPE":"992","Class":"2"},"geometry":{"x":195335.47460000031,"y":2598588.6084000003}},{"attributes":{"OBJECTID":26799,"LANDMARKID":"1002000000070","LANDMARKCO":"202","LANDMARKNA":"私立嘉華高中","LANDMARKAD":"1002001","ADDRESS":"嘉義市民權東路45號","TEL":"05-2761716","COUNTYNAME":"嘉義市","TOWNNAME":"東區","MARKTYPE":"992","Class":"2"},"geometry":{"x":196605.83029999956,"y":2597883.3563000001}},{"attributes":{"OBJECTID":26800,"LANDMARKID":"1002000000071","LANDMARKCO":"202","LANDMARKNA":"私立仁義高中","LANDMARKAD":"1002001","ADDRESS":"嘉義市鹿寮里紅毛埤125之1號","TEL":"05-2765555","COUNTYNAME":"嘉義市","TOWNNAME":"東區","MARKTYPE":"992","Class":"2"},"geometry":{"x":197554.19120000023,"y":2595274.4541999996}}]}