{"displayFieldName":"COUNTYNAME","fieldAliases":{"OBJECTID":"OBJECTID","LANDMARKID":"LANDMARKID","LANDMARKCO":"LANDMARKCO","LANDMARKNA":"LANDMARKNA","LANDMARKAD":"LANDMARKAD","ADDRESS":"ADDRESS","TEL":"TEL","COUNTYNAME":"COUNTYNAME","TOWNNAME":"TOWNNAME","MARKTYPE":"MARKTYPE","Class":"Class"},"geometryType":"esriGeometryPoint","spatialReference":{"wkid":102443},"fields":[{"name":"OBJECTID","type":"esriFieldTypeOID","alias":"OBJECTID"},{"name":"LANDMARKID","type":"esriFieldTypeString","alias":"LANDMARKID","length":15},{"name":"LANDMARKCO","type":"esriFieldTypeString","alias":"LANDMARKCO","length":15},{"name":"LANDMARKNA","type":"esriFieldTypeString","alias":"LANDMARKNA","length":50},{"name":"LANDMARKAD","type":"esriFieldTypeString","alias":"LANDMARKAD","length":15},{"name":"ADDRESS","type":"esriFieldTypeString","alias":"ADDRESS","length":56},{"name":"TEL","type":"esriFieldTypeString","alias":"TEL","length":36},{"name":"COUNTYNAME","type":"esriFieldTypeString","alias":"COUNTYNAME","length":15},{"name":"TOWNNAME","type":"esriFieldTypeString","alias":"TOWNNAME","length":13},{"name":"MARKTYPE","type":"esriFieldTypeString","alias":"MARKTYPE","length":12},{"name":"Class","type":"esriFieldTypeString","alias":"Class","length":5}],"features":[{"attributes":{"OBJECTID":13401,"LANDMARKID":"1000600001055","LANDMARKCO":"405","LANDMARKNA":"中油加油站-德芳站","LANDMARKAD":"1000620","ADDRESS":"台中市大里區大里里德芳南路251號","TEL":"04-24834118","COUNTYNAME":"台中市","TOWNNAME":"大里區","MARKTYPE":"994","Class":"4"},"geometry":{"x":218158.85680000018,"y":2666363.5401000008}},{"attributes":{"OBJECTID":13402,"LANDMARKID":"1000600001056","LANDMARKCO":"405","LANDMARKNA":"中油加油站-竹塘二站","LANDMARKAD":"1000620","ADDRESS":"台中市大里區樹王路314號","TEL":"04-24063202","COUNTYNAME":"台中市","TOWNNAME":"大里區","MARKTYPE":"994","Class":"4"},"geometry":{"x":216002.46289999969,"y":2667308.4712000005}},{"attributes":{"OBJECTID":13403,"LANDMARKID":"1000600001057","LANDMARKCO":"405","LANDMARKNA":"統一速邁樂加油站-大里二站加油站(中油)","LANDMARKAD":"1000620","ADDRESS":"台中市大里區中興路二段412號","TEL":" ","COUNTYNAME":"台中市","TOWNNAME":"大里區","MARKTYPE":"994","Class":"4"},"geometry":{"x":218493.02630000003,"y":2667013.8961999994}},{"attributes":{"OBJECTID":13404,"LANDMARKID":"1000600001058","LANDMARKCO":"405","LANDMARKNA":"中油加油站-大勝站","LANDMARKAD":"1000620","ADDRESS":"台中市大里區大明路482號","TEL":"04-24076990","COUNTYNAME":"台中市","TOWNNAME":"大里區","MARKTYPE":"994","Class":"4"},"geometry":{"x":216961.18890000042,"y":2667813.5371000003}},{"attributes":{"OBJECTID":13405,"LANDMARKID":"1000600001059","LANDMARKCO":"405","LANDMARKNA":"中油加油站-大峰站","LANDMARKAD":"1000620","ADDRESS":"台中市大里區東湖里大峰路197號","TEL":"04-24937297","COUNTYNAME":"台中市","TOWNNAME":"大里區","MARKTYPE":"994","Class":"4"},"geometry":{"x":218232.7603000002,"y":2664524.7508000005}},{"attributes":{"OBJECTID":13406,"LANDMARKID":"1000600001060","LANDMARKCO":"405","LANDMARKNA":"中油加油站-佑晟站","LANDMARKAD":"1000620","ADDRESS":"台中市大里區仁化路345號","TEL":"04-24913945","COUNTYNAME":"台中市","TOWNNAME":"大里區","MARKTYPE":"994","Class":"4"},"geometry":{"x":220150.29849999957,"y":2665538.6536999997}},{"attributes":{"OBJECTID":13407,"LANDMARKID":"1000600001061","LANDMARKCO":"405","LANDMARKNA":"中油加油站-仁化站","LANDMARKAD":"1000620","ADDRESS":"台中市大里區仁化里仁化路686號","TEL":"04-24919529","COUNTYNAME":"台中市","TOWNNAME":"大里區","MARKTYPE":"994","Class":"4"},"geometry":{"x":218940.01319999993,"y":2665626.5098000001}},{"attributes":{"OBJECTID":13408,"LANDMARKID":"1000600001062","LANDMARKCO":"405","LANDMARKNA":"中油加油站-仁友站","LANDMARKAD":"1000620","ADDRESS":"台中市大里區仁化里仁化路678號","TEL":"04-24918876","COUNTYNAME":"台中市","TOWNNAME":"大里區","MARKTYPE":"994","Class":"4"},"geometry":{"x":219023.81840000022,"y":2665729.0974000003}},{"attributes":{"OBJECTID":13409,"LANDMARKID":"1000600001063","LANDMARKCO":"405","LANDMARKNA":"山隆加油站-大里站(中油)","LANDMARKAD":"1000620","ADDRESS":"台中市大里區國光路一段71號","TEL":"(04)2407-8672","COUNTYNAME":"台中市","TOWNNAME":"大里區","MARKTYPE":"994","Class":"4"},"geometry":{"x":217907.51740000024,"y":2665752.3797999993}},{"attributes":{"OBJECTID":13410,"LANDMARKID":"1000600001064","LANDMARKCO":"405","LANDMARKNA":"中油加油站-金達站","LANDMARKAD":"1000620","ADDRESS":"台中市大里區國光路一段88號","TEL":"04-24838556","COUNTYNAME":"台中市","TOWNNAME":"大里區","MARKTYPE":"994","Class":"4"},"geometry":{"x":217917.15600000042,"y":2665846.0741000008}},{"attributes":{"OBJECTID":13411,"LANDMARKID":"1000600001065","LANDMARKCO":"405","LANDMARKNA":"中油加油站-立新站","LANDMARKAD":"1000620","ADDRESS":"台中市大里區新仁里新仁路一段71號之38","TEL":"037-22792201","COUNTYNAME":"台中市","TOWNNAME":"大里區","MARKTYPE":"994","Class":"4"},"geometry":{"x":220151.43539999984,"y":2667413.1331999991}},{"attributes":{"OBJECTID":13412,"LANDMARKID":"1000600001066","LANDMARKCO":"405","LANDMARKNA":"中油加油站-台灣優力大明站","LANDMARKAD":"1000620","ADDRESS":"台中市大里區東興里大明路402號","TEL":"04-24067046","COUNTYNAME":"台中市","TOWNNAME":"大里區","MARKTYPE":"994","Class":"4"},"geometry":{"x":217203.21789999958,"y":2667809.3289999999}},{"attributes":{"OBJECTID":13413,"LANDMARKID":"1000600001067","LANDMARKCO":"405","LANDMARKNA":"台糖加油站-鳳凰站(中油)","LANDMARKAD":"1000620","ADDRESS":"台中市大里區健民里鳳凰路50號","TEL":" ","COUNTYNAME":"台中市","TOWNNAME":"大里區","MARKTYPE":"994","Class":"4"},"geometry":{"x":221174.90240000002,"y":2665565.0851000007}},{"attributes":{"OBJECTID":13414,"LANDMARKID":"1000600001068","LANDMARKCO":"405","LANDMARKNA":"中油加油站-大義站","LANDMARKAD":"1000620","ADDRESS":"台中市大里區中興路二段186號","TEL":"04-24853031","COUNTYNAME":"台中市","TOWNNAME":"大里區","MARKTYPE":"994","Class":"4"},"geometry":{"x":218298.68059999961,"y":2666265.5131999999}},{"attributes":{"OBJECTID":13415,"LANDMARKID":"1000600001069","LANDMARKCO":"405","LANDMARKNA":"統一速邁樂加油站-樹王站(中油)","LANDMARKAD":"1000620","ADDRESS":"台中市大里區文心南路1511號","TEL":"04-24079501","COUNTYNAME":"台中市","TOWNNAME":"大里區","MARKTYPE":"994","Class":"4"},"geometry":{"x":215617.79129999969,"y":2667099.3901000004}},{"attributes":{"OBJECTID":13416,"LANDMARKID":"1000600000855","LANDMARKCO":"402","LANDMARKNA":"My Phone台灣大哥大-台中大里直營服務中心","LANDMARKAD":"1000620","ADDRESS":"台中市大里區中興路二段361之1號","TEL":" ","COUNTYNAME":"台中市","TOWNNAME":"大里區","MARKTYPE":"994","Class":"4"},"geometry":{"x":218473.82290000003,"y":2667396.8556999993}},{"attributes":{"OBJECTID":13417,"LANDMARKID":"1000600000856","LANDMARKCO":"402","LANDMARKNA":"亞太行動寬頻電信-大里成功加盟服務中心","LANDMARKAD":"1000620","ADDRESS":"台中市大里區成功路509號","TEL":"04-24963192","COUNTYNAME":"台中市","TOWNNAME":"大里區","MARKTYPE":"994","Class":"4"},"geometry":{"x":219774.77390000038,"y":2665096.0079999994}},{"attributes":{"OBJECTID":13418,"LANDMARKID":"1000600000857","LANDMARKCO":"402","LANDMARKNA":"亞太行動寬頻電信-大里中興加盟服務中心","LANDMARKAD":"1000620","ADDRESS":"台中市大里區中興路379之1號","TEL":"04-24864777","COUNTYNAME":"台中市","TOWNNAME":"大里區","MARKTYPE":"994","Class":"4"},"geometry":{"x":218458.87239999976,"y":2667421.1918000001}},{"attributes":{"OBJECTID":13419,"LANDMARKID":"1000600000858","LANDMARKCO":"402","LANDMARKNA":"亞太行動寬頻電信-台中大里加盟服務中心","LANDMARKAD":"1000620","ADDRESS":"台中市大里區中興路一段293號","TEL":"04-24969506","COUNTYNAME":"台中市","TOWNNAME":"大里區","MARKTYPE":"994","Class":"4"},"geometry":{"x":218623.19519999996,"y":2665210.3242000006}},{"attributes":{"OBJECTID":13420,"LANDMARKID":"1000600000859","LANDMARKCO":"402","LANDMARKNA":"亞太行動寬頻電信-大里益民加盟服務中心","LANDMARKAD":"1000620","ADDRESS":"台中市大里區益民路二段228號","TEL":"04-24834191","COUNTYNAME":"台中市","TOWNNAME":"大里區","MARKTYPE":"994","Class":"4"},"geometry":{"x":217864.41889999993,"y":2667199.8772999998}},{"attributes":{"OBJECTID":13421,"LANDMARKID":"1000600000759","LANDMARKCO":"401","LANDMARKNA":"新菩提醫院","LANDMARKAD":"1000620","ADDRESS":"台中市大里區中興路二段621號","TEL":"04-04829966","COUNTYNAME":"台中市","TOWNNAME":"大里區","MARKTYPE":"994","Class":"4"},"geometry":{"x":218433.69230000023,"y":2667810.1346000005}},{"attributes":{"OBJECTID":13422,"LANDMARKID":"1000600000760","LANDMARKCO":"401","LANDMARKNA":"達明眼科醫院","LANDMARKAD":"1000620","ADDRESS":"台中市大里區中興路二段490號","TEL":"04-24851437","COUNTYNAME":"台中市","TOWNNAME":"大里區","MARKTYPE":"994","Class":"4"},"geometry":{"x":218497.94089999981,"y":2667390.2782000005}},{"attributes":{"OBJECTID":13423,"LANDMARKID":"1000600000761","LANDMARKCO":"401","LANDMARKNA":"仁愛醫療財團法人大里仁愛醫院","LANDMARKAD":"1000620","ADDRESS":"台中市大里區東榮路483號","TEL":"04-24819900","COUNTYNAME":"台中市","TOWNNAME":"大里區","MARKTYPE":"994","Class":"4"},"geometry":{"x":217560.71949999966,"y":2667181.0822999999}},{"attributes":{"OBJECTID":13424,"LANDMARKID":"1000600001170","LANDMARKCO":"408","LANDMARKNA":"郵局-大里仁化郵局","LANDMARKAD":"1000620","ADDRESS":"台中市大里區至善路30號","TEL":"(04)2495-0188","COUNTYNAME":"台中市","TOWNNAME":"大里區","MARKTYPE":"994","Class":"4"},"geometry":{"x":219842.59399999958,"y":2665399.1373999994}},{"attributes":{"OBJECTID":13425,"LANDMARKID":"1000600001171","LANDMARKCO":"408","LANDMARKNA":"郵局-大里郵局","LANDMARKAD":"1000620","ADDRESS":"台中市大里區中興路2段520號","TEL":"(04)2482-5771","COUNTYNAME":"台中市","TOWNNAME":"大里區","MARKTYPE":"994","Class":"4"},"geometry":{"x":218495.47539999988,"y":2667501.5183000006}},{"attributes":{"OBJECTID":13426,"LANDMARKID":"1000600001172","LANDMARKCO":"408","LANDMARKNA":"郵局-大里大新街郵局","LANDMARKAD":"1000620","ADDRESS":"台中市大里區大新街34-1號","TEL":"(04)2406-3514","COUNTYNAME":"台中市","TOWNNAME":"大里區","MARKTYPE":"994","Class":"4"},"geometry":{"x":217336.33770000003,"y":2666087.7994999997}},{"attributes":{"OBJECTID":13427,"LANDMARKID":"1000600001173","LANDMARKCO":"408","LANDMARKNA":"郵局-大里草湖郵局","LANDMARKAD":"1000620","ADDRESS":"台中市大里區中興路1段292-9號","TEL":"(04)2492-3050","COUNTYNAME":"台中市","TOWNNAME":"大里區","MARKTYPE":"994","Class":"4"},"geometry":{"x":219091.47829999961,"y":2664795.2166000009}},{"attributes":{"OBJECTID":13428,"LANDMARKID":"1000600001243","LANDMARKCO":"409","LANDMARKNA":"台中市大里區農會","LANDMARKAD":"1000620","ADDRESS":"台中市大里區新里里新興路101號","TEL":"04-24068011","COUNTYNAME":"台中市","TOWNNAME":"大里區","MARKTYPE":"994","Class":"4"},"geometry":{"x":217116.93869999982,"y":2666231.1013999991}},{"attributes":{"OBJECTID":13429,"LANDMARKID":"1000600001244","LANDMARKCO":"409","LANDMARKNA":"台灣省農會","LANDMARKAD":"1000620","ADDRESS":"台中市大里區中興路二段522號","TEL":"04-24853063","COUNTYNAME":"台中市","TOWNNAME":"大里區","MARKTYPE":"994","Class":"4"},"geometry":{"x":218495.8161000004,"y":2667551.6911999993}},{"attributes":{"OBJECTID":13430,"LANDMARKID":"1000600000888","LANDMARKCO":"404","LANDMARKNA":"台灣自來水大里服務所","LANDMARKAD":"1000620","ADDRESS":"臺中縣大里區至聖路64號","TEL":"04-24821831","COUNTYNAME":"台中市","TOWNNAME":"大里區","MARKTYPE":"994","Class":"4"},"geometry":{"x":218606.9776999997,"y":2666623.4970999993}},{"attributes":{"OBJECTID":13431,"LANDMARKID":"1000600001111","LANDMARKCO":"406","LANDMARKNA":"日新公園","LANDMARKAD":"1000620","ADDRESS":"台中市大里區","TEL":" ","COUNTYNAME":"台中市","TOWNNAME":"大里區","MARKTYPE":"994","Class":"4"},"geometry":{"x":218625.5848000003,"y":2668469.4913999997}},{"attributes":{"OBJECTID":13432,"LANDMARKID":"1000600001112","LANDMARKCO":"406","LANDMARKNA":"大里國家公園","LANDMARKAD":"1000620","ADDRESS":"台中市大里區","TEL":" ","COUNTYNAME":"台中市","TOWNNAME":"大里區","MARKTYPE":"994","Class":"4"},"geometry":{"x":218827.32720000017,"y":2667259.4411999993}},{"attributes":{"OBJECTID":13433,"LANDMARKID":"1000600001113","LANDMARKCO":"406","LANDMARKNA":"大里公園","LANDMARKAD":"1000620","ADDRESS":"台中市大里區","TEL":" ","COUNTYNAME":"台中市","TOWNNAME":"大里區","MARKTYPE":"994","Class":"4"},"geometry":{"x":218202.01470000017,"y":2667154.8653999995}},{"attributes":{"OBJECTID":13434,"LANDMARKID":"1000600001114","LANDMARKCO":"406","LANDMARKNA":"環保公園","LANDMARKAD":"1000620","ADDRESS":"台中市大里區","TEL":" ","COUNTYNAME":"台中市","TOWNNAME":"大里區","MARKTYPE":"994","Class":"4"},"geometry":{"x":217343.90270000044,"y":2666647.7948000003}},{"attributes":{"OBJECTID":13435,"LANDMARKID":"1000600000887","LANDMARKCO":"404","LANDMARKNA":"台灣省自來水大里服務所","LANDMARKAD":"1000620","ADDRESS":"台中市大里區至聖路64號","TEL":" ","COUNTYNAME":"台中市","TOWNNAME":"大里區","MARKTYPE":"994","Class":"4"},"geometry":{"x":217776.95299999975,"y":2666847.1329999994}},{"attributes":{"OBJECTID":13436,"LANDMARKID":"1000600001070","LANDMARKCO":"405","LANDMARKNA":"全國加油站-大里站（台塑）","LANDMARKAD":"1000620","ADDRESS":"台中市大里區樹王里文心南路1120號","TEL":"04-24064340","COUNTYNAME":"台中市","TOWNNAME":"大里區","MARKTYPE":"994","Class":"4"},"geometry":{"x":215751.37119999994,"y":2667053.2960000001}},{"attributes":{"OBJECTID":13437,"LANDMARKID":"1000600001071","LANDMARKCO":"405","LANDMARKNA":"全國加油站-樹王站（台塑）","LANDMARKAD":"1000620","ADDRESS":"台中市大里區樹王路50-10-15號","TEL":"04-24077559","COUNTYNAME":"台中市","TOWNNAME":"大里區","MARKTYPE":"994","Class":"4"},"geometry":{"x":216665.25079999957,"y":2666733.7374000009}},{"attributes":{"OBJECTID":13438,"LANDMARKID":"1000600000264","LANDMARKCO":"108","LANDMARKNA":"台中市大里區公所","LANDMARKAD":"1000620","ADDRESS":"台中市大里區大新街36號","TEL":"04-24063979","COUNTYNAME":"台中市","TOWNNAME":"大里區","MARKTYPE":"991","Class":"1"},"geometry":{"x":217232.46690000035,"y":2666060.6394999996}},{"attributes":{"OBJECTID":13439,"LANDMARKID":"1000600000045","LANDMARKCO":"103","LANDMARKNA":"台中市大里區市民代表會","LANDMARKAD":"1000620","ADDRESS":"台中市大里區大新街36之1號","TEL":"04-24063425","COUNTYNAME":"台中市","TOWNNAME":"大里區","MARKTYPE":"991","Class":"1"},"geometry":{"x":217307.42190000042,"y":2666080.1601999998}},{"attributes":{"OBJECTID":13440,"LANDMARKID":"1000600000133","LANDMARKCO":"107","LANDMARKNA":"台中市警察局國光派出所","LANDMARKAD":"1000620","ADDRESS":"台中市大里區永大街136號","TEL":"04-24180231","COUNTYNAME":"台中市","TOWNNAME":"大里區","MARKTYPE":"991","Class":"1"},"geometry":{"x":217501.81269999966,"y":2667140.5980999991}},{"attributes":{"OBJECTID":13441,"LANDMARKID":"1000600000134","LANDMARKCO":"107","LANDMARKNA":"台中市警察局仁化派出所","LANDMARKAD":"1000620","ADDRESS":"台中市大里區仁化路198號","TEL":"04-24952010","COUNTYNAME":"台中市","TOWNNAME":"大里區","MARKTYPE":"991","Class":"1"},"geometry":{"x":221518.46800000034,"y":2665470.0929000005}},{"attributes":{"OBJECTID":13442,"LANDMARKID":"1000600000093","LANDMARKCO":"105","LANDMARKNA":"台中市大里地政事務所","LANDMARKAD":"1000620","ADDRESS":"台中市大里區東榮路296號","TEL":"04-24818870","COUNTYNAME":"台中市","TOWNNAME":"大里區","MARKTYPE":"991","Class":"1"},"geometry":{"x":218039.45449999999,"y":2667300.5272000004}},{"attributes":{"OBJECTID":13443,"LANDMARKID":"1000600000132","LANDMARKCO":"107","LANDMARKNA":"台中市警察局大里分駐所","LANDMARKAD":"1000620","ADDRESS":"台中市大里區新里里新興路5號","TEL":"04-24060634","COUNTYNAME":"台中市","TOWNNAME":"大里區","MARKTYPE":"991","Class":"1"},"geometry":{"x":217142.13439999986,"y":2665909.1017000005}},{"attributes":{"OBJECTID":13444,"LANDMARKID":"1000600000118","LANDMARKCO":"106","LANDMARKNA":"台中市大里區戶政事務所","LANDMARKAD":"1000620","ADDRESS":"台中市大里區新里里11鄰新興路7號","TEL":"04-24063251","COUNTYNAME":"台中市","TOWNNAME":"大里區","MARKTYPE":"991","Class":"1"},"geometry":{"x":217135.09049999993,"y":2665923.8255000003}},{"attributes":{"OBJECTID":13445,"LANDMARKID":"1000600000131","LANDMARKCO":"107","LANDMARKNA":"台中市消防局大里分隊","LANDMARKAD":"1000620","ADDRESS":"台中市大里區大里路289號","TEL":"04-24060653","COUNTYNAME":"台中市","TOWNNAME":"大里區","MARKTYPE":"991","Class":"1"},"geometry":{"x":217333.33750000037,"y":2665868.2695000004}},{"attributes":{"OBJECTID":13446,"LANDMARKID":"1000600000046","LANDMARKCO":"103","LANDMARKNA":"台中市大里區衛生所","LANDMARKAD":"1000620","ADDRESS":"台中市大里區大里村大衛路82號","TEL":"04-24061500","COUNTYNAME":"台中市","TOWNNAME":"大里區","MARKTYPE":"991","Class":"1"},"geometry":{"x":217388.72979999986,"y":2665889.2161999997}},{"attributes":{"OBJECTID":13447,"LANDMARKID":"1000600000139","LANDMARKCO":"107","LANDMARKNA":"成功派出所","LANDMARKAD":"1000620","ADDRESS":"台中市大里區成功路9號","TEL":"04-24969293","COUNTYNAME":"台中市","TOWNNAME":"大里區","MARKTYPE":"991","Class":"1"},"geometry":{"x":219263.7770999996,"y":2664472.4140000008}},{"attributes":{"OBJECTID":13448,"LANDMARKID":"1000600000092","LANDMARKCO":"104","LANDMARKNA":"中區國稅局大屯稽徵所","LANDMARKAD":"1000620","ADDRESS":"台中市大里區中興路二段633號","TEL":"04-24852934","COUNTYNAME":"台中市","TOWNNAME":"大里區","MARKTYPE":"991","Class":"1"},"geometry":{"x":218437.60379999969,"y":2667850.1471999995}},{"attributes":{"OBJECTID":13449,"LANDMARKID":"1000600000135","LANDMARKCO":"107","LANDMARKNA":"台中市警察局十九甲派出所","LANDMARKAD":"1000620","ADDRESS":"臺中縣大里區立德里立元路115號","TEL":"04-22706613","COUNTYNAME":"台中市","TOWNNAME":"大里區","MARKTYPE":"991","Class":"1"},"geometry":{"x":219712.65029999986,"y":2666910.4562999997}},{"attributes":{"OBJECTID":13450,"LANDMARKID":"1000600000136","LANDMARKCO":"107","LANDMARKNA":"台中市警察局內新派出所","LANDMARKAD":"1000620","ADDRESS":"台中市大里區內新里中興路二段598號","TEL":"04-24875584","COUNTYNAME":"台中市","TOWNNAME":"大里區","MARKTYPE":"991","Class":"1"},"geometry":{"x":218472.69249999989,"y":2667810.2248999998}},{"attributes":{"OBJECTID":13451,"LANDMARKID":"1000600000137","LANDMARKCO":"107","LANDMARKNA":"台中市消防局第三大隊部","LANDMARKAD":"1000620","ADDRESS":"台中市大里區國光路二段299號3樓","TEL":"04-24180911","COUNTYNAME":"台中市","TOWNNAME":"大里區","MARKTYPE":"991","Class":"1"},"geometry":{"x":221024.94319999963,"y":2665540.2383999992}},{"attributes":{"OBJECTID":13452,"LANDMARKID":"1000600000138","LANDMARKCO":"107","LANDMARKNA":"台中市消防局仁化分隊","LANDMARKAD":"1000620","ADDRESS":"台中市大里區工業四路1號","TEL":"04-24914705","COUNTYNAME":"台中市","TOWNNAME":"大里區","MARKTYPE":"991","Class":"1"},"geometry":{"x":221024.96349999961,"y":2665530.2383999992}},{"attributes":{"OBJECTID":13453,"LANDMARKID":"1000600000540","LANDMARKCO":"204","LANDMARKNA":"台中市立圖書館大里分館","LANDMARKAD":"1000620","ADDRESS":"台中市大里區西榮里德芳路一段229號4樓","TEL":" ","COUNTYNAME":"台中市","TOWNNAME":"大里區","MARKTYPE":"992","Class":"2"},"geometry":{"x":218078.88169999979,"y":2667019.9415000007}},{"attributes":{"OBJECTID":13454,"LANDMARKID":"1000600000541","LANDMARKCO":"204","LANDMARKNA":"台中市立圖書館大里大新分館","LANDMARKAD":"1000620","ADDRESS":"台中市大里區大新街36之1號","TEL":" ","COUNTYNAME":"台中市","TOWNNAME":"大里區","MARKTYPE":"992","Class":"2"},"geometry":{"x":217267.07629999984,"y":2666074.9290999994}},{"attributes":{"OBJECTID":13455,"LANDMARKID":"1000600000292","LANDMARKCO":"202","LANDMARKNA":"國立大里高中","LANDMARKAD":"1000620","ADDRESS":"台中市大里區東榮路369號","TEL":"04-24875199","COUNTYNAME":"台中市","TOWNNAME":"大里區","MARKTYPE":"992","Class":"2"},"geometry":{"x":217763.76769999973,"y":2667160.5468000006}},{"attributes":{"OBJECTID":13456,"LANDMARKID":"1000600000293","LANDMARKCO":"202","LANDMARKNA":"私立僑泰高中","LANDMARKAD":"1000620","ADDRESS":"台中市大里區樹王路342號","TEL":"04-24060221","COUNTYNAME":"台中市","TOWNNAME":"大里區","MARKTYPE":"992","Class":"2"},"geometry":{"x":216230.78309999965,"y":2667460.2824000008}},{"attributes":{"OBJECTID":13457,"LANDMARKID":"1000600000294","LANDMARKCO":"202","LANDMARKNA":"私立僑泰高中附設國中部","LANDMARKAD":"1000620","ADDRESS":"台中市大里區樹王路342號","TEL":"04-24060221","COUNTYNAME":"台中市","TOWNNAME":"大里區","MARKTYPE":"992","Class":"2"},"geometry":{"x":216230.78309999965,"y":2667460.2824000008}},{"attributes":{"OBJECTID":13458,"LANDMARKID":"1000600000465","LANDMARKCO":"203","LANDMARKNA":"縣立立新國中","LANDMARKAD":"1000620","ADDRESS":"台中市大里區甲堤路236號","TEL":"04-22732299","COUNTYNAME":"台中市","TOWNNAME":"大里區","MARKTYPE":"992","Class":"2"},"geometry":{"x":219433.54470000044,"y":2667266.4430999998}},{"attributes":{"OBJECTID":13459,"LANDMARKID":"1000600000466","LANDMARKCO":"203","LANDMARKNA":"縣立成功國中","LANDMARKAD":"1000620","ADDRESS":"台中市大里區至善路157號","TEL":"04-24927226","COUNTYNAME":"台中市","TOWNNAME":"大里區","MARKTYPE":"992","Class":"2"},"geometry":{"x":219384.58770000003,"y":2665400.3694000002}},{"attributes":{"OBJECTID":13460,"LANDMARKID":"1000600000467","LANDMARKCO":"203","LANDMARKNA":"縣立光榮國中","LANDMARKAD":"1000620","ADDRESS":"台中市大里區東榮路280號","TEL":"04-24831428","COUNTYNAME":"台中市","TOWNNAME":"大里區","MARKTYPE":"992","Class":"2"},"geometry":{"x":218220.98629999999,"y":2667370.2965999991}},{"attributes":{"OBJECTID":13461,"LANDMARKID":"1000600000468","LANDMARKCO":"203","LANDMARKNA":"縣立永隆國小","LANDMARKAD":"1000620","ADDRESS":"台中市大里區永隆五街2號","TEL":"04-24066637","COUNTYNAME":"台中市","TOWNNAME":"大里區","MARKTYPE":"992","Class":"2"},"geometry":{"x":217207.92210000008,"y":2667400.5752000008}},{"attributes":{"OBJECTID":13462,"LANDMARKID":"1000600000469","LANDMARKCO":"203","LANDMARKNA":"縣立草湖國小","LANDMARKAD":"1000620","ADDRESS":"台中市大里區西湖村西湖路32號","TEL":"04-23393078","COUNTYNAME":"台中市","TOWNNAME":"大里區","MARKTYPE":"992","Class":"2"},"geometry":{"x":218501.8049999997,"y":2663760.3082999997}},{"attributes":{"OBJECTID":13463,"LANDMARKID":"1000600000470","LANDMARKCO":"203","LANDMARKNA":"縣立健民國小","LANDMARKAD":"1000620","ADDRESS":"台中市大里區健民村校前路26號","TEL":"04-23342342","COUNTYNAME":"台中市","TOWNNAME":"大里區","MARKTYPE":"992","Class":"2"},"geometry":{"x":222415.85309999995,"y":2664970.1886}},{"attributes":{"OBJECTID":13464,"LANDMARKID":"1000600000471","LANDMARKCO":"203","LANDMARKNA":"縣立大元國小","LANDMARKAD":"1000620","ADDRESS":"台中市大里區現岱路60號","TEL":"04-24834568","COUNTYNAME":"台中市","TOWNNAME":"大里區","MARKTYPE":"992","Class":"2"},"geometry":{"x":218538.93950000033,"y":2666160.3784999996}},{"attributes":{"OBJECTID":13465,"LANDMARKID":"1000600000472","LANDMARKCO":"203","LANDMARKNA":"縣立塗城國小","LANDMARKAD":"1000620","ADDRESS":"台中市大里區仁德里文化街120號","TEL":"04-24922935","COUNTYNAME":"台中市","TOWNNAME":"大里區","MARKTYPE":"992","Class":"2"},"geometry":{"x":219594.78139999975,"y":2665310.2124000005}},{"attributes":{"OBJECTID":13466,"LANDMARKID":"1000600000290","LANDMARKCO":"202","LANDMARKNA":"縣立大里高中","LANDMARKAD":"1000620","ADDRESS":"台中市大里區國中路365號","TEL":"04-24067870","COUNTYNAME":"台中市","TOWNNAME":"大里區","MARKTYPE":"992","Class":"2"},"geometry":{"x":217340.13129999954,"y":2665391.1681999993}},{"attributes":{"OBJECTID":13467,"LANDMARKID":"1000600000291","LANDMARKCO":"202","LANDMARKNA":"縣立大里高中附設國中部","LANDMARKAD":"1000620","ADDRESS":"台中市大里區國中路365號","TEL":"04-24067870","COUNTYNAME":"台中市","TOWNNAME":"大里區","MARKTYPE":"992","Class":"2"},"geometry":{"x":217340.13129999954,"y":2665391.1681999993}},{"attributes":{"OBJECTID":13468,"LANDMARKID":"1000600000473","LANDMARKCO":"203","LANDMARKNA":"縣立光正國中","LANDMARKAD":"1000620","ADDRESS":"台中市大里區鳳凰路68號","TEL":"04-24911599","COUNTYNAME":"台中市","TOWNNAME":"大里區","MARKTYPE":"992","Class":"2"},"geometry":{"x":221370.57060000021,"y":2665645.9630999994}},{"attributes":{"OBJECTID":13469,"LANDMARKID":"1000600000474","LANDMARKCO":"203","LANDMARKNA":"縣立爽文國中","LANDMARKAD":"1000620","ADDRESS":"台中市大里區永隆三街1號","TEL":"04-24067545","COUNTYNAME":"台中市","TOWNNAME":"大里區","MARKTYPE":"992","Class":"2"},"geometry":{"x":217319.05950000044,"y":2666969.2420000006}},{"attributes":{"OBJECTID":13470,"LANDMARKID":"1000600000475","LANDMARKCO":"203","LANDMARKNA":"縣立崇光國小","LANDMARKAD":"1000620","ADDRESS":"台中市大里區大明路181號","TEL":"04-24818836","COUNTYNAME":"台中市","TOWNNAME":"大里區","MARKTYPE":"992","Class":"2"},"geometry":{"x":217839.3125,"y":2667804.3139999993}},{"attributes":{"OBJECTID":13471,"LANDMARKID":"1000600000476","LANDMARKCO":"203","LANDMARKNA":"縣立立新國小","LANDMARKAD":"1000620","ADDRESS":"台中市大里區立新街338號","TEL":"04-22769178","COUNTYNAME":"台中市","TOWNNAME":"大里區","MARKTYPE":"992","Class":"2"},"geometry":{"x":219393.25069999974,"y":2666741.3125}},{"attributes":{"OBJECTID":13472,"LANDMARKID":"1000600000477","LANDMARKCO":"203","LANDMARKNA":"縣立美群國小","LANDMARKAD":"1000620","ADDRESS":"台中市大里區美群路99號","TEL":"04-24912129","COUNTYNAME":"台中市","TOWNNAME":"大里區","MARKTYPE":"992","Class":"2"},"geometry":{"x":220461.00960000046,"y":2664341.0798000004}},{"attributes":{"OBJECTID":13473,"LANDMARKID":"1000600000478","LANDMARKCO":"203","LANDMARKNA":"縣立大里國小","LANDMARKAD":"1000620","ADDRESS":"台中市大里區新興路50號","TEL":"04-24066002","COUNTYNAME":"台中市","TOWNNAME":"大里區","MARKTYPE":"992","Class":"2"},"geometry":{"x":217193.91729999986,"y":2666185.2093000002}},{"attributes":{"OBJECTID":13474,"LANDMARKID":"1000600000273","LANDMARKCO":"201","LANDMARKNA":"私立修平技術學院","LANDMARKAD":"1000620","ADDRESS":"台中市大里區工業路11號","TEL":"04-24961100","COUNTYNAME":"台中市","TOWNNAME":"大里區","MARKTYPE":"992","Class":"2"},"geometry":{"x":220858.9375,"y":2665616.9188000001}},{"attributes":{"OBJECTID":13475,"LANDMARKID":"1000600000285","LANDMARKCO":"202","LANDMARKNA":"私立青年高中","LANDMARKAD":"1000620","ADDRESS":"台中市大里區中興路一段173號","TEL":"04-24954181","COUNTYNAME":"台中市","TOWNNAME":"大里區","MARKTYPE":"992","Class":"2"},"geometry":{"x":218796.54930000007,"y":2664800.3281999994}},{"attributes":{"OBJECTID":13476,"LANDMARKID":"1000600000286","LANDMARKCO":"202","LANDMARKNA":"私立立人高中","LANDMARKAD":"1000620","ADDRESS":"台中市大里區中興路二段380號","TEL":"04-24834138","COUNTYNAME":"台中市","TOWNNAME":"大里區","MARKTYPE":"992","Class":"2"},"geometry":{"x":218575.33939999994,"y":2666740.4573999997}},{"attributes":{"OBJECTID":13477,"LANDMARKID":"1000600000287","LANDMARKCO":"202","LANDMARKNA":"私立大明高中","LANDMARKAD":"1000620","ADDRESS":"台中市大里區新仁路三段210號","TEL":"04-24821027","COUNTYNAME":"台中市","TOWNNAME":"大里區","MARKTYPE":"992","Class":"2"},"geometry":{"x":218047.33179999981,"y":2667970.5417999998}},{"attributes":{"OBJECTID":13478,"LANDMARKID":"1000600000288","LANDMARKCO":"202","LANDMARKNA":"私立立人高中附設國中部","LANDMARKAD":"1000620","ADDRESS":"台中市大里區中興路二段380號","TEL":"04-24834138","COUNTYNAME":"台中市","TOWNNAME":"大里區","MARKTYPE":"992","Class":"2"},"geometry":{"x":218621.99490000028,"y":2666750.5585999992}},{"attributes":{"OBJECTID":13479,"LANDMARKID":"1000600000289","LANDMARKCO":"202","LANDMARKNA":"私立大明高中附設國中部","LANDMARKAD":"1000620","ADDRESS":"台中市大里區新仁路三段210號","TEL":"04-24821027","COUNTYNAME":"台中市","TOWNNAME":"大里區","MARKTYPE":"992","Class":"2"},"geometry":{"x":218057.3543999996,"y":2667960.5643000007}},{"attributes":{"OBJECTID":13480,"LANDMARKID":"1000600000479","LANDMARKCO":"203","LANDMARKNA":"縣立瑞城國小","LANDMARKAD":"1000620","ADDRESS":"台中市大里區瑞城村美村街196號","TEL":"04-24924622","COUNTYNAME":"台中市","TOWNNAME":"大里區","MARKTYPE":"992","Class":"2"},"geometry":{"x":219796.96119999979,"y":2664610.0436000004}},{"attributes":{"OBJECTID":13481,"LANDMARKID":"1000600000480","LANDMARKCO":"203","LANDMARKNA":"縣立益民國小","LANDMARKAD":"1000620","ADDRESS":"台中市大里區益民路二段48號","TEL":"04-24834970","COUNTYNAME":"台中市","TOWNNAME":"大里區","MARKTYPE":"992","Class":"2"},"geometry":{"x":218227.5290000001,"y":2666960.3142000008}},{"attributes":{"OBJECTID":13482,"LANDMARKID":"1000600000481","LANDMARKCO":"203","LANDMARKNA":"縣立內新國小","LANDMARKAD":"1000620","ADDRESS":"台中市大里區東昇村新仁路二段42號","TEL":"04-24852863","COUNTYNAME":"台中市","TOWNNAME":"大里區","MARKTYPE":"992","Class":"2"},"geometry":{"x":219080.83079999965,"y":2667440.3165000007}},{"attributes":{"OBJECTID":13483,"LANDMARKID":"1000600000748","LANDMARKCO":"308","LANDMARKNA":"台63-大里一交流道北側匝道-北上","LANDMARKAD":"1000620","ADDRESS":"台中市大里區","TEL":" ","COUNTYNAME":"台中市","TOWNNAME":"大里區","MARKTYPE":"993","Class":"308"},"geometry":{"x":216705.48290000018,"y":2666804.5318}},{"attributes":{"OBJECTID":13484,"LANDMARKID":"1000600000749","LANDMARKCO":"308","LANDMARKNA":"台63-大里一交流道南側匝道-南下","LANDMARKAD":"1000620","ADDRESS":"台中市大里區","TEL":" ","COUNTYNAME":"台中市","TOWNNAME":"大里區","MARKTYPE":"993","Class":"308"},"geometry":{"x":216563.90319999959,"y":2666356.4074000008}},{"attributes":{"OBJECTID":13485,"LANDMARKID":"1000600000750","LANDMARKCO":"308","LANDMARKNA":"台63-大里二交流道北側匝道-北上","LANDMARKAD":"1000620","ADDRESS":"台中市大里區","TEL":" ","COUNTYNAME":"台中市","TOWNNAME":"大里區","MARKTYPE":"993","Class":"308"},"geometry":{"x":216178.39979999978,"y":2665806.3394000009}},{"attributes":{"OBJECTID":13486,"LANDMARKID":"1000600000751","LANDMARKCO":"308","LANDMARKNA":"台63-大里二交流道南側匝道-南下","LANDMARKAD":"1000620","ADDRESS":"台中市大里區","TEL":" ","COUNTYNAME":"台中市","TOWNNAME":"大里區","MARKTYPE":"993","Class":"308"},"geometry":{"x":215896.51130000036,"y":2665470.4108000007}},{"attributes":{"OBJECTID":13487,"LANDMARKID":"1000600000670","LANDMARKCO":"303","LANDMARKNA":"德芳南路第二停車場","LANDMARKAD":"1000620","ADDRESS":"台中市大里區德芳南路","TEL":" ","COUNTYNAME":"台中市","TOWNNAME":"大里區","MARKTYPE":"993","Class":"303"},"geometry":{"x":217794.07610000018,"y":2666574.6318999995}},{"attributes":{"OBJECTID":13488,"LANDMARKID":"1000600000671","LANDMARKCO":"303","LANDMARKNA":"德芳南路第一停車場","LANDMARKAD":"1000620","ADDRESS":"台中市大里區德芳南路","TEL":" ","COUNTYNAME":"台中市","TOWNNAME":"大里區","MARKTYPE":"993","Class":"303"},"geometry":{"x":218219.38609999977,"y":2666435.8205999993}},{"attributes":{"OBJECTID":13489,"LANDMARKID":"1000600000672","LANDMARKCO":"303","LANDMARKNA":"青年高中停車場","LANDMARKAD":"1000620","ADDRESS":"台中市大里區中湖路","TEL":" ","COUNTYNAME":"台中市","TOWNNAME":"大里區","MARKTYPE":"993","Class":"303"},"geometry":{"x":218745.23560000025,"y":2664700.7495000008}},{"attributes":{"OBJECTID":13490,"LANDMARKID":"1000600000868","LANDMARKCO":"402","LANDMARKNA":"中華電信-大里中興特約服務中心","LANDMARKAD":"1000620","ADDRESS":"台中市大里區中興路一段273號","TEL":"04-24920185","COUNTYNAME":"台中市","TOWNNAME":"大里區","MARKTYPE":"994","Class":"4"},"geometry":{"x":218674.57529999968,"y":2665167.6202000007}},{"attributes":{"OBJECTID":13491,"LANDMARKID":"1000600000869","LANDMARKCO":"402","LANDMARKNA":"中華電信-大里中興二特約服務中心","LANDMARKAD":"1000620","ADDRESS":"台中市中興路二段387號","TEL":"04-24812121","COUNTYNAME":"台中市","TOWNNAME":"大里區","MARKTYPE":"994","Class":"4"},"geometry":{"x":218466.30040000007,"y":2667491.4400999993}},{"attributes":{"OBJECTID":13492,"LANDMARKID":"1000600000870","LANDMARKCO":"402","LANDMARKNA":"遠傳電信-台中大里門市","LANDMARKAD":"1000620","ADDRESS":"台中市大里區中興路二段437號","TEL":" ","COUNTYNAME":"台中市","TOWNNAME":"大里區","MARKTYPE":"994","Class":"4"},"geometry":{"x":218453.18690000009,"y":2667628.8806999996}},{"attributes":{"OBJECTID":13493,"LANDMARKID":"1000600000871","LANDMARKCO":"402","LANDMARKNA":"威寶電信-大里益民特約服務中心","LANDMARKAD":"1000620","ADDRESS":"台中市大里區益民路二段287號","TEL":"04-24876333","COUNTYNAME":"台中市","TOWNNAME":"大里區","MARKTYPE":"994","Class":"4"},"geometry":{"x":217854.33690000046,"y":2667403.7719000001}},{"attributes":{"OBJECTID":13494,"LANDMARKID":"1000600000872","LANDMARKCO":"402","LANDMARKNA":"威寶電信-大里中興特約服務中心","LANDMARKAD":"1000620","ADDRESS":"台中市大里區中興路二段235號","TEL":"04-24854219","COUNTYNAME":"台中市","TOWNNAME":"大里區","MARKTYPE":"994","Class":"4"},"geometry":{"x":218736.08719999995,"y":2665118.2259}},{"attributes":{"OBJECTID":13495,"LANDMARKID":"1000600000873","LANDMARKCO":"402","LANDMARKNA":"威寶電信-大里塗城特約服務中心","LANDMARKAD":"1000620","ADDRESS":"台中市大里區中興路一段338號","TEL":"04-24969757","COUNTYNAME":"台中市","TOWNNAME":"大里區","MARKTYPE":"994","Class":"4"},"geometry":{"x":218404.17750000022,"y":2666659.4875000007}},{"attributes":{"OBJECTID":13496,"LANDMARKID":"1000600000874","LANDMARKCO":"402","LANDMARKNA":"大眾電信(震旦通訊)-大里中興店","LANDMARKAD":"1000620","ADDRESS":"台中市大里區中興路2段606號","TEL":"04-24860289","COUNTYNAME":"台中市","TOWNNAME":"大里區","MARKTYPE":"994","Class":"4"},"geometry":{"x":218458.74700000044,"y":2667842.4065000005}},{"attributes":{"OBJECTID":13497,"LANDMARKID":"1000600000875","LANDMARKCO":"402","LANDMARKNA":"大眾電信(震旦通訊)-大里塗城店","LANDMARKAD":"1000620","ADDRESS":"台中市大里區中興路一段318號","TEL":"04-24932280","COUNTYNAME":"台中市","TOWNNAME":"大里區","MARKTYPE":"994","Class":"4"},"geometry":{"x":218839.48819999956,"y":2665054.1019000001}},{"attributes":{"OBJECTID":13498,"LANDMARKID":"1000600000876","LANDMARKCO":"402","LANDMARKNA":"大眾電信-大里專賣店","LANDMARKAD":"1000620","ADDRESS":"台中市大里區中興路一段380號","TEL":"966931888","COUNTYNAME":"台中市","TOWNNAME":"大里區","MARKTYPE":"994","Class":"4"},"geometry":{"x":218690.63949999958,"y":2665147.0208000001}},{"attributes":{"OBJECTID":13499,"LANDMARKID":"1000600001421","LANDMARKCO":"603","LANDMARKNA":"春天溫泉泡湯旅館","LANDMARKAD":"1000620","ADDRESS":"台中市大里區永隆路451號","TEL":"04-24063836","COUNTYNAME":"台中市","TOWNNAME":"大里區","MARKTYPE":"996","Class":"6"},"geometry":{"x":217066.30539999995,"y":2667788.0186000001}},{"attributes":{"OBJECTID":13500,"LANDMARKID":"1000600001422","LANDMARKCO":"603","LANDMARKNA":"羅馬假期汽車旅館","LANDMARKAD":"1000620","ADDRESS":"台中市大里區勝利二路62號","TEL":"04-24838588","COUNTYNAME":"台中市","TOWNNAME":"大里區","MARKTYPE":"996","Class":"6"},"geometry":{"x":218084.6782999998,"y":2666261.1659999993}},{"attributes":{"OBJECTID":13501,"LANDMARKID":"1000600001423","LANDMARKCO":"603","LANDMARKNA":"寶儷京汽車旅館","LANDMARKAD":"1000620","ADDRESS":"台中市大里區環河路117號","TEL":"04-24069980","COUNTYNAME":"台中市","TOWNNAME":"大里區","MARKTYPE":"996","Class":"6"},"geometry":{"x":216904.16889999993,"y":2667938.4098000005}},{"attributes":{"OBJECTID":13502,"LANDMARKID":"1000600001424","LANDMARKCO":"603","LANDMARKNA":"美思樂汽車旅館","LANDMARKAD":"1000620","ADDRESS":"台中市大里區大明路480號","TEL":"04-24076868","COUNTYNAME":"台中市","TOWNNAME":"大里區","MARKTYPE":"996","Class":"6"},"geometry":{"x":216819.39039999992,"y":2667726.5449999999}},{"attributes":{"OBJECTID":13503,"LANDMARKID":"1000600001425","LANDMARKCO":"603","LANDMARKNA":"風緻精品旅館","LANDMARKAD":"1000620","ADDRESS":"台中市大里區永隆里永隆路428號","TEL":"04-24180099","COUNTYNAME":"台中市","TOWNNAME":"大里區","MARKTYPE":"996","Class":"6"},"geometry":{"x":217070.37150000036,"y":2667758.8914000001}},{"attributes":{"OBJECTID":13504,"LANDMARKID":"1000600001426","LANDMARKCO":"603","LANDMARKNA":"佳賓旅社","LANDMARKAD":"1000620","ADDRESS":"台中市大里區新南路80號","TEL":"04-24852023","COUNTYNAME":"台中市","TOWNNAME":"大里區","MARKTYPE":"996","Class":"6"},"geometry":{"x":218557.40660000034,"y":2667017.4163000006}},{"attributes":{"OBJECTID":13505,"LANDMARKID":"1000600001072","LANDMARKCO":"405","LANDMARKNA":"中油加油站-金永勝站","LANDMARKAD":"1000615","ADDRESS":"台中市烏日區中山路一段668號","TEL":"04-23383228","COUNTYNAME":"台中市","TOWNNAME":"烏日區","MARKTYPE":"994","Class":"4"},"geometry":{"x":212627.33829999994,"y":2666785.0605999995}},{"attributes":{"OBJECTID":13506,"LANDMARKID":"1000600001073","LANDMARKCO":"405","LANDMARKNA":"統一速邁樂加油站-烏日加油站(中油)","LANDMARKAD":"1000615","ADDRESS":"台中市烏日區烏日村新興路596號","TEL":" ","COUNTYNAME":"台中市","TOWNNAME":"烏日區","MARKTYPE":"994","Class":"4"},"geometry":{"x":211456.95760000031,"y":2666788.7335999999}},{"attributes":{"OBJECTID":13507,"LANDMARKID":"1000600001074","LANDMARKCO":"405","LANDMARKNA":"中油加油站-烏日站(中油直營)","LANDMARKAD":"1000615","ADDRESS":"台中市烏日區九德村中山路一段539號","TEL":"04-23381514","COUNTYNAME":"台中市","TOWNNAME":"烏日區","MARKTYPE":"994","Class":"4"},"geometry":{"x":212787.50179999974,"y":2666819.4611000009}},{"attributes":{"OBJECTID":13508,"LANDMARKID":"1000600001075","LANDMARKCO":"405","LANDMARKNA":"中油加油站-三和站","LANDMARKAD":"1000615","ADDRESS":"台中市烏日區學田路300號","TEL":"04-23387288","COUNTYNAME":"台中市","TOWNNAME":"烏日區","MARKTYPE":"994","Class":"4"},"geometry":{"x":209733.04260000028,"y":2667868.8291999996}},{"attributes":{"OBJECTID":13509,"LANDMARKID":"1000600001076","LANDMARKCO":"405","LANDMARKNA":"中油加油站-五張犁站","LANDMARKAD":"1000615","ADDRESS":"台中市烏日區五光路279號","TEL":"04-23365858","COUNTYNAME":"台中市","TOWNNAME":"烏日區","MARKTYPE":"994","Class":"4"},"geometry":{"x":213842.84929999989,"y":2665434.0811999999}},{"attributes":{"OBJECTID":13510,"LANDMARKID":"1000600001077","LANDMARKCO":"405","LANDMARKNA":"台灣優力加油站-王田站(中油)","LANDMARKAD":"1000615","ADDRESS":"台中市烏日區中山路三段1293號","TEL":"04-23363640","COUNTYNAME":"台中市","TOWNNAME":"烏日區","MARKTYPE":"994","Class":"4"},"geometry":{"x":207945.98039999977,"y":2667499.2827000003}},{"attributes":{"OBJECTID":13511,"LANDMARKID":"1000600001078","LANDMARKCO":"405","LANDMARKNA":"中油加油站-烏日溪南站","LANDMARKAD":"1000615","ADDRESS":"台中市烏日區環中路8段378號","TEL":"04-23355511","COUNTYNAME":"台中市","TOWNNAME":"烏日區","MARKTYPE":"994","Class":"4"},"geometry":{"x":214155.24349999987,"y":2664013.9471000005}},{"attributes":{"OBJECTID":13512,"LANDMARKID":"1000600000867","LANDMARKCO":"402","LANDMARKNA":"亞太行動寬頻電信-烏日中山加盟服務中心","LANDMARKAD":"1000615","ADDRESS":"台中市烏日區中山路一段434號","TEL":"04-23380206","COUNTYNAME":"台中市","TOWNNAME":"烏日區","MARKTYPE":"994","Class":"4"},"geometry":{"x":213066.10209999979,"y":2666974.9607999995}},{"attributes":{"OBJECTID":13513,"LANDMARKID":"1000600000758","LANDMARKCO":"401","LANDMARKNA":"烏日澄清醫院","LANDMARKAD":"1000615","ADDRESS":"台中市烏日區前竹村光明路419號","TEL":"04-23376232","COUNTYNAME":"台中市","TOWNNAME":"烏日區","MARKTYPE":"994","Class":"4"},"geometry":{"x":214433.98959999997,"y":2667377.0368000008}},{"attributes":{"OBJECTID":13514,"LANDMARKID":"1000600001174","LANDMARKCO":"408","LANDMARKNA":"郵局-烏日郵局","LANDMARKAD":"1000615","ADDRESS":"台中市烏日區光日路123號","TEL":"(04)2338-1364","COUNTYNAME":"台中市","TOWNNAME":"烏日區","MARKTYPE":"994","Class":"4"},"geometry":{"x":211811.2547000004,"y":2666735.5897000004}},{"attributes":{"OBJECTID":13515,"LANDMARKID":"1000600001175","LANDMARKCO":"408","LANDMARKNA":"郵局-烏日明道郵局","LANDMARKAD":"1000615","ADDRESS":"台中市烏日區中山路1段437號","TEL":"(04)2337-7621","COUNTYNAME":"台中市","TOWNNAME":"烏日區","MARKTYPE":"994","Class":"4"},"geometry":{"x":213163.28890000004,"y":2666959.5704999994}},{"attributes":{"OBJECTID":13516,"LANDMARKID":"1000600001176","LANDMARKCO":"408","LANDMARKNA":"郵局-烏日溪壩郵局","LANDMARKAD":"1000615","ADDRESS":"台中市烏日區溪南路1段435號","TEL":"(04)2335-6043","COUNTYNAME":"台中市","TOWNNAME":"烏日區","MARKTYPE":"994","Class":"4"},"geometry":{"x":213747.74450000003,"y":2663698.1921999995}},{"attributes":{"OBJECTID":13517,"LANDMARKID":"1000600001242","LANDMARKCO":"409","LANDMARKNA":"台中市烏日區農會","LANDMARKAD":"1000615","ADDRESS":"台中市烏日區烏日村三民街193號","TEL":"04-23376150","COUNTYNAME":"台中市","TOWNNAME":"烏日區","MARKTYPE":"994","Class":"4"},"geometry":{"x":211579.00040000025,"y":2667054.4239000008}},{"attributes":{"OBJECTID":13518,"LANDMARKID":"1000600000907","LANDMARKCO":"404","LANDMARKNA":"台灣自來水烏日營運所","LANDMARKAD":"1000615","ADDRESS":"臺中縣烏日區五光路1031號","TEL":"04-23381614","COUNTYNAME":"台中市","TOWNNAME":"烏日區","MARKTYPE":"994","Class":"4"},"geometry":{"x":212914.59049999993,"y":2666333.5419999994}},{"attributes":{"OBJECTID":13519,"LANDMARKID":"1000600001147","LANDMARKCO":"406","LANDMARKNA":"社區公園","LANDMARKAD":"1000615","ADDRESS":"台中市烏日區","TEL":" ","COUNTYNAME":"台中市","TOWNNAME":"烏日區","MARKTYPE":"994","Class":"4"},"geometry":{"x":209620.05810000002,"y":2667710.1435000002}},{"attributes":{"OBJECTID":13520,"LANDMARKID":"1000600001148","LANDMARKCO":"406","LANDMARKNA":"健康公園","LANDMARKAD":"1000615","ADDRESS":"台中市烏日區","TEL":" ","COUNTYNAME":"台中市","TOWNNAME":"烏日區","MARKTYPE":"994","Class":"4"},"geometry":{"x":213356.73180000018,"y":2666786.6130999997}},{"attributes":{"OBJECTID":13521,"LANDMARKID":"1000600000908","LANDMARKCO":"404","LANDMARKNA":"台灣省自來水烏日營運所","LANDMARKAD":"1000615","ADDRESS":"台中市烏日區五光路1031號","TEL":" ","COUNTYNAME":"台中市","TOWNNAME":"烏日區","MARKTYPE":"994","Class":"4"},"geometry":{"x":212077.53199999966,"y":2666504.5868999995}},{"attributes":{"OBJECTID":13522,"LANDMARKID":"1000600000909","LANDMARKCO":"405","LANDMARKNA":"全國加油站-烏日站（台塑）","LANDMARKAD":"1000615","ADDRESS":"台中市烏日區中山路三段1311號","TEL":"04-23384818","COUNTYNAME":"台中市","TOWNNAME":"烏日區","MARKTYPE":"994","Class":"4"},"geometry":{"x":207712.87930000015,"y":2667374.1678999998}},{"attributes":{"OBJECTID":13523,"LANDMARKID":"1000600000910","LANDMARKCO":"405","LANDMARKNA":"鯨世界加油站-成功一站(台塑)","LANDMARKAD":"1000615","ADDRESS":"台中市烏日區中山路三段1165號","TEL":" ","COUNTYNAME":"台中市","TOWNNAME":"烏日區","MARKTYPE":"994","Class":"4"},"geometry":{"x":208359.10969999991,"y":2667643.9825999998}},{"attributes":{"OBJECTID":13524,"LANDMARKID":"1000600000911","LANDMARKCO":"405","LANDMARKNA":"鯨世界加油站-成功二站(台塑)","LANDMARKAD":"1000615","ADDRESS":"台中市烏日區中山路三段422號","TEL":" ","COUNTYNAME":"台中市","TOWNNAME":"烏日區","MARKTYPE":"994","Class":"4"},"geometry":{"x":209626.08899999969,"y":2667286.1765000001}},{"attributes":{"OBJECTID":13525,"LANDMARKID":"1000600000912","LANDMARKCO":"405","LANDMARKNA":"台亞加油站-九張犁站（台塑）","LANDMARKAD":"1000615","ADDRESS":"台中市烏日區中山路一段187號","TEL":"(04)2338-0846","COUNTYNAME":"台中市","TOWNNAME":"烏日區","MARKTYPE":"994","Class":"4"},"geometry":{"x":213855.66019999981,"y":2667196.8418000005}},{"attributes":{"OBJECTID":13526,"LANDMARKID":"1000600000266","LANDMARKCO":"108","LANDMARKNA":"台中市烏日區公所","LANDMARKAD":"1000615","ADDRESS":"台中市烏日區新興路316號","TEL":"04-23368016","COUNTYNAME":"台中市","TOWNNAME":"烏日區","MARKTYPE":"991","Class":"1"},"geometry":{"x":211761.32120000012,"y":2666710.4559000004}},{"attributes":{"OBJECTID":13527,"LANDMARKID":"1000600000130","LANDMARKCO":"107","LANDMARKNA":"台中市警察局五光派出所","LANDMARKAD":"1000615","ADDRESS":"台中市烏日區光明村五光路281號","TEL":"04-23381960","COUNTYNAME":"台中市","TOWNNAME":"烏日區","MARKTYPE":"991","Class":"1"},"geometry":{"x":213830.57129999995,"y":2665390.6753000002}},{"attributes":{"OBJECTID":13528,"LANDMARKID":"1000600000033","LANDMARKCO":"103","LANDMARKNA":"台中市烏日區衛生所","LANDMARKAD":"1000615","ADDRESS":"台中市烏日區烏日村長樂街136號","TEL":"04-23881027","COUNTYNAME":"台中市","TOWNNAME":"烏日區","MARKTYPE":"991","Class":"1"},"geometry":{"x":211971.4299999997,"y":2666670.2600999996}},{"attributes":{"OBJECTID":13529,"LANDMARKID":"1000600000034","LANDMARKCO":"103","LANDMARKNA":"台中市烏日區鄉民代表會","LANDMARKAD":"1000615","ADDRESS":"台中市烏日區三民街126號","TEL":"04-23381065","COUNTYNAME":"台中市","TOWNNAME":"烏日區","MARKTYPE":"991","Class":"1"},"geometry":{"x":211600.42709999997,"y":2666810.5514000002}},{"attributes":{"OBJECTID":13530,"LANDMARKID":"1000600000126","LANDMARKCO":"107","LANDMARKNA":"台中市消防局烏日分隊","LANDMARKAD":"1000615","ADDRESS":"台中市烏日區新興路312號","TEL":"04-23381078","COUNTYNAME":"台中市","TOWNNAME":"烏日區","MARKTYPE":"991","Class":"1"},"geometry":{"x":211809.94909999985,"y":2666644.3061999995}},{"attributes":{"OBJECTID":13531,"LANDMARKID":"1000600000025","LANDMARKCO":"101","LANDMARKNA":"聯勤工兵裝備基地勤務處","LANDMARKAD":"1000615","ADDRESS":"台中市烏日區中山路二段324號","TEL":"04-23364938","COUNTYNAME":"台中市","TOWNNAME":"烏日區","MARKTYPE":"991","Class":"1"},"geometry":{"x":211503.71690000035,"y":2666870.5240000002}},{"attributes":{"OBJECTID":13532,"LANDMARKID":"1000600000127","LANDMARKCO":"107","LANDMARKNA":"台中市警察局烏日分局","LANDMARKAD":"1000615","ADDRESS":"台中市烏日區中山路二段309號","TEL":"04-23381448","COUNTYNAME":"台中市","TOWNNAME":"烏日區","MARKTYPE":"991","Class":"1"},"geometry":{"x":211637.7977,"y":2666840.1219999995}},{"attributes":{"OBJECTID":13533,"LANDMARKID":"1000600000128","LANDMARKCO":"107","LANDMARKNA":"台中市警察局溪南派出所","LANDMARKAD":"1000615","ADDRESS":"台中市烏日區溪南路二段638號","TEL":"04-23351676","COUNTYNAME":"台中市","TOWNNAME":"烏日區","MARKTYPE":"991","Class":"1"},"geometry":{"x":214010.82639999967,"y":2661290.4376999997}},{"attributes":{"OBJECTID":13534,"LANDMARKID":"1000600000129","LANDMARKCO":"107","LANDMARKNA":"台中市警察局烏日派出所","LANDMARKAD":"1000615","ADDRESS":"台中市烏日區烏日村中山路二段309號","TEL":"04-23381402","COUNTYNAME":"台中市","TOWNNAME":"烏日區","MARKTYPE":"991","Class":"1"},"geometry":{"x":211637.7977,"y":2666840.1219999995}},{"attributes":{"OBJECTID":13535,"LANDMARKID":"1000600000119","LANDMARKCO":"106","LANDMARKNA":"台中市烏日區戶政事務所","LANDMARKAD":"1000615","ADDRESS":"臺中縣烏日區高鐵路一段170號???","TEL":"04-23372054","COUNTYNAME":"台中市","TOWNNAME":"烏日區","MARKTYPE":"991","Class":"1"},"geometry":{"x":211585.82469999976,"y":2666830.7454000004}},{"attributes":{"OBJECTID":13536,"LANDMARKID":"1000600000556","LANDMARKCO":"204","LANDMARKNA":"台中市立圖書館烏日分館","LANDMARKAD":"1000615","ADDRESS":"台中市烏日區三民街昌明巷11號","TEL":" ","COUNTYNAME":"台中市","TOWNNAME":"烏日區","MARKTYPE":"992","Class":"2"},"geometry":{"x":211767.19400000013,"y":2666699.2105999999}},{"attributes":{"OBJECTID":13537,"LANDMARKID":"1000600000329","LANDMARKCO":"203","LANDMARKNA":"縣立光德國中","LANDMARKAD":"1000615","ADDRESS":"台中市烏日區信義街99號","TEL":"04-23389802","COUNTYNAME":"台中市","TOWNNAME":"烏日區","MARKTYPE":"992","Class":"2"},"geometry":{"x":213524.34059999976,"y":2666710.6118000001}},{"attributes":{"OBJECTID":13538,"LANDMARKID":"1000600000330","LANDMARKCO":"203","LANDMARKNA":"縣立溪南國中","LANDMARKAD":"1000615","ADDRESS":"台中市烏日區溪南路220之9號","TEL":"04-23353959","COUNTYNAME":"台中市","TOWNNAME":"烏日區","MARKTYPE":"992","Class":"2"},"geometry":{"x":213869.3161000004,"y":2663030.0709000006}},{"attributes":{"OBJECTID":13539,"LANDMARKID":"1000600000331","LANDMARKCO":"203","LANDMARKNA":"縣立旭光國小","LANDMARKAD":"1000615","ADDRESS":"台中市烏日區成功西路13號","TEL":"04-23381847","COUNTYNAME":"台中市","TOWNNAME":"烏日區","MARKTYPE":"992","Class":"2"},"geometry":{"x":209116.89879999962,"y":2667730.1810999997}},{"attributes":{"OBJECTID":13540,"LANDMARKID":"1000600000332","LANDMARKCO":"203","LANDMARKNA":"縣立烏日國中","LANDMARKAD":"1000615","ADDRESS":"台中市烏日區新興路457號","TEL":"04-23381009","COUNTYNAME":"台中市","TOWNNAME":"烏日區","MARKTYPE":"992","Class":"2"},"geometry":{"x":211101.19859999977,"y":2666668.2828000002}},{"attributes":{"OBJECTID":13541,"LANDMARKID":"1000600000333","LANDMARKCO":"203","LANDMARKNA":"縣立五光國小","LANDMARKAD":"1000615","ADDRESS":"台中市烏日區光明村光明路40號","TEL":"04-23362276","COUNTYNAME":"台中市","TOWNNAME":"烏日區","MARKTYPE":"992","Class":"2"},"geometry":{"x":214105.80869999994,"y":2665527.432}},{"attributes":{"OBJECTID":13542,"LANDMARKID":"1000600000334","LANDMARKCO":"203","LANDMARKNA":"縣立九德國小","LANDMARKAD":"1000615","ADDRESS":"台中市烏日區長春街300號","TEL":"04-23366540","COUNTYNAME":"台中市","TOWNNAME":"烏日區","MARKTYPE":"992","Class":"2"},"geometry":{"x":213293.88970000017,"y":2667239.1165999994}},{"attributes":{"OBJECTID":13543,"LANDMARKID":"1000600000335","LANDMARKCO":"203","LANDMARKNA":"縣立溪尾國小","LANDMARKAD":"1000615","ADDRESS":"台中市烏日區溪尾村溪岸路26號","TEL":"04-29523020","COUNTYNAME":"台中市","TOWNNAME":"烏日區","MARKTYPE":"992","Class":"2"},"geometry":{"x":213351.06869999971,"y":2659623.5338000003}},{"attributes":{"OBJECTID":13544,"LANDMARKID":"1000600000336","LANDMARKCO":"203","LANDMARKNA":"縣立東園國小","LANDMARKAD":"1000615","ADDRESS":"台中市烏日區溪南路一段238巷198號","TEL":"04-23353092","COUNTYNAME":"台中市","TOWNNAME":"烏日區","MARKTYPE":"992","Class":"2"},"geometry":{"x":213378.81799999997,"y":2664370.2529000007}},{"attributes":{"OBJECTID":13545,"LANDMARKID":"1000600000308","LANDMARKCO":"202","LANDMARKNA":"私立明道高中","LANDMARKAD":"1000615","ADDRESS":"台中市烏日區中山路一段497號","TEL":"04-23372101","COUNTYNAME":"台中市","TOWNNAME":"烏日區","MARKTYPE":"992","Class":"2"},"geometry":{"x":213023.95100000035,"y":2666780.0508999992}},{"attributes":{"OBJECTID":13546,"LANDMARKID":"1000600000309","LANDMARKCO":"202","LANDMARKNA":"私立明道高中附設國中部","LANDMARKAD":"1000615","ADDRESS":"台中市烏日區中山路一段497號","TEL":"04-23372101","COUNTYNAME":"台中市","TOWNNAME":"烏日區","MARKTYPE":"992","Class":"2"},"geometry":{"x":213023.95100000035,"y":2666780.0508999992}},{"attributes":{"OBJECTID":13547,"LANDMARKID":"1000600000326","LANDMARKCO":"203","LANDMARKNA":"縣立僑仁國小","LANDMARKAD":"1000615","ADDRESS":"台中市烏日區中山路一段341號","TEL":"04-23381241","COUNTYNAME":"台中市","TOWNNAME":"烏日區","MARKTYPE":"992","Class":"2"},"geometry":{"x":213461.38499999978,"y":2667000.4486999996}},{"attributes":{"OBJECTID":13548,"LANDMARKID":"1000600000327","LANDMARKCO":"203","LANDMARKNA":"縣立烏日國小","LANDMARKAD":"1000615","ADDRESS":"台中市烏日區中山路二段196號","TEL":"04-23381242","COUNTYNAME":"台中市","TOWNNAME":"烏日區","MARKTYPE":"992","Class":"2"},"geometry":{"x":211738.36809999961,"y":2667000.3922000006}},{"attributes":{"OBJECTID":13549,"LANDMARKID":"1000600000328","LANDMARKCO":"203","LANDMARKNA":"縣立喀哩國小","LANDMARKAD":"1000615","ADDRESS":"台中市烏日區螺潭村溪南路二段370號","TEL":"04-23351016","COUNTYNAME":"台中市","TOWNNAME":"烏日區","MARKTYPE":"992","Class":"2"},"geometry":{"x":213662.8404000001,"y":2661900.2708000001}},{"attributes":{"OBJECTID":13550,"LANDMARKID":"1000600000271","LANDMARKCO":"201","LANDMARKNA":"國立中興大學畜牧試驗場","LANDMARKAD":"1000615","ADDRESS":"台中市烏日區","TEL":" ","COUNTYNAME":"台中市","TOWNNAME":"烏日區","MARKTYPE":"992","Class":"2"},"geometry":{"x":212885.25939999986,"y":2663970.4463999998}},{"attributes":{"OBJECTID":13551,"LANDMARKID":"1000600000685","LANDMARKCO":"308","LANDMARKNA":"國3-烏日交流道-北上","LANDMARKAD":"1000615","ADDRESS":"台中市烏日區","TEL":" ","COUNTYNAME":"台中市","TOWNNAME":"烏日區","MARKTYPE":"993","Class":"308"},"geometry":{"x":213607.11160000041,"y":2662759.6362999994}},{"attributes":{"OBJECTID":13552,"LANDMARKID":"1000600000686","LANDMARKCO":"308","LANDMARKNA":"國1-王田交流道-東行","LANDMARKAD":"1000615","ADDRESS":"台中市大肚區","TEL":" ","COUNTYNAME":"台中市","TOWNNAME":"烏日區","MARKTYPE":"993","Class":"308"},"geometry":{"x":208082.42580000032,"y":2668132.8293999992}},{"attributes":{"OBJECTID":13553,"LANDMARKID":"1000600000687","LANDMARKCO":"308","LANDMARKNA":"國3-烏日交流道-南下","LANDMARKAD":"1000615","ADDRESS":"台中市烏日區","TEL":" ","COUNTYNAME":"台中市","TOWNNAME":"烏日區","MARKTYPE":"993","Class":"308"},"geometry":{"x":214299.17379999999,"y":2662583.0386999995}},{"attributes":{"OBJECTID":13554,"LANDMARKID":"1000600000688","LANDMARKCO":"308","LANDMARKNA":"台74-成功交流道-東行","LANDMARKAD":"1000615","ADDRESS":" ","TEL":" ","COUNTYNAME":"台中市","TOWNNAME":"烏日區","MARKTYPE":"993","Class":"308"},"geometry":{"x":210775.26769999973,"y":2666617.9556000009}},{"attributes":{"OBJECTID":13555,"LANDMARKID":"1000600000681","LANDMARKCO":"307","LANDMARKNA":"高鐵台中站(烏日站)-出口1","LANDMARKAD":"1000615","ADDRESS":" ","TEL":" ","COUNTYNAME":"台中市","TOWNNAME":"烏日區","MARKTYPE":"993","Class":"307"},"geometry":{"x":210985.40539999958,"y":2667453.8012000006}},{"attributes":{"OBJECTID":13556,"LANDMARKID":"1000600000682","LANDMARKCO":"307","LANDMARKNA":"高鐵台中站(烏日站)-出口2","LANDMARKAD":"1000615","ADDRESS":" ","TEL":" ","COUNTYNAME":"台中市","TOWNNAME":"烏日區","MARKTYPE":"993","Class":"307"},"geometry":{"x":210968.81469999999,"y":2667291.0830000006}},{"attributes":{"OBJECTID":13557,"LANDMARKID":"1000600000683","LANDMARKCO":"307","LANDMARKNA":"高鐵台中站(烏日站)-出口4","LANDMARKAD":"1000615","ADDRESS":" ","TEL":" ","COUNTYNAME":"台中市","TOWNNAME":"烏日區","MARKTYPE":"993","Class":"307"},"geometry":{"x":210885.2938000001,"y":2667454.9990999997}},{"attributes":{"OBJECTID":13558,"LANDMARKID":"1000600000684","LANDMARKCO":"307","LANDMARKNA":"高鐵台中站(烏日站)-出口3","LANDMARKAD":"1000615","ADDRESS":" ","TEL":" ","COUNTYNAME":"台中市","TOWNNAME":"烏日區","MARKTYPE":"993","Class":"307"},"geometry":{"x":210867.90749999974,"y":2667313.6250999998}},{"attributes":{"OBJECTID":13559,"LANDMARKID":"1000600000673","LANDMARKCO":"303","LANDMARKNA":"烏日停車場","LANDMARKAD":"1000615","ADDRESS":"台中市烏日區","TEL":" ","COUNTYNAME":"台中市","TOWNNAME":"烏日區","MARKTYPE":"993","Class":"303"},"geometry":{"x":212084.22180000041,"y":2666441.6896000002}},{"attributes":{"OBJECTID":13560,"LANDMARKID":"1000600000589","LANDMARKCO":"301","LANDMARKNA":"新烏日站","LANDMARKAD":"1000615","ADDRESS":"臺中縣烏日區高鐵東一路","TEL":"04-23376883","COUNTYNAME":"台中市","TOWNNAME":"烏日區","MARKTYPE":"993","Class":"301"},"geometry":{"x":210790.62179999985,"y":2667226.3376000002}},{"attributes":{"OBJECTID":13561,"LANDMARKID":"1000600000590","LANDMARKCO":"301","LANDMARKNA":"成功火車站","LANDMARKAD":"1000615","ADDRESS":"台中市烏日區中山路三段550號","TEL":"04-23371986","COUNTYNAME":"台中市","TOWNNAME":"烏日區","MARKTYPE":"993","Class":"301"},"geometry":{"x":208371.26150000002,"y":2667745.8703000005}},{"attributes":{"OBJECTID":13562,"LANDMARKID":"1000600000591","LANDMARKCO":"301","LANDMARKNA":"烏日火車站","LANDMARKAD":"1000615","ADDRESS":"台中市烏日區三民街258號","TEL":"04-23381071","COUNTYNAME":"台中市","TOWNNAME":"烏日區","MARKTYPE":"993","Class":"301"},"geometry":{"x":211616.37480000034,"y":2667123.9741999991}},{"attributes":{"OBJECTID":13563,"LANDMARKID":"1000600000791","LANDMARKCO":"402","LANDMARKNA":"中華電信-烏日服務中心","LANDMARKAD":"1000615","ADDRESS":"台中市烏日區三民街212號","TEL":"123或0800-080-123","COUNTYNAME":"台中市","TOWNNAME":"烏日區","MARKTYPE":"994","Class":"4"},"geometry":{"x":211626.37789999973,"y":2666996.0912999995}},{"attributes":{"OBJECTID":13564,"LANDMARKID":"1000600000792","LANDMARKCO":"402","LANDMARKNA":"威寶電信-烏日中山特約服務中心","LANDMARKAD":"1000615","ADDRESS":"台中市烏日區中山路一段416號","TEL":"04-23366334","COUNTYNAME":"台中市","TOWNNAME":"烏日區","MARKTYPE":"994","Class":"4"},"geometry":{"x":213096.90510000009,"y":2666981.7204999998}},{"attributes":{"OBJECTID":13565,"LANDMARKID":"1000600000793","LANDMARKCO":"402","LANDMARKNA":"大眾電信-曉鴻通訊行","LANDMARKAD":"1000615","ADDRESS":"台中市烏日區中山路一段576號","TEL":"0966-599111","COUNTYNAME":"台中市","TOWNNAME":"烏日區","MARKTYPE":"994","Class":"4"},"geometry":{"x":212837.77419999987,"y":2666880.5656000003}},{"attributes":{"OBJECTID":13566,"LANDMARKID":"1000600001428","LANDMARKCO":"603","LANDMARKNA":"高鐵戀館","LANDMARKAD":"1000615","ADDRESS":"台中市烏日區烏日村新興路15號","TEL":"04-23387808","COUNTYNAME":"台中市","TOWNNAME":"烏日區","MARKTYPE":"996","Class":"6"},"geometry":{"x":212519.58370000031,"y":2666673.0961000007}},{"attributes":{"OBJECTID":13567,"LANDMARKID":"1000600001429","LANDMARKCO":"603","LANDMARKNA":"清新度假飯店","LANDMARKAD":"1000615","ADDRESS":"台中市烏日區成功西路298號","TEL":"04-23829888","COUNTYNAME":"台中市","TOWNNAME":"烏日區","MARKTYPE":"996","Class":"6"},"geometry":{"x":208084.34700000007,"y":2670229.8477999996}},{"attributes":{"OBJECTID":13568,"LANDMARKID":"1000600001430","LANDMARKCO":"603","LANDMARKNA":"一三三別館","LANDMARKAD":"1000615","ADDRESS":"台中市烏日區烏日村3鄰中山路二段143號","TEL":"04-23381123","COUNTYNAME":"台中市","TOWNNAME":"烏日區","MARKTYPE":"996","Class":"6"},"geometry":{"x":212051.02850000001,"y":2666779.4751999993}},{"attributes":{"OBJECTID":13569,"LANDMARKID":"1000600001431","LANDMARKCO":"603","LANDMARKNA":"烏日富國旅社","LANDMARKAD":"1000615","ADDRESS":"台中市烏日區烏日村中山路二段113號","TEL":"04-23381401","COUNTYNAME":"台中市","TOWNNAME":"烏日區","MARKTYPE":"996","Class":"6"},"geometry":{"x":212174.54530000035,"y":2666763.6610000003}},{"attributes":{"OBJECTID":13570,"LANDMARKID":"1000600001432","LANDMARKCO":"603","LANDMARKNA":"一二三旅社","LANDMARKAD":"1000615","ADDRESS":"台中市烏日區烏日村中山路二段181號","TEL":"04-23381133","COUNTYNAME":"台中市","TOWNNAME":"烏日區","MARKTYPE":"996","Class":"6"},"geometry":{"x":211980.98479999974,"y":2666815.3583000004}},{"attributes":{"OBJECTID":13571,"LANDMARKID":"1000600001306","LANDMARKCO":"508","LANDMARKNA":"清新溫泉渡假飯店","LANDMARKAD":"1000615","ADDRESS":"台中市烏日區成功西路298號","TEL":"04-23829888","COUNTYNAME":"台中市","TOWNNAME":"烏日區","MARKTYPE":"995","Class":"5"},"geometry":{"x":208128.48390000034,"y":2670184.0934999995}},{"attributes":{"OBJECTID":13572,"LANDMARKID":"1000600000913","LANDMARKCO":"405","LANDMARKNA":"中油加油站-萬豐站","LANDMARKAD":"1000618","ADDRESS":"台中市霧峰區中正路93號","TEL":"04-23335077","COUNTYNAME":"台中市","TOWNNAME":"霧峰區","MARKTYPE":"994","Class":"4"},"geometry":{"x":219069.4243999999,"y":2657273.0445000008}},{"attributes":{"OBJECTID":13573,"LANDMARKID":"1000600000914","LANDMARKCO":"405","LANDMARKNA":"中油加油站-霧峰中投站","LANDMARKAD":"1000618","ADDRESS":"台中市霧峰區中投東路二段320號","TEL":"04-23397330","COUNTYNAME":"台中市","TOWNNAME":"霧峰區","MARKTYPE":"994","Class":"4"},"geometry":{"x":215727.27830000035,"y":2662665.3034000006}},{"attributes":{"OBJECTID":13574,"LANDMARKID":"1000600000915","LANDMARKCO":"405","LANDMARKNA":"中油加油站-五福站","LANDMARKAD":"1000618","ADDRESS":"台中市霧峰區中投西路二段436號","TEL":"04-23327095","COUNTYNAME":"台中市","TOWNNAME":"霧峰區","MARKTYPE":"994","Class":"4"},"geometry":{"x":215727.27830000035,"y":2662665.3034000006}},{"attributes":{"OBJECTID":13575,"LANDMARKID":"1000600000916","LANDMARKCO":"405","LANDMARKNA":"中油加油站-霧峰林森路站(刷卡自助)(中油直營)","LANDMARKAD":"1000618","ADDRESS":"台中市霧峰區林森路455號","TEL":"04-23339411","COUNTYNAME":"台中市","TOWNNAME":"霧峰區","MARKTYPE":"994","Class":"4"},"geometry":{"x":218965.35769999959,"y":2661848.9077000003}},{"attributes":{"OBJECTID":13576,"LANDMARKID":"1000600000917","LANDMARKCO":"405","LANDMARKNA":"中油加油站-霧峰站(中油直營)","LANDMARKAD":"1000618","ADDRESS":"台中市霧峰區中正路784號","TEL":"04-23393270","COUNTYNAME":"台中市","TOWNNAME":"霧峰區","MARKTYPE":"994","Class":"4"},"geometry":{"x":219325.86149999965,"y":2661786.1161000002}},{"attributes":{"OBJECTID":13577,"LANDMARKID":"1000600000918","LANDMARKCO":"405","LANDMARKNA":"中油加油站-泰瑀站","LANDMARKAD":"1000618","ADDRESS":"台中市霧峰區四德路477-1號","TEL":"04-23310477","COUNTYNAME":"台中市","TOWNNAME":"霧峰區","MARKTYPE":"994","Class":"4"},"geometry":{"x":217080.91650000028,"y":2662138.7320000008}},{"attributes":{"OBJECTID":13578,"LANDMARKID":"1000600000919","LANDMARKCO":"405","LANDMARKNA":"中油加油站-潔勵霧峰站","LANDMARKAD":"1000618","ADDRESS":"台中市霧峰區林森路899號","TEL":"04-23397756","COUNTYNAME":"台中市","TOWNNAME":"霧峰區","MARKTYPE":"994","Class":"4"},"geometry":{"x":219132.93730000034,"y":2662771.0469000004}},{"attributes":{"OBJECTID":13579,"LANDMARKID":"1000600000920","LANDMARKCO":"405","LANDMARKNA":"台糖加油站-吉峰站(中油)","LANDMARKAD":"1000618","ADDRESS":"台中市霧峰區吉峰村4鄰吉峰路225號","TEL":" ","COUNTYNAME":"台中市","TOWNNAME":"霧峰區","MARKTYPE":"994","Class":"4"},"geometry":{"x":221074.97410000023,"y":2663535.6559999995}},{"attributes":{"OBJECTID":13580,"LANDMARKID":"1000600000921","LANDMARKCO":"405","LANDMARKNA":"中油加油站-霧峰交流道站","LANDMARKAD":"1000618","ADDRESS":"台中市霧峰區中正路577號之3","TEL":"04-23301032","COUNTYNAME":"台中市","TOWNNAME":"霧峰區","MARKTYPE":"994","Class":"4"},"geometry":{"x":219059.86809999961,"y":2661018.3069000002}},{"attributes":{"OBJECTID":13581,"LANDMARKID":"1000600000794","LANDMARKCO":"402","LANDMARKNA":"亞太行動寬頻電信-霧峰中正加盟服務中心","LANDMARKAD":"1000618","ADDRESS":"台中市霧峰區中正路888號","TEL":"04-23392570","COUNTYNAME":"台中市","TOWNNAME":"霧峰區","MARKTYPE":"994","Class":"4"},"geometry":{"x":219374.36099999957,"y":2662122.3585999999}},{"attributes":{"OBJECTID":13582,"LANDMARKID":"1000600000788","LANDMARKCO":"401","LANDMARKNA":"本堂澄清醫院","LANDMARKAD":"1000618","ADDRESS":"台中市霧峰區中正路718號","TEL":"04-23390000","COUNTYNAME":"台中市","TOWNNAME":"霧峰區","MARKTYPE":"994","Class":"4"},"geometry":{"x":219116.07809999958,"y":2661010.5061000008}},{"attributes":{"OBJECTID":13583,"LANDMARKID":"1000600000789","LANDMARKCO":"401","LANDMARKNA":"泰安醫院","LANDMARKAD":"1000618","ADDRESS":"台中市霧峰區中正路928號","TEL":"04-23393015","COUNTYNAME":"台中市","TOWNNAME":"霧峰區","MARKTYPE":"994","Class":"4"},"geometry":{"x":219385.76530000009,"y":2662241.3816999998}},{"attributes":{"OBJECTID":13584,"LANDMARKID":"1000600000790","LANDMARKCO":"401","LANDMARKNA":"霧峰澄清醫院","LANDMARKAD":"1000618","ADDRESS":"台中市霧峰區中正路1129號","TEL":"04-23397900","COUNTYNAME":"台中市","TOWNNAME":"霧峰區","MARKTYPE":"994","Class":"4"},"geometry":{"x":219408.87939999998,"y":2662803.4285000004}},{"attributes":{"OBJECTID":13585,"LANDMARKID":"1000600001305","LANDMARKCO":"507","LANDMARKNA":"霧峰林宅","LANDMARKAD":"1000618","ADDRESS":"台中市霧峰區民生路28、38、42號","TEL":" ","COUNTYNAME":"台中市","TOWNNAME":"霧峰區","MARKTYPE":"995","Class":"5"},"geometry":{"x":219527.22429999989,"y":2662216.4904999994}},{"attributes":{"OBJECTID":13586,"LANDMARKID":"1000600001252","LANDMARKCO":"501","LANDMARKNA":"參山國家風景區","LANDMARKAD":"1000618","ADDRESS":"台中市霧峰區中正路738號","TEL":"04-23312678","COUNTYNAME":"台中市","TOWNNAME":"霧峰區","MARKTYPE":"995","Class":"5"},"geometry":{"x":219308.5270999996,"y":2661514.7609000001}},{"attributes":{"OBJECTID":13587,"LANDMARKID":"1000600001332","LANDMARKCO":"512","LANDMARKNA":"參山國家風景區管理處","LANDMARKAD":"1000618","ADDRESS":"台中市霧峰區中正路738號","TEL":"04-23396192","COUNTYNAME":"台中市","TOWNNAME":"霧峰區","MARKTYPE":"995","Class":"5"},"geometry":{"x":219308.58380000014,"y":2661501.5287999995}},{"attributes":{"OBJECTID":13588,"LANDMARKID":"1000600001333","LANDMARKCO":"512","LANDMARKNA":"處本部旅遊服務中心","LANDMARKAD":"1000618","ADDRESS":"台中市霧峰區中正路738號","TEL":"04-23312678#130","COUNTYNAME":"台中市","TOWNNAME":"霧峰區","MARKTYPE":"995","Class":"5"},"geometry":{"x":219088.8284,"y":2657652.2607000005}},{"attributes":{"OBJECTID":13589,"LANDMARKID":"1000600001224","LANDMARKCO":"408","LANDMARKNA":"郵局-霧峰民生路郵局","LANDMARKAD":"1000618","ADDRESS":"台中市霧峰區民生路93號","TEL":"(04)2339-3409","COUNTYNAME":"台中市","TOWNNAME":"霧峰區","MARKTYPE":"994","Class":"4"},"geometry":{"x":219507.52670000028,"y":2662353.0402000006}},{"attributes":{"OBJECTID":13590,"LANDMARKID":"1000600001225","LANDMARKCO":"408","LANDMARKNA":"郵局-霧峰郵局","LANDMARKAD":"1000618","ADDRESS":"台中市霧峰區中正路806號","TEL":"(04)2339-3034","COUNTYNAME":"台中市","TOWNNAME":"霧峰區","MARKTYPE":"994","Class":"4"},"geometry":{"x":219342.36620000005,"y":2661882.4527000003}},{"attributes":{"OBJECTID":13591,"LANDMARKID":"1000600001226","LANDMARKCO":"409","LANDMARKNA":"台中市霧峰區農會","LANDMARKAD":"1000618","ADDRESS":"台中市霧峰區中正村四德路10號","TEL":"04-23303171","COUNTYNAME":"台中市","TOWNNAME":"霧峰區","MARKTYPE":"994","Class":"4"},"geometry":{"x":219282.83800000045,"y":2662232.5832000002}},{"attributes":{"OBJECTID":13592,"LANDMARKID":"1000600000906","LANDMARKCO":"404","LANDMARKNA":"台灣省自來水霧峰營運所","LANDMARKAD":"1000618","ADDRESS":"台中市霧峰區民生路99巷7號","TEL":" ","COUNTYNAME":"台中市","TOWNNAME":"霧峰區","MARKTYPE":"994","Class":"4"},"geometry":{"x":219531.87079999968,"y":2662595.3200000003}},{"attributes":{"OBJECTID":13593,"LANDMARKID":"1000600001146","LANDMARKCO":"406","LANDMARKNA":"霧峰運動公園","LANDMARKAD":"1000618","ADDRESS":"台中市霧峰區","TEL":" ","COUNTYNAME":"台中市","TOWNNAME":"霧峰區","MARKTYPE":"994","Class":"4"},"geometry":{"x":219321.81630000006,"y":2659698.5889999997}},{"attributes":{"OBJECTID":13594,"LANDMARKID":"1000600000030","LANDMARKCO":"102","LANDMARKNA":"台灣省諮議會","LANDMARKAD":"1000618","ADDRESS":"台中市霧峰區中正路734號","TEL":"04-23311111","COUNTYNAME":"台中市","TOWNNAME":"霧峰區","MARKTYPE":"991","Class":"1"},"geometry":{"x":219468.72389999963,"y":2661030.5686000008}},{"attributes":{"OBJECTID":13595,"LANDMARKID":"1000600000267","LANDMARKCO":"108","LANDMARKNA":"台中市霧峰區公所","LANDMARKAD":"1000618","ADDRESS":"台中市霧峰區大同路20號","TEL":"04-23397128","COUNTYNAME":"台中市","TOWNNAME":"霧峰區","MARKTYPE":"991","Class":"1"},"geometry":{"x":219494.41249999963,"y":2661831.7736000009}},{"attributes":{"OBJECTID":13596,"LANDMARKID":"1000600000031","LANDMARKCO":"103","LANDMARKNA":"台中市霧峰區鄉民代表會","LANDMARKAD":"1000618","ADDRESS":"臺中縣霧峰區振興街115號","TEL":"04-23393131","COUNTYNAME":"台中市","TOWNNAME":"霧峰區","MARKTYPE":"991","Class":"1"},"geometry":{"x":219226.63939999975,"y":2662657.9224999994}},{"attributes":{"OBJECTID":13597,"LANDMARKID":"1000600000026","LANDMARKCO":"101","LANDMARKNA":"農業委員會農業藥物毒物試驗所","LANDMARKAD":"1000618","ADDRESS":"台中市霧峰區舊正村光明路11號","TEL":"04-23302101","COUNTYNAME":"台中市","TOWNNAME":"霧峰區","MARKTYPE":"991","Class":"1"},"geometry":{"x":218902.5532999998,"y":2656792.1559999995}},{"attributes":{"OBJECTID":13598,"LANDMARKID":"1000600000027","LANDMARKCO":"101","LANDMARKNA":"農業委員會農業試驗所","LANDMARKAD":"1000618","ADDRESS":"台中市霧峰區萬豐村中正路189號","TEL":"04-23302301#5","COUNTYNAME":"台中市","TOWNNAME":"霧峰區","MARKTYPE":"991","Class":"1"},"geometry":{"x":219027.93659999967,"y":2658153.2445999999}},{"attributes":{"OBJECTID":13599,"LANDMARKID":"1000600000028","LANDMARKCO":"101","LANDMARKNA":"水利署中區水資源局","LANDMARKAD":"1000618","ADDRESS":"台中市霧峰區吉峰村中正路1340之6號","TEL":"04-23320579","COUNTYNAME":"台中市","TOWNNAME":"霧峰區","MARKTYPE":"991","Class":"1"},"geometry":{"x":219688.91980000027,"y":2663740.1994000003}},{"attributes":{"OBJECTID":13600,"LANDMARKID":"1000600000029","LANDMARKCO":"101","LANDMARKNA":"水利署水利規劃試驗所","LANDMARKAD":"1000618","ADDRESS":"台中市霧峰區吉峰村中正路1340號","TEL":"04-23304788","COUNTYNAME":"台中市","TOWNNAME":"霧峰區","MARKTYPE":"991","Class":"1"},"geometry":{"x":219498.17810000014,"y":2663624.8846000005}}]}