{"type":"FeatureCollection","features":[{"type":"Feature","id":20801,"geometry":{"type":"Point","coordinates":[120.30312997219389,22.666893047550712]},"properties":{"OBJECTID":20801,"LANDMARKID":"6400000000677","LANDMARKCO":"306","LANDMARKNA":"巨蛋捷運站-出口5","LANDMARKAD":"6400003","ADDRESS":" ","TEL":" ","COUNTYNAME":"高雄市","TOWNNAME":"左營區","MARKTYPE":"993","Class":"306"}},{"type":"Feature","id":20802,"geometry":{"type":"Point","coordinates":[120.30311045197872,22.666456576736177]},"properties":{"OBJECTID":20802,"LANDMARKID":"6400000000678","LANDMARKCO":"306","LANDMARKNA":"巨蛋捷運站-出口3","LANDMARKAD":"6400003","ADDRESS":" ","TEL":" ","COUNTYNAME":"高雄市","TOWNNAME":"左營區","MARKTYPE":"993","Class":"306"}},{"type":"Feature","id":20803,"geometry":{"type":"Point","coordinates":[120.3063762732951,22.675844659064115]},"properties":{"OBJECTID":20803,"LANDMARKID":"6400000000679","LANDMARKCO":"306","LANDMARKNA":"生態園區捷運站-出口1","LANDMARKAD":"6400003","ADDRESS":" ","TEL":" ","COUNTYNAME":"高雄市","TOWNNAME":"左營區","MARKTYPE":"993","Class":"306"}},{"type":"Feature","id":20804,"geometry":{"type":"Point","coordinates":[120.30653058991632,22.677310230993896]},"properties":{"OBJECTID":20804,"LANDMARKID":"6400000000680","LANDMARKCO":"306","LANDMARKNA":"生態園區捷運站-出口2","LANDMARKAD":"6400003","ADDRESS":" ","TEL":" ","COUNTYNAME":"高雄市","TOWNNAME":"左營區","MARKTYPE":"993","Class":"306"}},{"type":"Feature","id":20805,"geometry":{"type":"Point","coordinates":[120.30865950927732,22.687569089392326]},"properties":{"OBJECTID":20805,"LANDMARKID":"6400000000681","LANDMARKCO":"306","LANDMARKNA":"左營捷運站-出口1","LANDMARKAD":"6400003","ADDRESS":" ","TEL":" ","COUNTYNAME":"高雄市","TOWNNAME":"左營區","MARKTYPE":"993","Class":"306"}},{"type":"Feature","id":20806,"geometry":{"type":"Point","coordinates":[120.30754104185105,22.688637915956175]},"properties":{"OBJECTID":20806,"LANDMARKID":"6400000000682","LANDMARKCO":"306","LANDMARKNA":"左營捷運站-出口2","LANDMARKAD":"6400003","ADDRESS":" ","TEL":" ","COUNTYNAME":"高雄市","TOWNNAME":"左營區","MARKTYPE":"993","Class":"306"}},{"type":"Feature","id":20807,"geometry":{"type":"Point","coordinates":[120.30872458017983,22.687548977442095]},"properties":{"OBJECTID":20807,"LANDMARKID":"6400000000704","LANDMARKCO":"307","LANDMARKNA":"高鐵左營站(高雄站)-出口1","LANDMARKAD":"6400003","ADDRESS":" ","TEL":" ","COUNTYNAME":"高雄市","TOWNNAME":"左營區","MARKTYPE":"993","Class":"307"}},{"type":"Feature","id":20808,"geometry":{"type":"Point","coordinates":[120.30854457742549,22.687289877167508]},"properties":{"OBJECTID":20808,"LANDMARKID":"6400000000705","LANDMARKCO":"307","LANDMARKNA":"高鐵左營站(高雄站)-出口2","LANDMARKAD":"6400003","ADDRESS":" ","TEL":" ","COUNTYNAME":"高雄市","TOWNNAME":"左營區","MARKTYPE":"993","Class":"307"}},{"type":"Feature","id":20809,"geometry":{"type":"Point","coordinates":[120.30766883515832,22.68649458666631]},"properties":{"OBJECTID":20809,"LANDMARKID":"6400000000706","LANDMARKCO":"307","LANDMARKNA":"高鐵左營站(高雄站)-出口3","LANDMARKAD":"6400003","ADDRESS":" ","TEL":" ","COUNTYNAME":"高雄市","TOWNNAME":"左營區","MARKTYPE":"993","Class":"307"}},{"type":"Feature","id":20810,"geometry":{"type":"Point","coordinates":[120.30737894887405,22.686268421373434]},"properties":{"OBJECTID":20810,"LANDMARKID":"6400000000707","LANDMARKCO":"307","LANDMARKNA":"高鐵左營站(高雄站)-出口4","LANDMARKAD":"6400003","ADDRESS":" ","TEL":" ","COUNTYNAME":"高雄市","TOWNNAME":"左營區","MARKTYPE":"993","Class":"307"}},{"type":"Feature","id":20811,"geometry":{"type":"Point","coordinates":[120.30621213392537,22.685696690852634]},"properties":{"OBJECTID":20811,"LANDMARKID":"6400000000708","LANDMARKCO":"307","LANDMARKNA":"高鐵左營站(高雄站)-出口5","LANDMARKAD":"6400003","ADDRESS":" ","TEL":" ","COUNTYNAME":"高雄市","TOWNNAME":"左營區","MARKTYPE":"993","Class":"307"}},{"type":"Feature","id":20812,"geometry":{"type":"Point","coordinates":[120.29951052055749,22.693804717792954]},"properties":{"OBJECTID":20812,"LANDMARKID":"6400000000439","LANDMARKCO":"302","LANDMARKNA":"統聯客運-左營站-自營站","LANDMARKAD":"6400003","ADDRESS":"高雄市左營區左營大路782號","TEL":"連絡電話:07-581","COUNTYNAME":"高雄市","TOWNNAME":"左營區","MARKTYPE":"993","Class":"302"}},{"type":"Feature","id":20813,"geometry":{"type":"Point","coordinates":[120.29414771693403,22.693386463645222]},"properties":{"OBJECTID":20813,"LANDMARKID":"6400000000555","LANDMARKCO":"303","LANDMARKNA":"海功地下停車場","LANDMARKAD":"6400003","ADDRESS":"高雄市左營區海功路57號","TEL":"07-5820597","COUNTYNAME":"高雄市","TOWNNAME":"左營區","MARKTYPE":"993","Class":"303"}},{"type":"Feature","id":20814,"geometry":{"type":"Point","coordinates":[120.30075411979898,22.689062376303486]},"properties":{"OBJECTID":20814,"LANDMARKID":"6400000000556","LANDMARKCO":"303","LANDMARKNA":"蓮池潭綜合遊樂園區停車場","LANDMARKAD":"6400003","ADDRESS":"高雄市左營區明潭路","TEL":" ","COUNTYNAME":"高雄市","TOWNNAME":"左營區","MARKTYPE":"993","Class":"303"}},{"type":"Feature","id":20815,"geometry":{"type":"Point","coordinates":[120.31116675558992,22.674073319632921]},"properties":{"OBJECTID":20815,"LANDMARKID":"6400000000557","LANDMARKCO":"303","LANDMARKNA":"自由黃昏市場停車場","LANDMARKAD":"6400003","ADDRESS":"高雄市左營區孟子路","TEL":" ","COUNTYNAME":"高雄市","TOWNNAME":"左營區","MARKTYPE":"993","Class":"303"}},{"type":"Feature","id":20816,"geometry":{"type":"Point","coordinates":[120.3058084625293,22.686668746515743]},"properties":{"OBJECTID":20816,"LANDMARKID":"6400000000558","LANDMARKCO":"303","LANDMARKNA":"左營高鐵立體停車場","LANDMARKAD":"6400003","ADDRESS":" ","TEL":" ","COUNTYNAME":"高雄市","TOWNNAME":"左營區","MARKTYPE":"993","Class":"303"}},{"type":"Feature","id":20817,"geometry":{"type":"Point","coordinates":[120.3232469425111,22.678608527969033]},"properties":{"OBJECTID":20817,"LANDMARKID":"6400000000559","LANDMARKCO":"303","LANDMARKNA":"高雄榮民總醫院附設停車場","LANDMARKAD":"6400003","ADDRESS":"高雄市左營區大中一路386號","TEL":" ","COUNTYNAME":"高雄市","TOWNNAME":"左營區","MARKTYPE":"993","Class":"303"}},{"type":"Feature","id":20818,"geometry":{"type":"Point","coordinates":[120.29834144894461,22.680050628678032]},"properties":{"OBJECTID":20818,"LANDMARKID":"6400000000560","LANDMARKCO":"303","LANDMARKNA":"蓮池潭行政中心停車場","LANDMARKAD":"6400003","ADDRESS":"高雄市左營區翠華路1435號","TEL":" ","COUNTYNAME":"高雄市","TOWNNAME":"左營區","MARKTYPE":"993","Class":"303"}},{"type":"Feature","id":20819,"geometry":{"type":"Point","coordinates":[120.30659635085955,22.686836576330933]},"properties":{"OBJECTID":20819,"LANDMARKID":"6400000000431","LANDMARKCO":"301","LANDMARKNA":"新左營站","LANDMARKAD":"6400003","ADDRESS":"高雄市左營區尾北里菜公路1號","TEL":"07-5887825","COUNTYNAME":"高雄市","TOWNNAME":"左營區","MARKTYPE":"993","Class":"301"}},{"type":"Feature","id":20820,"geometry":{"type":"Point","coordinates":[120.29488304205016,22.674954448294617]},"properties":{"OBJECTID":20820,"LANDMARKID":"6400000000432","LANDMARKCO":"301","LANDMARKNA":"左營火車站","LANDMARKAD":"6400003","ADDRESS":"高雄市左營區勝利路1號","TEL":" ","COUNTYNAME":"高雄市","TOWNNAME":"左營區","MARKTYPE":"993","Class":"301"}},{"type":"Feature","id":20821,"geometry":{"type":"Point","coordinates":[120.28871386804502,22.682772979914432]},"properties":{"OBJECTID":20821,"LANDMARKID":"6400000000786","LANDMARKCO":"402","LANDMARKNA":"中華電信-高雄舊城特約服務中心","LANDMARKAD":"6400003","ADDRESS":"高雄市左營區左營大路114號","TEL":"07-5889488","COUNTYNAME":"高雄市","TOWNNAME":"左營區","MARKTYPE":"994","Class":"4"}},{"type":"Feature","id":20822,"geometry":{"type":"Point","coordinates":[120.30722522608578,22.659920975329989]},"properties":{"OBJECTID":20822,"LANDMARKID":"6400000000787","LANDMARKCO":"402","LANDMARKNA":"中華電信-至聖服務中心","LANDMARKAD":"6400003","ADDRESS":"高雄市左營區至聖路200號","TEL":"123或0800-080-123","COUNTYNAME":"高雄市","TOWNNAME":"左營區","MARKTYPE":"994","Class":"4"}},{"type":"Feature","id":20823,"geometry":{"type":"Point","coordinates":[120.30943262025029,22.684220439317034]},"properties":{"OBJECTID":20823,"LANDMARKID":"6400000000788","LANDMARKCO":"402","LANDMARKNA":"中華電信-高雄高鐵特約服務中心","LANDMARKAD":"6400003","ADDRESS":"高雄市左營區華夏路1170號","TEL":"07-3486828","COUNTYNAME":"高雄市","TOWNNAME":"左營區","MARKTYPE":"994","Class":"4"}},{"type":"Feature","id":20824,"geometry":{"type":"Point","coordinates":[120.30150686857336,22.677559450389371]},"properties":{"OBJECTID":20824,"LANDMARKID":"6400000000789","LANDMARKCO":"402","LANDMARKNA":"中華電信-高雄華夏特約服務中心","LANDMARKAD":"6400003","ADDRESS":"高雄市左營區華夏路663號","TEL":"07-3433868","COUNTYNAME":"高雄市","TOWNNAME":"左營區","MARKTYPE":"994","Class":"4"}},{"type":"Feature","id":20825,"geometry":{"type":"Point","coordinates":[120.29331335024888,22.690148964273952]},"properties":{"OBJECTID":20825,"LANDMARKID":"6400000000790","LANDMARKCO":"402","LANDMARKNA":"中華電信-左營服務中心","LANDMARKAD":"6400003","ADDRESS":"高雄市左營區實踐路45號","TEL":"123或0800-080-123","COUNTYNAME":"高雄市","TOWNNAME":"左營區","MARKTYPE":"994","Class":"4"}},{"type":"Feature","id":20826,"geometry":{"type":"Point","coordinates":[120.30641491925788,22.659218588443718]},"properties":{"OBJECTID":20826,"LANDMARKID":"6400000000791","LANDMARKCO":"402","LANDMARKNA":"威寶電信-高雄富國特約服務務中心","LANDMARKAD":"6400003","ADDRESS":"高雄市左營區富國路81號","TEL":"07-5509160","COUNTYNAME":"高雄市","TOWNNAME":"左營區","MARKTYPE":"994","Class":"4"}},{"type":"Feature","id":20827,"geometry":{"type":"Point","coordinates":[120.30230890222455,22.678550742159025]},"properties":{"OBJECTID":20827,"LANDMARKID":"6400000000792","LANDMARKCO":"402","LANDMARKNA":"威寶電信-高雄華夏特約服務中心","LANDMARKAD":"6400003","ADDRESS":"高雄市左營區華夏路729號","TEL":"07-3497977","COUNTYNAME":"高雄市","TOWNNAME":"左營區","MARKTYPE":"994","Class":"4"}},{"type":"Feature","id":20828,"geometry":{"type":"Point","coordinates":[120.31221348687556,22.674036829970955]},"properties":{"OBJECTID":20828,"LANDMARKID":"6400000000793","LANDMARKCO":"402","LANDMARKNA":"威寶電信-高雄自由三特約服務中心","LANDMARKAD":"6400003","ADDRESS":"高雄市左營區自由三路292號","TEL":"07-3481818","COUNTYNAME":"高雄市","TOWNNAME":"左營區","MARKTYPE":"994","Class":"4"}},{"type":"Feature","id":20829,"geometry":{"type":"Point","coordinates":[120.30413434032577,22.669966368629208]},"properties":{"OBJECTID":20829,"LANDMARKID":"6400000000794","LANDMARKCO":"402","LANDMARKNA":"威寶電信-高雄新庄特約服務中心","LANDMARKAD":"6400003","ADDRESS":"高雄市左營區新庄仔路512-1號","TEL":"05-5508050","COUNTYNAME":"高雄市","TOWNNAME":"左營區","MARKTYPE":"994","Class":"4"}},{"type":"Feature","id":20830,"geometry":{"type":"Point","coordinates":[120.29076827976297,22.685957629238246]},"properties":{"OBJECTID":20830,"LANDMARKID":"6400000000795","LANDMARKCO":"402","LANDMARKNA":"威寶電信-高雄左營特約服務中心","LANDMARKAD":"6400003","ADDRESS":"高雄市左營區左營大路276號","TEL":"07-5886065","COUNTYNAME":"高雄市","TOWNNAME":"左營區","MARKTYPE":"994","Class":"4"}},{"type":"Feature","id":20831,"geometry":{"type":"Point","coordinates":[120.28960793966887,22.685224874359339]},"properties":{"OBJECTID":20831,"LANDMARKID":"6400000000796","LANDMARKCO":"402","LANDMARKNA":"大眾電信(震旦通訊)-高雄左營店","LANDMARKAD":"6400003","ADDRESS":"高雄市左營區左營大路189號","TEL":"07-5856700","COUNTYNAME":"高雄市","TOWNNAME":"左營區","MARKTYPE":"994","Class":"4"}},{"type":"Feature","id":20832,"geometry":{"type":"Point","coordinates":[120.31963001958235,22.679645502901497]},"properties":{"OBJECTID":20832,"LANDMARKID":"6400000000797","LANDMARKCO":"402","LANDMARKNA":"大眾電信-民族專賣店","LANDMARKAD":"6400003","ADDRESS":"高雄市左營區民族一路996號","TEL":"07-3472288","COUNTYNAME":"高雄市","TOWNNAME":"左營區","MARKTYPE":"994","Class":"4"}},{"type":"Feature","id":20833,"geometry":{"type":"Point","coordinates":[120.30814049672921,22.664579652964292]},"properties":{"OBJECTID":20833,"LANDMARKID":"6400000000798","LANDMARKCO":"402","LANDMARKNA":"大眾電信-自由專賣店","LANDMARKAD":"6400003","ADDRESS":"高雄市左營區自由二路347號","TEL":"07-5590288","COUNTYNAME":"高雄市","TOWNNAME":"左營區","MARKTYPE":"994","Class":"4"}},{"type":"Feature","id":20834,"geometry":{"type":"Point","coordinates":[120.30904555385615,22.659843402570875]},"properties":{"OBJECTID":20834,"LANDMARKID":"6400000000799","LANDMARKCO":"402","LANDMARKNA":"大眾電信(震旦通訊)-高雄自由店","LANDMARKAD":"6400003","ADDRESS":"高雄市自由二路98號","TEL":"07-5567558","COUNTYNAME":"高雄市","TOWNNAME":"左營區","MARKTYPE":"994","Class":"4"}},{"type":"Feature","id":20835,"geometry":{"type":"Point","coordinates":[120.30809083617834,22.664121033614471]},"properties":{"OBJECTID":20835,"LANDMARKID":"6400000000800","LANDMARKCO":"402","LANDMARKNA":"威寶電信-高雄自由直營服務中心","LANDMARKAD":"6400003","ADDRESS":"高雄市左營區自由二路331號","TEL":" ","COUNTYNAME":"高雄市","TOWNNAME":"左營區","MARKTYPE":"994","Class":"4"}},{"type":"Feature","id":20836,"geometry":{"type":"Point","coordinates":[120.30656138597661,22.674333423223086]},"properties":{"OBJECTID":20836,"LANDMARKID":"6400000001357","LANDMARKCO":"603","LANDMARKNA":"函館汽車旅館","LANDMARKAD":"6400003","ADDRESS":"高雄市左營區崇德路156號1","TEL":"2樓","COUNTYNAME":"高雄市","TOWNNAME":"左營區","MARKTYPE":"996","Class":"6"}},{"type":"Feature","id":20837,"geometry":{"type":"Point","coordinates":[120.28796848676033,22.68556233604701]},"properties":{"OBJECTID":20837,"LANDMARKID":"6400000001358","LANDMARKCO":"603","LANDMARKNA":"順風大旅社","LANDMARKAD":"6400003","ADDRESS":"高雄市左營區部後街42巷113號","TEL":"07-5878768","COUNTYNAME":"高雄市","TOWNNAME":"左營區","MARKTYPE":"996","Class":"6"}},{"type":"Feature","id":20838,"geometry":{"type":"Point","coordinates":[120.28781556825125,22.680832654428151]},"properties":{"OBJECTID":20838,"LANDMARKID":"6400000001359","LANDMARKCO":"603","LANDMARKNA":"萬隆大旅社","LANDMARKAD":"6400003","ADDRESS":"高雄市左營區左營大路16號之2","TEL":"07-5836741","COUNTYNAME":"高雄市","TOWNNAME":"左營區","MARKTYPE":"996","Class":"6"}},{"type":"Feature","id":20839,"geometry":{"type":"Point","coordinates":[120.30548845690764,22.675495844612925]},"properties":{"OBJECTID":20839,"LANDMARKID":"6400000001360","LANDMARKCO":"603","LANDMARKNA":"春風時尚旅館","LANDMARKAD":"6400003","ADDRESS":"高雄市左營區重上街117號","TEL":"07-3453758","COUNTYNAME":"高雄市","TOWNNAME":"左營區","MARKTYPE":"996","Class":"6"}},{"type":"Feature","id":20840,"geometry":{"type":"Point","coordinates":[120.31264520456574,22.68411871183055]},"properties":{"OBJECTID":20840,"LANDMARKID":"6400000001361","LANDMARKCO":"603","LANDMARKNA":"雪梨汽車旅館","LANDMARKAD":"6400003","ADDRESS":"高雄市左營區重和路77號1-2樓","TEL":"07-3423377","COUNTYNAME":"高雄市","TOWNNAME":"左營區","MARKTYPE":"996","Class":"6"}},{"type":"Feature","id":20841,"geometry":{"type":"Point","coordinates":[120.31083917461109,22.683708773067753]},"properties":{"OBJECTID":20841,"LANDMARKID":"6400000001362","LANDMARKCO":"603","LANDMARKNA":"星光汽車旅館","LANDMARKAD":"6400003","ADDRESS":"高雄市左營區重信路428號1-3樓","TEL":"07-3416202","COUNTYNAME":"高雄市","TOWNNAME":"左營區","MARKTYPE":"996","Class":"6"}},{"type":"Feature","id":20842,"geometry":{"type":"Point","coordinates":[120.31304826314837,22.685666444036645]},"properties":{"OBJECTID":20842,"LANDMARKID":"6400000001363","LANDMARKCO":"603","LANDMARKNA":"溫哥華汽車旅館","LANDMARKAD":"6400003","ADDRESS":"高雄市左營區重義路11號","TEL":"07-3459677","COUNTYNAME":"高雄市","TOWNNAME":"左營區","MARKTYPE":"996","Class":"6"}},{"type":"Feature","id":20843,"geometry":{"type":"Point","coordinates":[120.29749050856432,22.676326348382599]},"properties":{"OBJECTID":20843,"LANDMARKID":"6400000001364","LANDMARKCO":"603","LANDMARKNA":"花鄉旅館","LANDMARKAD":"6400003","ADDRESS":"高雄市左營區文智路95號","TEL":"07-3470111","COUNTYNAME":"高雄市","TOWNNAME":"左營區","MARKTYPE":"996","Class":"6"}},{"type":"Feature","id":20844,"geometry":{"type":"Point","coordinates":[120.29302352756106,22.689938695546015]},"properties":{"OBJECTID":20844,"LANDMARKID":"6400000001365","LANDMARKCO":"603","LANDMARKNA":"瑞和旅社","LANDMARKAD":"6400003","ADDRESS":"高雄市左營區左營大路419巷72弄10號","TEL":"07-5815679","COUNTYNAME":"高雄市","TOWNNAME":"左營區","MARKTYPE":"996","Class":"6"}},{"type":"Feature","id":20845,"geometry":{"type":"Point","coordinates":[120.29262769843879,22.688237469544948]},"properties":{"OBJECTID":20845,"LANDMARKID":"6400000001366","LANDMARKCO":"603","LANDMARKNA":"上海旅社","LANDMARKAD":"6400003","ADDRESS":"高雄市左營區軍校路2巷28號之2","TEL":"07-5814491","COUNTYNAME":"高雄市","TOWNNAME":"左營區","MARKTYPE":"996","Class":"6"}},{"type":"Feature","id":20846,"geometry":{"type":"Point","coordinates":[120.28790741710874,22.680760969809608]},"properties":{"OBJECTID":20846,"LANDMARKID":"6400000001367","LANDMARKCO":"603","LANDMARKNA":"萬美賓館","LANDMARKAD":"6400003","ADDRESS":"高雄市左營區左營大路14-9號","TEL":"07-5825888","COUNTYNAME":"高雄市","TOWNNAME":"左營區","MARKTYPE":"996","Class":"6"}},{"type":"Feature","id":20847,"geometry":{"type":"Point","coordinates":[120.28789731249884,22.680797003041874]},"properties":{"OBJECTID":20847,"LANDMARKID":"6400000001368","LANDMARKCO":"603","LANDMARKNA":"富鈺商務旅館","LANDMARKAD":"6400003","ADDRESS":"高雄市左營區左營大路22號5-7樓","TEL":"07-5882797","COUNTYNAME":"高雄市","TOWNNAME":"左營區","MARKTYPE":"996","Class":"6"}},{"type":"Feature","id":20848,"geometry":{"type":"Point","coordinates":[120.29074187347609,22.68568647042213]},"properties":{"OBJECTID":20848,"LANDMARKID":"6400000001369","LANDMARKCO":"603","LANDMARKNA":"五統大旅社","LANDMARKAD":"6400003","ADDRESS":"高雄市左營區左營大路272巷1號","TEL":"07-5817181-4","COUNTYNAME":"高雄市","TOWNNAME":"左營區","MARKTYPE":"996","Class":"6"}},{"type":"Feature","id":20849,"geometry":{"type":"Point","coordinates":[120.29117598382015,22.686060579521172]},"properties":{"OBJECTID":20849,"LANDMARKID":"6400000001370","LANDMARKCO":"603","LANDMARKNA":"富山旅社","LANDMARKAD":"6400003","ADDRESS":"高雄市左營區左營大路288巷1號","TEL":"07-5815898","COUNTYNAME":"高雄市","TOWNNAME":"左營區","MARKTYPE":"996","Class":"6"}},{"type":"Feature","id":20850,"geometry":{"type":"Point","coordinates":[120.29313726617941,22.687898800738516]},"properties":{"OBJECTID":20850,"LANDMARKID":"6400000001371","LANDMARKCO":"603","LANDMARKNA":"寶明大旅社","LANDMARKAD":"6400003","ADDRESS":"高雄市左營區左營大路381巷15號","TEL":"07-5833943","COUNTYNAME":"高雄市","TOWNNAME":"左營區","MARKTYPE":"996","Class":"6"}},{"type":"Feature","id":20851,"geometry":{"type":"Point","coordinates":[120.29272112235061,22.688617588526782]},"properties":{"OBJECTID":20851,"LANDMARKID":"6400000001372","LANDMARKCO":"603","LANDMARKNA":"國泰旅社","LANDMARKAD":"6400003","ADDRESS":"高雄市左營區左營大路401巷33弄10號","TEL":"07-5822592","COUNTYNAME":"高雄市","TOWNNAME":"左營區","MARKTYPE":"996","Class":"6"}},{"type":"Feature","id":20852,"geometry":{"type":"Point","coordinates":[120.2940252506033,22.687671836596156]},"properties":{"OBJECTID":20852,"LANDMARKID":"6400000001373","LANDMARKCO":"603","LANDMARKNA":"城都大旅社","LANDMARKAD":"6400003","ADDRESS":"高雄市左營區左營大路442巷8號","TEL":"07-5815066","COUNTYNAME":"高雄市","TOWNNAME":"左營區","MARKTYPE":"996","Class":"6"}},{"type":"Feature","id":20853,"geometry":{"type":"Point","coordinates":[120.29777849294439,22.691301660619249]},"properties":{"OBJECTID":20853,"LANDMARKID":"6400000001374","LANDMARKCO":"603","LANDMARKNA":"華宮賓館","LANDMARKAD":"6400003","ADDRESS":"高雄市左營區左營大路646號","TEL":"07-5820135-9","COUNTYNAME":"高雄市","TOWNNAME":"左營區","MARKTYPE":"996","Class":"6"}},{"type":"Feature","id":20854,"geometry":{"type":"Point","coordinates":[120.30418598972921,22.663997552972489]},"properties":{"OBJECTID":20854,"LANDMARKID":"6400000001375","LANDMARKCO":"603","LANDMARKNA":"金哈妮汽車旅館(歐洲旅館)","LANDMARKAD":"6400003","ADDRESS":"高雄市左營區正心街86號","TEL":"07-5561166","COUNTYNAME":"高雄市","TOWNNAME":"左營區","MARKTYPE":"996","Class":"6"}},{"type":"Feature","id":20855,"geometry":{"type":"Point","coordinates":[120.30495055619593,22.664410578681313]},"properties":{"OBJECTID":20855,"LANDMARKID":"6400000001376","LANDMARKCO":"603","LANDMARKNA":"龍翔飯店","LANDMARKAD":"6400003","ADDRESS":"高雄市左營區立文路75號7-10樓","TEL":"07-5574769","COUNTYNAME":"高雄市","TOWNNAME":"左營區","MARKTYPE":"996","Class":"6"}},{"type":"Feature","id":20856,"geometry":{"type":"Point","coordinates":[120.28987420515662,22.686274747920887]},"properties":{"OBJECTID":20856,"LANDMARKID":"6400000001377","LANDMARKCO":"603","LANDMARKNA":"榮林旅社","LANDMARKAD":"6400003","ADDRESS":"高雄市左營區西陵街7號","TEL":"07-5824750","COUNTYNAME":"高雄市","TOWNNAME":"左營區","MARKTYPE":"996","Class":"6"}},{"type":"Feature","id":20857,"geometry":{"type":"Point","coordinates":[120.29277445398955,22.678305057391324]},"properties":{"OBJECTID":20857,"LANDMARKID":"6400000001378","LANDMARKCO":"603","LANDMARKNA":"黑貓大旅社","LANDMARKAD":"6400003","ADDRESS":"高雄市左營區勝利路87號","TEL":"07-5814622","COUNTYNAME":"高雄市","TOWNNAME":"左營區","MARKTYPE":"996","Class":"6"}},{"type":"Feature","id":20858,"geometry":{"type":"Point","coordinates":[120.29242393684653,22.682555412705838]},"properties":{"OBJECTID":20858,"LANDMARKID":"6400000001379","LANDMARKCO":"603","LANDMARKNA":"蓮潭旅社","LANDMARKAD":"6400003","ADDRESS":"高雄市左營區蓮潭路39號","TEL":"07-5837751","COUNTYNAME":"高雄市","TOWNNAME":"左營區","MARKTYPE":"996","Class":"6"}},{"type":"Feature","id":20859,"geometry":{"type":"Point","coordinates":[120.2924528527077,22.682582761460161]},"properties":{"OBJECTID":20859,"LANDMARKID":"6400000001380","LANDMARKCO":"603","LANDMARKNA":"舊城旅社","LANDMARKAD":"6400003","ADDRESS":"高雄市左營區蓮潭路40號","TEL":"07-5817848","COUNTYNAME":"高雄市","TOWNNAME":"左營區","MARKTYPE":"996","Class":"6"}},{"type":"Feature","id":20860,"geometry":{"type":"Point","coordinates":[120.29148757052347,22.680428235120917]},"properties":{"OBJECTID":20860,"LANDMARKID":"6400000001381","LANDMARKCO":"603","LANDMARKNA":"蓮池大旅社","LANDMARKAD":"6400003","ADDRESS":"高雄市左營區蓮潭路5號","TEL":"07-5816228","COUNTYNAME":"高雄市","TOWNNAME":"左營區","MARKTYPE":"996","Class":"6"}},{"type":"Feature","id":20861,"geometry":{"type":"Point","coordinates":[120.3068138915319,22.675296581785119]},"properties":{"OBJECTID":20861,"LANDMARKID":"6400000001382","LANDMARKCO":"603","LANDMARKNA":"愛情海汽車旅館","LANDMARKAD":"6400003","ADDRESS":"高雄市左營區文強路176號2-3樓","TEL":"07-3474955","COUNTYNAME":"高雄市","TOWNNAME":"左營區","MARKTYPE":"996","Class":"6"}},{"type":"Feature","id":20862,"geometry":{"type":"Point","coordinates":[120.29533641605978,22.685130697399615]},"properties":{"OBJECTID":20862,"LANDMARKID":"6400000001188","LANDMARKCO":"503","LANDMARKNA":"蓮池潭風景區","LANDMARKAD":"6400003","ADDRESS":"高雄市左營區","TEL":" ","COUNTYNAME":"高雄市","TOWNNAME":"左營區","MARKTYPE":"995","Class":"5"}},{"type":"Feature","id":20863,"geometry":{"type":"Point","coordinates":[120.28045136345598,22.695813041030892]},"properties":{"OBJECTID":20863,"LANDMARKID":"6400000001208","LANDMARKCO":"510","LANDMARKNA":"海軍左營高爾夫球場","LANDMARKAD":"6400003","ADDRESS":"高雄市左營區長壽路1號","TEL":"07-5836427","COUNTYNAME":"高雄市","TOWNNAME":"左營區","MARKTYPE":"995","Class":"5"}},{"type":"Feature","id":20864,"geometry":{"type":"Point","coordinates":[120.31275855587747,22.644604906065517]},"properties":{"OBJECTID":20864,"LANDMARKID":"6400000001019","LANDMARKCO":"405","LANDMARKNA":"台灣優力加油站-十全站(中油)","LANDMARKAD":"6400005","ADDRESS":"高雄市三民區十全一路11號","TEL":"07-3134873","COUNTYNAME":"高雄市","TOWNNAME":"三民區","MARKTYPE":"994","Class":"4"}},{"type":"Feature","id":20865,"geometry":{"type":"Point","coordinates":[120.34099037217811,22.636542827846203]},"properties":{"OBJECTID":20865,"LANDMARKID":"6400000001020","LANDMARKCO":"405","LANDMARKNA":"中油加油站-澄清湖站","LANDMARKAD":"6400005","ADDRESS":"高雄市三民區九如一路123號","TEL":"07-3892166","COUNTYNAME":"高雄市","TOWNNAME":"三民區","MARKTYPE":"994","Class":"4"}},{"type":"Feature","id":20866,"geometry":{"type":"Point","coordinates":[120.34194235806946,22.63684811964464]},"properties":{"OBJECTID":20866,"LANDMARKID":"6400000001021","LANDMARKCO":"405","LANDMARKNA":"中油加油站-三越站","LANDMARKAD":"6400005","ADDRESS":"高雄市三民區九如一路82號","TEL":"07-3802692","COUNTYNAME":"高雄市","TOWNNAME":"三民區","MARKTYPE":"994","Class":"4"}},{"type":"Feature","id":20867,"geometry":{"type":"Point","coordinates":[120.32134980295042,22.666885430724356]},"properties":{"OBJECTID":20867,"LANDMARKID":"6400000001022","LANDMARKCO":"405","LANDMARKNA":"中油加油站-天祥站","LANDMARKAD":"6400005","ADDRESS":"高雄市三民區天祥一路99號","TEL":"07-3472200","COUNTYNAME":"高雄市","TOWNNAME":"三民區","MARKTYPE":"994","Class":"4"}},{"type":"Feature","id":20868,"geometry":{"type":"Point","coordinates":[120.31071152781715,22.637799106779827]},"properties":{"OBJECTID":20868,"LANDMARKID":"6400000001023","LANDMARKCO":"405","LANDMARKNA":"中油加油站-建國二路站(中油直營)","LANDMARKAD":"6400005","ADDRESS":"高雄市三民區建國二路66號","TEL":"07-2383484","COUNTYNAME":"高雄市","TOWNNAME":"三民區","MARKTYPE":"994","Class":"4"}},{"type":"Feature","id":20869,"geometry":{"type":"Point","coordinates":[120.33173017071483,22.647184400803948]},"properties":{"OBJECTID":20869,"LANDMARKID":"6400000001024","LANDMARKCO":"405","LANDMARKNA":"中油加油站-大昌路站","LANDMARKAD":"6400005","ADDRESS":"高雄市三民區大昌二路299號","TEL":"07-3920291","COUNTYNAME":"高雄市","TOWNNAME":"三民區","MARKTYPE":"994","Class":"4"}},{"type":"Feature","id":20870,"geometry":{"type":"Point","coordinates":[120.31156902404042,22.642528383219997]},"properties":{"OBJECTID":20870,"LANDMARKID":"6400000001025","LANDMARKCO":"405","LANDMARKNA":"中油加油站-山東街站(中油直營)","LANDMARKAD":"6400005","ADDRESS":"高雄市三民區山東街70號","TEL":"07-3118164","COUNTYNAME":"高雄市","TOWNNAME":"三民區","MARKTYPE":"994","Class":"4"}},{"type":"Feature","id":20871,"geometry":{"type":"Point","coordinates":[120.30305609202897,22.649984820962878]},"properties":{"OBJECTID":20871,"LANDMARKID":"6400000001026","LANDMARKCO":"405","LANDMARKNA":"中油加油站-博愛站","LANDMARKAD":"6400005","ADDRESS":"高雄市三民區博愛一路335號","TEL":"07-3229254","COUNTYNAME":"高雄市","TOWNNAME":"三民區","MARKTYPE":"994","Class":"4"}},{"type":"Feature","id":20872,"geometry":{"type":"Point","coordinates":[120.30860725450042,22.651932340563459]},"properties":{"OBJECTID":20872,"LANDMARKID":"6400000001027","LANDMARKCO":"405","LANDMARKNA":"中油加油站-自由站","LANDMARKAD":"6400005","ADDRESS":"高雄市三民區自由一路231號","TEL":"07-3863111","COUNTYNAME":"高雄市","TOWNNAME":"三民區","MARKTYPE":"994","Class":"4"}},{"type":"Feature","id":20873,"geometry":{"type":"Point","coordinates":[120.32467947159329,22.65032112946712]},"properties":{"OBJECTID":20873,"LANDMARKID":"6400000001028","LANDMARKCO":"405","LANDMARKNA":"中油加油站-建工路站(刷卡自助)(中油直營)","LANDMARKAD":"6400005","ADDRESS":"高雄市三民區建工路566號","TEL":"07-3832928","COUNTYNAME":"高雄市","TOWNNAME":"三民區","MARKTYPE":"994","Class":"4"}},{"type":"Feature","id":20874,"geometry":{"type":"Point","coordinates":[120.31824039968167,22.640311175516569]},"properties":{"OBJECTID":20874,"LANDMARKID":"6400000001029","LANDMARKCO":"405","LANDMARKNA":"中油加油站-三民站","LANDMARKAD":"6400005","ADDRESS":"高雄市三民區九如一路878號","TEL":"07-3893816","COUNTYNAME":"高雄市","TOWNNAME":"三民區","MARKTYPE":"994","Class":"4"}},{"type":"Feature","id":20875,"geometry":{"type":"Point","coordinates":[120.32184812584717,22.657362140923222]},"properties":{"OBJECTID":20875,"LANDMARKID":"6400000001030","LANDMARKCO":"405","LANDMARKNA":"中油加油站-鼎山路站(中油直營)","LANDMARKAD":"6400005","ADDRESS":"高雄市三民區鼎山街373號","TEL":"07-3839681","COUNTYNAME":"高雄市","TOWNNAME":"三民區","MARKTYPE":"994","Class":"4"}},{"type":"Feature","id":20876,"geometry":{"type":"Point","coordinates":[120.32187955279709,22.662664573835876]},"properties":{"OBJECTID":20876,"LANDMARKID":"6400000001031","LANDMARKCO":"405","LANDMARKNA":"中油加油站-金獅站","LANDMARKAD":"6400005","ADDRESS":"高雄市三民區鼎力路36號","TEL":"07-3508152","COUNTYNAME":"高雄市","TOWNNAME":"三民區","MARKTYPE":"994","Class":"4"}},{"type":"Feature","id":20877,"geometry":{"type":"Point","coordinates":[120.31558888719752,22.653386153873456]},"properties":{"OBJECTID":20877,"LANDMARKID":"6400000001032","LANDMARKCO":"405","LANDMARKNA":"中油加油站-民族站","LANDMARKAD":"6400005","ADDRESS":"高雄市三民區民族一路418號","TEL":"07-3850731","COUNTYNAME":"高雄市","TOWNNAME":"三民區","MARKTYPE":"994","Class":"4"}},{"type":"Feature","id":20878,"geometry":{"type":"Point","coordinates":[120.33405287155362,22.640706116244072]},"properties":{"OBJECTID":20878,"LANDMARKID":"6400000001033","LANDMARKCO":"405","LANDMARKNA":"中油加油站-覺民路站(中油直營)","LANDMARKAD":"6400005","ADDRESS":"高雄市三民區覺民路362號","TEL":"07-3869992","COUNTYNAME":"高雄市","TOWNNAME":"三民區","MARKTYPE":"994","Class":"4"}},{"type":"Feature","id":20879,"geometry":{"type":"Point","coordinates":[120.29628672598672,22.644995181929946]},"properties":{"OBJECTID":20879,"LANDMARKID":"6400000001034","LANDMARKCO":"405","LANDMARKNA":"統一速邁樂加油站-自立加油站(中油)","LANDMARKAD":"6400005","ADDRESS":"高雄市自立一路333號","TEL":" ","COUNTYNAME":"高雄市","TOWNNAME":"三民區","MARKTYPE":"994","Class":"4"}},{"type":"Feature","id":20880,"geometry":{"type":"Point","coordinates":[120.31198515937572,22.660714634609857]},"properties":{"OBJECTID":20880,"LANDMARKID":"6400000000843","LANDMARKCO":"402","LANDMARKNA":"My Phone台灣大哥大-高雄明誠直營服務中心","LANDMARKAD":"6400005","ADDRESS":"高雄市三民區河堤路288號","TEL":"0809-000-166","COUNTYNAME":"高雄市","TOWNNAME":"三民區","MARKTYPE":"994","Class":"4"}},{"type":"Feature","id":20881,"geometry":{"type":"Point","coordinates":[120.30854425008344,22.64424310908667]},"properties":{"OBJECTID":20881,"LANDMARKID":"6400000000844","LANDMARKCO":"402","LANDMARKNA":"My Phone台灣大哥大-高雄自由直營服務中心","LANDMARKAD":"6400005","ADDRESS":"高雄市三民區德智里自由一路123號","TEL":" ","COUNTYNAME":"高雄市","TOWNNAME":"三民區","MARKTYPE":"994","Class":"4"}},{"type":"Feature","id":20882,"geometry":{"type":"Point","coordinates":[120.34001379500626,22.639286100091503]},"properties":{"OBJECTID":20882,"LANDMARKID":"6400000000845","LANDMARKCO":"402","LANDMARKNA":"My Phone台灣大哥大-高雄覺民直營服務中心","LANDMARKAD":"6400005","ADDRESS":"高雄市三民區覺民路197號","TEL":"0809-000-166","COUNTYNAME":"高雄市","TOWNNAME":"三民區","MARKTYPE":"994","Class":"4"}},{"type":"Feature","id":20883,"geometry":{"type":"Point","coordinates":[120.30273014153052,22.645240312524681]},"properties":{"OBJECTID":20883,"LANDMARKID":"6400000000846","LANDMARKCO":"402","LANDMARKNA":"亞太行動寬頻電信-高雄博愛加盟服務中心","LANDMARKAD":"6400005","ADDRESS":"高雄市三民區博愛一路145號","TEL":"07-3232233","COUNTYNAME":"高雄市","TOWNNAME":"三民區","MARKTYPE":"994","Class":"4"}},{"type":"Feature","id":20884,"geometry":{"type":"Point","coordinates":[120.33934743787307,22.639786341798008]},"properties":{"OBJECTID":20884,"LANDMARKID":"6400000000847","LANDMARKCO":"402","LANDMARKNA":"亞太行動寬頻電信-高雄覺民加盟服務中心","LANDMARKAD":"6400005","ADDRESS":"高雄市三民區覺民路224號","TEL":"07-3838669","COUNTYNAME":"高雄市","TOWNNAME":"三民區","MARKTYPE":"994","Class":"4"}},{"type":"Feature","id":20885,"geometry":{"type":"Point","coordinates":[120.32653541452898,22.651233695146171]},"properties":{"OBJECTID":20885,"LANDMARKID":"6400000000848","LANDMARKCO":"402","LANDMARKNA":"亞太行動寬頻電信-三民建工加盟服務中心","LANDMARKAD":"6400005","ADDRESS":"高雄市三民區建工路496號","TEL":"07-3987227","COUNTYNAME":"高雄市","TOWNNAME":"三民區","MARKTYPE":"994","Class":"4"}},{"type":"Feature","id":20886,"geometry":{"type":"Point","coordinates":[120.31777517890821,22.667793281893701]},"properties":{"OBJECTID":20886,"LANDMARKID":"6400000000849","LANDMARKCO":"402","LANDMARKNA":"亞太行動寬頻電信-三民天祥加盟服務中心","LANDMARKAD":"6400005","ADDRESS":"高雄市三民區天祥一路207號","TEL":"07-3596659","COUNTYNAME":"高雄市","TOWNNAME":"三民區","MARKTYPE":"994","Class":"4"}},{"type":"Feature","id":20887,"geometry":{"type":"Point","coordinates":[120.31195499447934,22.645082248149681]},"properties":{"OBJECTID":20887,"LANDMARKID":"6400000000850","LANDMARKCO":"402","LANDMARKNA":"亞太行動寬頻電信-高雄十全加盟服務中心","LANDMARKAD":"6400005","ADDRESS":"高雄市三民區十全一路72號","TEL":"07-3222698","COUNTYNAME":"高雄市","TOWNNAME":"三民區","MARKTYPE":"994","Class":"4"}},{"type":"Feature","id":20888,"geometry":{"type":"Point","coordinates":[120.32232830780654,22.660746375379482]},"properties":{"OBJECTID":20888,"LANDMARKID":"6400000000851","LANDMARKCO":"402","LANDMARKNA":"亞太行動寬頻電信-高雄鼎山加盟服務中心","LANDMARKAD":"6400005","ADDRESS":"高雄市三民區鼎山街209號","TEL":"07-3598388","COUNTYNAME":"高雄市","TOWNNAME":"三民區","MARKTYPE":"994","Class":"4"}},{"type":"Feature","id":20889,"geometry":{"type":"Point","coordinates":[120.33230069254611,22.641642309825613]},"properties":{"OBJECTID":20889,"LANDMARKID":"6400000000852","LANDMARKCO":"402","LANDMARKNA":"亞太行動寬頻電信-三民大昌二加盟服務中心","LANDMARKAD":"6400005","ADDRESS":"高雄市三民區大昌二路34號","TEL":"07-3814039","COUNTYNAME":"高雄市","TOWNNAME":"三民區","MARKTYPE":"994","Class":"4"}},{"type":"Feature","id":20890,"geometry":{"type":"Point","coordinates":[120.29633952068291,22.641535361104523]},"properties":{"OBJECTID":20890,"LANDMARKID":"6400000000853","LANDMARKCO":"402","LANDMARKNA":"亞太行動寬頻電信-高雄九如加盟服務中心","LANDMARKAD":"6400005","ADDRESS":"高雄市三民區九如二路583號","TEL":"07-3131000","COUNTYNAME":"高雄市","TOWNNAME":"三民區","MARKTYPE":"994","Class":"4"}},{"type":"Feature","id":20891,"geometry":{"type":"Point","coordinates":[120.32896326316877,22.652705389081451]},"properties":{"OBJECTID":20891,"LANDMARKID":"6400000000854","LANDMARKCO":"402","LANDMARKNA":"亞太行動寬頻電信-三民大昌加盟服務中心","LANDMARKAD":"6400005","ADDRESS":"高雄市三民區大昌一路2-1號","TEL":"07-3961008","COUNTYNAME":"高雄市","TOWNNAME":"三民區","MARKTYPE":"994","Class":"4"}},{"type":"Feature","id":20892,"geometry":{"type":"Point","coordinates":[120.29327844261981,22.636768504677672]},"properties":{"OBJECTID":20892,"LANDMARKID":"6400000000765","LANDMARKCO":"401","LANDMARKNA":"聖和中醫醫院","LANDMARKAD":"6400005","ADDRESS":"高雄市三民區建國三路367號","TEL":"07-2862121","COUNTYNAME":"高雄市","TOWNNAME":"三民區","MARKTYPE":"994","Class":"4"}},{"type":"Feature","id":20893,"geometry":{"type":"Point","coordinates":[120.31175603106169,22.64079096509176]},"properties":{"OBJECTID":20893,"LANDMARKID":"6400000000766","LANDMARKCO":"401","LANDMARKNA":"健生醫院","LANDMARKAD":"6400005","ADDRESS":"高雄市三民區九如二路68號","TEL":"07-3117877","COUNTYNAME":"高雄市","TOWNNAME":"三民區","MARKTYPE":"994","Class":"4"}},{"type":"Feature","id":20894,"geometry":{"type":"Point","coordinates":[120.30999831378929,22.645194789869741]},"properties":{"OBJECTID":20894,"LANDMARKID":"6400000000767","LANDMARKCO":"401","LANDMARKNA":"高雄醫學院附設中和紀念醫院","LANDMARKAD":"6400005","ADDRESS":"高雄市三民區十全一路100號","TEL":"07-3121101","COUNTYNAME":"高雄市","TOWNNAME":"三民區","MARKTYPE":"994","Class":"4"}},{"type":"Feature","id":20895,"geometry":{"type":"Point","coordinates":[120.29931048786717,22.648049243499788]},"properties":{"OBJECTID":20895,"LANDMARKID":"6400000000768","LANDMARKCO":"401","LANDMARKNA":"文雄醫院","LANDMARKAD":"6400005","ADDRESS":"高雄市三民區察哈爾二街132號","TEL":"07-3165275","COUNTYNAME":"高雄市","TOWNNAME":"三民區","MARKTYPE":"994","Class":"4"}},{"type":"Feature","id":20896,"geometry":{"type":"Point","coordinates":[120.29159090092921,22.636260205617969]},"properties":{"OBJECTID":20896,"LANDMARKID":"6400000000769","LANDMARKCO":"401","LANDMARKNA":"宏明醫院","LANDMARKAD":"6400005","ADDRESS":"高雄市三民區建國三路415號","TEL":"07-2722451","COUNTYNAME":"高雄市","TOWNNAME":"三民區","MARKTYPE":"994","Class":"4"}},{"type":"Feature","id":20897,"geometry":{"type":"Point","coordinates":[120.31825781257174,22.650006942640942]},"properties":{"OBJECTID":20897,"LANDMARKID":"6400000000770","LANDMARKCO":"401","LANDMARKNA":"新高鳳醫院","LANDMARKAD":"6400005","ADDRESS":"高雄市三民區莊敬路288號","TEL":"07-3828814","COUNTYNAME":"高雄市","TOWNNAME":"三民區","MARKTYPE":"994","Class":"4"}},{"type":"Feature","id":20898,"geometry":{"type":"Point","coordinates":[120.30318140329487,22.636842636829034]},"properties":{"OBJECTID":20898,"LANDMARKID":"6400000000771","LANDMARKCO":"401","LANDMARKNA":"謝外科醫院","LANDMARKAD":"6400005","ADDRESS":"高雄市三民區河北一路330號","TEL":"07-2360121","COUNTYNAME":"高雄市","TOWNNAME":"三民區","MARKTYPE":"994","Class":"4"}},{"type":"Feature","id":20899,"geometry":{"type":"Point","coordinates":[120.2983574885336,22.637655658918789]},"properties":{"OBJECTID":20899,"LANDMARKID":"6400000000772","LANDMARKCO":"401","LANDMARKNA":"南山醫院","LANDMARKAD":"6400005","ADDRESS":"高雄市三民區建國三路151號","TEL":"07-2882101","COUNTYNAME":"高雄市","TOWNNAME":"三民區","MARKTYPE":"994","Class":"4"}},{"type":"Feature","id":20900,"geometry":{"type":"Point","coordinates":[120.3174562154601,22.668558187243576]},"properties":{"OBJECTID":20900,"LANDMARKID":"6400000000773","LANDMARKCO":"401","LANDMARKNA":"民族醫院","LANDMARKAD":"6400005","ADDRESS":"高雄市三民區民族一路880號","TEL":"07-3462802","COUNTYNAME":"高雄市","TOWNNAME":"三民區","MARKTYPE":"994","Class":"4"}},{"type":"Feature","id":20901,"geometry":{"type":"Point","coordinates":[120.31319708883922,22.640676919699068]},"properties":{"OBJECTID":20901,"LANDMARKID":"6400000000774","LANDMARKCO":"401","LANDMARKNA":"德謙醫院","LANDMARKAD":"6400005","ADDRESS":"高雄市三民區九如二路18號","TEL":"07-3210981","COUNTYNAME":"高雄市","TOWNNAME":"三民區","MARKTYPE":"994","Class":"4"}},{"type":"Feature","id":20902,"geometry":{"type":"Point","coordinates":[120.3138415660849,22.641829300474654]},"properties":{"OBJECTID":20902,"LANDMARKID":"6400000000775","LANDMARKCO":"401","LANDMARKNA":"愛仁醫院","LANDMARKAD":"6400005","ADDRESS":"高雄市三民區民族一路51號","TEL":"07-3115159","COUNTYNAME":"高雄市","TOWNNAME":"三民區","MARKTYPE":"994","Class":"4"}},{"type":"Feature","id":20903,"geometry":{"type":"Point","coordinates":[120.29609692001539,22.638000246851469]},"properties":{"OBJECTID":20903,"LANDMARKID":"6400000000776","LANDMARKCO":"401","LANDMARKNA":"祐生醫院","LANDMARKAD":"6400005","ADDRESS":"高雄市三民區建國三路60號","TEL":"07-2866688","COUNTYNAME":"高雄市","TOWNNAME":"三民區","MARKTYPE":"994","Class":"4"}},{"type":"Feature","id":20904,"geometry":{"type":"Point","coordinates":[120.29859665514061,22.641360346525271]},"properties":{"OBJECTID":20904,"LANDMARKID":"6400000000777","LANDMARKCO":"401","LANDMARKNA":"全民醫院","LANDMARKAD":"6400005","ADDRESS":"高雄市三民區九如二路505號","TEL":"07-3220066","COUNTYNAME":"高雄市","TOWNNAME":"三民區","MARKTYPE":"994","Class":"4"}},{"type":"Feature","id":20905,"geometry":{"type":"Point","coordinates":[120.31381868081074,22.659463347284159]},"properties":{"OBJECTID":20905,"LANDMARKID":"6400000000778","LANDMARKCO":"401","LANDMARKNA":"四季台安醫院","LANDMARKAD":"6400005","ADDRESS":"高雄市三民區聯興路157號","TEL":"07-3983000","COUNTYNAME":"高雄市","TOWNNAME":"三民區","MARKTYPE":"994","Class":"4"}},{"type":"Feature","id":20906,"geometry":{"type":"Point","coordinates":[120.30118005090709,22.638923420968187]},"properties":{"OBJECTID":20906,"LANDMARKID":"6400000001078","LANDMARKCO":"408","LANDMARKNA":"郵局-高雄站前郵局","LANDMARKAD":"6400005","ADDRESS":"高雄市三民區建國三路2-2號","TEL":"(07)2867-211","COUNTYNAME":"高雄市","TOWNNAME":"三民區","MARKTYPE":"994","Class":"4"}},{"type":"Feature","id":20907,"geometry":{"type":"Point","coordinates":[120.31114898123039,22.643540168004151]},"properties":{"OBJECTID":20907,"LANDMARKID":"6400000001079","LANDMARKCO":"408","LANDMARKNA":"郵局-高雄德智郵局","LANDMARKAD":"6400005","ADDRESS":"高雄市三民區熱河一街84號","TEL":"(07)3117-501","COUNTYNAME":"高雄市","TOWNNAME":"三民區","MARKTYPE":"994","Class":"4"}},{"type":"Feature","id":20908,"geometry":{"type":"Point","coordinates":[120.29370353759477,22.635670606286347]},"properties":{"OBJECTID":20908,"LANDMARKID":"6400000001080","LANDMARKCO":"408","LANDMARKNA":"郵局-高雄三塊厝郵局","LANDMARKAD":"6400005","ADDRESS":"高雄市三民區中華三路270號","TEL":"(07)2865-203","COUNTYNAME":"高雄市","TOWNNAME":"三民區","MARKTYPE":"994","Class":"4"}},{"type":"Feature","id":20909,"geometry":{"type":"Point","coordinates":[120.29378773907135,22.641631593893479]},"properties":{"OBJECTID":20909,"LANDMARKID":"6400000001081","LANDMARKCO":"408","LANDMARKNA":"郵局-高雄九如二路郵局","LANDMARKAD":"6400005","ADDRESS":"高雄市三民區九如二路661號","TEL":"(07)3220-780","COUNTYNAME":"高雄市","TOWNNAME":"三民區","MARKTYPE":"994","Class":"4"}},{"type":"Feature","id":20910,"geometry":{"type":"Point","coordinates":[120.31662448619559,22.640396310297557]},"properties":{"OBJECTID":20910,"LANDMARKID":"6400000001082","LANDMARKCO":"408","LANDMARKNA":"郵局-高雄民族社區郵局","LANDMARKAD":"6400005","ADDRESS":"高雄市三民區九如一路952號","TEL":"(07)3822-625","COUNTYNAME":"高雄市","TOWNNAME":"三民區","MARKTYPE":"994","Class":"4"}},{"type":"Feature","id":20911,"geometry":{"type":"Point","coordinates":[120.30316695535073,22.642017109422888]},"properties":{"OBJECTID":20911,"LANDMARKID":"6400000001083","LANDMARKCO":"408","LANDMARKNA":"郵局-高雄站後郵局","LANDMARKAD":"6400005","ADDRESS":"高雄市三民區博愛一路28號","TEL":"(07)3114-521","COUNTYNAME":"高雄市","TOWNNAME":"三民區","MARKTYPE":"994","Class":"4"}},{"type":"Feature","id":20936,"geometry":{"type":"Point","coordinates":[120.32926827348358,22.638731641473242]},"properties":{"OBJECTID":20936,"LANDMARKID":"6400000000984","LANDMARKCO":"405","LANDMARKNA":"全國加油站-九如交流道站（台塑）","LANDMARKAD":"6400005","ADDRESS":"高雄市三民區九如一路469號","TEL":"07-3871291","COUNTYNAME":"高雄市","TOWNNAME":"三民區","MARKTYPE":"994","Class":"4"}},{"type":"Feature","id":20937,"geometry":{"type":"Point","coordinates":[120.32665781558501,22.643923224705379]},"properties":{"OBJECTID":20937,"LANDMARKID":"6400000000985","LANDMARKCO":"405","LANDMARKNA":"台塑加油站-日泉站(台塑)","LANDMARKAD":"6400005","ADDRESS":"高雄市三民區大順二路242號","TEL":"07-3870856","COUNTYNAME":"高雄市","TOWNNAME":"三民區","MARKTYPE":"994","Class":"4"}},{"type":"Feature","id":20938,"geometry":{"type":"Point","coordinates":[120.32608810782205,22.669647303767693]},"properties":{"OBJECTID":20938,"LANDMARKID":"6400000000986","LANDMARKCO":"405","LANDMARKNA":"台塑加油站-金獅湖站(台塑)","LANDMARKAD":"6400005","ADDRESS":"高雄市三民區鼎力路410號","TEL":"07-3425279","COUNTYNAME":"高雄市","TOWNNAME":"三民區","MARKTYPE":"994","Class":"4"}},{"type":"Feature","id":20939,"geometry":{"type":"Point","coordinates":[120.29245985054722,22.644928646711129]},"properties":{"OBJECTID":20939,"LANDMARKID":"6400000000987","LANDMARKCO":"405","LANDMARKNA":"全國加油站-北高站（台塑）","LANDMARKAD":"6400005","ADDRESS":"高雄市三民區熱河二街338號","TEL":"07-3128969","COUNTYNAME":"高雄市","TOWNNAME":"三民區","MARKTYPE":"994","Class":"4"}},{"type":"Feature","id":20940,"geometry":{"type":"Point","coordinates":[120.2923121145981,22.648964148324669]},"properties":{"OBJECTID":20940,"LANDMARKID":"6400000000988","LANDMARKCO":"405","LANDMARKNA":"台亞加油站-華盟站（台塑）","LANDMARKAD":"6400005","ADDRESS":"高雄市三民區中華二路372號","TEL":"(07)315-6000","COUNTYNAME":"高雄市","TOWNNAME":"三民區","MARKTYPE":"994","Class":"4"}},{"type":"Feature","id":20941,"geometry":{"type":"Point","coordinates":[120.30881146663482,22.653577718986778]},"properties":{"OBJECTID":20941,"LANDMARKID":"6400000000989","LANDMARKCO":"405","LANDMARKNA":"台亞加油站-大自由站（台塑）","LANDMARKAD":"6400005","ADDRESS":"高雄市三民區自由一路276號","TEL":"(07)394-5493","COUNTYNAME":"高雄市","TOWNNAME":"三民區","MARKTYPE":"994","Class":"4"}},{"type":"Feature","id":20942,"geometry":{"type":"Point","coordinates":[120.31714933933713,22.65493312162166]},"properties":{"OBJECTID":20942,"LANDMARKID":"6400000000990","LANDMARKCO":"405","LANDMARKNA":"福懋加油站-大順站(台塑)","LANDMARKAD":"6400005","ADDRESS":"高雄市三民區大順二路808號","TEL":"07-3837879","COUNTYNAME":"高雄市","TOWNNAME":"三民區","MARKTYPE":"994","Class":"4"}},{"type":"Feature","id":20943,"geometry":{"type":"Point","coordinates":[120.32056147090931,22.667462000429708]},"properties":{"OBJECTID":20943,"LANDMARKID":"6400000000175","LANDMARKCO":"107","LANDMARKNA":"高雄市政府警察局鼎金派出所","LANDMARKAD":"6400005","ADDRESS":"高雄市三民區鼎力路125號","TEL":"07-3426730","COUNTYNAME":"高雄市","TOWNNAME":"三民區","MARKTYPE":"991","Class":"1"}},{"type":"Feature","id":20944,"geometry":{"type":"Point","coordinates":[120.3250527043551,22.649234516966068]},"properties":{"OBJECTID":20944,"LANDMARKID":"6400000000176","LANDMARKCO":"107","LANDMARKNA":"高雄市消防局北區大隊","LANDMARKAD":"6400005","ADDRESS":"高雄市三民區天祥一路97號6F","TEL":"07-3106122","COUNTYNAME":"高雄市","TOWNNAME":"三民區","MARKTYPE":"991","Class":"1"}},{"type":"Feature","id":20945,"geometry":{"type":"Point","coordinates":[120.32052432925255,22.667281067955795]},"properties":{"OBJECTID":20945,"LANDMARKID":"6400000000177","LANDMARKCO":"107","LANDMARKNA":"高雄市政府消防局鼎金分隊","LANDMARKAD":"6400005","ADDRESS":"高雄市三民區天祥一路97號","TEL":"07-3106120","COUNTYNAME":"高雄市","TOWNNAME":"三民區","MARKTYPE":"991","Class":"1"}},{"type":"Feature","id":20946,"geometry":{"type":"Point","coordinates":[120.31628625361701,22.649844063486867]},"properties":{"OBJECTID":20946,"LANDMARKID":"6400000000083","LANDMARKCO":"103","LANDMARKNA":"高雄市三民區衛生所","LANDMARKAD":"6400005","ADDRESS":"高雄市三民區鼎山街660號","TEL":"07-3820492","COUNTYNAME":"高雄市","TOWNNAME":"三民區","MARKTYPE":"991","Class":"1"}},{"type":"Feature","id":20947,"geometry":{"type":"Point","coordinates":[120.29979014908822,22.647642562210066]},"properties":{"OBJECTID":20947,"LANDMARKID":"6400000000222","LANDMARKCO":"108","LANDMARKNA":"高雄市三民區公所","LANDMARKAD":"6400005","ADDRESS":"高雄市三民區哈爾濱街215號4樓、5樓","TEL":"07-3228160","COUNTYNAME":"高雄市","TOWNNAME":"三民區","MARKTYPE":"991","Class":"1"}},{"type":"Feature","id":20948,"geometry":{"type":"Point","coordinates":[120.29985268274972,22.644365028061003]},"properties":{"OBJECTID":20948,"LANDMARKID":"6400000000178","LANDMARKCO":"107","LANDMARKNA":"高雄市政府警察局三民一局","LANDMARKAD":"6400005","ADDRESS":"高雄市三民區民享里哈爾濱街118號","TEL":"07-3118675","COUNTYNAME":"高雄市","TOWNNAME":"三民區","MARKTYPE":"991","Class":"1"}},{"type":"Feature","id":20949,"geometry":{"type":"Point","coordinates":[120.29979014908822,22.647642562210066]},"properties":{"OBJECTID":20949,"LANDMARKID":"6400000000179","LANDMARKCO":"107","LANDMARKNA":"高雄市政府警察局哈爾濱派出所","LANDMARKAD":"6400005","ADDRESS":"高雄市三民區安邦里哈爾濱街215號","TEL":"07-3110785","COUNTYNAME":"高雄市","TOWNNAME":"三民區","MARKTYPE":"991","Class":"1"}},{"type":"Feature","id":20950,"geometry":{"type":"Point","coordinates":[120.31147247186428,22.645082650913963]},"properties":{"OBJECTID":20950,"LANDMARKID":"6400000000180","LANDMARKCO":"107","LANDMARKNA":"高雄市政府警察局十全路派出所","LANDMARKAD":"6400005","ADDRESS":"高雄市三民區安生里十全一路86號","TEL":"07-3115807","COUNTYNAME":"高雄市","TOWNNAME":"三民區","MARKTYPE":"991","Class":"1"}},{"type":"Feature","id":20951,"geometry":{"type":"Point","coordinates":[120.29266653456227,22.637011516595322]},"properties":{"OBJECTID":20951,"LANDMARKID":"6400000000181","LANDMARKCO":"107","LANDMARKNA":"高雄市政府警察局三民派出所","LANDMARKAD":"6400005","ADDRESS":"高雄市三民區鳳北里建國三路188號","TEL":"07-2211460","COUNTYNAME":"高雄市","TOWNNAME":"三民區","MARKTYPE":"991","Class":"1"}},{"type":"Feature","id":20952,"geometry":{"type":"Point","coordinates":[120.30355346849407,22.638040234183215]},"properties":{"OBJECTID":20952,"LANDMARKID":"6400000000182","LANDMARKCO":"107","LANDMARKNA":"高雄市政府警察局長明派出所","LANDMARKAD":"6400005","ADDRESS":"高雄市三民區長明里南華路253號","TEL":"07-2355098","COUNTYNAME":"高雄市","TOWNNAME":"三民區","MARKTYPE":"991","Class":"1"}},{"type":"Feature","id":20935,"geometry":{"type":"Point","coordinates":[120.31501764877711,22.654516861381424]},"properties":{"OBJECTID":20935,"LANDMARKID":"6400000000983","LANDMARKCO":"405","LANDMARKNA":"台亞加油站-祥盟站（台塑）","LANDMARKAD":"6400005","ADDRESS":"高雄市民族一路357號","TEL":"(07)384-9805","COUNTYNAME":"高雄市","TOWNNAME":"三民區","MARKTYPE":"994","Class":"4"}},{"type":"Feature","id":20934,"geometry":{"type":"Point","coordinates":[120.31408243255396,22.656045062548269]},"properties":{"OBJECTID":20934,"LANDMARKID":"6400000001071","LANDMARKCO":"407","LANDMARKNA":"大統新世紀","LANDMARKAD":"6400005","ADDRESS":"高雄市三民區民族一路427號","TEL":"07-9555888","COUNTYNAME":"高雄市","TOWNNAME":"三民區","MARKTYPE":"994","Class":"4"}},{"type":"Feature","id":20933,"geometry":{"type":"Point","coordinates":[120.31000215959413,22.645190338947419]},"properties":{"OBJECTID":20933,"LANDMARKID":"6400000001070","LANDMARKCO":"407","LANDMARKNA":"誠品Eslite","LANDMARKAD":"6400005","ADDRESS":"高雄市三民區十全一路100號B1","TEL":"07-312-8188","COUNTYNAME":"高雄市","TOWNNAME":"三民區","MARKTYPE":"994","Class":"4"}},{"type":"Feature","id":20932,"geometry":{"type":"Point","coordinates":[120.31408243255396,22.656045062548269]},"properties":{"OBJECTID":20932,"LANDMARKID":"6400000001069","LANDMARKCO":"407","LANDMARKNA":"誠品Eslite","LANDMARKAD":"6400005","ADDRESS":"高雄市三民區民族一路427號2F","TEL":"07-386-0058","COUNTYNAME":"高雄市","TOWNNAME":"三民區","MARKTYPE":"994","Class":"4"}},{"type":"Feature","id":20931,"geometry":{"type":"Point","coordinates":[120.31973119422156,22.664849609812769]},"properties":{"OBJECTID":20931,"LANDMARKID":"6400000001068","LANDMARKCO":"407","LANDMARKNA":"小北百貨","LANDMARKAD":"6400005","ADDRESS":"高雄市三民區金鼎路339號","TEL":"07-3107511","COUNTYNAME":"高雄市","TOWNNAME":"三民區","MARKTYPE":"994","Class":"4"}},{"type":"Feature","id":20930,"geometry":{"type":"Point","coordinates":[120.33504871083043,22.637680982700452]},"properties":{"OBJECTID":20930,"LANDMARKID":"6400000001067","LANDMARKCO":"407","LANDMARKNA":"小北百貨","LANDMARKAD":"6400005","ADDRESS":"高雄市三民區九如一路283號","TEL":"07-3849986","COUNTYNAME":"高雄市","TOWNNAME":"三民區","MARKTYPE":"994","Class":"4"}},{"type":"Feature","id":20929,"geometry":{"type":"Point","coordinates":[120.28789095015676,22.63493490691496]},"properties":{"OBJECTID":20929,"LANDMARKID":"6400000001066","LANDMARKCO":"407","LANDMARKNA":"小北百貨","LANDMARKAD":"6400005","ADDRESS":"高雄市三民區建國三路535號1樓","TEL":"07-2829556","COUNTYNAME":"高雄市","TOWNNAME":"三民區","MARKTYPE":"994","Class":"4"}},{"type":"Feature","id":20928,"geometry":{"type":"Point","coordinates":[120.29686551195128,22.647213802978587]},"properties":{"OBJECTID":20928,"LANDMARKID":"6400000001065","LANDMARKCO":"407","LANDMARKNA":"小北百貨","LANDMARKAD":"6400005","ADDRESS":"高雄市三民區自立一路408號","TEL":"07-3236769","COUNTYNAME":"高雄市","TOWNNAME":"三民區","MARKTYPE":"994","Class":"4"}},{"type":"Feature","id":20927,"geometry":{"type":"Point","coordinates":[120.30528200532322,22.636810055376994]},"properties":{"OBJECTID":20927,"LANDMARKID":"6400000001064","LANDMARKCO":"407","LANDMARKNA":"小北百貨","LANDMARKAD":"6400005","ADDRESS":"高雄市三民區林森一路286號","TEL":"07-2351609","COUNTYNAME":"高雄市","TOWNNAME":"三民區","MARKTYPE":"994","Class":"4"}},{"type":"Feature","id":20926,"geometry":{"type":"Point","coordinates":[120.32644104285269,22.666852113121113]},"properties":{"OBJECTID":20926,"LANDMARKID":"6400000001037","LANDMARKCO":"406","LANDMARKNA":"獅山公園","LANDMARKAD":"6400005","ADDRESS":"高雄市三民區","TEL":" ","COUNTYNAME":"高雄市","TOWNNAME":"三民區","MARKTYPE":"994","Class":"4"}},{"type":"Feature","id":20925,"geometry":{"type":"Point","coordinates":[120.34299239952756,22.635987973185326]},"properties":{"OBJECTID":20925,"LANDMARKID":"6400000000924","LANDMARKCO":"404","LANDMARKNA":"台灣自來水南區第一工務所","LANDMARKAD":"6400005","ADDRESS":"高雄市正義路339號","TEL":"07-3874896","COUNTYNAME":"高雄市","TOWNNAME":"三民區","MARKTYPE":"994","Class":"4"}},{"type":"Feature","id":20924,"geometry":{"type":"Point","coordinates":[120.31392158956866,22.642670472702083]},"properties":{"OBJECTID":20924,"LANDMARKID":"6400000001173","LANDMARKCO":"409","LANDMARKNA":"高雄市農會","LANDMARKAD":"6400005","ADDRESS":"高雄市三民區民族一路77號","TEL":"07-3119151","COUNTYNAME":"高雄市","TOWNNAME":"三民區","MARKTYPE":"994","Class":"4"}},{"type":"Feature","id":20923,"geometry":{"type":"Point","coordinates":[120.32199313287452,22.656953868009651]},"properties":{"OBJECTID":20923,"LANDMARKID":"6400000001095","LANDMARKCO":"408","LANDMARKNA":"郵局-高雄大昌郵局","LANDMARKAD":"6400005","ADDRESS":"高雄市三民區大昌一路258號","TEL":"(07)3898-502","COUNTYNAME":"高雄市","TOWNNAME":"三民區","MARKTYPE":"994","Class":"4"}},{"type":"Feature","id":20922,"geometry":{"type":"Point","coordinates":[120.31717244873121,22.647738219972634]},"properties":{"OBJECTID":20922,"LANDMARKID":"6400000001094","LANDMARKCO":"408","LANDMARKNA":"郵局-高雄灣仔內郵局","LANDMARKAD":"6400005","ADDRESS":"高雄市三民區建工路679號","TEL":"(07)3862-656","COUNTYNAME":"高雄市","TOWNNAME":"三民區","MARKTYPE":"994","Class":"4"}},{"type":"Feature","id":20921,"geometry":{"type":"Point","coordinates":[120.28847431078663,22.638484636336916]},"properties":{"OBJECTID":20921,"LANDMARKID":"6400000001093","LANDMARKCO":"408","LANDMARKNA":"郵局-高雄中都郵局","LANDMARKAD":"6400005","ADDRESS":"高雄市三民區力行路89號","TEL":"(07)3211-086","COUNTYNAME":"高雄市","TOWNNAME":"三民區","MARKTYPE":"994","Class":"4"}},{"type":"Feature","id":20920,"geometry":{"type":"Point","coordinates":[120.34459021283033,22.644367145659778]},"properties":{"OBJECTID":20920,"LANDMARKID":"6400000001092","LANDMARKCO":"408","LANDMARKNA":"郵局-高雄本揚郵局","LANDMARKAD":"6400005","ADDRESS":"高雄市三民區澄和路65號","TEL":"(07)3899-124","COUNTYNAME":"高雄市","TOWNNAME":"三民區","MARKTYPE":"994","Class":"4"}},{"type":"Feature","id":20919,"geometry":{"type":"Point","coordinates":[120.32205264703616,22.66821516691547]},"properties":{"OBJECTID":20919,"LANDMARKID":"6400000001091","LANDMARKCO":"408","LANDMARKNA":"郵局-高雄鼎金郵局","LANDMARKAD":"6400005","ADDRESS":"高雄市三民區鼎強街264號","TEL":"(07)3474-504","COUNTYNAME":"高雄市","TOWNNAME":"三民區","MARKTYPE":"994","Class":"4"}},{"type":"Feature","id":20918,"geometry":{"type":"Point","coordinates":[120.30999831363138,22.645194821476419]},"properties":{"OBJECTID":20918,"LANDMARKID":"6400000001090","LANDMARKCO":"408","LANDMARKNA":"郵局-高雄醫學大學郵局","LANDMARKAD":"6400005","ADDRESS":"高雄市三民區十全一路100號(高雄醫學大學內)","TEL":"(07)3217-467","COUNTYNAME":"高雄市","TOWNNAME":"三民區","MARKTYPE":"994","Class":"4"}},{"type":"Feature","id":20917,"geometry":{"type":"Point","coordinates":[120.33005218552459,22.646004698154805]},"properties":{"OBJECTID":20917,"LANDMARKID":"6400000001089","LANDMARKCO":"408","LANDMARKNA":"郵局-高雄義民郵局","LANDMARKAD":"6400005","ADDRESS":"高雄市三民區大豐二路203號","TEL":"(07)3868-148","COUNTYNAME":"高雄市","TOWNNAME":"三民區","MARKTYPE":"994","Class":"4"}},{"type":"Feature","id":20916,"geometry":{"type":"Point","coordinates":[120.34081495980297,22.638931486480391]},"properties":{"OBJECTID":20916,"LANDMARKID":"6400000001088","LANDMARKCO":"408","LANDMARKNA":"郵局-高雄民壯郵局","LANDMARKAD":"6400005","ADDRESS":"高雄市三民區民壯路16號","TEL":"(07)3861-194","COUNTYNAME":"高雄市","TOWNNAME":"三民區","MARKTYPE":"994","Class":"4"}},{"type":"Feature","id":20915,"geometry":{"type":"Point","coordinates":[120.31569092248627,22.662260641934029]},"properties":{"OBJECTID":20915,"LANDMARKID":"6400000001087","LANDMARKCO":"408","LANDMARKNA":"郵局-高雄鼎泰郵局","LANDMARKAD":"6400005","ADDRESS":"高雄市三民區民族一路519號","TEL":"(07)3425-127","COUNTYNAME":"高雄市","TOWNNAME":"三民區","MARKTYPE":"994","Class":"4"}},{"type":"Feature","id":20914,"geometry":{"type":"Point","coordinates":[120.30397475558281,22.650982562955118]},"properties":{"OBJECTID":20914,"LANDMARKID":"6400000001086","LANDMARKCO":"408","LANDMARKNA":"郵局-高雄博愛路郵局","LANDMARKAD":"6400005","ADDRESS":"高雄市三民區博愛一路372號1樓","TEL":"(07)3225-576","COUNTYNAME":"高雄市","TOWNNAME":"三民區","MARKTYPE":"994","Class":"4"}},{"type":"Feature","id":20913,"geometry":{"type":"Point","coordinates":[120.33034972874633,22.651208861554665]},"properties":{"OBJECTID":20913,"LANDMARKID":"6400000001085","LANDMARKCO":"408","LANDMARKNA":"郵局-高雄建工郵局","LANDMARKAD":"6400005","ADDRESS":"高雄市三民區大昌二路517號","TEL":"(07)3835-089","COUNTYNAME":"高雄市","TOWNNAME":"三民區","MARKTYPE":"994","Class":"4"}},{"type":"Feature","id":20912,"geometry":{"type":"Point","coordinates":[120.32622931532021,22.643537013817671]},"properties":{"OBJECTID":20912,"LANDMARKID":"6400000001084","LANDMARKCO":"408","LANDMARKNA":"郵局-高雄大順郵局","LANDMARKAD":"6400005","ADDRESS":"高雄市三民區大順二路207號","TEL":"(07)3847-163","COUNTYNAME":"高雄市","TOWNNAME":"三民區","MARKTYPE":"994","Class":"4"}},{"type":"Feature","id":20953,"geometry":{"type":"Point","coordinates":[120.33376793112416,22.640840138530528]},"properties":{"OBJECTID":20953,"LANDMARKID":"6400000000183","LANDMARKCO":"107","LANDMARKNA":"高雄市政府警察局三民二局","LANDMARKAD":"6400005","ADDRESS":"高雄市三民區寶泰里覺民路366號","TEL":"07-3814093","COUNTYNAME":"高雄市","TOWNNAME":"三民區","MARKTYPE":"991","Class":"1"}},{"type":"Feature","id":20978,"geometry":{"type":"Point","coordinates":[120.32084114672691,22.64335247617403]},"properties":{"OBJECTID":20978,"LANDMARKID":"6400000000370","LANDMARKCO":"203","LANDMARKNA":"市立民族國小","LANDMARKAD":"6400005","ADDRESS":"高雄市三民區平等路197號","TEL":"07-3860526","COUNTYNAME":"高雄市","TOWNNAME":"三民區","MARKTYPE":"992","Class":"2"}},{"type":"Feature","id":20979,"geometry":{"type":"Point","coordinates":[120.32225076471914,22.672612005714267]},"properties":{"OBJECTID":20979,"LANDMARKID":"6400000000371","LANDMARKCO":"203","LANDMARKNA":"市立獅湖國小","LANDMARKAD":"6400005","ADDRESS":"高雄市三民區鼎金後路495號","TEL":"07-3424782","COUNTYNAME":"高雄市","TOWNNAME":"三民區","MARKTYPE":"992","Class":"2"}},{"type":"Feature","id":20980,"geometry":{"type":"Point","coordinates":[120.3265013873696,22.653741709474819]},"properties":{"OBJECTID":20980,"LANDMARKID":"6400000000259","LANDMARKCO":"202","LANDMARKNA":"私立立志高中","LANDMARKAD":"6400005","ADDRESS":"高雄市三民區大昌一路98號","TEL":"07-3922601","COUNTYNAME":"高雄市","TOWNNAME":"三民區","MARKTYPE":"992","Class":"2"}},{"type":"Feature","id":20981,"geometry":{"type":"Point","coordinates":[120.32671451932252,22.663115115015369]},"properties":{"OBJECTID":20981,"LANDMARKID":"6400000000260","LANDMARKCO":"202","LANDMARKNA":"市立三民高中","LANDMARKAD":"6400005","ADDRESS":"高雄市三民區金鼎路81號","TEL":"07-3475181","COUNTYNAME":"高雄市","TOWNNAME":"三民區","MARKTYPE":"992","Class":"2"}},{"type":"Feature","id":20982,"geometry":{"type":"Point","coordinates":[120.32645301511114,22.650641511767091]},"properties":{"OBJECTID":20982,"LANDMARKID":"6400000000261","LANDMARKCO":"202","LANDMARKNA":"市立高雄高工","LANDMARKAD":"6400005","ADDRESS":"高雄市三民區建工路419號","TEL":"07-3815366","COUNTYNAME":"高雄市","TOWNNAME":"三民區","MARKTYPE":"992","Class":"2"}},{"type":"Feature","id":20983,"geometry":{"type":"Point","coordinates":[120.32848752074145,22.643555580310512]},"properties":{"OBJECTID":20983,"LANDMARKID":"6400000000262","LANDMARKCO":"202","LANDMARKNA":"私立樹德家商","LANDMARKAD":"6400005","ADDRESS":"高雄市三民區建興路116號","TEL":"07-3870338","COUNTYNAME":"高雄市","TOWNNAME":"三民區","MARKTYPE":"992","Class":"2"}},{"type":"Feature","id":20984,"geometry":{"type":"Point","coordinates":[120.34041986570926,22.643138839954258]},"properties":{"OBJECTID":20984,"LANDMARKID":"6400000000346","LANDMARKCO":"203","LANDMARKNA":"市立陽明國中","LANDMARKAD":"6400005","ADDRESS":"高雄市三民區義華路166號","TEL":"07-3892919","COUNTYNAME":"高雄市","TOWNNAME":"三民區","MARKTYPE":"992","Class":"2"}},{"type":"Feature","id":20985,"geometry":{"type":"Point","coordinates":[120.3210362255551,22.654917932990823]},"properties":{"OBJECTID":20985,"LANDMARKID":"6400000000347","LANDMARKCO":"203","LANDMARKNA":"市立鼎金國中","LANDMARKAD":"6400005","ADDRESS":"高雄市三民區鼎山街445號","TEL":"07-3831029","COUNTYNAME":"高雄市","TOWNNAME":"三民區","MARKTYPE":"992","Class":"2"}},{"type":"Feature","id":20986,"geometry":{"type":"Point","coordinates":[120.33312376044925,22.639482691382355]},"properties":{"OBJECTID":20986,"LANDMARKID":"6400000000348","LANDMARKCO":"203","LANDMARKNA":"市立民族國中","LANDMARKAD":"6400005","ADDRESS":"高雄市三民區覺民路363號","TEL":"07-3818718","COUNTYNAME":"高雄市","TOWNNAME":"三民區","MARKTYPE":"992","Class":"2"}},{"type":"Feature","id":20987,"geometry":{"type":"Point","coordinates":[120.31968820176429,22.644464727579116]},"properties":{"OBJECTID":20987,"LANDMARKID":"6400000000349","LANDMARKCO":"203","LANDMARKNA":"市立正興國中","LANDMARKAD":"6400005","ADDRESS":"高雄市三民區覺民路850號","TEL":"07-3890796","COUNTYNAME":"高雄市","TOWNNAME":"三民區","MARKTYPE":"992","Class":"2"}},{"type":"Feature","id":20988,"geometry":{"type":"Point","coordinates":[120.31367949842038,22.64455069551018]},"properties":{"OBJECTID":20988,"LANDMARKID":"6400000000350","LANDMARKCO":"203","LANDMARKNA":"市立愛國國小","LANDMARKAD":"6400005","ADDRESS":"高雄市三民區十全一路1號","TEL":"07-3161191","COUNTYNAME":"高雄市","TOWNNAME":"三民區","MARKTYPE":"992","Class":"2"}},{"type":"Feature","id":20989,"geometry":{"type":"Point","coordinates":[120.2987018932909,22.646693899793185]},"properties":{"OBJECTID":20989,"LANDMARKID":"6400000000351","LANDMARKCO":"203","LANDMARKNA":"市立十全國小","LANDMARKAD":"6400005","ADDRESS":"高雄市三民區十全二路162號","TEL":"07-3214366","COUNTYNAME":"高雄市","TOWNNAME":"三民區","MARKTYPE":"992","Class":"2"}},{"type":"Feature","id":20990,"geometry":{"type":"Point","coordinates":[120.32413267667103,22.656336581362197]},"properties":{"OBJECTID":20990,"LANDMARKID":"6400000000352","LANDMARKCO":"203","LANDMARKNA":"市立莊敬國小","LANDMARKAD":"6400005","ADDRESS":"高雄市三民區大昌一路200號","TEL":"07-3813210","COUNTYNAME":"高雄市","TOWNNAME":"三民區","MARKTYPE":"992","Class":"2"}},{"type":"Feature","id":20991,"geometry":{"type":"Point","coordinates":[120.32611863520991,22.646328827397713]},"properties":{"OBJECTID":20991,"LANDMARKID":"6400000000353","LANDMARKCO":"203","LANDMARKNA":"市立正興國小","LANDMARKAD":"6400005","ADDRESS":"高雄市三民區大豐二路20號","TEL":"07-3845206","COUNTYNAME":"高雄市","TOWNNAME":"三民區","MARKTYPE":"992","Class":"2"}},{"type":"Feature","id":20992,"geometry":{"type":"Point","coordinates":[120.28779884119844,22.634049063693503]},"properties":{"OBJECTID":20992,"LANDMARKID":"6400000000354","LANDMARKCO":"203","LANDMARKNA":"市立河濱國小","LANDMARKAD":"6400005","ADDRESS":"高雄市三民區市中一路339號","TEL":"07-2211408","COUNTYNAME":"高雄市","TOWNNAME":"三民區","MARKTYPE":"992","Class":"2"}},{"type":"Feature","id":20993,"geometry":{"type":"Point","coordinates":[120.3342764267239,22.638805693888511]},"properties":{"OBJECTID":20993,"LANDMARKID":"6400000000355","LANDMARKCO":"203","LANDMARKNA":"市立光武國小","LANDMARKAD":"6400005","ADDRESS":"高雄市三民區光武路35號","TEL":"07-3867458","COUNTYNAME":"高雄市","TOWNNAME":"三民區","MARKTYPE":"992","Class":"2"}},{"type":"Feature","id":20994,"geometry":{"type":"Point","coordinates":[120.2910714709254,22.636675580850021]},"properties":{"OBJECTID":20994,"LANDMARKID":"6400000000356","LANDMARKCO":"203","LANDMARKNA":"市立三民國小","LANDMARKAD":"6400005","ADDRESS":"高雄市三民區建國三路216號","TEL":"07-2810378","COUNTYNAME":"高雄市","TOWNNAME":"三民區","MARKTYPE":"992","Class":"2"}},{"type":"Feature","id":20954,"geometry":{"type":"Point","coordinates":[120.33794649959241,22.643554381286322]},"properties":{"OBJECTID":20954,"LANDMARKID":"6400000000184","LANDMARKCO":"107","LANDMARKNA":"高雄市政府警察局陽明派出所","LANDMARKAD":"6400005","ADDRESS":"高雄市三民區本上里義華路272號","TEL":"07-3922032","COUNTYNAME":"高雄市","TOWNNAME":"三民區","MARKTYPE":"991","Class":"1"}},{"type":"Feature","id":20955,"geometry":{"type":"Point","coordinates":[120.31509867900664,22.648226428716317]},"properties":{"OBJECTID":20955,"LANDMARKID":"6400000000185","LANDMARKCO":"107","LANDMARKNA":"高雄市政府警察局民族路派出所","LANDMARKAD":"6400005","ADDRESS":"高雄市三民區灣中里民族一路208號","TEL":"07-3822653","COUNTYNAME":"高雄市","TOWNNAME":"三民區","MARKTYPE":"991","Class":"1"}},{"type":"Feature","id":20956,"geometry":{"type":"Point","coordinates":[120.33376793112416,22.640840138530528]},"properties":{"OBJECTID":20956,"LANDMARKID":"6400000000186","LANDMARKCO":"107","LANDMARKNA":"高雄市政府警察局覺民派出所","LANDMARKAD":"6400005","ADDRESS":"高雄市三民區寶泰里覺民路366號","TEL":"07-3842108","COUNTYNAME":"高雄市","TOWNNAME":"三民區","MARKTYPE":"991","Class":"1"}},{"type":"Feature","id":20957,"geometry":{"type":"Point","coordinates":[120.32500747671412,22.649319930237674]},"properties":{"OBJECTID":20957,"LANDMARKID":"6400000000187","LANDMARKCO":"107","LANDMARKNA":"高雄市消防局北區第二中隊","LANDMARKAD":"6400005","ADDRESS":"高雄市三民區大順二路468號","TEL":"07-396-3281","COUNTYNAME":"高雄市","TOWNNAME":"三民區","MARKTYPE":"991","Class":"1"}},{"type":"Feature","id":20958,"geometry":{"type":"Point","coordinates":[120.31134411376014,22.645072518034183]},"properties":{"OBJECTID":20958,"LANDMARKID":"6400000000188","LANDMARKCO":"107","LANDMARKNA":"高雄市消防局十全消防分隊","LANDMARKAD":"6400005","ADDRESS":"高雄市三民區十全一路88號","TEL":"07-3117716","COUNTYNAME":"高雄市","TOWNNAME":"三民區","MARKTYPE":"991","Class":"1"}},{"type":"Feature","id":20959,"geometry":{"type":"Point","coordinates":[120.32500747671412,22.649319930237674]},"properties":{"OBJECTID":20959,"LANDMARKID":"6400000000189","LANDMARKCO":"107","LANDMARKNA":"高雄市消防局大昌消防分隊","LANDMARKAD":"6400005","ADDRESS":"高雄市三民區大順二路468號","TEL":"07-3854955","COUNTYNAME":"高雄市","TOWNNAME":"三民區","MARKTYPE":"991","Class":"1"}},{"type":"Feature","id":20960,"geometry":{"type":"Point","coordinates":[120.29979014908822,22.647642562210066]},"properties":{"OBJECTID":20960,"LANDMARKID":"6400000000111","LANDMARKCO":"105","LANDMARKNA":"高雄市三民地政事務所","LANDMARKAD":"6400005","ADDRESS":"高雄市三民區哈爾濱街215號3樓","TEL":"07-3226482","COUNTYNAME":"高雄市","TOWNNAME":"三民區","MARKTYPE":"991","Class":"1"}},{"type":"Feature","id":20961,"geometry":{"type":"Point","coordinates":[120.29979014908822,22.647642562210066]},"properties":{"OBJECTID":20961,"LANDMARKID":"6400000000114","LANDMARKCO":"106","LANDMARKNA":"高雄市三民區第一戶政事務所","LANDMARKAD":"6400005","ADDRESS":"高雄市三民區哈爾濱街215號6樓","TEL":"07-3236171","COUNTYNAME":"高雄市","TOWNNAME":"三民區","MARKTYPE":"991","Class":"1"}},{"type":"Feature","id":20962,"geometry":{"type":"Point","coordinates":[120.29979014908822,22.647642562210066]},"properties":{"OBJECTID":20962,"LANDMARKID":"6400000000093","LANDMARKCO":"104","LANDMARKNA":"高雄市國稅局三民稽徵所第一辦","LANDMARKAD":"6400005","ADDRESS":"高雄市三民區哈爾濱街215號7樓","TEL":"07-3228838","COUNTYNAME":"高雄市","TOWNNAME":"三民區","MARKTYPE":"991","Class":"1"}},{"type":"Feature","id":20963,"geometry":{"type":"Point","coordinates":[120.31568044118636,22.668378838747444]},"properties":{"OBJECTID":20963,"LANDMARKID":"6400000000080","LANDMARKCO":"103","LANDMARKNA":"高雄市政府遊民收容所","LANDMARKAD":"6400005","ADDRESS":"高雄市三民區天祥二路31號","TEL":"07-3432263","COUNTYNAME":"高雄市","TOWNNAME":"三民區","MARKTYPE":"991","Class":"1"}},{"type":"Feature","id":20964,"geometry":{"type":"Point","coordinates":[120.28943521898175,22.645953659837794]},"properties":{"OBJECTID":20964,"LANDMARKID":"6400000000081","LANDMARKCO":"103","LANDMARKNA":"高雄市政府勞工局博愛職業技能","LANDMARKAD":"6400005","ADDRESS":"高雄市三民區中華二路341巷27號","TEL":"07-3214033","COUNTYNAME":"高雄市","TOWNNAME":"三民區","MARKTYPE":"991","Class":"1"}},{"type":"Feature","id":20965,"geometry":{"type":"Point","coordinates":[120.32577800150271,22.653805616005318]},"properties":{"OBJECTID":20965,"LANDMARKID":"6400000000198","LANDMARKCO":"107","LANDMARKNA":"高雄市政府警察局鼎山派出所","LANDMARKAD":"6400005","ADDRESS":"高雄市三民區本文里立忠路2號","TEL":"07-3907880","COUNTYNAME":"高雄市","TOWNNAME":"三民區","MARKTYPE":"991","Class":"1"}},{"type":"Feature","id":20966,"geometry":{"type":"Point","coordinates":[120.30941825790002,22.640586458353482]},"properties":{"OBJECTID":20966,"LANDMARKID":"6400000000007","LANDMARKCO":"101","LANDMARKNA":"中央健康保險局高屏分局","LANDMARKAD":"6400005","ADDRESS":"高雄市三民區九如二路157號","TEL":"07-3233123","COUNTYNAME":"高雄市","TOWNNAME":"三民區","MARKTYPE":"991","Class":"1"}},{"type":"Feature","id":20967,"geometry":{"type":"Point","coordinates":[120.33396110105681,22.66110891082192]},"properties":{"OBJECTID":20967,"LANDMARKID":"6400000000082","LANDMARKCO":"103","LANDMARKNA":"高雄市殯儀館","LANDMARKAD":"6400005","ADDRESS":"高雄市三民區本館路600巷20號","TEL":"07-3816316","COUNTYNAME":"高雄市","TOWNNAME":"三民區","MARKTYPE":"991","Class":"1"}},{"type":"Feature","id":20968,"geometry":{"type":"Point","coordinates":[120.29575025646827,22.650474391743355]},"properties":{"OBJECTID":20968,"LANDMARKID":"6400000000423","LANDMARKCO":"205","LANDMARKNA":"高雄市客家文物館","LANDMARKAD":"6400005","ADDRESS":"高雄市三民區同盟二路215號","TEL":"07-3152136","COUNTYNAME":"高雄市","TOWNNAME":"三民區","MARKTYPE":"992","Class":"2"}},{"type":"Feature","id":20969,"geometry":{"type":"Point","coordinates":[120.32246794876887,22.639957609218307]},"properties":{"OBJECTID":20969,"LANDMARKID":"6400000000424","LANDMARKCO":"205","LANDMARKNA":"國立科學工藝博物館","LANDMARKAD":"6400005","ADDRESS":"高雄市三民區九如一路720號","TEL":" ","COUNTYNAME":"高雄市","TOWNNAME":"三民區","MARKTYPE":"992","Class":"2"}},{"type":"Feature","id":20970,"geometry":{"type":"Point","coordinates":[120.30603597278916,22.646775084658696]},"properties":{"OBJECTID":20970,"LANDMARKID":"6400000000407","LANDMARKCO":"204","LANDMARKNA":"高雄市立圖書館三民分館","LANDMARKAD":"6400005","ADDRESS":"高雄市三民區十全一路220號","TEL":" ","COUNTYNAME":"高雄市","TOWNNAME":"三民區","MARKTYPE":"992","Class":"2"}},{"type":"Feature","id":20971,"geometry":{"type":"Point","coordinates":[120.3249976937505,22.649319323719723]},"properties":{"OBJECTID":20971,"LANDMARKID":"6400000000408","LANDMARKCO":"204","LANDMARKNA":"高雄市立圖書館寶珠分館","LANDMARKAD":"6400005","ADDRESS":"高雄市三民區大順二路468號4樓","TEL":" ","COUNTYNAME":"高雄市","TOWNNAME":"三民區","MARKTYPE":"992","Class":"2"}},{"type":"Feature","id":20972,"geometry":{"type":"Point","coordinates":[120.34241904929137,22.643354108476085]},"properties":{"OBJECTID":20972,"LANDMARKID":"6400000000409","LANDMARKCO":"204","LANDMARKNA":"高雄市立圖書館陽明國宅社區圖書館","LANDMARKAD":"6400005","ADDRESS":"高雄市三民區陽明路300號3樓","TEL":" ","COUNTYNAME":"高雄市","TOWNNAME":"三民區","MARKTYPE":"992","Class":"2"}},{"type":"Feature","id":20973,"geometry":{"type":"Point","coordinates":[120.33165119004769,22.650440474969745]},"properties":{"OBJECTID":20973,"LANDMARKID":"6400000000238","LANDMARKCO":"201","LANDMARKNA":"育英醫護管理專校","LANDMARKAD":"6400005","ADDRESS":"高雄市三民區大昌二路420巷15號","TEL":"07-3803420","COUNTYNAME":"高雄市","TOWNNAME":"三民區","MARKTYPE":"992","Class":"2"}},{"type":"Feature","id":20974,"geometry":{"type":"Point","coordinates":[120.33243192555723,22.649814875806062]},"properties":{"OBJECTID":20974,"LANDMARKID":"6400000000239","LANDMARKCO":"201","LANDMARKNA":"育英醫護管理專科學校","LANDMARKAD":"6400005","ADDRESS":"高雄市三民區大昌二路420巷15號","TEL":"07-3811765","COUNTYNAME":"高雄市","TOWNNAME":"三民區","MARKTYPE":"992","Class":"2"}},{"type":"Feature","id":20975,"geometry":{"type":"Point","coordinates":[120.29805224712075,22.638014253802201]},"properties":{"OBJECTID":20975,"LANDMARKID":"6400000000254","LANDMARKCO":"202","LANDMARKNA":"市立高雄中學","LANDMARKAD":"6400005","ADDRESS":"高雄市三民區建國三路50號","TEL":"07-2862550","COUNTYNAME":"高雄市","TOWNNAME":"三民區","MARKTYPE":"992","Class":"2"}},{"type":"Feature","id":20976,"geometry":{"type":"Point","coordinates":[120.30770718549208,22.64664104480434]},"properties":{"OBJECTID":20976,"LANDMARKID":"6400000000368","LANDMARKCO":"203","LANDMARKNA":"市立三民國中","LANDMARKAD":"6400005","ADDRESS":"高雄市三民區十全一路200號","TEL":"07-3227751","COUNTYNAME":"高雄市","TOWNNAME":"三民區","MARKTYPE":"992","Class":"2"}},{"type":"Feature","id":20977,"geometry":{"type":"Point","coordinates":[120.30699722202699,22.645641514122005]},"properties":{"OBJECTID":20977,"LANDMARKID":"6400000000369","LANDMARKCO":"203","LANDMARKNA":"市立博愛國小","LANDMARKAD":"6400005","ADDRESS":"高雄市三民區十全一路202號","TEL":"07-3110708","COUNTYNAME":"高雄市","TOWNNAME":"三民區","MARKTYPE":"992","Class":"2"}},{"type":"Feature","id":20995,"geometry":{"type":"Point","coordinates":[120.33971661773224,22.649048175167565]},"properties":{"OBJECTID":20995,"LANDMARKID":"6400000000357","LANDMARKCO":"203","LANDMARKNA":"市立東光國小","LANDMARKAD":"6400005","ADDRESS":"高雄市三民區黃興路206號","TEL":"07-3839350","COUNTYNAME":"高雄市","TOWNNAME":"三民區","MARKTYPE":"992","Class":"2"}},{"type":"Feature","id":20996,"geometry":{"type":"Point","coordinates":[120.3355457261956,22.645316043358857]},"properties":{"OBJECTID":20996,"LANDMARKID":"6400000000358","LANDMARKCO":"203","LANDMARKNA":"市立陽明國小","LANDMARKAD":"6400005","ADDRESS":"高雄市三民區義德路52號","TEL":"07-3851915","COUNTYNAME":"高雄市","TOWNNAME":"三民區","MARKTYPE":"992","Class":"2"}},{"type":"Feature","id":20997,"geometry":{"type":"Point","coordinates":[120.32198271182233,22.656145057140289]},"properties":{"OBJECTID":20997,"LANDMARKID":"6400000000359","LANDMARKCO":"203","LANDMARKNA":"市立鼎金國小","LANDMARKAD":"6400005","ADDRESS":"高雄市三民區鼎山街375號","TEL":"07-3836332","COUNTYNAME":"高雄市","TOWNNAME":"三民區","MARKTYPE":"992","Class":"2"}},{"type":"Feature","id":20998,"geometry":{"type":"Point","coordinates":[120.31808974585903,22.670076224604138]},"properties":{"OBJECTID":20998,"LANDMARKID":"6400000000240","LANDMARKCO":"201","LANDMARKNA":"私立文藻外語學院","LANDMARKAD":"6400005","ADDRESS":"高雄市三民區民族一路900號","TEL":"07-3426031","COUNTYNAME":"高雄市","TOWNNAME":"三民區","MARKTYPE":"992","Class":"2"}},{"type":"Feature","id":20999,"geometry":{"type":"Point","coordinates":[120.32834018623338,22.651584887896615]},"properties":{"OBJECTID":20999,"LANDMARKID":"6400000000241","LANDMARKCO":"201","LANDMARKNA":"國立高雄應用科技大學","LANDMARKAD":"6400005","ADDRESS":"高雄市三民區建工路415號","TEL":"07-3814526","COUNTYNAME":"高雄市","TOWNNAME":"三民區","MARKTYPE":"992","Class":"2"}},{"type":"Feature","id":21000,"geometry":{"type":"Point","coordinates":[120.31000215959413,22.645190338947419]},"properties":{"OBJECTID":21000,"LANDMARKID":"6400000000242","LANDMARKCO":"201","LANDMARKNA":"高雄醫學大學","LANDMARKAD":"6400005","ADDRESS":"高雄市三民區十全一路100號","TEL":"07-3121101","COUNTYNAME":"高雄市","TOWNNAME":"三民區","MARKTYPE":"992","Class":"2"}}]}