{"type":"FeatureCollection","features":[{"type":"Feature","id":19001,"geometry":{"type":"Point","coordinates":[121.69630311840177,25.088304010676136]},"properties":{"OBJECTID":19001,"LANDMARKID":"1001700000021","LANDMARKCO":"101","LANDMARKNA":"台北區監理所基隆監理站","LANDMARKAD":"1001702","ADDRESS":"基隆市七堵區實踐路296號","TEL":"02-24515311","COUNTYNAME":"基隆市","TOWNNAME":"七堵區","MARKTYPE":"991","Class":"1"}},{"type":"Feature","id":19002,"geometry":{"type":"Point","coordinates":[121.70620913652481,25.095017825174715]},"properties":{"OBJECTID":19002,"LANDMARKID":"1001700000046","LANDMARKCO":"104","LANDMARKNA":"北區國稅局七堵稽徵所","LANDMARKAD":"1001702","ADDRESS":"基隆市七堵區俊賢路45號4樓","TEL":"02-24551242","COUNTYNAME":"基隆市","TOWNNAME":"七堵區","MARKTYPE":"991","Class":"1"}},{"type":"Feature","id":19003,"geometry":{"type":"Point","coordinates":[121.69734624112327,25.086806321517308]},"properties":{"OBJECTID":19003,"LANDMARKID":"1001700000020","LANDMARKCO":"101","LANDMARKNA":"內政部營建署","LANDMARKAD":"1001702","ADDRESS":"基隆市七堵區百七街66號1樓","TEL":"02-24511054","COUNTYNAME":"基隆市","TOWNNAME":"七堵區","MARKTYPE":"991","Class":"1"}},{"type":"Feature","id":19004,"geometry":{"type":"Point","coordinates":[121.70040835924424,25.091715223897904]},"properties":{"OBJECTID":19004,"LANDMARKID":"1001700000023","LANDMARKCO":"103","LANDMARKNA":"基隆市六堵工業區聯合防護團","LANDMARKAD":"1001702","ADDRESS":"基隆市七堵區工建路194號之1，3樓","TEL":"02-24513363","COUNTYNAME":"基隆市","TOWNNAME":"七堵區","MARKTYPE":"991","Class":"1"}},{"type":"Feature","id":19005,"geometry":{"type":"Point","coordinates":[121.71230716335454,25.094717455394196]},"properties":{"OBJECTID":19005,"LANDMARKID":"1001700000045","LANDMARKCO":"104","LANDMARKNA":"財務部基隆關稅局六堵分局","LANDMARKAD":"1001702","ADDRESS":"基隆市七堵區南光街21號","TEL":"02-24554202","COUNTYNAME":"基隆市","TOWNNAME":"七堵區","MARKTYPE":"991","Class":"1"}},{"type":"Feature","id":19006,"geometry":{"type":"Point","coordinates":[121.69733672102458,25.084127125895648]},"properties":{"OBJECTID":19006,"LANDMARKID":"1001700000182","LANDMARKCO":"204","LANDMARKNA":"基隆市立圖書館七堵分館","LANDMARKAD":"1001702","ADDRESS":"基隆市七堵區福三街92號","TEL":" ","COUNTYNAME":"基隆市","TOWNNAME":"七堵區","MARKTYPE":"992","Class":"2"}},{"type":"Feature","id":19007,"geometry":{"type":"Point","coordinates":[121.71731359618447,25.09489230408585]},"properties":{"OBJECTID":19007,"LANDMARKID":"1001700000114","LANDMARKCO":"202","LANDMARKNA":"國立基隆商工","LANDMARKAD":"1001702","ADDRESS":"基隆市七堵區東新街22號","TEL":"02-24567126","COUNTYNAME":"基隆市","TOWNNAME":"七堵區","MARKTYPE":"992","Class":"2"}},{"type":"Feature","id":19008,"geometry":{"type":"Point","coordinates":[121.71552202639594,25.093641391026321]},"properties":{"OBJECTID":19008,"LANDMARKID":"1001700000125","LANDMARKCO":"203","LANDMARKNA":"市立明德國中","LANDMARKAD":"1001702","ADDRESS":"基隆市七堵區東新街20號","TEL":"02-24561274","COUNTYNAME":"基隆市","TOWNNAME":"七堵區","MARKTYPE":"992","Class":"2"}},{"type":"Feature","id":19009,"geometry":{"type":"Point","coordinates":[121.69868565968318,25.083683618095179]},"properties":{"OBJECTID":19009,"LANDMARKID":"1001700000126","LANDMARKCO":"203","LANDMARKNA":"市立百福國中","LANDMARKAD":"1001702","ADDRESS":"基隆市七堵區福五街1號","TEL":"02-24512975","COUNTYNAME":"基隆市","TOWNNAME":"七堵區","MARKTYPE":"992","Class":"2"}},{"type":"Feature","id":19010,"geometry":{"type":"Point","coordinates":[121.72790418639266,25.11109556567472]},"properties":{"OBJECTID":19010,"LANDMARKID":"1001700000127","LANDMARKCO":"203","LANDMARKNA":"市立尚仁國小","LANDMARKAD":"1001702","ADDRESS":"基隆市七堵區八德路20號","TEL":"02-24311708","COUNTYNAME":"基隆市","TOWNNAME":"七堵區","MARKTYPE":"992","Class":"2"}},{"type":"Feature","id":19011,"geometry":{"type":"Point","coordinates":[121.68992524006964,25.109884877460107]},"properties":{"OBJECTID":19011,"LANDMARKID":"1001700000128","LANDMARKCO":"203","LANDMARKNA":"市立瑪陵國小","LANDMARKAD":"1001702","ADDRESS":"基隆市七堵區大成街1號","TEL":"02-24565663","COUNTYNAME":"基隆市","TOWNNAME":"七堵區","MARKTYPE":"992","Class":"2"}},{"type":"Feature","id":19036,"geometry":{"type":"Point","coordinates":[121.71479145592147,25.097002283720325]},"properties":{"OBJECTID":19036,"LANDMARKID":"1001700000285","LANDMARKCO":"402","LANDMARKNA":"中華電信-七堵服務中心","LANDMARKAD":"1001702","ADDRESS":"基隆市七堵區崇智街2-5號","TEL":"123或0800-080-123","COUNTYNAME":"基隆市","TOWNNAME":"七堵區","MARKTYPE":"994","Class":"4"}},{"type":"Feature","id":19037,"geometry":{"type":"Point","coordinates":[121.74863079576201,25.098439953329883]},"properties":{"OBJECTID":19037,"LANDMARKID":"1001700000311","LANDMARKCO":"405","LANDMARKNA":"中油加油站-碇內站(中油直營)","LANDMARKAD":"1001703","ADDRESS":"基隆市暖暖區源遠路157號","TEL":"02-24577214","COUNTYNAME":"基隆市","TOWNNAME":"暖暖區","MARKTYPE":"994","Class":"4"}},{"type":"Feature","id":19038,"geometry":{"type":"Point","coordinates":[121.72590139148458,25.104076352423174]},"properties":{"OBJECTID":19038,"LANDMARKID":"1001700000312","LANDMARKCO":"405","LANDMARKNA":"中油加油站-八堵加油加氣站(刷卡自助)(中油直營)","LANDMARKAD":"1001703","ADDRESS":"基隆市暖暖區八堵路158號","TEL":"02-24560524","COUNTYNAME":"基隆市","TOWNNAME":"暖暖區","MARKTYPE":"994","Class":"4"}},{"type":"Feature","id":19039,"geometry":{"type":"Point","coordinates":[121.73316802405699,25.107981096785128]},"properties":{"OBJECTID":19039,"LANDMARKID":"1001700000270","LANDMARKCO":"401","LANDMARKNA":"臺灣區煤礦業同業公會附設臺灣礦工醫院","LANDMARKAD":"1001703","ADDRESS":"基隆市暖暖區源遠路29號","TEL":"02-24579101","COUNTYNAME":"基隆市","TOWNNAME":"暖暖區","MARKTYPE":"994","Class":"4"}},{"type":"Feature","id":19040,"geometry":{"type":"Point","coordinates":[121.73785099173112,25.105190630376768]},"properties":{"OBJECTID":19040,"LANDMARKID":"1001700000376","LANDMARKCO":"408","LANDMARKNA":"郵局-基隆過港路郵局","LANDMARKAD":"1001703","ADDRESS":"基隆市暖暖區過港路58號","TEL":"(02)2457-2339","COUNTYNAME":"基隆市","TOWNNAME":"暖暖區","MARKTYPE":"994","Class":"4"}},{"type":"Feature","id":19041,"geometry":{"type":"Point","coordinates":[121.75828077748608,25.099593449525003]},"properties":{"OBJECTID":19041,"LANDMARKID":"1001700000377","LANDMARKCO":"408","LANDMARKNA":"郵局-基隆碇內郵局","LANDMARKAD":"1001703","ADDRESS":"基隆市暖暖區源遠路341號","TEL":"(02)2457-6082","COUNTYNAME":"基隆市","TOWNNAME":"暖暖區","MARKTYPE":"994","Class":"4"}},{"type":"Feature","id":19042,"geometry":{"type":"Point","coordinates":[121.73558293663096,25.099304255230308]},"properties":{"OBJECTID":19042,"LANDMARKID":"1001700000378","LANDMARKCO":"408","LANDMARKNA":"郵局-基隆暖暖郵局","LANDMARKAD":"1001703","ADDRESS":"基隆市暖暖區暖暖街190號","TEL":"(02)2458-4870","COUNTYNAME":"基隆市","TOWNNAME":"暖暖區","MARKTYPE":"994","Class":"4"}},{"type":"Feature","id":19043,"geometry":{"type":"Point","coordinates":[121.75424856351567,25.095339553709465]},"properties":{"OBJECTID":19043,"LANDMARKID":"1001700000344","LANDMARKCO":"406","LANDMARKNA":"碇內公園","LANDMARKAD":"1001703","ADDRESS":"基隆市暖暖區","TEL":" ","COUNTYNAME":"基隆市","TOWNNAME":"暖暖區","MARKTYPE":"994","Class":"4"}},{"type":"Feature","id":19044,"geometry":{"type":"Point","coordinates":[121.73208157046791,25.108894593647719]},"properties":{"OBJECTID":19044,"LANDMARKID":"1001700000063","LANDMARKCO":"107","LANDMARKNA":"基隆市警察局八堵分駐所","LANDMARKAD":"1001703","ADDRESS":"基隆市八堵路130號","TEL":"02-24562438","COUNTYNAME":"基隆市","TOWNNAME":"暖暖區","MARKTYPE":"991","Class":"1"}},{"type":"Feature","id":19045,"geometry":{"type":"Point","coordinates":[121.73658112992543,25.098992125979695]},"properties":{"OBJECTID":19045,"LANDMARKID":"1001700000022","LANDMARKCO":"103","LANDMARKNA":"基隆巿暖暖區衛生所","LANDMARKAD":"1001703","ADDRESS":"基隆市暖暖區暖暖街281巷98號","TEL":"02-24572630","COUNTYNAME":"基隆市","TOWNNAME":"暖暖區","MARKTYPE":"991","Class":"1"}},{"type":"Feature","id":19046,"geometry":{"type":"Point","coordinates":[121.73604427144539,25.100200143337673]},"properties":{"OBJECTID":19046,"LANDMARKID":"1001700000100","LANDMARKCO":"108","LANDMARKNA":"基隆市暖暖區公所","LANDMARKAD":"1001703","ADDRESS":"基隆市暖暖區東勢街2號","TEL":"02-24579121","COUNTYNAME":"基隆市","TOWNNAME":"暖暖區","MARKTYPE":"991","Class":"1"}},{"type":"Feature","id":19047,"geometry":{"type":"Point","coordinates":[121.73799038790895,25.10274047066277]},"properties":{"OBJECTID":19047,"LANDMARKID":"1001700000064","LANDMARKCO":"107","LANDMARKNA":"基隆市消防局暖暖消防分隊","LANDMARKAD":"1001703","ADDRESS":"基隆市暖暖區源遠路30號","TEL":"02-24574119","COUNTYNAME":"基隆市","TOWNNAME":"暖暖區","MARKTYPE":"991","Class":"1"}},{"type":"Feature","id":19048,"geometry":{"type":"Point","coordinates":[121.75516427579304,25.099751059651751]},"properties":{"OBJECTID":19048,"LANDMARKID":"1001700000065","LANDMARKCO":"107","LANDMARKNA":"基隆市警察局碇內派出所","LANDMARKAD":"1001703","ADDRESS":"基隆市暖暖區源遠路249巷36號","TEL":"02-24576080","COUNTYNAME":"基隆市","TOWNNAME":"暖暖區","MARKTYPE":"991","Class":"1"}},{"type":"Feature","id":19049,"geometry":{"type":"Point","coordinates":[121.73778639050097,25.101103910152702]},"properties":{"OBJECTID":19049,"LANDMARKID":"1001700000066","LANDMARKCO":"107","LANDMARKNA":"基隆市警察局暖暖派出所","LANDMARKAD":"1001703","ADDRESS":"基隆市暖暖區暖暖街119號","TEL":"02-24572331","COUNTYNAME":"基隆市","TOWNNAME":"暖暖區","MARKTYPE":"991","Class":"1"}},{"type":"Feature","id":19050,"geometry":{"type":"Point","coordinates":[121.73589678001079,25.100199349483269]},"properties":{"OBJECTID":19050,"LANDMARKID":"1001700000055","LANDMARKCO":"106","LANDMARKNA":"基隆市暖暖區戶政事務所","LANDMARKAD":"1001703","ADDRESS":"基隆市暖暖區暖同里16鄰暖暖街246巷180號","TEL":"02-24575228","COUNTYNAME":"基隆市","TOWNNAME":"暖暖區","MARKTYPE":"991","Class":"1"}},{"type":"Feature","id":19051,"geometry":{"type":"Point","coordinates":[121.73613154254812,25.09983053629227]},"properties":{"OBJECTID":19051,"LANDMARKID":"1001700000183","LANDMARKCO":"204","LANDMARKNA":"基隆市立圖書館暖暖分館","LANDMARKAD":"1001703","ADDRESS":"基隆市暖暖區東勢街2號","TEL":" ","COUNTYNAME":"基隆市","TOWNNAME":"暖暖區","MARKTYPE":"992","Class":"2"}},{"type":"Feature","id":19052,"geometry":{"type":"Point","coordinates":[121.73764652227081,25.107950648104566]},"properties":{"OBJECTID":19052,"LANDMARKID":"1001700000116","LANDMARKCO":"202","LANDMARKNA":"市立暖暖高中","LANDMARKAD":"1001703","ADDRESS":"基隆市暖暖區暖中路112號","TEL":"02-24575534","COUNTYNAME":"基隆市","TOWNNAME":"暖暖區","MARKTYPE":"992","Class":"2"}},{"type":"Feature","id":19053,"geometry":{"type":"Point","coordinates":[121.73295831831835,25.107701083449509]},"properties":{"OBJECTID":19053,"LANDMARKID":"1001700000117","LANDMARKCO":"202","LANDMARKNA":"國立基隆高中","LANDMARKAD":"1001703","ADDRESS":"基隆市暖暖區源遠路20號","TEL":"02-24571225","COUNTYNAME":"基隆市","TOWNNAME":"暖暖區","MARKTYPE":"992","Class":"2"}},{"type":"Feature","id":19054,"geometry":{"type":"Point","coordinates":[121.7495746747058,25.09610308968924]},"properties":{"OBJECTID":19054,"LANDMARKID":"1001700000118","LANDMARKCO":"203","LANDMARKNA":"市立碇內國中","LANDMARKAD":"1001703","ADDRESS":"基隆市暖暖區源遠路152巷75號","TEL":"02-24586105","COUNTYNAME":"基隆市","TOWNNAME":"暖暖區","MARKTYPE":"992","Class":"2"}},{"type":"Feature","id":19055,"geometry":{"type":"Point","coordinates":[121.73718701570907,25.100574959256281]},"properties":{"OBJECTID":19055,"LANDMARKID":"1001700000119","LANDMARKCO":"203","LANDMARKNA":"市立暖暖國小","LANDMARKAD":"1001703","ADDRESS":"基隆市暖暖區暖暖街121號","TEL":"02-24583795","COUNTYNAME":"基隆市","TOWNNAME":"暖暖區","MARKTYPE":"992","Class":"2"}},{"type":"Feature","id":19035,"geometry":{"type":"Point","coordinates":[121.71598606794289,25.097456925439587]},"properties":{"OBJECTID":19035,"LANDMARKID":"1001700000191","LANDMARKCO":"301","LANDMARKNA":"七堵火車站","LANDMARKAD":"1001702","ADDRESS":"基隆市七堵區正光里崇禮街1之1號","TEL":" ","COUNTYNAME":"基隆市","TOWNNAME":"七堵區","MARKTYPE":"993","Class":"301"}},{"type":"Feature","id":19034,"geometry":{"type":"Point","coordinates":[121.69322789186104,25.077644795610102]},"properties":{"OBJECTID":19034,"LANDMARKID":"1001700000190","LANDMARKCO":"301","LANDMARKNA":"百福站","LANDMARKAD":"1001702","ADDRESS":"基隆市明德三路1-1號","TEL":"02-24528372","COUNTYNAME":"基隆市","TOWNNAME":"七堵區","MARKTYPE":"993","Class":"301"}},{"type":"Feature","id":19033,"geometry":{"type":"Point","coordinates":[121.69620975128639,25.085233806166745]},"properties":{"OBJECTID":19033,"LANDMARKID":"1001700000241","LANDMARKCO":"303","LANDMARKNA":"永固停車場-七堵站","LANDMARKAD":"1001702","ADDRESS":"基隆市七堵區百六街60號旁空地","TEL":" ","COUNTYNAME":"基隆市","TOWNNAME":"七堵區","MARKTYPE":"993","Class":"303"}},{"type":"Feature","id":19032,"geometry":{"type":"Point","coordinates":[121.69900321809466,25.08225292300974]},"properties":{"OBJECTID":19032,"LANDMARKID":"1001700000240","LANDMARKCO":"303","LANDMARKNA":"基隆市立百福國民小學停車場","LANDMARKAD":"1001702","ADDRESS":"基隆市七堵區福五街1號","TEL":" ","COUNTYNAME":"基隆市","TOWNNAME":"七堵區","MARKTYPE":"993","Class":"303"}},{"type":"Feature","id":19031,"geometry":{"type":"Point","coordinates":[121.7166187226657,25.071255867888141]},"properties":{"OBJECTID":19031,"LANDMARKID":"1001700000239","LANDMARKCO":"303","LANDMARKNA":"停車場步道口","LANDMARKAD":"1001702","ADDRESS":"基隆市七堵區泰安路七堵南方草濫山區","TEL":" ","COUNTYNAME":"基隆市","TOWNNAME":"七堵區","MARKTYPE":"993","Class":"303"}},{"type":"Feature","id":19030,"geometry":{"type":"Point","coordinates":[121.71423777345754,25.09632489818528]},"properties":{"OBJECTID":19030,"LANDMARKID":"1001700000238","LANDMARKCO":"303","LANDMARKNA":"開元路立體停車場","LANDMARKAD":"1001702","ADDRESS":"基隆市七堵區開元路59號","TEL":" ","COUNTYNAME":"基隆市","TOWNNAME":"七堵區","MARKTYPE":"993","Class":"303"}},{"type":"Feature","id":19029,"geometry":{"type":"Point","coordinates":[121.6945767747258,25.115761663998448]},"properties":{"OBJECTID":19029,"LANDMARKID":"1001700000269","LANDMARKCO":"308","LANDMARKNA":"台62-七堵一交流道-西行","LANDMARKAD":"1001702","ADDRESS":" ","TEL":" ","COUNTYNAME":"基隆市","TOWNNAME":"七堵區","MARKTYPE":"993","Class":"308"}},{"type":"Feature","id":19028,"geometry":{"type":"Point","coordinates":[121.69150220830213,25.111152087341257]},"properties":{"OBJECTID":19028,"LANDMARKID":"1001700000268","LANDMARKCO":"308","LANDMARKNA":"台62-七堵一交流道-東行","LANDMARKAD":"1001702","ADDRESS":" ","TEL":" ","COUNTYNAME":"基隆市","TOWNNAME":"七堵區","MARKTYPE":"993","Class":"308"}},{"type":"Feature","id":19027,"geometry":{"type":"Point","coordinates":[121.69809180361204,25.123116112642773]},"properties":{"OBJECTID":19027,"LANDMARKID":"1001700000267","LANDMARKCO":"308","LANDMARKNA":"台62-瑪東系統交流道-東行","LANDMARKAD":"1001702","ADDRESS":" ","TEL":" ","COUNTYNAME":"基隆市","TOWNNAME":"七堵區","MARKTYPE":"993","Class":"308"}},{"type":"Feature","id":19026,"geometry":{"type":"Point","coordinates":[121.6984124677718,25.126976992313594]},"properties":{"OBJECTID":19026,"LANDMARKID":"1001700000266","LANDMARKCO":"308","LANDMARKNA":"國3-瑪東系統交流道-北上","LANDMARKAD":"1001702","ADDRESS":"基隆市七堵區","TEL":" ","COUNTYNAME":"基隆市","TOWNNAME":"七堵區","MARKTYPE":"993","Class":"308"}},{"type":"Feature","id":19025,"geometry":{"type":"Point","coordinates":[121.68547674668952,25.086485646063977]},"properties":{"OBJECTID":19025,"LANDMARKID":"1001700000265","LANDMARKCO":"308","LANDMARKNA":"國1-五堵交流道-南下","LANDMARKAD":"1001702","ADDRESS":"基隆市七堵區","TEL":" ","COUNTYNAME":"基隆市","TOWNNAME":"七堵區","MARKTYPE":"993","Class":"308"}},{"type":"Feature","id":19024,"geometry":{"type":"Point","coordinates":[121.69662061625398,25.122638855845228]},"properties":{"OBJECTID":19024,"LANDMARKID":"1001700000264","LANDMARKCO":"308","LANDMARKNA":"國3-瑪東系統交流道-南下","LANDMARKAD":"1001702","ADDRESS":"基隆市七堵區","TEL":" ","COUNTYNAME":"基隆市","TOWNNAME":"七堵區","MARKTYPE":"993","Class":"308"}},{"type":"Feature","id":19023,"geometry":{"type":"Point","coordinates":[121.72741633915058,25.114877121550851]},"properties":{"OBJECTID":19023,"LANDMARKID":"1001700000263","LANDMARKCO":"308","LANDMARKNA":"國1-基隆交流道-南下","LANDMARKAD":"1001702","ADDRESS":"基隆市七堵區","TEL":" ","COUNTYNAME":"基隆市","TOWNNAME":"七堵區","MARKTYPE":"993","Class":"308"}},{"type":"Feature","id":19022,"geometry":{"type":"Point","coordinates":[121.72225791447683,25.104215676712542]},"properties":{"OBJECTID":19022,"LANDMARKID":"1001700000262","LANDMARKCO":"308","LANDMARKNA":"國1-八堵交流道-南下","LANDMARKAD":"1001702","ADDRESS":"基隆市七堵區","TEL":" ","COUNTYNAME":"基隆市","TOWNNAME":"七堵區","MARKTYPE":"993","Class":"308"}},{"type":"Feature","id":19021,"geometry":{"type":"Point","coordinates":[121.68817171784127,25.086754819340587]},"properties":{"OBJECTID":19021,"LANDMARKID":"1001700000261","LANDMARKCO":"308","LANDMARKNA":"國1-五堵交流道-北上","LANDMARKAD":"1001702","ADDRESS":"基隆市七堵區","TEL":" ","COUNTYNAME":"基隆市","TOWNNAME":"七堵區","MARKTYPE":"993","Class":"308"}},{"type":"Feature","id":19020,"geometry":{"type":"Point","coordinates":[121.68472586742361,25.108653165318344]},"properties":{"OBJECTID":19020,"LANDMARKID":"1001700000260","LANDMARKCO":"308","LANDMARKNA":"七堵收費站","LANDMARKAD":"1001702","ADDRESS":" ","TEL":" ","COUNTYNAME":"基隆市","TOWNNAME":"七堵區","MARKTYPE":"993","Class":"308"}},{"type":"Feature","id":19019,"geometry":{"type":"Point","coordinates":[121.69846603957615,25.118898770745343]},"properties":{"OBJECTID":19019,"LANDMARKID":"1001700000136","LANDMARKCO":"203","LANDMARKNA":"市立瑪陵國小瑪東分校","LANDMARKAD":"1001702","ADDRESS":"基隆市七堵區","TEL":" ","COUNTYNAME":"基隆市","TOWNNAME":"七堵區","MARKTYPE":"992","Class":"2"}},{"type":"Feature","id":19018,"geometry":{"type":"Point","coordinates":[121.67911211262749,25.124585694604075]},"properties":{"OBJECTID":19018,"LANDMARKID":"1001700000135","LANDMARKCO":"203","LANDMARKNA":"市立瑪陵國小瑪西分校","LANDMARKAD":"1001702","ADDRESS":"基隆市七堵區","TEL":" ","COUNTYNAME":"基隆市","TOWNNAME":"七堵區","MARKTYPE":"992","Class":"2"}},{"type":"Feature","id":19017,"geometry":{"type":"Point","coordinates":[121.66536902364732,25.107223730194601]},"properties":{"OBJECTID":19017,"LANDMARKID":"1001700000134","LANDMARKCO":"203","LANDMARKNA":"市立復興國小","LANDMARKAD":"1001702","ADDRESS":"基隆市七堵區華興二路21號","TEL":"02-24515601","COUNTYNAME":"基隆市","TOWNNAME":"七堵區","MARKTYPE":"992","Class":"2"}},{"type":"Feature","id":19016,"geometry":{"type":"Point","coordinates":[121.70806228674356,25.087791470466406]},"properties":{"OBJECTID":19016,"LANDMARKID":"1001700000133","LANDMARKCO":"203","LANDMARKNA":"市立華興國小","LANDMARKAD":"1001702","ADDRESS":"基隆市七堵區泰安路34號","TEL":"02-24512022","COUNTYNAME":"基隆市","TOWNNAME":"七堵區","MARKTYPE":"992","Class":"2"}},{"type":"Feature","id":19015,"geometry":{"type":"Point","coordinates":[121.71409136005205,25.09252892712648]},"properties":{"OBJECTID":19015,"LANDMARKID":"1001700000132","LANDMARKCO":"203","LANDMARKNA":"市立長興國小","LANDMARKAD":"1001702","ADDRESS":"基隆市七堵區東新街3號","TEL":"02-24552096","COUNTYNAME":"基隆市","TOWNNAME":"七堵區","MARKTYPE":"992","Class":"2"}},{"type":"Feature","id":19014,"geometry":{"type":"Point","coordinates":[121.71364844530923,25.097767255473443]},"properties":{"OBJECTID":19014,"LANDMARKID":"1001700000131","LANDMARKCO":"203","LANDMARKNA":"市立七堵國小","LANDMARKAD":"1001702","ADDRESS":"基隆市七堵區明德一路184號","TEL":"02-24567116","COUNTYNAME":"基隆市","TOWNNAME":"七堵區","MARKTYPE":"992","Class":"2"}},{"type":"Feature","id":19013,"geometry":{"type":"Point","coordinates":[121.69461219484587,25.079693741359826]},"properties":{"OBJECTID":19013,"LANDMARKID":"1001700000130","LANDMARKCO":"203","LANDMARKNA":"市立五堵國小","LANDMARKAD":"1001702","ADDRESS":"基隆市七堵區百一街25號","TEL":"02-24511457","COUNTYNAME":"基隆市","TOWNNAME":"七堵區","MARKTYPE":"992","Class":"2"}},{"type":"Feature","id":19012,"geometry":{"type":"Point","coordinates":[121.69221344000461,25.083273723601021]},"properties":{"OBJECTID":19012,"LANDMARKID":"1001700000129","LANDMARKCO":"203","LANDMARKNA":"市立堵南國小","LANDMARKAD":"1001702","ADDRESS":"基隆市七堵區大德路120號","TEL":"02-24511339","COUNTYNAME":"基隆市","TOWNNAME":"七堵區","MARKTYPE":"992","Class":"2"}},{"type":"Feature","id":19056,"geometry":{"type":"Point","coordinates":[121.75414690631565,25.098120565851495]},"properties":{"OBJECTID":19056,"LANDMARKID":"1001700000120","LANDMARKCO":"203","LANDMARKNA":"市立碇內國小","LANDMARKAD":"1001703","ADDRESS":"基隆市暖暖區源遠路258號","TEL":"02-24581300","COUNTYNAME":"基隆市","TOWNNAME":"暖暖區","MARKTYPE":"992","Class":"2"}},{"type":"Feature","id":19081,"geometry":{"type":"Point","coordinates":[120.69542130014528,23.245852557792976]},"properties":{"OBJECTID":19081,"LANDMARKID":"1001200000234","LANDMARKCO":"107","LANDMARKNA":"高雄市消防局三民消防分隊","LANDMARKAD":"1001227","ADDRESS":"高雄市三民鄉民權村10號","TEL":"07-6701440","COUNTYNAME":"高雄市","TOWNNAME":"那瑪夏區","MARKTYPE":"991","Class":"1"}},{"type":"Feature","id":19082,"geometry":{"type":"Point","coordinates":[120.69763346914752,23.238804844328172]},"properties":{"OBJECTID":19082,"LANDMARKID":"1001200000235","LANDMARKCO":"107","LANDMARKNA":"高雄市政府警察局民權派出所","LANDMARKAD":"1001227","ADDRESS":"高雄市三民鄉民權村74號","TEL":"07-6701282","COUNTYNAME":"高雄市","TOWNNAME":"那瑪夏區","MARKTYPE":"991","Class":"1"}},{"type":"Feature","id":19083,"geometry":{"type":"Point","coordinates":[120.7206686760892,23.271365397671442]},"properties":{"OBJECTID":19083,"LANDMARKID":"1001200000236","LANDMARKCO":"107","LANDMARKNA":"高雄市政府警察局民生派出所","LANDMARKAD":"1001227","ADDRESS":"高雄市三民鄉民生村2號","TEL":"07-6701118","COUNTYNAME":"高雄市","TOWNNAME":"那瑪夏區","MARKTYPE":"991","Class":"1"}},{"type":"Feature","id":19084,"geometry":{"type":"Point","coordinates":[120.69006129727887,23.213242814224923]},"properties":{"OBJECTID":19084,"LANDMARKID":"1001200000123","LANDMARKCO":"106","LANDMARKNA":"高雄市那瑪夏區戶政事務所","LANDMARKAD":"1001227","ADDRESS":"高雄市那瑪夏區南沙魯村鞍山巷60號","TEL":"07-6701141","COUNTYNAME":"高雄市","TOWNNAME":"那瑪夏區","MARKTYPE":"991","Class":"1"}},{"type":"Feature","id":19085,"geometry":{"type":"Point","coordinates":[120.69269422538643,23.217130742579819]},"properties":{"OBJECTID":19085,"LANDMARKID":"1001200000282","LANDMARKCO":"108","LANDMARKNA":"高雄市那瑪夏區公所","LANDMARKAD":"1001227","ADDRESS":"高雄市那瑪夏區南沙魯村鞍山巷1號","TEL":"07-6701001","COUNTYNAME":"高雄市","TOWNNAME":"那瑪夏區","MARKTYPE":"991","Class":"1"}},{"type":"Feature","id":19086,"geometry":{"type":"Point","coordinates":[120.69318674211496,23.218396928074988]},"properties":{"OBJECTID":19086,"LANDMARKID":"1001200000097","LANDMARKCO":"103","LANDMARKNA":"高雄市那瑪夏區鄉民代表會","LANDMARKAD":"1001227","ADDRESS":"高雄市那瑪夏區南沙魯村鞍山巷11號","TEL":"07-6701003","COUNTYNAME":"高雄市","TOWNNAME":"那瑪夏區","MARKTYPE":"991","Class":"1"}},{"type":"Feature","id":19087,"geometry":{"type":"Point","coordinates":[120.69410559103665,23.21831020407835]},"properties":{"OBJECTID":19087,"LANDMARKID":"1001200000098","LANDMARKCO":"103","LANDMARKNA":"高雄市那瑪夏區衛生所","LANDMARKAD":"1001227","ADDRESS":"高雄市那瑪夏區南沙魯村鞍山巷63號","TEL":"07-6701142","COUNTYNAME":"高雄市","TOWNNAME":"那瑪夏區","MARKTYPE":"991","Class":"1"}},{"type":"Feature","id":19088,"geometry":{"type":"Point","coordinates":[120.69263789172093,23.216859469479743]},"properties":{"OBJECTID":19088,"LANDMARKID":"1001200000574","LANDMARKCO":"204","LANDMARKNA":"高雄市立圖書館三民分館","LANDMARKAD":"1001227","ADDRESS":"高雄市三民鄉民族村鞍山巷4號","TEL":" ","COUNTYNAME":"高雄市","TOWNNAME":"那瑪夏區","MARKTYPE":"992","Class":"2"}},{"type":"Feature","id":19089,"geometry":{"type":"Point","coordinates":[120.69769515909177,23.239444395826286]},"properties":{"OBJECTID":19089,"LANDMARKID":"1001200000537","LANDMARKCO":"203","LANDMARKNA":"縣立三民國中","LANDMARKAD":"1001227","ADDRESS":"高雄市那瑪夏區瑪雅村平和巷171號","TEL":"07-6701813","COUNTYNAME":"高雄市","TOWNNAME":"那瑪夏區","MARKTYPE":"992","Class":"2"}},{"type":"Feature","id":19090,"geometry":{"type":"Point","coordinates":[120.69440240745355,23.217498617865477]},"properties":{"OBJECTID":19090,"LANDMARKID":"1001200000538","LANDMARKCO":"203","LANDMARKNA":"縣立民族國小","LANDMARKAD":"1001227","ADDRESS":"高雄市那瑪夏區民族村鞍山巷59號","TEL":"07-6701260","COUNTYNAME":"高雄市","TOWNNAME":"那瑪夏區","MARKTYPE":"992","Class":"2"}},{"type":"Feature","id":19091,"geometry":{"type":"Point","coordinates":[120.72090504755928,23.276062017880388]},"properties":{"OBJECTID":19091,"LANDMARKID":"1001200000539","LANDMARKCO":"203","LANDMARKNA":"縣立民生國小","LANDMARKAD":"1001227","ADDRESS":"高雄市那瑪夏區民生村大光巷159號","TEL":"07-6701233","COUNTYNAME":"高雄市","TOWNNAME":"那瑪夏區","MARKTYPE":"992","Class":"2"}},{"type":"Feature","id":19092,"geometry":{"type":"Point","coordinates":[120.69480257140859,23.229595480888282]},"properties":{"OBJECTID":19092,"LANDMARKID":"1001200000540","LANDMARKCO":"203","LANDMARKNA":"民權國小","LANDMARKAD":"1001227","ADDRESS":"高雄市那瑪夏區瑪雅村平和巷1號","TEL":"07-6701129","COUNTYNAME":"高雄市","TOWNNAME":"那瑪夏區","MARKTYPE":"992","Class":"2"}},{"type":"Feature","id":19093,"geometry":{"type":"Point","coordinates":[120.70891390377237,23.224589540642278]},"properties":{"OBJECTID":19093,"LANDMARKID":"1001200001214","LANDMARKCO":"503","LANDMARKNA":"天使瀑布","LANDMARKAD":"1001227","ADDRESS":"高雄市三民鄉","TEL":" ","COUNTYNAME":"高雄市","TOWNNAME":"那瑪夏區","MARKTYPE":"995","Class":"5"}},{"type":"Feature","id":19094,"geometry":{"type":"Point","coordinates":[120.73870372760024,23.294936859496651]},"properties":{"OBJECTID":19094,"LANDMARKID":"1001200001215","LANDMARKCO":"503","LANDMARKNA":"龍鳳瀑布(虹彩瀑市)","LANDMARKAD":"1001227","ADDRESS":"高雄市三民鄉","TEL":" ","COUNTYNAME":"高雄市","TOWNNAME":"那瑪夏區","MARKTYPE":"995","Class":"5"}},{"type":"Feature","id":19095,"geometry":{"type":"Point","coordinates":[120.83023973910248,23.245440713624269]},"properties":{"OBJECTID":19095,"LANDMARKID":"1001200000873","LANDMARKCO":"405","LANDMARKNA":"中油加油站-梅蘭站","LANDMARKAD":"1001226","ADDRESS":"高雄市桃源區梅蘭巷123號","TEL":"07-6866039","COUNTYNAME":"高雄市","TOWNNAME":"桃源區","MARKTYPE":"994","Class":"4"}},{"type":"Feature","id":19096,"geometry":{"type":"Point","coordinates":[120.82577942521763,23.263396698472807]},"properties":{"OBJECTID":19096,"LANDMARKID":"1001200001309","LANDMARKCO":"512","LANDMARKNA":"玉山國家公園管理處梅山管理中心","LANDMARKAD":"1001226","ADDRESS":"高雄市桃源區梅山巷50號","TEL":"07-6866181","COUNTYNAME":"高雄市","TOWNNAME":"桃源區","MARKTYPE":"995","Class":"5"}},{"type":"Feature","id":19097,"geometry":{"type":"Point","coordinates":[120.82383181278645,23.268230874167145]},"properties":{"OBJECTID":19097,"LANDMARKID":"1001200001469","LANDMARKCO":"605","LANDMARKNA":"救國團梅山青年活動中心","LANDMARKAD":"1001226","ADDRESS":"高雄市桃源區梅山村梅山巷55號","TEL":"07-6866166","COUNTYNAME":"高雄市","TOWNNAME":"桃源區","MARKTYPE":"996","Class":"6"}},{"type":"Feature","id":19098,"geometry":{"type":"Point","coordinates":[120.7644508324446,23.159000908481342]},"properties":{"OBJECTID":19098,"LANDMARKID":"1001200001095","LANDMARKCO":"408","LANDMARKNA":"郵局-桃源郵局","LANDMARKAD":"1001226","ADDRESS":"高雄市桃源區桃源村南進巷182號","TEL":"(07)6861-141","COUNTYNAME":"高雄市","TOWNNAME":"桃源區","MARKTYPE":"994","Class":"4"}},{"type":"Feature","id":19099,"geometry":{"type":"Point","coordinates":[120.76604419826242,23.159946282811891]},"properties":{"OBJECTID":19099,"LANDMARKID":"1001200001155","LANDMARKCO":"409","LANDMARKNA":"甲仙農會-桃源分部","LANDMARKAD":"1001226","ADDRESS":"高雄市桃源區桃源村北進巷68號","TEL":"07-686-12","COUNTYNAME":"高雄市","TOWNNAME":"桃源區","MARKTYPE":"994","Class":"4"}},{"type":"Feature","id":19057,"geometry":{"type":"Point","coordinates":[121.73242620500663,25.108640662088032]},"properties":{"OBJECTID":19057,"LANDMARKID":"1001700000121","LANDMARKCO":"203","LANDMARKNA":"市立八堵國小","LANDMARKAD":"1001703","ADDRESS":"基隆市暖暖區源遠路27號","TEL":"02-24573287#80","COUNTYNAME":"基隆市","TOWNNAME":"暖暖區","MARKTYPE":"992","Class":"2"}},{"type":"Feature","id":19058,"geometry":{"type":"Point","coordinates":[121.73782115501743,25.105389544186576]},"properties":{"OBJECTID":19058,"LANDMARKID":"1001700000122","LANDMARKCO":"203","LANDMARKNA":"市立暖江國小","LANDMARKAD":"1001703","ADDRESS":"基隆市暖暖區寧靜街3號","TEL":"02-24574348","COUNTYNAME":"基隆市","TOWNNAME":"暖暖區","MARKTYPE":"992","Class":"2"}},{"type":"Feature","id":19059,"geometry":{"type":"Point","coordinates":[121.73523785629015,25.093863926404659]},"properties":{"OBJECTID":19059,"LANDMARKID":"1001700000123","LANDMARKCO":"203","LANDMARKNA":"市立暖西國小","LANDMARKAD":"1001703","ADDRESS":"基隆市暖暖區暖暖街350號","TEL":"02-24591311","COUNTYNAME":"基隆市","TOWNNAME":"暖暖區","MARKTYPE":"992","Class":"2"}},{"type":"Feature","id":19060,"geometry":{"type":"Point","coordinates":[121.75436872010745,25.078087929980846]},"properties":{"OBJECTID":19060,"LANDMARKID":"1001700000124","LANDMARKCO":"203","LANDMARKNA":"市立暖暖國小暖東分班","LANDMARKAD":"1001703","ADDRESS":"基隆市暖暖區","TEL":" ","COUNTYNAME":"基隆市","TOWNNAME":"暖暖區","MARKTYPE":"992","Class":"2"}},{"type":"Feature","id":19061,"geometry":{"type":"Point","coordinates":[121.73774542640098,25.107677324259395]},"properties":{"OBJECTID":19061,"LANDMARKID":"1001700000235","LANDMARKCO":"303","LANDMARKNA":"基隆市立暖暖國中停車場","LANDMARKAD":"1001703","ADDRESS":"基隆市暖暖區暖中路112號","TEL":" ","COUNTYNAME":"基隆市","TOWNNAME":"暖暖區","MARKTYPE":"993","Class":"303"}},{"type":"Feature","id":19062,"geometry":{"type":"Point","coordinates":[121.75473267985564,25.076879139047819]},"properties":{"OBJECTID":19062,"LANDMARKID":"1001700000236","LANDMARKCO":"303","LANDMARKNA":"暖東峽谷停車場","LANDMARKAD":"1001703","ADDRESS":"基隆市暖暖區","TEL":" ","COUNTYNAME":"基隆市","TOWNNAME":"暖暖區","MARKTYPE":"993","Class":"303"}},{"type":"Feature","id":19063,"geometry":{"type":"Point","coordinates":[121.73776686917992,25.107738223635842]},"properties":{"OBJECTID":19063,"LANDMARKID":"1001700000237","LANDMARKCO":"303","LANDMARKNA":"基隆市立暖暖國中停車場","LANDMARKAD":"1001703","ADDRESS":"基隆市暖暖區暖中路112號","TEL":" ","COUNTYNAME":"基隆市","TOWNNAME":"暖暖區","MARKTYPE":"993","Class":"303"}},{"type":"Feature","id":19064,"geometry":{"type":"Point","coordinates":[121.72941756870001,25.105149477207206]},"properties":{"OBJECTID":19064,"LANDMARKID":"1001700000257","LANDMARKCO":"308","LANDMARKNA":"台62-暖暖交流道-西行","LANDMARKAD":"1001703","ADDRESS":" ","TEL":" ","COUNTYNAME":"基隆市","TOWNNAME":"暖暖區","MARKTYPE":"993","Class":"308"}},{"type":"Feature","id":19065,"geometry":{"type":"Point","coordinates":[121.73438333401944,25.104293133681949]},"properties":{"OBJECTID":19065,"LANDMARKID":"1001700000258","LANDMARKCO":"308","LANDMARKNA":"台62-暖暖交流道-東行","LANDMARKAD":"1001703","ADDRESS":" ","TEL":" ","COUNTYNAME":"基隆市","TOWNNAME":"暖暖區","MARKTYPE":"993","Class":"308"}},{"type":"Feature","id":19066,"geometry":{"type":"Point","coordinates":[121.73873484273304,25.102662700598277]},"properties":{"OBJECTID":19066,"LANDMARKID":"1001700000193","LANDMARKCO":"302","LANDMARKNA":"基隆市公共汽車暖暖分站","LANDMARKAD":"1001703","ADDRESS":"基隆市暖暖區源遠路30號","TEL":" ","COUNTYNAME":"基隆市","TOWNNAME":"暖暖區","MARKTYPE":"993","Class":"302"}},{"type":"Feature","id":19067,"geometry":{"type":"Point","coordinates":[121.74745776652958,25.098479021673338]},"properties":{"OBJECTID":19067,"LANDMARKID":"1001700000194","LANDMARKCO":"302","LANDMARKNA":"大有巴士","LANDMARKAD":"1001703","ADDRESS":"205基隆市暖暖區源遠路124號","TEL":"|","COUNTYNAME":"基隆市","TOWNNAME":"暖暖區","MARKTYPE":"993","Class":"302"}},{"type":"Feature","id":19068,"geometry":{"type":"Point","coordinates":[121.73335044352267,25.108316457707446]},"properties":{"OBJECTID":19068,"LANDMARKID":"1001700000232","LANDMARKCO":"303","LANDMARKNA":"礦工醫院停車場","LANDMARKAD":"1001703","ADDRESS":"基隆市暖暖區源遠路29號","TEL":" ","COUNTYNAME":"基隆市","TOWNNAME":"暖暖區","MARKTYPE":"993","Class":"303"}},{"type":"Feature","id":19069,"geometry":{"type":"Point","coordinates":[121.73390674897045,25.106194461487235]},"properties":{"OBJECTID":19069,"LANDMARKID":"1001700000233","LANDMARKCO":"303","LANDMARKNA":"八堵里臨時停車場","LANDMARKAD":"1001703","ADDRESS":"基隆市暖暖區","TEL":" ","COUNTYNAME":"基隆市","TOWNNAME":"暖暖區","MARKTYPE":"993","Class":"303"}},{"type":"Feature","id":19070,"geometry":{"type":"Point","coordinates":[121.73491937029834,25.097854135341819]},"properties":{"OBJECTID":19070,"LANDMARKID":"1001700000234","LANDMARKCO":"303","LANDMARKNA":"暖暖里臨時停車場","LANDMARKAD":"1001703","ADDRESS":"基隆市暖暖區暖暖街281巷","TEL":" ","COUNTYNAME":"基隆市","TOWNNAME":"暖暖區","MARKTYPE":"993","Class":"303"}},{"type":"Feature","id":19071,"geometry":{"type":"Point","coordinates":[121.74016202943399,25.102230826528874]},"properties":{"OBJECTID":19071,"LANDMARKID":"1001700000188","LANDMARKCO":"301","LANDMARKNA":"暖暖火車站","LANDMARKAD":"1001703","ADDRESS":"基隆市暖暖區","TEL":" ","COUNTYNAME":"基隆市","TOWNNAME":"暖暖區","MARKTYPE":"993","Class":"301"}},{"type":"Feature","id":19072,"geometry":{"type":"Point","coordinates":[121.72870085556748,25.108459328369179]},"properties":{"OBJECTID":19072,"LANDMARKID":"1001700000189","LANDMARKCO":"301","LANDMARKNA":"八堵火車站","LANDMARKAD":"1001703","ADDRESS":"基隆市暖暖區八南里八堵路142號","TEL":"02-24560841","COUNTYNAME":"基隆市","TOWNNAME":"暖暖區","MARKTYPE":"993","Class":"301"}},{"type":"Feature","id":19073,"geometry":{"type":"Point","coordinates":[121.7289130738141,25.107874009215763]},"properties":{"OBJECTID":19073,"LANDMARKID":"1001700000427","LANDMARKCO":"603","LANDMARKNA":"八堵旅社","LANDMARKAD":"1001703","ADDRESS":"基隆市暖暖區八堵路125號2樓","TEL":"02-24567690","COUNTYNAME":"基隆市","TOWNNAME":"暖暖區","MARKTYPE":"996","Class":"6"}},{"type":"Feature","id":19074,"geometry":{"type":"Point","coordinates":[121.72879313883645,25.107793935475549]},"properties":{"OBJECTID":19074,"LANDMARKID":"1001700000428","LANDMARKCO":"603","LANDMARKNA":"新生旅店","LANDMARKAD":"1001703","ADDRESS":"基隆市暖暖區八堵路131號","TEL":"02-24560951","COUNTYNAME":"基隆市","TOWNNAME":"暖暖區","MARKTYPE":"996","Class":"6"}},{"type":"Feature","id":19075,"geometry":{"type":"Point","coordinates":[121.75329731937056,25.074768696212317]},"properties":{"OBJECTID":19075,"LANDMARKID":"1001700000384","LANDMARKCO":"503","LANDMARKNA":"暖東峽谷","LANDMARKAD":"1001703","ADDRESS":"基隆市暖暖區東勢坑221號","TEL":" ","COUNTYNAME":"基隆市","TOWNNAME":"暖暖區","MARKTYPE":"995","Class":"5"}},{"type":"Feature","id":19076,"geometry":{"type":"Point","coordinates":[120.71975780515133,23.273749594405057]},"properties":{"OBJECTID":19076,"LANDMARKID":"1001200000874","LANDMARKCO":"405","LANDMARKNA":"中油加油站-伊比站","LANDMARKAD":"1001227","ADDRESS":"高雄市民生村大光巷188號","TEL":"07-6701981","COUNTYNAME":"高雄市","TOWNNAME":"那瑪夏區","MARKTYPE":"994","Class":"4"}},{"type":"Feature","id":19077,"geometry":{"type":"Point","coordinates":[120.69247325834769,23.217427647297789]},"properties":{"OBJECTID":19077,"LANDMARKID":"1001200001094","LANDMARKCO":"408","LANDMARKNA":"郵局-那瑪夏郵局","LANDMARKAD":"1001227","ADDRESS":"高雄市那瑪夏區南沙魯村鞍山巷9號","TEL":"(07)6701-138","COUNTYNAME":"高雄市","TOWNNAME":"那瑪夏區","MARKTYPE":"994","Class":"4"}},{"type":"Feature","id":19078,"geometry":{"type":"Point","coordinates":[120.69277443799143,23.216912235436183]},"properties":{"OBJECTID":19078,"LANDMARKID":"1001200001156","LANDMARKCO":"409","LANDMARKNA":"甲仙農會-三民分部","LANDMARKAD":"1001227","ADDRESS":"高雄市三民鄉民族村鞍山巷6號","TEL":"07-670-12","COUNTYNAME":"高雄市","TOWNNAME":"那瑪夏區","MARKTYPE":"994","Class":"4"}},{"type":"Feature","id":19079,"geometry":{"type":"Point","coordinates":[120.69540175507468,23.245852481971571]},"properties":{"OBJECTID":19079,"LANDMARKID":"1001200000232","LANDMARKCO":"107","LANDMARKNA":"高雄市消防局第三消防大隊部","LANDMARKAD":"1001227","ADDRESS":"高雄市美濃區民生路75號","TEL":"07-6817132","COUNTYNAME":"高雄市","TOWNNAME":"那瑪夏區","MARKTYPE":"991","Class":"1"}},{"type":"Feature","id":19080,"geometry":{"type":"Point","coordinates":[120.66680585423967,23.210789932376297]},"properties":{"OBJECTID":19080,"LANDMARKID":"1001200000233","LANDMARKCO":"107","LANDMARKNA":"高雄市政府警察局民治派出所","LANDMARKAD":"1001227","ADDRESS":"高雄市三民鄉民權村雙連堀1號","TEL":"07-6761280","COUNTYNAME":"高雄市","TOWNNAME":"那瑪夏區","MARKTYPE":"991","Class":"1"}},{"type":"Feature","id":19100,"geometry":{"type":"Point","coordinates":[120.70941212355349,23.120897772219063]},"properties":{"OBJECTID":19100,"LANDMARKID":"1001200000244","LANDMARKCO":"107","LANDMARKNA":"高中派出所","LANDMARKAD":"1001226","ADDRESS":" ","TEL":"07-6881385","COUNTYNAME":"高雄市","TOWNNAME":"桃源區","MARKTYPE":"991","Class":"1"}},{"type":"Feature","id":19125,"geometry":{"type":"Point","coordinates":[120.76430255927734,23.159646981686024]},"properties":{"OBJECTID":19125,"LANDMARKID":"1001200000633","LANDMARKCO":"303","LANDMARKNA":"桃源區立體停車場","LANDMARKAD":"1001226","ADDRESS":"高雄市桃源區","TEL":" ","COUNTYNAME":"高雄市","TOWNNAME":"桃源區","MARKTYPE":"993","Class":"303"}},{"type":"Feature","id":19126,"geometry":{"type":"Point","coordinates":[120.83253604622813,23.267656818007179]},"properties":{"OBJECTID":19126,"LANDMARKID":"1001200000634","LANDMARKCO":"303","LANDMARKNA":"玉山國家公園管理處梅山遊客中心","LANDMARKAD":"1001226","ADDRESS":"高雄市桃源區梅山路梅山巷44之5號","TEL":" ","COUNTYNAME":"高雄市","TOWNNAME":"桃源區","MARKTYPE":"993","Class":"303"}},{"type":"Feature","id":19127,"geometry":{"type":"Point","coordinates":[120.75483788809255,23.067280275673255]},"properties":{"OBJECTID":19127,"LANDMARKID":"1001200001465","LANDMARKCO":"604","LANDMARKNA":"藤枝出雲民宿","LANDMARKAD":"1001226","ADDRESS":"高雄市桃源區寶山村寶山巷111-5號","TEL":"07-6895036","COUNTYNAME":"高雄市","TOWNNAME":"桃源區","MARKTYPE":"996","Class":"6"}},{"type":"Feature","id":19128,"geometry":{"type":"Point","coordinates":[120.75554468512507,23.067394370466026]},"properties":{"OBJECTID":19128,"LANDMARKID":"1001200001466","LANDMARKCO":"604","LANDMARKNA":"藤枝森林山莊","LANDMARKAD":"1001226","ADDRESS":"高雄市桃源區寶山村寶山巷148號","TEL":"07-6895205","COUNTYNAME":"高雄市","TOWNNAME":"桃源區","MARKTYPE":"996","Class":"6"}},{"type":"Feature","id":19129,"geometry":{"type":"Point","coordinates":[120.75495099004344,23.067224451416365]},"properties":{"OBJECTID":19129,"LANDMARKID":"1001200001467","LANDMARKCO":"604","LANDMARKNA":"森濤餐飲民宿","LANDMARKAD":"1001226","ADDRESS":"高雄市桃源區寶山村111-1號","TEL":"07-6894013","COUNTYNAME":"高雄市","TOWNNAME":"桃源區","MARKTYPE":"996","Class":"6"}},{"type":"Feature","id":19130,"geometry":{"type":"Point","coordinates":[120.80508574027351,23.218223945380441]},"properties":{"OBJECTID":19130,"LANDMARKID":"1001200001468","LANDMARKCO":"604","LANDMARKNA":"拉法阿勒台灣野百合民宿","LANDMARKAD":"1001226","ADDRESS":"高雄市桃源區復興村復興巷42-6號","TEL":"07-6866142","COUNTYNAME":"高雄市","TOWNNAME":"桃源區","MARKTYPE":"996","Class":"6"}},{"type":"Feature","id":19131,"geometry":{"type":"Point","coordinates":[120.71334737695433,23.135417580618753]},"properties":{"OBJECTID":19131,"LANDMARKID":"1001200001272","LANDMARKCO":"508","LANDMARKNA":"高中溫泉(荖荖溫泉)","LANDMARKAD":"1001226","ADDRESS":"高雄市桃源區","TEL":" ","COUNTYNAME":"高雄市","TOWNNAME":"桃源區","MARKTYPE":"995","Class":"5"}},{"type":"Feature","id":19132,"geometry":{"type":"Point","coordinates":[120.72587554639476,23.085445821356711]},"properties":{"OBJECTID":19132,"LANDMARKID":"1001200001273","LANDMARKCO":"508","LANDMARKNA":"石洞溫泉","LANDMARKAD":"1001226","ADDRESS":"高雄市桃源區","TEL":" ","COUNTYNAME":"高雄市","TOWNNAME":"桃源區","MARKTYPE":"995","Class":"5"}},{"type":"Feature","id":19133,"geometry":{"type":"Point","coordinates":[120.75294105726277,23.10105093650559]},"properties":{"OBJECTID":19133,"LANDMARKID":"1001200001274","LANDMARKCO":"508","LANDMARKNA":"七坑溫泉","LANDMARKAD":"1001226","ADDRESS":"高雄市桃源區","TEL":" ","COUNTYNAME":"高雄市","TOWNNAME":"桃源區","MARKTYPE":"995","Class":"5"}},{"type":"Feature","id":19134,"geometry":{"type":"Point","coordinates":[120.79414431298893,23.182117151562689]},"properties":{"OBJECTID":19134,"LANDMARKID":"1001200001275","LANDMARKCO":"508","LANDMARKNA":"玉穗溫泉","LANDMARKAD":"1001226","ADDRESS":"高雄市桃源區","TEL":" ","COUNTYNAME":"高雄市","TOWNNAME":"桃源區","MARKTYPE":"995","Class":"5"}},{"type":"Feature","id":19135,"geometry":{"type":"Point","coordinates":[120.84366368893221,23.212816777839606]},"properties":{"OBJECTID":19135,"LANDMARKID":"1001200001276","LANDMARKCO":"508","LANDMARKNA":"復興溫泉","LANDMARKAD":"1001226","ADDRESS":"高雄市桃源區","TEL":" ","COUNTYNAME":"高雄市","TOWNNAME":"桃源區","MARKTYPE":"995","Class":"5"}},{"type":"Feature","id":19136,"geometry":{"type":"Point","coordinates":[120.76047699583199,23.073408001650847]},"properties":{"OBJECTID":19136,"LANDMARKID":"1001200001237","LANDMARKCO":"504","LANDMARKNA":"藤枝森林遊樂區木馬道","LANDMARKAD":"1001226","ADDRESS":"高雄市桃源區藤枝段78號","TEL":" ","COUNTYNAME":"高雄市","TOWNNAME":"桃源區","MARKTYPE":"995","Class":"5"}},{"type":"Feature","id":19137,"geometry":{"type":"Point","coordinates":[120.76342802846786,23.077397411714244]},"properties":{"OBJECTID":19137,"LANDMARKID":"1001200001238","LANDMARKCO":"504","LANDMARKNA":"藤枝森林遊樂區樹海亭","LANDMARKAD":"1001226","ADDRESS":"高雄市桃源區藤枝段78號","TEL":" ","COUNTYNAME":"高雄市","TOWNNAME":"桃源區","MARKTYPE":"995","Class":"5"}},{"type":"Feature","id":19138,"geometry":{"type":"Point","coordinates":[120.73684160461767,23.127463841772851]},"properties":{"OBJECTID":19138,"LANDMARKID":"1001200001212","LANDMARKCO":"503","LANDMARKNA":"高中瀑布","LANDMARKAD":"1001226","ADDRESS":"高雄市桃源區","TEL":" ","COUNTYNAME":"高雄市","TOWNNAME":"桃源區","MARKTYPE":"995","Class":"5"}},{"type":"Feature","id":19139,"geometry":{"type":"Point","coordinates":[120.75513593543265,23.068163400536093]},"properties":{"OBJECTID":19139,"LANDMARKID":"1001200001236","LANDMARKCO":"504","LANDMARKNA":"藤枝森林遊樂區","LANDMARKAD":"1001226","ADDRESS":"高雄市六龜區寶山村藤枝段78號","TEL":" ","COUNTYNAME":"高雄市","TOWNNAME":"桃源區","MARKTYPE":"995","Class":"5"}},{"type":"Feature","id":19140,"geometry":{"type":"Point","coordinates":[120.81170703004827,23.247557514660279]},"properties":{"OBJECTID":19140,"LANDMARKID":"1001200001216","LANDMARKCO":"503","LANDMARKNA":"千疊瀑布","LANDMARKAD":"1001226","ADDRESS":"高雄市桃源區","TEL":" ","COUNTYNAME":"高雄市","TOWNNAME":"桃源區","MARKTYPE":"995","Class":"5"}},{"type":"Feature","id":19141,"geometry":{"type":"Point","coordinates":[120.82579385071102,23.264075661948166]},"properties":{"OBJECTID":19141,"LANDMARKID":"1001200001217","LANDMARKCO":"503","LANDMARKNA":"梅山遊憩區","LANDMARKAD":"1001226","ADDRESS":"高雄市桃源區梅山村","TEL":" ","COUNTYNAME":"高雄市","TOWNNAME":"桃源區","MARKTYPE":"995","Class":"5"}},{"type":"Feature","id":19142,"geometry":{"type":"Point","coordinates":[120.79403352621604,23.193356539293202]},"properties":{"OBJECTID":19142,"LANDMARKID":"1001200001218","LANDMARKCO":"503","LANDMARKNA":"欽堂瀑布","LANDMARKAD":"1001226","ADDRESS":"高雄市桃源區","TEL":" ","COUNTYNAME":"高雄市","TOWNNAME":"桃源區","MARKTYPE":"995","Class":"5"}},{"type":"Feature","id":19143,"geometry":{"type":"Point","coordinates":[120.9656697612313,23.470759684706742]},"properties":{"OBJECTID":19143,"LANDMARKID":"1001200001310","LANDMARKCO":"513","LANDMARKNA":"玉山東峰","LANDMARKAD":"1001226","ADDRESS":"高雄市桃源區","TEL":" ","COUNTYNAME":"高雄市","TOWNNAME":"桃源區","MARKTYPE":"995","Class":"5"}},{"type":"Feature","id":19144,"geometry":{"type":"Point","coordinates":[120.95878503927597,23.446565363285945]},"properties":{"OBJECTID":19144,"LANDMARKID":"1001200001311","LANDMARKCO":"513","LANDMARKNA":"玉山南峰","LANDMARKAD":"1001226","ADDRESS":"高雄市桃源區","TEL":" ","COUNTYNAME":"高雄市","TOWNNAME":"桃源區","MARKTYPE":"995","Class":"5"}},{"type":"Feature","id":19145,"geometry":{"type":"Point","coordinates":[120.9634172264952,23.439017505166078]},"properties":{"OBJECTID":19145,"LANDMARKID":"1001200001312","LANDMARKCO":"513","LANDMARKNA":"東小南山","LANDMARKAD":"1001226","ADDRESS":"高雄市桃源區","TEL":" ","COUNTYNAME":"高雄市","TOWNNAME":"桃源區","MARKTYPE":"995","Class":"5"}},{"type":"Feature","id":19101,"geometry":{"type":"Point","coordinates":[120.75721359996614,23.150147745186427]},"properties":{"OBJECTID":19101,"LANDMARKID":"1001200000245","LANDMARKCO":"107","LANDMARKNA":"高雄市政府警察局桃源分駐所","LANDMARKAD":"1001226","ADDRESS":"高雄市桃源區桃源村南進巷183號","TEL":"07-6861176","COUNTYNAME":"高雄市","TOWNNAME":"桃源區","MARKTYPE":"991","Class":"1"}},{"type":"Feature","id":19102,"geometry":{"type":"Point","coordinates":[120.76247859934097,23.158102125442994]},"properties":{"OBJECTID":19102,"LANDMARKID":"1001200000099","LANDMARKCO":"103","LANDMARKNA":"高雄市桃源區衛生所","LANDMARKAD":"1001226","ADDRESS":"高雄市桃源區桃源村南進巷188之1號","TEL":"07-6861126","COUNTYNAME":"高雄市","TOWNNAME":"桃源區","MARKTYPE":"991","Class":"1"}},{"type":"Feature","id":19103,"geometry":{"type":"Point","coordinates":[120.76849788430744,23.162807577826811]},"properties":{"OBJECTID":19103,"LANDMARKID":"1001200000241","LANDMARKCO":"107","LANDMARKNA":"高雄市消防局桃源消防分隊","LANDMARKAD":"1001226","ADDRESS":"高雄市桃源區桃源村南進巷189號","TEL":"07-6861358","COUNTYNAME":"高雄市","TOWNNAME":"桃源區","MARKTYPE":"991","Class":"1"}},{"type":"Feature","id":19104,"geometry":{"type":"Point","coordinates":[120.7226028185414,23.05427463852066]},"properties":{"OBJECTID":19104,"LANDMARKID":"1001200000242","LANDMARKCO":"107","LANDMARKNA":"高雄市政府警察局寶山派出所","LANDMARKAD":"1001226","ADDRESS":"高雄市桃源區寶山村寶山巷16號","TEL":"07-6892464","COUNTYNAME":"高雄市","TOWNNAME":"桃源區","MARKTYPE":"991","Class":"1"}},{"type":"Feature","id":19105,"geometry":{"type":"Point","coordinates":[120.75373703940129,23.068324470299089]},"properties":{"OBJECTID":19105,"LANDMARKID":"1001200000243","LANDMARKCO":"107","LANDMARKNA":"高雄市政府警察局森濤派出所","LANDMARKAD":"1001226","ADDRESS":"高雄市桃源區寶山村寶山巷145號","TEL":"07-6892474","COUNTYNAME":"高雄市","TOWNNAME":"桃源區","MARKTYPE":"991","Class":"1"}},{"type":"Feature","id":19106,"geometry":{"type":"Point","coordinates":[120.76027086811035,23.159634856404146]},"properties":{"OBJECTID":19106,"LANDMARKID":"1001200000281","LANDMARKCO":"108","LANDMARKNA":"高雄市桃源區公所","LANDMARKAD":"1001226","ADDRESS":"高雄市桃源區北進巷1號","TEL":"07-6861132","COUNTYNAME":"高雄市","TOWNNAME":"桃源區","MARKTYPE":"991","Class":"1"}},{"type":"Feature","id":19107,"geometry":{"type":"Point","coordinates":[120.76109112423342,23.158282776176328]},"properties":{"OBJECTID":19107,"LANDMARKID":"1001200000122","LANDMARKCO":"106","LANDMARKNA":"高雄市桃源區戶政事務所","LANDMARKAD":"1001226","ADDRESS":"高雄市桃源區桃源村7鄰南進巷200號","TEL":"07-6861035","COUNTYNAME":"高雄市","TOWNNAME":"桃源區","MARKTYPE":"991","Class":"1"}},{"type":"Feature","id":19108,"geometry":{"type":"Point","coordinates":[120.76383814758248,23.158918952491707]},"properties":{"OBJECTID":19108,"LANDMARKID":"1001200000100","LANDMARKCO":"103","LANDMARKNA":"高雄市桃源區鄉民代表會","LANDMARKAD":"1001226","ADDRESS":"高雄市桃源區桃源村北進巷1-2號","TEL":"07-6861001","COUNTYNAME":"高雄市","TOWNNAME":"桃源區","MARKTYPE":"991","Class":"1"}},{"type":"Feature","id":19109,"geometry":{"type":"Point","coordinates":[120.80529995897525,23.215866743424666]},"properties":{"OBJECTID":19109,"LANDMARKID":"1001200000237","LANDMARKCO":"107","LANDMARKNA":"高雄市政府警察局復興派出所","LANDMARKAD":"1001226","ADDRESS":"高雄市桃源區復興村復興巷1號","TEL":"07-6866088","COUNTYNAME":"高雄市","TOWNNAME":"桃源區","MARKTYPE":"991","Class":"1"}},{"type":"Feature","id":19110,"geometry":{"type":"Point","coordinates":[120.81295723302105,23.238541516134998]},"properties":{"OBJECTID":19110,"LANDMARKID":"1001200000238","LANDMARKCO":"107","LANDMARKNA":"高雄市政府警察局梅蘭派出所","LANDMARKAD":"1001226","ADDRESS":"高雄市桃源區梅蘭村梅蘭巷113號","TEL":"07-6866087","COUNTYNAME":"高雄市","TOWNNAME":"桃源區","MARKTYPE":"991","Class":"1"}},{"type":"Feature","id":19111,"geometry":{"type":"Point","coordinates":[120.82633227116123,23.265015267058143]},"properties":{"OBJECTID":19111,"LANDMARKID":"1001200000239","LANDMARKCO":"107","LANDMARKNA":"高雄市政府警察局梅山派出所","LANDMARKAD":"1001226","ADDRESS":"高雄市桃源區梅山村梅山巷52號","TEL":"07-6866170","COUNTYNAME":"高雄市","TOWNNAME":"桃源區","MARKTYPE":"991","Class":"1"}},{"type":"Feature","id":19112,"geometry":{"type":"Point","coordinates":[120.71386364522203,23.126146634518989]},"properties":{"OBJECTID":19112,"LANDMARKID":"1001200000240","LANDMARKCO":"107","LANDMARKNA":"高雄市政府警察局高中派出所","LANDMARKAD":"1001226","ADDRESS":"高雄市桃源區高中村高中巷九０號","TEL":"07-6881385","COUNTYNAME":"高雄市","TOWNNAME":"桃源區","MARKTYPE":"991","Class":"1"}},{"type":"Feature","id":19113,"geometry":{"type":"Point","coordinates":[120.76064860599814,23.15830621328929]},"properties":{"OBJECTID":19113,"LANDMARKID":"1001200000575","LANDMARKCO":"204","LANDMARKNA":"高雄市立圖書館桃源分館","LANDMARKAD":"1001226","ADDRESS":"高雄市桃源區桃源村南進巷179號","TEL":" ","COUNTYNAME":"高雄市","TOWNNAME":"桃源區","MARKTYPE":"992","Class":"2"}},{"type":"Feature","id":19114,"geometry":{"type":"Point","coordinates":[120.76568872696731,23.160365176188364]},"properties":{"OBJECTID":19114,"LANDMARKID":"1001200000541","LANDMARKCO":"203","LANDMARKNA":"縣立桃源國中","LANDMARKAD":"1001226","ADDRESS":"高雄市桃源區勤和村50號","TEL":"07-6861133","COUNTYNAME":"高雄市","TOWNNAME":"桃源區","MARKTYPE":"992","Class":"2"}},{"type":"Feature","id":19115,"geometry":{"type":"Point","coordinates":[120.71904318141027,23.128774028629181]},"properties":{"OBJECTID":19115,"LANDMARKID":"1001200000542","LANDMARKCO":"203","LANDMARKNA":"縣立興中國小","LANDMARKAD":"1001226","ADDRESS":"高雄市桃源區高中村興中巷44號","TEL":"07-6881850","COUNTYNAME":"高雄市","TOWNNAME":"桃源區","MARKTYPE":"992","Class":"2"}},{"type":"Feature","id":19116,"geometry":{"type":"Point","coordinates":[120.76542628933322,23.160003173691191]},"properties":{"OBJECTID":19116,"LANDMARKID":"1001200000543","LANDMARKCO":"203","LANDMARKNA":"縣立桃源國小","LANDMARKAD":"1001226","ADDRESS":"高雄市桃源區桃源村50號","TEL":"07-6861045","COUNTYNAME":"高雄市","TOWNNAME":"桃源區","MARKTYPE":"992","Class":"2"}},{"type":"Feature","id":19117,"geometry":{"type":"Point","coordinates":[120.78107205716709,23.178807546762059]},"properties":{"OBJECTID":19117,"LANDMARKID":"1001200000544","LANDMARKCO":"203","LANDMARKNA":"縣立桃源國小勤和分校","LANDMARKAD":"1001226","ADDRESS":"高雄市桃源區","TEL":" ","COUNTYNAME":"高雄市","TOWNNAME":"桃源區","MARKTYPE":"992","Class":"2"}},{"type":"Feature","id":19118,"geometry":{"type":"Point","coordinates":[120.80434043703384,23.217941364528521]},"properties":{"OBJECTID":19118,"LANDMARKID":"1001200000545","LANDMARKCO":"203","LANDMARKNA":"縣立樟山國小復興分校","LANDMARKAD":"1001226","ADDRESS":"高雄市桃源區","TEL":" ","COUNTYNAME":"高雄市","TOWNNAME":"桃源區","MARKTYPE":"992","Class":"2"}},{"type":"Feature","id":19119,"geometry":{"type":"Point","coordinates":[120.8193513863971,23.252998575601712]},"properties":{"OBJECTID":19119,"LANDMARKID":"1001200000546","LANDMARKCO":"203","LANDMARKNA":"縣立樟山國小","LANDMARKAD":"1001226","ADDRESS":"高雄市桃源區樟山村12號","TEL":"07-6866118","COUNTYNAME":"高雄市","TOWNNAME":"桃源區","MARKTYPE":"992","Class":"2"}},{"type":"Feature","id":19120,"geometry":{"type":"Point","coordinates":[120.82621213845873,23.274045401854732]},"properties":{"OBJECTID":19120,"LANDMARKID":"1001200000547","LANDMARKCO":"203","LANDMARKNA":"縣立樟山國小梅山分班","LANDMARKAD":"1001226","ADDRESS":"高雄市桃源區","TEL":" ","COUNTYNAME":"高雄市","TOWNNAME":"桃源區","MARKTYPE":"992","Class":"2"}},{"type":"Feature","id":19121,"geometry":{"type":"Point","coordinates":[120.70907626248928,23.035647987124989]},"properties":{"OBJECTID":19121,"LANDMARKID":"1001200000548","LANDMARKCO":"203","LANDMARKNA":"縣立寶山國小","LANDMARKAD":"1001226","ADDRESS":"高雄市桃源區寶山村15號","TEL":"07-6891728","COUNTYNAME":"高雄市","TOWNNAME":"桃源區","MARKTYPE":"992","Class":"2"}},{"type":"Feature","id":19122,"geometry":{"type":"Point","coordinates":[120.7545222053313,23.067655801855086]},"properties":{"OBJECTID":19122,"LANDMARKID":"1001200000630","LANDMARKCO":"303","LANDMARKNA":"藤枝森林遊樂區停車場","LANDMARKAD":"1001226","ADDRESS":"高雄市桃源區藤枝段78號","TEL":"07-6893118","COUNTYNAME":"高雄市","TOWNNAME":"桃源區","MARKTYPE":"993","Class":"303"}},{"type":"Feature","id":19123,"geometry":{"type":"Point","coordinates":[120.79387019866459,23.180309836274446]},"properties":{"OBJECTID":19123,"LANDMARKID":"1001200000631","LANDMARKCO":"303","LANDMARKNA":"玉穗溫泉停車場","LANDMARKAD":"1001226","ADDRESS":"高雄市桃源區","TEL":" ","COUNTYNAME":"高雄市","TOWNNAME":"桃源區","MARKTYPE":"993","Class":"303"}},{"type":"Feature","id":19124,"geometry":{"type":"Point","coordinates":[120.81018421192192,23.240859331623898]},"properties":{"OBJECTID":19124,"LANDMARKID":"1001200000632","LANDMARKCO":"303","LANDMARKNA":"千碟瀑布停車場","LANDMARKAD":"1001226","ADDRESS":"高雄市桃源區","TEL":" ","COUNTYNAME":"高雄市","TOWNNAME":"桃源區","MARKTYPE":"993","Class":"303"}},{"type":"Feature","id":19146,"geometry":{"type":"Point","coordinates":[120.99242390029879,23.284274198230886]},"properties":{"OBJECTID":19146,"LANDMARKID":"1001200001313","LANDMARKCO":"513","LANDMARKNA":"向陽山","LANDMARKAD":"1001226","ADDRESS":"高雄市桃源區","TEL":" ","COUNTYNAME":"高雄市","TOWNNAME":"桃源區","MARKTYPE":"995","Class":"5"}},{"type":"Feature","id":19171,"geometry":{"type":"Point","coordinates":[120.64392437679135,23.160909577547717]},"properties":{"OBJECTID":19171,"LANDMARKID":"1001200000607","LANDMARKCO":"205","LANDMARKNA":"小林國小平埔族文物館","LANDMARKAD":"1001222","ADDRESS":"高雄市甲仙區忠義路58號","TEL":"07-6761065","COUNTYNAME":"高雄市","TOWNNAME":"甲仙區","MARKTYPE":"992","Class":"2"}},{"type":"Feature","id":19172,"geometry":{"type":"Point","coordinates":[120.58852075785303,23.092696642911228]},"properties":{"OBJECTID":19172,"LANDMARKID":"1001200000608","LANDMARKCO":"205","LANDMARKNA":"甲仙化石館","LANDMARKAD":"1001222","ADDRESS":"高雄市甲仙區和安村四德巷10之10號","TEL":" ","COUNTYNAME":"高雄市","TOWNNAME":"甲仙區","MARKTYPE":"992","Class":"2"}},{"type":"Feature","id":19173,"geometry":{"type":"Point","coordinates":[120.58791312078556,23.083895291942166]},"properties":{"OBJECTID":19173,"LANDMARKID":"1001200000576","LANDMARKCO":"204","LANDMARKNA":"高雄市立圖書館甲仙分館","LANDMARKAD":"1001222","ADDRESS":"高雄市甲仙區和安村中山路50號","TEL":" ","COUNTYNAME":"高雄市","TOWNNAME":"甲仙區","MARKTYPE":"992","Class":"2"}},{"type":"Feature","id":19174,"geometry":{"type":"Point","coordinates":[120.59172086491969,23.082165472454065]},"properties":{"OBJECTID":19174,"LANDMARKID":"1001200000532","LANDMARKCO":"203","LANDMARKNA":"縣立甲仙國中","LANDMARKAD":"1001222","ADDRESS":"高雄市甲仙區東安村文化南路6號","TEL":"07-6751018","COUNTYNAME":"高雄市","TOWNNAME":"甲仙區","MARKTYPE":"992","Class":"2"}},{"type":"Feature","id":19175,"geometry":{"type":"Point","coordinates":[120.5554013734384,23.049113459053991]},"properties":{"OBJECTID":19175,"LANDMARKID":"1001200000533","LANDMARKCO":"203","LANDMARKNA":"縣立寶隆國小","LANDMARKAD":"1001222","ADDRESS":"高雄市甲仙區寶隆村光華路20號","TEL":"07-6752998","COUNTYNAME":"高雄市","TOWNNAME":"甲仙區","MARKTYPE":"992","Class":"2"}},{"type":"Feature","id":19176,"geometry":{"type":"Point","coordinates":[120.58902375559001,23.081075022596355]},"properties":{"OBJECTID":19176,"LANDMARKID":"1001200000534","LANDMARKCO":"203","LANDMARKNA":"縣立甲仙國小","LANDMARKAD":"1001222","ADDRESS":"高雄市甲仙區甲仙村文化路45號","TEL":"07-6751025","COUNTYNAME":"高雄市","TOWNNAME":"甲仙區","MARKTYPE":"992","Class":"2"}},{"type":"Feature","id":19177,"geometry":{"type":"Point","coordinates":[120.6431767855151,23.160406998765303]},"properties":{"OBJECTID":19177,"LANDMARKID":"1001200000535","LANDMARKCO":"203","LANDMARKNA":"縣立小林國小","LANDMARKAD":"1001222","ADDRESS":"高雄市甲仙區小林村忠義路58號","TEL":"07-6761065","COUNTYNAME":"高雄市","TOWNNAME":"甲仙區","MARKTYPE":"992","Class":"2"}},{"type":"Feature","id":19178,"geometry":{"type":"Point","coordinates":[120.60614290962725,23.113268260949962]},"properties":{"OBJECTID":19178,"LANDMARKID":"1001200000536","LANDMARKCO":"203","LANDMARKNA":"縣立中興國小(廢)","LANDMARKAD":"1001222","ADDRESS":"高雄市甲仙區","TEL":" ","COUNTYNAME":"高雄市","TOWNNAME":"甲仙區","MARKTYPE":"992","Class":"2"}},{"type":"Feature","id":19179,"geometry":{"type":"Point","coordinates":[120.64345743264803,23.162485063984516]},"properties":{"OBJECTID":19179,"LANDMARKID":"1001200000625","LANDMARKCO":"302","LANDMARKNA":"高雄汽車客運甲仙站","LANDMARKAD":"1001222","ADDRESS":"高雄市甲仙區林森路73號","TEL":" ","COUNTYNAME":"高雄市","TOWNNAME":"甲仙區","MARKTYPE":"993","Class":"302"}},{"type":"Feature","id":19180,"geometry":{"type":"Point","coordinates":[120.58783221802136,23.082457508053835]},"properties":{"OBJECTID":19180,"LANDMARKID":"1001200000626","LANDMARKCO":"302","LANDMARKNA":"車站","LANDMARKAD":"1001222","ADDRESS":" ","TEL":" ","COUNTYNAME":"高雄市","TOWNNAME":"甲仙區","MARKTYPE":"993","Class":"302"}},{"type":"Feature","id":19181,"geometry":{"type":"Point","coordinates":[120.58970922912206,23.081798199189365]},"properties":{"OBJECTID":19181,"LANDMARKID":"1001200001351","LANDMARKCO":"603","LANDMARKNA":"碧宮大旅社","LANDMARKAD":"1001222","ADDRESS":"高雄市甲仙區東安村文化南路18號","TEL":"07-6752352","COUNTYNAME":"高雄市","TOWNNAME":"甲仙區","MARKTYPE":"996","Class":"6"}},{"type":"Feature","id":19182,"geometry":{"type":"Point","coordinates":[120.58978694151079,23.08189340169471]},"properties":{"OBJECTID":19182,"LANDMARKID":"1001200001352","LANDMARKCO":"603","LANDMARKNA":"全龍大旅社","LANDMARKAD":"1001222","ADDRESS":"高雄市甲仙區東安村文化路23號","TEL":"07-6751502","COUNTYNAME":"高雄市","TOWNNAME":"甲仙區","MARKTYPE":"996","Class":"6"}},{"type":"Feature","id":19183,"geometry":{"type":"Point","coordinates":[120.64853686545393,23.148452042622829]},"properties":{"OBJECTID":19183,"LANDMARKID":"1001200001213","LANDMARKCO":"503","LANDMARKNA":"石磯瀑布群","LANDMARKAD":"1001222","ADDRESS":"高雄市甲仙區","TEL":" ","COUNTYNAME":"高雄市","TOWNNAME":"甲仙區","MARKTYPE":"995","Class":"5"}},{"type":"Feature","id":19184,"geometry":{"type":"Point","coordinates":[120.56425566944873,23.050502792563925]},"properties":{"OBJECTID":19184,"LANDMARKID":"1001200001470","LANDMARKCO":"605","LANDMARKNA":"寶隆活動中心","LANDMARKAD":"1001222","ADDRESS":"高雄市甲仙區","TEL":" ","COUNTYNAME":"高雄市","TOWNNAME":"甲仙區","MARKTYPE":"996","Class":"6"}},{"type":"Feature","id":19185,"geometry":{"type":"Point","coordinates":[120.55414732773617,23.048216653810584]},"properties":{"OBJECTID":19185,"LANDMARKID":"1001200001471","LANDMARKCO":"605","LANDMARKNA":"靈隱寺","LANDMARKAD":"1001222","ADDRESS":"高雄市甲仙區","TEL":" ","COUNTYNAME":"高雄市","TOWNNAME":"甲仙區","MARKTYPE":"996","Class":"6"}},{"type":"Feature","id":19186,"geometry":{"type":"Point","coordinates":[120.58725136606868,23.091298562283722]},"properties":{"OBJECTID":19186,"LANDMARKID":"1001200001472","LANDMARKCO":"605","LANDMARKNA":"甲仙區立泳游池","LANDMARKAD":"1001222","ADDRESS":"高雄市甲仙區","TEL":" ","COUNTYNAME":"高雄市","TOWNNAME":"甲仙區","MARKTYPE":"996","Class":"6"}},{"type":"Feature","id":19187,"geometry":{"type":"Point","coordinates":[120.62371495363867,23.066371316336131]},"properties":{"OBJECTID":19187,"LANDMARKID":"1001200001473","LANDMARKCO":"605","LANDMARKNA":"白雲寺","LANDMARKAD":"1001222","ADDRESS":"高雄市甲仙區","TEL":" ","COUNTYNAME":"高雄市","TOWNNAME":"甲仙區","MARKTYPE":"996","Class":"6"}},{"type":"Feature","id":19188,"geometry":{"type":"Point","coordinates":[120.58704183679509,23.066294609853635]},"properties":{"OBJECTID":19188,"LANDMARKID":"1001200001474","LANDMARKCO":"605","LANDMARKNA":"王母宮","LANDMARKAD":"1001222","ADDRESS":"高雄市甲仙區","TEL":" ","COUNTYNAME":"高雄市","TOWNNAME":"甲仙區","MARKTYPE":"996","Class":"6"}},{"type":"Feature","id":19189,"geometry":{"type":"Point","coordinates":[120.60453090344409,23.081961419465177]},"properties":{"OBJECTID":19189,"LANDMARKID":"1001200001475","LANDMARKCO":"605","LANDMARKNA":"龍鳳寺","LANDMARKAD":"1001222","ADDRESS":"高雄市甲仙區","TEL":" ","COUNTYNAME":"高雄市","TOWNNAME":"甲仙區","MARKTYPE":"996","Class":"6"}},{"type":"Feature","id":19190,"geometry":{"type":"Point","coordinates":[120.63583585768883,22.991179821442127]},"properties":{"OBJECTID":19190,"LANDMARKID":"1001200000870","LANDMARKCO":"405","LANDMARKNA":"中油加油站-六龜站","LANDMARKAD":"1001221","ADDRESS":"高雄市六龜區光復路308號","TEL":"07-6891059","COUNTYNAME":"高雄市","TOWNNAME":"六龜區","MARKTYPE":"994","Class":"4"}},{"type":"Feature","id":19191,"geometry":{"type":"Point","coordinates":[120.70735627816208,23.105395622141614]},"properties":{"OBJECTID":19191,"LANDMARKID":"1001200000871","LANDMARKCO":"405","LANDMARKNA":"中油加油站-保來站","LANDMARKAD":"1001221","ADDRESS":"高雄市六龜區寶來村寶建路4號","TEL":"07-6881565","COUNTYNAME":"高雄市","TOWNNAME":"六龜區","MARKTYPE":"994","Class":"4"}},{"type":"Feature","id":19192,"geometry":{"type":"Point","coordinates":[120.64948668752903,22.879991257234245]},"properties":{"OBJECTID":19192,"LANDMARKID":"1001200001211","LANDMARKCO":"501","LANDMARKNA":"茂林國家風景區","LANDMARKAD":"1001221","ADDRESS":"高雄市茂林區茂林村12之5號","TEL":" ","COUNTYNAME":"高雄市","TOWNNAME":"六龜區","MARKTYPE":"995","Class":"5"}},{"type":"Feature","id":19147,"geometry":{"type":"Point","coordinates":[120.97575387747874,23.353780854940144]},"properties":{"OBJECTID":19147,"LANDMARKID":"1001200001314","LANDMARKCO":"513","LANDMARKNA":"雲峰","LANDMARKAD":"1001226","ADDRESS":"高雄市桃源區","TEL":" ","COUNTYNAME":"高雄市","TOWNNAME":"桃源區","MARKTYPE":"995","Class":"5"}},{"type":"Feature","id":19148,"geometry":{"type":"Point","coordinates":[120.92490979049526,23.429260915972613]},"properties":{"OBJECTID":19148,"LANDMARKID":"1001200001315","LANDMARKCO":"513","LANDMARKNA":"南玉山","LANDMARKAD":"1001226","ADDRESS":"高雄市桃源區","TEL":" ","COUNTYNAME":"高雄市","TOWNNAME":"桃源區","MARKTYPE":"995","Class":"5"}},{"type":"Feature","id":19149,"geometry":{"type":"Point","coordinates":[120.87419653214658,23.051161724740954]},"properties":{"OBJECTID":19149,"LANDMARKID":"1001200001316","LANDMARKCO":"513","LANDMARKNA":"卑南主山","LANDMARKAD":"1001226","ADDRESS":"高雄市桃源區","TEL":" ","COUNTYNAME":"高雄市","TOWNNAME":"桃源區","MARKTYPE":"995","Class":"5"}},{"type":"Feature","id":19150,"geometry":{"type":"Point","coordinates":[120.99808333134642,23.391340284392399]},"properties":{"OBJECTID":19150,"LANDMARKID":"1001200001317","LANDMARKCO":"513","LANDMARKNA":"轆轆山","LANDMARKAD":"1001226","ADDRESS":"高雄市桃源區","TEL":" ","COUNTYNAME":"高雄市","TOWNNAME":"桃源區","MARKTYPE":"995","Class":"5"}},{"type":"Feature","id":19151,"geometry":{"type":"Point","coordinates":[120.87611512371174,23.151630012027972]},"properties":{"OBJECTID":19151,"LANDMARKID":"1001200001318","LANDMARKCO":"513","LANDMARKNA":"小關山","LANDMARKAD":"1001226","ADDRESS":"高雄市桃源區","TEL":" ","COUNTYNAME":"高雄市","TOWNNAME":"桃源區","MARKTYPE":"995","Class":"5"}},{"type":"Feature","id":19152,"geometry":{"type":"Point","coordinates":[120.95945392797353,23.270976572806195]},"properties":{"OBJECTID":19152,"LANDMARKID":"1001200001319","LANDMARKCO":"513","LANDMARKNA":"關山嶺","LANDMARKAD":"1001226","ADDRESS":"高雄市桃源區","TEL":" ","COUNTYNAME":"高雄市","TOWNNAME":"桃源區","MARKTYPE":"995","Class":"5"}},{"type":"Feature","id":19153,"geometry":{"type":"Point","coordinates":[120.91132898360225,23.185572133626373]},"properties":{"OBJECTID":19153,"LANDMARKID":"1001200001320","LANDMARKCO":"513","LANDMARKNA":"海諾南山","LANDMARKAD":"1001226","ADDRESS":"高雄市桃源區","TEL":" ","COUNTYNAME":"高雄市","TOWNNAME":"桃源區","MARKTYPE":"995","Class":"5"}},{"type":"Feature","id":19154,"geometry":{"type":"Point","coordinates":[120.90003860677976,23.262750316720826]},"properties":{"OBJECTID":19154,"LANDMARKID":"1001200001321","LANDMARKCO":"513","LANDMARKNA":"庫哈諾辛山","LANDMARKAD":"1001226","ADDRESS":"高雄市桃源區","TEL":" ","COUNTYNAME":"高雄市","TOWNNAME":"桃源區","MARKTYPE":"995","Class":"5"}},{"type":"Feature","id":19155,"geometry":{"type":"Point","coordinates":[120.98848094958358,23.450633949202633]},"properties":{"OBJECTID":19155,"LANDMARKID":"1001200001322","LANDMARKCO":"513","LANDMARKNA":"鹿山","LANDMARKAD":"1001226","ADDRESS":"高雄市桃源區","TEL":" ","COUNTYNAME":"高雄市","TOWNNAME":"桃源區","MARKTYPE":"995","Class":"5"}},{"type":"Feature","id":19156,"geometry":{"type":"Point","coordinates":[120.58166837709408,23.076046375110394]},"properties":{"OBJECTID":19156,"LANDMARKID":"1001200000872","LANDMARKCO":"405","LANDMARKNA":"中油加油站-甲仙站","LANDMARKAD":"1001222","ADDRESS":"高雄市甲仙區大田村新興路55號","TEL":"07-6751555","COUNTYNAME":"高雄市","TOWNNAME":"甲仙區","MARKTYPE":"994","Class":"4"}},{"type":"Feature","id":19157,"geometry":{"type":"Point","coordinates":[120.59092970117538,23.081270414595608]},"properties":{"OBJECTID":19157,"LANDMARKID":"1001200001256","LANDMARKCO":"507","LANDMARKNA":"甲仙鎮海將軍墓","LANDMARKAD":"1001222","ADDRESS":"高雄市甲仙區五里路58號","TEL":" ","COUNTYNAME":"高雄市","TOWNNAME":"甲仙區","MARKTYPE":"995","Class":"5"}},{"type":"Feature","id":19158,"geometry":{"type":"Point","coordinates":[120.58858162640749,23.083307520458607]},"properties":{"OBJECTID":19158,"LANDMARKID":"1001200001091","LANDMARKCO":"408","LANDMARKNA":"郵局-甲仙郵局","LANDMARKAD":"1001222","ADDRESS":"高雄市甲仙區林森路44號","TEL":"(07)6751-042","COUNTYNAME":"高雄市","TOWNNAME":"甲仙區","MARKTYPE":"994","Class":"4"}},{"type":"Feature","id":19159,"geometry":{"type":"Point","coordinates":[120.58839336857982,23.083438725081177]},"properties":{"OBJECTID":19159,"LANDMARKID":"1001200001158","LANDMARKCO":"409","LANDMARKNA":"高雄市甲仙區農會","LANDMARKAD":"1001222","ADDRESS":"高雄市甲仙區西安村中正路26號","TEL":"07-6751001","COUNTYNAME":"高雄市","TOWNNAME":"甲仙區","MARKTYPE":"994","Class":"4"}},{"type":"Feature","id":19160,"geometry":{"type":"Point","coordinates":[120.59075064445648,23.082574618956734]},"properties":{"OBJECTID":19160,"LANDMARKID":"1001200001034","LANDMARKCO":"406","LANDMARKNA":"甲仙公園","LANDMARKAD":"1001222","ADDRESS":"高雄市甲仙區","TEL":" ","COUNTYNAME":"高雄市","TOWNNAME":"甲仙區","MARKTYPE":"994","Class":"4"}},{"type":"Feature","id":19161,"geometry":{"type":"Point","coordinates":[120.57866066977807,23.064958439390843]},"properties":{"OBJECTID":19161,"LANDMARKID":"1001200000869","LANDMARKCO":"405","LANDMARKNA":"台塑加油站-大田站(台塑)","LANDMARKAD":"1001222","ADDRESS":"高雄市甲仙區大田村田寮巷27號","TEL":"07-6754328","COUNTYNAME":"高雄市","TOWNNAME":"甲仙區","MARKTYPE":"994","Class":"4"}},{"type":"Feature","id":19162,"geometry":{"type":"Point","coordinates":[120.5671452248807,23.060066850852728]},"properties":{"OBJECTID":19162,"LANDMARKID":"1001200000246","LANDMARKCO":"107","LANDMARKNA":"高雄市政府警察局大隆派出所","LANDMARKAD":"1001222","ADDRESS":"高雄市甲仙區大田村中園路43號","TEL":"07-6751044","COUNTYNAME":"高雄市","TOWNNAME":"甲仙區","MARKTYPE":"991","Class":"1"}},{"type":"Feature","id":19163,"geometry":{"type":"Point","coordinates":[120.5878731670138,23.083875729726628]},"properties":{"OBJECTID":19163,"LANDMARKID":"1001200000280","LANDMARKCO":"108","LANDMARKNA":"高雄市甲仙區公所","LANDMARKAD":"1001222","ADDRESS":"高雄市甲仙區中山路50號","TEL":"07-6751600","COUNTYNAME":"高雄市","TOWNNAME":"甲仙區","MARKTYPE":"991","Class":"1"}},{"type":"Feature","id":19164,"geometry":{"type":"Point","coordinates":[120.58797022293784,23.083966541478468]},"properties":{"OBJECTID":19164,"LANDMARKID":"1001200000101","LANDMARKCO":"103","LANDMARKNA":"高雄市甲仙區衛生所","LANDMARKAD":"1001222","ADDRESS":"高雄市甲仙區和安村中山路52號","TEL":"07-6752433","COUNTYNAME":"高雄市","TOWNNAME":"甲仙區","MARKTYPE":"991","Class":"1"}},{"type":"Feature","id":19165,"geometry":{"type":"Point","coordinates":[120.58822674921826,23.083516352064869]},"properties":{"OBJECTID":19165,"LANDMARKID":"1001200000102","LANDMARKCO":"103","LANDMARKNA":"高雄市甲仙區鄉民代表會","LANDMARKAD":"1001222","ADDRESS":"高雄市甲仙區中正路65號之1號","TEL":"07-6751027","COUNTYNAME":"高雄市","TOWNNAME":"甲仙區","MARKTYPE":"991","Class":"1"}},{"type":"Feature","id":19166,"geometry":{"type":"Point","coordinates":[120.58974372949342,23.083065487485939]},"properties":{"OBJECTID":19166,"LANDMARKID":"1001200000121","LANDMARKCO":"106","LANDMARKNA":"高雄市甲仙區戶政事務所","LANDMARKAD":"1001222","ADDRESS":"高雄市甲仙區東安村和安街42-1號","TEL":"07-6751420","COUNTYNAME":"高雄市","TOWNNAME":"甲仙區","MARKTYPE":"991","Class":"1"}},{"type":"Feature","id":19167,"geometry":{"type":"Point","coordinates":[120.59028460548876,23.083790716927812]},"properties":{"OBJECTID":19167,"LANDMARKID":"1001200000247","LANDMARKCO":"107","LANDMARKNA":"高雄市消防局甲仙消防分隊","LANDMARKAD":"1001222","ADDRESS":"高雄市甲仙區林森路2號","TEL":"07-6751995","COUNTYNAME":"高雄市","TOWNNAME":"甲仙區","MARKTYPE":"991","Class":"1"}},{"type":"Feature","id":19168,"geometry":{"type":"Point","coordinates":[120.64377818097091,23.162577021312018]},"properties":{"OBJECTID":19168,"LANDMARKID":"1001200000248","LANDMARKCO":"107","LANDMARKNA":"高雄市政府警察局小林派出所","LANDMARKAD":"1001222","ADDRESS":"高雄市甲仙區小林村忠義路114號","TEL":"07-6761138","COUNTYNAME":"高雄市","TOWNNAME":"甲仙區","MARKTYPE":"991","Class":"1"}},{"type":"Feature","id":19169,"geometry":{"type":"Point","coordinates":[120.60747833806269,23.110565777831678]},"properties":{"OBJECTID":19169,"LANDMARKID":"1001200000249","LANDMARKCO":"107","LANDMARKNA":"高雄市政府警察局里關派出所","LANDMARKAD":"1001222","ADDRESS":"高雄市甲仙區關山村中興路四四巷10號","TEL":"07-6752006","COUNTYNAME":"高雄市","TOWNNAME":"甲仙區","MARKTYPE":"991","Class":"1"}},{"type":"Feature","id":19170,"geometry":{"type":"Point","coordinates":[120.65159026397818,23.196457294080734]},"properties":{"OBJECTID":19170,"LANDMARKID":"1001200000250","LANDMARKCO":"107","LANDMARKNA":"高雄市政府警察局甲仙分駐所","LANDMARKAD":"1001222","ADDRESS":"高雄市甲仙區東安村和安路42號","TEL":"07-6751204","COUNTYNAME":"高雄市","TOWNNAME":"甲仙區","MARKTYPE":"991","Class":"1"}},{"type":"Feature","id":19193,"geometry":{"type":"Point","coordinates":[120.66978428885795,23.011574171709963]},"properties":{"OBJECTID":19193,"LANDMARKID":"1001200001257","LANDMARKCO":"507","LANDMARKNA":"妙崇寺","LANDMARKAD":"1001221","ADDRESS":"高雄市六龜區","TEL":" ","COUNTYNAME":"高雄市","TOWNNAME":"六龜區","MARKTYPE":"995","Class":"5"}},{"type":"Feature","id":19194,"geometry":{"type":"Point","coordinates":[120.68652715383219,23.101356321745261]},"properties":{"OBJECTID":19194,"LANDMARKID":"1001200001258","LANDMARKCO":"507","LANDMARKNA":"妙通寺","LANDMARKAD":"1001221","ADDRESS":"高雄市六龜區","TEL":" ","COUNTYNAME":"高雄市","TOWNNAME":"六龜區","MARKTYPE":"995","Class":"5"}},{"type":"Feature","id":19195,"geometry":{"type":"Point","coordinates":[120.63553471957859,22.994379146316717]},"properties":{"OBJECTID":19195,"LANDMARKID":"1001200001092","LANDMARKCO":"408","LANDMARKNA":"郵局-六龜郵局","LANDMARKAD":"1001221","ADDRESS":"高雄市六龜區義寶村光復路173號","TEL":"(07)6891-046","COUNTYNAME":"高雄市","TOWNNAME":"六龜區","MARKTYPE":"994","Class":"4"}},{"type":"Feature","id":19196,"geometry":{"type":"Point","coordinates":[120.69972187745343,23.108308842715026]},"properties":{"OBJECTID":19196,"LANDMARKID":"1001200001093","LANDMARKCO":"408","LANDMARKNA":"郵局-六龜寶來郵局","LANDMARKAD":"1001221","ADDRESS":"高雄市六龜區寶來街18-1號","TEL":"(07)6881-420","COUNTYNAME":"高雄市","TOWNNAME":"六龜區","MARKTYPE":"994","Class":"4"}},{"type":"Feature","id":19197,"geometry":{"type":"Point","coordinates":[120.63499531840066,22.995126730265014]},"properties":{"OBJECTID":19197,"LANDMARKID":"1001200001157","LANDMARKCO":"409","LANDMARKNA":"高雄市六龜區農會","LANDMARKAD":"1001221","ADDRESS":"高雄市六龜區義寶村光復路107號","TEL":"07-6892111","COUNTYNAME":"高雄市","TOWNNAME":"六龜區","MARKTYPE":"994","Class":"4"}},{"type":"Feature","id":19198,"geometry":{"type":"Point","coordinates":[120.63326794542697,22.998108715284985]},"properties":{"OBJECTID":19198,"LANDMARKID":"1001200000277","LANDMARKCO":"108","LANDMARKNA":"高雄市六龜區公所","LANDMARKAD":"1001221","ADDRESS":"高雄市六龜區民治路18號","TEL":"07-6892100","COUNTYNAME":"高雄市","TOWNNAME":"六龜區","MARKTYPE":"991","Class":"1"}},{"type":"Feature","id":19199,"geometry":{"type":"Point","coordinates":[120.63346305347251,22.998103164225601]},"properties":{"OBJECTID":19199,"LANDMARKID":"1001200000103","LANDMARKCO":"103","LANDMARKNA":"高雄市六龜區鄉民代表會","LANDMARKAD":"1001221","ADDRESS":"高雄市六龜區民治路18號3樓","TEL":"07-6891019","COUNTYNAME":"高雄市","TOWNNAME":"六龜區","MARKTYPE":"991","Class":"1"}},{"type":"Feature","id":19200,"geometry":{"type":"Point","coordinates":[120.6335591359437,22.998374528775294]},"properties":{"OBJECTID":19200,"LANDMARKID":"1001200000255","LANDMARKCO":"107","LANDMARKNA":"高雄市政府警察局六龜分局","LANDMARKAD":"1001221","ADDRESS":"高雄市六龜區大龜村民生路1號","TEL":"07-6891119","COUNTYNAME":"高雄市","TOWNNAME":"六龜區","MARKTYPE":"991","Class":"1"}}]}