{"type":"FeatureCollection","features":[{"type":"Feature","id":6201,"geometry":{"type":"Point","coordinates":[121.39564760784796,24.936927888675871]},"properties":{"OBJECTID":6201,"LANDMARKID":"1000100002441","LANDMARKCO":"408","LANDMARKNA":"郵局-三峽橫溪郵局","LANDMARKAD":"1000109","ADDRESS":"新北市三峽區介壽路3段47號","TEL":"(02)8676-5048","COUNTYNAME":"新北市","TOWNNAME":"三峽區","MARKTYPE":"994","Class":"4"}},{"type":"Feature","id":6202,"geometry":{"type":"Point","coordinates":[121.3728510771134,24.945134505924457]},"properties":{"OBJECTID":6202,"LANDMARKID":"1000100002442","LANDMARKCO":"408","LANDMARKNA":"郵局-台北大學郵局","LANDMARKAD":"1000109","ADDRESS":"新北市三峽區大學路151號","TEL":"(02)2671-9315","COUNTYNAME":"新北市","TOWNNAME":"三峽區","MARKTYPE":"994","Class":"4"}},{"type":"Feature","id":6203,"geometry":{"type":"Point","coordinates":[121.37632645283357,24.933745260375538]},"properties":{"OBJECTID":6203,"LANDMARKID":"1000100002443","LANDMARKCO":"409","LANDMARKNA":"新北市三峽區農會","LANDMARKAD":"1000109","ADDRESS":"新北市三峽區長泰街96號","TEL":"02-26711002","COUNTYNAME":"新北市","TOWNNAME":"三峽區","MARKTYPE":"994","Class":"4"}},{"type":"Feature","id":6204,"geometry":{"type":"Point","coordinates":[121.35416993621861,24.93817972990033]},"properties":{"OBJECTID":6204,"LANDMARKID":"1000100001887","LANDMARKCO":"404","LANDMARKNA":"台灣省自來水板新給水廠","LANDMARKAD":"1000109","ADDRESS":"新北市三峽區中山路551號","TEL":" ","COUNTYNAME":"新北市","TOWNNAME":"三峽區","MARKTYPE":"994","Class":"4"}},{"type":"Feature","id":6205,"geometry":{"type":"Point","coordinates":[121.36650431328698,24.934880339217983]},"properties":{"OBJECTID":6205,"LANDMARKID":"1000100002262","LANDMARKCO":"406","LANDMARKNA":"中山公園","LANDMARKAD":"1000109","ADDRESS":"新北市三峽區","TEL":" ","COUNTYNAME":"新北市","TOWNNAME":"三峽區","MARKTYPE":"994","Class":"4"}},{"type":"Feature","id":6206,"geometry":{"type":"Point","coordinates":[121.35507179081748,24.870697868961432]},"properties":{"OBJECTID":6206,"LANDMARKID":"1000100002263","LANDMARKCO":"406","LANDMARKNA":"龍山公園","LANDMARKAD":"1000109","ADDRESS":"新北市三峽區","TEL":" ","COUNTYNAME":"新北市","TOWNNAME":"三峽區","MARKTYPE":"994","Class":"4"}},{"type":"Feature","id":6207,"geometry":{"type":"Point","coordinates":[121.39741860811519,24.94126057363891]},"properties":{"OBJECTID":6207,"LANDMARKID":"1000100001888","LANDMARKCO":"405","LANDMARKNA":"全國加油站-橫溪站（台塑）","LANDMARKAD":"1000109","ADDRESS":"新北市三峽區介壽路三段114號","TEL":"02-86761245","COUNTYNAME":"新北市","TOWNNAME":"三峽區","MARKTYPE":"994","Class":"4"}},{"type":"Feature","id":6208,"geometry":{"type":"Point","coordinates":[121.39874019381777,24.94234804244147]},"properties":{"OBJECTID":6208,"LANDMARKID":"1000100001889","LANDMARKCO":"405","LANDMARKNA":"台亞加油站-三峽介壽路站（台塑）","LANDMARKAD":"1000109","ADDRESS":"新北市三峽區介壽路三段131號","TEL":"(02)8676-1199","COUNTYNAME":"新北市","TOWNNAME":"三峽區","MARKTYPE":"994","Class":"4"}},{"type":"Feature","id":6209,"geometry":{"type":"Point","coordinates":[121.37147064745055,24.923106062831152]},"properties":{"OBJECTID":6209,"LANDMARKID":"1000100001890","LANDMARKCO":"405","LANDMARKNA":"台亞加油站-三峽站（台塑）","LANDMARKAD":"1000109","ADDRESS":"新北市三峽區 中正路一段307號","TEL":"(02)8671-2561","COUNTYNAME":"新北市","TOWNNAME":"三峽區","MARKTYPE":"994","Class":"4"}},{"type":"Feature","id":6210,"geometry":{"type":"Point","coordinates":[121.37963176995679,24.943738165397097]},"properties":{"OBJECTID":6210,"LANDMARKID":"1000100000184","LANDMARKCO":"107","LANDMARKNA":"新北市政府警察局柑園派出所","LANDMARKAD":"1000109","ADDRESS":"新北市樹林鎮柑園里佳園路三段一一號","TEL":"0226801075","COUNTYNAME":"新北市","TOWNNAME":"三峽區","MARKTYPE":"991","Class":"1"}},{"type":"Feature","id":6211,"geometry":{"type":"Point","coordinates":[121.3690207445205,24.933651974434596]},"properties":{"OBJECTID":6211,"LANDMARKID":"1000100000119","LANDMARKCO":"103","LANDMARKNA":"新北市三峽區衛生所","LANDMARKAD":"1000109","ADDRESS":"新北市三峽區光明路71號3樓","TEL":"02-26711592","COUNTYNAME":"新北市","TOWNNAME":"三峽區","MARKTYPE":"991","Class":"1"}},{"type":"Feature","id":6212,"geometry":{"type":"Point","coordinates":[121.36893539666154,24.934284385379474]},"properties":{"OBJECTID":6212,"LANDMARKID":"1000100000432","LANDMARKCO":"108","LANDMARKNA":"新北市三峽區公所","LANDMARKAD":"1000109","ADDRESS":"新北市三峽區中山路17號","TEL":"02-26711017","COUNTYNAME":"新北市","TOWNNAME":"三峽區","MARKTYPE":"991","Class":"1"}},{"type":"Feature","id":6213,"geometry":{"type":"Point","coordinates":[121.36889632840125,24.934374862993]},"properties":{"OBJECTID":6213,"LANDMARKID":"1000100000118","LANDMARKCO":"103","LANDMARKNA":"新北市三峽區鎮民代表會","LANDMARKAD":"1000109","ADDRESS":"新北市三峽區中山路17號3樓","TEL":"02-26711346","COUNTYNAME":"新北市","TOWNNAME":"三峽區","MARKTYPE":"991","Class":"1"}},{"type":"Feature","id":6214,"geometry":{"type":"Point","coordinates":[121.37525830554661,24.930571922697261]},"properties":{"OBJECTID":6214,"LANDMARKID":"1000100000176","LANDMARKCO":"107","LANDMARKNA":"新北市消防局三峽分隊","LANDMARKAD":"1000109","ADDRESS":"新北市三峽區中正路一段46號","TEL":"02-26711119","COUNTYNAME":"新北市","TOWNNAME":"三峽區","MARKTYPE":"991","Class":"1"}},{"type":"Feature","id":6215,"geometry":{"type":"Point","coordinates":[121.37532815942647,24.930661855091394]},"properties":{"OBJECTID":6215,"LANDMARKID":"1000100000177","LANDMARKCO":"107","LANDMARKNA":"新北市政府警察局三峽分局","LANDMARKAD":"1000109","ADDRESS":"新北市三峽區礁溪里中正路一段48號","TEL":"02-26738531","COUNTYNAME":"新北市","TOWNNAME":"三峽區","MARKTYPE":"991","Class":"1"}},{"type":"Feature","id":6216,"geometry":{"type":"Point","coordinates":[121.36678580023559,24.906848787560538]},"properties":{"OBJECTID":6216,"LANDMARKID":"1000100000178","LANDMARKCO":"107","LANDMARKNA":"新北市政府警察局吉埔派出所","LANDMARKAD":"1000109","ADDRESS":"新北市三峽區大埔路60號","TEL":"02-26711278","COUNTYNAME":"新北市","TOWNNAME":"三峽區","MARKTYPE":"991","Class":"1"}},{"type":"Feature","id":6217,"geometry":{"type":"Point","coordinates":[121.42711449316973,24.926905945985826]},"properties":{"OBJECTID":6217,"LANDMARKID":"1000100000179","LANDMARKCO":"107","LANDMARKNA":"新北市政府警察局成福派出所","LANDMARKAD":"1000109","ADDRESS":"新北市三峽區成福里成福路84號","TEL":"02-26726097","COUNTYNAME":"新北市","TOWNNAME":"三峽區","MARKTYPE":"991","Class":"1"}},{"type":"Feature","id":6218,"geometry":{"type":"Point","coordinates":[121.37901160010767,24.878375974828124]},"properties":{"OBJECTID":6218,"LANDMARKID":"1000100000180","LANDMARKCO":"107","LANDMARKNA":"新北市政府警察局圳頭派出所","LANDMARKAD":"1000109","ADDRESS":"新北市三峽區金圳村圳頭路92號","TEL":"02-26720167","COUNTYNAME":"新北市","TOWNNAME":"三峽區","MARKTYPE":"991","Class":"1"}},{"type":"Feature","id":6219,"geometry":{"type":"Point","coordinates":[121.40508915380221,24.870991384887112]},"properties":{"OBJECTID":6219,"LANDMARKID":"1000100000181","LANDMARKCO":"107","LANDMARKNA":"新北市政府警察局插角派出所","LANDMARKAD":"1000109","ADDRESS":"新北市三峽區插角里插角路67之1號","TEL":"02-26720121","COUNTYNAME":"新北市","TOWNNAME":"三峽區","MARKTYPE":"991","Class":"1"}},{"type":"Feature","id":6220,"geometry":{"type":"Point","coordinates":[121.3948638090871,24.938194909816715]},"properties":{"OBJECTID":6220,"LANDMARKID":"1000100000182","LANDMARKCO":"107","LANDMARKNA":"新北市政府警察局橫溪派出所","LANDMARKAD":"1000109","ADDRESS":"新北市三峽區溪北里介壽路三段49號","TEL":"02-86761762","COUNTYNAME":"新北市","TOWNNAME":"三峽區","MARKTYPE":"991","Class":"1"}},{"type":"Feature","id":6221,"geometry":{"type":"Point","coordinates":[121.36897952698043,24.933381326435395]},"properties":{"OBJECTID":6221,"LANDMARKID":"1000100000183","LANDMARKCO":"107","LANDMARKNA":"新北市政府警察局三峽派出所","LANDMARKAD":"1000109","ADDRESS":"新北市三峽區民權街38號","TEL":"02-26711254","COUNTYNAME":"新北市","TOWNNAME":"三峽區","MARKTYPE":"991","Class":"1"}},{"type":"Feature","id":6222,"geometry":{"type":"Point","coordinates":[121.37531771172762,24.930571623265624]},"properties":{"OBJECTID":6222,"LANDMARKID":"1000100000173","LANDMARKCO":"106","LANDMARKNA":"新北市三峽區戶政事務所","LANDMARKAD":"1000109","ADDRESS":"新北市三峽區光明路71號5F","TEL":"02-26711173","COUNTYNAME":"新北市","TOWNNAME":"三峽區","MARKTYPE":"991","Class":"1"}},{"type":"Feature","id":6223,"geometry":{"type":"Point","coordinates":[121.40838648603201,24.9484335978925]},"properties":{"OBJECTID":6223,"LANDMARKID":"1000100000120","LANDMARKCO":"103","LANDMARKNA":"新北市立火化場","LANDMARKAD":"1000109","ADDRESS":"新北市三峽區介壽路三段260巷1號","TEL":"02-86765555","COUNTYNAME":"新北市","TOWNNAME":"三峽區","MARKTYPE":"991","Class":"1"}},{"type":"Feature","id":6224,"geometry":{"type":"Point","coordinates":[121.35883696286696,24.857933229426752]},"properties":{"OBJECTID":6224,"LANDMARKID":"1000100000175","LANDMARKCO":"107","LANDMARKNA":"新北市政府警察局五寮派出所","LANDMARKAD":"1000109","ADDRESS":"新北市三峽區五寮路154號","TEL":"02-26720283","COUNTYNAME":"新北市","TOWNNAME":"三峽區","MARKTYPE":"991","Class":"1"}},{"type":"Feature","id":6225,"geometry":{"type":"Point","coordinates":[121.36919360931206,24.934580773903441]},"properties":{"OBJECTID":6225,"LANDMARKID":"1000100000891","LANDMARKCO":"205","LANDMARKNA":"三峽歷史文物館","LANDMARKAD":"1000109","ADDRESS":"新北市三峽區中山路17號","TEL":"02-86743994","COUNTYNAME":"新北市","TOWNNAME":"三峽區","MARKTYPE":"992","Class":"2"}},{"type":"Feature","id":6226,"geometry":{"type":"Point","coordinates":[121.37420347307429,24.935352189026762]},"properties":{"OBJECTID":6226,"LANDMARKID":"1000100000892","LANDMARKCO":"205","LANDMARKNA":"李梅樹教授紀念文物館","LANDMARKAD":"1000109","ADDRESS":"新北市三峽區民生街119號6樓","TEL":"02-26738399","COUNTYNAME":"新北市","TOWNNAME":"三峽區","MARKTYPE":"992","Class":"2"}},{"type":"Feature","id":6227,"geometry":{"type":"Point","coordinates":[121.37278499260788,24.93061550855289]},"properties":{"OBJECTID":6227,"LANDMARKID":"1000100000893","LANDMARKCO":"205","LANDMARKNA":"李梅樹紀念館","LANDMARKAD":"1000109","ADDRESS":"新北市三峽區中華路43巷10號","TEL":" ","COUNTYNAME":"新北市","TOWNNAME":"三峽區","MARKTYPE":"992","Class":"2"}},{"type":"Feature","id":6228,"geometry":{"type":"Point","coordinates":[121.37687187725578,24.929737359278338]},"properties":{"OBJECTID":6228,"LANDMARKID":"1000100000888","LANDMARKCO":"204","LANDMARKNA":"新北市立圖書館三峽分館","LANDMARKAD":"1000109","ADDRESS":"新北市三峽區永安街9巷5號2~3樓","TEL":" ","COUNTYNAME":"新北市","TOWNNAME":"三峽區","MARKTYPE":"992","Class":"2"}},{"type":"Feature","id":6229,"geometry":{"type":"Point","coordinates":[121.36568909137813,24.904138858036863]},"properties":{"OBJECTID":6229,"LANDMARKID":"1000100000511","LANDMARKCO":"202","LANDMARKNA":"縣立明德高中","LANDMARKAD":"1000109","ADDRESS":"新北市三峽區中正路二段399號","TEL":"02-26723302","COUNTYNAME":"新北市","TOWNNAME":"三峽區","MARKTYPE":"992","Class":"2"}},{"type":"Feature","id":6230,"geometry":{"type":"Point","coordinates":[121.40850034185111,24.932651539814177]},"properties":{"OBJECTID":6230,"LANDMARKID":"1000100000512","LANDMARKCO":"202","LANDMARKNA":"私立辭修高中","LANDMARKAD":"1000109","ADDRESS":"新北市三峽區溪東路251號","TEL":"02-26710454","COUNTYNAME":"新北市","TOWNNAME":"三峽區","MARKTYPE":"992","Class":"2"}},{"type":"Feature","id":6231,"geometry":{"type":"Point","coordinates":[121.3728127468214,24.926153352751488]},"properties":{"OBJECTID":6231,"LANDMARKID":"1000100000519","LANDMARKCO":"203","LANDMARKNA":"縣立安溪國中","LANDMARKAD":"1000109","ADDRESS":"新北市三峽區中正路二段399號","TEL":"02-26733245","COUNTYNAME":"新北市","TOWNNAME":"三峽區","MARKTYPE":"992","Class":"2"}},{"type":"Feature","id":6232,"geometry":{"type":"Point","coordinates":[121.3695353390499,24.939705273360484]},"properties":{"OBJECTID":6232,"LANDMARKID":"1000100000520","LANDMARKCO":"203","LANDMARKNA":"縣立三峽國中","LANDMARKAD":"1000109","ADDRESS":"新北市三峽區復興路238號","TEL":"02-26711243","COUNTYNAME":"新北市","TOWNNAME":"三峽區","MARKTYPE":"992","Class":"2"}},{"type":"Feature","id":6233,"geometry":{"type":"Point","coordinates":[121.37210690552938,24.931747543140567]},"properties":{"OBJECTID":6233,"LANDMARKID":"1000100000521","LANDMARKCO":"203","LANDMARKNA":"縣立安溪國中","LANDMARKAD":"1000109","ADDRESS":"新北市三峽區大同路135號","TEL":"02-26717851","COUNTYNAME":"新北市","TOWNNAME":"三峽區","MARKTYPE":"992","Class":"2"}},{"type":"Feature","id":6234,"geometry":{"type":"Point","coordinates":[121.3787744811341,24.929387478395693]},"properties":{"OBJECTID":6234,"LANDMARKID":"1000100000522","LANDMARKCO":"203","LANDMARKNA":"縣立介壽國小","LANDMARKAD":"1000109","ADDRESS":"新北市三峽區大同路1號","TEL":"02-26747640","COUNTYNAME":"新北市","TOWNNAME":"三峽區","MARKTYPE":"992","Class":"2"}},{"type":"Feature","id":6235,"geometry":{"type":"Point","coordinates":[121.36627899394972,24.905129092436962]},"properties":{"OBJECTID":6235,"LANDMARKID":"1000100000523","LANDMARKCO":"203","LANDMARKNA":"縣立大埔國小","LANDMARKAD":"1000109","ADDRESS":"新北市三峽區大埔路130號","TEL":"02-26712523","COUNTYNAME":"新北市","TOWNNAME":"三峽區","MARKTYPE":"992","Class":"2"}},{"type":"Feature","id":6236,"geometry":{"type":"Point","coordinates":[121.36854525034319,24.935279440393295]},"properties":{"OBJECTID":6236,"LANDMARKID":"1000100000524","LANDMARKCO":"203","LANDMARKNA":"縣立三峽國小","LANDMARKAD":"1000109","ADDRESS":"新北市三峽區中山路16號","TEL":"02-26711018","COUNTYNAME":"新北市","TOWNNAME":"三峽區","MARKTYPE":"992","Class":"2"}},{"type":"Feature","id":6237,"geometry":{"type":"Point","coordinates":[121.37205685756372,24.931657509240978]},"properties":{"OBJECTID":6237,"LANDMARKID":"1000100000525","LANDMARKCO":"203","LANDMARKNA":"縣立安溪國小","LANDMARKAD":"1000109","ADDRESS":"新北市三峽區中華路42號","TEL":"02-26731488","COUNTYNAME":"新北市","TOWNNAME":"三峽區","MARKTYPE":"992","Class":"2"}},{"type":"Feature","id":6238,"geometry":{"type":"Point","coordinates":[121.3751518101552,24.911432352804368]},"properties":{"OBJECTID":6238,"LANDMARKID":"1000100000526","LANDMARKCO":"203","LANDMARKNA":"縣立民義國小","LANDMARKAD":"1000109","ADDRESS":"新北市三峽區嘉添里白雞路40號","TEL":"02-26711895","COUNTYNAME":"新北市","TOWNNAME":"三峽區","MARKTYPE":"992","Class":"2"}},{"type":"Feature","id":6239,"geometry":{"type":"Point","coordinates":[121.42778112559392,24.924554768297938]},"properties":{"OBJECTID":6239,"LANDMARKID":"1000100000527","LANDMARKCO":"203","LANDMARKNA":"縣立大成國小","LANDMARKAD":"1000109","ADDRESS":"新北市三峽區成福路215巷2號","TEL":"02-26726521","COUNTYNAME":"新北市","TOWNNAME":"三峽區","MARKTYPE":"992","Class":"2"}},{"type":"Feature","id":6240,"geometry":{"type":"Point","coordinates":[121.44681249160584,24.926215189614581]},"properties":{"OBJECTID":6240,"LANDMARKID":"1000100000528","LANDMARKCO":"203","LANDMARKNA":"縣立建安國小","LANDMARKAD":"1000109","ADDRESS":"新北市三峽區安坑里建安路67號","TEL":"02-26726783","COUNTYNAME":"新北市","TOWNNAME":"三峽區","MARKTYPE":"992","Class":"2"}},{"type":"Feature","id":6241,"geometry":{"type":"Point","coordinates":[121.40522747537484,24.872344880048772]},"properties":{"OBJECTID":6241,"LANDMARKID":"1000100000529","LANDMARKCO":"203","LANDMARKNA":"縣立插角國小","LANDMARKAD":"1000109","ADDRESS":"新北市三峽區插角里插角路39號","TEL":"02-26720047","COUNTYNAME":"新北市","TOWNNAME":"三峽區","MARKTYPE":"992","Class":"2"}},{"type":"Feature","id":6242,"geometry":{"type":"Point","coordinates":[121.40573469252082,24.933561878381305]},"properties":{"OBJECTID":6242,"LANDMARKID":"1000100000530","LANDMARKCO":"203","LANDMARKNA":"縣立成福國小","LANDMARKAD":"1000109","ADDRESS":"新北市三峽區溪東里溪東路213號","TEL":"02-26711343","COUNTYNAME":"新北市","TOWNNAME":"三峽區","MARKTYPE":"992","Class":"2"}},{"type":"Feature","id":6243,"geometry":{"type":"Point","coordinates":[121.37312688091841,24.94529185093004]},"properties":{"OBJECTID":6243,"LANDMARKID":"1000100000433","LANDMARKCO":"201","LANDMARKNA":"國立台北大學三峽校區","LANDMARKAD":"1000109","ADDRESS":"新北市三峽區大學路151號","TEL":"02-26748189","COUNTYNAME":"新北市","TOWNNAME":"三峽區","MARKTYPE":"992","Class":"2"}},{"type":"Feature","id":6244,"geometry":{"type":"Point","coordinates":[121.32401071542722,24.918139458455443]},"properties":{"OBJECTID":6244,"LANDMARKID":"1000100000531","LANDMARKCO":"203","LANDMARKNA":"縣立三峽國小茅埔分班","LANDMARKAD":"1000109","ADDRESS":"新北市三峽區","TEL":" ","COUNTYNAME":"新北市","TOWNNAME":"三峽區","MARKTYPE":"992","Class":"2"}},{"type":"Feature","id":6245,"geometry":{"type":"Point","coordinates":[121.34013081201586,24.910791626385212]},"properties":{"OBJECTID":6245,"LANDMARKID":"1000100000532","LANDMARKCO":"203","LANDMARKNA":"縣立三峽國小弘道分班","LANDMARKAD":"1000109","ADDRESS":"新北市三峽區","TEL":" ","COUNTYNAME":"新北市","TOWNNAME":"三峽區","MARKTYPE":"992","Class":"2"}},{"type":"Feature","id":6246,"geometry":{"type":"Point","coordinates":[121.3848230159449,24.874297635880861]},"properties":{"OBJECTID":6246,"LANDMARKID":"1000100000533","LANDMARKCO":"203","LANDMARKNA":"縣立插角國小金敏分校","LANDMARKAD":"1000109","ADDRESS":"新北市三峽區","TEL":" ","COUNTYNAME":"新北市","TOWNNAME":"三峽區","MARKTYPE":"992","Class":"2"}},{"type":"Feature","id":6247,"geometry":{"type":"Point","coordinates":[121.43713206698689,24.853930937151944]},"properties":{"OBJECTID":6247,"LANDMARKID":"1000100000534","LANDMARKCO":"203","LANDMARKNA":"縣立有木國小","LANDMARKAD":"1000109","ADDRESS":"新北市三峽區有木里131號","TEL":"02-26720067","COUNTYNAME":"新北市","TOWNNAME":"三峽區","MARKTYPE":"992","Class":"2"}},{"type":"Feature","id":6248,"geometry":{"type":"Point","coordinates":[121.36019971054124,24.858829500888927]},"properties":{"OBJECTID":6248,"LANDMARKID":"1000100000535","LANDMARKCO":"203","LANDMARKNA":"縣立五寮國小","LANDMARKAD":"1000109","ADDRESS":"新北市三峽區五寮里69號","TEL":"02-26720298","COUNTYNAME":"新北市","TOWNNAME":"三峽區","MARKTYPE":"992","Class":"2"}},{"type":"Feature","id":6249,"geometry":{"type":"Point","coordinates":[121.3572611155199,24.937213981289659]},"properties":{"OBJECTID":6249,"LANDMARKID":"1000100001567","LANDMARKCO":"308","LANDMARKNA":"國3-三鶯交流道-南下","LANDMARKAD":"1000109","ADDRESS":"新北市三峽區","TEL":" ","COUNTYNAME":"新北市","TOWNNAME":"三峽區","MARKTYPE":"993","Class":"308"}},{"type":"Feature","id":6250,"geometry":{"type":"Point","coordinates":[121.36214256073438,24.940424287969872]},"properties":{"OBJECTID":6250,"LANDMARKID":"1000100001568","LANDMARKCO":"308","LANDMARKNA":"國3-三鶯交流道-北上","LANDMARKAD":"1000109","ADDRESS":"新北市三峽區","TEL":" ","COUNTYNAME":"新北市","TOWNNAME":"三峽區","MARKTYPE":"993","Class":"308"}},{"type":"Feature","id":6251,"geometry":{"type":"Point","coordinates":[121.36711746784808,24.938132170655837]},"properties":{"OBJECTID":6251,"LANDMARKID":"1000100000992","LANDMARKCO":"302","LANDMARKNA":"首都汽車客運三峽站","LANDMARKAD":"1000109","ADDRESS":"新北市三峽區大勇路11號","TEL":" ","COUNTYNAME":"新北市","TOWNNAME":"三峽區","MARKTYPE":"993","Class":"302"}},{"type":"Feature","id":6252,"geometry":{"type":"Point","coordinates":[121.3671325365334,24.938797865052173]},"properties":{"OBJECTID":6252,"LANDMARKID":"1000100000993","LANDMARKCO":"302","LANDMARKNA":"台北汽車客運三峽站","LANDMARKAD":"1000109","ADDRESS":"新北市三峽區大勇路1之5號","TEL":" ","COUNTYNAME":"新北市","TOWNNAME":"三峽區","MARKTYPE":"993","Class":"302"}},{"type":"Feature","id":6253,"geometry":{"type":"Point","coordinates":[121.40843093837915,24.87241006390925]},"properties":{"OBJECTID":6253,"LANDMARKID":"1000100000994","LANDMARKCO":"303","LANDMARKNA":"大板根森林溫泉渡假村停車場","LANDMARKAD":"1000109","ADDRESS":"新北市三峽區插角里80號","TEL":"02-26749228","COUNTYNAME":"新北市","TOWNNAME":"三峽區","MARKTYPE":"993","Class":"303"}},{"type":"Feature","id":6254,"geometry":{"type":"Point","coordinates":[121.43580802723022,24.856397103100164]},"properties":{"OBJECTID":6254,"LANDMARKID":"1000100000995","LANDMARKCO":"303","LANDMARKNA":"鴛鴦谷森林遊樂園停車場","LANDMARKAD":"1000109","ADDRESS":"新北市三峽區有木里130之1號","TEL":"02-26720384","COUNTYNAME":"新北市","TOWNNAME":"三峽區","MARKTYPE":"993","Class":"303"}},{"type":"Feature","id":6255,"geometry":{"type":"Point","coordinates":[121.4448933070219,24.836267979981709]},"properties":{"OBJECTID":6255,"LANDMARKID":"1000100000996","LANDMARKCO":"303","LANDMARKNA":"滿月圓森林遊樂區停車場","LANDMARKAD":"1000109","ADDRESS":"新北市三峽區有木路174之1號","TEL":"02-26720004","COUNTYNAME":"新北市","TOWNNAME":"三峽區","MARKTYPE":"993","Class":"303"}},{"type":"Feature","id":6256,"geometry":{"type":"Point","coordinates":[121.36418897456758,24.939491536327882]},"properties":{"OBJECTID":6256,"LANDMARKID":"1000100000997","LANDMARKCO":"303","LANDMARKNA":"國立台北大學地下停車場","LANDMARKAD":"1000109","ADDRESS":"新北市三峽區鳶山里復興路","TEL":" ","COUNTYNAME":"新北市","TOWNNAME":"三峽區","MARKTYPE":"993","Class":"303"}},{"type":"Feature","id":6257,"geometry":{"type":"Point","coordinates":[121.39999328285856,24.905314156278227]},"properties":{"OBJECTID":6257,"LANDMARKID":"1000100000998","LANDMARKCO":"303","LANDMARKNA":"新北市三峽區公所白雞停車場","LANDMARKAD":"1000109","ADDRESS":"新北市三峽區中山路17號","TEL":"02-26711017","COUNTYNAME":"新北市","TOWNNAME":"三峽區","MARKTYPE":"993","Class":"303"}},{"type":"Feature","id":6258,"geometry":{"type":"Point","coordinates":[121.40251604191363,24.903180218120482]},"properties":{"OBJECTID":6258,"LANDMARKID":"1000100000999","LANDMARKCO":"303","LANDMARKNA":"白雞停車場","LANDMARKAD":"1000109","ADDRESS":"新北市三峽區白雞路149之2號","TEL":" ","COUNTYNAME":"新北市","TOWNNAME":"三峽區","MARKTYPE":"993","Class":"303"}},{"type":"Feature","id":6259,"geometry":{"type":"Point","coordinates":[121.36904255381658,24.936104450068612]},"properties":{"OBJECTID":6259,"LANDMARKID":"1000100001000","LANDMARKCO":"303","LANDMARKNA":"新北市三峽區公所文化停車場","LANDMARKAD":"1000109","ADDRESS":"新北市三峽區中山路17號","TEL":" ","COUNTYNAME":"新北市","TOWNNAME":"三峽區","MARKTYPE":"993","Class":"303"}},{"type":"Feature","id":6260,"geometry":{"type":"Point","coordinates":[121.37233966331436,24.932415092575418]},"properties":{"OBJECTID":6260,"LANDMARKID":"1000100001001","LANDMARKCO":"303","LANDMARKNA":"新北市三峽區公所長福停車場","LANDMARKAD":"1000109","ADDRESS":"新北市三峽區中山路17號","TEL":" ","COUNTYNAME":"新北市","TOWNNAME":"三峽區","MARKTYPE":"993","Class":"303"}},{"type":"Feature","id":6261,"geometry":{"type":"Point","coordinates":[121.36913722795529,24.936145239482833]},"properties":{"OBJECTID":6261,"LANDMARKID":"1000100001002","LANDMARKCO":"303","LANDMARKNA":"文化停車場","LANDMARKAD":"1000109","ADDRESS":"新北市三峽區文化路208號","TEL":" ","COUNTYNAME":"新北市","TOWNNAME":"三峽區","MARKTYPE":"993","Class":"303"}},{"type":"Feature","id":6262,"geometry":{"type":"Point","coordinates":[121.37133620984763,24.933241839083031]},"properties":{"OBJECTID":6262,"LANDMARKID":"1000100001003","LANDMARKCO":"303","LANDMARKNA":"長福橋地下停車場","LANDMARKAD":"1000109","ADDRESS":"新北市三峽區光明路1號","TEL":" ","COUNTYNAME":"新北市","TOWNNAME":"三峽區","MARKTYPE":"993","Class":"303"}},{"type":"Feature","id":6263,"geometry":{"type":"Point","coordinates":[121.37393090809917,24.934628449292681]},"properties":{"OBJECTID":6263,"LANDMARKID":"1000100001004","LANDMARKCO":"303","LANDMARKNA":"愛國路停車場","LANDMARKAD":"1000109","ADDRESS":"新北市三峽區愛國路","TEL":" ","COUNTYNAME":"新北市","TOWNNAME":"三峽區","MARKTYPE":"993","Class":"303"}},{"type":"Feature","id":6264,"geometry":{"type":"Point","coordinates":[121.37001595123023,24.936764660658003]},"properties":{"OBJECTID":6264,"LANDMARKID":"1000100001005","LANDMARKCO":"303","LANDMARKNA":"台灣聯通停車場-三峽場","LANDMARKAD":"1000109","ADDRESS":"新北市三峽區和平街65號","TEL":" ","COUNTYNAME":"新北市","TOWNNAME":"三峽區","MARKTYPE":"993","Class":"303"}},{"type":"Feature","id":6265,"geometry":{"type":"Point","coordinates":[121.36417027359529,24.936544390741123]},"properties":{"OBJECTID":6265,"LANDMARKID":"1000100002941","LANDMARKCO":"603","LANDMARKNA":"緣夢圓汽車旅館","LANDMARKAD":"1000109","ADDRESS":"新北市三峽區中山路169巷10號(代表號)","TEL":"02-26741133","COUNTYNAME":"新北市","TOWNNAME":"三峽區","MARKTYPE":"996","Class":"6"}},{"type":"Feature","id":6266,"geometry":{"type":"Point","coordinates":[121.37694652506188,24.940376166384581]},"properties":{"OBJECTID":6266,"LANDMARKID":"1000100002942","LANDMARKCO":"603","LANDMARKNA":"福容大飯店 三鶯","LANDMARKAD":"1000109","ADDRESS":"新北市三峽區大學路51號2-13樓","TEL":"57號1-12樓","COUNTYNAME":"新北市","TOWNNAME":"三峽區","MARKTYPE":"996","Class":"6"}},{"type":"Feature","id":6267,"geometry":{"type":"Point","coordinates":[121.37793662069286,24.932726674893608]},"properties":{"OBJECTID":6267,"LANDMARKID":"1000100002943","LANDMARKCO":"603","LANDMARKNA":"青青汽車旅館","LANDMARKAD":"1000109","ADDRESS":"新北市三峽區長泰街30號及30號之1至30號之27","TEL":"02-26743333","COUNTYNAME":"新北市","TOWNNAME":"三峽區","MARKTYPE":"996","Class":"6"}},{"type":"Feature","id":6268,"geometry":{"type":"Point","coordinates":[121.40816650861171,24.872376982869724]},"properties":{"OBJECTID":6268,"LANDMARKID":"1000100002545","LANDMARKCO":"504","LANDMARKNA":"大板根森林溫泉渡假村熱帶雨林入口","LANDMARKAD":"1000109","ADDRESS":"新北市三峽區插角里80號","TEL":"02-26720534","COUNTYNAME":"新北市","TOWNNAME":"三峽區","MARKTYPE":"995","Class":"5"}},{"type":"Feature","id":6269,"geometry":{"type":"Point","coordinates":[121.40743665802009,24.870687004423178]},"properties":{"OBJECTID":6269,"LANDMARKID":"1000100002546","LANDMARKCO":"504","LANDMARKNA":"大板根森林溫泉渡假村","LANDMARKAD":"1000109","ADDRESS":"新北市三峽區插角里80號","TEL":"02-26749228","COUNTYNAME":"新北市","TOWNNAME":"三峽區","MARKTYPE":"995","Class":"5"}},{"type":"Feature","id":6270,"geometry":{"type":"Point","coordinates":[121.40921580305263,24.872538599133978]},"properties":{"OBJECTID":6270,"LANDMARKID":"1000100002547","LANDMARKCO":"504","LANDMARKNA":"大板根森林溫泉渡假村森林浴健康步道","LANDMARKAD":"1000109","ADDRESS":"新北市三峽區插角里80號","TEL":"02-26749228","COUNTYNAME":"新北市","TOWNNAME":"三峽區","MARKTYPE":"995","Class":"5"}},{"type":"Feature","id":6271,"geometry":{"type":"Point","coordinates":[121.412719741449,24.867888553795943]},"properties":{"OBJECTID":6271,"LANDMARKID":"1000100002548","LANDMARKCO":"504","LANDMARKNA":"東眼瀑布","LANDMARKAD":"1000109","ADDRESS":"新北市三峽區","TEL":" ","COUNTYNAME":"新北市","TOWNNAME":"三峽區","MARKTYPE":"995","Class":"5"}},{"type":"Feature","id":6272,"geometry":{"type":"Point","coordinates":[121.4357611315567,24.856393077812523]},"properties":{"OBJECTID":6272,"LANDMARKID":"1000100002549","LANDMARKCO":"504","LANDMARKNA":"鴛鴦谷遊樂園","LANDMARKAD":"1000109","ADDRESS":"新北市三峽區有木里六鄰130之1號","TEL":"02-26720384","COUNTYNAME":"新北市","TOWNNAME":"三峽區","MARKTYPE":"995","Class":"5"}},{"type":"Feature","id":6273,"geometry":{"type":"Point","coordinates":[121.44456203322703,24.830811147235536]},"properties":{"OBJECTID":6273,"LANDMARKID":"1000100002550","LANDMARKCO":"504","LANDMARKNA":"滿月圓森林遊樂區楓翠橋","LANDMARKAD":"1000109","ADDRESS":"新北市三峽區","TEL":" ","COUNTYNAME":"新北市","TOWNNAME":"三峽區","MARKTYPE":"995","Class":"5"}},{"type":"Feature","id":6274,"geometry":{"type":"Point","coordinates":[121.44462015488642,24.830475433517091]},"properties":{"OBJECTID":6274,"LANDMARKID":"1000100002551","LANDMARKCO":"504","LANDMARKNA":"滿月圓森林遊樂區收費管理站","LANDMARKAD":"1000109","ADDRESS":"新北市三峽區有木里174之1號","TEL":"02-26720004","COUNTYNAME":"新北市","TOWNNAME":"三峽區","MARKTYPE":"995","Class":"5"}},{"type":"Feature","id":6275,"geometry":{"type":"Point","coordinates":[121.44693745995691,24.826157934229492]},"properties":{"OBJECTID":6275,"LANDMARKID":"1000100002552","LANDMARKCO":"504","LANDMARKNA":"滿月圓森林遊樂區青楓林道","LANDMARKAD":"1000109","ADDRESS":"新北市三峽區","TEL":" ","COUNTYNAME":"新北市","TOWNNAME":"三峽區","MARKTYPE":"995","Class":"5"}},{"type":"Feature","id":6276,"geometry":{"type":"Point","coordinates":[121.4472930572487,24.838074884057988]},"properties":{"OBJECTID":6276,"LANDMARKID":"1000100002553","LANDMARKCO":"504","LANDMARKNA":"滿月圓森林遊樂區蚋仔溪","LANDMARKAD":"1000109","ADDRESS":"新北市三峽區有木里174之1號","TEL":" ","COUNTYNAME":"新北市","TOWNNAME":"三峽區","MARKTYPE":"995","Class":"5"}},{"type":"Feature","id":6277,"geometry":{"type":"Point","coordinates":[121.44854005750507,24.82539374017821]},"properties":{"OBJECTID":6277,"LANDMARKID":"1000100002554","LANDMARKCO":"504","LANDMARKNA":"滿月圓森林遊樂區森林浴步道","LANDMARKAD":"1000109","ADDRESS":"新北市三峽區","TEL":" ","COUNTYNAME":"新北市","TOWNNAME":"三峽區","MARKTYPE":"995","Class":"5"}},{"type":"Feature","id":6278,"geometry":{"type":"Point","coordinates":[121.44949418582564,24.818173072539047]},"properties":{"OBJECTID":6278,"LANDMARKID":"1000100002555","LANDMARKCO":"504","LANDMARKNA":"滿月圓森林遊樂區滿月圓瀑布觀瀑亭","LANDMARKAD":"1000109","ADDRESS":"新北市三峽區","TEL":" ","COUNTYNAME":"新北市","TOWNNAME":"三峽區","MARKTYPE":"995","Class":"5"}},{"type":"Feature","id":6279,"geometry":{"type":"Point","coordinates":[121.44998675980375,24.817848362996568]},"properties":{"OBJECTID":6279,"LANDMARKID":"1000100002556","LANDMARKCO":"504","LANDMARKNA":"滿月圓森林遊樂區滿月小橋","LANDMARKAD":"1000109","ADDRESS":"新北市三峽區","TEL":" ","COUNTYNAME":"新北市","TOWNNAME":"三峽區","MARKTYPE":"995","Class":"5"}},{"type":"Feature","id":6280,"geometry":{"type":"Point","coordinates":[121.45007796176124,24.820534758533149]},"properties":{"OBJECTID":6280,"LANDMARKID":"1000100002557","LANDMARKCO":"504","LANDMARKNA":"滿月圓森林遊樂區滿足小橋","LANDMARKAD":"1000109","ADDRESS":"新北市三峽區","TEL":" ","COUNTYNAME":"新北市","TOWNNAME":"三峽區","MARKTYPE":"995","Class":"5"}},{"type":"Feature","id":6281,"geometry":{"type":"Point","coordinates":[121.45415872829797,24.819283730069607]},"properties":{"OBJECTID":6281,"LANDMARKID":"1000100002558","LANDMARKCO":"504","LANDMARKNA":"滿月圓森林遊樂區處女瀑布觀瀑樓","LANDMARKAD":"1000109","ADDRESS":"新北市三峽區","TEL":" ","COUNTYNAME":"新北市","TOWNNAME":"三峽區","MARKTYPE":"995","Class":"5"}},{"type":"Feature","id":6282,"geometry":{"type":"Point","coordinates":[121.35510504446282,24.931449805512088]},"properties":{"OBJECTID":6282,"LANDMARKID":"1000100002532","LANDMARKCO":"503","LANDMARKNA":"鳶山公園","LANDMARKAD":"1000109","ADDRESS":"新北市三峽區鳶峰路","TEL":" ","COUNTYNAME":"新北市","TOWNNAME":"三峽區","MARKTYPE":"995","Class":"5"}},{"type":"Feature","id":6283,"geometry":{"type":"Point","coordinates":[121.40737860082224,24.871153134306233]},"properties":{"OBJECTID":6283,"LANDMARKID":"1000100002533","LANDMARKCO":"503","LANDMARKNA":"湊合十八洞天","LANDMARKAD":"1000109","ADDRESS":"新北市三峽區","TEL":" ","COUNTYNAME":"新北市","TOWNNAME":"三峽區","MARKTYPE":"995","Class":"5"}},{"type":"Feature","id":6284,"geometry":{"type":"Point","coordinates":[121.44060339467235,24.924328688108954]},"properties":{"OBJECTID":6284,"LANDMARKID":"1000100002578","LANDMARKCO":"505","LANDMARKNA":"長城溪遊樂區(停)","LANDMARKAD":"1000109","ADDRESS":"新北市三峽區","TEL":" ","COUNTYNAME":"新北市","TOWNNAME":"三峽區","MARKTYPE":"995","Class":"5"}},{"type":"Feature","id":6285,"geometry":{"type":"Point","coordinates":[121.40772398426924,24.870959613390376]},"properties":{"OBJECTID":6285,"LANDMARKID":"1000100002676","LANDMARKCO":"508","LANDMARKNA":"大板根森林溫泉渡假村露天溫泉區","LANDMARKAD":"1000109","ADDRESS":"新北市三峽區插角里80號","TEL":"02-26749228","COUNTYNAME":"新北市","TOWNNAME":"三峽區","MARKTYPE":"995","Class":"5"}},{"type":"Feature","id":6286,"geometry":{"type":"Point","coordinates":[121.41262009273251,24.868578259579913]},"properties":{"OBJECTID":6286,"LANDMARKID":"1000100002677","LANDMARKCO":"508","LANDMARKNA":"薇菈溫泉會館","LANDMARKAD":"1000109","ADDRESS":"新北市三峽區有木里314號","TEL":"02-26720118","COUNTYNAME":"新北市","TOWNNAME":"三峽區","MARKTYPE":"995","Class":"5"}},{"type":"Feature","id":6287,"geometry":{"type":"Point","coordinates":[121.40852050488049,24.871727585118737]},"properties":{"OBJECTID":6287,"LANDMARKID":"1000100002543","LANDMARKCO":"504","LANDMARKNA":"大板根森林溫泉渡假村體能訓練攀岩區","LANDMARKAD":"1000109","ADDRESS":"新北市三峽區插角里80號","TEL":"02-26749228","COUNTYNAME":"新北市","TOWNNAME":"三峽區","MARKTYPE":"995","Class":"5"}},{"type":"Feature","id":6288,"geometry":{"type":"Point","coordinates":[121.44721575912699,24.846705952477272]},"properties":{"OBJECTID":6288,"LANDMARKID":"1000100002544","LANDMARKCO":"504","LANDMARKNA":"樂樂谷森林遊樂區","LANDMARKAD":"1000109","ADDRESS":"新北市三峽區153之1號","TEL":" ","COUNTYNAME":"新北市","TOWNNAME":"三峽區","MARKTYPE":"995","Class":"5"}},{"type":"Feature","id":6289,"geometry":{"type":"Point","coordinates":[121.5516682665187,24.865300907361231]},"properties":{"OBJECTID":6289,"LANDMARKID":"1000100002678","LANDMARKCO":"508","LANDMARKNA":"烏來溫泉區","LANDMARKAD":"1000129","ADDRESS":"新北市烏來區","TEL":" ","COUNTYNAME":"新北市","TOWNNAME":"烏來區","MARKTYPE":"995","Class":"5"}},{"type":"Feature","id":6290,"geometry":{"type":"Point","coordinates":[121.54871962052293,24.865743616799758]},"properties":{"OBJECTID":6290,"LANDMARKID":"1000100002722","LANDMARKCO":"512","LANDMARKNA":"烏來風景特定區管理所","LANDMARKAD":"1000129","ADDRESS":"新北市烏來區瀑布路34號","TEL":"02-26616355","COUNTYNAME":"新北市","TOWNNAME":"烏來區","MARKTYPE":"995","Class":"5"}},{"type":"Feature","id":6291,"geometry":{"type":"Point","coordinates":[121.55176955140703,24.863488550398102]},"properties":{"OBJECTID":6291,"LANDMARKID":"1000100002437","LANDMARKCO":"408","LANDMARKNA":"郵局-烏來郵局","LANDMARKAD":"1000129","ADDRESS":"新北市烏來區烏來村溫泉街69號","TEL":"(02)2661-6303","COUNTYNAME":"新北市","TOWNNAME":"烏來區","MARKTYPE":"994","Class":"4"}},{"type":"Feature","id":6292,"geometry":{"type":"Point","coordinates":[121.54674360693448,24.884663957027808]},"properties":{"OBJECTID":6292,"LANDMARKID":"1000100002264","LANDMARKCO":"406","LANDMARKNA":"忠治公園","LANDMARKAD":"1000129","ADDRESS":"新北市烏來區","TEL":" ","COUNTYNAME":"新北市","TOWNNAME":"烏來區","MARKTYPE":"994","Class":"4"}},{"type":"Feature","id":6293,"geometry":{"type":"Point","coordinates":[121.54829864291479,24.873245005129554]},"properties":{"OBJECTID":6293,"LANDMARKID":"1000100000431","LANDMARKCO":"108","LANDMARKNA":"新北市烏來區公所","LANDMARKAD":"1000129","ADDRESS":"新北市烏來區忠治村堰堤路48號","TEL":"02-26616442","COUNTYNAME":"新北市","TOWNNAME":"烏來區","MARKTYPE":"991","Class":"1"}},{"type":"Feature","id":6294,"geometry":{"type":"Point","coordinates":[121.551706069437,24.863569885001382]},"properties":{"OBJECTID":6294,"LANDMARKID":"1000100000185","LANDMARKCO":"107","LANDMARKNA":"新北市消防局烏來分隊","LANDMARKAD":"1000129","ADDRESS":"新北市烏來區烏來村環山路51號","TEL":"02-26616187","COUNTYNAME":"新北市","TOWNNAME":"烏來區","MARKTYPE":"991","Class":"1"}},{"type":"Feature","id":6295,"geometry":{"type":"Point","coordinates":[121.58306962300345,24.843675359995082]},"properties":{"OBJECTID":6295,"LANDMARKID":"1000100000186","LANDMARKCO":"107","LANDMARKNA":"新北市政府警察局孝義派出所","LANDMARKAD":"1000129","ADDRESS":"新北市烏來區孝義村阿玉路2號","TEL":"02-26616139","COUNTYNAME":"新北市","TOWNNAME":"烏來區","MARKTYPE":"991","Class":"1"}},{"type":"Feature","id":6296,"geometry":{"type":"Point","coordinates":[121.53068222478227,24.841442265721298]},"properties":{"OBJECTID":6296,"LANDMARKID":"1000100000187","LANDMARKCO":"107","LANDMARKNA":"新北市政府警察局信賢派出所","LANDMARKAD":"1000129","ADDRESS":"新北市烏來區信賢村信福路11號","TEL":"02-26616400","COUNTYNAME":"新北市","TOWNNAME":"烏來區","MARKTYPE":"991","Class":"1"}},{"type":"Feature","id":6297,"geometry":{"type":"Point","coordinates":[121.55293578071434,24.864113926165285]},"properties":{"OBJECTID":6297,"LANDMARKID":"1000100000172","LANDMARKCO":"106","LANDMARKNA":"新北市烏來區戶政事務所","LANDMARKAD":"1000129","ADDRESS":"新北市烏來區烏來街43號","TEL":"02-26616713","COUNTYNAME":"新北市","TOWNNAME":"烏來區","MARKTYPE":"991","Class":"1"}},{"type":"Feature","id":6298,"geometry":{"type":"Point","coordinates":[121.55316337179296,24.864112240171696]},"properties":{"OBJECTID":6298,"LANDMARKID":"1000100000188","LANDMARKCO":"107","LANDMARKNA":"新北市政府警察局烏來分駐所","LANDMARKAD":"1000129","ADDRESS":"新北市烏來區烏來村烏來街45號","TEL":"0226616410","COUNTYNAME":"新北市","TOWNNAME":"烏來區","MARKTYPE":"991","Class":"1"}},{"type":"Feature","id":6299,"geometry":{"type":"Point","coordinates":[121.54819137865408,24.873426361564825]},"properties":{"OBJECTID":6299,"LANDMARKID":"1000100000121","LANDMARKCO":"103","LANDMARKNA":"新北市烏來區衛生所","LANDMARKAD":"1000129","ADDRESS":"新北市烏來區忠治村堰堤48-1號","TEL":"02-26617200","COUNTYNAME":"新北市","TOWNNAME":"烏來區","MARKTYPE":"991","Class":"1"}},{"type":"Feature","id":6300,"geometry":{"type":"Point","coordinates":[121.54768733076905,24.870992433935207]},"properties":{"OBJECTID":6300,"LANDMARKID":"1000100000122","LANDMARKCO":"103","LANDMARKNA":"新北市烏來區鄉民代表會","LANDMARKAD":"1000129","ADDRESS":"新北市烏來區堰堤48號3樓","TEL":"02-26616420","COUNTYNAME":"新北市","TOWNNAME":"烏來區","MARKTYPE":"991","Class":"1"}},{"type":"Feature","id":6301,"geometry":{"type":"Point","coordinates":[121.5006530520351,24.780060821126437]},"properties":{"OBJECTID":6301,"LANDMARKID":"1000100000189","LANDMARKCO":"107","LANDMARKNA":"新北市政府警察局福山派出所","LANDMARKAD":"1000129","ADDRESS":"新北市烏來區福山村李茂岸30號","TEL":"02-26616260","COUNTYNAME":"新北市","TOWNNAME":"烏來區","MARKTYPE":"991","Class":"1"}},{"type":"Feature","id":6302,"geometry":{"type":"Point","coordinates":[121.54515720970223,24.885084891309312]},"properties":{"OBJECTID":6302,"LANDMARKID":"1000100000190","LANDMARKCO":"107","LANDMARKNA":"新北市政府警察局忠治派出所","LANDMARKAD":"1000129","ADDRESS":"新北市烏來區忠治村142號","TEL":"02-26616533","COUNTYNAME":"新北市","TOWNNAME":"烏來區","MARKTYPE":"991","Class":"1"}},{"type":"Feature","id":6303,"geometry":{"type":"Point","coordinates":[121.58579772362725,24.850706857037828]},"properties":{"OBJECTID":6303,"LANDMARKID":"1000100000191","LANDMARKCO":"107","LANDMARKNA":"烏玉檢查所","LANDMARKAD":"1000129","ADDRESS":"新北市烏來區烏來村","TEL":" ","COUNTYNAME":"新北市","TOWNNAME":"烏來區","MARKTYPE":"991","Class":"1"}},{"type":"Feature","id":6304,"geometry":{"type":"Point","coordinates":[121.55144391534249,24.864180760985377]},"properties":{"OBJECTID":6304,"LANDMARKID":"1000100000889","LANDMARKCO":"205","LANDMARKNA":"泰雅民族博物館","LANDMARKAD":"1000129","ADDRESS":"新北市烏來區烏來村烏來街12號","TEL":"02-26618162","COUNTYNAME":"新北市","TOWNNAME":"烏來區","MARKTYPE":"992","Class":"2"}},{"type":"Feature","id":6305,"geometry":{"type":"Point","coordinates":[121.55409771225096,24.863481592561357]},"properties":{"OBJECTID":6305,"LANDMARKID":"1000100000890","LANDMARKCO":"205","LANDMARKNA":"新北市烏來國小山地文物陳列室","LANDMARKAD":"1000129","ADDRESS":"新北市烏來區啦卡路5號","TEL":"02-26616482","COUNTYNAME":"新北市","TOWNNAME":"烏來區","MARKTYPE":"992","Class":"2"}},{"type":"Feature","id":6306,"geometry":{"type":"Point","coordinates":[121.55788251624895,24.859030397520385]},"properties":{"OBJECTID":6306,"LANDMARKID":"1000100000513","LANDMARKCO":"202","LANDMARKNA":"縣立烏來國中(小)","LANDMARKAD":"1000129","ADDRESS":"[233]新北市烏來區啦卡路5號","TEL":"02-26616534","COUNTYNAME":"新北市","TOWNNAME":"烏來區","MARKTYPE":"992","Class":"2"}},{"type":"Feature","id":6307,"geometry":{"type":"Point","coordinates":[121.5540216349473,24.863562998328405]},"properties":{"OBJECTID":6307,"LANDMARKID":"1000100000514","LANDMARKCO":"203","LANDMARKNA":"縣立烏來中小學","LANDMARKAD":"1000129","ADDRESS":"新北市烏來區烏來村56號","TEL":"02-26616482","COUNTYNAME":"新北市","TOWNNAME":"烏來區","MARKTYPE":"992","Class":"2"}},{"type":"Feature","id":6308,"geometry":{"type":"Point","coordinates":[121.55785445177195,24.859211176164042]},"properties":{"OBJECTID":6308,"LANDMARKID":"1000100000515","LANDMARKCO":"203","LANDMARKNA":"縣立烏來國(中)小","LANDMARKAD":"1000129","ADDRESS":"[233]新北市烏來區啦卡路5號","TEL":"02-26616534","COUNTYNAME":"新北市","TOWNNAME":"烏來區","MARKTYPE":"992","Class":"2"}},{"type":"Feature","id":6309,"geometry":{"type":"Point","coordinates":[121.52864316100799,24.839009197928149]},"properties":{"OBJECTID":6309,"LANDMARKID":"1000100000516","LANDMARKCO":"203","LANDMARKNA":"縣立信賢國小","LANDMARKAD":"1000129","ADDRESS":"新北市烏來區","TEL":" ","COUNTYNAME":"新北市","TOWNNAME":"烏來區","MARKTYPE":"992","Class":"2"}},{"type":"Feature","id":6310,"geometry":{"type":"Point","coordinates":[121.50202252119709,24.776801411968233]},"properties":{"OBJECTID":6310,"LANDMARKID":"1000100000517","LANDMARKCO":"203","LANDMARKNA":"縣立福山國小","LANDMARKAD":"1000129","ADDRESS":"新北市烏來區福山村27號","TEL":"02-26616124","COUNTYNAME":"新北市","TOWNNAME":"烏來區","MARKTYPE":"992","Class":"2"}},{"type":"Feature","id":6311,"geometry":{"type":"Point","coordinates":[121.49822453273444,24.785845964603531]},"properties":{"OBJECTID":6311,"LANDMARKID":"1000100000518","LANDMARKCO":"203","LANDMARKNA":"縣立福山國小","LANDMARKAD":"1000129","ADDRESS":"新北市烏來區福山村李茂岸56號","TEL":"02-26616124","COUNTYNAME":"新北市","TOWNNAME":"烏來區","MARKTYPE":"992","Class":"2"}},{"type":"Feature","id":6312,"geometry":{"type":"Point","coordinates":[121.55176871873309,24.865223497116851]},"properties":{"OBJECTID":6312,"LANDMARKID":"1000100001008","LANDMARKCO":"303","LANDMARKNA":"烏來溫泉停車場","LANDMARKAD":"1000129","ADDRESS":"新北市烏來區新烏公路旁","TEL":" ","COUNTYNAME":"新北市","TOWNNAME":"烏來區","MARKTYPE":"993","Class":"303"}},{"type":"Feature","id":6313,"geometry":{"type":"Point","coordinates":[121.55117530763879,24.866297692818094]},"properties":{"OBJECTID":6313,"LANDMARKID":"1000100001009","LANDMARKCO":"303","LANDMARKNA":"烏來溫泉停車場","LANDMARKAD":"1000129","ADDRESS":"新北市烏來區新烏公路旁","TEL":" ","COUNTYNAME":"新北市","TOWNNAME":"烏來區","MARKTYPE":"993","Class":"303"}},{"type":"Feature","id":6314,"geometry":{"type":"Point","coordinates":[121.5261562361917,24.828163118107831]},"properties":{"OBJECTID":6314,"LANDMARKID":"1000100001010","LANDMARKCO":"303","LANDMARKNA":"內洞森林遊樂區停車場","LANDMARKAD":"1000129","ADDRESS":"新北市烏來區信賢里","TEL":" ","COUNTYNAME":"新北市","TOWNNAME":"烏來區","MARKTYPE":"993","Class":"303"}},{"type":"Feature","id":6315,"geometry":{"type":"Point","coordinates":[121.5491935222052,24.860887538492644]},"properties":{"OBJECTID":6315,"LANDMARKID":"1000100001011","LANDMARKCO":"303","LANDMARKNA":"停一停車場","LANDMARKAD":"1000129","ADDRESS":"新北市烏來區台九里烏來村路","TEL":" ","COUNTYNAME":"新北市","TOWNNAME":"烏來區","MARKTYPE":"993","Class":"303"}},{"type":"Feature","id":6316,"geometry":{"type":"Point","coordinates":[121.55223863013141,24.864030816346339]},"properties":{"OBJECTID":6316,"LANDMARKID":"1000100002935","LANDMARKCO":"603","LANDMARKNA":"碧山閣飯店","LANDMARKAD":"1000129","ADDRESS":"新北市烏來區烏來街79號","TEL":"02-26616342","COUNTYNAME":"新北市","TOWNNAME":"烏來區","MARKTYPE":"996","Class":"6"}},{"type":"Feature","id":6317,"geometry":{"type":"Point","coordinates":[121.55166417955058,24.864379940102186]},"properties":{"OBJECTID":6317,"LANDMARKID":"1000100002936","LANDMARKCO":"603","LANDMARKNA":"萬佳飯店","LANDMARKAD":"1000129","ADDRESS":"新北市烏來區烏來街6號","TEL":"02-26616600","COUNTYNAME":"新北市","TOWNNAME":"烏來區","MARKTYPE":"996","Class":"6"}},{"type":"Feature","id":6318,"geometry":{"type":"Point","coordinates":[121.55239567174493,24.86426523616235]},"properties":{"OBJECTID":6318,"LANDMARKID":"1000100002937","LANDMARKCO":"603","LANDMARKNA":"秀山大飯店","LANDMARKAD":"1000129","ADDRESS":"新北市烏來區烏來街83號","TEL":"02-26616789","COUNTYNAME":"新北市","TOWNNAME":"烏來區","MARKTYPE":"996","Class":"6"}},{"type":"Feature","id":6319,"geometry":{"type":"Point","coordinates":[121.55170352960597,24.864458793957727]},"properties":{"OBJECTID":6319,"LANDMARKID":"1000100002938","LANDMARKCO":"603","LANDMARKNA":"烏來大飯店","LANDMARKAD":"1000129","ADDRESS":"新北市烏來區烏來街8號","TEL":"02-26616445","COUNTYNAME":"新北市","TOWNNAME":"烏來區","MARKTYPE":"996","Class":"6"}},{"type":"Feature","id":6320,"geometry":{"type":"Point","coordinates":[121.55338574873228,24.844038827246642]},"properties":{"OBJECTID":6320,"LANDMARKID":"1000100002939","LANDMARKCO":"603","LANDMARKNA":"雲仙大飯店","LANDMARKAD":"1000129","ADDRESS":"新北市烏來區烏來村瀑布路1之1號","TEL":"02-26616511","COUNTYNAME":"新北市","TOWNNAME":"烏來區","MARKTYPE":"996","Class":"6"}},{"type":"Feature","id":6321,"geometry":{"type":"Point","coordinates":[121.55086522619555,24.847950890009603]},"properties":{"OBJECTID":6321,"LANDMARKID":"1000100002940","LANDMARKCO":"603","LANDMARKNA":"烏來泰雅那魯灣溫泉渡假飯店","LANDMARKAD":"1000129","ADDRESS":"新北市烏來區烏來村瀑布路33號","TEL":"02-26616000","COUNTYNAME":"新北市","TOWNNAME":"烏來區","MARKTYPE":"996","Class":"6"}},{"type":"Feature","id":6322,"geometry":{"type":"Point","coordinates":[121.5476188091519,24.865888623855259]},"properties":{"OBJECTID":6322,"LANDMARKID":"1000100002945","LANDMARKCO":"604","LANDMARKNA":"沙力達民宿","LANDMARKAD":"1000129","ADDRESS":"新北市烏來區烏來村西羅岸路37號","TEL":"02-26616658","COUNTYNAME":"新北市","TOWNNAME":"烏來區","MARKTYPE":"996","Class":"6"}},{"type":"Feature","id":6323,"geometry":{"type":"Point","coordinates":[121.55140641026347,24.860229892335258]},"properties":{"OBJECTID":6323,"LANDMARKID":"1000100002946","LANDMARKCO":"604","LANDMARKNA":"龍門溫泉民宿","LANDMARKAD":"1000129","ADDRESS":"新北市烏來區烏來村溫泉街116號","TEL":"02-26618187","COUNTYNAME":"新北市","TOWNNAME":"烏來區","MARKTYPE":"996","Class":"6"}},{"type":"Feature","id":6324,"geometry":{"type":"Point","coordinates":[121.53599377299311,24.878372177051769]},"properties":{"OBJECTID":6324,"LANDMARKID":"1000100002535","LANDMARKCO":"503","LANDMARKNA":"紅河谷","LANDMARKAD":"1000129","ADDRESS":"新北市烏來區","TEL":" ","COUNTYNAME":"新北市","TOWNNAME":"烏來區","MARKTYPE":"995","Class":"5"}},{"type":"Feature","id":6325,"geometry":{"type":"Point","coordinates":[121.55097460936146,24.848343470333944]},"properties":{"OBJECTID":6325,"LANDMARKID":"1000100002580","LANDMARKCO":"505","LANDMARKNA":"雲仙樂園","LANDMARKAD":"1000129","ADDRESS":"新北市烏來區瀑布路1之1號","TEL":" ","COUNTYNAME":"新北市","TOWNNAME":"烏來區","MARKTYPE":"995","Class":"5"}},{"type":"Feature","id":6326,"geometry":{"type":"Point","coordinates":[121.55221833832661,24.848226556333898]},"properties":{"OBJECTID":6326,"LANDMARKID":"1000100002534","LANDMARKCO":"503","LANDMARKNA":"烏來瀑布","LANDMARKAD":"1000129","ADDRESS":"新北市烏來區","TEL":" ","COUNTYNAME":"新北市","TOWNNAME":"烏來區","MARKTYPE":"995","Class":"5"}},{"type":"Feature","id":6327,"geometry":{"type":"Point","coordinates":[121.55112283447021,24.848677617917186]},"properties":{"OBJECTID":6327,"LANDMARKID":"1000100002579","LANDMARKCO":"505","LANDMARKNA":"烏來山地文化村","LANDMARKAD":"1000129","ADDRESS":"新北市烏來區瀑布路31號","TEL":"02-26616131","COUNTYNAME":"新北市","TOWNNAME":"烏來區","MARKTYPE":"995","Class":"5"}},{"type":"Feature","id":6328,"geometry":{"type":"Point","coordinates":[121.54699819273513,24.874670380893615]},"properties":{"OBJECTID":6328,"LANDMARKID":"1000100002644","LANDMARKCO":"508","LANDMARKNA":"巨龍山莊","LANDMARKAD":"1000129","ADDRESS":"新北市烏來區忠治村椻堤85號","TEL":"02-26116333","COUNTYNAME":"新北市","TOWNNAME":"烏來區","MARKTYPE":"995","Class":"5"}},{"type":"Feature","id":6329,"geometry":{"type":"Point","coordinates":[121.54655268627894,24.855131951153353]},"properties":{"OBJECTID":6329,"LANDMARKID":"1000100002645","LANDMARKCO":"508","LANDMARKNA":"烏來強羅溫泉館","LANDMARKAD":"1000129","ADDRESS":"新北市烏來區野要街80號","TEL":"02-26618009","COUNTYNAME":"新北市","TOWNNAME":"烏來區","MARKTYPE":"995","Class":"5"}},{"type":"Feature","id":6330,"geometry":{"type":"Point","coordinates":[121.54652074308169,24.863758819621637]},"properties":{"OBJECTID":6330,"LANDMARKID":"1000100002646","LANDMARKCO":"508","LANDMARKNA":"雲頂溫泉行館","LANDMARKAD":"1000129","ADDRESS":"新北市烏來區西羅岸路45號","TEL":"02-26617755","COUNTYNAME":"新北市","TOWNNAME":"烏來區","MARKTYPE":"995","Class":"5"}},{"type":"Feature","id":6331,"geometry":{"type":"Point","coordinates":[121.5473192672642,24.87076337746084]},"properties":{"OBJECTID":6331,"LANDMARKID":"1000100002647","LANDMARKCO":"508","LANDMARKNA":"岸之湯溫泉會館","LANDMARKAD":"1000129","ADDRESS":"新北市烏來區堰堤37號","TEL":"02-26616868","COUNTYNAME":"新北市","TOWNNAME":"烏來區","MARKTYPE":"995","Class":"5"}},{"type":"Feature","id":6332,"geometry":{"type":"Point","coordinates":[121.54736264187861,24.873154118260732]},"properties":{"OBJECTID":6332,"LANDMARKID":"1000100002648","LANDMARKCO":"508","LANDMARKNA":"箱根苑","LANDMARKAD":"1000129","ADDRESS":"新北市烏來區忠治村堰堤77號","TEL":"02-26616688","COUNTYNAME":"新北市","TOWNNAME":"烏來區","MARKTYPE":"995","Class":"5"}},{"type":"Feature","id":6333,"geometry":{"type":"Point","coordinates":[121.54737973343936,24.872949983335314]},"properties":{"OBJECTID":6333,"LANDMARKID":"1000100002649","LANDMARKCO":"508","LANDMARKNA":"溫泉山莊","LANDMARKAD":"1000129","ADDRESS":"新北市烏來區忠治村堰堤75號","TEL":"02-26616168","COUNTYNAME":"新北市","TOWNNAME":"烏來區","MARKTYPE":"995","Class":"5"}},{"type":"Feature","id":6334,"geometry":{"type":"Point","coordinates":[121.54748274191739,24.856373786896974]},"properties":{"OBJECTID":6334,"LANDMARKID":"1000100002650","LANDMARKCO":"508","LANDMARKNA":"雲景溫泉休閒渡假山莊","LANDMARKAD":"1000129","ADDRESS":"新北市烏來區西羅岸路81號","TEL":"02-26616695","COUNTYNAME":"新北市","TOWNNAME":"烏來區","MARKTYPE":"995","Class":"5"}},{"type":"Feature","id":6335,"geometry":{"type":"Point","coordinates":[121.54752495337877,24.865908752537553]},"properties":{"OBJECTID":6335,"LANDMARKID":"1000100002651","LANDMARKCO":"508","LANDMARKNA":"沙力達溫泉渡假民宿","LANDMARKAD":"1000129","ADDRESS":"新北市烏來區西羅岸路37號","TEL":"02-26616658","COUNTYNAME":"新北市","TOWNNAME":"烏來區","MARKTYPE":"995","Class":"5"}},{"type":"Feature","id":6336,"geometry":{"type":"Point","coordinates":[121.54792887483464,24.864891681186933]},"properties":{"OBJECTID":6336,"LANDMARKID":"1000100002652","LANDMARKCO":"508","LANDMARKNA":"美人湯溫泉會館","LANDMARKAD":"1000129","ADDRESS":"新北市烏來區烏來村西羅岸路1號","TEL":"02-26616680","COUNTYNAME":"新北市","TOWNNAME":"烏來區","MARKTYPE":"995","Class":"5"}},{"type":"Feature","id":6337,"geometry":{"type":"Point","coordinates":[121.5482548550055,24.85892383672547]},"properties":{"OBJECTID":6337,"LANDMARKID":"1000100002653","LANDMARKCO":"508","LANDMARKNA":"泰雅達利溫泉生活館","LANDMARKAD":"1000129","ADDRESS":"新北市烏來區環山路156號","TEL":"02-26616670","COUNTYNAME":"新北市","TOWNNAME":"烏來區","MARKTYPE":"995","Class":"5"}},{"type":"Feature","id":6338,"geometry":{"type":"Point","coordinates":[121.54892909860315,24.860620833667618]},"properties":{"OBJECTID":6338,"LANDMARKID":"1000100002654","LANDMARKCO":"508","LANDMARKNA":"卡莎米亞溫泉館(停)","LANDMARKAD":"1000129","ADDRESS":"新北市烏來區環山路123號","TEL":"02-26617700","COUNTYNAME":"新北市","TOWNNAME":"烏來區","MARKTYPE":"995","Class":"5"}},{"type":"Feature","id":6339,"geometry":{"type":"Point","coordinates":[121.54917700163058,24.859012923361384]},"properties":{"OBJECTID":6339,"LANDMARKID":"1000100002655","LANDMARKCO":"508","LANDMARKNA":"水韻音樂食尚浴花園","LANDMARKAD":"1000129","ADDRESS":"新北市烏來區環山路151號","TEL":"02-26617768","COUNTYNAME":"新北市","TOWNNAME":"烏來區","MARKTYPE":"995","Class":"5"}},{"type":"Feature","id":6340,"geometry":{"type":"Point","coordinates":[121.54968282279653,24.862328406306013]},"properties":{"OBJECTID":6340,"LANDMARKID":"1000100002656","LANDMARKCO":"508","LANDMARKNA":"那山谷溫泉館","LANDMARKAD":"1000129","ADDRESS":"新北市烏來區環山路49號","TEL":"02-26617856","COUNTYNAME":"新北市","TOWNNAME":"烏來區","MARKTYPE":"995","Class":"5"}},{"type":"Feature","id":6341,"geometry":{"type":"Point","coordinates":[121.55088181071521,24.862113071266517]},"properties":{"OBJECTID":6341,"LANDMARKID":"1000100002657","LANDMARKCO":"508","LANDMARKNA":"花月溫泉會館","LANDMARKAD":"1000129","ADDRESS":"新北市烏來區溫泉街39號","TEL":"02-26617779","COUNTYNAME":"新北市","TOWNNAME":"烏來區","MARKTYPE":"995","Class":"5"}},{"type":"Feature","id":6342,"geometry":{"type":"Point","coordinates":[121.55131460992597,24.863224149938656]},"properties":{"OBJECTID":6342,"LANDMARKID":"1000100002658","LANDMARKCO":"508","LANDMARKNA":"東風溫泉會館","LANDMARKAD":"1000129","ADDRESS":"新北市烏來區烏來街66號","TEL":"02-26617888","COUNTYNAME":"新北市","TOWNNAME":"烏來區","MARKTYPE":"995","Class":"5"}},{"type":"Feature","id":6343,"geometry":{"type":"Point","coordinates":[121.55124851411635,24.848837006573543]},"properties":{"OBJECTID":6343,"LANDMARKID":"1000100002659","LANDMARKCO":"508","LANDMARKNA":"那魯灣渡假飯店","LANDMARKAD":"1000129","ADDRESS":"新北市烏來區瀑布路33號","TEL":"02-26616000","COUNTYNAME":"新北市","TOWNNAME":"烏來區","MARKTYPE":"995","Class":"5"}},{"type":"Feature","id":6344,"geometry":{"type":"Point","coordinates":[121.55130132381886,24.863682236826619]},"properties":{"OBJECTID":6344,"LANDMARKID":"1000100002660","LANDMARKCO":"508","LANDMARKNA":"小川源溫泉","LANDMARKAD":"1000129","ADDRESS":"新北市烏來區烏來街32號","TEL":"02-26616222","COUNTYNAME":"新北市","TOWNNAME":"烏來區","MARKTYPE":"995","Class":"5"}},{"type":"Feature","id":6345,"geometry":{"type":"Point","coordinates":[121.55133282725575,24.863848591106937]},"properties":{"OBJECTID":6345,"LANDMARKID":"1000100002661","LANDMARKCO":"508","LANDMARKNA":"國際岩湯","LANDMARKAD":"1000129","ADDRESS":"新北市烏來區烏來街22號","TEL":"02-26616351","COUNTYNAME":"新北市","TOWNNAME":"烏來區","MARKTYPE":"995","Class":"5"}},{"type":"Feature","id":6346,"geometry":{"type":"Point","coordinates":[121.55155727136614,24.889678289979194]},"properties":{"OBJECTID":6346,"LANDMARKID":"1000100002662","LANDMARKCO":"508","LANDMARKNA":"日月光溫泉山莊","LANDMARKAD":"1000129","ADDRESS":"新北市烏來區忠治村忠治37號","TEL":"02-26616677","COUNTYNAME":"新北市","TOWNNAME":"烏來區","MARKTYPE":"995","Class":"5"}},{"type":"Feature","id":6347,"geometry":{"type":"Point","coordinates":[121.5515366351767,24.863040906688905]},"properties":{"OBJECTID":6347,"LANDMARKID":"1000100002663","LANDMARKCO":"508","LANDMARKNA":"雙鹿溫泉飯店","LANDMARKAD":"1000129","ADDRESS":"新北市烏來區烏來街129號","TEL":"02-26616396","COUNTYNAME":"新北市","TOWNNAME":"烏來區","MARKTYPE":"995","Class":"5"}},{"type":"Feature","id":6348,"geometry":{"type":"Point","coordinates":[121.55158015249704,24.855087367615546]},"properties":{"OBJECTID":6348,"LANDMARKID":"1000100002664","LANDMARKCO":"508","LANDMARKNA":"上谷清流溫泉會館","LANDMARKAD":"1000129","ADDRESS":"新北市烏來區烏來村101號","TEL":"02-26616700","COUNTYNAME":"新北市","TOWNNAME":"烏來區","MARKTYPE":"995","Class":"5"}},{"type":"Feature","id":6349,"geometry":{"type":"Point","coordinates":[121.55167447210599,24.864868291996512]},"properties":{"OBJECTID":6349,"LANDMARKID":"1000100002665","LANDMARKCO":"508","LANDMARKNA":"萬佳溫泉休閒飯店","LANDMARKAD":"1000129","ADDRESS":"新北市烏來區烏來街6號","TEL":"02-26616600","COUNTYNAME":"新北市","TOWNNAME":"烏來區","MARKTYPE":"995","Class":"5"}},{"type":"Feature","id":6350,"geometry":{"type":"Point","coordinates":[121.55166826667897,24.865300943473745]},"properties":{"OBJECTID":6350,"LANDMARKID":"1000100002666","LANDMARKCO":"508","LANDMARKNA":"烏來溫泉區","LANDMARKAD":"1000129","ADDRESS":"新北市烏來區","TEL":" ","COUNTYNAME":"新北市","TOWNNAME":"烏來區","MARKTYPE":"995","Class":"5"}},{"type":"Feature","id":6351,"geometry":{"type":"Point","coordinates":[121.55167462899247,24.859957265406074]},"properties":{"OBJECTID":6351,"LANDMARKID":"1000100002667","LANDMARKCO":"508","LANDMARKNA":"鶴雅溫泉會館","LANDMARKAD":"1000129","ADDRESS":"新北市烏來區溫泉街89號","TEL":"02-26617218","COUNTYNAME":"新北市","TOWNNAME":"烏來區","MARKTYPE":"995","Class":"5"}},{"type":"Feature","id":6352,"geometry":{"type":"Point","coordinates":[121.55169563362504,24.860204526578496]},"properties":{"OBJECTID":6352,"LANDMARKID":"1000100002668","LANDMARKCO":"508","LANDMARKNA":"湯布苑溫泉館","LANDMARKAD":"1000129","ADDRESS":"新北市烏來區溫泉路85號","TEL":"02-26618001","COUNTYNAME":"新北市","TOWNNAME":"烏來區","MARKTYPE":"995","Class":"5"}},{"type":"Feature","id":6353,"geometry":{"type":"Point","coordinates":[121.55178915903939,24.864384895380535]},"properties":{"OBJECTID":6353,"LANDMARKID":"1000100002669","LANDMARKCO":"508","LANDMARKNA":"秀山飯店","LANDMARKAD":"1000129","ADDRESS":"新北市烏來區烏來街83號","TEL":"02-26616446","COUNTYNAME":"新北市","TOWNNAME":"烏來區","MARKTYPE":"995","Class":"5"}},{"type":"Feature","id":6354,"geometry":{"type":"Point","coordinates":[121.55279007253503,24.863860969655139]},"properties":{"OBJECTID":6354,"LANDMARKID":"1000100002670","LANDMARKCO":"508","LANDMARKNA":"明月溫泉會館","LANDMARKAD":"1000129","ADDRESS":"新北市烏來區烏來街85巷1號","TEL":"02-26617678","COUNTYNAME":"新北市","TOWNNAME":"烏來區","MARKTYPE":"995","Class":"5"}},{"type":"Feature","id":6355,"geometry":{"type":"Point","coordinates":[121.55280448334446,24.864023803533357]},"properties":{"OBJECTID":6355,"LANDMARKID":"1000100002671","LANDMARKCO":"508","LANDMARKNA":"桶后別館","LANDMARKAD":"1000129","ADDRESS":"新北市烏來區啦卡路2號","TEL":"02-26616199","COUNTYNAME":"新北市","TOWNNAME":"烏來區","MARKTYPE":"995","Class":"5"}},{"type":"Feature","id":6356,"geometry":{"type":"Point","coordinates":[121.55291344719359,24.86400470895331]},"properties":{"OBJECTID":6356,"LANDMARKID":"1000100002672","LANDMARKCO":"508","LANDMARKNA":"桶后溪畔溫泉","LANDMARKAD":"1000129","ADDRESS":"新北市烏來區啦卡路2之1號","TEL":"02-26617613","COUNTYNAME":"新北市","TOWNNAME":"烏來區","MARKTYPE":"995","Class":"5"}},{"type":"Feature","id":6357,"geometry":{"type":"Point","coordinates":[121.55498768168634,24.844582883256606]},"properties":{"OBJECTID":6357,"LANDMARKID":"1000100002673","LANDMARKCO":"508","LANDMARKNA":"雲仙大飯店","LANDMARKAD":"1000129","ADDRESS":"新北市烏來區瀑布路1之1號","TEL":"02-26616383","COUNTYNAME":"新北市","TOWNNAME":"烏來區","MARKTYPE":"995","Class":"5"}},{"type":"Feature","id":6358,"geometry":{"type":"Point","coordinates":[121.55633707397712,24.860688765459301]},"properties":{"OBJECTID":6358,"LANDMARKID":"1000100002674","LANDMARKCO":"508","LANDMARKNA":"烏來名湯溫泉會館","LANDMARKAD":"1000129","ADDRESS":"新北市烏來區啦卡路36號","TEL":"02-26616161","COUNTYNAME":"新北市","TOWNNAME":"烏來區","MARKTYPE":"995","Class":"5"}},{"type":"Feature","id":6359,"geometry":{"type":"Point","coordinates":[121.55840274963792,24.859389869940014]},"properties":{"OBJECTID":6359,"LANDMARKID":"1000100002675","LANDMARKCO":"508","LANDMARKNA":"天池御皇溫泉","LANDMARKAD":"1000129","ADDRESS":"新北市烏來區啦卡路50號","TEL":"02-26617353","COUNTYNAME":"新北市","TOWNNAME":"烏來區","MARKTYPE":"995","Class":"5"}},{"type":"Feature","id":6360,"geometry":{"type":"Point","coordinates":[121.51404800170394,24.820011763328452]},"properties":{"OBJECTID":6360,"LANDMARKID":"1000100002541","LANDMARKCO":"504","LANDMARKNA":"蘭吼瀑布","LANDMARKAD":"1000129","ADDRESS":"新北市烏來區信福路","TEL":" ","COUNTYNAME":"新北市","TOWNNAME":"烏來區","MARKTYPE":"995","Class":"5"}},{"type":"Feature","id":6361,"geometry":{"type":"Point","coordinates":[121.52634477217859,24.83439068731899]},"properties":{"OBJECTID":6361,"LANDMARKID":"1000100002542","LANDMARKCO":"504","LANDMARKNA":"內洞森林遊樂區收費站","LANDMARKAD":"1000129","ADDRESS":"新北市烏來區","TEL":"02-26617358","COUNTYNAME":"新北市","TOWNNAME":"烏來區","MARKTYPE":"995","Class":"5"}},{"type":"Feature","id":6362,"geometry":{"type":"Point","coordinates":[121.53502170482109,24.692417970427297]},"properties":{"OBJECTID":6362,"LANDMARKID":"1000100002536","LANDMARKCO":"503","LANDMARKNA":"松羅湖步道","LANDMARKAD":"1000129","ADDRESS":"新北市烏來區","TEL":" ","COUNTYNAME":"新北市","TOWNNAME":"烏來區","MARKTYPE":"995","Class":"5"}},{"type":"Feature","id":6363,"geometry":{"type":"Point","coordinates":[121.55191802563503,24.864781710230538]},"properties":{"OBJECTID":6363,"LANDMARKID":"1000100002721","LANDMARKCO":"511","LANDMARKNA":"烏來形象商圈","LANDMARKAD":"1000129","ADDRESS":"新北市烏來區","TEL":" ","COUNTYNAME":"新北市","TOWNNAME":"烏來區","MARKTYPE":"995","Class":"5"}},{"type":"Feature","id":6364,"geometry":{"type":"Point","coordinates":[121.52756928113944,24.827876892386875]},"properties":{"OBJECTID":6364,"LANDMARKID":"1000100002537","LANDMARKCO":"503","LANDMARKNA":"信賢瀑布","LANDMARKAD":"1000129","ADDRESS":"新北市烏來區信賢村","TEL":" ","COUNTYNAME":"新北市","TOWNNAME":"烏來區","MARKTYPE":"995","Class":"5"}},{"type":"Feature","id":6365,"geometry":{"type":"Point","coordinates":[121.52706647886841,24.827330336547774]},"properties":{"OBJECTID":6365,"LANDMARKID":"1000100002538","LANDMARKCO":"503","LANDMARKNA":"娃娃谷","LANDMARKAD":"1000129","ADDRESS":"新北市烏來區信賢村","TEL":" ","COUNTYNAME":"新北市","TOWNNAME":"烏來區","MARKTYPE":"995","Class":"5"}},{"type":"Feature","id":6366,"geometry":{"type":"Point","coordinates":[121.52612735653884,24.828138220255237]},"properties":{"OBJECTID":6366,"LANDMARKID":"1000100002540","LANDMARKCO":"504","LANDMARKNA":"內洞森林遊樂區","LANDMARKAD":"1000129","ADDRESS":"新北市烏來區信賢里","TEL":" ","COUNTYNAME":"新北市","TOWNNAME":"烏來區","MARKTYPE":"995","Class":"5"}},{"type":"Feature","id":6367,"geometry":{"type":"Point","coordinates":[121.54871758756515,24.865744210204149]},"properties":{"OBJECTID":6367,"LANDMARKID":"1000100002539","LANDMARKCO":"503","LANDMARKNA":"烏來風景特定區","LANDMARKAD":"1000129","ADDRESS":"新北市烏來區瀑布路34號","TEL":" ","COUNTYNAME":"新北市","TOWNNAME":"烏來區","MARKTYPE":"995","Class":"5"}},{"type":"Feature","id":6368,"geometry":{"type":"Point","coordinates":[121.51113945341069,25.107984627222798]},"properties":{"OBJECTID":6368,"LANDMARKID":"6300000002461","LANDMARKCO":"405","LANDMARKNA":"中油加油站-百齡四路站(自助加油)(中油直營)","LANDMARKAD":"6300012","ADDRESS":"台北市北投區承德路六段427號","TEL":"02-28201427","COUNTYNAME":"台北市","TOWNNAME":"北投區","MARKTYPE":"994","Class":"4"}},{"type":"Feature","id":6369,"geometry":{"type":"Point","coordinates":[121.50874359126314,25.112528967134498]},"properties":{"OBJECTID":6369,"LANDMARKID":"6300000002462","LANDMARKCO":"405","LANDMARKNA":"中油加油站-石牌站","LANDMARKAD":"6300012","ADDRESS":"台北市北投區承德路7段139號","TEL":"02-28206995","COUNTYNAME":"台北市","TOWNNAME":"北投區","MARKTYPE":"994","Class":"4"}},{"type":"Feature","id":6370,"geometry":{"type":"Point","coordinates":[121.46613387601992,25.126928439517744]},"properties":{"OBJECTID":6370,"LANDMARKID":"6300000002463","LANDMARKCO":"405","LANDMARKNA":"中油加油站-北投中央北路站(中油直營)","LANDMARKAD":"6300012","ADDRESS":"台北市北投區中央北路四段584號","TEL":"02-28913744","COUNTYNAME":"台北市","TOWNNAME":"北投區","MARKTYPE":"994","Class":"4"}},{"type":"Feature","id":6371,"geometry":{"type":"Point","coordinates":[121.50227994419939,25.119290214273089]},"properties":{"OBJECTID":6371,"LANDMARKID":"6300000002464","LANDMARKCO":"405","LANDMARKNA":"中油加油站-北投站(刷卡自助)(中油直營)","LANDMARKAD":"6300012","ADDRESS":"台北市北投區承德路七段384號","TEL":"02-28201203","COUNTYNAME":"台北市","TOWNNAME":"北投區","MARKTYPE":"994","Class":"4"}},{"type":"Feature","id":6372,"geometry":{"type":"Point","coordinates":[121.51248478497543,25.103920277931028]},"properties":{"OBJECTID":6372,"LANDMARKID":"6300000002465","LANDMARKCO":"405","LANDMARKNA":"中油加油站-同心站","LANDMARKAD":"6300012","ADDRESS":"台北市北投區承德路6段286號","TEL":"02-28286212","COUNTYNAME":"台北市","TOWNNAME":"北投區","MARKTYPE":"994","Class":"4"}},{"type":"Feature","id":6373,"geometry":{"type":"Point","coordinates":[121.49852948725503,25.12154715118977]},"properties":{"OBJECTID":6373,"LANDMARKID":"6300000002466","LANDMARKCO":"405","LANDMARKNA":"中油加油站-車容坊大業站","LANDMARKAD":"6300012","ADDRESS":"台北市北投區大度路2號","TEL":"02-28927890","COUNTYNAME":"台北市","TOWNNAME":"北投區","MARKTYPE":"994","Class":"4"}},{"type":"Feature","id":6374,"geometry":{"type":"Point","coordinates":[121.49869154813149,25.124479506846498]},"properties":{"OBJECTID":6374,"LANDMARKID":"6300000002467","LANDMARKCO":"405","LANDMARKNA":"中油加油站-關渡大業站","LANDMARKAD":"6300012","ADDRESS":"台北市北投區大業路157號","TEL":"02-28983720","COUNTYNAME":"台北市","TOWNNAME":"北投區","MARKTYPE":"994","Class":"4"}},{"type":"Feature","id":6375,"geometry":{"type":"Point","coordinates":[121.50010758127169,25.140560749905912]},"properties":{"OBJECTID":6375,"LANDMARKID":"6300000002273","LANDMARKCO":"402","LANDMARKNA":"My Phone台灣大哥大-北投\u2500中和(皇家)","LANDMARKAD":"6300012","ADDRESS":"台北市北投區中和街297號","TEL":"02-28952666","COUNTYNAME":"台北市","TOWNNAME":"北投區","MARKTYPE":"994","Class":"4"}},{"type":"Feature","id":6376,"geometry":{"type":"Point","coordinates":[121.50270386408836,25.135081244144864]},"properties":{"OBJECTID":6376,"LANDMARKID":"6300000002274","LANDMARKCO":"402","LANDMARKNA":"My Phone台灣大哥大-北投－光明","LANDMARKAD":"6300012","ADDRESS":"台北市北投區光明路166-2號","TEL":"02-66115678","COUNTYNAME":"台北市","TOWNNAME":"北投區","MARKTYPE":"994","Class":"4"}},{"type":"Feature","id":6377,"geometry":{"type":"Point","coordinates":[121.50347308202143,25.135762529235127]},"properties":{"OBJECTID":6377,"LANDMARKID":"6300000002275","LANDMARKCO":"402","LANDMARKNA":"亞太行動寬頻電信-北投光明加盟服務中心","LANDMARKAD":"6300012","ADDRESS":"台北市北投區光明路200號之2","TEL":"02-28932556","COUNTYNAME":"台北市","TOWNNAME":"北投區","MARKTYPE":"994","Class":"4"}},{"type":"Feature","id":6378,"geometry":{"type":"Point","coordinates":[121.52241120485267,25.117543363339355]},"properties":{"OBJECTID":6378,"LANDMARKID":"6300000002101","LANDMARKCO":"401","LANDMARKNA":"財國法人振興復健醫學中心","LANDMARKAD":"6300012","ADDRESS":"台北市北投區振興街45號","TEL":"02-28264400","COUNTYNAME":"台北市","TOWNNAME":"北投區","MARKTYPE":"994","Class":"4"}},{"type":"Feature","id":6379,"geometry":{"type":"Point","coordinates":[121.50120173458662,25.139731796686682]},"properties":{"OBJECTID":6379,"LANDMARKID":"6300000002102","LANDMARKCO":"401","LANDMARKNA":"國軍北投醫院門診處","LANDMARKAD":"6300012","ADDRESS":"台北市北投區中和街250號1樓","TEL":"02-28935869","COUNTYNAME":"台北市","TOWNNAME":"北投區","MARKTYPE":"994","Class":"4"}},{"type":"Feature","id":6380,"geometry":{"type":"Point","coordinates":[121.46636462134396,25.120178786164931]},"properties":{"OBJECTID":6380,"LANDMARKID":"6300000002103","LANDMARKCO":"401","LANDMARKNA":"台北市立關渡醫院","LANDMARKAD":"6300012","ADDRESS":"台北市北投區知行路225巷12號","TEL":"02-28557000","COUNTYNAME":"台北市","TOWNNAME":"北投區","MARKTYPE":"994","Class":"4"}},{"type":"Feature","id":6381,"geometry":{"type":"Point","coordinates":[121.50969349951657,25.139973057752972]},"properties":{"OBJECTID":6381,"LANDMARKID":"6300000002104","LANDMARKCO":"401","LANDMARKNA":"國軍北投醫院","LANDMARKAD":"6300012","ADDRESS":"台北市北投區新民路60號","TEL":"02-28959808","COUNTYNAME":"台北市","TOWNNAME":"北投區","MARKTYPE":"994","Class":"4"}},{"type":"Feature","id":6382,"geometry":{"type":"Point","coordinates":[121.51918249792315,25.119180673503294]},"properties":{"OBJECTID":6382,"LANDMARKID":"6300000002105","LANDMARKCO":"401","LANDMARKNA":"台北榮民總醫院","LANDMARKAD":"6300012","ADDRESS":"台北市北投區石牌路二段201號","TEL":"02-28712121","COUNTYNAME":"台北市","TOWNNAME":"北投區","MARKTYPE":"994","Class":"4"}},{"type":"Feature","id":6383,"geometry":{"type":"Point","coordinates":[121.47201784148106,25.128330856659868]},"properties":{"OBJECTID":6383,"LANDMARKID":"6300000002106","LANDMARKCO":"401","LANDMARKNA":"醫療財團法人辜公亮基金會和信治癌中心","LANDMARKAD":"6300012","ADDRESS":"台北市北投區立德路125號","TEL":"02-28970011","COUNTYNAME":"台北市","TOWNNAME":"北投區","MARKTYPE":"994","Class":"4"}},{"type":"Feature","id":6384,"geometry":{"type":"Point","coordinates":[121.50964932173095,25.135833688047281]},"properties":{"OBJECTID":6384,"LANDMARKID":"6300000003261","LANDMARKCO":"508","LANDMARKNA":"北投溫泉區","LANDMARKAD":"6300012","ADDRESS":"台北市北投區","TEL":" ","COUNTYNAME":"台北市","TOWNNAME":"北投區","MARKTYPE":"995","Class":"5"}},{"type":"Feature","id":6385,"geometry":{"type":"Point","coordinates":[121.51439140008674,25.13722768658652]},"properties":{"OBJECTID":6385,"LANDMARKID":"6300000003603","LANDMARKCO":"603","LANDMARKNA":"吟松閣溫泉旅館","LANDMARKAD":"6300012","ADDRESS":"台北市北投區幽雅路21號","TEL":" ","COUNTYNAME":"台北市","TOWNNAME":"北投區","MARKTYPE":"996","Class":"6"}},{"type":"Feature","id":6386,"geometry":{"type":"Point","coordinates":[121.50760378808546,25.136730158762795]},"properties":{"OBJECTID":6386,"LANDMARKID":"6300000003181","LANDMARKCO":"507","LANDMARKNA":"北投溫泉浴場","LANDMARKAD":"6300012","ADDRESS":"台北市北投區中山路2號","TEL":" ","COUNTYNAME":"台北市","TOWNNAME":"北投區","MARKTYPE":"995","Class":"5"}},{"type":"Feature","id":6387,"geometry":{"type":"Point","coordinates":[121.50822052751676,25.137467820517397]},"properties":{"OBJECTID":6387,"LANDMARKID":"6300000003182","LANDMARKCO":"507","LANDMARKNA":"北投不動明王石窟","LANDMARKAD":"6300012","ADDRESS":"台北市北投區幽雅路杏林巷2號對面","TEL":" ","COUNTYNAME":"台北市","TOWNNAME":"北投區","MARKTYPE":"995","Class":"5"}},{"type":"Feature","id":6388,"geometry":{"type":"Point","coordinates":[121.51478934430408,25.13815016488206]},"properties":{"OBJECTID":6388,"LANDMARKID":"6300000003183","LANDMARKCO":"507","LANDMARKNA":"北投文物館","LANDMARKAD":"6300012","ADDRESS":"台北市北投區幽雅路32號","TEL":" ","COUNTYNAME":"台北市","TOWNNAME":"北投區","MARKTYPE":"995","Class":"5"}},{"type":"Feature","id":6389,"geometry":{"type":"Point","coordinates":[121.51176496197604,25.136546546835824]},"properties":{"OBJECTID":6389,"LANDMARKID":"6300000003184","LANDMARKCO":"507","LANDMARKNA":"北投台灣銀行舊宿舍","LANDMARKAD":"6300012","ADDRESS":"台北市北投區溫泉路103號","TEL":" ","COUNTYNAME":"台北市","TOWNNAME":"北投區","MARKTYPE":"995","Class":"5"}},{"type":"Feature","id":6390,"geometry":{"type":"Point","coordinates":[121.51121798711071,25.135984208462453]},"properties":{"OBJECTID":6390,"LANDMARKID":"6300000003185","LANDMARKCO":"507","LANDMARKNA":"北投普濟寺","LANDMARKAD":"6300012","ADDRESS":"台北市北投區溫泉路112號","TEL":" ","COUNTYNAME":"台北市","TOWNNAME":"北投區","MARKTYPE":"995","Class":"5"}},{"type":"Feature","id":6391,"geometry":{"type":"Point","coordinates":[121.51431731016002,25.137213238102987]},"properties":{"OBJECTID":6391,"LANDMARKID":"6300000003186","LANDMARKCO":"507","LANDMARKNA":"吟松閣","LANDMARKAD":"6300012","ADDRESS":"台北市北投區幽雅路21號","TEL":" ","COUNTYNAME":"台北市","TOWNNAME":"北投區","MARKTYPE":"995","Class":"5"}},{"type":"Feature","id":6392,"geometry":{"type":"Point","coordinates":[121.50138919682821,25.131309479938]},"properties":{"OBJECTID":6392,"LANDMARKID":"6300000003187","LANDMARKCO":"507","LANDMARKNA":"長老教會北投教堂","LANDMARKAD":"6300012","ADDRESS":"台北市北投區中央南路一段77號","TEL":" ","COUNTYNAME":"台北市","TOWNNAME":"北投區","MARKTYPE":"995","Class":"5"}},{"type":"Feature","id":6393,"geometry":{"type":"Point","coordinates":[121.50967403543999,25.139998804808858]},"properties":{"OBJECTID":6393,"LANDMARKID":"6300000003188","LANDMARKCO":"507","LANDMARKNA":"前日軍衛戍醫北投分館","LANDMARKAD":"6300012","ADDRESS":"台北市北投區新民路60號","TEL":" ","COUNTYNAME":"台北市","TOWNNAME":"北投區","MARKTYPE":"995","Class":"5"}},{"type":"Feature","id":6394,"geometry":{"type":"Point","coordinates":[121.54908576791937,25.150612300823099]},"properties":{"OBJECTID":6394,"LANDMARKID":"6300000003189","LANDMARKCO":"507","LANDMARKNA":"草山教師研習中心","LANDMARKAD":"6300012","ADDRESS":"台北市北投區陽明山建國街2號","TEL":" ","COUNTYNAME":"台北市","TOWNNAME":"北投區","MARKTYPE":"995","Class":"5"}},{"type":"Feature","id":6395,"geometry":{"type":"Point","coordinates":[121.54698513301258,25.15563370477151]},"properties":{"OBJECTID":6395,"LANDMARKID":"6300000003114","LANDMARKCO":"502","LANDMARKNA":"陽明山國家公園","LANDMARKAD":"6300012","ADDRESS":"台北市北投區竹子湖路1之20號","TEL":"02-28613601","COUNTYNAME":"台北市","TOWNNAME":"北投區","MARKTYPE":"995","Class":"5"}},{"type":"Feature","id":6396,"geometry":{"type":"Point","coordinates":[121.54066530089486,25.162667601175727]},"properties":{"OBJECTID":6396,"LANDMARKID":"6300000003178","LANDMARKCO":"507","LANDMARKNA":"陽明書屋","LANDMARKAD":"6300012","ADDRESS":"台北市萬華區環河南路二段93號","TEL":" ","COUNTYNAME":"台北市","TOWNNAME":"北投區","MARKTYPE":"995","Class":"5"}},{"type":"Feature","id":6397,"geometry":{"type":"Point","coordinates":[121.54654802751018,25.155642884026559]},"properties":{"OBJECTID":6397,"LANDMARKID":"6300000003361","LANDMARKCO":"512","LANDMARKNA":"陽明山國家公園管理處","LANDMARKAD":"6300012","ADDRESS":"台北市陽明山竹子湖路1之20號","TEL":"02-28613601","COUNTYNAME":"台北市","TOWNNAME":"北投區","MARKTYPE":"995","Class":"5"}},{"type":"Feature","id":6398,"geometry":{"type":"Point","coordinates":[121.52642208397967,25.143201771042989]},"properties":{"OBJECTID":6398,"LANDMARKID":"6300000003362","LANDMARKCO":"512","LANDMARKNA":"龍鳳谷地熱景觀區旅遊服務中心","LANDMARKAD":"6300012","ADDRESS":"台北市北投區行義路","TEL":"02-28935580","COUNTYNAME":"台北市","TOWNNAME":"北投區","MARKTYPE":"995","Class":"5"}},{"type":"Feature","id":6399,"geometry":{"type":"Point","coordinates":[121.49715736934472,25.134134765509089]},"properties":{"OBJECTID":6399,"LANDMARKID":"6300000003179","LANDMARKCO":"507","LANDMARKNA":"周氏節孝坊","LANDMARKAD":"6300012","ADDRESS":"台北市北投區豐年路一段36號門口","TEL":" ","COUNTYNAME":"台北市","TOWNNAME":"北投區","MARKTYPE":"995","Class":"5"}},{"type":"Feature","id":6400,"geometry":{"type":"Point","coordinates":[121.49891139072729,25.13665494473052]},"properties":{"OBJECTID":6400,"LANDMARKID":"6300000003180","LANDMARKCO":"507","LANDMARKNA":"北投穀倉","LANDMARKAD":"6300012","ADDRESS":"台北市北投區大同街一段153號","TEL":" ","COUNTYNAME":"台北市","TOWNNAME":"北投區","MARKTYPE":"995","Class":"5"}}]}