{"type":"FeatureCollection","features":[{"type":"Feature","id":26201,"geometry":{"type":"Point","coordinates":[120.29255559557555,23.459106545386515]},"properties":{"OBJECTID":26201,"LANDMARKID":"1001000000046","LANDMARKCO":"103","LANDMARKNA":"嘉義縣政府民政局","LANDMARKAD":"1001001","ADDRESS":"嘉義縣太保市東勢里祥和新村祥和一路東段1號","TEL":"05-3620123#428","COUNTYNAME":"嘉義縣","TOWNNAME":"太保市","MARKTYPE":"991","Class":"1"}},{"type":"Feature","id":26202,"geometry":{"type":"Point","coordinates":[120.29192616961961,23.4584687376848]},"properties":{"OBJECTID":26202,"LANDMARKID":"1001000000004","LANDMARKCO":"101","LANDMARKNA":"職業訓練局朴子就業服務站","LANDMARKAD":"1001001","ADDRESS":"嘉義縣朴子市嘉朴路西段87及89號","TEL":"05-3621632-3","COUNTYNAME":"嘉義縣","TOWNNAME":"太保市","MARKTYPE":"991","Class":"1"}},{"type":"Feature","id":26203,"geometry":{"type":"Point","coordinates":[120.36275319073292,23.508706935990457]},"properties":{"OBJECTID":26203,"LANDMARKID":"1001000000005","LANDMARKCO":"101","LANDMARKNA":"工業局嘉太工業區服務中心","LANDMARKAD":"1001001","ADDRESS":"嘉義縣太保市嘉太工業區中興路1號","TEL":"05-2373248","COUNTYNAME":"嘉義縣","TOWNNAME":"太保市","MARKTYPE":"991","Class":"1"}},{"type":"Feature","id":26204,"geometry":{"type":"Point","coordinates":[120.33166642314147,23.455830544017267]},"properties":{"OBJECTID":26204,"LANDMARKID":"1001000000461","LANDMARKCO":"204","LANDMARKNA":"嘉義縣立圖書館太保分館","LANDMARKAD":"1001001","ADDRESS":"嘉義縣太保市太保里31號","TEL":" ","COUNTYNAME":"嘉義縣","TOWNNAME":"太保市","MARKTYPE":"992","Class":"2"}},{"type":"Feature","id":26205,"geometry":{"type":"Point","coordinates":[120.37874183618116,23.500060675381608]},"properties":{"OBJECTID":26205,"LANDMARKID":"1001000000266","LANDMARKCO":"203","LANDMARKNA":"縣立嘉新國中","LANDMARKAD":"1001001","ADDRESS":"嘉義縣太保市中山路一段586巷7號","TEL":"05-2381479","COUNTYNAME":"嘉義縣","TOWNNAME":"太保市","MARKTYPE":"992","Class":"2"}},{"type":"Feature","id":26206,"geometry":{"type":"Point","coordinates":[120.38370992042682,23.497068317995737]},"properties":{"OBJECTID":26206,"LANDMARKID":"1001000000267","LANDMARKCO":"203","LANDMARKNA":"縣立南新國小","LANDMARKAD":"1001001","ADDRESS":"嘉義縣太保市中山路一段140號","TEL":"05-2373005","COUNTYNAME":"嘉義縣","TOWNNAME":"太保市","MARKTYPE":"992","Class":"2"}},{"type":"Feature","id":26207,"geometry":{"type":"Point","coordinates":[120.35292051192998,23.491267420071551]},"properties":{"OBJECTID":26207,"LANDMARKID":"1001000000268","LANDMARKCO":"203","LANDMARKNA":"縣立新埤國小瓦厝分班","LANDMARKAD":"1001001","ADDRESS":"嘉義縣太保市過溝里瓦厝25號","TEL":"05-3611506","COUNTYNAME":"嘉義縣","TOWNNAME":"太保市","MARKTYPE":"992","Class":"2"}},{"type":"Feature","id":26208,"geometry":{"type":"Point","coordinates":[120.29168397806718,23.451526906212202]},"properties":{"OBJECTID":26208,"LANDMARKID":"1001000000221","LANDMARKCO":"201","LANDMARKNA":"大同技術學院太保校區","LANDMARKAD":"1001001","ADDRESS":"嘉義縣太保市學府路一段30號","TEL":"05-3621100","COUNTYNAME":"嘉義縣","TOWNNAME":"太保市","MARKTYPE":"992","Class":"2"}},{"type":"Feature","id":26209,"geometry":{"type":"Point","coordinates":[120.36827746320229,23.500248784529255]},"properties":{"OBJECTID":26209,"LANDMARKID":"1001000000261","LANDMARKCO":"203","LANDMARKNA":"縣立南新國小麻寮分班","LANDMARKAD":"1001001","ADDRESS":"嘉義縣太保市麻寮里中山路二段","TEL":"05-2373415","COUNTYNAME":"嘉義縣","TOWNNAME":"太保市","MARKTYPE":"992","Class":"2"}},{"type":"Feature","id":26210,"geometry":{"type":"Point","coordinates":[120.32931964023095,23.455298465915217]},"properties":{"OBJECTID":26210,"LANDMARKID":"1001000000262","LANDMARKCO":"203","LANDMARKNA":"縣立太保國中","LANDMARKAD":"1001001","ADDRESS":"嘉義縣太保市太保里36號","TEL":"05-3714329","COUNTYNAME":"嘉義縣","TOWNNAME":"太保市","MARKTYPE":"992","Class":"2"}},{"type":"Feature","id":26211,"geometry":{"type":"Point","coordinates":[120.30795779663229,23.458550177185813]},"properties":{"OBJECTID":26211,"LANDMARKID":"1001000000263","LANDMARKCO":"203","LANDMARKNA":"縣立安東國小","LANDMARKAD":"1001001","ADDRESS":"嘉義縣太保市崙頂村1號","TEL":"05-3714068","COUNTYNAME":"嘉義縣","TOWNNAME":"太保市","MARKTYPE":"992","Class":"2"}},{"type":"Feature","id":26212,"geometry":{"type":"Point","coordinates":[120.33407649554732,23.485203931952185]},"properties":{"OBJECTID":26212,"LANDMARKID":"1001000000264","LANDMARKCO":"203","LANDMARKNA":"縣立新埤國小","LANDMARKAD":"1001001","ADDRESS":"嘉義縣太保市新埤村214號","TEL":"05-3611075","COUNTYNAME":"嘉義縣","TOWNNAME":"太保市","MARKTYPE":"992","Class":"2"}},{"type":"Feature","id":26213,"geometry":{"type":"Point","coordinates":[120.3307718389009,23.454937794197768]},"properties":{"OBJECTID":26213,"LANDMARKID":"1001000000265","LANDMARKCO":"203","LANDMARKNA":"縣立太保國小","LANDMARKAD":"1001001","ADDRESS":"嘉義縣太保市太保村31號","TEL":"05-3711178","COUNTYNAME":"嘉義縣","TOWNNAME":"太保市","MARKTYPE":"992","Class":"2"}},{"type":"Feature","id":26214,"geometry":{"type":"Point","coordinates":[120.32339319835428,23.459013467948129]},"properties":{"OBJECTID":26214,"LANDMARKID":"1001000000529","LANDMARKCO":"307","LANDMARKNA":"高鐵嘉義站(太保站)-出口1","LANDMARKAD":"1001001","ADDRESS":" ","TEL":" ","COUNTYNAME":"嘉義縣","TOWNNAME":"太保市","MARKTYPE":"993","Class":"307"}},{"type":"Feature","id":26215,"geometry":{"type":"Point","coordinates":[120.32280630001159,23.458801052207445]},"properties":{"OBJECTID":26215,"LANDMARKID":"1001000000530","LANDMARKCO":"307","LANDMARKNA":"高鐵嘉義站(太保站)-出口2","LANDMARKAD":"1001001","ADDRESS":" ","TEL":" ","COUNTYNAME":"嘉義縣","TOWNNAME":"太保市","MARKTYPE":"993","Class":"307"}},{"type":"Feature","id":26216,"geometry":{"type":"Point","coordinates":[120.32288238292796,23.459687547496568]},"properties":{"OBJECTID":26216,"LANDMARKID":"1001000000531","LANDMARKCO":"307","LANDMARKNA":"高鐵嘉義站(太保站)-出口3","LANDMARKAD":"1001001","ADDRESS":" ","TEL":" ","COUNTYNAME":"嘉義縣","TOWNNAME":"太保市","MARKTYPE":"993","Class":"307"}},{"type":"Feature","id":26217,"geometry":{"type":"Point","coordinates":[120.32340956096172,23.459412550290288]},"properties":{"OBJECTID":26217,"LANDMARKID":"1001000000532","LANDMARKCO":"307","LANDMARKNA":"高鐵嘉義站(太保站)-出口4","LANDMARKAD":"1001001","ADDRESS":" ","TEL":" ","COUNTYNAME":"嘉義縣","TOWNNAME":"太保市","MARKTYPE":"993","Class":"307"}},{"type":"Feature","id":26218,"geometry":{"type":"Point","coordinates":[120.29731721431415,23.459351015890586]},"properties":{"OBJECTID":26218,"LANDMARKID":"1001000000490","LANDMARKCO":"302","LANDMARKNA":"統聯客運-嘉義縣府站-代售處","LANDMARKAD":"1001001","ADDRESS":"嘉義縣太保市嘉朴東路一段64號","TEL":"連絡電話:05-362","COUNTYNAME":"嘉義縣","TOWNNAME":"太保市","MARKTYPE":"993","Class":"302"}},{"type":"Feature","id":26219,"geometry":{"type":"Point","coordinates":[120.29351990653734,23.459478489868808]},"properties":{"OBJECTID":26219,"LANDMARKID":"1001000000497","LANDMARKCO":"303","LANDMARKNA":"嘉義縣政府地下停車場","LANDMARKAD":"1001001","ADDRESS":"嘉義縣太保市祥和一路東段","TEL":" ","COUNTYNAME":"嘉義縣","TOWNNAME":"太保市","MARKTYPE":"993","Class":"303"}},{"type":"Feature","id":26220,"geometry":{"type":"Point","coordinates":[120.33975444493083,23.452525733731882]},"properties":{"OBJECTID":26220,"LANDMARKID":"1001000000571","LANDMARKCO":"402","LANDMARKNA":"中華電信-太保服務中心","LANDMARKAD":"1001001","ADDRESS":"嘉義縣太保市後潭里376號","TEL":"(05)344-1951","COUNTYNAME":"嘉義縣","TOWNNAME":"太保市","MARKTYPE":"994","Class":"4"}},{"type":"Feature","id":26221,"geometry":{"type":"Point","coordinates":[120.37625232508954,23.498328977245311]},"properties":{"OBJECTID":26221,"LANDMARKID":"1001000000853","LANDMARKCO":"603","LANDMARKNA":"佳仕堡商務汽車飯店","LANDMARKAD":"1001001","ADDRESS":"嘉義縣太保市北港路二段218號","TEL":"05-2375311","COUNTYNAME":"嘉義縣","TOWNNAME":"太保市","MARKTYPE":"996","Class":"6"}},{"type":"Feature","id":26222,"geometry":{"type":"Point","coordinates":[120.29557182835342,23.45341445311109]},"properties":{"OBJECTID":26222,"LANDMARKID":"1001000000854","LANDMARKCO":"603","LANDMARKNA":"向日葵汽車旅館","LANDMARKAD":"1001001","ADDRESS":"嘉義縣太保市縣府六街29號","TEL":"05-5863676","COUNTYNAME":"嘉義縣","TOWNNAME":"太保市","MARKTYPE":"996","Class":"6"}},{"type":"Feature","id":26223,"geometry":{"type":"Point","coordinates":[120.38702274238224,23.496689646922178]},"properties":{"OBJECTID":26223,"LANDMARKID":"1001000000802","LANDMARKCO":"505","LANDMARKNA":"大嘉義主題樂園","LANDMARKAD":"1001001","ADDRESS":"嘉義縣太保市南新里中山路一段64號","TEL":" ","COUNTYNAME":"嘉義縣","TOWNNAME":"太保市","MARKTYPE":"995","Class":"5"}},{"type":"Feature","id":26224,"geometry":{"type":"Point","coordinates":[120.38373434876154,23.496809458712807]},"properties":{"OBJECTID":26224,"LANDMARKID":"1001000000803","LANDMARKCO":"505","LANDMARKNA":"藝都表演村","LANDMARKAD":"1001001","ADDRESS":"嘉義縣太保市中山路一段64號","TEL":" ","COUNTYNAME":"嘉義縣","TOWNNAME":"太保市","MARKTYPE":"995","Class":"5"}},{"type":"Feature","id":26225,"geometry":{"type":"Point","coordinates":[120.15733554627582,23.462550985875076]},"properties":{"OBJECTID":26225,"LANDMARKID":"1001000000609","LANDMARKCO":"405","LANDMARKNA":"中油加油站-東石站(中油直營)","LANDMARKAD":"1001009","ADDRESS":"嘉義縣東石鄉東石村4-1號","TEL":"05-3732760","COUNTYNAME":"嘉義縣","TOWNNAME":"東石鄉","MARKTYPE":"994","Class":"4"}},{"type":"Feature","id":26226,"geometry":{"type":"Point","coordinates":[120.16333032153727,23.419860596790009]},"properties":{"OBJECTID":26226,"LANDMARKID":"1001000000610","LANDMARKCO":"405","LANDMARKNA":"中油加油站-掌潭站","LANDMARKAD":"1001009","ADDRESS":"嘉義縣東石鄉掌潭村9之66號","TEL":"05-3454047","COUNTYNAME":"嘉義縣","TOWNNAME":"東石鄉","MARKTYPE":"994","Class":"4"}},{"type":"Feature","id":26227,"geometry":{"type":"Point","coordinates":[120.19887781242886,23.4596241643751]},"properties":{"OBJECTID":26227,"LANDMARKID":"1001000000611","LANDMARKCO":"405","LANDMARKNA":"台糖加油站-惠生站(中油)","LANDMARKAD":"1001009","ADDRESS":"嘉義縣東石鄉圍潭村14鄰雙連潭59之3號","TEL":" ","COUNTYNAME":"嘉義縣","TOWNNAME":"東石鄉","MARKTYPE":"994","Class":"4"}},{"type":"Feature","id":26228,"geometry":{"type":"Point","coordinates":[120.15048309915336,23.455852700265282]},"properties":{"OBJECTID":26228,"LANDMARKID":"1001000000721","LANDMARKCO":"408","LANDMARKNA":"郵局-東石郵局","LANDMARKAD":"1001009","ADDRESS":"嘉義縣東石鄉東石村34號","TEL":"(05)3732-224","COUNTYNAME":"嘉義縣","TOWNNAME":"東石鄉","MARKTYPE":"994","Class":"4"}},{"type":"Feature","id":26229,"geometry":{"type":"Point","coordinates":[120.21546176711259,23.462867265279765]},"properties":{"OBJECTID":26229,"LANDMARKID":"1001000000774","LANDMARKCO":"409","LANDMARKNA":"嘉義縣東石鄉農會","LANDMARKAD":"1001009","ADDRESS":"嘉義縣東石鄉港漧村60號","TEL":"05-3799174","COUNTYNAME":"嘉義縣","TOWNNAME":"東石鄉","MARKTYPE":"994","Class":"4"}},{"type":"Feature","id":26230,"geometry":{"type":"Point","coordinates":[120.19519279869593,23.439738194867743]},"properties":{"OBJECTID":26230,"LANDMARKID":"1001000000602","LANDMARKCO":"404","LANDMARKNA":"台灣省自來水東石營運所","LANDMARKAD":"1001009","ADDRESS":"嘉義縣東石鄉東崙村中洲29之2號","TEL":" ","COUNTYNAME":"嘉義縣","TOWNNAME":"東石鄉","MARKTYPE":"994","Class":"4"}},{"type":"Feature","id":26231,"geometry":{"type":"Point","coordinates":[120.15365322696476,23.458198497833084]},"properties":{"OBJECTID":26231,"LANDMARKID":"1001000000716","LANDMARKCO":"406","LANDMARKNA":"東石觀海公園","LANDMARKAD":"1001009","ADDRESS":"嘉義縣東石鄉","TEL":" ","COUNTYNAME":"嘉義縣","TOWNNAME":"東石鄉","MARKTYPE":"994","Class":"4"}},{"type":"Feature","id":26232,"geometry":{"type":"Point","coordinates":[120.15025452165594,23.455528214519969]},"properties":{"OBJECTID":26232,"LANDMARKID":"1001000000089","LANDMARKCO":"106","LANDMARKNA":"嘉義縣東石鄉戶政事務所","LANDMARKAD":"1001009","ADDRESS":"嘉義縣東石鄉東石村14鄰東石36號之1","TEL":"05-3732355","COUNTYNAME":"嘉義縣","TOWNNAME":"東石鄉","MARKTYPE":"991","Class":"1"}},{"type":"Feature","id":26233,"geometry":{"type":"Point","coordinates":[120.15067600813627,23.455869991079862]},"properties":{"OBJECTID":26233,"LANDMARKID":"1001000000041","LANDMARKCO":"103","LANDMARKNA":"嘉義縣東石鄉衛生所","LANDMARKAD":"1001009","ADDRESS":"嘉義縣東石鄉東石村3之2號","TEL":"05-3732340","COUNTYNAME":"嘉義縣","TOWNNAME":"東石鄉","MARKTYPE":"991","Class":"1"}},{"type":"Feature","id":26234,"geometry":{"type":"Point","coordinates":[120.15553353137423,23.459338867616275]},"properties":{"OBJECTID":26234,"LANDMARKID":"1001000000218","LANDMARKCO":"108","LANDMARKNA":"嘉義縣東石鄉公所","LANDMARKAD":"1001009","ADDRESS":"嘉義縣東石鄉東石村3號","TEL":"05-3732201","COUNTYNAME":"嘉義縣","TOWNNAME":"東石鄉","MARKTYPE":"991","Class":"1"}},{"type":"Feature","id":26235,"geometry":{"type":"Point","coordinates":[120.19157582199216,23.43307210705893]},"properties":{"OBJECTID":26235,"LANDMARKID":"1001000000103","LANDMARKCO":"107","LANDMARKNA":"嘉義縣警察局龍崗派出所","LANDMARKAD":"1001009","ADDRESS":"嘉義縣東石鄉東崙村62號","TEL":"05-3451740","COUNTYNAME":"嘉義縣","TOWNNAME":"東石鄉","MARKTYPE":"991","Class":"1"}},{"type":"Feature","id":26236,"geometry":{"type":"Point","coordinates":[120.19673731176515,23.487183892763465]},"properties":{"OBJECTID":26236,"LANDMARKID":"1001000000104","LANDMARKCO":"107","LANDMARKNA":"嘉義縣警察局下楫派出所","LANDMARKAD":"1001009","ADDRESS":"嘉義縣東石鄉下揖村137號","TEL":"05-3601849","COUNTYNAME":"嘉義縣","TOWNNAME":"東石鄉","MARKTYPE":"991","Class":"1"}},{"type":"Feature","id":26237,"geometry":{"type":"Point","coordinates":[120.17305075715458,23.472785890098862]},"properties":{"OBJECTID":26237,"LANDMARKID":"1001000000105","LANDMARKCO":"107","LANDMARKNA":"嘉義縣警察局三江派出所","LANDMARKAD":"1001009","ADDRESS":"嘉義縣東石鄉三家村1號","TEL":"05-3732501","COUNTYNAME":"嘉義縣","TOWNNAME":"東石鄉","MARKTYPE":"991","Class":"1"}},{"type":"Feature","id":26238,"geometry":{"type":"Point","coordinates":[120.15002432868407,23.45631438435111]},"properties":{"OBJECTID":26238,"LANDMARKID":"1001000000106","LANDMARKCO":"107","LANDMARKNA":"嘉義縣警察局東石分駐所","LANDMARKAD":"1001009","ADDRESS":"嘉義縣東石鄉東石村36號","TEL":"05-3732240","COUNTYNAME":"嘉義縣","TOWNNAME":"東石鄉","MARKTYPE":"991","Class":"1"}},{"type":"Feature","id":26239,"geometry":{"type":"Point","coordinates":[120.21233444049244,23.462155541850223]},"properties":{"OBJECTID":26239,"LANDMARKID":"1001000000107","LANDMARKCO":"107","LANDMARKNA":"嘉義縣警察局港墘派出所","LANDMARKAD":"1001009","ADDRESS":"嘉義縣東石鄉港墘村91號","TEL":"05-3793564","COUNTYNAME":"嘉義縣","TOWNNAME":"東石鄉","MARKTYPE":"991","Class":"1"}},{"type":"Feature","id":26240,"geometry":{"type":"Point","coordinates":[120.15015039580319,23.456406056287893]},"properties":{"OBJECTID":26240,"LANDMARKID":"1001000000108","LANDMARKCO":"107","LANDMARKNA":"嘉義縣消防局東石消防分隊","LANDMARKAD":"1001009","ADDRESS":"嘉義縣東石鄉東石村43號","TEL":"05-3732502","COUNTYNAME":"嘉義縣","TOWNNAME":"東石鄉","MARKTYPE":"991","Class":"1"}},{"type":"Feature","id":26241,"geometry":{"type":"Point","coordinates":[120.15619912267682,23.459331009017177]},"properties":{"OBJECTID":26241,"LANDMARKID":"1001000000042","LANDMARKCO":"103","LANDMARKNA":"嘉義縣東石鄉鄉民代表會","LANDMARKAD":"1001009","ADDRESS":"嘉義縣東石鄉東石村3號之6","TEL":"05-3732209","COUNTYNAME":"嘉義縣","TOWNNAME":"東石鄉","MARKTYPE":"991","Class":"1"}},{"type":"Feature","id":26242,"geometry":{"type":"Point","coordinates":[120.13961413519935,23.451746467213521]},"properties":{"OBJECTID":26242,"LANDMARKID":"1001000000043","LANDMARKCO":"103","LANDMARKNA":"嘉義縣政府東石漁港管理站","LANDMARKAD":"1001009","ADDRESS":"嘉義縣東石鄉東石村300號","TEL":"05-3730275","COUNTYNAME":"嘉義縣","TOWNNAME":"東石鄉","MARKTYPE":"991","Class":"1"}},{"type":"Feature","id":26243,"geometry":{"type":"Point","coordinates":[120.15289884486897,23.458548166806455]},"properties":{"OBJECTID":26243,"LANDMARKID":"1001000000459","LANDMARKCO":"204","LANDMARKNA":"嘉義縣立圖書館東石分館","LANDMARKAD":"1001009","ADDRESS":"嘉義縣東石鄉東石村11鄰3號","TEL":" ","COUNTYNAME":"嘉義縣","TOWNNAME":"東石鄉","MARKTYPE":"992","Class":"2"}},{"type":"Feature","id":26244,"geometry":{"type":"Point","coordinates":[120.22480125372361,23.465749668291878]},"properties":{"OBJECTID":26244,"LANDMARKID":"1001000000241","LANDMARKCO":"202","LANDMARKNA":"私立嘉南高中","LANDMARKAD":"1001009","ADDRESS":"嘉義縣東石鄉蔦松村湖底路1號","TEL":"05-3703588","COUNTYNAME":"嘉義縣","TOWNNAME":"東石鄉","MARKTYPE":"992","Class":"2"}},{"type":"Feature","id":26245,"geometry":{"type":"Point","coordinates":[120.16055955090675,23.508738842409482]},"properties":{"OBJECTID":26245,"LANDMARKID":"1001000000271","LANDMARKCO":"203","LANDMARKNA":"縣立下楫國小鰲鼓分校","LANDMARKAD":"1001009","ADDRESS":"嘉義縣東石鄉鰲鼓村四股17號","TEL":"05-3602550","COUNTYNAME":"嘉義縣","TOWNNAME":"東石鄉","MARKTYPE":"992","Class":"2"}},{"type":"Feature","id":26246,"geometry":{"type":"Point","coordinates":[120.18312748708152,23.422192142884846]},"properties":{"OBJECTID":26246,"LANDMARKID":"1001000000272","LANDMARKCO":"203","LANDMARKNA":"縣立過溝國中","LANDMARKAD":"1001009","ADDRESS":"嘉義縣布袋鎮中安里","TEL":"05-3451091","COUNTYNAME":"嘉義縣","TOWNNAME":"東石鄉","MARKTYPE":"992","Class":"2"}},{"type":"Feature","id":26247,"geometry":{"type":"Point","coordinates":[120.1726238235705,23.46221680223773]},"properties":{"OBJECTID":26247,"LANDMARKID":"1001000000273","LANDMARKCO":"203","LANDMARKNA":"縣立東榮國中","LANDMARKAD":"1001009","ADDRESS":"嘉義縣東石鄉永屯村39之2號","TEL":"05-3733803","COUNTYNAME":"嘉義縣","TOWNNAME":"東石鄉","MARKTYPE":"992","Class":"2"}},{"type":"Feature","id":26248,"geometry":{"type":"Point","coordinates":[120.17729167078059,23.484464175264719]},"properties":{"OBJECTID":26248,"LANDMARKID":"1001000000274","LANDMARKCO":"203","LANDMARKNA":"縣立龍港國小","LANDMARKAD":"1001009","ADDRESS":"嘉義縣東石鄉龍港村113號","TEL":"05-3732671","COUNTYNAME":"嘉義縣","TOWNNAME":"東石鄉","MARKTYPE":"992","Class":"2"}},{"type":"Feature","id":26249,"geometry":{"type":"Point","coordinates":[120.15398091169594,23.460586219901963]},"properties":{"OBJECTID":26249,"LANDMARKID":"1001000000275","LANDMARKCO":"203","LANDMARKNA":"縣立東石國小","LANDMARKAD":"1001009","ADDRESS":"嘉義縣東石鄉猿樹村117號","TEL":"05-3732295","COUNTYNAME":"嘉義縣","TOWNNAME":"東石鄉","MARKTYPE":"992","Class":"2"}},{"type":"Feature","id":26250,"geometry":{"type":"Point","coordinates":[120.18303215916272,23.436096755899641]},"properties":{"OBJECTID":26250,"LANDMARKID":"1001000000276","LANDMARKCO":"203","LANDMARKNA":"縣立龍崗國小","LANDMARKAD":"1001009","ADDRESS":"嘉義縣東石鄉西崙村131號","TEL":"05-3451070","COUNTYNAME":"嘉義縣","TOWNNAME":"東石鄉","MARKTYPE":"992","Class":"2"}},{"type":"Feature","id":26251,"geometry":{"type":"Point","coordinates":[120.18693867600857,23.492272399898088]},"properties":{"OBJECTID":26251,"LANDMARKID":"1001000000277","LANDMARKCO":"203","LANDMARKNA":"縣立下楫國小","LANDMARKAD":"1001009","ADDRESS":"嘉義縣東石鄉下楫村147號","TEL":"05-3601508","COUNTYNAME":"嘉義縣","TOWNNAME":"東石鄉","MARKTYPE":"992","Class":"2"}},{"type":"Feature","id":26252,"geometry":{"type":"Point","coordinates":[120.14542743276361,23.471373858846675]},"properties":{"OBJECTID":26252,"LANDMARKID":"1001000000278","LANDMARKCO":"203","LANDMARKNA":"縣立塭港國小","LANDMARKAD":"1001009","ADDRESS":"嘉義縣東石鄉塭港村170號","TEL":"05-3732653","COUNTYNAME":"嘉義縣","TOWNNAME":"東石鄉","MARKTYPE":"992","Class":"2"}},{"type":"Feature","id":26253,"geometry":{"type":"Point","coordinates":[120.15604670198672,23.431247441303295]},"properties":{"OBJECTID":26253,"LANDMARKID":"1001000000279","LANDMARKCO":"203","LANDMARKNA":"縣立網寮國小","LANDMARKAD":"1001009","ADDRESS":"嘉義縣東石鄉網寮村27號","TEL":"05-3451544","COUNTYNAME":"嘉義縣","TOWNNAME":"東石鄉","MARKTYPE":"992","Class":"2"}},{"type":"Feature","id":26254,"geometry":{"type":"Point","coordinates":[120.21410739447593,23.463694485306036]},"properties":{"OBJECTID":26254,"LANDMARKID":"1001000000280","LANDMARKCO":"203","LANDMARKNA":"縣立港墘國小","LANDMARKAD":"1001009","ADDRESS":"嘉義縣東石鄉港墘村64號","TEL":"05-3795350","COUNTYNAME":"嘉義縣","TOWNNAME":"東石鄉","MARKTYPE":"992","Class":"2"}},{"type":"Feature","id":26255,"geometry":{"type":"Point","coordinates":[120.17431519292388,23.471264309636183]},"properties":{"OBJECTID":26255,"LANDMARKID":"1001000000281","LANDMARKCO":"203","LANDMARKNA":"縣立三江國小","LANDMARKAD":"1001009","ADDRESS":"嘉義縣東石鄉三家村16號","TEL":"05-3732634","COUNTYNAME":"嘉義縣","TOWNNAME":"東石鄉","MARKTYPE":"992","Class":"2"}},{"type":"Feature","id":26256,"geometry":{"type":"Point","coordinates":[120.15066213378462,23.47293565114898]},"properties":{"OBJECTID":26256,"LANDMARKID":"1001000000282","LANDMARKCO":"203","LANDMARKNA":"縣立型厝國小","LANDMARKAD":"1001009","ADDRESS":"嘉義縣東石鄉型厝村66之1號","TEL":"05-3730083","COUNTYNAME":"嘉義縣","TOWNNAME":"東石鄉","MARKTYPE":"992","Class":"2"}},{"type":"Feature","id":26257,"geometry":{"type":"Point","coordinates":[120.20351476587381,23.486939714973765]},"properties":{"OBJECTID":26257,"LANDMARKID":"1001000000283","LANDMARKCO":"203","LANDMARKNA":"縣立下楫國小楫源分校","LANDMARKAD":"1001009","ADDRESS":"嘉義縣東石鄉下楫69號","TEL":"05-3601765","COUNTYNAME":"嘉義縣","TOWNNAME":"東石鄉","MARKTYPE":"992","Class":"2"}},{"type":"Feature","id":26258,"geometry":{"type":"Point","coordinates":[120.17305366341752,23.461498972465279]},"properties":{"OBJECTID":26258,"LANDMARKID":"1001000000284","LANDMARKCO":"203","LANDMARKNA":"縣立三江國小永屯分校","LANDMARKAD":"1001009","ADDRESS":"嘉義縣東石鄉永屯村39之6號","TEL":"05-3730585","COUNTYNAME":"嘉義縣","TOWNNAME":"東石鄉","MARKTYPE":"992","Class":"2"}},{"type":"Feature","id":26259,"geometry":{"type":"Point","coordinates":[120.19376545742321,23.451861928555569]},"properties":{"OBJECTID":26259,"LANDMARKID":"1001000000285","LANDMARKCO":"203","LANDMARKNA":"縣立港墘國小洲子分校","LANDMARKAD":"1001009","ADDRESS":"嘉義縣東石鄉洲仔村41之2號","TEL":"05-3791638","COUNTYNAME":"嘉義縣","TOWNNAME":"東石鄉","MARKTYPE":"992","Class":"2"}},{"type":"Feature","id":26260,"geometry":{"type":"Point","coordinates":[120.1350689562518,23.452865815269973]},"properties":{"OBJECTID":26260,"LANDMARKID":"1001000000525","LANDMARKCO":"305","LANDMARKNA":"東石漁港","LANDMARKAD":"1001009","ADDRESS":"嘉義縣東石鄉","TEL":" ","COUNTYNAME":"嘉義縣","TOWNNAME":"東石鄉","MARKTYPE":"993","Class":"305"}},{"type":"Feature","id":26261,"geometry":{"type":"Point","coordinates":[120.1469600380594,23.437631692665661]},"properties":{"OBJECTID":26261,"LANDMARKID":"1001000000526","LANDMARKCO":"305","LANDMARKNA":"網寮漁港","LANDMARKAD":"1001009","ADDRESS":"嘉義縣東石鄉","TEL":" ","COUNTYNAME":"嘉義縣","TOWNNAME":"東石鄉","MARKTYPE":"993","Class":"305"}},{"type":"Feature","id":26262,"geometry":{"type":"Point","coordinates":[120.14817429559071,23.473961844849509]},"properties":{"OBJECTID":26262,"LANDMARKID":"1001000000527","LANDMARKCO":"305","LANDMARKNA":"塭港漁港","LANDMARKAD":"1001009","ADDRESS":"嘉義縣東石鄉","TEL":" ","COUNTYNAME":"嘉義縣","TOWNNAME":"東石鄉","MARKTYPE":"993","Class":"305"}},{"type":"Feature","id":26263,"geometry":{"type":"Point","coordinates":[120.14807518957852,23.428582318719084]},"properties":{"OBJECTID":26263,"LANDMARKID":"1001000000528","LANDMARKCO":"305","LANDMARKNA":"白水湖漁港","LANDMARKAD":"1001009","ADDRESS":"嘉義縣東石鄉","TEL":" ","COUNTYNAME":"嘉義縣","TOWNNAME":"東石鄉","MARKTYPE":"993","Class":"305"}},{"type":"Feature","id":26264,"geometry":{"type":"Point","coordinates":[120.16231658966558,23.417806145073481]},"properties":{"OBJECTID":26264,"LANDMARKID":"1001000000533","LANDMARKCO":"308","LANDMARKNA":"台61-白水湖交流道-南下","LANDMARKAD":"1001009","ADDRESS":" ","TEL":" ","COUNTYNAME":"嘉義縣","TOWNNAME":"東石鄉","MARKTYPE":"993","Class":"308"}},{"type":"Feature","id":26265,"geometry":{"type":"Point","coordinates":[120.1619603058202,23.422419958797462]},"properties":{"OBJECTID":26265,"LANDMARKID":"1001000000534","LANDMARKCO":"308","LANDMARKNA":"台61-白水湖交流道-北上","LANDMARKAD":"1001009","ADDRESS":" ","TEL":" ","COUNTYNAME":"嘉義縣","TOWNNAME":"東石鄉","MARKTYPE":"993","Class":"308"}},{"type":"Feature","id":26266,"geometry":{"type":"Point","coordinates":[120.16560817188193,23.455370103801833]},"properties":{"OBJECTID":26266,"LANDMARKID":"1001000000535","LANDMARKCO":"308","LANDMARKNA":"台61-東石二交流道-南下","LANDMARKAD":"1001009","ADDRESS":" ","TEL":" ","COUNTYNAME":"嘉義縣","TOWNNAME":"東石鄉","MARKTYPE":"993","Class":"308"}},{"type":"Feature","id":26267,"geometry":{"type":"Point","coordinates":[120.16825287272144,23.472248181334962]},"properties":{"OBJECTID":26267,"LANDMARKID":"1001000000536","LANDMARKCO":"308","LANDMARKNA":"台61-東石一交流道-北上","LANDMARKAD":"1001009","ADDRESS":" ","TEL":" ","COUNTYNAME":"嘉義縣","TOWNNAME":"東石鄉","MARKTYPE":"993","Class":"308"}},{"type":"Feature","id":26268,"geometry":{"type":"Point","coordinates":[120.17106695306391,23.499037772272793]},"properties":{"OBJECTID":26268,"LANDMARKID":"1001000000537","LANDMARKCO":"308","LANDMARKNA":"台61-鰲鼓交流道-北上","LANDMARKAD":"1001009","ADDRESS":" ","TEL":" ","COUNTYNAME":"嘉義縣","TOWNNAME":"東石鄉","MARKTYPE":"993","Class":"308"}},{"type":"Feature","id":26269,"geometry":{"type":"Point","coordinates":[120.15029554218317,23.456096464022067]},"properties":{"OBJECTID":26269,"LANDMARKID":"1001000000491","LANDMARKCO":"302","LANDMARKNA":"統聯汽車客運東石站","LANDMARKAD":"1001009","ADDRESS":"嘉義縣東石鄉東石村23之1號","TEL":" ","COUNTYNAME":"嘉義縣","TOWNNAME":"東石鄉","MARKTYPE":"993","Class":"302"}},{"type":"Feature","id":26270,"geometry":{"type":"Point","coordinates":[120.15385932404155,23.459380939661465]},"properties":{"OBJECTID":26270,"LANDMARKID":"1001000000576","LANDMARKCO":"402","LANDMARKNA":"中華電信-東石服務中心","LANDMARKAD":"1001009","ADDRESS":"嘉義縣東石鄉東石村4之4號","TEL":"(05)344-0038","COUNTYNAME":"嘉義縣","TOWNNAME":"東石鄉","MARKTYPE":"994","Class":"4"}},{"type":"Feature","id":26271,"geometry":{"type":"Point","coordinates":[120.2244419262974,23.471168124109631]},"properties":{"OBJECTID":26271,"LANDMARKID":"1001000000916","LANDMARKCO":"604","LANDMARKNA":"船仔頭ㄟ厝","LANDMARKAD":"1001009","ADDRESS":"嘉義縣東石鄉蔦松村船仔頭22-3號","TEL":"05-3708078","COUNTYNAME":"嘉義縣","TOWNNAME":"東石鄉","MARKTYPE":"996","Class":"6"}},{"type":"Feature","id":26272,"geometry":{"type":"Point","coordinates":[120.15310068557739,23.449975731189678]},"properties":{"OBJECTID":26272,"LANDMARKID":"1001000000795","LANDMARKCO":"503","LANDMARKNA":"觀海公園","LANDMARKAD":"1001009","ADDRESS":"嘉義縣東石鄉","TEL":" ","COUNTYNAME":"嘉義縣","TOWNNAME":"東石鄉","MARKTYPE":"995","Class":"5"}},{"type":"Feature","id":26273,"geometry":{"type":"Point","coordinates":[120.17630520570494,23.460071952438454]},"properties":{"OBJECTID":26273,"LANDMARKID":"1001000000796","LANDMARKCO":"503","LANDMARKNA":"朴子溪紅樹林公園","LANDMARKAD":"1001009","ADDRESS":"嘉義縣東石鄉","TEL":" ","COUNTYNAME":"嘉義縣","TOWNNAME":"東石鄉","MARKTYPE":"995","Class":"5"}},{"type":"Feature","id":26274,"geometry":{"type":"Point","coordinates":[120.22459444217458,23.470301849599409]},"properties":{"OBJECTID":26274,"LANDMARKID":"1001000000800","LANDMARKCO":"505","LANDMARKNA":"船仔頭文教基金會","LANDMARKAD":"1001009","ADDRESS":"嘉義縣東石鄉蔦松村船仔頭13號","TEL":" ","COUNTYNAME":"嘉義縣","TOWNNAME":"東石鄉","MARKTYPE":"995","Class":"5"}},{"type":"Feature","id":26275,"geometry":{"type":"Point","coordinates":[120.80163916193266,23.508119131337111]},"properties":{"OBJECTID":26275,"LANDMARKID":"1001000000638","LANDMARKCO":"405","LANDMARKNA":"中油加油站-北基阿里山站","LANDMARKAD":"1001018","ADDRESS":"嘉義縣公田村隙頂56號之5","TEL":"05-2586018","COUNTYNAME":"嘉義縣","TOWNNAME":"阿里山鄉","MARKTYPE":"994","Class":"4"}},{"type":"Feature","id":26276,"geometry":{"type":"Point","coordinates":[120.8015175310002,23.508180932918282]},"properties":{"OBJECTID":26276,"LANDMARKID":"1001000000639","LANDMARKCO":"405","LANDMARKNA":"中油加油站-阿里山站(中油直營)","LANDMARKAD":"1001018","ADDRESS":"嘉義縣阿里山鄉中山村南阿里山74號","TEL":"05-2679944","COUNTYNAME":"嘉義縣","TOWNNAME":"阿里山鄉","MARKTYPE":"994","Class":"4"}},{"type":"Feature","id":26277,"geometry":{"type":"Point","coordinates":[120.80453967793149,23.511329290845378]},"properties":{"OBJECTID":26277,"LANDMARKID":"1001000000729","LANDMARKCO":"408","LANDMARKNA":"郵局-阿里山郵局","LANDMARKAD":"1001018","ADDRESS":"嘉義縣阿里山鄉中正村2鄰東阿里山39號","TEL":"(05)2679-970","COUNTYNAME":"嘉義縣","TOWNNAME":"阿里山鄉","MARKTYPE":"994","Class":"4"}},{"type":"Feature","id":26278,"geometry":{"type":"Point","coordinates":[120.70361385381651,23.472316814546048]},"properties":{"OBJECTID":26278,"LANDMARKID":"1001000000770","LANDMARKCO":"409","LANDMARKNA":"嘉義縣阿里山鄉農會","LANDMARKAD":"1001018","ADDRESS":"嘉義縣阿里山鄉樂野村4鄰114號","TEL":"05-2562332","COUNTYNAME":"嘉義縣","TOWNNAME":"阿里山鄉","MARKTYPE":"994","Class":"4"}},{"type":"Feature","id":26279,"geometry":{"type":"Point","coordinates":[120.81365676156605,23.515251159273696]},"properties":{"OBJECTID":26279,"LANDMARKID":"1001000000713","LANDMARKCO":"406","LANDMARKNA":"自然公園","LANDMARKAD":"1001018","ADDRESS":"嘉義縣阿里山鄉","TEL":" ","COUNTYNAME":"嘉義縣","TOWNNAME":"阿里山鄉","MARKTYPE":"994","Class":"4"}},{"type":"Feature","id":26280,"geometry":{"type":"Point","coordinates":[120.74737504601883,23.455445406662136]},"properties":{"OBJECTID":26280,"LANDMARKID":"1001000000044","LANDMARKCO":"103","LANDMARKNA":"嘉義縣阿里山鄉衛生所","LANDMARKAD":"1001018","ADDRESS":"嘉義縣阿里山鄉達邦村4鄰85號","TEL":"05-2511007","COUNTYNAME":"嘉義縣","TOWNNAME":"阿里山鄉","MARKTYPE":"991","Class":"1"}},{"type":"Feature","id":26281,"geometry":{"type":"Point","coordinates":[120.74774767962555,23.455266008791533]},"properties":{"OBJECTID":26281,"LANDMARKID":"1001000000217","LANDMARKCO":"108","LANDMARKNA":"嘉義縣阿里山鄉公所","LANDMARKAD":"1001018","ADDRESS":"嘉義縣阿里山鄉樂野村2鄰69號","TEL":"05-2562547","COUNTYNAME":"嘉義縣","TOWNNAME":"阿里山鄉","MARKTYPE":"991","Class":"1"}},{"type":"Feature","id":26282,"geometry":{"type":"Point","coordinates":[120.75035607379159,23.45400569867309]},"properties":{"OBJECTID":26282,"LANDMARKID":"1001000000040","LANDMARKCO":"103","LANDMARKNA":"嘉義縣阿里山鄉民代表會","LANDMARKAD":"1001018","ADDRESS":"嘉義縣阿里山鄉樂野村69號","TEL":"05-2511003","COUNTYNAME":"嘉義縣","TOWNNAME":"阿里山鄉","MARKTYPE":"991","Class":"1"}},{"type":"Feature","id":26283,"geometry":{"type":"Point","coordinates":[120.68349832381536,23.337214139535586]},"properties":{"OBJECTID":26283,"LANDMARKID":"1001000000116","LANDMARKCO":"107","LANDMARKNA":"嘉義縣警察局新美派出所","LANDMARKAD":"1001018","ADDRESS":"嘉義縣阿里山鄉新美村56號","TEL":"05-2513079","COUNTYNAME":"嘉義縣","TOWNNAME":"阿里山鄉","MARKTYPE":"991","Class":"1"}},{"type":"Feature","id":26284,"geometry":{"type":"Point","coordinates":[120.66823683454339,23.383600886329127]},"properties":{"OBJECTID":26284,"LANDMARKID":"1001000000117","LANDMARKCO":"107","LANDMARKNA":"嘉義縣警察局山美派出所","LANDMARKAD":"1001018","ADDRESS":"嘉義縣阿里山鄉山美村58號","TEL":"05-2586154","COUNTYNAME":"嘉義縣","TOWNNAME":"阿里山鄉","MARKTYPE":"991","Class":"1"}},{"type":"Feature","id":26285,"geometry":{"type":"Point","coordinates":[120.7212041964282,23.404112371173806]},"properties":{"OBJECTID":26285,"LANDMARKID":"1001000000118","LANDMARKCO":"107","LANDMARKNA":"嘉義縣警察局里佳派出所","LANDMARKAD":"1001018","ADDRESS":"嘉義縣阿里山鄉里佳村里佳50號","TEL":"05-2511124","COUNTYNAME":"嘉義縣","TOWNNAME":"阿里山鄉","MARKTYPE":"991","Class":"1"}},{"type":"Feature","id":26286,"geometry":{"type":"Point","coordinates":[120.81312092585759,23.512971916238335]},"properties":{"OBJECTID":26286,"LANDMARKID":"1001000000119","LANDMARKCO":"107","LANDMARKNA":"嘉義縣警察局阿里山派出所","LANDMARKAD":"1001018","ADDRESS":"嘉義縣阿里山鄉中正村阿里山62號","TEL":"05-2679975","COUNTYNAME":"嘉義縣","TOWNNAME":"阿里山鄉","MARKTYPE":"991","Class":"1"}},{"type":"Feature","id":26287,"geometry":{"type":"Point","coordinates":[120.73984050937909,23.529752150031456]},"properties":{"OBJECTID":26287,"LANDMARKID":"1001000000120","LANDMARKCO":"107","LANDMARKNA":"嘉義縣警察局來吉派出所","LANDMARKAD":"1001018","ADDRESS":"嘉義縣阿里山鄉來吉村內來吉95號","TEL":"05-2661185","COUNTYNAME":"嘉義縣","TOWNNAME":"阿里山鄉","MARKTYPE":"991","Class":"1"}},{"type":"Feature","id":26288,"geometry":{"type":"Point","coordinates":[120.70180330554433,23.468461852784227]},"properties":{"OBJECTID":26288,"LANDMARKID":"1001000000121","LANDMARKCO":"107","LANDMARKNA":"嘉義縣警察局樂野派出所","LANDMARKAD":"1001018","ADDRESS":"嘉義縣阿里山鄉樂野村13號","TEL":"05-2561325","COUNTYNAME":"嘉義縣","TOWNNAME":"阿里山鄉","MARKTYPE":"991","Class":"1"}},{"type":"Feature","id":26289,"geometry":{"type":"Point","coordinates":[120.74899507518812,23.452741589655599]},"properties":{"OBJECTID":26289,"LANDMARKID":"1001000000122","LANDMARKCO":"107","LANDMARKNA":"嘉義縣警察局達邦分駐所","LANDMARKAD":"1001018","ADDRESS":"嘉義縣阿里山鄉達邦村12號","TEL":"05-2511006","COUNTYNAME":"嘉義縣","TOWNNAME":"阿里山鄉","MARKTYPE":"991","Class":"1"}},{"type":"Feature","id":26290,"geometry":{"type":"Point","coordinates":[120.7542311479,23.492211053694135]},"properties":{"OBJECTID":26290,"LANDMARKID":"1001000000123","LANDMARKCO":"107","LANDMARKNA":"嘉義縣警察局十字派出所","LANDMARKAD":"1001018","ADDRESS":"嘉義縣阿里山鄉十字村十字路28號","TEL":"05-2511223","COUNTYNAME":"嘉義縣","TOWNNAME":"阿里山鄉","MARKTYPE":"991","Class":"1"}},{"type":"Feature","id":26291,"geometry":{"type":"Point","coordinates":[120.80767871699017,23.512152790846521]},"properties":{"OBJECTID":26291,"LANDMARKID":"1001000000124","LANDMARKCO":"107","LANDMARKNA":"嘉義縣消防局阿里山消防分隊","LANDMARKAD":"1001018","ADDRESS":"嘉義縣阿里山鄉中正村阿里山62號","TEL":"05-2679900","COUNTYNAME":"嘉義縣","TOWNNAME":"阿里山鄉","MARKTYPE":"991","Class":"1"}},{"type":"Feature","id":26292,"geometry":{"type":"Point","coordinates":[120.74862976310959,23.456352469462889]},"properties":{"OBJECTID":26292,"LANDMARKID":"1001000000090","LANDMARKCO":"106","LANDMARKNA":"嘉義縣阿里山鄉戶政事務所","LANDMARKAD":"1001018","ADDRESS":"嘉義縣阿里山鄉樂野村2鄰樂野68號","TEL":"05-2562806","COUNTYNAME":"嘉義縣","TOWNNAME":"阿里山鄉","MARKTYPE":"991","Class":"1"}},{"type":"Feature","id":26293,"geometry":{"type":"Point","coordinates":[120.73795267826014,23.450646735713992]},"properties":{"OBJECTID":26293,"LANDMARKID":"1001000000006","LANDMARKCO":"101","LANDMARKNA":"林務局嘉義林區管理處阿里山站","LANDMARKAD":"1001018","ADDRESS":"嘉義縣阿里山鄉林村17號","TEL":"05-2679715","COUNTYNAME":"嘉義縣","TOWNNAME":"阿里山鄉","MARKTYPE":"991","Class":"1"}},{"type":"Feature","id":26294,"geometry":{"type":"Point","coordinates":[120.74578967666933,23.51937432331983]},"properties":{"OBJECTID":26294,"LANDMARKID":"1001000000462","LANDMARKCO":"205","LANDMARKNA":"蘭后山莊鄒族文物館","LANDMARKAD":"1001018","ADDRESS":"嘉義縣阿里山鄉來吉村10號","TEL":"05-2661172","COUNTYNAME":"嘉義縣","TOWNNAME":"阿里山鄉","MARKTYPE":"992","Class":"2"}},{"type":"Feature","id":26295,"geometry":{"type":"Point","coordinates":[120.80729524766021,23.517194317713784]},"properties":{"OBJECTID":26295,"LANDMARKID":"1001000000463","LANDMARKCO":"205","LANDMARKNA":"阿里山高山博物館","LANDMARKAD":"1001018","ADDRESS":"嘉義縣阿里山鄉阿里山森林遊樂區內","TEL":"05-2679917","COUNTYNAME":"嘉義縣","TOWNNAME":"阿里山鄉","MARKTYPE":"992","Class":"2"}},{"type":"Feature","id":26296,"geometry":{"type":"Point","coordinates":[120.74652956743606,23.45635465769784]},"properties":{"OBJECTID":26296,"LANDMARKID":"1001000000458","LANDMARKCO":"204","LANDMARKNA":"嘉義縣立圖書館阿里山分館","LANDMARKAD":"1001018","ADDRESS":"嘉義縣阿里山鄉達邦村2鄰23之1號","TEL":" ","COUNTYNAME":"嘉義縣","TOWNNAME":"阿里山鄉","MARKTYPE":"992","Class":"2"}},{"type":"Feature","id":26297,"geometry":{"type":"Point","coordinates":[120.80845462585633,23.516124510956242]},"properties":{"OBJECTID":26297,"LANDMARKID":"1001000000286","LANDMARKCO":"203","LANDMARKNA":"縣立香林國中","LANDMARKAD":"1001018","ADDRESS":"嘉義縣阿里山鄉香林村64號","TEL":"05-2679981","COUNTYNAME":"嘉義縣","TOWNNAME":"阿里山鄉","MARKTYPE":"992","Class":"2"}},{"type":"Feature","id":26298,"geometry":{"type":"Point","coordinates":[120.74947787945106,23.453284944354429]},"properties":{"OBJECTID":26298,"LANDMARKID":"1001000000287","LANDMARKCO":"203","LANDMARKNA":"縣立達邦國小","LANDMARKAD":"1001018","ADDRESS":"嘉義縣阿里山鄉達邦村1鄰1號","TEL":"05-2511017","COUNTYNAME":"嘉義縣","TOWNNAME":"阿里山鄉","MARKTYPE":"992","Class":"2"}},{"type":"Feature","id":26299,"geometry":{"type":"Point","coordinates":[120.70141012211172,23.468821554686283]},"properties":{"OBJECTID":26299,"LANDMARKID":"1001000000288","LANDMARKCO":"203","LANDMARKNA":"縣立樂野國小","LANDMARKAD":"1001018","ADDRESS":"嘉義縣阿里山鄉樂野村1鄰31號","TEL":"05-2561180","COUNTYNAME":"嘉義縣","TOWNNAME":"阿里山鄉","MARKTYPE":"992","Class":"2"}},{"type":"Feature","id":26300,"geometry":{"type":"Point","coordinates":[120.81029496254865,23.517754434597123]},"properties":{"OBJECTID":26300,"LANDMARKID":"1001000000289","LANDMARKCO":"203","LANDMARKNA":"縣立香林國小","LANDMARKAD":"1001018","ADDRESS":"嘉義縣阿里山鄉香林村2鄰40號","TEL":"05-2679713","COUNTYNAME":"嘉義縣","TOWNNAME":"阿里山鄉","MARKTYPE":"992","Class":"2"}},{"type":"Feature","id":26301,"geometry":{"type":"Point","coordinates":[120.66822193495477,23.383239628049562]},"properties":{"OBJECTID":26301,"LANDMARKID":"1001000000290","LANDMARKCO":"203","LANDMARKNA":"縣立山美國小","LANDMARKAD":"1001018","ADDRESS":"嘉義縣阿里山鄉山美村4鄰61號","TEL":"05-2586520","COUNTYNAME":"嘉義縣","TOWNNAME":"阿里山鄉","MARKTYPE":"992","Class":"2"}},{"type":"Feature","id":26302,"geometry":{"type":"Point","coordinates":[120.66649837678933,23.300250311353867]},"properties":{"OBJECTID":26302,"LANDMARKID":"1001000000291","LANDMARKCO":"203","LANDMARKNA":"縣立茶山國小","LANDMARKAD":"1001018","ADDRESS":"嘉義縣阿里山鄉茶山村3鄰74號","TEL":"05-2513014","COUNTYNAME":"嘉義縣","TOWNNAME":"阿里山鄉","MARKTYPE":"992","Class":"2"}},{"type":"Feature","id":26303,"geometry":{"type":"Point","coordinates":[120.74909031538269,23.575370476306812]},"properties":{"OBJECTID":26303,"LANDMARKID":"1001000000292","LANDMARKCO":"203","LANDMARKNA":"縣立豐山國小","LANDMARKAD":"1001018","ADDRESS":"嘉義縣阿里山鄉豐山村47號","TEL":"05-2661451","COUNTYNAME":"嘉義縣","TOWNNAME":"阿里山鄉","MARKTYPE":"992","Class":"2"}},{"type":"Feature","id":26304,"geometry":{"type":"Point","coordinates":[120.7389602948402,23.53083280473907]},"properties":{"OBJECTID":26304,"LANDMARKID":"1001000000293","LANDMARKCO":"203","LANDMARKNA":"縣立來吉國小","LANDMARKAD":"1001018","ADDRESS":"嘉義縣阿里山鄉來吉村4鄰91號","TEL":"05-2661232","COUNTYNAME":"嘉義縣","TOWNNAME":"阿里山鄉","MARKTYPE":"992","Class":"2"}},{"type":"Feature","id":26305,"geometry":{"type":"Point","coordinates":[120.71991790622536,23.405191398720042]},"properties":{"OBJECTID":26305,"LANDMARKID":"1001000000294","LANDMARKCO":"203","LANDMARKNA":"縣立里佳國小","LANDMARKAD":"1001018","ADDRESS":"嘉義縣阿里山鄉里佳村52號","TEL":"05-2511341","COUNTYNAME":"嘉義縣","TOWNNAME":"阿里山鄉","MARKTYPE":"992","Class":"2"}},{"type":"Feature","id":26306,"geometry":{"type":"Point","coordinates":[120.68297700965908,23.337849793146049]},"properties":{"OBJECTID":26306,"LANDMARKID":"1001000000295","LANDMARKCO":"203","LANDMARKNA":"縣立新美國小","LANDMARKAD":"1001018","ADDRESS":"嘉義縣阿里山鄉新美村四鄰78號","TEL":"05-2513015","COUNTYNAME":"嘉義縣","TOWNNAME":"阿里山鄉","MARKTYPE":"992","Class":"2"}},{"type":"Feature","id":26307,"geometry":{"type":"Point","coordinates":[120.75412311563643,23.492301013755391]},"properties":{"OBJECTID":26307,"LANDMARKID":"1001000000296","LANDMARKCO":"203","LANDMARKNA":"縣立十字國小","LANDMARKAD":"1001018","ADDRESS":"嘉義縣阿里山鄉十字村16號","TEL":"05-2511340","COUNTYNAME":"嘉義縣","TOWNNAME":"阿里山鄉","MARKTYPE":"992","Class":"2"}},{"type":"Feature","id":26308,"geometry":{"type":"Point","coordinates":[120.73133483283728,23.498764286239066]},"properties":{"OBJECTID":26308,"LANDMARKID":"1001000000297","LANDMARKCO":"203","LANDMARKNA":"縣立十字國小十字路分校","LANDMARKAD":"1001018","ADDRESS":"嘉義縣阿里山鄉","TEL":" ","COUNTYNAME":"嘉義縣","TOWNNAME":"阿里山鄉","MARKTYPE":"992","Class":"2"}},{"type":"Feature","id":26309,"geometry":{"type":"Point","coordinates":[120.80334873669271,23.509758914156986]},"properties":{"OBJECTID":26309,"LANDMARKID":"1001000000495","LANDMARKCO":"303","LANDMARKNA":"阿里山遊樂區停車場","LANDMARKAD":"1001018","ADDRESS":"嘉義縣阿里山鄉","TEL":" ","COUNTYNAME":"嘉義縣","TOWNNAME":"阿里山鄉","MARKTYPE":"993","Class":"303"}},{"type":"Feature","id":26310,"geometry":{"type":"Point","coordinates":[120.80403090770112,23.511527077392074]},"properties":{"OBJECTID":26310,"LANDMARKID":"1001000000496","LANDMARKCO":"303","LANDMARKNA":"阿里山遊樂區停車場","LANDMARKAD":"1001018","ADDRESS":"嘉義縣阿里山鄉","TEL":" ","COUNTYNAME":"嘉義縣","TOWNNAME":"阿里山鄉","MARKTYPE":"993","Class":"303"}},{"type":"Feature","id":26311,"geometry":{"type":"Point","coordinates":[120.75485020010741,23.492749361181559]},"properties":{"OBJECTID":26311,"LANDMARKID":"1001000000470","LANDMARKCO":"301","LANDMARKNA":"十字路火車站","LANDMARKAD":"1001018","ADDRESS":"嘉義縣阿里山鄉","TEL":" ","COUNTYNAME":"嘉義縣","TOWNNAME":"阿里山鄉","MARKTYPE":"993","Class":"301"}},{"type":"Feature","id":26312,"geometry":{"type":"Point","coordinates":[120.7796637715696,23.511279736436904]},"properties":{"OBJECTID":26312,"LANDMARKID":"1001000000471","LANDMARKCO":"301","LANDMARKNA":"屏遮那火車站","LANDMARKAD":"1001018","ADDRESS":"嘉義縣阿里山鄉","TEL":" ","COUNTYNAME":"嘉義縣","TOWNNAME":"阿里山鄉","MARKTYPE":"993","Class":"301"}},{"type":"Feature","id":26313,"geometry":{"type":"Point","coordinates":[120.80701443682844,23.519457968295242]},"properties":{"OBJECTID":26313,"LANDMARKID":"1001000000472","LANDMARKCO":"301","LANDMARKNA":"神木火車站","LANDMARKAD":"1001018","ADDRESS":"嘉義縣阿里山鄉","TEL":" ","COUNTYNAME":"嘉義縣","TOWNNAME":"阿里山鄉","MARKTYPE":"993","Class":"301"}},{"type":"Feature","id":26314,"geometry":{"type":"Point","coordinates":[120.75946345546878,23.502947886344586]},"properties":{"OBJECTID":26314,"LANDMARKID":"1001000000473","LANDMARKCO":"301","LANDMARKNA":"多林火車站","LANDMARKAD":"1001018","ADDRESS":"嘉義縣阿里山鄉","TEL":" ","COUNTYNAME":"嘉義縣","TOWNNAME":"阿里山鄉","MARKTYPE":"993","Class":"301"}},{"type":"Feature","id":26315,"geometry":{"type":"Point","coordinates":[120.80465218535755,23.509798010449614]},"properties":{"OBJECTID":26315,"LANDMARKID":"1001000000474","LANDMARKCO":"301","LANDMARKNA":"阿里山火車站","LANDMARKAD":"1001018","ADDRESS":"嘉義縣阿里山鄉","TEL":" ","COUNTYNAME":"嘉義縣","TOWNNAME":"阿里山鄉","MARKTYPE":"993","Class":"301"}},{"type":"Feature","id":26316,"geometry":{"type":"Point","coordinates":[120.81426710868929,23.514323960386921]},"properties":{"OBJECTID":26316,"LANDMARKID":"1001000000475","LANDMARKCO":"301","LANDMARKNA":"阿里山舊火車站","LANDMARKAD":"1001018","ADDRESS":"嘉義縣阿里山鄉","TEL":" ","COUNTYNAME":"嘉義縣","TOWNNAME":"阿里山鄉","MARKTYPE":"993","Class":"301"}},{"type":"Feature","id":26317,"geometry":{"type":"Point","coordinates":[120.78987367290212,23.508488044023309]},"properties":{"OBJECTID":26317,"LANDMARKID":"1001000000476","LANDMARKCO":"301","LANDMARKNA":"二萬平車站","LANDMARKAD":"1001018","ADDRESS":"嘉義縣阿里山鄉香林村二萬坪105號","TEL":" ","COUNTYNAME":"嘉義縣","TOWNNAME":"阿里山鄉","MARKTYPE":"993","Class":"301"}},{"type":"Feature","id":26318,"geometry":{"type":"Point","coordinates":[120.80333387491865,23.511111772577138]},"properties":{"OBJECTID":26318,"LANDMARKID":"1001000000577","LANDMARKCO":"402","LANDMARKNA":"中華電信-阿里山服務中心","LANDMARKAD":"1001018","ADDRESS":"嘉義縣阿里山鄉中正村59號","TEL":"(05)244-1441","COUNTYNAME":"嘉義縣","TOWNNAME":"阿里山鄉","MARKTYPE":"994","Class":"4"}},{"type":"Feature","id":26319,"geometry":{"type":"Point","coordinates":[120.81019886877857,23.515120519978602]},"properties":{"OBJECTID":26319,"LANDMARKID":"1001000000835","LANDMARKCO":"602","LANDMARKNA":"阿里山賓館","LANDMARKAD":"1001018","ADDRESS":"嘉義縣阿里山鄉香林村西阿里山16號","TEL":"05-267-9813","COUNTYNAME":"嘉義縣","TOWNNAME":"阿里山鄉","MARKTYPE":"996","Class":"6"}},{"type":"Feature","id":26320,"geometry":{"type":"Point","coordinates":[120.73846582094414,23.531152043380118]},"properties":{"OBJECTID":26320,"LANDMARKID":"1001000000912","LANDMARKCO":"604","LANDMARKNA":"阿古亞娜","LANDMARKAD":"1001018","ADDRESS":"嘉義縣阿里山鄉來吉村109號","TEL":"05-2661585","COUNTYNAME":"嘉義縣","TOWNNAME":"阿里山鄉","MARKTYPE":"996","Class":"6"}},{"type":"Feature","id":26321,"geometry":{"type":"Point","coordinates":[120.68075533582999,23.295561474796184]},"properties":{"OBJECTID":26321,"LANDMARKID":"1001000000913","LANDMARKCO":"604","LANDMARKNA":"淳液園農場","LANDMARKAD":"1001018","ADDRESS":"嘉義縣阿里山鄉茶山村茶山106號","TEL":"05-2513189","COUNTYNAME":"嘉義縣","TOWNNAME":"阿里山鄉","MARKTYPE":"996","Class":"6"}},{"type":"Feature","id":26322,"geometry":{"type":"Point","coordinates":[120.71838099584409,23.457915173466212]},"properties":{"OBJECTID":26322,"LANDMARKID":"1001000000914","LANDMARKCO":"604","LANDMARKNA":"閒雲居民宿","LANDMARKAD":"1001018","ADDRESS":"嘉義縣阿里山鄉樂野村8鄰210號","TEL":"05-2561580","COUNTYNAME":"嘉義縣","TOWNNAME":"阿里山鄉","MARKTYPE":"996","Class":"6"}},{"type":"Feature","id":26323,"geometry":{"type":"Point","coordinates":[120.74571079446453,23.51955114251566]},"properties":{"OBJECTID":26323,"LANDMARKID":"1001000000915","LANDMARKCO":"604","LANDMARKNA":"蘭后民宿","LANDMARKAD":"1001018","ADDRESS":"嘉義縣阿里山鄉來吉村1鄰11號","TEL":"05-2661172","COUNTYNAME":"嘉義縣","TOWNNAME":"阿里山鄉","MARKTYPE":"996","Class":"6"}},{"type":"Feature","id":26324,"geometry":{"type":"Point","coordinates":[120.74598052161754,23.580890051347495]},"properties":{"OBJECTID":26324,"LANDMARKID":"1001000000797","LANDMARKCO":"503","LANDMARKNA":"豐山風景區","LANDMARKAD":"1001018","ADDRESS":"嘉義縣阿里山鄉","TEL":" ","COUNTYNAME":"嘉義縣","TOWNNAME":"阿里山鄉","MARKTYPE":"995","Class":"5"}},{"type":"Feature","id":26325,"geometry":{"type":"Point","coordinates":[120.67849358874945,23.37862834485124]},"properties":{"OBJECTID":26325,"LANDMARKID":"1001000000798","LANDMARKCO":"503","LANDMARKNA":"達娜伊谷公園","LANDMARKAD":"1001018","ADDRESS":"嘉義縣阿里山鄉","TEL":" ","COUNTYNAME":"嘉義縣","TOWNNAME":"阿里山鄉","MARKTYPE":"995","Class":"5"}},{"type":"Feature","id":26326,"geometry":{"type":"Point","coordinates":[120.80218834402784,23.50888427508762]},"properties":{"OBJECTID":26326,"LANDMARKID":"1001000000799","LANDMARKCO":"504","LANDMARKNA":"阿里山森林遊樂區","LANDMARKAD":"1001018","ADDRESS":"嘉義縣阿里山鄉中正村59號","TEL":" ","COUNTYNAME":"嘉義縣","TOWNNAME":"阿里山鄉","MARKTYPE":"995","Class":"5"}},{"type":"Feature","id":26327,"geometry":{"type":"Point","coordinates":[120.93420607351241,23.472411336407813]},"properties":{"OBJECTID":26327,"LANDMARKID":"1001000000832","LANDMARKCO":"513","LANDMARKNA":"玉山西峰","LANDMARKAD":"1001018","ADDRESS":"嘉義縣阿里山鄉","TEL":" ","COUNTYNAME":"嘉義縣","TOWNNAME":"阿里山鄉","MARKTYPE":"995","Class":"5"}},{"type":"Feature","id":26328,"geometry":{"type":"Point","coordinates":[120.91765956694961,23.47559145625813]},"properties":{"OBJECTID":26328,"LANDMARKID":"1001000000833","LANDMARKCO":"513","LANDMARKNA":"前山","LANDMARKAD":"1001018","ADDRESS":"嘉義縣阿里山鄉","TEL":" ","COUNTYNAME":"嘉義縣","TOWNNAME":"阿里山鄉","MARKTYPE":"995","Class":"5"}},{"type":"Feature","id":26329,"geometry":{"type":"Point","coordinates":[120.24683130000825,23.434124093463648]},"properties":{"OBJECTID":26329,"LANDMARKID":"1001000000622","LANDMARKCO":"405","LANDMARKNA":"中油加油站-一品站","LANDMARKAD":"1001002","ADDRESS":"嘉義縣朴子市竹村林里鴨母寮14-16號","TEL":"05-3692726","COUNTYNAME":"嘉義縣","TOWNNAME":"朴子市","MARKTYPE":"994","Class":"4"}},{"type":"Feature","id":26330,"geometry":{"type":"Point","coordinates":[120.24128431974567,23.460116660485983]},"properties":{"OBJECTID":26330,"LANDMARKID":"1001000000623","LANDMARKCO":"405","LANDMARKNA":"中油加油站-泰鋒站","LANDMARKAD":"1001002","ADDRESS":"嘉義縣朴子市文化南路168號","TEL":"05-3702929","COUNTYNAME":"嘉義縣","TOWNNAME":"朴子市","MARKTYPE":"994","Class":"4"}},{"type":"Feature","id":26331,"geometry":{"type":"Point","coordinates":[120.25507795669476,23.465890333478821]},"properties":{"OBJECTID":26331,"LANDMARKID":"1001000000624","LANDMARKCO":"405","LANDMARKNA":"中油加油站-朴子山通路站(中油直營)","LANDMARKAD":"1001002","ADDRESS":"嘉義縣朴子市大鄉里大棣榔625號","TEL":"05-3799580","COUNTYNAME":"嘉義縣","TOWNNAME":"朴子市","MARKTYPE":"994","Class":"4"}},{"type":"Feature","id":26332,"geometry":{"type":"Point","coordinates":[120.24216046413571,23.460840001242957]},"properties":{"OBJECTID":26332,"LANDMARKID":"1001000000625","LANDMARKCO":"405","LANDMARKNA":"中油加油站-朴子站(中油直營)","LANDMARKAD":"1001002","ADDRESS":"嘉義縣朴子市南通路三段635號","TEL":"05-3792364","COUNTYNAME":"嘉義縣","TOWNNAME":"朴子市","MARKTYPE":"994","Class":"4"}},{"type":"Feature","id":26333,"geometry":{"type":"Point","coordinates":[120.2411428654321,23.462884017172009]},"properties":{"OBJECTID":26333,"LANDMARKID":"1001000000572","LANDMARKCO":"402","LANDMARKNA":"My Phone台灣大哥大-嘉義朴子直營服務中心","LANDMARKAD":"1001002","ADDRESS":"嘉義縣朴子市文化南路28號","TEL":"0809-000-166","COUNTYNAME":"嘉義縣","TOWNNAME":"朴子市","MARKTYPE":"994","Class":"4"}},{"type":"Feature","id":26334,"geometry":{"type":"Point","coordinates":[120.24209394578759,23.464059597912726]},"properties":{"OBJECTID":26334,"LANDMARKID":"1001000000573","LANDMARKCO":"402","LANDMARKNA":"亞太行動寬頻電信-朴子山通加盟服務中心","LANDMARKAD":"1001002","ADDRESS":"嘉義縣朴子市山通路123號","TEL":"05-3660708","COUNTYNAME":"嘉義縣","TOWNNAME":"朴子市","MARKTYPE":"994","Class":"4"}},{"type":"Feature","id":26335,"geometry":{"type":"Point","coordinates":[120.28402075423887,23.464859552428781]},"properties":{"OBJECTID":26335,"LANDMARKID":"1001000000567","LANDMARKCO":"401","LANDMARKNA":"財團法人長庚紀念醫院嘉義分院","LANDMARKAD":"1001002","ADDRESS":"嘉義縣朴子市仁和里嘉朴路西段6號","TEL":"05-3621000","COUNTYNAME":"嘉義縣","TOWNNAME":"朴子市","MARKTYPE":"994","Class":"4"}},{"type":"Feature","id":26336,"geometry":{"type":"Point","coordinates":[120.23460163544956,23.464442538020826]},"properties":{"OBJECTID":26336,"LANDMARKID":"1001000000568","LANDMARKCO":"401","LANDMARKNA":"行政院衛生署朴子醫院","LANDMARKAD":"1001002","ADDRESS":"嘉義縣朴子市永和里應菜埔42之50號","TEL":"05-3790600","COUNTYNAME":"嘉義縣","TOWNNAME":"朴子市","MARKTYPE":"994","Class":"4"}},{"type":"Feature","id":26337,"geometry":{"type":"Point","coordinates":[120.24618049719838,23.466216819150855]},"properties":{"OBJECTID":26337,"LANDMARKID":"1001000000725","LANDMARKCO":"408","LANDMARKNA":"郵局-朴子郵局","LANDMARKAD":"1001002","ADDRESS":"嘉義縣朴子市光復路46號","TEL":"(05)3792-130","COUNTYNAME":"嘉義縣","TOWNNAME":"朴子市","MARKTYPE":"994","Class":"4"}},{"type":"Feature","id":26338,"geometry":{"type":"Point","coordinates":[120.23915183649439,23.463582351414956]},"properties":{"OBJECTID":26338,"LANDMARKID":"1001000000726","LANDMARKCO":"408","LANDMARKNA":"郵局-朴子海通路郵局","LANDMARKAD":"1001002","ADDRESS":"嘉義縣朴子市永和里4-2號","TEL":"(05)3796-291","COUNTYNAME":"嘉義縣","TOWNNAME":"朴子市","MARKTYPE":"994","Class":"4"}},{"type":"Feature","id":26339,"geometry":{"type":"Point","coordinates":[120.2897088229207,23.458018805004869]},"properties":{"OBJECTID":26339,"LANDMARKID":"1001000000727","LANDMARKCO":"408","LANDMARKNA":"郵局-朴子祥和郵局","LANDMARKAD":"1001002","ADDRESS":"嘉義縣朴子市祥和二路西段6號","TEL":"(05)3620-051","COUNTYNAME":"嘉義縣","TOWNNAME":"朴子市","MARKTYPE":"994","Class":"4"}},{"type":"Feature","id":26340,"geometry":{"type":"Point","coordinates":[120.28382083506078,23.463919308185591]},"properties":{"OBJECTID":26340,"LANDMARKID":"1001000000728","LANDMARKCO":"408","LANDMARKNA":"郵局-朴子長庚醫院郵局","LANDMARKAD":"1001002","ADDRESS":"嘉義縣朴子市嘉朴路西段6號","TEL":"(05)3623-947","COUNTYNAME":"嘉義縣","TOWNNAME":"朴子市","MARKTYPE":"994","Class":"4"}},{"type":"Feature","id":26341,"geometry":{"type":"Point","coordinates":[120.24602747358541,23.466480687436867]},"properties":{"OBJECTID":26341,"LANDMARKID":"1001000000771","LANDMARKCO":"409","LANDMARKNA":"嘉義縣朴子市農會","LANDMARKAD":"1001002","ADDRESS":"嘉義縣朴子市山通路102號","TEL":"05-3794102","COUNTYNAME":"嘉義縣","TOWNNAME":"朴子市","MARKTYPE":"994","Class":"4"}},{"type":"Feature","id":26342,"geometry":{"type":"Point","coordinates":[120.24740088594422,23.464102175076754]},"properties":{"OBJECTID":26342,"LANDMARKID":"1001000000772","LANDMARKCO":"409","LANDMARKNA":"朴子魚市場","LANDMARKAD":"1001002","ADDRESS":"朴子市永和里海通路16號","TEL":"05-3794337　","COUNTYNAME":"嘉義縣","TOWNNAME":"朴子市","MARKTYPE":"994","Class":"4"}},{"type":"Feature","id":26343,"geometry":{"type":"Point","coordinates":[120.24832732840407,23.46879536206675]},"properties":{"OBJECTID":26343,"LANDMARKID":"1001000000601","LANDMARKCO":"404","LANDMARKNA":"台灣省自來水朴子營運所","LANDMARKAD":"1001002","ADDRESS":"嘉義縣朴子市文明路28號","TEL":" ","COUNTYNAME":"嘉義縣","TOWNNAME":"朴子市","MARKTYPE":"994","Class":"4"}},{"type":"Feature","id":26344,"geometry":{"type":"Point","coordinates":[120.25374132252013,23.467414989988097]},"properties":{"OBJECTID":26344,"LANDMARKID":"1001000000714","LANDMARKCO":"406","LANDMARKNA":"中正公園","LANDMARKAD":"1001002","ADDRESS":"嘉義縣朴子市","TEL":" ","COUNTYNAME":"嘉義縣","TOWNNAME":"朴子市","MARKTYPE":"994","Class":"4"}},{"type":"Feature","id":26345,"geometry":{"type":"Point","coordinates":[120.23709370773129,23.459745528251585]},"properties":{"OBJECTID":26345,"LANDMARKID":"1001000000626","LANDMARKCO":"405","LANDMARKNA":"台亞加油站-朴子四維站（台塑）","LANDMARKAD":"1001002","ADDRESS":"嘉義縣朴子市四維路二段387號","TEL":"(05)366-1569","COUNTYNAME":"嘉義縣","TOWNNAME":"朴子市","MARKTYPE":"994","Class":"4"}},{"type":"Feature","id":26346,"geometry":{"type":"Point","coordinates":[120.25520613327974,23.466003701008852]},"properties":{"OBJECTID":26346,"LANDMARKID":"1001000000627","LANDMARKCO":"405","LANDMARKNA":"台亞加油站-朴子站（台塑）","LANDMARKAD":"1001002","ADDRESS":"嘉義縣朴子市大_鄉253之23號","TEL":"(05)370-2875","COUNTYNAME":"嘉義縣","TOWNNAME":"朴子市","MARKTYPE":"994","Class":"4"}},{"type":"Feature","id":26347,"geometry":{"type":"Point","coordinates":[120.25473232324303,23.466478073622294]},"properties":{"OBJECTID":26347,"LANDMARKID":"1001000000628","LANDMARKCO":"405","LANDMARKNA":"福懋加油站-朴子站(台塑)","LANDMARKAD":"1001002","ADDRESS":"嘉義縣朴子市安福里山通路2-8號","TEL":"05-3660506","COUNTYNAME":"嘉義縣","TOWNNAME":"朴子市","MARKTYPE":"994","Class":"4"}},{"type":"Feature","id":26348,"geometry":{"type":"Point","coordinates":[120.29036090222448,23.457925419859688]},"properties":{"OBJECTID":26348,"LANDMARKID":"1001000000007","LANDMARKCO":"101","LANDMARKNA":"調查局嘉義縣調查站","LANDMARKAD":"1001002","ADDRESS":"嘉義縣朴子市朴子一路1號","TEL":"05-3620012","COUNTYNAME":"嘉義縣","TOWNNAME":"朴子市","MARKTYPE":"991","Class":"1"}},{"type":"Feature","id":26349,"geometry":{"type":"Point","coordinates":[120.24613931016265,23.464672305391517]},"properties":{"OBJECTID":26349,"LANDMARKID":"1001000000125","LANDMARKCO":"107","LANDMARKNA":"嘉義縣消防局第一消防大隊部","LANDMARKAD":"1001002","ADDRESS":"嘉義縣朴子市光復新路16號","TEL":"05-3792088","COUNTYNAME":"嘉義縣","TOWNNAME":"朴子市","MARKTYPE":"991","Class":"1"}},{"type":"Feature","id":26350,"geometry":{"type":"Point","coordinates":[120.24610994823307,23.464672021706868]},"properties":{"OBJECTID":26350,"LANDMARKID":"1001000000126","LANDMARKCO":"107","LANDMARKNA":"嘉義縣消防局朴子消防分隊","LANDMARKAD":"1001002","ADDRESS":"嘉義縣朴子市光復新路16號","TEL":"05-3792075","COUNTYNAME":"嘉義縣","TOWNNAME":"朴子市","MARKTYPE":"991","Class":"1"}},{"type":"Feature","id":26351,"geometry":{"type":"Point","coordinates":[120.24700460857558,23.432986503383013]},"properties":{"OBJECTID":26351,"LANDMARKID":"1001000000127","LANDMARKCO":"107","LANDMARKNA":"嘉義縣警察局竹村派出所","LANDMARKAD":"1001002","ADDRESS":"嘉義縣朴子市竹村里鴨母寮14-2號","TEL":"05-3693219","COUNTYNAME":"嘉義縣","TOWNNAME":"朴子市","MARKTYPE":"991","Class":"1"}},{"type":"Feature","id":26352,"geometry":{"type":"Point","coordinates":[120.24654236804967,23.465606976826258]},"properties":{"OBJECTID":26352,"LANDMARKID":"1001000000039","LANDMARKCO":"103","LANDMARKNA":"嘉義縣朴子市衛生所","LANDMARKAD":"1001002","ADDRESS":"嘉義縣朴子市光復路40號","TEL":"05-3792037","COUNTYNAME":"嘉義縣","TOWNNAME":"朴子市","MARKTYPE":"991","Class":"1"}},{"type":"Feature","id":26353,"geometry":{"type":"Point","coordinates":[120.24691480296421,23.46517877565871]},"properties":{"OBJECTID":26353,"LANDMARKID":"1001000000216","LANDMARKCO":"108","LANDMARKNA":"嘉義縣朴子市公所","LANDMARKAD":"1001002","ADDRESS":"嘉義縣朴子市安福里光復路34號","TEL":"05-3795102","COUNTYNAME":"嘉義縣","TOWNNAME":"朴子市","MARKTYPE":"991","Class":"1"}},{"type":"Feature","id":26354,"geometry":{"type":"Point","coordinates":[120.24657310610263,23.465477126126583]},"properties":{"OBJECTID":26354,"LANDMARKID":"1001000000038","LANDMARKCO":"103","LANDMARKNA":"嘉義縣朴子市民代表會","LANDMARKAD":"1001002","ADDRESS":"嘉義縣朴子市光復路38號","TEL":"05-3792404","COUNTYNAME":"嘉義縣","TOWNNAME":"朴子市","MARKTYPE":"991","Class":"1"}},{"type":"Feature","id":26355,"geometry":{"type":"Point","coordinates":[120.2463357777897,23.46500597818239]},"properties":{"OBJECTID":26355,"LANDMARKID":"1001000000128","LANDMARKCO":"107","LANDMARKNA":"嘉義縣警察局朴子分局","LANDMARKAD":"1001002","ADDRESS":"嘉義縣朴子市平和里光復路33號","TEL":"05-3793584","COUNTYNAME":"嘉義縣","TOWNNAME":"朴子市","MARKTYPE":"991","Class":"1"}},{"type":"Feature","id":26356,"geometry":{"type":"Point","coordinates":[120.25554313360281,23.409940027536702]},"properties":{"OBJECTID":26356,"LANDMARKID":"1001000000129","LANDMARKCO":"107","LANDMARKNA":"嘉義縣警察局松梅派出所","LANDMARKAD":"1001002","ADDRESS":"嘉義縣朴子市梅華里牛挑灣108號","TEL":"05-3691572","COUNTYNAME":"嘉義縣","TOWNNAME":"朴子市","MARKTYPE":"991","Class":"1"}},{"type":"Feature","id":26357,"geometry":{"type":"Point","coordinates":[120.2463357777897,23.46500597818239]},"properties":{"OBJECTID":26357,"LANDMARKID":"1001000000130","LANDMARKCO":"107","LANDMARKNA":"嘉義縣警察局朴子派出所","LANDMARKAD":"1001002","ADDRESS":"嘉義縣朴子市平和里光復路33號","TEL":"05-3792014","COUNTYNAME":"嘉義縣","TOWNNAME":"朴子市","MARKTYPE":"991","Class":"1"}},{"type":"Feature","id":26358,"geometry":{"type":"Point","coordinates":[120.24625452979939,23.465225586133649]},"properties":{"OBJECTID":26358,"LANDMARKID":"1001000000088","LANDMARKCO":"106","LANDMARKNA":"嘉義縣朴子市戶政事務所","LANDMARKAD":"1001002","ADDRESS":"嘉義縣朴子市平和里8鄰光復路35號","TEL":"05-3793571","COUNTYNAME":"嘉義縣","TOWNNAME":"朴子市","MARKTYPE":"991","Class":"1"}},{"type":"Feature","id":26359,"geometry":{"type":"Point","coordinates":[120.24623407676818,23.465305487413861]},"properties":{"OBJECTID":26359,"LANDMARKID":"1001000000072","LANDMARKCO":"105","LANDMARKNA":"嘉義縣朴子地政事務所","LANDMARKAD":"1001002","ADDRESS":"嘉義縣朴子市光復路37號","TEL":"05-3792074","COUNTYNAME":"嘉義縣","TOWNNAME":"朴子市","MARKTYPE":"991","Class":"1"}},{"type":"Feature","id":26360,"geometry":{"type":"Point","coordinates":[120.24661005608654,23.458697301545786]},"properties":{"OBJECTID":26360,"LANDMARKID":"1001000000034","LANDMARKCO":"103","LANDMARKNA":"嘉義縣立體育場","LANDMARKAD":"1001002","ADDRESS":"嘉義縣朴子市四維路一段460號","TEL":"05-3708100","COUNTYNAME":"嘉義縣","TOWNNAME":"朴子市","MARKTYPE":"991","Class":"1"}},{"type":"Feature","id":26361,"geometry":{"type":"Point","coordinates":[120.28888165896439,23.458419481170655]},"properties":{"OBJECTID":26361,"LANDMARKID":"1001000000008","LANDMARKCO":"101","LANDMARKNA":"台灣嘉義地方法院朴子簡易庭","LANDMARKAD":"1001002","ADDRESS":"嘉義縣朴子市朴子三路2號","TEL":"05-3623527","COUNTYNAME":"嘉義縣","TOWNNAME":"朴子市","MARKTYPE":"991","Class":"1"}},{"type":"Feature","id":26362,"geometry":{"type":"Point","coordinates":[120.24718000595252,23.438250043598259]},"properties":{"OBJECTID":26362,"LANDMARKID":"1001000000009","LANDMARKCO":"101","LANDMARKNA":"工業局朴子義竹工業區服務中心","LANDMARKAD":"1001002","ADDRESS":"嘉義縣朴子市朴子工業區二街1號","TEL":"05-3693515","COUNTYNAME":"嘉義縣","TOWNNAME":"朴子市","MARKTYPE":"991","Class":"1"}},{"type":"Feature","id":26363,"geometry":{"type":"Point","coordinates":[120.24512033267256,23.455870099804574]},"properties":{"OBJECTID":26363,"LANDMARKID":"1001000000035","LANDMARKCO":"103","LANDMARKNA":"朴子市立殯儀館","LANDMARKAD":"1001002","ADDRESS":"嘉義縣朴子市光復新路2號","TEL":"05-3793114","COUNTYNAME":"嘉義縣","TOWNNAME":"朴子市","MARKTYPE":"991","Class":"1"}},{"type":"Feature","id":26364,"geometry":{"type":"Point","coordinates":[120.29128126715013,23.459288214014354]},"properties":{"OBJECTID":26364,"LANDMARKID":"1001000000036","LANDMARKCO":"103","LANDMARKNA":"嘉義縣議會","LANDMARKAD":"1001002","ADDRESS":"嘉義縣朴子市祥和一路西段1號","TEL":"05-3620076","COUNTYNAME":"嘉義縣","TOWNNAME":"朴子市","MARKTYPE":"991","Class":"1"}},{"type":"Feature","id":26365,"geometry":{"type":"Point","coordinates":[120.29077292931223,23.457838868050001]},"properties":{"OBJECTID":26365,"LANDMARKID":"1001000000037","LANDMARKCO":"103","LANDMARKNA":"嘉義縣環境保護局","LANDMARKAD":"1001002","ADDRESS":"嘉義縣朴子市祥和新村祥和二路西段2之1號","TEL":"05-3620800","COUNTYNAME":"嘉義縣","TOWNNAME":"朴子市","MARKTYPE":"991","Class":"1"}},{"type":"Feature","id":26366,"geometry":{"type":"Point","coordinates":[120.27866693005755,23.482791186067992]},"properties":{"OBJECTID":26366,"LANDMARKID":"1001000000131","LANDMARKCO":"107","LANDMARKNA":"嘉義縣警察局雙溪派出所","LANDMARKAD":"1001002","ADDRESS":"嘉義縣朴子市溪口里145號","TEL":"05-3794553","COUNTYNAME":"嘉義縣","TOWNNAME":"朴子市","MARKTYPE":"991","Class":"1"}},{"type":"Feature","id":26367,"geometry":{"type":"Point","coordinates":[120.2596225697993,23.460581196801627]},"properties":{"OBJECTID":26367,"LANDMARKID":"1001000000132","LANDMARKCO":"107","LANDMARKNA":"嘉義縣警察局大鄉派出所","LANDMARKAD":"1001002","ADDRESS":"嘉義縣朴子市大鄉里223號","TEL":"05-3792091","COUNTYNAME":"嘉義縣","TOWNNAME":"朴子市","MARKTYPE":"991","Class":"1"}},{"type":"Feature","id":26368,"geometry":{"type":"Point","coordinates":[120.25839320906982,23.473301337285559]},"properties":{"OBJECTID":26368,"LANDMARKID":"1001000000010","LANDMARKCO":"101","LANDMARKNA":"農業委員會台南區農業改良場","LANDMARKAD":"1001002","ADDRESS":"嘉義縣朴子市德興里120號","TEL":"05-3792060","COUNTYNAME":"嘉義縣","TOWNNAME":"朴子市","MARKTYPE":"991","Class":"1"}},{"type":"Feature","id":26369,"geometry":{"type":"Point","coordinates":[120.25140903209017,23.466859851601651]},"properties":{"OBJECTID":26369,"LANDMARKID":"1001000000469","LANDMARKCO":"207","LANDMARKNA":"嘉義縣政府文化局梅嶺美術館","LANDMARKAD":"1001002","ADDRESS":"嘉義縣朴子市山通路2之1號","TEL":" ","COUNTYNAME":"嘉義縣","TOWNNAME":"朴子市","MARKTYPE":"992","Class":"2"}},{"type":"Feature","id":26370,"geometry":{"type":"Point","coordinates":[120.24675129005455,23.465362095530068]},"properties":{"OBJECTID":26370,"LANDMARKID":"1001000000457","LANDMARKCO":"204","LANDMARKNA":"嘉義縣立圖書館朴子金瑧分館","LANDMARKAD":"1001002","ADDRESS":"嘉義縣朴子市光復路36號","TEL":" ","COUNTYNAME":"嘉義縣","TOWNNAME":"朴子市","MARKTYPE":"992","Class":"2"}},{"type":"Feature","id":26371,"geometry":{"type":"Point","coordinates":[120.24997164915241,23.466750074293891]},"properties":{"OBJECTID":26371,"LANDMARKID":"1001000000240","LANDMARKCO":"202","LANDMARKNA":"縣立東石國中分部","LANDMARKAD":"1001002","ADDRESS":"嘉義縣朴子市山通路7號","TEL":"05-3792151","COUNTYNAME":"嘉義縣","TOWNNAME":"朴子市","MARKTYPE":"992","Class":"2"}},{"type":"Feature","id":26372,"geometry":{"type":"Point","coordinates":[120.23882132417791,23.461250076702857]},"properties":{"OBJECTID":26372,"LANDMARKID":"1001000000298","LANDMARKCO":"203","LANDMARKNA":"縣立朴子國中","LANDMARKAD":"1001002","ADDRESS":"嘉義縣朴子市竹圍里大同路245號","TEL":"05-3705120","COUNTYNAME":"嘉義縣","TOWNNAME":"朴子市","MARKTYPE":"992","Class":"2"}},{"type":"Feature","id":26373,"geometry":{"type":"Point","coordinates":[120.25034555749066,23.467828489339702]},"properties":{"OBJECTID":26373,"LANDMARKID":"1001000000299","LANDMARKCO":"203","LANDMARKNA":"縣立東石國中","LANDMARKAD":"1001002","ADDRESS":"嘉義縣朴子市安福里山通路6號","TEL":"05-3792027","COUNTYNAME":"嘉義縣","TOWNNAME":"朴子市","MARKTYPE":"992","Class":"2"}},{"type":"Feature","id":26374,"geometry":{"type":"Point","coordinates":[120.24051701037841,23.460974763627085]},"properties":{"OBJECTID":26374,"LANDMARKID":"1001000000300","LANDMARKCO":"203","LANDMARKNA":"縣立大同國小","LANDMARKAD":"1001002","ADDRESS":"嘉義縣朴子市大同路239號","TEL":"05-3704926","COUNTYNAME":"嘉義縣","TOWNNAME":"朴子市","MARKTYPE":"992","Class":"2"}},{"type":"Feature","id":26375,"geometry":{"type":"Point","coordinates":[120.2479121008207,23.466670155462339]},"properties":{"OBJECTID":26375,"LANDMARKID":"1001000000301","LANDMARKCO":"203","LANDMARKNA":"縣立朴子國小","LANDMARKAD":"1001002","ADDRESS":"嘉義縣朴子市山通路11號","TEL":"05-3792032","COUNTYNAME":"嘉義縣","TOWNNAME":"朴子市","MARKTYPE":"992","Class":"2"}},{"type":"Feature","id":26376,"geometry":{"type":"Point","coordinates":[120.28879838945161,23.447919098366469]},"properties":{"OBJECTID":26376,"LANDMARKID":"1001000000222","LANDMARKCO":"201","LANDMARKNA":"稻江科技暨管理學院","LANDMARKAD":"1001002","ADDRESS":"嘉義縣朴子市學府路二段51號","TEL":"05-3622889","COUNTYNAME":"嘉義縣","TOWNNAME":"朴子市","MARKTYPE":"992","Class":"2"}},{"type":"Feature","id":26377,"geometry":{"type":"Point","coordinates":[120.28860642749648,23.456618225862975]},"properties":{"OBJECTID":26377,"LANDMARKID":"1001000000223","LANDMARKCO":"201","LANDMARKNA":"國立台灣體育學院嘉義校區","LANDMARKAD":"1001002","ADDRESS":"嘉義縣朴子市朴子三路6號","TEL":"05-3621241","COUNTYNAME":"嘉義縣","TOWNNAME":"朴子市","MARKTYPE":"992","Class":"2"}},{"type":"Feature","id":26378,"geometry":{"type":"Point","coordinates":[120.28715946008137,23.456769479888841]},"properties":{"OBJECTID":26378,"LANDMARKID":"1001000000307","LANDMARKCO":"203","LANDMARKNA":"縣立祥和國小","LANDMARKAD":"1001002","ADDRESS":"嘉義縣朴子市祥和二路西段9號","TEL":"05-3621839","COUNTYNAME":"嘉義縣","TOWNNAME":"朴子市","MARKTYPE":"992","Class":"2"}},{"type":"Feature","id":26379,"geometry":{"type":"Point","coordinates":[120.25189205236951,23.463527075716886]},"properties":{"OBJECTID":26379,"LANDMARKID":"1001000000238","LANDMARKCO":"202","LANDMARKNA":"國立東石高中","LANDMARKAD":"1001002","ADDRESS":"嘉義縣朴子市大鄉里253號","TEL":"05-3794180","COUNTYNAME":"嘉義縣","TOWNNAME":"朴子市","MARKTYPE":"992","Class":"2"}},{"type":"Feature","id":26380,"geometry":{"type":"Point","coordinates":[120.22807816896243,23.450310393333943]},"properties":{"OBJECTID":26380,"LANDMARKID":"1001000000239","LANDMARKCO":"202","LANDMARKNA":"私立弘德工商","LANDMARKAD":"1001002","ADDRESS":"嘉義縣朴子市崁後里54之2號","TEL":"05-3691473","COUNTYNAME":"嘉義縣","TOWNNAME":"朴子市","MARKTYPE":"992","Class":"2"}},{"type":"Feature","id":26381,"geometry":{"type":"Point","coordinates":[120.25063375481407,23.41123294660558]},"properties":{"OBJECTID":26381,"LANDMARKID":"1001000000302","LANDMARKCO":"203","LANDMARKNA":"縣立松梅國小","LANDMARKAD":"1001002","ADDRESS":"嘉義縣朴子市松華里345號","TEL":"05-3693075","COUNTYNAME":"嘉義縣","TOWNNAME":"朴子市","MARKTYPE":"992","Class":"2"}},{"type":"Feature","id":26382,"geometry":{"type":"Point","coordinates":[120.23858122650202,23.435022158990687]},"properties":{"OBJECTID":26382,"LANDMARKID":"1001000000303","LANDMARKCO":"203","LANDMARKNA":"縣立竹村國小","LANDMARKAD":"1001002","ADDRESS":"嘉義縣朴子市竹村里36號","TEL":"05-3693628","COUNTYNAME":"嘉義縣","TOWNNAME":"朴子市","MARKTYPE":"992","Class":"2"}},{"type":"Feature","id":26383,"geometry":{"type":"Point","coordinates":[120.27747199444116,23.484237729605642]},"properties":{"OBJECTID":26383,"LANDMARKID":"1001000000304","LANDMARKCO":"203","LANDMARKNA":"縣立雙溪國小","LANDMARKAD":"1001002","ADDRESS":"嘉義縣朴子市雙溪里30號","TEL":"05-3795549","COUNTYNAME":"嘉義縣","TOWNNAME":"朴子市","MARKTYPE":"992","Class":"2"}},{"type":"Feature","id":26384,"geometry":{"type":"Point","coordinates":[120.26119692560184,23.453539742113122]},"properties":{"OBJECTID":26384,"LANDMARKID":"1001000000305","LANDMARKCO":"203","LANDMARKNA":"縣立大鄉國小","LANDMARKAD":"1001002","ADDRESS":"嘉義縣朴子市大鄉里大康榔560號","TEL":"05-3792952","COUNTYNAME":"嘉義縣","TOWNNAME":"朴子市","MARKTYPE":"992","Class":"2"}},{"type":"Feature","id":26385,"geometry":{"type":"Point","coordinates":[120.22996680406622,23.446717245796062]},"properties":{"OBJECTID":26385,"LANDMARKID":"1001000000306","LANDMARKCO":"203","LANDMARKNA":"縣立竹村國小崁後分校","LANDMARKAD":"1001002","ADDRESS":"嘉義縣朴子市崁後里34之3號","TEL":"05-3691446","COUNTYNAME":"嘉義縣","TOWNNAME":"朴子市","MARKTYPE":"992","Class":"2"}},{"type":"Feature","id":26386,"geometry":{"type":"Point","coordinates":[120.28799123609765,23.461708956543468]},"properties":{"OBJECTID":26386,"LANDMARKID":"1001000000228","LANDMARKCO":"201","LANDMARKNA":"長庚技術學院嘉義分部","LANDMARKAD":"1001002","ADDRESS":"嘉義縣朴子市嘉朴路西段2號","TEL":"05-3628800","COUNTYNAME":"嘉義縣","TOWNNAME":"朴子市","MARKTYPE":"992","Class":"2"}},{"type":"Feature","id":26387,"geometry":{"type":"Point","coordinates":[120.24520507953032,23.451561740367666]},"properties":{"OBJECTID":26387,"LANDMARKID":"1001000000560","LANDMARKCO":"308","LANDMARKNA":"台82-觀音山交流道-西行","LANDMARKAD":"1001002","ADDRESS":"嘉義縣朴子市","TEL":" ","COUNTYNAME":"嘉義縣","TOWNNAME":"朴子市","MARKTYPE":"993","Class":"308"}},{"type":"Feature","id":26388,"geometry":{"type":"Point","coordinates":[120.24449314379919,23.46538001505915]},"properties":{"OBJECTID":26388,"LANDMARKID":"1001000000492","LANDMARKCO":"302","LANDMARKNA":"統聯客運-朴子站-自營站","LANDMARKAD":"1001002","ADDRESS":"嘉義縣朴子市山通路59號","TEL":"連絡電話:05-370","COUNTYNAME":"嘉義縣","TOWNNAME":"朴子市","MARKTYPE":"993","Class":"302"}},{"type":"Feature","id":26389,"geometry":{"type":"Point","coordinates":[120.24435427010874,23.465273821657156]},"properties":{"OBJECTID":26389,"LANDMARKID":"1001000000493","LANDMARKCO":"302","LANDMARKNA":"嘉義汽車客運朴子站","LANDMARKAD":"1001002","ADDRESS":"嘉義縣朴子市山通路59號","TEL":" ","COUNTYNAME":"嘉義縣","TOWNNAME":"朴子市","MARKTYPE":"993","Class":"302"}},{"type":"Feature","id":26390,"geometry":{"type":"Point","coordinates":[120.24424653581779,23.466743124482768]},"properties":{"OBJECTID":26390,"LANDMARKID":"1001000000494","LANDMARKCO":"303","LANDMARKNA":"朴子第一公有零售市場地下室停車","LANDMARKAD":"1001002","ADDRESS":"嘉義縣朴子市開元路","TEL":" ","COUNTYNAME":"嘉義縣","TOWNNAME":"朴子市","MARKTYPE":"993","Class":"303"}},{"type":"Feature","id":26391,"geometry":{"type":"Point","coordinates":[120.24700753063406,23.466658245556303]},"properties":{"OBJECTID":26391,"LANDMARKID":"1001000000574","LANDMARKCO":"402","LANDMARKNA":"中華電信-朴子服務中心","LANDMARKAD":"1001002","ADDRESS":"嘉義縣朴子市山通路21號","TEL":"123 或 080050","COUNTYNAME":"嘉義縣","TOWNNAME":"朴子市","MARKTYPE":"994","Class":"4"}},{"type":"Feature","id":26392,"geometry":{"type":"Point","coordinates":[120.24210971766178,23.463861203509488]},"properties":{"OBJECTID":26392,"LANDMARKID":"1001000000575","LANDMARKCO":"402","LANDMARKNA":"威寶電信-朴子海通特約服務中心","LANDMARKAD":"1001002","ADDRESS":"嘉義縣朴子市海通路78號","TEL":"05-3707564","COUNTYNAME":"嘉義縣","TOWNNAME":"朴子市","MARKTYPE":"994","Class":"4"}},{"type":"Feature","id":26393,"geometry":{"type":"Point","coordinates":[120.2465530779113,23.46668989935711]},"properties":{"OBJECTID":26393,"LANDMARKID":"1001000000841","LANDMARKCO":"603","LANDMARKNA":"宏賓旅社","LANDMARKAD":"1001002","ADDRESS":"嘉義縣朴子市山通路90號","TEL":"05-3792222","COUNTYNAME":"嘉義縣","TOWNNAME":"朴子市","MARKTYPE":"996","Class":"6"}},{"type":"Feature","id":26394,"geometry":{"type":"Point","coordinates":[120.24568649643612,23.466618388937977]},"properties":{"OBJECTID":26394,"LANDMARKID":"1001000000842","LANDMARKCO":"603","LANDMARKNA":"嘉洲大飯店","LANDMARKAD":"1001002","ADDRESS":"嘉義縣朴子市光復路57號","TEL":"05-3794121-4","COUNTYNAME":"嘉義縣","TOWNNAME":"朴子市","MARKTYPE":"996","Class":"6"}},{"type":"Feature","id":26395,"geometry":{"type":"Point","coordinates":[120.2429532729291,23.464239547082784]},"properties":{"OBJECTID":26395,"LANDMARKID":"1001000000843","LANDMARKCO":"603","LANDMARKNA":"萬龍旅社","LANDMARKAD":"1001002","ADDRESS":"嘉義縣朴子市南通路三段800號","TEL":"05-3792696","COUNTYNAME":"嘉義縣","TOWNNAME":"朴子市","MARKTYPE":"996","Class":"6"}},{"type":"Feature","id":26396,"geometry":{"type":"Point","coordinates":[120.43604668188675,23.43567334668634]},"properties":{"OBJECTID":26396,"LANDMARKID":"1001000000629","LANDMARKCO":"405","LANDMARKNA":"中油加油站-快速交流道站","LANDMARKAD":"1001012","ADDRESS":"嘉義縣水上鄉內溪村中義路998號","TEL":"05-2306899","COUNTYNAME":"嘉義縣","TOWNNAME":"水上鄉","MARKTYPE":"994","Class":"4"}},{"type":"Feature","id":26397,"geometry":{"type":"Point","coordinates":[120.3901197100798,23.421962475499853]},"properties":{"OBJECTID":26397,"LANDMARKID":"1001000000630","LANDMARKCO":"405","LANDMARKNA":"統一速邁樂加油站-水上加油站(中油)","LANDMARKAD":"1001012","ADDRESS":"嘉義縣水上鄉龍德村十一指厝8之2號","TEL":" ","COUNTYNAME":"嘉義縣","TOWNNAME":"水上鄉","MARKTYPE":"994","Class":"4"}},{"type":"Feature","id":26398,"geometry":{"type":"Point","coordinates":[120.41544801405217,23.434139435147095]},"properties":{"OBJECTID":26398,"LANDMARKID":"1001000000631","LANDMARKCO":"405","LANDMARKNA":"中油加油站-柳林站(中油直營)","LANDMARKAD":"1001012","ADDRESS":"嘉義縣水上鄉柳林村柳子林76-6號","TEL":"05-2688327","COUNTYNAME":"嘉義縣","TOWNNAME":"水上鄉","MARKTYPE":"994","Class":"4"}},{"type":"Feature","id":26399,"geometry":{"type":"Point","coordinates":[120.41245890798758,23.450135717639998]},"properties":{"OBJECTID":26399,"LANDMARKID":"1001000000632","LANDMARKCO":"405","LANDMARKNA":"中油加油站-佳宜站","LANDMARKAD":"1001012","ADDRESS":"嘉義縣水上鄉下寮村中山路三段37號","TEL":"05-2863178","COUNTYNAME":"嘉義縣","TOWNNAME":"水上鄉","MARKTYPE":"994","Class":"4"}},{"type":"Feature","id":26400,"geometry":{"type":"Point","coordinates":[120.41466186050461,23.451736503315988]},"properties":{"OBJECTID":26400,"LANDMARKID":"1001000000633","LANDMARKCO":"405","LANDMARKNA":"中油加油站-北回站","LANDMARKAD":"1001012","ADDRESS":"嘉義縣水上鄉回歸村北回32號","TEL":"05-2853965","COUNTYNAME":"嘉義縣","TOWNNAME":"水上鄉","MARKTYPE":"994","Class":"4"}}]}