{"type":"FeatureCollection","features":[{"type":"Feature","id":8801,"geometry":{"type":"Point","coordinates":[121.51551016788464,25.039998109894324]},"properties":{"OBJECTID":8801,"LANDMARKID":"6300000000241","LANDMARKCO":"107","LANDMARKNA":"台北市政府警察局介壽路派出所","LANDMARKAD":"6300005","ADDRESS":"台北市中正區公園路54號","TEL":"02-23113081","COUNTYNAME":"台北市","TOWNNAME":"中正區","MARKTYPE":"991","Class":"1"}},{"type":"Feature","id":8802,"geometry":{"type":"Point","coordinates":[121.5115834131316,25.041730995665297]},"properties":{"OBJECTID":8802,"LANDMARKID":"6300000000242","LANDMARKCO":"107","LANDMARKNA":"台北市政府警察局博愛路派出所","LANDMARKAD":"6300005","ADDRESS":"台北市中正區博愛路119號","TEL":"02-23142724","COUNTYNAME":"台北市","TOWNNAME":"中正區","MARKTYPE":"991","Class":"1"}},{"type":"Feature","id":8803,"geometry":{"type":"Point","coordinates":[121.5140428031856,25.031998096362905]},"properties":{"OBJECTID":8803,"LANDMARKID":"6300000000243","LANDMARKCO":"107","LANDMARKNA":"台北市政府警察局中正二分局","LANDMARKAD":"6300005","ADDRESS":"台北市中正區南門里南海路35號","TEL":"02-23751825","COUNTYNAME":"台北市","TOWNNAME":"中正區","MARKTYPE":"991","Class":"1"}},{"type":"Feature","id":8804,"geometry":{"type":"Point","coordinates":[121.5140428031856,25.031998096362905]},"properties":{"OBJECTID":8804,"LANDMARKID":"6300000000244","LANDMARKCO":"107","LANDMARKNA":"台北市政府警察局南海路派出所","LANDMARKAD":"6300005","ADDRESS":"台北市中正區南門里南海路35號","TEL":"02-23752835","COUNTYNAME":"台北市","TOWNNAME":"中正區","MARKTYPE":"991","Class":"1"}},{"type":"Feature","id":8805,"geometry":{"type":"Point","coordinates":[121.53193254139934,25.015192654412175]},"properties":{"OBJECTID":8805,"LANDMARKID":"6300000000245","LANDMARKCO":"107","LANDMARKNA":"台北市政府警察局思源街派出所","LANDMARKAD":"6300005","ADDRESS":"台北市汀州路3段72號","TEL":"02-23650844","COUNTYNAME":"台北市","TOWNNAME":"中正區","MARKTYPE":"991","Class":"1"}},{"type":"Feature","id":8806,"geometry":{"type":"Point","coordinates":[121.51653487485422,25.032312603623762]},"properties":{"OBJECTID":8806,"LANDMARKID":"6300000000246","LANDMARKCO":"107","LANDMARKNA":"台北市政府警察局南昌路派出所","LANDMARKAD":"6300005","ADDRESS":"台北市中正區龍福里南昌路一段7號","TEL":"02-23218148","COUNTYNAME":"台北市","TOWNNAME":"中正區","MARKTYPE":"991","Class":"1"}},{"type":"Feature","id":8807,"geometry":{"type":"Point","coordinates":[121.51735177915661,25.024161914183779]},"properties":{"OBJECTID":8807,"LANDMARKID":"6300000000247","LANDMARKCO":"107","LANDMARKNA":"台北市政府警察局廈門街派出所","LANDMARKAD":"6300005","ADDRESS":"台北市中正區廈門街94號","TEL":"02-23684427","COUNTYNAME":"台北市","TOWNNAME":"中正區","MARKTYPE":"991","Class":"1"}},{"type":"Feature","id":8808,"geometry":{"type":"Point","coordinates":[121.50814161398033,25.035801922547972]},"properties":{"OBJECTID":8808,"LANDMARKID":"6300000000248","LANDMARKCO":"107","LANDMARKNA":"內政部入出國及移民署","LANDMARKAD":"6300005","ADDRESS":"台北市中正區廣州街15號","TEL":"02-23899983","COUNTYNAME":"台北市","TOWNNAME":"中正區","MARKTYPE":"991","Class":"1"}},{"type":"Feature","id":8809,"geometry":{"type":"Point","coordinates":[121.52097069164168,25.047192803749777]},"properties":{"OBJECTID":8809,"LANDMARKID":"6300000000249","LANDMARKCO":"107","LANDMARKNA":"台北市政府警察局交通警察大隊","LANDMARKAD":"6300005","ADDRESS":"台北市中正區北平東路1號","TEL":"02-23214666","COUNTYNAME":"台北市","TOWNNAME":"中正區","MARKTYPE":"991","Class":"1"}},{"type":"Feature","id":8810,"geometry":{"type":"Point","coordinates":[121.51244309840335,25.024589754405572]},"properties":{"OBJECTID":8810,"LANDMARKID":"6300000000250","LANDMARKCO":"107","LANDMARKNA":"台北市消防局第一救災救護大隊","LANDMARKAD":"6300005","ADDRESS":"台北市中正區泉州街40號46樓","TEL":"02-23325631","COUNTYNAME":"台北市","TOWNNAME":"中正區","MARKTYPE":"991","Class":"1"}},{"type":"Feature","id":8811,"geometry":{"type":"Point","coordinates":[121.52709808831173,25.043684255628204]},"properties":{"OBJECTID":8811,"LANDMARKID":"6300000000251","LANDMARKCO":"107","LANDMARKNA":"台北市消防局忠孝消防分隊","LANDMARKAD":"6300005","ADDRESS":"台北市中正區忠孝東路二段8號","TEL":"02-23516396","COUNTYNAME":"台北市","TOWNNAME":"中正區","MARKTYPE":"991","Class":"1"}},{"type":"Feature","id":8812,"geometry":{"type":"Point","coordinates":[121.52117247147973,25.028435492011251]},"properties":{"OBJECTID":8812,"LANDMARKID":"6300000000252","LANDMARKCO":"107","LANDMARKNA":"台北市消防局古亭消防分隊","LANDMARKAD":"6300005","ADDRESS":"台北市中正區羅斯福路二段32號","TEL":"02-23212600","COUNTYNAME":"台北市","TOWNNAME":"中正區","MARKTYPE":"991","Class":"1"}},{"type":"Feature","id":8813,"geometry":{"type":"Point","coordinates":[121.51339641771438,25.046735883695462]},"properties":{"OBJECTID":8813,"LANDMARKID":"6300000000253","LANDMARKCO":"107","LANDMARKNA":"台北市消防局城中消防分隊","LANDMARKAD":"6300005","ADDRESS":"台北市中正區重慶南路一段1號","TEL":"02-23812839","COUNTYNAME":"台北市","TOWNNAME":"中正區","MARKTYPE":"991","Class":"1"}},{"type":"Feature","id":8814,"geometry":{"type":"Point","coordinates":[121.52097069164168,25.047192803749777]},"properties":{"OBJECTID":8814,"LANDMARKID":"6300000000254","LANDMARKCO":"107","LANDMARKNA":"台北市消防局中正消防中隊","LANDMARKAD":"6300005","ADDRESS":"台北市中正區北平東路1號2樓","TEL":"02-23213802","COUNTYNAME":"台北市","TOWNNAME":"中正區","MARKTYPE":"991","Class":"1"}},{"type":"Feature","id":8815,"geometry":{"type":"Point","coordinates":[121.52097069164168,25.047192803749777]},"properties":{"OBJECTID":8815,"LANDMARKID":"6300000000255","LANDMARKCO":"107","LANDMARKNA":"台北市消防局華山消防分隊","LANDMARKAD":"6300005","ADDRESS":"台北市中正區北平東路1號","TEL":"02-23412668","COUNTYNAME":"台北市","TOWNNAME":"中正區","MARKTYPE":"991","Class":"1"}},{"type":"Feature","id":8816,"geometry":{"type":"Point","coordinates":[121.51596731961051,25.03048836851579]},"properties":{"OBJECTID":8816,"LANDMARKID":"6300000000133","LANDMARKCO":"103","LANDMARKNA":"台北市中正區衛生所","LANDMARKAD":"6300005","ADDRESS":"台北市中正區牯嶺街24號","TEL":"02-23215158","COUNTYNAME":"台北市","TOWNNAME":"中正區","MARKTYPE":"991","Class":"1"}},{"type":"Feature","id":8817,"geometry":{"type":"Point","coordinates":[121.51821115818422,25.032468558170173]},"properties":{"OBJECTID":8817,"LANDMARKID":"6300000000374","LANDMARKCO":"108","LANDMARKNA":"台北市中正區公所","LANDMARKAD":"6300005","ADDRESS":"台北市中正區羅斯福路一段8號6樓","TEL":"02-23416721","COUNTYNAME":"台北市","TOWNNAME":"中正區","MARKTYPE":"991","Class":"1"}},{"type":"Feature","id":8818,"geometry":{"type":"Point","coordinates":[121.51244789870934,25.037926490017757]},"properties":{"OBJECTID":8818,"LANDMARKID":"6300000000076","LANDMARKCO":"101","LANDMARKNA":"台灣高等法院","LANDMARKAD":"6300005","ADDRESS":"台北市中正區重慶南路一段124號","TEL":"02-23713261","COUNTYNAME":"台北市","TOWNNAME":"中正區","MARKTYPE":"991","Class":"1"}},{"type":"Feature","id":8819,"geometry":{"type":"Point","coordinates":[121.53502495282254,25.01375623856709]},"properties":{"OBJECTID":8819,"LANDMARKID":"6300000000132","LANDMARKCO":"103","LANDMARKNA":"台北市兵役處","LANDMARKAD":"6300005","ADDRESS":"台北市中正區羅斯福路四段92號9樓","TEL":"02-23654361","COUNTYNAME":"台北市","TOWNNAME":"中正區","MARKTYPE":"991","Class":"1"}},{"type":"Feature","id":8820,"geometry":{"type":"Point","coordinates":[121.5104583184434,25.03104670614163]},"properties":{"OBJECTID":8820,"LANDMARKID":"6300000000077","LANDMARKCO":"101","LANDMARKNA":"農業委員會林業試驗所","LANDMARKAD":"6300005","ADDRESS":"台北市南海路53號","TEL":"02-23039978","COUNTYNAME":"台北市","TOWNNAME":"中正區","MARKTYPE":"991","Class":"1"}},{"type":"Feature","id":8821,"geometry":{"type":"Point","coordinates":[121.51707316680337,25.047174237473318]},"properties":{"OBJECTID":8821,"LANDMARKID":"6300000000131","LANDMARKCO":"103","LANDMARKNA":"台北市政府勞工局台北火車站服務站","LANDMARKAD":"6300005","ADDRESS":"台北市北平西路3號1樓東區","TEL":"02-23811278","COUNTYNAME":"台北市","TOWNNAME":"中正區","MARKTYPE":"991","Class":"1"}},{"type":"Feature","id":8822,"geometry":{"type":"Point","coordinates":[121.51244789870934,25.037926490017757]},"properties":{"OBJECTID":8822,"LANDMARKID":"6300000000078","LANDMARKCO":"101","LANDMARKNA":"公務員懲戒委員會","LANDMARKAD":"6300005","ADDRESS":"台北市中正區重慶南路一段124號3樓","TEL":"02-23111639","COUNTYNAME":"台北市","TOWNNAME":"中正區","MARKTYPE":"991","Class":"1"}},{"type":"Feature","id":8823,"geometry":{"type":"Point","coordinates":[121.5317737174874,25.036831876558278]},"properties":{"OBJECTID":8823,"LANDMARKID":"6300000000079","LANDMARKCO":"101","LANDMARKNA":"教育部兒童讀物出版資金管理委員會","LANDMARKAD":"6300005","ADDRESS":"台北市中正區連雲街18號4樓","TEL":"02-23416894","COUNTYNAME":"台北市","TOWNNAME":"中正區","MARKTYPE":"991","Class":"1"}},{"type":"Feature","id":8824,"geometry":{"type":"Point","coordinates":[121.52276770275577,25.043296539230294]},"properties":{"OBJECTID":8824,"LANDMARKID":"6300000000080","LANDMARKCO":"101","LANDMARKNA":"衛生署疾病管制局","LANDMARKAD":"6300005","ADDRESS":"台北市中正區林森南路6號5樓","TEL":"02-23959825","COUNTYNAME":"台北市","TOWNNAME":"中正區","MARKTYPE":"991","Class":"1"}},{"type":"Feature","id":8825,"geometry":{"type":"Point","coordinates":[121.51998678604241,25.042909076576148]},"properties":{"OBJECTID":8825,"LANDMARKID":"6300000000081","LANDMARKCO":"101","LANDMARKNA":"行政院研究發展考核委員會","LANDMARKAD":"6300005","ADDRESS":"台北市中正區濟南路一段2之2號6樓","TEL":"02-23419066","COUNTYNAME":"台北市","TOWNNAME":"中正區","MARKTYPE":"991","Class":"1"}},{"type":"Feature","id":8826,"geometry":{"type":"Point","coordinates":[121.52534060629229,25.044536287258111]},"properties":{"OBJECTID":8826,"LANDMARKID":"6300000000082","LANDMARKCO":"101","LANDMARKNA":"青年輔導委員會忠孝東路辦公室","LANDMARKAD":"6300005","ADDRESS":"台北市中正區忠孝東路一段31號3樓","TEL":"02-23560766","COUNTYNAME":"台北市","TOWNNAME":"中正區","MARKTYPE":"991","Class":"1"}},{"type":"Feature","id":8827,"geometry":{"type":"Point","coordinates":[121.5174432069532,25.033455689120533]},"properties":{"OBJECTID":8827,"LANDMARKID":"6300000000083","LANDMARKCO":"101","LANDMARKNA":"勞工委員會勞工保險監理委員會","LANDMARKAD":"6300005","ADDRESS":"台北市中正區羅斯福路一段4號10樓","TEL":"02-23961266","COUNTYNAME":"台北市","TOWNNAME":"中正區","MARKTYPE":"991","Class":"1"}},{"type":"Feature","id":8828,"geometry":{"type":"Point","coordinates":[121.52643927268127,25.043855949310963]},"properties":{"OBJECTID":8828,"LANDMARKID":"6300000000130","LANDMARKCO":"103","LANDMARKNA":"台東縣政府台北聯絡處","LANDMARKAD":"6300005","ADDRESS":"台北市中正區忠孝東路一段176號6樓之1","TEL":"02-23957166","COUNTYNAME":"台北市","TOWNNAME":"中正區","MARKTYPE":"991","Class":"1"}},{"type":"Feature","id":8829,"geometry":{"type":"Point","coordinates":[121.50901850718724,25.043296454398135]},"properties":{"OBJECTID":8829,"LANDMARKID":"6300000000084","LANDMARKCO":"101","LANDMARKNA":"國民大會祕書處","LANDMARKAD":"6300005","ADDRESS":"台北市中正區中華路一段53號1樓","TEL":"02-23311312","COUNTYNAME":"台北市","TOWNNAME":"中正區","MARKTYPE":"991","Class":"1"}},{"type":"Feature","id":8830,"geometry":{"type":"Point","coordinates":[121.51219096165509,25.041340891996153]},"properties":{"OBJECTID":8830,"LANDMARKID":"6300000000085","LANDMARKCO":"101","LANDMARKNA":"經濟部國營事業委員會","LANDMARKAD":"6300005","ADDRESS":"台北市中正區寶慶路25號","TEL":"02-23713161","COUNTYNAME":"台北市","TOWNNAME":"中正區","MARKTYPE":"991","Class":"1"}},{"type":"Feature","id":8831,"geometry":{"type":"Point","coordinates":[121.51020711046914,25.034860565333524]},"properties":{"OBJECTID":8831,"LANDMARKID":"6300000000086","LANDMARKCO":"101","LANDMARKNA":"行政院主計處廣博大樓","LANDMARKAD":"6300005","ADDRESS":"台北市中正區廣州街2號","TEL":"02-2380-3400","COUNTYNAME":"台北市","TOWNNAME":"中正區","MARKTYPE":"991","Class":"1"}},{"type":"Feature","id":8832,"geometry":{"type":"Point","coordinates":[121.5304724347517,25.040410934467786]},"properties":{"OBJECTID":8832,"LANDMARKID":"6300000000087","LANDMARKCO":"101","LANDMARKNA":"勞工保險局","LANDMARKAD":"6300005","ADDRESS":"台北市中正區濟南路二段42號2樓","TEL":"02-23568873","COUNTYNAME":"台北市","TOWNNAME":"中正區","MARKTYPE":"991","Class":"1"}},{"type":"Feature","id":8833,"geometry":{"type":"Point","coordinates":[121.51099401442454,25.036288349930569]},"properties":{"OBJECTID":8833,"LANDMARKID":"6300000000088","LANDMARKCO":"101","LANDMARKNA":"北美事務協調委員會","LANDMARKAD":"6300005","ADDRESS":"台北市中正區博愛路133號","TEL":"02-23116979","COUNTYNAME":"台北市","TOWNNAME":"中正區","MARKTYPE":"991","Class":"1"}},{"type":"Feature","id":8834,"geometry":{"type":"Point","coordinates":[121.52249575869398,25.038980745222247]},"properties":{"OBJECTID":8834,"LANDMARKID":"6300000000235","LANDMARKCO":"107","LANDMARKNA":"台北市政府警察局仁愛路派出所","LANDMARKAD":"6300005","ADDRESS":"臺北市仁愛路1段19號","TEL":"02-23212067","COUNTYNAME":"台北市","TOWNNAME":"中正區","MARKTYPE":"991","Class":"1"}},{"type":"Feature","id":8835,"geometry":{"type":"Point","coordinates":[121.51220800445081,25.024246045267819]},"properties":{"OBJECTID":8835,"LANDMARKID":"6300000000236","LANDMARKCO":"107","LANDMARKNA":"台北市政府警察局泉州街派出所","LANDMARKAD":"6300005","ADDRESS":"台北市中華路2段503號","TEL":"02-23039915","COUNTYNAME":"台北市","TOWNNAME":"中正區","MARKTYPE":"991","Class":"1"}},{"type":"Feature","id":8836,"geometry":{"type":"Point","coordinates":[121.51918713079789,25.03824875965854]},"properties":{"OBJECTID":8836,"LANDMARKID":"6300000000134","LANDMARKCO":"103","LANDMARKNA":"台北市中正運動中心","LANDMARKAD":"6300005","ADDRESS":"台北市信義路一段1號","TEL":"02-33225016","COUNTYNAME":"台北市","TOWNNAME":"中正區","MARKTYPE":"991","Class":"1"}},{"type":"Feature","id":8837,"geometry":{"type":"Point","coordinates":[121.52882781913887,25.043225878723614]},"properties":{"OBJECTID":8837,"LANDMARKID":"6300000000135","LANDMARKCO":"103","LANDMARKNA":"高雄市議會台北聯絡處","LANDMARKAD":"6300005","ADDRESS":"台北市中山區忠孝東路二段80號11樓","TEL":"02-23972710","COUNTYNAME":"台北市","TOWNNAME":"中正區","MARKTYPE":"991","Class":"1"}},{"type":"Feature","id":8838,"geometry":{"type":"Point","coordinates":[121.51117598851363,25.046501782666059]},"properties":{"OBJECTID":8838,"LANDMARKID":"6300000000784","LANDMARKCO":"205","LANDMARKNA":"黃俊榮相機博物館","LANDMARKAD":"6300005","ADDRESS":"台北市博愛路16號4樓","TEL":"02-23618299","COUNTYNAME":"台北市","TOWNNAME":"中正區","MARKTYPE":"992","Class":"2"}},{"type":"Feature","id":8839,"geometry":{"type":"Point","coordinates":[121.50836059372271,25.032009116560836]},"properties":{"OBJECTID":8839,"LANDMARKID":"6300000000785","LANDMARKCO":"205","LANDMARKNA":"布政使司文物館","LANDMARKAD":"6300005","ADDRESS":"台北市中正區南海路53號","TEL":" ","COUNTYNAME":"台北市","TOWNNAME":"中正區","MARKTYPE":"992","Class":"2"}},{"type":"Feature","id":8840,"geometry":{"type":"Point","coordinates":[121.53017152094314,25.012442331357299]},"properties":{"OBJECTID":8840,"LANDMARKID":"6300000000786","LANDMARKCO":"205","LANDMARKNA":"自來水園區台北自來水博物館","LANDMARKAD":"6300005","ADDRESS":"台北市中正區思源街1號","TEL":" ","COUNTYNAME":"台北市","TOWNNAME":"中正區","MARKTYPE":"992","Class":"2"}},{"type":"Feature","id":8841,"geometry":{"type":"Point","coordinates":[121.52527024524981,25.020485605390995]},"properties":{"OBJECTID":8841,"LANDMARKID":"6300000000787","LANDMARKCO":"205","LANDMARKNA":"兒童交通博物館","LANDMARKAD":"6300005","ADDRESS":"台北市汀州路三段2號","TEL":" ","COUNTYNAME":"台北市","TOWNNAME":"中正區","MARKTYPE":"992","Class":"2"}},{"type":"Feature","id":8842,"geometry":{"type":"Point","coordinates":[121.53107459917619,25.013992494670724]},"properties":{"OBJECTID":8842,"LANDMARKID":"6300000000788","LANDMARKCO":"205","LANDMARKNA":"水資源博物館","LANDMARKAD":"6300005","ADDRESS":"台北市思源街1號","TEL":" ","COUNTYNAME":"台北市","TOWNNAME":"中正區","MARKTYPE":"992","Class":"2"}},{"type":"Feature","id":8843,"geometry":{"type":"Point","coordinates":[121.52379979607637,25.042444712667461]},"properties":{"OBJECTID":8843,"LANDMARKID":"6300000000789","LANDMARKCO":"205","LANDMARKNA":"台北市立成功高級中學昆蟲科學博","LANDMARKAD":"6300005","ADDRESS":"台北市濟南路一段71號","TEL":" ","COUNTYNAME":"台北市","TOWNNAME":"中正區","MARKTYPE":"992","Class":"2"}},{"type":"Feature","id":8844,"geometry":{"type":"Point","coordinates":[121.52179525541857,25.034636374429724]},"properties":{"OBJECTID":8844,"LANDMARKID":"6300000000790","LANDMARKCO":"205","LANDMARKNA":"中正紀念堂","LANDMARKAD":"6300005","ADDRESS":"台北市中山南路21號","TEL":" ","COUNTYNAME":"台北市","TOWNNAME":"中正區","MARKTYPE":"992","Class":"2"}},{"type":"Feature","id":8845,"geometry":{"type":"Point","coordinates":[121.51120385858697,25.031469344333978]},"properties":{"OBJECTID":8845,"LANDMARKID":"6300000000791","LANDMARKCO":"205","LANDMARKNA":"國立歷史博物館","LANDMARKAD":"6300005","ADDRESS":"台北市南海路49號","TEL":" ","COUNTYNAME":"台北市","TOWNNAME":"中正區","MARKTYPE":"992","Class":"2"}},{"type":"Feature","id":8846,"geometry":{"type":"Point","coordinates":[121.51481561434086,25.031649437216014]},"properties":{"OBJECTID":8846,"LANDMARKID":"6300000000792","LANDMARKCO":"205","LANDMARKNA":"郵政博物館","LANDMARKAD":"6300005","ADDRESS":"台北市重慶南路二段45號","TEL":" ","COUNTYNAME":"台北市","TOWNNAME":"中正區","MARKTYPE":"992","Class":"2"}},{"type":"Feature","id":8847,"geometry":{"type":"Point","coordinates":[121.51504513482799,25.042766915456813]},"properties":{"OBJECTID":8847,"LANDMARKID":"6300000000793","LANDMARKCO":"205","LANDMARKNA":"國立台灣博物館","LANDMARKAD":"6300005","ADDRESS":"台北市中正區襄陽路2號","TEL":" ","COUNTYNAME":"台北市","TOWNNAME":"中正區","MARKTYPE":"992","Class":"2"}},{"type":"Feature","id":8848,"geometry":{"type":"Point","coordinates":[121.52487171821107,25.045043156979599]},"properties":{"OBJECTID":8848,"LANDMARKID":"6300000000794","LANDMARKCO":"205","LANDMARKNA":"善導寺佛教歷史藝術館","LANDMARKAD":"6300005","ADDRESS":"台北市忠孝東路一段23號5-7樓","TEL":" ","COUNTYNAME":"台北市","TOWNNAME":"中正區","MARKTYPE":"992","Class":"2"}},{"type":"Feature","id":8849,"geometry":{"type":"Point","coordinates":[121.52006094942054,25.047790185559844]},"properties":{"OBJECTID":8849,"LANDMARKID":"6300000000795","LANDMARKCO":"205","LANDMARKNA":"國父史蹟紀念館","LANDMARKAD":"6300005","ADDRESS":"台北市中正區中山北路一段46號","TEL":" ","COUNTYNAME":"台北市","TOWNNAME":"中正區","MARKTYPE":"992","Class":"2"}},{"type":"Feature","id":8850,"geometry":{"type":"Point","coordinates":[121.5093220150945,25.030142139536164]},"properties":{"OBJECTID":8850,"LANDMARKID":"6300000000796","LANDMARKCO":"205","LANDMARKNA":"台灣林業陳列館","LANDMARKAD":"6300005","ADDRESS":"台北市南海路60號","TEL":" ","COUNTYNAME":"台北市","TOWNNAME":"中正區","MARKTYPE":"992","Class":"2"}},{"type":"Feature","id":8851,"geometry":{"type":"Point","coordinates":[121.51691692072606,25.032444400162792]},"properties":{"OBJECTID":8851,"LANDMARKID":"6300000000797","LANDMARKCO":"205","LANDMARKNA":"手工藝研究所台北展示中心","LANDMARKAD":"6300005","ADDRESS":"台北市南海路20號9-10樓","TEL":" ","COUNTYNAME":"台北市","TOWNNAME":"中正區","MARKTYPE":"992","Class":"2"}},{"type":"Feature","id":8852,"geometry":{"type":"Point","coordinates":[121.51556153504129,25.040267286774931]},"properties":{"OBJECTID":8852,"LANDMARKID":"6300000000798","LANDMARKCO":"205","LANDMARKNA":"二二八紀念館","LANDMARKAD":"6300005","ADDRESS":"台北市中正區凱達格蘭大道3號","TEL":" ","COUNTYNAME":"台北市","TOWNNAME":"中正區","MARKTYPE":"992","Class":"2"}},{"type":"Feature","id":8853,"geometry":{"type":"Point","coordinates":[121.50829412227995,25.039352278433856]},"properties":{"OBJECTID":8853,"LANDMARKID":"6300000000799","LANDMARKCO":"205","LANDMARKNA":"國軍歷史文物館","LANDMARKAD":"6300005","ADDRESS":"台北市中正區貴陽街一段243號","TEL":" ","COUNTYNAME":"台北市","TOWNNAME":"中正區","MARKTYPE":"992","Class":"2"}},{"type":"Feature","id":8854,"geometry":{"type":"Point","coordinates":[121.51673120094343,25.037327741139407]},"properties":{"OBJECTID":8854,"LANDMARKID":"6300000000761","LANDMARKCO":"204","LANDMARKNA":"國立國家圖書館","LANDMARKAD":"6300005","ADDRESS":"台北市中正區中山南路20號","TEL":" ","COUNTYNAME":"台北市","TOWNNAME":"中正區","MARKTYPE":"992","Class":"2"}},{"type":"Feature","id":8855,"geometry":{"type":"Point","coordinates":[121.53098230787543,25.040278987897231]},"properties":{"OBJECTID":8855,"LANDMARKID":"6300000000762","LANDMARKCO":"204","LANDMARKNA":"台北市立圖書館城中分館","LANDMARKAD":"6300005","ADDRESS":"台北市中正區濟南路二段46號3樓","TEL":" ","COUNTYNAME":"台北市","TOWNNAME":"中正區","MARKTYPE":"992","Class":"2"}},{"type":"Feature","id":8856,"geometry":{"type":"Point","coordinates":[121.52378861168904,25.02261885637207]},"properties":{"OBJECTID":8856,"LANDMARKID":"6300000000763","LANDMARKCO":"204","LANDMARKNA":"王貫英先生紀念圖書館","LANDMARKAD":"6300005","ADDRESS":"台北市中正區汀州路二段265號","TEL":" ","COUNTYNAME":"台北市","TOWNNAME":"中正區","MARKTYPE":"992","Class":"2"}},{"type":"Feature","id":8857,"geometry":{"type":"Point","coordinates":[121.51900793613873,25.036928399816819]},"properties":{"OBJECTID":8857,"LANDMARKID":"6300000000830","LANDMARKCO":"207","LANDMARKNA":"國家音樂廳文化藝廊","LANDMARKAD":"6300005","ADDRESS":"台北市中山南路21之1號","TEL":" ","COUNTYNAME":"台北市","TOWNNAME":"中正區","MARKTYPE":"992","Class":"2"}},{"type":"Feature","id":8858,"geometry":{"type":"Point","coordinates":[121.51230863383718,25.032114968405747]},"properties":{"OBJECTID":8858,"LANDMARKID":"6300000000825","LANDMARKCO":"206","LANDMARKNA":"台灣科學教育館","LANDMARKAD":"6300005","ADDRESS":"台北市士林區士商路189號","TEL":" ","COUNTYNAME":"台北市","TOWNNAME":"中正區","MARKTYPE":"992","Class":"2"}},{"type":"Feature","id":8859,"geometry":{"type":"Point","coordinates":[121.51386514234034,25.031580097165516]},"properties":{"OBJECTID":8859,"LANDMARKID":"6300000000826","LANDMARKCO":"206","LANDMARKNA":"美國文化中心","LANDMARKAD":"6300005","ADDRESS":"台北市南海路54號","TEL":" ","COUNTYNAME":"台北市","TOWNNAME":"中正區","MARKTYPE":"992","Class":"2"}},{"type":"Feature","id":8860,"geometry":{"type":"Point","coordinates":[121.53053355258885,25.038340896012212]},"properties":{"OBJECTID":8860,"LANDMARKID":"6300000000829","LANDMARKCO":"207","LANDMARKNA":"鴻禧美術館","LANDMARKAD":"6300005","ADDRESS":"台北市仁愛路二段63號B1樓","TEL":" ","COUNTYNAME":"台北市","TOWNNAME":"中正區","MARKTYPE":"992","Class":"2"}},{"type":"Feature","id":8861,"geometry":{"type":"Point","coordinates":[121.51180022262204,25.031872998981697]},"properties":{"OBJECTID":8861,"LANDMARKID":"6300000000827","LANDMARKCO":"206","LANDMARKNA":"國立台灣藝術教育館","LANDMARKAD":"6300005","ADDRESS":"台北市南海路47號","TEL":" ","COUNTYNAME":"台北市","TOWNNAME":"中正區","MARKTYPE":"992","Class":"2"}},{"type":"Feature","id":8862,"geometry":{"type":"Point","coordinates":[121.51301204821505,25.031712284382124]},"properties":{"OBJECTID":8862,"LANDMARKID":"6300000000828","LANDMARKCO":"207","LANDMARKNA":"楊英風美術館","LANDMARKAD":"6300005","ADDRESS":"台北市重慶南路二段31號","TEL":" ","COUNTYNAME":"台北市","TOWNNAME":"中正區","MARKTYPE":"992","Class":"2"}},{"type":"Feature","id":8863,"geometry":{"type":"Point","coordinates":[121.50580250033717,25.029766781707728]},"properties":{"OBJECTID":8863,"LANDMARKID":"6300000000535","LANDMARKCO":"203","LANDMARKNA":"市立忠義國小","LANDMARKAD":"6300005","ADDRESS":"台北市中正區中華路二段307巷17號","TEL":"02-23058463","COUNTYNAME":"台北市","TOWNNAME":"中正區","MARKTYPE":"992","Class":"2"}},{"type":"Feature","id":8864,"geometry":{"type":"Point","coordinates":[121.52065120199637,25.038017978874539]},"properties":{"OBJECTID":8864,"LANDMARKID":"6300000000536","LANDMARKCO":"203","LANDMARKNA":"市立東門國小","LANDMARKAD":"6300005","ADDRESS":"台北市中正區東門里仁愛路一段2號之4","TEL":"02-23216938","COUNTYNAME":"台北市","TOWNNAME":"中正區","MARKTYPE":"992","Class":"2"}},{"type":"Feature","id":8865,"geometry":{"type":"Point","coordinates":[121.53148211521196,25.043036265613633]},"properties":{"OBJECTID":8865,"LANDMARKID":"6300000000537","LANDMARKCO":"203","LANDMARKNA":"市立忠孝國小","LANDMARKAD":"6300005","ADDRESS":"台北市中正區梅花里忠孝東路二段101號","TEL":"02-23918170","COUNTYNAME":"台北市","TOWNNAME":"中正區","MARKTYPE":"992","Class":"2"}},{"type":"Feature","id":8866,"geometry":{"type":"Point","coordinates":[121.52018258008506,25.024860554540805]},"properties":{"OBJECTID":8866,"LANDMARKID":"6300000000487","LANDMARKCO":"202","LANDMARKNA":"私立強恕中學","LANDMARKAD":"6300005","ADDRESS":"台北市中正區汀州路二段143號","TEL":"02-23656570","COUNTYNAME":"台北市","TOWNNAME":"中正區","MARKTYPE":"992","Class":"2"}},{"type":"Feature","id":8867,"geometry":{"type":"Point","coordinates":[121.51218413601418,25.031206866187244]},"properties":{"OBJECTID":8867,"LANDMARKID":"6300000000488","LANDMARKCO":"202","LANDMARKNA":"市立建國中學","LANDMARKAD":"6300005","ADDRESS":"台北市中正區南海路56號","TEL":"02-23034381","COUNTYNAME":"台北市","TOWNNAME":"中正區","MARKTYPE":"992","Class":"2"}},{"type":"Feature","id":8868,"geometry":{"type":"Point","coordinates":[121.51302920497649,25.038599595760399]},"properties":{"OBJECTID":8868,"LANDMARKID":"6300000000489","LANDMARKCO":"202","LANDMARKNA":"市立北一女中","LANDMARKAD":"6300005","ADDRESS":"台北市中正區重慶南路一段165號","TEL":"02-23820484","COUNTYNAME":"台北市","TOWNNAME":"中正區","MARKTYPE":"992","Class":"2"}},{"type":"Feature","id":8869,"geometry":{"type":"Point","coordinates":[121.52381791987588,25.042388576223896]},"properties":{"OBJECTID":8869,"LANDMARKID":"6300000000490","LANDMARKCO":"202","LANDMARKNA":"市立成功中學","LANDMARKAD":"6300005","ADDRESS":"台北市中正區濟南路一段71號","TEL":"02-23216256","COUNTYNAME":"台北市","TOWNNAME":"中正區","MARKTYPE":"992","Class":"2"}},{"type":"Feature","id":8870,"geometry":{"type":"Point","coordinates":[121.52184413803636,25.042408528569855]},"properties":{"OBJECTID":8870,"LANDMARKID":"6300000000491","LANDMARKCO":"202","LANDMARKNA":"私立開南商工","LANDMARKAD":"6300005","ADDRESS":"台北市中正區濟南路一段6號","TEL":"02-23212666","COUNTYNAME":"台北市","TOWNNAME":"中正區","MARKTYPE":"992","Class":"2"}},{"type":"Feature","id":8871,"geometry":{"type":"Point","coordinates":[121.52200066390365,25.039279190875074]},"properties":{"OBJECTID":8871,"LANDMARKID":"6300000000492","LANDMARKCO":"202","LANDMARKNA":"私立泰北中學女生部","LANDMARKAD":"6300005","ADDRESS":"台北市中正區林森南路69號","TEL":"02-23214144","COUNTYNAME":"台北市","TOWNNAME":"中正區","MARKTYPE":"992","Class":"2"}},{"type":"Feature","id":8872,"geometry":{"type":"Point","coordinates":[121.51063747328122,25.024655854947195]},"properties":{"OBJECTID":8872,"LANDMARKID":"6300000000525","LANDMARKCO":"203","LANDMARKNA":"市立古亭國中","LANDMARKAD":"6300005","ADDRESS":"台北市中正區中華路二段465號","TEL":"02-23090986","COUNTYNAME":"台北市","TOWNNAME":"中正區","MARKTYPE":"992","Class":"2"}},{"type":"Feature","id":8873,"geometry":{"type":"Point","coordinates":[121.51530457384324,25.03753938361848]},"properties":{"OBJECTID":8873,"LANDMARKID":"6300000000526","LANDMARKCO":"203","LANDMARKNA":"市立弘道國中","LANDMARKAD":"6300005","ADDRESS":"台北市中正區公園路21號","TEL":"02-23715520","COUNTYNAME":"台北市","TOWNNAME":"中正區","MARKTYPE":"992","Class":"2"}},{"type":"Feature","id":8874,"geometry":{"type":"Point","coordinates":[121.52209164399133,25.032324682516258]},"properties":{"OBJECTID":8874,"LANDMARKID":"6300000000527","LANDMARKCO":"203","LANDMARKNA":"市立中正國中","LANDMARKAD":"6300005","ADDRESS":"台北市中正區愛國東路158號","TEL":"02-23916697","COUNTYNAME":"台北市","TOWNNAME":"中正區","MARKTYPE":"992","Class":"2"}},{"type":"Feature","id":8875,"geometry":{"type":"Point","coordinates":[121.50910551507576,25.035226993385077]},"properties":{"OBJECTID":8875,"LANDMARKID":"6300000000528","LANDMARKCO":"203","LANDMARKNA":"市立南門國中","LANDMARKAD":"6300005","ADDRESS":"台北市中正區廣州街6號","TEL":"02-23142775","COUNTYNAME":"台北市","TOWNNAME":"中正區","MARKTYPE":"992","Class":"2"}},{"type":"Feature","id":8876,"geometry":{"type":"Point","coordinates":[121.51527803489203,25.036327527901538]},"properties":{"OBJECTID":8876,"LANDMARKID":"6300000000529","LANDMARKCO":"203","LANDMARKNA":"市立師院附小","LANDMARKAD":"6300005","ADDRESS":"台北市中正區黎明里公園路29號","TEL":"02-23311794","COUNTYNAME":"台北市","TOWNNAME":"中正區","MARKTYPE":"992","Class":"2"}},{"type":"Feature","id":8877,"geometry":{"type":"Point","coordinates":[121.52265274034201,25.023261730233692]},"properties":{"OBJECTID":8877,"LANDMARKID":"6300000000530","LANDMARKCO":"203","LANDMARKNA":"市立河堤國小","LANDMARKAD":"6300005","ADDRESS":"台北市中正區堤苑里汀州路二段180號","TEL":"02-23677144","COUNTYNAME":"台北市","TOWNNAME":"中正區","MARKTYPE":"992","Class":"2"}},{"type":"Feature","id":8878,"geometry":{"type":"Point","coordinates":[121.51102822462674,25.03091187915982]},"properties":{"OBJECTID":8878,"LANDMARKID":"6300000000531","LANDMARKCO":"203","LANDMARKNA":"市立國語實小","LANDMARKAD":"6300005","ADDRESS":"台北市中正區龍光里南海路58號","TEL":"02-23011547","COUNTYNAME":"台北市","TOWNNAME":"中正區","MARKTYPE":"992","Class":"2"}},{"type":"Feature","id":8879,"geometry":{"type":"Point","coordinates":[121.51446139975442,25.024926205554323]},"properties":{"OBJECTID":8879,"LANDMARKID":"6300000000532","LANDMARKCO":"203","LANDMARKNA":"市立螢橋國小","LANDMARKAD":"6300005","ADDRESS":"台北市中正區螢雪里詔安街29號","TEL":"02-23016813","COUNTYNAME":"台北市","TOWNNAME":"中正區","MARKTYPE":"992","Class":"2"}},{"type":"Feature","id":8880,"geometry":{"type":"Point","coordinates":[121.50910551507576,25.035226993385077]},"properties":{"OBJECTID":8880,"LANDMARKID":"6300000000533","LANDMARKCO":"203","LANDMARKNA":"市立南門國小","LANDMARKAD":"6300005","ADDRESS":"台北市中正區南門里廣州街6號","TEL":"02-23715052","COUNTYNAME":"台北市","TOWNNAME":"中正區","MARKTYPE":"992","Class":"2"}},{"type":"Feature","id":8881,"geometry":{"type":"Point","coordinates":[121.51359326060137,25.035550967551767]},"properties":{"OBJECTID":8881,"LANDMARKID":"6300000000378","LANDMARKCO":"201","LANDMARKNA":"台北市立師範學院","LANDMARKAD":"6300005","ADDRESS":"台北市中正區愛國西路1號","TEL":"02-23113040","COUNTYNAME":"台北市","TOWNNAME":"中正區","MARKTYPE":"992","Class":"2"}},{"type":"Feature","id":8882,"geometry":{"type":"Point","coordinates":[121.52553662589652,25.04194610093467]},"properties":{"OBJECTID":8882,"LANDMARKID":"6300000000379","LANDMARKCO":"201","LANDMARKNA":"國立台北商業技術學院","LANDMARKAD":"6300005","ADDRESS":"台北市中正區濟南路一段321號","TEL":"02-23935263","COUNTYNAME":"台北市","TOWNNAME":"中正區","MARKTYPE":"992","Class":"2"}},{"type":"Feature","id":8883,"geometry":{"type":"Point","coordinates":[121.52553662589652,25.04194610093467]},"properties":{"OBJECTID":8883,"LANDMARKID":"6300000000380","LANDMARKCO":"201","LANDMARKNA":"國立台北商業技術學院附空中商專","LANDMARKAD":"6300005","ADDRESS":"台北市中正區濟南路一段321號","TEL":"02-23938500","COUNTYNAME":"台北市","TOWNNAME":"中正區","MARKTYPE":"992","Class":"2"}},{"type":"Feature","id":8884,"geometry":{"type":"Point","coordinates":[121.51889949478861,25.039424397337999]},"properties":{"OBJECTID":8884,"LANDMARKID":"6300000000381","LANDMARKCO":"201","LANDMARKNA":"國立台灣大學醫學院","LANDMARKAD":"6300005","ADDRESS":"台北市中正區仁愛路一段1號","TEL":"02-23123456","COUNTYNAME":"台北市","TOWNNAME":"中正區","MARKTYPE":"992","Class":"2"}},{"type":"Feature","id":8885,"geometry":{"type":"Point","coordinates":[121.50991216644158,25.038895874757859]},"properties":{"OBJECTID":8885,"LANDMARKID":"6300000000382","LANDMARKCO":"201","LANDMARKNA":"東吳大學城中校區","LANDMARKAD":"6300005","ADDRESS":"台北市中正區貴陽街一段56號","TEL":"02-28819471","COUNTYNAME":"台北市","TOWNNAME":"中正區","MARKTYPE":"992","Class":"2"}},{"type":"Feature","id":8886,"geometry":{"type":"Point","coordinates":[121.51359326060137,25.035550967551767]},"properties":{"OBJECTID":8886,"LANDMARKID":"6300000000383","LANDMARKCO":"201","LANDMARKNA":"台北市立教育大學","LANDMARKAD":"6300005","ADDRESS":"[100]台北市愛國西路1號","TEL":"02-23113040","COUNTYNAME":"台北市","TOWNNAME":"中正區","MARKTYPE":"992","Class":"2"}},{"type":"Feature","id":8887,"geometry":{"type":"Point","coordinates":[121.51966817319068,25.042990303891994]},"properties":{"OBJECTID":8887,"LANDMARKID":"6300000000384","LANDMARKCO":"201","LANDMARKNA":"台大校友會館","LANDMARKAD":"6300005","ADDRESS":"台北市濟南路一段2之1號","TEL":"02-23218415","COUNTYNAME":"台北市","TOWNNAME":"中正區","MARKTYPE":"992","Class":"2"}},{"type":"Feature","id":8888,"geometry":{"type":"Point","coordinates":[121.5295357576632,25.017122853137923]},"properties":{"OBJECTID":8888,"LANDMARKID":"6300000000385","LANDMARKCO":"201","LANDMARKNA":"中華福音神學院","LANDMARKAD":"6300005","ADDRESS":"台北市中正區汀州路3段101號","TEL":"02-23659151","COUNTYNAME":"台北市","TOWNNAME":"中正區","MARKTYPE":"992","Class":"2"}},{"type":"Feature","id":8889,"geometry":{"type":"Point","coordinates":[121.52939096709081,25.013058998888575]},"properties":{"OBJECTID":8889,"LANDMARKID":"6300000000386","LANDMARKCO":"201","LANDMARKNA":"國立台灣大學水源校區","LANDMARKAD":"6300005","ADDRESS":"台北市中正區思源街18號","TEL":"02-33663366","COUNTYNAME":"台北市","TOWNNAME":"中正區","MARKTYPE":"992","Class":"2"}},{"type":"Feature","id":8890,"geometry":{"type":"Point","coordinates":[121.52559278715403,25.018592291195539]},"properties":{"OBJECTID":8890,"LANDMARKID":"6300000000534","LANDMARKCO":"203","LANDMARKNA":"市立螢橋國中","LANDMARKAD":"6300005","ADDRESS":"台北市中正區林興里汀州街三段4號","TEL":"02-23670293","COUNTYNAME":"台北市","TOWNNAME":"中正區","MARKTYPE":"992","Class":"2"}},{"type":"Feature","id":8891,"geometry":{"type":"Point","coordinates":[121.52512481418945,25.041075574653458]},"properties":{"OBJECTID":8891,"LANDMARKID":"6300000000404","LANDMARKCO":"201","LANDMARKNA":"國立台灣大學法學院","LANDMARKAD":"6300005","ADDRESS":"台北市中正區台北市徐州路22號","TEL":"02-23918758","COUNTYNAME":"台北市","TOWNNAME":"中正區","MARKTYPE":"992","Class":"2"}},{"type":"Feature","id":8892,"geometry":{"type":"Point","coordinates":[121.53194975792375,25.042749834664626]},"properties":{"OBJECTID":8892,"LANDMARKID":"6300000001912","LANDMARKCO":"306","LANDMARKNA":"忠孝新生捷運站-出口3","LANDMARKAD":"6300005","ADDRESS":" ","TEL":" ","COUNTYNAME":"台北市","TOWNNAME":"中正區","MARKTYPE":"993","Class":"306"}},{"type":"Feature","id":8893,"geometry":{"type":"Point","coordinates":[121.53213341556815,25.042214541349008]},"properties":{"OBJECTID":8893,"LANDMARKID":"6300000001913","LANDMARKCO":"306","LANDMARKNA":"忠孝新生捷運站-出口4","LANDMARKAD":"6300005","ADDRESS":" ","TEL":" ","COUNTYNAME":"台北市","TOWNNAME":"中正區","MARKTYPE":"993","Class":"306"}},{"type":"Feature","id":8894,"geometry":{"type":"Point","coordinates":[121.52301255060617,25.045066373175207]},"properties":{"OBJECTID":8894,"LANDMARKID":"6300000001914","LANDMARKCO":"306","LANDMARKNA":"善導寺捷運站-出口1","LANDMARKAD":"6300005","ADDRESS":" ","TEL":" ","COUNTYNAME":"台北市","TOWNNAME":"中正區","MARKTYPE":"993","Class":"306"}},{"type":"Feature","id":8895,"geometry":{"type":"Point","coordinates":[121.52290784844583,25.044759186467601]},"properties":{"OBJECTID":8895,"LANDMARKID":"6300000001915","LANDMARKCO":"306","LANDMARKNA":"善導寺捷運站-出口2","LANDMARKAD":"6300005","ADDRESS":" ","TEL":" ","COUNTYNAME":"台北市","TOWNNAME":"中正區","MARKTYPE":"993","Class":"306"}},{"type":"Feature","id":8896,"geometry":{"type":"Point","coordinates":[121.52358773226018,25.044586107869428]},"properties":{"OBJECTID":8896,"LANDMARKID":"6300000001916","LANDMARKCO":"306","LANDMARKNA":"善導寺捷運站-出口3","LANDMARKAD":"6300005","ADDRESS":" ","TEL":" ","COUNTYNAME":"台北市","TOWNNAME":"中正區","MARKTYPE":"993","Class":"306"}},{"type":"Feature","id":8897,"geometry":{"type":"Point","coordinates":[121.52427721049918,25.044223398030482]},"properties":{"OBJECTID":8897,"LANDMARKID":"6300000001917","LANDMARKCO":"306","LANDMARKNA":"善導寺捷運站-出口4","LANDMARKAD":"6300005","ADDRESS":" ","TEL":" ","COUNTYNAME":"台北市","TOWNNAME":"中正區","MARKTYPE":"993","Class":"306"}},{"type":"Feature","id":8898,"geometry":{"type":"Point","coordinates":[121.52475290056252,25.044300359568354]},"properties":{"OBJECTID":8898,"LANDMARKID":"6300000001918","LANDMARKCO":"306","LANDMARKNA":"善導寺捷運站-出口5","LANDMARKAD":"6300005","ADDRESS":" ","TEL":" ","COUNTYNAME":"台北市","TOWNNAME":"中正區","MARKTYPE":"993","Class":"306"}},{"type":"Feature","id":8899,"geometry":{"type":"Point","coordinates":[121.52486604996739,25.044607684826225]},"properties":{"OBJECTID":8899,"LANDMARKID":"6300000001919","LANDMARKCO":"306","LANDMARKNA":"善導寺捷運站-出口6","LANDMARKAD":"6300005","ADDRESS":" ","TEL":" ","COUNTYNAME":"台北市","TOWNNAME":"中正區","MARKTYPE":"993","Class":"306"}},{"type":"Feature","id":8900,"geometry":{"type":"Point","coordinates":[121.5087471847685,25.041853654031922]},"properties":{"OBJECTID":8900,"LANDMARKID":"6300000001920","LANDMARKCO":"306","LANDMARKNA":"西門捷運站-出口3","LANDMARKAD":"6300005","ADDRESS":" ","TEL":" ","COUNTYNAME":"台北市","TOWNNAME":"中正區","MARKTYPE":"993","Class":"306"}},{"type":"Feature","id":8901,"geometry":{"type":"Point","coordinates":[121.50884953450624,25.042266098140328]},"properties":{"OBJECTID":8901,"LANDMARKID":"6300000001921","LANDMARKCO":"306","LANDMARKNA":"西門捷運站-出口4","LANDMARKAD":"6300005","ADDRESS":" ","TEL":" ","COUNTYNAME":"台北市","TOWNNAME":"中正區","MARKTYPE":"993","Class":"306"}},{"type":"Feature","id":8902,"geometry":{"type":"Point","coordinates":[121.50878010115035,25.042844977609764]},"properties":{"OBJECTID":8902,"LANDMARKID":"6300000001922","LANDMARKCO":"306","LANDMARKNA":"西門捷運站-出口5","LANDMARKAD":"6300005","ADDRESS":" ","TEL":" ","COUNTYNAME":"台北市","TOWNNAME":"中正區","MARKTYPE":"993","Class":"306"}},{"type":"Feature","id":8903,"geometry":{"type":"Point","coordinates":[121.50837998620291,25.041431793520271]},"properties":{"OBJECTID":8903,"LANDMARKID":"6300000001923","LANDMARKCO":"306","LANDMARKNA":"西門捷運站-出口2","LANDMARKAD":"6300005","ADDRESS":" ","TEL":" ","COUNTYNAME":"台北市","TOWNNAME":"中正區","MARKTYPE":"993","Class":"306"}},{"type":"Feature","id":8904,"geometry":{"type":"Point","coordinates":[121.52336984981392,25.025533312272586]},"properties":{"OBJECTID":8904,"LANDMARKID":"6300000001924","LANDMARKCO":"306","LANDMARKNA":"古亭捷運站-出口2","LANDMARKAD":"6300005","ADDRESS":" ","TEL":" ","COUNTYNAME":"台北市","TOWNNAME":"中正區","MARKTYPE":"993","Class":"306"}},{"type":"Feature","id":8905,"geometry":{"type":"Point","coordinates":[121.52188804761482,25.02707633845986]},"properties":{"OBJECTID":8905,"LANDMARKID":"6300000001925","LANDMARKCO":"306","LANDMARKNA":"古亭捷運站-出口8","LANDMARKAD":"6300005","ADDRESS":" ","TEL":" ","COUNTYNAME":"台北市","TOWNNAME":"中正區","MARKTYPE":"993","Class":"306"}},{"type":"Feature","id":8906,"geometry":{"type":"Point","coordinates":[121.5217491171457,25.027741070988004]},"properties":{"OBJECTID":8906,"LANDMARKID":"6300000001926","LANDMARKCO":"306","LANDMARKNA":"古亭捷運站-出口7","LANDMARKAD":"6300005","ADDRESS":" ","TEL":" ","COUNTYNAME":"台北市","TOWNNAME":"中正區","MARKTYPE":"993","Class":"306"}},{"type":"Feature","id":8907,"geometry":{"type":"Point","coordinates":[121.52244638480421,25.0267735190209]},"properties":{"OBJECTID":8907,"LANDMARKID":"6300000001927","LANDMARKCO":"306","LANDMARKNA":"古亭捷運站-出口9","LANDMARKAD":"6300005","ADDRESS":" ","TEL":" ","COUNTYNAME":"台北市","TOWNNAME":"中正區","MARKTYPE":"993","Class":"306"}},{"type":"Feature","id":8908,"geometry":{"type":"Point","coordinates":[121.52305930825776,25.0259526333225]},"properties":{"OBJECTID":8908,"LANDMARKID":"6300000001928","LANDMARKCO":"306","LANDMARKNA":"古亭捷運站-出口1","LANDMARKAD":"6300005","ADDRESS":" ","TEL":" ","COUNTYNAME":"台北市","TOWNNAME":"中正區","MARKTYPE":"993","Class":"306"}},{"type":"Feature","id":8909,"geometry":{"type":"Point","coordinates":[121.51607777363024,25.034557771467849]},"properties":{"OBJECTID":8909,"LANDMARKID":"6300000001929","LANDMARKCO":"306","LANDMARKNA":"中正紀念堂捷運站-出口7","LANDMARKAD":"6300005","ADDRESS":" ","TEL":" ","COUNTYNAME":"台北市","TOWNNAME":"中正區","MARKTYPE":"993","Class":"306"}},{"type":"Feature","id":8910,"geometry":{"type":"Point","coordinates":[121.51708914363442,25.03521491346752]},"properties":{"OBJECTID":8910,"LANDMARKID":"6300000001930","LANDMARKCO":"306","LANDMARKNA":"中正紀念堂捷運站-出口5","LANDMARKAD":"6300005","ADDRESS":" ","TEL":" ","COUNTYNAME":"台北市","TOWNNAME":"中正區","MARKTYPE":"993","Class":"306"}},{"type":"Feature","id":8911,"geometry":{"type":"Point","coordinates":[121.51657179262115,25.035900902935619]},"properties":{"OBJECTID":8911,"LANDMARKID":"6300000001931","LANDMARKCO":"306","LANDMARKNA":"中正紀念堂捷運站-出口6","LANDMARKAD":"6300005","ADDRESS":" ","TEL":" ","COUNTYNAME":"台北市","TOWNNAME":"中正區","MARKTYPE":"993","Class":"306"}},{"type":"Feature","id":8912,"geometry":{"type":"Point","coordinates":[121.51777015583521,25.033153602172622]},"properties":{"OBJECTID":8912,"LANDMARKID":"6300000001932","LANDMARKCO":"306","LANDMARKNA":"中正紀念堂捷運站-出口1","LANDMARKAD":"6300005","ADDRESS":" ","TEL":" ","COUNTYNAME":"台北市","TOWNNAME":"中正區","MARKTYPE":"993","Class":"306"}},{"type":"Feature","id":8913,"geometry":{"type":"Point","coordinates":[121.51824481533417,25.032463484380703]},"properties":{"OBJECTID":8913,"LANDMARKID":"6300000001933","LANDMARKCO":"306","LANDMARKNA":"中正紀念堂捷運站-出口2","LANDMARKAD":"6300005","ADDRESS":" ","TEL":" ","COUNTYNAME":"台北市","TOWNNAME":"中正區","MARKTYPE":"993","Class":"306"}},{"type":"Feature","id":8914,"geometry":{"type":"Point","coordinates":[121.51894377289415,25.03216759233699]},"properties":{"OBJECTID":8914,"LANDMARKID":"6300000001934","LANDMARKCO":"306","LANDMARKNA":"中正紀念堂捷運站-出口3","LANDMARKAD":"6300005","ADDRESS":" ","TEL":" ","COUNTYNAME":"台北市","TOWNNAME":"中正區","MARKTYPE":"993","Class":"306"}},{"type":"Feature","id":8915,"geometry":{"type":"Point","coordinates":[121.51796764677115,25.033412278782752]},"properties":{"OBJECTID":8915,"LANDMARKID":"6300000001935","LANDMARKCO":"306","LANDMARKNA":"中正紀念堂捷運站-出口4","LANDMARKAD":"6300005","ADDRESS":" ","TEL":" ","COUNTYNAME":"台北市","TOWNNAME":"中正區","MARKTYPE":"993","Class":"306"}},{"type":"Feature","id":8916,"geometry":{"type":"Point","coordinates":[121.51568079425572,25.040680382349109]},"properties":{"OBJECTID":8916,"LANDMARKID":"6300000001936","LANDMARKCO":"306","LANDMARKNA":"台大醫院捷運站-出口1","LANDMARKAD":"6300005","ADDRESS":" ","TEL":" ","COUNTYNAME":"台北市","TOWNNAME":"中正區","MARKTYPE":"993","Class":"306"}},{"type":"Feature","id":8917,"geometry":{"type":"Point","coordinates":[121.51680864951435,25.041174772162595]},"properties":{"OBJECTID":8917,"LANDMARKID":"6300000001937","LANDMARKCO":"306","LANDMARKNA":"台大醫院捷運站-出口2","LANDMARKAD":"6300005","ADDRESS":" ","TEL":" ","COUNTYNAME":"台北市","TOWNNAME":"中正區","MARKTYPE":"993","Class":"306"}},{"type":"Feature","id":8918,"geometry":{"type":"Point","coordinates":[121.51635457175048,25.042900215004536]},"properties":{"OBJECTID":8918,"LANDMARKID":"6300000001938","LANDMARKCO":"306","LANDMARKNA":"台大醫院捷運站-出口4","LANDMARKAD":"6300005","ADDRESS":" ","TEL":" ","COUNTYNAME":"台北市","TOWNNAME":"中正區","MARKTYPE":"993","Class":"306"}},{"type":"Feature","id":8919,"geometry":{"type":"Point","coordinates":[121.51677620902498,25.043098822436605]},"properties":{"OBJECTID":8919,"LANDMARKID":"6300000001939","LANDMARKCO":"306","LANDMARKNA":"台大醫院捷運站-出口3","LANDMARKAD":"6300005","ADDRESS":" ","TEL":" ","COUNTYNAME":"台北市","TOWNNAME":"中正區","MARKTYPE":"993","Class":"306"}},{"type":"Feature","id":8920,"geometry":{"type":"Point","coordinates":[121.51533712876784,25.046955653704934]},"properties":{"OBJECTID":8920,"LANDMARKID":"6300000001940","LANDMARKCO":"306","LANDMARKNA":"台北捷運站-出口5","LANDMARKAD":"6300005","ADDRESS":" ","TEL":" ","COUNTYNAME":"台北市","TOWNNAME":"中正區","MARKTYPE":"993","Class":"306"}},{"type":"Feature","id":8921,"geometry":{"type":"Point","coordinates":[121.51585312165318,25.046395429474558]},"properties":{"OBJECTID":8921,"LANDMARKID":"6300000001941","LANDMARKCO":"306","LANDMARKNA":"台北捷運站-出口6","LANDMARKAD":"6300005","ADDRESS":" ","TEL":" ","COUNTYNAME":"台北市","TOWNNAME":"中正區","MARKTYPE":"993","Class":"306"}},{"type":"Feature","id":8922,"geometry":{"type":"Point","coordinates":[121.51731571682772,25.046025181806016]},"properties":{"OBJECTID":8922,"LANDMARKID":"6300000001942","LANDMARKCO":"306","LANDMARKNA":"台北捷運站-出口8","LANDMARKAD":"6300005","ADDRESS":" ","TEL":" ","COUNTYNAME":"台北市","TOWNNAME":"中正區","MARKTYPE":"993","Class":"306"}},{"type":"Feature","id":8923,"geometry":{"type":"Point","coordinates":[121.51814287970817,25.046252239175242]},"properties":{"OBJECTID":8923,"LANDMARKID":"6300000001943","LANDMARKCO":"306","LANDMARKNA":"台北捷運站-出口7","LANDMARKAD":"6300005","ADDRESS":" ","TEL":" ","COUNTYNAME":"台北市","TOWNNAME":"中正區","MARKTYPE":"993","Class":"306"}},{"type":"Feature","id":8924,"geometry":{"type":"Point","coordinates":[121.51784680194834,25.046496252588717]},"properties":{"OBJECTID":8924,"LANDMARKID":"6300000001944","LANDMARKCO":"306","LANDMARKNA":"台北捷運站-出口3","LANDMARKAD":"6300005","ADDRESS":" ","TEL":" ","COUNTYNAME":"台北市","TOWNNAME":"中正區","MARKTYPE":"993","Class":"306"}},{"type":"Feature","id":8925,"geometry":{"type":"Point","coordinates":[121.51741077773278,25.046587957924917]},"properties":{"OBJECTID":8925,"LANDMARKID":"6300000001945","LANDMARKCO":"306","LANDMARKNA":"台北捷運站-出口4","LANDMARKAD":"6300005","ADDRESS":" ","TEL":" ","COUNTYNAME":"台北市","TOWNNAME":"中正區","MARKTYPE":"993","Class":"306"}},{"type":"Feature","id":8926,"geometry":{"type":"Point","coordinates":[121.51908586374671,25.04807579675051]},"properties":{"OBJECTID":8926,"LANDMARKID":"6300000001946","LANDMARKCO":"306","LANDMARKNA":"台北捷運站-出口2","LANDMARKAD":"6300005","ADDRESS":" ","TEL":" ","COUNTYNAME":"台北市","TOWNNAME":"中正區","MARKTYPE":"993","Class":"306"}},{"type":"Feature","id":8927,"geometry":{"type":"Point","coordinates":[121.51816843252914,25.048256908046401]},"properties":{"OBJECTID":8927,"LANDMARKID":"6300000001947","LANDMARKCO":"306","LANDMARKNA":"台北捷運站-出口1","LANDMARKAD":"6300005","ADDRESS":" ","TEL":" ","COUNTYNAME":"台北市","TOWNNAME":"中正區","MARKTYPE":"993","Class":"306"}},{"type":"Feature","id":8928,"geometry":{"type":"Point","coordinates":[121.53425403835182,25.014137413689802]},"properties":{"OBJECTID":8928,"LANDMARKID":"6300000001948","LANDMARKCO":"306","LANDMARKNA":"公館捷運站-出口1","LANDMARKAD":"6300005","ADDRESS":" ","TEL":" ","COUNTYNAME":"台北市","TOWNNAME":"中正區","MARKTYPE":"993","Class":"306"}},{"type":"Feature","id":8929,"geometry":{"type":"Point","coordinates":[121.53338374761381,25.015295454646889]},"properties":{"OBJECTID":8929,"LANDMARKID":"6300000001949","LANDMARKCO":"306","LANDMARKNA":"公館捷運站-出口4","LANDMARKAD":"6300005","ADDRESS":" ","TEL":" ","COUNTYNAME":"台北市","TOWNNAME":"中正區","MARKTYPE":"993","Class":"306"}},{"type":"Feature","id":8930,"geometry":{"type":"Point","coordinates":[121.52846803014822,25.019473751626727]},"properties":{"OBJECTID":8930,"LANDMARKID":"6300000001950","LANDMARKCO":"306","LANDMARKNA":"台電大樓捷運站-出口1","LANDMARKAD":"6300005","ADDRESS":" ","TEL":" ","COUNTYNAME":"台北市","TOWNNAME":"中正區","MARKTYPE":"993","Class":"306"}},{"type":"Feature","id":8931,"geometry":{"type":"Point","coordinates":[121.52745620445876,25.020898173429643]},"properties":{"OBJECTID":8931,"LANDMARKID":"6300000001951","LANDMARKCO":"306","LANDMARKNA":"台電大樓捷運站-出口4","LANDMARKAD":"6300005","ADDRESS":" ","TEL":" ","COUNTYNAME":"台北市","TOWNNAME":"中正區","MARKTYPE":"993","Class":"306"}},{"type":"Feature","id":8932,"geometry":{"type":"Point","coordinates":[121.52760688638298,25.020587738954422]},"properties":{"OBJECTID":8932,"LANDMARKID":"6300000001952","LANDMARKCO":"306","LANDMARKNA":"台電大樓捷運站-出口5","LANDMARKAD":"6300005","ADDRESS":" ","TEL":" ","COUNTYNAME":"台北市","TOWNNAME":"中正區","MARKTYPE":"993","Class":"306"}},{"type":"Feature","id":8933,"geometry":{"type":"Point","coordinates":[121.50954463654263,25.03672073270533]},"properties":{"OBJECTID":8933,"LANDMARKID":"6300000001953","LANDMARKCO":"306","LANDMARKNA":"小南門捷運站-出口1","LANDMARKAD":"6300005","ADDRESS":" ","TEL":" ","COUNTYNAME":"台北市","TOWNNAME":"中正區","MARKTYPE":"993","Class":"306"}},{"type":"Feature","id":8934,"geometry":{"type":"Point","coordinates":[121.50968065368671,25.035769964010488]},"properties":{"OBJECTID":8934,"LANDMARKID":"6300000001954","LANDMARKCO":"306","LANDMARKNA":"小南門捷運站-出口2","LANDMARKAD":"6300005","ADDRESS":" ","TEL":" ","COUNTYNAME":"台北市","TOWNNAME":"中正區","MARKTYPE":"993","Class":"306"}},{"type":"Feature","id":8935,"geometry":{"type":"Point","coordinates":[121.51078629654324,25.035385437179517]},"properties":{"OBJECTID":8935,"LANDMARKID":"6300000001955","LANDMARKCO":"306","LANDMARKNA":"小南門捷運站-出口3","LANDMARKAD":"6300005","ADDRESS":" ","TEL":" ","COUNTYNAME":"台北市","TOWNNAME":"中正區","MARKTYPE":"993","Class":"306"}},{"type":"Feature","id":8936,"geometry":{"type":"Point","coordinates":[121.51172748099668,25.035132173908689]},"properties":{"OBJECTID":8936,"LANDMARKID":"6300000001956","LANDMARKCO":"306","LANDMARKNA":"小南門捷運站-出口4","LANDMARKAD":"6300005","ADDRESS":" ","TEL":" ","COUNTYNAME":"台北市","TOWNNAME":"中正區","MARKTYPE":"993","Class":"306"}},{"type":"Feature","id":8937,"geometry":{"type":"Point","coordinates":[121.51773951654421,25.048231907915397]},"properties":{"OBJECTID":8937,"LANDMARKID":"6300000002050","LANDMARKCO":"307","LANDMARKNA":"高鐵台北站-北一門","LANDMARKAD":"6300005","ADDRESS":" ","TEL":" ","COUNTYNAME":"台北市","TOWNNAME":"中正區","MARKTYPE":"993","Class":"307"}},{"type":"Feature","id":8938,"geometry":{"type":"Point","coordinates":[121.51728930032348,25.048312058614528]},"properties":{"OBJECTID":8938,"LANDMARKID":"6300000002051","LANDMARKCO":"307","LANDMARKNA":"高鐵台北站-北二門","LANDMARKAD":"6300005","ADDRESS":" ","TEL":" ","COUNTYNAME":"台北市","TOWNNAME":"中正區","MARKTYPE":"993","Class":"307"}},{"type":"Feature","id":8939,"geometry":{"type":"Point","coordinates":[121.51683597571026,25.048395080673636]},"properties":{"OBJECTID":8939,"LANDMARKID":"6300000002052","LANDMARKCO":"307","LANDMARKNA":"高鐵台北站-北三門","LANDMARKAD":"6300005","ADDRESS":" ","TEL":" ","COUNTYNAME":"台北市","TOWNNAME":"中正區","MARKTYPE":"993","Class":"307"}},{"type":"Feature","id":8940,"geometry":{"type":"Point","coordinates":[121.51643069864153,25.048228532520486]},"properties":{"OBJECTID":8940,"LANDMARKID":"6300000002053","LANDMARKCO":"307","LANDMARKNA":"高鐵台北站-西一門","LANDMARKAD":"6300005","ADDRESS":" ","TEL":" ","COUNTYNAME":"台北市","TOWNNAME":"中正區","MARKTYPE":"993","Class":"307"}},{"type":"Feature","id":8941,"geometry":{"type":"Point","coordinates":[121.51634946093922,25.047875404110226]},"properties":{"OBJECTID":8941,"LANDMARKID":"6300000002054","LANDMARKCO":"307","LANDMARKNA":"高鐵台北站-西二門","LANDMARKAD":"6300005","ADDRESS":" ","TEL":" ","COUNTYNAME":"台北市","TOWNNAME":"中正區","MARKTYPE":"993","Class":"307"}},{"type":"Feature","id":8942,"geometry":{"type":"Point","coordinates":[121.51628395028993,25.047530724532844]},"properties":{"OBJECTID":8942,"LANDMARKID":"6300000002055","LANDMARKCO":"307","LANDMARKNA":"高鐵台北站-西三門","LANDMARKAD":"6300005","ADDRESS":" ","TEL":" ","COUNTYNAME":"台北市","TOWNNAME":"中正區","MARKTYPE":"993","Class":"307"}},{"type":"Feature","id":8943,"geometry":{"type":"Point","coordinates":[121.51668463854179,25.047193428797616]},"properties":{"OBJECTID":8943,"LANDMARKID":"6300000002056","LANDMARKCO":"307","LANDMARKNA":"高鐵台北站-南三門","LANDMARKAD":"6300005","ADDRESS":" ","TEL":" ","COUNTYNAME":"台北市","TOWNNAME":"中正區","MARKTYPE":"993","Class":"307"}},{"type":"Feature","id":8944,"geometry":{"type":"Point","coordinates":[121.51701395919724,25.047134090697504]},"properties":{"OBJECTID":8944,"LANDMARKID":"6300000002057","LANDMARKCO":"307","LANDMARKNA":"高鐵台北站-南二門","LANDMARKAD":"6300005","ADDRESS":" ","TEL":" ","COUNTYNAME":"台北市","TOWNNAME":"中正區","MARKTYPE":"993","Class":"307"}},{"type":"Feature","id":8945,"geometry":{"type":"Point","coordinates":[121.51752250277897,25.047039273791619]},"properties":{"OBJECTID":8945,"LANDMARKID":"6300000002058","LANDMARKCO":"307","LANDMARKNA":"高鐵台北站-南一門","LANDMARKAD":"6300005","ADDRESS":" ","TEL":" ","COUNTYNAME":"台北市","TOWNNAME":"中正區","MARKTYPE":"993","Class":"307"}},{"type":"Feature","id":8946,"geometry":{"type":"Point","coordinates":[121.51792681019398,25.047355879140103]},"properties":{"OBJECTID":8946,"LANDMARKID":"6300000002059","LANDMARKCO":"307","LANDMARKNA":"高鐵台北站-東三門","LANDMARKAD":"6300005","ADDRESS":" ","TEL":" ","COUNTYNAME":"台北市","TOWNNAME":"中正區","MARKTYPE":"993","Class":"307"}},{"type":"Feature","id":8947,"geometry":{"type":"Point","coordinates":[121.51796658598875,25.047618019017989]},"properties":{"OBJECTID":8947,"LANDMARKID":"6300000002060","LANDMARKCO":"307","LANDMARKNA":"高鐵台北站-東二門","LANDMARKAD":"6300005","ADDRESS":" ","TEL":" ","COUNTYNAME":"台北市","TOWNNAME":"中正區","MARKTYPE":"993","Class":"307"}},{"type":"Feature","id":8948,"geometry":{"type":"Point","coordinates":[121.51803568156728,25.04789136340802]},"properties":{"OBJECTID":8948,"LANDMARKID":"6300000002061","LANDMARKCO":"307","LANDMARKNA":"高鐵台北站-東一門","LANDMARKAD":"6300005","ADDRESS":" ","TEL":" ","COUNTYNAME":"台北市","TOWNNAME":"中正區","MARKTYPE":"993","Class":"307"}},{"type":"Feature","id":8949,"geometry":{"type":"Point","coordinates":[121.51308310220163,25.048505093386648]},"properties":{"OBJECTID":8949,"LANDMARKID":"6300000000845","LANDMARKCO":"302","LANDMARKNA":"統聯客運-台北總站-自營站","LANDMARKAD":"6300005","ADDRESS":"台北市中正區北平西路55號","TEL":"連絡電話:02-255","COUNTYNAME":"台北市","TOWNNAME":"中正區","MARKTYPE":"993","Class":"302"}},{"type":"Feature","id":8950,"geometry":{"type":"Point","coordinates":[121.51308310220163,25.048505093386648]},"properties":{"OBJECTID":8950,"LANDMARKID":"6300000000846","LANDMARKCO":"302","LANDMARKNA":"和欣客運-台北總站","LANDMARKAD":"6300005","ADDRESS":"臺北市中正區北平西路55號","TEL":"(02)2559-5511","COUNTYNAME":"台北市","TOWNNAME":"中正區","MARKTYPE":"993","Class":"302"}},{"type":"Feature","id":8951,"geometry":{"type":"Point","coordinates":[121.51363956316821,25.047750253856155]},"properties":{"OBJECTID":8951,"LANDMARKID":"6300000000847","LANDMARKCO":"302","LANDMARKNA":"國光汽車客運台北西站","LANDMARKAD":"6300005","ADDRESS":"台北市中山區忠孝西路一段173號","TEL":" ","COUNTYNAME":"台北市","TOWNNAME":"中正區","MARKTYPE":"993","Class":"302"}},{"type":"Feature","id":8952,"geometry":{"type":"Point","coordinates":[121.51477096488613,25.047142604889842]},"properties":{"OBJECTID":8952,"LANDMARKID":"6300000000848","LANDMARKCO":"302","LANDMARKNA":"國光汽車客運台北東站","LANDMARKAD":"6300005","ADDRESS":"台北市中山區忠孝西路一段","TEL":" ","COUNTYNAME":"台北市","TOWNNAME":"中正區","MARKTYPE":"993","Class":"302"}},{"type":"Feature","id":8953,"geometry":{"type":"Point","coordinates":[121.50725385248208,25.035693173947418]},"properties":{"OBJECTID":8953,"LANDMARKID":"6300000001445","LANDMARKCO":"303","LANDMARKNA":"台北市立和平醫院停車場","LANDMARKAD":"6300005","ADDRESS":" ","TEL":" ","COUNTYNAME":"台北市","TOWNNAME":"中正區","MARKTYPE":"993","Class":"303"}},{"type":"Feature","id":8954,"geometry":{"type":"Point","coordinates":[121.51027121459856,25.035159062786676]},"properties":{"OBJECTID":8954,"LANDMARKID":"6300000001446","LANDMARKCO":"303","LANDMARKNA":"廣州保管場","LANDMARKAD":"6300005","ADDRESS":" ","TEL":" ","COUNTYNAME":"台北市","TOWNNAME":"中正區","MARKTYPE":"993","Class":"303"}},{"type":"Feature","id":8955,"geometry":{"type":"Point","coordinates":[121.51349919144442,25.040375864442506]},"properties":{"OBJECTID":8955,"LANDMARKID":"6300000001447","LANDMARKCO":"303","LANDMARKNA":"府前廣場停車場","LANDMARKAD":"6300005","ADDRESS":" ","TEL":" ","COUNTYNAME":"台北市","TOWNNAME":"中正區","MARKTYPE":"993","Class":"303"}},{"type":"Feature","id":8956,"geometry":{"type":"Point","coordinates":[121.51385758457354,25.045304624041158]},"properties":{"OBJECTID":8956,"LANDMARKID":"6300000001448","LANDMARKCO":"303","LANDMARKNA":"百利停車塔","LANDMARKAD":"6300005","ADDRESS":" ","TEL":" ","COUNTYNAME":"台北市","TOWNNAME":"中正區","MARKTYPE":"993","Class":"303"}},{"type":"Feature","id":8957,"geometry":{"type":"Point","coordinates":[121.51566767285338,25.047550821012901]},"properties":{"OBJECTID":8957,"LANDMARKID":"6300000001449","LANDMARKCO":"303","LANDMARKNA":"台北車站西地下停車場","LANDMARKAD":"6300005","ADDRESS":" ","TEL":"02-23815226#2851","COUNTYNAME":"台北市","TOWNNAME":"中正區","MARKTYPE":"993","Class":"303"}},{"type":"Feature","id":8958,"geometry":{"type":"Point","coordinates":[121.51581041789747,25.044783439671686]},"properties":{"OBJECTID":8958,"LANDMARKID":"6300000001450","LANDMARKCO":"303","LANDMARKNA":"信陽停車場","LANDMARKAD":"6300005","ADDRESS":" ","TEL":"02-23121101","COUNTYNAME":"台北市","TOWNNAME":"中正區","MARKTYPE":"993","Class":"303"}},{"type":"Feature","id":8959,"geometry":{"type":"Point","coordinates":[121.51553383932293,25.045656958409026]},"properties":{"OBJECTID":8959,"LANDMARKID":"6300000001451","LANDMARKCO":"303","LANDMARKNA":"新光三越地下停車場","LANDMARKAD":"6300005","ADDRESS":" ","TEL":" ","COUNTYNAME":"台北市","TOWNNAME":"中正區","MARKTYPE":"993","Class":"303"}},{"type":"Feature","id":8960,"geometry":{"type":"Point","coordinates":[121.51616991215469,25.033261671075635]},"properties":{"OBJECTID":8960,"LANDMARKID":"6300000001452","LANDMARKCO":"303","LANDMARKNA":"台開信託仰德大樓停車場","LANDMARKAD":"6300005","ADDRESS":" ","TEL":" ","COUNTYNAME":"台北市","TOWNNAME":"中正區","MARKTYPE":"993","Class":"303"}},{"type":"Feature","id":8961,"geometry":{"type":"Point","coordinates":[121.51543760675443,25.048147351413373]},"properties":{"OBJECTID":8961,"LANDMARKID":"6300000001453","LANDMARKCO":"303","LANDMARKNA":"中興嘟嘟房停車場-台北車站西站","LANDMARKAD":"6300005","ADDRESS":"台北市中正區北平西路3號","TEL":"02-23707251","COUNTYNAME":"台北市","TOWNNAME":"中正區","MARKTYPE":"993","Class":"303"}},{"type":"Feature","id":8962,"geometry":{"type":"Point","coordinates":[121.51628578702369,25.032905718306715]},"properties":{"OBJECTID":8962,"LANDMARKID":"6300000001454","LANDMARKCO":"303","LANDMARKNA":"仰德立體停車場","LANDMARKAD":"6300005","ADDRESS":" ","TEL":" ","COUNTYNAME":"台北市","TOWNNAME":"中正區","MARKTYPE":"993","Class":"303"}},{"type":"Feature","id":8963,"geometry":{"type":"Point","coordinates":[121.51829981203272,25.047415409480454]},"properties":{"OBJECTID":8963,"LANDMARKID":"6300000001455","LANDMARKCO":"303","LANDMARKNA":"中興嘟嘟房停車場-台北車站東站","LANDMARKAD":"6300005","ADDRESS":"台北市中正區北平西路3號","TEL":"02-23700884","COUNTYNAME":"台北市","TOWNNAME":"中正區","MARKTYPE":"993","Class":"303"}},{"type":"Feature","id":8964,"geometry":{"type":"Point","coordinates":[121.51787424787852,25.032304311467389]},"properties":{"OBJECTID":8964,"LANDMARKID":"6300000001456","LANDMARKCO":"303","LANDMARKNA":"中正區行政中心停車場","LANDMARKAD":"6300005","ADDRESS":" ","TEL":" ","COUNTYNAME":"台北市","TOWNNAME":"中正區","MARKTYPE":"993","Class":"303"}},{"type":"Feature","id":8965,"geometry":{"type":"Point","coordinates":[121.51846079305624,25.03210257834186]},"properties":{"OBJECTID":8965,"LANDMARKID":"6300000001457","LANDMARKCO":"303","LANDMARKNA":"南門市場停車場","LANDMARKAD":"6300005","ADDRESS":" ","TEL":" ","COUNTYNAME":"台北市","TOWNNAME":"中正區","MARKTYPE":"993","Class":"303"}},{"type":"Feature","id":8966,"geometry":{"type":"Point","coordinates":[121.51751234581985,25.03552944463943]},"properties":{"OBJECTID":8966,"LANDMARKID":"6300000001458","LANDMARKCO":"303","LANDMARKNA":"國立中正文化中心地下停車場","LANDMARKAD":"6300005","ADDRESS":" ","TEL":"02-15662522","COUNTYNAME":"台北市","TOWNNAME":"中正區","MARKTYPE":"993","Class":"303"}},{"type":"Feature","id":8967,"geometry":{"type":"Point","coordinates":[121.51565970209269,25.047582381086482]},"properties":{"OBJECTID":8967,"LANDMARKID":"6300000001459","LANDMARKCO":"303","LANDMARKNA":"聯通停車場","LANDMARKAD":"6300005","ADDRESS":" ","TEL":" ","COUNTYNAME":"台北市","TOWNNAME":"中正區","MARKTYPE":"993","Class":"303"}},{"type":"Feature","id":8968,"geometry":{"type":"Point","coordinates":[121.519513033214,25.029009288442186]},"properties":{"OBJECTID":8968,"LANDMARKID":"6300000001460","LANDMARKCO":"303","LANDMARKNA":"台北市立婦幼醫院停車場","LANDMARKAD":"6300005","ADDRESS":" ","TEL":" ","COUNTYNAME":"台北市","TOWNNAME":"中正區","MARKTYPE":"993","Class":"303"}},{"type":"Feature","id":8969,"geometry":{"type":"Point","coordinates":[121.51937524526795,25.047799556896639]},"properties":{"OBJECTID":8969,"LANDMARKID":"6300000001461","LANDMARKCO":"303","LANDMARKNA":"台北車站東地下停車場","LANDMARKAD":"6300005","ADDRESS":" ","TEL":"02-23815226#2851","COUNTYNAME":"台北市","TOWNNAME":"中正區","MARKTYPE":"993","Class":"303"}},{"type":"Feature","id":8970,"geometry":{"type":"Point","coordinates":[121.52004500137552,25.037069017830916]},"properties":{"OBJECTID":8970,"LANDMARKID":"6300000001462","LANDMARKCO":"303","LANDMARKNA":"台灣民主紀念館地下停車場入口","LANDMARKAD":"6300005","ADDRESS":" ","TEL":" ","COUNTYNAME":"台北市","TOWNNAME":"中正區","MARKTYPE":"993","Class":"303"}},{"type":"Feature","id":8971,"geometry":{"type":"Point","coordinates":[121.52099828747744,25.029871048781423]},"properties":{"OBJECTID":8971,"LANDMARKID":"6300000001463","LANDMARKCO":"303","LANDMARKNA":"中潮停車場","LANDMARKAD":"6300005","ADDRESS":" ","TEL":" ","COUNTYNAME":"台北市","TOWNNAME":"中正區","MARKTYPE":"993","Class":"303"}},{"type":"Feature","id":8972,"geometry":{"type":"Point","coordinates":[121.52133401298997,25.027009288939752]},"properties":{"OBJECTID":8972,"LANDMARKID":"6300000001464","LANDMARKCO":"303","LANDMARKNA":"友星大飯店附設停車場","LANDMARKAD":"6300005","ADDRESS":" ","TEL":" ","COUNTYNAME":"台北市","TOWNNAME":"中正區","MARKTYPE":"993","Class":"303"}},{"type":"Feature","id":8973,"geometry":{"type":"Point","coordinates":[121.52257207840078,25.043572867567917]},"properties":{"OBJECTID":8973,"LANDMARKID":"6300000001465","LANDMARKCO":"303","LANDMARKNA":"立法院青島第二會館停車場","LANDMARKAD":"6300005","ADDRESS":" ","TEL":"02-23585858","COUNTYNAME":"台北市","TOWNNAME":"中正區","MARKTYPE":"993","Class":"303"}},{"type":"Feature","id":8974,"geometry":{"type":"Point","coordinates":[121.5229066925136,25.039145230601587]},"properties":{"OBJECTID":8974,"LANDMARKID":"6300000001466","LANDMARKCO":"303","LANDMARKNA":"台北市青少年育樂中心地下停車場","LANDMARKAD":"6300005","ADDRESS":" ","TEL":" ","COUNTYNAME":"台北市","TOWNNAME":"中正區","MARKTYPE":"993","Class":"303"}},{"type":"Feature","id":8975,"geometry":{"type":"Point","coordinates":[121.52721532241927,25.041176709078911]},"properties":{"OBJECTID":8975,"LANDMARKID":"6300000001467","LANDMARKCO":"303","LANDMARKNA":"六軒濟南停車場","LANDMARKAD":"6300005","ADDRESS":" ","TEL":" ","COUNTYNAME":"台北市","TOWNNAME":"中正區","MARKTYPE":"993","Class":"303"}},{"type":"Feature","id":8976,"geometry":{"type":"Point","coordinates":[121.52850921987142,25.035681807091596]},"properties":{"OBJECTID":8976,"LANDMARKID":"6300000001468","LANDMARKCO":"303","LANDMARKNA":"臨沂69巷停車場","LANDMARKAD":"6300005","ADDRESS":" ","TEL":" ","COUNTYNAME":"台北市","TOWNNAME":"中正區","MARKTYPE":"993","Class":"303"}},{"type":"Feature","id":8977,"geometry":{"type":"Point","coordinates":[121.52865193157389,25.044373349046886]},"properties":{"OBJECTID":8977,"LANDMARKID":"6300000001469","LANDMARKCO":"303","LANDMARKNA":"華山藝文園區停車場","LANDMARKAD":"6300005","ADDRESS":" ","TEL":"02-23279534","COUNTYNAME":"台北市","TOWNNAME":"中正區","MARKTYPE":"993","Class":"303"}},{"type":"Feature","id":8978,"geometry":{"type":"Point","coordinates":[121.52992586710366,25.036015750627755]},"properties":{"OBJECTID":8978,"LANDMARKID":"6300000001470","LANDMARKCO":"303","LANDMARKNA":"臨沂63巷停車場","LANDMARKAD":"6300005","ADDRESS":" ","TEL":" ","COUNTYNAME":"台北市","TOWNNAME":"中正區","MARKTYPE":"993","Class":"303"}},{"type":"Feature","id":8979,"geometry":{"type":"Point","coordinates":[121.53107443700394,25.013804376418996]},"properties":{"OBJECTID":8979,"LANDMARKID":"6300000001471","LANDMARKCO":"303","LANDMARKNA":"自來水園區停車場","LANDMARKAD":"6300005","ADDRESS":" ","TEL":" ","COUNTYNAME":"台北市","TOWNNAME":"中正區","MARKTYPE":"993","Class":"303"}},{"type":"Feature","id":8980,"geometry":{"type":"Point","coordinates":[121.53553000665785,25.011102203941007]},"properties":{"OBJECTID":8980,"LANDMARKID":"6300000001472","LANDMARKCO":"303","LANDMARKNA":"自來水園區公館停車場","LANDMARKAD":"6300005","ADDRESS":"台北市中正區汀州路三段230巷15號","TEL":" ","COUNTYNAME":"台北市","TOWNNAME":"中正區","MARKTYPE":"993","Class":"303"}},{"type":"Feature","id":8981,"geometry":{"type":"Point","coordinates":[121.52885179491928,25.036545690654471]},"properties":{"OBJECTID":8981,"LANDMARKID":"6300000001473","LANDMARKCO":"303","LANDMARKNA":"臨沂65巷停車場","LANDMARKAD":"6300005","ADDRESS":" ","TEL":" ","COUNTYNAME":"台北市","TOWNNAME":"中正區","MARKTYPE":"993","Class":"303"}},{"type":"Feature","id":8982,"geometry":{"type":"Point","coordinates":[121.52965587022045,25.044112955163197]},"properties":{"OBJECTID":8982,"LANDMARKID":"6300000001474","LANDMARKCO":"303","LANDMARKNA":"中興嘟嘟房停車場-忠孝華山站","LANDMARKAD":"6300005","ADDRESS":"台北市中正區八德路1段1號旁(華山藝文園區旁)","TEL":"(02)2327-9534","COUNTYNAME":"台北市","TOWNNAME":"中正區","MARKTYPE":"993","Class":"303"}},{"type":"Feature","id":8983,"geometry":{"type":"Point","coordinates":[121.51396937241432,25.027350411116867]},"properties":{"OBJECTID":8983,"LANDMARKID":"6300000001475","LANDMARKCO":"303","LANDMARKNA":"中興嘟嘟房停車場-三元站","LANDMARKAD":"6300005","ADDRESS":"台北市中正區三元街268號旁","TEL":" ","COUNTYNAME":"台北市","TOWNNAME":"中正區","MARKTYPE":"993","Class":"303"}},{"type":"Feature","id":8984,"geometry":{"type":"Point","coordinates":[121.52163635167973,25.034671587540227]},"properties":{"OBJECTID":8984,"LANDMARKID":"6300000001476","LANDMARKCO":"303","LANDMARKNA":"中興嘟嘟房停車場-中正紀念堂站","LANDMARKAD":"6300005","ADDRESS":"台北市中正區中山南路21-1號B1","TEL":"(02)3393-9530.31","COUNTYNAME":"台北市","TOWNNAME":"中正區","MARKTYPE":"993","Class":"303"}},{"type":"Feature","id":8985,"geometry":{"type":"Point","coordinates":[121.51867465167736,25.026889880280297]},"properties":{"OBJECTID":8985,"LANDMARKID":"6300000001477","LANDMARKCO":"303","LANDMARKNA":"中興嘟嘟房停車場-牯嶺站","LANDMARKAD":"6300005","ADDRESS":"台北市中正區牯嶺街78號旁","TEL":" ","COUNTYNAME":"台北市","TOWNNAME":"中正區","MARKTYPE":"993","Class":"303"}},{"type":"Feature","id":8986,"geometry":{"type":"Point","coordinates":[121.52186492508589,25.026111407856426]},"properties":{"OBJECTID":8986,"LANDMARKID":"6300000001478","LANDMARKCO":"303","LANDMARKNA":"中興嘟嘟房停車場-博客加盟-南昌站","LANDMARKAD":"6300005","ADDRESS":"台北市南昌路2段100號旁","TEL":"(02)2368-7914","COUNTYNAME":"台北市","TOWNNAME":"中正區","MARKTYPE":"993","Class":"303"}},{"type":"Feature","id":8987,"geometry":{"type":"Point","coordinates":[121.51100442174516,25.024626261049718]},"properties":{"OBJECTID":8987,"LANDMARKID":"6300000001479","LANDMARKCO":"303","LANDMARKNA":"古亭國中地下停車場","LANDMARKAD":"6300005","ADDRESS":"台北市中正區中華路二段606巷1號B1","TEL":" ","COUNTYNAME":"台北市","TOWNNAME":"中正區","MARKTYPE":"993","Class":"303"}},{"type":"Feature","id":8988,"geometry":{"type":"Point","coordinates":[121.51312043454104,25.045486685587857]},"properties":{"OBJECTID":8988,"LANDMARKID":"6300000001480","LANDMARKCO":"303","LANDMARKNA":"一銀大樓地面停車場","LANDMARKAD":"6300005","ADDRESS":"台北市中正區重慶南路一段30號","TEL":" ","COUNTYNAME":"台北市","TOWNNAME":"中正區","MARKTYPE":"993","Class":"303"}},{"type":"Feature","id":8989,"geometry":{"type":"Point","coordinates":[121.5293633437318,25.017004250848391]},"properties":{"OBJECTID":8989,"LANDMARKID":"6300000001481","LANDMARKCO":"303","LANDMARKNA":"三軍總醫院附設停車場","LANDMARKAD":"6300005","ADDRESS":"台北市中正區汀州路三段40號","TEL":" ","COUNTYNAME":"台北市","TOWNNAME":"中正區","MARKTYPE":"993","Class":"303"}},{"type":"Feature","id":8990,"geometry":{"type":"Point","coordinates":[121.5098318712861,25.043088820690091]},"properties":{"OBJECTID":8990,"LANDMARKID":"6300000001482","LANDMARKCO":"303","LANDMARKNA":"中山堂地下停車場","LANDMARKAD":"6300005","ADDRESS":"台北市中正區延平南路98之1號B1","TEL":" ","COUNTYNAME":"台北市","TOWNNAME":"中正區","MARKTYPE":"993","Class":"303"}},{"type":"Feature","id":8991,"geometry":{"type":"Point","coordinates":[121.52696203534101,25.038931851022824]},"properties":{"OBJECTID":8991,"LANDMARKID":"6300000001483","LANDMARKCO":"303","LANDMARKNA":"中央信託局杭州南路停車場","LANDMARKAD":"6300005","ADDRESS":"台北市中正區杭州南路一段77巷19號","TEL":" ","COUNTYNAME":"台北市","TOWNNAME":"中正區","MARKTYPE":"993","Class":"303"}},{"type":"Feature","id":8992,"geometry":{"type":"Point","coordinates":[121.51734550694819,25.022432576838689]},"properties":{"OBJECTID":8992,"LANDMARKID":"6300000001484","LANDMARKCO":"303","LANDMARKNA":"中央信託局廈門停車場","LANDMARKAD":"6300005","ADDRESS":"台北市中正區廈門街142號","TEL":" ","COUNTYNAME":"台北市","TOWNNAME":"中正區","MARKTYPE":"993","Class":"303"}},{"type":"Feature","id":8993,"geometry":{"type":"Point","coordinates":[121.53235252532032,25.042738801548907]},"properties":{"OBJECTID":8993,"LANDMARKID":"6300000001485","LANDMARKCO":"303","LANDMARKNA":"中興紡織大樓停車場","LANDMARKAD":"6300005","ADDRESS":"台北市中正區忠孝東路二段123號","TEL":" ","COUNTYNAME":"台北市","TOWNNAME":"中正區","MARKTYPE":"993","Class":"303"}},{"type":"Feature","id":8994,"geometry":{"type":"Point","coordinates":[121.53073060202956,25.037974385134508]},"properties":{"OBJECTID":8994,"LANDMARKID":"6300000001486","LANDMARKCO":"303","LANDMARKNA":"仁愛路二段停車場","LANDMARKAD":"6300005","ADDRESS":"台北市中正區仁愛路二段84號","TEL":" ","COUNTYNAME":"台北市","TOWNNAME":"中正區","MARKTYPE":"993","Class":"303"}},{"type":"Feature","id":8995,"geometry":{"type":"Point","coordinates":[121.51213528591944,25.047533328369148]},"properties":{"OBJECTID":8995,"LANDMARKID":"6300000001487","LANDMARKCO":"303","LANDMARKNA":"北門橋下停車場","LANDMARKAD":"6300005","ADDRESS":"台北市中正區","TEL":" ","COUNTYNAME":"台北市","TOWNNAME":"中正區","MARKTYPE":"993","Class":"303"}},{"type":"Feature","id":8996,"geometry":{"type":"Point","coordinates":[121.5188747465873,25.041564968178641]},"properties":{"OBJECTID":8996,"LANDMARKID":"6300000001488","LANDMARKCO":"303","LANDMARKNA":"台大醫院訪客停車場","LANDMARKAD":"6300005","ADDRESS":"台北市中正區中山南路7號B1","TEL":" ","COUNTYNAME":"台北市","TOWNNAME":"中正區","MARKTYPE":"993","Class":"303"}},{"type":"Feature","id":8997,"geometry":{"type":"Point","coordinates":[121.51643542072544,25.046231273632397]},"properties":{"OBJECTID":8997,"LANDMARKID":"6300000001489","LANDMARKCO":"303","LANDMARKNA":"台北希爾頓大飯店停車場","LANDMARKAD":"6300005","ADDRESS":"台北市中正區忠孝西路一段38號","TEL":" ","COUNTYNAME":"台北市","TOWNNAME":"中正區","MARKTYPE":"993","Class":"303"}},{"type":"Feature","id":8998,"geometry":{"type":"Point","coordinates":[121.51708670965104,25.047175013696446]},"properties":{"OBJECTID":8998,"LANDMARKID":"6300000001490","LANDMARKCO":"303","LANDMARKNA":"台北站地下停車場","LANDMARKAD":"6300005","ADDRESS":"台北市中正區北平西路3號B1","TEL":" ","COUNTYNAME":"台北市","TOWNNAME":"中正區","MARKTYPE":"993","Class":"303"}},{"type":"Feature","id":8999,"geometry":{"type":"Point","coordinates":[121.516633088859,25.032221947779924]},"properties":{"OBJECTID":8999,"LANDMARKID":"6300000001491","LANDMARKCO":"303","LANDMARKNA":"仰德大樓停車場","LANDMARKAD":"6300005","ADDRESS":"台北市中正區南昌路一段五號","TEL":" ","COUNTYNAME":"台北市","TOWNNAME":"中正區","MARKTYPE":"993","Class":"303"}},{"type":"Feature","id":9000,"geometry":{"type":"Point","coordinates":[121.53199430308297,25.039715719886441]},"properties":{"OBJECTID":9000,"LANDMARKID":"6300000001492","LANDMARKCO":"303","LANDMARKNA":"合興臨沂停車場","LANDMARKAD":"6300005","ADDRESS":"台北市中正區臨沂街33巷42號","TEL":" ","COUNTYNAME":"台北市","TOWNNAME":"中正區","MARKTYPE":"993","Class":"303"}}]}