{"type":"FeatureCollection","features":[{"type":"Feature","id":18401,"geometry":{"type":"Point","coordinates":[120.78796979965669,24.486230695764529]},"properties":{"OBJECTID":18401,"LANDMARKID":"1000500000848","LANDMARKCO":"603","LANDMARKNA":"中興旅社","LANDMARKAD":"1000510","ADDRESS":"苗栗縣銅鑼鄉銅鑼村新興路4號","TEL":"037-981429","COUNTYNAME":"苗栗縣","TOWNNAME":"銅鑼鄉","MARKTYPE":"996","Class":"6"}},{"type":"Feature","id":18402,"geometry":{"type":"Point","coordinates":[120.6474335132269,24.442337606846692]},"properties":{"OBJECTID":18402,"LANDMARKID":"1000500000624","LANDMARKCO":"405","LANDMARKNA":"中油加油站-新發站","LANDMARKAD":"1000502","ADDRESS":"苗栗縣苑裡鎮西勢里西勢46-1號","TEL":"03-7869628","COUNTYNAME":"苗栗縣","TOWNNAME":"苑裡鎮","MARKTYPE":"994","Class":"4"}},{"type":"Feature","id":18403,"geometry":{"type":"Point","coordinates":[120.65812078151366,24.451933878029756]},"properties":{"OBJECTID":18403,"LANDMARKID":"1000500000625","LANDMARKCO":"405","LANDMARKNA":"中油加油站-苑北站","LANDMARKAD":"1000502","ADDRESS":"苗栗縣苑裡鎮苑北里苑港5-4號","TEL":"03-7860635","COUNTYNAME":"苗栗縣","TOWNNAME":"苑裡鎮","MARKTYPE":"994","Class":"4"}},{"type":"Feature","id":18404,"geometry":{"type":"Point","coordinates":[120.64971661323138,24.43939085302905]},"properties":{"OBJECTID":18404,"LANDMARKID":"1000500000626","LANDMARKCO":"405","LANDMARKNA":"中油加油站-苑裡站(中油直營)","LANDMARKAD":"1000502","ADDRESS":"苗栗縣苑裡鎮中山路19號","TEL":"037-866747","COUNTYNAME":"苗栗縣","TOWNNAME":"苑裡鎮","MARKTYPE":"994","Class":"4"}},{"type":"Feature","id":18405,"geometry":{"type":"Point","coordinates":[120.68137227991737,24.418944777803464]},"properties":{"OBJECTID":18405,"LANDMARKID":"1000500000627","LANDMARKCO":"405","LANDMARKNA":"中油加油站-山腳站(刷卡自助)(中油直營)","LANDMARKAD":"1000502","ADDRESS":"苗栗縣苑裡鎮舊社里158號","TEL":"037-745074","COUNTYNAME":"苗栗縣","TOWNNAME":"苑裡鎮","MARKTYPE":"994","Class":"4"}},{"type":"Feature","id":18406,"geometry":{"type":"Point","coordinates":[120.65607952145224,24.440908248800188]},"properties":{"OBJECTID":18406,"LANDMARKID":"1000500000628","LANDMARKCO":"405","LANDMARKNA":"中油加油站-名成站","LANDMARKAD":"1000502","ADDRESS":"苗栗縣苑裡鎮世界路一段25號","TEL":"037-868008","COUNTYNAME":"苗栗縣","TOWNNAME":"苑裡鎮","MARKTYPE":"994","Class":"4"}},{"type":"Feature","id":18407,"geometry":{"type":"Point","coordinates":[120.65335167590216,24.441567354136303]},"properties":{"OBJECTID":18407,"LANDMARKID":"1000500000600","LANDMARKCO":"402","LANDMARKNA":"亞太行動寬頻電信-苑裡和平加盟服務中心","LANDMARKAD":"1000502","ADDRESS":"苗栗縣苑裡鎮和平路136號","TEL":"03-7857827","COUNTYNAME":"苗栗縣","TOWNNAME":"苑裡鎮","MARKTYPE":"994","Class":"4"}},{"type":"Feature","id":18408,"geometry":{"type":"Point","coordinates":[120.65278157027456,24.441829238454041]},"properties":{"OBJECTID":18408,"LANDMARKID":"1000500000554","LANDMARKCO":"401","LANDMARKNA":"苑裡李綜合醫院","LANDMARKAD":"1000502","ADDRESS":"苗栗縣苑裡鎮和平路168號","TEL":"037-862387","COUNTYNAME":"苗栗縣","TOWNNAME":"苑裡鎮","MARKTYPE":"994","Class":"4"}},{"type":"Feature","id":18409,"geometry":{"type":"Point","coordinates":[120.65459331793312,24.442379274798018]},"properties":{"OBJECTID":18409,"LANDMARKID":"1000500000555","LANDMARKCO":"401","LANDMARKNA":"邱綜合醫院","LANDMARKAD":"1000502","ADDRESS":"苗栗縣苑裡鎮為公路16號","TEL":"037-862121","COUNTYNAME":"苗栗縣","TOWNNAME":"苑裡鎮","MARKTYPE":"994","Class":"4"}},{"type":"Feature","id":18410,"geometry":{"type":"Point","coordinates":[120.65347996941038,24.441677685663368]},"properties":{"OBJECTID":18410,"LANDMARKID":"1000500000754","LANDMARKCO":"408","LANDMARKNA":"郵局-苑裡郵局","LANDMARKAD":"1000502","ADDRESS":"苗栗縣苑裡鎮忠勇街15號","TEL":"(037)861-075","COUNTYNAME":"苗栗縣","TOWNNAME":"苑裡鎮","MARKTYPE":"994","Class":"4"}},{"type":"Feature","id":18411,"geometry":{"type":"Point","coordinates":[120.65123417859206,24.442691926076169]},"properties":{"OBJECTID":18411,"LANDMARKID":"1000500000755","LANDMARKCO":"408","LANDMARKNA":"郵局-苑裡山腳郵局","LANDMARKAD":"1000502","ADDRESS":"苗栗縣苑裡鎮舊社里63號","TEL":"(037)741-514","COUNTYNAME":"苗栗縣","TOWNNAME":"苑裡鎮","MARKTYPE":"994","Class":"4"}},{"type":"Feature","id":18412,"geometry":{"type":"Point","coordinates":[120.68478619932655,24.415822106603269]},"properties":{"OBJECTID":18412,"LANDMARKID":"1000500000756","LANDMARKCO":"408","LANDMARKNA":"郵局-苑裡社苓郵局","LANDMARKAD":"1000502","ADDRESS":"苗栗縣苑裡鎮社苓里90-5號","TEL":"(037)741-142","COUNTYNAME":"苗栗縣","TOWNNAME":"苑裡鎮","MARKTYPE":"994","Class":"4"}},{"type":"Feature","id":18413,"geometry":{"type":"Point","coordinates":[120.65262047029341,24.442827689168535]},"properties":{"OBJECTID":18413,"LANDMARKID":"1000500000767","LANDMARKCO":"409","LANDMARKNA":"苗栗縣苑裡鎮農會","LANDMARKAD":"1000502","ADDRESS":"苗栗縣苑裡鎮為公路65號","TEL":"037-862141","COUNTYNAME":"苗栗縣","TOWNNAME":"苑裡鎮","MARKTYPE":"994","Class":"4"}},{"type":"Feature","id":18414,"geometry":{"type":"Point","coordinates":[120.65079136797246,24.441895904149142]},"properties":{"OBJECTID":18414,"LANDMARKID":"1000500000768","LANDMARKCO":"409","LANDMARKNA":"通苑區漁會","LANDMARKAD":"1000502","ADDRESS":"苗栗縣苑裡鎮中山路133號","TEL":"037-861171","COUNTYNAME":"苗栗縣","TOWNNAME":"苑裡鎮","MARKTYPE":"994","Class":"4"}},{"type":"Feature","id":18415,"geometry":{"type":"Point","coordinates":[120.64543704577243,24.430439338129791]},"properties":{"OBJECTID":18415,"LANDMARKID":"1000500000623","LANDMARKCO":"405","LANDMARKNA":"台塑加油站-允用站(台塑)","LANDMARKAD":"1000502","ADDRESS":"苗栗縣苑裡鎮房裡里南房69-5號","TEL":"03-7869196","COUNTYNAME":"苗栗縣","TOWNNAME":"苑裡鎮","MARKTYPE":"994","Class":"4"}},{"type":"Feature","id":18416,"geometry":{"type":"Point","coordinates":[120.65348130438518,24.443728574555792]},"properties":{"OBJECTID":18416,"LANDMARKID":"1000500000076","LANDMARKCO":"106","LANDMARKNA":"苗栗縣苑裡鎮戶政事務所","LANDMARKAD":"1000502","ADDRESS":"苗栗縣苑裡鎮苑南里7鄰建國路51之1號","TEL":"037-861474","COUNTYNAME":"苗栗縣","TOWNNAME":"苑裡鎮","MARKTYPE":"991","Class":"1"}},{"type":"Feature","id":18417,"geometry":{"type":"Point","coordinates":[120.65360015097733,24.443638829133821]},"properties":{"OBJECTID":18417,"LANDMARKID":"1000500000170","LANDMARKCO":"107","LANDMARKNA":"苗栗縣警察局苑裡分駐所","LANDMARKAD":"1000502","ADDRESS":"苗栗縣苑裡鎮天下路84號","TEL":"037-861024","COUNTYNAME":"苗栗縣","TOWNNAME":"苑裡鎮","MARKTYPE":"991","Class":"1"}},{"type":"Feature","id":18418,"geometry":{"type":"Point","coordinates":[120.65343198994337,24.443728348703949]},"properties":{"OBJECTID":18418,"LANDMARKID":"1000500000171","LANDMARKCO":"107","LANDMARKNA":"苗栗縣消防局苑裡消防分隊","LANDMARKAD":"1000502","ADDRESS":"苗栗縣苑裡鎮天下路82號之2","TEL":"037-862010","COUNTYNAME":"苗栗縣","TOWNNAME":"苑裡鎮","MARKTYPE":"991","Class":"1"}},{"type":"Feature","id":18419,"geometry":{"type":"Point","coordinates":[120.65294363045378,24.439663075939368]},"properties":{"OBJECTID":18419,"LANDMARKID":"1000500000194","LANDMARKCO":"108","LANDMARKNA":"苗栗縣苑裡鎮公所","LANDMARKAD":"1000502","ADDRESS":"苗栗縣苑裡鎮信義路1號","TEL":"037-862100","COUNTYNAME":"苗栗縣","TOWNNAME":"苑裡鎮","MARKTYPE":"991","Class":"1"}},{"type":"Feature","id":18420,"geometry":{"type":"Point","coordinates":[120.65319955864318,24.439754539262037]},"properties":{"OBJECTID":18420,"LANDMARKID":"1000500000028","LANDMARKCO":"103","LANDMARKNA":"苗栗縣苑裡鎮鎮民代表會","LANDMARKAD":"1000502","ADDRESS":"苗栗縣苑裡鎮信義路1號3樓","TEL":"037-861047","COUNTYNAME":"苗栗縣","TOWNNAME":"苑裡鎮","MARKTYPE":"991","Class":"1"}},{"type":"Feature","id":18421,"geometry":{"type":"Point","coordinates":[120.67584540071805,24.399355759344331]},"properties":{"OBJECTID":18421,"LANDMARKID":"1000500000172","LANDMARKCO":"107","LANDMARKNA":"苗栗縣警察局社苓派出所","LANDMARKAD":"1000502","ADDRESS":"苗栗縣苑裡鎮社苓里7鄰77號","TEL":"037-742508","COUNTYNAME":"苗栗縣","TOWNNAME":"苑裡鎮","MARKTYPE":"991","Class":"1"}},{"type":"Feature","id":18422,"geometry":{"type":"Point","coordinates":[120.6863594583108,24.414906485342343]},"properties":{"OBJECTID":18422,"LANDMARKID":"1000500000173","LANDMARKCO":"107","LANDMARKNA":"苗栗縣警察局山腳派出所","LANDMARKAD":"1000502","ADDRESS":"苗栗縣苑裡鎮山腳里389號","TEL":"037-740217","COUNTYNAME":"苗栗縣","TOWNNAME":"苑裡鎮","MARKTYPE":"991","Class":"1"}},{"type":"Feature","id":18423,"geometry":{"type":"Point","coordinates":[120.6515791316579,24.440295233891245]},"properties":{"OBJECTID":18423,"LANDMARKID":"1000500000029","LANDMARKCO":"103","LANDMARKNA":"苗栗縣苑裡鎮衛生所","LANDMARKAD":"1000502","ADDRESS":"苗栗縣苑裡鎮客庄里公民街16號","TEL":"037-869595","COUNTYNAME":"苗栗縣","TOWNNAME":"苑裡鎮","MARKTYPE":"991","Class":"1"}},{"type":"Feature","id":18424,"geometry":{"type":"Point","coordinates":[120.68581406420221,24.414246280035403]},"properties":{"OBJECTID":18424,"LANDMARKID":"1000500000415","LANDMARKCO":"205","LANDMARKNA":"苑裡藺草文化館","LANDMARKAD":"1000502","ADDRESS":"苗栗縣苑裡鎮山腳里灣麗路99號","TEL":"037-741319","COUNTYNAME":"苗栗縣","TOWNNAME":"苑裡鎮","MARKTYPE":"992","Class":"2"}},{"type":"Feature","id":18425,"geometry":{"type":"Point","coordinates":[120.64485586867488,24.454989362966387]},"properties":{"OBJECTID":18425,"LANDMARKID":"1000500000416","LANDMARKCO":"205","LANDMARKNA":"心雕居‧陳炯輝紀念館","LANDMARKAD":"1000502","ADDRESS":"苗栗縣苑裡鎮出水路64號","TEL":"037-869825","COUNTYNAME":"苗栗縣","TOWNNAME":"苑裡鎮","MARKTYPE":"992","Class":"2"}},{"type":"Feature","id":18426,"geometry":{"type":"Point","coordinates":[120.65313014234219,24.439361284097217]},"properties":{"OBJECTID":18426,"LANDMARKID":"1000500000408","LANDMARKCO":"204","LANDMARKNA":"苗栗縣立圖書館苑裡分館","LANDMARKAD":"1000502","ADDRESS":"苗栗縣苑裡鎮信義路1號","TEL":" ","COUNTYNAME":"苗栗縣","TOWNNAME":"苑裡鎮","MARKTYPE":"992","Class":"2"}},{"type":"Feature","id":18427,"geometry":{"type":"Point","coordinates":[120.65459619588785,24.448248139539182]},"properties":{"OBJECTID":18427,"LANDMARKID":"1000500000264","LANDMARKCO":"203","LANDMARKNA":"縣立苑裡國小","LANDMARKAD":"1000502","ADDRESS":"苗栗縣苑裡鎮中山路307號","TEL":"037-861013","COUNTYNAME":"苗栗縣","TOWNNAME":"苑裡鎮","MARKTYPE":"992","Class":"2"}},{"type":"Feature","id":18428,"geometry":{"type":"Point","coordinates":[120.65474629061129,24.438678152844858]},"properties":{"OBJECTID":18428,"LANDMARKID":"1000500000265","LANDMARKCO":"203","LANDMARKNA":"縣立客庄國小","LANDMARKAD":"1000502","ADDRESS":"苗栗縣苑裡鎮新興路21號","TEL":"037-865646","COUNTYNAME":"苗栗縣","TOWNNAME":"苑裡鎮","MARKTYPE":"992","Class":"2"}},{"type":"Feature","id":18429,"geometry":{"type":"Point","coordinates":[120.66366726400688,24.437706257168688]},"properties":{"OBJECTID":18429,"LANDMARKID":"1000500000226","LANDMARKCO":"202","LANDMARKNA":"縣立苑裡高中","LANDMARKAD":"1000502","ADDRESS":"苗栗縣苑裡鎮客庄里1鄰2號","TEL":"037-861042","COUNTYNAME":"苗栗縣","TOWNNAME":"苑裡鎮","MARKTYPE":"992","Class":"2"}},{"type":"Feature","id":18430,"geometry":{"type":"Point","coordinates":[120.65368287932149,24.447521642814891]},"properties":{"OBJECTID":18430,"LANDMARKID":"1000500000227","LANDMARKCO":"202","LANDMARKNA":"國立苑裡高中","LANDMARKAD":"1000502","ADDRESS":"苗栗縣苑裡鎮育才街100號","TEL":"037-868680","COUNTYNAME":"苗栗縣","TOWNNAME":"苑裡鎮","MARKTYPE":"992","Class":"2"}},{"type":"Feature","id":18431,"geometry":{"type":"Point","coordinates":[120.6431468035625,24.429440694350749]},"properties":{"OBJECTID":18431,"LANDMARKID":"1000500000228","LANDMARKCO":"202","LANDMARKNA":"私立龍德家商","LANDMARKAD":"1000502","ADDRESS":"苗栗縣苑裡鎮南房75之1號","TEL":"037-851277","COUNTYNAME":"苗栗縣","TOWNNAME":"苑裡鎮","MARKTYPE":"992","Class":"2"}},{"type":"Feature","id":18432,"geometry":{"type":"Point","coordinates":[120.66383396493423,24.437887578823865]},"properties":{"OBJECTID":18432,"LANDMARKID":"1000500000229","LANDMARKCO":"202","LANDMARKNA":"縣立苑裡高中附設國中部","LANDMARKAD":"1000502","ADDRESS":"苗栗縣苑裡鎮客庄里一鄰2號","TEL":"037861042","COUNTYNAME":"苗栗縣","TOWNNAME":"苑裡鎮","MARKTYPE":"992","Class":"2"}},{"type":"Feature","id":18433,"geometry":{"type":"Point","coordinates":[120.68523328285355,24.418699778073321]},"properties":{"OBJECTID":18433,"LANDMARKID":"1000500000256","LANDMARKCO":"203","LANDMARKNA":"縣立致民國中","LANDMARKAD":"1000502","ADDRESS":"苗栗縣苑裡鎮舊社里9鄰96之1號","TEL":"037-744788","COUNTYNAME":"苗栗縣","TOWNNAME":"苑裡鎮","MARKTYPE":"992","Class":"2"}},{"type":"Feature","id":18434,"geometry":{"type":"Point","coordinates":[120.6613351812224,24.428847467140457]},"properties":{"OBJECTID":18434,"LANDMARKID":"1000500000257","LANDMARKCO":"203","LANDMARKNA":"縣立中正國小","LANDMARKAD":"1000502","ADDRESS":"苗栗縣苑裡鎮中正里111號","TEL":"037-861244","COUNTYNAME":"苗栗縣","TOWNNAME":"苑裡鎮","MARKTYPE":"992","Class":"2"}},{"type":"Feature","id":18435,"geometry":{"type":"Point","coordinates":[120.64669820123947,24.433784699766591]},"properties":{"OBJECTID":18435,"LANDMARKID":"1000500000258","LANDMARKCO":"203","LANDMARKNA":"縣立文苑國小","LANDMARKAD":"1000502","ADDRESS":"苗栗縣苑裡鎮房裡里2鄰14號","TEL":"037-861410","COUNTYNAME":"苗栗縣","TOWNNAME":"苑裡鎮","MARKTYPE":"992","Class":"2"}},{"type":"Feature","id":18436,"geometry":{"type":"Point","coordinates":[120.68505023694327,24.416441770738182]},"properties":{"OBJECTID":18436,"LANDMARKID":"1000500000259","LANDMARKCO":"203","LANDMARKNA":"縣立山腳國小","LANDMARKAD":"1000502","ADDRESS":"苗栗縣苑裡鎮舊社里47號","TEL":"037-45024","COUNTYNAME":"苗栗縣","TOWNNAME":"苑裡鎮","MARKTYPE":"992","Class":"2"}},{"type":"Feature","id":18437,"geometry":{"type":"Point","coordinates":[120.67615748692212,24.398093026467055]},"properties":{"OBJECTID":18437,"LANDMARKID":"1000500000260","LANDMARKCO":"203","LANDMARKNA":"縣立中山國小","LANDMARKAD":"1000502","ADDRESS":"苗栗縣苑裡鎮社苓里4鄰51之1號","TEL":"037-743564","COUNTYNAME":"苗栗縣","TOWNNAME":"苑裡鎮","MARKTYPE":"992","Class":"2"}},{"type":"Feature","id":18438,"geometry":{"type":"Point","coordinates":[120.69609601861447,24.389196447094946]},"properties":{"OBJECTID":18438,"LANDMARKID":"1000500000261","LANDMARKCO":"203","LANDMARKNA":"縣立藍田國小","LANDMARKAD":"1000502","ADDRESS":"苗栗縣苑裡鎮泰田里62號","TEL":"037-743504","COUNTYNAME":"苗栗縣","TOWNNAME":"苑裡鎮","MARKTYPE":"992","Class":"2"}},{"type":"Feature","id":18439,"geometry":{"type":"Point","coordinates":[120.67927712300416,24.438189089084485]},"properties":{"OBJECTID":18439,"LANDMARKID":"1000500000262","LANDMARKCO":"203","LANDMARKNA":"縣立林森國小","LANDMARKAD":"1000502","ADDRESS":"苗栗縣苑裡鎮水坡里70號","TEL":"037-861084","COUNTYNAME":"苗栗縣","TOWNNAME":"苑裡鎮","MARKTYPE":"992","Class":"2"}},{"type":"Feature","id":18440,"geometry":{"type":"Point","coordinates":[120.71323186077824,24.41306720366137]},"properties":{"OBJECTID":18440,"LANDMARKID":"1000500000263","LANDMARKCO":"203","LANDMARKNA":"縣立蕉埔國小","LANDMARKAD":"1000502","ADDRESS":"苗栗縣苑裡鎮蕉埔里8鄰87之2號","TEL":"037-741574","COUNTYNAME":"苗栗縣","TOWNNAME":"苑裡鎮","MARKTYPE":"992","Class":"2"}},{"type":"Feature","id":18441,"geometry":{"type":"Point","coordinates":[120.63220155338782,24.447489971788894]},"properties":{"OBJECTID":18441,"LANDMARKID":"1000500000479","LANDMARKCO":"305","LANDMARKNA":"海岸漁港","LANDMARKAD":"1000502","ADDRESS":"苗栗縣苑裡鎮海岸里","TEL":" ","COUNTYNAME":"苗栗縣","TOWNNAME":"苑裡鎮","MARKTYPE":"993","Class":"305"}},{"type":"Feature","id":18442,"geometry":{"type":"Point","coordinates":[120.64639829250758,24.460155900727102]},"properties":{"OBJECTID":18442,"LANDMARKID":"1000500000480","LANDMARKCO":"305","LANDMARKNA":"苑裡漁港","LANDMARKAD":"1000502","ADDRESS":"苗栗縣苑裡鎮苑港里","TEL":" ","COUNTYNAME":"苗栗縣","TOWNNAME":"苑裡鎮","MARKTYPE":"993","Class":"305"}},{"type":"Feature","id":18443,"geometry":{"type":"Point","coordinates":[120.70160387483465,24.410610751227974]},"properties":{"OBJECTID":18443,"LANDMARKID":"1000500000477","LANDMARKCO":"303","LANDMARKNA":"台灣少林寺停車場","LANDMARKAD":"1000502","ADDRESS":"苗栗縣苑裡鎮石鎮里火炎山1號","TEL":"037-740373","COUNTYNAME":"苗栗縣","TOWNNAME":"苑裡鎮","MARKTYPE":"993","Class":"303"}},{"type":"Feature","id":18444,"geometry":{"type":"Point","coordinates":[120.70255252732417,24.411979375348842]},"properties":{"OBJECTID":18444,"LANDMARKID":"1000500000478","LANDMARKCO":"303","LANDMARKNA":"台灣少林寺停車場","LANDMARKAD":"1000502","ADDRESS":"苗栗縣苑裡鎮石鎮里火炎山1號","TEL":"037-740373","COUNTYNAME":"苗栗縣","TOWNNAME":"苑裡鎮","MARKTYPE":"993","Class":"303"}},{"type":"Feature","id":18445,"geometry":{"type":"Point","coordinates":[120.67019114018167,24.398969715938623]},"properties":{"OBJECTID":18445,"LANDMARKID":"1000500000544","LANDMARKCO":"308","LANDMARKNA":"國3-苑裡交流道-北上","LANDMARKAD":"1000502","ADDRESS":"苗栗縣苑裡鎮","TEL":" ","COUNTYNAME":"苗栗縣","TOWNNAME":"苑裡鎮","MARKTYPE":"993","Class":"308"}},{"type":"Feature","id":18446,"geometry":{"type":"Point","coordinates":[120.63326905838643,24.433957487972645]},"properties":{"OBJECTID":18446,"LANDMARKID":"1000500000545","LANDMARKCO":"308","LANDMARKNA":"台61-140線平交匝道-北上","LANDMARKAD":"1000502","ADDRESS":" ","TEL":" ","COUNTYNAME":"苗栗縣","TOWNNAME":"苑裡鎮","MARKTYPE":"993","Class":"308"}},{"type":"Feature","id":18447,"geometry":{"type":"Point","coordinates":[120.65390323092676,24.461781190884118]},"properties":{"OBJECTID":18447,"LANDMARKID":"1000500000546","LANDMARKCO":"308","LANDMARKNA":"台61-苑裡交流道-北上","LANDMARKAD":"1000502","ADDRESS":" ","TEL":" ","COUNTYNAME":"苗栗縣","TOWNNAME":"苑裡鎮","MARKTYPE":"993","Class":"308"}},{"type":"Feature","id":18448,"geometry":{"type":"Point","coordinates":[120.6513276550842,24.443580972333407]},"properties":{"OBJECTID":18448,"LANDMARKID":"1000500000437","LANDMARKCO":"301","LANDMARKNA":"苑裡火車站","LANDMARKAD":"1000502","ADDRESS":"苗栗縣苑裡鎮中山路165號","TEL":"037-851013","COUNTYNAME":"苗栗縣","TOWNNAME":"苑裡鎮","MARKTYPE":"993","Class":"301"}},{"type":"Feature","id":18449,"geometry":{"type":"Point","coordinates":[120.65068264334812,24.441195652632416]},"properties":{"OBJECTID":18449,"LANDMARKID":"1000500000601","LANDMARKCO":"402","LANDMARKNA":"中華電信-苑裡中山特約服務中心","LANDMARKAD":"1000502","ADDRESS":"苗栗縣苑裡鎮中山路123號","TEL":"037-868855","COUNTYNAME":"苗栗縣","TOWNNAME":"苑裡鎮","MARKTYPE":"994","Class":"4"}},{"type":"Feature","id":18450,"geometry":{"type":"Point","coordinates":[120.6537502849885,24.441928304452698]},"properties":{"OBJECTID":18450,"LANDMARKID":"1000500000602","LANDMARKCO":"402","LANDMARKNA":"中華電信-苑裡服務中心","LANDMARKAD":"1000502","ADDRESS":"苗栗縣苑裡鎮忠勇街17號","TEL":"(037)862-912","COUNTYNAME":"苗栗縣","TOWNNAME":"苑裡鎮","MARKTYPE":"994","Class":"4"}},{"type":"Feature","id":18451,"geometry":{"type":"Point","coordinates":[120.65222511496407,24.444176207550459]},"properties":{"OBJECTID":18451,"LANDMARKID":"1000500000844","LANDMARKCO":"603","LANDMARKNA":"國泰大旅社","LANDMARKAD":"1000502","ADDRESS":"苗栗縣苑裡鎮中山路182號","TEL":"037-861058","COUNTYNAME":"苗栗縣","TOWNNAME":"苑裡鎮","MARKTYPE":"996","Class":"6"}},{"type":"Feature","id":18452,"geometry":{"type":"Point","coordinates":[120.65028367050559,24.440095731207581]},"properties":{"OBJECTID":18452,"LANDMARKID":"1000500000845","LANDMARKCO":"603","LANDMARKNA":"遠東大旅社","LANDMARKAD":"1000502","ADDRESS":"苗栗縣苑裡鎮中山路69號","TEL":"037-861130","COUNTYNAME":"苗栗縣","TOWNNAME":"苑裡鎮","MARKTYPE":"996","Class":"6"}},{"type":"Feature","id":18453,"geometry":{"type":"Point","coordinates":[120.70139348309836,24.409992499269631]},"properties":{"OBJECTID":18453,"LANDMARKID":"1000500000797","LANDMARKCO":"505","LANDMARKNA":"火炎山溫泉遊樂區","LANDMARKAD":"1000502","ADDRESS":"苗栗縣苑裡鎮石鎮里火炎山1號","TEL":"037-740373","COUNTYNAME":"苗栗縣","TOWNNAME":"苑裡鎮","MARKTYPE":"995","Class":"5"}},{"type":"Feature","id":18454,"geometry":{"type":"Point","coordinates":[120.70179597091912,24.41138509917112]},"properties":{"OBJECTID":18454,"LANDMARKID":"1000500000798","LANDMARKCO":"505","LANDMARKNA":"台灣少林寺","LANDMARKAD":"1000502","ADDRESS":"苗栗縣苑裡鎮石鎮里火炎山1號","TEL":" ","COUNTYNAME":"苗栗縣","TOWNNAME":"苑裡鎮","MARKTYPE":"995","Class":"5"}},{"type":"Feature","id":18455,"geometry":{"type":"Point","coordinates":[120.72163596836411,24.393762774307341]},"properties":{"OBJECTID":18455,"LANDMARKID":"1000500000830","LANDMARKCO":"510","LANDMARKNA":"全國花園高爾夫球場","LANDMARKAD":"1000502","ADDRESS":"苗栗縣苑裡鎮石鎮里1鄰1-1號","TEL":"037-743377","COUNTYNAME":"苗栗縣","TOWNNAME":"苑裡鎮","MARKTYPE":"995","Class":"5"}},{"type":"Feature","id":18456,"geometry":{"type":"Point","coordinates":[121.11612569044468,24.502020325451664]},"properties":{"OBJECTID":18456,"LANDMARKID":"1000500000796","LANDMARKCO":"504","LANDMARKNA":"觀霧森林遊樂區","LANDMARKAD":"1000518","ADDRESS":"新竹縣五峰鄉與苗栗縣泰安鄉交界處","TEL":" ","COUNTYNAME":"苗栗縣","TOWNNAME":"泰安鄉","MARKTYPE":"995","Class":"5"}},{"type":"Feature","id":18457,"geometry":{"type":"Point","coordinates":[121.15143230483925,24.461668007107669]},"properties":{"OBJECTID":18457,"LANDMARKID":"1000500000785","LANDMARKCO":"502","LANDMARKNA":"雪霸國家公園","LANDMARKAD":"1000518","ADDRESS":"苗栗縣大湖鄉富興村尾坪100號","TEL":"037-996100","COUNTYNAME":"苗栗縣","TOWNNAME":"泰安鄉","MARKTYPE":"995","Class":"5"}},{"type":"Feature","id":18458,"geometry":{"type":"Point","coordinates":[120.97744429762898,24.471864739362537]},"properties":{"OBJECTID":18458,"LANDMARKID":"1000500000950","LANDMARKCO":"605","LANDMARKNA":"警光山莊","LANDMARKAD":"1000518","ADDRESS":"苗栗縣泰安鄉錦水村18號","TEL":"037-941175","COUNTYNAME":"苗栗縣","TOWNNAME":"泰安鄉","MARKTYPE":"996","Class":"6"}},{"type":"Feature","id":18459,"geometry":{"type":"Point","coordinates":[120.9054936155034,24.446300796160489]},"properties":{"OBJECTID":18459,"LANDMARKID":"1000500000759","LANDMARKCO":"408","LANDMARKNA":"郵局-泰安郵局","LANDMARKAD":"1000518","ADDRESS":"苗栗縣泰安鄉清安村洗水坑23號","TEL":"(037)941-035","COUNTYNAME":"苗栗縣","TOWNNAME":"泰安鄉","MARKTYPE":"994","Class":"4"}},{"type":"Feature","id":18460,"geometry":{"type":"Point","coordinates":[121.11509766750417,24.504302641059091]},"properties":{"OBJECTID":18460,"LANDMARKID":"1000500000015","LANDMARKCO":"101","LANDMARKNA":"林務局新竹林區管理處","LANDMARKAD":"1000518","ADDRESS":"苗栗縣泰安鄉梅園村觀霧8號","TEL":"037-272913","COUNTYNAME":"苗栗縣","TOWNNAME":"泰安鄉","MARKTYPE":"991","Class":"1"}},{"type":"Feature","id":18461,"geometry":{"type":"Point","coordinates":[120.90567728403084,24.446442111477875]},"properties":{"OBJECTID":18461,"LANDMARKID":"1000500000077","LANDMARKCO":"106","LANDMARKNA":"苗栗縣泰安鄉戶政事務所","LANDMARKAD":"1000518","ADDRESS":"苗栗縣泰安鄉清安村1鄰洗水坑19號2樓","TEL":"037-941058","COUNTYNAME":"苗栗縣","TOWNNAME":"泰安鄉","MARKTYPE":"991","Class":"1"}},{"type":"Feature","id":18462,"geometry":{"type":"Point","coordinates":[120.93463982979372,24.343345495502074]},"properties":{"OBJECTID":18462,"LANDMARKID":"1000500000156","LANDMARKCO":"107","LANDMARKNA":"苗栗縣警察局士林派出所","LANDMARKAD":"1000518","ADDRESS":"苗栗縣泰安鄉土林村7鄰63號","TEL":"037-962037","COUNTYNAME":"苗栗縣","TOWNNAME":"泰安鄉","MARKTYPE":"991","Class":"1"}},{"type":"Feature","id":18463,"geometry":{"type":"Point","coordinates":[121.11499185287776,24.507192071215989]},"properties":{"OBJECTID":18463,"LANDMARKID":"1000500000157","LANDMARKCO":"107","LANDMARKNA":"苗栗縣警察局觀霧派出所","LANDMARKAD":"1000518","ADDRESS":"苗栗縣泰安鄉梅園村觀霧1號","TEL":"037-273038","COUNTYNAME":"苗栗縣","TOWNNAME":"泰安鄉","MARKTYPE":"991","Class":"1"}},{"type":"Feature","id":18464,"geometry":{"type":"Point","coordinates":[120.94367139295551,24.467860527332878]},"properties":{"OBJECTID":18464,"LANDMARKID":"1000500000158","LANDMARKCO":"107","LANDMARKNA":"苗栗縣警察局虎山派出所","LANDMARKAD":"1000518","ADDRESS":"苗栗縣泰安鄉錦水村5鄰26號","TEL":"037-941217","COUNTYNAME":"苗栗縣","TOWNNAME":"泰安鄉","MARKTYPE":"991","Class":"1"}},{"type":"Feature","id":18465,"geometry":{"type":"Point","coordinates":[120.93494841888399,24.413592364460481]},"properties":{"OBJECTID":18465,"LANDMARKID":"1000500000159","LANDMARKCO":"107","LANDMARKNA":"苗栗縣警察局新興派出所","LANDMARKAD":"1000518","ADDRESS":"苗栗縣泰安鄉中興村6鄰35號","TEL":"037-992351","COUNTYNAME":"苗栗縣","TOWNNAME":"泰安鄉","MARKTYPE":"991","Class":"1"}},{"type":"Feature","id":18466,"geometry":{"type":"Point","coordinates":[120.91098919987348,24.424415945795566]},"properties":{"OBJECTID":18466,"LANDMARKID":"1000500000160","LANDMARKCO":"107","LANDMARKNA":"苗栗縣警察局大興派出所","LANDMARKAD":"1000518","ADDRESS":"苗栗縣泰安鄉大興村24號","TEL":"037-992349","COUNTYNAME":"苗栗縣","TOWNNAME":"泰安鄉","MARKTYPE":"991","Class":"1"}},{"type":"Feature","id":18467,"geometry":{"type":"Point","coordinates":[120.92427038474561,24.4941267306044]},"properties":{"OBJECTID":18467,"LANDMARKID":"1000500000161","LANDMARKCO":"107","LANDMARKNA":"苗栗縣警察局八卦派出所","LANDMARKAD":"1000518","ADDRESS":"苗栗縣泰安鄉八卦村5鄰25號","TEL":"037-941137","COUNTYNAME":"苗栗縣","TOWNNAME":"泰安鄉","MARKTYPE":"991","Class":"1"}},{"type":"Feature","id":18468,"geometry":{"type":"Point","coordinates":[120.91573485140613,24.467215783301]},"properties":{"OBJECTID":18468,"LANDMARKID":"1000500000162","LANDMARKCO":"107","LANDMARKNA":"苗栗縣警察局泰安分駐所","LANDMARKAD":"1000518","ADDRESS":"苗栗縣泰安鄉清安村1鄰19號","TEL":"037-941057","COUNTYNAME":"苗栗縣","TOWNNAME":"泰安鄉","MARKTYPE":"991","Class":"1"}},{"type":"Feature","id":18469,"geometry":{"type":"Point","coordinates":[120.98068465730161,24.401686016977486]},"properties":{"OBJECTID":18469,"LANDMARKID":"1000500000163","LANDMARKCO":"107","LANDMARKNA":"苗栗縣警察局松安派出所","LANDMARKAD":"1000518","ADDRESS":"苗栗縣泰安鄉梅園村32號","TEL":"037-962132","COUNTYNAME":"苗栗縣","TOWNNAME":"泰安鄉","MARKTYPE":"991","Class":"1"}},{"type":"Feature","id":18470,"geometry":{"type":"Point","coordinates":[120.97082258005003,24.369902188292052]},"properties":{"OBJECTID":18470,"LANDMARKID":"1000500000164","LANDMARKCO":"107","LANDMARKNA":"苗栗縣警察局永安派出所","LANDMARKAD":"1000518","ADDRESS":"苗栗縣泰安鄉象鼻村大安40號","TEL":"037-962242","COUNTYNAME":"苗栗縣","TOWNNAME":"泰安鄉","MARKTYPE":"991","Class":"1"}},{"type":"Feature","id":18471,"geometry":{"type":"Point","coordinates":[120.97053320300664,24.469944282844761]},"properties":{"OBJECTID":18471,"LANDMARKID":"1000500000165","LANDMARKCO":"107","LANDMARKNA":"苗栗縣警察局龍山派出所","LANDMARKAD":"1000518","ADDRESS":"苗栗縣泰安鄉錦水村10鄰橫龍山52號","TEL":"037-941136","COUNTYNAME":"苗栗縣","TOWNNAME":"泰安鄉","MARKTYPE":"991","Class":"1"}},{"type":"Feature","id":18472,"geometry":{"type":"Point","coordinates":[120.97591634766097,24.380467046470407]},"properties":{"OBJECTID":18472,"LANDMARKID":"1000500000166","LANDMARKCO":"107","LANDMARKNA":"苗栗縣警察局大安派出所","LANDMARKAD":"1000518","ADDRESS":"苗栗縣泰安鄉象鼻村23號","TEL":"037-962241","COUNTYNAME":"苗栗縣","TOWNNAME":"泰安鄉","MARKTYPE":"991","Class":"1"}},{"type":"Feature","id":18473,"geometry":{"type":"Point","coordinates":[120.9704027352378,24.393558334135083]},"properties":{"OBJECTID":18473,"LANDMARKID":"1000500000167","LANDMARKCO":"107","LANDMARKNA":"苗栗縣警察局梅園派出所","LANDMARKAD":"1000518","ADDRESS":"苗栗縣泰安鄉梅園村6鄰天狗32號","TEL":"037-962131","COUNTYNAME":"苗栗縣","TOWNNAME":"泰安鄉","MARKTYPE":"991","Class":"1"}},{"type":"Feature","id":18474,"geometry":{"type":"Point","coordinates":[120.95941758800112,24.370170460821601]},"properties":{"OBJECTID":18474,"LANDMARKID":"1000500000168","LANDMARKCO":"107","LANDMARKNA":"苗栗縣警察局象鼻派出所","LANDMARKAD":"1000518","ADDRESS":"苗栗縣泰安鄉象鼻村1鄰象鼻12號","TEL":"037-962243","COUNTYNAME":"苗栗縣","TOWNNAME":"泰安鄉","MARKTYPE":"991","Class":"1"}},{"type":"Feature","id":18475,"geometry":{"type":"Point","coordinates":[120.92140149255208,24.39724360520535]},"properties":{"OBJECTID":18475,"LANDMARKID":"1000500000169","LANDMARKCO":"107","LANDMARKNA":"苗栗縣警察局中興派出所","LANDMARKAD":"1000518","ADDRESS":"苗栗縣泰安鄉中興村9號","TEL":"037-992350","COUNTYNAME":"苗栗縣","TOWNNAME":"泰安鄉","MARKTYPE":"991","Class":"1"}},{"type":"Feature","id":18476,"geometry":{"type":"Point","coordinates":[120.90618910431695,24.447165070886943]},"properties":{"OBJECTID":18476,"LANDMARKID":"1000500000024","LANDMARKCO":"103","LANDMARKNA":"苗栗縣泰安鄉衛生所","LANDMARKAD":"1000518","ADDRESS":"苗栗縣泰安鄉清安村72號","TEL":"037-941054","COUNTYNAME":"苗栗縣","TOWNNAME":"泰安鄉","MARKTYPE":"991","Class":"1"}},{"type":"Feature","id":18477,"geometry":{"type":"Point","coordinates":[120.90648513943903,24.447075148017991]},"properties":{"OBJECTID":18477,"LANDMARKID":"1000500000195","LANDMARKCO":"108","LANDMARKNA":"苗栗縣泰安鄉公所","LANDMARKAD":"1000518","ADDRESS":"苗栗縣泰安鄉清安村洗水坑69號","TEL":"037-941025","COUNTYNAME":"苗栗縣","TOWNNAME":"泰安鄉","MARKTYPE":"991","Class":"1"}},{"type":"Feature","id":18478,"geometry":{"type":"Point","coordinates":[120.90651472995592,24.447075184370224]},"properties":{"OBJECTID":18478,"LANDMARKID":"1000500000025","LANDMARKCO":"103","LANDMARKNA":"苗栗縣泰安鄉民代表會","LANDMARKAD":"1000518","ADDRESS":"苗栗縣泰安鄉清安村69號2樓","TEL":"037-941056","COUNTYNAME":"苗栗縣","TOWNNAME":"泰安鄉","MARKTYPE":"991","Class":"1"}},{"type":"Feature","id":18479,"geometry":{"type":"Point","coordinates":[120.90656280020609,24.446978804692716]},"properties":{"OBJECTID":18479,"LANDMARKID":"1000500000407","LANDMARKCO":"204","LANDMARKNA":"苗栗縣立圖書館泰安分館","LANDMARKAD":"1000518","ADDRESS":"苗栗縣泰安鄉清安村2鄰69號","TEL":" ","COUNTYNAME":"苗栗縣","TOWNNAME":"泰安鄉","MARKTYPE":"992","Class":"2"}},{"type":"Feature","id":18480,"geometry":{"type":"Point","coordinates":[120.94668633970325,24.359422347875221]},"properties":{"OBJECTID":18480,"LANDMARKID":"1000500000274","LANDMARKCO":"203","LANDMARKNA":"縣立象鼻國小","LANDMARKAD":"1000518","ADDRESS":"苗栗縣泰安鄉象鼻村1鄰4號","TEL":"037-962270","COUNTYNAME":"苗栗縣","TOWNNAME":"泰安鄉","MARKTYPE":"992","Class":"2"}},{"type":"Feature","id":18481,"geometry":{"type":"Point","coordinates":[120.97123189715705,24.388592640827419]},"properties":{"OBJECTID":18481,"LANDMARKID":"1000500000275","LANDMARKCO":"203","LANDMARKNA":"縣立梅園國小","LANDMARKAD":"1000518","ADDRESS":"苗栗縣泰安鄉梅園村3鄰38號","TEL":"037-962146","COUNTYNAME":"苗栗縣","TOWNNAME":"泰安鄉","MARKTYPE":"992","Class":"2"}},{"type":"Feature","id":18482,"geometry":{"type":"Point","coordinates":[120.90882102937115,24.422065806820189]},"properties":{"OBJECTID":18482,"LANDMARKID":"1000500000276","LANDMARKCO":"203","LANDMARKNA":"縣立泰安國(中)小","LANDMARKAD":"1000518","ADDRESS":"苗栗縣泰安鄉大興村32之1號","TEL":"037-991224","COUNTYNAME":"苗栗縣","TOWNNAME":"泰安鄉","MARKTYPE":"992","Class":"2"}},{"type":"Feature","id":18483,"geometry":{"type":"Point","coordinates":[120.94015036032722,24.4656919533824]},"properties":{"OBJECTID":18483,"LANDMARKID":"1000500000277","LANDMARKCO":"203","LANDMARKNA":"縣立汶水國小","LANDMARKAD":"1000518","ADDRESS":"苗栗縣泰安鄉錦水村4鄰12號","TEL":"037-941037","COUNTYNAME":"苗栗縣","TOWNNAME":"泰安鄉","MARKTYPE":"992","Class":"2"}},{"type":"Feature","id":18484,"geometry":{"type":"Point","coordinates":[120.92104819748866,24.394534506179792]},"properties":{"OBJECTID":18484,"LANDMARKID":"1000500000278","LANDMARKCO":"203","LANDMARKNA":"縣立泰興國小","LANDMARKAD":"1000518","ADDRESS":"苗栗縣泰安鄉長橋2號","TEL":"037-992852","COUNTYNAME":"苗栗縣","TOWNNAME":"泰安鄉","MARKTYPE":"992","Class":"2"}},{"type":"Feature","id":18485,"geometry":{"type":"Point","coordinates":[120.92618739392289,24.439953105238256]},"properties":{"OBJECTID":18485,"LANDMARKID":"1000500000279","LANDMARKCO":"203","LANDMARKNA":"縣立清安國小","LANDMARKAD":"1000518","ADDRESS":"苗栗縣泰安鄉清安村6鄰洗水坑122號","TEL":"037-941027","COUNTYNAME":"苗栗縣","TOWNNAME":"泰安鄉","MARKTYPE":"992","Class":"2"}},{"type":"Feature","id":18486,"geometry":{"type":"Point","coordinates":[120.93280860141375,24.489706542822397]},"properties":{"OBJECTID":18486,"LANDMARKID":"1000500000280","LANDMARKCO":"203","LANDMARKNA":"縣立汶水國小八卦分班","LANDMARKAD":"1000518","ADDRESS":"苗栗縣泰安鄉八卦村3鄰八卦力50號","TEL":"037-941157","COUNTYNAME":"苗栗縣","TOWNNAME":"泰安鄉","MARKTYPE":"992","Class":"2"}},{"type":"Feature","id":18487,"geometry":{"type":"Point","coordinates":[120.90719627916246,24.44779834627726]},"properties":{"OBJECTID":18487,"LANDMARKID":"1000500000281","LANDMARKCO":"203","LANDMARKNA":"縣立清水國小(廢)","LANDMARKAD":"1000518","ADDRESS":"苗栗縣泰安鄉","TEL":" ","COUNTYNAME":"苗栗縣","TOWNNAME":"泰安鄉","MARKTYPE":"992","Class":"2"}},{"type":"Feature","id":18488,"geometry":{"type":"Point","coordinates":[120.9129845376501,24.420624399934656]},"properties":{"OBJECTID":18488,"LANDMARKID":"1000500000282","LANDMARKCO":"203","LANDMARKNA":"縣立泰安國中","LANDMARKAD":"1000518","ADDRESS":"苗栗縣泰安鄉大興村32之1號","TEL":"037-991224","COUNTYNAME":"苗栗縣","TOWNNAME":"泰安鄉","MARKTYPE":"992","Class":"2"}},{"type":"Feature","id":18489,"geometry":{"type":"Point","coordinates":[120.97725949196111,24.471361267139205]},"properties":{"OBJECTID":18489,"LANDMARKID":"1000500000473","LANDMARKCO":"303","LANDMARKNA":"步道入口停車場","LANDMARKAD":"1000518","ADDRESS":"苗栗縣泰安鄉","TEL":" ","COUNTYNAME":"苗栗縣","TOWNNAME":"泰安鄉","MARKTYPE":"993","Class":"303"}},{"type":"Feature","id":18490,"geometry":{"type":"Point","coordinates":[121.11477357069926,24.504945948016626]},"properties":{"OBJECTID":18490,"LANDMARKID":"1000500000474","LANDMARKCO":"303","LANDMARKNA":"觀霧森林遊樂區停車場","LANDMARKAD":"1000518","ADDRESS":"苗栗縣泰安鄉","TEL":" ","COUNTYNAME":"苗栗縣","TOWNNAME":"泰安鄉","MARKTYPE":"993","Class":"303"}},{"type":"Feature","id":18491,"geometry":{"type":"Point","coordinates":[120.93128994371298,24.349180409233654]},"properties":{"OBJECTID":18491,"LANDMARKID":"1000500000921","LANDMARKCO":"604","LANDMARKNA":"達拉灣民宿","LANDMARKAD":"1000518","ADDRESS":"苗栗縣泰安鄉士林村5鄰馬那邦32-1號","TEL":"037-962349","COUNTYNAME":"苗栗縣","TOWNNAME":"泰安鄉","MARKTYPE":"996","Class":"6"}},{"type":"Feature","id":18492,"geometry":{"type":"Point","coordinates":[120.93152953103254,24.345315517553011]},"properties":{"OBJECTID":18492,"LANDMARKID":"1000500000922","LANDMARKCO":"604","LANDMARKNA":"比浩民宿","LANDMARKAD":"1000518","ADDRESS":"苗栗縣泰安鄉士林村6鄰馬那邦42-2號","TEL":"037-962036","COUNTYNAME":"苗栗縣","TOWNNAME":"泰安鄉","MARKTYPE":"996","Class":"6"}},{"type":"Feature","id":18493,"geometry":{"type":"Point","coordinates":[120.91505688785215,24.433501735226027]},"properties":{"OBJECTID":18493,"LANDMARKID":"1000500000923","LANDMARKCO":"604","LANDMARKNA":"天然居","LANDMARKAD":"1000518","ADDRESS":"苗栗縣泰安鄉清安村3鄰小南角20號","TEL":"037-941609","COUNTYNAME":"苗栗縣","TOWNNAME":"泰安鄉","MARKTYPE":"996","Class":"6"}},{"type":"Feature","id":18494,"geometry":{"type":"Point","coordinates":[120.91923323565,24.442866467603793]},"properties":{"OBJECTID":18494,"LANDMARKID":"1000500000924","LANDMARKCO":"604","LANDMARKNA":"楚留香民宿","LANDMARKAD":"1000518","ADDRESS":"苗栗縣泰安鄉清安村洗水坑114號","TEL":"037-941730","COUNTYNAME":"苗栗縣","TOWNNAME":"泰安鄉","MARKTYPE":"996","Class":"6"}},{"type":"Feature","id":18495,"geometry":{"type":"Point","coordinates":[120.96613790987853,24.469782595737612]},"properties":{"OBJECTID":18495,"LANDMARKID":"1000500000925","LANDMARKCO":"604","LANDMARKNA":"泰安民宿","LANDMARKAD":"1000518","ADDRESS":"苗栗縣泰安鄉錦水村10鄰59-1號","TEL":"037-941438","COUNTYNAME":"苗栗縣","TOWNNAME":"泰安鄉","MARKTYPE":"996","Class":"6"}},{"type":"Feature","id":18496,"geometry":{"type":"Point","coordinates":[120.94170899127074,24.472242091013207]},"properties":{"OBJECTID":18496,"LANDMARKID":"1000500000926","LANDMARKCO":"604","LANDMARKNA":"馬力十族","LANDMARKAD":"1000518","ADDRESS":"苗栗縣泰安鄉錦水村12鄰92號","TEL":"037-941110","COUNTYNAME":"苗栗縣","TOWNNAME":"泰安鄉","MARKTYPE":"996","Class":"6"}},{"type":"Feature","id":18497,"geometry":{"type":"Point","coordinates":[120.93883038069274,24.465171199741544]},"properties":{"OBJECTID":18497,"LANDMARKID":"1000500000927","LANDMARKCO":"604","LANDMARKNA":"泰雅風情","LANDMARKAD":"1000518","ADDRESS":"苗栗縣泰安鄉錦水村4鄰圓墩5號","TEL":"037-941128","COUNTYNAME":"苗栗縣","TOWNNAME":"泰安鄉","MARKTYPE":"996","Class":"6"}},{"type":"Feature","id":18498,"geometry":{"type":"Point","coordinates":[120.94560135237441,24.465396495419288]},"properties":{"OBJECTID":18498,"LANDMARKID":"1000500000928","LANDMARKCO":"604","LANDMARKNA":"雅筑居民宿","LANDMARKAD":"1000518","ADDRESS":"苗栗縣泰安鄉錦水村7鄰圓墩63-3號","TEL":"037-941582","COUNTYNAME":"苗栗縣","TOWNNAME":"泰安鄉","MARKTYPE":"996","Class":"6"}},{"type":"Feature","id":18499,"geometry":{"type":"Point","coordinates":[120.94738571548605,24.467351132183289]},"properties":{"OBJECTID":18499,"LANDMARKID":"1000500000929","LANDMARKCO":"604","LANDMARKNA":"友泰民宿溫泉館","LANDMARKAD":"1000518","ADDRESS":"苗栗縣泰安鄉錦水村圓墩46-2號","TEL":"037-941868","COUNTYNAME":"苗栗縣","TOWNNAME":"泰安鄉","MARKTYPE":"996","Class":"6"}},{"type":"Feature","id":18500,"geometry":{"type":"Point","coordinates":[120.96620551076498,24.46643316419981]},"properties":{"OBJECTID":18500,"LANDMARKID":"1000500000820","LANDMARKCO":"508","LANDMARKNA":"騰龍溫泉山莊","LANDMARKAD":"1000518","ADDRESS":"苗栗縣泰安鄉錦水村橫龍山5號","TEL":"037-941002","COUNTYNAME":"苗栗縣","TOWNNAME":"泰安鄉","MARKTYPE":"995","Class":"5"}},{"type":"Feature","id":18501,"geometry":{"type":"Point","coordinates":[120.96744018313426,24.468353103927182]},"properties":{"OBJECTID":18501,"LANDMARKID":"1000500000821","LANDMARKCO":"508","LANDMARKNA":"錦水溫泉飯店","LANDMARKAD":"1000518","ADDRESS":"苗栗縣泰安鄉錦水村72號","TEL":"037-941333","COUNTYNAME":"苗栗縣","TOWNNAME":"泰安鄉","MARKTYPE":"995","Class":"5"}},{"type":"Feature","id":18502,"geometry":{"type":"Point","coordinates":[120.940284365078,24.46801265178328]},"properties":{"OBJECTID":18502,"LANDMARKID":"1000500000822","LANDMARKCO":"508","LANDMARKNA":"虎山溫泉","LANDMARKAD":"1000518","ADDRESS":"苗栗縣泰安鄉","TEL":" ","COUNTYNAME":"苗栗縣","TOWNNAME":"泰安鄉","MARKTYPE":"995","Class":"5"}},{"type":"Feature","id":18503,"geometry":{"type":"Point","coordinates":[120.94049820117699,24.46836673599676]},"properties":{"OBJECTID":18503,"LANDMARKID":"1000500000823","LANDMARKCO":"508","LANDMARKNA":"虎山溫泉大飯店","LANDMARKAD":"1000518","ADDRESS":"苗栗縣泰安鄉錦水村圓墩73之1號","TEL":"037-941001","COUNTYNAME":"苗栗縣","TOWNNAME":"泰安鄉","MARKTYPE":"995","Class":"5"}},{"type":"Feature","id":18504,"geometry":{"type":"Point","coordinates":[120.94740200513654,24.467346491518565]},"properties":{"OBJECTID":18504,"LANDMARKID":"1000500000824","LANDMARKCO":"508","LANDMARKNA":"友泰民宿溫泉館","LANDMARKAD":"1000518","ADDRESS":"苗栗縣泰安鄉錦水村6鄰圓敦46之2號","TEL":"037-941868","COUNTYNAME":"苗栗縣","TOWNNAME":"泰安鄉","MARKTYPE":"995","Class":"5"}},{"type":"Feature","id":18505,"geometry":{"type":"Point","coordinates":[120.95460935748751,24.467167522382876]},"properties":{"OBJECTID":18505,"LANDMARKID":"1000500000825","LANDMARKCO":"508","LANDMARKNA":"泰安川上溫泉(砂浴)","LANDMARKAD":"1000518","ADDRESS":"苗栗縣泰安鄉錦水村橫龍山68之2號","TEL":"037-941928","COUNTYNAME":"苗栗縣","TOWNNAME":"泰安鄉","MARKTYPE":"995","Class":"5"}},{"type":"Feature","id":18506,"geometry":{"type":"Point","coordinates":[120.96916391466296,24.46979562403676]},"properties":{"OBJECTID":18506,"LANDMARKID":"1000500000826","LANDMARKCO":"508","LANDMARKNA":"泰安湯悅溫泉會館","LANDMARKAD":"1000518","ADDRESS":"苗栗縣泰安鄉錦水村橫龍山45號","TEL":"037-941941","COUNTYNAME":"苗栗縣","TOWNNAME":"泰安鄉","MARKTYPE":"995","Class":"5"}},{"type":"Feature","id":18507,"geometry":{"type":"Point","coordinates":[120.97130478257482,24.469942297757356]},"properties":{"OBJECTID":18507,"LANDMARKID":"1000500000827","LANDMARKCO":"508","LANDMARKNA":"竹美山閣溫泉會館","LANDMARKAD":"1000518","ADDRESS":"苗栗縣泰安鄉錦水村橫龍山35之1號","TEL":"037-941889","COUNTYNAME":"苗栗縣","TOWNNAME":"泰安鄉","MARKTYPE":"995","Class":"5"}},{"type":"Feature","id":18508,"geometry":{"type":"Point","coordinates":[120.97150908882294,24.469737740616115]},"properties":{"OBJECTID":18508,"LANDMARKID":"1000500000828","LANDMARKCO":"508","LANDMARKNA":"日出溫泉渡假飯店","LANDMARKAD":"1000518","ADDRESS":"苗栗縣泰安鄉錦水村橫龍山34號","TEL":"037-941988","COUNTYNAME":"苗栗縣","TOWNNAME":"泰安鄉","MARKTYPE":"995","Class":"5"}},{"type":"Feature","id":18509,"geometry":{"type":"Point","coordinates":[120.99988354486392,24.470040245570839]},"properties":{"OBJECTID":18509,"LANDMARKID":"1000500000786","LANDMARKCO":"503","LANDMARKNA":"水雲瀑布","LANDMARKAD":"1000518","ADDRESS":"苗栗縣南庄鄉","TEL":" ","COUNTYNAME":"苗栗縣","TOWNNAME":"泰安鄉","MARKTYPE":"995","Class":"5"}},{"type":"Feature","id":18510,"geometry":{"type":"Point","coordinates":[120.97677643692796,24.470738998552942]},"properties":{"OBJECTID":18510,"LANDMARKID":"1000500000787","LANDMARKCO":"503","LANDMARKNA":"泰安溫泉風景區","LANDMARKAD":"1000518","ADDRESS":"苗栗縣泰安鄉錦水村","TEL":" ","COUNTYNAME":"苗栗縣","TOWNNAME":"泰安鄉","MARKTYPE":"995","Class":"5"}},{"type":"Feature","id":18511,"geometry":{"type":"Point","coordinates":[121.24041701148934,24.414727106732975]},"properties":{"OBJECTID":18511,"LANDMARKID":"1000500000834","LANDMARKCO":"513","LANDMARKNA":"雪山北峰","LANDMARKAD":"1000518","ADDRESS":"苗栗縣泰安鄉","TEL":" ","COUNTYNAME":"苗栗縣","TOWNNAME":"泰安鄉","MARKTYPE":"995","Class":"5"}},{"type":"Feature","id":18512,"geometry":{"type":"Point","coordinates":[121.12119631086578,24.330754034716261]},"properties":{"OBJECTID":18512,"LANDMARKID":"1000500000835","LANDMARKCO":"513","LANDMARKNA":"大雪山","LANDMARKAD":"1000518","ADDRESS":"苗栗縣泰安鄉","TEL":" ","COUNTYNAME":"苗栗縣","TOWNNAME":"泰安鄉","MARKTYPE":"995","Class":"5"}},{"type":"Feature","id":18513,"geometry":{"type":"Point","coordinates":[121.25206361035298,24.455573222341371]},"properties":{"OBJECTID":18513,"LANDMARKID":"1000500000836","LANDMARKCO":"513","LANDMARKNA":"小霸尖山","LANDMARKAD":"1000518","ADDRESS":"苗栗縣泰安鄉","TEL":" ","COUNTYNAME":"苗栗縣","TOWNNAME":"泰安鄉","MARKTYPE":"995","Class":"5"}},{"type":"Feature","id":18514,"geometry":{"type":"Point","coordinates":[121.17507342888297,24.381925801849725]},"properties":{"OBJECTID":18514,"LANDMARKID":"1000500000837","LANDMARKCO":"513","LANDMARKNA":"火石山","LANDMARKAD":"1000518","ADDRESS":"苗栗縣泰安鄉","TEL":" ","COUNTYNAME":"苗栗縣","TOWNNAME":"泰安鄉","MARKTYPE":"995","Class":"5"}},{"type":"Feature","id":18515,"geometry":{"type":"Point","coordinates":[121.24361925327355,24.469988911496994]},"properties":{"OBJECTID":18515,"LANDMARKID":"1000500000838","LANDMARKCO":"513","LANDMARKNA":"伊澤山","LANDMARKAD":"1000518","ADDRESS":"苗栗縣泰安鄉","TEL":" ","COUNTYNAME":"苗栗縣","TOWNNAME":"泰安鄉","MARKTYPE":"995","Class":"5"}},{"type":"Feature","id":18516,"geometry":{"type":"Point","coordinates":[121.0780673463229,24.336481318457842]},"properties":{"OBJECTID":18516,"LANDMARKID":"1000500000839","LANDMARKCO":"513","LANDMARKNA":"中雪山","LANDMARKAD":"1000518","ADDRESS":"苗栗縣泰安鄉","TEL":" ","COUNTYNAME":"苗栗縣","TOWNNAME":"泰安鄉","MARKTYPE":"995","Class":"5"}},{"type":"Feature","id":18517,"geometry":{"type":"Point","coordinates":[121.21621663595717,24.459502533147393]},"properties":{"OBJECTID":18517,"LANDMARKID":"1000500000840","LANDMARKCO":"513","LANDMARKNA":"加利山","LANDMARKAD":"1000518","ADDRESS":"苗栗縣泰安鄉","TEL":" ","COUNTYNAME":"苗栗縣","TOWNNAME":"泰安鄉","MARKTYPE":"995","Class":"5"}},{"type":"Feature","id":18518,"geometry":{"type":"Point","coordinates":[120.91422658706401,24.368762230674744]},"properties":{"OBJECTID":18518,"LANDMARKID":"1000500000841","LANDMARKCO":"513","LANDMARKNA":"馬那邦山","LANDMARKAD":"1000518","ADDRESS":"苗栗縣泰安鄉","TEL":" ","COUNTYNAME":"苗栗縣","TOWNNAME":"泰安鄉","MARKTYPE":"995","Class":"5"}},{"type":"Feature","id":18519,"geometry":{"type":"Point","coordinates":[120.87381054486185,24.44882225045702]},"properties":{"OBJECTID":18519,"LANDMARKID":"1000500000629","LANDMARKCO":"405","LANDMARKNA":"中油加油站-汶水站","LANDMARKAD":"1000508","ADDRESS":"苗栗縣大湖鄉富興村水尾41號","TEL":"03-7990511","COUNTYNAME":"苗栗縣","TOWNNAME":"大湖鄉","MARKTYPE":"994","Class":"4"}},{"type":"Feature","id":18520,"geometry":{"type":"Point","coordinates":[120.86773625324643,24.428248609352323]},"properties":{"OBJECTID":18520,"LANDMARKID":"1000500000630","LANDMARKCO":"405","LANDMARKNA":"中油加油站-大湖站(中油直營)","LANDMARKAD":"1000508","ADDRESS":"苗栗縣大湖鄉富興村2-1號","TEL":"03-7991072","COUNTYNAME":"苗栗縣","TOWNNAME":"大湖鄉","MARKTYPE":"994","Class":"4"}},{"type":"Feature","id":18521,"geometry":{"type":"Point","coordinates":[120.86797733034834,24.422307378025849]},"properties":{"OBJECTID":18521,"LANDMARKID":"1000500000553","LANDMARKCO":"401","LANDMARKNA":"大順醫院","LANDMARKAD":"1000508","ADDRESS":"苗栗縣大湖鄉大湖村中正路48之5號","TEL":"037-997666","COUNTYNAME":"苗栗縣","TOWNNAME":"大湖鄉","MARKTYPE":"994","Class":"4"}},{"type":"Feature","id":18522,"geometry":{"type":"Point","coordinates":[120.84387113775482,24.363092758685074]},"properties":{"OBJECTID":18522,"LANDMARKID":"1000500000809","LANDMARKCO":"506","LANDMARKNA":"石門休閒農場","LANDMARKAD":"1000508","ADDRESS":"苗栗縣大湖鄉栗林村15鄰八份14號","TEL":"037-951305","COUNTYNAME":"苗栗縣","TOWNNAME":"大湖鄉","MARKTYPE":"995","Class":"5"}},{"type":"Feature","id":18523,"geometry":{"type":"Point","coordinates":[120.87221633255811,24.430207769294451]},"properties":{"OBJECTID":18523,"LANDMARKID":"1000500000810","LANDMARKCO":"506","LANDMARKNA":"石門柑橘觀光果園","LANDMARKAD":"1000508","ADDRESS":"苗栗縣大湖鄉栗林村15鄰八份13號","TEL":"037-951629","COUNTYNAME":"苗栗縣","TOWNNAME":"大湖鄉","MARKTYPE":"995","Class":"5"}},{"type":"Feature","id":18524,"geometry":{"type":"Point","coordinates":[120.86786497731003,24.431500227311993]},"properties":{"OBJECTID":18524,"LANDMARKID":"1000500000811","LANDMARKCO":"506","LANDMARKNA":"雲洞山觀光果園","LANDMARKAD":"1000508","ADDRESS":"苗栗縣大湖鄉栗林村9鄰姜麻園13號","TEL":"037-951522","COUNTYNAME":"苗栗縣","TOWNNAME":"大湖鄉","MARKTYPE":"995","Class":"5"}},{"type":"Feature","id":18525,"geometry":{"type":"Point","coordinates":[120.86552988201572,24.42769832035335]},"properties":{"OBJECTID":18525,"LANDMARKID":"1000500000812","LANDMARKCO":"506","LANDMARKNA":"大湖觀光果園","LANDMARKAD":"1000508","ADDRESS":"苗栗縣大湖鄉明湖村中原路16號","TEL":"037-993232","COUNTYNAME":"苗栗縣","TOWNNAME":"大湖鄉","MARKTYPE":"995","Class":"5"}},{"type":"Feature","id":18526,"geometry":{"type":"Point","coordinates":[120.86801896551158,24.422255259768164]},"properties":{"OBJECTID":18526,"LANDMARKID":"1000500000760","LANDMARKCO":"408","LANDMARKNA":"郵局-大湖郵局","LANDMARKAD":"1000508","ADDRESS":"苗栗縣大湖鄉中正路42號","TEL":"(037)991-047","COUNTYNAME":"苗栗縣","TOWNNAME":"大湖鄉","MARKTYPE":"994","Class":"4"}},{"type":"Feature","id":18527,"geometry":{"type":"Point","coordinates":[120.86542690562604,24.42289928191456]},"properties":{"OBJECTID":18527,"LANDMARKID":"1000500000763","LANDMARKCO":"409","LANDMARKNA":"苗栗縣大湖鄉農會","LANDMARKAD":"1000508","ADDRESS":"苗栗縣大湖鄉明湖村中原路16號","TEL":"037-997075","COUNTYNAME":"苗栗縣","TOWNNAME":"大湖鄉","MARKTYPE":"994","Class":"4"}},{"type":"Feature","id":18528,"geometry":{"type":"Point","coordinates":[120.86810391997957,24.428816334112796]},"properties":{"OBJECTID":18528,"LANDMARKID":"1000500000764","LANDMARKCO":"409","LANDMARKNA":"大湖地區農會","LANDMARKAD":"1000508","ADDRESS":"苗栗縣大湖鄉富興村八寮灣2-7號","TEL":"037-99707","COUNTYNAME":"苗栗縣","TOWNNAME":"大湖鄉","MARKTYPE":"994","Class":"4"}},{"type":"Feature","id":18529,"geometry":{"type":"Point","coordinates":[120.86792414834585,24.425557784186882]},"properties":{"OBJECTID":18529,"LANDMARKID":"1000500000016","LANDMARKCO":"101","LANDMARKNA":"林務局新竹林區管理處大湖工作站","LANDMARKAD":"1000508","ADDRESS":"苗栗縣大湖鄉民生路127號","TEL":"03-7991009","COUNTYNAME":"苗栗縣","TOWNNAME":"大湖鄉","MARKTYPE":"991","Class":"1"}},{"type":"Feature","id":18530,"geometry":{"type":"Point","coordinates":[120.86612908584775,24.424293036226871]},"properties":{"OBJECTID":18530,"LANDMARKID":"1000500000072","LANDMARKCO":"106","LANDMARKNA":"苗栗縣大湖鄉戶政事務所","LANDMARKAD":"1000508","ADDRESS":"苗栗縣大湖鄉明湖村13鄰中原路56號","TEL":"037-992114","COUNTYNAME":"苗栗縣","TOWNNAME":"大湖鄉","MARKTYPE":"991","Class":"1"}},{"type":"Feature","id":18531,"geometry":{"type":"Point","coordinates":[120.86626014142648,24.422938906872314]},"properties":{"OBJECTID":18531,"LANDMARKID":"1000500000184","LANDMARKCO":"107","LANDMARKNA":"苗栗縣警察局大湖分局","LANDMARKAD":"1000508","ADDRESS":"苗栗縣大湖鄉明湖村中正路78號","TEL":"037-991006","COUNTYNAME":"苗栗縣","TOWNNAME":"大湖鄉","MARKTYPE":"991","Class":"1"}},{"type":"Feature","id":18532,"geometry":{"type":"Point","coordinates":[120.86626014142648,24.422938906872314]},"properties":{"OBJECTID":18532,"LANDMARKID":"1000500000185","LANDMARKCO":"107","LANDMARKNA":"苗栗縣警察局大湖派出所","LANDMARKAD":"1000508","ADDRESS":"苗栗縣大湖鄉大湖村5鄰中正路78號","TEL":"037-991041","COUNTYNAME":"苗栗縣","TOWNNAME":"大湖鄉","MARKTYPE":"991","Class":"1"}},{"type":"Feature","id":18533,"geometry":{"type":"Point","coordinates":[120.86614385529273,24.402894158900772]},"properties":{"OBJECTID":18533,"LANDMARKID":"1000500000186","LANDMARKCO":"107","LANDMARKNA":"苗栗縣警察局南湖派出所","LANDMARKAD":"1000508","ADDRESS":"苗栗縣大湖鄉南湖村7鄰南昌路132號","TEL":"037-991547","COUNTYNAME":"苗栗縣","TOWNNAME":"大湖鄉","MARKTYPE":"991","Class":"1"}},{"type":"Feature","id":18534,"geometry":{"type":"Point","coordinates":[120.86646741901205,24.422848982576838]},"properties":{"OBJECTID":18534,"LANDMARKID":"1000500000187","LANDMARKCO":"107","LANDMARKNA":"苗栗縣消防局大湖消防分隊","LANDMARKAD":"1000508","ADDRESS":"苗栗縣大湖鄉中正路76號","TEL":"037-991182","COUNTYNAME":"苗栗縣","TOWNNAME":"大湖鄉","MARKTYPE":"991","Class":"1"}},{"type":"Feature","id":18535,"geometry":{"type":"Point","coordinates":[120.86571490171036,24.42429230270421]},"properties":{"OBJECTID":18535,"LANDMARKID":"1000500000020","LANDMARKCO":"103","LANDMARKNA":"苗栗縣大湖鄉衛生所","LANDMARKAD":"1000508","ADDRESS":"苗栗縣大湖鄉明湖村中原路87號","TEL":"037-991034","COUNTYNAME":"苗栗縣","TOWNNAME":"大湖鄉","MARKTYPE":"991","Class":"1"}},{"type":"Feature","id":18536,"geometry":{"type":"Point","coordinates":[120.8660530535367,24.422938541346142]},"properties":{"OBJECTID":18536,"LANDMARKID":"1000500000190","LANDMARKCO":"108","LANDMARKNA":"苗栗縣大湖鄉公所","LANDMARKAD":"1000508","ADDRESS":"苗栗縣大湖鄉明湖村中正路80號","TEL":"037-991111","COUNTYNAME":"苗栗縣","TOWNNAME":"大湖鄉","MARKTYPE":"991","Class":"1"}},{"type":"Feature","id":18537,"geometry":{"type":"Point","coordinates":[120.86606291481834,24.422938558199586]},"properties":{"OBJECTID":18537,"LANDMARKID":"1000500000021","LANDMARKCO":"103","LANDMARKNA":"苗栗縣大湖鄉民代表會","LANDMARKAD":"1000508","ADDRESS":"苗栗縣大湖鄉中正路80號2樓","TEL":"037-991024","COUNTYNAME":"苗栗縣","TOWNNAME":"大湖鄉","MARKTYPE":"991","Class":"1"}},{"type":"Feature","id":18538,"geometry":{"type":"Point","coordinates":[120.84191677118373,24.372441002262146]},"properties":{"OBJECTID":18538,"LANDMARKID":"1000500000188","LANDMARKCO":"107","LANDMARKNA":"苗栗縣警察局校林派出所","LANDMARKAD":"1000508","ADDRESS":"苗栗縣大湖鄉栗林村5鄰4份62之1號","TEL":"037-951337","COUNTYNAME":"苗栗縣","TOWNNAME":"大湖鄉","MARKTYPE":"991","Class":"1"}},{"type":"Feature","id":18539,"geometry":{"type":"Point","coordinates":[120.86954420046895,24.431788221388302]},"properties":{"OBJECTID":18539,"LANDMARKID":"1000500000189","LANDMARKCO":"107","LANDMARKNA":"國家公園警察大隊雪霸國家公園","LANDMARKAD":"1000508","ADDRESS":"苗栗縣大湖鄉富興村水尾坪99號","TEL":"037-996280","COUNTYNAME":"苗栗縣","TOWNNAME":"大湖鄉","MARKTYPE":"991","Class":"1"}},{"type":"Feature","id":18540,"geometry":{"type":"Point","coordinates":[120.86620931105539,24.423661143431985]},"properties":{"OBJECTID":18540,"LANDMARKID":"1000500000071","LANDMARKCO":"105","LANDMARKNA":"苗栗縣大湖地政事務所","LANDMARKAD":"1000508","ADDRESS":"苗栗縣大湖鄉明湖村博愛路35號","TEL":"037-994101","COUNTYNAME":"苗栗縣","TOWNNAME":"大湖鄉","MARKTYPE":"991","Class":"1"}},{"type":"Feature","id":18541,"geometry":{"type":"Point","coordinates":[120.86950899294044,24.423240079355796]},"properties":{"OBJECTID":18541,"LANDMARKID":"1000500000412","LANDMARKCO":"204","LANDMARKNA":"苗栗縣立圖書館大湖分館","LANDMARKAD":"1000508","ADDRESS":"苗栗縣大湖鄉大湖村民族路40之2號","TEL":" ","COUNTYNAME":"苗栗縣","TOWNNAME":"大湖鄉","MARKTYPE":"992","Class":"2"}},{"type":"Feature","id":18542,"geometry":{"type":"Point","coordinates":[120.87039215737482,24.421496554314508]},"properties":{"OBJECTID":18542,"LANDMARKID":"1000500000240","LANDMARKCO":"203","LANDMARKNA":"縣立大湖國小","LANDMARKAD":"1000508","ADDRESS":"苗栗縣大湖鄉中正路育英巷11號","TEL":"037-991008","COUNTYNAME":"苗栗縣","TOWNNAME":"大湖鄉","MARKTYPE":"992","Class":"2"}},{"type":"Feature","id":18543,"geometry":{"type":"Point","coordinates":[120.86630602740965,24.398018737534784]},"properties":{"OBJECTID":18543,"LANDMARKID":"1000500000241","LANDMARKCO":"203","LANDMARKNA":"縣立南湖國小","LANDMARKAD":"1000508","ADDRESS":"苗栗縣大湖鄉義和村南昌路5號","TEL":"037-991462","COUNTYNAME":"苗栗縣","TOWNNAME":"大湖鄉","MARKTYPE":"992","Class":"2"}},{"type":"Feature","id":18568,"geometry":{"type":"Point","coordinates":[120.87439578368098,24.454614286013562]},"properties":{"OBJECTID":18568,"LANDMARKID":"1000500000819","LANDMARKCO":"508","LANDMARKNA":"石壁溫泉山莊","LANDMARKAD":"1000508","ADDRESS":"苗栗縣大湖鄉法雲寺5之3號","TEL":"037-990413","COUNTYNAME":"苗栗縣","TOWNNAME":"大湖鄉","MARKTYPE":"995","Class":"5"}},{"type":"Feature","id":18569,"geometry":{"type":"Point","coordinates":[120.74961196750449,24.377551078464172]},"properties":{"OBJECTID":18569,"LANDMARKID":"1000500000613","LANDMARKCO":"405","LANDMARKNA":"中油加油站-裕源站","LANDMARKAD":"1000513","ADDRESS":"苗栗縣三義鄉西湖村伯公坑56號","TEL":"03--874996","COUNTYNAME":"苗栗縣","TOWNNAME":"三義鄉","MARKTYPE":"994","Class":"4"}},{"type":"Feature","id":18570,"geometry":{"type":"Point","coordinates":[120.76557509481005,24.379950781231926]},"properties":{"OBJECTID":18570,"LANDMARKID":"1000500000614","LANDMARKCO":"405","LANDMARKNA":"中油加油站-車亭站","LANDMARKAD":"1000513","ADDRESS":"苗栗縣三義鄉西湖村下湖5-9號","TEL":"037-875000","COUNTYNAME":"苗栗縣","TOWNNAME":"三義鄉","MARKTYPE":"994","Class":"4"}},{"type":"Feature","id":18571,"geometry":{"type":"Point","coordinates":[120.77023425650309,24.412098053120054]},"properties":{"OBJECTID":18571,"LANDMARKID":"1000500000615","LANDMARKCO":"405","LANDMARKNA":"中油加油站-三義站(中油直營)","LANDMARKAD":"1000513","ADDRESS":"苗栗縣三義鄉廣義村中正路146號","TEL":"03-7872204","COUNTYNAME":"苗栗縣","TOWNNAME":"三義鄉","MARKTYPE":"994","Class":"4"}},{"type":"Feature","id":18572,"geometry":{"type":"Point","coordinates":[120.78213434941534,24.387186916938717]},"properties":{"OBJECTID":18572,"LANDMARKID":"1000500000813","LANDMARKCO":"507","LANDMARKNA":"勝興火車站","LANDMARKAD":"1000513","ADDRESS":"苗栗縣三義鄉勝興村89號","TEL":" ","COUNTYNAME":"苗栗縣","TOWNNAME":"三義鄉","MARKTYPE":"995","Class":"5"}},{"type":"Feature","id":18573,"geometry":{"type":"Point","coordinates":[120.772549275055,24.414293567148839]},"properties":{"OBJECTID":18573,"LANDMARKID":"1000500000758","LANDMARKCO":"408","LANDMARKNA":"郵局-三義郵局","LANDMARKAD":"1000513","ADDRESS":"苗栗縣三義鄉中正路101號","TEL":"(037)872-142","COUNTYNAME":"苗栗縣","TOWNNAME":"三義鄉","MARKTYPE":"994","Class":"4"}},{"type":"Feature","id":18574,"geometry":{"type":"Point","coordinates":[120.77330007445369,24.417427635213972]},"properties":{"OBJECTID":18574,"LANDMARKID":"1000500000765","LANDMARKCO":"409","LANDMARKNA":"苗栗縣三義鄉農會","LANDMARKAD":"1000513","ADDRESS":"苗栗縣三義鄉廣盛村中正路80號","TEL":"037-872001","COUNTYNAME":"苗栗縣","TOWNNAME":"三義鄉","MARKTYPE":"994","Class":"4"}},{"type":"Feature","id":18575,"geometry":{"type":"Point","coordinates":[120.74415564608084,24.367676726336597]},"properties":{"OBJECTID":18575,"LANDMARKID":"1000500000616","LANDMARKCO":"405","LANDMARKNA":"台塑加油站-火炎山站(台塑)","LANDMARKAD":"1000513","ADDRESS":"苗栗縣三義鄉西湖村伯公坑36-2號","TEL":"03-7870633","COUNTYNAME":"苗栗縣","TOWNNAME":"三義鄉","MARKTYPE":"994","Class":"4"}},{"type":"Feature","id":18576,"geometry":{"type":"Point","coordinates":[120.77013887510837,24.412709870579015]},"properties":{"OBJECTID":18576,"LANDMARKID":"1000500000183","LANDMARKCO":"107","LANDMARKNA":"苗栗縣消防局三義消防分隊","LANDMARKAD":"1000513","ADDRESS":"苗栗縣三義鄉復興路69號","TEL":"037-872119","COUNTYNAME":"苗栗縣","TOWNNAME":"三義鄉","MARKTYPE":"991","Class":"1"}},{"type":"Feature","id":18577,"geometry":{"type":"Point","coordinates":[120.77086561970164,24.413524690193583]},"properties":{"OBJECTID":18577,"LANDMARKID":"1000500000018","LANDMARKCO":"103","LANDMARKNA":"苗栗縣三義鄉衛生所","LANDMARKAD":"1000513","ADDRESS":"苗栗縣三義鄉廣盛村復興路45號","TEL":"037-872014","COUNTYNAME":"苗栗縣","TOWNNAME":"三義鄉","MARKTYPE":"991","Class":"1"}},{"type":"Feature","id":18578,"geometry":{"type":"Point","coordinates":[120.77021710516777,24.412890689340056]},"properties":{"OBJECTID":18578,"LANDMARKID":"1000500000191","LANDMARKCO":"108","LANDMARKNA":"苗栗縣三義鄉公所","LANDMARKAD":"1000513","ADDRESS":"苗栗縣三義鄉廣盛村復興路30號","TEL":"037-872801","COUNTYNAME":"苗栗縣","TOWNNAME":"三義鄉","MARKTYPE":"991","Class":"1"}},{"type":"Feature","id":18579,"geometry":{"type":"Point","coordinates":[120.77026608120954,24.412981129017918]},"properties":{"OBJECTID":18579,"LANDMARKID":"1000500000019","LANDMARKCO":"103","LANDMARKNA":"苗栗縣三義鄉民代表會","LANDMARKAD":"1000513","ADDRESS":"苗栗縣三義鄉復興路30號","TEL":"037-872069","COUNTYNAME":"苗栗縣","TOWNNAME":"三義鄉","MARKTYPE":"991","Class":"1"}},{"type":"Feature","id":18580,"geometry":{"type":"Point","coordinates":[120.77322527356418,24.33650946754662]},"properties":{"OBJECTID":18580,"LANDMARKID":"1000500000017","LANDMARKCO":"101","LANDMARKNA":"水利署中區水資源局鯉管中心","LANDMARKAD":"1000513","ADDRESS":"苗栗縣三義鄉鯉魚村三櫃106號","TEL":"037-881250","COUNTYNAME":"苗栗縣","TOWNNAME":"三義鄉","MARKTYPE":"991","Class":"1"}},{"type":"Feature","id":18581,"geometry":{"type":"Point","coordinates":[120.77029598959204,24.412890929136918]},"properties":{"OBJECTID":18581,"LANDMARKID":"1000500000073","LANDMARKCO":"106","LANDMARKNA":"苗栗縣三義鄉戶政事務所","LANDMARKAD":"1000513","ADDRESS":"苗栗縣三義鄉廣盛村7鄰廣盛83號","TEL":"037-872004","COUNTYNAME":"苗栗縣","TOWNNAME":"三義鄉","MARKTYPE":"991","Class":"1"}},{"type":"Feature","id":18582,"geometry":{"type":"Point","coordinates":[120.73676827701549,24.356946315771804]},"properties":{"OBJECTID":18582,"LANDMARKID":"1000500000180","LANDMARKCO":"107","LANDMARKNA":"苗栗縣警察局鯉魚派出所","LANDMARKAD":"1000513","ADDRESS":"苗栗縣三義鄉鯉魚口54之1號","TEL":"037-881040","COUNTYNAME":"苗栗縣","TOWNNAME":"三義鄉","MARKTYPE":"991","Class":"1"}},{"type":"Feature","id":18583,"geometry":{"type":"Point","coordinates":[120.74192098320808,24.367879659425057]},"properties":{"OBJECTID":18583,"LANDMARKID":"1000500000181","LANDMARKCO":"107","LANDMARKNA":"苗栗縣警察局龍騰派出所","LANDMARKAD":"1000513","ADDRESS":"苗栗縣三義鄉西湖村伯公坑41號","TEL":"037-872396","COUNTYNAME":"苗栗縣","TOWNNAME":"三義鄉","MARKTYPE":"991","Class":"1"}},{"type":"Feature","id":18584,"geometry":{"type":"Point","coordinates":[120.76972473371501,24.412708611891958]},"properties":{"OBJECTID":18584,"LANDMARKID":"1000500000182","LANDMARKCO":"107","LANDMARKNA":"苗栗縣警察局三義分駐所","LANDMARKAD":"1000513","ADDRESS":"苗栗縣三義鄉廣盛村90號","TEL":"037-872003","COUNTYNAME":"苗栗縣","TOWNNAME":"三義鄉","MARKTYPE":"991","Class":"1"}},{"type":"Feature","id":18585,"geometry":{"type":"Point","coordinates":[120.76111471581029,24.405965678959269]},"properties":{"OBJECTID":18585,"LANDMARKID":"1000500000413","LANDMARKCO":"205","LANDMARKNA":"三義木雕博物館","LANDMARKAD":"1000513","ADDRESS":"苗栗縣三義鄉廣盛村廣聲新城88號","TEL":"(037)876-009","COUNTYNAME":"苗栗縣","TOWNNAME":"三義鄉","MARKTYPE":"992","Class":"2"}},{"type":"Feature","id":18586,"geometry":{"type":"Point","coordinates":[120.76017267176576,24.397085080655987]},"properties":{"OBJECTID":18586,"LANDMARKID":"1000500000414","LANDMARKCO":"205","LANDMARKNA":"台灣藝術博物館","LANDMARKAD":"1000513","ADDRESS":"苗栗縣三義鄉水美路95號","TEL":" ","COUNTYNAME":"苗栗縣","TOWNNAME":"三義鄉","MARKTYPE":"992","Class":"2"}},{"type":"Feature","id":18567,"geometry":{"type":"Point","coordinates":[120.86699282000214,24.423347361809167]},"properties":{"OBJECTID":18567,"LANDMARKID":"1000500000843","LANDMARKCO":"603","LANDMARKNA":"錦興旅社","LANDMARKAD":"1000508","ADDRESS":"苗栗縣大湖鄉大湖村民生路62號之7","TEL":"037-991116","COUNTYNAME":"苗栗縣","TOWNNAME":"大湖鄉","MARKTYPE":"996","Class":"6"}},{"type":"Feature","id":18566,"geometry":{"type":"Point","coordinates":[120.8603305728181,24.387409928666738]},"properties":{"OBJECTID":18566,"LANDMARKID":"1000500000937","LANDMARKCO":"604","LANDMARKNA":"湖畔花時間","LANDMARKAD":"1000508","ADDRESS":"苗栗縣大湖鄉義和村淋漓坪126號","TEL":"037-996795","COUNTYNAME":"苗栗縣","TOWNNAME":"大湖鄉","MARKTYPE":"996","Class":"6"}},{"type":"Feature","id":18565,"geometry":{"type":"Point","coordinates":[120.78139686865006,24.349628288755625]},"properties":{"OBJECTID":18565,"LANDMARKID":"1000500000936","LANDMARKCO":"604","LANDMARKNA":"馨享士宸","LANDMARKAD":"1000508","ADDRESS":"苗栗縣大湖鄉新開村十份11-1號","TEL":"037-951177","COUNTYNAME":"苗栗縣","TOWNNAME":"大湖鄉","MARKTYPE":"996","Class":"6"}},{"type":"Feature","id":18564,"geometry":{"type":"Point","coordinates":[120.82429526776069,24.387364492963943]},"properties":{"OBJECTID":18564,"LANDMARKID":"1000500000935","LANDMARKCO":"604","LANDMARKNA":"菊園","LANDMARKAD":"1000508","ADDRESS":"苗栗縣大湖鄉栗林村薑麻園13號","TEL":"037-951522","COUNTYNAME":"苗栗縣","TOWNNAME":"大湖鄉","MARKTYPE":"996","Class":"6"}},{"type":"Feature","id":18563,"geometry":{"type":"Point","coordinates":[120.83289841123462,24.377730675901912]},"properties":{"OBJECTID":18563,"LANDMARKID":"1000500000934","LANDMARKCO":"604","LANDMARKNA":"山水居","LANDMARKAD":"1000508","ADDRESS":"苗栗縣大湖鄉栗林村佛陀山路5-3號","TEL":"0928-250191","COUNTYNAME":"苗栗縣","TOWNNAME":"大湖鄉","MARKTYPE":"996","Class":"6"}},{"type":"Feature","id":18562,"geometry":{"type":"Point","coordinates":[120.90016579072946,24.364155183690947]},"properties":{"OBJECTID":18562,"LANDMARKID":"1000500000933","LANDMARKCO":"604","LANDMARKNA":"馬拉邦山莊","LANDMARKAD":"1000508","ADDRESS":"苗栗縣大湖鄉東興村上湖87號","TEL":"037-996869","COUNTYNAME":"苗栗縣","TOWNNAME":"大湖鄉","MARKTYPE":"996","Class":"6"}},{"type":"Feature","id":18561,"geometry":{"type":"Point","coordinates":[120.89189123579325,24.37867723519182]},"properties":{"OBJECTID":18561,"LANDMARKID":"1000500000932","LANDMARKCO":"604","LANDMARKNA":"富錸民宿","LANDMARKAD":"1000508","ADDRESS":"苗栗縣大湖鄉東興村上湖99號","TEL":"037-997966","COUNTYNAME":"苗栗縣","TOWNNAME":"大湖鄉","MARKTYPE":"996","Class":"6"}},{"type":"Feature","id":18560,"geometry":{"type":"Point","coordinates":[120.87482646115784,24.404339249761335]},"properties":{"OBJECTID":18560,"LANDMARKID":"1000500000931","LANDMARKCO":"604","LANDMARKNA":"大窩渡假山莊","LANDMARKAD":"1000508","ADDRESS":"苗栗縣大湖鄉大寮村大窩11號","TEL":"037-996088","COUNTYNAME":"苗栗縣","TOWNNAME":"大湖鄉","MARKTYPE":"996","Class":"6"}},{"type":"Feature","id":18559,"geometry":{"type":"Point","coordinates":[120.86849225289318,24.401686671062716]},"properties":{"OBJECTID":18559,"LANDMARKID":"1000500000930","LANDMARKCO":"604","LANDMARKNA":"儷舍民宿","LANDMARKAD":"1000508","ADDRESS":"苗栗縣大湖鄉南湖村南昌路護安巷58-11號","TEL":"037-996377","COUNTYNAME":"苗栗縣","TOWNNAME":"大湖鄉","MARKTYPE":"996","Class":"6"}},{"type":"Feature","id":18558,"geometry":{"type":"Point","coordinates":[120.86708217137337,24.426942137765632]},"properties":{"OBJECTID":18558,"LANDMARKID":"1000500000466","LANDMARKCO":"303","LANDMARKNA":"大湖鄉雲洞山停車場","LANDMARKAD":"1000508","ADDRESS":"苗栗縣大湖鄉東林村","TEL":" ","COUNTYNAME":"苗栗縣","TOWNNAME":"大湖鄉","MARKTYPE":"993","Class":"303"}},{"type":"Feature","id":18557,"geometry":{"type":"Point","coordinates":[120.89647551279435,24.377402785676203]},"properties":{"OBJECTID":18557,"LANDMARKID":"1000500000465","LANDMARKCO":"303","LANDMARKNA":"第三停車場","LANDMARKAD":"1000508","ADDRESS":"苗栗縣大湖鄉","TEL":" ","COUNTYNAME":"苗栗縣","TOWNNAME":"大湖鄉","MARKTYPE":"993","Class":"303"}},{"type":"Feature","id":18556,"geometry":{"type":"Point","coordinates":[120.89042139089291,24.374330640365802]},"properties":{"OBJECTID":18556,"LANDMARKID":"1000500000464","LANDMARKCO":"303","LANDMARKNA":"第二停車場","LANDMARKAD":"1000508","ADDRESS":"苗栗縣大湖鄉","TEL":" ","COUNTYNAME":"苗栗縣","TOWNNAME":"大湖鄉","MARKTYPE":"993","Class":"303"}},{"type":"Feature","id":18555,"geometry":{"type":"Point","coordinates":[120.87492900624952,24.454661027063263]},"properties":{"OBJECTID":18555,"LANDMARKID":"1000500000463","LANDMARKCO":"303","LANDMARKNA":"雪霸停車場","LANDMARKAD":"1000508","ADDRESS":"苗栗縣大湖鄉","TEL":" ","COUNTYNAME":"苗栗縣","TOWNNAME":"大湖鄉","MARKTYPE":"993","Class":"303"}},{"type":"Feature","id":18554,"geometry":{"type":"Point","coordinates":[120.82509790874676,24.387692325324817]},"properties":{"OBJECTID":18554,"LANDMARKID":"1000500000462","LANDMARKCO":"303","LANDMARKNA":"雲洞山休閒農業區停車場","LANDMARKAD":"1000508","ADDRESS":"苗栗縣大湖鄉","TEL":" ","COUNTYNAME":"苗栗縣","TOWNNAME":"大湖鄉","MARKTYPE":"993","Class":"303"}},{"type":"Feature","id":18553,"geometry":{"type":"Point","coordinates":[120.87074906643387,24.42603926265808]},"properties":{"OBJECTID":18553,"LANDMARKID":"1000500000441","LANDMARKCO":"302","LANDMARKNA":"新竹汽車客運大湖站","LANDMARKAD":"1000508","ADDRESS":"苗栗縣大湖鄉信義路15號之1","TEL":" ","COUNTYNAME":"苗栗縣","TOWNNAME":"大湖鄉","MARKTYPE":"993","Class":"302"}},{"type":"Feature","id":18552,"geometry":{"type":"Point","coordinates":[120.86747383977165,24.382849433374243]},"properties":{"OBJECTID":18552,"LANDMARKID":"1000500000239","LANDMARKCO":"203","LANDMARKNA":"縣立武榮國小","LANDMARKAD":"1000508","ADDRESS":"苗栗縣大湖鄉義和村淋漓坪77號","TEL":"037-992816","COUNTYNAME":"苗栗縣","TOWNNAME":"大湖鄉","MARKTYPE":"992","Class":"2"}},{"type":"Feature","id":18551,"geometry":{"type":"Point","coordinates":[120.87454064427209,24.444164093654358]},"properties":{"OBJECTID":18551,"LANDMARKID":"1000500000238","LANDMARKCO":"203","LANDMARKNA":"縣立華興國小","LANDMARKAD":"1000508","ADDRESS":"苗栗縣大湖鄉富興村水尾2號","TEL":"037-991326","COUNTYNAME":"苗栗縣","TOWNNAME":"大湖鄉","MARKTYPE":"992","Class":"2"}},{"type":"Feature","id":18550,"geometry":{"type":"Point","coordinates":[120.90227269622491,24.410325110011559]},"properties":{"OBJECTID":18550,"LANDMARKID":"1000500000237","LANDMARKCO":"203","LANDMARKNA":"縣立大南國小","LANDMARKAD":"1000508","ADDRESS":"苗栗縣大湖鄉大南村大南勢15號","TEL":"037-992813","COUNTYNAME":"苗栗縣","TOWNNAME":"大湖鄉","MARKTYPE":"992","Class":"2"}},{"type":"Feature","id":18549,"geometry":{"type":"Point","coordinates":[120.88251199867742,24.380605379824704]},"properties":{"OBJECTID":18549,"LANDMARKID":"1000500000236","LANDMARKCO":"203","LANDMARKNA":"縣立東興國小","LANDMARKAD":"1000508","ADDRESS":"苗栗縣大湖鄉東興村下湖37號","TEL":"037-992815","COUNTYNAME":"苗栗縣","TOWNNAME":"大湖鄉","MARKTYPE":"992","Class":"2"}},{"type":"Feature","id":18548,"geometry":{"type":"Point","coordinates":[120.8429681632401,24.373797557443623]},"properties":{"OBJECTID":18548,"LANDMARKID":"1000500000235","LANDMARKCO":"203","LANDMARKNA":"縣立栗林國小","LANDMARKAD":"1000508","ADDRESS":"苗栗縣大湖鄉栗林村四份61號","TEL":"037-951335","COUNTYNAME":"苗栗縣","TOWNNAME":"大湖鄉","MARKTYPE":"992","Class":"2"}},{"type":"Feature","id":18547,"geometry":{"type":"Point","coordinates":[120.82627600898316,24.348046455225958]},"properties":{"OBJECTID":18547,"LANDMARKID":"1000500000234","LANDMARKCO":"203","LANDMARKNA":"縣立新開國小","LANDMARKAD":"1000508","ADDRESS":"苗栗縣大湖鄉新開村25號","TEL":"037-950210","COUNTYNAME":"苗栗縣","TOWNNAME":"大湖鄉","MARKTYPE":"992","Class":"2"}},{"type":"Feature","id":18546,"geometry":{"type":"Point","coordinates":[120.86794344142889,24.397657976551038]},"properties":{"OBJECTID":18546,"LANDMARKID":"1000500000233","LANDMARKCO":"203","LANDMARKNA":"縣立南湖國中","LANDMARKAD":"1000508","ADDRESS":"苗栗縣大湖鄉義和村12號","TEL":"037-992956","COUNTYNAME":"苗栗縣","TOWNNAME":"大湖鄉","MARKTYPE":"992","Class":"2"}},{"type":"Feature","id":18545,"geometry":{"type":"Point","coordinates":[120.87119542640679,24.426915362510744]},"properties":{"OBJECTID":18545,"LANDMARKID":"1000500000232","LANDMARKCO":"203","LANDMARKNA":"縣立大湖國中","LANDMARKAD":"1000508","ADDRESS":"苗栗縣大湖鄉靜湖村80號","TEL":"037-991022","COUNTYNAME":"苗栗縣","TOWNNAME":"大湖鄉","MARKTYPE":"992","Class":"2"}},{"type":"Feature","id":18544,"geometry":{"type":"Point","coordinates":[120.86108602852173,24.420135675171384]},"properties":{"OBJECTID":18544,"LANDMARKID":"1000500000231","LANDMARKCO":"202","LANDMARKNA":"國立大湖農工","LANDMARKAD":"1000508","ADDRESS":"苗栗縣大湖鄉大寮村竹高屋68號","TEL":"037-992216","COUNTYNAME":"苗栗縣","TOWNNAME":"大湖鄉","MARKTYPE":"992","Class":"2"}},{"type":"Feature","id":18587,"geometry":{"type":"Point","coordinates":[120.77352007323509,24.414616855547806]},"properties":{"OBJECTID":18587,"LANDMARKID":"1000500000410","LANDMARKCO":"204","LANDMARKNA":"苗栗縣立圖書館三義分館","LANDMARKAD":"1000513","ADDRESS":"苗栗縣三義鄉新生路9之21號","TEL":" ","COUNTYNAME":"苗栗縣","TOWNNAME":"三義鄉","MARKTYPE":"992","Class":"2"}},{"type":"Feature","id":18588,"geometry":{"type":"Point","coordinates":[120.7655875119864,24.410176344977955]},"properties":{"OBJECTID":18588,"LANDMARKID":"1000500000242","LANDMARKCO":"203","LANDMARKNA":"縣立三義國中","LANDMARKAD":"1000513","ADDRESS":"苗栗縣三義鄉廣盛村122號","TEL":"037-872015","COUNTYNAME":"苗栗縣","TOWNNAME":"三義鄉","MARKTYPE":"992","Class":"2"}},{"type":"Feature","id":18589,"geometry":{"type":"Point","coordinates":[120.76552458718027,24.401688844759633]},"properties":{"OBJECTID":18589,"LANDMARKID":"1000500000243","LANDMARKCO":"203","LANDMARKNA":"縣立僑成國小","LANDMARKAD":"1000513","ADDRESS":"苗栗縣三義鄉勝興村二份220號","TEL":"037-872041","COUNTYNAME":"苗栗縣","TOWNNAME":"三義鄉","MARKTYPE":"992","Class":"2"}},{"type":"Feature","id":18590,"geometry":{"type":"Point","coordinates":[120.76954769844669,24.413972134541016]},"properties":{"OBJECTID":18590,"LANDMARKID":"1000500000244","LANDMARKCO":"203","LANDMARKNA":"縣立建中國小","LANDMARKAD":"1000513","ADDRESS":"苗栗縣三義鄉廣盛村80號","TEL":"037-872007","COUNTYNAME":"苗栗縣","TOWNNAME":"三義鄉","MARKTYPE":"992","Class":"2"}},{"type":"Feature","id":18591,"geometry":{"type":"Point","coordinates":[120.76685150109878,24.34408306240044]},"properties":{"OBJECTID":18591,"LANDMARKID":"1000500000245","LANDMARKCO":"203","LANDMARKNA":"縣立鯉魚國小","LANDMARKAD":"1000513","ADDRESS":"苗栗縣三義鄉鯉魚村上山下24號","TEL":"037-881154","COUNTYNAME":"苗栗縣","TOWNNAME":"三義鄉","MARKTYPE":"992","Class":"2"}},{"type":"Feature","id":18592,"geometry":{"type":"Point","coordinates":[120.75925892654683,24.382807209949021]},"properties":{"OBJECTID":18592,"LANDMARKID":"1000500000246","LANDMARKCO":"203","LANDMARKNA":"縣立育英國小","LANDMARKAD":"1000513","ADDRESS":"苗栗縣三義鄉西湖村上湖63號","TEL":"037-872934","COUNTYNAME":"苗栗縣","TOWNNAME":"三義鄉","MARKTYPE":"992","Class":"2"}},{"type":"Feature","id":18593,"geometry":{"type":"Point","coordinates":[120.77675325480146,24.357463354446388]},"properties":{"OBJECTID":18593,"LANDMARKID":"1000500000247","LANDMARKCO":"203","LANDMARKNA":"縣立育英國小龍騰分校","LANDMARKAD":"1000513","ADDRESS":"苗栗縣三義鄉龍騰村外庄49號","TEL":"037-881153","COUNTYNAME":"苗栗縣","TOWNNAME":"三義鄉","MARKTYPE":"992","Class":"2"}},{"type":"Feature","id":18594,"geometry":{"type":"Point","coordinates":[120.7595416349992,24.394004227298694]},"properties":{"OBJECTID":18594,"LANDMARKID":"1000500000551","LANDMARKCO":"308","LANDMARKNA":"國1-三義交流道-北上","LANDMARKAD":"1000513","ADDRESS":"苗栗縣三義鄉","TEL":" ","COUNTYNAME":"苗栗縣","TOWNNAME":"三義鄉","MARKTYPE":"993","Class":"308"}},{"type":"Feature","id":18595,"geometry":{"type":"Point","coordinates":[120.75674313745479,24.391432728969175]},"properties":{"OBJECTID":18595,"LANDMARKID":"1000500000552","LANDMARKCO":"308","LANDMARKNA":"國1-三義交流道-南下","LANDMARKAD":"1000513","ADDRESS":"苗栗縣三義鄉","TEL":" ","COUNTYNAME":"苗栗縣","TOWNNAME":"三義鄉","MARKTYPE":"993","Class":"308"}},{"type":"Feature","id":18596,"geometry":{"type":"Point","coordinates":[120.77123142203902,24.413844637589232]},"properties":{"OBJECTID":18596,"LANDMARKID":"1000500000467","LANDMARKCO":"303","LANDMARKNA":"三義鄉公有停車場","LANDMARKAD":"1000513","ADDRESS":"苗栗縣三義鄉","TEL":" ","COUNTYNAME":"苗栗縣","TOWNNAME":"三義鄉","MARKTYPE":"993","Class":"303"}},{"type":"Feature","id":18597,"geometry":{"type":"Point","coordinates":[120.77832491769942,24.393951198922029]},"properties":{"OBJECTID":18597,"LANDMARKID":"1000500000468","LANDMARKCO":"303","LANDMARKNA":"勝興村停車場","LANDMARKAD":"1000513","ADDRESS":"苗栗縣三義鄉","TEL":" ","COUNTYNAME":"苗栗縣","TOWNNAME":"三義鄉","MARKTYPE":"993","Class":"303"}},{"type":"Feature","id":18598,"geometry":{"type":"Point","coordinates":[120.8055801845171,24.384143669801968]},"properties":{"OBJECTID":18598,"LANDMARKID":"1000500000469","LANDMARKCO":"303","LANDMARKNA":"雙潭觀光農園停車場","LANDMARKAD":"1000513","ADDRESS":"苗栗縣三義鄉","TEL":" ","COUNTYNAME":"苗栗縣","TOWNNAME":"三義鄉","MARKTYPE":"993","Class":"303"}},{"type":"Feature","id":18599,"geometry":{"type":"Point","coordinates":[120.77034422928018,24.4120372938117]},"properties":{"OBJECTID":18599,"LANDMARKID":"1000500000470","LANDMARKCO":"303","LANDMARKNA":"三義鄉水尾溪坤慶橋下停車場","LANDMARKAD":"1000513","ADDRESS":"苗栗縣三義鄉廣盛村","TEL":" ","COUNTYNAME":"苗栗縣","TOWNNAME":"三義鄉","MARKTYPE":"993","Class":"303"}},{"type":"Feature","id":18600,"geometry":{"type":"Point","coordinates":[120.78185045661746,24.387976449645326]},"properties":{"OBJECTID":18600,"LANDMARKID":"1000500000438","LANDMARKCO":"301","LANDMARKNA":"勝興火車站(閒)","LANDMARKAD":"1000513","ADDRESS":"苗栗縣三義鄉","TEL":" ","COUNTYNAME":"苗栗縣","TOWNNAME":"三義鄉","MARKTYPE":"993","Class":"301"}}]}