{"type":"FeatureCollection","features":[{"type":"Feature","id":13201,"geometry":{"type":"Point","coordinates":[120.56313017872849,24.196864996077508]},"properties":{"OBJECTID":13201,"LANDMARKID":"1000600001110","LANDMARKCO":"406","LANDMARKNA":"五五公園","LANDMARKAD":"1000617","ADDRESS":"台中市龍井區","TEL":" ","COUNTYNAME":"台中市","TOWNNAME":"龍井區","MARKTYPE":"994","Class":"4"}},{"type":"Feature","id":13202,"geometry":{"type":"Point","coordinates":[120.53612816305201,24.195505143615449]},"properties":{"OBJECTID":13202,"LANDMARKID":"1000600001079","LANDMARKCO":"405","LANDMARKNA":"鯨世界加油站-龍井站(台塑)","LANDMARKAD":"1000617","ADDRESS":"台中市龍井區龍津村中華路二段15號","TEL":" ","COUNTYNAME":"台中市","TOWNNAME":"龍井區","MARKTYPE":"994","Class":"4"}},{"type":"Feature","id":13203,"geometry":{"type":"Point","coordinates":[120.58368522539489,24.182792980713351]},"properties":{"OBJECTID":13203,"LANDMARKID":"1000600000143","LANDMARKCO":"107","LANDMARKNA":"台中市消防局梨份分隊","LANDMARKAD":"1000617","ADDRESS":"台中市龍井區新興路104巷12號","TEL":"04-26318251","COUNTYNAME":"台中市","TOWNNAME":"龍井區","MARKTYPE":"991","Class":"1"}},{"type":"Feature","id":13204,"geometry":{"type":"Point","coordinates":[120.530424418067,24.178667288561549]},"properties":{"OBJECTID":13204,"LANDMARKID":"1000600000144","LANDMARKCO":"107","LANDMARKNA":"台中市警察局龍東派出所","LANDMARKAD":"1000617","ADDRESS":"台中市龍井區龍東村茄投路67號","TEL":"04-26397043","COUNTYNAME":"台中市","TOWNNAME":"龍井區","MARKTYPE":"991","Class":"1"}},{"type":"Feature","id":13205,"geometry":{"type":"Point","coordinates":[120.58401091789692,24.182627265551048]},"properties":{"OBJECTID":13205,"LANDMARKID":"1000600000145","LANDMARKCO":"107","LANDMARKNA":"台中市警察局犁份派出所","LANDMARKAD":"1000617","ADDRESS":"台中市龍井區新庄村遊園南路194號","TEL":"04-26312719","COUNTYNAME":"台中市","TOWNNAME":"龍井區","MARKTYPE":"991","Class":"1"}},{"type":"Feature","id":13206,"geometry":{"type":"Point","coordinates":[120.52328785872425,24.20076704019414]},"properties":{"OBJECTID":13206,"LANDMARKID":"1000600000146","LANDMARKCO":"107","LANDMARKNA":"台中市警察局龍津派出所","LANDMARKAD":"1000617","ADDRESS":"台中市龍井區龍津村中央路一段165巷36號","TEL":"04-26396084","COUNTYNAME":"台中市","TOWNNAME":"龍井區","MARKTYPE":"991","Class":"1"}},{"type":"Feature","id":13207,"geometry":{"type":"Point","coordinates":[120.54577942204638,24.192710152937362]},"properties":{"OBJECTID":13207,"LANDMARKID":"1000600000044","LANDMARKCO":"103","LANDMARKNA":"台中市龍井區鄉民代表會","LANDMARKAD":"1000617","ADDRESS":"臺中縣龍井區沙田路四段247號","TEL":"04-26353744","COUNTYNAME":"台中市","TOWNNAME":"龍井區","MARKTYPE":"991","Class":"1"}},{"type":"Feature","id":13208,"geometry":{"type":"Point","coordinates":[120.54566770228917,24.191806560706695]},"properties":{"OBJECTID":13208,"LANDMARKID":"1000600000263","LANDMARKCO":"108","LANDMARKNA":"台中市龍井區公所","LANDMARKAD":"1000617","ADDRESS":"台中市龍井區沙田路四段247號","TEL":"04-26352411","COUNTYNAME":"台中市","TOWNNAME":"龍井區","MARKTYPE":"991","Class":"1"}},{"type":"Feature","id":13209,"geometry":{"type":"Point","coordinates":[120.54565849900111,24.191716213663106]},"properties":{"OBJECTID":13209,"LANDMARKID":"1000600000141","LANDMARKCO":"107","LANDMARKNA":"台中市警察局龍井分駐所","LANDMARKAD":"1000617","ADDRESS":"臺中縣龍井區竹坑村沙田路4段245號","TEL":"04-26353054","COUNTYNAME":"台中市","TOWNNAME":"龍井區","MARKTYPE":"991","Class":"1"}},{"type":"Feature","id":13210,"geometry":{"type":"Point","coordinates":[120.52299090516306,24.194173931581581]},"properties":{"OBJECTID":13210,"LANDMARKID":"1000600000142","LANDMARKCO":"107","LANDMARKNA":"台中市警察局麗水派出所","LANDMARKAD":"1000617","ADDRESS":"臺中縣龍井區福田村臨港東路2段317號","TEL":"04-26395994","COUNTYNAME":"台中市","TOWNNAME":"龍井區","MARKTYPE":"991","Class":"1"}},{"type":"Feature","id":13211,"geometry":{"type":"Point","coordinates":[120.5456578592368,24.19180650247289]},"properties":{"OBJECTID":13211,"LANDMARKID":"1000600000117","LANDMARKCO":"106","LANDMARKNA":"台中市龍井區戶政事務所","LANDMARKAD":"1000617","ADDRESS":"臺中縣龍井區龍泉村沙田路四段257號","TEL":"04-26353644","COUNTYNAME":"台中市","TOWNNAME":"龍井區","MARKTYPE":"991","Class":"1"}},{"type":"Feature","id":13212,"geometry":{"type":"Point","coordinates":[120.54558295558566,24.191264328998702]},"properties":{"OBJECTID":13212,"LANDMARKID":"1000600000140","LANDMARKCO":"107","LANDMARKNA":"台中市消防局龍井分隊","LANDMARKAD":"1000617","ADDRESS":"台中市龍井區沙田路四段183號","TEL":"04-26352894","COUNTYNAME":"台中市","TOWNNAME":"龍井區","MARKTYPE":"991","Class":"1"}},{"type":"Feature","id":13213,"geometry":{"type":"Point","coordinates":[120.54560992642814,24.191625660771088]},"properties":{"OBJECTID":13213,"LANDMARKID":"1000600000042","LANDMARKCO":"103","LANDMARKNA":"台中市龍井區衛生所","LANDMARKAD":"1000617","ADDRESS":"台中市龍井區竹坑村沙田路四段243號","TEL":"04-26352228","COUNTYNAME":"台中市","TOWNNAME":"龍井區","MARKTYPE":"991","Class":"1"}},{"type":"Feature","id":13214,"geometry":{"type":"Point","coordinates":[120.54483868230415,24.192345201311618]},"properties":{"OBJECTID":13214,"LANDMARKID":"1000600000545","LANDMARKCO":"204","LANDMARKNA":"台中市立圖書館龍井分館","LANDMARKAD":"1000617","ADDRESS":"台中市龍井區龍泉村觀光路2號","TEL":" ","COUNTYNAME":"台中市","TOWNNAME":"龍井區","MARKTYPE":"992","Class":"2"}},{"type":"Feature","id":13215,"geometry":{"type":"Point","coordinates":[120.50101404535364,24.19898019610164]},"properties":{"OBJECTID":13215,"LANDMARKID":"1000600000429","LANDMARKCO":"203","LANDMARKNA":"縣立龍港國小","LANDMARKAD":"1000617","ADDRESS":"台中市龍井區麗水村三港路1號","TEL":"04-26395586","COUNTYNAME":"台中市","TOWNNAME":"龍井區","MARKTYPE":"992","Class":"2"}},{"type":"Feature","id":13216,"geometry":{"type":"Point","coordinates":[120.57650549830763,24.179455129387726]},"properties":{"OBJECTID":13216,"LANDMARKID":"1000600000430","LANDMARKCO":"203","LANDMARKNA":"縣立四箴國中","LANDMARKAD":"1000617","ADDRESS":"台中市龍井區中沙路2號","TEL":"04-26314606#10","COUNTYNAME":"台中市","TOWNNAME":"龍井區","MARKTYPE":"992","Class":"2"}},{"type":"Feature","id":13217,"geometry":{"type":"Point","coordinates":[120.54355026168594,24.191912031586003]},"properties":{"OBJECTID":13217,"LANDMARKID":"1000600000431","LANDMARKCO":"203","LANDMARKNA":"縣立龍井國中","LANDMARKAD":"1000617","ADDRESS":"台中市龍井區觀光路9號","TEL":"04-26353344","COUNTYNAME":"台中市","TOWNNAME":"龍井區","MARKTYPE":"992","Class":"2"}},{"type":"Feature","id":13218,"geometry":{"type":"Point","coordinates":[120.57650549830763,24.179455129387726]},"properties":{"OBJECTID":13218,"LANDMARKID":"1000600000432","LANDMARKCO":"203","LANDMARKNA":"縣立龍峰國小","LANDMARKAD":"1000617","ADDRESS":"台中市龍井區新庄村中沙路2號","TEL":"04-26314707","COUNTYNAME":"台中市","TOWNNAME":"龍井區","MARKTYPE":"992","Class":"2"}},{"type":"Feature","id":13219,"geometry":{"type":"Point","coordinates":[120.52929620075889,24.184031687307677]},"properties":{"OBJECTID":13219,"LANDMARKID":"1000600000433","LANDMARKCO":"203","LANDMARKNA":"縣立龍井國小","LANDMARKAD":"1000617","ADDRESS":"台中市龍井區龍西村龍門路51號","TEL":"04-26397131","COUNTYNAME":"台中市","TOWNNAME":"龍井區","MARKTYPE":"992","Class":"2"}},{"type":"Feature","id":13220,"geometry":{"type":"Point","coordinates":[120.5476833113145,24.196179953475895]},"properties":{"OBJECTID":13220,"LANDMARKID":"1000600000434","LANDMARKCO":"203","LANDMARKNA":"縣立龍泉國小","LANDMARKAD":"1000617","ADDRESS":"台中市龍井區龍泉村龍新路162號","TEL":"04-26353340","COUNTYNAME":"台中市","TOWNNAME":"龍井區","MARKTYPE":"992","Class":"2"}},{"type":"Feature","id":13221,"geometry":{"type":"Point","coordinates":[120.52214773348896,24.20456087962031]},"properties":{"OBJECTID":13221,"LANDMARKID":"1000600000435","LANDMARKCO":"203","LANDMARKNA":"縣立龍津國中","LANDMARKAD":"1000617","ADDRESS":"台中市龍井區中央路一段165巷50號","TEL":"04-26304536","COUNTYNAME":"台中市","TOWNNAME":"龍井區","MARKTYPE":"992","Class":"2"}},{"type":"Feature","id":13222,"geometry":{"type":"Point","coordinates":[120.52170947522515,24.201217344610139]},"properties":{"OBJECTID":13222,"LANDMARKID":"1000600000436","LANDMARKCO":"203","LANDMARKNA":"縣立龍津國小","LANDMARKAD":"1000617","ADDRESS":"台中市龍井區龍津村中央路一段165巷50號","TEL":"04-26393394","COUNTYNAME":"台中市","TOWNNAME":"龍井區","MARKTYPE":"992","Class":"2"}},{"type":"Feature","id":13223,"geometry":{"type":"Point","coordinates":[120.52681808745159,24.21622018889936]},"properties":{"OBJECTID":13223,"LANDMARKID":"1000600000437","LANDMARKCO":"203","LANDMARKNA":"縣立龍海國小","LANDMARKAD":"1000617","ADDRESS":"台中市龍井區忠和村中央路3段206號","TEL":"04-26393334","COUNTYNAME":"台中市","TOWNNAME":"龍井區","MARKTYPE":"992","Class":"2"}},{"type":"Feature","id":13224,"geometry":{"type":"Point","coordinates":[120.55067155138406,24.213670301506401]},"properties":{"OBJECTID":13224,"LANDMARKID":"1000600000438","LANDMARKCO":"203","LANDMARKNA":"縣立龍山國小","LANDMARKAD":"1000617","ADDRESS":"台中市龍井區沙田路六段239號","TEL":"04-26352454","COUNTYNAME":"台中市","TOWNNAME":"龍井區","MARKTYPE":"992","Class":"2"}},{"type":"Feature","id":13225,"geometry":{"type":"Point","coordinates":[120.56891388437445,24.193365633943881]},"properties":{"OBJECTID":13225,"LANDMARKID":"1000600000752","LANDMARKCO":"308","LANDMARKNA":"國3-龍井交流道-南下","LANDMARKAD":"1000617","ADDRESS":"台中市龍井區","TEL":" ","COUNTYNAME":"台中市","TOWNNAME":"龍井區","MARKTYPE":"993","Class":"308"}},{"type":"Feature","id":13226,"geometry":{"type":"Point","coordinates":[120.52069532802479,24.213963941713949]},"properties":{"OBJECTID":13226,"LANDMARKID":"1000600000753","LANDMARKCO":"308","LANDMARKNA":"台61-龍井交流道-南下","LANDMARKAD":"1000617","ADDRESS":" ","TEL":" ","COUNTYNAME":"台中市","TOWNNAME":"龍井區","MARKTYPE":"993","Class":"308"}},{"type":"Feature","id":13227,"geometry":{"type":"Point","coordinates":[120.54329558429096,24.197610399115295]},"properties":{"OBJECTID":13227,"LANDMARKID":"1000600000588","LANDMARKCO":"301","LANDMARKNA":"龍井火車站","LANDMARKAD":"1000617","ADDRESS":"台中市龍井區龍新路1號","TEL":"04-26355578","COUNTYNAME":"台中市","TOWNNAME":"龍井區","MARKTYPE":"993","Class":"301"}},{"type":"Feature","id":13228,"geometry":{"type":"Point","coordinates":[120.58443963121846,24.181812905206961]},"properties":{"OBJECTID":13228,"LANDMARKID":"1000600000883","LANDMARKCO":"402","LANDMARKNA":"威寶電信-龍井新興特約服務中心","LANDMARKAD":"1000617","ADDRESS":"台中市龍井區新興路91之3號","TEL":"04-26526298","COUNTYNAME":"台中市","TOWNNAME":"龍井區","MARKTYPE":"994","Class":"4"}},{"type":"Feature","id":13229,"geometry":{"type":"Point","coordinates":[120.58953378687126,24.180949581938318]},"properties":{"OBJECTID":13229,"LANDMARKID":"1000600000884","LANDMARKCO":"402","LANDMARKNA":"大眾電信(震旦通訊)-台中東海店","LANDMARKAD":"1000617","ADDRESS":"台中市龍井區新興路20-2號","TEL":"04-26520441","COUNTYNAME":"台中市","TOWNNAME":"龍井區","MARKTYPE":"994","Class":"4"}},{"type":"Feature","id":13230,"geometry":{"type":"Point","coordinates":[120.59282691220007,24.182789176384013]},"properties":{"OBJECTID":13230,"LANDMARKID":"1000600000885","LANDMARKCO":"402","LANDMARKNA":"大眾電信-東海專賣店","LANDMARKAD":"1000617","ADDRESS":"台中市龍井區中港路東園巷4弄1號","TEL":"0968-544246","COUNTYNAME":"台中市","TOWNNAME":"龍井區","MARKTYPE":"994","Class":"4"}},{"type":"Feature","id":13231,"geometry":{"type":"Point","coordinates":[120.59702826767776,24.189128063769765]},"properties":{"OBJECTID":13231,"LANDMARKID":"1000600001441","LANDMARKCO":"604","LANDMARKNA":"雅筑民宿","LANDMARKAD":"1000617","ADDRESS":"台中市龍井區東海村遠東街207巷11號","TEL":"04-26320008","COUNTYNAME":"台中市","TOWNNAME":"龍井區","MARKTYPE":"996","Class":"6"}},{"type":"Feature","id":13256,"geometry":{"type":"Point","coordinates":[120.80710570175803,24.237506413229028]},"properties":{"OBJECTID":13256,"LANDMARKID":"1000600000300","LANDMARKCO":"202","LANDMARKNA":"縣立新社高中","LANDMARKAD":"1000611","ADDRESS":"台中市新社區復興村中和街三段國中巷10號","TEL":"04-25812116","COUNTYNAME":"台中市","TOWNNAME":"新社區","MARKTYPE":"992","Class":"2"}},{"type":"Feature","id":13257,"geometry":{"type":"Point","coordinates":[120.80909075824803,24.238862287877179]},"properties":{"OBJECTID":13257,"LANDMARKID":"1000600000418","LANDMARKCO":"203","LANDMARKNA":"縣立新社國中","LANDMARKAD":"1000611","ADDRESS":"台中市新社區中和街三段國中巷10號","TEL":"04-25812116","COUNTYNAME":"台中市","TOWNNAME":"新社區","MARKTYPE":"992","Class":"2"}},{"type":"Feature","id":13258,"geometry":{"type":"Point","coordinates":[120.80718366120375,24.237777489229753]},"properties":{"OBJECTID":13258,"LANDMARKID":"1000600000419","LANDMARKCO":"203","LANDMARKNA":"縣立新社高中附設國中部","LANDMARKAD":"1000611","ADDRESS":"台中市新社區中和街三段國中巷10號","TEL":"04-25812116","COUNTYNAME":"台中市","TOWNNAME":"新社區","MARKTYPE":"992","Class":"2"}},{"type":"Feature","id":13259,"geometry":{"type":"Point","coordinates":[120.881203670937,24.16345002721787]},"properties":{"OBJECTID":13259,"LANDMARKID":"1000600000420","LANDMARKCO":"203","LANDMARKNA":"縣立福民國小","LANDMARKAD":"1000611","ADDRESS":"台中市和平區東關路三段和興巷60號","TEL":"04-25942670","COUNTYNAME":"台中市","TOWNNAME":"新社區","MARKTYPE":"992","Class":"2"}},{"type":"Feature","id":13260,"geometry":{"type":"Point","coordinates":[120.81896649135493,24.206551308464189]},"properties":{"OBJECTID":13260,"LANDMARKID":"1000600000421","LANDMARKCO":"203","LANDMARKNA":"縣立東興國小","LANDMARKAD":"1000611","ADDRESS":"台中市新社區東興村興社街一段國校巷13號","TEL":"04-25811467","COUNTYNAME":"台中市","TOWNNAME":"新社區","MARKTYPE":"992","Class":"2"}},{"type":"Feature","id":13261,"geometry":{"type":"Point","coordinates":[120.79669064570261,24.267290402055661]},"properties":{"OBJECTID":13261,"LANDMARKID":"1000600000422","LANDMARKCO":"203","LANDMARKNA":"縣立石岡國中","LANDMARKAD":"1000611","ADDRESS":"台中市石岡區梅子村國中巷1號","TEL":"04-25814190","COUNTYNAME":"台中市","TOWNNAME":"新社區","MARKTYPE":"992","Class":"2"}},{"type":"Feature","id":13262,"geometry":{"type":"Point","coordinates":[120.8637697429002,24.159645010313064]},"properties":{"OBJECTID":13262,"LANDMARKID":"1000600000423","LANDMARKCO":"203","LANDMARKNA":"縣立大林國小","LANDMARKAD":"1000611","ADDRESS":"台中市新社區福興村美林38號","TEL":"04-25941995","COUNTYNAME":"台中市","TOWNNAME":"新社區","MARKTYPE":"992","Class":"2"}},{"type":"Feature","id":13263,"geometry":{"type":"Point","coordinates":[120.7905549961495,24.218503374323785]},"properties":{"OBJECTID":13263,"LANDMARKID":"1000600001433","LANDMARKCO":"604","LANDMARKNA":"天籟園","LANDMARKAD":"1000611","ADDRESS":"台中市新社區永源村中和街一段6巷18號","TEL":"04-25821366","COUNTYNAME":"台中市","TOWNNAME":"新社區","MARKTYPE":"996","Class":"6"}},{"type":"Feature","id":13264,"geometry":{"type":"Point","coordinates":[120.79023282415888,24.218605930619422]},"properties":{"OBJECTID":13264,"LANDMARKID":"1000600001434","LANDMARKCO":"604","LANDMARKNA":"木佃軒","LANDMARKAD":"1000611","ADDRESS":"台中市新社區永源村中和街一段6巷9號","TEL":"04-25810777","COUNTYNAME":"台中市","TOWNNAME":"新社區","MARKTYPE":"996","Class":"6"}},{"type":"Feature","id":13265,"geometry":{"type":"Point","coordinates":[120.78901203657513,24.220029244052988]},"properties":{"OBJECTID":13265,"LANDMARKID":"1000600001435","LANDMARKCO":"604","LANDMARKNA":"芊芸居","LANDMARKAD":"1000611","ADDRESS":"台中市新社區永源村中和街一段山腳巷55-1號","TEL":"04-25820034","COUNTYNAME":"台中市","TOWNNAME":"新社區","MARKTYPE":"996","Class":"6"}},{"type":"Feature","id":13266,"geometry":{"type":"Point","coordinates":[120.80490713056062,24.224980786354898]},"properties":{"OBJECTID":13266,"LANDMARKID":"1000600001436","LANDMARKCO":"604","LANDMARKNA":"花田民宿","LANDMARKAD":"1000611","ADDRESS":"台中市新社區大南村興中街17-6號","TEL":"04-25823777","COUNTYNAME":"台中市","TOWNNAME":"新社區","MARKTYPE":"996","Class":"6"}},{"type":"Feature","id":13267,"geometry":{"type":"Point","coordinates":[120.81570164430863,24.20391932009516]},"properties":{"OBJECTID":13267,"LANDMARKID":"1000600001437","LANDMARKCO":"604","LANDMARKNA":"荷蘭風情民宿","LANDMARKAD":"1000611","ADDRESS":"台中市新社區協成村華豐街59號","TEL":"04-25825852","COUNTYNAME":"台中市","TOWNNAME":"新社區","MARKTYPE":"996","Class":"6"}},{"type":"Feature","id":13268,"geometry":{"type":"Point","coordinates":[120.80847396423323,24.191005494982083]},"properties":{"OBJECTID":13268,"LANDMARKID":"1000600001438","LANDMARKCO":"604","LANDMARKNA":"震川民宿","LANDMARKAD":"1000611","ADDRESS":"台中市新社區協成村協中街165號","TEL":"04-25820492","COUNTYNAME":"台中市","TOWNNAME":"新社區","MARKTYPE":"996","Class":"6"}},{"type":"Feature","id":13269,"geometry":{"type":"Point","coordinates":[120.78814034318435,24.248994357605891]},"properties":{"OBJECTID":13269,"LANDMARKID":"1000600001439","LANDMARKCO":"604","LANDMARKNA":"安石園民宿","LANDMARKAD":"1000611","ADDRESS":"台中市新社區崑山村崑南街95-6號","TEL":"04-25814302","COUNTYNAME":"台中市","TOWNNAME":"新社區","MARKTYPE":"996","Class":"6"}},{"type":"Feature","id":13270,"geometry":{"type":"Point","coordinates":[120.77496694187479,24.218818974864508]},"properties":{"OBJECTID":13270,"LANDMARKID":"1000600001440","LANDMARKCO":"604","LANDMARKNA":"日出映象民宿","LANDMARKAD":"1000611","ADDRESS":"台中市新社區永源村水井街1巷28號","TEL":"04-25821658","COUNTYNAME":"台中市","TOWNNAME":"新社區","MARKTYPE":"996","Class":"6"}},{"type":"Feature","id":13271,"geometry":{"type":"Point","coordinates":[120.81263541415997,24.18930900028959]},"properties":{"OBJECTID":13271,"LANDMARKID":"1000600001264","LANDMARKCO":"503","LANDMARKNA":"新社莊園","LANDMARKAD":"1000611","ADDRESS":"台中市新社區協中街65號","TEL":"04-25825628","COUNTYNAME":"台中市","TOWNNAME":"新社區","MARKTYPE":"995","Class":"5"}},{"type":"Feature","id":13272,"geometry":{"type":"Point","coordinates":[120.84134338219499,24.128570537099829]},"properties":{"OBJECTID":13272,"LANDMARKID":"1000600001265","LANDMARKCO":"504","LANDMARKNA":"薰衣草森林‧新社店","LANDMARKAD":"1000611","ADDRESS":"台中市新社區中興街20號","TEL":"04-25931066","COUNTYNAME":"台中市","TOWNNAME":"新社區","MARKTYPE":"995","Class":"5"}},{"type":"Feature","id":13255,"geometry":{"type":"Point","coordinates":[120.82836739860082,24.156840963995425]},"properties":{"OBJECTID":13255,"LANDMARKID":"1000600000428","LANDMARKCO":"203","LANDMARKNA":"縣立中和國小","LANDMARKAD":"1000611","ADDRESS":"台中市新社區中和村中興街129號","TEL":"04-25931001","COUNTYNAME":"台中市","TOWNNAME":"新社區","MARKTYPE":"992","Class":"2"}},{"type":"Feature","id":13254,"geometry":{"type":"Point","coordinates":[120.81306623515292,24.193993105140336]},"properties":{"OBJECTID":13254,"LANDMARKID":"1000600000427","LANDMARKCO":"203","LANDMARKNA":"縣立協成國小","LANDMARKAD":"1000611","ADDRESS":"台中市新社區協成村興義街219號","TEL":"04-25813437","COUNTYNAME":"台中市","TOWNNAME":"新社區","MARKTYPE":"992","Class":"2"}},{"type":"Feature","id":13253,"geometry":{"type":"Point","coordinates":[120.81107679552122,24.24130514346372]},"properties":{"OBJECTID":13253,"LANDMARKID":"1000600000426","LANDMARKCO":"203","LANDMARKNA":"縣立新社國小","LANDMARKAD":"1000611","ADDRESS":"台中市新社區新社村興社街394號","TEL":"04-25811204","COUNTYNAME":"台中市","TOWNNAME":"新社區","MARKTYPE":"992","Class":"2"}},{"type":"Feature","id":13252,"geometry":{"type":"Point","coordinates":[120.80430046076167,24.229737656266746]},"properties":{"OBJECTID":13252,"LANDMARKID":"1000600000425","LANDMARKCO":"203","LANDMARKNA":"縣立大南國小","LANDMARKAD":"1000611","ADDRESS":"台中市新社區大南村興中街47號","TEL":"04-25811574","COUNTYNAME":"台中市","TOWNNAME":"新社區","MARKTYPE":"992","Class":"2"}},{"type":"Feature","id":13251,"geometry":{"type":"Point","coordinates":[120.78742280972301,24.241452936039149]},"properties":{"OBJECTID":13251,"LANDMARKID":"1000600000424","LANDMARKCO":"203","LANDMARKNA":"縣立崑山國小","LANDMARKAD":"1000611","ADDRESS":"台中市新社區崑山村崑南街87號","TEL":"04-25812496","COUNTYNAME":"台中市","TOWNNAME":"新社區","MARKTYPE":"992","Class":"2"}},{"type":"Feature","id":13250,"geometry":{"type":"Point","coordinates":[120.80977244284566,24.240638059500416]},"properties":{"OBJECTID":13250,"LANDMARKID":"1000600000543","LANDMARKCO":"204","LANDMARKNA":"台中市立圖書館新社分館","LANDMARKAD":"1000611","ADDRESS":"台中市新社區新社村興社街四段1巷1號","TEL":" ","COUNTYNAME":"台中市","TOWNNAME":"新社區","MARKTYPE":"992","Class":"2"}},{"type":"Feature","id":13249,"geometry":{"type":"Point","coordinates":[120.86480400694394,24.159192877862239]},"properties":{"OBJECTID":13249,"LANDMARKID":"1000600000153","LANDMARKCO":"107","LANDMARKNA":"台中市警察局福中派出所","LANDMARKAD":"1000611","ADDRESS":"台中市新社區福興村美林45號","TEL":"04-25941364","COUNTYNAME":"台中市","TOWNNAME":"新社區","MARKTYPE":"991","Class":"1"}},{"type":"Feature","id":13248,"geometry":{"type":"Point","coordinates":[120.80873592549757,24.241750754354999]},"properties":{"OBJECTID":13248,"LANDMARKID":"1000600000036","LANDMARKCO":"103","LANDMARKNA":"台中市新社區衛生所","LANDMARKAD":"1000611","ADDRESS":"台中市新社區興社街四段1號","TEL":"04-25813514","COUNTYNAME":"台中市","TOWNNAME":"新社區","MARKTYPE":"991","Class":"1"}},{"type":"Feature","id":13247,"geometry":{"type":"Point","coordinates":[120.80893570505971,24.244098867826025]},"properties":{"OBJECTID":13247,"LANDMARKID":"1000600000116","LANDMARKCO":"106","LANDMARKNA":"台中市新社區戶政事務所","LANDMARKAD":"1000611","ADDRESS":"台中市新社區新社村6鄰中和街四段207號","TEL":"04-25811420","COUNTYNAME":"台中市","TOWNNAME":"新社區","MARKTYPE":"991","Class":"1"}},{"type":"Feature","id":13246,"geometry":{"type":"Point","coordinates":[120.80858200333655,24.243827100494439]},"properties":{"OBJECTID":13246,"LANDMARKID":"1000600000149","LANDMARKCO":"107","LANDMARKNA":"台中市警察局新社分駐所","LANDMARKAD":"1000611","ADDRESS":"臺中縣新社區復盛村興社街2段28之3號","TEL":"04-25811401","COUNTYNAME":"台中市","TOWNNAME":"新社區","MARKTYPE":"991","Class":"1"}},{"type":"Feature","id":13245,"geometry":{"type":"Point","coordinates":[120.79215548299021,24.219426893028103]},"properties":{"OBJECTID":13245,"LANDMARKID":"1000600000148","LANDMARKCO":"107","LANDMARKNA":"台中市警察局永源派出所","LANDMARKAD":"1000611","ADDRESS":"台中市新社區永源村中和街一段20號","TEL":"04-25811475","COUNTYNAME":"台中市","TOWNNAME":"新社區","MARKTYPE":"991","Class":"1"}},{"type":"Feature","id":13244,"geometry":{"type":"Point","coordinates":[120.82118102469531,24.206733808311274]},"properties":{"OBJECTID":13244,"LANDMARKID":"1000600000147","LANDMARKCO":"107","LANDMARKNA":"台中市警察局東興派出所","LANDMARKAD":"1000611","ADDRESS":"台中市新社區東興村興社街一段285號","TEL":"04-25811476","COUNTYNAME":"台中市","TOWNNAME":"新社區","MARKTYPE":"991","Class":"1"}},{"type":"Feature","id":13243,"geometry":{"type":"Point","coordinates":[120.81059507570909,24.241033068259561]},"properties":{"OBJECTID":13243,"LANDMARKID":"1000600000043","LANDMARKCO":"103","LANDMARKNA":"台中市新社區鄉民代表會","LANDMARKAD":"1000611","ADDRESS":"臺中縣新社區復盛村興社街二段28-1號","TEL":"04-25811950","COUNTYNAME":"台中市","TOWNNAME":"新社區","MARKTYPE":"991","Class":"1"}},{"type":"Feature","id":13242,"geometry":{"type":"Point","coordinates":[120.81958937023589,24.211876756294522]},"properties":{"OBJECTID":13242,"LANDMARKID":"1000600000262","LANDMARKCO":"108","LANDMARKNA":"台中市新社區公所","LANDMARKAD":"1000611","ADDRESS":"臺中縣新社區復盛村興社街二段28之1號","TEL":"04-25811111","COUNTYNAME":"台中市","TOWNNAME":"新社區","MARKTYPE":"991","Class":"1"}},{"type":"Feature","id":13241,"geometry":{"type":"Point","coordinates":[120.80409734154318,24.228285314662941]},"properties":{"OBJECTID":13241,"LANDMARKID":"1000600000023","LANDMARKCO":"101","LANDMARKNA":"種苗改良繁殖場","LANDMARKAD":"1000611","ADDRESS":"台中市新社區大南村興中街46號","TEL":"04-25811311","COUNTYNAME":"台中市","TOWNNAME":"新社區","MARKTYPE":"991","Class":"1"}},{"type":"Feature","id":13240,"geometry":{"type":"Point","coordinates":[120.80613002862327,24.237774812692699]},"properties":{"OBJECTID":13240,"LANDMARKID":"1000600000150","LANDMARKCO":"107","LANDMARKNA":"台中市消防局新社分隊","LANDMARKAD":"1000611","ADDRESS":"台中市新社區興安路1號","TEL":"04-25816754","COUNTYNAME":"台中市","TOWNNAME":"新社區","MARKTYPE":"991","Class":"1"}},{"type":"Feature","id":13239,"geometry":{"type":"Point","coordinates":[120.808198854606,24.243765428600547]},"properties":{"OBJECTID":13239,"LANDMARKID":"1000600001240","LANDMARKCO":"409","LANDMARKNA":"新社區農會","LANDMARKAD":"1000611","ADDRESS":"台中市新社區新社村中和街四段226號","TEL":"04-258115","COUNTYNAME":"台中市","TOWNNAME":"新社區","MARKTYPE":"994","Class":"4"}},{"type":"Feature","id":13238,"geometry":{"type":"Point","coordinates":[120.79402536686182,24.205949280717089]},"properties":{"OBJECTID":13238,"LANDMARKID":"1000600001181","LANDMARKCO":"408","LANDMARKNA":"郵局-新社中興嶺郵局","LANDMARKAD":"1000611","ADDRESS":"台中市新社區中興嶺173號","TEL":"(04)2581-2382","COUNTYNAME":"台中市","TOWNNAME":"新社區","MARKTYPE":"994","Class":"4"}},{"type":"Feature","id":13237,"geometry":{"type":"Point","coordinates":[120.78445914490061,24.239460338552025]},"properties":{"OBJECTID":13237,"LANDMARKID":"1000600001289","LANDMARKCO":"506","LANDMARKNA":"安石園茶園","LANDMARKAD":"1000611","ADDRESS":"台中市新社區崑山村崑南街95之6號","TEL":"04-25814302","COUNTYNAME":"台中市","TOWNNAME":"新社區","MARKTYPE":"995","Class":"5"}},{"type":"Feature","id":13236,"geometry":{"type":"Point","coordinates":[120.82916433121645,24.157584849617621]},"properties":{"OBJECTID":13236,"LANDMARKID":"1000600001288","LANDMARKCO":"506","LANDMARKNA":"中興休閒農場","LANDMARKAD":"1000611","ADDRESS":"台中市新社區中和村中興街158號","TEL":"04-25931135","COUNTYNAME":"台中市","TOWNNAME":"新社區","MARKTYPE":"995","Class":"5"}},{"type":"Feature","id":13235,"geometry":{"type":"Point","coordinates":[120.79563643336731,24.210569659595944]},"properties":{"OBJECTID":13235,"LANDMARKID":"1000600001082","LANDMARKCO":"405","LANDMARKNA":"統一速邁樂加油站-新社加油站(中油)","LANDMARKAD":"1000611","ADDRESS":"台中市新社區中興村中興嶺425號","TEL":" ","COUNTYNAME":"台中市","TOWNNAME":"新社區","MARKTYPE":"994","Class":"4"}},{"type":"Feature","id":13234,"geometry":{"type":"Point","coordinates":[120.80872752669194,24.25015167370703]},"properties":{"OBJECTID":13234,"LANDMARKID":"1000600001081","LANDMARKCO":"405","LANDMARKNA":"中油加油站-新社站(中油直營)","LANDMARKAD":"1000611","ADDRESS":"台中市新社區中正村中和街五段58號","TEL":"04-25819102","COUNTYNAME":"台中市","TOWNNAME":"新社區","MARKTYPE":"994","Class":"4"}},{"type":"Feature","id":13233,"geometry":{"type":"Point","coordinates":[120.80914254321742,24.25097607228744]},"properties":{"OBJECTID":13233,"LANDMARKID":"1000600001080","LANDMARKCO":"405","LANDMARKNA":"台灣優力加油站-新社站(中油)","LANDMARKAD":"1000611","ADDRESS":"台中市新社區中和街五段35號","TEL":"04-25826472","COUNTYNAME":"台中市","TOWNNAME":"新社區","MARKTYPE":"994","Class":"4"}},{"type":"Feature","id":13232,"geometry":{"type":"Point","coordinates":[120.5922628444885,24.181417905209795]},"properties":{"OBJECTID":13232,"LANDMARKID":"1000600001325","LANDMARKCO":"511","LANDMARKNA":"東海夜市","LANDMARKAD":"1000617","ADDRESS":"台中市龍井區","TEL":" ","COUNTYNAME":"台中市","TOWNNAME":"龍井區","MARKTYPE":"995","Class":"5"}},{"type":"Feature","id":13273,"geometry":{"type":"Point","coordinates":[120.57460822247138,24.119679699721672]},"properties":{"OBJECTID":13273,"LANDMARKID":"1000600001083","LANDMARKCO":"405","LANDMARKNA":"中油加油站-國祥站","LANDMARKAD":"1000616","ADDRESS":"台中市大肚區沙田路一段158號","TEL":"04-26936989","COUNTYNAME":"台中市","TOWNNAME":"大肚區","MARKTYPE":"994","Class":"4"}},{"type":"Feature","id":13298,"geometry":{"type":"Point","coordinates":[120.57337529621067,24.169132654936991]},"properties":{"OBJECTID":13298,"LANDMARKID":"1000600000440","LANDMARKCO":"203","LANDMARKNA":"縣立瑞峰國小","LANDMARKAD":"1000616","ADDRESS":"台中市大肚區太平路1號","TEL":"04-26911291","COUNTYNAME":"台中市","TOWNNAME":"大肚區","MARKTYPE":"992","Class":"2"}},{"type":"Feature","id":13299,"geometry":{"type":"Point","coordinates":[120.54983009532027,24.147026380337834]},"properties":{"OBJECTID":13299,"LANDMARKID":"1000600000441","LANDMARKCO":"203","LANDMARKNA":"縣立大道國中","LANDMARKAD":"1000616","ADDRESS":"台中市大肚區仁德路60號","TEL":"04-26992028","COUNTYNAME":"台中市","TOWNNAME":"大肚區","MARKTYPE":"992","Class":"2"}},{"type":"Feature","id":13300,"geometry":{"type":"Point","coordinates":[120.54631702802811,24.15458916304102]},"properties":{"OBJECTID":13300,"LANDMARKID":"1000600000442","LANDMARKCO":"203","LANDMARKNA":"縣立大肚國小","LANDMARKAD":"1000616","ADDRESS":"台中市大肚區頂街村華山路77號","TEL":"04-26992016","COUNTYNAME":"台中市","TOWNNAME":"大肚區","MARKTYPE":"992","Class":"2"}},{"type":"Feature","id":13301,"geometry":{"type":"Point","coordinates":[120.54466004386668,24.163476941905227]},"properties":{"OBJECTID":13301,"LANDMARKID":"1000600000443","LANDMARKCO":"203","LANDMARKNA":"縣立山陽國小","LANDMARKAD":"1000616","ADDRESS":"台中市大肚區榮華街630號","TEL":"04-26983117","COUNTYNAME":"台中市","TOWNNAME":"大肚區","MARKTYPE":"992","Class":"2"}},{"type":"Feature","id":13302,"geometry":{"type":"Point","coordinates":[120.5564344219419,24.134411446604574]},"properties":{"OBJECTID":13302,"LANDMARKID":"1000600000444","LANDMARKCO":"203","LANDMARKNA":"縣立大忠國小","LANDMARKAD":"1000616","ADDRESS":"台中市大肚區沙田路一段854巷24號","TEL":"04-26993693","COUNTYNAME":"台中市","TOWNNAME":"大肚區","MARKTYPE":"992","Class":"2"}},{"type":"Feature","id":13303,"geometry":{"type":"Point","coordinates":[120.53306113781018,24.158545151807761]},"properties":{"OBJECTID":13303,"LANDMARKID":"1000600000445","LANDMARKCO":"203","LANDMARKNA":"縣立永順國小","LANDMARKAD":"1000616","ADDRESS":"台中市大肚區永順村文昌路2段586號","TEL":"04-26992461","COUNTYNAME":"台中市","TOWNNAME":"大肚區","MARKTYPE":"992","Class":"2"}},{"type":"Feature","id":13304,"geometry":{"type":"Point","coordinates":[120.56861995041024,24.12225982705138]},"properties":{"OBJECTID":13304,"LANDMARKID":"1000600000446","LANDMARKCO":"203","LANDMARKNA":"縣立追分國小","LANDMARKAD":"1000616","ADDRESS":"台中市大肚區沙田路一段364號","TEL":"04-26932604","COUNTYNAME":"台中市","TOWNNAME":"大肚區","MARKTYPE":"992","Class":"2"}},{"type":"Feature","id":13305,"geometry":{"type":"Point","coordinates":[120.5757221344513,24.118527265666806]},"properties":{"OBJECTID":13305,"LANDMARKID":"1000600000754","LANDMARKCO":"308","LANDMARKNA":"國1-王田交流道-西行","LANDMARKAD":"1000616","ADDRESS":"台中市大肚區","TEL":" ","COUNTYNAME":"台中市","TOWNNAME":"大肚區","MARKTYPE":"993","Class":"308"}},{"type":"Feature","id":13306,"geometry":{"type":"Point","coordinates":[120.54230433804319,24.15401675551977]},"properties":{"OBJECTID":13306,"LANDMARKID":"1000600000586","LANDMARKCO":"301","LANDMARKNA":"大肚火車站","LANDMARKAD":"1000616","ADDRESS":"台中市大肚區平和街121號","TEL":"04-26992523","COUNTYNAME":"台中市","TOWNNAME":"大肚區","MARKTYPE":"993","Class":"301"}},{"type":"Feature","id":13307,"geometry":{"type":"Point","coordinates":[120.56996173478638,24.120452446582359]},"properties":{"OBJECTID":13307,"LANDMARKID":"1000600000587","LANDMARKCO":"301","LANDMARKNA":"追分火車站","LANDMARKAD":"1000616","ADDRESS":"台中市大肚區王田村追分街13號","TEL":"04-26933106","COUNTYNAME":"台中市","TOWNNAME":"大肚區","MARKTYPE":"993","Class":"301"}},{"type":"Feature","id":13308,"geometry":{"type":"Point","coordinates":[120.544646919778,24.155304537509881]},"properties":{"OBJECTID":13308,"LANDMARKID":"1000600000882","LANDMARKCO":"402","LANDMARKNA":"中華電信-大肚服務中心","LANDMARKAD":"1000616","ADDRESS":"台中市大肚區榮華街3號","TEL":"123或0800-080-123","COUNTYNAME":"台中市","TOWNNAME":"大肚區","MARKTYPE":"994","Class":"4"}},{"type":"Feature","id":13309,"geometry":{"type":"Point","coordinates":[120.72116788027431,24.119961210152727]},"properties":{"OBJECTID":13309,"LANDMARKID":"1000600001090","LANDMARKCO":"405","LANDMARKNA":"中油加油站-太平長億路站(中油直營)","LANDMARKAD":"1000619","ADDRESS":"台中市太平區太平路137號","TEL":"04-22709613","COUNTYNAME":"台中市","TOWNNAME":"太平區","MARKTYPE":"994","Class":"4"}},{"type":"Feature","id":13310,"geometry":{"type":"Point","coordinates":[120.71586730494066,24.133647749197653]},"properties":{"OBJECTID":13310,"LANDMARKID":"1000600001091","LANDMARKCO":"405","LANDMARKNA":"中油加油站-新平站","LANDMARKAD":"1000619","ADDRESS":"台中市太平區東平路828號","TEL":"04-22758731","COUNTYNAME":"台中市","TOWNNAME":"太平區","MARKTYPE":"994","Class":"4"}},{"type":"Feature","id":13311,"geometry":{"type":"Point","coordinates":[120.70380430529111,24.115137666019333]},"properties":{"OBJECTID":13311,"LANDMARKID":"1000600001092","LANDMARKCO":"405","LANDMARKNA":"中油加油站-勁強站","LANDMARKAD":"1000619","ADDRESS":"台中市太平區永豐路300號","TEL":"04-22737591","COUNTYNAME":"台中市","TOWNNAME":"太平區","MARKTYPE":"994","Class":"4"}},{"type":"Feature","id":13312,"geometry":{"type":"Point","coordinates":[120.73394291093611,24.134300946557655]},"properties":{"OBJECTID":13312,"LANDMARKID":"1000600001093","LANDMARKCO":"405","LANDMARKNA":"中油加油站-東平站","LANDMARKAD":"1000619","ADDRESS":"台中市太平區東平路85號","TEL":"04-22753528","COUNTYNAME":"台中市","TOWNNAME":"太平區","MARKTYPE":"994","Class":"4"}},{"type":"Feature","id":13313,"geometry":{"type":"Point","coordinates":[120.7325789212119,24.137716806465384]},"properties":{"OBJECTID":13313,"LANDMARKID":"1000600001094","LANDMARKCO":"405","LANDMARKNA":"中油加油站-金旺站","LANDMARKAD":"1000619","ADDRESS":"台中市太平區東平里中山路一段116號","TEL":"04-22753778","COUNTYNAME":"台中市","TOWNNAME":"太平區","MARKTYPE":"994","Class":"4"}},{"type":"Feature","id":13274,"geometry":{"type":"Point","coordinates":[120.54344390081505,24.159709982635512]},"properties":{"OBJECTID":13274,"LANDMARKID":"1000600001084","LANDMARKCO":"405","LANDMARKNA":"山隆加油站-大肚站(中油)","LANDMARKAD":"1000616","ADDRESS":"台中市大肚區沙田路三段247號","TEL":"(04)2699-7315","COUNTYNAME":"台中市","TOWNNAME":"大肚區","MARKTYPE":"994","Class":"4"}},{"type":"Feature","id":13275,"geometry":{"type":"Point","coordinates":[120.54346697099746,24.159653941525004]},"properties":{"OBJECTID":13275,"LANDMARKID":"1000600001085","LANDMARKCO":"405","LANDMARKNA":"中油加油站-山隆大肚","LANDMARKAD":"1000616","ADDRESS":"台中市大肚區頂街村沙田路三段247號","TEL":"04-26997315","COUNTYNAME":"台中市","TOWNNAME":"大肚區","MARKTYPE":"994","Class":"4"}},{"type":"Feature","id":13276,"geometry":{"type":"Point","coordinates":[120.54977706562913,24.140229720839443]},"properties":{"OBJECTID":13276,"LANDMARKID":"1000600001086","LANDMARKCO":"405","LANDMARKNA":"中油加油站-大肚站(中油直營)","LANDMARKAD":"1000616","ADDRESS":"台中市大肚區新興村沙田路二段222號","TEL":"04-26992502","COUNTYNAME":"台中市","TOWNNAME":"大肚區","MARKTYPE":"994","Class":"4"}},{"type":"Feature","id":13277,"geometry":{"type":"Point","coordinates":[120.5823230221629,24.1680640201233]},"properties":{"OBJECTID":13277,"LANDMARKID":"1000600001087","LANDMARKCO":"405","LANDMARKNA":"北基加油站-昆泰站(中油)","LANDMARKAD":"1000616","ADDRESS":"台中市大肚區中蔗路2-56號","TEL":"(04)2691-0620","COUNTYNAME":"台中市","TOWNNAME":"大肚區","MARKTYPE":"994","Class":"4"}},{"type":"Feature","id":13278,"geometry":{"type":"Point","coordinates":[120.55374068915843,24.132675714004289]},"properties":{"OBJECTID":13278,"LANDMARKID":"1000600001088","LANDMARKCO":"405","LANDMARKNA":"中油加油站-中田站","LANDMARKAD":"1000616","ADDRESS":"台中市大肚區社腳村沙田路一段935號","TEL":"04-26998987","COUNTYNAME":"台中市","TOWNNAME":"大肚區","MARKTYPE":"994","Class":"4"}},{"type":"Feature","id":13279,"geometry":{"type":"Point","coordinates":[120.57464731684323,24.119264177718023]},"properties":{"OBJECTID":13279,"LANDMARKID":"1000600001089","LANDMARKCO":"405","LANDMARKNA":"中油加油站-台鹽追分站","LANDMARKAD":"1000616","ADDRESS":"台中市大肚區王田村沙田路一段167號","TEL":"04-26935081","COUNTYNAME":"台中市","TOWNNAME":"大肚區","MARKTYPE":"994","Class":"4"}},{"type":"Feature","id":13280,"geometry":{"type":"Point","coordinates":[120.5392295981047,24.149877814645219]},"properties":{"OBJECTID":13280,"LANDMARKID":"1000600001302","LANDMARKCO":"507","LANDMARKNA":"磺溪書院","LANDMARKAD":"1000616","ADDRESS":"台中市大肚區磺溪村文昌路60號","TEL":" ","COUNTYNAME":"台中市","TOWNNAME":"大肚區","MARKTYPE":"995","Class":"5"}},{"type":"Feature","id":13281,"geometry":{"type":"Point","coordinates":[120.54527016587539,24.151648535335951]},"properties":{"OBJECTID":13281,"LANDMARKID":"1000600001182","LANDMARKCO":"408","LANDMARKNA":"郵局-大肚郵局","LANDMARKAD":"1000616","ADDRESS":"台中市大肚區沙田路2段666號","TEL":"(04)2699-7555","COUNTYNAME":"台中市","TOWNNAME":"大肚區","MARKTYPE":"994","Class":"4"}},{"type":"Feature","id":13282,"geometry":{"type":"Point","coordinates":[120.56171493102697,24.125313807420149]},"properties":{"OBJECTID":13282,"LANDMARKID":"1000600001183","LANDMARKCO":"408","LANDMARKNA":"郵局-大肚福山郵局","LANDMARKAD":"1000616","ADDRESS":"台中市大肚區沙田路1段564-5號","TEL":"(04)2693-1955","COUNTYNAME":"台中市","TOWNNAME":"大肚區","MARKTYPE":"994","Class":"4"}},{"type":"Feature","id":13283,"geometry":{"type":"Point","coordinates":[120.57958985082665,24.170406078611119]},"properties":{"OBJECTID":13283,"LANDMARKID":"1000600001184","LANDMARKCO":"408","LANDMARKNA":"郵局-大肚蔗郵局","LANDMARKAD":"1000616","ADDRESS":"台中市大肚區遊園路二段65、67號","TEL":"(04)2691-2475","COUNTYNAME":"台中市","TOWNNAME":"大肚區","MARKTYPE":"994","Class":"4"}},{"type":"Feature","id":13284,"geometry":{"type":"Point","coordinates":[120.54485024220998,24.152090481293907]},"properties":{"OBJECTID":13284,"LANDMARKID":"1000600001239","LANDMARKCO":"409","LANDMARKNA":"台中市大肚區農會","LANDMARKAD":"1000616","ADDRESS":"台中市大肚區大肚村沙田路二段683號","TEL":"04-26991161","COUNTYNAME":"台中市","TOWNNAME":"大肚區","MARKTYPE":"994","Class":"4"}},{"type":"Feature","id":13285,"geometry":{"type":"Point","coordinates":[120.55360440560676,24.158242054553522]},"properties":{"OBJECTID":13285,"LANDMARKID":"1000600001109","LANDMARKCO":"406","LANDMARKNA":"大肚區環保運動公園","LANDMARKAD":"1000616","ADDRESS":"台中市大肚區","TEL":" ","COUNTYNAME":"台中市","TOWNNAME":"大肚區","MARKTYPE":"994","Class":"4"}},{"type":"Feature","id":13286,"geometry":{"type":"Point","coordinates":[120.54898556417571,24.140723311127893]},"properties":{"OBJECTID":13286,"LANDMARKID":"1000600001102","LANDMARKCO":"405","LANDMARKNA":"全國加油站-大肚站（台塑）","LANDMARKAD":"1000616","ADDRESS":"台中市大肚區沙田路二段249號","TEL":"04-26991803","COUNTYNAME":"台中市","TOWNNAME":"大肚區","MARKTYPE":"994","Class":"4"}},{"type":"Feature","id":13287,"geometry":{"type":"Point","coordinates":[120.54540310286667,24.151354240578019]},"properties":{"OBJECTID":13287,"LANDMARKID":"1000600000261","LANDMARKCO":"108","LANDMARKNA":"台中市大肚區公所","LANDMARKAD":"1000616","ADDRESS":"台中市大肚區頂街村大德六街30號","TEL":"04-26991105","COUNTYNAME":"台中市","TOWNNAME":"大肚區","MARKTYPE":"991","Class":"1"}},{"type":"Feature","id":13288,"geometry":{"type":"Point","coordinates":[120.55252708900761,24.1585561842898]},"properties":{"OBJECTID":13288,"LANDMARKID":"1000600000037","LANDMARKCO":"103","LANDMARKNA":"台中市大肚區公所垃圾處理場","LANDMARKAD":"1000616","ADDRESS":"台中市大肚區華山路388號","TEL":"04-26997046","COUNTYNAME":"台中市","TOWNNAME":"大肚區","MARKTYPE":"991","Class":"1"}},{"type":"Feature","id":13289,"geometry":{"type":"Point","coordinates":[120.54477981119403,24.15509043353148]},"properties":{"OBJECTID":13289,"LANDMARKID":"1000600000038","LANDMARKCO":"103","LANDMARKNA":"台中市大肚區衛生所","LANDMARKAD":"1000616","ADDRESS":"台中市大肚區榮華街1號","TEL":"04-26992111","COUNTYNAME":"台中市","TOWNNAME":"大肚區","MARKTYPE":"991","Class":"1"}},{"type":"Feature","id":13290,"geometry":{"type":"Point","coordinates":[120.57236562143972,24.155583149579641]},"properties":{"OBJECTID":13290,"LANDMARKID":"1000600000024","LANDMARKCO":"101","LANDMARKNA":"台中區監理所","LANDMARKAD":"1000616","ADDRESS":"台中市大肚區遊園路一段2號","TEL":"04-26912011","COUNTYNAME":"台中市","TOWNNAME":"大肚區","MARKTYPE":"991","Class":"1"}},{"type":"Feature","id":13291,"geometry":{"type":"Point","coordinates":[120.54542406121388,24.151173779314821]},"properties":{"OBJECTID":13291,"LANDMARKID":"1000600000035","LANDMARKCO":"103","LANDMARKNA":"台中市大肚區鄉民代表會","LANDMARKAD":"1000616","ADDRESS":"台中市大肚區沙田路二段646號","TEL":"04-26992049","COUNTYNAME":"台中市","TOWNNAME":"大肚區","MARKTYPE":"991","Class":"1"}},{"type":"Feature","id":13292,"geometry":{"type":"Point","coordinates":[120.5701108498376,24.12153805664779]},"properties":{"OBJECTID":13292,"LANDMARKID":"1000600000151","LANDMARKCO":"107","LANDMARKNA":"台中市警察局追分派出所","LANDMARKAD":"1000616","ADDRESS":"台中市大肚區王田村沙田路一段209號","TEL":"04-26932108","COUNTYNAME":"台中市","TOWNNAME":"大肚區","MARKTYPE":"991","Class":"1"}},{"type":"Feature","id":13293,"geometry":{"type":"Point","coordinates":[120.54426426975922,24.155148043189651]},"properties":{"OBJECTID":13293,"LANDMARKID":"1000600000152","LANDMARKCO":"107","LANDMARKNA":"台中市警察局大肚分駐所","LANDMARKAD":"1000616","ADDRESS":"台中市大肚區頂街村沙田路三段38號","TEL":"04-26992167","COUNTYNAME":"台中市","TOWNNAME":"大肚區","MARKTYPE":"991","Class":"1"}},{"type":"Feature","id":13294,"geometry":{"type":"Point","coordinates":[120.54423538917301,24.155057577309378]},"properties":{"OBJECTID":13294,"LANDMARKID":"1000600000115","LANDMARKCO":"106","LANDMARKNA":"台中市大肚區戶政事務所","LANDMARKAD":"1000616","ADDRESS":"台中市大肚區頂街村14鄰沙田路三段38之1號","TEL":"04-26997881","COUNTYNAME":"台中市","TOWNNAME":"大肚區","MARKTYPE":"991","Class":"1"}},{"type":"Feature","id":13295,"geometry":{"type":"Point","coordinates":[120.54424330805448,24.155328504162966]},"properties":{"OBJECTID":13295,"LANDMARKID":"1000600000154","LANDMARKCO":"107","LANDMARKNA":"台中市消防局大肚分隊","LANDMARKAD":"1000616","ADDRESS":"台中市大肚區沙田路三段40號","TEL":"04-26992064","COUNTYNAME":"台中市","TOWNNAME":"大肚區","MARKTYPE":"991","Class":"1"}},{"type":"Feature","id":13296,"geometry":{"type":"Point","coordinates":[120.5475293461916,24.155344438632664]},"properties":{"OBJECTID":13296,"LANDMARKID":"1000600000544","LANDMARKCO":"204","LANDMARKNA":"台中市立圖書館大肚分館","LANDMARKAD":"1000616","ADDRESS":"台中市大肚區頂街村華山路151號","TEL":" ","COUNTYNAME":"台中市","TOWNNAME":"大肚區","MARKTYPE":"992","Class":"2"}},{"type":"Feature","id":13297,"geometry":{"type":"Point","coordinates":[120.56849023353502,24.159640167254949]},"properties":{"OBJECTID":13297,"LANDMARKID":"1000600000439","LANDMARKCO":"203","LANDMARKNA":"縣立瑞井國小","LANDMARKAD":"1000616","ADDRESS":"台中市大肚區華山路680號","TEL":"04-26912550","COUNTYNAME":"台中市","TOWNNAME":"大肚區","MARKTYPE":"992","Class":"2"}},{"type":"Feature","id":13314,"geometry":{"type":"Point","coordinates":[120.73072772784846,24.112465878535478]},"properties":{"OBJECTID":13314,"LANDMARKID":"1000600001095","LANDMARKCO":"405","LANDMARKNA":"中油加油站-車籠埔","LANDMARKAD":"1000619","ADDRESS":"台中市太平區興隆里光興路835號","TEL":"04-22708233","COUNTYNAME":"台中市","TOWNNAME":"太平區","MARKTYPE":"994","Class":"4"}},{"type":"Feature","id":13339,"geometry":{"type":"Point","coordinates":[120.72433766323037,24.126336793899199]},"properties":{"OBJECTID":13339,"LANDMARKID":"1000600001107","LANDMARKCO":"406","LANDMARKNA":"福平公園","LANDMARKAD":"1000619","ADDRESS":"台中市太平區","TEL":" ","COUNTYNAME":"台中市","TOWNNAME":"太平區","MARKTYPE":"994","Class":"4"}},{"type":"Feature","id":13340,"geometry":{"type":"Point","coordinates":[120.71278294190458,24.144050753600727]},"properties":{"OBJECTID":13340,"LANDMARKID":"1000600001108","LANDMARKCO":"406","LANDMARKNA":"宜樂公園","LANDMARKAD":"1000619","ADDRESS":"台中市太平區","TEL":" ","COUNTYNAME":"台中市","TOWNNAME":"太平區","MARKTYPE":"994","Class":"4"}},{"type":"Feature","id":13341,"geometry":{"type":"Point","coordinates":[120.71311891702408,24.149946878984274]},"properties":{"OBJECTID":13341,"LANDMARKID":"1000600001103","LANDMARKCO":"405","LANDMARKNA":"全國加油站-太平站（台塑）","LANDMARKAD":"1000619","ADDRESS":"台中市太平區中山路四段20號","TEL":"04-23957332","COUNTYNAME":"台中市","TOWNNAME":"太平區","MARKTYPE":"994","Class":"4"}},{"type":"Feature","id":13342,"geometry":{"type":"Point","coordinates":[120.7165113522336,24.149656731104674]},"properties":{"OBJECTID":13342,"LANDMARKID":"1000600001104","LANDMARKCO":"405","LANDMARKNA":"台亞加油站-宜欣站（台塑）","LANDMARKAD":"1000619","ADDRESS":"台中市太平區樹孝路6號","TEL":"(04)2391-1834","COUNTYNAME":"台中市","TOWNNAME":"太平區","MARKTYPE":"994","Class":"4"}},{"type":"Feature","id":13343,"geometry":{"type":"Point","coordinates":[120.71836170938751,24.126489553572146]},"properties":{"OBJECTID":13343,"LANDMARKID":"1000600000265","LANDMARKCO":"108","LANDMARKNA":"台中市太平區公所","LANDMARKAD":"1000619","ADDRESS":"台中市太平區中平路144號","TEL":"04-22794157","COUNTYNAME":"台中市","TOWNNAME":"太平區","MARKTYPE":"991","Class":"1"}},{"type":"Feature","id":13344,"geometry":{"type":"Point","coordinates":[120.71836170938751,24.126489553572146]},"properties":{"OBJECTID":13344,"LANDMARKID":"1000600000039","LANDMARKCO":"103","LANDMARKNA":"台中市太平區市民代表會","LANDMARKAD":"1000619","ADDRESS":"台中市太平區中平路144號","TEL":"04-22796003","COUNTYNAME":"台中市","TOWNNAME":"太平區","MARKTYPE":"991","Class":"1"}},{"type":"Feature","id":13345,"geometry":{"type":"Point","coordinates":[120.72134506168275,24.131010043607358]},"properties":{"OBJECTID":13345,"LANDMARKID":"1000600000040","LANDMARKCO":"103","LANDMARKNA":"台中市太平區體育會","LANDMARKAD":"1000619","ADDRESS":"台中市太平區中興東路99號","TEL":"04-22760991","COUNTYNAME":"台中市","TOWNNAME":"太平區","MARKTYPE":"991","Class":"1"}},{"type":"Feature","id":13346,"geometry":{"type":"Point","coordinates":[120.73049538567439,24.11044084899148]},"properties":{"OBJECTID":13346,"LANDMARKID":"1000600000159","LANDMARKCO":"107","LANDMARKNA":"台中市警察局宏龍派出所","LANDMARKAD":"1000619","ADDRESS":"台中市太平區光隆里光興路900號","TEL":"04-22702700","COUNTYNAME":"台中市","TOWNNAME":"太平區","MARKTYPE":"991","Class":"1"}},{"type":"Feature","id":13347,"geometry":{"type":"Point","coordinates":[120.71933496272516,24.129901540912776]},"properties":{"OBJECTID":13347,"LANDMARKID":"1000600000160","LANDMARKCO":"107","LANDMARKNA":"台中市警察局太平分駐所","LANDMARKAD":"1000619","ADDRESS":"台中市太平區中興東路21號","TEL":"04-22780418","COUNTYNAME":"台中市","TOWNNAME":"太平區","MARKTYPE":"991","Class":"1"}},{"type":"Feature","id":13348,"geometry":{"type":"Point","coordinates":[120.72638276288504,24.146863403094407]},"properties":{"OBJECTID":13348,"LANDMARKID":"1000600000094","LANDMARKCO":"105","LANDMARKNA":"台中市太平地政事務所","LANDMARKAD":"1000619","ADDRESS":"臺中縣太平區大源路1-19號","TEL":"04-23933800","COUNTYNAME":"台中市","TOWNNAME":"太平區","MARKTYPE":"991","Class":"1"}},{"type":"Feature","id":13349,"geometry":{"type":"Point","coordinates":[120.71974900894196,24.129237884488976]},"properties":{"OBJECTID":13349,"LANDMARKID":"1000600000155","LANDMARKCO":"107","LANDMARKNA":"台中市消防局太平分隊","LANDMARKAD":"1000619","ADDRESS":"台中市太平區中興東路46號","TEL":"04-22782282","COUNTYNAME":"台中市","TOWNNAME":"太平區","MARKTYPE":"991","Class":"1"}},{"type":"Feature","id":13350,"geometry":{"type":"Point","coordinates":[120.7346159236742,24.149271727043715]},"properties":{"OBJECTID":13350,"LANDMARKID":"1000600000156","LANDMARKCO":"107","LANDMARKNA":"台中市警察局坪林派出所","LANDMARKAD":"1000619","ADDRESS":"臺中縣太平區中山路1段215號","TEL":"04-23937396","COUNTYNAME":"台中市","TOWNNAME":"太平區","MARKTYPE":"991","Class":"1"}},{"type":"Feature","id":13351,"geometry":{"type":"Point","coordinates":[120.7570210445415,24.11869959229815]},"properties":{"OBJECTID":13351,"LANDMARKID":"1000600000157","LANDMARKCO":"107","LANDMARKNA":"台中市警察局頭汴派出所","LANDMARKAD":"1000619","ADDRESS":"台中市太平區長龍路2段11巷2號","TEL":"04-22704962","COUNTYNAME":"台中市","TOWNNAME":"太平區","MARKTYPE":"991","Class":"1"}},{"type":"Feature","id":13352,"geometry":{"type":"Point","coordinates":[120.72045679662207,24.150419879996427]},"properties":{"OBJECTID":13352,"LANDMARKID":"1000600000158","LANDMARKCO":"107","LANDMARKNA":"台中市警察局新平派出所","LANDMARKAD":"1000619","ADDRESS":"台中市太平區新平路三段72號","TEL":"04-23912446","COUNTYNAME":"台中市","TOWNNAME":"太平區","MARKTYPE":"991","Class":"1"}},{"type":"Feature","id":13353,"geometry":{"type":"Point","coordinates":[120.71825427808054,24.126308569663312]},"properties":{"OBJECTID":13353,"LANDMARKID":"1000600000041","LANDMARKCO":"103","LANDMARKNA":"台中市太平區衛生所","LANDMARKAD":"1000619","ADDRESS":"台中市太平區勤益里中山路1段213之1號","TEL":"04-23938083","COUNTYNAME":"台中市","TOWNNAME":"太平區","MARKTYPE":"991","Class":"1"}},{"type":"Feature","id":13354,"geometry":{"type":"Point","coordinates":[120.7341637612293,24.117564830638749]},"properties":{"OBJECTID":13354,"LANDMARKID":"1000600000568","LANDMARKCO":"205","LANDMARKNA":"古農莊民俗中心","LANDMARKAD":"1000619","ADDRESS":"台中市太平區光興路1378巷38號","TEL":"04-22705419","COUNTYNAME":"台中市","TOWNNAME":"太平區","MARKTYPE":"992","Class":"2"}},{"type":"Feature","id":13315,"geometry":{"type":"Point","coordinates":[120.7106390305976,24.126764440539855]},"properties":{"OBJECTID":13315,"LANDMARKID":"1000600001096","LANDMARKCO":"405","LANDMARKNA":"中油加油站-太平站(中油直營)","LANDMARKAD":"1000619","ADDRESS":"台中市太平區太平里太平路651號","TEL":"04-22787508","COUNTYNAME":"台中市","TOWNNAME":"太平區","MARKTYPE":"994","Class":"4"}},{"type":"Feature","id":13316,"geometry":{"type":"Point","coordinates":[120.71234934933968,24.157454999097258]},"properties":{"OBJECTID":13316,"LANDMARKID":"1000600001097","LANDMARKCO":"405","LANDMARKNA":"中油加油站-樹德站","LANDMARKAD":"1000619","ADDRESS":"台中市太平區樹德路255號","TEL":"04-23955685","COUNTYNAME":"台中市","TOWNNAME":"太平區","MARKTYPE":"994","Class":"4"}},{"type":"Feature","id":13317,"geometry":{"type":"Point","coordinates":[120.73076289554749,24.135071968156382]},"properties":{"OBJECTID":13317,"LANDMARKID":"1000600001098","LANDMARKCO":"405","LANDMARKNA":"中油加油站-新益站","LANDMARKAD":"1000619","ADDRESS":"台中市太平區東平里東平路198號","TEL":"04-22781722","COUNTYNAME":"台中市","TOWNNAME":"太平區","MARKTYPE":"994","Class":"4"}},{"type":"Feature","id":13318,"geometry":{"type":"Point","coordinates":[120.70737417059708,24.119230549442435]},"properties":{"OBJECTID":13318,"LANDMARKID":"1000600001099","LANDMARKCO":"405","LANDMARKNA":"中油加油站-台灣優力永豐路","LANDMARKAD":"1000619","ADDRESS":"台中市太平區永豐路223號","TEL":"04-22794025","COUNTYNAME":"台中市","TOWNNAME":"太平區","MARKTYPE":"994","Class":"4"}},{"type":"Feature","id":13319,"geometry":{"type":"Point","coordinates":[120.72535324744905,24.109079492296107]},"properties":{"OBJECTID":13319,"LANDMARKID":"1000600001100","LANDMARKCO":"405","LANDMARKNA":"中油加油站-德隆站","LANDMARKAD":"1000619","ADDRESS":"台中市太平區光隆里光德路500號","TEL":"04-22705629","COUNTYNAME":"台中市","TOWNNAME":"太平區","MARKTYPE":"994","Class":"4"}},{"type":"Feature","id":13320,"geometry":{"type":"Point","coordinates":[120.73139374949561,24.150119533059534]},"properties":{"OBJECTID":13320,"LANDMARKID":"1000600001101","LANDMARKCO":"405","LANDMARKNA":"中油加油站-坪林站","LANDMARKAD":"1000619","ADDRESS":"台中市太平區中山路二段229號","TEL":"04-23930205","COUNTYNAME":"台中市","TOWNNAME":"太平區","MARKTYPE":"994","Class":"4"}},{"type":"Feature","id":13321,"geometry":{"type":"Point","coordinates":[120.71670268205253,24.151548830526686]},"properties":{"OBJECTID":13321,"LANDMARKID":"1000600000877","LANDMARKCO":"402","LANDMARKNA":"My Phone台灣大哥大-台中太平直營服務中心","LANDMARKAD":"1000619","ADDRESS":"台中市太平區樹孝路69號","TEL":"0809-000-166","COUNTYNAME":"台中市","TOWNNAME":"太平區","MARKTYPE":"994","Class":"4"}},{"type":"Feature","id":13322,"geometry":{"type":"Point","coordinates":[120.73411943741387,24.149427408159028]},"properties":{"OBJECTID":13322,"LANDMARKID":"1000600000878","LANDMARKCO":"402","LANDMARKNA":"亞太行動寬頻電信-台中太平加盟服務中心","LANDMARKAD":"1000619","ADDRESS":"台中市太平區新福里中山路四段161號","TEL":"04-23959509","COUNTYNAME":"台中市","TOWNNAME":"太平區","MARKTYPE":"994","Class":"4"}},{"type":"Feature","id":13323,"geometry":{"type":"Point","coordinates":[120.71218375402181,24.126350479573937]},"properties":{"OBJECTID":13323,"LANDMARKID":"1000600000879","LANDMARKCO":"402","LANDMARKNA":"亞太行動寬頻電信-太平中興加盟服務中心","LANDMARKAD":"1000619","ADDRESS":"台中市太平區太平路626號","TEL":"04-23515158","COUNTYNAME":"台中市","TOWNNAME":"太平區","MARKTYPE":"994","Class":"4"}},{"type":"Feature","id":13324,"geometry":{"type":"Point","coordinates":[120.70245374881038,24.148194840066441]},"properties":{"OBJECTID":13324,"LANDMARKID":"1000600000880","LANDMARKCO":"402","LANDMARKNA":"亞太行動寬頻電信-太平中山加盟服務中心","LANDMARKAD":"1000619","ADDRESS":"台中市太平區中山路3段198號","TEL":"04-22752435","COUNTYNAME":"台中市","TOWNNAME":"太平區","MARKTYPE":"994","Class":"4"}},{"type":"Feature","id":13325,"geometry":{"type":"Point","coordinates":[120.72102395097211,24.133844052099651]},"properties":{"OBJECTID":13325,"LANDMARKID":"1000600000881","LANDMARKCO":"402","LANDMARKNA":"亞太行動寬頻電信-太平東平加盟服務中心","LANDMARKAD":"1000619","ADDRESS":"台中市太平區東平路610號","TEL":"04-23511569","COUNTYNAME":"台中市","TOWNNAME":"太平區","MARKTYPE":"994","Class":"4"}},{"type":"Feature","id":13326,"geometry":{"type":"Point","coordinates":[120.71556360644718,24.127387264745209]},"properties":{"OBJECTID":13326,"LANDMARKID":"1000600000755","LANDMARKCO":"401","LANDMARKNA":"太平澄清醫院","LANDMARKAD":"1000619","ADDRESS":"台中市太平區中興路92號","TEL":"04-22789900","COUNTYNAME":"台中市","TOWNNAME":"太平區","MARKTYPE":"994","Class":"4"}},{"type":"Feature","id":13327,"geometry":{"type":"Point","coordinates":[120.72978527847611,24.150438355586097]},"properties":{"OBJECTID":13327,"LANDMARKID":"1000600000756","LANDMARKCO":"401","LANDMARKNA":"國軍台中總醫院附設民眾診療服務處","LANDMARKAD":"1000619","ADDRESS":"台中市太平區中山路二段348號","TEL":"04-23934191","COUNTYNAME":"台中市","TOWNNAME":"太平區","MARKTYPE":"994","Class":"4"}},{"type":"Feature","id":13328,"geometry":{"type":"Point","coordinates":[120.71420999584483,24.145034567430667]},"properties":{"OBJECTID":13328,"LANDMARKID":"1000600000757","LANDMARKCO":"401","LANDMARKNA":"賢德醫院","LANDMARKAD":"1000619","ADDRESS":"台中市太平區宜欣里宜昌路420號","TEL":"04-22732551","COUNTYNAME":"台中市","TOWNNAME":"太平區","MARKTYPE":"994","Class":"4"}},{"type":"Feature","id":13329,"geometry":{"type":"Point","coordinates":[120.73681748385989,24.122879314857464]},"properties":{"OBJECTID":13329,"LANDMARKID":"1000600001303","LANDMARKCO":"507","LANDMARKNA":"吳鸞旂墓園","LANDMARKAD":"1000619","ADDRESS":"台中市太平區車籠埔小段10地號","TEL":" ","COUNTYNAME":"台中市","TOWNNAME":"太平區","MARKTYPE":"995","Class":"5"}},{"type":"Feature","id":13330,"geometry":{"type":"Point","coordinates":[120.71978510221552,24.119925312826847]},"properties":{"OBJECTID":13330,"LANDMARKID":"1000600001185","LANDMARKCO":"408","LANDMARKNA":"郵局-太平長億郵局","LANDMARKAD":"1000619","ADDRESS":"台中市太平區長億一街53號","TEL":"(04)2270-2910","COUNTYNAME":"台中市","TOWNNAME":"太平區","MARKTYPE":"994","Class":"4"}},{"type":"Feature","id":13331,"geometry":{"type":"Point","coordinates":[120.72887280509855,24.105189037401903]},"properties":{"OBJECTID":13331,"LANDMARKID":"1000600001186","LANDMARKCO":"408","LANDMARKNA":"郵局-太平竹仔坑郵局","LANDMARKAD":"1000619","ADDRESS":"台中市太平區光興路517號","TEL":"(04)2271-0932","COUNTYNAME":"台中市","TOWNNAME":"太平區","MARKTYPE":"994","Class":"4"}},{"type":"Feature","id":13332,"geometry":{"type":"Point","coordinates":[120.71961130224588,24.130109798581159]},"properties":{"OBJECTID":13332,"LANDMARKID":"1000600001187","LANDMARKCO":"408","LANDMARKNA":"郵局-太平郵局","LANDMARKAD":"1000619","ADDRESS":"台中市太平區中興東路25號","TEL":"(04)2279-0919","COUNTYNAME":"台中市","TOWNNAME":"太平區","MARKTYPE":"994","Class":"4"}},{"type":"Feature","id":13333,"geometry":{"type":"Point","coordinates":[120.70354787463768,24.113891010151676]},"properties":{"OBJECTID":13333,"LANDMARKID":"1000600001188","LANDMARKCO":"408","LANDMARKNA":"郵局-太平永豐路郵局","LANDMARKAD":"1000619","ADDRESS":"台中市太平區永豐路338號","TEL":"(04)2278-2575","COUNTYNAME":"台中市","TOWNNAME":"太平區","MARKTYPE":"994","Class":"4"}},{"type":"Feature","id":13334,"geometry":{"type":"Point","coordinates":[120.7341826971703,24.145074554178013]},"properties":{"OBJECTID":13334,"LANDMARKID":"1000600001189","LANDMARKCO":"408","LANDMARKNA":"郵局-太平坪林郵局","LANDMARKAD":"1000619","ADDRESS":"台中市太平區中山路1段325號","TEL":"(04)2392-2841","COUNTYNAME":"台中市","TOWNNAME":"太平區","MARKTYPE":"994","Class":"4"}},{"type":"Feature","id":13335,"geometry":{"type":"Point","coordinates":[120.71255938245049,24.149733807700283]},"properties":{"OBJECTID":13335,"LANDMARKID":"1000600001190","LANDMARKCO":"408","LANDMARKNA":"郵局-太平宜欣郵局","LANDMARKAD":"1000619","ADDRESS":"台中市太平區中山路4段27號","TEL":"(04)2398-0539","COUNTYNAME":"台中市","TOWNNAME":"太平區","MARKTYPE":"994","Class":"4"}},{"type":"Feature","id":13336,"geometry":{"type":"Point","coordinates":[120.71468523818938,24.124395307231609]},"properties":{"OBJECTID":13336,"LANDMARKID":"1000600001238","LANDMARKCO":"409","LANDMARKNA":"太平區農會","LANDMARKAD":"1000619","ADDRESS":"台中市太平區太平路483號","TEL":"04-2278114","COUNTYNAME":"台中市","TOWNNAME":"太平區","MARKTYPE":"994","Class":"4"}},{"type":"Feature","id":13337,"geometry":{"type":"Point","coordinates":[120.71363220666413,24.1525782024896]},"properties":{"OBJECTID":13337,"LANDMARKID":"1000600001105","LANDMARKCO":"406","LANDMARKNA":"立德公園","LANDMARKAD":"1000619","ADDRESS":"台中市太平區","TEL":" ","COUNTYNAME":"台中市","TOWNNAME":"太平區","MARKTYPE":"994","Class":"4"}},{"type":"Feature","id":13338,"geometry":{"type":"Point","coordinates":[120.72481711671824,24.146418421871651]},"properties":{"OBJECTID":13338,"LANDMARKID":"1000600001106","LANDMARKCO":"406","LANDMARKNA":"太平運動公園","LANDMARKAD":"1000619","ADDRESS":"台中市太平區","TEL":" ","COUNTYNAME":"台中市","TOWNNAME":"太平區","MARKTYPE":"994","Class":"4"}},{"type":"Feature","id":13355,"geometry":{"type":"Point","coordinates":[120.73471875701772,24.115796732078103]},"properties":{"OBJECTID":13355,"LANDMARKID":"1000600000569","LANDMARKCO":"205","LANDMARKNA":"明梨園北管曲藝館","LANDMARKAD":"1000619","ADDRESS":"台中市太平區興隆里新坪80號","TEL":"04-22731193","COUNTYNAME":"台中市","TOWNNAME":"太平區","MARKTYPE":"992","Class":"2"}},{"type":"Feature","id":13380,"geometry":{"type":"Point","coordinates":[120.75663560220055,24.15680226977738]},"properties":{"OBJECTID":13380,"LANDMARKID":"1000600000447","LANDMARKCO":"203","LANDMARKNA":"縣立坪林國小坪廓分校","LANDMARKAD":"1000619","ADDRESS":"台中市太平區廓子坑路95號","TEL":"04-23924646","COUNTYNAME":"台中市","TOWNNAME":"太平區","MARKTYPE":"992","Class":"2"}},{"type":"Feature","id":13381,"geometry":{"type":"Point","coordinates":[120.72066721368792,24.130639427054131]},"properties":{"OBJECTID":13381,"LANDMARKID":"1000600000666","LANDMARKCO":"303","LANDMARKNA":"太平區中興立體停車場","LANDMARKAD":"1000619","ADDRESS":"台中市太平區中興東路77號","TEL":" ","COUNTYNAME":"台中市","TOWNNAME":"太平區","MARKTYPE":"993","Class":"303"}},{"type":"Feature","id":13382,"geometry":{"type":"Point","coordinates":[120.71664767422537,24.143354456748273]},"properties":{"OBJECTID":13382,"LANDMARKID":"1000600000667","LANDMARKCO":"303","LANDMARKNA":"宜欣停車場","LANDMARKAD":"1000619","ADDRESS":"台中市太平區宜欣路","TEL":" ","COUNTYNAME":"台中市","TOWNNAME":"太平區","MARKTYPE":"993","Class":"303"}},{"type":"Feature","id":13383,"geometry":{"type":"Point","coordinates":[120.774916423183,24.103680081888061]},"properties":{"OBJECTID":13383,"LANDMARKID":"1000600000668","LANDMARKCO":"303","LANDMARKNA":"非洲觀光鱷魚養殖場停車場","LANDMARKAD":"1000619","ADDRESS":"台中市太平區長龍路三段268號","TEL":"04-22798155","COUNTYNAME":"台中市","TOWNNAME":"太平區","MARKTYPE":"993","Class":"303"}},{"type":"Feature","id":13384,"geometry":{"type":"Point","coordinates":[120.71592659697686,24.149107519385311]},"properties":{"OBJECTID":13384,"LANDMARKID":"1000600000669","LANDMARKCO":"303","LANDMARKNA":"新平公有停車場","LANDMARKAD":"1000619","ADDRESS":"台中市太平區","TEL":" ","COUNTYNAME":"台中市","TOWNNAME":"太平區","MARKTYPE":"993","Class":"303"}},{"type":"Feature","id":13385,"geometry":{"type":"Point","coordinates":[120.71866989415663,24.129398142517186]},"properties":{"OBJECTID":13385,"LANDMARKID":"1000600000860","LANDMARKCO":"402","LANDMARKNA":"中華電信-太平中興特約服務中心","LANDMARKAD":"1000619","ADDRESS":"台中市太平區中興東路1號","TEL":"04-22777979","COUNTYNAME":"台中市","TOWNNAME":"太平區","MARKTYPE":"994","Class":"4"}},{"type":"Feature","id":13386,"geometry":{"type":"Point","coordinates":[120.71573132424024,24.149518840774586]},"properties":{"OBJECTID":13386,"LANDMARKID":"1000600000861","LANDMARKCO":"402","LANDMARKNA":"中華電信-太平服務中心","LANDMARKAD":"1000619","ADDRESS":"台中市太平區樹孝路25號","TEL":"123或0800-080-123","COUNTYNAME":"台中市","TOWNNAME":"太平區","MARKTYPE":"994","Class":"4"}},{"type":"Feature","id":13387,"geometry":{"type":"Point","coordinates":[120.71030776702578,24.1498611059104]},"properties":{"OBJECTID":13387,"LANDMARKID":"1000600000862","LANDMARKCO":"402","LANDMARKNA":"威寶電信-太平樹德特約服務中心","LANDMARKAD":"1000619","ADDRESS":"台中市太平區樹德路7號","TEL":"04-23956000","COUNTYNAME":"台中市","TOWNNAME":"太平區","MARKTYPE":"994","Class":"4"}},{"type":"Feature","id":13388,"geometry":{"type":"Point","coordinates":[120.71252290145303,24.125938736909742]},"properties":{"OBJECTID":13388,"LANDMARKID":"1000600000863","LANDMARKCO":"402","LANDMARKNA":"威寶電信-太平太平特約服務中心","LANDMARKAD":"1000619","ADDRESS":"台中市太平區太平路600號","TEL":"04-22758090","COUNTYNAME":"台中市","TOWNNAME":"太平區","MARKTYPE":"994","Class":"4"}},{"type":"Feature","id":13389,"geometry":{"type":"Point","coordinates":[120.70499245583149,24.148330370082451]},"properties":{"OBJECTID":13389,"LANDMARKID":"1000600000864","LANDMARKCO":"402","LANDMARKNA":"威寶電信-太平中山特約服務中心","LANDMARKAD":"1000619","ADDRESS":"台中市太平區中山路四段118號","TEL":"04-23952389","COUNTYNAME":"台中市","TOWNNAME":"太平區","MARKTYPE":"994","Class":"4"}},{"type":"Feature","id":13390,"geometry":{"type":"Point","coordinates":[120.72015480095399,24.149150377098273]},"properties":{"OBJECTID":13390,"LANDMARKID":"1000600000865","LANDMARKCO":"402","LANDMARKNA":"大眾電信-太平專賣店","LANDMARKAD":"1000619","ADDRESS":"台中市太平區中山路四段88號","TEL":"04-23955959","COUNTYNAME":"台中市","TOWNNAME":"太平區","MARKTYPE":"994","Class":"4"}},{"type":"Feature","id":13391,"geometry":{"type":"Point","coordinates":[120.71471167380942,24.126950612602332]},"properties":{"OBJECTID":13391,"LANDMARKID":"1000600000866","LANDMARKCO":"402","LANDMARKNA":"大眾電信(震旦通訊)-太平中興店","LANDMARKAD":"1000619","ADDRESS":"台中市太平區中興路132號","TEL":"04-22796688","COUNTYNAME":"台中市","TOWNNAME":"太平區","MARKTYPE":"994","Class":"4"}},{"type":"Feature","id":13392,"geometry":{"type":"Point","coordinates":[120.82011611454769,24.122150001694862]},"properties":{"OBJECTID":13392,"LANDMARKID":"1000600001263","LANDMARKCO":"503","LANDMARKNA":"仙女瀑布","LANDMARKAD":"1000619","ADDRESS":"台中市太平區","TEL":" ","COUNTYNAME":"台中市","TOWNNAME":"太平區","MARKTYPE":"995","Class":"5"}},{"type":"Feature","id":13393,"geometry":{"type":"Point","coordinates":[120.77505063878297,24.103701942844811]},"properties":{"OBJECTID":13393,"LANDMARKID":"1000600001287","LANDMARKCO":"505","LANDMARKNA":"非洲觀光鱷魚養殖場","LANDMARKAD":"1000619","ADDRESS":"台中市太平區長龍路三段268號","TEL":"04-22798155","COUNTYNAME":"台中市","TOWNNAME":"太平區","MARKTYPE":"995","Class":"5"}},{"type":"Feature","id":13394,"geometry":{"type":"Point","coordinates":[120.76059413268908,24.12931866827822]},"properties":{"OBJECTID":13394,"LANDMARKID":"1000600001323","LANDMARKCO":"510","LANDMARKNA":"鴻禧太平高爾夫球場","LANDMARKAD":"1000619","ADDRESS":"台中市太平區頭汴里北田路265巷9號","TEL":"04-22703470","COUNTYNAME":"台中市","TOWNNAME":"太平區","MARKTYPE":"995","Class":"5"}},{"type":"Feature","id":13395,"geometry":{"type":"Point","coordinates":[120.68929414385204,24.117215957211968]},"properties":{"OBJECTID":13395,"LANDMARKID":"1000600001049","LANDMARKCO":"405","LANDMARKNA":"中油加油站-南門橋站(中油直營)","LANDMARKAD":"1000620","ADDRESS":"台中市大里區西榮里中興路二段691號","TEL":"04-24826451","COUNTYNAME":"台中市","TOWNNAME":"大里區","MARKTYPE":"994","Class":"4"}},{"type":"Feature","id":13396,"geometry":{"type":"Point","coordinates":[120.69709619435061,24.083587819574767]},"properties":{"OBJECTID":13396,"LANDMARKID":"1000600001050","LANDMARKCO":"405","LANDMARKNA":"中油加油站-東湖站","LANDMARKAD":"1000620","ADDRESS":"台中市大里區中興路一段109-1號","TEL":"04-24951468","COUNTYNAME":"台中市","TOWNNAME":"大里區","MARKTYPE":"994","Class":"4"}},{"type":"Feature","id":13356,"geometry":{"type":"Point","coordinates":[120.72173486859168,24.119210271203947]},"properties":{"OBJECTID":13356,"LANDMARKID":"1000600000542","LANDMARKCO":"204","LANDMARKNA":"台中市立圖書館太平分館","LANDMARKAD":"1000619","ADDRESS":"台中市太平區太平二街2之1號","TEL":" ","COUNTYNAME":"台中市","TOWNNAME":"太平區","MARKTYPE":"992","Class":"2"}},{"type":"Feature","id":13357,"geometry":{"type":"Point","coordinates":[120.7275531884746,24.10321187346371]},"properties":{"OBJECTID":13357,"LANDMARKID":"1000600000458","LANDMARKCO":"203","LANDMARKNA":"縣立光隆國小","LANDMARKAD":"1000619","ADDRESS":"台中市太平區光隆村光興路487巷5號","TEL":"04-22713625","COUNTYNAME":"台中市","TOWNNAME":"太平區","MARKTYPE":"992","Class":"2"}},{"type":"Feature","id":13358,"geometry":{"type":"Point","coordinates":[120.72326528851507,24.13290812104637]},"properties":{"OBJECTID":13358,"LANDMARKID":"1000600000459","LANDMARKCO":"203","LANDMARKNA":"縣立東平國小","LANDMARKAD":"1000619","ADDRESS":"台中市太平區中興東路213號","TEL":"04-22767834","COUNTYNAME":"台中市","TOWNNAME":"太平區","MARKTYPE":"992","Class":"2"}},{"type":"Feature","id":13359,"geometry":{"type":"Point","coordinates":[120.79591437243897,24.117492014477452]},"properties":{"OBJECTID":13359,"LANDMARKID":"1000600000460","LANDMARKCO":"203","LANDMARKNA":"縣立東汴國小","LANDMARKAD":"1000619","ADDRESS":"台中市太平區東汴里山田路100號","TEL":"04-22702664","COUNTYNAME":"台中市","TOWNNAME":"太平區","MARKTYPE":"992","Class":"2"}},{"type":"Feature","id":13360,"geometry":{"type":"Point","coordinates":[120.75209644377324,24.122936563858953]},"properties":{"OBJECTID":13360,"LANDMARKID":"1000600000461","LANDMARKCO":"203","LANDMARKNA":"縣立頭汴國小","LANDMARKAD":"1000619","ADDRESS":"台中市太平區頭汴里北田路20號","TEL":"04-22703129#82","COUNTYNAME":"台中市","TOWNNAME":"太平區","MARKTYPE":"992","Class":"2"}},{"type":"Feature","id":13361,"geometry":{"type":"Point","coordinates":[120.72102702393923,24.112950161624941]},"properties":{"OBJECTID":13361,"LANDMARKID":"1000600000462","LANDMARKCO":"203","LANDMARKNA":"縣立長億國小","LANDMARKAD":"1000619","ADDRESS":"台中市太平區長億六街一號","TEL":"04-22737653","COUNTYNAME":"台中市","TOWNNAME":"太平區","MARKTYPE":"992","Class":"2"}},{"type":"Feature","id":13362,"geometry":{"type":"Point","coordinates":[120.72606032744974,24.147992170646411]},"properties":{"OBJECTID":13362,"LANDMARKID":"1000600000463","LANDMARKCO":"203","LANDMARKNA":"縣立中華國小","LANDMARKAD":"1000619","ADDRESS":"台中市太平區大源路1之20號","TEL":"04-23920870","COUNTYNAME":"台中市","TOWNNAME":"太平區","MARKTYPE":"992","Class":"2"}},{"type":"Feature","id":13363,"geometry":{"type":"Point","coordinates":[120.73298758180076,24.109632028003475]},"properties":{"OBJECTID":13363,"LANDMARKID":"1000600000464","LANDMARKCO":"203","LANDMARKNA":"縣立車籠埔國小","LANDMARKAD":"1000619","ADDRESS":"台中市太平區光明路10-2號","TEL":"04-22763928","COUNTYNAME":"台中市","TOWNNAME":"太平區","MARKTYPE":"992","Class":"2"}},{"type":"Feature","id":13364,"geometry":{"type":"Point","coordinates":[120.72062728559293,24.114098585035148]},"properties":{"OBJECTID":13364,"LANDMARKID":"1000600000295","LANDMARKCO":"202","LANDMARKNA":"縣立長億高中","LANDMARKAD":"1000619","ADDRESS":"台中市太平區長億村長億六街1號","TEL":"04-22799267","COUNTYNAME":"台中市","TOWNNAME":"太平區","MARKTYPE":"992","Class":"2"}},{"type":"Feature","id":13365,"geometry":{"type":"Point","coordinates":[120.72448655340335,24.106500185605963]},"properties":{"OBJECTID":13365,"LANDMARKID":"1000600000296","LANDMARKCO":"202","LANDMARKNA":"私立慈明高中","LANDMARKAD":"1000619","ADDRESS":"台中市太平區光德路388號","TEL":"04-22713911","COUNTYNAME":"台中市","TOWNNAME":"太平區","MARKTYPE":"992","Class":"2"}},{"type":"Feature","id":13366,"geometry":{"type":"Point","coordinates":[120.72062728559293,24.114098585035148]},"properties":{"OBJECTID":13366,"LANDMARKID":"1000600000297","LANDMARKCO":"202","LANDMARKNA":"縣立長億高中附設國中部","LANDMARKAD":"1000619","ADDRESS":"台中市太平區長億里長億六街1號","TEL":"04-22799267","COUNTYNAME":"台中市","TOWNNAME":"太平區","MARKTYPE":"992","Class":"2"}},{"type":"Feature","id":13367,"geometry":{"type":"Point","coordinates":[120.71904469450708,24.123412696087222]},"properties":{"OBJECTID":13367,"LANDMARKID":"1000600000448","LANDMARKCO":"203","LANDMARKNA":"縣立中平國中","LANDMARKAD":"1000619","ADDRESS":"台中市太平區中平村太平路300號","TEL":"04-22767416","COUNTYNAME":"台中市","TOWNNAME":"太平區","MARKTYPE":"992","Class":"2"}},{"type":"Feature","id":13368,"geometry":{"type":"Point","coordinates":[120.70907382211257,24.157668756560696]},"properties":{"OBJECTID":13368,"LANDMARKID":"1000600000449","LANDMARKCO":"203","LANDMARKNA":"縣立新光國中","LANDMARKAD":"1000619","ADDRESS":"台中市太平區樹德九街139號","TEL":"04-23957597","COUNTYNAME":"台中市","TOWNNAME":"太平區","MARKTYPE":"992","Class":"2"}},{"type":"Feature","id":13369,"geometry":{"type":"Point","coordinates":[120.71768039252898,24.12783312779014]},"properties":{"OBJECTID":13369,"LANDMARKID":"1000600000450","LANDMARKCO":"203","LANDMARKNA":"縣立太平國小","LANDMARKAD":"1000619","ADDRESS":"台中市太平區中平里中興路35號","TEL":"04-22783631","COUNTYNAME":"台中市","TOWNNAME":"太平區","MARKTYPE":"992","Class":"2"}},{"type":"Feature","id":13370,"geometry":{"type":"Point","coordinates":[120.76458668424559,24.07984046175309]},"properties":{"OBJECTID":13370,"LANDMARKID":"1000600000451","LANDMARKCO":"203","LANDMARKNA":"縣立黃竹國小","LANDMARKAD":"1000619","ADDRESS":"台中市太平區黃竹村竹村路41號","TEL":"04-22715933","COUNTYNAME":"台中市","TOWNNAME":"太平區","MARKTYPE":"992","Class":"2"}},{"type":"Feature","id":13371,"geometry":{"type":"Point","coordinates":[120.73675588524701,24.144977423490161]},"properties":{"OBJECTID":13371,"LANDMARKID":"1000600000452","LANDMARKCO":"203","LANDMARKNA":"縣立坪林國小","LANDMARKAD":"1000619","ADDRESS":"台中市太平區坪林村坪林路45號","TEL":"04-23927677","COUNTYNAME":"台中市","TOWNNAME":"太平區","MARKTYPE":"992","Class":"2"}},{"type":"Feature","id":13372,"geometry":{"type":"Point","coordinates":[120.70654788951968,24.152276987105033]},"properties":{"OBJECTID":13372,"LANDMARKID":"1000600000453","LANDMARKCO":"203","LANDMARKNA":"縣立新光國小","LANDMARKAD":"1000619","ADDRESS":"台中市太平區新光里樹德一街136巷30號","TEL":"04-23956005","COUNTYNAME":"台中市","TOWNNAME":"太平區","MARKTYPE":"992","Class":"2"}},{"type":"Feature","id":13373,"geometry":{"type":"Point","coordinates":[120.72449199683069,24.124178006900792]},"properties":{"OBJECTID":13373,"LANDMARKID":"1000600000454","LANDMARKCO":"203","LANDMARKNA":"縣立建平國小","LANDMARKAD":"1000619","ADDRESS":"台中市太平區精美路201號","TEL":"04-22779532","COUNTYNAME":"台中市","TOWNNAME":"太平區","MARKTYPE":"992","Class":"2"}},{"type":"Feature","id":13374,"geometry":{"type":"Point","coordinates":[120.71977905902111,24.154907865288148]},"properties":{"OBJECTID":13374,"LANDMARKID":"1000600000455","LANDMARKCO":"203","LANDMARKNA":"縣立新平國小","LANDMARKAD":"1000619","ADDRESS":"台中市太平區樹孝路336巷9號","TEL":"04-23914533","COUNTYNAME":"台中市","TOWNNAME":"太平區","MARKTYPE":"992","Class":"2"}},{"type":"Feature","id":13375,"geometry":{"type":"Point","coordinates":[120.72960110343308,24.144658962184344]},"properties":{"OBJECTID":13375,"LANDMARKID":"1000600000272","LANDMARKCO":"201","LANDMARKNA":"國立勤益技術學院","LANDMARKAD":"1000619","ADDRESS":"台中市太平區中山路一段215巷35號","TEL":"04-23924505","COUNTYNAME":"台中市","TOWNNAME":"太平區","MARKTYPE":"992","Class":"2"}},{"type":"Feature","id":13376,"geometry":{"type":"Point","coordinates":[120.7340238943851,24.147283204600697]},"properties":{"OBJECTID":13376,"LANDMARKID":"1000600000456","LANDMARKCO":"203","LANDMARKNA":"縣立太平國中","LANDMARKAD":"1000619","ADDRESS":"台中市太平區中山路二段116號","TEL":"04-22702540","COUNTYNAME":"台中市","TOWNNAME":"太平區","MARKTYPE":"992","Class":"2"}},{"type":"Feature","id":13377,"geometry":{"type":"Point","coordinates":[120.7154502485907,24.139937664768166]},"properties":{"OBJECTID":13377,"LANDMARKID":"1000600000457","LANDMARKCO":"203","LANDMARKNA":"縣立宜欣國小","LANDMARKAD":"1000619","ADDRESS":"台中市太平區宜欣村新平路二段100號","TEL":"04-22701567","COUNTYNAME":"台中市","TOWNNAME":"太平區","MARKTYPE":"992","Class":"2"}},{"type":"Feature","id":13378,"geometry":{"type":"Point","coordinates":[120.74533233476041,24.158318573279498]},"properties":{"OBJECTID":13378,"LANDMARKID":"1000600000298","LANDMARKCO":"202","LANDMARKNA":"私立華盛頓高中","LANDMARKAD":"1000619","ADDRESS":"台中市太平區部仔路26號","TEL":"04-23934712","COUNTYNAME":"台中市","TOWNNAME":"太平區","MARKTYPE":"992","Class":"2"}},{"type":"Feature","id":13379,"geometry":{"type":"Point","coordinates":[120.74560895394977,24.15804861526393]},"properties":{"OBJECTID":13379,"LANDMARKID":"1000600000299","LANDMARKCO":"202","LANDMARKNA":"私立華盛頓高中附設國中部","LANDMARKAD":"1000619","ADDRESS":"台中市太平區部仔路26號","TEL":"04-23934712","COUNTYNAME":"台中市","TOWNNAME":"太平區","MARKTYPE":"992","Class":"2"}},{"type":"Feature","id":13397,"geometry":{"type":"Point","coordinates":[120.68037532027283,24.095524488981294]},"properties":{"OBJECTID":13397,"LANDMARKID":"1000600001051","LANDMARKCO":"405","LANDMARKNA":"統一速邁樂加油站-大里三站(中油)","LANDMARKAD":"1000620","ADDRESS":"台中市大里區國中路285號","TEL":"04-24967506","COUNTYNAME":"台中市","TOWNNAME":"大里區","MARKTYPE":"994","Class":"4"}},{"type":"Feature","id":13398,"geometry":{"type":"Point","coordinates":[120.68921562673226,24.076399718817989]},"properties":{"OBJECTID":13398,"LANDMARKID":"1000600001052","LANDMARKCO":"405","LANDMARKNA":"中油加油站-明維站","LANDMARKAD":"1000620","ADDRESS":"台中市大里區大峰路135號","TEL":"04-24935936","COUNTYNAME":"台中市","TOWNNAME":"大里區","MARKTYPE":"994","Class":"4"}},{"type":"Feature","id":13399,"geometry":{"type":"Point","coordinates":[120.69009678251561,24.075506506967692]},"properties":{"OBJECTID":13399,"LANDMARKID":"1000600001053","LANDMARKCO":"405","LANDMARKNA":"中油加油站-西湖站","LANDMARKAD":"1000620","ADDRESS":"台中市大里區西湖里大峰路32號","TEL":"04-24924958","COUNTYNAME":"台中市","TOWNNAME":"大里區","MARKTYPE":"994","Class":"4"}},{"type":"Feature","id":13400,"geometry":{"type":"Point","coordinates":[120.69574922905434,24.08855565689527]},"properties":{"OBJECTID":13400,"LANDMARKID":"1000600001054","LANDMARKCO":"405","LANDMARKNA":"統一速邁樂加油站-大里加油站(中油)","LANDMARKAD":"1000620","ADDRESS":"台中市大里區中興路一段294號","TEL":" ","COUNTYNAME":"台中市","TOWNNAME":"大里區","MARKTYPE":"994","Class":"4"}}]}