{"type":"FeatureCollection","features":[{"type":"Feature","id":27601,"geometry":{"type":"Point","coordinates":[120.57933605419558,23.962829902477349]},"properties":{"OBJECTID":27601,"LANDMARKID":"1000700000118","LANDMARKCO":"106","LANDMARKNA":"彰化縣員林鎮戶政事務所","LANDMARKAD":"1000710","ADDRESS":"彰化縣員林鎮三和里11鄰和平東街1號","TEL":"04-8368395","COUNTYNAME":"彰化縣","TOWNNAME":"員林鎮","MARKTYPE":"991","Class":"1"}},{"type":"Feature","id":27602,"geometry":{"type":"Point","coordinates":[120.5718046472696,23.966423191862489]},"properties":{"OBJECTID":27602,"LANDMARKID":"1000700000014","LANDMARKCO":"101","LANDMARKNA":"台灣彰化地方法院","LANDMARKAD":"1000710","ADDRESS":"彰化縣員林鎮中山路二段240號","TEL":"04-8343171","COUNTYNAME":"彰化縣","TOWNNAME":"員林鎮","MARKTYPE":"991","Class":"1"}},{"type":"Feature","id":27603,"geometry":{"type":"Point","coordinates":[120.572741477693,23.961544723971318]},"properties":{"OBJECTID":27603,"LANDMARKID":"1000700000015","LANDMARKCO":"101","LANDMARKNA":"農糧署中區分署","LANDMARKAD":"1000710","ADDRESS":"彰化縣員林鎮和平街11號","TEL":"04-8321911","COUNTYNAME":"彰化縣","TOWNNAME":"員林鎮","MARKTYPE":"991","Class":"1"}},{"type":"Feature","id":27604,"geometry":{"type":"Point","coordinates":[120.57432873058688,23.959080468046441]},"properties":{"OBJECTID":27604,"LANDMARKID":"1000700000263","LANDMARKCO":"108","LANDMARKNA":"彰化縣員林鎮公所","LANDMARKAD":"1000710","ADDRESS":"彰化縣員林鎮三民街18號","TEL":"04-8347171","COUNTYNAME":"彰化縣","TOWNNAME":"員林鎮","MARKTYPE":"991","Class":"1"}},{"type":"Feature","id":27605,"geometry":{"type":"Point","coordinates":[120.57432873058688,23.959080468046441]},"properties":{"OBJECTID":27605,"LANDMARKID":"1000700000061","LANDMARKCO":"103","LANDMARKNA":"彰化縣員林鎮鎮民代表會","LANDMARKAD":"1000710","ADDRESS":"彰化縣員林鎮三民街18號","TEL":"04-8321513","COUNTYNAME":"彰化縣","TOWNNAME":"員林鎮","MARKTYPE":"991","Class":"1"}},{"type":"Feature","id":27606,"geometry":{"type":"Point","coordinates":[120.57879874934396,23.962696659595426]},"properties":{"OBJECTID":27606,"LANDMARKID":"1000700000228","LANDMARKCO":"107","LANDMARKNA":"彰化縣消防局員林消防分隊","LANDMARKAD":"1000710","ADDRESS":"彰化縣員林鎮和平東街21號","TEL":"04-8320300","COUNTYNAME":"彰化縣","TOWNNAME":"員林鎮","MARKTYPE":"991","Class":"1"}},{"type":"Feature","id":27607,"geometry":{"type":"Point","coordinates":[120.55829840858708,23.958819543077166]},"properties":{"OBJECTID":27607,"LANDMARKID":"1000700000229","LANDMARKCO":"107","LANDMARKNA":"彰化縣消防局員林西區消防分隊","LANDMARKAD":"1000710","ADDRESS":"彰化縣員林鎮源泉路78號之100","TEL":"04-8382968","COUNTYNAME":"彰化縣","TOWNNAME":"員林鎮","MARKTYPE":"991","Class":"1"}},{"type":"Feature","id":27608,"geometry":{"type":"Point","coordinates":[120.57956629978551,23.962523889228823]},"properties":{"OBJECTID":27608,"LANDMARKID":"1000700000230","LANDMARKCO":"107","LANDMARKNA":"彰化縣警察局員林分局","LANDMARKAD":"1000710","ADDRESS":"彰化縣員林鎮三和里大同路一段319號","TEL":"04-8320114","COUNTYNAME":"彰化縣","TOWNNAME":"員林鎮","MARKTYPE":"991","Class":"1"}},{"type":"Feature","id":27609,"geometry":{"type":"Point","coordinates":[120.57956629978551,23.962523889228823]},"properties":{"OBJECTID":27609,"LANDMARKID":"1000700000231","LANDMARKCO":"107","LANDMARKNA":"彰化縣警察局員林派出所","LANDMARKAD":"1000710","ADDRESS":"彰化縣員林鎮三和里大同路一段319號","TEL":"04-8320767","COUNTYNAME":"彰化縣","TOWNNAME":"員林鎮","MARKTYPE":"991","Class":"1"}},{"type":"Feature","id":27610,"geometry":{"type":"Point","coordinates":[120.56200117929581,23.962457150684781]},"properties":{"OBJECTID":27610,"LANDMARKID":"1000700000232","LANDMARKCO":"107","LANDMARKNA":"彰化縣警察局莒光派出所","LANDMARKAD":"1000710","ADDRESS":"彰化縣員林鎮南興里員大路一段17號","TEL":"04-8357857","COUNTYNAME":"彰化縣","TOWNNAME":"員林鎮","MARKTYPE":"991","Class":"1"}},{"type":"Feature","id":27611,"geometry":{"type":"Point","coordinates":[120.58010156233649,23.962608176049361]},"properties":{"OBJECTID":27611,"LANDMARKID":"1000700000110","LANDMARKCO":"105","LANDMARKNA":"彰化縣員林地政事務所","LANDMARKAD":"1000710","ADDRESS":"彰化縣員林鎮三和里大同路一段318號","TEL":"04-8320310","COUNTYNAME":"彰化縣","TOWNNAME":"員林鎮","MARKTYPE":"991","Class":"1"}},{"type":"Feature","id":27612,"geometry":{"type":"Point","coordinates":[120.56422915703834,23.952331330857486]},"properties":{"OBJECTID":27612,"LANDMARKID":"1000700000103","LANDMARKCO":"104","LANDMARKNA":"中區國稅局員林稽徵所","LANDMARKAD":"1000710","ADDRESS":"彰化縣員林鎮惠明街319號","TEL":"04-8332100","COUNTYNAME":"彰化縣","TOWNNAME":"員林鎮","MARKTYPE":"991","Class":"1"}},{"type":"Feature","id":27613,"geometry":{"type":"Point","coordinates":[120.57699859678112,23.949464821159086]},"properties":{"OBJECTID":27613,"LANDMARKID":"1000700000016","LANDMARKCO":"101","LANDMARKNA":"台灣彰化地方法院員林簡易庭","LANDMARKAD":"1000710","ADDRESS":"彰化縣員林鎮中正路36號","TEL":"04-8360018","COUNTYNAME":"彰化縣","TOWNNAME":"員林鎮","MARKTYPE":"991","Class":"1"}},{"type":"Feature","id":27614,"geometry":{"type":"Point","coordinates":[120.57319378027475,23.966737364991392]},"properties":{"OBJECTID":27614,"LANDMARKID":"1000700000017","LANDMARKCO":"101","LANDMARKNA":"台灣彰化看守所","LANDMARKAD":"1000710","ADDRESS":"彰化縣員林鎮法院街73號","TEL":"04-8321381","COUNTYNAME":"彰化縣","TOWNNAME":"員林鎮","MARKTYPE":"991","Class":"1"}},{"type":"Feature","id":27615,"geometry":{"type":"Point","coordinates":[120.56565948503481,23.968530230354659]},"properties":{"OBJECTID":27615,"LANDMARKID":"1000700000018","LANDMARKCO":"101","LANDMARKNA":"內政部營建署","LANDMARKAD":"1000710","ADDRESS":"彰化縣員林鎮復興路57號","TEL":"04-8318447","COUNTYNAME":"彰化縣","TOWNNAME":"員林鎮","MARKTYPE":"991","Class":"1"}},{"type":"Feature","id":27616,"geometry":{"type":"Point","coordinates":[120.57699859678112,23.949464821159086]},"properties":{"OBJECTID":27616,"LANDMARKID":"1000700000056","LANDMARKCO":"103","LANDMARKNA":"中華民國觀護協會彰化縣分會","LANDMARKAD":"1000710","ADDRESS":"彰化縣員林鎮中正路36號","TEL":"04-8334166","COUNTYNAME":"彰化縣","TOWNNAME":"員林鎮","MARKTYPE":"991","Class":"1"}},{"type":"Feature","id":27617,"geometry":{"type":"Point","coordinates":[120.57220194468864,23.962471309266576]},"properties":{"OBJECTID":27617,"LANDMARKID":"1000700000019","LANDMARKCO":"101","LANDMARKNA":"國有財產局台灣中區辦事處彰化分處","LANDMARKAD":"1000710","ADDRESS":"彰化縣員林鎮靜修路23號","TEL":"04-8379260","COUNTYNAME":"彰化縣","TOWNNAME":"員林鎮","MARKTYPE":"991","Class":"1"}},{"type":"Feature","id":27618,"geometry":{"type":"Point","coordinates":[120.60115054908729,23.943383153333247]},"properties":{"OBJECTID":27618,"LANDMARKID":"1000700000177","LANDMARKCO":"107","LANDMARKNA":"彰化縣警察局林厝派出所","LANDMARKAD":"1000710","ADDRESS":"彰化縣員林鎮林庴里山腳路一段462號","TEL":"04-8313012","COUNTYNAME":"彰化縣","TOWNNAME":"員林鎮","MARKTYPE":"991","Class":"1"}},{"type":"Feature","id":27619,"geometry":{"type":"Point","coordinates":[120.57242348934513,23.962084725484306]},"properties":{"OBJECTID":27619,"LANDMARKID":"1000700000055","LANDMARKCO":"103","LANDMARKNA":"彰化縣員林鎮衛生所","LANDMARKAD":"1000710","ADDRESS":"彰化縣員林鎮仁美里博愛街1號","TEL":"04-8336403","COUNTYNAME":"彰化縣","TOWNNAME":"員林鎮","MARKTYPE":"991","Class":"1"}},{"type":"Feature","id":27620,"geometry":{"type":"Point","coordinates":[120.57926786051289,23.962739233202427]},"properties":{"OBJECTID":27620,"LANDMARKID":"1000700000176","LANDMARKCO":"107","LANDMARKNA":"彰化縣消防局第二消防大隊部","LANDMARKAD":"1000710","ADDRESS":"彰化縣員林鎮三和里和平東路21號2樓","TEL":"04-8378521","COUNTYNAME":"彰化縣","TOWNNAME":"員林鎮","MARKTYPE":"991","Class":"1"}},{"type":"Feature","id":27621,"geometry":{"type":"Point","coordinates":[120.5749652299845,23.959082471644965]},"properties":{"OBJECTID":27621,"LANDMARKID":"1000700000542","LANDMARKCO":"204","LANDMARKNA":"彰化縣立圖書館員林分館","LANDMARKAD":"1000710","ADDRESS":"彰化縣員林鎮三民街2之1號","TEL":" ","COUNTYNAME":"彰化縣","TOWNNAME":"員林鎮","MARKTYPE":"992","Class":"2"}},{"type":"Feature","id":27622,"geometry":{"type":"Point","coordinates":[120.60178383234114,23.967946634174123]},"properties":{"OBJECTID":27622,"LANDMARKID":"1000700000434","LANDMARKCO":"203","LANDMARKNA":"縣立東山國小","LANDMARKAD":"1000710","ADDRESS":"彰化縣員林鎮南東里山腳路四段212號","TEL":"04-8310749","COUNTYNAME":"彰化縣","TOWNNAME":"員林鎮","MARKTYPE":"992","Class":"2"}},{"type":"Feature","id":27623,"geometry":{"type":"Point","coordinates":[120.56372571728586,23.960983627642058]},"properties":{"OBJECTID":27623,"LANDMARKID":"1000700000300","LANDMARKCO":"202","LANDMARKNA":"國立員林高中","LANDMARKAD":"1000710","ADDRESS":"彰化縣員林鎮靜修路79號","TEL":"04-8320364","COUNTYNAME":"彰化縣","TOWNNAME":"員林鎮","MARKTYPE":"992","Class":"2"}},{"type":"Feature","id":27624,"geometry":{"type":"Point","coordinates":[120.55943521947093,23.963314740178689]},"properties":{"OBJECTID":27624,"LANDMARKID":"1000700000429","LANDMARKCO":"203","LANDMARKNA":"縣立員林國中","LANDMARKAD":"1000710","ADDRESS":"彰化縣員林鎮南興里南潭路2號","TEL":"04-8320873","COUNTYNAME":"彰化縣","TOWNNAME":"員林鎮","MARKTYPE":"992","Class":"2"}},{"type":"Feature","id":27625,"geometry":{"type":"Point","coordinates":[120.57872385408174,23.960388593933381]},"properties":{"OBJECTID":27625,"LANDMARKID":"1000700000430","LANDMARKCO":"203","LANDMARKNA":"縣立員林國小","LANDMARKAD":"1000710","ADDRESS":"彰化縣員林鎮三和里三民東街221號","TEL":"04-8320145","COUNTYNAME":"彰化縣","TOWNNAME":"員林鎮","MARKTYPE":"992","Class":"2"}},{"type":"Feature","id":27626,"geometry":{"type":"Point","coordinates":[120.57562541963644,23.939159919751965]},"properties":{"OBJECTID":27626,"LANDMARKID":"1000700000431","LANDMARKCO":"203","LANDMARKNA":"縣立饒明國小","LANDMARKAD":"1000710","ADDRESS":"彰化縣員林鎮中央里員集路二段131號","TEL":"04-8331020","COUNTYNAME":"彰化縣","TOWNNAME":"員林鎮","MARKTYPE":"992","Class":"2"}},{"type":"Feature","id":27627,"geometry":{"type":"Point","coordinates":[120.61581363360617,23.953083918459189]},"properties":{"OBJECTID":27627,"LANDMARKID":"1000700000432","LANDMARKCO":"203","LANDMARKNA":"縣立明湖國小","LANDMARKAD":"1000710","ADDRESS":"彰化縣員林鎮湖水里湖水巷26號","TEL":"04-8310743","COUNTYNAME":"彰化縣","TOWNNAME":"員林鎮","MARKTYPE":"992","Class":"2"}},{"type":"Feature","id":27628,"geometry":{"type":"Point","coordinates":[120.576494006994,23.950473956498708]},"properties":{"OBJECTID":27628,"LANDMARKID":"1000700000301","LANDMARKCO":"202","LANDMARKNA":"國立員林家商","LANDMARKAD":"1000710","ADDRESS":"彰化縣員林鎮中正路56號","TEL":"04-8320260","COUNTYNAME":"彰化縣","TOWNNAME":"員林鎮","MARKTYPE":"992","Class":"2"}},{"type":"Feature","id":27629,"geometry":{"type":"Point","coordinates":[120.57529190384037,23.96116162637254]},"properties":{"OBJECTID":27629,"LANDMARKID":"1000700000302","LANDMARKCO":"202","LANDMARKNA":"國立崇實高工","LANDMARKAD":"1000710","ADDRESS":"彰化縣員林鎮育英路103號","TEL":"04-8347106","COUNTYNAME":"彰化縣","TOWNNAME":"員林鎮","MARKTYPE":"992","Class":"2"}},{"type":"Feature","id":27630,"geometry":{"type":"Point","coordinates":[120.58182118912968,23.954664473418095]},"properties":{"OBJECTID":27630,"LANDMARKID":"1000700000303","LANDMARKCO":"202","LANDMARKNA":"國立員林農工","LANDMARKAD":"1000710","ADDRESS":"彰化縣員林鎮員水路二段313號","TEL":"04-8360105","COUNTYNAME":"彰化縣","TOWNNAME":"員林鎮","MARKTYPE":"992","Class":"2"}},{"type":"Feature","id":27631,"geometry":{"type":"Point","coordinates":[120.57943839573893,23.96317042459032]},"properties":{"OBJECTID":27631,"LANDMARKID":"1000700000423","LANDMARKCO":"203","LANDMARKNA":"縣立大同國中","LANDMARKAD":"1000710","ADDRESS":"彰化縣員林鎮大同路一段345號","TEL":"04-8358382","COUNTYNAME":"彰化縣","TOWNNAME":"員林鎮","MARKTYPE":"992","Class":"2"}},{"type":"Feature","id":27632,"geometry":{"type":"Point","coordinates":[120.58555489523266,23.947786388185641]},"properties":{"OBJECTID":27632,"LANDMARKID":"1000700000424","LANDMARKCO":"203","LANDMARKNA":"縣立明倫國中","LANDMARKAD":"1000710","ADDRESS":"彰化縣員林鎮萬年里明倫路2號","TEL":"04-8311349","COUNTYNAME":"彰化縣","TOWNNAME":"員林鎮","MARKTYPE":"992","Class":"2"}},{"type":"Feature","id":27633,"geometry":{"type":"Point","coordinates":[120.57161187724226,23.967035286620423]},"properties":{"OBJECTID":27633,"LANDMARKID":"1000700000425","LANDMARKCO":"203","LANDMARKNA":"縣立僑信國小","LANDMARKAD":"1000710","ADDRESS":"彰化縣員林鎮三橋里中山路二段280號","TEL":"04-8320810","COUNTYNAME":"彰化縣","TOWNNAME":"員林鎮","MARKTYPE":"992","Class":"2"}},{"type":"Feature","id":27634,"geometry":{"type":"Point","coordinates":[120.57410499821434,23.952715729397067]},"properties":{"OBJECTID":27634,"LANDMARKID":"1000700000426","LANDMARKCO":"203","LANDMARKNA":"縣立育英國小","LANDMARKAD":"1000710","ADDRESS":"彰化縣員林鎮黎明里光明街31號","TEL":"04-8320230","COUNTYNAME":"彰化縣","TOWNNAME":"員林鎮","MARKTYPE":"992","Class":"2"}},{"type":"Feature","id":27635,"geometry":{"type":"Point","coordinates":[120.58732310928845,23.96222337536372]},"properties":{"OBJECTID":27635,"LANDMARKID":"1000700000427","LANDMARKCO":"203","LANDMARKNA":"縣立員東國小","LANDMARKAD":"1000710","ADDRESS":"彰化縣員林鎮浮圳里員東路二段12號","TEL":"04-8311022","COUNTYNAME":"彰化縣","TOWNNAME":"員林鎮","MARKTYPE":"992","Class":"2"}},{"type":"Feature","id":27636,"geometry":{"type":"Point","coordinates":[120.56552393922465,23.962533546670759]},"properties":{"OBJECTID":27636,"LANDMARKID":"1000700000428","LANDMARKCO":"203","LANDMARKNA":"縣立靜修國小","LANDMARKAD":"1000710","ADDRESS":"彰化縣員林鎮南平里靜修路74號","TEL":"04-8346804","COUNTYNAME":"彰化縣","TOWNNAME":"員林鎮","MARKTYPE":"992","Class":"2"}},{"type":"Feature","id":27637,"geometry":{"type":"Point","coordinates":[120.60533807564417,23.958025362267502]},"properties":{"OBJECTID":27637,"LANDMARKID":"1000700000286","LANDMARKCO":"201","LANDMARKNA":"中州技術學院","LANDMARKAD":"1000710","ADDRESS":"彰化縣員林鎮山腳路三段2巷6號","TEL":"04-8311498","COUNTYNAME":"彰化縣","TOWNNAME":"員林鎮","MARKTYPE":"992","Class":"2"}},{"type":"Feature","id":27638,"geometry":{"type":"Point","coordinates":[120.60108796958596,23.948349045587129]},"properties":{"OBJECTID":27638,"LANDMARKID":"1000700000299","LANDMARKCO":"202","LANDMARKNA":"私立大慶商工","LANDMARKAD":"1000710","ADDRESS":"彰化縣員林鎮山腳路二段206號","TEL":"04-8311005","COUNTYNAME":"彰化縣","TOWNNAME":"員林鎮","MARKTYPE":"992","Class":"2"}},{"type":"Feature","id":27639,"geometry":{"type":"Point","coordinates":[120.60235803769004,23.944924419026336]},"properties":{"OBJECTID":27639,"LANDMARKID":"1000700000433","LANDMARKCO":"203","LANDMARKNA":"縣立青山國小","LANDMARKAD":"1000710","ADDRESS":"彰化縣員林鎮出水里泉洲巷3號","TEL":"04-8310401","COUNTYNAME":"彰化縣","TOWNNAME":"員林鎮","MARKTYPE":"992","Class":"2"}},{"type":"Feature","id":27640,"geometry":{"type":"Point","coordinates":[120.60515544205033,23.946366515725806]},"properties":{"OBJECTID":27640,"LANDMARKID":"1000700000585","LANDMARKCO":"303","LANDMARKNA":"新百果山遊樂園停車場","LANDMARKAD":"1000710","ADDRESS":"彰化縣員林鎮","TEL":"04-8315834","COUNTYNAME":"彰化縣","TOWNNAME":"員林鎮","MARKTYPE":"993","Class":"303"}},{"type":"Feature","id":27641,"geometry":{"type":"Point","coordinates":[120.62042733884259,23.940477324985096]},"properties":{"OBJECTID":27641,"LANDMARKID":"1000700000586","LANDMARKCO":"303","LANDMARKNA":"三百崁入口停車場","LANDMARKAD":"1000710","ADDRESS":"彰化縣員林鎮","TEL":" ","COUNTYNAME":"彰化縣","TOWNNAME":"員林鎮","MARKTYPE":"993","Class":"303"}},{"type":"Feature","id":27642,"geometry":{"type":"Point","coordinates":[120.61590162994891,23.941096049605235]},"properties":{"OBJECTID":27642,"LANDMARKID":"1000700000587","LANDMARKCO":"303","LANDMARKNA":"三百崁入口停車場","LANDMARKAD":"1000710","ADDRESS":"彰化縣員林鎮","TEL":" ","COUNTYNAME":"彰化縣","TOWNNAME":"員林鎮","MARKTYPE":"993","Class":"303"}},{"type":"Feature","id":27643,"geometry":{"type":"Point","coordinates":[120.56977665207354,23.944843808397096]},"properties":{"OBJECTID":27643,"LANDMARKID":"1000700000674","LANDMARKCO":"308","LANDMARKNA":"台76-員林交流道-東行","LANDMARKAD":"1000710","ADDRESS":" ","TEL":" ","COUNTYNAME":"彰化縣","TOWNNAME":"員林鎮","MARKTYPE":"993","Class":"308"}},{"type":"Feature","id":27644,"geometry":{"type":"Point","coordinates":[120.59510411021813,23.939947789740646]},"properties":{"OBJECTID":27644,"LANDMARKID":"1000700000675","LANDMARKCO":"308","LANDMARKNA":"台76-林厝交流道-西行","LANDMARKAD":"1000710","ADDRESS":" ","TEL":" ","COUNTYNAME":"彰化縣","TOWNNAME":"員林鎮","MARKTYPE":"993","Class":"308"}},{"type":"Feature","id":27645,"geometry":{"type":"Point","coordinates":[120.60476063867289,23.941652852117606]},"properties":{"OBJECTID":27645,"LANDMARKID":"1000700000676","LANDMARKCO":"308","LANDMARKNA":"台76-林厝交流道-東行","LANDMARKAD":"1000710","ADDRESS":" ","TEL":" ","COUNTYNAME":"彰化縣","TOWNNAME":"員林鎮","MARKTYPE":"993","Class":"308"}},{"type":"Feature","id":27646,"geometry":{"type":"Point","coordinates":[120.57067612787405,23.962540024793874]},"properties":{"OBJECTID":27646,"LANDMARKID":"1000700000579","LANDMARKCO":"302","LANDMARKNA":"國光汽車客運員林站","LANDMARKAD":"1000710","ADDRESS":"彰化縣員林鎮和平里中山路二段79號","TEL":" ","COUNTYNAME":"彰化縣","TOWNNAME":"員林鎮","MARKTYPE":"993","Class":"302"}},{"type":"Feature","id":27647,"geometry":{"type":"Point","coordinates":[120.57039226291397,23.95953620530095]},"properties":{"OBJECTID":27647,"LANDMARKID":"1000700000580","LANDMARKCO":"302","LANDMARKNA":"統聯客運-員林站-自營站","LANDMARKAD":"1000710","ADDRESS":"彰化縣員林鎮民權街46號","TEL":"連絡電話:04-831","COUNTYNAME":"彰化縣","TOWNNAME":"員林鎮","MARKTYPE":"993","Class":"302"}},{"type":"Feature","id":27648,"geometry":{"type":"Point","coordinates":[120.57007260516623,23.957653836537538]},"properties":{"OBJECTID":27648,"LANDMARKID":"1000700000581","LANDMARKCO":"303","LANDMARKNA":"站前停車場","LANDMARKAD":"1000710","ADDRESS":"彰化縣員林鎮光復街","TEL":" ","COUNTYNAME":"彰化縣","TOWNNAME":"員林鎮","MARKTYPE":"993","Class":"303"}},{"type":"Feature","id":27649,"geometry":{"type":"Point","coordinates":[120.57206259312301,23.965596039930819]},"properties":{"OBJECTID":27649,"LANDMARKID":"1000700000582","LANDMARKCO":"303","LANDMARKNA":"華成停車場","LANDMARKAD":"1000710","ADDRESS":"彰化縣員林鎮","TEL":"04-8320196","COUNTYNAME":"彰化縣","TOWNNAME":"員林鎮","MARKTYPE":"993","Class":"303"}},{"type":"Feature","id":27650,"geometry":{"type":"Point","coordinates":[120.57780959314982,23.948269177615128]},"properties":{"OBJECTID":27650,"LANDMARKID":"1000700000583","LANDMARKCO":"303","LANDMARKNA":"愛買吉安員林店停車場","LANDMARKAD":"1000710","ADDRESS":"彰化縣員林鎮中正路2巷90號","TEL":"04-8361728","COUNTYNAME":"彰化縣","TOWNNAME":"員林鎮","MARKTYPE":"993","Class":"303"}},{"type":"Feature","id":27651,"geometry":{"type":"Point","coordinates":[120.57292549570339,23.958790029376161]},"properties":{"OBJECTID":27651,"LANDMARKID":"1000700000584","LANDMARKCO":"303","LANDMARKNA":"台灣聯通停車場-員林場","LANDMARKAD":"1000710","ADDRESS":"彰化縣員林鎮三民街38號旁空地","TEL":" ","COUNTYNAME":"彰化縣","TOWNNAME":"員林鎮","MARKTYPE":"993","Class":"303"}},{"type":"Feature","id":27652,"geometry":{"type":"Point","coordinates":[120.56981094305637,23.959599028866418]},"properties":{"OBJECTID":27652,"LANDMARKID":"1000700000567","LANDMARKCO":"301","LANDMARKNA":"員林火車站","LANDMARKAD":"1000710","ADDRESS":"彰化縣員林鎮民權街55號","TEL":"04-8320544","COUNTYNAME":"彰化縣","TOWNNAME":"員林鎮","MARKTYPE":"993","Class":"301"}},{"type":"Feature","id":27653,"geometry":{"type":"Point","coordinates":[120.57166940084511,23.961709045959495]},"properties":{"OBJECTID":27653,"LANDMARKID":"1000700000767","LANDMARKCO":"402","LANDMARKNA":"中華電信-員林中正特約服務中心","LANDMARKAD":"1000710","ADDRESS":"彰化縣員林鎮和平街18號","TEL":"04-8331358","COUNTYNAME":"彰化縣","TOWNNAME":"員林鎮","MARKTYPE":"994","Class":"4"}},{"type":"Feature","id":27654,"geometry":{"type":"Point","coordinates":[120.57359545306288,23.968935579789463]},"properties":{"OBJECTID":27654,"LANDMARKID":"1000700000768","LANDMARKCO":"402","LANDMARKNA":"中華電信-員林育英特約服務中心","LANDMARKAD":"1000710","ADDRESS":"彰化縣員林鎮育英路589-3號","TEL":"04-8378383","COUNTYNAME":"彰化縣","TOWNNAME":"員林鎮","MARKTYPE":"994","Class":"4"}},{"type":"Feature","id":27655,"geometry":{"type":"Point","coordinates":[120.57697414518316,23.957605562174525]},"properties":{"OBJECTID":27655,"LANDMARKID":"1000700000769","LANDMARKCO":"402","LANDMARKNA":"中華電信-員林服務中心","LANDMARKAD":"1000710","ADDRESS":"彰化縣員林鎮員東路二段498號","TEL":"04-8329991","COUNTYNAME":"彰化縣","TOWNNAME":"員林鎮","MARKTYPE":"994","Class":"4"}},{"type":"Feature","id":27656,"geometry":{"type":"Point","coordinates":[120.57413499134347,23.954653972666737]},"properties":{"OBJECTID":27656,"LANDMARKID":"1000700000770","LANDMARKCO":"402","LANDMARKNA":"威寶電信-員林南昌特約服務中心","LANDMARKAD":"1000710","ADDRESS":"彰化縣員林鎮南昌路3號","TEL":"04-8338656","COUNTYNAME":"彰化縣","TOWNNAME":"員林鎮","MARKTYPE":"994","Class":"4"}},{"type":"Feature","id":27657,"geometry":{"type":"Point","coordinates":[120.57068470208377,23.957766717251786]},"properties":{"OBJECTID":27657,"LANDMARKID":"1000700000771","LANDMARKCO":"402","LANDMARKNA":"威寶電信-員林中山特約服務中心","LANDMARKAD":"1000710","ADDRESS":"彰化縣員林鎮中山路一段769號","TEL":"04-8390168","COUNTYNAME":"彰化縣","TOWNNAME":"員林鎮","MARKTYPE":"994","Class":"4"}},{"type":"Feature","id":27658,"geometry":{"type":"Point","coordinates":[120.57275072419264,23.957364148336481]},"properties":{"OBJECTID":27658,"LANDMARKID":"1000700000772","LANDMARKCO":"402","LANDMARKNA":"大眾電信(震旦通訊)-員林民族店","LANDMARKAD":"1000710","ADDRESS":"彰化縣員林鎮民族街1號","TEL":"04-8329040","COUNTYNAME":"彰化縣","TOWNNAME":"員林鎮","MARKTYPE":"994","Class":"4"}},{"type":"Feature","id":27659,"geometry":{"type":"Point","coordinates":[120.56703032355379,23.956182867966302]},"properties":{"OBJECTID":27659,"LANDMARKID":"1000700000773","LANDMARKCO":"402","LANDMARKNA":"大眾電信(震旦通訊)-員林莒光店","LANDMARKAD":"1000710","ADDRESS":"彰化縣員林鎮員鹿路97號","TEL":"04-8376531","COUNTYNAME":"彰化縣","TOWNNAME":"員林鎮","MARKTYPE":"994","Class":"4"}},{"type":"Feature","id":27660,"geometry":{"type":"Point","coordinates":[120.57555573192673,23.95252660851764]},"properties":{"OBJECTID":27660,"LANDMARKID":"1000700000774","LANDMARKCO":"402","LANDMARKNA":"遠傳電信-員林中正門市","LANDMARKAD":"1000710","ADDRESS":"彰化縣員林鎮中正路120號","TEL":" ","COUNTYNAME":"彰化縣","TOWNNAME":"員林鎮","MARKTYPE":"994","Class":"4"}},{"type":"Feature","id":27661,"geometry":{"type":"Point","coordinates":[120.5714524941569,23.960906691067734]},"properties":{"OBJECTID":27661,"LANDMARKID":"1000700000775","LANDMARKCO":"402","LANDMARKNA":"威寶電信-員林中正特約服務中心","LANDMARKAD":"1000710","ADDRESS":"彰化縣員林鎮中正路569號","TEL":"04-8392666","COUNTYNAME":"彰化縣","TOWNNAME":"員林鎮","MARKTYPE":"994","Class":"4"}},{"type":"Feature","id":27662,"geometry":{"type":"Point","coordinates":[120.56598861538389,23.956567021508782]},"properties":{"OBJECTID":27662,"LANDMARKID":"1000700001181","LANDMARKCO":"603","LANDMARKNA":"雙橡園大飯店","LANDMARKAD":"1000710","ADDRESS":"彰化縣員林鎮員鹿路115號","TEL":"04-8326716","COUNTYNAME":"彰化縣","TOWNNAME":"員林鎮","MARKTYPE":"996","Class":"6"}},{"type":"Feature","id":27663,"geometry":{"type":"Point","coordinates":[120.57111106076334,23.969065738051874]},"properties":{"OBJECTID":27663,"LANDMARKID":"1000700001182","LANDMARKCO":"603","LANDMARKNA":"昇財麗禧酒店","LANDMARKAD":"1000710","ADDRESS":"彰化縣員林鎮中山路二段395號5~9樓","TEL":"04-8372777","COUNTYNAME":"彰化縣","TOWNNAME":"員林鎮","MARKTYPE":"996","Class":"6"}},{"type":"Feature","id":27664,"geometry":{"type":"Point","coordinates":[120.57260547144237,23.962799071895883]},"properties":{"OBJECTID":27664,"LANDMARKID":"1000700001183","LANDMARKCO":"603","LANDMARKNA":"康橋大飯店-員林店","LANDMARKAD":"1000710","ADDRESS":"彰化縣員林鎮靜修路12號5-7樓","TEL":"04-8311555","COUNTYNAME":"彰化縣","TOWNNAME":"員林鎮","MARKTYPE":"996","Class":"6"}},{"type":"Feature","id":27665,"geometry":{"type":"Point","coordinates":[120.57017151006865,23.958106967779685]},"properties":{"OBJECTID":27665,"LANDMARKID":"1000700001184","LANDMARKCO":"603","LANDMARKNA":"富安大旅社","LANDMARKAD":"1000710","ADDRESS":"彰化縣員林鎮三民街96號","TEL":"04-8320598","COUNTYNAME":"彰化縣","TOWNNAME":"員林鎮","MARKTYPE":"996","Class":"6"}},{"type":"Feature","id":27666,"geometry":{"type":"Point","coordinates":[120.56358016175163,23.955014327912423]},"properties":{"OBJECTID":27666,"LANDMARKID":"1000700001185","LANDMARKCO":"603","LANDMARKNA":"楓采汽車旅館","LANDMARKAD":"1000710","ADDRESS":"彰化縣員林鎮員鹿路245巷58號","TEL":"04-8397699","COUNTYNAME":"彰化縣","TOWNNAME":"員林鎮","MARKTYPE":"996","Class":"6"}},{"type":"Feature","id":27667,"geometry":{"type":"Point","coordinates":[120.57108806064542,23.9548163365832]},"properties":{"OBJECTID":27667,"LANDMARKID":"1000700001186","LANDMARKCO":"603","LANDMARKNA":"富山大飯店","LANDMARKAD":"1000710","ADDRESS":"彰化縣員林鎮中山南路57號5-6樓","TEL":"04-8358123-5","COUNTYNAME":"彰化縣","TOWNNAME":"員林鎮","MARKTYPE":"996","Class":"6"}},{"type":"Feature","id":27668,"geometry":{"type":"Point","coordinates":[120.56762947223163,23.953350994110572]},"properties":{"OBJECTID":27668,"LANDMARKID":"1000700001187","LANDMARKCO":"603","LANDMARKNA":"京都大旅社","LANDMARKAD":"1000710","ADDRESS":"彰化縣員林鎮中山路一段508號","TEL":"04-8321039","COUNTYNAME":"彰化縣","TOWNNAME":"員林鎮","MARKTYPE":"996","Class":"6"}},{"type":"Feature","id":27669,"geometry":{"type":"Point","coordinates":[120.57017119978508,23.959542637654351]},"properties":{"OBJECTID":27669,"LANDMARKID":"1000700001188","LANDMARKCO":"603","LANDMARKNA":"新生大旅社","LANDMARKAD":"1000710","ADDRESS":"彰化縣員林鎮民權街54號","TEL":"04-8326166","COUNTYNAME":"彰化縣","TOWNNAME":"員林鎮","MARKTYPE":"996","Class":"6"}},{"type":"Feature","id":27670,"geometry":{"type":"Point","coordinates":[120.57161912281721,23.957618435048587]},"properties":{"OBJECTID":27670,"LANDMARKID":"1000700001189","LANDMARKCO":"603","LANDMARKNA":"蜜雪兒精品旅館","LANDMARKAD":"1000710","ADDRESS":"彰化縣員林鎮光明街295號4樓及5樓之1.2.3","TEL":"04-8359922","COUNTYNAME":"彰化縣","TOWNNAME":"員林鎮","MARKTYPE":"996","Class":"6"}},{"type":"Feature","id":27671,"geometry":{"type":"Point","coordinates":[120.57185813147599,23.965764334912731]},"properties":{"OBJECTID":27671,"LANDMARKID":"1000700001190","LANDMARKCO":"603","LANDMARKNA":"東火精品旅館","LANDMARKAD":"1000710","ADDRESS":"彰化縣員林鎮法院南街65號","TEL":"04-8398196","COUNTYNAME":"彰化縣","TOWNNAME":"員林鎮","MARKTYPE":"996","Class":"6"}},{"type":"Feature","id":27672,"geometry":{"type":"Point","coordinates":[120.5660559001258,23.966478824083406]},"properties":{"OBJECTID":27672,"LANDMARKID":"1000700001191","LANDMARKCO":"603","LANDMARKNA":"華京大飯店","LANDMARKAD":"1000710","ADDRESS":"彰化縣員林鎮南平四街9號4-10樓","TEL":"04-8397868","COUNTYNAME":"彰化縣","TOWNNAME":"員林鎮","MARKTYPE":"996","Class":"6"}},{"type":"Feature","id":27673,"geometry":{"type":"Point","coordinates":[120.56726443983354,23.957908830170741]},"properties":{"OBJECTID":27673,"LANDMARKID":"1000700001192","LANDMARKCO":"603","LANDMARKNA":"雅迪大飯店","LANDMARKAD":"1000710","ADDRESS":"彰化縣員林鎮南和街51號","TEL":"04-8332333","COUNTYNAME":"彰化縣","TOWNNAME":"員林鎮","MARKTYPE":"996","Class":"6"}},{"type":"Feature","id":27674,"geometry":{"type":"Point","coordinates":[120.60481263615543,23.945571516921422]},"properties":{"OBJECTID":27674,"LANDMARKID":"1000700001081","LANDMARKCO":"503","LANDMARKNA":"百果山風景區","LANDMARKAD":"1000710","ADDRESS":"彰化縣員林鎮出水巷12號","TEL":" ","COUNTYNAME":"彰化縣","TOWNNAME":"員林鎮","MARKTYPE":"995","Class":"5"}},{"type":"Feature","id":27675,"geometry":{"type":"Point","coordinates":[120.56321059571894,23.946151203206405]},"properties":{"OBJECTID":27675,"LANDMARKID":"1000700000854","LANDMARKCO":"405","LANDMARKNA":"中油加油站-員林快速道站(中油直營)","LANDMARKAD":"1000715","ADDRESS":"彰化縣埔心鄉瓦南村中山路281號","TEL":"04-8381928","COUNTYNAME":"彰化縣","TOWNNAME":"埔心鄉","MARKTYPE":"994","Class":"4"}},{"type":"Feature","id":27676,"geometry":{"type":"Point","coordinates":[120.55684496660702,23.954640694677433]},"properties":{"OBJECTID":27676,"LANDMARKID":"1000700000855","LANDMARKCO":"405","LANDMARKNA":"中油加油站-埔心站(中油直營)","LANDMARKAD":"1000715","ADDRESS":"彰化縣埔心鄉瓦北村員鹿路一段421號","TEL":"04-8293874","COUNTYNAME":"彰化縣","TOWNNAME":"埔心鄉","MARKTYPE":"994","Class":"4"}},{"type":"Feature","id":27677,"geometry":{"type":"Point","coordinates":[120.56038709233151,23.956478065450494]},"properties":{"OBJECTID":27677,"LANDMARKID":"1000700000856","LANDMARKCO":"405","LANDMARKNA":"中油加油站-大翔站","LANDMARKAD":"1000715","ADDRESS":"彰化縣埔心鄉瓦北村員鹿路一段418號","TEL":"04-8282827","COUNTYNAME":"彰化縣","TOWNNAME":"埔心鄉","MARKTYPE":"994","Class":"4"}},{"type":"Feature","id":27678,"geometry":{"type":"Point","coordinates":[120.51850762457036,23.950082047349323]},"properties":{"OBJECTID":27678,"LANDMARKID":"1000700000857","LANDMARKCO":"405","LANDMARKNA":"中油加油站-日茂站","LANDMARKAD":"1000715","ADDRESS":"彰化縣埔心鄉舊館村員鹿路4段325號","TEL":"04-8296981","COUNTYNAME":"彰化縣","TOWNNAME":"埔心鄉","MARKTYPE":"994","Class":"4"}},{"type":"Feature","id":27679,"geometry":{"type":"Point","coordinates":[120.52807051529744,23.950054044689949]},"properties":{"OBJECTID":27679,"LANDMARKID":"1000700000677","LANDMARKCO":"401","LANDMARKNA":"行政院衛生署彰化醫院","LANDMARKAD":"1000715","ADDRESS":"彰化縣埔心鄉中正路二段80號","TEL":"04-8298686","COUNTYNAME":"彰化縣","TOWNNAME":"埔心鄉","MARKTYPE":"994","Class":"4"}},{"type":"Feature","id":27680,"geometry":{"type":"Point","coordinates":[120.5171959120128,23.974773953691042]},"properties":{"OBJECTID":27680,"LANDMARKID":"1000700001093","LANDMARKCO":"506","LANDMARKNA":"觀光果園","LANDMARKAD":"1000715","ADDRESS":"彰化縣埔心鄉","TEL":" ","COUNTYNAME":"彰化縣","TOWNNAME":"埔心鄉","MARKTYPE":"995","Class":"5"}},{"type":"Feature","id":27681,"geometry":{"type":"Point","coordinates":[120.54317617467952,23.954431570379374]},"properties":{"OBJECTID":27681,"LANDMARKID":"1000700001029","LANDMARKCO":"408","LANDMARKNA":"郵局-埔心郵局","LANDMARKAD":"1000715","ADDRESS":"彰化縣埔心鄉忠義北路70號","TEL":"(04)8291-748","COUNTYNAME":"彰化縣","TOWNNAME":"埔心鄉","MARKTYPE":"994","Class":"4"}},{"type":"Feature","id":27682,"geometry":{"type":"Point","coordinates":[120.56048139112275,23.940840232891773]},"properties":{"OBJECTID":27682,"LANDMARKID":"1000700001030","LANDMARKCO":"408","LANDMARKNA":"郵局-埔心太平郵局","LANDMARKAD":"1000715","ADDRESS":"彰化縣埔心鄉中山路100號","TEL":"(04)8357-508","COUNTYNAME":"彰化縣","TOWNNAME":"埔心鄉","MARKTYPE":"994","Class":"4"}},{"type":"Feature","id":27683,"geometry":{"type":"Point","coordinates":[120.5433141429594,23.954881461689091]},"properties":{"OBJECTID":27683,"LANDMARKID":"1000700001051","LANDMARKCO":"409","LANDMARKNA":"彰化縣埔心鄉農會","LANDMARKAD":"1000715","ADDRESS":"彰化縣埔心鄉義民村忠義北路100號","TEL":"04-8293171-4","COUNTYNAME":"彰化縣","TOWNNAME":"埔心鄉","MARKTYPE":"994","Class":"4"}},{"type":"Feature","id":27684,"geometry":{"type":"Point","coordinates":[120.53713347296593,23.952109157103209]},"properties":{"OBJECTID":27684,"LANDMARKID":"1000700001052","LANDMARKCO":"409","LANDMARKNA":"埔心魚市場","LANDMARKAD":"1000715","ADDRESS":"彰化縣埔心鄉員鹿路三段12號","TEL":"04-8294901","COUNTYNAME":"彰化縣","TOWNNAME":"埔心鄉","MARKTYPE":"994","Class":"4"}},{"type":"Feature","id":27685,"geometry":{"type":"Point","coordinates":[120.53107555195429,23.949663288322018]},"properties":{"OBJECTID":27685,"LANDMARKID":"1000700000853","LANDMARKCO":"405","LANDMARKNA":"台塑加油站-金隆站(台塑)","LANDMARKAD":"1000715","ADDRESS":"彰化縣埔心鄉員鹿路三段338號","TEL":"04-8291115","COUNTYNAME":"彰化縣","TOWNNAME":"埔心鄉","MARKTYPE":"994","Class":"4"}},{"type":"Feature","id":27686,"geometry":{"type":"Point","coordinates":[120.54382645740809,23.952888544833527]},"properties":{"OBJECTID":27686,"LANDMARKID":"1000700000058","LANDMARKCO":"103","LANDMARKNA":"彰化縣埔心鄉衛生所","LANDMARKAD":"1000715","ADDRESS":"彰化縣埔心鄉義理村員鹿路二段304號","TEL":"04-8294133","COUNTYNAME":"彰化縣","TOWNNAME":"埔心鄉","MARKTYPE":"991","Class":"1"}},{"type":"Feature","id":27687,"geometry":{"type":"Point","coordinates":[120.5435187568735,23.953069438227377]},"properties":{"OBJECTID":27687,"LANDMARKID":"1000700000277","LANDMARKCO":"108","LANDMARKNA":"彰化縣埔心鄉公所","LANDMARKAD":"1000715","ADDRESS":"彰化縣埔心鄉義民村員鹿路二段344號","TEL":"04-8296249","COUNTYNAME":"彰化縣","TOWNNAME":"埔心鄉","MARKTYPE":"991","Class":"1"}},{"type":"Feature","id":27688,"geometry":{"type":"Point","coordinates":[120.54413933235752,23.953031786976464]},"properties":{"OBJECTID":27688,"LANDMARKID":"1000700000057","LANDMARKCO":"103","LANDMARKNA":"彰化縣埔心鄉民代表會","LANDMARKAD":"1000715","ADDRESS":"彰化縣埔心鄉員鹿路二段332號7樓","TEL":"04-8291241","COUNTYNAME":"彰化縣","TOWNNAME":"埔心鄉","MARKTYPE":"991","Class":"1"}},{"type":"Feature","id":27689,"geometry":{"type":"Point","coordinates":[120.54202091824476,23.952678201395237]},"properties":{"OBJECTID":27689,"LANDMARKID":"1000700000173","LANDMARKCO":"107","LANDMARKNA":"彰化縣消防局埔心消防分隊","LANDMARKAD":"1000715","ADDRESS":"彰化縣埔心鄉員鹿路二段415號","TEL":"04-8294704","COUNTYNAME":"彰化縣","TOWNNAME":"埔心鄉","MARKTYPE":"991","Class":"1"}},{"type":"Feature","id":27690,"geometry":{"type":"Point","coordinates":[120.54188065047003,23.953012791432826]},"properties":{"OBJECTID":27690,"LANDMARKID":"1000700000174","LANDMARKCO":"107","LANDMARKNA":"彰化縣警察局埔心分駐所","LANDMARKAD":"1000715","ADDRESS":"彰化縣埔心鄉義民村員鹿路二段424號","TEL":"04-8291545","COUNTYNAME":"彰化縣","TOWNNAME":"埔心鄉","MARKTYPE":"991","Class":"1"}},{"type":"Feature","id":27691,"geometry":{"type":"Point","coordinates":[120.52588561694712,23.948407272620912]},"properties":{"OBJECTID":27691,"LANDMARKID":"1000700000175","LANDMARKCO":"107","LANDMARKNA":"彰化縣警察局舊館派出所","LANDMARKAD":"1000715","ADDRESS":"彰化縣埔心鄉舊館村員鹿路四段182號","TEL":"04-8292854","COUNTYNAME":"彰化縣","TOWNNAME":"埔心鄉","MARKTYPE":"991","Class":"1"}},{"type":"Feature","id":27692,"geometry":{"type":"Point","coordinates":[120.54413933235752,23.953031786976464]},"properties":{"OBJECTID":27692,"LANDMARKID":"1000700000132","LANDMARKCO":"106","LANDMARKNA":"彰化縣埔心鄉戶政事務所","LANDMARKAD":"1000715","ADDRESS":"彰化縣埔心鄉員鹿路二段332號5樓","TEL":"04-8293703","COUNTYNAME":"彰化縣","TOWNNAME":"埔心鄉","MARKTYPE":"991","Class":"1"}},{"type":"Feature","id":27693,"geometry":{"type":"Point","coordinates":[120.54390087744413,23.953017259345646]},"properties":{"OBJECTID":27693,"LANDMARKID":"1000700000543","LANDMARKCO":"204","LANDMARKNA":"彰化縣立圖書館埔心分館","LANDMARKAD":"1000715","ADDRESS":"彰化縣埔心鄉義民村員鹿路二段328號","TEL":" ","COUNTYNAME":"彰化縣","TOWNNAME":"埔心鄉","MARKTYPE":"992","Class":"2"}},{"type":"Feature","id":27694,"geometry":{"type":"Point","coordinates":[120.54192644265424,23.953874410491281]},"properties":{"OBJECTID":27694,"LANDMARKID":"1000700000415","LANDMARKCO":"203","LANDMARKNA":"縣立埔心國中","LANDMARKAD":"1000715","ADDRESS":"彰化縣埔心鄉義民村忠義北路51號","TEL":"04-8291129","COUNTYNAME":"彰化縣","TOWNNAME":"埔心鄉","MARKTYPE":"992","Class":"2"}},{"type":"Feature","id":27695,"geometry":{"type":"Point","coordinates":[120.52572288792933,23.970030056200574]},"properties":{"OBJECTID":27695,"LANDMARKID":"1000700000416","LANDMARKCO":"203","LANDMARKNA":"縣立鳳霞國小","LANDMARKAD":"1000715","ADDRESS":"彰化縣埔心鄉二重村五通南路82號","TEL":"04-8294072","COUNTYNAME":"彰化縣","TOWNNAME":"埔心鄉","MARKTYPE":"992","Class":"2"}},{"type":"Feature","id":27696,"geometry":{"type":"Point","coordinates":[120.55137054864815,23.938408039526358]},"properties":{"OBJECTID":27696,"LANDMARKID":"1000700000417","LANDMARKCO":"203","LANDMARKNA":"縣立太平國小","LANDMARKAD":"1000715","ADDRESS":"彰化縣埔心鄉太平村太平路336號","TEL":"04-8226049","COUNTYNAME":"彰化縣","TOWNNAME":"埔心鄉","MARKTYPE":"992","Class":"2"}},{"type":"Feature","id":27697,"geometry":{"type":"Point","coordinates":[120.51307736639734,23.942073696485174]},"properties":{"OBJECTID":27697,"LANDMARKID":"1000700000418","LANDMARKCO":"203","LANDMARKNA":"縣立羅厝國小","LANDMARKAD":"1000715","ADDRESS":"彰化縣埔心鄉羅厝村文昌東路100號","TEL":"04-8292861","COUNTYNAME":"彰化縣","TOWNNAME":"埔心鄉","MARKTYPE":"992","Class":"2"}},{"type":"Feature","id":27698,"geometry":{"type":"Point","coordinates":[120.5575627964096,23.951186546917675]},"properties":{"OBJECTID":27698,"LANDMARKID":"1000700000419","LANDMARKCO":"203","LANDMARKNA":"縣立明聖國小","LANDMARKAD":"1000715","ADDRESS":"彰化縣埔心鄉瓦北村西安南路178號","TEL":"04-8295395","COUNTYNAME":"彰化縣","TOWNNAME":"埔心鄉","MARKTYPE":"992","Class":"2"}},{"type":"Feature","id":27699,"geometry":{"type":"Point","coordinates":[120.5453212828174,23.953347079633016]},"properties":{"OBJECTID":27699,"LANDMARKID":"1000700000420","LANDMARKCO":"203","LANDMARKNA":"縣立埔心國小","LANDMARKAD":"1000715","ADDRESS":"彰化縣埔心鄉義民村員鹿路二段254號","TEL":"04-8291494","COUNTYNAME":"彰化縣","TOWNNAME":"埔心鄉","MARKTYPE":"992","Class":"2"}},{"type":"Feature","id":27700,"geometry":{"type":"Point","coordinates":[120.52581231159165,23.947681964967483]},"properties":{"OBJECTID":27700,"LANDMARKID":"1000700000421","LANDMARKCO":"203","LANDMARKNA":"縣立舊館國小","LANDMARKAD":"1000715","ADDRESS":"彰化縣埔心鄉舊館村員鹿路四段201號","TEL":"04-8292025","COUNTYNAME":"彰化縣","TOWNNAME":"埔心鄉","MARKTYPE":"992","Class":"2"}},{"type":"Feature","id":27701,"geometry":{"type":"Point","coordinates":[120.51247794187518,23.969946007376091]},"properties":{"OBJECTID":27701,"LANDMARKID":"1000700000422","LANDMARKCO":"203","LANDMARKNA":"縣立梧鳳國小","LANDMARKAD":"1000715","ADDRESS":"彰化縣埔心鄉梧鳳村大溪路175號","TEL":"04-8291964","COUNTYNAME":"彰化縣","TOWNNAME":"埔心鄉","MARKTYPE":"992","Class":"2"}},{"type":"Feature","id":27702,"geometry":{"type":"Point","coordinates":[120.5337278997663,23.969605308293662]},"properties":{"OBJECTID":27702,"LANDMARKID":"1000700000671","LANDMARKCO":"308","LANDMARKNA":"台76-埔心交流道-西行","LANDMARKAD":"1000715","ADDRESS":" ","TEL":" ","COUNTYNAME":"彰化縣","TOWNNAME":"埔心鄉","MARKTYPE":"993","Class":"308"}},{"type":"Feature","id":27703,"geometry":{"type":"Point","coordinates":[120.5425683577015,23.965094525281948]},"properties":{"OBJECTID":27703,"LANDMARKID":"1000700000672","LANDMARKCO":"308","LANDMARKNA":"台76-埔心交流道-東行","LANDMARKAD":"1000715","ADDRESS":" ","TEL":" ","COUNTYNAME":"彰化縣","TOWNNAME":"埔心鄉","MARKTYPE":"993","Class":"308"}},{"type":"Feature","id":27704,"geometry":{"type":"Point","coordinates":[120.55712278859158,23.948910283952948]},"properties":{"OBJECTID":27704,"LANDMARKID":"1000700000673","LANDMARKCO":"308","LANDMARKNA":"台76-員林交流道-西行","LANDMARKAD":"1000715","ADDRESS":" ","TEL":" ","COUNTYNAME":"彰化縣","TOWNNAME":"埔心鄉","MARKTYPE":"993","Class":"308"}},{"type":"Feature","id":27705,"geometry":{"type":"Point","coordinates":[120.51568222446971,23.94984073756828]},"properties":{"OBJECTID":27705,"LANDMARKID":"1000700001177","LANDMARKCO":"603","LANDMARKNA":"高登庭園汽車旅館","LANDMARKAD":"1000715","ADDRESS":"彰化縣埔心鄉芎蕉村鎮福街111號","TEL":"04-8298987","COUNTYNAME":"彰化縣","TOWNNAME":"埔心鄉","MARKTYPE":"996","Class":"6"}},{"type":"Feature","id":27706,"geometry":{"type":"Point","coordinates":[120.56083586148119,23.950336248205538]},"properties":{"OBJECTID":27706,"LANDMARKID":"1000700001178","LANDMARKCO":"603","LANDMARKNA":"三民賓館","LANDMARKAD":"1000715","ADDRESS":"彰化縣彰化市三民路226號10-12樓","TEL":"04-7229751","COUNTYNAME":"彰化縣","TOWNNAME":"埔心鄉","MARKTYPE":"996","Class":"6"}},{"type":"Feature","id":27707,"geometry":{"type":"Point","coordinates":[120.53863631864485,23.951853907203244]},"properties":{"OBJECTID":27707,"LANDMARKID":"1000700001179","LANDMARKCO":"603","LANDMARKNA":"金陵汽車旅館(埔心分店)","LANDMARKAD":"1000715","ADDRESS":"彰化縣埔心鄉中正路一段566號","TEL":"04-8281122","COUNTYNAME":"彰化縣","TOWNNAME":"埔心鄉","MARKTYPE":"996","Class":"6"}},{"type":"Feature","id":27708,"geometry":{"type":"Point","coordinates":[120.55764316317546,23.95537557082552]},"properties":{"OBJECTID":27708,"LANDMARKID":"1000700001180","LANDMARKCO":"603","LANDMARKNA":"夏綠地汽車旅館","LANDMARKAD":"1000715","ADDRESS":"彰化縣埔心鄉員鹿路一段226號","TEL":"04-8299922","COUNTYNAME":"彰化縣","TOWNNAME":"埔心鄉","MARKTYPE":"996","Class":"6"}},{"type":"Feature","id":27709,"geometry":{"type":"Point","coordinates":[120.48892359097653,23.950865169904205]},"properties":{"OBJECTID":27709,"LANDMARKID":"1000700000842","LANDMARKCO":"405","LANDMARKNA":"台糖加油站-糖友站(中油)","LANDMARKAD":"1000711","ADDRESS":"彰化縣溪湖鎮彰水路二段820號","TEL":"04-8611193","COUNTYNAME":"彰化縣","TOWNNAME":"溪湖鎮","MARKTYPE":"994","Class":"4"}},{"type":"Feature","id":27710,"geometry":{"type":"Point","coordinates":[120.48538448969909,23.948196640252796]},"properties":{"OBJECTID":27710,"LANDMARKID":"1000700000843","LANDMARKCO":"405","LANDMARKNA":"中油加油站-忠溪站","LANDMARKAD":"1000711","ADDRESS":"彰化縣溪湖鎮忠覺里崙子腳路147號","TEL":"04-8824466","COUNTYNAME":"彰化縣","TOWNNAME":"溪湖鎮","MARKTYPE":"994","Class":"4"}},{"type":"Feature","id":27711,"geometry":{"type":"Point","coordinates":[120.49206686313428,23.954366930431192]},"properties":{"OBJECTID":27711,"LANDMARKID":"1000700000844","LANDMARKCO":"405","LANDMARKNA":"中油加油站-信興站","LANDMARKAD":"1000711","ADDRESS":"彰化縣溪湖鎮員鹿路112號","TEL":"04-8812736","COUNTYNAME":"彰化縣","TOWNNAME":"溪湖鎮","MARKTYPE":"994","Class":"4"}},{"type":"Feature","id":27712,"geometry":{"type":"Point","coordinates":[120.47985105899126,23.967825187727538]},"properties":{"OBJECTID":27712,"LANDMARKID":"1000700000845","LANDMARKCO":"405","LANDMARKNA":"中油加油站-溪湖站(中油直營)","LANDMARKAD":"1000711","ADDRESS":"彰化縣溪湖鎮東寮里彰水路93號","TEL":"04-8852244","COUNTYNAME":"彰化縣","TOWNNAME":"溪湖鎮","MARKTYPE":"994","Class":"4"}},{"type":"Feature","id":27713,"geometry":{"type":"Point","coordinates":[120.47747908819996,23.959207357011866]},"properties":{"OBJECTID":27713,"LANDMARKID":"1000700000765","LANDMARKCO":"402","LANDMARKNA":"My Phone台灣大哥大-彰化溪湖直營服務中心","LANDMARKAD":"1000711","ADDRESS":"彰化縣溪湖鎮西環路370號","TEL":"0809-000-166","COUNTYNAME":"彰化縣","TOWNNAME":"溪湖鎮","MARKTYPE":"994","Class":"4"}},{"type":"Feature","id":27714,"geometry":{"type":"Point","coordinates":[120.4772967199164,23.957282870120967]},"properties":{"OBJECTID":27714,"LANDMARKID":"1000700000766","LANDMARKCO":"402","LANDMARKNA":"亞太行動寬頻電信-彰化溪湖加盟服務中心","LANDMARKAD":"1000711","ADDRESS":"彰化縣溪湖鎮湖西里西環路213號","TEL":"04-8611525","COUNTYNAME":"彰化縣","TOWNNAME":"溪湖鎮","MARKTYPE":"994","Class":"4"}},{"type":"Feature","id":27715,"geometry":{"type":"Point","coordinates":[120.48019306855369,23.961554911390074]},"properties":{"OBJECTID":27715,"LANDMARKID":"1000700000678","LANDMARKCO":"401","LANDMARKNA":"道安醫院","LANDMARKAD":"1000711","ADDRESS":"彰化縣溪湖鎮光平里彰水路三段362號","TEL":"04-8852309","COUNTYNAME":"彰化縣","TOWNNAME":"溪湖鎮","MARKTYPE":"994","Class":"4"}},{"type":"Feature","id":27716,"geometry":{"type":"Point","coordinates":[120.48396874154889,23.935440628927061]},"properties":{"OBJECTID":27716,"LANDMARKID":"1000700001094","LANDMARKCO":"506","LANDMARKNA":"溪湖鎮葡萄觀光果園","LANDMARKAD":"1000711","ADDRESS":"彰化縣溪湖鎮媽厝里湳底路102號","TEL":"04-8854279","COUNTYNAME":"彰化縣","TOWNNAME":"溪湖鎮","MARKTYPE":"995","Class":"5"}},{"type":"Feature","id":27717,"geometry":{"type":"Point","coordinates":[120.47772112422896,23.965595355117259]},"properties":{"OBJECTID":27717,"LANDMARKID":"1000700001027","LANDMARKCO":"408","LANDMARKNA":"郵局-溪湖郵局","LANDMARKAD":"1000711","ADDRESS":"彰化縣溪湖鎮彰水路3段430號","TEL":"04-8852142","COUNTYNAME":"彰化縣","TOWNNAME":"溪湖鎮","MARKTYPE":"994","Class":"4"}},{"type":"Feature","id":27718,"geometry":{"type":"Point","coordinates":[120.47549695766281,23.960815770983412]},"properties":{"OBJECTID":27718,"LANDMARKID":"1000700001028","LANDMARKCO":"408","LANDMARKNA":"郵局-溪湖湖西郵局","LANDMARKAD":"1000711","ADDRESS":"彰化縣溪湖鎮大公路34號","TEL":"(04)8810-642","COUNTYNAME":"彰化縣","TOWNNAME":"溪湖鎮","MARKTYPE":"994","Class":"4"}},{"type":"Feature","id":27719,"geometry":{"type":"Point","coordinates":[120.48094033630937,23.958459375380986]},"properties":{"OBJECTID":27719,"LANDMARKID":"1000700001053","LANDMARKCO":"409","LANDMARKNA":"彰化縣溪湖鎮農會","LANDMARKAD":"1000711","ADDRESS":"彰化縣溪湖鎮員鹿路三段69號","TEL":"04-8853316","COUNTYNAME":"彰化縣","TOWNNAME":"溪湖鎮","MARKTYPE":"994","Class":"4"}},{"type":"Feature","id":27720,"geometry":{"type":"Point","coordinates":[120.48774032659631,23.967784102603979]},"properties":{"OBJECTID":27720,"LANDMARKID":"1000700000784","LANDMARKCO":"404","LANDMARKNA":"台灣省自來水溪湖營運所","LANDMARKAD":"1000711","ADDRESS":"彰化縣溪湖鎮湖東里大溪路二段61號","TEL":" ","COUNTYNAME":"彰化縣","TOWNNAME":"溪湖鎮","MARKTYPE":"994","Class":"4"}},{"type":"Feature","id":27721,"geometry":{"type":"Point","coordinates":[120.47520054904659,23.980778930305952]},"properties":{"OBJECTID":27721,"LANDMARKID":"1000700000967","LANDMARKCO":"406","LANDMARKNA":"鳳山寺公園","LANDMARKAD":"1000711","ADDRESS":"彰化縣溪湖鎮","TEL":" ","COUNTYNAME":"彰化縣","TOWNNAME":"溪湖鎮","MARKTYPE":"994","Class":"4"}},{"type":"Feature","id":27722,"geometry":{"type":"Point","coordinates":[120.48955058202849,23.954882604130578]},"properties":{"OBJECTID":27722,"LANDMARKID":"1000700000838","LANDMARKCO":"405","LANDMARKNA":"全國加油站-員溪站（台塑）","LANDMARKAD":"1000711","ADDRESS":"彰化縣溪湖鎮員鹿路二段205號","TEL":"04-8814457","COUNTYNAME":"彰化縣","TOWNNAME":"溪湖鎮","MARKTYPE":"994","Class":"4"}},{"type":"Feature","id":27723,"geometry":{"type":"Point","coordinates":[120.48266337730064,23.937360071132819]},"properties":{"OBJECTID":27723,"LANDMARKID":"1000700000839","LANDMARKCO":"405","LANDMARKNA":"台塑加油站-中美站(台塑)","LANDMARKAD":"1000711","ADDRESS":"彰化縣溪湖鎮彰水路一段923號","TEL":"04-8826562","COUNTYNAME":"彰化縣","TOWNNAME":"溪湖鎮","MARKTYPE":"994","Class":"4"}},{"type":"Feature","id":27724,"geometry":{"type":"Point","coordinates":[120.48249973640621,23.9409641625681]},"properties":{"OBJECTID":27724,"LANDMARKID":"1000700000840","LANDMARKCO":"405","LANDMARKNA":"福懋加油站-溪湖站(台塑)","LANDMARKAD":"1000711","ADDRESS":"彰化縣溪湖鎮彰水路二段216號","TEL":"04-8859995","COUNTYNAME":"彰化縣","TOWNNAME":"溪湖鎮","MARKTYPE":"994","Class":"4"}},{"type":"Feature","id":27725,"geometry":{"type":"Point","coordinates":[120.50059226312528,23.953410270372306]},"properties":{"OBJECTID":27725,"LANDMARKID":"1000700000841","LANDMARKCO":"405","LANDMARKNA":"福懋加油站-員鹿站(台塑)","LANDMARKAD":"1000711","ADDRESS":"彰化縣溪湖鎮員鹿路一段351號","TEL":"04-8611035","COUNTYNAME":"彰化縣","TOWNNAME":"溪湖鎮","MARKTYPE":"994","Class":"4"}},{"type":"Feature","id":27726,"geometry":{"type":"Point","coordinates":[120.4837092545658,23.966351669394381]},"properties":{"OBJECTID":27726,"LANDMARKID":"1000700000276","LANDMARKCO":"108","LANDMARKNA":"彰化縣溪湖鎮公所","LANDMARKAD":"1000711","ADDRESS":"彰化縣溪湖鎮湖東里青雅路58號","TEL":"04-8852121","COUNTYNAME":"彰化縣","TOWNNAME":"溪湖鎮","MARKTYPE":"991","Class":"1"}},{"type":"Feature","id":27727,"geometry":{"type":"Point","coordinates":[120.4837092545658,23.966351669394381]},"properties":{"OBJECTID":27727,"LANDMARKID":"1000700000059","LANDMARKCO":"103","LANDMARKNA":"彰化縣溪湖鎮民代表會","LANDMARKAD":"1000711","ADDRESS":"彰化縣溪湖鎮湖東里青雅路58號","TEL":"04-8853125","COUNTYNAME":"彰化縣","TOWNNAME":"溪湖鎮","MARKTYPE":"991","Class":"1"}},{"type":"Feature","id":27728,"geometry":{"type":"Point","coordinates":[120.48343559241775,23.965957243275817]},"properties":{"OBJECTID":27728,"LANDMARKID":"1000700000060","LANDMARKCO":"103","LANDMARKNA":"彰化縣溪湖鎮衛生所","LANDMARKAD":"1000711","ADDRESS":"彰化縣溪湖鎮湖東里青雅路36號","TEL":"04-8815112","COUNTYNAME":"彰化縣","TOWNNAME":"溪湖鎮","MARKTYPE":"991","Class":"1"}},{"type":"Feature","id":27729,"geometry":{"type":"Point","coordinates":[120.48277765440307,23.964884852212773]},"properties":{"OBJECTID":27729,"LANDMARKID":"1000700000169","LANDMARKCO":"107","LANDMARKNA":"彰化縣消防局溪湖消防分隊","LANDMARKAD":"1000711","ADDRESS":"彰化縣溪湖鎮大溪路二段330號","TEL":"04-8852007","COUNTYNAME":"彰化縣","TOWNNAME":"溪湖鎮","MARKTYPE":"991","Class":"1"}},{"type":"Feature","id":27730,"geometry":{"type":"Point","coordinates":[120.47950812347598,23.962620301174738]},"properties":{"OBJECTID":27730,"LANDMARKID":"1000700000170","LANDMARKCO":"107","LANDMARKNA":"彰化縣警察局溪湖分局","LANDMARKAD":"1000711","ADDRESS":"彰化縣溪湖鎮光平里員鹿路三段262號","TEL":"04-8852026","COUNTYNAME":"彰化縣","TOWNNAME":"溪湖鎮","MARKTYPE":"991","Class":"1"}},{"type":"Feature","id":27731,"geometry":{"type":"Point","coordinates":[120.47950812347598,23.962620301174738]},"properties":{"OBJECTID":27731,"LANDMARKID":"1000700000171","LANDMARKCO":"107","LANDMARKNA":"彰化縣警察局溪湖派出所","LANDMARKAD":"1000711","ADDRESS":"彰化縣溪湖鎮光平里員鹿路三段262號","TEL":"04-8852404","COUNTYNAME":"彰化縣","TOWNNAME":"溪湖鎮","MARKTYPE":"991","Class":"1"}},{"type":"Feature","id":27732,"geometry":{"type":"Point","coordinates":[120.47950520493221,23.962797801484573]},"properties":{"OBJECTID":27732,"LANDMARKID":"1000700000128","LANDMARKCO":"106","LANDMARKNA":"彰化縣溪湖鎮戶政事務所","LANDMARKAD":"1000711","ADDRESS":"彰化縣溪湖鎮光平里9鄰員鹿路三段272號","TEL":"04-8853214","COUNTYNAME":"彰化縣","TOWNNAME":"溪湖鎮","MARKTYPE":"991","Class":"1"}},{"type":"Feature","id":27733,"geometry":{"type":"Point","coordinates":[120.47460019381568,23.961260377010763]},"properties":{"OBJECTID":27733,"LANDMARKID":"1000700000108","LANDMARKCO":"105","LANDMARKNA":"彰化縣溪湖地政事務所","LANDMARKAD":"1000711","ADDRESS":"彰化縣溪湖鎮湖西里大公路99號","TEL":"04-8813119","COUNTYNAME":"彰化縣","TOWNNAME":"溪湖鎮","MARKTYPE":"991","Class":"1"}},{"type":"Feature","id":27734,"geometry":{"type":"Point","coordinates":[120.49199755316091,23.947844628309795]},"properties":{"OBJECTID":27734,"LANDMARKID":"1000700000172","LANDMARKCO":"107","LANDMARKNA":"彰化縣警察局忠覺派出所","LANDMARKAD":"1000711","ADDRESS":"彰化縣溪湖鎮大庭里崙仔腳路66號","TEL":"04-8852814","COUNTYNAME":"彰化縣","TOWNNAME":"溪湖鎮","MARKTYPE":"991","Class":"1"}},{"type":"Feature","id":27735,"geometry":{"type":"Point","coordinates":[120.47736362482451,23.971863175334938]},"properties":{"OBJECTID":27735,"LANDMARKID":"1000700000566","LANDMARKCO":"206","LANDMARKNA":"巫家捏麵館","LANDMARKAD":"1000711","ADDRESS":"彰化縣溪湖鎮東寮里彰水路四段439巷151號","TEL":"(04)22957103","COUNTYNAME":"彰化縣","TOWNNAME":"溪湖鎮","MARKTYPE":"992","Class":"2"}},{"type":"Feature","id":27736,"geometry":{"type":"Point","coordinates":[120.47857476118494,23.96225785325824]},"properties":{"OBJECTID":27736,"LANDMARKID":"1000700000547","LANDMARKCO":"204","LANDMARKNA":"彰化縣立圖書館溪湖分館","LANDMARKAD":"1000711","ADDRESS":"彰化縣溪湖鎮太平里太平街147號","TEL":" ","COUNTYNAME":"彰化縣","TOWNNAME":"溪湖鎮","MARKTYPE":"992","Class":"2"}},{"type":"Feature","id":27737,"geometry":{"type":"Point","coordinates":[120.48343728729331,23.963797365408574]},"properties":{"OBJECTID":27737,"LANDMARKID":"1000700000406","LANDMARKCO":"203","LANDMARKNA":"縣立湖東國小","LANDMARKAD":"1000711","ADDRESS":"彰化縣溪湖鎮湖東里大溪路二段423號","TEL":"04-8852062","COUNTYNAME":"彰化縣","TOWNNAME":"溪湖鎮","MARKTYPE":"992","Class":"2"}},{"type":"Feature","id":27738,"geometry":{"type":"Point","coordinates":[120.48041614855372,23.96688398260995]},"properties":{"OBJECTID":27738,"LANDMARKID":"1000700000407","LANDMARKCO":"203","LANDMARKNA":"縣立溪湖國中","LANDMARKAD":"1000711","ADDRESS":"彰化縣溪湖鎮彰水路四段60號","TEL":"04-8852132","COUNTYNAME":"彰化縣","TOWNNAME":"溪湖鎮","MARKTYPE":"992","Class":"2"}},{"type":"Feature","id":27739,"geometry":{"type":"Point","coordinates":[120.47188376684034,23.951528772572996]},"properties":{"OBJECTID":27739,"LANDMARKID":"1000700000408","LANDMARKCO":"203","LANDMARKNA":"縣立成功國中","LANDMARKAD":"1000711","ADDRESS":"彰化縣溪湖鎮福德路310號","TEL":"04-8828588","COUNTYNAME":"彰化縣","TOWNNAME":"溪湖鎮","MARKTYPE":"992","Class":"2"}},{"type":"Feature","id":27740,"geometry":{"type":"Point","coordinates":[120.47852534603848,23.959232871940991]},"properties":{"OBJECTID":27740,"LANDMARKID":"1000700000409","LANDMARKCO":"203","LANDMARKNA":"縣立溪湖國小","LANDMARKAD":"1000711","ADDRESS":"彰化縣溪湖鎮光華里二溪路一段35號","TEL":"04-8853126","COUNTYNAME":"彰化縣","TOWNNAME":"溪湖鎮","MARKTYPE":"992","Class":"2"}},{"type":"Feature","id":27741,"geometry":{"type":"Point","coordinates":[120.46769901426684,23.959970387912509]},"properties":{"OBJECTID":27741,"LANDMARKID":"1000700000410","LANDMARKCO":"203","LANDMARKNA":"縣立湖西國小","LANDMARKAD":"1000711","ADDRESS":"彰化縣溪湖鎮大突里北聖路20號","TEL":"04-8852234","COUNTYNAME":"彰化縣","TOWNNAME":"溪湖鎮","MARKTYPE":"992","Class":"2"}},{"type":"Feature","id":27742,"geometry":{"type":"Point","coordinates":[120.49799330226968,23.954131543709178]},"properties":{"OBJECTID":27742,"LANDMARKID":"1000700000411","LANDMARKCO":"203","LANDMARKNA":"縣立東溪國小","LANDMARKAD":"1000711","ADDRESS":"彰化縣溪湖鎮東溪里員鹿路一段538號","TEL":"04-8852034","COUNTYNAME":"彰化縣","TOWNNAME":"溪湖鎮","MARKTYPE":"992","Class":"2"}},{"type":"Feature","id":27743,"geometry":{"type":"Point","coordinates":[120.4960136348196,23.941189172609601]},"properties":{"OBJECTID":27743,"LANDMARKID":"1000700000412","LANDMARKCO":"203","LANDMARKNA":"縣立媽厝國小","LANDMARKAD":"1000711","ADDRESS":"彰化縣溪湖鎮媽厝里湳底路67號","TEL":"04-8853225","COUNTYNAME":"彰化縣","TOWNNAME":"溪湖鎮","MARKTYPE":"992","Class":"2"}},{"type":"Feature","id":27744,"geometry":{"type":"Point","coordinates":[120.48016182356973,23.950052075066392]},"properties":{"OBJECTID":27744,"LANDMARKID":"1000700000413","LANDMARKCO":"203","LANDMARKNA":"縣立湖南國小","LANDMARKAD":"1000711","ADDRESS":"彰化縣溪湖鎮大竹里彰水路二段725號","TEL":"04-8852045","COUNTYNAME":"彰化縣","TOWNNAME":"溪湖鎮","MARKTYPE":"992","Class":"2"}},{"type":"Feature","id":27745,"geometry":{"type":"Point","coordinates":[120.47572250877788,23.965373995937338]},"properties":{"OBJECTID":27745,"LANDMARKID":"1000700000414","LANDMARKCO":"203","LANDMARKNA":"縣立湖北國小","LANDMARKAD":"1000711","ADDRESS":"彰化縣溪湖鎮地政路201號","TEL":"04-8613618","COUNTYNAME":"彰化縣","TOWNNAME":"溪湖鎮","MARKTYPE":"992","Class":"2"}},{"type":"Feature","id":27746,"geometry":{"type":"Point","coordinates":[120.48685753204023,23.968957721449041]},"properties":{"OBJECTID":27746,"LANDMARKID":"1000700000304","LANDMARKCO":"202","LANDMARKNA":"國立溪湖高中","LANDMARKAD":"1000711","ADDRESS":"彰化縣彰化市南部路一段326號","TEL":"04-8825500","COUNTYNAME":"彰化縣","TOWNNAME":"溪湖鎮","MARKTYPE":"992","Class":"2"}},{"type":"Feature","id":27747,"geometry":{"type":"Point","coordinates":[120.48131664881669,23.951143375268444]},"properties":{"OBJECTID":27747,"LANDMARKID":"1000700000588","LANDMARKCO":"303","LANDMARKNA":"糖廠宿舍停車場","LANDMARKAD":"1000711","ADDRESS":"彰化縣溪湖鎮","TEL":" ","COUNTYNAME":"彰化縣","TOWNNAME":"溪湖鎮","MARKTYPE":"993","Class":"303"}},{"type":"Feature","id":27748,"geometry":{"type":"Point","coordinates":[120.50676796706536,23.956536792816145]},"properties":{"OBJECTID":27748,"LANDMARKID":"1000700000669","LANDMARKCO":"308","LANDMARKNA":"國1-員林交流道-北上","LANDMARKAD":"1000711","ADDRESS":"彰化縣溪湖鎮","TEL":" ","COUNTYNAME":"彰化縣","TOWNNAME":"溪湖鎮","MARKTYPE":"993","Class":"308"}},{"type":"Feature","id":27749,"geometry":{"type":"Point","coordinates":[120.50551838721994,23.951484346368368]},"properties":{"OBJECTID":27749,"LANDMARKID":"1000700000670","LANDMARKCO":"308","LANDMARKNA":"國1-員林交流道-南下","LANDMARKAD":"1000711","ADDRESS":"彰化縣溪湖鎮","TEL":" ","COUNTYNAME":"彰化縣","TOWNNAME":"溪湖鎮","MARKTYPE":"993","Class":"308"}},{"type":"Feature","id":27750,"geometry":{"type":"Point","coordinates":[120.48142251200781,23.950021671670541]},"properties":{"OBJECTID":27750,"LANDMARKID":"1000700000589","LANDMARKCO":"303","LANDMARKNA":"糖廠宿舍烤肉區停車場","LANDMARKAD":"1000711","ADDRESS":"彰化縣溪湖鎮","TEL":" ","COUNTYNAME":"彰化縣","TOWNNAME":"溪湖鎮","MARKTYPE":"993","Class":"303"}},{"type":"Feature","id":27751,"geometry":{"type":"Point","coordinates":[120.47725981892175,23.958203663925907]},"properties":{"OBJECTID":27751,"LANDMARKID":"1000700000761","LANDMARKCO":"402","LANDMARKNA":"中華電信-溪湖西環特約服務中心","LANDMARKAD":"1000711","ADDRESS":"彰化縣溪湖鎮西環路251號","TEL":"04-8853998","COUNTYNAME":"彰化縣","TOWNNAME":"溪湖鎮","MARKTYPE":"994","Class":"4"}},{"type":"Feature","id":27752,"geometry":{"type":"Point","coordinates":[120.47728027270777,23.956885495435149]},"properties":{"OBJECTID":27752,"LANDMARKID":"1000700000762","LANDMARKCO":"402","LANDMARKNA":"大眾電信(震旦通訊)-溪湖西環店","LANDMARKAD":"1000711","ADDRESS":"彰化縣溪湖鎮西環路193號","TEL":"04-8817589","COUNTYNAME":"彰化縣","TOWNNAME":"溪湖鎮","MARKTYPE":"994","Class":"4"}},{"type":"Feature","id":27753,"geometry":{"type":"Point","coordinates":[120.47947694067663,23.971699844606686]},"properties":{"OBJECTID":27753,"LANDMARKID":"1000700000763","LANDMARKCO":"402","LANDMARKNA":"中華電信-溪湖服務中心","LANDMARKAD":"1000711","ADDRESS":"彰化縣溪湖鎮彰水路四段323號","TEL":"(04)885-4040","COUNTYNAME":"彰化縣","TOWNNAME":"溪湖鎮","MARKTYPE":"994","Class":"4"}},{"type":"Feature","id":27754,"geometry":{"type":"Point","coordinates":[120.47746697900577,23.95680148778553]},"properties":{"OBJECTID":27754,"LANDMARKID":"1000700000764","LANDMARKCO":"402","LANDMARKNA":"遠傳電信-溪湖西環門市","LANDMARKAD":"1000711","ADDRESS":"彰化縣溪湖鎮西環路195 號","TEL":" ","COUNTYNAME":"彰化縣","TOWNNAME":"溪湖鎮","MARKTYPE":"994","Class":"4"}},{"type":"Feature","id":27755,"geometry":{"type":"Point","coordinates":[120.47276275011457,23.961812212427738]},"properties":{"OBJECTID":27755,"LANDMARKID":"1000700001173","LANDMARKCO":"603","LANDMARKNA":"展亞商務旅館","LANDMARKAD":"1000711","ADDRESS":"彰化縣溪湖鎮大公路179號4-7樓","TEL":"04-8817566","COUNTYNAME":"彰化縣","TOWNNAME":"溪湖鎮","MARKTYPE":"996","Class":"6"}},{"type":"Feature","id":27756,"geometry":{"type":"Point","coordinates":[120.48041073066521,23.956138795478942]},"properties":{"OBJECTID":27756,"LANDMARKID":"1000700001174","LANDMARKCO":"603","LANDMARKNA":"南華大旅社","LANDMARKAD":"1000711","ADDRESS":"彰化縣溪湖鎮彰水路三段122號","TEL":"04-8855131-2","COUNTYNAME":"彰化縣","TOWNNAME":"溪湖鎮","MARKTYPE":"996","Class":"6"}},{"type":"Feature","id":27757,"geometry":{"type":"Point","coordinates":[120.48032480464909,23.95827820630678]},"properties":{"OBJECTID":27757,"LANDMARKID":"1000700001175","LANDMARKCO":"603","LANDMARKNA":"富仙大旅社","LANDMARKAD":"1000711","ADDRESS":"彰化縣溪湖鎮彰水路三段218號","TEL":"04-8852306","COUNTYNAME":"彰化縣","TOWNNAME":"溪湖鎮","MARKTYPE":"996","Class":"6"}},{"type":"Feature","id":27758,"geometry":{"type":"Point","coordinates":[120.48303505640619,23.961257713343137]},"properties":{"OBJECTID":27758,"LANDMARKID":"1000700001176","LANDMARKCO":"603","LANDMARKNA":"溪湖汽車旅館","LANDMARKAD":"1000711","ADDRESS":"彰化縣溪湖鎮興學街68號","TEL":"04-8829867","COUNTYNAME":"彰化縣","TOWNNAME":"溪湖鎮","MARKTYPE":"996","Class":"6"}},{"type":"Feature","id":27759,"geometry":{"type":"Point","coordinates":[120.36525408728585,23.89535424757041]},"properties":{"OBJECTID":27759,"LANDMARKID":"1000700000846","LANDMARKCO":"405","LANDMARKNA":"中油加油站-大成路(中油直營)","LANDMARKAD":"1000720","ADDRESS":"彰化縣二林鎮大成路1段456號","TEL":"04-8955660","COUNTYNAME":"彰化縣","TOWNNAME":"二林鎮","MARKTYPE":"994","Class":"4"}},{"type":"Feature","id":27760,"geometry":{"type":"Point","coordinates":[120.38770436471825,23.898631404223732]},"properties":{"OBJECTID":27760,"LANDMARKID":"1000700000847","LANDMARKCO":"405","LANDMARKNA":"中油加油站-木林站","LANDMARKAD":"1000720","ADDRESS":"彰化縣二林鎮斗苑路四段111號","TEL":"04-8953838","COUNTYNAME":"彰化縣","TOWNNAME":"二林鎮","MARKTYPE":"994","Class":"4"}},{"type":"Feature","id":27761,"geometry":{"type":"Point","coordinates":[120.37405547798556,23.903119995183722]},"properties":{"OBJECTID":27761,"LANDMARKID":"1000700000848","LANDMARKCO":"405","LANDMARKNA":"台糖加油站-儒林站(中油)","LANDMARKAD":"1000720","ADDRESS":"彰化縣二林鎮仁愛路175號","TEL":" ","COUNTYNAME":"彰化縣","TOWNNAME":"二林鎮","MARKTYPE":"994","Class":"4"}},{"type":"Feature","id":27762,"geometry":{"type":"Point","coordinates":[120.42947098897865,23.896725451681952]},"properties":{"OBJECTID":27762,"LANDMARKID":"1000700000849","LANDMARKCO":"405","LANDMARKNA":"中油加油站-原斗站","LANDMARKAD":"1000720","ADDRESS":"彰化縣二林鎮斗苑路1段836號","TEL":"04-8902268","COUNTYNAME":"彰化縣","TOWNNAME":"二林鎮","MARKTYPE":"994","Class":"4"}},{"type":"Feature","id":27763,"geometry":{"type":"Point","coordinates":[120.44561660409072,23.955304716898077]},"properties":{"OBJECTID":27763,"LANDMARKID":"1000700000850","LANDMARKCO":"405","LANDMARKNA":"中油加油站-挖仔站","LANDMARKAD":"1000720","ADDRESS":"彰化縣二林鎮華崙里二溪路七段552號","TEL":"04-8684600","COUNTYNAME":"彰化縣","TOWNNAME":"二林鎮","MARKTYPE":"994","Class":"4"}},{"type":"Feature","id":27764,"geometry":{"type":"Point","coordinates":[120.37346002412049,23.902573351346177]},"properties":{"OBJECTID":27764,"LANDMARKID":"1000700000851","LANDMARKCO":"405","LANDMARKNA":"中油加油站-二林站(中油直營)","LANDMARKAD":"1000720","ADDRESS":"彰化縣二林鎮豐田里二溪路一段212號","TEL":"04-8960049","COUNTYNAME":"彰化縣","TOWNNAME":"二林鎮","MARKTYPE":"994","Class":"4"}},{"type":"Feature","id":27765,"geometry":{"type":"Point","coordinates":[120.41753546525,23.954815399037631]},"properties":{"OBJECTID":27765,"LANDMARKID":"1000700000852","LANDMARKCO":"405","LANDMARKNA":"台糖加油站-萬興站(中油)","LANDMARKAD":"1000720","ADDRESS":"彰化縣二林鎮二溪路六段539號","TEL":" ","COUNTYNAME":"彰化縣","TOWNNAME":"二林鎮","MARKTYPE":"994","Class":"4"}},{"type":"Feature","id":27766,"geometry":{"type":"Point","coordinates":[120.37295240387667,23.900905680378926]},"properties":{"OBJECTID":27766,"LANDMARKID":"1000700000679","LANDMARKCO":"401","LANDMARKNA":"宋志懿醫院","LANDMARKAD":"1000720","ADDRESS":"彰化縣二林鎮豐田里大成路一段51號","TEL":"04-8968707","COUNTYNAME":"彰化縣","TOWNNAME":"二林鎮","MARKTYPE":"994","Class":"4"}},{"type":"Feature","id":27767,"geometry":{"type":"Point","coordinates":[120.36775417302522,23.898809165451194]},"properties":{"OBJECTID":27767,"LANDMARKID":"1000700000680","LANDMARKCO":"401","LANDMARKNA":"洪宗鄰醫院","LANDMARKAD":"1000720","ADDRESS":"彰化縣二林鎮西平里中正路61號","TEL":"04-8967955","COUNTYNAME":"彰化縣","TOWNNAME":"二林鎮","MARKTYPE":"994","Class":"4"}},{"type":"Feature","id":27768,"geometry":{"type":"Point","coordinates":[120.36340006507949,23.893378630515475]},"properties":{"OBJECTID":27768,"LANDMARKID":"1000700000681","LANDMARKCO":"401","LANDMARKNA":"財團法人彰化基督教醫院二林分院","LANDMARKAD":"1000720","ADDRESS":"彰化縣二林鎮大成路一段558號","TEL":"04-8960128","COUNTYNAME":"彰化縣","TOWNNAME":"二林鎮","MARKTYPE":"994","Class":"4"}},{"type":"Feature","id":27769,"geometry":{"type":"Point","coordinates":[120.36799149480311,23.899095393386581]},"properties":{"OBJECTID":27769,"LANDMARKID":"1000700001108","LANDMARKCO":"507","LANDMARKNA":"二林仁和宮","LANDMARKAD":"1000720","ADDRESS":"彰化縣二林鎮西平里中正路58號","TEL":" ","COUNTYNAME":"彰化縣","TOWNNAME":"二林鎮","MARKTYPE":"995","Class":"5"}},{"type":"Feature","id":27770,"geometry":{"type":"Point","coordinates":[120.36945730756888,23.899221123618442]},"properties":{"OBJECTID":27770,"LANDMARKID":"1000700001019","LANDMARKCO":"408","LANDMARKNA":"郵局-二林郵局","LANDMARKAD":"1000720","ADDRESS":"彰化縣二林鎮中正路1號","TEL":"(04)8964-284","COUNTYNAME":"彰化縣","TOWNNAME":"二林鎮","MARKTYPE":"994","Class":"4"}},{"type":"Feature","id":27771,"geometry":{"type":"Point","coordinates":[120.42283772854405,23.95463638668695]},"properties":{"OBJECTID":27771,"LANDMARKID":"1000700001020","LANDMARKCO":"408","LANDMARKNA":"郵局-二林萬興郵局","LANDMARKAD":"1000720","ADDRESS":"彰化縣二林鎮二溪路6段290號","TEL":"(04)8682-582","COUNTYNAME":"彰化縣","TOWNNAME":"二林鎮","MARKTYPE":"994","Class":"4"}},{"type":"Feature","id":27772,"geometry":{"type":"Point","coordinates":[120.36972916219611,23.896139481318173]},"properties":{"OBJECTID":27772,"LANDMARKID":"1000700001058","LANDMARKCO":"409","LANDMARKNA":"彰化縣二林鎮農會","LANDMARKAD":"1000720","ADDRESS":"彰化縣二林鎮儒林路二段260號","TEL":"04-8961191","COUNTYNAME":"彰化縣","TOWNNAME":"二林鎮","MARKTYPE":"994","Class":"4"}},{"type":"Feature","id":27773,"geometry":{"type":"Point","coordinates":[120.37085430986913,23.892587586794441]},"properties":{"OBJECTID":27773,"LANDMARKID":"1000700000786","LANDMARKCO":"404","LANDMARKNA":"台灣省自來水二林營運所","LANDMARKAD":"1000720","ADDRESS":"彰化縣二林鎮儒林路二段100號","TEL":" ","COUNTYNAME":"彰化縣","TOWNNAME":"二林鎮","MARKTYPE":"994","Class":"4"}},{"type":"Feature","id":27774,"geometry":{"type":"Point","coordinates":[120.3694534480656,23.904007622929537]},"properties":{"OBJECTID":27774,"LANDMARKID":"1000700000969","LANDMARKCO":"406","LANDMARKNA":"長青公園","LANDMARKAD":"1000720","ADDRESS":"彰化縣二林鎮","TEL":" ","COUNTYNAME":"彰化縣","TOWNNAME":"二林鎮","MARKTYPE":"994","Class":"4"}},{"type":"Feature","id":27775,"geometry":{"type":"Point","coordinates":[120.37340181535168,23.903790472439677]},"properties":{"OBJECTID":27775,"LANDMARKID":"1000700000970","LANDMARKCO":"406","LANDMARKNA":"儒林公園","LANDMARKAD":"1000720","ADDRESS":"彰化縣二林鎮","TEL":" ","COUNTYNAME":"彰化縣","TOWNNAME":"二林鎮","MARKTYPE":"994","Class":"4"}},{"type":"Feature","id":27776,"geometry":{"type":"Point","coordinates":[120.37009316684208,23.898424901533346]},"properties":{"OBJECTID":27776,"LANDMARKID":"1000700000978","LANDMARKCO":"407","LANDMARKNA":"三商百貨","LANDMARKAD":"1000720","ADDRESS":"彰化縣二林鎮建興街110號","TEL":"04-8953927","COUNTYNAME":"彰化縣","TOWNNAME":"二林鎮","MARKTYPE":"994","Class":"4"}},{"type":"Feature","id":27777,"geometry":{"type":"Point","coordinates":[120.38700961103727,23.899001672870018]},"properties":{"OBJECTID":27777,"LANDMARKID":"1000700000832","LANDMARKCO":"405","LANDMARKNA":"台塑加油站-林田站(台塑)","LANDMARKAD":"1000720","ADDRESS":"彰化縣二林鎮斗苑路四段22號","TEL":"04-8956266","COUNTYNAME":"彰化縣","TOWNNAME":"二林鎮","MARKTYPE":"994","Class":"4"}},{"type":"Feature","id":27778,"geometry":{"type":"Point","coordinates":[120.43952343103761,23.952211490862442]},"properties":{"OBJECTID":27778,"LANDMARKID":"1000700000833","LANDMARKCO":"405","LANDMARKNA":"福懋加油站-二溪站(台塑)","LANDMARKAD":"1000720","ADDRESS":"彰化縣二林鎮華崙里二溪路七段363號","TEL":"04-8684674","COUNTYNAME":"彰化縣","TOWNNAME":"二林鎮","MARKTYPE":"994","Class":"4"}},{"type":"Feature","id":27779,"geometry":{"type":"Point","coordinates":[120.37441270765493,23.899834121515298]},"properties":{"OBJECTID":27779,"LANDMARKID":"1000700000271","LANDMARKCO":"108","LANDMARKNA":"彰化縣二林鎮公所","LANDMARKAD":"1000720","ADDRESS":"彰化縣二林鎮豐田里斗苑路四段636號","TEL":"04-8969906","COUNTYNAME":"彰化縣","TOWNNAME":"二林鎮","MARKTYPE":"991","Class":"1"}},{"type":"Feature","id":27780,"geometry":{"type":"Point","coordinates":[120.37315917116726,23.899462734213994]},"properties":{"OBJECTID":27780,"LANDMARKID":"1000700000053","LANDMARKCO":"103","LANDMARKNA":"彰化縣二林鎮衛生所","LANDMARKAD":"1000720","ADDRESS":"彰化縣二林鎮斗苑路四段689號","TEL":"04-8964298","COUNTYNAME":"彰化縣","TOWNNAME":"二林鎮","MARKTYPE":"991","Class":"1"}},{"type":"Feature","id":27781,"geometry":{"type":"Point","coordinates":[120.37428591034043,23.899742795055698]},"properties":{"OBJECTID":27781,"LANDMARKID":"1000700000054","LANDMARKCO":"103","LANDMARKNA":"彰化縣二林鎮鎮民代表會","LANDMARKAD":"1000720","ADDRESS":"彰化縣二林鎮斗苑路四段636號","TEL":"04-8969906#230","COUNTYNAME":"彰化縣","TOWNNAME":"二林鎮","MARKTYPE":"991","Class":"1"}},{"type":"Feature","id":27782,"geometry":{"type":"Point","coordinates":[120.3761750395016,23.903177935176291]},"properties":{"OBJECTID":27782,"LANDMARKID":"1000700000189","LANDMARKCO":"107","LANDMARKNA":"彰化縣消防局二林消防分隊","LANDMARKAD":"1000720","ADDRESS":"彰化縣二林鎮仁愛路200號","TEL":"04-8960695","COUNTYNAME":"彰化縣","TOWNNAME":"二林鎮","MARKTYPE":"991","Class":"1"}},{"type":"Feature","id":27783,"geometry":{"type":"Point","coordinates":[120.36977915092531,23.899627063921411]},"properties":{"OBJECTID":27783,"LANDMARKID":"1000700000190","LANDMARKCO":"107","LANDMARKNA":"彰化縣警察局芳苑分局","LANDMARKAD":"1000720","ADDRESS":"彰化縣二林鎮東和里斗苑路五段110號","TEL":"04-8960013","COUNTYNAME":"彰化縣","TOWNNAME":"二林鎮","MARKTYPE":"991","Class":"1"}},{"type":"Feature","id":27784,"geometry":{"type":"Point","coordinates":[120.36977915092531,23.899627063921411]},"properties":{"OBJECTID":27784,"LANDMARKID":"1000700000191","LANDMARKCO":"107","LANDMARKNA":"彰化縣警察局二林派出所","LANDMARKAD":"1000720","ADDRESS":"彰化縣二林鎮東和里斗苑路五段110號","TEL":"04-8961072","COUNTYNAME":"彰化縣","TOWNNAME":"二林鎮","MARKTYPE":"991","Class":"1"}},{"type":"Feature","id":27785,"geometry":{"type":"Point","coordinates":[120.42244841401028,23.954009425554073]},"properties":{"OBJECTID":27785,"LANDMARKID":"1000700000192","LANDMARKCO":"107","LANDMARKNA":"彰化縣警察局萬興派出所","LANDMARKAD":"1000720","ADDRESS":"彰化縣二林鎮永興里二溪路六段395號","TEL":"04-8682039","COUNTYNAME":"彰化縣","TOWNNAME":"二林鎮","MARKTYPE":"991","Class":"1"}},{"type":"Feature","id":27786,"geometry":{"type":"Point","coordinates":[120.42610265148214,23.897141450852022]},"properties":{"OBJECTID":27786,"LANDMARKID":"1000700000193","LANDMARKCO":"107","LANDMARKNA":"彰化縣警察局原斗派出所","LANDMARKAD":"1000720","ADDRESS":"彰化縣二林鎮原斗里斗苑路一段915號","TEL":"04-8902041","COUNTYNAME":"彰化縣","TOWNNAME":"二林鎮","MARKTYPE":"991","Class":"1"}},{"type":"Feature","id":27787,"geometry":{"type":"Point","coordinates":[120.37014250576375,23.89963004029341]},"properties":{"OBJECTID":27787,"LANDMARKID":"1000700000127","LANDMARKCO":"106","LANDMARKNA":"彰化縣二林鎮戶政事務所","LANDMARKAD":"1000720","ADDRESS":"彰化縣二林鎮東和里6鄰斗苑路五段80號","TEL":"04-8960683","COUNTYNAME":"彰化縣","TOWNNAME":"二林鎮","MARKTYPE":"991","Class":"1"}},{"type":"Feature","id":27788,"geometry":{"type":"Point","coordinates":[120.37356901778816,23.899736959691612]},"properties":{"OBJECTID":27788,"LANDMARKID":"1000700000109","LANDMARKCO":"105","LANDMARKNA":"彰化縣二林地政事務所","LANDMARKAD":"1000720","ADDRESS":"彰化縣二林鎮豐田里斗苑路四段696號","TEL":"04-8960094","COUNTYNAME":"彰化縣","TOWNNAME":"二林鎮","MARKTYPE":"991","Class":"1"}},{"type":"Feature","id":27789,"geometry":{"type":"Point","coordinates":[120.38475306483981,23.938066614754426]},"properties":{"OBJECTID":27789,"LANDMARKID":"1000700000020","LANDMARKCO":"101","LANDMARKNA":"台灣彰化監獄","LANDMARKAD":"1000720","ADDRESS":"彰化縣二林鎮二溪路三段240號","TEL":"04-8964800","COUNTYNAME":"彰化縣","TOWNNAME":"二林鎮","MARKTYPE":"991","Class":"1"}},{"type":"Feature","id":27790,"geometry":{"type":"Point","coordinates":[120.37508739167237,23.899957897789392]},"properties":{"OBJECTID":27790,"LANDMARKID":"1000700000549","LANDMARKCO":"204","LANDMARKNA":"彰化縣立圖書館二林分館","LANDMARKAD":"1000720","ADDRESS":"彰化縣二林鎮斗苑路四段626號","TEL":" ","COUNTYNAME":"彰化縣","TOWNNAME":"二林鎮","MARKTYPE":"992","Class":"2"}},{"type":"Feature","id":27791,"geometry":{"type":"Point","coordinates":[120.35956002436501,23.890017488934365]},"properties":{"OBJECTID":27791,"LANDMARKID":"1000700000305","LANDMARKCO":"202","LANDMARKNA":"縣立二林高中","LANDMARKAD":"1000720","ADDRESS":"彰化縣二林鎮中西里二城路6號","TEL":"04-8960121","COUNTYNAME":"彰化縣","TOWNNAME":"二林鎮","MARKTYPE":"992","Class":"2"}},{"type":"Feature","id":27792,"geometry":{"type":"Point","coordinates":[120.37731012821459,23.90120069680458]},"properties":{"OBJECTID":27792,"LANDMARKID":"1000700000306","LANDMARKCO":"202","LANDMARKNA":"國立二林工商","LANDMARKAD":"1000720","ADDRESS":"彰化縣二林鎮斗苑路四段500號","TEL":"04-8962133","COUNTYNAME":"彰化縣","TOWNNAME":"二林鎮","MARKTYPE":"992","Class":"2"}},{"type":"Feature","id":27793,"geometry":{"type":"Point","coordinates":[120.41545516552203,23.956245402730094]},"properties":{"OBJECTID":27793,"LANDMARKID":"1000700000379","LANDMARKCO":"203","LANDMARKNA":"縣立萬興國中","LANDMARKAD":"1000720","ADDRESS":"彰化縣二林鎮萬興里二溪路六段626號","TEL":"04-8682978","COUNTYNAME":"彰化縣","TOWNNAME":"二林鎮","MARKTYPE":"992","Class":"2"}},{"type":"Feature","id":27794,"geometry":{"type":"Point","coordinates":[120.42707827437725,23.894259314476173]},"properties":{"OBJECTID":27794,"LANDMARKID":"1000700000380","LANDMARKCO":"203","LANDMARKNA":"縣立原斗國中","LANDMARKAD":"1000720","ADDRESS":"彰化縣二林鎮原斗里原竹路872號","TEL":"04-8904600","COUNTYNAME":"彰化縣","TOWNNAME":"二林鎮","MARKTYPE":"992","Class":"2"}},{"type":"Feature","id":27795,"geometry":{"type":"Point","coordinates":[120.4193527659327,23.954097375753904]},"properties":{"OBJECTID":27795,"LANDMARKID":"1000700000381","LANDMARKCO":"203","LANDMARKNA":"縣立萬興國小","LANDMARKAD":"1000720","ADDRESS":"彰化縣二林鎮永興里二溪路六段433號","TEL":"04-8682759","COUNTYNAME":"彰化縣","TOWNNAME":"二林鎮","MARKTYPE":"992","Class":"2"}},{"type":"Feature","id":27796,"geometry":{"type":"Point","coordinates":[120.42681104405564,23.895882596315271]},"properties":{"OBJECTID":27796,"LANDMARKID":"1000700000382","LANDMARKCO":"203","LANDMARKNA":"縣立原斗國小","LANDMARKAD":"1000720","ADDRESS":"彰化縣二林鎮原斗里斗苑路一段865號","TEL":"04-8902322","COUNTYNAME":"彰化縣","TOWNNAME":"二林鎮","MARKTYPE":"992","Class":"2"}},{"type":"Feature","id":27797,"geometry":{"type":"Point","coordinates":[120.37174880203733,23.900455780051885]},"properties":{"OBJECTID":27797,"LANDMARKID":"1000700000383","LANDMARKCO":"203","LANDMARKNA":"縣立二林國小","LANDMARKAD":"1000720","ADDRESS":"彰化縣二林鎮東和里斗苑路五段22號","TEL":"04-8960057","COUNTYNAME":"彰化縣","TOWNNAME":"二林鎮","MARKTYPE":"992","Class":"2"}},{"type":"Feature","id":27798,"geometry":{"type":"Point","coordinates":[120.44268766136761,23.947856813347641]},"properties":{"OBJECTID":27798,"LANDMARKID":"1000700000384","LANDMARKCO":"203","LANDMARKNA":"縣立中興國小","LANDMARKAD":"1000720","ADDRESS":"彰化縣二林鎮華菕里光復路73號","TEL":"04-8683458","COUNTYNAME":"彰化縣","TOWNNAME":"二林鎮","MARKTYPE":"992","Class":"2"}},{"type":"Feature","id":27799,"geometry":{"type":"Point","coordinates":[120.37126334975714,23.897472129490453]},"properties":{"OBJECTID":27799,"LANDMARKID":"1000700000385","LANDMARKCO":"203","LANDMARKNA":"縣立中正國小","LANDMARKAD":"1000720","ADDRESS":"彰化縣二林鎮南光里建興街80號","TEL":"04-8960145","COUNTYNAME":"彰化縣","TOWNNAME":"二林鎮","MARKTYPE":"992","Class":"2"}},{"type":"Feature","id":27800,"geometry":{"type":"Point","coordinates":[120.37660739549682,23.874558442690489]},"properties":{"OBJECTID":27800,"LANDMARKID":"1000700000386","LANDMARKCO":"203","LANDMARKNA":"縣立香田國小","LANDMARKAD":"1000720","ADDRESS":"彰化縣二林鎮香田里儒林路10之1號","TEL":"04-8960654","COUNTYNAME":"彰化縣","TOWNNAME":"二林鎮","MARKTYPE":"992","Class":"2"}}]}