{"type":"FeatureCollection","features":[{"type":"Feature","id":1,"geometry":{"type":"Point","coordinates":[120.26129790282934,23.750409735833411]},"properties":{"OBJECTID":1,"LANDMARKID":"1000900000690","LANDMARKCO":"405","LANDMARKNA":"中油加油站-麥寮站(中油直營)","LANDMARKAD":"1000913","ADDRESS":"雲林縣麥寮鄉麥豐村中山路12號","TEL":"05-6932174","COUNTYNAME":"雲林縣","TOWNNAME":"麥寮鄉","MARKTYPE":"994","Class":"4"}},{"type":"Feature","id":2,"geometry":{"type":"Point","coordinates":[120.24637240654435,23.751099295893489]},"properties":{"OBJECTID":2,"LANDMARKID":"1000900000691","LANDMARKCO":"405","LANDMARKNA":"中油加油站-品強站","LANDMARKAD":"1000913","ADDRESS":"雲林縣麥寮鄉麥津村豐安路8號","TEL":"05-6932299","COUNTYNAME":"雲林縣","TOWNNAME":"麥寮鄉","MARKTYPE":"994","Class":"4"}},{"type":"Feature","id":3,"geometry":{"type":"Point","coordinates":[120.27312461517835,23.795412307008469]},"properties":{"OBJECTID":3,"LANDMARKID":"1000900000692","LANDMARKCO":"405","LANDMARKNA":"中油加油站-橋南站(中油直營)","LANDMARKAD":"1000913","ADDRESS":"雲林縣麥寮鄉橋頭村橋頭路34號","TEL":"05-6913386","COUNTYNAME":"雲林縣","TOWNNAME":"麥寮鄉","MARKTYPE":"994","Class":"4"}},{"type":"Feature","id":4,"geometry":{"type":"Point","coordinates":[120.25862988892574,23.741617500081819]},"properties":{"OBJECTID":4,"LANDMARKID":"1000900000693","LANDMARKCO":"405","LANDMARKNA":"中油加油站-日祥站","LANDMARKAD":"1000913","ADDRESS":"雲林縣麥寮鄉麥豐村西濱路二段453號","TEL":"05-6936301","COUNTYNAME":"雲林縣","TOWNNAME":"麥寮鄉","MARKTYPE":"994","Class":"4"}},{"type":"Feature","id":5,"geometry":{"type":"Point","coordinates":[120.2859169963383,23.794912592715036]},"properties":{"OBJECTID":5,"LANDMARKID":"1000900000694","LANDMARKCO":"405","LANDMARKNA":"中油加油站-威盛站","LANDMARKAD":"1000913","ADDRESS":"雲林縣麥寮鄉施厝村施厝寮68-10號","TEL":"05-6910697","COUNTYNAME":"雲林縣","TOWNNAME":"麥寮鄉","MARKTYPE":"994","Class":"4"}},{"type":"Feature","id":6,"geometry":{"type":"Point","coordinates":[120.25111821803755,23.750323951252859]},"properties":{"OBJECTID":6,"LANDMARKID":"1000900000626","LANDMARKCO":"402","LANDMARKNA":"亞太行動寬頻電信-麥寮中山加盟服務中心","LANDMARKAD":"1000913","ADDRESS":"雲林縣麥寮鄉麥津村中山路412-1號","TEL":"05-6939280","COUNTYNAME":"雲林縣","TOWNNAME":"麥寮鄉","MARKTYPE":"994","Class":"4"}},{"type":"Feature","id":7,"geometry":{"type":"Point","coordinates":[120.25634420896934,23.747422081344016]},"properties":{"OBJECTID":7,"LANDMARKID":"1000900000800","LANDMARKCO":"408","LANDMARKNA":"郵局-麥寮郵局","LANDMARKAD":"1000913","ADDRESS":"雲林縣麥寮鄉光復路24號","TEL":"(05)6932-054","COUNTYNAME":"雲林縣","TOWNNAME":"麥寮鄉","MARKTYPE":"994","Class":"4"}},{"type":"Feature","id":8,"geometry":{"type":"Point","coordinates":[120.2130287717811,23.801371157239753]},"properties":{"OBJECTID":8,"LANDMARKID":"1000900000801","LANDMARKCO":"408","LANDMARKNA":"郵局-麥寮工業區郵局","LANDMARKAD":"1000913","ADDRESS":"雲林縣麥寮鄉台塑工業園區1號","TEL":"(05)6812-680","COUNTYNAME":"雲林縣","TOWNNAME":"麥寮鄉","MARKTYPE":"994","Class":"4"}},{"type":"Feature","id":9,"geometry":{"type":"Point","coordinates":[120.27741898915662,23.796378466510753]},"properties":{"OBJECTID":9,"LANDMARKID":"1000900000802","LANDMARKCO":"408","LANDMARKNA":"郵局-麥寮橋頭郵局","LANDMARKAD":"1000913","ADDRESS":"雲林縣麥寮鄉橋頭村仁德路98號","TEL":"(05)6915-930","COUNTYNAME":"雲林縣","TOWNNAME":"麥寮鄉","MARKTYPE":"994","Class":"4"}},{"type":"Feature","id":10,"geometry":{"type":"Point","coordinates":[120.25129982433863,23.749883279860907]},"properties":{"OBJECTID":10,"LANDMARKID":"1000900000827","LANDMARKCO":"409","LANDMARKNA":"雲林縣麥寮鄉農會","LANDMARKAD":"1000913","ADDRESS":"雲林縣麥寮鄉麥豐村中山路119號","TEL":"05-6931101","COUNTYNAME":"雲林縣","TOWNNAME":"麥寮鄉","MARKTYPE":"994","Class":"4"}},{"type":"Feature","id":11,"geometry":{"type":"Point","coordinates":[120.28979175759781,23.758562240948997]},"properties":{"OBJECTID":11,"LANDMARKID":"1000900000695","LANDMARKCO":"405","LANDMARKNA":"台亞加油站-六輕站（台塑）","LANDMARKAD":"1000913","ADDRESS":"雲林縣麥寮鄉三盛村中山路61-86號","TEL":"(05)691-0406","COUNTYNAME":"雲林縣","TOWNNAME":"麥寮鄉","MARKTYPE":"994","Class":"4"}},{"type":"Feature","id":12,"geometry":{"type":"Point","coordinates":[120.23722763190464,23.789282514164775]},"properties":{"OBJECTID":12,"LANDMARKID":"1000900000696","LANDMARKCO":"405","LANDMARKNA":"台塑加油站-麥寮長庚站(台塑)","LANDMARKAD":"1000913","ADDRESS":"雲林縣麥寮鄉後安村後安路222-36號","TEL":"05-6930141","COUNTYNAME":"雲林縣","TOWNNAME":"麥寮鄉","MARKTYPE":"994","Class":"4"}},{"type":"Feature","id":13,"geometry":{"type":"Point","coordinates":[120.24191897895008,23.797785805423082]},"properties":{"OBJECTID":13,"LANDMARKID":"1000900000697","LANDMARKCO":"405","LANDMARKNA":"台塑加油站-春田站(台塑)","LANDMARKAD":"1000913","ADDRESS":"雲林縣麥寮鄉三盛村許厝2-38號","TEL":"05-6911197","COUNTYNAME":"雲林縣","TOWNNAME":"麥寮鄉","MARKTYPE":"994","Class":"4"}},{"type":"Feature","id":14,"geometry":{"type":"Point","coordinates":[120.25761692353515,23.741513712085666]},"properties":{"OBJECTID":14,"LANDMARKID":"1000900000698","LANDMARKCO":"405","LANDMARKNA":"台塑加油站-聯發站(台塑)","LANDMARKAD":"1000913","ADDRESS":"雲林縣麥寮鄉西濱路二段302號","TEL":"05-6938398","COUNTYNAME":"雲林縣","TOWNNAME":"麥寮鄉","MARKTYPE":"994","Class":"4"}},{"type":"Feature","id":15,"geometry":{"type":"Point","coordinates":[120.25168368636226,23.753874777854531]},"properties":{"OBJECTID":15,"LANDMARKID":"1000900000230","LANDMARKCO":"108","LANDMARKNA":"雲林縣麥寮鄉公所","LANDMARKAD":"1000913","ADDRESS":"雲林縣麥寮鄉麥津村中興路117號","TEL":"05-6934495","COUNTYNAME":"雲林縣","TOWNNAME":"麥寮鄉","MARKTYPE":"991","Class":"1"}},{"type":"Feature","id":16,"geometry":{"type":"Point","coordinates":[120.25603936480093,23.746892751748646]},"properties":{"OBJECTID":16,"LANDMARKID":"1000900000088","LANDMARKCO":"103","LANDMARKNA":"雲林縣麥寮鄉衛生所","LANDMARKAD":"1000913","ADDRESS":"雲林縣麥寮鄉光復路4號","TEL":"05-6932268","COUNTYNAME":"雲林縣","TOWNNAME":"麥寮鄉","MARKTYPE":"991","Class":"1"}},{"type":"Feature","id":17,"geometry":{"type":"Point","coordinates":[120.25174398466127,23.753234035216938]},"properties":{"OBJECTID":17,"LANDMARKID":"1000900000089","LANDMARKCO":"103","LANDMARKNA":"雲林縣麥寮鄉民代表會","LANDMARKAD":"1000913","ADDRESS":"雲林縣麥寮鄉麥津村中興路109號","TEL":"05-6932009","COUNTYNAME":"雲林縣","TOWNNAME":"麥寮鄉","MARKTYPE":"991","Class":"1"}},{"type":"Feature","id":18,"geometry":{"type":"Point","coordinates":[120.25189449506502,23.753537351708811]},"properties":{"OBJECTID":18,"LANDMARKID":"1000900000205","LANDMARKCO":"107","LANDMARKNA":"雲林縣消防局麥寮消防分隊","LANDMARKAD":"1000913","ADDRESS":"雲林縣麥寮鄉麥津村中興路115號","TEL":"05-6933143","COUNTYNAME":"雲林縣","TOWNNAME":"麥寮鄉","MARKTYPE":"991","Class":"1"}},{"type":"Feature","id":19,"geometry":{"type":"Point","coordinates":[120.25580702265563,23.748738203287438]},"properties":{"OBJECTID":19,"LANDMARKID":"1000900000206","LANDMARKCO":"107","LANDMARKNA":"雲林縣警察局麥寮分駐所","LANDMARKAD":"1000913","ADDRESS":"雲林縣麥寮鄉麥津村中山路208號","TEL":"05-6932030","COUNTYNAME":"雲林縣","TOWNNAME":"麥寮鄉","MARKTYPE":"991","Class":"1"}},{"type":"Feature","id":20,"geometry":{"type":"Point","coordinates":[120.27447790115423,23.797093594423451]},"properties":{"OBJECTID":20,"LANDMARKID":"1000900000207","LANDMARKCO":"107","LANDMARKNA":"雲林縣警察局橋頭派出所","LANDMARKAD":"1000913","ADDRESS":"雲林縣麥寮鄉橋頭村仁德路234號","TEL":"05-6911007","COUNTYNAME":"雲林縣","TOWNNAME":"麥寮鄉","MARKTYPE":"991","Class":"1"}},{"type":"Feature","id":21,"geometry":{"type":"Point","coordinates":[120.25617174945381,23.74869829133209]},"properties":{"OBJECTID":21,"LANDMARKID":"1000900000115","LANDMARKCO":"106","LANDMARKNA":"雲林縣麥寮鄉戶政事務所","LANDMARKAD":"1000913","ADDRESS":"雲林縣麥寮鄉麥津村8鄰中山路204號","TEL":"05-6932948","COUNTYNAME":"雲林縣","TOWNNAME":"麥寮鄉","MARKTYPE":"991","Class":"1"}},{"type":"Feature","id":22,"geometry":{"type":"Point","coordinates":[120.25454253692523,23.74919372867117]},"properties":{"OBJECTID":22,"LANDMARKID":"1000900000480","LANDMARKCO":"204","LANDMARKNA":"雲林縣立圖書館麥寮分館","LANDMARKAD":"1000913","ADDRESS":"雲林縣麥寮鄉中山路206號","TEL":" ","COUNTYNAME":"雲林縣","TOWNNAME":"麥寮鄉","MARKTYPE":"992","Class":"2"}},{"type":"Feature","id":23,"geometry":{"type":"Point","coordinates":[120.25170772908685,23.758699901077801]},"properties":{"OBJECTID":23,"LANDMARKID":"1000900000252","LANDMARKCO":"202","LANDMARKNA":"縣立麥寮高中","LANDMARKAD":"1000913","ADDRESS":"雲林縣麥寮鄉中興路310巷1號","TEL":"05-6932050","COUNTYNAME":"雲林縣","TOWNNAME":"麥寮鄉","MARKTYPE":"992","Class":"2"}},{"type":"Feature","id":24,"geometry":{"type":"Point","coordinates":[120.25411130248848,23.750748277426013]},"properties":{"OBJECTID":24,"LANDMARKID":"1000900000443","LANDMARKCO":"203","LANDMARKNA":"縣立麥寮國小","LANDMARKAD":"1000913","ADDRESS":"雲林縣麥寮鄉麥津村中山路260號","TEL":"05-6932266","COUNTYNAME":"雲林縣","TOWNNAME":"麥寮鄉","MARKTYPE":"992","Class":"2"}},{"type":"Feature","id":25,"geometry":{"type":"Point","coordinates":[120.27386466110265,23.797893514349518]},"properties":{"OBJECTID":25,"LANDMARKID":"1000900000444","LANDMARKCO":"203","LANDMARKNA":"縣立橋頭國小","LANDMARKAD":"1000913","ADDRESS":"雲林縣麥寮鄉橋頭村仁德路248號","TEL":"05-6962707","COUNTYNAME":"雲林縣","TOWNNAME":"麥寮鄉","MARKTYPE":"992","Class":"2"}},{"type":"Feature","id":26,"geometry":{"type":"Point","coordinates":[120.28837108068403,23.75932675220885]},"properties":{"OBJECTID":26,"LANDMARKID":"1000900000445","LANDMARKCO":"203","LANDMARKNA":"縣立興華國小","LANDMARKAD":"1000913","ADDRESS":"雲林縣麥寮鄉興華村興化路1號","TEL":"05-6932574","COUNTYNAME":"雲林縣","TOWNNAME":"麥寮鄉","MARKTYPE":"992","Class":"2"}},{"type":"Feature","id":27,"geometry":{"type":"Point","coordinates":[120.23478913607228,23.789586472620016]},"properties":{"OBJECTID":27,"LANDMARKID":"1000900000446","LANDMARKCO":"203","LANDMARKNA":"縣立豐安國小","LANDMARKAD":"1000913","ADDRESS":"雲林縣麥寮鄉後安村227號","TEL":"05-6932759","COUNTYNAME":"雲林縣","TOWNNAME":"麥寮鄉","MARKTYPE":"992","Class":"2"}},{"type":"Feature","id":28,"geometry":{"type":"Point","coordinates":[120.26565795392077,23.773484840244517]},"properties":{"OBJECTID":28,"LANDMARKID":"1000900000447","LANDMARKCO":"203","LANDMARKNA":"縣立明禮國小","LANDMARKAD":"1000913","ADDRESS":"雲林縣麥寮鄉崙後村92號","TEL":"05-6932244","COUNTYNAME":"雲林縣","TOWNNAME":"麥寮鄉","MARKTYPE":"992","Class":"2"}},{"type":"Feature","id":29,"geometry":{"type":"Point","coordinates":[120.22576880787749,23.764888196600271]},"properties":{"OBJECTID":29,"LANDMARKID":"1000900000448","LANDMARKCO":"203","LANDMARKNA":"縣立麥寮國小海豐分校","LANDMARKAD":"1000913","ADDRESS":"雲林縣麥寮鄉","TEL":"05-6931724","COUNTYNAME":"雲林縣","TOWNNAME":"麥寮鄉","MARKTYPE":"992","Class":"2"}},{"type":"Feature","id":30,"geometry":{"type":"Point","coordinates":[120.24271048995013,23.7756280251505]},"properties":{"OBJECTID":30,"LANDMARKID":"1000900000449","LANDMARKCO":"203","LANDMARKNA":"縣立麥寮國小楊厝分班","LANDMARKAD":"1000913","ADDRESS":"雲林縣麥寮鄉","TEL":"05-6937813","COUNTYNAME":"雲林縣","TOWNNAME":"麥寮鄉","MARKTYPE":"992","Class":"2"}},{"type":"Feature","id":31,"geometry":{"type":"Point","coordinates":[120.2441910578851,23.797854607360243]},"properties":{"OBJECTID":31,"LANDMARKID":"1000900000450","LANDMARKCO":"203","LANDMARKNA":"縣立橋頭國小許厝分校","LANDMARKAD":"1000913","ADDRESS":"雲林縣麥寮鄉三盛村3鄰57號","TEL":"05-6911449","COUNTYNAME":"雲林縣","TOWNNAME":"麥寮鄉","MARKTYPE":"992","Class":"2"}},{"type":"Feature","id":32,"geometry":{"type":"Point","coordinates":[120.17902663961348,23.784527988614968]},"properties":{"OBJECTID":32,"LANDMARKID":"1000900000536","LANDMARKCO":"305","LANDMARKNA":"麥寮工業專用港","LANDMARKAD":"1000913","ADDRESS":"雲林縣麥寮鄉","TEL":" ","COUNTYNAME":"雲林縣","TOWNNAME":"麥寮鄉","MARKTYPE":"993","Class":"305"}},{"type":"Feature","id":33,"geometry":{"type":"Point","coordinates":[120.27711407822481,23.791276589072861]},"properties":{"OBJECTID":33,"LANDMARKID":"1000900000555","LANDMARKCO":"308","LANDMARKNA":"台61-後安寮交流道-北上","LANDMARKAD":"1000913","ADDRESS":" ","TEL":" ","COUNTYNAME":"雲林縣","TOWNNAME":"麥寮鄉","MARKTYPE":"993","Class":"308"}},{"type":"Feature","id":34,"geometry":{"type":"Point","coordinates":[120.25377744739288,23.752720936365726]},"properties":{"OBJECTID":34,"LANDMARKID":"1000900000528","LANDMARKCO":"303","LANDMARKNA":"泰順路停車場","LANDMARKAD":"1000913","ADDRESS":"雲林縣麥寮鄉泰順路","TEL":" ","COUNTYNAME":"雲林縣","TOWNNAME":"麥寮鄉","MARKTYPE":"993","Class":"303"}},{"type":"Feature","id":35,"geometry":{"type":"Point","coordinates":[120.25377418133635,23.752717915627215]},"properties":{"OBJECTID":35,"LANDMARKID":"1000900000529","LANDMARKCO":"303","LANDMARKNA":"麥寮太順路停車場","LANDMARKAD":"1000913","ADDRESS":"雲林縣麥寮鄉太順路","TEL":" ","COUNTYNAME":"雲林縣","TOWNNAME":"麥寮鄉","MARKTYPE":"993","Class":"303"}},{"type":"Feature","id":36,"geometry":{"type":"Point","coordinates":[120.25612413542505,23.746408723894302]},"properties":{"OBJECTID":36,"LANDMARKID":"1000900000625","LANDMARKCO":"402","LANDMARKNA":"中華電信-麥寮服務中心","LANDMARKAD":"1000913","ADDRESS":"雲林縣麥寮鄉光復南路342號","TEL":"(05)693-7544","COUNTYNAME":"雲林縣","TOWNNAME":"麥寮鄉","MARKTYPE":"994","Class":"4"}},{"type":"Feature","id":37,"geometry":{"type":"Point","coordinates":[120.26265829268021,23.749301460062384]},"properties":{"OBJECTID":37,"LANDMARKID":"1000900000904","LANDMARKCO":"603","LANDMARKNA":"諾貝爾汽車旅館","LANDMARKAD":"1000913","ADDRESS":"雲林縣麥寮鄉麥豐村西濱路二段10號","TEL":"05-6931205","COUNTYNAME":"雲林縣","TOWNNAME":"麥寮鄉","MARKTYPE":"996","Class":"6"}},{"type":"Feature","id":38,"geometry":{"type":"Point","coordinates":[120.27666184248562,23.796515844582139]},"properties":{"OBJECTID":38,"LANDMARKID":"1000900000905","LANDMARKCO":"603","LANDMARKNA":"良友旅社","LANDMARKAD":"1000913","ADDRESS":"雲林縣麥寮鄉橋頭村仁德路136號","TEL":"05-6912132","COUNTYNAME":"雲林縣","TOWNNAME":"麥寮鄉","MARKTYPE":"996","Class":"6"}},{"type":"Feature","id":39,"geometry":{"type":"Point","coordinates":[120.25455441944383,23.748682386018817]},"properties":{"OBJECTID":39,"LANDMARKID":"1000900000906","LANDMARKCO":"603","LANDMARKNA":"群成旅社","LANDMARKAD":"1000913","ADDRESS":"雲林縣麥寮鄉麥津村中正路54號","TEL":"05-6932044","COUNTYNAME":"雲林縣","TOWNNAME":"麥寮鄉","MARKTYPE":"996","Class":"6"}},{"type":"Feature","id":40,"geometry":{"type":"Point","coordinates":[120.2549606815751,23.748325120301601]},"properties":{"OBJECTID":40,"LANDMARKID":"1000900000907","LANDMARKCO":"603","LANDMARKNA":"聚安旅社","LANDMARKAD":"1000913","ADDRESS":"雲林縣麥寮鄉麥豐村中正路25號","TEL":"05-6935536","COUNTYNAME":"雲林縣","TOWNNAME":"麥寮鄉","MARKTYPE":"996","Class":"6"}},{"type":"Feature","id":41,"geometry":{"type":"Point","coordinates":[120.37396416629959,23.791250586536798]},"properties":{"OBJECTID":41,"LANDMARKID":"1000900000699","LANDMARKCO":"405","LANDMARKNA":"中油加油站-二崙自強站(中油直營)","LANDMARKAD":"1000911","ADDRESS":"雲林縣二崙鄉大同村大同路21號","TEL":"05-5984084","COUNTYNAME":"雲林縣","TOWNNAME":"二崙鄉","MARKTYPE":"994","Class":"4"}},{"type":"Feature","id":42,"geometry":{"type":"Point","coordinates":[120.41729227817619,23.77369066403967]},"properties":{"OBJECTID":42,"LANDMARKID":"1000900000700","LANDMARKCO":"405","LANDMARKNA":"中油加油站-二崙站(中油直營)","LANDMARKAD":"1000911","ADDRESS":"雲林縣二崙鄉崙東村中山路一段102號","TEL":"05-5982056","COUNTYNAME":"雲林縣","TOWNNAME":"二崙鄉","MARKTYPE":"994","Class":"4"}},{"type":"Feature","id":43,"geometry":{"type":"Point","coordinates":[120.41560901608634,23.771667157992841]},"properties":{"OBJECTID":43,"LANDMARKID":"1000900000798","LANDMARKCO":"408","LANDMARKNA":"郵局-二崙郵局","LANDMARKAD":"1000911","ADDRESS":"雲林縣二崙鄉中山路1段178號","TEL":"(05)5982-054","COUNTYNAME":"雲林縣","TOWNNAME":"二崙鄉","MARKTYPE":"994","Class":"4"}},{"type":"Feature","id":44,"geometry":{"type":"Point","coordinates":[120.39239832582933,23.800574954598876]},"properties":{"OBJECTID":44,"LANDMARKID":"1000900000799","LANDMARKCO":"408","LANDMARKNA":"郵局-二崙油車郵局","LANDMARKAD":"1000911","ADDRESS":"雲林縣二崙鄉港后路106號","TEL":"(05)5989-082","COUNTYNAME":"雲林縣","TOWNNAME":"二崙鄉","MARKTYPE":"994","Class":"4"}},{"type":"Feature","id":45,"geometry":{"type":"Point","coordinates":[120.41485348209328,23.770782533293524]},"properties":{"OBJECTID":45,"LANDMARKID":"1000900000828","LANDMARKCO":"409","LANDMARKNA":"雲林縣二崙鄉農會","LANDMARKAD":"1000911","ADDRESS":"雲林縣二崙鄉崙西村中 正路107號","TEL":"05-5986001","COUNTYNAME":"雲林縣","TOWNNAME":"二崙鄉","MARKTYPE":"994","Class":"4"}},{"type":"Feature","id":46,"geometry":{"type":"Point","coordinates":[120.41495475423281,23.771319075809291]},"properties":{"OBJECTID":46,"LANDMARKID":"1000900000231","LANDMARKCO":"108","LANDMARKNA":"雲林縣二崙鄉公所","LANDMARKAD":"1000911","ADDRESS":"雲林縣二崙鄉中興路5號","TEL":"05-5982001","COUNTYNAME":"雲林縣","TOWNNAME":"二崙鄉","MARKTYPE":"991","Class":"1"}},{"type":"Feature","id":47,"geometry":{"type":"Point","coordinates":[120.41282485746972,23.770320211961067]},"properties":{"OBJECTID":47,"LANDMARKID":"1000900000201","LANDMARKCO":"107","LANDMARKNA":"雲林縣消防局二崙消防分隊","LANDMARKAD":"1000911","ADDRESS":"雲林縣二崙鄉中正路80號","TEL":"05-5989119","COUNTYNAME":"雲林縣","TOWNNAME":"二崙鄉","MARKTYPE":"991","Class":"1"}},{"type":"Feature","id":48,"geometry":{"type":"Point","coordinates":[120.4126258350019,23.772215653439982]},"properties":{"OBJECTID":48,"LANDMARKID":"1000900000090","LANDMARKCO":"103","LANDMARKNA":"雲林縣二崙鄉鄉民代表會","LANDMARKAD":"1000911","ADDRESS":"雲林縣二崙鄉中興路23號","TEL":"05-5982019","COUNTYNAME":"雲林縣","TOWNNAME":"二崙鄉","MARKTYPE":"991","Class":"1"}},{"type":"Feature","id":49,"geometry":{"type":"Point","coordinates":[120.41262345919348,23.771879280218947]},"properties":{"OBJECTID":49,"LANDMARKID":"1000900000091","LANDMARKCO":"103","LANDMARKNA":"雲林縣二崙鄉衛生所","LANDMARKAD":"1000911","ADDRESS":"雲林縣二崙鄉中興路9號","TEL":"05-5982004","COUNTYNAME":"雲林縣","TOWNNAME":"二崙鄉","MARKTYPE":"991","Class":"1"}},{"type":"Feature","id":50,"geometry":{"type":"Point","coordinates":[120.41672663043094,23.796808948166603]},"properties":{"OBJECTID":50,"LANDMARKID":"1000900000198","LANDMARKCO":"107","LANDMARKNA":"雲林縣警察局永定派出所","LANDMARKAD":"1000911","ADDRESS":"雲林縣二崙鄉永定路372號","TEL":"05-5982604","COUNTYNAME":"雲林縣","TOWNNAME":"二崙鄉","MARKTYPE":"991","Class":"1"}},{"type":"Feature","id":51,"geometry":{"type":"Point","coordinates":[120.41302429505527,23.770782512433279]},"properties":{"OBJECTID":51,"LANDMARKID":"1000900000199","LANDMARKCO":"107","LANDMARKNA":"雲林縣警察局二崙分駐所","LANDMARKAD":"1000911","ADDRESS":"雲林縣二崙鄉崙西村中山路102號","TEL":"05-5982595","COUNTYNAME":"雲林縣","TOWNNAME":"二崙鄉","MARKTYPE":"991","Class":"1"}},{"type":"Feature","id":52,"geometry":{"type":"Point","coordinates":[120.39018209436163,23.795242464174716]},"properties":{"OBJECTID":52,"LANDMARKID":"1000900000200","LANDMARKCO":"107","LANDMARKNA":"雲林縣警察局油車派出所","LANDMARKAD":"1000911","ADDRESS":"雲林縣二崙鄉油車村文化路8號","TEL":"05-5982334","COUNTYNAME":"雲林縣","TOWNNAME":"二崙鄉","MARKTYPE":"991","Class":"1"}},{"type":"Feature","id":53,"geometry":{"type":"Point","coordinates":[120.41547612493619,23.773170449478595]},"properties":{"OBJECTID":53,"LANDMARKID":"1000900000114","LANDMARKCO":"106","LANDMARKNA":"雲林縣二崙鄉戶政事務所","LANDMARKAD":"1000911","ADDRESS":"雲林縣二崙鄉中山路一段168巷37號","TEL":"05-5982009","COUNTYNAME":"雲林縣","TOWNNAME":"二崙鄉","MARKTYPE":"991","Class":"1"}},{"type":"Feature","id":54,"geometry":{"type":"Point","coordinates":[120.41286771383815,23.771544058785082]},"properties":{"OBJECTID":54,"LANDMARKID":"1000900000481","LANDMARKCO":"204","LANDMARKNA":"雲林縣立圖書館二崙分館","LANDMARKAD":"1000911","ADDRESS":"雲林縣二崙鄉崙西村中興路5之1號","TEL":" ","COUNTYNAME":"雲林縣","TOWNNAME":"二崙鄉","MARKTYPE":"992","Class":"2"}},{"type":"Feature","id":55,"geometry":{"type":"Point","coordinates":[120.37563722435125,23.794098536552422]},"properties":{"OBJECTID":55,"LANDMARKID":"1000900000451","LANDMARKCO":"203","LANDMARKNA":"縣立大同國小","LANDMARKAD":"1000911","ADDRESS":"雲林縣二崙鄉大同村大同路5號","TEL":"05-5982996","COUNTYNAME":"雲林縣","TOWNNAME":"二崙鄉","MARKTYPE":"992","Class":"2"}},{"type":"Feature","id":56,"geometry":{"type":"Point","coordinates":[120.39212598210638,23.796240358545525]},"properties":{"OBJECTID":56,"LANDMARKID":"1000900000452","LANDMARKCO":"203","LANDMARKNA":"縣立油車國小","LANDMARKAD":"1000911","ADDRESS":"雲林縣二崙鄉港後村港後路60號","TEL":"05-5982600","COUNTYNAME":"雲林縣","TOWNNAME":"二崙鄉","MARKTYPE":"992","Class":"2"}},{"type":"Feature","id":57,"geometry":{"type":"Point","coordinates":[120.40689316835861,23.773821933589414]},"properties":{"OBJECTID":57,"LANDMARKID":"1000900000453","LANDMARKCO":"203","LANDMARKNA":"縣立二崙國中","LANDMARKAD":"1000911","ADDRESS":"雲林縣二崙鄉崙西村中正路88號","TEL":"05-5983004","COUNTYNAME":"雲林縣","TOWNNAME":"二崙鄉","MARKTYPE":"992","Class":"2"}},{"type":"Feature","id":58,"geometry":{"type":"Point","coordinates":[120.41297936292939,23.772203171604229]},"properties":{"OBJECTID":58,"LANDMARKID":"1000900000454","LANDMARKCO":"203","LANDMARKNA":"縣立二崙國小","LANDMARKAD":"1000911","ADDRESS":"雲林縣二崙鄉崙東村中興路36號","TEL":"05-5982241","COUNTYNAME":"雲林縣","TOWNNAME":"二崙鄉","MARKTYPE":"992","Class":"2"}},{"type":"Feature","id":59,"geometry":{"type":"Point","coordinates":[120.41976248895291,23.795935101683597]},"properties":{"OBJECTID":59,"LANDMARKID":"1000900000455","LANDMARKCO":"203","LANDMARKNA":"縣立永定國小","LANDMARKAD":"1000911","ADDRESS":"雲林縣二崙鄉永定村永定路238號","TEL":"05-5982796","COUNTYNAME":"雲林縣","TOWNNAME":"二崙鄉","MARKTYPE":"992","Class":"2"}},{"type":"Feature","id":60,"geometry":{"type":"Point","coordinates":[120.41396552676717,23.81709725096232]},"properties":{"OBJECTID":60,"LANDMARKID":"1000900000456","LANDMARKCO":"203","LANDMARKNA":"縣立義賢國小","LANDMARKAD":"1000911","ADDRESS":"雲林縣二崙鄉楊賢村楊賢路1號","TEL":"05-5982797","COUNTYNAME":"雲林縣","TOWNNAME":"二崙鄉","MARKTYPE":"992","Class":"2"}},{"type":"Feature","id":61,"geometry":{"type":"Point","coordinates":[120.40805532258018,23.750981880391162]},"properties":{"OBJECTID":61,"LANDMARKID":"1000900000457","LANDMARKCO":"203","LANDMARKNA":"縣立三和國小","LANDMARKAD":"1000911","ADDRESS":"雲林縣二崙鄉三和村2鄰17號","TEL":"05-5982795","COUNTYNAME":"雲林縣","TOWNNAME":"二崙鄉","MARKTYPE":"992","Class":"2"}},{"type":"Feature","id":62,"geometry":{"type":"Point","coordinates":[120.3985106760132,23.767825665008438]},"properties":{"OBJECTID":62,"LANDMARKID":"1000900000458","LANDMARKCO":"203","LANDMARKNA":"縣立來惠國小","LANDMARKAD":"1000911","ADDRESS":"雲林縣二崙鄉來惠村來惠路12號","TEL":"05-5982995","COUNTYNAME":"雲林縣","TOWNNAME":"二崙鄉","MARKTYPE":"992","Class":"2"}},{"type":"Feature","id":63,"geometry":{"type":"Point","coordinates":[120.36513804221316,23.804622701411688]},"properties":{"OBJECTID":63,"LANDMARKID":"1000900000459","LANDMARKCO":"203","LANDMARKNA":"縣立旭光國小","LANDMARKAD":"1000911","ADDRESS":"雲林縣二崙鄉大庄村酒姑村54號","TEL":"05-5982601","COUNTYNAME":"雲林縣","TOWNNAME":"二崙鄉","MARKTYPE":"992","Class":"2"}},{"type":"Feature","id":64,"geometry":{"type":"Point","coordinates":[120.41283772953081,23.772232843264284]},"properties":{"OBJECTID":64,"LANDMARKID":"1000900000525","LANDMARKCO":"303","LANDMARKNA":"二崙鄉中興路邊停車場","LANDMARKAD":"1000911","ADDRESS":"雲林縣二崙鄉中興路","TEL":" ","COUNTYNAME":"雲林縣","TOWNNAME":"二崙鄉","MARKTYPE":"993","Class":"303"}},{"type":"Feature","id":65,"geometry":{"type":"Point","coordinates":[120.41221638177292,23.771597765671928]},"properties":{"OBJECTID":65,"LANDMARKID":"1000900000526","LANDMARKCO":"303","LANDMARKNA":"二崙鄉農會停車場","LANDMARKAD":"1000911","ADDRESS":"雲林縣二崙鄉中興路","TEL":" ","COUNTYNAME":"雲林縣","TOWNNAME":"二崙鄉","MARKTYPE":"993","Class":"303"}},{"type":"Feature","id":66,"geometry":{"type":"Point","coordinates":[120.41549692410604,23.771491614258043]},"properties":{"OBJECTID":66,"LANDMARKID":"1000900000527","LANDMARKCO":"303","LANDMARKNA":"二崙鄉廣停車場","LANDMARKAD":"1000911","ADDRESS":"雲林縣二崙鄉中山路","TEL":" ","COUNTYNAME":"雲林縣","TOWNNAME":"二崙鄉","MARKTYPE":"993","Class":"303"}},{"type":"Feature","id":67,"geometry":{"type":"Point","coordinates":[120.41581286741008,23.771912502080088]},"properties":{"OBJECTID":67,"LANDMARKID":"1000900000627","LANDMARKCO":"402","LANDMARKNA":"中華電信-二崙服務中心","LANDMARKAD":"1000911","ADDRESS":"雲林縣二崙鄉中山路一段170號","TEL":"(05)598-0144","COUNTYNAME":"雲林縣","TOWNNAME":"二崙鄉","MARKTYPE":"994","Class":"4"}},{"type":"Feature","id":68,"geometry":{"type":"Point","coordinates":[120.3607737529982,23.776278193371407]},"properties":{"OBJECTID":68,"LANDMARKID":"1000900000908","LANDMARKCO":"603","LANDMARKNA":"邁阿密汽車旅館","LANDMARKAD":"1000911","ADDRESS":"雲林縣二崙鄉復興村隆興路29號之3","TEL":"05-5990009","COUNTYNAME":"雲林縣","TOWNNAME":"二崙鄉","MARKTYPE":"996","Class":"6"}},{"type":"Feature","id":69,"geometry":{"type":"Point","coordinates":[120.35903651271205,23.761042774072767]},"properties":{"OBJECTID":69,"LANDMARKID":"1000900000688","LANDMARKCO":"405","LANDMARKNA":"中油加油站-崙背站(中油直營)","LANDMARKAD":"1000912","ADDRESS":"雲林縣崙背鄉南陽村正義路123號","TEL":"05-6962049","COUNTYNAME":"雲林縣","TOWNNAME":"崙背鄉","MARKTYPE":"994","Class":"4"}},{"type":"Feature","id":70,"geometry":{"type":"Point","coordinates":[120.35418290153684,23.786265868511958]},"properties":{"OBJECTID":70,"LANDMARKID":"1000900000689","LANDMARKCO":"405","LANDMARKNA":"中油加油站-頂愛站","LANDMARKAD":"1000912","ADDRESS":"雲林縣崙背鄉水尾村頂街路61號","TEL":"056-964169","COUNTYNAME":"雲林縣","TOWNNAME":"崙背鄉","MARKTYPE":"994","Class":"4"}},{"type":"Feature","id":71,"geometry":{"type":"Point","coordinates":[120.35503752194136,23.761135353357385]},"properties":{"OBJECTID":71,"LANDMARKID":"1000900000628","LANDMARKCO":"402","LANDMARKNA":"亞太行動寬頻電信-崙背中山加盟服務中心","LANDMARKAD":"1000912","ADDRESS":"雲林縣崙背鄉東明村中山路216號","TEL":"05-6960215","COUNTYNAME":"雲林縣","TOWNNAME":"崙背鄉","MARKTYPE":"994","Class":"4"}},{"type":"Feature","id":72,"geometry":{"type":"Point","coordinates":[120.35283310864713,23.759446522824284]},"properties":{"OBJECTID":72,"LANDMARKID":"1000900000803","LANDMARKCO":"408","LANDMARKNA":"郵局-崙背郵局","LANDMARKAD":"1000912","ADDRESS":"雲林縣崙背鄉民主路5號","TEL":"(05)6962-074","COUNTYNAME":"雲林縣","TOWNNAME":"崙背鄉","MARKTYPE":"994","Class":"4"}},{"type":"Feature","id":73,"geometry":{"type":"Point","coordinates":[120.35485641172741,23.759532811600117]},"properties":{"OBJECTID":73,"LANDMARKID":"1000900000826","LANDMARKCO":"409","LANDMARKNA":"雲林縣崙背鄉農會","LANDMARKAD":"1000912","ADDRESS":"雲林縣崙背鄉南陽村永昌路14號","TEL":"05-6961116","COUNTYNAME":"雲林縣","TOWNNAME":"崙背鄉","MARKTYPE":"994","Class":"4"}},{"type":"Feature","id":74,"geometry":{"type":"Point","coordinates":[120.35340773446384,23.75816454711827]},"properties":{"OBJECTID":74,"LANDMARKID":"1000900000654","LANDMARKCO":"404","LANDMARKNA":"台灣省自來水崙背營運所","LANDMARKAD":"1000912","ADDRESS":"雲林縣崙背鄉崙前村南光路13號","TEL":" ","COUNTYNAME":"雲林縣","TOWNNAME":"崙背鄉","MARKTYPE":"994","Class":"4"}},{"type":"Feature","id":75,"geometry":{"type":"Point","coordinates":[120.3068223106544,23.750751764580833]},"properties":{"OBJECTID":75,"LANDMARKID":"1000900000687","LANDMARKCO":"405","LANDMARKNA":"台塑加油站-大友站(台塑)","LANDMARKAD":"1000912","ADDRESS":"雲林縣崙背鄉大有村282-1號","TEL":"05-6969937","COUNTYNAME":"雲林縣","TOWNNAME":"崙背鄉","MARKTYPE":"994","Class":"4"}},{"type":"Feature","id":76,"geometry":{"type":"Point","coordinates":[120.35313512402907,23.759813922639871]},"properties":{"OBJECTID":76,"LANDMARKID":"1000900000092","LANDMARKCO":"103","LANDMARKNA":"雲林縣崙背鄉衛生所","LANDMARKAD":"1000912","ADDRESS":"雲林縣崙背鄉南光路34號","TEL":"05-6962009","COUNTYNAME":"雲林縣","TOWNNAME":"崙背鄉","MARKTYPE":"991","Class":"1"}},{"type":"Feature","id":77,"geometry":{"type":"Point","coordinates":[120.35329725725518,23.758855562483493]},"properties":{"OBJECTID":77,"LANDMARKID":"1000900000093","LANDMARKCO":"103","LANDMARKNA":"雲林縣崙背鄉鄉民代表會","LANDMARKAD":"1000912","ADDRESS":"雲林縣崙背鄉南光路5號","TEL":"05-6962034","COUNTYNAME":"雲林縣","TOWNNAME":"崙背鄉","MARKTYPE":"991","Class":"1"}},{"type":"Feature","id":78,"geometry":{"type":"Point","coordinates":[120.35303622191734,23.758564716666811]},"properties":{"OBJECTID":78,"LANDMARKID":"1000900000203","LANDMARKCO":"107","LANDMARKNA":"雲林縣消防局崙背消防分隊","LANDMARKAD":"1000912","ADDRESS":"雲林縣崙背鄉南光路11號","TEL":"05-6962208","COUNTYNAME":"雲林縣","TOWNNAME":"崙背鄉","MARKTYPE":"991","Class":"1"}},{"type":"Feature","id":79,"geometry":{"type":"Point","coordinates":[120.35520034947996,23.762304002969639]},"properties":{"OBJECTID":79,"LANDMARKID":"1000900000204","LANDMARKCO":"107","LANDMARKNA":"雲林縣警察局崙背分駐所","LANDMARKAD":"1000912","ADDRESS":"雲林縣崙背鄉桿明村民權路114號","TEL":"05-6962016","COUNTYNAME":"雲林縣","TOWNNAME":"崙背鄉","MARKTYPE":"991","Class":"1"}},{"type":"Feature","id":80,"geometry":{"type":"Point","coordinates":[120.35524484177076,23.762021267428793]},"properties":{"OBJECTID":80,"LANDMARKID":"1000900000113","LANDMARKCO":"106","LANDMARKNA":"雲林縣崙背鄉戶政事務所","LANDMARKAD":"1000912","ADDRESS":"雲林縣崙背鄉東明村3鄰民權路114之1號","TEL":"05-6962304","COUNTYNAME":"雲林縣","TOWNNAME":"崙背鄉","MARKTYPE":"991","Class":"1"}},{"type":"Feature","id":81,"geometry":{"type":"Point","coordinates":[120.35228720495051,23.764530010970788]},"properties":{"OBJECTID":81,"LANDMARKID":"1000900000094","LANDMARKCO":"103","LANDMARKNA":"雲林縣崙背鄉調解委員會","LANDMARKAD":"1000912","ADDRESS":"雲林縣崙背鄉民權路386號","TEL":"05-6964412","COUNTYNAME":"雲林縣","TOWNNAME":"崙背鄉","MARKTYPE":"991","Class":"1"}},{"type":"Feature","id":82,"geometry":{"type":"Point","coordinates":[120.31264298850755,23.79266123584565]},"properties":{"OBJECTID":82,"LANDMARKID":"1000900000202","LANDMARKCO":"107","LANDMARKNA":"雲林縣警察局豐榮派出所","LANDMARKAD":"1000912","ADDRESS":"雲林縣崙背鄉豐榮村豐榮路2號","TEL":"05-6552159","COUNTYNAME":"雲林縣","TOWNNAME":"崙背鄉","MARKTYPE":"991","Class":"1"}},{"type":"Feature","id":83,"geometry":{"type":"Point","coordinates":[120.31414198345546,23.792596279909926]},"properties":{"OBJECTID":83,"LANDMARKID":"1000900000085","LANDMARKCO":"103","LANDMARKNA":"豐榮第一公墓殯儀館","LANDMARKAD":"1000912","ADDRESS":"雲林縣崙背鄉豐榮村豐榮路4號","TEL":"05-6962054","COUNTYNAME":"雲林縣","TOWNNAME":"崙背鄉","MARKTYPE":"991","Class":"1"}},{"type":"Feature","id":84,"geometry":{"type":"Point","coordinates":[120.35381969690131,23.758885913107829]},"properties":{"OBJECTID":84,"LANDMARKID":"1000900000233","LANDMARKCO":"108","LANDMARKNA":"雲林縣崙背鄉公所","LANDMARKAD":"1000912","ADDRESS":"雲林縣崙背鄉行政街1號","TEL":"05-6962440","COUNTYNAME":"雲林縣","TOWNNAME":"崙背鄉","MARKTYPE":"991","Class":"1"}},{"type":"Feature","id":85,"geometry":{"type":"Point","coordinates":[120.35324734878327,23.759003482927778]},"properties":{"OBJECTID":85,"LANDMARKID":"1000900000478","LANDMARKCO":"204","LANDMARKNA":"雲林縣立圖書館崙背分館","LANDMARKAD":"1000912","ADDRESS":"雲林縣崙背鄉南光路9號2樓","TEL":" ","COUNTYNAME":"雲林縣","TOWNNAME":"崙背鄉","MARKTYPE":"992","Class":"2"}},{"type":"Feature","id":86,"geometry":{"type":"Point","coordinates":[120.34892669521477,23.757985330882448]},"properties":{"OBJECTID":86,"LANDMARKID":"1000900000470","LANDMARKCO":"203","LANDMARKNA":"縣立崙背國中","LANDMARKAD":"1000912","ADDRESS":"雲林縣崙背鄉大成路91號","TEL":"05-6962013","COUNTYNAME":"雲林縣","TOWNNAME":"崙背鄉","MARKTYPE":"992","Class":"2"}},{"type":"Feature","id":87,"geometry":{"type":"Point","coordinates":[120.34700217059711,23.758694196375199]},"properties":{"OBJECTID":87,"LANDMARKID":"1000900000471","LANDMARKCO":"203","LANDMARKNA":"縣立崙背國小","LANDMARKAD":"1000912","ADDRESS":"雲林縣崙背鄉大同路154號","TEL":"05-6962004","COUNTYNAME":"雲林縣","TOWNNAME":"崙背鄉","MARKTYPE":"992","Class":"2"}},{"type":"Feature","id":88,"geometry":{"type":"Point","coordinates":[120.37415114036672,23.755993334616246]},"properties":{"OBJECTID":88,"LANDMARKID":"1000900000472","LANDMARKCO":"203","LANDMARKNA":"縣立東興國小","LANDMARKAD":"1000912","ADDRESS":"雲林縣崙背鄉羅厝村東興路1號","TEL":"05-6962164","COUNTYNAME":"雲林縣","TOWNNAME":"崙背鄉","MARKTYPE":"992","Class":"2"}},{"type":"Feature","id":89,"geometry":{"type":"Point","coordinates":[120.31187443261429,23.791570900340936]},"properties":{"OBJECTID":89,"LANDMARKID":"1000900000473","LANDMARKCO":"203","LANDMARKNA":"縣立豐榮國小","LANDMARKAD":"1000912","ADDRESS":"雲林縣崙背鄉豐榮村豐榮路21號","TEL":"05-6552006","COUNTYNAME":"雲林縣","TOWNNAME":"崙背鄉","MARKTYPE":"992","Class":"2"}},{"type":"Feature","id":90,"geometry":{"type":"Point","coordinates":[120.33031070989087,23.792201316226237]},"properties":{"OBJECTID":90,"LANDMARKID":"1000900000474","LANDMARKCO":"203","LANDMARKNA":"縣立中和國小","LANDMARKAD":"1000912","ADDRESS":"雲林縣崙背鄉草湖村2鄰2號","TEL":"05-6552384","COUNTYNAME":"雲林縣","TOWNNAME":"崙背鄉","MARKTYPE":"992","Class":"2"}},{"type":"Feature","id":91,"geometry":{"type":"Point","coordinates":[120.32775128660852,23.77043030380608]},"properties":{"OBJECTID":91,"LANDMARKID":"1000900000475","LANDMARKCO":"203","LANDMARKNA":"縣立崙背國小五魁分班","LANDMARKAD":"1000912","ADDRESS":"雲林縣崙背鄉五魁村","TEL":"05-6961587","COUNTYNAME":"雲林縣","TOWNNAME":"崙背鄉","MARKTYPE":"992","Class":"2"}},{"type":"Feature","id":92,"geometry":{"type":"Point","coordinates":[120.30882280587851,23.763745518939672]},"properties":{"OBJECTID":92,"LANDMARKID":"1000900000476","LANDMARKCO":"203","LANDMARKNA":"縣立大有國小","LANDMARKAD":"1000912","ADDRESS":"雲林縣崙背鄉大有村1鄰14號","TEL":"05-6962741","COUNTYNAME":"雲林縣","TOWNNAME":"崙背鄉","MARKTYPE":"992","Class":"2"}},{"type":"Feature","id":93,"geometry":{"type":"Point","coordinates":[120.35525345554869,23.785173647528598]},"properties":{"OBJECTID":93,"LANDMARKID":"1000900000477","LANDMARKCO":"203","LANDMARKNA":"縣立陽明國小","LANDMARKAD":"1000912","ADDRESS":"雲林縣崙背鄉水尾村頂街1號","TEL":"05-6967670","COUNTYNAME":"雲林縣","TOWNNAME":"崙背鄉","MARKTYPE":"992","Class":"2"}},{"type":"Feature","id":94,"geometry":{"type":"Point","coordinates":[120.35673411454216,23.760219621180735]},"properties":{"OBJECTID":94,"LANDMARKID":"1000900000508","LANDMARKCO":"302","LANDMARKNA":"台西汽車客運崙背站","LANDMARKAD":"1000912","ADDRESS":"雲林縣崙背鄉中山路214號","TEL":" ","COUNTYNAME":"雲林縣","TOWNNAME":"崙背鄉","MARKTYPE":"993","Class":"302"}},{"type":"Feature","id":95,"geometry":{"type":"Point","coordinates":[120.35300040957537,23.75939374559076]},"properties":{"OBJECTID":95,"LANDMARKID":"1000900000620","LANDMARKCO":"402","LANDMARKNA":"中華電信-崙背服務中心","LANDMARKAD":"1000912","ADDRESS":"雲林縣崙背鄉南光路42號","TEL":"(05)696-7144","COUNTYNAME":"雲林縣","TOWNNAME":"崙背鄉","MARKTYPE":"994","Class":"4"}},{"type":"Feature","id":96,"geometry":{"type":"Point","coordinates":[120.36270787622043,23.758358665191274]},"properties":{"OBJECTID":96,"LANDMARKID":"1000900000894","LANDMARKCO":"603","LANDMARKNA":"皇宮大旅社","LANDMARKAD":"1000912","ADDRESS":"雲林縣崙背鄉羅厝村東興路247號","TEL":"05-6962296","COUNTYNAME":"雲林縣","TOWNNAME":"崙背鄉","MARKTYPE":"996","Class":"6"}},{"type":"Feature","id":97,"geometry":{"type":"Point","coordinates":[120.35750670308721,23.761054113696559]},"properties":{"OBJECTID":97,"LANDMARKID":"1000900000895","LANDMARKCO":"603","LANDMARKNA":"富國旅社","LANDMARKAD":"1000912","ADDRESS":"雲林縣崙背鄉東明村正義路179號","TEL":"05-6962191","COUNTYNAME":"雲林縣","TOWNNAME":"崙背鄉","MARKTYPE":"996","Class":"6"}},{"type":"Feature","id":98,"geometry":{"type":"Point","coordinates":[120.35723778845117,23.760464948909267]},"properties":{"OBJECTID":98,"LANDMARKID":"1000900000896","LANDMARKCO":"603","LANDMARKNA":"華祺大旅社","LANDMARKAD":"1000912","ADDRESS":"雲林縣崙背鄉東明村南昌路171號","TEL":"05-6962116","COUNTYNAME":"雲林縣","TOWNNAME":"崙背鄉","MARKTYPE":"996","Class":"6"}},{"type":"Feature","id":99,"geometry":{"type":"Point","coordinates":[120.35773286416429,23.761001816308731]},"properties":{"OBJECTID":99,"LANDMARKID":"1000900000897","LANDMARKCO":"603","LANDMARKNA":"愛英旅社","LANDMARKAD":"1000912","ADDRESS":"雲林縣崙背鄉南陽村南昌路208號","TEL":"05-6962196","COUNTYNAME":"雲林縣","TOWNNAME":"崙背鄉","MARKTYPE":"996","Class":"6"}},{"type":"Feature","id":100,"geometry":{"type":"Point","coordinates":[120.46641526757068,23.798503539910747]},"properties":{"OBJECTID":100,"LANDMARKID":"1000900000680","LANDMARKCO":"405","LANDMARKNA":"中油加油站-西螺站(中油直營)","LANDMARKAD":"1000904","ADDRESS":"雲林縣西螺鎮大園里大同路38號","TEL":"05-5862240","COUNTYNAME":"雲林縣","TOWNNAME":"西螺鎮","MARKTYPE":"994","Class":"4"}},{"type":"Feature","id":101,"geometry":{"type":"Point","coordinates":[120.47910092822866,23.788387506671167]},"properties":{"OBJECTID":101,"LANDMARKID":"1000900000681","LANDMARKCO":"405","LANDMARKNA":"中油加油站-西螺服務區北上站","LANDMARKAD":"1000904","ADDRESS":"雲林縣西螺鎮振興里高速公路加油站2號之2","TEL":"05-5882005","COUNTYNAME":"雲林縣","TOWNNAME":"西螺鎮","MARKTYPE":"994","Class":"4"}},{"type":"Feature","id":102,"geometry":{"type":"Point","coordinates":[120.44326372871207,23.758439420657105]},"properties":{"OBJECTID":102,"LANDMARKID":"1000900000682","LANDMARKCO":"405","LANDMARKNA":"中油加油站-車城站","LANDMARKAD":"1000904","ADDRESS":"雲林縣西螺鎮振興路52-2號","TEL":"05-5873838","COUNTYNAME":"雲林縣","TOWNNAME":"西螺鎮","MARKTYPE":"994","Class":"4"}},{"type":"Feature","id":103,"geometry":{"type":"Point","coordinates":[120.45995585698343,23.800108266235402]},"properties":{"OBJECTID":103,"LANDMARKID":"1000900000624","LANDMARKCO":"402","LANDMARKNA":"亞太行動寬頻電信-西螺中山加盟服務中心","LANDMARKAD":"1000904","ADDRESS":"雲林縣西螺鎮中山路132號","TEL":"05-5881889","COUNTYNAME":"雲林縣","TOWNNAME":"西螺鎮","MARKTYPE":"994","Class":"4"}},{"type":"Feature","id":104,"geometry":{"type":"Point","coordinates":[120.4608876960676,23.801351848691368]},"properties":{"OBJECTID":104,"LANDMARKID":"1000900000590","LANDMARKCO":"401","LANDMARKNA":"育仁醫院","LANDMARKAD":"1000904","ADDRESS":"雲林縣西螺鎮延平路162號","TEL":"05-5862686","COUNTYNAME":"雲林縣","TOWNNAME":"西螺鎮","MARKTYPE":"994","Class":"4"}},{"type":"Feature","id":105,"geometry":{"type":"Point","coordinates":[120.44107638709154,23.781027092465514]},"properties":{"OBJECTID":105,"LANDMARKID":"1000900000591","LANDMARKCO":"401","LANDMARKNA":"慈愛綜合醫院","LANDMARKAD":"1000904","ADDRESS":"雲林縣西螺鎮新豐里新社321之90號","TEL":"05-5871111","COUNTYNAME":"雲林縣","TOWNNAME":"西螺鎮","MARKTYPE":"994","Class":"4"}},{"type":"Feature","id":106,"geometry":{"type":"Point","coordinates":[120.46468282571459,23.794654246452406]},"properties":{"OBJECTID":106,"LANDMARKID":"1000900000853","LANDMARKCO":"507","LANDMARKNA":"振文書院","LANDMARKAD":"1000904","ADDRESS":"雲林縣西螺鎮廣福里興農路6號","TEL":" ","COUNTYNAME":"雲林縣","TOWNNAME":"西螺鎮","MARKTYPE":"995","Class":"5"}},{"type":"Feature","id":107,"geometry":{"type":"Point","coordinates":[120.46082060449591,23.797835105177253]},"properties":{"OBJECTID":107,"LANDMARKID":"1000900000854","LANDMARKCO":"507","LANDMARKNA":"廖家祠堂","LANDMARKAD":"1000904","ADDRESS":"雲林縣西螺鎮福興里福興路222號","TEL":" ","COUNTYNAME":"雲林縣","TOWNNAME":"西螺鎮","MARKTYPE":"995","Class":"5"}},{"type":"Feature","id":108,"geometry":{"type":"Point","coordinates":[120.44148175507424,23.798186187763616]},"properties":{"OBJECTID":108,"LANDMARKID":"1000900000806","LANDMARKCO":"408","LANDMARKNA":"郵局-西螺埔心郵局","LANDMARKAD":"1000904","ADDRESS":"雲林縣西螺鎮埔心路164號","TEL":"(05)5860-166","COUNTYNAME":"雲林縣","TOWNNAME":"西螺鎮","MARKTYPE":"994","Class":"4"}},{"type":"Feature","id":109,"geometry":{"type":"Point","coordinates":[120.46052820402242,23.799836760832246]},"properties":{"OBJECTID":109,"LANDMARKID":"1000900000807","LANDMARKCO":"408","LANDMARKNA":"郵局-西螺郵局","LANDMARKAD":"1000904","ADDRESS":"雲林縣西螺鎮福興路167-1號","TEL":"(05)5862-166","COUNTYNAME":"雲林縣","TOWNNAME":"西螺鎮","MARKTYPE":"994","Class":"4"}},{"type":"Feature","id":110,"geometry":{"type":"Point","coordinates":[120.45316383544775,23.800082837248887]},"properties":{"OBJECTID":110,"LANDMARKID":"1000900000824","LANDMARKCO":"409","LANDMARKNA":"雲林縣西螺鎮農會","LANDMARKAD":"1000904","ADDRESS":"雲林縣西螺鎮中山路127號","TEL":"05-5863621","COUNTYNAME":"雲林縣","TOWNNAME":"西螺鎮","MARKTYPE":"994","Class":"4"}},{"type":"Feature","id":111,"geometry":{"type":"Point","coordinates":[120.46623763483478,23.802000515056442]},"properties":{"OBJECTID":111,"LANDMARKID":"1000900000655","LANDMARKCO":"404","LANDMARKNA":"台灣省自來水西螺營運所","LANDMARKAD":"1000904","ADDRESS":"雲林縣西螺鎮光復東路100號","TEL":" ","COUNTYNAME":"雲林縣","TOWNNAME":"西螺鎮","MARKTYPE":"994","Class":"4"}},{"type":"Feature","id":112,"geometry":{"type":"Point","coordinates":[120.47904392492076,23.791465318158384]},"properties":{"OBJECTID":112,"LANDMARKID":"1000900000677","LANDMARKCO":"405","LANDMARKNA":"台亞加油站-西螺站（台塑）","LANDMARKAD":"1000904","ADDRESS":"雲林縣西螺鎮振興里3號西螺休息站內","TEL":"(05)587-3840","COUNTYNAME":"雲林縣","TOWNNAME":"西螺鎮","MARKTYPE":"994","Class":"4"}},{"type":"Feature","id":113,"geometry":{"type":"Point","coordinates":[120.47911065000304,23.773657096250066]},"properties":{"OBJECTID":113,"LANDMARKID":"1000900000678","LANDMARKCO":"405","LANDMARKNA":"台塑加油站-三和站(台塑)","LANDMARKAD":"1000904","ADDRESS":"雲林縣西螺鎮埤頭里埤頭78號","TEL":"05-5873226","COUNTYNAME":"雲林縣","TOWNNAME":"西螺鎮","MARKTYPE":"994","Class":"4"}},{"type":"Feature","id":114,"geometry":{"type":"Point","coordinates":[120.44720766947802,23.787134991178721]},"properties":{"OBJECTID":114,"LANDMARKID":"1000900000679","LANDMARKCO":"405","LANDMARKNA":"福懋加油站-西螺站(台塑)","LANDMARKAD":"1000904","ADDRESS":"雲林縣西螺鎮新豐里8鄰新社路278-1號","TEL":"05-5866756","COUNTYNAME":"雲林縣","TOWNNAME":"西螺鎮","MARKTYPE":"994","Class":"4"}},{"type":"Feature","id":115,"geometry":{"type":"Point","coordinates":[120.46198495910822,23.800383641267061]},"properties":{"OBJECTID":115,"LANDMARKID":"1000900000084","LANDMARKCO":"103","LANDMARKNA":"雲林縣西螺鎮鎮民代表會","LANDMARKAD":"1000904","ADDRESS":"雲林縣西螺鎮公正路200號","TEL":"05-5862057","COUNTYNAME":"雲林縣","TOWNNAME":"西螺鎮","MARKTYPE":"991","Class":"1"}},{"type":"Feature","id":116,"geometry":{"type":"Point","coordinates":[120.46170721740903,23.800742890804411]},"properties":{"OBJECTID":116,"LANDMARKID":"1000900000192","LANDMARKCO":"107","LANDMARKNA":"雲林縣警察局西螺分局","LANDMARKAD":"1000904","ADDRESS":"雲林縣西螺鎮公正路213號","TEL":"05-5862301","COUNTYNAME":"雲林縣","TOWNNAME":"西螺鎮","MARKTYPE":"991","Class":"1"}},{"type":"Feature","id":117,"geometry":{"type":"Point","coordinates":[120.46168684701034,23.800833045625346]},"properties":{"OBJECTID":117,"LANDMARKID":"1000900000193","LANDMARKCO":"107","LANDMARKNA":"雲林縣警察局西螺派出所","LANDMARKAD":"1000904","ADDRESS":"雲林縣西螺鎮公正路213號","TEL":"05-5862014","COUNTYNAME":"雲林縣","TOWNNAME":"西螺鎮","MARKTYPE":"991","Class":"1"}},{"type":"Feature","id":118,"geometry":{"type":"Point","coordinates":[120.46534929999919,23.798014461461101]},"properties":{"OBJECTID":118,"LANDMARKID":"1000900000232","LANDMARKCO":"108","LANDMARKNA":"雲林縣西螺鎮公所","LANDMARKAD":"1000904","ADDRESS":"雲林縣西螺鎮光復西路20號","TEL":"05-5863203","COUNTYNAME":"雲林縣","TOWNNAME":"西螺鎮","MARKTYPE":"991","Class":"1"}},{"type":"Feature","id":119,"geometry":{"type":"Point","coordinates":[120.45966250039267,23.802080945681908]},"properties":{"OBJECTID":119,"LANDMARKID":"1000900000083","LANDMARKCO":"103","LANDMARKNA":"雲林縣西螺鎮衛生所","LANDMARKAD":"1000904","ADDRESS":"雲林縣西螺鎮修文路110號","TEL":"05-5862130","COUNTYNAME":"雲林縣","TOWNNAME":"西螺鎮","MARKTYPE":"991","Class":"1"}},{"type":"Feature","id":120,"geometry":{"type":"Point","coordinates":[120.46175310671623,23.800628444334436]},"properties":{"OBJECTID":120,"LANDMARKID":"1000900000194","LANDMARKCO":"107","LANDMARKNA":"雲林縣消防局西螺消防分隊","LANDMARKAD":"1000904","ADDRESS":"雲林縣西螺鎮公正路211號","TEL":"05-5862012","COUNTYNAME":"雲林縣","TOWNNAME":"西螺鎮","MARKTYPE":"991","Class":"1"}},{"type":"Feature","id":121,"geometry":{"type":"Point","coordinates":[120.44203713235937,23.798682811674482]},"properties":{"OBJECTID":121,"LANDMARKID":"1000900000195","LANDMARKCO":"107","LANDMARKNA":"雲林縣警察局和心派出所","LANDMARKAD":"1000904","ADDRESS":"雲林縣西螺鎮埔心路146號","TEL":"05-5862544","COUNTYNAME":"雲林縣","TOWNNAME":"西螺鎮","MARKTYPE":"991","Class":"1"}},{"type":"Feature","id":122,"geometry":{"type":"Point","coordinates":[120.45475417664038,23.799445826759058]},"properties":{"OBJECTID":122,"LANDMARKID":"1000900000116","LANDMARKCO":"106","LANDMARKNA":"雲林縣西螺鎮戶政事務所","LANDMARKAD":"1000904","ADDRESS":"雲林縣西螺鎮中山路292號","TEL":"05-5862127","COUNTYNAME":"雲林縣","TOWNNAME":"西螺鎮","MARKTYPE":"991","Class":"1"}},{"type":"Feature","id":123,"geometry":{"type":"Point","coordinates":[120.4624063711159,23.800226753563891]},"properties":{"OBJECTID":123,"LANDMARKID":"1000900000107","LANDMARKCO":"105","LANDMARKNA":"雲林縣西螺地政事務所","LANDMARKAD":"1000904","ADDRESS":"雲林縣西螺鎮中山路66號","TEL":"05-5862028","COUNTYNAME":"雲林縣","TOWNNAME":"西螺鎮","MARKTYPE":"991","Class":"1"}},{"type":"Feature","id":124,"geometry":{"type":"Point","coordinates":[120.46483605151664,23.800326072921205]},"properties":{"OBJECTID":124,"LANDMARKID":"1000900000001","LANDMARKCO":"101","LANDMARKNA":"水利署第四河川局西螺雨量站","LANDMARKAD":"1000904","ADDRESS":"雲林縣西螺鎮中山路2號","TEL":"05-5872348","COUNTYNAME":"雲林縣","TOWNNAME":"西螺鎮","MARKTYPE":"991","Class":"1"}},{"type":"Feature","id":125,"geometry":{"type":"Point","coordinates":[120.42354776459476,23.744263651833119]},"properties":{"OBJECTID":125,"LANDMARKID":"1000900000196","LANDMARKCO":"107","LANDMARKNA":"雲林縣警察局吳厝派出所","LANDMARKAD":"1000904","ADDRESS":"雲林縣西螺鎮吳厝里吳庴51號","TEL":"05-5862484","COUNTYNAME":"雲林縣","TOWNNAME":"西螺鎮","MARKTYPE":"991","Class":"1"}},{"type":"Feature","id":126,"geometry":{"type":"Point","coordinates":[120.47741440519258,23.773894882766076]},"properties":{"OBJECTID":126,"LANDMARKID":"1000900000197","LANDMARKCO":"107","LANDMARKNA":"雲林縣警察局埤源派出所","LANDMARKAD":"1000904","ADDRESS":"雲林縣西螺鎮埤頭里埤頭路75號","TEL":"05-5862384","COUNTYNAME":"雲林縣","TOWNNAME":"西螺鎮","MARKTYPE":"991","Class":"1"}},{"type":"Feature","id":127,"geometry":{"type":"Point","coordinates":[120.46535410134467,23.79816680567307]},"properties":{"OBJECTID":127,"LANDMARKID":"1000900000479","LANDMARKCO":"204","LANDMARKNA":"雲林縣立圖書館西螺分館","LANDMARKAD":"1000904","ADDRESS":"雲林縣西螺鎮民生路20號","TEL":" ","COUNTYNAME":"雲林縣","TOWNNAME":"西螺鎮","MARKTYPE":"992","Class":"2"}},{"type":"Feature","id":128,"geometry":{"type":"Point","coordinates":[120.45164281529412,23.803961856406886]},"properties":{"OBJECTID":128,"LANDMARKID":"1000900000463","LANDMARKCO":"203","LANDMARKNA":"私立東南國中","LANDMARKAD":"1000904","ADDRESS":"雲林縣西螺鎮西興路152號","TEL":"05-5874176","COUNTYNAME":"雲林縣","TOWNNAME":"西螺鎮","MARKTYPE":"992","Class":"2"}},{"type":"Feature","id":129,"geometry":{"type":"Point","coordinates":[120.45193772294856,23.801345390897129]},"properties":{"OBJECTID":129,"LANDMARKID":"1000900000464","LANDMARKCO":"203","LANDMARKNA":"縣立文昌國小","LANDMARKAD":"1000904","ADDRESS":"雲林縣西螺鎮中興里延平路504號","TEL":"05-5862013","COUNTYNAME":"雲林縣","TOWNNAME":"西螺鎮","MARKTYPE":"992","Class":"2"}},{"type":"Feature","id":130,"geometry":{"type":"Point","coordinates":[120.45828823368051,23.766787306014848]},"properties":{"OBJECTID":130,"LANDMARKID":"1000900000465","LANDMARKCO":"203","LANDMARKNA":"縣立廣興國小","LANDMARKAD":"1000904","ADDRESS":"雲林縣西螺鎮廣興里廣興路59號","TEL":"05-5863094","COUNTYNAME":"雲林縣","TOWNNAME":"西螺鎮","MARKTYPE":"992","Class":"2"}},{"type":"Feature","id":131,"geometry":{"type":"Point","coordinates":[120.47099196907175,23.794565530713228]},"properties":{"OBJECTID":131,"LANDMARKID":"1000900000251","LANDMARKCO":"202","LANDMARKNA":"國立西螺農工","LANDMARKAD":"1000904","ADDRESS":"雲林縣西螺鎮大同路4號","TEL":"05-5862024","COUNTYNAME":"雲林縣","TOWNNAME":"西螺鎮","MARKTYPE":"992","Class":"2"}},{"type":"Feature","id":132,"geometry":{"type":"Point","coordinates":[120.46006462352017,23.792815099728301]},"properties":{"OBJECTID":132,"LANDMARKID":"1000900000460","LANDMARKCO":"203","LANDMARKNA":"縣立西螺國中","LANDMARKAD":"1000904","ADDRESS":"雲林縣西螺鎮興農西路217號","TEL":"05-5866030","COUNTYNAME":"雲林縣","TOWNNAME":"西螺鎮","MARKTYPE":"992","Class":"2"}},{"type":"Feature","id":133,"geometry":{"type":"Point","coordinates":[120.43929286184544,23.798162727022667]},"properties":{"OBJECTID":133,"LANDMARKID":"1000900000461","LANDMARKCO":"203","LANDMARKNA":"縣立安定國小","LANDMARKAD":"1000904","ADDRESS":"雲林縣西螺鎮河南里埔心路210號","TEL":"05-5863154","COUNTYNAME":"雲林縣","TOWNNAME":"西螺鎮","MARKTYPE":"992","Class":"2"}},{"type":"Feature","id":134,"geometry":{"type":"Point","coordinates":[120.46526526210255,23.79532298427074]},"properties":{"OBJECTID":134,"LANDMARKID":"1000900000462","LANDMARKCO":"203","LANDMARKNA":"縣立中山國小","LANDMARKAD":"1000904","ADDRESS":"雲林縣西螺鎮廣福里新街路2號","TEL":"05-5862039","COUNTYNAME":"雲林縣","TOWNNAME":"西螺鎮","MARKTYPE":"992","Class":"2"}},{"type":"Feature","id":135,"geometry":{"type":"Point","coordinates":[120.46345595853904,23.798273667384578]},"properties":{"OBJECTID":135,"LANDMARKID":"1000900000249","LANDMARKCO":"201","LANDMARKNA":"私立浸宣神學院","LANDMARKAD":"1000904","ADDRESS":"雲林縣西螺鎮文昌路107號","TEL":"05-5865164","COUNTYNAME":"雲林縣","TOWNNAME":"西螺鎮","MARKTYPE":"992","Class":"2"}},{"type":"Feature","id":136,"geometry":{"type":"Point","coordinates":[120.44473490390955,23.788582167336173]},"properties":{"OBJECTID":136,"LANDMARKID":"1000900000469","LANDMARKCO":"203","LANDMARKNA":"縣立文興國小","LANDMARKAD":"1000904","ADDRESS":"雲林縣西螺鎮新豐里新社路257號","TEL":"05-5863174","COUNTYNAME":"雲林縣","TOWNNAME":"西螺鎮","MARKTYPE":"992","Class":"2"}},{"type":"Feature","id":137,"geometry":{"type":"Point","coordinates":[120.45875530585899,23.792785972237592]},"properties":{"OBJECTID":137,"LANDMARKID":"1000900000250","LANDMARKCO":"202","LANDMARKNA":"國立西螺農工分部","LANDMARKAD":"1000904","ADDRESS":"雲林縣西螺鎮","TEL":" ","COUNTYNAME":"雲林縣","TOWNNAME":"西螺鎮","MARKTYPE":"992","Class":"2"}},{"type":"Feature","id":138,"geometry":{"type":"Point","coordinates":[120.46421939412193,23.748017984976492]},"properties":{"OBJECTID":138,"LANDMARKID":"1000900000466","LANDMARKCO":"203","LANDMARKNA":"縣立文賢國小","LANDMARKAD":"1000904","ADDRESS":"雲林縣西螺鎮公館里1號","TEL":"05-5863164","COUNTYNAME":"雲林縣","TOWNNAME":"西螺鎮","MARKTYPE":"992","Class":"2"}},{"type":"Feature","id":139,"geometry":{"type":"Point","coordinates":[120.48664500579181,23.789992088203729]},"properties":{"OBJECTID":139,"LANDMARKID":"1000900000467","LANDMARKCO":"203","LANDMARKNA":"縣立大新國小","LANDMARKAD":"1000904","ADDRESS":"雲林縣西螺鎮大新里215號","TEL":"05-5862974","COUNTYNAME":"雲林縣","TOWNNAME":"西螺鎮","MARKTYPE":"992","Class":"2"}},{"type":"Feature","id":140,"geometry":{"type":"Point","coordinates":[120.43195626693905,23.751608923470673]},"properties":{"OBJECTID":140,"LANDMARKID":"1000900000468","LANDMARKCO":"203","LANDMARKNA":"縣立吳厝國小","LANDMARKAD":"1000904","ADDRESS":"雲林縣西螺鎮九隆里44號","TEL":"05-5863074","COUNTYNAME":"雲林縣","TOWNNAME":"西螺鎮","MARKTYPE":"992","Class":"2"}},{"type":"Feature","id":141,"geometry":{"type":"Point","coordinates":[120.4782288812886,23.789409391608274]},"properties":{"OBJECTID":141,"LANDMARKID":"1000900000556","LANDMARKCO":"308","LANDMARKNA":"西螺服務區","LANDMARKAD":"1000904","ADDRESS":" ","TEL":" ","COUNTYNAME":"雲林縣","TOWNNAME":"西螺鎮","MARKTYPE":"993","Class":"308"}},{"type":"Feature","id":142,"geometry":{"type":"Point","coordinates":[120.47682610321475,23.781192316727434]},"properties":{"OBJECTID":142,"LANDMARKID":"1000900000557","LANDMARKCO":"308","LANDMARKNA":"國1-西螺交流道-北上","LANDMARKAD":"1000904","ADDRESS":"雲林縣西螺鎮","TEL":" ","COUNTYNAME":"雲林縣","TOWNNAME":"西螺鎮","MARKTYPE":"993","Class":"308"}},{"type":"Feature","id":143,"geometry":{"type":"Point","coordinates":[120.473317190464,23.777551378616344]},"properties":{"OBJECTID":143,"LANDMARKID":"1000900000558","LANDMARKCO":"308","LANDMARKNA":"國1-西螺交流道-南下","LANDMARKAD":"1000904","ADDRESS":"雲林縣西螺鎮","TEL":" ","COUNTYNAME":"雲林縣","TOWNNAME":"西螺鎮","MARKTYPE":"993","Class":"308"}},{"type":"Feature","id":144,"geometry":{"type":"Point","coordinates":[120.46173466765455,23.800167723480168]},"properties":{"OBJECTID":144,"LANDMARKID":"1000900000509","LANDMARKCO":"302","LANDMARKNA":"國光汽車客運西螺站","LANDMARKAD":"1000904","ADDRESS":"雲林縣西螺鎮中山路70號","TEL":" ","COUNTYNAME":"雲林縣","TOWNNAME":"西螺鎮","MARKTYPE":"993","Class":"302"}},{"type":"Feature","id":145,"geometry":{"type":"Point","coordinates":[120.46073108438758,23.800113723409677]},"properties":{"OBJECTID":145,"LANDMARKID":"1000900000621","LANDMARKCO":"402","LANDMARKNA":"遠傳電信-西螺中山門市","LANDMARKAD":"1000904","ADDRESS":"雲林縣西螺鎮中山路106號","TEL":" ","COUNTYNAME":"雲林縣","TOWNNAME":"西螺鎮","MARKTYPE":"994","Class":"4"}},{"type":"Feature","id":146,"geometry":{"type":"Point","coordinates":[120.45997548312322,23.800108438763903]},"properties":{"OBJECTID":146,"LANDMARKID":"1000900000622","LANDMARKCO":"402","LANDMARKNA":"威寶電信-西螺中山特約服務中心","LANDMARKAD":"1000904","ADDRESS":"雲林縣西螺鎮中山路130號","TEL":"05-5872797","COUNTYNAME":"雲林縣","TOWNNAME":"西螺鎮","MARKTYPE":"994","Class":"4"}},{"type":"Feature","id":147,"geometry":{"type":"Point","coordinates":[120.46053035198409,23.799558767718572]},"properties":{"OBJECTID":147,"LANDMARKID":"1000900000623","LANDMARKCO":"402","LANDMARKNA":"中華電信-西螺服務中心","LANDMARKAD":"1000904","ADDRESS":"雲林縣西螺鎮福興路167號","TEL":"(05)586-4945","COUNTYNAME":"雲林縣","TOWNNAME":"西螺鎮","MARKTYPE":"994","Class":"4"}},{"type":"Feature","id":148,"geometry":{"type":"Point","coordinates":[120.46854350051008,23.793420941123593]},"properties":{"OBJECTID":148,"LANDMARKID":"1000900000898","LANDMARKCO":"603","LANDMARKNA":"七彩湖汽車旅館","LANDMARKAD":"1000904","ADDRESS":"雲林縣西螺鎮大同路1號1-2樓","TEL":"05-5882345","COUNTYNAME":"雲林縣","TOWNNAME":"西螺鎮","MARKTYPE":"996","Class":"6"}},{"type":"Feature","id":149,"geometry":{"type":"Point","coordinates":[120.46764400018489,23.798200393563313]},"properties":{"OBJECTID":149,"LANDMARKID":"1000900000899","LANDMARKCO":"603","LANDMARKNA":"愛琴海花園汽車旅館","LANDMARKAD":"1000904","ADDRESS":"雲林縣西螺鎮光復東路27號","TEL":"05-5875088","COUNTYNAME":"雲林縣","TOWNNAME":"西螺鎮","MARKTYPE":"996","Class":"6"}},{"type":"Feature","id":150,"geometry":{"type":"Point","coordinates":[120.45673099345903,23.800835868872547]},"properties":{"OBJECTID":150,"LANDMARKID":"1000900000900","LANDMARKCO":"603","LANDMARKNA":"文都大旅社","LANDMARKAD":"1000904","ADDRESS":"雲林縣西螺鎮延平路360號","TEL":"05-5862272","COUNTYNAME":"雲林縣","TOWNNAME":"西螺鎮","MARKTYPE":"996","Class":"6"}},{"type":"Feature","id":151,"geometry":{"type":"Point","coordinates":[120.45780931125664,23.800978899938325]},"properties":{"OBJECTID":151,"LANDMARKID":"1000900000901","LANDMARKCO":"603","LANDMARKNA":"大通旅社","LANDMARKAD":"1000904","ADDRESS":"雲林縣西螺鎮延平路304號","TEL":"05-5878791","COUNTYNAME":"雲林縣","TOWNNAME":"西螺鎮","MARKTYPE":"996","Class":"6"}},{"type":"Feature","id":152,"geometry":{"type":"Point","coordinates":[120.45911474082273,23.80213408403425]},"properties":{"OBJECTID":152,"LANDMARKID":"1000900000902","LANDMARKCO":"603","LANDMARKNA":"一生大旅社","LANDMARKAD":"1000904","ADDRESS":"雲林縣西螺鎮建興路295號","TEL":"05-5862124","COUNTYNAME":"雲林縣","TOWNNAME":"西螺鎮","MARKTYPE":"996","Class":"6"}},{"type":"Feature","id":153,"geometry":{"type":"Point","coordinates":[120.47911372397655,23.773653143531238]},"properties":{"OBJECTID":153,"LANDMARKID":"1000900000903","LANDMARKCO":"603","LANDMARKNA":"三好商務汽車旅館","LANDMARKAD":"1000904","ADDRESS":"雲林縣西螺鎮埤頭里埤頭78-2號","TEL":"05-5878111","COUNTYNAME":"雲林縣","TOWNNAME":"西螺鎮","MARKTYPE":"996","Class":"6"}},{"type":"Feature","id":154,"geometry":{"type":"Point","coordinates":[120.47881963400849,23.775612430785923]},"properties":{"OBJECTID":154,"LANDMARKID":"1000900000683","LANDMARKCO":"405","LANDMARKNA":"中油加油站-義和站(刷卡自助)(中油直營)","LANDMARKAD":"1000909","ADDRESS":"雲林縣莿桐鄉義和村三和37-5號","TEL":"05-5844090","COUNTYNAME":"雲林縣","TOWNNAME":"莿桐鄉","MARKTYPE":"994","Class":"4"}},{"type":"Feature","id":155,"geometry":{"type":"Point","coordinates":[120.49750421972512,23.759954282056476]},"properties":{"OBJECTID":155,"LANDMARKID":"1000900000684","LANDMARKCO":"405","LANDMARKNA":"中油加油站-莿桐站(中油直營)","LANDMARKAD":"1000909","ADDRESS":"雲林縣莿桐鄉中山路251號","TEL":"05-5842054","COUNTYNAME":"雲林縣","TOWNNAME":"莿桐鄉","MARKTYPE":"994","Class":"4"}},{"type":"Feature","id":156,"geometry":{"type":"Point","coordinates":[120.49946344854082,23.756277969617315]},"properties":{"OBJECTID":156,"LANDMARKID":"1000900000804","LANDMARKCO":"408","LANDMARKNA":"郵局-莿桐郵局","LANDMARKAD":"1000909","ADDRESS":"雲林縣莿桐鄉中山路71號","TEL":"(05)5842-419","COUNTYNAME":"雲林縣","TOWNNAME":"莿桐鄉","MARKTYPE":"994","Class":"4"}},{"type":"Feature","id":157,"geometry":{"type":"Point","coordinates":[120.54486174460385,23.777372301277676]},"properties":{"OBJECTID":157,"LANDMARKID":"1000900000805","LANDMARKCO":"408","LANDMARKNA":"郵局-莿桐饒平郵局","LANDMARKAD":"1000909","ADDRESS":"雲林縣莿桐鄉永基路24-12號","TEL":"(05)5711-045","COUNTYNAME":"雲林縣","TOWNNAME":"莿桐鄉","MARKTYPE":"994","Class":"4"}},{"type":"Feature","id":158,"geometry":{"type":"Point","coordinates":[120.50262128401083,23.75694022802854]},"properties":{"OBJECTID":158,"LANDMARKID":"1000900000825","LANDMARKCO":"409","LANDMARKNA":"雲林縣莿桐鄉農會","LANDMARKAD":"1000909","ADDRESS":"雲林縣莿桐鄉莿桐村中正路54號","TEL":"05-5846161","COUNTYNAME":"雲林縣","TOWNNAME":"莿桐鄉","MARKTYPE":"994","Class":"4"}},{"type":"Feature","id":159,"geometry":{"type":"Point","coordinates":[120.53535571822276,23.772874246297498]},"properties":{"OBJECTID":159,"LANDMARKID":"1000900000685","LANDMARKCO":"405","LANDMARKNA":"台塑加油站-翔鴻站(台塑)","LANDMARKAD":"1000909","ADDRESS":"雲林縣莿桐鄉麻園榮貫101-11號","TEL":"05-5712802","COUNTYNAME":"雲林縣","TOWNNAME":"莿桐鄉","MARKTYPE":"994","Class":"4"}},{"type":"Feature","id":160,"geometry":{"type":"Point","coordinates":[120.50328857034339,23.756273392538652]},"properties":{"OBJECTID":160,"LANDMARKID":"1000900000686","LANDMARKCO":"405","LANDMARKNA":"福懋加油站-莿桐站(台塑)","LANDMARKAD":"1000909","ADDRESS":"雲林縣莿桐鄉中正路31號","TEL":"05-5845111","COUNTYNAME":"雲林縣","TOWNNAME":"莿桐鄉","MARKTYPE":"994","Class":"4"}},{"type":"Feature","id":161,"geometry":{"type":"Point","coordinates":[120.50266074619287,23.760889141241108]},"properties":{"OBJECTID":161,"LANDMARKID":"1000900000226","LANDMARKCO":"108","LANDMARKNA":"雲林縣莿桐鄉公所","LANDMARKAD":"1000909","ADDRESS":"雲林縣莿桐鄉莿桐村和平路53號","TEL":"05-5844661","COUNTYNAME":"雲林縣","TOWNNAME":"莿桐鄉","MARKTYPE":"991","Class":"1"}},{"type":"Feature","id":162,"geometry":{"type":"Point","coordinates":[120.50266074619287,23.760889141241108]},"properties":{"OBJECTID":162,"LANDMARKID":"1000900000086","LANDMARKCO":"103","LANDMARKNA":"雲林縣莿桐鄉鄉民代表會","LANDMARKAD":"1000909","ADDRESS":"雲林縣莿桐鄉和平路53號之1","TEL":"05-5842050","COUNTYNAME":"雲林縣","TOWNNAME":"莿桐鄉","MARKTYPE":"991","Class":"1"}},{"type":"Feature","id":163,"geometry":{"type":"Point","coordinates":[120.50210613746471,23.76113051099955]},"properties":{"OBJECTID":163,"LANDMARKID":"1000900000087","LANDMARKCO":"103","LANDMARKNA":"雲林縣莿桐鄉衛生所","LANDMARKAD":"1000909","ADDRESS":"雲林縣莿桐鄉和平路53之2號","TEL":"05-5842575","COUNTYNAME":"雲林縣","TOWNNAME":"莿桐鄉","MARKTYPE":"991","Class":"1"}},{"type":"Feature","id":164,"geometry":{"type":"Point","coordinates":[120.49991405459546,23.759333719404442]},"properties":{"OBJECTID":164,"LANDMARKID":"1000900000189","LANDMARKCO":"107","LANDMARKNA":"雲林縣消防局莿桐消防分隊","LANDMARKAD":"1000909","ADDRESS":"雲林縣莿桐鄉中山路170號","TEL":"05-5842094","COUNTYNAME":"雲林縣","TOWNNAME":"莿桐鄉","MARKTYPE":"991","Class":"1"}},{"type":"Feature","id":165,"geometry":{"type":"Point","coordinates":[120.51907237213091,23.779624489132182]},"properties":{"OBJECTID":165,"LANDMARKID":"1000900000190","LANDMARKCO":"107","LANDMARKNA":"雲林縣警察局饒平派出所","LANDMARKAD":"1000909","ADDRESS":"雲林縣莿桐鄉饒平村饒平路179號","TEL":"05-5842034","COUNTYNAME":"雲林縣","TOWNNAME":"莿桐鄉","MARKTYPE":"991","Class":"1"}},{"type":"Feature","id":166,"geometry":{"type":"Point","coordinates":[120.49991405459546,23.759333719404442]},"properties":{"OBJECTID":166,"LANDMARKID":"1000900000191","LANDMARKCO":"107","LANDMARKNA":"雲林縣警察局莿桐分駐所","LANDMARKAD":"1000909","ADDRESS":"雲林縣莿桐鄉莿桐村中山路170號","TEL":"05-5842025","COUNTYNAME":"雲林縣","TOWNNAME":"莿桐鄉","MARKTYPE":"991","Class":"1"}},{"type":"Feature","id":167,"geometry":{"type":"Point","coordinates":[120.49991405459546,23.759333719404442]},"properties":{"OBJECTID":167,"LANDMARKID":"1000900000108","LANDMARKCO":"106","LANDMARKNA":"雲林縣莿桐鄉戶政事務所","LANDMARKAD":"1000909","ADDRESS":"雲林縣莿桐鄉莿桐村1鄰中山路170號","TEL":"05-5842049","COUNTYNAME":"雲林縣","TOWNNAME":"莿桐鄉","MARKTYPE":"991","Class":"1"}},{"type":"Feature","id":168,"geometry":{"type":"Point","coordinates":[120.50252525680871,23.760939756730707]},"properties":{"OBJECTID":168,"LANDMARKID":"1000900000484","LANDMARKCO":"204","LANDMARKNA":"雲林縣立圖書館莿桐分館","LANDMARKAD":"1000909","ADDRESS":"雲林縣莿桐鄉和平路53之1號2樓","TEL":" ","COUNTYNAME":"雲林縣","TOWNNAME":"莿桐鄉","MARKTYPE":"992","Class":"2"}},{"type":"Feature","id":169,"geometry":{"type":"Point","coordinates":[120.49855713202274,23.75714057334158]},"properties":{"OBJECTID":169,"LANDMARKID":"1000900000424","LANDMARKCO":"203","LANDMARKNA":"縣立莿桐國小","LANDMARKAD":"1000909","ADDRESS":"雲林縣莿桐鄉莿桐村中正路147號","TEL":"05-5842065","COUNTYNAME":"雲林縣","TOWNNAME":"莿桐鄉","MARKTYPE":"992","Class":"2"}},{"type":"Feature","id":170,"geometry":{"type":"Point","coordinates":[120.55891961995351,23.768991064953479]},"properties":{"OBJECTID":170,"LANDMARKID":"1000900000425","LANDMARKCO":"203","LANDMARKNA":"縣立僑和國小","LANDMARKAD":"1000909","ADDRESS":"雲林縣莿桐鄉興桐村新庄1號","TEL":"05-5842230","COUNTYNAME":"雲林縣","TOWNNAME":"莿桐鄉","MARKTYPE":"992","Class":"2"}},{"type":"Feature","id":171,"geometry":{"type":"Point","coordinates":[120.52225784704034,23.777361900682504]},"properties":{"OBJECTID":171,"LANDMARKID":"1000900000426","LANDMARKCO":"203","LANDMARKNA":"縣立饒平國小","LANDMARKAD":"1000909","ADDRESS":"雲林縣莿桐鄉饒平村饒平路1號","TEL":"05-5842071","COUNTYNAME":"雲林縣","TOWNNAME":"莿桐鄉","MARKTYPE":"992","Class":"2"}},{"type":"Feature","id":172,"geometry":{"type":"Point","coordinates":[120.50663123103638,23.750057694418246]},"properties":{"OBJECTID":172,"LANDMARKID":"1000900000427","LANDMARKCO":"203","LANDMARKNA":"縣立莿桐國中","LANDMARKAD":"1000909","ADDRESS":"雲林縣莿桐鄉農校路1號","TEL":"05-5842014","COUNTYNAME":"雲林縣","TOWNNAME":"莿桐鄉","MARKTYPE":"992","Class":"2"}},{"type":"Feature","id":173,"geometry":{"type":"Point","coordinates":[120.56303748464208,23.768650061479306]},"properties":{"OBJECTID":173,"LANDMARKID":"1000900000428","LANDMARKCO":"203","LANDMARKNA":"縣立六合國小","LANDMARKAD":"1000909","ADDRESS":"雲林縣莿桐鄉六合村東興路63號","TEL":"05-5842810","COUNTYNAME":"雲林縣","TOWNNAME":"莿桐鄉","MARKTYPE":"992","Class":"2"}},{"type":"Feature","id":174,"geometry":{"type":"Point","coordinates":[120.5140012164299,23.737436455200942]},"properties":{"OBJECTID":174,"LANDMARKID":"1000900000429","LANDMARKCO":"203","LANDMARKNA":"縣立大美國小","LANDMARKAD":"1000909","ADDRESS":"雲林縣莿桐鄉大美村23號","TEL":"05-5842504","COUNTYNAME":"雲林縣","TOWNNAME":"莿桐鄉","MARKTYPE":"992","Class":"2"}},{"type":"Feature","id":175,"geometry":{"type":"Point","coordinates":[120.48701872879728,23.758210407815785]},"properties":{"OBJECTID":175,"LANDMARKID":"1000900000430","LANDMARKCO":"203","LANDMARKNA":"縣立育仁國小","LANDMARKAD":"1000909","ADDRESS":"雲林縣莿桐鄉甘厝村75號","TEL":"05-5842525","COUNTYNAME":"雲林縣","TOWNNAME":"莿桐鄉","MARKTYPE":"992","Class":"2"}},{"type":"Feature","id":176,"geometry":{"type":"Point","coordinates":[120.512478148681,23.771012926708142]},"properties":{"OBJECTID":176,"LANDMARKID":"1000900000534","LANDMARKCO":"303","LANDMARKNA":"荊桐鄉分駐所停車場","LANDMARKAD":"1000909","ADDRESS":"雲林縣莿桐鄉","TEL":" ","COUNTYNAME":"雲林縣","TOWNNAME":"莿桐鄉","MARKTYPE":"993","Class":"303"}},{"type":"Feature","id":177,"geometry":{"type":"Point","coordinates":[120.50321604278045,23.760871287469755]},"properties":{"OBJECTID":177,"LANDMARKID":"1000900000635","LANDMARKCO":"402","LANDMARKNA":"中華電信-莿桐服務中心","LANDMARKAD":"1000909","ADDRESS":"雲林縣莿桐鄉和平路74號","TEL":"(05)584-1444","COUNTYNAME":"雲林縣","TOWNNAME":"莿桐鄉","MARKTYPE":"994","Class":"4"}},{"type":"Feature","id":178,"geometry":{"type":"Point","coordinates":[120.51556301698029,23.741184550675676]},"properties":{"OBJECTID":178,"LANDMARKID":"1000900000909","LANDMARKCO":"603","LANDMARKNA":"來來渡假旅館","LANDMARKAD":"1000909","ADDRESS":"雲林縣莿桐鄉大美村大美90-36號","TEL":"05-5841684","COUNTYNAME":"雲林縣","TOWNNAME":"莿桐鄉","MARKTYPE":"996","Class":"6"}},{"type":"Feature","id":179,"geometry":{"type":"Point","coordinates":[120.59720335014356,23.73478631596328]},"properties":{"OBJECTID":179,"LANDMARKID":"1000900000718","LANDMARKCO":"405","LANDMARKNA":"山隆加油站-林內站中油）","LANDMARKAD":"1000910","ADDRESS":"雲林縣林內鄉九芎村大埔3-5號","TEL":"(05)589-0850","COUNTYNAME":"雲林縣","TOWNNAME":"林內鄉","MARKTYPE":"994","Class":"4"}},{"type":"Feature","id":180,"geometry":{"type":"Point","coordinates":[120.61066319044535,23.752334906149368]},"properties":{"OBJECTID":180,"LANDMARKID":"1000900000719","LANDMARKCO":"405","LANDMARKNA":"中油加油站-林內站(中油直營)","LANDMARKAD":"1000910","ADDRESS":"雲林縣林內鄉林中村中正路532號","TEL":"05-5892048","COUNTYNAME":"雲林縣","TOWNNAME":"林內鄉","MARKTYPE":"994","Class":"4"}},{"type":"Feature","id":181,"geometry":{"type":"Point","coordinates":[120.6111981085903,23.751957202966352]},"properties":{"OBJECTID":181,"LANDMARKID":"1000900000720","LANDMARKCO":"405","LANDMARKNA":"中油加油站-金鼎山站","LANDMARKAD":"1000910","ADDRESS":"雲林縣林內鄉中正路541-1號","TEL":"055-897286","COUNTYNAME":"雲林縣","TOWNNAME":"林內鄉","MARKTYPE":"994","Class":"4"}},{"type":"Feature","id":182,"geometry":{"type":"Point","coordinates":[120.63558330795496,23.786301077445295]},"properties":{"OBJECTID":182,"LANDMARKID":"1000900000852","LANDMARKCO":"506","LANDMARKNA":"草莓觀光農園","LANDMARKAD":"1000910","ADDRESS":"雲林縣林內鄉新光路與瑞農路交叉路","TEL":"05-5892002","COUNTYNAME":"雲林縣","TOWNNAME":"林內鄉","MARKTYPE":"995","Class":"5"}},{"type":"Feature","id":183,"geometry":{"type":"Point","coordinates":[120.61340943817112,23.756359752513415]},"properties":{"OBJECTID":183,"LANDMARKID":"1000900000797","LANDMARKCO":"408","LANDMARKNA":"郵局-林內郵局","LANDMARKAD":"1000910","ADDRESS":"雲林縣林內鄉中正路332號","TEL":"(05)5892-054","COUNTYNAME":"雲林縣","TOWNNAME":"林內鄉","MARKTYPE":"994","Class":"4"}},{"type":"Feature","id":184,"geometry":{"type":"Point","coordinates":[120.61208558195169,23.760082661073227]},"properties":{"OBJECTID":184,"LANDMARKID":"1000900000829","LANDMARKCO":"409","LANDMARKNA":"雲林縣林內鄉農會","LANDMARKAD":"1000910","ADDRESS":"雲林縣林內鄉林中村中西路21號","TEL":"05-5892002","COUNTYNAME":"雲林縣","TOWNNAME":"林內鄉","MARKTYPE":"994","Class":"4"}},{"type":"Feature","id":185,"geometry":{"type":"Point","coordinates":[120.6131498305177,23.756214998319177]},"properties":{"OBJECTID":185,"LANDMARKID":"1000900000650","LANDMARKCO":"404","LANDMARKNA":"台灣省自來水林內營運所","LANDMARKAD":"1000910","ADDRESS":"雲林縣林內鄉林中村中正路338號","TEL":" ","COUNTYNAME":"雲林縣","TOWNNAME":"林內鄉","MARKTYPE":"994","Class":"4"}},{"type":"Feature","id":186,"geometry":{"type":"Point","coordinates":[120.59913385656003,23.738267203608242]},"properties":{"OBJECTID":186,"LANDMARKID":"1000900000717","LANDMARKCO":"405","LANDMARKNA":"台塑加油站-達興站(台塑)","LANDMARKAD":"1000910","ADDRESS":"雲林縣林內鄉九芎村大埔113號","TEL":"05-5898201-2","COUNTYNAME":"雲林縣","TOWNNAME":"林內鄉","MARKTYPE":"994","Class":"4"}},{"type":"Feature","id":187,"geometry":{"type":"Point","coordinates":[120.61296848556999,23.756156270879092]},"properties":{"OBJECTID":187,"LANDMARKID":"1000900000225","LANDMARKCO":"108","LANDMARKNA":"雲林縣林內鄉公所","LANDMARKAD":"1000910","ADDRESS":"雲林縣林內鄉林中村中正路340號","TEL":"05-5892001","COUNTYNAME":"雲林縣","TOWNNAME":"林內鄉","MARKTYPE":"991","Class":"1"}},{"type":"Feature","id":188,"geometry":{"type":"Point","coordinates":[120.61296848556999,23.756156270879092]},"properties":{"OBJECTID":188,"LANDMARKID":"1000900000080","LANDMARKCO":"103","LANDMARKNA":"雲林縣林內鄉鄉民代表會","LANDMARKAD":"1000910","ADDRESS":"雲林縣林內鄉中正路340號之1","TEL":"05-5892165","COUNTYNAME":"雲林縣","TOWNNAME":"林內鄉","MARKTYPE":"991","Class":"1"}},{"type":"Feature","id":189,"geometry":{"type":"Point","coordinates":[120.61649059805569,23.758381223616578]},"properties":{"OBJECTID":189,"LANDMARKID":"1000900000222","LANDMARKCO":"107","LANDMARKNA":"雲林縣消防局林內消防分隊","LANDMARKAD":"1000910","ADDRESS":"雲林縣林內鄉中山路1號","TEL":"05-5891360","COUNTYNAME":"雲林縣","TOWNNAME":"林內鄉","MARKTYPE":"991","Class":"1"}},{"type":"Feature","id":190,"geometry":{"type":"Point","coordinates":[120.61649059805569,23.758381223616578]},"properties":{"OBJECTID":190,"LANDMARKID":"1000900000223","LANDMARKCO":"107","LANDMARKNA":"雲林縣警察局林內分駐所","LANDMARKAD":"1000910","ADDRESS":"雲林縣林內鄉林南村中山路1號","TEL":"05-5892404","COUNTYNAME":"雲林縣","TOWNNAME":"林內鄉","MARKTYPE":"991","Class":"1"}},{"type":"Feature","id":191,"geometry":{"type":"Point","coordinates":[120.61649059805569,23.758381223616578]},"properties":{"OBJECTID":191,"LANDMARKID":"1000900000109","LANDMARKCO":"106","LANDMARKNA":"雲林縣林內鄉戶政事務所","LANDMARKAD":"1000910","ADDRESS":"雲林縣林內鄉林南村22鄰中山路1號","TEL":"05-5892694","COUNTYNAME":"雲林縣","TOWNNAME":"林內鄉","MARKTYPE":"991","Class":"1"}},{"type":"Feature","id":192,"geometry":{"type":"Point","coordinates":[120.62413878208665,23.765418204144353]},"properties":{"OBJECTID":192,"LANDMARKID":"1000900000002","LANDMARKCO":"101","LANDMARKNA":"林務局南投林區管理處林內分站","LANDMARKAD":"1000910","ADDRESS":"雲林縣林內鄉中正東路49號","TEL":"05-5892031","COUNTYNAME":"雲林縣","TOWNNAME":"林內鄉","MARKTYPE":"991","Class":"1"}},{"type":"Feature","id":193,"geometry":{"type":"Point","coordinates":[120.61262202782241,23.759841286365372]},"properties":{"OBJECTID":193,"LANDMARKID":"1000900000079","LANDMARKCO":"103","LANDMARKNA":"雲林縣林內鄉衛生所","LANDMARKAD":"1000910","ADDRESS":"雲林縣林內鄉新興路54號","TEL":"05-5896747#5","COUNTYNAME":"雲林縣","TOWNNAME":"林內鄉","MARKTYPE":"991","Class":"1"}},{"type":"Feature","id":194,"geometry":{"type":"Point","coordinates":[120.57785582695388,23.76814423652332]},"properties":{"OBJECTID":194,"LANDMARKID":"1000900000224","LANDMARKCO":"107","LANDMARKNA":"雲林縣警察局重興派出所","LANDMARKAD":"1000910","ADDRESS":"雲林縣林內鄉重興村重興路70號","TEL":"05-5892514","COUNTYNAME":"雲林縣","TOWNNAME":"林內鄉","MARKTYPE":"991","Class":"1"}},{"type":"Feature","id":195,"geometry":{"type":"Point","coordinates":[120.61633130379472,23.78251740807211]},"properties":{"OBJECTID":195,"LANDMARKID":"1000900000003","LANDMARKCO":"101","LANDMARKNA":"水利署第四河川局林內站","LANDMARKAD":"1000910","ADDRESS":"雲林縣林內鄉三星路21號","TEL":"05-5897920","COUNTYNAME":"雲林縣","TOWNNAME":"林內鄉","MARKTYPE":"991","Class":"1"}},{"type":"Feature","id":196,"geometry":{"type":"Point","coordinates":[120.63504893593704,23.778407086221229]},"properties":{"OBJECTID":196,"LANDMARKID":"1000900000004","LANDMARKCO":"101","LANDMARKNA":"水利署第四河川局彰雲橋水位流","LANDMARKAD":"1000910","ADDRESS":"雲林縣林內鄉彰雲大橋520號","TEL":"05-5895615","COUNTYNAME":"雲林縣","TOWNNAME":"林內鄉","MARKTYPE":"991","Class":"1"}},{"type":"Feature","id":197,"geometry":{"type":"Point","coordinates":[120.61322648087433,23.756477738457733]},"properties":{"OBJECTID":197,"LANDMARKID":"1000900000483","LANDMARKCO":"204","LANDMARKNA":"雲林縣立圖書館林內分館","LANDMARKAD":"1000910","ADDRESS":"雲林縣林內鄉中正路340號","TEL":" ","COUNTYNAME":"雲林縣","TOWNNAME":"林內鄉","MARKTYPE":"992","Class":"2"}},{"type":"Feature","id":198,"geometry":{"type":"Point","coordinates":[120.6023957867414,23.744015688538706]},"properties":{"OBJECTID":198,"LANDMARKID":"1000900000431","LANDMARKCO":"203","LANDMARKNA":"縣立九芎國小","LANDMARKAD":"1000910","ADDRESS":"雲林縣林內鄉九芎村文化路10號","TEL":"05-5892647","COUNTYNAME":"雲林縣","TOWNNAME":"林內鄉","MARKTYPE":"992","Class":"2"}},{"type":"Feature","id":199,"geometry":{"type":"Point","coordinates":[120.59350020288051,23.756285693765445]},"properties":{"OBJECTID":199,"LANDMARKID":"1000900000432","LANDMARKCO":"203","LANDMARKNA":"縣立林內國中","LANDMARKAD":"1000910","ADDRESS":"雲林縣林內鄉烏麻村長源200號","TEL":"05-5899306","COUNTYNAME":"雲林縣","TOWNNAME":"林內鄉","MARKTYPE":"992","Class":"2"}},{"type":"Feature","id":200,"geometry":{"type":"Point","coordinates":[120.61753065147877,23.759461864938782]},"properties":{"OBJECTID":200,"LANDMARKID":"1000900000433","LANDMARKCO":"203","LANDMARKNA":"縣立林內國小","LANDMARKAD":"1000910","ADDRESS":"雲林縣林內鄉水南村中正路111號","TEL":"05-5892019","COUNTYNAME":"雲林縣","TOWNNAME":"林內鄉","MARKTYPE":"992","Class":"2"}}]}