{"type":"FeatureCollection","features":[{"type":"Feature","id":19601,"geometry":{"type":"Point","coordinates":[120.35267022271668,22.876429923777518]},"properties":{"OBJECTID":19601,"LANDMARKID":"1001200000899","LANDMARKCO":"405","LANDMARKNA":"中油加油站-大崗山站","LANDMARKAD":"1001212","ADDRESS":"高雄市阿蓮區峰山村峰南66號之12","TEL":"07-6321100","COUNTYNAME":"高雄市","TOWNNAME":"阿蓮區","MARKTYPE":"994","Class":"4"}},{"type":"Feature","id":19602,"geometry":{"type":"Point","coordinates":[120.32113312610046,22.880367267195282]},"properties":{"OBJECTID":19602,"LANDMARKID":"1001200000900","LANDMARKCO":"405","LANDMARKNA":"中油加油站-和蓮站","LANDMARKAD":"1001212","ADDRESS":"高雄市阿蓮區和蓮村中正路960號","TEL":"07-6312453","COUNTYNAME":"高雄市","TOWNNAME":"阿蓮區","MARKTYPE":"994","Class":"4"}},{"type":"Feature","id":19603,"geometry":{"type":"Point","coordinates":[120.32786550225872,22.87781006206281]},"properties":{"OBJECTID":19603,"LANDMARKID":"1001200000731","LANDMARKCO":"401","LANDMARKNA":"長佑醫院","LANDMARKAD":"1001212","ADDRESS":"高雄市阿蓮區中山路150號","TEL":"07-6311267","COUNTYNAME":"高雄市","TOWNNAME":"阿蓮區","MARKTYPE":"994","Class":"4"}},{"type":"Feature","id":19604,"geometry":{"type":"Point","coordinates":[120.32891174129352,22.87944441128576]},"properties":{"OBJECTID":19604,"LANDMARKID":"1001200000732","LANDMARKCO":"401","LANDMARKNA":"萬民醫院","LANDMARKAD":"1001212","ADDRESS":"高雄市阿蓮區中山路71號","TEL":"07-6320288","COUNTYNAME":"高雄市","TOWNNAME":"阿蓮區","MARKTYPE":"994","Class":"4"}},{"type":"Feature","id":19605,"geometry":{"type":"Point","coordinates":[120.32705133654228,22.882921759465347]},"properties":{"OBJECTID":19605,"LANDMARKID":"1001200001108","LANDMARKCO":"408","LANDMARKNA":"郵局-阿蓮郵局","LANDMARKAD":"1001212","ADDRESS":"高雄市阿蓮區清蓮村民生路101號","TEL":"(07)6312-140","COUNTYNAME":"高雄市","TOWNNAME":"阿蓮區","MARKTYPE":"994","Class":"4"}},{"type":"Feature","id":19606,"geometry":{"type":"Point","coordinates":[120.32737840550999,22.876723111110561]},"properties":{"OBJECTID":19606,"LANDMARKID":"1001200001129","LANDMARKCO":"409","LANDMARKNA":"高雄市阿蓮區農會","LANDMARKAD":"1001212","ADDRESS":"高雄市阿蓮區清蓮村中山路200號","TEL":"07-6311141","COUNTYNAME":"高雄市","TOWNNAME":"阿蓮區","MARKTYPE":"994","Class":"4"}},{"type":"Feature","id":19607,"geometry":{"type":"Point","coordinates":[120.29433776871589,22.895455946708392]},"properties":{"OBJECTID":19607,"LANDMARKID":"1001200001130","LANDMARKCO":"409","LANDMARKNA":"阿蓮農會-中路分部","LANDMARKAD":"1001212","ADDRESS":"高雄市阿蓮區中路村238號","TEL":"07-631-20","COUNTYNAME":"高雄市","TOWNNAME":"阿蓮區","MARKTYPE":"994","Class":"4"}},{"type":"Feature","id":19608,"geometry":{"type":"Point","coordinates":[120.34061630493959,22.881614804798478]},"properties":{"OBJECTID":19608,"LANDMARKID":"1001200000901","LANDMARKCO":"405","LANDMARKNA":"台亞加油站-阿蓮站（台塑）","LANDMARKAD":"1001212","ADDRESS":"高雄市阿蓮區中正路91號","TEL":"(07)631-6972","COUNTYNAME":"高雄市","TOWNNAME":"阿蓮區","MARKTYPE":"994","Class":"4"}},{"type":"Feature","id":19609,"geometry":{"type":"Point","coordinates":[120.3268905758088,22.883593097611016]},"properties":{"OBJECTID":19609,"LANDMARKID":"1001200000082","LANDMARKCO":"103","LANDMARKNA":"高雄市阿蓮區鄉民代表會","LANDMARKAD":"1001212","ADDRESS":"高雄市阿蓮區民生路105號","TEL":"07-6312054","COUNTYNAME":"高雄市","TOWNNAME":"阿蓮區","MARKTYPE":"991","Class":"1"}},{"type":"Feature","id":19610,"geometry":{"type":"Point","coordinates":[120.32694726792711,22.883774190034121]},"properties":{"OBJECTID":19610,"LANDMARKID":"1001200000284","LANDMARKCO":"108","LANDMARKNA":"高雄市阿蓮區公所","LANDMARKAD":"1001212","ADDRESS":"高雄市阿蓮區民生路94號","TEL":"07-6311177","COUNTYNAME":"高雄市","TOWNNAME":"阿蓮區","MARKTYPE":"991","Class":"1"}},{"type":"Feature","id":19611,"geometry":{"type":"Point","coordinates":[120.32704389212269,22.875737923579273]},"properties":{"OBJECTID":19611,"LANDMARKID":"1001200000009","LANDMARKCO":"101","LANDMARKNA":"農業委員會高雄農田水利會","LANDMARKAD":"1001212","ADDRESS":"高雄市阿蓮區中山路222號","TEL":"07-6312040","COUNTYNAME":"高雄市","TOWNNAME":"阿蓮區","MARKTYPE":"991","Class":"1"}},{"type":"Feature","id":19612,"geometry":{"type":"Point","coordinates":[120.32741026761839,22.882875103385516]},"properties":{"OBJECTID":19612,"LANDMARKID":"1001200000081","LANDMARKCO":"103","LANDMARKNA":"高雄市阿蓮區衛生所","LANDMARKAD":"1001212","ADDRESS":"高雄市阿蓮區民權路38號","TEL":"07-6317141","COUNTYNAME":"高雄市","TOWNNAME":"阿蓮區","MARKTYPE":"991","Class":"1"}},{"type":"Feature","id":19613,"geometry":{"type":"Point","coordinates":[120.32878949112539,22.878991880365273]},"properties":{"OBJECTID":19613,"LANDMARKID":"1001200000221","LANDMARKCO":"107","LANDMARKNA":"高雄市政府警察局阿蓮分駐所","LANDMARKAD":"1001212","ADDRESS":"高雄市阿蓮區忠孝路226號","TEL":"07-6312029","COUNTYNAME":"高雄市","TOWNNAME":"阿蓮區","MARKTYPE":"991","Class":"1"}},{"type":"Feature","id":19614,"geometry":{"type":"Point","coordinates":[120.32948937669855,22.879178398023328]},"properties":{"OBJECTID":19614,"LANDMARKID":"1001200000222","LANDMARKCO":"107","LANDMARKNA":"高雄市消防局阿蓮消防分隊","LANDMARKAD":"1001212","ADDRESS":"高雄市阿蓮區忠孝路202號","TEL":"07-6312019","COUNTYNAME":"高雄市","TOWNNAME":"阿蓮區","MARKTYPE":"991","Class":"1"}},{"type":"Feature","id":19615,"geometry":{"type":"Point","coordinates":[120.3298662349235,22.880897336709509]},"properties":{"OBJECTID":19615,"LANDMARKID":"1001200000125","LANDMARKCO":"106","LANDMARKNA":"高雄市阿蓮區戶政事務所","LANDMARKAD":"1001212","ADDRESS":"高雄市阿蓮區忠孝路228號","TEL":"07-6312242","COUNTYNAME":"高雄市","TOWNNAME":"阿蓮區","MARKTYPE":"991","Class":"1"}},{"type":"Feature","id":19616,"geometry":{"type":"Point","coordinates":[120.32426908040297,22.849598076476898]},"properties":{"OBJECTID":19616,"LANDMARKID":"1001200000606","LANDMARKCO":"205","LANDMARKNA":"大崗山下紙影戲館","LANDMARKAD":"1001212","ADDRESS":"高雄市阿蓮區復安路167號","TEL":"07-6332358","COUNTYNAME":"高雄市","TOWNNAME":"阿蓮區","MARKTYPE":"992","Class":"2"}},{"type":"Feature","id":19617,"geometry":{"type":"Point","coordinates":[120.33339415092522,22.879853817729064]},"properties":{"OBJECTID":19617,"LANDMARKID":"1001200000577","LANDMARKCO":"204","LANDMARKNA":"高雄市立圖書館阿蓮分館","LANDMARKAD":"1001212","ADDRESS":"高雄市阿蓮區中正路381巷35號2樓","TEL":" ","COUNTYNAME":"高雄市","TOWNNAME":"阿蓮區","MARKTYPE":"992","Class":"2"}},{"type":"Feature","id":19618,"geometry":{"type":"Point","coordinates":[120.32606208151026,22.885572815174086]},"properties":{"OBJECTID":19618,"LANDMARKID":"1001200000510","LANDMARKCO":"203","LANDMARKNA":"縣立阿蓮國中","LANDMARKAD":"1001212","ADDRESS":"高雄市阿蓮區民生路178號","TEL":"07-6312045","COUNTYNAME":"高雄市","TOWNNAME":"阿蓮區","MARKTYPE":"992","Class":"2"}},{"type":"Feature","id":19619,"geometry":{"type":"Point","coordinates":[120.32267153899913,22.849704958440892]},"properties":{"OBJECTID":19619,"LANDMARKID":"1001200000511","LANDMARKCO":"203","LANDMARKNA":"縣立復安國小","LANDMARKAD":"1001212","ADDRESS":"高雄市阿蓮區復安村復安路167號","TEL":"07-6332358","COUNTYNAME":"高雄市","TOWNNAME":"阿蓮區","MARKTYPE":"992","Class":"2"}},{"type":"Feature","id":19620,"geometry":{"type":"Point","coordinates":[120.3291211186594,22.883329322619339]},"properties":{"OBJECTID":19620,"LANDMARKID":"1001200000512","LANDMARKCO":"203","LANDMARKNA":"縣立阿蓮國小","LANDMARKAD":"1001212","ADDRESS":"高雄市阿蓮區阿蓮村民族路163號","TEL":"07-6312049","COUNTYNAME":"高雄市","TOWNNAME":"阿蓮區","MARKTYPE":"992","Class":"2"}},{"type":"Feature","id":19621,"geometry":{"type":"Point","coordinates":[120.35010403979742,22.876548035625888]},"properties":{"OBJECTID":19621,"LANDMARKID":"1001200000513","LANDMARKCO":"203","LANDMARKNA":"縣立阿蓮國小峰山分校","LANDMARKAD":"1001212","ADDRESS":"高雄市阿蓮區峰山村建國路5號","TEL":"07-6320525","COUNTYNAME":"高雄市","TOWNNAME":"阿蓮區","MARKTYPE":"992","Class":"2"}},{"type":"Feature","id":19622,"geometry":{"type":"Point","coordinates":[120.29889962899648,22.894849833663567]},"properties":{"OBJECTID":19622,"LANDMARKID":"1001200000514","LANDMARKCO":"203","LANDMARKNA":"縣立中路國小","LANDMARKAD":"1001212","ADDRESS":"高雄市阿蓮區中路村272號","TEL":"07-6312325","COUNTYNAME":"高雄市","TOWNNAME":"阿蓮區","MARKTYPE":"992","Class":"2"}},{"type":"Feature","id":19623,"geometry":{"type":"Point","coordinates":[120.29801497925455,22.841435644991346]},"properties":{"OBJECTID":19623,"LANDMARKID":"1001200000725","LANDMARKCO":"308","LANDMARKNA":"國1-高科交流道-南下","LANDMARKAD":"1001212","ADDRESS":" ","TEL":" ","COUNTYNAME":"高雄市","TOWNNAME":"阿蓮區","MARKTYPE":"993","Class":"308"}},{"type":"Feature","id":19648,"geometry":{"type":"Point","coordinates":[120.42644261875849,22.819773053744544]},"properties":{"OBJECTID":19648,"LANDMARKID":"1001200000519","LANDMARKCO":"203","LANDMARKNA":"縣立中寮國小","LANDMARKAD":"1001211","ADDRESS":"高雄市田寮區","TEL":" ","COUNTYNAME":"高雄市","TOWNNAME":"田寮區","MARKTYPE":"992","Class":"2"}},{"type":"Feature","id":19649,"geometry":{"type":"Point","coordinates":[120.40587360062746,22.837574269562019]},"properties":{"OBJECTID":19649,"LANDMARKID":"1001200000520","LANDMARKCO":"203","LANDMARKNA":"縣立新興國小田寮分班","LANDMARKAD":"1001211","ADDRESS":"高雄市田寮區","TEL":"07-6361075","COUNTYNAME":"高雄市","TOWNNAME":"田寮區","MARKTYPE":"992","Class":"2"}},{"type":"Feature","id":19650,"geometry":{"type":"Point","coordinates":[120.37352747426418,22.858907321590834]},"properties":{"OBJECTID":19650,"LANDMARKID":"1001200000726","LANDMARKCO":"308","LANDMARKNA":"田寮收費站","LANDMARKAD":"1001211","ADDRESS":" ","TEL":" ","COUNTYNAME":"高雄市","TOWNNAME":"田寮區","MARKTYPE":"993","Class":"308"}},{"type":"Feature","id":19651,"geometry":{"type":"Point","coordinates":[120.36011763830126,22.879840931520619]},"properties":{"OBJECTID":19651,"LANDMARKID":"1001200000727","LANDMARKCO":"308","LANDMARKNA":"國3-田寮交流道-南下","LANDMARKAD":"1001211","ADDRESS":"高雄市田寮區","TEL":" ","COUNTYNAME":"高雄市","TOWNNAME":"田寮區","MARKTYPE":"993","Class":"308"}},{"type":"Feature","id":19652,"geometry":{"type":"Point","coordinates":[120.3611589889251,22.882167443611838]},"properties":{"OBJECTID":19652,"LANDMARKID":"1001200000728","LANDMARKCO":"308","LANDMARKNA":"國3-田寮交流道-北上","LANDMARKAD":"1001211","ADDRESS":"高雄市田寮區","TEL":" ","COUNTYNAME":"高雄市","TOWNNAME":"田寮區","MARKTYPE":"993","Class":"308"}},{"type":"Feature","id":19653,"geometry":{"type":"Point","coordinates":[120.38329439143477,22.87757070932857]},"properties":{"OBJECTID":19653,"LANDMARKID":"1001200001446","LANDMARKCO":"604","LANDMARKNA":"頭前園民宿","LANDMARKAD":"1001211","ADDRESS":"高雄市田寮區崇德村崇德路9號","TEL":"07-6366688","COUNTYNAME":"高雄市","TOWNNAME":"田寮區","MARKTYPE":"996","Class":"6"}},{"type":"Feature","id":19654,"geometry":{"type":"Point","coordinates":[120.35781425813863,22.874550146674665]},"properties":{"OBJECTID":19654,"LANDMARKID":"1001200001271","LANDMARKCO":"508","LANDMARKNA":"大崗山溫泉","LANDMARKAD":"1001211","ADDRESS":"高雄市田寮區崗安路113號","TEL":"07-6361601","COUNTYNAME":"高雄市","TOWNNAME":"田寮區","MARKTYPE":"995","Class":"5"}},{"type":"Feature","id":19655,"geometry":{"type":"Point","coordinates":[120.38874733904201,22.888549391012148]},"properties":{"OBJECTID":19655,"LANDMARKID":"1001200001232","LANDMARKCO":"503","LANDMARKNA":"月世界風景特定區","LANDMARKAD":"1001211","ADDRESS":"高雄市田寮區","TEL":" ","COUNTYNAME":"高雄市","TOWNNAME":"田寮區","MARKTYPE":"995","Class":"5"}},{"type":"Feature","id":19656,"geometry":{"type":"Point","coordinates":[120.37146588044349,22.892561100769313]},"properties":{"OBJECTID":19656,"LANDMARKID":"1001200001299","LANDMARKCO":"510","LANDMARKNA":"大崗山高爾夫球場","LANDMARKAD":"1001211","ADDRESS":"高雄市田寮區西德村長山路1號","TEL":"07-6366411","COUNTYNAME":"高雄市","TOWNNAME":"田寮區","MARKTYPE":"995","Class":"5"}},{"type":"Feature","id":19657,"geometry":{"type":"Point","coordinates":[120.37392067066908,22.857635500700951]},"properties":{"OBJECTID":19657,"LANDMARKID":"1001200001478","LANDMARKCO":"605","LANDMARKNA":"國公路第八警察隊田寮分隊","LANDMARKAD":"1001211","ADDRESS":"高雄市田寮區","TEL":" ","COUNTYNAME":"高雄市","TOWNNAME":"田寮區","MARKTYPE":"996","Class":"6"}},{"type":"Feature","id":19658,"geometry":{"type":"Point","coordinates":[120.3798153245737,22.84522483443444]},"properties":{"OBJECTID":19658,"LANDMARKID":"1001200001479","LANDMARKCO":"605","LANDMARKNA":"聖母宮","LANDMARKAD":"1001211","ADDRESS":"高雄市田寮區","TEL":" ","COUNTYNAME":"高雄市","TOWNNAME":"田寮區","MARKTYPE":"996","Class":"6"}},{"type":"Feature","id":19659,"geometry":{"type":"Point","coordinates":[120.39540775238954,22.849395349455101]},"properties":{"OBJECTID":19659,"LANDMARKID":"1001200001480","LANDMARKCO":"605","LANDMARKNA":"大同活動中心","LANDMARKAD":"1001211","ADDRESS":"高雄市田寮區","TEL":" ","COUNTYNAME":"高雄市","TOWNNAME":"田寮區","MARKTYPE":"996","Class":"6"}},{"type":"Feature","id":19660,"geometry":{"type":"Point","coordinates":[120.39868918371178,22.848870479208912]},"properties":{"OBJECTID":19660,"LANDMARKID":"1001200001481","LANDMARKCO":"605","LANDMARKNA":"聖法宮","LANDMARKAD":"1001211","ADDRESS":"高雄市田寮區","TEL":" ","COUNTYNAME":"高雄市","TOWNNAME":"田寮區","MARKTYPE":"996","Class":"6"}},{"type":"Feature","id":19661,"geometry":{"type":"Point","coordinates":[120.3909155047966,22.840754512609735]},"properties":{"OBJECTID":19661,"LANDMARKID":"1001200001482","LANDMARKCO":"605","LANDMARKNA":"金寶殿","LANDMARKAD":"1001211","ADDRESS":"高雄市田寮區","TEL":" ","COUNTYNAME":"高雄市","TOWNNAME":"田寮區","MARKTYPE":"996","Class":"6"}},{"type":"Feature","id":19662,"geometry":{"type":"Point","coordinates":[120.38610145791257,22.835289936016473]},"properties":{"OBJECTID":19662,"LANDMARKID":"1001200001483","LANDMARKCO":"605","LANDMARKNA":"慈玄聖天宮","LANDMARKAD":"1001211","ADDRESS":"高雄市田寮區","TEL":" ","COUNTYNAME":"高雄市","TOWNNAME":"田寮區","MARKTYPE":"996","Class":"6"}},{"type":"Feature","id":19663,"geometry":{"type":"Point","coordinates":[120.37000896616961,22.83382831710497]},"properties":{"OBJECTID":19663,"LANDMARKID":"1001200001484","LANDMARKCO":"605","LANDMARKNA":"龍鳳寺","LANDMARKAD":"1001211","ADDRESS":"高雄市田寮區","TEL":" ","COUNTYNAME":"高雄市","TOWNNAME":"田寮區","MARKTYPE":"996","Class":"6"}},{"type":"Feature","id":19664,"geometry":{"type":"Point","coordinates":[120.35756893588773,22.857284314165934]},"properties":{"OBJECTID":19664,"LANDMARKID":"1001200001485","LANDMARKCO":"605","LANDMARKNA":"朝元寺","LANDMARKAD":"1001211","ADDRESS":"高雄市田寮區","TEL":" ","COUNTYNAME":"高雄市","TOWNNAME":"田寮區","MARKTYPE":"996","Class":"6"}},{"type":"Feature","id":19665,"geometry":{"type":"Point","coordinates":[120.22866116690935,22.853788199454677]},"properties":{"OBJECTID":19665,"LANDMARKID":"1001200000891","LANDMARKCO":"405","LANDMARKNA":"中油加油站-新達站","LANDMARKAD":"1001213","ADDRESS":"高雄市路竹區竹滬村大公路439號","TEL":"07-6982326","COUNTYNAME":"高雄市","TOWNNAME":"路竹區","MARKTYPE":"994","Class":"4"}},{"type":"Feature","id":19666,"geometry":{"type":"Point","coordinates":[120.25669567401239,22.866338380032726]},"properties":{"OBJECTID":19666,"LANDMARKID":"1001200000892","LANDMARKCO":"405","LANDMARKNA":"中油加油站-路竹站","LANDMARKAD":"1001213","ADDRESS":"高雄市路竹區中山路589號","TEL":"07-6962240","COUNTYNAME":"高雄市","TOWNNAME":"路竹區","MARKTYPE":"994","Class":"4"}},{"type":"Feature","id":19667,"geometry":{"type":"Point","coordinates":[120.26797294757644,22.822073055070739]},"properties":{"OBJECTID":19667,"LANDMARKID":"1001200000893","LANDMARKCO":"405","LANDMARKNA":"台灣優力加油站-路科站(中油)","LANDMARKAD":"1001213","ADDRESS":"高雄市路竹區中山南路118號","TEL":"07-6967846","COUNTYNAME":"高雄市","TOWNNAME":"路竹區","MARKTYPE":"994","Class":"4"}},{"type":"Feature","id":19668,"geometry":{"type":"Point","coordinates":[120.27314125450536,22.848176692441424]},"properties":{"OBJECTID":19668,"LANDMARKID":"1001200000894","LANDMARKCO":"405","LANDMARKNA":"中油加油站-再生站","LANDMARKAD":"1001213","ADDRESS":"高雄市路竹區復興路213號","TEL":"07-6076490","COUNTYNAME":"高雄市","TOWNNAME":"路竹區","MARKTYPE":"994","Class":"4"}},{"type":"Feature","id":19647,"geometry":{"type":"Point","coordinates":[120.40458842547734,22.893203248969574]},"properties":{"OBJECTID":19647,"LANDMARKID":"1001200000518","LANDMARKCO":"203","LANDMARKNA":"縣立崇德國小古亭分校","LANDMARKAD":"1001211","ADDRESS":"高雄市田寮區","TEL":"07-6367958","COUNTYNAME":"高雄市","TOWNNAME":"田寮區","MARKTYPE":"992","Class":"2"}},{"type":"Feature","id":19646,"geometry":{"type":"Point","coordinates":[120.37901857954309,22.877751657019715]},"properties":{"OBJECTID":19646,"LANDMARKID":"1001200000517","LANDMARKCO":"203","LANDMARKNA":"縣立崇德國小","LANDMARKAD":"1001211","ADDRESS":"高雄市田寮區崇德村崇德路101號","TEL":"07-6366141","COUNTYNAME":"高雄市","TOWNNAME":"田寮區","MARKTYPE":"992","Class":"2"}},{"type":"Feature","id":19645,"geometry":{"type":"Point","coordinates":[120.37007000374091,22.834909423970252]},"properties":{"OBJECTID":19645,"LANDMARKID":"1001200000516","LANDMARKCO":"203","LANDMARKNA":"縣立新興國小","LANDMARKAD":"1001211","ADDRESS":"高雄市田寮區新興村大新路2號","TEL":"07-6381348","COUNTYNAME":"高雄市","TOWNNAME":"田寮區","MARKTYPE":"992","Class":"2"}},{"type":"Feature","id":19644,"geometry":{"type":"Point","coordinates":[120.36058576797139,22.863866192466002]},"properties":{"OBJECTID":19644,"LANDMARKID":"1001200000515","LANDMARKCO":"203","LANDMARKNA":"縣立田寮國中","LANDMARKAD":"1001211","ADDRESS":"高雄市田寮區南安村崗安路48號","TEL":"07-6361687","COUNTYNAME":"高雄市","TOWNNAME":"田寮區","MARKTYPE":"992","Class":"2"}},{"type":"Feature","id":19643,"geometry":{"type":"Point","coordinates":[120.35973294968355,22.868520918004855]},"properties":{"OBJECTID":19643,"LANDMARKID":"1001200000578","LANDMARKCO":"204","LANDMARKNA":"高雄市立圖書館田寮分館","LANDMARKAD":"1001211","ADDRESS":"高雄市田寮區南安村崗安路71之1號","TEL":" ","COUNTYNAME":"高雄市","TOWNNAME":"田寮區","MARKTYPE":"992","Class":"2"}},{"type":"Feature","id":19642,"geometry":{"type":"Point","coordinates":[120.37391880732606,22.857685758146477]},"properties":{"OBJECTID":19642,"LANDMARKID":"1001200000010","LANDMARKCO":"101","LANDMARKNA":"國公路警察局第五警察隊田寮分隊","LANDMARKAD":"1001211","ADDRESS":"高雄市田寮區南安路71之5號","TEL":"07-6381442","COUNTYNAME":"高雄市","TOWNNAME":"田寮區","MARKTYPE":"991","Class":"1"}},{"type":"Feature","id":19641,"geometry":{"type":"Point","coordinates":[120.40859031731256,22.826566831930528]},"properties":{"OBJECTID":19641,"LANDMARKID":"1001200000231","LANDMARKCO":"107","LANDMARKNA":"高雄市政府警察局蛙潭派出所","LANDMARKAD":"1001211","ADDRESS":"高雄市田寮區七星路11號","TEL":"07-6361192","COUNTYNAME":"高雄市","TOWNNAME":"田寮區","MARKTYPE":"991","Class":"1"}},{"type":"Feature","id":19640,"geometry":{"type":"Point","coordinates":[120.40369095393977,22.893286827045994]},"properties":{"OBJECTID":19640,"LANDMARKID":"1001200000230","LANDMARKCO":"107","LANDMARKNA":"高雄市政府警察局古亭派出所","LANDMARKAD":"1001211","ADDRESS":"高雄市田寮區古亭路39號","TEL":"07-6367058","COUNTYNAME":"高雄市","TOWNNAME":"田寮區","MARKTYPE":"991","Class":"1"}},{"type":"Feature","id":19639,"geometry":{"type":"Point","coordinates":[120.38073546757087,22.877573588883877]},"properties":{"OBJECTID":19639,"LANDMARKID":"1001200000229","LANDMARKCO":"107","LANDMARKNA":"高雄市政府警察局崇德派出所","LANDMARKAD":"1001211","ADDRESS":"高雄市田寮區崇德路49號","TEL":"07-6366774","COUNTYNAME":"高雄市","TOWNNAME":"田寮區","MARKTYPE":"991","Class":"1"}},{"type":"Feature","id":19638,"geometry":{"type":"Point","coordinates":[120.38057019042623,22.877843173208195]},"properties":{"OBJECTID":19638,"LANDMARKID":"1001200000228","LANDMARKCO":"107","LANDMARKNA":"高雄市消防局田寮消防分隊","LANDMARKAD":"1001211","ADDRESS":"高雄市田寮區七星路51-1號","TEL":"07-6362081","COUNTYNAME":"高雄市","TOWNNAME":"田寮區","MARKTYPE":"991","Class":"1"}},{"type":"Feature","id":19637,"geometry":{"type":"Point","coordinates":[120.36303699647665,22.867125614851172]},"properties":{"OBJECTID":19637,"LANDMARKID":"1001200000080","LANDMARKCO":"103","LANDMARKNA":"高雄市田寮區衛生所","LANDMARKAD":"1001211","ADDRESS":"高雄市田寮區南安村崗北路32號","TEL":"07-6361504","COUNTYNAME":"高雄市","TOWNNAME":"田寮區","MARKTYPE":"991","Class":"1"}},{"type":"Feature","id":19636,"geometry":{"type":"Point","coordinates":[120.35966368427279,22.869367376769411]},"properties":{"OBJECTID":19636,"LANDMARKID":"1001200000283","LANDMARKCO":"108","LANDMARKNA":"高雄市田寮區公所","LANDMARKAD":"1001211","ADDRESS":"高雄市田寮區崗安路71號","TEL":"07-6361475","COUNTYNAME":"高雄市","TOWNNAME":"田寮區","MARKTYPE":"991","Class":"1"}},{"type":"Feature","id":19635,"geometry":{"type":"Point","coordinates":[120.35797289239007,22.873699587396274]},"properties":{"OBJECTID":19635,"LANDMARKID":"1001200000126","LANDMARKCO":"106","LANDMARKNA":"高雄市田寮區戶政事務所","LANDMARKAD":"1001211","ADDRESS":"高雄市田寮區南安村崗安路71之3號","TEL":"07-6361584","COUNTYNAME":"高雄市","TOWNNAME":"田寮區","MARKTYPE":"991","Class":"1"}},{"type":"Feature","id":19634,"geometry":{"type":"Point","coordinates":[120.35732802212479,22.873874992103961]},"properties":{"OBJECTID":19634,"LANDMARKID":"1001200000220","LANDMARKCO":"107","LANDMARKNA":"高雄市政府警察局田寮分駐所","LANDMARKAD":"1001211","ADDRESS":"高雄市田寮區南安村崗安路99號","TEL":"07-6361878","COUNTYNAME":"高雄市","TOWNNAME":"田寮區","MARKTYPE":"991","Class":"1"}},{"type":"Feature","id":19633,"geometry":{"type":"Point","coordinates":[120.35347279789423,22.865726545138251]},"properties":{"OBJECTID":19633,"LANDMARKID":"1001200001029","LANDMARKCO":"406","LANDMARKNA":"三角公園","LANDMARKAD":"1001211","ADDRESS":" ","TEL":" ","COUNTYNAME":"高雄市","TOWNNAME":"田寮區","MARKTYPE":"994","Class":"4"}},{"type":"Feature","id":19632,"geometry":{"type":"Point","coordinates":[120.38071129030058,22.878154671871503]},"properties":{"OBJECTID":19632,"LANDMARKID":"1001200001139","LANDMARKCO":"409","LANDMARKNA":"田寮農會-崇德分部","LANDMARKAD":"1001211","ADDRESS":"高雄市田寮區崇德村崇德路84-1號","TEL":"07-636-66","COUNTYNAME":"高雄市","TOWNNAME":"田寮區","MARKTYPE":"994","Class":"4"}},{"type":"Feature","id":19631,"geometry":{"type":"Point","coordinates":[120.36585088720254,22.83656688954299]},"properties":{"OBJECTID":19631,"LANDMARKID":"1001200001138","LANDMARKCO":"409","LANDMARKNA":"田寮農會-新興分部","LANDMARKAD":"1001211","ADDRESS":"高雄市田寮區新興村新興路100號","TEL":"07-638-18","COUNTYNAME":"高雄市","TOWNNAME":"田寮區","MARKTYPE":"994","Class":"4"}},{"type":"Feature","id":19630,"geometry":{"type":"Point","coordinates":[120.36459791332149,22.83738467013735]},"properties":{"OBJECTID":19630,"LANDMARKID":"1001200001137","LANDMARKCO":"409","LANDMARKNA":"田寮農會新興分部","LANDMARKAD":"1001211","ADDRESS":"田寮區新興村新興路100號","TEL":"07-638-1872","COUNTYNAME":"高雄市","TOWNNAME":"田寮區","MARKTYPE":"994","Class":"4"}},{"type":"Feature","id":19629,"geometry":{"type":"Point","coordinates":[120.35749235123922,22.873859437211529]},"properties":{"OBJECTID":19629,"LANDMARKID":"1001200001136","LANDMARKCO":"409","LANDMARKNA":"高雄市田寮區農會","LANDMARKAD":"1001211","ADDRESS":"高雄市田寮區南安村崗安路82號","TEL":"07-6361501-3","COUNTYNAME":"高雄市","TOWNNAME":"田寮區","MARKTYPE":"994","Class":"4"}},{"type":"Feature","id":19628,"geometry":{"type":"Point","coordinates":[120.35961824139925,22.872597243816422]},"properties":{"OBJECTID":19628,"LANDMARKID":"1001200001104","LANDMARKCO":"408","LANDMARKNA":"郵局-田寮郵局","LANDMARKAD":"1001211","ADDRESS":"高雄市田寮區南安村崗北路61號","TEL":"(07)6361-675","COUNTYNAME":"高雄市","TOWNNAME":"田寮區","MARKTYPE":"994","Class":"4"}},{"type":"Feature","id":19627,"geometry":{"type":"Point","coordinates":[120.41308182747278,22.824923724127373]},"properties":{"OBJECTID":19627,"LANDMARKID":"1001200001264","LANDMARKCO":"507","LANDMARKNA":"龍山寺","LANDMARKAD":"1001211","ADDRESS":"高雄市六龜區","TEL":" ","COUNTYNAME":"高雄市","TOWNNAME":"田寮區","MARKTYPE":"995","Class":"5"}},{"type":"Feature","id":19626,"geometry":{"type":"Point","coordinates":[120.35567824296875,22.874471702047181]},"properties":{"OBJECTID":19626,"LANDMARKID":"1001200001487","LANDMARKCO":"605","LANDMARKNA":"大南天福德祠","LANDMARKAD":"1001212","ADDRESS":"高雄市阿蓮區","TEL":" ","COUNTYNAME":"高雄市","TOWNNAME":"阿蓮區","MARKTYPE":"996","Class":"6"}},{"type":"Feature","id":19625,"geometry":{"type":"Point","coordinates":[120.35606087348739,22.874370112618372]},"properties":{"OBJECTID":19625,"LANDMARKID":"1001200001361","LANDMARKCO":"603","LANDMARKNA":"勝吉旅社","LANDMARKAD":"1001212","ADDRESS":"高雄市阿蓮區峰山村峰南路5號","TEL":"07-6312684","COUNTYNAME":"高雄市","TOWNNAME":"阿蓮區","MARKTYPE":"996","Class":"6"}},{"type":"Feature","id":19624,"geometry":{"type":"Point","coordinates":[120.32652606970582,22.883724536347344]},"properties":{"OBJECTID":19624,"LANDMARKID":"1001200000814","LANDMARKCO":"402","LANDMARKNA":"中華電信-阿蓮服務中心","LANDMARKAD":"1001212","ADDRESS":"高雄市阿蓮區民生路103號","TEL":"(07)644-7700","COUNTYNAME":"高雄市","TOWNNAME":"阿蓮區","MARKTYPE":"994","Class":"4"}},{"type":"Feature","id":19669,"geometry":{"type":"Point","coordinates":[120.27642518443926,22.879936915534657]},"properties":{"OBJECTID":19669,"LANDMARKID":"1001200000895","LANDMARKCO":"405","LANDMARKNA":"統一速邁樂加油站-路竹二站加油站(中油)","LANDMARKAD":"1001213","ADDRESS":"高雄市路竹區甲北村環球路200號","TEL":" ","COUNTYNAME":"高雄市","TOWNNAME":"路竹區","MARKTYPE":"994","Class":"4"}},{"type":"Feature","id":19694,"geometry":{"type":"Point","coordinates":[120.26864251453726,22.870784771823971]},"properties":{"OBJECTID":19694,"LANDMARKID":"1001200000225","LANDMARKCO":"107","LANDMARKNA":"高雄市政府警察局一甲派出所","LANDMARKAD":"1001213","ADDRESS":"高雄市路竹區社西村金平路356號","TEL":"07-6962954","COUNTYNAME":"高雄市","TOWNNAME":"路竹區","MARKTYPE":"991","Class":"1"}},{"type":"Feature","id":19695,"geometry":{"type":"Point","coordinates":[120.26567540804224,22.841660535390027]},"properties":{"OBJECTID":19695,"LANDMARKID":"1001200000605","LANDMARKCO":"205","LANDMARKNA":"高雄市自然史教育館","LANDMARKAD":"1001213","ADDRESS":"高雄市路竹區中山路1821號","TEL":" ","COUNTYNAME":"高雄市","TOWNNAME":"路竹區","MARKTYPE":"992","Class":"2"}},{"type":"Feature","id":19696,"geometry":{"type":"Point","coordinates":[120.25847817138201,22.857958047507573]},"properties":{"OBJECTID":19696,"LANDMARKID":"1001200000583","LANDMARKCO":"204","LANDMARKNA":"高雄市立圖書館路竹分館","LANDMARKAD":"1001213","ADDRESS":"高雄市路竹區延平路75號","TEL":" ","COUNTYNAME":"高雄市","TOWNNAME":"路竹區","MARKTYPE":"992","Class":"2"}},{"type":"Feature","id":19697,"geometry":{"type":"Point","coordinates":[120.25913315759443,22.856467417186742]},"properties":{"OBJECTID":19697,"LANDMARKID":"1001200000469","LANDMARKCO":"203","LANDMARKNA":"縣立路竹國小","LANDMARKAD":"1001213","ADDRESS":"高雄市路竹區中山路712巷16號","TEL":"07-6969920","COUNTYNAME":"高雄市","TOWNNAME":"路竹區","MARKTYPE":"992","Class":"2"}},{"type":"Feature","id":19698,"geometry":{"type":"Point","coordinates":[120.2519711745187,22.855084950678926]},"properties":{"OBJECTID":19698,"LANDMARKID":"1001200000324","LANDMARKCO":"202","LANDMARKNA":"縣立路竹高中","LANDMARKAD":"1001213","ADDRESS":"高雄市路竹區中華路292號","TEL":"07-6963008","COUNTYNAME":"高雄市","TOWNNAME":"路竹區","MARKTYPE":"992","Class":"2"}},{"type":"Feature","id":19699,"geometry":{"type":"Point","coordinates":[120.27283915179692,22.868811071615287]},"properties":{"OBJECTID":19699,"LANDMARKID":"1001200000461","LANDMARKCO":"203","LANDMARKNA":"縣立一甲國中","LANDMARKAD":"1001213","ADDRESS":"高雄市路竹區一甲路111號","TEL":"07-6977479","COUNTYNAME":"高雄市","TOWNNAME":"路竹區","MARKTYPE":"992","Class":"2"}},{"type":"Feature","id":19700,"geometry":{"type":"Point","coordinates":[120.23029110472613,22.862660244282903]},"properties":{"OBJECTID":19700,"LANDMARKID":"1001200000462","LANDMARKCO":"203","LANDMARKNA":"縣立竹滬國小","LANDMARKAD":"1001213","ADDRESS":"高雄市路竹區竹滬村成功路2號","TEL":"07-6981516","COUNTYNAME":"高雄市","TOWNNAME":"路竹區","MARKTYPE":"992","Class":"2"}},{"type":"Feature","id":19701,"geometry":{"type":"Point","coordinates":[120.26494106125416,22.867422231125278]},"properties":{"OBJECTID":19701,"LANDMARKID":"1001200000463","LANDMARKCO":"203","LANDMARKNA":"縣立大社國小","LANDMARKAD":"1001213","ADDRESS":"高雄市路竹區社西村大社路243號","TEL":"07-6962254","COUNTYNAME":"高雄市","TOWNNAME":"路竹區","MARKTYPE":"992","Class":"2"}},{"type":"Feature","id":19702,"geometry":{"type":"Point","coordinates":[120.26964521023788,22.82355223770168]},"properties":{"OBJECTID":19702,"LANDMARKID":"1001200000464","LANDMARKCO":"203","LANDMARKNA":"縣立北嶺國小","LANDMARKAD":"1001213","ADDRESS":"高雄市路竹區北嶺村民治路85號","TEL":"07-6964786","COUNTYNAME":"高雄市","TOWNNAME":"路竹區","MARKTYPE":"992","Class":"2"}},{"type":"Feature","id":19703,"geometry":{"type":"Point","coordinates":[120.269513646436,22.8750242353339]},"properties":{"OBJECTID":19703,"LANDMARKID":"1001200000465","LANDMARKCO":"203","LANDMARKNA":"縣立一甲國小","LANDMARKAD":"1001213","ADDRESS":"高雄市路竹區甲南村大智路43號","TEL":"07-6962454","COUNTYNAME":"高雄市","TOWNNAME":"路竹區","MARKTYPE":"992","Class":"2"}},{"type":"Feature","id":19704,"geometry":{"type":"Point","coordinates":[120.27984788205745,22.83670123318209]},"properties":{"OBJECTID":19704,"LANDMARKID":"1001200000466","LANDMARKCO":"203","LANDMARKNA":"縣立三埤國小","LANDMARKAD":"1001213","ADDRESS":"高雄市路竹區三爺村民權路7號","TEL":"07-6962688","COUNTYNAME":"高雄市","TOWNNAME":"路竹區","MARKTYPE":"992","Class":"2"}},{"type":"Feature","id":19705,"geometry":{"type":"Point","coordinates":[120.29122453953538,22.869172563730125]},"properties":{"OBJECTID":19705,"LANDMARKID":"1001200000467","LANDMARKCO":"203","LANDMARKNA":"縣立下坑國小","LANDMARKAD":"1001213","ADDRESS":"高雄市路竹區下坑村太平路384號","TEL":"07-6951015","COUNTYNAME":"高雄市","TOWNNAME":"路竹區","MARKTYPE":"992","Class":"2"}},{"type":"Feature","id":19706,"geometry":{"type":"Point","coordinates":[120.25607030278502,22.861328190342313]},"properties":{"OBJECTID":19706,"LANDMARKID":"1001200000468","LANDMARKCO":"203","LANDMARKNA":"縣立蔡文國小","LANDMARKAD":"1001213","ADDRESS":"高雄市路竹區國昌路548號","TEL":"07-6076268","COUNTYNAME":"高雄市","TOWNNAME":"路竹區","MARKTYPE":"992","Class":"2"}},{"type":"Feature","id":19707,"geometry":{"type":"Point","coordinates":[120.26456573118284,22.841321004327895]},"properties":{"OBJECTID":19707,"LANDMARKID":"1001200000311","LANDMARKCO":"201","LANDMARKNA":"高苑科技大學","LANDMARKAD":"1001213","ADDRESS":"高雄市路竹區中山路1821號","TEL":"07-6077777","COUNTYNAME":"高雄市","TOWNNAME":"路竹區","MARKTYPE":"992","Class":"2"}},{"type":"Feature","id":19708,"geometry":{"type":"Point","coordinates":[120.26339549850466,22.881237258279256]},"properties":{"OBJECTID":19708,"LANDMARKID":"1001200000312","LANDMARKCO":"201","LANDMARKNA":"樹人醫護管理專校","LANDMARKAD":"1001213","ADDRESS":"高雄市路竹區環球路452號","TEL":"07-6979333","COUNTYNAME":"高雄市","TOWNNAME":"路竹區","MARKTYPE":"992","Class":"2"}},{"type":"Feature","id":19709,"geometry":{"type":"Point","coordinates":[120.27927750284874,22.878520608983006]},"properties":{"OBJECTID":19709,"LANDMARKID":"1001200000708","LANDMARKCO":"308","LANDMARKNA":"國1-路竹交流道-南下","LANDMARKAD":"1001213","ADDRESS":"高雄市路竹區","TEL":" ","COUNTYNAME":"高雄市","TOWNNAME":"路竹區","MARKTYPE":"993","Class":"308"}},{"type":"Feature","id":19710,"geometry":{"type":"Point","coordinates":[120.27988255186861,22.879994206996024]},"properties":{"OBJECTID":19710,"LANDMARKID":"1001200000709","LANDMARKCO":"308","LANDMARKNA":"國1-路竹交流道-北上","LANDMARKAD":"1001213","ADDRESS":"高雄市路竹區","TEL":" ","COUNTYNAME":"高雄市","TOWNNAME":"路竹區","MARKTYPE":"993","Class":"308"}},{"type":"Feature","id":19711,"geometry":{"type":"Point","coordinates":[120.29264194221477,22.850278592587035]},"properties":{"OBJECTID":19711,"LANDMARKID":"1001200000710","LANDMARKCO":"308","LANDMARKNA":"國1-高科交流道-北上","LANDMARKAD":"1001213","ADDRESS":" ","TEL":" ","COUNTYNAME":"高雄市","TOWNNAME":"路竹區","MARKTYPE":"993","Class":"308"}},{"type":"Feature","id":19670,"geometry":{"type":"Point","coordinates":[120.27007342015919,22.879943938068148]},"properties":{"OBJECTID":19670,"LANDMARKID":"1001200000896","LANDMARKCO":"405","LANDMARKNA":"統一速邁樂加油站-路竹加油站(中油)","LANDMARKAD":"1001213","ADDRESS":"高雄市路竹區環球路305號","TEL":" ","COUNTYNAME":"高雄市","TOWNNAME":"路竹區","MARKTYPE":"994","Class":"4"}},{"type":"Feature","id":19671,"geometry":{"type":"Point","coordinates":[120.26128427769959,22.853836837119879]},"properties":{"OBJECTID":19671,"LANDMARKID":"1001200000816","LANDMARKCO":"402","LANDMARKNA":"亞太行動寬頻電信-路竹中山加盟服務中心","LANDMARKAD":"1001213","ADDRESS":"高雄市路竹區中山路844號","TEL":"07-6071188","COUNTYNAME":"高雄市","TOWNNAME":"路竹區","MARKTYPE":"994","Class":"4"}},{"type":"Feature","id":19672,"geometry":{"type":"Point","coordinates":[120.25688694963058,22.865580096954702]},"properties":{"OBJECTID":19672,"LANDMARKID":"1001200000729","LANDMARKCO":"401","LANDMARKNA":"高新醫院","LANDMARKAD":"1001213","ADDRESS":"高雄市路竹區中山路627號","TEL":"07-6975903","COUNTYNAME":"高雄市","TOWNNAME":"路竹區","MARKTYPE":"994","Class":"4"}},{"type":"Feature","id":19673,"geometry":{"type":"Point","coordinates":[120.25897912767131,22.858091458400281]},"properties":{"OBJECTID":19673,"LANDMARKID":"1001200000730","LANDMARKCO":"401","LANDMARKNA":"溫有諒醫院","LANDMARKAD":"1001213","ADDRESS":"高雄市路竹區竹南村延平路57號","TEL":"07-6963322","COUNTYNAME":"高雄市","TOWNNAME":"路竹區","MARKTYPE":"994","Class":"4"}},{"type":"Feature","id":19674,"geometry":{"type":"Point","coordinates":[120.26088000700555,22.860920914424746]},"properties":{"OBJECTID":19674,"LANDMARKID":"1001200001105","LANDMARKCO":"408","LANDMARKNA":"郵局-路竹郵局","LANDMARKAD":"1001213","ADDRESS":"高雄市路竹區中興路11號","TEL":"(07)6962-311","COUNTYNAME":"高雄市","TOWNNAME":"路竹區","MARKTYPE":"994","Class":"4"}},{"type":"Feature","id":19675,"geometry":{"type":"Point","coordinates":[120.26106615062248,22.856267776502687]},"properties":{"OBJECTID":19675,"LANDMARKID":"1001200001106","LANDMARKCO":"408","LANDMARKNA":"郵局-路竹竹南郵局","LANDMARKAD":"1001213","ADDRESS":"高雄市路竹區中山路1097號","TEL":"(07)6962-804","COUNTYNAME":"高雄市","TOWNNAME":"路竹區","MARKTYPE":"994","Class":"4"}},{"type":"Feature","id":19676,"geometry":{"type":"Point","coordinates":[120.27051255344745,22.873990968006229]},"properties":{"OBJECTID":19676,"LANDMARKID":"1001200001107","LANDMARKCO":"408","LANDMARKNA":"郵局-路竹一甲郵局","LANDMARKAD":"1001213","ADDRESS":"高雄市路竹區大智路60號","TEL":"(07)6966-896","COUNTYNAME":"高雄市","TOWNNAME":"路竹區","MARKTYPE":"994","Class":"4"}},{"type":"Feature","id":19677,"geometry":{"type":"Point","coordinates":[120.26002900374726,22.861008599686862]},"properties":{"OBJECTID":19677,"LANDMARKID":"1001200001131","LANDMARKCO":"409","LANDMARKNA":"高雄市路竹區農會","LANDMARKAD":"1001213","ADDRESS":"高雄市路竹區忠孝路43號","TEL":"07-6964011","COUNTYNAME":"高雄市","TOWNNAME":"路竹區","MARKTYPE":"994","Class":"4"}},{"type":"Feature","id":19678,"geometry":{"type":"Point","coordinates":[120.22853060338547,22.861712717304115]},"properties":{"OBJECTID":19678,"LANDMARKID":"1001200001132","LANDMARKCO":"409","LANDMARKNA":"路竹農會-竹滬分部","LANDMARKAD":"1001213","ADDRESS":"高雄市路竹區竹滬村成功路14-~2號","TEL":"07-698-16","COUNTYNAME":"高雄市","TOWNNAME":"路竹區","MARKTYPE":"994","Class":"4"}},{"type":"Feature","id":19679,"geometry":{"type":"Point","coordinates":[120.29006161156406,22.868473302859027]},"properties":{"OBJECTID":19679,"LANDMARKID":"1001200001133","LANDMARKCO":"409","LANDMARKNA":"路竹農會-下坑 部","LANDMARKAD":"1001213","ADDRESS":"高雄市路竹區下坑村太平路303號","TEL":"07-695-16","COUNTYNAME":"高雄市","TOWNNAME":"路竹區","MARKTYPE":"994","Class":"4"}},{"type":"Feature","id":19680,"geometry":{"type":"Point","coordinates":[120.2712416755521,22.870817309093844]},"properties":{"OBJECTID":19680,"LANDMARKID":"1001200001134","LANDMARKCO":"409","LANDMARKNA":"路竹農會-一甲分部","LANDMARKAD":"1001213","ADDRESS":"高雄市路竹區甲南村大仁路244號","TEL":"07-696-25","COUNTYNAME":"高雄市","TOWNNAME":"路竹區","MARKTYPE":"994","Class":"4"}},{"type":"Feature","id":19681,"geometry":{"type":"Point","coordinates":[120.27990350495769,22.834947690106798]},"properties":{"OBJECTID":19681,"LANDMARKID":"1001200001135","LANDMARKCO":"409","LANDMARKNA":"路竹農會-三爺分部","LANDMARKAD":"1001213","ADDRESS":"高雄市路竹區三爺村三民路54號","TEL":"07-696-24","COUNTYNAME":"高雄市","TOWNNAME":"路竹區","MARKTYPE":"994","Class":"4"}},{"type":"Feature","id":19682,"geometry":{"type":"Point","coordinates":[120.22945799659395,22.862850522095123]},"properties":{"OBJECTID":19682,"LANDMARKID":"1001200001027","LANDMARKCO":"406","LANDMARKNA":"寧靖公園","LANDMARKAD":"1001213","ADDRESS":"高雄市路竹區","TEL":" ","COUNTYNAME":"高雄市","TOWNNAME":"路竹區","MARKTYPE":"994","Class":"4"}},{"type":"Feature","id":19683,"geometry":{"type":"Point","coordinates":[120.25378610235374,22.854193911193263]},"properties":{"OBJECTID":19683,"LANDMARKID":"1001200001028","LANDMARKCO":"406","LANDMARKNA":"路竹公園","LANDMARKAD":"1001213","ADDRESS":"高雄市路竹區","TEL":" ","COUNTYNAME":"高雄市","TOWNNAME":"路竹區","MARKTYPE":"994","Class":"4"}},{"type":"Feature","id":19684,"geometry":{"type":"Point","coordinates":[120.26136425154365,22.85124925667445]},"properties":{"OBJECTID":19684,"LANDMARKID":"1001200000907","LANDMARKCO":"405","LANDMARKNA":"台亞加油站-明田站（台塑）","LANDMARKAD":"1001213","ADDRESS":"高雄市路竹區中山路1016號","TEL":"(07)697-2115","COUNTYNAME":"高雄市","TOWNNAME":"路竹區","MARKTYPE":"994","Class":"4"}},{"type":"Feature","id":19685,"geometry":{"type":"Point","coordinates":[120.25876449481217,22.854928852762924]},"properties":{"OBJECTID":19685,"LANDMARKID":"1001200000124","LANDMARKCO":"106","LANDMARKNA":"高雄市路竹區戶政事務所","LANDMARKAD":"1001213","ADDRESS":"高雄市路竹區國昌路86巷26號","TEL":"07-6962518","COUNTYNAME":"高雄市","TOWNNAME":"路竹區","MARKTYPE":"991","Class":"1"}},{"type":"Feature","id":19686,"geometry":{"type":"Point","coordinates":[120.2595157143605,22.85484553955251]},"properties":{"OBJECTID":19686,"LANDMARKID":"1001200000223","LANDMARKCO":"107","LANDMARKNA":"高雄市政府警察局路竹分駐所","LANDMARKAD":"1001213","ADDRESS":"高雄市路竹區國昌路86巷24號","TEL":"07-6962615","COUNTYNAME":"高雄市","TOWNNAME":"路竹區","MARKTYPE":"991","Class":"1"}},{"type":"Feature","id":19687,"geometry":{"type":"Point","coordinates":[120.22854741854408,22.861740299757141]},"properties":{"OBJECTID":19687,"LANDMARKID":"1001200000077","LANDMARKCO":"103","LANDMARKNA":"高雄市路竹區竹滬區理事會","LANDMARKAD":"1001213","ADDRESS":"高雄市路竹區成功路12號","TEL":"07-6982110","COUNTYNAME":"高雄市","TOWNNAME":"路竹區","MARKTYPE":"991","Class":"1"}},{"type":"Feature","id":19688,"geometry":{"type":"Point","coordinates":[120.25714022345747,22.854655757620083]},"properties":{"OBJECTID":19688,"LANDMARKID":"1001200000078","LANDMARKCO":"103","LANDMARKNA":"高雄市路竹區老人文康中心","LANDMARKAD":"1001213","ADDRESS":"高雄市路竹區國昌路117號","TEL":"07-6979240","COUNTYNAME":"高雄市","TOWNNAME":"路竹區","MARKTYPE":"991","Class":"1"}},{"type":"Feature","id":19689,"geometry":{"type":"Point","coordinates":[120.25909577025345,22.854931937554369]},"properties":{"OBJECTID":19689,"LANDMARKID":"1001200000226","LANDMARKCO":"107","LANDMARKNA":"高雄市消防局第二消防大隊部","LANDMARKAD":"1001213","ADDRESS":"高雄市路竹區國昌路78號","TEL":"07-6970451","COUNTYNAME":"高雄市","TOWNNAME":"路竹區","MARKTYPE":"991","Class":"1"}},{"type":"Feature","id":19690,"geometry":{"type":"Point","coordinates":[120.25910551373647,22.854932028061015]},"properties":{"OBJECTID":19690,"LANDMARKID":"1001200000227","LANDMARKCO":"107","LANDMARKNA":"高雄市消防局路竹消防分隊","LANDMARKAD":"1001213","ADDRESS":"高雄市路竹區國昌路78號","TEL":"07-6963807","COUNTYNAME":"高雄市","TOWNNAME":"路竹區","MARKTYPE":"991","Class":"1"}},{"type":"Feature","id":19691,"geometry":{"type":"Point","coordinates":[120.25915035955046,22.854390609582779]},"properties":{"OBJECTID":19691,"LANDMARKID":"1001200000079","LANDMARKCO":"103","LANDMARKNA":"高雄市路竹區鄉民代表會","LANDMARKAD":"1001213","ADDRESS":"高雄市路竹區國昌路76號3樓","TEL":"07-6979271","COUNTYNAME":"高雄市","TOWNNAME":"路竹區","MARKTYPE":"991","Class":"1"}},{"type":"Feature","id":19692,"geometry":{"type":"Point","coordinates":[120.26040141169993,22.854041021065413]},"properties":{"OBJECTID":19692,"LANDMARKID":"1001200000114","LANDMARKCO":"105","LANDMARKNA":"高雄市路竹地政事務所","LANDMARKAD":"1001213","ADDRESS":"高雄市路竹區國昌路65號","TEL":"07-6971052","COUNTYNAME":"高雄市","TOWNNAME":"路竹區","MARKTYPE":"991","Class":"1"}},{"type":"Feature","id":19693,"geometry":{"type":"Point","coordinates":[120.22910236279202,22.862648735565294]},"properties":{"OBJECTID":19693,"LANDMARKID":"1001200000224","LANDMARKCO":"107","LANDMARKNA":"竹滬派出所","LANDMARKAD":"1001213","ADDRESS":"高雄市路竹區竹滬村華山路三一號","TEL":"07-6981824","COUNTYNAME":"高雄市","TOWNNAME":"路竹區","MARKTYPE":"991","Class":"1"}},{"type":"Feature","id":19712,"geometry":{"type":"Point","coordinates":[120.25426309886305,22.878269156290322]},"properties":{"OBJECTID":19712,"LANDMARKID":"1001200000611","LANDMARKCO":"301","LANDMARKNA":"大湖火車站","LANDMARKAD":"1001213","ADDRESS":"高雄市路竹區甲南村天佑路24號","TEL":"07-6932127","COUNTYNAME":"高雄市","TOWNNAME":"路竹區","MARKTYPE":"993","Class":"301"}},{"type":"Feature","id":19737,"geometry":{"type":"Point","coordinates":[120.22385270397551,22.814655943408933]},"properties":{"OBJECTID":19737,"LANDMARKID":"1001200000584","LANDMARKCO":"204","LANDMARKNA":"高雄市立圖書館永安分館","LANDMARKAD":"1001216","ADDRESS":"高雄市永安區永華村永華路49號","TEL":" ","COUNTYNAME":"高雄市","TOWNNAME":"永安區","MARKTYPE":"992","Class":"2"}},{"type":"Feature","id":19738,"geometry":{"type":"Point","coordinates":[120.2405246327862,22.822881143172317]},"properties":{"OBJECTID":19738,"LANDMARKID":"1001200000470","LANDMARKCO":"203","LANDMARKNA":"縣立永安國中","LANDMARKAD":"1001216","ADDRESS":"高雄市永安區保興一路3號","TEL":"07-6912064","COUNTYNAME":"高雄市","TOWNNAME":"永安區","MARKTYPE":"992","Class":"2"}},{"type":"Feature","id":19739,"geometry":{"type":"Point","coordinates":[120.208983511561,22.821278288817197]},"properties":{"OBJECTID":19739,"LANDMARKID":"1001200000471","LANDMARKCO":"203","LANDMARKNA":"縣立新港國小","LANDMARKAD":"1001216","ADDRESS":"高雄市永安區新港村新興路25號","TEL":"07-6912040","COUNTYNAME":"高雄市","TOWNNAME":"永安區","MARKTYPE":"992","Class":"2"}},{"type":"Feature","id":19740,"geometry":{"type":"Point","coordinates":[120.22468829099797,22.814952681692901]},"properties":{"OBJECTID":19740,"LANDMARKID":"1001200000472","LANDMARKCO":"203","LANDMARKNA":"縣立永安國小","LANDMARKAD":"1001216","ADDRESS":"高雄市永安區永華村永華路49號","TEL":"07-6912011","COUNTYNAME":"高雄市","TOWNNAME":"永安區","MARKTYPE":"992","Class":"2"}},{"type":"Feature","id":19741,"geometry":{"type":"Point","coordinates":[120.24748402100232,22.803943764714873]},"properties":{"OBJECTID":19741,"LANDMARKID":"1001200000473","LANDMARKCO":"203","LANDMARKNA":"縣立維新國小","LANDMARKAD":"1001216","ADDRESS":"高雄市永安區維新路光明9巷69之10號","TEL":"07-6913816","COUNTYNAME":"高雄市","TOWNNAME":"永安區","MARKTYPE":"992","Class":"2"}},{"type":"Feature","id":19742,"geometry":{"type":"Point","coordinates":[120.20913649574373,22.834373761093655]},"properties":{"OBJECTID":19742,"LANDMARKID":"1001200000474","LANDMARKCO":"203","LANDMARKNA":"縣立新港國小鹽田分校","LANDMARKAD":"1001216","ADDRESS":"高雄市永安區","TEL":" ","COUNTYNAME":"高雄市","TOWNNAME":"永安區","MARKTYPE":"992","Class":"2"}},{"type":"Feature","id":19743,"geometry":{"type":"Point","coordinates":[120.23738794979988,22.835416725175239]},"properties":{"OBJECTID":19743,"LANDMARKID":"1001200000475","LANDMARKCO":"203","LANDMARKNA":"縣立保寧國小","LANDMARKAD":"1001216","ADDRESS":"高雄市永安區","TEL":" ","COUNTYNAME":"高雄市","TOWNNAME":"永安區","MARKTYPE":"992","Class":"2"}},{"type":"Feature","id":19744,"geometry":{"type":"Point","coordinates":[120.20268776416115,22.831103489457313]},"properties":{"OBJECTID":19744,"LANDMARKID":"1001200001493","LANDMARKCO":"605","LANDMARKNA":"永新漁港","LANDMARKAD":"1001216","ADDRESS":" ","TEL":" ","COUNTYNAME":"高雄市","TOWNNAME":"永安區","MARKTYPE":"996","Class":"6"}},{"type":"Feature","id":19745,"geometry":{"type":"Point","coordinates":[120.27636286469942,22.815050243028661]},"properties":{"OBJECTID":19745,"LANDMARKID":"1001200000912","LANDMARKCO":"405","LANDMARKNA":"中油加油站-北嶺站","LANDMARKAD":"1001208","ADDRESS":"高雄市岡山區岡山北路246號","TEL":"07-6210387","COUNTYNAME":"高雄市","TOWNNAME":"岡山區","MARKTYPE":"994","Class":"4"}},{"type":"Feature","id":19746,"geometry":{"type":"Point","coordinates":[120.30765654778509,22.785206180156486]},"properties":{"OBJECTID":19746,"LANDMARKID":"1001200000913","LANDMARKCO":"405","LANDMARKNA":"中油加油站-友情站","LANDMARKAD":"1001208","ADDRESS":"高雄市岡山區介壽東路83號","TEL":"07-6258611","COUNTYNAME":"高雄市","TOWNNAME":"岡山區","MARKTYPE":"994","Class":"4"}},{"type":"Feature","id":19747,"geometry":{"type":"Point","coordinates":[120.27260953852257,22.78205497298557]},"properties":{"OBJECTID":19747,"LANDMARKID":"1001200000914","LANDMARKCO":"405","LANDMARKNA":"中油加油站-筧橋站","LANDMARKAD":"1001208","ADDRESS":"高雄市岡山區介籌西路427-1號","TEL":"07-6269076","COUNTYNAME":"高雄市","TOWNNAME":"岡山區","MARKTYPE":"994","Class":"4"}},{"type":"Feature","id":19748,"geometry":{"type":"Point","coordinates":[120.26845915789009,22.771291274719697]},"properties":{"OBJECTID":19748,"LANDMARKID":"1001200000915","LANDMARKCO":"405","LANDMARKNA":"山隆加油站-軍校站(中油)","LANDMARKAD":"1001208","ADDRESS":"高雄市岡山區石潭路100號","TEL":"(07)625-3965","COUNTYNAME":"高雄市","TOWNNAME":"岡山區","MARKTYPE":"994","Class":"4"}},{"type":"Feature","id":19749,"geometry":{"type":"Point","coordinates":[120.29153299842542,22.811884823493578]},"properties":{"OBJECTID":19749,"LANDMARKID":"1001200000916","LANDMARKCO":"405","LANDMARKNA":"中油加油站-元鐘站","LANDMARKAD":"1001208","ADDRESS":"高雄市岡山區為隨西路16號","TEL":"07-6222818","COUNTYNAME":"高雄市","TOWNNAME":"岡山區","MARKTYPE":"994","Class":"4"}},{"type":"Feature","id":19750,"geometry":{"type":"Point","coordinates":[120.27860633087528,22.804234784909752]},"properties":{"OBJECTID":19750,"LANDMARKID":"1001200000917","LANDMARKCO":"405","LANDMARKNA":"亞柏加油站-岡山站(中油)","LANDMARKAD":"1001208","ADDRESS":"高雄市岡山區本洲路11號","TEL":"07-6219117","COUNTYNAME":"高雄市","TOWNNAME":"岡山區","MARKTYPE":"994","Class":"4"}},{"type":"Feature","id":19751,"geometry":{"type":"Point","coordinates":[120.27885459472131,22.812897908956153]},"properties":{"OBJECTID":19751,"LANDMARKID":"1001200000918","LANDMARKCO":"405","LANDMARKNA":"台糖加油站-岡北站(中油)","LANDMARKAD":"1001208","ADDRESS":"高雄市岡山北路158號","TEL":"07-6227718","COUNTYNAME":"高雄市","TOWNNAME":"岡山區","MARKTYPE":"994","Class":"4"}},{"type":"Feature","id":19752,"geometry":{"type":"Point","coordinates":[120.28947207423803,22.804076916334427]},"properties":{"OBJECTID":19752,"LANDMARKID":"1001200000919","LANDMARKCO":"405","LANDMARKNA":"中油加油站-岡山北路站","LANDMARKAD":"1001208","ADDRESS":"高雄市岡山區岡山路608號","TEL":"07-6210838","COUNTYNAME":"高雄市","TOWNNAME":"岡山區","MARKTYPE":"994","Class":"4"}},{"type":"Feature","id":19753,"geometry":{"type":"Point","coordinates":[120.27165846182106,22.818460183266584]},"properties":{"OBJECTID":19753,"LANDMARKID":"1001200000920","LANDMARKCO":"405","LANDMARKNA":"中油加油站-北岡山站","LANDMARKAD":"1001208","ADDRESS":"高雄市岡山區岡山北路271號","TEL":"07-6210387","COUNTYNAME":"高雄市","TOWNNAME":"岡山區","MARKTYPE":"994","Class":"4"}},{"type":"Feature","id":19754,"geometry":{"type":"Point","coordinates":[120.31480982303822,22.786746991178234]},"properties":{"OBJECTID":19754,"LANDMARKID":"1001200000921","LANDMARKCO":"405","LANDMARKNA":"統一速邁樂加油站-祥永站(中油)","LANDMARKAD":"1001208","ADDRESS":"高雄市介壽東路10號","TEL":"07-6262721","COUNTYNAME":"高雄市","TOWNNAME":"岡山區","MARKTYPE":"994","Class":"4"}},{"type":"Feature","id":19713,"geometry":{"type":"Point","coordinates":[120.26677745827905,22.853626686722166]},"properties":{"OBJECTID":19713,"LANDMARKID":"1001200000612","LANDMARKCO":"301","LANDMARKNA":"路竹火車站","LANDMARKAD":"1001213","ADDRESS":"高雄市路竹區竹南村中正路288號","TEL":"07-6072723","COUNTYNAME":"高雄市","TOWNNAME":"路竹區","MARKTYPE":"993","Class":"301"}},{"type":"Feature","id":19714,"geometry":{"type":"Point","coordinates":[120.26288286088692,22.855952281106603]},"properties":{"OBJECTID":19714,"LANDMARKID":"1001200000786","LANDMARKCO":"402","LANDMARKNA":"中華電信-路竹服務中心","LANDMARKAD":"1001213","ADDRESS":"高雄市路竹區中正路117號","TEL":"(07)644-8991","COUNTYNAME":"高雄市","TOWNNAME":"路竹區","MARKTYPE":"994","Class":"4"}},{"type":"Feature","id":19715,"geometry":{"type":"Point","coordinates":[120.2593658965403,22.860197874222106]},"properties":{"OBJECTID":19715,"LANDMARKID":"1001200000787","LANDMARKCO":"402","LANDMARKNA":"大眾電信-路竹長宏","LANDMARKAD":"1001213","ADDRESS":"高雄市路竹區中山路540號","TEL":"07-6076789","COUNTYNAME":"高雄市","TOWNNAME":"路竹區","MARKTYPE":"994","Class":"4"}},{"type":"Feature","id":19716,"geometry":{"type":"Point","coordinates":[120.26851357527435,22.821957554443603]},"properties":{"OBJECTID":19716,"LANDMARKID":"1001200001344","LANDMARKCO":"603","LANDMARKNA":"鳳園大旅社","LANDMARKAD":"1001213","ADDRESS":"高雄市路竹區北嶺村中山南路155號","TEL":"07-6964708","COUNTYNAME":"高雄市","TOWNNAME":"路竹區","MARKTYPE":"996","Class":"6"}},{"type":"Feature","id":19717,"geometry":{"type":"Point","coordinates":[120.26086383596216,22.855770837561394]},"properties":{"OBJECTID":19717,"LANDMARKID":"1001200001345","LANDMARKCO":"603","LANDMARKNA":"鴻賓大旅社","LANDMARKAD":"1001213","ADDRESS":"高雄市路竹區竹南村中山路742號","TEL":"07-6963116","COUNTYNAME":"高雄市","TOWNNAME":"路竹區","MARKTYPE":"996","Class":"6"}},{"type":"Feature","id":19718,"geometry":{"type":"Point","coordinates":[120.25886832438373,22.854563138471963]},"properties":{"OBJECTID":19718,"LANDMARKID":"1001200001491","LANDMARKCO":"605","LANDMARKNA":"衛生所","LANDMARKAD":"1001213","ADDRESS":"高雄市路竹區","TEL":" ","COUNTYNAME":"高雄市","TOWNNAME":"路竹區","MARKTYPE":"996","Class":"6"}},{"type":"Feature","id":19719,"geometry":{"type":"Point","coordinates":[120.27819959091363,22.84908027573341]},"properties":{"OBJECTID":19719,"LANDMARKID":"1001200001492","LANDMARKCO":"605","LANDMARKNA":"路竹區立托兒所","LANDMARKAD":"1001213","ADDRESS":"高雄市路竹區","TEL":" ","COUNTYNAME":"高雄市","TOWNNAME":"路竹區","MARKTYPE":"996","Class":"6"}},{"type":"Feature","id":19720,"geometry":{"type":"Point","coordinates":[120.2388466448418,22.822286139242891]},"properties":{"OBJECTID":19720,"LANDMARKID":"1001200000908","LANDMARKCO":"405","LANDMARKNA":"中油加油站-福記站","LANDMARKAD":"1001216","ADDRESS":"高雄市永安區保安路248號","TEL":"07-6910269","COUNTYNAME":"高雄市","TOWNNAME":"永安區","MARKTYPE":"994","Class":"4"}},{"type":"Feature","id":19721,"geometry":{"type":"Point","coordinates":[120.24273540856699,22.813221570625821]},"properties":{"OBJECTID":19721,"LANDMARKID":"1001200000909","LANDMARKCO":"405","LANDMARKNA":"中油加油站-永安站","LANDMARKAD":"1001216","ADDRESS":"高雄市永安區維新村保安路47號","TEL":"07-6912014","COUNTYNAME":"高雄市","TOWNNAME":"永安區","MARKTYPE":"994","Class":"4"}},{"type":"Feature","id":19722,"geometry":{"type":"Point","coordinates":[120.24439219830607,22.808659991163982]},"properties":{"OBJECTID":19722,"LANDMARKID":"1001200000910","LANDMARKCO":"405","LANDMARKNA":"中油加油站-樺興站","LANDMARKAD":"1001216","ADDRESS":"高雄市永安區維新村維新路18-13號","TEL":"07-6913355","COUNTYNAME":"高雄市","TOWNNAME":"永安區","MARKTYPE":"994","Class":"4"}},{"type":"Feature","id":19723,"geometry":{"type":"Point","coordinates":[120.25798167832644,22.808200360168474]},"properties":{"OBJECTID":19723,"LANDMARKID":"1001200000911","LANDMARKCO":"405","LANDMARKNA":"中油加油站-本洲站","LANDMARKAD":"1001216","ADDRESS":"高雄市永安區維新村維新路18-1號","TEL":"07-6233026","COUNTYNAME":"高雄市","TOWNNAME":"永安區","MARKTYPE":"994","Class":"4"}},{"type":"Feature","id":19724,"geometry":{"type":"Point","coordinates":[120.22655666224968,22.817080627480614]},"properties":{"OBJECTID":19724,"LANDMARKID":"1001200001076","LANDMARKCO":"408","LANDMARKNA":"郵局-永安郵局","LANDMARKAD":"1001216","ADDRESS":"高雄市永安區永華村永華路15號","TEL":"(07)6912-285","COUNTYNAME":"高雄市","TOWNNAME":"永安區","MARKTYPE":"994","Class":"4"}},{"type":"Feature","id":19725,"geometry":{"type":"Point","coordinates":[120.25189771913901,22.808750982454608]},"properties":{"OBJECTID":19725,"LANDMARKID":"1001200001077","LANDMARKCO":"408","LANDMARKNA":"郵局-永安竹仔港郵局","LANDMARKAD":"1001216","ADDRESS":"高雄市永安區永工二路1號(永安工業區內)","TEL":"(07)6214-448","COUNTYNAME":"高雄市","TOWNNAME":"永安區","MARKTYPE":"994","Class":"4"}},{"type":"Feature","id":19726,"geometry":{"type":"Point","coordinates":[120.22493463530643,22.818548877416529]},"properties":{"OBJECTID":19726,"LANDMARKID":"1001200001187","LANDMARKCO":"409","LANDMARKNA":"高雄市永安區農會","LANDMARKAD":"1001216","ADDRESS":"高雄市永安區永安村永安路34號","TEL":"07-6911851-3","COUNTYNAME":"高雄市","TOWNNAME":"永安區","MARKTYPE":"994","Class":"4"}},{"type":"Feature","id":19727,"geometry":{"type":"Point","coordinates":[120.23594983126124,22.829173555667339]},"properties":{"OBJECTID":19727,"LANDMARKID":"1001200001188","LANDMARKCO":"409","LANDMARKNA":"保寧農會","LANDMARKAD":"1001216","ADDRESS":"永安區保寧路240號","TEL":"691-3805","COUNTYNAME":"高雄市","TOWNNAME":"永安區","MARKTYPE":"994","Class":"4"}},{"type":"Feature","id":19728,"geometry":{"type":"Point","coordinates":[120.20770160301007,22.82089574988759]},"properties":{"OBJECTID":19728,"LANDMARKID":"1001200001189","LANDMARKCO":"409","LANDMARKNA":"永安漁會","LANDMARKAD":"1001216","ADDRESS":"高雄市永安區新港村新興路66-1號","TEL":"07-6912020","COUNTYNAME":"高雄市","TOWNNAME":"永安區","MARKTYPE":"994","Class":"4"}},{"type":"Feature","id":19729,"geometry":{"type":"Point","coordinates":[120.24654227697893,22.806959994057266]},"properties":{"OBJECTID":19729,"LANDMARKID":"1001200001190","LANDMARKCO":"409","LANDMARKNA":"永安農會-維新分部","LANDMARKAD":"1001216","ADDRESS":"高雄市永安區維新村光明九巷25~2號","TEL":"07-691-20","COUNTYNAME":"高雄市","TOWNNAME":"永安區","MARKTYPE":"994","Class":"4"}},{"type":"Feature","id":19730,"geometry":{"type":"Point","coordinates":[120.22480051142517,22.818475637193291]},"properties":{"OBJECTID":19730,"LANDMARKID":"1001200000075","LANDMARKCO":"103","LANDMARKNA":"高雄市永安區鄉民代表會","LANDMARKAD":"1001216","ADDRESS":"高雄市永安區永安路28號","TEL":"07-6910688","COUNTYNAME":"高雄市","TOWNNAME":"永安區","MARKTYPE":"991","Class":"1"}},{"type":"Feature","id":19731,"geometry":{"type":"Point","coordinates":[120.2251979108315,22.818646581144435]},"properties":{"OBJECTID":19731,"LANDMARKID":"1001200000289","LANDMARKCO":"108","LANDMARKNA":"高雄市永安區公所","LANDMARKAD":"1001216","ADDRESS":"高雄市永安區永安路32號","TEL":"07-6912716","COUNTYNAME":"高雄市","TOWNNAME":"永安區","MARKTYPE":"991","Class":"1"}},{"type":"Feature","id":19732,"geometry":{"type":"Point","coordinates":[120.2254511687152,22.818649043098535]},"properties":{"OBJECTID":19732,"LANDMARKID":"1001200000131","LANDMARKCO":"106","LANDMARKNA":"高雄市永安區戶政事務所","LANDMARKAD":"1001216","ADDRESS":"高雄市永安區永安村2鄰永安路24號","TEL":"07-6912265","COUNTYNAME":"高雄市","TOWNNAME":"永安區","MARKTYPE":"991","Class":"1"}},{"type":"Feature","id":19733,"geometry":{"type":"Point","coordinates":[120.22566444241215,22.818741422551717]},"properties":{"OBJECTID":19733,"LANDMARKID":"1001200000076","LANDMARKCO":"103","LANDMARKNA":"高雄市永安區衛生所","LANDMARKAD":"1001216","ADDRESS":"高雄市永安區永安路26號","TEL":"07-6912015","COUNTYNAME":"高雄市","TOWNNAME":"永安區","MARKTYPE":"991","Class":"1"}},{"type":"Feature","id":19734,"geometry":{"type":"Point","coordinates":[120.23781727314137,22.823681336058392]},"properties":{"OBJECTID":19734,"LANDMARKID":"1001200000194","LANDMARKCO":"107","LANDMARKNA":"高雄市消防局永安消防分隊","LANDMARKAD":"1001216","ADDRESS":"高雄市永安區永安村永安路7號","TEL":"07-6910073","COUNTYNAME":"高雄市","TOWNNAME":"永安區","MARKTYPE":"991","Class":"1"}},{"type":"Feature","id":19735,"geometry":{"type":"Point","coordinates":[120.25232522483978,22.808491408614106]},"properties":{"OBJECTID":19735,"LANDMARKID":"1001200000011","LANDMARKCO":"101","LANDMARKNA":"工業局永安工業區服務中心","LANDMARKAD":"1001216","ADDRESS":"高雄市永安區永工二路1號","TEL":"07-6212895","COUNTYNAME":"高雄市","TOWNNAME":"永安區","MARKTYPE":"991","Class":"1"}},{"type":"Feature","id":19736,"geometry":{"type":"Point","coordinates":[120.22587771640913,22.818833800823299]},"properties":{"OBJECTID":19736,"LANDMARKID":"1001200000202","LANDMARKCO":"107","LANDMARKNA":"高雄市政府警察局永安分駐所","LANDMARKAD":"1001216","ADDRESS":"高雄市永安區永安路22號","TEL":"07-6912044","COUNTYNAME":"高雄市","TOWNNAME":"永安區","MARKTYPE":"991","Class":"1"}},{"type":"Feature","id":19755,"geometry":{"type":"Point","coordinates":[120.2812076567612,22.801590990248446]},"properties":{"OBJECTID":19755,"LANDMARKID":"1001200000922","LANDMARKCO":"405","LANDMARKNA":"中油加油站-前峰站","LANDMARKAD":"1001208","ADDRESS":"高雄市岡山區前峰路238號","TEL":"07-6258122","COUNTYNAME":"高雄市","TOWNNAME":"岡山區","MARKTYPE":"994","Class":"4"}},{"type":"Feature","id":19780,"geometry":{"type":"Point","coordinates":[120.29574455196749,22.79628381120283]},"properties":{"OBJECTID":19780,"LANDMARKID":"1001200001192","LANDMARKCO":"409","LANDMARKNA":"岡山區農會","LANDMARKAD":"1001208","ADDRESS":"高雄市岡山區 岡山里岡山路434號","TEL":"07-621410","COUNTYNAME":"高雄市","TOWNNAME":"岡山區","MARKTYPE":"994","Class":"4"}},{"type":"Feature","id":19781,"geometry":{"type":"Point","coordinates":[120.29574455196749,22.79628381120283]},"properties":{"OBJECTID":19781,"LANDMARKID":"1001200001193","LANDMARKCO":"409","LANDMARKNA":"岡山農會-本部","LANDMARKAD":"1001208","ADDRESS":"高雄市岡山區岡山路434號","TEL":"07-621-41","COUNTYNAME":"高雄市","TOWNNAME":"岡山區","MARKTYPE":"994","Class":"4"}},{"type":"Feature","id":19782,"geometry":{"type":"Point","coordinates":[120.30447401324892,22.82180447850352]},"properties":{"OBJECTID":19782,"LANDMARKID":"1001200001194","LANDMARKCO":"409","LANDMARKNA":"岡山農會-嘉興分部","LANDMARKAD":"1001208","ADDRESS":"高雄市岡山區嘉興里嘉興路316號","TEL":"07-621-27","COUNTYNAME":"高雄市","TOWNNAME":"岡山區","MARKTYPE":"994","Class":"4"}},{"type":"Feature","id":19783,"geometry":{"type":"Point","coordinates":[120.28939650241975,22.793306327916238]},"properties":{"OBJECTID":19783,"LANDMARKID":"1001200001195","LANDMARKCO":"409","LANDMARKNA":"岡山農會-仁壽分部","LANDMARKAD":"1001208","ADDRESS":"高雄市岡山區仁壽里民族路9號","TEL":"07-626-37","COUNTYNAME":"高雄市","TOWNNAME":"岡山區","MARKTYPE":"994","Class":"4"}},{"type":"Feature","id":19784,"geometry":{"type":"Point","coordinates":[120.28308103443209,22.784283432586271]},"properties":{"OBJECTID":19784,"LANDMARKID":"1001200001196","LANDMARKCO":"409","LANDMARKNA":"岡山農會-協榮分部","LANDMARKAD":"1001208","ADDRESS":"高雄市岡山區協榮里介壽西路67號","TEL":"07-625-05","COUNTYNAME":"高雄市","TOWNNAME":"岡山區","MARKTYPE":"994","Class":"4"}},{"type":"Feature","id":19785,"geometry":{"type":"Point","coordinates":[120.2771564293792,22.815209343716656]},"properties":{"OBJECTID":19785,"LANDMARKID":"1001200000826","LANDMARKCO":"404","LANDMARKNA":"台灣省自來水大崗山給水廠","LANDMARKAD":"1001208","ADDRESS":"高雄市岡山區岡山北路222號","TEL":" ","COUNTYNAME":"高雄市","TOWNNAME":"岡山區","MARKTYPE":"994","Class":"4"}},{"type":"Feature","id":19786,"geometry":{"type":"Point","coordinates":[120.28542353390782,22.785127576031851]},"properties":{"OBJECTID":19786,"LANDMARKID":"1001200001025","LANDMARKCO":"406","LANDMARKNA":"陽明公園","LANDMARKAD":"1001208","ADDRESS":"高雄市岡山區","TEL":" ","COUNTYNAME":"高雄市","TOWNNAME":"岡山區","MARKTYPE":"994","Class":"4"}},{"type":"Feature","id":19787,"geometry":{"type":"Point","coordinates":[120.29183738610192,22.796932839487585]},"properties":{"OBJECTID":19787,"LANDMARKID":"1001200001026","LANDMARKCO":"406","LANDMARKNA":"中山公園","LANDMARKAD":"1001208","ADDRESS":"高雄市岡山區","TEL":" ","COUNTYNAME":"高雄市","TOWNNAME":"岡山區","MARKTYPE":"994","Class":"4"}},{"type":"Feature","id":19788,"geometry":{"type":"Point","coordinates":[120.29571861648341,22.797884038883939]},"properties":{"OBJECTID":19788,"LANDMARKID":"1001200000827","LANDMARKCO":"404","LANDMARKNA":"台灣省自來水岡山服務所","LANDMARKAD":"1001208","ADDRESS":"高雄市岡山區岡山路450號","TEL":" ","COUNTYNAME":"高雄市","TOWNNAME":"岡山區","MARKTYPE":"994","Class":"4"}},{"type":"Feature","id":19789,"geometry":{"type":"Point","coordinates":[120.30067722303856,22.783110831300192]},"properties":{"OBJECTID":19789,"LANDMARKID":"1001200001023","LANDMARKCO":"406","LANDMARKNA":"岡山公四環保公園","LANDMARKAD":"1001208","ADDRESS":"高雄市岡山區","TEL":" ","COUNTYNAME":"高雄市","TOWNNAME":"岡山區","MARKTYPE":"994","Class":"4"}},{"type":"Feature","id":19790,"geometry":{"type":"Point","coordinates":[120.30304539059628,22.797896540719105]},"properties":{"OBJECTID":19790,"LANDMARKID":"1001200001024","LANDMARKCO":"406","LANDMARKNA":"和平公園","LANDMARKAD":"1001208","ADDRESS":"高雄市岡山區","TEL":" ","COUNTYNAME":"高雄市","TOWNNAME":"岡山區","MARKTYPE":"994","Class":"4"}},{"type":"Feature","id":19791,"geometry":{"type":"Point","coordinates":[120.31617665829194,22.786551820833328]},"properties":{"OBJECTID":19791,"LANDMARKID":"1001200000902","LANDMARKCO":"405","LANDMARKNA":"台亞加油站-岡山交流道站（台塑）","LANDMARKAD":"1001208","ADDRESS":"高雄市岡山區介壽東路3號","TEL":"(07)625-5654","COUNTYNAME":"高雄市","TOWNNAME":"岡山區","MARKTYPE":"994","Class":"4"}},{"type":"Feature","id":19792,"geometry":{"type":"Point","coordinates":[120.31349302253125,22.789331148151913]},"properties":{"OBJECTID":19792,"LANDMARKID":"1001200000903","LANDMARKCO":"405","LANDMARKNA":"福懋加油站-岡山站(台塑)","LANDMARKAD":"1001208","ADDRESS":"高雄市岡山區岡燕路599號","TEL":"07-6210322","COUNTYNAME":"高雄市","TOWNNAME":"岡山區","MARKTYPE":"994","Class":"4"}},{"type":"Feature","id":19793,"geometry":{"type":"Point","coordinates":[120.29865505367547,22.808280391002668]},"properties":{"OBJECTID":19793,"LANDMARKID":"1001200000904","LANDMARKCO":"405","LANDMARKNA":"台亞加油站-台上站（台塑）","LANDMARKAD":"1001208","ADDRESS":"高雄市岡山區成功路269號","TEL":"(07)621-4518","COUNTYNAME":"高雄市","TOWNNAME":"岡山區","MARKTYPE":"994","Class":"4"}},{"type":"Feature","id":19794,"geometry":{"type":"Point","coordinates":[120.31076020191492,22.79024158555422]},"properties":{"OBJECTID":19794,"LANDMARKID":"1001200000905","LANDMARKCO":"405","LANDMARKNA":"台亞加油站-程香站（台塑）","LANDMARKAD":"1001208","ADDRESS":"高雄市岡山區岡燕路500號","TEL":"(07)622-0129","COUNTYNAME":"高雄市","TOWNNAME":"岡山區","MARKTYPE":"994","Class":"4"}},{"type":"Feature","id":19795,"geometry":{"type":"Point","coordinates":[120.31150501377854,22.78592078134151]},"properties":{"OBJECTID":19795,"LANDMARKID":"1001200000906","LANDMARKCO":"405","LANDMARKNA":"台亞加油站-岡山介壽一站（台塑）","LANDMARKAD":"1001208","ADDRESS":"高雄市岡山區介壽東路157號","TEL":"(07)625-6375","COUNTYNAME":"高雄市","TOWNNAME":"岡山區","MARKTYPE":"994","Class":"4"}},{"type":"Feature","id":19796,"geometry":{"type":"Point","coordinates":[120.29454989361444,22.79693382581906]},"properties":{"OBJECTID":19796,"LANDMARKID":"1001200000130","LANDMARKCO":"106","LANDMARKNA":"高雄市岡山區戶政事務所","LANDMARKAD":"1001208","ADDRESS":"高雄市岡山區岡山里28鄰岡山路345巷1號","TEL":"07-6217389","COUNTYNAME":"高雄市","TOWNNAME":"岡山區","MARKTYPE":"991","Class":"1"}},{"type":"Feature","id":19756,"geometry":{"type":"Point","coordinates":[120.31470525363443,22.786688618447236]},"properties":{"OBJECTID":19756,"LANDMARKID":"1001200000923","LANDMARKCO":"405","LANDMARKNA":"統一速邁樂加油站-岡山加油站(中油)","LANDMARKAD":"1001208","ADDRESS":"高雄市岡山區介壽東路10號","TEL":" ","COUNTYNAME":"高雄市","TOWNNAME":"岡山區","MARKTYPE":"994","Class":"4"}},{"type":"Feature","id":19757,"geometry":{"type":"Point","coordinates":[120.2813045782099,22.787507632240739]},"properties":{"OBJECTID":19757,"LANDMARKID":"1001200000924","LANDMARKCO":"405","LANDMARKNA":"中油加油站-柳橋站","LANDMARKAD":"1001208","ADDRESS":"高雄市岡山區後協里通校路167號","TEL":"07-6261710","COUNTYNAME":"高雄市","TOWNNAME":"岡山區","MARKTYPE":"994","Class":"4"}},{"type":"Feature","id":19758,"geometry":{"type":"Point","coordinates":[120.30060233825083,22.811436692777601]},"properties":{"OBJECTID":19758,"LANDMARKID":"1001200000925","LANDMARKCO":"405","LANDMARKNA":"統一速邁樂加油站-佳興加油站(中油)","LANDMARKAD":"1001208","ADDRESS":"高雄市岡山區成功路462號","TEL":" ","COUNTYNAME":"高雄市","TOWNNAME":"岡山區","MARKTYPE":"994","Class":"4"}},{"type":"Feature","id":19759,"geometry":{"type":"Point","coordinates":[120.29767476815593,22.782359042141564]},"properties":{"OBJECTID":19759,"LANDMARKID":"1001200000926","LANDMARKCO":"405","LANDMARKNA":"中油加油站-岡山站","LANDMARKAD":"1001208","ADDRESS":"高雄市岡山區岡山南路45號","TEL":"07-6252450","COUNTYNAME":"高雄市","TOWNNAME":"岡山區","MARKTYPE":"994","Class":"4"}},{"type":"Feature","id":19760,"geometry":{"type":"Point","coordinates":[120.29506472263161,22.791082775784751]},"properties":{"OBJECTID":19760,"LANDMARKID":"1001200000788","LANDMARKCO":"402","LANDMARKNA":"My Phone台灣大哥大-岡山柳橋東直營服務中心","LANDMARKAD":"1001208","ADDRESS":"高雄市岡山區柳橋東路32-5號","TEL":"0809-000-166","COUNTYNAME":"高雄市","TOWNNAME":"岡山區","MARKTYPE":"994","Class":"4"}},{"type":"Feature","id":19761,"geometry":{"type":"Point","coordinates":[120.29599995280711,22.793428906514031]},"properties":{"OBJECTID":19761,"LANDMARKID":"1001200000789","LANDMARKCO":"402","LANDMARKNA":"亞太行動寬頻電信-岡山岡山加盟服務中心","LANDMARKAD":"1001208","ADDRESS":"高雄市岡山區岡山路300號","TEL":"07-6231789","COUNTYNAME":"高雄市","TOWNNAME":"岡山區","MARKTYPE":"994","Class":"4"}},{"type":"Feature","id":19762,"geometry":{"type":"Point","coordinates":[120.29138037833978,22.795145122944035]},"properties":{"OBJECTID":19762,"LANDMARKID":"1001200000790","LANDMARKCO":"402","LANDMARKNA":"亞太行動寬頻電信-岡山壽天加盟服務中心","LANDMARKAD":"1001208","ADDRESS":"高雄市岡山區壽天路105號","TEL":"07-6225081","COUNTYNAME":"高雄市","TOWNNAME":"岡山區","MARKTYPE":"994","Class":"4"}},{"type":"Feature","id":19763,"geometry":{"type":"Point","coordinates":[120.29671244678572,22.788212857069716]},"properties":{"OBJECTID":19763,"LANDMARKID":"1001200000751","LANDMARKCO":"401","LANDMARKNA":"佛心中醫醫院","LANDMARKAD":"1001208","ADDRESS":"高雄市岡山區岡山路98號","TEL":"07-6226767","COUNTYNAME":"高雄市","TOWNNAME":"岡山區","MARKTYPE":"994","Class":"4"}},{"type":"Feature","id":19764,"geometry":{"type":"Point","coordinates":[120.29664229201204,22.788192687001061]},"properties":{"OBJECTID":19764,"LANDMARKID":"1001200000752","LANDMARKCO":"401","LANDMARKNA":"惠川醫院","LANDMARKAD":"1001208","ADDRESS":"高雄市岡山區岡山路92號","TEL":"07-6229292","COUNTYNAME":"高雄市","TOWNNAME":"岡山區","MARKTYPE":"994","Class":"4"}},{"type":"Feature","id":19765,"geometry":{"type":"Point","coordinates":[120.29556361317243,22.797303920378035]},"properties":{"OBJECTID":19765,"LANDMARKID":"1001200000753","LANDMARKCO":"401","LANDMARKNA":"劉嘉修醫院","LANDMARKAD":"1001208","ADDRESS":"高雄市岡山區岡山路428號","TEL":"07-6222836","COUNTYNAME":"高雄市","TOWNNAME":"岡山區","MARKTYPE":"994","Class":"4"}},{"type":"Feature","id":19766,"geometry":{"type":"Point","coordinates":[120.28505549331801,22.790216197976282]},"properties":{"OBJECTID":19766,"LANDMARKID":"1001200000754","LANDMARKCO":"401","LANDMARKNA":"國軍岡山醫院附設民眾診療服務","LANDMARKAD":"1001208","ADDRESS":"高雄市岡山區大義二路1號","TEL":"07-6252281","COUNTYNAME":"高雄市","TOWNNAME":"岡山區","MARKTYPE":"994","Class":"4"}},{"type":"Feature","id":19767,"geometry":{"type":"Point","coordinates":[120.29429058469044,22.79658258563812]},"properties":{"OBJECTID":19767,"LANDMARKID":"1001200000755","LANDMARKCO":"401","LANDMARKNA":"高雄市立岡山醫院","LANDMARKAD":"1001208","ADDRESS":"高雄市岡山區壽天路12號","TEL":" ","COUNTYNAME":"高雄市","TOWNNAME":"岡山區","MARKTYPE":"994","Class":"4"}},{"type":"Feature","id":19768,"geometry":{"type":"Point","coordinates":[120.29425162794531,22.796582240768469]},"properties":{"OBJECTID":19768,"LANDMARKID":"1001200000756","LANDMARKCO":"401","LANDMARKNA":"高雄市立岡山醫院","LANDMARKAD":"1001208","ADDRESS":"高雄市岡山區壽天路12號","TEL":"07-6222131","COUNTYNAME":"高雄市","TOWNNAME":"岡山區","MARKTYPE":"994","Class":"4"}},{"type":"Feature","id":19769,"geometry":{"type":"Point","coordinates":[120.28165346548799,22.789565984995637]},"properties":{"OBJECTID":19769,"LANDMARKID":"1001200000757","LANDMARKCO":"401","LANDMARKNA":"樂安醫院","LANDMARKAD":"1001208","ADDRESS":"高雄市岡山區通校路300號","TEL":"07-6256791","COUNTYNAME":"高雄市","TOWNNAME":"岡山區","MARKTYPE":"994","Class":"4"}},{"type":"Feature","id":19770,"geometry":{"type":"Point","coordinates":[120.29593485692364,22.794417503042059]},"properties":{"OBJECTID":19770,"LANDMARKID":"1001200000758","LANDMARKCO":"401","LANDMARKNA":"劉光雄醫院","LANDMARKAD":"1001208","ADDRESS":"高雄市岡山區岡山路380-1號","TEL":"07-6219156","COUNTYNAME":"高雄市","TOWNNAME":"岡山區","MARKTYPE":"994","Class":"4"}},{"type":"Feature","id":19771,"geometry":{"type":"Point","coordinates":[120.2965921191991,22.789450549481547]},"properties":{"OBJECTID":19771,"LANDMARKID":"1001200001068","LANDMARKCO":"408","LANDMARKNA":"郵局-岡山郵局","LANDMARKAD":"1001208","ADDRESS":"高雄市岡山區民有路68號","TEL":"(07)6212-462","COUNTYNAME":"高雄市","TOWNNAME":"岡山區","MARKTYPE":"994","Class":"4"}},{"type":"Feature","id":19772,"geometry":{"type":"Point","coordinates":[120.28107107766668,22.784463389154432]},"properties":{"OBJECTID":19772,"LANDMARKID":"1001200001069","LANDMARKCO":"408","LANDMARKNA":"郵局-空軍通校郵局","LANDMARKAD":"1001208","ADDRESS":"高雄市岡山區介壽西路198號〈空軍航空技術學院內〉　","TEL":"(07)6251-614","COUNTYNAME":"高雄市","TOWNNAME":"岡山區","MARKTYPE":"994","Class":"4"}},{"type":"Feature","id":19773,"geometry":{"type":"Point","coordinates":[120.28461087665731,22.784315798801934]},"properties":{"OBJECTID":19773,"LANDMARKID":"1001200001070","LANDMARKCO":"408","LANDMARKNA":"郵局-空軍官校郵局","LANDMARKAD":"1001208","ADDRESS":"高雄市岡山區介壽西路首1號(空軍官校內)","TEL":"(07)6251-615","COUNTYNAME":"高雄市","TOWNNAME":"岡山區","MARKTYPE":"994","Class":"4"}},{"type":"Feature","id":19774,"geometry":{"type":"Point","coordinates":[120.2784939787141,22.797226306374224]},"properties":{"OBJECTID":19774,"LANDMARKID":"1001200001071","LANDMARKCO":"408","LANDMARKNA":"郵局-空軍機校郵局","LANDMARKAD":"1001208","ADDRESS":"高雄市岡山區巨輪路1號〈空軍航空技術學院內〉","TEL":"(07)6258-391","COUNTYNAME":"高雄市","TOWNNAME":"岡山區","MARKTYPE":"994","Class":"4"}},{"type":"Feature","id":19775,"geometry":{"type":"Point","coordinates":[120.2951200673711,22.794377052585084]},"properties":{"OBJECTID":19775,"LANDMARKID":"1001200001072","LANDMARKCO":"408","LANDMARKNA":"郵局-岡山平和路郵局","LANDMARKAD":"1001208","ADDRESS":"高雄市岡山區平和路65號","TEL":"(07)6212-584","COUNTYNAME":"高雄市","TOWNNAME":"岡山區","MARKTYPE":"994","Class":"4"}},{"type":"Feature","id":19776,"geometry":{"type":"Point","coordinates":[120.28578078773231,22.78587104006148]},"properties":{"OBJECTID":19776,"LANDMARKID":"1001200001073","LANDMARKCO":"408","LANDMARKNA":"郵局-岡山仁壽路郵局","LANDMARKAD":"1001208","ADDRESS":"高雄市岡山區仁壽路215號","TEL":"(07)6254-554","COUNTYNAME":"高雄市","TOWNNAME":"岡山區","MARKTYPE":"994","Class":"4"}},{"type":"Feature","id":19777,"geometry":{"type":"Point","coordinates":[120.30434855510873,22.82209093094248]},"properties":{"OBJECTID":19777,"LANDMARKID":"1001200001074","LANDMARKCO":"408","LANDMARKNA":"郵局-岡山五甲尾郵局","LANDMARKAD":"1001208","ADDRESS":"高雄市岡山區嘉興路255號","TEL":"(07)6227-841","COUNTYNAME":"高雄市","TOWNNAME":"岡山區","MARKTYPE":"994","Class":"4"}},{"type":"Feature","id":19778,"geometry":{"type":"Point","coordinates":[120.30152742229748,22.805668763969646]},"properties":{"OBJECTID":19778,"LANDMARKID":"1001200001075","LANDMARKCO":"408","LANDMARKNA":"郵局-岡山大仁郵局","LANDMARKAD":"1001208","ADDRESS":"高雄市岡山區大仁路89號","TEL":"(07)6243-043","COUNTYNAME":"高雄市","TOWNNAME":"岡山區","MARKTYPE":"994","Class":"4"}},{"type":"Feature","id":19779,"geometry":{"type":"Point","coordinates":[120.29306492166991,22.801760270435306]},"properties":{"OBJECTID":19779,"LANDMARKID":"1001200001191","LANDMARKCO":"409","LANDMARKNA":"岡山魚市場","LANDMARKAD":"1001208","ADDRESS":"岡山區嘉新西路123號","TEL":"07-6212174　","COUNTYNAME":"高雄市","TOWNNAME":"岡山區","MARKTYPE":"994","Class":"4"}},{"type":"Feature","id":19797,"geometry":{"type":"Point","coordinates":[120.28760525344066,22.790407202749304]},"properties":{"OBJECTID":19797,"LANDMARKID":"1001200000012","LANDMARKCO":"101","LANDMARKNA":"水利署第六河川局","LANDMARKAD":"1001208","ADDRESS":"高雄市岡山區柳橋西路15號","TEL":"07-6279018","COUNTYNAME":"高雄市","TOWNNAME":"岡山區","MARKTYPE":"991","Class":"1"}},{"type":"Feature","id":19798,"geometry":{"type":"Point","coordinates":[120.28766569545927,22.79347811355963]},"properties":{"OBJECTID":19798,"LANDMARKID":"1001200000201","LANDMARKCO":"107","LANDMARKNA":"高雄市政府警察局前峰派出所","LANDMARKAD":"1001208","ADDRESS":"高雄市岡山區中華路53號","TEL":"07-6265134","COUNTYNAME":"高雄市","TOWNNAME":"岡山區","MARKTYPE":"991","Class":"1"}},{"type":"Feature","id":19799,"geometry":{"type":"Point","coordinates":[120.29104767131345,22.797920752943963]},"properties":{"OBJECTID":19799,"LANDMARKID":"1001200000073","LANDMARKCO":"103","LANDMARKNA":"高雄市岡山區鎮民代表會","LANDMARKAD":"1001208","ADDRESS":"高雄市岡山區公園路2號","TEL":"07-6212410","COUNTYNAME":"高雄市","TOWNNAME":"岡山區","MARKTYPE":"991","Class":"1"}},{"type":"Feature","id":19800,"geometry":{"type":"Point","coordinates":[120.29114172958717,22.799185885991534]},"properties":{"OBJECTID":19800,"LANDMARKID":"1001200000074","LANDMARKCO":"103","LANDMARKNA":"高雄市身心障礙福利服務中心","LANDMARKAD":"1001208","ADDRESS":"高雄市岡山區公園東路131號","TEL":"07-6226730","COUNTYNAME":"高雄市","TOWNNAME":"岡山區","MARKTYPE":"991","Class":"1"}}]}