{"type":"FeatureCollection","features":[{"type":"Feature","id":25401,"geometry":{"type":"Point","coordinates":[120.92838832749611,24.850635297173291]},"properties":{"OBJECTID":25401,"LANDMARKID":"1001800000334","LANDMARKCO":"406","LANDMARKNA":"風力活動公園","LANDMARKAD":"1001802","ADDRESS":"新竹市北區","TEL":" ","COUNTYNAME":"新竹市","TOWNNAME":"北區","MARKTYPE":"994","Class":"4"}},{"type":"Feature","id":25402,"geometry":{"type":"Point","coordinates":[120.9577973194075,24.799536282032189]},"properties":{"OBJECTID":25402,"LANDMARKID":"1001800000335","LANDMARKCO":"406","LANDMARKNA":"獅子公園","LANDMARKAD":"1001802","ADDRESS":"新竹市北區","TEL":" ","COUNTYNAME":"新竹市","TOWNNAME":"北區","MARKTYPE":"994","Class":"4"}},{"type":"Feature","id":25403,"geometry":{"type":"Point","coordinates":[120.95986616283932,24.796600417109818]},"properties":{"OBJECTID":25403,"LANDMARKID":"1001800000336","LANDMARKCO":"406","LANDMARKNA":"曲溪公園","LANDMARKAD":"1001802","ADDRESS":"新竹市北區","TEL":" ","COUNTYNAME":"新竹市","TOWNNAME":"北區","MARKTYPE":"994","Class":"4"}},{"type":"Feature","id":25404,"geometry":{"type":"Point","coordinates":[120.96089638997097,24.810000145088996]},"properties":{"OBJECTID":25404,"LANDMARKID":"1001800000337","LANDMARKCO":"406","LANDMARKNA":"經國花園","LANDMARKAD":"1001802","ADDRESS":"新竹市北區","TEL":" ","COUNTYNAME":"新竹市","TOWNNAME":"北區","MARKTYPE":"994","Class":"4"}},{"type":"Feature","id":25405,"geometry":{"type":"Point","coordinates":[120.96826218898765,24.81994985158175]},"properties":{"OBJECTID":25405,"LANDMARKID":"1001800000338","LANDMARKCO":"406","LANDMARKNA":"湳雅公園","LANDMARKAD":"1001802","ADDRESS":"新竹市北區","TEL":" ","COUNTYNAME":"新竹市","TOWNNAME":"北區","MARKTYPE":"994","Class":"4"}},{"type":"Feature","id":25406,"geometry":{"type":"Point","coordinates":[120.96370672562426,24.811641028585996]},"properties":{"OBJECTID":25406,"LANDMARKID":"1001800000320","LANDMARKCO":"405","LANDMARKNA":"全國加油站-經國站（台塑）","LANDMARKAD":"1001802","ADDRESS":"新竹市經國路二段126號","TEL":"03-5348440","COUNTYNAME":"新竹市","TOWNNAME":"北區","MARKTYPE":"994","Class":"4"}},{"type":"Feature","id":25407,"geometry":{"type":"Point","coordinates":[120.96017357857397,24.801349689358435]},"properties":{"OBJECTID":25407,"LANDMARKID":"1001800000321","LANDMARKCO":"405","LANDMARKNA":"台亞加油站-中山站（台塑）","LANDMARKAD":"1001802","ADDRESS":"新竹市中山路332號","TEL":"(03)526-2399","COUNTYNAME":"新竹市","TOWNNAME":"北區","MARKTYPE":"994","Class":"4"}},{"type":"Feature","id":25408,"geometry":{"type":"Point","coordinates":[120.9608897467615,24.809460906815968]},"properties":{"OBJECTID":25408,"LANDMARKID":"1001800000322","LANDMARKCO":"405","LANDMARKNA":"台亞加油站-經國路二站（台塑）","LANDMARKAD":"1001802","ADDRESS":"新竹市經國路二段293號","TEL":"(03)535-0672","COUNTYNAME":"新竹市","TOWNNAME":"北區","MARKTYPE":"994","Class":"4"}},{"type":"Feature","id":25409,"geometry":{"type":"Point","coordinates":[120.97394285927849,24.820353131811792]},"properties":{"OBJECTID":25409,"LANDMARKID":"1001800000083","LANDMARKCO":"107","LANDMARKNA":"新竹市警察局湳雅派出所","LANDMARKAD":"1001802","ADDRESS":"新竹市湳雅街168之1號","TEL":"035-356710","COUNTYNAME":"新竹市","TOWNNAME":"北區","MARKTYPE":"991","Class":"1"}},{"type":"Feature","id":25410,"geometry":{"type":"Point","coordinates":[120.96876253000833,24.806628798664072]},"properties":{"OBJECTID":25410,"LANDMARKID":"1001800000041","LANDMARKCO":"103","LANDMARKNA":"新竹市選舉委員會","LANDMARKAD":"1001802","ADDRESS":"新竹市西濱路一段440號","TEL":"03-5367228","COUNTYNAME":"新竹市","TOWNNAME":"北區","MARKTYPE":"991","Class":"1"}},{"type":"Feature","id":25411,"geometry":{"type":"Point","coordinates":[120.95873520067038,24.791092580771302]},"properties":{"OBJECTID":25411,"LANDMARKID":"1001800000042","LANDMARKCO":"103","LANDMARKNA":"新竹市立火化場(羽化館)","LANDMARKAD":"1001802","ADDRESS":"新竹市成德路138之1號","TEL":" ","COUNTYNAME":"新竹市","TOWNNAME":"北區","MARKTYPE":"991","Class":"1"}},{"type":"Feature","id":25412,"geometry":{"type":"Point","coordinates":[120.9680099614779,24.807632101605147]},"properties":{"OBJECTID":25412,"LANDMARKID":"1001800000043","LANDMARKCO":"103","LANDMARKNA":"新竹巿政府衛生局","LANDMARKAD":"1001802","ADDRESS":"新竹市中正路128號","TEL":"03-5226133","COUNTYNAME":"新竹市","TOWNNAME":"北區","MARKTYPE":"991","Class":"1"}},{"type":"Feature","id":25413,"geometry":{"type":"Point","coordinates":[120.97029988647411,24.816367813849091]},"properties":{"OBJECTID":25413,"LANDMARKID":"1001800000044","LANDMARKCO":"103","LANDMARKNA":"新竹市北區衛生所","LANDMARKAD":"1001802","ADDRESS":"新竹市國華街69號1樓","TEL":"03-5353969","COUNTYNAME":"新竹市","TOWNNAME":"北區","MARKTYPE":"991","Class":"1"}},{"type":"Feature","id":25414,"geometry":{"type":"Point","coordinates":[120.97029988647411,24.816367813849091]},"properties":{"OBJECTID":25414,"LANDMARKID":"1001800000085","LANDMARKCO":"108","LANDMARKNA":"新竹市北區區公所","LANDMARKAD":"1001802","ADDRESS":"新竹市國華街69號3樓","TEL":"03-5152525","COUNTYNAME":"新竹市","TOWNNAME":"北區","MARKTYPE":"991","Class":"1"}},{"type":"Feature","id":25415,"geometry":{"type":"Point","coordinates":[120.96878206877327,24.811276285817353]},"properties":{"OBJECTID":25415,"LANDMARKID":"1001800000040","LANDMARKCO":"103","LANDMARKNA":"新竹市政府文化局","LANDMARKAD":"1001802","ADDRESS":"新竹市東大路二段15巷1號","TEL":"035-319756","COUNTYNAME":"新竹市","TOWNNAME":"北區","MARKTYPE":"991","Class":"1"}},{"type":"Feature","id":25416,"geometry":{"type":"Point","coordinates":[120.95760792195324,24.810524752434947]},"properties":{"OBJECTID":25416,"LANDMARKID":"1001800000073","LANDMARKCO":"107","LANDMARKNA":"新竹市消防局","LANDMARKAD":"1001802","ADDRESS":"新竹市西大路679號","TEL":"035-229508","COUNTYNAME":"新竹市","TOWNNAME":"北區","MARKTYPE":"991","Class":"1"}},{"type":"Feature","id":25417,"geometry":{"type":"Point","coordinates":[120.95760792195324,24.810524752434947]},"properties":{"OBJECTID":25417,"LANDMARKID":"1001800000074","LANDMARKCO":"107","LANDMARKNA":"嘉義縣消防局消防局第一消防大隊","LANDMARKAD":"1001802","ADDRESS":"新竹市西大路679號5樓","TEL":"035-278943","COUNTYNAME":"新竹市","TOWNNAME":"北區","MARKTYPE":"991","Class":"1"}},{"type":"Feature","id":25418,"geometry":{"type":"Point","coordinates":[120.96807311399039,24.806388436875149]},"properties":{"OBJECTID":25418,"LANDMARKID":"1001800000075","LANDMARKCO":"107","LANDMARKNA":"嘉義縣消防局消防局中山消防分隊","LANDMARKAD":"1001802","ADDRESS":"新竹市中山路4號","TEL":"035-222050","COUNTYNAME":"新竹市","TOWNNAME":"北區","MARKTYPE":"991","Class":"1"}},{"type":"Feature","id":25419,"geometry":{"type":"Point","coordinates":[120.93750932424992,24.840365229360359]},"properties":{"OBJECTID":25419,"LANDMARKID":"1001800000076","LANDMARKCO":"107","LANDMARKNA":"嘉義縣消防局消防局南寮消防分隊","LANDMARKAD":"1001802","ADDRESS":"新竹市東大路三段539號","TEL":"035-361157","COUNTYNAME":"新竹市","TOWNNAME":"北區","MARKTYPE":"991","Class":"1"}},{"type":"Feature","id":25420,"geometry":{"type":"Point","coordinates":[120.95760792195324,24.810524752434947]},"properties":{"OBJECTID":25420,"LANDMARKID":"1001800000077","LANDMARKCO":"107","LANDMARKNA":"嘉義縣消防局消防局竹光消防分隊","LANDMARKAD":"1001802","ADDRESS":"新竹市西大路679號","TEL":"035-265248","COUNTYNAME":"新竹市","TOWNNAME":"北區","MARKTYPE":"991","Class":"1"}},{"type":"Feature","id":25421,"geometry":{"type":"Point","coordinates":[120.96854623164616,24.80637419151963]},"properties":{"OBJECTID":25421,"LANDMARKID":"1001800000078","LANDMARKCO":"107","LANDMARKNA":"新竹市警察局總局","LANDMARKAD":"1001802","ADDRESS":"新竹市大同里中山路1號","TEL":"03-5224168","COUNTYNAME":"新竹市","TOWNNAME":"北區","MARKTYPE":"991","Class":"1"}},{"type":"Feature","id":25422,"geometry":{"type":"Point","coordinates":[120.96505855382922,24.808026608503756]},"properties":{"OBJECTID":25422,"LANDMARKID":"1001800000079","LANDMARKCO":"107","LANDMARKNA":"新竹市警察局第一分局","LANDMARKAD":"1001802","ADDRESS":"新竹市新民里北大路218號","TEL":"035-222725","COUNTYNAME":"新竹市","TOWNNAME":"北區","MARKTYPE":"991","Class":"1"}},{"type":"Feature","id":25423,"geometry":{"type":"Point","coordinates":[120.95915761905343,24.821923336997603]},"properties":{"OBJECTID":25423,"LANDMARKID":"1001800000080","LANDMARKCO":"107","LANDMARKNA":"新竹市警察局樹林頭派出所","LANDMARKAD":"1001802","ADDRESS":"新竹市東大路二段561號","TEL":"035-316613","COUNTYNAME":"新竹市","TOWNNAME":"北區","MARKTYPE":"991","Class":"1"}},{"type":"Feature","id":25424,"geometry":{"type":"Point","coordinates":[120.96505855382922,24.808026608503756]},"properties":{"OBJECTID":25424,"LANDMARKID":"1001800000081","LANDMARKCO":"107","LANDMARKNA":"新竹市警察局北門派出所","LANDMARKAD":"1001802","ADDRESS":"新竹市北大路218號","TEL":"035-222223","COUNTYNAME":"新竹市","TOWNNAME":"北區","MARKTYPE":"991","Class":"1"}},{"type":"Feature","id":25425,"geometry":{"type":"Point","coordinates":[120.96121022527284,24.801974609552584]},"properties":{"OBJECTID":25425,"LANDMARKID":"1001800000082","LANDMARKCO":"107","LANDMARKNA":"新竹市警察局西門派出所","LANDMARKAD":"1001802","ADDRESS":"新竹市中山路300號","TEL":"035-222452","COUNTYNAME":"新竹市","TOWNNAME":"北區","MARKTYPE":"991","Class":"1"}},{"type":"Feature","id":25426,"geometry":{"type":"Point","coordinates":[120.96883469126817,24.806723087810539]},"properties":{"OBJECTID":25426,"LANDMARKID":"1001800000045","LANDMARKCO":"103","LANDMARKNA":"新竹市政府民政局","LANDMARKAD":"1001802","ADDRESS":"新竹市中正路120號","TEL":"03-5240626","COUNTYNAME":"新竹市","TOWNNAME":"北區","MARKTYPE":"991","Class":"1"}},{"type":"Feature","id":25427,"geometry":{"type":"Point","coordinates":[120.97029988647411,24.816367813849091]},"properties":{"OBJECTID":25427,"LANDMARKID":"1001800000051","LANDMARKCO":"106","LANDMARKNA":"新竹市北區戶政事務所","LANDMARKAD":"1001802","ADDRESS":"新竹市國華街69號2樓","TEL":"03-5152020","COUNTYNAME":"新竹市","TOWNNAME":"北區","MARKTYPE":"991","Class":"1"}},{"type":"Feature","id":25428,"geometry":{"type":"Point","coordinates":[120.96883469126817,24.806723087810539]},"properties":{"OBJECTID":25428,"LANDMARKID":"1001800000049","LANDMARKCO":"105","LANDMARKNA":"新竹市政府地政局","LANDMARKAD":"1001802","ADDRESS":"新竹市中正路120號","TEL":"035-216121#0","COUNTYNAME":"新竹市","TOWNNAME":"北區","MARKTYPE":"991","Class":"1"}},{"type":"Feature","id":25429,"geometry":{"type":"Point","coordinates":[120.9754596632134,24.816779454308897]},"properties":{"OBJECTID":25429,"LANDMARKID":"1001800000050","LANDMARKCO":"105","LANDMARKNA":"新竹市新竹地政事務所","LANDMARKAD":"1001802","ADDRESS":"新竹市光華東街60號","TEL":"035-325121","COUNTYNAME":"新竹市","TOWNNAME":"北區","MARKTYPE":"991","Class":"1"}},{"type":"Feature","id":25430,"geometry":{"type":"Point","coordinates":[120.96883469126817,24.806723087810539]},"properties":{"OBJECTID":25430,"LANDMARKID":"1001800000039","LANDMARKCO":"103","LANDMARKNA":"新竹巿政府","LANDMARKAD":"1001802","ADDRESS":"新竹市中正路120號","TEL":"035-216121","COUNTYNAME":"新竹市","TOWNNAME":"北區","MARKTYPE":"991","Class":"1"}},{"type":"Feature","id":25431,"geometry":{"type":"Point","coordinates":[120.96761738093289,24.808163537987284]},"properties":{"OBJECTID":25431,"LANDMARKID":"1001800000001","LANDMARKCO":"101","LANDMARKNA":"台灣新竹地方法院","LANDMARKAD":"1001802","ADDRESS":"新竹市中正路136號","TEL":"035-210022","COUNTYNAME":"新竹市","TOWNNAME":"北區","MARKTYPE":"991","Class":"1"}},{"type":"Feature","id":25432,"geometry":{"type":"Point","coordinates":[120.95895160480451,24.804048206849778]},"properties":{"OBJECTID":25432,"LANDMARKID":"1001800000002","LANDMARKCO":"101","LANDMARKNA":"台灣新竹監獄","LANDMARKAD":"1001802","ADDRESS":"新竹市延平路一段108號","TEL":"035-222577","COUNTYNAME":"新竹市","TOWNNAME":"北區","MARKTYPE":"991","Class":"1"}},{"type":"Feature","id":25433,"geometry":{"type":"Point","coordinates":[120.95889768444628,24.804066865938651]},"properties":{"OBJECTID":25433,"LANDMARKID":"1001800000003","LANDMARKCO":"101","LANDMARKNA":"台灣新竹看守所","LANDMARKAD":"1001802","ADDRESS":"新竹市延平路一段110號","TEL":"035-222083","COUNTYNAME":"新竹市","TOWNNAME":"北區","MARKTYPE":"991","Class":"1"}},{"type":"Feature","id":25434,"geometry":{"type":"Point","coordinates":[120.9683624434381,24.807358233038375]},"properties":{"OBJECTID":25434,"LANDMARKID":"1001800000037","LANDMARKCO":"103","LANDMARKNA":"新竹市議會","LANDMARKAD":"1001802","ADDRESS":"新竹市中正路122號","TEL":"035-213281","COUNTYNAME":"新竹市","TOWNNAME":"北區","MARKTYPE":"991","Class":"1"}},{"type":"Feature","id":25435,"geometry":{"type":"Point","coordinates":[120.96878206877327,24.811276285817353]},"properties":{"OBJECTID":25435,"LANDMARKID":"1001800000038","LANDMARKCO":"103","LANDMARKNA":"新竹市家庭教育服務中心","LANDMARKAD":"1001802","ADDRESS":"新竹市東大路二段15巷1號","TEL":"03-5319756轉250","COUNTYNAME":"新竹市","TOWNNAME":"北區","MARKTYPE":"991","Class":"1"}},{"type":"Feature","id":25436,"geometry":{"type":"Point","coordinates":[120.96709735133942,24.811352126222701]},"properties":{"OBJECTID":25436,"LANDMARKID":"1001800000004","LANDMARKCO":"101","LANDMARKNA":"營建署新竹工務所","LANDMARKAD":"1001802","ADDRESS":"新竹市東大路二段65巷64號","TEL":"035-310840","COUNTYNAME":"新竹市","TOWNNAME":"北區","MARKTYPE":"991","Class":"1"}},{"type":"Feature","id":25437,"geometry":{"type":"Point","coordinates":[120.96957782314836,24.806360210949375]},"properties":{"OBJECTID":25437,"LANDMARKID":"1001800000005","LANDMARKCO":"101","LANDMARKNA":"經濟部中小企業處新竹服務中心","LANDMARKAD":"1001802","ADDRESS":"新竹市中央路107號","TEL":"03-5255201","COUNTYNAME":"新竹市","TOWNNAME":"北區","MARKTYPE":"991","Class":"1"}},{"type":"Feature","id":25438,"geometry":{"type":"Point","coordinates":[120.96830110995562,24.806588879097689]},"properties":{"OBJECTID":25438,"LANDMARKID":"1001800000006","LANDMARKCO":"101","LANDMARKNA":"林務局新竹林區管理處","LANDMARKAD":"1001802","ADDRESS":"新竹市中山路2號","TEL":"03-5224163","COUNTYNAME":"新竹市","TOWNNAME":"北區","MARKTYPE":"991","Class":"1"}},{"type":"Feature","id":25439,"geometry":{"type":"Point","coordinates":[120.96794737860785,24.806032474850731]},"properties":{"OBJECTID":25439,"LANDMARKID":"1001800000036","LANDMARKCO":"103","LANDMARKNA":"新竹市政府都市發展局","LANDMARKAD":"1001802","ADDRESS":"新竹市中央路109號2樓","TEL":"03-5216121轉434","COUNTYNAME":"新竹市","TOWNNAME":"北區","MARKTYPE":"991","Class":"1"}},{"type":"Feature","id":25440,"geometry":{"type":"Point","coordinates":[120.96144166632476,24.815973863577842]},"properties":{"OBJECTID":25440,"LANDMARKID":"1001800000007","LANDMARKCO":"101","LANDMARKNA":"中央健康保險局北區分局","LANDMARKAD":"1001802","ADDRESS":"新竹市武陵路3號","TEL":"035-335847","COUNTYNAME":"新竹市","TOWNNAME":"北區","MARKTYPE":"991","Class":"1"}},{"type":"Feature","id":25441,"geometry":{"type":"Point","coordinates":[120.9627666217815,24.815688147804853]},"properties":{"OBJECTID":25441,"LANDMARKID":"1001800000008","LANDMARKCO":"101","LANDMARKNA":"職業訓練局台北區就業服務中心","LANDMARKAD":"1001802","ADDRESS":"新竹市武陵路10號","TEL":"035-343013","COUNTYNAME":"新竹市","TOWNNAME":"北區","MARKTYPE":"991","Class":"1"}},{"type":"Feature","id":25442,"geometry":{"type":"Point","coordinates":[120.92222292372269,24.839409285427173]},"properties":{"OBJECTID":25442,"LANDMARKID":"1001800000035","LANDMARKCO":"103","LANDMARKNA":"新竹市環境保護局","LANDMARKAD":"1001802","ADDRESS":"新竹市海濱路240號","TEL":"035-368920","COUNTYNAME":"新竹市","TOWNNAME":"北區","MARKTYPE":"991","Class":"1"}},{"type":"Feature","id":25443,"geometry":{"type":"Point","coordinates":[120.92222292372269,24.839409285427173]},"properties":{"OBJECTID":25443,"LANDMARKID":"1001800000009","LANDMARKCO":"101","LANDMARKNA":"環境保護署新竹市南寮垃圾資源中心","LANDMARKAD":"1001802","ADDRESS":"新竹市海濱路240號","TEL":"035-368810","COUNTYNAME":"新竹市","TOWNNAME":"北區","MARKTYPE":"991","Class":"1"}},{"type":"Feature","id":25444,"geometry":{"type":"Point","coordinates":[120.92450170813312,24.846364974556131]},"properties":{"OBJECTID":25444,"LANDMARKID":"1001800000034","LANDMARKCO":"103","LANDMARKNA":"新竹市政府新竹漁港管理所","LANDMARKAD":"1001802","ADDRESS":"新竹市新港三路1號1樓","TEL":"035-364306","COUNTYNAME":"新竹市","TOWNNAME":"北區","MARKTYPE":"991","Class":"1"}},{"type":"Feature","id":25445,"geometry":{"type":"Point","coordinates":[120.95467858422633,24.793538703072397]},"properties":{"OBJECTID":25445,"LANDMARKID":"1001800000010","LANDMARKCO":"101","LANDMARKNA":"國軍退除役官兵輔導委員會新竹服務處","LANDMARKAD":"1001802","ADDRESS":"新竹市崧嶺路57巷41號?","TEL":"03-5213292","COUNTYNAME":"新竹市","TOWNNAME":"北區","MARKTYPE":"991","Class":"1"}},{"type":"Feature","id":25446,"geometry":{"type":"Point","coordinates":[120.93745298793861,24.840402921754229]},"properties":{"OBJECTID":25446,"LANDMARKID":"1001800000084","LANDMARKCO":"107","LANDMARKNA":"新竹市警察局南寮派出所","LANDMARKAD":"1001802","ADDRESS":"新竹市東大路三段541號","TEL":"03-5362334","COUNTYNAME":"新竹市","TOWNNAME":"北區","MARKTYPE":"991","Class":"1"}},{"type":"Feature","id":25447,"geometry":{"type":"Point","coordinates":[120.95665376953951,24.793623801538978]},"properties":{"OBJECTID":25447,"LANDMARKID":"1001800000033","LANDMARKCO":"103","LANDMARKNA":"新竹市立殯儀館(追思園)","LANDMARKAD":"1001802","ADDRESS":"新竹市成德路132號","TEL":"03-5220179","COUNTYNAME":"新竹市","TOWNNAME":"北區","MARKTYPE":"991","Class":"1"}},{"type":"Feature","id":25448,"geometry":{"type":"Point","coordinates":[120.95259502971138,24.792901434447803]},"properties":{"OBJECTID":25448,"LANDMARKID":"1001800000011","LANDMARKCO":"101","LANDMARKNA":"內政部入出國及移民署","LANDMARKAD":"1001802","ADDRESS":"新竹市松嶺路122號","TEL":"03-5254336","COUNTYNAME":"新竹市","TOWNNAME":"北區","MARKTYPE":"991","Class":"1"}},{"type":"Feature","id":25449,"geometry":{"type":"Point","coordinates":[120.96686838463087,24.814111485649949]},"properties":{"OBJECTID":25449,"LANDMARKID":"1001800000161","LANDMARKCO":"205","LANDMARKNA":"眷村博物館","LANDMARKAD":"1001802","ADDRESS":"新竹市東大路二段105號","TEL":"03-5338442","COUNTYNAME":"新竹市","TOWNNAME":"北區","MARKTYPE":"992","Class":"2"}},{"type":"Feature","id":25450,"geometry":{"type":"Point","coordinates":[120.96814569310612,24.806451334850635]},"properties":{"OBJECTID":25450,"LANDMARKID":"1001800000162","LANDMARKCO":"205","LANDMARKNA":"消防博物館","LANDMARKAD":"1001802","ADDRESS":"新竹市北區中山路4號","TEL":"03-5222050","COUNTYNAME":"新竹市","TOWNNAME":"北區","MARKTYPE":"992","Class":"2"}},{"type":"Feature","id":25451,"geometry":{"type":"Point","coordinates":[120.96791026685476,24.81112002556387]},"properties":{"OBJECTID":25451,"LANDMARKID":"1001800000159","LANDMARKCO":"204","LANDMARKNA":"新竹市立圖書館","LANDMARKAD":"1001802","ADDRESS":"新竹市北區東大路二段15巷1號","TEL":" ","COUNTYNAME":"新竹市","TOWNNAME":"北區","MARKTYPE":"992","Class":"2"}},{"type":"Feature","id":25452,"geometry":{"type":"Point","coordinates":[120.95524037558171,24.808611963613]},"properties":{"OBJECTID":25452,"LANDMARKID":"1001800000136","LANDMARKCO":"203","LANDMARKNA":"市立竹光國中","LANDMARKAD":"1001802","ADDRESS":"新竹市和平路1號","TEL":"03-5246683","COUNTYNAME":"新竹市","TOWNNAME":"北區","MARKTYPE":"992","Class":"2"}},{"type":"Feature","id":25453,"geometry":{"type":"Point","coordinates":[120.95696181777465,24.810900696235041]},"properties":{"OBJECTID":25453,"LANDMARKID":"1001800000107","LANDMARKCO":"202","LANDMARKNA":"私立磐石高中","LANDMARKAD":"1001802","ADDRESS":"新竹市西大路683號","TEL":"035-252207","COUNTYNAME":"新竹市","TOWNNAME":"北區","MARKTYPE":"992","Class":"2"}},{"type":"Feature","id":25454,"geometry":{"type":"Point","coordinates":[120.95320440685134,24.790949467933562]},"properties":{"OBJECTID":25454,"LANDMARKID":"1001800000108","LANDMARKCO":"202","LANDMARKNA":"市立成德高中","LANDMARKAD":"1001802","ADDRESS":"新竹市崧嶺路128巷38號","TEL":"03-5258748","COUNTYNAME":"新竹市","TOWNNAME":"北區","MARKTYPE":"992","Class":"2"}},{"type":"Feature","id":25455,"geometry":{"type":"Point","coordinates":[120.97391033085226,24.81797607065867]},"properties":{"OBJECTID":25455,"LANDMARKID":"1001800000125","LANDMARKCO":"203","LANDMARKNA":"市立光華國中","LANDMARKAD":"1001802","ADDRESS":"新竹市光華北街10號","TEL":"035-312625","COUNTYNAME":"新竹市","TOWNNAME":"北區","MARKTYPE":"992","Class":"2"}},{"type":"Feature","id":25456,"geometry":{"type":"Point","coordinates":[120.92746358990438,24.844055085509616]},"properties":{"OBJECTID":25456,"LANDMARKID":"1001800000126","LANDMARKCO":"203","LANDMARKNA":"市立南華國中","LANDMARKAD":"1001802","ADDRESS":"新竹市海濱路55號","TEL":"035-363905","COUNTYNAME":"新竹市","TOWNNAME":"北區","MARKTYPE":"992","Class":"2"}},{"type":"Feature","id":25457,"geometry":{"type":"Point","coordinates":[120.9615679183904,24.799741203058343]},"properties":{"OBJECTID":25457,"LANDMARKID":"1001800000127","LANDMARKCO":"203","LANDMARKNA":"國立新竹師範學院附設實驗國民小學","LANDMARKAD":"1001802","ADDRESS":"新竹市四維路47號","TEL":"03-5282420","COUNTYNAME":"新竹市","TOWNNAME":"北區","MARKTYPE":"992","Class":"2"}},{"type":"Feature","id":25458,"geometry":{"type":"Point","coordinates":[120.96598894084572,24.813580716764545]},"properties":{"OBJECTID":25458,"LANDMARKID":"1001800000128","LANDMARKCO":"203","LANDMARKNA":"市立北門國小","LANDMARKAD":"1001802","ADDRESS":"新竹市水田街33號","TEL":"035-316668","COUNTYNAME":"新竹市","TOWNNAME":"北區","MARKTYPE":"992","Class":"2"}},{"type":"Feature","id":25459,"geometry":{"type":"Point","coordinates":[120.95950513459198,24.802644648460369]},"properties":{"OBJECTID":25459,"LANDMARKID":"1001800000129","LANDMARKCO":"203","LANDMARKNA":"市立西門國小","LANDMARKAD":"1001802","ADDRESS":"新竹市北大路450號","TEL":"035-222492","COUNTYNAME":"新竹市","TOWNNAME":"北區","MARKTYPE":"992","Class":"2"}},{"type":"Feature","id":25460,"geometry":{"type":"Point","coordinates":[120.96015925397437,24.808200126523055]},"properties":{"OBJECTID":25460,"LANDMARKID":"1001800000130","LANDMARKCO":"203","LANDMARKNA":"市立民富國小","LANDMARKAD":"1001802","ADDRESS":"新竹市西大路561號","TEL":"035-222102","COUNTYNAME":"新竹市","TOWNNAME":"北區","MARKTYPE":"992","Class":"2"}},{"type":"Feature","id":25461,"geometry":{"type":"Point","coordinates":[120.96285781407339,24.819486345444826]},"properties":{"OBJECTID":25461,"LANDMARKID":"1001800000131","LANDMARKCO":"203","LANDMARKNA":"市立載熙國小","LANDMARKAD":"1001802","ADDRESS":"新竹市東大路二段386號","TEL":"035-316675","COUNTYNAME":"新竹市","TOWNNAME":"北區","MARKTYPE":"992","Class":"2"}},{"type":"Feature","id":25462,"geometry":{"type":"Point","coordinates":[120.93930695513781,24.839101910265082]},"properties":{"OBJECTID":25462,"LANDMARKID":"1001800000132","LANDMARKCO":"203","LANDMARKNA":"市立南寮國小","LANDMARKAD":"1001802","ADDRESS":"新竹市東大路三段465號","TEL":"035-363448","COUNTYNAME":"新竹市","TOWNNAME":"北區","MARKTYPE":"992","Class":"2"}},{"type":"Feature","id":25463,"geometry":{"type":"Point","coordinates":[120.97312161874727,24.822785145419328]},"properties":{"OBJECTID":25463,"LANDMARKID":"1001800000133","LANDMARKCO":"203","LANDMARKNA":"市立舊社國小","LANDMARKAD":"1001802","ADDRESS":"新竹市金竹路99號","TEL":"03-5342022","COUNTYNAME":"新竹市","TOWNNAME":"北區","MARKTYPE":"992","Class":"2"}},{"type":"Feature","id":25464,"geometry":{"type":"Point","coordinates":[120.9304097476309,24.849552414315326]},"properties":{"OBJECTID":25464,"LANDMARKID":"1001800000205","LANDMARKCO":"305","LANDMARKNA":"南寮漁港","LANDMARKAD":"1001802","ADDRESS":"新竹市北區","TEL":" ","COUNTYNAME":"新竹市","TOWNNAME":"北區","MARKTYPE":"993","Class":"305"}},{"type":"Feature","id":25465,"geometry":{"type":"Point","coordinates":[120.92505384942322,24.847373977727401]},"properties":{"OBJECTID":25465,"LANDMARKID":"1001800000206","LANDMARKCO":"305","LANDMARKNA":"新竹漁港","LANDMARKAD":"1001802","ADDRESS":"新竹市北區","TEL":" ","COUNTYNAME":"新竹市","TOWNNAME":"北區","MARKTYPE":"993","Class":"305"}},{"type":"Feature","id":25466,"geometry":{"type":"Point","coordinates":[120.92564337397586,24.846878317022835]},"properties":{"OBJECTID":25466,"LANDMARKID":"1001800000190","LANDMARKCO":"303","LANDMARKNA":"新竹區漁會停車場","LANDMARKAD":"1001802","ADDRESS":"新竹市北區新港三路","TEL":" ","COUNTYNAME":"新竹市","TOWNNAME":"北區","MARKTYPE":"993","Class":"303"}},{"type":"Feature","id":25467,"geometry":{"type":"Point","coordinates":[120.9705586648559,24.823639319617232]},"properties":{"OBJECTID":25467,"LANDMARKID":"1001800000191","LANDMARKCO":"303","LANDMARKNA":"武陵路橋下停車場","LANDMARKAD":"1001802","ADDRESS":"新竹市北區","TEL":" ","COUNTYNAME":"新竹市","TOWNNAME":"北區","MARKTYPE":"993","Class":"303"}},{"type":"Feature","id":25468,"geometry":{"type":"Point","coordinates":[120.97113452701059,24.824261431661974]},"properties":{"OBJECTID":25468,"LANDMARKID":"1001800000192","LANDMARKCO":"303","LANDMARKNA":"武陵路橋下停車場","LANDMARKAD":"1001802","ADDRESS":"新竹市北區","TEL":" ","COUNTYNAME":"新竹市","TOWNNAME":"北區","MARKTYPE":"993","Class":"303"}},{"type":"Feature","id":25469,"geometry":{"type":"Point","coordinates":[120.93771106027513,24.843089808519416]},"properties":{"OBJECTID":25469,"LANDMARKID":"1001800000207","LANDMARKCO":"308","LANDMARKNA":"台68-南寮端-東行","LANDMARKAD":"1001802","ADDRESS":"新竹市北區","TEL":" ","COUNTYNAME":"新竹市","TOWNNAME":"北區","MARKTYPE":"993","Class":"308"}},{"type":"Feature","id":25470,"geometry":{"type":"Point","coordinates":[120.96956083997237,24.82686710561174]},"properties":{"OBJECTID":25470,"LANDMARKID":"1001800000208","LANDMARKCO":"308","LANDMARKNA":"台68-新竹一交流道-西行","LANDMARKAD":"1001802","ADDRESS":"新竹市北區","TEL":" ","COUNTYNAME":"新竹市","TOWNNAME":"北區","MARKTYPE":"993","Class":"308"}},{"type":"Feature","id":25471,"geometry":{"type":"Point","coordinates":[120.97335409657704,24.825473672372471]},"properties":{"OBJECTID":25471,"LANDMARKID":"1001800000209","LANDMARKCO":"308","LANDMARKNA":"台68-新竹一交流道-東行","LANDMARKAD":"1001802","ADDRESS":"新竹市北區","TEL":" ","COUNTYNAME":"新竹市","TOWNNAME":"北區","MARKTYPE":"993","Class":"308"}},{"type":"Feature","id":25472,"geometry":{"type":"Point","coordinates":[120.9653534898701,24.804612442751647]},"properties":{"OBJECTID":25472,"LANDMARKID":"1001800000193","LANDMARKCO":"303","LANDMARKNA":"城隍廟口停車場","LANDMARKAD":"1001802","ADDRESS":"新竹市北區中山路","TEL":" ","COUNTYNAME":"新竹市","TOWNNAME":"北區","MARKTYPE":"993","Class":"303"}},{"type":"Feature","id":25473,"geometry":{"type":"Point","coordinates":[120.96941973408831,24.807792700361372]},"properties":{"OBJECTID":25473,"LANDMARKID":"1001800000194","LANDMARKCO":"303","LANDMARKNA":"新竹市政府南門停車場","LANDMARKAD":"1001802","ADDRESS":"新竹市北區","TEL":" ","COUNTYNAME":"新竹市","TOWNNAME":"北區","MARKTYPE":"993","Class":"303"}},{"type":"Feature","id":25474,"geometry":{"type":"Point","coordinates":[120.96852246017077,24.806379658764428]},"properties":{"OBJECTID":25474,"LANDMARKID":"1001800000195","LANDMARKCO":"303","LANDMARKNA":"新竹市公有收費停車管理處勝利停車場","LANDMARKAD":"1001802","ADDRESS":"新竹市北區","TEL":" ","COUNTYNAME":"新竹市","TOWNNAME":"北區","MARKTYPE":"993","Class":"303"}},{"type":"Feature","id":25475,"geometry":{"type":"Point","coordinates":[120.96860555297458,24.812046889474146]},"properties":{"OBJECTID":25475,"LANDMARKID":"1001800000196","LANDMARKCO":"303","LANDMARKNA":"新竹市文化局停車場","LANDMARKAD":"1001802","ADDRESS":"新竹市北區東大路二段15巷1號","TEL":" ","COUNTYNAME":"新竹市","TOWNNAME":"北區","MARKTYPE":"993","Class":"303"}},{"type":"Feature","id":25476,"geometry":{"type":"Point","coordinates":[120.9340488490492,24.842293048775012]},"properties":{"OBJECTID":25476,"LANDMARKID":"1001800000197","LANDMARKCO":"303","LANDMARKNA":"民眾活動中臨時停車場","LANDMARKAD":"1001802","ADDRESS":"新竹市北區","TEL":" ","COUNTYNAME":"新竹市","TOWNNAME":"北區","MARKTYPE":"993","Class":"303"}},{"type":"Feature","id":25477,"geometry":{"type":"Point","coordinates":[120.95929456975522,24.806084139945156]},"properties":{"OBJECTID":25477,"LANDMARKID":"1001800000198","LANDMARKCO":"303","LANDMARKNA":"民富機械停車場","LANDMARKAD":"1001802","ADDRESS":"新竹市北區少年街49巷10號","TEL":" ","COUNTYNAME":"新竹市","TOWNNAME":"北區","MARKTYPE":"993","Class":"303"}},{"type":"Feature","id":25478,"geometry":{"type":"Point","coordinates":[120.97028693151341,24.806838443952088]},"properties":{"OBJECTID":25478,"LANDMARKID":"1001800000199","LANDMARKCO":"303","LANDMARKNA":"府後街地下停車場","LANDMARKAD":"1001802","ADDRESS":"新竹市北區中央路42號","TEL":" ","COUNTYNAME":"新竹市","TOWNNAME":"北區","MARKTYPE":"993","Class":"303"}},{"type":"Feature","id":25479,"geometry":{"type":"Point","coordinates":[120.95677502632762,24.811405107813197]},"properties":{"OBJECTID":25479,"LANDMARKID":"1001800000200","LANDMARKCO":"303","LANDMARKNA":"新竹市竹光路與西大路臨時停車場","LANDMARKAD":"1001802","ADDRESS":"新竹市北區","TEL":" ","COUNTYNAME":"新竹市","TOWNNAME":"北區","MARKTYPE":"993","Class":"303"}},{"type":"Feature","id":25480,"geometry":{"type":"Point","coordinates":[120.9640252999576,24.812211673008413]},"properties":{"OBJECTID":25480,"LANDMARKID":"1001800000201","LANDMARKCO":"303","LANDMARKNA":"舊果菜市場臨時停車場","LANDMARKAD":"1001802","ADDRESS":"新竹市北區","TEL":" ","COUNTYNAME":"新竹市","TOWNNAME":"北區","MARKTYPE":"993","Class":"303"}},{"type":"Feature","id":25481,"geometry":{"type":"Point","coordinates":[120.96596879396664,24.806309564913374]},"properties":{"OBJECTID":25481,"LANDMARKID":"1001800000202","LANDMARKCO":"303","LANDMARKNA":"Times(普客二四停車場)-新竹城隍廟停車","LANDMARKAD":"1001802","ADDRESS":"新竹市北區北門街62號旁","TEL":" ","COUNTYNAME":"新竹市","TOWNNAME":"北區","MARKTYPE":"993","Class":"303"}},{"type":"Feature","id":25482,"geometry":{"type":"Point","coordinates":[120.96803028373357,24.807161177911777]},"properties":{"OBJECTID":25482,"LANDMARKID":"1001800000246","LANDMARKCO":"402","LANDMARKNA":"中華電信-新竹營運處","LANDMARKAD":"1001802","ADDRESS":"新竹市中正路105號","TEL":"123或0800-080-123","COUNTYNAME":"新竹市","TOWNNAME":"北區","MARKTYPE":"994","Class":"4"}},{"type":"Feature","id":25483,"geometry":{"type":"Point","coordinates":[120.96979876679646,24.817083761228481]},"properties":{"OBJECTID":25483,"LANDMARKID":"1001800000247","LANDMARKCO":"402","LANDMARKNA":"中華電信-新竹湳雅特約服務中心","LANDMARKAD":"1001802","ADDRESS":"新竹市北區湳雅街10號","TEL":"03-5318788","COUNTYNAME":"新竹市","TOWNNAME":"北區","MARKTYPE":"994","Class":"4"}},{"type":"Feature","id":25484,"geometry":{"type":"Point","coordinates":[120.96416365820623,24.804036168253308]},"properties":{"OBJECTID":25484,"LANDMARKID":"1001800000248","LANDMARKCO":"402","LANDMARKNA":"中華電信-新竹西大特約服務中心","LANDMARKAD":"1001802","ADDRESS":"新竹市西大路442號","TEL":"03-5257099","COUNTYNAME":"新竹市","TOWNNAME":"北區","MARKTYPE":"994","Class":"4"}},{"type":"Feature","id":25485,"geometry":{"type":"Point","coordinates":[120.96370596735891,24.812821484690375]},"properties":{"OBJECTID":25485,"LANDMARKID":"1001800000249","LANDMARKCO":"402","LANDMARKNA":"遠傳電信-新竹中正門市","LANDMARKAD":"1001802","ADDRESS":"新竹市中正路259號","TEL":" ","COUNTYNAME":"新竹市","TOWNNAME":"北區","MARKTYPE":"994","Class":"4"}},{"type":"Feature","id":25486,"geometry":{"type":"Point","coordinates":[120.96364891877039,24.804704734248926]},"properties":{"OBJECTID":25486,"LANDMARKID":"1001800000250","LANDMARKCO":"402","LANDMARKNA":"威寶電信-新竹西大特約服務中心","LANDMARKAD":"1001802","ADDRESS":"新竹市西大路476號","TEL":"03-5262899","COUNTYNAME":"新竹市","TOWNNAME":"北區","MARKTYPE":"994","Class":"4"}},{"type":"Feature","id":25487,"geometry":{"type":"Point","coordinates":[120.96570487288052,24.81014926391914]},"properties":{"OBJECTID":25487,"LANDMARKID":"1001800000251","LANDMARKCO":"402","LANDMARKNA":"威寶電信-新竹中正特約服務中心","LANDMARKAD":"1001802","ADDRESS":"新竹市北區北門里中正路179號","TEL":"03-5225374","COUNTYNAME":"新竹市","TOWNNAME":"北區","MARKTYPE":"994","Class":"4"}},{"type":"Feature","id":25488,"geometry":{"type":"Point","coordinates":[120.97046129443079,24.817625742441344]},"properties":{"OBJECTID":25488,"LANDMARKID":"1001800000252","LANDMARKCO":"402","LANDMARKNA":"威寶電信-新竹湳雅特約服務中心","LANDMARKAD":"1001802","ADDRESS":"新竹市湳雅街34號","TEL":"03-5359712","COUNTYNAME":"新竹市","TOWNNAME":"北區","MARKTYPE":"994","Class":"4"}},{"type":"Feature","id":25489,"geometry":{"type":"Point","coordinates":[120.96039369523585,24.808956307118311]},"properties":{"OBJECTID":25489,"LANDMARKID":"1001800000253","LANDMARKCO":"402","LANDMARKNA":"大眾電信-正鋒通訊","LANDMARKAD":"1001802","ADDRESS":"新竹市北區西大路700號","TEL":"03-5436089","COUNTYNAME":"新竹市","TOWNNAME":"北區","MARKTYPE":"994","Class":"4"}},{"type":"Feature","id":25490,"geometry":{"type":"Point","coordinates":[120.96369857044958,24.804370699172846]},"properties":{"OBJECTID":25490,"LANDMARKID":"1001800000254","LANDMARKCO":"402","LANDMARKNA":"大眾電信(震旦通訊)-新竹西大店","LANDMARKAD":"1001802","ADDRESS":"新竹市西大路445號","TEL":"03-5284308","COUNTYNAME":"新竹市","TOWNNAME":"北區","MARKTYPE":"994","Class":"4"}},{"type":"Feature","id":25491,"geometry":{"type":"Point","coordinates":[120.96421918615326,24.817633282484966]},"properties":{"OBJECTID":25491,"LANDMARKID":"1001800000255","LANDMARKCO":"402","LANDMARKNA":"大眾電信-新竹東大店","LANDMARKAD":"1001802","ADDRESS":"新竹市東大路二段200號","TEL":"03-5351100","COUNTYNAME":"新竹市","TOWNNAME":"北區","MARKTYPE":"994","Class":"4"}},{"type":"Feature","id":25492,"geometry":{"type":"Point","coordinates":[120.97011519973042,24.817336689780408]},"properties":{"OBJECTID":25492,"LANDMARKID":"1001800000256","LANDMARKCO":"402","LANDMARKNA":"大眾電信(震旦通訊)-新竹湳雅店","LANDMARKAD":"1001802","ADDRESS":"新竹市湳雅街18號","TEL":"03-5152613","COUNTYNAME":"新竹市","TOWNNAME":"北區","MARKTYPE":"994","Class":"4"}},{"type":"Feature","id":25493,"geometry":{"type":"Point","coordinates":[120.96640736128798,24.809842609422304]},"properties":{"OBJECTID":25493,"LANDMARKID":"1001800000423","LANDMARKCO":"602","LANDMARKNA":"新竹福華大飯店","LANDMARKAD":"1001802","ADDRESS":"新竹市中正路178號","TEL":"03-528-2323","COUNTYNAME":"新竹市","TOWNNAME":"北區","MARKTYPE":"996","Class":"6"}},{"type":"Feature","id":25494,"geometry":{"type":"Point","coordinates":[120.9251201954045,24.847939265789883]},"properties":{"OBJECTID":25494,"LANDMARKID":"1001800000417","LANDMARKCO":"511","LANDMARKNA":"南寮漁港小吃","LANDMARKAD":"1001802","ADDRESS":"新竹市北區","TEL":" ","COUNTYNAME":"新竹市","TOWNNAME":"北區","MARKTYPE":"995","Class":"5"}},{"type":"Feature","id":25495,"geometry":{"type":"Point","coordinates":[120.96550523828616,24.804404369969607]},"properties":{"OBJECTID":25495,"LANDMARKID":"1001800000418","LANDMARKCO":"511","LANDMARKNA":"城隍廟夜市","LANDMARKAD":"1001802","ADDRESS":"新竹市北區","TEL":" ","COUNTYNAME":"新竹市","TOWNNAME":"北區","MARKTYPE":"995","Class":"5"}},{"type":"Feature","id":25496,"geometry":{"type":"Point","coordinates":[120.98104230401037,24.829308051470587]},"properties":{"OBJECTID":25496,"LANDMARKID":"1001800000415","LANDMARKCO":"510","LANDMARKNA":"新生高爾夫練習場","LANDMARKAD":"1001802","ADDRESS":"新竹市北區舊社里19鄰32號","TEL":"035-533235","COUNTYNAME":"新竹市","TOWNNAME":"北區","MARKTYPE":"995","Class":"5"}},{"type":"Feature","id":25497,"geometry":{"type":"Point","coordinates":[120.9194538066818,24.837956046100949]},"properties":{"OBJECTID":25497,"LANDMARKID":"1001800000393","LANDMARKCO":"503","LANDMARKNA":"港南風景區","LANDMARKAD":"1001802","ADDRESS":"新竹市北區","TEL":" ","COUNTYNAME":"新竹市","TOWNNAME":"北區","MARKTYPE":"995","Class":"5"}},{"type":"Feature","id":25498,"geometry":{"type":"Point","coordinates":[120.98181492886735,24.820611693462446]},"properties":{"OBJECTID":25498,"LANDMARKID":"1001800000298","LANDMARKCO":"405","LANDMARKNA":"中油加油站-佳隆站","LANDMARKAD":"1001801","ADDRESS":"新竹市東區經國路一段156巷236之15號","TEL":"03-5353597","COUNTYNAME":"新竹市","TOWNNAME":"東區","MARKTYPE":"994","Class":"4"}},{"type":"Feature","id":25499,"geometry":{"type":"Point","coordinates":[120.99535630590833,24.818418788655592]},"properties":{"OBJECTID":25499,"LANDMARKID":"1001800000299","LANDMARKCO":"405","LANDMARKNA":"中油加油站-大橋站","LANDMARKAD":"1001801","ADDRESS":"新竹市中華路一段31號","TEL":"03-5312536","COUNTYNAME":"新竹市","TOWNNAME":"東區","MARKTYPE":"994","Class":"4"}},{"type":"Feature","id":25500,"geometry":{"type":"Point","coordinates":[120.97840260208017,24.768012976070207]},"properties":{"OBJECTID":25500,"LANDMARKID":"1001800000300","LANDMARKCO":"405","LANDMARKNA":"中油加油站-明湖站","LANDMARKAD":"1001801","ADDRESS":"新竹市明湖路1036號","TEL":"03-5200235","COUNTYNAME":"新竹市","TOWNNAME":"東區","MARKTYPE":"994","Class":"4"}},{"type":"Feature","id":25501,"geometry":{"type":"Point","coordinates":[120.99015898958389,24.797907350696669]},"properties":{"OBJECTID":25501,"LANDMARKID":"1001800000301","LANDMARKCO":"405","LANDMARKNA":"中油加油站-光明站(中油直營)","LANDMARKAD":"1001801","ADDRESS":"新竹市光復路二段1號","TEL":"035-716471","COUNTYNAME":"新竹市","TOWNNAME":"東區","MARKTYPE":"994","Class":"4"}},{"type":"Feature","id":25502,"geometry":{"type":"Point","coordinates":[120.98201173294281,24.819429987249855]},"properties":{"OBJECTID":25502,"LANDMARKID":"1001800000302","LANDMARKCO":"405","LANDMARKNA":"中油加油站-昌隆站","LANDMARKAD":"1001801","ADDRESS":"新竹市東區前溪里經國路1段156巷238號之15","TEL":"03-5353556","COUNTYNAME":"新竹市","TOWNNAME":"東區","MARKTYPE":"994","Class":"4"}},{"type":"Feature","id":25503,"geometry":{"type":"Point","coordinates":[121.01215100341454,24.79238833310264]},"properties":{"OBJECTID":25503,"LANDMARKID":"1001800000303","LANDMARKCO":"405","LANDMARKNA":"中油加油站-山隆竹安","LANDMARKAD":"1001801","ADDRESS":"新竹市慈雲路111號","TEL":"03-6686732","COUNTYNAME":"新竹市","TOWNNAME":"東區","MARKTYPE":"994","Class":"4"}},{"type":"Feature","id":25504,"geometry":{"type":"Point","coordinates":[121.01214548376763,24.792389784452087]},"properties":{"OBJECTID":25504,"LANDMARKID":"1001800000304","LANDMARKCO":"405","LANDMARKNA":"山隆加油站-竹安站(中油)","LANDMARKAD":"1001801","ADDRESS":"新竹市慈雲路111號","TEL":"03-6686732","COUNTYNAME":"新竹市","TOWNNAME":"東區","MARKTYPE":"994","Class":"4"}},{"type":"Feature","id":25505,"geometry":{"type":"Point","coordinates":[120.9809091564442,24.812675221614491]},"properties":{"OBJECTID":25505,"LANDMARKID":"1001800000305","LANDMARKCO":"405","LANDMARKNA":"中油加油站-民弘站","LANDMARKAD":"1001801","ADDRESS":"新竹市自由路65號","TEL":"03-5312866","COUNTYNAME":"新竹市","TOWNNAME":"東區","MARKTYPE":"994","Class":"4"}},{"type":"Feature","id":25506,"geometry":{"type":"Point","coordinates":[120.97424182732243,24.803494532850888]},"properties":{"OBJECTID":25506,"LANDMARKID":"1001800000306","LANDMARKCO":"405","LANDMARKNA":"中油加油站-新竹站(中油直營)","LANDMARKAD":"1001801","ADDRESS":"新竹市中華路二段347號","TEL":"03-5225043","COUNTYNAME":"新竹市","TOWNNAME":"東區","MARKTYPE":"994","Class":"4"}},{"type":"Feature","id":25507,"geometry":{"type":"Point","coordinates":[120.97872332554468,24.806742836582227]},"properties":{"OBJECTID":25507,"LANDMARKID":"1001800000307","LANDMARKCO":"405","LANDMARKNA":"中油加油站-民華站(刷卡自助)(中油直營)","LANDMARKAD":"1001801","ADDRESS":"新竹市中華路二段156-1號","TEL":"03-5326491","COUNTYNAME":"新竹市","TOWNNAME":"東區","MARKTYPE":"994","Class":"4"}},{"type":"Feature","id":25508,"geometry":{"type":"Point","coordinates":[120.99316614441352,24.816127070713911]},"properties":{"OBJECTID":25508,"LANDMARKID":"1001800000308","LANDMARKCO":"405","LANDMARKNA":"中油加油站-政祥站(中油直營)","LANDMARKAD":"1001801","ADDRESS":"新竹市經國路一段2-2號","TEL":"03-5421228","COUNTYNAME":"新竹市","TOWNNAME":"東區","MARKTYPE":"994","Class":"4"}},{"type":"Feature","id":25509,"geometry":{"type":"Point","coordinates":[121.00460181748043,24.779526355887704]},"properties":{"OBJECTID":25509,"LANDMARKID":"1001800000309","LANDMARKCO":"405","LANDMARKNA":"中油加油站-科學園區站(中油直營)","LANDMARKAD":"1001801","ADDRESS":"新竹市龍山里工業東二路2-2號","TEL":"03-5779157","COUNTYNAME":"新竹市","TOWNNAME":"東區","MARKTYPE":"994","Class":"4"}},{"type":"Feature","id":25510,"geometry":{"type":"Point","coordinates":[120.99005439685047,24.800262682907672]},"properties":{"OBJECTID":25510,"LANDMARKID":"1001800000310","LANDMARKCO":"405","LANDMARKNA":"中油加油站-光復站(中油直營)","LANDMARKAD":"1001801","ADDRESS":"新竹市光復路二段716號","TEL":"035-718604","COUNTYNAME":"新竹市","TOWNNAME":"東區","MARKTYPE":"994","Class":"4"}},{"type":"Feature","id":25511,"geometry":{"type":"Point","coordinates":[121.01324960748521,24.784771568633001]},"properties":{"OBJECTID":25511,"LANDMARKID":"1001800000311","LANDMARKCO":"405","LANDMARKNA":"中油加油站-關東橋站(中油直營)","LANDMARKAD":"1001801","ADDRESS":"新竹市光復路一段529號","TEL":"035-772433","COUNTYNAME":"新竹市","TOWNNAME":"東區","MARKTYPE":"994","Class":"4"}},{"type":"Feature","id":25512,"geometry":{"type":"Point","coordinates":[120.97111779119068,24.802918351792574]},"properties":{"OBJECTID":25512,"LANDMARKID":"1001800000241","LANDMARKCO":"402","LANDMARKNA":"My Phone台灣大哥大-新竹中正直營服務中心","LANDMARKAD":"1001801","ADDRESS":"新竹市中正路9號","TEL":"0809-000-166","COUNTYNAME":"新竹市","TOWNNAME":"東區","MARKTYPE":"994","Class":"4"}},{"type":"Feature","id":25513,"geometry":{"type":"Point","coordinates":[121.01084918182704,24.786370771348334]},"properties":{"OBJECTID":25513,"LANDMARKID":"1001800000242","LANDMARKCO":"402","LANDMARKNA":"My Phone台灣大哥大-新竹竹科直營服務中心","LANDMARKAD":"1001801","ADDRESS":"新竹市東區光復路1段633號","TEL":"0809-000-166","COUNTYNAME":"新竹市","TOWNNAME":"東區","MARKTYPE":"994","Class":"4"}},{"type":"Feature","id":25514,"geometry":{"type":"Point","coordinates":[121.02234043317507,24.781440001633843]},"properties":{"OBJECTID":25514,"LANDMARKID":"1001800000243","LANDMARKCO":"402","LANDMARKNA":"亞太行動寬頻電信-新竹光復加盟服務中心","LANDMARKAD":"1001801","ADDRESS":"新竹市光復路1段171號","TEL":"03-5798363","COUNTYNAME":"新竹市","TOWNNAME":"東區","MARKTYPE":"994","Class":"4"}},{"type":"Feature","id":25515,"geometry":{"type":"Point","coordinates":[120.96980161019077,24.804272124858084]},"properties":{"OBJECTID":25515,"LANDMARKID":"1001800000244","LANDMARKCO":"402","LANDMARKNA":"亞太行動寬頻電信-新竹東門加盟服務中心","LANDMARKAD":"1001801","ADDRESS":"新竹市東門街116號","TEL":"03-5259577","COUNTYNAME":"新竹市","TOWNNAME":"東區","MARKTYPE":"994","Class":"4"}},{"type":"Feature","id":25516,"geometry":{"type":"Point","coordinates":[120.99929776950077,24.795002723880803]},"properties":{"OBJECTID":25516,"LANDMARKID":"1001800000245","LANDMARKCO":"402","LANDMARKNA":"亞太行動寬頻電信-新竹園區加盟服務中心","LANDMARKAD":"1001801","ADDRESS":"新竹市光復路2段266號","TEL":"03-5739898","COUNTYNAME":"新竹市","TOWNNAME":"東區","MARKTYPE":"994","Class":"4"}},{"type":"Feature","id":25517,"geometry":{"type":"Point","coordinates":[120.9806011079399,24.815902701375187]},"properties":{"OBJECTID":25517,"LANDMARKID":"1001800000229","LANDMARKCO":"401","LANDMARKNA":"行政院衛生署新竹醫院","LANDMARKAD":"1001801","ADDRESS":"新竹市經國路一段442巷25號","TEL":"03-5326151","COUNTYNAME":"新竹市","TOWNNAME":"東區","MARKTYPE":"994","Class":"4"}},{"type":"Feature","id":25518,"geometry":{"type":"Point","coordinates":[120.96968323440919,24.802222580711831]},"properties":{"OBJECTID":25518,"LANDMARKID":"1001800000230","LANDMARKCO":"401","LANDMARKNA":"南門綜合醫院","LANDMARKAD":"1001801","ADDRESS":"新竹市林森路20號","TEL":"03-5261122","COUNTYNAME":"新竹市","TOWNNAME":"東區","MARKTYPE":"994","Class":"4"}},{"type":"Feature","id":25519,"geometry":{"type":"Point","coordinates":[120.96522370610776,24.798258312324808]},"properties":{"OBJECTID":25519,"LANDMARKID":"1001800000231","LANDMARKCO":"401","LANDMARKNA":"財團法人國泰綜合醫院新竹分院","LANDMARKAD":"1001801","ADDRESS":"新竹市中華路二段678號","TEL":"03-5278999","COUNTYNAME":"新竹市","TOWNNAME":"東區","MARKTYPE":"994","Class":"4"}},{"type":"Feature","id":25520,"geometry":{"type":"Point","coordinates":[120.99078164468956,24.800085663704632]},"properties":{"OBJECTID":25520,"LANDMARKID":"1001800000232","LANDMARKCO":"401","LANDMARKNA":"財團法人馬偕紀念醫院新竹分院","LANDMARKAD":"1001801","ADDRESS":"新竹市光復路二段690號","TEL":"03-6119595","COUNTYNAME":"新竹市","TOWNNAME":"東區","MARKTYPE":"994","Class":"4"}},{"type":"Feature","id":25521,"geometry":{"type":"Point","coordinates":[120.97228067791384,24.801751145737128]},"properties":{"OBJECTID":25521,"LANDMARKID":"1001800000168","LANDMARKCO":"301","LANDMARKNA":"新竹火車站","LANDMARKAD":"1001801","ADDRESS":"新竹市中華路2段445號","TEL":"03-5237441","COUNTYNAME":"新竹市","TOWNNAME":"東區","MARKTYPE":"993","Class":"301"}},{"type":"Feature","id":25522,"geometry":{"type":"Point","coordinates":[121.01531683121298,24.777792631699686]},"properties":{"OBJECTID":25522,"LANDMARKID":"1001800000409","LANDMARKCO":"507","LANDMARKNA":"新竹金山寺","LANDMARKAD":"1001801","ADDRESS":"新竹市東區仙水里金山201號","TEL":" ","COUNTYNAME":"新竹市","TOWNNAME":"東區","MARKTYPE":"995","Class":"5"}},{"type":"Feature","id":25523,"geometry":{"type":"Point","coordinates":[120.96650484622351,24.802932465361991]},"properties":{"OBJECTID":25523,"LANDMARKID":"1001800000410","LANDMARKCO":"507","LANDMARKNA":"新竹關帝廟","LANDMARKAD":"1001801","ADDRESS":"新竹市東區關帝里南門街101號","TEL":" ","COUNTYNAME":"新竹市","TOWNNAME":"東區","MARKTYPE":"995","Class":"5"}},{"type":"Feature","id":25524,"geometry":{"type":"Point","coordinates":[120.97072417543632,24.804153260457255]},"properties":{"OBJECTID":25524,"LANDMARKID":"1001800000411","LANDMARKCO":"507","LANDMARKNA":"竹塹城迎曦門","LANDMARKAD":"1001801","ADDRESS":"新竹市東區東門街中正路口","TEL":" ","COUNTYNAME":"新竹市","TOWNNAME":"東區","MARKTYPE":"995","Class":"5"}},{"type":"Feature","id":25525,"geometry":{"type":"Point","coordinates":[120.9667382353133,24.781593995073091]},"properties":{"OBJECTID":25525,"LANDMARKID":"1001800000412","LANDMARKCO":"507","LANDMARKNA":"李錫金孝子坊","LANDMARKAD":"1001801","ADDRESS":"新竹市東區祡橋里青草湖段443之1地號","TEL":" ","COUNTYNAME":"新竹市","TOWNNAME":"東區","MARKTYPE":"995","Class":"5"}},{"type":"Feature","id":25526,"geometry":{"type":"Point","coordinates":[120.97177398379145,24.801793449424277]},"properties":{"OBJECTID":25526,"LANDMARKID":"1001800000413","LANDMARKCO":"507","LANDMARKNA":"新竹火車站","LANDMARKAD":"1001801","ADDRESS":"新竹市東區榮光里6鄰中華路二段445號","TEL":"035-229742","COUNTYNAME":"新竹市","TOWNNAME":"東區","MARKTYPE":"995","Class":"5"}},{"type":"Feature","id":25527,"geometry":{"type":"Point","coordinates":[120.97147187237672,24.806252696639525]},"properties":{"OBJECTID":25527,"LANDMARKID":"1001800000414","LANDMARKCO":"507","LANDMARKNA":"新竹州圖書館","LANDMARKAD":"1001801","ADDRESS":"新竹市東區文化街8號","TEL":" ","COUNTYNAME":"新竹市","TOWNNAME":"東區","MARKTYPE":"995","Class":"5"}},{"type":"Feature","id":25528,"geometry":{"type":"Point","coordinates":[120.96748727707079,24.802402861838036]},"properties":{"OBJECTID":25528,"LANDMARKID":"1001800000369","LANDMARKCO":"408","LANDMARKNA":"郵局-新竹武昌街郵局","LANDMARKAD":"1001801","ADDRESS":"新竹市武昌街81號","TEL":"(03)5215-984","COUNTYNAME":"新竹市","TOWNNAME":"東區","MARKTYPE":"994","Class":"4"}},{"type":"Feature","id":25529,"geometry":{"type":"Point","coordinates":[120.97300652306251,24.804029073909458]},"properties":{"OBJECTID":25529,"LANDMARKID":"1001800000370","LANDMARKCO":"408","LANDMARKNA":"郵局-新竹東門郵局","LANDMARKAD":"1001801","ADDRESS":"新竹市東門街51號","TEL":"(03)5229-044","COUNTYNAME":"新竹市","TOWNNAME":"東區","MARKTYPE":"994","Class":"4"}},{"type":"Feature","id":25530,"geometry":{"type":"Point","coordinates":[120.99759655528945,24.795914618644687]},"properties":{"OBJECTID":25530,"LANDMARKID":"1001800000371","LANDMARKCO":"408","LANDMARKNA":"郵局-清華大學郵局","LANDMARKAD":"1001801","ADDRESS":"新竹市光復路2段99號","TEL":"(03)5717-086","COUNTYNAME":"新竹市","TOWNNAME":"東區","MARKTYPE":"994","Class":"4"}},{"type":"Feature","id":25531,"geometry":{"type":"Point","coordinates":[120.9792857889796,24.814810311985632]},"properties":{"OBJECTID":25531,"LANDMARKID":"1001800000372","LANDMARKCO":"408","LANDMARKNA":"郵局-新竹復中里郵局","LANDMARKAD":"1001801","ADDRESS":"新竹市經國路1段452-1號","TEL":"(03)5330-441","COUNTYNAME":"新竹市","TOWNNAME":"東區","MARKTYPE":"994","Class":"4"}},{"type":"Feature","id":25532,"geometry":{"type":"Point","coordinates":[121.01881021064078,24.782559841149261]},"properties":{"OBJECTID":25532,"LANDMARKID":"1001800000373","LANDMARKCO":"408","LANDMARKNA":"郵局-新竹關東橋郵局","LANDMARKAD":"1001801","ADDRESS":"新竹市光復路1段313號","TEL":"(03)5772-024","COUNTYNAME":"新竹市","TOWNNAME":"東區","MARKTYPE":"994","Class":"4"}},{"type":"Feature","id":25533,"geometry":{"type":"Point","coordinates":[120.98470872126937,24.796852974112323]},"properties":{"OBJECTID":25533,"LANDMARKID":"1001800000374","LANDMARKCO":"408","LANDMARKNA":"郵局-新竹學府路郵局","LANDMARKAD":"1001801","ADDRESS":"新竹市學府路128號","TEL":"(03)5718-304","COUNTYNAME":"新竹市","TOWNNAME":"東區","MARKTYPE":"994","Class":"4"}},{"type":"Feature","id":25534,"geometry":{"type":"Point","coordinates":[120.96870518314296,24.797085521015003]},"properties":{"OBJECTID":25534,"LANDMARKID":"1001800000375","LANDMARKCO":"408","LANDMARKNA":"郵局-新竹西大路郵局","LANDMARKAD":"1001801","ADDRESS":"新竹市南大路428號","TEL":"(03)5243-634","COUNTYNAME":"新竹市","TOWNNAME":"東區","MARKTYPE":"994","Class":"4"}},{"type":"Feature","id":25535,"geometry":{"type":"Point","coordinates":[120.98120580843795,24.808923778163145]},"properties":{"OBJECTID":25535,"LANDMARKID":"1001800000376","LANDMARKCO":"408","LANDMARKNA":"郵局-新竹民主路郵局","LANDMARKAD":"1001801","ADDRESS":"新竹市民主路18號","TEL":"(03)5325-070","COUNTYNAME":"新竹市","TOWNNAME":"東區","MARKTYPE":"994","Class":"4"}},{"type":"Feature","id":25536,"geometry":{"type":"Point","coordinates":[120.9830564290523,24.802920189894301]},"properties":{"OBJECTID":25536,"LANDMARKID":"1001800000377","LANDMARKCO":"408","LANDMARKNA":"郵局-新竹東園郵局","LANDMARKAD":"1001801","ADDRESS":"新竹市忠孝路434巷3號","TEL":"(03)5263-320","COUNTYNAME":"新竹市","TOWNNAME":"東區","MARKTYPE":"994","Class":"4"}},{"type":"Feature","id":25537,"geometry":{"type":"Point","coordinates":[121.00464806678301,24.779924793260335]},"properties":{"OBJECTID":25537,"LANDMARKID":"1001800000378","LANDMARKCO":"408","LANDMARKNA":"郵局-新竹科學園郵局","LANDMARKAD":"1001801","ADDRESS":"新竹市工業東二路2-1號","TEL":"(03)5783-898","COUNTYNAME":"新竹市","TOWNNAME":"東區","MARKTYPE":"994","Class":"4"}},{"type":"Feature","id":25538,"geometry":{"type":"Point","coordinates":[120.96731317211491,24.787947950037871]},"properties":{"OBJECTID":25538,"LANDMARKID":"1001800000379","LANDMARKCO":"408","LANDMARKNA":"郵局-新竹南大路郵局","LANDMARKAD":"1001801","ADDRESS":"新竹市南大路621號","TEL":"(03)5257-104","COUNTYNAME":"新竹市","TOWNNAME":"東區","MARKTYPE":"994","Class":"4"}},{"type":"Feature","id":25539,"geometry":{"type":"Point","coordinates":[120.99415438377623,24.800853293601335]},"properties":{"OBJECTID":25539,"LANDMARKID":"1001800000380","LANDMARKCO":"408","LANDMARKNA":"郵局-新竹建中郵局","LANDMARKAD":"1001801","ADDRESS":"新竹市建中一路8號","TEL":"(03)5720-704","COUNTYNAME":"新竹市","TOWNNAME":"東區","MARKTYPE":"994","Class":"4"}},{"type":"Feature","id":25540,"geometry":{"type":"Point","coordinates":[120.99788598062766,24.787240087591435]},"properties":{"OBJECTID":25540,"LANDMARKID":"1001800000381","LANDMARKCO":"408","LANDMARKNA":"郵局-交通大學郵局","LANDMARKAD":"1001801","ADDRESS":"新竹市大學路1001號","TEL":"(03)5721-274","COUNTYNAME":"新竹市","TOWNNAME":"東區","MARKTYPE":"994","Class":"4"}},{"type":"Feature","id":25541,"geometry":{"type":"Point","coordinates":[120.98771370209862,24.797155619737811]},"properties":{"OBJECTID":25541,"LANDMARKID":"1001800000280","LANDMARKCO":"404","LANDMARKNA":"台灣自來水第三區管理處","LANDMARKAD":"1001801","ADDRESS":"新竹市博愛街1號","TEL":"03-5712140~3","COUNTYNAME":"新竹市","TOWNNAME":"東區","MARKTYPE":"994","Class":"4"}},{"type":"Feature","id":25542,"geometry":{"type":"Point","coordinates":[120.98771370209862,24.797155619737811]},"properties":{"OBJECTID":25542,"LANDMARKID":"1001800000281","LANDMARKCO":"404","LANDMARKNA":"台灣自來水新竹服務所","LANDMARKAD":"1001801","ADDRESS":"新竹市博愛街1號","TEL":"03-5714321","COUNTYNAME":"新竹市","TOWNNAME":"東區","MARKTYPE":"994","Class":"4"}},{"type":"Feature","id":25543,"geometry":{"type":"Point","coordinates":[121.00160043463518,24.802765421311804]},"properties":{"OBJECTID":25543,"LANDMARKID":"1001800000282","LANDMARKCO":"404","LANDMARKNA":"台灣自來水新竹給水廠","LANDMARKAD":"1001801","ADDRESS":"新竹市東美路91巷100號","TEL":"03-5733523","COUNTYNAME":"新竹市","TOWNNAME":"東區","MARKTYPE":"994","Class":"4"}},{"type":"Feature","id":25544,"geometry":{"type":"Point","coordinates":[120.98790458287272,24.795073524130927]},"properties":{"OBJECTID":25544,"LANDMARKID":"1001800000283","LANDMARKCO":"404","LANDMARKNA":"台灣省自來水新竹給水廠","LANDMARKAD":"1001801","ADDRESS":"新竹市東區東美路91巷100號","TEL":" ","COUNTYNAME":"新竹市","TOWNNAME":"東區","MARKTYPE":"994","Class":"4"}},{"type":"Feature","id":25545,"geometry":{"type":"Point","coordinates":[120.99007213079518,24.798306431937775]},"properties":{"OBJECTID":25545,"LANDMARKID":"1001800000284","LANDMARKCO":"404","LANDMARKNA":"台灣省自來水第三區新竹苗栗管理處","LANDMARKAD":"1001801","ADDRESS":"新竹市博愛街1號","TEL":" ","COUNTYNAME":"新竹市","TOWNNAME":"東區","MARKTYPE":"994","Class":"4"}},{"type":"Feature","id":25546,"geometry":{"type":"Point","coordinates":[120.99007335419253,24.798307605740384]},"properties":{"OBJECTID":25546,"LANDMARKID":"1001800000285","LANDMARKCO":"404","LANDMARKNA":"台灣省自來水新竹服務所","LANDMARKAD":"1001801","ADDRESS":"新竹市博愛街1號","TEL":" ","COUNTYNAME":"新竹市","TOWNNAME":"東區","MARKTYPE":"994","Class":"4"}},{"type":"Feature","id":25547,"geometry":{"type":"Point","coordinates":[120.97286305762402,24.803006063802428]},"properties":{"OBJECTID":25547,"LANDMARKID":"1001800000279","LANDMARKCO":"403","LANDMARKNA":"台灣電力公司新竹區營業處","LANDMARKAD":"1001801","ADDRESS":"新竹市東區中華路二段400號","TEL":" ","COUNTYNAME":"新竹市","TOWNNAME":"東區","MARKTYPE":"994","Class":"4"}},{"type":"Feature","id":25548,"geometry":{"type":"Point","coordinates":[120.97212990713096,24.772687687242005]},"properties":{"OBJECTID":25548,"LANDMARKID":"1001800000339","LANDMARKCO":"406","LANDMARKNA":"靈隱寺公園","LANDMARKAD":"1001801","ADDRESS":"新竹市東區","TEL":" ","COUNTYNAME":"新竹市","TOWNNAME":"東區","MARKTYPE":"994","Class":"4"}},{"type":"Feature","id":25549,"geometry":{"type":"Point","coordinates":[121.00454771493149,24.785057981455264]},"properties":{"OBJECTID":25549,"LANDMARKID":"1001800000340","LANDMARKCO":"406","LANDMARKNA":"苗圃公園","LANDMARKAD":"1001801","ADDRESS":"新竹市東區","TEL":" ","COUNTYNAME":"新竹市","TOWNNAME":"東區","MARKTYPE":"994","Class":"4"}},{"type":"Feature","id":25550,"geometry":{"type":"Point","coordinates":[120.97307093224526,24.807937570135678]},"properties":{"OBJECTID":25550,"LANDMARKID":"1001800000341","LANDMARKCO":"406","LANDMARKNA":"中央公園","LANDMARKAD":"1001801","ADDRESS":"新竹市東區","TEL":" ","COUNTYNAME":"新竹市","TOWNNAME":"東區","MARKTYPE":"994","Class":"4"}},{"type":"Feature","id":25551,"geometry":{"type":"Point","coordinates":[120.98092121901064,24.811568097104484]},"properties":{"OBJECTID":25551,"LANDMARKID":"1001800000342","LANDMARKCO":"406","LANDMARKNA":"三民公園","LANDMARKAD":"1001801","ADDRESS":"新竹市東區","TEL":" ","COUNTYNAME":"新竹市","TOWNNAME":"東區","MARKTYPE":"994","Class":"4"}},{"type":"Feature","id":25552,"geometry":{"type":"Point","coordinates":[120.9796484238679,24.800819754624118]},"properties":{"OBJECTID":25552,"LANDMARKID":"1001800000343","LANDMARKCO":"406","LANDMARKNA":"中山公園","LANDMARKAD":"1001801","ADDRESS":"新竹市東區","TEL":" ","COUNTYNAME":"新竹市","TOWNNAME":"東區","MARKTYPE":"994","Class":"4"}},{"type":"Feature","id":25553,"geometry":{"type":"Point","coordinates":[120.98307256419638,24.803811135078298]},"properties":{"OBJECTID":25553,"LANDMARKID":"1001800000344","LANDMARKCO":"406","LANDMARKNA":"忠孝公園","LANDMARKAD":"1001801","ADDRESS":"新竹市東區","TEL":" ","COUNTYNAME":"新竹市","TOWNNAME":"東區","MARKTYPE":"994","Class":"4"}},{"type":"Feature","id":25554,"geometry":{"type":"Point","coordinates":[120.97831972486722,24.807666676875385]},"properties":{"OBJECTID":25554,"LANDMARKID":"1001800000345","LANDMARKCO":"406","LANDMARKNA":"民族公園","LANDMARKAD":"1001801","ADDRESS":"新竹市東區","TEL":" ","COUNTYNAME":"新竹市","TOWNNAME":"東區","MARKTYPE":"994","Class":"4"}},{"type":"Feature","id":25555,"geometry":{"type":"Point","coordinates":[120.98588285866079,24.802762829987298]},"properties":{"OBJECTID":25555,"LANDMARKID":"1001800000346","LANDMARKCO":"406","LANDMARKNA":"光復公園","LANDMARKAD":"1001801","ADDRESS":"新竹市東區","TEL":" ","COUNTYNAME":"新竹市","TOWNNAME":"東區","MARKTYPE":"994","Class":"4"}},{"type":"Feature","id":25556,"geometry":{"type":"Point","coordinates":[120.96251189683068,24.794705477631187]},"properties":{"OBJECTID":25556,"LANDMARKID":"1001800000347","LANDMARKCO":"406","LANDMARKNA":"新興公園","LANDMARKAD":"1001801","ADDRESS":"新竹市東區","TEL":" ","COUNTYNAME":"新竹市","TOWNNAME":"東區","MARKTYPE":"994","Class":"4"}},{"type":"Feature","id":25557,"geometry":{"type":"Point","coordinates":[121.01120382244025,24.779681515087134]},"properties":{"OBJECTID":25557,"LANDMARKID":"1001800000348","LANDMARKCO":"406","LANDMARKNA":"綠地公園","LANDMARKAD":"1001801","ADDRESS":"新竹市東區","TEL":" ","COUNTYNAME":"新竹市","TOWNNAME":"東區","MARKTYPE":"994","Class":"4"}},{"type":"Feature","id":25558,"geometry":{"type":"Point","coordinates":[120.97177955176141,24.774409474793796]},"properties":{"OBJECTID":25558,"LANDMARKID":"1001800000349","LANDMARKCO":"406","LANDMARKNA":"榕樹公園","LANDMARKAD":"1001801","ADDRESS":"新竹市東區","TEL":" ","COUNTYNAME":"新竹市","TOWNNAME":"東區","MARKTYPE":"994","Class":"4"}},{"type":"Feature","id":25559,"geometry":{"type":"Point","coordinates":[121.0088326494221,24.781772721227167]},"properties":{"OBJECTID":25559,"LANDMARKID":"1001800000350","LANDMARKCO":"406","LANDMARKNA":"民享公園","LANDMARKAD":"1001801","ADDRESS":"新竹市東區","TEL":" ","COUNTYNAME":"新竹市","TOWNNAME":"東區","MARKTYPE":"994","Class":"4"}},{"type":"Feature","id":25584,"geometry":{"type":"Point","coordinates":[120.97711668039558,24.814684259883652]},"properties":{"OBJECTID":25584,"LANDMARKID":"1001800000067","LANDMARKCO":"107","LANDMARKNA":"新竹市警察局文華派出所","LANDMARKAD":"1001801","ADDRESS":"新竹市經國路一段488號","TEL":"035-332120","COUNTYNAME":"新竹市","TOWNNAME":"東區","MARKTYPE":"991","Class":"1"}},{"type":"Feature","id":25585,"geometry":{"type":"Point","coordinates":[121.00786764668008,24.789031793495528]},"properties":{"OBJECTID":25585,"LANDMARKID":"1001800000068","LANDMARKCO":"107","LANDMARKNA":"新竹市警察局埔頂派出所","LANDMARKAD":"1001801","ADDRESS":"新竹市光復路一段568號","TEL":"035-773999","COUNTYNAME":"新竹市","TOWNNAME":"東區","MARKTYPE":"991","Class":"1"}},{"type":"Feature","id":25586,"geometry":{"type":"Point","coordinates":[120.98600763929272,24.801609238436193]},"properties":{"OBJECTID":25586,"LANDMARKID":"1001800000069","LANDMARKCO":"107","LANDMARKNA":"新竹市警察局東勢派出所","LANDMARKAD":"1001801","ADDRESS":"新竹市光復路二段798號","TEL":"035-728758","COUNTYNAME":"新竹市","TOWNNAME":"東區","MARKTYPE":"991","Class":"1"}},{"type":"Feature","id":25587,"geometry":{"type":"Point","coordinates":[120.96981958618186,24.804122565802679]},"properties":{"OBJECTID":25587,"LANDMARKID":"1001800000070","LANDMARKCO":"107","LANDMARKNA":"新竹市警察局東門派出所","LANDMARKAD":"1001801","ADDRESS":"新竹市東門街87號","TEL":"035-222607","COUNTYNAME":"新竹市","TOWNNAME":"東區","MARKTYPE":"991","Class":"1"}},{"type":"Feature","id":25588,"geometry":{"type":"Point","coordinates":[120.96640039821783,24.774052560588615]},"properties":{"OBJECTID":25588,"LANDMARKID":"1001800000071","LANDMARKCO":"107","LANDMARKNA":"新竹市警察局青草湖派出所","LANDMARKAD":"1001801","ADDRESS":"新竹市明湖路666號","TEL":"035-201563","COUNTYNAME":"新竹市","TOWNNAME":"東區","MARKTYPE":"991","Class":"1"}},{"type":"Feature","id":25589,"geometry":{"type":"Point","coordinates":[120.96756387456202,24.800236837966949]},"properties":{"OBJECTID":25589,"LANDMARKID":"1001800000072","LANDMARKCO":"107","LANDMARKNA":"新竹市警察局南門派出所","LANDMARKAD":"1001801","ADDRESS":"新竹市勝利路85號","TEL":"03-5222224","COUNTYNAME":"新竹市","TOWNNAME":"東區","MARKTYPE":"991","Class":"1"}},{"type":"Feature","id":25590,"geometry":{"type":"Point","coordinates":[120.97318200309758,24.805162589834087]},"properties":{"OBJECTID":25590,"LANDMARKID":"1001800000052","LANDMARKCO":"106","LANDMARKNA":"新竹市東區戶政事務所","LANDMARKAD":"1001801","ADDRESS":"新竹市民族路40之1號","TEL":"035-226020","COUNTYNAME":"新竹市","TOWNNAME":"東區","MARKTYPE":"991","Class":"1"}},{"type":"Feature","id":25591,"geometry":{"type":"Point","coordinates":[120.98283918991869,24.810835347966943]},"properties":{"OBJECTID":25591,"LANDMARKID":"1001800000013","LANDMARKCO":"101","LANDMARKNA":"新竹區監理所新竹市監理站","LANDMARKAD":"1001801","ADDRESS":"新竹市自由路10號","TEL":"035-327101","COUNTYNAME":"新竹市","TOWNNAME":"東區","MARKTYPE":"991","Class":"1"}},{"type":"Feature","id":25592,"geometry":{"type":"Point","coordinates":[120.96988125527773,24.806234565110184]},"properties":{"OBJECTID":25592,"LANDMARKID":"1001800000046","LANDMARKCO":"104","LANDMARKNA":"北區國稅局新竹市分局中央路辦","LANDMARKAD":"1001801","ADDRESS":"新竹市中央路112號6樓","TEL":"03-5336060","COUNTYNAME":"新竹市","TOWNNAME":"東區","MARKTYPE":"991","Class":"1"}},{"type":"Feature","id":25593,"geometry":{"type":"Point","coordinates":[121.00468956360648,24.7821142372003]},"properties":{"OBJECTID":25593,"LANDMARKID":"1001800000024","LANDMARKCO":"101","LANDMARKNA":"科學工業園區管理局","LANDMARKAD":"1001801","ADDRESS":"新竹市新安路2號","TEL":"035-773311","COUNTYNAME":"新竹市","TOWNNAME":"東區","MARKTYPE":"991","Class":"1"}},{"type":"Feature","id":25594,"geometry":{"type":"Point","coordinates":[121.01148028592003,24.775615158322193]},"properties":{"OBJECTID":25594,"LANDMARKID":"1001800000048","LANDMARKCO":"104","LANDMARKNA":"關稅總局台北關稅局新竹科學園區","LANDMARKAD":"1001801","ADDRESS":"新竹市工業東七路8號1樓","TEL":"035-639511","COUNTYNAME":"新竹市","TOWNNAME":"東區","MARKTYPE":"991","Class":"1"}},{"type":"Feature","id":25595,"geometry":{"type":"Point","coordinates":[120.99014855684995,24.797881823372684]},"properties":{"OBJECTID":25595,"LANDMARKID":"1001800000014","LANDMARKCO":"101","LANDMARKNA":"經濟部專業人員研究中心","LANDMARKAD":"1001801","ADDRESS":"新竹市光復路二段3號1樓","TEL":"035-714125","COUNTYNAME":"新竹市","TOWNNAME":"東區","MARKTYPE":"991","Class":"1"}},{"type":"Feature","id":25596,"geometry":{"type":"Point","coordinates":[121.00261864508519,24.799149814300584]},"properties":{"OBJECTID":25596,"LANDMARKID":"1001800000015","LANDMARKCO":"101","LANDMARKNA":"國軍退除役官兵輔導委員會","LANDMARKAD":"1001801","ADDRESS":"新竹市建功二路61號","TEL":"03-5750666","COUNTYNAME":"新竹市","TOWNNAME":"東區","MARKTYPE":"991","Class":"1"}},{"type":"Feature","id":25597,"geometry":{"type":"Point","coordinates":[120.99643944034743,24.782043140630311]},"properties":{"OBJECTID":25597,"LANDMARKID":"1001800000016","LANDMARKCO":"101","LANDMARKNA":"國家科學委員會精密儀器發展中","LANDMARKAD":"1001801","ADDRESS":"新竹市研發六路20號","TEL":"035-779911","COUNTYNAME":"新竹市","TOWNNAME":"東區","MARKTYPE":"991","Class":"1"}},{"type":"Feature","id":25598,"geometry":{"type":"Point","coordinates":[120.97705310849885,24.814858221458707]},"properties":{"OBJECTID":25598,"LANDMARKID":"1001800000031","LANDMARKCO":"103","LANDMARKNA":"新竹市勞工育樂中心","LANDMARKAD":"1001801","ADDRESS":"新竹市田美三街2號2樓","TEL":"035-338672","COUNTYNAME":"新竹市","TOWNNAME":"東區","MARKTYPE":"991","Class":"1"}},{"type":"Feature","id":25599,"geometry":{"type":"Point","coordinates":[120.97036441729773,24.811377095192025]},"properties":{"OBJECTID":25599,"LANDMARKID":"1001800000017","LANDMARKCO":"101","LANDMARKNA":"國有財產局台灣中區辦事處新竹分處","LANDMARKAD":"1001801","ADDRESS":"新竹市北大路94號","TEL":"03-5422104","COUNTYNAME":"新竹市","TOWNNAME":"東區","MARKTYPE":"991","Class":"1"}},{"type":"Feature","id":25600,"geometry":{"type":"Point","coordinates":[120.97692473999801,24.807932785271646]},"properties":{"OBJECTID":25600,"LANDMARKID":"1001800000018","LANDMARKCO":"101","LANDMARKNA":"農業委員會動植物防疫檢疫局","LANDMARKAD":"1001801","ADDRESS":"新竹市民族路111號","TEL":"03-5331378","COUNTYNAME":"新竹市","TOWNNAME":"東區","MARKTYPE":"991","Class":"1"}},{"type":"Feature","id":25583,"geometry":{"type":"Point","coordinates":[120.98600763929272,24.801609238436193]},"properties":{"OBJECTID":25583,"LANDMARKID":"1001800000066","LANDMARKCO":"107","LANDMARKNA":"新竹市警察局第二分局","LANDMARKAD":"1001801","ADDRESS":"新竹市光復路二段798號","TEL":"035-728750","COUNTYNAME":"新竹市","TOWNNAME":"東區","MARKTYPE":"991","Class":"1"}},{"type":"Feature","id":25582,"geometry":{"type":"Point","coordinates":[120.97747269051349,24.814707570712159]},"properties":{"OBJECTID":25582,"LANDMARKID":"1001800000065","LANDMARKCO":"107","LANDMARKNA":"新竹市消防局消防局三民消防分局","LANDMARKAD":"1001801","ADDRESS":"新竹市經國路一段486號","TEL":"03-5437807","COUNTYNAME":"新竹市","TOWNNAME":"東區","MARKTYPE":"991","Class":"1"}},{"type":"Feature","id":25581,"geometry":{"type":"Point","coordinates":[121.00786764668008,24.789031793495528]},"properties":{"OBJECTID":25581,"LANDMARKID":"1001800000064","LANDMARKCO":"107","LANDMARKNA":"嘉義縣消防局消防局埔頂消防分隊","LANDMARKAD":"1001801","ADDRESS":"新竹市光復路一段568號","TEL":"035-790102","COUNTYNAME":"新竹市","TOWNNAME":"東區","MARKTYPE":"991","Class":"1"}},{"type":"Feature","id":25580,"geometry":{"type":"Point","coordinates":[120.98275721603095,24.802266539507279]},"properties":{"OBJECTID":25580,"LANDMARKID":"1001800000063","LANDMARKCO":"107","LANDMARKNA":"新竹市消防局消防局光復消防分局","LANDMARKAD":"1001801","ADDRESS":"新竹市光復路二段475號","TEL":"03-5234918","COUNTYNAME":"新竹市","TOWNNAME":"東區","MARKTYPE":"991","Class":"1"}},{"type":"Feature","id":25579,"geometry":{"type":"Point","coordinates":[121.00786764668008,24.789031793495528]},"properties":{"OBJECTID":25579,"LANDMARKID":"1001800000062","LANDMARKCO":"107","LANDMARKNA":"嘉義縣消防局消防局第二消防大隊","LANDMARKAD":"1001801","ADDRESS":"新竹市光復路一段568號3樓","TEL":"035-630262","COUNTYNAME":"新竹市","TOWNNAME":"東區","MARKTYPE":"991","Class":"1"}},{"type":"Feature","id":25578,"geometry":{"type":"Point","coordinates":[120.99640546239132,24.79994538927544]},"properties":{"OBJECTID":25578,"LANDMARKID":"1001800000012","LANDMARKCO":"101","LANDMARKNA":"新竹憲兵隊","LANDMARKAD":"1001801","ADDRESS":"新竹市建功一路55號","TEL":"035-750269","COUNTYNAME":"新竹市","TOWNNAME":"東區","MARKTYPE":"991","Class":"1"}},{"type":"Feature","id":25577,"geometry":{"type":"Point","coordinates":[120.97341341125787,24.805285913297215]},"properties":{"OBJECTID":25577,"LANDMARKID":"1001800000086","LANDMARKCO":"108","LANDMARKNA":"新竹市東區區公所","LANDMARKAD":"1001801","ADDRESS":"新竹市育賢里民族路40號","TEL":"035-218231","COUNTYNAME":"新竹市","TOWNNAME":"東區","MARKTYPE":"991","Class":"1"}},{"type":"Feature","id":25576,"geometry":{"type":"Point","coordinates":[120.97341341125787,24.805285913297215]},"properties":{"OBJECTID":25576,"LANDMARKID":"1001800000032","LANDMARKCO":"103","LANDMARKNA":"新竹市東區衛生所","LANDMARKAD":"1001801","ADDRESS":"新竹市民族路40號之2","TEL":"03-5236158","COUNTYNAME":"新竹市","TOWNNAME":"東區","MARKTYPE":"991","Class":"1"}},{"type":"Feature","id":25575,"geometry":{"type":"Point","coordinates":[121.02099551872513,24.781620615712672]},"properties":{"OBJECTID":25575,"LANDMARKID":"1001800000061","LANDMARKCO":"107","LANDMARKNA":"新竹市警察局關東橋派出所","LANDMARKAD":"1001801","ADDRESS":"新竹市介壽路200號","TEL":"035-775758","COUNTYNAME":"新竹市","TOWNNAME":"東區","MARKTYPE":"991","Class":"1"}},{"type":"Feature","id":25574,"geometry":{"type":"Point","coordinates":[120.98515898449746,24.814872125570538]},"properties":{"OBJECTID":25574,"LANDMARKID":"1001800000291","LANDMARKCO":"405","LANDMARKNA":"台亞加油站-經國路一站（台塑）","LANDMARKAD":"1001801","ADDRESS":"新竹市經國路一段243號","TEL":"(03)535-7595","COUNTYNAME":"新竹市","TOWNNAME":"東區","MARKTYPE":"994","Class":"4"}},{"type":"Feature","id":25573,"geometry":{"type":"Point","coordinates":[120.9800694937378,24.803136595422583]},"properties":{"OBJECTID":25573,"LANDMARKID":"1001800000290","LANDMARKCO":"405","LANDMARKNA":"台亞加油站-公園站（台塑）","LANDMARKAD":"1001801","ADDRESS":"新竹市光復路二段585號","TEL":"(03)523-9769","COUNTYNAME":"新竹市","TOWNNAME":"東區","MARKTYPE":"994","Class":"4"}},{"type":"Feature","id":25572,"geometry":{"type":"Point","coordinates":[120.98543186679417,24.787091801581262]},"properties":{"OBJECTID":25572,"LANDMARKID":"1001800000289","LANDMARKCO":"405","LANDMARKNA":"全國加油站-園區站（台塑）","LANDMARKAD":"1001801","ADDRESS":"新竹市寶山路346號","TEL":"03-5626828","COUNTYNAME":"新竹市","TOWNNAME":"東區","MARKTYPE":"994","Class":"4"}},{"type":"Feature","id":25571,"geometry":{"type":"Point","coordinates":[120.96779727725777,24.785694552543987]},"properties":{"OBJECTID":25571,"LANDMARKID":"1001800000288","LANDMARKCO":"405","LANDMARKNA":"全國加油站-明湖站（台塑）","LANDMARKAD":"1001801","ADDRESS":"新竹市明湖路361號","TEL":"03-5207331","COUNTYNAME":"新竹市","TOWNNAME":"東區","MARKTYPE":"994","Class":"4"}},{"type":"Feature","id":25570,"geometry":{"type":"Point","coordinates":[120.97442363981349,24.813784392915185]},"properties":{"OBJECTID":25570,"LANDMARKID":"1001800000287","LANDMARKCO":"405","LANDMARKNA":"全國加油站-民生站（台塑）","LANDMARKAD":"1001801","ADDRESS":"新竹市民生路308號","TEL":"035-326861","COUNTYNAME":"新竹市","TOWNNAME":"東區","MARKTYPE":"994","Class":"4"}},{"type":"Feature","id":25569,"geometry":{"type":"Point","coordinates":[121.01292728872689,24.795489005423129]},"properties":{"OBJECTID":25569,"LANDMARKID":"1001800000286","LANDMARKCO":"405","LANDMARKNA":"全國加油站-新竹交流道站（台塑）","LANDMARKAD":"1001801","ADDRESS":"新竹市公道五路二段1號","TEL":"03-5679076","COUNTYNAME":"新竹市","TOWNNAME":"東區","MARKTYPE":"994","Class":"4"}},{"type":"Feature","id":25568,"geometry":{"type":"Point","coordinates":[120.9718560973067,24.802560867010698]},"properties":{"OBJECTID":25568,"LANDMARKID":"1001800000359","LANDMARKCO":"407","LANDMARKNA":"誠品Eslite","LANDMARKAD":"1001801","ADDRESS":"新竹市民族路2號11F","TEL":"03-525-4538~41","COUNTYNAME":"新竹市","TOWNNAME":"東區","MARKTYPE":"994","Class":"4"}},{"type":"Feature","id":25567,"geometry":{"type":"Point","coordinates":[120.97050876136719,24.80298406156945]},"properties":{"OBJECTID":25567,"LANDMARKID":"1001800000358","LANDMARKCO":"407","LANDMARKNA":"誠品Eslite","LANDMARKAD":"1001801","ADDRESS":"新竹市信義街68號B1","TEL":"03-527-8907","COUNTYNAME":"新竹市","TOWNNAME":"東區","MARKTYPE":"994","Class":"4"}},{"type":"Feature","id":25566,"geometry":{"type":"Point","coordinates":[120.97615837577879,24.80971298761893]},"properties":{"OBJECTID":25566,"LANDMARKID":"1001800000357","LANDMARKCO":"407","LANDMARKNA":"風城購物中心","LANDMARKAD":"1001801","ADDRESS":"新竹市中央路233號","TEL":"03-5155252","COUNTYNAME":"新竹市","TOWNNAME":"東區","MARKTYPE":"994","Class":"4"}},{"type":"Feature","id":25565,"geometry":{"type":"Point","coordinates":[120.97763395987225,24.806331866622092]},"properties":{"OBJECTID":25565,"LANDMARKID":"1001800000356","LANDMARKCO":"407","LANDMARKNA":"新光三越","LANDMARKAD":"1001801","ADDRESS":"新竹市中華路二段190號","TEL":"515-1888","COUNTYNAME":"新竹市","TOWNNAME":"東區","MARKTYPE":"994","Class":"4"}},{"type":"Feature","id":25564,"geometry":{"type":"Point","coordinates":[120.96521032094074,24.802185976159059]},"properties":{"OBJECTID":25564,"LANDMARKID":"1001800000355","LANDMARKCO":"407","LANDMARKNA":"遠東百貨","LANDMARKAD":"1001801","ADDRESS":"新竹市西大路323號","TEL":"03-5233121","COUNTYNAME":"新竹市","TOWNNAME":"東區","MARKTYPE":"994","Class":"4"}},{"type":"Feature","id":25563,"geometry":{"type":"Point","coordinates":[120.9718560973067,24.802560867010698]},"properties":{"OBJECTID":25563,"LANDMARKID":"1001800000354","LANDMARKCO":"407","LANDMARKNA":"太平洋SOGO百貨-新竹店","LANDMARKAD":"1001801","ADDRESS":"新竹市民族路2號","TEL":"03-5227000","COUNTYNAME":"新竹市","TOWNNAME":"東區","MARKTYPE":"994","Class":"4"}},{"type":"Feature","id":25562,"geometry":{"type":"Point","coordinates":[121.01618547078601,24.788788049913389]},"properties":{"OBJECTID":25562,"LANDMARKID":"1001800000353","LANDMARKCO":"406","LANDMARKNA":"長春公園","LANDMARKAD":"1001801","ADDRESS":"新竹市東區","TEL":" ","COUNTYNAME":"新竹市","TOWNNAME":"東區","MARKTYPE":"994","Class":"4"}},{"type":"Feature","id":25561,"geometry":{"type":"Point","coordinates":[120.96522841843284,24.797579546723856]},"properties":{"OBJECTID":25561,"LANDMARKID":"1001800000352","LANDMARKCO":"406","LANDMARKNA":"興學公園","LANDMARKAD":"1001801","ADDRESS":"新竹市東區","TEL":" ","COUNTYNAME":"新竹市","TOWNNAME":"東區","MARKTYPE":"994","Class":"4"}},{"type":"Feature","id":25560,"geometry":{"type":"Point","coordinates":[120.97082667043952,24.8063517037221]},"properties":{"OBJECTID":25560,"LANDMARKID":"1001800000351","LANDMARKCO":"406","LANDMARKNA":"親水公園","LANDMARKAD":"1001801","ADDRESS":"新竹市東區","TEL":" ","COUNTYNAME":"新竹市","TOWNNAME":"東區","MARKTYPE":"994","Class":"4"}}]}