{"type":"FeatureCollection","features":[{"type":"Feature","id":27201,"geometry":{"type":"Point","coordinates":[120.54473761878639,24.075553022043987]},"properties":{"OBJECTID":27201,"LANDMARKID":"1000700000086","LANDMARKCO":"103","LANDMARKNA":"彰化縣政府","LANDMARKAD":"1000701","ADDRESS":"彰化縣彰化市中山路二段416號","TEL":"04-7222151","COUNTYNAME":"彰化縣","TOWNNAME":"彰化市","MARKTYPE":"991","Class":"1"}},{"type":"Feature","id":27202,"geometry":{"type":"Point","coordinates":[120.54152802159051,24.070446959956943]},"properties":{"OBJECTID":27202,"LANDMARKID":"1000700000100","LANDMARKCO":"104","LANDMARKNA":"中區國稅局彰化縣分局","LANDMARKAD":"1000701","ADDRESS":"彰化市中山路2段187號","TEL":"04-7274325","COUNTYNAME":"彰化縣","TOWNNAME":"彰化市","MARKTYPE":"991","Class":"1"}},{"type":"Feature","id":27227,"geometry":{"type":"Point","coordinates":[120.56289672127814,24.076214114241985]},"properties":{"OBJECTID":27227,"LANDMARKID":"1000700000293","LANDMARKCO":"202","LANDMARKNA":"私立培元高中","LANDMARKAD":"1000701","ADDRESS":"彰化縣彰化市卦山里卦山路15巷1號","TEL":"04-7246366","COUNTYNAME":"彰化縣","TOWNNAME":"彰化市","MARKTYPE":"992","Class":"2"}},{"type":"Feature","id":27228,"geometry":{"type":"Point","coordinates":[120.51850610956686,24.058743745422099]},"properties":{"OBJECTID":27228,"LANDMARKID":"1000700000294","LANDMARKCO":"202","LANDMARKNA":"私立正德高中","LANDMARKAD":"1000701","ADDRESS":"彰化縣彰化市莿桐里彰水路145號","TEL":"04-7524109","COUNTYNAME":"彰化縣","TOWNNAME":"彰化市","MARKTYPE":"992","Class":"2"}},{"type":"Feature","id":27229,"geometry":{"type":"Point","coordinates":[120.55597369746069,24.082589984093207]},"properties":{"OBJECTID":27229,"LANDMARKID":"1000700000295","LANDMARKCO":"202","LANDMARKNA":"國立彰化師大附屬高工","LANDMARKAD":"1000701","ADDRESS":"彰化縣彰化市工校街1號","TEL":"04-7252541","COUNTYNAME":"彰化縣","TOWNNAME":"彰化市","MARKTYPE":"992","Class":"2"}},{"type":"Feature","id":27230,"geometry":{"type":"Point","coordinates":[120.55264874860453,24.072829591271635]},"properties":{"OBJECTID":27230,"LANDMARKID":"1000700000296","LANDMARKCO":"202","LANDMARKNA":"國立彰化高商","LANDMARKAD":"1000701","ADDRESS":"彰化縣彰化市南郭路一段326號","TEL":"04-7225102","COUNTYNAME":"彰化縣","TOWNNAME":"彰化市","MARKTYPE":"992","Class":"2"}},{"type":"Feature","id":27231,"geometry":{"type":"Point","coordinates":[120.53525974545825,24.070672392220011]},"properties":{"OBJECTID":27231,"LANDMARKID":"1000700000494","LANDMARKCO":"203","LANDMARKNA":"縣立彰安國中","LANDMARKAD":"1000701","ADDRESS":"彰化縣彰化市中正路二段530號","TEL":"04-7236117","COUNTYNAME":"彰化縣","TOWNNAME":"彰化市","MARKTYPE":"992","Class":"2"}},{"type":"Feature","id":27232,"geometry":{"type":"Point","coordinates":[120.54841674241335,24.09169569540159]},"properties":{"OBJECTID":27232,"LANDMARKID":"1000700000495","LANDMARKCO":"203","LANDMARKNA":"縣立彰泰國中","LANDMARKAD":"1000701","ADDRESS":"彰化縣彰化市自強路357號","TEL":"04-7369676","COUNTYNAME":"彰化縣","TOWNNAME":"彰化市","MARKTYPE":"992","Class":"2"}},{"type":"Feature","id":27233,"geometry":{"type":"Point","coordinates":[120.55448585194355,24.078769571670907]},"properties":{"OBJECTID":27233,"LANDMARKID":"1000700000496","LANDMARKCO":"203","LANDMARKNA":"縣立彰化國中","LANDMARKAD":"1000701","ADDRESS":"彰化縣彰化市卦山路13號","TEL":"04-7222844","COUNTYNAME":"彰化縣","TOWNNAME":"彰化市","MARKTYPE":"992","Class":"2"}},{"type":"Feature","id":27234,"geometry":{"type":"Point","coordinates":[120.55046186125939,24.086153398744308]},"properties":{"OBJECTID":27234,"LANDMARKID":"1000700000497","LANDMARKCO":"203","LANDMARKNA":"縣立陽明國中","LANDMARKAD":"1000701","ADDRESS":"彰化縣彰化市長順街76號","TEL":"04-7222263","COUNTYNAME":"彰化縣","TOWNNAME":"彰化市","MARKTYPE":"992","Class":"2"}},{"type":"Feature","id":27235,"geometry":{"type":"Point","coordinates":[120.53820919016282,24.059511561574514]},"properties":{"OBJECTID":27235,"LANDMARKID":"1000700000498","LANDMARKCO":"203","LANDMARKNA":"縣立彰興國中","LANDMARKAD":"1000701","ADDRESS":"彰化縣彰化市埔西街107號","TEL":"04-7630743","COUNTYNAME":"彰化縣","TOWNNAME":"彰化市","MARKTYPE":"992","Class":"2"}},{"type":"Feature","id":27236,"geometry":{"type":"Point","coordinates":[120.58952541490854,24.080362141712587]},"properties":{"OBJECTID":27236,"LANDMARKID":"1000700000499","LANDMARKCO":"203","LANDMARKNA":"縣立彰德國中","LANDMARKAD":"1000701","ADDRESS":"彰化縣彰化市彰南路二段512巷97號","TEL":"04-7374461","COUNTYNAME":"彰化縣","TOWNNAME":"彰化市","MARKTYPE":"992","Class":"2"}},{"type":"Feature","id":27237,"geometry":{"type":"Point","coordinates":[120.59843893078954,24.07664074079517]},"properties":{"OBJECTID":27237,"LANDMARKID":"1000700000500","LANDMARKCO":"203","LANDMARKNA":"縣立聯興國小","LANDMARKAD":"1000701","ADDRESS":"彰化縣彰化市牛埔里一心南街208號","TEL":"04-7384340","COUNTYNAME":"彰化縣","TOWNNAME":"彰化市","MARKTYPE":"992","Class":"2"}},{"type":"Feature","id":27238,"geometry":{"type":"Point","coordinates":[120.53403963892758,24.058116783358074]},"properties":{"OBJECTID":27238,"LANDMARKID":"1000700000501","LANDMARKCO":"203","LANDMARKNA":"縣立南興國小","LANDMARKAD":"1000701","ADDRESS":"彰化縣彰化市南興里中山路一段213號","TEL":"04-7622827","COUNTYNAME":"彰化縣","TOWNNAME":"彰化市","MARKTYPE":"992","Class":"2"}},{"type":"Feature","id":27239,"geometry":{"type":"Point","coordinates":[120.54662130531089,24.081842739944889]},"properties":{"OBJECTID":27239,"LANDMARKID":"1000700000502","LANDMARKCO":"203","LANDMARKNA":"縣立中山國小","LANDMARKAD":"1000701","ADDRESS":"彰化縣彰化市中山路二段678號","TEL":"04-7222033","COUNTYNAME":"彰化縣","TOWNNAME":"彰化市","MARKTYPE":"992","Class":"2"}},{"type":"Feature","id":27240,"geometry":{"type":"Point","coordinates":[120.56852895860413,24.092097722222846]},"properties":{"OBJECTID":27240,"LANDMARKID":"1000700000503","LANDMARKCO":"203","LANDMARKNA":"縣立國聖國小","LANDMARKAD":"1000701","ADDRESS":"彰化縣彰化市國聖里中山路三段608號","TEL":"04-7321093","COUNTYNAME":"彰化縣","TOWNNAME":"彰化市","MARKTYPE":"992","Class":"2"}},{"type":"Feature","id":27241,"geometry":{"type":"Point","coordinates":[120.53515527924952,24.072474265099999]},"properties":{"OBJECTID":27241,"LANDMARKID":"1000700000504","LANDMARKCO":"203","LANDMARKNA":"縣立平和國小","LANDMARKAD":"1000701","ADDRESS":"彰化縣彰化市西安里中正路二段450號","TEL":"04-7222355","COUNTYNAME":"彰化縣","TOWNNAME":"彰化市","MARKTYPE":"992","Class":"2"}},{"type":"Feature","id":27242,"geometry":{"type":"Point","coordinates":[120.54307317161023,24.083824573386181]},"properties":{"OBJECTID":27242,"LANDMARKID":"1000700000505","LANDMARKCO":"203","LANDMARKNA":"縣立民生國小","LANDMARKAD":"1000701","ADDRESS":"彰化縣彰化市民生路338號","TEL":"04-7224122","COUNTYNAME":"彰化縣","TOWNNAME":"彰化市","MARKTYPE":"992","Class":"2"}},{"type":"Feature","id":27243,"geometry":{"type":"Point","coordinates":[120.54701818634705,24.071299236666729]},"properties":{"OBJECTID":27243,"LANDMARKID":"1000700000506","LANDMARKCO":"203","LANDMARKNA":"縣立南郭國小","LANDMARKAD":"1000701","ADDRESS":"彰化縣彰化市介壽里南校街19號","TEL":"04-7280366","COUNTYNAME":"彰化縣","TOWNNAME":"彰化市","MARKTYPE":"992","Class":"2"}},{"type":"Feature","id":27244,"geometry":{"type":"Point","coordinates":[120.55173711727454,24.093071556328649]},"properties":{"OBJECTID":27244,"LANDMARKID":"1000700000507","LANDMARKCO":"203","LANDMARKNA":"縣立泰和國小","LANDMARKAD":"1000701","ADDRESS":"彰化縣彰化市泰和路二段145巷1號","TEL":"04-7222433","COUNTYNAME":"彰化縣","TOWNNAME":"彰化市","MARKTYPE":"992","Class":"2"}},{"type":"Feature","id":27226,"geometry":{"type":"Point","coordinates":[120.54347741012739,24.081183934515884]},"properties":{"OBJECTID":27226,"LANDMARKID":"1000700000292","LANDMARKCO":"202","LANDMARKNA":"國立彰化女中","LANDMARKAD":"1000701","ADDRESS":"彰化縣彰化市光復路62號","TEL":"04-7240042","COUNTYNAME":"彰化縣","TOWNNAME":"彰化市","MARKTYPE":"992","Class":"2"}},{"type":"Feature","id":27225,"geometry":{"type":"Point","coordinates":[120.55152589729005,24.071054816787317]},"properties":{"OBJECTID":27225,"LANDMARKID":"1000700000291","LANDMARKCO":"202","LANDMARKNA":"國立彰化高中","LANDMARKAD":"1000701","ADDRESS":"彰化縣彰化市介壽里中興路78號","TEL":"04-7223912","COUNTYNAME":"彰化縣","TOWNNAME":"彰化市","MARKTYPE":"992","Class":"2"}},{"type":"Feature","id":27224,"geometry":{"type":"Point","coordinates":[120.53161042061063,24.083774203502724]},"properties":{"OBJECTID":27224,"LANDMARKID":"1000700000435","LANDMARKCO":"203","LANDMARKNA":"縣立忠孝國小","LANDMARKAD":"1000701","ADDRESS":"彰化縣彰化市西勢里忠勢巷8之21號","TEL":"04-7523944","COUNTYNAME":"彰化縣","TOWNNAME":"彰化市","MARKTYPE":"992","Class":"2"}},{"type":"Feature","id":27223,"geometry":{"type":"Point","coordinates":[120.52777615311021,24.072661758251659]},"properties":{"OBJECTID":27223,"LANDMARKID":"1000700000298","LANDMARKCO":"202","LANDMARKNA":"私立精誠高中","LANDMARKAD":"1000701","ADDRESS":"彰化縣彰化市中華西路250巷42號","TEL":"04-7622790","COUNTYNAME":"彰化縣","TOWNNAME":"彰化市","MARKTYPE":"992","Class":"2"}},{"type":"Feature","id":27222,"geometry":{"type":"Point","coordinates":[120.5450877312899,24.078713121806203]},"properties":{"OBJECTID":27222,"LANDMARKID":"1000700000562","LANDMARKCO":"205","LANDMARKNA":"彰化縣文化局文物陳列室","LANDMARKAD":"1000701","ADDRESS":"彰化縣彰化市中山路二段500號","TEL":" ","COUNTYNAME":"彰化縣","TOWNNAME":"彰化市","MARKTYPE":"992","Class":"2"}},{"type":"Feature","id":27221,"geometry":{"type":"Point","coordinates":[120.53898880003504,24.080829307121206]},"properties":{"OBJECTID":27221,"LANDMARKID":"1000700000564","LANDMARKCO":"206","LANDMARKNA":"紅葉鄉土童玩館","LANDMARKAD":"1000701","ADDRESS":"彰化市長安街100巷5號","TEL":" ","COUNTYNAME":"彰化縣","TOWNNAME":"彰化市","MARKTYPE":"992","Class":"2"}},{"type":"Feature","id":27220,"geometry":{"type":"Point","coordinates":[120.54734039290649,24.083953060456036]},"properties":{"OBJECTID":27220,"LANDMARKID":"1000700000563","LANDMARKCO":"206","LANDMARKNA":"賴和紀念館","LANDMARKAD":"1000701","ADDRESS":"彰化市中正路一段242號四樓","TEL":"(04)7241664","COUNTYNAME":"彰化縣","TOWNNAME":"彰化市","MARKTYPE":"992","Class":"2"}},{"type":"Feature","id":27219,"geometry":{"type":"Point","coordinates":[120.54602559843343,24.057160938993409]},"properties":{"OBJECTID":27219,"LANDMARKID":"1000700000075","LANDMARKCO":"103","LANDMARKNA":"彰化市立殯儀館","LANDMARKAD":"1000701","ADDRESS":"彰化縣彰化市大埔路172號","TEL":"04-7118284","COUNTYNAME":"彰化縣","TOWNNAME":"彰化市","MARKTYPE":"991","Class":"1"}},{"type":"Feature","id":27218,"geometry":{"type":"Point","coordinates":[120.54453691069875,24.07752772943838]},"properties":{"OBJECTID":27218,"LANDMARKID":"1000700000210","LANDMARKCO":"107","LANDMARKNA":"彰化縣警察局八卦山派出所","LANDMARKAD":"1000701","ADDRESS":"彰化縣彰化市中山路2段456號","TEL":"04-7284292","COUNTYNAME":"彰化縣","TOWNNAME":"彰化市","MARKTYPE":"991","Class":"1"}},{"type":"Feature","id":27217,"geometry":{"type":"Point","coordinates":[120.53432921552582,24.065908931644927]},"properties":{"OBJECTID":27217,"LANDMARKID":"1000700000209","LANDMARKCO":"107","LANDMARKNA":"彰化縣警察局","LANDMARKAD":"1000701","ADDRESS":"彰化縣彰化市彰安里中正路二段778號","TEL":"04-7619370","COUNTYNAME":"彰化縣","TOWNNAME":"彰化市","MARKTYPE":"991","Class":"1"}},{"type":"Feature","id":27216,"geometry":{"type":"Point","coordinates":[120.55013981885578,24.075388587161935]},"properties":{"OBJECTID":27216,"LANDMARKID":"1000700000009","LANDMARKCO":"101","LANDMARKNA":"勞工保險局彰化辦事處","LANDMARKAD":"1000701","ADDRESS":"彰化縣彰化市公園路一段239號","TEL":"04-7256881","COUNTYNAME":"彰化縣","TOWNNAME":"彰化市","MARKTYPE":"991","Class":"1"}},{"type":"Feature","id":27215,"geometry":{"type":"Point","coordinates":[120.54152802159051,24.070446959956943]},"properties":{"OBJECTID":27215,"LANDMARKID":"1000700000102","LANDMARKCO":"104","LANDMARKNA":"彰化縣稅捐稽徵處","LANDMARKAD":"1000701","ADDRESS":"彰化縣彰化市中山路二段187號","TEL":"04-7239131","COUNTYNAME":"彰化縣","TOWNNAME":"彰化市","MARKTYPE":"991","Class":"1"}},{"type":"Feature","id":27214,"geometry":{"type":"Point","coordinates":[120.54604962689807,24.070416560370596]},"properties":{"OBJECTID":27214,"LANDMARKID":"1000700000074","LANDMARKCO":"103","LANDMARKNA":"彰化縣工商(業)發展投資策進會","LANDMARKAD":"1000701","ADDRESS":"彰化縣彰化市中興路100號8樓","TEL":"04-7278086","COUNTYNAME":"彰化縣","TOWNNAME":"彰化市","MARKTYPE":"991","Class":"1"}},{"type":"Feature","id":27213,"geometry":{"type":"Point","coordinates":[120.54126973295308,24.083520635582275]},"properties":{"OBJECTID":27213,"LANDMARKID":"1000700000008","LANDMARKCO":"101","LANDMARKNA":"職業訓練局彰化就業服務站","LANDMARKAD":"1000701","ADDRESS":"彰化市長壽街202號","TEL":"04-7274271","COUNTYNAME":"彰化縣","TOWNNAME":"彰化市","MARKTYPE":"991","Class":"1"}},{"type":"Feature","id":27212,"geometry":{"type":"Point","coordinates":[120.54604962689807,24.070416560370596]},"properties":{"OBJECTID":27212,"LANDMARKID":"1000700000085","LANDMARKCO":"103","LANDMARKNA":"彰化縣選舉委員會","LANDMARKAD":"1000701","ADDRESS":"彰化縣彰化市中興路100號7號","TEL":"04-7248214","COUNTYNAME":"彰化縣","TOWNNAME":"彰化市","MARKTYPE":"991","Class":"1"}},{"type":"Feature","id":27211,"geometry":{"type":"Point","coordinates":[120.54182133027203,24.067676049407144]},"properties":{"OBJECTID":27211,"LANDMARKID":"1000700000084","LANDMARKCO":"103","LANDMARKNA":"彰化縣彰化市公所清潔隊","LANDMARKAD":"1000701","ADDRESS":"彰化縣彰化市仁愛東街17號","TEL":"04-7122288","COUNTYNAME":"彰化縣","TOWNNAME":"彰化市","MARKTYPE":"991","Class":"1"}},{"type":"Feature","id":27210,"geometry":{"type":"Point","coordinates":[120.55188381448244,24.067323734322056]},"properties":{"OBJECTID":27210,"LANDMARKID":"1000700000083","LANDMARKCO":"103","LANDMARKNA":"彰化縣環境保護局","LANDMARKAD":"1000701","ADDRESS":"彰化縣彰化市健興路1號2F","TEL":"04-7115655","COUNTYNAME":"彰化縣","TOWNNAME":"彰化市","MARKTYPE":"991","Class":"1"}},{"type":"Feature","id":27209,"geometry":{"type":"Point","coordinates":[120.54604962689807,24.070416560370596]},"properties":{"OBJECTID":27209,"LANDMARKID":"1000700000082","LANDMARKCO":"103","LANDMARKNA":"彰化縣婦女中心","LANDMARKAD":"1000701","ADDRESS":"彰化縣彰化市中興路100號6樓","TEL":"04-7252566","COUNTYNAME":"彰化縣","TOWNNAME":"彰化市","MARKTYPE":"991","Class":"1"}},{"type":"Feature","id":27208,"geometry":{"type":"Point","coordinates":[120.55101755092376,24.070505916745649]},"properties":{"OBJECTID":27208,"LANDMARKID":"1000700000081","LANDMARKCO":"103","LANDMARKNA":"彰化縣審計室","LANDMARKAD":"1000701","ADDRESS":"彰化縣彰化市中興路91號","TEL":"04-7125931","COUNTYNAME":"彰化縣","TOWNNAME":"彰化市","MARKTYPE":"991","Class":"1"}},{"type":"Feature","id":27207,"geometry":{"type":"Point","coordinates":[120.54880400712165,24.069479772053541]},"properties":{"OBJECTID":27207,"LANDMARKID":"1000700000101","LANDMARKCO":"104","LANDMARKNA":"中區國稅局監察辦公室","LANDMARKAD":"1000701","ADDRESS":"彰化縣彰化市介壽北路110號之5，7樓","TEL":"04-7115649","COUNTYNAME":"彰化縣","TOWNNAME":"彰化市","MARKTYPE":"991","Class":"1"}},{"type":"Feature","id":27206,"geometry":{"type":"Point","coordinates":[120.5584874305533,24.078072523222659]},"properties":{"OBJECTID":27206,"LANDMARKID":"1000700000007","LANDMARKCO":"101","LANDMARKNA":"國軍退除役官兵輔導委員會彰化服務處","LANDMARKAD":"1000701","ADDRESS":"彰化縣彰化市卦山路21號","TEL":"04-7253108","COUNTYNAME":"彰化縣","TOWNNAME":"彰化市","MARKTYPE":"991","Class":"1"}},{"type":"Feature","id":27205,"geometry":{"type":"Point","coordinates":[120.55719160844365,24.07834883480805]},"properties":{"OBJECTID":27205,"LANDMARKID":"1000700000006","LANDMARKCO":"101","LANDMARKNA":"彰化縣後備司令部","LANDMARKAD":"1000701","ADDRESS":"彰化縣彰化市卦山路14號","TEL":"04-7284823","COUNTYNAME":"彰化縣","TOWNNAME":"彰化市","MARKTYPE":"991","Class":"1"}},{"type":"Feature","id":27204,"geometry":{"type":"Point","coordinates":[120.54484532121946,24.077803488376624]},"properties":{"OBJECTID":27204,"LANDMARKID":"1000700000080","LANDMARKCO":"103","LANDMARKNA":"彰化縣議會","LANDMARKAD":"1000701","ADDRESS":"彰化縣彰化市中山路二段464號","TEL":"04-7222125","COUNTYNAME":"彰化縣","TOWNNAME":"彰化市","MARKTYPE":"991","Class":"1"}},{"type":"Feature","id":27203,"geometry":{"type":"Point","coordinates":[120.55325855031887,24.080035286775214]},"properties":{"OBJECTID":27203,"LANDMARKID":"1000700000005","LANDMARKCO":"101","LANDMARKNA":"調查局彰化縣調查站","LANDMARKAD":"1000701","ADDRESS":"彰化縣彰化市卦山路12號","TEL":"04-7236116","COUNTYNAME":"彰化縣","TOWNNAME":"彰化市","MARKTYPE":"991","Class":"1"}},{"type":"Feature","id":27245,"geometry":{"type":"Point","coordinates":[120.58036476171849,24.08267180315282]},"properties":{"OBJECTID":27245,"LANDMARKID":"1000700000508","LANDMARKCO":"203","LANDMARKNA":"縣立大竹國小","LANDMARKAD":"1000701","ADDRESS":"彰化縣彰化市彰南路二段164巷41號","TEL":"04-7381436","COUNTYNAME":"彰化縣","TOWNNAME":"彰化市","MARKTYPE":"992","Class":"2"}},{"type":"Feature","id":27270,"geometry":{"type":"Point","coordinates":[120.54084099241807,24.070850961707198]},"properties":{"OBJECTID":27270,"LANDMARKID":"1000700000604","LANDMARKCO":"303","LANDMARKNA":"第二停車場","LANDMARKAD":"1000701","ADDRESS":"彰化縣彰化市旭光路","TEL":" ","COUNTYNAME":"彰化縣","TOWNNAME":"彰化市","MARKTYPE":"993","Class":"303"}},{"type":"Feature","id":27271,"geometry":{"type":"Point","coordinates":[120.5428948900322,24.070051663060077]},"properties":{"OBJECTID":27271,"LANDMARKID":"1000700000605","LANDMARKCO":"303","LANDMARKNA":"中聯停車場","LANDMARKAD":"1000701","ADDRESS":"彰化縣彰化市中興路","TEL":"04-7284438","COUNTYNAME":"彰化縣","TOWNNAME":"彰化市","MARKTYPE":"993","Class":"303"}},{"type":"Feature","id":27272,"geometry":{"type":"Point","coordinates":[120.54246281968884,24.080967232690913]},"properties":{"OBJECTID":27272,"LANDMARKID":"1000700000606","LANDMARKCO":"303","LANDMARKNA":"彰化市公所停車場","LANDMARKAD":"1000701","ADDRESS":"彰化縣彰化市光復路74號","TEL":"04-7263550","COUNTYNAME":"彰化縣","TOWNNAME":"彰化市","MARKTYPE":"993","Class":"303"}},{"type":"Feature","id":27273,"geometry":{"type":"Point","coordinates":[120.54248729495127,24.08167930688418]},"properties":{"OBJECTID":27273,"LANDMARKID":"1000700000607","LANDMARKCO":"303","LANDMARKNA":"第一停車場","LANDMARKAD":"1000701","ADDRESS":"彰化縣彰化市","TEL":" ","COUNTYNAME":"彰化縣","TOWNNAME":"彰化市","MARKTYPE":"993","Class":"303"}},{"type":"Feature","id":27274,"geometry":{"type":"Point","coordinates":[120.54600204734477,24.093058477407467]},"properties":{"OBJECTID":27274,"LANDMARKID":"1000700000608","LANDMARKCO":"303","LANDMARKNA":"金馬停車場","LANDMARKAD":"1000701","ADDRESS":"彰化縣彰化市","TEL":" ","COUNTYNAME":"彰化縣","TOWNNAME":"彰化市","MARKTYPE":"993","Class":"303"}},{"type":"Feature","id":27275,"geometry":{"type":"Point","coordinates":[120.54865460786618,24.079032324445816]},"properties":{"OBJECTID":27275,"LANDMARKID":"1000700000609","LANDMARKCO":"303","LANDMARKNA":"八卦山風景區第二停車場","LANDMARKAD":"1000701","ADDRESS":"彰化縣彰化市卦山路","TEL":" ","COUNTYNAME":"彰化縣","TOWNNAME":"彰化市","MARKTYPE":"993","Class":"303"}},{"type":"Feature","id":27276,"geometry":{"type":"Point","coordinates":[120.54912109530058,24.077453106264027]},"properties":{"OBJECTID":27276,"LANDMARKID":"1000700000610","LANDMARKCO":"303","LANDMARKNA":"八卦山風景區第一停車場","LANDMARKAD":"1000701","ADDRESS":"彰化縣彰化市","TEL":" ","COUNTYNAME":"彰化縣","TOWNNAME":"彰化市","MARKTYPE":"993","Class":"303"}},{"type":"Feature","id":27277,"geometry":{"type":"Point","coordinates":[120.55005514967418,24.078730037075928]},"properties":{"OBJECTID":27277,"LANDMARKID":"1000700000611","LANDMARKCO":"303","LANDMARKNA":"八卦山大佛風景區停車場","LANDMARKAD":"1000701","ADDRESS":"彰化縣彰化市卦山路","TEL":" ","COUNTYNAME":"彰化縣","TOWNNAME":"彰化市","MARKTYPE":"993","Class":"303"}},{"type":"Feature","id":27278,"geometry":{"type":"Point","coordinates":[120.55344903427101,24.0947230522798]},"properties":{"OBJECTID":27278,"LANDMARKID":"1000700000612","LANDMARKCO":"303","LANDMARKNA":"泰和停車場","LANDMARKAD":"1000701","ADDRESS":"彰化縣彰化市","TEL":" ","COUNTYNAME":"彰化縣","TOWNNAME":"彰化市","MARKTYPE":"993","Class":"303"}},{"type":"Feature","id":27279,"geometry":{"type":"Point","coordinates":[120.55310678774882,24.068743316960152]},"properties":{"OBJECTID":27279,"LANDMARKID":"1000700000613","LANDMARKCO":"303","LANDMARKNA":"彰化縣立體育場停車場","LANDMARKAD":"1000701","ADDRESS":"彰化縣彰化市溫泉路30號","TEL":"04-7295759","COUNTYNAME":"彰化縣","TOWNNAME":"彰化市","MARKTYPE":"993","Class":"303"}},{"type":"Feature","id":27280,"geometry":{"type":"Point","coordinates":[120.55450797426346,24.051566831789017]},"properties":{"OBJECTID":27280,"LANDMARKID":"1000700000614","LANDMARKCO":"303","LANDMARKNA":"彰化高爾夫俱樂部停車場","LANDMARKAD":"1000701","ADDRESS":"彰化縣彰化市大埔路2巷","TEL":" ","COUNTYNAME":"彰化縣","TOWNNAME":"彰化市","MARKTYPE":"993","Class":"303"}},{"type":"Feature","id":27281,"geometry":{"type":"Point","coordinates":[120.56352973978981,24.086552951607732]},"properties":{"OBJECTID":27281,"LANDMARKID":"1000700000615","LANDMARKCO":"303","LANDMARKNA":"台化公司停車場","LANDMARKAD":"1000701","ADDRESS":"彰化縣彰化市台化街","TEL":" ","COUNTYNAME":"彰化縣","TOWNNAME":"彰化市","MARKTYPE":"993","Class":"303"}},{"type":"Feature","id":27282,"geometry":{"type":"Point","coordinates":[120.56276071455835,24.08585821367517]},"properties":{"OBJECTID":27282,"LANDMARKID":"1000700000616","LANDMARKCO":"303","LANDMARKNA":"台化停車場","LANDMARKAD":"1000701","ADDRESS":"彰化縣彰化市台化街","TEL":" ","COUNTYNAME":"彰化縣","TOWNNAME":"彰化市","MARKTYPE":"993","Class":"303"}},{"type":"Feature","id":27283,"geometry":{"type":"Point","coordinates":[120.55105664095997,24.087428963951584]},"properties":{"OBJECTID":27283,"LANDMARKID":"1000700000617","LANDMARKCO":"303","LANDMARKNA":"地下停車場","LANDMARKAD":"1000701","ADDRESS":"彰化縣彰化市","TEL":" ","COUNTYNAME":"彰化縣","TOWNNAME":"彰化市","MARKTYPE":"993","Class":"303"}},{"type":"Feature","id":27284,"geometry":{"type":"Point","coordinates":[120.53676262416141,24.081978686662499]},"properties":{"OBJECTID":27284,"LANDMARKID":"1000700000618","LANDMARKCO":"303","LANDMARKNA":"站後停車場","LANDMARKAD":"1000701","ADDRESS":"彰化縣彰化市","TEL":" ","COUNTYNAME":"彰化縣","TOWNNAME":"彰化市","MARKTYPE":"993","Class":"303"}},{"type":"Feature","id":27285,"geometry":{"type":"Point","coordinates":[120.54084789257371,24.070878964216124]},"properties":{"OBJECTID":27285,"LANDMARKID":"1000700000619","LANDMARKCO":"303","LANDMARKNA":"中興嘟嘟房停車場-彰基站","LANDMARKAD":"1000701","ADDRESS":"彰化市旭光西路75號","TEL":"04-7276496","COUNTYNAME":"彰化縣","TOWNNAME":"彰化市","MARKTYPE":"993","Class":"303"}},{"type":"Feature","id":27286,"geometry":{"type":"Point","coordinates":[120.53829284943272,24.081496247160086]},"properties":{"OBJECTID":27286,"LANDMARKID":"1000700000575","LANDMARKCO":"301","LANDMARKNA":"彰化火車站","LANDMARKAD":"1000701","ADDRESS":"彰化縣彰化市三民路1號","TEL":"04-7274218","COUNTYNAME":"彰化縣","TOWNNAME":"彰化市","MARKTYPE":"993","Class":"301"}},{"type":"Feature","id":27287,"geometry":{"type":"Point","coordinates":[120.54328053406398,24.085734353993921]},"properties":{"OBJECTID":27287,"LANDMARKID":"1000700000734","LANDMARKCO":"402","LANDMARKNA":"中華電信-彰化三民特約服務中心","LANDMARKAD":"1000701","ADDRESS":"彰化縣彰化市三民路243號","TEL":"04-7298787","COUNTYNAME":"彰化縣","TOWNNAME":"彰化市","MARKTYPE":"994","Class":"4"}},{"type":"Feature","id":27288,"geometry":{"type":"Point","coordinates":[120.5353972698104,24.061694121079277]},"properties":{"OBJECTID":27288,"LANDMARKID":"1000700000735","LANDMARKCO":"402","LANDMARKNA":"中華電信-彰化中山特約服務中心","LANDMARKAD":"1000701","ADDRESS":"彰化縣彰化市中山路一段375號","TEL":"04-7518585","COUNTYNAME":"彰化縣","TOWNNAME":"彰化市","MARKTYPE":"994","Class":"4"}},{"type":"Feature","id":27289,"geometry":{"type":"Point","coordinates":[120.54058492571976,24.080299954322864]},"properties":{"OBJECTID":27289,"LANDMARKID":"1000700000736","LANDMARKCO":"402","LANDMARKNA":"中華電信-彰化營運處(彰化服務中心)","LANDMARKAD":"1000701","ADDRESS":"彰化縣彰化市和平路52號","TEL":"04-7257161","COUNTYNAME":"彰化縣","TOWNNAME":"彰化市","MARKTYPE":"994","Class":"4"}},{"type":"Feature","id":27290,"geometry":{"type":"Point","coordinates":[120.53288326803776,24.073578906391052]},"properties":{"OBJECTID":27290,"LANDMARKID":"1000700000737","LANDMARKCO":"402","LANDMARKNA":"中華電信-彰化曉陽特約服務中心","LANDMARKAD":"1000701","ADDRESS":"彰化縣彰化市曉陽路349號","TEL":"04-7630303","COUNTYNAME":"彰化縣","TOWNNAME":"彰化市","MARKTYPE":"994","Class":"4"}},{"type":"Feature","id":27246,"geometry":{"type":"Point","coordinates":[120.6120008974124,24.068547120549685]},"properties":{"OBJECTID":27246,"LANDMARKID":"1000700000509","LANDMARKCO":"203","LANDMARKNA":"縣立快官國小","LANDMARKAD":"1000701","ADDRESS":"彰化縣彰化市快官里彰南路四段566號","TEL":"04-7381704","COUNTYNAME":"彰化縣","TOWNNAME":"彰化市","MARKTYPE":"992","Class":"2"}},{"type":"Feature","id":27247,"geometry":{"type":"Point","coordinates":[120.51610685351417,24.062464802405771]},"properties":{"OBJECTID":27247,"LANDMARKID":"1000700000510","LANDMARKCO":"203","LANDMARKNA":"縣立東芳國小","LANDMARKAD":"1000701","ADDRESS":"彰化縣彰化市東芳里彰馬路45號","TEL":"04-7523784","COUNTYNAME":"彰化縣","TOWNNAME":"彰化市","MARKTYPE":"992","Class":"2"}},{"type":"Feature","id":27248,"geometry":{"type":"Point","coordinates":[120.5470912149908,24.09137017510136]},"properties":{"OBJECTID":27248,"LANDMARKID":"1000700000511","LANDMARKCO":"203","LANDMARKNA":"縣立大成國小","LANDMARKAD":"1000701","ADDRESS":"彰化縣彰化市自強路303號","TEL":"04-7353457","COUNTYNAME":"彰化縣","TOWNNAME":"彰化市","MARKTYPE":"992","Class":"2"}},{"type":"Feature","id":27249,"geometry":{"type":"Point","coordinates":[120.54931925396521,24.066597972705733]},"properties":{"OBJECTID":27249,"LANDMARKID":"1000700000288","LANDMARKCO":"201","LANDMARKNA":"建國科技大學","LANDMARKAD":"1000701","ADDRESS":"彰化縣彰化市介壽北路1號","TEL":"04-7111111","COUNTYNAME":"彰化縣","TOWNNAME":"彰化市","MARKTYPE":"992","Class":"2"}},{"type":"Feature","id":27250,"geometry":{"type":"Point","coordinates":[120.55855360931551,24.081516056542245]},"properties":{"OBJECTID":27250,"LANDMARKID":"1000700000289","LANDMARKCO":"201","LANDMARKNA":"國立彰化師範大學進德校區","LANDMARKAD":"1000701","ADDRESS":"彰化縣彰化市進德路1號","TEL":"04-7232105","COUNTYNAME":"彰化縣","TOWNNAME":"彰化市","MARKTYPE":"992","Class":"2"}},{"type":"Feature","id":27251,"geometry":{"type":"Point","coordinates":[120.55959040853331,24.064904936755607]},"properties":{"OBJECTID":27251,"LANDMARKID":"1000700000290","LANDMARKCO":"201","LANDMARKNA":"國立彰化師範大學寶山校區","LANDMARKAD":"1000701","ADDRESS":"彰化縣彰化市師大路2號","TEL":"04-7232105","COUNTYNAME":"彰化縣","TOWNNAME":"彰化市","MARKTYPE":"992","Class":"2"}},{"type":"Feature","id":27252,"geometry":{"type":"Point","coordinates":[120.60440337200407,24.086147839817585]},"properties":{"OBJECTID":27252,"LANDMARKID":"1000700000512","LANDMARKCO":"203","LANDMARKNA":"縣立三民國小","LANDMARKAD":"1000701","ADDRESS":"彰化縣彰化市田中里田中莊77之1號","TEL":"04-7384328","COUNTYNAME":"彰化縣","TOWNNAME":"彰化市","MARKTYPE":"992","Class":"2"}},{"type":"Feature","id":27253,"geometry":{"type":"Point","coordinates":[120.6143894812045,24.058540568262316]},"properties":{"OBJECTID":27253,"LANDMARKID":"1000700000513","LANDMARKCO":"203","LANDMARKNA":"縣立石牌國小","LANDMARKAD":"1000701","ADDRESS":"彰化縣彰化市石牌里石牌莊3號","TEL":"04-7381672","COUNTYNAME":"彰化縣","TOWNNAME":"彰化市","MARKTYPE":"992","Class":"2"}},{"type":"Feature","id":27254,"geometry":{"type":"Point","coordinates":[120.53993646658171,24.065693365202875]},"properties":{"OBJECTID":27254,"LANDMARKID":"1000700000620","LANDMARKCO":"303","LANDMARKNA":"延平公園停車場","LANDMARKAD":"1000701","ADDRESS":"彰化縣彰化市","TEL":" ","COUNTYNAME":"彰化縣","TOWNNAME":"彰化市","MARKTYPE":"993","Class":"303"}},{"type":"Feature","id":27255,"geometry":{"type":"Point","coordinates":[120.54041587228734,24.06545412878647]},"properties":{"OBJECTID":27255,"LANDMARKID":"1000700000621","LANDMARKCO":"303","LANDMARKNA":"延平公園停車場","LANDMARKAD":"1000701","ADDRESS":"彰化縣彰化市","TEL":" ","COUNTYNAME":"彰化縣","TOWNNAME":"彰化市","MARKTYPE":"993","Class":"303"}},{"type":"Feature","id":27256,"geometry":{"type":"Point","coordinates":[120.52290422859052,24.061013165293794]},"properties":{"OBJECTID":27256,"LANDMARKID":"1000700000650","LANDMARKCO":"308","LANDMARKNA":"國1-彰化交流道-南下","LANDMARKAD":"1000701","ADDRESS":"彰化縣彰化市","TEL":" ","COUNTYNAME":"彰化縣","TOWNNAME":"彰化市","MARKTYPE":"993","Class":"308"}},{"type":"Feature","id":27257,"geometry":{"type":"Point","coordinates":[120.55218905576447,24.099321972092888]},"properties":{"OBJECTID":27257,"LANDMARKID":"1000700000651","LANDMARKCO":"308","LANDMARKNA":"國1-彰化系統交流道-南下","LANDMARKAD":"1000701","ADDRESS":"彰化縣彰化市","TEL":" ","COUNTYNAME":"彰化縣","TOWNNAME":"彰化市","MARKTYPE":"993","Class":"308"}},{"type":"Feature","id":27258,"geometry":{"type":"Point","coordinates":[120.60713478926463,24.088879788616321]},"properties":{"OBJECTID":27258,"LANDMARKID":"1000700000652","LANDMARKCO":"308","LANDMARKNA":"國3-快官交流道-南下","LANDMARKAD":"1000701","ADDRESS":"彰化縣彰化市","TEL":" ","COUNTYNAME":"彰化縣","TOWNNAME":"彰化市","MARKTYPE":"993","Class":"308"}},{"type":"Feature","id":27259,"geometry":{"type":"Point","coordinates":[120.52279690441472,24.069415793108085]},"properties":{"OBJECTID":27259,"LANDMARKID":"1000700000653","LANDMARKCO":"308","LANDMARKNA":"國1-彰化交流道-北上","LANDMARKAD":"1000701","ADDRESS":"彰化縣彰化市","TEL":" ","COUNTYNAME":"彰化縣","TOWNNAME":"彰化市","MARKTYPE":"993","Class":"308"}},{"type":"Feature","id":27260,"geometry":{"type":"Point","coordinates":[120.55328800668751,24.108338882893047]},"properties":{"OBJECTID":27260,"LANDMARKID":"1000700000654","LANDMARKCO":"308","LANDMARKNA":"國1-彰化系統交流道-北上","LANDMARKAD":"1000701","ADDRESS":"彰化縣彰化市","TEL":" ","COUNTYNAME":"彰化縣","TOWNNAME":"彰化市","MARKTYPE":"993","Class":"308"}},{"type":"Feature","id":27261,"geometry":{"type":"Point","coordinates":[120.60000567125563,24.095610996379214]},"properties":{"OBJECTID":27261,"LANDMARKID":"1000700000655","LANDMARKCO":"308","LANDMARKNA":"國3-快官交流道-北上","LANDMARKAD":"1000701","ADDRESS":"彰化縣彰化市","TEL":" ","COUNTYNAME":"彰化縣","TOWNNAME":"彰化市","MARKTYPE":"993","Class":"308"}},{"type":"Feature","id":27262,"geometry":{"type":"Point","coordinates":[120.60235693938633,24.090622711358488]},"properties":{"OBJECTID":27262,"LANDMARKID":"1000700000656","LANDMARKCO":"308","LANDMARKNA":"台74-快宮交流道-西行","LANDMARKAD":"1000701","ADDRESS":" ","TEL":" ","COUNTYNAME":"彰化縣","TOWNNAME":"彰化市","MARKTYPE":"993","Class":"308"}},{"type":"Feature","id":27263,"geometry":{"type":"Point","coordinates":[120.59713918662177,24.084780179090238]},"properties":{"OBJECTID":27263,"LANDMARKID":"1000700000657","LANDMARKCO":"308","LANDMARKNA":"台74-牛埔交流道-東行","LANDMARKAD":"1000701","ADDRESS":" ","TEL":" ","COUNTYNAME":"彰化縣","TOWNNAME":"彰化市","MARKTYPE":"993","Class":"308"}},{"type":"Feature","id":27264,"geometry":{"type":"Point","coordinates":[120.59462538670309,24.082813587045106]},"properties":{"OBJECTID":27264,"LANDMARKID":"1000700000658","LANDMARKCO":"308","LANDMARKNA":"台74-牛埔匝道-東行","LANDMARKAD":"1000701","ADDRESS":" ","TEL":" ","COUNTYNAME":"彰化縣","TOWNNAME":"彰化市","MARKTYPE":"993","Class":"308"}},{"type":"Feature","id":27265,"geometry":{"type":"Point","coordinates":[120.60711822378755,24.09475255068314]},"properties":{"OBJECTID":27265,"LANDMARKID":"1000700000659","LANDMARKCO":"308","LANDMARKNA":"台74-快宮交流道-東行","LANDMARKAD":"1000701","ADDRESS":" ","TEL":" ","COUNTYNAME":"彰化縣","TOWNNAME":"彰化市","MARKTYPE":"993","Class":"308"}},{"type":"Feature","id":27266,"geometry":{"type":"Point","coordinates":[120.60381259493826,24.091875371382528]},"properties":{"OBJECTID":27266,"LANDMARKID":"1000700000660","LANDMARKCO":"308","LANDMARKNA":"台74-快宮交流道-西行","LANDMARKAD":"1000701","ADDRESS":" ","TEL":" ","COUNTYNAME":"彰化縣","TOWNNAME":"彰化市","MARKTYPE":"993","Class":"308"}},{"type":"Feature","id":27267,"geometry":{"type":"Point","coordinates":[120.61158214561958,24.101146619853168]},"properties":{"OBJECTID":27267,"LANDMARKID":"1000700000661","LANDMARKCO":"308","LANDMARKNA":"台74-成功交流道-西行","LANDMARKAD":"1000701","ADDRESS":" ","TEL":" ","COUNTYNAME":"彰化縣","TOWNNAME":"彰化市","MARKTYPE":"993","Class":"308"}},{"type":"Feature","id":27268,"geometry":{"type":"Point","coordinates":[120.54013951970531,24.08163255758074]},"properties":{"OBJECTID":27268,"LANDMARKID":"1000700000576","LANDMARKCO":"302","LANDMARKNA":"國光汽車客運彰化站","LANDMARKAD":"1000701","ADDRESS":"彰化縣彰化市長樂里中正路一段531號","TEL":" ","COUNTYNAME":"彰化縣","TOWNNAME":"彰化市","MARKTYPE":"993","Class":"302"}},{"type":"Feature","id":27269,"geometry":{"type":"Point","coordinates":[120.53929448596709,24.081886912052987]},"properties":{"OBJECTID":27269,"LANDMARKID":"1000700000577","LANDMARKCO":"302","LANDMARKNA":"統聯客運-彰化站-自營站","LANDMARKAD":"1000701","ADDRESS":"彰化縣彰化市三民路8號","TEL":"連絡電話:04-727","COUNTYNAME":"彰化縣","TOWNNAME":"彰化市","MARKTYPE":"993","Class":"302"}},{"type":"Feature","id":27291,"geometry":{"type":"Point","coordinates":[120.53878297819541,24.066798683128166]},"properties":{"OBJECTID":27291,"LANDMARKID":"1000700000738","LANDMARKCO":"402","LANDMARKNA":"遠傳電信-彰化中山門市","LANDMARKAD":"1000701","ADDRESS":"彰化市中山路二段10號","TEL":" ","COUNTYNAME":"彰化縣","TOWNNAME":"彰化市","MARKTYPE":"994","Class":"4"}},{"type":"Feature","id":27316,"geometry":{"type":"Point","coordinates":[120.53079596446511,24.079390022715337]},"properties":{"OBJECTID":27316,"LANDMARKID":"1000700001156","LANDMARKCO":"603","LANDMARKNA":"里昂汽車旅館","LANDMARKAD":"1000701","ADDRESS":"彰化縣彰化市自強南路560號","TEL":"04-7622211","COUNTYNAME":"彰化縣","TOWNNAME":"彰化市","MARKTYPE":"996","Class":"6"}},{"type":"Feature","id":27317,"geometry":{"type":"Point","coordinates":[120.54039387148177,24.082276212766214]},"properties":{"OBJECTID":27317,"LANDMARKID":"1000700001157","LANDMARKCO":"603","LANDMARKNA":"福連賓館","LANDMARKAD":"1000701","ADDRESS":"彰化縣彰化市和平路98號4樓之1-16","TEL":"04-7232521","COUNTYNAME":"彰化縣","TOWNNAME":"彰化市","MARKTYPE":"996","Class":"6"}},{"type":"Feature","id":27318,"geometry":{"type":"Point","coordinates":[120.53831900567546,24.093278804875801]},"properties":{"OBJECTID":27318,"LANDMARKID":"1000700001158","LANDMARKCO":"603","LANDMARKNA":"海德堡汽車旅館","LANDMARKAD":"1000701","ADDRESS":"彰化縣彰化市金馬路二段538號","TEL":"04-7363705","COUNTYNAME":"彰化縣","TOWNNAME":"彰化市","MARKTYPE":"996","Class":"6"}},{"type":"Feature","id":27319,"geometry":{"type":"Point","coordinates":[120.53927582788593,24.08044557856028]},"properties":{"OBJECTID":27319,"LANDMARKID":"1000700001159","LANDMARKCO":"603","LANDMARKNA":"金城大旅社","LANDMARKAD":"1000701","ADDRESS":"彰化縣彰化市長安街100巷1號","TEL":"04-7225379","COUNTYNAME":"彰化縣","TOWNNAME":"彰化市","MARKTYPE":"996","Class":"6"}},{"type":"Feature","id":27320,"geometry":{"type":"Point","coordinates":[120.53904956724533,24.080453244402555]},"properties":{"OBJECTID":27320,"LANDMARKID":"1000700001160","LANDMARKCO":"603","LANDMARKNA":"紅葉大旅社","LANDMARKAD":"1000701","ADDRESS":"彰化縣彰化市長安街100巷5號","TEL":"04-7222667","COUNTYNAME":"彰化縣","TOWNNAME":"彰化市","MARKTYPE":"996","Class":"6"}},{"type":"Feature","id":27321,"geometry":{"type":"Point","coordinates":[120.5394978656563,24.079652329940224]},"properties":{"OBJECTID":27321,"LANDMARKID":"1000700001161","LANDMARKCO":"603","LANDMARKNA":"櫻山大飯店","LANDMARKAD":"1000701","ADDRESS":"彰化縣彰化市長安街129號","TEL":"04-7229211","COUNTYNAME":"彰化縣","TOWNNAME":"彰化市","MARKTYPE":"996","Class":"6"}},{"type":"Feature","id":27322,"geometry":{"type":"Point","coordinates":[120.54866209986156,24.07842662427138]},"properties":{"OBJECTID":27322,"LANDMARKID":"1000700001078","LANDMARKCO":"503","LANDMARKNA":"八卦山大佛","LANDMARKAD":"1000701","ADDRESS":"彰化縣彰化市彰化市八卦路8之1號","TEL":" ","COUNTYNAME":"彰化縣","TOWNNAME":"彰化市","MARKTYPE":"995","Class":"5"}},{"type":"Feature","id":27323,"geometry":{"type":"Point","coordinates":[120.54242974835972,24.076506793506098]},"properties":{"OBJECTID":27323,"LANDMARKID":"1000700001134","LANDMARKCO":"511","LANDMARKNA":"永樂街夜市","LANDMARKAD":"1000701","ADDRESS":"彰化縣彰化市永樂街","TEL":" ","COUNTYNAME":"彰化縣","TOWNNAME":"彰化市","MARKTYPE":"995","Class":"5"}},{"type":"Feature","id":27324,"geometry":{"type":"Point","coordinates":[120.55448818866617,24.051684093248134]},"properties":{"OBJECTID":27324,"LANDMARKID":"1000700001131","LANDMARKCO":"510","LANDMARKNA":"彰化高爾夫球場","LANDMARKAD":"1000701","ADDRESS":"彰化縣彰化市大埔路2巷101號","TEL":"04-7135799","COUNTYNAME":"彰化縣","TOWNNAME":"彰化市","MARKTYPE":"995","Class":"5"}},{"type":"Feature","id":27325,"geometry":{"type":"Point","coordinates":[120.57089569757794,24.10491865327073]},"properties":{"OBJECTID":27325,"LANDMARKID":"1000700001132","LANDMARKCO":"510","LANDMARKNA":"大溪地高爾夫練習場","LANDMARKAD":"1000701","ADDRESS":"彰化市國盛路325巷10-6號","TEL":"04-7323977","COUNTYNAME":"彰化縣","TOWNNAME":"彰化市","MARKTYPE":"995","Class":"5"}},{"type":"Feature","id":27326,"geometry":{"type":"Point","coordinates":[120.50969904705077,24.048526434141817]},"properties":{"OBJECTID":27326,"LANDMARKID":"1000700000890","LANDMARKCO":"405","LANDMARKNA":"中油加油站-勝美站","LANDMARKAD":"1000707","ADDRESS":"彰化縣秀水鄉安溪村彰水路1段489號","TEL":"04-7699788","COUNTYNAME":"彰化縣","TOWNNAME":"秀水鄉","MARKTYPE":"994","Class":"4"}},{"type":"Feature","id":27327,"geometry":{"type":"Point","coordinates":[120.50159645664277,24.036289090272156]},"properties":{"OBJECTID":27327,"LANDMARKID":"1000700000891","LANDMARKCO":"405","LANDMARKNA":"中油加油站-秀水站(中油直營)","LANDMARKAD":"1000707","ADDRESS":"彰化縣秀水鄉安東村彰水路一段30號","TEL":"04-7692141","COUNTYNAME":"彰化縣","TOWNNAME":"秀水鄉","MARKTYPE":"994","Class":"4"}},{"type":"Feature","id":27328,"geometry":{"type":"Point","coordinates":[120.50824023902904,24.045445002676363]},"properties":{"OBJECTID":27328,"LANDMARKID":"1000700000892","LANDMARKCO":"405","LANDMARKNA":"中油加油站-彰秀站","LANDMARKAD":"1000707","ADDRESS":"彰化縣秀水鄉彰水路1段283號","TEL":"047-684999","COUNTYNAME":"彰化縣","TOWNNAME":"秀水鄉","MARKTYPE":"994","Class":"4"}},{"type":"Feature","id":27329,"geometry":{"type":"Point","coordinates":[120.49160652917821,24.023896489517291]},"properties":{"OBJECTID":27329,"LANDMARKID":"1000700000706","LANDMARKCO":"401","LANDMARKNA":"宗生醫院","LANDMARKAD":"1000707","ADDRESS":"彰化縣秀水鄉埔崙村彰水路二段195號","TEL":"04-7692201","COUNTYNAME":"彰化縣","TOWNNAME":"秀水鄉","MARKTYPE":"994","Class":"4"}},{"type":"Feature","id":27330,"geometry":{"type":"Point","coordinates":[120.4975543251543,24.062643562224885]},"properties":{"OBJECTID":27330,"LANDMARKID":"1000700001128","LANDMARKCO":"507","LANDMARKNA":"馬興陳宅(益源大厝)","LANDMARKAD":"1000707","ADDRESS":"彰化縣秀水鄉馬興村益源巷4號","TEL":" ","COUNTYNAME":"彰化縣","TOWNNAME":"秀水鄉","MARKTYPE":"995","Class":"5"}},{"type":"Feature","id":27331,"geometry":{"type":"Point","coordinates":[120.49739170761477,24.062607911578951]},"properties":{"OBJECTID":27331,"LANDMARKID":"1000700001129","LANDMARKCO":"507","LANDMARKNA":"馬興陳宅（益源大厝）","LANDMARKAD":"1000707","ADDRESS":"504彰化縣秀水鄉馬興村益源巷4號","TEL":" ","COUNTYNAME":"彰化縣","TOWNNAME":"秀水鄉","MARKTYPE":"995","Class":"5"}},{"type":"Feature","id":27332,"geometry":{"type":"Point","coordinates":[120.49635151747269,24.030467354854881]},"properties":{"OBJECTID":27332,"LANDMARKID":"1000700001007","LANDMARKCO":"408","LANDMARKNA":"郵局-秀水郵局","LANDMARKAD":"1000707","ADDRESS":"彰化縣秀水鄉彰水路2段583號","TEL":"(04)7692-024","COUNTYNAME":"彰化縣","TOWNNAME":"秀水鄉","MARKTYPE":"994","Class":"4"}},{"type":"Feature","id":27292,"geometry":{"type":"Point","coordinates":[120.54227162195376,24.082378448542421]},"properties":{"OBJECTID":27292,"LANDMARKID":"1000700000739","LANDMARKCO":"402","LANDMARKNA":"遠傳電信-彰化門市","LANDMARKAD":"1000701","ADDRESS":"彰化市中正路一段447號","TEL":" ","COUNTYNAME":"彰化縣","TOWNNAME":"彰化市","MARKTYPE":"994","Class":"4"}},{"type":"Feature","id":27293,"geometry":{"type":"Point","coordinates":[120.54534506105814,24.080293695474793]},"properties":{"OBJECTID":27293,"LANDMARKID":"1000700000740","LANDMARKCO":"402","LANDMARKNA":"威寶電信-彰化中山二特約服務中心","LANDMARKAD":"1000701","ADDRESS":"彰化市中山路二段587號","TEL":"04-7274550","COUNTYNAME":"彰化縣","TOWNNAME":"彰化市","MARKTYPE":"994","Class":"4"}},{"type":"Feature","id":27294,"geometry":{"type":"Point","coordinates":[120.53849626174679,24.07253959160786]},"properties":{"OBJECTID":27294,"LANDMARKID":"1000700000741","LANDMARKCO":"402","LANDMARKNA":"威寶電信-彰化曉陽特約服務中心","LANDMARKAD":"1000701","ADDRESS":"彰化市曉陽路151號","TEL":"04-7289419","COUNTYNAME":"彰化縣","TOWNNAME":"彰化市","MARKTYPE":"994","Class":"4"}},{"type":"Feature","id":27295,"geometry":{"type":"Point","coordinates":[120.54415428840711,24.077622236067484]},"properties":{"OBJECTID":27295,"LANDMARKID":"1000700000742","LANDMARKCO":"402","LANDMARKNA":"威寶電信-彰化中山特約服務中心","LANDMARKAD":"1000701","ADDRESS":"彰化市中山路二段481號","TEL":"04-7220872","COUNTYNAME":"彰化縣","TOWNNAME":"彰化市","MARKTYPE":"994","Class":"4"}},{"type":"Feature","id":27296,"geometry":{"type":"Point","coordinates":[120.54564123197871,24.081523423430994]},"properties":{"OBJECTID":27296,"LANDMARKID":"1000700000743","LANDMARKCO":"402","LANDMARKNA":"大眾電信(震旦通訊)-彰化中山店","LANDMARKAD":"1000701","ADDRESS":"彰化縣彰化市中山路二段639號","TEL":"04-7234599","COUNTYNAME":"彰化縣","TOWNNAME":"彰化市","MARKTYPE":"994","Class":"4"}},{"type":"Feature","id":27297,"geometry":{"type":"Point","coordinates":[120.54176496954483,24.072000763648337]},"properties":{"OBJECTID":27297,"LANDMARKID":"1000700000744","LANDMARKCO":"402","LANDMARKNA":"大眾電信(震旦通訊)-彰化曉陽店","LANDMARKAD":"1000701","ADDRESS":"彰化縣彰化市曉陽路19號","TEL":"04-7289649","COUNTYNAME":"彰化縣","TOWNNAME":"彰化市","MARKTYPE":"994","Class":"4"}},{"type":"Feature","id":27298,"geometry":{"type":"Point","coordinates":[120.53553494725914,24.090290776128757]},"properties":{"OBJECTID":27298,"LANDMARKID":"1000700000745","LANDMARKCO":"402","LANDMARKNA":"中華電信-彰化金馬特約服務中心","LANDMARKAD":"1000701","ADDRESS":"彰化市彰美路一段287-1號","TEL":"04-7367919","COUNTYNAME":"彰化縣","TOWNNAME":"彰化市","MARKTYPE":"994","Class":"4"}},{"type":"Feature","id":27299,"geometry":{"type":"Point","coordinates":[120.53070505834587,24.078036531642422]},"properties":{"OBJECTID":27299,"LANDMARKID":"1000700001139","LANDMARKCO":"603","LANDMARKNA":"蔚藍汽車旅館","LANDMARKAD":"1000701","ADDRESS":"彰化縣彰化市金馬路三段539巷10號","TEL":"04-7636668","COUNTYNAME":"彰化縣","TOWNNAME":"彰化市","MARKTYPE":"996","Class":"6"}},{"type":"Feature","id":27300,"geometry":{"type":"Point","coordinates":[120.53730616970604,24.079448854498871]},"properties":{"OBJECTID":27300,"LANDMARKID":"1000700001140","LANDMARKCO":"603","LANDMARKNA":"永大大飯店","LANDMARKAD":"1000701","ADDRESS":"彰化縣彰化市中正路二段120號","TEL":"04-7224666-8","COUNTYNAME":"彰化縣","TOWNNAME":"彰化市","MARKTYPE":"996","Class":"6"}},{"type":"Feature","id":27301,"geometry":{"type":"Point","coordinates":[120.53607006371492,24.07763493950856]},"properties":{"OBJECTID":27301,"LANDMARKID":"1000700001141","LANDMARKCO":"603","LANDMARKNA":"萬勝賓館","LANDMARKAD":"1000701","ADDRESS":"彰化縣彰化市中正路二段190巷36號1樓","TEL":"04-7285456","COUNTYNAME":"彰化縣","TOWNNAME":"彰化市","MARKTYPE":"996","Class":"6"}},{"type":"Feature","id":27302,"geometry":{"type":"Point","coordinates":[120.53496180359348,24.06758761539508]},"properties":{"OBJECTID":27302,"LANDMARKID":"1000700001142","LANDMARKCO":"603","LANDMARKNA":"全台大飯店","LANDMARKAD":"1000701","ADDRESS":"彰化縣彰化市中正路二段668號4-9樓","TEL":"04-7253017","COUNTYNAME":"彰化縣","TOWNNAME":"彰化市","MARKTYPE":"996","Class":"6"}},{"type":"Feature","id":27303,"geometry":{"type":"Point","coordinates":[120.53267563937993,24.080611438375769]},"properties":{"OBJECTID":27303,"LANDMARKID":"1000700001143","LANDMARKCO":"603","LANDMARKNA":"伊蝶汽車旅館","LANDMARKAD":"1000701","ADDRESS":"彰化縣彰化市公益街13號","TEL":"04-7636677","COUNTYNAME":"彰化縣","TOWNNAME":"彰化市","MARKTYPE":"996","Class":"6"}},{"type":"Feature","id":27304,"geometry":{"type":"Point","coordinates":[120.53882527895884,24.080189410610732]},"properties":{"OBJECTID":27304,"LANDMARKID":"1000700001144","LANDMARKCO":"603","LANDMARKNA":"三和大旅社","LANDMARKAD":"1000701","ADDRESS":"彰化縣彰化市永興街96巷31號","TEL":"04-7224646","COUNTYNAME":"彰化縣","TOWNNAME":"彰化市","MARKTYPE":"996","Class":"6"}},{"type":"Feature","id":27305,"geometry":{"type":"Point","coordinates":[120.54141109614116,24.080295883840485]},"properties":{"OBJECTID":27305,"LANDMARKID":"1000700001145","LANDMARKCO":"603","LANDMARKNA":"明谷大飯店","LANDMARKAD":"1000701","ADDRESS":"彰化縣彰化市成功路215號6樓","TEL":"04-7281669","COUNTYNAME":"彰化縣","TOWNNAME":"彰化市","MARKTYPE":"996","Class":"6"}},{"type":"Feature","id":27306,"geometry":{"type":"Point","coordinates":[120.5396111073229,24.08032118670047]},"properties":{"OBJECTID":27306,"LANDMARKID":"1000700001146","LANDMARKCO":"603","LANDMARKNA":"富皇大飯店","LANDMARKAD":"1000701","ADDRESS":"彰化縣彰化市長安街97號1-4樓","TEL":"04-7237117","COUNTYNAME":"彰化縣","TOWNNAME":"彰化市","MARKTYPE":"996","Class":"6"}},{"type":"Feature","id":27307,"geometry":{"type":"Point","coordinates":[120.53810417276694,24.080645527780501]},"properties":{"OBJECTID":27307,"LANDMARKID":"1000700001147","LANDMARKCO":"603","LANDMARKNA":"台灣大飯店","LANDMARKAD":"1000701","ADDRESS":"彰化縣彰化市中正路二段48號","TEL":"04-7224681","COUNTYNAME":"彰化縣","TOWNNAME":"彰化市","MARKTYPE":"996","Class":"6"}},{"type":"Feature","id":27308,"geometry":{"type":"Point","coordinates":[120.55395880243256,24.097358073904267]},"properties":{"OBJECTID":27308,"LANDMARKID":"1000700001148","LANDMARKCO":"603","LANDMARKNA":"春風休閒旅館","LANDMARKAD":"1000701","ADDRESS":"彰化縣彰化市建國東路311號","TEL":"04-7283311","COUNTYNAME":"彰化縣","TOWNNAME":"彰化市","MARKTYPE":"996","Class":"6"}},{"type":"Feature","id":27350,"geometry":{"type":"Point","coordinates":[120.50265059493121,24.034874687292529]},"properties":{"OBJECTID":27350,"LANDMARKID":"1000700000437","LANDMARKCO":"203","LANDMARKNA":"縣立秀水國小","LANDMARKAD":"1000707","ADDRESS":"彰化縣秀水鄉安東村中山路257號","TEL":"04-7692756","COUNTYNAME":"彰化縣","TOWNNAME":"秀水鄉","MARKTYPE":"992","Class":"2"}},{"type":"Feature","id":27351,"geometry":{"type":"Point","coordinates":[120.49697625329827,24.062164501412006]},"properties":{"OBJECTID":27351,"LANDMARKID":"1000700000438","LANDMARKCO":"203","LANDMARKNA":"縣立馬興國小","LANDMARKAD":"1000707","ADDRESS":"彰化縣秀水鄉馬興村培英巷1號","TEL":"04-7526247","COUNTYNAME":"彰化縣","TOWNNAME":"秀水鄉","MARKTYPE":"992","Class":"2"}},{"type":"Feature","id":27352,"geometry":{"type":"Point","coordinates":[120.51745924610631,24.012016195558385]},"properties":{"OBJECTID":27352,"LANDMARKID":"1000700000439","LANDMARKCO":"203","LANDMARKNA":"縣立陝西國小","LANDMARKAD":"1000707","ADDRESS":"彰化縣秀水鄉金興村番花路261號","TEL":"04-7692242","COUNTYNAME":"彰化縣","TOWNNAME":"秀水鄉","MARKTYPE":"992","Class":"2"}},{"type":"Feature","id":27353,"geometry":{"type":"Point","coordinates":[120.49272553518674,24.026727855155894]},"properties":{"OBJECTID":27353,"LANDMARKID":"1000700000440","LANDMARKCO":"203","LANDMARKNA":"縣立明正國小","LANDMARKAD":"1000707","ADDRESS":"彰化縣秀水鄉埔崙村彰水路二段341號","TEL":"04-7692533","COUNTYNAME":"彰化縣","TOWNNAME":"秀水鄉","MARKTYPE":"992","Class":"2"}},{"type":"Feature","id":27354,"geometry":{"type":"Point","coordinates":[120.50581876145783,24.004232817585812]},"properties":{"OBJECTID":27354,"LANDMARKID":"1000700000441","LANDMARKCO":"203","LANDMARKNA":"縣立育民國小","LANDMARKAD":"1000707","ADDRESS":"彰化縣秀水鄉下崙村民生路130號","TEL":"04-7694845","COUNTYNAME":"彰化縣","TOWNNAME":"秀水鄉","MARKTYPE":"992","Class":"2"}},{"type":"Feature","id":27355,"geometry":{"type":"Point","coordinates":[120.50284655067395,24.036737172969467]},"properties":{"OBJECTID":27355,"LANDMARKID":"1000700001162","LANDMARKCO":"603","LANDMARKNA":"金閣汽車旅館","LANDMARKAD":"1000707","ADDRESS":"彰化縣秀水鄉安東村彰水路一段64巷38號","TEL":"04-7695112","COUNTYNAME":"彰化縣","TOWNNAME":"秀水鄉","MARKTYPE":"996","Class":"6"}},{"type":"Feature","id":27356,"geometry":{"type":"Point","coordinates":[120.48988132403888,24.050846520043049]},"properties":{"OBJECTID":27356,"LANDMARKID":"1000700001212","LANDMARKCO":"604","LANDMARKNA":"采虹森林","LANDMARKAD":"1000707","ADDRESS":"彰化縣秀水鄉鶴鳴村永興巷9-1號","TEL":"04-7688887","COUNTYNAME":"彰化縣","TOWNNAME":"秀水鄉","MARKTYPE":"996","Class":"6"}},{"type":"Feature","id":27357,"geometry":{"type":"Point","coordinates":[120.54622688326258,24.02033234286138]},"properties":{"OBJECTID":27357,"LANDMARKID":"1000700000885","LANDMARKCO":"405","LANDMARKNA":"中油加油站-勝太站","LANDMARKAD":"1000708","ADDRESS":"彰化縣花壇鄉中山路一段218號","TEL":"04-7880026","COUNTYNAME":"彰化縣","TOWNNAME":"花壇鄉","MARKTYPE":"994","Class":"4"}},{"type":"Feature","id":27358,"geometry":{"type":"Point","coordinates":[120.56525898868784,24.014334671090218]},"properties":{"OBJECTID":27358,"LANDMARKID":"1000700000886","LANDMARKCO":"405","LANDMARKNA":"中油加油站-衫春站","LANDMARKAD":"1000708","ADDRESS":"彰化縣花壇鄉彰員路1段585號","TEL":"04-7867127","COUNTYNAME":"彰化縣","TOWNNAME":"花壇鄉","MARKTYPE":"994","Class":"4"}},{"type":"Feature","id":27359,"geometry":{"type":"Point","coordinates":[120.54461963457679,24.020967575171966]},"properties":{"OBJECTID":27359,"LANDMARKID":"1000700000887","LANDMARKCO":"405","LANDMARKNA":"中油加油站-勝中站","LANDMARKAD":"1000708","ADDRESS":"彰化縣花壇鄉花壇村中山路1段311號","TEL":"047-860888","COUNTYNAME":"彰化縣","TOWNNAME":"花壇鄉","MARKTYPE":"994","Class":"4"}},{"type":"Feature","id":27360,"geometry":{"type":"Point","coordinates":[120.5399856877676,24.025352846389854]},"properties":{"OBJECTID":27360,"LANDMARKID":"1000700000888","LANDMARKCO":"405","LANDMARKNA":"中油加油站-花壇站(中油直營)","LANDMARKAD":"1000708","ADDRESS":"彰化縣花壇鄉花壇村中山路一段384號","TEL":"04-7862064","COUNTYNAME":"彰化縣","TOWNNAME":"花壇鄉","MARKTYPE":"994","Class":"4"}},{"type":"Feature","id":27361,"geometry":{"type":"Point","coordinates":[120.53586581267115,24.035480485327763]},"properties":{"OBJECTID":27361,"LANDMARKID":"1000700000889","LANDMARKCO":"405","LANDMARKNA":"中油加油站-來來站","LANDMARKAD":"1000708","ADDRESS":"彰化縣花壇鄉南口村中山路二段447號","TEL":"04-7860786","COUNTYNAME":"彰化縣","TOWNNAME":"花壇鄉","MARKTYPE":"994","Class":"4"}},{"type":"Feature","id":27362,"geometry":{"type":"Point","coordinates":[120.54049766389431,24.026114420361139]},"properties":{"OBJECTID":27362,"LANDMARKID":"1000700000720","LANDMARKCO":"402","LANDMARKNA":"亞太行動寬頻電信-花壇中正加盟服務中心","LANDMARKAD":"1000708","ADDRESS":"彰化縣花壇鄉花壇村中正路262號","TEL":"04-7867818","COUNTYNAME":"彰化縣","TOWNNAME":"花壇鄉","MARKTYPE":"994","Class":"4"}},{"type":"Feature","id":27363,"geometry":{"type":"Point","coordinates":[120.55172753787288,24.045861286083952]},"properties":{"OBJECTID":27363,"LANDMARKID":"1000700001127","LANDMARKCO":"507","LANDMARKNA":"虎山巖","LANDMARKAD":"1000708","ADDRESS":"彰化縣花壇鄉岩竹村虎山街1號","TEL":" ","COUNTYNAME":"彰化縣","TOWNNAME":"花壇鄉","MARKTYPE":"995","Class":"5"}},{"type":"Feature","id":27364,"geometry":{"type":"Point","coordinates":[120.58077419089935,24.046149668630992]},"properties":{"OBJECTID":27364,"LANDMARKID":"1000700001089","LANDMARKCO":"506","LANDMARKNA":"姜仔寮楊桃觀光果園","LANDMARKAD":"1000708","ADDRESS":"彰化縣花壇鄉潭灣東村灣福巷35號","TEL":"04-7860758","COUNTYNAME":"彰化縣","TOWNNAME":"花壇鄉","MARKTYPE":"995","Class":"5"}},{"type":"Feature","id":27365,"geometry":{"type":"Point","coordinates":[120.55236142380117,24.04572055471511]},"properties":{"OBJECTID":27365,"LANDMARKID":"1000700001126","LANDMARKCO":"507","LANDMARKNA":"虎山巖","LANDMARKAD":"1000708","ADDRESS":"503彰化縣花壇鄉岩竹村虎山街1號","TEL":" ","COUNTYNAME":"彰化縣","TOWNNAME":"花壇鄉","MARKTYPE":"995","Class":"5"}},{"type":"Feature","id":27366,"geometry":{"type":"Point","coordinates":[120.53854063439105,24.025662409812451]},"properties":{"OBJECTID":27366,"LANDMARKID":"1000700001006","LANDMARKCO":"408","LANDMARKNA":"郵局-花壇郵局","LANDMARKAD":"1000708","ADDRESS":"彰化縣花壇鄉中正路316號","TEL":"(04)7874-640","COUNTYNAME":"彰化縣","TOWNNAME":"花壇鄉","MARKTYPE":"994","Class":"4"}},{"type":"Feature","id":27367,"geometry":{"type":"Point","coordinates":[120.53743114385293,24.026023121119987]},"properties":{"OBJECTID":27367,"LANDMARKID":"1000700001064","LANDMARKCO":"409","LANDMARKNA":"花壇鄉農會","LANDMARKAD":"1000708","ADDRESS":"彰化縣花壇鄉花壇村花壇街273號","TEL":"04-7867821","COUNTYNAME":"彰化縣","TOWNNAME":"花壇鄉","MARKTYPE":"994","Class":"4"}},{"type":"Feature","id":27368,"geometry":{"type":"Point","coordinates":[120.55827828400227,24.019573975823551]},"properties":{"OBJECTID":27368,"LANDMARKID":"1000700000782","LANDMARKCO":"404","LANDMARKNA":"台灣省自來水花壇營運所","LANDMARKAD":"1000708","ADDRESS":"彰化縣花壇鄉灣雅村花橋街11號","TEL":" ","COUNTYNAME":"彰化縣","TOWNNAME":"花壇鄉","MARKTYPE":"994","Class":"4"}},{"type":"Feature","id":27369,"geometry":{"type":"Point","coordinates":[120.57100961132437,24.016960232343148]},"properties":{"OBJECTID":27369,"LANDMARKID":"1000700000963","LANDMARKCO":"406","LANDMARKNA":"河堤公園","LANDMARKAD":"1000708","ADDRESS":"彰化縣花壇鄉","TEL":" ","COUNTYNAME":"彰化縣","TOWNNAME":"花壇鄉","MARKTYPE":"994","Class":"4"}},{"type":"Feature","id":27370,"geometry":{"type":"Point","coordinates":[120.55510257772865,24.006259854082305]},"properties":{"OBJECTID":27370,"LANDMARKID":"1000700000880","LANDMARKCO":"405","LANDMARKNA":"台大加油站-花壇站","LANDMARKAD":"1000708","ADDRESS":"彰化縣花壇鄉中山路一段68號","TEL":"04-7865428","COUNTYNAME":"彰化縣","TOWNNAME":"花壇鄉","MARKTYPE":"994","Class":"4"}},{"type":"Feature","id":27371,"geometry":{"type":"Point","coordinates":[120.53499312185652,24.041219871068161]},"properties":{"OBJECTID":27371,"LANDMARKID":"1000700000881","LANDMARKCO":"405","LANDMARKNA":"台亞加油站-花壇站(台塑)","LANDMARKAD":"1000708","ADDRESS":"彰化縣花壇鄉中山路二段542號","TEL":"04-7882119","COUNTYNAME":"彰化縣","TOWNNAME":"花壇鄉","MARKTYPE":"994","Class":"4"}},{"type":"Feature","id":27372,"geometry":{"type":"Point","coordinates":[120.53832459189267,24.029884867301309]},"properties":{"OBJECTID":27372,"LANDMARKID":"1000700000269","LANDMARKCO":"108","LANDMARKNA":"彰化縣花壇鄉公所","LANDMARKAD":"1000708","ADDRESS":"彰化縣花壇鄉南口村中山路二段182號","TEL":"04-7865921","COUNTYNAME":"彰化縣","TOWNNAME":"花壇鄉","MARKTYPE":"991","Class":"1"}},{"type":"Feature","id":27373,"geometry":{"type":"Point","coordinates":[120.53832459189267,24.029884867301309]},"properties":{"OBJECTID":27373,"LANDMARKID":"1000700000078","LANDMARKCO":"103","LANDMARKNA":"彰化縣花壇鄉民代表會","LANDMARKAD":"1000708","ADDRESS":"彰化縣花壇鄉南口村中山路二段182號","TEL":"04-7862231","COUNTYNAME":"彰化縣","TOWNNAME":"花壇鄉","MARKTYPE":"991","Class":"1"}},{"type":"Feature","id":27374,"geometry":{"type":"Point","coordinates":[120.54868430742864,24.028158130447249]},"properties":{"OBJECTID":27374,"LANDMARKID":"1000700000079","LANDMARKCO":"103","LANDMARKNA":"彰化縣花壇鄉衛生所","LANDMARKAD":"1000708","ADDRESS":"彰化縣花壇鄉長沙村中正路11號","TEL":"04-7872433","COUNTYNAME":"彰化縣","TOWNNAME":"花壇鄉","MARKTYPE":"991","Class":"1"}},{"type":"Feature","id":27309,"geometry":{"type":"Point","coordinates":[120.51996228784328,24.062562827822301]},"properties":{"OBJECTID":27309,"LANDMARKID":"1000700001149","LANDMARKCO":"603","LANDMARKNA":"彰化桂冠汽車旅館","LANDMARKAD":"1000701","ADDRESS":"彰化縣彰化市彰水路31號","TEL":"04-7623388","COUNTYNAME":"彰化縣","TOWNNAME":"彰化市","MARKTYPE":"996","Class":"6"}},{"type":"Feature","id":27310,"geometry":{"type":"Point","coordinates":[120.52946134768179,24.076257208822533]},"properties":{"OBJECTID":27310,"LANDMARKID":"1000700001150","LANDMARKCO":"603","LANDMARKNA":"凱悅汽車旅館","LANDMARKAD":"1000701","ADDRESS":"彰化縣彰化市彰草路117號","TEL":"04-7633799","COUNTYNAME":"彰化縣","TOWNNAME":"彰化市","MARKTYPE":"996","Class":"6"}},{"type":"Feature","id":27311,"geometry":{"type":"Point","coordinates":[120.53714105174717,24.0901926965761]},"properties":{"OBJECTID":27311,"LANDMARKID":"1000700001151","LANDMARKCO":"603","LANDMARKNA":"米蘭汽車旅館","LANDMARKAD":"1000701","ADDRESS":"彰化縣彰化市彰新路一段49巷21號1-2樓","TEL":"04-7369966","COUNTYNAME":"彰化縣","TOWNNAME":"彰化市","MARKTYPE":"996","Class":"6"}},{"type":"Feature","id":27312,"geometry":{"type":"Point","coordinates":[120.54085307942412,24.082703352719552]},"properties":{"OBJECTID":27312,"LANDMARKID":"1000700001152","LANDMARKCO":"603","LANDMARKNA":"大成旅社","LANDMARKAD":"1000701","ADDRESS":"彰化縣彰化市成功路309巷6號","TEL":"04-7222572","COUNTYNAME":"彰化縣","TOWNNAME":"彰化市","MARKTYPE":"996","Class":"6"}},{"type":"Feature","id":27313,"geometry":{"type":"Point","coordinates":[120.5428603830718,24.085343579772321]},"properties":{"OBJECTID":27313,"LANDMARKID":"1000700001153","LANDMARKCO":"603","LANDMARKNA":"華旗大旅社","LANDMARKAD":"1000701","ADDRESS":"彰化縣彰化市三民路230號2樓","TEL":"04-7248850-2","COUNTYNAME":"彰化縣","TOWNNAME":"彰化市","MARKTYPE":"996","Class":"6"}},{"type":"Feature","id":27314,"geometry":{"type":"Point","coordinates":[120.54003479122396,24.067763969162318]},"properties":{"OBJECTID":27314,"LANDMARKID":"1000700001154","LANDMARKCO":"603","LANDMARKNA":"金色河畔汽車旅館","LANDMARKAD":"1000701","ADDRESS":"彰化縣彰化市中山路2段82號1-2樓","TEL":"04-7122128","COUNTYNAME":"彰化縣","TOWNNAME":"彰化市","MARKTYPE":"996","Class":"6"}},{"type":"Feature","id":27315,"geometry":{"type":"Point","coordinates":[120.52844591781248,24.065659603400047]},"properties":{"OBJECTID":27315,"LANDMARKID":"1000700001155","LANDMARKCO":"603","LANDMARKNA":"歐悅精品汽車旅館-彰化館","LANDMARKAD":"1000701","ADDRESS":"彰化縣彰化市中央路195號","TEL":"04-7511111","COUNTYNAME":"彰化縣","TOWNNAME":"彰化市","MARKTYPE":"996","Class":"6"}},{"type":"Feature","id":27333,"geometry":{"type":"Point","coordinates":[120.50255794671794,24.037085505671524]},"properties":{"OBJECTID":27333,"LANDMARKID":"1000700001063","LANDMARKCO":"409","LANDMARKNA":"彰化縣秀水鄉農會","LANDMARKAD":"1000707","ADDRESS":"彰化縣秀水鄉安東村中山路328號","TEL":"04-7691321","COUNTYNAME":"彰化縣","TOWNNAME":"秀水鄉","MARKTYPE":"994","Class":"4"}},{"type":"Feature","id":27334,"geometry":{"type":"Point","coordinates":[120.49039875056083,24.021176874797877]},"properties":{"OBJECTID":27334,"LANDMARKID":"1000700000882","LANDMARKCO":"405","LANDMARKNA":"福懋加油站-秀水站(台塑)","LANDMARKAD":"1000707","ADDRESS":"彰化縣秀水鄉彰水路二段33號","TEL":"04-7683696","COUNTYNAME":"彰化縣","TOWNNAME":"秀水鄉","MARKTYPE":"994","Class":"4"}},{"type":"Feature","id":27335,"geometry":{"type":"Point","coordinates":[120.50226931203022,24.049962089268316]},"properties":{"OBJECTID":27335,"LANDMARKID":"1000700000883","LANDMARKCO":"405","LANDMARKNA":"台塑加油站-鯨聖站(台塑)","LANDMARKAD":"1000707","ADDRESS":"彰化縣秀水鄉鶴鳴村彰鹿路229號","TEL":"04-7697160","COUNTYNAME":"彰化縣","TOWNNAME":"秀水鄉","MARKTYPE":"994","Class":"4"}},{"type":"Feature","id":27336,"geometry":{"type":"Point","coordinates":[120.49304898137076,24.050004674769255]},"properties":{"OBJECTID":27336,"LANDMARKID":"1000700000884","LANDMARKCO":"405","LANDMARKNA":"全國加油站-鹿港站（台塑）","LANDMARKAD":"1000707","ADDRESS":"彰化縣秀水鄉彰鹿路四段414號","TEL":"04-7690828","COUNTYNAME":"彰化縣","TOWNNAME":"秀水鄉","MARKTYPE":"994","Class":"4"}},{"type":"Feature","id":27337,"geometry":{"type":"Point","coordinates":[120.50296184361754,24.035424101716409]},"properties":{"OBJECTID":27337,"LANDMARKID":"1000700000267","LANDMARKCO":"108","LANDMARKNA":"彰化縣秀水鄉公所","LANDMARKAD":"1000707","ADDRESS":"彰化縣秀水鄉安東村中山路290號","TEL":"04-7697024","COUNTYNAME":"彰化縣","TOWNNAME":"秀水鄉","MARKTYPE":"991","Class":"1"}},{"type":"Feature","id":27338,"geometry":{"type":"Point","coordinates":[120.50296184361754,24.035424101716409]},"properties":{"OBJECTID":27338,"LANDMARKID":"1000700000076","LANDMARKCO":"103","LANDMARKNA":"彰化縣秀水鄉鄉民代表會","LANDMARKAD":"1000707","ADDRESS":"彰化縣秀水鄉中山路290號之2","TEL":"04-7692814","COUNTYNAME":"彰化縣","TOWNNAME":"秀水鄉","MARKTYPE":"991","Class":"1"}},{"type":"Feature","id":27339,"geometry":{"type":"Point","coordinates":[120.50325941585398,24.035340877833224]},"properties":{"OBJECTID":27339,"LANDMARKID":"1000700000077","LANDMARKCO":"103","LANDMARKNA":"彰化縣秀水鄉衛生所","LANDMARKAD":"1000707","ADDRESS":"彰化縣秀水鄉安東村中山路288號","TEL":"04-7682938","COUNTYNAME":"彰化縣","TOWNNAME":"秀水鄉","MARKTYPE":"991","Class":"1"}},{"type":"Feature","id":27340,"geometry":{"type":"Point","coordinates":[120.49866547239183,24.029777822939188]},"properties":{"OBJECTID":27340,"LANDMARKID":"1000700000212","LANDMARKCO":"107","LANDMARKNA":"彰化縣消防局秀水消防分隊","LANDMARKAD":"1000707","ADDRESS":"彰化縣秀水鄉復新街5號","TEL":"04-7692144","COUNTYNAME":"彰化縣","TOWNNAME":"秀水鄉","MARKTYPE":"991","Class":"1"}},{"type":"Feature","id":27341,"geometry":{"type":"Point","coordinates":[120.50536796628255,24.051152717596622]},"properties":{"OBJECTID":27341,"LANDMARKID":"1000700000213","LANDMARKCO":"107","LANDMARKNA":"彰化縣警察局馬鳴派出所","LANDMARKAD":"1000707","ADDRESS":"彰化縣秀水鄉鶴鳴村彰鹿路98號","TEL":"04-7692082","COUNTYNAME":"彰化縣","TOWNNAME":"秀水鄉","MARKTYPE":"991","Class":"1"}},{"type":"Feature","id":27342,"geometry":{"type":"Point","coordinates":[120.50998260009766,24.040559009453609]},"properties":{"OBJECTID":27342,"LANDMARKID":"1000700000214","LANDMARKCO":"107","LANDMARKNA":"彰化縣警察局秀安派出所","LANDMARKAD":"1000707","ADDRESS":"彰化縣秀水鄉安溪村安溪街6號","TEL":"04-7692304","COUNTYNAME":"彰化縣","TOWNNAME":"秀水鄉","MARKTYPE":"991","Class":"1"}},{"type":"Feature","id":27343,"geometry":{"type":"Point","coordinates":[120.50263783477645,24.035396733085904]},"properties":{"OBJECTID":27343,"LANDMARKID":"1000700000123","LANDMARKCO":"106","LANDMARKNA":"彰化縣秀水鄉戶政事務所","LANDMARKAD":"1000707","ADDRESS":"彰化縣秀水鄉安東村中山路290-5號","TEL":"04-7692645","COUNTYNAME":"彰化縣","TOWNNAME":"秀水鄉","MARKTYPE":"991","Class":"1"}},{"type":"Feature","id":27344,"geometry":{"type":"Point","coordinates":[120.4947946916437,24.027402566998802]},"properties":{"OBJECTID":27344,"LANDMARKID":"1000700000206","LANDMARKCO":"107","LANDMARKNA":"彰化縣警察局秀水分駐所","LANDMARKAD":"1000707","ADDRESS":"彰化縣秀水鄉埔崙村民生街787、789號","TEL":"04-7692964","COUNTYNAME":"彰化縣","TOWNNAME":"秀水鄉","MARKTYPE":"991","Class":"1"}},{"type":"Feature","id":27345,"geometry":{"type":"Point","coordinates":[120.51780172658559,24.009800641978931]},"properties":{"OBJECTID":27345,"LANDMARKID":"1000700000561","LANDMARKCO":"205","LANDMARKNA":"陜西文物館","LANDMARKAD":"1000707","ADDRESS":"彰化縣秀水鄉","TEL":" ","COUNTYNAME":"彰化縣","TOWNNAME":"秀水鄉","MARKTYPE":"992","Class":"2"}},{"type":"Feature","id":27346,"geometry":{"type":"Point","coordinates":[120.5045623583549,24.035676023123273]},"properties":{"OBJECTID":27346,"LANDMARKID":"1000700000541","LANDMARKCO":"204","LANDMARKNA":"彰化縣立圖書館秀水分館","LANDMARKAD":"1000707","ADDRESS":"彰化縣秀水鄉中山路290號3樓","TEL":" ","COUNTYNAME":"彰化縣","TOWNNAME":"秀水鄉","MARKTYPE":"992","Class":"2"}},{"type":"Feature","id":27347,"geometry":{"type":"Point","coordinates":[120.51411686877815,24.037577460893605]},"properties":{"OBJECTID":27347,"LANDMARKID":"1000700000449","LANDMARKCO":"203","LANDMARKNA":"縣立華龍國小","LANDMARKAD":"1000707","ADDRESS":"彰化縣秀水鄉秀水村花秀路75號","TEL":"04-7692713","COUNTYNAME":"彰化縣","TOWNNAME":"秀水鄉","MARKTYPE":"992","Class":"2"}},{"type":"Feature","id":27348,"geometry":{"type":"Point","coordinates":[120.49923731726648,24.034420006595333]},"properties":{"OBJECTID":27348,"LANDMARKID":"1000700000297","LANDMARKCO":"202","LANDMARKNA":"國立秀水高工","LANDMARKAD":"1000707","ADDRESS":"彰化縣秀水鄉福安村中山路364號","TEL":"04-7697021","COUNTYNAME":"彰化縣","TOWNNAME":"秀水鄉","MARKTYPE":"992","Class":"2"}},{"type":"Feature","id":27349,"geometry":{"type":"Point","coordinates":[120.50529286266823,24.036217383596107]},"properties":{"OBJECTID":27349,"LANDMARKID":"1000700000436","LANDMARKCO":"203","LANDMARKNA":"縣立秀水國中","LANDMARKAD":"1000707","ADDRESS":"彰化縣秀水鄉安東村中山路202號","TEL":"04-7696031","COUNTYNAME":"彰化縣","TOWNNAME":"秀水鄉","MARKTYPE":"992","Class":"2"}},{"type":"Feature","id":27383,"geometry":{"type":"Point","coordinates":[120.55191051320728,24.016388292438783]},"properties":{"OBJECTID":27383,"LANDMARKID":"1000700000442","LANDMARKCO":"203","LANDMARKNA":"縣立華南國小","LANDMARKAD":"1000708","ADDRESS":"彰化縣花壇鄉中庄村中橋街33號","TEL":"04-7863225","COUNTYNAME":"彰化縣","TOWNNAME":"花壇鄉","MARKTYPE":"992","Class":"2"}},{"type":"Feature","id":27400,"geometry":{"type":"Point","coordinates":[120.56674431067259,24.01648229176606]},"properties":{"OBJECTID":27400,"LANDMARKID":"1000700001164","LANDMARKCO":"603","LANDMARKNA":"嘯月山莊","LANDMARKAD":"1000708","ADDRESS":"彰化縣花壇鄉灣雅村三芬路30號","TEL":"04-7872029","COUNTYNAME":"彰化縣","TOWNNAME":"花壇鄉","MARKTYPE":"996","Class":"6"}},{"type":"Feature","id":27384,"geometry":{"type":"Point","coordinates":[120.56641604316303,24.014600864656742]},"properties":{"OBJECTID":27384,"LANDMARKID":"1000700000443","LANDMARKCO":"203","LANDMARKNA":"縣立三春國小","LANDMARKAD":"1000708","ADDRESS":"彰化縣花壇鄉三春村三芬路7號","TEL":"04-7862154","COUNTYNAME":"彰化縣","TOWNNAME":"花壇鄉","MARKTYPE":"992","Class":"2"}},{"type":"Feature","id":27385,"geometry":{"type":"Point","coordinates":[120.53471689675352,24.038581539177347]},"properties":{"OBJECTID":27385,"LANDMARKID":"1000700000444","LANDMARKCO":"203","LANDMARKNA":"縣立僑愛國小","LANDMARKAD":"1000708","ADDRESS":"彰化縣花壇鄉中口村中山路二段471號","TEL":"04-7863227","COUNTYNAME":"彰化縣","TOWNNAME":"花壇鄉","MARKTYPE":"992","Class":"2"}},{"type":"Feature","id":27386,"geometry":{"type":"Point","coordinates":[120.54320368413148,24.026319235870037]},"properties":{"OBJECTID":27386,"LANDMARKID":"1000700000445","LANDMARKCO":"203","LANDMARKNA":"縣立花壇國小","LANDMARKAD":"1000708","ADDRESS":"彰化縣花壇鄉長沙村學前路108號","TEL":"04-7862029","COUNTYNAME":"彰化縣","TOWNNAME":"花壇鄉","MARKTYPE":"992","Class":"2"}},{"type":"Feature","id":27387,"geometry":{"type":"Point","coordinates":[120.54995630117625,24.030109655414044]},"properties":{"OBJECTID":27387,"LANDMARKID":"1000700000446","LANDMARKCO":"203","LANDMARKNA":"縣立花壇國中","LANDMARKAD":"1000708","ADDRESS":"彰化縣花壇鄉長沙村彰員路252號","TEL":"04-7862043","COUNTYNAME":"彰化縣","TOWNNAME":"花壇鄉","MARKTYPE":"992","Class":"2"}},{"type":"Feature","id":27388,"geometry":{"type":"Point","coordinates":[120.52626166404552,24.024887345249677]},"properties":{"OBJECTID":27388,"LANDMARKID":"1000700000447","LANDMARKCO":"203","LANDMARKNA":"縣立文祥國小","LANDMARKAD":"1000708","ADDRESS":"彰化縣花壇鄉劉厝村明雅巷9號","TEL":"04-7862255","COUNTYNAME":"彰化縣","TOWNNAME":"花壇鄉","MARKTYPE":"992","Class":"2"}},{"type":"Feature","id":27389,"geometry":{"type":"Point","coordinates":[120.54499580444173,24.047605487235266]},"properties":{"OBJECTID":27389,"LANDMARKID":"1000700000448","LANDMARKCO":"203","LANDMARKNA":"縣立白沙國小","LANDMARKAD":"1000708","ADDRESS":"彰化縣花壇鄉白沙村彰員路418號","TEL":"04-7863224","COUNTYNAME":"彰化縣","TOWNNAME":"花壇鄉","MARKTYPE":"992","Class":"2"}},{"type":"Feature","id":27390,"geometry":{"type":"Point","coordinates":[120.58959937710159,24.020900994409462]},"properties":{"OBJECTID":27390,"LANDMARKID":"1000700000628","LANDMARKCO":"303","LANDMARKNA":"台灣民俗村停車場","LANDMARKAD":"1000708","ADDRESS":"彰化縣花壇鄉三芬路360號","TEL":"0800661818","COUNTYNAME":"彰化縣","TOWNNAME":"花壇鄉","MARKTYPE":"993","Class":"303"}},{"type":"Feature","id":27391,"geometry":{"type":"Point","coordinates":[120.58983214928328,24.021288617646462]},"properties":{"OBJECTID":27391,"LANDMARKID":"1000700000629","LANDMARKCO":"303","LANDMARKNA":"台灣民俗村停車場","LANDMARKAD":"1000708","ADDRESS":"彰化縣花壇鄉三芬路360號","TEL":" ","COUNTYNAME":"彰化縣","TOWNNAME":"花壇鄉","MARKTYPE":"993","Class":"303"}},{"type":"Feature","id":27392,"geometry":{"type":"Point","coordinates":[120.59144696052171,24.021724839387772]},"properties":{"OBJECTID":27392,"LANDMARKID":"1000700000630","LANDMARKCO":"303","LANDMARKNA":"台灣民俗村停車場","LANDMARKAD":"1000708","ADDRESS":"彰化縣花壇鄉三芬路360號","TEL":" ","COUNTYNAME":"彰化縣","TOWNNAME":"花壇鄉","MARKTYPE":"993","Class":"303"}},{"type":"Feature","id":27393,"geometry":{"type":"Point","coordinates":[120.58302640883278,24.051771452068213]},"properties":{"OBJECTID":27393,"LANDMARKID":"1000700000640","LANDMARKCO":"308","LANDMARKNA":"台74甲-草仔埔路口","LANDMARKAD":"1000708","ADDRESS":"彰化縣花壇鄉","TEL":" ","COUNTYNAME":"彰化縣","TOWNNAME":"花壇鄉","MARKTYPE":"993","Class":"308"}},{"type":"Feature","id":27394,"geometry":{"type":"Point","coordinates":[120.55822783900111,24.021405586888456]},"properties":{"OBJECTID":27394,"LANDMARKID":"1000700000641","LANDMARKCO":"308","LANDMARKNA":"台74甲-灣子口路口","LANDMARKAD":"1000708","ADDRESS":"彰化縣花壇鄉","TEL":" ","COUNTYNAME":"彰化縣","TOWNNAME":"花壇鄉","MARKTYPE":"993","Class":"308"}},{"type":"Feature","id":27395,"geometry":{"type":"Point","coordinates":[120.55022354888305,24.01722325201203]},"properties":{"OBJECTID":27395,"LANDMARKID":"1000700000642","LANDMARKCO":"308","LANDMARKNA":"台74甲-花壇路口","LANDMARKAD":"1000708","ADDRESS":"彰化縣花壇鄉","TEL":" ","COUNTYNAME":"彰化縣","TOWNNAME":"花壇鄉","MARKTYPE":"993","Class":"308"}},{"type":"Feature","id":27396,"geometry":{"type":"Point","coordinates":[120.56053655589243,24.043560429925837]},"properties":{"OBJECTID":27396,"LANDMARKID":"1000700000625","LANDMARKCO":"303","LANDMARKNA":"虎山岩古蹟遊憩區停車場","LANDMARKAD":"1000708","ADDRESS":"彰化縣花壇鄉岩竹村大嶺巷19號","TEL":" ","COUNTYNAME":"彰化縣","TOWNNAME":"花壇鄉","MARKTYPE":"993","Class":"303"}},{"type":"Feature","id":27397,"geometry":{"type":"Point","coordinates":[120.55994991851631,24.049602430207997]},"properties":{"OBJECTID":27397,"LANDMARKID":"1000700000626","LANDMARKCO":"303","LANDMARKNA":"虎山岩古蹟遊憩區停車場","LANDMARKAD":"1000708","ADDRESS":"彰化縣花壇鄉岩竹村大崁巷19號","TEL":" ","COUNTYNAME":"彰化縣","TOWNNAME":"花壇鄉","MARKTYPE":"993","Class":"303"}},{"type":"Feature","id":27398,"geometry":{"type":"Point","coordinates":[120.53730641233453,24.024996625660197]},"properties":{"OBJECTID":27398,"LANDMARKID":"1000700000574","LANDMARKCO":"301","LANDMARKNA":"花壇火車站","LANDMARKAD":"1000708","ADDRESS":"彰化縣花壇鄉","TEL":" ","COUNTYNAME":"彰化縣","TOWNNAME":"花壇鄉","MARKTYPE":"993","Class":"301"}},{"type":"Feature","id":27399,"geometry":{"type":"Point","coordinates":[120.53904574594411,24.024299872444892]},"properties":{"OBJECTID":27399,"LANDMARKID":"1000700000722","LANDMARKCO":"402","LANDMARKNA":"中華電信-花壇服務中心","LANDMARKAD":"1000708","ADDRESS":"彰化縣花壇鄉花壇村平和街135號","TEL":"(04)786-3044","COUNTYNAME":"彰化縣","TOWNNAME":"花壇鄉","MARKTYPE":"994","Class":"4"}},{"type":"Feature","id":27375,"geometry":{"type":"Point","coordinates":[120.54907494749035,24.02791040550008]},"properties":{"OBJECTID":27375,"LANDMARKID":"1000700000207","LANDMARKCO":"107","LANDMARKNA":"彰化縣消防局花壇消防分隊","LANDMARKAD":"1000708","ADDRESS":"彰化縣花壇鄉彰員路二段497號","TEL":"04-7862082","COUNTYNAME":"彰化縣","TOWNNAME":"花壇鄉","MARKTYPE":"991","Class":"1"}},{"type":"Feature","id":27376,"geometry":{"type":"Point","coordinates":[120.54898342990838,24.028303461205962]},"properties":{"OBJECTID":27376,"LANDMARKID":"1000700000208","LANDMARKCO":"107","LANDMARKNA":"彰化縣警察局花壇分駐所","LANDMARKAD":"1000708","ADDRESS":"彰化縣花壇鄉長沙村中正路1號","TEL":"04-7862014","COUNTYNAME":"彰化縣","TOWNNAME":"花壇鄉","MARKTYPE":"991","Class":"1"}},{"type":"Feature","id":27377,"geometry":{"type":"Point","coordinates":[120.54902987801083,24.028099578723761]},"properties":{"OBJECTID":27377,"LANDMARKID":"1000700000125","LANDMARKCO":"106","LANDMARKNA":"彰化縣花壇鄉戶政事務所","LANDMARKAD":"1000708","ADDRESS":"彰化縣花壇鄉長沙村彰員路二段507號","TEL":"04-7862594","COUNTYNAME":"彰化縣","TOWNNAME":"花壇鄉","MARKTYPE":"991","Class":"1"}},{"type":"Feature","id":27378,"geometry":{"type":"Point","coordinates":[120.53539626322852,24.036765510937073]},"properties":{"OBJECTID":27378,"LANDMARKID":"1000700000010","LANDMARKCO":"101","LANDMARKNA":"台中區監理所彰化監理站","LANDMARKAD":"1000708","ADDRESS":"彰化縣花壇鄉南口村中山路二段457號","TEL":"04-7867161","COUNTYNAME":"彰化縣","TOWNNAME":"花壇鄉","MARKTYPE":"991","Class":"1"}},{"type":"Feature","id":27379,"geometry":{"type":"Point","coordinates":[120.53539626322852,24.036765510937073]},"properties":{"OBJECTID":27379,"LANDMARKID":"1000700000070","LANDMARKCO":"103","LANDMARKNA":"彰化縣區車輛行車事故鑑定委員會","LANDMARKAD":"1000708","ADDRESS":"彰化縣花壇鄉中山路二段457號4樓","TEL":"04-7864221","COUNTYNAME":"彰化縣","TOWNNAME":"花壇鄉","MARKTYPE":"991","Class":"1"}},{"type":"Feature","id":27380,"geometry":{"type":"Point","coordinates":[120.53832459189267,24.029884867301309]},"properties":{"OBJECTID":27380,"LANDMARKID":"1000700000071","LANDMARKCO":"103","LANDMARKNA":"花壇鄉簡易殯儀館","LANDMARKAD":"1000708","ADDRESS":"彰化縣花壇鄉中山路二段182號","TEL":"04-7865921","COUNTYNAME":"彰化縣","TOWNNAME":"花壇鄉","MARKTYPE":"991","Class":"1"}},{"type":"Feature","id":27381,"geometry":{"type":"Point","coordinates":[120.56629389255308,24.01462500312623]},"properties":{"OBJECTID":27381,"LANDMARKID":"1000700000201","LANDMARKCO":"107","LANDMARKNA":"彰化縣警察局三家派出所","LANDMARKAD":"1000708","ADDRESS":"彰化縣花壇鄉三春村彰員路109號","TEL":"04-7862454","COUNTYNAME":"彰化縣","TOWNNAME":"花壇鄉","MARKTYPE":"991","Class":"1"}},{"type":"Feature","id":27382,"geometry":{"type":"Point","coordinates":[120.54425645248666,24.027306082311199]},"properties":{"OBJECTID":27382,"LANDMARKID":"1000700000539","LANDMARKCO":"204","LANDMARKNA":"彰化縣立圖書館花壇分館","LANDMARKAD":"1000708","ADDRESS":"彰化縣花壇鄉長沙村中正路72號","TEL":" ","COUNTYNAME":"彰化縣","TOWNNAME":"花壇鄉","MARKTYPE":"992","Class":"2"}}]}