{"type":"FeatureCollection","features":[{"type":"Feature","id":9401,"geometry":{"type":"Point","coordinates":[121.55102478628166,25.023294244294945]},"properties":{"OBJECTID":9401,"LANDMARKID":"6300000002327","LANDMARKCO":"402","LANDMARKNA":"My Phone台灣大哥大-台北大安直營服務中心","LANDMARKAD":"6300003","ADDRESS":"台北市大安區基隆路二段172之3號","TEL":"0809-000-166","COUNTYNAME":"台北市","TOWNNAME":"大安區","MARKTYPE":"994","Class":"4"}},{"type":"Feature","id":9402,"geometry":{"type":"Point","coordinates":[121.5467553775804,25.042108923295626]},"properties":{"OBJECTID":9402,"LANDMARKID":"6300000002328","LANDMARKCO":"402","LANDMARKNA":"My Phone台灣大哥大-台北頂好直營服務中心","LANDMARKAD":"6300003","ADDRESS":"台北市大安區忠孝東路四段71號","TEL":" ","COUNTYNAME":"台北市","TOWNNAME":"大安區","MARKTYPE":"994","Class":"4"}},{"type":"Feature","id":9403,"geometry":{"type":"Point","coordinates":[121.54377485722927,25.031205709188118]},"properties":{"OBJECTID":9403,"LANDMARKID":"6300000002329","LANDMARKCO":"402","LANDMARKNA":"My Phone台灣大哥大-大安－復興南","LANDMARKAD":"6300003","ADDRESS":"台北市大安區復興南路二段47號","TEL":"02-2325-5011","COUNTYNAME":"台北市","TOWNNAME":"大安區","MARKTYPE":"994","Class":"4"}},{"type":"Feature","id":9404,"geometry":{"type":"Point","coordinates":[121.52469698156605,25.024384847460816]},"properties":{"OBJECTID":9404,"LANDMARKID":"6300000002330","LANDMARKCO":"402","LANDMARKNA":"My Phone台灣大哥大-大安古亭","LANDMARKAD":"6300003","ADDRESS":"台北市羅斯福路二段113號","TEL":"(02)2368-0338","COUNTYNAME":"台北市","TOWNNAME":"大安區","MARKTYPE":"994","Class":"4"}},{"type":"Feature","id":9405,"geometry":{"type":"Point","coordinates":[121.55410650175305,25.029418870670618]},"properties":{"OBJECTID":9405,"LANDMARKID":"6300000002331","LANDMARKCO":"402","LANDMARKNA":"亞太行動寬頻電信-大安通化加盟服務中心","LANDMARKAD":"6300003","ADDRESS":"台北市大安區通化街115號","TEL":"02-27357276","COUNTYNAME":"台北市","TOWNNAME":"大安區","MARKTYPE":"994","Class":"4"}},{"type":"Feature","id":9406,"geometry":{"type":"Point","coordinates":[121.53452718914171,25.044730613188211]},"properties":{"OBJECTID":9406,"LANDMARKID":"6300000002332","LANDMARKCO":"402","LANDMARKNA":"亞太行動寬頻電信-台北八德加盟服務中心","LANDMARKAD":"6300003","ADDRESS":"台北市大安區八德路二段24號","TEL":"02-27773639","COUNTYNAME":"台北市","TOWNNAME":"大安區","MARKTYPE":"994","Class":"4"}},{"type":"Feature","id":9407,"geometry":{"type":"Point","coordinates":[121.55751851850756,25.044399335721206]},"properties":{"OBJECTID":9407,"LANDMARKID":"6300000002333","LANDMARKCO":"402","LANDMARKNA":"亞太行動寬頻電信-台北市","LANDMARKAD":"6300003","ADDRESS":"台北市大安區光復南路88號","TEL":" ","COUNTYNAME":"台北市","TOWNNAME":"大安區","MARKTYPE":"994","Class":"4"}},{"type":"Feature","id":9408,"geometry":{"type":"Point","coordinates":[121.55307957699914,25.039799759117603]},"properties":{"OBJECTID":9408,"LANDMARKID":"6300000002334","LANDMARKCO":"402","LANDMARKNA":"亞太行動寬頻電信-大安忠孝東加盟服務中心","LANDMARKAD":"6300003","ADDRESS":"台北市大安區忠孝東路四段216巷29號","TEL":"02-87716144","COUNTYNAME":"台北市","TOWNNAME":"大安區","MARKTYPE":"994","Class":"4"}},{"type":"Feature","id":9409,"geometry":{"type":"Point","coordinates":[121.54733022041677,25.041861655104416]},"properties":{"OBJECTID":9409,"LANDMARKID":"6300000002086","LANDMARKCO":"401","LANDMARKNA":"財團法人中心診所醫院","LANDMARKAD":"6300003","ADDRESS":"台北市大安區忠孝東路四段77號","TEL":"02-27510221","COUNTYNAME":"台北市","TOWNNAME":"大安區","MARKTYPE":"994","Class":"4"}},{"type":"Feature","id":9410,"geometry":{"type":"Point","coordinates":[121.54971345162905,25.036545038817]},"properties":{"OBJECTID":9410,"LANDMARKID":"6300000002087","LANDMARKCO":"401","LANDMARKNA":"中山醫院","LANDMARKAD":"6300003","ADDRESS":"台北市大安區仁愛路四段112巷11號","TEL":"02-27081166","COUNTYNAME":"台北市","TOWNNAME":"大安區","MARKTYPE":"994","Class":"4"}},{"type":"Feature","id":9411,"geometry":{"type":"Point","coordinates":[121.54704518769724,25.038486566710791]},"properties":{"OBJECTID":9411,"LANDMARKID":"6300000002088","LANDMARKCO":"401","LANDMARKNA":"財團法人宏恩綜合醫院","LANDMARKAD":"6300003","ADDRESS":"台北市大安區仁愛路四段71巷1號","TEL":"02-27713161","COUNTYNAME":"台北市","TOWNNAME":"大安區","MARKTYPE":"994","Class":"4"}},{"type":"Feature","id":9412,"geometry":{"type":"Point","coordinates":[121.54387730437784,25.014259229960761]},"properties":{"OBJECTID":9412,"LANDMARKID":"6300000002089","LANDMARKCO":"401","LANDMARKNA":"國立台灣大學醫學院附設醫院-公館院區","LANDMARKAD":"6300003","ADDRESS":"台北市大安區基隆路三段155巷57號","TEL":"02-87339240","COUNTYNAME":"台北市","TOWNNAME":"大安區","MARKTYPE":"994","Class":"4"}},{"type":"Feature","id":9413,"geometry":{"type":"Point","coordinates":[121.55687262668475,25.04311314693307]},"properties":{"OBJECTID":9413,"LANDMARKID":"6300000002090","LANDMARKCO":"401","LANDMARKNA":"秀傳醫院","LANDMARKAD":"6300003","ADDRESS":"台北市光復南路116巷1號","TEL":"02-27717172","COUNTYNAME":"台北市","TOWNNAME":"大安區","MARKTYPE":"994","Class":"4"}},{"type":"Feature","id":9414,"geometry":{"type":"Point","coordinates":[121.55375309440407,25.037266889361689]},"properties":{"OBJECTID":9414,"LANDMARKID":"6300000002091","LANDMARKCO":"401","LANDMARKNA":"財團法人國泰綜合醫院","LANDMARKAD":"6300003","ADDRESS":"台北市大安區仁愛路四段280號","TEL":"02-27082121","COUNTYNAME":"台北市","TOWNNAME":"大安區","MARKTYPE":"994","Class":"4"}},{"type":"Feature","id":9415,"geometry":{"type":"Point","coordinates":[121.54528280892123,25.037622126159029]},"properties":{"OBJECTID":9415,"LANDMARKID":"6300000002092","LANDMARKCO":"401","LANDMARKNA":"台北市立聯合醫院-仁愛院區(仁愛醫院)","LANDMARKAD":"6300003","ADDRESS":"台北市大安區仁愛路四段10號","TEL":"02-27093600","COUNTYNAME":"台北市","TOWNNAME":"大安區","MARKTYPE":"994","Class":"4"}},{"type":"Feature","id":9416,"geometry":{"type":"Point","coordinates":[121.52947319648642,25.024258992016318]},"properties":{"OBJECTID":9416,"LANDMARKID":"6300000003322","LANDMARKCO":"511","LANDMARKNA":"師大夜市","LANDMARKAD":"6300003","ADDRESS":"台北市大安區龍泉街、師大路、雲河街等","TEL":" ","COUNTYNAME":"台北市","TOWNNAME":"大安區","MARKTYPE":"995","Class":"5"}},{"type":"Feature","id":9417,"geometry":{"type":"Point","coordinates":[121.54928040946824,25.03912072394192]},"properties":{"OBJECTID":9417,"LANDMARKID":"6300000003107","LANDMARKCO":"410","LANDMARKNA":"誠品書店-台北敦南店","LANDMARKAD":"6300003","ADDRESS":"台北市敦化南路一段245號","TEL":"02-2775-5977","COUNTYNAME":"台北市","TOWNNAME":"大安區","MARKTYPE":"994","Class":"4"}},{"type":"Feature","id":9418,"geometry":{"type":"Point","coordinates":[121.54968737766909,25.026291612653285]},"properties":{"OBJECTID":9418,"LANDMARKID":"6300000003108","LANDMARKCO":"410","LANDMARKNA":"遠企購物中心","LANDMARKAD":"6300003","ADDRESS":"台北市大安區敦化南路二段203號","TEL":"02-23786666","COUNTYNAME":"台北市","TOWNNAME":"大安區","MARKTYPE":"994","Class":"4"}},{"type":"Feature","id":9419,"geometry":{"type":"Point","coordinates":[121.53370799989089,25.01697973272119]},"properties":{"OBJECTID":9419,"LANDMARKID":"6300000003252","LANDMARKCO":"507","LANDMARKNA":"台大校門","LANDMARKAD":"6300003","ADDRESS":"台北市大安區羅斯福路四段1號","TEL":" ","COUNTYNAME":"台北市","TOWNNAME":"大安區","MARKTYPE":"995","Class":"5"}},{"type":"Feature","id":9420,"geometry":{"type":"Point","coordinates":[121.53394984216881,25.043011243728962]},"properties":{"OBJECTID":9420,"LANDMARKID":"6300000003253","LANDMARKCO":"507","LANDMARKNA":"台北工業學校紅樓","LANDMARKAD":"6300003","ADDRESS":"台北市大安區忠孝東路三段1號","TEL":" ","COUNTYNAME":"台北市","TOWNNAME":"大安區","MARKTYPE":"995","Class":"5"}},{"type":"Feature","id":9421,"geometry":{"type":"Point","coordinates":[121.52621629846197,25.029215185059737]},"properties":{"OBJECTID":9421,"LANDMARKID":"6300000003254","LANDMARKCO":"507","LANDMARKNA":"台北監獄圍牆遺蹟","LANDMARKAD":"6300003","ADDRESS":"台北市大安區金山南路電信局邊牆","TEL":" ","COUNTYNAME":"台北市","TOWNNAME":"大安區","MARKTYPE":"995","Class":"5"}},{"type":"Feature","id":9422,"geometry":{"type":"Point","coordinates":[121.53371527433572,25.01698615448484]},"properties":{"OBJECTID":9422,"LANDMARKID":"6300000003255","LANDMARKCO":"507","LANDMARKNA":"台灣大學原帝大校舍","LANDMARKAD":"6300003","ADDRESS":"台北市大安區羅斯福路四段1號","TEL":" ","COUNTYNAME":"台北市","TOWNNAME":"大安區","MARKTYPE":"995","Class":"5"}},{"type":"Feature","id":9423,"geometry":{"type":"Point","coordinates":[121.52758656712339,25.026412372618463]},"properties":{"OBJECTID":9423,"LANDMARKID":"6300000003256","LANDMARKCO":"507","LANDMARKNA":"台灣師範大學原高等學校講堂","LANDMARKAD":"6300003","ADDRESS":"台北市大安區和平東路一段162號","TEL":" ","COUNTYNAME":"台北市","TOWNNAME":"大安區","MARKTYPE":"995","Class":"5"}},{"type":"Feature","id":9424,"geometry":{"type":"Point","coordinates":[121.53429297450997,25.024599216458164]},"properties":{"OBJECTID":9424,"LANDMARKID":"6300000003257","LANDMARKCO":"507","LANDMARKNA":"紫藤廬","LANDMARKAD":"6300003","ADDRESS":"台北市大安區新生南路三段16巷1號","TEL":" ","COUNTYNAME":"台北市","TOWNNAME":"大安區","MARKTYPE":"995","Class":"5"}},{"type":"Feature","id":9425,"geometry":{"type":"Point","coordinates":[121.54287655217108,25.016925237076084]},"properties":{"OBJECTID":9425,"LANDMARKID":"6300000003258","LANDMARKCO":"507","LANDMARKNA":"義方居古厝","LANDMARKAD":"6300003","ADDRESS":"台北市大安區基隆路3段155巷128號","TEL":" ","COUNTYNAME":"台北市","TOWNNAME":"大安區","MARKTYPE":"995","Class":"5"}},{"type":"Feature","id":9426,"geometry":{"type":"Point","coordinates":[121.54256162298272,25.017233149696938]},"properties":{"OBJECTID":9426,"LANDMARKID":"6300000003259","LANDMARKCO":"507","LANDMARKNA":"芳蘭大厝","LANDMARKAD":"6300003","ADDRESS":"台北市大安區基隆路三段155巷174號","TEL":" ","COUNTYNAME":"台北市","TOWNNAME":"大安區","MARKTYPE":"995","Class":"5"}},{"type":"Feature","id":9427,"geometry":{"type":"Point","coordinates":[121.53914039913037,25.024806592880132]},"properties":{"OBJECTID":9427,"LANDMARKID":"6300000003260","LANDMARKCO":"507","LANDMARKNA":"龍安坡黃宅濂讓居","LANDMARKAD":"6300003","ADDRESS":"台北市大安區和平東路二段76巷4號","TEL":" ","COUNTYNAME":"台北市","TOWNNAME":"大安區","MARKTYPE":"995","Class":"5"}},{"type":"Feature","id":9428,"geometry":{"type":"Point","coordinates":[121.55619064320349,25.041105303168351]},"properties":{"OBJECTID":9428,"LANDMARKID":"6300000003367","LANDMARKCO":"512","LANDMARKNA":"中華民國觀光局","LANDMARKAD":"6300003","ADDRESS":"台北市忠孝東路四段290號9樓","TEL":"02-23491500","COUNTYNAME":"台北市","TOWNNAME":"大安區","MARKTYPE":"995","Class":"5"}},{"type":"Feature","id":9429,"geometry":{"type":"Point","coordinates":[121.55741386940036,25.041118900810076]},"properties":{"OBJECTID":9429,"LANDMARKID":"6300000003368","LANDMARKCO":"512","LANDMARKNA":"觀光局旅遊服務中心台北服務處","LANDMARKAD":"6300003","ADDRESS":"台北市忠孝東路四段345號","TEL":"02-27698787","COUNTYNAME":"台北市","TOWNNAME":"大安區","MARKTYPE":"995","Class":"5"}},{"type":"Feature","id":9430,"geometry":{"type":"Point","coordinates":[121.5479065668995,25.038665847628618]},"properties":{"OBJECTID":9430,"LANDMARKID":"6300000003369","LANDMARKCO":"512","LANDMARKNA":"中華民國旅遊資訊協會","LANDMARKAD":"6300003","ADDRESS":"台北市敦化南路一段270巷6號4樓之1","TEL":"02-27818387","COUNTYNAME":"台北市","TOWNNAME":"大安區","MARKTYPE":"995","Class":"5"}},{"type":"Feature","id":9431,"geometry":{"type":"Point","coordinates":[121.54927868953325,25.039119032120404]},"properties":{"OBJECTID":9431,"LANDMARKID":"6300000002877","LANDMARKCO":"407","LANDMARKNA":"誠品Eslite","LANDMARKAD":"6300003","ADDRESS":"台北市敦化南路一段245號B2","TEL":"02-2775-5977","COUNTYNAME":"台北市","TOWNNAME":"大安區","MARKTYPE":"994","Class":"4"}},{"type":"Feature","id":9432,"geometry":{"type":"Point","coordinates":[121.53115448472086,25.026580406124541]},"properties":{"OBJECTID":9432,"LANDMARKID":"6300000003060","LANDMARKCO":"408","LANDMARKNA":"郵局-台北青田郵局","LANDMARKAD":"6300003","ADDRESS":"台北市大安區和平東路1段155號","TEL":"(02)2321-4288","COUNTYNAME":"台北市","TOWNNAME":"大安區","MARKTYPE":"994","Class":"4"}},{"type":"Feature","id":9433,"geometry":{"type":"Point","coordinates":[121.5337036429442,25.016984219982515]},"properties":{"OBJECTID":9433,"LANDMARKID":"6300000003061","LANDMARKCO":"408","LANDMARKNA":"郵局-台大郵局","LANDMARKAD":"6300003","ADDRESS":"台北市大安區羅斯福路4段1號(台灣大學內)","TEL":"(02)2363-3435","COUNTYNAME":"台北市","TOWNNAME":"大安區","MARKTYPE":"994","Class":"4"}},{"type":"Feature","id":9434,"geometry":{"type":"Point","coordinates":[121.53562025817446,25.03861983403872]},"properties":{"OBJECTID":9434,"LANDMARKID":"6300000003062","LANDMARKCO":"408","LANDMARKNA":"郵局-台北仁愛路郵局","LANDMARKAD":"6300003","ADDRESS":"台北市大安區仁愛路3段47號","TEL":"(02)2771-1497","COUNTYNAME":"台北市","TOWNNAME":"大安區","MARKTYPE":"994","Class":"4"}},{"type":"Feature","id":9435,"geometry":{"type":"Point","coordinates":[121.55639818017426,25.03330326096432]},"properties":{"OBJECTID":9435,"LANDMARKID":"6300000003063","LANDMARKCO":"408","LANDMARKNA":"郵局-台北三張犁郵局","LANDMARKAD":"6300003","ADDRESS":"台北市大安區信義路4段337號","TEL":"(02)2709-6837","COUNTYNAME":"台北市","TOWNNAME":"大安區","MARKTYPE":"994","Class":"4"}},{"type":"Feature","id":9436,"geometry":{"type":"Point","coordinates":[121.54546513796485,25.043012239981167]},"properties":{"OBJECTID":9436,"LANDMARKID":"6300000003064","LANDMARKCO":"408","LANDMARKNA":"郵局-台北光武郵局","LANDMARKAD":"6300003","ADDRESS":"台北市大安區大安路1段52巷16號","TEL":"(02)2781-6693","COUNTYNAME":"台北市","TOWNNAME":"大安區","MARKTYPE":"994","Class":"4"}},{"type":"Feature","id":9437,"geometry":{"type":"Point","coordinates":[121.55393330781118,25.022802603012199]},"properties":{"OBJECTID":9437,"LANDMARKID":"6300000003065","LANDMARKCO":"408","LANDMARKNA":"郵局-台北六張犁郵局","LANDMARKAD":"6300003","ADDRESS":"台北市大安區和平東路3段208號","TEL":"(02)2733-5532","COUNTYNAME":"台北市","TOWNNAME":"大安區","MARKTYPE":"994","Class":"4"}},{"type":"Feature","id":9438,"geometry":{"type":"Point","coordinates":[121.53813049138753,25.041491649001181]},"properties":{"OBJECTID":9438,"LANDMARKID":"6300000003066","LANDMARKCO":"408","LANDMARKNA":"郵局-台北正義郵局","LANDMARKAD":"6300003","ADDRESS":"台北市大安區忠孝東路3段150號","TEL":"(02)2778-2422","COUNTYNAME":"台北市","TOWNNAME":"大安區","MARKTYPE":"994","Class":"4"}},{"type":"Feature","id":9439,"geometry":{"type":"Point","coordinates":[121.54063516746899,25.013740200374482]},"properties":{"OBJECTID":9439,"LANDMARKID":"6300000003067","LANDMARKCO":"408","LANDMARKNA":"郵局-台灣科大郵局","LANDMARKAD":"6300003","ADDRESS":"台北市大安區基隆路4段43號(台灣科技大學內)","TEL":"(02)2733-1071","COUNTYNAME":"台北市","TOWNNAME":"大安區","MARKTYPE":"994","Class":"4"}},{"type":"Feature","id":9440,"geometry":{"type":"Point","coordinates":[121.5245957712673,25.031797658069905]},"properties":{"OBJECTID":9440,"LANDMARKID":"6300000003068","LANDMARKCO":"408","LANDMARKNA":"郵局-台北金南郵局","LANDMARKAD":"6300003","ADDRESS":"台北市大安區愛國東路216號","TEL":"(02)2394-0804","COUNTYNAME":"台北市","TOWNNAME":"大安區","MARKTYPE":"994","Class":"4"}},{"type":"Feature","id":9441,"geometry":{"type":"Point","coordinates":[121.55258071021161,25.030828322745009]},"properties":{"OBJECTID":9441,"LANDMARKID":"6300000003069","LANDMARKCO":"408","LANDMARKNA":"郵局-台北安和郵局","LANDMARKAD":"6300003","ADDRESS":"台北市大安區安和路2段61號","TEL":"(02)2704-9228","COUNTYNAME":"台北市","TOWNNAME":"大安區","MARKTYPE":"994","Class":"4"}},{"type":"Feature","id":9442,"geometry":{"type":"Point","coordinates":[121.55091664219819,25.040618100108411]},"properties":{"OBJECTID":9442,"LANDMARKID":"6300000003070","LANDMARKCO":"408","LANDMARKNA":"郵局-台北敦南郵局","LANDMARKAD":"6300003","ADDRESS":"台北市大安區忠孝東路4段170巷9號","TEL":"(02)2771-5334","COUNTYNAME":"台北市","TOWNNAME":"大安區","MARKTYPE":"994","Class":"4"}},{"type":"Feature","id":9443,"geometry":{"type":"Point","coordinates":[121.53841413058134,25.033743469422614]},"properties":{"OBJECTID":9443,"LANDMARKID":"6300000003071","LANDMARKCO":"408","LANDMARKNA":"郵局-台北大安郵局","LANDMARKAD":"6300003","ADDRESS":"台北市大安區信義路3段89號","TEL":"(02)2704-4318","COUNTYNAME":"台北市","TOWNNAME":"大安區","MARKTYPE":"994","Class":"4"}},{"type":"Feature","id":9444,"geometry":{"type":"Point","coordinates":[121.53413366428151,25.015198205901708]},"properties":{"OBJECTID":9444,"LANDMARKID":"6300000003072","LANDMARKCO":"408","LANDMARKNA":"郵局-台北公館郵局","LANDMARKAD":"6300003","ADDRESS":"台北市大安區台北捷運公館站第3出入口B1","TEL":"(02)2365-9518","COUNTYNAME":"台北市","TOWNNAME":"大安區","MARKTYPE":"994","Class":"4"}},{"type":"Feature","id":9445,"geometry":{"type":"Point","coordinates":[121.52761283071533,25.026363827375413]},"properties":{"OBJECTID":9445,"LANDMARKID":"6300000003073","LANDMARKCO":"408","LANDMARKNA":"郵局-台北師大郵局","LANDMARKAD":"6300003","ADDRESS":"台北市大安區和平東路1段162號(師範大學內)","TEL":"(02)2363-5053","COUNTYNAME":"台北市","TOWNNAME":"大安區","MARKTYPE":"994","Class":"4"}},{"type":"Feature","id":9446,"geometry":{"type":"Point","coordinates":[121.54643050806592,25.033153789254555]},"properties":{"OBJECTID":9446,"LANDMARKID":"6300000003074","LANDMARKCO":"408","LANDMARKNA":"郵局-台北信維郵局","LANDMARKAD":"6300003","ADDRESS":"台北市大安區信義路4段74號","TEL":"(02)2707-7130","COUNTYNAME":"台北市","TOWNNAME":"大安區","MARKTYPE":"994","Class":"4"}},{"type":"Feature","id":9447,"geometry":{"type":"Point","coordinates":[121.53313278807505,25.04485785285755]},"properties":{"OBJECTID":9447,"LANDMARKID":"6300000003075","LANDMARKCO":"408","LANDMARKNA":"郵局-台北光華郵局","LANDMARKAD":"6300003","ADDRESS":"台北市大安區新生北路1段7之2號","TEL":"(02)2741-0600","COUNTYNAME":"台北市","TOWNNAME":"大安區","MARKTYPE":"994","Class":"4"}},{"type":"Feature","id":9448,"geometry":{"type":"Point","coordinates":[121.54590269227749,25.026512730246811]},"properties":{"OBJECTID":9448,"LANDMARKID":"6300000003076","LANDMARKCO":"408","LANDMARKNA":"郵局-台北成功郵局","LANDMARKAD":"6300003","ADDRESS":"台北市大安區四維路198巷38弄12號","TEL":"(02)2704-3862","COUNTYNAME":"台北市","TOWNNAME":"大安區","MARKTYPE":"994","Class":"4"}},{"type":"Feature","id":9449,"geometry":{"type":"Point","coordinates":[121.55293374608634,25.020364676869296]},"properties":{"OBJECTID":9449,"LANDMARKID":"6300000003092","LANDMARKCO":"409","LANDMARKNA":"台北市大安區農會","LANDMARKAD":"6300003","ADDRESS":"台北市大安區和平東路3段228巷49號2樓","TEL":"02-27325237","COUNTYNAME":"台北市","TOWNNAME":"大安區","MARKTYPE":"994","Class":"4"}},{"type":"Feature","id":9450,"geometry":{"type":"Point","coordinates":[121.54336151213485,25.033828227149655]},"properties":{"OBJECTID":9450,"LANDMARKID":"6300000003093","LANDMARKCO":"409","LANDMARKNA":"台北市農會","LANDMARKAD":"6300003","ADDRESS":"台北市大安區復興南路1段390號14號","TEL":"02-27070612","COUNTYNAME":"台北市","TOWNNAME":"大安區","MARKTYPE":"994","Class":"4"}},{"type":"Feature","id":9451,"geometry":{"type":"Point","coordinates":[121.55308272840719,25.011547341170914]},"properties":{"OBJECTID":9451,"LANDMARKID":"6300000002399","LANDMARKCO":"404","LANDMARKNA":"台北自來水事業處","LANDMARKAD":"6300003","ADDRESS":"臺北市大安區長興街131號","TEL":"02-87335678","COUNTYNAME":"台北市","TOWNNAME":"大安區","MARKTYPE":"994","Class":"4"}},{"type":"Feature","id":9452,"geometry":{"type":"Point","coordinates":[121.54522813398194,25.016804208348823]},"properties":{"OBJECTID":9452,"LANDMARKID":"6300000002400","LANDMARKCO":"404","LANDMARKNA":"台北自來水事業處本處","LANDMARKAD":"6300003","ADDRESS":"台北市大安區長興街131號","TEL":" ","COUNTYNAME":"台北市","TOWNNAME":"大安區","MARKTYPE":"994","Class":"4"}},{"type":"Feature","id":9453,"geometry":{"type":"Point","coordinates":[121.53957056125549,25.012439302461811]},"properties":{"OBJECTID":9453,"LANDMARKID":"6300000002387","LANDMARKCO":"403","LANDMARKNA":"台灣電力公司北市區營業處","LANDMARKAD":"6300003","ADDRESS":"台北市大安區基隆路四段75號","TEL":" ","COUNTYNAME":"台北市","TOWNNAME":"大安區","MARKTYPE":"994","Class":"4"}},{"type":"Feature","id":9454,"geometry":{"type":"Point","coordinates":[121.55584880812249,25.042599173038312]},"properties":{"OBJECTID":9454,"LANDMARKID":"6300000002817","LANDMARKCO":"406","LANDMARKNA":"永吉公園","LANDMARKAD":"6300003","ADDRESS":"台北市大安區","TEL":" ","COUNTYNAME":"台北市","TOWNNAME":"大安區","MARKTYPE":"994","Class":"4"}},{"type":"Feature","id":9455,"geometry":{"type":"Point","coordinates":[121.54657347440528,25.041868394241082]},"properties":{"OBJECTID":9455,"LANDMARKID":"6300000002818","LANDMARKCO":"406","LANDMARKNA":"塯公圳公園","LANDMARKAD":"6300003","ADDRESS":"台北市大安區","TEL":" ","COUNTYNAME":"台北市","TOWNNAME":"大安區","MARKTYPE":"994","Class":"4"}},{"type":"Feature","id":9456,"geometry":{"type":"Point","coordinates":[121.53504824618418,25.039458916182571]},"properties":{"OBJECTID":9456,"LANDMARKID":"6300000002819","LANDMARKCO":"406","LANDMARKNA":"民輝公園","LANDMARKAD":"6300003","ADDRESS":"台北市大安區","TEL":" ","COUNTYNAME":"台北市","TOWNNAME":"大安區","MARKTYPE":"994","Class":"4"}},{"type":"Feature","id":9457,"geometry":{"type":"Point","coordinates":[121.54633069369102,25.036555788656731]},"properties":{"OBJECTID":9457,"LANDMARKID":"6300000002820","LANDMARKCO":"406","LANDMARKNA":"仁愛公園","LANDMARKAD":"6300003","ADDRESS":"台北市大安區","TEL":" ","COUNTYNAME":"台北市","TOWNNAME":"大安區","MARKTYPE":"994","Class":"4"}},{"type":"Feature","id":9458,"geometry":{"type":"Point","coordinates":[121.5421778434028,25.036291360980613]},"properties":{"OBJECTID":9458,"LANDMARKID":"6300000002821","LANDMARKCO":"406","LANDMARKNA":"附中公園","LANDMARKAD":"6300003","ADDRESS":"台北市大安區","TEL":" ","COUNTYNAME":"台北市","TOWNNAME":"大安區","MARKTYPE":"994","Class":"4"}},{"type":"Feature","id":9459,"geometry":{"type":"Point","coordinates":[121.55608067133308,25.035789203290079]},"properties":{"OBJECTID":9459,"LANDMARKID":"6300000002822","LANDMARKCO":"406","LANDMARKNA":"延吉公園","LANDMARKAD":"6300003","ADDRESS":"台北市大安區","TEL":" ","COUNTYNAME":"台北市","TOWNNAME":"大安區","MARKTYPE":"994","Class":"4"}},{"type":"Feature","id":9460,"geometry":{"type":"Point","coordinates":[121.54501261124648,25.0357691951614]},"properties":{"OBJECTID":9460,"LANDMARKID":"6300000002823","LANDMARKCO":"406","LANDMARKNA":"東豐公園","LANDMARKAD":"6300003","ADDRESS":"台北市大安區","TEL":" ","COUNTYNAME":"台北市","TOWNNAME":"大安區","MARKTYPE":"994","Class":"4"}},{"type":"Feature","id":9461,"geometry":{"type":"Point","coordinates":[121.53526940365258,25.035282454465758]},"properties":{"OBJECTID":9461,"LANDMARKID":"6300000002824","LANDMARKCO":"406","LANDMARKNA":"民榮公園","LANDMARKAD":"6300003","ADDRESS":"台北市大安區","TEL":" ","COUNTYNAME":"台北市","TOWNNAME":"大安區","MARKTYPE":"994","Class":"4"}},{"type":"Feature","id":9462,"geometry":{"type":"Point","coordinates":[121.54786020634518,25.034817893440714]},"properties":{"OBJECTID":9462,"LANDMARKID":"6300000002825","LANDMARKCO":"406","LANDMARKNA":"德安公園","LANDMARKAD":"6300003","ADDRESS":"台北市大安區","TEL":" ","COUNTYNAME":"台北市","TOWNNAME":"大安區","MARKTYPE":"994","Class":"4"}},{"type":"Feature","id":9463,"geometry":{"type":"Point","coordinates":[121.55392329369093,25.034477856345802]},"properties":{"OBJECTID":9463,"LANDMARKID":"6300000002826","LANDMARKCO":"406","LANDMARKNA":"敦安公園","LANDMARKAD":"6300003","ADDRESS":"台北市大安區","TEL":" ","COUNTYNAME":"台北市","TOWNNAME":"大安區","MARKTYPE":"994","Class":"4"}},{"type":"Feature","id":9464,"geometry":{"type":"Point","coordinates":[121.54256790870956,25.034498240289096]},"properties":{"OBJECTID":9464,"LANDMARKID":"6300000002827","LANDMARKCO":"406","LANDMARKNA":"安祥公園","LANDMARKAD":"6300003","ADDRESS":"台北市大安區","TEL":" ","COUNTYNAME":"台北市","TOWNNAME":"大安區","MARKTYPE":"994","Class":"4"}},{"type":"Feature","id":9465,"geometry":{"type":"Point","coordinates":[121.54494741462929,25.034458756221056]},"properties":{"OBJECTID":9465,"LANDMARKID":"6300000002828","LANDMARKCO":"406","LANDMARKNA":"和安公園","LANDMARKAD":"6300003","ADDRESS":"台北市大安區","TEL":" ","COUNTYNAME":"台北市","TOWNNAME":"大安區","MARKTYPE":"994","Class":"4"}},{"type":"Feature","id":9466,"geometry":{"type":"Point","coordinates":[121.54568046004491,25.034075516711088]},"properties":{"OBJECTID":9466,"LANDMARKID":"6300000002829","LANDMARKCO":"406","LANDMARKNA":"仁慈公園","LANDMARKAD":"6300003","ADDRESS":"台北市大安區","TEL":" ","COUNTYNAME":"台北市","TOWNNAME":"大安區","MARKTYPE":"994","Class":"4"}},{"type":"Feature","id":9467,"geometry":{"type":"Point","coordinates":[121.554565945212,25.032004875234346]},"properties":{"OBJECTID":9467,"LANDMARKID":"6300000002830","LANDMARKCO":"406","LANDMARKNA":"交通公園","LANDMARKAD":"6300003","ADDRESS":"台北市大安區","TEL":" ","COUNTYNAME":"台北市","TOWNNAME":"大安區","MARKTYPE":"994","Class":"4"}},{"type":"Feature","id":9468,"geometry":{"type":"Point","coordinates":[121.54923802306885,25.031840691604536]},"properties":{"OBJECTID":9468,"LANDMARKID":"6300000002831","LANDMARKCO":"406","LANDMARKNA":"平安公園","LANDMARKAD":"6300003","ADDRESS":"台北市大安區","TEL":" ","COUNTYNAME":"台北市","TOWNNAME":"大安區","MARKTYPE":"994","Class":"4"}},{"type":"Feature","id":9469,"geometry":{"type":"Point","coordinates":[121.52987878072378,25.031741403155987]},"properties":{"OBJECTID":9469,"LANDMARKID":"6300000002832","LANDMARKCO":"406","LANDMARKNA":"永康公園","LANDMARKAD":"6300003","ADDRESS":"台北市大安區","TEL":" ","COUNTYNAME":"台北市","TOWNNAME":"大安區","MARKTYPE":"994","Class":"4"}},{"type":"Feature","id":9470,"geometry":{"type":"Point","coordinates":[121.54527707837811,25.030613372041753]},"properties":{"OBJECTID":9470,"LANDMARKID":"6300000002833","LANDMARKCO":"406","LANDMARKNA":"四維公園","LANDMARKAD":"6300003","ADDRESS":"台北市大安區","TEL":" ","COUNTYNAME":"台北市","TOWNNAME":"大安區","MARKTYPE":"994","Class":"4"}},{"type":"Feature","id":9471,"geometry":{"type":"Point","coordinates":[121.54155836005052,25.030441216594728]},"properties":{"OBJECTID":9471,"LANDMARKID":"6300000002834","LANDMARKCO":"406","LANDMARKNA":"龍圖公園","LANDMARKAD":"6300003","ADDRESS":"台北市大安區","TEL":" ","COUNTYNAME":"台北市","TOWNNAME":"大安區","MARKTYPE":"994","Class":"4"}},{"type":"Feature","id":9472,"geometry":{"type":"Point","coordinates":[121.54937360282186,25.02959869139454]},"properties":{"OBJECTID":9472,"LANDMARKID":"6300000002835","LANDMARKCO":"406","LANDMARKNA":"居安公園","LANDMARKAD":"6300003","ADDRESS":"台北市大安區","TEL":" ","COUNTYNAME":"台北市","TOWNNAME":"大安區","MARKTYPE":"994","Class":"4"}},{"type":"Feature","id":9473,"geometry":{"type":"Point","coordinates":[121.531245644135,25.029619286519569]},"properties":{"OBJECTID":9473,"LANDMARKID":"6300000002836","LANDMARKCO":"406","LANDMARKNA":"金華公園","LANDMARKAD":"6300003","ADDRESS":"台北市大安區","TEL":" ","COUNTYNAME":"台北市","TOWNNAME":"大安區","MARKTYPE":"994","Class":"4"}},{"type":"Feature","id":9474,"geometry":{"type":"Point","coordinates":[121.54242502251117,25.029246358931104]},"properties":{"OBJECTID":9474,"LANDMARKID":"6300000002837","LANDMARKCO":"406","LANDMARKNA":"開平公園","LANDMARKAD":"6300003","ADDRESS":"台北市大安區","TEL":" ","COUNTYNAME":"台北市","TOWNNAME":"大安區","MARKTYPE":"994","Class":"4"}},{"type":"Feature","id":9475,"geometry":{"type":"Point","coordinates":[121.54476559586968,25.028983288095954]},"properties":{"OBJECTID":9475,"LANDMARKID":"6300000002838","LANDMARKCO":"406","LANDMARKNA":"安東公園","LANDMARKAD":"6300003","ADDRESS":"台北市大安區","TEL":" ","COUNTYNAME":"台北市","TOWNNAME":"大安區","MARKTYPE":"994","Class":"4"}},{"type":"Feature","id":9476,"geometry":{"type":"Point","coordinates":[121.53623786938699,25.028403959902388]},"properties":{"OBJECTID":9476,"LANDMARKID":"6300000002839","LANDMARKCO":"406","LANDMARKNA":"大安森林公園","LANDMARKAD":"6300003","ADDRESS":"台北市大安區","TEL":" ","COUNTYNAME":"台北市","TOWNNAME":"大安區","MARKTYPE":"994","Class":"4"}},{"type":"Feature","id":9477,"geometry":{"type":"Point","coordinates":[121.55564259992983,25.028180077363999]},"properties":{"OBJECTID":9477,"LANDMARKID":"6300000002840","LANDMARKCO":"406","LANDMARKNA":"文昌公園","LANDMARKAD":"6300003","ADDRESS":"台北市大安區","TEL":" ","COUNTYNAME":"台北市","TOWNNAME":"大安區","MARKTYPE":"994","Class":"4"}},{"type":"Feature","id":9478,"geometry":{"type":"Point","coordinates":[121.52792926107301,25.027987899457358]},"properties":{"OBJECTID":9478,"LANDMARKID":"6300000002841","LANDMARKCO":"406","LANDMARKNA":"錦安公園","LANDMARKAD":"6300003","ADDRESS":"台北市大安區","TEL":" ","COUNTYNAME":"台北市","TOWNNAME":"大安區","MARKTYPE":"994","Class":"4"}},{"type":"Feature","id":9479,"geometry":{"type":"Point","coordinates":[121.53985261160183,25.027841241386518]},"properties":{"OBJECTID":9479,"LANDMARKID":"6300000002842","LANDMARKCO":"406","LANDMARKNA":"龍新公園","LANDMARKAD":"6300003","ADDRESS":"台北市大安區","TEL":" ","COUNTYNAME":"台北市","TOWNNAME":"大安區","MARKTYPE":"994","Class":"4"}},{"type":"Feature","id":9480,"geometry":{"type":"Point","coordinates":[121.5425771967454,25.027568885194032]},"properties":{"OBJECTID":9480,"LANDMARKID":"6300000002843","LANDMARKCO":"406","LANDMARKNA":"龍陣公園","LANDMARKAD":"6300003","ADDRESS":"台北市大安區","TEL":" ","COUNTYNAME":"台北市","TOWNNAME":"大安區","MARKTYPE":"994","Class":"4"}},{"type":"Feature","id":9481,"geometry":{"type":"Point","coordinates":[121.55298126015833,25.026875675752425]},"properties":{"OBJECTID":9481,"LANDMARKID":"6300000002844","LANDMARKCO":"406","LANDMARKNA":"通化公園","LANDMARKAD":"6300003","ADDRESS":"台北市大安區","TEL":" ","COUNTYNAME":"台北市","TOWNNAME":"大安區","MARKTYPE":"994","Class":"4"}},{"type":"Feature","id":9482,"geometry":{"type":"Point","coordinates":[121.54824572558144,25.026466037338921]},"properties":{"OBJECTID":9482,"LANDMARKID":"6300000002845","LANDMARKCO":"406","LANDMARKNA":"鳳雞公園","LANDMARKAD":"6300003","ADDRESS":"台北市大安區","TEL":" ","COUNTYNAME":"台北市","TOWNNAME":"大安區","MARKTYPE":"994","Class":"4"}},{"type":"Feature","id":9483,"geometry":{"type":"Point","coordinates":[121.53957962604265,25.026236136116136]},"properties":{"OBJECTID":9483,"LANDMARKID":"6300000002846","LANDMARKCO":"406","LANDMARKNA":"瑞安公園","LANDMARKAD":"6300003","ADDRESS":"台北市大安區","TEL":" ","COUNTYNAME":"台北市","TOWNNAME":"大安區","MARKTYPE":"994","Class":"4"}},{"type":"Feature","id":9484,"geometry":{"type":"Point","coordinates":[121.5413980248539,25.025864053665245]},"properties":{"OBJECTID":9484,"LANDMARKID":"6300000002847","LANDMARKCO":"406","LANDMARKNA":"龍生公園","LANDMARKAD":"6300003","ADDRESS":"台北市大安區","TEL":" ","COUNTYNAME":"台北市","TOWNNAME":"大安區","MARKTYPE":"994","Class":"4"}},{"type":"Feature","id":9485,"geometry":{"type":"Point","coordinates":[121.55121445012895,25.025405118584505]},"properties":{"OBJECTID":9485,"LANDMARKID":"6300000002848","LANDMARKCO":"406","LANDMARKNA":"全安公園","LANDMARKAD":"6300003","ADDRESS":"台北市大安區","TEL":" ","COUNTYNAME":"台北市","TOWNNAME":"大安區","MARKTYPE":"994","Class":"4"}},{"type":"Feature","id":9486,"geometry":{"type":"Point","coordinates":[121.54640921587665,25.025364333877349]},"properties":{"OBJECTID":9486,"LANDMARKID":"6300000002849","LANDMARKCO":"406","LANDMARKNA":"群賢公園","LANDMARKAD":"6300003","ADDRESS":"台北市大安區","TEL":" ","COUNTYNAME":"台北市","TOWNNAME":"大安區","MARKTYPE":"994","Class":"4"}},{"type":"Feature","id":9487,"geometry":{"type":"Point","coordinates":[121.54258089483055,25.023434894847487]},"properties":{"OBJECTID":9487,"LANDMARKID":"6300000002850","LANDMARKCO":"406","LANDMARKNA":"和平公園","LANDMARKAD":"6300003","ADDRESS":"台北市大安區","TEL":" ","COUNTYNAME":"台北市","TOWNNAME":"大安區","MARKTYPE":"994","Class":"4"}},{"type":"Feature","id":9488,"geometry":{"type":"Point","coordinates":[121.53283201937556,25.022861986116574]},"properties":{"OBJECTID":9488,"LANDMARKID":"6300000002851","LANDMARKCO":"406","LANDMARKNA":"辛亥一號公園","LANDMARKAD":"6300003","ADDRESS":"台北市大安區","TEL":" ","COUNTYNAME":"台北市","TOWNNAME":"大安區","MARKTYPE":"994","Class":"4"}},{"type":"Feature","id":9489,"geometry":{"type":"Point","coordinates":[121.54951902900106,25.022793102164972]},"properties":{"OBJECTID":9489,"LANDMARKID":"6300000002852","LANDMARKCO":"406","LANDMARKNA":"虎嘯公園","LANDMARKAD":"6300003","ADDRESS":"台北市大安區","TEL":" ","COUNTYNAME":"台北市","TOWNNAME":"大安區","MARKTYPE":"994","Class":"4"}},{"type":"Feature","id":9490,"geometry":{"type":"Point","coordinates":[121.54093427360868,25.022766860803578]},"properties":{"OBJECTID":9490,"LANDMARKID":"6300000002853","LANDMARKCO":"406","LANDMARKNA":"敦親公園","LANDMARKAD":"6300003","ADDRESS":"台北市大安區","TEL":" ","COUNTYNAME":"台北市","TOWNNAME":"大安區","MARKTYPE":"994","Class":"4"}},{"type":"Feature","id":9491,"geometry":{"type":"Point","coordinates":[121.52718847301109,25.022464516842703]},"properties":{"OBJECTID":9491,"LANDMARKID":"6300000002854","LANDMARKCO":"406","LANDMARKNA":"古莊公園","LANDMARKAD":"6300003","ADDRESS":"台北市大安區","TEL":" ","COUNTYNAME":"台北市","TOWNNAME":"大安區","MARKTYPE":"994","Class":"4"}},{"type":"Feature","id":9492,"geometry":{"type":"Point","coordinates":[121.55197691304967,25.021463625460992]},"properties":{"OBJECTID":9492,"LANDMARKID":"6300000002855","LANDMARKCO":"406","LANDMARKNA":"嘉興公園","LANDMARKAD":"6300003","ADDRESS":"台北市大安區","TEL":" ","COUNTYNAME":"台北市","TOWNNAME":"大安區","MARKTYPE":"994","Class":"4"}},{"type":"Feature","id":9493,"geometry":{"type":"Point","coordinates":[121.5559222344509,25.019837992518895]},"properties":{"OBJECTID":9493,"LANDMARKID":"6300000002856","LANDMARKCO":"406","LANDMARKNA":"黎孝公園","LANDMARKAD":"6300003","ADDRESS":"台北市大安區","TEL":" ","COUNTYNAME":"台北市","TOWNNAME":"大安區","MARKTYPE":"994","Class":"4"}},{"type":"Feature","id":9494,"geometry":{"type":"Point","coordinates":[121.53143197788935,25.018809266442101]},"properties":{"OBJECTID":9494,"LANDMARKID":"6300000002857","LANDMARKCO":"406","LANDMARKNA":"溫州公園","LANDMARKAD":"6300003","ADDRESS":"台北市大安區","TEL":" ","COUNTYNAME":"台北市","TOWNNAME":"大安區","MARKTYPE":"994","Class":"4"}},{"type":"Feature","id":9495,"geometry":{"type":"Point","coordinates":[121.55494472579966,25.015510430338232]},"properties":{"OBJECTID":9495,"LANDMARKID":"6300000002858","LANDMARKCO":"406","LANDMARKNA":"福州山公園","LANDMARKAD":"6300003","ADDRESS":"台北市大安區","TEL":" ","COUNTYNAME":"台北市","TOWNNAME":"大安區","MARKTYPE":"994","Class":"4"}},{"type":"Feature","id":9496,"geometry":{"type":"Point","coordinates":[121.55191302271254,25.015506881944663]},"properties":{"OBJECTID":9496,"LANDMARKID":"6300000002859","LANDMARKCO":"406","LANDMARKNA":"臥龍公園","LANDMARKAD":"6300003","ADDRESS":"台北市大安區","TEL":" ","COUNTYNAME":"台北市","TOWNNAME":"大安區","MARKTYPE":"994","Class":"4"}},{"type":"Feature","id":9497,"geometry":{"type":"Point","coordinates":[121.55326409349703,25.041231864370204]},"properties":{"OBJECTID":9497,"LANDMARKID":"6300000002860","LANDMARKCO":"407","LANDMARKNA":"ATT百貨","LANDMARKAD":"6300003","ADDRESS":"台北市信義區忠孝東路四段218號","TEL":" ","COUNTYNAME":"台北市","TOWNNAME":"大安區","MARKTYPE":"994","Class":"4"}},{"type":"Feature","id":9498,"geometry":{"type":"Point","coordinates":[121.54992671126197,25.041290036298136]},"properties":{"OBJECTID":9498,"LANDMARKID":"6300000002861","LANDMARKCO":"407","LANDMARKNA":"att","LANDMARKAD":"6300003","ADDRESS":"臺北市忠孝東路四段148號","TEL":" ","COUNTYNAME":"台北市","TOWNNAME":"大安區","MARKTYPE":"994","Class":"4"}},{"type":"Feature","id":9499,"geometry":{"type":"Point","coordinates":[121.55177861860199,25.041672471375787]},"properties":{"OBJECTID":9499,"LANDMARKID":"6300000002862","LANDMARKCO":"407","LANDMARKNA":"att","LANDMARKAD":"6300003","ADDRESS":"臺北市忠孝東路四段201號","TEL":" ","COUNTYNAME":"台北市","TOWNNAME":"大安區","MARKTYPE":"994","Class":"4"}},{"type":"Feature","id":9500,"geometry":{"type":"Point","coordinates":[121.54488510108561,25.041715686271022]},"properties":{"OBJECTID":9500,"LANDMARKID":"6300000002863","LANDMARKCO":"407","LANDMARKNA":"太平洋SOGO百貨-台北忠孝館","LANDMARKAD":"6300003","ADDRESS":"台北市大安區忠孝東路4段45號","TEL":"02-27765555","COUNTYNAME":"台北市","TOWNNAME":"大安區","MARKTYPE":"994","Class":"4"}},{"type":"Feature","id":9501,"geometry":{"type":"Point","coordinates":[121.54312567355028,25.041541384417794]},"properties":{"OBJECTID":9501,"LANDMARKID":"6300000002864","LANDMARKCO":"407","LANDMARKNA":"太平洋SOGO百貨-台北復興館","LANDMARKAD":"6300003","ADDRESS":"台北市大安區忠孝東路3段300號","TEL":"02-27765555","COUNTYNAME":"台北市","TOWNNAME":"大安區","MARKTYPE":"994","Class":"4"}},{"type":"Feature","id":9502,"geometry":{"type":"Point","coordinates":[121.54858837321783,25.040143765369553]},"properties":{"OBJECTID":9502,"LANDMARKID":"6300000002865","LANDMARKCO":"407","LANDMARKNA":"太平洋SOGO百貨-敦化館","LANDMARKAD":"6300003","ADDRESS":"台北市大安區敦化南路1段246號","TEL":"02-27771371","COUNTYNAME":"台北市","TOWNNAME":"大安區","MARKTYPE":"994","Class":"4"}},{"type":"Feature","id":9503,"geometry":{"type":"Point","coordinates":[121.55252950515808,25.041653394300649]},"properties":{"OBJECTID":9503,"LANDMARKID":"6300000002866","LANDMARKCO":"407","LANDMARKNA":"微風廣場","LANDMARKAD":"6300003","ADDRESS":"台北市大安區忠孝東路四段219號","TEL":"66396999","COUNTYNAME":"台北市","TOWNNAME":"大安區","MARKTYPE":"994","Class":"4"}},{"type":"Feature","id":9504,"geometry":{"type":"Point","coordinates":[121.55177861860199,25.041672471375787]},"properties":{"OBJECTID":9504,"LANDMARKID":"6300000002867","LANDMARKCO":"407","LANDMARKNA":"統領百貨台北店","LANDMARKAD":"6300003","ADDRESS":"台北市大安區忠孝東路四段201號","TEL":" ","COUNTYNAME":"台北市","TOWNNAME":"大安區","MARKTYPE":"994","Class":"4"}},{"type":"Feature","id":9505,"geometry":{"type":"Point","coordinates":[121.55212810132132,25.041234310617309]},"properties":{"OBJECTID":9505,"LANDMARKID":"6300000002868","LANDMARKCO":"407","LANDMARKNA":"明曜百貨","LANDMARKAD":"6300003","ADDRESS":"台北市大安區忠孝東路四段200號","TEL":"02-27771266","COUNTYNAME":"台北市","TOWNNAME":"大安區","MARKTYPE":"994","Class":"4"}},{"type":"Feature","id":9506,"geometry":{"type":"Point","coordinates":[121.54968737783398,25.026291649667801]},"properties":{"OBJECTID":9506,"LANDMARKID":"6300000002869","LANDMARKCO":"407","LANDMARKNA":"遠企購物中心","LANDMARKAD":"6300003","ADDRESS":"台北市大安區敦化南路二段203號","TEL":"02-23786666","COUNTYNAME":"台北市","TOWNNAME":"大安區","MARKTYPE":"994","Class":"4"}},{"type":"Feature","id":9507,"geometry":{"type":"Point","coordinates":[121.55252950515808,25.041653394300649]},"properties":{"OBJECTID":9507,"LANDMARKID":"6300000002870","LANDMARKCO":"407","LANDMARKNA":"微風廣場","LANDMARKAD":"6300003","ADDRESS":"台北市忠孝東路四段219號","TEL":"02-66396999","COUNTYNAME":"台北市","TOWNNAME":"大安區","MARKTYPE":"994","Class":"4"}},{"type":"Feature","id":9508,"geometry":{"type":"Point","coordinates":[121.54927868953325,25.039119032120404]},"properties":{"OBJECTID":9508,"LANDMARKID":"6300000002871","LANDMARKCO":"407","LANDMARKNA":"誠品Eslite","LANDMARKAD":"6300003","ADDRESS":"台北市敦化南路一段245號B2/B1/GF/1F/2F","TEL":"02-2775-5977","COUNTYNAME":"台北市","TOWNNAME":"大安區","MARKTYPE":"994","Class":"4"}},{"type":"Feature","id":9509,"geometry":{"type":"Point","coordinates":[121.53306518352638,25.016978862613822]},"properties":{"OBJECTID":9509,"LANDMARKID":"6300000002872","LANDMARKCO":"407","LANDMARKNA":"誠品Eslite","LANDMARKAD":"6300003","ADDRESS":"台北市新生南路三段98號2F/1F/B1/B2","TEL":"02-2362-6132","COUNTYNAME":"台北市","TOWNNAME":"大安區","MARKTYPE":"994","Class":"4"}},{"type":"Feature","id":9510,"geometry":{"type":"Point","coordinates":[121.54488826580658,25.041901489460329]},"properties":{"OBJECTID":9510,"LANDMARKID":"6300000002873","LANDMARKCO":"407","LANDMARKNA":"誠品Eslite","LANDMARKAD":"6300003","ADDRESS":"台北市忠孝東路四段45號12F","TEL":"02-2740-1399","COUNTYNAME":"台北市","TOWNNAME":"大安區","MARKTYPE":"994","Class":"4"}},{"type":"Feature","id":9511,"geometry":{"type":"Point","coordinates":[121.54845321847252,25.033920453404527]},"properties":{"OBJECTID":9511,"LANDMARKID":"6300000002874","LANDMARKCO":"407","LANDMARKNA":"LV專賣店","LANDMARKAD":"6300003","ADDRESS":"台北市大安區敦化南路1段364號","TEL":"02-27051868","COUNTYNAME":"台北市","TOWNNAME":"大安區","MARKTYPE":"994","Class":"4"}},{"type":"Feature","id":9512,"geometry":{"type":"Point","coordinates":[121.54845195968541,25.040143070927734]},"properties":{"OBJECTID":9512,"LANDMARKID":"6300000002875","LANDMARKCO":"407","LANDMARKNA":"Gucci專賣店","LANDMARKAD":"6300003","ADDRESS":"台北市大安區敦化南路1段246號1樓","TEL":"02-27112043","COUNTYNAME":"台北市","TOWNNAME":"大安區","MARKTYPE":"994","Class":"4"}},{"type":"Feature","id":9513,"geometry":{"type":"Point","coordinates":[121.54845195968541,25.040143070927734]},"properties":{"OBJECTID":9513,"LANDMARKID":"6300000002876","LANDMARKCO":"407","LANDMARKNA":"Coach專賣店","LANDMARKAD":"6300003","ADDRESS":"台北市大安區敦化南路1段246號2樓","TEL":"02-27771317","COUNTYNAME":"台北市","TOWNNAME":"大安區","MARKTYPE":"994","Class":"4"}},{"type":"Feature","id":9514,"geometry":{"type":"Point","coordinates":[121.53809026414581,25.01529240785402]},"properties":{"OBJECTID":9514,"LANDMARKID":"6300000000104","LANDMARKCO":"101","LANDMARKNA":"行政院原子能委員會資料室","LANDMARKAD":"6300003","ADDRESS":"台北市大安區基隆路四段144巷67號","TEL":"02-23634180","COUNTYNAME":"台北市","TOWNNAME":"大安區","MARKTYPE":"991","Class":"1"}},{"type":"Feature","id":9515,"geometry":{"type":"Point","coordinates":[121.54702962704646,25.040355515514975]},"properties":{"OBJECTID":9515,"LANDMARKID":"6300000000213","LANDMARKCO":"107","LANDMARKNA":"台北市政府警察局敦化南路派出","LANDMARKAD":"6300003","ADDRESS":"台北市大安區仁長里敦化南路一段236巷26號","TEL":"02-27710400","COUNTYNAME":"台北市","TOWNNAME":"大安區","MARKTYPE":"991","Class":"1"}},{"type":"Feature","id":9516,"geometry":{"type":"Point","coordinates":[121.55721709798888,25.042848785121219]},"properties":{"OBJECTID":9516,"LANDMARKID":"6300000000101","LANDMARKCO":"101","LANDMARKNA":"財政部國有財產局","LANDMARKAD":"6300003","ADDRESS":"台北市大安區光復南路116巷18號","TEL":"02-27718121","COUNTYNAME":"台北市","TOWNNAME":"大安區","MARKTYPE":"991","Class":"1"}},{"type":"Feature","id":9517,"geometry":{"type":"Point","coordinates":[121.54678974067625,25.025390973184965]},"properties":{"OBJECTID":9517,"LANDMARKID":"6300000000102","LANDMARKCO":"101","LANDMARKNA":"台灣台北高等行政法院","LANDMARKAD":"6300003","ADDRESS":"台北市大安區和平東路三段1巷1號","TEL":"02-27027366","COUNTYNAME":"台北市","TOWNNAME":"大安區","MARKTYPE":"991","Class":"1"}},{"type":"Feature","id":9518,"geometry":{"type":"Point","coordinates":[121.55389502007681,25.025962722740104]},"properties":{"OBJECTID":9518,"LANDMARKID":"6300000000103","LANDMARKCO":"101","LANDMARKNA":"調查局台北市調查處","LANDMARKAD":"6300003","ADDRESS":"台北市大安區基隆路二段176號","TEL":"02-27368721","COUNTYNAME":"台北市","TOWNNAME":"大安區","MARKTYPE":"991","Class":"1"}},{"type":"Feature","id":9519,"geometry":{"type":"Point","coordinates":[121.53451417159533,25.026575288450875]},"properties":{"OBJECTID":9519,"LANDMARKID":"6300000000180","LANDMARKCO":"104","LANDMARKNA":"台北市國稅局大安稽徵所","LANDMARKAD":"6300003","ADDRESS":"台北市大安區新生南路二段86號6樓","TEL":"02-23587979","COUNTYNAME":"台北市","TOWNNAME":"大安區","MARKTYPE":"991","Class":"1"}},{"type":"Feature","id":9520,"geometry":{"type":"Point","coordinates":[121.54151904309877,25.021705572914563]},"properties":{"OBJECTID":9520,"LANDMARKID":"6300000000093","LANDMARKCO":"101","LANDMARKNA":"經濟部智慧財產局","LANDMARKAD":"6300003","ADDRESS":"台北市大安區辛亥路二段185號3樓","TEL":"02-27380007","COUNTYNAME":"台北市","TOWNNAME":"大安區","MARKTYPE":"991","Class":"1"}},{"type":"Feature","id":9521,"geometry":{"type":"Point","coordinates":[121.54198884397326,25.024869825425245]},"properties":{"OBJECTID":9521,"LANDMARKID":"6300000000094","LANDMARKCO":"101","LANDMARKNA":"國家科學委員會","LANDMARKAD":"6300003","ADDRESS":"台北市大安區和平東路二段106號","TEL":"02-27377992","COUNTYNAME":"台北市","TOWNNAME":"大安區","MARKTYPE":"991","Class":"1"}},{"type":"Feature","id":9522,"geometry":{"type":"Point","coordinates":[121.5558830236089,25.041161523717609]},"properties":{"OBJECTID":9522,"LANDMARKID":"6300000000095","LANDMARKCO":"101","LANDMARKNA":"交通部觀光局","LANDMARKAD":"6300003","ADDRESS":"台北市大安區忠孝東路四段290號9樓","TEL":"02-23491500","COUNTYNAME":"台北市","TOWNNAME":"大安區","MARKTYPE":"991","Class":"1"}},{"type":"Feature","id":9523,"geometry":{"type":"Point","coordinates":[121.54019301333459,25.033187670587211]},"properties":{"OBJECTID":9523,"LANDMARKID":"6300000000096","LANDMARKCO":"101","LANDMARKNA":"衛生署中央健康保險局","LANDMARKAD":"6300003","ADDRESS":"台北市大安區信義路三段140號","TEL":"02-27065866","COUNTYNAME":"台北市","TOWNNAME":"大安區","MARKTYPE":"991","Class":"1"}},{"type":"Feature","id":9524,"geometry":{"type":"Point","coordinates":[121.53537612874968,25.033759939224559]},"properties":{"OBJECTID":9524,"LANDMARKID":"6300000000097","LANDMARKCO":"101","LANDMARKNA":"經濟部工業局","LANDMARKAD":"6300003","ADDRESS":"台北市大安區信義路三段41之3號","TEL":"02-27541255","COUNTYNAME":"台北市","TOWNNAME":"大安區","MARKTYPE":"991","Class":"1"}},{"type":"Feature","id":9525,"geometry":{"type":"Point","coordinates":[121.53537612874968,25.033759939224559]},"properties":{"OBJECTID":9525,"LANDMARKID":"6300000000098","LANDMARKCO":"101","LANDMARKNA":"經濟部水利署台北辦公室","LANDMARKAD":"6300003","ADDRESS":"台北市大安區信義路三段41之3號9-12樓","TEL":"02-37073000","COUNTYNAME":"台北市","TOWNNAME":"大安區","MARKTYPE":"991","Class":"1"}},{"type":"Feature","id":9526,"geometry":{"type":"Point","coordinates":[121.53309119203819,25.041769814558279]},"properties":{"OBJECTID":9526,"LANDMARKID":"6300000000099","LANDMARKCO":"101","LANDMARKNA":"行政院金融監督管理委員會證券","LANDMARKAD":"6300003","ADDRESS":"台北市大安區新生南路一段85號","TEL":"02-87735100","COUNTYNAME":"台北市","TOWNNAME":"大安區","MARKTYPE":"991","Class":"1"}},{"type":"Feature","id":9527,"geometry":{"type":"Point","coordinates":[121.52719357061244,25.032308183630125]},"properties":{"OBJECTID":9527,"LANDMARKID":"6300000000100","LANDMARKCO":"101","LANDMARKNA":"交通部郵政總局","LANDMARKAD":"6300003","ADDRESS":"台北市大安區金山南路2段55號","TEL":"02-23214311","COUNTYNAME":"台北市","TOWNNAME":"大安區","MARKTYPE":"991","Class":"1"}},{"type":"Feature","id":9528,"geometry":{"type":"Point","coordinates":[121.55644834617503,25.033799390207623]},"properties":{"OBJECTID":9528,"LANDMARKID":"6300000000181","LANDMARKCO":"105","LANDMARKNA":"台北市大安地政事務所","LANDMARKAD":"6300003","ADDRESS":"台北市大安區信義路4段335巷6號","TEL":"02-27548900","COUNTYNAME":"台北市","TOWNNAME":"大安區","MARKTYPE":"991","Class":"1"}},{"type":"Feature","id":9529,"geometry":{"type":"Point","coordinates":[121.53451417159533,25.026575288450875]},"properties":{"OBJECTID":9529,"LANDMARKID":"6300000000202","LANDMARKCO":"106","LANDMARKNA":"台北市大安區戶政事務所","LANDMARKAD":"6300003","ADDRESS":"台北市大安區龍安里1鄰新生南路二段86號","TEL":"02-23587877","COUNTYNAME":"台北市","TOWNNAME":"大安區","MARKTYPE":"991","Class":"1"}},{"type":"Feature","id":9530,"geometry":{"type":"Point","coordinates":[121.53317353498532,25.037842033592643]},"properties":{"OBJECTID":9530,"LANDMARKID":"6300000000203","LANDMARKCO":"107","LANDMARKNA":"台北市政府警察局大安分局","LANDMARKAD":"6300003","ADDRESS":"台北市大安區民炤里仁愛路三段2號","TEL":"02-23259850","COUNTYNAME":"台北市","TOWNNAME":"大安區","MARKTYPE":"991","Class":"1"}},{"type":"Feature","id":9531,"geometry":{"type":"Point","coordinates":[121.5388358709411,25.011174683381604]},"properties":{"OBJECTID":9531,"LANDMARKID":"6300000000204","LANDMARKCO":"107","LANDMARKNA":"台北市政府警察局羅斯福路派出","LANDMARKAD":"6300003","ADDRESS":"台北市羅斯福路4段113巷13號","TEL":"02-27355761","COUNTYNAME":"台北市","TOWNNAME":"大安區","MARKTYPE":"991","Class":"1"}},{"type":"Feature","id":9532,"geometry":{"type":"Point","coordinates":[121.55193885590955,25.017938753464978]},"properties":{"OBJECTID":9532,"LANDMARKID":"6300000000205","LANDMARKCO":"107","LANDMARKNA":"台北市政府警察局臥龍街派出所","LANDMARKAD":"6300003","ADDRESS":"台北市臥龍街185號","TEL":"02-27334439","COUNTYNAME":"台北市","TOWNNAME":"大安區","MARKTYPE":"991","Class":"1"}},{"type":"Feature","id":9533,"geometry":{"type":"Point","coordinates":[121.54500079059994,25.031136947905299]},"properties":{"OBJECTID":9533,"LANDMARKID":"6300000000206","LANDMARKCO":"107","LANDMARKNA":"台北市政府警察局瑞安街派出所","LANDMARKAD":"6300003","ADDRESS":"台北市大安區住安里瑞安街23巷17號","TEL":"02-27054164","COUNTYNAME":"台北市","TOWNNAME":"大安區","MARKTYPE":"991","Class":"1"}},{"type":"Feature","id":9534,"geometry":{"type":"Point","coordinates":[121.53052473739388,25.026622413012188]},"properties":{"OBJECTID":9534,"LANDMARKID":"6300000000207","LANDMARKCO":"107","LANDMARKNA":"台北市政府警察局和平東路派出","LANDMARKAD":"6300003","ADDRESS":"台北市大安區龍安里和平東路一段143號","TEL":"02-23218073","COUNTYNAME":"台北市","TOWNNAME":"大安區","MARKTYPE":"991","Class":"1"}},{"type":"Feature","id":9535,"geometry":{"type":"Point","coordinates":[121.53317353498532,25.037842033592643]},"properties":{"OBJECTID":9535,"LANDMARKID":"6300000000208","LANDMARKCO":"107","LANDMARKNA":"台北市政府警察局新生南路派出","LANDMARKAD":"6300003","ADDRESS":"台北市大安區仁愛路三段2號","TEL":"02-23258611","COUNTYNAME":"台北市","TOWNNAME":"大安區","MARKTYPE":"991","Class":"1"}},{"type":"Feature","id":9536,"geometry":{"type":"Point","coordinates":[121.55212235095824,25.032966904247019]},"properties":{"OBJECTID":9536,"LANDMARKID":"6300000000209","LANDMARKCO":"107","LANDMARKNA":"台北市政府警察局安和路派出所","LANDMARKAD":"6300003","ADDRESS":"台北市大安區義安里信義路四段216號","TEL":"02-27025232","COUNTYNAME":"台北市","TOWNNAME":"大安區","MARKTYPE":"991","Class":"1"}},{"type":"Feature","id":9537,"geometry":{"type":"Point","coordinates":[121.52780335146181,25.032643224129153]},"properties":{"OBJECTID":9537,"LANDMARKID":"6300000000210","LANDMARKCO":"107","LANDMARKNA":"台北市消防局金華消防分隊","LANDMARKAD":"6300003","ADDRESS":"台北市大安區愛國東路79巷13號","TEL":"02-23917653","COUNTYNAME":"台北市","TOWNNAME":"大安區","MARKTYPE":"991","Class":"1"}},{"type":"Feature","id":9538,"geometry":{"type":"Point","coordinates":[121.55226113645587,25.032868819507701]},"properties":{"OBJECTID":9538,"LANDMARKID":"6300000000211","LANDMARKCO":"107","LANDMARKNA":"台北市消防局安和消防分隊","LANDMARKAD":"6300003","ADDRESS":"台北市大安區安和路二段2號","TEL":"02-27094191","COUNTYNAME":"台北市","TOWNNAME":"大安區","MARKTYPE":"991","Class":"1"}},{"type":"Feature","id":9539,"geometry":{"type":"Point","coordinates":[121.54328594948861,25.030139523673245]},"properties":{"OBJECTID":9539,"LANDMARKID":"6300000000212","LANDMARKCO":"107","LANDMARKNA":"台北市消防局大安消防中隊","LANDMARKAD":"6300003","ADDRESS":"台北市大安區復興南路二段92號5樓","TEL":"02-27084739","COUNTYNAME":"台北市","TOWNNAME":"大安區","MARKTYPE":"991","Class":"1"}},{"type":"Feature","id":9540,"geometry":{"type":"Point","coordinates":[121.54431168943879,25.021564361465963]},"properties":{"OBJECTID":9540,"LANDMARKID":"6300000000118","LANDMARKCO":"103","LANDMARKNA":"台北市大安區健康服務中心","LANDMARKAD":"6300003","ADDRESS":"台北市大安區辛亥路三段15號","TEL":"02-27335831","COUNTYNAME":"台北市","TOWNNAME":"大安區","MARKTYPE":"991","Class":"1"}},{"type":"Feature","id":9541,"geometry":{"type":"Point","coordinates":[121.53451417159533,25.026575288450875]},"properties":{"OBJECTID":9541,"LANDMARKID":"6300000000376","LANDMARKCO":"108","LANDMARKNA":"台北市大安區公所","LANDMARKAD":"6300003","ADDRESS":"台北市大安區新生南路二段86號8-9樓","TEL":"02-23511711","COUNTYNAME":"台北市","TOWNNAME":"大安區","MARKTYPE":"991","Class":"1"}},{"type":"Feature","id":9542,"geometry":{"type":"Point","coordinates":[121.54759415974776,25.017838752263366]},"properties":{"OBJECTID":9542,"LANDMARKID":"6300000000106","LANDMARKCO":"101","LANDMARKNA":"國家地震工程研究中心","LANDMARKAD":"6300003","ADDRESS":"台北市大安區辛亥路三段200號","TEL":"02-66300888","COUNTYNAME":"台北市","TOWNNAME":"大安區","MARKTYPE":"991","Class":"1"}},{"type":"Feature","id":9543,"geometry":{"type":"Point","coordinates":[121.53430343377283,25.02316417232354]},"properties":{"OBJECTID":9543,"LANDMARKID":"6300000000107","LANDMARKCO":"101","LANDMARKNA":"人事行政局公務人力發展中心","LANDMARKAD":"6300003","ADDRESS":"台北市大安區新生南路三段30號","TEL":"02-83691399","COUNTYNAME":"台北市","TOWNNAME":"大安區","MARKTYPE":"991","Class":"1"}},{"type":"Feature","id":9544,"geometry":{"type":"Point","coordinates":[121.52442454899267,25.029246175226533]},"properties":{"OBJECTID":9544,"LANDMARKID":"6300000000108","LANDMARKCO":"101","LANDMARKNA":"林務局羅東林區管理處台北工作站","LANDMARKAD":"6300003","ADDRESS":"台北市潮州街61號之3","TEL":"02-23958886","COUNTYNAME":"台北市","TOWNNAME":"大安區","MARKTYPE":"991","Class":"1"}},{"type":"Feature","id":9545,"geometry":{"type":"Point","coordinates":[121.55302292713725,25.013754243117969]},"properties":{"OBJECTID":9545,"LANDMARKID":"6300000000117","LANDMARKCO":"103","LANDMARKNA":"台北市第二殯儀館","LANDMARKAD":"6300003","ADDRESS":"台北市大安區辛亥路三段330號","TEL":"02-87329751","COUNTYNAME":"台北市","TOWNNAME":"大安區","MARKTYPE":"991","Class":"1"}},{"type":"Feature","id":9546,"geometry":{"type":"Point","coordinates":[121.5558830236089,25.041161523717609]},"properties":{"OBJECTID":9546,"LANDMARKID":"6300000000105","LANDMARKCO":"101","LANDMARKNA":"國有財產局台灣北區辦事處","LANDMARKAD":"6300003","ADDRESS":"台北市忠孝東路四段290號3樓","TEL":"02-27814750","COUNTYNAME":"台北市","TOWNNAME":"大安區","MARKTYPE":"991","Class":"1"}},{"type":"Feature","id":9547,"geometry":{"type":"Point","coordinates":[121.53395339609013,25.017820842820186]},"properties":{"OBJECTID":9547,"LANDMARKID":"6300000000773","LANDMARKCO":"205","LANDMARKNA":"國立台灣大學人類學系標本陳列室","LANDMARKAD":"6300003","ADDRESS":"台北市大安區羅斯福路四段1號","TEL":"02-23630231","COUNTYNAME":"台北市","TOWNNAME":"大安區","MARKTYPE":"992","Class":"2"}},{"type":"Feature","id":9548,"geometry":{"type":"Point","coordinates":[121.53428310742406,25.01812552885113]},"properties":{"OBJECTID":9548,"LANDMARKID":"6300000000774","LANDMARKCO":"205","LANDMARKNA":"國立台灣大學農業陳列館","LANDMARKAD":"6300003","ADDRESS":"台北市大安區羅斯福路四段1號","TEL":"02-23627788","COUNTYNAME":"台北市","TOWNNAME":"大安區","MARKTYPE":"992","Class":"2"}},{"type":"Feature","id":9549,"geometry":{"type":"Point","coordinates":[121.5425373633926,25.024728735934218]},"properties":{"OBJECTID":9549,"LANDMARKID":"6300000000775","LANDMARKCO":"205","LANDMARKNA":"資訊科學展示中心","LANDMARKAD":"6300003","ADDRESS":"台北市和平東路二段108號","TEL":" ","COUNTYNAME":"台北市","TOWNNAME":"大安區","MARKTYPE":"992","Class":"2"}},{"type":"Feature","id":9550,"geometry":{"type":"Point","coordinates":[121.53558148926656,25.016116070690082]},"properties":{"OBJECTID":9550,"LANDMARKID":"6300000000776","LANDMARKCO":"205","LANDMARKNA":"國立台灣大學人類學系標本陳列館","LANDMARKAD":"6300003","ADDRESS":"台北市羅斯福路四段1號","TEL":" ","COUNTYNAME":"台北市","TOWNNAME":"大安區","MARKTYPE":"992","Class":"2"}},{"type":"Feature","id":9551,"geometry":{"type":"Point","coordinates":[121.54311470154754,25.034513423416367]},"properties":{"OBJECTID":9551,"LANDMARKID":"6300000000777","LANDMARKCO":"205","LANDMARKNA":"台北市客家文化會館","LANDMARKAD":"6300003","ADDRESS":"台北市大安區信義路三段157巷11號","TEL":" ","COUNTYNAME":"台北市","TOWNNAME":"大安區","MARKTYPE":"992","Class":"2"}},{"type":"Feature","id":9552,"geometry":{"type":"Point","coordinates":[121.53327384988928,25.04409645672855]},"properties":{"OBJECTID":9552,"LANDMARKID":"6300000000778","LANDMARKCO":"205","LANDMARKNA":"國立中央圖書館台灣分館民俗器物","LANDMARKAD":"6300003","ADDRESS":"台北市新生南路一段1號","TEL":" ","COUNTYNAME":"台北市","TOWNNAME":"大安區","MARKTYPE":"992","Class":"2"}},{"type":"Feature","id":9553,"geometry":{"type":"Point","coordinates":[121.53296491237457,25.02648409181549]},"properties":{"OBJECTID":9553,"LANDMARKID":"6300000000779","LANDMARKCO":"205","LANDMARKNA":"國立教育資料館","LANDMARKAD":"6300003","ADDRESS":"台北市中正區和平東路一段181號","TEL":" ","COUNTYNAME":"台北市","TOWNNAME":"大安區","MARKTYPE":"992","Class":"2"}},{"type":"Feature","id":9554,"geometry":{"type":"Point","coordinates":[121.53320782361169,25.044192251383389]},"properties":{"OBJECTID":9554,"LANDMARKID":"6300000000766","LANDMARKCO":"204","LANDMARKNA":"國立中央圖書館台北分館","LANDMARKAD":"6300003","ADDRESS":"台北市大安區新生南路一段1號","TEL":" ","COUNTYNAME":"台北市","TOWNNAME":"大安區","MARKTYPE":"992","Class":"2"}},{"type":"Feature","id":9555,"geometry":{"type":"Point","coordinates":[121.53825662700811,25.029129238496477]},"properties":{"OBJECTID":9555,"LANDMARKID":"6300000000767","LANDMARKCO":"204","LANDMARKNA":"台北市立圖書館","LANDMARKAD":"6300003","ADDRESS":"台北市大安區建國南路二段125號","TEL":" ","COUNTYNAME":"台北市","TOWNNAME":"大安區","MARKTYPE":"992","Class":"2"}},{"type":"Feature","id":9556,"geometry":{"type":"Point","coordinates":[121.54459304257112,25.021576384806245]},"properties":{"OBJECTID":9556,"LANDMARKID":"6300000000768","LANDMARKCO":"204","LANDMARKNA":"台北市立圖書館道藩分館","LANDMARKAD":"6300003","ADDRESS":"台北市大安區辛亥路三段11號3樓","TEL":" ","COUNTYNAME":"台北市","TOWNNAME":"大安區","MARKTYPE":"992","Class":"2"}},{"type":"Feature","id":9557,"geometry":{"type":"Point","coordinates":[121.55095269204895,25.016062575377457]},"properties":{"OBJECTID":9557,"LANDMARKID":"6300000000769","LANDMARKCO":"204","LANDMARKNA":"台北市立圖書館大安分館","LANDMARKAD":"6300003","ADDRESS":"台北市大安區辛亥路三段223號4~5樓","TEL":" ","COUNTYNAME":"台北市","TOWNNAME":"大安區","MARKTYPE":"992","Class":"2"}},{"type":"Feature","id":9558,"geometry":{"type":"Point","coordinates":[121.55488787733499,25.036388179895326]},"properties":{"OBJECTID":9558,"LANDMARKID":"6300000000770","LANDMARKCO":"204","LANDMARKNA":"台北市立圖書館延吉民眾閱覽室","LANDMARKAD":"6300003","ADDRESS":"台北市大安區延吉街236巷17號3~4樓","TEL":" ","COUNTYNAME":"台北市","TOWNNAME":"大安區","MARKTYPE":"992","Class":"2"}},{"type":"Feature","id":9559,"geometry":{"type":"Point","coordinates":[121.54529523182035,25.025504821731023]},"properties":{"OBJECTID":9559,"LANDMARKID":"6300000000771","LANDMARKCO":"204","LANDMARKNA":"台北市立圖書館成功民眾閱覽室","LANDMARKAD":"6300003","ADDRESS":"台北市大安區和平東路二段311巷29號4樓","TEL":" ","COUNTYNAME":"台北市","TOWNNAME":"大安區","MARKTYPE":"992","Class":"2"}},{"type":"Feature","id":9560,"geometry":{"type":"Point","coordinates":[121.5294020026335,25.028491189815362]},"properties":{"OBJECTID":9560,"LANDMARKID":"6300000000772","LANDMARKCO":"204","LANDMARKNA":"台北市立圖書館龍安民眾閱覽室","LANDMARKAD":"6300003","ADDRESS":"台北市大安區永康街60號3樓","TEL":" ","COUNTYNAME":"台北市","TOWNNAME":"大安區","MARKTYPE":"992","Class":"2"}},{"type":"Feature","id":9561,"geometry":{"type":"Point","coordinates":[121.55293445336206,25.041314826110924]},"properties":{"OBJECTID":9561,"LANDMARKID":"6300000000832","LANDMARKCO":"207","LANDMARKNA":"李石樵美術館","LANDMARKAD":"6300003","ADDRESS":"台北市忠孝東路四段218之7號3樓","TEL":" ","COUNTYNAME":"台北市","TOWNNAME":"大安區","MARKTYPE":"992","Class":"2"}},{"type":"Feature","id":9562,"geometry":{"type":"Point","coordinates":[121.53178028231548,25.027649708223979]},"properties":{"OBJECTID":9562,"LANDMARKID":"6300000000824","LANDMARKCO":"206","LANDMARKNA":"蒙藏文化中心","LANDMARKAD":"6300003","ADDRESS":"台北市青田街8巷3號","TEL":" ","COUNTYNAME":"台北市","TOWNNAME":"大安區","MARKTYPE":"992","Class":"2"}},{"type":"Feature","id":9563,"geometry":{"type":"Point","coordinates":[121.52598762758079,25.027529938575217]},"properties":{"OBJECTID":9563,"LANDMARKID":"6300000000833","LANDMARKCO":"207","LANDMARKNA":"何創時書法藝術館","LANDMARKAD":"6300003","ADDRESS":"台北市金山南路二段222號B1樓","TEL":" ","COUNTYNAME":"台北市","TOWNNAME":"大安區","MARKTYPE":"992","Class":"2"}},{"type":"Feature","id":9564,"geometry":{"type":"Point","coordinates":[121.54813969996596,25.019502653593385]},"properties":{"OBJECTID":9564,"LANDMARKID":"6300000000499","LANDMARKCO":"202","LANDMARKNA":"市立和平高中","LANDMARKAD":"6300003","ADDRESS":"台北市大安區芳和里臥龍街100號","TEL":"02-27324300","COUNTYNAME":"台北市","TOWNNAME":"大安區","MARKTYPE":"992","Class":"2"}},{"type":"Feature","id":9565,"geometry":{"type":"Point","coordinates":[121.54239625682312,25.028552539932008]},"properties":{"OBJECTID":9565,"LANDMARKID":"6300000000500","LANDMARKCO":"202","LANDMARKNA":"私立開平餐飲學校","LANDMARKAD":"6300003","ADDRESS":"台北市大安區復興南路二段248巷24號","TEL":"02-27556939","COUNTYNAME":"台北市","TOWNNAME":"大安區","MARKTYPE":"992","Class":"2"}},{"type":"Feature","id":9566,"geometry":{"type":"Point","coordinates":[121.54700983511768,25.030334519401418]},"properties":{"OBJECTID":9566,"LANDMARKID":"6300000000501","LANDMARKCO":"203","LANDMARKNA":"市立大安國中","LANDMARKAD":"6300003","ADDRESS":"台北市大安區龍雲里四維路156號","TEL":"02-27014620","COUNTYNAME":"台北市","TOWNNAME":"大安區","MARKTYPE":"992","Class":"2"}},{"type":"Feature","id":9567,"geometry":{"type":"Point","coordinates":[121.54839745117314,25.039272250507871]},"properties":{"OBJECTID":9567,"LANDMARKID":"6300000000502","LANDMARKCO":"203","LANDMARKNA":"私立復興國中","LANDMARKAD":"6300003","ADDRESS":"台北市大安區敦化南路一段262號","TEL":"02-27119365","COUNTYNAME":"台北市","TOWNNAME":"大安區","MARKTYPE":"992","Class":"2"}},{"type":"Feature","id":9568,"geometry":{"type":"Point","coordinates":[121.53486272100533,25.036973127530857]},"properties":{"OBJECTID":9568,"LANDMARKID":"6300000000503","LANDMARKCO":"203","LANDMARKNA":"市立幸安國小","LANDMARKAD":"6300003","ADDRESS":"台北市大安區民炤里仁愛路三段22號","TEL":"02-27074191","COUNTYNAME":"台北市","TOWNNAME":"大安區","MARKTYPE":"992","Class":"2"}},{"type":"Feature","id":9569,"geometry":{"type":"Point","coordinates":[121.54838834552623,25.039362600000185]},"properties":{"OBJECTID":9569,"LANDMARKID":"6300000000504","LANDMARKCO":"203","LANDMARKNA":"私立復興小學","LANDMARKAD":"6300003","ADDRESS":"台北市大安區敦化南路一段262號","TEL":"02-27715859","COUNTYNAME":"台北市","TOWNNAME":"大安區","MARKTYPE":"992","Class":"2"}},{"type":"Feature","id":9570,"geometry":{"type":"Point","coordinates":[121.52654942450812,25.025717708162329]},"properties":{"OBJECTID":9570,"LANDMARKID":"6300000000377","LANDMARKCO":"201","LANDMARKNA":"國立台灣師範大學","LANDMARKAD":"6300003","ADDRESS":"台北市大安區和平東路一段162號","TEL":"02-23625101","COUNTYNAME":"台北市","TOWNNAME":"大安區","MARKTYPE":"992","Class":"2"}},{"type":"Feature","id":9571,"geometry":{"type":"Point","coordinates":[121.52425008239452,25.034923824836326]},"properties":{"OBJECTID":9571,"LANDMARKID":"6300000000493","LANDMARKCO":"202","LANDMARKNA":"私立金甌女中","LANDMARKAD":"6300003","ADDRESS":"台北市大安區光明里杭州南路二段1號","TEL":"02-23214765","COUNTYNAME":"台北市","TOWNNAME":"大安區","MARKTYPE":"992","Class":"2"}},{"type":"Feature","id":9572,"geometry":{"type":"Point","coordinates":[121.54040216535465,25.033671372469669]},"properties":{"OBJECTID":9572,"LANDMARKID":"6300000000494","LANDMARKCO":"202","LANDMARKNA":"國立師大附中","LANDMARKAD":"6300003","ADDRESS":"台北市大安區和安里信義路三段143號","TEL":"02-27075133","COUNTYNAME":"台北市","TOWNNAME":"大安區","MARKTYPE":"992","Class":"2"}},{"type":"Feature","id":9573,"geometry":{"type":"Point","coordinates":[121.538361725069,25.036330390904297]},"properties":{"OBJECTID":9573,"LANDMARKID":"6300000000495","LANDMARKCO":"202","LANDMARKNA":"私立延平中學","LANDMARKAD":"6300003","ADDRESS":"台北市大安區建國南路一段275號","TEL":"02-27071478","COUNTYNAME":"台北市","TOWNNAME":"大安區","MARKTYPE":"992","Class":"2"}},{"type":"Feature","id":9574,"geometry":{"type":"Point","coordinates":[121.55150335886073,25.032140903951973]},"properties":{"OBJECTID":9574,"LANDMARKID":"6300000000496","LANDMARKCO":"202","LANDMARKNA":"私立東方工商","LANDMARKAD":"6300003","ADDRESS":"台北市大安區信義路四段186巷8號","TEL":"02-27554616","COUNTYNAME":"台北市","TOWNNAME":"大安區","MARKTYPE":"992","Class":"2"}},{"type":"Feature","id":9575,"geometry":{"type":"Point","coordinates":[121.55478311961656,25.026549704432359]},"properties":{"OBJECTID":9575,"LANDMARKID":"6300000000497","LANDMARKCO":"202","LANDMARKNA":"私立喬治工商","LANDMARKAD":"6300003","ADDRESS":"台北市大安區基隆路二段172號","TEL":"02-27366515","COUNTYNAME":"台北市","TOWNNAME":"大安區","MARKTYPE":"992","Class":"2"}},{"type":"Feature","id":9576,"geometry":{"type":"Point","coordinates":[121.5433133527994,25.031967494669097]},"properties":{"OBJECTID":9576,"LANDMARKID":"6300000000498","LANDMARKCO":"202","LANDMARKNA":"市立大安高工","LANDMARKAD":"6300003","ADDRESS":"台北市大安區復興南路二段52號","TEL":"02-27091630","COUNTYNAME":"台北市","TOWNNAME":"大安區","MARKTYPE":"992","Class":"2"}},{"type":"Feature","id":9577,"geometry":{"type":"Point","coordinates":[121.55069307051446,25.037498298508204]},"properties":{"OBJECTID":9577,"LANDMARKID":"6300000000505","LANDMARKCO":"203","LANDMARKNA":"市立仁愛國中","LANDMARKAD":"6300003","ADDRESS":"台北市大安區敦安里仁愛路四段130號","TEL":"02-27021841","COUNTYNAME":"台北市","TOWNNAME":"大安區","MARKTYPE":"992","Class":"2"}},{"type":"Feature","id":9578,"geometry":{"type":"Point","coordinates":[121.55190541899502,25.029795141035546]},"properties":{"OBJECTID":9578,"LANDMARKID":"6300000000506","LANDMARKCO":"203","LANDMARKNA":"私立立人中小學","LANDMARKAD":"6300003","ADDRESS":"台北市大安區安和路二段99號","TEL":"02-27381188","COUNTYNAME":"台北市","TOWNNAME":"大安區","MARKTYPE":"992","Class":"2"}},{"type":"Feature","id":9579,"geometry":{"type":"Point","coordinates":[121.54121962443902,25.040357501622626]},"properties":{"OBJECTID":9579,"LANDMARKID":"6300000000507","LANDMARKCO":"203","LANDMARKNA":"市立懷生國中","LANDMARKAD":"6300003","ADDRESS":"台北市大安區忠孝東路三段248巷30號","TEL":"02-27215078","COUNTYNAME":"台北市","TOWNNAME":"大安區","MARKTYPE":"992","Class":"2"}},{"type":"Feature","id":9580,"geometry":{"type":"Point","coordinates":[121.55031853801195,25.018702366281762]},"properties":{"OBJECTID":9580,"LANDMARKID":"6300000000508","LANDMARKCO":"203","LANDMARKNA":"市立芳和國中","LANDMARKAD":"6300003","ADDRESS":"台北市大安區芳和里臥龍街170號","TEL":"02-27351915","COUNTYNAME":"台北市","TOWNNAME":"大安區","MARKTYPE":"992","Class":"2"}},{"type":"Feature","id":9581,"geometry":{"type":"Point","coordinates":[121.53312985019079,25.031193145136651]},"properties":{"OBJECTID":9581,"LANDMARKID":"6300000000509","LANDMARKCO":"203","LANDMARKNA":"市立金華國中","LANDMARKAD":"6300003","ADDRESS":"台北市大安區新生南路二段32號","TEL":"02-33931799","COUNTYNAME":"台北市","TOWNNAME":"大安區","MARKTYPE":"992","Class":"2"}},{"type":"Feature","id":9582,"geometry":{"type":"Point","coordinates":[121.5388358709411,25.011174683381604]},"properties":{"OBJECTID":9582,"LANDMARKID":"6300000000510","LANDMARKCO":"203","LANDMARKNA":"市立民族國中","LANDMARKAD":"6300003","ADDRESS":"台北市大安區羅斯福路四段113巷13號","TEL":"02-27332934","COUNTYNAME":"台北市","TOWNNAME":"大安區","MARKTYPE":"992","Class":"2"}},{"type":"Feature","id":9583,"geometry":{"type":"Point","coordinates":[121.5380453790151,25.024894136091529]},"properties":{"OBJECTID":9583,"LANDMARKID":"6300000000511","LANDMARKCO":"203","LANDMARKNA":"市立龍門國中","LANDMARKAD":"6300003","ADDRESS":"[106]台北市大安區建國南路二段269號","TEL":"02-27330299","COUNTYNAME":"台北市","TOWNNAME":"大安區","MARKTYPE":"992","Class":"2"}},{"type":"Feature","id":9584,"geometry":{"type":"Point","coordinates":[121.54616095782873,25.029381514088669]},"properties":{"OBJECTID":9584,"LANDMARKID":"6300000000512","LANDMARKCO":"203","LANDMARKNA":"市立建安國小","LANDMARKAD":"6300003","ADDRESS":"台北市大安區龍雲里大安路二段99號","TEL":"02-27077119","COUNTYNAME":"台北市","TOWNNAME":"大安區","MARKTYPE":"992","Class":"2"}},{"type":"Feature","id":9585,"geometry":{"type":"Point","coordinates":[121.55240208160008,25.035783838609408]},"properties":{"OBJECTID":9585,"LANDMARKID":"6300000000513","LANDMARKCO":"203","LANDMARKNA":"市立仁愛國小","LANDMARKAD":"6300003","ADDRESS":"台北市大安區芳和里安和路一段60號","TEL":"02-27095010","COUNTYNAME":"台北市","TOWNNAME":"大安區","MARKTYPE":"992","Class":"2"}},{"type":"Feature","id":9586,"geometry":{"type":"Point","coordinates":[121.53186691859459,25.022379479133267]},"properties":{"OBJECTID":9586,"LANDMARKID":"6300000000514","LANDMARKCO":"203","LANDMARKNA":"私立新民小學","LANDMARKAD":"6300003","ADDRESS":"台北市大安區龍坡里辛亥路一段113號","TEL":"02-23637516","COUNTYNAME":"台北市","TOWNNAME":"大安區","MARKTYPE":"992","Class":"2"}},{"type":"Feature","id":9587,"geometry":{"type":"Point","coordinates":[121.54089033521808,25.024998596577696]},"properties":{"OBJECTID":9587,"LANDMARKID":"6300000000515","LANDMARKCO":"203","LANDMARKNA":"國立台北師院附小","LANDMARKAD":"6300003","ADDRESS":"台北市大安區龍淵里和平東路二段94號","TEL":"02-27356186","COUNTYNAME":"台北市","TOWNNAME":"大安區","MARKTYPE":"992","Class":"2"}},{"type":"Feature","id":9588,"geometry":{"type":"Point","coordinates":[121.54965036858775,25.01949826988449]},"properties":{"OBJECTID":9588,"LANDMARKID":"6300000000516","LANDMARKCO":"203","LANDMARKNA":"市立大安國小","LANDMARKAD":"6300003","ADDRESS":"台北市大安區芳和里臥龍街129號","TEL":"02-27322332","COUNTYNAME":"台北市","TOWNNAME":"大安區","MARKTYPE":"992","Class":"2"}},{"type":"Feature","id":9589,"geometry":{"type":"Point","coordinates":[121.54287475451723,25.012413592845455]},"properties":{"OBJECTID":9589,"LANDMARKID":"6300000000517","LANDMARKCO":"203","LANDMARKNA":"市立公館國小","LANDMARKAD":"6300003","ADDRESS":"台北市大安區基隆路四段41巷68弄2號","TEL":"02-27351734","COUNTYNAME":"台北市","TOWNNAME":"大安區","MARKTYPE":"992","Class":"2"}},{"type":"Feature","id":9590,"geometry":{"type":"Point","coordinates":[121.52777269918393,25.032240874921719]},"properties":{"OBJECTID":9590,"LANDMARKID":"6300000000518","LANDMARKCO":"203","LANDMARKNA":"市立金華國小","LANDMARKAD":"6300003","ADDRESS":"台北市大安區永康里愛國東路79巷11號","TEL":"02-23952462","COUNTYNAME":"台北市","TOWNNAME":"大安區","MARKTYPE":"992","Class":"2"}},{"type":"Feature","id":9591,"geometry":{"type":"Point","coordinates":[121.53348398530026,25.030403847439619]},"properties":{"OBJECTID":9591,"LANDMARKID":"6300000000519","LANDMARKCO":"203","LANDMARKNA":"市立新生國小","LANDMARKAD":"6300003","ADDRESS":"台北市大安區新生南路二段36號","TEL":"02-23570886","COUNTYNAME":"台北市","TOWNNAME":"大安區","MARKTYPE":"992","Class":"2"}},{"type":"Feature","id":9592,"geometry":{"type":"Point","coordinates":[121.53485673387031,25.023945650186825]},"properties":{"OBJECTID":9592,"LANDMARKID":"6300000000520","LANDMARKCO":"203","LANDMARKNA":"市立龍安國小","LANDMARKAD":"6300003","ADDRESS":"台北市大安區龍門里新生南路三段33號","TEL":"02-23632077","COUNTYNAME":"台北市","TOWNNAME":"大安區","MARKTYPE":"992","Class":"2"}},{"type":"Feature","id":9593,"geometry":{"type":"Point","coordinates":[121.52849405912418,25.020669296844154]},"properties":{"OBJECTID":9593,"LANDMARKID":"6300000000521","LANDMARKCO":"203","LANDMARKNA":"市立古亭國小","LANDMARKAD":"6300003","ADDRESS":"台北市大安區古風里羅斯福路三段201號","TEL":"02-23639795","COUNTYNAME":"台北市","TOWNNAME":"大安區","MARKTYPE":"992","Class":"2"}},{"type":"Feature","id":9594,"geometry":{"type":"Point","coordinates":[121.54472350095347,25.024604934244906]},"properties":{"OBJECTID":9594,"LANDMARKID":"6300000000388","LANDMARKCO":"201","LANDMARKNA":"國立台北師範學院","LANDMARKAD":"6300003","ADDRESS":"台北市大安區和平東路二段134號","TEL":"02-27321104","COUNTYNAME":"台北市","TOWNNAME":"大安區","MARKTYPE":"992","Class":"2"}},{"type":"Feature","id":9595,"geometry":{"type":"Point","coordinates":[121.53552106484618,25.042206922676005]},"properties":{"OBJECTID":9595,"LANDMARKID":"6300000000389","LANDMARKCO":"201","LANDMARKNA":"國立台北科技大學","LANDMARKAD":"6300003","ADDRESS":"台北市大安區忠孝東路三段1號","TEL":"02-27712170","COUNTYNAME":"台北市","TOWNNAME":"大安區","MARKTYPE":"992","Class":"2"}},{"type":"Feature","id":9596,"geometry":{"type":"Point","coordinates":[121.54063884315487,25.013735659415524]},"properties":{"OBJECTID":9596,"LANDMARKID":"6300000000390","LANDMARKCO":"201","LANDMARKNA":"國立台灣科技大學","LANDMARKAD":"6300003","ADDRESS":"台北市大安區基隆路四段43號","TEL":"02-27333141","COUNTYNAME":"台北市","TOWNNAME":"大安區","MARKTYPE":"992","Class":"2"}},{"type":"Feature","id":9597,"geometry":{"type":"Point","coordinates":[121.53370484207403,25.016979698012701]},"properties":{"OBJECTID":9597,"LANDMARKID":"6300000000391","LANDMARKCO":"201","LANDMARKNA":"國立台灣大學","LANDMARKAD":"6300003","ADDRESS":"台北市大安區羅斯福路四段1號","TEL":"02-23630231","COUNTYNAME":"台北市","TOWNNAME":"大安區","MARKTYPE":"992","Class":"2"}},{"type":"Feature","id":9598,"geometry":{"type":"Point","coordinates":[121.53370484207403,25.016979698012701]},"properties":{"OBJECTID":9598,"LANDMARKID":"6300000000392","LANDMARKCO":"201","LANDMARKNA":"國立台灣大學管理學院","LANDMARKAD":"6300003","ADDRESS":"台北市大安區羅斯福路四段1號","TEL":"02-23660950#11","COUNTYNAME":"台北市","TOWNNAME":"大安區","MARKTYPE":"992","Class":"2"}},{"type":"Feature","id":9599,"geometry":{"type":"Point","coordinates":[121.528335564846,25.031183639579513]},"properties":{"OBJECTID":9599,"LANDMARKID":"6300000000393","LANDMARKCO":"201","LANDMARKNA":"淡江大學台北校園","LANDMARKAD":"6300003","ADDRESS":"台北市大安區金華街199巷5號","TEL":"02-33933833","COUNTYNAME":"台北市","TOWNNAME":"大安區","MARKTYPE":"992","Class":"2"}},{"type":"Feature","id":9600,"geometry":{"type":"Point","coordinates":[121.52763264246384,25.030118020591225]},"properties":{"OBJECTID":9600,"LANDMARKID":"6300000000394","LANDMARKCO":"201","LANDMARKNA":"國立政大企管中心","LANDMARKAD":"6300003","ADDRESS":"台北市大安區金華街187號4樓","TEL":"02-23419151","COUNTYNAME":"台北市","TOWNNAME":"大安區","MARKTYPE":"992","Class":"2"}}]}