{"type":"FeatureCollection","features":[{"type":"Feature","id":24201,"geometry":{"type":"Point","coordinates":[121.45370426547488,23.746741815734705]},"properties":{"OBJECTID":24201,"LANDMARKID":"1001500000182","LANDMARKCO":"107","LANDMARKNA":"花蓮縣消防局鳳榮消防分隊","LANDMARKAD":"1001502","ADDRESS":"花蓮縣鳳林鎮信義路212號","TEL":"03-8762189","COUNTYNAME":"花蓮縣","TOWNNAME":"鳳林鎮","MARKTYPE":"991","Class":"1"}},{"type":"Feature","id":24202,"geometry":{"type":"Point","coordinates":[121.4509845079275,23.742144463916102]},"properties":{"OBJECTID":24202,"LANDMARKID":"1001500000183","LANDMARKCO":"107","LANDMARKNA":"花蓮縣警察局鳳林分局","LANDMARKAD":"1001502","ADDRESS":"花蓮縣鳳林鎮鳳智里信義路37號","TEL":"03-8762324","COUNTYNAME":"花蓮縣","TOWNNAME":"鳳林鎮","MARKTYPE":"991","Class":"1"}},{"type":"Feature","id":24203,"geometry":{"type":"Point","coordinates":[121.41985321314047,23.707740333948713]},"properties":{"OBJECTID":24203,"LANDMARKID":"1001500000184","LANDMARKCO":"107","LANDMARKNA":"花蓮縣警察局長橋派出所","LANDMARKAD":"1001502","ADDRESS":"花蓮縣鳳林鎮長橋里7鄰長橋路91號","TEL":"03-8751314","COUNTYNAME":"花蓮縣","TOWNNAME":"鳳林鎮","MARKTYPE":"991","Class":"1"}},{"type":"Feature","id":24204,"geometry":{"type":"Point","coordinates":[121.45898988888659,23.78410973913924]},"properties":{"OBJECTID":24204,"LANDMARKID":"1001500000185","LANDMARKCO":"107","LANDMARKNA":"花蓮縣警察局南平派出所","LANDMARKAD":"1001502","ADDRESS":"花蓮縣鳳林鎮自強路372號","TEL":"03-8741594","COUNTYNAME":"花蓮縣","TOWNNAME":"鳳林鎮","MARKTYPE":"991","Class":"1"}},{"type":"Feature","id":24205,"geometry":{"type":"Point","coordinates":[121.45105379160306,23.74223435731691]},"properties":{"OBJECTID":24205,"LANDMARKID":"1001500000186","LANDMARKCO":"107","LANDMARKNA":"花蓮縣警察局鳳林派出所","LANDMARKAD":"1001502","ADDRESS":"花蓮縣鳳林鎮鳳智里信義路37號","TEL":"03-8762293","COUNTYNAME":"花蓮縣","TOWNNAME":"鳳林鎮","MARKTYPE":"991","Class":"1"}},{"type":"Feature","id":24206,"geometry":{"type":"Point","coordinates":[121.44991096217227,23.745754542917048]},"properties":{"OBJECTID":24206,"LANDMARKID":"1001500000103","LANDMARKCO":"106","LANDMARKNA":"花蓮縣鳳林鎮戶政事務所","LANDMARKAD":"1001502","ADDRESS":"花蓮縣鳳林鎮公正街20號","TEL":"03-8763784","COUNTYNAME":"花蓮縣","TOWNNAME":"鳳林鎮","MARKTYPE":"991","Class":"1"}},{"type":"Feature","id":24207,"geometry":{"type":"Point","coordinates":[121.45335656121655,23.746111772180988]},"properties":{"OBJECTID":24207,"LANDMARKID":"1001500000096","LANDMARKCO":"105","LANDMARKNA":"花蓮縣鳳林地政事務所","LANDMARKAD":"1001502","ADDRESS":"花蓮縣鳳林鎮信義路200號","TEL":"03-8761103","COUNTYNAME":"花蓮縣","TOWNNAME":"鳳林鎮","MARKTYPE":"991","Class":"1"}},{"type":"Feature","id":24208,"geometry":{"type":"Point","coordinates":[121.45136945436987,23.745302611582872]},"properties":{"OBJECTID":24208,"LANDMARKID":"1001500000064","LANDMARKCO":"103","LANDMARKNA":"花蓮縣鳳林鎮衛生所","LANDMARKAD":"1001502","ADDRESS":"花蓮縣鳳林鎮光華路95號","TEL":"03-8761116","COUNTYNAME":"花蓮縣","TOWNNAME":"鳳林鎮","MARKTYPE":"991","Class":"1"}},{"type":"Feature","id":24209,"geometry":{"type":"Point","coordinates":[121.45246309124001,23.785297621885348]},"properties":{"OBJECTID":24209,"LANDMARKID":"1001500000180","LANDMARKCO":"107","LANDMARKNA":"花蓮縣警察局見晴派出所","LANDMARKAD":"1001502","ADDRESS":"花蓮縣萬榮鄉見晴村7鄰96號","TEL":"03-8771514","COUNTYNAME":"花蓮縣","TOWNNAME":"鳳林鎮","MARKTYPE":"991","Class":"1"}},{"type":"Feature","id":24210,"geometry":{"type":"Point","coordinates":[121.50119771675034,23.734133021445178]},"properties":{"OBJECTID":24210,"LANDMARKID":"1001500000181","LANDMARKCO":"107","LANDMARKNA":"花蓮縣警察局山興派出所","LANDMARKAD":"1001502","ADDRESS":"花蓮縣鳳林鎮山興里文山路7號","TEL":"03-8741014","COUNTYNAME":"花蓮縣","TOWNNAME":"鳳林鎮","MARKTYPE":"991","Class":"1"}},{"type":"Feature","id":24211,"geometry":{"type":"Point","coordinates":[121.45286586080476,23.746440955666944]},"properties":{"OBJECTID":24211,"LANDMARKID":"1001500000406","LANDMARKCO":"204","LANDMARKNA":"花蓮縣立圖書館鳳林分館","LANDMARKAD":"1001502","ADDRESS":"花蓮縣鳳林鎮信義路151號","TEL":" ","COUNTYNAME":"花蓮縣","TOWNNAME":"鳳林鎮","MARKTYPE":"992","Class":"2"}},{"type":"Feature","id":24212,"geometry":{"type":"Point","coordinates":[121.44920121567407,23.743862445752345]},"properties":{"OBJECTID":24212,"LANDMARKID":"1001500000339","LANDMARKCO":"203","LANDMARKNA":"縣立鳳林國中","LANDMARKAD":"1001502","ADDRESS":"花蓮縣鳳林鎮光復路8號","TEL":"03-8761101","COUNTYNAME":"花蓮縣","TOWNNAME":"鳳林鎮","MARKTYPE":"992","Class":"2"}},{"type":"Feature","id":24213,"geometry":{"type":"Point","coordinates":[121.41785495655934,23.708104840310739]},"properties":{"OBJECTID":24213,"LANDMARKID":"1001500000340","LANDMARKCO":"203","LANDMARKNA":"縣立萬榮國中","LANDMARKAD":"1001502","ADDRESS":"花蓮縣鳳林鎮長橋路1號","TEL":"03-8751264","COUNTYNAME":"花蓮縣","TOWNNAME":"鳳林鎮","MARKTYPE":"992","Class":"2"}},{"type":"Feature","id":24214,"geometry":{"type":"Point","coordinates":[121.45647545007168,23.783755238603771]},"properties":{"OBJECTID":24214,"LANDMARKID":"1001500000341","LANDMARKCO":"203","LANDMARKNA":"縣立南平國中","LANDMARKAD":"1001502","ADDRESS":"花蓮縣鳳林鎮八德路56號","TEL":"03-8772586","COUNTYNAME":"花蓮縣","TOWNNAME":"鳳林鎮","MARKTYPE":"992","Class":"2"}},{"type":"Feature","id":24215,"geometry":{"type":"Point","coordinates":[121.44434683192841,23.729878496720833]},"properties":{"OBJECTID":24215,"LANDMARKID":"1001500000342","LANDMARKCO":"203","LANDMARKNA":"縣立鳳信國小","LANDMARKAD":"1001502","ADDRESS":"花蓮縣鳳林鎮中正路一段120巷25號","TEL":"03-8763949","COUNTYNAME":"花蓮縣","TOWNNAME":"鳳林鎮","MARKTYPE":"992","Class":"2"}},{"type":"Feature","id":24216,"geometry":{"type":"Point","coordinates":[121.44660602483292,23.743056792903875]},"properties":{"OBJECTID":24216,"LANDMARKID":"1001500000343","LANDMARKCO":"203","LANDMARKNA":"縣立鳳林國小","LANDMARKAD":"1001502","ADDRESS":"花蓮縣鳳林鎮中正路二段1號","TEL":"03-8762031","COUNTYNAME":"花蓮縣","TOWNNAME":"鳳林鎮","MARKTYPE":"992","Class":"2"}},{"type":"Feature","id":24217,"geometry":{"type":"Point","coordinates":[121.4686041983017,23.771435465658374]},"properties":{"OBJECTID":24217,"LANDMARKID":"1001500000344","LANDMARKCO":"203","LANDMARKNA":"縣立北林國小","LANDMARKAD":"1001502","ADDRESS":"花蓮縣鳳林鎮北林里平園路32號","TEL":"03-8762554","COUNTYNAME":"花蓮縣","TOWNNAME":"鳳林鎮","MARKTYPE":"992","Class":"2"}},{"type":"Feature","id":24218,"geometry":{"type":"Point","coordinates":[121.45258413415785,23.801189049431706]},"properties":{"OBJECTID":24218,"LANDMARKID":"1001500000345","LANDMARKCO":"203","LANDMARKNA":"縣立林榮國小","LANDMARKAD":"1001502","ADDRESS":"花蓮縣鳳林鎮林榮里永安街2號","TEL":"03-8771024","COUNTYNAME":"花蓮縣","TOWNNAME":"鳳林鎮","MARKTYPE":"992","Class":"2"}},{"type":"Feature","id":24219,"geometry":{"type":"Point","coordinates":[121.45213692180752,23.751257718563828]},"properties":{"OBJECTID":24219,"LANDMARKID":"1001500000346","LANDMARKCO":"203","LANDMARKNA":"縣立鳳仁國小","LANDMARKAD":"1001502","ADDRESS":"花蓮縣鳳林鎮鳳仁里光復路94號","TEL":"03-8762201","COUNTYNAME":"花蓮縣","TOWNNAME":"鳳林鎮","MARKTYPE":"992","Class":"2"}},{"type":"Feature","id":24220,"geometry":{"type":"Point","coordinates":[121.41980396033598,23.709095051786576]},"properties":{"OBJECTID":24220,"LANDMARKID":"1001500000347","LANDMARKCO":"203","LANDMARKNA":"縣立長橋國小","LANDMARKAD":"1001502","ADDRESS":"花蓮縣鳳林鎮長橋里長橋路2號","TEL":"03-8751654","COUNTYNAME":"花蓮縣","TOWNNAME":"鳳林鎮","MARKTYPE":"992","Class":"2"}},{"type":"Feature","id":24221,"geometry":{"type":"Point","coordinates":[121.46764960620821,23.754465504976313]},"properties":{"OBJECTID":24221,"LANDMARKID":"1001500000348","LANDMARKCO":"203","LANDMARKNA":"縣立大榮國小","LANDMARKAD":"1001502","ADDRESS":"花蓮縣鳳林鎮大榮里復興路85號","TEL":"03-8763904","COUNTYNAME":"花蓮縣","TOWNNAME":"鳳林鎮","MARKTYPE":"992","Class":"2"}},{"type":"Feature","id":24222,"geometry":{"type":"Point","coordinates":[121.41300044252445,23.696900724016622]},"properties":{"OBJECTID":24222,"LANDMARKID":"1001500000469","LANDMARKCO":"303","LANDMARKNA":"鳳林遊憩區小客車停車場","LANDMARKAD":"1001502","ADDRESS":"花蓮縣鳳林鎮","TEL":" ","COUNTYNAME":"花蓮縣","TOWNNAME":"鳳林鎮","MARKTYPE":"993","Class":"303"}},{"type":"Feature","id":24223,"geometry":{"type":"Point","coordinates":[121.41036428384699,23.697094717348808]},"properties":{"OBJECTID":24223,"LANDMARKID":"1001500000470","LANDMARKCO":"303","LANDMARKNA":"鳳林遊憩區入口處停車場","LANDMARKAD":"1001502","ADDRESS":"花蓮縣鳳林鎮","TEL":" ","COUNTYNAME":"花蓮縣","TOWNNAME":"鳳林鎮","MARKTYPE":"993","Class":"303"}},{"type":"Feature","id":24224,"geometry":{"type":"Point","coordinates":[121.41230679683224,23.693874303074058]},"properties":{"OBJECTID":24224,"LANDMARKID":"1001500000471","LANDMARKCO":"303","LANDMARKNA":"鳳林遊憩區烤肉區大小客車停車場","LANDMARKAD":"1001502","ADDRESS":"花蓮縣鳳林鎮","TEL":" ","COUNTYNAME":"花蓮縣","TOWNNAME":"鳳林鎮","MARKTYPE":"993","Class":"303"}},{"type":"Feature","id":24225,"geometry":{"type":"Point","coordinates":[121.46156079131094,23.80277073759261]},"properties":{"OBJECTID":24225,"LANDMARKID":"1001500000472","LANDMARKCO":"303","LANDMARKNA":"兆豐平林休閒農場停車場","LANDMARKAD":"1001502","ADDRESS":"花蓮縣鳳林鎮永福路20號","TEL":"03-8771121","COUNTYNAME":"花蓮縣","TOWNNAME":"鳳林鎮","MARKTYPE":"993","Class":"303"}},{"type":"Feature","id":24226,"geometry":{"type":"Point","coordinates":[121.44891685779724,23.745901070327985]},"properties":{"OBJECTID":24226,"LANDMARKID":"1001500000473","LANDMARKCO":"303","LANDMARKNA":"公有公正街停車場","LANDMARKAD":"1001502","ADDRESS":"花蓮縣鳳林鎮","TEL":" ","COUNTYNAME":"花蓮縣","TOWNNAME":"鳳林鎮","MARKTYPE":"993","Class":"303"}},{"type":"Feature","id":24227,"geometry":{"type":"Point","coordinates":[121.45673952660218,23.742691028888938]},"properties":{"OBJECTID":24227,"LANDMARKID":"1001500000474","LANDMARKCO":"303","LANDMARKNA":"停四停車場","LANDMARKAD":"1001502","ADDRESS":"花蓮縣鳳林鎮大榮三路","TEL":" ","COUNTYNAME":"花蓮縣","TOWNNAME":"鳳林鎮","MARKTYPE":"993","Class":"303"}},{"type":"Feature","id":24228,"geometry":{"type":"Point","coordinates":[121.44877663719919,23.745846567975658]},"properties":{"OBJECTID":24228,"LANDMARKID":"1001500000475","LANDMARKCO":"303","LANDMARKNA":"停一停車場","LANDMARKAD":"1001502","ADDRESS":"花蓮縣鳳林鎮中正路","TEL":" ","COUNTYNAME":"花蓮縣","TOWNNAME":"鳳林鎮","MARKTYPE":"993","Class":"303"}},{"type":"Feature","id":24229,"geometry":{"type":"Point","coordinates":[121.45043676457175,23.744693686585677]},"properties":{"OBJECTID":24229,"LANDMARKID":"1001500000476","LANDMARKCO":"303","LANDMARKNA":"停三停車場","LANDMARKAD":"1001502","ADDRESS":"花蓮縣鳳林鎮中華路","TEL":" ","COUNTYNAME":"花蓮縣","TOWNNAME":"鳳林鎮","MARKTYPE":"993","Class":"303"}},{"type":"Feature","id":24230,"geometry":{"type":"Point","coordinates":[121.45608426621934,23.745826600519059]},"properties":{"OBJECTID":24230,"LANDMARKID":"1001500000477","LANDMARKCO":"303","LANDMARKNA":"停五停車場","LANDMARKAD":"1001502","ADDRESS":"花蓮縣鳳林鎮中和路","TEL":" ","COUNTYNAME":"花蓮縣","TOWNNAME":"鳳林鎮","MARKTYPE":"993","Class":"303"}},{"type":"Feature","id":24231,"geometry":{"type":"Point","coordinates":[121.45880512054246,23.792261353567408]},"properties":{"OBJECTID":24231,"LANDMARKID":"1001500000478","LANDMARKCO":"303","LANDMARKNA":"彩光北豐農場停車場","LANDMARKAD":"1001502","ADDRESS":"花蓮縣鳳林鎮","TEL":" ","COUNTYNAME":"花蓮縣","TOWNNAME":"鳳林鎮","MARKTYPE":"993","Class":"303"}},{"type":"Feature","id":24232,"geometry":{"type":"Point","coordinates":[121.41883449517519,23.711616757724315]},"properties":{"OBJECTID":24232,"LANDMARKID":"1001500000440","LANDMARKCO":"301","LANDMARKNA":"萬榮火車站","LANDMARKAD":"1001502","ADDRESS":"花蓮縣鳳林鎮長德街17號","TEL":"03-8752175","COUNTYNAME":"花蓮縣","TOWNNAME":"鳳林鎮","MARKTYPE":"993","Class":"301"}},{"type":"Feature","id":24233,"geometry":{"type":"Point","coordinates":[121.44700207084348,23.746358212392146]},"properties":{"OBJECTID":24233,"LANDMARKID":"1001500000441","LANDMARKCO":"301","LANDMARKNA":"鳳林火車站","LANDMARKAD":"1001502","ADDRESS":"花蓮縣鳳林鎮中山路43號","TEL":"03-8762004","COUNTYNAME":"花蓮縣","TOWNNAME":"鳳林鎮","MARKTYPE":"993","Class":"301"}},{"type":"Feature","id":24234,"geometry":{"type":"Point","coordinates":[121.45821440416482,23.782038401178401]},"properties":{"OBJECTID":24234,"LANDMARKID":"1001500000442","LANDMARKCO":"301","LANDMARKNA":"南平火車站","LANDMARKAD":"1001502","ADDRESS":"花蓮縣鳳林鎮自強路223號","TEL":"03-8771597","COUNTYNAME":"花蓮縣","TOWNNAME":"鳳林鎮","MARKTYPE":"993","Class":"301"}},{"type":"Feature","id":24235,"geometry":{"type":"Point","coordinates":[121.44822627246994,23.74481616267725]},"properties":{"OBJECTID":24235,"LANDMARKID":"1001500000543","LANDMARKCO":"402","LANDMARKNA":"中華電信-鳳林服務中心","LANDMARKAD":"1001502","ADDRESS":"花蓮縣鳳林鎮中正路二段62號","TEL":"(03)876-4141","COUNTYNAME":"花蓮縣","TOWNNAME":"鳳林鎮","MARKTYPE":"994","Class":"4"}},{"type":"Feature","id":24236,"geometry":{"type":"Point","coordinates":[121.45707544572515,23.74380058418603]},"properties":{"OBJECTID":24236,"LANDMARKID":"1001500001359","LANDMARKCO":"604","LANDMARKNA":"余家莊民宿","LANDMARKAD":"1001502","ADDRESS":"花蓮縣鳳林鎮大榮里大榮三路23號","TEL":"03-8762421","COUNTYNAME":"花蓮縣","TOWNNAME":"鳳林鎮","MARKTYPE":"996","Class":"6"}},{"type":"Feature","id":24237,"geometry":{"type":"Point","coordinates":[121.45721311271619,23.803381167554953]},"properties":{"OBJECTID":24237,"LANDMARKID":"1001500001360","LANDMARKCO":"604","LANDMARKNA":"平林民宿","LANDMARKAD":"1001502","ADDRESS":"花蓮縣鳳林鎮林榮里大功街18號","TEL":"03-8771647","COUNTYNAME":"花蓮縣","TOWNNAME":"鳳林鎮","MARKTYPE":"996","Class":"6"}},{"type":"Feature","id":24238,"geometry":{"type":"Point","coordinates":[121.45386897340592,23.802294864740386]},"properties":{"OBJECTID":24238,"LANDMARKID":"1001500001361","LANDMARKCO":"604","LANDMARKNA":"水車寮花園民宿","LANDMARKAD":"1001502","ADDRESS":"花蓮縣鳳林鎮林榮里水車路57號","TEL":"03-8761789","COUNTYNAME":"花蓮縣","TOWNNAME":"鳳林鎮","MARKTYPE":"996","Class":"6"}},{"type":"Feature","id":24239,"geometry":{"type":"Point","coordinates":[121.44955403004413,23.807888293577907]},"properties":{"OBJECTID":24239,"LANDMARKID":"1001500001362","LANDMARKCO":"604","LANDMARKNA":"樟之園民宿","LANDMARKAD":"1001502","ADDRESS":"花蓮縣鳳林鎮林榮里林榮路235號","TEL":"03-8772198","COUNTYNAME":"花蓮縣","TOWNNAME":"鳳林鎮","MARKTYPE":"996","Class":"6"}},{"type":"Feature","id":24240,"geometry":{"type":"Point","coordinates":[121.45046649487979,23.743264712228072]},"properties":{"OBJECTID":24240,"LANDMARKID":"1001500001363","LANDMARKCO":"604","LANDMARKNA":"蘭花厝渡假民宿","LANDMARKAD":"1001502","ADDRESS":"花蓮縣鳳林鎮鳳智里光華路39號","TEL":"03-8761829","COUNTYNAME":"花蓮縣","TOWNNAME":"鳳林鎮","MARKTYPE":"996","Class":"6"}},{"type":"Feature","id":24241,"geometry":{"type":"Point","coordinates":[121.4446888499788,23.745578368016332]},"properties":{"OBJECTID":24241,"LANDMARKID":"1001500001364","LANDMARKCO":"604","LANDMARKNA":"府群土產民宿","LANDMARKAD":"1001502","ADDRESS":"花蓮縣鳳林鎮鳳義里水源路5號","TEL":"03-8761035","COUNTYNAME":"花蓮縣","TOWNNAME":"鳳林鎮","MARKTYPE":"996","Class":"6"}},{"type":"Feature","id":24242,"geometry":{"type":"Point","coordinates":[121.42637428401979,23.754400285734619]},"properties":{"OBJECTID":24242,"LANDMARKID":"1001500001365","LANDMARKCO":"604","LANDMARKNA":"漱石山居","LANDMARKAD":"1001502","ADDRESS":"花蓮縣鳳林鎮鳳義里水源路89號","TEL":"03-8760815","COUNTYNAME":"花蓮縣","TOWNNAME":"鳳林鎮","MARKTYPE":"996","Class":"6"}},{"type":"Feature","id":24243,"geometry":{"type":"Point","coordinates":[121.45076537888123,23.79380583760781]},"properties":{"OBJECTID":24243,"LANDMARKID":"1001500001366","LANDMARKCO":"604","LANDMARKNA":"靜園池畔民宿","LANDMARKAD":"1001502","ADDRESS":"花蓮縣鳳林鎮林榮里永康路220號","TEL":"0922-664152","COUNTYNAME":"花蓮縣","TOWNNAME":"鳳林鎮","MARKTYPE":"996","Class":"6"}},{"type":"Feature","id":24244,"geometry":{"type":"Point","coordinates":[121.45360852754114,23.746906634703628]},"properties":{"OBJECTID":24244,"LANDMARKID":"1001500001367","LANDMARKCO":"604","LANDMARKNA":"芳草古樹花園民宿","LANDMARKAD":"1001502","ADDRESS":"花蓮縣鳳林鎮大榮里中和路71-1號","TEL":"03-8763917","COUNTYNAME":"花蓮縣","TOWNNAME":"鳳林鎮","MARKTYPE":"996","Class":"6"}},{"type":"Feature","id":24245,"geometry":{"type":"Point","coordinates":[121.44421812440149,23.751215757946969]},"properties":{"OBJECTID":24245,"LANDMARKID":"1001500001368","LANDMARKCO":"604","LANDMARKNA":"鳳凰52民宿","LANDMARKAD":"1001502","ADDRESS":"花蓮縣鳳林鎮鳳義里鳳凰路52號","TEL":"03-8761895","COUNTYNAME":"花蓮縣","TOWNNAME":"鳳林鎮","MARKTYPE":"996","Class":"6"}},{"type":"Feature","id":24246,"geometry":{"type":"Point","coordinates":[121.44784279341417,23.745846274095008]},"properties":{"OBJECTID":24246,"LANDMARKID":"1001500000837","LANDMARKCO":"603","LANDMARKNA":"鳳梧旅社","LANDMARKAD":"1001502","ADDRESS":"花蓮縣鳳林鎮中美路58號","TEL":"03-8762661","COUNTYNAME":"花蓮縣","TOWNNAME":"鳳林鎮","MARKTYPE":"996","Class":"6"}},{"type":"Feature","id":24247,"geometry":{"type":"Point","coordinates":[121.44796835042021,23.747616910093466]},"properties":{"OBJECTID":24247,"LANDMARKID":"1001500000838","LANDMARKCO":"603","LANDMARKNA":"鳳興旅社","LANDMARKAD":"1001502","ADDRESS":"花蓮縣鳳林鎮成功街165號","TEL":"03-8762052","COUNTYNAME":"花蓮縣","TOWNNAME":"鳳林鎮","MARKTYPE":"996","Class":"6"}},{"type":"Feature","id":24248,"geometry":{"type":"Point","coordinates":[121.45637562447979,23.743253203744359]},"properties":{"OBJECTID":24248,"LANDMARKID":"1001500000744","LANDMARKCO":"503","LANDMARKNA":"一村香草屋","LANDMARKAD":"1001502","ADDRESS":"花蓮縣鳳林鎮大榮二路20號","TEL":"03-8763533","COUNTYNAME":"花蓮縣","TOWNNAME":"鳳林鎮","MARKTYPE":"995","Class":"5"}},{"type":"Feature","id":24249,"geometry":{"type":"Point","coordinates":[121.40904496549877,23.716437078947887]},"properties":{"OBJECTID":24249,"LANDMARKID":"1001500000231","LANDMARKCO":"108","LANDMARKNA":"花蓮縣萬榮鄉公所","LANDMARKAD":"1001512","ADDRESS":"花蓮縣萬榮鄉萬榮村19號","TEL":"03-8751321","COUNTYNAME":"花蓮縣","TOWNNAME":"萬榮鄉","MARKTYPE":"991","Class":"1"}},{"type":"Feature","id":24250,"geometry":{"type":"Point","coordinates":[121.41114278618601,23.714717645949865]},"properties":{"OBJECTID":24250,"LANDMARKID":"1001500000065","LANDMARKCO":"103","LANDMARKNA":"花蓮縣萬榮鄉鄉民代表會","LANDMARKAD":"1001512","ADDRESS":"花蓮縣萬榮鄉萬榮村19號3樓","TEL":"03-8751119","COUNTYNAME":"花蓮縣","TOWNNAME":"萬榮鄉","MARKTYPE":"991","Class":"1"}},{"type":"Feature","id":24251,"geometry":{"type":"Point","coordinates":[121.40857231610704,23.717523132641205]},"properties":{"OBJECTID":24251,"LANDMARKID":"1001500000177","LANDMARKCO":"107","LANDMARKNA":"花蓮縣警察局萬榮分駐所","LANDMARKAD":"1001512","ADDRESS":"花蓮縣萬榮鄉萬榮村14之1號","TEL":"03-8751549","COUNTYNAME":"花蓮縣","TOWNNAME":"萬榮鄉","MARKTYPE":"991","Class":"1"}},{"type":"Feature","id":24252,"geometry":{"type":"Point","coordinates":[121.34532046178555,23.495359144193234]},"properties":{"OBJECTID":24252,"LANDMARKID":"1001500000178","LANDMARKCO":"107","LANDMARKNA":"花蓮縣警察局紅葉派出所","LANDMARKAD":"1001512","ADDRESS":"花蓮縣萬榮鄉紅葉村1鄰11號","TEL":"03-8871372","COUNTYNAME":"花蓮縣","TOWNNAME":"萬榮鄉","MARKTYPE":"991","Class":"1"}},{"type":"Feature","id":24253,"geometry":{"type":"Point","coordinates":[121.44332891860036,23.808171532425423]},"properties":{"OBJECTID":24253,"LANDMARKID":"1001500000179","LANDMARKCO":"107","LANDMARKNA":"花蓮縣警察局西林派出所","LANDMARKAD":"1001512","ADDRESS":"花蓮縣萬榮鄉西林村8鄰西林村130號","TEL":"03-8771116","COUNTYNAME":"花蓮縣","TOWNNAME":"萬榮鄉","MARKTYPE":"991","Class":"1"}},{"type":"Feature","id":24254,"geometry":{"type":"Point","coordinates":[121.40968998616422,23.716072471886829]},"properties":{"OBJECTID":24254,"LANDMARKID":"1001500000102","LANDMARKCO":"106","LANDMARKNA":"花蓮縣萬榮鄉戶政事務所","LANDMARKAD":"1001512","ADDRESS":"花蓮縣萬榮鄉萬榮村1鄰12號","TEL":"03-8751488","COUNTYNAME":"花蓮縣","TOWNNAME":"萬榮鄉","MARKTYPE":"991","Class":"1"}},{"type":"Feature","id":24255,"geometry":{"type":"Point","coordinates":[121.23637169644829,23.750299404690946]},"properties":{"OBJECTID":24255,"LANDMARKID":"1001500000042","LANDMARKCO":"101","LANDMARKNA":"林務局花蓮林區管理處萬榮工作站","LANDMARKAD":"1001512","ADDRESS":"花蓮縣鳳林鎮森榮里林森路99號","TEL":"03-8751704","COUNTYNAME":"花蓮縣","TOWNNAME":"萬榮鄉","MARKTYPE":"991","Class":"1"}},{"type":"Feature","id":24256,"geometry":{"type":"Point","coordinates":[121.40968017907369,23.716072524041824]},"properties":{"OBJECTID":24256,"LANDMARKID":"1001500000054","LANDMARKCO":"103","LANDMARKNA":"花蓮縣萬榮鄉衛生所","LANDMARKAD":"1001512","ADDRESS":"花蓮縣萬榮鄉萬榮村12號","TEL":"03-8751651","COUNTYNAME":"花蓮縣","TOWNNAME":"萬榮鄉","MARKTYPE":"991","Class":"1"}},{"type":"Feature","id":24257,"geometry":{"type":"Point","coordinates":[121.39887610386039,23.718075467249999]},"properties":{"OBJECTID":24257,"LANDMARKID":"1001500000414","LANDMARKCO":"205","LANDMARKNA":"林田山林業文物展示館","LANDMARKAD":"1001512","ADDRESS":"花蓮縣鳳林鎮林森路20號","TEL":"03-8751703","COUNTYNAME":"花蓮縣","TOWNNAME":"萬榮鄉","MARKTYPE":"992","Class":"2"}},{"type":"Feature","id":24258,"geometry":{"type":"Point","coordinates":[121.4101087501415,23.714711242154277]},"properties":{"OBJECTID":24258,"LANDMARKID":"1001500000412","LANDMARKCO":"204","LANDMARKNA":"花蓮縣立圖書館萬榮分館","LANDMARKAD":"1001512","ADDRESS":"花蓮縣萬榮鄉2鄰23號","TEL":" ","COUNTYNAME":"花蓮縣","TOWNNAME":"萬榮鄉","MARKTYPE":"992","Class":"2"}},{"type":"Feature","id":24259,"geometry":{"type":"Point","coordinates":[121.41101055872433,23.715523677951882]},"properties":{"OBJECTID":24259,"LANDMARKID":"1001500000333","LANDMARKCO":"203","LANDMARKNA":"縣立萬榮國小","LANDMARKAD":"1001512","ADDRESS":"花蓮縣萬榮鄉萬榮村2鄰31號","TEL":"03-8751449","COUNTYNAME":"花蓮縣","TOWNNAME":"萬榮鄉","MARKTYPE":"992","Class":"2"}},{"type":"Feature","id":24260,"geometry":{"type":"Point","coordinates":[121.41301251650776,23.705497351089154]},"properties":{"OBJECTID":24260,"LANDMARKID":"1001500000334","LANDMARKCO":"203","LANDMARKNA":"縣立明利國小","LANDMARKAD":"1001512","ADDRESS":"花蓮縣萬榮鄉明利村35號","TEL":"03-8751048","COUNTYNAME":"花蓮縣","TOWNNAME":"萬榮鄉","MARKTYPE":"992","Class":"2"}},{"type":"Feature","id":24261,"geometry":{"type":"Point","coordinates":[121.34575680745174,23.494544499085368]},"properties":{"OBJECTID":24261,"LANDMARKID":"1001500000335","LANDMARKCO":"203","LANDMARKNA":"縣立紅葉國小","LANDMARKAD":"1001512","ADDRESS":"花蓮縣萬榮鄉紅葉村4號","TEL":"03-8872784","COUNTYNAME":"花蓮縣","TOWNNAME":"萬榮鄉","MARKTYPE":"992","Class":"2"}},{"type":"Feature","id":24262,"geometry":{"type":"Point","coordinates":[121.45189255706339,23.783675612893902]},"properties":{"OBJECTID":24262,"LANDMARKID":"1001500000336","LANDMARKCO":"203","LANDMARKNA":"縣立見晴國小","LANDMARKAD":"1001512","ADDRESS":"花蓮縣萬榮鄉見晴村89號","TEL":"03-8771574","COUNTYNAME":"花蓮縣","TOWNNAME":"萬榮鄉","MARKTYPE":"992","Class":"2"}},{"type":"Feature","id":24263,"geometry":{"type":"Point","coordinates":[121.44100616032635,23.811427560327957]},"properties":{"OBJECTID":24263,"LANDMARKID":"1001500000337","LANDMARKCO":"203","LANDMARKNA":"縣立西林國小","LANDMARKAD":"1001512","ADDRESS":"花蓮縣萬榮鄉西林村8鄰114號","TEL":"03-8771064","COUNTYNAME":"花蓮縣","TOWNNAME":"萬榮鄉","MARKTYPE":"992","Class":"2"}},{"type":"Feature","id":24264,"geometry":{"type":"Point","coordinates":[121.3983059464435,23.716464190186613]},"properties":{"OBJECTID":24264,"LANDMARKID":"1001500000338","LANDMARKCO":"203","LANDMARKNA":"縣立森榮國小","LANDMARKAD":"1001512","ADDRESS":"花蓮縣萬榮鄉","TEL":" ","COUNTYNAME":"花蓮縣","TOWNNAME":"萬榮鄉","MARKTYPE":"992","Class":"2"}},{"type":"Feature","id":24265,"geometry":{"type":"Point","coordinates":[121.35446469113346,23.588697522567056]},"properties":{"OBJECTID":24265,"LANDMARKID":"1001500000468","LANDMARKCO":"303","LANDMARKNA":"富源森林遊樂區服務中心停車場","LANDMARKAD":"1001512","ADDRESS":"花蓮縣瑞穗鄉","TEL":" ","COUNTYNAME":"花蓮縣","TOWNNAME":"萬榮鄉","MARKTYPE":"993","Class":"303"}},{"type":"Feature","id":24266,"geometry":{"type":"Point","coordinates":[121.34428159222843,23.495442313450493]},"properties":{"OBJECTID":24266,"LANDMARKID":"1001500001369","LANDMARKCO":"604","LANDMARKNA":"江布南山莊民宿","LANDMARKAD":"1001512","ADDRESS":"花蓮縣萬榮鄉紅葉村紅葉17號","TEL":"03-8873272","COUNTYNAME":"花蓮縣","TOWNNAME":"萬榮鄉","MARKTYPE":"996","Class":"6"}},{"type":"Feature","id":24267,"geometry":{"type":"Point","coordinates":[121.3436560850312,23.496554207722951]},"properties":{"OBJECTID":24267,"LANDMARKID":"1001500000776","LANDMARKCO":"508","LANDMARKNA":"瑞穗溫泉山莊","LANDMARKAD":"1001512","ADDRESS":"花蓮縣萬榮鄉紅葉村紅葉23號","TEL":"03-8872170","COUNTYNAME":"花蓮縣","TOWNNAME":"萬榮鄉","MARKTYPE":"995","Class":"5"}},{"type":"Feature","id":24268,"geometry":{"type":"Point","coordinates":[121.34422688484588,23.496993356150405]},"properties":{"OBJECTID":24268,"LANDMARKID":"1001500000777","LANDMARKCO":"508","LANDMARKNA":"瑞穗溫泉(外溫泉)","LANDMARKAD":"1001512","ADDRESS":"花蓮縣萬榮鄉","TEL":" ","COUNTYNAME":"花蓮縣","TOWNNAME":"萬榮鄉","MARKTYPE":"995","Class":"5"}},{"type":"Feature","id":24269,"geometry":{"type":"Point","coordinates":[121.3442540055355,23.4953345618556]},"properties":{"OBJECTID":24269,"LANDMARKID":"1001500000778","LANDMARKCO":"508","LANDMARKNA":"江布南溫泉山莊","LANDMARKAD":"1001512","ADDRESS":"花蓮縣萬榮鄉紅葉村17號","TEL":"0911-277317","COUNTYNAME":"花蓮縣","TOWNNAME":"萬榮鄉","MARKTYPE":"995","Class":"5"}},{"type":"Feature","id":24270,"geometry":{"type":"Point","coordinates":[121.34593243204804,23.495180556621879]},"properties":{"OBJECTID":24270,"LANDMARKID":"1001500000779","LANDMARKCO":"508","LANDMARKNA":"椰子林溫泉飯店","LANDMARKAD":"1001512","ADDRESS":"花蓮縣瑞穗鄉溫泉路三段199號","TEL":"0937-912051","COUNTYNAME":"花蓮縣","TOWNNAME":"萬榮鄉","MARKTYPE":"995","Class":"5"}},{"type":"Feature","id":24271,"geometry":{"type":"Point","coordinates":[121.21355244277528,23.600403935321854]},"properties":{"OBJECTID":24271,"LANDMARKID":"1001500000825","LANDMARKCO":"513","LANDMARKNA":"丹大山","LANDMARKAD":"1001512","ADDRESS":"花蓮縣萬榮鄉","TEL":" ","COUNTYNAME":"花蓮縣","TOWNNAME":"萬榮鄉","MARKTYPE":"995","Class":"5"}},{"type":"Feature","id":24272,"geometry":{"type":"Point","coordinates":[121.23956381422911,23.724495963047048]},"properties":{"OBJECTID":24272,"LANDMARKID":"1001500000826","LANDMARKCO":"513","LANDMARKNA":"六順山","LANDMARKAD":"1001512","ADDRESS":"花蓮縣萬榮鄉","TEL":" ","COUNTYNAME":"花蓮縣","TOWNNAME":"萬榮鄉","MARKTYPE":"995","Class":"5"}},{"type":"Feature","id":24273,"geometry":{"type":"Point","coordinates":[121.26612970877393,23.872703036805699]},"properties":{"OBJECTID":24273,"LANDMARKID":"1001500000827","LANDMARKCO":"513","LANDMARKNA":"安東軍山","LANDMARKAD":"1001512","ADDRESS":"花蓮縣萬榮鄉","TEL":" ","COUNTYNAME":"花蓮縣","TOWNNAME":"萬榮鄉","MARKTYPE":"995","Class":"5"}},{"type":"Feature","id":24274,"geometry":{"type":"Point","coordinates":[121.42326783824277,23.67260600012975]},"properties":{"OBJECTID":24274,"LANDMARKID":"1001500000607","LANDMARKCO":"405","LANDMARKNA":"中油加油站-馬太鞍加油站(中油自營)","LANDMARKAD":"1001507","ADDRESS":"花蓮縣光復鄉林森路300號","TEL":"03-8700125","COUNTYNAME":"花蓮縣","TOWNNAME":"光復鄉","MARKTYPE":"994","Class":"4"}},{"type":"Feature","id":24275,"geometry":{"type":"Point","coordinates":[121.42471126674081,23.667580153713914]},"properties":{"OBJECTID":24275,"LANDMARKID":"1001500000608","LANDMARKCO":"405","LANDMARKNA":"中油加油站-光復站(中油自營)","LANDMARKAD":"1001507","ADDRESS":"花蓮縣光復鄉中山路二段340號","TEL":"03-8701070","COUNTYNAME":"花蓮縣","TOWNNAME":"光復鄉","MARKTYPE":"994","Class":"4"}},{"type":"Feature","id":24276,"geometry":{"type":"Point","coordinates":[121.41784873892615,23.653493298217807]},"properties":{"OBJECTID":24276,"LANDMARKID":"1001500000609","LANDMARKCO":"405","LANDMARKNA":"台糖加油站-大進站(中油)","LANDMARKAD":"1001507","ADDRESS":"花蓮縣光復鄉中山路一段232號","TEL":" ","COUNTYNAME":"花蓮縣","TOWNNAME":"光復鄉","MARKTYPE":"994","Class":"4"}},{"type":"Feature","id":24277,"geometry":{"type":"Point","coordinates":[121.48798381856619,23.687940511227456]},"properties":{"OBJECTID":24277,"LANDMARKID":"1001500000762","LANDMARKCO":"506","LANDMARKNA":"文旦觀光果園","LANDMARKAD":"1001507","ADDRESS":"花蓮縣光復鄉大興村民權街8號","TEL":"03-8701586","COUNTYNAME":"花蓮縣","TOWNNAME":"光復鄉","MARKTYPE":"995","Class":"5"}},{"type":"Feature","id":24278,"geometry":{"type":"Point","coordinates":[121.38963969056196,23.637071157773079]},"properties":{"OBJECTID":24278,"LANDMARKID":"1001500000763","LANDMARKCO":"506","LANDMARKNA":"水璉柳橙觀光果園","LANDMARKAD":"1001507","ADDRESS":"花蓮縣光復鄉大興村民權街8號","TEL":"03-8701586","COUNTYNAME":"花蓮縣","TOWNNAME":"光復鄉","MARKTYPE":"995","Class":"5"}},{"type":"Feature","id":24279,"geometry":{"type":"Point","coordinates":[121.42481128458287,23.665214994903209]},"properties":{"OBJECTID":24279,"LANDMARKID":"1001500000710","LANDMARKCO":"408","LANDMARKNA":"郵局-光復郵局","LANDMARKAD":"1001507","ADDRESS":"花蓮縣光復鄉中正路1段124號","TEL":"(03)8701-048","COUNTYNAME":"花蓮縣","TOWNNAME":"光復鄉","MARKTYPE":"994","Class":"4"}},{"type":"Feature","id":24280,"geometry":{"type":"Point","coordinates":[121.45122472930919,23.65883750966206]},"properties":{"OBJECTID":24280,"LANDMARKID":"1001500000711","LANDMARKCO":"408","LANDMARKNA":"郵局-光復富田郵局","LANDMARKAD":"1001507","ADDRESS":"花蓮縣光復鄉富田一街36號之1","TEL":"(03)8701-661","COUNTYNAME":"花蓮縣","TOWNNAME":"光復鄉","MARKTYPE":"994","Class":"4"}},{"type":"Feature","id":24281,"geometry":{"type":"Point","coordinates":[121.42261634439414,23.666773995743714]},"properties":{"OBJECTID":24281,"LANDMARKID":"1001500000720","LANDMARKCO":"409","LANDMARKNA":"光豐地區農會","LANDMARKAD":"1001507","ADDRESS":"花連縣光復鄉大華村中華路193號","TEL":"03-870223","COUNTYNAME":"花蓮縣","TOWNNAME":"光復鄉","MARKTYPE":"994","Class":"4"}},{"type":"Feature","id":24282,"geometry":{"type":"Point","coordinates":[121.4201822853077,23.66224274121446]},"properties":{"OBJECTID":24282,"LANDMARKID":"1001500000567","LANDMARKCO":"404","LANDMARKNA":"台灣省自來水光復營運所","LANDMARKAD":"1001507","ADDRESS":"花蓮縣光復鄉中興路273號","TEL":" ","COUNTYNAME":"花蓮縣","TOWNNAME":"光復鄉","MARKTYPE":"994","Class":"4"}},{"type":"Feature","id":24283,"geometry":{"type":"Point","coordinates":[121.41018518596579,23.683674886130014]},"properties":{"OBJECTID":24283,"LANDMARKID":"1001500000658","LANDMARKCO":"406","LANDMARKNA":"獅子公園","LANDMARKAD":"1001507","ADDRESS":"花蓮縣光復鄉","TEL":" ","COUNTYNAME":"花蓮縣","TOWNNAME":"光復鄉","MARKTYPE":"994","Class":"4"}},{"type":"Feature","id":24284,"geometry":{"type":"Point","coordinates":[121.42327072905522,23.666879631822521]},"properties":{"OBJECTID":24284,"LANDMARKID":"1001500000659","LANDMARKCO":"406","LANDMARKNA":"洪華公園","LANDMARKAD":"1001507","ADDRESS":"花蓮縣光復鄉","TEL":" ","COUNTYNAME":"花蓮縣","TOWNNAME":"光復鄉","MARKTYPE":"994","Class":"4"}},{"type":"Feature","id":24285,"geometry":{"type":"Point","coordinates":[121.42237655315809,23.666579604914496]},"properties":{"OBJECTID":24285,"LANDMARKID":"1001500000660","LANDMARKCO":"406","LANDMARKNA":"兒童公園","LANDMARKAD":"1001507","ADDRESS":"花蓮縣光復鄉","TEL":" ","COUNTYNAME":"花蓮縣","TOWNNAME":"光復鄉","MARKTYPE":"994","Class":"4"}},{"type":"Feature","id":24286,"geometry":{"type":"Point","coordinates":[121.4336815190851,23.662433497081146]},"properties":{"OBJECTID":24286,"LANDMARKID":"1001500000661","LANDMARKCO":"406","LANDMARKNA":"大同環河公園","LANDMARKAD":"1001507","ADDRESS":"花蓮縣光復鄉","TEL":" ","COUNTYNAME":"花蓮縣","TOWNNAME":"光復鄉","MARKTYPE":"994","Class":"4"}},{"type":"Feature","id":24287,"geometry":{"type":"Point","coordinates":[121.42348584701656,23.669170959616515]},"properties":{"OBJECTID":24287,"LANDMARKID":"1001500000238","LANDMARKCO":"108","LANDMARKNA":"花蓮縣光復鄉公所","LANDMARKAD":"1001507","ADDRESS":"花蓮縣光復鄉中華路257號","TEL":"03-8702206","COUNTYNAME":"花蓮縣","TOWNNAME":"光復鄉","MARKTYPE":"991","Class":"1"}},{"type":"Feature","id":24288,"geometry":{"type":"Point","coordinates":[121.42262573919294,23.669446527961046]},"properties":{"OBJECTID":24288,"LANDMARKID":"1001500000055","LANDMARKCO":"103","LANDMARKNA":"花蓮縣光復鄉鄉民代表會","LANDMARKAD":"1001507","ADDRESS":"花蓮縣光復鄉中興路542號","TEL":"03-8700130","COUNTYNAME":"花蓮縣","TOWNNAME":"光復鄉","MARKTYPE":"991","Class":"1"}},{"type":"Feature","id":24289,"geometry":{"type":"Point","coordinates":[121.42467733433352,23.665552512227308]},"properties":{"OBJECTID":24289,"LANDMARKID":"1001500000121","LANDMARKCO":"107","LANDMARKNA":"花蓮縣消防局光復消防分隊","LANDMARKAD":"1001507","ADDRESS":"花蓮縣光復鄉光華街1號","TEL":"03-8701719","COUNTYNAME":"花蓮縣","TOWNNAME":"光復鄉","MARKTYPE":"991","Class":"1"}},{"type":"Feature","id":24290,"geometry":{"type":"Point","coordinates":[121.3908205301868,23.602795592875321]},"properties":{"OBJECTID":24290,"LANDMARKID":"1001500000122","LANDMARKCO":"107","LANDMARKNA":"花蓮縣警察局大富派出所","LANDMARKAD":"1001507","ADDRESS":"花蓮縣光復鄉大富村中山路一段23號","TEL":"03-8731093","COUNTYNAME":"花蓮縣","TOWNNAME":"光復鄉","MARKTYPE":"991","Class":"1"}},{"type":"Feature","id":24291,"geometry":{"type":"Point","coordinates":[121.44930015520477,23.660788299809571]},"properties":{"OBJECTID":24291,"LANDMARKID":"1001500000123","LANDMARKCO":"107","LANDMARKNA":"花蓮縣警察局富田派出所","LANDMARKAD":"1001507","ADDRESS":"花蓮縣光復鄉北富村中正路二段55號","TEL":"03-8702623","COUNTYNAME":"花蓮縣","TOWNNAME":"光復鄉","MARKTYPE":"991","Class":"1"}},{"type":"Feature","id":24292,"geometry":{"type":"Point","coordinates":[121.43196283251609,23.667160519718333]},"properties":{"OBJECTID":24292,"LANDMARKID":"1001500000124","LANDMARKCO":"107","LANDMARKNA":"花蓮縣警察局光復分駐所","LANDMARKAD":"1001507","ADDRESS":"花蓮縣光復鄉大華村中正路一段127號","TEL":"03-8701074","COUNTYNAME":"花蓮縣","TOWNNAME":"光復鄉","MARKTYPE":"991","Class":"1"}},{"type":"Feature","id":24293,"geometry":{"type":"Point","coordinates":[121.42508793101383,23.665377255803708]},"properties":{"OBJECTID":24293,"LANDMARKID":"1001500000110","LANDMARKCO":"106","LANDMARKNA":"花蓮縣光復鄉戶政事務所","LANDMARKAD":"1001507","ADDRESS":"花蓮縣光復鄉中正路一段129號","TEL":"03-8701164","COUNTYNAME":"花蓮縣","TOWNNAME":"光復鄉","MARKTYPE":"991","Class":"1"}},{"type":"Feature","id":24294,"geometry":{"type":"Point","coordinates":[121.42593553994031,23.671874061895586]},"properties":{"OBJECTID":24294,"LANDMARKID":"1001500000052","LANDMARKCO":"103","LANDMARKNA":"花蓮縣光復鄉衛生所","LANDMARKAD":"1001507","ADDRESS":"花蓮縣光復鄉大馬村中學街158號","TEL":"03-8301114","COUNTYNAME":"花蓮縣","TOWNNAME":"光復鄉","MARKTYPE":"991","Class":"1"}},{"type":"Feature","id":24295,"geometry":{"type":"Point","coordinates":[121.42152316130722,23.603256301352491]},"properties":{"OBJECTID":24295,"LANDMARKID":"1001500000043","LANDMARKCO":"101","LANDMARKNA":"台灣自強外役監獄","LANDMARKAD":"1001507","ADDRESS":"花蓮縣光復鄉大全村建國路1號","TEL":"03-8703914","COUNTYNAME":"花蓮縣","TOWNNAME":"光復鄉","MARKTYPE":"991","Class":"1"}},{"type":"Feature","id":24296,"geometry":{"type":"Point","coordinates":[121.42450211282612,23.665280704078395]},"properties":{"OBJECTID":24296,"LANDMARKID":"1001500000411","LANDMARKCO":"204","LANDMARKNA":"花蓮縣立圖書館光復分館","LANDMARKAD":"1001507","ADDRESS":"花蓮縣光復鄉中正路一段122號","TEL":" ","COUNTYNAME":"花蓮縣","TOWNNAME":"光復鄉","MARKTYPE":"992","Class":"2"}},{"type":"Feature","id":24297,"geometry":{"type":"Point","coordinates":[121.4300011061803,23.636733278430832]},"properties":{"OBJECTID":24297,"LANDMARKID":"1001500000302","LANDMARKCO":"203","LANDMARKNA":"縣立西富國小","LANDMARKAD":"1001507","ADDRESS":"花蓮縣光復鄉西富村民有街51巷3號","TEL":"03-8702765","COUNTYNAME":"花蓮縣","TOWNNAME":"光復鄉","MARKTYPE":"992","Class":"2"}},{"type":"Feature","id":24298,"geometry":{"type":"Point","coordinates":[121.42816439926345,23.667986599321306]},"properties":{"OBJECTID":24298,"LANDMARKID":"1001500000257","LANDMARKCO":"202","LANDMARKNA":"國立光復商工","LANDMARKAD":"1001507","ADDRESS":"花蓮縣光復鄉林森路100號","TEL":"03-8700245","COUNTYNAME":"花蓮縣","TOWNNAME":"光復鄉","MARKTYPE":"992","Class":"2"}},{"type":"Feature","id":24299,"geometry":{"type":"Point","coordinates":[121.38439773278375,23.588636900811878]},"properties":{"OBJECTID":24299,"LANDMARKID":"1001500000293","LANDMARKCO":"203","LANDMARKNA":"縣立富源國中","LANDMARKAD":"1001507","ADDRESS":"花蓮縣光復鄉大富村中山路一段2號","TEL":"03-8811002","COUNTYNAME":"花蓮縣","TOWNNAME":"光復鄉","MARKTYPE":"992","Class":"2"}},{"type":"Feature","id":24300,"geometry":{"type":"Point","coordinates":[121.42466381510171,23.670789864422265]},"properties":{"OBJECTID":24300,"LANDMARKID":"1001500000294","LANDMARKCO":"203","LANDMARKNA":"縣立光復國中","LANDMARKAD":"1001507","ADDRESS":"花蓮縣光復鄉大馬村林森路200號","TEL":"03-8701027","COUNTYNAME":"花蓮縣","TOWNNAME":"光復鄉","MARKTYPE":"992","Class":"2"}},{"type":"Feature","id":24301,"geometry":{"type":"Point","coordinates":[121.42640254446015,23.674219234360283]},"properties":{"OBJECTID":24301,"LANDMARKID":"1001500000295","LANDMARKCO":"203","LANDMARKNA":"縣立光復國小","LANDMARKAD":"1001507","ADDRESS":"花蓮縣光復鄉大馬村中山路三段75號","TEL":"03-8701029","COUNTYNAME":"花蓮縣","TOWNNAME":"光復鄉","MARKTYPE":"992","Class":"2"}},{"type":"Feature","id":24302,"geometry":{"type":"Point","coordinates":[121.44806251834883,23.660434270539305]},"properties":{"OBJECTID":24302,"LANDMARKID":"1001500000296","LANDMARKCO":"203","LANDMARKNA":"縣立太巴塱國小","LANDMARKAD":"1001507","ADDRESS":"花蓮縣光復鄉中正路二段23號","TEL":"03-8701134","COUNTYNAME":"花蓮縣","TOWNNAME":"光復鄉","MARKTYPE":"992","Class":"2"}},{"type":"Feature","id":24303,"geometry":{"type":"Point","coordinates":[121.3908020078497,23.607671845896309]},"properties":{"OBJECTID":24303,"LANDMARKID":"1001500000297","LANDMARKCO":"203","LANDMARKNA":"縣立大富國小","LANDMARKAD":"1001507","ADDRESS":"花蓮縣光復鄉大富村明德路29巷12號","TEL":"03-8731210","COUNTYNAME":"花蓮縣","TOWNNAME":"光復鄉","MARKTYPE":"992","Class":"2"}},{"type":"Feature","id":24304,"geometry":{"type":"Point","coordinates":[121.39804625971482,23.631946491178166]},"properties":{"OBJECTID":24304,"LANDMARKID":"1001500000298","LANDMARKCO":"203","LANDMARKNA":"縣立大興國小","LANDMARKAD":"1001507","ADDRESS":"花蓮縣光復鄉大興村民權街17號","TEL":"03-8702987","COUNTYNAME":"花蓮縣","TOWNNAME":"光復鄉","MARKTYPE":"992","Class":"2"}},{"type":"Feature","id":24305,"geometry":{"type":"Point","coordinates":[121.41963410263455,23.65473667478275]},"properties":{"OBJECTID":24305,"LANDMARKID":"1001500000299","LANDMARKCO":"203","LANDMARKNA":"縣立大進國小","LANDMARKAD":"1001507","ADDRESS":"花蓮縣光復鄉大進村糖廠街4號","TEL":"03-8701049","COUNTYNAME":"花蓮縣","TOWNNAME":"光復鄉","MARKTYPE":"992","Class":"2"}},{"type":"Feature","id":24306,"geometry":{"type":"Point","coordinates":[121.48227390443282,23.684708983018417]},"properties":{"OBJECTID":24306,"LANDMARKID":"1001500000300","LANDMARKCO":"203","LANDMARKNA":"縣立東富國小","LANDMARKAD":"1001507","ADDRESS":"花蓮縣光復鄉","TEL":" ","COUNTYNAME":"花蓮縣","TOWNNAME":"光復鄉","MARKTYPE":"992","Class":"2"}},{"type":"Feature","id":24307,"geometry":{"type":"Point","coordinates":[121.41833982364565,23.651756337535328]},"properties":{"OBJECTID":24307,"LANDMARKID":"1001500000301","LANDMARKCO":"203","LANDMARKNA":"縣立大全國小","LANDMARKAD":"1001507","ADDRESS":"花蓮縣光復鄉","TEL":" ","COUNTYNAME":"花蓮縣","TOWNNAME":"光復鄉","MARKTYPE":"992","Class":"2"}},{"type":"Feature","id":24308,"geometry":{"type":"Point","coordinates":[121.42611640936926,23.665069613165443]},"properties":{"OBJECTID":24308,"LANDMARKID":"1001500000459","LANDMARKCO":"302","LANDMARKNA":"花蓮汽車客運光復站","LANDMARKAD":"1001507","ADDRESS":"花蓮縣光復鄉中正路一段149號","TEL":" ","COUNTYNAME":"花蓮縣","TOWNNAME":"光復鄉","MARKTYPE":"993","Class":"302"}},{"type":"Feature","id":24309,"geometry":{"type":"Point","coordinates":[121.40983217443564,23.655723979307048]},"properties":{"OBJECTID":24309,"LANDMARKID":"1001500000485","LANDMARKCO":"303","LANDMARKNA":"清水公園停車場","LANDMARKAD":"1001507","ADDRESS":"花蓮縣光復鄉","TEL":" ","COUNTYNAME":"花蓮縣","TOWNNAME":"光復鄉","MARKTYPE":"993","Class":"303"}},{"type":"Feature","id":24310,"geometry":{"type":"Point","coordinates":[121.42094476845618,23.659198020137136]},"properties":{"OBJECTID":24310,"LANDMARKID":"1001500000486","LANDMARKCO":"303","LANDMARKNA":"環河公園停車場","LANDMARKAD":"1001507","ADDRESS":"花蓮縣光復鄉","TEL":" ","COUNTYNAME":"花蓮縣","TOWNNAME":"光復鄉","MARKTYPE":"993","Class":"303"}},{"type":"Feature","id":24311,"geometry":{"type":"Point","coordinates":[121.42175045092762,23.658009066300455]},"properties":{"OBJECTID":24311,"LANDMARKID":"1001500000487","LANDMARKCO":"303","LANDMARKNA":"花蓮糖廠大客車停車場","LANDMARKAD":"1001507","ADDRESS":"花蓮縣光復鄉","TEL":" ","COUNTYNAME":"花蓮縣","TOWNNAME":"光復鄉","MARKTYPE":"993","Class":"303"}},{"type":"Feature","id":24312,"geometry":{"type":"Point","coordinates":[121.42185596202688,23.657855779857815]},"properties":{"OBJECTID":24312,"LANDMARKID":"1001500000488","LANDMARKCO":"303","LANDMARKNA":"花蓮糖廠小客車停車場","LANDMARKAD":"1001507","ADDRESS":"花蓮縣光復鄉","TEL":" ","COUNTYNAME":"花蓮縣","TOWNNAME":"光復鄉","MARKTYPE":"993","Class":"303"}},{"type":"Feature","id":24313,"geometry":{"type":"Point","coordinates":[121.42223751800798,23.667342613716976]},"properties":{"OBJECTID":24313,"LANDMARKID":"1001500000489","LANDMARKCO":"303","LANDMARKNA":"光復鄉停車場","LANDMARKAD":"1001507","ADDRESS":"花蓮縣光復鄉","TEL":" ","COUNTYNAME":"花蓮縣","TOWNNAME":"光復鄉","MARKTYPE":"993","Class":"303"}},{"type":"Feature","id":24314,"geometry":{"type":"Point","coordinates":[121.42446939393636,23.667279908346678]},"properties":{"OBJECTID":24314,"LANDMARKID":"1001500000490","LANDMARKCO":"303","LANDMARKNA":"光復鄉立體停車場","LANDMARKAD":"1001507","ADDRESS":"花蓮縣光復鄉","TEL":" ","COUNTYNAME":"花蓮縣","TOWNNAME":"光復鄉","MARKTYPE":"993","Class":"303"}},{"type":"Feature","id":24315,"geometry":{"type":"Point","coordinates":[121.38962194290079,23.605682389687857]},"properties":{"OBJECTID":24315,"LANDMARKID":"1001500000443","LANDMARKCO":"301","LANDMARKNA":"大富火車站","LANDMARKAD":"1001507","ADDRESS":"花蓮縣光復鄉","TEL":" ","COUNTYNAME":"花蓮縣","TOWNNAME":"光復鄉","MARKTYPE":"993","Class":"301"}},{"type":"Feature","id":24316,"geometry":{"type":"Point","coordinates":[121.42118365010808,23.66632636114074]},"properties":{"OBJECTID":24316,"LANDMARKID":"1001500000444","LANDMARKCO":"301","LANDMARKNA":"光復火車站","LANDMARKAD":"1001507","ADDRESS":"花蓮縣光復鄉中正路一段2之1號","TEL":"03-8704143","COUNTYNAME":"花蓮縣","TOWNNAME":"光復鄉","MARKTYPE":"993","Class":"301"}},{"type":"Feature","id":24317,"geometry":{"type":"Point","coordinates":[121.42517014182795,23.665169604014398]},"properties":{"OBJECTID":24317,"LANDMARKID":"1001500000556","LANDMARKCO":"402","LANDMARKNA":"中華電信-光復服務中心","LANDMARKAD":"1001507","ADDRESS":"花蓮縣光復鄉中正路一段132號","TEL":"123或0800-080-123","COUNTYNAME":"花蓮縣","TOWNNAME":"光復鄉","MARKTYPE":"994","Class":"4"}},{"type":"Feature","id":24318,"geometry":{"type":"Point","coordinates":[121.42831713681409,23.666708580314804]},"properties":{"OBJECTID":24318,"LANDMARKID":"1001500001328","LANDMARKCO":"604","LANDMARKNA":"綠園民宿","LANDMARKAD":"1001507","ADDRESS":"花蓮縣光復鄉大同村自強路72-1號","TEL":"03-8701376","COUNTYNAME":"花蓮縣","TOWNNAME":"光復鄉","MARKTYPE":"996","Class":"6"}},{"type":"Feature","id":24319,"geometry":{"type":"Point","coordinates":[121.43260842303337,23.664017353548108]},"properties":{"OBJECTID":24319,"LANDMARKID":"1001500001329","LANDMARKCO":"604","LANDMARKNA":"盛夏的軌跡山莊","LANDMARKAD":"1001507","ADDRESS":"花蓮縣光復鄉大同村佛祖街8巷5號","TEL":"03-8702629","COUNTYNAME":"花蓮縣","TOWNNAME":"光復鄉","MARKTYPE":"996","Class":"6"}},{"type":"Feature","id":24320,"geometry":{"type":"Point","coordinates":[121.42203027893395,23.66275605080277]},"properties":{"OBJECTID":24320,"LANDMARKID":"1001500001330","LANDMARKCO":"604","LANDMARKNA":"鐵塔民宿","LANDMARKAD":"1001507","ADDRESS":"花蓮縣光復鄉大安村中山路2段85號","TEL":"03-8700983","COUNTYNAME":"花蓮縣","TOWNNAME":"光復鄉","MARKTYPE":"996","Class":"6"}},{"type":"Feature","id":24321,"geometry":{"type":"Point","coordinates":[121.405999525295,23.662252907757249]},"properties":{"OBJECTID":24321,"LANDMARKID":"1001500001331","LANDMARKCO":"604","LANDMARKNA":"馬錫山休閒山莊","LANDMARKAD":"1001507","ADDRESS":"花蓮縣光復鄉大華村大華街109巷70號","TEL":"0930-078368","COUNTYNAME":"花蓮縣","TOWNNAME":"光復鄉","MARKTYPE":"996","Class":"6"}},{"type":"Feature","id":24322,"geometry":{"type":"Point","coordinates":[121.41957797189691,23.658054708648287]},"properties":{"OBJECTID":24322,"LANDMARKID":"1001500001332","LANDMARKCO":"604","LANDMARKNA":"砝傣岸民宿","LANDMARKAD":"1001507","ADDRESS":"花蓮縣光復鄉大進村中興路176巷1弄2號","TEL":"03-8700278","COUNTYNAME":"花蓮縣","TOWNNAME":"光復鄉","MARKTYPE":"996","Class":"6"}},{"type":"Feature","id":24323,"geometry":{"type":"Point","coordinates":[121.41957106421106,23.65808372749499]},"properties":{"OBJECTID":24323,"LANDMARKID":"1001500001333","LANDMARKCO":"604","LANDMARKNA":"馬太鞍驛棧","LANDMARKAD":"1001507","ADDRESS":"花蓮縣光復鄉大進村中興路176巷1弄6號","TEL":"03-8700368","COUNTYNAME":"花蓮縣","TOWNNAME":"光復鄉","MARKTYPE":"996","Class":"6"}},{"type":"Feature","id":24324,"geometry":{"type":"Point","coordinates":[121.41961033915143,23.658169621121644]},"properties":{"OBJECTID":24324,"LANDMARKID":"1001500001334","LANDMARKCO":"604","LANDMARKNA":"大眾民宿","LANDMARKAD":"1001507","ADDRESS":"花蓮縣光復鄉大進村中興路176巷1弄8號","TEL":"03-8701631","COUNTYNAME":"花蓮縣","TOWNNAME":"光復鄉","MARKTYPE":"996","Class":"6"}},{"type":"Feature","id":24325,"geometry":{"type":"Point","coordinates":[121.41927259572135,23.658520043909437]},"properties":{"OBJECTID":24325,"LANDMARKID":"1001500001335","LANDMARKCO":"604","LANDMARKNA":"幸福民宿","LANDMARKAD":"1001507","ADDRESS":"花蓮縣光復鄉大進村中興路200號","TEL":"0937-947823","COUNTYNAME":"花蓮縣","TOWNNAME":"光復鄉","MARKTYPE":"996","Class":"6"}},{"type":"Feature","id":24326,"geometry":{"type":"Point","coordinates":[121.39327716250116,23.628166995641408]},"properties":{"OBJECTID":24326,"LANDMARKID":"1001500001336","LANDMARKCO":"604","LANDMARKNA":"綠野仙蹤農莊民宿","LANDMARKAD":"1001507","ADDRESS":"花蓮縣光復鄉大興村民生街1-6號","TEL":"03-8700787","COUNTYNAME":"花蓮縣","TOWNNAME":"光復鄉","MARKTYPE":"996","Class":"6"}},{"type":"Feature","id":24327,"geometry":{"type":"Point","coordinates":[121.44767276435275,23.658130769749985]},"properties":{"OBJECTID":24327,"LANDMARKID":"1001500001337","LANDMARKCO":"604","LANDMARKNA":"有意宿民宿","LANDMARKAD":"1001507","ADDRESS":"花蓮縣光復鄉西富村富愛街51-1號","TEL":"03-8705680","COUNTYNAME":"花蓮縣","TOWNNAME":"光復鄉","MARKTYPE":"996","Class":"6"}},{"type":"Feature","id":24328,"geometry":{"type":"Point","coordinates":[121.42879185843856,23.670627267076892]},"properties":{"OBJECTID":24328,"LANDMARKID":"1001500001338","LANDMARKCO":"604","LANDMARKNA":"上大和民宿","LANDMARKAD":"1001507","ADDRESS":"花蓮縣光復鄉大平村中學街78號","TEL":"03-8706058","COUNTYNAME":"花蓮縣","TOWNNAME":"光復鄉","MARKTYPE":"996","Class":"6"}},{"type":"Feature","id":24329,"geometry":{"type":"Point","coordinates":[121.41279346541467,23.65848159822464]},"properties":{"OBJECTID":24329,"LANDMARKID":"1001500001339","LANDMARKCO":"604","LANDMARKNA":"馬太鞍拉藍的家","LANDMARKAD":"1001507","ADDRESS":"花蓮縣光復鄉大全村大全街42巷15號","TEL":"03-8700015","COUNTYNAME":"花蓮縣","TOWNNAME":"光復鄉","MARKTYPE":"996","Class":"6"}},{"type":"Feature","id":24330,"geometry":{"type":"Point","coordinates":[121.41013320973214,23.657226318111526]},"properties":{"OBJECTID":24330,"LANDMARKID":"1001500001340","LANDMARKCO":"604","LANDMARKNA":"欣綠石頭屋民宿","LANDMARKAD":"1001507","ADDRESS":"花蓮縣光復鄉大全村大全街60號","TEL":"03-8700430","COUNTYNAME":"花蓮縣","TOWNNAME":"光復鄉","MARKTYPE":"996","Class":"6"}},{"type":"Feature","id":24331,"geometry":{"type":"Point","coordinates":[121.39105402178092,23.634350627098058]},"properties":{"OBJECTID":24331,"LANDMARKID":"1001500001341","LANDMARKCO":"604","LANDMARKNA":"大興民宿","LANDMARKAD":"1001507","ADDRESS":"花蓮縣光復鄉大興村民權路49巷5號","TEL":"03-8882765","COUNTYNAME":"花蓮縣","TOWNNAME":"光復鄉","MARKTYPE":"996","Class":"6"}},{"type":"Feature","id":24332,"geometry":{"type":"Point","coordinates":[121.4170724227464,23.64647097877512]},"properties":{"OBJECTID":24332,"LANDMARKID":"1001500001342","LANDMARKCO":"604","LANDMARKNA":"綠生活民宿","LANDMARKAD":"1001507","ADDRESS":"花蓮縣光復鄉大豐村大豐96號","TEL":"03-8731436","COUNTYNAME":"花蓮縣","TOWNNAME":"光復鄉","MARKTYPE":"996","Class":"6"}},{"type":"Feature","id":24333,"geometry":{"type":"Point","coordinates":[121.42563174747852,23.665046337053024]},"properties":{"OBJECTID":24333,"LANDMARKID":"1001500000849","LANDMARKCO":"603","LANDMARKNA":"東泰旅社","LANDMARKAD":"1001507","ADDRESS":"花蓮縣光復鄉中正路一段146號","TEL":"03-8701056","COUNTYNAME":"花蓮縣","TOWNNAME":"光復鄉","MARKTYPE":"996","Class":"6"}},{"type":"Feature","id":24334,"geometry":{"type":"Point","coordinates":[121.41723298795947,23.616044542101765]},"properties":{"OBJECTID":24334,"LANDMARKID":"1001500000751","LANDMARKCO":"505","LANDMARKNA":"光復鄉原野迷宮","LANDMARKAD":"1001507","ADDRESS":"花蓮縣光復鄉","TEL":"03-8702206","COUNTYNAME":"花蓮縣","TOWNNAME":"光復鄉","MARKTYPE":"995","Class":"5"}},{"type":"Feature","id":24335,"geometry":{"type":"Point","coordinates":[121.51961763709849,23.602631846367036]},"properties":{"OBJECTID":24335,"LANDMARKID":"1001500000610","LANDMARKCO":"405","LANDMARKNA":"中油加油站-豐濱站(中油自營)","LANDMARKAD":"1001508","ADDRESS":"花蓮縣豐濱鄉豐濱村光豐路53號","TEL":"03-8791134","COUNTYNAME":"花蓮縣","TOWNNAME":"豐濱鄉","MARKTYPE":"994","Class":"4"}},{"type":"Feature","id":24336,"geometry":{"type":"Point","coordinates":[121.52175388806251,23.601685563514842]},"properties":{"OBJECTID":24336,"LANDMARKID":"1001500000524","LANDMARKCO":"401","LANDMARKNA":"行政院衛生署花蓮醫院豐濱原住民分院","LANDMARKAD":"1001508","ADDRESS":"花蓮縣豐濱鄉光豐路41號","TEL":"03-8791385","COUNTYNAME":"花蓮縣","TOWNNAME":"豐濱鄉","MARKTYPE":"994","Class":"4"}},{"type":"Feature","id":24337,"geometry":{"type":"Point","coordinates":[121.54609894683938,23.708984367556663]},"properties":{"OBJECTID":24337,"LANDMARKID":"1001500000799","LANDMARKCO":"512","LANDMARKNA":"磯碕遊客服務中心","LANDMARKAD":"1001508","ADDRESS":"花蓮縣磯崎村2鄰磯崎村6之1號","TEL":"038-711251","COUNTYNAME":"花蓮縣","TOWNNAME":"豐濱鄉","MARKTYPE":"995","Class":"5"}},{"type":"Feature","id":24338,"geometry":{"type":"Point","coordinates":[121.51091616813405,23.485691235688581]},"properties":{"OBJECTID":24338,"LANDMARKID":"1001500000800","LANDMARKCO":"512","LANDMARKNA":"石梯坪遊客服務中心","LANDMARKAD":"1001508","ADDRESS":"花蓮縣豐濱鄉石梯坪52號","TEL":"038-781452","COUNTYNAME":"花蓮縣","TOWNNAME":"豐濱鄉","MARKTYPE":"995","Class":"5"}},{"type":"Feature","id":24339,"geometry":{"type":"Point","coordinates":[121.52050019742653,23.601823534508508]},"properties":{"OBJECTID":24339,"LANDMARKID":"1001500000712","LANDMARKCO":"408","LANDMARKNA":"郵局-豐濱郵局","LANDMARKAD":"1001508","ADDRESS":"花蓮縣豐濱鄉光豐路48號","TEL":"(03)8791-192","COUNTYNAME":"花蓮縣","TOWNNAME":"豐濱鄉","MARKTYPE":"994","Class":"4"}},{"type":"Feature","id":24340,"geometry":{"type":"Point","coordinates":[121.51929709235246,23.597839554614968]},"properties":{"OBJECTID":24340,"LANDMARKID":"1001500000657","LANDMARKCO":"406","LANDMARKNA":"豐濱河濱公園","LANDMARKAD":"1001508","ADDRESS":"花蓮縣豐濱鄉","TEL":" ","COUNTYNAME":"花蓮縣","TOWNNAME":"豐濱鄉","MARKTYPE":"994","Class":"4"}},{"type":"Feature","id":24341,"geometry":{"type":"Point","coordinates":[121.52184121890431,23.597711888705735]},"properties":{"OBJECTID":24341,"LANDMARKID":"1001500000053","LANDMARKCO":"103","LANDMARKNA":"花蓮縣豐濱鄉鄉民代表會","LANDMARKAD":"1001508","ADDRESS":"花蓮縣豐濱鄉民族街24號","TEL":"03-8791155","COUNTYNAME":"花蓮縣","TOWNNAME":"豐濱鄉","MARKTYPE":"991","Class":"1"}},{"type":"Feature","id":24342,"geometry":{"type":"Point","coordinates":[121.52180767580063,23.60105314317898]},"properties":{"OBJECTID":24342,"LANDMARKID":"1001500000119","LANDMARKCO":"107","LANDMARKNA":"花蓮縣消防局豐濱消防分隊","LANDMARKAD":"1001508","ADDRESS":"花蓮縣豐濱鄉三民路106號","TEL":"03-8791152","COUNTYNAME":"花蓮縣","TOWNNAME":"豐濱鄉","MARKTYPE":"991","Class":"1"}},{"type":"Feature","id":24343,"geometry":{"type":"Point","coordinates":[121.5223521234696,23.600517004801571]},"properties":{"OBJECTID":24343,"LANDMARKID":"1001500000120","LANDMARKCO":"107","LANDMARKNA":"花蓮縣警察局豐濱分駐所","LANDMARKAD":"1001508","ADDRESS":"花蓮縣豐濱鄉豐濱村三民路104號","TEL":"03-8791148","COUNTYNAME":"花蓮縣","TOWNNAME":"豐濱鄉","MARKTYPE":"991","Class":"1"}},{"type":"Feature","id":24344,"geometry":{"type":"Point","coordinates":[121.52210261033554,23.599787010646004]},"properties":{"OBJECTID":24344,"LANDMARKID":"1001500000109","LANDMARKCO":"106","LANDMARKNA":"花蓮縣豐濱鄉戶政事務所","LANDMARKAD":"1001508","ADDRESS":"花蓮縣豐濱鄉豐濱村3鄰三民路102號","TEL":"03-8791157","COUNTYNAME":"花蓮縣","TOWNNAME":"豐濱鄉","MARKTYPE":"991","Class":"1"}},{"type":"Feature","id":24345,"geometry":{"type":"Point","coordinates":[121.51890821406266,23.602417794501957]},"properties":{"OBJECTID":24345,"LANDMARKID":"1001500000237","LANDMARKCO":"108","LANDMARKNA":"花蓮縣豐濱鄉公所","LANDMARKAD":"1001508","ADDRESS":"花蓮縣豐濱鄉光豐路32號","TEL":"03-8791350","COUNTYNAME":"花蓮縣","TOWNNAME":"豐濱鄉","MARKTYPE":"991","Class":"1"}},{"type":"Feature","id":24346,"geometry":{"type":"Point","coordinates":[121.53660575505059,23.651575505338084]},"properties":{"OBJECTID":24346,"LANDMARKID":"1001500000125","LANDMARKCO":"107","LANDMARKNA":"花蓮縣警察局新社派出所","LANDMARKAD":"1001508","ADDRESS":"花蓮縣豐濱鄉新社村108號","TEL":"03-8711329","COUNTYNAME":"花蓮縣","TOWNNAME":"豐濱鄉","MARKTYPE":"991","Class":"1"}},{"type":"Feature","id":24347,"geometry":{"type":"Point","coordinates":[121.49603952001505,23.469484652040041]},"properties":{"OBJECTID":24347,"LANDMARKID":"1001500000126","LANDMARKCO":"107","LANDMARKNA":"花蓮縣警察局港口派出所","LANDMARKAD":"1001508","ADDRESS":"花蓮縣豐濱鄉港口村9鄰大港口29號","TEL":"03-8781046","COUNTYNAME":"花蓮縣","TOWNNAME":"豐濱鄉","MARKTYPE":"991","Class":"1"}},{"type":"Feature","id":24348,"geometry":{"type":"Point","coordinates":[121.52196873706001,23.601593855529494]},"properties":{"OBJECTID":24348,"LANDMARKID":"1001500000056","LANDMARKCO":"103","LANDMARKNA":"花蓮縣豐濱鄉衛生所","LANDMARKAD":"1001508","ADDRESS":"花蓮縣豐濱鄉豐濱村31鄰光豐路39號","TEL":"03-8791050","COUNTYNAME":"花蓮縣","TOWNNAME":"豐濱鄉","MARKTYPE":"991","Class":"1"}},{"type":"Feature","id":24349,"geometry":{"type":"Point","coordinates":[121.51889813587461,23.602392580887031]},"properties":{"OBJECTID":24349,"LANDMARKID":"1001500000410","LANDMARKCO":"204","LANDMARKNA":"花蓮縣立圖書館豐濱分館","LANDMARKAD":"1001508","ADDRESS":"花蓮縣豐濱鄉光豐路32號","TEL":" ","COUNTYNAME":"花蓮縣","TOWNNAME":"豐濱鄉","MARKTYPE":"992","Class":"2"}},{"type":"Feature","id":24350,"geometry":{"type":"Point","coordinates":[121.5203841714267,23.598082863606873]},"properties":{"OBJECTID":24350,"LANDMARKID":"1001500000303","LANDMARKCO":"203","LANDMARKNA":"縣立豐濱國小","LANDMARKAD":"1001508","ADDRESS":"花蓮縣豐濱鄉豐濱村民族街5號","TEL":"03-8791111","COUNTYNAME":"花蓮縣","TOWNNAME":"豐濱鄉","MARKTYPE":"992","Class":"2"}},{"type":"Feature","id":24351,"geometry":{"type":"Point","coordinates":[121.5214422844425,23.600694401614252]},"properties":{"OBJECTID":24351,"LANDMARKID":"1001500000304","LANDMARKCO":"203","LANDMARKNA":"縣立豐濱國中","LANDMARKAD":"1001508","ADDRESS":"花蓮縣豐濱鄉光豐路26號","TEL":"03-8791159","COUNTYNAME":"花蓮縣","TOWNNAME":"豐濱鄉","MARKTYPE":"992","Class":"2"}},{"type":"Feature","id":24352,"geometry":{"type":"Point","coordinates":[121.53582302540708,23.65175193614451]},"properties":{"OBJECTID":24352,"LANDMARKID":"1001500000305","LANDMARKCO":"203","LANDMARKNA":"縣立新社國小","LANDMARKAD":"1001508","ADDRESS":"花蓮縣豐濱鄉新社村150號","TEL":"03-8711138","COUNTYNAME":"花蓮縣","TOWNNAME":"豐濱鄉","MARKTYPE":"992","Class":"2"}},{"type":"Feature","id":24353,"geometry":{"type":"Point","coordinates":[121.49682218190674,23.468034891120105]},"properties":{"OBJECTID":24353,"LANDMARKID":"1001500000306","LANDMARKCO":"203","LANDMARKNA":"縣立港口國小","LANDMARKAD":"1001508","ADDRESS":"花蓮縣豐濱鄉港口村43號","TEL":"03-8781037","COUNTYNAME":"花蓮縣","TOWNNAME":"豐濱鄉","MARKTYPE":"992","Class":"2"}},{"type":"Feature","id":24354,"geometry":{"type":"Point","coordinates":[121.49508141481414,23.461544372010977]},"properties":{"OBJECTID":24354,"LANDMARKID":"1001500000307","LANDMARKCO":"203","LANDMARKNA":"縣立靜浦國小","LANDMARKAD":"1001508","ADDRESS":"花蓮縣豐濱鄉靜浦村64號","TEL":"03-8781021","COUNTYNAME":"花蓮縣","TOWNNAME":"豐濱鄉","MARKTYPE":"992","Class":"2"}},{"type":"Feature","id":24355,"geometry":{"type":"Point","coordinates":[121.54776351014482,23.707881446622284]},"properties":{"OBJECTID":24355,"LANDMARKID":"1001500000308","LANDMARKCO":"203","LANDMARKNA":"縣立磯崎國小","LANDMARKAD":"1001508","ADDRESS":"花蓮縣豐濱鄉","TEL":" ","COUNTYNAME":"花蓮縣","TOWNNAME":"豐濱鄉","MARKTYPE":"992","Class":"2"}},{"type":"Feature","id":24356,"geometry":{"type":"Point","coordinates":[121.50617617780084,23.493163609769685]},"properties":{"OBJECTID":24356,"LANDMARKID":"1001500000523","LANDMARKCO":"305","LANDMARKNA":"石梯漁港","LANDMARKAD":"1001508","ADDRESS":"花蓮縣豐濱鄉","TEL":" ","COUNTYNAME":"花蓮縣","TOWNNAME":"豐濱鄉","MARKTYPE":"993","Class":"305"}},{"type":"Feature","id":24357,"geometry":{"type":"Point","coordinates":[121.52231435927528,23.600360727751614]},"properties":{"OBJECTID":24357,"LANDMARKID":"1001500000458","LANDMARKCO":"302","LANDMARKNA":"花蓮汽車客運豐濱站","LANDMARKAD":"1001508","ADDRESS":"花蓮縣豐濱鄉三民路78號","TEL":" ","COUNTYNAME":"花蓮縣","TOWNNAME":"豐濱鄉","MARKTYPE":"993","Class":"302"}},{"type":"Feature","id":24358,"geometry":{"type":"Point","coordinates":[121.49510969125556,23.452655013669602]},"properties":{"OBJECTID":24358,"LANDMARKID":"1001500000491","LANDMARKCO":"303","LANDMARKNA":"北迴歸線休息區停車場","LANDMARKAD":"1001508","ADDRESS":"花蓮縣豐濱鄉靜埔村","TEL":" ","COUNTYNAME":"花蓮縣","TOWNNAME":"豐濱鄉","MARKTYPE":"993","Class":"303"}},{"type":"Feature","id":24359,"geometry":{"type":"Point","coordinates":[121.50550066806426,23.534625932106337]},"properties":{"OBJECTID":24359,"LANDMARKID":"1001500000492","LANDMARKCO":"303","LANDMARKNA":"石門遊憩區停車場","LANDMARKAD":"1001508","ADDRESS":"花蓮縣豐濱鄉石門洞","TEL":" ","COUNTYNAME":"花蓮縣","TOWNNAME":"豐濱鄉","MARKTYPE":"993","Class":"303"}},{"type":"Feature","id":24360,"geometry":{"type":"Point","coordinates":[121.50829564329835,23.488920830057275]},"properties":{"OBJECTID":24360,"LANDMARKID":"1001500000493","LANDMARKCO":"303","LANDMARKNA":"石梯遊憩區停車場","LANDMARKAD":"1001508","ADDRESS":"花蓮縣豐濱鄉港口村52號","TEL":" ","COUNTYNAME":"花蓮縣","TOWNNAME":"豐濱鄉","MARKTYPE":"993","Class":"303"}},{"type":"Feature","id":24361,"geometry":{"type":"Point","coordinates":[121.50812934167941,23.49123489183458]},"properties":{"OBJECTID":24361,"LANDMARKID":"1001500000494","LANDMARKCO":"303","LANDMARKNA":"石梯遊憩區北口停車場","LANDMARKAD":"1001508","ADDRESS":"花蓮縣豐濱鄉港口村","TEL":" ","COUNTYNAME":"花蓮縣","TOWNNAME":"豐濱鄉","MARKTYPE":"993","Class":"303"}},{"type":"Feature","id":24362,"geometry":{"type":"Point","coordinates":[121.55630154240325,23.733493699810541]},"properties":{"OBJECTID":24362,"LANDMARKID":"1001500000495","LANDMARKCO":"303","LANDMARKNA":"芭崎休息區停車場","LANDMARKAD":"1001508","ADDRESS":"花蓮縣豐濱鄉芭崎","TEL":" ","COUNTYNAME":"花蓮縣","TOWNNAME":"豐濱鄉","MARKTYPE":"993","Class":"303"}},{"type":"Feature","id":24363,"geometry":{"type":"Point","coordinates":[121.49459803193665,23.463720317770363]},"properties":{"OBJECTID":24363,"LANDMARKID":"1001500000496","LANDMARKCO":"303","LANDMARKNA":"長虹橋遊憩區停車場","LANDMARKAD":"1001508","ADDRESS":"花蓮縣豐濱鄉港口村","TEL":" ","COUNTYNAME":"花蓮縣","TOWNNAME":"豐濱鄉","MARKTYPE":"993","Class":"303"}},{"type":"Feature","id":24364,"geometry":{"type":"Point","coordinates":[121.54756246010511,23.711717523700429]},"properties":{"OBJECTID":24364,"LANDMARKID":"1001500000497","LANDMARKCO":"303","LANDMARKNA":"磯崎海水浴場停車場","LANDMARKAD":"1001508","ADDRESS":"花蓮縣豐濱鄉磯崎村6之1號","TEL":" ","COUNTYNAME":"花蓮縣","TOWNNAME":"豐濱鄉","MARKTYPE":"993","Class":"303"}},{"type":"Feature","id":24365,"geometry":{"type":"Point","coordinates":[121.50971963460928,23.488877541212382]},"properties":{"OBJECTID":24365,"LANDMARKID":"1001500001319","LANDMARKCO":"604","LANDMARKNA":"沙漠風情","LANDMARKAD":"1001508","ADDRESS":"花蓮縣豐濱鄉港口村石梯灣117-1號","TEL":"03-8781134","COUNTYNAME":"花蓮縣","TOWNNAME":"豐濱鄉","MARKTYPE":"996","Class":"6"}},{"type":"Feature","id":24366,"geometry":{"type":"Point","coordinates":[121.50978819840043,23.488940316971419]},"properties":{"OBJECTID":24366,"LANDMARKID":"1001500001320","LANDMARKCO":"604","LANDMARKNA":"升火民宿","LANDMARKAD":"1001508","ADDRESS":"花蓮縣豐濱鄉港口村石梯灣117-2號","TEL":"03-8781437","COUNTYNAME":"花蓮縣","TOWNNAME":"豐濱鄉","MARKTYPE":"996","Class":"6"}},{"type":"Feature","id":24367,"geometry":{"type":"Point","coordinates":[121.51101701681043,23.488191292887887]},"properties":{"OBJECTID":24367,"LANDMARKID":"1001500001321","LANDMARKCO":"604","LANDMARKNA":"石梯灣118民宿","LANDMARKAD":"1001508","ADDRESS":"花蓮縣豐濱鄉港口村石梯灣118號","TEL":"03-8781076","COUNTYNAME":"花蓮縣","TOWNNAME":"豐濱鄉","MARKTYPE":"996","Class":"6"}},{"type":"Feature","id":24368,"geometry":{"type":"Point","coordinates":[121.51204359377917,23.483746009451103]},"properties":{"OBJECTID":24368,"LANDMARKID":"1001500001322","LANDMARKCO":"604","LANDMARKNA":"石梯緣民宿","LANDMARKAD":"1001508","ADDRESS":"花蓮縣豐濱鄉港口村石梯灣119號","TEL":"03-8781828","COUNTYNAME":"花蓮縣","TOWNNAME":"豐濱鄉","MARKTYPE":"996","Class":"6"}},{"type":"Feature","id":24369,"geometry":{"type":"Point","coordinates":[121.49548678996031,23.44241476349789]},"properties":{"OBJECTID":24369,"LANDMARKID":"1001500001323","LANDMARKCO":"604","LANDMARKNA":"千禧山莊民宿","LANDMARKAD":"1001508","ADDRESS":"花蓮縣豐濱鄉靜浦村三富橋52號","TEL":"03-8781517","COUNTYNAME":"花蓮縣","TOWNNAME":"豐濱鄉","MARKTYPE":"996","Class":"6"}},{"type":"Feature","id":24370,"geometry":{"type":"Point","coordinates":[121.48938500877478,23.465247512718054]},"properties":{"OBJECTID":24370,"LANDMARKID":"1001500001324","LANDMARKCO":"604","LANDMARKNA":"德蕾莎","LANDMARKAD":"1001508","ADDRESS":"花蓮縣豐濱鄉靜浦村靜浦9號","TEL":"03-8781560","COUNTYNAME":"花蓮縣","TOWNNAME":"豐濱鄉","MARKTYPE":"996","Class":"6"}},{"type":"Feature","id":24371,"geometry":{"type":"Point","coordinates":[121.5452985919284,23.712697062903619]},"properties":{"OBJECTID":24371,"LANDMARKID":"1001500001325","LANDMARKCO":"604","LANDMARKNA":"後湖水月渡假民宿","LANDMARKAD":"1001508","ADDRESS":"花蓮縣豐濱鄉磯崎村後湖19號","TEL":"03-8711295","COUNTYNAME":"花蓮縣","TOWNNAME":"豐濱鄉","MARKTYPE":"996","Class":"6"}},{"type":"Feature","id":24372,"geometry":{"type":"Point","coordinates":[121.54700663667305,23.71016503491267]},"properties":{"OBJECTID":24372,"LANDMARKID":"1001500001326","LANDMARKCO":"604","LANDMARKNA":"半月灣民宿","LANDMARKAD":"1001508","ADDRESS":"花蓮縣豐濱鄉磯崎村磯崎98號","TEL":"03-8711159","COUNTYNAME":"花蓮縣","TOWNNAME":"豐濱鄉","MARKTYPE":"996","Class":"6"}},{"type":"Feature","id":24373,"geometry":{"type":"Point","coordinates":[121.52980437810959,23.63620516055391]},"properties":{"OBJECTID":24373,"LANDMARKID":"1001500001327","LANDMARKCO":"604","LANDMARKNA":"海印民宿","LANDMARKAD":"1001508","ADDRESS":"花蓮縣豐濱鄉新社村新社212號","TEL":"0937-991583","COUNTYNAME":"花蓮縣","TOWNNAME":"豐濱鄉","MARKTYPE":"996","Class":"6"}},{"type":"Feature","id":24374,"geometry":{"type":"Point","coordinates":[121.52236155863608,23.600393600863573]},"properties":{"OBJECTID":24374,"LANDMARKID":"1001500000850","LANDMARKCO":"603","LANDMARKNA":"國賓旅社","LANDMARKAD":"1001508","ADDRESS":"花蓮縣豐濱鄉豐濱村三民路30號","TEL":"03-8791135","COUNTYNAME":"花蓮縣","TOWNNAME":"豐濱鄉","MARKTYPE":"996","Class":"6"}},{"type":"Feature","id":24375,"geometry":{"type":"Point","coordinates":[121.50799937981326,23.480456341931053]},"properties":{"OBJECTID":24375,"LANDMARKID":"1001500000735","LANDMARKCO":"503","LANDMARKNA":"月洞風景區","LANDMARKAD":"1001508","ADDRESS":"花蓮縣豐濱鄉","TEL":" ","COUNTYNAME":"花蓮縣","TOWNNAME":"豐濱鄉","MARKTYPE":"995","Class":"5"}},{"type":"Feature","id":24376,"geometry":{"type":"Point","coordinates":[121.50774048166087,23.480031319770184]},"properties":{"OBJECTID":24376,"LANDMARKID":"1001500000736","LANDMARKCO":"503","LANDMARKNA":"月洞遊憩區","LANDMARKAD":"1001508","ADDRESS":"花蓮縣豐濱鄉港口村石梯坪53號","TEL":"03-8781022","COUNTYNAME":"花蓮縣","TOWNNAME":"豐濱鄉","MARKTYPE":"995","Class":"5"}},{"type":"Feature","id":24377,"geometry":{"type":"Point","coordinates":[121.48974145255478,23.468008740668004]},"properties":{"OBJECTID":24377,"LANDMARKID":"1001500000737","LANDMARKCO":"503","LANDMARKNA":"秀姑巒溪泛舟終點","LANDMARKAD":"1001508","ADDRESS":"花蓮縣豐濱鄉","TEL":" ","COUNTYNAME":"花蓮縣","TOWNNAME":"豐濱鄉","MARKTYPE":"995","Class":"5"}},{"type":"Feature","id":24378,"geometry":{"type":"Point","coordinates":[121.49624220121888,23.451329039811473]},"properties":{"OBJECTID":24378,"LANDMARKID":"1001500000738","LANDMARKCO":"503","LANDMARKNA":"北回歸線標誌","LANDMARKAD":"1001508","ADDRESS":"花蓮縣豐濱鄉","TEL":" ","COUNTYNAME":"花蓮縣","TOWNNAME":"豐濱鄉","MARKTYPE":"995","Class":"5"}},{"type":"Feature","id":24379,"geometry":{"type":"Point","coordinates":[121.54964877397488,23.701200109986871]},"properties":{"OBJECTID":24379,"LANDMARKID":"1001500000790","LANDMARKCO":"509","LANDMARKNA":"磯崎海水浴場","LANDMARKAD":"1001508","ADDRESS":"花蓮縣豐濱鄉磯崎村","TEL":" ","COUNTYNAME":"花蓮縣","TOWNNAME":"豐濱鄉","MARKTYPE":"995","Class":"5"}},{"type":"Feature","id":24380,"geometry":{"type":"Point","coordinates":[121.37614739816681,23.490978390857499]},"properties":{"OBJECTID":24380,"LANDMARKID":"1001500000612","LANDMARKCO":"405","LANDMARKNA":"中油加油站-瑞穗站(中油自營)","LANDMARKAD":"1001509","ADDRESS":"花蓮縣瑞穗鄉瑞穗村中正南路105號","TEL":"03-8872201","COUNTYNAME":"花蓮縣","TOWNNAME":"瑞穗鄉","MARKTYPE":"994","Class":"4"}},{"type":"Feature","id":24381,"geometry":{"type":"Point","coordinates":[121.3830238824152,23.569384973581432]},"properties":{"OBJECTID":24381,"LANDMARKID":"1001500000613","LANDMARKCO":"405","LANDMARKNA":"中油加油站-富源站","LANDMARKAD":"1001509","ADDRESS":"花蓮縣瑞穗鄉富興村2鄰富興路222號","TEL":"03-8812352","COUNTYNAME":"花蓮縣","TOWNNAME":"瑞穗鄉","MARKTYPE":"994","Class":"4"}},{"type":"Feature","id":24382,"geometry":{"type":"Point","coordinates":[121.36088475948355,23.470666826536942]},"properties":{"OBJECTID":24382,"LANDMARKID":"1001500000766","LANDMARKCO":"507","LANDMARKNA":"掃叭遺址","LANDMARKAD":"1001509","ADDRESS":"花蓮縣瑞穗鄉舞鶴村","TEL":" ","COUNTYNAME":"花蓮縣","TOWNNAME":"瑞穗鄉","MARKTYPE":"995","Class":"5"}},{"type":"Feature","id":24383,"geometry":{"type":"Point","coordinates":[121.38705167385569,23.522226777552053]},"properties":{"OBJECTID":24383,"LANDMARKID":"1001500000764","LANDMARKCO":"506","LANDMARKNA":"林壹隆鶴岡觀光果園","LANDMARKAD":"1001509","ADDRESS":"花蓮縣瑞穗鄉鶴岡村","TEL":"03-8872598","COUNTYNAME":"花蓮縣","TOWNNAME":"瑞穗鄉","MARKTYPE":"995","Class":"5"}},{"type":"Feature","id":24384,"geometry":{"type":"Point","coordinates":[121.40540326282472,23.576489820485278]},"properties":{"OBJECTID":24384,"LANDMARKID":"1001500000765","LANDMARKCO":"506","LANDMARKNA":"瑞穗鄉舞鶴觀光茶園","LANDMARKAD":"1001509","ADDRESS":"花蓮縣瑞穗鄉中山路一段126號","TEL":"03-8872338","COUNTYNAME":"花蓮縣","TOWNNAME":"瑞穗鄉","MARKTYPE":"995","Class":"5"}},{"type":"Feature","id":24385,"geometry":{"type":"Point","coordinates":[121.40010880955337,23.490695757810307]},"properties":{"OBJECTID":24385,"LANDMARKID":"1001500000729","LANDMARKCO":"501","LANDMARKNA":"花東縱谷風景特定區","LANDMARKAD":"1001509","ADDRESS":"花蓮縣瑞穗鄉瑞良村中山路三段215號","TEL":"03-8875306","COUNTYNAME":"花蓮縣","TOWNNAME":"瑞穗鄉","MARKTYPE":"995","Class":"5"}},{"type":"Feature","id":24386,"geometry":{"type":"Point","coordinates":[121.38944349357266,23.522979276305222]},"properties":{"OBJECTID":24386,"LANDMARKID":"1001500000797","LANDMARKCO":"512","LANDMARKNA":"花東縱谷國家風景區管理處","LANDMARKAD":"1001509","ADDRESS":"花蓮縣瑞穗鄉鶴岡村17鄰興鶴路二段168號","TEL":"03-8875306","COUNTYNAME":"花蓮縣","TOWNNAME":"瑞穗鄉","MARKTYPE":"995","Class":"5"}},{"type":"Feature","id":24387,"geometry":{"type":"Point","coordinates":[121.40014590670799,23.49077909725677]},"properties":{"OBJECTID":24387,"LANDMARKID":"1001500000798","LANDMARKCO":"512","LANDMARKNA":"瑞穗遊客服務中心","LANDMARKAD":"1001509","ADDRESS":"花蓮縣瑞穗鄉瑞良村中山路三段215號","TEL":"03-8875306","COUNTYNAME":"花蓮縣","TOWNNAME":"瑞穗鄉","MARKTYPE":"995","Class":"5"}},{"type":"Feature","id":24388,"geometry":{"type":"Point","coordinates":[121.37982633208442,23.497003089446071]},"properties":{"OBJECTID":24388,"LANDMARKID":"1001500000713","LANDMARKCO":"408","LANDMARKNA":"郵局-瑞穗郵局","LANDMARKAD":"1001509","ADDRESS":"花蓮縣瑞穗鄉中山路1段120號","TEL":"(03)8872-134","COUNTYNAME":"花蓮縣","TOWNNAME":"瑞穗鄉","MARKTYPE":"994","Class":"4"}},{"type":"Feature","id":24389,"geometry":{"type":"Point","coordinates":[121.37816100058846,23.578825138255606]},"properties":{"OBJECTID":24389,"LANDMARKID":"1001500000714","LANDMARKCO":"408","LANDMARKNA":"郵局-瑞穗富源郵局","LANDMARKAD":"1001509","ADDRESS":"花蓮縣瑞穗鄉富源村中正路88號","TEL":"(03)8811-035","COUNTYNAME":"花蓮縣","TOWNNAME":"瑞穗鄉","MARKTYPE":"994","Class":"4"}},{"type":"Feature","id":24390,"geometry":{"type":"Point","coordinates":[121.37976852294256,23.580055678779193]},"properties":{"OBJECTID":24390,"LANDMARKID":"1001500000719","LANDMARKCO":"409","LANDMARKNA":"花蓮縣瑞穗鄉農會","LANDMARKAD":"1001509","ADDRESS":"花蓮縣瑞穗鄉中山路一段128號","TEL":"03-8872226","COUNTYNAME":"花蓮縣","TOWNNAME":"瑞穗鄉","MARKTYPE":"994","Class":"4"}},{"type":"Feature","id":24391,"geometry":{"type":"Point","coordinates":[121.37733833316494,23.502000330139065]},"properties":{"OBJECTID":24391,"LANDMARKID":"1001500000566","LANDMARKCO":"404","LANDMARKNA":"台灣省自來水瑞穗營運所","LANDMARKAD":"1001509","ADDRESS":"花蓮縣瑞穗鄉中正北路185號","TEL":" ","COUNTYNAME":"花蓮縣","TOWNNAME":"瑞穗鄉","MARKTYPE":"994","Class":"4"}},{"type":"Feature","id":24392,"geometry":{"type":"Point","coordinates":[121.38966139086156,23.493364574850087]},"properties":{"OBJECTID":24392,"LANDMARKID":"1001500000656","LANDMARKCO":"406","LANDMARKNA":"瑞穗運動公園","LANDMARKAD":"1001509","ADDRESS":"花蓮縣瑞穗鄉","TEL":" ","COUNTYNAME":"花蓮縣","TOWNNAME":"瑞穗鄉","MARKTYPE":"994","Class":"4"}},{"type":"Feature","id":24393,"geometry":{"type":"Point","coordinates":[121.37846274530042,23.527169764666812]},"properties":{"OBJECTID":24393,"LANDMARKID":"1001500000611","LANDMARKCO":"405","LANDMARKNA":"台塑加油站-瑞北站(台塑)","LANDMARKAD":"1001509","ADDRESS":"花蓮縣瑞穗鄉瑞北村30-18號","TEL":"03-8873238","COUNTYNAME":"花蓮縣","TOWNNAME":"瑞穗鄉","MARKTYPE":"994","Class":"4"}},{"type":"Feature","id":24394,"geometry":{"type":"Point","coordinates":[121.37597445633635,23.496822903781851]},"properties":{"OBJECTID":24394,"LANDMARKID":"1001500000236","LANDMARKCO":"108","LANDMARKNA":"花蓮縣瑞穗鄉公所","LANDMARKAD":"1001509","ADDRESS":"花蓮縣瑞穗鄉成功南路19號","TEL":"03-8872222?","COUNTYNAME":"花蓮縣","TOWNNAME":"瑞穗鄉","MARKTYPE":"991","Class":"1"}},{"type":"Feature","id":24395,"geometry":{"type":"Point","coordinates":[121.37601413244398,23.496913013548493]},"properties":{"OBJECTID":24395,"LANDMARKID":"1001500000057","LANDMARKCO":"103","LANDMARKNA":"花蓮縣瑞穗鄉鄉民代表會","LANDMARKAD":"1001509","ADDRESS":"花蓮縣瑞穗鄉成功南路23號","TEL":"03-8870992","COUNTYNAME":"花蓮縣","TOWNNAME":"瑞穗鄉","MARKTYPE":"991","Class":"1"}},{"type":"Feature","id":24396,"geometry":{"type":"Point","coordinates":[121.37982143973264,23.493560139998255]},"properties":{"OBJECTID":24396,"LANDMARKID":"1001500000132","LANDMARKCO":"107","LANDMARKNA":"花蓮縣消防局瑞穗消防分隊","LANDMARKAD":"1001509","ADDRESS":"花蓮縣瑞穗鄉新生路44號之1","TEL":"03-8872164","COUNTYNAME":"花蓮縣","TOWNNAME":"瑞穗鄉","MARKTYPE":"991","Class":"1"}},{"type":"Feature","id":24397,"geometry":{"type":"Point","coordinates":[121.37789711456251,23.495736700448941]},"properties":{"OBJECTID":24397,"LANDMARKID":"1001500000133","LANDMARKCO":"107","LANDMARKNA":"花蓮縣警察局瑞穗分駐所","LANDMARKAD":"1001509","ADDRESS":"花蓮縣瑞穗鄉瑞穗村中正南路2號","TEL":"03-8872057","COUNTYNAME":"花蓮縣","TOWNNAME":"瑞穗鄉","MARKTYPE":"991","Class":"1"}},{"type":"Feature","id":24398,"geometry":{"type":"Point","coordinates":[121.37600280447035,23.496642165194515]},"properties":{"OBJECTID":24398,"LANDMARKID":"1001500000108","LANDMARKCO":"106","LANDMARKNA":"花蓮縣瑞穗鄉戶政事務所","LANDMARKAD":"1001509","ADDRESS":"花蓮縣瑞穗鄉成功南路19之1號","TEL":"03-8872109","COUNTYNAME":"花蓮縣","TOWNNAME":"瑞穗鄉","MARKTYPE":"991","Class":"1"}},{"type":"Feature","id":24399,"geometry":{"type":"Point","coordinates":[121.37914709172418,23.499974750742609]},"properties":{"OBJECTID":24399,"LANDMARKID":"1001500000058","LANDMARKCO":"103","LANDMARKNA":"花蓮縣瑞穗鄉衛生所","LANDMARKAD":"1001509","ADDRESS":"花蓮縣瑞穗鄉民生街14鄰75號","TEL":"03-8872045","COUNTYNAME":"花蓮縣","TOWNNAME":"瑞穗鄉","MARKTYPE":"991","Class":"1"}},{"type":"Feature","id":24400,"geometry":{"type":"Point","coordinates":[121.36255413021937,23.575234052454551]},"properties":{"OBJECTID":24400,"LANDMARKID":"1001500000127","LANDMARKCO":"107","LANDMARKNA":"花蓮縣警察局馬遠派出所","LANDMARKAD":"1001509","ADDRESS":"花蓮縣萬榮鄉馬遠村2鄰41-1號","TEL":"03-8811420","COUNTYNAME":"花蓮縣","TOWNNAME":"瑞穗鄉","MARKTYPE":"991","Class":"1"}}]}