{"type":"FeatureCollection","features":[{"type":"Feature","id":1601,"geometry":{"type":"Point","coordinates":[121.30658237415687,25.012469965510771]},"properties":{"OBJECTID":1601,"LANDMARKID":"1000300001568","LANDMARKCO":"603","LANDMARKNA":"愛多頂級會館","LANDMARKAD":"1000301","ADDRESS":"桃園縣桃園市經國路299號","TEL":"03-3151666","COUNTYNAME":"桃園市","TOWNNAME":"桃園區","MARKTYPE":"996","Class":"6"}},{"type":"Feature","id":1602,"geometry":{"type":"Point","coordinates":[121.30709345715945,24.991487912195101]},"properties":{"OBJECTID":1602,"LANDMARKID":"1000300001569","LANDMARKCO":"603","LANDMARKNA":"翡翠旅社","LANDMARKAD":"1000301","ADDRESS":"桃園縣桃園市文化街65號7樓","TEL":"03-3352633","COUNTYNAME":"桃園市","TOWNNAME":"桃園區","MARKTYPE":"996","Class":"6"}},{"type":"Feature","id":1603,"geometry":{"type":"Point","coordinates":[121.29890095241123,24.990109715208675]},"properties":{"OBJECTID":1603,"LANDMARKID":"1000300001570","LANDMARKCO":"603","LANDMARKNA":"約客頂級汽車旅館","LANDMARKAD":"1000301","ADDRESS":"桃園縣桃園市泰山街58號1-4樓","TEL":"03-3386969","COUNTYNAME":"桃園市","TOWNNAME":"桃園區","MARKTYPE":"996","Class":"6"}},{"type":"Feature","id":1604,"geometry":{"type":"Point","coordinates":[121.29235869645677,24.984515720094326]},"properties":{"OBJECTID":1604,"LANDMARKID":"1000300001571","LANDMARKCO":"603","LANDMARKNA":"快活林汽車賓館","LANDMARKAD":"1000301","ADDRESS":"桃園縣桃園市宏昌十三街622、624號1、2樓","TEL":"03-2208866","COUNTYNAME":"桃園市","TOWNNAME":"桃園區","MARKTYPE":"996","Class":"6"}},{"type":"Feature","id":1605,"geometry":{"type":"Point","coordinates":[121.31603075865449,24.993136544291911]},"properties":{"OBJECTID":1605,"LANDMARKID":"1000300001572","LANDMARKCO":"603","LANDMARKNA":"怡園HOTEL","LANDMARKAD":"1000301","ADDRESS":"桃園縣桃園市鎮江街42號2-6樓","TEL":"03-3351791","COUNTYNAME":"桃園市","TOWNNAME":"桃園區","MARKTYPE":"996","Class":"6"}},{"type":"Feature","id":1606,"geometry":{"type":"Point","coordinates":[121.31847941965513,24.990992209775317]},"properties":{"OBJECTID":1606,"LANDMARKID":"1000300001573","LANDMARKCO":"603","LANDMARKNA":"花語旅館","LANDMARKAD":"1000301","ADDRESS":"桃園縣桃園市復興路22","TEL":"24號2-5樓","COUNTYNAME":"桃園市","TOWNNAME":"桃園區","MARKTYPE":"996","Class":"6"}},{"type":"Feature","id":1607,"geometry":{"type":"Point","coordinates":[121.3112954881404,24.989082692174112]},"properties":{"OBJECTID":1607,"LANDMARKID":"1000300001574","LANDMARKCO":"603","LANDMARKNA":"新秀山賓館","LANDMARKAD":"1000301","ADDRESS":"桃園縣桃園市大同路75號2-3樓","TEL":"03-3323112","COUNTYNAME":"桃園市","TOWNNAME":"桃園區","MARKTYPE":"996","Class":"6"}},{"type":"Feature","id":1608,"geometry":{"type":"Point","coordinates":[121.30902829264681,24.975917637336117]},"properties":{"OBJECTID":1608,"LANDMARKID":"1000300001575","LANDMARKCO":"603","LANDMARKNA":"臻愛風情MOTEL","LANDMARKAD":"1000301","ADDRESS":"桃園縣桃園市介新街133號1-2樓","TEL":"03-2182727","COUNTYNAME":"桃園市","TOWNNAME":"桃園區","MARKTYPE":"996","Class":"6"}},{"type":"Feature","id":1609,"geometry":{"type":"Point","coordinates":[121.29807959275819,25.010817517624314]},"properties":{"OBJECTID":1609,"LANDMARKID":"1000300001576","LANDMARKCO":"603","LANDMARKNA":"天堂鳥商務汽車旅館","LANDMARKAD":"1000301","ADDRESS":"桃園縣桃園市大興西路二段69巷12號2樓","TEL":"03-3012220","COUNTYNAME":"桃園市","TOWNNAME":"桃園區","MARKTYPE":"996","Class":"6"}},{"type":"Feature","id":1610,"geometry":{"type":"Point","coordinates":[121.31283671928863,24.993559320048032]},"properties":{"OBJECTID":1610,"LANDMARKID":"1000300001577","LANDMARKCO":"603","LANDMARKNA":"綠島大旅社","LANDMARKAD":"1000301","ADDRESS":"桃園縣桃園市廣文街15號","TEL":"03-3344121","COUNTYNAME":"桃園市","TOWNNAME":"桃園區","MARKTYPE":"996","Class":"6"}},{"type":"Feature","id":1611,"geometry":{"type":"Point","coordinates":[121.31396942751749,25.011743355384933]},"properties":{"OBJECTID":1611,"LANDMARKID":"1000300001578","LANDMARKCO":"603","LANDMARKNA":"新格旅館","LANDMARKAD":"1000301","ADDRESS":"桃園縣桃園市寶山街296號3-6樓","TEL":"03-3550737","COUNTYNAME":"桃園市","TOWNNAME":"桃園區","MARKTYPE":"996","Class":"6"}},{"type":"Feature","id":1612,"geometry":{"type":"Point","coordinates":[121.30854506629791,24.989752480563915]},"properties":{"OBJECTID":1612,"LANDMARKID":"1000300001579","LANDMARKCO":"603","LANDMARKNA":"采宴精英大飯店","LANDMARKAD":"1000301","ADDRESS":"桃園縣桃園市南華街39號1、3-6樓","TEL":"03-3326191","COUNTYNAME":"桃園市","TOWNNAME":"桃園區","MARKTYPE":"996","Class":"6"}},{"type":"Feature","id":1613,"geometry":{"type":"Point","coordinates":[121.30928522628375,25.015543247123041]},"properties":{"OBJECTID":1613,"LANDMARKID":"1000300001580","LANDMARKCO":"603","LANDMARKNA":"春日商務旅館","LANDMARKAD":"1000301","ADDRESS":"桃園縣桃園市春日路878號1","TEL":"3","COUNTYNAME":"桃園市","TOWNNAME":"桃園區","MARKTYPE":"996","Class":"6"}},{"type":"Feature","id":1614,"geometry":{"type":"Point","coordinates":[121.32024310598092,24.980183573820554]},"properties":{"OBJECTID":1614,"LANDMARKID":"1000300001581","LANDMARKCO":"603","LANDMARKNA":"長城大旅社","LANDMARKAD":"1000301","ADDRESS":"桃園縣桃園市桃鶯路387號2-6樓","TEL":"03-3615081","COUNTYNAME":"桃園市","TOWNNAME":"桃園區","MARKTYPE":"996","Class":"6"}},{"type":"Feature","id":1615,"geometry":{"type":"Point","coordinates":[121.32278178630379,24.975556086001713]},"properties":{"OBJECTID":1615,"LANDMARKID":"1000300001582","LANDMARKCO":"603","LANDMARKNA":"住都飯店","LANDMARKAD":"1000301","ADDRESS":"桃園縣桃園市桃鶯路398號5-12樓","TEL":"398-1號1-9樓","COUNTYNAME":"桃園市","TOWNNAME":"桃園區","MARKTYPE":"996","Class":"6"}},{"type":"Feature","id":1616,"geometry":{"type":"Point","coordinates":[121.30070999908891,25.026241827650129]},"properties":{"OBJECTID":1616,"LANDMARKID":"1000300001583","LANDMARKCO":"603","LANDMARKNA":"皇冠商務汽車旅館","LANDMARKAD":"1000301","ADDRESS":"桃園縣桃園市莊敬路一段150號2樓","TEL":"03-3266066","COUNTYNAME":"桃園市","TOWNNAME":"桃園區","MARKTYPE":"996","Class":"6"}},{"type":"Feature","id":1617,"geometry":{"type":"Point","coordinates":[121.31271757062251,24.993505650775369]},"properties":{"OBJECTID":1617,"LANDMARKID":"1000300001584","LANDMARKCO":"603","LANDMARKNA":"天祥旅社","LANDMARKAD":"1000301","ADDRESS":"桃園縣桃園市廣文街19號","TEL":"03-3323479","COUNTYNAME":"桃園市","TOWNNAME":"桃園區","MARKTYPE":"996","Class":"6"}},{"type":"Feature","id":1618,"geometry":{"type":"Point","coordinates":[121.3126381835291,24.993478899715861]},"properties":{"OBJECTID":1618,"LANDMARKID":"1000300001585","LANDMARKCO":"603","LANDMARKNA":"新興旅社","LANDMARKAD":"1000301","ADDRESS":"桃園縣桃園市廣文街23號2-3樓","TEL":"03-3322388","COUNTYNAME":"桃園市","TOWNNAME":"桃園區","MARKTYPE":"996","Class":"6"}},{"type":"Feature","id":1619,"geometry":{"type":"Point","coordinates":[121.31246019007374,24.993542845502414]},"properties":{"OBJECTID":1619,"LANDMARKID":"1000300001586","LANDMARKCO":"603","LANDMARKNA":"新和大旅社","LANDMARKAD":"1000301","ADDRESS":"桃園縣桃園市廣文街26號1-3樓","TEL":"03-3352153","COUNTYNAME":"桃園市","TOWNNAME":"桃園區","MARKTYPE":"996","Class":"6"}},{"type":"Feature","id":1620,"geometry":{"type":"Point","coordinates":[121.31254889031703,24.99345218928476]},"properties":{"OBJECTID":1620,"LANDMARKID":"1000300001587","LANDMARKCO":"603","LANDMARKNA":"中南旅社","LANDMARKAD":"1000301","ADDRESS":"桃園縣桃園市鎮江街42號2-6樓","TEL":"03-3323684","COUNTYNAME":"桃園市","TOWNNAME":"桃園區","MARKTYPE":"996","Class":"6"}},{"type":"Feature","id":1621,"geometry":{"type":"Point","coordinates":[121.26875631789532,24.980518133487887]},"properties":{"OBJECTID":1621,"LANDMARKID":"1000300001588","LANDMARKCO":"603","LANDMARKNA":"凱富旅館","LANDMARKAD":"1000301","ADDRESS":"桃園縣桃園市龍壽街84號1-7樓","TEL":"03-3795208","COUNTYNAME":"桃園市","TOWNNAME":"桃園區","MARKTYPE":"996","Class":"6"}},{"type":"Feature","id":1622,"geometry":{"type":"Point","coordinates":[121.31333032106483,25.012706244994085]},"properties":{"OBJECTID":1622,"LANDMARKID":"1000300001589","LANDMARKCO":"603","LANDMARKNA":"原鶴旅館","LANDMARKAD":"1000301","ADDRESS":"桃園縣桃園市雙峰路122號1-6樓","TEL":"03-3558833","COUNTYNAME":"桃園市","TOWNNAME":"桃園區","MARKTYPE":"996","Class":"6"}},{"type":"Feature","id":1623,"geometry":{"type":"Point","coordinates":[121.30906156175253,24.993397777982317]},"properties":{"OBJECTID":1623,"LANDMARKID":"1000300001590","LANDMARKCO":"603","LANDMARKNA":"春芳旅社","LANDMARKAD":"1000301","ADDRESS":"桃園縣桃園市中山路160號","TEL":"03-3322932","COUNTYNAME":"桃園市","TOWNNAME":"桃園區","MARKTYPE":"996","Class":"6"}},{"type":"Feature","id":1624,"geometry":{"type":"Point","coordinates":[121.30825662021515,24.992889799878348]},"properties":{"OBJECTID":1624,"LANDMARKID":"1000300001591","LANDMARKCO":"603","LANDMARKNA":"華那旅館","LANDMARKAD":"1000301","ADDRESS":"桃園縣桃園市中山路203號6-9樓","TEL":"03-3995766","COUNTYNAME":"桃園市","TOWNNAME":"桃園區","MARKTYPE":"996","Class":"6"}},{"type":"Feature","id":1625,"geometry":{"type":"Point","coordinates":[121.31021416576922,24.99883704563873]},"properties":{"OBJECTID":1625,"LANDMARKID":"1000300001592","LANDMARKCO":"603","LANDMARKNA":"凱園汽車旅店","LANDMARKAD":"1000301","ADDRESS":"桃園縣桃園市北興街25號2樓","TEL":"03-3355811","COUNTYNAME":"桃園市","TOWNNAME":"桃園區","MARKTYPE":"996","Class":"6"}},{"type":"Feature","id":1626,"geometry":{"type":"Point","coordinates":[121.31340601646687,24.992518663604038]},"properties":{"OBJECTID":1626,"LANDMARKID":"1000300001593","LANDMARKCO":"603","LANDMARKNA":"桃園中信酒店","LANDMARKAD":"1000301","ADDRESS":"桃園縣桃園市民生路107號","TEL":"03-3370888","COUNTYNAME":"桃園市","TOWNNAME":"桃園區","MARKTYPE":"996","Class":"6"}},{"type":"Feature","id":1627,"geometry":{"type":"Point","coordinates":[121.31646775486227,25.00733599769492]},"properties":{"OBJECTID":1627,"LANDMARKID":"1000300001594","LANDMARKCO":"603","LANDMARKNA":"麗星花園MOTEL","LANDMARKAD":"1000301","ADDRESS":"桃園縣桃園市民光東路165號2-3樓","TEL":"03-3317317","COUNTYNAME":"桃園市","TOWNNAME":"桃園區","MARKTYPE":"996","Class":"6"}},{"type":"Feature","id":1628,"geometry":{"type":"Point","coordinates":[121.29456197488554,25.016992320193538]},"properties":{"OBJECTID":1628,"LANDMARKID":"1000300001595","LANDMARKCO":"603","LANDMARKNA":"嘉鄉汽車旅館","LANDMARKAD":"1000301","ADDRESS":"桃園縣桃園市南平路476號2樓","TEL":"03-3172211","COUNTYNAME":"桃園市","TOWNNAME":"桃園區","MARKTYPE":"996","Class":"6"}},{"type":"Feature","id":1629,"geometry":{"type":"Point","coordinates":[121.30805615176025,24.994407392972228]},"properties":{"OBJECTID":1629,"LANDMARKID":"1000300001596","LANDMARKCO":"603","LANDMARKNA":"歐馨賓館","LANDMARKAD":"1000301","ADDRESS":"桃園縣桃園市民族路186號","TEL":"03-3382661","COUNTYNAME":"桃園市","TOWNNAME":"桃園區","MARKTYPE":"996","Class":"6"}},{"type":"Feature","id":1630,"geometry":{"type":"Point","coordinates":[121.31190581483169,24.990267894644816]},"properties":{"OBJECTID":1630,"LANDMARKID":"1000300001597","LANDMARKCO":"603","LANDMARKNA":"欣桃大旅社","LANDMARKAD":"1000301","ADDRESS":"桃園縣桃園市復興路180號8-10樓","TEL":"03-3331131","COUNTYNAME":"桃園市","TOWNNAME":"桃園區","MARKTYPE":"996","Class":"6"}},{"type":"Feature","id":1631,"geometry":{"type":"Point","coordinates":[121.31439507112135,24.99082300885593]},"properties":{"OBJECTID":1631,"LANDMARKID":"1000300001598","LANDMARKCO":"603","LANDMARKNA":"今日大飯店","LANDMARKAD":"1000301","ADDRESS":"桃園縣桃園市復興路81號","TEL":"03-3324162","COUNTYNAME":"桃園市","TOWNNAME":"桃園區","MARKTYPE":"996","Class":"6"}},{"type":"Feature","id":1632,"geometry":{"type":"Point","coordinates":[121.3158725008838,24.991096630022678]},"properties":{"OBJECTID":1632,"LANDMARKID":"1000300001599","LANDMARKCO":"603","LANDMARKNA":"戀之巢雷射電腦旅館","LANDMARKAD":"1000301","ADDRESS":"桃園縣桃園市復興路96號9樓","TEL":"03-3380179","COUNTYNAME":"桃園市","TOWNNAME":"桃園區","MARKTYPE":"996","Class":"6"}},{"type":"Feature","id":1633,"geometry":{"type":"Point","coordinates":[121.31348590143499,24.995985198145377]},"properties":{"OBJECTID":1633,"LANDMARKID":"1000300001600","LANDMARKCO":"603","LANDMARKNA":"白宮商務旅店","LANDMARKAD":"1000301","ADDRESS":"桃園縣桃園市朝陽街5號2-8樓之1-3","TEL":"9樓之1","COUNTYNAME":"桃園市","TOWNNAME":"桃園區","MARKTYPE":"996","Class":"6"}},{"type":"Feature","id":1634,"geometry":{"type":"Point","coordinates":[121.30047940583967,25.024301685895086]},"properties":{"OBJECTID":1634,"LANDMARKID":"1000300001601","LANDMARKCO":"603","LANDMARKNA":"真善美汽車旅館(經國館)","LANDMARKAD":"1000301","ADDRESS":"桃園縣桃園市經國路721號1-3樓","TEL":"03-3166006","COUNTYNAME":"桃園市","TOWNNAME":"桃園區","MARKTYPE":"996","Class":"6"}},{"type":"Feature","id":1635,"geometry":{"type":"Point","coordinates":[121.31200036215539,24.989373690771895]},"properties":{"OBJECTID":1635,"LANDMARKID":"1000300001602","LANDMARKCO":"603","LANDMARKNA":"環寶賓館","LANDMARKAD":"1000301","ADDRESS":"桃園縣桃園市大同路61號","TEL":"03-3320588","COUNTYNAME":"桃園市","TOWNNAME":"桃園區","MARKTYPE":"996","Class":"6"}},{"type":"Feature","id":1636,"geometry":{"type":"Point","coordinates":[121.31142637068599,24.989484435398172]},"properties":{"OBJECTID":1636,"LANDMARKID":"1000300001603","LANDMARKCO":"603","LANDMARKNA":"裕國大旅社","LANDMARKAD":"1000301","ADDRESS":"桃園縣桃園市大同路66號","TEL":"03-3325536","COUNTYNAME":"桃園市","TOWNNAME":"桃園區","MARKTYPE":"996","Class":"6"}},{"type":"Feature","id":1637,"geometry":{"type":"Point","coordinates":[121.30488390051566,25.015116650756195]},"properties":{"OBJECTID":1637,"LANDMARKID":"1000300001604","LANDMARKCO":"603","LANDMARKNA":"絕色汽車旅館","LANDMARKAD":"1000301","ADDRESS":"桃園縣桃園市大興西路一段116號2-3樓","TEL":"03-3260101","COUNTYNAME":"桃園市","TOWNNAME":"桃園區","MARKTYPE":"996","Class":"6"}},{"type":"Feature","id":1638,"geometry":{"type":"Point","coordinates":[121.31348539432253,24.991155062518274]},"properties":{"OBJECTID":1638,"LANDMARKID":"1000300001605","LANDMARKCO":"603","LANDMARKNA":"珍園賓館","LANDMARKAD":"1000301","ADDRESS":"桃園縣桃園市中正路48巷7號1樓","TEL":"03-3337700","COUNTYNAME":"桃園市","TOWNNAME":"桃園區","MARKTYPE":"996","Class":"6"}},{"type":"Feature","id":1639,"geometry":{"type":"Point","coordinates":[121.30591624997622,25.002559749771848]},"properties":{"OBJECTID":1639,"LANDMARKID":"1000300001606","LANDMARKCO":"603","LANDMARKNA":"夢蠂旅社","LANDMARKAD":"1000301","ADDRESS":"桃園縣桃園市中正路509號4-9樓","TEL":"03-3393457","COUNTYNAME":"桃園市","TOWNNAME":"桃園區","MARKTYPE":"996","Class":"6"}},{"type":"Feature","id":1640,"geometry":{"type":"Point","coordinates":[121.31265009312166,24.991916944601929]},"properties":{"OBJECTID":1640,"LANDMARKID":"1000300001607","LANDMARKCO":"603","LANDMARKNA":"京典賓館","LANDMARKAD":"1000301","ADDRESS":"桃園縣桃園市中正路60號9樓之14-18","TEL":"20-33","COUNTYNAME":"桃園市","TOWNNAME":"桃園區","MARKTYPE":"996","Class":"6"}},{"type":"Feature","id":1641,"geometry":{"type":"Point","coordinates":[121.30287307066195,25.007017468336237]},"properties":{"OBJECTID":1641,"LANDMARKID":"1000300001608","LANDMARKCO":"603","LANDMARKNA":"富堡村花園大飯店","LANDMARKAD":"1000301","ADDRESS":"桃園縣桃園市中正路703號1","TEL":"3-9樓","COUNTYNAME":"桃園市","TOWNNAME":"桃園區","MARKTYPE":"996","Class":"6"}},{"type":"Feature","id":1642,"geometry":{"type":"Point","coordinates":[121.31090443313758,24.98673623092251]},"properties":{"OBJECTID":1642,"LANDMARKID":"1000300001609","LANDMARKCO":"603","LANDMARKNA":"喜星經典旅館","LANDMARKAD":"1000301","ADDRESS":"桃園縣桃園市介壽路24號3-4樓","TEL":"03-3663010","COUNTYNAME":"桃園市","TOWNNAME":"桃園區","MARKTYPE":"996","Class":"6"}},{"type":"Feature","id":1643,"geometry":{"type":"Point","coordinates":[121.30149616944927,25.023512105462355]},"properties":{"OBJECTID":1643,"LANDMARKID":"1000300001610","LANDMARKCO":"603","LANDMARKNA":"一六八旅館-桃園館","LANDMARKAD":"1000301","ADDRESS":"桃園縣桃園市天祥七街25號","TEL":"03-3178800","COUNTYNAME":"桃園市","TOWNNAME":"桃園區","MARKTYPE":"996","Class":"6"}},{"type":"Feature","id":1644,"geometry":{"type":"Point","coordinates":[121.29968918994659,25.022773511287468]},"properties":{"OBJECTID":1644,"LANDMARKID":"1000300001611","LANDMARKCO":"603","LANDMARKNA":"新雅旅館","LANDMARKAD":"1000301","ADDRESS":"桃園縣桃園市天祥七街99號2-7樓","TEL":"03-3264370","COUNTYNAME":"桃園市","TOWNNAME":"桃園區","MARKTYPE":"996","Class":"6"}},{"type":"Feature","id":1645,"geometry":{"type":"Point","coordinates":[121.27872818654009,24.993403254437194]},"properties":{"OBJECTID":1645,"LANDMARKID":"1000300001612","LANDMARKCO":"603","LANDMARKNA":"唐城汽車旅館","LANDMARKAD":"1000301","ADDRESS":"桃園縣桃園市文中路623號2樓","TEL":"03-3605678","COUNTYNAME":"桃園市","TOWNNAME":"桃園區","MARKTYPE":"996","Class":"6"}},{"type":"Feature","id":1646,"geometry":{"type":"Point","coordinates":[121.31286599322581,25.008239206656889]},"properties":{"OBJECTID":1646,"LANDMARKID":"1000300001613","LANDMARKCO":"603","LANDMARKNA":"怡和商旅大飯店","LANDMARKAD":"1000301","ADDRESS":"桃園縣桃園市民富九街96號2","TEL":"5樓","COUNTYNAME":"桃園市","TOWNNAME":"桃園區","MARKTYPE":"996","Class":"6"}},{"type":"Feature","id":1647,"geometry":{"type":"Point","coordinates":[121.30977680977641,24.995182401548171]},"properties":{"OBJECTID":1647,"LANDMARKID":"1000300001614","LANDMARKCO":"603","LANDMARKNA":"大爵商務飯店","LANDMARKAD":"1000301","ADDRESS":"桃園縣桃園市民權路106巷3號1-7樓","TEL":"03-3366600.3381","COUNTYNAME":"桃園市","TOWNNAME":"桃園區","MARKTYPE":"996","Class":"6"}},{"type":"Feature","id":1648,"geometry":{"type":"Point","coordinates":[121.31267258657137,24.989100017650504]},"properties":{"OBJECTID":1648,"LANDMARKID":"1000300001615","LANDMARKCO":"603","LANDMARKNA":"雀巢HOTEL","LANDMARKAD":"1000301","ADDRESS":"桃園縣桃園市長壽街5號之1","TEL":"03-3365800","COUNTYNAME":"桃園市","TOWNNAME":"桃園區","MARKTYPE":"996","Class":"6"}},{"type":"Feature","id":1649,"geometry":{"type":"Point","coordinates":[121.31250446258642,24.989154894570699]},"properties":{"OBJECTID":1649,"LANDMARKID":"1000300001616","LANDMARKCO":"603","LANDMARKNA":"富士大旅社","LANDMARKAD":"1000301","ADDRESS":"桃園縣桃園市長壽街7號","TEL":"03-3324161","COUNTYNAME":"桃園市","TOWNNAME":"桃園區","MARKTYPE":"996","Class":"6"}},{"type":"Feature","id":1650,"geometry":{"type":"Point","coordinates":[121.31249405510341,24.989055626695478]},"properties":{"OBJECTID":1650,"LANDMARKID":"1000300001617","LANDMARKCO":"603","LANDMARKNA":"漢宮大旅社","LANDMARKAD":"1000301","ADDRESS":"桃園縣桃園市長壽街9號","TEL":"03-3327189","COUNTYNAME":"桃園市","TOWNNAME":"桃園區","MARKTYPE":"996","Class":"6"}},{"type":"Feature","id":1651,"geometry":{"type":"Point","coordinates":[121.31859130756679,24.983425879038979]},"properties":{"OBJECTID":1651,"LANDMARKID":"1000300001618","LANDMARKCO":"603","LANDMARKNA":"櫻珍大飯店","LANDMARKAD":"1000301","ADDRESS":"桃園縣桃園市桃鶯路152號1樓、154號2-6樓","TEL":"03-3764599","COUNTYNAME":"桃園市","TOWNNAME":"桃園區","MARKTYPE":"996","Class":"6"}},{"type":"Feature","id":1652,"geometry":{"type":"Point","coordinates":[121.29365942277948,24.986935199317386]},"properties":{"OBJECTID":1652,"LANDMARKID":"1000300001619","LANDMARKCO":"603","LANDMARKNA":"麗尊汽車旅館","LANDMARKAD":"1000301","ADDRESS":"桃園縣桃園市宏昌七街100號2樓","TEL":"03-2206953","COUNTYNAME":"桃園市","TOWNNAME":"桃園區","MARKTYPE":"996","Class":"6"}},{"type":"Feature","id":1653,"geometry":{"type":"Point","coordinates":[121.31632099362967,25.01666392432497]},"properties":{"OBJECTID":1653,"LANDMARKID":"1000300001480","LANDMARKCO":"601","LANDMARKNA":"桃園大飯店","LANDMARKAD":"1000301","ADDRESS":"桃園縣桃園市大興路269號","TEL":"03-325-4021","COUNTYNAME":"桃園市","TOWNNAME":"桃園區","MARKTYPE":"996","Class":"6"}},{"type":"Feature","id":1654,"geometry":{"type":"Point","coordinates":[121.29779096418204,25.024693940058757]},"properties":{"OBJECTID":1654,"LANDMARKID":"1000300001481","LANDMARKCO":"602","LANDMARKNA":"尊爵大飯店","LANDMARKAD":"1000301","ADDRESS":"桃園縣桃園市莊敬路1段300號","TEL":"03-316-9900","COUNTYNAME":"桃園市","TOWNNAME":"桃園區","MARKTYPE":"996","Class":"6"}},{"type":"Feature","id":1655,"geometry":{"type":"Point","coordinates":[121.30322501949287,25.013897166338605]},"properties":{"OBJECTID":1655,"LANDMARKID":"1000300001482","LANDMARKCO":"602","LANDMARKNA":"福容大飯店 桃園","LANDMARKAD":"1000301","ADDRESS":"桃園縣桃園市大興西路1段200號","TEL":"03-3265800","COUNTYNAME":"桃園市","TOWNNAME":"桃園區","MARKTYPE":"996","Class":"6"}},{"type":"Feature","id":1656,"geometry":{"type":"Point","coordinates":[121.30665850135664,25.002996723960905]},"properties":{"OBJECTID":1656,"LANDMARKID":"1000300001469","LANDMARKCO":"511","LANDMARKNA":"桃園夜市","LANDMARKAD":"1000301","ADDRESS":"桃園縣桃園市中正路旁","TEL":" ","COUNTYNAME":"桃園市","TOWNNAME":"桃園區","MARKTYPE":"995","Class":"5"}},{"type":"Feature","id":1657,"geometry":{"type":"Point","coordinates":[121.32561610333457,24.99618196505519]},"properties":{"OBJECTID":1657,"LANDMARKID":"1000300001470","LANDMARKCO":"511","LANDMARKNA":"假日花市","LANDMARKAD":"1000301","ADDRESS":"桃園縣桃園市","TEL":" ","COUNTYNAME":"桃園市","TOWNNAME":"桃園區","MARKTYPE":"995","Class":"5"}},{"type":"Feature","id":1658,"geometry":{"type":"Point","coordinates":[121.28562066179327,25.003928741126348]},"properties":{"OBJECTID":1658,"LANDMARKID":"1000300001467","LANDMARKCO":"510","LANDMARKNA":"亞洲高爾夫練習場","LANDMARKAD":"1000301","ADDRESS":"桃園縣桃園市國際路2段501巷3號之7","TEL":"03-3411234","COUNTYNAME":"桃園市","TOWNNAME":"桃園區","MARKTYPE":"995","Class":"5"}},{"type":"Feature","id":1659,"geometry":{"type":"Point","coordinates":[121.31269420251118,24.99174675954059]},"properties":{"OBJECTID":1659,"LANDMARKID":"1000300001468","LANDMARKCO":"511","LANDMARKNA":"中正路商圈","LANDMARKAD":"1000301","ADDRESS":"桃園火車站前中正路延伸至中山路景福宮段","TEL":" ","COUNTYNAME":"桃園市","TOWNNAME":"桃園區","MARKTYPE":"995","Class":"5"}},{"type":"Feature","id":1660,"geometry":{"type":"Point","coordinates":[121.19299144335483,24.958352308768447]},"properties":{"OBJECTID":1660,"LANDMARKID":"1000300001058","LANDMARKCO":"405","LANDMARKNA":"中油加油站-天祥站(中油直營)","LANDMARKAD":"1000302","ADDRESS":"桃園縣中壢市五權里民族路三段226號","TEL":"03-2813170","COUNTYNAME":"桃園市","TOWNNAME":"中壢區","MARKTYPE":"994","Class":"4"}},{"type":"Feature","id":1661,"geometry":{"type":"Point","coordinates":[121.25305530713615,24.960265861825938]},"properties":{"OBJECTID":1661,"LANDMARKID":"1000300001059","LANDMARKCO":"405","LANDMARKNA":"中油加油站-源泰站","LANDMARKAD":"1000302","ADDRESS":"桃園縣中壢市環中東路485號","TEL":"03-4335750","COUNTYNAME":"桃園市","TOWNNAME":"中壢區","MARKTYPE":"994","Class":"4"}},{"type":"Feature","id":1662,"geometry":{"type":"Point","coordinates":[121.25085535989494,24.956940738767443]},"properties":{"OBJECTID":1662,"LANDMARKID":"1000300001060","LANDMARKCO":"405","LANDMARKNA":"中油加油站-龍田站","LANDMARKAD":"1000302","ADDRESS":"桃園縣中壢市新中北路779號","TEL":"03-4639368","COUNTYNAME":"桃園市","TOWNNAME":"中壢區","MARKTYPE":"994","Class":"4"}},{"type":"Feature","id":1663,"geometry":{"type":"Point","coordinates":[121.24519182191165,24.945364811385382]},"properties":{"OBJECTID":1663,"LANDMARKID":"1000300001061","LANDMARKCO":"405","LANDMARKNA":"山隆加油站-龍興站(中油)","LANDMARKAD":"1000302","ADDRESS":"桃園縣中壢市龍興路693號","TEL":"03-4375828","COUNTYNAME":"桃園市","TOWNNAME":"中壢區","MARKTYPE":"994","Class":"4"}},{"type":"Feature","id":1664,"geometry":{"type":"Point","coordinates":[121.2091154889436,24.963767962724127]},"properties":{"OBJECTID":1664,"LANDMARKID":"1000300001062","LANDMARKCO":"405","LANDMARKNA":"中油加油站-景福站","LANDMARKAD":"1000302","ADDRESS":"桃園縣中壢市環西路二段101號","TEL":"03-4913127","COUNTYNAME":"桃園市","TOWNNAME":"中壢區","MARKTYPE":"994","Class":"4"}},{"type":"Feature","id":1665,"geometry":{"type":"Point","coordinates":[121.24689837824613,24.979971008802249]},"properties":{"OBJECTID":1665,"LANDMARKID":"1000300001063","LANDMARKCO":"405","LANDMARKNA":"中油加油站-中壢工二站(中油直營)","LANDMARKAD":"1000302","ADDRESS":"桃園縣中壢市吉林路37巷15號","TEL":"03-4620443","COUNTYNAME":"桃園市","TOWNNAME":"中壢區","MARKTYPE":"994","Class":"4"}},{"type":"Feature","id":1666,"geometry":{"type":"Point","coordinates":[121.23509780623938,24.990890281241704]},"properties":{"OBJECTID":1666,"LANDMARKID":"1000300001064","LANDMARKCO":"405","LANDMARKNA":"中油加油站-萬能站","LANDMARKAD":"1000302","ADDRESS":"桃園縣中壢市中園路二段16號","TEL":"03-4532033","COUNTYNAME":"桃園市","TOWNNAME":"中壢區","MARKTYPE":"994","Class":"4"}},{"type":"Feature","id":1667,"geometry":{"type":"Point","coordinates":[121.20728662018358,24.984457475457894]},"properties":{"OBJECTID":1667,"LANDMARKID":"1000300001065","LANDMARKCO":"405","LANDMARKNA":"中油加油站-芭里站","LANDMARKAD":"1000302","ADDRESS":"桃園縣中壢市芝芭里民權路三段869號","TEL":"03-4272693","COUNTYNAME":"桃園市","TOWNNAME":"中壢區","MARKTYPE":"994","Class":"4"}},{"type":"Feature","id":1668,"geometry":{"type":"Point","coordinates":[121.2041692308691,24.96472072497534]},"properties":{"OBJECTID":1668,"LANDMARKID":"1000300001066","LANDMARKCO":"405","LANDMARKNA":"統一速邁樂加油站-中壢加油站(中油)","LANDMARKAD":"1000302","ADDRESS":"桃園縣中壢市五權里志廣路311號","TEL":" ","COUNTYNAME":"桃園市","TOWNNAME":"中壢區","MARKTYPE":"994","Class":"4"}},{"type":"Feature","id":1669,"geometry":{"type":"Point","coordinates":[121.20448435193312,24.964101725199896]},"properties":{"OBJECTID":1669,"LANDMARKID":"1000300001067","LANDMARKCO":"405","LANDMARKNA":"中油加油站-松柏站","LANDMARKAD":"1000302","ADDRESS":"桃園縣中壢市志廣路266號","TEL":"03-4278596","COUNTYNAME":"桃園市","TOWNNAME":"中壢區","MARKTYPE":"994","Class":"4"}},{"type":"Feature","id":1670,"geometry":{"type":"Point","coordinates":[121.18175909912914,24.987872512429536]},"properties":{"OBJECTID":1670,"LANDMARKID":"1000300001068","LANDMARKCO":"405","LANDMARKNA":"中油加油站-崙光站","LANDMARKAD":"1000302","ADDRESS":"桃園縣中壢市中正路4段15號","TEL":"34982363","COUNTYNAME":"桃園市","TOWNNAME":"中壢區","MARKTYPE":"994","Class":"4"}},{"type":"Feature","id":1671,"geometry":{"type":"Point","coordinates":[121.17536232868768,24.959271632398831]},"properties":{"OBJECTID":1671,"LANDMARKID":"1000300001069","LANDMARKCO":"405","LANDMARKNA":"中油加油站-過嶺站","LANDMARKAD":"1000302","ADDRESS":"桃園縣中壢市過嶺里民族路5段70號","TEL":"03-4906023","COUNTYNAME":"桃園市","TOWNNAME":"中壢區","MARKTYPE":"994","Class":"4"}},{"type":"Feature","id":1672,"geometry":{"type":"Point","coordinates":[121.23806474940601,24.949846592182904]},"properties":{"OBJECTID":1672,"LANDMARKID":"1000300001070","LANDMARKCO":"405","LANDMARKNA":"統一速邁樂加油站-中壢二站加油站(中油)","LANDMARKAD":"1000302","ADDRESS":"桃園縣中壢市環中東路二段95號1樓","TEL":" ","COUNTYNAME":"桃園市","TOWNNAME":"中壢區","MARKTYPE":"994","Class":"4"}},{"type":"Feature","id":1673,"geometry":{"type":"Point","coordinates":[121.24860653946098,24.980823733800932]},"properties":{"OBJECTID":1673,"LANDMARKID":"1000300001071","LANDMARKCO":"405","LANDMARKNA":"山隆加油站-中壢站(中油)","LANDMARKAD":"1000302","ADDRESS":"桃園縣中壢市工業區吉林路5號","TEL":"03-4617151","COUNTYNAME":"桃園市","TOWNNAME":"中壢區","MARKTYPE":"994","Class":"4"}},{"type":"Feature","id":1674,"geometry":{"type":"Point","coordinates":[121.23865096561889,24.965427009739461]},"properties":{"OBJECTID":1674,"LANDMARKID":"1000300001072","LANDMARKCO":"405","LANDMARKNA":"中油加油站-中壢工業區加油加氣站(刷卡自助)","LANDMARKAD":"1000302","ADDRESS":"桃園縣中壢市中華路二段230號","TEL":"03-4521948","COUNTYNAME":"桃園市","TOWNNAME":"中壢區","MARKTYPE":"994","Class":"4"}},{"type":"Feature","id":1675,"geometry":{"type":"Point","coordinates":[121.24629373739067,24.960363144195096]},"properties":{"OBJECTID":1675,"LANDMARKID":"1000300001073","LANDMARKCO":"405","LANDMARKNA":"中油加油站-祥益站","LANDMARKAD":"1000302","ADDRESS":"桃園縣中壢市普仁里普忠路230號","TEL":"03-4352728","COUNTYNAME":"桃園市","TOWNNAME":"中壢區","MARKTYPE":"994","Class":"4"}},{"type":"Feature","id":1676,"geometry":{"type":"Point","coordinates":[121.19331637706583,24.980022393740967]},"properties":{"OBJECTID":1676,"LANDMARKID":"1000300001074","LANDMARKCO":"405","LANDMARKNA":"中油加油站-惠暘站","LANDMARKAD":"1000302","ADDRESS":"桃園縣中壢市三民里中正路二段38號","TEL":"03-4272806","COUNTYNAME":"桃園市","TOWNNAME":"中壢區","MARKTYPE":"994","Class":"4"}},{"type":"Feature","id":1677,"geometry":{"type":"Point","coordinates":[121.20450626819861,24.965191744790253]},"properties":{"OBJECTID":1677,"LANDMARKID":"1000300001075","LANDMARKCO":"405","LANDMARKNA":"北基加油站-正中站(中油)","LANDMARKAD":"1000302","ADDRESS":"桃園縣中壢市中正路1015號","TEL":"(03)427-8886","COUNTYNAME":"桃園市","TOWNNAME":"中壢區","MARKTYPE":"994","Class":"4"}},{"type":"Feature","id":1678,"geometry":{"type":"Point","coordinates":[121.23013610318787,24.944413435146569]},"properties":{"OBJECTID":1678,"LANDMARKID":"1000300001076","LANDMARKCO":"405","LANDMARKNA":"中油加油站-龍岡站(刷卡自助)(中油直營)","LANDMARKAD":"1000302","ADDRESS":"桃園縣中壢市環中東路二段659號","TEL":"03-4592501","COUNTYNAME":"桃園市","TOWNNAME":"中壢區","MARKTYPE":"994","Class":"4"}},{"type":"Feature","id":1679,"geometry":{"type":"Point","coordinates":[121.24906277509952,24.957928992278603]},"properties":{"OBJECTID":1679,"LANDMARKID":"1000300001077","LANDMARKCO":"405","LANDMARKNA":"中油加油站-三富站","LANDMARKAD":"1000302","ADDRESS":"桃園縣中壢市普忠路357號","TEL":"03-4626188","COUNTYNAME":"桃園市","TOWNNAME":"中壢區","MARKTYPE":"994","Class":"4"}},{"type":"Feature","id":1680,"geometry":{"type":"Point","coordinates":[121.22171780442335,24.989337688432055]},"properties":{"OBJECTID":1680,"LANDMARKID":"1000300001078","LANDMARKCO":"405","LANDMARKNA":"中油加油站-青埔站(中油直營)","LANDMARKAD":"1000302","ADDRESS":"桃園縣中壢市新生路三段85號","TEL":"03-4534812","COUNTYNAME":"桃園市","TOWNNAME":"中壢區","MARKTYPE":"994","Class":"4"}},{"type":"Feature","id":1681,"geometry":{"type":"Point","coordinates":[121.2594021199551,24.957044200698043]},"properties":{"OBJECTID":1681,"LANDMARKID":"1000300001079","LANDMARKCO":"405","LANDMARKNA":"統一速邁樂加油站-中壢三站加油站(中油)","LANDMARKAD":"1000302","ADDRESS":"桃園縣中壢市新中北路二段5號","TEL":"03-4569675","COUNTYNAME":"桃園市","TOWNNAME":"中壢區","MARKTYPE":"994","Class":"4"}},{"type":"Feature","id":1682,"geometry":{"type":"Point","coordinates":[121.22311614196077,24.962399108793093]},"properties":{"OBJECTID":1682,"LANDMARKID":"1000300001080","LANDMARKCO":"405","LANDMARKNA":"山隆加油站-新生站(中油)","LANDMARKAD":"1000302","ADDRESS":"桃園縣中壢市新生路228號","TEL":"(03)427-5107","COUNTYNAME":"桃園市","TOWNNAME":"中壢區","MARKTYPE":"994","Class":"4"}},{"type":"Feature","id":1683,"geometry":{"type":"Point","coordinates":[121.25439754690574,24.961869310937839]},"properties":{"OBJECTID":1683,"LANDMARKID":"1000300001081","LANDMARKCO":"405","LANDMARKNA":"中油加油站-內壢站","LANDMARKAD":"1000302","ADDRESS":"桃園縣中壢市環中東路346號","TEL":"03-4352496","COUNTYNAME":"桃園市","TOWNNAME":"中壢區","MARKTYPE":"994","Class":"4"}},{"type":"Feature","id":1684,"geometry":{"type":"Point","coordinates":[121.24607940617402,24.954994366909869]},"properties":{"OBJECTID":1684,"LANDMARKID":"1000300001082","LANDMARKCO":"405","LANDMARKNA":"中油加油站-環中站(中油直營)","LANDMARKAD":"1000302","ADDRESS":"桃園縣中壢市環中東路675號","TEL":"03-4356060","COUNTYNAME":"桃園市","TOWNNAME":"中壢區","MARKTYPE":"994","Class":"4"}},{"type":"Feature","id":1685,"geometry":{"type":"Point","coordinates":[121.23247793855035,24.963208069979473]},"properties":{"OBJECTID":1685,"LANDMARKID":"1000300001083","LANDMARKCO":"405","LANDMARKNA":"中油加油站-中壢站(中油直營)","LANDMARKAD":"1000302","ADDRESS":"桃園縣中壢市延平路33號","TEL":"03-4522044","COUNTYNAME":"桃園市","TOWNNAME":"中壢區","MARKTYPE":"994","Class":"4"}},{"type":"Feature","id":1686,"geometry":{"type":"Point","coordinates":[121.22887354277627,24.971359358707215]},"properties":{"OBJECTID":1686,"LANDMARKID":"1000300001084","LANDMARKCO":"405","LANDMARKNA":"山隆加油站-南園站(中油)","LANDMARKAD":"1000302","ADDRESS":"桃園縣中壢市南園二路139號","TEL":"03-4554340","COUNTYNAME":"桃園市","TOWNNAME":"中壢區","MARKTYPE":"994","Class":"4"}},{"type":"Feature","id":1687,"geometry":{"type":"Point","coordinates":[121.22804434143511,24.965159630818963]},"properties":{"OBJECTID":1687,"LANDMARKID":"1000300000794","LANDMARKCO":"402","LANDMARKNA":"My Phone台灣大哥大-中壢環北直營服務中心","LANDMARKAD":"1000302","ADDRESS":"桃園縣中壢市環北路542號","TEL":"0809-000-166","COUNTYNAME":"桃園市","TOWNNAME":"中壢區","MARKTYPE":"994","Class":"4"}},{"type":"Feature","id":1688,"geometry":{"type":"Point","coordinates":[121.22303007874895,24.960041831478261]},"properties":{"OBJECTID":1688,"LANDMARKID":"1000300000795","LANDMARKCO":"402","LANDMARKNA":"My Phone台灣大哥大-中壢新生直營服務中心","LANDMARKAD":"1000302","ADDRESS":"桃園縣中壢市新生路132號","TEL":" ","COUNTYNAME":"桃園市","TOWNNAME":"中壢區","MARKTYPE":"994","Class":"4"}},{"type":"Feature","id":1689,"geometry":{"type":"Point","coordinates":[121.22220189667578,24.954391951411235]},"properties":{"OBJECTID":1689,"LANDMARKID":"1000300000796","LANDMARKCO":"402","LANDMARKNA":"亞太行動寬頻電信-中壢延平加盟服務中心","LANDMARKAD":"1000302","ADDRESS":"桃園縣中壢市延平路596號","TEL":"03-4228355","COUNTYNAME":"桃園市","TOWNNAME":"中壢區","MARKTYPE":"994","Class":"4"}},{"type":"Feature","id":1690,"geometry":{"type":"Point","coordinates":[121.22594079914268,24.955407615400514]},"properties":{"OBJECTID":1690,"LANDMARKID":"1000300000797","LANDMARKCO":"402","LANDMARKNA":"亞太行動寬頻電信-桃園縣","LANDMARKAD":"1000302","ADDRESS":"桃園縣中壢市中山路104號","TEL":" ","COUNTYNAME":"桃園市","TOWNNAME":"中壢區","MARKTYPE":"994","Class":"4"}},{"type":"Feature","id":1691,"geometry":{"type":"Point","coordinates":[121.23908304656887,24.953319727188259]},"properties":{"OBJECTID":1691,"LANDMARKID":"1000300000798","LANDMARKCO":"402","LANDMARKNA":"亞太行動寬頻電信-中壢中山東加盟服務中心","LANDMARKAD":"1000302","ADDRESS":"桃園縣中壢市中山東路二段119號","TEL":"03-4378098","COUNTYNAME":"桃園市","TOWNNAME":"中壢區","MARKTYPE":"994","Class":"4"}},{"type":"Feature","id":1692,"geometry":{"type":"Point","coordinates":[121.21749657213523,24.955880830122705]},"properties":{"OBJECTID":1692,"LANDMARKID":"1000300000799","LANDMARKCO":"402","LANDMARKNA":"亞太行動寬頻電信-中壢中正加盟服務中心","LANDMARKAD":"1000302","ADDRESS":"桃園縣中壢市中正路323號","TEL":"03-4941366","COUNTYNAME":"桃園市","TOWNNAME":"中壢區","MARKTYPE":"994","Class":"4"}},{"type":"Feature","id":1693,"geometry":{"type":"Point","coordinates":[121.25666167901775,24.972182136842139]},"properties":{"OBJECTID":1693,"LANDMARKID":"1000300000800","LANDMARKCO":"402","LANDMARKNA":"亞太行動寬頻電信-內壢中華加盟服務中心","LANDMARKAD":"1000302","ADDRESS":"桃園縣中壢市中華路一段277號","TEL":"03-4638889","COUNTYNAME":"桃園市","TOWNNAME":"中壢區","MARKTYPE":"994","Class":"4"}},{"type":"Feature","id":1694,"geometry":{"type":"Point","coordinates":[121.22736119133401,24.949505454495952]},"properties":{"OBJECTID":1694,"LANDMARKID":"1000300000801","LANDMARKCO":"402","LANDMARKNA":"亞太行動寬頻電信-中壢健行加盟服務中心","LANDMARKAD":"1000302","ADDRESS":"桃園縣中壢市健行路129號","TEL":"03-4685655","COUNTYNAME":"桃園市","TOWNNAME":"中壢區","MARKTYPE":"994","Class":"4"}},{"type":"Feature","id":1695,"geometry":{"type":"Point","coordinates":[121.22016542797061,24.956920975187959]},"properties":{"OBJECTID":1695,"LANDMARKID":"1000300000802","LANDMARKCO":"402","LANDMARKNA":"亞太行動寬頻電信-中壢永興加盟服務中心","LANDMARKAD":"1000302","ADDRESS":"桃園縣中壢市永興街7號","TEL":"03-4221112","COUNTYNAME":"桃園市","TOWNNAME":"中壢區","MARKTYPE":"994","Class":"4"}},{"type":"Feature","id":1696,"geometry":{"type":"Point","coordinates":[121.22287708338314,24.962268060421213]},"properties":{"OBJECTID":1696,"LANDMARKID":"1000300000803","LANDMARKCO":"402","LANDMARKNA":"亞太行動寬頻電信-中壢新生加盟服務中心","LANDMARKAD":"1000302","ADDRESS":"桃園縣中壢市新生路217號","TEL":"03-4263588","COUNTYNAME":"桃園市","TOWNNAME":"中壢區","MARKTYPE":"994","Class":"4"}},{"type":"Feature","id":1697,"geometry":{"type":"Point","coordinates":[121.21652435195651,24.955384968861935]},"properties":{"OBJECTID":1697,"LANDMARKID":"1000300000786","LANDMARKCO":"401","LANDMARKNA":"同慶堂中醫醫院","LANDMARKAD":"1000302","ADDRESS":"桃園縣中壢市中正路357號","TEL":"03-4933888","COUNTYNAME":"桃園市","TOWNNAME":"中壢區","MARKTYPE":"994","Class":"4"}},{"type":"Feature","id":1698,"geometry":{"type":"Point","coordinates":[121.22192779830658,24.953323843182346]},"properties":{"OBJECTID":1698,"LANDMARKID":"1000300000787","LANDMARKCO":"401","LANDMARKNA":"承安醫院","LANDMARKAD":"1000302","ADDRESS":"桃園縣中壢市延平路643號","TEL":"03-2807722","COUNTYNAME":"桃園市","TOWNNAME":"中壢區","MARKTYPE":"994","Class":"4"}},{"type":"Feature","id":1699,"geometry":{"type":"Point","coordinates":[121.22689159207457,24.96120637370516]},"properties":{"OBJECTID":1699,"LANDMARKID":"1000300000788","LANDMARKCO":"401","LANDMARKNA":"宏其婦幼醫院","LANDMARKAD":"1000302","ADDRESS":"桃園縣中壢市元化路223號","TEL":"03-4618888","COUNTYNAME":"桃園市","TOWNNAME":"中壢區","MARKTYPE":"994","Class":"4"}},{"type":"Feature","id":1700,"geometry":{"type":"Point","coordinates":[121.22527484189212,24.958758320862206]},"properties":{"OBJECTID":1700,"LANDMARKID":"1000300000789","LANDMARKCO":"401","LANDMARKNA":"財團法人景仁醫院","LANDMARKAD":"1000302","ADDRESS":"桃園縣中壢市中美路95號","TEL":"03-4253388","COUNTYNAME":"桃園市","TOWNNAME":"中壢區","MARKTYPE":"994","Class":"4"}},{"type":"Feature","id":1701,"geometry":{"type":"Point","coordinates":[121.20389513507136,24.957357155945392]},"properties":{"OBJECTID":1701,"LANDMARKID":"1000300000790","LANDMARKCO":"401","LANDMARKNA":"祐民醫院","LANDMARKAD":"1000302","ADDRESS":"桃園縣中壢市民族路二段180號","TEL":"03-4915656","COUNTYNAME":"桃園市","TOWNNAME":"中壢區","MARKTYPE":"994","Class":"4"}},{"type":"Feature","id":1702,"geometry":{"type":"Point","coordinates":[121.22824569019487,24.962197968456618]},"properties":{"OBJECTID":1702,"LANDMARKID":"1000300000791","LANDMARKCO":"401","LANDMARKNA":"天晟醫院","LANDMARKAD":"1000302","ADDRESS":"桃園縣中壢市延平路155號","TEL":"03-4629292","COUNTYNAME":"桃園市","TOWNNAME":"中壢區","MARKTYPE":"994","Class":"4"}},{"type":"Feature","id":1703,"geometry":{"type":"Point","coordinates":[121.22481265163691,24.957685829125758]},"properties":{"OBJECTID":1703,"LANDMARKID":"1000300000792","LANDMARKCO":"401","LANDMARKNA":"永康醫院","LANDMARKAD":"1000302","ADDRESS":"桃園縣中壢市裕民街13號","TEL":"03-4223641","COUNTYNAME":"桃園市","TOWNNAME":"中壢區","MARKTYPE":"994","Class":"4"}},{"type":"Feature","id":1704,"geometry":{"type":"Point","coordinates":[121.22358648902552,24.954078161707095]},"properties":{"OBJECTID":1704,"LANDMARKID":"1000300000793","LANDMARKCO":"401","LANDMARKNA":"新國民綜合醫院","LANDMARKAD":"1000302","ADDRESS":"桃園縣中壢市復興路152號","TEL":"03- 4225180","COUNTYNAME":"桃園市","TOWNNAME":"中壢區","MARKTYPE":"994","Class":"4"}},{"type":"Feature","id":1705,"geometry":{"type":"Point","coordinates":[121.22515858485879,24.955298838516271]},"properties":{"OBJECTID":1705,"LANDMARKID":"1000300001324","LANDMARKCO":"408","LANDMARKNA":"郵局-中壢建國路郵局","LANDMARKAD":"1000302","ADDRESS":"桃園縣中壢市建國路36號","TEL":"(03)4220-552","COUNTYNAME":"桃園市","TOWNNAME":"中壢區","MARKTYPE":"994","Class":"4"}},{"type":"Feature","id":1706,"geometry":{"type":"Point","coordinates":[121.23721571547841,24.954195323340773]},"properties":{"OBJECTID":1706,"LANDMARKID":"1000300001325","LANDMARKCO":"408","LANDMARKNA":"郵局-中壢普仁郵局","LANDMARKAD":"1000302","ADDRESS":"桃園縣中壢市中山東路2段24號","TEL":"(03)4561-574","COUNTYNAME":"桃園市","TOWNNAME":"中壢區","MARKTYPE":"994","Class":"4"}},{"type":"Feature","id":1707,"geometry":{"type":"Point","coordinates":[121.25566129025455,24.974297896569546]},"properties":{"OBJECTID":1707,"LANDMARKID":"1000300001326","LANDMARKCO":"408","LANDMARKNA":"郵局-中壢內壢郵局","LANDMARKAD":"1000302","ADDRESS":"桃園縣中壢市忠勤街25號","TEL":"(03)4553-541","COUNTYNAME":"桃園市","TOWNNAME":"中壢區","MARKTYPE":"994","Class":"4"}},{"type":"Feature","id":1708,"geometry":{"type":"Point","coordinates":[121.24354373450231,24.925883023882374]},"properties":{"OBJECTID":1708,"LANDMARKID":"1000300001327","LANDMARKCO":"408","LANDMARKNA":"郵局-中壢龍岡郵局","LANDMARKAD":"1000302","ADDRESS":"桃園縣中壢市龍岡路3段756號","TEL":"(03)4503-861","COUNTYNAME":"桃園市","TOWNNAME":"中壢區","MARKTYPE":"994","Class":"4"}},{"type":"Feature","id":1709,"geometry":{"type":"Point","coordinates":[121.19524747188406,24.968233026872763]},"properties":{"OBJECTID":1709,"LANDMARKID":"1000300001328","LANDMARKCO":"408","LANDMARKNA":"郵局-中央大學郵局","LANDMARKAD":"1000302","ADDRESS":"桃園縣中壢市國立中央大學內","TEL":"(03)4902-528","COUNTYNAME":"桃園市","TOWNNAME":"中壢區","MARKTYPE":"994","Class":"4"}},{"type":"Feature","id":1710,"geometry":{"type":"Point","coordinates":[121.24441229290224,24.966814596965705]},"properties":{"OBJECTID":1710,"LANDMARKID":"1000300001329","LANDMARKCO":"408","LANDMARKNA":"郵局-中壢忠義郵局","LANDMARKAD":"1000302","ADDRESS":"桃園縣中壢市中華路1段905、907號","TEL":"(03)4522-933","COUNTYNAME":"桃園市","TOWNNAME":"中壢區","MARKTYPE":"994","Class":"4"}},{"type":"Feature","id":1711,"geometry":{"type":"Point","coordinates":[121.24061717524928,24.958218295898593]},"properties":{"OBJECTID":1711,"LANDMARKID":"1000300001330","LANDMARKCO":"408","LANDMARKNA":"郵局-中原大學郵局","LANDMARKAD":"1000302","ADDRESS":"桃園縣中壢市私立中原大學內","TEL":"(03)2657-005","COUNTYNAME":"桃園市","TOWNNAME":"中壢區","MARKTYPE":"994","Class":"4"}},{"type":"Feature","id":1712,"geometry":{"type":"Point","coordinates":[121.21873287621204,24.962738057888362]},"properties":{"OBJECTID":1712,"LANDMARKID":"1000300001331","LANDMARKCO":"408","LANDMARKNA":"郵局-中壢興國郵局","LANDMARKAD":"1000302","ADDRESS":"桃園縣中壢市元化路2段126號","TEL":"(03)4226-254","COUNTYNAME":"桃園市","TOWNNAME":"中壢區","MARKTYPE":"994","Class":"4"}},{"type":"Feature","id":1713,"geometry":{"type":"Point","coordinates":[121.26445916764115,24.95519706691568]},"properties":{"OBJECTID":1713,"LANDMARKID":"1000300001332","LANDMARKCO":"408","LANDMARKNA":"郵局-中壢華勛郵局","LANDMARKAD":"1000302","ADDRESS":"桃園縣中壢市幸福新村1號","TEL":"(03)4654-385","COUNTYNAME":"桃園市","TOWNNAME":"中壢區","MARKTYPE":"994","Class":"4"}},{"type":"Feature","id":1714,"geometry":{"type":"Point","coordinates":[121.22603113185582,24.94784251689298]},"properties":{"OBJECTID":1714,"LANDMARKID":"1000300001333","LANDMARKCO":"408","LANDMARKNA":"郵局-中壢東興郵局","LANDMARKAD":"1000302","ADDRESS":"桃園縣中壢市龍岡路1段229號","TEL":"(03)4583-018","COUNTYNAME":"桃園市","TOWNNAME":"中壢區","MARKTYPE":"994","Class":"4"}},{"type":"Feature","id":1715,"geometry":{"type":"Point","coordinates":[121.25495632744156,24.936756366868885]},"properties":{"OBJECTID":1715,"LANDMARKID":"1000300001334","LANDMARKCO":"408","LANDMARKNA":"郵局-中壢仁美郵局","LANDMARKAD":"1000302","ADDRESS":"桃園縣中壢市龍文街29號","TEL":"(03)4657-400","COUNTYNAME":"桃園市","TOWNNAME":"中壢區","MARKTYPE":"994","Class":"4"}},{"type":"Feature","id":1716,"geometry":{"type":"Point","coordinates":[121.23841158890079,24.971825412653043]},"properties":{"OBJECTID":1716,"LANDMARKID":"1000300001335","LANDMARKCO":"408","LANDMARKNA":"郵局-中壢南園郵局","LANDMARKAD":"1000302","ADDRESS":"桃園縣中壢市南園二路4號","TEL":"(03)4527-682","COUNTYNAME":"桃園市","TOWNNAME":"中壢區","MARKTYPE":"994","Class":"4"}},{"type":"Feature","id":1717,"geometry":{"type":"Point","coordinates":[121.26087654046762,24.969294644180334]},"properties":{"OBJECTID":1717,"LANDMARKID":"1000300001336","LANDMARKCO":"408","LANDMARKNA":"郵局-中壢頂壢郵局","LANDMARKAD":"1000302","ADDRESS":"桃園縣中壢市榮民路53、55號","TEL":"(03)4557-254","COUNTYNAME":"桃園市","TOWNNAME":"中壢區","MARKTYPE":"994","Class":"4"}},{"type":"Feature","id":1718,"geometry":{"type":"Point","coordinates":[121.211313651998,24.961492791021218]},"properties":{"OBJECTID":1718,"LANDMARKID":"1000300001337","LANDMARKCO":"408","LANDMARKNA":"郵局-中壢志廣郵局","LANDMARKAD":"1000302","ADDRESS":"桃園縣中壢市中央西路2段271、273號","TEL":"(03)4920-875","COUNTYNAME":"桃園市","TOWNNAME":"中壢區","MARKTYPE":"994","Class":"4"}},{"type":"Feature","id":1719,"geometry":{"type":"Point","coordinates":[121.2260816789986,24.965902440404736]},"properties":{"OBJECTID":1719,"LANDMARKID":"1000300001338","LANDMARKCO":"408","LANDMARKNA":"郵局-中壢環北郵局","LANDMARKAD":"1000302","ADDRESS":"桃園縣中壢市環北路413號","TEL":"(03)4628-063","COUNTYNAME":"桃園市","TOWNNAME":"中壢區","MARKTYPE":"994","Class":"4"}},{"type":"Feature","id":1720,"geometry":{"type":"Point","coordinates":[121.18035942791342,24.988460971696945]},"properties":{"OBJECTID":1720,"LANDMARKID":"1000300001339","LANDMARKCO":"408","LANDMARKNA":"郵局-中壢大崙郵局","LANDMARKAD":"1000302","ADDRESS":"桃園縣中壢市中正路4段85、87號","TEL":"(03)2820-230","COUNTYNAME":"桃園市","TOWNNAME":"中壢區","MARKTYPE":"994","Class":"4"}},{"type":"Feature","id":1721,"geometry":{"type":"Point","coordinates":[121.25423211710172,24.963945602123342]},"properties":{"OBJECTID":1721,"LANDMARKID":"1000300001340","LANDMARKCO":"408","LANDMARKNA":"郵局-中壢自立郵局","LANDMARKAD":"1000302","ADDRESS":"桃園縣中壢市莊敬路856號1樓","TEL":"(03)4630-701","COUNTYNAME":"桃園市","TOWNNAME":"中壢區","MARKTYPE":"994","Class":"4"}},{"type":"Feature","id":1722,"geometry":{"type":"Point","coordinates":[121.25727501804808,24.935750119691271]},"properties":{"OBJECTID":1722,"LANDMARKID":"1000300001341","LANDMARKCO":"408","LANDMARKNA":"郵局-中壢龍東路郵局","LANDMARKAD":"1000302","ADDRESS":"桃園縣中壢市中山東路四段113號","TEL":"(03)4656-847","COUNTYNAME":"桃園市","TOWNNAME":"中壢區","MARKTYPE":"994","Class":"4"}},{"type":"Feature","id":1723,"geometry":{"type":"Point","coordinates":[121.22980047506402,24.962982970601015]},"properties":{"OBJECTID":1723,"LANDMARKID":"1000300001388","LANDMARKCO":"409","LANDMARKNA":"中壢魚市場","LANDMARKAD":"1000302","ADDRESS":"中壢市延平路123號","TEL":"03-4512644","COUNTYNAME":"桃園市","TOWNNAME":"中壢區","MARKTYPE":"994","Class":"4"}},{"type":"Feature","id":1724,"geometry":{"type":"Point","coordinates":[121.17970811178562,24.99034772949933]},"properties":{"OBJECTID":1724,"LANDMARKID":"1000300001237","LANDMARKCO":"406","LANDMARKNA":"內厝公園","LANDMARKAD":"1000302","ADDRESS":"桃園縣中壢市","TEL":" ","COUNTYNAME":"桃園市","TOWNNAME":"中壢區","MARKTYPE":"994","Class":"4"}},{"type":"Feature","id":1725,"geometry":{"type":"Point","coordinates":[121.22633085747141,24.95948463900266]},"properties":{"OBJECTID":1725,"LANDMARKID":"1000300001238","LANDMARKCO":"406","LANDMARKNA":"中正公園","LANDMARKAD":"1000302","ADDRESS":"桃園縣中壢市","TEL":" ","COUNTYNAME":"桃園市","TOWNNAME":"中壢區","MARKTYPE":"994","Class":"4"}},{"type":"Feature","id":1726,"geometry":{"type":"Point","coordinates":[121.23302533000839,24.972120149415524]},"properties":{"OBJECTID":1726,"LANDMARKID":"1000300001239","LANDMARKCO":"406","LANDMARKNA":"忠福公園","LANDMARKAD":"1000302","ADDRESS":"桃園縣中壢市","TEL":" ","COUNTYNAME":"桃園市","TOWNNAME":"中壢區","MARKTYPE":"994","Class":"4"}},{"type":"Feature","id":1727,"geometry":{"type":"Point","coordinates":[121.22548153353821,24.945315276985326]},"properties":{"OBJECTID":1727,"LANDMARKID":"1000300001240","LANDMARKCO":"406","LANDMARKNA":"新興公園","LANDMARKAD":"1000302","ADDRESS":"桃園縣中壢市","TEL":" ","COUNTYNAME":"桃園市","TOWNNAME":"中壢區","MARKTYPE":"994","Class":"4"}},{"type":"Feature","id":1728,"geometry":{"type":"Point","coordinates":[121.24848655073012,24.973673673580446]},"properties":{"OBJECTID":1728,"LANDMARKID":"1000300001241","LANDMARKCO":"406","LANDMARKNA":"復興公園","LANDMARKAD":"1000302","ADDRESS":"桃園縣中壢市","TEL":" ","COUNTYNAME":"桃園市","TOWNNAME":"中壢區","MARKTYPE":"994","Class":"4"}},{"type":"Feature","id":1729,"geometry":{"type":"Point","coordinates":[121.25943165333926,24.968112345316001]},"properties":{"OBJECTID":1729,"LANDMARKID":"1000300001242","LANDMARKCO":"406","LANDMARKNA":"自強公園","LANDMARKAD":"1000302","ADDRESS":"桃園縣中壢市","TEL":" ","COUNTYNAME":"桃園市","TOWNNAME":"中壢區","MARKTYPE":"994","Class":"4"}},{"type":"Feature","id":1730,"geometry":{"type":"Point","coordinates":[121.25786829255236,24.977556389711019]},"properties":{"OBJECTID":1730,"LANDMARKID":"1000300001243","LANDMARKCO":"406","LANDMARKNA":"成功公園","LANDMARKAD":"1000302","ADDRESS":"桃園縣中壢市","TEL":" ","COUNTYNAME":"桃園市","TOWNNAME":"中壢區","MARKTYPE":"994","Class":"4"}},{"type":"Feature","id":1731,"geometry":{"type":"Point","coordinates":[121.25140211802798,24.985446099527529]},"properties":{"OBJECTID":1731,"LANDMARKID":"1000300001244","LANDMARKCO":"406","LANDMARKNA":"中山公園","LANDMARKAD":"1000302","ADDRESS":"桃園縣中壢市","TEL":" ","COUNTYNAME":"桃園市","TOWNNAME":"中壢區","MARKTYPE":"994","Class":"4"}},{"type":"Feature","id":1732,"geometry":{"type":"Point","coordinates":[121.20439964440705,24.959289250854361]},"properties":{"OBJECTID":1732,"LANDMARKID":"1000300001245","LANDMARKCO":"406","LANDMARKNA":"五權兒童公園","LANDMARKAD":"1000302","ADDRESS":"桃園縣中壢市","TEL":" ","COUNTYNAME":"桃園市","TOWNNAME":"中壢區","MARKTYPE":"994","Class":"4"}},{"type":"Feature","id":1733,"geometry":{"type":"Point","coordinates":[121.22464904079814,24.963322956664946]},"properties":{"OBJECTID":1733,"LANDMARKID":"1000300001246","LANDMARKCO":"406","LANDMARKNA":"大和兒童公園","LANDMARKAD":"1000302","ADDRESS":"桃園縣中壢市","TEL":" ","COUNTYNAME":"桃園市","TOWNNAME":"中壢區","MARKTYPE":"994","Class":"4"}},{"type":"Feature","id":1734,"geometry":{"type":"Point","coordinates":[121.25882723399722,24.938558120034692]},"properties":{"OBJECTID":1734,"LANDMARKID":"1000300001247","LANDMARKCO":"406","LANDMARKNA":"中堅里社區公園","LANDMARKAD":"1000302","ADDRESS":"桃園縣中壢市","TEL":" ","COUNTYNAME":"桃園市","TOWNNAME":"中壢區","MARKTYPE":"994","Class":"4"}},{"type":"Feature","id":1735,"geometry":{"type":"Point","coordinates":[121.24401762316027,24.927083436769372]},"properties":{"OBJECTID":1735,"LANDMARKID":"1000300001248","LANDMARKCO":"406","LANDMARKNA":"龍岡公園","LANDMARKAD":"1000302","ADDRESS":"桃園縣中壢市","TEL":" ","COUNTYNAME":"桃園市","TOWNNAME":"中壢區","MARKTYPE":"994","Class":"4"}},{"type":"Feature","id":1736,"geometry":{"type":"Point","coordinates":[121.21973180209552,24.959911653980203]},"properties":{"OBJECTID":1736,"LANDMARKID":"1000300001273","LANDMARKCO":"407","LANDMARKNA":"小北百貨","LANDMARKAD":"1000302","ADDRESS":"桃園縣中壢市中豐路225號","TEL":"(03)4268331???","COUNTYNAME":"桃園市","TOWNNAME":"中壢區","MARKTYPE":"994","Class":"4"}},{"type":"Feature","id":1737,"geometry":{"type":"Point","coordinates":[121.22366374125093,24.962627919823966]},"properties":{"OBJECTID":1737,"LANDMARKID":"1000300001274","LANDMARKCO":"407","LANDMARKNA":"誠品Eslite","LANDMARKAD":"1000302","ADDRESS":"桃園縣中壢市元化路357號9F","TEL":"03-427-9817","COUNTYNAME":"桃園市","TOWNNAME":"中壢區","MARKTYPE":"994","Class":"4"}},{"type":"Feature","id":1738,"geometry":{"type":"Point","coordinates":[121.22921037239226,25.000739877826163]},"properties":{"OBJECTID":1738,"LANDMARKID":"1000300001275","LANDMARKCO":"407","LANDMARKNA":"誠品Eslite","LANDMARKAD":"1000302","ADDRESS":"桃園縣中壢市中園路二段501號4F","TEL":"03-468-0222","COUNTYNAME":"桃園市","TOWNNAME":"中壢區","MARKTYPE":"994","Class":"4"}},{"type":"Feature","id":1739,"geometry":{"type":"Point","coordinates":[121.22936031630364,25.001454016398036]},"properties":{"OBJECTID":1739,"LANDMARKID":"1000300001276","LANDMARKCO":"407","LANDMARKNA":"大江國際購物中心","LANDMARKAD":"1000302","ADDRESS":"桃園縣中壢市中園路二段501號","TEL":"03-4680168","COUNTYNAME":"桃園市","TOWNNAME":"中壢區","MARKTYPE":"994","Class":"4"}},{"type":"Feature","id":1740,"geometry":{"type":"Point","coordinates":[121.22458815773649,24.96322914428929]},"properties":{"OBJECTID":1740,"LANDMARKID":"1000300001277","LANDMARKCO":"407","LANDMARKNA":"太平洋SOGO百貨-中壢元化館","LANDMARKAD":"1000302","ADDRESS":"桃園縣中壢市元化路357號","TEL":"(03)422-7000","COUNTYNAME":"桃園市","TOWNNAME":"中壢區","MARKTYPE":"994","Class":"4"}},{"type":"Feature","id":1741,"geometry":{"type":"Point","coordinates":[121.22021692506586,24.958193886836046]},"properties":{"OBJECTID":1741,"LANDMARKID":"1000300001278","LANDMARKCO":"407","LANDMARKNA":"太平洋SOGO百貨-中壢中央新館","LANDMARKAD":"1000302","ADDRESS":"桃園縣中壢市中央西路一段120號","TEL":"(03)422-7000","COUNTYNAME":"桃園市","TOWNNAME":"中壢區","MARKTYPE":"994","Class":"4"}},{"type":"Feature","id":1742,"geometry":{"type":"Point","coordinates":[121.2319524311539,24.938071368715239]},"properties":{"OBJECTID":1742,"LANDMARKID":"1000300001049","LANDMARKCO":"405","LANDMARKNA":"全國加油站-龍岡站（台塑）","LANDMARKAD":"1000302","ADDRESS":"桃園縣中壢市龍岡路三段51號","TEL":"03-4575193","COUNTYNAME":"桃園市","TOWNNAME":"中壢區","MARKTYPE":"994","Class":"4"}},{"type":"Feature","id":1743,"geometry":{"type":"Point","coordinates":[121.24914672297282,24.956813650248648]},"properties":{"OBJECTID":1743,"LANDMARKID":"1000300001050","LANDMARKCO":"405","LANDMARKNA":"台亞加油站-中原大學站（台塑）","LANDMARKAD":"1000302","ADDRESS":"桃園縣中壢市新中北路662號","TEL":"(03)463-9380","COUNTYNAME":"桃園市","TOWNNAME":"中壢區","MARKTYPE":"994","Class":"4"}},{"type":"Feature","id":1744,"geometry":{"type":"Point","coordinates":[121.23792917069662,24.984582755963768]},"properties":{"OBJECTID":1744,"LANDMARKID":"1000300001051","LANDMARKCO":"405","LANDMARKNA":"台塑加油站-宏大站(台塑)","LANDMARKAD":"1000302","ADDRESS":"桃園縣中壢市中園路192-1號","TEL":"03-4520020","COUNTYNAME":"桃園市","TOWNNAME":"中壢區","MARKTYPE":"994","Class":"4"}},{"type":"Feature","id":1745,"geometry":{"type":"Point","coordinates":[121.19629974355922,24.975468662082594]},"properties":{"OBJECTID":1745,"LANDMARKID":"1000300001052","LANDMARKCO":"405","LANDMARKNA":"福懋加油站-中壢站(台塑)","LANDMARKAD":"1000302","ADDRESS":"桃園縣中壢市中正路二段139號","TEL":"03-4259420","COUNTYNAME":"桃園市","TOWNNAME":"中壢區","MARKTYPE":"994","Class":"4"}},{"type":"Feature","id":1746,"geometry":{"type":"Point","coordinates":[121.24592563153907,24.967990658618341]},"properties":{"OBJECTID":1746,"LANDMARKID":"1000300001053","LANDMARKCO":"405","LANDMARKNA":"台塑加油站-寶馬站(台塑)","LANDMARKAD":"1000302","ADDRESS":"桃園縣中壢市中華路一段814號","TEL":"03-4617618","COUNTYNAME":"桃園市","TOWNNAME":"中壢區","MARKTYPE":"994","Class":"4"}},{"type":"Feature","id":1747,"geometry":{"type":"Point","coordinates":[121.256600498822,24.946133301799591]},"properties":{"OBJECTID":1747,"LANDMARKID":"1000300001054","LANDMARKCO":"405","LANDMARKNA":"台塑加油站-樺勛站(台塑)","LANDMARKAD":"1000302","ADDRESS":"桃園縣中壢市榮民南路500號","TEL":"03-4667048","COUNTYNAME":"桃園市","TOWNNAME":"中壢區","MARKTYPE":"994","Class":"4"}},{"type":"Feature","id":1748,"geometry":{"type":"Point","coordinates":[121.16855900820188,24.993138966451738]},"properties":{"OBJECTID":1748,"LANDMARKID":"1000300001055","LANDMARKCO":"405","LANDMARKNA":"台亞加油站-大崙站（台塑）","LANDMARKAD":"1000302","ADDRESS":"桃園縣中壢市中正路四段765號","TEL":"(03)408-0808","COUNTYNAME":"桃園市","TOWNNAME":"中壢區","MARKTYPE":"994","Class":"4"}},{"type":"Feature","id":1749,"geometry":{"type":"Point","coordinates":[121.23237044032501,24.995210273949301]},"properties":{"OBJECTID":1749,"LANDMARKID":"1000300001056","LANDMARKCO":"405","LANDMARKNA":"台亞加油站-內壢交流道站（台塑）","LANDMARKAD":"1000302","ADDRESS":"桃園縣中壢市中園路二段309號","TEL":"(03)461-7699","COUNTYNAME":"桃園市","TOWNNAME":"中壢區","MARKTYPE":"994","Class":"4"}},{"type":"Feature","id":1750,"geometry":{"type":"Point","coordinates":[121.22189609635466,25.013942439507165]},"properties":{"OBJECTID":1750,"LANDMARKID":"1000300001057","LANDMARKCO":"405","LANDMARKNA":"全國加油站-桃園高鐵站(台塑)","LANDMARKAD":"1000302","ADDRESS":"桃園縣中壢市領航南路三段478號","TEL":"03-4532673","COUNTYNAME":"桃園市","TOWNNAME":"中壢區","MARKTYPE":"994","Class":"4"}},{"type":"Feature","id":1751,"geometry":{"type":"Point","coordinates":[121.2252519348791,24.965543404106494]},"properties":{"OBJECTID":1751,"LANDMARKID":"1000300000246","LANDMARKCO":"108","LANDMARKNA":"桃園縣中壢巿公所","LANDMARKAD":"1000302","ADDRESS":"桃園縣中壢市環北路380號","TEL":"03-4271801","COUNTYNAME":"桃園市","TOWNNAME":"中壢區","MARKTYPE":"991","Class":"1"}},{"type":"Feature","id":1752,"geometry":{"type":"Point","coordinates":[121.22565833333273,24.965632457780199]},"properties":{"OBJECTID":1752,"LANDMARKID":"1000300000058","LANDMARKCO":"103","LANDMARKNA":"桃園縣中壢市市民代表會","LANDMARKAD":"1000302","ADDRESS":"桃園縣中壢市環北路390號","TEL":"03-4252126","COUNTYNAME":"桃園市","TOWNNAME":"中壢區","MARKTYPE":"991","Class":"1"}},{"type":"Feature","id":1753,"geometry":{"type":"Point","coordinates":[121.22418611337558,24.956965483675525]},"properties":{"OBJECTID":1753,"LANDMARKID":"1000300000018","LANDMARKCO":"101","LANDMARKNA":"中壢憲兵分隊","LANDMARKAD":"1000302","ADDRESS":"桃園縣中壢市中央東路28號","TEL":"03-4228673","COUNTYNAME":"桃園市","TOWNNAME":"中壢區","MARKTYPE":"991","Class":"1"}},{"type":"Feature","id":1754,"geometry":{"type":"Point","coordinates":[121.21564128780423,24.953276870615674]},"properties":{"OBJECTID":1754,"LANDMARKID":"1000300000179","LANDMARKCO":"107","LANDMARKNA":"桃園縣消防局第二消防大隊部","LANDMARKAD":"1000302","ADDRESS":"桃園縣中壢市義民路120號2樓","TEL":"03-4013421","COUNTYNAME":"桃園市","TOWNNAME":"中壢區","MARKTYPE":"991","Class":"1"}},{"type":"Feature","id":1755,"geometry":{"type":"Point","coordinates":[121.21564128780423,24.953276870615674]},"properties":{"OBJECTID":1755,"LANDMARKID":"1000300000180","LANDMARKCO":"107","LANDMARKNA":"桃園縣消防局中壢消防分隊","LANDMARKAD":"1000302","ADDRESS":"桃園縣中壢市義民路120號","TEL":"03-4013312","COUNTYNAME":"桃園市","TOWNNAME":"中壢區","MARKTYPE":"991","Class":"1"}},{"type":"Feature","id":1756,"geometry":{"type":"Point","coordinates":[121.21973861962681,24.962301368536224]},"properties":{"OBJECTID":1756,"LANDMARKID":"1000300000181","LANDMARKCO":"107","LANDMARKNA":"桃園縣消防局興國消防分隊","LANDMARKAD":"1000302","ADDRESS":"桃園縣中壢市中豐路88號","TEL":"03-4258146","COUNTYNAME":"桃園市","TOWNNAME":"中壢區","MARKTYPE":"991","Class":"1"}},{"type":"Feature","id":1757,"geometry":{"type":"Point","coordinates":[121.24539340103331,24.979052938533776]},"properties":{"OBJECTID":1757,"LANDMARKID":"1000300000182","LANDMARKCO":"107","LANDMARKNA":"桃園縣消防局內壢消防分隊","LANDMARKAD":"1000302","ADDRESS":"桃園縣中壢市吉林路62號","TEL":"03-4521694","COUNTYNAME":"桃園市","TOWNNAME":"中壢區","MARKTYPE":"991","Class":"1"}},{"type":"Feature","id":1758,"geometry":{"type":"Point","coordinates":[121.2436040835814,24.925877082092963]},"properties":{"OBJECTID":1758,"LANDMARKID":"1000300000183","LANDMARKCO":"107","LANDMARKNA":"桃園縣消防局龍岡消防分隊","LANDMARKAD":"1000302","ADDRESS":"桃園縣中壢市龍岡路三段754號","TEL":"03-4601418","COUNTYNAME":"桃園市","TOWNNAME":"中壢區","MARKTYPE":"991","Class":"1"}},{"type":"Feature","id":1759,"geometry":{"type":"Point","coordinates":[121.22276647531667,24.954622362359821]},"properties":{"OBJECTID":1759,"LANDMARKID":"1000300000184","LANDMARKCO":"107","LANDMARKNA":"桃園縣政府警察局中壢分局","LANDMARKAD":"1000302","ADDRESS":"桃園縣中壢市石頭里延平路607號","TEL":"03-4221460","COUNTYNAME":"桃園市","TOWNNAME":"中壢區","MARKTYPE":"991","Class":"1"}},{"type":"Feature","id":1760,"geometry":{"type":"Point","coordinates":[121.24466331782816,24.975895415334104]},"properties":{"OBJECTID":1760,"LANDMARKID":"1000300000185","LANDMARKCO":"107","LANDMARKNA":"桃園縣政府警察局文化派出所","LANDMARKAD":"1000302","ADDRESS":"桃園縣中壢市吉林路60號","TEL":"03-4528348","COUNTYNAME":"桃園市","TOWNNAME":"中壢區","MARKTYPE":"991","Class":"1"}},{"type":"Feature","id":1761,"geometry":{"type":"Point","coordinates":[121.26145471350527,24.953656852461794]},"properties":{"OBJECTID":1761,"LANDMARKID":"1000300000186","LANDMARKCO":"107","LANDMARKNA":"桃園縣政府警察局仁愛派出所","LANDMARKAD":"1000302","ADDRESS":"桃園縣中壢市新中北路二段80巷75號","TEL":"03-4563524","COUNTYNAME":"桃園市","TOWNNAME":"中壢區","MARKTYPE":"991","Class":"1"}},{"type":"Feature","id":1762,"geometry":{"type":"Point","coordinates":[121.21970890835502,24.962301455707454]},"properties":{"OBJECTID":1762,"LANDMARKID":"1000300000187","LANDMARKCO":"107","LANDMARKNA":"桃園縣政府警察局興國派出所","LANDMARKAD":"1000302","ADDRESS":"桃園縣中壢市中豐路88號","TEL":"03-4258325","COUNTYNAME":"桃園市","TOWNNAME":"中壢區","MARKTYPE":"991","Class":"1"}},{"type":"Feature","id":1763,"geometry":{"type":"Point","coordinates":[121.23845799622852,24.935816080461599]},"properties":{"OBJECTID":1763,"LANDMARKID":"1000300000188","LANDMARKCO":"107","LANDMARKNA":"桃園縣政府警察局龍興派出所","LANDMARKAD":"1000302","ADDRESS":"桃園縣中壢市龍勇路139號","TEL":"03-4285776","COUNTYNAME":"桃園市","TOWNNAME":"中壢區","MARKTYPE":"991","Class":"1"}},{"type":"Feature","id":1764,"geometry":{"type":"Point","coordinates":[121.17903306429658,24.989710793849959]},"properties":{"OBJECTID":1764,"LANDMARKID":"1000300000189","LANDMARKCO":"107","LANDMARKNA":"桃園縣政府警察局大崙派出所","LANDMARKAD":"1000302","ADDRESS":"桃園縣中壢市內厝里中正路四段186號","TEL":"03-4982260","COUNTYNAME":"桃園市","TOWNNAME":"中壢區","MARKTYPE":"991","Class":"1"}},{"type":"Feature","id":1765,"geometry":{"type":"Point","coordinates":[121.23513947699537,24.971755236663526]},"properties":{"OBJECTID":1765,"LANDMARKID":"1000300000190","LANDMARKCO":"107","LANDMARKNA":"桃園縣政府警察局中福派出所","LANDMARKAD":"1000302","ADDRESS":"桃園縣中壢市中福里南園二路86號","TEL":"03-4523093","COUNTYNAME":"桃園市","TOWNNAME":"中壢區","MARKTYPE":"991","Class":"1"}},{"type":"Feature","id":1766,"geometry":{"type":"Point","coordinates":[121.255743065163,24.972175211981842]},"properties":{"OBJECTID":1766,"LANDMARKID":"1000300000191","LANDMARKCO":"107","LANDMARKNA":"桃園縣政府警察局內壢派出所","LANDMARKAD":"1000302","ADDRESS":"桃園縣中壢市中原里中華路一段364號","TEL":"03-4553845","COUNTYNAME":"桃園市","TOWNNAME":"中壢區","MARKTYPE":"991","Class":"1"}},{"type":"Feature","id":1767,"geometry":{"type":"Point","coordinates":[121.23863898759579,24.953962576095797]},"properties":{"OBJECTID":1767,"LANDMARKID":"1000300000192","LANDMARKCO":"107","LANDMARKNA":"桃園縣政府警察局普仁派出所","LANDMARKAD":"1000302","ADDRESS":"桃園縣中壢市普仁里日新路20號","TEL":"03-4562912","COUNTYNAME":"桃園市","TOWNNAME":"中壢區","MARKTYPE":"991","Class":"1"}},{"type":"Feature","id":1768,"geometry":{"type":"Point","coordinates":[121.22276647531667,24.954622362359821]},"properties":{"OBJECTID":1768,"LANDMARKID":"1000300000193","LANDMARKCO":"107","LANDMARKNA":"桃園縣政府警察局中壢派出所","LANDMARKAD":"1000302","ADDRESS":"桃園縣中壢市石頭里延平路607號","TEL":"03-4222030","COUNTYNAME":"桃園市","TOWNNAME":"中壢區","MARKTYPE":"991","Class":"1"}},{"type":"Feature","id":1769,"geometry":{"type":"Point","coordinates":[121.24948664369097,24.981030151648703]},"properties":{"OBJECTID":1769,"LANDMARKID":"1000300000194","LANDMARKCO":"107","LANDMARKNA":"桃園縣政府警察局石門派出所","LANDMARKAD":"1000302","ADDRESS":"桃園縣龍潭鄉佳安村文化路230號","TEL":"03-4712021","COUNTYNAME":"桃園市","TOWNNAME":"中壢區","MARKTYPE":"991","Class":"1"}},{"type":"Feature","id":1770,"geometry":{"type":"Point","coordinates":[121.22239745946108,24.953901192054445]},"properties":{"OBJECTID":1770,"LANDMARKID":"1000300000104","LANDMARKCO":"106","LANDMARKNA":"桃園縣中壢市戶政事務所","LANDMARKAD":"1000302","ADDRESS":"桃園縣中壢市溪洲街298號","TEL":"03-4521100","COUNTYNAME":"桃園市","TOWNNAME":"中壢區","MARKTYPE":"991","Class":"1"}},{"type":"Feature","id":1771,"geometry":{"type":"Point","coordinates":[121.22348928821403,24.95597445241086]},"properties":{"OBJECTID":1771,"LANDMARKID":"1000300000094","LANDMARKCO":"105","LANDMARKNA":"桃園縣中壢地政事務所","LANDMARKAD":"1000302","ADDRESS":"桃園縣中壢市中央西路二段30號3樓","TEL":"03-4917647","COUNTYNAME":"桃園市","TOWNNAME":"中壢區","MARKTYPE":"991","Class":"1"}},{"type":"Feature","id":1772,"geometry":{"type":"Point","coordinates":[121.22466626694855,24.959672552626241]},"properties":{"OBJECTID":1772,"LANDMARKID":"1000300000019","LANDMARKCO":"101","LANDMARKNA":"新竹區監理所桃園監理站中壢分所","LANDMARKAD":"1000302","ADDRESS":"桃園縣中壢市延平路394號","TEL":"03-4253990","COUNTYNAME":"桃園市","TOWNNAME":"中壢區","MARKTYPE":"991","Class":"1"}},{"type":"Feature","id":1773,"geometry":{"type":"Point","coordinates":[121.2231949196328,24.955343353243045]},"properties":{"OBJECTID":1773,"LANDMARKID":"1000300000085","LANDMARKCO":"104","LANDMARKNA":"北區國稅局中壢稽徵所第二辦公","LANDMARKAD":"1000302","ADDRESS":"桃園縣中壢市中平路115號","TEL":"03-4225171","COUNTYNAME":"桃園市","TOWNNAME":"中壢區","MARKTYPE":"991","Class":"1"}},{"type":"Feature","id":1774,"geometry":{"type":"Point","coordinates":[121.24371069940356,24.948989451841463]},"properties":{"OBJECTID":1774,"LANDMARKID":"1000300000020","LANDMARKCO":"101","LANDMARKNA":"國軍退除役官兵輔導委員會","LANDMARKAD":"1000302","ADDRESS":"桃園縣中壢市中山東路二段375號1樓","TEL":"03-4375863","COUNTYNAME":"桃園市","TOWNNAME":"中壢區","MARKTYPE":"991","Class":"1"}},{"type":"Feature","id":1775,"geometry":{"type":"Point","coordinates":[121.23006827087067,24.945941297185911]},"properties":{"OBJECTID":1775,"LANDMARKID":"1000300000057","LANDMARKCO":"103","LANDMARKNA":"林務局新竹林區管理處桃園縣海","LANDMARKAD":"1000302","ADDRESS":"桃園縣中壢市苑平街13號2樓","TEL":"03-4587827","COUNTYNAME":"桃園市","TOWNNAME":"中壢區","MARKTYPE":"991","Class":"1"}},{"type":"Feature","id":1776,"geometry":{"type":"Point","coordinates":[121.23940042012792,24.978973152490674]},"properties":{"OBJECTID":1776,"LANDMARKID":"1000300000021","LANDMARKCO":"101","LANDMARKNA":"工業局中壢工業區服務中心","LANDMARKAD":"1000302","ADDRESS":"桃園縣中壢市東園路57號","TEL":"03-4521444","COUNTYNAME":"桃園市","TOWNNAME":"中壢區","MARKTYPE":"991","Class":"1"}},{"type":"Feature","id":1777,"geometry":{"type":"Point","coordinates":[121.23484321628884,24.96399176523737]},"properties":{"OBJECTID":1777,"LANDMARKID":"1000300000022","LANDMARKCO":"101","LANDMARKNA":"台灣桃園地方法院中壢簡易庭","LANDMARKAD":"1000302","ADDRESS":"桃園縣中壢市中華路二段388號","TEL":"03-4621500","COUNTYNAME":"桃園市","TOWNNAME":"中壢區","MARKTYPE":"991","Class":"1"}},{"type":"Feature","id":1778,"geometry":{"type":"Point","coordinates":[121.22364024492241,24.955251733292418]},"properties":{"OBJECTID":1778,"LANDMARKID":"1000300000086","LANDMARKCO":"104","LANDMARKNA":"桃園縣政府地方稅務局中壢分局","LANDMARKAD":"1000302","ADDRESS":"中壢市普義里溪洲街296號3樓","TEL":"03-4515111","COUNTYNAME":"桃園市","TOWNNAME":"中壢區","MARKTYPE":"991","Class":"1"}},{"type":"Feature","id":1779,"geometry":{"type":"Point","coordinates":[121.22302357965498,24.95037824332973]},"properties":{"OBJECTID":1779,"LANDMARKID":"1000300000023","LANDMARKCO":"101","LANDMARKNA":"標準檢驗局新竹分局","LANDMARKAD":"1000302","ADDRESS":"桃園縣中壢市龍岡路一段46號","TEL":"03-4594791","COUNTYNAME":"桃園市","TOWNNAME":"中壢區","MARKTYPE":"991","Class":"1"}},{"type":"Feature","id":1780,"geometry":{"type":"Point","coordinates":[121.19177982896545,24.960895742713266]},"properties":{"OBJECTID":1780,"LANDMARKID":"1000300000024","LANDMARKCO":"101","LANDMARKNA":"環境保護署環境檢驗所","LANDMARKAD":"1000302","ADDRESS":"桃園縣中壢市民族路三段260號","TEL":"03-4915818","COUNTYNAME":"桃園市","TOWNNAME":"中壢區","MARKTYPE":"991","Class":"1"}},{"type":"Feature","id":1781,"geometry":{"type":"Point","coordinates":[121.22586131861755,24.958770266524855]},"properties":{"OBJECTID":1781,"LANDMARKID":"1000300000056","LANDMARKCO":"103","LANDMARKNA":"桃園縣中壢市衛生所","LANDMARKAD":"1000302","ADDRESS":"桃園縣中壢市普義里溪洲街296號","TEL":"03-4352666","COUNTYNAME":"桃園市","TOWNNAME":"中壢區","MARKTYPE":"991","Class":"1"}},{"type":"Feature","id":1782,"geometry":{"type":"Point","coordinates":[121.25648797833426,24.940663611348107]},"properties":{"OBJECTID":1782,"LANDMARKID":"1000300000177","LANDMARKCO":"107","LANDMARKNA":"桃園縣政府消防局第二搜救救助","LANDMARKAD":"1000302","ADDRESS":"桃園縣中壢市榮民南路800號4樓","TEL":"03-4568016","COUNTYNAME":"桃園市","TOWNNAME":"中壢區","MARKTYPE":"991","Class":"1"}},{"type":"Feature","id":1783,"geometry":{"type":"Point","coordinates":[121.25656794251158,24.940843905284968]},"properties":{"OBJECTID":1783,"LANDMARKID":"1000300000178","LANDMARKCO":"107","LANDMARKNA":"桃園縣消防局華勛消防分隊","LANDMARKAD":"1000302","ADDRESS":"桃園縣中壢市仁美里榮民南路800號","TEL":"03-4567991","COUNTYNAME":"桃園市","TOWNNAME":"中壢區","MARKTYPE":"991","Class":"1"}},{"type":"Feature","id":1784,"geometry":{"type":"Point","coordinates":[121.22722924929224,24.977028967598255]},"properties":{"OBJECTID":1784,"LANDMARKID":"1000300000055","LANDMARKCO":"103","LANDMARKNA":"中壢市立殯儀館","LANDMARKAD":"1000302","ADDRESS":"桃園縣中壢市培英路178之99號","TEL":"03-4522944","COUNTYNAME":"桃園市","TOWNNAME":"中壢區","MARKTYPE":"991","Class":"1"}},{"type":"Feature","id":1785,"geometry":{"type":"Point","coordinates":[121.25187136043604,25.003687880500369]},"properties":{"OBJECTID":1785,"LANDMARKID":"1000300000198","LANDMARKCO":"107","LANDMARKNA":"國公路第一警察隊中壢小隊","LANDMARKAD":"1000302","ADDRESS":"桃園縣中壢市內碇里下內壢85號之21","TEL":"03-4511323","COUNTYNAME":"桃園市","TOWNNAME":"中壢區","MARKTYPE":"991","Class":"1"}},{"type":"Feature","id":1786,"geometry":{"type":"Point","coordinates":[121.22294468220532,24.950468763675232]},"properties":{"OBJECTID":1786,"LANDMARKID":"1000300000025","LANDMARKCO":"101","LANDMARKNA":"農業委員會動植物防疫檢疫局","LANDMARKAD":"1000302","ADDRESS":"桃園縣中正機場航勤北路25號","TEL":"03-3982663","COUNTYNAME":"桃園市","TOWNNAME":"中壢區","MARKTYPE":"991","Class":"1"}},{"type":"Feature","id":1787,"geometry":{"type":"Point","coordinates":[121.25178323104338,24.974075229722008]},"properties":{"OBJECTID":1787,"LANDMARKID":"1000300000446","LANDMARKCO":"203","LANDMARKNA":"縣立元生國小","LANDMARKAD":"1000302","ADDRESS":"桃園縣中壢市文化二路161號","TEL":"03-4625566","COUNTYNAME":"桃園市","TOWNNAME":"中壢區","MARKTYPE":"992","Class":"2"}},{"type":"Feature","id":1788,"geometry":{"type":"Point","coordinates":[121.23640855149003,24.97873599582045]},"properties":{"OBJECTID":1788,"LANDMARKID":"1000300000567","LANDMARKCO":"205","LANDMARKNA":"黑松文物館","LANDMARKAD":"1000302","ADDRESS":"桃園縣中壢市中園路178號","TEL":" ","COUNTYNAME":"桃園市","TOWNNAME":"中壢區","MARKTYPE":"992","Class":"2"}},{"type":"Feature","id":1789,"geometry":{"type":"Point","coordinates":[121.22760556794026,24.958250619684986]},"properties":{"OBJECTID":1789,"LANDMARKID":"1000300000576","LANDMARKCO":"207","LANDMARKNA":"桃園縣政府文化局中壢藝術館","LANDMARKAD":"1000302","ADDRESS":"桃園縣中壢市中美路16號2樓","TEL":" ","COUNTYNAME":"桃園市","TOWNNAME":"中壢區","MARKTYPE":"992","Class":"2"}},{"type":"Feature","id":1790,"geometry":{"type":"Point","coordinates":[121.2258780843365,24.958746410671939]},"properties":{"OBJECTID":1790,"LANDMARKID":"1000300000548","LANDMARKCO":"204","LANDMARKNA":"桃園縣立圖書館中壢分館","LANDMARKAD":"1000302","ADDRESS":"桃園縣中壢市中美路76號","TEL":" ","COUNTYNAME":"桃園市","TOWNNAME":"中壢區","MARKTYPE":"992","Class":"2"}},{"type":"Feature","id":1791,"geometry":{"type":"Point","coordinates":[121.21502375467558,24.962126481996108]},"properties":{"OBJECTID":1791,"LANDMARKID":"1000300000284","LANDMARKCO":"202","LANDMARKNA":"國立中壢高商","LANDMARKAD":"1000302","ADDRESS":"中壢市中央西路二段141巷100號","TEL":"03-4929871","COUNTYNAME":"桃園市","TOWNNAME":"中壢區","MARKTYPE":"992","Class":"2"}},{"type":"Feature","id":1792,"geometry":{"type":"Point","coordinates":[121.21244991158183,24.956803155757655]},"properties":{"OBJECTID":1792,"LANDMARKID":"1000300000445","LANDMARKCO":"203","LANDMARKNA":"縣立新明國中","LANDMARKAD":"1000302","ADDRESS":"桃園縣中壢市中正路487巷18號","TEL":"03-4936194","COUNTYNAME":"桃園市","TOWNNAME":"中壢區","MARKTYPE":"992","Class":"2"}},{"type":"Feature","id":1793,"geometry":{"type":"Point","coordinates":[121.21016311815104,24.962764472334982]},"properties":{"OBJECTID":1793,"LANDMARKID":"1000300000285","LANDMARKCO":"202","LANDMARKNA":"國立中壢高中","LANDMARKAD":"1000302","ADDRESS":"桃園縣中壢市三光路115號","TEL":"03-4926300","COUNTYNAME":"桃園市","TOWNNAME":"中壢區","MARKTYPE":"992","Class":"2"}},{"type":"Feature","id":1794,"geometry":{"type":"Point","coordinates":[121.23527037834069,24.975095312083241]},"properties":{"OBJECTID":1794,"LANDMARKID":"1000300000286","LANDMARKCO":"202","LANDMARKNA":"私立啟英高中","LANDMARKAD":"1000302","ADDRESS":"桃園縣中壢市中園路447號","TEL":"03-4771196","COUNTYNAME":"桃園市","TOWNNAME":"中壢區","MARKTYPE":"992","Class":"2"}},{"type":"Feature","id":1795,"geometry":{"type":"Point","coordinates":[121.25640308180627,24.977860796198353]},"properties":{"OBJECTID":1795,"LANDMARKID":"1000300000287","LANDMARKCO":"202","LANDMARKNA":"國立內壢高中","LANDMARKAD":"1000302","ADDRESS":"桃園縣中壢市成章四街120號","TEL":"03-4528080","COUNTYNAME":"桃園市","TOWNNAME":"中壢區","MARKTYPE":"992","Class":"2"}},{"type":"Feature","id":1796,"geometry":{"type":"Point","coordinates":[121.2280128618987,24.964907234717511]},"properties":{"OBJECTID":1796,"LANDMARKID":"1000300000288","LANDMARKCO":"202","LANDMARKNA":"私立六和高中附設國中部","LANDMARKAD":"1000302","ADDRESS":"桃園縣平鎮市陸光路180號","TEL":"03-4204000","COUNTYNAME":"桃園市","TOWNNAME":"中壢區","MARKTYPE":"992","Class":"2"}},{"type":"Feature","id":1797,"geometry":{"type":"Point","coordinates":[121.24915422809832,24.971641781467902]},"properties":{"OBJECTID":1797,"LANDMARKID":"1000300000416","LANDMARKCO":"203","LANDMARKNA":"縣立內壢國中","LANDMARKAD":"1000302","ADDRESS":"桃園縣中壢市復華里復華一街108號","TEL":"03-4522494","COUNTYNAME":"桃園市","TOWNNAME":"中壢區","MARKTYPE":"992","Class":"2"}},{"type":"Feature","id":1798,"geometry":{"type":"Point","coordinates":[121.22673457140856,24.97429642635921]},"properties":{"OBJECTID":1798,"LANDMARKID":"1000300000417","LANDMARKCO":"203","LANDMARKNA":"縣立興南國中","LANDMARKAD":"1000302","ADDRESS":"桃園縣中壢市育英路55號","TEL":"03-4526295","COUNTYNAME":"桃園市","TOWNNAME":"中壢區","MARKTYPE":"992","Class":"2"}},{"type":"Feature","id":1799,"geometry":{"type":"Point","coordinates":[121.25982589344153,24.968915657814119]},"properties":{"OBJECTID":1799,"LANDMARKID":"1000300000418","LANDMARKCO":"203","LANDMARKNA":"縣立自強國中","LANDMARKAD":"1000302","ADDRESS":"桃園縣中壢市榮民路80號","TEL":"03-4553494","COUNTYNAME":"桃園市","TOWNNAME":"中壢區","MARKTYPE":"992","Class":"2"}},{"type":"Feature","id":1800,"geometry":{"type":"Point","coordinates":[121.2291128148853,24.950097300044561]},"properties":{"OBJECTID":1800,"LANDMARKID":"1000300000419","LANDMARKCO":"203","LANDMARKNA":"縣立東興國中","LANDMARKAD":"1000302","ADDRESS":"桃園縣中壢市廣州路25號","TEL":"03-4582564","COUNTYNAME":"桃園市","TOWNNAME":"中壢區","MARKTYPE":"992","Class":"2"}}]}