{"type":"FeatureCollection","features":[{"type":"Feature","id":201,"geometry":{"type":"Point","coordinates":[120.57889106135875,23.764447708130717]},"properties":{"OBJECTID":201,"LANDMARKID":"1000900000434","LANDMARKCO":"203","LANDMARKNA":"縣立重興國小","LANDMARKAD":"1000910","ADDRESS":"雲林縣林內鄉重興村重興路15號","TEL":"05-5892044","COUNTYNAME":"雲林縣","TOWNNAME":"林內鄉","MARKTYPE":"992","Class":"2"}},{"type":"Feature","id":202,"geometry":{"type":"Point","coordinates":[120.59692322555125,23.767479063819042]},"properties":{"OBJECTID":202,"LANDMARKID":"1000900000435","LANDMARKCO":"203","LANDMARKNA":"縣立民生國小","LANDMARKAD":"1000910","ADDRESS":"雲林縣林內鄉烏塗村華興路1號","TEL":"05-5892714","COUNTYNAME":"雲林縣","TOWNNAME":"林內鄉","MARKTYPE":"992","Class":"2"}},{"type":"Feature","id":203,"geometry":{"type":"Point","coordinates":[120.59378683967405,23.755279860606077]},"properties":{"OBJECTID":203,"LANDMARKID":"1000900000253","LANDMARKCO":"202","LANDMARKNA":"私立義峰高中","LANDMARKAD":"1000910","ADDRESS":"雲林縣林內鄉烏麻村長源路3之10號","TEL":"05-5898412","COUNTYNAME":"雲林縣","TOWNNAME":"林內鄉","MARKTYPE":"992","Class":"2"}},{"type":"Feature","id":204,"geometry":{"type":"Point","coordinates":[120.61460234228997,23.753974900727684]},"properties":{"OBJECTID":204,"LANDMARKID":"1000900000416","LANDMARKCO":"203","LANDMARKNA":"私立淵明國中","LANDMARKAD":"1000910","ADDRESS":"雲林縣林內鄉公園路3號","TEL":"05-5892027","COUNTYNAME":"雲林縣","TOWNNAME":"林內鄉","MARKTYPE":"992","Class":"2"}},{"type":"Feature","id":205,"geometry":{"type":"Point","coordinates":[120.64010029584304,23.756926951481809]},"properties":{"OBJECTID":205,"LANDMARKID":"1000900000417","LANDMARKCO":"203","LANDMARKNA":"縣立成功國小","LANDMARKAD":"1000910","ADDRESS":"雲林縣林內鄉坪頂村1號","TEL":"05-5892090","COUNTYNAME":"雲林縣","TOWNNAME":"林內鄉","MARKTYPE":"992","Class":"2"}},{"type":"Feature","id":206,"geometry":{"type":"Point","coordinates":[120.61498890052414,23.754970105043423]},"properties":{"OBJECTID":206,"LANDMARKID":"1000900000418","LANDMARKCO":"203","LANDMARKNA":"縣立林中國小","LANDMARKAD":"1000910","ADDRESS":"雲林縣林內鄉林中村公園路4號","TEL":"05-5892064","COUNTYNAME":"雲林縣","TOWNNAME":"林內鄉","MARKTYPE":"992","Class":"2"}},{"type":"Feature","id":207,"geometry":{"type":"Point","coordinates":[120.5950264129186,23.733798468038753]},"properties":{"OBJECTID":207,"LANDMARKID":"1000900000564","LANDMARKCO":"308","LANDMARKNA":"國3-斗六交流道-北上","LANDMARKAD":"1000910","ADDRESS":"雲林縣林內鄉","TEL":" ","COUNTYNAME":"雲林縣","TOWNNAME":"林內鄉","MARKTYPE":"993","Class":"308"}},{"type":"Feature","id":208,"geometry":{"type":"Point","coordinates":[120.61442821016958,23.759183074324547]},"properties":{"OBJECTID":208,"LANDMARKID":"1000900000505","LANDMARKCO":"301","LANDMARKNA":"林內火車站","LANDMARKAD":"1000910","ADDRESS":"雲林縣林內鄉中山路42號","TEL":"05-5892040","COUNTYNAME":"雲林縣","TOWNNAME":"林內鄉","MARKTYPE":"993","Class":"301"}},{"type":"Feature","id":209,"geometry":{"type":"Point","coordinates":[120.6128665803369,23.755526313318473]},"properties":{"OBJECTID":209,"LANDMARKID":"1000900000634","LANDMARKCO":"402","LANDMARKNA":"中華電信-林內服務中心","LANDMARKAD":"1000910","ADDRESS":"雲林縣林內鄉中正路382號","TEL":"(05)589-2081","COUNTYNAME":"雲林縣","TOWNNAME":"林內鄉","MARKTYPE":"994","Class":"4"}},{"type":"Feature","id":210,"geometry":{"type":"Point","coordinates":[120.61574654273471,23.759037242699218]},"properties":{"OBJECTID":210,"LANDMARKID":"1000900000910","LANDMARKCO":"603","LANDMARKNA":"林內大旅社","LANDMARKAD":"1000910","ADDRESS":"雲林縣林內鄉林中村中山路4號","TEL":"05-5891368","COUNTYNAME":"雲林縣","TOWNNAME":"林內鄉","MARKTYPE":"996","Class":"6"}},{"type":"Feature","id":211,"geometry":{"type":"Point","coordinates":[120.32759361753386,23.719786970829507]},"properties":{"OBJECTID":211,"LANDMARKID":"1000900000715","LANDMARKCO":"405","LANDMARKNA":"台糖加油站-龍林站(中油）","LANDMARKAD":"1000915","ADDRESS":"雲林縣褒忠鄉潮厝村潮厝46-18號","TEL":" ","COUNTYNAME":"雲林縣","TOWNNAME":"褒忠鄉","MARKTYPE":"994","Class":"4"}},{"type":"Feature","id":212,"geometry":{"type":"Point","coordinates":[120.31647276807725,23.701632847354929]},"properties":{"OBJECTID":212,"LANDMARKID":"1000900000716","LANDMARKCO":"405","LANDMARKNA":"中油加油站-褒忠站(中油直營)","LANDMARKAD":"1000915","ADDRESS":"雲林縣褒忠鄉埔姜村三民路231號","TEL":"05-6974165","COUNTYNAME":"雲林縣","TOWNNAME":"褒忠鄉","MARKTYPE":"994","Class":"4"}},{"type":"Feature","id":213,"geometry":{"type":"Point","coordinates":[120.31167946598433,23.693374003500566]},"properties":{"OBJECTID":213,"LANDMARKID":"1000900000796","LANDMARKCO":"408","LANDMARKNA":"郵局-褒忠郵局","LANDMARKAD":"1000915","ADDRESS":"雲林縣褒忠鄉三民路44號","TEL":"(05)6972-043","COUNTYNAME":"雲林縣","TOWNNAME":"褒忠鄉","MARKTYPE":"994","Class":"4"}},{"type":"Feature","id":214,"geometry":{"type":"Point","coordinates":[120.31125838839044,23.694760372853192]},"properties":{"OBJECTID":214,"LANDMARKID":"1000900000830","LANDMARKCO":"409","LANDMARKNA":"雲林縣褒忠鄉農會","LANDMARKAD":"1000915","ADDRESS":"雲林縣褒忠鄉中正路131號","TEL":"05-6972111","COUNTYNAME":"雲林縣","TOWNNAME":"褒忠鄉","MARKTYPE":"994","Class":"4"}},{"type":"Feature","id":215,"geometry":{"type":"Point","coordinates":[120.31177518159704,23.692439486304377]},"properties":{"OBJECTID":215,"LANDMARKID":"1000900000651","LANDMARKCO":"404","LANDMARKNA":"台灣省自來水褒忠營運所","LANDMARKAD":"1000915","ADDRESS":"雲林縣褒忠鄉三民路46巷17號","TEL":" ","COUNTYNAME":"雲林縣","TOWNNAME":"褒忠鄉","MARKTYPE":"994","Class":"4"}},{"type":"Feature","id":216,"geometry":{"type":"Point","coordinates":[120.27690001183268,23.698452935445392]},"properties":{"OBJECTID":216,"LANDMARKID":"1000900000766","LANDMARKCO":"406","LANDMARKNA":"中正紀念公園","LANDMARKAD":"1000915","ADDRESS":"雲林縣褒忠鄉","TEL":" ","COUNTYNAME":"雲林縣","TOWNNAME":"褒忠鄉","MARKTYPE":"994","Class":"4"}},{"type":"Feature","id":217,"geometry":{"type":"Point","coordinates":[120.30394361451478,23.691197251586406]},"properties":{"OBJECTID":217,"LANDMARKID":"1000900000227","LANDMARKCO":"108","LANDMARKNA":"雲林縣褒忠鄉公所","LANDMARKAD":"1000915","ADDRESS":"雲林縣褒忠鄉中正路451號","TEL":"05-6972005","COUNTYNAME":"雲林縣","TOWNNAME":"褒忠鄉","MARKTYPE":"991","Class":"1"}},{"type":"Feature","id":218,"geometry":{"type":"Point","coordinates":[120.30415456132313,23.693471216312773]},"properties":{"OBJECTID":218,"LANDMARKID":"1000900000081","LANDMARKCO":"103","LANDMARKNA":"雲林縣褒忠鄉衛生所","LANDMARKAD":"1000915","ADDRESS":"雲林縣褒忠鄉添財街21號","TEL":"05-6972004","COUNTYNAME":"雲林縣","TOWNNAME":"褒忠鄉","MARKTYPE":"991","Class":"1"}},{"type":"Feature","id":219,"geometry":{"type":"Point","coordinates":[120.30394361451478,23.691197251586406]},"properties":{"OBJECTID":219,"LANDMARKID":"1000900000082","LANDMARKCO":"103","LANDMARKNA":"雲林縣褒忠鄉鄉民代表會","LANDMARKAD":"1000915","ADDRESS":"雲林縣褒忠鄉中正路451號2樓","TEL":"05-6972075","COUNTYNAME":"雲林縣","TOWNNAME":"褒忠鄉","MARKTYPE":"991","Class":"1"}},{"type":"Feature","id":220,"geometry":{"type":"Point","coordinates":[120.30340892295841,23.690895870794993]},"properties":{"OBJECTID":220,"LANDMARKID":"1000900000219","LANDMARKCO":"107","LANDMARKNA":"雲林縣消防局褒忠消防分隊","LANDMARKAD":"1000915","ADDRESS":"雲林縣褒忠鄉中勝村中正路453號","TEL":"05-6972146","COUNTYNAME":"雲林縣","TOWNNAME":"褒忠鄉","MARKTYPE":"991","Class":"1"}},{"type":"Feature","id":221,"geometry":{"type":"Point","coordinates":[120.3100823624614,23.719838381294615]},"properties":{"OBJECTID":221,"LANDMARKID":"1000900000220","LANDMARKCO":"107","LANDMARKNA":"雲林縣警察局龍岩派出所","LANDMARKAD":"1000915","ADDRESS":"雲林縣褒忠鄉田洋村中新路1號","TEL":"05-6972544","COUNTYNAME":"雲林縣","TOWNNAME":"褒忠鄉","MARKTYPE":"991","Class":"1"}},{"type":"Feature","id":222,"geometry":{"type":"Point","coordinates":[120.31055103004893,23.694692135322967]},"properties":{"OBJECTID":222,"LANDMARKID":"1000900000221","LANDMARKCO":"107","LANDMARKNA":"雲林縣警察局褒忠分駐所","LANDMARKAD":"1000915","ADDRESS":"雲林縣褒忠鄉中勝村中正路274號","TEL":"05-6972040","COUNTYNAME":"雲林縣","TOWNNAME":"褒忠鄉","MARKTYPE":"991","Class":"1"}},{"type":"Feature","id":223,"geometry":{"type":"Point","coordinates":[120.30474885880771,23.692607438512411]},"properties":{"OBJECTID":223,"LANDMARKID":"1000900000110","LANDMARKCO":"106","LANDMARKNA":"雲林縣褒忠鄉戶政事務所","LANDMARKAD":"1000915","ADDRESS":"雲林縣褒忠鄉中勝村14鄰泰安路3號","TEL":"05-6972348","COUNTYNAME":"雲林縣","TOWNNAME":"褒忠鄉","MARKTYPE":"991","Class":"1"}},{"type":"Feature","id":224,"geometry":{"type":"Point","coordinates":[120.30987815475017,23.699325684925526]},"properties":{"OBJECTID":224,"LANDMARKID":"1000900000485","LANDMARKCO":"204","LANDMARKNA":"雲林縣立圖書館褒忠分館","LANDMARKAD":"1000915","ADDRESS":"雲林縣褒忠鄉埔姜村中勝路70號","TEL":" ","COUNTYNAME":"雲林縣","TOWNNAME":"褒忠鄉","MARKTYPE":"992","Class":"2"}},{"type":"Feature","id":225,"geometry":{"type":"Point","coordinates":[120.30836752382054,23.722386587493592]},"properties":{"OBJECTID":225,"LANDMARKID":"1000900000419","LANDMARKCO":"203","LANDMARKNA":"縣立龍巖國小","LANDMARKAD":"1000915","ADDRESS":"雲林縣褒忠鄉民生路28巷15號","TEL":"05-6972454","COUNTYNAME":"雲林縣","TOWNNAME":"褒忠鄉","MARKTYPE":"992","Class":"2"}},{"type":"Feature","id":226,"geometry":{"type":"Point","coordinates":[120.31078290946743,23.699191875419128]},"properties":{"OBJECTID":226,"LANDMARKID":"1000900000420","LANDMARKCO":"203","LANDMARKNA":"縣立褒忠國中","LANDMARKAD":"1000915","ADDRESS":"雲林縣褒忠鄉中勝路62號","TEL":"05-6972056","COUNTYNAME":"雲林縣","TOWNNAME":"褒忠鄉","MARKTYPE":"992","Class":"2"}},{"type":"Feature","id":227,"geometry":{"type":"Point","coordinates":[120.31045276102529,23.700857747198722]},"properties":{"OBJECTID":227,"LANDMARKID":"1000900000421","LANDMARKCO":"203","LANDMARKNA":"縣立褒忠國小","LANDMARKAD":"1000915","ADDRESS":"雲林縣褒忠鄉埔姜村中勝路72號","TEL":"05-6972054","COUNTYNAME":"雲林縣","TOWNNAME":"褒忠鄉","MARKTYPE":"992","Class":"2"}},{"type":"Feature","id":228,"geometry":{"type":"Point","coordinates":[120.28391921235668,23.70480710128442]},"properties":{"OBJECTID":228,"LANDMARKID":"1000900000422","LANDMARKCO":"203","LANDMARKNA":"縣立復興國小","LANDMARKAD":"1000915","ADDRESS":"雲林縣褒忠鄉新湖村復興路71號","TEL":"05-6972490","COUNTYNAME":"雲林縣","TOWNNAME":"褒忠鄉","MARKTYPE":"992","Class":"2"}},{"type":"Feature","id":229,"geometry":{"type":"Point","coordinates":[120.33854168707215,23.720361759118983]},"properties":{"OBJECTID":229,"LANDMARKID":"1000900000423","LANDMARKCO":"203","LANDMARKNA":"縣立潮厝國小","LANDMARKAD":"1000915","ADDRESS":"雲林縣褒忠鄉潮厝村96號","TEL":"05-6972644","COUNTYNAME":"雲林縣","TOWNNAME":"褒忠鄉","MARKTYPE":"992","Class":"2"}},{"type":"Feature","id":230,"geometry":{"type":"Point","coordinates":[120.27835129244653,23.699351762666506]},"properties":{"OBJECTID":230,"LANDMARKID":"1000900000532","LANDMARKCO":"303","LANDMARKNA":"馬鳴山鎮安宮停車場","LANDMARKAD":"1000915","ADDRESS":"雲林縣褒忠鄉鎮安路31號","TEL":" ","COUNTYNAME":"雲林縣","TOWNNAME":"褒忠鄉","MARKTYPE":"993","Class":"303"}},{"type":"Feature","id":231,"geometry":{"type":"Point","coordinates":[120.27899023292503,23.699033879701929]},"properties":{"OBJECTID":231,"LANDMARKID":"1000900000533","LANDMARKCO":"303","LANDMARKNA":"馬鳴山鎮安宮停車場","LANDMARKAD":"1000915","ADDRESS":"雲林縣褒忠鄉鎮安路31號","TEL":" ","COUNTYNAME":"雲林縣","TOWNNAME":"褒忠鄉","MARKTYPE":"993","Class":"303"}},{"type":"Feature","id":232,"geometry":{"type":"Point","coordinates":[120.31272694067906,23.69488995659637]},"properties":{"OBJECTID":232,"LANDMARKID":"1000900000506","LANDMARKCO":"302","LANDMARKNA":"台西汽車客運褒忠站","LANDMARKAD":"1000915","ADDRESS":"雲林縣褒忠鄉中正路105號","TEL":" ","COUNTYNAME":"雲林縣","TOWNNAME":"褒忠鄉","MARKTYPE":"993","Class":"302"}},{"type":"Feature","id":233,"geometry":{"type":"Point","coordinates":[120.30967565854775,23.719620121711312]},"properties":{"OBJECTID":233,"LANDMARKID":"1000900000531","LANDMARKCO":"303","LANDMARKNA":"褒忠鄉三民路停車場","LANDMARKAD":"1000915","ADDRESS":"雲林縣褒忠鄉三民路147巷","TEL":" ","COUNTYNAME":"雲林縣","TOWNNAME":"褒忠鄉","MARKTYPE":"993","Class":"303"}},{"type":"Feature","id":234,"geometry":{"type":"Point","coordinates":[120.3144300107912,23.69521904246837]},"properties":{"OBJECTID":234,"LANDMARKID":"1000900000633","LANDMARKCO":"402","LANDMARKNA":"中華電信-褒忠服務中心","LANDMARKAD":"1000915","ADDRESS":"雲林縣褒忠鄉中正路67號","TEL":"(05)697-3044","COUNTYNAME":"雲林縣","TOWNNAME":"褒忠鄉","MARKTYPE":"994","Class":"4"}},{"type":"Feature","id":235,"geometry":{"type":"Point","coordinates":[120.20276484304786,23.699059300859211]},"properties":{"OBJECTID":235,"LANDMARKID":"1000900000713","LANDMARKCO":"405","LANDMARKNA":"中油加油站-臺西站(中油直營)","LANDMARKAD":"1000916","ADDRESS":"雲林縣台西鄉中山路３６號","TEL":" ","COUNTYNAME":"雲林縣","TOWNNAME":"台西鄉","MARKTYPE":"994","Class":"4"}},{"type":"Feature","id":236,"geometry":{"type":"Point","coordinates":[120.19081358980723,23.705043507900598]},"properties":{"OBJECTID":236,"LANDMARKID":"1000900000714","LANDMARKCO":"405","LANDMARKNA":"中油加油站-全民站","LANDMARKAD":"1000916","ADDRESS":"雲林縣台西鄉海豐路398號","TEL":"05-6980160","COUNTYNAME":"雲林縣","TOWNNAME":"台西鄉","MARKTYPE":"994","Class":"4"}},{"type":"Feature","id":237,"geometry":{"type":"Point","coordinates":[120.1935075794063,23.700620923059155]},"properties":{"OBJECTID":237,"LANDMARKID":"1000900000587","LANDMARKCO":"401","LANDMARKNA":"全民醫院","LANDMARKAD":"1000916","ADDRESS":"雲林縣台西鄉中山路391號","TEL":"05-6983885","COUNTYNAME":"雲林縣","TOWNNAME":"台西鄉","MARKTYPE":"994","Class":"4"}},{"type":"Feature","id":238,"geometry":{"type":"Point","coordinates":[120.19831822982493,23.700289750818673]},"properties":{"OBJECTID":238,"LANDMARKID":"1000900000795","LANDMARKCO":"408","LANDMARKNA":"郵局-台西郵局","LANDMARKAD":"1000916","ADDRESS":"雲林縣台西鄉中山路161號","TEL":"(05)6982-048","COUNTYNAME":"雲林縣","TOWNNAME":"台西鄉","MARKTYPE":"994","Class":"4"}},{"type":"Feature","id":239,"geometry":{"type":"Point","coordinates":[120.19671748051441,23.700614448878341]},"properties":{"OBJECTID":239,"LANDMARKID":"1000900000831","LANDMARKCO":"409","LANDMARKNA":"雲林縣台西鄉農會","LANDMARKAD":"1000916","ADDRESS":"雲林縣台西鄉中山路122號","TEL":"05-6985301","COUNTYNAME":"雲林縣","TOWNNAME":"台西鄉","MARKTYPE":"994","Class":"4"}},{"type":"Feature","id":240,"geometry":{"type":"Point","coordinates":[120.19956194782178,23.700553224309736]},"properties":{"OBJECTID":240,"LANDMARKID":"1000900000652","LANDMARKCO":"404","LANDMARKNA":"台灣省自來水台西營運所","LANDMARKAD":"1000916","ADDRESS":"雲林縣台西鄉民權路7號","TEL":" ","COUNTYNAME":"雲林縣","TOWNNAME":"台西鄉","MARKTYPE":"994","Class":"4"}},{"type":"Feature","id":241,"geometry":{"type":"Point","coordinates":[120.22542005678049,23.746432072141253]},"properties":{"OBJECTID":241,"LANDMARKID":"1000900000767","LANDMARKCO":"406","LANDMARKNA":"三姓農地重劃紀念公園","LANDMARKAD":"1000916","ADDRESS":"雲林縣台西鄉","TEL":" ","COUNTYNAME":"雲林縣","TOWNNAME":"台西鄉","MARKTYPE":"994","Class":"4"}},{"type":"Feature","id":242,"geometry":{"type":"Point","coordinates":[120.20632956043528,23.714797773573785]},"properties":{"OBJECTID":242,"LANDMARKID":"1000900000712","LANDMARKCO":"405","LANDMARKNA":"台塑加油站-五港站(台塑)","LANDMARKAD":"1000916","ADDRESS":"雲林縣台西鄉五港村五港路653號","TEL":"05-6986400","COUNTYNAME":"雲林縣","TOWNNAME":"台西鄉","MARKTYPE":"994","Class":"4"}},{"type":"Feature","id":243,"geometry":{"type":"Point","coordinates":[120.19441072112234,23.700540067884535]},"properties":{"OBJECTID":243,"LANDMARKID":"1000900000229","LANDMARKCO":"108","LANDMARKNA":"雲林縣台西鄉公所","LANDMARKAD":"1000916","ADDRESS":"雲林縣台西鄉中山路293號","TEL":"05-6982004","COUNTYNAME":"雲林縣","TOWNNAME":"台西鄉","MARKTYPE":"991","Class":"1"}},{"type":"Feature","id":244,"geometry":{"type":"Point","coordinates":[120.19673673568866,23.700369171495758]},"properties":{"OBJECTID":244,"LANDMARKID":"1000900000074","LANDMARKCO":"103","LANDMARKNA":"雲林縣台西鄉鄉民代表會","LANDMARKAD":"1000916","ADDRESS":"雲林縣台西鄉中山路293號2樓","TEL":"05-6982059","COUNTYNAME":"雲林縣","TOWNNAME":"台西鄉","MARKTYPE":"991","Class":"1"}},{"type":"Feature","id":245,"geometry":{"type":"Point","coordinates":[120.1997780615106,23.698851299055733]},"properties":{"OBJECTID":245,"LANDMARKID":"1000900000075","LANDMARKCO":"103","LANDMARKNA":"雲林縣台西鄉衛生所","LANDMARKAD":"1000916","ADDRESS":"雲林縣台西鄉民生路36號","TEL":"05-6982148","COUNTYNAME":"雲林縣","TOWNNAME":"台西鄉","MARKTYPE":"991","Class":"1"}},{"type":"Feature","id":246,"geometry":{"type":"Point","coordinates":[120.19604930234915,23.700452330121696]},"properties":{"OBJECTID":246,"LANDMARKID":"1000900000208","LANDMARKCO":"107","LANDMARKNA":"雲林縣消防局台西消防分隊","LANDMARKAD":"1000916","ADDRESS":"雲林縣台西鄉中山路110巷38號","TEL":"05-6982209","COUNTYNAME":"雲林縣","TOWNNAME":"台西鄉","MARKTYPE":"991","Class":"1"}},{"type":"Feature","id":247,"geometry":{"type":"Point","coordinates":[120.19957038051632,23.700384098929167]},"properties":{"OBJECTID":247,"LANDMARKID":"1000900000209","LANDMARKCO":"107","LANDMARKNA":"雲林縣警察局台西分局","LANDMARKAD":"1000916","ADDRESS":"雲林縣台西鄉台西村中山路108號","TEL":"05-6982041","COUNTYNAME":"雲林縣","TOWNNAME":"台西鄉","MARKTYPE":"991","Class":"1"}},{"type":"Feature","id":248,"geometry":{"type":"Point","coordinates":[120.21792778484769,23.725934920135391]},"properties":{"OBJECTID":248,"LANDMARKID":"1000900000210","LANDMARKCO":"107","LANDMARKNA":"雲林縣警察局崙豐派出所","LANDMARKAD":"1000916","ADDRESS":"雲林縣台西鄉富琦村崙豐路194號","TEL":"05-6901560","COUNTYNAME":"雲林縣","TOWNNAME":"台西鄉","MARKTYPE":"991","Class":"1"}},{"type":"Feature","id":249,"geometry":{"type":"Point","coordinates":[120.19953986485652,23.700474079107725]},"properties":{"OBJECTID":249,"LANDMARKID":"1000900000211","LANDMARKCO":"107","LANDMARKNA":"雲林縣警察局台西派出所","LANDMARKAD":"1000916","ADDRESS":"雲林縣台西鄉台西村中山路108號","TEL":"05-6982224","COUNTYNAME":"雲林縣","TOWNNAME":"台西鄉","MARKTYPE":"991","Class":"1"}},{"type":"Feature","id":250,"geometry":{"type":"Point","coordinates":[120.19581398884665,23.700449885175892]},"properties":{"OBJECTID":250,"LANDMARKID":"1000900000112","LANDMARKCO":"106","LANDMARKNA":"雲林縣台西鄉戶政事務所","LANDMARKAD":"1000916","ADDRESS":"雲林縣臺西鄉民權路1號","TEL":"05-6982374","COUNTYNAME":"雲林縣","TOWNNAME":"台西鄉","MARKTYPE":"991","Class":"1"}},{"type":"Feature","id":251,"geometry":{"type":"Point","coordinates":[120.2003518613154,23.71780440790182]},"properties":{"OBJECTID":251,"LANDMARKID":"1000900000106","LANDMARKCO":"105","LANDMARKNA":"雲林縣台西地政事務所","LANDMARKAD":"1000916","ADDRESS":"雲林縣台西鄉五港村中央路420號","TEL":"05-6980579#109","COUNTYNAME":"雲林縣","TOWNNAME":"台西鄉","MARKTYPE":"991","Class":"1"}},{"type":"Feature","id":252,"geometry":{"type":"Point","coordinates":[120.1967454360537,23.700459558649097]},"properties":{"OBJECTID":252,"LANDMARKID":"1000900000076","LANDMARKCO":"103","LANDMARKNA":"雲林縣台西鄉調解委員會","LANDMARKAD":"1000916","ADDRESS":"雲林縣台西鄉中山路295號","TEL":"05-6983543","COUNTYNAME":"雲林縣","TOWNNAME":"台西鄉","MARKTYPE":"991","Class":"1"}},{"type":"Feature","id":253,"geometry":{"type":"Point","coordinates":[120.18996130550576,23.701140228924803]},"properties":{"OBJECTID":253,"LANDMARKID":"1000900000077","LANDMARKCO":"103","LANDMARKNA":"雲林縣政府台西漁港管理站","LANDMARKAD":"1000916","ADDRESS":"雲林縣台西鄉","TEL":" ","COUNTYNAME":"雲林縣","TOWNNAME":"台西鄉","MARKTYPE":"991","Class":"1"}},{"type":"Feature","id":254,"geometry":{"type":"Point","coordinates":[120.19892240876422,23.689799918761214]},"properties":{"OBJECTID":254,"LANDMARKID":"1000900000078","LANDMARKCO":"103","LANDMARKNA":"菜尾示範公墓殯儀館","LANDMARKAD":"1000916","ADDRESS":"雲林縣台西鄉","TEL":"05-6982754","COUNTYNAME":"雲林縣","TOWNNAME":"台西鄉","MARKTYPE":"991","Class":"1"}},{"type":"Feature","id":255,"geometry":{"type":"Point","coordinates":[120.2109005199713,23.738860232075062]},"properties":{"OBJECTID":255,"LANDMARKID":"1000900000482","LANDMARKCO":"204","LANDMARKNA":"雲林縣立圖書館台西分館","LANDMARKAD":"1000916","ADDRESS":"雲林縣台西鄉五港路505號","TEL":" ","COUNTYNAME":"雲林縣","TOWNNAME":"台西鄉","MARKTYPE":"992","Class":"2"}},{"type":"Feature","id":256,"geometry":{"type":"Point","coordinates":[120.19256169022421,23.70178494431967]},"properties":{"OBJECTID":256,"LANDMARKID":"1000900000436","LANDMARKCO":"203","LANDMARKNA":"縣立台西國中","LANDMARKAD":"1000916","ADDRESS":"雲林縣台西鄉中山路408號","TEL":"05-6982047","COUNTYNAME":"雲林縣","TOWNNAME":"台西鄉","MARKTYPE":"992","Class":"2"}},{"type":"Feature","id":257,"geometry":{"type":"Point","coordinates":[120.19865181011863,23.701729035442391]},"properties":{"OBJECTID":257,"LANDMARKID":"1000900000437","LANDMARKCO":"203","LANDMARKNA":"縣立台西國小","LANDMARKAD":"1000916","ADDRESS":"雲林縣台西鄉台西村民權路9號","TEL":"05-6982045","COUNTYNAME":"雲林縣","TOWNNAME":"台西鄉","MARKTYPE":"992","Class":"2"}},{"type":"Feature","id":258,"geometry":{"type":"Point","coordinates":[120.20941227780766,23.720111990166657]},"properties":{"OBJECTID":258,"LANDMARKID":"1000900000438","LANDMARKCO":"203","LANDMARKNA":"縣立崙豐國小","LANDMARKAD":"1000916","ADDRESS":"雲林縣台西鄉永豐村崙豐路42號","TEL":"05-6982142","COUNTYNAME":"雲林縣","TOWNNAME":"台西鄉","MARKTYPE":"992","Class":"2"}},{"type":"Feature","id":259,"geometry":{"type":"Point","coordinates":[120.2227519716254,23.739589795912885]},"properties":{"OBJECTID":259,"LANDMARKID":"1000900000439","LANDMARKCO":"203","LANDMARKNA":"縣立新興國小","LANDMARKAD":"1000916","ADDRESS":"雲林縣台西鄉和豐村復興路53號","TEL":"05-6900143","COUNTYNAME":"雲林縣","TOWNNAME":"台西鄉","MARKTYPE":"992","Class":"2"}},{"type":"Feature","id":260,"geometry":{"type":"Point","coordinates":[120.18950647117364,23.682986568109214]},"properties":{"OBJECTID":260,"LANDMARKID":"1000900000440","LANDMARKCO":"203","LANDMARKNA":"縣立尚德國小","LANDMARKAD":"1000916","ADDRESS":"雲林縣台西鄉溪頂村12號","TEL":"05-6982074","COUNTYNAME":"雲林縣","TOWNNAME":"台西鄉","MARKTYPE":"992","Class":"2"}},{"type":"Feature","id":261,"geometry":{"type":"Point","coordinates":[120.22816632094288,23.689593570111217]},"properties":{"OBJECTID":261,"LANDMARKID":"1000900000441","LANDMARKCO":"203","LANDMARKNA":"縣立台西國小五榔分校","LANDMARKAD":"1000916","ADDRESS":"雲林縣台西鄉五榔村17號","TEL":"05-6982784","COUNTYNAME":"雲林縣","TOWNNAME":"台西鄉","MARKTYPE":"992","Class":"2"}},{"type":"Feature","id":262,"geometry":{"type":"Point","coordinates":[120.20386745246353,23.675568998441211]},"properties":{"OBJECTID":262,"LANDMARKID":"1000900000442","LANDMARKCO":"203","LANDMARKNA":"縣立泉州國小","LANDMARKAD":"1000916","ADDRESS":"雲林縣台西鄉牛厝村舊泉州20號","TEL":"05-6982145","COUNTYNAME":"雲林縣","TOWNNAME":"台西鄉","MARKTYPE":"992","Class":"2"}},{"type":"Feature","id":263,"geometry":{"type":"Point","coordinates":[120.17388138992573,23.703619906950056]},"properties":{"OBJECTID":263,"LANDMARKID":"1000900000535","LANDMARKCO":"305","LANDMARKNA":"台西漁港","LANDMARKAD":"1000916","ADDRESS":"雲林縣台西鄉","TEL":" ","COUNTYNAME":"雲林縣","TOWNNAME":"台西鄉","MARKTYPE":"993","Class":"305"}},{"type":"Feature","id":264,"geometry":{"type":"Point","coordinates":[120.19377388480792,23.712301787384419]},"properties":{"OBJECTID":264,"LANDMARKID":"1000900000559","LANDMARKCO":"308","LANDMARKNA":"台61-五條港交流道-南下","LANDMARKAD":"1000916","ADDRESS":" ","TEL":" ","COUNTYNAME":"雲林縣","TOWNNAME":"台西鄉","MARKTYPE":"993","Class":"308"}},{"type":"Feature","id":265,"geometry":{"type":"Point","coordinates":[120.20442620986651,23.714694661006931]},"properties":{"OBJECTID":265,"LANDMARKID":"1000900000560","LANDMARKCO":"308","LANDMARKNA":"台61-五條港交流道-北上","LANDMARKAD":"1000916","ADDRESS":" ","TEL":" ","COUNTYNAME":"雲林縣","TOWNNAME":"台西鄉","MARKTYPE":"993","Class":"308"}},{"type":"Feature","id":266,"geometry":{"type":"Point","coordinates":[120.22198360544658,23.728742968753195]},"properties":{"OBJECTID":266,"LANDMARKID":"1000900000561","LANDMARKCO":"308","LANDMARKNA":"台61-下新興交流道-南下","LANDMARKAD":"1000916","ADDRESS":" ","TEL":" ","COUNTYNAME":"雲林縣","TOWNNAME":"台西鄉","MARKTYPE":"993","Class":"308"}},{"type":"Feature","id":267,"geometry":{"type":"Point","coordinates":[120.23717887196806,23.736762992384119]},"properties":{"OBJECTID":267,"LANDMARKID":"1000900000562","LANDMARKCO":"308","LANDMARKNA":"台61-湖子內交流道-南下","LANDMARKAD":"1000916","ADDRESS":" ","TEL":" ","COUNTYNAME":"雲林縣","TOWNNAME":"台西鄉","MARKTYPE":"993","Class":"308"}},{"type":"Feature","id":268,"geometry":{"type":"Point","coordinates":[120.18562924425362,23.689649800427315]},"properties":{"OBJECTID":268,"LANDMARKID":"1000900000563","LANDMARKCO":"308","LANDMARKNA":"台78-蘇厝平交路口-東行","LANDMARKAD":"1000916","ADDRESS":"雲林縣台西鄉","TEL":" ","COUNTYNAME":"雲林縣","TOWNNAME":"台西鄉","MARKTYPE":"993","Class":"308"}},{"type":"Feature","id":269,"geometry":{"type":"Point","coordinates":[120.19868393086531,23.698425076335983]},"properties":{"OBJECTID":269,"LANDMARKID":"1000900000507","LANDMARKCO":"302","LANDMARKNA":"台西汽車客運台西站","LANDMARKAD":"1000916","ADDRESS":"雲林縣台西鄉民族路65號","TEL":" ","COUNTYNAME":"雲林縣","TOWNNAME":"台西鄉","MARKTYPE":"993","Class":"302"}},{"type":"Feature","id":270,"geometry":{"type":"Point","coordinates":[120.19594434193843,23.700492234493677]},"properties":{"OBJECTID":270,"LANDMARKID":"1000900000530","LANDMARKCO":"303","LANDMARKNA":"台西鄉停一停車場","LANDMARKAD":"1000916","ADDRESS":"雲林縣台西鄉中山路293號","TEL":" ","COUNTYNAME":"雲林縣","TOWNNAME":"台西鄉","MARKTYPE":"993","Class":"303"}},{"type":"Feature","id":271,"geometry":{"type":"Point","coordinates":[120.19920547329228,23.697636342652746]},"properties":{"OBJECTID":271,"LANDMARKID":"1000900000629","LANDMARKCO":"402","LANDMARKNA":"中華電信-台西服務中心","LANDMARKAD":"1000916","ADDRESS":"雲林縣台西鄉民生路78號","TEL":"(05)698-0824","COUNTYNAME":"雲林縣","TOWNNAME":"台西鄉","MARKTYPE":"994","Class":"4"}},{"type":"Feature","id":272,"geometry":{"type":"Point","coordinates":[120.1973245924665,23.700393601573726]},"properties":{"OBJECTID":272,"LANDMARKID":"1000900000911","LANDMARKCO":"603","LANDMARKNA":"大豐旅社","LANDMARKAD":"1000916","ADDRESS":"雲林縣台西鄉台西村中山路223號","TEL":"05-6981176","COUNTYNAME":"雲林縣","TOWNNAME":"台西鄉","MARKTYPE":"996","Class":"6"}},{"type":"Feature","id":273,"geometry":{"type":"Point","coordinates":[120.43289950165902,23.70914264396027]},"properties":{"OBJECTID":273,"LANDMARKID":"1000900000704","LANDMARKCO":"405","LANDMARKNA":"中油加油站-亞柏虎尾站","LANDMARKAD":"1000903","ADDRESS":"雲林縣虎尾鎮德興里林森路一段530號","TEL":"05-6311266","COUNTYNAME":"雲林縣","TOWNNAME":"虎尾鎮","MARKTYPE":"994","Class":"4"}},{"type":"Feature","id":274,"geometry":{"type":"Point","coordinates":[120.43605174996156,23.707146425387062]},"properties":{"OBJECTID":274,"LANDMARKID":"1000900000705","LANDMARKCO":"405","LANDMARKNA":"中油加油站-虎尾新生路站(中油直營)","LANDMARKAD":"1000903","ADDRESS":"雲林縣虎尾鎮新生路155號","TEL":"05-6322812","COUNTYNAME":"雲林縣","TOWNNAME":"虎尾鎮","MARKTYPE":"994","Class":"4"}},{"type":"Feature","id":275,"geometry":{"type":"Point","coordinates":[120.44666595597714,23.70904818718002]},"properties":{"OBJECTID":275,"LANDMARKID":"1000900000706","LANDMARKCO":"405","LANDMARKNA":"中油加油站-虎尾站(中油直營)","LANDMARKAD":"1000903","ADDRESS":"雲林縣虎尾鎮平和里光復路131號","TEL":"05-6322524","COUNTYNAME":"雲林縣","TOWNNAME":"虎尾鎮","MARKTYPE":"994","Class":"4"}},{"type":"Feature","id":276,"geometry":{"type":"Point","coordinates":[120.40896175143951,23.684928094476874]},"properties":{"OBJECTID":276,"LANDMARKID":"1000900000707","LANDMARKCO":"405","LANDMARKNA":"中油加油站-永美站","LANDMARKAD":"1000903","ADDRESS":"雲林縣虎尾鎮延平里中南58號","TEL":"056-327947","COUNTYNAME":"雲林縣","TOWNNAME":"虎尾鎮","MARKTYPE":"994","Class":"4"}},{"type":"Feature","id":277,"geometry":{"type":"Point","coordinates":[120.45967362831973,23.696703297188421]},"properties":{"OBJECTID":277,"LANDMARKID":"1000900000708","LANDMARKCO":"405","LANDMARKNA":"中油加油站-雲林斗南交流道站(中油直營)","LANDMARKAD":"1000903","ADDRESS":"雲林縣虎尾鎮興南里竹圍60號","TEL":"05-6366381","COUNTYNAME":"雲林縣","TOWNNAME":"虎尾鎮","MARKTYPE":"994","Class":"4"}},{"type":"Feature","id":278,"geometry":{"type":"Point","coordinates":[120.46069076993867,23.697952940622578]},"properties":{"OBJECTID":278,"LANDMARKID":"1000900000709","LANDMARKCO":"405","LANDMARKNA":"台灣優力加油站-虎尾站（中油）","LANDMARKAD":"1000903","ADDRESS":"雲林縣虎尾鎮平和里平和24-80號","TEL":"05-6325884","COUNTYNAME":"雲林縣","TOWNNAME":"虎尾鎮","MARKTYPE":"994","Class":"4"}},{"type":"Feature","id":279,"geometry":{"type":"Point","coordinates":[120.44101810921728,23.717634135356253]},"properties":{"OBJECTID":279,"LANDMARKID":"1000900000710","LANDMARKCO":"405","LANDMARKNA":"統一速邁樂加油站-虎尾加油站（中油）","LANDMARKAD":"1000903","ADDRESS":"雲林縣虎尾鎮林森路一段96號","TEL":" ","COUNTYNAME":"雲林縣","TOWNNAME":"虎尾鎮","MARKTYPE":"994","Class":"4"}},{"type":"Feature","id":280,"geometry":{"type":"Point","coordinates":[120.44031857892395,23.716325977888385]},"properties":{"OBJECTID":280,"LANDMARKID":"1000900000711","LANDMARKCO":"405","LANDMARKNA":"中油加油站-大華站","LANDMARKAD":"1000903","ADDRESS":"雲林縣虎尾鎮林森路一段107-27號","TEL":"05-63608558","COUNTYNAME":"雲林縣","TOWNNAME":"虎尾鎮","MARKTYPE":"994","Class":"4"}},{"type":"Feature","id":281,"geometry":{"type":"Point","coordinates":[120.43394524744186,23.709481176291593]},"properties":{"OBJECTID":281,"LANDMARKID":"1000900000630","LANDMARKCO":"402","LANDMARKNA":"My Phone台灣大哥大-雲林虎尾直營服務中心","LANDMARKAD":"1000903","ADDRESS":"雲林縣虎尾鎮林森路1段488-3號","TEL":" ","COUNTYNAME":"雲林縣","TOWNNAME":"虎尾鎮","MARKTYPE":"994","Class":"4"}},{"type":"Feature","id":282,"geometry":{"type":"Point","coordinates":[120.43161989258225,23.708228264218103]},"properties":{"OBJECTID":282,"LANDMARKID":"1000900000631","LANDMARKCO":"402","LANDMARKNA":"亞太行動寬頻電信-虎尾林森加盟服務中心","LANDMARKAD":"1000903","ADDRESS":"雲林縣虎尾鎮林森路一段535號","TEL":"05-6336757","COUNTYNAME":"雲林縣","TOWNNAME":"虎尾鎮","MARKTYPE":"994","Class":"4"}},{"type":"Feature","id":283,"geometry":{"type":"Point","coordinates":[120.427778925616,23.703090371039941]},"properties":{"OBJECTID":283,"LANDMARKID":"1000900000632","LANDMARKCO":"402","LANDMARKNA":"亞太行動寬頻電信-虎尾科大加盟服務中心","LANDMARKAD":"1000903","ADDRESS":"雲林縣虎尾鎮林森路二段261號","TEL":"05-6328599","COUNTYNAME":"雲林縣","TOWNNAME":"虎尾鎮","MARKTYPE":"994","Class":"4"}},{"type":"Feature","id":284,"geometry":{"type":"Point","coordinates":[120.43787667710507,23.708217507587527]},"properties":{"OBJECTID":284,"LANDMARKID":"1000900000588","LANDMARKCO":"401","LANDMARKNA":"財團法人天主教若瑟醫院","LANDMARKAD":"1000903","ADDRESS":"雲林縣虎尾鎮新生路74號","TEL":"05-6337333","COUNTYNAME":"雲林縣","TOWNNAME":"虎尾鎮","MARKTYPE":"994","Class":"4"}},{"type":"Feature","id":285,"geometry":{"type":"Point","coordinates":[120.42687444898124,23.735508697669502]},"properties":{"OBJECTID":285,"LANDMARKID":"1000900000589","LANDMARKCO":"401","LANDMARKNA":"國立臺灣大學醫學院附設醫院雲林分院-","LANDMARKAD":"1000903","ADDRESS":"雲林縣虎尾鎮興中里15鄰興中360號","TEL":"05-6330002","COUNTYNAME":"雲林縣","TOWNNAME":"虎尾鎮","MARKTYPE":"994","Class":"4"}},{"type":"Feature","id":286,"geometry":{"type":"Point","coordinates":[120.43343937842982,23.70900796090547]},"properties":{"OBJECTID":286,"LANDMARKID":"1000900000791","LANDMARKCO":"408","LANDMARKNA":"郵局-虎尾郵局","LANDMARKAD":"1000903","ADDRESS":"雲林縣虎尾鎮林森路1段495號","TEL":"(05)6334-310","COUNTYNAME":"雲林縣","TOWNNAME":"虎尾鎮","MARKTYPE":"994","Class":"4"}},{"type":"Feature","id":287,"geometry":{"type":"Point","coordinates":[120.43794306259217,23.709870428910701]},"properties":{"OBJECTID":287,"LANDMARKID":"1000900000792","LANDMARKCO":"408","LANDMARKNA":"郵局-虎尾圓環郵局","LANDMARKAD":"1000903","ADDRESS":"雲林縣虎尾鎮光復路387號","TEL":"(05)6324-204","COUNTYNAME":"雲林縣","TOWNNAME":"虎尾鎮","MARKTYPE":"994","Class":"4"}},{"type":"Feature","id":288,"geometry":{"type":"Point","coordinates":[120.43597004533578,23.703888599133546]},"properties":{"OBJECTID":288,"LANDMARKID":"1000900000793","LANDMARKCO":"408","LANDMARKNA":"郵局-虎尾安慶郵局","LANDMARKAD":"1000903","ADDRESS":"雲林縣虎尾鎮民主路1-1號","TEL":"(05)6324-284","COUNTYNAME":"雲林縣","TOWNNAME":"虎尾鎮","MARKTYPE":"994","Class":"4"}},{"type":"Feature","id":289,"geometry":{"type":"Point","coordinates":[120.42957361309286,23.701686025978105]},"properties":{"OBJECTID":289,"LANDMARKID":"1000900000794","LANDMARKCO":"408","LANDMARKNA":"郵局-虎尾科技大學郵局","LANDMARKAD":"1000903","ADDRESS":"雲林縣虎尾鎮文化路64號","TEL":"(05)6326-035","COUNTYNAME":"雲林縣","TOWNNAME":"虎尾鎮","MARKTYPE":"994","Class":"4"}},{"type":"Feature","id":290,"geometry":{"type":"Point","coordinates":[120.43675989079627,23.70910996478241]},"properties":{"OBJECTID":290,"LANDMARKID":"1000900000832","LANDMARKCO":"409","LANDMARKNA":"雲林縣虎尾鎮農會","LANDMARKAD":"1000903","ADDRESS":"雲林縣虎尾鎮和平路68號","TEL":"05-6323511","COUNTYNAME":"雲林縣","TOWNNAME":"虎尾鎮","MARKTYPE":"994","Class":"4"}},{"type":"Feature","id":291,"geometry":{"type":"Point","coordinates":[120.44846263491529,23.705642496599655]},"properties":{"OBJECTID":291,"LANDMARKID":"1000900000833","LANDMARKCO":"409","LANDMARKNA":"虎尾魚市場","LANDMARKAD":"1000903","ADDRESS":"虎尾鎮平和里光明路68號","TEL":"05-6322179　","COUNTYNAME":"雲林縣","TOWNNAME":"虎尾鎮","MARKTYPE":"994","Class":"4"}},{"type":"Feature","id":292,"geometry":{"type":"Point","coordinates":[120.43267084107698,23.712819834563991]},"properties":{"OBJECTID":292,"LANDMARKID":"1000900000653","LANDMARKCO":"404","LANDMARKNA":"台灣省自來水虎尾營運所","LANDMARKAD":"1000903","ADDRESS":"雲林縣虎尾鎮明正路21號","TEL":" ","COUNTYNAME":"雲林縣","TOWNNAME":"虎尾鎮","MARKTYPE":"994","Class":"4"}},{"type":"Feature","id":293,"geometry":{"type":"Point","coordinates":[120.43690941772179,23.71832154332445]},"properties":{"OBJECTID":293,"LANDMARKID":"1000900000768","LANDMARKCO":"406","LANDMARKNA":"虎尾馬術公園","LANDMARKAD":"1000903","ADDRESS":"雲林縣虎尾鎮","TEL":" ","COUNTYNAME":"雲林縣","TOWNNAME":"虎尾鎮","MARKTYPE":"994","Class":"4"}},{"type":"Feature","id":294,"geometry":{"type":"Point","coordinates":[120.42773896888542,23.715434575356401]},"properties":{"OBJECTID":294,"LANDMARKID":"1000900000769","LANDMARKCO":"406","LANDMARKNA":"廉使公園","LANDMARKAD":"1000903","ADDRESS":"雲林縣虎尾鎮","TEL":" ","COUNTYNAME":"雲林縣","TOWNNAME":"虎尾鎮","MARKTYPE":"994","Class":"4"}},{"type":"Feature","id":295,"geometry":{"type":"Point","coordinates":[120.42285013581359,23.714180201926442]},"properties":{"OBJECTID":295,"LANDMARKID":"1000900000770","LANDMARKCO":"406","LANDMARKNA":"社區公園","LANDMARKAD":"1000903","ADDRESS":"雲林縣虎尾鎮","TEL":" ","COUNTYNAME":"雲林縣","TOWNNAME":"虎尾鎮","MARKTYPE":"994","Class":"4"}},{"type":"Feature","id":296,"geometry":{"type":"Point","coordinates":[120.4346467474743,23.712588706523164]},"properties":{"OBJECTID":296,"LANDMARKID":"1000900000771","LANDMARKCO":"406","LANDMARKNA":"虎尾公園","LANDMARKAD":"1000903","ADDRESS":"雲林縣虎尾鎮","TEL":" ","COUNTYNAME":"雲林縣","TOWNNAME":"虎尾鎮","MARKTYPE":"994","Class":"4"}},{"type":"Feature","id":297,"geometry":{"type":"Point","coordinates":[120.43625630182849,23.702882320218617]},"properties":{"OBJECTID":297,"LANDMARKID":"1000900000772","LANDMARKCO":"406","LANDMARKNA":"同心公園","LANDMARKAD":"1000903","ADDRESS":"雲林縣虎尾鎮","TEL":" ","COUNTYNAME":"雲林縣","TOWNNAME":"虎尾鎮","MARKTYPE":"994","Class":"4"}},{"type":"Feature","id":298,"geometry":{"type":"Point","coordinates":[120.43597193337793,23.708477092752666]},"properties":{"OBJECTID":298,"LANDMARKID":"1000900000776","LANDMARKCO":"407","LANDMARKNA":"三商百貨","LANDMARKAD":"1000903","ADDRESS":"雲林縣虎尾鎮和平路105號","TEL":"05-6322533","COUNTYNAME":"雲林縣","TOWNNAME":"虎尾鎮","MARKTYPE":"994","Class":"4"}},{"type":"Feature","id":299,"geometry":{"type":"Point","coordinates":[120.42920785314581,23.717994475771054]},"properties":{"OBJECTID":299,"LANDMARKID":"1000900000701","LANDMARKCO":"405","LANDMARKNA":"福懋加油站-虎尾站(台塑)","LANDMARKAD":"1000903","ADDRESS":"雲林縣虎尾鎮廉使里廉使123號","TEL":"05-6366368","COUNTYNAME":"雲林縣","TOWNNAME":"虎尾鎮","MARKTYPE":"994","Class":"4"}},{"type":"Feature","id":300,"geometry":{"type":"Point","coordinates":[120.45272191120156,23.705559127594338]},"properties":{"OBJECTID":300,"LANDMARKID":"1000900000702","LANDMARKCO":"405","LANDMARKNA":"台亞加油站-虎尾站（台塑）","LANDMARKAD":"1000903","ADDRESS":"雲林縣虎尾鎮平和里平和1-2號","TEL":"(05)632-8802","COUNTYNAME":"雲林縣","TOWNNAME":"虎尾鎮","MARKTYPE":"994","Class":"4"}},{"type":"Feature","id":301,"geometry":{"type":"Point","coordinates":[120.41917646870714,23.693821506112151]},"properties":{"OBJECTID":301,"LANDMARKID":"1000900000703","LANDMARKCO":"405","LANDMARKNA":"福懋加油站-林森站(台塑)","LANDMARKAD":"1000903","ADDRESS":"雲林縣虎尾鎮頂南路19號","TEL":"05-6328921","COUNTYNAME":"雲林縣","TOWNNAME":"虎尾鎮","MARKTYPE":"994","Class":"4"}},{"type":"Feature","id":302,"geometry":{"type":"Point","coordinates":[120.43338463660174,23.71585202857759]},"properties":{"OBJECTID":302,"LANDMARKID":"1000900000005","LANDMARKCO":"101","LANDMARKNA":"台灣雲林地方法院虎尾簡易庭","LANDMARKAD":"1000903","ADDRESS":"雲林縣虎尾鎮明正路40巷5號","TEL":"05-6336511","COUNTYNAME":"雲林縣","TOWNNAME":"虎尾鎮","MARKTYPE":"991","Class":"1"}},{"type":"Feature","id":303,"geometry":{"type":"Point","coordinates":[120.44508408991373,23.70836787760139]},"properties":{"OBJECTID":303,"LANDMARKID":"1000900000228","LANDMARKCO":"108","LANDMARKNA":"雲林縣虎尾鎮公所","LANDMARKAD":"1000903","ADDRESS":"雲林縣虎尾鎮行政路6號","TEL":"05-6322132","COUNTYNAME":"雲林縣","TOWNNAME":"虎尾鎮","MARKTYPE":"991","Class":"1"}},{"type":"Feature","id":304,"geometry":{"type":"Point","coordinates":[120.43368713897503,23.714609131060126]},"properties":{"OBJECTID":304,"LANDMARKID":"1000900000072","LANDMARKCO":"103","LANDMARKNA":"雲林縣虎尾鎮衛生所","LANDMARKAD":"1000903","ADDRESS":"雲林縣虎尾鎮明正路11號","TEL":"05-6322211","COUNTYNAME":"雲林縣","TOWNNAME":"虎尾鎮","MARKTYPE":"991","Class":"1"}},{"type":"Feature","id":305,"geometry":{"type":"Point","coordinates":[120.44508408991373,23.70836787760139]},"properties":{"OBJECTID":305,"LANDMARKID":"1000900000073","LANDMARKCO":"103","LANDMARKNA":"雲林縣虎尾鎮鎮民代表會","LANDMARKAD":"1000903","ADDRESS":"雲林縣虎尾鎮行政路6號","TEL":"05-6328139","COUNTYNAME":"雲林縣","TOWNNAME":"虎尾鎮","MARKTYPE":"991","Class":"1"}},{"type":"Feature","id":306,"geometry":{"type":"Point","coordinates":[120.44498886062837,23.708866992083173]},"properties":{"OBJECTID":306,"LANDMARKID":"1000900000212","LANDMARKCO":"107","LANDMARKNA":"雲林縣消防局第二消防大隊部","LANDMARKAD":"1000903","ADDRESS":"雲林縣虎尾鎮行政路10號","TEL":"05-6322150","COUNTYNAME":"雲林縣","TOWNNAME":"虎尾鎮","MARKTYPE":"991","Class":"1"}},{"type":"Feature","id":307,"geometry":{"type":"Point","coordinates":[120.44498886062837,23.708866992083173]},"properties":{"OBJECTID":307,"LANDMARKID":"1000900000213","LANDMARKCO":"107","LANDMARKNA":"雲林縣消防局虎尾消防分隊","LANDMARKAD":"1000903","ADDRESS":"雲林縣虎尾鎮行政路10號","TEL":"05-6322150","COUNTYNAME":"雲林縣","TOWNNAME":"虎尾鎮","MARKTYPE":"991","Class":"1"}},{"type":"Feature","id":308,"geometry":{"type":"Point","coordinates":[120.44537800923028,23.709073855619849]},"properties":{"OBJECTID":308,"LANDMARKID":"1000900000214","LANDMARKCO":"107","LANDMARKNA":"雲林縣警察局虎尾分局","LANDMARKAD":"1000903","ADDRESS":"雲林縣虎尾鎮新興里光復路151號","TEL":"05-6331771","COUNTYNAME":"雲林縣","TOWNNAME":"虎尾鎮","MARKTYPE":"991","Class":"1"}},{"type":"Feature","id":309,"geometry":{"type":"Point","coordinates":[120.44578872139145,23.722493098582571]},"properties":{"OBJECTID":309,"LANDMARKID":"1000900000215","LANDMARKCO":"107","LANDMARKNA":"雲林縣警察局埒內派出所","LANDMARKAD":"1000903","ADDRESS":"雲林縣虎尾鎮埒內里埒內45號","TEL":"05-6221995","COUNTYNAME":"雲林縣","TOWNNAME":"虎尾鎮","MARKTYPE":"991","Class":"1"}},{"type":"Feature","id":310,"geometry":{"type":"Point","coordinates":[120.44537800923028,23.709073855619849]},"properties":{"OBJECTID":310,"LANDMARKID":"1000900000216","LANDMARKCO":"107","LANDMARKNA":"雲林縣警察局虎尾派出所","LANDMARKAD":"1000903","ADDRESS":"雲林縣虎尾鎮新興里光復路151號","TEL":"05-6322118","COUNTYNAME":"雲林縣","TOWNNAME":"虎尾鎮","MARKTYPE":"991","Class":"1"}},{"type":"Feature","id":311,"geometry":{"type":"Point","coordinates":[120.44491991568121,23.708728342228873]},"properties":{"OBJECTID":311,"LANDMARKID":"1000900000111","LANDMARKCO":"106","LANDMARKNA":"雲林縣虎尾鎮戶政事務所","LANDMARKAD":"1000903","ADDRESS":"雲林縣虎尾鎮新興里行政路8號","TEL":"05-6329274","COUNTYNAME":"雲林縣","TOWNNAME":"虎尾鎮","MARKTYPE":"991","Class":"1"}},{"type":"Feature","id":312,"geometry":{"type":"Point","coordinates":[120.44488409582847,23.707980011269573]},"properties":{"OBJECTID":312,"LANDMARKID":"1000900000105","LANDMARKCO":"105","LANDMARKNA":"雲林縣虎尾地政事務所","LANDMARKAD":"1000903","ADDRESS":"雲林縣虎尾鎮新興里光明路120號","TEL":"05-6322070","COUNTYNAME":"雲林縣","TOWNNAME":"虎尾鎮","MARKTYPE":"991","Class":"1"}},{"type":"Feature","id":313,"geometry":{"type":"Point","coordinates":[120.44528349134782,23.707775642738156]},"properties":{"OBJECTID":313,"LANDMARKID":"1000900000095","LANDMARKCO":"104","LANDMARKNA":"中區國稅局虎尾稽徵所","LANDMARKAD":"1000903","ADDRESS":"雲林縣虎尾鎮光明路118號4樓","TEL":"05-6338571","COUNTYNAME":"雲林縣","TOWNNAME":"虎尾鎮","MARKTYPE":"991","Class":"1"}},{"type":"Feature","id":314,"geometry":{"type":"Point","coordinates":[120.43416912678654,23.715715823736737]},"properties":{"OBJECTID":314,"LANDMARKID":"1000900000006","LANDMARKCO":"101","LANDMARKNA":"台灣雲林地方法院","LANDMARKAD":"1000903","ADDRESS":"雲林縣虎尾鎮明正路38號","TEL":"05-6336511","COUNTYNAME":"雲林縣","TOWNNAME":"虎尾鎮","MARKTYPE":"991","Class":"1"}},{"type":"Feature","id":315,"geometry":{"type":"Point","coordinates":[120.43642472237212,23.688863791187455]},"properties":{"OBJECTID":315,"LANDMARKID":"1000900000007","LANDMARKCO":"101","LANDMARKNA":"台灣雲林監獄","LANDMARKAD":"1000903","ADDRESS":"雲林縣虎尾鎮興南里仁愛新村1號","TEL":"05-6339660","COUNTYNAME":"雲林縣","TOWNNAME":"虎尾鎮","MARKTYPE":"991","Class":"1"}},{"type":"Feature","id":316,"geometry":{"type":"Point","coordinates":[120.40193120669643,23.711191255046831]},"properties":{"OBJECTID":316,"LANDMARKID":"1000900000008","LANDMARKCO":"101","LANDMARKNA":"台灣雲林第二監獄","LANDMARKAD":"1000903","ADDRESS":"雲林縣虎尾鎮建國里建國四村5之18號","TEL":"05-6362788","COUNTYNAME":"雲林縣","TOWNNAME":"虎尾鎮","MARKTYPE":"991","Class":"1"}},{"type":"Feature","id":317,"geometry":{"type":"Point","coordinates":[120.43416912678654,23.715715823736737]},"properties":{"OBJECTID":317,"LANDMARKID":"1000900000009","LANDMARKCO":"101","LANDMARKNA":"財團法人犯罪被害人保護協會","LANDMARKAD":"1000903","ADDRESS":"雲林縣虎尾鎮明正路38號","TEL":"05-6329914","COUNTYNAME":"雲林縣","TOWNNAME":"虎尾鎮","MARKTYPE":"991","Class":"1"}},{"type":"Feature","id":318,"geometry":{"type":"Point","coordinates":[120.43416912678654,23.715715823736737]},"properties":{"OBJECTID":318,"LANDMARKID":"1000900000010","LANDMARKCO":"101","LANDMARKNA":"台灣更生保護會雲林分會","LANDMARKAD":"1000903","ADDRESS":"雲林縣虎尾鎮明正路38號","TEL":"05-6320041","COUNTYNAME":"雲林縣","TOWNNAME":"虎尾鎮","MARKTYPE":"991","Class":"1"}},{"type":"Feature","id":319,"geometry":{"type":"Point","coordinates":[120.44528349134782,23.707775642738156]},"properties":{"OBJECTID":319,"LANDMARKID":"1000900000096","LANDMARKCO":"104","LANDMARKNA":"雲林縣稅務局虎尾分局","LANDMARKAD":"1000903","ADDRESS":"雲林縣虎尾鎮光明路118號","TEL":"05-6338940","COUNTYNAME":"雲林縣","TOWNNAME":"虎尾鎮","MARKTYPE":"991","Class":"1"}},{"type":"Feature","id":320,"geometry":{"type":"Point","coordinates":[120.48856756151486,23.728151955346853]},"properties":{"OBJECTID":320,"LANDMARKID":"1000900000217","LANDMARKCO":"107","LANDMARKNA":"雲林縣警察局惠來派出所","LANDMARKAD":"1000903","ADDRESS":"雲林縣虎尾鎮惠來里惠來路100號","TEL":"05-6222065","COUNTYNAME":"雲林縣","TOWNNAME":"虎尾鎮","MARKTYPE":"991","Class":"1"}},{"type":"Feature","id":321,"geometry":{"type":"Point","coordinates":[120.38804688713009,23.702503668851293]},"properties":{"OBJECTID":321,"LANDMARKID":"1000900000218","LANDMARKCO":"107","LANDMARKNA":"雲林縣警察局東屯派出所","LANDMARKAD":"1000903","ADDRESS":"雲林縣虎尾鎮東屯里大屯路143號","TEL":"05-6651474","COUNTYNAME":"雲林縣","TOWNNAME":"虎尾鎮","MARKTYPE":"991","Class":"1"}},{"type":"Feature","id":322,"geometry":{"type":"Point","coordinates":[120.48668470620713,23.724193320279497]},"properties":{"OBJECTID":322,"LANDMARKID":"1000900000071","LANDMARKCO":"103","LANDMARKNA":"虎尾鎮殯儀館","LANDMARKAD":"1000903","ADDRESS":"雲林縣虎尾鎮惠來里201號","TEL":"05-6224472","COUNTYNAME":"雲林縣","TOWNNAME":"虎尾鎮","MARKTYPE":"991","Class":"1"}},{"type":"Feature","id":323,"geometry":{"type":"Point","coordinates":[120.43629315166901,23.703787186141717]},"properties":{"OBJECTID":323,"LANDMARKID":"1000900000499","LANDMARKCO":"205","LANDMARKNA":"虎尾糖廠糖業文物館","LANDMARKAD":"1000903","ADDRESS":"雲林縣虎尾鎮中山路2號","TEL":"05-6321540","COUNTYNAME":"雲林縣","TOWNNAME":"虎尾鎮","MARKTYPE":"992","Class":"2"}},{"type":"Feature","id":324,"geometry":{"type":"Point","coordinates":[120.43315431984232,23.714090041401832]},"properties":{"OBJECTID":324,"LANDMARKID":"1000900000486","LANDMARKCO":"204","LANDMARKNA":"雲林縣立圖書館虎尾分館","LANDMARKAD":"1000903","ADDRESS":"雲林縣虎尾鎮水源路14號","TEL":" ","COUNTYNAME":"雲林縣","TOWNNAME":"虎尾鎮","MARKTYPE":"992","Class":"2"}},{"type":"Feature","id":325,"geometry":{"type":"Point","coordinates":[120.43524822348967,23.714691788320081]},"properties":{"OBJECTID":325,"LANDMARKID":"1000900000258","LANDMARKCO":"202","LANDMARKNA":"國立虎尾農工","LANDMARKAD":"1000903","ADDRESS":"雲林縣虎尾鎮公安里博愛路65號","TEL":"05-6322767","COUNTYNAME":"雲林縣","TOWNNAME":"虎尾鎮","MARKTYPE":"992","Class":"2"}},{"type":"Feature","id":326,"geometry":{"type":"Point","coordinates":[120.44560259033356,23.711204823204294]},"properties":{"OBJECTID":326,"LANDMARKID":"1000900000259","LANDMARKCO":"202","LANDMARKNA":"私立大成商工","LANDMARKAD":"1000903","ADDRESS":"雲林縣虎尾鎮光復路130號","TEL":"05-6322534","COUNTYNAME":"雲林縣","TOWNNAME":"虎尾鎮","MARKTYPE":"992","Class":"2"}},{"type":"Feature","id":327,"geometry":{"type":"Point","coordinates":[120.44209215131164,23.710231389970659]},"properties":{"OBJECTID":327,"LANDMARKID":"1000900000260","LANDMARKCO":"202","LANDMARKNA":"國立虎尾高中","LANDMARKAD":"1000903","ADDRESS":"雲林縣虎尾鎮光復路222號","TEL":"05-6322121","COUNTYNAME":"雲林縣","TOWNNAME":"虎尾鎮","MARKTYPE":"992","Class":"2"}},{"type":"Feature","id":328,"geometry":{"type":"Point","coordinates":[120.42395658012514,23.696403323060053]},"properties":{"OBJECTID":328,"LANDMARKID":"1000900000261","LANDMARKCO":"202","LANDMARKNA":"私立揚子高中","LANDMARKAD":"1000903","ADDRESS":"雲林縣虎尾鎮潁川里林森路二段541號","TEL":"05-6330181","COUNTYNAME":"雲林縣","TOWNNAME":"虎尾鎮","MARKTYPE":"992","Class":"2"}},{"type":"Feature","id":329,"geometry":{"type":"Point","coordinates":[120.42395658012514,23.696403323060053]},"properties":{"OBJECTID":329,"LANDMARKID":"1000900000262","LANDMARKCO":"202","LANDMARKNA":"私立揚子高中附設國中部","LANDMARKAD":"1000903","ADDRESS":"雲林縣虎尾鎮潁川里林森路二段541號","TEL":"05-6330181","COUNTYNAME":"雲林縣","TOWNNAME":"虎尾鎮","MARKTYPE":"992","Class":"2"}},{"type":"Feature","id":330,"geometry":{"type":"Point","coordinates":[120.44015740926925,23.714096901193987]},"properties":{"OBJECTID":330,"LANDMARKID":"1000900000385","LANDMARKCO":"203","LANDMARKNA":"縣立東仁國中","LANDMARKAD":"1000903","ADDRESS":"雲林縣虎尾鎮東明路85號","TEL":"05-6312888","COUNTYNAME":"雲林縣","TOWNNAME":"虎尾鎮","MARKTYPE":"992","Class":"2"}},{"type":"Feature","id":331,"geometry":{"type":"Point","coordinates":[120.43371501639766,23.703393372010673]},"properties":{"OBJECTID":331,"LANDMARKID":"1000900000386","LANDMARKCO":"203","LANDMARKNA":"縣立安慶國小","LANDMARKAD":"1000903","ADDRESS":"雲林縣虎尾鎮民主路36號","TEL":"05-6322161","COUNTYNAME":"雲林縣","TOWNNAME":"虎尾鎮","MARKTYPE":"992","Class":"2"}},{"type":"Feature","id":332,"geometry":{"type":"Point","coordinates":[120.4278941219344,23.70582063907365]},"properties":{"OBJECTID":332,"LANDMARKID":"1000900000387","LANDMARKCO":"203","LANDMARKNA":"縣立立仁國小","LANDMARKAD":"1000903","ADDRESS":"雲林縣虎尾鎮立仁街40號","TEL":"05-6322205","COUNTYNAME":"雲林縣","TOWNNAME":"虎尾鎮","MARKTYPE":"992","Class":"2"}},{"type":"Feature","id":333,"geometry":{"type":"Point","coordinates":[120.45124245841389,23.707512585846136]},"properties":{"OBJECTID":333,"LANDMARKID":"1000900000388","LANDMARKCO":"203","LANDMARKNA":"縣立平和國小","LANDMARKAD":"1000903","ADDRESS":"雲林縣虎尾鎮平和里光復路22號","TEL":"05-6322742","COUNTYNAME":"雲林縣","TOWNNAME":"虎尾鎮","MARKTYPE":"992","Class":"2"}},{"type":"Feature","id":334,"geometry":{"type":"Point","coordinates":[120.43147954217207,23.713473921170788]},"properties":{"OBJECTID":334,"LANDMARKID":"1000900000389","LANDMARKCO":"203","LANDMARKNA":"縣立虎尾國小","LANDMARKAD":"1000903","ADDRESS":"雲林縣虎尾鎮明正路88號","TEL":"05-6322026","COUNTYNAME":"雲林縣","TOWNNAME":"虎尾鎮","MARKTYPE":"992","Class":"2"}},{"type":"Feature","id":335,"geometry":{"type":"Point","coordinates":[120.44154054974348,23.71900468802621]},"properties":{"OBJECTID":335,"LANDMARKID":"1000900000390","LANDMARKCO":"203","LANDMARKNA":"縣立中正國小","LANDMARKAD":"1000903","ADDRESS":"雲林縣虎尾鎮林森路一段64號","TEL":"05-6322710","COUNTYNAME":"雲林縣","TOWNNAME":"虎尾鎮","MARKTYPE":"992","Class":"2"}},{"type":"Feature","id":336,"geometry":{"type":"Point","coordinates":[120.42957053664348,23.701690156528585]},"properties":{"OBJECTID":336,"LANDMARKID":"1000900000245","LANDMARKCO":"201","LANDMARKNA":"國立虎尾科技大學","LANDMARKAD":"1000903","ADDRESS":"雲林縣虎尾鎮文化路64號","TEL":"05-6315000","COUNTYNAME":"雲林縣","TOWNNAME":"虎尾鎮","MARKTYPE":"992","Class":"2"}},{"type":"Feature","id":337,"geometry":{"type":"Point","coordinates":[120.45716684041206,23.723617948880147]},"properties":{"OBJECTID":337,"LANDMARKID":"1000900000391","LANDMARKCO":"203","LANDMARKNA":"縣立虎尾國中","LANDMARKAD":"1000903","ADDRESS":"雲林縣虎尾鎮中興路153號","TEL":"05-6220981","COUNTYNAME":"雲林縣","TOWNNAME":"虎尾鎮","MARKTYPE":"992","Class":"2"}},{"type":"Feature","id":338,"geometry":{"type":"Point","coordinates":[120.4170006965706,23.716514610214247]},"properties":{"OBJECTID":338,"LANDMARKID":"1000900000392","LANDMARKCO":"203","LANDMARKNA":"縣立崇德國中","LANDMARKAD":"1000903","ADDRESS":"雲林縣虎尾鎮廉使里50號","TEL":"05-6322806","COUNTYNAME":"雲林縣","TOWNNAME":"虎尾鎮","MARKTYPE":"992","Class":"2"}},{"type":"Feature","id":339,"geometry":{"type":"Point","coordinates":[120.48467231551676,23.729580112609725]},"properties":{"OBJECTID":339,"LANDMARKID":"1000900000393","LANDMARKCO":"203","LANDMARKNA":"縣立惠來國小","LANDMARKAD":"1000903","ADDRESS":"雲林縣虎尾鎮惠來里114號","TEL":"05-6222344","COUNTYNAME":"雲林縣","TOWNNAME":"虎尾鎮","MARKTYPE":"992","Class":"2"}},{"type":"Feature","id":340,"geometry":{"type":"Point","coordinates":[120.38819511092004,23.701330974181378]},"properties":{"OBJECTID":340,"LANDMARKID":"1000900000394","LANDMARKCO":"203","LANDMARKNA":"縣立大屯國小","LANDMARKAD":"1000903","ADDRESS":"雲林縣虎尾鎮東屯里147號","TEL":"05-6651284","COUNTYNAME":"雲林縣","TOWNNAME":"虎尾鎮","MARKTYPE":"992","Class":"2"}},{"type":"Feature","id":341,"geometry":{"type":"Point","coordinates":[120.42064735431507,23.716983000456363]},"properties":{"OBJECTID":341,"LANDMARKID":"1000900000395","LANDMARKCO":"203","LANDMARKNA":"縣立廉使國小","LANDMARKAD":"1000903","ADDRESS":"雲林縣虎尾鎮廉使里32號","TEL":"05-6322703","COUNTYNAME":"雲林縣","TOWNNAME":"虎尾鎮","MARKTYPE":"992","Class":"2"}},{"type":"Feature","id":342,"geometry":{"type":"Point","coordinates":[120.40113070079475,23.741017517942048]},"properties":{"OBJECTID":342,"LANDMARKID":"1000900000396","LANDMARKCO":"203","LANDMARKNA":"縣立光復國小","LANDMARKAD":"1000903","ADDRESS":"雲林縣虎尾鎮墾地里11鄰光復莊39號","TEL":"05-6326357","COUNTYNAME":"雲林縣","TOWNNAME":"虎尾鎮","MARKTYPE":"992","Class":"2"}},{"type":"Feature","id":343,"geometry":{"type":"Point","coordinates":[120.40782714851368,23.708721738673145]},"properties":{"OBJECTID":343,"LANDMARKID":"1000900000397","LANDMARKCO":"203","LANDMARKNA":"縣立拯民國小","LANDMARKAD":"1000903","ADDRESS":"雲林縣虎尾鎮建國3村10號","TEL":"05-6326451","COUNTYNAME":"雲林縣","TOWNNAME":"虎尾鎮","MARKTYPE":"992","Class":"2"}},{"type":"Feature","id":344,"geometry":{"type":"Point","coordinates":[120.46340656788287,23.727163605591304]},"properties":{"OBJECTID":344,"LANDMARKID":"1000900000398","LANDMARKCO":"203","LANDMARKNA":"縣立中溪國小","LANDMARKAD":"1000903","ADDRESS":"雲林縣虎尾鎮頂溪里過溪路64號","TEL":"05-6222385","COUNTYNAME":"雲林縣","TOWNNAME":"虎尾鎮","MARKTYPE":"992","Class":"2"}},{"type":"Feature","id":345,"geometry":{"type":"Point","coordinates":[120.41715128260284,23.688524629350265]},"properties":{"OBJECTID":345,"LANDMARKID":"1000900000552","LANDMARKCO":"308","LANDMARKNA":"台78-虎尾交流道-東行","LANDMARKAD":"1000903","ADDRESS":"雲林縣虎尾鎮","TEL":" ","COUNTYNAME":"雲林縣","TOWNNAME":"虎尾鎮","MARKTYPE":"993","Class":"308"}},{"type":"Feature","id":346,"geometry":{"type":"Point","coordinates":[120.41288732313892,23.690727751564339]},"properties":{"OBJECTID":346,"LANDMARKID":"1000900000553","LANDMARKCO":"308","LANDMARKNA":"台78-虎尾交流道-西行","LANDMARKAD":"1000903","ADDRESS":"雲林縣虎尾鎮","TEL":" ","COUNTYNAME":"雲林縣","TOWNNAME":"虎尾鎮","MARKTYPE":"993","Class":"308"}},{"type":"Feature","id":347,"geometry":{"type":"Point","coordinates":[120.43372760105531,23.715219633067253]},"properties":{"OBJECTID":347,"LANDMARKID":"1000900000524","LANDMARKCO":"303","LANDMARKNA":"雲林地方法院停車場","LANDMARKAD":"1000903","ADDRESS":"雲林縣虎尾鎮明正路","TEL":" ","COUNTYNAME":"雲林縣","TOWNNAME":"虎尾鎮","MARKTYPE":"993","Class":"303"}},{"type":"Feature","id":348,"geometry":{"type":"Point","coordinates":[120.42883493175755,23.704570058082744]},"properties":{"OBJECTID":348,"LANDMARKID":"1000900000608","LANDMARKCO":"402","LANDMARKNA":"中華電信-虎尾林森特約服務中心","LANDMARKAD":"1000903","ADDRESS":"雲林縣虎尾鎮林森路二段175號","TEL":"05-6363699","COUNTYNAME":"雲林縣","TOWNNAME":"虎尾鎮","MARKTYPE":"994","Class":"4"}},{"type":"Feature","id":349,"geometry":{"type":"Point","coordinates":[120.43591248646933,23.707409746274969]},"properties":{"OBJECTID":349,"LANDMARKID":"1000900000609","LANDMARKCO":"402","LANDMARKNA":"中華電信-虎尾服務中心","LANDMARKAD":"1000903","ADDRESS":"雲林縣虎尾鎮新生路136號","TEL":"(05)6324400","COUNTYNAME":"雲林縣","TOWNNAME":"虎尾鎮","MARKTYPE":"994","Class":"4"}},{"type":"Feature","id":350,"geometry":{"type":"Point","coordinates":[120.43416004974547,23.70959113989425]},"properties":{"OBJECTID":350,"LANDMARKID":"1000900000610","LANDMARKCO":"402","LANDMARKNA":"遠傳電信-雲林虎尾門市","LANDMARKAD":"1000903","ADDRESS":"雲林縣虎尾鎮林森路一段486號","TEL":" ","COUNTYNAME":"雲林縣","TOWNNAME":"虎尾鎮","MARKTYPE":"994","Class":"4"}},{"type":"Feature","id":351,"geometry":{"type":"Point","coordinates":[120.42956174584351,23.704439973380229]},"properties":{"OBJECTID":351,"LANDMARKID":"1000900000611","LANDMARKCO":"402","LANDMARKNA":"威寶電信-虎尾中正特約服務中心","LANDMARKAD":"1000903","ADDRESS":"雲林縣虎尾鎮中正路306號","TEL":"05-6321188","COUNTYNAME":"雲林縣","TOWNNAME":"虎尾鎮","MARKTYPE":"994","Class":"4"}},{"type":"Feature","id":352,"geometry":{"type":"Point","coordinates":[120.43841167770782,23.710117634875164]},"properties":{"OBJECTID":352,"LANDMARKID":"1000900000612","LANDMARKCO":"402","LANDMARKNA":"威寶電信-虎尾光復特約服務中心","LANDMARKAD":"1000903","ADDRESS":"雲林縣虎尾鎮光復路316-1號","TEL":"05-6321008","COUNTYNAME":"雲林縣","TOWNNAME":"虎尾鎮","MARKTYPE":"994","Class":"4"}},{"type":"Feature","id":353,"geometry":{"type":"Point","coordinates":[120.4565038485179,23.70679940398081]},"properties":{"OBJECTID":353,"LANDMARKID":"1000900000862","LANDMARKCO":"603","LANDMARKNA":"風華渡假旅館","LANDMARKAD":"1000903","ADDRESS":"雲林縣虎尾鎮平和里平和20-15號","TEL":"05-6366666","COUNTYNAME":"雲林縣","TOWNNAME":"虎尾鎮","MARKTYPE":"996","Class":"6"}},{"type":"Feature","id":354,"geometry":{"type":"Point","coordinates":[120.4377436857187,23.710248229979435]},"properties":{"OBJECTID":354,"LANDMARKID":"1000900000863","LANDMARKCO":"603","LANDMARKNA":"華南大旅社","LANDMARKAD":"1000903","ADDRESS":"雲林縣虎尾鎮光復路346-1號1","TEL":"3-4樓","COUNTYNAME":"雲林縣","TOWNNAME":"虎尾鎮","MARKTYPE":"996","Class":"6"}},{"type":"Feature","id":355,"geometry":{"type":"Point","coordinates":[120.43770993219493,23.710753651450286]},"properties":{"OBJECTID":355,"LANDMARKID":"1000900000864","LANDMARKCO":"603","LANDMARKNA":"上毅飯店","LANDMARKAD":"1000903","ADDRESS":"雲林縣虎尾鎮信義路28號","TEL":"05-6310311","COUNTYNAME":"雲林縣","TOWNNAME":"虎尾鎮","MARKTYPE":"996","Class":"6"}},{"type":"Feature","id":356,"geometry":{"type":"Point","coordinates":[120.43802106645941,23.708778394203591]},"properties":{"OBJECTID":356,"LANDMARKID":"1000900000865","LANDMARKCO":"603","LANDMARKNA":"天生大飯店","LANDMARKAD":"1000903","ADDRESS":"雲林縣虎尾鎮民生路11號","TEL":"05-6322126","COUNTYNAME":"雲林縣","TOWNNAME":"虎尾鎮","MARKTYPE":"996","Class":"6"}},{"type":"Feature","id":357,"geometry":{"type":"Point","coordinates":[120.4345520655644,23.709621094678422]},"properties":{"OBJECTID":357,"LANDMARKID":"1000900000866","LANDMARKCO":"603","LANDMARKNA":"琥珀旅社","LANDMARKAD":"1000903","ADDRESS":"雲林縣虎尾鎮新興路88號4-6樓","TEL":"05-6325772","COUNTYNAME":"雲林縣","TOWNNAME":"虎尾鎮","MARKTYPE":"996","Class":"6"}},{"type":"Feature","id":358,"geometry":{"type":"Point","coordinates":[120.52765564249917,23.70080696704543]},"properties":{"OBJECTID":358,"LANDMARKID":"1000900000748","LANDMARKCO":"405","LANDMARKNA":"中油加油站-斗六站(中油直營)","LANDMARKAD":"1000901","ADDRESS":"雲林縣斗六市雲林路二段334號","TEL":"05-5322534","COUNTYNAME":"雲林縣","TOWNNAME":"斗六市","MARKTYPE":"994","Class":"4"}},{"type":"Feature","id":359,"geometry":{"type":"Point","coordinates":[120.55760157686342,23.71248773589944]},"properties":{"OBJECTID":359,"LANDMARKID":"1000900000749","LANDMARKCO":"405","LANDMARKNA":"中油加油站-斗六南環路站(中油直營)","LANDMARKAD":"1000901","ADDRESS":"雲林縣斗六市文化路522號","TEL":"05-5339692","COUNTYNAME":"雲林縣","TOWNNAME":"斗六市","MARKTYPE":"994","Class":"4"}},{"type":"Feature","id":360,"geometry":{"type":"Point","coordinates":[120.55634155399122,23.710866918661839]},"properties":{"OBJECTID":360,"LANDMARKID":"1000900000750","LANDMARKCO":"405","LANDMARKNA":"中油加油站-新南環路站","LANDMARKAD":"1000901","ADDRESS":"雲林縣斗六市鎮東里大學路1段28號","TEL":"05-5321629","COUNTYNAME":"雲林縣","TOWNNAME":"斗六市","MARKTYPE":"994","Class":"4"}},{"type":"Feature","id":361,"geometry":{"type":"Point","coordinates":[120.58124931121785,23.721851465729731]},"properties":{"OBJECTID":361,"LANDMARKID":"1000900000751","LANDMARKCO":"405","LANDMARKNA":"中油加油站-北基斗中站","LANDMARKAD":"1000901","ADDRESS":"雲林縣斗六市榴中里石榴路59-8號","TEL":"055-570120","COUNTYNAME":"雲林縣","TOWNNAME":"斗六市","MARKTYPE":"994","Class":"4"}},{"type":"Feature","id":362,"geometry":{"type":"Point","coordinates":[120.54816224913175,23.700613851572015]},"properties":{"OBJECTID":362,"LANDMARKID":"1000900000752","LANDMARKCO":"405","LANDMARKNA":"中油加油站-大學站","LANDMARKAD":"1000901","ADDRESS":"雲林縣斗六市大學路二段268號","TEL":"05-5341685","COUNTYNAME":"雲林縣","TOWNNAME":"斗六市","MARKTYPE":"994","Class":"4"}},{"type":"Feature","id":363,"geometry":{"type":"Point","coordinates":[120.58911241657285,23.727100630317569]},"properties":{"OBJECTID":363,"LANDMARKID":"1000900000753","LANDMARKCO":"405","LANDMARKNA":"中油加油站-佳得美石榴站","LANDMARKAD":"1000901","ADDRESS":"雲林縣斗六市榴中里石榴路230號","TEL":"05-5576998","COUNTYNAME":"雲林縣","TOWNNAME":"斗六市","MARKTYPE":"994","Class":"4"}},{"type":"Feature","id":364,"geometry":{"type":"Point","coordinates":[120.53056872102216,23.692828266925105]},"properties":{"OBJECTID":364,"LANDMARKID":"1000900000754","LANDMARKCO":"405","LANDMARKNA":"台糖加油站-文化站（中油）","LANDMARKAD":"1000901","ADDRESS":"雲林縣斗六市大學路三段301號","TEL":" ","COUNTYNAME":"雲林縣","TOWNNAME":"斗六市","MARKTYPE":"994","Class":"4"}},{"type":"Feature","id":365,"geometry":{"type":"Point","coordinates":[120.52112419289118,23.728647464186754]},"properties":{"OBJECTID":365,"LANDMARKID":"1000900000755","LANDMARKCO":"405","LANDMARKNA":"中油加油站-臺灣斗六站","LANDMARKAD":"1000901","ADDRESS":"雲林縣斗六市虎溪里西平路739號","TEL":"055-515639","COUNTYNAME":"雲林縣","TOWNNAME":"斗六市","MARKTYPE":"994","Class":"4"}},{"type":"Feature","id":366,"geometry":{"type":"Point","coordinates":[120.56184007937382,23.714903864284825]},"properties":{"OBJECTID":366,"LANDMARKID":"1000900000756","LANDMARKCO":"405","LANDMARKNA":"中油加油站-佳得美黑松站","LANDMARKAD":"1000901","ADDRESS":"雲林縣斗六市八德里文化路567號","TEL":"05-5320288","COUNTYNAME":"雲林縣","TOWNNAME":"斗六市","MARKTYPE":"994","Class":"4"}},{"type":"Feature","id":367,"geometry":{"type":"Point","coordinates":[120.54737433657871,23.718836579851082]},"properties":{"OBJECTID":367,"LANDMARKID":"1000900000757","LANDMARKCO":"405","LANDMARKNA":"統一速邁樂加油站-斗六加油站（中油）","LANDMARKAD":"1000901","ADDRESS":"雲林縣斗六市明德北路一段432號","TEL":" ","COUNTYNAME":"雲林縣","TOWNNAME":"斗六市","MARKTYPE":"994","Class":"4"}},{"type":"Feature","id":368,"geometry":{"type":"Point","coordinates":[120.52361855253112,23.726686343276015]},"properties":{"OBJECTID":368,"LANDMARKID":"1000900000758","LANDMARKCO":"405","LANDMARKNA":"中油加油站-雅虎站(中油直營)","LANDMARKAD":"1000901","ADDRESS":"雲林縣斗六市虎溪里西平路776號","TEL":"05-5514796","COUNTYNAME":"雲林縣","TOWNNAME":"斗六市","MARKTYPE":"994","Class":"4"}},{"type":"Feature","id":369,"geometry":{"type":"Point","coordinates":[120.54878933883863,23.699954929634046]},"properties":{"OBJECTID":369,"LANDMARKID":"1000900000759","LANDMARKCO":"405","LANDMARKNA":"中油加油站-佳得美斗六站","LANDMARKAD":"1000901","ADDRESS":"雲林縣斗六市大學路二段245號","TEL":"05-5320577","COUNTYNAME":"雲林縣","TOWNNAME":"斗六市","MARKTYPE":"994","Class":"4"}},{"type":"Feature","id":370,"geometry":{"type":"Point","coordinates":[120.53663478592009,23.672731043932007]},"properties":{"OBJECTID":370,"LANDMARKID":"1000900000760","LANDMARKCO":"405","LANDMARKNA":"中油加油站-日升站","LANDMARKAD":"1000901","ADDRESS":"雲林縣斗六市溝埧里仁義路182號","TEL":"05-5222218","COUNTYNAME":"雲林縣","TOWNNAME":"斗六市","MARKTYPE":"994","Class":"4"}},{"type":"Feature","id":371,"geometry":{"type":"Point","coordinates":[120.54349252766946,23.711435491038287]},"properties":{"OBJECTID":371,"LANDMARKID":"1000900000604","LANDMARKCO":"402","LANDMARKNA":"My Phone台灣大哥大-斗六鎮北直營服務中心","LANDMARKAD":"1000901","ADDRESS":"雲林縣斗六市鎮北路10號","TEL":"0809-000-166","COUNTYNAME":"雲林縣","TOWNNAME":"斗六市","MARKTYPE":"994","Class":"4"}},{"type":"Feature","id":372,"geometry":{"type":"Point","coordinates":[120.54716430637774,23.710889045573591]},"properties":{"OBJECTID":372,"LANDMARKID":"1000900000605","LANDMARKCO":"402","LANDMARKNA":"亞太行動寬頻電信-斗六文化加盟服務中心","LANDMARKAD":"1000901","ADDRESS":"雲林縣斗六市文化路74號","TEL":"05-5377715","COUNTYNAME":"雲林縣","TOWNNAME":"斗六市","MARKTYPE":"994","Class":"4"}},{"type":"Feature","id":373,"geometry":{"type":"Point","coordinates":[120.54325597515171,23.711605661495096]},"properties":{"OBJECTID":373,"LANDMARKID":"1000900000606","LANDMARKCO":"402","LANDMARKNA":"亞太行動寬頻電信-斗六鎮北加盟服務中心","LANDMARKAD":"1000901","ADDRESS":"雲林縣斗六市鎮北路9號","TEL":"05-5351818","COUNTYNAME":"雲林縣","TOWNNAME":"斗六市","MARKTYPE":"994","Class":"4"}},{"type":"Feature","id":374,"geometry":{"type":"Point","coordinates":[120.53806415221507,23.699654116723735]},"properties":{"OBJECTID":374,"LANDMARKID":"1000900000607","LANDMARKCO":"402","LANDMARKNA":"亞太行動寬頻電信-斗六中山加盟服務中心","LANDMARKAD":"1000901","ADDRESS":"雲林縣斗六市中山路360號","TEL":"05-5337185","COUNTYNAME":"雲林縣","TOWNNAME":"斗六市","MARKTYPE":"994","Class":"4"}},{"type":"Feature","id":375,"geometry":{"type":"Point","coordinates":[120.54879237388811,23.71087234401497]},"properties":{"OBJECTID":375,"LANDMARKID":"1000900000592","LANDMARKCO":"401","LANDMARKNA":"洪揚醫院","LANDMARKAD":"1000901","ADDRESS":"雲林縣斗六市文化路138號","TEL":"05-5323039","COUNTYNAME":"雲林縣","TOWNNAME":"斗六市","MARKTYPE":"994","Class":"4"}},{"type":"Feature","id":376,"geometry":{"type":"Point","coordinates":[120.5259286891567,23.697663993592229]},"properties":{"OBJECTID":376,"LANDMARKID":"1000900000593","LANDMARKCO":"401","LANDMARKNA":"國立臺灣大學醫學院附設醫院雲林分院-","LANDMARKAD":"1000901","ADDRESS":"雲林縣斗六市鎮西里雲林路二段579號","TEL":"05-5323911","COUNTYNAME":"雲林縣","TOWNNAME":"斗六市","MARKTYPE":"994","Class":"4"}},{"type":"Feature","id":377,"geometry":{"type":"Point","coordinates":[120.54510075409793,23.703039113273778]},"properties":{"OBJECTID":377,"LANDMARKID":"1000900000594","LANDMARKCO":"401","LANDMARKNA":"國立成功大學醫學院附設醫院斗六分院","LANDMARKAD":"1000901","ADDRESS":"雲林縣斗六市莊敬路345號","TEL":"05-5322017","COUNTYNAME":"雲林縣","TOWNNAME":"斗六市","MARKTYPE":"994","Class":"4"}},{"type":"Feature","id":378,"geometry":{"type":"Point","coordinates":[120.54696614396894,23.708341475941314]},"properties":{"OBJECTID":378,"LANDMARKID":"1000900000595","LANDMARKCO":"401","LANDMARKNA":"安生醫院","LANDMARKAD":"1000901","ADDRESS":"雲林縣斗六市仁愛里永樂街120號","TEL":"05-5325386","COUNTYNAME":"雲林縣","TOWNNAME":"斗六市","MARKTYPE":"994","Class":"4"}},{"type":"Feature","id":379,"geometry":{"type":"Point","coordinates":[120.51125358029199,23.668639590832356]},"properties":{"OBJECTID":379,"LANDMARKID":"1000900000596","LANDMARKCO":"401","LANDMARKNA":"信安醫院","LANDMARKAD":"1000901","ADDRESS":"雲林縣斗六市瓦厝路159號","TEL":"05-5223788","COUNTYNAME":"雲林縣","TOWNNAME":"斗六市","MARKTYPE":"994","Class":"4"}},{"type":"Feature","id":380,"geometry":{"type":"Point","coordinates":[120.52600204830945,23.698696520344271]},"properties":{"OBJECTID":380,"LANDMARKID":"1000900000861","LANDMARKCO":"512","LANDMARKNA":"雲林縣風景區管理所","LANDMARKAD":"1000901","ADDRESS":"雲林縣斗六市雲林路二段519號3樓","TEL":"05-5345466","COUNTYNAME":"雲林縣","TOWNNAME":"斗六市","MARKTYPE":"995","Class":"5"}},{"type":"Feature","id":381,"geometry":{"type":"Point","coordinates":[120.53847418692764,23.679032649536101]},"properties":{"OBJECTID":381,"LANDMARKID":"1000900000778","LANDMARKCO":"408","LANDMARKNA":"郵局-斗六大崙郵局","LANDMARKAD":"1000901","ADDRESS":"雲林縣斗六市仁義路89號","TEL":"(05)5222-884","COUNTYNAME":"雲林縣","TOWNNAME":"斗六市","MARKTYPE":"994","Class":"4"}},{"type":"Feature","id":382,"geometry":{"type":"Point","coordinates":[120.58901703920884,23.721725593861795]},"properties":{"OBJECTID":382,"LANDMARKID":"1000900000779","LANDMARKCO":"408","LANDMARKNA":"郵局-斗六石榴郵局","LANDMARKAD":"1000901","ADDRESS":"雲林縣斗六市榴中里工業路77號","TEL":"(05)5573-894","COUNTYNAME":"雲林縣","TOWNNAME":"斗六市","MARKTYPE":"994","Class":"4"}},{"type":"Feature","id":383,"geometry":{"type":"Point","coordinates":[120.53971568248986,23.713001619037652]},"properties":{"OBJECTID":383,"LANDMARKID":"1000900000780","LANDMARKCO":"408","LANDMARKNA":"郵局-斗六鎮北郵局","LANDMARKAD":"1000901","ADDRESS":"雲林縣斗六市慶生路37號","TEL":"(05)5325-702","COUNTYNAME":"雲林縣","TOWNNAME":"斗六市","MARKTYPE":"994","Class":"4"}},{"type":"Feature","id":384,"geometry":{"type":"Point","coordinates":[120.54780326449227,23.710667948491587]},"properties":{"OBJECTID":384,"LANDMARKID":"1000900000781","LANDMARKCO":"408","LANDMARKNA":"郵局-斗六永安郵局","LANDMARKAD":"1000901","ADDRESS":"雲林縣斗六市永安路8號","TEL":"(05)5321-272","COUNTYNAME":"雲林縣","TOWNNAME":"斗六市","MARKTYPE":"994","Class":"4"}},{"type":"Feature","id":385,"geometry":{"type":"Point","coordinates":[120.53962287482827,23.706731256371771]},"properties":{"OBJECTID":385,"LANDMARKID":"1000900000782","LANDMARKCO":"408","LANDMARKNA":"郵局-斗六西平路郵局","LANDMARKAD":"1000901","ADDRESS":"雲林縣斗六市西平路1號","TEL":"(05)5322-245","COUNTYNAME":"雲林縣","TOWNNAME":"斗六市","MARKTYPE":"994","Class":"4"}},{"type":"Feature","id":386,"geometry":{"type":"Point","coordinates":[120.54104392404527,23.70934010339403]},"properties":{"OBJECTID":386,"LANDMARKID":"1000900000841","LANDMARKCO":"409","LANDMARKNA":"雲林縣斗六市農會","LANDMARKAD":"1000901","ADDRESS":"雲林縣斗六市雲林路一段18號","TEL":"05-5322041","COUNTYNAME":"雲林縣","TOWNNAME":"斗六市","MARKTYPE":"994","Class":"4"}},{"type":"Feature","id":387,"geometry":{"type":"Point","coordinates":[120.54860895330421,23.707290091503996]},"properties":{"OBJECTID":387,"LANDMARKID":"1000900000647","LANDMARKCO":"404","LANDMARKNA":"台灣省自來水斗六營運所","LANDMARKAD":"1000901","ADDRESS":"雲林縣斗六市成功路293號","TEL":" ","COUNTYNAME":"雲林縣","TOWNNAME":"斗六市","MARKTYPE":"994","Class":"4"}},{"type":"Feature","id":388,"geometry":{"type":"Point","coordinates":[120.53524438026626,23.712304449678751]},"properties":{"OBJECTID":388,"LANDMARKID":"1000900000646","LANDMARKCO":"403","LANDMARKNA":"台灣電力公司雲林區營業處","LANDMARKAD":"1000901","ADDRESS":"雲林縣斗六市西平路250號","TEL":" ","COUNTYNAME":"雲林縣","TOWNNAME":"斗六市","MARKTYPE":"994","Class":"4"}},{"type":"Feature","id":389,"geometry":{"type":"Point","coordinates":[120.5608298796127,23.736039449780492]},"properties":{"OBJECTID":389,"LANDMARKID":"1000900000761","LANDMARKCO":"406","LANDMARKNA":"漢記公園市","LANDMARKAD":"1000901","ADDRESS":"雲林縣斗六市","TEL":" ","COUNTYNAME":"雲林縣","TOWNNAME":"斗六市","MARKTYPE":"994","Class":"4"}},{"type":"Feature","id":390,"geometry":{"type":"Point","coordinates":[120.55589253577588,23.713659304714902]},"properties":{"OBJECTID":390,"LANDMARKID":"1000900000762","LANDMARKCO":"406","LANDMARKNA":"鄰里公園","LANDMARKAD":"1000901","ADDRESS":"雲林縣斗六市","TEL":" ","COUNTYNAME":"雲林縣","TOWNNAME":"斗六市","MARKTYPE":"994","Class":"4"}},{"type":"Feature","id":391,"geometry":{"type":"Point","coordinates":[120.54927017251582,23.70443109870476]},"properties":{"OBJECTID":391,"LANDMARKID":"1000900000763","LANDMARKCO":"406","LANDMARKNA":"中山紀念公園","LANDMARKAD":"1000901","ADDRESS":"雲林縣斗六市","TEL":" ","COUNTYNAME":"雲林縣","TOWNNAME":"斗六市","MARKTYPE":"994","Class":"4"}},{"type":"Feature","id":392,"geometry":{"type":"Point","coordinates":[120.53964420765391,23.7101149334162]},"properties":{"OBJECTID":392,"LANDMARKID":"1000900000777","LANDMARKCO":"407","LANDMARKNA":"三商百貨","LANDMARKAD":"1000901","ADDRESS":"雲林縣斗六市民生路98號","TEL":"05-5332778","COUNTYNAME":"雲林縣","TOWNNAME":"斗六市","MARKTYPE":"994","Class":"4"}},{"type":"Feature","id":393,"geometry":{"type":"Point","coordinates":[120.53924612152264,23.703667679637132]},"properties":{"OBJECTID":393,"LANDMARKID":"1000900000742","LANDMARKCO":"405","LANDMARKNA":"福懋加油站-鎮南站(台塑)","LANDMARKAD":"1000901","ADDRESS":"雲林縣斗六市中山路239號","TEL":"05-5333159","COUNTYNAME":"雲林縣","TOWNNAME":"斗六市","MARKTYPE":"994","Class":"4"}},{"type":"Feature","id":394,"geometry":{"type":"Point","coordinates":[120.57872252759958,23.72029256800154]},"properties":{"OBJECTID":394,"LANDMARKID":"1000900000743","LANDMARKCO":"405","LANDMARKNA":"福懋加油站-吉祥站(台塑)","LANDMARKAD":"1000901","ADDRESS":"雲林縣斗六市石榴路26號","TEL":"05-5574066","COUNTYNAME":"雲林縣","TOWNNAME":"斗六市","MARKTYPE":"994","Class":"4"}},{"type":"Feature","id":395,"geometry":{"type":"Point","coordinates":[120.59022518517358,23.728825038376456]},"properties":{"OBJECTID":395,"LANDMARKID":"1000900000744","LANDMARKCO":"405","LANDMARKNA":"福懋加油站-石榴班站(台塑)","LANDMARKAD":"1000901","ADDRESS":"雲林縣斗六市石榴路345號","TEL":"05-5575009","COUNTYNAME":"雲林縣","TOWNNAME":"斗六市","MARKTYPE":"994","Class":"4"}},{"type":"Feature","id":396,"geometry":{"type":"Point","coordinates":[120.53137241414943,23.71442629575537]},"properties":{"OBJECTID":396,"LANDMARKID":"1000900000745","LANDMARKCO":"405","LANDMARKNA":"福懋加油站-西平站(台塑)","LANDMARKAD":"1000901","ADDRESS":"雲林縣斗六市西平路273號","TEL":"05-5519228","COUNTYNAME":"雲林縣","TOWNNAME":"斗六市","MARKTYPE":"994","Class":"4"}},{"type":"Feature","id":397,"geometry":{"type":"Point","coordinates":[120.53350163469341,23.714205196723903]},"properties":{"OBJECTID":397,"LANDMARKID":"1000900000746","LANDMARKCO":"405","LANDMARKNA":"福懋加油站-百利站(台塑)","LANDMARKAD":"1000901","ADDRESS":"雲林縣斗六市明德北路二段408號","TEL":"05-5515706","COUNTYNAME":"雲林縣","TOWNNAME":"斗六市","MARKTYPE":"994","Class":"4"}},{"type":"Feature","id":398,"geometry":{"type":"Point","coordinates":[120.52014350774635,23.695755165006666]},"properties":{"OBJECTID":398,"LANDMARKID":"1000900000747","LANDMARKCO":"405","LANDMARKNA":"福懋加油站-雲林路站(台塑)","LANDMARKAD":"1000901","ADDRESS":"雲林縣斗六市雲林路三段45號","TEL":"05-5223808","COUNTYNAME":"雲林縣","TOWNNAME":"斗六市","MARKTYPE":"994","Class":"4"}},{"type":"Feature","id":399,"geometry":{"type":"Point","coordinates":[120.53661007938024,23.706986616208361]},"properties":{"OBJECTID":399,"LANDMARKID":"1000900000063","LANDMARKCO":"103","LANDMARKNA":"雲林縣審計室","LANDMARKAD":"1000901","ADDRESS":"雲林縣斗六市雲林路一段180巷12號1樓","TEL":"05-5347431","COUNTYNAME":"雲林縣","TOWNNAME":"斗六市","MARKTYPE":"991","Class":"1"}},{"type":"Feature","id":400,"geometry":{"type":"Point","coordinates":[120.54371721227312,23.710172705078307]},"properties":{"OBJECTID":400,"LANDMARKID":"1000900000014","LANDMARKCO":"101","LANDMARKNA":"雲林憲兵隊","LANDMARKAD":"1000901","ADDRESS":"雲林縣斗六市公正街214巷1號","TEL":"05-5321284","COUNTYNAME":"雲林縣","TOWNNAME":"斗六市","MARKTYPE":"991","Class":"1"}}]}