{"type":"FeatureCollection","features":[{"type":"Feature","id":24801,"geometry":{"type":"Point","coordinates":[121.07822232083119,24.822344078850726]},"properties":{"OBJECTID":24801,"LANDMARKID":"1000400000002","LANDMARKCO":"101","LANDMARKNA":"新竹區監理所","LANDMARKAD":"1000403","ADDRESS":"新竹縣新埔鎮文德路三段58號","TEL":"03-5892051","COUNTYNAME":"新竹縣","TOWNNAME":"新埔鎮","MARKTYPE":"991","Class":"1"}},{"type":"Feature","id":24802,"geometry":{"type":"Point","coordinates":[121.03593217813857,24.84315993958376]},"properties":{"OBJECTID":24802,"LANDMARKID":"1000400000140","LANDMARKCO":"107","LANDMARKNA":"新竹縣警察局褒忠派出所","LANDMARKAD":"1000403","ADDRESS":"新竹縣新埔鎮下寮里12鄰義民路3段329號","TEL":"03-5882094","COUNTYNAME":"新竹縣","TOWNNAME":"新埔鎮","MARKTYPE":"991","Class":"1"}},{"type":"Feature","id":24803,"geometry":{"type":"Point","coordinates":[121.11945927675868,24.846309658058747]},"properties":{"OBJECTID":24803,"LANDMARKID":"1000400000141","LANDMARKCO":"107","LANDMARKNA":"新竹縣警察局照門派出所","LANDMARKAD":"1000403","ADDRESS":"新竹縣新埔鎮照門里9鄰26號","TEL":"03-5899194","COUNTYNAME":"新竹縣","TOWNNAME":"新埔鎮","MARKTYPE":"991","Class":"1"}},{"type":"Feature","id":24804,"geometry":{"type":"Point","coordinates":[121.07976646752483,24.827009441232402]},"properties":{"OBJECTID":24804,"LANDMARKID":"1000400000305","LANDMARKCO":"204","LANDMARKNA":"新竹縣立圖書館新埔分館","LANDMARKAD":"1000403","ADDRESS":"新竹縣新埔鎮和平街15巷9號","TEL":" ","COUNTYNAME":"新竹縣","TOWNNAME":"新埔鎮","MARKTYPE":"992","Class":"2"}},{"type":"Feature","id":24805,"geometry":{"type":"Point","coordinates":[121.08198329543768,24.828255703760973]},"properties":{"OBJECTID":24805,"LANDMARKID":"1000400000174","LANDMARKCO":"202","LANDMARKNA":"私立內思高工","LANDMARKAD":"1000403","ADDRESS":"新竹縣新埔鎮楊新路一段40號","TEL":"035-882529","COUNTYNAME":"新竹縣","TOWNNAME":"新埔鎮","MARKTYPE":"992","Class":"2"}},{"type":"Feature","id":24806,"geometry":{"type":"Point","coordinates":[121.07097349630172,24.827975314187011]},"properties":{"OBJECTID":24806,"LANDMARKID":"1000400000275","LANDMARKCO":"203","LANDMARKNA":"縣立新埔國中","LANDMARKAD":"1000403","ADDRESS":"新竹縣新埔鎮中正路792號","TEL":"035-882026","COUNTYNAME":"新竹縣","TOWNNAME":"新埔鎮","MARKTYPE":"992","Class":"2"}},{"type":"Feature","id":24807,"geometry":{"type":"Point","coordinates":[121.07407216979456,24.829725576984316]},"properties":{"OBJECTID":24807,"LANDMARKID":"1000400000276","LANDMARKCO":"203","LANDMARKNA":"縣立新星國小","LANDMARKAD":"1000403","ADDRESS":"新竹縣新埔鎮新民里民生街28號","TEL":"035-882078","COUNTYNAME":"新竹縣","TOWNNAME":"新埔鎮","MARKTYPE":"992","Class":"2"}},{"type":"Feature","id":24808,"geometry":{"type":"Point","coordinates":[121.11149678288648,24.848912419295804]},"properties":{"OBJECTID":24808,"LANDMARKID":"1000400000277","LANDMARKCO":"203","LANDMARKNA":"縣立照門國中","LANDMARKAD":"1000403","ADDRESS":"新竹縣新埔鎮照門里照鏡7號","TEL":"035-890214","COUNTYNAME":"新竹縣","TOWNNAME":"新埔鎮","MARKTYPE":"992","Class":"2"}},{"type":"Feature","id":24809,"geometry":{"type":"Point","coordinates":[121.07931178067653,24.828055318842171]},"properties":{"OBJECTID":24809,"LANDMARKID":"1000400000278","LANDMARKCO":"203","LANDMARKNA":"縣立新埔國小","LANDMARKAD":"1000403","ADDRESS":"新竹縣新埔鎮中正路366號","TEL":"035-882124","COUNTYNAME":"新竹縣","TOWNNAME":"新埔鎮","MARKTYPE":"992","Class":"2"}},{"type":"Feature","id":24810,"geometry":{"type":"Point","coordinates":[121.1360940295406,24.867239167118758]},"properties":{"OBJECTID":24810,"LANDMARKID":"1000400000279","LANDMARKCO":"203","LANDMARKNA":"縣立清水國小","LANDMARKAD":"1000403","ADDRESS":"新竹縣新埔鎮清水里143號","TEL":"035-899235","COUNTYNAME":"新竹縣","TOWNNAME":"新埔鎮","MARKTYPE":"992","Class":"2"}},{"type":"Feature","id":24811,"geometry":{"type":"Point","coordinates":[121.07895172833473,24.816631913431628]},"properties":{"OBJECTID":24811,"LANDMARKID":"1000400000280","LANDMARKCO":"203","LANDMARKNA":"縣立寶石國小","LANDMARKAD":"1000403","ADDRESS":"新竹縣新埔鎮寶石里九鄰關埔路內立段672號","TEL":"035-882397","COUNTYNAME":"新竹縣","TOWNNAME":"新埔鎮","MARKTYPE":"992","Class":"2"}},{"type":"Feature","id":24812,"geometry":{"type":"Point","coordinates":[121.05183450470446,24.837228944164366]},"properties":{"OBJECTID":24812,"LANDMARKID":"1000400000281","LANDMARKCO":"203","LANDMARKNA":"縣立枋寮國小","LANDMARKAD":"1000403","ADDRESS":"新竹縣新埔鎮上寮里190號","TEL":"035-882081","COUNTYNAME":"新竹縣","TOWNNAME":"新埔鎮","MARKTYPE":"992","Class":"2"}},{"type":"Feature","id":24813,"geometry":{"type":"Point","coordinates":[121.04780284396024,24.825403281371887]},"properties":{"OBJECTID":24813,"LANDMARKID":"1000400000282","LANDMARKCO":"203","LANDMARKNA":"縣立文山國小","LANDMARKAD":"1000403","ADDRESS":"新竹縣新埔鎮文山里259號","TEL":"035-882918","COUNTYNAME":"新竹縣","TOWNNAME":"新埔鎮","MARKTYPE":"992","Class":"2"}},{"type":"Feature","id":24814,"geometry":{"type":"Point","coordinates":[121.14168941130932,24.844845654902986]},"properties":{"OBJECTID":24814,"LANDMARKID":"1000400000283","LANDMARKCO":"203","LANDMARKNA":"縣立照東國小","LANDMARKAD":"1000403","ADDRESS":"新竹縣新埔鎮鹿鳴里9鄰36號","TEL":"035-899807","COUNTYNAME":"新竹縣","TOWNNAME":"新埔鎮","MARKTYPE":"992","Class":"2"}},{"type":"Feature","id":24815,"geometry":{"type":"Point","coordinates":[121.11745235256545,24.847213501383539]},"properties":{"OBJECTID":24815,"LANDMARKID":"1000400000284","LANDMARKCO":"203","LANDMARKNA":"縣立照門國小","LANDMARKAD":"1000403","ADDRESS":"新竹縣新埔鎮照門里九鄰照鏡39號","TEL":"035-899234","COUNTYNAME":"新竹縣","TOWNNAME":"新埔鎮","MARKTYPE":"992","Class":"2"}},{"type":"Feature","id":24816,"geometry":{"type":"Point","coordinates":[121.08659365978964,24.852471468952185]},"properties":{"OBJECTID":24816,"LANDMARKID":"1000400000285","LANDMARKCO":"203","LANDMARKNA":"縣立北平國小","LANDMARKAD":"1000403","ADDRESS":"新竹縣新埔鎮北平里62號","TEL":"035-882897","COUNTYNAME":"新竹縣","TOWNNAME":"新埔鎮","MARKTYPE":"992","Class":"2"}},{"type":"Feature","id":24817,"geometry":{"type":"Point","coordinates":[121.03672823762621,24.842595230107317]},"properties":{"OBJECTID":24817,"LANDMARKID":"1000400000339","LANDMARKCO":"303","LANDMARKNA":"義民廟停車場","LANDMARKAD":"1000403","ADDRESS":"新竹縣新埔鎮","TEL":" ","COUNTYNAME":"新竹縣","TOWNNAME":"新埔鎮","MARKTYPE":"993","Class":"303"}},{"type":"Feature","id":24818,"geometry":{"type":"Point","coordinates":[121.08031304784103,24.827381399058698]},"properties":{"OBJECTID":24818,"LANDMARKID":"1000400000329","LANDMARKCO":"302","LANDMARKNA":"新竹汽車客運北埔站","LANDMARKAD":"1000403","ADDRESS":"新竹縣新埔鎮中正路221號","TEL":" ","COUNTYNAME":"新竹縣","TOWNNAME":"新埔鎮","MARKTYPE":"993","Class":"302"}},{"type":"Feature","id":24819,"geometry":{"type":"Point","coordinates":[121.08307360645588,24.827147227745062]},"properties":{"OBJECTID":24819,"LANDMARKID":"1000400000398","LANDMARKCO":"402","LANDMARKNA":"中華電信-新埔服務中心","LANDMARKAD":"1000403","ADDRESS":"新竹縣新埔鎮中正路208號","TEL":"123或0800-080-123","COUNTYNAME":"新竹縣","TOWNNAME":"新埔鎮","MARKTYPE":"994","Class":"4"}},{"type":"Feature","id":24820,"geometry":{"type":"Point","coordinates":[121.04296664808399,24.840766709164605]},"properties":{"OBJECTID":24820,"LANDMARKID":"1000400000685","LANDMARKCO":"604","LANDMARKNA":"上海早苗別館","LANDMARKAD":"1000403","ADDRESS":"新竹縣新埔鎮照門里7鄰5-3號","TEL":"03-5899099","COUNTYNAME":"新竹縣","TOWNNAME":"新埔鎮","MARKTYPE":"996","Class":"6"}},{"type":"Feature","id":24821,"geometry":{"type":"Point","coordinates":[121.03219995882698,24.824953574426274]},"properties":{"OBJECTID":24821,"LANDMARKID":"1000400000433","LANDMARKCO":"405","LANDMARKNA":"中油加油站-台大加油站","LANDMARKAD":"1000401","ADDRESS":"新竹縣竹北市自強北路153號","TEL":"03-5504424","COUNTYNAME":"新竹縣","TOWNNAME":"竹北市","MARKTYPE":"994","Class":"4"}},{"type":"Feature","id":24822,"geometry":{"type":"Point","coordinates":[120.96142218013649,24.855824668318135]},"properties":{"OBJECTID":24822,"LANDMARKID":"1000400000434","LANDMARKCO":"405","LANDMARKNA":"中油加油站-民德站","LANDMARKAD":"1000401","ADDRESS":"新竹縣竹北市大義里長青路二段96號","TEL":"03-5562861","COUNTYNAME":"新竹縣","TOWNNAME":"竹北市","MARKTYPE":"994","Class":"4"}},{"type":"Feature","id":24823,"geometry":{"type":"Point","coordinates":[120.98522159491246,24.840712222770442]},"properties":{"OBJECTID":24823,"LANDMARKID":"1000400000435","LANDMARKCO":"405","LANDMARKNA":"中油加油站-巨盛站","LANDMARKAD":"1000401","ADDRESS":"新竹縣竹北市中正西路695號","TEL":"03-5543440","COUNTYNAME":"新竹縣","TOWNNAME":"竹北市","MARKTYPE":"994","Class":"4"}},{"type":"Feature","id":24824,"geometry":{"type":"Point","coordinates":[120.99544025683609,24.858763388869409]},"properties":{"OBJECTID":24824,"LANDMARKID":"1000400000436","LANDMARKCO":"405","LANDMARKNA":"中油加油站-亞當翌竹北站","LANDMARKAD":"1000401","ADDRESS":"新竹縣竹北市大眉里5鄰中華路1301號","TEL":"03-5533026","COUNTYNAME":"新竹縣","TOWNNAME":"竹北市","MARKTYPE":"994","Class":"4"}},{"type":"Feature","id":24825,"geometry":{"type":"Point","coordinates":[121.02299039382338,24.813093307123228]},"properties":{"OBJECTID":24825,"LANDMARKID":"1000400000437","LANDMARKCO":"405","LANDMARKNA":"中油加油站-六家站","LANDMARKAD":"1000401","ADDRESS":"新竹縣竹北市自強南路350號","TEL":"03-5509791","COUNTYNAME":"新竹縣","TOWNNAME":"竹北市","MARKTYPE":"994","Class":"4"}},{"type":"Feature","id":24826,"geometry":{"type":"Point","coordinates":[120.99279999407553,24.842857190943224]},"properties":{"OBJECTID":24826,"LANDMARKID":"1000400000438","LANDMARKCO":"405","LANDMARKNA":"中油加油站-中社站","LANDMARKAD":"1000401","ADDRESS":"新竹縣竹北市中正西路447號","TEL":"03-5533212","COUNTYNAME":"新竹縣","TOWNNAME":"竹北市","MARKTYPE":"994","Class":"4"}},{"type":"Feature","id":24827,"geometry":{"type":"Point","coordinates":[120.95417555280804,24.873434474513019]},"properties":{"OBJECTID":24827,"LANDMARKID":"1000400000439","LANDMARKCO":"405","LANDMARKNA":"中油加油站-協榮站","LANDMARKAD":"1000401","ADDRESS":"新竹縣竹北市尚義里西濱路二段508號","TEL":"03-5561499","COUNTYNAME":"新竹縣","TOWNNAME":"竹北市","MARKTYPE":"994","Class":"4"}},{"type":"Feature","id":24828,"geometry":{"type":"Point","coordinates":[121.04331643106353,24.811005315295144]},"properties":{"OBJECTID":24828,"LANDMARKID":"1000400000440","LANDMARKCO":"405","LANDMARKNA":"中油加油站-東元站","LANDMARKAD":"1000401","ADDRESS":"新竹縣竹北市東興路一段519號","TEL":"035-504360","COUNTYNAME":"新竹縣","TOWNNAME":"竹北市","MARKTYPE":"994","Class":"4"}},{"type":"Feature","id":24829,"geometry":{"type":"Point","coordinates":[121.0655502946796,24.786113042769109]},"properties":{"OBJECTID":24829,"LANDMARKID":"1000400000441","LANDMARKCO":"405","LANDMARKNA":"中油加油站-日清站","LANDMARKAD":"1000401","ADDRESS":"新竹縣竹北市東海里東興路2段896號","TEL":"03-5507669","COUNTYNAME":"新竹縣","TOWNNAME":"竹北市","MARKTYPE":"994","Class":"4"}},{"type":"Feature","id":24830,"geometry":{"type":"Point","coordinates":[121.00525410701934,24.841424991710035]},"properties":{"OBJECTID":24830,"LANDMARKID":"1000400000442","LANDMARKCO":"405","LANDMARKNA":"中油加油站-竹北站(中油直營)","LANDMARKAD":"1000401","ADDRESS":"新竹縣竹北市中華路439號","TEL":"03-5552154","COUNTYNAME":"新竹縣","TOWNNAME":"竹北市","MARKTYPE":"994","Class":"4"}},{"type":"Feature","id":24831,"geometry":{"type":"Point","coordinates":[121.03221608586209,24.816999709760591]},"properties":{"OBJECTID":24831,"LANDMARKID":"1000400000443","LANDMARKCO":"405","LANDMARKNA":"中油加油站-十興站","LANDMARKAD":"1000401","ADDRESS":"新竹縣竹北市東興路一段290號","TEL":"03-5502600","COUNTYNAME":"新竹縣","TOWNNAME":"竹北市","MARKTYPE":"994","Class":"4"}},{"type":"Feature","id":24832,"geometry":{"type":"Point","coordinates":[120.99685374304376,24.825709872932524]},"properties":{"OBJECTID":24832,"LANDMARKID":"1000400000444","LANDMARKCO":"405","LANDMARKNA":"中油加油站-佑順站","LANDMARKAD":"1000401","ADDRESS":"新竹縣竹北市中華路1號","TEL":"03-5517818","COUNTYNAME":"新竹縣","TOWNNAME":"竹北市","MARKTYPE":"994","Class":"4"}},{"type":"Feature","id":24833,"geometry":{"type":"Point","coordinates":[121.01498622220583,24.824069952330451]},"properties":{"OBJECTID":24833,"LANDMARKID":"1000400000445","LANDMARKCO":"405","LANDMARKNA":"中油加油站-府前站(刷卡自助)(中油直營)","LANDMARKAD":"1000401","ADDRESS":"新竹縣竹北市縣政二路112號","TEL":"03-5556350","COUNTYNAME":"新竹縣","TOWNNAME":"竹北市","MARKTYPE":"994","Class":"4"}},{"type":"Feature","id":24834,"geometry":{"type":"Point","coordinates":[121.01506838856164,24.835314555595058]},"properties":{"OBJECTID":24834,"LANDMARKID":"1000400000399","LANDMARKCO":"402","LANDMARKNA":"亞太行動寬頻電信-竹北中正東加盟服務中心","LANDMARKAD":"1000401","ADDRESS":"新竹縣竹北市中正東路192號","TEL":"03-5542627","COUNTYNAME":"新竹縣","TOWNNAME":"竹北市","MARKTYPE":"994","Class":"4"}},{"type":"Feature","id":24835,"geometry":{"type":"Point","coordinates":[121.00867688732873,24.834944986154365]},"properties":{"OBJECTID":24835,"LANDMARKID":"1000400000400","LANDMARKCO":"402","LANDMARKNA":"亞太行動寬頻電信-竹北三民加盟服務中心","LANDMARKAD":"1000401","ADDRESS":"新竹縣竹北市三民路453號","TEL":"03-5532332","COUNTYNAME":"新竹縣","TOWNNAME":"竹北市","MARKTYPE":"994","Class":"4"}},{"type":"Feature","id":24836,"geometry":{"type":"Point","coordinates":[121.00817955412901,24.834904697059134]},"properties":{"OBJECTID":24836,"LANDMARKID":"1000400000395","LANDMARKCO":"401","LANDMARKNA":"大安醫院","LANDMARKAD":"1000401","ADDRESS":"新竹縣竹北市博愛街318巷6號","TEL":"03-5557188","COUNTYNAME":"新竹縣","TOWNNAME":"竹北市","MARKTYPE":"994","Class":"4"}},{"type":"Feature","id":24837,"geometry":{"type":"Point","coordinates":[121.01403806755874,24.823740105151664]},"properties":{"OBJECTID":24837,"LANDMARKID":"1000400000396","LANDMARKCO":"401","LANDMARKNA":"東元綜合醫院","LANDMARKAD":"1000401","ADDRESS":"新竹縣竹北市縣政二路69號","TEL":"03-5527000","COUNTYNAME":"新竹縣","TOWNNAME":"竹北市","MARKTYPE":"994","Class":"4"}},{"type":"Feature","id":24838,"geometry":{"type":"Point","coordinates":[121.00805366426275,24.835631099368936]},"properties":{"OBJECTID":24838,"LANDMARKID":"1000400000397","LANDMARKCO":"401","LANDMARKNA":"新仁醫院","LANDMARKAD":"1000401","ADDRESS":"新竹縣竹北市博愛街331號","TEL":"03-5552039","COUNTYNAME":"新竹縣","TOWNNAME":"竹北市","MARKTYPE":"994","Class":"4"}},{"type":"Feature","id":24839,"geometry":{"type":"Point","coordinates":[120.99826522348403,24.841574567326571]},"properties":{"OBJECTID":24839,"LANDMARKID":"1000400000616","LANDMARKCO":"507","LANDMARKNA":"竹北采田福地","LANDMARKAD":"1000401","ADDRESS":"新竹縣竹北市新國里新國村142號","TEL":" ","COUNTYNAME":"新竹縣","TOWNNAME":"竹北市","MARKTYPE":"995","Class":"5"}},{"type":"Feature","id":24840,"geometry":{"type":"Point","coordinates":[121.02830752477541,24.816515140893696]},"properties":{"OBJECTID":24840,"LANDMARKID":"1000400000617","LANDMARKCO":"507","LANDMARKNA":"竹北問禮堂","LANDMARKAD":"1000401","ADDRESS":"新竹縣竹北市東平里4鄰六家24號","TEL":" ","COUNTYNAME":"新竹縣","TOWNNAME":"竹北市","MARKTYPE":"995","Class":"5"}},{"type":"Feature","id":24841,"geometry":{"type":"Point","coordinates":[121.0189567242323,24.835440393140061]},"properties":{"OBJECTID":24841,"LANDMARKID":"1000400000532","LANDMARKCO":"408","LANDMARKNA":"郵局-竹北中山郵局","LANDMARKAD":"1000401","ADDRESS":"新竹縣竹北市中正東路42號","TEL":"(03)5529-137","COUNTYNAME":"新竹縣","TOWNNAME":"竹北市","MARKTYPE":"994","Class":"4"}},{"type":"Feature","id":24842,"geometry":{"type":"Point","coordinates":[121.01013061477202,24.828083115633124]},"properties":{"OBJECTID":24842,"LANDMARKID":"1000400000533","LANDMARKCO":"408","LANDMARKNA":"郵局-竹北光明郵局","LANDMARKAD":"1000401","ADDRESS":"新竹縣竹北市縣政九路138號","TEL":"(03)5514-198","COUNTYNAME":"新竹縣","TOWNNAME":"竹北市","MARKTYPE":"994","Class":"4"}},{"type":"Feature","id":24843,"geometry":{"type":"Point","coordinates":[121.00318002291209,24.839781069386703]},"properties":{"OBJECTID":24843,"LANDMARKID":"1000400000534","LANDMARKCO":"408","LANDMARKNA":"郵局-竹北郵局","LANDMARKAD":"1000401","ADDRESS":"新竹縣竹北市中正西路60號","TEL":"(03)5551-121","COUNTYNAME":"新竹縣","TOWNNAME":"竹北市","MARKTYPE":"994","Class":"4"}},{"type":"Feature","id":24844,"geometry":{"type":"Point","coordinates":[121.03247372420516,24.822221672651764]},"properties":{"OBJECTID":24844,"LANDMARKID":"1000400000535","LANDMARKCO":"408","LANDMARKNA":"郵局-竹北六家郵局","LANDMARKAD":"1000401","ADDRESS":"新竹縣竹北市嘉興路457號","TEL":"(03)5502-090","COUNTYNAME":"新竹縣","TOWNNAME":"竹北市","MARKTYPE":"994","Class":"4"}},{"type":"Feature","id":24845,"geometry":{"type":"Point","coordinates":[121.00888204037398,24.836668045464258]},"properties":{"OBJECTID":24845,"LANDMARKID":"1000400000536","LANDMARKCO":"408","LANDMARKNA":"郵局-竹北博愛郵局","LANDMARKAD":"1000401","ADDRESS":"新竹縣竹北市博愛街390號","TEL":"(03)5515-848","COUNTYNAME":"新竹縣","TOWNNAME":"竹北市","MARKTYPE":"994","Class":"4"}},{"type":"Feature","id":24846,"geometry":{"type":"Point","coordinates":[121.00608721313661,24.83811508028165]},"properties":{"OBJECTID":24846,"LANDMARKID":"1000400000575","LANDMARKCO":"409","LANDMARKNA":"新竹縣竹北市農會","LANDMARKAD":"1000401","ADDRESS":"新竹縣竹北市中正東路487號","TEL":"03-5513127","COUNTYNAME":"新竹縣","TOWNNAME":"竹北市","MARKTYPE":"994","Class":"4"}},{"type":"Feature","id":24847,"geometry":{"type":"Point","coordinates":[121.01448372939107,24.827641929145759]},"properties":{"OBJECTID":24847,"LANDMARKID":"1000400000431","LANDMARKCO":"404","LANDMARKNA":"台灣自來水竹北營運所","LANDMARKAD":"1000401","ADDRESS":"新竹縣竹北市縣政五街188號","TEL":"03-5516814","COUNTYNAME":"新竹縣","TOWNNAME":"竹北市","MARKTYPE":"994","Class":"4"}},{"type":"Feature","id":24848,"geometry":{"type":"Point","coordinates":[121.01487702615862,24.828319089008033]},"properties":{"OBJECTID":24848,"LANDMARKID":"1000400000432","LANDMARKCO":"404","LANDMARKNA":"台灣省自來水竹北營運所","LANDMARKAD":"1000401","ADDRESS":"新竹縣竹北市縣政五街188號","TEL":" ","COUNTYNAME":"新竹縣","TOWNNAME":"竹北市","MARKTYPE":"994","Class":"4"}},{"type":"Feature","id":24849,"geometry":{"type":"Point","coordinates":[121.03586349910155,24.804544712219776]},"properties":{"OBJECTID":24849,"LANDMARKID":"1000400000526","LANDMARKCO":"406","LANDMARKNA":"梅花公園","LANDMARKAD":"1000401","ADDRESS":"新竹縣竹北市","TEL":" ","COUNTYNAME":"新竹縣","TOWNNAME":"竹北市","MARKTYPE":"994","Class":"4"}},{"type":"Feature","id":24850,"geometry":{"type":"Point","coordinates":[121.03986202046161,24.802006261080599]},"properties":{"OBJECTID":24850,"LANDMARKID":"1000400000527","LANDMARKCO":"406","LANDMARKNA":"隘口社區公園","LANDMARKAD":"1000401","ADDRESS":"新竹縣竹北市","TEL":" ","COUNTYNAME":"新竹縣","TOWNNAME":"竹北市","MARKTYPE":"994","Class":"4"}},{"type":"Feature","id":24851,"geometry":{"type":"Point","coordinates":[121.0102607313562,24.82231736434079]},"properties":{"OBJECTID":24851,"LANDMARKID":"1000400000528","LANDMARKCO":"406","LANDMARKNA":"福興公園","LANDMARKAD":"1000401","ADDRESS":"新竹縣竹北市","TEL":" ","COUNTYNAME":"新竹縣","TOWNNAME":"竹北市","MARKTYPE":"994","Class":"4"}},{"type":"Feature","id":24852,"geometry":{"type":"Point","coordinates":[121.00719910385712,24.83181129084015]},"properties":{"OBJECTID":24852,"LANDMARKID":"1000400000529","LANDMARKCO":"406","LANDMARKNA":"文化公園","LANDMARKAD":"1000401","ADDRESS":"新竹縣竹北市","TEL":" ","COUNTYNAME":"新竹縣","TOWNNAME":"竹北市","MARKTYPE":"994","Class":"4"}},{"type":"Feature","id":24853,"geometry":{"type":"Point","coordinates":[121.0080383291878,24.829704671846986]},"properties":{"OBJECTID":24853,"LANDMARKID":"1000400000530","LANDMARKCO":"406","LANDMARKNA":"博愛公園","LANDMARKAD":"1000401","ADDRESS":"新竹縣竹北市","TEL":" ","COUNTYNAME":"新竹縣","TOWNNAME":"竹北市","MARKTYPE":"994","Class":"4"}},{"type":"Feature","id":24854,"geometry":{"type":"Point","coordinates":[121.01583409526977,24.833302789866085]},"properties":{"OBJECTID":24854,"LANDMARKID":"1000400000531","LANDMARKCO":"406","LANDMARKNA":"豆子埔公園","LANDMARKAD":"1000401","ADDRESS":"新竹縣竹北市","TEL":" ","COUNTYNAME":"新竹縣","TOWNNAME":"竹北市","MARKTYPE":"994","Class":"4"}},{"type":"Feature","id":24855,"geometry":{"type":"Point","coordinates":[121.02441915883522,24.82152954485332]},"properties":{"OBJECTID":24855,"LANDMARKID":"1000400000446","LANDMARKCO":"405","LANDMARKNA":"全國加油站-竹北交流道站（台塑）","LANDMARKAD":"1000401","ADDRESS":"新竹縣竹北市光明六路東一段185號","TEL":"03-5508291","COUNTYNAME":"新竹縣","TOWNNAME":"竹北市","MARKTYPE":"994","Class":"4"}},{"type":"Feature","id":24856,"geometry":{"type":"Point","coordinates":[121.05924938806004,24.792427868288947]},"properties":{"OBJECTID":24856,"LANDMARKID":"1000400000447","LANDMARKCO":"405","LANDMARKNA":"台塑加油站-東海站(台塑)","LANDMARKAD":"1000401","ADDRESS":"新竹縣竹北市東興路二段535號","TEL":"03-5504675","COUNTYNAME":"新竹縣","TOWNNAME":"竹北市","MARKTYPE":"994","Class":"4"}},{"type":"Feature","id":24857,"geometry":{"type":"Point","coordinates":[121.00161258238788,24.826494520910313]},"properties":{"OBJECTID":24857,"LANDMARKID":"1000400000131","LANDMARKCO":"107","LANDMARKNA":"新竹縣警察局竹北分局","LANDMARKAD":"1000401","ADDRESS":"新竹縣竹北市博愛街16號","TEL":"03-5558399","COUNTYNAME":"新竹縣","TOWNNAME":"竹北市","MARKTYPE":"991","Class":"1"}},{"type":"Feature","id":24858,"geometry":{"type":"Point","coordinates":[121.00176098757616,24.826765375207561]},"properties":{"OBJECTID":24858,"LANDMARKID":"1000400000132","LANDMARKCO":"107","LANDMARKNA":"新竹縣警察局六家派出所","LANDMARKAD":"1000401","ADDRESS":"新竹縣竹北市自強北路81號","TEL":"03-6580308","COUNTYNAME":"新竹縣","TOWNNAME":"竹北市","MARKTYPE":"991","Class":"1"}},{"type":"Feature","id":24859,"geometry":{"type":"Point","coordinates":[121.00488770726268,24.838321850778019]},"properties":{"OBJECTID":24859,"LANDMARKID":"1000400000133","LANDMARKCO":"107","LANDMARKNA":"新竹縣警察局竹北派出所","LANDMARKAD":"1000401","ADDRESS":"新竹縣竹北市竹義里中華路383號","TEL":"035-552031","COUNTYNAME":"新竹縣","TOWNNAME":"竹北市","MARKTYPE":"991","Class":"1"}},{"type":"Feature","id":24860,"geometry":{"type":"Point","coordinates":[121.01391313881467,24.825773624494367]},"properties":{"OBJECTID":24860,"LANDMARKID":"1000400000037","LANDMARKCO":"103","LANDMARKNA":"新竹縣議會","LANDMARKAD":"1000401","ADDRESS":"新竹縣竹北市光明六路8號","TEL":"035-519191","COUNTYNAME":"新竹縣","TOWNNAME":"竹北市","MARKTYPE":"991","Class":"1"}},{"type":"Feature","id":24861,"geometry":{"type":"Point","coordinates":[121.01366505748165,24.828196581983363]},"properties":{"OBJECTID":24861,"LANDMARKID":"1000400000038","LANDMARKCO":"103","LANDMARKNA":"新竹縣環境保護局","LANDMARKAD":"1000401","ADDRESS":"新竹縣竹北市光明五街62號","TEL":"035-519345","COUNTYNAME":"新竹縣","TOWNNAME":"竹北市","MARKTYPE":"991","Class":"1"}},{"type":"Feature","id":24862,"geometry":{"type":"Point","coordinates":[121.01516610685458,24.826135570915525]},"properties":{"OBJECTID":24862,"LANDMARKID":"1000400000039","LANDMARKCO":"103","LANDMARKNA":"新竹縣政府衛生局","LANDMARKAD":"1000401","ADDRESS":"新竹縣竹北市光明七街1號","TEL":"03-5518160","COUNTYNAME":"新竹縣","TOWNNAME":"竹北市","MARKTYPE":"991","Class":"1"}},{"type":"Feature","id":24863,"geometry":{"type":"Point","coordinates":[121.00441041032241,24.8396606384627]},"properties":{"OBJECTID":24863,"LANDMARKID":"1000400000158","LANDMARKCO":"108","LANDMARKNA":"新竹縣竹北市公所","LANDMARKAD":"1000401","ADDRESS":"新竹縣竹北市中正西路50號","TEL":"035-515919","COUNTYNAME":"新竹縣","TOWNNAME":"竹北市","MARKTYPE":"991","Class":"1"}},{"type":"Feature","id":24864,"geometry":{"type":"Point","coordinates":[121.00441041032241,24.8396606384627]},"properties":{"OBJECTID":24864,"LANDMARKID":"1000400000040","LANDMARKCO":"103","LANDMARKNA":"新竹縣竹北市市民代表會","LANDMARKAD":"1000401","ADDRESS":"新竹縣竹北市中正西路50號","TEL":"035-552563","COUNTYNAME":"新竹縣","TOWNNAME":"竹北市","MARKTYPE":"991","Class":"1"}},{"type":"Feature","id":24865,"geometry":{"type":"Point","coordinates":[121.01029136575639,24.82800039192924]},"properties":{"OBJECTID":24865,"LANDMARKID":"1000400000041","LANDMARKCO":"103","LANDMARKNA":"新竹縣政府文化局","LANDMARKAD":"1000401","ADDRESS":"新竹縣竹北市縣政九路146號","TEL":"035-510201","COUNTYNAME":"新竹縣","TOWNNAME":"竹北市","MARKTYPE":"991","Class":"1"}},{"type":"Feature","id":24866,"geometry":{"type":"Point","coordinates":[121.00682915394165,24.832096930226889]},"properties":{"OBJECTID":24866,"LANDMARKID":"1000400000042","LANDMARKCO":"103","LANDMARKNA":"新竹縣竹北市衛生所","LANDMARKAD":"1000401","ADDRESS":"新竹縣竹北市光明二街89號","TEL":"03-5533381","COUNTYNAME":"新竹縣","TOWNNAME":"竹北市","MARKTYPE":"991","Class":"1"}},{"type":"Feature","id":24867,"geometry":{"type":"Point","coordinates":[121.01123668304984,24.826754039667577]},"properties":{"OBJECTID":24867,"LANDMARKID":"1000400000134","LANDMARKCO":"107","LANDMARKNA":"新竹縣消防局","LANDMARKAD":"1000401","ADDRESS":"新竹縣竹北市光明六路12號","TEL":"03-5513520","COUNTYNAME":"新竹縣","TOWNNAME":"竹北市","MARKTYPE":"991","Class":"1"}},{"type":"Feature","id":24868,"geometry":{"type":"Point","coordinates":[121.011504900246,24.821900677136373]},"properties":{"OBJECTID":24868,"LANDMARKID":"1000400000135","LANDMARKCO":"107","LANDMARKNA":"新竹縣消防局第一消防大隊部","LANDMARKAD":"1000401","ADDRESS":"新竹縣竹北市福興路757號","TEL":"03-5550980","COUNTYNAME":"新竹縣","TOWNNAME":"竹北市","MARKTYPE":"991","Class":"1"}},{"type":"Feature","id":24869,"geometry":{"type":"Point","coordinates":[121.011504900246,24.821900677136373]},"properties":{"OBJECTID":24869,"LANDMARKID":"1000400000136","LANDMARKCO":"107","LANDMARKNA":"新竹縣消防局竹北消防分隊","LANDMARKAD":"1000401","ADDRESS":"新竹縣竹北市福興路757號","TEL":"03-5552922","COUNTYNAME":"新竹縣","TOWNNAME":"竹北市","MARKTYPE":"991","Class":"1"}},{"type":"Feature","id":24870,"geometry":{"type":"Point","coordinates":[121.01123668304984,24.826754039667577]},"properties":{"OBJECTID":24870,"LANDMARKID":"1000400000137","LANDMARKCO":"107","LANDMARKNA":"新竹縣警察局總局","LANDMARKAD":"1000401","ADDRESS":"新竹縣竹北市光明六路12號","TEL":"03-5511153","COUNTYNAME":"新竹縣","TOWNNAME":"竹北市","MARKTYPE":"991","Class":"1"}},{"type":"Feature","id":24871,"geometry":{"type":"Point","coordinates":[120.96428251027432,24.842698747498709]},"properties":{"OBJECTID":24871,"LANDMARKID":"1000400000138","LANDMARKCO":"107","LANDMARKNA":"新竹縣警察局豐田派出所","LANDMARKAD":"1000401","ADDRESS":"新竹縣竹北市中正西路1550號","TEL":"03-5564768","COUNTYNAME":"新竹縣","TOWNNAME":"竹北市","MARKTYPE":"991","Class":"1"}},{"type":"Feature","id":24872,"geometry":{"type":"Point","coordinates":[120.96341289771691,24.860947010354018]},"properties":{"OBJECTID":24872,"LANDMARKID":"1000400000139","LANDMARKCO":"107","LANDMARKNA":"新竹縣警察局鳳岡派出所","LANDMARKAD":"1000401","ADDRESS":"新竹縣竹北市鳳岡路三段238號","TEL":"03-5561769","COUNTYNAME":"新竹縣","TOWNNAME":"竹北市","MARKTYPE":"991","Class":"1"}},{"type":"Feature","id":24873,"geometry":{"type":"Point","coordinates":[121.013132295037,24.827119840215914]},"properties":{"OBJECTID":24873,"LANDMARKID":"1000400000035","LANDMARKCO":"103","LANDMARKNA":"新竹縣政府民政處","LANDMARKAD":"1000401","ADDRESS":"新竹縣竹北市光明六路10號","TEL":"03-5518101","COUNTYNAME":"新竹縣","TOWNNAME":"竹北市","MARKTYPE":"991","Class":"1"}},{"type":"Feature","id":24874,"geometry":{"type":"Point","coordinates":[121.00450934847737,24.839616482158334]},"properties":{"OBJECTID":24874,"LANDMARKID":"1000400000063","LANDMARKCO":"106","LANDMARKNA":"新竹縣竹北市戶政事務所","LANDMARKAD":"1000401","ADDRESS":"新竹縣竹北市竹義里47鄰中正西路50之1號","TEL":"035-552427","COUNTYNAME":"新竹縣","TOWNNAME":"竹北市","MARKTYPE":"991","Class":"1"}},{"type":"Feature","id":24875,"geometry":{"type":"Point","coordinates":[121.013132295037,24.827119840215914]},"properties":{"OBJECTID":24875,"LANDMARKID":"1000400000058","LANDMARKCO":"105","LANDMARKNA":"新竹縣政府地政局","LANDMARKAD":"1000401","ADDRESS":"新竹縣竹北市光明六路10號","TEL":"035-518101","COUNTYNAME":"新竹縣","TOWNNAME":"竹北市","MARKTYPE":"991","Class":"1"}},{"type":"Feature","id":24876,"geometry":{"type":"Point","coordinates":[121.01278943593407,24.833412824688082]},"properties":{"OBJECTID":24876,"LANDMARKID":"1000400000059","LANDMARKCO":"105","LANDMARKNA":"新竹縣竹北地政事務所","LANDMARKAD":"1000401","ADDRESS":"新竹縣竹北市三民路200號","TEL":"035-512203","COUNTYNAME":"新竹縣","TOWNNAME":"竹北市","MARKTYPE":"991","Class":"1"}},{"type":"Feature","id":24877,"geometry":{"type":"Point","coordinates":[121.013132295037,24.827119840215914]},"properties":{"OBJECTID":24877,"LANDMARKID":"1000400000036","LANDMARKCO":"103","LANDMARKNA":"新竹縣政府","LANDMARKAD":"1000401","ADDRESS":"新竹縣竹北市光明六路10號","TEL":"035-518101","COUNTYNAME":"新竹縣","TOWNNAME":"竹北市","MARKTYPE":"991","Class":"1"}},{"type":"Feature","id":24878,"geometry":{"type":"Point","coordinates":[121.01058236778699,24.827453669656602]},"properties":{"OBJECTID":24878,"LANDMARKID":"1000400000054","LANDMARKCO":"104","LANDMARKNA":"北區國稅局新竹縣分局","LANDMARKAD":"1000401","ADDRESS":"新竹縣竹北市縣政九路120號","TEL":"03-5585700","COUNTYNAME":"新竹縣","TOWNNAME":"竹北市","MARKTYPE":"991","Class":"1"}},{"type":"Feature","id":24879,"geometry":{"type":"Point","coordinates":[121.0151016669849,24.82762169001214]},"properties":{"OBJECTID":24879,"LANDMARKID":"1000400000003","LANDMARKCO":"101","LANDMARKNA":"調查局新竹縣調查站","LANDMARKAD":"1000401","ADDRESS":"新竹縣竹北市光明五街56號","TEL":"035-513215","COUNTYNAME":"新竹縣","TOWNNAME":"竹北市","MARKTYPE":"991","Class":"1"}},{"type":"Feature","id":24880,"geometry":{"type":"Point","coordinates":[121.00485962809358,24.82807973682295]},"properties":{"OBJECTID":24880,"LANDMARKID":"1000400000004","LANDMARKCO":"101","LANDMARKNA":"中央健康保險局北區分局","LANDMARKAD":"1000401","ADDRESS":"新竹縣竹北市光明九路226號1樓","TEL":"035-527615","COUNTYNAME":"新竹縣","TOWNNAME":"竹北市","MARKTYPE":"991","Class":"1"}},{"type":"Feature","id":24881,"geometry":{"type":"Point","coordinates":[121.01495616979916,24.827349055623927]},"properties":{"OBJECTID":24881,"LANDMARKID":"1000400000032","LANDMARKCO":"103","LANDMARKNA":"新竹縣選舉委員會","LANDMARKAD":"1000401","ADDRESS":"新竹縣竹北市光明五街65號","TEL":"035-519036","COUNTYNAME":"新竹縣","TOWNNAME":"竹北市","MARKTYPE":"991","Class":"1"}},{"type":"Feature","id":24882,"geometry":{"type":"Point","coordinates":[121.013132295037,24.827119840215914]},"properties":{"OBJECTID":24882,"LANDMARKID":"1000400000033","LANDMARKCO":"103","LANDMARKNA":"新竹縣中小企業服務中心","LANDMARKAD":"1000401","ADDRESS":"新竹縣竹北市光明六路10號3樓","TEL":"035-510917","COUNTYNAME":"新竹縣","TOWNNAME":"竹北市","MARKTYPE":"991","Class":"1"}},{"type":"Feature","id":24883,"geometry":{"type":"Point","coordinates":[121.01516610685458,24.826135570915525]},"properties":{"OBJECTID":24883,"LANDMARKID":"1000400000034","LANDMARKCO":"103","LANDMARKNA":"新竹縣立慢性病防治所","LANDMARKAD":"1000401","ADDRESS":"新竹縣竹北市光明七街1號","TEL":"03-5518160","COUNTYNAME":"新竹縣","TOWNNAME":"竹北市","MARKTYPE":"991","Class":"1"}},{"type":"Feature","id":24884,"geometry":{"type":"Point","coordinates":[121.01465144577898,24.825197601921346]},"properties":{"OBJECTID":24884,"LANDMARKID":"1000400000055","LANDMARKCO":"104","LANDMARKNA":"新竹縣稅捐稽徵處","LANDMARKAD":"1000401","ADDRESS":"新竹縣竹北市光明六路6號","TEL":"03-5518141","COUNTYNAME":"新竹縣","TOWNNAME":"竹北市","MARKTYPE":"991","Class":"1"}},{"type":"Feature","id":24885,"geometry":{"type":"Point","coordinates":[121.00030534160149,24.841506182921567]},"properties":{"OBJECTID":24885,"LANDMARKID":"1000400000031","LANDMARKCO":"103","LANDMARKNA":"新竹縣政府教育局家庭教育中心","LANDMARKAD":"1000401","ADDRESS":"新竹縣竹北市中正西路154號","TEL":"035-513708","COUNTYNAME":"新竹縣","TOWNNAME":"竹北市","MARKTYPE":"991","Class":"1"}},{"type":"Feature","id":24886,"geometry":{"type":"Point","coordinates":[121.01591830414527,24.827396347365703]},"properties":{"OBJECTID":24886,"LANDMARKID":"1000400000005","LANDMARKCO":"101","LANDMARKNA":"台灣新竹地方法院竹北簡易庭","LANDMARKAD":"1000401","ADDRESS":"新竹縣竹北市縣政二街105號","TEL":"035-527061","COUNTYNAME":"新竹縣","TOWNNAME":"竹北市","MARKTYPE":"991","Class":"1"}},{"type":"Feature","id":24887,"geometry":{"type":"Point","coordinates":[121.00503570662278,24.827668111210453]},"properties":{"OBJECTID":24887,"LANDMARKID":"1000400000030","LANDMARKCO":"103","LANDMARKNA":"新竹縣審計室","LANDMARKAD":"1000401","ADDRESS":"新竹縣竹北市復興二路159號","TEL":"03-6576300","COUNTYNAME":"新竹縣","TOWNNAME":"竹北市","MARKTYPE":"991","Class":"1"}},{"type":"Feature","id":24888,"geometry":{"type":"Point","coordinates":[121.00813347966215,24.846266790064522]},"properties":{"OBJECTID":24888,"LANDMARKID":"1000400000006","LANDMARKCO":"101","LANDMARKNA":"農業委員會水產試驗所","LANDMARKAD":"1000401","ADDRESS":"新竹縣竹北市泰和里111號","TEL":"03-5551190","COUNTYNAME":"新竹縣","TOWNNAME":"竹北市","MARKTYPE":"991","Class":"1"}},{"type":"Feature","id":24889,"geometry":{"type":"Point","coordinates":[121.01209345330606,24.830651439046509]},"properties":{"OBJECTID":24889,"LANDMARKID":"1000400000316","LANDMARKCO":"207","LANDMARKNA":"新竹縣立美術館","LANDMARKAD":"1000401","ADDRESS":"新竹縣竹北市縣政九路146號","TEL":" ","COUNTYNAME":"新竹縣","TOWNNAME":"竹北市","MARKTYPE":"992","Class":"2"}},{"type":"Feature","id":24890,"geometry":{"type":"Point","coordinates":[121.00382098500047,24.839928561454006]},"properties":{"OBJECTID":24890,"LANDMARKID":"1000400000304","LANDMARKCO":"204","LANDMARKNA":"新竹縣立圖書館竹北分館","LANDMARKAD":"1000401","ADDRESS":"新竹縣竹北市中正西路54號","TEL":" ","COUNTYNAME":"新竹縣","TOWNNAME":"竹北市","MARKTYPE":"992","Class":"2"}},{"type":"Feature","id":24891,"geometry":{"type":"Point","coordinates":[121.01120290974744,24.829234750453779]},"properties":{"OBJECTID":24891,"LANDMARKID":"1000400000315","LANDMARKCO":"207","LANDMARKNA":"新竹縣立文化中心—美術館","LANDMARKAD":"1000401","ADDRESS":"新竹縣竹北市縣政九路146號","TEL":" ","COUNTYNAME":"新竹縣","TOWNNAME":"竹北市","MARKTYPE":"992","Class":"2"}},{"type":"Feature","id":24892,"geometry":{"type":"Point","coordinates":[121.00363219939537,24.837374687501015]},"properties":{"OBJECTID":24892,"LANDMARKID":"1000400000177","LANDMARKCO":"202","LANDMARKNA":"私立義民高中","LANDMARKAD":"1000401","ADDRESS":"新竹縣竹北市中正西路15號","TEL":"035-552020","COUNTYNAME":"新竹縣","TOWNNAME":"竹北市","MARKTYPE":"992","Class":"2"}},{"type":"Feature","id":24893,"geometry":{"type":"Point","coordinates":[121.00363219939537,24.837374687501015]},"properties":{"OBJECTID":24893,"LANDMARKID":"1000400000178","LANDMARKCO":"202","LANDMARKNA":"私立義民高中附設國中部","LANDMARKAD":"1000401","ADDRESS":"新竹縣竹北市中正西路15號","TEL":"035-552020","COUNTYNAME":"新竹縣","TOWNNAME":"竹北市","MARKTYPE":"992","Class":"2"}},{"type":"Feature","id":24894,"geometry":{"type":"Point","coordinates":[121.02010428675477,24.836424543622222]},"properties":{"OBJECTID":24894,"LANDMARKID":"1000400000252","LANDMARKCO":"203","LANDMARKNA":"縣立中正國小","LANDMARKAD":"1000401","ADDRESS":"新竹縣竹北市竹北村中山路190號","TEL":"035-552464","COUNTYNAME":"新竹縣","TOWNNAME":"竹北市","MARKTYPE":"992","Class":"2"}},{"type":"Feature","id":24895,"geometry":{"type":"Point","coordinates":[120.96424668168386,24.842245157002548]},"properties":{"OBJECTID":24895,"LANDMARKID":"1000400000253","LANDMARKCO":"203","LANDMARKNA":"縣立豐田國小","LANDMARKAD":"1000401","ADDRESS":"新竹縣竹北市中正西路1377號","TEL":"035-563930","COUNTYNAME":"新竹縣","TOWNNAME":"竹北市","MARKTYPE":"992","Class":"2"}},{"type":"Feature","id":24896,"geometry":{"type":"Point","coordinates":[121.00569859539534,24.83082814696828]},"properties":{"OBJECTID":24896,"LANDMARKID":"1000400000254","LANDMARKCO":"203","LANDMARKNA":"縣立博愛國小","LANDMARKAD":"1000401","ADDRESS":"新竹縣竹北市光明六路72號","TEL":"035-519830","COUNTYNAME":"新竹縣","TOWNNAME":"竹北市","MARKTYPE":"992","Class":"2"}},{"type":"Feature","id":24897,"geometry":{"type":"Point","coordinates":[121.02549223221963,24.813671669762147]},"properties":{"OBJECTID":24897,"LANDMARKID":"1000400000255","LANDMARKCO":"203","LANDMARKNA":"縣立六家國小","LANDMARKAD":"1000401","ADDRESS":"新竹縣竹北市嘉興路62號","TEL":"035-502624","COUNTYNAME":"新竹縣","TOWNNAME":"竹北市","MARKTYPE":"992","Class":"2"}},{"type":"Feature","id":24898,"geometry":{"type":"Point","coordinates":[121.01500169291825,24.832235319577187]},"properties":{"OBJECTID":24898,"LANDMARKID":"1000400000256","LANDMARKCO":"203","LANDMARKNA":"縣立仁愛國中","LANDMARKAD":"1000401","ADDRESS":"新竹縣竹北市三民路239號","TEL":"035-530238","COUNTYNAME":"新竹縣","TOWNNAME":"竹北市","MARKTYPE":"992","Class":"2"}},{"type":"Feature","id":24899,"geometry":{"type":"Point","coordinates":[120.96635374319715,24.863690116997748]},"properties":{"OBJECTID":24899,"LANDMARKID":"1000400000257","LANDMARKCO":"203","LANDMARKNA":"縣立鳳岡國中","LANDMARKAD":"1000401","ADDRESS":"新竹縣竹北市大義里鳳岡路三段100號","TEL":"035-561284","COUNTYNAME":"新竹縣","TOWNNAME":"竹北市","MARKTYPE":"992","Class":"2"}},{"type":"Feature","id":24900,"geometry":{"type":"Point","coordinates":[121.00030534160149,24.841506182921567]},"properties":{"OBJECTID":24900,"LANDMARKID":"1000400000258","LANDMARKCO":"203","LANDMARKNA":"縣立竹北國中","LANDMARKAD":"1000401","ADDRESS":"新竹縣竹北市中正西路154號","TEL":"035-552064","COUNTYNAME":"新竹縣","TOWNNAME":"竹北市","MARKTYPE":"992","Class":"2"}},{"type":"Feature","id":24901,"geometry":{"type":"Point","coordinates":[121.03211566587889,24.821107371837417]},"properties":{"OBJECTID":24901,"LANDMARKID":"1000400000259","LANDMARKCO":"203","LANDMARKNA":"縣立六家國中","LANDMARKAD":"1000401","ADDRESS":"新竹縣竹北市嘉興路356號","TEL":"035-501447","COUNTYNAME":"新竹縣","TOWNNAME":"竹北市","MARKTYPE":"992","Class":"2"}},{"type":"Feature","id":24902,"geometry":{"type":"Point","coordinates":[121.00693494973611,24.830124174556669]},"properties":{"OBJECTID":24902,"LANDMARKID":"1000400000260","LANDMARKCO":"203","LANDMARKNA":"縣立博愛國中","LANDMARKAD":"1000401","ADDRESS":"新竹縣竹北市縣政十三路81號","TEL":"035-530243#218","COUNTYNAME":"新竹縣","TOWNNAME":"竹北市","MARKTYPE":"992","Class":"2"}},{"type":"Feature","id":24903,"geometry":{"type":"Point","coordinates":[120.95493606487435,24.850555709782913]},"properties":{"OBJECTID":24903,"LANDMARKID":"1000400000261","LANDMARKCO":"203","LANDMARKNA":"縣立新港國小","LANDMARKAD":"1000401","ADDRESS":"新竹縣竹北市長青路一段333巷135號","TEL":"035-563275","COUNTYNAME":"新竹縣","TOWNNAME":"竹北市","MARKTYPE":"992","Class":"2"}},{"type":"Feature","id":24904,"geometry":{"type":"Point","coordinates":[120.96382111611935,24.861469962121749]},"properties":{"OBJECTID":24904,"LANDMARKID":"1000400000262","LANDMARKCO":"203","LANDMARKNA":"縣立鳳岡國小","LANDMARKAD":"1000401","ADDRESS":"新竹縣竹北市大義里鳳岡路3段200號","TEL":"035-561928","COUNTYNAME":"新竹縣","TOWNNAME":"竹北市","MARKTYPE":"992","Class":"2"}},{"type":"Feature","id":24905,"geometry":{"type":"Point","coordinates":[121.0499782020007,24.805806177315596]},"properties":{"OBJECTID":24905,"LANDMARKID":"1000400000263","LANDMARKCO":"203","LANDMARKNA":"縣立東海國小","LANDMARKAD":"1000401","ADDRESS":"新竹縣竹北市東興路一段839號","TEL":"035-502691","COUNTYNAME":"新竹縣","TOWNNAME":"竹北市","MARKTYPE":"992","Class":"2"}},{"type":"Feature","id":24906,"geometry":{"type":"Point","coordinates":[121.00996921304009,24.824414279189931]},"properties":{"OBJECTID":24906,"LANDMARKID":"1000400000264","LANDMARKCO":"203","LANDMARKNA":"縣立光明國小","LANDMARKAD":"1000401","ADDRESS":"新竹縣竹北市光明九路65號","TEL":"035-538656","COUNTYNAME":"新竹縣","TOWNNAME":"竹北市","MARKTYPE":"992","Class":"2"}},{"type":"Feature","id":24907,"geometry":{"type":"Point","coordinates":[121.00407624584074,24.836155040347467]},"properties":{"OBJECTID":24907,"LANDMARKID":"1000400000179","LANDMARKCO":"202","LANDMARKNA":"國立竹北高中","LANDMARKAD":"1000401","ADDRESS":"新竹縣竹北市學園街3號","TEL":"035-517330","COUNTYNAME":"新竹縣","TOWNNAME":"竹北市","MARKTYPE":"992","Class":"2"}},{"type":"Feature","id":24908,"geometry":{"type":"Point","coordinates":[121.00564992089836,24.847892161475066]},"properties":{"OBJECTID":24908,"LANDMARKID":"1000400000180","LANDMARKCO":"202","LANDMARKNA":"私立番子坡中學","LANDMARKAD":"1000401","ADDRESS":"新竹縣竹北市","TEL":" ","COUNTYNAME":"新竹縣","TOWNNAME":"竹北市","MARKTYPE":"992","Class":"2"}},{"type":"Feature","id":24909,"geometry":{"type":"Point","coordinates":[120.99812995440477,24.842836275472571]},"properties":{"OBJECTID":24909,"LANDMARKID":"1000400000248","LANDMARKCO":"203","LANDMARKNA":"縣立新社國小","LANDMARKAD":"1000401","ADDRESS":"新竹縣竹北市新社里40號","TEL":"035-552026","COUNTYNAME":"新竹縣","TOWNNAME":"竹北市","MARKTYPE":"992","Class":"2"}},{"type":"Feature","id":24910,"geometry":{"type":"Point","coordinates":[120.97721230497002,24.846536603208012]},"properties":{"OBJECTID":24910,"LANDMARKID":"1000400000249","LANDMARKCO":"203","LANDMARKNA":"縣立麻園國小","LANDMARKAD":"1000401","ADDRESS":"新竹縣竹北市麻園里60號之2","TEL":"035-563540","COUNTYNAME":"新竹縣","TOWNNAME":"竹北市","MARKTYPE":"992","Class":"2"}},{"type":"Feature","id":24911,"geometry":{"type":"Point","coordinates":[121.0131983283799,24.836154373319971]},"properties":{"OBJECTID":24911,"LANDMARKID":"1000400000250","LANDMARKCO":"203","LANDMARKNA":"縣立竹仁國小","LANDMARKAD":"1000401","ADDRESS":"新竹縣竹北市竹仁里62之2號","TEL":"035-552472","COUNTYNAME":"新竹縣","TOWNNAME":"竹北市","MARKTYPE":"992","Class":"2"}},{"type":"Feature","id":24912,"geometry":{"type":"Point","coordinates":[121.00310672794423,24.839044232497265]},"properties":{"OBJECTID":24912,"LANDMARKID":"1000400000251","LANDMARKCO":"203","LANDMARKNA":"縣立竹北國小","LANDMARKAD":"1000401","ADDRESS":"新竹縣竹北市學園街30號","TEL":"035-552047","COUNTYNAME":"新竹縣","TOWNNAME":"竹北市","MARKTYPE":"992","Class":"2"}},{"type":"Feature","id":24913,"geometry":{"type":"Point","coordinates":[121.01607627922276,24.822767864076315]},"properties":{"OBJECTID":24913,"LANDMARKID":"1000400000365","LANDMARKCO":"308","LANDMARKNA":"國1-竹北交流道-南下","LANDMARKAD":"1000401","ADDRESS":"新竹縣竹北市","TEL":" ","COUNTYNAME":"新竹縣","TOWNNAME":"竹北市","MARKTYPE":"993","Class":"308"}},{"type":"Feature","id":24914,"geometry":{"type":"Point","coordinates":[121.01855129900434,24.824884873487271]},"properties":{"OBJECTID":24914,"LANDMARKID":"1000400000366","LANDMARKCO":"308","LANDMARKNA":"國1-竹北交流道-北上","LANDMARKAD":"1000401","ADDRESS":"新竹縣竹北市","TEL":" ","COUNTYNAME":"新竹縣","TOWNNAME":"竹北市","MARKTYPE":"993","Class":"308"}},{"type":"Feature","id":24915,"geometry":{"type":"Point","coordinates":[121.03978717346048,24.807959050615441]},"properties":{"OBJECTID":24915,"LANDMARKID":"1000400000361","LANDMARKCO":"307","LANDMARKNA":"高鐵新竹站-出口1","LANDMARKAD":"1000401","ADDRESS":" ","TEL":" ","COUNTYNAME":"新竹縣","TOWNNAME":"竹北市","MARKTYPE":"993","Class":"307"}},{"type":"Feature","id":24916,"geometry":{"type":"Point","coordinates":[121.04058170370529,24.808451220759256]},"properties":{"OBJECTID":24916,"LANDMARKID":"1000400000362","LANDMARKCO":"307","LANDMARKNA":"高鐵新竹站-出口3","LANDMARKAD":"1000401","ADDRESS":" ","TEL":" ","COUNTYNAME":"新竹縣","TOWNNAME":"竹北市","MARKTYPE":"993","Class":"307"}},{"type":"Feature","id":24917,"geometry":{"type":"Point","coordinates":[121.04042984112368,24.8079361442724]},"properties":{"OBJECTID":24917,"LANDMARKID":"1000400000363","LANDMARKCO":"307","LANDMARKNA":"高鐵新竹站-出口4","LANDMARKAD":"1000401","ADDRESS":" ","TEL":" ","COUNTYNAME":"新竹縣","TOWNNAME":"竹北市","MARKTYPE":"993","Class":"307"}},{"type":"Feature","id":24918,"geometry":{"type":"Point","coordinates":[121.03995556495661,24.80853804411662]},"properties":{"OBJECTID":24918,"LANDMARKID":"1000400000364","LANDMARKCO":"307","LANDMARKNA":"高鐵新竹站-出口2","LANDMARKAD":"1000401","ADDRESS":" ","TEL":" ","COUNTYNAME":"新竹縣","TOWNNAME":"竹北市","MARKTYPE":"993","Class":"307"}},{"type":"Feature","id":24919,"geometry":{"type":"Point","coordinates":[121.00153333105641,24.839085355906963]},"properties":{"OBJECTID":24919,"LANDMARKID":"1000400000330","LANDMARKCO":"303","LANDMARKNA":"立體停車場","LANDMARKAD":"1000401","ADDRESS":"新竹縣竹北市","TEL":" ","COUNTYNAME":"新竹縣","TOWNNAME":"竹北市","MARKTYPE":"993","Class":"303"}},{"type":"Feature","id":24920,"geometry":{"type":"Point","coordinates":[121.01260950265979,24.830699436624741]},"properties":{"OBJECTID":24920,"LANDMARKID":"1000400000331","LANDMARKCO":"303","LANDMARKNA":"停六停車場","LANDMARKAD":"1000401","ADDRESS":"新竹縣竹北市","TEL":" ","COUNTYNAME":"新竹縣","TOWNNAME":"竹北市","MARKTYPE":"993","Class":"303"}},{"type":"Feature","id":24921,"geometry":{"type":"Point","coordinates":[121.01366549452085,24.824335644156275]},"properties":{"OBJECTID":24921,"LANDMARKID":"1000400000332","LANDMARKCO":"303","LANDMARKNA":"東元醫院停車場","LANDMARKAD":"1000401","ADDRESS":"新竹縣竹北市","TEL":" ","COUNTYNAME":"新竹縣","TOWNNAME":"竹北市","MARKTYPE":"993","Class":"303"}},{"type":"Feature","id":24922,"geometry":{"type":"Point","coordinates":[121.01897004019952,24.819710821552732]},"properties":{"OBJECTID":24922,"LANDMARKID":"1000400000333","LANDMARKCO":"303","LANDMARKNA":"新竹縣體育場停車場","LANDMARKAD":"1000401","ADDRESS":"新竹縣竹北市","TEL":" ","COUNTYNAME":"新竹縣","TOWNNAME":"竹北市","MARKTYPE":"993","Class":"303"}},{"type":"Feature","id":24923,"geometry":{"type":"Point","coordinates":[121.02381544068857,24.821749850624382]},"properties":{"OBJECTID":24923,"LANDMARKID":"1000400000334","LANDMARKCO":"303","LANDMARKNA":"公有停車場","LANDMARKAD":"1000401","ADDRESS":"新竹縣竹北市","TEL":" ","COUNTYNAME":"新竹縣","TOWNNAME":"竹北市","MARKTYPE":"993","Class":"303"}},{"type":"Feature","id":24924,"geometry":{"type":"Point","coordinates":[121.00889606151199,24.826069579820764]},"properties":{"OBJECTID":24924,"LANDMARKID":"1000400000335","LANDMARKCO":"303","LANDMARKNA":"巴黎廣場(新竹縣立停車場)","LANDMARKAD":"1000401","ADDRESS":"新竹縣竹北市","TEL":" ","COUNTYNAME":"新竹縣","TOWNNAME":"竹北市","MARKTYPE":"993","Class":"303"}},{"type":"Feature","id":24925,"geometry":{"type":"Point","coordinates":[121.00911342637878,24.838976622028071]},"properties":{"OBJECTID":24925,"LANDMARKID":"1000400000317","LANDMARKCO":"301","LANDMARKNA":"竹北火車站","LANDMARKAD":"1000401","ADDRESS":"新竹縣竹北市竹義里和平街59號","TEL":"03-5552024","COUNTYNAME":"新竹縣","TOWNNAME":"竹北市","MARKTYPE":"993","Class":"301"}},{"type":"Feature","id":24926,"geometry":{"type":"Point","coordinates":[121.00217672018489,24.839947097608832]},"properties":{"OBJECTID":24926,"LANDMARKID":"1000400000401","LANDMARKCO":"402","LANDMARKNA":"中華電信-竹北中正西特約服務中心","LANDMARKAD":"1000401","ADDRESS":"新竹縣竹北市中正西路33號","TEL":"03-6560998","COUNTYNAME":"新竹縣","TOWNNAME":"竹北市","MARKTYPE":"994","Class":"4"}},{"type":"Feature","id":24927,"geometry":{"type":"Point","coordinates":[121.01456373919353,24.835052865212955]},"properties":{"OBJECTID":24927,"LANDMARKID":"1000400000402","LANDMARKCO":"402","LANDMARKNA":"中華電信-竹北中正特約服務中心","LANDMARKAD":"1000401","ADDRESS":"新竹縣竹北市中正東路223號","TEL":"03-6566565","COUNTYNAME":"新竹縣","TOWNNAME":"竹北市","MARKTYPE":"994","Class":"4"}},{"type":"Feature","id":24928,"geometry":{"type":"Point","coordinates":[121.01106065210665,24.828525384748922]},"properties":{"OBJECTID":24928,"LANDMARKID":"1000400000403","LANDMARKCO":"402","LANDMARKNA":"中華電信-竹北服務中心","LANDMARKAD":"1000401","ADDRESS":"新竹縣竹北市縣政九路136號","TEL":"123或0800-080-123","COUNTYNAME":"新竹縣","TOWNNAME":"竹北市","MARKTYPE":"994","Class":"4"}},{"type":"Feature","id":24929,"geometry":{"type":"Point","coordinates":[121.00935954778402,24.834854656437631]},"properties":{"OBJECTID":24929,"LANDMARKID":"1000400000404","LANDMARKCO":"402","LANDMARKNA":"威寶電信-竹北三民特約服務中心","LANDMARKAD":"1000401","ADDRESS":"新竹縣竹北市三民路334號","TEL":"03-5516193","COUNTYNAME":"新竹縣","TOWNNAME":"竹北市","MARKTYPE":"994","Class":"4"}},{"type":"Feature","id":24930,"geometry":{"type":"Point","coordinates":[121.01514745190791,24.834953435017734]},"properties":{"OBJECTID":24930,"LANDMARKID":"1000400000405","LANDMARKCO":"402","LANDMARKNA":"威寶電信-竹北中正東特約服務中心","LANDMARKAD":"1000401","ADDRESS":"新竹縣竹北市中正東路207號","TEL":"03-5537054","COUNTYNAME":"新竹縣","TOWNNAME":"竹北市","MARKTYPE":"994","Class":"4"}},{"type":"Feature","id":24931,"geometry":{"type":"Point","coordinates":[121.014316471573,24.835395998689101]},"properties":{"OBJECTID":24931,"LANDMARKID":"1000400000406","LANDMARKCO":"402","LANDMARKNA":"大眾電信-竹北專賣店","LANDMARKAD":"1000401","ADDRESS":"新竹縣竹北市中正東路212號 (鑫禹光通信行)","TEL":"03- 6562567","COUNTYNAME":"新竹縣","TOWNNAME":"竹北市","MARKTYPE":"994","Class":"4"}},{"type":"Feature","id":24932,"geometry":{"type":"Point","coordinates":[121.01020972767022,24.82649407269821]},"properties":{"OBJECTID":24932,"LANDMARKID":"1000400000407","LANDMARKCO":"402","LANDMARKNA":"大眾電信-新竹竹北店","LANDMARKAD":"1000401","ADDRESS":"新竹縣竹北市光明六路89號","TEL":"0968-544061","COUNTYNAME":"新竹縣","TOWNNAME":"竹北市","MARKTYPE":"994","Class":"4"}},{"type":"Feature","id":24933,"geometry":{"type":"Point","coordinates":[121.00668411273895,24.83821603130755]},"properties":{"OBJECTID":24933,"LANDMARKID":"1000400000671","LANDMARKCO":"603","LANDMARKNA":"金園旅社","LANDMARKAD":"1000401","ADDRESS":"新竹縣竹北市中正東路488號6樓","TEL":"03-5511163","COUNTYNAME":"新竹縣","TOWNNAME":"竹北市","MARKTYPE":"996","Class":"6"}},{"type":"Feature","id":24934,"geometry":{"type":"Point","coordinates":[121.0052200880853,24.840985011484847]},"properties":{"OBJECTID":24934,"LANDMARKID":"1000400000672","LANDMARKCO":"603","LANDMARKNA":"佳緹商務汽車旅館","LANDMARKAD":"1000401","ADDRESS":"新竹縣竹北市中華路439-1號","TEL":"03-6560016","COUNTYNAME":"新竹縣","TOWNNAME":"竹北市","MARKTYPE":"996","Class":"6"}},{"type":"Feature","id":24935,"geometry":{"type":"Point","coordinates":[121.02292391402675,24.834717717884033]},"properties":{"OBJECTID":24935,"LANDMARKID":"1000400000673","LANDMARKCO":"603","LANDMARKNA":"采舍精品汽車旅館","LANDMARKAD":"1000401","ADDRESS":"新竹縣竹北市中山路116號","TEL":"03-6566677","COUNTYNAME":"新竹縣","TOWNNAME":"竹北市","MARKTYPE":"996","Class":"6"}},{"type":"Feature","id":24936,"geometry":{"type":"Point","coordinates":[121.01027020752727,24.8388451694792]},"properties":{"OBJECTID":24936,"LANDMARKID":"1000400000674","LANDMARKCO":"603","LANDMARKNA":"竹北旅社","LANDMARKAD":"1000401","ADDRESS":"新竹縣竹北市中山路514號","TEL":"03-5552425","COUNTYNAME":"新竹縣","TOWNNAME":"竹北市","MARKTYPE":"996","Class":"6"}},{"type":"Feature","id":24937,"geometry":{"type":"Point","coordinates":[121.00965675623094,24.838782050955025]},"properties":{"OBJECTID":24937,"LANDMARKID":"1000400000675","LANDMARKCO":"603","LANDMARKNA":"上朋賓館","LANDMARKAD":"1000401","ADDRESS":"新竹縣竹北市中山路663號3樓","TEL":"03-5512299","COUNTYNAME":"新竹縣","TOWNNAME":"竹北市","MARKTYPE":"996","Class":"6"}},{"type":"Feature","id":24938,"geometry":{"type":"Point","coordinates":[121.00965675623094,24.838782050955025]},"properties":{"OBJECTID":24938,"LANDMARKID":"1000400000676","LANDMARKCO":"603","LANDMARKNA":"六福大旅社","LANDMARKAD":"1000401","ADDRESS":"新竹縣竹北市中山路663號5樓","TEL":"03-5551337","COUNTYNAME":"新竹縣","TOWNNAME":"竹北市","MARKTYPE":"996","Class":"6"}},{"type":"Feature","id":24939,"geometry":{"type":"Point","coordinates":[120.9917072815134,24.86152516798165]},"properties":{"OBJECTID":24939,"LANDMARKID":"1000400000677","LANDMARKCO":"603","LANDMARKNA":"明星旅館","LANDMARKAD":"1000401","ADDRESS":"新竹縣竹北市中華路1432號","TEL":"03-5519678","COUNTYNAME":"新竹縣","TOWNNAME":"竹北市","MARKTYPE":"996","Class":"6"}},{"type":"Feature","id":24940,"geometry":{"type":"Point","coordinates":[121.00824185159793,24.839937749303608]},"properties":{"OBJECTID":24940,"LANDMARKID":"1000400000678","LANDMARKCO":"603","LANDMARKNA":"花漾時尚旅館","LANDMARKAD":"1000401","ADDRESS":"新竹縣竹北市新泰路102號","TEL":"03-5516490","COUNTYNAME":"新竹縣","TOWNNAME":"竹北市","MARKTYPE":"996","Class":"6"}},{"type":"Feature","id":24941,"geometry":{"type":"Point","coordinates":[121.00500626471924,24.836182069848189]},"properties":{"OBJECTID":24941,"LANDMARKID":"1000400000679","LANDMARKCO":"603","LANDMARKNA":"秘密花園汽車旅館","LANDMARKAD":"1000401","ADDRESS":"新竹縣竹北市中華路329號","TEL":"03-5559900","COUNTYNAME":"新竹縣","TOWNNAME":"竹北市","MARKTYPE":"996","Class":"6"}},{"type":"Feature","id":24942,"geometry":{"type":"Point","coordinates":[121.00454123756722,24.833148496209201]},"properties":{"OBJECTID":24942,"LANDMARKID":"1000400000680","LANDMARKCO":"603","LANDMARKNA":"龍之脈汽車旅館","LANDMARKAD":"1000401","ADDRESS":"新竹縣竹北市中華路340號之15","TEL":"03-5519261","COUNTYNAME":"新竹縣","TOWNNAME":"竹北市","MARKTYPE":"996","Class":"6"}},{"type":"Feature","id":24943,"geometry":{"type":"Point","coordinates":[121.01123967405704,24.839305668223261]},"properties":{"OBJECTID":24943,"LANDMARKID":"1000400000681","LANDMARKCO":"603","LANDMARKNA":"喬蓮大飯店","LANDMARKAD":"1000401","ADDRESS":"新竹縣竹北市台元街33號","TEL":"03-5518171","COUNTYNAME":"新竹縣","TOWNNAME":"竹北市","MARKTYPE":"996","Class":"6"}},{"type":"Feature","id":24944,"geometry":{"type":"Point","coordinates":[121.00934998935234,24.838475118669926]},"properties":{"OBJECTID":24944,"LANDMARKID":"1000400000682","LANDMARKCO":"603","LANDMARKNA":"賢集旅社","LANDMARKAD":"1000401","ADDRESS":"新竹縣竹北市和平街46號","TEL":"03-5553519","COUNTYNAME":"新竹縣","TOWNNAME":"竹北市","MARKTYPE":"996","Class":"6"}},{"type":"Feature","id":24945,"geometry":{"type":"Point","coordinates":[121.00943899986649,24.838231336043275]},"properties":{"OBJECTID":24945,"LANDMARKID":"1000400000683","LANDMARKCO":"603","LANDMARKNA":"高賓大旅社","LANDMARKAD":"1000401","ADDRESS":"新竹縣竹北市博愛街473巷15號","TEL":"03-5552114","COUNTYNAME":"新竹縣","TOWNNAME":"竹北市","MARKTYPE":"996","Class":"6"}},{"type":"Feature","id":24946,"geometry":{"type":"Point","coordinates":[121.00931037306989,24.838213295079228]},"properties":{"OBJECTID":24946,"LANDMARKID":"1000400000684","LANDMARKCO":"603","LANDMARKNA":"竹城大旅社","LANDMARKAD":"1000401","ADDRESS":"新竹縣竹北市博愛街473巷19號","TEL":"03-5552311","COUNTYNAME":"新竹縣","TOWNNAME":"竹北市","MARKTYPE":"996","Class":"6"}},{"type":"Feature","id":24947,"geometry":{"type":"Point","coordinates":[121.14446571340645,24.80682996936261]},"properties":{"OBJECTID":24947,"LANDMARKID":"1000400000448","LANDMARKCO":"405","LANDMARKNA":"中油加油站-石崗站","LANDMARKAD":"1000404","ADDRESS":"新竹縣關西鎮大同里水坑2-1號","TEL":"03-5878407","COUNTYNAME":"新竹縣","TOWNNAME":"關西鎮","MARKTYPE":"994","Class":"4"}},{"type":"Feature","id":24948,"geometry":{"type":"Point","coordinates":[121.1994315399197,24.811935603943823]},"properties":{"OBJECTID":24948,"LANDMARKID":"1000400000449","LANDMARKCO":"405","LANDMARKNA":"中油加油站-正新站","LANDMARKAD":"1000404","ADDRESS":"新竹縣關西鎮仁安里牛欄河63-5號","TEL":"03-5873103","COUNTYNAME":"新竹縣","TOWNNAME":"關西鎮","MARKTYPE":"994","Class":"4"}},{"type":"Feature","id":24949,"geometry":{"type":"Point","coordinates":[121.17223510176454,24.755028042405876]},"properties":{"OBJECTID":24949,"LANDMARKID":"1000400000450","LANDMARKCO":"405","LANDMARKNA":"中油加油站-新昀站","LANDMARKAD":"1000404","ADDRESS":"新竹縣關西鎮南新里新城57之1號","TEL":"03-5170058","COUNTYNAME":"新竹縣","TOWNNAME":"關西鎮","MARKTYPE":"994","Class":"4"}},{"type":"Feature","id":24950,"geometry":{"type":"Point","coordinates":[121.17982235481706,24.793323577697176]},"properties":{"OBJECTID":24950,"LANDMARKID":"1000400000451","LANDMARKCO":"405","LANDMARKNA":"中油加油站-關西站(中油直營)","LANDMARKAD":"1000404","ADDRESS":"新竹縣關西鎮中豐路二段50號","TEL":"03-5872134","COUNTYNAME":"新竹縣","TOWNNAME":"關西鎮","MARKTYPE":"994","Class":"4"}},{"type":"Feature","id":24951,"geometry":{"type":"Point","coordinates":[121.18075739314408,24.784294813984708]},"properties":{"OBJECTID":24951,"LANDMARKID":"1000400000452","LANDMARKCO":"405","LANDMARKNA":"中油加油站-關西服務區站(中油直營)","LANDMARKAD":"1000404","ADDRESS":"新竹縣關西鎮東安里11鄰上山屯14之10號","TEL":"035-879337","COUNTYNAME":"新竹縣","TOWNNAME":"關西鎮","MARKTYPE":"994","Class":"4"}},{"type":"Feature","id":24952,"geometry":{"type":"Point","coordinates":[121.17749816876901,24.793330567487068]},"properties":{"OBJECTID":24952,"LANDMARKID":"1000400000615","LANDMARKCO":"507","LANDMARKNA":"關西鄭氏祠堂","LANDMARKAD":"1000404","ADDRESS":"新竹縣關西鎮北斗里明德路56號","TEL":" ","COUNTYNAME":"新竹縣","TOWNNAME":"關西鎮","MARKTYPE":"995","Class":"5"}},{"type":"Feature","id":24953,"geometry":{"type":"Point","coordinates":[121.1522816913546,24.808419498372672]},"properties":{"OBJECTID":24953,"LANDMARKID":"1000400000606","LANDMARKCO":"506","LANDMARKNA":"海梨觀光果園","LANDMARKAD":"1000404","ADDRESS":"新竹縣關西鎮","TEL":" ","COUNTYNAME":"新竹縣","TOWNNAME":"關西鎮","MARKTYPE":"995","Class":"5"}},{"type":"Feature","id":24954,"geometry":{"type":"Point","coordinates":[121.15109297059121,24.804365988029605]},"properties":{"OBJECTID":24954,"LANDMARKID":"1000400000607","LANDMARKCO":"506","LANDMARKNA":"石光草莓觀光果園","LANDMARKAD":"1000404","ADDRESS":"新竹縣關西鎮","TEL":" ","COUNTYNAME":"新竹縣","TOWNNAME":"關西鎮","MARKTYPE":"995","Class":"5"}},{"type":"Feature","id":24955,"geometry":{"type":"Point","coordinates":[121.22111998245883,24.768128331193651]},"properties":{"OBJECTID":24955,"LANDMARKID":"1000400000608","LANDMARKCO":"506","LANDMARKNA":"馬武督休閒渡假農埸","LANDMARKAD":"1000404","ADDRESS":"新竹縣關西鎮金山里4鄰49號","TEL":"035-478385","COUNTYNAME":"新竹縣","TOWNNAME":"關西鎮","MARKTYPE":"995","Class":"5"}},{"type":"Feature","id":24956,"geometry":{"type":"Point","coordinates":[121.17618814403873,24.793184683631022]},"properties":{"OBJECTID":24956,"LANDMARKID":"1000400000537","LANDMARKCO":"408","LANDMARKNA":"郵局-關西郵局","LANDMARKAD":"1000404","ADDRESS":"新竹縣關西鎮正義路86號","TEL":"(03)5872-147","COUNTYNAME":"新竹縣","TOWNNAME":"關西鎮","MARKTYPE":"994","Class":"4"}},{"type":"Feature","id":24957,"geometry":{"type":"Point","coordinates":[121.17684449407248,24.791661485292483]},"properties":{"OBJECTID":24957,"LANDMARKID":"1000400000574","LANDMARKCO":"409","LANDMARKNA":"新竹縣關西鎮農會","LANDMARKAD":"1000404","ADDRESS":"新竹縣關西鎮北斗里中興路5號","TEL":"03-5872621","COUNTYNAME":"新竹縣","TOWNNAME":"關西鎮","MARKTYPE":"994","Class":"4"}},{"type":"Feature","id":24958,"geometry":{"type":"Point","coordinates":[121.20872107746388,24.789353246363302]},"properties":{"OBJECTID":24958,"LANDMARKID":"1000400000524","LANDMARKCO":"406","LANDMARKNA":"青山嶺佛教公園","LANDMARKAD":"1000404","ADDRESS":"新竹縣關西鎮","TEL":" ","COUNTYNAME":"新竹縣","TOWNNAME":"關西鎮","MARKTYPE":"994","Class":"4"}},{"type":"Feature","id":24959,"geometry":{"type":"Point","coordinates":[121.18443459329877,24.788143057612313]},"properties":{"OBJECTID":24959,"LANDMARKID":"1000400000525","LANDMARKCO":"406","LANDMARKNA":"鳳鳴公園","LANDMARKAD":"1000404","ADDRESS":"新竹縣關西鎮","TEL":" ","COUNTYNAME":"新竹縣","TOWNNAME":"關西鎮","MARKTYPE":"994","Class":"4"}},{"type":"Feature","id":24960,"geometry":{"type":"Point","coordinates":[121.17867440891642,24.780134808468354]},"properties":{"OBJECTID":24960,"LANDMARKID":"1000400000453","LANDMARKCO":"405","LANDMARKNA":"台塑加油站-正興站(台塑)","LANDMARKAD":"1000404","ADDRESS":"新竹縣關西鎮東光里16張138-2號","TEL":"03-5872859","COUNTYNAME":"新竹縣","TOWNNAME":"關西鎮","MARKTYPE":"994","Class":"4"}},{"type":"Feature","id":24961,"geometry":{"type":"Point","coordinates":[121.17227208275052,24.763375586461517]},"properties":{"OBJECTID":24961,"LANDMARKID":"1000400000129","LANDMARKCO":"107","LANDMARKNA":"新竹縣警察局南華派出所","LANDMARKAD":"1000404","ADDRESS":"新竹縣關西鎮東安里9鄰中山東路100號","TEL":"03-5872301","COUNTYNAME":"新竹縣","TOWNNAME":"關西鎮","MARKTYPE":"991","Class":"1"}},{"type":"Feature","id":24962,"geometry":{"type":"Point","coordinates":[121.1809039122237,24.790721776107748]},"properties":{"OBJECTID":24962,"LANDMARKID":"1000400000130","LANDMARKCO":"107","LANDMARKNA":"新竹縣警察局東安派出所","LANDMARKAD":"1000404","ADDRESS":"新竹縣關西鎮東安里9鄰中山東路100號","TEL":"03-5872301","COUNTYNAME":"新竹縣","TOWNNAME":"關西鎮","MARKTYPE":"991","Class":"1"}},{"type":"Feature","id":24963,"geometry":{"type":"Point","coordinates":[121.17334584699427,24.797772152054577]},"properties":{"OBJECTID":24963,"LANDMARKID":"1000400000065","LANDMARKCO":"106","LANDMARKNA":"新竹縣關西鎮戶政事務所","LANDMARKAD":"1000404","ADDRESS":"新竹縣關西鎮光復路168號","TEL":"035-872314","COUNTYNAME":"新竹縣","TOWNNAME":"關西鎮","MARKTYPE":"991","Class":"1"}},{"type":"Feature","id":24964,"geometry":{"type":"Point","coordinates":[121.18456940749424,24.756046276885751]},"properties":{"OBJECTID":24964,"LANDMARKID":"1000400000007","LANDMARKCO":"101","LANDMARKNA":"農業委員會農業試驗所關西工作站","LANDMARKAD":"1000404","ADDRESS":"新竹縣關西鎮新富里石門5號之2","TEL":"035-476035","COUNTYNAME":"新竹縣","TOWNNAME":"關西鎮","MARKTYPE":"991","Class":"1"}},{"type":"Feature","id":24965,"geometry":{"type":"Point","coordinates":[121.17572326710561,24.792319352544204]},"properties":{"OBJECTID":24965,"LANDMARKID":"1000400000159","LANDMARKCO":"108","LANDMARKNA":"新竹縣關西鎮公所","LANDMARKAD":"1000404","ADDRESS":"新竹縣關西鎮西安里正義路51號","TEL":"03-5873180","COUNTYNAME":"新竹縣","TOWNNAME":"關西鎮","MARKTYPE":"991","Class":"1"}},{"type":"Feature","id":24966,"geometry":{"type":"Point","coordinates":[121.17572326710561,24.792319352544204]},"properties":{"OBJECTID":24966,"LANDMARKID":"1000400000028","LANDMARKCO":"103","LANDMARKNA":"新竹縣關西鎮鎮民代表會","LANDMARKAD":"1000404","ADDRESS":"新竹縣關西鎮正義路51號","TEL":"03-5872002","COUNTYNAME":"新竹縣","TOWNNAME":"關西鎮","MARKTYPE":"991","Class":"1"}},{"type":"Feature","id":24967,"geometry":{"type":"Point","coordinates":[121.1727065925491,24.791600866800202]},"properties":{"OBJECTID":24967,"LANDMARKID":"1000400000029","LANDMARKCO":"103","LANDMARKNA":"新竹縣關西鎮衛生所","LANDMARKAD":"1000404","ADDRESS":"新竹縣關西鎮中山路207號","TEL":"03-5872454","COUNTYNAME":"新竹縣","TOWNNAME":"關西鎮","MARKTYPE":"991","Class":"1"}},{"type":"Feature","id":24968,"geometry":{"type":"Point","coordinates":[121.1757918196773,24.795220985173177]},"properties":{"OBJECTID":24968,"LANDMARKID":"1000400000127","LANDMARKCO":"107","LANDMARKNA":"新竹縣消防局關西消防分隊","LANDMARKAD":"1000404","ADDRESS":"新竹縣關西鎮西安里正義路146號","TEL":"035-872790","COUNTYNAME":"新竹縣","TOWNNAME":"關西鎮","MARKTYPE":"991","Class":"1"}},{"type":"Feature","id":24969,"geometry":{"type":"Point","coordinates":[121.17676044570523,24.789945095459508]},"properties":{"OBJECTID":24969,"LANDMARKID":"1000400000128","LANDMARKCO":"107","LANDMARKNA":"新竹縣警察局關西分駐所","LANDMARKAD":"1000404","ADDRESS":"新竹縣關西鎮東興里中正路92號","TEL":"035-872007","COUNTYNAME":"新竹縣","TOWNNAME":"關西鎮","MARKTYPE":"991","Class":"1"}},{"type":"Feature","id":24970,"geometry":{"type":"Point","coordinates":[121.17697852479768,24.791682585633698]},"properties":{"OBJECTID":24970,"LANDMARKID":"1000400000008","LANDMARKCO":"101","LANDMARKNA":"關西鎮農民活動中心","LANDMARKAD":"1000404","ADDRESS":"新竹縣關西鎮中興路5號9樓","TEL":"035-872621","COUNTYNAME":"新竹縣","TOWNNAME":"關西鎮","MARKTYPE":"991","Class":"1"}},{"type":"Feature","id":24971,"geometry":{"type":"Point","coordinates":[121.2165384578628,24.769544137664745]},"properties":{"OBJECTID":24971,"LANDMARKID":"1000400000090","LANDMARKCO":"107","LANDMARKNA":"新竹縣警察局錦山派出所","LANDMARKAD":"1000404","ADDRESS":"新竹縣關西鎮錦山里二鄰21號","TEL":"035-478174","COUNTYNAME":"新竹縣","TOWNNAME":"關西鎮","MARKTYPE":"991","Class":"1"}},{"type":"Feature","id":24972,"geometry":{"type":"Point","coordinates":[121.138060990168,24.801600391477738]},"properties":{"OBJECTID":24972,"LANDMARKID":"1000400000091","LANDMARKCO":"107","LANDMARKNA":"新竹縣警察局坪林派出所","LANDMARKAD":"1000404","ADDRESS":"新竹縣關西鎮石光里9鄰392號","TEL":"03-5868060","COUNTYNAME":"新竹縣","TOWNNAME":"關西鎮","MARKTYPE":"991","Class":"1"}},{"type":"Feature","id":24973,"geometry":{"type":"Point","coordinates":[121.20830669052599,24.758270039442049]},"properties":{"OBJECTID":24973,"LANDMARKID":"1000400000092","LANDMARKCO":"107","LANDMARKNA":"新竹縣警察局玉山派出所","LANDMARKAD":"1000404","ADDRESS":"新竹縣關西鎮玉山里四鄰21號","TEL":"035-476334","COUNTYNAME":"新竹縣","TOWNNAME":"關西鎮","MARKTYPE":"991","Class":"1"}},{"type":"Feature","id":24974,"geometry":{"type":"Point","coordinates":[121.12828963138786,24.81388933095317]},"properties":{"OBJECTID":24974,"LANDMARKID":"1000400000093","LANDMARKCO":"107","LANDMARKNA":"新竹縣警察局石光派出所","LANDMARKAD":"1000404","ADDRESS":"新竹縣關西鎮石光里9鄰392號","TEL":"03-5868060","COUNTYNAME":"新竹縣","TOWNNAME":"關西鎮","MARKTYPE":"991","Class":"1"}},{"type":"Feature","id":24975,"geometry":{"type":"Point","coordinates":[121.16315933350072,24.806088992547298]},"properties":{"OBJECTID":24975,"LANDMARKID":"1000400000094","LANDMARKCO":"107","LANDMARKNA":"國公路警察局第六警察隊竹林分隊","LANDMARKAD":"1000404","ADDRESS":"新竹縣關西鎮北山里店子崗1號","TEL":"03-5309879","COUNTYNAME":"新竹縣","TOWNNAME":"關西鎮","MARKTYPE":"991","Class":"1"}},{"type":"Feature","id":24976,"geometry":{"type":"Point","coordinates":[121.17367330924499,24.791673452375694]},"properties":{"OBJECTID":24976,"LANDMARKID":"1000400000311","LANDMARKCO":"204","LANDMARKNA":"新竹縣立圖書館關西分館","LANDMARKAD":"1000404","ADDRESS":"新竹縣關西鎮中山路145號","TEL":" ","COUNTYNAME":"新竹縣","TOWNNAME":"關西鎮","MARKTYPE":"992","Class":"2"}},{"type":"Feature","id":24977,"geometry":{"type":"Point","coordinates":[121.18090838354448,24.779887429631319]},"properties":{"OBJECTID":24977,"LANDMARKID":"1000400000214","LANDMARKCO":"203","LANDMARKNA":"縣立富光國中","LANDMARKAD":"1000404","ADDRESS":"新竹縣關西鎮東光里十六張49號","TEL":"035-877224","COUNTYNAME":"新竹縣","TOWNNAME":"關西鎮","MARKTYPE":"992","Class":"2"}},{"type":"Feature","id":24978,"geometry":{"type":"Point","coordinates":[121.17324969970531,24.798765523138457]},"properties":{"OBJECTID":24978,"LANDMARKID":"1000400000215","LANDMARKCO":"203","LANDMARKNA":"縣立關西國中","LANDMARKAD":"1000404","ADDRESS":"新竹縣關西鎮北斗里北門口41號","TEL":"035-872008","COUNTYNAME":"新竹縣","TOWNNAME":"關西鎮","MARKTYPE":"992","Class":"2"}},{"type":"Feature","id":24979,"geometry":{"type":"Point","coordinates":[121.18371997931924,24.78981543049359]},"properties":{"OBJECTID":24979,"LANDMARKID":"1000400000216","LANDMARKCO":"203","LANDMARKNA":"縣立東安國小","LANDMARKAD":"1000404","ADDRESS":"新竹縣關西鎮東安里中山東路40號","TEL":"035-872177","COUNTYNAME":"新竹縣","TOWNNAME":"關西鎮","MARKTYPE":"992","Class":"2"}},{"type":"Feature","id":24980,"geometry":{"type":"Point","coordinates":[121.18545009120766,24.790022974665462]},"properties":{"OBJECTID":24980,"LANDMARKID":"1000400000181","LANDMARKCO":"202","LANDMARKNA":"國立關西高中","LANDMARKAD":"1000404","ADDRESS":"新竹縣關西鎮中山東路2號","TEL":"03-5872049","COUNTYNAME":"新竹縣","TOWNNAME":"關西鎮","MARKTYPE":"992","Class":"2"}},{"type":"Feature","id":24981,"geometry":{"type":"Point","coordinates":[121.17486691152648,24.792017934167397]},"properties":{"OBJECTID":24981,"LANDMARKID":"1000400000205","LANDMARKCO":"203","LANDMARKNA":"縣立關西國小","LANDMARKAD":"1000404","ADDRESS":"新竹縣關西鎮西安里中山路126號","TEL":"035-872028","COUNTYNAME":"新竹縣","TOWNNAME":"關西鎮","MARKTYPE":"992","Class":"2"}},{"type":"Feature","id":24982,"geometry":{"type":"Point","coordinates":[121.12980498559686,24.81478957641071]},"properties":{"OBJECTID":24982,"LANDMARKID":"1000400000206","LANDMARKCO":"203","LANDMARKNA":"縣立石光國中","LANDMARKAD":"1000404","ADDRESS":"新竹縣關西鎮石光里308巷44號","TEL":"035-868019","COUNTYNAME":"新竹縣","TOWNNAME":"關西鎮","MARKTYPE":"992","Class":"2"}},{"type":"Feature","id":24983,"geometry":{"type":"Point","coordinates":[121.22523246144252,24.768722203998287]},"properties":{"OBJECTID":24983,"LANDMARKID":"1000400000207","LANDMARKCO":"203","LANDMARKNA":"縣立錦山國小","LANDMARKAD":"1000404","ADDRESS":"新竹縣關西鎮金山里107號","TEL":"035-478681","COUNTYNAME":"新竹縣","TOWNNAME":"關西鎮","MARKTYPE":"992","Class":"2"}},{"type":"Feature","id":24984,"geometry":{"type":"Point","coordinates":[121.14044251729456,24.800605363547106]},"properties":{"OBJECTID":24984,"LANDMARKID":"1000400000208","LANDMARKCO":"203","LANDMARKNA":"縣立坪林國小","LANDMARKAD":"1000404","ADDRESS":"新竹縣關西鎮坪林里11號","TEL":"035-869310","COUNTYNAME":"新竹縣","TOWNNAME":"關西鎮","MARKTYPE":"992","Class":"2"}},{"type":"Feature","id":24985,"geometry":{"type":"Point","coordinates":[121.17591835069598,24.776461847742233]},"properties":{"OBJECTID":24985,"LANDMARKID":"1000400000209","LANDMARKCO":"203","LANDMARKNA":"縣立東光國小","LANDMARKAD":"1000404","ADDRESS":"新竹縣關西鎮東光里190號","TEL":"035-872243","COUNTYNAME":"新竹縣","TOWNNAME":"關西鎮","MARKTYPE":"992","Class":"2"}},{"type":"Feature","id":24986,"geometry":{"type":"Point","coordinates":[121.20868001719887,24.757550545250247]},"properties":{"OBJECTID":24986,"LANDMARKID":"1000400000210","LANDMARKCO":"203","LANDMARKNA":"縣立玉山國小","LANDMARKAD":"1000404","ADDRESS":"新竹縣關西鎮玉山里25號","TEL":"035-476349","COUNTYNAME":"新竹縣","TOWNNAME":"關西鎮","MARKTYPE":"992","Class":"2"}},{"type":"Feature","id":24987,"geometry":{"type":"Point","coordinates":[121.11937038726676,24.826354471001931]},"properties":{"OBJECTID":24987,"LANDMARKID":"1000400000211","LANDMARKCO":"203","LANDMARKNA":"縣立太平國小","LANDMARKAD":"1000404","ADDRESS":"新竹縣關西鎮東平里五鄰27號","TEL":"035-882634","COUNTYNAME":"新竹縣","TOWNNAME":"關西鎮","MARKTYPE":"992","Class":"2"}},{"type":"Feature","id":24988,"geometry":{"type":"Point","coordinates":[121.12048009182509,24.808658846289276]},"properties":{"OBJECTID":24988,"LANDMARKID":"1000400000212","LANDMARKCO":"203","LANDMARKNA":"縣立南和國小","LANDMARKAD":"1000404","ADDRESS":"新竹縣關西鎮南和里69號","TEL":"035-868952","COUNTYNAME":"新竹縣","TOWNNAME":"關西鎮","MARKTYPE":"992","Class":"2"}},{"type":"Feature","id":24989,"geometry":{"type":"Point","coordinates":[121.12919988037217,24.813978049746602]},"properties":{"OBJECTID":24989,"LANDMARKID":"1000400000213","LANDMARKCO":"203","LANDMARKNA":"縣立石光國小","LANDMARKAD":"1000404","ADDRESS":"新竹縣關西鎮石光里386號","TEL":"035-869311","COUNTYNAME":"新竹縣","TOWNNAME":"關西鎮","MARKTYPE":"992","Class":"2"}},{"type":"Feature","id":24990,"geometry":{"type":"Point","coordinates":[121.1743432786281,24.799342728941372]},"properties":{"OBJECTID":24990,"LANDMARKID":"1000400000370","LANDMARKCO":"308","LANDMARKNA":"國3-關西交流道-南下","LANDMARKAD":"1000404","ADDRESS":"新竹縣關西鎮","TEL":" ","COUNTYNAME":"新竹縣","TOWNNAME":"關西鎮","MARKTYPE":"993","Class":"308"}},{"type":"Feature","id":24991,"geometry":{"type":"Point","coordinates":[121.19655932848224,24.803517432630994]},"properties":{"OBJECTID":24991,"LANDMARKID":"1000400000371","LANDMARKCO":"308","LANDMARKNA":"關西服務區","LANDMARKAD":"1000404","ADDRESS":" ","TEL":" ","COUNTYNAME":"新竹縣","TOWNNAME":"關西鎮","MARKTYPE":"993","Class":"308"}},{"type":"Feature","id":24992,"geometry":{"type":"Point","coordinates":[121.17357612921202,24.80093013943501]},"properties":{"OBJECTID":24992,"LANDMARKID":"1000400000372","LANDMARKCO":"308","LANDMARKNA":"國3-關西交流道-北上","LANDMARKAD":"1000404","ADDRESS":"新竹縣關西鎮","TEL":" ","COUNTYNAME":"新竹縣","TOWNNAME":"關西鎮","MARKTYPE":"993","Class":"308"}},{"type":"Feature","id":24993,"geometry":{"type":"Point","coordinates":[121.18505355719999,24.821046378470118]},"properties":{"OBJECTID":24993,"LANDMARKID":"1000400000355","LANDMARKCO":"303","LANDMARKNA":"六福村主題遊樂園停車場","LANDMARKAD":"1000404","ADDRESS":"新竹縣關西鎮仁安里拱子溝60號","TEL":"03-5475665","COUNTYNAME":"新竹縣","TOWNNAME":"關西鎮","MARKTYPE":"993","Class":"303"}},{"type":"Feature","id":24994,"geometry":{"type":"Point","coordinates":[121.18394909657398,24.78910555567025]},"properties":{"OBJECTID":24994,"LANDMARKID":"1000400000356","LANDMARKCO":"303","LANDMARKNA":"關西第二停車場","LANDMARKAD":"1000404","ADDRESS":"新竹縣關西鎮","TEL":" ","COUNTYNAME":"新竹縣","TOWNNAME":"關西鎮","MARKTYPE":"993","Class":"303"}},{"type":"Feature","id":24995,"geometry":{"type":"Point","coordinates":[121.16885666853842,24.801600441497282]},"properties":{"OBJECTID":24995,"LANDMARKID":"1000400000357","LANDMARKCO":"303","LANDMARKNA":"公有停車場","LANDMARKAD":"1000404","ADDRESS":"新竹縣關西鎮","TEL":" ","COUNTYNAME":"新竹縣","TOWNNAME":"關西鎮","MARKTYPE":"993","Class":"303"}},{"type":"Feature","id":24996,"geometry":{"type":"Point","coordinates":[121.1759404262114,24.79262301656669]},"properties":{"OBJECTID":24996,"LANDMARKID":"1000400000418","LANDMARKCO":"402","LANDMARKNA":"中華電信-關西服務中心","LANDMARKAD":"1000404","ADDRESS":"新竹縣關西鎮正義路53號","TEL":"123或0800-080-123","COUNTYNAME":"新竹縣","TOWNNAME":"關西鎮","MARKTYPE":"994","Class":"4"}},{"type":"Feature","id":24997,"geometry":{"type":"Point","coordinates":[121.22118291050322,24.768309519409993]},"properties":{"OBJECTID":24997,"LANDMARKID":"1000400000686","LANDMARKCO":"604","LANDMARKNA":"馬武督民宿","LANDMARKAD":"1000404","ADDRESS":"新竹縣關西鎮錦山里錦山49號","TEL":"03-5478385","COUNTYNAME":"新竹縣","TOWNNAME":"關西鎮","MARKTYPE":"996","Class":"6"}},{"type":"Feature","id":24998,"geometry":{"type":"Point","coordinates":[121.24176548554151,24.783583917704682]},"properties":{"OBJECTID":24998,"LANDMARKID":"1000400000687","LANDMARKCO":"604","LANDMARKNA":"石牛山","LANDMARKAD":"1000404","ADDRESS":"新竹縣關西鎮錦山里6鄰68-1號","TEL":"03-5478265","COUNTYNAME":"新竹縣","TOWNNAME":"關西鎮","MARKTYPE":"996","Class":"6"}},{"type":"Feature","id":24999,"geometry":{"type":"Point","coordinates":[121.12399467551599,24.775679619528567]},"properties":{"OBJECTID":24999,"LANDMARKID":"1000400000688","LANDMARKCO":"604","LANDMARKNA":"飛鳳園","LANDMARKAD":"1000404","ADDRESS":"新竹縣關西鎮新力里7鄰80-1號","TEL":"03-5868170","COUNTYNAME":"新竹縣","TOWNNAME":"關西鎮","MARKTYPE":"996","Class":"6"}},{"type":"Feature","id":25000,"geometry":{"type":"Point","coordinates":[121.21597007888397,24.769025090382836]},"properties":{"OBJECTID":25000,"LANDMARKID":"1000400000659","LANDMARKCO":"603","LANDMARKNA":"統一渡假村-馬武督","LANDMARKAD":"1000404","ADDRESS":"新竹縣關西鎮馬武督34號","TEL":"03-5478889","COUNTYNAME":"新竹縣","TOWNNAME":"關西鎮","MARKTYPE":"996","Class":"6"}}]}