{"type":"FeatureCollection","features":[{"type":"Feature","id":15801,"geometry":{"type":"Point","coordinates":[120.4506666974018,22.46630686823573]},"properties":{"OBJECTID":15801,"LANDMARKID":"1001300001304","LANDMARKCO":"603","LANDMARKNA":"大鵬灣大飯店","LANDMARKAD":"1001303","ADDRESS":"屏東縣東港鎮中山路59號","TEL":"08-8353222","COUNTYNAME":"屏東縣","TOWNNAME":"東港鎮","MARKTYPE":"996","Class":"6"}},{"type":"Feature","id":15802,"geometry":{"type":"Point","coordinates":[120.44940564263051,22.466036829633985]},"properties":{"OBJECTID":15802,"LANDMARKID":"1001300001305","LANDMARKCO":"603","LANDMARKNA":"勝友旅社","LANDMARKAD":"1001303","ADDRESS":"屏東縣東港鎮中正路56號","TEL":"08-8322119","COUNTYNAME":"屏東縣","TOWNNAME":"東港鎮","MARKTYPE":"996","Class":"6"}},{"type":"Feature","id":15803,"geometry":{"type":"Point","coordinates":[120.44994460124592,22.466853274660458]},"properties":{"OBJECTID":15803,"LANDMARKID":"1001300001306","LANDMARKCO":"603","LANDMARKNA":"華安旅社","LANDMARKAD":"1001303","ADDRESS":"屏東縣東港鎮中正路98號","TEL":"08-8322254","COUNTYNAME":"屏東縣","TOWNNAME":"東港鎮","MARKTYPE":"996","Class":"6"}},{"type":"Feature","id":15804,"geometry":{"type":"Point","coordinates":[120.44745874868563,22.466475074416024]},"properties":{"OBJECTID":15804,"LANDMARKID":"1001300001307","LANDMARKCO":"603","LANDMARKNA":"新東港旅社","LANDMARKAD":"1001303","ADDRESS":"屏東縣東港鎮延平路118-4號","TEL":"08-8322109","COUNTYNAME":"屏東縣","TOWNNAME":"東港鎮","MARKTYPE":"996","Class":"6"}},{"type":"Feature","id":15805,"geometry":{"type":"Point","coordinates":[120.46200919663791,22.467339213437331]},"properties":{"OBJECTID":15805,"LANDMARKID":"1001300001308","LANDMARKCO":"603","LANDMARKNA":"東之港汽車旅館","LANDMARKAD":"1001303","ADDRESS":"屏東縣東港鎮船頭里水源二街139號","TEL":"08-8352229","COUNTYNAME":"屏東縣","TOWNNAME":"東港鎮","MARKTYPE":"996","Class":"6"}},{"type":"Feature","id":15806,"geometry":{"type":"Point","coordinates":[120.44845368927236,22.46738496276555]},"properties":{"OBJECTID":15806,"LANDMARKID":"1001300001309","LANDMARKCO":"603","LANDMARKNA":"福大旅社","LANDMARKAD":"1001303","ADDRESS":"屏東縣東港鎮興台里延平路117號","TEL":"08-8323152","COUNTYNAME":"屏東縣","TOWNNAME":"東港鎮","MARKTYPE":"996","Class":"6"}},{"type":"Feature","id":15807,"geometry":{"type":"Point","coordinates":[120.46673562606972,22.473402951806303]},"properties":{"OBJECTID":15807,"LANDMARKID":"1001300001310","LANDMARKCO":"603","LANDMARKNA":"玉大曆汽車旅館 (東戀)","LANDMARKAD":"1001303","ADDRESS":"屏東縣東港鎮興東路501號1-2樓","TEL":"08-8334001","COUNTYNAME":"屏東縣","TOWNNAME":"東港鎮","MARKTYPE":"996","Class":"6"}},{"type":"Feature","id":15808,"geometry":{"type":"Point","coordinates":[120.4726718210929,22.459499745753504]},"properties":{"OBJECTID":15808,"LANDMARKID":"1001300001223","LANDMARKCO":"505","LANDMARKNA":"仁鵬海洋親水牧場","LANDMARKAD":"1001303","ADDRESS":"屏東縣東港鎮船頭路75之87號","TEL":"08-8322777","COUNTYNAME":"屏東縣","TOWNNAME":"東港鎮","MARKTYPE":"995","Class":"5"}},{"type":"Feature","id":15809,"geometry":{"type":"Point","coordinates":[120.45854435447229,22.472522185398958]},"properties":{"OBJECTID":15809,"LANDMARKID":"1001300001274","LANDMARKCO":"511","LANDMARKNA":"東港夜市","LANDMARKAD":"1001303","ADDRESS":"屏東縣東港鎮","TEL":" ","COUNTYNAME":"屏東縣","TOWNNAME":"東港鎮","MARKTYPE":"995","Class":"5"}},{"type":"Feature","id":15810,"geometry":{"type":"Point","coordinates":[120.45598923665082,22.446117361029241]},"properties":{"OBJECTID":15810,"LANDMARKID":"1001300001193","LANDMARKCO":"503","LANDMARKNA":"青洲遊憩區","LANDMARKAD":"1001303","ADDRESS":"屏東縣東港鎮","TEL":" ","COUNTYNAME":"屏東縣","TOWNNAME":"東港鎮","MARKTYPE":"995","Class":"5"}},{"type":"Feature","id":15811,"geometry":{"type":"Point","coordinates":[120.47917999450115,22.454230414671084]},"properties":{"OBJECTID":15811,"LANDMARKID":"1001300001194","LANDMARKCO":"503","LANDMARKNA":"大鵬灣風景區","LANDMARKAD":"1001303","ADDRESS":"屏東縣東港鎮港鎮大鵬里大潭路169號","TEL":"08-8338100","COUNTYNAME":"屏東縣","TOWNNAME":"東港鎮","MARKTYPE":"995","Class":"5"}},{"type":"Feature","id":15812,"geometry":{"type":"Point","coordinates":[120.50345763268827,22.447691287017523]},"properties":{"OBJECTID":15812,"LANDMARKID":"1001300000936","LANDMARKCO":"405","LANDMARKNA":"中油加油站-林邊站","LANDMARKAD":"1001319","ADDRESS":"屏東縣林邊鄉鎮安村中山路585號","TEL":"08-8756997","COUNTYNAME":"屏東縣","TOWNNAME":"林邊鄉","MARKTYPE":"994","Class":"4"}},{"type":"Feature","id":15813,"geometry":{"type":"Point","coordinates":[120.51622120154308,22.433738493219153]},"properties":{"OBJECTID":15813,"LANDMARKID":"1001300001130","LANDMARKCO":"408","LANDMARKNA":"郵局-林邊郵局","LANDMARKAD":"1001319","ADDRESS":"屏東縣林邊鄉中林村中山路116號","TEL":"(08)8752-152","COUNTYNAME":"屏東縣","TOWNNAME":"林邊鄉","MARKTYPE":"994","Class":"4"}},{"type":"Feature","id":15814,"geometry":{"type":"Point","coordinates":[120.51390707822939,22.435521769108028]},"properties":{"OBJECTID":15814,"LANDMARKID":"1001300001170","LANDMARKCO":"409","LANDMARKNA":"屏東縣林邊鄉農會","LANDMARKAD":"1001319","ADDRESS":"屏東縣林邊鄉仁和村中山路303號","TEL":"08-8752811","COUNTYNAME":"屏東縣","TOWNNAME":"林邊鄉","MARKTYPE":"994","Class":"4"}},{"type":"Feature","id":15815,"geometry":{"type":"Point","coordinates":[120.51533075553414,22.432288183925778]},"properties":{"OBJECTID":15815,"LANDMARKID":"1001300001171","LANDMARKCO":"409","LANDMARKNA":"林邊區漁會","LANDMARKAD":"1001319","ADDRESS":"屏東縣林邊鄉仁愛路82號","TEL":"08-875-2023","COUNTYNAME":"屏東縣","TOWNNAME":"林邊鄉","MARKTYPE":"994","Class":"4"}},{"type":"Feature","id":15816,"geometry":{"type":"Point","coordinates":[120.50694177188571,22.43222068739777]},"properties":{"OBJECTID":15816,"LANDMARKID":"1001300001072","LANDMARKCO":"406","LANDMARKNA":"林邊運動公園","LANDMARKAD":"1001319","ADDRESS":"屏東縣林邊鄉","TEL":" ","COUNTYNAME":"屏東縣","TOWNNAME":"林邊鄉","MARKTYPE":"994","Class":"4"}},{"type":"Feature","id":15817,"geometry":{"type":"Point","coordinates":[120.52259488361597,22.440475631306043]},"properties":{"OBJECTID":15817,"LANDMARKID":"1001300001073","LANDMARKCO":"406","LANDMARKNA":"親林公園","LANDMARKAD":"1001319","ADDRESS":"屏東縣林邊鄉","TEL":" ","COUNTYNAME":"屏東縣","TOWNNAME":"林邊鄉","MARKTYPE":"994","Class":"4"}},{"type":"Feature","id":15818,"geometry":{"type":"Point","coordinates":[120.5082718729423,22.442835327610617]},"properties":{"OBJECTID":15818,"LANDMARKID":"1001300000920","LANDMARKCO":"405","LANDMARKNA":"福懋加油站-林邊站(台塑)","LANDMARKAD":"1001319","ADDRESS":"屏東縣林邊鄉鎮安村中山路530號","TEL":"08-8755449","COUNTYNAME":"屏東縣","TOWNNAME":"林邊鄉","MARKTYPE":"994","Class":"4"}},{"type":"Feature","id":15819,"geometry":{"type":"Point","coordinates":[120.50885456264379,22.44147570631015]},"properties":{"OBJECTID":15819,"LANDMARKID":"1001300000921","LANDMARKCO":"405","LANDMARKNA":"台亞加油站-林邊交流道站（台塑）","LANDMARKAD":"1001319","ADDRESS":"屏東縣林邊鄉中山路487號","TEL":"(08)875-8087","COUNTYNAME":"屏東縣","TOWNNAME":"林邊鄉","MARKTYPE":"994","Class":"4"}},{"type":"Feature","id":15820,"geometry":{"type":"Point","coordinates":[120.5163774167242,22.432653450631513]},"properties":{"OBJECTID":15820,"LANDMARKID":"1001300000144","LANDMARKCO":"106","LANDMARKNA":"屏東縣林邊鄉戶政事務所","LANDMARKAD":"1001319","ADDRESS":"屏東縣林邊鄉光林村8鄰中林路36號之5","TEL":"08-8752044","COUNTYNAME":"屏東縣","TOWNNAME":"林邊鄉","MARKTYPE":"991","Class":"1"}},{"type":"Feature","id":15821,"geometry":{"type":"Point","coordinates":[120.51828430057223,22.439249231665983]},"properties":{"OBJECTID":15821,"LANDMARKID":"1001300000220","LANDMARKCO":"107","LANDMARKNA":"屏東縣消防局林邊消防分隊","LANDMARKAD":"1001319","ADDRESS":"屏東縣林邊鄉中林村美華路197號之64","TEL":"08-8752119","COUNTYNAME":"屏東縣","TOWNNAME":"林邊鄉","MARKTYPE":"991","Class":"1"}},{"type":"Feature","id":15822,"geometry":{"type":"Point","coordinates":[120.51663782960901,22.432925947652937]},"properties":{"OBJECTID":15822,"LANDMARKID":"1001300000221","LANDMARKCO":"107","LANDMARKNA":"屏東縣警察局林邊分駐所","LANDMARKAD":"1001319","ADDRESS":"屏東縣林邊鄉光林村中山路185號","TEL":"08-8752018","COUNTYNAME":"屏東縣","TOWNNAME":"林邊鄉","MARKTYPE":"991","Class":"1"}},{"type":"Feature","id":15823,"geometry":{"type":"Point","coordinates":[120.51357763399895,22.435715612265096]},"properties":{"OBJECTID":15823,"LANDMARKID":"1001300000042","LANDMARKCO":"103","LANDMARKNA":"屏東縣林邊鄉衛生所","LANDMARKAD":"1001319","ADDRESS":"屏東縣林邊鄉仁和村中山路305號","TEL":"08-8752076","COUNTYNAME":"屏東縣","TOWNNAME":"林邊鄉","MARKTYPE":"991","Class":"1"}},{"type":"Feature","id":15824,"geometry":{"type":"Point","coordinates":[120.51430157420029,22.43498908549676]},"properties":{"OBJECTID":15824,"LANDMARKID":"1001300000043","LANDMARKCO":"103","LANDMARKNA":"屏東縣林邊鄉鄉民代表會","LANDMARKAD":"1001319","ADDRESS":"屏東縣林邊鄉中山路279號","TEL":"08-8754144","COUNTYNAME":"屏東縣","TOWNNAME":"林邊鄉","MARKTYPE":"991","Class":"1"}},{"type":"Feature","id":15825,"geometry":{"type":"Point","coordinates":[120.51430157420029,22.43498908549676]},"properties":{"OBJECTID":15825,"LANDMARKID":"1001300000321","LANDMARKCO":"108","LANDMARKNA":"屏東縣林邊鄉公所","LANDMARKAD":"1001319","ADDRESS":"屏東縣林邊鄉仁和村中山路279號","TEL":"08-8755123","COUNTYNAME":"屏東縣","TOWNNAME":"林邊鄉","MARKTYPE":"991","Class":"1"}},{"type":"Feature","id":15826,"geometry":{"type":"Point","coordinates":[120.51630991791724,22.433187526653676]},"properties":{"OBJECTID":15826,"LANDMARKID":"1001300000661","LANDMARKCO":"204","LANDMARKNA":"屏東縣立圖書館林邊分館","LANDMARKAD":"1001319","ADDRESS":"屏東縣林邊鄉永樂村美華路197之63號","TEL":" ","COUNTYNAME":"屏東縣","TOWNNAME":"林邊鄉","MARKTYPE":"992","Class":"2"}},{"type":"Feature","id":15827,"geometry":{"type":"Point","coordinates":[120.51046177662506,22.432544310610403]},"properties":{"OBJECTID":15827,"LANDMARKID":"1001300000412","LANDMARKCO":"203","LANDMARKNA":"縣立林邊國中","LANDMARKAD":"1001319","ADDRESS":"屏東縣林邊鄉光林村和平路43號","TEL":"08-8752051","COUNTYNAME":"屏東縣","TOWNNAME":"林邊鄉","MARKTYPE":"992","Class":"2"}},{"type":"Feature","id":15828,"geometry":{"type":"Point","coordinates":[120.51137012426784,22.437418188385639]},"properties":{"OBJECTID":15828,"LANDMARKID":"1001300000413","LANDMARKCO":"203","LANDMARKNA":"縣立仁和國小","LANDMARKAD":"1001319","ADDRESS":"屏東縣林邊鄉仁和村中山路417號","TEL":"08-8752201","COUNTYNAME":"屏東縣","TOWNNAME":"林邊鄉","MARKTYPE":"992","Class":"2"}},{"type":"Feature","id":15829,"geometry":{"type":"Point","coordinates":[120.51900173123738,22.432480162597749]},"properties":{"OBJECTID":15829,"LANDMARKID":"1001300000414","LANDMARKCO":"203","LANDMARKNA":"縣立林邊國小","LANDMARKAD":"1001319","ADDRESS":"屏東縣林邊鄉林邊村中山路68號","TEL":"08-8752120","COUNTYNAME":"屏東縣","TOWNNAME":"林邊鄉","MARKTYPE":"992","Class":"2"}},{"type":"Feature","id":15830,"geometry":{"type":"Point","coordinates":[120.53317336611195,22.464041054079825]},"properties":{"OBJECTID":15830,"LANDMARKID":"1001300000415","LANDMARKCO":"203","LANDMARKNA":"縣立竹林國小","LANDMARKAD":"1001319","ADDRESS":"屏東縣林邊鄉竹林村中興路122號","TEL":"08-8752884","COUNTYNAME":"屏東縣","TOWNNAME":"林邊鄉","MARKTYPE":"992","Class":"2"}},{"type":"Feature","id":15831,"geometry":{"type":"Point","coordinates":[120.49356460973486,22.426169907445118]},"properties":{"OBJECTID":15831,"LANDMARKID":"1001300000416","LANDMARKCO":"203","LANDMARKNA":"縣立崎峰國小","LANDMARKAD":"1001319","ADDRESS":"屏東縣林邊鄉崎峰村裕後路2號","TEL":"08-8752400","COUNTYNAME":"屏東縣","TOWNNAME":"林邊鄉","MARKTYPE":"992","Class":"2"}},{"type":"Feature","id":15832,"geometry":{"type":"Point","coordinates":[120.50480289707579,22.419063639643245]},"properties":{"OBJECTID":15832,"LANDMARKID":"1001300000417","LANDMARKCO":"203","LANDMARKNA":"縣立水利國小","LANDMARKAD":"1001319","ADDRESS":"屏東縣林邊鄉水利村豐漁路117號","TEL":"08-8752745","COUNTYNAME":"屏東縣","TOWNNAME":"林邊鄉","MARKTYPE":"992","Class":"2"}},{"type":"Feature","id":15833,"geometry":{"type":"Point","coordinates":[120.50683709303712,22.445876128489999]},"properties":{"OBJECTID":15833,"LANDMARKID":"1001300000796","LANDMARKCO":"308","LANDMARKNA":"國3-林邊端-北上","LANDMARKAD":"1001319","ADDRESS":"屏東縣林邊鄉","TEL":" ","COUNTYNAME":"屏東縣","TOWNNAME":"林邊鄉","MARKTYPE":"993","Class":"308"}},{"type":"Feature","id":15834,"geometry":{"type":"Point","coordinates":[120.50440067327428,22.444450484534784]},"properties":{"OBJECTID":15834,"LANDMARKID":"1001300000797","LANDMARKCO":"308","LANDMARKNA":"國3-林邊端-南下","LANDMARKAD":"1001319","ADDRESS":"屏東縣林邊鄉","TEL":" ","COUNTYNAME":"屏東縣","TOWNNAME":"林邊鄉","MARKTYPE":"993","Class":"308"}},{"type":"Feature","id":15835,"geometry":{"type":"Point","coordinates":[120.5112461168824,22.456826037650842]},"properties":{"OBJECTID":15835,"LANDMARKID":"1001300000693","LANDMARKCO":"301","LANDMARKNA":"鎮安火車站","LANDMARKAD":"1001319","ADDRESS":"屏東縣林邊鄉","TEL":" ","COUNTYNAME":"屏東縣","TOWNNAME":"林邊鄉","MARKTYPE":"993","Class":"301"}},{"type":"Feature","id":15836,"geometry":{"type":"Point","coordinates":[120.51571385981399,22.431487895522633]},"properties":{"OBJECTID":15836,"LANDMARKID":"1001300000694","LANDMARKCO":"301","LANDMARKNA":"林邊火車站","LANDMARKAD":"1001319","ADDRESS":"屏東縣林邊鄉仁和村仁愛路33號","TEL":"08-8751475","COUNTYNAME":"屏東縣","TOWNNAME":"林邊鄉","MARKTYPE":"993","Class":"301"}},{"type":"Feature","id":15837,"geometry":{"type":"Point","coordinates":[120.51790879805405,22.4327468404597]},"properties":{"OBJECTID":15837,"LANDMARKID":"1001300000851","LANDMARKCO":"402","LANDMARKNA":"中華電信-林邊服務中心","LANDMARKAD":"1001319","ADDRESS":"屏東縣林邊鄉中山路70號","TEL":"(08)844-3112","COUNTYNAME":"屏東縣","TOWNNAME":"林邊鄉","MARKTYPE":"994","Class":"4"}},{"type":"Feature","id":15838,"geometry":{"type":"Point","coordinates":[120.50912943415457,22.440666502126419]},"properties":{"OBJECTID":15838,"LANDMARKID":"1001300001302","LANDMARKCO":"603","LANDMARKNA":"愛之旅汽車旅館","LANDMARKAD":"1001319","ADDRESS":"屏東縣林邊鄉仁和村中山路457號","TEL":"08-8750755","COUNTYNAME":"屏東縣","TOWNNAME":"林邊鄉","MARKTYPE":"996","Class":"6"}},{"type":"Feature","id":15839,"geometry":{"type":"Point","coordinates":[120.54415864081224,22.41729046167093]},"properties":{"OBJECTID":15839,"LANDMARKID":"1001300000918","LANDMARKCO":"405","LANDMARKNA":"中油加油站-佳冬站 (中油直營)","LANDMARKAD":"1001321","ADDRESS":"屏東縣佳冬鄉六根村佳和路145號","TEL":"08-8662004","COUNTYNAME":"屏東縣","TOWNNAME":"佳冬鄉","MARKTYPE":"994","Class":"4"}},{"type":"Feature","id":15840,"geometry":{"type":"Point","coordinates":[120.5586474942853,22.44721777375975]},"properties":{"OBJECTID":15840,"LANDMARKID":"1001300000919","LANDMARKCO":"405","LANDMARKNA":"中油加油站-川流站","LANDMARKAD":"1001321","ADDRESS":"屏東縣佳冬鄉昌隆村大豐路786號","TEL":"08-8666986","COUNTYNAME":"屏東縣","TOWNNAME":"佳冬鄉","MARKTYPE":"994","Class":"4"}},{"type":"Feature","id":15841,"geometry":{"type":"Point","coordinates":[120.54814929111426,22.420256949482972]},"properties":{"OBJECTID":15841,"LANDMARKID":"1001300001246","LANDMARKCO":"507","LANDMARKNA":"佳冬楊氏宗祠","LANDMARKAD":"1001321","ADDRESS":"屏東縣佳冬鄉六根村冬根路19之30號","TEL":" ","COUNTYNAME":"屏東縣","TOWNNAME":"佳冬鄉","MARKTYPE":"995","Class":"5"}},{"type":"Feature","id":15842,"geometry":{"type":"Point","coordinates":[120.5504359610825,22.418194916422927]},"properties":{"OBJECTID":15842,"LANDMARKID":"1001300001247","LANDMARKCO":"507","LANDMARKNA":"佳冬蕭宅","LANDMARKAD":"1001321","ADDRESS":"屏東縣佳冬鄉佳冬村溝堵路1號","TEL":" ","COUNTYNAME":"屏東縣","TOWNNAME":"佳冬鄉","MARKTYPE":"995","Class":"5"}},{"type":"Feature","id":15843,"geometry":{"type":"Point","coordinates":[120.54818430677625,22.418331620809173]},"properties":{"OBJECTID":15843,"LANDMARKID":"1001300001248","LANDMARKCO":"507","LANDMARKNA":"茄冬西隘門","LANDMARKAD":"1001321","ADDRESS":"屏東縣佳冬鄉六根村冬根路上","TEL":" ","COUNTYNAME":"屏東縣","TOWNNAME":"佳冬鄉","MARKTYPE":"995","Class":"5"}},{"type":"Feature","id":15844,"geometry":{"type":"Point","coordinates":[120.55080337925786,22.420884565246272]},"properties":{"OBJECTID":15844,"LANDMARKID":"1001300001243","LANDMARKCO":"506","LANDMARKNA":"蓮霧觀光果園","LANDMARKAD":"1001321","ADDRESS":"屏東縣佳冬鄉佳冬村佳和路64號","TEL":"08-8662811","COUNTYNAME":"屏東縣","TOWNNAME":"佳冬鄉","MARKTYPE":"995","Class":"5"}},{"type":"Feature","id":15845,"geometry":{"type":"Point","coordinates":[120.55188706555946,22.414422575939682]},"properties":{"OBJECTID":15845,"LANDMARKID":"1001300001147","LANDMARKCO":"408","LANDMARKNA":"郵局-佳冬郵局","LANDMARKAD":"1001321","ADDRESS":"屏東縣佳冬鄉佳冬村佳和路86號","TEL":"(08)8662-047","COUNTYNAME":"屏東縣","TOWNNAME":"佳冬鄉","MARKTYPE":"994","Class":"4"}},{"type":"Feature","id":15846,"geometry":{"type":"Point","coordinates":[120.55363796958356,22.413719443773449]},"properties":{"OBJECTID":15846,"LANDMARKID":"1001300001162","LANDMARKCO":"409","LANDMARKNA":"屏東縣佳冬鄉農會","LANDMARKAD":"1001321","ADDRESS":"屏東縣佳冬鄉佳冬村佳和路64號","TEL":"08-8660012","COUNTYNAME":"屏東縣","TOWNNAME":"佳冬鄉","MARKTYPE":"994","Class":"4"}},{"type":"Feature","id":15847,"geometry":{"type":"Point","coordinates":[120.56427308467754,22.434185067926872]},"properties":{"OBJECTID":15847,"LANDMARKID":"1001300001074","LANDMARKCO":"406","LANDMARKNA":"大翔公園","LANDMARKAD":"1001321","ADDRESS":"屏東縣佳冬鄉","TEL":" ","COUNTYNAME":"屏東縣","TOWNNAME":"佳冬鄉","MARKTYPE":"994","Class":"4"}},{"type":"Feature","id":15848,"geometry":{"type":"Point","coordinates":[120.54631283308686,22.417560927635986]},"properties":{"OBJECTID":15848,"LANDMARKID":"1001300001075","LANDMARKCO":"406","LANDMARKNA":"佳冬公園","LANDMARKAD":"1001321","ADDRESS":"屏東縣佳冬鄉","TEL":" ","COUNTYNAME":"屏東縣","TOWNNAME":"佳冬鄉","MARKTYPE":"994","Class":"4"}},{"type":"Feature","id":15849,"geometry":{"type":"Point","coordinates":[120.54960548679055,22.414776644160231]},"properties":{"OBJECTID":15849,"LANDMARKID":"1001300000145","LANDMARKCO":"106","LANDMARKNA":"屏東縣佳冬鄉戶政事務所","LANDMARKAD":"1001321","ADDRESS":"屏東縣佳冬鄉六根村21鄰佳和路89號","TEL":"08-8662037","COUNTYNAME":"屏東縣","TOWNNAME":"佳冬鄉","MARKTYPE":"991","Class":"1"}},{"type":"Feature","id":15850,"geometry":{"type":"Point","coordinates":[120.55301489310595,22.416315422847575]},"properties":{"OBJECTID":15850,"LANDMARKID":"1001300000216","LANDMARKCO":"107","LANDMARKNA":"屏東縣消防局佳冬消防分隊","LANDMARKAD":"1001321","ADDRESS":"屏東縣佳冬鄉佳冬村文化三路155號","TEL":"08-8662119","COUNTYNAME":"屏東縣","TOWNNAME":"佳冬鄉","MARKTYPE":"991","Class":"1"}},{"type":"Feature","id":15851,"geometry":{"type":"Point","coordinates":[120.54960548679055,22.414776644160231]},"properties":{"OBJECTID":15851,"LANDMARKID":"1001300000217","LANDMARKCO":"107","LANDMARKNA":"屏東縣警察局佳冬分駐所","LANDMARKAD":"1001321","ADDRESS":"屏東縣佳冬鄉六根村佳和路89號","TEL":"08-8662089","COUNTYNAME":"屏東縣","TOWNNAME":"佳冬鄉","MARKTYPE":"991","Class":"1"}},{"type":"Feature","id":15852,"geometry":{"type":"Point","coordinates":[120.56120698980926,22.447946625639471]},"properties":{"OBJECTID":15852,"LANDMARKID":"1001300000218","LANDMARKCO":"107","LANDMARKNA":"屏東縣警察局昌隆派出所","LANDMARKAD":"1001321","ADDRESS":"屏東縣佳冬鄉昌隆村中正路16號","TEL":"08-8662344","COUNTYNAME":"屏東縣","TOWNNAME":"佳冬鄉","MARKTYPE":"991","Class":"1"}},{"type":"Feature","id":15853,"geometry":{"type":"Point","coordinates":[120.56324479362914,22.438113702878109]},"properties":{"OBJECTID":15853,"LANDMARKID":"1001300000219","LANDMARKCO":"107","LANDMARKNA":"屏東縣警察局石光派出所","LANDMARKAD":"1001321","ADDRESS":"屏東縣佳冬鄉石光村中山路200號","TEL":"08-8662034","COUNTYNAME":"屏東縣","TOWNNAME":"佳冬鄉","MARKTYPE":"991","Class":"1"}},{"type":"Feature","id":15854,"geometry":{"type":"Point","coordinates":[120.54957984167716,22.414234624024814]},"properties":{"OBJECTID":15854,"LANDMARKID":"1001300000044","LANDMARKCO":"103","LANDMARKNA":"屏東縣佳冬鄉衛生所","LANDMARKAD":"1001321","ADDRESS":"屏東縣佳冬鄉六根村佳和路87之1號","TEL":"08-8662018","COUNTYNAME":"屏東縣","TOWNNAME":"佳冬鄉","MARKTYPE":"991","Class":"1"}},{"type":"Feature","id":15855,"geometry":{"type":"Point","coordinates":[120.55238359051182,22.419209624503996]},"properties":{"OBJECTID":15855,"LANDMARKID":"1001300000045","LANDMARKCO":"103","LANDMARKNA":"屏東縣佳冬鄉民代表會","LANDMARKAD":"1001321","ADDRESS":"屏東縣佳冬鄉佳冬村佳昌路2號","TEL":"08-8662045","COUNTYNAME":"屏東縣","TOWNNAME":"佳冬鄉","MARKTYPE":"991","Class":"1"}},{"type":"Feature","id":15856,"geometry":{"type":"Point","coordinates":[120.55238359051182,22.419209624503996]},"properties":{"OBJECTID":15856,"LANDMARKID":"1001300000319","LANDMARKCO":"108","LANDMARKNA":"屏東縣佳冬鄉公所","LANDMARKAD":"1001321","ADDRESS":"屏東縣佳冬鄉佳冬村佳昌路２號","TEL":"08-8662714","COUNTYNAME":"屏東縣","TOWNNAME":"佳冬鄉","MARKTYPE":"991","Class":"1"}},{"type":"Feature","id":15857,"geometry":{"type":"Point","coordinates":[120.55303821020449,22.418676926158874]},"properties":{"OBJECTID":15857,"LANDMARKID":"1001300000663","LANDMARKCO":"204","LANDMARKNA":"屏東縣立圖書館佳冬分館","LANDMARKAD":"1001321","ADDRESS":"屏東縣佳冬鄉六根村東鎮路1號","TEL":" ","COUNTYNAME":"屏東縣","TOWNNAME":"佳冬鄉","MARKTYPE":"992","Class":"2"}},{"type":"Feature","id":15858,"geometry":{"type":"Point","coordinates":[120.56403835500576,22.413635922973643]},"properties":{"OBJECTID":15858,"LANDMARKID":"1001300000371","LANDMARKCO":"202","LANDMARKNA":"國立佳冬高農","LANDMARKAD":"1001321","ADDRESS":"屏東縣佳冬鄉佳冬村佳農街67號","TEL":"08-8662726","COUNTYNAME":"屏東縣","TOWNNAME":"佳冬鄉","MARKTYPE":"992","Class":"2"}},{"type":"Feature","id":15859,"geometry":{"type":"Point","coordinates":[120.56675689153154,22.428454234186429]},"properties":{"OBJECTID":15859,"LANDMARKID":"1001300000400","LANDMARKCO":"203","LANDMARKNA":"縣立佳冬國中","LANDMARKAD":"1001321","ADDRESS":"屏東縣佳冬鄉玉光村大同路1號","TEL":"08-8662041","COUNTYNAME":"屏東縣","TOWNNAME":"佳冬鄉","MARKTYPE":"992","Class":"2"}},{"type":"Feature","id":15860,"geometry":{"type":"Point","coordinates":[120.56085642518045,22.446687944378127]},"properties":{"OBJECTID":15860,"LANDMARKID":"1001300000401","LANDMARKCO":"203","LANDMARKNA":"縣立昌隆國小","LANDMARKAD":"1001321","ADDRESS":"屏東縣佳冬鄉昌隆村中正路44號","TEL":"08-8662093","COUNTYNAME":"屏東縣","TOWNNAME":"佳冬鄉","MARKTYPE":"992","Class":"2"}},{"type":"Feature","id":15861,"geometry":{"type":"Point","coordinates":[120.52590147995312,22.409557061201347]},"properties":{"OBJECTID":15861,"LANDMARKID":"1001300000402","LANDMARKCO":"203","LANDMARKNA":"縣立塭子國小","LANDMARKAD":"1001321","ADDRESS":"屏東縣佳冬鄉塭豐村中興路1號","TEL":"08-8662094","COUNTYNAME":"屏東縣","TOWNNAME":"佳冬鄉","MARKTYPE":"992","Class":"2"}},{"type":"Feature","id":15862,"geometry":{"type":"Point","coordinates":[120.5376461377834,22.450774972803011]},"properties":{"OBJECTID":15862,"LANDMARKID":"1001300000403","LANDMARKCO":"203","LANDMARKNA":"縣立大新國小","LANDMARKAD":"1001321","ADDRESS":"屏東縣佳冬鄉大同村武丁路33號","TEL":"08-8662175","COUNTYNAME":"屏東縣","TOWNNAME":"佳冬鄉","MARKTYPE":"992","Class":"2"}},{"type":"Feature","id":15863,"geometry":{"type":"Point","coordinates":[120.52636381711309,22.427080259494222]},"properties":{"OBJECTID":15863,"LANDMARKID":"1001300000404","LANDMARKCO":"203","LANDMARKNA":"縣立羌園國小","LANDMARKAD":"1001321","ADDRESS":"屏東縣佳冬鄉羌園村羌光路669號","TEL":"08-8662474","COUNTYNAME":"屏東縣","TOWNNAME":"佳冬鄉","MARKTYPE":"992","Class":"2"}},{"type":"Feature","id":15864,"geometry":{"type":"Point","coordinates":[120.55182028217963,22.422096485245053]},"properties":{"OBJECTID":15864,"LANDMARKID":"1001300000405","LANDMARKCO":"203","LANDMARKNA":"縣立佳冬國小","LANDMARKAD":"1001321","ADDRESS":"屏東縣佳冬鄉進學街150號","TEL":"08-8662009","COUNTYNAME":"屏東縣","TOWNNAME":"佳冬鄉","MARKTYPE":"992","Class":"2"}},{"type":"Feature","id":15865,"geometry":{"type":"Point","coordinates":[120.56518521910913,22.426737344799214]},"properties":{"OBJECTID":15865,"LANDMARKID":"1001300000406","LANDMARKCO":"203","LANDMARKNA":"縣立玉光國小","LANDMARKAD":"1001321","ADDRESS":"屏東縣佳冬鄉玉光村民學路81號","TEL":"08-8662629","COUNTYNAME":"屏東縣","TOWNNAME":"佳冬鄉","MARKTYPE":"992","Class":"2"}},{"type":"Feature","id":15866,"geometry":{"type":"Point","coordinates":[120.54775492723829,22.413981296959072]},"properties":{"OBJECTID":15866,"LANDMARKID":"1001300000692","LANDMARKCO":"301","LANDMARKNA":"佳冬火車站","LANDMARKAD":"1001321","ADDRESS":"屏東縣佳冬鄉六根村復興路21號","TEL":"08-8662939","COUNTYNAME":"屏東縣","TOWNNAME":"佳冬鄉","MARKTYPE":"993","Class":"301"}},{"type":"Feature","id":15867,"geometry":{"type":"Point","coordinates":[120.5466976291758,22.416305764979853]},"properties":{"OBJECTID":15867,"LANDMARKID":"1001300000852","LANDMARKCO":"402","LANDMARKNA":"中華電信-佳冬服務中心","LANDMARKAD":"1001321","ADDRESS":"屏東縣佳冬鄉佳和路130號","TEL":"(08)844-2444","COUNTYNAME":"屏東縣","TOWNNAME":"佳冬鄉","MARKTYPE":"994","Class":"4"}},{"type":"Feature","id":15868,"geometry":{"type":"Point","coordinates":[120.626712106395,22.370905020870069]},"properties":{"OBJECTID":15868,"LANDMARKID":"1001300001146","LANDMARKCO":"408","LANDMARKNA":"郵局-春日郵局","LANDMARKAD":"1001331","ADDRESS":"屏東縣春日鄉春日路13號","TEL":"(08)8786-375","COUNTYNAME":"屏東縣","TOWNNAME":"春日鄉","MARKTYPE":"994","Class":"4"}},{"type":"Feature","id":15869,"geometry":{"type":"Point","coordinates":[120.62723185869982,22.370712767175672]},"properties":{"OBJECTID":15869,"LANDMARKID":"1001300000225","LANDMARKCO":"107","LANDMARKNA":"屏東縣警察局春日分駐所","LANDMARKAD":"1001331","ADDRESS":"屏東縣春日鄉春日村春日路316號","TEL":"08-8785180","COUNTYNAME":"屏東縣","TOWNNAME":"春日鄉","MARKTYPE":"991","Class":"1"}},{"type":"Feature","id":15870,"geometry":{"type":"Point","coordinates":[120.6274770690747,22.371079666932136]},"properties":{"OBJECTID":15870,"LANDMARKID":"1001300000143","LANDMARKCO":"106","LANDMARKNA":"屏東縣春日鄉戶政事務所","LANDMARKAD":"1001331","ADDRESS":"屏東縣春日鄉春日村1鄰春日路29號","TEL":"08-8781613","COUNTYNAME":"屏東縣","TOWNNAME":"春日鄉","MARKTYPE":"991","Class":"1"}},{"type":"Feature","id":15871,"geometry":{"type":"Point","coordinates":[120.62891546892601,22.359790714710083]},"properties":{"OBJECTID":15871,"LANDMARKID":"1001300000222","LANDMARKCO":"107","LANDMARKNA":"屏東縣警察局古華派出所","LANDMARKAD":"1001331","ADDRESS":"屏東縣春日鄉古華村古華路2巷18號","TEL":"08-8786940","COUNTYNAME":"屏東縣","TOWNNAME":"春日鄉","MARKTYPE":"991","Class":"1"}},{"type":"Feature","id":15872,"geometry":{"type":"Point","coordinates":[120.66384078502287,22.368269217354054]},"properties":{"OBJECTID":15872,"LANDMARKID":"1001300000223","LANDMARKCO":"107","LANDMARKNA":"屏東縣警察局士文派出所","LANDMARKAD":"1001331","ADDRESS":"屏東縣春日鄉士文村士文路64號","TEL":"08-8790020","COUNTYNAME":"屏東縣","TOWNNAME":"春日鄉","MARKTYPE":"991","Class":"1"}},{"type":"Feature","id":15873,"geometry":{"type":"Point","coordinates":[120.63080517637133,22.428433023693703]},"properties":{"OBJECTID":15873,"LANDMARKID":"1001300000224","LANDMARKCO":"107","LANDMARKNA":"屏東縣警察局歸崇派出所","LANDMARKAD":"1001331","ADDRESS":"屏東縣春日鄉歸崇村玉光路6號","TEL":"08-8791104","COUNTYNAME":"屏東縣","TOWNNAME":"春日鄉","MARKTYPE":"991","Class":"1"}},{"type":"Feature","id":15874,"geometry":{"type":"Point","coordinates":[120.62934305317279,22.370810881954935]},"properties":{"OBJECTID":15874,"LANDMARKID":"1001300000046","LANDMARKCO":"103","LANDMARKNA":"屏東縣春日鄉鄉民代表會","LANDMARKAD":"1001331","ADDRESS":"屏東縣春日鄉春日路322號","TEL":"08-8781970","COUNTYNAME":"屏東縣","TOWNNAME":"春日鄉","MARKTYPE":"991","Class":"1"}},{"type":"Feature","id":15875,"geometry":{"type":"Point","coordinates":[120.64661885285338,22.434336139511498]},"properties":{"OBJECTID":15875,"LANDMARKID":"1001300000047","LANDMARKCO":"103","LANDMARKNA":"屏東縣春日鄉衛生所","LANDMARKAD":"1001331","ADDRESS":"屏東縣春日鄉春日村176號","TEL":"08-8782297","COUNTYNAME":"屏東縣","TOWNNAME":"春日鄉","MARKTYPE":"991","Class":"1"}},{"type":"Feature","id":15876,"geometry":{"type":"Point","coordinates":[120.62869764667151,22.370803407690943]},"properties":{"OBJECTID":15876,"LANDMARKID":"1001300000320","LANDMARKCO":"108","LANDMARKNA":"屏東縣春日鄉公所","LANDMARKAD":"1001331","ADDRESS":"屏東縣春日鄉春日村322號","TEL":"08-8782145","COUNTYNAME":"屏東縣","TOWNNAME":"春日鄉","MARKTYPE":"991","Class":"1"}},{"type":"Feature","id":15877,"geometry":{"type":"Point","coordinates":[120.62939003716922,22.371285784523877]},"properties":{"OBJECTID":15877,"LANDMARKID":"1001300000662","LANDMARKCO":"204","LANDMARKNA":"屏東縣立圖書館春日分館","LANDMARKAD":"1001331","ADDRESS":"屏東縣春日鄉春日村春日路322號","TEL":" ","COUNTYNAME":"屏東縣","TOWNNAME":"春日鄉","MARKTYPE":"992","Class":"2"}},{"type":"Feature","id":15878,"geometry":{"type":"Point","coordinates":[120.62598613508089,22.361048037260904]},"properties":{"OBJECTID":15878,"LANDMARKID":"1001300000407","LANDMARKCO":"203","LANDMARKNA":"縣立古華國小","LANDMARKAD":"1001331","ADDRESS":"屏東縣春日鄉古華村古華路3巷63號","TEL":"08-8781040","COUNTYNAME":"屏東縣","TOWNNAME":"春日鄉","MARKTYPE":"992","Class":"2"}},{"type":"Feature","id":15879,"geometry":{"type":"Point","coordinates":[120.62701530440975,22.370264717220689]},"properties":{"OBJECTID":15879,"LANDMARKID":"1001300000408","LANDMARKCO":"203","LANDMARKNA":"縣立春日國小","LANDMARKAD":"1001331","ADDRESS":"屏東縣春日鄉春日村春日路314號","TEL":"08-8782433","COUNTYNAME":"屏東縣","TOWNNAME":"春日鄉","MARKTYPE":"992","Class":"2"}},{"type":"Feature","id":15880,"geometry":{"type":"Point","coordinates":[120.62569788423338,22.367454412348074]},"properties":{"OBJECTID":15880,"LANDMARKID":"1001300000409","LANDMARKCO":"203","LANDMARKNA":"縣立春日國中","LANDMARKAD":"1001331","ADDRESS":"屏東縣春日鄉","TEL":" ","COUNTYNAME":"屏東縣","TOWNNAME":"春日鄉","MARKTYPE":"992","Class":"2"}},{"type":"Feature","id":15881,"geometry":{"type":"Point","coordinates":[120.64791211783182,22.432710078077893]},"properties":{"OBJECTID":15881,"LANDMARKID":"1001300000410","LANDMARKCO":"203","LANDMARKNA":"縣立力里國小圓山分校","LANDMARKAD":"1001331","ADDRESS":"屏東縣春日鄉力里村27號","TEL":"08-8791664","COUNTYNAME":"屏東縣","TOWNNAME":"春日鄉","MARKTYPE":"992","Class":"2"}},{"type":"Feature","id":15882,"geometry":{"type":"Point","coordinates":[120.66350246390324,22.368895493335838]},"properties":{"OBJECTID":15882,"LANDMARKID":"1001300000411","LANDMARKCO":"203","LANDMARKNA":"縣立古華國小士文分校","LANDMARKAD":"1001331","ADDRESS":"屏東縣春日鄉","TEL":" ","COUNTYNAME":"屏東縣","TOWNNAME":"春日鄉","MARKTYPE":"992","Class":"2"}},{"type":"Feature","id":15883,"geometry":{"type":"Point","coordinates":[120.59234602931825,22.370720576840455]},"properties":{"OBJECTID":15883,"LANDMARKID":"1001300000914","LANDMARKCO":"405","LANDMARKNA":"中油加油站-枋寮站(中油直營)","LANDMARKAD":"1001316","ADDRESS":"屏東縣枋寮鄉新龍村中山路319號","TEL":"08-8782060","COUNTYNAME":"屏東縣","TOWNNAME":"枋寮鄉","MARKTYPE":"994","Class":"4"}},{"type":"Feature","id":15884,"geometry":{"type":"Point","coordinates":[120.60191712584593,22.374450241585432]},"properties":{"OBJECTID":15884,"LANDMARKID":"1001300000915","LANDMARKCO":"405","LANDMARKNA":"中油加油站-水底寮站","LANDMARKAD":"1001316","ADDRESS":"屏東縣枋寮鄉中正大路662號","TEL":"08-8710145","COUNTYNAME":"屏東縣","TOWNNAME":"枋寮鄉","MARKTYPE":"994","Class":"4"}},{"type":"Feature","id":15885,"geometry":{"type":"Point","coordinates":[120.58881180729979,22.39450993648946]},"properties":{"OBJECTID":15885,"LANDMARKID":"1001300000916","LANDMARKCO":"405","LANDMARKNA":"中油加油站-東龍站","LANDMARKAD":"1001316","ADDRESS":"屏東縣枋寮鄉東海村臨海路403號","TEL":"08-8716096","COUNTYNAME":"屏東縣","TOWNNAME":"枋寮鄉","MARKTYPE":"994","Class":"4"}},{"type":"Feature","id":15886,"geometry":{"type":"Point","coordinates":[120.59671587115761,22.37994754258094]},"properties":{"OBJECTID":15886,"LANDMARKID":"1001300000917","LANDMARKCO":"405","LANDMARKNA":"千越加油站-枋寮站(中油)","LANDMARKAD":"1001316","ADDRESS":"屏東縣枋寮鄉中山路二段66號","TEL":"08-871-1212","COUNTYNAME":"屏東縣","TOWNNAME":"枋寮鄉","MARKTYPE":"994","Class":"4"}},{"type":"Feature","id":15887,"geometry":{"type":"Point","coordinates":[120.59742753434668,22.363691655636426]},"properties":{"OBJECTID":15887,"LANDMARKID":"1001300000849","LANDMARKCO":"402","LANDMARKNA":"亞太行動寬頻電信-屏東枋寮加盟服務中心","LANDMARKAD":"1001316","ADDRESS":"屏東縣枋寮鄉中山路127號","TEL":"08-8788358","COUNTYNAME":"屏東縣","TOWNNAME":"枋寮鄉","MARKTYPE":"994","Class":"4"}},{"type":"Feature","id":15888,"geometry":{"type":"Point","coordinates":[120.59678235439453,22.364146926963716]},"properties":{"OBJECTID":15888,"LANDMARKID":"1001300000841","LANDMARKCO":"401","LANDMARKNA":"枋寮醫院","LANDMARKAD":"1001316","ADDRESS":"屏東縣枋寮鄉中山路139號","TEL":"08-8789991","COUNTYNAME":"屏東縣","TOWNNAME":"枋寮鄉","MARKTYPE":"994","Class":"4"}},{"type":"Feature","id":15889,"geometry":{"type":"Point","coordinates":[120.58346161807833,22.398841594981757]},"properties":{"OBJECTID":15889,"LANDMARKID":"1001300001249","LANDMARKCO":"507","LANDMARKNA":"石頭營聖蹟亭","LANDMARKAD":"1001316","ADDRESS":"屏東縣枋寮鄉玉泉村大嚮營段947地號","TEL":" ","COUNTYNAME":"屏東縣","TOWNNAME":"枋寮鄉","MARKTYPE":"995","Class":"5"}},{"type":"Feature","id":15890,"geometry":{"type":"Point","coordinates":[120.59509871152243,22.366486705307253]},"properties":{"OBJECTID":15890,"LANDMARKID":"1001300001149","LANDMARKCO":"408","LANDMARKNA":"郵局-枋寮郵局","LANDMARKAD":"1001316","ADDRESS":"屏東縣枋寮鄉中山路194號","TEL":"(08)8782-130","COUNTYNAME":"屏東縣","TOWNNAME":"枋寮鄉","MARKTYPE":"994","Class":"4"}},{"type":"Feature","id":15891,"geometry":{"type":"Point","coordinates":[120.59512343948884,22.385362200662449]},"properties":{"OBJECTID":15891,"LANDMARKID":"1001300001150","LANDMARKCO":"408","LANDMARKNA":"郵局-枋寮水底寮郵局","LANDMARKAD":"1001316","ADDRESS":"屏東縣枋寮鄉中山路2段258號","TEL":"(08)8712-359","COUNTYNAME":"屏東縣","TOWNNAME":"枋寮鄉","MARKTYPE":"994","Class":"4"}},{"type":"Feature","id":15892,"geometry":{"type":"Point","coordinates":[120.59380296176343,22.363145614261505]},"properties":{"OBJECTID":15892,"LANDMARKID":"1001300001158","LANDMARKCO":"409","LANDMARKNA":"枋寮區漁會","LANDMARKAD":"1001316","ADDRESS":"屏東縣枋寮鄉保生村保生路437號","TEL":"08-8781324","COUNTYNAME":"屏東縣","TOWNNAME":"枋寮鄉","MARKTYPE":"994","Class":"4"}},{"type":"Feature","id":15893,"geometry":{"type":"Point","coordinates":[120.59657825330063,22.362791256524051]},"properties":{"OBJECTID":15893,"LANDMARKID":"1001300001159","LANDMARKCO":"409","LANDMARKNA":"枋寮地區農會","LANDMARKAD":"1001316","ADDRESS":"屏東縣枋寮鄉 安樂村安樂路82號","TEL":"08-8785121","COUNTYNAME":"屏東縣","TOWNNAME":"枋寮鄉","MARKTYPE":"994","Class":"4"}},{"type":"Feature","id":15894,"geometry":{"type":"Point","coordinates":[120.60066689643838,22.364626709189157]},"properties":{"OBJECTID":15894,"LANDMARKID":"1001300001160","LANDMARKCO":"409","LANDMARKNA":"枋山地區農會","LANDMARKAD":"1001316","ADDRESS":"屏東縣枋山鄉善餘村德隆路25-1號","TEL":"08-877125","COUNTYNAME":"屏東縣","TOWNNAME":"枋寮鄉","MARKTYPE":"994","Class":"4"}},{"type":"Feature","id":15895,"geometry":{"type":"Point","coordinates":[120.60973664995052,22.346571988724261]},"properties":{"OBJECTID":15895,"LANDMARKID":"1001300000929","LANDMARKCO":"405","LANDMARKNA":"台塑加油站-桂格站(台塑)","LANDMARKAD":"1001316","ADDRESS":"屏東縣枋寮鄉隆山村中正大路28號","TEL":"08-8788188","COUNTYNAME":"屏東縣","TOWNNAME":"枋寮鄉","MARKTYPE":"994","Class":"4"}},{"type":"Feature","id":15920,"geometry":{"type":"Point","coordinates":[120.58490990215311,22.37440180519237]},"properties":{"OBJECTID":15920,"LANDMARKID":"1001300000393","LANDMARKCO":"203","LANDMARKNA":"縣立枋寮國小新龍分校","LANDMARKAD":"1001316","ADDRESS":"屏東縣枋寮鄉","TEL":" ","COUNTYNAME":"屏東縣","TOWNNAME":"枋寮鄉","MARKTYPE":"992","Class":"2"}},{"type":"Feature","id":15921,"geometry":{"type":"Point","coordinates":[120.59240313302966,22.3639657137503]},"properties":{"OBJECTID":15921,"LANDMARKID":"1001300000795","LANDMARKCO":"305","LANDMARKNA":"枋寮漁港","LANDMARKAD":"1001316","ADDRESS":"屏東縣枋寮鄉","TEL":" ","COUNTYNAME":"屏東縣","TOWNNAME":"枋寮鄉","MARKTYPE":"993","Class":"305"}},{"type":"Feature","id":15922,"geometry":{"type":"Point","coordinates":[120.59435005023529,22.367309073388817]},"properties":{"OBJECTID":15922,"LANDMARKID":"1001300000707","LANDMARKCO":"302","LANDMARKNA":"國光汽車客運枋寮站","LANDMARKAD":"1001316","ADDRESS":"屏東縣枋寮鄉中興路7號","TEL":" ","COUNTYNAME":"屏東縣","TOWNNAME":"枋寮鄉","MARKTYPE":"993","Class":"302"}},{"type":"Feature","id":15923,"geometry":{"type":"Point","coordinates":[120.58413346102614,22.402502819173254]},"properties":{"OBJECTID":15923,"LANDMARKID":"1001300000766","LANDMARKCO":"303","LANDMARKNA":"綠色碼頭停車場","LANDMARKAD":"1001316","ADDRESS":"屏東縣枋寮鄉臨海路二段48號","TEL":" ","COUNTYNAME":"屏東縣","TOWNNAME":"枋寮鄉","MARKTYPE":"993","Class":"303"}},{"type":"Feature","id":15924,"geometry":{"type":"Point","coordinates":[120.59496538440015,22.360889699473969]},"properties":{"OBJECTID":15924,"LANDMARKID":"1001300000767","LANDMARKCO":"303","LANDMARKNA":"枋寮漁港停車場","LANDMARKAD":"1001316","ADDRESS":"屏東縣枋寮鄉","TEL":" ","COUNTYNAME":"屏東縣","TOWNNAME":"枋寮鄉","MARKTYPE":"993","Class":"303"}},{"type":"Feature","id":15925,"geometry":{"type":"Point","coordinates":[120.58233749390038,22.385693379071331]},"properties":{"OBJECTID":15925,"LANDMARKID":"1001300000689","LANDMARKCO":"301","LANDMARKNA":"建興火車站(閒)","LANDMARKAD":"1001316","ADDRESS":"屏東縣枋寮鄉","TEL":" ","COUNTYNAME":"屏東縣","TOWNNAME":"枋寮鄉","MARKTYPE":"993","Class":"301"}},{"type":"Feature","id":15926,"geometry":{"type":"Point","coordinates":[120.57253496507924,22.39881739082702]},"properties":{"OBJECTID":15926,"LANDMARKID":"1001300000690","LANDMARKCO":"301","LANDMARKNA":"東海火車站","LANDMARKAD":"1001316","ADDRESS":"屏東縣枋寮鄉","TEL":" ","COUNTYNAME":"屏東縣","TOWNNAME":"枋寮鄉","MARKTYPE":"993","Class":"301"}},{"type":"Feature","id":15927,"geometry":{"type":"Point","coordinates":[120.59606485801822,22.367973223589463]},"properties":{"OBJECTID":15927,"LANDMARKID":"1001300000691","LANDMARKCO":"301","LANDMARKNA":"枋寮火車站","LANDMARKAD":"1001316","ADDRESS":"屏東縣枋寮鄉枋寮村儲運路18號","TEL":"08-8782041","COUNTYNAME":"屏東縣","TOWNNAME":"枋寮鄉","MARKTYPE":"993","Class":"301"}},{"type":"Feature","id":15928,"geometry":{"type":"Point","coordinates":[120.59399142516084,22.367933138513056]},"properties":{"OBJECTID":15928,"LANDMARKID":"1001300000848","LANDMARKCO":"402","LANDMARKNA":"中華電信-枋寮服務中心","LANDMARKAD":"1001316","ADDRESS":"屏東縣枋寮鄉中山路240號","TEL":"(08)844-4011","COUNTYNAME":"屏東縣","TOWNNAME":"枋寮鄉","MARKTYPE":"994","Class":"4"}},{"type":"Feature","id":15929,"geometry":{"type":"Point","coordinates":[120.59487856557257,22.385722227852174]},"properties":{"OBJECTID":15929,"LANDMARKID":"1001300001296","LANDMARKCO":"603","LANDMARKNA":"東昇旅社","LANDMARKAD":"1001316","ADDRESS":"屏東縣枋寮鄉人和村中山路二段280號","TEL":"08-8782308","COUNTYNAME":"屏東縣","TOWNNAME":"枋寮鄉","MARKTYPE":"996","Class":"6"}},{"type":"Feature","id":15930,"geometry":{"type":"Point","coordinates":[120.5944535593238,22.386713524047092]},"properties":{"OBJECTID":15930,"LANDMARKID":"1001300001297","LANDMARKCO":"603","LANDMARKNA":"建興大旅社","LANDMARKAD":"1001316","ADDRESS":"屏東縣枋寮鄉人和村中山路二段322號","TEL":"08-8782217","COUNTYNAME":"屏東縣","TOWNNAME":"枋寮鄉","MARKTYPE":"996","Class":"6"}},{"type":"Feature","id":15931,"geometry":{"type":"Point","coordinates":[120.5951800464847,22.36585491709425]},"properties":{"OBJECTID":15931,"LANDMARKID":"1001300001298","LANDMARKCO":"603","LANDMARKNA":"江南旅社","LANDMARKAD":"1001316","ADDRESS":"屏東縣枋寮鄉枋寮村中山路187號","TEL":"08-8786195","COUNTYNAME":"屏東縣","TOWNNAME":"枋寮鄉","MARKTYPE":"996","Class":"6"}},{"type":"Feature","id":15932,"geometry":{"type":"Point","coordinates":[120.59147980033109,22.406761974381084]},"properties":{"OBJECTID":15932,"LANDMARKID":"1001300001413","LANDMARKCO":"604","LANDMARKNA":"崑山會館民宿","LANDMARKAD":"1001316","ADDRESS":"屏東縣枋寮鄉太源村太源路20-3號","TEL":"08-8711511","COUNTYNAME":"屏東縣","TOWNNAME":"枋寮鄉","MARKTYPE":"996","Class":"6"}},{"type":"Feature","id":15933,"geometry":{"type":"Point","coordinates":[120.37046925631219,22.336945031971947]},"properties":{"OBJECTID":15933,"LANDMARKID":"1001300000928","LANDMARKCO":"405","LANDMARKNA":"中油加油站-小琉球站(中油直營)","LANDMARKAD":"1001322","ADDRESS":"屏東縣琉球鄉大福村和平路3巷33-7號","TEL":"08-8613054","COUNTYNAME":"屏東縣","TOWNNAME":"琉球鄉","MARKTYPE":"994","Class":"4"}},{"type":"Feature","id":15934,"geometry":{"type":"Point","coordinates":[120.38085121160245,22.351178190201495]},"properties":{"OBJECTID":15934,"LANDMARKID":"1001300001148","LANDMARKCO":"408","LANDMARKNA":"郵局-琉球郵局","LANDMARKAD":"1001322","ADDRESS":"屏東縣琉球鄉本福村中山路105號","TEL":"(08)8612-507","COUNTYNAME":"屏東縣","TOWNNAME":"琉球鄉","MARKTYPE":"994","Class":"4"}},{"type":"Feature","id":15935,"geometry":{"type":"Point","coordinates":[120.38108433659971,22.352534195411582]},"properties":{"OBJECTID":15935,"LANDMARKID":"1001300001161","LANDMARKCO":"409","LANDMARKNA":"屏東縣琉球鄉農會","LANDMARKAD":"1001322","ADDRESS":"屏東縣琉球鄉本福村民生路3號","TEL":"08-8613626","COUNTYNAME":"屏東縣","TOWNNAME":"琉球鄉","MARKTYPE":"994","Class":"4"}},{"type":"Feature","id":15936,"geometry":{"type":"Point","coordinates":[120.3580041327038,22.323534414709471]},"properties":{"OBJECTID":15936,"LANDMARKID":"1001300001070","LANDMARKCO":"406","LANDMARKNA":"海底公園","LANDMARKAD":"1001322","ADDRESS":"屏東縣琉球鄉","TEL":" ","COUNTYNAME":"屏東縣","TOWNNAME":"琉球鄉","MARKTYPE":"994","Class":"4"}},{"type":"Feature","id":15937,"geometry":{"type":"Point","coordinates":[120.36596870171715,22.328677805247885]},"properties":{"OBJECTID":15937,"LANDMARKID":"1001300001071","LANDMARKCO":"406","LANDMARKNA":"觀日公園","LANDMARKAD":"1001322","ADDRESS":"屏東縣琉球鄉","TEL":" ","COUNTYNAME":"屏東縣","TOWNNAME":"琉球鄉","MARKTYPE":"994","Class":"4"}},{"type":"Feature","id":15938,"geometry":{"type":"Point","coordinates":[120.38233298577498,22.352986676796114]},"properties":{"OBJECTID":15938,"LANDMARKID":"1001300000141","LANDMARKCO":"106","LANDMARKNA":"屏東縣琉球鄉戶政事務所","LANDMARKAD":"1001322","ADDRESS":"屏東縣琉球鄉中福村1鄰中山路262號","TEL":"08-8612519","COUNTYNAME":"屏東縣","TOWNNAME":"琉球鄉","MARKTYPE":"991","Class":"1"}},{"type":"Feature","id":15919,"geometry":{"type":"Point","coordinates":[120.6176038088186,22.40744469473767]},"properties":{"OBJECTID":15919,"LANDMARKID":"1001300000392","LANDMARKCO":"203","LANDMARKNA":"縣立建興國小新開分校","LANDMARKAD":"1001316","ADDRESS":"屏東縣枋寮鄉","TEL":" ","COUNTYNAME":"屏東縣","TOWNNAME":"枋寮鄉","MARKTYPE":"992","Class":"2"}},{"type":"Feature","id":15918,"geometry":{"type":"Point","coordinates":[120.61601937161441,22.423067855780566]},"properties":{"OBJECTID":15918,"LANDMARKID":"1001300000391","LANDMARKCO":"203","LANDMARKNA":"縣立玉泉國小","LANDMARKAD":"1001316","ADDRESS":"屏東縣枋寮鄉","TEL":" ","COUNTYNAME":"屏東縣","TOWNNAME":"枋寮鄉","MARKTYPE":"992","Class":"2"}},{"type":"Feature","id":15917,"geometry":{"type":"Point","coordinates":[120.6287344164266,22.427790943293672]},"properties":{"OBJECTID":15917,"LANDMARKID":"1001300000390","LANDMARKCO":"203","LANDMARKNA":"縣立力里國小","LANDMARKAD":"1001316","ADDRESS":"屏東縣春日鄉七佳村自強一路92號","TEL":"08-8791020","COUNTYNAME":"屏東縣","TOWNNAME":"枋寮鄉","MARKTYPE":"992","Class":"2"}},{"type":"Feature","id":15916,"geometry":{"type":"Point","coordinates":[120.59076232028518,22.367829077710851]},"properties":{"OBJECTID":15916,"LANDMARKID":"1001300000389","LANDMARKCO":"203","LANDMARKNA":"縣立枋寮國小","LANDMARKAD":"1001316","ADDRESS":"屏東縣枋寮鄉德興路197號","TEL":"08-8782034","COUNTYNAME":"屏東縣","TOWNNAME":"枋寮鄉","MARKTYPE":"992","Class":"2"}},{"type":"Feature","id":15915,"geometry":{"type":"Point","coordinates":[120.57729954046943,22.401303980607249]},"properties":{"OBJECTID":15915,"LANDMARKID":"1001300000388","LANDMARKCO":"203","LANDMARKNA":"縣立東海國小","LANDMARKAD":"1001316","ADDRESS":"屏東縣枋寮鄉東海村東海路486號","TEL":"08-8712209","COUNTYNAME":"屏東縣","TOWNNAME":"枋寮鄉","MARKTYPE":"992","Class":"2"}},{"type":"Feature","id":15914,"geometry":{"type":"Point","coordinates":[120.59300040872301,22.408205356684483]},"properties":{"OBJECTID":15914,"LANDMARKID":"1001300000387","LANDMARKCO":"203","LANDMARKNA":"縣立太源國小","LANDMARKAD":"1001316","ADDRESS":"屏東縣枋寮鄉太源村太源路2之10號","TEL":"08-8715785","COUNTYNAME":"屏東縣","TOWNNAME":"枋寮鄉","MARKTYPE":"992","Class":"2"}},{"type":"Feature","id":15913,"geometry":{"type":"Point","coordinates":[120.60003721436674,22.363061023580059]},"properties":{"OBJECTID":15913,"LANDMARKID":"1001300000386","LANDMARKCO":"203","LANDMARKNA":"縣立僑德國小","LANDMARKAD":"1001316","ADDRESS":"屏東縣枋寮鄉隆山村僑德路186號","TEL":"08-8782096","COUNTYNAME":"屏東縣","TOWNNAME":"枋寮鄉","MARKTYPE":"992","Class":"2"}},{"type":"Feature","id":15912,"geometry":{"type":"Point","coordinates":[120.59075143414573,22.371080288608066]},"properties":{"OBJECTID":15912,"LANDMARKID":"1001300000372","LANDMARKCO":"202","LANDMARKNA":"縣立枋寮高中","LANDMARKAD":"1001316","ADDRESS":"屏東縣枋寮鄉新龍村義民路3號","TEL":"08-8782095","COUNTYNAME":"屏東縣","TOWNNAME":"枋寮鄉","MARKTYPE":"992","Class":"2"}},{"type":"Feature","id":15911,"geometry":{"type":"Point","coordinates":[120.60170083262938,22.386275106221106]},"properties":{"OBJECTID":15911,"LANDMARKID":"1001300000394","LANDMARKCO":"203","LANDMARKNA":"縣立建興國小","LANDMARKAD":"1001316","ADDRESS":"屏東縣枋寮鄉人和村建興路39號","TEL":"08-8713562","COUNTYNAME":"屏東縣","TOWNNAME":"枋寮鄉","MARKTYPE":"992","Class":"2"}},{"type":"Feature","id":15910,"geometry":{"type":"Point","coordinates":[120.57726641213081,22.410307288704455]},"properties":{"OBJECTID":15910,"LANDMARKID":"1001300000683","LANDMARKCO":"206","LANDMARKNA":"國立台南社會教育館屏南社會教育","LANDMARKAD":"1001316","ADDRESS":"屏東縣枋寮鄉屏南路36號","TEL":" ","COUNTYNAME":"屏東縣","TOWNNAME":"枋寮鄉","MARKTYPE":"992","Class":"2"}},{"type":"Feature","id":15909,"geometry":{"type":"Point","coordinates":[120.59239973745485,22.367236585076824]},"properties":{"OBJECTID":15909,"LANDMARKID":"1001300000665","LANDMARKCO":"204","LANDMARKNA":"屏東縣立圖書館枋寮分館","LANDMARKAD":"1001316","ADDRESS":"屏東縣枋寮鄉德興路36號","TEL":" ","COUNTYNAME":"屏東縣","TOWNNAME":"枋寮鄉","MARKTYPE":"992","Class":"2"}},{"type":"Feature","id":15908,"geometry":{"type":"Point","coordinates":[120.59351531306486,22.365578100911474]},"properties":{"OBJECTID":15908,"LANDMARKID":"1001300000317","LANDMARKCO":"108","LANDMARKNA":"屏東縣枋寮鄉公所","LANDMARKAD":"1001316","ADDRESS":"屏東縣枋寮鄉德興路36號","TEL":"08-8782012","COUNTYNAME":"屏東縣","TOWNNAME":"枋寮鄉","MARKTYPE":"991","Class":"1"}},{"type":"Feature","id":15907,"geometry":{"type":"Point","coordinates":[120.59326023331467,22.366028387073321]},"properties":{"OBJECTID":15907,"LANDMARKID":"1001300000041","LANDMARKCO":"103","LANDMARKNA":"屏東縣枋寮鄉鄉民代表會","LANDMARKAD":"1001316","ADDRESS":"屏東縣枋寮鄉德興路46號","TEL":"08-8781524","COUNTYNAME":"屏東縣","TOWNNAME":"枋寮鄉","MARKTYPE":"991","Class":"1"}},{"type":"Feature","id":15906,"geometry":{"type":"Point","coordinates":[120.59302929420426,22.365665972592677]},"properties":{"OBJECTID":15906,"LANDMARKID":"1001300000040","LANDMARKCO":"103","LANDMARKNA":"屏東縣枋寮鄉衛生所","LANDMARKAD":"1001316","ADDRESS":"屏東縣枋寮鄉德興路77號","TEL":"08-8782940","COUNTYNAME":"屏東縣","TOWNNAME":"枋寮鄉","MARKTYPE":"991","Class":"1"}},{"type":"Feature","id":15905,"geometry":{"type":"Point","coordinates":[120.59347772062645,22.366751968405843]},"properties":{"OBJECTID":15905,"LANDMARKID":"1001300000234","LANDMARKCO":"107","LANDMARKNA":"屏東縣警察局枋寮派出所","LANDMARKAD":"1001316","ADDRESS":"屏東縣枋寮鄉枋寮村中興路33號","TEL":"08-8782949","COUNTYNAME":"屏東縣","TOWNNAME":"枋寮鄉","MARKTYPE":"991","Class":"1"}},{"type":"Feature","id":15904,"geometry":{"type":"Point","coordinates":[120.57411718808635,22.400752724929642]},"properties":{"OBJECTID":15904,"LANDMARKID":"1001300000233","LANDMARKCO":"107","LANDMARKNA":"屏東縣警察局東海派出所","LANDMARKAD":"1001316","ADDRESS":"屏東縣枋寮鄉東海村東林路717號","TEL":"08-8712920","COUNTYNAME":"屏東縣","TOWNNAME":"枋寮鄉","MARKTYPE":"991","Class":"1"}},{"type":"Feature","id":15903,"geometry":{"type":"Point","coordinates":[120.59519401859103,22.386983657885057]},"properties":{"OBJECTID":15903,"LANDMARKID":"1001300000232","LANDMARKCO":"107","LANDMARKNA":"屏東縣警察局建興派出所","LANDMARKAD":"1001316","ADDRESS":"屏東縣枋寮鄉地利村建興路262號","TEL":"08-8712962","COUNTYNAME":"屏東縣","TOWNNAME":"枋寮鄉","MARKTYPE":"991","Class":"1"}},{"type":"Feature","id":15902,"geometry":{"type":"Point","coordinates":[120.59347772062645,22.366751968405843]},"properties":{"OBJECTID":15902,"LANDMARKID":"1001300000231","LANDMARKCO":"107","LANDMARKNA":"屏東縣警察局枋寮分局","LANDMARKAD":"1001316","ADDRESS":"屏東縣枋寮鄉枋寮村中興路33號","TEL":"08-8782004","COUNTYNAME":"屏東縣","TOWNNAME":"枋寮鄉","MARKTYPE":"991","Class":"1"}},{"type":"Feature","id":15901,"geometry":{"type":"Point","coordinates":[120.60036030471045,22.35502476258949]},"properties":{"OBJECTID":15901,"LANDMARKID":"1001300000230","LANDMARKCO":"107","LANDMARKNA":"屏東縣消防局枋寮消防分隊","LANDMARKAD":"1001316","ADDRESS":"屏東縣枋寮鄉中山路7之29號","TEL":"08-8782304","COUNTYNAME":"屏東縣","TOWNNAME":"枋寮鄉","MARKTYPE":"991","Class":"1"}},{"type":"Feature","id":15900,"geometry":{"type":"Point","coordinates":[120.59326023331467,22.366028387073321]},"properties":{"OBJECTID":15900,"LANDMARKID":"1001300000140","LANDMARKCO":"106","LANDMARKNA":"屏東縣枋寮鄉戶政事務所","LANDMARKAD":"1001316","ADDRESS":"屏東縣枋寮鄉枋寮村8鄰德興路46號","TEL":"08-8784271","COUNTYNAME":"屏東縣","TOWNNAME":"枋寮鄉","MARKTYPE":"991","Class":"1"}},{"type":"Feature","id":15899,"geometry":{"type":"Point","coordinates":[120.593672767066,22.365217637454027]},"properties":{"OBJECTID":15899,"LANDMARKID":"1001300000123","LANDMARKCO":"105","LANDMARKNA":"屏東縣枋寮地政事務所","LANDMARKAD":"1001316","ADDRESS":"屏東縣枋寮鄉德興路32號","TEL":"08-8788168","COUNTYNAME":"屏東縣","TOWNNAME":"枋寮鄉","MARKTYPE":"991","Class":"1"}},{"type":"Feature","id":15898,"geometry":{"type":"Point","coordinates":[120.59303103828238,22.366383974362645]},"properties":{"OBJECTID":15898,"LANDMARKID":"1001300000229","LANDMARKCO":"107","LANDMARKNA":"屏東縣消防局第三消防大隊","LANDMARKAD":"1001316","ADDRESS":"屏東縣枋寮鄉中山路7號之29","TEL":"08-8782304","COUNTYNAME":"屏東縣","TOWNNAME":"枋寮鄉","MARKTYPE":"991","Class":"1"}},{"type":"Feature","id":15897,"geometry":{"type":"Point","coordinates":[120.57726636127963,22.410328271723486]},"properties":{"OBJECTID":15897,"LANDMARKID":"1001300000029","LANDMARKCO":"101","LANDMARKNA":"工業局屏南工業區服務中心","LANDMARKAD":"1001316","ADDRESS":"屏東縣枋寮鄉屏南路36號","TEL":"08-8665290","COUNTYNAME":"屏東縣","TOWNNAME":"枋寮鄉","MARKTYPE":"991","Class":"1"}},{"type":"Feature","id":15896,"geometry":{"type":"Point","coordinates":[120.57517790064834,22.404994766290727]},"properties":{"OBJECTID":15896,"LANDMARKID":"1001300000930","LANDMARKCO":"405","LANDMARKNA":"台塑加油站-八八八站(台塑)","LANDMARKAD":"1001316","ADDRESS":"屏東縣枋寮鄉東海村臨海路二段102號","TEL":"08-8663411","COUNTYNAME":"屏東縣","TOWNNAME":"枋寮鄉","MARKTYPE":"994","Class":"4"}},{"type":"Feature","id":15939,"geometry":{"type":"Point","coordinates":[120.38234269431571,22.352986750849915]},"properties":{"OBJECTID":15939,"LANDMARKID":"1001300000227","LANDMARKCO":"107","LANDMARKNA":"屏東縣警察局琉球分駐所","LANDMARKAD":"1001322","ADDRESS":"屏東縣琉球鄉中福村中山路262號","TEL":"08-8612231","COUNTYNAME":"屏東縣","TOWNNAME":"琉球鄉","MARKTYPE":"991","Class":"1"}},{"type":"Feature","id":15964,"geometry":{"type":"Point","coordinates":[120.68995096515386,22.19814908734525]},"properties":{"OBJECTID":15964,"LANDMARKID":"1001300001144","LANDMARKCO":"408","LANDMARKNA":"郵局-枋山郵局","LANDMARKAD":"1001325","ADDRESS":"屏東縣枋山鄉舊庄路47號","TEL":"(08)8771-219","COUNTYNAME":"屏東縣","TOWNNAME":"枋山鄉","MARKTYPE":"994","Class":"4"}},{"type":"Feature","id":15965,"geometry":{"type":"Point","coordinates":[120.6523121157333,22.262845574026617]},"properties":{"OBJECTID":15965,"LANDMARKID":"1001300000142","LANDMARKCO":"106","LANDMARKNA":"屏東縣枋山鄉戶政事務所","LANDMARKAD":"1001325","ADDRESS":"屏東縣枋山鄉枋山村國中路26巷1之1號","TEL":"08-8761158","COUNTYNAME":"屏東縣","TOWNNAME":"枋山鄉","MARKTYPE":"991","Class":"1"}},{"type":"Feature","id":15966,"geometry":{"type":"Point","coordinates":[120.65230152043239,22.26302615861794]},"properties":{"OBJECTID":15966,"LANDMARKID":"1001300000226","LANDMARKCO":"107","LANDMARKNA":"屏東縣警察局枋山分駐所","LANDMARKAD":"1001325","ADDRESS":"屏東縣枋山鄉枋山村國中路26巷5-1號","TEL":"08-8761129","COUNTYNAME":"屏東縣","TOWNNAME":"枋山鄉","MARKTYPE":"991","Class":"1"}},{"type":"Feature","id":15967,"geometry":{"type":"Point","coordinates":[120.65270787300729,22.264653551453002]},"properties":{"OBJECTID":15967,"LANDMARKID":"1001300000048","LANDMARKCO":"103","LANDMARKNA":"屏東縣枋山鄉衛生所","LANDMARKAD":"1001325","ADDRESS":"屏東縣枋山鄉枋山路98號","TEL":"08-8761150","COUNTYNAME":"屏東縣","TOWNNAME":"枋山鄉","MARKTYPE":"991","Class":"1"}},{"type":"Feature","id":15968,"geometry":{"type":"Point","coordinates":[120.65272443764502,22.263840802794157]},"properties":{"OBJECTID":15968,"LANDMARKID":"1001300000049","LANDMARKCO":"103","LANDMARKNA":"屏東縣枋山鄉民代表會","LANDMARKAD":"1001325","ADDRESS":"屏東縣枋山鄉國中路26巷20號","TEL":"08-8761105","COUNTYNAME":"屏東縣","TOWNNAME":"枋山鄉","MARKTYPE":"991","Class":"1"}},{"type":"Feature","id":15969,"geometry":{"type":"Point","coordinates":[120.65242035346762,22.263929802282288]},"properties":{"OBJECTID":15969,"LANDMARKID":"1001300000324","LANDMARKCO":"108","LANDMARKNA":"屏東縣枋山鄉公所","LANDMARKAD":"1001325","ADDRESS":"屏東縣枋山鄉枋山路82號","TEL":"08-8761107","COUNTYNAME":"屏東縣","TOWNNAME":"枋山鄉","MARKTYPE":"991","Class":"1"}},{"type":"Feature","id":15970,"geometry":{"type":"Point","coordinates":[120.62214984559287,22.333493085247355]},"properties":{"OBJECTID":15970,"LANDMARKID":"1001300000204","LANDMARKCO":"107","LANDMARKNA":"屏東縣警察局加祿派出所","LANDMARKAD":"1001325","ADDRESS":"屏東縣枋山鄉加祿村加祿路102號","TEL":"08-8720002","COUNTYNAME":"屏東縣","TOWNNAME":"枋山鄉","MARKTYPE":"991","Class":"1"}},{"type":"Feature","id":15971,"geometry":{"type":"Point","coordinates":[120.69076511703517,22.190486931665497]},"properties":{"OBJECTID":15971,"LANDMARKID":"1001300000205","LANDMARKCO":"107","LANDMARKNA":"屏東縣警察局楓港派出所","LANDMARKAD":"1001325","ADDRESS":"屏東縣枋山鄉善餘村隆德路19號","TEL":"08-8771214","COUNTYNAME":"屏東縣","TOWNNAME":"枋山鄉","MARKTYPE":"991","Class":"1"}},{"type":"Feature","id":15972,"geometry":{"type":"Point","coordinates":[120.69082795624573,22.193137556388006]},"properties":{"OBJECTID":15972,"LANDMARKID":"1001300000659","LANDMARKCO":"204","LANDMARKNA":"屏東縣立圖書館枋山分館","LANDMARKAD":"1001325","ADDRESS":"屏東縣枋山鄉善餘村德隆路113號","TEL":" ","COUNTYNAME":"屏東縣","TOWNNAME":"枋山鄉","MARKTYPE":"992","Class":"2"}},{"type":"Feature","id":15973,"geometry":{"type":"Point","coordinates":[120.66113803259809,22.264211765420381]},"properties":{"OBJECTID":15973,"LANDMARKID":"1001300000425","LANDMARKCO":"203","LANDMARKNA":"縣立正成國中","LANDMARKAD":"1001325","ADDRESS":"屏東縣枋山鄉國中路1號","TEL":"08-8761140","COUNTYNAME":"屏東縣","TOWNNAME":"枋山鄉","MARKTYPE":"992","Class":"2"}},{"type":"Feature","id":15974,"geometry":{"type":"Point","coordinates":[120.70076681745238,22.204592668975806]},"properties":{"OBJECTID":15974,"LANDMARKID":"1001300000426","LANDMARKCO":"203","LANDMARKNA":"縣立獅子國中","LANDMARKAD":"1001325","ADDRESS":"屏東縣枋山鄉楓港村舊庄280號","TEL":"08-8779121","COUNTYNAME":"屏東縣","TOWNNAME":"枋山鄉","MARKTYPE":"992","Class":"2"}},{"type":"Feature","id":15975,"geometry":{"type":"Point","coordinates":[120.65116043725078,22.260853722301341]},"properties":{"OBJECTID":15975,"LANDMARKID":"1001300000427","LANDMARKCO":"203","LANDMARKNA":"縣立枋山國小","LANDMARKAD":"1001325","ADDRESS":"屏東縣枋山鄉枋山村枋山路6號","TEL":"08-8761127","COUNTYNAME":"屏東縣","TOWNNAME":"枋山鄉","MARKTYPE":"992","Class":"2"}},{"type":"Feature","id":15976,"geometry":{"type":"Point","coordinates":[120.69256934081534,22.190398164428789]},"properties":{"OBJECTID":15976,"LANDMARKID":"1001300000428","LANDMARKCO":"203","LANDMARKNA":"縣立楓港國小","LANDMARKAD":"1001325","ADDRESS":"屏東縣枋山鄉善餘村光復路24號","TEL":"08-8771158","COUNTYNAME":"屏東縣","TOWNNAME":"枋山鄉","MARKTYPE":"992","Class":"2"}},{"type":"Feature","id":15977,"geometry":{"type":"Point","coordinates":[120.62104476372618,22.330417281816761]},"properties":{"OBJECTID":15977,"LANDMARKID":"1001300000429","LANDMARKCO":"203","LANDMARKNA":"縣立加祿國小","LANDMARKAD":"1001325","ADDRESS":"屏東縣枋山鄉加祿村會社路28號","TEL":"08-8720060","COUNTYNAME":"屏東縣","TOWNNAME":"枋山鄉","MARKTYPE":"992","Class":"2"}},{"type":"Feature","id":15978,"geometry":{"type":"Point","coordinates":[120.6430028320496,22.304726889444343]},"properties":{"OBJECTID":15978,"LANDMARKID":"1001300000430","LANDMARKCO":"203","LANDMARKNA":"縣立內獅國小","LANDMARKAD":"1001325","ADDRESS":"屏東縣獅子鄉內獅村1號","TEL":"08-8720003","COUNTYNAME":"屏東縣","TOWNNAME":"枋山鄉","MARKTYPE":"992","Class":"2"}},{"type":"Feature","id":15979,"geometry":{"type":"Point","coordinates":[120.66090172773019,22.247147145283655]},"properties":{"OBJECTID":15979,"LANDMARKID":"1001300000431","LANDMARKCO":"203","LANDMARKNA":"縣立成功國小","LANDMARKAD":"1001325","ADDRESS":"屏東縣枋山鄉","TEL":" ","COUNTYNAME":"屏東縣","TOWNNAME":"枋山鄉","MARKTYPE":"992","Class":"2"}},{"type":"Feature","id":15980,"geometry":{"type":"Point","coordinates":[120.62461701015445,22.330977371923673]},"properties":{"OBJECTID":15980,"LANDMARKID":"1001300000697","LANDMARKCO":"301","LANDMARKNA":"加祿火車站","LANDMARKAD":"1001325","ADDRESS":"屏東縣枋山鄉加祿村會社路53號","TEL":"08-8720791","COUNTYNAME":"屏東縣","TOWNNAME":"枋山鄉","MARKTYPE":"993","Class":"301"}},{"type":"Feature","id":15940,"geometry":{"type":"Point","coordinates":[120.38020250588565,22.352077969109278]},"properties":{"OBJECTID":15940,"LANDMARKID":"1001300000228","LANDMARKCO":"107","LANDMARKNA":"屏東縣消防局琉球消防分隊","LANDMARKAD":"1001322","ADDRESS":"屏東縣琉球鄉民生路5號之1","TEL":"08-8611765","COUNTYNAME":"屏東縣","TOWNNAME":"琉球鄉","MARKTYPE":"991","Class":"1"}},{"type":"Feature","id":15941,"geometry":{"type":"Point","coordinates":[120.3815773264722,22.352800284049582]},"properties":{"OBJECTID":15941,"LANDMARKID":"1001300000038","LANDMARKCO":"103","LANDMARKNA":"屏東縣琉球鄉鄉民代表會","LANDMARKAD":"1001322","ADDRESS":"屏東縣琉球鄉中山路49號之16","TEL":"08-8612544","COUNTYNAME":"屏東縣","TOWNNAME":"琉球鄉","MARKTYPE":"991","Class":"1"}},{"type":"Feature","id":15942,"geometry":{"type":"Point","coordinates":[120.37854134839301,22.348549873552102]},"properties":{"OBJECTID":15942,"LANDMARKID":"1001300000039","LANDMARKCO":"103","LANDMARKNA":"屏東縣琉球鄉衛生所","LANDMARKAD":"1001322","ADDRESS":"屏東縣琉球鄉中山路51號","TEL":"08-8612513","COUNTYNAME":"屏東縣","TOWNNAME":"琉球鄉","MARKTYPE":"991","Class":"1"}},{"type":"Feature","id":15943,"geometry":{"type":"Point","coordinates":[120.38229299358554,22.353083457672192]},"properties":{"OBJECTID":15943,"LANDMARKID":"1001300000318","LANDMARKCO":"108","LANDMARKNA":"屏東縣琉球鄉公所","LANDMARKAD":"1001322","ADDRESS":"屏東縣琉球鄉中山路217號","TEL":"08-8612501","COUNTYNAME":"屏東縣","TOWNNAME":"琉球鄉","MARKTYPE":"991","Class":"1"}},{"type":"Feature","id":15944,"geometry":{"type":"Point","coordinates":[120.3811512566588,22.354340652614074]},"properties":{"OBJECTID":15944,"LANDMARKID":"1001300000664","LANDMARKCO":"204","LANDMARKNA":"屏東縣立圖書館琉球分館","LANDMARKAD":"1001322","ADDRESS":"屏東縣琉球鄉民族路20號","TEL":" ","COUNTYNAME":"屏東縣","TOWNNAME":"琉球鄉","MARKTYPE":"992","Class":"2"}},{"type":"Feature","id":15945,"geometry":{"type":"Point","coordinates":[120.3685143377139,22.335962186840014]},"properties":{"OBJECTID":15945,"LANDMARKID":"1001300000395","LANDMARKCO":"203","LANDMARKNA":"縣立琉球國中","LANDMARKAD":"1001322","ADDRESS":"屏東縣琉球鄉中正路158號","TEL":"08-8612509","COUNTYNAME":"屏東縣","TOWNNAME":"琉球鄉","MARKTYPE":"992","Class":"2"}},{"type":"Feature","id":15946,"geometry":{"type":"Point","coordinates":[120.38686680456152,22.350478048318855]},"properties":{"OBJECTID":15946,"LANDMARKID":"1001300000396","LANDMARKCO":"203","LANDMARKNA":"縣立白沙國小","LANDMARKAD":"1001322","ADDRESS":"屏東縣琉球鄉漁福村三民路124號","TEL":"08-8612510","COUNTYNAME":"屏東縣","TOWNNAME":"琉球鄉","MARKTYPE":"992","Class":"2"}},{"type":"Feature","id":15947,"geometry":{"type":"Point","coordinates":[120.3682549884291,22.337043866590101]},"properties":{"OBJECTID":15947,"LANDMARKID":"1001300000397","LANDMARKCO":"203","LANDMARKNA":"縣立琉球國小","LANDMARKAD":"1001322","ADDRESS":"屏東縣琉球鄉大福村中正路293號","TEL":"08-8612597","COUNTYNAME":"屏東縣","TOWNNAME":"琉球鄉","MARKTYPE":"992","Class":"2"}},{"type":"Feature","id":15948,"geometry":{"type":"Point","coordinates":[120.3632702644625,22.330163052250022]},"properties":{"OBJECTID":15948,"LANDMARKID":"1001300000398","LANDMARKCO":"203","LANDMARKNA":"縣立天南國小","LANDMARKAD":"1001322","ADDRESS":"屏東縣琉球鄉南福村忠孝路27號","TEL":"08-8612300","COUNTYNAME":"屏東縣","TOWNNAME":"琉球鄉","MARKTYPE":"992","Class":"2"}},{"type":"Feature","id":15949,"geometry":{"type":"Point","coordinates":[120.36919989043813,22.346262956335494]},"properties":{"OBJECTID":15949,"LANDMARKID":"1001300000399","LANDMARKCO":"203","LANDMARKNA":"縣立全德國小","LANDMARKAD":"1001322","ADDRESS":"屏東縣琉球鄉杉福村復興路97號","TEL":"08-8612534","COUNTYNAME":"屏東縣","TOWNNAME":"琉球鄉","MARKTYPE":"992","Class":"2"}},{"type":"Feature","id":15950,"geometry":{"type":"Point","coordinates":[120.3697818297087,22.340929375149226]},"properties":{"OBJECTID":15950,"LANDMARKID":"1001300000850","LANDMARKCO":"402","LANDMARKNA":"中華電信-琉球服務中心","LANDMARKAD":"1001322","ADDRESS":"屏東縣琉球鄉中興路39號","TEL":"(08)844-7123","COUNTYNAME":"屏東縣","TOWNNAME":"琉球鄉","MARKTYPE":"994","Class":"4"}},{"type":"Feature","id":15951,"geometry":{"type":"Point","coordinates":[120.38326557707104,22.352641612634002]},"properties":{"OBJECTID":15951,"LANDMARKID":"1001300001299","LANDMARKCO":"603","LANDMARKNA":"白龍宮旅館","LANDMARKAD":"1001322","ADDRESS":"屏東縣琉球鄉中福村三民路272號","TEL":"08-8612536","COUNTYNAME":"屏東縣","TOWNNAME":"琉球鄉","MARKTYPE":"996","Class":"6"}},{"type":"Feature","id":15952,"geometry":{"type":"Point","coordinates":[120.38133054987104,22.353258992394775]},"properties":{"OBJECTID":15952,"LANDMARKID":"1001300001300","LANDMARKCO":"603","LANDMARKNA":"小琉球大飯店","LANDMARKAD":"1001322","ADDRESS":"屏東縣琉球鄉本福村民生路43-2號","TEL":"08-8611133","COUNTYNAME":"屏東縣","TOWNNAME":"琉球鄉","MARKTYPE":"996","Class":"6"}},{"type":"Feature","id":15953,"geometry":{"type":"Point","coordinates":[120.38212504846979,22.353445683518977]},"properties":{"OBJECTID":15953,"LANDMARKID":"1001300001301","LANDMARKCO":"603","LANDMARKNA":"海洋風情渡假旅館","LANDMARKAD":"1001322","ADDRESS":"屏東縣琉球鄉本福村民生路73之1號","TEL":"08-8612617","COUNTYNAME":"屏東縣","TOWNNAME":"琉球鄉","MARKTYPE":"996","Class":"6"}},{"type":"Feature","id":15954,"geometry":{"type":"Point","coordinates":[120.38364408072357,22.351550144054325]},"properties":{"OBJECTID":15954,"LANDMARKID":"1001300001412","LANDMARKCO":"604","LANDMARKNA":"南方休閒民宿","LANDMARKAD":"1001322","ADDRESS":"屏東縣琉球鄉中福村三民路235號","TEL":"08-8612285","COUNTYNAME":"屏東縣","TOWNNAME":"琉球鄉","MARKTYPE":"996","Class":"6"}},{"type":"Feature","id":15955,"geometry":{"type":"Point","coordinates":[120.36013261714524,22.33425779281735]},"properties":{"OBJECTID":15955,"LANDMARKID":"1001300001201","LANDMARKCO":"503","LANDMARKNA":"珊瑚礁風景區","LANDMARKAD":"1001322","ADDRESS":"屏東縣琉球鄉","TEL":" ","COUNTYNAME":"屏東縣","TOWNNAME":"琉球鄉","MARKTYPE":"995","Class":"5"}},{"type":"Feature","id":15956,"geometry":{"type":"Point","coordinates":[120.38724070865329,22.350934871821263]},"properties":{"OBJECTID":15956,"LANDMARKID":"1001300001202","LANDMARKCO":"503","LANDMARKNA":"中澳海灘","LANDMARKAD":"1001322","ADDRESS":"屏東縣琉球鄉三民路觀光碼頭邊","TEL":" ","COUNTYNAME":"屏東縣","TOWNNAME":"琉球鄉","MARKTYPE":"995","Class":"5"}},{"type":"Feature","id":15957,"geometry":{"type":"Point","coordinates":[120.61501929170852,22.334871822544557]},"properties":{"OBJECTID":15957,"LANDMARKID":"1001300000922","LANDMARKCO":"405","LANDMARKNA":"中油加油站-加祿站","LANDMARKAD":"1001325","ADDRESS":"屏東縣枋山鄉加祿村加祿路157號","TEL":"08-8720477","COUNTYNAME":"屏東縣","TOWNNAME":"枋山鄉","MARKTYPE":"994","Class":"4"}},{"type":"Feature","id":15958,"geometry":{"type":"Point","coordinates":[120.65292953526418,22.263565001618037]},"properties":{"OBJECTID":15958,"LANDMARKID":"1001300000923","LANDMARKCO":"405","LANDMARKNA":"山隆加油站-中山站(中油)","LANDMARKAD":"1001325","ADDRESS":"屏東縣枋山鄉枋山村中山路四段33號","TEL":"(08)876-1533","COUNTYNAME":"屏東縣","TOWNNAME":"枋山鄉","MARKTYPE":"994","Class":"4"}},{"type":"Feature","id":15959,"geometry":{"type":"Point","coordinates":[120.6878052495974,22.206799289479815]},"properties":{"OBJECTID":15959,"LANDMARKID":"1001300000924","LANDMARKCO":"405","LANDMARKNA":"中油加油站-亞柏楓港站","LANDMARKAD":"1001325","ADDRESS":"屏東縣枋山鄉楓港村舊庄路163號","TEL":"08-8772177","COUNTYNAME":"屏東縣","TOWNNAME":"枋山鄉","MARKTYPE":"994","Class":"4"}},{"type":"Feature","id":15960,"geometry":{"type":"Point","coordinates":[120.68924401936989,22.199298395347899]},"properties":{"OBJECTID":15960,"LANDMARKID":"1001300000925","LANDMARKCO":"405","LANDMARKNA":"中油加油站-楓港站(中油直營)","LANDMARKAD":"1001325","ADDRESS":"屏東縣枋山鄉楓港村舊庄路53號","TEL":"08-8771141","COUNTYNAME":"屏東縣","TOWNNAME":"枋山鄉","MARKTYPE":"994","Class":"4"}},{"type":"Feature","id":15961,"geometry":{"type":"Point","coordinates":[120.68884858382002,22.201160986979279]},"properties":{"OBJECTID":15961,"LANDMARKID":"1001300000926","LANDMARKCO":"405","LANDMARKNA":"中油加油站-新楓港站","LANDMARKAD":"1001325","ADDRESS":"屏東縣枋山鄉楓港村舊庄路142號","TEL":"08-8771868","COUNTYNAME":"屏東縣","TOWNNAME":"枋山鄉","MARKTYPE":"994","Class":"4"}},{"type":"Feature","id":15962,"geometry":{"type":"Point","coordinates":[120.65650878175408,22.252284733898094]},"properties":{"OBJECTID":15962,"LANDMARKID":"1001300000927","LANDMARKCO":"405","LANDMARKNA":"中油加油站-亞太站","LANDMARKAD":"1001325","ADDRESS":"屏東縣枋山鄉中山路三段126-9號","TEL":"08-8761668","COUNTYNAME":"屏東縣","TOWNNAME":"枋山鄉","MARKTYPE":"994","Class":"4"}},{"type":"Feature","id":15963,"geometry":{"type":"Point","coordinates":[120.65441798748265,22.262455166722745]},"properties":{"OBJECTID":15963,"LANDMARKID":"1001300001242","LANDMARKCO":"506","LANDMARKNA":"枋山觀光果園","LANDMARKAD":"1001325","ADDRESS":"屏東縣枋山鄉枋山村國中路3號","TEL":"08-8761075","COUNTYNAME":"屏東縣","TOWNNAME":"枋山鄉","MARKTYPE":"995","Class":"5"}},{"type":"Feature","id":15981,"geometry":{"type":"Point","coordinates":[120.64334883936668,22.306230521334228]},"properties":{"OBJECTID":15981,"LANDMARKID":"1001300000698","LANDMARKCO":"301","LANDMARKNA":"內獅火車站","LANDMARKAD":"1001325","ADDRESS":"屏東縣枋山鄉","TEL":" ","COUNTYNAME":"屏東縣","TOWNNAME":"枋山鄉","MARKTYPE":"993","Class":"301"}},{"type":"Feature","id":15982,"geometry":{"type":"Point","coordinates":[120.69166267721793,22.195508336932246]},"properties":{"OBJECTID":15982,"LANDMARKID":"1001300001295","LANDMARKCO":"603","LANDMARKNA":"隆安旅社","LANDMARKAD":"1001325","ADDRESS":"屏東縣枋山鄉楓港村舊庄路27號","TEL":"08-8771367","COUNTYNAME":"屏東縣","TOWNNAME":"枋山鄉","MARKTYPE":"996","Class":"6"}},{"type":"Feature","id":15983,"geometry":{"type":"Point","coordinates":[120.65304712194818,22.26392426360529]},"properties":{"OBJECTID":15983,"LANDMARKID":"1001300001414","LANDMARKCO":"604","LANDMARKNA":"聯發山海民宿","LANDMARKAD":"1001325","ADDRESS":"屏東縣枋山鄉枋山村中山路4段39號","TEL":"08-8761218","COUNTYNAME":"屏東縣","TOWNNAME":"枋山鄉","MARKTYPE":"996","Class":"6"}},{"type":"Feature","id":15984,"geometry":{"type":"Point","coordinates":[120.65618139800455,22.252653110559699]},"properties":{"OBJECTID":15984,"LANDMARKID":"1001300001215","LANDMARKCO":"505","LANDMARKNA":"枋山之星國際度假村","LANDMARKAD":"1001325","ADDRESS":"屏東縣枋山鄉中山路三段124號","TEL":"08-8761213","COUNTYNAME":"屏東縣","TOWNNAME":"枋山鄉","MARKTYPE":"995","Class":"5"}},{"type":"Feature","id":15985,"geometry":{"type":"Point","coordinates":[120.74830293479229,22.20458304163013]},"properties":{"OBJECTID":15985,"LANDMARKID":"1001300000206","LANDMARKCO":"107","LANDMARKNA":"屏東縣警察局丹路派出所","LANDMARKAD":"1001332","ADDRESS":"屏東縣獅子鄉丹路村巴士巷13號","TEL":"08-8771403","COUNTYNAME":"屏東縣","TOWNNAME":"獅子鄉","MARKTYPE":"991","Class":"1"}},{"type":"Feature","id":15986,"geometry":{"type":"Point","coordinates":[120.70162628810618,22.146342157464144]},"properties":{"OBJECTID":15986,"LANDMARKID":"1001300000207","LANDMARKCO":"107","LANDMARKNA":"屏東縣警察局竹坑派出所","LANDMARKAD":"1001332","ADDRESS":"屏東縣獅子鄉竹坑村竹坑巷2號","TEL":"08-8771886","COUNTYNAME":"屏東縣","TOWNNAME":"獅子鄉","MARKTYPE":"991","Class":"1"}},{"type":"Feature","id":15987,"geometry":{"type":"Point","coordinates":[120.64510474605888,22.304461315130823]},"properties":{"OBJECTID":15987,"LANDMARKID":"1001300000208","LANDMARKCO":"107","LANDMARKNA":"屏東縣警察局內獅派出所","LANDMARKAD":"1001332","ADDRESS":"屏東縣獅子鄉內獅村內獅巷60號","TEL":"08-8720004","COUNTYNAME":"屏東縣","TOWNNAME":"獅子鄉","MARKTYPE":"991","Class":"1"}},{"type":"Feature","id":15988,"geometry":{"type":"Point","coordinates":[120.70509458894274,22.20171327213296]},"properties":{"OBJECTID":15988,"LANDMARKID":"1001300000148","LANDMARKCO":"106","LANDMARKNA":"屏東縣獅子鄉戶政事務所","LANDMARKAD":"1001332","ADDRESS":"屏東縣獅子鄉楓林村8鄰楓林2巷25號","TEL":"08-8771618","COUNTYNAME":"屏東縣","TOWNNAME":"獅子鄉","MARKTYPE":"991","Class":"1"}},{"type":"Feature","id":15989,"geometry":{"type":"Point","coordinates":[120.80317927491055,22.235816376388971]},"properties":{"OBJECTID":15989,"LANDMARKID":"1001300000200","LANDMARKCO":"107","LANDMARKNA":"屏東縣警察局草埔派出所","LANDMARKAD":"1001332","ADDRESS":"屏東縣獅子鄉草埔村5號","TEL":"08-8701484","COUNTYNAME":"屏東縣","TOWNNAME":"獅子鄉","MARKTYPE":"991","Class":"1"}},{"type":"Feature","id":15990,"geometry":{"type":"Point","coordinates":[120.85071721160223,22.217623327985809]},"properties":{"OBJECTID":15990,"LANDMARKID":"1001300000201","LANDMARKCO":"107","LANDMARKNA":"屏東縣警察局內文派出所","LANDMARKAD":"1001332","ADDRESS":"屏東縣獅子鄉內文村1巷30號","TEL":"08-8700009","COUNTYNAME":"屏東縣","TOWNNAME":"獅子鄉","MARKTYPE":"991","Class":"1"}},{"type":"Feature","id":15991,"geometry":{"type":"Point","coordinates":[120.68253085894906,22.233009867427867]},"properties":{"OBJECTID":15991,"LANDMARKID":"1001300000202","LANDMARKCO":"107","LANDMARKNA":"屏東縣警察局和平派出所","LANDMARKAD":"1001332","ADDRESS":"屏東縣獅子鄉獅子村獅子巷52號","TEL":"08-8761428","COUNTYNAME":"屏東縣","TOWNNAME":"獅子鄉","MARKTYPE":"991","Class":"1"}},{"type":"Feature","id":15992,"geometry":{"type":"Point","coordinates":[120.70542524216413,22.202888563440247]},"properties":{"OBJECTID":15992,"LANDMARKID":"1001300000203","LANDMARKCO":"107","LANDMARKNA":"屏東縣警察局獅子分駐所","LANDMARKAD":"1001332","ADDRESS":"屏東縣獅子鄉楓林村8鄰2巷25號","TEL":"08-8771391","COUNTYNAME":"屏東縣","TOWNNAME":"獅子鄉","MARKTYPE":"991","Class":"1"}},{"type":"Feature","id":15993,"geometry":{"type":"Point","coordinates":[120.70486030828076,22.202073685988463]},"properties":{"OBJECTID":15993,"LANDMARKID":"1001300000050","LANDMARKCO":"103","LANDMARKNA":"屏東縣獅子鄉衛生所","LANDMARKAD":"1001332","ADDRESS":"屏東縣獅子鄉楓林村2巷31號","TEL":"08-8771324","COUNTYNAME":"屏東縣","TOWNNAME":"獅子鄉","MARKTYPE":"991","Class":"1"}},{"type":"Feature","id":15994,"geometry":{"type":"Point","coordinates":[120.70451190770066,22.201891790943602]},"properties":{"OBJECTID":15994,"LANDMARKID":"1001300000051","LANDMARKCO":"103","LANDMARKNA":"屏東縣獅子鄉鄉民代表會","LANDMARKAD":"1001332","ADDRESS":"屏東縣獅子鄉楓林村2巷26號","TEL":"08-8771485","COUNTYNAME":"屏東縣","TOWNNAME":"獅子鄉","MARKTYPE":"991","Class":"1"}},{"type":"Feature","id":15995,"geometry":{"type":"Point","coordinates":[120.70452160638246,22.201891825703715]},"properties":{"OBJECTID":15995,"LANDMARKID":"1001300000325","LANDMARKCO":"108","LANDMARKNA":"屏東縣獅子鄉公所","LANDMARKAD":"1001332","ADDRESS":"屏東縣獅子鄉楓林村2巷26號","TEL":"08-8771129","COUNTYNAME":"屏東縣","TOWNNAME":"獅子鄉","MARKTYPE":"991","Class":"1"}},{"type":"Feature","id":15996,"geometry":{"type":"Point","coordinates":[120.7046425761912,22.203303983958033]},"properties":{"OBJECTID":15996,"LANDMARKID":"1001300000660","LANDMARKCO":"204","LANDMARKNA":"屏東縣立圖書館獅子分館","LANDMARKAD":"1001332","ADDRESS":"屏東縣獅子鄉楓林村28號","TEL":" ","COUNTYNAME":"屏東縣","TOWNNAME":"獅子鄉","MARKTYPE":"992","Class":"2"}},{"type":"Feature","id":15997,"geometry":{"type":"Point","coordinates":[120.75155077326683,22.203504938021531]},"properties":{"OBJECTID":15997,"LANDMARKID":"1001300000418","LANDMARKCO":"203","LANDMARKNA":"縣立丹路國小","LANDMARKAD":"1001332","ADDRESS":"屏東縣獅子鄉丹路村1巷39號","TEL":"08-8771455","COUNTYNAME":"屏東縣","TOWNNAME":"獅子鄉","MARKTYPE":"992","Class":"2"}},{"type":"Feature","id":15998,"geometry":{"type":"Point","coordinates":[120.80321140462459,22.234732665237672]},"properties":{"OBJECTID":15998,"LANDMARKID":"1001300000419","LANDMARKCO":"203","LANDMARKNA":"縣立草埔國小","LANDMARKAD":"1001332","ADDRESS":"屏東縣獅子鄉草埔村1巷5號","TEL":"08-8771449","COUNTYNAME":"屏東縣","TOWNNAME":"獅子鄉","MARKTYPE":"992","Class":"2"}},{"type":"Feature","id":15999,"geometry":{"type":"Point","coordinates":[120.70694021970611,22.199637635365224]},"properties":{"OBJECTID":15999,"LANDMARKID":"1001300000420","LANDMARKCO":"203","LANDMARKNA":"縣立楓林國小","LANDMARKAD":"1001332","ADDRESS":"屏東縣獅子鄉楓林村2巷22之1號","TEL":"08-8771371","COUNTYNAME":"屏東縣","TOWNNAME":"獅子鄉","MARKTYPE":"992","Class":"2"}},{"type":"Feature","id":16000,"geometry":{"type":"Point","coordinates":[120.70184662580955,22.146072013950722]},"properties":{"OBJECTID":16000,"LANDMARKID":"1001300000421","LANDMARKCO":"203","LANDMARKNA":"縣立楓林國小竹坑分班","LANDMARKAD":"1001332","ADDRESS":"屏東縣獅子鄉","TEL":" ","COUNTYNAME":"屏東縣","TOWNNAME":"獅子鄉","MARKTYPE":"992","Class":"2"}}]}