{"type":"FeatureCollection","features":[{"type":"Feature","id":27801,"geometry":{"type":"Point","coordinates":[120.38679926993264,23.874595602131375]},"properties":{"OBJECTID":27801,"LANDMARKID":"1000700000387","LANDMARKCO":"203","LANDMARKNA":"縣立育德國小","LANDMARKAD":"1000720","ADDRESS":"彰化縣二林鎮外竹里中南巷41之1號","TEL":"04-8962574","COUNTYNAME":"彰化縣","TOWNNAME":"二林鎮","MARKTYPE":"992","Class":"2"}},{"type":"Feature","id":27802,"geometry":{"type":"Point","coordinates":[120.40925120705649,23.925248628786182]},"properties":{"OBJECTID":27802,"LANDMARKID":"1000700000388","LANDMARKCO":"203","LANDMARKNA":"縣立萬合國小","LANDMARKAD":"1000720","ADDRESS":"彰化縣二林鎮萬合里江山巷1號","TEL":"04-8902164","COUNTYNAME":"彰化縣","TOWNNAME":"二林鎮","MARKTYPE":"992","Class":"2"}},{"type":"Feature","id":27803,"geometry":{"type":"Point","coordinates":[120.39521469129434,23.891333527059146]},"properties":{"OBJECTID":27803,"LANDMARKID":"1000700000389","LANDMARKCO":"203","LANDMARKNA":"縣立興華國小","LANDMARKAD":"1000720","ADDRESS":"彰化縣二林鎮東興里福建巷2之1號","TEL":"04-8962594","COUNTYNAME":"彰化縣","TOWNNAME":"二林鎮","MARKTYPE":"992","Class":"2"}},{"type":"Feature","id":27804,"geometry":{"type":"Point","coordinates":[120.36276335477993,23.875856460752313]},"properties":{"OBJECTID":27804,"LANDMARKID":"1000700000390","LANDMARKCO":"203","LANDMARKNA":"縣立廣興國小","LANDMARKAD":"1000720","ADDRESS":"彰化縣二林鎮廣興里廣興巷2之1號","TEL":"04-8962584","COUNTYNAME":"彰化縣","TOWNNAME":"二林鎮","MARKTYPE":"992","Class":"2"}},{"type":"Feature","id":27805,"geometry":{"type":"Point","coordinates":[120.39477898276746,23.937470001836036]},"properties":{"OBJECTID":27805,"LANDMARKID":"1000700000391","LANDMARKCO":"203","LANDMARKNA":"縣立新生國小","LANDMARKAD":"1000720","ADDRESS":"彰化縣二林鎮趙甲里鎮平巷59號","TEL":"04-8964330","COUNTYNAME":"彰化縣","TOWNNAME":"二林鎮","MARKTYPE":"992","Class":"2"}},{"type":"Feature","id":27806,"geometry":{"type":"Point","coordinates":[120.38196980004231,23.899157760327558]},"properties":{"OBJECTID":27806,"LANDMARKID":"1000700001171","LANDMARKCO":"603","LANDMARKNA":"華倫汽車旅館","LANDMARKAD":"1000720","ADDRESS":"彰化縣二林鎮斗苑路四段251號","TEL":"04-8952188","COUNTYNAME":"彰化縣","TOWNNAME":"二林鎮","MARKTYPE":"996","Class":"6"}},{"type":"Feature","id":27807,"geometry":{"type":"Point","coordinates":[120.36924234666699,23.900134655671405]},"properties":{"OBJECTID":27807,"LANDMARKID":"1000700001172","LANDMARKCO":"603","LANDMARKNA":"鴻賓大旅社","LANDMARKAD":"1000720","ADDRESS":"彰化縣二林鎮斗苑路五段117-1號","TEL":"04-8961142","COUNTYNAME":"彰化縣","TOWNNAME":"二林鎮","MARKTYPE":"996","Class":"6"}},{"type":"Feature","id":27808,"geometry":{"type":"Point","coordinates":[120.5549262639184,23.933017907336176]},"properties":{"OBJECTID":27808,"LANDMARKID":"1000700000835","LANDMARKCO":"405","LANDMARKNA":"中油加油站-遠東站","LANDMARKAD":"1000716","ADDRESS":"彰化縣永靖鄉中山路三段238號","TEL":"04-8220496","COUNTYNAME":"彰化縣","TOWNNAME":"永靖鄉","MARKTYPE":"994","Class":"4"}},{"type":"Feature","id":27809,"geometry":{"type":"Point","coordinates":[120.54466047106733,23.915257025687502]},"properties":{"OBJECTID":27809,"LANDMARKID":"1000700000836","LANDMARKCO":"405","LANDMARKNA":"中油加油站-永靖站","LANDMARKAD":"1000716","ADDRESS":"彰化縣永靖鄉港西村中山路一段637號","TEL":"04-8221945","COUNTYNAME":"彰化縣","TOWNNAME":"永靖鄉","MARKTYPE":"994","Class":"4"}},{"type":"Feature","id":27810,"geometry":{"type":"Point","coordinates":[120.55607653553321,23.93615777100101]},"properties":{"OBJECTID":27810,"LANDMARKID":"1000700000837","LANDMARKCO":"405","LANDMARKNA":"中油加油站-北永靖(中油直營)","LANDMARKAD":"1000716","ADDRESS":"彰化縣永靖鄉五汴村中山路3段335號","TEL":"04-8239726","COUNTYNAME":"彰化縣","TOWNNAME":"永靖鄉","MARKTYPE":"994","Class":"4"}},{"type":"Feature","id":27811,"geometry":{"type":"Point","coordinates":[120.54531029303502,23.923552343784024]},"properties":{"OBJECTID":27811,"LANDMARKID":"1000700000760","LANDMARKCO":"402","LANDMARKNA":"亞太行動寬頻電信-永靖瑚璉加盟服務中心","LANDMARKAD":"1000716","ADDRESS":"彰化縣永靖鄉瑚璉路361號","TEL":"04-8233311","COUNTYNAME":"彰化縣","TOWNNAME":"永靖鄉","MARKTYPE":"994","Class":"4"}},{"type":"Feature","id":27812,"geometry":{"type":"Point","coordinates":[120.54206494761064,23.913305684891576]},"properties":{"OBJECTID":27812,"LANDMARKID":"1000700001109","LANDMARKCO":"507","LANDMARKNA":"餘三館","LANDMARKAD":"1000716","ADDRESS":"彰化縣永靖鄉港西村中山路一段451巷2號","TEL":" ","COUNTYNAME":"彰化縣","TOWNNAME":"永靖鄉","MARKTYPE":"995","Class":"5"}},{"type":"Feature","id":27813,"geometry":{"type":"Point","coordinates":[120.54674958267138,23.920423885713205]},"properties":{"OBJECTID":27813,"LANDMARKID":"1000700001021","LANDMARKCO":"408","LANDMARKNA":"郵局-永靖郵局","LANDMARKAD":"1000716","ADDRESS":"彰化縣永靖鄉永靖街27號","TEL":"(04)8221-927","COUNTYNAME":"彰化縣","TOWNNAME":"永靖鄉","MARKTYPE":"994","Class":"4"}},{"type":"Feature","id":27814,"geometry":{"type":"Point","coordinates":[120.54988617707363,23.922293939591558]},"properties":{"OBJECTID":27814,"LANDMARKID":"1000700001057","LANDMARKCO":"409","LANDMARKNA":"彰化縣永靖鄉農會","LANDMARKAD":"1000716","ADDRESS":"彰化縣永靖鄉瑚璉村東門路95號","TEL":"04-8221161-5","COUNTYNAME":"彰化縣","TOWNNAME":"永靖鄉","MARKTYPE":"994","Class":"4"}},{"type":"Feature","id":27815,"geometry":{"type":"Point","coordinates":[120.54333896024096,23.928745613019192]},"properties":{"OBJECTID":27815,"LANDMARKID":"1000700000785","LANDMARKCO":"404","LANDMARKNA":"台灣省自來水永靖營運所","LANDMARKAD":"1000716","ADDRESS":"彰化縣永靖鄉永坡路175號","TEL":" ","COUNTYNAME":"彰化縣","TOWNNAME":"永靖鄉","MARKTYPE":"994","Class":"4"}},{"type":"Feature","id":27816,"geometry":{"type":"Point","coordinates":[120.56387409342625,23.906249161287274]},"properties":{"OBJECTID":27816,"LANDMARKID":"1000700000968","LANDMARKCO":"406","LANDMARKNA":"運動公園","LANDMARKAD":"1000716","ADDRESS":"彰化縣永靖鄉","TEL":" ","COUNTYNAME":"彰化縣","TOWNNAME":"永靖鄉","MARKTYPE":"994","Class":"4"}},{"type":"Feature","id":27817,"geometry":{"type":"Point","coordinates":[120.54394656515376,23.912538528690714]},"properties":{"OBJECTID":27817,"LANDMARKID":"1000700000834","LANDMARKCO":"405","LANDMARKNA":"台亞加油站-群邦站（台塑）","LANDMARKAD":"1000716","ADDRESS":"彰化縣永靖鄉港西村中山路1段416號","TEL":"(04)823-6196","COUNTYNAME":"彰化縣","TOWNNAME":"永靖鄉","MARKTYPE":"994","Class":"4"}},{"type":"Feature","id":27818,"geometry":{"type":"Point","coordinates":[120.54776012922335,23.924692975919921]},"properties":{"OBJECTID":27818,"LANDMARKID":"1000700000273","LANDMARKCO":"108","LANDMARKNA":"彰化縣永靖鄉公所","LANDMARKAD":"1000716","ADDRESS":"彰化縣永靖鄉永西村瑚璉路230號","TEL":"04-8221191","COUNTYNAME":"彰化縣","TOWNNAME":"永靖鄉","MARKTYPE":"991","Class":"1"}},{"type":"Feature","id":27819,"geometry":{"type":"Point","coordinates":[120.54776012922335,23.924692975919921]},"properties":{"OBJECTID":27819,"LANDMARKID":"1000700000051","LANDMARKCO":"103","LANDMARKNA":"彰化縣永靖鄉鄉民代表會","LANDMARKAD":"1000716","ADDRESS":"彰化縣永靖鄉瑚璉路230號","TEL":"04-8221802","COUNTYNAME":"彰化縣","TOWNNAME":"永靖鄉","MARKTYPE":"991","Class":"1"}},{"type":"Feature","id":27820,"geometry":{"type":"Point","coordinates":[120.54766828612593,23.925037581989667]},"properties":{"OBJECTID":27820,"LANDMARKID":"1000700000052","LANDMARKCO":"103","LANDMARKNA":"彰化縣永靖鄉衛生所","LANDMARKAD":"1000716","ADDRESS":"彰化縣永靖鄉永西村西興路91號","TEL":"04-8234193","COUNTYNAME":"彰化縣","TOWNNAME":"永靖鄉","MARKTYPE":"991","Class":"1"}},{"type":"Feature","id":27821,"geometry":{"type":"Point","coordinates":[120.54712700412131,23.920113834967502]},"properties":{"OBJECTID":27821,"LANDMARKID":"1000700000194","LANDMARKCO":"107","LANDMARKNA":"彰化縣消防局永靖消防分隊","LANDMARKAD":"1000716","ADDRESS":"彰化縣永靖鄉永靖街2號","TEL":"04-8223004","COUNTYNAME":"彰化縣","TOWNNAME":"永靖鄉","MARKTYPE":"991","Class":"1"}},{"type":"Feature","id":27822,"geometry":{"type":"Point","coordinates":[120.54735929619483,23.920309089134005]},"properties":{"OBJECTID":27822,"LANDMARKID":"1000700000195","LANDMARKCO":"107","LANDMARKNA":"彰化縣警察局永靖分駐所","LANDMARKAD":"1000716","ADDRESS":"彰化縣永靖鄉永東村中山路二段17號","TEL":"04-8221813","COUNTYNAME":"彰化縣","TOWNNAME":"永靖鄉","MARKTYPE":"991","Class":"1"}},{"type":"Feature","id":27823,"geometry":{"type":"Point","coordinates":[120.52772347393467,23.924187169970306]},"properties":{"OBJECTID":27823,"LANDMARKID":"1000700000196","LANDMARKCO":"107","LANDMARKNA":"彰化縣警察局同安派出所","LANDMARKAD":"1000716","ADDRESS":"彰化縣永靖鄉同安村永福路一段692號","TEL":"04-8222159","COUNTYNAME":"彰化縣","TOWNNAME":"永靖鄉","MARKTYPE":"991","Class":"1"}},{"type":"Feature","id":27824,"geometry":{"type":"Point","coordinates":[120.547047191969,23.920329305993505]},"properties":{"OBJECTID":27824,"LANDMARKID":"1000700000126","LANDMARKCO":"106","LANDMARKNA":"彰化縣永靖鄉戶政事務所","LANDMARKAD":"1000716","ADDRESS":"彰化縣永靖鄉永東村7鄰永靖街20號","TEL":"04-8223825","COUNTYNAME":"彰化縣","TOWNNAME":"永靖鄉","MARKTYPE":"991","Class":"1"}},{"type":"Feature","id":27825,"geometry":{"type":"Point","coordinates":[120.54590923583119,23.921636109829183]},"properties":{"OBJECTID":27825,"LANDMARKID":"1000700000548","LANDMARKCO":"204","LANDMARKNA":"彰化縣立圖書館永靖分館","LANDMARKAD":"1000716","ADDRESS":"彰化縣永靖鄉永西村永安街86號","TEL":" ","COUNTYNAME":"彰化縣","TOWNNAME":"永靖鄉","MARKTYPE":"992","Class":"2"}},{"type":"Feature","id":27826,"geometry":{"type":"Point","coordinates":[120.55088355036368,23.930060988837457]},"properties":{"OBJECTID":27826,"LANDMARKID":"1000700000377","LANDMARKCO":"203","LANDMARKNA":"縣立永靖國中","LANDMARKAD":"1000716","ADDRESS":"彰化縣永靖鄉湖璉村多福路126號","TEL":"04-8221929","COUNTYNAME":"彰化縣","TOWNNAME":"永靖鄉","MARKTYPE":"992","Class":"2"}},{"type":"Feature","id":27827,"geometry":{"type":"Point","coordinates":[120.50320157492334,23.92991302566908]},"properties":{"OBJECTID":27827,"LANDMARKID":"1000700000378","LANDMARKCO":"203","LANDMARKNA":"縣立德興國小","LANDMARKAD":"1000716","ADDRESS":"彰化縣永靖鄉竹子村竹後巷47號","TEL":"04-8222158","COUNTYNAME":"彰化縣","TOWNNAME":"永靖鄉","MARKTYPE":"992","Class":"2"}},{"type":"Feature","id":27828,"geometry":{"type":"Point","coordinates":[120.54549924483513,23.926691683365991]},"properties":{"OBJECTID":27828,"LANDMARKID":"1000700000307","LANDMARKCO":"202","LANDMARKNA":"國立永靖高工","LANDMARKAD":"1000716","ADDRESS":"彰化縣永靖鄉永北村永坡路101號","TEL":"04-8221810","COUNTYNAME":"彰化縣","TOWNNAME":"永靖鄉","MARKTYPE":"992","Class":"2"}},{"type":"Feature","id":27829,"geometry":{"type":"Point","coordinates":[120.54801420792754,23.920639541273268]},"properties":{"OBJECTID":27829,"LANDMARKID":"1000700000373","LANDMARKCO":"203","LANDMARKNA":"縣立永靖國小","LANDMARKAD":"1000716","ADDRESS":"彰化縣永靖鄉永東村中山路二段65號","TEL":"04-8221812","COUNTYNAME":"彰化縣","TOWNNAME":"永靖鄉","MARKTYPE":"992","Class":"2"}},{"type":"Feature","id":27830,"geometry":{"type":"Point","coordinates":[120.52262513960811,23.919924823772032]},"properties":{"OBJECTID":27830,"LANDMARKID":"1000700000374","LANDMARKCO":"203","LANDMARKNA":"縣立福興國小","LANDMARKAD":"1000716","ADDRESS":"彰化縣永靖鄉福興村永福路二段160號","TEL":"04-8222062","COUNTYNAME":"彰化縣","TOWNNAME":"永靖鄉","MARKTYPE":"992","Class":"2"}},{"type":"Feature","id":27831,"geometry":{"type":"Point","coordinates":[120.56686395725339,23.925461596661815]},"properties":{"OBJECTID":27831,"LANDMARKID":"1000700000375","LANDMARKCO":"203","LANDMARKNA":"縣立永興國小","LANDMARKAD":"1000716","ADDRESS":"彰化縣永靖鄉東寧村永興路二段32號","TEL":"04-8221714","COUNTYNAME":"彰化縣","TOWNNAME":"永靖鄉","MARKTYPE":"992","Class":"2"}},{"type":"Feature","id":27832,"geometry":{"type":"Point","coordinates":[120.54140592990841,23.91479289562113]},"properties":{"OBJECTID":27832,"LANDMARKID":"1000700000376","LANDMARKCO":"203","LANDMARKNA":"縣立福德國小","LANDMARKAD":"1000716","ADDRESS":"彰化縣永靖鄉永南村福德巷36號","TEL":"04-8224154","COUNTYNAME":"彰化縣","TOWNNAME":"永靖鄉","MARKTYPE":"992","Class":"2"}},{"type":"Feature","id":27833,"geometry":{"type":"Point","coordinates":[120.57187783453129,23.928042682308124]},"properties":{"OBJECTID":27833,"LANDMARKID":"1000700000568","LANDMARKCO":"301","LANDMARKNA":"永靖火車站","LANDMARKAD":"1000716","ADDRESS":"彰化縣永靖鄉","TEL":" ","COUNTYNAME":"彰化縣","TOWNNAME":"永靖鄉","MARKTYPE":"993","Class":"301"}},{"type":"Feature","id":27834,"geometry":{"type":"Point","coordinates":[120.54393864955308,23.923046853352808]},"properties":{"OBJECTID":27834,"LANDMARKID":"1000700000758","LANDMARKCO":"402","LANDMARKNA":"中華電信-永靖服務中心","LANDMARKAD":"1000716","ADDRESS":"彰化縣永靖鄉瑚璉路433號","TEL":"(04)822-4040","COUNTYNAME":"彰化縣","TOWNNAME":"永靖鄉","MARKTYPE":"994","Class":"4"}},{"type":"Feature","id":27835,"geometry":{"type":"Point","coordinates":[120.55529854979729,23.93365421317321]},"properties":{"OBJECTID":27835,"LANDMARKID":"1000700001170","LANDMARKCO":"603","LANDMARKNA":"遠東汽車旅館","LANDMARKAD":"1000716","ADDRESS":"彰化縣永靖鄉五汴村中山路三段228號1-2樓","TEL":"04-8233769","COUNTYNAME":"彰化縣","TOWNNAME":"永靖鄉","MARKTYPE":"996","Class":"6"}},{"type":"Feature","id":27836,"geometry":{"type":"Point","coordinates":[120.58702610997474,23.879924163537865]},"properties":{"OBJECTID":27836,"LANDMARKID":"1000700000819","LANDMARKCO":"405","LANDMARKNA":"中油加油站-員村員集路站","LANDMARKAD":"1000717","ADDRESS":"彰化縣社頭鄉員集路1段150號","TEL":"04-8736000","COUNTYNAME":"彰化縣","TOWNNAME":"社頭鄉","MARKTYPE":"994","Class":"4"}},{"type":"Feature","id":27837,"geometry":{"type":"Point","coordinates":[120.58370837305449,23.904648837907882]},"properties":{"OBJECTID":27837,"LANDMARKID":"1000700000820","LANDMARKCO":"405","LANDMARKNA":"中油加油站-社頭站(中油直營)","LANDMARKAD":"1000717","ADDRESS":"彰化縣社頭鄉員集路二段583號","TEL":"04-8732534","COUNTYNAME":"彰化縣","TOWNNAME":"社頭鄉","MARKTYPE":"994","Class":"4"}},{"type":"Feature","id":27838,"geometry":{"type":"Point","coordinates":[120.58311589795275,23.909071255699093]},"properties":{"OBJECTID":27838,"LANDMARKID":"1000700000821","LANDMARKCO":"405","LANDMARKNA":"中油加油站-員村社頭站","LANDMARKAD":"1000717","ADDRESS":"彰化縣社頭鄉橋頭村中山路3段72號","TEL":"04-8727677","COUNTYNAME":"彰化縣","TOWNNAME":"社頭鄉","MARKTYPE":"994","Class":"4"}},{"type":"Feature","id":27839,"geometry":{"type":"Point","coordinates":[120.5873920982589,23.900014583616855]},"properties":{"OBJECTID":27839,"LANDMARKID":"1000700000759","LANDMARKCO":"402","LANDMARKNA":"亞太行動寬頻電信-社頭員集加盟服務中心","LANDMARKAD":"1000717","ADDRESS":"彰化縣社頭鄉員集路2段292號","TEL":"04-8731199","COUNTYNAME":"彰化縣","TOWNNAME":"社頭鄉","MARKTYPE":"994","Class":"4"}},{"type":"Feature","id":27840,"geometry":{"type":"Point","coordinates":[120.58760439073701,23.898360082765141]},"properties":{"OBJECTID":27840,"LANDMARKID":"1000700001022","LANDMARKCO":"408","LANDMARKNA":"郵局-社頭郵局","LANDMARKAD":"1000717","ADDRESS":"彰化縣社頭鄉員集路2段195號","TEL":"(04)8732-201","COUNTYNAME":"彰化縣","TOWNNAME":"社頭鄉","MARKTYPE":"994","Class":"4"}},{"type":"Feature","id":27841,"geometry":{"type":"Point","coordinates":[120.60463093094494,23.91931784916498]},"properties":{"OBJECTID":27841,"LANDMARKID":"1000700001023","LANDMARKCO":"408","LANDMARKNA":"郵局-社頭湳雅郵局","LANDMARKAD":"1000717","ADDRESS":"彰化縣社頭鄉山腳路3段325號","TEL":"(04)8721-038","COUNTYNAME":"彰化縣","TOWNNAME":"社頭鄉","MARKTYPE":"994","Class":"4"}},{"type":"Feature","id":27842,"geometry":{"type":"Point","coordinates":[120.58339239516586,23.896299058609092]},"properties":{"OBJECTID":27842,"LANDMARKID":"1000700001056","LANDMARKCO":"409","LANDMARKNA":"彰化縣社頭鄉農會","LANDMARKAD":"1000717","ADDRESS":"彰化縣社頭鄉社頭村社斗路一段360號","TEL":"04-8732516","COUNTYNAME":"彰化縣","TOWNNAME":"社頭鄉","MARKTYPE":"994","Class":"4"}},{"type":"Feature","id":27843,"geometry":{"type":"Point","coordinates":[120.60933734977164,23.903013448355267]},"properties":{"OBJECTID":27843,"LANDMARKID":"1000700000787","LANDMARKCO":"404","LANDMARKNA":"台灣省自來水社頭營運所","LANDMARKAD":"1000717","ADDRESS":"彰化縣社頭鄉清興路121號","TEL":" ","COUNTYNAME":"彰化縣","TOWNNAME":"社頭鄉","MARKTYPE":"994","Class":"4"}},{"type":"Feature","id":27844,"geometry":{"type":"Point","coordinates":[120.60312396264966,23.92980537854465]},"properties":{"OBJECTID":27844,"LANDMARKID":"1000700000817","LANDMARKCO":"405","LANDMARKNA":"台塑加油站-員田站(台塑)","LANDMARKAD":"1000717","ADDRESS":"彰化縣社頭鄉山腳路四段170號","TEL":"04-8736289","COUNTYNAME":"彰化縣","TOWNNAME":"社頭鄉","MARKTYPE":"994","Class":"4"}},{"type":"Feature","id":27845,"geometry":{"type":"Point","coordinates":[120.57699967422457,23.934334462358297]},"properties":{"OBJECTID":27845,"LANDMARKID":"1000700000818","LANDMARKCO":"405","LANDMARKNA":"福懋加油站-社頭站(台塑)","LANDMARKAD":"1000717","ADDRESS":"彰化縣社頭鄉員集路四段681號","TEL":"04-8725565","COUNTYNAME":"彰化縣","TOWNNAME":"社頭鄉","MARKTYPE":"994","Class":"4"}},{"type":"Feature","id":27846,"geometry":{"type":"Point","coordinates":[120.58605309630012,23.902082705348022]},"properties":{"OBJECTID":27846,"LANDMARKID":"1000700000049","LANDMARKCO":"103","LANDMARKNA":"彰化縣社頭鄉衛生所","LANDMARKAD":"1000717","ADDRESS":"彰化縣社頭鄉社頭村員集路一段409號","TEL":"04-8722661","COUNTYNAME":"彰化縣","TOWNNAME":"社頭鄉","MARKTYPE":"991","Class":"1"}},{"type":"Feature","id":27847,"geometry":{"type":"Point","coordinates":[120.58794247559392,23.898563825654932]},"properties":{"OBJECTID":27847,"LANDMARKID":"1000700000188","LANDMARKCO":"107","LANDMARKNA":"彰化縣消防局社頭消防分隊","LANDMARKAD":"1000717","ADDRESS":"彰化縣社頭鄉員集路二段204號","TEL":"04-8732204","COUNTYNAME":"彰化縣","TOWNNAME":"社頭鄉","MARKTYPE":"991","Class":"1"}},{"type":"Feature","id":27848,"geometry":{"type":"Point","coordinates":[120.58582810447321,23.896812643408854]},"properties":{"OBJECTID":27848,"LANDMARKID":"1000700000272","LANDMARKCO":"108","LANDMARKNA":"彰化縣社頭鄉公所","LANDMARKAD":"1000717","ADDRESS":"彰化縣社頭鄉仁雅村社斗路一段295號","TEL":"04-8732621","COUNTYNAME":"彰化縣","TOWNNAME":"社頭鄉","MARKTYPE":"991","Class":"1"}},{"type":"Feature","id":27849,"geometry":{"type":"Point","coordinates":[120.58582810447321,23.896812643408854]},"properties":{"OBJECTID":27849,"LANDMARKID":"1000700000050","LANDMARKCO":"103","LANDMARKNA":"彰化縣社頭鄉民代表會","LANDMARKAD":"1000717","ADDRESS":"彰化縣社頭鄉社斗路一段295號","TEL":"04-8732024","COUNTYNAME":"彰化縣","TOWNNAME":"社頭鄉","MARKTYPE":"991","Class":"1"}},{"type":"Feature","id":27850,"geometry":{"type":"Point","coordinates":[120.58807633926689,23.898532524815494]},"properties":{"OBJECTID":27850,"LANDMARKID":"1000700000186","LANDMARKCO":"107","LANDMARKNA":"彰化縣警察局社頭分駐所","LANDMARKAD":"1000717","ADDRESS":"彰化縣社頭鄉社頭村員集路二段210號","TEL":"04-8732036","COUNTYNAME":"彰化縣","TOWNNAME":"社頭鄉","MARKTYPE":"991","Class":"1"}},{"type":"Feature","id":27851,"geometry":{"type":"Point","coordinates":[120.61003352590093,23.903471930666381]},"properties":{"OBJECTID":27851,"LANDMARKID":"1000700000187","LANDMARKCO":"107","LANDMARKNA":"彰化縣警察局朝興派出所","LANDMARKAD":"1000717","ADDRESS":"彰化縣社頭鄉朝興村水源路12號","TEL":"04-8732174","COUNTYNAME":"彰化縣","TOWNNAME":"社頭鄉","MARKTYPE":"991","Class":"1"}},{"type":"Feature","id":27852,"geometry":{"type":"Point","coordinates":[120.58788903857852,23.898683174910108]},"properties":{"OBJECTID":27852,"LANDMARKID":"1000700000129","LANDMARKCO":"106","LANDMARKNA":"彰化縣社頭鄉戶政事務所","LANDMARKAD":"1000717","ADDRESS":"彰化縣社頭鄉社頭村10鄰員集路二段220號","TEL":"04-8732464","COUNTYNAME":"彰化縣","TOWNNAME":"社頭鄉","MARKTYPE":"991","Class":"1"}},{"type":"Feature","id":27853,"geometry":{"type":"Point","coordinates":[120.58947728989725,23.897409287563669]},"properties":{"OBJECTID":27853,"LANDMARKID":"1000700000544","LANDMARKCO":"204","LANDMARKNA":"彰化縣立圖書館社頭分館","LANDMARKAD":"1000717","ADDRESS":"彰化縣社頭鄉仁雅村信義三路55號","TEL":" ","COUNTYNAME":"彰化縣","TOWNNAME":"社頭鄉","MARKTYPE":"992","Class":"2"}},{"type":"Feature","id":27854,"geometry":{"type":"Point","coordinates":[120.5865219031287,23.898014424586329]},"properties":{"OBJECTID":27854,"LANDMARKID":"1000700000397","LANDMARKCO":"203","LANDMARKNA":"縣立社頭國小","LANDMARKAD":"1000717","ADDRESS":"彰化縣社頭鄉社頭村社斗路9號","TEL":"04-8732039","COUNTYNAME":"彰化縣","TOWNNAME":"社頭鄉","MARKTYPE":"992","Class":"2"}},{"type":"Feature","id":27855,"geometry":{"type":"Point","coordinates":[120.61002015651195,23.889500886259956]},"properties":{"OBJECTID":27855,"LANDMARKID":"1000700000398","LANDMARKCO":"203","LANDMARKNA":"縣立清水國小","LANDMARKAD":"1000717","ADDRESS":"彰化縣社頭鄉清水村山腳路一段486號","TEL":"04-8731285","COUNTYNAME":"彰化縣","TOWNNAME":"社頭鄉","MARKTYPE":"992","Class":"2"}},{"type":"Feature","id":27856,"geometry":{"type":"Point","coordinates":[120.60286357030738,23.920449856092276]},"properties":{"OBJECTID":27856,"LANDMARKID":"1000700000399","LANDMARKCO":"203","LANDMARKNA":"縣立湳雅國小","LANDMARKAD":"1000717","ADDRESS":"彰化縣社頭鄉山腳路三段395號","TEL":"04-8735007","COUNTYNAME":"彰化縣","TOWNNAME":"社頭鄉","MARKTYPE":"992","Class":"2"}},{"type":"Feature","id":27857,"geometry":{"type":"Point","coordinates":[120.58264971833005,23.918866775635468]},"properties":{"OBJECTID":27857,"LANDMARKID":"1000700000400","LANDMARKCO":"203","LANDMARKNA":"縣立橋頭國小","LANDMARKAD":"1000717","ADDRESS":"彰化縣社頭鄉僑頭村員集路三段528號","TEL":"04-8731265","COUNTYNAME":"彰化縣","TOWNNAME":"社頭鄉","MARKTYPE":"992","Class":"2"}},{"type":"Feature","id":27858,"geometry":{"type":"Point","coordinates":[120.58395047608612,23.901476859798869]},"properties":{"OBJECTID":27858,"LANDMARKID":"1000700000401","LANDMARKCO":"203","LANDMARKNA":"縣立社頭國中","LANDMARKAD":"1000717","ADDRESS":"彰化縣社頭鄉廣興村中興路1號","TEL":"04-8732047","COUNTYNAME":"彰化縣","TOWNNAME":"社頭鄉","MARKTYPE":"992","Class":"2"}},{"type":"Feature","id":27859,"geometry":{"type":"Point","coordinates":[120.60648413022061,23.90832482861715]},"properties":{"OBJECTID":27859,"LANDMARKID":"1000700000402","LANDMARKCO":"203","LANDMARKNA":"縣立朝興國小","LANDMARKAD":"1000717","ADDRESS":"彰化縣社頭鄉朝興村社石路91號","TEL":"04-8732484","COUNTYNAME":"彰化縣","TOWNNAME":"社頭鄉","MARKTYPE":"992","Class":"2"}},{"type":"Feature","id":27860,"geometry":{"type":"Point","coordinates":[120.59182962341971,23.900756701692544]},"properties":{"OBJECTID":27860,"LANDMARKID":"1000700000403","LANDMARKCO":"203","LANDMARKNA":"縣立舊社國小","LANDMARKAD":"1000717","ADDRESS":"彰化縣社頭鄉社石路956號","TEL":"04-8711001","COUNTYNAME":"彰化縣","TOWNNAME":"社頭鄉","MARKTYPE":"992","Class":"2"}},{"type":"Feature","id":27861,"geometry":{"type":"Point","coordinates":[120.58699567886342,23.88920733865741]},"properties":{"OBJECTID":27861,"LANDMARKID":"1000700000404","LANDMARKCO":"203","LANDMARKNA":"縣立崙雅國小","LANDMARKAD":"1000717","ADDRESS":"彰化縣社頭鄉美雅村員集路一段615號","TEL":"04-8710945","COUNTYNAME":"彰化縣","TOWNNAME":"社頭鄉","MARKTYPE":"992","Class":"2"}},{"type":"Feature","id":27862,"geometry":{"type":"Point","coordinates":[120.5845026212243,23.892721508506316]},"properties":{"OBJECTID":27862,"LANDMARKID":"1000700000405","LANDMARKCO":"203","LANDMARKNA":"國立彰化啟智學校","LANDMARKAD":"1000717","ADDRESS":"彰化縣社頭鄉中山路一段306號","TEL":"04-8727303","COUNTYNAME":"彰化縣","TOWNNAME":"社頭鄉","MARKTYPE":"992","Class":"2"}},{"type":"Feature","id":27863,"geometry":{"type":"Point","coordinates":[120.61354611754943,23.885453651996748]},"properties":{"OBJECTID":27863,"LANDMARKID":"1000700000590","LANDMARKCO":"303","LANDMARKNA":"清水岩森林遊樂區停車場","LANDMARKAD":"1000717","ADDRESS":"彰化縣社頭鄉","TEL":" ","COUNTYNAME":"彰化縣","TOWNNAME":"社頭鄉","MARKTYPE":"993","Class":"303"}},{"type":"Feature","id":27864,"geometry":{"type":"Point","coordinates":[120.58072367752902,23.896313142222851]},"properties":{"OBJECTID":27864,"LANDMARKID":"1000700000569","LANDMARKCO":"301","LANDMARKNA":"社頭火車站","LANDMARKAD":"1000717","ADDRESS":"彰化縣社頭鄉廣興村社站路10號","TEL":"04-8711646","COUNTYNAME":"彰化縣","TOWNNAME":"社頭鄉","MARKTYPE":"993","Class":"301"}},{"type":"Feature","id":27865,"geometry":{"type":"Point","coordinates":[120.58406471031591,23.904166822423246]},"properties":{"OBJECTID":27865,"LANDMARKID":"1000700000757","LANDMARKCO":"402","LANDMARKNA":"中華電信-社頭服務中心","LANDMARKAD":"1000717","ADDRESS":"彰化縣社頭鄉員集路二段555號","TEL":"(04)873-4040","COUNTYNAME":"彰化縣","TOWNNAME":"社頭鄉","MARKTYPE":"994","Class":"4"}},{"type":"Feature","id":27866,"geometry":{"type":"Point","coordinates":[120.58900389223355,23.899997764234353]},"properties":{"OBJECTID":27866,"LANDMARKID":"1000700001167","LANDMARKCO":"603","LANDMARKNA":"王子旅社","LANDMARKAD":"1000717","ADDRESS":"彰化縣社頭鄉社頭村光明巷33弄18號","TEL":"04-8732216","COUNTYNAME":"彰化縣","TOWNNAME":"社頭鄉","MARKTYPE":"996","Class":"6"}},{"type":"Feature","id":27867,"geometry":{"type":"Point","coordinates":[120.58900256715803,23.900042882201426]},"properties":{"OBJECTID":27867,"LANDMARKID":"1000700001168","LANDMARKCO":"603","LANDMARKNA":"芝加哥賓館","LANDMARKAD":"1000717","ADDRESS":"彰化縣社頭鄉社頭村光明巷33弄20號","TEL":"04-8732171","COUNTYNAME":"彰化縣","TOWNNAME":"社頭鄉","MARKTYPE":"996","Class":"6"}},{"type":"Feature","id":27868,"geometry":{"type":"Point","coordinates":[120.58866360751333,23.900843125488063]},"properties":{"OBJECTID":27868,"LANDMARKID":"1000700001169","LANDMARKCO":"603","LANDMARKNA":"光明大旅社","LANDMARKAD":"1000717","ADDRESS":"彰化縣社頭鄉社頭村光明巷59號2樓","TEL":"04-8732610","COUNTYNAME":"彰化縣","TOWNNAME":"社頭鄉","MARKTYPE":"996","Class":"6"}},{"type":"Feature","id":27869,"geometry":{"type":"Point","coordinates":[120.6140348882318,23.921616185576564]},"properties":{"OBJECTID":27869,"LANDMARKID":"1000700001204","LANDMARKCO":"604","LANDMARKNA":"阿信的家","LANDMARKAD":"1000717","ADDRESS":"彰化縣社頭鄉龍井村水井巷2-7號","TEL":"0963-009775","COUNTYNAME":"彰化縣","TOWNNAME":"社頭鄉","MARKTYPE":"996","Class":"6"}},{"type":"Feature","id":27870,"geometry":{"type":"Point","coordinates":[120.61410283791338,23.884944043774858]},"properties":{"OBJECTID":27870,"LANDMARKID":"1000700001084","LANDMARKCO":"504","LANDMARKNA":"清水岩森林遊樂區","LANDMARKAD":"1000717","ADDRESS":"彰化縣社頭鄉","TEL":"04-8739839","COUNTYNAME":"彰化縣","TOWNNAME":"社頭鄉","MARKTYPE":"995","Class":"5"}},{"type":"Feature","id":27871,"geometry":{"type":"Point","coordinates":[120.60868093883532,23.884773958200444]},"properties":{"OBJECTID":27871,"LANDMARKID":"1000700001085","LANDMARKCO":"504","LANDMARKNA":"清水岩童軍營地","LANDMARKAD":"1000717","ADDRESS":"彰化縣社頭鄉山腳路一段268號","TEL":" ","COUNTYNAME":"彰化縣","TOWNNAME":"社頭鄉","MARKTYPE":"995","Class":"5"}},{"type":"Feature","id":27872,"geometry":{"type":"Point","coordinates":[120.53094322411771,23.893338585431344]},"properties":{"OBJECTID":27872,"LANDMARKID":"1000700000822","LANDMARKCO":"405","LANDMARKNA":"中油加油站-田尾二站(中油直營)","LANDMARKAD":"1000721","ADDRESS":"彰化縣田尾鄉饒平村中山路一段575號","TEL":"04-8835425","COUNTYNAME":"彰化縣","TOWNNAME":"田尾鄉","MARKTYPE":"994","Class":"4"}},{"type":"Feature","id":27873,"geometry":{"type":"Point","coordinates":[120.52475669456881,23.886715086334469]},"properties":{"OBJECTID":27873,"LANDMARKID":"1000700000823","LANDMARKCO":"405","LANDMARKNA":"中油加油站-永村田尾站","LANDMARKAD":"1000721","ADDRESS":"彰化縣田尾鄉中山路1段142號","TEL":"04-8835656","COUNTYNAME":"彰化縣","TOWNNAME":"田尾鄉","MARKTYPE":"994","Class":"4"}},{"type":"Feature","id":27874,"geometry":{"type":"Point","coordinates":[120.52684656271462,23.89035016238309]},"properties":{"OBJECTID":27874,"LANDMARKID":"1000700000824","LANDMARKCO":"405","LANDMARKNA":"中油加油站-田尾站(中油直營)","LANDMARKAD":"1000721","ADDRESS":"彰化縣田尾鄉饒平村中山路一段393號","TEL":"04-8831042","COUNTYNAME":"彰化縣","TOWNNAME":"田尾鄉","MARKTYPE":"994","Class":"4"}},{"type":"Feature","id":27875,"geometry":{"type":"Point","coordinates":[120.53113077640698,23.896120347998451]},"properties":{"OBJECTID":27875,"LANDMARKID":"1000700001136","LANDMARKCO":"512","LANDMARKNA":"田尾公路花園遊客服務中心","LANDMARKAD":"1000721","ADDRESS":"彰化縣田尾鄉民族路一段156號","TEL":" ","COUNTYNAME":"彰化縣","TOWNNAME":"田尾鄉","MARKTYPE":"995","Class":"5"}},{"type":"Feature","id":27876,"geometry":{"type":"Point","coordinates":[120.52909199666558,23.892220099654256]},"properties":{"OBJECTID":27876,"LANDMARKID":"1000700001024","LANDMARKCO":"408","LANDMARKNA":"郵局-田尾郵局","LANDMARKAD":"1000721","ADDRESS":"彰化縣田尾鄉光復路3段26號","TEL":"(04)8832-425","COUNTYNAME":"彰化縣","TOWNNAME":"田尾鄉","MARKTYPE":"994","Class":"4"}},{"type":"Feature","id":27877,"geometry":{"type":"Point","coordinates":[120.52458422573658,23.891104454664781]},"properties":{"OBJECTID":27877,"LANDMARKID":"1000700001055","LANDMARKCO":"409","LANDMARKNA":"彰化縣田尾鄉農會","LANDMARKAD":"1000721","ADDRESS":"彰化縣田尾鄉饒平村公所路139號","TEL":"04-8830970","COUNTYNAME":"彰化縣","TOWNNAME":"田尾鄉","MARKTYPE":"994","Class":"4"}},{"type":"Feature","id":27878,"geometry":{"type":"Point","coordinates":[120.53691123300149,23.903078059742665]},"properties":{"OBJECTID":27878,"LANDMARKID":"1000700000971","LANDMARKCO":"406","LANDMARKNA":"公路花園","LANDMARKAD":"1000721","ADDRESS":"彰化縣田尾鄉打廉村民生路","TEL":" ","COUNTYNAME":"彰化縣","TOWNNAME":"田尾鄉","MARKTYPE":"994","Class":"4"}},{"type":"Feature","id":27879,"geometry":{"type":"Point","coordinates":[120.52579130454387,23.892242245664477]},"properties":{"OBJECTID":27879,"LANDMARKID":"1000700000275","LANDMARKCO":"108","LANDMARKNA":"彰化縣田尾鄉公所","LANDMARKAD":"1000721","ADDRESS":"彰化縣田尾鄉饒平村公所路201號","TEL":"04-8832171","COUNTYNAME":"彰化縣","TOWNNAME":"田尾鄉","MARKTYPE":"991","Class":"1"}},{"type":"Feature","id":27880,"geometry":{"type":"Point","coordinates":[120.53281966583242,23.889920531524023]},"properties":{"OBJECTID":27880,"LANDMARKID":"1000700000045","LANDMARKCO":"103","LANDMARKNA":"彰化縣田尾鄉衛生所","LANDMARKAD":"1000721","ADDRESS":"彰化縣田尾鄉競平村光復路二段608號","TEL":"04-8832145","COUNTYNAME":"彰化縣","TOWNNAME":"田尾鄉","MARKTYPE":"991","Class":"1"}},{"type":"Feature","id":27881,"geometry":{"type":"Point","coordinates":[120.52571471948453,23.891970885438536]},"properties":{"OBJECTID":27881,"LANDMARKID":"1000700000046","LANDMARKCO":"103","LANDMARKNA":"彰化縣田尾鄉鄉民代表會","LANDMARKAD":"1000721","ADDRESS":"彰化縣田尾鄉公所路187號","TEL":"04-8831101","COUNTYNAME":"彰化縣","TOWNNAME":"田尾鄉","MARKTYPE":"991","Class":"1"}},{"type":"Feature","id":27882,"geometry":{"type":"Point","coordinates":[120.52587381591425,23.891700978507799]},"properties":{"OBJECTID":27882,"LANDMARKID":"1000700000178","LANDMARKCO":"107","LANDMARKNA":"彰化縣消防局田尾消防分隊","LANDMARKAD":"1000721","ADDRESS":"彰化縣田尾鄉公所路207號","TEL":"04-8832086","COUNTYNAME":"彰化縣","TOWNNAME":"田尾鄉","MARKTYPE":"991","Class":"1"}},{"type":"Feature","id":27883,"geometry":{"type":"Point","coordinates":[120.52628950214454,23.892606498875615]},"properties":{"OBJECTID":27883,"LANDMARKID":"1000700000179","LANDMARKCO":"107","LANDMARKNA":"彰化縣警察局田尾分駐所","LANDMARKAD":"1000721","ADDRESS":"彰化縣田尾鄉田尾村光復路三段138號","TEL":"04-8832854","COUNTYNAME":"彰化縣","TOWNNAME":"田尾鄉","MARKTYPE":"991","Class":"1"}},{"type":"Feature","id":27884,"geometry":{"type":"Point","coordinates":[120.50292889148493,23.917631211184066]},"properties":{"OBJECTID":27884,"LANDMARKID":"1000700000180","LANDMARKCO":"107","LANDMARKNA":"彰化縣警察局海豐派出所","LANDMARKAD":"1000721","ADDRESS":"彰化縣田尾鄉陸豐村民生路三段280號","TEL":"04-8222160","COUNTYNAME":"彰化縣","TOWNNAME":"田尾鄉","MARKTYPE":"991","Class":"1"}},{"type":"Feature","id":27885,"geometry":{"type":"Point","coordinates":[120.52568064918935,23.892602746672072]},"properties":{"OBJECTID":27885,"LANDMARKID":"1000700000131","LANDMARKCO":"106","LANDMARKNA":"彰化縣田尾鄉戶政事務所","LANDMARKAD":"1000721","ADDRESS":"彰化縣田尾鄉田尾村2鄰光復路三段148號","TEL":"04-8832965","COUNTYNAME":"彰化縣","TOWNNAME":"田尾鄉","MARKTYPE":"991","Class":"1"}},{"type":"Feature","id":27886,"geometry":{"type":"Point","coordinates":[120.52357986378848,23.885645667332096]},"properties":{"OBJECTID":27886,"LANDMARKID":"1000700000021","LANDMARKCO":"101","LANDMARKNA":"台灣彰化地方法院北斗簡易庭","LANDMARKAD":"1000721","ADDRESS":"彰化縣田尾鄉饒平村建平路二段91號","TEL":"04-8834331","COUNTYNAME":"彰化縣","TOWNNAME":"田尾鄉","MARKTYPE":"991","Class":"1"}},{"type":"Feature","id":27887,"geometry":{"type":"Point","coordinates":[120.52527266441109,23.891618401111877]},"properties":{"OBJECTID":27887,"LANDMARKID":"1000700000545","LANDMARKCO":"204","LANDMARKNA":"彰化縣立圖書館田尾分館","LANDMARKAD":"1000721","ADDRESS":"彰化縣田尾鄉饒平村公所路185號","TEL":" ","COUNTYNAME":"彰化縣","TOWNNAME":"田尾鄉","MARKTYPE":"992","Class":"2"}},{"type":"Feature","id":27888,"geometry":{"type":"Point","coordinates":[120.53461352925619,23.890374434460867]},"properties":{"OBJECTID":27888,"LANDMARKID":"1000700000392","LANDMARKCO":"203","LANDMARKNA":"縣立田尾國中","LANDMARKAD":"1000721","ADDRESS":"彰化縣田尾鄉饒平村中學路二段18號","TEL":"04-8830174","COUNTYNAME":"彰化縣","TOWNNAME":"田尾鄉","MARKTYPE":"992","Class":"2"}},{"type":"Feature","id":27889,"geometry":{"type":"Point","coordinates":[120.52738479386369,23.891890867510607]},"properties":{"OBJECTID":27889,"LANDMARKID":"1000700000393","LANDMARKCO":"203","LANDMARKNA":"縣立田尾國小","LANDMARKAD":"1000721","ADDRESS":"彰化縣田尾鄉饒平村中山路一段449號","TEL":"04-8832745","COUNTYNAME":"彰化縣","TOWNNAME":"田尾鄉","MARKTYPE":"992","Class":"2"}},{"type":"Feature","id":27890,"geometry":{"type":"Point","coordinates":[120.50870117898525,23.901939204823492]},"properties":{"OBJECTID":27890,"LANDMARKID":"1000700000394","LANDMARKCO":"203","LANDMARKNA":"縣立仁豐國小","LANDMARKAD":"1000721","ADDRESS":"彰化縣田尾鄉豐田村中正路二段101號","TEL":"04-8830347","COUNTYNAME":"彰化縣","TOWNNAME":"田尾鄉","MARKTYPE":"992","Class":"2"}},{"type":"Feature","id":27891,"geometry":{"type":"Point","coordinates":[120.50470392665729,23.91800385193924]},"properties":{"OBJECTID":27891,"LANDMARKID":"1000700000395","LANDMARKCO":"203","LANDMARKNA":"縣立陸豐國小","LANDMARKAD":"1000721","ADDRESS":"彰化縣田尾鄉陸豐村民生路三段200號","TEL":"04-8222563","COUNTYNAME":"彰化縣","TOWNNAME":"田尾鄉","MARKTYPE":"992","Class":"2"}},{"type":"Feature","id":27892,"geometry":{"type":"Point","coordinates":[120.56033974061089,23.886569256572187]},"properties":{"OBJECTID":27892,"LANDMARKID":"1000700000396","LANDMARKCO":"203","LANDMARKNA":"縣立南鎮國小","LANDMARKAD":"1000721","ADDRESS":"彰化縣田尾鄉南鎮村光復路一段295號","TEL":"04-8227962","COUNTYNAME":"彰化縣","TOWNNAME":"田尾鄉","MARKTYPE":"992","Class":"2"}},{"type":"Feature","id":27893,"geometry":{"type":"Point","coordinates":[120.531191433088,23.896821028480069]},"properties":{"OBJECTID":27893,"LANDMARKID":"1000700000591","LANDMARKCO":"303","LANDMARKNA":"北斗鎮停車場","LANDMARKAD":"1000721","ADDRESS":"彰化縣田尾鄉","TEL":" ","COUNTYNAME":"彰化縣","TOWNNAME":"田尾鄉","MARKTYPE":"993","Class":"303"}},{"type":"Feature","id":27894,"geometry":{"type":"Point","coordinates":[120.53031504377296,23.895539839129917]},"properties":{"OBJECTID":27894,"LANDMARKID":"1000700001205","LANDMARKCO":"604","LANDMARKNA":"三益民宿","LANDMARKAD":"1000721","ADDRESS":"彰化縣田尾鄉田尾村民族路121號","TEL":"04-8833528","COUNTYNAME":"彰化縣","TOWNNAME":"田尾鄉","MARKTYPE":"996","Class":"6"}},{"type":"Feature","id":27895,"geometry":{"type":"Point","coordinates":[120.53514485471705,23.905875558695271]},"properties":{"OBJECTID":27895,"LANDMARKID":"1000700001206","LANDMARKCO":"604","LANDMARKNA":"花宿","LANDMARKAD":"1000721","ADDRESS":"彰化縣田尾鄉溪畔村4鄰張厝巷72號","TEL":"0919-702700","COUNTYNAME":"彰化縣","TOWNNAME":"田尾鄉","MARKTYPE":"996","Class":"6"}},{"type":"Feature","id":27896,"geometry":{"type":"Point","coordinates":[120.53804062753206,23.907629879897296]},"properties":{"OBJECTID":27896,"LANDMARKID":"1000700001207","LANDMARKCO":"604","LANDMARKNA":"森鼎民宿","LANDMARKAD":"1000721","ADDRESS":"彰化縣田尾鄉溪畔村溪畔巷262號","TEL":"04-8224015","COUNTYNAME":"彰化縣","TOWNNAME":"田尾鄉","MARKTYPE":"996","Class":"6"}},{"type":"Feature","id":27897,"geometry":{"type":"Point","coordinates":[120.46522093666805,23.904362258650909]},"properties":{"OBJECTID":27897,"LANDMARKID":"1000700000825","LANDMARKCO":"405","LANDMARKNA":"中油加油站-彰水站","LANDMARKAD":"1000722","ADDRESS":"彰化縣埤頭鄉豐崙村彰水路四段75號","TEL":"04-8926228","COUNTYNAME":"彰化縣","TOWNNAME":"埤頭鄉","MARKTYPE":"994","Class":"4"}},{"type":"Feature","id":27898,"geometry":{"type":"Point","coordinates":[120.47039619133243,23.91327233565562]},"properties":{"OBJECTID":27898,"LANDMARKID":"1000700000826","LANDMARKCO":"405","LANDMARKNA":"中油加油站-連成站","LANDMARKAD":"1000722","ADDRESS":"彰化縣埤頭鄉興農村彰水路4段326號","TEL":"04-8910822","COUNTYNAME":"彰化縣","TOWNNAME":"埤頭鄉","MARKTYPE":"994","Class":"4"}},{"type":"Feature","id":27899,"geometry":{"type":"Point","coordinates":[120.45830766257757,23.857766271240195]},"properties":{"OBJECTID":27899,"LANDMARKID":"1000700000827","LANDMARKCO":"405","LANDMARKNA":"山隆加油站-彰興站(中油)","LANDMARKAD":"1000722","ADDRESS":"彰化縣埤頭鄉崙腳村彰水路二段928號","TEL":"(04)8922-011","COUNTYNAME":"彰化縣","TOWNNAME":"埤頭鄉","MARKTYPE":"994","Class":"4"}},{"type":"Feature","id":27900,"geometry":{"type":"Point","coordinates":[120.45773974016154,23.849429614764833]},"properties":{"OBJECTID":27900,"LANDMARKID":"1000700000828","LANDMARKCO":"405","LANDMARKNA":"中油加油站-埤頭站(中油直營)","LANDMARKAD":"1000722","ADDRESS":"彰化縣埤頭鄉中和村彰水路一段499號","TEL":"04-8897844","COUNTYNAME":"彰化縣","TOWNNAME":"埤頭鄉","MARKTYPE":"994","Class":"4"}},{"type":"Feature","id":27901,"geometry":{"type":"Point","coordinates":[120.49699454602867,23.883709409682915]},"properties":{"OBJECTID":27901,"LANDMARKID":"1000700000829","LANDMARKCO":"405","LANDMARKNA":"中油加油站-北斗交流道站(中油直營)","LANDMARKAD":"1000722","ADDRESS":"彰化縣埤頭鄉斗苑東路7號","TEL":"04-8783372","COUNTYNAME":"彰化縣","TOWNNAME":"埤頭鄉","MARKTYPE":"994","Class":"4"}},{"type":"Feature","id":27902,"geometry":{"type":"Point","coordinates":[120.46356439326185,23.827328516540152]},"properties":{"OBJECTID":27902,"LANDMARKID":"1000700000830","LANDMARKCO":"405","LANDMARKNA":"台糖加油站-水尾站(中油)","LANDMARKAD":"1000722","ADDRESS":"彰化縣埤頭鄉彰水路一段6號","TEL":"04-8892829","COUNTYNAME":"彰化縣","TOWNNAME":"埤頭鄉","MARKTYPE":"994","Class":"4"}},{"type":"Feature","id":27903,"geometry":{"type":"Point","coordinates":[120.45905565639343,23.891751254483943]},"properties":{"OBJECTID":27903,"LANDMARKID":"1000700000682","LANDMARKCO":"401","LANDMARKNA":"英仁醫院","LANDMARKAD":"1000722","ADDRESS":"彰化縣埤頭鄉合興村斗苑西路277號","TEL":"04-8922115","COUNTYNAME":"彰化縣","TOWNNAME":"埤頭鄉","MARKTYPE":"994","Class":"4"}},{"type":"Feature","id":27904,"geometry":{"type":"Point","coordinates":[120.46055795214322,23.891311887268852]},"properties":{"OBJECTID":27904,"LANDMARKID":"1000700001025","LANDMARKCO":"408","LANDMARKNA":"郵局-埤頭郵局","LANDMARKAD":"1000722","ADDRESS":"彰化縣埤頭鄉斗苑西路187號","TEL":"(04)8922-044","COUNTYNAME":"彰化縣","TOWNNAME":"埤頭鄉","MARKTYPE":"994","Class":"4"}},{"type":"Feature","id":27905,"geometry":{"type":"Point","coordinates":[120.45950877961558,23.846668199468851]},"properties":{"OBJECTID":27905,"LANDMARKID":"1000700001026","LANDMARKCO":"408","LANDMARKNA":"郵局-埤頭路口厝郵局","LANDMARKAD":"1000722","ADDRESS":"彰化縣埤頭鄉溪林路273號","TEL":"(04)8893-404","COUNTYNAME":"彰化縣","TOWNNAME":"埤頭鄉","MARKTYPE":"994","Class":"4"}},{"type":"Feature","id":27906,"geometry":{"type":"Point","coordinates":[120.4644070200673,23.891164512961289]},"properties":{"OBJECTID":27906,"LANDMARKID":"1000700001054","LANDMARKCO":"409","LANDMARKNA":"彰化縣埤頭鄉農會","LANDMARKAD":"1000722","ADDRESS":"彰化縣埤頭鄉合興村斗苑西路92號","TEL":"04-8922211","COUNTYNAME":"彰化縣","TOWNNAME":"埤頭鄉","MARKTYPE":"994","Class":"4"}},{"type":"Feature","id":27907,"geometry":{"type":"Point","coordinates":[120.48046273574958,23.888852872316026]},"properties":{"OBJECTID":27907,"LANDMARKID":"1000700000831","LANDMARKCO":"405","LANDMARKNA":"台亞加油站-埤頭交流道站（台塑）","LANDMARKAD":"1000722","ADDRESS":"彰化縣埤頭鄉斗苑東路521號","TEL":"(04)892-7138","COUNTYNAME":"彰化縣","TOWNNAME":"埤頭鄉","MARKTYPE":"994","Class":"4"}},{"type":"Feature","id":27908,"geometry":{"type":"Point","coordinates":[120.46253327179333,23.891404767802566]},"properties":{"OBJECTID":27908,"LANDMARKID":"1000700000274","LANDMARKCO":"108","LANDMARKNA":"彰化縣埤頭鄉公所","LANDMARKAD":"1000722","ADDRESS":"彰化縣埤頭鄉合興村斗苑西路138號","TEL":"04-8922117","COUNTYNAME":"彰化縣","TOWNNAME":"埤頭鄉","MARKTYPE":"991","Class":"1"}},{"type":"Feature","id":27909,"geometry":{"type":"Point","coordinates":[120.45725436356915,23.894818417454047]},"properties":{"OBJECTID":27909,"LANDMARKID":"1000700000047","LANDMARKCO":"103","LANDMARKNA":"彰化縣埤頭鄉衛生所","LANDMARKAD":"1000722","ADDRESS":"彰化縣埤頭鄉合興村斗苑西路388巷19號","TEL":"04-8922445","COUNTYNAME":"彰化縣","TOWNNAME":"埤頭鄉","MARKTYPE":"991","Class":"1"}},{"type":"Feature","id":27910,"geometry":{"type":"Point","coordinates":[120.46160036587888,23.891398244610901]},"properties":{"OBJECTID":27910,"LANDMARKID":"1000700000048","LANDMARKCO":"103","LANDMARKNA":"彰化縣埤頭鄉鄉民代表會","LANDMARKAD":"1000722","ADDRESS":"彰化縣埤頭鄉斗苑西路138號","TEL":"04-8922028","COUNTYNAME":"彰化縣","TOWNNAME":"埤頭鄉","MARKTYPE":"991","Class":"1"}},{"type":"Feature","id":27911,"geometry":{"type":"Point","coordinates":[120.45931062515326,23.889224843496283]},"properties":{"OBJECTID":27911,"LANDMARKID":"1000700000181","LANDMARKCO":"107","LANDMARKNA":"彰化縣消防局埤頭消防分隊","LANDMARKAD":"1000722","ADDRESS":"彰化縣埤頭鄉安康街100號","TEL":"04-8922844","COUNTYNAME":"彰化縣","TOWNNAME":"埤頭鄉","MARKTYPE":"991","Class":"1"}},{"type":"Feature","id":27912,"geometry":{"type":"Point","coordinates":[120.4580333443249,23.891663644138507]},"properties":{"OBJECTID":27912,"LANDMARKID":"1000700000182","LANDMARKCO":"107","LANDMARKNA":"彰化縣警察局埤頭分駐所","LANDMARKAD":"1000722","ADDRESS":"彰化縣埤頭鄉合興村斗苑西路305號","TEL":"04-8922041","COUNTYNAME":"彰化縣","TOWNNAME":"埤頭鄉","MARKTYPE":"991","Class":"1"}},{"type":"Feature","id":27913,"geometry":{"type":"Point","coordinates":[120.45869540311958,23.846511191718527]},"properties":{"OBJECTID":27913,"LANDMARKID":"1000700000183","LANDMARKCO":"107","LANDMARKNA":"彰化縣警察局中和派出所","LANDMARKAD":"1000722","ADDRESS":"彰化縣埤頭鄉忠和村溪林路337號","TEL":"04-8896155","COUNTYNAME":"彰化縣","TOWNNAME":"埤頭鄉","MARKTYPE":"991","Class":"1"}},{"type":"Feature","id":27914,"geometry":{"type":"Point","coordinates":[120.49468269723123,23.889252125463386]},"properties":{"OBJECTID":27914,"LANDMARKID":"1000700000184","LANDMARKCO":"107","LANDMARKNA":"國公路第三警察隊隊部","LANDMARKAD":"1000722","ADDRESS":"彰化縣埤頭鄉和豐村埔尾路52之2號","TEL":"04-8880622","COUNTYNAME":"彰化縣","TOWNNAME":"埤頭鄉","MARKTYPE":"991","Class":"1"}},{"type":"Feature","id":27915,"geometry":{"type":"Point","coordinates":[120.49470233610023,23.889252254970696]},"properties":{"OBJECTID":27915,"LANDMARKID":"1000700000185","LANDMARKCO":"107","LANDMARKNA":"國公路第三警察隊員林分隊","LANDMARKAD":"1000722","ADDRESS":"彰化縣埤頭鄉和豐村埔尾路52之2號","TEL":"04-8886803","COUNTYNAME":"彰化縣","TOWNNAME":"埤頭鄉","MARKTYPE":"991","Class":"1"}},{"type":"Feature","id":27916,"geometry":{"type":"Point","coordinates":[120.45821941940699,23.891935800977567]},"properties":{"OBJECTID":27916,"LANDMARKID":"1000700000130","LANDMARKCO":"106","LANDMARKNA":"彰化縣埤頭鄉戶政事務所","LANDMARKAD":"1000722","ADDRESS":"彰化縣埤頭鄉合興村15鄰斗苑西路315號","TEL":"04-8922340","COUNTYNAME":"彰化縣","TOWNNAME":"埤頭鄉","MARKTYPE":"991","Class":"1"}},{"type":"Feature","id":27917,"geometry":{"type":"Point","coordinates":[120.4587069649544,23.893241195457808]},"properties":{"OBJECTID":27917,"LANDMARKID":"1000700000546","LANDMARKCO":"204","LANDMARKNA":"彰化縣立圖書館埤頭分館","LANDMARKAD":"1000722","ADDRESS":"彰化縣埤頭鄉林文鄉路135號","TEL":" ","COUNTYNAME":"彰化縣","TOWNNAME":"埤頭鄉","MARKTYPE":"992","Class":"2"}},{"type":"Feature","id":27918,"geometry":{"type":"Point","coordinates":[120.46064340195986,23.880656222372437]},"properties":{"OBJECTID":27918,"LANDMARKID":"1000700000366","LANDMARKCO":"203","LANDMARKNA":"縣立埤頭國中","LANDMARKAD":"1000722","ADDRESS":"彰化縣埤頭鄉崙腳村和平路64號","TEL":"04-8922004","COUNTYNAME":"彰化縣","TOWNNAME":"埤頭鄉","MARKTYPE":"992","Class":"2"}},{"type":"Feature","id":27919,"geometry":{"type":"Point","coordinates":[120.4528447810028,23.865541664971868]},"properties":{"OBJECTID":27919,"LANDMARKID":"1000700000367","LANDMARKCO":"203","LANDMARKNA":"縣立大湖國小","LANDMARKAD":"1000722","ADDRESS":"彰化縣埤頭鄉大湖村大湖路5號","TEL":"04-8922009","COUNTYNAME":"彰化縣","TOWNNAME":"埤頭鄉","MARKTYPE":"992","Class":"2"}},{"type":"Feature","id":27920,"geometry":{"type":"Point","coordinates":[120.47749956575095,23.892814253723142]},"properties":{"OBJECTID":27920,"LANDMARKID":"1000700000368","LANDMARKCO":"203","LANDMARKNA":"縣立埤頭國小","LANDMARKAD":"1000722","ADDRESS":"彰化縣埤頭鄉埤頭村中南路1號","TEL":"04-8922019","COUNTYNAME":"彰化縣","TOWNNAME":"埤頭鄉","MARKTYPE":"992","Class":"2"}},{"type":"Feature","id":27921,"geometry":{"type":"Point","coordinates":[120.45863124215916,23.894366877316653]},"properties":{"OBJECTID":27921,"LANDMARKID":"1000700000369","LANDMARKCO":"203","LANDMARKNA":"縣立合興國小","LANDMARKAD":"1000722","ADDRESS":"彰化縣埤頭鄉合興村文鄉路161號","TEL":"04-8922030","COUNTYNAME":"彰化縣","TOWNNAME":"埤頭鄉","MARKTYPE":"992","Class":"2"}},{"type":"Feature","id":27922,"geometry":{"type":"Point","coordinates":[120.46012563399627,23.917312076508392]},"properties":{"OBJECTID":27922,"LANDMARKID":"1000700000370","LANDMARKCO":"203","LANDMARKNA":"縣立豐崙國小","LANDMARKAD":"1000722","ADDRESS":"彰化縣埤頭鄉豐崙村和平路8之1號","TEL":"04-8922136","COUNTYNAME":"彰化縣","TOWNNAME":"埤頭鄉","MARKTYPE":"992","Class":"2"}},{"type":"Feature","id":27923,"geometry":{"type":"Point","coordinates":[120.48148048173245,23.870158361518648]},"properties":{"OBJECTID":27923,"LANDMARKID":"1000700000371","LANDMARKCO":"203","LANDMARKNA":"縣立芙朝國小","LANDMARKAD":"1000722","ADDRESS":"彰化縣埤頭鄉芙朝村芙朝路19號","TEL":"04-8925057","COUNTYNAME":"彰化縣","TOWNNAME":"埤頭鄉","MARKTYPE":"992","Class":"2"}},{"type":"Feature","id":27924,"geometry":{"type":"Point","coordinates":[120.4603086093841,23.847515727900205]},"properties":{"OBJECTID":27924,"LANDMARKID":"1000700000372","LANDMARKCO":"203","LANDMARKNA":"縣立中和國小","LANDMARKAD":"1000722","ADDRESS":"彰化縣埤頭鄉中和村溪林路284號","TEL":"04-8895768","COUNTYNAME":"彰化縣","TOWNNAME":"埤頭鄉","MARKTYPE":"992","Class":"2"}},{"type":"Feature","id":27925,"geometry":{"type":"Point","coordinates":[120.49496202975087,23.870111461302891]},"properties":{"OBJECTID":27925,"LANDMARKID":"1000700000285","LANDMARKCO":"201","LANDMARKNA":"明道管理學院","LANDMARKAD":"1000722","ADDRESS":"彰化縣埤頭鄉文化路369號","TEL":"04-8876660","COUNTYNAME":"彰化縣","TOWNNAME":"埤頭鄉","MARKTYPE":"992","Class":"2"}},{"type":"Feature","id":27926,"geometry":{"type":"Point","coordinates":[120.48931797666532,23.868633812697627]},"properties":{"OBJECTID":27926,"LANDMARKID":"1000700000666","LANDMARKCO":"308","LANDMARKNA":"國1-北斗交流道-南下","LANDMARKAD":"1000722","ADDRESS":"彰化縣埤頭鄉","TEL":" ","COUNTYNAME":"彰化縣","TOWNNAME":"埤頭鄉","MARKTYPE":"993","Class":"308"}},{"type":"Feature","id":27927,"geometry":{"type":"Point","coordinates":[120.49364307022984,23.890127108011992]},"properties":{"OBJECTID":27927,"LANDMARKID":"1000700000667","LANDMARKCO":"308","LANDMARKNA":"員林收費站","LANDMARKAD":"1000722","ADDRESS":" ","TEL":" ","COUNTYNAME":"彰化縣","TOWNNAME":"埤頭鄉","MARKTYPE":"993","Class":"308"}},{"type":"Feature","id":27928,"geometry":{"type":"Point","coordinates":[120.49087838717939,23.876936858053725]},"properties":{"OBJECTID":27928,"LANDMARKID":"1000700000668","LANDMARKCO":"308","LANDMARKNA":"國1-北斗交流道-北上","LANDMARKAD":"1000722","ADDRESS":"彰化縣埤頭鄉","TEL":" ","COUNTYNAME":"彰化縣","TOWNNAME":"埤頭鄉","MARKTYPE":"993","Class":"308"}},{"type":"Feature","id":27929,"geometry":{"type":"Point","coordinates":[120.46111428691269,23.891941156876943]},"properties":{"OBJECTID":27929,"LANDMARKID":"1000700000592","LANDMARKCO":"303","LANDMARKNA":"彰化縣埤頭鄉公所鄉有停車場","LANDMARKAD":"1000722","ADDRESS":"彰化縣埤頭鄉","TEL":" ","COUNTYNAME":"彰化縣","TOWNNAME":"埤頭鄉","MARKTYPE":"993","Class":"303"}},{"type":"Feature","id":27930,"geometry":{"type":"Point","coordinates":[120.49600154846823,23.883966178219435]},"properties":{"OBJECTID":27930,"LANDMARKID":"1000700001200","LANDMARKCO":"603","LANDMARKNA":"好來屋汽車旅館","LANDMARKAD":"1000722","ADDRESS":"彰化縣埤頭鄉和豐村新生路232號","TEL":"04-8873055","COUNTYNAME":"彰化縣","TOWNNAME":"埤頭鄉","MARKTYPE":"996","Class":"6"}},{"type":"Feature","id":27931,"geometry":{"type":"Point","coordinates":[120.51412345132043,23.870327244679466]},"properties":{"OBJECTID":27931,"LANDMARKID":"1000700000802","LANDMARKCO":"405","LANDMARKNA":"中油加油站-聯裕站","LANDMARKAD":"1000719","ADDRESS":"彰化縣北斗鎮中山路一段231號","TEL":"04-8872971","COUNTYNAME":"彰化縣","TOWNNAME":"北斗鎮","MARKTYPE":"994","Class":"4"}},{"type":"Feature","id":27932,"geometry":{"type":"Point","coordinates":[120.51988223853162,23.876855390604231]},"properties":{"OBJECTID":27932,"LANDMARKID":"1000700000803","LANDMARKCO":"405","LANDMARKNA":"中油加油站-北斗站(中油直營)","LANDMARKAD":"1000719","ADDRESS":"彰化縣北斗鎮大道里中山路二段207號","TEL":"04-8882154","COUNTYNAME":"彰化縣","TOWNNAME":"北斗鎮","MARKTYPE":"994","Class":"4"}},{"type":"Feature","id":27933,"geometry":{"type":"Point","coordinates":[120.52658472712656,23.865857350551039]},"properties":{"OBJECTID":27933,"LANDMARKID":"1000700000804","LANDMARKCO":"405","LANDMARKNA":"中油加油站-無憂站","LANDMARKAD":"1000719","ADDRESS":"彰化縣北斗鎮五權里宮前街2之1號","TEL":"04-8884677","COUNTYNAME":"彰化縣","TOWNNAME":"北斗鎮","MARKTYPE":"994","Class":"4"}},{"type":"Feature","id":27934,"geometry":{"type":"Point","coordinates":[120.51565591964128,23.871987711863611]},"properties":{"OBJECTID":27934,"LANDMARKID":"1000700000683","LANDMARKCO":"401","LANDMARKNA":"卓醫院","LANDMARKAD":"1000719","ADDRESS":"彰化縣北斗鎮中山路一段311號","TEL":"04-8882517","COUNTYNAME":"彰化縣","TOWNNAME":"北斗鎮","MARKTYPE":"994","Class":"4"}},{"type":"Feature","id":27935,"geometry":{"type":"Point","coordinates":[120.52769017422327,23.872569555328646]},"properties":{"OBJECTID":27935,"LANDMARKID":"1000700000684","LANDMARKCO":"401","LANDMARKNA":"南星醫院","LANDMARKAD":"1000719","ADDRESS":"彰化縣北斗鎮斗苑路一段26號","TEL":"04-8882178","COUNTYNAME":"彰化縣","TOWNNAME":"北斗鎮","MARKTYPE":"994","Class":"4"}},{"type":"Feature","id":27936,"geometry":{"type":"Point","coordinates":[120.51790001857505,23.873979536082015]},"properties":{"OBJECTID":27936,"LANDMARKID":"1000700000685","LANDMARKCO":"401","LANDMARKNA":"欣和護理之家","LANDMARKAD":"1000719","ADDRESS":"彰化縣北斗鎮中山路二段40號2樓","TEL":"04-8874203","COUNTYNAME":"彰化縣","TOWNNAME":"北斗鎮","MARKTYPE":"994","Class":"4"}},{"type":"Feature","id":27937,"geometry":{"type":"Point","coordinates":[120.52415909492156,23.874932070845716]},"properties":{"OBJECTID":27937,"LANDMARKID":"1000700001031","LANDMARKCO":"408","LANDMARKNA":"郵局-北斗郵局","LANDMARKAD":"1000719","ADDRESS":"彰化縣北斗鎮光復路226號","TEL":"(04)8882-047","COUNTYNAME":"彰化縣","TOWNNAME":"北斗鎮","MARKTYPE":"994","Class":"4"}},{"type":"Feature","id":27938,"geometry":{"type":"Point","coordinates":[120.52396757814412,23.873883952063352]},"properties":{"OBJECTID":27938,"LANDMARKID":"1000700001050","LANDMARKCO":"409","LANDMARKNA":"彰化縣北斗鎮農會","LANDMARKAD":"1000719","ADDRESS":"彰化縣北斗鎮光復路189號","TEL":"04-8884156","COUNTYNAME":"彰化縣","TOWNNAME":"北斗鎮","MARKTYPE":"994","Class":"4"}},{"type":"Feature","id":27939,"geometry":{"type":"Point","coordinates":[120.53078671663089,23.87090372072727]},"properties":{"OBJECTID":27939,"LANDMARKID":"1000700000789","LANDMARKCO":"404","LANDMARKNA":"台灣省自來水北斗營運所","LANDMARKAD":"1000719","ADDRESS":"彰化縣北斗鎮斗中路811號","TEL":" ","COUNTYNAME":"彰化縣","TOWNNAME":"北斗鎮","MARKTYPE":"994","Class":"4"}},{"type":"Feature","id":27940,"geometry":{"type":"Point","coordinates":[120.52395267540581,23.86734865146909]},"properties":{"OBJECTID":27940,"LANDMARKID":"1000700000974","LANDMARKCO":"406","LANDMARKNA":"北斗河濱公園","LANDMARKAD":"1000719","ADDRESS":"彰化縣北斗鎮","TEL":" ","COUNTYNAME":"彰化縣","TOWNNAME":"北斗鎮","MARKTYPE":"994","Class":"4"}},{"type":"Feature","id":27941,"geometry":{"type":"Point","coordinates":[120.52475295727639,23.879634944856438]},"properties":{"OBJECTID":27941,"LANDMARKID":"1000700000975","LANDMARKCO":"406","LANDMARKNA":"思恩公園","LANDMARKAD":"1000719","ADDRESS":"彰化縣北斗鎮","TEL":" ","COUNTYNAME":"彰化縣","TOWNNAME":"北斗鎮","MARKTYPE":"994","Class":"4"}},{"type":"Feature","id":27942,"geometry":{"type":"Point","coordinates":[120.52056066577089,23.868416544072382]},"properties":{"OBJECTID":27942,"LANDMARKID":"1000700000976","LANDMARKCO":"406","LANDMARKNA":"扶輪公園","LANDMARKAD":"1000719","ADDRESS":"彰化縣北斗鎮","TEL":" ","COUNTYNAME":"彰化縣","TOWNNAME":"北斗鎮","MARKTYPE":"994","Class":"4"}},{"type":"Feature","id":27943,"geometry":{"type":"Point","coordinates":[120.52447848858159,23.867058212693074]},"properties":{"OBJECTID":27943,"LANDMARKID":"1000700000977","LANDMARKCO":"406","LANDMARKNA":"河濱公園","LANDMARKAD":"1000719","ADDRESS":"彰化縣北斗鎮","TEL":" ","COUNTYNAME":"彰化縣","TOWNNAME":"北斗鎮","MARKTYPE":"994","Class":"4"}},{"type":"Feature","id":27944,"geometry":{"type":"Point","coordinates":[120.52145378469596,23.880377956682395]},"properties":{"OBJECTID":27944,"LANDMARKID":"1000700000800","LANDMARKCO":"405","LANDMARKNA":"福懋加油站-北斗站(台塑)","LANDMARKAD":"1000719","ADDRESS":"彰化縣北斗鎮中山路二段395號","TEL":"04-8783626","COUNTYNAME":"彰化縣","TOWNNAME":"北斗鎮","MARKTYPE":"994","Class":"4"}},{"type":"Feature","id":27945,"geometry":{"type":"Point","coordinates":[120.50109130967178,23.882148702357078]},"properties":{"OBJECTID":27945,"LANDMARKID":"1000700000801","LANDMARKCO":"405","LANDMARKNA":"全國加油站-北斗交流道站（台塑）","LANDMARKAD":"1000719","ADDRESS":"彰化縣北斗鎮斗苑路二段766號","TEL":"04-8783558","COUNTYNAME":"彰化縣","TOWNNAME":"北斗鎮","MARKTYPE":"994","Class":"4"}},{"type":"Feature","id":27946,"geometry":{"type":"Point","coordinates":[120.55742338964232,23.861097238016807]},"properties":{"OBJECTID":27946,"LANDMARKID":"1000700000022","LANDMARKCO":"101","LANDMARKNA":"農業委員會畜產試驗所彰化種畜繁殖場","LANDMARKAD":"1000719","ADDRESS":"彰化縣北斗鎮大新里拓農路7號","TEL":"04-8884106","COUNTYNAME":"彰化縣","TOWNNAME":"北斗鎮","MARKTYPE":"991","Class":"1"}},{"type":"Feature","id":27947,"geometry":{"type":"Point","coordinates":[120.52489367092438,23.874998973941494]},"properties":{"OBJECTID":27947,"LANDMARKID":"1000700000040","LANDMARKCO":"103","LANDMARKNA":"彰化縣北斗鎮衛生所","LANDMARKAD":"1000719","ADDRESS":"彰化縣北斗鎮光復里地政路406巷17號","TEL":"04-8880344","COUNTYNAME":"彰化縣","TOWNNAME":"北斗鎮","MARKTYPE":"991","Class":"1"}},{"type":"Feature","id":27948,"geometry":{"type":"Point","coordinates":[120.52157085463337,23.871465517924292]},"properties":{"OBJECTID":27948,"LANDMARKID":"1000700000283","LANDMARKCO":"108","LANDMARKNA":"彰化縣北斗鎮公所","LANDMARKAD":"1000719","ADDRESS":"彰化縣北斗鎮西德里公所街2號","TEL":"04-8884166","COUNTYNAME":"彰化縣","TOWNNAME":"北斗鎮","MARKTYPE":"991","Class":"1"}},{"type":"Feature","id":27949,"geometry":{"type":"Point","coordinates":[120.52396548844781,23.874361165410726]},"properties":{"OBJECTID":27949,"LANDMARKID":"1000700000041","LANDMARKCO":"103","LANDMARKNA":"彰化縣北斗鎮鎮民代表會","LANDMARKAD":"1000719","ADDRESS":"彰化縣北斗鎮光復路216號2樓","TEL":"04-8880275","COUNTYNAME":"彰化縣","TOWNNAME":"北斗鎮","MARKTYPE":"991","Class":"1"}},{"type":"Feature","id":27950,"geometry":{"type":"Point","coordinates":[120.52083312459501,23.871641522193514]},"properties":{"OBJECTID":27950,"LANDMARKID":"1000700000143","LANDMARKCO":"107","LANDMARKNA":"彰化縣消防局第四消防大隊部","LANDMARKAD":"1000719","ADDRESS":"彰化縣埤頭鄉平原村安康街100號3樓","TEL":"04-8910119","COUNTYNAME":"彰化縣","TOWNNAME":"北斗鎮","MARKTYPE":"991","Class":"1"}},{"type":"Feature","id":27951,"geometry":{"type":"Point","coordinates":[120.52083312459501,23.871641522193514]},"properties":{"OBJECTID":27951,"LANDMARKID":"1000700000144","LANDMARKCO":"107","LANDMARKNA":"彰化縣消防局北斗消防分隊","LANDMARKAD":"1000719","ADDRESS":"彰化縣北斗鎮公所街21號","TEL":"04-8882050","COUNTYNAME":"彰化縣","TOWNNAME":"北斗鎮","MARKTYPE":"991","Class":"1"}},{"type":"Feature","id":27952,"geometry":{"type":"Point","coordinates":[120.52363816049093,23.874810620876175]},"properties":{"OBJECTID":27952,"LANDMARKID":"1000700000145","LANDMARKCO":"107","LANDMARKNA":"彰化縣警察局北斗分局","LANDMARKAD":"1000719","ADDRESS":"彰化縣北斗鎮新政里光復路215號","TEL":"04-8882010","COUNTYNAME":"彰化縣","TOWNNAME":"北斗鎮","MARKTYPE":"991","Class":"1"}},{"type":"Feature","id":27953,"geometry":{"type":"Point","coordinates":[120.52360870282857,23.874810438518178]},"properties":{"OBJECTID":27953,"LANDMARKID":"1000700000146","LANDMARKCO":"107","LANDMARKNA":"彰化縣警察局北斗派出所","LANDMARKAD":"1000719","ADDRESS":"彰化縣北斗鎮新政里光復路215號","TEL":"04-8882604","COUNTYNAME":"彰化縣","TOWNNAME":"北斗鎮","MARKTYPE":"991","Class":"1"}},{"type":"Feature","id":27954,"geometry":{"type":"Point","coordinates":[120.52352231501139,23.87453901574272]},"properties":{"OBJECTID":27954,"LANDMARKID":"1000700000138","LANDMARKCO":"106","LANDMARKNA":"彰化縣北斗鎮戶政事務所","LANDMARKAD":"1000719","ADDRESS":"彰化縣北斗鎮新政里8鄰地政路466號","TEL":"04-8882779","COUNTYNAME":"彰化縣","TOWNNAME":"北斗鎮","MARKTYPE":"991","Class":"1"}},{"type":"Feature","id":27955,"geometry":{"type":"Point","coordinates":[120.5248380530214,23.874547149535935]},"properties":{"OBJECTID":27955,"LANDMARKID":"1000700000105","LANDMARKCO":"105","LANDMARKNA":"彰化縣北斗地政事務所","LANDMARKAD":"1000719","ADDRESS":"彰化縣北斗鎮地政路416號","TEL":"04-8882034","COUNTYNAME":"彰化縣","TOWNNAME":"北斗鎮","MARKTYPE":"991","Class":"1"}},{"type":"Feature","id":27956,"geometry":{"type":"Point","coordinates":[120.52057761741298,23.878502343382063]},"properties":{"OBJECTID":27956,"LANDMARKID":"1000700000104","LANDMARKCO":"104","LANDMARKNA":"中區國稅局北斗稽徵所","LANDMARKAD":"1000719","ADDRESS":"彰化縣北斗鎮中山路二段309號5樓","TEL":"04-8871204","COUNTYNAME":"彰化縣","TOWNNAME":"北斗鎮","MARKTYPE":"991","Class":"1"}},{"type":"Feature","id":27957,"geometry":{"type":"Point","coordinates":[120.52470058777813,23.874546300774568]},"properties":{"OBJECTID":27957,"LANDMARKID":"1000700000042","LANDMARKCO":"103","LANDMARKNA":"彰化縣北斗彰南區域服務中心","LANDMARKAD":"1000719","ADDRESS":"彰化縣北斗鎮","TEL":" ","COUNTYNAME":"彰化縣","TOWNNAME":"北斗鎮","MARKTYPE":"991","Class":"1"}},{"type":"Feature","id":27958,"geometry":{"type":"Point","coordinates":[120.52352209872265,23.877559297624064]},"properties":{"OBJECTID":27958,"LANDMARKID":"1000700000550","LANDMARKCO":"204","LANDMARKNA":"彰化縣立圖書館北斗分館","LANDMARKAD":"1000719","ADDRESS":"彰化縣北斗鎮光復路363號","TEL":" ","COUNTYNAME":"彰化縣","TOWNNAME":"北斗鎮","MARKTYPE":"992","Class":"2"}},{"type":"Feature","id":27959,"geometry":{"type":"Point","coordinates":[120.52223894368902,23.879587579954496]},"properties":{"OBJECTID":27959,"LANDMARKID":"1000700000308","LANDMARKCO":"202","LANDMARKNA":"國立北斗家商","LANDMARKAD":"1000719","ADDRESS":"彰化縣北斗鎮大道里文苑路17號","TEL":"04-8882224","COUNTYNAME":"彰化縣","TOWNNAME":"北斗鎮","MARKTYPE":"992","Class":"2"}},{"type":"Feature","id":27960,"geometry":{"type":"Point","coordinates":[120.52140549053075,23.876701604965966]},"properties":{"OBJECTID":27960,"LANDMARKID":"1000700000353","LANDMARKCO":"203","LANDMARKNA":"縣立北斗國中","LANDMARKAD":"1000719","ADDRESS":"彰化縣北斗鎮文苑路36號","TEL":"04-8882072","COUNTYNAME":"彰化縣","TOWNNAME":"北斗鎮","MARKTYPE":"992","Class":"2"}},{"type":"Feature","id":27961,"geometry":{"type":"Point","coordinates":[120.55752355039169,23.855138297182709]},"properties":{"OBJECTID":27961,"LANDMARKID":"1000700000354","LANDMARKCO":"203","LANDMARKNA":"縣立大新國小","LANDMARKAD":"1000719","ADDRESS":"彰化縣北斗鎮大新里中圳路25之7號","TEL":"04-8882640","COUNTYNAME":"彰化縣","TOWNNAME":"北斗鎮","MARKTYPE":"992","Class":"2"}},{"type":"Feature","id":27962,"geometry":{"type":"Point","coordinates":[120.52331306309961,23.876343611373123]},"properties":{"OBJECTID":27962,"LANDMARKID":"1000700000355","LANDMARKCO":"203","LANDMARKNA":"縣立北斗國小","LANDMARKAD":"1000719","ADDRESS":"彰化縣北斗鎮新政里文苑路6號","TEL":"04-8871995","COUNTYNAME":"彰化縣","TOWNNAME":"北斗鎮","MARKTYPE":"992","Class":"2"}},{"type":"Feature","id":27963,"geometry":{"type":"Point","coordinates":[120.53430650254225,23.871410595624052]},"properties":{"OBJECTID":27963,"LANDMARKID":"1000700000356","LANDMARKCO":"203","LANDMARKNA":"縣立螺青國小","LANDMARKAD":"1000719","ADDRESS":"彰化縣北斗鎮東光里斗中路9號","TEL":"04-8882031","COUNTYNAME":"彰化縣","TOWNNAME":"北斗鎮","MARKTYPE":"992","Class":"2"}},{"type":"Feature","id":27964,"geometry":{"type":"Point","coordinates":[120.51459303367911,23.876405496976425]},"properties":{"OBJECTID":27964,"LANDMARKID":"1000700000357","LANDMARKCO":"203","LANDMARKNA":"縣立螺陽國小","LANDMARKAD":"1000719","ADDRESS":"彰化縣北斗鎮西安里斗苑路二段150號","TEL":"04-8882039","COUNTYNAME":"彰化縣","TOWNNAME":"北斗鎮","MARKTYPE":"992","Class":"2"}},{"type":"Feature","id":27965,"geometry":{"type":"Point","coordinates":[120.52151340613338,23.869930124655689]},"properties":{"OBJECTID":27965,"LANDMARKID":"1000700000358","LANDMARKCO":"203","LANDMARKNA":"縣立萬來國小","LANDMARKAD":"1000719","ADDRESS":"彰化縣北斗鎮西德里文賢街35號","TEL":"04-8882119","COUNTYNAME":"彰化縣","TOWNNAME":"北斗鎮","MARKTYPE":"992","Class":"2"}},{"type":"Feature","id":27966,"geometry":{"type":"Point","coordinates":[120.52070811125074,23.876061864125749]},"properties":{"OBJECTID":27966,"LANDMARKID":"1000700000578","LANDMARKCO":"302","LANDMARKNA":"國光汽車客運北斗站","LANDMARKAD":"1000719","ADDRESS":"彰化縣北斗鎮西安里文苑路34之1號","TEL":" ","COUNTYNAME":"彰化縣","TOWNNAME":"北斗鎮","MARKTYPE":"993","Class":"302"}},{"type":"Feature","id":27967,"geometry":{"type":"Point","coordinates":[120.32565173661641,23.859325892485224]},"properties":{"OBJECTID":27967,"LANDMARKID":"1000700000811","LANDMARKCO":"405","LANDMARKNA":"中油加油站-大城站(中油直營)","LANDMARKAD":"1000724","ADDRESS":"彰化縣大城鄉上山村魚寮路50號","TEL":"04-8944223","COUNTYNAME":"彰化縣","TOWNNAME":"大城鄉","MARKTYPE":"994","Class":"4"}},{"type":"Feature","id":27968,"geometry":{"type":"Point","coordinates":[120.32143018072352,23.8560968330425]},"properties":{"OBJECTID":27968,"LANDMARKID":"1000700001035","LANDMARKCO":"408","LANDMARKNA":"郵局-大城郵局","LANDMARKAD":"1000724","ADDRESS":"彰化縣大城鄉北平路35號","TEL":"(04)8941-038","COUNTYNAME":"彰化縣","TOWNNAME":"大城鄉","MARKTYPE":"994","Class":"4"}},{"type":"Feature","id":27969,"geometry":{"type":"Point","coordinates":[120.32262026952593,23.853225428093605]},"properties":{"OBJECTID":27969,"LANDMARKID":"1000700001048","LANDMARKCO":"409","LANDMARKNA":"彰化縣大城鄉農會","LANDMARKAD":"1000724","ADDRESS":"彰化縣大城鄉東城村南平路256號","TEL":"04-8944565","COUNTYNAME":"彰化縣","TOWNNAME":"大城鄉","MARKTYPE":"994","Class":"4"}},{"type":"Feature","id":27970,"geometry":{"type":"Point","coordinates":[120.32092989704678,23.852472018168783]},"properties":{"OBJECTID":27970,"LANDMARKID":"1000700000284","LANDMARKCO":"108","LANDMARKNA":"彰化縣大城鄉公所","LANDMARKAD":"1000724","ADDRESS":"彰化縣大城鄉東城村中平路185號","TEL":"04-8942980","COUNTYNAME":"彰化縣","TOWNNAME":"大城鄉","MARKTYPE":"991","Class":"1"}},{"type":"Feature","id":27971,"geometry":{"type":"Point","coordinates":[120.32080828596776,23.853283540341266]},"properties":{"OBJECTID":27971,"LANDMARKID":"1000700000043","LANDMARKCO":"103","LANDMARKNA":"彰化縣大城鄉衛生所","LANDMARKAD":"1000724","ADDRESS":"彰化縣大城鄉大城村中平路126號","TEL":"04-8942543","COUNTYNAME":"彰化縣","TOWNNAME":"大城鄉","MARKTYPE":"991","Class":"1"}},{"type":"Feature","id":27972,"geometry":{"type":"Point","coordinates":[120.32076677780508,23.852109398364568]},"properties":{"OBJECTID":27972,"LANDMARKID":"1000700000044","LANDMARKCO":"103","LANDMARKNA":"彰化縣大城鄉鄉民代表會","LANDMARKAD":"1000724","ADDRESS":"彰化縣大城鄉中平路185號","TEL":"04-8941037","COUNTYNAME":"彰化縣","TOWNNAME":"大城鄉","MARKTYPE":"991","Class":"1"}},{"type":"Feature","id":27973,"geometry":{"type":"Point","coordinates":[120.31179291970464,23.854504686291442]},"properties":{"OBJECTID":27973,"LANDMARKID":"1000700000140","LANDMARKCO":"107","LANDMARKNA":"彰化縣消防局大城消防分隊","LANDMARKAD":"1000724","ADDRESS":"彰化縣大城鄉南平路911號","TEL":"04-8941045","COUNTYNAME":"彰化縣","TOWNNAME":"大城鄉","MARKTYPE":"991","Class":"1"}},{"type":"Feature","id":27974,"geometry":{"type":"Point","coordinates":[120.32268230617278,23.855274292413906]},"properties":{"OBJECTID":27974,"LANDMARKID":"1000700000141","LANDMARKCO":"107","LANDMARKNA":"彰化縣警察局大城分駐所","LANDMARKAD":"1000724","ADDRESS":"彰化縣大城鄉東城村東平路114號","TEL":"04-8941012","COUNTYNAME":"彰化縣","TOWNNAME":"大城鄉","MARKTYPE":"991","Class":"1"}},{"type":"Feature","id":27975,"geometry":{"type":"Point","coordinates":[120.28984907889448,23.86244250931]},"properties":{"OBJECTID":27975,"LANDMARKID":"1000700000142","LANDMARKCO":"107","LANDMARKNA":"彰化縣警察局西港派出所","LANDMARKAD":"1000724","ADDRESS":"彰化縣大城鄉東港村中央路10號","TEL":"04-8941334","COUNTYNAME":"彰化縣","TOWNNAME":"大城鄉","MARKTYPE":"991","Class":"1"}},{"type":"Feature","id":27976,"geometry":{"type":"Point","coordinates":[120.32304459433368,23.855367772880179]},"properties":{"OBJECTID":27976,"LANDMARKID":"1000700000139","LANDMARKCO":"106","LANDMARKNA":"彰化縣大城鄉戶政事務所","LANDMARKAD":"1000724","ADDRESS":"彰化縣大城鄉東城村2鄰北平路90號","TEL":"04-8941120","COUNTYNAME":"彰化縣","TOWNNAME":"大城鄉","MARKTYPE":"991","Class":"1"}},{"type":"Feature","id":27977,"geometry":{"type":"Point","coordinates":[120.32100932020916,23.853153275727042]},"properties":{"OBJECTID":27977,"LANDMARKID":"1000700000551","LANDMARKCO":"204","LANDMARKNA":"彰化縣立圖書館大城分館","LANDMARKAD":"1000724","ADDRESS":"彰化縣大城鄉東城村中平路163號","TEL":" ","COUNTYNAME":"彰化縣","TOWNNAME":"大城鄉","MARKTYPE":"992","Class":"2"}},{"type":"Feature","id":27978,"geometry":{"type":"Point","coordinates":[120.32414693761287,23.853210366984516]},"properties":{"OBJECTID":27978,"LANDMARKID":"1000700000359","LANDMARKCO":"203","LANDMARKNA":"縣立大城國中","LANDMARKAD":"1000724","ADDRESS":"彰化縣大城鄉東城村南平路224號","TEL":"04-8941022","COUNTYNAME":"彰化縣","TOWNNAME":"大城鄉","MARKTYPE":"992","Class":"2"}},{"type":"Feature","id":27979,"geometry":{"type":"Point","coordinates":[120.28909376005166,23.860990889181444]},"properties":{"OBJECTID":27979,"LANDMARKID":"1000700000360","LANDMARKCO":"203","LANDMARKNA":"縣立西港國小","LANDMARKAD":"1000724","ADDRESS":"彰化縣大城鄉東港村中央路2號","TEL":"04-8941029","COUNTYNAME":"彰化縣","TOWNNAME":"大城鄉","MARKTYPE":"992","Class":"2"}},{"type":"Feature","id":27980,"geometry":{"type":"Point","coordinates":[120.32006885464253,23.852193536331075]},"properties":{"OBJECTID":27980,"LANDMARKID":"1000700000361","LANDMARKCO":"203","LANDMARKNA":"縣立大城國小","LANDMARKAD":"1000724","ADDRESS":"彰化縣大城鄉大城村中平路176號","TEL":"04-8941347","COUNTYNAME":"彰化縣","TOWNNAME":"大城鄉","MARKTYPE":"992","Class":"2"}},{"type":"Feature","id":27981,"geometry":{"type":"Point","coordinates":[120.2850285076733,23.848337979607752]},"properties":{"OBJECTID":27981,"LANDMARKID":"1000700000362","LANDMARKCO":"203","LANDMARKNA":"縣立頂庄國小","LANDMARKAD":"1000724","ADDRESS":"彰化縣大城鄉頂庄村東厝路63之1號","TEL":"04-8941659","COUNTYNAME":"彰化縣","TOWNNAME":"大城鄉","MARKTYPE":"992","Class":"2"}},{"type":"Feature","id":27982,"geometry":{"type":"Point","coordinates":[120.30222292696098,23.885168227248123]},"properties":{"OBJECTID":27982,"LANDMARKID":"1000700000363","LANDMARKCO":"203","LANDMARKNA":"縣立美豐國小","LANDMARKAD":"1000724","ADDRESS":"彰化縣大城鄉三豐村東盛路1號","TEL":"04-8941660","COUNTYNAME":"彰化縣","TOWNNAME":"大城鄉","MARKTYPE":"992","Class":"2"}},{"type":"Feature","id":27983,"geometry":{"type":"Point","coordinates":[120.34779620104973,23.835699066673353]},"properties":{"OBJECTID":27983,"LANDMARKID":"1000700000364","LANDMARKCO":"203","LANDMARKNA":"縣立潭墘國小","LANDMARKAD":"1000724","ADDRESS":"彰化縣大城鄉潭墘村潭城路1號","TEL":"04-8941009","COUNTYNAME":"彰化縣","TOWNNAME":"大城鄉","MARKTYPE":"992","Class":"2"}},{"type":"Feature","id":27984,"geometry":{"type":"Point","coordinates":[120.30260592695599,23.840025232457112]},"properties":{"OBJECTID":27984,"LANDMARKID":"1000700000365","LANDMARKCO":"203","LANDMARKNA":"縣立永光國小","LANDMARKAD":"1000724","ADDRESS":"彰化縣大城鄉永和村青埔巷4號","TEL":"04-8941640","COUNTYNAME":"彰化縣","TOWNNAME":"大城鄉","MARKTYPE":"992","Class":"2"}},{"type":"Feature","id":27985,"geometry":{"type":"Point","coordinates":[120.59344104932765,23.862450893518933]},"properties":{"OBJECTID":27985,"LANDMARKID":"1000700000806","LANDMARKCO":"405","LANDMARKNA":"中油加油站-田中二站(中油直營)","LANDMARKAD":"1000712","ADDRESS":"彰化縣田中鎮北路里東閔路二段722號","TEL":"04-8745633","COUNTYNAME":"彰化縣","TOWNNAME":"田中鎮","MARKTYPE":"994","Class":"4"}},{"type":"Feature","id":27986,"geometry":{"type":"Point","coordinates":[120.5797043886988,23.861943200275945]},"properties":{"OBJECTID":27986,"LANDMARKID":"1000700000807","LANDMARKCO":"405","LANDMARKNA":"統一速邁樂加油站-田中站(中油)","LANDMARKAD":"1000712","ADDRESS":"彰化縣田中鎮斗中路1段246號","TEL":"04-8745442","COUNTYNAME":"彰化縣","TOWNNAME":"田中鎮","MARKTYPE":"994","Class":"4"}},{"type":"Feature","id":27987,"geometry":{"type":"Point","coordinates":[120.59560205877044,23.858434235263736]},"properties":{"OBJECTID":27987,"LANDMARKID":"1000700000808","LANDMARKCO":"405","LANDMARKNA":"中油加油站-新庄站","LANDMARKAD":"1000712","ADDRESS":"彰化縣田中鎮東閔路二段389號","TEL":"04-8757168","COUNTYNAME":"彰化縣","TOWNNAME":"田中鎮","MARKTYPE":"994","Class":"4"}},{"type":"Feature","id":27988,"geometry":{"type":"Point","coordinates":[120.58744439888547,23.872900060682191]},"properties":{"OBJECTID":27988,"LANDMARKID":"1000700000809","LANDMARKCO":"405","LANDMARKNA":"中油加油站-員村站","LANDMARKAD":"1000712","ADDRESS":"彰化縣田中鎮東閔路3段435號","TEL":"04-8748116","COUNTYNAME":"彰化縣","TOWNNAME":"田中鎮","MARKTYPE":"994","Class":"4"}},{"type":"Feature","id":27989,"geometry":{"type":"Point","coordinates":[120.59098065314151,23.850072035177877]},"properties":{"OBJECTID":27989,"LANDMARKID":"1000700000810","LANDMARKCO":"405","LANDMARKNA":"中油加油站-田中站(中油直營)","LANDMARKAD":"1000712","ADDRESS":"彰化縣田中鎮南路里員集路一段783號","TEL":"04-8742705","COUNTYNAME":"彰化縣","TOWNNAME":"田中鎮","MARKTYPE":"994","Class":"4"}},{"type":"Feature","id":27990,"geometry":{"type":"Point","coordinates":[120.58658562715637,23.857878337402248]},"properties":{"OBJECTID":27990,"LANDMARKID":"1000700000752","LANDMARKCO":"402","LANDMARKNA":"亞太行動寬頻電信-田中中州加盟服務中心","LANDMARKAD":"1000712","ADDRESS":"彰化縣田中鎮中州路一段219號","TEL":"04-8759977","COUNTYNAME":"彰化縣","TOWNNAME":"田中鎮","MARKTYPE":"994","Class":"4"}},{"type":"Feature","id":27991,"geometry":{"type":"Point","coordinates":[120.58942380728234,23.85325388647534]},"properties":{"OBJECTID":27991,"LANDMARKID":"1000700000686","LANDMARKCO":"401","LANDMARKNA":"建元醫院","LANDMARKAD":"1000712","ADDRESS":"彰化縣田中鎮中南路三段512號","TEL":"04-8743747","COUNTYNAME":"彰化縣","TOWNNAME":"田中鎮","MARKTYPE":"994","Class":"4"}},{"type":"Feature","id":27992,"geometry":{"type":"Point","coordinates":[120.58790030124808,23.858029859105574]},"properties":{"OBJECTID":27992,"LANDMARKID":"1000700000687","LANDMARKCO":"401","LANDMARKNA":"仁和醫院","LANDMARKAD":"1000712","ADDRESS":"彰化縣田中鎮中州路一段157號","TEL":"04-8742108","COUNTYNAME":"彰化縣","TOWNNAME":"田中鎮","MARKTYPE":"994","Class":"4"}},{"type":"Feature","id":27993,"geometry":{"type":"Point","coordinates":[120.58576289554738,23.856846624954315]},"properties":{"OBJECTID":27993,"LANDMARKID":"1000700001032","LANDMARKCO":"408","LANDMARKNA":"郵局-田中郵局","LANDMARKAD":"1000712","ADDRESS":"彰化縣田中鎮員集路2段305號","TEL":"(04)8742-140","COUNTYNAME":"彰化縣","TOWNNAME":"田中鎮","MARKTYPE":"994","Class":"4"}},{"type":"Feature","id":27994,"geometry":{"type":"Point","coordinates":[120.60547038494002,23.852980991092977]},"properties":{"OBJECTID":27994,"LANDMARKID":"1000700001033","LANDMARKCO":"408","LANDMARKNA":"郵局-田中內灣郵局","LANDMARKAD":"1000712","ADDRESS":"彰化縣田中鎮中南路2段430號","TEL":"(04)8750-243","COUNTYNAME":"彰化縣","TOWNNAME":"田中鎮","MARKTYPE":"994","Class":"4"}},{"type":"Feature","id":27995,"geometry":{"type":"Point","coordinates":[120.58545924191738,23.863548808350512]},"properties":{"OBJECTID":27995,"LANDMARKID":"1000700001034","LANDMARKCO":"408","LANDMARKNA":"郵局-田中三潭郵局","LANDMARKAD":"1000712","ADDRESS":"彰化縣田中鎮員集路2段616號","TEL":"(04)8750-242","COUNTYNAME":"彰化縣","TOWNNAME":"田中鎮","MARKTYPE":"994","Class":"4"}},{"type":"Feature","id":27996,"geometry":{"type":"Point","coordinates":[120.58636074281917,23.859202571489273]},"properties":{"OBJECTID":27996,"LANDMARKID":"1000700001049","LANDMARKCO":"409","LANDMARKNA":"彰化縣田中鎮農會","LANDMARKAD":"1000712","ADDRESS":"彰化縣田中鎮南北街80號","TEL":"04-8749211","COUNTYNAME":"彰化縣","TOWNNAME":"田中鎮","MARKTYPE":"994","Class":"4"}},{"type":"Feature","id":27997,"geometry":{"type":"Point","coordinates":[120.60376192684802,23.852661238960028]},"properties":{"OBJECTID":27997,"LANDMARKID":"1000700000788","LANDMARKCO":"404","LANDMARKNA":"台灣省自來水田中營運所","LANDMARKAD":"1000712","ADDRESS":"彰化縣田中鎮中南路二段509號","TEL":" ","COUNTYNAME":"彰化縣","TOWNNAME":"田中鎮","MARKTYPE":"994","Class":"4"}},{"type":"Feature","id":27998,"geometry":{"type":"Point","coordinates":[120.59274904278341,23.860581424222513]},"properties":{"OBJECTID":27998,"LANDMARKID":"1000700000972","LANDMARKCO":"406","LANDMARKNA":"環保公園","LANDMARKAD":"1000712","ADDRESS":"彰化縣田中鎮","TEL":" ","COUNTYNAME":"彰化縣","TOWNNAME":"田中鎮","MARKTYPE":"994","Class":"4"}},{"type":"Feature","id":27999,"geometry":{"type":"Point","coordinates":[120.59027585787271,23.844340380132738]},"properties":{"OBJECTID":27999,"LANDMARKID":"1000700000973","LANDMARKCO":"406","LANDMARKNA":"三安公園","LANDMARKAD":"1000712","ADDRESS":"彰化縣田中鎮","TEL":" ","COUNTYNAME":"彰化縣","TOWNNAME":"田中鎮","MARKTYPE":"994","Class":"4"}},{"type":"Feature","id":28000,"geometry":{"type":"Point","coordinates":[120.55626580044405,23.869837382025175]},"properties":{"OBJECTID":28000,"LANDMARKID":"1000700000805","LANDMARKCO":"405","LANDMARKNA":"台塑加油站-芳田站(台塑)","LANDMARKAD":"1000712","ADDRESS":"彰化縣田中鎮斗中路二段796號","TEL":"04-8751928","COUNTYNAME":"彰化縣","TOWNNAME":"田中鎮","MARKTYPE":"994","Class":"4"}}]}