{"type":"FeatureCollection","features":[{"type":"Feature","id":2601,"geometry":{"type":"Point","coordinates":[121.35146443167541,24.767530647785343]},"properties":{"OBJECTID":2601,"LANDMARKID":"1000300001666","LANDMARKCO":"604","LANDMARKNA":"北橫之星","LANDMARKAD":"1000313","ADDRESS":"桃園縣復興鄉羅浮村高坡33-1號","TEL":"03-3821433","COUNTYNAME":"桃園市","TOWNNAME":"復興區","MARKTYPE":"996","Class":"6"}},{"type":"Feature","id":2602,"geometry":{"type":"Point","coordinates":[121.37498071125054,24.817235186253154]},"properties":{"OBJECTID":2602,"LANDMARKID":"1000300001667","LANDMARKCO":"604","LANDMARKNA":"綠光森林","LANDMARKAD":"1000313","ADDRESS":"桃園縣復興鄉霞雲村志繼19-2號","TEL":"03-3872540","COUNTYNAME":"桃園市","TOWNNAME":"復興區","MARKTYPE":"996","Class":"6"}},{"type":"Feature","id":2603,"geometry":{"type":"Point","coordinates":[121.34586407123808,24.829963799994832]},"properties":{"OBJECTID":2603,"LANDMARKID":"1000300001668","LANDMARKCO":"604","LANDMARKNA":"普拉多鄉村步調","LANDMARKAD":"1000313","ADDRESS":"桃園縣復興鄉三民村基國派72-15號","TEL":"03-3826460","COUNTYNAME":"桃園市","TOWNNAME":"復興區","MARKTYPE":"996","Class":"6"}},{"type":"Feature","id":2604,"geometry":{"type":"Point","coordinates":[121.37109781287413,24.801952985834735]},"properties":{"OBJECTID":2604,"LANDMARKID":"1000300001669","LANDMARKCO":"604","LANDMARKNA":"峽湖民宿","LANDMARKAD":"1000313","ADDRESS":"桃園縣復興鄉羅浮村2鄰合流58號","TEL":"03-3821725","COUNTYNAME":"桃園市","TOWNNAME":"復興區","MARKTYPE":"996","Class":"6"}},{"type":"Feature","id":2605,"geometry":{"type":"Point","coordinates":[121.37442588643135,24.671081600221264]},"properties":{"OBJECTID":2605,"LANDMARKID":"1000300001670","LANDMARKCO":"604","LANDMARKNA":"爺亨泰嵐別館〈民宿〉","LANDMARKAD":"1000313","ADDRESS":"桃園縣復興鄉三光村爺亨13號","TEL":"0989-044998","COUNTYNAME":"桃園市","TOWNNAME":"復興區","MARKTYPE":"996","Class":"6"}},{"type":"Feature","id":2606,"geometry":{"type":"Point","coordinates":[121.40060476620799,24.655524465607609]},"properties":{"OBJECTID":2606,"LANDMARKID":"1000300001671","LANDMARKCO":"604","LANDMARKNA":"山頂厝","LANDMARKAD":"1000313","ADDRESS":"桃園縣復興鄉義盛村1鄰12-1號","TEL":"03-3821328","COUNTYNAME":"桃園市","TOWNNAME":"復興區","MARKTYPE":"996","Class":"6"}},{"type":"Feature","id":2607,"geometry":{"type":"Point","coordinates":[121.3837287136726,24.679846266351394]},"properties":{"OBJECTID":2607,"LANDMARKID":"1000300001411","LANDMARKCO":"503","LANDMARKNA":"拉拉山收費站","LANDMARKAD":"1000313","ADDRESS":"桃園縣復興鄉","TEL":"03-3912761","COUNTYNAME":"桃園市","TOWNNAME":"復興區","MARKTYPE":"995","Class":"5"}},{"type":"Feature","id":2608,"geometry":{"type":"Point","coordinates":[121.34950815500875,24.838169843913374]},"properties":{"OBJECTID":2608,"LANDMARKID":"1000300001412","LANDMARKCO":"503","LANDMARKNA":"三民蝙蝠洞入口處","LANDMARKAD":"1000313","ADDRESS":"桃園縣復興鄉","TEL":" ","COUNTYNAME":"桃園市","TOWNNAME":"復興區","MARKTYPE":"995","Class":"5"}},{"type":"Feature","id":2609,"geometry":{"type":"Point","coordinates":[121.35415832463882,24.835759083590627]},"properties":{"OBJECTID":2609,"LANDMARKID":"1000300001413","LANDMARKCO":"503","LANDMARKNA":"三民蝙蝠洞","LANDMARKAD":"1000313","ADDRESS":"桃園縣復興鄉","TEL":" ","COUNTYNAME":"桃園市","TOWNNAME":"復興區","MARKTYPE":"995","Class":"5"}},{"type":"Feature","id":2610,"geometry":{"type":"Point","coordinates":[121.37606290368213,24.794055294441261]},"properties":{"OBJECTID":2610,"LANDMARKID":"1000300001414","LANDMARKCO":"503","LANDMARKNA":"小烏來瀑布風景區","LANDMARKAD":"1000313","ADDRESS":"桃園縣復興鄉義盛村42號","TEL":"03-3821235","COUNTYNAME":"桃園市","TOWNNAME":"復興區","MARKTYPE":"995","Class":"5"}},{"type":"Feature","id":2611,"geometry":{"type":"Point","coordinates":[121.35383450143885,24.721895884011282]},"properties":{"OBJECTID":2611,"LANDMARKID":"1000300001446","LANDMARKCO":"508","LANDMARKNA":"高義溫泉舊址","LANDMARKAD":"1000313","ADDRESS":"桃園縣復興鄉","TEL":" ","COUNTYNAME":"桃園市","TOWNNAME":"復興區","MARKTYPE":"995","Class":"5"}},{"type":"Feature","id":2612,"geometry":{"type":"Point","coordinates":[121.37503795306165,24.675190829690262]},"properties":{"OBJECTID":2612,"LANDMARKID":"1000300001447","LANDMARKCO":"508","LANDMARKNA":"爺亨溫泉山莊","LANDMARKAD":"1000313","ADDRESS":"桃園縣復興鄉三光村八鄰爺亨2-2號","TEL":"03-3376868","COUNTYNAME":"桃園市","TOWNNAME":"復興區","MARKTYPE":"995","Class":"5"}},{"type":"Feature","id":2613,"geometry":{"type":"Point","coordinates":[121.4090188865412,24.631790746707793]},"properties":{"OBJECTID":2613,"LANDMARKID":"1000300001448","LANDMARKCO":"508","LANDMARKNA":"嘎拉賀溫泉(新興溫泉)","LANDMARKAD":"1000313","ADDRESS":"桃園縣復興鄉","TEL":" ","COUNTYNAME":"桃園市","TOWNNAME":"復興區","MARKTYPE":"995","Class":"5"}},{"type":"Feature","id":2614,"geometry":{"type":"Point","coordinates":[121.43451404423222,24.644880128489518]},"properties":{"OBJECTID":2614,"LANDMARKID":"1000300001449","LANDMARKCO":"508","LANDMARKNA":"四陵溫泉入口","LANDMARKAD":"1000313","ADDRESS":"桃園縣復興鄉","TEL":" ","COUNTYNAME":"桃園市","TOWNNAME":"復興區","MARKTYPE":"995","Class":"5"}},{"type":"Feature","id":2615,"geometry":{"type":"Point","coordinates":[121.43735866053736,24.639434000851914]},"properties":{"OBJECTID":2615,"LANDMARKID":"1000300001450","LANDMARKCO":"508","LANDMARKNA":"四陵溫泉","LANDMARKAD":"1000313","ADDRESS":"桃園縣復興鄉","TEL":" ","COUNTYNAME":"桃園市","TOWNNAME":"復興區","MARKTYPE":"995","Class":"5"}},{"type":"Feature","id":2616,"geometry":{"type":"Point","coordinates":[121.42158548512811,24.70381309601196]},"properties":{"OBJECTID":2616,"LANDMARKID":"1000300001420","LANDMARKCO":"504","LANDMARKNA":"拉拉山自然保護區入口處","LANDMARKAD":"1000313","ADDRESS":"桃園縣復興鄉","TEL":" ","COUNTYNAME":"桃園市","TOWNNAME":"復興區","MARKTYPE":"995","Class":"5"}},{"type":"Feature","id":2617,"geometry":{"type":"Point","coordinates":[121.43332719254653,24.710620434669654]},"properties":{"OBJECTID":2617,"LANDMARKID":"1000300001421","LANDMARKCO":"504","LANDMARKNA":"拉拉山生態教育館","LANDMARKAD":"1000313","ADDRESS":"桃園縣復興鄉","TEL":"03-3912063","COUNTYNAME":"桃園市","TOWNNAME":"復興區","MARKTYPE":"995","Class":"5"}},{"type":"Feature","id":2618,"geometry":{"type":"Point","coordinates":[121.37297069404967,24.67298917194023]},"properties":{"OBJECTID":2618,"LANDMARKID":"1000300001407","LANDMARKCO":"503","LANDMARKNA":"爺亨梯田","LANDMARKAD":"1000313","ADDRESS":"桃園縣復興鄉","TEL":" ","COUNTYNAME":"桃園市","TOWNNAME":"復興區","MARKTYPE":"995","Class":"5"}},{"type":"Feature","id":2619,"geometry":{"type":"Point","coordinates":[121.42566928471361,24.698966590713301]},"properties":{"OBJECTID":2619,"LANDMARKID":"1000300001408","LANDMARKCO":"503","LANDMARKNA":"塔曼山登山口","LANDMARKAD":"1000313","ADDRESS":"桃園縣復興鄉","TEL":" ","COUNTYNAME":"桃園市","TOWNNAME":"復興區","MARKTYPE":"995","Class":"5"}},{"type":"Feature","id":2620,"geometry":{"type":"Point","coordinates":[121.38437339837091,24.63594888168663]},"properties":{"OBJECTID":2620,"LANDMARKID":"1000300001417","LANDMARKCO":"504","LANDMARKNA":"嘎拉賀神木群A區(把加灣山區)","LANDMARKAD":"1000313","ADDRESS":"桃園縣復興鄉","TEL":" ","COUNTYNAME":"桃園市","TOWNNAME":"復興區","MARKTYPE":"995","Class":"5"}},{"type":"Feature","id":2621,"geometry":{"type":"Point","coordinates":[121.40411241814633,24.610969130247412]},"properties":{"OBJECTID":2621,"LANDMARKID":"1000300001418","LANDMARKCO":"504","LANDMARKNA":"嘎拉賀神木群B區(唐穗山區)","LANDMARKAD":"1000313","ADDRESS":"桃園縣復興鄉","TEL":" ","COUNTYNAME":"桃園市","TOWNNAME":"復興區","MARKTYPE":"995","Class":"5"}},{"type":"Feature","id":2622,"geometry":{"type":"Point","coordinates":[121.41704383964468,24.613919469708396]},"properties":{"OBJECTID":2622,"LANDMARKID":"1000300001419","LANDMARKCO":"504","LANDMARKNA":"嘎拉賀神木群C區(卡曼斯山區)","LANDMARKAD":"1000313","ADDRESS":"桃園縣復興鄉","TEL":" ","COUNTYNAME":"桃園市","TOWNNAME":"復興區","MARKTYPE":"995","Class":"5"}},{"type":"Feature","id":2623,"geometry":{"type":"Point","coordinates":[121.39897547546371,24.781710618502231]},"properties":{"OBJECTID":2623,"LANDMARKID":"1000300001409","LANDMARKCO":"503","LANDMARKNA":"小烏來瀑布","LANDMARKAD":"1000313","ADDRESS":"桃園縣復興鄉","TEL":" ","COUNTYNAME":"桃園市","TOWNNAME":"復興區","MARKTYPE":"995","Class":"5"}},{"type":"Feature","id":2624,"geometry":{"type":"Point","coordinates":[121.40546610365195,24.836660644917824]},"properties":{"OBJECTID":2624,"LANDMARKID":"1000300001416","LANDMARKCO":"504","LANDMARKNA":"東眼山森林遊樂區","LANDMARKAD":"1000313","ADDRESS":"桃園縣復興鄉霞雲村5鄰加志路30號","TEL":"03-3821506","COUNTYNAME":"桃園市","TOWNNAME":"復興區","MARKTYPE":"995","Class":"5"}},{"type":"Feature","id":2625,"geometry":{"type":"Point","coordinates":[121.37829830584259,24.794123578188533]},"properties":{"OBJECTID":2625,"LANDMARKID":"1000300001410","LANDMARKCO":"503","LANDMARKNA":"小烏來風景特定區","LANDMARKAD":"1000313","ADDRESS":"桃園縣復興鄉","TEL":" ","COUNTYNAME":"桃園市","TOWNNAME":"復興區","MARKTYPE":"995","Class":"5"}},{"type":"Feature","id":2626,"geometry":{"type":"Point","coordinates":[121.43739034820783,24.708743173385098]},"properties":{"OBJECTID":2626,"LANDMARKID":"1000300001415","LANDMARKCO":"504","LANDMARKNA":"拉拉山自然保護區","LANDMARKAD":"1000313","ADDRESS":"桃園縣復興鄉","TEL":" ","COUNTYNAME":"桃園市","TOWNNAME":"復興區","MARKTYPE":"995","Class":"5"}},{"type":"Feature","id":2627,"geometry":{"type":"Point","coordinates":[121.35106302294543,24.817384548862478]},"properties":{"OBJECTID":2627,"LANDMARKID":"1000300001406","LANDMARKCO":"503","LANDMARKNA":"角板山行館風景區","LANDMARKAD":"1000313","ADDRESS":"桃園縣復興鄉","TEL":" ","COUNTYNAME":"桃園市","TOWNNAME":"復興區","MARKTYPE":"995","Class":"5"}},{"type":"Feature","id":2628,"geometry":{"type":"Point","coordinates":[121.45852369905374,23.321423514040561]},"properties":{"OBJECTID":2628,"LANDMARKID":"1001400000513","LANDMARKCO":"405","LANDMARKNA":"中油加油站-長濱站(中油直營)","LANDMARKAD":"1001408","ADDRESS":"台東縣長濱鄉長濱村124號","TEL":"089-831027","COUNTYNAME":"台東縣","TOWNNAME":"長濱鄉","MARKTYPE":"994","Class":"4"}},{"type":"Feature","id":2629,"geometry":{"type":"Point","coordinates":[121.4500292094898,23.320090713064502]},"properties":{"OBJECTID":2629,"LANDMARKID":"1001400000514","LANDMARKCO":"405","LANDMARKNA":"中油加油站-長馨站","LANDMARKAD":"1001408","ADDRESS":"台東縣長濱鄉長濱村271號","TEL":"089-832961","COUNTYNAME":"台東縣","TOWNNAME":"長濱鄉","MARKTYPE":"994","Class":"4"}},{"type":"Feature","id":2630,"geometry":{"type":"Point","coordinates":[121.47552692607584,23.395680746821476]},"properties":{"OBJECTID":2630,"LANDMARKID":"1001400000633","LANDMARKCO":"504","LANDMARKNA":"八仙洞風景遊憩區","LANDMARKAD":"1001408","ADDRESS":"台東縣長濱鄉","TEL":" ","COUNTYNAME":"台東縣","TOWNNAME":"長濱鄉","MARKTYPE":"995","Class":"5"}},{"type":"Feature","id":2631,"geometry":{"type":"Point","coordinates":[121.47866768908462,23.401124634856469]},"properties":{"OBJECTID":2631,"LANDMARKID":"1001400000645","LANDMARKCO":"507","LANDMARKNA":"八仙洞遺址","LANDMARKAD":"1001408","ADDRESS":"台東縣長濱鄉三間村","TEL":"089-881418","COUNTYNAME":"台東縣","TOWNNAME":"長濱鄉","MARKTYPE":"995","Class":"5"}},{"type":"Feature","id":2632,"geometry":{"type":"Point","coordinates":[121.4755234384441,23.395776968295145]},"properties":{"OBJECTID":2632,"LANDMARKID":"1001400000685","LANDMARKCO":"512","LANDMARKNA":"八仙洞遊客服務中心","LANDMARKAD":"1001408","ADDRESS":"台東縣長濱鄉水母丁1之4號","TEL":"089-881418","COUNTYNAME":"台東縣","TOWNNAME":"長濱鄉","MARKTYPE":"995","Class":"5"}},{"type":"Feature","id":2633,"geometry":{"type":"Point","coordinates":[121.45471591115673,23.317522456858221]},"properties":{"OBJECTID":2633,"LANDMARKID":"1001400000580","LANDMARKCO":"408","LANDMARKNA":"郵局-長濱郵局","LANDMARKAD":"1001408","ADDRESS":"台東縣長濱鄉長濱村中興路16號","TEL":"(089)831-011","COUNTYNAME":"台東縣","TOWNNAME":"長濱鄉","MARKTYPE":"994","Class":"4"}},{"type":"Feature","id":2634,"geometry":{"type":"Point","coordinates":[121.45524928070419,23.316678018277329]},"properties":{"OBJECTID":2634,"LANDMARKID":"1001400000597","LANDMARKCO":"409","LANDMARKNA":"台東縣長濱鄉農會","LANDMARKAD":"1001408","ADDRESS":"台東縣長濱鄉長濱村7鄰58號","TEL":"089-832089","COUNTYNAME":"台東縣","TOWNNAME":"長濱鄉","MARKTYPE":"994","Class":"4"}},{"type":"Feature","id":2635,"geometry":{"type":"Point","coordinates":[121.4531641567506,23.319719598217397]},"properties":{"OBJECTID":2635,"LANDMARKID":"1001400000081","LANDMARKCO":"103","LANDMARKNA":"台東縣長濱鄉衛生所","LANDMARKAD":"1001408","ADDRESS":"台東縣長濱鄉長濱村中興路46號","TEL":"089-831022","COUNTYNAME":"台東縣","TOWNNAME":"長濱鄉","MARKTYPE":"991","Class":"1"}},{"type":"Feature","id":2636,"geometry":{"type":"Point","coordinates":[121.45021852840564,23.315123194505425]},"properties":{"OBJECTID":2636,"LANDMARKID":"1001400000209","LANDMARKCO":"108","LANDMARKNA":"台東縣長濱鄉公所","LANDMARKAD":"1001408","ADDRESS":"台東縣長濱鄉長濱村4鄰9號","TEL":"089-832139","COUNTYNAME":"台東縣","TOWNNAME":"長濱鄉","MARKTYPE":"991","Class":"1"}},{"type":"Feature","id":2637,"geometry":{"type":"Point","coordinates":[121.4533528247549,23.315925850721271]},"properties":{"OBJECTID":2637,"LANDMARKID":"1001400000082","LANDMARKCO":"103","LANDMARKNA":"台東縣長濱鄉鄉民代表會","LANDMARKAD":"1001408","ADDRESS":"台東縣長濱鄉長濱村7號","TEL":"089-831014","COUNTYNAME":"台東縣","TOWNNAME":"長濱鄉","MARKTYPE":"991","Class":"1"}},{"type":"Feature","id":2638,"geometry":{"type":"Point","coordinates":[121.41605715307367,23.244505614272381]},"properties":{"OBJECTID":2638,"LANDMARKID":"1001400000131","LANDMARKCO":"107","LANDMARKNA":"台東縣消防局長濱消防分隊","LANDMARKAD":"1001408","ADDRESS":"台東縣長濱鄉長濱村長濱35號","TEL":"089-831084","COUNTYNAME":"台東縣","TOWNNAME":"長濱鄉","MARKTYPE":"991","Class":"1"}},{"type":"Feature","id":2639,"geometry":{"type":"Point","coordinates":[121.46720961154324,23.357965674129954]},"properties":{"OBJECTID":2639,"LANDMARKID":"1001400000132","LANDMARKCO":"107","LANDMARKNA":"台東縣警察局三間派出所","LANDMARKAD":"1001408","ADDRESS":"台東縣長濱鄉三間村三間屋5號","TEL":"089-831044","COUNTYNAME":"台東縣","TOWNNAME":"長濱鄉","MARKTYPE":"991","Class":"1"}},{"type":"Feature","id":2640,"geometry":{"type":"Point","coordinates":[121.42414731514316,23.282411640642366]},"properties":{"OBJECTID":2640,"LANDMARKID":"1001400000133","LANDMARKCO":"107","LANDMARKNA":"台東縣警察局竹湖派出所","LANDMARKAD":"1001408","ADDRESS":"台東縣長濱鄉竹湖村南竹湖3號","TEL":"089-831086","COUNTYNAME":"台東縣","TOWNNAME":"長濱鄉","MARKTYPE":"991","Class":"1"}},{"type":"Feature","id":2641,"geometry":{"type":"Point","coordinates":[121.41611970783293,23.245137408275799]},"properties":{"OBJECTID":2641,"LANDMARKID":"1001400000134","LANDMARKCO":"107","LANDMARKNA":"台東縣警察局寧埔派出所","LANDMARKAD":"1001408","ADDRESS":"台東縣長濱鄉寧埔村寧埔8號","TEL":"089-801257","COUNTYNAME":"台東縣","TOWNNAME":"長濱鄉","MARKTYPE":"991","Class":"1"}},{"type":"Feature","id":2642,"geometry":{"type":"Point","coordinates":[121.45624190486537,23.317994066729085]},"properties":{"OBJECTID":2642,"LANDMARKID":"1001400000135","LANDMARKCO":"107","LANDMARKNA":"台東縣警察局長濱分駐所","LANDMARKAD":"1001408","ADDRESS":"台東縣長濱鄉長濱村41號","TEL":"089-831034","COUNTYNAME":"台東縣","TOWNNAME":"長濱鄉","MARKTYPE":"991","Class":"1"}},{"type":"Feature","id":2643,"geometry":{"type":"Point","coordinates":[121.48156150294568,23.413275055596667]},"properties":{"OBJECTID":2643,"LANDMARKID":"1001400000136","LANDMARKCO":"107","LANDMARKNA":"台東縣警察局樟原派出所","LANDMARKAD":"1001408","ADDRESS":"台東縣長濱鄉樟原村10號","TEL":"089-881027","COUNTYNAME":"台東縣","TOWNNAME":"長濱鄉","MARKTYPE":"991","Class":"1"}},{"type":"Feature","id":2644,"geometry":{"type":"Point","coordinates":[121.45257220641244,23.318992625928392]},"properties":{"OBJECTID":2644,"LANDMARKID":"1001400000103","LANDMARKCO":"106","LANDMARKNA":"台東縣長濱鄉戶政事務所","LANDMARKAD":"1001408","ADDRESS":"台東縣長濱鄉6鄰長濱43號","TEL":"089-831064","COUNTYNAME":"台東縣","TOWNNAME":"長濱鄉","MARKTYPE":"991","Class":"1"}},{"type":"Feature","id":2645,"geometry":{"type":"Point","coordinates":[121.4527751839898,23.315751630594331]},"properties":{"OBJECTID":2645,"LANDMARKID":"1001400000378","LANDMARKCO":"204","LANDMARKNA":"台東縣立圖書館長濱分館","LANDMARKAD":"1001408","ADDRESS":"台東縣長濱鄉長濱路9號","TEL":" ","COUNTYNAME":"台東縣","TOWNNAME":"長濱鄉","MARKTYPE":"992","Class":"2"}},{"type":"Feature","id":2646,"geometry":{"type":"Point","coordinates":[121.45896686713048,23.314735385991035]},"properties":{"OBJECTID":2646,"LANDMARKID":"1001400000306","LANDMARKCO":"203","LANDMARKNA":"縣立長濱國中","LANDMARKAD":"1001408","ADDRESS":"台東縣長濱鄉長濱村15鄰180號","TEL":"089-831017","COUNTYNAME":"台東縣","TOWNNAME":"長濱鄉","MARKTYPE":"992","Class":"2"}},{"type":"Feature","id":2647,"geometry":{"type":"Point","coordinates":[121.43974248140151,23.325987390104569]},"properties":{"OBJECTID":2647,"LANDMARKID":"1001400000307","LANDMARKCO":"203","LANDMARKNA":"縣立忠勇國小","LANDMARKAD":"1001408","ADDRESS":"台東縣長濱鄉忠勇村5鄰58號","TEL":"089-831180","COUNTYNAME":"台東縣","TOWNNAME":"長濱鄉","MARKTYPE":"992","Class":"2"}},{"type":"Feature","id":2648,"geometry":{"type":"Point","coordinates":[121.45179817750127,23.315926828784018]},"properties":{"OBJECTID":2648,"LANDMARKID":"1001400000308","LANDMARKCO":"203","LANDMARKNA":"縣立長濱國小","LANDMARKAD":"1001408","ADDRESS":"台東縣長濱鄉長濱村5鄰11號","TEL":"089-831038","COUNTYNAME":"台東縣","TOWNNAME":"長濱鄉","MARKTYPE":"992","Class":"2"}},{"type":"Feature","id":2649,"geometry":{"type":"Point","coordinates":[121.46825854512845,23.355521276532599]},"properties":{"OBJECTID":2649,"LANDMARKID":"1001400000309","LANDMARKCO":"203","LANDMARKNA":"縣立三間國小","LANDMARKAD":"1001408","ADDRESS":"台東縣長濱鄉三間村7鄰16號","TEL":"089-831306","COUNTYNAME":"台東縣","TOWNNAME":"長濱鄉","MARKTYPE":"992","Class":"2"}},{"type":"Feature","id":2650,"geometry":{"type":"Point","coordinates":[121.42862476171616,23.285382334383119]},"properties":{"OBJECTID":2650,"LANDMARKID":"1001400000310","LANDMARKCO":"203","LANDMARKNA":"縣立竹湖國小","LANDMARKAD":"1001408","ADDRESS":"台東縣長濱鄉竹湖村10鄰14號","TEL":"089-831295","COUNTYNAME":"台東縣","TOWNNAME":"長濱鄉","MARKTYPE":"992","Class":"2"}},{"type":"Feature","id":2651,"geometry":{"type":"Point","coordinates":[121.41447230653093,23.244423711205375]},"properties":{"OBJECTID":2651,"LANDMARKID":"1001400000311","LANDMARKCO":"203","LANDMARKNA":"縣立寧埔國小","LANDMARKAD":"1001408","ADDRESS":"台東縣長濱鄉寧埔村10鄰41號","TEL":"089-801082","COUNTYNAME":"台東縣","TOWNNAME":"長濱鄉","MARKTYPE":"992","Class":"2"}},{"type":"Feature","id":2652,"geometry":{"type":"Point","coordinates":[121.48188829215225,23.41246032735652]},"properties":{"OBJECTID":2652,"LANDMARKID":"1001400000312","LANDMARKCO":"203","LANDMARKNA":"縣立樟原國小","LANDMARKAD":"1001408","ADDRESS":"台東縣長濱鄉三間村16鄰南溪6號","TEL":"089-881296","COUNTYNAME":"台東縣","TOWNNAME":"長濱鄉","MARKTYPE":"992","Class":"2"}},{"type":"Feature","id":2653,"geometry":{"type":"Point","coordinates":[121.45972758871591,23.404309752791356]},"properties":{"OBJECTID":2653,"LANDMARKID":"1001400000313","LANDMARKCO":"203","LANDMARKNA":"縣立南溪國小","LANDMARKAD":"1001408","ADDRESS":"台東縣長濱鄉","TEL":" ","COUNTYNAME":"台東縣","TOWNNAME":"長濱鄉","MARKTYPE":"992","Class":"2"}},{"type":"Feature","id":2654,"geometry":{"type":"Point","coordinates":[121.41528692141236,23.227719110200265]},"properties":{"OBJECTID":2654,"LANDMARKID":"1001400000462","LANDMARKCO":"305","LANDMARKNA":"烏石鼻漁港","LANDMARKAD":"1001408","ADDRESS":"台東縣長濱鄉","TEL":" ","COUNTYNAME":"台東縣","TOWNNAME":"長濱鄉","MARKTYPE":"993","Class":"305"}},{"type":"Feature","id":2655,"geometry":{"type":"Point","coordinates":[121.47546039366456,23.393868982637049]},"properties":{"OBJECTID":2655,"LANDMARKID":"1001400000444","LANDMARKCO":"303","LANDMARKNA":"八仙洞遊憩區停車場","LANDMARKAD":"1001408","ADDRESS":"台東縣長濱鄉三間林水母丁1之14號","TEL":" ","COUNTYNAME":"台東縣","TOWNNAME":"長濱鄉","MARKTYPE":"993","Class":"303"}},{"type":"Feature","id":2656,"geometry":{"type":"Point","coordinates":[121.43851302614935,23.299361982184923]},"properties":{"OBJECTID":2656,"LANDMARKID":"1001400000445","LANDMARKCO":"303","LANDMARKNA":"齒草橋休息區停車場","LANDMARKAD":"1001408","ADDRESS":"台東縣長濱鄉永福","TEL":" ","COUNTYNAME":"台東縣","TOWNNAME":"長濱鄉","MARKTYPE":"993","Class":"303"}},{"type":"Feature","id":2657,"geometry":{"type":"Point","coordinates":[121.41748686028954,23.225635029884991]},"properties":{"OBJECTID":2657,"LANDMARKID":"1001400000611","LANDMARKCO":"503","LANDMARKNA":"烏石鼻","LANDMARKAD":"1001408","ADDRESS":"台東縣長濱鄉","TEL":" ","COUNTYNAME":"台東縣","TOWNNAME":"長濱鄉","MARKTYPE":"995","Class":"5"}},{"type":"Feature","id":2658,"geometry":{"type":"Point","coordinates":[121.47552692619189,23.395680779329364]},"properties":{"OBJECTID":2658,"LANDMARKID":"1001400000612","LANDMARKCO":"503","LANDMARKNA":"八仙洞風景遊憩區","LANDMARKAD":"1001408","ADDRESS":"台東縣長濱鄉","TEL":" ","COUNTYNAME":"台東縣","TOWNNAME":"長濱鄉","MARKTYPE":"995","Class":"5"}},{"type":"Feature","id":2659,"geometry":{"type":"Point","coordinates":[121.16094384679491,23.135893232644637]},"properties":{"OBJECTID":2659,"LANDMARKID":"1001400000515","LANDMARKCO":"405","LANDMARKNA":"中油加油站-海端站","LANDMARKAD":"1001412","ADDRESS":"台東縣海端鄉海端村2鄰山平路52號","TEL":"089-931721","COUNTYNAME":"台東縣(海)","TOWNNAME":"海端鄉","MARKTYPE":"994","Class":"4"}},{"type":"Feature","id":2660,"geometry":{"type":"Point","coordinates":[121.17670030963295,23.101001173101114]},"properties":{"OBJECTID":2660,"LANDMARKID":"1001400000579","LANDMARKCO":"408","LANDMARKNA":"郵局-海端郵局","LANDMARKAD":"1001412","ADDRESS":"台東縣海端鄉海端村山界27號","TEL":"(089)931-174","COUNTYNAME":"台東縣(海)","TOWNNAME":"海端鄉","MARKTYPE":"994","Class":"4"}},{"type":"Feature","id":2661,"geometry":{"type":"Point","coordinates":[121.14762254764746,23.045236749155233]},"properties":{"OBJECTID":2661,"LANDMARKID":"1001400000129","LANDMARKCO":"107","LANDMARKNA":"台東縣警察局崁頂派出所","LANDMARKAD":"1001412","ADDRESS":"台東縣海端鄉坎頂村中福路25號","TEL":"089-811418","COUNTYNAME":"台東縣(海)","TOWNNAME":"海端鄉","MARKTYPE":"991","Class":"1"}},{"type":"Feature","id":2662,"geometry":{"type":"Point","coordinates":[121.1765404293849,23.100834414266533]},"properties":{"OBJECTID":2662,"LANDMARKID":"1001400000130","LANDMARKCO":"107","LANDMARKNA":"台東縣警察局海端分駐所","LANDMARKAD":"1001412","ADDRESS":"台東縣海端鄉山界路17號","TEL":"089-931354","COUNTYNAME":"台東縣(海)","TOWNNAME":"海端鄉","MARKTYPE":"991","Class":"1"}},{"type":"Feature","id":2663,"geometry":{"type":"Point","coordinates":[121.17407136238785,23.107700092124439]},"properties":{"OBJECTID":2663,"LANDMARKID":"1001400000083","LANDMARKCO":"103","LANDMARKNA":"台東縣海端鄉衛生所","LANDMARKAD":"1001412","ADDRESS":"台東縣海端鄉海端村山界29號","TEL":"089-931391","COUNTYNAME":"台東縣(海)","TOWNNAME":"海端鄉","MARKTYPE":"991","Class":"1"}},{"type":"Feature","id":2664,"geometry":{"type":"Point","coordinates":[121.17455856723755,23.107337792396272]},"properties":{"OBJECTID":2664,"LANDMARKID":"1001400000208","LANDMARKCO":"108","LANDMARKNA":"台東縣海端鄉公所","LANDMARKAD":"1001412","ADDRESS":"台東縣海端鄉海端村4鄰山界43號","TEL":"089-931346","COUNTYNAME":"台東縣(海)","TOWNNAME":"海端鄉","MARKTYPE":"991","Class":"1"}},{"type":"Feature","id":2665,"geometry":{"type":"Point","coordinates":[121.17672921865129,23.102098276275193]},"properties":{"OBJECTID":2665,"LANDMARKID":"1001400000084","LANDMARKCO":"103","LANDMARKNA":"台東縣海端鄉民代表會","LANDMARKAD":"1001412","ADDRESS":"台東縣海端鄉海端村山界40號","TEL":"089-931225","COUNTYNAME":"台東縣(海)","TOWNNAME":"海端鄉","MARKTYPE":"991","Class":"1"}},{"type":"Feature","id":2666,"geometry":{"type":"Point","coordinates":[121.1308330373499,23.000007892702733]},"properties":{"OBJECTID":2666,"LANDMARKID":"1001400000137","LANDMARKCO":"107","LANDMARKNA":"台東縣警察局加南派出所","LANDMARKAD":"1001412","ADDRESS":"台東縣海端鄉加南村4號","TEL":"089-811488","COUNTYNAME":"台東縣(海)","TOWNNAME":"海端鄉","MARKTYPE":"991","Class":"1"}},{"type":"Feature","id":2667,"geometry":{"type":"Point","coordinates":[121.17560316852271,23.131088929651494]},"properties":{"OBJECTID":2667,"LANDMARKID":"1001400000138","LANDMARKCO":"107","LANDMARKNA":"台東縣警察局景平派出所","LANDMARKAD":"1001412","ADDRESS":"台東縣海端鄉廣原村錦屏路5號","TEL":"089-862474","COUNTYNAME":"台東縣(海)","TOWNNAME":"海端鄉","MARKTYPE":"991","Class":"1"}},{"type":"Feature","id":2668,"geometry":{"type":"Point","coordinates":[121.19168117334542,23.154550263020475]},"properties":{"OBJECTID":2668,"LANDMARKID":"1001400000139","LANDMARKCO":"107","LANDMARKNA":"台東縣警察局龍泉派出所","LANDMARKAD":"1001412","ADDRESS":"台東縣海端鄉廣原村龍泉路1號","TEL":"089-861344","COUNTYNAME":"台東縣(海)","TOWNNAME":"海端鄉","MARKTYPE":"991","Class":"1"}},{"type":"Feature","id":2669,"geometry":{"type":"Point","coordinates":[121.20593017017283,23.150016550882466]},"properties":{"OBJECTID":2669,"LANDMARKID":"1001400000140","LANDMARKCO":"107","LANDMARKNA":"台東縣警察局廣原派出所","LANDMARKAD":"1001412","ADDRESS":"台東縣海端鄉廣原村大埔路10號","TEL":"089-861244","COUNTYNAME":"台東縣(海)","TOWNNAME":"海端鄉","MARKTYPE":"991","Class":"1"}},{"type":"Feature","id":2670,"geometry":{"type":"Point","coordinates":[121.02575947899027,23.185458779538898]},"properties":{"OBJECTID":2670,"LANDMARKID":"1001400000141","LANDMARKCO":"107","LANDMARKNA":"台東縣警察局利稻派出所","LANDMARKAD":"1001412","ADDRESS":"台東縣海端鄉利稻村文化路2號","TEL":"089-938064","COUNTYNAME":"台東縣(海)","TOWNNAME":"海端鄉","MARKTYPE":"991","Class":"1"}},{"type":"Feature","id":2671,"geometry":{"type":"Point","coordinates":[120.97495725304933,23.271158687297415]},"properties":{"OBJECTID":2671,"LANDMARKID":"1001400000142","LANDMARKCO":"107","LANDMARKNA":"台東縣警察局啞口派出所","LANDMARKAD":"1001412","ADDRESS":"台東縣海端鄉利稻村啞口1號","TEL":" ","COUNTYNAME":"台東縣(海)","TOWNNAME":"海端鄉","MARKTYPE":"991","Class":"1"}},{"type":"Feature","id":2672,"geometry":{"type":"Point","coordinates":[120.98535048694386,23.247499989699659]},"properties":{"OBJECTID":2672,"LANDMARKID":"1001400000143","LANDMARKCO":"107","LANDMARKNA":"台東縣警察局向陽派出所","LANDMARKAD":"1001412","ADDRESS":"台東縣海端鄉向陽路1號","TEL":"089-095763","COUNTYNAME":"台東縣(海)","TOWNNAME":"海端鄉","MARKTYPE":"991","Class":"1"}},{"type":"Feature","id":2673,"geometry":{"type":"Point","coordinates":[121.1243024410789,23.131859200616592]},"properties":{"OBJECTID":2673,"LANDMARKID":"1001400000144","LANDMARKCO":"107","LANDMARKNA":"台東縣警察局新武派出所","LANDMARKAD":"1001412","ADDRESS":"台東縣海端鄉海端村新武路9號","TEL":"089-931386","COUNTYNAME":"台東縣(海)","TOWNNAME":"海端鄉","MARKTYPE":"991","Class":"1"}},{"type":"Feature","id":2674,"geometry":{"type":"Point","coordinates":[121.03984201317155,23.173806345844415]},"properties":{"OBJECTID":2674,"LANDMARKID":"1001400000145","LANDMARKCO":"107","LANDMARKNA":"台東縣警察局霧鹿派出所","LANDMARKAD":"1001412","ADDRESS":"台東縣海端鄉霧鹿村1號","TEL":"089-935024","COUNTYNAME":"台東縣(海)","TOWNNAME":"海端鄉","MARKTYPE":"991","Class":"1"}},{"type":"Feature","id":2675,"geometry":{"type":"Point","coordinates":[121.16150816073164,23.126227755095719]},"properties":{"OBJECTID":2675,"LANDMARKID":"1001400000146","LANDMARKCO":"107","LANDMARKNA":"台東縣警察局初來派出所","LANDMARKAD":"1001412","ADDRESS":"台東縣海端鄉海端村初來路70號","TEL":"089-931004","COUNTYNAME":"台東縣(海)","TOWNNAME":"海端鄉","MARKTYPE":"991","Class":"1"}},{"type":"Feature","id":2676,"geometry":{"type":"Point","coordinates":[121.15491190384245,23.070513888084221]},"properties":{"OBJECTID":2676,"LANDMARKID":"1001400000147","LANDMARKCO":"107","LANDMARKNA":"台東縣警察局紅石派出所","LANDMARKAD":"1001412","ADDRESS":"台東縣海端鄉崁頂村5鄰中石路37號","TEL":"089-811444","COUNTYNAME":"台東縣(海)","TOWNNAME":"海端鄉","MARKTYPE":"991","Class":"1"}},{"type":"Feature","id":2677,"geometry":{"type":"Point","coordinates":[121.1741465141087,23.113118274304661]},"properties":{"OBJECTID":2677,"LANDMARKID":"1001400000102","LANDMARKCO":"106","LANDMARKNA":"台東縣海端鄉戶政事務所","LANDMARKAD":"1001412","ADDRESS":"台東縣海端鄉3鄰山界13之5號","TEL":"089-931594","COUNTYNAME":"台東縣(海)","TOWNNAME":"海端鄉","MARKTYPE":"991","Class":"1"}},{"type":"Feature","id":2678,"geometry":{"type":"Point","coordinates":[121.17564179821308,23.097473755423181]},"properties":{"OBJECTID":2678,"LANDMARKID":"1001400000377","LANDMARKCO":"204","LANDMARKNA":"台東縣立圖書館海端分館","LANDMARKAD":"1001412","ADDRESS":"台東縣海端鄉海端山界路1號","TEL":" ","COUNTYNAME":"台東縣(海)","TOWNNAME":"海端鄉","MARKTYPE":"992","Class":"2"}},{"type":"Feature","id":2679,"geometry":{"type":"Point","coordinates":[121.1752530819814,23.099934227071639]},"properties":{"OBJECTID":2679,"LANDMARKID":"1001400000314","LANDMARKCO":"203","LANDMARKNA":"縣立海端國中","LANDMARKAD":"1001412","ADDRESS":"台東縣海端鄉海端村山界1號","TEL":"089-931390","COUNTYNAME":"台東縣(海)","TOWNNAME":"海端鄉","MARKTYPE":"992","Class":"2"}},{"type":"Feature","id":2680,"geometry":{"type":"Point","coordinates":[121.16951155995646,23.116918201493984]},"properties":{"OBJECTID":2680,"LANDMARKID":"1001400000315","LANDMARKCO":"203","LANDMARKNA":"縣立初來國小","LANDMARKAD":"1001412","ADDRESS":"台東縣海端鄉海端村7鄰5號","TEL":"089-931049","COUNTYNAME":"台東縣(海)","TOWNNAME":"海端鄉","MARKTYPE":"992","Class":"2"}},{"type":"Feature","id":2681,"geometry":{"type":"Point","coordinates":[121.04155975682235,23.168838660892185]},"properties":{"OBJECTID":2681,"LANDMARKID":"1001400000316","LANDMARKCO":"203","LANDMARKNA":"縣立霧鹿國小","LANDMARKAD":"1001412","ADDRESS":"台東縣海端鄉霧鹿村12號","TEL":"089-935070","COUNTYNAME":"台東縣(海)","TOWNNAME":"海端鄉","MARKTYPE":"992","Class":"2"}},{"type":"Feature","id":2682,"geometry":{"type":"Point","coordinates":[121.20710492903164,23.149561950093098]},"properties":{"OBJECTID":2682,"LANDMARKID":"1001400000317","LANDMARKCO":"203","LANDMARKNA":"縣立廣原國小","LANDMARKAD":"1001412","ADDRESS":"台東縣海端鄉廣原村大埔路1鄰1號","TEL":"089-862923","COUNTYNAME":"台東縣(海)","TOWNNAME":"海端鄉","MARKTYPE":"992","Class":"2"}},{"type":"Feature","id":2683,"geometry":{"type":"Point","coordinates":[121.176180877812,23.101467360133849]},"properties":{"OBJECTID":2683,"LANDMARKID":"1001400000318","LANDMARKCO":"203","LANDMARKNA":"縣立海端國小","LANDMARKAD":"1001412","ADDRESS":"台東縣海端鄉海端村山界36號","TEL":"089-931184","COUNTYNAME":"台東縣(海)","TOWNNAME":"海端鄉","MARKTYPE":"992","Class":"2"}},{"type":"Feature","id":2684,"geometry":{"type":"Point","coordinates":[121.14676265003408,23.044693947667074]},"properties":{"OBJECTID":2684,"LANDMARKID":"1001400000319","LANDMARKCO":"203","LANDMARKNA":"縣立崁頂國小","LANDMARKAD":"1001412","ADDRESS":"台東縣海端鄉崁頂村中福21號","TEL":"089-811447","COUNTYNAME":"台東縣(海)","TOWNNAME":"海端鄉","MARKTYPE":"992","Class":"2"}},{"type":"Feature","id":2685,"geometry":{"type":"Point","coordinates":[121.13107935090366,23.001271787522359]},"properties":{"OBJECTID":2685,"LANDMARKID":"1001400000320","LANDMARKCO":"203","LANDMARKNA":"縣立加拿國小","LANDMARKAD":"1001412","ADDRESS":"台東縣海端鄉加拿村加南5號","TEL":"089-811108","COUNTYNAME":"台東縣(海)","TOWNNAME":"海端鄉","MARKTYPE":"992","Class":"2"}},{"type":"Feature","id":2686,"geometry":{"type":"Point","coordinates":[121.17633785572573,23.131990347379997]},"properties":{"OBJECTID":2686,"LANDMARKID":"1001400000321","LANDMARKCO":"203","LANDMARKNA":"縣立錦屏國小","LANDMARKAD":"1001412","ADDRESS":"台東縣海端鄉廣原村錦屏1號","TEL":"089-861762","COUNTYNAME":"台東縣(海)","TOWNNAME":"海端鄉","MARKTYPE":"992","Class":"2"}},{"type":"Feature","id":2687,"geometry":{"type":"Point","coordinates":[121.02532948233049,23.186361971225843]},"properties":{"OBJECTID":2687,"LANDMARKID":"1001400000322","LANDMARKCO":"203","LANDMARKNA":"縣立利稻國小","LANDMARKAD":"1001412","ADDRESS":"台東縣海端鄉","TEL":" ","COUNTYNAME":"台東縣(海)","TOWNNAME":"海端鄉","MARKTYPE":"992","Class":"2"}},{"type":"Feature","id":2688,"geometry":{"type":"Point","coordinates":[121.06216257196002,23.156640909214151]},"properties":{"OBJECTID":2688,"LANDMARKID":"1001400000323","LANDMARKCO":"203","LANDMARKNA":"縣立霧鹿國小分班(廢)","LANDMARKAD":"1001412","ADDRESS":"台東縣海端鄉","TEL":" ","COUNTYNAME":"台東縣(海)","TOWNNAME":"海端鄉","MARKTYPE":"992","Class":"2"}},{"type":"Feature","id":2689,"geometry":{"type":"Point","coordinates":[121.12524134453011,23.132672644083272]},"properties":{"OBJECTID":2689,"LANDMARKID":"1001400000324","LANDMARKCO":"203","LANDMARKNA":"縣立初來國小新武分校","LANDMARKAD":"1001412","ADDRESS":"台東縣海端鄉","TEL":" ","COUNTYNAME":"台東縣(海)","TOWNNAME":"海端鄉","MARKTYPE":"992","Class":"2"}},{"type":"Feature","id":2690,"geometry":{"type":"Point","coordinates":[121.15992373304807,23.067077729554551]},"properties":{"OBJECTID":2690,"LANDMARKID":"1001400000325","LANDMARKCO":"203","LANDMARKNA":"縣立崁頂國小紅石分校","LANDMARKAD":"1001412","ADDRESS":"台東縣海端鄉","TEL":" ","COUNTYNAME":"台東縣(海)","TOWNNAME":"海端鄉","MARKTYPE":"992","Class":"2"}},{"type":"Feature","id":2691,"geometry":{"type":"Point","coordinates":[121.02400047724626,23.187577270599029]},"properties":{"OBJECTID":2691,"LANDMARKID":"1001400000614","LANDMARKCO":"503","LANDMARKNA":"利稻風景區","LANDMARKAD":"1001412","ADDRESS":"台東縣海端鄉","TEL":" ","COUNTYNAME":"台東縣(海)","TOWNNAME":"海端鄉","MARKTYPE":"995","Class":"5"}},{"type":"Feature","id":2692,"geometry":{"type":"Point","coordinates":[121.02785725107469,23.177324707166164]},"properties":{"OBJECTID":2692,"LANDMARKID":"1001400000659","LANDMARKCO":"508","LANDMARKNA":"摩刻南野溪溫泉","LANDMARKAD":"1001412","ADDRESS":"台東縣海端鄉","TEL":" ","COUNTYNAME":"台東縣(海)","TOWNNAME":"海端鄉","MARKTYPE":"995","Class":"5"}},{"type":"Feature","id":2693,"geometry":{"type":"Point","coordinates":[121.02976997993501,23.175861106286778]},"properties":{"OBJECTID":2693,"LANDMARKID":"1001400000660","LANDMARKCO":"508","LANDMARKNA":"碧山溫泉","LANDMARKAD":"1001412","ADDRESS":"台東縣海端鄉","TEL":" ","COUNTYNAME":"台東縣(海)","TOWNNAME":"海端鄉","MARKTYPE":"995","Class":"5"}},{"type":"Feature","id":2694,"geometry":{"type":"Point","coordinates":[121.03424499287593,23.172290598864009]},"properties":{"OBJECTID":2694,"LANDMARKID":"1001400000661","LANDMARKCO":"508","LANDMARKNA":"碧山溫泉休閒農莊","LANDMARKAD":"1001412","ADDRESS":"台東縣海端鄉霧鹿村1之8號","TEL":"089-935022","COUNTYNAME":"台東縣(海)","TOWNNAME":"海端鄉","MARKTYPE":"995","Class":"5"}},{"type":"Feature","id":2695,"geometry":{"type":"Point","coordinates":[121.04196537320327,23.173625743481601]},"properties":{"OBJECTID":2695,"LANDMARKID":"1001400000662","LANDMARKCO":"508","LANDMARKNA":"霧鹿溫泉","LANDMARKAD":"1001412","ADDRESS":"台東縣海端鄉","TEL":" ","COUNTYNAME":"台東縣(海)","TOWNNAME":"海端鄉","MARKTYPE":"995","Class":"5"}},{"type":"Feature","id":2696,"geometry":{"type":"Point","coordinates":[121.04202974510075,23.17315152107502]},"properties":{"OBJECTID":2696,"LANDMARKID":"1001400000663","LANDMARKCO":"508","LANDMARKNA":"天龍飯店","LANDMARKAD":"1001412","ADDRESS":"台東縣海端鄉霧鹿村1之1號","TEL":"089-935075","COUNTYNAME":"台東縣(海)","TOWNNAME":"海端鄉","MARKTYPE":"995","Class":"5"}},{"type":"Feature","id":2697,"geometry":{"type":"Point","coordinates":[121.10394775166894,23.139222401730805]},"properties":{"OBJECTID":2697,"LANDMARKID":"1001400000664","LANDMARKCO":"508","LANDMARKNA":"彩霞溫泉","LANDMARKAD":"1001412","ADDRESS":"台東縣海端鄉","TEL":" ","COUNTYNAME":"台東縣(海)","TOWNNAME":"海端鄉","MARKTYPE":"995","Class":"5"}},{"type":"Feature","id":2698,"geometry":{"type":"Point","coordinates":[121.05767227431386,23.160793168739385]},"properties":{"OBJECTID":2698,"LANDMARKID":"1001400000665","LANDMARKCO":"508","LANDMARKNA":"下馬溫泉","LANDMARKAD":"1001412","ADDRESS":"台東縣海端鄉","TEL":" ","COUNTYNAME":"台東縣(海)","TOWNNAME":"海端鄉","MARKTYPE":"995","Class":"5"}},{"type":"Feature","id":2699,"geometry":{"type":"Point","coordinates":[120.9117129751579,23.228061878016572]},"properties":{"OBJECTID":2699,"LANDMARKID":"1001400000691","LANDMARKCO":"513","LANDMARKNA":"關山","LANDMARKAD":"1001412","ADDRESS":"台東縣海端鄉","TEL":" ","COUNTYNAME":"台東縣(海)","TOWNNAME":"海端鄉","MARKTYPE":"995","Class":"5"}},{"type":"Feature","id":2700,"geometry":{"type":"Point","coordinates":[121.02867575187034,23.297166998605245]},"properties":{"OBJECTID":2700,"LANDMARKID":"1001400000692","LANDMARKCO":"513","LANDMARKNA":"三叉山","LANDMARKAD":"1001412","ADDRESS":"台東縣海端鄉","TEL":" ","COUNTYNAME":"台東縣(海)","TOWNNAME":"海端鄉","MARKTYPE":"995","Class":"5"}},{"type":"Feature","id":2701,"geometry":{"type":"Point","coordinates":[120.94221896830508,23.251943693698443]},"properties":{"OBJECTID":2701,"LANDMARKID":"1001400000693","LANDMARKCO":"513","LANDMARKNA":"塔關山","LANDMARKAD":"1001412","ADDRESS":"台東縣海端鄉","TEL":" ","COUNTYNAME":"台東縣(海)","TOWNNAME":"海端鄉","MARKTYPE":"995","Class":"5"}},{"type":"Feature","id":2702,"geometry":{"type":"Point","coordinates":[121.07870444675622,23.232815178576463]},"properties":{"OBJECTID":2702,"LANDMARKID":"1001400000694","LANDMARKCO":"513","LANDMARKNA":"布拉克桑山","LANDMARKAD":"1001412","ADDRESS":"台東縣海端鄉","TEL":" ","COUNTYNAME":"台東縣(海)","TOWNNAME":"海端鄉","MARKTYPE":"995","Class":"5"}},{"type":"Feature","id":2703,"geometry":{"type":"Point","coordinates":[121.37892870822759,23.102224421915729]},"properties":{"OBJECTID":2703,"LANDMARKID":"1001400000509","LANDMARKCO":"405","LANDMARKNA":"中油加油站-成功站(中油直營)","LANDMARKAD":"1001402","ADDRESS":"台東縣成功鎮中山路43號","TEL":"089-851069","COUNTYNAME":"台東縣","TOWNNAME":"成功鎮","MARKTYPE":"994","Class":"4"}},{"type":"Feature","id":2704,"geometry":{"type":"Point","coordinates":[121.36706198180053,23.100297720987509]},"properties":{"OBJECTID":2704,"LANDMARKID":"1001400000510","LANDMARKCO":"405","LANDMARKNA":"中油加油站-全滿站","LANDMARKAD":"1001402","ADDRESS":"台東縣成功鎮大同路2號","TEL":"089-853789","COUNTYNAME":"台東縣","TOWNNAME":"成功鎮","MARKTYPE":"994","Class":"4"}},{"type":"Feature","id":2705,"geometry":{"type":"Point","coordinates":[121.31451448220746,22.995077407840057]},"properties":{"OBJECTID":2705,"LANDMARKID":"1001400000511","LANDMARKCO":"405","LANDMARKNA":"中油加油站-興盛站","LANDMARKAD":"1001402","ADDRESS":"台東縣成功鎮信義里隧道路68之3號","TEL":"089-896381","COUNTYNAME":"台東縣","TOWNNAME":"成功鎮","MARKTYPE":"994","Class":"4"}},{"type":"Feature","id":2706,"geometry":{"type":"Point","coordinates":[121.38638015432602,23.111944558248087]},"properties":{"OBJECTID":2706,"LANDMARKID":"1001400000512","LANDMARKCO":"405","LANDMARKNA":"中油加油站-三仙台站","LANDMARKAD":"1001402","ADDRESS":"台東縣成功鎮三仙里芝田路186-1號","TEL":"089-853851","COUNTYNAME":"台東縣","TOWNNAME":"成功鎮","MARKTYPE":"994","Class":"4"}},{"type":"Feature","id":2707,"geometry":{"type":"Point","coordinates":[121.37781637277332,23.099362546095907]},"properties":{"OBJECTID":2707,"LANDMARKID":"1001400000466","LANDMARKCO":"401","LANDMARKNA":"行政院衛生署臺東醫院成功分院門診部","LANDMARKAD":"1001402","ADDRESS":"台東縣成功鎮中山東路32號","TEL":"089-854748","COUNTYNAME":"台東縣","TOWNNAME":"成功鎮","MARKTYPE":"994","Class":"4"}},{"type":"Feature","id":2708,"geometry":{"type":"Point","coordinates":[121.32676366392866,23.018602405336843]},"properties":{"OBJECTID":2708,"LANDMARKID":"1001400000613","LANDMARKCO":"503","LANDMARKNA":"東部海岸國家風景區","LANDMARKAD":"1001402","ADDRESS":"台東縣成功鎮新村路25號","TEL":"089-841520","COUNTYNAME":"台東縣","TOWNNAME":"成功鎮","MARKTYPE":"995","Class":"5"}},{"type":"Feature","id":2709,"geometry":{"type":"Point","coordinates":[121.41669262976065,23.124699803109408]},"properties":{"OBJECTID":2709,"LANDMARKID":"1001400000695","LANDMARKCO":"513","LANDMARKNA":"三仙台","LANDMARKAD":"1001402","ADDRESS":"台東縣成功鎮","TEL":" ","COUNTYNAME":"台東縣","TOWNNAME":"成功鎮","MARKTYPE":"995","Class":"5"}},{"type":"Feature","id":2710,"geometry":{"type":"Point","coordinates":[121.3913564215066,23.170576745123959]},"properties":{"OBJECTID":2710,"LANDMARKID":"1001400000644","LANDMARKCO":"506","LANDMARKNA":"柑橘觀光果園","LANDMARKAD":"1001402","ADDRESS":"台東縣成功鎮忠孝里15鄰石傘路112號","TEL":"089-871402","COUNTYNAME":"台東縣","TOWNNAME":"成功鎮","MARKTYPE":"995","Class":"5"}},{"type":"Feature","id":2711,"geometry":{"type":"Point","coordinates":[121.33326870568942,23.029512105300309]},"properties":{"OBJECTID":2711,"LANDMARKID":"1001400000605","LANDMARKCO":"501","LANDMARKNA":"東部海岸風景特定區","LANDMARKAD":"1001402","ADDRESS":"台東縣成功鎮信義里新村路25號","TEL":"089-841520","COUNTYNAME":"台東縣","TOWNNAME":"成功鎮","MARKTYPE":"995","Class":"5"}},{"type":"Feature","id":2712,"geometry":{"type":"Point","coordinates":[121.40879160737565,23.122948053391234]},"properties":{"OBJECTID":2712,"LANDMARKID":"1001400000686","LANDMARKCO":"512","LANDMARKNA":"三仙台遊客服務中心","LANDMARKAD":"1001402","ADDRESS":"台東縣成功鎮三仙里基翬路72號","TEL":"089-850785","COUNTYNAME":"台東縣","TOWNNAME":"成功鎮","MARKTYPE":"995","Class":"5"}},{"type":"Feature","id":2713,"geometry":{"type":"Point","coordinates":[121.33316489413224,23.029525322547258]},"properties":{"OBJECTID":2713,"LANDMARKID":"1001400000687","LANDMARKCO":"512","LANDMARKNA":"東海岸國家風景區管理處","LANDMARKAD":"1001402","ADDRESS":"台東縣成功鎮信義里新村路25號","TEL":"089-841520","COUNTYNAME":"台東縣","TOWNNAME":"成功鎮","MARKTYPE":"995","Class":"5"}},{"type":"Feature","id":2714,"geometry":{"type":"Point","coordinates":[121.33314156635052,23.02942927798582]},"properties":{"OBJECTID":2714,"LANDMARKID":"1001400000688","LANDMARKCO":"512","LANDMARKNA":"都歷遊客服務中心","LANDMARKAD":"1001402","ADDRESS":"台東縣成功鎮信義里新村路25號","TEL":"089-841520","COUNTYNAME":"台東縣","TOWNNAME":"成功鎮","MARKTYPE":"995","Class":"5"}},{"type":"Feature","id":2715,"geometry":{"type":"Point","coordinates":[121.37821452646102,23.100545021606322]},"properties":{"OBJECTID":2715,"LANDMARKID":"1001400000577","LANDMARKCO":"408","LANDMARKNA":"郵局-成功郵局","LANDMARKAD":"1001402","ADDRESS":"台東縣成功鎮中華路77號","TEL":"(089)853-620","COUNTYNAME":"台東縣","TOWNNAME":"成功鎮","MARKTYPE":"994","Class":"4"}},{"type":"Feature","id":2716,"geometry":{"type":"Point","coordinates":[121.38006250024746,23.100972497771867]},"properties":{"OBJECTID":2716,"LANDMARKID":"1001400000599","LANDMARKCO":"409","LANDMARKNA":"台東縣成功鎮農會","LANDMARKAD":"1001402","ADDRESS":"台東縣成功鎮中華路139號","TEL":"089-851017","COUNTYNAME":"台東縣","TOWNNAME":"成功鎮","MARKTYPE":"994","Class":"4"}},{"type":"Feature","id":2717,"geometry":{"type":"Point","coordinates":[121.38033026878452,23.099093938421259]},"properties":{"OBJECTID":2717,"LANDMARKID":"1001400000600","LANDMARKCO":"409","LANDMARKNA":"新港區漁會","LANDMARKAD":"1001402","ADDRESS":"台東縣成功鎮港邊路19號","TEL":"089-851152","COUNTYNAME":"台東縣","TOWNNAME":"成功鎮","MARKTYPE":"994","Class":"4"}},{"type":"Feature","id":2718,"geometry":{"type":"Point","coordinates":[121.38547665295826,23.102564573424115]},"properties":{"OBJECTID":2718,"LANDMARKID":"1001400000562","LANDMARKCO":"406","LANDMARKNA":"成功海濱公園","LANDMARKAD":"1001402","ADDRESS":"台東縣成功鎮","TEL":" ","COUNTYNAME":"台東縣","TOWNNAME":"成功鎮","MARKTYPE":"994","Class":"4"}},{"type":"Feature","id":2719,"geometry":{"type":"Point","coordinates":[121.37573887619828,23.102970710778493]},"properties":{"OBJECTID":2719,"LANDMARKID":"1001400000494","LANDMARKCO":"404","LANDMARKNA":"台灣省自來水成功營運所","LANDMARKAD":"1001402","ADDRESS":"台東縣成功鎮開封街12號","TEL":" ","COUNTYNAME":"台東縣","TOWNNAME":"成功鎮","MARKTYPE":"994","Class":"4"}},{"type":"Feature","id":2720,"geometry":{"type":"Point","coordinates":[121.37933226017266,23.099843242940544]},"properties":{"OBJECTID":2720,"LANDMARKID":"1001400000080","LANDMARKCO":"103","LANDMARKNA":"台東縣成功鎮衛生所","LANDMARKAD":"1001402","ADDRESS":"台東縣成功鎮中山東路64號","TEL":"089-851419","COUNTYNAME":"台東縣","TOWNNAME":"成功鎮","MARKTYPE":"991","Class":"1"}},{"type":"Feature","id":2721,"geometry":{"type":"Point","coordinates":[121.3796974389427,23.100202690397079]},"properties":{"OBJECTID":2721,"LANDMARKID":"1001400000206","LANDMARKCO":"108","LANDMARKNA":"台東縣成功鎮公所","LANDMARKAD":"1001402","ADDRESS":"台東縣成功鎮中山東路75號","TEL":"089-851004","COUNTYNAME":"台東縣","TOWNNAME":"成功鎮","MARKTYPE":"991","Class":"1"}},{"type":"Feature","id":2722,"geometry":{"type":"Point","coordinates":[121.38137547054554,23.100020660923143]},"properties":{"OBJECTID":2722,"LANDMARKID":"1001400000085","LANDMARKCO":"104","LANDMARKNA":"關稅總局新港燈塔","LANDMARKAD":"1001402","ADDRESS":"台東縣成功鎮成功路民恆路6號","TEL":"089-850106","COUNTYNAME":"台東縣","TOWNNAME":"成功鎮","MARKTYPE":"991","Class":"1"}},{"type":"Feature","id":2723,"geometry":{"type":"Point","coordinates":[121.3820502488755,23.098843445497174]},"properties":{"OBJECTID":2723,"LANDMARKID":"1001400000002","LANDMARKCO":"101","LANDMARKNA":"農業委員會水產試驗所","LANDMARKAD":"1001402","ADDRESS":"台東縣成功鎮五權路22號","TEL":"089-850090","COUNTYNAME":"台東縣","TOWNNAME":"成功鎮","MARKTYPE":"991","Class":"1"}},{"type":"Feature","id":2724,"geometry":{"type":"Point","coordinates":[121.3796974389427,23.100202690397079]},"properties":{"OBJECTID":2724,"LANDMARKID":"1001400000076","LANDMARKCO":"103","LANDMARKNA":"台東縣成功鎮鎮民代表會","LANDMARKAD":"1001402","ADDRESS":"台東縣成功鎮中山路1號之1","TEL":"089-851243","COUNTYNAME":"台東縣","TOWNNAME":"成功鎮","MARKTYPE":"991","Class":"1"}},{"type":"Feature","id":2725,"geometry":{"type":"Point","coordinates":[121.38206001064199,23.098843398393903]},"properties":{"OBJECTID":2725,"LANDMARKID":"1001400000077","LANDMARKCO":"103","LANDMARKNA":"台東縣政府新港漁港管理站","LANDMARKAD":"1001402","ADDRESS":"台東縣成功鎮五權路22號","TEL":"089-851023","COUNTYNAME":"台東縣","TOWNNAME":"成功鎮","MARKTYPE":"991","Class":"1"}},{"type":"Feature","id":2726,"geometry":{"type":"Point","coordinates":[121.37353607286479,23.097148541826474]},"properties":{"OBJECTID":2726,"LANDMARKID":"1001400000001","LANDMARKCO":"101","LANDMARKNA":"中央氣象局成功氣象站","LANDMARKAD":"1001402","ADDRESS":"台東縣成功鎮公民路84號","TEL":"089-851038","COUNTYNAME":"台東縣","TOWNNAME":"成功鎮","MARKTYPE":"991","Class":"1"}},{"type":"Feature","id":2727,"geometry":{"type":"Point","coordinates":[121.37927666685059,23.100024101804042]},"properties":{"OBJECTID":2727,"LANDMARKID":"1001400000151","LANDMARKCO":"107","LANDMARKNA":"台東縣消防局成功消防分隊","LANDMARKAD":"1001402","ADDRESS":"台東縣成功鎮中山東路73號","TEL":"089-851033","COUNTYNAME":"台東縣","TOWNNAME":"成功鎮","MARKTYPE":"991","Class":"1"}},{"type":"Feature","id":2728,"geometry":{"type":"Point","coordinates":[121.37509153492371,23.099134441627612]},"properties":{"OBJECTID":2728,"LANDMARKID":"1001400000152","LANDMARKCO":"107","LANDMARKNA":"台東縣警察局成功分局","LANDMARKAD":"1001402","ADDRESS":"台東縣成功鎮忠仁里公民路87號","TEL":"089-851001","COUNTYNAME":"台東縣","TOWNNAME":"成功鎮","MARKTYPE":"991","Class":"1"}},{"type":"Feature","id":2729,"geometry":{"type":"Point","coordinates":[121.33277975802145,23.026709467654431]},"properties":{"OBJECTID":2729,"LANDMARKID":"1001400000153","LANDMARKCO":"107","LANDMARKNA":"台東縣警察局都歷派出所","LANDMARKAD":"1001402","ADDRESS":"台東縣成功鎮信義里都歷路46號","TEL":"089-841290","COUNTYNAME":"台東縣","TOWNNAME":"成功鎮","MARKTYPE":"991","Class":"1"}},{"type":"Feature","id":2730,"geometry":{"type":"Point","coordinates":[121.37510129672282,23.099134395857348]},"properties":{"OBJECTID":2730,"LANDMARKID":"1001400000154","LANDMARKCO":"107","LANDMARKNA":"台東縣警察局新豐派出所","LANDMARKAD":"1001402","ADDRESS":"台東縣成功鎮忠仁里公民路87號","TEL":"089-851054","COUNTYNAME":"台東縣","TOWNNAME":"成功鎮","MARKTYPE":"991","Class":"1"}},{"type":"Feature","id":2731,"geometry":{"type":"Point","coordinates":[121.39957627134964,23.158218003674257]},"properties":{"OBJECTID":2731,"LANDMARKID":"1001400000155","LANDMARKCO":"107","LANDMARKNA":"台東縣警察局忠孝派出所","LANDMARKAD":"1001402","ADDRESS":"台東縣成功鎮忠孝里成廣路9號","TEL":"089-871444","COUNTYNAME":"台東縣","TOWNNAME":"成功鎮","MARKTYPE":"991","Class":"1"}},{"type":"Feature","id":2732,"geometry":{"type":"Point","coordinates":[121.38034263556419,23.102095998012455]},"properties":{"OBJECTID":2732,"LANDMARKID":"1001400000100","LANDMARKCO":"106","LANDMARKNA":"台東縣成功鎮戶政事務所","LANDMARKAD":"1001402","ADDRESS":"台東縣成功鎮光復路58號","TEL":"089-851281","COUNTYNAME":"台東縣","TOWNNAME":"成功鎮","MARKTYPE":"991","Class":"1"}},{"type":"Feature","id":2733,"geometry":{"type":"Point","coordinates":[121.37507150973947,23.09904423127481]},"properties":{"OBJECTID":2733,"LANDMARKID":"1001400000089","LANDMARKCO":"105","LANDMARKNA":"台東縣成功地政事務所","LANDMARKAD":"1001402","ADDRESS":"台東縣成功鎮公民路93號","TEL":"089-851966","COUNTYNAME":"台東縣","TOWNNAME":"成功鎮","MARKTYPE":"991","Class":"1"}},{"type":"Feature","id":2734,"geometry":{"type":"Point","coordinates":[121.3806958423901,23.105532553435417]},"properties":{"OBJECTID":2734,"LANDMARKID":"1001400000003","LANDMARKCO":"101","LANDMARKNA":"台灣台東地方法院成功簡易庭","LANDMARKAD":"1001402","ADDRESS":"台東縣成功鎮中山路176號","TEL":"089-850645","COUNTYNAME":"台東縣","TOWNNAME":"成功鎮","MARKTYPE":"991","Class":"1"}},{"type":"Feature","id":2735,"geometry":{"type":"Point","coordinates":[121.39351208589265,23.1202920335732]},"properties":{"OBJECTID":2735,"LANDMARKID":"1001400000390","LANDMARKCO":"205","LANDMARKNA":"台東縣自然史教育館","LANDMARKAD":"1001402","ADDRESS":"台東縣成功鎮三仙里基翬路16號(三仙國小內)","TEL":" ","COUNTYNAME":"台東縣","TOWNNAME":"成功鎮","MARKTYPE":"992","Class":"2"}},{"type":"Feature","id":2736,"geometry":{"type":"Point","coordinates":[121.37538704784777,23.099933998509211]},"properties":{"OBJECTID":2736,"LANDMARKID":"1001400000380","LANDMARKCO":"204","LANDMARKNA":"台東縣立圖書館成功分館","LANDMARKAD":"1001402","ADDRESS":"台東縣成功鎮公民路15號","TEL":" ","COUNTYNAME":"台東縣","TOWNNAME":"成功鎮","MARKTYPE":"992","Class":"2"}},{"type":"Feature","id":2737,"geometry":{"type":"Point","coordinates":[121.3820430514735,23.105526042751674]},"properties":{"OBJECTID":2737,"LANDMARKID":"1001400000224","LANDMARKCO":"202","LANDMARKNA":"國立成功商業水產","LANDMARKAD":"1001402","ADDRESS":"台東縣成功鎮太平路52號","TEL":"089-850011","COUNTYNAME":"台東縣","TOWNNAME":"成功鎮","MARKTYPE":"992","Class":"2"}},{"type":"Feature","id":2738,"geometry":{"type":"Point","coordinates":[121.37633311464806,23.100844317320512]},"properties":{"OBJECTID":2738,"LANDMARKID":"1001400000293","LANDMARKCO":"203","LANDMARKNA":"縣立新港國中","LANDMARKAD":"1001402","ADDRESS":"台東縣成功鎮中正路1號","TEL":"089-851218","COUNTYNAME":"台東縣","TOWNNAME":"成功鎮","MARKTYPE":"992","Class":"2"}},{"type":"Feature","id":2739,"geometry":{"type":"Point","coordinates":[121.37166009966708,23.101395192284006]},"properties":{"OBJECTID":2739,"LANDMARKID":"1001400000294","LANDMARKCO":"203","LANDMARKNA":"縣立三民國小","LANDMARKAD":"1001402","ADDRESS":"台東縣成功鎮三民路18號","TEL":"089-851024","COUNTYNAME":"台東縣","TOWNNAME":"成功鎮","MARKTYPE":"992","Class":"2"}},{"type":"Feature","id":2740,"geometry":{"type":"Point","coordinates":[121.38332009015936,23.102088264851716]},"properties":{"OBJECTID":2740,"LANDMARKID":"1001400000295","LANDMARKCO":"203","LANDMARKNA":"縣立成功國小","LANDMARKAD":"1001402","ADDRESS":"台東縣成功鎮太平路28號","TEL":"089-851021","COUNTYNAME":"台東縣","TOWNNAME":"成功鎮","MARKTYPE":"992","Class":"2"}},{"type":"Feature","id":2741,"geometry":{"type":"Point","coordinates":[121.3999794787083,23.15704199684259]},"properties":{"OBJECTID":2741,"LANDMARKID":"1001400000296","LANDMARKCO":"203","LANDMARKNA":"縣立忠孝國小","LANDMARKAD":"1001402","ADDRESS":"台東縣成功鎮忠孝里成廣路8號","TEL":"089-871109","COUNTYNAME":"台東縣","TOWNNAME":"成功鎮","MARKTYPE":"992","Class":"2"}},{"type":"Feature","id":2742,"geometry":{"type":"Point","coordinates":[121.39594249865213,23.191370887340906]},"properties":{"OBJECTID":2742,"LANDMARKID":"1001400000297","LANDMARKCO":"203","LANDMARKNA":"縣立博愛國小","LANDMARKAD":"1001402","ADDRESS":"台東縣成功鎮博愛里重安路2號","TEL":"089-871216","COUNTYNAME":"台東縣","TOWNNAME":"成功鎮","MARKTYPE":"992","Class":"2"}},{"type":"Feature","id":2743,"geometry":{"type":"Point","coordinates":[121.39375670256976,23.120305587470419]},"properties":{"OBJECTID":2743,"LANDMARKID":"1001400000298","LANDMARKCO":"203","LANDMARKNA":"縣立三仙國小","LANDMARKAD":"1001402","ADDRESS":"台東縣成功鎮三仙里基翬路16號","TEL":"089-851960","COUNTYNAME":"台東縣","TOWNNAME":"成功鎮","MARKTYPE":"992","Class":"2"}},{"type":"Feature","id":2744,"geometry":{"type":"Point","coordinates":[121.33073840261876,23.026266493944789]},"properties":{"OBJECTID":2744,"LANDMARKID":"1001400000299","LANDMARKCO":"203","LANDMARKNA":"縣立信義國小","LANDMARKAD":"1001402","ADDRESS":"台東縣成功鎮信義里都歷路58號","TEL":"089-841029","COUNTYNAME":"台東縣","TOWNNAME":"成功鎮","MARKTYPE":"992","Class":"2"}},{"type":"Feature","id":2745,"geometry":{"type":"Point","coordinates":[121.35230814787101,23.075160827000797]},"properties":{"OBJECTID":2745,"LANDMARKID":"1001400000300","LANDMARKCO":"203","LANDMARKNA":"縣立和平國小","LANDMARKAD":"1001402","ADDRESS":"台東縣成功鎮和平里跋邊路24號","TEL":"089-851941","COUNTYNAME":"台東縣","TOWNNAME":"成功鎮","MARKTYPE":"992","Class":"2"}},{"type":"Feature","id":2746,"geometry":{"type":"Point","coordinates":[121.40195230465459,23.158449832515934]},"properties":{"OBJECTID":2746,"LANDMARKID":"1001400000463","LANDMARKCO":"305","LANDMARKNA":"小港漁港","LANDMARKAD":"1001402","ADDRESS":"台東縣成功鎮","TEL":" ","COUNTYNAME":"台東縣","TOWNNAME":"成功鎮","MARKTYPE":"993","Class":"305"}},{"type":"Feature","id":2747,"geometry":{"type":"Point","coordinates":[121.37973162769075,23.097748739837538]},"properties":{"OBJECTID":2747,"LANDMARKID":"1001400000464","LANDMARKCO":"305","LANDMARKNA":"新港漁港","LANDMARKAD":"1001402","ADDRESS":"台東縣成功鎮","TEL":" ","COUNTYNAME":"台東縣","TOWNNAME":"成功鎮","MARKTYPE":"993","Class":"305"}},{"type":"Feature","id":2748,"geometry":{"type":"Point","coordinates":[121.38020444803919,23.105069306736674]},"properties":{"OBJECTID":2748,"LANDMARKID":"1001400000422","LANDMARKCO":"302","LANDMARKNA":"鼎東汽車客運成功站","LANDMARKAD":"1001402","ADDRESS":"台東縣成功鎮五權路168號","TEL":" ","COUNTYNAME":"台東縣","TOWNNAME":"成功鎮","MARKTYPE":"993","Class":"302"}},{"type":"Feature","id":2749,"geometry":{"type":"Point","coordinates":[121.32497817023423,23.018635737527937]},"properties":{"OBJECTID":2749,"LANDMARKID":"1001400000440","LANDMARKCO":"303","LANDMARKNA":"東海岸風景區管理處停車場","LANDMARKAD":"1001402","ADDRESS":"台東縣成功鎮新村路義里25號","TEL":"089-841520","COUNTYNAME":"台東縣","TOWNNAME":"成功鎮","MARKTYPE":"993","Class":"303"}},{"type":"Feature","id":2750,"geometry":{"type":"Point","coordinates":[121.40077170983339,23.171550752963697]},"properties":{"OBJECTID":2750,"LANDMARKID":"1001400000441","LANDMARKCO":"303","LANDMARKNA":"石雨傘休憩區停車場","LANDMARKAD":"1001402","ADDRESS":"台東縣成功鎮石傘","TEL":" ","COUNTYNAME":"台東縣","TOWNNAME":"成功鎮","MARKTYPE":"993","Class":"303"}},{"type":"Feature","id":2751,"geometry":{"type":"Point","coordinates":[121.40713202414091,23.122653583370816]},"properties":{"OBJECTID":2751,"LANDMARKID":"1001400000442","LANDMARKCO":"303","LANDMARKNA":"三仙台遊憩區停車場","LANDMARKAD":"1001402","ADDRESS":"台東縣成功鎮三仙里基暈路74號","TEL":" ","COUNTYNAME":"台東縣","TOWNNAME":"成功鎮","MARKTYPE":"993","Class":"303"}},{"type":"Feature","id":2752,"geometry":{"type":"Point","coordinates":[121.30898399972297,22.977238583133076]},"properties":{"OBJECTID":2752,"LANDMARKID":"1001400000443","LANDMARKCO":"303","LANDMARKNA":"東河橋休息區停車場","LANDMARKAD":"1001402","ADDRESS":"台東縣成功鎮小馬","TEL":" ","COUNTYNAME":"台東縣","TOWNNAME":"成功鎮","MARKTYPE":"993","Class":"303"}},{"type":"Feature","id":2753,"geometry":{"type":"Point","coordinates":[121.37656934793858,23.099858331038646]},"properties":{"OBJECTID":2753,"LANDMARKID":"1001400000484","LANDMARKCO":"402","LANDMARKNA":"中華電信-成功服務中心","LANDMARKAD":"1001402","ADDRESS":"台東縣成功鎮中華路79號","TEL":"123或0800-080-123","COUNTYNAME":"台東縣","TOWNNAME":"成功鎮","MARKTYPE":"994","Class":"4"}},{"type":"Feature","id":2754,"geometry":{"type":"Point","coordinates":[121.3798940716087,23.100380988402524]},"properties":{"OBJECTID":2754,"LANDMARKID":"1001400000748","LANDMARKCO":"603","LANDMARKNA":"慶濱大旅社","LANDMARKAD":"1001402","ADDRESS":"台東縣成功鎮中山路10號","TEL":"089-851103","COUNTYNAME":"台東縣","TOWNNAME":"成功鎮","MARKTYPE":"996","Class":"6"}},{"type":"Feature","id":2755,"geometry":{"type":"Point","coordinates":[121.37754725497233,23.100448995727024]},"properties":{"OBJECTID":2755,"LANDMARKID":"1001400000749","LANDMARKCO":"603","LANDMARKNA":"東海旅社","LANDMARKAD":"1001402","ADDRESS":"台東縣成功鎮民族路24號","TEL":"089-851037","COUNTYNAME":"台東縣","TOWNNAME":"成功鎮","MARKTYPE":"996","Class":"6"}},{"type":"Feature","id":2756,"geometry":{"type":"Point","coordinates":[121.40052017947259,23.171857745126559]},"properties":{"OBJECTID":2756,"LANDMARKID":"1001400000750","LANDMARKCO":"603","LANDMARKNA":"大統休閒旅館","LANDMARKAD":"1001402","ADDRESS":"台東縣成功鎮石傘路36之2號1至4樓","TEL":"089-871728","COUNTYNAME":"台東縣","TOWNNAME":"成功鎮","MARKTYPE":"996","Class":"6"}},{"type":"Feature","id":2757,"geometry":{"type":"Point","coordinates":[121.41669262985825,23.124699834715635]},"properties":{"OBJECTID":2757,"LANDMARKID":"1001400000606","LANDMARKCO":"503","LANDMARKNA":"三仙台","LANDMARKAD":"1001402","ADDRESS":"台東縣成功鎮","TEL":" ","COUNTYNAME":"台東縣","TOWNNAME":"成功鎮","MARKTYPE":"995","Class":"5"}},{"type":"Feature","id":2758,"geometry":{"type":"Point","coordinates":[121.30489352905262,22.976810903648374]},"properties":{"OBJECTID":2758,"LANDMARKID":"1001400000607","LANDMARKCO":"503","LANDMARKNA":"東河橋休憩區","LANDMARKAD":"1001402","ADDRESS":"台東縣成功鎮","TEL":" ","COUNTYNAME":"台東縣","TOWNNAME":"成功鎮","MARKTYPE":"995","Class":"5"}},{"type":"Feature","id":2759,"geometry":{"type":"Point","coordinates":[121.40351015973128,23.177472455304262]},"properties":{"OBJECTID":2759,"LANDMARKID":"1001400000608","LANDMARKCO":"503","LANDMARKNA":"石雨傘","LANDMARKAD":"1001402","ADDRESS":"台東縣成功鎮","TEL":" ","COUNTYNAME":"台東縣","TOWNNAME":"成功鎮","MARKTYPE":"995","Class":"5"}},{"type":"Feature","id":2760,"geometry":{"type":"Point","coordinates":[121.33326870576491,23.029512136004175]},"properties":{"OBJECTID":2760,"LANDMARKID":"1001400000609","LANDMARKCO":"503","LANDMARKNA":"東部海岸風景特定區","LANDMARKAD":"1001402","ADDRESS":"台東縣成功鎮信義里新村路25號","TEL":" ","COUNTYNAME":"台東縣","TOWNNAME":"成功鎮","MARKTYPE":"995","Class":"5"}},{"type":"Feature","id":2761,"geometry":{"type":"Point","coordinates":[121.41028396372418,23.122012823084464]},"properties":{"OBJECTID":2761,"LANDMARKID":"1001400000610","LANDMARKCO":"503","LANDMARKNA":"三仙台遊憩區","LANDMARKAD":"1001402","ADDRESS":"台東縣成功鎮","TEL":" ","COUNTYNAME":"台東縣","TOWNNAME":"成功鎮","MARKTYPE":"995","Class":"5"}},{"type":"Feature","id":2762,"geometry":{"type":"Point","coordinates":[121.38480759710515,23.09840249343765]},"properties":{"OBJECTID":2762,"LANDMARKID":"1001400000507","LANDMARKCO":"405","LANDMARKNA":"中油加油站-新東漁船站","LANDMARKAD":"1001402","ADDRESS":"台東縣成功鎮忠仁里港邊路1之10號","TEL":"089-220731","COUNTYNAME":"台東縣","TOWNNAME":"成功鎮","MARKTYPE":"994","Class":"4"}},{"type":"Feature","id":2763,"geometry":{"type":"Point","coordinates":[121.2127751950426,23.120681237211869]},"properties":{"OBJECTID":2763,"LANDMARKID":"1001400000508","LANDMARKCO":"405","LANDMARKNA":"中油加油站-池上站(中油直營)","LANDMARKAD":"1001406","ADDRESS":"台東縣池上鄉福源村中山路85號","TEL":"089-862634","COUNTYNAME":"台東縣","TOWNNAME":"池上鄉","MARKTYPE":"994","Class":"4"}},{"type":"Feature","id":2764,"geometry":{"type":"Point","coordinates":[121.21225169614877,23.093621986947262]},"properties":{"OBJECTID":2764,"LANDMARKID":"1001400000643","LANDMARKCO":"506","LANDMARKNA":"池上蠶桑休閒農場","LANDMARKAD":"1001406","ADDRESS":"台東縣池上鄉萬安村7鄰27號","TEL":"089-864973","COUNTYNAME":"台東縣","TOWNNAME":"池上鄉","MARKTYPE":"995","Class":"5"}},{"type":"Feature","id":2765,"geometry":{"type":"Point","coordinates":[121.21801429784971,23.124263209837519]},"properties":{"OBJECTID":2765,"LANDMARKID":"1001400000578","LANDMARKCO":"408","LANDMARKNA":"郵局-池上郵局","LANDMARKAD":"1001406","ADDRESS":"台東縣池上鄉中山路201號","TEL":"(089)862-071","COUNTYNAME":"台東縣","TOWNNAME":"池上鄉","MARKTYPE":"994","Class":"4"}},{"type":"Feature","id":2766,"geometry":{"type":"Point","coordinates":[121.21937252881388,23.124876288132807]},"properties":{"OBJECTID":2766,"LANDMARKID":"1001400000598","LANDMARKCO":"409","LANDMARKNA":"台東縣池上鄉農會","LANDMARKAD":"1001406","ADDRESS":"台東縣池上鄉中山路302號","TEL":"089-862201","COUNTYNAME":"台東縣","TOWNNAME":"池上鄉","MARKTYPE":"994","Class":"4"}},{"type":"Feature","id":2767,"geometry":{"type":"Point","coordinates":[121.2107494812235,23.121322909783554]},"properties":{"OBJECTID":2767,"LANDMARKID":"1001400000561","LANDMARKCO":"406","LANDMARKNA":"三號公園","LANDMARKAD":"1001406","ADDRESS":"台東縣池上鄉","TEL":" ","COUNTYNAME":"台東縣","TOWNNAME":"池上鄉","MARKTYPE":"994","Class":"4"}},{"type":"Feature","id":2768,"geometry":{"type":"Point","coordinates":[121.21698578428958,23.122848196980371]},"properties":{"OBJECTID":2768,"LANDMARKID":"1001400000493","LANDMARKCO":"404","LANDMARKNA":"台灣省自來水池上營運所","LANDMARKAD":"1001406","ADDRESS":"台東縣池上鄉中山路198號","TEL":" ","COUNTYNAME":"台東縣","TOWNNAME":"池上鄉","MARKTYPE":"994","Class":"4"}},{"type":"Feature","id":2769,"geometry":{"type":"Point","coordinates":[121.23078404111939,23.127428965262926]},"properties":{"OBJECTID":2769,"LANDMARKID":"1001400000506","LANDMARKCO":"405","LANDMARKNA":"台塑加油站-富池站(台塑)","LANDMARKAD":"1001406","ADDRESS":"台東縣池上鄉慶豐村慶豐65-5號","TEL":"08-9865008","COUNTYNAME":"台東縣","TOWNNAME":"池上鄉","MARKTYPE":"994","Class":"4"}},{"type":"Feature","id":2770,"geometry":{"type":"Point","coordinates":[121.21479507847972,23.121738398053761]},"properties":{"OBJECTID":2770,"LANDMARKID":"1001400000078","LANDMARKCO":"103","LANDMARKNA":"台東縣池上鄉衛生所","LANDMARKAD":"1001406","ADDRESS":"台東縣池上鄉中山路104號","TEL":"089-862171","COUNTYNAME":"台東縣","TOWNNAME":"池上鄉","MARKTYPE":"991","Class":"1"}},{"type":"Feature","id":2771,"geometry":{"type":"Point","coordinates":[121.21526103748775,23.12227895583873]},"properties":{"OBJECTID":2771,"LANDMARKID":"1001400000207","LANDMARKCO":"108","LANDMARKNA":"台東縣池上鄉公所","LANDMARKAD":"1001406","ADDRESS":"台東縣池上鄉中山路101號","TEL":"089-862041","COUNTYNAME":"台東縣","TOWNNAME":"池上鄉","MARKTYPE":"991","Class":"1"}},{"type":"Feature","id":2772,"geometry":{"type":"Point","coordinates":[121.21530423525914,23.122188538076465]},"properties":{"OBJECTID":2772,"LANDMARKID":"1001400000079","LANDMARKCO":"103","LANDMARKNA":"台東縣池上鄉鄉民代表會","LANDMARKAD":"1001406","ADDRESS":"台東縣池上鄉中山路101號","TEL":"089-862059","COUNTYNAME":"台東縣","TOWNNAME":"池上鄉","MARKTYPE":"991","Class":"1"}},{"type":"Feature","id":2773,"geometry":{"type":"Point","coordinates":[121.2185004098403,23.124621787813027]},"properties":{"OBJECTID":2773,"LANDMARKID":"1001400000149","LANDMARKCO":"107","LANDMARKNA":"台東縣消防局池上消防分隊","LANDMARKAD":"1001406","ADDRESS":"台東縣池上鄉東欣路119號","TEL":"089-862669","COUNTYNAME":"台東縣","TOWNNAME":"池上鄉","MARKTYPE":"991","Class":"1"}},{"type":"Feature","id":2774,"geometry":{"type":"Point","coordinates":[121.21862763425194,23.124711740918908]},"properties":{"OBJECTID":2774,"LANDMARKID":"1001400000150","LANDMARKCO":"107","LANDMARKNA":"台東縣警察局池上分駐所","LANDMARKAD":"1001406","ADDRESS":"台東縣池上鄉中山路211號","TEL":"089-862004","COUNTYNAME":"台東縣","TOWNNAME":"池上鄉","MARKTYPE":"991","Class":"1"}},{"type":"Feature","id":2775,"geometry":{"type":"Point","coordinates":[121.2187448021416,23.124711415926459]},"properties":{"OBJECTID":2775,"LANDMARKID":"1001400000101","LANDMARKCO":"106","LANDMARKNA":"台東縣池上鄉戶政事務所","LANDMARKAD":"1001406","ADDRESS":"台東縣池上鄉新興村東欣路118號","TEL":"089-862034","COUNTYNAME":"台東縣","TOWNNAME":"池上鄉","MARKTYPE":"991","Class":"1"}},{"type":"Feature","id":2776,"geometry":{"type":"Point","coordinates":[121.22029428549011,23.093555490820719]},"properties":{"OBJECTID":2776,"LANDMARKID":"1001400000148","LANDMARKCO":"107","LANDMARKNA":"台東縣警察局錦安派出所","LANDMARKAD":"1001406","ADDRESS":"台東縣池上鄉萬安村12號","TEL":"089-862344","COUNTYNAME":"台東縣","TOWNNAME":"池上鄉","MARKTYPE":"991","Class":"1"}},{"type":"Feature","id":2777,"geometry":{"type":"Point","coordinates":[121.21443617958582,23.119149872170755]},"properties":{"OBJECTID":2777,"LANDMARKID":"1001400000379","LANDMARKCO":"204","LANDMARKNA":"台東縣立圖書館池上分館","LANDMARKAD":"1001406","ADDRESS":"台東縣池上鄉大埔村5鄰49之1號","TEL":" ","COUNTYNAME":"台東縣","TOWNNAME":"池上鄉","MARKTYPE":"992","Class":"2"}},{"type":"Feature","id":2778,"geometry":{"type":"Point","coordinates":[121.21468975813191,23.12517029016707]},"properties":{"OBJECTID":2778,"LANDMARKID":"1001400000301","LANDMARKCO":"203","LANDMARKNA":"縣立福原國小","LANDMARKAD":"1001406","ADDRESS":"台東縣池上鄉福原村中華路17號","TEL":"089-862017","COUNTYNAME":"台東縣","TOWNNAME":"池上鄉","MARKTYPE":"992","Class":"2"}},{"type":"Feature","id":2779,"geometry":{"type":"Point","coordinates":[121.20445562102655,23.115881337136493]},"properties":{"OBJECTID":2779,"LANDMARKID":"1001400000302","LANDMARKCO":"203","LANDMARKNA":"縣立池上國中","LANDMARKAD":"1001406","ADDRESS":"台東縣池上鄉新興村88號","TEL":"089-862040","COUNTYNAME":"台東縣","TOWNNAME":"池上鄉","MARKTYPE":"992","Class":"2"}},{"type":"Feature","id":2780,"geometry":{"type":"Point","coordinates":[121.19535835478474,23.043378108171183]},"properties":{"OBJECTID":2780,"LANDMARKID":"1001400000303","LANDMARKCO":"203","LANDMARKNA":"縣立萬安國小振興分校","LANDMARKAD":"1001406","ADDRESS":"台東縣池上鄉振興村6鄰36號","TEL":"089-951026","COUNTYNAME":"台東縣","TOWNNAME":"池上鄉","MARKTYPE":"992","Class":"2"}},{"type":"Feature","id":2781,"geometry":{"type":"Point","coordinates":[121.21875299141604,23.09527174851274]},"properties":{"OBJECTID":2781,"LANDMARKID":"1001400000304","LANDMARKCO":"203","LANDMARKNA":"縣立萬安國小","LANDMARKAD":"1001406","ADDRESS":"台東縣池上鄉萬安村1鄰5之2號","TEL":"089-862371","COUNTYNAME":"台東縣","TOWNNAME":"池上鄉","MARKTYPE":"992","Class":"2"}},{"type":"Feature","id":2782,"geometry":{"type":"Point","coordinates":[121.23060517395238,23.125239145333754]},"properties":{"OBJECTID":2782,"LANDMARKID":"1001400000305","LANDMARKCO":"203","LANDMARKNA":"縣立大坡國小","LANDMARKAD":"1001406","ADDRESS":"台東縣池上鄉慶豐村8鄰87號","TEL":"089-862664","COUNTYNAME":"台東縣","TOWNNAME":"池上鄉","MARKTYPE":"992","Class":"2"}},{"type":"Feature","id":2783,"geometry":{"type":"Point","coordinates":[121.21695803434154,23.123505613217166]},"properties":{"OBJECTID":2783,"LANDMARKID":"1001400000421","LANDMARKCO":"302","LANDMARKNA":"鼎東汽車客運池上站","LANDMARKAD":"1001406","ADDRESS":"台東縣池上鄉","TEL":" ","COUNTYNAME":"台東縣","TOWNNAME":"池上鄉","MARKTYPE":"993","Class":"302"}},{"type":"Feature","id":2784,"geometry":{"type":"Point","coordinates":[121.21948047458666,23.125995253987593]},"properties":{"OBJECTID":2784,"LANDMARKID":"1001400000402","LANDMARKCO":"301","LANDMARKNA":"池上火車站","LANDMARKAD":"1001406","ADDRESS":"台東縣池上鄉鐵花路30號","TEL":"089-862097","COUNTYNAME":"台東縣","TOWNNAME":"池上鄉","MARKTYPE":"993","Class":"301"}},{"type":"Feature","id":2785,"geometry":{"type":"Point","coordinates":[121.21538330453585,23.122413033532801]},"properties":{"OBJECTID":2785,"LANDMARKID":"1001400000485","LANDMARKCO":"402","LANDMARKNA":"中華電信-池上服務中心","LANDMARKAD":"1001406","ADDRESS":"台東縣池上鄉中山路103之1號","TEL":"123或0800-080-123","COUNTYNAME":"台東縣","TOWNNAME":"池上鄉","MARKTYPE":"994","Class":"4"}},{"type":"Feature","id":2786,"geometry":{"type":"Point","coordinates":[121.21963034452092,23.122433808699206]},"properties":{"OBJECTID":2786,"LANDMARKID":"1001400000766","LANDMARKCO":"604","LANDMARKNA":"燕之家民宿","LANDMARKAD":"1001406","ADDRESS":"台東縣池上鄉福原村仁愛路189號","TEL":"089-865690","COUNTYNAME":"台東縣","TOWNNAME":"池上鄉","MARKTYPE":"996","Class":"6"}},{"type":"Feature","id":2787,"geometry":{"type":"Point","coordinates":[121.22241213360486,23.12412379914085]},"properties":{"OBJECTID":2787,"LANDMARKID":"1001400000767","LANDMARKCO":"604","LANDMARKNA":"池畔驛站","LANDMARKAD":"1001406","ADDRESS":"台東縣池上鄉福原村仁愛路320號","TEL":"089-865937","COUNTYNAME":"台東縣","TOWNNAME":"池上鄉","MARKTYPE":"996","Class":"6"}},{"type":"Feature","id":2788,"geometry":{"type":"Point","coordinates":[121.21911904155233,23.122863679522982]},"properties":{"OBJECTID":2788,"LANDMARKID":"1001400000768","LANDMARKCO":"604","LANDMARKNA":"居之安民宿","LANDMARKAD":"1001406","ADDRESS":"台東縣池上鄉福原村忠孝路219號","TEL":"0932-661703","COUNTYNAME":"台東縣","TOWNNAME":"池上鄉","MARKTYPE":"996","Class":"6"}},{"type":"Feature","id":2789,"geometry":{"type":"Point","coordinates":[121.22163131212939,23.125190008802122]},"properties":{"OBJECTID":2789,"LANDMARKID":"1001400000769","LANDMARKCO":"604","LANDMARKNA":"岑池軒民宿","LANDMARKAD":"1001406","ADDRESS":"台東縣池上鄉福原村慶福路52巷2號","TEL":"089-862100","COUNTYNAME":"台東縣","TOWNNAME":"池上鄉","MARKTYPE":"996","Class":"6"}},{"type":"Feature","id":2790,"geometry":{"type":"Point","coordinates":[121.22321643498468,23.120253498743516]},"properties":{"OBJECTID":2790,"LANDMARKID":"1001400000615","LANDMARKCO":"503","LANDMARKNA":"大坡池風景區","LANDMARKAD":"1001406","ADDRESS":"台東縣池上鄉","TEL":" ","COUNTYNAME":"台東縣","TOWNNAME":"池上鄉","MARKTYPE":"995","Class":"5"}},{"type":"Feature","id":2791,"geometry":{"type":"Point","coordinates":[121.19665614109581,23.119200721213801]},"properties":{"OBJECTID":2791,"LANDMARKID":"1001400000634","LANDMARKCO":"505","LANDMARKNA":"池上牧野渡假村","LANDMARKAD":"1001406","ADDRESS":"台東縣池上鄉新興村110號","TEL":" ","COUNTYNAME":"台東縣","TOWNNAME":"池上鄉","MARKTYPE":"995","Class":"5"}},{"type":"Feature","id":2792,"geometry":{"type":"Point","coordinates":[121.16345157317861,23.045748632331478]},"properties":{"OBJECTID":2792,"LANDMARKID":"1001400000520","LANDMARKCO":"405","LANDMARKNA":"中油加油站-關山站(中油直營)","LANDMARKAD":"1001403","ADDRESS":"台東縣關山鎮和平路24號","TEL":"089-811124","COUNTYNAME":"台東縣","TOWNNAME":"關山鎮","MARKTYPE":"994","Class":"4"}},{"type":"Feature","id":2793,"geometry":{"type":"Point","coordinates":[121.16451049675103,23.049193269977028]},"properties":{"OBJECTID":2793,"LANDMARKID":"1001400000467","LANDMARKCO":"401","LANDMARKNA":"佛教慈濟綜合醫院-關山院區","LANDMARKAD":"1001403","ADDRESS":"台東縣關山鎮和平路125號之5","TEL":"089-814880","COUNTYNAME":"台東縣","TOWNNAME":"關山鎮","MARKTYPE":"994","Class":"4"}},{"type":"Feature","id":2794,"geometry":{"type":"Point","coordinates":[121.1542192960467,23.007906758333402]},"properties":{"OBJECTID":2794,"LANDMARKID":"1001400000635","LANDMARKCO":"506","LANDMARKNA":"香丁觀光果園","LANDMARKAD":"1001403","ADDRESS":"台東縣關山鎮月眉國小西側","TEL":"089-811680","COUNTYNAME":"台東縣","TOWNNAME":"關山鎮","MARKTYPE":"995","Class":"5"}},{"type":"Feature","id":2795,"geometry":{"type":"Point","coordinates":[121.1606865430736,23.047679693003378]},"properties":{"OBJECTID":2795,"LANDMARKID":"1001400000581","LANDMARKCO":"408","LANDMARKNA":"郵局-關山郵局","LANDMARKAD":"1001403","ADDRESS":"台東縣關山鎮中正路25號","TEL":"(089)811-116","COUNTYNAME":"台東縣","TOWNNAME":"關山鎮","MARKTYPE":"994","Class":"4"}},{"type":"Feature","id":2796,"geometry":{"type":"Point","coordinates":[121.16425584690708,23.047871785352918]},"properties":{"OBJECTID":2796,"LANDMARKID":"1001400000596","LANDMARKCO":"409","LANDMARKNA":"台東縣關山鎮農會","LANDMARKAD":"1001403","ADDRESS":"台東縣關山鎮和平路78號","TEL":"089-811009","COUNTYNAME":"台東縣","TOWNNAME":"關山鎮","MARKTYPE":"994","Class":"4"}},{"type":"Feature","id":2797,"geometry":{"type":"Point","coordinates":[121.16226942733316,23.051515400740655]},"properties":{"OBJECTID":2797,"LANDMARKID":"1001400000558","LANDMARKCO":"406","LANDMARKNA":"豐泉公園","LANDMARKAD":"1001403","ADDRESS":"台東縣關山鎮","TEL":" ","COUNTYNAME":"台東縣","TOWNNAME":"關山鎮","MARKTYPE":"994","Class":"4"}},{"type":"Feature","id":2798,"geometry":{"type":"Point","coordinates":[121.16136297145277,23.044771331570473]},"properties":{"OBJECTID":2798,"LANDMARKID":"1001400000559","LANDMARKCO":"406","LANDMARKNA":"里攏公園","LANDMARKAD":"1001403","ADDRESS":"台東縣關山鎮","TEL":" ","COUNTYNAME":"台東縣","TOWNNAME":"關山鎮","MARKTYPE":"994","Class":"4"}},{"type":"Feature","id":2799,"geometry":{"type":"Point","coordinates":[121.17229854481072,23.038246994668455]},"properties":{"OBJECTID":2799,"LANDMARKID":"1001400000560","LANDMARKCO":"406","LANDMARKNA":"關山環保親水公園","LANDMARKAD":"1001403","ADDRESS":"台東縣關山鎮中山路54號","TEL":" ","COUNTYNAME":"台東縣","TOWNNAME":"關山鎮","MARKTYPE":"994","Class":"4"}},{"type":"Feature","id":2800,"geometry":{"type":"Point","coordinates":[121.17600953456716,23.079518573646393]},"properties":{"OBJECTID":2800,"LANDMARKID":"1001400000521","LANDMARKCO":"405","LANDMARKNA":"台塑加油站-德高站(台塑)","LANDMARKAD":"1001403","ADDRESS":"台東縣關山鎮德高里永豐70-3號","TEL":"08-9930018","COUNTYNAME":"台東縣","TOWNNAME":"關山鎮","MARKTYPE":"994","Class":"4"}}]}