{"type":"FeatureCollection","features":[{"type":"Feature","id":22801,"geometry":{"type":"Point","coordinates":[121.81838149748118,24.671643977150399]},"properties":{"OBJECTID":22801,"LANDMARKID":"1000200000932","LANDMARKCO":"604","LANDMARKNA":"菁仔地民宿","LANDMARKAD":"1000209","ADDRESS":"宜蘭縣五結鄉協和村親河路1段180巷72弄11號","TEL":"03-9504431","COUNTYNAME":"宜蘭縣","TOWNNAME":"五結鄉","MARKTYPE":"996","Class":"6"}},{"type":"Feature","id":22826,"geometry":{"type":"Point","coordinates":[121.80661351986487,24.673760663676095]},"properties":{"OBJECTID":22826,"LANDMARKID":"1000200000957","LANDMARKCO":"604","LANDMARKNA":"七里香民宿","LANDMARKAD":"1000209","ADDRESS":"宜蘭縣五結鄉協和村親河路2段198號","TEL":"0919-215809","COUNTYNAME":"宜蘭縣","TOWNNAME":"五結鄉","MARKTYPE":"996","Class":"6"}},{"type":"Feature","id":22827,"geometry":{"type":"Point","coordinates":[121.80615081214061,24.673892031632988]},"properties":{"OBJECTID":22827,"LANDMARKID":"1000200000958","LANDMARKCO":"604","LANDMARKNA":"大姊的家民宿","LANDMARKAD":"1000209","ADDRESS":"宜蘭縣五結鄉協和村親河路2段218巷5號","TEL":"03-9500256","COUNTYNAME":"宜蘭縣","TOWNNAME":"五結鄉","MARKTYPE":"996","Class":"6"}},{"type":"Feature","id":22828,"geometry":{"type":"Point","coordinates":[121.80378876604672,24.673071855433786]},"properties":{"OBJECTID":22828,"LANDMARKID":"1000200000959","LANDMARKCO":"604","LANDMARKNA":"好樂家民宿","LANDMARKAD":"1000209","ADDRESS":"宜蘭縣五結鄉協和村親河路2段269號","TEL":"03-9601667","COUNTYNAME":"宜蘭縣","TOWNNAME":"五結鄉","MARKTYPE":"996","Class":"6"}},{"type":"Feature","id":22829,"geometry":{"type":"Point","coordinates":[121.80330026629807,24.671343704007068]},"properties":{"OBJECTID":22829,"LANDMARKID":"1000200000960","LANDMARKCO":"604","LANDMARKNA":"指月軒民宿","LANDMARKAD":"1000209","ADDRESS":"宜蘭縣五結鄉協和村親河路2段291巷51弄20號","TEL":"03-9606358","COUNTYNAME":"宜蘭縣","TOWNNAME":"五結鄉","MARKTYPE":"996","Class":"6"}},{"type":"Feature","id":22830,"geometry":{"type":"Point","coordinates":[121.80336930527963,24.671333937322476]},"properties":{"OBJECTID":22830,"LANDMARKID":"1000200000961","LANDMARKCO":"604","LANDMARKNA":"喜樂的家民宿","LANDMARKAD":"1000209","ADDRESS":"宜蘭縣五結鄉協和村親河路2段291巷51弄22號","TEL":"03-9606091","COUNTYNAME":"宜蘭縣","TOWNNAME":"五結鄉","MARKTYPE":"996","Class":"6"}},{"type":"Feature","id":22831,"geometry":{"type":"Point","coordinates":[121.80267870305006,24.671407757704529]},"properties":{"OBJECTID":22831,"LANDMARKID":"1000200000962","LANDMARKCO":"604","LANDMARKNA":"水雲山莊民宿","LANDMARKAD":"1000209","ADDRESS":"宜蘭縣五結鄉協和村親河路2段291巷51弄6號","TEL":"03-9508388","COUNTYNAME":"宜蘭縣","TOWNNAME":"五結鄉","MARKTYPE":"996","Class":"6"}},{"type":"Feature","id":22832,"geometry":{"type":"Point","coordinates":[121.81330280866682,24.676688692158145]},"properties":{"OBJECTID":22832,"LANDMARKID":"1000200000963","LANDMARKCO":"604","LANDMARKNA":"地中海民宿","LANDMARKAD":"1000209","ADDRESS":"宜蘭縣五結鄉協和村協和路25之50號","TEL":"03-9605388","COUNTYNAME":"宜蘭縣","TOWNNAME":"五結鄉","MARKTYPE":"996","Class":"6"}},{"type":"Feature","id":22833,"geometry":{"type":"Point","coordinates":[121.80962726844615,24.67301184809531]},"properties":{"OBJECTID":22833,"LANDMARKID":"1000200000964","LANDMARKCO":"604","LANDMARKNA":"夏日小徑民宿","LANDMARKAD":"1000209","ADDRESS":"宜蘭縣五結鄉協和村親河路2段103巷1弄16號","TEL":"03-9600669","COUNTYNAME":"宜蘭縣","TOWNNAME":"五結鄉","MARKTYPE":"996","Class":"6"}},{"type":"Feature","id":22834,"geometry":{"type":"Point","coordinates":[121.81859455274645,24.700206668123581]},"properties":{"OBJECTID":22834,"LANDMARKID":"1000200000965","LANDMARKCO":"604","LANDMARKNA":"心適軒宜蘭民宿","LANDMARKAD":"1000209","ADDRESS":"宜蘭縣五結鄉錦眾村大眾北路15-7號","TEL":"03-9605596","COUNTYNAME":"宜蘭縣","TOWNNAME":"五結鄉","MARKTYPE":"996","Class":"6"}},{"type":"Feature","id":22835,"geometry":{"type":"Point","coordinates":[121.81510496582442,24.682046905187846]},"properties":{"OBJECTID":22835,"LANDMARKID":"1000200000966","LANDMARKCO":"604","LANDMARKNA":"矜惜民宿","LANDMARKAD":"1000209","ADDRESS":"宜蘭縣五結鄉孝威村孝威南路23-30號","TEL":"03-9503427","COUNTYNAME":"宜蘭縣","TOWNNAME":"五結鄉","MARKTYPE":"996","Class":"6"}},{"type":"Feature","id":22836,"geometry":{"type":"Point","coordinates":[121.83216788543609,24.692685418562938]},"properties":{"OBJECTID":22836,"LANDMARKID":"1000200000967","LANDMARKCO":"604","LANDMARKNA":"浮線發想之島","LANDMARKAD":"1000209","ADDRESS":"宜蘭縣五結鄉錦眾村五結路1段376巷2號","TEL":"03-9606090","COUNTYNAME":"宜蘭縣","TOWNNAME":"五結鄉","MARKTYPE":"996","Class":"6"}},{"type":"Feature","id":22837,"geometry":{"type":"Point","coordinates":[121.80980707387829,24.699426380057567]},"properties":{"OBJECTID":22837,"LANDMARKID":"1000200000968","LANDMARKCO":"604","LANDMARKNA":"設計師的家休閒民宿","LANDMARKAD":"1000209","ADDRESS":"宜蘭縣五結鄉孝威村孝威一路138號","TEL":"03-9506568","COUNTYNAME":"宜蘭縣","TOWNNAME":"五結鄉","MARKTYPE":"996","Class":"6"}},{"type":"Feature","id":22838,"geometry":{"type":"Point","coordinates":[121.79611786558897,24.701439724981793]},"properties":{"OBJECTID":22838,"LANDMARKID":"1000200000969","LANDMARKCO":"604","LANDMARKNA":"輕塵別院","LANDMARKAD":"1000209","ADDRESS":"宜蘭縣五結鄉大吉村三吉路22-18號","TEL":"03-9606668","COUNTYNAME":"宜蘭縣","TOWNNAME":"五結鄉","MARKTYPE":"996","Class":"6"}},{"type":"Feature","id":22839,"geometry":{"type":"Point","coordinates":[121.80087821337671,24.691009124237482]},"properties":{"OBJECTID":22839,"LANDMARKID":"1000200000970","LANDMARKCO":"604","LANDMARKNA":"美麗人生民宿","LANDMARKAD":"1000209","ADDRESS":"宜蘭縣五結鄉大吉村大吉東路33巷6號","TEL":"02-82453778","COUNTYNAME":"宜蘭縣","TOWNNAME":"五結鄉","MARKTYPE":"996","Class":"6"}},{"type":"Feature","id":22840,"geometry":{"type":"Point","coordinates":[121.79871999473349,24.678937597521241]},"properties":{"OBJECTID":22840,"LANDMARKID":"1000200000971","LANDMARKCO":"604","LANDMARKNA":"太和民宿","LANDMARKAD":"1000209","ADDRESS":"宜蘭縣五結鄉福興村福和二路117號","TEL":"03-9504792","COUNTYNAME":"宜蘭縣","TOWNNAME":"五結鄉","MARKTYPE":"996","Class":"6"}},{"type":"Feature","id":22841,"geometry":{"type":"Point","coordinates":[121.81211309812142,24.672286437498702]},"properties":{"OBJECTID":22841,"LANDMARKID":"1000200000664","LANDMARKCO":"505","LANDMARKNA":"冬山河親水公園","LANDMARKAD":"1000209","ADDRESS":"宜蘭縣五結鄉親河路二段2號","TEL":" ","COUNTYNAME":"宜蘭縣","TOWNNAME":"五結鄉","MARKTYPE":"995","Class":"5"}},{"type":"Feature","id":22825,"geometry":{"type":"Point","coordinates":[121.80954706835594,24.672922428258939]},"properties":{"OBJECTID":22825,"LANDMARKID":"1000200000956","LANDMARKCO":"604","LANDMARKNA":"戀戀小屋","LANDMARKAD":"1000209","ADDRESS":"宜蘭縣五結鄉協和村親河路2段103巷3弄7號","TEL":"03-9500863","COUNTYNAME":"宜蘭縣","TOWNNAME":"五結鄉","MARKTYPE":"996","Class":"6"}},{"type":"Feature","id":22824,"geometry":{"type":"Point","coordinates":[121.80965669868658,24.694814550273779]},"properties":{"OBJECTID":22824,"LANDMARKID":"1000200000955","LANDMARKCO":"604","LANDMARKNA":"孝威豪華渡假民宿","LANDMARKAD":"1000209","ADDRESS":"宜蘭縣五結鄉孝威村五結路2段40號","TEL":"03-9501779","COUNTYNAME":"宜蘭縣","TOWNNAME":"五結鄉","MARKTYPE":"996","Class":"6"}},{"type":"Feature","id":22823,"geometry":{"type":"Point","coordinates":[121.81576035814649,24.689497015787705]},"properties":{"OBJECTID":22823,"LANDMARKID":"1000200000954","LANDMARKCO":"604","LANDMARKNA":"王子與公主的家","LANDMARKAD":"1000209","ADDRESS":"宜蘭縣五結鄉孝威村五結路1段419巷100號","TEL":"03-9603465","COUNTYNAME":"宜蘭縣","TOWNNAME":"五結鄉","MARKTYPE":"996","Class":"6"}},{"type":"Feature","id":22822,"geometry":{"type":"Point","coordinates":[121.82667864253504,24.66569421474356]},"properties":{"OBJECTID":22822,"LANDMARKID":"1000200000953","LANDMARKCO":"604","LANDMARKNA":"貝律民宿","LANDMARKAD":"1000209","ADDRESS":"宜蘭縣五結鄉成興村利寶路143號","TEL":"03-9604843","COUNTYNAME":"宜蘭縣","TOWNNAME":"五結鄉","MARKTYPE":"996","Class":"6"}},{"type":"Feature","id":22821,"geometry":{"type":"Point","coordinates":[121.79845013792202,24.687517256166853]},"properties":{"OBJECTID":22821,"LANDMARKID":"1000200000952","LANDMARKCO":"604","LANDMARKNA":"一家人民宿","LANDMARKAD":"1000209","ADDRESS":"宜蘭縣五結鄉五結村國民路國全巷1弄11號","TEL":"03-9602799","COUNTYNAME":"宜蘭縣","TOWNNAME":"五結鄉","MARKTYPE":"996","Class":"6"}},{"type":"Feature","id":22820,"geometry":{"type":"Point","coordinates":[121.80940875867728,24.672923918484123]},"properties":{"OBJECTID":22820,"LANDMARKID":"1000200000951","LANDMARKCO":"604","LANDMARKNA":"老船長","LANDMARKAD":"1000209","ADDRESS":"宜蘭縣五結鄉協和村親河路2段103巷3弄1號","TEL":"03-9600510","COUNTYNAME":"宜蘭縣","TOWNNAME":"五結鄉","MARKTYPE":"996","Class":"6"}},{"type":"Feature","id":22819,"geometry":{"type":"Point","coordinates":[121.80970501954215,24.672911696401314]},"properties":{"OBJECTID":22819,"LANDMARKID":"1000200000950","LANDMARKCO":"604","LANDMARKNA":"我家小屋民宿","LANDMARKAD":"1000209","ADDRESS":"宜蘭縣五結鄉協和村親河路2段103巷3弄13號","TEL":"03-9500863","COUNTYNAME":"宜蘭縣","TOWNNAME":"五結鄉","MARKTYPE":"996","Class":"6"}},{"type":"Feature","id":22818,"geometry":{"type":"Point","coordinates":[121.80965562380233,24.672912229010418]},"properties":{"OBJECTID":22818,"LANDMARKID":"1000200000949","LANDMARKCO":"604","LANDMARKNA":"戀戀小棧英式民宿","LANDMARKAD":"1000209","ADDRESS":"宜蘭縣五結鄉協和村親河路2段103巷3弄11號","TEL":"03-9500863","COUNTYNAME":"宜蘭縣","TOWNNAME":"五結鄉","MARKTYPE":"996","Class":"6"}},{"type":"Feature","id":22817,"geometry":{"type":"Point","coordinates":[121.80949883724163,24.673013232793057]},"properties":{"OBJECTID":22817,"LANDMARKID":"1000200000948","LANDMARKCO":"604","LANDMARKNA":"向日葵之民宿","LANDMARKAD":"1000209","ADDRESS":"宜蘭縣五結鄉協和村親河路2段103巷1弄8號","TEL":"03-9501313","COUNTYNAME":"宜蘭縣","TOWNNAME":"五結鄉","MARKTYPE":"996","Class":"6"}},{"type":"Feature","id":22816,"geometry":{"type":"Point","coordinates":[121.80949093924505,24.673166802376624]},"properties":{"OBJECTID":22816,"LANDMARKID":"1000200000947","LANDMARKCO":"604","LANDMARKNA":"依依不捨","LANDMARKAD":"1000209","ADDRESS":"宜蘭縣五結鄉協和村親河路2段103巷1弄7號","TEL":"03-9605606","COUNTYNAME":"宜蘭縣","TOWNNAME":"五結鄉","MARKTYPE":"996","Class":"6"}},{"type":"Feature","id":22815,"geometry":{"type":"Point","coordinates":[121.80942968235509,24.673013978352031]},"properties":{"OBJECTID":22815,"LANDMARKID":"1000200000946","LANDMARKCO":"604","LANDMARKNA":"逗點休閒民宿","LANDMARKAD":"1000209","ADDRESS":"宜蘭縣五結鄉協和村親河路2段103巷1弄6號","TEL":"03-9508463","COUNTYNAME":"宜蘭縣","TOWNNAME":"五結鄉","MARKTYPE":"996","Class":"6"}},{"type":"Feature","id":22814,"geometry":{"type":"Point","coordinates":[121.80938238356184,24.673177001511768]},"properties":{"OBJECTID":22814,"LANDMARKID":"1000200000945","LANDMARKCO":"604","LANDMARKNA":"浪漫滿屋民宿","LANDMARKAD":"1000209","ADDRESS":"宜蘭縣五結鄉協和村親河路2段103巷1弄3號","TEL":"03-9605606","COUNTYNAME":"宜蘭縣","TOWNNAME":"五結鄉","MARKTYPE":"996","Class":"6"}},{"type":"Feature","id":22813,"geometry":{"type":"Point","coordinates":[121.80938028657103,24.673014510871631]},"properties":{"OBJECTID":22813,"LANDMARKID":"1000200000944","LANDMARKCO":"604","LANDMARKNA":"河風精緻?民宿","LANDMARKAD":"1000209","ADDRESS":"宜蘭縣五結鄉協和村親河路2段103巷1弄2號","TEL":"03-9501313","COUNTYNAME":"宜蘭縣","TOWNNAME":"五結鄉","MARKTYPE":"996","Class":"6"}},{"type":"Feature","id":22812,"geometry":{"type":"Point","coordinates":[121.80973570738574,24.672992622132277]},"properties":{"OBJECTID":22812,"LANDMARKID":"1000200000943","LANDMARKCO":"604","LANDMARKNA":"念念不忘","LANDMARKAD":"1000209","ADDRESS":"宜蘭縣五結鄉協和村親河路2段103巷1弄20號","TEL":"03-9605606","COUNTYNAME":"宜蘭縣","TOWNNAME":"五結鄉","MARKTYPE":"996","Class":"6"}},{"type":"Feature","id":22811,"geometry":{"type":"Point","coordinates":[121.80277726439083,24.671388647333369]},"properties":{"OBJECTID":22811,"LANDMARKID":"1000200000942","LANDMARKCO":"604","LANDMARKNA":"熙緹歐風民宿","LANDMARKAD":"1000209","ADDRESS":"宜蘭縣五結鄉協和村親河路2段291巷51弄8號","TEL":"0930-857591","COUNTYNAME":"宜蘭縣","TOWNNAME":"五結鄉","MARKTYPE":"996","Class":"6"}},{"type":"Feature","id":22810,"geometry":{"type":"Point","coordinates":[121.80933298770709,24.673177533114661]},"properties":{"OBJECTID":22810,"LANDMARKID":"1000200000941","LANDMARKCO":"604","LANDMARKNA":"晴天娃娃民宿","LANDMARKAD":"1000209","ADDRESS":"宜蘭縣五結鄉協和村親河路2段103巷1弄1號","TEL":"03-9507912","COUNTYNAME":"宜蘭縣","TOWNNAME":"五結鄉","MARKTYPE":"996","Class":"6"}},{"type":"Feature","id":22809,"geometry":{"type":"Point","coordinates":[121.809696190176,24.672993048232787]},"properties":{"OBJECTID":22809,"LANDMARKID":"1000200000940","LANDMARKCO":"604","LANDMARKNA":"親水畫境民宿","LANDMARKAD":"1000209","ADDRESS":"宜蘭縣五結鄉協和村親河路2段103巷1弄18號","TEL":"03-9509490","COUNTYNAME":"宜蘭縣","TOWNNAME":"五結鄉","MARKTYPE":"996","Class":"6"}},{"type":"Feature","id":22808,"geometry":{"type":"Point","coordinates":[121.80956985721384,24.673156923615359]},"properties":{"OBJECTID":22808,"LANDMARKID":"1000200000939","LANDMARKCO":"604","LANDMARKNA":"薰衣草?民宿","LANDMARKAD":"1000209","ADDRESS":"宜蘭縣五結鄉協和村親河路2段103巷1弄11號","TEL":"03-9501313","COUNTYNAME":"宜蘭縣","TOWNNAME":"五結鄉","MARKTYPE":"996","Class":"6"}},{"type":"Feature","id":22807,"geometry":{"type":"Point","coordinates":[121.8095185963449,24.673013019767343]},"properties":{"OBJECTID":22807,"LANDMARKID":"1000200000938","LANDMARKCO":"604","LANDMARKNA":"冬山河左岸民宿","LANDMARKAD":"1000209","ADDRESS":"宜蘭縣五結鄉協和村親河路2段103巷1弄10號","TEL":"03-9507500","COUNTYNAME":"宜蘭縣","TOWNNAME":"五結鄉","MARKTYPE":"996","Class":"6"}},{"type":"Feature","id":22806,"geometry":{"type":"Point","coordinates":[121.81756054596664,24.668673613512503]},"properties":{"OBJECTID":22806,"LANDMARKID":"1000200000937","LANDMARKCO":"604","LANDMARKNA":"親河園民宿","LANDMARKAD":"1000209","ADDRESS":"宜蘭縣五結鄉協和村親河路1段220號","TEL":"0928-620079","COUNTYNAME":"宜蘭縣","TOWNNAME":"五結鄉","MARKTYPE":"996","Class":"6"}},{"type":"Feature","id":22805,"geometry":{"type":"Point","coordinates":[121.81726476389058,24.668721975440818]},"properties":{"OBJECTID":22805,"LANDMARKID":"1000200000936","LANDMARKCO":"604","LANDMARKNA":"緣賓民宿","LANDMARKAD":"1000209","ADDRESS":"宜蘭縣五結鄉協和村親河路1段220-5號","TEL":"0921-933815","COUNTYNAME":"宜蘭縣","TOWNNAME":"五結鄉","MARKTYPE":"996","Class":"6"}},{"type":"Feature","id":22804,"geometry":{"type":"Point","coordinates":[121.8174324718893,24.668702092916767]},"properties":{"OBJECTID":22804,"LANDMARKID":"1000200000935","LANDMARKCO":"604","LANDMARKNA":"河堤畫境民宿","LANDMARKAD":"1000209","ADDRESS":"宜蘭縣五結鄉協和村親河路1段220-2號","TEL":"03-9503228","COUNTYNAME":"宜蘭縣","TOWNNAME":"五結鄉","MARKTYPE":"996","Class":"6"}},{"type":"Feature","id":22803,"geometry":{"type":"Point","coordinates":[121.81760970564289,24.668655021457557]},"properties":{"OBJECTID":22803,"LANDMARKID":"1000200000934","LANDMARKCO":"604","LANDMARKNA":"虹橋畔民宿","LANDMARKAD":"1000209","ADDRESS":"宜蘭縣五結鄉協和村親河路1段218號","TEL":"03-9600888","COUNTYNAME":"宜蘭縣","TOWNNAME":"五結鄉","MARKTYPE":"996","Class":"6"}},{"type":"Feature","id":22802,"geometry":{"type":"Point","coordinates":[121.81774730441353,24.668599352249529]},"properties":{"OBJECTID":22802,"LANDMARKID":"1000200000933","LANDMARKCO":"604","LANDMARKNA":"古風城民宿","LANDMARKAD":"1000209","ADDRESS":"宜蘭縣五結鄉協和村親河路1段210號","TEL":"03-9603238","COUNTYNAME":"宜蘭縣","TOWNNAME":"五結鄉","MARKTYPE":"996","Class":"6"}},{"type":"Feature","id":22842,"geometry":{"type":"Point","coordinates":[121.77564556957283,24.701706777448909]},"properties":{"OBJECTID":22842,"LANDMARKID":"1000200000723","LANDMARKCO":"510","LANDMARKNA":"羅東高爾夫練習場","LANDMARKAD":"1000209","ADDRESS":"宜蘭縣五結鄉三結西路32號","TEL":"039-506502","COUNTYNAME":"宜蘭縣","TOWNNAME":"五結鄉","MARKTYPE":"995","Class":"5"}},{"type":"Feature","id":22867,"geometry":{"type":"Point","coordinates":[121.70305328118087,24.664950186791799]},"properties":{"OBJECTID":22867,"LANDMARKID":"1000200000190","LANDMARKCO":"201","LANDMARKNA":"聖母醫護管理專科學校","LANDMARKAD":"1000210","ADDRESS":"宜蘭縣三星鄉三星路二段265巷100號","TEL":"03-9897396","COUNTYNAME":"宜蘭縣","TOWNNAME":"三星鄉","MARKTYPE":"992","Class":"2"}},{"type":"Feature","id":22868,"geometry":{"type":"Point","coordinates":[121.65310869213383,24.668064548774137]},"properties":{"OBJECTID":22868,"LANDMARKID":"1000200000248","LANDMARKCO":"203","LANDMARKNA":"縣立三星國中","LANDMARKAD":"1000210","ADDRESS":"宜蘭縣三星鄉月眉村54號","TEL":"03-9982678","COUNTYNAME":"宜蘭縣","TOWNNAME":"三星鄉","MARKTYPE":"992","Class":"2"}},{"type":"Feature","id":22869,"geometry":{"type":"Point","coordinates":[121.65053859775195,24.666991374820586]},"properties":{"OBJECTID":22869,"LANDMARKID":"1000200000249","LANDMARKCO":"203","LANDMARKNA":"縣立三星國小","LANDMARKAD":"1000210","ADDRESS":"宜蘭縣三星鄉義德街12號","TEL":"03-9892026","COUNTYNAME":"宜蘭縣","TOWNNAME":"三星鄉","MARKTYPE":"992","Class":"2"}},{"type":"Feature","id":22870,"geometry":{"type":"Point","coordinates":[121.59700064784437,24.643280431122996]},"properties":{"OBJECTID":22870,"LANDMARKID":"1000200000250","LANDMARKCO":"203","LANDMARKNA":"縣立清水國小","LANDMARKAD":"1000210","ADDRESS":"宜蘭縣三星鄉","TEL":" ","COUNTYNAME":"宜蘭縣","TOWNNAME":"三星鄉","MARKTYPE":"992","Class":"2"}},{"type":"Feature","id":22871,"geometry":{"type":"Point","coordinates":[121.61023158155774,24.643844401561363]},"properties":{"OBJECTID":22871,"LANDMARKID":"1000200000435","LANDMARKCO":"303","LANDMARKNA":"長埤湖風景區停車場","LANDMARKAD":"1000210","ADDRESS":"宜蘭縣三星鄉三星路八段","TEL":" ","COUNTYNAME":"宜蘭縣","TOWNNAME":"三星鄉","MARKTYPE":"993","Class":"303"}},{"type":"Feature","id":22872,"geometry":{"type":"Point","coordinates":[121.65244959157417,24.666780457684027]},"properties":{"OBJECTID":22872,"LANDMARKID":"1000200000476","LANDMARKCO":"402","LANDMARKNA":"中華電信-三星服務中心","LANDMARKAD":"1000210","ADDRESS":"宜蘭縣三星鄉中山路26號","TEL":"(03)989-3891","COUNTYNAME":"宜蘭縣","TOWNNAME":"三星鄉","MARKTYPE":"994","Class":"4"}},{"type":"Feature","id":22873,"geometry":{"type":"Point","coordinates":[121.71856115960939,24.666361027319002]},"properties":{"OBJECTID":22873,"LANDMARKID":"1000200000981","LANDMARKCO":"604","LANDMARKNA":"祥居雅舍民宿","LANDMARKAD":"1000210","ADDRESS":"宜蘭縣三星鄉大隱村大埔路50-9號","TEL":"03-9890996","COUNTYNAME":"宜蘭縣","TOWNNAME":"三星鄉","MARKTYPE":"996","Class":"6"}},{"type":"Feature","id":22874,"geometry":{"type":"Point","coordinates":[121.71448915460172,24.676080222020964]},"properties":{"OBJECTID":22874,"LANDMARKID":"1000200000982","LANDMARKCO":"604","LANDMARKNA":"相思園民宿","LANDMARKAD":"1000210","ADDRESS":"宜蘭縣三星鄉大隱村大埔路108-19號","TEL":"03-9572828","COUNTYNAME":"宜蘭縣","TOWNNAME":"三星鄉","MARKTYPE":"996","Class":"6"}},{"type":"Feature","id":22875,"geometry":{"type":"Point","coordinates":[121.71480268713452,24.678073729732958]},"properties":{"OBJECTID":22875,"LANDMARKID":"1000200000983","LANDMARKCO":"604","LANDMARKNA":"宜蘭雅軒居","LANDMARKAD":"1000210","ADDRESS":"宜蘭縣三星鄉大隱村大埔路106之35號","TEL":"03-9899390","COUNTYNAME":"宜蘭縣","TOWNNAME":"三星鄉","MARKTYPE":"996","Class":"6"}},{"type":"Feature","id":22876,"geometry":{"type":"Point","coordinates":[121.71977951750884,24.670754470965406]},"properties":{"OBJECTID":22876,"LANDMARKID":"1000200000984","LANDMARKCO":"604","LANDMARKNA":"芯之園","LANDMARKAD":"1000210","ADDRESS":"宜蘭縣三星鄉大隱村三星路1段416巷7號","TEL":"03-9899902","COUNTYNAME":"宜蘭縣","TOWNNAME":"三星鄉","MARKTYPE":"996","Class":"6"}},{"type":"Feature","id":22877,"geometry":{"type":"Point","coordinates":[121.73255268514411,24.694007342896459]},"properties":{"OBJECTID":22877,"LANDMARKID":"1000200000985","LANDMARKCO":"604","LANDMARKNA":"阿娟的家民宿","LANDMARKAD":"1000210","ADDRESS":"宜蘭縣三星鄉大洲村大洲路47-6號","TEL":"03-9531884","COUNTYNAME":"宜蘭縣","TOWNNAME":"三星鄉","MARKTYPE":"996","Class":"6"}},{"type":"Feature","id":22878,"geometry":{"type":"Point","coordinates":[121.71587417233549,24.683538624728193]},"properties":{"OBJECTID":22878,"LANDMARKID":"1000200000986","LANDMARKCO":"604","LANDMARKNA":"品萱園民宿","LANDMARKAD":"1000210","ADDRESS":"宜蘭縣三星鄉大義村大義路43-6號","TEL":"03-9899000","COUNTYNAME":"宜蘭縣","TOWNNAME":"三星鄉","MARKTYPE":"996","Class":"6"}},{"type":"Feature","id":22879,"geometry":{"type":"Point","coordinates":[121.68426937965968,24.66765281607665]},"properties":{"OBJECTID":22879,"LANDMARKID":"1000200000987","LANDMARKCO":"604","LANDMARKNA":"花檣渡假別墅","LANDMARKAD":"1000210","ADDRESS":"宜蘭縣三星鄉拱照村三星路三段188號","TEL":"03-9891828","COUNTYNAME":"宜蘭縣","TOWNNAME":"三星鄉","MARKTYPE":"996","Class":"6"}},{"type":"Feature","id":22880,"geometry":{"type":"Point","coordinates":[121.72184173194108,24.694571567638025]},"properties":{"OBJECTID":22880,"LANDMARKID":"1000200000988","LANDMARKCO":"604","LANDMARKNA":"璞居","LANDMARKAD":"1000210","ADDRESS":"宜蘭縣三星鄉大義村大義路21-2號","TEL":"03-9898767","COUNTYNAME":"宜蘭縣","TOWNNAME":"三星鄉","MARKTYPE":"996","Class":"6"}},{"type":"Feature","id":22881,"geometry":{"type":"Point","coordinates":[121.70348343581489,24.695946770809783]},"properties":{"OBJECTID":22881,"LANDMARKID":"1000200000989","LANDMARKCO":"604","LANDMARKNA":"愛之屋渡假別墅","LANDMARKAD":"1000210","ADDRESS":"宜蘭縣三星鄉尚武村中興路79之6號","TEL":"0933-880066","COUNTYNAME":"宜蘭縣","TOWNNAME":"三星鄉","MARKTYPE":"996","Class":"6"}},{"type":"Feature","id":22882,"geometry":{"type":"Point","coordinates":[121.71703770320732,24.674094305826578]},"properties":{"OBJECTID":22882,"LANDMARKID":"1000200000990","LANDMARKCO":"604","LANDMARKNA":"北美鄉村渡假民宿","LANDMARKAD":"1000210","ADDRESS":"宜蘭縣三星鄉大隱村大埔路101-19號","TEL":"03-9890606","COUNTYNAME":"宜蘭縣","TOWNNAME":"三星鄉","MARKTYPE":"996","Class":"6"}},{"type":"Feature","id":22883,"geometry":{"type":"Point","coordinates":[121.74690526783253,24.6948248510406]},"properties":{"OBJECTID":22883,"LANDMARKID":"1000200000991","LANDMARKCO":"604","LANDMARKNA":"泰田農莊","LANDMARKAD":"1000210","ADDRESS":"宜蘭縣三星鄉尾塹村尾塹路17-18號","TEL":"03-9543123","COUNTYNAME":"宜蘭縣","TOWNNAME":"三星鄉","MARKTYPE":"996","Class":"6"}},{"type":"Feature","id":22843,"geometry":{"type":"Point","coordinates":[121.72469073668593,24.66991816872363]},"properties":{"OBJECTID":22843,"LANDMARKID":"1000200000513","LANDMARKCO":"405","LANDMARKNA":"中油加油站-大埔站","LANDMARKAD":"1000210","ADDRESS":"宜蘭縣三星鄉大埔路66之26號","TEL":"03-9899521","COUNTYNAME":"宜蘭縣","TOWNNAME":"三星鄉","MARKTYPE":"994","Class":"4"}},{"type":"Feature","id":22844,"geometry":{"type":"Point","coordinates":[121.72818249823065,24.698168094680966]},"properties":{"OBJECTID":22844,"LANDMARKID":"1000200000514","LANDMARKCO":"405","LANDMARKNA":"中油加油站-億昌站","LANDMARKAD":"1000210","ADDRESS":"宜蘭縣三星鄉大洲路149號","TEL":"03-9559618","COUNTYNAME":"宜蘭縣","TOWNNAME":"三星鄉","MARKTYPE":"994","Class":"4"}},{"type":"Feature","id":22845,"geometry":{"type":"Point","coordinates":[121.65756654110612,24.667342268568294]},"properties":{"OBJECTID":22845,"LANDMARKID":"1000200000515","LANDMARKCO":"405","LANDMARKNA":"中油加油站-三星站(中油直營)","LANDMARKAD":"1000210","ADDRESS":"宜蘭縣三星鄉三星路四段235號","TEL":"039-892219","COUNTYNAME":"宜蘭縣","TOWNNAME":"三星鄉","MARKTYPE":"994","Class":"4"}},{"type":"Feature","id":22846,"geometry":{"type":"Point","coordinates":[121.74887062158264,24.697072203757997]},"properties":{"OBJECTID":22846,"LANDMARKID":"1000200000665","LANDMARKCO":"506","LANDMARKNA":"清水綜合觀光果園","LANDMARKAD":"1000210","ADDRESS":"宜蘭縣三星鄉雙賢村8鄰140號　　","TEL":"03-9893726","COUNTYNAME":"宜蘭縣","TOWNNAME":"三星鄉","MARKTYPE":"995","Class":"5"}},{"type":"Feature","id":22847,"geometry":{"type":"Point","coordinates":[121.65304034062024,24.666643934724764]},"properties":{"OBJECTID":22847,"LANDMARKID":"1000200000616","LANDMARKCO":"408","LANDMARKNA":"郵局-三星郵局","LANDMARKAD":"1000210","ADDRESS":"宜蘭縣三星鄉太平路134號","TEL":"(03)9894-014","COUNTYNAME":"宜蘭縣","TOWNNAME":"三星鄉","MARKTYPE":"994","Class":"4"}},{"type":"Feature","id":22848,"geometry":{"type":"Point","coordinates":[121.64976255949362,24.66792789280521]},"properties":{"OBJECTID":22848,"LANDMARKID":"1000200000621","LANDMARKCO":"409","LANDMARKNA":"宜蘭縣三星地區農會","LANDMARKAD":"1000210","ADDRESS":"宜蘭縣三星鄉中山路31號","TEL":"03-9893170-4","COUNTYNAME":"宜蘭縣","TOWNNAME":"三星鄉","MARKTYPE":"994","Class":"4"}},{"type":"Feature","id":22849,"geometry":{"type":"Point","coordinates":[121.65448564934593,24.666646141781534]},"properties":{"OBJECTID":22849,"LANDMARKID":"1000200000503","LANDMARKCO":"404","LANDMARKNA":"台灣省自來水三星營運所","LANDMARKAD":"1000210","ADDRESS":"宜蘭縣三星鄉太平路67號","TEL":" ","COUNTYNAME":"宜蘭縣","TOWNNAME":"三星鄉","MARKTYPE":"994","Class":"4"}},{"type":"Feature","id":22850,"geometry":{"type":"Point","coordinates":[121.65220583840537,24.667699205184416]},"properties":{"OBJECTID":22850,"LANDMARKID":"1000200000099","LANDMARKCO":"107","LANDMARKNA":"宜蘭縣消防局三星消防分隊","LANDMARKAD":"1000210","ADDRESS":"宜蘭縣三星鄉中山路7號之7","TEL":"03-9892271","COUNTYNAME":"宜蘭縣","TOWNNAME":"三星鄉","MARKTYPE":"991","Class":"1"}},{"type":"Feature","id":22851,"geometry":{"type":"Point","coordinates":[121.65234933559576,24.667246528318348]},"properties":{"OBJECTID":22851,"LANDMARKID":"1000200000084","LANDMARKCO":"106","LANDMARKNA":"宜蘭縣三星鄉戶政事務所","LANDMARKAD":"1000210","ADDRESS":"宜蘭縣三星鄉義德村7鄰中山路7之6號","TEL":"039-892233","COUNTYNAME":"宜蘭縣","TOWNNAME":"三星鄉","MARKTYPE":"991","Class":"1"}},{"type":"Feature","id":22852,"geometry":{"type":"Point","coordinates":[121.65539853402633,24.661273278092938]},"properties":{"OBJECTID":22852,"LANDMARKID":"1000200000036","LANDMARKCO":"103","LANDMARKNA":"宜蘭縣三星鄉鄉民代表會","LANDMARKAD":"1000210","ADDRESS":"宜蘭縣三星鄉成功路67之7號","TEL":"03-9892040","COUNTYNAME":"宜蘭縣","TOWNNAME":"三星鄉","MARKTYPE":"991","Class":"1"}},{"type":"Feature","id":22853,"geometry":{"type":"Point","coordinates":[121.6552612159666,24.663260768479372]},"properties":{"OBJECTID":22853,"LANDMARKID":"1000200000189","LANDMARKCO":"108","LANDMARKNA":"宜蘭縣三星鄉公所","LANDMARKAD":"1000210","ADDRESS":"宜蘭縣三星鄉成功路67號","TEL":"03-9892018","COUNTYNAME":"宜蘭縣","TOWNNAME":"三星鄉","MARKTYPE":"991","Class":"1"}},{"type":"Feature","id":22854,"geometry":{"type":"Point","coordinates":[121.65519628342078,24.662719619274121]},"properties":{"OBJECTID":22854,"LANDMARKID":"1000200000040","LANDMARKCO":"103","LANDMARKNA":"宜蘭縣三星鄉調解委員會","LANDMARKAD":"1000210","ADDRESS":"宜蘭縣三星鄉成功路67之2號","TEL":"03-9891604","COUNTYNAME":"宜蘭縣","TOWNNAME":"三星鄉","MARKTYPE":"991","Class":"1"}},{"type":"Feature","id":22855,"geometry":{"type":"Point","coordinates":[121.64981436898545,24.666263425136712]},"properties":{"OBJECTID":22855,"LANDMARKID":"1000200000041","LANDMARKCO":"103","LANDMARKNA":"宜蘭縣三星鄉衛生所","LANDMARKAD":"1000210","ADDRESS":"宜蘭縣三星鄉三星路五段70號","TEL":"03-9892227","COUNTYNAME":"宜蘭縣","TOWNNAME":"三星鄉","MARKTYPE":"991","Class":"1"}},{"type":"Feature","id":22856,"geometry":{"type":"Point","coordinates":[121.65225854309647,24.667066744558678]},"properties":{"OBJECTID":22856,"LANDMARKID":"1000200000093","LANDMARKCO":"107","LANDMARKNA":"宜蘭縣警察局三星分局","LANDMARKAD":"1000210","ADDRESS":"宜蘭縣三星鄉三星路5段6號","TEL":"03-9891564","COUNTYNAME":"宜蘭縣","TOWNNAME":"三星鄉","MARKTYPE":"991","Class":"1"}},{"type":"Feature","id":22857,"geometry":{"type":"Point","coordinates":[121.65218938821278,24.667067345441954]},"properties":{"OBJECTID":22857,"LANDMARKID":"1000200000094","LANDMARKCO":"107","LANDMARKNA":"宜蘭縣警察局三星派出所","LANDMARKAD":"1000210","ADDRESS":"宜蘭縣三星鄉三星路5段6號","TEL":"03-9892561","COUNTYNAME":"宜蘭縣","TOWNNAME":"三星鄉","MARKTYPE":"991","Class":"1"}},{"type":"Feature","id":22858,"geometry":{"type":"Point","coordinates":[121.65253652092306,24.682683481479803]},"properties":{"OBJECTID":22858,"LANDMARKID":"1000200000095","LANDMARKCO":"107","LANDMARKNA":"宜蘭縣警察局楓林派出所","LANDMARKAD":"1000210","ADDRESS":"宜蘭縣三星鄉桂林村萬德路100之1號","TEL":"03-9891798","COUNTYNAME":"宜蘭縣","TOWNNAME":"三星鄉","MARKTYPE":"991","Class":"1"}},{"type":"Feature","id":22859,"geometry":{"type":"Point","coordinates":[121.62146901062742,24.661962212546502]},"properties":{"OBJECTID":22859,"LANDMARKID":"1000200000096","LANDMARKCO":"107","LANDMARKNA":"宜蘭縣警察局福山派出所","LANDMARKAD":"1000210","ADDRESS":"宜蘭縣三星鄉天福村三星路七段310號","TEL":"03-9893224","COUNTYNAME":"宜蘭縣","TOWNNAME":"三星鄉","MARKTYPE":"991","Class":"1"}},{"type":"Feature","id":22860,"geometry":{"type":"Point","coordinates":[121.70317115409777,24.668921584155999]},"properties":{"OBJECTID":22860,"LANDMARKID":"1000200000097","LANDMARKCO":"107","LANDMARKNA":"宜蘭縣警察局大隱派出所","LANDMARKAD":"1000210","ADDRESS":"宜蘭縣三星鄉三星路2段350號","TEL":"03-9898910","COUNTYNAME":"宜蘭縣","TOWNNAME":"三星鄉","MARKTYPE":"991","Class":"1"}},{"type":"Feature","id":22861,"geometry":{"type":"Point","coordinates":[121.72981615846487,24.693975368913229]},"properties":{"OBJECTID":22861,"LANDMARKID":"1000200000098","LANDMARKCO":"107","LANDMARKNA":"宜蘭縣警察局大洲派出所","LANDMARKAD":"1000210","ADDRESS":"宜蘭縣三星鄉上將路2段468號","TEL":"03-9573517","COUNTYNAME":"宜蘭縣","TOWNNAME":"三星鄉","MARKTYPE":"991","Class":"1"}},{"type":"Feature","id":22862,"geometry":{"type":"Point","coordinates":[121.67466854335642,24.661730146413504]},"properties":{"OBJECTID":22862,"LANDMARKID":"1000200000026","LANDMARKCO":"101","LANDMARKNA":"台灣宜蘭監獄","LANDMARKAD":"1000210","ADDRESS":"宜蘭縣三星鄉安農新村1號","TEL":"03-9894166","COUNTYNAME":"宜蘭縣","TOWNNAME":"三星鄉","MARKTYPE":"991","Class":"1"}},{"type":"Feature","id":22863,"geometry":{"type":"Point","coordinates":[121.61862678440404,24.660890865683623]},"properties":{"OBJECTID":22863,"LANDMARKID":"1000200000251","LANDMARKCO":"203","LANDMARKNA":"縣立憲明國小","LANDMARKAD":"1000210","ADDRESS":"宜蘭縣三星鄉天山村福山街119號","TEL":"03-9892049","COUNTYNAME":"宜蘭縣","TOWNNAME":"三星鄉","MARKTYPE":"992","Class":"2"}},{"type":"Feature","id":22864,"geometry":{"type":"Point","coordinates":[121.68824835866189,24.679545909836531]},"properties":{"OBJECTID":22864,"LANDMARKID":"1000200000252","LANDMARKCO":"203","LANDMARKNA":"縣立萬富國小","LANDMARKAD":"1000210","ADDRESS":"宜蘭縣三星鄉萬富村萬富路5號","TEL":"03-9890564","COUNTYNAME":"宜蘭縣","TOWNNAME":"三星鄉","MARKTYPE":"992","Class":"2"}},{"type":"Feature","id":22865,"geometry":{"type":"Point","coordinates":[121.72790425075861,24.692729942374473]},"properties":{"OBJECTID":22865,"LANDMARKID":"1000200000253","LANDMARKCO":"203","LANDMARKNA":"縣立大洲國小","LANDMARKAD":"1000210","ADDRESS":"宜蘭縣三星鄉大洲路162號","TEL":"03-9551547","COUNTYNAME":"宜蘭縣","TOWNNAME":"三星鄉","MARKTYPE":"992","Class":"2"}},{"type":"Feature","id":22866,"geometry":{"type":"Point","coordinates":[121.71312126832211,24.667241848376776]},"properties":{"OBJECTID":22866,"LANDMARKID":"1000200000254","LANDMARKCO":"203","LANDMARKNA":"縣立大隱國小","LANDMARKAD":"1000210","ADDRESS":"宜蘭縣三星鄉大埔路129號","TEL":"03-9890155","COUNTYNAME":"宜蘭縣","TOWNNAME":"三星鄉","MARKTYPE":"992","Class":"2"}},{"type":"Feature","id":22884,"geometry":{"type":"Point","coordinates":[121.69131302768089,24.672170938233826]},"properties":{"OBJECTID":22884,"LANDMARKID":"1000200000992","LANDMARKCO":"604","LANDMARKNA":"花見鄉居渡假別墅","LANDMARKAD":"1000210","ADDRESS":"宜蘭縣三星鄉行健村光復路61-26號","TEL":"03-9898873","COUNTYNAME":"宜蘭縣","TOWNNAME":"三星鄉","MARKTYPE":"996","Class":"6"}},{"type":"Feature","id":22909,"geometry":{"type":"Point","coordinates":[121.7917831562002,24.634627482021713]},"properties":{"OBJECTID":22909,"LANDMARKID":"1000200000517","LANDMARKCO":"405","LANDMARKNA":"台塑加油站-冬瓜山站(台塑)","LANDMARKAD":"1000208","ADDRESS":"宜蘭縣冬山鄉冬山路一段1071號","TEL":"03-9590559","COUNTYNAME":"宜蘭縣","TOWNNAME":"冬山鄉","MARKTYPE":"994","Class":"4"}},{"type":"Feature","id":22910,"geometry":{"type":"Point","coordinates":[121.80876038679764,24.617037799426239]},"properties":{"OBJECTID":22910,"LANDMARKID":"1000200000518","LANDMARKCO":"405","LANDMARKNA":"台塑加油站-新城站(台塑)","LANDMARKAD":"1000208","ADDRESS":"宜蘭縣冬山鄉冬山路一段420號","TEL":"03-9593701","COUNTYNAME":"宜蘭縣","TOWNNAME":"冬山鄉","MARKTYPE":"994","Class":"4"}},{"type":"Feature","id":22911,"geometry":{"type":"Point","coordinates":[121.77682651529075,24.660516662819919]},"properties":{"OBJECTID":22911,"LANDMARKID":"1000200000519","LANDMARKCO":"405","LANDMARKNA":"台塑加油站-群英站(台塑)","LANDMARKAD":"1000208","ADDRESS":"宜蘭縣冬山鄉冬山路三段368號","TEL":"03-9588349","COUNTYNAME":"宜蘭縣","TOWNNAME":"冬山鄉","MARKTYPE":"994","Class":"4"}},{"type":"Feature","id":22912,"geometry":{"type":"Point","coordinates":[121.77662248310861,24.659946185160145]},"properties":{"OBJECTID":22912,"LANDMARKID":"1000200000520","LANDMARKCO":"405","LANDMARKNA":"台塑加油站-八仙站(台塑)","LANDMARKAD":"1000208","ADDRESS":"宜蘭縣冬山鄉永美村冬山路三段379號","TEL":"03-9581182","COUNTYNAME":"宜蘭縣","TOWNNAME":"冬山鄉","MARKTYPE":"994","Class":"4"}},{"type":"Feature","id":22913,"geometry":{"type":"Point","coordinates":[121.75377818653865,24.671287593121885]},"properties":{"OBJECTID":22913,"LANDMARKID":"1000200000521","LANDMARKCO":"405","LANDMARKNA":"台塑加油站-長宏站(台塑)","LANDMARKAD":"1000208","ADDRESS":"宜蘭縣冬山鄉廣興村廣興路1號","TEL":"03-9511577","COUNTYNAME":"宜蘭縣","TOWNNAME":"冬山鄉","MARKTYPE":"994","Class":"4"}},{"type":"Feature","id":22914,"geometry":{"type":"Point","coordinates":[121.79226429915703,24.634530627795073]},"properties":{"OBJECTID":22914,"LANDMARKID":"1000200000187","LANDMARKCO":"108","LANDMARKNA":"宜蘭縣冬山鄉公所","LANDMARKAD":"1000208","ADDRESS":"宜蘭縣冬山鄉冬山路100號","TEL":"03-9591105","COUNTYNAME":"宜蘭縣","TOWNNAME":"冬山鄉","MARKTYPE":"991","Class":"1"}},{"type":"Feature","id":22915,"geometry":{"type":"Point","coordinates":[121.79226429915703,24.634530627795073]},"properties":{"OBJECTID":22915,"LANDMARKID":"1000200000037","LANDMARKCO":"103","LANDMARKNA":"宜蘭縣冬山鄉鄉民代表會","LANDMARKAD":"1000208","ADDRESS":"宜蘭縣冬山鄉南興村冬山路100號","TEL":"03-9591261","COUNTYNAME":"宜蘭縣","TOWNNAME":"冬山鄉","MARKTYPE":"991","Class":"1"}},{"type":"Feature","id":22916,"geometry":{"type":"Point","coordinates":[121.79095292582876,24.634710407080075]},"properties":{"OBJECTID":22916,"LANDMARKID":"1000200000083","LANDMARKCO":"106","LANDMARKNA":"宜蘭縣冬山鄉戶政事務所","LANDMARKAD":"1000208","ADDRESS":"宜蘭縣冬山鄉冬山村2鄰冬山路170號","TEL":"039-591437","COUNTYNAME":"宜蘭縣","TOWNNAME":"冬山鄉","MARKTYPE":"991","Class":"1"}},{"type":"Feature","id":22917,"geometry":{"type":"Point","coordinates":[121.79149498920314,24.634614416644776]},"properties":{"OBJECTID":22917,"LANDMARKID":"1000200000085","LANDMARKCO":"107","LANDMARKNA":"宜蘭縣消防局冬山消防分隊","LANDMARKAD":"1000208","ADDRESS":"宜蘭縣冬山鄉冬山路166號","TEL":"03-9593119","COUNTYNAME":"宜蘭縣","TOWNNAME":"冬山鄉","MARKTYPE":"991","Class":"1"}},{"type":"Feature","id":22918,"geometry":{"type":"Point","coordinates":[121.79135516493226,24.636060457332324]},"properties":{"OBJECTID":22918,"LANDMARKID":"1000200000038","LANDMARKCO":"103","LANDMARKNA":"宜蘭縣冬山鄉衛生所","LANDMARKAD":"1000208","ADDRESS":"宜蘭縣冬山鄉中正路16號","TEL":"03-9594772","COUNTYNAME":"宜蘭縣","TOWNNAME":"冬山鄉","MARKTYPE":"991","Class":"1"}},{"type":"Feature","id":22919,"geometry":{"type":"Point","coordinates":[121.74936361664895,24.669682489554337]},"properties":{"OBJECTID":22919,"LANDMARKID":"1000200000086","LANDMARKCO":"107","LANDMARKNA":"宜蘭縣警察局廣興派出所","LANDMARKAD":"1000208","ADDRESS":"宜蘭縣冬山鄉廣興村廣興路193號","TEL":"039-512210","COUNTYNAME":"宜蘭縣","TOWNNAME":"冬山鄉","MARKTYPE":"991","Class":"1"}},{"type":"Feature","id":22920,"geometry":{"type":"Point","coordinates":[121.76434331389699,24.654989646622159]},"properties":{"OBJECTID":22920,"LANDMARKID":"1000200000087","LANDMARKCO":"107","LANDMARKNA":"宜蘭縣警察局順安派出所","LANDMARKAD":"1000208","ADDRESS":"宜蘭縣冬山鄉順安村義成路二段394號","TEL":"039-581804","COUNTYNAME":"宜蘭縣","TOWNNAME":"冬山鄉","MARKTYPE":"991","Class":"1"}},{"type":"Feature","id":22921,"geometry":{"type":"Point","coordinates":[121.79211729249498,24.634622462155029]},"properties":{"OBJECTID":22921,"LANDMARKID":"1000200000088","LANDMARKCO":"107","LANDMARKNA":"宜蘭縣警察局冬山分駐所","LANDMARKAD":"1000208","ADDRESS":"宜蘭縣冬山鄉冬山路168號","TEL":"03-9591651","COUNTYNAME":"宜蘭縣","TOWNNAME":"冬山鄉","MARKTYPE":"991","Class":"1"}},{"type":"Feature","id":22922,"geometry":{"type":"Point","coordinates":[121.79097360823161,24.635828242155821]},"properties":{"OBJECTID":22922,"LANDMARKID":"1000200000326","LANDMARKCO":"204","LANDMARKNA":"宜蘭縣立圖書館冬山分館","LANDMARKAD":"1000208","ADDRESS":"宜蘭縣冬山鄉永興路2段17之1號","TEL":" ","COUNTYNAME":"宜蘭縣","TOWNNAME":"冬山鄉","MARKTYPE":"992","Class":"2"}},{"type":"Feature","id":22923,"geometry":{"type":"Point","coordinates":[121.75082824460902,24.669320646528192]},"properties":{"OBJECTID":22923,"LANDMARKID":"1000200000207","LANDMARKCO":"202","LANDMARKNA":"國立羅東高工","LANDMARKAD":"1000208","ADDRESS":"宜蘭縣冬山鄉廣興路117號","TEL":"03-9514196","COUNTYNAME":"宜蘭縣","TOWNNAME":"冬山鄉","MARKTYPE":"992","Class":"2"}},{"type":"Feature","id":22924,"geometry":{"type":"Point","coordinates":[121.76579646566857,24.654252566779942]},"properties":{"OBJECTID":22924,"LANDMARKID":"1000200000237","LANDMARKCO":"203","LANDMARKNA":"縣立順安國中","LANDMARKAD":"1000208","ADDRESS":"宜蘭縣冬山鄉永興路一段359號","TEL":"03-9581150","COUNTYNAME":"宜蘭縣","TOWNNAME":"冬山鄉","MARKTYPE":"992","Class":"2"}},{"type":"Feature","id":22925,"geometry":{"type":"Point","coordinates":[121.79283794714466,24.63163553474034]},"properties":{"OBJECTID":22925,"LANDMARKID":"1000200000238","LANDMARKCO":"203","LANDMARKNA":"縣立冬山國中","LANDMARKAD":"1000208","ADDRESS":"宜蘭縣冬山鄉南興村照安路26號","TEL":"03-9592076#21","COUNTYNAME":"宜蘭縣","TOWNNAME":"冬山鄉","MARKTYPE":"992","Class":"2"}},{"type":"Feature","id":22885,"geometry":{"type":"Point","coordinates":[121.74254398066972,24.704629737794701]},"properties":{"OBJECTID":22885,"LANDMARKID":"1000200000993","LANDMARKCO":"604","LANDMARKNA":"聖卡羅民宿","LANDMARKAD":"1000210","ADDRESS":"宜蘭縣三星鄉尾塹村清洲路28-16號","TEL":"03-9557920","COUNTYNAME":"宜蘭縣","TOWNNAME":"三星鄉","MARKTYPE":"996","Class":"6"}},{"type":"Feature","id":22886,"geometry":{"type":"Point","coordinates":[121.67519632487867,24.673211194239673]},"properties":{"OBJECTID":22886,"LANDMARKID":"1000200000994","LANDMARKCO":"604","LANDMARKNA":"明水露渡假民宿","LANDMARKAD":"1000210","ADDRESS":"宜蘭縣三星鄉行健村8鄰光復路128-33號","TEL":"03-9891349","COUNTYNAME":"宜蘭縣","TOWNNAME":"三星鄉","MARKTYPE":"996","Class":"6"}},{"type":"Feature","id":22887,"geometry":{"type":"Point","coordinates":[121.71660888923057,24.670300125457505]},"properties":{"OBJECTID":22887,"LANDMARKID":"1000200000995","LANDMARKCO":"604","LANDMARKNA":"鄉間小棧","LANDMARKAD":"1000210","ADDRESS":"宜蘭縣三星鄉大隱村三星路一段562號","TEL":"03-9581565","COUNTYNAME":"宜蘭縣","TOWNNAME":"三星鄉","MARKTYPE":"996","Class":"6"}},{"type":"Feature","id":22888,"geometry":{"type":"Point","coordinates":[121.71853474535081,24.675828150831766]},"properties":{"OBJECTID":22888,"LANDMARKID":"1000200000996","LANDMARKCO":"604","LANDMARKNA":"璀璨人生","LANDMARKAD":"1000210","ADDRESS":"宜蘭縣三星鄉大隱村大埔路102-7號","TEL":"03-9890731","COUNTYNAME":"宜蘭縣","TOWNNAME":"三星鄉","MARKTYPE":"996","Class":"6"}},{"type":"Feature","id":22889,"geometry":{"type":"Point","coordinates":[121.72849019454684,24.667044622925715]},"properties":{"OBJECTID":22889,"LANDMARKID":"1000200000997","LANDMARKCO":"604","LANDMARKNA":"凡梨花休閒農場","LANDMARKAD":"1000210","ADDRESS":"宜蘭縣三星鄉大隱村大埔路1-18號","TEL":"03-9899233","COUNTYNAME":"宜蘭縣","TOWNNAME":"三星鄉","MARKTYPE":"996","Class":"6"}},{"type":"Feature","id":22890,"geometry":{"type":"Point","coordinates":[121.71458791866813,24.663730752909316]},"properties":{"OBJECTID":22890,"LANDMARKID":"1000200000998","LANDMARKCO":"604","LANDMARKNA":"正統民宿","LANDMARKAD":"1000210","ADDRESS":"宜蘭縣三星鄉大隱村大埔路135-10號","TEL":"03-9898616","COUNTYNAME":"宜蘭縣","TOWNNAME":"三星鄉","MARKTYPE":"996","Class":"6"}},{"type":"Feature","id":22891,"geometry":{"type":"Point","coordinates":[121.70008671115691,24.693583671802259]},"properties":{"OBJECTID":22891,"LANDMARKID":"1000200000999","LANDMARKCO":"604","LANDMARKNA":"唐樓雅築","LANDMARKAD":"1000210","ADDRESS":"宜蘭縣三星鄉中興路96-11號","TEL":"03-9611557","COUNTYNAME":"宜蘭縣","TOWNNAME":"三星鄉","MARKTYPE":"996","Class":"6"}},{"type":"Feature","id":22892,"geometry":{"type":"Point","coordinates":[121.62196612559937,24.661741658257753]},"properties":{"OBJECTID":22892,"LANDMARKID":"1000200001000","LANDMARKCO":"604","LANDMARKNA":"美而美民宿","LANDMARKAD":"1000210","ADDRESS":"宜蘭縣三星鄉天福村3鄰福山街115號","TEL":"03-9891186","COUNTYNAME":"宜蘭縣","TOWNNAME":"三星鄉","MARKTYPE":"996","Class":"6"}},{"type":"Feature","id":22893,"geometry":{"type":"Point","coordinates":[121.61868200765493,24.664498791172335]},"properties":{"OBJECTID":22893,"LANDMARKID":"1000200001001","LANDMARKCO":"604","LANDMARKNA":"眠腦教育民宿","LANDMARKAD":"1000210","ADDRESS":"宜蘭縣三星鄉天福村東興路32-1號","TEL":"03-9895566","COUNTYNAME":"宜蘭縣","TOWNNAME":"三星鄉","MARKTYPE":"996","Class":"6"}},{"type":"Feature","id":22894,"geometry":{"type":"Point","coordinates":[121.61030297001831,24.643825402958953]},"properties":{"OBJECTID":22894,"LANDMARKID":"1000200000650","LANDMARKCO":"503","LANDMARKNA":"長埤湖風景區","LANDMARKAD":"1000210","ADDRESS":"宜蘭縣三星鄉員山村台七丙省道旁","TEL":" ","COUNTYNAME":"宜蘭縣","TOWNNAME":"三星鄉","MARKTYPE":"995","Class":"5"}},{"type":"Feature","id":22895,"geometry":{"type":"Point","coordinates":[121.7073940737224,24.693351728929606]},"properties":{"OBJECTID":22895,"LANDMARKID":"1000200000662","LANDMARKCO":"505","LANDMARKNA":"信仁牧場","LANDMARKAD":"1000210","ADDRESS":"宜蘭縣三星鄉中興路87之1號","TEL":"03-9899551","COUNTYNAME":"宜蘭縣","TOWNNAME":"三星鄉","MARKTYPE":"995","Class":"5"}},{"type":"Feature","id":22896,"geometry":{"type":"Point","coordinates":[121.78704324624401,24.641641180060979]},"properties":{"OBJECTID":22896,"LANDMARKID":"1000200000524","LANDMARKCO":"405","LANDMARKNA":"中油加油站-冬山站(中油直營)","LANDMARKAD":"1000208","ADDRESS":"宜蘭縣冬山鄉冬山路二段260號","TEL":"039-591316","COUNTYNAME":"宜蘭縣","TOWNNAME":"冬山鄉","MARKTYPE":"994","Class":"4"}},{"type":"Feature","id":22897,"geometry":{"type":"Point","coordinates":[121.77211443525449,24.666737358636372]},"properties":{"OBJECTID":22897,"LANDMARKID":"1000200000525","LANDMARKCO":"405","LANDMARKNA":"中油加油站-九份站(中油直營)","LANDMARKAD":"1000208","ADDRESS":"宜蘭縣冬山鄉冬山路五段165號","TEL":"039-584810","COUNTYNAME":"宜蘭縣","TOWNNAME":"冬山鄉","MARKTYPE":"994","Class":"4"}},{"type":"Feature","id":22898,"geometry":{"type":"Point","coordinates":[121.70401860507478,24.629178096405425]},"properties":{"OBJECTID":22898,"LANDMARKID":"1000200000668","LANDMARKCO":"506","LANDMARKNA":"大進觀光果園","LANDMARKAD":"1000208","ADDRESS":"宜蘭縣冬山鄉大進村大進路70之1號","TEL":"03-9517040","COUNTYNAME":"宜蘭縣","TOWNNAME":"冬山鄉","MARKTYPE":"995","Class":"5"}},{"type":"Feature","id":22899,"geometry":{"type":"Point","coordinates":[121.7413620517592,24.675063807930265]},"properties":{"OBJECTID":22899,"LANDMARKID":"1000200000669","LANDMARKCO":"506","LANDMARKNA":"綠野茶園","LANDMARKAD":"1000208","ADDRESS":"宜蘭縣冬山鄉中山村83之2號","TEL":"03-9584888","COUNTYNAME":"宜蘭縣","TOWNNAME":"冬山鄉","MARKTYPE":"995","Class":"5"}},{"type":"Feature","id":22900,"geometry":{"type":"Point","coordinates":[121.74466970280251,24.680189872399723]},"properties":{"OBJECTID":22900,"LANDMARKID":"1000200000670","LANDMARKCO":"506","LANDMARKNA":"松霖茶園","LANDMARKAD":"1000208","ADDRESS":"宜蘭縣冬山鄉中山村47之1號","TEL":"03-9585505","COUNTYNAME":"宜蘭縣","TOWNNAME":"冬山鄉","MARKTYPE":"995","Class":"5"}},{"type":"Feature","id":22901,"geometry":{"type":"Point","coordinates":[121.74128048236507,24.674660000016853]},"properties":{"OBJECTID":22901,"LANDMARKID":"1000200000671","LANDMARKCO":"506","LANDMARKNA":"馨山茶園","LANDMARKAD":"1000208","ADDRESS":"宜蘭縣冬山鄉中山村83之2號","TEL":"03-9581869","COUNTYNAME":"宜蘭縣","TOWNNAME":"冬山鄉","MARKTYPE":"995","Class":"5"}},{"type":"Feature","id":22902,"geometry":{"type":"Point","coordinates":[121.73901156721197,24.671716646077275]},"properties":{"OBJECTID":22902,"LANDMARKID":"1000200000672","LANDMARKCO":"506","LANDMARKNA":"圓茗緣觀光茶園","LANDMARKAD":"1000208","ADDRESS":"宜蘭縣冬山鄉中山村17之6號","TEL":"03-9589584","COUNTYNAME":"宜蘭縣","TOWNNAME":"冬山鄉","MARKTYPE":"995","Class":"5"}},{"type":"Feature","id":22903,"geometry":{"type":"Point","coordinates":[121.72888471151973,24.632398495100421]},"properties":{"OBJECTID":22903,"LANDMARKID":"1000200000673","LANDMARKCO":"506","LANDMARKNA":"香格里拉休閒農場","LANDMARKAD":"1000208","ADDRESS":"宜蘭縣冬山鄉大進村大進路1之1號","TEL":"039-511456　","COUNTYNAME":"宜蘭縣","TOWNNAME":"冬山鄉","MARKTYPE":"995","Class":"5"}},{"type":"Feature","id":22904,"geometry":{"type":"Point","coordinates":[121.79125201855148,24.634447659596386]},"properties":{"OBJECTID":22904,"LANDMARKID":"1000200000617","LANDMARKCO":"408","LANDMARKNA":"郵局-冬山郵局","LANDMARKAD":"1000208","ADDRESS":"宜蘭縣冬山鄉冬山路177號","TEL":"(03)9593-908","COUNTYNAME":"宜蘭縣","TOWNNAME":"冬山鄉","MARKTYPE":"994","Class":"4"}},{"type":"Feature","id":22905,"geometry":{"type":"Point","coordinates":[121.76806660816807,24.667255925306815]},"properties":{"OBJECTID":22905,"LANDMARKID":"1000200000618","LANDMARKCO":"408","LANDMARKNA":"郵局-冬山群英郵局","LANDMARKAD":"1000208","ADDRESS":"宜蘭縣冬山鄉義成路3段482號","TEL":"(03)9588-842","COUNTYNAME":"宜蘭縣","TOWNNAME":"冬山鄉","MARKTYPE":"994","Class":"4"}},{"type":"Feature","id":22906,"geometry":{"type":"Point","coordinates":[121.79198552662105,24.633317498596508]},"properties":{"OBJECTID":22906,"LANDMARKID":"1000200000620","LANDMARKCO":"409","LANDMARKNA":"宜蘭縣冬山鄉農會","LANDMARKAD":"1000208","ADDRESS":"宜蘭縣冬山鄉冬山路一段888號","TEL":"03-9591122","COUNTYNAME":"宜蘭縣","TOWNNAME":"冬山鄉","MARKTYPE":"994","Class":"4"}},{"type":"Feature","id":22907,"geometry":{"type":"Point","coordinates":[121.75842575038897,24.640717236863704]},"properties":{"OBJECTID":22907,"LANDMARKID":"1000200000502","LANDMARKCO":"404","LANDMARKNA":"台灣省自來水冬山營運所","LANDMARKAD":"1000208","ADDRESS":"宜蘭縣冬山鄉丸山路259號","TEL":" ","COUNTYNAME":"宜蘭縣","TOWNNAME":"冬山鄉","MARKTYPE":"994","Class":"4"}},{"type":"Feature","id":22908,"geometry":{"type":"Point","coordinates":[121.75005675269219,24.61624287583653]},"properties":{"OBJECTID":22908,"LANDMARKID":"1000200000575","LANDMARKCO":"406","LANDMARKNA":"樹林公園","LANDMARKAD":"1000208","ADDRESS":"宜蘭縣冬山鄉","TEL":" ","COUNTYNAME":"宜蘭縣","TOWNNAME":"冬山鄉","MARKTYPE":"994","Class":"4"}},{"type":"Feature","id":22926,"geometry":{"type":"Point","coordinates":[121.79493903132227,24.626301335290286]},"properties":{"OBJECTID":22926,"LANDMARKID":"1000200000239","LANDMARKCO":"203","LANDMARKNA":"慈心華德福教育實驗國中小學","LANDMARKAD":"1000208","ADDRESS":"宜蘭縣冬山鄉照安路257號","TEL":"03-9596222","COUNTYNAME":"宜蘭縣","TOWNNAME":"冬山鄉","MARKTYPE":"992","Class":"2"}},{"type":"Feature","id":22951,"geometry":{"type":"Point","coordinates":[121.73596586808188,24.676170198768652]},"properties":{"OBJECTID":22951,"LANDMARKID":"1000200001013","LANDMARKCO":"604","LANDMARKNA":"緣道舍民宿","LANDMARKAD":"1000208","ADDRESS":"宜蘭縣冬山鄉柯林村境安二路156號","TEL":"03-9617911","COUNTYNAME":"宜蘭縣","TOWNNAME":"冬山鄉","MARKTYPE":"996","Class":"6"}},{"type":"Feature","id":22952,"geometry":{"type":"Point","coordinates":[121.75866286740627,24.660296413323586]},"properties":{"OBJECTID":22952,"LANDMARKID":"1000200001014","LANDMARKCO":"604","LANDMARKNA":"清泉民宿","LANDMARKAD":"1000208","ADDRESS":"宜蘭縣冬山鄉鹿安路537號","TEL":"03-9518205","COUNTYNAME":"宜蘭縣","TOWNNAME":"冬山鄉","MARKTYPE":"996","Class":"6"}},{"type":"Feature","id":22953,"geometry":{"type":"Point","coordinates":[121.75023840102185,24.648962886072905]},"properties":{"OBJECTID":22953,"LANDMARKID":"1000200001015","LANDMARKCO":"604","LANDMARKNA":"鹿埔鄉村民宿","LANDMARKAD":"1000208","ADDRESS":"宜蘭縣冬山鄉鹿埔村鹿埔路223號","TEL":"03-9584274","COUNTYNAME":"宜蘭縣","TOWNNAME":"冬山鄉","MARKTYPE":"996","Class":"6"}},{"type":"Feature","id":22954,"geometry":{"type":"Point","coordinates":[121.78327567488017,24.654167923709139]},"properties":{"OBJECTID":22954,"LANDMARKID":"1000200001016","LANDMARKCO":"604","LANDMARKNA":"微笑橘子民宿","LANDMARKAD":"1000208","ADDRESS":"宜蘭縣冬山鄉群英村珍珠一路73號","TEL":"03-9601746","COUNTYNAME":"宜蘭縣","TOWNNAME":"冬山鄉","MARKTYPE":"996","Class":"6"}},{"type":"Feature","id":22955,"geometry":{"type":"Point","coordinates":[121.77681454866406,24.652512708324451]},"properties":{"OBJECTID":22955,"LANDMARKID":"1000200001017","LANDMARKCO":"604","LANDMARKNA":"蜜之鄉民宿","LANDMARKAD":"1000208","ADDRESS":"宜蘭縣冬山鄉永美村永美路201號","TEL":"03-9586541","COUNTYNAME":"宜蘭縣","TOWNNAME":"冬山鄉","MARKTYPE":"996","Class":"6"}},{"type":"Feature","id":22956,"geometry":{"type":"Point","coordinates":[121.79423125643685,24.662099541350557]},"properties":{"OBJECTID":22956,"LANDMARKID":"1000200001018","LANDMARKCO":"604","LANDMARKNA":"津園民宿","LANDMARKAD":"1000208","ADDRESS":"宜蘭縣冬山鄉武淵村武罕五路208號","TEL":"03-9501468","COUNTYNAME":"宜蘭縣","TOWNNAME":"冬山鄉","MARKTYPE":"996","Class":"6"}},{"type":"Feature","id":22957,"geometry":{"type":"Point","coordinates":[121.7892007069712,24.66185943840788]},"properties":{"OBJECTID":22957,"LANDMARKID":"1000200001019","LANDMARKCO":"604","LANDMARKNA":"輕井澤民宿","LANDMARKAD":"1000208","ADDRESS":"宜蘭縣冬山鄉武淵村武罕五路365號","TEL":"03-9504886","COUNTYNAME":"宜蘭縣","TOWNNAME":"冬山鄉","MARKTYPE":"996","Class":"6"}},{"type":"Feature","id":22958,"geometry":{"type":"Point","coordinates":[121.77995339654794,24.660488798848419]},"properties":{"OBJECTID":22958,"LANDMARKID":"1000200001020","LANDMARKCO":"604","LANDMARKNA":"蘭陽風情民宿","LANDMARKAD":"1000208","ADDRESS":"宜蘭縣冬山鄉群英村八仙二路38號","TEL":"03-9585311","COUNTYNAME":"宜蘭縣","TOWNNAME":"冬山鄉","MARKTYPE":"996","Class":"6"}},{"type":"Feature","id":22959,"geometry":{"type":"Point","coordinates":[121.80120148974473,24.644094677853616]},"properties":{"OBJECTID":22959,"LANDMARKID":"1000200001021","LANDMARKCO":"604","LANDMARKNA":"田庄園民宿","LANDMARKAD":"1000208","ADDRESS":"宜蘭縣冬山鄉補城村11鄰建進一路161號","TEL":"03-9590557","COUNTYNAME":"宜蘭縣","TOWNNAME":"冬山鄉","MARKTYPE":"996","Class":"6"}},{"type":"Feature","id":22960,"geometry":{"type":"Point","coordinates":[121.7880640641895,24.656202847438138]},"properties":{"OBJECTID":22960,"LANDMARKID":"1000200001022","LANDMARKCO":"604","LANDMARKNA":"紅磚屋民宿","LANDMARKAD":"1000208","ADDRESS":"宜蘭縣冬山鄉群英村八仙五路169號","TEL":"03-9500079","COUNTYNAME":"宜蘭縣","TOWNNAME":"冬山鄉","MARKTYPE":"996","Class":"6"}},{"type":"Feature","id":22961,"geometry":{"type":"Point","coordinates":[121.79648113355184,24.659772293926647]},"properties":{"OBJECTID":22961,"LANDMARKID":"1000200001023","LANDMARKCO":"604","LANDMARKNA":"我家宜蘭民宿","LANDMARKAD":"1000208","ADDRESS":"宜蘭縣冬山鄉武淵村武罕三路58號","TEL":"03-9585650","COUNTYNAME":"宜蘭縣","TOWNNAME":"冬山鄉","MARKTYPE":"996","Class":"6"}},{"type":"Feature","id":22962,"geometry":{"type":"Point","coordinates":[121.79711473597838,24.659078934236607]},"properties":{"OBJECTID":22962,"LANDMARKID":"1000200001024","LANDMARKCO":"604","LANDMARKNA":"和田家","LANDMARKAD":"1000208","ADDRESS":"宜蘭縣冬山鄉武淵村武罕三路29號","TEL":"0989-655121","COUNTYNAME":"宜蘭縣","TOWNNAME":"冬山鄉","MARKTYPE":"996","Class":"6"}},{"type":"Feature","id":22963,"geometry":{"type":"Point","coordinates":[121.7894595998478,24.661842078498427]},"properties":{"OBJECTID":22963,"LANDMARKID":"1000200001025","LANDMARKCO":"604","LANDMARKNA":"松露民宿","LANDMARKAD":"1000208","ADDRESS":"宜蘭縣冬山鄉武淵村武罕五路361號","TEL":"03-9500938","COUNTYNAME":"宜蘭縣","TOWNNAME":"冬山鄉","MARKTYPE":"996","Class":"6"}},{"type":"Feature","id":22964,"geometry":{"type":"Point","coordinates":[121.73793218151023,24.68092613861792]},"properties":{"OBJECTID":22964,"LANDMARKID":"1000200001026","LANDMARKCO":"604","LANDMARKNA":"松愛園美式鄉村風渡假民宿","LANDMARKAD":"1000208","ADDRESS":"宜蘭縣冬山鄉柯林村光華五路116號","TEL":"03-9519197","COUNTYNAME":"宜蘭縣","TOWNNAME":"冬山鄉","MARKTYPE":"996","Class":"6"}},{"type":"Feature","id":22965,"geometry":{"type":"Point","coordinates":[121.79822514227197,24.642947754623549]},"properties":{"OBJECTID":22965,"LANDMARKID":"1000200001027","LANDMARKCO":"604","LANDMARKNA":"隨園民宿","LANDMARKAD":"1000208","ADDRESS":"宜蘭縣冬山鄉補城村保安一路208號","TEL":"03-9590154","COUNTYNAME":"宜蘭縣","TOWNNAME":"冬山鄉","MARKTYPE":"996","Class":"6"}},{"type":"Feature","id":22966,"geometry":{"type":"Point","coordinates":[121.78980975554293,24.647342240073588]},"properties":{"OBJECTID":22966,"LANDMARKID":"1000200001028","LANDMARKCO":"604","LANDMARKNA":"家家民宿","LANDMARKAD":"1000208","ADDRESS":"宜蘭縣冬山鄉珍珠村珍珠五路109號","TEL":"03-9503828","COUNTYNAME":"宜蘭縣","TOWNNAME":"冬山鄉","MARKTYPE":"996","Class":"6"}},{"type":"Feature","id":22967,"geometry":{"type":"Point","coordinates":[121.78626881678484,24.658080251592686]},"properties":{"OBJECTID":22967,"LANDMARKID":"1000200001029","LANDMARKCO":"604","LANDMARKNA":"迎曦民宿","LANDMARKAD":"1000208","ADDRESS":"宜蘭縣冬山鄉群英村2鄰八仙三路168號","TEL":"03-9506318","COUNTYNAME":"宜蘭縣","TOWNNAME":"冬山鄉","MARKTYPE":"996","Class":"6"}},{"type":"Feature","id":22927,"geometry":{"type":"Point","coordinates":[121.798476611114,24.661578926178208]},"properties":{"OBJECTID":22927,"LANDMARKID":"1000200000240","LANDMARKCO":"203","LANDMARKNA":"縣立武淵國小","LANDMARKAD":"1000208","ADDRESS":"宜蘭縣冬山鄉武淵村富農路二段350號","TEL":"03-9505971","COUNTYNAME":"宜蘭縣","TOWNNAME":"冬山鄉","MARKTYPE":"992","Class":"2"}},{"type":"Feature","id":22928,"geometry":{"type":"Point","coordinates":[121.7316171996046,24.676546727975417]},"properties":{"OBJECTID":22928,"LANDMARKID":"1000200000241","LANDMARKCO":"203","LANDMARKNA":"縣立柯林國小","LANDMARKAD":"1000208","ADDRESS":"宜蘭縣冬山鄉柯林村光華路158號","TEL":"03-9511355","COUNTYNAME":"宜蘭縣","TOWNNAME":"冬山鄉","MARKTYPE":"992","Class":"2"}},{"type":"Feature","id":22929,"geometry":{"type":"Point","coordinates":[121.74284129270561,24.665115351536151]},"properties":{"OBJECTID":22929,"LANDMARKID":"1000200000242","LANDMARKCO":"203","LANDMARKNA":"縣立廣興國小","LANDMARKAD":"1000208","ADDRESS":"宜蘭縣冬山鄉廣興村梅花路303號","TEL":"03-9513484","COUNTYNAME":"宜蘭縣","TOWNNAME":"冬山鄉","MARKTYPE":"992","Class":"2"}},{"type":"Feature","id":22930,"geometry":{"type":"Point","coordinates":[121.76292845789591,24.654809360329043]},"properties":{"OBJECTID":22930,"LANDMARKID":"1000200000243","LANDMARKCO":"203","LANDMARKNA":"縣立順安國小","LANDMARKAD":"1000208","ADDRESS":"宜蘭縣冬山鄉永興路二段17號","TEL":"03-9583445","COUNTYNAME":"宜蘭縣","TOWNNAME":"冬山鄉","MARKTYPE":"992","Class":"2"}},{"type":"Feature","id":22931,"geometry":{"type":"Point","coordinates":[121.79389464467933,24.633791145924885]},"properties":{"OBJECTID":22931,"LANDMARKID":"1000200000244","LANDMARKCO":"203","LANDMARKNA":"縣立冬山國小","LANDMARKAD":"1000208","ADDRESS":"宜蘭縣冬山鄉安平村安中路35號","TEL":"03-9593504","COUNTYNAME":"宜蘭縣","TOWNNAME":"冬山鄉","MARKTYPE":"992","Class":"2"}},{"type":"Feature","id":22932,"geometry":{"type":"Point","coordinates":[121.8066799250342,24.62903416656447]},"properties":{"OBJECTID":22932,"LANDMARKID":"1000200000245","LANDMARKCO":"203","LANDMARKNA":"縣立東興國小","LANDMARKAD":"1000208","ADDRESS":"宜蘭縣冬山鄉東城路316號","TEL":"03-9594047","COUNTYNAME":"宜蘭縣","TOWNNAME":"冬山鄉","MARKTYPE":"992","Class":"2"}},{"type":"Feature","id":22933,"geometry":{"type":"Point","coordinates":[121.71600488273469,24.634003306203166]},"properties":{"OBJECTID":22933,"LANDMARKID":"1000200000246","LANDMARKCO":"203","LANDMARKNA":"縣立大進國小","LANDMARKAD":"1000208","ADDRESS":"宜蘭縣冬山鄉大進村大進七路51號","TEL":"03-9512268","COUNTYNAME":"宜蘭縣","TOWNNAME":"冬山鄉","MARKTYPE":"992","Class":"2"}},{"type":"Feature","id":22934,"geometry":{"type":"Point","coordinates":[121.74316832477162,24.62656124539739]},"properties":{"OBJECTID":22934,"LANDMARKID":"1000200000247","LANDMARKCO":"203","LANDMARKNA":"縣立順安國小中山分校","LANDMARKAD":"1000208","ADDRESS":"宜蘭縣冬山鄉中山村71號","TEL":"03-9581763","COUNTYNAME":"宜蘭縣","TOWNNAME":"冬山鄉","MARKTYPE":"992","Class":"2"}},{"type":"Feature","id":22935,"geometry":{"type":"Point","coordinates":[121.72803076315132,24.68675886883813]},"properties":{"OBJECTID":22935,"LANDMARKID":"1000200000432","LANDMARKCO":"303","LANDMARKNA":"分洪堰風景區停車場","LANDMARKAD":"1000208","ADDRESS":"宜蘭縣冬山鄉安農溪旁","TEL":" ","COUNTYNAME":"宜蘭縣","TOWNNAME":"冬山鄉","MARKTYPE":"993","Class":"303"}},{"type":"Feature","id":22936,"geometry":{"type":"Point","coordinates":[121.73356873050267,24.683628945302669]},"properties":{"OBJECTID":22936,"LANDMARKID":"1000200000433","LANDMARKCO":"303","LANDMARKNA":"廣興農場停車場","LANDMARKAD":"1000208","ADDRESS":"宜蘭縣冬山鄉光華三路","TEL":" ","COUNTYNAME":"宜蘭縣","TOWNNAME":"冬山鄉","MARKTYPE":"993","Class":"303"}},{"type":"Feature","id":22937,"geometry":{"type":"Point","coordinates":[121.75229268418201,24.623448045774659]},"properties":{"OBJECTID":22937,"LANDMARKID":"1000200000434","LANDMARKCO":"303","LANDMARKNA":"新寮停車場","LANDMARKAD":"1000208","ADDRESS":"宜蘭縣冬山鄉","TEL":" ","COUNTYNAME":"宜蘭縣","TOWNNAME":"冬山鄉","MARKTYPE":"993","Class":"303"}},{"type":"Feature","id":22938,"geometry":{"type":"Point","coordinates":[121.79224730123406,24.636475267271113]},"properties":{"OBJECTID":22938,"LANDMARKID":"1000200000353","LANDMARKCO":"301","LANDMARKNA":"冬山火車站","LANDMARKAD":"1000208","ADDRESS":"宜蘭縣冬山鄉冬山村中華路1號","TEL":"03-9594221","COUNTYNAME":"宜蘭縣","TOWNNAME":"冬山鄉","MARKTYPE":"993","Class":"301"}},{"type":"Feature","id":22939,"geometry":{"type":"Point","coordinates":[121.79472756882421,24.632068580866129]},"properties":{"OBJECTID":22939,"LANDMARKID":"1000200000477","LANDMARKCO":"402","LANDMARKNA":"中華電信-冬山服務中心","LANDMARKAD":"1000208","ADDRESS":"宜蘭縣冬山鄉冬山路一段879號","TEL":"(03)954-9961","COUNTYNAME":"宜蘭縣","TOWNNAME":"冬山鄉","MARKTYPE":"994","Class":"4"}},{"type":"Feature","id":22940,"geometry":{"type":"Point","coordinates":[121.73207126749116,24.660264699093275]},"properties":{"OBJECTID":22940,"LANDMARKID":"1000200001002","LANDMARKCO":"604","LANDMARKNA":"國民旅遊民宿","LANDMARKAD":"1000208","ADDRESS":"宜蘭縣冬山鄉梅花路744巷100弄79號","TEL":"03-9614644","COUNTYNAME":"宜蘭縣","TOWNNAME":"冬山鄉","MARKTYPE":"996","Class":"6"}},{"type":"Feature","id":22941,"geometry":{"type":"Point","coordinates":[121.79863042359393,24.660599598115226]},"properties":{"OBJECTID":22941,"LANDMARKID":"1000200001003","LANDMARKCO":"604","LANDMARKNA":"克莉絲甜蜜小屋民宿","LANDMARKAD":"1000208","ADDRESS":"宜蘭縣冬山鄉武淵村武淵路13號","TEL":"03-9604934","COUNTYNAME":"宜蘭縣","TOWNNAME":"冬山鄉","MARKTYPE":"996","Class":"6"}},{"type":"Feature","id":22942,"geometry":{"type":"Point","coordinates":[121.7988027965195,24.660657681220986]},"properties":{"OBJECTID":22942,"LANDMARKID":"1000200001004","LANDMARKCO":"604","LANDMARKNA":"天然民宿","LANDMARKAD":"1000208","ADDRESS":"宜蘭縣冬山鄉武淵村武淵路21號","TEL":"03-9505350","COUNTYNAME":"宜蘭縣","TOWNNAME":"冬山鄉","MARKTYPE":"996","Class":"6"}},{"type":"Feature","id":22943,"geometry":{"type":"Point","coordinates":[121.78935787936814,24.653712613783419]},"properties":{"OBJECTID":22943,"LANDMARKID":"1000200001005","LANDMARKCO":"604","LANDMARKNA":"晴郁田園館","LANDMARKAD":"1000208","ADDRESS":"宜蘭縣冬山鄉武淵村珍珠一路287號","TEL":"03-9605828","COUNTYNAME":"宜蘭縣","TOWNNAME":"冬山鄉","MARKTYPE":"996","Class":"6"}},{"type":"Feature","id":22944,"geometry":{"type":"Point","coordinates":[121.77975434650746,24.650377834643496]},"properties":{"OBJECTID":22944,"LANDMARKID":"1000200001006","LANDMARKCO":"604","LANDMARKNA":"琉璃仙境民宿","LANDMARKAD":"1000208","ADDRESS":"宜蘭縣冬山鄉信光路91號","TEL":"03-9565988","COUNTYNAME":"宜蘭縣","TOWNNAME":"冬山鄉","MARKTYPE":"996","Class":"6"}},{"type":"Feature","id":22945,"geometry":{"type":"Point","coordinates":[121.73520684578494,24.682063914717972]},"properties":{"OBJECTID":22945,"LANDMARKID":"1000200001007","LANDMARKCO":"604","LANDMARKNA":"伊莎城堡民宿","LANDMARKAD":"1000208","ADDRESS":"宜蘭縣冬山鄉柯林村柯林一路383號","TEL":"03-9518986","COUNTYNAME":"宜蘭縣","TOWNNAME":"冬山鄉","MARKTYPE":"996","Class":"6"}},{"type":"Feature","id":22946,"geometry":{"type":"Point","coordinates":[121.7325592345581,24.658887321103261]},"properties":{"OBJECTID":22946,"LANDMARKID":"1000200001008","LANDMARKCO":"604","LANDMARKNA":"安達魯西亞民宿","LANDMARKAD":"1000208","ADDRESS":"宜蘭縣冬山鄉梅花路926巷4弄2-1號","TEL":"0920-115926","COUNTYNAME":"宜蘭縣","TOWNNAME":"冬山鄉","MARKTYPE":"996","Class":"6"}},{"type":"Feature","id":22947,"geometry":{"type":"Point","coordinates":[121.80461261160298,24.6305282707369]},"properties":{"OBJECTID":22947,"LANDMARKID":"1000200001009","LANDMARKCO":"604","LANDMARKNA":"香城園民宿","LANDMARKAD":"1000208","ADDRESS":"宜蘭縣冬山鄉東城里香城路311巷6弄2號","TEL":"03-9504219","COUNTYNAME":"宜蘭縣","TOWNNAME":"冬山鄉","MARKTYPE":"996","Class":"6"}},{"type":"Feature","id":22948,"geometry":{"type":"Point","coordinates":[121.74148007176461,24.627046324225233]},"properties":{"OBJECTID":22948,"LANDMARKID":"1000200001010","LANDMARKCO":"604","LANDMARKNA":"柚香園民宿","LANDMARKAD":"1000208","ADDRESS":"宜蘭縣冬山鄉中山村舊寮路131巷28號","TEL":"0937-845429","COUNTYNAME":"宜蘭縣","TOWNNAME":"冬山鄉","MARKTYPE":"996","Class":"6"}},{"type":"Feature","id":22949,"geometry":{"type":"Point","coordinates":[121.80720299291337,24.643999239184247]},"properties":{"OBJECTID":22949,"LANDMARKID":"1000200001011","LANDMARKCO":"604","LANDMARKNA":"春藤庭園民宿","LANDMARKAD":"1000208","ADDRESS":"宜蘭縣冬山鄉補城村補城路65巷65號","TEL":"03-9596767","COUNTYNAME":"宜蘭縣","TOWNNAME":"冬山鄉","MARKTYPE":"996","Class":"6"}},{"type":"Feature","id":22950,"geometry":{"type":"Point","coordinates":[121.7896173732189,24.663948248926683]},"properties":{"OBJECTID":22950,"LANDMARKID":"1000200001012","LANDMARKCO":"604","LANDMARKNA":"晨露庄","LANDMARKAD":"1000208","ADDRESS":"宜蘭縣冬山鄉武淵村武罕五路363號","TEL":"03-9568492","COUNTYNAME":"宜蘭縣","TOWNNAME":"冬山鄉","MARKTYPE":"996","Class":"6"}},{"type":"Feature","id":22968,"geometry":{"type":"Point","coordinates":[121.78376543807637,24.646917824395878]},"properties":{"OBJECTID":22968,"LANDMARKID":"1000200001030","LANDMARKCO":"604","LANDMARKNA":"田老爺民宿","LANDMARKAD":"1000208","ADDRESS":"宜蘭縣冬山鄉珍珠村永鎮路11號","TEL":"03-9580747","COUNTYNAME":"宜蘭縣","TOWNNAME":"冬山鄉","MARKTYPE":"996","Class":"6"}},{"type":"Feature","id":22993,"geometry":{"type":"Point","coordinates":[121.79566408966043,24.643732625531367]},"properties":{"OBJECTID":22993,"LANDMARKID":"1000200001055","LANDMARKCO":"604","LANDMARKNA":"竹鄉園民宿","LANDMARKAD":"1000208","ADDRESS":"宜蘭縣冬山鄉珍珠村富農路一段386號","TEL":"03-9594202","COUNTYNAME":"宜蘭縣","TOWNNAME":"冬山鄉","MARKTYPE":"996","Class":"6"}},{"type":"Feature","id":22994,"geometry":{"type":"Point","coordinates":[121.7958722201241,24.647003523644631]},"properties":{"OBJECTID":22994,"LANDMARKID":"1000200001056","LANDMARKCO":"604","LANDMARKNA":"雅園民宿","LANDMARKAD":"1000208","ADDRESS":"宜蘭縣冬山鄉珍珠村富農路一段528號","TEL":"03-9594347","COUNTYNAME":"宜蘭縣","TOWNNAME":"冬山鄉","MARKTYPE":"996","Class":"6"}},{"type":"Feature","id":22995,"geometry":{"type":"Point","coordinates":[121.79576443644576,24.649342093118634]},"properties":{"OBJECTID":22995,"LANDMARKID":"1000200001057","LANDMARKCO":"604","LANDMARKNA":"稻香村","LANDMARKAD":"1000208","ADDRESS":"宜蘭縣冬山鄉珍珠村富農路一段631號","TEL":"03-9591141","COUNTYNAME":"宜蘭縣","TOWNNAME":"冬山鄉","MARKTYPE":"996","Class":"6"}},{"type":"Feature","id":22996,"geometry":{"type":"Point","coordinates":[121.80379979394313,24.629621617643568]},"properties":{"OBJECTID":22996,"LANDMARKID":"1000200001058","LANDMARKCO":"604","LANDMARKNA":"寬心小站民宿","LANDMARKAD":"1000208","ADDRESS":"宜蘭縣冬山鄉香城路311巷7弄7號","TEL":"03-9595341","COUNTYNAME":"宜蘭縣","TOWNNAME":"冬山鄉","MARKTYPE":"996","Class":"6"}},{"type":"Feature","id":22997,"geometry":{"type":"Point","coordinates":[121.73038177507613,24.653598443606977]},"properties":{"OBJECTID":22997,"LANDMARKID":"1000200001059","LANDMARKCO":"604","LANDMARKNA":"梅花民宿","LANDMARKAD":"1000208","ADDRESS":"宜蘭縣冬山鄉得安村4鄰鹿得三路322號","TEL":"03-9612619","COUNTYNAME":"宜蘭縣","TOWNNAME":"冬山鄉","MARKTYPE":"996","Class":"6"}},{"type":"Feature","id":22998,"geometry":{"type":"Point","coordinates":[121.73444317126943,24.653319656504141]},"properties":{"OBJECTID":22998,"LANDMARKID":"1000200001060","LANDMARKCO":"604","LANDMARKNA":"田野山莊民宿","LANDMARKAD":"1000208","ADDRESS":"宜蘭縣冬山鄉得安村4鄰鹿得路292號","TEL":"03-9510461","COUNTYNAME":"宜蘭縣","TOWNNAME":"冬山鄉","MARKTYPE":"996","Class":"6"}},{"type":"Feature","id":22999,"geometry":{"type":"Point","coordinates":[121.73165475655624,24.649239729216006]},"properties":{"OBJECTID":22999,"LANDMARKID":"1000200001061","LANDMARKCO":"604","LANDMARKNA":"梅湖民宿","LANDMARKAD":"1000208","ADDRESS":"宜蘭縣冬山鄉得安村7鄰梅湖路85號","TEL":"03-9611338","COUNTYNAME":"宜蘭縣","TOWNNAME":"冬山鄉","MARKTYPE":"996","Class":"6"}},{"type":"Feature","id":23000,"geometry":{"type":"Point","coordinates":[121.74262684542997,24.629105337928344]},"properties":{"OBJECTID":23000,"LANDMARKID":"1000200001062","LANDMARKCO":"604","LANDMARKNA":"夢幻休閒民宿","LANDMARKAD":"1000208","ADDRESS":"宜蘭縣冬山鄉中山村中山路316號","TEL":"03-9585839","COUNTYNAME":"宜蘭縣","TOWNNAME":"冬山鄉","MARKTYPE":"996","Class":"6"}},{"type":"Feature","id":22969,"geometry":{"type":"Point","coordinates":[121.74108726442962,24.680600243252766]},"properties":{"OBJECTID":22969,"LANDMARKID":"1000200001031","LANDMARKCO":"604","LANDMARKNA":"河岸景觀民宿","LANDMARKAD":"1000208","ADDRESS":"宜蘭縣冬山鄉柯林村境安路281號","TEL":"03-9610077","COUNTYNAME":"宜蘭縣","TOWNNAME":"冬山鄉","MARKTYPE":"996","Class":"6"}},{"type":"Feature","id":22970,"geometry":{"type":"Point","coordinates":[121.74059111396978,24.678135691289732]},"properties":{"OBJECTID":22970,"LANDMARKID":"1000200001032","LANDMARKCO":"604","LANDMARKNA":"吾居吾宿","LANDMARKAD":"1000208","ADDRESS":"宜蘭縣冬山鄉柯林村境安一路156巷2號","TEL":"03-9510158","COUNTYNAME":"宜蘭縣","TOWNNAME":"冬山鄉","MARKTYPE":"996","Class":"6"}},{"type":"Feature","id":22971,"geometry":{"type":"Point","coordinates":[121.80917543452138,24.672444542054908]},"properties":{"OBJECTID":22971,"LANDMARKID":"1000200001033","LANDMARKCO":"604","LANDMARKNA":"親河民宿","LANDMARKAD":"1000208","ADDRESS":"宜蘭縣冬山鄉武淵村武淵二路6號","TEL":"03-9504278","COUNTYNAME":"宜蘭縣","TOWNNAME":"冬山鄉","MARKTYPE":"996","Class":"6"}},{"type":"Feature","id":22972,"geometry":{"type":"Point","coordinates":[121.81185118600399,24.671327078504866]},"properties":{"OBJECTID":22972,"LANDMARKID":"1000200001034","LANDMARKCO":"604","LANDMARKNA":"衿日林鄉村別墅","LANDMARKAD":"1000208","ADDRESS":"宜蘭縣冬山鄉武淵村武淵三路116號","TEL":"03-9500236","COUNTYNAME":"宜蘭縣","TOWNNAME":"冬山鄉","MARKTYPE":"996","Class":"6"}},{"type":"Feature","id":22973,"geometry":{"type":"Point","coordinates":[121.80653777352914,24.660320806845448]},"properties":{"OBJECTID":22973,"LANDMARKID":"1000200001035","LANDMARKCO":"604","LANDMARKNA":"翠堤春曉風箏民宿","LANDMARKAD":"1000208","ADDRESS":"宜蘭縣冬山鄉武淵村富堵路73號","TEL":"03-9591794","COUNTYNAME":"宜蘭縣","TOWNNAME":"冬山鄉","MARKTYPE":"996","Class":"6"}},{"type":"Feature","id":22974,"geometry":{"type":"Point","coordinates":[121.74642562137471,24.632680255437435]},"properties":{"OBJECTID":22974,"LANDMARKID":"1000200001036","LANDMARKCO":"604","LANDMARKNA":"綠野仙蹤民宿","LANDMARKAD":"1000208","ADDRESS":"宜蘭縣冬山鄉中山村中山三路53號","TEL":"03-9582975","COUNTYNAME":"宜蘭縣","TOWNNAME":"冬山鄉","MARKTYPE":"996","Class":"6"}},{"type":"Feature","id":22975,"geometry":{"type":"Point","coordinates":[121.74350728637918,24.690453972286036]},"properties":{"OBJECTID":22975,"LANDMARKID":"1000200001037","LANDMARKCO":"604","LANDMARKNA":"樂居生活","LANDMARKAD":"1000208","ADDRESS":"宜蘭縣冬山鄉柯林村安農三路151號","TEL":"03-9561778","COUNTYNAME":"宜蘭縣","TOWNNAME":"冬山鄉","MARKTYPE":"996","Class":"6"}},{"type":"Feature","id":22976,"geometry":{"type":"Point","coordinates":[121.80336638191321,24.665197929861325]},"properties":{"OBJECTID":22976,"LANDMARKID":"1000200001038","LANDMARKCO":"604","LANDMARKNA":"綠堤民宿","LANDMARKAD":"1000208","ADDRESS":"宜蘭縣冬山鄉武淵村東五路75號","TEL":"03-9503958","COUNTYNAME":"宜蘭縣","TOWNNAME":"冬山鄉","MARKTYPE":"996","Class":"6"}},{"type":"Feature","id":22977,"geometry":{"type":"Point","coordinates":[121.79380683074407,24.642430790922653]},"properties":{"OBJECTID":22977,"LANDMARKID":"1000200001039","LANDMARKCO":"604","LANDMARKNA":"伊彩園民宿","LANDMARKAD":"1000208","ADDRESS":"宜蘭縣冬山鄉珍珠村富農路一段323巷48號","TEL":"03-9590119","COUNTYNAME":"宜蘭縣","TOWNNAME":"冬山鄉","MARKTYPE":"996","Class":"6"}},{"type":"Feature","id":22978,"geometry":{"type":"Point","coordinates":[121.74794189184021,24.649218497036898]},"properties":{"OBJECTID":22978,"LANDMARKID":"1000200001040","LANDMARKCO":"604","LANDMARKNA":"松樹園","LANDMARKAD":"1000208","ADDRESS":"宜蘭縣冬山鄉鹿埔村鹿埔路101巷119號","TEL":"03-9680168","COUNTYNAME":"宜蘭縣","TOWNNAME":"冬山鄉","MARKTYPE":"996","Class":"6"}},{"type":"Feature","id":22979,"geometry":{"type":"Point","coordinates":[121.73947232334314,24.666658205390714]},"properties":{"OBJECTID":22979,"LANDMARKID":"1000200001041","LANDMARKCO":"604","LANDMARKNA":"希奇農莊","LANDMARKAD":"1000208","ADDRESS":"宜蘭縣冬山鄉廣興村廣興路529巷2弄51號","TEL":"03-9514483","COUNTYNAME":"宜蘭縣","TOWNNAME":"冬山鄉","MARKTYPE":"996","Class":"6"}},{"type":"Feature","id":22980,"geometry":{"type":"Point","coordinates":[121.72706047276644,24.682706114111941]},"properties":{"OBJECTID":22980,"LANDMARKID":"1000200001042","LANDMARKCO":"604","LANDMARKNA":"魚雅築渡假民宿","LANDMARKAD":"1000208","ADDRESS":"宜蘭縣冬山鄉柯林村光華一路407號","TEL":"03-9516100","COUNTYNAME":"宜蘭縣","TOWNNAME":"冬山鄉","MARKTYPE":"996","Class":"6"}},{"type":"Feature","id":22981,"geometry":{"type":"Point","coordinates":[121.73928381781396,24.677174133001511]},"properties":{"OBJECTID":22981,"LANDMARKID":"1000200001043","LANDMARKCO":"604","LANDMARKNA":"觀景樓花園民宿","LANDMARKAD":"1000208","ADDRESS":"宜蘭縣冬山鄉柯林村境安一路152號","TEL":"03-9613577","COUNTYNAME":"宜蘭縣","TOWNNAME":"冬山鄉","MARKTYPE":"996","Class":"6"}},{"type":"Feature","id":22982,"geometry":{"type":"Point","coordinates":[121.78435155234017,24.647470766749596]},"properties":{"OBJECTID":22982,"LANDMARKID":"1000200001044","LANDMARKCO":"604","LANDMARKNA":"阿庚客棧","LANDMARKAD":"1000208","ADDRESS":"宜蘭縣冬山鄉珍珠村冬山路二段533號","TEL":"03-9589080","COUNTYNAME":"宜蘭縣","TOWNNAME":"冬山鄉","MARKTYPE":"996","Class":"6"}},{"type":"Feature","id":22983,"geometry":{"type":"Point","coordinates":[121.78142961911482,24.646311535299059]},"properties":{"OBJECTID":22983,"LANDMARKID":"1000200001045","LANDMARKCO":"604","LANDMARKNA":"晴朗田園別墅","LANDMARKAD":"1000208","ADDRESS":"宜蘭縣冬山鄉珍珠村永鎮路125號","TEL":"03-9680426","COUNTYNAME":"宜蘭縣","TOWNNAME":"冬山鄉","MARKTYPE":"996","Class":"6"}},{"type":"Feature","id":22984,"geometry":{"type":"Point","coordinates":[121.72917443296365,24.624710311471357]},"properties":{"OBJECTID":22984,"LANDMARKID":"1000200001046","LANDMARKCO":"604","LANDMARKNA":"快樂休閒果園","LANDMARKAD":"1000208","ADDRESS":"宜蘭縣冬山鄉中山村中山路666號","TEL":"03-9813386","COUNTYNAME":"宜蘭縣","TOWNNAME":"冬山鄉","MARKTYPE":"996","Class":"6"}},{"type":"Feature","id":22985,"geometry":{"type":"Point","coordinates":[121.79267235848329,24.651323775188573]},"properties":{"OBJECTID":22985,"LANDMARKID":"1000200001047","LANDMARKCO":"604","LANDMARKNA":"歐香園","LANDMARKAD":"1000208","ADDRESS":"宜蘭縣冬山鄉珍珠村珍珠二路333號","TEL":"03-9508558","COUNTYNAME":"宜蘭縣","TOWNNAME":"冬山鄉","MARKTYPE":"996","Class":"6"}},{"type":"Feature","id":22986,"geometry":{"type":"Point","coordinates":[121.7863132507028,24.649338018751138]},"properties":{"OBJECTID":22986,"LANDMARKID":"1000200001048","LANDMARKCO":"604","LANDMARKNA":"彩虹園民宿","LANDMARKAD":"1000208","ADDRESS":"宜蘭縣冬山鄉珍珠村珍珠三路76號","TEL":"03-9500382","COUNTYNAME":"宜蘭縣","TOWNNAME":"冬山鄉","MARKTYPE":"996","Class":"6"}},{"type":"Feature","id":22987,"geometry":{"type":"Point","coordinates":[121.79689053338303,24.641337130409227]},"properties":{"OBJECTID":22987,"LANDMARKID":"1000200001049","LANDMARKCO":"604","LANDMARKNA":"芯園","LANDMARKAD":"1000208","ADDRESS":"宜蘭縣冬山鄉珍珠村富農路一段312巷120號","TEL":"03-9590565","COUNTYNAME":"宜蘭縣","TOWNNAME":"冬山鄉","MARKTYPE":"996","Class":"6"}},{"type":"Feature","id":22988,"geometry":{"type":"Point","coordinates":[121.79665186051642,24.641389394949787]},"properties":{"OBJECTID":22988,"LANDMARKID":"1000200001050","LANDMARKCO":"604","LANDMARKNA":"我的夢中城堡民宿","LANDMARKAD":"1000208","ADDRESS":"宜蘭縣冬山鄉珍珠村富農路一段312巷92號","TEL":"03-9590565","COUNTYNAME":"宜蘭縣","TOWNNAME":"冬山鄉","MARKTYPE":"996","Class":"6"}},{"type":"Feature","id":22989,"geometry":{"type":"Point","coordinates":[121.79692019633723,24.642327972539039]},"properties":{"OBJECTID":22989,"LANDMARKID":"1000200001051","LANDMARKCO":"604","LANDMARKNA":"富農民宿","LANDMARKAD":"1000208","ADDRESS":"宜蘭縣冬山鄉珍珠村富農路一段346巷60號","TEL":"03-9595156","COUNTYNAME":"宜蘭縣","TOWNNAME":"冬山鄉","MARKTYPE":"996","Class":"6"}},{"type":"Feature","id":22990,"geometry":{"type":"Point","coordinates":[121.79454438215731,24.642991548155731]},"properties":{"OBJECTID":22990,"LANDMARKID":"1000200001052","LANDMARKCO":"604","LANDMARKNA":"情定珍珠民宿","LANDMARKAD":"1000208","ADDRESS":"宜蘭縣冬山鄉珍珠村富農路一段383巷37弄16號","TEL":"03-9591410","COUNTYNAME":"宜蘭縣","TOWNNAME":"冬山鄉","MARKTYPE":"996","Class":"6"}},{"type":"Feature","id":22991,"geometry":{"type":"Point","coordinates":[121.79383841704272,24.643314623804937]},"properties":{"OBJECTID":22991,"LANDMARKID":"1000200001053","LANDMARKCO":"604","LANDMARKNA":"河畔森林城堡民宿","LANDMARKAD":"1000208","ADDRESS":"宜蘭縣冬山鄉珍珠村富農路一段383巷53號","TEL":"03-9560043","COUNTYNAME":"宜蘭縣","TOWNNAME":"冬山鄉","MARKTYPE":"996","Class":"6"}},{"type":"Feature","id":22992,"geometry":{"type":"Point","coordinates":[121.72921665121004,24.646795103165939]},"properties":{"OBJECTID":22992,"LANDMARKID":"1000200001054","LANDMARKCO":"604","LANDMARKNA":"幸福盒子民宿","LANDMARKAD":"1000208","ADDRESS":"宜蘭縣冬山鄉得安村大埤二路216號","TEL":"03-9510805","COUNTYNAME":"宜蘭縣","TOWNNAME":"冬山鄉","MARKTYPE":"996","Class":"6"}}]}