{"type":"FeatureCollection","features":[{"type":"Feature","id":21201,"geometry":{"type":"Point","coordinates":[120.28733544446121,22.655158830773342]},"properties":{"OBJECTID":21201,"LANDMARKID":"6400000000552","LANDMARKCO":"303","LANDMARKNA":"高雄市立美術館停車場","LANDMARKAD":"6400002","ADDRESS":"高雄市鼓山區","TEL":"07-5550331","COUNTYNAME":"高雄市","TOWNNAME":"鼓山區","MARKTYPE":"993","Class":"303"}},{"type":"Feature","id":21202,"geometry":{"type":"Point","coordinates":[120.28357584520855,22.655182151151553]},"properties":{"OBJECTID":21202,"LANDMARKID":"6400000000553","LANDMARKCO":"303","LANDMARKNA":"高雄市立美術館停車場","LANDMARKAD":"6400002","ADDRESS":"高雄市鼓山區","TEL":"07-5550331","COUNTYNAME":"高雄市","TOWNNAME":"鼓山區","MARKTYPE":"993","Class":"303"}},{"type":"Feature","id":21203,"geometry":{"type":"Point","coordinates":[120.2662077370528,22.617883358588934]},"properties":{"OBJECTID":21203,"LANDMARKID":"6400000000554","LANDMARKCO":"303","LANDMARKNA":"國立中山大學收費停車場","LANDMARKAD":"6400002","ADDRESS":"高雄市鼓山區蓮海路70號","TEL":" ","COUNTYNAME":"高雄市","TOWNNAME":"鼓山區","MARKTYPE":"993","Class":"303"}},{"type":"Feature","id":21204,"geometry":{"type":"Point","coordinates":[120.27339362943719,22.62202698473261]},"properties":{"OBJECTID":21204,"LANDMARKID":"6400000000683","LANDMARKCO":"306","LANDMARKNA":"西子灣捷運站-出口1","LANDMARKAD":"6400002","ADDRESS":" ","TEL":" ","COUNTYNAME":"高雄市","TOWNNAME":"鼓山區","MARKTYPE":"993","Class":"306"}},{"type":"Feature","id":21205,"geometry":{"type":"Point","coordinates":[120.27527334353337,22.62159897733348]},"properties":{"OBJECTID":21205,"LANDMARKID":"6400000000684","LANDMARKCO":"306","LANDMARKNA":"西子灣捷運站-出口2","LANDMARKAD":"6400002","ADDRESS":" ","TEL":" ","COUNTYNAME":"高雄市","TOWNNAME":"鼓山區","MARKTYPE":"993","Class":"306"}},{"type":"Feature","id":21206,"geometry":{"type":"Point","coordinates":[120.30280018295944,22.657166083082206]},"properties":{"OBJECTID":21206,"LANDMARKID":"6400000000685","LANDMARKCO":"306","LANDMARKNA":"凹子底捷運站-出口1","LANDMARKAD":"6400002","ADDRESS":" ","TEL":" ","COUNTYNAME":"高雄市","TOWNNAME":"鼓山區","MARKTYPE":"993","Class":"306"}},{"type":"Feature","id":21207,"geometry":{"type":"Point","coordinates":[120.30255441501467,22.658664931555638]},"properties":{"OBJECTID":21207,"LANDMARKID":"6400000000686","LANDMARKCO":"306","LANDMARKNA":"凹子底捷運站-出口4","LANDMARKAD":"6400002","ADDRESS":" ","TEL":" ","COUNTYNAME":"高雄市","TOWNNAME":"鼓山區","MARKTYPE":"993","Class":"306"}},{"type":"Feature","id":21208,"geometry":{"type":"Point","coordinates":[120.30294503421878,22.665683466215285]},"properties":{"OBJECTID":21208,"LANDMARKID":"6400000000687","LANDMARKCO":"306","LANDMARKNA":"巨蛋捷運站-出口2","LANDMARKAD":"6400002","ADDRESS":" ","TEL":" ","COUNTYNAME":"高雄市","TOWNNAME":"鼓山區","MARKTYPE":"993","Class":"306"}},{"type":"Feature","id":21209,"geometry":{"type":"Point","coordinates":[120.27322720251684,22.651493633293768]},"properties":{"OBJECTID":21209,"LANDMARKID":"6400000000546","LANDMARKCO":"303","LANDMARKNA":"壽山步道口停車場","LANDMARKAD":"6400002","ADDRESS":"高雄市鼓山區","TEL":" ","COUNTYNAME":"高雄市","TOWNNAME":"鼓山區","MARKTYPE":"993","Class":"303"}},{"type":"Feature","id":21210,"geometry":{"type":"Point","coordinates":[120.27444912599448,22.625357166311332]},"properties":{"OBJECTID":21210,"LANDMARKID":"6400000000547","LANDMARKCO":"303","LANDMARKNA":"忠烈祠停車場","LANDMARKAD":"6400002","ADDRESS":"高雄市鼓山區","TEL":" ","COUNTYNAME":"高雄市","TOWNNAME":"鼓山區","MARKTYPE":"993","Class":"303"}},{"type":"Feature","id":21211,"geometry":{"type":"Point","coordinates":[120.27439304650764,22.627971381412589]},"properties":{"OBJECTID":21211,"LANDMARKID":"6400000000548","LANDMARKCO":"303","LANDMARKNA":"壽山公園停車場","LANDMARKAD":"6400002","ADDRESS":"高雄市鼓山區","TEL":" ","COUNTYNAME":"高雄市","TOWNNAME":"鼓山區","MARKTYPE":"993","Class":"303"}},{"type":"Feature","id":21212,"geometry":{"type":"Point","coordinates":[120.29035818671251,22.655139532667068]},"properties":{"OBJECTID":21212,"LANDMARKID":"6400000000549","LANDMARKCO":"303","LANDMARKNA":"高雄市立聯合醫院美術館院區停車場","LANDMARKAD":"6400002","ADDRESS":"高雄市美術館路","TEL":" ","COUNTYNAME":"高雄市","TOWNNAME":"鼓山區","MARKTYPE":"993","Class":"303"}},{"type":"Feature","id":21213,"geometry":{"type":"Point","coordinates":[120.2806647860544,22.642054987775268]},"properties":{"OBJECTID":21213,"LANDMARKID":"6400000000428","LANDMARKCO":"301","LANDMARKNA":"鼓山車站","LANDMARKAD":"6400002","ADDRESS":"高雄市鼓山區鐵路街3號","TEL":"07-5514006","COUNTYNAME":"高雄市","TOWNNAME":"鼓山區","MARKTYPE":"993","Class":"301"}},{"type":"Feature","id":21214,"geometry":{"type":"Point","coordinates":[120.27540902890189,22.62158305504391]},"properties":{"OBJECTID":21214,"LANDMARKID":"6400000000429","LANDMARKCO":"301","LANDMARKNA":"高雄港車站","LANDMARKAD":"6400002","ADDRESS":"高雄市鼓山區鼓山一路32號","TEL":"03-9771429","COUNTYNAME":"高雄市","TOWNNAME":"鼓山區","MARKTYPE":"993","Class":"301"}},{"type":"Feature","id":21215,"geometry":{"type":"Point","coordinates":[120.27369272949346,22.622150349429354]},"properties":{"OBJECTID":21215,"LANDMARKID":"6400000000812","LANDMARKCO":"402","LANDMARKNA":"中華電信-高雄西子灣特約服務中心","LANDMARKAD":"6400002","ADDRESS":"高雄市鼓山區臨海二路20號","TEL":"07-5314988","COUNTYNAME":"高雄市","TOWNNAME":"鼓山區","MARKTYPE":"994","Class":"4"}},{"type":"Feature","id":21216,"geometry":{"type":"Point","coordinates":[120.29858321199271,22.664758645064637]},"properties":{"OBJECTID":21216,"LANDMARKID":"6400000000813","LANDMARKCO":"402","LANDMARKNA":"中華電信-文信服務中心","LANDMARKAD":"6400002","ADDRESS":"高雄市文信路262號","TEL":"123或0800-080-123","COUNTYNAME":"高雄市","TOWNNAME":"鼓山區","MARKTYPE":"994","Class":"4"}},{"type":"Feature","id":21217,"geometry":{"type":"Point","coordinates":[120.29654016726107,22.666631353337738]},"properties":{"OBJECTID":21217,"LANDMARKID":"6400000000814","LANDMARKCO":"402","LANDMARKNA":"遠傳電信-高雄華榮門市","LANDMARKAD":"6400002","ADDRESS":"高雄市鼓山區華榮路307號","TEL":" ","COUNTYNAME":"高雄市","TOWNNAME":"鼓山區","MARKTYPE":"994","Class":"4"}},{"type":"Feature","id":21218,"geometry":{"type":"Point","coordinates":[120.29859514355667,22.665499279102633]},"properties":{"OBJECTID":21218,"LANDMARKID":"6400000000815","LANDMARKCO":"402","LANDMARKNA":"威寶電信-高雄裕誠特約服務中心","LANDMARKAD":"6400002","ADDRESS":"高雄市鼓山區裕誠路1107號","TEL":"07-5557737","COUNTYNAME":"高雄市","TOWNNAME":"鼓山區","MARKTYPE":"994","Class":"4"}},{"type":"Feature","id":21219,"geometry":{"type":"Point","coordinates":[120.2978959689176,22.664400421796053]},"properties":{"OBJECTID":21219,"LANDMARKID":"6400000000816","LANDMARKCO":"402","LANDMARKNA":"大眾電信(震旦通訊)-高雄文信店","LANDMARKAD":"6400002","ADDRESS":"高雄市明倫路442號1.","TEL":"07-5505538","COUNTYNAME":"高雄市","TOWNNAME":"鼓山區","MARKTYPE":"994","Class":"4"}},{"type":"Feature","id":21220,"geometry":{"type":"Point","coordinates":[120.29575071044438,22.660937811626216]},"properties":{"OBJECTID":21220,"LANDMARKID":"6400000001383","LANDMARKCO":"603","LANDMARKNA":"御宿汽車旅館明誠館","LANDMARKAD":"6400002","ADDRESS":"高雄市鼓山區龍勝路333號","TEL":"07-5505501","COUNTYNAME":"高雄市","TOWNNAME":"鼓山區","MARKTYPE":"996","Class":"6"}},{"type":"Feature","id":21221,"geometry":{"type":"Point","coordinates":[120.29014920252426,22.662432652840419]},"properties":{"OBJECTID":21221,"LANDMARKID":"6400000001384","LANDMARKCO":"603","LANDMARKNA":"日光花園汽車旅館","LANDMARKAD":"6400002","ADDRESS":"高雄市鼓山區美術東四路333號","TEL":"07-5552788","COUNTYNAME":"高雄市","TOWNNAME":"鼓山區","MARKTYPE":"996","Class":"6"}},{"type":"Feature","id":21222,"geometry":{"type":"Point","coordinates":[120.294410202028,22.659942179711965]},"properties":{"OBJECTID":21222,"LANDMARKID":"6400000001385","LANDMARKCO":"603","LANDMARKNA":"伊甸風情精品旅店","LANDMARKAD":"6400002","ADDRESS":"高雄市鼓山區裕誠路1685號1-3樓","TEL":"07-9740888","COUNTYNAME":"高雄市","TOWNNAME":"鼓山區","MARKTYPE":"996","Class":"6"}},{"type":"Feature","id":21223,"geometry":{"type":"Point","coordinates":[120.29433639328367,22.658595933801223]},"properties":{"OBJECTID":21223,"LANDMARKID":"6400000001386","LANDMARKCO":"603","LANDMARKNA":"四季汽車旅館","LANDMARKAD":"6400002","ADDRESS":"高雄市鼓山區裕誠路1789號1-3樓","TEL":"07-5523322","COUNTYNAME":"高雄市","TOWNNAME":"鼓山區","MARKTYPE":"996","Class":"6"}},{"type":"Feature","id":21224,"geometry":{"type":"Point","coordinates":[120.27627628416018,22.623922076885073]},"properties":{"OBJECTID":21224,"LANDMARKID":"6400000001387","LANDMARKCO":"603","LANDMARKNA":"壽山旅社","LANDMARKAD":"6400002","ADDRESS":"高雄市鼓山區鼓山一路49號","TEL":"07-5514696","COUNTYNAME":"高雄市","TOWNNAME":"鼓山區","MARKTYPE":"996","Class":"6"}},{"type":"Feature","id":21225,"geometry":{"type":"Point","coordinates":[120.27167484523693,22.620708771256304]},"properties":{"OBJECTID":21225,"LANDMARKID":"6400000001388","LANDMARKCO":"603","LANDMARKNA":"環球旅社","LANDMARKAD":"6400002","ADDRESS":"高雄市鼓山區鼓南街38號","TEL":"07-5214217-0","COUNTYNAME":"高雄市","TOWNNAME":"鼓山區","MARKTYPE":"996","Class":"6"}},{"type":"Feature","id":21226,"geometry":{"type":"Point","coordinates":[120.26904447009922,22.618774011580498]},"properties":{"OBJECTID":21226,"LANDMARKID":"6400000001389","LANDMARKCO":"603","LANDMARKNA":"統一渡假村\u2500西子灣海景商務飯店","LANDMARKAD":"6400002","ADDRESS":"高雄市鼓山區哨船街14號","TEL":"07-5336676","COUNTYNAME":"高雄市","TOWNNAME":"鼓山區","MARKTYPE":"996","Class":"6"}},{"type":"Feature","id":21227,"geometry":{"type":"Point","coordinates":[120.29965101851504,22.664054552284124]},"properties":{"OBJECTID":21227,"LANDMARKID":"6400000001390","LANDMARKCO":"603","LANDMARKNA":"御宿汽車旅館","LANDMARKAD":"6400002","ADDRESS":"高雄市鼓山區文信路311號","TEL":"07-5532236","COUNTYNAME":"高雄市","TOWNNAME":"鼓山區","MARKTYPE":"996","Class":"6"}},{"type":"Feature","id":21228,"geometry":{"type":"Point","coordinates":[120.29109305886819,22.660801191324783]},"properties":{"OBJECTID":21228,"LANDMARKID":"6400000001391","LANDMARKCO":"603","LANDMARKNA":"春天商務旅館 (明誠店)","LANDMARKAD":"6400002","ADDRESS":"高雄市鼓山區明誠四路25號","TEL":"07-5526626","COUNTYNAME":"高雄市","TOWNNAME":"鼓山區","MARKTYPE":"996","Class":"6"}},{"type":"Feature","id":21229,"geometry":{"type":"Point","coordinates":[120.292550282547,22.655401450301071]},"properties":{"OBJECTID":21229,"LANDMARKID":"6400000001392","LANDMARKCO":"603","LANDMARKNA":"西悠飯店","LANDMARKAD":"6400002","ADDRESS":"高雄市鼓山區中華一路453號1至11樓","TEL":"07-5525388","COUNTYNAME":"高雄市","TOWNNAME":"鼓山區","MARKTYPE":"996","Class":"6"}},{"type":"Feature","id":21230,"geometry":{"type":"Point","coordinates":[120.28058725467699,22.660398240007122]},"properties":{"OBJECTID":21230,"LANDMARKID":"6400000001211","LANDMARKCO":"511","LANDMARKNA":"內惟夜市","LANDMARKAD":"6400002","ADDRESS":"高雄市鼓山區","TEL":" ","COUNTYNAME":"高雄市","TOWNNAME":"鼓山區","MARKTYPE":"995","Class":"5"}},{"type":"Feature","id":21231,"geometry":{"type":"Point","coordinates":[120.26463935808023,22.655155492120691]},"properties":{"OBJECTID":21231,"LANDMARKID":"6400000001179","LANDMARKCO":"503","LANDMARKNA":"柴山自然公園","LANDMARKAD":"6400002","ADDRESS":"高雄市鼓山區","TEL":" ","COUNTYNAME":"高雄市","TOWNNAME":"鼓山區","MARKTYPE":"995","Class":"5"}},{"type":"Feature","id":21232,"geometry":{"type":"Point","coordinates":[120.26479939782321,22.625100346420417]},"properties":{"OBJECTID":21232,"LANDMARKID":"6400000001203","LANDMARKCO":"509","LANDMARKNA":"西子灣海水浴場","LANDMARKAD":"6400002","ADDRESS":"高雄市鼓山區蓮海路51號","TEL":" ","COUNTYNAME":"高雄市","TOWNNAME":"鼓山區","MARKTYPE":"995","Class":"5"}},{"type":"Feature","id":21233,"geometry":{"type":"Point","coordinates":[120.27843184002299,22.635351179914789]},"properties":{"OBJECTID":21233,"LANDMARKID":"6400000001180","LANDMARKCO":"503","LANDMARKNA":"萬壽山風景區","LANDMARKAD":"6400002","ADDRESS":"高雄市鼓山區","TEL":" ","COUNTYNAME":"高雄市","TOWNNAME":"鼓山區","MARKTYPE":"995","Class":"5"}},{"type":"Feature","id":21234,"geometry":{"type":"Point","coordinates":[120.27711701604585,22.627991321011272]},"properties":{"OBJECTID":21234,"LANDMARKID":"6400000001181","LANDMARKCO":"503","LANDMARKNA":"萬壽山公園風景區","LANDMARKAD":"6400002","ADDRESS":"高雄市鼓山區","TEL":" ","COUNTYNAME":"高雄市","TOWNNAME":"鼓山區","MARKTYPE":"995","Class":"5"}},{"type":"Feature","id":21235,"geometry":{"type":"Point","coordinates":[120.27837035110859,22.619547270155213]},"properties":{"OBJECTID":21235,"LANDMARKID":"6400000001182","LANDMARKCO":"503","LANDMARKNA":"高雄漁人碼頭","LANDMARKAD":"6400002","ADDRESS":"高雄市鼓山區蓬萊路17號(","TEL":"07-5215559","COUNTYNAME":"高雄市","TOWNNAME":"鼓山區","MARKTYPE":"995","Class":"5"}},{"type":"Feature","id":21236,"geometry":{"type":"Point","coordinates":[120.30575556255135,22.623093233350932]},"properties":{"OBJECTID":21236,"LANDMARKID":"6400000000967","LANDMARKCO":"405","LANDMARKNA":"中油加油站-林森二路站(中油直營)","LANDMARKAD":"6400006","ADDRESS":"高雄市新興區新田路82號","TEL":"07-2819638","COUNTYNAME":"高雄市","TOWNNAME":"新興區","MARKTYPE":"994","Class":"4"}},{"type":"Feature","id":21237,"geometry":{"type":"Point","coordinates":[120.31709342663157,22.630710617415954]},"properties":{"OBJECTID":21237,"LANDMARKID":"6400000000968","LANDMARKCO":"405","LANDMARKNA":"中油加油站-中正二路站(刷卡自助)(中油直營)","LANDMARKAD":"6400006","ADDRESS":"高雄市新興區中正二路166號","TEL":"07-2241235","COUNTYNAME":"高雄市","TOWNNAME":"新興區","MARKTYPE":"994","Class":"4"}},{"type":"Feature","id":21238,"geometry":{"type":"Point","coordinates":[120.31052293111914,22.630491542923853]},"properties":{"OBJECTID":21238,"LANDMARKID":"6400000000969","LANDMARKCO":"405","LANDMARKNA":"中油加油站-中正三路站(中油直營)","LANDMARKAD":"6400006","ADDRESS":"高雄市新興區中正三路9號","TEL":"07-2261045","COUNTYNAME":"高雄市","TOWNNAME":"新興區","MARKTYPE":"994","Class":"4"}},{"type":"Feature","id":21239,"geometry":{"type":"Point","coordinates":[120.30476281101852,22.634923817946945]},"properties":{"OBJECTID":21239,"LANDMARKID":"6400000000869","LANDMARKCO":"402","LANDMARKNA":"My Phone台灣大哥大-高雄林森直營服務中心","LANDMARKAD":"6400006","ADDRESS":"高雄市新興區林森一路243-1號","TEL":"0809-000-166","COUNTYNAME":"高雄市","TOWNNAME":"新興區","MARKTYPE":"994","Class":"4"}},{"type":"Feature","id":21240,"geometry":{"type":"Point","coordinates":[120.30496285526813,22.624955696469453]},"properties":{"OBJECTID":21240,"LANDMARKID":"6400000000870","LANDMARKCO":"402","LANDMARKNA":"亞太行動寬頻電信-高雄五福加盟服務中心","LANDMARKAD":"6400006","ADDRESS":"高雄市新興區林森一路14號","TEL":"07-2154567","COUNTYNAME":"高雄市","TOWNNAME":"新興區","MARKTYPE":"994","Class":"4"}},{"type":"Feature","id":21241,"geometry":{"type":"Point","coordinates":[120.30466807223513,22.633703827445622]},"properties":{"OBJECTID":21241,"LANDMARKID":"6400000000871","LANDMARKCO":"402","LANDMARKNA":"亞太行動寬頻電信-高雄林森加盟服務中心","LANDMARKAD":"6400006","ADDRESS":"高雄市新興區林森一路227號","TEL":"07-2363333","COUNTYNAME":"高雄市","TOWNNAME":"新興區","MARKTYPE":"994","Class":"4"}},{"type":"Feature","id":21242,"geometry":{"type":"Point","coordinates":[120.31344239665246,22.633656030227939]},"properties":{"OBJECTID":21242,"LANDMARKID":"6400000000872","LANDMARKCO":"402","LANDMARKNA":"亞太行動寬頻電信-高雄民族加盟服務中心","LANDMARKAD":"6400006","ADDRESS":"高雄市新興區民族二路131號","TEL":"07-2382111","COUNTYNAME":"高雄市","TOWNNAME":"新興區","MARKTYPE":"994","Class":"4"}},{"type":"Feature","id":21243,"geometry":{"type":"Point","coordinates":[120.30145866103314,22.629868093934761]},"properties":{"OBJECTID":21243,"LANDMARKID":"6400000000731","LANDMARKCO":"401","LANDMARKNA":"惠仁醫院","LANDMARKAD":"6400006","ADDRESS":"高雄市新興區中山一路67之2號","TEL":"07-2010196","COUNTYNAME":"高雄市","TOWNNAME":"新興區","MARKTYPE":"994","Class":"4"}},{"type":"Feature","id":21244,"geometry":{"type":"Point","coordinates":[120.31433565898855,22.63394686519063]},"properties":{"OBJECTID":21244,"LANDMARKID":"6400000000732","LANDMARKCO":"401","LANDMARKNA":"蕭志文醫院","LANDMARKAD":"6400006","ADDRESS":"高雄市新興區七賢一路102號","TEL":"07-2240252","COUNTYNAME":"高雄市","TOWNNAME":"新興區","MARKTYPE":"994","Class":"4"}},{"type":"Feature","id":21245,"geometry":{"type":"Point","coordinates":[120.3141328375176,22.636166669406137]},"properties":{"OBJECTID":21245,"LANDMARKID":"6400000000733","LANDMARKCO":"401","LANDMARKNA":"靜和醫院","LANDMARKAD":"6400006","ADDRESS":"高雄市新興區民族二路178號","TEL":"07-2229612","COUNTYNAME":"高雄市","TOWNNAME":"新興區","MARKTYPE":"994","Class":"4"}},{"type":"Feature","id":21246,"geometry":{"type":"Point","coordinates":[120.31275754688288,22.630405274102337]},"properties":{"OBJECTID":21246,"LANDMARKID":"6400000000734","LANDMARKCO":"401","LANDMARKNA":"大千醫院","LANDMARKAD":"6400006","ADDRESS":"高雄市新興區中正三路1之11號","TEL":"07-2267799","COUNTYNAME":"高雄市","TOWNNAME":"新興區","MARKTYPE":"994","Class":"4"}},{"type":"Feature","id":21247,"geometry":{"type":"Point","coordinates":[120.29830444577154,22.633826167357679]},"properties":{"OBJECTID":21247,"LANDMARKID":"6400000000735","LANDMARKCO":"401","LANDMARKNA":"新華醫院","LANDMARKAD":"6400006","ADDRESS":"高雄市新興區七賢二路97號","TEL":"07-2876080","COUNTYNAME":"高雄市","TOWNNAME":"新興區","MARKTYPE":"994","Class":"4"}},{"type":"Feature","id":21248,"geometry":{"type":"Point","coordinates":[120.30911607916677,22.631126414437681]},"properties":{"OBJECTID":21248,"LANDMARKID":"6400000000736","LANDMARKCO":"401","LANDMARKNA":"原祿骨科醫院","LANDMARKAD":"6400006","ADDRESS":"高雄市新興區中正三路52號","TEL":"07-2371013","COUNTYNAME":"高雄市","TOWNNAME":"新興區","MARKTYPE":"994","Class":"4"}},{"type":"Feature","id":21249,"geometry":{"type":"Point","coordinates":[120.3020727182512,22.622859550805387]},"properties":{"OBJECTID":21249,"LANDMARKID":"6400000001176","LANDMARKCO":"410","LANDMARKNA":"新堀江商店街","LANDMARKAD":"6400006","ADDRESS":"高雄市新興區仁智街、文化路","TEL":" ","COUNTYNAME":"高雄市","TOWNNAME":"新興區","MARKTYPE":"994","Class":"4"}},{"type":"Feature","id":21250,"geometry":{"type":"Point","coordinates":[120.30119296435848,22.63135337103623]},"properties":{"OBJECTID":21250,"LANDMARKID":"6400000001218","LANDMARKCO":"512","LANDMARKNA":"觀光局高雄國際機場旅客服務中心","LANDMARKAD":"6400006","ADDRESS":"高雄市中山四路2號","TEL":"07-8057888","COUNTYNAME":"高雄市","TOWNNAME":"新興區","MARKTYPE":"995","Class":"5"}},{"type":"Feature","id":21251,"geometry":{"type":"Point","coordinates":[120.30348586578572,22.63088505626159]},"properties":{"OBJECTID":21251,"LANDMARKID":"6400000001129","LANDMARKCO":"408","LANDMARKNA":"郵局-新興郵局","LANDMARKAD":"6400006","ADDRESS":"高雄市新興區中正三路177號","TEL":"(07)2212-591","COUNTYNAME":"高雄市","TOWNNAME":"新興區","MARKTYPE":"994","Class":"4"}},{"type":"Feature","id":21252,"geometry":{"type":"Point","coordinates":[120.30819229360007,22.624980628578651]},"properties":{"OBJECTID":21252,"LANDMARKID":"6400000001130","LANDMARKCO":"408","LANDMARKNA":"郵局-高雄青年郵局","LANDMARKAD":"6400006","ADDRESS":"高雄市新興區復興二路171號","TEL":"(07)2825-716","COUNTYNAME":"高雄市","TOWNNAME":"新興區","MARKTYPE":"994","Class":"4"}},{"type":"Feature","id":21253,"geometry":{"type":"Point","coordinates":[120.31427702321466,22.633973488027653]},"properties":{"OBJECTID":21253,"LANDMARKID":"6400000001131","LANDMARKCO":"408","LANDMARKNA":"郵局-高雄順昌郵局","LANDMARKAD":"6400006","ADDRESS":"高雄市新興區七賢一路104號","TEL":"(07)2223-287","COUNTYNAME":"高雄市","TOWNNAME":"新興區","MARKTYPE":"994","Class":"4"}},{"type":"Feature","id":21254,"geometry":{"type":"Point","coordinates":[120.30379960295875,22.622191278955942]},"properties":{"OBJECTID":21254,"LANDMARKID":"6400000001132","LANDMARKCO":"408","LANDMARKNA":"郵局-高雄新田郵局","LANDMARKAD":"6400006","ADDRESS":"高雄市新興區新田路133號","TEL":"(07)2158-772","COUNTYNAME":"高雄市","TOWNNAME":"新興區","MARKTYPE":"994","Class":"4"}},{"type":"Feature","id":21255,"geometry":{"type":"Point","coordinates":[120.31365599122795,22.628193658046296]},"properties":{"OBJECTID":21255,"LANDMARKID":"6400000001058","LANDMARKCO":"407","LANDMARKNA":"小北百貨","LANDMARKAD":"6400006","ADDRESS":"高雄市新興區民生一路1號","TEL":"07-2291252","COUNTYNAME":"高雄市","TOWNNAME":"新興區","MARKTYPE":"994","Class":"4"}},{"type":"Feature","id":21256,"geometry":{"type":"Point","coordinates":[120.30988844324473,22.63051228230303]},"properties":{"OBJECTID":21256,"LANDMARKID":"6400000000076","LANDMARKCO":"103","LANDMARKNA":"高雄市新興區衛生所","LANDMARKAD":"6400006","ADDRESS":"高雄市新興區中正三路25號4樓","TEL":"07-2294121","COUNTYNAME":"高雄市","TOWNNAME":"新興區","MARKTYPE":"991","Class":"1"}},{"type":"Feature","id":21257,"geometry":{"type":"Point","coordinates":[120.30998527050792,22.631063939477727]},"properties":{"OBJECTID":21257,"LANDMARKID":"6400000000224","LANDMARKCO":"108","LANDMARKNA":"高雄市新興區公所","LANDMARKAD":"6400006","ADDRESS":"高雄市新興區中正三路34號4樓","TEL":"07-2386113","COUNTYNAME":"高雄市","TOWNNAME":"新興區","MARKTYPE":"991","Class":"1"}},{"type":"Feature","id":21258,"geometry":{"type":"Point","coordinates":[120.30221244556586,22.630671600726686]},"properties":{"OBJECTID":21258,"LANDMARKID":"6400000000164","LANDMARKCO":"107","LANDMARKNA":"高雄市政府警察局新興分局","LANDMARKAD":"6400006","ADDRESS":"高雄市新興區東坡里中山一路100號","TEL":"07-2212057","COUNTYNAME":"高雄市","TOWNNAME":"新興區","MARKTYPE":"991","Class":"1"}},{"type":"Feature","id":21259,"geometry":{"type":"Point","coordinates":[120.30298656278831,22.624001624359018]},"properties":{"OBJECTID":21259,"LANDMARKID":"6400000000165","LANDMARKCO":"107","LANDMARKNA":"高雄市政府警察局五福二路派出","LANDMARKAD":"6400006","ADDRESS":"高雄市新興區玉衡里五福二路222號","TEL":"07-2316481","COUNTYNAME":"高雄市","TOWNNAME":"新興區","MARKTYPE":"991","Class":"1"}},{"type":"Feature","id":21260,"geometry":{"type":"Point","coordinates":[120.31132379149392,22.630467511248316]},"properties":{"OBJECTID":21260,"LANDMARKID":"6400000000166","LANDMARKCO":"107","LANDMARKNA":"高雄市政府警察局中正三路派出","LANDMARKAD":"6400006","ADDRESS":"高雄市新興區光耀里中正三路3號","TEL":"07-2270189","COUNTYNAME":"高雄市","TOWNNAME":"新興區","MARKTYPE":"991","Class":"1"}},{"type":"Feature","id":21261,"geometry":{"type":"Point","coordinates":[120.30221244556586,22.630671600726686]},"properties":{"OBJECTID":21261,"LANDMARKID":"6400000000167","LANDMARKCO":"107","LANDMARKNA":"高雄市政府警察局中山路派出所","LANDMARKAD":"6400006","ADDRESS":"高雄市新興區東坡里中山一路100號","TEL":"07-2211209","COUNTYNAME":"高雄市","TOWNNAME":"新興區","MARKTYPE":"991","Class":"1"}},{"type":"Feature","id":21262,"geometry":{"type":"Point","coordinates":[120.30988844324473,22.63051228230303]},"properties":{"OBJECTID":21262,"LANDMARKID":"6400000000168","LANDMARKCO":"107","LANDMARKNA":"高雄市消防局","LANDMARKAD":"6400006","ADDRESS":"高雄市新興區中正三路25號7、8、9樓","TEL":"07-2271055","COUNTYNAME":"高雄市","TOWNNAME":"新興區","MARKTYPE":"991","Class":"1"}},{"type":"Feature","id":21263,"geometry":{"type":"Point","coordinates":[120.31132379149392,22.630467511248316]},"properties":{"OBJECTID":21263,"LANDMARKID":"6400000000169","LANDMARKCO":"107","LANDMARKNA":"高雄市消防局南區第一中隊","LANDMARKAD":"6400006","ADDRESS":"高雄市新興區中正三路3號","TEL":"07-2265662","COUNTYNAME":"高雄市","TOWNNAME":"新興區","MARKTYPE":"991","Class":"1"}},{"type":"Feature","id":21264,"geometry":{"type":"Point","coordinates":[120.31132379149392,22.630467511248316]},"properties":{"OBJECTID":21264,"LANDMARKID":"6400000000170","LANDMARKCO":"107","LANDMARKNA":"高雄市消防局新興消防分隊","LANDMARKAD":"6400006","ADDRESS":"高雄市新興區中正三路3號","TEL":"07-2265662","COUNTYNAME":"高雄市","TOWNNAME":"新興區","MARKTYPE":"991","Class":"1"}},{"type":"Feature","id":21265,"geometry":{"type":"Point","coordinates":[120.30998527050792,22.631063939477727]},"properties":{"OBJECTID":21265,"LANDMARKID":"6400000000116","LANDMARKCO":"106","LANDMARKNA":"高雄市新興區戶政事務所","LANDMARKAD":"6400006","ADDRESS":"高雄市新興區中正三路34號2樓","TEL":"07-2364015","COUNTYNAME":"高雄市","TOWNNAME":"新興區","MARKTYPE":"991","Class":"1"}},{"type":"Feature","id":21266,"geometry":{"type":"Point","coordinates":[120.30988844324473,22.63051228230303]},"properties":{"OBJECTID":21266,"LANDMARKID":"6400000000096","LANDMARKCO":"104","LANDMARKNA":"高雄市稅捐處","LANDMARKAD":"6400006","ADDRESS":"高雄市新興區中正三路25號","TEL":"07-2293151","COUNTYNAME":"高雄市","TOWNNAME":"新興區","MARKTYPE":"991","Class":"1"}},{"type":"Feature","id":21267,"geometry":{"type":"Point","coordinates":[120.30998527050792,22.631063939477727]},"properties":{"OBJECTID":21267,"LANDMARKID":"6400000000097","LANDMARKCO":"104","LANDMARKNA":"高雄市國稅局新興稽徵所","LANDMARKAD":"6400006","ADDRESS":"高雄市新興區中正三路34號8樓","TEL":"07-2367261","COUNTYNAME":"高雄市","TOWNNAME":"新興區","MARKTYPE":"991","Class":"1"}},{"type":"Feature","id":21268,"geometry":{"type":"Point","coordinates":[120.30315750849326,22.63090252310392]},"properties":{"OBJECTID":21268,"LANDMARKID":"6400000000010","LANDMARKCO":"101","LANDMARKNA":"新聞局駐高雄郵局核驗中心","LANDMARKAD":"6400006","ADDRESS":"高雄市新興區中正三路179號2樓","TEL":"07-2314876","COUNTYNAME":"高雄市","TOWNNAME":"新興區","MARKTYPE":"991","Class":"1"}},{"type":"Feature","id":21269,"geometry":{"type":"Point","coordinates":[120.30440245133691,22.632683383571386]},"properties":{"OBJECTID":21269,"LANDMARKID":"6400000000011","LANDMARKCO":"101","LANDMARKNA":"農糧署高雄辦事處","LANDMARKAD":"6400006","ADDRESS":"高雄市新興區六合一路113號","TEL":"07-2361181","COUNTYNAME":"高雄市","TOWNNAME":"新興區","MARKTYPE":"991","Class":"1"}},{"type":"Feature","id":21270,"geometry":{"type":"Point","coordinates":[120.30988844324473,22.63051228230303]},"properties":{"OBJECTID":21270,"LANDMARKID":"6400000000012","LANDMARKCO":"101","LANDMARKNA":"國有財產局台灣南區辦事處","LANDMARKAD":"6400006","ADDRESS":"高雄市新興區中正三路25號18樓","TEL":"07-2293670","COUNTYNAME":"高雄市","TOWNNAME":"新興區","MARKTYPE":"991","Class":"1"}},{"type":"Feature","id":21271,"geometry":{"type":"Point","coordinates":[120.30511493197666,22.624706438117023]},"properties":{"OBJECTID":21271,"LANDMARKID":"6400000000013","LANDMARKCO":"101","LANDMARKNA":"營建署市鄉規劃局市南區規劃隊","LANDMARKAD":"6400006","ADDRESS":"高雄市新興區五福二路200號5樓","TEL":"07-2319260","COUNTYNAME":"高雄市","TOWNNAME":"新興區","MARKTYPE":"991","Class":"1"}},{"type":"Feature","id":21272,"geometry":{"type":"Point","coordinates":[120.30752563423009,22.634432232379169]},"properties":{"OBJECTID":21272,"LANDMARKID":"6400000000014","LANDMARKCO":"101","LANDMARKNA":"勞工委員會南區勞動檢查所","LANDMARKAD":"6400006","ADDRESS":"高雄市新興區七賢一路386號11樓","TEL":"07-2354861","COUNTYNAME":"高雄市","TOWNNAME":"新興區","MARKTYPE":"991","Class":"1"}},{"type":"Feature","id":21273,"geometry":{"type":"Point","coordinates":[120.30973792422277,22.631204047453132]},"properties":{"OBJECTID":21273,"LANDMARKID":"6400000000110","LANDMARKCO":"105","LANDMARKNA":"高雄市新興地政事務所","LANDMARKAD":"6400006","ADDRESS":"高雄市新興區中正3路34號6-7樓","TEL":"07-2385026","COUNTYNAME":"高雄市","TOWNNAME":"新興區","MARKTYPE":"991","Class":"1"}},{"type":"Feature","id":21274,"geometry":{"type":"Point","coordinates":[120.30831664820498,22.630796762378257]},"properties":{"OBJECTID":21274,"LANDMARKID":"6400000000426","LANDMARKCO":"207","LANDMARKNA":"山美術館","LANDMARKAD":"6400006","ADDRESS":"高雄市中正三路55號29樓","TEL":" ","COUNTYNAME":"高雄市","TOWNNAME":"新興區","MARKTYPE":"992","Class":"2"}},{"type":"Feature","id":21275,"geometry":{"type":"Point","coordinates":[120.30998936442388,22.631078495598718]},"properties":{"OBJECTID":21275,"LANDMARKID":"6400000000416","LANDMARKCO":"204","LANDMARKNA":"高雄市立圖書館新興分館","LANDMARKAD":"6400006","ADDRESS":"高雄市新興區中正三路34號3樓","TEL":" ","COUNTYNAME":"高雄市","TOWNNAME":"新興區","MARKTYPE":"992","Class":"2"}},{"type":"Feature","id":21276,"geometry":{"type":"Point","coordinates":[120.30674365408757,22.627119277204613]},"properties":{"OBJECTID":21276,"LANDMARKID":"6400000000417","LANDMARKCO":"204","LANDMARKNA":"高雄市立圖書館新興民眾閱覽室","LANDMARKAD":"6400006","ADDRESS":"高雄市新興區民生一路271號","TEL":" ","COUNTYNAME":"高雄市","TOWNNAME":"新興區","MARKTYPE":"992","Class":"2"}},{"type":"Feature","id":21277,"geometry":{"type":"Point","coordinates":[120.30404421590293,22.624405908921531]},"properties":{"OBJECTID":21277,"LANDMARKID":"6400000000264","LANDMARKCO":"202","LANDMARKNA":"市立新興高中","LANDMARKAD":"6400006","ADDRESS":"高雄市新興區五福二路218號","TEL":"07-2727127","COUNTYNAME":"高雄市","TOWNNAME":"新興區","MARKTYPE":"992","Class":"2"}},{"type":"Feature","id":21278,"geometry":{"type":"Point","coordinates":[120.30950293805341,22.625731682375605]},"properties":{"OBJECTID":21278,"LANDMARKID":"6400000000265","LANDMARKCO":"202","LANDMARKNA":"市立高雄高商","LANDMARKAD":"6400006","ADDRESS":"高雄市新興區五福二路3號","TEL":"07-2269975","COUNTYNAME":"高雄市","TOWNNAME":"新興區","MARKTYPE":"992","Class":"2"}},{"type":"Feature","id":21279,"geometry":{"type":"Point","coordinates":[120.30696811004881,22.63404811787834]},"properties":{"OBJECTID":21279,"LANDMARKID":"6400000000332","LANDMARKCO":"203","LANDMARKNA":"市立七賢國小","LANDMARKAD":"6400006","ADDRESS":"高雄市新興區七賢一路393號","TEL":"07-2351150","COUNTYNAME":"高雄市","TOWNNAME":"新興區","MARKTYPE":"992","Class":"2"}},{"type":"Feature","id":21280,"geometry":{"type":"Point","coordinates":[120.29845801615237,22.627959852487333]},"properties":{"OBJECTID":21280,"LANDMARKID":"6400000000333","LANDMARKCO":"203","LANDMARKNA":"市立大同國小","LANDMARKAD":"6400006","ADDRESS":"高雄市新興區大同一路231號","TEL":"07-2823039","COUNTYNAME":"高雄市","TOWNNAME":"新興區","MARKTYPE":"992","Class":"2"}},{"type":"Feature","id":21281,"geometry":{"type":"Point","coordinates":[120.31099819909768,22.631632563177789]},"properties":{"OBJECTID":21281,"LANDMARKID":"6400000000334","LANDMARKCO":"203","LANDMARKNA":"市立信義國小","LANDMARKAD":"6400006","ADDRESS":"高雄市新興區中正三路32號","TEL":"07-2365163","COUNTYNAME":"高雄市","TOWNNAME":"新興區","MARKTYPE":"992","Class":"2"}},{"type":"Feature","id":21282,"geometry":{"type":"Point","coordinates":[120.30459191750194,22.626047448087753]},"properties":{"OBJECTID":21282,"LANDMARKID":"6400000000335","LANDMARKCO":"203","LANDMARKNA":"市立新興國小","LANDMARKAD":"6400006","ADDRESS":"高雄市新興區民生一路321號","TEL":"07-2218461","COUNTYNAME":"高雄市","TOWNNAME":"新興區","MARKTYPE":"992","Class":"2"}},{"type":"Feature","id":21283,"geometry":{"type":"Point","coordinates":[120.3025251814465,22.631749785613341]},"properties":{"OBJECTID":21283,"LANDMARKID":"6400000000634","LANDMARKCO":"306","LANDMARKNA":"美麗島捷運站-出口4","LANDMARKAD":"6400006","ADDRESS":" ","TEL":" ","COUNTYNAME":"高雄市","TOWNNAME":"新興區","MARKTYPE":"993","Class":"306"}},{"type":"Feature","id":21284,"geometry":{"type":"Point","coordinates":[120.30315354352763,22.631172419398183]},"properties":{"OBJECTID":21284,"LANDMARKID":"6400000000635","LANDMARKCO":"306","LANDMARKNA":"美麗島捷運站-出口5","LANDMARKAD":"6400006","ADDRESS":" ","TEL":" ","COUNTYNAME":"高雄市","TOWNNAME":"新興區","MARKTYPE":"993","Class":"306"}},{"type":"Feature","id":21285,"geometry":{"type":"Point","coordinates":[120.30435273661109,22.631103362098983]},"properties":{"OBJECTID":21285,"LANDMARKID":"6400000000636","LANDMARKCO":"306","LANDMARKNA":"美麗島捷運站-出口6","LANDMARKAD":"6400006","ADDRESS":" ","TEL":" ","COUNTYNAME":"高雄市","TOWNNAME":"新興區","MARKTYPE":"993","Class":"306"}},{"type":"Feature","id":21286,"geometry":{"type":"Point","coordinates":[120.30316655788208,22.631425387389847]},"properties":{"OBJECTID":21286,"LANDMARKID":"6400000000637","LANDMARKCO":"306","LANDMARKNA":"美麗島捷運站-出口7","LANDMARKAD":"6400006","ADDRESS":" ","TEL":" ","COUNTYNAME":"高雄市","TOWNNAME":"新興區","MARKTYPE":"993","Class":"306"}},{"type":"Feature","id":21287,"geometry":{"type":"Point","coordinates":[120.30438917315286,22.631349308222028]},"properties":{"OBJECTID":21287,"LANDMARKID":"6400000000638","LANDMARKCO":"306","LANDMARKNA":"美麗島捷運站-出口8","LANDMARKAD":"6400006","ADDRESS":" ","TEL":" ","COUNTYNAME":"高雄市","TOWNNAME":"新興區","MARKTYPE":"993","Class":"306"}},{"type":"Feature","id":21288,"geometry":{"type":"Point","coordinates":[120.30184334555052,22.632220664201725]},"properties":{"OBJECTID":21288,"LANDMARKID":"6400000000639","LANDMARKCO":"306","LANDMARKNA":"美麗島捷運站-出口9","LANDMARKAD":"6400006","ADDRESS":" ","TEL":" ","COUNTYNAME":"高雄市","TOWNNAME":"新興區","MARKTYPE":"993","Class":"306"}},{"type":"Feature","id":21289,"geometry":{"type":"Point","coordinates":[120.3021938218143,22.632194816551454]},"properties":{"OBJECTID":21289,"LANDMARKID":"6400000000640","LANDMARKCO":"306","LANDMARKNA":"美麗島捷運站-出口10","LANDMARKAD":"6400006","ADDRESS":" ","TEL":" ","COUNTYNAME":"高雄市","TOWNNAME":"新興區","MARKTYPE":"993","Class":"306"}},{"type":"Feature","id":21290,"geometry":{"type":"Point","coordinates":[120.30188536615007,22.632683393025271]},"properties":{"OBJECTID":21290,"LANDMARKID":"6400000000641","LANDMARKCO":"306","LANDMARKNA":"美麗島捷運站-出口11","LANDMARKAD":"6400006","ADDRESS":" ","TEL":" ","COUNTYNAME":"高雄市","TOWNNAME":"新興區","MARKTYPE":"993","Class":"306"}},{"type":"Feature","id":21291,"geometry":{"type":"Point","coordinates":[120.30138161812947,22.63170370902893]},"properties":{"OBJECTID":21291,"LANDMARKID":"6400000000642","LANDMARKCO":"306","LANDMARKNA":"美麗島捷運站-出口1","LANDMARKAD":"6400006","ADDRESS":" ","TEL":" ","COUNTYNAME":"高雄市","TOWNNAME":"新興區","MARKTYPE":"993","Class":"306"}},{"type":"Feature","id":21292,"geometry":{"type":"Point","coordinates":[120.30149022910702,22.630967763638168]},"properties":{"OBJECTID":21292,"LANDMARKID":"6400000000643","LANDMARKCO":"306","LANDMARKNA":"美麗島捷運站-出口2","LANDMARKAD":"6400006","ADDRESS":" ","TEL":" ","COUNTYNAME":"高雄市","TOWNNAME":"新興區","MARKTYPE":"993","Class":"306"}},{"type":"Feature","id":21293,"geometry":{"type":"Point","coordinates":[120.30244774787202,22.630939976627186]},"properties":{"OBJECTID":21293,"LANDMARKID":"6400000000644","LANDMARKCO":"306","LANDMARKNA":"美麗島捷運站-出口3","LANDMARKAD":"6400006","ADDRESS":" ","TEL":" ","COUNTYNAME":"高雄市","TOWNNAME":"新興區","MARKTYPE":"993","Class":"306"}},{"type":"Feature","id":21294,"geometry":{"type":"Point","coordinates":[120.31049772872908,22.631046286600181]},"properties":{"OBJECTID":21294,"LANDMARKID":"6400000000645","LANDMARKCO":"306","LANDMARKNA":"信義國小捷運站-出口1","LANDMARKAD":"6400006","ADDRESS":" ","TEL":" ","COUNTYNAME":"高雄市","TOWNNAME":"新興區","MARKTYPE":"993","Class":"306"}},{"type":"Feature","id":21295,"geometry":{"type":"Point","coordinates":[120.31128178320212,22.630981017446956]},"properties":{"OBJECTID":21295,"LANDMARKID":"6400000000646","LANDMARKCO":"306","LANDMARKNA":"信義國小捷運站-出口2","LANDMARKAD":"6400006","ADDRESS":" ","TEL":" ","COUNTYNAME":"高雄市","TOWNNAME":"新興區","MARKTYPE":"993","Class":"306"}},{"type":"Feature","id":21296,"geometry":{"type":"Point","coordinates":[120.31048089417611,22.630572403646106]},"properties":{"OBJECTID":21296,"LANDMARKID":"6400000000647","LANDMARKCO":"306","LANDMARKNA":"信義國小捷運站-出口3","LANDMARKAD":"6400006","ADDRESS":" ","TEL":" ","COUNTYNAME":"高雄市","TOWNNAME":"新興區","MARKTYPE":"993","Class":"306"}},{"type":"Feature","id":21297,"geometry":{"type":"Point","coordinates":[120.31215655968334,22.630528191177149]},"properties":{"OBJECTID":21297,"LANDMARKID":"6400000000648","LANDMARKCO":"306","LANDMARKNA":"信義國小捷運站-出口4","LANDMARKAD":"6400006","ADDRESS":" ","TEL":" ","COUNTYNAME":"高雄市","TOWNNAME":"新興區","MARKTYPE":"993","Class":"306"}},{"type":"Feature","id":21298,"geometry":{"type":"Point","coordinates":[120.31221044973367,22.630835522761824]},"properties":{"OBJECTID":21298,"LANDMARKID":"6400000000649","LANDMARKCO":"306","LANDMARKNA":"信義國小捷運站-出口5","LANDMARKAD":"6400006","ADDRESS":" ","TEL":" ","COUNTYNAME":"高雄市","TOWNNAME":"新興區","MARKTYPE":"993","Class":"306"}},{"type":"Feature","id":21299,"geometry":{"type":"Point","coordinates":[120.31667095319189,22.630521951243434]},"properties":{"OBJECTID":21299,"LANDMARKID":"6400000000650","LANDMARKCO":"306","LANDMARKNA":"文化中心捷運站-出口1","LANDMARKAD":"6400006","ADDRESS":" ","TEL":" ","COUNTYNAME":"高雄市","TOWNNAME":"新興區","MARKTYPE":"993","Class":"306"}},{"type":"Feature","id":21300,"geometry":{"type":"Point","coordinates":[120.30128231033426,22.623798858227143]},"properties":{"OBJECTID":21300,"LANDMARKID":"6400000000651","LANDMARKCO":"306","LANDMARKNA":"中央公園捷運站-出口2","LANDMARKAD":"6400006","ADDRESS":" ","TEL":" ","COUNTYNAME":"高雄市","TOWNNAME":"新興區","MARKTYPE":"993","Class":"306"}},{"type":"Feature","id":21301,"geometry":{"type":"Point","coordinates":[120.3015480597839,22.625905217333475]},"properties":{"OBJECTID":21301,"LANDMARKID":"6400000000652","LANDMARKCO":"306","LANDMARKNA":"中央公園捷運站-出口3","LANDMARKAD":"6400006","ADDRESS":" ","TEL":" ","COUNTYNAME":"高雄市","TOWNNAME":"新興區","MARKTYPE":"993","Class":"306"}},{"type":"Feature","id":21302,"geometry":{"type":"Point","coordinates":[120.30014004625276,22.628558690569474]},"properties":{"OBJECTID":21302,"LANDMARKID":"6400000000496","LANDMARKCO":"303","LANDMARKNA":"大通大飯店停車場","LANDMARKAD":"6400006","ADDRESS":"高雄市新興區大同一路205號","TEL":"07-2161760","COUNTYNAME":"高雄市","TOWNNAME":"新興區","MARKTYPE":"993","Class":"303"}},{"type":"Feature","id":21303,"geometry":{"type":"Point","coordinates":[120.30121064892005,22.632207359188108]},"properties":{"OBJECTID":21303,"LANDMARKID":"6400000000497","LANDMARKCO":"303","LANDMARKNA":"私人停車場","LANDMARKAD":"6400006","ADDRESS":"高雄市新興區","TEL":" ","COUNTYNAME":"高雄市","TOWNNAME":"新興區","MARKTYPE":"993","Class":"303"}},{"type":"Feature","id":21304,"geometry":{"type":"Point","coordinates":[120.30574674497055,22.621857233589683]},"properties":{"OBJECTID":21304,"LANDMARKID":"6400000000498","LANDMARKCO":"303","LANDMARKNA":"新興停車場","LANDMARKAD":"6400006","ADDRESS":"高雄市新興區林森二路219號","TEL":" ","COUNTYNAME":"高雄市","TOWNNAME":"新興區","MARKTYPE":"993","Class":"303"}},{"type":"Feature","id":21305,"geometry":{"type":"Point","coordinates":[120.31021252828839,22.632585221923332]},"properties":{"OBJECTID":21305,"LANDMARKID":"6400000000499","LANDMARKCO":"303","LANDMARKNA":"六合錦田停車場","LANDMARKAD":"6400006","ADDRESS":"高雄市新興區六合一路78號","TEL":" ","COUNTYNAME":"高雄市","TOWNNAME":"新興區","MARKTYPE":"993","Class":"303"}},{"type":"Feature","id":21306,"geometry":{"type":"Point","coordinates":[120.30589593934194,22.633637184401408]},"properties":{"OBJECTID":21306,"LANDMARKID":"6400000000500","LANDMARKCO":"303","LANDMARKNA":"公有十一號公園地下停車場","LANDMARKAD":"6400006","ADDRESS":"高雄市新興區忠孝一路331號","TEL":" ","COUNTYNAME":"高雄市","TOWNNAME":"新興區","MARKTYPE":"993","Class":"303"}},{"type":"Feature","id":21307,"geometry":{"type":"Point","coordinates":[120.3114871345913,22.623620918537195]},"properties":{"OBJECTID":21307,"LANDMARKID":"6400000000501","LANDMARKCO":"303","LANDMARKNA":"公有民權路輕鋼架立體停車場","LANDMARKAD":"6400006","ADDRESS":"高雄市新興區民權一路221號","TEL":" ","COUNTYNAME":"高雄市","TOWNNAME":"新興區","MARKTYPE":"993","Class":"303"}},{"type":"Feature","id":21308,"geometry":{"type":"Point","coordinates":[120.30992403006788,22.630607704689655]},"properties":{"OBJECTID":21308,"LANDMARKID":"6400000000502","LANDMARKCO":"303","LANDMARKNA":"財稅大樓地下停車場","LANDMARKAD":"6400006","ADDRESS":"高雄市新興區中正三路25號","TEL":" ","COUNTYNAME":"高雄市","TOWNNAME":"新興區","MARKTYPE":"993","Class":"303"}},{"type":"Feature","id":21309,"geometry":{"type":"Point","coordinates":[120.30110818545728,22.633255924263601]},"properties":{"OBJECTID":21309,"LANDMARKID":"6400000000503","LANDMARKCO":"303","LANDMARKNA":"貳拾肆小時停車場","LANDMARKAD":"6400006","ADDRESS":"高雄市新興區民主橫路61號","TEL":" ","COUNTYNAME":"高雄市","TOWNNAME":"新興區","MARKTYPE":"993","Class":"303"}},{"type":"Feature","id":21310,"geometry":{"type":"Point","coordinates":[120.31030189361006,22.629402540495516]},"properties":{"OBJECTID":21310,"LANDMARKID":"6400000000504","LANDMARKCO":"303","LANDMARKNA":"Times(普客二四停車場)-高雄錦田路停車場","LANDMARKAD":"6400006","ADDRESS":"高雄市新興區錦田路38號旁","TEL":" ","COUNTYNAME":"高雄市","TOWNNAME":"新興區","MARKTYPE":"993","Class":"303"}},{"type":"Feature","id":21311,"geometry":{"type":"Point","coordinates":[120.30459026809613,22.632312488862798]},"properties":{"OBJECTID":21311,"LANDMARKID":"6400000000873","LANDMARKCO":"402","LANDMARKNA":"中華電信-高雄新興特約服務中心","LANDMARKAD":"6400006","ADDRESS":"高雄市新興區林森一路199號","TEL":"07-2350998","COUNTYNAME":"高雄市","TOWNNAME":"新興區","MARKTYPE":"994","Class":"4"}},{"type":"Feature","id":21312,"geometry":{"type":"Point","coordinates":[120.31548660212268,22.632258982360746]},"properties":{"OBJECTID":21312,"LANDMARKID":"6400000000874","LANDMARKCO":"402","LANDMARKNA":"中華電信-高雄六合特約服務中心","LANDMARKAD":"6400006","ADDRESS":"高雄市六合路130號","TEL":"07-2294488","COUNTYNAME":"高雄市","TOWNNAME":"新興區","MARKTYPE":"994","Class":"4"}},{"type":"Feature","id":21313,"geometry":{"type":"Point","coordinates":[120.30528246406558,22.633555658687026]},"properties":{"OBJECTID":21313,"LANDMARKID":"6400000000875","LANDMARKCO":"402","LANDMARKNA":"中華電信-高雄營運處林森服務中心","LANDMARKAD":"6400006","ADDRESS":"高雄市林森一路230號","TEL":"123或0800-080-123","COUNTYNAME":"高雄市","TOWNNAME":"新興區","MARKTYPE":"994","Class":"4"}},{"type":"Feature","id":21314,"geometry":{"type":"Point","coordinates":[120.3034037831941,22.622314215133933]},"properties":{"OBJECTID":21314,"LANDMARKID":"6400000000876","LANDMARKCO":"402","LANDMARKNA":"中華電信-高雄新崛江特約服務中心","LANDMARKAD":"6400006","ADDRESS":"高雄市新興區新田路128號","TEL":"07-2169688","COUNTYNAME":"高雄市","TOWNNAME":"新興區","MARKTYPE":"994","Class":"4"}},{"type":"Feature","id":21315,"geometry":{"type":"Point","coordinates":[120.30498074115475,22.632180410836551]},"properties":{"OBJECTID":21315,"LANDMARKID":"6400000000877","LANDMARKCO":"402","LANDMARKNA":"遠傳電信-林森門市","LANDMARKAD":"6400006","ADDRESS":"高雄市林森一路196號","TEL":" ","COUNTYNAME":"高雄市","TOWNNAME":"新興區","MARKTYPE":"994","Class":"4"}},{"type":"Feature","id":21316,"geometry":{"type":"Point","coordinates":[120.30498074115475,22.632180410836551]},"properties":{"OBJECTID":21316,"LANDMARKID":"6400000000878","LANDMARKCO":"402","LANDMARKNA":"遠傳電信-南區維修中心","LANDMARKAD":"6400006","ADDRESS":"高雄市林森一路196號","TEL":" ","COUNTYNAME":"高雄市","TOWNNAME":"新興區","MARKTYPE":"994","Class":"4"}},{"type":"Feature","id":21317,"geometry":{"type":"Point","coordinates":[120.30313070778115,22.621959698957578]},"properties":{"OBJECTID":21317,"LANDMARKID":"6400000000879","LANDMARKCO":"402","LANDMARKNA":"威寶電信-高雄新田特約服務中心","LANDMARKAD":"6400006","ADDRESS":"高雄市新興區新田路161號","TEL":"07-2211271","COUNTYNAME":"高雄市","TOWNNAME":"新興區","MARKTYPE":"994","Class":"4"}},{"type":"Feature","id":21318,"geometry":{"type":"Point","coordinates":[120.31126486831263,22.6322166802859]},"properties":{"OBJECTID":21318,"LANDMARKID":"6400000000880","LANDMARKCO":"402","LANDMARKNA":"威寶電信-高雄六合特約服務中心","LANDMARKAD":"6400006","ADDRESS":"高雄市新興區六合一路39之9號","TEL":"07-2363770","COUNTYNAME":"高雄市","TOWNNAME":"新興區","MARKTYPE":"994","Class":"4"}},{"type":"Feature","id":21319,"geometry":{"type":"Point","coordinates":[120.30491673480492,22.631773466461034]},"properties":{"OBJECTID":21319,"LANDMARKID":"6400000000881","LANDMARKCO":"402","LANDMARKNA":"威寶電信-高雄林森特約服務中心","LANDMARKAD":"6400006","ADDRESS":"高雄市新興區林森一路190號","TEL":"07-2361777","COUNTYNAME":"高雄市","TOWNNAME":"新興區","MARKTYPE":"994","Class":"4"}},{"type":"Feature","id":21320,"geometry":{"type":"Point","coordinates":[120.30622814982345,22.6215590787351]},"properties":{"OBJECTID":21320,"LANDMARKID":"6400000000882","LANDMARKCO":"402","LANDMARKNA":"大眾電信(震旦通訊)-高雄青年店","LANDMARKAD":"6400006","ADDRESS":"高雄市青年一路326號","TEL":"07-2151161","COUNTYNAME":"高雄市","TOWNNAME":"新興區","MARKTYPE":"994","Class":"4"}},{"type":"Feature","id":21321,"geometry":{"type":"Point","coordinates":[120.30435109158346,22.629556055664292]},"properties":{"OBJECTID":21321,"LANDMARKID":"6400000000883","LANDMARKCO":"402","LANDMARKNA":"大眾電信(震旦通訊)-高雄新興店","LANDMARKAD":"6400006","ADDRESS":"高雄市林森一路155號","TEL":"07-2610050","COUNTYNAME":"高雄市","TOWNNAME":"新興區","MARKTYPE":"994","Class":"4"}},{"type":"Feature","id":21322,"geometry":{"type":"Point","coordinates":[120.30516866013069,22.635198293462071]},"properties":{"OBJECTID":21322,"LANDMARKID":"6400000000884","LANDMARKCO":"402","LANDMARKNA":"大眾電信(震旦通訊)-高雄林森店","LANDMARKAD":"6400006","ADDRESS":"高雄市林森一路246號","TEL":"07-2350911","COUNTYNAME":"高雄市","TOWNNAME":"新興區","MARKTYPE":"994","Class":"4"}},{"type":"Feature","id":21323,"geometry":{"type":"Point","coordinates":[120.30793550358389,22.632446778581553]},"properties":{"OBJECTID":21323,"LANDMARKID":"6400000000885","LANDMARKCO":"402","LANDMARKNA":"大眾電信-志邦通訊","LANDMARKAD":"6400006","ADDRESS":"高雄市新興區六合一路57之5號","TEL":"07-2356245","COUNTYNAME":"高雄市","TOWNNAME":"新興區","MARKTYPE":"994","Class":"4"}},{"type":"Feature","id":21324,"geometry":{"type":"Point","coordinates":[120.30793550358389,22.632446778581553]},"properties":{"OBJECTID":21324,"LANDMARKID":"6400000000886","LANDMARKCO":"402","LANDMARKNA":"大眾電信-六合專賣店","LANDMARKAD":"6400006","ADDRESS":"高雄市新興區六合一路57之5號","TEL":"07-2356245","COUNTYNAME":"高雄市","TOWNNAME":"新興區","MARKTYPE":"994","Class":"4"}},{"type":"Feature","id":21325,"geometry":{"type":"Point","coordinates":[120.30489528096693,22.631971960005004]},"properties":{"OBJECTID":21325,"LANDMARKID":"6400000000887","LANDMARKCO":"402","LANDMARKNA":"大眾電信-以中電信企業社","LANDMARKAD":"6400006","ADDRESS":"高雄市新興區林森一路194之1號","TEL":"07-2350677","COUNTYNAME":"高雄市","TOWNNAME":"新興區","MARKTYPE":"994","Class":"4"}},{"type":"Feature","id":21326,"geometry":{"type":"Point","coordinates":[120.3015147340132,22.632982667923883]},"properties":{"OBJECTID":21326,"LANDMARKID":"6400000001309","LANDMARKCO":"603","LANDMARKNA":"銀座賓館","LANDMARKAD":"6400006","ADDRESS":"高雄市新興區六合二路10號12樓","TEL":"07-2888199","COUNTYNAME":"高雄市","TOWNNAME":"新興區","MARKTYPE":"996","Class":"6"}},{"type":"Feature","id":21327,"geometry":{"type":"Point","coordinates":[120.29964761214116,22.627679064445424]},"properties":{"OBJECTID":21327,"LANDMARKID":"6400000001310","LANDMARKCO":"603","LANDMARKNA":"大益大飯店","LANDMARKAD":"6400006","ADDRESS":"高雄市新興區大同一路177號","TEL":"07-2312141-8","COUNTYNAME":"高雄市","TOWNNAME":"新興區","MARKTYPE":"996","Class":"6"}},{"type":"Feature","id":21328,"geometry":{"type":"Point","coordinates":[120.30020714805434,22.628565798779565]},"properties":{"OBJECTID":21328,"LANDMARKID":"6400000001311","LANDMARKCO":"603","LANDMARKNA":"大通大飯店","LANDMARKAD":"6400006","ADDRESS":"高雄市新興區大同一路205號1-11樓","TEL":"07-2160673","COUNTYNAME":"高雄市","TOWNNAME":"新興區","MARKTYPE":"996","Class":"6"}},{"type":"Feature","id":21329,"geometry":{"type":"Point","coordinates":[120.30253298462458,22.634157991727736]},"properties":{"OBJECTID":21329,"LANDMARKID":"6400000001312","LANDMARKCO":"603","LANDMARKNA":"愛的賓館","LANDMARKAD":"6400006","ADDRESS":"高雄市新興區中山一路240號11樓","TEL":"07-2373100","COUNTYNAME":"高雄市","TOWNNAME":"新興區","MARKTYPE":"996","Class":"6"}},{"type":"Feature","id":21330,"geometry":{"type":"Point","coordinates":[120.30190891017415,22.635263358379795]},"properties":{"OBJECTID":21330,"LANDMARKID":"6400000001313","LANDMARKCO":"603","LANDMARKNA":"凱得來大飯店","LANDMARKAD":"6400006","ADDRESS":"高雄市新興區中山一路257號","TEL":"07-2889131-8","COUNTYNAME":"高雄市","TOWNNAME":"新興區","MARKTYPE":"996","Class":"6"}},{"type":"Feature","id":21331,"geometry":{"type":"Point","coordinates":[120.30082972318166,22.632842772658165]},"properties":{"OBJECTID":21331,"LANDMARKID":"6400000001314","LANDMARKCO":"603","LANDMARKNA":"六合大旅社","LANDMARKAD":"6400006","ADDRESS":"高雄市新興區六合二路30號","TEL":"07-2867161","COUNTYNAME":"高雄市","TOWNNAME":"新興區","MARKTYPE":"996","Class":"6"}},{"type":"Feature","id":21332,"geometry":{"type":"Point","coordinates":[120.30064255022513,22.633500333473869]},"properties":{"OBJECTID":21332,"LANDMARKID":"6400000001315","LANDMARKCO":"603","LANDMARKNA":"澳克大飯店","LANDMARKAD":"6400006","ADDRESS":"高雄市新興區民主路12號","TEL":"07-2870151","COUNTYNAME":"高雄市","TOWNNAME":"新興區","MARKTYPE":"996","Class":"6"}},{"type":"Feature","id":21333,"geometry":{"type":"Point","coordinates":[120.30025463105724,22.633379547583647]},"properties":{"OBJECTID":21333,"LANDMARKID":"6400000001316","LANDMARKCO":"603","LANDMARKNA":"九福大飯店","LANDMARKAD":"6400006","ADDRESS":"高雄市新興區民主路16號1-8樓","TEL":"07-2872131","COUNTYNAME":"高雄市","TOWNNAME":"新興區","MARKTYPE":"996","Class":"6"}},{"type":"Feature","id":21334,"geometry":{"type":"Point","coordinates":[120.30005637704846,22.633314663107498]},"properties":{"OBJECTID":21334,"LANDMARKID":"6400000001317","LANDMARKCO":"603","LANDMARKNA":"佶莉大飯店","LANDMARKAD":"6400006","ADDRESS":"高雄市新興區民主路18號","TEL":"07-2417091","COUNTYNAME":"高雄市","TOWNNAME":"新興區","MARKTYPE":"996","Class":"6"}},{"type":"Feature","id":21335,"geometry":{"type":"Point","coordinates":[120.299930311068,22.633280556686994]},"properties":{"OBJECTID":21335,"LANDMARKID":"6400000001318","LANDMARKCO":"603","LANDMARKNA":"金月仙賓館","LANDMARKAD":"6400006","ADDRESS":"高雄市新興區民主路26號4樓","TEL":"07-2883117","COUNTYNAME":"高雄市","TOWNNAME":"新興區","MARKTYPE":"996","Class":"6"}},{"type":"Feature","id":21336,"geometry":{"type":"Point","coordinates":[120.299930311068,22.633280556686994]},"properties":{"OBJECTID":21336,"LANDMARKID":"6400000001319","LANDMARKCO":"603","LANDMARKNA":"儷都賓館","LANDMARKAD":"6400006","ADDRESS":"高雄市新興區民主路26號5樓","TEL":"07-2868181","COUNTYNAME":"高雄市","TOWNNAME":"新興區","MARKTYPE":"996","Class":"6"}},{"type":"Feature","id":21337,"geometry":{"type":"Point","coordinates":[120.30111753832639,22.633242640258025]},"properties":{"OBJECTID":21337,"LANDMARKID":"6400000001320","LANDMARKCO":"603","LANDMARKNA":"上陞商務旅館","LANDMARKAD":"6400006","ADDRESS":"高雄市新興區民主橫路11號","TEL":"07-2855568","COUNTYNAME":"高雄市","TOWNNAME":"新興區","MARKTYPE":"996","Class":"6"}},{"type":"Feature","id":21338,"geometry":{"type":"Point","coordinates":[120.30293643980779,22.633273464255534]},"properties":{"OBJECTID":21338,"LANDMARKID":"6400000001321","LANDMARKCO":"603","LANDMARKNA":"康橋大飯店-南華店","LANDMARKAD":"6400006","ADDRESS":"高雄市新興區南華路136號","TEL":"07-9685566","COUNTYNAME":"高雄市","TOWNNAME":"新興區","MARKTYPE":"996","Class":"6"}},{"type":"Feature","id":21339,"geometry":{"type":"Point","coordinates":[120.30311341803299,22.635442352771779]},"properties":{"OBJECTID":21339,"LANDMARKID":"6400000001322","LANDMARKCO":"603","LANDMARKNA":"梅花大飯店","LANDMARKAD":"6400006","ADDRESS":"高雄市新興區南華路188號","TEL":"07-2373141","COUNTYNAME":"高雄市","TOWNNAME":"新興區","MARKTYPE":"996","Class":"6"}},{"type":"Feature","id":21340,"geometry":{"type":"Point","coordinates":[120.30123053470773,22.628376042744062]},"properties":{"OBJECTID":21340,"LANDMARKID":"6400000001323","LANDMARKCO":"603","LANDMARKNA":"天佑大飯店","LANDMARKAD":"6400006","ADDRESS":"高雄市新興區中山一路29號","TEL":"07-2414101","COUNTYNAME":"高雄市","TOWNNAME":"新興區","MARKTYPE":"996","Class":"6"}},{"type":"Feature","id":21341,"geometry":{"type":"Point","coordinates":[120.30105298699137,22.634280567851295]},"properties":{"OBJECTID":21341,"LANDMARKID":"6400000001324","LANDMARKCO":"603","LANDMARKNA":"綠園大旅社","LANDMARKAD":"6400006","ADDRESS":"高雄市新興區民主橫路39-1號","TEL":"07-2866078","COUNTYNAME":"高雄市","TOWNNAME":"新興區","MARKTYPE":"996","Class":"6"}},{"type":"Feature","id":21342,"geometry":{"type":"Point","coordinates":[120.31719518021048,22.631638557704505]},"properties":{"OBJECTID":21342,"LANDMARKID":"6400000001325","LANDMARKCO":"603","LANDMARKNA":"松柏大飯店","LANDMARKAD":"6400006","ADDRESS":"高雄市新興區和平一路219號","TEL":"07-2232251","COUNTYNAME":"高雄市","TOWNNAME":"新興區","MARKTYPE":"996","Class":"6"}},{"type":"Feature","id":21343,"geometry":{"type":"Point","coordinates":[120.29956495890006,22.635200881032418]},"properties":{"OBJECTID":21343,"LANDMARKID":"6400000001326","LANDMARKCO":"603","LANDMARKNA":"玉都大飯店","LANDMARKAD":"6400006","ADDRESS":"高雄市新興區南台橫路31號2-8樓","TEL":"07-2860911","COUNTYNAME":"高雄市","TOWNNAME":"新興區","MARKTYPE":"996","Class":"6"}},{"type":"Feature","id":21344,"geometry":{"type":"Point","coordinates":[120.29760431715401,22.635707520652776]},"properties":{"OBJECTID":21344,"LANDMARKID":"6400000001327","LANDMARKCO":"603","LANDMARKNA":"河堤精品旅店","LANDMARKAD":"6400006","ADDRESS":"高雄市新興區八德二路94號1~10樓","TEL":"07-2885111","COUNTYNAME":"高雄市","TOWNNAME":"新興區","MARKTYPE":"996","Class":"6"}},{"type":"Feature","id":21345,"geometry":{"type":"Point","coordinates":[120.30651081793705,22.635233982840735]},"properties":{"OBJECTID":21345,"LANDMARKID":"6400000001328","LANDMARKCO":"603","LANDMARKNA":"假期商務飯店(忠孝店)","LANDMARKAD":"6400006","ADDRESS":"高雄市新興區忠孝一路482號","TEL":"07-2355555","COUNTYNAME":"高雄市","TOWNNAME":"新興區","MARKTYPE":"996","Class":"6"}},{"type":"Feature","id":21346,"geometry":{"type":"Point","coordinates":[120.3001511341914,22.633992744756867]},"properties":{"OBJECTID":21346,"LANDMARKID":"6400000001329","LANDMARKCO":"603","LANDMARKNA":"金石大飯店","LANDMARKAD":"6400006","ADDRESS":"高雄市新興區明星街32號","TEL":"07-2887171","COUNTYNAME":"高雄市","TOWNNAME":"新興區","MARKTYPE":"996","Class":"6"}},{"type":"Feature","id":21347,"geometry":{"type":"Point","coordinates":[120.30487998165914,22.636270405411274]},"properties":{"OBJECTID":21347,"LANDMARKID":"6400000001330","LANDMARKCO":"603","LANDMARKNA":"儂來旅館","LANDMARKAD":"6400006","ADDRESS":"高雄市新興區林森一路267號3樓","TEL":"07-2364747","COUNTYNAME":"高雄市","TOWNNAME":"新興區","MARKTYPE":"996","Class":"6"}},{"type":"Feature","id":21348,"geometry":{"type":"Point","coordinates":[120.30089763973378,22.636600086573683]},"properties":{"OBJECTID":21348,"LANDMARKID":"6400000001331","LANDMARKCO":"603","LANDMARKNA":"金馬大飯店","LANDMARKAD":"6400006","ADDRESS":"高雄市新興區河南二路12號","TEL":"07-2865141-7","COUNTYNAME":"高雄市","TOWNNAME":"新興區","MARKTYPE":"996","Class":"6"}},{"type":"Feature","id":21349,"geometry":{"type":"Point","coordinates":[120.3144134817484,22.633947562731855]},"properties":{"OBJECTID":21349,"LANDMARKID":"6400000001332","LANDMARKCO":"603","LANDMARKNA":"嵩山大飯店","LANDMARKAD":"6400006","ADDRESS":"高雄市新興區七賢一路100號","TEL":"07-2262266","COUNTYNAME":"高雄市","TOWNNAME":"新興區","MARKTYPE":"996","Class":"6"}},{"type":"Feature","id":21350,"geometry":{"type":"Point","coordinates":[120.31495388306911,22.633410327715644]},"properties":{"OBJECTID":21350,"LANDMARKID":"6400000001333","LANDMARKCO":"603","LANDMARKNA":"龍成飯店一瑞谷店","LANDMARKAD":"6400006","ADDRESS":"高雄市新興區七賢一路75號","TEL":"07-2240501","COUNTYNAME":"高雄市","TOWNNAME":"新興區","MARKTYPE":"996","Class":"6"}},{"type":"Feature","id":21351,"geometry":{"type":"Point","coordinates":[120.30142090912847,22.634455360309929]},"properties":{"OBJECTID":21351,"LANDMARKID":"6400000001334","LANDMARKCO":"603","LANDMARKNA":"高雄尊龍大飯店","LANDMARKAD":"6400006","ADDRESS":"高雄市新興區七賢二路11號","TEL":"07-2862008","COUNTYNAME":"高雄市","TOWNNAME":"新興區","MARKTYPE":"996","Class":"6"}},{"type":"Feature","id":21352,"geometry":{"type":"Point","coordinates":[120.30267858124067,22.636118957990906]},"properties":{"OBJECTID":21352,"LANDMARKID":"6400000001335","LANDMARKCO":"603","LANDMARKNA":"舜鈺旅館","LANDMARKAD":"6400006","ADDRESS":"高雄市新興區八德一路392號","TEL":"07-2356989","COUNTYNAME":"高雄市","TOWNNAME":"新興區","MARKTYPE":"996","Class":"6"}},{"type":"Feature","id":21353,"geometry":{"type":"Point","coordinates":[120.30149469643926,22.636244055950176]},"properties":{"OBJECTID":21353,"LANDMARKID":"6400000001336","LANDMARKCO":"603","LANDMARKNA":"黃帝大飯店","LANDMARKAD":"6400006","ADDRESS":"高雄市新興區八德二路10號","TEL":"07-2863011-23","COUNTYNAME":"高雄市","TOWNNAME":"新興區","MARKTYPE":"996","Class":"6"}},{"type":"Feature","id":21354,"geometry":{"type":"Point","coordinates":[120.29923535632838,22.630818087765878]},"properties":{"OBJECTID":21354,"LANDMARKID":"6400000001337","LANDMARKCO":"603","LANDMARKNA":"假期商務飯店(中正店)","LANDMARKAD":"6400006","ADDRESS":"高雄市新興區中正四路72號","TEL":"07-2887751","COUNTYNAME":"高雄市","TOWNNAME":"新興區","MARKTYPE":"996","Class":"6"}},{"type":"Feature","id":21355,"geometry":{"type":"Point","coordinates":[120.31316219921277,22.627455729487444]},"properties":{"OBJECTID":21355,"LANDMARKID":"6400000001338","LANDMARKCO":"603","LANDMARKNA":"麗景酒店","LANDMARKAD":"6400006","ADDRESS":"高雄市新興區五福一路106號1-11樓","TEL":"07-2261000","COUNTYNAME":"高雄市","TOWNNAME":"新興區","MARKTYPE":"996","Class":"6"}},{"type":"Feature","id":21356,"geometry":{"type":"Point","coordinates":[120.30529548950096,22.624768960223022]},"properties":{"OBJECTID":21356,"LANDMARKID":"6400000001339","LANDMARKCO":"603","LANDMARKNA":"城市之星商旅\u2500新崛江館","LANDMARKAD":"6400006","ADDRESS":"高雄市新興區五福二路198號","TEL":"07-9695599","COUNTYNAME":"高雄市","TOWNNAME":"新興區","MARKTYPE":"996","Class":"6"}},{"type":"Feature","id":21357,"geometry":{"type":"Point","coordinates":[120.30848733743629,22.632710460842333]},"properties":{"OBJECTID":21357,"LANDMARKID":"6400000001340","LANDMARKCO":"603","LANDMARKNA":"三華大飯店","LANDMARKAD":"6400006","ADDRESS":"高雄市新興區六合一路92號","TEL":"07-2392222","COUNTYNAME":"高雄市","TOWNNAME":"新興區","MARKTYPE":"996","Class":"6"}},{"type":"Feature","id":21358,"geometry":{"type":"Point","coordinates":[120.30138506067,22.635114302534674]},"properties":{"OBJECTID":21358,"LANDMARKID":"6400000001341","LANDMARKCO":"603","LANDMARKNA":"世國大飯店","LANDMARKAD":"6400006","ADDRESS":"高雄市新興區民主橫路64號","TEL":"07-2876151","COUNTYNAME":"高雄市","TOWNNAME":"新興區","MARKTYPE":"996","Class":"6"}},{"type":"Feature","id":21359,"geometry":{"type":"Point","coordinates":[120.30141940801973,22.635566144810664]},"properties":{"OBJECTID":21359,"LANDMARKID":"6400000001342","LANDMARKCO":"603","LANDMARKNA":"假日大旅館","LANDMARKAD":"6400006","ADDRESS":"高雄市新興區民主橫路74號4-5樓","TEL":"07-2865921","COUNTYNAME":"高雄市","TOWNNAME":"新興區","MARKTYPE":"996","Class":"6"}},{"type":"Feature","id":21360,"geometry":{"type":"Point","coordinates":[120.31410014835456,22.632761895366599]},"properties":{"OBJECTID":21360,"LANDMARKID":"6400000001343","LANDMARKCO":"603","LANDMARKNA":"春天商務旅館","LANDMARKAD":"6400006","ADDRESS":"高雄市新興區民族二路72號","TEL":"07-2232788","COUNTYNAME":"高雄市","TOWNNAME":"新興區","MARKTYPE":"996","Class":"6"}},{"type":"Feature","id":21361,"geometry":{"type":"Point","coordinates":[120.29761074092447,22.63603268807287]},"properties":{"OBJECTID":21361,"LANDMARKID":"6400000001344","LANDMARKCO":"603","LANDMARKNA":"首相賓館","LANDMARKAD":"6400006","ADDRESS":"高雄市新興區自立一路66之6號6樓","TEL":"07-2888777","COUNTYNAME":"高雄市","TOWNNAME":"新興區","MARKTYPE":"996","Class":"6"}},{"type":"Feature","id":21362,"geometry":{"type":"Point","coordinates":[120.29990032375335,22.629090027398291]},"properties":{"OBJECTID":21362,"LANDMARKID":"6400000001345","LANDMARKCO":"603","LANDMARKNA":"來來商務旅館","LANDMARKAD":"6400006","ADDRESS":"高雄市新興區自立二路8號","TEL":"07-2151089","COUNTYNAME":"高雄市","TOWNNAME":"新興區","MARKTYPE":"996","Class":"6"}},{"type":"Feature","id":21363,"geometry":{"type":"Point","coordinates":[120.30047167696679,22.635964272218647]},"properties":{"OBJECTID":21363,"LANDMARKID":"6400000001346","LANDMARKCO":"603","LANDMARKNA":"西北大旅社","LANDMARKAD":"6400006","ADDRESS":"高雄市新興區八德二路27號","TEL":"07-2859900","COUNTYNAME":"高雄市","TOWNNAME":"新興區","MARKTYPE":"996","Class":"6"}},{"type":"Feature","id":21364,"geometry":{"type":"Point","coordinates":[120.30808995370454,22.633956208845248]},"properties":{"OBJECTID":21364,"LANDMARKID":"6400000001225","LANDMARKCO":"601","LANDMARKNA":"高雄福華大飯店","LANDMARKAD":"6400006","ADDRESS":"高雄市新興區七賢一路311號","TEL":"07-236-2323","COUNTYNAME":"高雄市","TOWNNAME":"新興區","MARKTYPE":"996","Class":"6"}},{"type":"Feature","id":21365,"geometry":{"type":"Point","coordinates":[120.30065389811048,22.632621036260105]},"properties":{"OBJECTID":21365,"LANDMARKID":"6400000001212","LANDMARKCO":"511","LANDMARKNA":"六合夜市","LANDMARKAD":"6400006","ADDRESS":"高雄市新興區六合一路","TEL":" ","COUNTYNAME":"高雄市","TOWNNAME":"新興區","MARKTYPE":"995","Class":"5"}},{"type":"Feature","id":21366,"geometry":{"type":"Point","coordinates":[120.30278784083904,22.629648587730912]},"properties":{"OBJECTID":21366,"LANDMARKID":"6400000001213","LANDMARKCO":"511","LANDMARKNA":"南華觀光夜市(新興夜市)","LANDMARKAD":"6400006","ADDRESS":"高雄市新興區南華路","TEL":" ","COUNTYNAME":"高雄市","TOWNNAME":"新興區","MARKTYPE":"995","Class":"5"}},{"type":"Feature","id":21367,"geometry":{"type":"Point","coordinates":[120.29141632910782,22.6275835234139]},"properties":{"OBJECTID":21367,"LANDMARKID":"6400000000961","LANDMARKCO":"405","LANDMARKNA":"中油加油站-中正四路站(中油直營)","LANDMARKAD":"6400007","ADDRESS":"高雄市前金區中正四路251號","TEL":"07-2212453","COUNTYNAME":"高雄市","TOWNNAME":"前金區","MARKTYPE":"994","Class":"4"}},{"type":"Feature","id":21368,"geometry":{"type":"Point","coordinates":[120.29569684073698,22.630378160755633]},"properties":{"OBJECTID":21368,"LANDMARKID":"6400000000962","LANDMARKCO":"405","LANDMARKNA":"中油加油站-中華三路站(中油直營)","LANDMARKAD":"6400007","ADDRESS":"高雄市前金區中華三路136號","TEL":"07-2851354","COUNTYNAME":"高雄市","TOWNNAME":"前金區","MARKTYPE":"994","Class":"4"}},{"type":"Feature","id":21369,"geometry":{"type":"Point","coordinates":[120.29533702867103,22.635052957836994]},"properties":{"OBJECTID":21369,"LANDMARKID":"6400000000963","LANDMARKCO":"405","LANDMARKNA":"中油加油站-運河南路站(中油直營)","LANDMARKAD":"6400007","ADDRESS":"高雄市前金區河南二路87號","TEL":"07-2850458","COUNTYNAME":"高雄市","TOWNNAME":"前金區","MARKTYPE":"994","Class":"4"}},{"type":"Feature","id":21370,"geometry":{"type":"Point","coordinates":[120.30124904259867,22.62156207469657]},"properties":{"OBJECTID":21370,"LANDMARKID":"6400000000964","LANDMARKCO":"405","LANDMARKNA":"中油加油站-大眾站","LANDMARKAD":"6400007","ADDRESS":"高雄市苓雅區中山二路497號","TEL":"07-5370069","COUNTYNAME":"高雄市","TOWNNAME":"前金區","MARKTYPE":"994","Class":"4"}},{"type":"Feature","id":21371,"geometry":{"type":"Point","coordinates":[120.29423345246938,22.623532139829006]},"properties":{"OBJECTID":21371,"LANDMARKID":"6400000000965","LANDMARKCO":"405","LANDMARKNA":"中油加油站-成功一路站(中油直營)","LANDMARKAD":"6400007","ADDRESS":"高雄市前金區成功一路384號","TEL":"07-2218734","COUNTYNAME":"高雄市","TOWNNAME":"前金區","MARKTYPE":"994","Class":"4"}},{"type":"Feature","id":21372,"geometry":{"type":"Point","coordinates":[120.30108130391973,22.621803504722568]},"properties":{"OBJECTID":21372,"LANDMARKID":"6400000000966","LANDMARKCO":"405","LANDMARKNA":"中油加油站-中山二路站(中油直營)","LANDMARKAD":"6400007","ADDRESS":"高雄市前金區中山二路569號","TEL":"07-2317441","COUNTYNAME":"高雄市","TOWNNAME":"前金區","MARKTYPE":"994","Class":"4"}},{"type":"Feature","id":21373,"geometry":{"type":"Point","coordinates":[120.29930674895083,22.622058968485032]},"properties":{"OBJECTID":21373,"LANDMARKID":"6400000000888","LANDMARKCO":"402","LANDMARKNA":"My Phone台灣大哥大-高雄五福直營服務中心","LANDMARKAD":"6400007","ADDRESS":"高雄市前金區五福三路27號","TEL":" ","COUNTYNAME":"高雄市","TOWNNAME":"前金區","MARKTYPE":"994","Class":"4"}},{"type":"Feature","id":21374,"geometry":{"type":"Point","coordinates":[120.29388663252173,22.633938260088875]},"properties":{"OBJECTID":21374,"LANDMARKID":"6400000000889","LANDMARKCO":"402","LANDMARKNA":"亞太行動寬頻電信-高雄中華加盟服務中心","LANDMARKAD":"6400007","ADDRESS":"高雄市前金區中華三路237號","TEL":"07-2413026","COUNTYNAME":"高雄市","TOWNNAME":"前金區","MARKTYPE":"994","Class":"4"}},{"type":"Feature","id":21375,"geometry":{"type":"Point","coordinates":[120.29808588542582,22.622969383968897]},"properties":{"OBJECTID":21375,"LANDMARKID":"6400000000890","LANDMARKCO":"402","LANDMARKNA":"亞太行動寬頻電信-高雄市","LANDMARKAD":"6400007","ADDRESS":"高雄市前金區中華三路7號","TEL":" ","COUNTYNAME":"高雄市","TOWNNAME":"前金區","MARKTYPE":"994","Class":"4"}},{"type":"Feature","id":21376,"geometry":{"type":"Point","coordinates":[120.29371673837315,22.634379276756533]},"properties":{"OBJECTID":21376,"LANDMARKID":"6400000000727","LANDMARKCO":"401","LANDMARKNA":"重仁骨科醫院","LANDMARKAD":"6400007","ADDRESS":"高雄市前金區中華三路247號","TEL":"07-2813136","COUNTYNAME":"高雄市","TOWNNAME":"前金區","MARKTYPE":"994","Class":"4"}},{"type":"Feature","id":21377,"geometry":{"type":"Point","coordinates":[120.29083467456103,22.631331822175632]},"properties":{"OBJECTID":21377,"LANDMARKID":"6400000000728","LANDMARKCO":"401","LANDMARKNA":"健新醫院","LANDMARKAD":"6400007","ADDRESS":"高雄市前金區七賢二路295號","TEL":"07-2613866","COUNTYNAME":"高雄市","TOWNNAME":"前金區","MARKTYPE":"994","Class":"4"}},{"type":"Feature","id":21378,"geometry":{"type":"Point","coordinates":[120.29293884980443,22.631049123441979]},"properties":{"OBJECTID":21378,"LANDMARKID":"6400000000729","LANDMARKCO":"401","LANDMARKNA":"吉田耳鼻喉科醫院","LANDMARKAD":"6400007","ADDRESS":"高雄市前金區自強一路63號","TEL":"07-2113167","COUNTYNAME":"高雄市","TOWNNAME":"前金區","MARKTYPE":"994","Class":"4"}},{"type":"Feature","id":21379,"geometry":{"type":"Point","coordinates":[120.29728301256651,22.626782355830628]},"properties":{"OBJECTID":21379,"LANDMARKID":"6400000000730","LANDMARKCO":"401","LANDMARKNA":"高雄市立中醫醫院","LANDMARKAD":"6400007","ADDRESS":"高雄市前金區中華三路68號","TEL":"07-2163186","COUNTYNAME":"高雄市","TOWNNAME":"前金區","MARKTYPE":"994","Class":"4"}},{"type":"Feature","id":21380,"geometry":{"type":"Point","coordinates":[120.29932502780851,22.623668824848]},"properties":{"OBJECTID":21380,"LANDMARKID":"6400000001177","LANDMARKCO":"410","LANDMARKNA":"城市光廊","LANDMARKAD":"6400007","ADDRESS":"高雄市前金區中華三路6號","TEL":" ","COUNTYNAME":"高雄市","TOWNNAME":"前金區","MARKTYPE":"994","Class":"4"}},{"type":"Feature","id":21381,"geometry":{"type":"Point","coordinates":[120.29241181872884,22.628035153529716]},"properties":{"OBJECTID":21381,"LANDMARKID":"6400000001216","LANDMARKCO":"512","LANDMARKNA":"交通部觀光局旅遊服務中心高雄服務處","LANDMARKAD":"6400007","ADDRESS":"高雄市中正四路235號5樓之1","TEL":"07-2811513","COUNTYNAME":"高雄市","TOWNNAME":"前金區","MARKTYPE":"995","Class":"5"}},{"type":"Feature","id":21382,"geometry":{"type":"Point","coordinates":[120.29117759203514,22.626377696077018]},"properties":{"OBJECTID":21382,"LANDMARKID":"6400000001217","LANDMARKCO":"512","LANDMARKNA":"高雄市旅行商業同業公會","LANDMARKAD":"6400007","ADDRESS":"高雄市市中一路167號5樓","TEL":"07-2413881　","COUNTYNAME":"高雄市","TOWNNAME":"前金區","MARKTYPE":"995","Class":"5"}},{"type":"Feature","id":21383,"geometry":{"type":"Point","coordinates":[120.29427679890141,22.629155486757153]},"properties":{"OBJECTID":21383,"LANDMARKID":"6400000001126","LANDMARKCO":"408","LANDMARKNA":"郵局-前金郵局","LANDMARKAD":"6400007","ADDRESS":"高雄市前金區中正四路182號","TEL":"(07)2714-866","COUNTYNAME":"高雄市","TOWNNAME":"前金區","MARKTYPE":"994","Class":"4"}},{"type":"Feature","id":21384,"geometry":{"type":"Point","coordinates":[120.29520820506538,22.626099060265446]},"properties":{"OBJECTID":21384,"LANDMARKID":"6400000001127","LANDMARKCO":"408","LANDMARKNA":"郵局-高雄社東郵局","LANDMARKAD":"6400007","ADDRESS":"高雄市前金區自強二路104之1號","TEL":"(07)2726-714","COUNTYNAME":"高雄市","TOWNNAME":"前金區","MARKTYPE":"994","Class":"4"}},{"type":"Feature","id":21385,"geometry":{"type":"Point","coordinates":[120.29054798578689,22.626951409988145]},"properties":{"OBJECTID":21385,"LANDMARKID":"6400000001128","LANDMARKCO":"408","LANDMARKNA":"郵局-高雄地方法院郵局","LANDMARKAD":"6400007","ADDRESS":"高雄市前金區市中一路171號(高雄地院內)","TEL":"(07)2168-291","COUNTYNAME":"高雄市","TOWNNAME":"前金區","MARKTYPE":"994","Class":"4"}},{"type":"Feature","id":21386,"geometry":{"type":"Point","coordinates":[120.2960249699057,22.619344543799578]},"properties":{"OBJECTID":21386,"LANDMARKID":"6400000001059","LANDMARKCO":"407","LANDMARKNA":"漢神百貨","LANDMARKAD":"6400007","ADDRESS":"高雄市前金區成功一路266-1號","TEL":"07-2157266","COUNTYNAME":"高雄市","TOWNNAME":"前金區","MARKTYPE":"994","Class":"4"}},{"type":"Feature","id":21387,"geometry":{"type":"Point","coordinates":[120.29761320749812,22.621621995403423]},"properties":{"OBJECTID":21387,"LANDMARKID":"6400000001060","LANDMARKCO":"407","LANDMARKNA":"大立伊勢丹百貨","LANDMARKAD":"6400007","ADDRESS":"高雄市前金區五福三路59號","TEL":"07-2613060","COUNTYNAME":"高雄市","TOWNNAME":"前金區","MARKTYPE":"994","Class":"4"}},{"type":"Feature","id":21388,"geometry":{"type":"Point","coordinates":[120.2960249699057,22.619344543799578]},"properties":{"OBJECTID":21388,"LANDMARKID":"6400000001061","LANDMARKCO":"407","LANDMARKNA":"先施百貨","LANDMARKAD":"6400007","ADDRESS":"高雄市前金區成功一路266號3樓","TEL":"07-2728918","COUNTYNAME":"高雄市","TOWNNAME":"前金區","MARKTYPE":"994","Class":"4"}},{"type":"Feature","id":21389,"geometry":{"type":"Point","coordinates":[120.29761320749812,22.621621995403423]},"properties":{"OBJECTID":21389,"LANDMARKID":"6400000001062","LANDMARKCO":"407","LANDMARKNA":"誠品Eslite","LANDMARKAD":"6400007","ADDRESS":"高雄市前金區五福三路57號7F","TEL":"07-251-2595","COUNTYNAME":"高雄市","TOWNNAME":"前金區","MARKTYPE":"994","Class":"4"}},{"type":"Feature","id":21390,"geometry":{"type":"Point","coordinates":[120.2960249699057,22.619344543799578]},"properties":{"OBJECTID":21390,"LANDMARKID":"6400000001063","LANDMARKCO":"407","LANDMARKNA":"LV專賣店","LANDMARKAD":"6400007","ADDRESS":"高雄市前金區成功一路266號之1","TEL":"07-2519938","COUNTYNAME":"高雄市","TOWNNAME":"前金區","MARKTYPE":"994","Class":"4"}},{"type":"Feature","id":21391,"geometry":{"type":"Point","coordinates":[120.29182177523229,22.629495081756499]},"properties":{"OBJECTID":21391,"LANDMARKID":"6400000000158","LANDMARKCO":"107","LANDMARKNA":"內政部入出國及移民署","LANDMARKAD":"6400007","ADDRESS":"高雄市前金區成功一路436號","TEL":"07-2211829","COUNTYNAME":"高雄市","TOWNNAME":"前金區","MARKTYPE":"991","Class":"1"}},{"type":"Feature","id":21392,"geometry":{"type":"Point","coordinates":[120.29182177523229,22.629495081756499]},"properties":{"OBJECTID":21392,"LANDMARKID":"6400000000015","LANDMARKCO":"101","LANDMARKNA":"外交部領事事務局高雄辦事處","LANDMARKAD":"6400007","ADDRESS":"高雄市前金區成功一路436號","TEL":"07-2110605","COUNTYNAME":"高雄市","TOWNNAME":"前金區","MARKTYPE":"991","Class":"1"}},{"type":"Feature","id":21393,"geometry":{"type":"Point","coordinates":[120.29182177523229,22.629495081756499]},"properties":{"OBJECTID":21393,"LANDMARKID":"6400000000016","LANDMARKCO":"101","LANDMARKNA":"南部聯合服務中心","LANDMARKAD":"6400007","ADDRESS":"高雄市前金區成功一路436號","TEL":"07-2712300","COUNTYNAME":"高雄市","TOWNNAME":"前金區","MARKTYPE":"991","Class":"1"}},{"type":"Feature","id":21394,"geometry":{"type":"Point","coordinates":[120.29182177523229,22.629495081756499]},"properties":{"OBJECTID":21394,"LANDMARKID":"6400000000017","LANDMARKCO":"101","LANDMARKNA":"經濟部中小企業處南區服務中心","LANDMARKAD":"6400007","ADDRESS":"高雄市前金區成功一路436號9樓","TEL":"07-2710900*211","COUNTYNAME":"高雄市","TOWNNAME":"前金區","MARKTYPE":"991","Class":"1"}},{"type":"Feature","id":21395,"geometry":{"type":"Point","coordinates":[120.29182177523229,22.629495081756499]},"properties":{"OBJECTID":21395,"LANDMARKID":"6400000000018","LANDMARKCO":"101","LANDMARKNA":"經濟部高雄服務中心","LANDMARKAD":"6400007","ADDRESS":"高雄市前金區成功一路436號9樓","TEL":"07-2710900","COUNTYNAME":"高雄市","TOWNNAME":"前金區","MARKTYPE":"991","Class":"1"}},{"type":"Feature","id":21396,"geometry":{"type":"Point","coordinates":[120.29182177523229,22.629495081756499]},"properties":{"OBJECTID":21396,"LANDMARKID":"6400000000019","LANDMARKCO":"101","LANDMARKNA":"經濟部智慧財產局","LANDMARKAD":"6400007","ADDRESS":"高雄市前金區成功一路436號","TEL":"07-2711922","COUNTYNAME":"高雄市","TOWNNAME":"前金區","MARKTYPE":"991","Class":"1"}},{"type":"Feature","id":21397,"geometry":{"type":"Point","coordinates":[120.29212986107831,22.627865470369244]},"properties":{"OBJECTID":21397,"LANDMARKID":"6400000000020","LANDMARKCO":"101","LANDMARKNA":"台灣更生保護會高雄分會","LANDMARKAD":"6400007","ADDRESS":"高雄市前金區中正四路245號2樓","TEL":"07-2010925","COUNTYNAME":"高雄市","TOWNNAME":"前金區","MARKTYPE":"991","Class":"1"}},{"type":"Feature","id":21398,"geometry":{"type":"Point","coordinates":[120.29427080092502,22.627550257478653]},"properties":{"OBJECTID":21398,"LANDMARKID":"6400000000223","LANDMARKCO":"108","LANDMARKNA":"高雄市前金區公所","LANDMARKAD":"6400007","ADDRESS":"高雄市前金區自強二路169號","TEL":"07-2723133","COUNTYNAME":"高雄市","TOWNNAME":"前金區","MARKTYPE":"991","Class":"1"}},{"type":"Feature","id":21399,"geometry":{"type":"Point","coordinates":[120.2923195348958,22.629664288195325]},"properties":{"OBJECTID":21399,"LANDMARKID":"6400000000025","LANDMARKCO":"101","LANDMARKNA":"高雄憲兵隊","LANDMARKAD":"6400007","ADDRESS":"高雄市六合二路217號","TEL":"07-2715469","COUNTYNAME":"高雄市","TOWNNAME":"前金區","MARKTYPE":"991","Class":"1"}},{"type":"Feature","id":21400,"geometry":{"type":"Point","coordinates":[120.29120719067681,22.628095383385258]},"properties":{"OBJECTID":21400,"LANDMARKID":"6400000000171","LANDMARKCO":"107","LANDMARKNA":"高雄市政府警察局總局","LANDMARKAD":"6400007","ADDRESS":"高雄市前金區後金里中正四路260號","TEL":"07-2155555","COUNTYNAME":"高雄市","TOWNNAME":"前金區","MARKTYPE":"991","Class":"1"}}]}