{"type":"FeatureCollection","features":[{"type":"Feature","id":19401,"geometry":{"type":"Point","coordinates":[120.53421750667157,22.86608820482957]},"properties":{"OBJECTID":19401,"LANDMARKID":"1001200000487","LANDMARKCO":"203","LANDMARKNA":"縣立南隆國中","LANDMARKAD":"1001220","ADDRESS":"高雄市美濃區南中街3號","TEL":"07-6831154","COUNTYNAME":"高雄市","TOWNNAME":"美濃區","MARKTYPE":"992","Class":"2"}},{"type":"Feature","id":19402,"geometry":{"type":"Point","coordinates":[120.54346871045747,22.894112696096801]},"properties":{"OBJECTID":19402,"LANDMARKID":"1001200000488","LANDMARKCO":"203","LANDMARKNA":"縣立美濃國中","LANDMARKAD":"1001220","ADDRESS":"高雄市美濃區合和里中正路一段191號","TEL":"07-6816166","COUNTYNAME":"高雄市","TOWNNAME":"美濃區","MARKTYPE":"992","Class":"2"}},{"type":"Feature","id":19403,"geometry":{"type":"Point","coordinates":[120.57117702188924,22.87838563203691]},"properties":{"OBJECTID":19403,"LANDMARKID":"1001200000489","LANDMARKCO":"203","LANDMARKNA":"縣立龍肚國中","LANDMARKAD":"1001220","ADDRESS":"高雄市美濃區龍山里中華路68號","TEL":"07-6851314","COUNTYNAME":"高雄市","TOWNNAME":"美濃區","MARKTYPE":"992","Class":"2"}},{"type":"Feature","id":19404,"geometry":{"type":"Point","coordinates":[120.5194629815452,22.898010273659178]},"properties":{"OBJECTID":19404,"LANDMARKID":"1001200000490","LANDMARKCO":"203","LANDMARKNA":"縣立福安國小","LANDMARKAD":"1001220","ADDRESS":"高雄市美濃區中山路二段358號","TEL":"07-6812514","COUNTYNAME":"高雄市","TOWNNAME":"美濃區","MARKTYPE":"992","Class":"2"}},{"type":"Feature","id":19405,"geometry":{"type":"Point","coordinates":[120.52092893290187,22.861354666240103]},"properties":{"OBJECTID":19405,"LANDMARKID":"1001200000491","LANDMARKCO":"203","LANDMARKNA":"縣立吉洋國小","LANDMARKAD":"1001220","ADDRESS":"高雄市美濃區吉和里忠孝路二段59號","TEL":"07-6831849","COUNTYNAME":"高雄市","TOWNNAME":"美濃區","MARKTYPE":"992","Class":"2"}},{"type":"Feature","id":19406,"geometry":{"type":"Point","coordinates":[120.53105342673986,22.883868185187559]},"properties":{"OBJECTID":19406,"LANDMARKID":"1001200000492","LANDMARKCO":"203","LANDMARKNA":"縣立中壇國小","LANDMARKAD":"1001220","ADDRESS":"高雄市美濃區中壇里忠孝路一段19號","TEL":"07-6812534","COUNTYNAME":"高雄市","TOWNNAME":"美濃區","MARKTYPE":"992","Class":"2"}},{"type":"Feature","id":19407,"geometry":{"type":"Point","coordinates":[120.5431624734384,22.900342067825388]},"properties":{"OBJECTID":19407,"LANDMARKID":"1001200000493","LANDMARKCO":"203","LANDMARKNA":"縣立美濃國小","LANDMARKAD":"1001220","ADDRESS":"高雄市美濃區泰安里永安路190號","TEL":"07-6810166","COUNTYNAME":"高雄市","TOWNNAME":"美濃區","MARKTYPE":"992","Class":"2"}},{"type":"Feature","id":19408,"geometry":{"type":"Point","coordinates":[120.55682752637135,22.864437894080428]},"properties":{"OBJECTID":19408,"LANDMARKID":"1001200000494","LANDMARKCO":"203","LANDMARKNA":"縣立龍山國小","LANDMARKAD":"1001220","ADDRESS":"高雄市美濃區龍山里龍山街62號","TEL":"07-6833654","COUNTYNAME":"高雄市","TOWNNAME":"美濃區","MARKTYPE":"992","Class":"2"}},{"type":"Feature","id":19409,"geometry":{"type":"Point","coordinates":[120.56765915397396,22.91774786742976]},"properties":{"OBJECTID":19409,"LANDMARKID":"1001200000495","LANDMARKCO":"203","LANDMARKNA":"縣立廣興國小","LANDMARKAD":"1001220","ADDRESS":"高雄市美濃區興隆里廣興街124號","TEL":"07-6812857","COUNTYNAME":"高雄市","TOWNNAME":"美濃區","MARKTYPE":"992","Class":"2"}},{"type":"Feature","id":19410,"geometry":{"type":"Point","coordinates":[120.58051384798328,22.885908589540229]},"properties":{"OBJECTID":19410,"LANDMARKID":"1001200000496","LANDMARKCO":"203","LANDMARKNA":"縣立龍肚國小","LANDMARKAD":"1001220","ADDRESS":"高雄市美濃區龍肚里龍東街43號","TEL":"07-6851124","COUNTYNAME":"高雄市","TOWNNAME":"美濃區","MARKTYPE":"992","Class":"2"}},{"type":"Feature","id":19411,"geometry":{"type":"Point","coordinates":[120.55077873677347,22.888441218308138]},"properties":{"OBJECTID":19411,"LANDMARKID":"1001200000315","LANDMARKCO":"201","LANDMARKNA":"高美醫護管理專科學校","LANDMARKAD":"1001220","ADDRESS":"高雄市美濃區成功路309號","TEL":"07-6812148","COUNTYNAME":"高雄市","TOWNNAME":"美濃區","MARKTYPE":"992","Class":"2"}},{"type":"Feature","id":19412,"geometry":{"type":"Point","coordinates":[120.54593006962901,22.853390415647286]},"properties":{"OBJECTID":19412,"LANDMARKID":"1001200000498","LANDMARKCO":"203","LANDMARKNA":"縣立吉東國小","LANDMARKAD":"1001220","ADDRESS":"高雄市美濃區吉東里吉頂路19號","TEL":"07-6831144","COUNTYNAME":"高雄市","TOWNNAME":"美濃區","MARKTYPE":"992","Class":"2"}},{"type":"Feature","id":19413,"geometry":{"type":"Point","coordinates":[120.54147380288563,22.902126205567701]},"properties":{"OBJECTID":19413,"LANDMARKID":"1001200000622","LANDMARKCO":"302","LANDMARKNA":"高雄汽車客運美濃站","LANDMARKAD":"1001220","ADDRESS":"高雄市美濃區中山路一段11號","TEL":" ","COUNTYNAME":"高雄市","TOWNNAME":"美濃區","MARKTYPE":"993","Class":"302"}},{"type":"Feature","id":19414,"geometry":{"type":"Point","coordinates":[120.53033613604666,22.832191846573473]},"properties":{"OBJECTID":19414,"LANDMARKID":"1001200000649","LANDMARKCO":"303","LANDMARKNA":"高雄休閒農場停車場","LANDMARKAD":"1001220","ADDRESS":"高雄市美濃區吉洋里外六寮500號","TEL":"07-6831115","COUNTYNAME":"高雄市","TOWNNAME":"美濃區","MARKTYPE":"993","Class":"303"}},{"type":"Feature","id":19415,"geometry":{"type":"Point","coordinates":[120.58790243080392,22.931404742173772]},"properties":{"OBJECTID":19415,"LANDMARKID":"1001200000650","LANDMARKCO":"303","LANDMARKNA":"美濃黃蝶翠谷休息區停車場","LANDMARKAD":"1001220","ADDRESS":"高雄市美濃區廣林里","TEL":"07-6612031","COUNTYNAME":"高雄市","TOWNNAME":"美濃區","MARKTYPE":"993","Class":"303"}},{"type":"Feature","id":19416,"geometry":{"type":"Point","coordinates":[120.55193790449273,22.911372865744763]},"properties":{"OBJECTID":19416,"LANDMARKID":"1001200000651","LANDMARKCO":"303","LANDMARKNA":"高雄休閒農場停車場","LANDMARKAD":"1001220","ADDRESS":"高雄市美濃區外六寮路500號","TEL":" ","COUNTYNAME":"高雄市","TOWNNAME":"美濃區","MARKTYPE":"993","Class":"303"}},{"type":"Feature","id":19417,"geometry":{"type":"Point","coordinates":[120.54008618552628,22.902317535843363]},"properties":{"OBJECTID":19417,"LANDMARKID":"1001200000813","LANDMARKCO":"402","LANDMARKNA":"中華電信-美濃服務中心","LANDMARKAD":"1001220","ADDRESS":"高雄市美濃區泰安路103號","TEL":"(07)644-4316","COUNTYNAME":"高雄市","TOWNNAME":"美濃區","MARKTYPE":"994","Class":"4"}},{"type":"Feature","id":19418,"geometry":{"type":"Point","coordinates":[120.50961763987887,22.893993032263985]},"properties":{"OBJECTID":19418,"LANDMARKID":"1001200001432","LANDMARKCO":"604","LANDMARKNA":"湖美茵/快樂/天然","LANDMARKAD":"1001220","ADDRESS":"高雄市美濃區中山路2段782巷52號","TEL":"07-6812255","COUNTYNAME":"高雄市","TOWNNAME":"美濃區","MARKTYPE":"996","Class":"6"}},{"type":"Feature","id":19419,"geometry":{"type":"Point","coordinates":[120.57108363989288,22.877343495051669]},"properties":{"OBJECTID":19419,"LANDMARKID":"1001200001433","LANDMARKCO":"604","LANDMARKNA":"一本書民宿","LANDMARKAD":"1001220","ADDRESS":"高雄市美濃區中華路67號","TEL":"07-6850685","COUNTYNAME":"高雄市","TOWNNAME":"美濃區","MARKTYPE":"996","Class":"6"}},{"type":"Feature","id":19420,"geometry":{"type":"Point","coordinates":[120.55321877798421,22.903456306253759]},"properties":{"OBJECTID":19420,"LANDMARKID":"1001200001434","LANDMARKCO":"604","LANDMARKNA":"林家民宿","LANDMARKAD":"1001220","ADDRESS":"高雄市美濃區民族路53-7號","TEL":"07-6820658","COUNTYNAME":"高雄市","TOWNNAME":"美濃區","MARKTYPE":"996","Class":"6"}},{"type":"Feature","id":19421,"geometry":{"type":"Point","coordinates":[120.55262431484614,22.912843478157217]},"properties":{"OBJECTID":19421,"LANDMARKID":"1001200001435","LANDMARKCO":"604","LANDMARKNA":"人字山莊","LANDMARKAD":"1001220","ADDRESS":"高雄市美濃區民權路66-5號","TEL":"07-6822159","COUNTYNAME":"高雄市","TOWNNAME":"美濃區","MARKTYPE":"996","Class":"6"}},{"type":"Feature","id":19422,"geometry":{"type":"Point","coordinates":[120.53938368447346,22.90405550096375]},"properties":{"OBJECTID":19422,"LANDMARKID":"1001200001436","LANDMARKCO":"604","LANDMARKNA":"自強民宿","LANDMARKAD":"1001220","ADDRESS":"高雄市美濃區自強街1段316號","TEL":"07-6818242","COUNTYNAME":"高雄市","TOWNNAME":"美濃區","MARKTYPE":"996","Class":"6"}},{"type":"Feature","id":19423,"geometry":{"type":"Point","coordinates":[120.53938368447346,22.90405550096375]},"properties":{"OBJECTID":19423,"LANDMARKID":"1001200001437","LANDMARKCO":"604","LANDMARKNA":"美濃民宿","LANDMARKAD":"1001220","ADDRESS":"高雄市美濃區自強街1段318號","TEL":"07-6810621","COUNTYNAME":"高雄市","TOWNNAME":"美濃區","MARKTYPE":"996","Class":"6"}},{"type":"Feature","id":19424,"geometry":{"type":"Point","coordinates":[120.55138391260961,22.913264980184287]},"properties":{"OBJECTID":19424,"LANDMARKID":"1001200001438","LANDMARKCO":"604","LANDMARKNA":"中正湖民宿","LANDMARKAD":"1001220","ADDRESS":"高雄市美濃區福美路30號","TEL":"07-6812736","COUNTYNAME":"高雄市","TOWNNAME":"美濃區","MARKTYPE":"996","Class":"6"}},{"type":"Feature","id":19425,"geometry":{"type":"Point","coordinates":[120.55658750598946,22.86712694428331]},"properties":{"OBJECTID":19425,"LANDMARKID":"1001200001439","LANDMARKCO":"604","LANDMARKNA":"美濃雲山居民宿","LANDMARKAD":"1001220","ADDRESS":"高雄市美濃區龍山街56-1號","TEL":"07-6833808","COUNTYNAME":"高雄市","TOWNNAME":"美濃區","MARKTYPE":"996","Class":"6"}},{"type":"Feature","id":19426,"geometry":{"type":"Point","coordinates":[120.54115320356236,22.906386620100349]},"properties":{"OBJECTID":19426,"LANDMARKID":"1001200001440","LANDMARKCO":"604","LANDMARKNA":"峰園民宿","LANDMARKAD":"1001220","ADDRESS":"高雄市美濃區雙峰街8-20號","TEL":"07-6820839","COUNTYNAME":"高雄市","TOWNNAME":"美濃區","MARKTYPE":"996","Class":"6"}},{"type":"Feature","id":19427,"geometry":{"type":"Point","coordinates":[120.55129787921793,22.913274736830012]},"properties":{"OBJECTID":19427,"LANDMARKID":"1001200001441","LANDMARKCO":"604","LANDMARKNA":"中正湖歐式山莊","LANDMARKAD":"1001220","ADDRESS":"高雄市美濃區福美路28號","TEL":"07-6812736","COUNTYNAME":"高雄市","TOWNNAME":"美濃區","MARKTYPE":"996","Class":"6"}},{"type":"Feature","id":19428,"geometry":{"type":"Point","coordinates":[120.53938368447346,22.90405550096375]},"properties":{"OBJECTID":19428,"LANDMARKID":"1001200001442","LANDMARKCO":"604","LANDMARKNA":"清園民宿","LANDMARKAD":"1001220","ADDRESS":"高雄市美濃區自強路1段320號","TEL":"07-6810621","COUNTYNAME":"高雄市","TOWNNAME":"美濃區","MARKTYPE":"996","Class":"6"}},{"type":"Feature","id":19429,"geometry":{"type":"Point","coordinates":[120.53623691957053,22.883651432837407]},"properties":{"OBJECTID":19429,"LANDMARKID":"1001200001443","LANDMARKCO":"604","LANDMARKNA":"百果園民宿","LANDMARKAD":"1001220","ADDRESS":"高雄市美濃區復興街1段58巷5號","TEL":"07-6818587","COUNTYNAME":"高雄市","TOWNNAME":"美濃區","MARKTYPE":"996","Class":"6"}},{"type":"Feature","id":19430,"geometry":{"type":"Point","coordinates":[120.53287352962892,22.886100892499655]},"properties":{"OBJECTID":19430,"LANDMARKID":"1001200001378","LANDMARKCO":"603","LANDMARKNA":"中美大旅社","LANDMARKAD":"1001220","ADDRESS":"高雄市美濃區中正路一段687號","TEL":"07-6812205","COUNTYNAME":"高雄市","TOWNNAME":"美濃區","MARKTYPE":"996","Class":"6"}},{"type":"Feature","id":19431,"geometry":{"type":"Point","coordinates":[120.5960714642283,22.933579647421553]},"properties":{"OBJECTID":19431,"LANDMARKID":"1001200001241","LANDMARKCO":"505","LANDMARKNA":"美濃黃蝶翠谷","LANDMARKAD":"1001220","ADDRESS":"高雄市美濃區","TEL":"07-6612031","COUNTYNAME":"高雄市","TOWNNAME":"美濃區","MARKTYPE":"995","Class":"5"}},{"type":"Feature","id":19432,"geometry":{"type":"Point","coordinates":[120.2263400358848,22.914524493507994]},"properties":{"OBJECTID":19432,"LANDMARKID":"1001200000875","LANDMARKCO":"405","LANDMARKNA":"統一速邁樂加油站-湖內加油站(中油)","LANDMARKAD":"1001214","ADDRESS":"高雄市湖內區太爺村中山路二段336號","TEL":" ","COUNTYNAME":"高雄市","TOWNNAME":"湖內區","MARKTYPE":"994","Class":"4"}},{"type":"Feature","id":19433,"geometry":{"type":"Point","coordinates":[120.24409485712674,22.886678612821918]},"properties":{"OBJECTID":19433,"LANDMARKID":"1001200000876","LANDMARKCO":"405","LANDMARKNA":"中油加油站-和宏站","LANDMARKAD":"1001214","ADDRESS":"高雄市湖內區大湖村中山路一段433號","TEL":"07-6938191","COUNTYNAME":"高雄市","TOWNNAME":"湖內區","MARKTYPE":"994","Class":"4"}},{"type":"Feature","id":19434,"geometry":{"type":"Point","coordinates":[120.22464013919692,22.874663854031258]},"properties":{"OBJECTID":19434,"LANDMARKID":"1001200000877","LANDMARKCO":"405","LANDMARKNA":"中油加油站-興達站","LANDMARKAD":"1001214","ADDRESS":"高雄市湖內區和平路5號","TEL":"07-6996169","COUNTYNAME":"高雄市","TOWNNAME":"湖內區","MARKTYPE":"994","Class":"4"}},{"type":"Feature","id":19435,"geometry":{"type":"Point","coordinates":[120.2280712293754,22.907346791507489]},"properties":{"OBJECTID":19435,"LANDMARKID":"1001200000878","LANDMARKCO":"405","LANDMARKNA":"中油加油站-太爺站","LANDMARKAD":"1001214","ADDRESS":"高雄市湖內區公館村中山路二段61號","TEL":"07-6993073","COUNTYNAME":"高雄市","TOWNNAME":"湖內區","MARKTYPE":"994","Class":"4"}},{"type":"Feature","id":19436,"geometry":{"type":"Point","coordinates":[120.25174994864503,22.878781194739773]},"properties":{"OBJECTID":19436,"LANDMARKID":"1001200000879","LANDMARKCO":"405","LANDMARKNA":"中油加油站-大湖站","LANDMARKAD":"1001214","ADDRESS":"高雄市湖內區大湖村中山路一段72號","TEL":"07-6931793","COUNTYNAME":"高雄市","TOWNNAME":"湖內區","MARKTYPE":"994","Class":"4"}},{"type":"Feature","id":19437,"geometry":{"type":"Point","coordinates":[120.24673953247196,22.884574920002191]},"properties":{"OBJECTID":19437,"LANDMARKID":"1001200000880","LANDMARKCO":"405","LANDMARKNA":"台糖加油站-大湖站(中油)","LANDMARKAD":"1001214","ADDRESS":"高雄市湖內區１鄰中山路一段200號","TEL":" ","COUNTYNAME":"高雄市","TOWNNAME":"湖內區","MARKTYPE":"994","Class":"4"}},{"type":"Feature","id":19438,"geometry":{"type":"Point","coordinates":[120.20774900918059,22.90614215271912]},"properties":{"OBJECTID":19438,"LANDMARKID":"1001200000881","LANDMARKCO":"405","LANDMARKNA":"中油加油站-湖內站","LANDMARKAD":"1001214","ADDRESS":"高雄市湖內區逸賢村湖中路685號","TEL":"07-6998505","COUNTYNAME":"高雄市","TOWNNAME":"湖內區","MARKTYPE":"994","Class":"4"}},{"type":"Feature","id":19439,"geometry":{"type":"Point","coordinates":[120.23982620050992,22.879610898503106]},"properties":{"OBJECTID":19439,"LANDMARKID":"1001200001259","LANDMARKCO":"507","LANDMARKNA":"明寧靜王墓","LANDMARKAD":"1001214","ADDRESS":"高雄市湖內區湖內段239地號","TEL":" ","COUNTYNAME":"高雄市","TOWNNAME":"湖內區","MARKTYPE":"995","Class":"5"}},{"type":"Feature","id":19440,"geometry":{"type":"Point","coordinates":[120.21470307378388,22.908494092791059]},"properties":{"OBJECTID":19440,"LANDMARKID":"1001200001102","LANDMARKCO":"408","LANDMARKNA":"郵局-湖內郵局","LANDMARKAD":"1001214","ADDRESS":"高雄市湖內區中正路2段13號","TEL":"(07)6993-057","COUNTYNAME":"高雄市","TOWNNAME":"湖內區","MARKTYPE":"994","Class":"4"}},{"type":"Feature","id":19441,"geometry":{"type":"Point","coordinates":[120.24215727544139,22.892517405640543]},"properties":{"OBJECTID":19441,"LANDMARKID":"1001200001103","LANDMARKCO":"408","LANDMARKNA":"郵局-湖內大湖郵局","LANDMARKAD":"1001214","ADDRESS":"高雄市湖內區大湖村民權路243號","TEL":"(07)6933-246","COUNTYNAME":"高雄市","TOWNNAME":"湖內區","MARKTYPE":"994","Class":"4"}},{"type":"Feature","id":19442,"geometry":{"type":"Point","coordinates":[120.21406143004674,22.908481851789603]},"properties":{"OBJECTID":19442,"LANDMARKID":"1001200001140","LANDMARKCO":"409","LANDMARKNA":"高雄市湖內區農會","LANDMARKAD":"1001214","ADDRESS":"高雄市湖內區中賢村中正路二段29號","TEL":"07-6991216","COUNTYNAME":"高雄市","TOWNNAME":"湖內區","MARKTYPE":"994","Class":"4"}},{"type":"Feature","id":19443,"geometry":{"type":"Point","coordinates":[120.24347359950185,22.889682674853443]},"properties":{"OBJECTID":19443,"LANDMARKID":"1001200001141","LANDMARKCO":"409","LANDMARKNA":"湖內農會-大湖分部","LANDMARKAD":"1001214","ADDRESS":"高雄市湖內區民權路111號","TEL":"07-693-10","COUNTYNAME":"高雄市","TOWNNAME":"湖內區","MARKTYPE":"994","Class":"4"}},{"type":"Feature","id":19444,"geometry":{"type":"Point","coordinates":[120.22439676162813,22.895717692115053]},"properties":{"OBJECTID":19444,"LANDMARKID":"1001200001142","LANDMARKCO":"409","LANDMARKNA":"湖內農會-海埔分部","LANDMARKAD":"1001214","ADDRESS":"高雄市湖內區忠孝街258~1號","TEL":"07-699-13","COUNTYNAME":"高雄市","TOWNNAME":"湖內區","MARKTYPE":"994","Class":"4"}},{"type":"Feature","id":19445,"geometry":{"type":"Point","coordinates":[120.22568714022988,22.909893415965662]},"properties":{"OBJECTID":19445,"LANDMARKID":"1001200001143","LANDMARKCO":"409","LANDMARKNA":"湖內農會-太爺分部","LANDMARKAD":"1001214","ADDRESS":"高雄市湖內區中正路一段60號","TEL":"07-699-59","COUNTYNAME":"高雄市","TOWNNAME":"湖內區","MARKTYPE":"994","Class":"4"}},{"type":"Feature","id":19446,"geometry":{"type":"Point","coordinates":[120.25080572711241,22.88000096175784]},"properties":{"OBJECTID":19446,"LANDMARKID":"1001200000829","LANDMARKCO":"404","LANDMARKNA":"台灣省自來水路竹服務所","LANDMARKAD":"1001214","ADDRESS":"高雄市湖內區中山路一段148號","TEL":" ","COUNTYNAME":"高雄市","TOWNNAME":"湖內區","MARKTYPE":"994","Class":"4"}},{"type":"Feature","id":19447,"geometry":{"type":"Point","coordinates":[120.21428143131325,22.908477796326007]},"properties":{"OBJECTID":19447,"LANDMARKID":"1001200000819","LANDMARKCO":"403","LANDMARKNA":"電力公司","LANDMARKAD":"1001214","ADDRESS":" ","TEL":" ","COUNTYNAME":"高雄市","TOWNNAME":"湖內區","MARKTYPE":"994","Class":"4"}},{"type":"Feature","id":19448,"geometry":{"type":"Point","coordinates":[120.20468638809915,22.907953935590214]},"properties":{"OBJECTID":19448,"LANDMARKID":"1001200000210","LANDMARKCO":"107","LANDMARKNA":"高雄市政府警察局湖內派出所","LANDMARKAD":"1001214","ADDRESS":"高雄市湖內區中賢村中正路二段95號","TEL":"07-6993229","COUNTYNAME":"高雄市","TOWNNAME":"湖內區","MARKTYPE":"991","Class":"1"}},{"type":"Feature","id":19449,"geometry":{"type":"Point","coordinates":[120.21131673268494,22.908339582148841]},"properties":{"OBJECTID":19449,"LANDMARKID":"1001200000211","LANDMARKCO":"107","LANDMARKNA":"高雄市消防局湖內消防分隊","LANDMARKAD":"1001214","ADDRESS":"高雄市湖內區菜厝村中正路二段93號","TEL":"07-6995884","COUNTYNAME":"高雄市","TOWNNAME":"湖內區","MARKTYPE":"991","Class":"1"}},{"type":"Feature","id":19450,"geometry":{"type":"Point","coordinates":[120.21141315656809,22.908430844499733]},"properties":{"OBJECTID":19450,"LANDMARKID":"1001200000086","LANDMARKCO":"103","LANDMARKNA":"高雄市湖內區鄉民代表會","LANDMARKAD":"1001214","ADDRESS":"高雄市湖內區中正路二段77號","TEL":"07-6993320","COUNTYNAME":"高雄市","TOWNNAME":"湖內區","MARKTYPE":"991","Class":"1"}},{"type":"Feature","id":19451,"geometry":{"type":"Point","coordinates":[120.21141420127056,22.908340549985418]},"properties":{"OBJECTID":19451,"LANDMARKID":"1001200000287","LANDMARKCO":"108","LANDMARKNA":"高雄市湖內區公所","LANDMARKAD":"1001214","ADDRESS":"高雄市湖內區中正路二段77號","TEL":"07-6991221","COUNTYNAME":"高雄市","TOWNNAME":"湖內區","MARKTYPE":"991","Class":"1"}},{"type":"Feature","id":19452,"geometry":{"type":"Point","coordinates":[120.21264996886153,22.908533418918537]},"properties":{"OBJECTID":19452,"LANDMARKID":"1001200000128","LANDMARKCO":"106","LANDMARKNA":"高雄市湖內區戶政事務所","LANDMARKAD":"1001214","ADDRESS":"高雄市湖內區中賢村4鄰中正路二段97號","TEL":"07-6993191","COUNTYNAME":"高雄市","TOWNNAME":"湖內區","MARKTYPE":"991","Class":"1"}},{"type":"Feature","id":19453,"geometry":{"type":"Point","coordinates":[120.2280700926943,22.90860287708129]},"properties":{"OBJECTID":19453,"LANDMARKID":"1001200000087","LANDMARKCO":"103","LANDMARKNA":"高雄市湖內區衛生所","LANDMARKAD":"1001214","ADDRESS":"高雄市湖內區湖中路203號","TEL":"07-6993009","COUNTYNAME":"高雄市","TOWNNAME":"湖內區","MARKTYPE":"991","Class":"1"}},{"type":"Feature","id":19454,"geometry":{"type":"Point","coordinates":[120.24498554194528,22.886651380576428]},"properties":{"OBJECTID":19454,"LANDMARKID":"1001200000203","LANDMARKCO":"107","LANDMARKNA":"高雄市政府警察局湖街派出所","LANDMARKAD":"1001214","ADDRESS":"高雄市湖內區大湖村中山路一段290號","TEL":"07-6934784","COUNTYNAME":"高雄市","TOWNNAME":"湖內區","MARKTYPE":"991","Class":"1"}},{"type":"Feature","id":19455,"geometry":{"type":"Point","coordinates":[120.24501577750499,22.886561362776185]},"properties":{"OBJECTID":19455,"LANDMARKID":"1001200000204","LANDMARKCO":"107","LANDMARKNA":"高雄市政府警察局湖內分局","LANDMARKAD":"1001214","ADDRESS":"高雄市湖內區大湖村中山路一段290號","TEL":"07-6932155","COUNTYNAME":"高雄市","TOWNNAME":"湖內區","MARKTYPE":"991","Class":"1"}},{"type":"Feature","id":19456,"geometry":{"type":"Point","coordinates":[120.22237201147236,22.906511729776796]},"properties":{"OBJECTID":19456,"LANDMARKID":"1001200000581","LANDMARKCO":"204","LANDMARKNA":"高雄市立圖書館湖內分館","LANDMARKAD":"1001214","ADDRESS":"高雄市湖內區保生路101號","TEL":" ","COUNTYNAME":"高雄市","TOWNNAME":"湖內區","MARKTYPE":"992","Class":"2"}},{"type":"Feature","id":19457,"geometry":{"type":"Point","coordinates":[120.24984318720247,22.873138700575634]},"properties":{"OBJECTID":19457,"LANDMARKID":"1001200000313","LANDMARKCO":"201","LANDMARKNA":"私立樹人醫護管理專校","LANDMARKAD":"1001214","ADDRESS":"高雄市湖內區中山路一段1巷38號","TEL":"07-6931087","COUNTYNAME":"高雄市","TOWNNAME":"湖內區","MARKTYPE":"992","Class":"2"}},{"type":"Feature","id":19458,"geometry":{"type":"Point","coordinates":[120.22680919535591,22.907520554960101]},"properties":{"OBJECTID":19458,"LANDMARKID":"1001200000481","LANDMARKCO":"203","LANDMARKNA":"縣立湖內國中","LANDMARKAD":"1001214","ADDRESS":"高雄市湖內區公館村中山路二段63號","TEL":"07-6993008","COUNTYNAME":"高雄市","TOWNNAME":"湖內區","MARKTYPE":"992","Class":"2"}},{"type":"Feature","id":19459,"geometry":{"type":"Point","coordinates":[120.1989731729802,22.911085094802335]},"properties":{"OBJECTID":19459,"LANDMARKID":"1001200000482","LANDMARKCO":"203","LANDMARKNA":"縣立三侯國小","LANDMARKAD":"1001214","ADDRESS":"高雄市湖內區中正路二段544號","TEL":"07-6909123","COUNTYNAME":"高雄市","TOWNNAME":"湖內區","MARKTYPE":"992","Class":"2"}},{"type":"Feature","id":19460,"geometry":{"type":"Point","coordinates":[120.21320759876576,22.907816582959718]},"properties":{"OBJECTID":19460,"LANDMARKID":"1001200000483","LANDMARKCO":"203","LANDMARKNA":"縣立文賢國小","LANDMARKAD":"1001214","ADDRESS":"高雄市湖內區文賢村中正路二段39號","TEL":"07-6993061","COUNTYNAME":"高雄市","TOWNNAME":"湖內區","MARKTYPE":"992","Class":"2"}},{"type":"Feature","id":19461,"geometry":{"type":"Point","coordinates":[120.2223768448257,22.906407203795652]},"properties":{"OBJECTID":19461,"LANDMARKID":"1001200000484","LANDMARKCO":"203","LANDMARKNA":"縣立明宗國小","LANDMARKAD":"1001214","ADDRESS":"高雄市湖內區保生路103號","TEL":"07-6994682","COUNTYNAME":"高雄市","TOWNNAME":"湖內區","MARKTYPE":"992","Class":"2"}},{"type":"Feature","id":19462,"geometry":{"type":"Point","coordinates":[120.22575644692502,22.895951541868062]},"properties":{"OBJECTID":19462,"LANDMARKID":"1001200000485","LANDMARKCO":"203","LANDMARKNA":"縣立海埔國小","LANDMARKAD":"1001214","ADDRESS":"高雄市湖內區海埔村忠孝街256號","TEL":"07-6992346","COUNTYNAME":"高雄市","TOWNNAME":"湖內區","MARKTYPE":"992","Class":"2"}},{"type":"Feature","id":19463,"geometry":{"type":"Point","coordinates":[120.24439948862019,22.88765239896459]},"properties":{"OBJECTID":19463,"LANDMARKID":"1001200000486","LANDMARKCO":"203","LANDMARKNA":"縣立大湖國小","LANDMARKAD":"1001214","ADDRESS":"高雄市湖內區大湖村民權路2號","TEL":"07-6933808","COUNTYNAME":"高雄市","TOWNNAME":"湖內區","MARKTYPE":"992","Class":"2"}},{"type":"Feature","id":19464,"geometry":{"type":"Point","coordinates":[120.24638067854268,22.879711305849543]},"properties":{"OBJECTID":19464,"LANDMARKID":"1001200000314","LANDMARKCO":"201","LANDMARKNA":"東方技術學院","LANDMARKAD":"1001214","ADDRESS":"高雄市湖內區東方路110號","TEL":"07-6932011","COUNTYNAME":"高雄市","TOWNNAME":"湖內區","MARKTYPE":"992","Class":"2"}},{"type":"Feature","id":19465,"geometry":{"type":"Point","coordinates":[120.21719217774815,22.906395655641017]},"properties":{"OBJECTID":19465,"LANDMARKID":"1001200001362","LANDMARKCO":"603","LANDMARKNA":"歐美商務汽車旅館","LANDMARKAD":"1001214","ADDRESS":"高雄市湖內區葉厝村湖中路460巷26號","TEL":"07-6998178","COUNTYNAME":"高雄市","TOWNNAME":"湖內區","MARKTYPE":"996","Class":"6"}},{"type":"Feature","id":19466,"geometry":{"type":"Point","coordinates":[120.24906396517792,22.881652773816736]},"properties":{"OBJECTID":19466,"LANDMARKID":"1001200001363","LANDMARKCO":"603","LANDMARKNA":"光倫大旅社","LANDMARKAD":"1001214","ADDRESS":"高雄市湖內區大湖村中山路一段303號","TEL":"07-6931921","COUNTYNAME":"高雄市","TOWNNAME":"湖內區","MARKTYPE":"996","Class":"6"}},{"type":"Feature","id":19467,"geometry":{"type":"Point","coordinates":[120.24836391902859,22.882568466430932]},"properties":{"OBJECTID":19467,"LANDMARKID":"1001200001364","LANDMARKCO":"603","LANDMARKNA":"元寶大旅社","LANDMARKAD":"1001214","ADDRESS":"高雄市湖內區大湖村中山路一段339號","TEL":"07-3932889","COUNTYNAME":"高雄市","TOWNNAME":"湖內區","MARKTYPE":"996","Class":"6"}},{"type":"Feature","id":19468,"geometry":{"type":"Point","coordinates":[120.24150141380647,22.893031554055995]},"properties":{"OBJECTID":19468,"LANDMARKID":"1001200001365","LANDMARKCO":"603","LANDMARKNA":"六峰大旅社","LANDMARKAD":"1001214","ADDRESS":"高雄市湖內區大湖村民權路265號","TEL":"07-6931122","COUNTYNAME":"高雄市","TOWNNAME":"湖內區","MARKTYPE":"996","Class":"6"}},{"type":"Feature","id":19469,"geometry":{"type":"Point","coordinates":[120.19950154640223,22.909943566923079]},"properties":{"OBJECTID":19469,"LANDMARKID":"1001200001366","LANDMARKCO":"603","LANDMARKNA":"長興大旅社","LANDMARKAD":"1001214","ADDRESS":"高雄市湖內區中正路二段551號","TEL":"07-6992729","COUNTYNAME":"高雄市","TOWNNAME":"湖內區","MARKTYPE":"996","Class":"6"}},{"type":"Feature","id":19470,"geometry":{"type":"Point","coordinates":[120.24023048029954,22.895076484196746]},"properties":{"OBJECTID":19470,"LANDMARKID":"1001200001367","LANDMARKCO":"603","LANDMARKNA":"瑞宮大旅社","LANDMARKAD":"1001214","ADDRESS":"高雄市湖內區田尾村中山路一段540號","TEL":"07-6933937","COUNTYNAME":"高雄市","TOWNNAME":"湖內區","MARKTYPE":"996","Class":"6"}},{"type":"Feature","id":19471,"geometry":{"type":"Point","coordinates":[120.23829853247395,22.896677564286893]},"properties":{"OBJECTID":19471,"LANDMARKID":"1001200001368","LANDMARKCO":"603","LANDMARKNA":"皇佳旅社","LANDMARKAD":"1001214","ADDRESS":"高雄市湖內區田尾村中山路一段626號","TEL":"07-6931297","COUNTYNAME":"高雄市","TOWNNAME":"湖內區","MARKTYPE":"996","Class":"6"}},{"type":"Feature","id":19472,"geometry":{"type":"Point","coordinates":[120.2516194988977,22.878416694606141]},"properties":{"OBJECTID":19472,"LANDMARKID":"1001200001369","LANDMARKCO":"603","LANDMARKNA":"榮泰大旅社","LANDMARKAD":"1001214","ADDRESS":"高雄市湖內區湖內村中山路一段125號","TEL":"07-6933379","COUNTYNAME":"高雄市","TOWNNAME":"湖內區","MARKTYPE":"996","Class":"6"}},{"type":"Feature","id":19473,"geometry":{"type":"Point","coordinates":[120.2533412160531,22.874926712108341]},"properties":{"OBJECTID":19473,"LANDMARKID":"1001200001370","LANDMARKCO":"603","LANDMARKNA":"萬益大旅社","LANDMARKAD":"1001214","ADDRESS":"高雄市湖內區湖內村中山路一段31號","TEL":"07-6931551","COUNTYNAME":"高雄市","TOWNNAME":"湖內區","MARKTYPE":"996","Class":"6"}},{"type":"Feature","id":19474,"geometry":{"type":"Point","coordinates":[120.2533412160531,22.874926712108341]},"properties":{"OBJECTID":19474,"LANDMARKID":"1001200001371","LANDMARKCO":"603","LANDMARKNA":"嘉興大旅社","LANDMARKAD":"1001214","ADDRESS":"高雄市湖內區湖內村中山路一段39號","TEL":"07-6931689","COUNTYNAME":"高雄市","TOWNNAME":"湖內區","MARKTYPE":"996","Class":"6"}},{"type":"Feature","id":19475,"geometry":{"type":"Point","coordinates":[120.25247378044212,22.877597711844629]},"properties":{"OBJECTID":19475,"LANDMARKID":"1001200001372","LANDMARKCO":"603","LANDMARKNA":"春貴大旅社","LANDMARKAD":"1001214","ADDRESS":"高雄市湖內區湖內村中山路一段42號","TEL":"07-6932310","COUNTYNAME":"高雄市","TOWNNAME":"湖內區","MARKTYPE":"996","Class":"6"}},{"type":"Feature","id":19476,"geometry":{"type":"Point","coordinates":[120.25325183435157,22.875213292061229]},"properties":{"OBJECTID":19476,"LANDMARKID":"1001200001373","LANDMARKCO":"603","LANDMARKNA":"心園別館","LANDMARKAD":"1001214","ADDRESS":"高雄市湖內區湖內村中山路一段59號","TEL":"07-6931187","COUNTYNAME":"高雄市","TOWNNAME":"湖內區","MARKTYPE":"996","Class":"6"}},{"type":"Feature","id":19477,"geometry":{"type":"Point","coordinates":[120.25223599900727,22.877960594245614]},"properties":{"OBJECTID":19477,"LANDMARKID":"1001200001374","LANDMARKCO":"603","LANDMARKNA":"富賓大旅社","LANDMARKAD":"1001214","ADDRESS":"高雄市湖內區湖內村中山路一段62號","TEL":"07-6932463","COUNTYNAME":"高雄市","TOWNNAME":"湖內區","MARKTYPE":"996","Class":"6"}},{"type":"Feature","id":19478,"geometry":{"type":"Point","coordinates":[120.24661650279816,22.878230369690566]},"properties":{"OBJECTID":19478,"LANDMARKID":"1001200001375","LANDMARKCO":"603","LANDMARKNA":"上和大旅社","LANDMARKAD":"1001214","ADDRESS":"高雄市湖內區湖內村民生街246號","TEL":"07-6932305","COUNTYNAME":"高雄市","TOWNNAME":"湖內區","MARKTYPE":"996","Class":"6"}},{"type":"Feature","id":19479,"geometry":{"type":"Point","coordinates":[120.25105942279176,22.878430058046316]},"properties":{"OBJECTID":19479,"LANDMARKID":"1001200001376","LANDMARKCO":"603","LANDMARKNA":"東方大旅社","LANDMARKAD":"1001214","ADDRESS":"高雄市湖內區湖內村民生街26號","TEL":"07-6932047","COUNTYNAME":"高雄市","TOWNNAME":"湖內區","MARKTYPE":"996","Class":"6"}},{"type":"Feature","id":19480,"geometry":{"type":"Point","coordinates":[120.2516194988977,22.878416694606141]},"properties":{"OBJECTID":19480,"LANDMARKID":"1001200001377","LANDMARKCO":"603","LANDMARKNA":"愛菲爾汽車旅館","LANDMARKAD":"1001214","ADDRESS":"高雄市湖內區湖東村中山路一段143-1號","TEL":"07-6937988","COUNTYNAME":"高雄市","TOWNNAME":"湖內區","MARKTYPE":"996","Class":"6"}},{"type":"Feature","id":19481,"geometry":{"type":"Point","coordinates":[120.21072480281248,22.908224261300219]},"properties":{"OBJECTID":19481,"LANDMARKID":"1001200001488","LANDMARKCO":"605","LANDMARKNA":"湖內戶政事務所","LANDMARKAD":"1001214","ADDRESS":"高雄市湖內區","TEL":" ","COUNTYNAME":"高雄市","TOWNNAME":"湖內區","MARKTYPE":"996","Class":"6"}},{"type":"Feature","id":19482,"geometry":{"type":"Point","coordinates":[120.22184468026175,22.905360211869144]},"properties":{"OBJECTID":19482,"LANDMARKID":"1001200001489","LANDMARKCO":"605","LANDMARKNA":"衛生所","LANDMARKAD":"1001214","ADDRESS":"高雄市湖內區","TEL":" ","COUNTYNAME":"高雄市","TOWNNAME":"湖內區","MARKTYPE":"996","Class":"6"}},{"type":"Feature","id":19483,"geometry":{"type":"Point","coordinates":[120.22149814182048,22.908531735201091]},"properties":{"OBJECTID":19483,"LANDMARKID":"1001200001490","LANDMARKCO":"605","LANDMARKNA":"玉川幼稚園","LANDMARKAD":"1001214","ADDRESS":"高雄市湖內區","TEL":" ","COUNTYNAME":"高雄市","TOWNNAME":"湖內區","MARKTYPE":"996","Class":"6"}},{"type":"Feature","id":19484,"geometry":{"type":"Point","coordinates":[120.18658370440501,22.886328451446506]},"properties":{"OBJECTID":19484,"LANDMARKID":"1001200000890","LANDMARKCO":"405","LANDMARKNA":"中油加油站-茄萣仁愛站","LANDMARKAD":"1001215","ADDRESS":"高雄市吉安村仁愛路一段2號","TEL":"07-6986836","COUNTYNAME":"高雄市","TOWNNAME":"茄萣區","MARKTYPE":"994","Class":"4"}},{"type":"Feature","id":19485,"geometry":{"type":"Point","coordinates":[120.18671164101505,22.90384414103659]},"properties":{"OBJECTID":19485,"LANDMARKID":"1001200001101","LANDMARKCO":"408","LANDMARKNA":"郵局-茄萣郵局","LANDMARKAD":"1001215","ADDRESS":"高雄市茄萣區進學路158號","TEL":"(07)6900-206","COUNTYNAME":"高雄市","TOWNNAME":"茄萣區","MARKTYPE":"994","Class":"4"}},{"type":"Feature","id":19486,"geometry":{"type":"Point","coordinates":[120.18226301086011,22.898721860673611]},"properties":{"OBJECTID":19486,"LANDMARKID":"1001200001144","LANDMARKCO":"409","LANDMARKNA":"興達港區漁會","LANDMARKAD":"1001215","ADDRESS":"高雄市茄萣區崎漏村225號","TEL":"07-6988233-4","COUNTYNAME":"高雄市","TOWNNAME":"茄萣區","MARKTYPE":"994","Class":"4"}},{"type":"Feature","id":19487,"geometry":{"type":"Point","coordinates":[120.18504954244681,22.896529874556506]},"properties":{"OBJECTID":19487,"LANDMARKID":"1001200001145","LANDMARKCO":"409","LANDMARKNA":"茄萣農會-本部","LANDMARKAD":"1001215","ADDRESS":"高雄市茄萣區仁愛路二段102號","TEL":"07-690-61","COUNTYNAME":"高雄市","TOWNNAME":"茄萣區","MARKTYPE":"994","Class":"4"}},{"type":"Feature","id":19488,"geometry":{"type":"Point","coordinates":[120.18460106568914,22.91099757771628]},"properties":{"OBJECTID":19488,"LANDMARKID":"1001200001146","LANDMARKCO":"409","LANDMARKNA":"茄萣農會-白砂崙分","LANDMARKAD":"1001215","ADDRESS":"高雄市茄萣區白砂路143號","TEL":"07-690-07","COUNTYNAME":"高雄市","TOWNNAME":"茄萣區","MARKTYPE":"994","Class":"4"}},{"type":"Feature","id":19489,"geometry":{"type":"Point","coordinates":[120.1911996692465,22.873966832565461]},"properties":{"OBJECTID":19489,"LANDMARKID":"1001200001147","LANDMARKCO":"409","LANDMARKNA":"茄萣農會-崎漏分部","LANDMARKAD":"1001215","ADDRESS":"高雄市茄萣區民治路256號","TEL":"07-698-89","COUNTYNAME":"高雄市","TOWNNAME":"茄萣區","MARKTYPE":"994","Class":"4"}},{"type":"Feature","id":19490,"geometry":{"type":"Point","coordinates":[120.18504954244681,22.896529874556506]},"properties":{"OBJECTID":19490,"LANDMARKID":"1001200001148","LANDMARKCO":"409","LANDMARKNA":"茄萣區農會","LANDMARKAD":"1001215","ADDRESS":"高雄市茄萣區仁愛路二段102號","TEL":"07-690611","COUNTYNAME":"高雄市","TOWNNAME":"茄萣區","MARKTYPE":"994","Class":"4"}},{"type":"Feature","id":19491,"geometry":{"type":"Point","coordinates":[120.18034424423868,22.899887349387324]},"properties":{"OBJECTID":19491,"LANDMARKID":"1001200000206","LANDMARKCO":"107","LANDMARKNA":"高雄市政府警察局茄萣分駐所","LANDMARKAD":"1001215","ADDRESS":"高雄市茄萣區嘉福村茄萣路二段1號","TEL":"07-6902276","COUNTYNAME":"高雄市","TOWNNAME":"茄萣區","MARKTYPE":"991","Class":"1"}},{"type":"Feature","id":19492,"geometry":{"type":"Point","coordinates":[120.18235856763845,22.898539181798242]},"properties":{"OBJECTID":19492,"LANDMARKID":"1001200000088","LANDMARKCO":"103","LANDMARKNA":"高雄市茄萣區鄉民代表會","LANDMARKAD":"1001215","ADDRESS":"高雄市茄萣區頂漁路55號2樓","TEL":"07-6900900","COUNTYNAME":"高雄市","TOWNNAME":"茄萣區","MARKTYPE":"991","Class":"1"}},{"type":"Feature","id":19493,"geometry":{"type":"Point","coordinates":[120.18274860116203,22.90676067810892]},"properties":{"OBJECTID":19493,"LANDMARKID":"1001200000286","LANDMARKCO":"108","LANDMARKNA":"高雄市茄萣區公所","LANDMARKAD":"1001215","ADDRESS":"高雄市茄萣區濱海路四段27號","TEL":"07-6900001","COUNTYNAME":"高雄市","TOWNNAME":"茄萣區","MARKTYPE":"991","Class":"1"}},{"type":"Feature","id":19494,"geometry":{"type":"Point","coordinates":[120.18305357519789,22.904325670959718]},"properties":{"OBJECTID":19494,"LANDMARKID":"1001200000207","LANDMARKCO":"107","LANDMARKNA":"高雄市消防局茄萣消防分隊","LANDMARKAD":"1001215","ADDRESS":"高雄市茄萣區茄萣路二段422號","TEL":"07-6904163","COUNTYNAME":"高雄市","TOWNNAME":"茄萣區","MARKTYPE":"991","Class":"1"}},{"type":"Feature","id":19495,"geometry":{"type":"Point","coordinates":[120.18353058855253,22.906573807282776]},"properties":{"OBJECTID":19495,"LANDMARKID":"1001200000129","LANDMARKCO":"106","LANDMARKNA":"高雄市茄萣區戶政事務所","LANDMARKAD":"1001215","ADDRESS":"高雄市茄萣區茄萣路二段3號","TEL":"07-6902004","COUNTYNAME":"高雄市","TOWNNAME":"茄萣區","MARKTYPE":"991","Class":"1"}},{"type":"Feature","id":19496,"geometry":{"type":"Point","coordinates":[120.18537695046446,22.887539017299208]},"properties":{"OBJECTID":19496,"LANDMARKID":"1001200000089","LANDMARKCO":"103","LANDMARKNA":"高雄市茄萣區衛生所","LANDMARKAD":"1001215","ADDRESS":"高雄市茄萣區及定村濱海路二段1號","TEL":"07-6988850","COUNTYNAME":"高雄市","TOWNNAME":"茄萣區","MARKTYPE":"991","Class":"1"}},{"type":"Feature","id":19497,"geometry":{"type":"Point","coordinates":[120.18388129820535,22.913440401444248]},"properties":{"OBJECTID":19497,"LANDMARKID":"1001200000205","LANDMARKCO":"107","LANDMARKNA":"高雄市政府警察局砂崙派出所","LANDMARKAD":"1001215","ADDRESS":"高雄市茄萣區萬福村白砂路239巷2弄9號","TEL":"07-6900055","COUNTYNAME":"高雄市","TOWNNAME":"茄萣區","MARKTYPE":"991","Class":"1"}},{"type":"Feature","id":19498,"geometry":{"type":"Point","coordinates":[120.21799241100852,22.876501277086724]},"properties":{"OBJECTID":19498,"LANDMARKID":"1001200000090","LANDMARKCO":"103","LANDMARKNA":"高雄市政府興達港漁港管理所","LANDMARKAD":"1001215","ADDRESS":"高雄市茄萣區順漁路100號","TEL":"07-6989644","COUNTYNAME":"高雄市","TOWNNAME":"茄萣區","MARKTYPE":"991","Class":"1"}},{"type":"Feature","id":19499,"geometry":{"type":"Point","coordinates":[120.18043268452196,22.905450172491374]},"properties":{"OBJECTID":19499,"LANDMARKID":"1001200000582","LANDMARKCO":"204","LANDMARKNA":"高雄市立圖書館茄萣分館","LANDMARKAD":"1001215","ADDRESS":"高雄市茄萣區白砂路31巷3號","TEL":" ","COUNTYNAME":"高雄市","TOWNNAME":"茄萣區","MARKTYPE":"992","Class":"2"}},{"type":"Feature","id":19500,"geometry":{"type":"Point","coordinates":[120.18134072416585,22.907920144088546]},"properties":{"OBJECTID":19500,"LANDMARKID":"1001200000323","LANDMARKCO":"202","LANDMARKNA":"私立華德工家","LANDMARKAD":"1001215","ADDRESS":"高雄市茄萣區濱海路四段66號","TEL":"06-6900152","COUNTYNAME":"高雄市","TOWNNAME":"茄萣區","MARKTYPE":"992","Class":"2"}},{"type":"Feature","id":19501,"geometry":{"type":"Point","coordinates":[120.18116098171511,22.90584128221586]},"properties":{"OBJECTID":19501,"LANDMARKID":"1001200000476","LANDMARKCO":"203","LANDMARKNA":"縣立茄萣國中","LANDMARKAD":"1001215","ADDRESS":"高雄市茄萣區白雲村濱海路四段29號","TEL":"07-6900054","COUNTYNAME":"高雄市","TOWNNAME":"茄萣區","MARKTYPE":"992","Class":"2"}},{"type":"Feature","id":19502,"geometry":{"type":"Point","coordinates":[120.18130136941828,22.903314280635186]},"properties":{"OBJECTID":19502,"LANDMARKID":"1001200000477","LANDMARKCO":"203","LANDMARKNA":"縣立茄萣國小","LANDMARKAD":"1001215","ADDRESS":"高雄市茄萣區茄萣路二段307號","TEL":"07-6900057","COUNTYNAME":"高雄市","TOWNNAME":"茄萣區","MARKTYPE":"992","Class":"2"}},{"type":"Feature","id":19503,"geometry":{"type":"Point","coordinates":[120.18180937565825,22.913072170963478]},"properties":{"OBJECTID":19503,"LANDMARKID":"1001200000478","LANDMARKCO":"203","LANDMARKNA":"縣立砂崙國小","LANDMARKAD":"1001215","ADDRESS":"高雄市茄萣區萬福村文化路81號","TEL":"07-6900037","COUNTYNAME":"高雄市","TOWNNAME":"茄萣區","MARKTYPE":"992","Class":"2"}},{"type":"Feature","id":19504,"geometry":{"type":"Point","coordinates":[120.18605266514214,22.888087769101428]},"properties":{"OBJECTID":19504,"LANDMARKID":"1001200000479","LANDMARKCO":"203","LANDMARKNA":"縣立成功國小","LANDMARKAD":"1001215","ADDRESS":"高雄市茄萣區吉定村成功路1號","TEL":"07-6902053","COUNTYNAME":"高雄市","TOWNNAME":"茄萣區","MARKTYPE":"992","Class":"2"}},{"type":"Feature","id":19505,"geometry":{"type":"Point","coordinates":[120.19683605874957,22.876401419458109]},"properties":{"OBJECTID":19505,"LANDMARKID":"1001200000480","LANDMARKCO":"203","LANDMARKNA":"縣立興達國小","LANDMARKAD":"1001215","ADDRESS":"高雄市茄萣區民治路2號","TEL":"07-6988099","COUNTYNAME":"高雄市","TOWNNAME":"茄萣區","MARKTYPE":"992","Class":"2"}},{"type":"Feature","id":19506,"geometry":{"type":"Point","coordinates":[120.19516176373526,22.866240387580589]},"properties":{"OBJECTID":19506,"LANDMARKID":"1001200000678","LANDMARKCO":"305","LANDMARKNA":"興達漁港","LANDMARKAD":"1001215","ADDRESS":"高雄市茄萣區","TEL":" ","COUNTYNAME":"高雄市","TOWNNAME":"茄萣區","MARKTYPE":"993","Class":"305"}},{"type":"Feature","id":19507,"geometry":{"type":"Point","coordinates":[120.19798490722421,22.861478663092964]},"properties":{"OBJECTID":19507,"LANDMARKID":"1001200000679","LANDMARKCO":"305","LANDMARKNA":"興達港","LANDMARKAD":"1001215","ADDRESS":"高雄市茄萣區","TEL":" ","COUNTYNAME":"高雄市","TOWNNAME":"茄萣區","MARKTYPE":"993","Class":"305"}},{"type":"Feature","id":19508,"geometry":{"type":"Point","coordinates":[120.20852740395462,22.865169886301896]},"properties":{"OBJECTID":19508,"LANDMARKID":"1001200000680","LANDMARKCO":"305","LANDMARKNA":"興達遠洋港區","LANDMARKAD":"1001215","ADDRESS":"高雄市茄萣區","TEL":" ","COUNTYNAME":"高雄市","TOWNNAME":"茄萣區","MARKTYPE":"993","Class":"305"}},{"type":"Feature","id":19509,"geometry":{"type":"Point","coordinates":[120.18544190798345,22.889251851525447]},"properties":{"OBJECTID":19509,"LANDMARKID":"1001200000623","LANDMARKCO":"302","LANDMARKNA":"高雄汽車客運茄萣站","LANDMARKAD":"1001215","ADDRESS":"高雄市茄萣區茄萣路一段13號","TEL":" ","COUNTYNAME":"高雄市","TOWNNAME":"茄萣區","MARKTYPE":"993","Class":"302"}},{"type":"Feature","id":19510,"geometry":{"type":"Point","coordinates":[120.18455251801275,22.909584328423414]},"properties":{"OBJECTID":19510,"LANDMARKID":"1001200000811","LANDMARKCO":"402","LANDMARKNA":"中華電信-茄萣服務中心","LANDMARKAD":"1001215","ADDRESS":"高雄市茄萣區白砂路100號","TEL":"(07) 644-9249","COUNTYNAME":"高雄市","TOWNNAME":"茄萣區","MARKTYPE":"994","Class":"4"}},{"type":"Feature","id":19511,"geometry":{"type":"Point","coordinates":[120.19206561925664,22.868783208115303]},"properties":{"OBJECTID":19511,"LANDMARKID":"1001200001231","LANDMARKCO":"503","LANDMARKNA":"情人碼頭","LANDMARKAD":"1001215","ADDRESS":"高雄市茄萣區崎洛村大發路88號","TEL":"07-69-0001(茄萣區公","COUNTYNAME":"高雄市","TOWNNAME":"茄萣區","MARKTYPE":"995","Class":"5"}},{"type":"Feature","id":19512,"geometry":{"type":"Point","coordinates":[120.48873430195073,22.907748542466425]},"properties":{"OBJECTID":19512,"LANDMARKID":"1001200000882","LANDMARKCO":"405","LANDMARKNA":"台灣優力加油站-旗鉀站(中油)","LANDMARKAD":"1001219","ADDRESS":"高雄市旗山區旗甲路一段399號","TEL":"07-6627506","COUNTYNAME":"高雄市","TOWNNAME":"旗山區","MARKTYPE":"994","Class":"4"}},{"type":"Feature","id":19513,"geometry":{"type":"Point","coordinates":[120.49316431258893,22.912440671343315]},"properties":{"OBJECTID":19513,"LANDMARKID":"1001200000883","LANDMARKCO":"405","LANDMARKNA":"台糖加油站-公正站(中油)","LANDMARKAD":"1001219","ADDRESS":"高雄市旗山區圓富里旗甲路二段10號","TEL":" ","COUNTYNAME":"高雄市","TOWNNAME":"旗山區","MARKTYPE":"994","Class":"4"}},{"type":"Feature","id":19514,"geometry":{"type":"Point","coordinates":[120.4616527495743,22.8121730716963]},"properties":{"OBJECTID":19514,"LANDMARKID":"1001200000884","LANDMARKCO":"405","LANDMARKNA":"中油加油站-新光站","LANDMARKAD":"1001219","ADDRESS":"高雄市旗山區旗南三路120-8號","TEL":"07-6662988","COUNTYNAME":"高雄市","TOWNNAME":"旗山區","MARKTYPE":"994","Class":"4"}},{"type":"Feature","id":19515,"geometry":{"type":"Point","coordinates":[120.48258419678262,22.898488667042731]},"properties":{"OBJECTID":19515,"LANDMARKID":"1001200000885","LANDMARKCO":"405","LANDMARKNA":"中油加油站-振裕站","LANDMARKAD":"1001219","ADDRESS":"高雄市旗山區延平一路115號","TEL":"07-6622360","COUNTYNAME":"高雄市","TOWNNAME":"旗山區","MARKTYPE":"994","Class":"4"}},{"type":"Feature","id":19516,"geometry":{"type":"Point","coordinates":[120.44990963563956,22.773810334091824]},"properties":{"OBJECTID":19516,"LANDMARKID":"1001200000886","LANDMARKCO":"405","LANDMARKNA":"中油加油站-嶺東站","LANDMARKAD":"1001219","ADDRESS":"高雄市旗山區旗南三路204之1號","TEL":"07-6651668","COUNTYNAME":"高雄市","TOWNNAME":"旗山區","MARKTYPE":"994","Class":"4"}},{"type":"Feature","id":19517,"geometry":{"type":"Point","coordinates":[120.48227741999867,22.884804665332986]},"properties":{"OBJECTID":19517,"LANDMARKID":"1001200000887","LANDMARKCO":"405","LANDMARKNA":"中油加油站-旗山站","LANDMARKAD":"1001219","ADDRESS":"高雄市旗山區復新街17號","TEL":"07-6612044","COUNTYNAME":"高雄市","TOWNNAME":"旗山區","MARKTYPE":"994","Class":"4"}},{"type":"Feature","id":19518,"geometry":{"type":"Point","coordinates":[120.49503849406474,22.882584936538098]},"properties":{"OBJECTID":19518,"LANDMARKID":"1001200000888","LANDMARKCO":"405","LANDMARKNA":"中油加油站-美林站","LANDMARKAD":"1001219","ADDRESS":"高雄市旗山區延平二路114號","TEL":"07-6616525","COUNTYNAME":"高雄市","TOWNNAME":"旗山區","MARKTYPE":"994","Class":"4"}},{"type":"Feature","id":19519,"geometry":{"type":"Point","coordinates":[120.49385958468704,22.882284381844041]},"properties":{"OBJECTID":19519,"LANDMARKID":"1001200000889","LANDMARKCO":"405","LANDMARKNA":"中油加油站-宏洋站","LANDMARKAD":"1001219","ADDRESS":"高雄市旗山區延平二路159號","TEL":"07-6611230","COUNTYNAME":"高雄市","TOWNNAME":"旗山區","MARKTYPE":"994","Class":"4"}},{"type":"Feature","id":19520,"geometry":{"type":"Point","coordinates":[120.48316813076768,22.884619546530242]},"properties":{"OBJECTID":19520,"LANDMARKID":"1001200000812","LANDMARKCO":"402","LANDMARKNA":"亞太行動寬頻電信-旗山延平加盟服務中心","LANDMARKAD":"1001219","ADDRESS":"高雄市旗山區延平一路647號","TEL":"07-6611288","COUNTYNAME":"高雄市","TOWNNAME":"旗山區","MARKTYPE":"994","Class":"4"}},{"type":"Feature","id":19521,"geometry":{"type":"Point","coordinates":[120.48332447847746,22.893300246304253]},"properties":{"OBJECTID":19521,"LANDMARKID":"1001200000733","LANDMARKCO":"401","LANDMARKNA":"溪洲醫院","LANDMARKAD":"1001219","ADDRESS":"高雄市旗山區延平一路412號","TEL":"07-6621985","COUNTYNAME":"高雄市","TOWNNAME":"旗山區","MARKTYPE":"994","Class":"4"}},{"type":"Feature","id":19522,"geometry":{"type":"Point","coordinates":[120.48461360829694,22.883636795858035]},"properties":{"OBJECTID":19522,"LANDMARKID":"1001200000734","LANDMARKCO":"401","LANDMARKNA":"重安醫院","LANDMARKAD":"1001219","ADDRESS":"高雄市旗山區大仁街18號","TEL":"07-6621783","COUNTYNAME":"高雄市","TOWNNAME":"旗山區","MARKTYPE":"994","Class":"4"}},{"type":"Feature","id":19523,"geometry":{"type":"Point","coordinates":[120.48322014791304,22.880927616617086]},"properties":{"OBJECTID":19523,"LANDMARKID":"1001200000735","LANDMARKCO":"401","LANDMARKNA":"行政院衛生署旗山醫院","LANDMARKAD":"1001219","ADDRESS":"高雄市旗山區中學路60號","TEL":"07-6613811","COUNTYNAME":"高雄市","TOWNNAME":"旗山區","MARKTYPE":"994","Class":"4"}},{"type":"Feature","id":19524,"geometry":{"type":"Point","coordinates":[120.48545129782909,22.884996829646834]},"properties":{"OBJECTID":19524,"LANDMARKID":"1001200000736","LANDMARKCO":"401","LANDMARKNA":"廣聖醫院","LANDMARKAD":"1001219","ADDRESS":"高雄市旗山區中華路618號","TEL":"07-6622391","COUNTYNAME":"高雄市","TOWNNAME":"旗山區","MARKTYPE":"994","Class":"4"}},{"type":"Feature","id":19525,"geometry":{"type":"Point","coordinates":[120.48323870693778,22.883727228280108]},"properties":{"OBJECTID":19525,"LANDMARKID":"1001200000737","LANDMARKCO":"401","LANDMARKNA":"博愛醫院","LANDMARKAD":"1001219","ADDRESS":"高雄市旗山區延平一路689號","TEL":"07-6617602","COUNTYNAME":"高雄市","TOWNNAME":"旗山區","MARKTYPE":"994","Class":"4"}},{"type":"Feature","id":19526,"geometry":{"type":"Point","coordinates":[120.4820865881136,22.898719556980264]},"properties":{"OBJECTID":19526,"LANDMARKID":"1001200001260","LANDMARKCO":"507","LANDMARKNA":"旗山鼓山國小","LANDMARKAD":"1001219","ADDRESS":"高雄市旗山區延平一路111號","TEL":"07-6612051","COUNTYNAME":"高雄市","TOWNNAME":"旗山區","MARKTYPE":"995","Class":"5"}},{"type":"Feature","id":19527,"geometry":{"type":"Point","coordinates":[120.48101485984647,22.88873316960985]},"properties":{"OBJECTID":19527,"LANDMARKID":"1001200001261","LANDMARKCO":"507","LANDMARKNA":"旗山國小","LANDMARKAD":"1001219","ADDRESS":"高雄市旗山區鼓山里華中街10鄰44號","TEL":" ","COUNTYNAME":"高雄市","TOWNNAME":"旗山區","MARKTYPE":"995","Class":"5"}},{"type":"Feature","id":19528,"geometry":{"type":"Point","coordinates":[120.48197357100467,22.886988254628914]},"properties":{"OBJECTID":19528,"LANDMARKID":"1001200001262","LANDMARKCO":"507","LANDMARKNA":"旗山區農會","LANDMARKAD":"1001219","ADDRESS":"高雄市旗山區中山路67號","TEL":" ","COUNTYNAME":"高雄市","TOWNNAME":"旗山區","MARKTYPE":"995","Class":"5"}},{"type":"Feature","id":19529,"geometry":{"type":"Point","coordinates":[120.48342999250748,22.886937329331129]},"properties":{"OBJECTID":19529,"LANDMARKID":"1001200001263","LANDMARKCO":"507","LANDMARKNA":"旗山天后宮","LANDMARKAD":"1001219","ADDRESS":"高雄市旗山區湄洲里永福街23巷16號","TEL":" ","COUNTYNAME":"高雄市","TOWNNAME":"旗山區","MARKTYPE":"995","Class":"5"}},{"type":"Feature","id":19530,"geometry":{"type":"Point","coordinates":[120.48297360822122,22.88396494625708]},"properties":{"OBJECTID":19530,"LANDMARKID":"1001200001096","LANDMARKCO":"408","LANDMARKNA":"郵局-旗山郵局","LANDMARKAD":"1001219","ADDRESS":"高雄市旗山區延平一路690號","TEL":"(07)6612-102","COUNTYNAME":"高雄市","TOWNNAME":"旗山區","MARKTYPE":"994","Class":"4"}},{"type":"Feature","id":19531,"geometry":{"type":"Point","coordinates":[120.49254862810126,22.881731882588234]},"properties":{"OBJECTID":19531,"LANDMARKID":"1001200001097","LANDMARKCO":"408","LANDMARKNA":"郵局-旗山旗尾郵局","LANDMARKAD":"1001219","ADDRESS":"高雄市旗山區延平二路8、10號","TEL":"(07)6614-790","COUNTYNAME":"高雄市","TOWNNAME":"旗山區","MARKTYPE":"994","Class":"4"}},{"type":"Feature","id":19532,"geometry":{"type":"Point","coordinates":[120.46362699298703,22.841923559876339]},"properties":{"OBJECTID":19532,"LANDMARKID":"1001200001098","LANDMARKCO":"408","LANDMARKNA":"郵局-旗山大洲郵局","LANDMARKAD":"1001219","ADDRESS":"高雄市旗山區旗南二路192-1號","TEL":"(07)6661-005","COUNTYNAME":"高雄市","TOWNNAME":"旗山區","MARKTYPE":"994","Class":"4"}},{"type":"Feature","id":19533,"geometry":{"type":"Point","coordinates":[120.49744435262042,22.922397768956351]},"properties":{"OBJECTID":19533,"LANDMARKID":"1001200001099","LANDMARKCO":"408","LANDMARKNA":"郵局-旗山圓潭郵局","LANDMARKAD":"1001219","ADDRESS":"高雄市旗山區旗甲路2段354號","TEL":"(07)6691-450","COUNTYNAME":"高雄市","TOWNNAME":"旗山區","MARKTYPE":"994","Class":"4"}},{"type":"Feature","id":19534,"geometry":{"type":"Point","coordinates":[120.48136294273718,22.891681701611688]},"properties":{"OBJECTID":19534,"LANDMARKID":"1001200001100","LANDMARKCO":"408","LANDMARKNA":"郵局-旗山四保郵局","LANDMARKAD":"1001219","ADDRESS":"高雄市旗山區中山路242號","TEL":"(07)6613-838","COUNTYNAME":"高雄市","TOWNNAME":"旗山區","MARKTYPE":"994","Class":"4"}},{"type":"Feature","id":19535,"geometry":{"type":"Point","coordinates":[120.48198420969277,22.887070865153195]},"properties":{"OBJECTID":19535,"LANDMARKID":"1001200001149","LANDMARKCO":"409","LANDMARKNA":"高雄市旗山區農會","LANDMARKAD":"1001219","ADDRESS":"高雄市旗山區中山路67號","TEL":"07--6615495","COUNTYNAME":"高雄市","TOWNNAME":"旗山區","MARKTYPE":"994","Class":"4"}},{"type":"Feature","id":19536,"geometry":{"type":"Point","coordinates":[120.44861277838902,22.773570621294844]},"properties":{"OBJECTID":19536,"LANDMARKID":"1001200001150","LANDMARKCO":"409","LANDMARKNA":"岡山農會嶺口分部","LANDMARKAD":"1001219","ADDRESS":"旗山區南勝里旗南三路223號","TEL":"07-6651630","COUNTYNAME":"高雄市","TOWNNAME":"旗山區","MARKTYPE":"994","Class":"4"}},{"type":"Feature","id":19537,"geometry":{"type":"Point","coordinates":[120.49569865028037,22.881733047664795]},"properties":{"OBJECTID":19537,"LANDMARKID":"1001200001151","LANDMARKCO":"409","LANDMARKNA":"旗山農會-旗尾分部","LANDMARKAD":"1001219","ADDRESS":"高雄市旗山區東平里旗屏一路41號","TEL":"07-661-22","COUNTYNAME":"高雄市","TOWNNAME":"旗山區","MARKTYPE":"994","Class":"4"}},{"type":"Feature","id":19538,"geometry":{"type":"Point","coordinates":[120.50044589213924,22.927756469744327]},"properties":{"OBJECTID":19538,"LANDMARKID":"1001200001152","LANDMARKCO":"409","LANDMARKNA":"旗山農會-中正分部","LANDMARKAD":"1001219","ADDRESS":"高雄市旗山區旗甲路二段581號","TEL":"07-669-14","COUNTYNAME":"高雄市","TOWNNAME":"旗山區","MARKTYPE":"994","Class":"4"}},{"type":"Feature","id":19539,"geometry":{"type":"Point","coordinates":[120.47380825361357,22.851493316683019]},"properties":{"OBJECTID":19539,"LANDMARKID":"1001200001153","LANDMARKCO":"409","LANDMARKNA":"旗山農會-溪洲分部","LANDMARKAD":"1001219","ADDRESS":"高雄市旗山區鯤洲里中洲路75號","TEL":"07-666-27","COUNTYNAME":"高雄市","TOWNNAME":"旗山區","MARKTYPE":"994","Class":"4"}},{"type":"Feature","id":19540,"geometry":{"type":"Point","coordinates":[120.46438363114591,22.844538730616371]},"properties":{"OBJECTID":19540,"LANDMARKID":"1001200001154","LANDMARKCO":"409","LANDMARKNA":"旗山農會-南溪洲分部","LANDMARKAD":"1001219","ADDRESS":"高雄市旗山區南洲里旗南二路77號","TEL":"07-666-12","COUNTYNAME":"高雄市","TOWNNAME":"旗山區","MARKTYPE":"994","Class":"4"}},{"type":"Feature","id":19541,"geometry":{"type":"Point","coordinates":[120.45937433482443,22.876630666141068]},"properties":{"OBJECTID":19541,"LANDMARKID":"1001200001031","LANDMARKCO":"406","LANDMARKNA":"花旗公園","LANDMARKAD":"1001219","ADDRESS":"高雄市旗山區","TEL":" ","COUNTYNAME":"高雄市","TOWNNAME":"旗山區","MARKTYPE":"994","Class":"4"}},{"type":"Feature","id":19542,"geometry":{"type":"Point","coordinates":[120.47202932484251,22.890044064723945]},"properties":{"OBJECTID":19542,"LANDMARKID":"1001200001032","LANDMARKCO":"406","LANDMARKNA":"旗山中山公園","LANDMARKAD":"1001219","ADDRESS":"高雄市旗山區","TEL":" ","COUNTYNAME":"高雄市","TOWNNAME":"旗山區","MARKTYPE":"994","Class":"4"}},{"type":"Feature","id":19543,"geometry":{"type":"Point","coordinates":[120.47904067745159,22.888199988738286]},"properties":{"OBJECTID":19543,"LANDMARKID":"1001200001033","LANDMARKCO":"406","LANDMARKNA":"旗山運動公園","LANDMARKAD":"1001219","ADDRESS":"高雄市旗山區","TEL":" ","COUNTYNAME":"高雄市","TOWNNAME":"旗山區","MARKTYPE":"994","Class":"4"}},{"type":"Feature","id":19544,"geometry":{"type":"Point","coordinates":[120.48344382384001,22.889251278428898]},"properties":{"OBJECTID":19544,"LANDMARKID":"1001200000828","LANDMARKCO":"404","LANDMARKNA":"台灣省自來水旗山營運所","LANDMARKAD":"1001219","ADDRESS":"高雄市旗山區延平一路499之1號","TEL":" ","COUNTYNAME":"高雄市","TOWNNAME":"旗山區","MARKTYPE":"994","Class":"4"}},{"type":"Feature","id":19545,"geometry":{"type":"Point","coordinates":[120.49207098398138,22.881141363354345]},"properties":{"OBJECTID":19545,"LANDMARKID":"1001200001030","LANDMARKCO":"406","LANDMARKNA":"旗北糖廠公園","LANDMARKAD":"1001219","ADDRESS":"高雄市旗山區","TEL":" ","COUNTYNAME":"高雄市","TOWNNAME":"旗山區","MARKTYPE":"994","Class":"4"}},{"type":"Feature","id":19546,"geometry":{"type":"Point","coordinates":[120.44952722865379,22.773529887586619]},"properties":{"OBJECTID":19546,"LANDMARKID":"1001200000215","LANDMARKCO":"107","LANDMARKNA":"高雄市政府警察局嶺口派出所","LANDMARKAD":"1001219","ADDRESS":"高雄市旗山區旗南三路212號","TEL":"07-6651021","COUNTYNAME":"高雄市","TOWNNAME":"旗山區","MARKTYPE":"991","Class":"1"}},{"type":"Feature","id":19547,"geometry":{"type":"Point","coordinates":[120.46405700025319,22.844372451276559]},"properties":{"OBJECTID":19547,"LANDMARKID":"1001200000216","LANDMARKCO":"107","LANDMARKNA":"高雄市政府警察局大洲派出所","LANDMARKAD":"1001219","ADDRESS":"高雄市旗山區旗南二路128號","TEL":"07-6661305","COUNTYNAME":"高雄市","TOWNNAME":"旗山區","MARKTYPE":"991","Class":"1"}},{"type":"Feature","id":19548,"geometry":{"type":"Point","coordinates":[120.47516650263472,22.887937030981249]},"properties":{"OBJECTID":19548,"LANDMARKID":"1001200000003","LANDMARKCO":"101","LANDMARKNA":"林務局屏東林區管理處旗山工作站","LANDMARKAD":"1001219","ADDRESS":"高雄市旗山區旗南一路2號","TEL":"07-6612031","COUNTYNAME":"高雄市","TOWNNAME":"旗山區","MARKTYPE":"991","Class":"1"}},{"type":"Feature","id":19549,"geometry":{"type":"Point","coordinates":[120.47611644870341,22.884692273919597]},"properties":{"OBJECTID":19549,"LANDMARKID":"1001200000004","LANDMARKCO":"101","LANDMARKNA":"水利署南區水資源局旗山分局","LANDMARKAD":"1001219","ADDRESS":"高雄市旗山區樂和街15號之33","TEL":"07-6629683","COUNTYNAME":"高雄市","TOWNNAME":"旗山區","MARKTYPE":"991","Class":"1"}},{"type":"Feature","id":19550,"geometry":{"type":"Point","coordinates":[120.47777884180879,22.901220051650391]},"properties":{"OBJECTID":19550,"LANDMARKID":"1001200000005","LANDMARKCO":"101","LANDMARKNA":"高雄區監理所旗山監理站","LANDMARKAD":"1001219","ADDRESS":"高雄市旗山區旗文路123之1號","TEL":"07-6613711","COUNTYNAME":"高雄市","TOWNNAME":"旗山區","MARKTYPE":"991","Class":"1"}},{"type":"Feature","id":19551,"geometry":{"type":"Point","coordinates":[120.48024478024172,22.890580120253638]},"properties":{"OBJECTID":19551,"LANDMARKID":"1001200000006","LANDMARKCO":"101","LANDMARKNA":"旗山區社福館","LANDMARKAD":"1001219","ADDRESS":"高雄市旗山區中正路199號","TEL":"07-6617464","COUNTYNAME":"高雄市","TOWNNAME":"旗山區","MARKTYPE":"991","Class":"1"}},{"type":"Feature","id":19552,"geometry":{"type":"Point","coordinates":[120.48113861841342,22.889673787542261]},"properties":{"OBJECTID":19552,"LANDMARKID":"1001200000083","LANDMARKCO":"103","LANDMARKNA":"高雄市旗山區衛生所","LANDMARKAD":"1001219","ADDRESS":"高雄市旗山區中正路197號","TEL":"07-6612054","COUNTYNAME":"高雄市","TOWNNAME":"旗山區","MARKTYPE":"991","Class":"1"}},{"type":"Feature","id":19553,"geometry":{"type":"Point","coordinates":[120.48180411957844,22.889316900409661]},"properties":{"OBJECTID":19553,"LANDMARKID":"1001200000113","LANDMARKCO":"105","LANDMARKNA":"高雄市旗山地政事務所","LANDMARKAD":"1001219","ADDRESS":"高雄市旗山區平和街50號","TEL":"07-6612039","COUNTYNAME":"高雄市","TOWNNAME":"旗山區","MARKTYPE":"991","Class":"1"}},{"type":"Feature","id":19554,"geometry":{"type":"Point","coordinates":[120.48231371050214,22.894196773015956]},"properties":{"OBJECTID":19554,"LANDMARKID":"1001200000007","LANDMARKCO":"101","LANDMARKNA":"台灣高雄地方法院旗山簡易庭","LANDMARKAD":"1001219","ADDRESS":"高雄市旗山區民生二街33號","TEL":"07-6622045","COUNTYNAME":"高雄市","TOWNNAME":"旗山區","MARKTYPE":"991","Class":"1"}},{"type":"Feature","id":19555,"geometry":{"type":"Point","coordinates":[120.48241788201547,22.887966325536915]},"properties":{"OBJECTID":19555,"LANDMARKID":"1001200000105","LANDMARKCO":"104","LANDMARKNA":"南區國稅局旗山稽徵所","LANDMARKAD":"1001219","ADDRESS":"高雄市旗山區華中街3之1號","TEL":"07-6612027","COUNTYNAME":"高雄市","TOWNNAME":"旗山區","MARKTYPE":"991","Class":"1"}},{"type":"Feature","id":19556,"geometry":{"type":"Point","coordinates":[120.48299291963971,22.88797006761132]},"properties":{"OBJECTID":19556,"LANDMARKID":"1001200000217","LANDMARKCO":"107","LANDMARKNA":"高雄市政府警察局旗山分局","LANDMARKAD":"1001219","ADDRESS":"高雄市旗山區鼓山里華中街1號","TEL":"07-6612001","COUNTYNAME":"高雄市","TOWNNAME":"旗山區","MARKTYPE":"991","Class":"1"}},{"type":"Feature","id":19557,"geometry":{"type":"Point","coordinates":[120.48301241240964,22.887970194210496]},"properties":{"OBJECTID":19557,"LANDMARKID":"1001200000218","LANDMARKCO":"107","LANDMARKNA":"高雄市政府警察局建國派出所","LANDMARKAD":"1001219","ADDRESS":"高雄市旗山區華中街1號","TEL":"07-6612045","COUNTYNAME":"高雄市","TOWNNAME":"旗山區","MARKTYPE":"991","Class":"1"}},{"type":"Feature","id":19558,"geometry":{"type":"Point","coordinates":[120.48321503541813,22.888242433070477]},"properties":{"OBJECTID":19558,"LANDMARKID":"1001200000084","LANDMARKCO":"103","LANDMARKNA":"高雄市旗山區鎮民代表會","LANDMARKAD":"1001219","ADDRESS":"高雄市旗山區延平一路499號","TEL":"07-6612219","COUNTYNAME":"高雄市","TOWNNAME":"旗山區","MARKTYPE":"991","Class":"1"}},{"type":"Feature","id":19559,"geometry":{"type":"Point","coordinates":[120.48330976557405,22.888604277650462]},"properties":{"OBJECTID":19559,"LANDMARKID":"1001200000285","LANDMARKCO":"108","LANDMARKNA":"高雄市旗山區公所","LANDMARKAD":"1001219","ADDRESS":"高雄市旗山區延平一路499號","TEL":"07-6616100","COUNTYNAME":"高雄市","TOWNNAME":"旗山區","MARKTYPE":"991","Class":"1"}},{"type":"Feature","id":19560,"geometry":{"type":"Point","coordinates":[120.48333065962071,22.888414747981553]},"properties":{"OBJECTID":19560,"LANDMARKID":"1001200000219","LANDMARKCO":"107","LANDMARKNA":"高雄市消防局旗山消防分隊","LANDMARKAD":"1001219","ADDRESS":"高雄市旗山區延平一路507號","TEL":"07-6612300","COUNTYNAME":"高雄市","TOWNNAME":"旗山區","MARKTYPE":"991","Class":"1"}},{"type":"Feature","id":19561,"geometry":{"type":"Point","coordinates":[120.48341068165956,22.888144346292165]},"properties":{"OBJECTID":19561,"LANDMARKID":"1001200000127","LANDMARKCO":"106","LANDMARKNA":"高雄市旗山區戶政事務所","LANDMARKAD":"1001219","ADDRESS":"高雄市旗山區鼓山里8鄰延平一路503號","TEL":"07-6614461","COUNTYNAME":"高雄市","TOWNNAME":"旗山區","MARKTYPE":"991","Class":"1"}},{"type":"Feature","id":19562,"geometry":{"type":"Point","coordinates":[120.49277286273546,22.882036942588478]},"properties":{"OBJECTID":19562,"LANDMARKID":"1001200000212","LANDMARKCO":"107","LANDMARKNA":"高雄市政府警察局旗尾派出所","LANDMARKAD":"1001219","ADDRESS":"高雄市旗山區延平二路21號","TEL":"07-6614306","COUNTYNAME":"高雄市","TOWNNAME":"旗山區","MARKTYPE":"991","Class":"1"}},{"type":"Feature","id":19563,"geometry":{"type":"Point","coordinates":[120.50318057044591,22.932638917339265]},"properties":{"OBJECTID":19563,"LANDMARKID":"1001200000213","LANDMARKCO":"107","LANDMARKNA":"高雄市政府警察局圓潭派出所","LANDMARKAD":"1001219","ADDRESS":"高雄市旗山區旗甲路三段165號","TEL":"07-6691307","COUNTYNAME":"高雄市","TOWNNAME":"旗山區","MARKTYPE":"991","Class":"1"}},{"type":"Feature","id":19564,"geometry":{"type":"Point","coordinates":[120.50447838882849,22.857421955209912]},"properties":{"OBJECTID":19564,"LANDMARKID":"1001200000214","LANDMARKCO":"107","LANDMARKNA":"高雄市政府警察局廣福派出所","LANDMARKAD":"1001219","ADDRESS":"高雄市旗山區旗屏二路18號","TEL":"07-6613260","COUNTYNAME":"高雄市","TOWNNAME":"旗山區","MARKTYPE":"991","Class":"1"}},{"type":"Feature","id":19565,"geometry":{"type":"Point","coordinates":[120.50543207783383,22.856253888393187]},"properties":{"OBJECTID":19565,"LANDMARKID":"1001200000008","LANDMARKCO":"101","LANDMARKNA":"農業委員會農業藥物毒物試驗所","LANDMARKAD":"1001219","ADDRESS":"高雄市旗山區廣福里南隆路3號","TEL":"07-6624188","COUNTYNAME":"高雄市","TOWNNAME":"旗山區","MARKTYPE":"991","Class":"1"}},{"type":"Feature","id":19566,"geometry":{"type":"Point","coordinates":[120.48333534988342,22.888348530952804]},"properties":{"OBJECTID":19566,"LANDMARKID":"1001200000579","LANDMARKCO":"204","LANDMARKNA":"高雄市立圖書館旗山分館","LANDMARKAD":"1001219","ADDRESS":"高雄市旗山區鼓山里延平一路499號","TEL":" ","COUNTYNAME":"高雄市","TOWNNAME":"旗山區","MARKTYPE":"992","Class":"2"}},{"type":"Feature","id":19567,"geometry":{"type":"Point","coordinates":[120.48196046348839,22.90123831975874]},"properties":{"OBJECTID":19567,"LANDMARKID":"1001200000320","LANDMARKCO":"202","LANDMARKNA":"國立旗山農工","LANDMARKAD":"1001219","ADDRESS":"高雄市旗山區旗甲路一段195號","TEL":"07-6612501","COUNTYNAME":"高雄市","TOWNNAME":"旗山區","MARKTYPE":"992","Class":"2"}},{"type":"Feature","id":19568,"geometry":{"type":"Point","coordinates":[120.49366914254736,22.886106450978335]},"properties":{"OBJECTID":19568,"LANDMARKID":"1001200000321","LANDMARKCO":"202","LANDMARKNA":"國立旗美高中","LANDMARKAD":"1001219","ADDRESS":"高雄市旗山區東平里樹人路21號","TEL":"07-6612502","COUNTYNAME":"高雄市","TOWNNAME":"旗山區","MARKTYPE":"992","Class":"2"}},{"type":"Feature","id":19569,"geometry":{"type":"Point","coordinates":[120.48064013010789,22.880459336855935]},"properties":{"OBJECTID":19569,"LANDMARKID":"1001200000499","LANDMARKCO":"203","LANDMARKNA":"縣立旗山國中","LANDMARKAD":"1001219","ADDRESS":"高雄市旗山區大德里中學路42號","TEL":"07-6612103","COUNTYNAME":"高雄市","TOWNNAME":"旗山區","MARKTYPE":"992","Class":"2"}},{"type":"Feature","id":19570,"geometry":{"type":"Point","coordinates":[120.49991318954314,22.928752735758763]},"properties":{"OBJECTID":19570,"LANDMARKID":"1001200000500","LANDMARKCO":"203","LANDMARKNA":"縣立圓富國中","LANDMARKAD":"1001219","ADDRESS":"高雄市旗山區旗甲路二段609號","TEL":"07-6691004","COUNTYNAME":"高雄市","TOWNNAME":"旗山區","MARKTYPE":"992","Class":"2"}},{"type":"Feature","id":19571,"geometry":{"type":"Point","coordinates":[120.46460795511661,22.847717464670957]},"properties":{"OBJECTID":19571,"LANDMARKID":"1001200000501","LANDMARKCO":"203","LANDMARKNA":"縣立溪洲國小","LANDMARKAD":"1001219","ADDRESS":"高雄市旗山區大山里旗南二路126","TEL":"07-6661408","COUNTYNAME":"高雄市","TOWNNAME":"旗山區","MARKTYPE":"992","Class":"2"}},{"type":"Feature","id":19572,"geometry":{"type":"Point","coordinates":[120.48237849963709,22.898712480658794]},"properties":{"OBJECTID":19572,"LANDMARKID":"1001200000502","LANDMARKCO":"203","LANDMARKNA":"縣立鼓山國小","LANDMARKAD":"1001219","ADDRESS":"高雄市旗山區延平一路111號","TEL":"07-6623080","COUNTYNAME":"高雄市","TOWNNAME":"旗山區","MARKTYPE":"992","Class":"2"}},{"type":"Feature","id":19573,"geometry":{"type":"Point","coordinates":[120.48103883426822,22.888589485176968]},"properties":{"OBJECTID":19573,"LANDMARKID":"1001200000503","LANDMARKCO":"203","LANDMARKNA":"縣立旗山國小","LANDMARKAD":"1001219","ADDRESS":"高雄市旗山區鼓山里華中街44號","TEL":"07-6612052","COUNTYNAME":"高雄市","TOWNNAME":"旗山區","MARKTYPE":"992","Class":"2"}},{"type":"Feature","id":19574,"geometry":{"type":"Point","coordinates":[120.49160196804507,22.882218983317113]},"properties":{"OBJECTID":19574,"LANDMARKID":"1001200000504","LANDMARKCO":"203","LANDMARKNA":"縣立旗尾國小","LANDMARKAD":"1001219","ADDRESS":"高雄市旗山區東平里延平二路19號","TEL":"07-6616708","COUNTYNAME":"高雄市","TOWNNAME":"旗山區","MARKTYPE":"992","Class":"2"}},{"type":"Feature","id":19575,"geometry":{"type":"Point","coordinates":[120.50339860477261,22.93354331809417]},"properties":{"OBJECTID":19575,"LANDMARKID":"1001200000505","LANDMARKCO":"203","LANDMARKNA":"縣立圓潭國小","LANDMARKAD":"1001219","ADDRESS":"高雄市旗山區中正里旗甲路三段179號","TEL":"07-6691476","COUNTYNAME":"高雄市","TOWNNAME":"旗山區","MARKTYPE":"992","Class":"2"}},{"type":"Feature","id":19576,"geometry":{"type":"Point","coordinates":[120.47528740767289,22.899316378740046]},"properties":{"OBJECTID":19576,"LANDMARKID":"1001200000316","LANDMARKCO":"201","LANDMARKNA":"和春技術學院","LANDMARKAD":"1001219","ADDRESS":"高雄市旗山區旗文路125之8號","TEL":"07-6618851","COUNTYNAME":"高雄市","TOWNNAME":"旗山區","MARKTYPE":"992","Class":"2"}},{"type":"Feature","id":19577,"geometry":{"type":"Point","coordinates":[120.46081533686841,22.834887177815826]},"properties":{"OBJECTID":19577,"LANDMARKID":"1001200000506","LANDMARKCO":"203","LANDMARKNA":"縣立大洲國中","LANDMARKAD":"1001219","ADDRESS":"高雄市旗山區新光里新南巷5號","TEL":"07-6661378","COUNTYNAME":"高雄市","TOWNNAME":"旗山區","MARKTYPE":"992","Class":"2"}},{"type":"Feature","id":19578,"geometry":{"type":"Point","coordinates":[120.44867230580725,22.77587196162095]},"properties":{"OBJECTID":19578,"LANDMARKID":"1001200000507","LANDMARKCO":"203","LANDMARKNA":"縣立嶺口國小","LANDMARKAD":"1001219","ADDRESS":"高雄市旗山區南勝里龍文巷30號","TEL":"07-6651216","COUNTYNAME":"高雄市","TOWNNAME":"旗山區","MARKTYPE":"992","Class":"2"}},{"type":"Feature","id":19579,"geometry":{"type":"Point","coordinates":[120.5107290588904,22.85681121731503]},"properties":{"OBJECTID":19579,"LANDMARKID":"1001200000508","LANDMARKCO":"203","LANDMARKNA":"縣立旗尾國小廣文分校","LANDMARKAD":"1001219","ADDRESS":"高雄市旗山區","TEL":" ","COUNTYNAME":"高雄市","TOWNNAME":"旗山區","MARKTYPE":"992","Class":"2"}},{"type":"Feature","id":19580,"geometry":{"type":"Point","coordinates":[120.51428230966044,22.959313388045036]},"properties":{"OBJECTID":19580,"LANDMARKID":"1001200000509","LANDMARKCO":"203","LANDMARKNA":"縣立大林國小","LANDMARKAD":"1001219","ADDRESS":"高雄市旗山區大林里文進巷2號","TEL":"07-6691774","COUNTYNAME":"高雄市","TOWNNAME":"旗山區","MARKTYPE":"992","Class":"2"}},{"type":"Feature","id":19581,"geometry":{"type":"Point","coordinates":[120.47470294990167,22.877941918268942]},"properties":{"OBJECTID":19581,"LANDMARKID":"1001200000647","LANDMARKCO":"303","LANDMARKNA":"三桃山森林遊樂區停車場","LANDMARKAD":"1001219","ADDRESS":"高雄市旗山區","TEL":" ","COUNTYNAME":"高雄市","TOWNNAME":"旗山區","MARKTYPE":"993","Class":"303"}},{"type":"Feature","id":19582,"geometry":{"type":"Point","coordinates":[120.47479083981322,22.877201370730393]},"properties":{"OBJECTID":19582,"LANDMARKID":"1001200000648","LANDMARKCO":"303","LANDMARKNA":"三桃山森林遊樂區停車場","LANDMARKAD":"1001219","ADDRESS":"高雄市旗山區","TEL":" ","COUNTYNAME":"高雄市","TOWNNAME":"旗山區","MARKTYPE":"993","Class":"303"}},{"type":"Feature","id":19583,"geometry":{"type":"Point","coordinates":[120.452417953715,22.797412593109289]},"properties":{"OBJECTID":19583,"LANDMARKID":"1001200000724","LANDMARKCO":"308","LANDMARKNA":"國10-嶺口交流道-南下","LANDMARKAD":"1001219","ADDRESS":"高雄市旗山區","TEL":" ","COUNTYNAME":"高雄市","TOWNNAME":"旗山區","MARKTYPE":"993","Class":"308"}},{"type":"Feature","id":19584,"geometry":{"type":"Point","coordinates":[120.48381462414231,22.895838640623928]},"properties":{"OBJECTID":19584,"LANDMARKID":"1001200000624","LANDMARKCO":"302","LANDMARKNA":"高雄汽車客運旗山站","LANDMARKAD":"1001219","ADDRESS":"高雄市旗山區延平一路187號","TEL":" ","COUNTYNAME":"高雄市","TOWNNAME":"旗山區","MARKTYPE":"993","Class":"302"}},{"type":"Feature","id":19585,"geometry":{"type":"Point","coordinates":[120.47975609282251,22.887925225449159]},"properties":{"OBJECTID":19585,"LANDMARKID":"1001200000646","LANDMARKCO":"303","LANDMARKNA":"旗山運動公園停車場","LANDMARKAD":"1001219","ADDRESS":"高雄市旗山區","TEL":" ","COUNTYNAME":"高雄市","TOWNNAME":"旗山區","MARKTYPE":"993","Class":"303"}},{"type":"Feature","id":19586,"geometry":{"type":"Point","coordinates":[120.4808424795373,22.884259002816083]},"properties":{"OBJECTID":19586,"LANDMARKID":"1001200000815","LANDMARKCO":"402","LANDMARKNA":"中華電信-旗山服務中心","LANDMARKAD":"1001219","ADDRESS":"高雄市旗山區中山南街2號","TEL":"(07)644-1271","COUNTYNAME":"高雄市","TOWNNAME":"旗山區","MARKTYPE":"994","Class":"4"}},{"type":"Feature","id":19587,"geometry":{"type":"Point","coordinates":[120.51075006527844,22.937484533342882]},"properties":{"OBJECTID":19587,"LANDMARKID":"1001200001444","LANDMARKCO":"604","LANDMARKNA":"旗山三合院民宿","LANDMARKAD":"1001219","ADDRESS":"高雄市旗山區廣福里中興街6號","TEL":"07-6614318","COUNTYNAME":"高雄市","TOWNNAME":"旗山區","MARKTYPE":"996","Class":"6"}},{"type":"Feature","id":19588,"geometry":{"type":"Point","coordinates":[120.46845267653222,22.874361043873851]},"properties":{"OBJECTID":19588,"LANDMARKID":"1001200001445","LANDMARKCO":"604","LANDMARKNA":"旗山民宿","LANDMARKAD":"1001219","ADDRESS":"高雄市旗山區三協里楊厝巷11-1號","TEL":"07-6618983","COUNTYNAME":"高雄市","TOWNNAME":"旗山區","MARKTYPE":"996","Class":"6"}},{"type":"Feature","id":19589,"geometry":{"type":"Point","coordinates":[120.48160039821802,22.885598475131285]},"properties":{"OBJECTID":19589,"LANDMARKID":"1001200001354","LANDMARKCO":"603","LANDMARKNA":"益昌別館","LANDMARKAD":"1001219","ADDRESS":"高雄市旗山區永平街55號","TEL":"07-6613805","COUNTYNAME":"高雄市","TOWNNAME":"旗山區","MARKTYPE":"996","Class":"6"}},{"type":"Feature","id":19590,"geometry":{"type":"Point","coordinates":[120.48320961070154,22.887534714805877]},"properties":{"OBJECTID":19590,"LANDMARKID":"1001200001355","LANDMARKCO":"603","LANDMARKNA":"青年大旅社","LANDMARKAD":"1001219","ADDRESS":"高雄市旗山區延平一路529號","TEL":"07-6612048","COUNTYNAME":"高雄市","TOWNNAME":"旗山區","MARKTYPE":"996","Class":"6"}},{"type":"Feature","id":19591,"geometry":{"type":"Point","coordinates":[120.48311739791535,22.886798414248794]},"properties":{"OBJECTID":19591,"LANDMARKID":"1001200001356","LANDMARKCO":"603","LANDMARKNA":"大益大旅社","LANDMARKAD":"1001219","ADDRESS":"高雄市旗山區延平一路563號","TEL":"07-6612181","COUNTYNAME":"高雄市","TOWNNAME":"旗山區","MARKTYPE":"996","Class":"6"}},{"type":"Feature","id":19592,"geometry":{"type":"Point","coordinates":[120.46682722305961,22.881010604298726]},"properties":{"OBJECTID":19592,"LANDMARKID":"1001200001357","LANDMARKCO":"603","LANDMARKNA":"森美堡休閒汽車旅館","LANDMARKAD":"1001219","ADDRESS":"高雄市旗山區花旗二路2號","TEL":"07-6616656","COUNTYNAME":"高雄市","TOWNNAME":"旗山區","MARKTYPE":"996","Class":"6"}},{"type":"Feature","id":19593,"geometry":{"type":"Point","coordinates":[120.45850691528915,22.881585657086763]},"properties":{"OBJECTID":19593,"LANDMARKID":"1001200001358","LANDMARKCO":"603","LANDMARKNA":"龍華山莊渡假村","LANDMARKAD":"1001219","ADDRESS":"高雄市旗山區花旗二路300巷1號","TEL":"07-6622018","COUNTYNAME":"高雄市","TOWNNAME":"旗山區","MARKTYPE":"996","Class":"6"}},{"type":"Feature","id":19594,"geometry":{"type":"Point","coordinates":[120.48344213910828,22.884882419421945]},"properties":{"OBJECTID":19594,"LANDMARKID":"1001200001359","LANDMARKCO":"603","LANDMARKNA":"春吉大旅社","LANDMARKAD":"1001219","ADDRESS":"高雄市旗山區復新東街6號","TEL":"07-6613816","COUNTYNAME":"高雄市","TOWNNAME":"旗山區","MARKTYPE":"996","Class":"6"}},{"type":"Feature","id":19595,"geometry":{"type":"Point","coordinates":[120.49764374670529,22.922833400228072]},"properties":{"OBJECTID":19595,"LANDMARKID":"1001200001360","LANDMARKCO":"603","LANDMARKNA":"圓潭大旅社","LANDMARKAD":"1001219","ADDRESS":"高雄市旗山區旗甲路二段376號1樓之3","TEL":"07-6692378","COUNTYNAME":"高雄市","TOWNNAME":"旗山區","MARKTYPE":"996","Class":"6"}},{"type":"Feature","id":19596,"geometry":{"type":"Point","coordinates":[120.47419600911581,22.878723773919074]},"properties":{"OBJECTID":19596,"LANDMARKID":"1001200001235","LANDMARKCO":"504","LANDMARKNA":"三桃山森林遊樂區","LANDMARKAD":"1001219","ADDRESS":"高雄市旗山區三協里三桃巷9號","TEL":"07-6612482","COUNTYNAME":"高雄市","TOWNNAME":"旗山區","MARKTYPE":"995","Class":"5"}},{"type":"Feature","id":19597,"geometry":{"type":"Point","coordinates":[120.51644281287257,22.971183906019153]},"properties":{"OBJECTID":19597,"LANDMARKID":"1001200001300","LANDMARKCO":"510","LANDMARKNA":"大衛營高爾夫球場","LANDMARKAD":"1001219","ADDRESS":"高雄市旗山區大林溝坪路98-1號","TEL":"07-6692800","COUNTYNAME":"高雄市","TOWNNAME":"旗山區","MARKTYPE":"995","Class":"5"}},{"type":"Feature","id":19598,"geometry":{"type":"Point","coordinates":[120.4268058156164,22.81890304076569]},"properties":{"OBJECTID":19598,"LANDMARKID":"1001200001486","LANDMARKCO":"605","LANDMARKNA":"昊天宮","LANDMARKAD":"1001219","ADDRESS":"高雄市旗山區","TEL":" ","COUNTYNAME":"高雄市","TOWNNAME":"旗山區","MARKTYPE":"996","Class":"6"}},{"type":"Feature","id":19599,"geometry":{"type":"Point","coordinates":[120.32626919731558,22.873316652227764]},"properties":{"OBJECTID":19599,"LANDMARKID":"1001200000897","LANDMARKCO":"405","LANDMARKNA":"中油加油站-阿蓮站","LANDMARKAD":"1001212","ADDRESS":"高雄市阿蓮區阿蓮村中山路351號","TEL":"07-6312139","COUNTYNAME":"高雄市","TOWNNAME":"阿蓮區","MARKTYPE":"994","Class":"4"}},{"type":"Feature","id":19600,"geometry":{"type":"Point","coordinates":[120.33343875158225,22.885510587167431]},"properties":{"OBJECTID":19600,"LANDMARKID":"1001200000898","LANDMARKCO":"405","LANDMARKNA":"中油加油站-聯合太子阿蓮站","LANDMARKAD":"1001212","ADDRESS":"高雄市阿蓮區阿蓮村和平路256號","TEL":"07-6321828","COUNTYNAME":"高雄市","TOWNNAME":"阿蓮區","MARKTYPE":"994","Class":"4"}}]}