{"type":"FeatureCollection","features":[{"type":"Feature","id":2401,"geometry":{"type":"Point","coordinates":[121.28530969255253,24.882163313379419]},"properties":{"OBJECTID":2401,"LANDMARKID":"1000300000574","LANDMARKCO":"207","LANDMARKNA":"大溪藝文之家","LANDMARKAD":"1000303","ADDRESS":"桃園縣大溪鎮普濟路21-3號","TEL":"03-3886461","COUNTYNAME":"桃園市","TOWNNAME":"大溪區","MARKTYPE":"992","Class":"2"}},{"type":"Feature","id":2402,"geometry":{"type":"Point","coordinates":[121.28586169200833,24.880856257289892]},"properties":{"OBJECTID":2402,"LANDMARKID":"1000300000575","LANDMARKCO":"207","LANDMARKNA":"武德殿","LANDMARKAD":"1000303","ADDRESS":"桃園縣大溪鎮普濟路33號","TEL":" ","COUNTYNAME":"桃園市","TOWNNAME":"大溪區","MARKTYPE":"992","Class":"2"}},{"type":"Feature","id":2403,"geometry":{"type":"Point","coordinates":[121.29219452207671,24.9196660440182]},"properties":{"OBJECTID":2403,"LANDMARKID":"1000300000559","LANDMARKCO":"205","LANDMARKNA":"金蘭博物館","LANDMARKAD":"1000303","ADDRESS":"桃園縣大溪鎮介壽路236號","TEL":"03-3801226","COUNTYNAME":"桃園市","TOWNNAME":"大溪區","MARKTYPE":"992","Class":"2"}},{"type":"Feature","id":2404,"geometry":{"type":"Point","coordinates":[121.26329533310975,24.889938224570365]},"properties":{"OBJECTID":2404,"LANDMARKID":"1000300000754","LANDMARKCO":"308","LANDMARKNA":"國3-大溪交流道-南下","LANDMARKAD":"1000303","ADDRESS":"桃園縣大溪鎮","TEL":" ","COUNTYNAME":"桃園市","TOWNNAME":"大溪區","MARKTYPE":"993","Class":"308"}},{"type":"Feature","id":2405,"geometry":{"type":"Point","coordinates":[121.26551492127021,24.893823734411011]},"properties":{"OBJECTID":2405,"LANDMARKID":"1000300000755","LANDMARKCO":"308","LANDMARKNA":"國3-大溪交流道-北上","LANDMARKAD":"1000303","ADDRESS":"桃園縣大溪鎮","TEL":" ","COUNTYNAME":"桃園市","TOWNNAME":"大溪區","MARKTYPE":"993","Class":"308"}},{"type":"Feature","id":2406,"geometry":{"type":"Point","coordinates":[121.25851520248179,24.898425991342865]},"properties":{"OBJECTID":2406,"LANDMARKID":"1000300000756","LANDMARKCO":"308","LANDMARKNA":"台66-大溪端-西行","LANDMARKAD":"1000303","ADDRESS":" ","TEL":" ","COUNTYNAME":"桃園市","TOWNNAME":"大溪區","MARKTYPE":"993","Class":"308"}},{"type":"Feature","id":2407,"geometry":{"type":"Point","coordinates":[121.29064326105693,24.879744635234701]},"properties":{"OBJECTID":2407,"LANDMARKID":"1000300000584","LANDMARKCO":"302","LANDMARKNA":"桃園汽車客運大溪總站","LANDMARKAD":"1000303","ADDRESS":"桃園縣大溪鎮復興路63號","TEL":" ","COUNTYNAME":"桃園市","TOWNNAME":"大溪區","MARKTYPE":"993","Class":"302"}},{"type":"Feature","id":2408,"geometry":{"type":"Point","coordinates":[121.28806506195025,24.881050292083213]},"properties":{"OBJECTID":2408,"LANDMARKID":"1000300000585","LANDMARKCO":"302","LANDMARKNA":"桃園汽車客運桃園市公車站","LANDMARKAD":"1000303","ADDRESS":"桃園縣桃園市復興路151號","TEL":" ","COUNTYNAME":"桃園市","TOWNNAME":"大溪區","MARKTYPE":"993","Class":"302"}},{"type":"Feature","id":2409,"geometry":{"type":"Point","coordinates":[121.27452258555445,24.888614265560072]},"properties":{"OBJECTID":2409,"LANDMARKID":"1000300000678","LANDMARKCO":"303","LANDMARKNA":"齋明寺停車場","LANDMARKAD":"1000303","ADDRESS":" ","TEL":" ","COUNTYNAME":"桃園市","TOWNNAME":"大溪區","MARKTYPE":"993","Class":"303"}},{"type":"Feature","id":2410,"geometry":{"type":"Point","coordinates":[121.24890312863992,24.811145027023969]},"properties":{"OBJECTID":2410,"LANDMARKID":"1000300000679","LANDMARKCO":"303","LANDMARKNA":"公園停車場","LANDMARKAD":"1000303","ADDRESS":"桃園縣龍潭鄉中正路210號","TEL":" ","COUNTYNAME":"桃園市","TOWNNAME":"大溪區","MARKTYPE":"993","Class":"303"}},{"type":"Feature","id":2411,"geometry":{"type":"Point","coordinates":[121.30348613121961,24.814674733010992]},"properties":{"OBJECTID":2411,"LANDMARKID":"1000300000680","LANDMARKCO":"303","LANDMARKNA":"阿姆坪停車場","LANDMARKAD":"1000303","ADDRESS":"桃園縣大溪鎮","TEL":" ","COUNTYNAME":"桃園市","TOWNNAME":"大溪區","MARKTYPE":"993","Class":"303"}},{"type":"Feature","id":2412,"geometry":{"type":"Point","coordinates":[121.28185636598836,24.835016748640147]},"properties":{"OBJECTID":2412,"LANDMARKID":"1000300000681","LANDMARKCO":"303","LANDMARKNA":"古道口停車場","LANDMARKAD":"1000303","ADDRESS":"桃園縣大溪鎮","TEL":" ","COUNTYNAME":"桃園市","TOWNNAME":"大溪區","MARKTYPE":"993","Class":"303"}},{"type":"Feature","id":2413,"geometry":{"type":"Point","coordinates":[121.29282188564265,24.84009355809437]},"properties":{"OBJECTID":2413,"LANDMARKID":"1000300000682","LANDMARKCO":"303","LANDMARKNA":"慈湖第一停車場","LANDMARKAD":"1000303","ADDRESS":"桃園縣大溪鎮","TEL":" ","COUNTYNAME":"桃園市","TOWNNAME":"大溪區","MARKTYPE":"993","Class":"303"}},{"type":"Feature","id":2414,"geometry":{"type":"Point","coordinates":[121.28605124393309,24.849190575713251]},"properties":{"OBJECTID":2414,"LANDMARKID":"1000300000683","LANDMARKCO":"303","LANDMARKNA":"頭寮陵寢停車場","LANDMARKAD":"1000303","ADDRESS":"桃園縣大溪鎮","TEL":" ","COUNTYNAME":"桃園市","TOWNNAME":"大溪區","MARKTYPE":"993","Class":"303"}},{"type":"Feature","id":2415,"geometry":{"type":"Point","coordinates":[121.24737246288974,24.814566016849692]},"properties":{"OBJECTID":2415,"LANDMARKID":"1000300000684","LANDMARKCO":"303","LANDMARKNA":"南苑停車場","LANDMARKAD":"1000303","ADDRESS":"桃園縣大溪鎮","TEL":" ","COUNTYNAME":"桃園市","TOWNNAME":"大溪區","MARKTYPE":"993","Class":"303"}},{"type":"Feature","id":2416,"geometry":{"type":"Point","coordinates":[121.28560301212835,24.882601060365335]},"properties":{"OBJECTID":2416,"LANDMARKID":"1000300000685","LANDMARKCO":"303","LANDMARKNA":"大溪都市計畫停二停車場","LANDMARKAD":"1000303","ADDRESS":"桃園縣大溪鎮普濟路","TEL":" ","COUNTYNAME":"桃園市","TOWNNAME":"大溪區","MARKTYPE":"993","Class":"303"}},{"type":"Feature","id":2417,"geometry":{"type":"Point","coordinates":[121.28318080390505,24.908874326065568]},"properties":{"OBJECTID":2417,"LANDMARKID":"1000300000686","LANDMARKCO":"303","LANDMARKNA":"埔頂都市計畫停四停車場","LANDMARKAD":"1000303","ADDRESS":"桃園縣大溪鎮仁善路","TEL":" ","COUNTYNAME":"桃園市","TOWNNAME":"大溪區","MARKTYPE":"993","Class":"303"}},{"type":"Feature","id":2418,"geometry":{"type":"Point","coordinates":[121.28872303219563,24.881860048608587]},"properties":{"OBJECTID":2418,"LANDMARKID":"1000300000924","LANDMARKCO":"402","LANDMARKNA":"中華電信-大溪服務中心","LANDMARKAD":"1000303","ADDRESS":"桃園縣大溪鎮慈湖路78號","TEL":"123或0800-080-123","COUNTYNAME":"桃園市","TOWNNAME":"大溪區","MARKTYPE":"994","Class":"4"}},{"type":"Feature","id":2419,"geometry":{"type":"Point","coordinates":[121.28878643234613,24.881601926237273]},"properties":{"OBJECTID":2419,"LANDMARKID":"1000300000925","LANDMARKCO":"402","LANDMARKNA":"威寶電信-大溪慈湖特約服務中心","LANDMARKAD":"1000303","ADDRESS":"桃園縣大溪鎮慈湖路84號","TEL":"03-3888410","COUNTYNAME":"桃園市","TOWNNAME":"大溪區","MARKTYPE":"994","Class":"4"}},{"type":"Feature","id":2420,"geometry":{"type":"Point","coordinates":[121.27704196273163,24.896668300257947]},"properties":{"OBJECTID":2420,"LANDMARKID":"1000300001650","LANDMARKCO":"603","LANDMARKNA":"人客旅館","LANDMARKAD":"1000303","ADDRESS":"桃園縣大溪鎮埔頂路一段50號、50-1號至50-30號2樓","TEL":"03-3800666","COUNTYNAME":"桃園市","TOWNNAME":"大溪區","MARKTYPE":"996","Class":"6"}},{"type":"Feature","id":2421,"geometry":{"type":"Point","coordinates":[121.29625899625489,24.924731483107269]},"properties":{"OBJECTID":2421,"LANDMARKID":"1000300001651","LANDMARKCO":"603","LANDMARKNA":"良辰汽車旅館","LANDMARKAD":"1000303","ADDRESS":"桃園縣八德市介壽路二段1425號1-2樓","TEL":"03-3731201","COUNTYNAME":"桃園市","TOWNNAME":"大溪區","MARKTYPE":"996","Class":"6"}},{"type":"Feature","id":2422,"geometry":{"type":"Point","coordinates":[121.28647408225979,24.882759380831065]},"properties":{"OBJECTID":2422,"LANDMARKID":"1000300001652","LANDMARKCO":"603","LANDMARKNA":"中和旅社","LANDMARKAD":"1000303","ADDRESS":"桃園縣大溪鎮中正路31號","TEL":"03-3872366","COUNTYNAME":"桃園市","TOWNNAME":"大溪區","MARKTYPE":"996","Class":"6"}},{"type":"Feature","id":2423,"geometry":{"type":"Point","coordinates":[121.26305348555253,24.880368667659411]},"properties":{"OBJECTID":2423,"LANDMARKID":"1000300001653","LANDMARKCO":"603","LANDMARKNA":"歐堡汽車旅館","LANDMARKAD":"1000303","ADDRESS":"桃園縣大溪鎮埔頂路一段61號及1段59巷1-3","TEL":"5-35號","COUNTYNAME":"桃園市","TOWNNAME":"大溪區","MARKTYPE":"996","Class":"6"}},{"type":"Feature","id":2424,"geometry":{"type":"Point","coordinates":[121.27478855614045,24.899280373144784]},"properties":{"OBJECTID":2424,"LANDMARKID":"1000300001654","LANDMARKCO":"603","LANDMARKNA":"紅蟳旅館","LANDMARKAD":"1000303","ADDRESS":"桃園縣大溪鎮埔頂路一段88號3樓","TEL":"03-3807979","COUNTYNAME":"桃園市","TOWNNAME":"大溪區","MARKTYPE":"996","Class":"6"}},{"type":"Feature","id":2425,"geometry":{"type":"Point","coordinates":[121.29166510642587,24.918412673914663]},"properties":{"OBJECTID":2425,"LANDMARKID":"1000300001655","LANDMARKCO":"603","LANDMARKNA":"僑愛大旅社","LANDMARKAD":"1000303","ADDRESS":"桃園縣大溪鎮介壽路343號","TEL":"03-3804859.3802","COUNTYNAME":"桃園市","TOWNNAME":"大溪區","MARKTYPE":"996","Class":"6"}},{"type":"Feature","id":2426,"geometry":{"type":"Point","coordinates":[121.28530316719585,24.906498322966719]},"properties":{"OBJECTID":2426,"LANDMARKID":"1000300001656","LANDMARKCO":"603","LANDMARKNA":"孔雀大旅社","LANDMARKAD":"1000303","ADDRESS":"桃園縣大溪鎮介壽路904號2-3樓","TEL":"03-3800023","COUNTYNAME":"桃園市","TOWNNAME":"大溪區","MARKTYPE":"996","Class":"6"}},{"type":"Feature","id":2427,"geometry":{"type":"Point","coordinates":[121.27953462265029,24.897498796334038]},"properties":{"OBJECTID":2427,"LANDMARKID":"1000300001657","LANDMARKCO":"603","LANDMARKNA":"碧雲天汽車旅館(大溪館)","LANDMARKAD":"1000303","ADDRESS":"桃園縣大溪鎮員林路一段211巷37號1-2樓","TEL":"03-3803399","COUNTYNAME":"桃園市","TOWNNAME":"大溪區","MARKTYPE":"996","Class":"6"}},{"type":"Feature","id":2428,"geometry":{"type":"Point","coordinates":[121.32635571187537,24.881968119803044]},"properties":{"OBJECTID":2428,"LANDMARKID":"1000300001479","LANDMARKCO":"601","LANDMARKNA":"大溪別館","LANDMARKAD":"1000303","ADDRESS":"桃園縣大溪鎮永福里日新路166號","TEL":"03-387-6688","COUNTYNAME":"桃園市","TOWNNAME":"大溪區","MARKTYPE":"996","Class":"6"}},{"type":"Feature","id":2429,"geometry":{"type":"Point","coordinates":[121.2851729546625,24.883195527635547]},"properties":{"OBJECTID":2429,"LANDMARKID":"1000300001404","LANDMARKCO":"503","LANDMARKNA":"大溪中正公園","LANDMARKAD":"1000303","ADDRESS":"桃園縣大溪鎮","TEL":" ","COUNTYNAME":"桃園市","TOWNNAME":"大溪區","MARKTYPE":"995","Class":"5"}},{"type":"Feature","id":2430,"geometry":{"type":"Point","coordinates":[121.29430674316623,24.84034542047813]},"properties":{"OBJECTID":2430,"LANDMARKID":"1000300001405","LANDMARKCO":"503","LANDMARKNA":"慈湖","LANDMARKAD":"1000303","ADDRESS":"桃園縣大溪鎮","TEL":" ","COUNTYNAME":"桃園市","TOWNNAME":"大溪區","MARKTYPE":"995","Class":"5"}},{"type":"Feature","id":2431,"geometry":{"type":"Point","coordinates":[121.29263583366117,24.85245109958737]},"properties":{"OBJECTID":2431,"LANDMARKID":"1000300001425","LANDMARKCO":"505","LANDMARKNA":"龍溪花園","LANDMARKAD":"1000303","ADDRESS":"桃園縣大溪鎮福安里水汴頭12號","TEL":" ","COUNTYNAME":"桃園市","TOWNNAME":"大溪區","MARKTYPE":"995","Class":"5"}},{"type":"Feature","id":2432,"geometry":{"type":"Point","coordinates":[121.2873238185109,24.820000777573984]},"properties":{"OBJECTID":2432,"LANDMARKID":"1000300001426","LANDMARKCO":"505","LANDMARKNA":"龍珠灣遊樂區","LANDMARKAD":"1000303","ADDRESS":"桃園縣大溪鎮","TEL":" ","COUNTYNAME":"桃園市","TOWNNAME":"大溪區","MARKTYPE":"995","Class":"5"}},{"type":"Feature","id":2433,"geometry":{"type":"Point","coordinates":[121.24735374082569,24.811408330857912]},"properties":{"OBJECTID":2433,"LANDMARKID":"1000300001401","LANDMARKCO":"503","LANDMARKNA":"石門水庫風景區","LANDMARKAD":"1000303","ADDRESS":"桃園縣大溪鎮","TEL":" ","COUNTYNAME":"桃園市","TOWNNAME":"大溪區","MARKTYPE":"995","Class":"5"}},{"type":"Feature","id":2434,"geometry":{"type":"Point","coordinates":[121.3271193290572,24.880680484790361]},"properties":{"OBJECTID":2434,"LANDMARKID":"1000300001454","LANDMARKCO":"510","LANDMARKNA":"鴻禧大溪高爾夫球場","LANDMARKAD":"1000303","ADDRESS":"桃園縣大溪鎮永福里日新路168號","TEL":"03-3875699","COUNTYNAME":"桃園市","TOWNNAME":"大溪區","MARKTYPE":"995","Class":"5"}},{"type":"Feature","id":2435,"geometry":{"type":"Point","coordinates":[121.2471124228459,24.811828693871114]},"properties":{"OBJECTID":2435,"LANDMARKID":"1000300001398","LANDMARKCO":"503","LANDMARKNA":"楓香道","LANDMARKAD":"1000303","ADDRESS":"石門水庫的環湖道路兩旁有多處楓香道","TEL":" ","COUNTYNAME":"桃園市","TOWNNAME":"大溪區","MARKTYPE":"995","Class":"5"}},{"type":"Feature","id":2436,"geometry":{"type":"Point","coordinates":[121.2471124228459,24.811828693871114]},"properties":{"OBJECTID":2436,"LANDMARKID":"1000300001399","LANDMARKCO":"503","LANDMARKNA":"石門水庫自行車道","LANDMARKAD":"1000303","ADDRESS":"石門水庫自行車道是環繞著石門水庫後池堰的一條約三公","TEL":" ","COUNTYNAME":"桃園市","TOWNNAME":"大溪區","MARKTYPE":"995","Class":"5"}},{"type":"Feature","id":2437,"geometry":{"type":"Point","coordinates":[121.2471124228459,24.811828693871114]},"properties":{"OBJECTID":2437,"LANDMARKID":"1000300001400","LANDMARKCO":"503","LANDMARKNA":"大霸、八角亭","LANDMARKAD":"1000303","ADDRESS":"石門水庫最佳的觀景平台就是大壩與八角亭","TEL":" ","COUNTYNAME":"桃園市","TOWNNAME":"大溪區","MARKTYPE":"995","Class":"5"}},{"type":"Feature","id":2438,"geometry":{"type":"Point","coordinates":[121.20984351286936,24.86563610632448]},"properties":{"OBJECTID":2438,"LANDMARKID":"1000300000943","LANDMARKCO":"405","LANDMARKNA":"中油加油站-合信站","LANDMARKAD":"1000309","ADDRESS":"桃園縣龍潭鄉中豐路中山段230號","TEL":"03-4892986","COUNTYNAME":"桃園市","TOWNNAME":"龍潭區","MARKTYPE":"994","Class":"4"}},{"type":"Feature","id":2439,"geometry":{"type":"Point","coordinates":[121.21030330256535,24.864659297482849]},"properties":{"OBJECTID":2439,"LANDMARKID":"1000300000944","LANDMARKCO":"405","LANDMARKNA":"中油加油站-銢嘉龍潭站","LANDMARKAD":"1000309","ADDRESS":"桃園縣龍潭鄉聖亭路15號","TEL":"03-4893488","COUNTYNAME":"桃園市","TOWNNAME":"龍潭區","MARKTYPE":"994","Class":"4"}},{"type":"Feature","id":2440,"geometry":{"type":"Point","coordinates":[121.21349761995354,24.872582665207645]},"properties":{"OBJECTID":2440,"LANDMARKID":"1000300000945","LANDMARKCO":"405","LANDMARKNA":"中油加油站-生曜站","LANDMARKAD":"1000309","ADDRESS":"桃園縣龍潭鄉中豐路117號","TEL":"03-4897881","COUNTYNAME":"桃園市","TOWNNAME":"龍潭區","MARKTYPE":"994","Class":"4"}},{"type":"Feature","id":2441,"geometry":{"type":"Point","coordinates":[121.22794097888456,24.872397397212556]},"properties":{"OBJECTID":2441,"LANDMARKID":"1000300000946","LANDMARKCO":"405","LANDMARKNA":"統一速邁樂加油站-龍潭二站加油站(中油)","LANDMARKAD":"1000309","ADDRESS":"桃園縣龍潭鄉黃唐村中興路448號","TEL":" ","COUNTYNAME":"桃園市","TOWNNAME":"龍潭區","MARKTYPE":"994","Class":"4"}},{"type":"Feature","id":2442,"geometry":{"type":"Point","coordinates":[121.22394990291704,24.852599643131104]},"properties":{"OBJECTID":2442,"LANDMARKID":"1000300000947","LANDMARKCO":"405","LANDMARKNA":"中油加油站-泉盛站","LANDMARKAD":"1000309","ADDRESS":"桃園縣龍潭鄉中正路上華段126號","TEL":"03-4797799","COUNTYNAME":"桃園市","TOWNNAME":"龍潭區","MARKTYPE":"994","Class":"4"}},{"type":"Feature","id":2443,"geometry":{"type":"Point","coordinates":[121.19339934695465,24.832643917713185]},"properties":{"OBJECTID":2443,"LANDMARKID":"1000300000948","LANDMARKCO":"405","LANDMARKNA":"中油加油站-小人國站","LANDMARKAD":"1000309","ADDRESS":"桃園縣龍潭鄉中原路2段660號","TEL":"03-4717023","COUNTYNAME":"桃園市","TOWNNAME":"龍潭區","MARKTYPE":"994","Class":"4"}},{"type":"Feature","id":2444,"geometry":{"type":"Point","coordinates":[121.2173295220167,24.867537094795139]},"properties":{"OBJECTID":2444,"LANDMARKID":"1000300000949","LANDMARKCO":"405","LANDMARKNA":"中油加油站-龍潭站(中油直營)","LANDMARKAD":"1000309","ADDRESS":"桃園縣龍潭鄉北龍路264號","TEL":"03-4792614","COUNTYNAME":"桃園市","TOWNNAME":"龍潭區","MARKTYPE":"994","Class":"4"}},{"type":"Feature","id":2445,"geometry":{"type":"Point","coordinates":[121.22170738752003,24.866577941833864]},"properties":{"OBJECTID":2445,"LANDMARKID":"1000300000950","LANDMARKCO":"405","LANDMARKNA":"中油加油站-九龍站","LANDMARKAD":"1000309","ADDRESS":"桃園縣龍潭鄉大昌路2段80號","TEL":"03-4707513","COUNTYNAME":"桃園市","TOWNNAME":"龍潭區","MARKTYPE":"994","Class":"4"}},{"type":"Feature","id":2446,"geometry":{"type":"Point","coordinates":[121.2030454642007,24.872506694192779]},"properties":{"OBJECTID":2446,"LANDMARKID":"1000300000951","LANDMARKCO":"405","LANDMARKNA":"北基加油站-百年站(中油)","LANDMARKAD":"1000309","ADDRESS":"桃園縣龍潭鄉聖亭路366號","TEL":"(03)499-2080","COUNTYNAME":"桃園市","TOWNNAME":"龍潭區","MARKTYPE":"994","Class":"4"}},{"type":"Feature","id":2447,"geometry":{"type":"Point","coordinates":[121.20580642913305,24.860996512064755]},"properties":{"OBJECTID":2447,"LANDMARKID":"1000300000952","LANDMARKCO":"405","LANDMARKNA":"統一速邁樂加油站-龍潭加油站(中油)","LANDMARKAD":"1000309","ADDRESS":"桃園縣龍潭鄉中豐路上林段187號","TEL":" ","COUNTYNAME":"桃園市","TOWNNAME":"龍潭區","MARKTYPE":"994","Class":"4"}},{"type":"Feature","id":2448,"geometry":{"type":"Point","coordinates":[121.24264330806092,24.848950923315773]},"properties":{"OBJECTID":2448,"LANDMARKID":"1000300000953","LANDMARKCO":"405","LANDMARKNA":"北基加油站-茗貴站(中油)","LANDMARKAD":"1000309","ADDRESS":"桃園縣龍潭鄉中正路佳安段350號","TEL":"03-4711020","COUNTYNAME":"桃園市","TOWNNAME":"龍潭區","MARKTYPE":"994","Class":"4"}},{"type":"Feature","id":2449,"geometry":{"type":"Point","coordinates":[121.21280139993497,24.889436318329633]},"properties":{"OBJECTID":2449,"LANDMARKID":"1000300000954","LANDMARKCO":"405","LANDMARKNA":"中油加油站-建龍站(中油直營)","LANDMARKAD":"1000309","ADDRESS":"桃園縣龍潭鄉烏林村中豐路716號","TEL":"03-4792578","COUNTYNAME":"桃園市","TOWNNAME":"龍潭區","MARKTYPE":"994","Class":"4"}},{"type":"Feature","id":2450,"geometry":{"type":"Point","coordinates":[121.21600614128769,24.871251991350601]},"properties":{"OBJECTID":2450,"LANDMARKID":"1000300000955","LANDMARKCO":"405","LANDMARKNA":"中油加油站-祥瑞站","LANDMARKAD":"1000309","ADDRESS":"桃園縣龍潭鄉大昌路一段85號","TEL":"03-4093979","COUNTYNAME":"桃園市","TOWNNAME":"龍潭區","MARKTYPE":"994","Class":"4"}},{"type":"Feature","id":2451,"geometry":{"type":"Point","coordinates":[121.2316345211524,24.873038368908563]},"properties":{"OBJECTID":2451,"LANDMARKID":"1000300000956","LANDMARKCO":"405","LANDMARKNA":"中油加油站-中興站","LANDMARKAD":"1000309","ADDRESS":"桃園縣龍潭鄉中興路369號","TEL":"03-4891399","COUNTYNAME":"桃園市","TOWNNAME":"龍潭區","MARKTYPE":"994","Class":"4"}},{"type":"Feature","id":2452,"geometry":{"type":"Point","coordinates":[121.21733154571997,24.870900073146036]},"properties":{"OBJECTID":2452,"LANDMARKID":"1000300000957","LANDMARKCO":"405","LANDMARKNA":"中油加油站-大昌站","LANDMARKAD":"1000309","ADDRESS":"桃園縣龍潭鄉大昌路一段160號","TEL":"03-4892202","COUNTYNAME":"桃園市","TOWNNAME":"龍潭區","MARKTYPE":"994","Class":"4"}},{"type":"Feature","id":2453,"geometry":{"type":"Point","coordinates":[121.21586290676504,24.867189198585521]},"properties":{"OBJECTID":2453,"LANDMARKID":"1000300000916","LANDMARKCO":"402","LANDMARKNA":"亞太行動寬頻電信-龍潭北龍加盟服務中心","LANDMARKAD":"1000309","ADDRESS":"桃園縣龍潭鄉北龍路205號","TEL":"03-4894886","COUNTYNAME":"桃園市","TOWNNAME":"龍潭區","MARKTYPE":"994","Class":"4"}},{"type":"Feature","id":2454,"geometry":{"type":"Point","coordinates":[121.21362782828804,24.874731202988883]},"properties":{"OBJECTID":2454,"LANDMARKID":"1000300000760","LANDMARKCO":"401","LANDMARKNA":"敏盛綜合醫院龍潭分院","LANDMARKAD":"1000309","ADDRESS":"桃園縣龍潭鄉烏林村中豐路168號","TEL":"03- 4794151","COUNTYNAME":"桃園市","TOWNNAME":"龍潭區","MARKTYPE":"994","Class":"4"}},{"type":"Feature","id":2455,"geometry":{"type":"Point","coordinates":[121.23663929418248,24.874970105350162]},"properties":{"OBJECTID":2455,"LANDMARKID":"1000300000761","LANDMARKCO":"401","LANDMARKNA":"國軍桃園總醫院","LANDMARKAD":"1000309","ADDRESS":"桃園縣龍潭鄉中興路168號","TEL":"03-4799595","COUNTYNAME":"桃園市","TOWNNAME":"龍潭區","MARKTYPE":"994","Class":"4"}},{"type":"Feature","id":2456,"geometry":{"type":"Point","coordinates":[121.18853797397415,24.832028879172828]},"properties":{"OBJECTID":2456,"LANDMARKID":"1000300001429","LANDMARKCO":"505","LANDMARKNA":"小人國主題樂園","LANDMARKAD":"1000309","ADDRESS":"桃園縣龍潭鄉高原村橫岡下60之2號","TEL":" ","COUNTYNAME":"桃園市","TOWNNAME":"龍潭區","MARKTYPE":"995","Class":"5"}},{"type":"Feature","id":2457,"geometry":{"type":"Point","coordinates":[121.20843019489573,24.863787557309113]},"properties":{"OBJECTID":2457,"LANDMARKID":"1000300001444","LANDMARKCO":"507","LANDMARKNA":"龍潭聖蹟亭","LANDMARKAD":"1000309","ADDRESS":"桃園縣龍潭鄉凌雲村竹窩子段20地號","TEL":" ","COUNTYNAME":"桃園市","TOWNNAME":"龍潭區","MARKTYPE":"995","Class":"5"}},{"type":"Feature","id":2458,"geometry":{"type":"Point","coordinates":[121.19456476249739,24.831362683187095]},"properties":{"OBJECTID":2458,"LANDMARKID":"1000300001430","LANDMARKCO":"506","LANDMARKNA":"龍潭鄉觀光茶園","LANDMARKAD":"1000309","ADDRESS":"桃園縣龍潭鄉高原村中原路二段575號","TEL":"03-4717663","COUNTYNAME":"桃園市","TOWNNAME":"龍潭區","MARKTYPE":"995","Class":"5"}},{"type":"Feature","id":2459,"geometry":{"type":"Point","coordinates":[121.19783443345345,24.86342430231317]},"properties":{"OBJECTID":2459,"LANDMARKID":"1000300001431","LANDMARKCO":"506","LANDMARKNA":"茶舍水龍吟","LANDMARKAD":"1000309","ADDRESS":"桃園縣龍潭鄉高原村中原路一段506號","TEL":"03-4718455","COUNTYNAME":"桃園市","TOWNNAME":"龍潭區","MARKTYPE":"995","Class":"5"}},{"type":"Feature","id":2460,"geometry":{"type":"Point","coordinates":[121.21670811893644,24.866735017300389]},"properties":{"OBJECTID":2460,"LANDMARKID":"1000300001365","LANDMARKCO":"408","LANDMARKNA":"郵局-龍潭郵局","LANDMARKAD":"1000309","ADDRESS":"桃園縣龍潭鄉中正路151號","TEL":"(03)4792-025轉","COUNTYNAME":"桃園市","TOWNNAME":"龍潭區","MARKTYPE":"994","Class":"4"}},{"type":"Feature","id":2461,"geometry":{"type":"Point","coordinates":[121.24406087857872,24.83151418780156]},"properties":{"OBJECTID":2461,"LANDMARKID":"1000300001366","LANDMARKCO":"408","LANDMARKNA":"郵局-龍潭大平郵局","LANDMARKAD":"1000309","ADDRESS":"桃園縣龍潭鄉中正路三坑段743號","TEL":"(03)4712-857","COUNTYNAME":"桃園市","TOWNNAME":"龍潭區","MARKTYPE":"994","Class":"4"}},{"type":"Feature","id":2462,"geometry":{"type":"Point","coordinates":[121.23909041099756,24.832331754866971]},"properties":{"OBJECTID":2462,"LANDMARKID":"1000300001367","LANDMARKCO":"408","LANDMARKNA":"郵局-龍潭石管局郵局","LANDMARKAD":"1000309","ADDRESS":"桃園縣龍潭鄉佳安路3號","TEL":"(03)4712-509","COUNTYNAME":"桃園市","TOWNNAME":"龍潭區","MARKTYPE":"994","Class":"4"}},{"type":"Feature","id":2463,"geometry":{"type":"Point","coordinates":[121.22894545155789,24.849641292718921]},"properties":{"OBJECTID":2463,"LANDMARKID":"1000300001368","LANDMARKCO":"408","LANDMARKNA":"郵局-龍潭三林郵局","LANDMARKAD":"1000309","ADDRESS":"桃園縣龍潭鄉中正路三林段224號","TEL":"(03)4705-904","COUNTYNAME":"桃園市","TOWNNAME":"龍潭區","MARKTYPE":"994","Class":"4"}},{"type":"Feature","id":2464,"geometry":{"type":"Point","coordinates":[121.23408671704803,24.874195897970139]},"properties":{"OBJECTID":2464,"LANDMARKID":"1000300001369","LANDMARKCO":"408","LANDMARKNA":"郵局-龍潭中興郵局","LANDMARKAD":"1000309","ADDRESS":"桃園縣龍潭鄉中興路280號","TEL":"(03)4792-837","COUNTYNAME":"桃園市","TOWNNAME":"龍潭區","MARKTYPE":"994","Class":"4"}},{"type":"Feature","id":2465,"geometry":{"type":"Point","coordinates":[121.24503413183551,24.848812111522406]},"properties":{"OBJECTID":2465,"LANDMARKID":"1000300001370","LANDMARKCO":"408","LANDMARKNA":"郵局-龍潭新新郵局","LANDMARKAD":"1000309","ADDRESS":"桃園縣龍潭鄉中正路佳安段481號(中山科學研究院內)","TEL":"(03)4711-273","COUNTYNAME":"桃園市","TOWNNAME":"龍潭區","MARKTYPE":"994","Class":"4"}},{"type":"Feature","id":2466,"geometry":{"type":"Point","coordinates":[121.212113006145,24.883336657652002]},"properties":{"OBJECTID":2466,"LANDMARKID":"1000300001371","LANDMARKCO":"408","LANDMARKNA":"郵局-龍潭烏林郵局","LANDMARKAD":"1000309","ADDRESS":"桃園縣龍潭鄉中豐路508號","TEL":"(03)4798-278","COUNTYNAME":"桃園市","TOWNNAME":"龍潭區","MARKTYPE":"994","Class":"4"}},{"type":"Feature","id":2467,"geometry":{"type":"Point","coordinates":[121.24908270508439,24.856406986956273]},"properties":{"OBJECTID":2467,"LANDMARKID":"1000300001372","LANDMARKCO":"408","LANDMARKNA":"郵局-龍潭核研所郵局","LANDMARKAD":"1000309","ADDRESS":"桃園縣龍潭鄉文化路1000號(行政院核能研究所內)","TEL":"(03)4711-537","COUNTYNAME":"桃園市","TOWNNAME":"龍潭區","MARKTYPE":"994","Class":"4"}},{"type":"Feature","id":2468,"geometry":{"type":"Point","coordinates":[121.21202508109506,24.863936782885567]},"properties":{"OBJECTID":2468,"LANDMARKID":"1000300001373","LANDMARKCO":"408","LANDMARKNA":"郵局-龍潭南龍郵局","LANDMARKAD":"1000309","ADDRESS":"桃園縣龍潭鄉南龍路70號","TEL":"(03)4704-059","COUNTYNAME":"桃園市","TOWNNAME":"龍潭區","MARKTYPE":"994","Class":"4"}},{"type":"Feature","id":2469,"geometry":{"type":"Point","coordinates":[121.24503413183551,24.848812111522406]},"properties":{"OBJECTID":2469,"LANDMARKID":"1000300001374","LANDMARKCO":"408","LANDMARKNA":"郵局-龍潭龍門郵局","LANDMARKAD":"1000309","ADDRESS":"桃園縣龍潭鄉中正路佳安段481號(中山科學研究院內)","TEL":"(03)4711-538","COUNTYNAME":"桃園市","TOWNNAME":"龍潭區","MARKTYPE":"994","Class":"4"}},{"type":"Feature","id":2470,"geometry":{"type":"Point","coordinates":[121.21543177138595,24.862037802173372]},"properties":{"OBJECTID":2470,"LANDMARKID":"1000300001383","LANDMARKCO":"409","LANDMARKNA":"桃園縣龍潭鄉農會","LANDMARKAD":"1000309","ADDRESS":"桃園縣龍潭鄉龍星村東龍路100號","TEL":"03-4794137-40","COUNTYNAME":"桃園市","TOWNNAME":"龍潭區","MARKTYPE":"994","Class":"4"}},{"type":"Feature","id":2471,"geometry":{"type":"Point","coordinates":[121.24094487680881,24.836381692438653]},"properties":{"OBJECTID":2471,"LANDMARKID":"1000300000942","LANDMARKCO":"404","LANDMARKNA":"台灣省自來水龍潭營運所","LANDMARKAD":"1000309","ADDRESS":"桃園縣龍潭鄉建成路1號","TEL":" ","COUNTYNAME":"桃園市","TOWNNAME":"龍潭區","MARKTYPE":"994","Class":"4"}},{"type":"Feature","id":2472,"geometry":{"type":"Point","coordinates":[121.19792726336323,24.880264387586806]},"properties":{"OBJECTID":2472,"LANDMARKID":"1000300001270","LANDMARKCO":"406","LANDMARKNA":"八德社區公園","LANDMARKAD":"1000309","ADDRESS":"桃園縣龍潭鄉","TEL":" ","COUNTYNAME":"桃園市","TOWNNAME":"龍潭區","MARKTYPE":"994","Class":"4"}},{"type":"Feature","id":2473,"geometry":{"type":"Point","coordinates":[121.18418642583842,24.837791378914652]},"properties":{"OBJECTID":2473,"LANDMARKID":"1000300001271","LANDMARKCO":"406","LANDMARKNA":"中央公園","LANDMARKAD":"1000309","ADDRESS":"桃園縣龍潭鄉","TEL":" ","COUNTYNAME":"桃園市","TOWNNAME":"龍潭區","MARKTYPE":"994","Class":"4"}},{"type":"Feature","id":2474,"geometry":{"type":"Point","coordinates":[121.20562020809768,24.826943007219867]},"properties":{"OBJECTID":2474,"LANDMARKID":"1000300000958","LANDMARKCO":"405","LANDMARKNA":"台亞加油站-小人國站（台塑）","LANDMARKAD":"1000309","ADDRESS":"桃園縣龍潭鄉隆源路2-20號","TEL":"(03)471-0699","COUNTYNAME":"桃園市","TOWNNAME":"龍潭區","MARKTYPE":"994","Class":"4"}},{"type":"Feature","id":2475,"geometry":{"type":"Point","coordinates":[121.22014295232083,24.854875987198355]},"properties":{"OBJECTID":2475,"LANDMARKID":"1000300000959","LANDMARKCO":"405","LANDMARKNA":"台亞加油站-龍潭交流道站（台塑）","LANDMARKAD":"1000309","ADDRESS":"桃園縣龍潭鄉中正路605號","TEL":"(03)480-2586","COUNTYNAME":"桃園市","TOWNNAME":"龍潭區","MARKTYPE":"994","Class":"4"}},{"type":"Feature","id":2476,"geometry":{"type":"Point","coordinates":[121.22128470932714,24.86875038140132]},"properties":{"OBJECTID":2476,"LANDMARKID":"1000300000960","LANDMARKCO":"405","LANDMARKNA":"台塑加油站-龍門站(台塑)","LANDMARKAD":"1000309","ADDRESS":"桃園縣龍潭鄉大昌路二段13號","TEL":"03-4802548","COUNTYNAME":"桃園市","TOWNNAME":"龍潭區","MARKTYPE":"994","Class":"4"}},{"type":"Feature","id":2477,"geometry":{"type":"Point","coordinates":[121.20263482966313,24.820408973058591]},"properties":{"OBJECTID":2477,"LANDMARKID":"1000300000961","LANDMARKCO":"405","LANDMARKNA":"全國加油站-龍潭站（台塑）","LANDMARKAD":"1000309","ADDRESS":"桃園縣龍潭鄉牛欄河13-1號","TEL":"03-4716236","COUNTYNAME":"桃園市","TOWNNAME":"龍潭區","MARKTYPE":"994","Class":"4"}},{"type":"Feature","id":2478,"geometry":{"type":"Point","coordinates":[121.20750143323983,24.868124386276282]},"properties":{"OBJECTID":2478,"LANDMARKID":"1000300000131","LANDMARKCO":"107","LANDMARKNA":"桃園縣警察局-龍潭分局","LANDMARKAD":"1000309","ADDRESS":"桃園縣龍潭鄉干城路21號","TEL":"(03)489-0831","COUNTYNAME":"桃園市","TOWNNAME":"龍潭區","MARKTYPE":"991","Class":"1"}},{"type":"Feature","id":2479,"geometry":{"type":"Point","coordinates":[121.21636586717347,24.863893105747991]},"properties":{"OBJECTID":2479,"LANDMARKID":"1000300000252","LANDMARKCO":"108","LANDMARKNA":"桃園縣龍潭鄉公所","LANDMARKAD":"1000309","ADDRESS":"桃園縣龍潭鄉中正路210號","TEL":"03-4793070","COUNTYNAME":"桃園市","TOWNNAME":"龍潭區","MARKTYPE":"991","Class":"1"}},{"type":"Feature","id":2480,"geometry":{"type":"Point","coordinates":[121.21679171190434,24.863986158996433]},"properties":{"OBJECTID":2480,"LANDMARKID":"1000300000041","LANDMARKCO":"103","LANDMARKNA":"桃園縣龍潭鄉鄉民代表會","LANDMARKAD":"1000309","ADDRESS":"桃園縣龍潭鄉中正路210號","TEL":"03-4895666","COUNTYNAME":"桃園市","TOWNNAME":"龍潭區","MARKTYPE":"991","Class":"1"}},{"type":"Feature","id":2481,"geometry":{"type":"Point","coordinates":[121.21676422850882,24.864618235766695]},"properties":{"OBJECTID":2481,"LANDMARKID":"1000300000127","LANDMARKCO":"107","LANDMARKNA":"桃園縣消防局龍潭消防分隊","LANDMARKAD":"1000309","ADDRESS":"桃園縣龍潭鄉中正路204號","TEL":"03-4792442","COUNTYNAME":"桃園市","TOWNNAME":"龍潭區","MARKTYPE":"991","Class":"1"}},{"type":"Feature","id":2482,"geometry":{"type":"Point","coordinates":[121.20576641619148,24.833394936802705]},"properties":{"OBJECTID":2482,"LANDMARKID":"1000300000128","LANDMARKCO":"107","LANDMARKNA":"桃園縣政府警察局高平派出所","LANDMARKAD":"1000309","ADDRESS":"桃園縣龍潭鄉高平村中豐路高平段281號","TEL":"03-4717204","COUNTYNAME":"桃園市","TOWNNAME":"龍潭區","MARKTYPE":"991","Class":"1"}},{"type":"Feature","id":2483,"geometry":{"type":"Point","coordinates":[121.23449234196804,24.872534853241778]},"properties":{"OBJECTID":2483,"LANDMARKID":"1000300000129","LANDMARKCO":"107","LANDMARKNA":"桃園縣政府警察局中興派出所","LANDMARKAD":"1000309","ADDRESS":"桃園縣龍潭鄉中興村武漢路45號","TEL":"03-4797497","COUNTYNAME":"桃園市","TOWNNAME":"龍潭區","MARKTYPE":"991","Class":"1"}},{"type":"Feature","id":2484,"geometry":{"type":"Point","coordinates":[121.21483231790366,24.863987818260878]},"properties":{"OBJECTID":2484,"LANDMARKID":"1000300000130","LANDMARKCO":"107","LANDMARKNA":"桃園縣政府警察局龍潭分駐所","LANDMARKAD":"1000309","ADDRESS":"桃園縣龍潭鄉龍潭村東龍路198號","TEL":"03-4792002","COUNTYNAME":"桃園市","TOWNNAME":"龍潭區","MARKTYPE":"991","Class":"1"}},{"type":"Feature","id":2485,"geometry":{"type":"Point","coordinates":[121.21685171703794,24.864166555319425]},"properties":{"OBJECTID":2485,"LANDMARKID":"1000300000110","LANDMARKCO":"106","LANDMARKNA":"桃園縣龍潭鄉戶政事務所","LANDMARKAD":"1000309","ADDRESS":"桃園縣龍潭鄉中正村15鄰中正路210號2樓","TEL":"03-4792394","COUNTYNAME":"桃園市","TOWNNAME":"龍潭區","MARKTYPE":"991","Class":"1"}},{"type":"Feature","id":2486,"geometry":{"type":"Point","coordinates":[121.23685408533315,24.844723974474135]},"properties":{"OBJECTID":2486,"LANDMARKID":"1000300000033","LANDMARKCO":"101","LANDMARKNA":"台灣桃園女子監獄","LANDMARKAD":"1000309","ADDRESS":"桃園縣龍潭鄉中正路三林段617號","TEL":"03-4807959","COUNTYNAME":"桃園市","TOWNNAME":"龍潭區","MARKTYPE":"991","Class":"1"}},{"type":"Feature","id":2487,"geometry":{"type":"Point","coordinates":[121.24040015407847,24.840383378655279]},"properties":{"OBJECTID":2487,"LANDMARKID":"1000300000034","LANDMARKCO":"101","LANDMARKNA":"原子能委員會核能研究所","LANDMARKAD":"1000309","ADDRESS":"桃園縣龍潭鄉文化路1000號","TEL":"03-4711400","COUNTYNAME":"桃園市","TOWNNAME":"龍潭區","MARKTYPE":"991","Class":"1"}},{"type":"Feature","id":2488,"geometry":{"type":"Point","coordinates":[121.2148760782713,24.863807129210208]},"properties":{"OBJECTID":2488,"LANDMARKID":"1000300000040","LANDMARKCO":"103","LANDMARKNA":"桃園縣龍潭鄉衛生所","LANDMARKAD":"1000309","ADDRESS":"桃園縣龍潭鄉東龍路196號","TEL":"03-4792033#28","COUNTYNAME":"桃園市","TOWNNAME":"龍潭區","MARKTYPE":"991","Class":"1"}},{"type":"Feature","id":2489,"geometry":{"type":"Point","coordinates":[121.17559682426162,24.850767818278232]},"properties":{"OBJECTID":2489,"LANDMARKID":"1000300000125","LANDMARKCO":"107","LANDMARKNA":"桃園縣政府警察局三和派出所","LANDMARKAD":"1000309","ADDRESS":"桃園縣龍潭鄉三和村直坑24號","TEL":"03-4794384","COUNTYNAME":"桃園市","TOWNNAME":"龍潭區","MARKTYPE":"991","Class":"1"}},{"type":"Feature","id":2490,"geometry":{"type":"Point","coordinates":[121.19828440362411,24.837105638952643]},"properties":{"OBJECTID":2490,"LANDMARKID":"1000300000126","LANDMARKCO":"107","LANDMARKNA":"國公路第六警察隊龍潭分隊","LANDMARKAD":"1000309","ADDRESS":"桃園縣龍潭鄉高原村大庄8之1號","TEL":"03-4718083","COUNTYNAME":"桃園市","TOWNNAME":"龍潭區","MARKTYPE":"991","Class":"1"}},{"type":"Feature","id":2491,"geometry":{"type":"Point","coordinates":[121.2536640672931,24.85218972941195]},"properties":{"OBJECTID":2491,"LANDMARKID":"1000300000035","LANDMARKCO":"101","LANDMARKNA":"中山科學研究院","LANDMARKAD":"1000309","ADDRESS":"桃園縣龍潭鄉高平村石崎子9鄰15號","TEL":"03-4117120","COUNTYNAME":"桃園市","TOWNNAME":"龍潭區","MARKTYPE":"991","Class":"1"}},{"type":"Feature","id":2492,"geometry":{"type":"Point","coordinates":[121.21628556509803,24.863516338811703]},"properties":{"OBJECTID":2492,"LANDMARKID":"1000300000555","LANDMARKCO":"204","LANDMARKNA":"桃園縣立圖書館龍潭分館","LANDMARKAD":"1000309","ADDRESS":"桃園縣龍潭鄉中正村中正路210號","TEL":" ","COUNTYNAME":"桃園市","TOWNNAME":"龍潭區","MARKTYPE":"992","Class":"2"}},{"type":"Feature","id":2493,"geometry":{"type":"Point","coordinates":[121.23160550545377,24.878769206877962]},"properties":{"OBJECTID":2493,"LANDMARKID":"1000300000324","LANDMARKCO":"203","LANDMARKNA":"縣立武漢國中","LANDMARKAD":"1000309","ADDRESS":"桃園縣龍潭鄉成功路190巷227號","TEL":"03-4806468","COUNTYNAME":"桃園市","TOWNNAME":"龍潭區","MARKTYPE":"992","Class":"2"}},{"type":"Feature","id":2494,"geometry":{"type":"Point","coordinates":[121.21392880334504,24.861733286447254]},"properties":{"OBJECTID":2494,"LANDMARKID":"1000300000308","LANDMARKCO":"202","LANDMARKNA":"國立龍潭農工","LANDMARKAD":"1000309","ADDRESS":"桃園縣龍潭鄉中正村神龍路155號","TEL":"03-4792409","COUNTYNAME":"桃園市","TOWNNAME":"龍潭區","MARKTYPE":"992","Class":"2"}},{"type":"Feature","id":2495,"geometry":{"type":"Point","coordinates":[121.20188162746143,24.859129311529706]},"properties":{"OBJECTID":2495,"LANDMARKID":"1000300000309","LANDMARKCO":"203","LANDMARKNA":"縣立凌雲國中","LANDMARKAD":"1000309","ADDRESS":"桃園縣龍潭鄉中豐路上林段418號","TEL":"03-4792604","COUNTYNAME":"桃園市","TOWNNAME":"龍潭區","MARKTYPE":"992","Class":"2"}},{"type":"Feature","id":2496,"geometry":{"type":"Point","coordinates":[121.21614723490737,24.855226374998352]},"properties":{"OBJECTID":2496,"LANDMARKID":"1000300000310","LANDMARKCO":"203","LANDMARKNA":"縣立龍潭國中","LANDMARKAD":"1000309","ADDRESS":"桃園縣龍潭鄉中正村龍華路460號","TEL":"03-4792075","COUNTYNAME":"桃園市","TOWNNAME":"龍潭區","MARKTYPE":"992","Class":"2"}},{"type":"Feature","id":2497,"geometry":{"type":"Point","coordinates":[121.21828389475554,24.861995543900722]},"properties":{"OBJECTID":2497,"LANDMARKID":"1000300000311","LANDMARKCO":"203","LANDMARKNA":"縣立龍星國小","LANDMARKAD":"1000309","ADDRESS":"桃園縣龍潭鄉中正路269號","TEL":"03-4797299","COUNTYNAME":"桃園市","TOWNNAME":"龍潭區","MARKTYPE":"992","Class":"2"}},{"type":"Feature","id":2498,"geometry":{"type":"Point","coordinates":[121.21058533116548,24.880604496660609]},"properties":{"OBJECTID":2498,"LANDMARKID":"1000300000312","LANDMARKCO":"203","LANDMARKNA":"縣立潛龍國小","LANDMARKAD":"1000309","ADDRESS":"桃園縣龍潭鄉烏林村中豐路401號","TEL":"03-4792153","COUNTYNAME":"桃園市","TOWNNAME":"龍潭區","MARKTYPE":"992","Class":"2"}},{"type":"Feature","id":2499,"geometry":{"type":"Point","coordinates":[121.24179979236848,24.841557039948643]},"properties":{"OBJECTID":2499,"LANDMARKID":"1000300000313","LANDMARKCO":"203","LANDMARKNA":"縣立石門國小","LANDMARKAD":"1000309","ADDRESS":"桃園縣龍潭鄉佳安村文化路188號","TEL":"03-4711752","COUNTYNAME":"桃園市","TOWNNAME":"龍潭區","MARKTYPE":"992","Class":"2"}},{"type":"Feature","id":2500,"geometry":{"type":"Point","coordinates":[121.23409388862081,24.870459553370797]},"properties":{"OBJECTID":2500,"LANDMARKID":"1000300000314","LANDMARKCO":"203","LANDMARKNA":"縣立武漢國小","LANDMARKAD":"1000309","ADDRESS":"桃園縣龍潭鄉武漢路100號","TEL":"03-4792873","COUNTYNAME":"桃園市","TOWNNAME":"龍潭區","MARKTYPE":"992","Class":"2"}},{"type":"Feature","id":2501,"geometry":{"type":"Point","coordinates":[121.21318198155036,24.863266320549503]},"properties":{"OBJECTID":2501,"LANDMARKID":"1000300000315","LANDMARKCO":"203","LANDMARKNA":"縣立龍潭國小","LANDMARKAD":"1000309","ADDRESS":"桃園縣龍潭鄉龍潭村南龍路13號","TEL":"03-4792014","COUNTYNAME":"桃園市","TOWNNAME":"龍潭區","MARKTYPE":"992","Class":"2"}},{"type":"Feature","id":2502,"geometry":{"type":"Point","coordinates":[121.21571328422544,24.857033330030706]},"properties":{"OBJECTID":2502,"LANDMARKID":"1000300000316","LANDMARKCO":"203","LANDMARKNA":"縣立雙龍國小","LANDMARKAD":"1000309","ADDRESS":"桃園縣龍潭鄉神龍路346號","TEL":"03-4991888","COUNTYNAME":"桃園市","TOWNNAME":"龍潭區","MARKTYPE":"992","Class":"2"}},{"type":"Feature","id":2503,"geometry":{"type":"Point","coordinates":[121.21460908754086,24.853966814693795]},"properties":{"OBJECTID":2503,"LANDMARKID":"1000300000317","LANDMARKCO":"203","LANDMARKNA":"私立福祿貝爾國小","LANDMARKAD":"1000309","ADDRESS":"桃園縣龍潭鄉金龍路223號","TEL":"03-4899899","COUNTYNAME":"桃園市","TOWNNAME":"龍潭區","MARKTYPE":"992","Class":"2"}},{"type":"Feature","id":2504,"geometry":{"type":"Point","coordinates":[121.24849276761886,24.83630762021091]},"properties":{"OBJECTID":2504,"LANDMARKID":"1000300000318","LANDMARKCO":"203","LANDMARKNA":"縣立三坑國小","LANDMARKAD":"1000309","ADDRESS":"桃園縣龍潭鄉永昌路51巷85號","TEL":"03-4713627","COUNTYNAME":"桃園市","TOWNNAME":"龍潭區","MARKTYPE":"992","Class":"2"}},{"type":"Feature","id":2505,"geometry":{"type":"Point","coordinates":[121.23929120654684,24.87623009296394]},"properties":{"OBJECTID":2505,"LANDMARKID":"1000300000254","LANDMARKCO":"201","LANDMARKNA":"國防大學","LANDMARKAD":"1000309","ADDRESS":"桃園縣龍潭鄉中興路56號","TEL":"03-3801126","COUNTYNAME":"桃園市","TOWNNAME":"龍潭區","MARKTYPE":"992","Class":"2"}},{"type":"Feature","id":2506,"geometry":{"type":"Point","coordinates":[121.24480446614749,24.847420303904567]},"properties":{"OBJECTID":2506,"LANDMARKID":"1000300000305","LANDMARKCO":"202","LANDMARKNA":"私立泉僑高中","LANDMARKAD":"1000309","ADDRESS":"桃園縣龍潭鄉佳安段466號","TEL":"03-4712531","COUNTYNAME":"桃園市","TOWNNAME":"龍潭區","MARKTYPE":"992","Class":"2"}},{"type":"Feature","id":2507,"geometry":{"type":"Point","coordinates":[121.20088170138196,24.857597162127473]},"properties":{"OBJECTID":2507,"LANDMARKID":"1000300000306","LANDMARKCO":"202","LANDMARKNA":"私立方曙工家","LANDMARKAD":"1000309","ADDRESS":"桃園縣龍潭鄉上林村中原路50號","TEL":"03-4796345","COUNTYNAME":"桃園市","TOWNNAME":"龍潭區","MARKTYPE":"992","Class":"2"}},{"type":"Feature","id":2508,"geometry":{"type":"Point","coordinates":[121.24480411138801,24.847330019347403]},"properties":{"OBJECTID":2508,"LANDMARKID":"1000300000307","LANDMARKCO":"202","LANDMARKNA":"私立泉僑高中附設國中部","LANDMARKAD":"1000309","ADDRESS":"桃園縣龍潭鄉鍾正路佳安段466號","TEL":"03-4712531","COUNTYNAME":"桃園市","TOWNNAME":"龍潭區","MARKTYPE":"992","Class":"2"}},{"type":"Feature","id":2509,"geometry":{"type":"Point","coordinates":[121.23989764341663,24.840926706460387]},"properties":{"OBJECTID":2509,"LANDMARKID":"1000300000319","LANDMARKCO":"203","LANDMARKNA":"縣立石門國中","LANDMARKAD":"1000309","ADDRESS":"桃園縣龍潭鄉十一份文化路137號","TEL":"03-4713610","COUNTYNAME":"桃園市","TOWNNAME":"龍潭區","MARKTYPE":"992","Class":"2"}},{"type":"Feature","id":2510,"geometry":{"type":"Point","coordinates":[121.19491346754872,24.88234374600491]},"properties":{"OBJECTID":2510,"LANDMARKID":"1000300000320","LANDMARKCO":"203","LANDMARKNA":"縣立德龍國小","LANDMARKAD":"1000309","ADDRESS":"桃園縣龍潭鄉八德村25鄰49號","TEL":"03-4792524","COUNTYNAME":"桃園市","TOWNNAME":"龍潭區","MARKTYPE":"992","Class":"2"}},{"type":"Feature","id":2511,"geometry":{"type":"Point","coordinates":[121.16735993823002,24.847797778111406]},"properties":{"OBJECTID":2511,"LANDMARKID":"1000300000321","LANDMARKCO":"203","LANDMARKNA":"縣立三和國小","LANDMARKAD":"1000309","ADDRESS":"桃園縣龍潭鄉三和村直坑39號","TEL":"03-4792154","COUNTYNAME":"桃園市","TOWNNAME":"龍潭區","MARKTYPE":"992","Class":"2"}},{"type":"Feature","id":2512,"geometry":{"type":"Point","coordinates":[121.21222603118522,24.826071496208321]},"properties":{"OBJECTID":2512,"LANDMARKID":"1000300000322","LANDMARKCO":"203","LANDMARKNA":"縣立龍源國小","LANDMARKAD":"1000309","ADDRESS":"桃園縣龍潭鄉高平村深窩子16之1號","TEL":"03-4717149","COUNTYNAME":"桃園市","TOWNNAME":"龍潭區","MARKTYPE":"992","Class":"2"}},{"type":"Feature","id":2513,"geometry":{"type":"Point","coordinates":[121.19419971645755,24.830247443454184]},"properties":{"OBJECTID":2513,"LANDMARKID":"1000300000323","LANDMARKCO":"203","LANDMARKNA":"縣立高原國小","LANDMARKAD":"1000309","ADDRESS":"桃園縣龍潭鄉高原村橫岡下36號","TEL":"03-4717009","COUNTYNAME":"桃園市","TOWNNAME":"龍潭區","MARKTYPE":"992","Class":"2"}},{"type":"Feature","id":2514,"geometry":{"type":"Point","coordinates":[121.23447393288653,24.845470292080137]},"properties":{"OBJECTID":2514,"LANDMARKID":"1000300000573","LANDMARKCO":"206","LANDMARKNA":"桃園客家文化館","LANDMARKAD":"1000309","ADDRESS":"桃園縣龍潭鄉中正路三林段500號","TEL":"03-4096682","COUNTYNAME":"桃園市","TOWNNAME":"龍潭區","MARKTYPE":"992","Class":"2"}},{"type":"Feature","id":2515,"geometry":{"type":"Point","coordinates":[121.19935449042441,24.837708909592163]},"properties":{"OBJECTID":2515,"LANDMARKID":"1000300000757","LANDMARKCO":"308","LANDMARKNA":"龍潭收費站","LANDMARKAD":"1000309","ADDRESS":" ","TEL":" ","COUNTYNAME":"桃園市","TOWNNAME":"龍潭區","MARKTYPE":"993","Class":"308"}},{"type":"Feature","id":2516,"geometry":{"type":"Point","coordinates":[121.22121616491289,24.861578983838342]},"properties":{"OBJECTID":2516,"LANDMARKID":"1000300000758","LANDMARKCO":"308","LANDMARKNA":"國3-龍潭交流道-南下","LANDMARKAD":"1000309","ADDRESS":"桃園縣龍潭鄉","TEL":" ","COUNTYNAME":"桃園市","TOWNNAME":"龍潭區","MARKTYPE":"993","Class":"308"}},{"type":"Feature","id":2517,"geometry":{"type":"Point","coordinates":[121.22677436807578,24.86235662244345]},"properties":{"OBJECTID":2517,"LANDMARKID":"1000300000759","LANDMARKCO":"308","LANDMARKNA":"國3-龍潭交流道-北上","LANDMARKAD":"1000309","ADDRESS":"桃園縣龍潭鄉","TEL":" ","COUNTYNAME":"桃園市","TOWNNAME":"龍潭區","MARKTYPE":"993","Class":"308"}},{"type":"Feature","id":2518,"geometry":{"type":"Point","coordinates":[121.21601529562649,24.867221634336531]},"properties":{"OBJECTID":2518,"LANDMARKID":"1000300000586","LANDMARKCO":"302","LANDMARKNA":"桃園汽車客運中壢東站","LANDMARKAD":"1000309","ADDRESS":"桃園縣龍潭鄉中山村中正路106號","TEL":" ","COUNTYNAME":"桃園市","TOWNNAME":"龍潭區","MARKTYPE":"993","Class":"302"}},{"type":"Feature","id":2519,"geometry":{"type":"Point","coordinates":[121.21111399834435,24.86513889645979]},"properties":{"OBJECTID":2519,"LANDMARKID":"1000300000587","LANDMARKCO":"302","LANDMARKNA":"新竹汽車客運龍潭站","LANDMARKAD":"1000309","ADDRESS":"桃園縣龍潭鄉北龍路13號","TEL":" ","COUNTYNAME":"桃園市","TOWNNAME":"龍潭區","MARKTYPE":"993","Class":"302"}},{"type":"Feature","id":2520,"geometry":{"type":"Point","coordinates":[121.16397311805468,24.872636383218357]},"properties":{"OBJECTID":2520,"LANDMARKID":"1000300000666","LANDMARKCO":"303","LANDMARKNA":"龍園休閒營地停車場","LANDMARKAD":"1000309","ADDRESS":"桃園縣龍潭鄉三水村大北坑28號","TEL":"03-4898878","COUNTYNAME":"桃園市","TOWNNAME":"龍潭區","MARKTYPE":"993","Class":"303"}},{"type":"Feature","id":2521,"geometry":{"type":"Point","coordinates":[121.18791956543551,24.831901247359344]},"properties":{"OBJECTID":2521,"LANDMARKID":"1000300000667","LANDMARKCO":"303","LANDMARKNA":"小人國主題樂園停車場","LANDMARKAD":"1000309","ADDRESS":"桃園縣龍潭鄉高原村橫岡下60之2號","TEL":"03-4717211","COUNTYNAME":"桃園市","TOWNNAME":"龍潭區","MARKTYPE":"993","Class":"303"}},{"type":"Feature","id":2522,"geometry":{"type":"Point","coordinates":[121.19887528637152,24.852999103009115]},"properties":{"OBJECTID":2522,"LANDMARKID":"1000300000668","LANDMARKCO":"303","LANDMARKNA":"龍潭TIS賽車場停車場","LANDMARKAD":"1000309","ADDRESS":"桃園縣龍潭鄉楊銅路一段218號","TEL":"03-4717688","COUNTYNAME":"桃園市","TOWNNAME":"龍潭區","MARKTYPE":"993","Class":"303"}},{"type":"Feature","id":2523,"geometry":{"type":"Point","coordinates":[121.21194404345344,24.877634484293942]},"properties":{"OBJECTID":2523,"LANDMARKID":"1000300000669","LANDMARKCO":"303","LANDMARKNA":"水利署北區水資源局停車場","LANDMARKAD":"1000309","ADDRESS":"桃園縣龍潭鄉復興里10鄰10號","TEL":" ","COUNTYNAME":"桃園市","TOWNNAME":"龍潭區","MARKTYPE":"993","Class":"303"}},{"type":"Feature","id":2524,"geometry":{"type":"Point","coordinates":[121.21125966948262,24.865459866938636]},"properties":{"OBJECTID":2524,"LANDMARKID":"1000300000670","LANDMARKCO":"303","LANDMARKNA":"台灣聯通停車場-龍潭場","LANDMARKAD":"1000309","ADDRESS":"桃園縣龍潭鄉北龍路19號旁","TEL":" ","COUNTYNAME":"桃園市","TOWNNAME":"龍潭區","MARKTYPE":"993","Class":"303"}},{"type":"Feature","id":2525,"geometry":{"type":"Point","coordinates":[121.21617548133678,24.864740785186036]},"properties":{"OBJECTID":2525,"LANDMARKID":"1000300000918","LANDMARKCO":"402","LANDMARKNA":"中華電信-龍潭服務中心","LANDMARKAD":"1000309","ADDRESS":"桃園縣龍潭鄉中正路194巷25號","TEL":"123或0800-080-123","COUNTYNAME":"桃園市","TOWNNAME":"龍潭區","MARKTYPE":"994","Class":"4"}},{"type":"Feature","id":2526,"geometry":{"type":"Point","coordinates":[121.21940932811556,24.865775073273753]},"properties":{"OBJECTID":2526,"LANDMARKID":"1000300000919","LANDMARKCO":"402","LANDMARKNA":"中華電信-龍潭北龍特約服務中心","LANDMARKAD":"1000309","ADDRESS":"桃園縣龍潭鄉北龍路106號","TEL":"03-4805151","COUNTYNAME":"桃園市","TOWNNAME":"龍潭區","MARKTYPE":"994","Class":"4"}},{"type":"Feature","id":2527,"geometry":{"type":"Point","coordinates":[121.24422735848626,24.831757916552579]},"properties":{"OBJECTID":2527,"LANDMARKID":"1000300000920","LANDMARKCO":"402","LANDMARKNA":"中華電信-石門服務中心","LANDMARKAD":"1000309","ADDRESS":"桃園縣龍潭鄉中正路三坑段741號","TEL":"123或0800-080-123","COUNTYNAME":"桃園市","TOWNNAME":"龍潭區","MARKTYPE":"994","Class":"4"}},{"type":"Feature","id":2528,"geometry":{"type":"Point","coordinates":[121.21474769875724,24.866608845309269]},"properties":{"OBJECTID":2528,"LANDMARKID":"1000300000921","LANDMARKCO":"402","LANDMARKNA":"威寶電信-龍潭北龍特約服務中心","LANDMARKAD":"1000309","ADDRESS":"桃園縣龍潭鄉北龍路157號","TEL":"03-4990556","COUNTYNAME":"桃園市","TOWNNAME":"龍潭區","MARKTYPE":"994","Class":"4"}},{"type":"Feature","id":2529,"geometry":{"type":"Point","coordinates":[121.21543909756038,24.867876849734944]},"properties":{"OBJECTID":2529,"LANDMARKID":"1000300000922","LANDMARKCO":"402","LANDMARKNA":"大眾電信(震旦通訊)-龍潭中正店","LANDMARKAD":"1000309","ADDRESS":"桃園縣龍潭鄉中正路102號","TEL":"03-4802377","COUNTYNAME":"桃園市","TOWNNAME":"龍潭區","MARKTYPE":"994","Class":"4"}},{"type":"Feature","id":2530,"geometry":{"type":"Point","coordinates":[121.21373652881152,24.865941343308638]},"properties":{"OBJECTID":2530,"LANDMARKID":"1000300000923","LANDMARKCO":"402","LANDMARKNA":"大眾電信-龍潭專賣店","LANDMARKAD":"1000309","ADDRESS":"桃園縣龍潭鄉北龍路114號","TEL":"03-4808663","COUNTYNAME":"桃園市","TOWNNAME":"龍潭區","MARKTYPE":"994","Class":"4"}},{"type":"Feature","id":2531,"geometry":{"type":"Point","coordinates":[121.23892792454633,24.875481014611566]},"properties":{"OBJECTID":2531,"LANDMARKID":"1000300001631","LANDMARKCO":"603","LANDMARKNA":"龍都旅社","LANDMARKAD":"1000309","ADDRESS":"桃園縣龍潭鄉中興路63巷6號","TEL":"03-4791926","COUNTYNAME":"桃園市","TOWNNAME":"龍潭區","MARKTYPE":"996","Class":"6"}},{"type":"Feature","id":2532,"geometry":{"type":"Point","coordinates":[121.21696083460971,24.863881650437115]},"properties":{"OBJECTID":2532,"LANDMARKID":"1000300001632","LANDMARKCO":"603","LANDMARKNA":"楓林大飯店","LANDMARKAD":"1000309","ADDRESS":"桃園縣龍潭鄉中正路206號","TEL":"03-4792364","COUNTYNAME":"桃園市","TOWNNAME":"龍潭區","MARKTYPE":"996","Class":"6"}},{"type":"Feature","id":2533,"geometry":{"type":"Point","coordinates":[121.21350600812701,24.866671672707771]},"properties":{"OBJECTID":2533,"LANDMARKID":"1000300001633","LANDMARKCO":"603","LANDMARKNA":"雅仕旅社","LANDMARKAD":"1000309","ADDRESS":"桃園縣龍潭鄉東龍路319號","TEL":"03-4798811","COUNTYNAME":"桃園市","TOWNNAME":"龍潭區","MARKTYPE":"996","Class":"6"}},{"type":"Feature","id":2534,"geometry":{"type":"Point","coordinates":[121.21907621015924,24.858452563033381]},"properties":{"OBJECTID":2534,"LANDMARKID":"1000300001634","LANDMARKCO":"603","LANDMARKNA":"溫馨旅館","LANDMARKAD":"1000309","ADDRESS":"桃園縣龍潭鄉中正路457號2樓","TEL":"03-4991688","COUNTYNAME":"桃園市","TOWNNAME":"龍潭區","MARKTYPE":"996","Class":"6"}},{"type":"Feature","id":2535,"geometry":{"type":"Point","coordinates":[121.21920108604877,24.85673938037457]},"properties":{"OBJECTID":2535,"LANDMARKID":"1000300001635","LANDMARKCO":"603","LANDMARKNA":"凱虹汽車旅館","LANDMARKAD":"1000309","ADDRESS":"桃園縣龍潭鄉中正路506號2樓","TEL":"03-4995757","COUNTYNAME":"桃園市","TOWNNAME":"龍潭區","MARKTYPE":"996","Class":"6"}},{"type":"Feature","id":2536,"geometry":{"type":"Point","coordinates":[121.21366181881552,24.857778450966304]},"properties":{"OBJECTID":2536,"LANDMARKID":"1000300001636","LANDMARKCO":"603","LANDMARKNA":"萊茵旅館","LANDMARKAD":"1000309","ADDRESS":"桃園縣龍潭鄉金龍路79巷21","TEL":"21-1號1-3樓","COUNTYNAME":"桃園市","TOWNNAME":"龍潭區","MARKTYPE":"996","Class":"6"}},{"type":"Feature","id":2537,"geometry":{"type":"Point","coordinates":[121.21168343906176,24.865321267109373]},"properties":{"OBJECTID":2537,"LANDMARKID":"1000300001637","LANDMARKCO":"603","LANDMARKNA":"龍安旅社","LANDMARKAD":"1000309","ADDRESS":"桃園縣龍潭鄉北龍路30號2-3樓","TEL":"03-4792109","COUNTYNAME":"桃園市","TOWNNAME":"龍潭區","MARKTYPE":"996","Class":"6"}},{"type":"Feature","id":2538,"geometry":{"type":"Point","coordinates":[121.21164856086898,24.864218317455236]},"properties":{"OBJECTID":2538,"LANDMARKID":"1000300001638","LANDMARKCO":"603","LANDMARKNA":"龍潭旅社","LANDMARKAD":"1000309","ADDRESS":"桃園縣龍潭鄉龍潭村西龍路31號","TEL":"03-4792158","COUNTYNAME":"桃園市","TOWNNAME":"龍潭區","MARKTYPE":"996","Class":"6"}},{"type":"Feature","id":2539,"geometry":{"type":"Point","coordinates":[121.21219226601252,24.864630545110469]},"properties":{"OBJECTID":2539,"LANDMARKID":"1000300001639","LANDMARKCO":"603","LANDMARKNA":"源泉旅社","LANDMARKAD":"1000309","ADDRESS":"桃園縣龍潭鄉龍元路59號2樓","TEL":"03-4792045","COUNTYNAME":"桃園市","TOWNNAME":"龍潭區","MARKTYPE":"996","Class":"6"}},{"type":"Feature","id":2540,"geometry":{"type":"Point","coordinates":[121.24095486829178,24.824286227837071]},"properties":{"OBJECTID":2540,"LANDMARKID":"1000300001445","LANDMARKCO":"508","LANDMARKNA":"石門山溫泉會館","LANDMARKAD":"1000309","ADDRESS":"桃園縣龍潭鄉民有一街313號","TEL":"03-4115931","COUNTYNAME":"桃園市","TOWNNAME":"龍潭區","MARKTYPE":"995","Class":"5"}},{"type":"Feature","id":2541,"geometry":{"type":"Point","coordinates":[121.1885379740302,24.832028916189838]},"properties":{"OBJECTID":2541,"LANDMARKID":"1000300001428","LANDMARKCO":"505","LANDMARKNA":"小人國主題樂園","LANDMARKAD":"1000309","ADDRESS":"桃園縣龍潭鄉高原村橫岡下60之2號","TEL":" ","COUNTYNAME":"桃園市","TOWNNAME":"龍潭區","MARKTYPE":"995","Class":"5"}},{"type":"Feature","id":2542,"geometry":{"type":"Point","coordinates":[121.1707463862091,24.83917063182167]},"properties":{"OBJECTID":2542,"LANDMARKID":"1000300001451","LANDMARKCO":"510","LANDMARKNA":"藍鷹高爾夫球場","LANDMARKAD":"1000309","ADDRESS":"桃園縣龍潭鄉三水村南坑14鄰14號","TEL":"03-4718306","COUNTYNAME":"桃園市","TOWNNAME":"龍潭區","MARKTYPE":"995","Class":"5"}},{"type":"Feature","id":2543,"geometry":{"type":"Point","coordinates":[121.22317075540609,24.842645699920187]},"properties":{"OBJECTID":2543,"LANDMARKID":"1000300001452","LANDMARKCO":"510","LANDMARKNA":"龍潭高爾夫球場","LANDMARKAD":"1000309","ADDRESS":"桃園縣龍潭鄉民生路457號","TEL":"03-4995506","COUNTYNAME":"桃園市","TOWNNAME":"龍潭區","MARKTYPE":"995","Class":"5"}},{"type":"Feature","id":2544,"geometry":{"type":"Point","coordinates":[121.2481998715038,24.869594830154877]},"properties":{"OBJECTID":2544,"LANDMARKID":"1000300001453","LANDMARKCO":"510","LANDMARKNA":"桃園高爾夫球場","LANDMARKAD":"1000309","ADDRESS":"桃園縣龍潭鄉九龍村23鄰39號","TEL":"03-4803388","COUNTYNAME":"桃園市","TOWNNAME":"龍潭區","MARKTYPE":"995","Class":"5"}},{"type":"Feature","id":2545,"geometry":{"type":"Point","coordinates":[121.35400624812509,24.823229226285449]},"properties":{"OBJECTID":2545,"LANDMARKID":"1000300000962","LANDMARKCO":"405","LANDMARKNA":"中油加油站-復興站(中油直營)","LANDMARKAD":"1000313","ADDRESS":"桃園縣復興鄉澤仁村中正路267號","TEL":"03-3822939","COUNTYNAME":"桃園市","TOWNNAME":"復興區","MARKTYPE":"994","Class":"4"}},{"type":"Feature","id":2546,"geometry":{"type":"Point","coordinates":[121.37829830573305,24.794123542074797]},"properties":{"OBJECTID":2546,"LANDMARKID":"1000300001402","LANDMARKCO":"503","LANDMARKNA":"小烏來風景特定區","LANDMARKAD":"1000313","ADDRESS":"桃園縣復興鄉","TEL":" ","COUNTYNAME":"桃園市","TOWNNAME":"復興區","MARKTYPE":"995","Class":"5"}},{"type":"Feature","id":2547,"geometry":{"type":"Point","coordinates":[121.43739034808168,24.708743137271227]},"properties":{"OBJECTID":2547,"LANDMARKID":"1000300001403","LANDMARKCO":"503","LANDMARKNA":"拉拉山自然保護區","LANDMARKAD":"1000313","ADDRESS":"桃園縣復興鄉","TEL":" ","COUNTYNAME":"桃園市","TOWNNAME":"復興區","MARKTYPE":"995","Class":"5"}},{"type":"Feature","id":2548,"geometry":{"type":"Point","coordinates":[121.33115954641193,24.832435617889931]},"properties":{"OBJECTID":2548,"LANDMARKID":"1000300001432","LANDMARKCO":"506","LANDMARKNA":"綜合觀光農園","LANDMARKAD":"1000313","ADDRESS":"桃園縣復興鄉三民村13鄰5號","TEL":"03-3825951","COUNTYNAME":"桃園市","TOWNNAME":"復興區","MARKTYPE":"995","Class":"5"}},{"type":"Feature","id":2549,"geometry":{"type":"Point","coordinates":[121.351272089284,24.815694095435749]},"properties":{"OBJECTID":2549,"LANDMARKID":"1000300001375","LANDMARKCO":"408","LANDMARKNA":"郵局-復興郵局","LANDMARKAD":"1000313","ADDRESS":"桃園縣復興鄉中正路62號","TEL":"(03)3822-307","COUNTYNAME":"桃園市","TOWNNAME":"復興區","MARKTYPE":"994","Class":"4"}},{"type":"Feature","id":2550,"geometry":{"type":"Point","coordinates":[121.35059627016054,24.818565302972655]},"properties":{"OBJECTID":2550,"LANDMARKID":"1000300001382","LANDMARKCO":"409","LANDMARKNA":"桃園縣復興鄉農會","LANDMARKAD":"1000313","ADDRESS":"桃園縣復興鄉中正路澤仁村256號","TEL":"03-3822218","COUNTYNAME":"桃園市","TOWNNAME":"復興區","MARKTYPE":"994","Class":"4"}},{"type":"Feature","id":2551,"geometry":{"type":"Point","coordinates":[121.35080701228006,24.814248186251245]},"properties":{"OBJECTID":2551,"LANDMARKID":"1000300001268","LANDMARKCO":"406","LANDMARKNA":"角板山公園","LANDMARKAD":"1000313","ADDRESS":"桃園縣復興鄉澤仁村","TEL":"03-3946061","COUNTYNAME":"桃園市","TOWNNAME":"復興區","MARKTYPE":"994","Class":"4"}},{"type":"Feature","id":2552,"geometry":{"type":"Point","coordinates":[121.35092247116509,24.81860891568035]},"properties":{"OBJECTID":2552,"LANDMARKID":"1000300001269","LANDMARKCO":"406","LANDMARKNA":"角板山雕塑公園","LANDMARKAD":"1000313","ADDRESS":"桃園縣復興鄉澤仁村","TEL":"03-3946061","COUNTYNAME":"桃園市","TOWNNAME":"復興區","MARKTYPE":"994","Class":"4"}},{"type":"Feature","id":2553,"geometry":{"type":"Point","coordinates":[121.3504674445492,24.820936491992498]},"properties":{"OBJECTID":2553,"LANDMARKID":"1000300000253","LANDMARKCO":"108","LANDMARKNA":"桃園縣復興鄉公所","LANDMARKAD":"1000313","ADDRESS":"桃園縣復興鄉中正路20號","TEL":"03-3821500","COUNTYNAME":"桃園市","TOWNNAME":"復興區","MARKTYPE":"991","Class":"1"}},{"type":"Feature","id":2554,"geometry":{"type":"Point","coordinates":[121.3509170942492,24.818586978227266]},"properties":{"OBJECTID":2554,"LANDMARKID":"1000300000042","LANDMARKCO":"103","LANDMARKNA":"桃園縣復興鄉鄉民代表會","LANDMARKAD":"1000313","ADDRESS":"桃園縣復興鄉中正路20號5樓","TEL":"03-3822324","COUNTYNAME":"桃園市","TOWNNAME":"復興區","MARKTYPE":"991","Class":"1"}},{"type":"Feature","id":2555,"geometry":{"type":"Point","coordinates":[121.35113005269217,24.814613433595699]},"properties":{"OBJECTID":2555,"LANDMARKID":"1000300000132","LANDMARKCO":"107","LANDMARKNA":"桃園縣政府警察局復興分駐所","LANDMARKAD":"1000313","ADDRESS":"桃園縣復興鄉澤仁村中正路2號","TEL":"03-3822604","COUNTYNAME":"桃園市","TOWNNAME":"復興區","MARKTYPE":"991","Class":"1"}},{"type":"Feature","id":2556,"geometry":{"type":"Point","coordinates":[121.3509808317056,24.820753512898619]},"properties":{"OBJECTID":2556,"LANDMARKID":"1000300000111","LANDMARKCO":"106","LANDMARKNA":"桃園縣復興鄉戶政事務所","LANDMARKAD":"1000313","ADDRESS":"桃園縣復興鄉澤仁村14鄰中正路180號","TEL":"03-3822337","COUNTYNAME":"桃園市","TOWNNAME":"復興區","MARKTYPE":"991","Class":"1"}},{"type":"Feature","id":2557,"geometry":{"type":"Point","coordinates":[121.36253583437558,24.796438151108184]},"properties":{"OBJECTID":2557,"LANDMARKID":"1000300000036","LANDMARKCO":"101","LANDMARKNA":"水利署北區水資源局","LANDMARKAD":"1000313","ADDRESS":"桃園縣龍潭鄉佳安路2號","TEL":"03-4712001","COUNTYNAME":"桃園市","TOWNNAME":"復興區","MARKTYPE":"991","Class":"1"}},{"type":"Feature","id":2558,"geometry":{"type":"Point","coordinates":[121.35104407867284,24.815155550114813]},"properties":{"OBJECTID":2558,"LANDMARKID":"1000300000039","LANDMARKCO":"103","LANDMARKNA":"桃園縣復興鄉衛生所","LANDMARKAD":"1000313","ADDRESS":"桃園縣復興鄉澤仁村中正路25號","TEL":"03-3822325","COUNTYNAME":"桃園市","TOWNNAME":"復興區","MARKTYPE":"991","Class":"1"}},{"type":"Feature","id":2559,"geometry":{"type":"Point","coordinates":[121.33410267754049,24.830182392778699]},"properties":{"OBJECTID":2559,"LANDMARKID":"1000300000113","LANDMARKCO":"107","LANDMARKNA":"桃園縣消防局復興消防分隊","LANDMARKAD":"1000313","ADDRESS":"桃園縣復興鄉中山路2號","TEL":"03-3822491","COUNTYNAME":"桃園市","TOWNNAME":"復興區","MARKTYPE":"991","Class":"1"}},{"type":"Feature","id":2560,"geometry":{"type":"Point","coordinates":[121.38801314095285,24.679001466058391]},"properties":{"OBJECTID":2560,"LANDMARKID":"1000300000114","LANDMARKCO":"107","LANDMARKNA":"桃園縣消防局巴陵消防分隊","LANDMARKAD":"1000313","ADDRESS":"桃園縣復興鄉華陵村10鄰112號","TEL":"03-3913286","COUNTYNAME":"桃園市","TOWNNAME":"復興區","MARKTYPE":"991","Class":"1"}},{"type":"Feature","id":2561,"geometry":{"type":"Point","coordinates":[121.34843259831214,24.782568349362737]},"properties":{"OBJECTID":2561,"LANDMARKID":"1000300000115","LANDMARKCO":"107","LANDMARKNA":"桃園縣政府警察局羅浮派出所","LANDMARKAD":"1000313","ADDRESS":"桃園縣復興鄉羅浮村3鄰3號","TEL":"03-3822606","COUNTYNAME":"桃園市","TOWNNAME":"復興區","MARKTYPE":"991","Class":"1"}},{"type":"Feature","id":2562,"geometry":{"type":"Point","coordinates":[121.36103641583229,24.709583948097944]},"properties":{"OBJECTID":2562,"LANDMARKID":"1000300000116","LANDMARKCO":"107","LANDMARKNA":"桃園縣政府警察局榮華派出所","LANDMARKAD":"1000313","ADDRESS":"桃園縣復興鄉高義村11鄰榮華2號","TEL":"03-3821016","COUNTYNAME":"桃園市","TOWNNAME":"復興區","MARKTYPE":"991","Class":"1"}},{"type":"Feature","id":2563,"geometry":{"type":"Point","coordinates":[121.39587030801695,24.683586701872176]},"properties":{"OBJECTID":2563,"LANDMARKID":"1000300000117","LANDMARKCO":"107","LANDMARKNA":"桃園縣政府警察局巴陵派出所","LANDMARKAD":"1000313","ADDRESS":"桃園縣復興鄉華陵村10鄰111號","TEL":"03-3912180","COUNTYNAME":"桃園市","TOWNNAME":"復興區","MARKTYPE":"991","Class":"1"}},{"type":"Feature","id":2564,"geometry":{"type":"Point","coordinates":[121.331374815461,24.795428594506483]},"properties":{"OBJECTID":2564,"LANDMARKID":"1000300000118","LANDMARKCO":"107","LANDMARKNA":"桃園縣政府警察局奎輝派出所","LANDMARKAD":"1000313","ADDRESS":"桃園縣復興鄉奎輝村4鄰37號","TEL":"03-3822960","COUNTYNAME":"桃園市","TOWNNAME":"復興區","MARKTYPE":"991","Class":"1"}},{"type":"Feature","id":2565,"geometry":{"type":"Point","coordinates":[121.39877930626514,24.656312151821993]},"properties":{"OBJECTID":2565,"LANDMARKID":"1000300000119","LANDMARKCO":"107","LANDMARKNA":"桃園縣政府警察局光華派出所","LANDMARKAD":"1000313","ADDRESS":"桃園縣復興鄉華陵村4鄰12號","TEL":"03-3912253","COUNTYNAME":"桃園市","TOWNNAME":"復興區","MARKTYPE":"991","Class":"1"}},{"type":"Feature","id":2566,"geometry":{"type":"Point","coordinates":[121.38074799116355,24.816439127102221]},"properties":{"OBJECTID":2566,"LANDMARKID":"1000300000120","LANDMARKCO":"107","LANDMARKNA":"桃園縣政府警察局霞雲派出所","LANDMARKAD":"1000313","ADDRESS":"桃園縣復興鄉霞雲村6鄰2號","TEL":"03-3822607","COUNTYNAME":"桃園市","TOWNNAME":"復興區","MARKTYPE":"991","Class":"1"}},{"type":"Feature","id":2567,"geometry":{"type":"Point","coordinates":[121.25724744999788,24.801170989915896]},"properties":{"OBJECTID":2567,"LANDMARKID":"1000300000121","LANDMARKCO":"107","LANDMARKNA":"桃園縣政府警察局長興派出所","LANDMARKAD":"1000313","ADDRESS":"桃園縣復興鄉長興村16鄰29號","TEL":"03-3822961","COUNTYNAME":"桃園市","TOWNNAME":"復興區","MARKTYPE":"991","Class":"1"}},{"type":"Feature","id":2568,"geometry":{"type":"Point","coordinates":[121.37648751460976,24.801820511911878]},"properties":{"OBJECTID":2568,"LANDMARKID":"1000300000122","LANDMARKCO":"107","LANDMARKNA":"桃園縣政府警察局溪內派出所","LANDMARKAD":"1000313","ADDRESS":"桃園縣復興鄉羅浮村2鄰合流51之2號","TEL":"03-3822958","COUNTYNAME":"桃園市","TOWNNAME":"復興區","MARKTYPE":"991","Class":"1"}},{"type":"Feature","id":2569,"geometry":{"type":"Point","coordinates":[121.33125659122017,24.832175154032729]},"properties":{"OBJECTID":2569,"LANDMARKID":"1000300000123","LANDMARKCO":"107","LANDMARKNA":"桃園縣政府警察局三民派出所","LANDMARKAD":"1000313","ADDRESS":"桃園縣復興鄉三民村12鄰水流東33號","TEL":"03-3825605","COUNTYNAME":"桃園市","TOWNNAME":"復興區","MARKTYPE":"991","Class":"1"}},{"type":"Feature","id":2570,"geometry":{"type":"Point","coordinates":[121.35019774909452,24.767669475420675]},"properties":{"OBJECTID":2570,"LANDMARKID":"1000300000037","LANDMARKCO":"101","LANDMARKNA":"石門水庫管理局","LANDMARKAD":"1000313","ADDRESS":"桃園縣復興鄉佳安西路巷3號","TEL":"03-4713639","COUNTYNAME":"桃園市","TOWNNAME":"復興區","MARKTYPE":"991","Class":"1"}},{"type":"Feature","id":2571,"geometry":{"type":"Point","coordinates":[121.35122804562216,24.817592377430387]},"properties":{"OBJECTID":2571,"LANDMARKID":"1000300000038","LANDMARKCO":"101","LANDMARKNA":"水利署北區水資源局石門水庫管裡處","LANDMARKAD":"1000313","ADDRESS":"桃園縣大溪鎮復興里10鄰10號","TEL":"03-4712000","COUNTYNAME":"桃園市","TOWNNAME":"復興區","MARKTYPE":"991","Class":"1"}},{"type":"Feature","id":2572,"geometry":{"type":"Point","coordinates":[121.36922816143127,24.674442847496341]},"properties":{"OBJECTID":2572,"LANDMARKID":"1000300000112","LANDMARKCO":"107","LANDMARKNA":"桃園縣政府警察局三光派出所","LANDMARKAD":"1000313","ADDRESS":"桃園縣復復興鄉三光村7鄰33號","TEL":"03-3912258","COUNTYNAME":"桃園市","TOWNNAME":"復興區","MARKTYPE":"991","Class":"1"}},{"type":"Feature","id":2573,"geometry":{"type":"Point","coordinates":[121.35089986263237,24.817965245357918]},"properties":{"OBJECTID":2573,"LANDMARKID":"1000300000557","LANDMARKCO":"204","LANDMARKNA":"桃園縣立圖書館中正分館","LANDMARKAD":"1000313","ADDRESS":"桃園縣復興鄉澤仁村中正路178號","TEL":" ","COUNTYNAME":"桃園市","TOWNNAME":"復興區","MARKTYPE":"992","Class":"2"}},{"type":"Feature","id":2574,"geometry":{"type":"Point","coordinates":[121.35247406711436,24.82065620305719]},"properties":{"OBJECTID":2574,"LANDMARKID":"1000300000325","LANDMARKCO":"203","LANDMARKNA":"縣立介壽國中","LANDMARKAD":"1000313","ADDRESS":"桃園縣復興鄉澤仁村中正路248號","TEL":"03-3822315","COUNTYNAME":"桃園市","TOWNNAME":"復興區","MARKTYPE":"992","Class":"2"}},{"type":"Feature","id":2575,"geometry":{"type":"Point","coordinates":[121.35098879581302,24.815878094015151]},"properties":{"OBJECTID":2575,"LANDMARKID":"1000300000326","LANDMARKCO":"203","LANDMARKNA":"縣立介壽國小","LANDMARKAD":"1000313","ADDRESS":"桃園縣復興鄉澤仁村中正路33號","TEL":"03-3822364","COUNTYNAME":"桃園市","TOWNNAME":"復興區","MARKTYPE":"992","Class":"2"}},{"type":"Feature","id":2576,"geometry":{"type":"Point","coordinates":[121.36062006708745,24.712475108244362]},"properties":{"OBJECTID":2576,"LANDMARKID":"1000300000327","LANDMARKCO":"203","LANDMARKNA":"縣立高義國小","LANDMARKAD":"1000313","ADDRESS":"桃園縣復興鄉高義村28號","TEL":"03-3912313","COUNTYNAME":"桃園市","TOWNNAME":"復興區","MARKTYPE":"992","Class":"2"}},{"type":"Feature","id":2577,"geometry":{"type":"Point","coordinates":[121.36743549916545,24.673729341852077]},"properties":{"OBJECTID":2577,"LANDMARKID":"1000300000328","LANDMARKCO":"203","LANDMARKNA":"縣立三光國小","LANDMARKAD":"1000313","ADDRESS":"桃園縣復興鄉三光村6鄰7號","TEL":"03-3912230","COUNTYNAME":"桃園市","TOWNNAME":"復興區","MARKTYPE":"992","Class":"2"}},{"type":"Feature","id":2578,"geometry":{"type":"Point","coordinates":[121.38259891550648,24.816610251409294]},"properties":{"OBJECTID":2578,"LANDMARKID":"1000300000329","LANDMARKCO":"203","LANDMARKNA":"縣立霞雲國小","LANDMARKAD":"1000313","ADDRESS":"桃園縣復興鄉霞雲村6鄰14號","TEL":"03-3822224","COUNTYNAME":"桃園市","TOWNNAME":"復興區","MARKTYPE":"992","Class":"2"}},{"type":"Feature","id":2579,"geometry":{"type":"Point","coordinates":[121.39692516231521,24.684754863599295]},"properties":{"OBJECTID":2579,"LANDMARKID":"1000300000330","LANDMARKCO":"203","LANDMARKNA":"縣立巴崚國小","LANDMARKAD":"1000313","ADDRESS":"桃園縣復興鄉華陵村9鄰75號","TEL":"03-3912131","COUNTYNAME":"桃園市","TOWNNAME":"復興區","MARKTYPE":"992","Class":"2"}},{"type":"Feature","id":2580,"geometry":{"type":"Point","coordinates":[121.33097256437091,24.832718125243471]},"properties":{"OBJECTID":2580,"LANDMARKID":"1000300000331","LANDMARKCO":"203","LANDMARKNA":"縣立三民國小","LANDMARKAD":"1000313","ADDRESS":"桃園縣復興鄉三民村11鄰57號","TEL":"03-3825294","COUNTYNAME":"桃園市","TOWNNAME":"復興區","MARKTYPE":"992","Class":"2"}},{"type":"Feature","id":2581,"geometry":{"type":"Point","coordinates":[121.39969944421287,24.655133550920112]},"properties":{"OBJECTID":2581,"LANDMARKID":"1000300000332","LANDMARKCO":"203","LANDMARKNA":"縣立光華國小","LANDMARKAD":"1000313","ADDRESS":"桃園縣復興鄉華陵村12號","TEL":"03-3912325","COUNTYNAME":"桃園市","TOWNNAME":"復興區","MARKTYPE":"992","Class":"2"}},{"type":"Feature","id":2582,"geometry":{"type":"Point","coordinates":[121.30745492224544,24.79990156032823]},"properties":{"OBJECTID":2582,"LANDMARKID":"1000300000333","LANDMARKCO":"203","LANDMARKNA":"縣立長興國小","LANDMARKAD":"1000313","ADDRESS":"桃園縣復興鄉長興村16鄰43號","TEL":"03-3822178","COUNTYNAME":"桃園市","TOWNNAME":"復興區","MARKTYPE":"992","Class":"2"}},{"type":"Feature","id":2583,"geometry":{"type":"Point","coordinates":[121.34787047209045,24.804600559231936]},"properties":{"OBJECTID":2583,"LANDMARKID":"1000300000334","LANDMARKCO":"203","LANDMARKNA":"縣立奎輝國小","LANDMARKAD":"1000313","ADDRESS":"桃園縣復興鄉奎輝村三鄰25號","TEL":"03-3822177","COUNTYNAME":"桃園市","TOWNNAME":"復興區","MARKTYPE":"992","Class":"2"}},{"type":"Feature","id":2584,"geometry":{"type":"Point","coordinates":[121.35416585415902,24.809910831919762]},"properties":{"OBJECTID":2584,"LANDMARKID":"1000300000335","LANDMARKCO":"203","LANDMARKNA":"縣立義盛國小","LANDMARKAD":"1000313","ADDRESS":"桃園縣復興鄉義盛村一鄰11號","TEL":"03-3822787","COUNTYNAME":"桃園市","TOWNNAME":"復興區","MARKTYPE":"992","Class":"2"}},{"type":"Feature","id":2585,"geometry":{"type":"Point","coordinates":[121.31411589173761,24.798276575803037]},"properties":{"OBJECTID":2585,"LANDMARKID":"1000300000671","LANDMARKCO":"303","LANDMARKNA":"美腿山遊憩區停車場","LANDMARKAD":"1000313","ADDRESS":"桃園縣復興鄉長興村","TEL":" ","COUNTYNAME":"桃園市","TOWNNAME":"復興區","MARKTYPE":"993","Class":"303"}},{"type":"Feature","id":2586,"geometry":{"type":"Point","coordinates":[121.38365092407979,24.679997001361563]},"properties":{"OBJECTID":2586,"LANDMARKID":"1000300000672","LANDMARKCO":"303","LANDMARKNA":"達觀山風景區停車場","LANDMARKAD":"1000313","ADDRESS":"桃園縣復興鄉","TEL":" ","COUNTYNAME":"桃園市","TOWNNAME":"復興區","MARKTYPE":"993","Class":"303"}},{"type":"Feature","id":2587,"geometry":{"type":"Point","coordinates":[121.40939634379723,24.83204763889233]},"properties":{"OBJECTID":2587,"LANDMARKID":"1000300000673","LANDMARKCO":"303","LANDMARKNA":"東眼山森林遊樂區大型停車場","LANDMARKAD":"1000313","ADDRESS":"桃園縣復興鄉霞雲村30號","TEL":"03-3821506","COUNTYNAME":"桃園市","TOWNNAME":"復興區","MARKTYPE":"993","Class":"303"}},{"type":"Feature","id":2588,"geometry":{"type":"Point","coordinates":[121.40920051329303,24.83324941556825]},"properties":{"OBJECTID":2588,"LANDMARKID":"1000300000674","LANDMARKCO":"303","LANDMARKNA":"東眼山森林遊樂區小型停車場","LANDMARKAD":"1000313","ADDRESS":"桃園縣復興鄉霞雲村30號","TEL":"03-3821506","COUNTYNAME":"桃園市","TOWNNAME":"復興區","MARKTYPE":"993","Class":"303"}},{"type":"Feature","id":2589,"geometry":{"type":"Point","coordinates":[121.34995608979109,24.814538251782373]},"properties":{"OBJECTID":2589,"LANDMARKID":"1000300000675","LANDMARKCO":"303","LANDMARKNA":"桃園縣復興鄉停車場","LANDMARKAD":"1000313","ADDRESS":"桃園縣復興鄉中山路8之1號","TEL":" ","COUNTYNAME":"桃園市","TOWNNAME":"復興區","MARKTYPE":"993","Class":"303"}},{"type":"Feature","id":2590,"geometry":{"type":"Point","coordinates":[121.42408760527358,24.70396868227062]},"properties":{"OBJECTID":2590,"LANDMARKID":"1000300000676","LANDMARKCO":"303","LANDMARKNA":"上巴陵停車場","LANDMARKAD":"1000313","ADDRESS":"桃園縣復興鄉","TEL":" ","COUNTYNAME":"桃園市","TOWNNAME":"復興區","MARKTYPE":"993","Class":"303"}},{"type":"Feature","id":2591,"geometry":{"type":"Point","coordinates":[121.35315946265045,24.818306972088507]},"properties":{"OBJECTID":2591,"LANDMARKID":"1000300000677","LANDMARKCO":"303","LANDMARKNA":"仁愛停車場","LANDMARKAD":"1000313","ADDRESS":"桃園縣復興鄉","TEL":" ","COUNTYNAME":"桃園市","TOWNNAME":"復興區","MARKTYPE":"993","Class":"303"}},{"type":"Feature","id":2592,"geometry":{"type":"Point","coordinates":[121.35138481615489,24.816305829870284]},"properties":{"OBJECTID":2592,"LANDMARKID":"1000300000917","LANDMARKCO":"402","LANDMARKNA":"中華電信-復興服務中心","LANDMARKAD":"1000313","ADDRESS":"桃園縣復興鄉中正路70號","TEL":"123或0800-080-123","COUNTYNAME":"桃園市","TOWNNAME":"復興區","MARKTYPE":"994","Class":"4"}},{"type":"Feature","id":2593,"geometry":{"type":"Point","coordinates":[121.35165695985629,24.822916190224753]},"properties":{"OBJECTID":2593,"LANDMARKID":"1000300001658","LANDMARKCO":"604","LANDMARKNA":"瑞士鄉村","LANDMARKAD":"1000313","ADDRESS":"桃園縣復興鄉三民村1鄰13-2號","TEL":"03-3822380","COUNTYNAME":"桃園市","TOWNNAME":"復興區","MARKTYPE":"996","Class":"6"}},{"type":"Feature","id":2594,"geometry":{"type":"Point","coordinates":[121.4125682488812,24.688617078672998]},"properties":{"OBJECTID":2594,"LANDMARKID":"1000300001659","LANDMARKCO":"604","LANDMARKNA":"塔曼山莊","LANDMARKAD":"1000313","ADDRESS":"桃園縣復興鄉華陵村11鄰巴崚207-5號","TEL":"03-3912639","COUNTYNAME":"桃園市","TOWNNAME":"復興區","MARKTYPE":"996","Class":"6"}},{"type":"Feature","id":2595,"geometry":{"type":"Point","coordinates":[121.4053892402753,24.692359046815188]},"properties":{"OBJECTID":2595,"LANDMARKID":"1000300001660","LANDMARKCO":"604","LANDMARKNA":"達觀農場","LANDMARKAD":"1000313","ADDRESS":"桃園縣復興鄉華陵村 11鄰巴崚189號","TEL":"03-3912212","COUNTYNAME":"桃園市","TOWNNAME":"復興區","MARKTYPE":"996","Class":"6"}},{"type":"Feature","id":2596,"geometry":{"type":"Point","coordinates":[121.39307657466667,24.683290392166466]},"properties":{"OBJECTID":2596,"LANDMARKID":"1000300001661","LANDMARKCO":"604","LANDMARKNA":"景仁山莊","LANDMARKAD":"1000313","ADDRESS":"桃園縣復興鄉華陵村巴陵59號","TEL":"03-3912238","COUNTYNAME":"桃園市","TOWNNAME":"復興區","MARKTYPE":"996","Class":"6"}},{"type":"Feature","id":2597,"geometry":{"type":"Point","coordinates":[121.39662948373226,24.679511321265949]},"properties":{"OBJECTID":2597,"LANDMARKID":"1000300001662","LANDMARKCO":"604","LANDMARKNA":"彩峰居","LANDMARKAD":"1000313","ADDRESS":"桃園縣復興鄉華陵村巴崚50號","TEL":"03-3912288","COUNTYNAME":"桃園市","TOWNNAME":"復興區","MARKTYPE":"996","Class":"6"}},{"type":"Feature","id":2598,"geometry":{"type":"Point","coordinates":[121.40174132600326,24.691768426565808]},"properties":{"OBJECTID":2598,"LANDMARKID":"1000300001663","LANDMARKCO":"604","LANDMARKNA":"侑德園","LANDMARKAD":"1000313","ADDRESS":"桃園縣復興鄉華陵村11鄰巴崚160-2號","TEL":"03-3912731","COUNTYNAME":"桃園市","TOWNNAME":"復興區","MARKTYPE":"996","Class":"6"}},{"type":"Feature","id":2599,"geometry":{"type":"Point","coordinates":[121.37695125018467,24.792080175040329]},"properties":{"OBJECTID":2599,"LANDMARKID":"1000300001664","LANDMARKCO":"604","LANDMARKNA":"小烏來山莊","LANDMARKAD":"1000313","ADDRESS":"桃園縣復興鄉義盛村1鄰下宇內3-2號","TEL":"03-3822877","COUNTYNAME":"桃園市","TOWNNAME":"復興區","MARKTYPE":"996","Class":"6"}},{"type":"Feature","id":2600,"geometry":{"type":"Point","coordinates":[121.38414231206688,24.789315003166482]},"properties":{"OBJECTID":2600,"LANDMARKID":"1000300001665","LANDMARKCO":"604","LANDMARKNA":"象山農場","LANDMARKAD":"1000313","ADDRESS":"桃園縣復興鄉義盛村6鄰下宇內65號","TEL":"03-3822720","COUNTYNAME":"桃園市","TOWNNAME":"復興區","MARKTYPE":"996","Class":"6"}}]}