{"type":"FeatureCollection","features":[{"type":"Feature","id":5001,"geometry":{"type":"Point","coordinates":[121.4671267591866,25.008161930720387]},"properties":{"OBJECTID":5001,"LANDMARKID":"1000100001682","LANDMARKCO":"402","LANDMARKNA":"亞太行動寬頻電信-板橋民族加盟服務中心","LANDMARKAD":"1000101","ADDRESS":"新北市板橋區民族路121號","TEL":"02-29595000","COUNTYNAME":"新北市","TOWNNAME":"板橋區","MARKTYPE":"994","Class":"4"}},{"type":"Feature","id":5002,"geometry":{"type":"Point","coordinates":[121.46104374206064,25.023151696716614]},"properties":{"OBJECTID":5002,"LANDMARKID":"1000100001683","LANDMARKCO":"402","LANDMARKNA":"亞太行動寬頻電信-板橋新海加盟服務中心","LANDMARKAD":"1000101","ADDRESS":"新北市板橋區新海路132號","TEL":"02-22588606","COUNTYNAME":"新北市","TOWNNAME":"板橋區","MARKTYPE":"994","Class":"4"}},{"type":"Feature","id":5003,"geometry":{"type":"Point","coordinates":[121.45679493960971,25.016578845470683]},"properties":{"OBJECTID":5003,"LANDMARKID":"1000100001684","LANDMARKCO":"402","LANDMARKNA":"亞太行動寬頻電信-板橋中正加盟服務中心","LANDMARKAD":"1000101","ADDRESS":"新北市板橋區中正路150號","TEL":"02-29683026","COUNTYNAME":"新北市","TOWNNAME":"板橋區","MARKTYPE":"994","Class":"4"}},{"type":"Feature","id":5004,"geometry":{"type":"Point","coordinates":[121.46460638978439,25.018470131147307]},"properties":{"OBJECTID":5004,"LANDMARKID":"1000100001620","LANDMARKCO":"401","LANDMARKNA":"板英醫院","LANDMARKAD":"1000101","ADDRESS":"新北市板橋區文化路一段267號","TEL":"02-82513923","COUNTYNAME":"新北市","TOWNNAME":"板橋區","MARKTYPE":"994","Class":"4"}},{"type":"Feature","id":5005,"geometry":{"type":"Point","coordinates":[121.45642998915396,25.016851903018004]},"properties":{"OBJECTID":5005,"LANDMARKID":"1000100001621","LANDMARKCO":"401","LANDMARKNA":"板新醫院","LANDMARKAD":"1000101","ADDRESS":"新北市板橋區中正路189號","TEL":"02-29609955","COUNTYNAME":"新北市","TOWNNAME":"板橋區","MARKTYPE":"994","Class":"4"}},{"type":"Feature","id":5006,"geometry":{"type":"Point","coordinates":[121.46283138852603,25.010148622230535]},"properties":{"OBJECTID":5006,"LANDMARKID":"1000100001622","LANDMARKCO":"401","LANDMARKNA":"德全醫院","LANDMARKAD":"1000101","ADDRESS":"新北市板橋區民權路11號","TEL":"02-29613212","COUNTYNAME":"新北市","TOWNNAME":"板橋區","MARKTYPE":"994","Class":"4"}},{"type":"Feature","id":5007,"geometry":{"type":"Point","coordinates":[121.46626123158883,25.019877211494318]},"properties":{"OBJECTID":5007,"LANDMARKID":"1000100001623","LANDMARKCO":"401","LANDMARKNA":"中英醫院","LANDMARKAD":"1000101","ADDRESS":"新北市板橋區文化路一段196號","TEL":"02-22563584","COUNTYNAME":"新北市","TOWNNAME":"板橋區","MARKTYPE":"994","Class":"4"}},{"type":"Feature","id":5008,"geometry":{"type":"Point","coordinates":[121.45643700506699,25.006884760279465]},"properties":{"OBJECTID":5008,"LANDMARKID":"1000100001624","LANDMARKCO":"401","LANDMARKNA":"蕭中正醫院","LANDMARKAD":"1000101","ADDRESS":"新北市板橋區南雅南路一段15之1號","TEL":"02-29685661","COUNTYNAME":"新北市","TOWNNAME":"板橋區","MARKTYPE":"994","Class":"4"}},{"type":"Feature","id":5009,"geometry":{"type":"Point","coordinates":[121.45231555858939,24.997305070512137]},"properties":{"OBJECTID":5009,"LANDMARKID":"1000100001625","LANDMARKCO":"401","LANDMARKNA":"亞東紀念醫院","LANDMARKAD":"1000101","ADDRESS":"新北市板橋區南雅南路二段21號","TEL":"02-89667000","COUNTYNAME":"新北市","TOWNNAME":"板橋區","MARKTYPE":"994","Class":"4"}},{"type":"Feature","id":5010,"geometry":{"type":"Point","coordinates":[121.45771835120892,25.023678321474211]},"properties":{"OBJECTID":5010,"LANDMARKID":"1000100001626","LANDMARKCO":"401","LANDMARKNA":"新北市立醫院-板橋院區","LANDMARKAD":"1000101","ADDRESS":"新北市板橋區英士路198號","TEL":"02-22575151","COUNTYNAME":"新北市","TOWNNAME":"板橋區","MARKTYPE":"994","Class":"4"}},{"type":"Feature","id":5011,"geometry":{"type":"Point","coordinates":[121.45990807239671,25.001915440322055]},"properties":{"OBJECTID":5011,"LANDMARKID":"1000100001627","LANDMARKCO":"401","LANDMARKNA":"板橋國泰醫院","LANDMARKAD":"1000101","ADDRESS":"新北市板橋區福星里忠孝路5號","TEL":"02-29583333","COUNTYNAME":"新北市","TOWNNAME":"板橋區","MARKTYPE":"994","Class":"4"}},{"type":"Feature","id":5012,"geometry":{"type":"Point","coordinates":[121.46029496913317,25.001985273834492]},"properties":{"OBJECTID":5012,"LANDMARKID":"1000100001628","LANDMARKCO":"401","LANDMARKNA":"板橋中興醫院","LANDMARKAD":"1000101","ADDRESS":"新北市板橋區福星里忠孝路15號","TEL":"02-29590707","COUNTYNAME":"新北市","TOWNNAME":"板橋區","MARKTYPE":"994","Class":"4"}},{"type":"Feature","id":5013,"geometry":{"type":"Point","coordinates":[121.45532831572727,25.009566222533795]},"properties":{"OBJECTID":5013,"LANDMARKID":"1000100002621","LANDMARKCO":"507","LANDMARKNA":"林本源園邸","LANDMARKAD":"1000101","ADDRESS":"新北市板橋區劉芳里西門街42之65號","TEL":"02-29653061","COUNTYNAME":"新北市","TOWNNAME":"板橋區","MARKTYPE":"995","Class":"5"}},{"type":"Feature","id":5014,"geometry":{"type":"Point","coordinates":[121.45608540690782,25.012168067122126]},"properties":{"OBJECTID":5014,"LANDMARKID":"1000100002622","LANDMARKCO":"507","LANDMARKNA":"大觀義學","LANDMARKAD":"1000101","ADDRESS":"新北市板橋區黃石里西門街5號","TEL":" ","COUNTYNAME":"新北市","TOWNNAME":"板橋區","MARKTYPE":"995","Class":"5"}},{"type":"Feature","id":5015,"geometry":{"type":"Point","coordinates":[121.45812291790918,25.012211663225699]},"properties":{"OBJECTID":5015,"LANDMARKID":"1000100002623","LANDMARKCO":"507","LANDMARKNA":"枋橋建學碑","LANDMARKAD":"1000101","ADDRESS":"新北市板橋區文化路一段23號","TEL":" ","COUNTYNAME":"新北市","TOWNNAME":"板橋區","MARKTYPE":"995","Class":"5"}},{"type":"Feature","id":5016,"geometry":{"type":"Point","coordinates":[121.46429123815255,25.000008458357357]},"properties":{"OBJECTID":5016,"LANDMARKID":"1000100002123","LANDMARKCO":"406","LANDMARKNA":"重慶公園","LANDMARKAD":"1000101","ADDRESS":"新北市板橋區","TEL":" ","COUNTYNAME":"新北市","TOWNNAME":"板橋區","MARKTYPE":"994","Class":"4"}},{"type":"Feature","id":5017,"geometry":{"type":"Point","coordinates":[121.46718947017318,25.022083013281833]},"properties":{"OBJECTID":5017,"LANDMARKID":"1000100002291","LANDMARKCO":"408","LANDMARKNA":"郵局-板橋文化路郵局","LANDMARKAD":"1000101","ADDRESS":"新北市板橋區文化路1段395號","TEL":"(02)2257-0132","COUNTYNAME":"新北市","TOWNNAME":"板橋區","MARKTYPE":"994","Class":"4"}},{"type":"Feature","id":5018,"geometry":{"type":"Point","coordinates":[121.44823994064701,25.007739969757495]},"properties":{"OBJECTID":5018,"LANDMARKID":"1000100002292","LANDMARKCO":"408","LANDMARKNA":"郵局-板橋大觀路郵局","LANDMARKAD":"1000101","ADDRESS":"新北市板橋區大觀路1段47號","TEL":"(02)2967-7792","COUNTYNAME":"新北市","TOWNNAME":"板橋區","MARKTYPE":"994","Class":"4"}},{"type":"Feature","id":5019,"geometry":{"type":"Point","coordinates":[121.46132977119591,24.994503090369193]},"properties":{"OBJECTID":5019,"LANDMARKID":"1000100002293","LANDMARKCO":"408","LANDMARKNA":"郵局-板橋後埔郵局","LANDMARKAD":"1000101","ADDRESS":"新北市板橋區實踐路128號","TEL":"(02)2956-7536","COUNTYNAME":"新北市","TOWNNAME":"板橋區","MARKTYPE":"994","Class":"4"}},{"type":"Feature","id":5020,"geometry":{"type":"Point","coordinates":[121.47453857684296,25.016321122807817]},"properties":{"OBJECTID":5020,"LANDMARKID":"1000100002294","LANDMARKCO":"408","LANDMARKNA":"郵局-板橋埔墘郵局","LANDMARKAD":"1000101","ADDRESS":"新北市板橋區中山路2段109號","TEL":"(02)2961-9785","COUNTYNAME":"新北市","TOWNNAME":"板橋區","MARKTYPE":"994","Class":"4"}},{"type":"Feature","id":5021,"geometry":{"type":"Point","coordinates":[121.47423079886855,25.022985845656304]},"properties":{"OBJECTID":5021,"LANDMARKID":"1000100002295","LANDMARKCO":"408","LANDMARKNA":"郵局-板橋莒光郵局","LANDMARKAD":"1000101","ADDRESS":"新北市板橋區莒光路213號","TEL":"(02)2251-6574","COUNTYNAME":"新北市","TOWNNAME":"板橋區","MARKTYPE":"994","Class":"4"}},{"type":"Feature","id":5022,"geometry":{"type":"Point","coordinates":[121.46012397682567,25.009795745385805]},"properties":{"OBJECTID":5022,"LANDMARKID":"1000100002296","LANDMARKCO":"408","LANDMARKNA":"郵局-板橋站前郵局","LANDMARKAD":"1000101","ADDRESS":"新北市板橋區府中路16號","TEL":"(02)2969-9837","COUNTYNAME":"新北市","TOWNNAME":"板橋區","MARKTYPE":"994","Class":"4"}},{"type":"Feature","id":5023,"geometry":{"type":"Point","coordinates":[121.47056533743917,25.006948269672716]},"properties":{"OBJECTID":5023,"LANDMARKID":"1000100002297","LANDMARKCO":"408","LANDMARKNA":"郵局-板橋民族路郵局","LANDMARKAD":"1000101","ADDRESS":"新北市板橋區民族路263號","TEL":"(02)2952-6805","COUNTYNAME":"新北市","TOWNNAME":"板橋區","MARKTYPE":"994","Class":"4"}},{"type":"Feature","id":5024,"geometry":{"type":"Point","coordinates":[121.45616509542819,25.013088838128791]},"properties":{"OBJECTID":5024,"LANDMARKID":"1000100002298","LANDMARKCO":"408","LANDMARKNA":"郵局-板橋中正路郵局","LANDMARKAD":"1000101","ADDRESS":"新北市板橋區中正路35號","TEL":"(02)2967-6806","COUNTYNAME":"新北市","TOWNNAME":"板橋區","MARKTYPE":"994","Class":"4"}},{"type":"Feature","id":5025,"geometry":{"type":"Point","coordinates":[121.45529166803865,25.004680465400817]},"properties":{"OBJECTID":5025,"LANDMARKID":"1000100002299","LANDMARKCO":"408","LANDMARKNA":"郵局-板橋南雅郵局","LANDMARKAD":"1000101","ADDRESS":"新北市板橋區南雅南路1段123號","TEL":"(02)2966-4716","COUNTYNAME":"新北市","TOWNNAME":"板橋區","MARKTYPE":"994","Class":"4"}},{"type":"Feature","id":5026,"geometry":{"type":"Point","coordinates":[121.46142937472921,24.995901858926061]},"properties":{"OBJECTID":5026,"LANDMARKID":"1000100002300","LANDMARKCO":"408","LANDMARKNA":"郵局-板橋國慶郵局","LANDMARKAD":"1000101","ADDRESS":"新北市板橋區國慶路132號","TEL":"(02)2964-5842","COUNTYNAME":"新北市","TOWNNAME":"板橋區","MARKTYPE":"994","Class":"4"}},{"type":"Feature","id":5027,"geometry":{"type":"Point","coordinates":[121.45902259757307,25.02723596144228]},"properties":{"OBJECTID":5027,"LANDMARKID":"1000100002301","LANDMARKCO":"408","LANDMARKNA":"郵局-板橋新海郵局","LANDMARKAD":"1000101","ADDRESS":"新北市板橋區裕民街135號","TEL":"(02)2256-7944","COUNTYNAME":"新北市","TOWNNAME":"板橋區","MARKTYPE":"994","Class":"4"}},{"type":"Feature","id":5028,"geometry":{"type":"Point","coordinates":[121.45115276078479,24.994016900775954]},"properties":{"OBJECTID":5028,"LANDMARKID":"1000100002302","LANDMARKCO":"408","LANDMARKNA":"郵局-板橋八甲郵局","LANDMARKAD":"1000101","ADDRESS":"新北市板橋區四川路2段123號1樓","TEL":"(02)8967-2293","COUNTYNAME":"新北市","TOWNNAME":"板橋區","MARKTYPE":"994","Class":"4"}},{"type":"Feature","id":5029,"geometry":{"type":"Point","coordinates":[121.48375099278688,25.021353211510672]},"properties":{"OBJECTID":5029,"LANDMARKID":"1000100002303","LANDMARKCO":"408","LANDMARKNA":"郵局-板橋光復橋郵局","LANDMARKAD":"1000101","ADDRESS":"新北市板橋區中山路2段422-13號","TEL":"(02)2963-0620","COUNTYNAME":"新北市","TOWNNAME":"板橋區","MARKTYPE":"994","Class":"4"}},{"type":"Feature","id":5030,"geometry":{"type":"Point","coordinates":[121.46948483801297,25.012254635630086]},"properties":{"OBJECTID":5030,"LANDMARKID":"1000100002304","LANDMARKCO":"408","LANDMARKNA":"郵局-板橋海山郵局","LANDMARKAD":"1000101","ADDRESS":"新北市板橋區漢生東路171號","TEL":"(02)2955-5800","COUNTYNAME":"新北市","TOWNNAME":"板橋區","MARKTYPE":"994","Class":"4"}},{"type":"Feature","id":5031,"geometry":{"type":"Point","coordinates":[121.45436815479093,25.02214662606853]},"properties":{"OBJECTID":5031,"LANDMARKID":"1000100002305","LANDMARKCO":"408","LANDMARKNA":"郵局-板橋港尾郵局","LANDMARKAD":"1000101","ADDRESS":"新北市板橋區中正路332號","TEL":"(02)2968-9213","COUNTYNAME":"新北市","TOWNNAME":"板橋區","MARKTYPE":"994","Class":"4"}},{"type":"Feature","id":5032,"geometry":{"type":"Point","coordinates":[121.47508661571555,25.031493748742975]},"properties":{"OBJECTID":5032,"LANDMARKID":"1000100002306","LANDMARKCO":"408","LANDMARKNA":"郵局-板橋江翠郵局","LANDMARKAD":"1000101","ADDRESS":"新北市板橋區仁化街40-1號","TEL":"(02)2253-4928","COUNTYNAME":"新北市","TOWNNAME":"板橋區","MARKTYPE":"994","Class":"4"}},{"type":"Feature","id":5033,"geometry":{"type":"Point","coordinates":[121.46194240405275,25.018649703424977]},"properties":{"OBJECTID":5033,"LANDMARKID":"1000100002307","LANDMARKCO":"408","LANDMARKNA":"郵局-板橋漢生郵局","LANDMARKAD":"1000101","ADDRESS":"新北市板橋區國光路205號","TEL":"(02)2256-1119","COUNTYNAME":"新北市","TOWNNAME":"板橋區","MARKTYPE":"994","Class":"4"}},{"type":"Feature","id":5034,"geometry":{"type":"Point","coordinates":[121.47907984321361,25.020805752656564]},"properties":{"OBJECTID":5034,"LANDMARKID":"1000100002308","LANDMARKCO":"408","LANDMARKNA":"郵局-板橋三民路郵局","LANDMARKAD":"1000101","ADDRESS":"新北市板橋區三民路1段120號","TEL":"(02)2951-8120","COUNTYNAME":"新北市","TOWNNAME":"板橋區","MARKTYPE":"994","Class":"4"}},{"type":"Feature","id":5035,"geometry":{"type":"Point","coordinates":[121.44174421979055,24.998535403097197]},"properties":{"OBJECTID":5035,"LANDMARKID":"1000100002309","LANDMARKCO":"408","LANDMARKNA":"郵局-板橋浮洲郵局","LANDMARKAD":"1000101","ADDRESS":"新北市板橋區大觀路2段313號","TEL":"(02)2969-7993","COUNTYNAME":"新北市","TOWNNAME":"板橋區","MARKTYPE":"994","Class":"4"}},{"type":"Feature","id":5036,"geometry":{"type":"Point","coordinates":[121.46562936928839,25.012071851112697]},"properties":{"OBJECTID":5036,"LANDMARKID":"1000100002310","LANDMARKCO":"408","LANDMARKNA":"郵局-新北市政府郵局","LANDMARKAD":"1000101","ADDRESS":"新北市板橋區中山路1段161號B1","TEL":"(02)8964-5399","COUNTYNAME":"新北市","TOWNNAME":"板橋區","MARKTYPE":"994","Class":"4"}},{"type":"Feature","id":5037,"geometry":{"type":"Point","coordinates":[121.42954103050253,24.986116348484604]},"properties":{"OBJECTID":5037,"LANDMARKID":"1000100002311","LANDMARKCO":"408","LANDMARKNA":"郵局-板橋溪崑郵局","LANDMARKAD":"1000101","ADDRESS":"新北市板橋區金門街278號","TEL":"(02)2687-1194","COUNTYNAME":"新北市","TOWNNAME":"板橋區","MARKTYPE":"994","Class":"4"}},{"type":"Feature","id":5038,"geometry":{"type":"Point","coordinates":[121.4584669202772,25.008210246648932]},"properties":{"OBJECTID":5038,"LANDMARKID":"1000100002472","LANDMARKCO":"409","LANDMARKNA":"新北市板橋區農會","LANDMARKAD":"1000101","ADDRESS":"新北市板橋區府中路29號","TEL":"02-89656868","COUNTYNAME":"新北市","TOWNNAME":"板橋區","MARKTYPE":"994","Class":"4"}},{"type":"Feature","id":5039,"geometry":{"type":"Point","coordinates":[121.47908527474017,25.011860556047342]},"properties":{"OBJECTID":5039,"LANDMARKID":"1000100001862","LANDMARKCO":"404","LANDMARKNA":"台灣自來水板橋服務所","LANDMARKAD":"1000101","ADDRESS":"新北市板橋區三民路二段253號","TEL":"02-29612196","COUNTYNAME":"新北市","TOWNNAME":"板橋區","MARKTYPE":"994","Class":"4"}},{"type":"Feature","id":5040,"geometry":{"type":"Point","coordinates":[121.47906006782698,25.012073031129823]},"properties":{"OBJECTID":5040,"LANDMARKID":"1000100001863","LANDMARKCO":"404","LANDMARKNA":"台灣省自來水板橋服務所","LANDMARKAD":"1000101","ADDRESS":"新北市板橋區三民路二段253號","TEL":" ","COUNTYNAME":"新北市","TOWNNAME":"板橋區","MARKTYPE":"994","Class":"4"}},{"type":"Feature","id":5041,"geometry":{"type":"Point","coordinates":[121.45908070337043,25.00082647570947]},"properties":{"OBJECTID":5041,"LANDMARKID":"1000100001861","LANDMARKCO":"403","LANDMARKNA":"台灣電力公司北南區營業處","LANDMARKAD":"1000101","ADDRESS":"新北市板橋區四川路一段287號","TEL":" ","COUNTYNAME":"新北市","TOWNNAME":"板橋區","MARKTYPE":"994","Class":"4"}},{"type":"Feature","id":5042,"geometry":{"type":"Point","coordinates":[121.46739640262821,25.033387992482439]},"properties":{"OBJECTID":5042,"LANDMARKID":"1000100002124","LANDMARKCO":"406","LANDMARKNA":"溪頭公園","LANDMARKAD":"1000101","ADDRESS":"新北市板橋區","TEL":" ","COUNTYNAME":"新北市","TOWNNAME":"板橋區","MARKTYPE":"994","Class":"4"}},{"type":"Feature","id":5043,"geometry":{"type":"Point","coordinates":[121.47110698554454,25.029983577398234]},"properties":{"OBJECTID":5043,"LANDMARKID":"1000100002125","LANDMARKCO":"406","LANDMARKNA":"農村公園","LANDMARKAD":"1000101","ADDRESS":"新北市板橋區","TEL":" ","COUNTYNAME":"新北市","TOWNNAME":"板橋區","MARKTYPE":"994","Class":"4"}},{"type":"Feature","id":5044,"geometry":{"type":"Point","coordinates":[121.46991665097245,25.02940805247632]},"properties":{"OBJECTID":5044,"LANDMARKID":"1000100002126","LANDMARKCO":"406","LANDMARKNA":"石雕公園","LANDMARKAD":"1000101","ADDRESS":"新北市板橋區","TEL":" ","COUNTYNAME":"新北市","TOWNNAME":"板橋區","MARKTYPE":"994","Class":"4"}},{"type":"Feature","id":5045,"geometry":{"type":"Point","coordinates":[121.45506355735243,25.024654053218111]},"properties":{"OBJECTID":5045,"LANDMARKID":"1000100002127","LANDMARKCO":"406","LANDMARKNA":"茵園公園","LANDMARKAD":"1000101","ADDRESS":"新北市板橋區","TEL":" ","COUNTYNAME":"新北市","TOWNNAME":"板橋區","MARKTYPE":"994","Class":"4"}},{"type":"Feature","id":5046,"geometry":{"type":"Point","coordinates":[121.46351132423185,25.025272244856382]},"properties":{"OBJECTID":5046,"LANDMARKID":"1000100002128","LANDMARKCO":"406","LANDMARKNA":"四維公園","LANDMARKAD":"1000101","ADDRESS":"新北市板橋區","TEL":" ","COUNTYNAME":"新北市","TOWNNAME":"板橋區","MARKTYPE":"994","Class":"4"}},{"type":"Feature","id":5047,"geometry":{"type":"Point","coordinates":[121.47571974131806,25.025002449358787]},"properties":{"OBJECTID":5047,"LANDMARKID":"1000100002129","LANDMARKCO":"406","LANDMARKNA":"三號八德公園","LANDMARKAD":"1000101","ADDRESS":"新北市板橋區","TEL":" ","COUNTYNAME":"新北市","TOWNNAME":"板橋區","MARKTYPE":"994","Class":"4"}},{"type":"Feature","id":5048,"geometry":{"type":"Point","coordinates":[121.47159938701859,25.022940692224886]},"properties":{"OBJECTID":5048,"LANDMARKID":"1000100002130","LANDMARKCO":"406","LANDMARKNA":"中山公園","LANDMARKAD":"1000101","ADDRESS":"新北市板橋區","TEL":" ","COUNTYNAME":"新北市","TOWNNAME":"板橋區","MARKTYPE":"994","Class":"4"}},{"type":"Feature","id":5049,"geometry":{"type":"Point","coordinates":[121.47159567473803,25.019840043297279]},"properties":{"OBJECTID":5049,"LANDMARKID":"1000100002131","LANDMARKCO":"406","LANDMARKNA":"華江公園","LANDMARKAD":"1000101","ADDRESS":"新北市板橋區","TEL":" ","COUNTYNAME":"新北市","TOWNNAME":"板橋區","MARKTYPE":"994","Class":"4"}},{"type":"Feature","id":5050,"geometry":{"type":"Point","coordinates":[121.47069221129034,25.019938937066073]},"properties":{"OBJECTID":5050,"LANDMARKID":"1000100002132","LANDMARKCO":"406","LANDMARKNA":"莊敬公園","LANDMARKAD":"1000101","ADDRESS":"新北市板橋區","TEL":" ","COUNTYNAME":"新北市","TOWNNAME":"板橋區","MARKTYPE":"994","Class":"4"}},{"type":"Feature","id":5051,"geometry":{"type":"Point","coordinates":[121.45366100704963,25.01982972485964]},"properties":{"OBJECTID":5051,"LANDMARKID":"1000100002133","LANDMARKCO":"406","LANDMARKNA":"國光公園","LANDMARKAD":"1000101","ADDRESS":"新北市板橋區","TEL":" ","COUNTYNAME":"新北市","TOWNNAME":"板橋區","MARKTYPE":"994","Class":"4"}},{"type":"Feature","id":5052,"geometry":{"type":"Point","coordinates":[121.4506985866816,25.017209251225612]},"properties":{"OBJECTID":5052,"LANDMARKID":"1000100002134","LANDMARKCO":"406","LANDMARKNA":"環河滑草公園","LANDMARKAD":"1000101","ADDRESS":"新北市板橋區","TEL":" ","COUNTYNAME":"新北市","TOWNNAME":"板橋區","MARKTYPE":"994","Class":"4"}},{"type":"Feature","id":5053,"geometry":{"type":"Point","coordinates":[121.47612096512538,25.013701834243054]},"properties":{"OBJECTID":5053,"LANDMARKID":"1000100002135","LANDMARKCO":"406","LANDMARKNA":"民生公園","LANDMARKAD":"1000101","ADDRESS":"新北市板橋區","TEL":" ","COUNTYNAME":"新北市","TOWNNAME":"板橋區","MARKTYPE":"994","Class":"4"}},{"type":"Feature","id":5054,"geometry":{"type":"Point","coordinates":[121.4568694422382,25.012524615548106]},"properties":{"OBJECTID":5054,"LANDMARKID":"1000100002136","LANDMARKCO":"406","LANDMARKNA":"板信公園","LANDMARKAD":"1000101","ADDRESS":"新北市板橋區","TEL":" ","COUNTYNAME":"新北市","TOWNNAME":"板橋區","MARKTYPE":"994","Class":"4"}},{"type":"Feature","id":5055,"geometry":{"type":"Point","coordinates":[121.45878032164792,25.009264197435193]},"properties":{"OBJECTID":5055,"LANDMARKID":"1000100002137","LANDMARKCO":"406","LANDMARKNA":"站前公園","LANDMARKAD":"1000101","ADDRESS":"新北市板橋區","TEL":" ","COUNTYNAME":"新北市","TOWNNAME":"板橋區","MARKTYPE":"994","Class":"4"}},{"type":"Feature","id":5056,"geometry":{"type":"Point","coordinates":[121.46281051820763,25.00847140917644]},"properties":{"OBJECTID":5056,"LANDMARKID":"1000100002138","LANDMARKCO":"406","LANDMARKNA":"介壽公園","LANDMARKAD":"1000101","ADDRESS":"新北市板橋區","TEL":" ","COUNTYNAME":"新北市","TOWNNAME":"板橋區","MARKTYPE":"994","Class":"4"}},{"type":"Feature","id":5057,"geometry":{"type":"Point","coordinates":[121.45227920428538,24.999259999985583]},"properties":{"OBJECTID":5057,"LANDMARKID":"1000100002139","LANDMARKCO":"406","LANDMARKNA":"元智紀念公園","LANDMARKAD":"1000101","ADDRESS":"新北市板橋區","TEL":" ","COUNTYNAME":"新北市","TOWNNAME":"板橋區","MARKTYPE":"994","Class":"4"}},{"type":"Feature","id":5058,"geometry":{"type":"Point","coordinates":[121.45066998410809,24.99875669243432]},"properties":{"OBJECTID":5058,"LANDMARKID":"1000100002140","LANDMARKCO":"406","LANDMARKNA":"環河公園","LANDMARKAD":"1000101","ADDRESS":"新北市板橋區","TEL":" ","COUNTYNAME":"新北市","TOWNNAME":"板橋區","MARKTYPE":"994","Class":"4"}},{"type":"Feature","id":5059,"geometry":{"type":"Point","coordinates":[121.46016183590855,24.996292951794995]},"properties":{"OBJECTID":5059,"LANDMARKID":"1000100002141","LANDMARKCO":"406","LANDMARKNA":"忠孝公園","LANDMARKAD":"1000101","ADDRESS":"新北市板橋區","TEL":" ","COUNTYNAME":"新北市","TOWNNAME":"板橋區","MARKTYPE":"994","Class":"4"}},{"type":"Feature","id":5060,"geometry":{"type":"Point","coordinates":[121.46464185207168,24.992448361974876]},"properties":{"OBJECTID":5060,"LANDMARKID":"1000100002142","LANDMARKCO":"406","LANDMARKNA":"五權公園","LANDMARKAD":"1000101","ADDRESS":"新北市板橋區","TEL":" ","COUNTYNAME":"新北市","TOWNNAME":"板橋區","MARKTYPE":"994","Class":"4"}},{"type":"Feature","id":5061,"geometry":{"type":"Point","coordinates":[121.46298977343287,24.991664463200376]},"properties":{"OBJECTID":5061,"LANDMARKID":"1000100002143","LANDMARKCO":"406","LANDMARKNA":"廣福公園","LANDMARKAD":"1000101","ADDRESS":"新北市板橋區","TEL":" ","COUNTYNAME":"新北市","TOWNNAME":"板橋區","MARKTYPE":"994","Class":"4"}},{"type":"Feature","id":5062,"geometry":{"type":"Point","coordinates":[121.43125257404269,24.989225748716308]},"properties":{"OBJECTID":5062,"LANDMARKID":"1000100002144","LANDMARKCO":"406","LANDMARKNA":"溪北公園","LANDMARKAD":"1000101","ADDRESS":"新北市板橋區","TEL":" ","COUNTYNAME":"新北市","TOWNNAME":"板橋區","MARKTYPE":"994","Class":"4"}},{"type":"Feature","id":5063,"geometry":{"type":"Point","coordinates":[121.4268248196318,24.980051609629736]},"properties":{"OBJECTID":5063,"LANDMARKID":"1000100002145","LANDMARKCO":"406","LANDMARKNA":"扶輪公園","LANDMARKAD":"1000101","ADDRESS":"新北市板橋區","TEL":" ","COUNTYNAME":"新北市","TOWNNAME":"板橋區","MARKTYPE":"994","Class":"4"}},{"type":"Feature","id":5064,"geometry":{"type":"Point","coordinates":[121.46468947527246,24.997344656610899]},"properties":{"OBJECTID":5064,"LANDMARKID":"1000100002146","LANDMARKCO":"406","LANDMARKNA":"和平公園","LANDMARKAD":"1000101","ADDRESS":"新北市板橋區","TEL":" ","COUNTYNAME":"新北市","TOWNNAME":"板橋區","MARKTYPE":"994","Class":"4"}},{"type":"Feature","id":5065,"geometry":{"type":"Point","coordinates":[121.4576466827465,24.992347987285243]},"properties":{"OBJECTID":5065,"LANDMARKID":"1000100002147","LANDMARKCO":"406","LANDMARKNA":"信義公園","LANDMARKAD":"1000101","ADDRESS":"新北市板橋區","TEL":" ","COUNTYNAME":"新北市","TOWNNAME":"板橋區","MARKTYPE":"994","Class":"4"}},{"type":"Feature","id":5066,"geometry":{"type":"Point","coordinates":[121.48709653277746,25.024296733559595]},"properties":{"OBJECTID":5066,"LANDMARKID":"1000100002148","LANDMARKCO":"406","LANDMARKNA":"光復公園","LANDMARKAD":"1000101","ADDRESS":"新北市板橋區","TEL":" ","COUNTYNAME":"新北市","TOWNNAME":"板橋區","MARKTYPE":"994","Class":"4"}},{"type":"Feature","id":5067,"geometry":{"type":"Point","coordinates":[121.45838405415049,25.013359093183567]},"properties":{"OBJECTID":5067,"LANDMARKID":"1000100002149","LANDMARKCO":"406","LANDMARKNA":"板橋第二運動場","LANDMARKAD":"1000101","ADDRESS":"新北市板橋區","TEL":" ","COUNTYNAME":"新北市","TOWNNAME":"板橋區","MARKTYPE":"994","Class":"4"}},{"type":"Feature","id":5068,"geometry":{"type":"Point","coordinates":[121.44997516348809,25.013347576336411]},"properties":{"OBJECTID":5068,"LANDMARKID":"1000100002150","LANDMARKCO":"406","LANDMARKNA":"浮洲運動公園","LANDMARKAD":"1000101","ADDRESS":"新北市板橋區浮洲里","TEL":" ","COUNTYNAME":"新北市","TOWNNAME":"板橋區","MARKTYPE":"994","Class":"4"}},{"type":"Feature","id":5069,"geometry":{"type":"Point","coordinates":[121.46622232982433,25.031833906411606]},"properties":{"OBJECTID":5069,"LANDMARKID":"1000100002271","LANDMARKCO":"407","LANDMARKNA":"小北百貨","LANDMARKAD":"1000101","ADDRESS":"新北市板橋區長江路二段146-1號","TEL":"02-22577885_","COUNTYNAME":"新北市","TOWNNAME":"板橋區","MARKTYPE":"994","Class":"4"}},{"type":"Feature","id":5070,"geometry":{"type":"Point","coordinates":[121.46434411748157,25.011112554363724]},"properties":{"OBJECTID":5070,"LANDMARKID":"1000100002272","LANDMARKCO":"407","LANDMARKNA":"遠東百貨","LANDMARKAD":"1000101","ADDRESS":"新北市板橋區中山路一段152號","TEL":"02-89525678","COUNTYNAME":"新北市","TOWNNAME":"板橋區","MARKTYPE":"994","Class":"4"}},{"type":"Feature","id":5071,"geometry":{"type":"Point","coordinates":[121.46086167974101,25.008880559354985]},"properties":{"OBJECTID":5071,"LANDMARKID":"1000100002273","LANDMARKCO":"407","LANDMARKNA":"誠品Eslite","LANDMARKAD":"1000101","ADDRESS":"新北市板橋區中山路一段46號5F","TEL":"02-2959-8899","COUNTYNAME":"新北市","TOWNNAME":"板橋區","MARKTYPE":"994","Class":"4"}},{"type":"Feature","id":5072,"geometry":{"type":"Point","coordinates":[121.43220689133696,24.994209309199992]},"properties":{"OBJECTID":5072,"LANDMARKID":"1000100002081","LANDMARKCO":"405","LANDMARKNA":"台亞加油站-板橋浮洲橋站（台塑）","LANDMARKAD":"1000101","ADDRESS":"新北市板橋區篤行路一段33號","TEL":"(02)8687-2061","COUNTYNAME":"新北市","TOWNNAME":"板橋區","MARKTYPE":"994","Class":"4"}},{"type":"Feature","id":5073,"geometry":{"type":"Point","coordinates":[121.4711076625444,25.014171083302326]},"properties":{"OBJECTID":5073,"LANDMARKID":"1000100002082","LANDMARKCO":"405","LANDMARKNA":"全國加油站-板橋站（台塑）","LANDMARKAD":"1000101","ADDRESS":"新北市板橋區中山路一段238號","TEL":"02-29545525","COUNTYNAME":"新北市","TOWNNAME":"板橋區","MARKTYPE":"994","Class":"4"}},{"type":"Feature","id":5074,"geometry":{"type":"Point","coordinates":[121.47757769628579,25.035132375926768]},"properties":{"OBJECTID":5074,"LANDMARKID":"1000100002083","LANDMARKCO":"405","LANDMARKNA":"台亞加油站-華江橋站（台塑）","LANDMARKAD":"1000101","ADDRESS":"新北市板橋區文化路二段612號","TEL":"(02)2254-2159","COUNTYNAME":"新北市","TOWNNAME":"板橋區","MARKTYPE":"994","Class":"4"}},{"type":"Feature","id":5075,"geometry":{"type":"Point","coordinates":[121.47140090755394,25.028535409626258]},"properties":{"OBJECTID":5075,"LANDMARKID":"1000100002084","LANDMARKCO":"405","LANDMARKNA":"台亞加油站-板橋文化路站（台塑）","LANDMARKAD":"1000101","ADDRESS":"新北市板橋區文化路二段262號","TEL":"(02)8251-1038","COUNTYNAME":"新北市","TOWNNAME":"板橋區","MARKTYPE":"994","Class":"4"}},{"type":"Feature","id":5076,"geometry":{"type":"Point","coordinates":[121.44652971792958,25.004130644427057]},"properties":{"OBJECTID":5076,"LANDMARKID":"1000100000276","LANDMARKCO":"107","LANDMARKNA":"新北市消防局大觀分隊","LANDMARKAD":"1000101","ADDRESS":"新北市板橋區大觀路一段38巷1之3號","TEL":"02-29666144","COUNTYNAME":"新北市","TOWNNAME":"板橋區","MARKTYPE":"991","Class":"1"}},{"type":"Feature","id":5077,"geometry":{"type":"Point","coordinates":[121.46475572962764,25.009134129138179]},"properties":{"OBJECTID":5077,"LANDMARKID":"1000100000277","LANDMARKCO":"107","LANDMARKNA":"新北市消防局板橋分隊","LANDMARKAD":"1000101","ADDRESS":"新北市板橋區民族路57號","TEL":"02-29554614","COUNTYNAME":"新北市","TOWNNAME":"板橋區","MARKTYPE":"991","Class":"1"}},{"type":"Feature","id":5078,"geometry":{"type":"Point","coordinates":[121.47010989691573,25.019048909878748]},"properties":{"OBJECTID":5078,"LANDMARKID":"1000100000278","LANDMARKCO":"107","LANDMARKNA":"新北市消防局民生分隊","LANDMARKAD":"1000101","ADDRESS":"新北市板橋區民生路二段56之2號","TEL":"02-29563260","COUNTYNAME":"新北市","TOWNNAME":"板橋區","MARKTYPE":"991","Class":"1"}},{"type":"Feature","id":5079,"geometry":{"type":"Point","coordinates":[121.47319398286895,25.031496972503678]},"properties":{"OBJECTID":5079,"LANDMARKID":"1000100000279","LANDMARKCO":"107","LANDMARKNA":"新北市政府警察局江翠派出所","LANDMARKAD":"1000101","ADDRESS":"新北市板橋區大同街14號","TEL":"02-22512588","COUNTYNAME":"新北市","TOWNNAME":"板橋區","MARKTYPE":"991","Class":"1"}},{"type":"Feature","id":5080,"geometry":{"type":"Point","coordinates":[121.45814416477575,25.023368871214352]},"properties":{"OBJECTID":5080,"LANDMARKID":"1000100000075","LANDMARKCO":"103","LANDMARKNA":"新北市政府衛生局","LANDMARKAD":"1000101","ADDRESS":"新北市板橋區英士路192-1號","TEL":"02-22577155","COUNTYNAME":"新北市","TOWNNAME":"板橋區","MARKTYPE":"991","Class":"1"}},{"type":"Feature","id":5081,"geometry":{"type":"Point","coordinates":[121.45833247453919,25.023307992530892]},"properties":{"OBJECTID":5081,"LANDMARKID":"1000100000076","LANDMARKCO":"103","LANDMARKNA":"新北市板橋巿衛生所","LANDMARKAD":"1000101","ADDRESS":"新北市板橋區英士路192號3樓","TEL":"02-22582384","COUNTYNAME":"新北市","TOWNNAME":"板橋區","MARKTYPE":"991","Class":"1"}},{"type":"Feature","id":5082,"geometry":{"type":"Point","coordinates":[121.45912291452511,25.009637678915677]},"properties":{"OBJECTID":5082,"LANDMARKID":"1000100000419","LANDMARKCO":"108","LANDMARKNA":"新北市板橋區公所","LANDMARKAD":"1000101","ADDRESS":"新北市板橋區府中路30號","TEL":"02-29686911","COUNTYNAME":"新北市","TOWNNAME":"板橋區","MARKTYPE":"991","Class":"1"}},{"type":"Feature","id":5083,"geometry":{"type":"Point","coordinates":[121.46562778335938,25.012076130016556]},"properties":{"OBJECTID":5083,"LANDMARKID":"1000100000077","LANDMARKCO":"103","LANDMARKNA":"新北市政府文化局","LANDMARKAD":"1000101","ADDRESS":"新北市板橋區中山路一段161號28樓","TEL":"02-29603456","COUNTYNAME":"新北市","TOWNNAME":"板橋區","MARKTYPE":"991","Class":"1"}},{"type":"Feature","id":5084,"geometry":{"type":"Point","coordinates":[121.46353057703681,25.00826653640793]},"properties":{"OBJECTID":5084,"LANDMARKID":"1000100000021","LANDMARKCO":"101","LANDMARKNA":"國軍退除役官兵輔導委員會","LANDMARKAD":"1000101","ADDRESS":"新北市板橋區實踐路5號","TEL":"02-29530844","COUNTYNAME":"新北市","TOWNNAME":"板橋區","MARKTYPE":"991","Class":"1"}},{"type":"Feature","id":5085,"geometry":{"type":"Point","coordinates":[121.46166298407357,25.009649764287076]},"properties":{"OBJECTID":5085,"LANDMARKID":"1000100000079","LANDMARKCO":"103","LANDMARKNA":"板橋區衛生所後埔保健站","LANDMARKAD":"1000101","ADDRESS":"新北市板橋區民族路8號","TEL":"02-29616459","COUNTYNAME":"新北市","TOWNNAME":"板橋區","MARKTYPE":"991","Class":"1"}},{"type":"Feature","id":5086,"geometry":{"type":"Point","coordinates":[121.45912291452511,25.009637678915677]},"properties":{"OBJECTID":5086,"LANDMARKID":"1000100000080","LANDMARKCO":"103","LANDMARKNA":"新北市板橋區市民代表會","LANDMARKAD":"1000101","ADDRESS":"新北市板橋區府中路30號5樓","TEL":"02-29687825","COUNTYNAME":"新北市","TOWNNAME":"板橋區","MARKTYPE":"991","Class":"1"}},{"type":"Feature","id":5087,"geometry":{"type":"Point","coordinates":[121.46562778335938,25.012076130016556]},"properties":{"OBJECTID":5087,"LANDMARKID":"1000100000081","LANDMARKCO":"103","LANDMARKNA":"新北市政府","LANDMARKAD":"1000101","ADDRESS":"新北市板橋區中山路一段161號","TEL":"02-29603456","COUNTYNAME":"新北市","TOWNNAME":"板橋區","MARKTYPE":"991","Class":"1"}},{"type":"Feature","id":5088,"geometry":{"type":"Point","coordinates":[121.47393456185154,25.024296972354175]},"properties":{"OBJECTID":5088,"LANDMARKID":"1000100000280","LANDMARKCO":"107","LANDMARKNA":"新北市消防局新北市消防局","LANDMARKAD":"1000101","ADDRESS":"新北市板橋區莒光路161號","TEL":"02-22535110","COUNTYNAME":"新北市","TOWNNAME":"板橋區","MARKTYPE":"991","Class":"1"}},{"type":"Feature","id":5089,"geometry":{"type":"Point","coordinates":[121.47393456185154,25.024296972354175]},"properties":{"OBJECTID":5089,"LANDMARKID":"1000100000281","LANDMARKCO":"107","LANDMARKNA":"新北市消防局莒光分隊","LANDMARKAD":"1000101","ADDRESS":"新北市板橋區莒光路161號","TEL":"02-22515614","COUNTYNAME":"新北市","TOWNNAME":"板橋區","MARKTYPE":"991","Class":"1"}},{"type":"Feature","id":5090,"geometry":{"type":"Point","coordinates":[121.45996044984574,25.024039164423311]},"properties":{"OBJECTID":5090,"LANDMARKID":"1000100000282","LANDMARKCO":"107","LANDMARKNA":"新北市消防局海山分隊","LANDMARKAD":"1000101","ADDRESS":"新北市板橋區英士路151號","TEL":"02-22596285","COUNTYNAME":"新北市","TOWNNAME":"板橋區","MARKTYPE":"991","Class":"1"}},{"type":"Feature","id":5091,"geometry":{"type":"Point","coordinates":[121.45846137940048,25.009863912989001]},"properties":{"OBJECTID":5091,"LANDMARKID":"1000100000283","LANDMARKCO":"107","LANDMARKNA":"新北市政府警察局","LANDMARKAD":"1000101","ADDRESS":"新北市板橋區府中路32號","TEL":"02-80725454","COUNTYNAME":"新北市","TOWNNAME":"板橋區","MARKTYPE":"991","Class":"1"}},{"type":"Feature","id":5092,"geometry":{"type":"Point","coordinates":[121.46009646450054,25.012421528851917]},"properties":{"OBJECTID":5092,"LANDMARKID":"1000100000284","LANDMARKCO":"107","LANDMARKNA":"新北市政府警察局板橋分局","LANDMARKAD":"1000101","ADDRESS":"新北市板橋區挹秀里文化路一段52號","TEL":"02-29686111","COUNTYNAME":"新北市","TOWNNAME":"板橋區","MARKTYPE":"991","Class":"1"}},{"type":"Feature","id":5093,"geometry":{"type":"Point","coordinates":[121.43032966515885,24.988399302006126]},"properties":{"OBJECTID":5093,"LANDMARKID":"1000100000285","LANDMARKCO":"107","LANDMARKNA":"新北市政府警察局沙崙派出所","LANDMARKAD":"1000101","ADDRESS":"新北市板橋區溪北里溪北路111號","TEL":"02-26812741","COUNTYNAME":"新北市","TOWNNAME":"板橋區","MARKTYPE":"991","Class":"1"}},{"type":"Feature","id":5094,"geometry":{"type":"Point","coordinates":[121.44595249477507,25.001243626708028]},"properties":{"OBJECTID":5094,"LANDMARKID":"1000100000286","LANDMARKCO":"107","LANDMARKNA":"新北市政府警察局大觀派出所","LANDMARKAD":"1000101","ADDRESS":"新北市板橋區大安里大觀路二段127號","TEL":"02-22752477","COUNTYNAME":"新北市","TOWNNAME":"板橋區","MARKTYPE":"991","Class":"1"}},{"type":"Feature","id":5095,"geometry":{"type":"Point","coordinates":[121.46085368152059,25.004791876054821]},"properties":{"OBJECTID":5095,"LANDMARKID":"1000100000287","LANDMARKCO":"107","LANDMARKNA":"新北市政府警察局後埔派出所","LANDMARKAD":"1000101","ADDRESS":"新北市板橋區福星里成都街22號","TEL":"02-29615964","COUNTYNAME":"新北市","TOWNNAME":"板橋區","MARKTYPE":"991","Class":"1"}},{"type":"Feature","id":5120,"geometry":{"type":"Point","coordinates":[121.46355476715043,25.024165171910937]},"properties":{"OBJECTID":5120,"LANDMARKID":"1000100000858","LANDMARKCO":"204","LANDMARKNA":"新北市立圖書館四維分館","LANDMARKAD":"1000101","ADDRESS":"新北市板橋區陽明街166號","TEL":" ","COUNTYNAME":"新北市","TOWNNAME":"板橋區","MARKTYPE":"992","Class":"2"}},{"type":"Feature","id":5121,"geometry":{"type":"Point","coordinates":[121.47460647775665,25.013809076746742]},"properties":{"OBJECTID":5121,"LANDMARKID":"1000100000859","LANDMARKCO":"204","LANDMARKNA":"新北市立圖書館民生分館","LANDMARKAD":"1000101","ADDRESS":"新北市板橋區民生路一段30號2樓","TEL":" ","COUNTYNAME":"新北市","TOWNNAME":"板橋區","MARKTYPE":"992","Class":"2"}},{"type":"Feature","id":5122,"geometry":{"type":"Point","coordinates":[121.46073428704473,24.997077674290871]},"properties":{"OBJECTID":5122,"LANDMARKID":"1000100000860","LANDMARKCO":"204","LANDMARKNA":"新北市立圖書館忠孝分館","LANDMARKAD":"1000101","ADDRESS":"新北市板橋區國慶路149巷21弄16號","TEL":" ","COUNTYNAME":"新北市","TOWNNAME":"板橋區","MARKTYPE":"992","Class":"2"}},{"type":"Feature","id":5123,"geometry":{"type":"Point","coordinates":[121.43131797937474,24.990235831579593]},"properties":{"OBJECTID":5123,"LANDMARKID":"1000100000861","LANDMARKCO":"204","LANDMARKNA":"新北市立圖書館溪北分館","LANDMARKAD":"1000101","ADDRESS":"新北市板橋區篤行路二段133號","TEL":" ","COUNTYNAME":"新北市","TOWNNAME":"板橋區","MARKTYPE":"992","Class":"2"}},{"type":"Feature","id":5124,"geometry":{"type":"Point","coordinates":[121.46751634810283,25.018063410886008]},"properties":{"OBJECTID":5124,"LANDMARKID":"1000100000640","LANDMARKCO":"203","LANDMARKNA":"縣立中山國中","LANDMARKAD":"1000101","ADDRESS":"新北市板橋區中山路一段233號","TEL":"02-29552401","COUNTYNAME":"新北市","TOWNNAME":"板橋區","MARKTYPE":"992","Class":"2"}},{"type":"Feature","id":5125,"geometry":{"type":"Point","coordinates":[121.48284352169738,25.01656519645892]},"properties":{"OBJECTID":5125,"LANDMARKID":"1000100000641","LANDMARKCO":"203","LANDMARKNA":"縣立光復國中","LANDMARKAD":"1000101","ADDRESS":"新北市板橋區光復街88號","TEL":"02-29582370","COUNTYNAME":"新北市","TOWNNAME":"板橋區","MARKTYPE":"992","Class":"2"}},{"type":"Feature","id":5126,"geometry":{"type":"Point","coordinates":[121.47718267842117,25.02949413708555]},"properties":{"OBJECTID":5126,"LANDMARKID":"1000100000642","LANDMARKCO":"203","LANDMARKNA":"縣立文聖國小","LANDMARKAD":"1000101","ADDRESS":"新北市板橋區文聖街86號","TEL":"02-22530782","COUNTYNAME":"新北市","TOWNNAME":"板橋區","MARKTYPE":"992","Class":"2"}},{"type":"Feature","id":5127,"geometry":{"type":"Point","coordinates":[121.47445677391703,25.018668960372342]},"properties":{"OBJECTID":5127,"LANDMARKID":"1000100000643","LANDMARKCO":"203","LANDMARKNA":"縣立埔墘國小","LANDMARKAD":"1000101","ADDRESS":"新北市板橋區成功路54號","TEL":"02-29616690","COUNTYNAME":"新北市","TOWNNAME":"板橋區","MARKTYPE":"992","Class":"2"}},{"type":"Feature","id":5128,"geometry":{"type":"Point","coordinates":[121.46321337897724,24.994690008161363]},"properties":{"OBJECTID":5128,"LANDMARKID":"1000100000644","LANDMARKCO":"203","LANDMARKNA":"縣立重慶國小","LANDMARKAD":"1000101","ADDRESS":"新北市板橋區和平路100號","TEL":"02-29565592","COUNTYNAME":"新北市","TOWNNAME":"板橋區","MARKTYPE":"992","Class":"2"}},{"type":"Feature","id":5129,"geometry":{"type":"Point","coordinates":[121.43001282545231,24.989824237195261]},"properties":{"OBJECTID":5129,"LANDMARKID":"1000100000645","LANDMARKCO":"203","LANDMARKNA":"縣立沙崙國小","LANDMARKAD":"1000101","ADDRESS":"新北市板橋區篤行路二段134號","TEL":"02-26812764","COUNTYNAME":"新北市","TOWNNAME":"板橋區","MARKTYPE":"992","Class":"2"}},{"type":"Feature","id":5130,"geometry":{"type":"Point","coordinates":[121.44761367938307,25.007531398714235]},"properties":{"OBJECTID":5130,"LANDMARKID":"1000100000491","LANDMARKCO":"202","LANDMARKNA":"國立華僑中學","LANDMARKAD":"1000101","ADDRESS":"新北市板橋區大觀路一段32號","TEL":"02-29684131","COUNTYNAME":"新北市","TOWNNAME":"板橋區","MARKTYPE":"992","Class":"2"}},{"type":"Feature","id":5131,"geometry":{"type":"Point","coordinates":[121.47689604644715,25.018133004606156]},"properties":{"OBJECTID":5131,"LANDMARKID":"1000100000492","LANDMARKCO":"202","LANDMARKNA":"私立光仁高中","LANDMARKAD":"1000101","ADDRESS":"新北市板橋區中山路二段255巷18號","TEL":"02-29545984","COUNTYNAME":"新北市","TOWNNAME":"板橋區","MARKTYPE":"992","Class":"2"}},{"type":"Feature","id":5132,"geometry":{"type":"Point","coordinates":[121.4591018677354,25.011682089989346]},"properties":{"OBJECTID":5132,"LANDMARKID":"1000100000493","LANDMARKCO":"202","LANDMARKNA":"國立板橋高中","LANDMARKAD":"1000101","ADDRESS":"新北市板橋區文化路一段25號","TEL":"02-29602500","COUNTYNAME":"新北市","TOWNNAME":"板橋區","MARKTYPE":"992","Class":"2"}},{"type":"Feature","id":5133,"geometry":{"type":"Point","coordinates":[121.47089325917747,25.010149164369423]},"properties":{"OBJECTID":5133,"LANDMARKID":"1000100000494","LANDMARKCO":"202","LANDMARKNA":"縣立海山高中","LANDMARKAD":"1000101","ADDRESS":"新北市板橋區漢生東路215號","TEL":"02-29517475","COUNTYNAME":"新北市","TOWNNAME":"板橋區","MARKTYPE":"992","Class":"2"}},{"type":"Feature","id":5134,"geometry":{"type":"Point","coordinates":[121.45826988939282,24.997254367698851]},"properties":{"OBJECTID":5134,"LANDMARKID":"1000100000495","LANDMARKCO":"202","LANDMARKNA":"私立豫章工商","LANDMARKAD":"1000101","ADDRESS":"新北市板橋區四川路一段391號","TEL":"02-29519810","COUNTYNAME":"新北市","TOWNNAME":"板橋區","MARKTYPE":"992","Class":"2"}},{"type":"Feature","id":5135,"geometry":{"type":"Point","coordinates":[121.43127505403251,24.998414996977299]},"properties":{"OBJECTID":5135,"LANDMARKID":"1000100000603","LANDMARKCO":"203","LANDMARKNA":"縣立溪崑國中","LANDMARKAD":"1000101","ADDRESS":"新北市板橋區大觀路三段50巷30號","TEL":"02-26852162","COUNTYNAME":"新北市","TOWNNAME":"板橋區","MARKTYPE":"992","Class":"2"}},{"type":"Feature","id":5136,"geometry":{"type":"Point","coordinates":[121.45416569935757,25.023996725167681]},"properties":{"OBJECTID":5136,"LANDMARKID":"1000100000604","LANDMARKCO":"203","LANDMARKNA":"縣立板橋國中","LANDMARKAD":"1000101","ADDRESS":"新北市板橋區中正路437號","TEL":"02-29668279","COUNTYNAME":"新北市","TOWNNAME":"板橋區","MARKTYPE":"992","Class":"2"}},{"type":"Feature","id":5137,"geometry":{"type":"Point","coordinates":[121.46165286258477,25.00483957822555]},"properties":{"OBJECTID":5137,"LANDMARKID":"1000100000605","LANDMARKCO":"203","LANDMARKNA":"縣立忠孝國中","LANDMARKAD":"1000101","ADDRESS":"新北市板橋區成都街30號","TEL":"02-29624746","COUNTYNAME":"新北市","TOWNNAME":"板橋區","MARKTYPE":"992","Class":"2"}},{"type":"Feature","id":5119,"geometry":{"type":"Point","coordinates":[121.45419637606604,25.020617257496617]},"properties":{"OBJECTID":5119,"LANDMARKID":"1000100000857","LANDMARKCO":"204","LANDMARKNA":"新北市立圖書館國光分館","LANDMARKAD":"1000101","ADDRESS":"新北市板橋區中正路375巷48號3樓","TEL":" ","COUNTYNAME":"新北市","TOWNNAME":"板橋區","MARKTYPE":"992","Class":"2"}},{"type":"Feature","id":5118,"geometry":{"type":"Point","coordinates":[121.45827457569088,25.010918063276684]},"properties":{"OBJECTID":5118,"LANDMARKID":"1000100000856","LANDMARKCO":"204","LANDMARKNA":"新北市立圖書館板橋分館","LANDMARKAD":"1000101","ADDRESS":"新北市板橋區文化路一段23號","TEL":" ","COUNTYNAME":"新北市","TOWNNAME":"板橋區","MARKTYPE":"992","Class":"2"}},{"type":"Feature","id":5117,"geometry":{"type":"Point","coordinates":[121.47202826504939,25.02570759183283]},"properties":{"OBJECTID":5117,"LANDMARKID":"1000100000899","LANDMARKCO":"205","LANDMARKNA":"新北市現代陶瓷館","LANDMARKAD":"1000101","ADDRESS":"新北市板橋區莊敬路62號","TEL":" ","COUNTYNAME":"新北市","TOWNNAME":"板橋區","MARKTYPE":"992","Class":"2"}},{"type":"Feature","id":5116,"geometry":{"type":"Point","coordinates":[121.47461420711345,25.032036157641318]},"properties":{"OBJECTID":5116,"LANDMARKID":"1000100000898","LANDMARKCO":"205","LANDMARKNA":"石尚礦物化石博物館","LANDMARKAD":"1000101","ADDRESS":"新北市板橋區文化路二段442號","TEL":"02-22578876","COUNTYNAME":"新北市","TOWNNAME":"板橋區","MARKTYPE":"992","Class":"2"}},{"type":"Feature","id":5115,"geometry":{"type":"Point","coordinates":[121.45683527584417,25.028599835124631]},"properties":{"OBJECTID":5115,"LANDMARKID":"1000100000070","LANDMARKCO":"103","LANDMARKNA":"新北市立殯儀館","LANDMARKAD":"1000101","ADDRESS":"新北市板橋區中正路560號","TEL":"02-22571207","COUNTYNAME":"新北市","TOWNNAME":"板橋區","MARKTYPE":"991","Class":"1"}},{"type":"Feature","id":5114,"geometry":{"type":"Point","coordinates":[121.46363792288678,25.01432356467755]},"properties":{"OBJECTID":5114,"LANDMARKID":"1000100000025","LANDMARKCO":"101","LANDMARKNA":"交通部高速鐵路工程局","LANDMARKAD":"1000101","ADDRESS":"板橋區縣民大道二段7號9樓","TEL":"02-80723333","COUNTYNAME":"新北市","TOWNNAME":"板橋區","MARKTYPE":"991","Class":"1"}},{"type":"Feature","id":5113,"geometry":{"type":"Point","coordinates":[121.46207152904941,25.005265760130126]},"properties":{"OBJECTID":5113,"LANDMARKID":"1000100000073","LANDMARKCO":"103","LANDMARKNA":"新北市審計室","LANDMARKAD":"1000101","ADDRESS":"新北市板橋區重慶路112號3樓","TEL":"02-29640947","COUNTYNAME":"新北市","TOWNNAME":"板橋區","MARKTYPE":"991","Class":"1"}},{"type":"Feature","id":5112,"geometry":{"type":"Point","coordinates":[121.46562778335938,25.012076130016556]},"properties":{"OBJECTID":5112,"LANDMARKID":"1000100000072","LANDMARKCO":"103","LANDMARKNA":"新北市政府社會局","LANDMARKAD":"1000101","ADDRESS":"新北市板橋區中山路一段161號25樓","TEL":"02-29603456","COUNTYNAME":"新北市","TOWNNAME":"板橋區","MARKTYPE":"991","Class":"1"}},{"type":"Feature","id":5111,"geometry":{"type":"Point","coordinates":[121.46562778335938,25.012076130016556]},"properties":{"OBJECTID":5111,"LANDMARKID":"1000100000071","LANDMARKCO":"103","LANDMARKNA":"新北市政府環境保護局","LANDMARKAD":"1000101","ADDRESS":"新北市板橋區中山路一段161號26~27樓","TEL":"02-29603456","COUNTYNAME":"新北市","TOWNNAME":"板橋區","MARKTYPE":"991","Class":"1"}},{"type":"Feature","id":5110,"geometry":{"type":"Point","coordinates":[121.469381575482,25.012418546657077]},"properties":{"OBJECTID":5110,"LANDMARKID":"1000100000024","LANDMARKCO":"101","LANDMARKNA":"職業訓練局板橋就業服務站","LANDMARKAD":"1000101","ADDRESS":"新北市板橋區漢生東路163號","TEL":"02-29598856","COUNTYNAME":"新北市","TOWNNAME":"板橋區","MARKTYPE":"991","Class":"1"}},{"type":"Feature","id":5109,"geometry":{"type":"Point","coordinates":[121.47091042093894,25.027026484162096]},"properties":{"OBJECTID":5109,"LANDMARKID":"1000100000074","LANDMARKCO":"103","LANDMARKNA":"新北市議會","LANDMARKAD":"1000101","ADDRESS":"新北市板橋區文化路二段166號","TEL":"02-22521212","COUNTYNAME":"新北市","TOWNNAME":"板橋區","MARKTYPE":"991","Class":"1"}},{"type":"Feature","id":5108,"geometry":{"type":"Point","coordinates":[121.47101379155546,25.012071560277747]},"properties":{"OBJECTID":5108,"LANDMARKID":"1000100000023","LANDMARKCO":"101","LANDMARKNA":"調查局新北市調查處","LANDMARKAD":"1000101","ADDRESS":"新北市板橋區漢生東路193巷2號","TEL":"02-29642121","COUNTYNAME":"新北市","TOWNNAME":"板橋區","MARKTYPE":"991","Class":"1"}},{"type":"Feature","id":5107,"geometry":{"type":"Point","coordinates":[121.47621592920616,25.014346411903031]},"properties":{"OBJECTID":5107,"LANDMARKID":"1000100000022","LANDMARKCO":"101","LANDMARKNA":"台灣板橋地方法院板橋簡易庭","LANDMARKAD":"1000101","ADDRESS":"新北市板橋區民生路一段30巷1號","TEL":"02-29617322","COUNTYNAME":"新北市","TOWNNAME":"板橋區","MARKTYPE":"991","Class":"1"}},{"type":"Feature","id":5106,"geometry":{"type":"Point","coordinates":[121.46284409025073,25.000663771434798]},"properties":{"OBJECTID":5106,"LANDMARKID":"1000100000129","LANDMARKCO":"104","LANDMARKNA":"北區國稅局新北市分局第一辦公","LANDMARKAD":"1000101","ADDRESS":"新北市板橋區重慶路260號4樓","TEL":"02-29553569","COUNTYNAME":"新北市","TOWNNAME":"板橋區","MARKTYPE":"991","Class":"1"}},{"type":"Feature","id":5105,"geometry":{"type":"Point","coordinates":[121.46346414622664,25.008652197123411]},"properties":{"OBJECTID":5105,"LANDMARKID":"1000100000136","LANDMARKCO":"105","LANDMARKNA":"新北市板橋地政事務所","LANDMARKAD":"1000101","ADDRESS":"新北市板橋區實踐路1號","TEL":"02-29611126","COUNTYNAME":"新北市","TOWNNAME":"板橋區","MARKTYPE":"991","Class":"1"}},{"type":"Feature","id":5104,"geometry":{"type":"Point","coordinates":[121.46562778335938,25.012076130016556]},"properties":{"OBJECTID":5104,"LANDMARKID":"1000100000135","LANDMARKCO":"105","LANDMARKNA":"新北市政府地政局","LANDMARKAD":"1000101","ADDRESS":"新北市板橋區中山路一段161號23.24樓","TEL":"02-29603456","COUNTYNAME":"新北市","TOWNNAME":"板橋區","MARKTYPE":"991","Class":"1"}},{"type":"Feature","id":5103,"geometry":{"type":"Point","coordinates":[121.47020178679499,25.011639556211101]},"properties":{"OBJECTID":5103,"LANDMARKID":"1000100000160","LANDMARKCO":"106","LANDMARKNA":"新北市板橋區戶政事務所海山辦","LANDMARKAD":"1000101","ADDRESS":"新北市板橋區9鄰漢生東路195之1號","TEL":"02-29580977","COUNTYNAME":"新北市","TOWNNAME":"板橋區","MARKTYPE":"991","Class":"1"}},{"type":"Feature","id":5102,"geometry":{"type":"Point","coordinates":[121.45642222689627,25.012719840160354]},"properties":{"OBJECTID":5102,"LANDMARKID":"1000100000159","LANDMARKCO":"106","LANDMARKNA":"新北市板橋區戶政事務所","LANDMARKAD":"1000101","ADDRESS":"新北市板橋區中正路6號","TEL":"02-29655656","COUNTYNAME":"新北市","TOWNNAME":"板橋區","MARKTYPE":"991","Class":"1"}},{"type":"Feature","id":5101,"geometry":{"type":"Point","coordinates":[121.46562778335938,25.012076130016556]},"properties":{"OBJECTID":5101,"LANDMARKID":"1000100000078","LANDMARKCO":"103","LANDMARKNA":"新北市政府民政局","LANDMARKAD":"1000101","ADDRESS":"新北市板橋區中山路一段161號14樓","TEL":"02-29603456","COUNTYNAME":"新北市","TOWNNAME":"板橋區","MARKTYPE":"991","Class":"1"}},{"type":"Feature","id":5100,"geometry":{"type":"Point","coordinates":[121.47959640982374,25.018706026300183]},"properties":{"OBJECTID":5100,"LANDMARKID":"1000100000292","LANDMARKCO":"107","LANDMARKNA":"新北市政府警察局埔墘派出所","LANDMARKAD":"1000101","ADDRESS":"新北市板橋區中山路二段286號","TEL":"02-29558223","COUNTYNAME":"新北市","TOWNNAME":"板橋區","MARKTYPE":"991","Class":"1"}},{"type":"Feature","id":5099,"geometry":{"type":"Point","coordinates":[121.45996044984574,25.024039164423311]},"properties":{"OBJECTID":5099,"LANDMARKID":"1000100000291","LANDMARKCO":"107","LANDMARKNA":"新北市政府警察局新海派出所","LANDMARKAD":"1000101","ADDRESS":"新北市板橋區英士路151號","TEL":"02-22586867","COUNTYNAME":"新北市","TOWNNAME":"板橋區","MARKTYPE":"991","Class":"1"}},{"type":"Feature","id":5098,"geometry":{"type":"Point","coordinates":[121.47000676481782,25.011503442851311]},"properties":{"OBJECTID":5098,"LANDMARKID":"1000100000290","LANDMARKCO":"107","LANDMARKNA":"新北市政府警察局海山派出所","LANDMARKAD":"1000101","ADDRESS":"新北市板橋區漢生東路195號","TEL":"02-29574370","COUNTYNAME":"新北市","TOWNNAME":"板橋區","MARKTYPE":"991","Class":"1"}},{"type":"Feature","id":5097,"geometry":{"type":"Point","coordinates":[121.47000676481782,25.011503442851311]},"properties":{"OBJECTID":5097,"LANDMARKID":"1000100000289","LANDMARKCO":"107","LANDMARKNA":"新北市政府警察局海山分局","LANDMARKAD":"1000101","ADDRESS":"新北市板橋區漢生東路195號","TEL":"02-29640322","COUNTYNAME":"新北市","TOWNNAME":"板橋區","MARKTYPE":"991","Class":"1"}},{"type":"Feature","id":5096,"geometry":{"type":"Point","coordinates":[121.46009646450054,25.012421528851917]},"properties":{"OBJECTID":5096,"LANDMARKID":"1000100000288","LANDMARKCO":"107","LANDMARKNA":"新北市政府警察局板橋派出所","LANDMARKAD":"1000101","ADDRESS":"新北市板橋區挹秀里文化路一段52號","TEL":"02-29699446","COUNTYNAME":"新北市","TOWNNAME":"板橋區","MARKTYPE":"991","Class":"1"}},{"type":"Feature","id":5162,"geometry":{"type":"Point","coordinates":[121.47227230017569,25.029499401163907]},"properties":{"OBJECTID":5162,"LANDMARKID":"1000100001490","LANDMARKCO":"306","LANDMARKNA":"江子翠捷運站-出口3","LANDMARKAD":"1000101","ADDRESS":" ","TEL":" ","COUNTYNAME":"新北市","TOWNNAME":"板橋區","MARKTYPE":"993","Class":"306"}},{"type":"Feature","id":5163,"geometry":{"type":"Point","coordinates":[121.47280538061003,25.02974832506623]},"properties":{"OBJECTID":5163,"LANDMARKID":"1000100001491","LANDMARKCO":"306","LANDMARKNA":"江子翠捷運站-出口4","LANDMARKAD":"1000101","ADDRESS":" ","TEL":" ","COUNTYNAME":"新北市","TOWNNAME":"板橋區","MARKTYPE":"993","Class":"306"}},{"type":"Feature","id":5164,"geometry":{"type":"Point","coordinates":[121.4735163467049,25.030901925433081]},"properties":{"OBJECTID":5164,"LANDMARKID":"1000100001492","LANDMARKCO":"306","LANDMARKNA":"江子翠捷運站-出口5","LANDMARKAD":"1000101","ADDRESS":" ","TEL":" ","COUNTYNAME":"新北市","TOWNNAME":"板橋區","MARKTYPE":"993","Class":"306"}},{"type":"Feature","id":5165,"geometry":{"type":"Point","coordinates":[121.47305412066075,25.031012413099109]},"properties":{"OBJECTID":5165,"LANDMARKID":"1000100001493","LANDMARKCO":"306","LANDMARKNA":"江子翠捷運站-出口6","LANDMARKAD":"1000101","ADDRESS":" ","TEL":" ","COUNTYNAME":"新北市","TOWNNAME":"板橋區","MARKTYPE":"993","Class":"306"}},{"type":"Feature","id":5166,"geometry":{"type":"Point","coordinates":[121.46746001132512,25.023036910735364]},"properties":{"OBJECTID":5166,"LANDMARKID":"1000100001494","LANDMARKCO":"306","LANDMARKNA":"新埔捷運站-出口1","LANDMARKAD":"1000101","ADDRESS":" ","TEL":" ","COUNTYNAME":"新北市","TOWNNAME":"板橋區","MARKTYPE":"993","Class":"306"}},{"type":"Feature","id":5167,"geometry":{"type":"Point","coordinates":[121.46809351492831,25.022058250059541]},"properties":{"OBJECTID":5167,"LANDMARKID":"1000100001495","LANDMARKCO":"306","LANDMARKNA":"新埔捷運站-出口2","LANDMARKAD":"1000101","ADDRESS":" ","TEL":" ","COUNTYNAME":"新北市","TOWNNAME":"板橋區","MARKTYPE":"993","Class":"306"}},{"type":"Feature","id":5168,"geometry":{"type":"Point","coordinates":[121.46862756399486,25.023337055869547]},"properties":{"OBJECTID":5168,"LANDMARKID":"1000100001496","LANDMARKCO":"306","LANDMARKNA":"新埔捷運站-出口4","LANDMARKAD":"1000101","ADDRESS":" ","TEL":" ","COUNTYNAME":"新北市","TOWNNAME":"板橋區","MARKTYPE":"993","Class":"306"}},{"type":"Feature","id":5169,"geometry":{"type":"Point","coordinates":[121.46813742546584,25.024198814865631]},"properties":{"OBJECTID":5169,"LANDMARKID":"1000100001497","LANDMARKCO":"306","LANDMARKNA":"新埔捷運站-出口5","LANDMARKAD":"1000101","ADDRESS":" ","TEL":" ","COUNTYNAME":"新北市","TOWNNAME":"板橋區","MARKTYPE":"993","Class":"306"}},{"type":"Feature","id":5170,"geometry":{"type":"Point","coordinates":[121.46865993949103,25.022860422278409]},"properties":{"OBJECTID":5170,"LANDMARKID":"1000100001498","LANDMARKCO":"306","LANDMARKNA":"新埔捷運站-出口3","LANDMARKAD":"1000101","ADDRESS":" ","TEL":" ","COUNTYNAME":"新北市","TOWNNAME":"板橋區","MARKTYPE":"993","Class":"306"}},{"type":"Feature","id":5171,"geometry":{"type":"Point","coordinates":[121.46203396623486,25.013617645111779]},"properties":{"OBJECTID":5171,"LANDMARKID":"1000100001499","LANDMARKCO":"306","LANDMARKNA":"板橋捷運站-出口1","LANDMARKAD":"1000101","ADDRESS":" ","TEL":" ","COUNTYNAME":"新北市","TOWNNAME":"板橋區","MARKTYPE":"993","Class":"306"}},{"type":"Feature","id":5172,"geometry":{"type":"Point","coordinates":[121.46275588467645,25.013229421391969]},"properties":{"OBJECTID":5172,"LANDMARKID":"1000100001500","LANDMARKCO":"306","LANDMARKNA":"板橋捷運站-出口2","LANDMARKAD":"1000101","ADDRESS":" ","TEL":" ","COUNTYNAME":"新北市","TOWNNAME":"板橋區","MARKTYPE":"993","Class":"306"}},{"type":"Feature","id":5173,"geometry":{"type":"Point","coordinates":[121.46285296938666,25.01460506460689]},"properties":{"OBJECTID":5173,"LANDMARKID":"1000100001501","LANDMARKCO":"306","LANDMARKNA":"板橋捷運站-出口3","LANDMARKAD":"1000101","ADDRESS":" ","TEL":" ","COUNTYNAME":"新北市","TOWNNAME":"板橋區","MARKTYPE":"993","Class":"306"}},{"type":"Feature","id":5174,"geometry":{"type":"Point","coordinates":[121.45910939590874,25.008464556868109]},"properties":{"OBJECTID":5174,"LANDMARKID":"1000100001502","LANDMARKCO":"306","LANDMARKNA":"府中捷運站-出口1","LANDMARKAD":"1000101","ADDRESS":" ","TEL":" ","COUNTYNAME":"新北市","TOWNNAME":"板橋區","MARKTYPE":"993","Class":"306"}},{"type":"Feature","id":5175,"geometry":{"type":"Point","coordinates":[121.4599802593107,25.009374153114237]},"properties":{"OBJECTID":5175,"LANDMARKID":"1000100001503","LANDMARKCO":"306","LANDMARKNA":"府中捷運站-出口2","LANDMARKAD":"1000101","ADDRESS":" ","TEL":" ","COUNTYNAME":"新北市","TOWNNAME":"板橋區","MARKTYPE":"993","Class":"306"}},{"type":"Feature","id":5176,"geometry":{"type":"Point","coordinates":[121.45930663495847,25.009022003417208]},"properties":{"OBJECTID":5176,"LANDMARKID":"1000100001504","LANDMARKCO":"306","LANDMARKNA":"府中捷運站-出口3","LANDMARKAD":"1000101","ADDRESS":" ","TEL":" ","COUNTYNAME":"新北市","TOWNNAME":"板橋區","MARKTYPE":"993","Class":"306"}},{"type":"Feature","id":5177,"geometry":{"type":"Point","coordinates":[121.45214676597229,24.997544280276653]},"properties":{"OBJECTID":5177,"LANDMARKID":"1000100001505","LANDMARKCO":"306","LANDMARKNA":"亞東醫院捷運站-出口1","LANDMARKAD":"1000101","ADDRESS":" ","TEL":" ","COUNTYNAME":"新北市","TOWNNAME":"板橋區","MARKTYPE":"993","Class":"306"}},{"type":"Feature","id":5178,"geometry":{"type":"Point","coordinates":[121.45204070838491,24.997235902994213]},"properties":{"OBJECTID":5178,"LANDMARKID":"1000100001506","LANDMARKCO":"306","LANDMARKNA":"亞東醫院捷運站-出口2","LANDMARKAD":"1000101","ADDRESS":" ","TEL":" ","COUNTYNAME":"新北市","TOWNNAME":"板橋區","MARKTYPE":"993","Class":"306"}},{"type":"Feature","id":5179,"geometry":{"type":"Point","coordinates":[121.45229253588667,24.997161877354479]},"properties":{"OBJECTID":5179,"LANDMARKID":"1000100001507","LANDMARKCO":"306","LANDMARKNA":"亞東醫院捷運站-出口3","LANDMARKAD":"1000101","ADDRESS":" ","TEL":" ","COUNTYNAME":"新北市","TOWNNAME":"板橋區","MARKTYPE":"993","Class":"306"}},{"type":"Feature","id":5180,"geometry":{"type":"Point","coordinates":[121.46443378646767,25.014860502692958]},"properties":{"OBJECTID":5180,"LANDMARKID":"1000100001510","LANDMARKCO":"307","LANDMARKNA":"高鐵板橋站-東一出口","LANDMARKAD":"1000101","ADDRESS":" ","TEL":" ","COUNTYNAME":"新北市","TOWNNAME":"板橋區","MARKTYPE":"993","Class":"307"}},{"type":"Feature","id":5181,"geometry":{"type":"Point","coordinates":[121.46469915299063,25.014631068553932]},"properties":{"OBJECTID":5181,"LANDMARKID":"1000100001511","LANDMARKCO":"307","LANDMARKNA":"高鐵板橋站-東二出口","LANDMARKAD":"1000101","ADDRESS":" ","TEL":" ","COUNTYNAME":"新北市","TOWNNAME":"板橋區","MARKTYPE":"993","Class":"307"}},{"type":"Feature","id":5182,"geometry":{"type":"Point","coordinates":[121.46432221787269,25.014140428166996]},"properties":{"OBJECTID":5182,"LANDMARKID":"1000100001512","LANDMARKCO":"307","LANDMARKNA":"高鐵板橋站-南一出口","LANDMARKAD":"1000101","ADDRESS":" ","TEL":" ","COUNTYNAME":"新北市","TOWNNAME":"板橋區","MARKTYPE":"993","Class":"307"}},{"type":"Feature","id":5183,"geometry":{"type":"Point","coordinates":[121.46401616144628,25.013967606519987]},"properties":{"OBJECTID":5183,"LANDMARKID":"1000100001513","LANDMARKCO":"307","LANDMARKNA":"高鐵板橋站-南二出口","LANDMARKAD":"1000101","ADDRESS":" ","TEL":" ","COUNTYNAME":"新北市","TOWNNAME":"板橋區","MARKTYPE":"993","Class":"307"}},{"type":"Feature","id":5184,"geometry":{"type":"Point","coordinates":[121.46378849724948,25.013720162940167]},"properties":{"OBJECTID":5184,"LANDMARKID":"1000100001514","LANDMARKCO":"307","LANDMARKNA":"高鐵板橋站-南三出口","LANDMARKAD":"1000101","ADDRESS":" ","TEL":" ","COUNTYNAME":"新北市","TOWNNAME":"板橋區","MARKTYPE":"993","Class":"307"}},{"type":"Feature","id":5138,"geometry":{"type":"Point","coordinates":[121.46844205883662,25.028939040661456]},"properties":{"OBJECTID":5138,"LANDMARKID":"1000100000606","LANDMARKCO":"203","LANDMARKNA":"縣立江翠國中","LANDMARKAD":"1000101","ADDRESS":"新北市板橋區松江街63號","TEL":"02-22513256","COUNTYNAME":"新北市","TOWNNAME":"板橋區","MARKTYPE":"992","Class":"2"}},{"type":"Feature","id":5139,"geometry":{"type":"Point","coordinates":[121.46316058106969,24.998182791565057]},"properties":{"OBJECTID":5139,"LANDMARKID":"1000100000607","LANDMARKCO":"203","LANDMARKNA":"縣立重慶國中","LANDMARKAD":"1000101","ADDRESS":"新北市板橋區國慶路120號","TEL":"02-29625224","COUNTYNAME":"新北市","TOWNNAME":"板橋區","MARKTYPE":"992","Class":"2"}},{"type":"Feature","id":5140,"geometry":{"type":"Point","coordinates":[121.45819064682632,25.024396945901167]},"properties":{"OBJECTID":5140,"LANDMARKID":"1000100000608","LANDMARKCO":"203","LANDMARKNA":"縣立新埔國中","LANDMARKAD":"1000101","ADDRESS":"新北市板橋區新海路181號","TEL":"02-22593912","COUNTYNAME":"新北市","TOWNNAME":"板橋區","MARKTYPE":"992","Class":"2"}},{"type":"Feature","id":5141,"geometry":{"type":"Point","coordinates":[121.44852412590033,25.011247564187617]},"properties":{"OBJECTID":5141,"LANDMARKID":"1000100000609","LANDMARKCO":"203","LANDMARKNA":"縣立大觀國中","LANDMARKAD":"1000101","ADDRESS":"新北市板橋區僑中一街1號","TEL":"02-22722581","COUNTYNAME":"新北市","TOWNNAME":"板橋區","MARKTYPE":"992","Class":"2"}},{"type":"Feature","id":5142,"geometry":{"type":"Point","coordinates":[121.45281293824075,24.991736559340772]},"properties":{"OBJECTID":5142,"LANDMARKID":"1000100000610","LANDMARKCO":"203","LANDMARKNA":"縣立信義國小","LANDMARKAD":"1000101","ADDRESS":"新北市板橋區四川路二段245巷60號","TEL":"02-29567817","COUNTYNAME":"新北市","TOWNNAME":"板橋區","MARKTYPE":"992","Class":"2"}},{"type":"Feature","id":5143,"geometry":{"type":"Point","coordinates":[121.44935066067347,25.008604183226876]},"properties":{"OBJECTID":5143,"LANDMARKID":"1000100000611","LANDMARKCO":"203","LANDMARKNA":"縣立大觀國小","LANDMARKAD":"1000101","ADDRESS":"新北市板橋區大觀路一段30號","TEL":"02-29603373","COUNTYNAME":"新北市","TOWNNAME":"板橋區","MARKTYPE":"992","Class":"2"}},{"type":"Feature","id":5144,"geometry":{"type":"Point","coordinates":[121.44769521588366,25.002302816189054]},"properties":{"OBJECTID":5144,"LANDMARKID":"1000100000612","LANDMARKCO":"203","LANDMARKNA":"縣立中山國小","LANDMARKAD":"1000101","ADDRESS":"新北市板橋區大觀路二段59巷31號","TEL":"02-22755313","COUNTYNAME":"新北市","TOWNNAME":"板橋區","MARKTYPE":"992","Class":"2"}},{"type":"Feature","id":5145,"geometry":{"type":"Point","coordinates":[121.45335979668543,25.019418836940357]},"properties":{"OBJECTID":5145,"LANDMARKID":"1000100000613","LANDMARKCO":"203","LANDMARKNA":"縣立國光國小","LANDMARKAD":"1000101","ADDRESS":"新北市板橋區中正路325巷30號","TEL":"02-29680611","COUNTYNAME":"新北市","TOWNNAME":"板橋區","MARKTYPE":"992","Class":"2"}},{"type":"Feature","id":5146,"geometry":{"type":"Point","coordinates":[121.45824359675672,25.010852379398376]},"properties":{"OBJECTID":5146,"LANDMARKID":"1000100000614","LANDMARKCO":"203","LANDMARKNA":"縣立板橋國小","LANDMARKAD":"1000101","ADDRESS":"新北市板橋區黃石里文化路一段23號","TEL":"02-29686834","COUNTYNAME":"新北市","TOWNNAME":"板橋區","MARKTYPE":"992","Class":"2"}},{"type":"Feature","id":5147,"geometry":{"type":"Point","coordinates":[121.47416681929782,25.032366398783999]},"properties":{"OBJECTID":5147,"LANDMARKID":"1000100000615","LANDMARKCO":"203","LANDMARKNA":"縣立江翠國小","LANDMARKAD":"1000101","ADDRESS":"新北市板橋區松翠里文化路二段413號","TEL":"02-22526880","COUNTYNAME":"新北市","TOWNNAME":"板橋區","MARKTYPE":"992","Class":"2"}},{"type":"Feature","id":5148,"geometry":{"type":"Point","coordinates":[121.46165286258477,25.00483957822555]},"properties":{"OBJECTID":5148,"LANDMARKID":"1000100000616","LANDMARKCO":"203","LANDMARKNA":"縣立忠孝國小","LANDMARKAD":"1000101","ADDRESS":"新北市板橋區成都街30號","TEL":"02-29591141","COUNTYNAME":"新北市","TOWNNAME":"板橋區","MARKTYPE":"992","Class":"2"}},{"type":"Feature","id":5149,"geometry":{"type":"Point","coordinates":[121.43088703133775,24.987322378904953]},"properties":{"OBJECTID":5149,"LANDMARKID":"1000100000617","LANDMARKCO":"203","LANDMARKNA":"縣立溪洲國小","LANDMARKAD":"1000101","ADDRESS":"新北市板橋區金門街289號","TEL":"02-26834686","COUNTYNAME":"新北市","TOWNNAME":"板橋區","MARKTYPE":"992","Class":"2"}},{"type":"Feature","id":5150,"geometry":{"type":"Point","coordinates":[121.45850179810925,25.022509836272498]},"properties":{"OBJECTID":5150,"LANDMARKID":"1000100000618","LANDMARKCO":"203","LANDMARKNA":"縣立文德國小","LANDMARKAD":"1000101","ADDRESS":"新北市板橋區新翠里英士路179號","TEL":"02-22577193","COUNTYNAME":"新北市","TOWNNAME":"板橋區","MARKTYPE":"992","Class":"2"}},{"type":"Feature","id":5151,"geometry":{"type":"Point","coordinates":[121.46270073695678,25.003341325725607]},"properties":{"OBJECTID":5151,"LANDMARKID":"1000100000619","LANDMARKCO":"203","LANDMARKNA":"縣立後埔國小","LANDMARKAD":"1000101","ADDRESS":"新北市板橋區重慶路157號","TEL":"02-29614142","COUNTYNAME":"新北市","TOWNNAME":"板橋區","MARKTYPE":"992","Class":"2"}},{"type":"Feature","id":5152,"geometry":{"type":"Point","coordinates":[121.47362845100891,25.02610954699907]},"properties":{"OBJECTID":5152,"LANDMARKID":"1000100000620","LANDMARKCO":"203","LANDMARKNA":"縣立莒光國小","LANDMARKAD":"1000101","ADDRESS":"新北市板橋區華翠里莒光路163號","TEL":"02-22517272","COUNTYNAME":"新北市","TOWNNAME":"板橋區","MARKTYPE":"992","Class":"2"}},{"type":"Feature","id":5153,"geometry":{"type":"Point","coordinates":[121.46259684023096,25.025878698302893]},"properties":{"OBJECTID":5153,"LANDMARKID":"1000100000621","LANDMARKCO":"203","LANDMARKNA":"縣立新埔國小","LANDMARKAD":"1000101","ADDRESS":"新北市板橋區新翠里陽明街206號","TEL":"02-22571830","COUNTYNAME":"新北市","TOWNNAME":"板橋區","MARKTYPE":"992","Class":"2"}},{"type":"Feature","id":5154,"geometry":{"type":"Point","coordinates":[121.46640079816662,25.005009842039165]},"properties":{"OBJECTID":5154,"LANDMARKID":"1000100000622","LANDMARKCO":"203","LANDMARKNA":"縣立實踐國小","LANDMARKAD":"1000101","ADDRESS":"新北市板橋區實踐路93巷51號","TEL":"02-29531233","COUNTYNAME":"新北市","TOWNNAME":"板橋區","MARKTYPE":"992","Class":"2"}},{"type":"Feature","id":5155,"geometry":{"type":"Point","coordinates":[121.47090834394508,25.009547335578343]},"properties":{"OBJECTID":5155,"LANDMARKID":"1000100000623","LANDMARKCO":"203","LANDMARKNA":"縣立海山國小","LANDMARKAD":"1000101","ADDRESS":"新北市板橋區漢生東路280號","TEL":"02-29551650","COUNTYNAME":"新北市","TOWNNAME":"板橋區","MARKTYPE":"992","Class":"2"}},{"type":"Feature","id":5156,"geometry":{"type":"Point","coordinates":[121.44757031397674,25.005888209705446]},"properties":{"OBJECTID":5156,"LANDMARKID":"1000100000441","LANDMARKCO":"201","LANDMARKNA":"國立台灣藝術大學","LANDMARKAD":"1000101","ADDRESS":"新北市板橋區大觀路一段59號","TEL":"02-22722181","COUNTYNAME":"新北市","TOWNNAME":"板橋區","MARKTYPE":"992","Class":"2"}},{"type":"Feature","id":5157,"geometry":{"type":"Point","coordinates":[121.45310509034627,24.995172877552452]},"properties":{"OBJECTID":5157,"LANDMARKID":"1000100000442","LANDMARKCO":"201","LANDMARKNA":"亞東技術學院","LANDMARKAD":"1000101","ADDRESS":"新北市板橋區四川路二段58號","TEL":"02-77380145","COUNTYNAME":"新北市","TOWNNAME":"板橋區","MARKTYPE":"992","Class":"2"}},{"type":"Feature","id":5158,"geometry":{"type":"Point","coordinates":[121.46523196100749,25.020845237954319]},"properties":{"OBJECTID":5158,"LANDMARKID":"1000100000443","LANDMARKCO":"201","LANDMARKNA":"致理技術學院","LANDMARKAD":"1000101","ADDRESS":"新北市板橋區文化路一段313號","TEL":"02-22576167","COUNTYNAME":"新北市","TOWNNAME":"板橋區","MARKTYPE":"992","Class":"2"}},{"type":"Feature","id":5159,"geometry":{"type":"Point","coordinates":[121.47086429139388,25.018777703680179]},"properties":{"OBJECTID":5159,"LANDMARKID":"1000100001519","LANDMARKCO":"308","LANDMARKNA":"台64-板橋交流道-東行","LANDMARKAD":"1000101","ADDRESS":" ","TEL":" ","COUNTYNAME":"新北市","TOWNNAME":"板橋區","MARKTYPE":"993","Class":"308"}},{"type":"Feature","id":5160,"geometry":{"type":"Point","coordinates":[121.47192443382485,25.030311796255848]},"properties":{"OBJECTID":5160,"LANDMARKID":"1000100001488","LANDMARKCO":"306","LANDMARKNA":"江子翠捷運站-出口1","LANDMARKAD":"1000101","ADDRESS":" ","TEL":" ","COUNTYNAME":"新北市","TOWNNAME":"板橋區","MARKTYPE":"993","Class":"306"}},{"type":"Feature","id":5161,"geometry":{"type":"Point","coordinates":[121.47191120992414,25.029770026565128]},"properties":{"OBJECTID":5161,"LANDMARKID":"1000100001489","LANDMARKCO":"306","LANDMARKNA":"江子翠捷運站-出口2","LANDMARKAD":"1000101","ADDRESS":" ","TEL":" ","COUNTYNAME":"新北市","TOWNNAME":"板橋區","MARKTYPE":"993","Class":"306"}},{"type":"Feature","id":5186,"geometry":{"type":"Point","coordinates":[121.46302559004523,25.013679409214507]},"properties":{"OBJECTID":5186,"LANDMARKID":"1000100001516","LANDMARKCO":"307","LANDMARKNA":"高鐵板橋站-北三出口","LANDMARKAD":"1000101","ADDRESS":" ","TEL":" ","COUNTYNAME":"新北市","TOWNNAME":"板橋區","MARKTYPE":"993","Class":"307"}},{"type":"Feature","id":5187,"geometry":{"type":"Point","coordinates":[121.46318669399535,25.014526332593665]},"properties":{"OBJECTID":5187,"LANDMARKID":"1000100001517","LANDMARKCO":"307","LANDMARKNA":"高鐵板橋站-北二出口","LANDMARKAD":"1000101","ADDRESS":" ","TEL":" ","COUNTYNAME":"新北市","TOWNNAME":"板橋區","MARKTYPE":"993","Class":"307"}},{"type":"Feature","id":5188,"geometry":{"type":"Point","coordinates":[121.46401934658302,25.014900533738661]},"properties":{"OBJECTID":5188,"LANDMARKID":"1000100001518","LANDMARKCO":"307","LANDMARKNA":"高鐵板橋站-北一出口","LANDMARKAD":"1000101","ADDRESS":" ","TEL":" ","COUNTYNAME":"新北市","TOWNNAME":"板橋區","MARKTYPE":"993","Class":"307"}},{"type":"Feature","id":5189,"geometry":{"type":"Point","coordinates":[121.4648504614816,25.015226832374399]},"properties":{"OBJECTID":5189,"LANDMARKID":"1000100000971","LANDMARKCO":"302","LANDMARKNA":"統聯客運-板橋站-代售處","LANDMARKAD":"1000101","ADDRESS":"新北市板橋區新站路66號","TEL":"連絡電話:02-896","COUNTYNAME":"新北市","TOWNNAME":"板橋區","MARKTYPE":"993","Class":"302"}},{"type":"Feature","id":5190,"geometry":{"type":"Point","coordinates":[121.4648504614816,25.015226832374399]},"properties":{"OBJECTID":5190,"LANDMARKID":"1000100000972","LANDMARKCO":"302","LANDMARKNA":"日統客運-板橋站","LANDMARKAD":"1000101","ADDRESS":"板橋區新站路66號(國道客運站)","TEL":"02-22728529","COUNTYNAME":"新北市","TOWNNAME":"板橋區","MARKTYPE":"993","Class":"302"}},{"type":"Feature","id":5191,"geometry":{"type":"Point","coordinates":[121.4648504614816,25.015226832374399]},"properties":{"OBJECTID":5191,"LANDMARKID":"1000100000973","LANDMARKCO":"302","LANDMARKNA":"阿囉哈客運-板橋站","LANDMARKAD":"1000101","ADDRESS":"新北市板橋區新站路66號","TEL":"(02)8968-1668","COUNTYNAME":"新北市","TOWNNAME":"板橋區","MARKTYPE":"993","Class":"302"}},{"type":"Feature","id":5192,"geometry":{"type":"Point","coordinates":[121.4648504614816,25.015226832374399]},"properties":{"OBJECTID":5192,"LANDMARKID":"1000100000974","LANDMARKCO":"302","LANDMARKNA":"和欣客運-板橋轉運站","LANDMARKAD":"1000101","ADDRESS":"板橋區新站路66號(板橋火車站旁邊)","TEL":"(02)2968-0218","COUNTYNAME":"新北市","TOWNNAME":"板橋區","MARKTYPE":"993","Class":"302"}},{"type":"Feature","id":5193,"geometry":{"type":"Point","coordinates":[121.4824184045938,25.027202572079414]},"properties":{"OBJECTID":5193,"LANDMARKID":"1000100000975","LANDMARKCO":"302","LANDMARKNA":"台北客運-五福站","LANDMARKAD":"1000101","ADDRESS":"板橋區萬板路810號之1","TEL":"2251-8420","COUNTYNAME":"新北市","TOWNNAME":"板橋區","MARKTYPE":"993","Class":"302"}},{"type":"Feature","id":5194,"geometry":{"type":"Point","coordinates":[121.4449612750218,25.011993843681918]},"properties":{"OBJECTID":5194,"LANDMARKID":"1000100000976","LANDMARKCO":"302","LANDMARKNA":"台北客運-歡仔園站","LANDMARKAD":"1000101","ADDRESS":"板橋區僑中一街150號","TEL":"2969-7468","COUNTYNAME":"新北市","TOWNNAME":"板橋區","MARKTYPE":"993","Class":"302"}},{"type":"Feature","id":5195,"geometry":{"type":"Point","coordinates":[121.4807068345138,25.028826673570038]},"properties":{"OBJECTID":5195,"LANDMARKID":"1000100000977","LANDMARKCO":"302","LANDMARKNA":"台北汽車客運五福新村站","LANDMARKAD":"1000101","ADDRESS":"新北市板橋區懷德街233巷23號","TEL":" ","COUNTYNAME":"新北市","TOWNNAME":"板橋區","MARKTYPE":"993","Class":"302"}},{"type":"Feature","id":5196,"geometry":{"type":"Point","coordinates":[121.45400088927082,25.021307297406395]},"properties":{"OBJECTID":5196,"LANDMARKID":"1000100000978","LANDMARKCO":"302","LANDMARKNA":"台北汽車客運板前站","LANDMARKAD":"1000101","ADDRESS":"新北市板橋區中正路379巷76號","TEL":" ","COUNTYNAME":"新北市","TOWNNAME":"板橋區","MARKTYPE":"993","Class":"302"}},{"type":"Feature","id":5197,"geometry":{"type":"Point","coordinates":[121.44932067208958,24.994450996701044]},"properties":{"OBJECTID":5197,"LANDMARKID":"1000100000979","LANDMARKCO":"302","LANDMARKNA":"台北汽車客運南雅站","LANDMARKAD":"1000101","ADDRESS":"新北市板橋區四川路二段130巷39弄3號","TEL":" ","COUNTYNAME":"新北市","TOWNNAME":"板橋區","MARKTYPE":"993","Class":"302"}},{"type":"Feature","id":5198,"geometry":{"type":"Point","coordinates":[121.45761815947994,24.994001660188566]},"properties":{"OBJECTID":5198,"LANDMARKID":"1000100000980","LANDMARKCO":"302","LANDMARKNA":"台北汽車客運板後站","LANDMARKAD":"1000101","ADDRESS":"新北市板橋區和平路16號","TEL":" ","COUNTYNAME":"新北市","TOWNNAME":"板橋區","MARKTYPE":"993","Class":"302"}},{"type":"Feature","id":5199,"geometry":{"type":"Point","coordinates":[121.44590429065289,25.011675335703238]},"properties":{"OBJECTID":5199,"LANDMARKID":"1000100000981","LANDMARKCO":"302","LANDMARKNA":"台北汽車客運歡仔園站","LANDMARKAD":"1000101","ADDRESS":"新北市板橋區僑中一街150號","TEL":" ","COUNTYNAME":"新北市","TOWNNAME":"板橋區","MARKTYPE":"993","Class":"302"}},{"type":"Feature","id":5200,"geometry":{"type":"Point","coordinates":[121.46512529702851,25.00847903023919]},"properties":{"OBJECTID":5200,"LANDMARKID":"1000100000982","LANDMARKCO":"302","LANDMARKNA":"國光汽車客運板橋站","LANDMARKAD":"1000101","ADDRESS":"新北市板橋區民族路100號","TEL":" ","COUNTYNAME":"新北市","TOWNNAME":"板橋區","MARKTYPE":"993","Class":"302"}},{"type":"Feature","id":5185,"geometry":{"type":"Point","coordinates":[121.46316022440465,25.013503167120245]},"properties":{"OBJECTID":5185,"LANDMARKID":"1000100001515","LANDMARKCO":"307","LANDMARKNA":"高鐵板橋站-西出口","LANDMARKAD":"1000101","ADDRESS":" ","TEL":" ","COUNTYNAME":"新北市","TOWNNAME":"板橋區","MARKTYPE":"993","Class":"307"}}]}