{"type":"FeatureCollection","features":[{"type":"Feature","id":9201,"geometry":{"type":"Point","coordinates":[121.56667992674741,25.036082011871891]},"properties":{"OBJECTID":9201,"LANDMARKID":"6300000002888","LANDMARKCO":"407","LANDMARKNA":"Coach專賣店","LANDMARKAD":"6300002","ADDRESS":"台北市信義區松壽路9號1樓","TEL":"02-87805959","COUNTYNAME":"台北市","TOWNNAME":"信義區","MARKTYPE":"994","Class":"4"}},{"type":"Feature","id":9202,"geometry":{"type":"Point","coordinates":[121.56392667381243,25.036871028031534]},"properties":{"OBJECTID":9202,"LANDMARKID":"6300000000182","LANDMARKCO":"105","LANDMARKNA":"台北市政府地政處","LANDMARKAD":"6300002","ADDRESS":"台北市信義區市府路一號3-4樓","TEL":"02)2728-7522","COUNTYNAME":"台北市","TOWNNAME":"信義區","MARKTYPE":"991","Class":"1"}},{"type":"Feature","id":9203,"geometry":{"type":"Point","coordinates":[121.56878617388543,25.040816913548074]},"properties":{"OBJECTID":9203,"LANDMARKID":"6300000000222","LANDMARKCO":"107","LANDMARKNA":"台北市消防局信義消防分隊","LANDMARKAD":"6300002","ADDRESS":"台北市信義區忠孝東路五段32號","TEL":"02-27588864","COUNTYNAME":"台北市","TOWNNAME":"信義區","MARKTYPE":"991","Class":"1"}},{"type":"Feature","id":9204,"geometry":{"type":"Point","coordinates":[121.57340623908128,25.019586735086456]},"properties":{"OBJECTID":9204,"LANDMARKID":"6300000000126","LANDMARKCO":"103","LANDMARKNA":"台北市動物衛生檢驗所","LANDMARKAD":"6300002","ADDRESS":"台北市信義區吳興街600巷109號","TEL":"02-87897158","COUNTYNAME":"台北市","TOWNNAME":"信義區","MARKTYPE":"991","Class":"1"}},{"type":"Feature","id":9205,"geometry":{"type":"Point","coordinates":[121.56390107411677,25.037322632656501]},"properties":{"OBJECTID":9205,"LANDMARKID":"6300000000127","LANDMARKCO":"103","LANDMARKNA":"台北市政府法規委員會","LANDMARKAD":"6300002","ADDRESS":"台北市市府路一號九樓東北區","TEL":"02-27208889","COUNTYNAME":"台北市","TOWNNAME":"信義區","MARKTYPE":"991","Class":"1"}},{"type":"Feature","id":9206,"geometry":{"type":"Point","coordinates":[121.56201027506813,25.038044185918171]},"properties":{"OBJECTID":9206,"LANDMARKID":"6300000000128","LANDMARKCO":"103","LANDMARKNA":"台北市議會","LANDMARKAD":"6300002","ADDRESS":"台北市信義區仁愛路四段507號","TEL":"02-27297708","COUNTYNAME":"台北市","TOWNNAME":"信義區","MARKTYPE":"991","Class":"1"}},{"type":"Feature","id":9207,"geometry":{"type":"Point","coordinates":[121.56691438098331,25.03314610235871]},"properties":{"OBJECTID":9207,"LANDMARKID":"6300000000178","LANDMARKCO":"104","LANDMARKNA":"台北市國稅局信義稽徵所","LANDMARKAD":"6300002","ADDRESS":"台北市信義區信義路五段15號4樓","TEL":"02-27201599","COUNTYNAME":"台北市","TOWNNAME":"信義區","MARKTYPE":"991","Class":"1"}},{"type":"Feature","id":9208,"geometry":{"type":"Point","coordinates":[121.56379510110303,25.037513799368]},"properties":{"OBJECTID":9208,"LANDMARKID":"6300000000119","LANDMARKCO":"103","LANDMARKNA":"台北市政府","LANDMARKAD":"6300002","ADDRESS":"台北市信義區市府路1號","TEL":"02-27208889","COUNTYNAME":"台北市","TOWNNAME":"信義區","MARKTYPE":"991","Class":"1"}},{"type":"Feature","id":9209,"geometry":{"type":"Point","coordinates":[121.56883188107514,25.039493932056857]},"properties":{"OBJECTID":9209,"LANDMARKID":"6300000000089","LANDMARKCO":"101","LANDMARKNA":"行政院公共工程委員會","LANDMARKAD":"6300002","ADDRESS":"台北市信義區松仁路3號9樓","TEL":"02-87897500","COUNTYNAME":"台北市","TOWNNAME":"信義區","MARKTYPE":"991","Class":"1"}},{"type":"Feature","id":9210,"geometry":{"type":"Point","coordinates":[121.56249528071854,25.042421358066207]},"properties":{"OBJECTID":9210,"LANDMARKID":"6300000000090","LANDMARKCO":"101","LANDMARKNA":"內政部警政署刑事警察局","LANDMARKAD":"6300002","ADDRESS":"台北市信義區忠孝東路四段553巷5號","TEL":"02-27652122","COUNTYNAME":"台北市","TOWNNAME":"信義區","MARKTYPE":"991","Class":"1"}},{"type":"Feature","id":9211,"geometry":{"type":"Point","coordinates":[121.56594163744413,25.028911024456789]},"properties":{"OBJECTID":9211,"LANDMARKID":"6300000000183","LANDMARKCO":"105","LANDMARKNA":"台北市政府地政處土地開發總隊","LANDMARKAD":"6300002","ADDRESS":"台北市莊敬路391巷11弄2號3樓","TEL":"02-87807056","COUNTYNAME":"台北市","TOWNNAME":"信義區","MARKTYPE":"991","Class":"1"}},{"type":"Feature","id":9212,"geometry":{"type":"Point","coordinates":[121.56594163744413,25.028911024456789]},"properties":{"OBJECTID":9212,"LANDMARKID":"6300000000184","LANDMARKCO":"105","LANDMARKNA":"台北市松山地政事務所","LANDMARKAD":"6300002","ADDRESS":"台北市信義區莊敬路391巷11弄2號","TEL":"02-27230711","COUNTYNAME":"台北市","TOWNNAME":"信義區","MARKTYPE":"991","Class":"1"}},{"type":"Feature","id":9213,"geometry":{"type":"Point","coordinates":[121.56379510110303,25.037513799368]},"properties":{"OBJECTID":9213,"LANDMARKID":"6300000000129","LANDMARKCO":"103","LANDMARKNA":"台北市政府民政局","LANDMARKAD":"6300002","ADDRESS":"台北市信義區市府路1號中央區9樓","TEL":"02-27208889","COUNTYNAME":"台北市","TOWNNAME":"信義區","MARKTYPE":"991","Class":"1"}},{"type":"Feature","id":9214,"geometry":{"type":"Point","coordinates":[121.56691438098331,25.03314610235871]},"properties":{"OBJECTID":9214,"LANDMARKID":"6300000000201","LANDMARKCO":"106","LANDMARKNA":"台北市信義區戶政事務所","LANDMARKAD":"6300002","ADDRESS":"台北市信義區西村里15鄰信義路五段15號2樓","TEL":"02-27233977","COUNTYNAME":"台北市","TOWNNAME":"信義區","MARKTYPE":"991","Class":"1"}},{"type":"Feature","id":9215,"geometry":{"type":"Point","coordinates":[121.56772406359099,25.03316700539105]},"properties":{"OBJECTID":9215,"LANDMARKID":"6300000000214","LANDMARKCO":"107","LANDMARKNA":"台北市政府警察局信義分局","LANDMARKAD":"6300002","ADDRESS":"台北市信義區信義路五段17號","TEL":"02-27234739","COUNTYNAME":"台北市","TOWNNAME":"信義區","MARKTYPE":"991","Class":"1"}},{"type":"Feature","id":9216,"geometry":{"type":"Point","coordinates":[121.55508607140786,25.023658456265029]},"properties":{"OBJECTID":9216,"LANDMARKID":"6300000000215","LANDMARKCO":"107","LANDMARKNA":"台北市政府警察局六張犁派出所","LANDMARKAD":"6300002","ADDRESS":"台北市信義區嘉興街301號","TEL":"02-27355068","COUNTYNAME":"台北市","TOWNNAME":"信義區","MARKTYPE":"991","Class":"1"}},{"type":"Feature","id":9217,"geometry":{"type":"Point","coordinates":[121.58165021056885,25.037356064436505]},"properties":{"OBJECTID":9217,"LANDMARKID":"6300000000216","LANDMARKCO":"107","LANDMARKNA":"台北市政府警察局福德街派出所","LANDMARKAD":"6300002","ADDRESS":"台北市信義區福德街198號","TEL":"02-27273424","COUNTYNAME":"台北市","TOWNNAME":"信義區","MARKTYPE":"991","Class":"1"}},{"type":"Feature","id":9218,"geometry":{"type":"Point","coordinates":[121.57587579622768,25.045680723694712]},"properties":{"OBJECTID":9218,"LANDMARKID":"6300000000217","LANDMARKCO":"107","LANDMARKNA":"台北市政府警察局五分埔派出所","LANDMARKAD":"6300002","ADDRESS":"台北市信義區永吉路333號","TEL":"02-27653349","COUNTYNAME":"台北市","TOWNNAME":"信義區","MARKTYPE":"991","Class":"1"}},{"type":"Feature","id":9219,"geometry":{"type":"Point","coordinates":[121.56772406359099,25.03316700539105]},"properties":{"OBJECTID":9219,"LANDMARKID":"6300000000218","LANDMARKCO":"107","LANDMARKNA":"台北市政府警察局三張犁派出所","LANDMARKAD":"6300002","ADDRESS":"台北市信義區信義路五段17號","TEL":"02-27295561","COUNTYNAME":"台北市","TOWNNAME":"信義區","MARKTYPE":"991","Class":"1"}},{"type":"Feature","id":9220,"geometry":{"type":"Point","coordinates":[121.56249528071854,25.042421358066207]},"properties":{"OBJECTID":9220,"LANDMARKID":"6300000000219","LANDMARKCO":"107","LANDMARKNA":"刑事警察局","LANDMARKAD":"6300002","ADDRESS":"台北市信義區忠孝東路四段553巷5號","TEL":"02-27652122","COUNTYNAME":"台北市","TOWNNAME":"信義區","MARKTYPE":"991","Class":"1"}},{"type":"Feature","id":9221,"geometry":{"type":"Point","coordinates":[121.5687773517858,25.040733470397406]},"properties":{"OBJECTID":9221,"LANDMARKID":"6300000000220","LANDMARKCO":"107","LANDMARKNA":"台北市消防局","LANDMARKAD":"6300002","ADDRESS":"台北市信義區松仁路1號","TEL":"02-27297668","COUNTYNAME":"台北市","TOWNNAME":"信義區","MARKTYPE":"991","Class":"1"}},{"type":"Feature","id":9222,"geometry":{"type":"Point","coordinates":[121.56516075844175,25.029630196447133]},"properties":{"OBJECTID":9222,"LANDMARKID":"6300000000221","LANDMARKCO":"107","LANDMARKNA":"台北市消防局第二救災救護大隊","LANDMARKAD":"6300002","ADDRESS":"台北市信義區松智路40號","TEL":"02-87736908","COUNTYNAME":"台北市","TOWNNAME":"信義區","MARKTYPE":"991","Class":"1"}},{"type":"Feature","id":9223,"geometry":{"type":"Point","coordinates":[121.56379510110303,25.037513799368]},"properties":{"OBJECTID":9223,"LANDMARKID":"6300000000124","LANDMARKCO":"103","LANDMARKNA":"台北市政府衛生局","LANDMARKAD":"6300002","ADDRESS":"台北市信義區市府路1號","TEL":"02-27208889","COUNTYNAME":"台北市","TOWNNAME":"信義區","MARKTYPE":"991","Class":"1"}},{"type":"Feature","id":9224,"geometry":{"type":"Point","coordinates":[121.56691438098331,25.03314610235871]},"properties":{"OBJECTID":9224,"LANDMARKID":"6300000000125","LANDMARKCO":"103","LANDMARKNA":"台北市信義區健康服務中心","LANDMARKAD":"6300002","ADDRESS":"台北市信義區信義路五段15號","TEL":"02-27234598","COUNTYNAME":"台北市","TOWNNAME":"信義區","MARKTYPE":"991","Class":"1"}},{"type":"Feature","id":9225,"geometry":{"type":"Point","coordinates":[121.56691438098331,25.03314610235871]},"properties":{"OBJECTID":9225,"LANDMARKID":"6300000000375","LANDMARKCO":"108","LANDMARKNA":"台北市信義區公所","LANDMARKAD":"6300002","ADDRESS":"台北市信義區信義路五段15號6樓","TEL":"02-27239777","COUNTYNAME":"台北市","TOWNNAME":"信義區","MARKTYPE":"991","Class":"1"}},{"type":"Feature","id":9226,"geometry":{"type":"Point","coordinates":[121.56379510110303,25.037513799368]},"properties":{"OBJECTID":9226,"LANDMARKID":"6300000000120","LANDMARKCO":"103","LANDMARKNA":"台北市政府產業發展局","LANDMARKAD":"6300002","ADDRESS":"台北市信義區市府路1號","TEL":"02-27208889","COUNTYNAME":"台北市","TOWNNAME":"信義區","MARKTYPE":"991","Class":"1"}},{"type":"Feature","id":9227,"geometry":{"type":"Point","coordinates":[121.57134051255083,25.040821475229887]},"properties":{"OBJECTID":9227,"LANDMARKID":"6300000000091","LANDMARKCO":"101","LANDMARKNA":"國軍退除役官兵輔導委員會","LANDMARKAD":"6300002","ADDRESS":"台北市信義區忠孝東路五段222號","TEL":"02-27255700","COUNTYNAME":"台北市","TOWNNAME":"信義區","MARKTYPE":"991","Class":"1"}},{"type":"Feature","id":9228,"geometry":{"type":"Point","coordinates":[121.57431310776643,25.032022676404225]},"properties":{"OBJECTID":9228,"LANDMARKID":"6300000000122","LANDMARKCO":"103","LANDMARKNA":"台北市交通管制工程處","LANDMARKAD":"6300002","ADDRESS":"台北市信義區松德路300號7樓","TEL":"02-27599741","COUNTYNAME":"台北市","TOWNNAME":"信義區","MARKTYPE":"991","Class":"1"}},{"type":"Feature","id":9229,"geometry":{"type":"Point","coordinates":[121.57626910348171,25.048194231888942]},"properties":{"OBJECTID":9229,"LANDMARKID":"6300000000123","LANDMARKCO":"103","LANDMARKNA":"台北市政府勞工局松山就業服務站","LANDMARKAD":"6300002","ADDRESS":"台北市信義區松隆路290號2樓","TEL":"02-27608449","COUNTYNAME":"台北市","TOWNNAME":"信義區","MARKTYPE":"991","Class":"1"}},{"type":"Feature","id":9230,"geometry":{"type":"Point","coordinates":[121.56216252023462,25.04149176224189]},"properties":{"OBJECTID":9230,"LANDMARKID":"6300000000179","LANDMARKCO":"104","LANDMARKNA":"財政部財稅資料中心","LANDMARKAD":"6300002","ADDRESS":"台北市信義區忠孝東路四段547號1樓","TEL":"02-27631833","COUNTYNAME":"台北市","TOWNNAME":"信義區","MARKTYPE":"991","Class":"1"}},{"type":"Feature","id":9231,"geometry":{"type":"Point","coordinates":[121.56379510110303,25.037513799368]},"properties":{"OBJECTID":9231,"LANDMARKID":"6300000000121","LANDMARKCO":"103","LANDMARKNA":"台北市政府社會局","LANDMARKAD":"6300002","ADDRESS":"台北市信義區市府路1號","TEL":"02-27208889","COUNTYNAME":"台北市","TOWNNAME":"信義區","MARKTYPE":"991","Class":"1"}},{"type":"Feature","id":9232,"geometry":{"type":"Point","coordinates":[121.56401026257166,25.026571646392267]},"properties":{"OBJECTID":9232,"LANDMARKID":"6300000000223","LANDMARKCO":"107","LANDMARKNA":"台北市政府警察局吳興街派出所","LANDMARKAD":"6300002","ADDRESS":"台北市信義區吳興街262號","TEL":"02-27398997","COUNTYNAME":"台北市","TOWNNAME":"信義區","MARKTYPE":"991","Class":"1"}},{"type":"Feature","id":9233,"geometry":{"type":"Point","coordinates":[121.57616499025534,25.038557639826415]},"properties":{"OBJECTID":9233,"LANDMARKID":"6300000000092","LANDMARKCO":"101","LANDMARKNA":"台北榮民技術勞務中心","LANDMARKAD":"6300002","ADDRESS":"台北市信義區松德路66號","TEL":"02-27255500?","COUNTYNAME":"台北市","TOWNNAME":"信義區","MARKTYPE":"991","Class":"1"}},{"type":"Feature","id":9234,"geometry":{"type":"Point","coordinates":[121.56027389611164,25.039977917077518]},"properties":{"OBJECTID":9234,"LANDMARKID":"6300000000780","LANDMARKCO":"205","LANDMARKNA":"國父紀念館","LANDMARKAD":"6300002","ADDRESS":"台北市仁愛路四段505號","TEL":" ","COUNTYNAME":"台北市","TOWNNAME":"信義區","MARKTYPE":"992","Class":"2"}},{"type":"Feature","id":9235,"geometry":{"type":"Point","coordinates":[121.5584675455238,25.031568054520541]},"properties":{"OBJECTID":9235,"LANDMARKID":"6300000000781","LANDMARKCO":"205","LANDMARKNA":"余承堯紀念館(未對外開放)","LANDMARKAD":"6300002","ADDRESS":"台北市信義區基隆路二段48號12樓","TEL":" ","COUNTYNAME":"台北市","TOWNNAME":"信義區","MARKTYPE":"992","Class":"2"}},{"type":"Feature","id":9236,"geometry":{"type":"Point","coordinates":[121.57759792069906,25.043001053548263]},"properties":{"OBJECTID":9236,"LANDMARKID":"6300000000764","LANDMARKCO":"204","LANDMARKNA":"台北市立圖書館永春分館","LANDMARKAD":"6300002","ADDRESS":"台北市信義區松山路294號3-4樓","TEL":" ","COUNTYNAME":"台北市","TOWNNAME":"信義區","MARKTYPE":"992","Class":"2"}},{"type":"Feature","id":9237,"geometry":{"type":"Point","coordinates":[121.56850956075523,25.022969698233645]},"properties":{"OBJECTID":9237,"LANDMARKID":"6300000000765","LANDMARKCO":"204","LANDMARKNA":"台北市立圖書館新興民眾閱覽室","LANDMARKAD":"6300002","ADDRESS":"台北市信義區吳興街506巷21號3樓","TEL":" ","COUNTYNAME":"台北市","TOWNNAME":"信義區","MARKTYPE":"992","Class":"2"}},{"type":"Feature","id":9238,"geometry":{"type":"Point","coordinates":[121.57685585066784,25.048297311676542]},"properties":{"OBJECTID":9238,"LANDMARKID":"6300000000831","LANDMARKCO":"207","LANDMARKNA":"台北佛光緣美術館","LANDMARKAD":"6300002","ADDRESS":"台北市松隆路327號10樓之1","TEL":" ","COUNTYNAME":"台北市","TOWNNAME":"信義區","MARKTYPE":"992","Class":"2"}},{"type":"Feature","id":9239,"geometry":{"type":"Point","coordinates":[121.56793778794454,25.028604744198915]},"properties":{"OBJECTID":9239,"LANDMARKID":"6300000000522","LANDMARKCO":"203","LANDMARKNA":"市立信義國中","LANDMARKAD":"6300002","ADDRESS":"台北市信義區莊敬路423巷8弄1號","TEL":"02-27236771","COUNTYNAME":"台北市","TOWNNAME":"信義區","MARKTYPE":"992","Class":"2"}},{"type":"Feature","id":9240,"geometry":{"type":"Point","coordinates":[121.57928042275591,25.043216181005754]},"properties":{"OBJECTID":9240,"LANDMARKID":"6300000000523","LANDMARKCO":"203","LANDMARKNA":"市立永吉國小","LANDMARKAD":"6300002","ADDRESS":"台北市信義區永春里松山路287巷5號","TEL":"02-27972590","COUNTYNAME":"台北市","TOWNNAME":"信義區","MARKTYPE":"992","Class":"2"}},{"type":"Feature","id":9241,"geometry":{"type":"Point","coordinates":[121.56965008888534,25.047321070852913]},"properties":{"OBJECTID":9241,"LANDMARKID":"6300000000524","LANDMARKCO":"203","LANDMARKNA":"市立興雅國小","LANDMARKAD":"6300002","ADDRESS":"台北市信義區雅祥里基隆路一段35巷47號","TEL":"02-27675181","COUNTYNAME":"台北市","TOWNNAME":"信義區","MARKTYPE":"992","Class":"2"}},{"type":"Feature","id":9242,"geometry":{"type":"Point","coordinates":[121.58349125715833,25.042624872616734]},"properties":{"OBJECTID":9242,"LANDMARKID":"6300000000480","LANDMARKCO":"202","LANDMARKNA":"私立祐德高中","LANDMARKAD":"6300002","ADDRESS":"台北市信義區忠孝東路五段790巷27號","TEL":"02-27278280","COUNTYNAME":"台北市","TOWNNAME":"信義區","MARKTYPE":"992","Class":"2"}},{"type":"Feature","id":9243,"geometry":{"type":"Point","coordinates":[121.57867772098174,25.032707739102378]},"properties":{"OBJECTID":9243,"LANDMARKID":"6300000000481","LANDMARKCO":"202","LANDMARKNA":"市立永春高中","LANDMARKAD":"6300002","ADDRESS":"台北市信義區松山路654號","TEL":"02-27272983","COUNTYNAME":"台北市","TOWNNAME":"信義區","MARKTYPE":"992","Class":"2"}},{"type":"Feature","id":9244,"geometry":{"type":"Point","coordinates":[121.56584022699334,25.043871296809904]},"properties":{"OBJECTID":9244,"LANDMARKID":"6300000000482","LANDMARKCO":"202","LANDMARKNA":"市立松山高中","LANDMARKAD":"6300002","ADDRESS":"台北市信義區基隆路一段156號","TEL":"02-27535968","COUNTYNAME":"台北市","TOWNNAME":"信義區","MARKTYPE":"992","Class":"2"}},{"type":"Feature","id":9245,"geometry":{"type":"Point","coordinates":[121.57205054305714,25.039843222617339]},"properties":{"OBJECTID":9245,"LANDMARKID":"6300000000483","LANDMARKCO":"202","LANDMARKNA":"市立松山工農","LANDMARKAD":"6300002","ADDRESS":"台北市信義區忠孝東路五段236巷15號","TEL":"02-27226616","COUNTYNAME":"台北市","TOWNNAME":"信義區","MARKTYPE":"992","Class":"2"}},{"type":"Feature","id":9246,"geometry":{"type":"Point","coordinates":[121.58349125715833,25.042624872616734]},"properties":{"OBJECTID":9246,"LANDMARKID":"6300000000484","LANDMARKCO":"202","LANDMARKNA":"私立協和工商","LANDMARKAD":"6300002","ADDRESS":"台北市信義區忠孝東路五段790巷27號","TEL":"02-27265775","COUNTYNAME":"台北市","TOWNNAME":"信義區","MARKTYPE":"992","Class":"2"}},{"type":"Feature","id":9247,"geometry":{"type":"Point","coordinates":[121.58017624027138,25.034822145155623]},"properties":{"OBJECTID":9247,"LANDMARKID":"6300000000485","LANDMARKCO":"202","LANDMARKNA":"市立松山家商","LANDMARKAD":"6300002","ADDRESS":"台北市信義區松山路655號","TEL":"02-27261118","COUNTYNAME":"台北市","TOWNNAME":"信義區","MARKTYPE":"992","Class":"2"}},{"type":"Feature","id":9248,"geometry":{"type":"Point","coordinates":[121.57415077829864,25.048330819249102]},"properties":{"OBJECTID":9248,"LANDMARKID":"6300000000486","LANDMARKCO":"202","LANDMARKNA":"市立河濱高中(籌)","LANDMARKAD":"6300002","ADDRESS":"[110]台北市信義區松隆路161號","TEL":"02-27671739","COUNTYNAME":"台北市","TOWNNAME":"信義區","MARKTYPE":"992","Class":"2"}},{"type":"Feature","id":9249,"geometry":{"type":"Point","coordinates":[121.5723612932053,25.036438888918642]},"properties":{"OBJECTID":9249,"LANDMARKID":"6300000000538","LANDMARKCO":"203","LANDMARKNA":"市立興雅國中","LANDMARKAD":"6300002","ADDRESS":"台北市信義區松德路168巷15號","TEL":"02-27232771","COUNTYNAME":"台北市","TOWNNAME":"信義區","MARKTYPE":"992","Class":"2"}},{"type":"Feature","id":9250,"geometry":{"type":"Point","coordinates":[121.57415077829864,25.048330819249102]},"properties":{"OBJECTID":9250,"LANDMARKID":"6300000000539","LANDMARKCO":"203","LANDMARKNA":"市立永吉國中","LANDMARKAD":"6300002","ADDRESS":"台北市信義區松隆路161號","TEL":"02-27649066","COUNTYNAME":"台北市","TOWNNAME":"信義區","MARKTYPE":"992","Class":"2"}},{"type":"Feature","id":9251,"geometry":{"type":"Point","coordinates":[121.58533723574445,25.037062627744067]},"properties":{"OBJECTID":9251,"LANDMARKID":"6300000000540","LANDMARKCO":"203","LANDMARKNA":"市立_公國中","LANDMARKAD":"6300002","ADDRESS":"台北市信義區福德街221巷15號","TEL":"02-27261481","COUNTYNAME":"台北市","TOWNNAME":"信義區","MARKTYPE":"992","Class":"2"}},{"type":"Feature","id":9252,"geometry":{"type":"Point","coordinates":[121.55783067236986,25.040235076035099]},"properties":{"OBJECTID":9252,"LANDMARKID":"6300000000541","LANDMARKCO":"203","LANDMARKNA":"市立光復國小","LANDMARKAD":"6300002","ADDRESS":"台北市信義區興隆里光復南路271號","TEL":"02-27585076","COUNTYNAME":"台北市","TOWNNAME":"信義區","MARKTYPE":"992","Class":"2"}},{"type":"Feature","id":9253,"geometry":{"type":"Point","coordinates":[121.57895451306612,25.044692523374781]},"properties":{"OBJECTID":9253,"LANDMARKID":"6300000000542","LANDMARKCO":"203","LANDMARKNA":"市立永春國小","LANDMARKAD":"6300002","ADDRESS":"台北市信義區永春里松山路225巷48號","TEL":"02-27641314","COUNTYNAME":"台北市","TOWNNAME":"信義區","MARKTYPE":"992","Class":"2"}},{"type":"Feature","id":9254,"geometry":{"type":"Point","coordinates":[121.56859940578944,25.026010063954363]},"properties":{"OBJECTID":9254,"LANDMARKID":"6300000000543","LANDMARKCO":"203","LANDMARKNA":"市立吳興國小","LANDMARKAD":"6300002","ADDRESS":"台北市信義區松仁路226號","TEL":"02-27202384","COUNTYNAME":"台北市","TOWNNAME":"信義區","MARKTYPE":"992","Class":"2"}},{"type":"Feature","id":9255,"geometry":{"type":"Point","coordinates":[121.57114027169582,25.036437613876117]},"properties":{"OBJECTID":9255,"LANDMARKID":"6300000000544","LANDMARKCO":"203","LANDMARKNA":"市立博愛國小","LANDMARKAD":"6300002","ADDRESS":"台北市信義區22鄰松仁路95巷20號","TEL":"02-27239630","COUNTYNAME":"台北市","TOWNNAME":"信義區","MARKTYPE":"992","Class":"2"}},{"type":"Feature","id":9256,"geometry":{"type":"Point","coordinates":[121.55804027836716,25.029711305500015]},"properties":{"OBJECTID":9256,"LANDMARKID":"6300000000545","LANDMARKCO":"203","LANDMARKNA":"市立三興國小","LANDMARKAD":"6300002","ADDRESS":"台北市信義區景聯里基隆路二段99號","TEL":"02-27385488","COUNTYNAME":"台北市","TOWNNAME":"信義區","MARKTYPE":"992","Class":"2"}},{"type":"Feature","id":9257,"geometry":{"type":"Point","coordinates":[121.56272314435637,25.026613775304419]},"properties":{"OBJECTID":9257,"LANDMARKID":"6300000000387","LANDMARKCO":"201","LANDMARKNA":"台北醫學大學","LANDMARKAD":"6300002","ADDRESS":"台北市信義區吳興街250號","TEL":"02-27361661","COUNTYNAME":"台北市","TOWNNAME":"信義區","MARKTYPE":"992","Class":"2"}},{"type":"Feature","id":9258,"geometry":{"type":"Point","coordinates":[121.56389924550558,25.031093273789111]},"properties":{"OBJECTID":9258,"LANDMARKID":"6300000000546","LANDMARKCO":"203","LANDMARKNA":"市立信義國小","LANDMARKAD":"6300002","ADDRESS":"台北市信義區松勸街60號","TEL":"02-27204005","COUNTYNAME":"台北市","TOWNNAME":"信義區","MARKTYPE":"992","Class":"2"}},{"type":"Feature","id":9259,"geometry":{"type":"Point","coordinates":[121.58701334109051,25.038674125308596]},"properties":{"OBJECTID":9259,"LANDMARKID":"6300000000547","LANDMARKCO":"203","LANDMARKNA":"市立福德國小","LANDMARKAD":"6300002","ADDRESS":"台北市信義區中行里褔德街253號","TEL":"02-27277992","COUNTYNAME":"台北市","TOWNNAME":"信義區","MARKTYPE":"992","Class":"2"}},{"type":"Feature","id":9260,"geometry":{"type":"Point","coordinates":[121.56742937167367,25.034080722822178]},"properties":{"OBJECTID":9260,"LANDMARKID":"6300000001873","LANDMARKCO":"303","LANDMARKNA":"台北世界貿易中心展覽二館停車場","LANDMARKAD":"6300002","ADDRESS":"台北市信義區松廉路1號","TEL":" ","COUNTYNAME":"台北市","TOWNNAME":"信義區","MARKTYPE":"993","Class":"303"}},{"type":"Feature","id":9261,"geometry":{"type":"Point","coordinates":[121.58199441586909,25.043878248356744]},"properties":{"OBJECTID":9261,"LANDMARKID":"6300000001993","LANDMARKCO":"306","LANDMARKNA":"後山埤捷運站-出口2","LANDMARKAD":"6300002","ADDRESS":" ","TEL":" ","COUNTYNAME":"台北市","TOWNNAME":"信義區","MARKTYPE":"993","Class":"306"}},{"type":"Feature","id":9262,"geometry":{"type":"Point","coordinates":[121.58160126444265,25.044338730476859]},"properties":{"OBJECTID":9262,"LANDMARKID":"6300000001994","LANDMARKCO":"306","LANDMARKNA":"後山埤捷運站-出口1","LANDMARKAD":"6300002","ADDRESS":" ","TEL":" ","COUNTYNAME":"台北市","TOWNNAME":"信義區","MARKTYPE":"993","Class":"306"}},{"type":"Feature","id":9263,"geometry":{"type":"Point","coordinates":[121.57439275798522,25.041047880443426]},"properties":{"OBJECTID":9263,"LANDMARKID":"6300000001995","LANDMARKCO":"306","LANDMARKNA":"永春捷運站-出口1","LANDMARKAD":"6300002","ADDRESS":" ","TEL":" ","COUNTYNAME":"台北市","TOWNNAME":"信義區","MARKTYPE":"993","Class":"306"}},{"type":"Feature","id":9264,"geometry":{"type":"Point","coordinates":[121.57482392750657,25.040592696647995]},"properties":{"OBJECTID":9264,"LANDMARKID":"6300000001996","LANDMARKCO":"306","LANDMARKNA":"永春捷運站-出口2","LANDMARKAD":"6300002","ADDRESS":" ","TEL":" ","COUNTYNAME":"台北市","TOWNNAME":"信義區","MARKTYPE":"993","Class":"306"}},{"type":"Feature","id":9265,"geometry":{"type":"Point","coordinates":[121.57616534532376,25.04071720149032]},"properties":{"OBJECTID":9265,"LANDMARKID":"6300000001997","LANDMARKCO":"306","LANDMARKNA":"永春捷運站-出口3","LANDMARKAD":"6300002","ADDRESS":" ","TEL":" ","COUNTYNAME":"台北市","TOWNNAME":"信義區","MARKTYPE":"993","Class":"306"}},{"type":"Feature","id":9266,"geometry":{"type":"Point","coordinates":[121.57669644330898,25.040706182569981]},"properties":{"OBJECTID":9266,"LANDMARKID":"6300000001998","LANDMARKCO":"306","LANDMARKNA":"永春捷運站-出口4","LANDMARKAD":"6300002","ADDRESS":" ","TEL":" ","COUNTYNAME":"台北市","TOWNNAME":"信義區","MARKTYPE":"993","Class":"306"}},{"type":"Feature","id":9267,"geometry":{"type":"Point","coordinates":[121.57645746663992,25.041063307535659]},"properties":{"OBJECTID":9267,"LANDMARKID":"6300000001999","LANDMARKCO":"306","LANDMARKNA":"永春捷運站-出口5","LANDMARKAD":"6300002","ADDRESS":" ","TEL":" ","COUNTYNAME":"台北市","TOWNNAME":"信義區","MARKTYPE":"993","Class":"306"}},{"type":"Feature","id":9268,"geometry":{"type":"Point","coordinates":[121.56557896355964,25.04137435116559]},"properties":{"OBJECTID":9268,"LANDMARKID":"6300000002000","LANDMARKCO":"306","LANDMARKNA":"市政府捷運站-出口1","LANDMARKAD":"6300002","ADDRESS":" ","TEL":" ","COUNTYNAME":"台北市","TOWNNAME":"信義區","MARKTYPE":"993","Class":"306"}},{"type":"Feature","id":9269,"geometry":{"type":"Point","coordinates":[121.56508078430433,25.040959046081266]},"properties":{"OBJECTID":9269,"LANDMARKID":"6300000002001","LANDMARKCO":"306","LANDMARKNA":"市政府捷運站-出口2","LANDMARKAD":"6300002","ADDRESS":" ","TEL":" ","COUNTYNAME":"台北市","TOWNNAME":"信義區","MARKTYPE":"993","Class":"306"}},{"type":"Feature","id":9270,"geometry":{"type":"Point","coordinates":[121.56723604752642,25.040884382740405]},"properties":{"OBJECTID":9270,"LANDMARKID":"6300000002002","LANDMARKCO":"306","LANDMARKNA":"市政府捷運站-出口3","LANDMARKAD":"6300002","ADDRESS":" ","TEL":" ","COUNTYNAME":"台北市","TOWNNAME":"信義區","MARKTYPE":"993","Class":"306"}},{"type":"Feature","id":9271,"geometry":{"type":"Point","coordinates":[121.56726676254436,25.04123756455202]},"properties":{"OBJECTID":9271,"LANDMARKID":"6300000002003","LANDMARKCO":"306","LANDMARKNA":"市政府捷運站-出口4","LANDMARKAD":"6300002","ADDRESS":" ","TEL":" ","COUNTYNAME":"台北市","TOWNNAME":"信義區","MARKTYPE":"993","Class":"306"}},{"type":"Feature","id":9272,"geometry":{"type":"Point","coordinates":[121.55797158563763,25.041129078394551]},"properties":{"OBJECTID":9272,"LANDMARKID":"6300000002004","LANDMARKCO":"306","LANDMARKNA":"國父紀念館捷運站-出口3","LANDMARKAD":"6300002","ADDRESS":" ","TEL":" ","COUNTYNAME":"台北市","TOWNNAME":"信義區","MARKTYPE":"993","Class":"306"}},{"type":"Feature","id":9273,"geometry":{"type":"Point","coordinates":[121.55870898221012,25.041124031439953]},"properties":{"OBJECTID":9273,"LANDMARKID":"6300000002005","LANDMARKCO":"306","LANDMARKNA":"國父紀念館捷運站-出口4","LANDMARKAD":"6300002","ADDRESS":" ","TEL":" ","COUNTYNAME":"台北市","TOWNNAME":"信義區","MARKTYPE":"993","Class":"306"}},{"type":"Feature","id":9274,"geometry":{"type":"Point","coordinates":[121.55799112106413,25.041483451019825]},"properties":{"OBJECTID":9274,"LANDMARKID":"6300000002006","LANDMARKCO":"306","LANDMARKNA":"國父紀念館捷運站-出口5","LANDMARKAD":"6300002","ADDRESS":" ","TEL":" ","COUNTYNAME":"台北市","TOWNNAME":"信義區","MARKTYPE":"993","Class":"306"}},{"type":"Feature","id":9275,"geometry":{"type":"Point","coordinates":[121.57085319041627,25.041136147442653]},"properties":{"OBJECTID":9275,"LANDMARKID":"6300000000840","LANDMARKCO":"302","LANDMARKNA":"大有巴士","LANDMARKAD":"6300002","ADDRESS":"110台北市信義區忠孝東路5段261號","TEL":"|","COUNTYNAME":"台北市","TOWNNAME":"信義區","MARKTYPE":"993","Class":"302"}},{"type":"Feature","id":9276,"geometry":{"type":"Point","coordinates":[121.56888384297419,25.027538331251314]},"properties":{"OBJECTID":9276,"LANDMARKID":"6300000000841","LANDMARKCO":"302","LANDMARKNA":"大南汽車客運莊敬站","LANDMARKAD":"6300002","ADDRESS":"台北市信義區信義路五段150巷221號","TEL":" ","COUNTYNAME":"台北市","TOWNNAME":"信義區","MARKTYPE":"993","Class":"302"}},{"type":"Feature","id":9277,"geometry":{"type":"Point","coordinates":[121.55851636217486,25.039336173007371]},"properties":{"OBJECTID":9277,"LANDMARKID":"6300000001784","LANDMARKCO":"303","LANDMARKNA":"國父紀念館停車場","LANDMARKAD":"6300002","ADDRESS":" ","TEL":" ","COUNTYNAME":"台北市","TOWNNAME":"信義區","MARKTYPE":"993","Class":"303"}},{"type":"Feature","id":9278,"geometry":{"type":"Point","coordinates":[121.56070001465147,25.034045079400794]},"properties":{"OBJECTID":9278,"LANDMARKID":"6300000001785","LANDMARKCO":"303","LANDMARKNA":"台北國際會議中心地下停車場","LANDMARKAD":"6300002","ADDRESS":" ","TEL":"02-27232535","COUNTYNAME":"台北市","TOWNNAME":"信義區","MARKTYPE":"993","Class":"303"}},{"type":"Feature","id":9279,"geometry":{"type":"Point","coordinates":[121.56097737656566,25.032443812196938]},"properties":{"OBJECTID":9279,"LANDMARKID":"6300000001786","LANDMARKCO":"303","LANDMARKNA":"莊敬路停車場","LANDMARKAD":"6300002","ADDRESS":" ","TEL":" ","COUNTYNAME":"台北市","TOWNNAME":"信義區","MARKTYPE":"993","Class":"303"}},{"type":"Feature","id":9280,"geometry":{"type":"Point","coordinates":[121.56251676533969,25.039056783535937]},"properties":{"OBJECTID":9280,"LANDMARKID":"6300000001787","LANDMARKCO":"303","LANDMARKNA":"府前地下停車場","LANDMARKAD":"6300002","ADDRESS":" ","TEL":" ","COUNTYNAME":"台北市","TOWNNAME":"信義區","MARKTYPE":"993","Class":"303"}},{"type":"Feature","id":9281,"geometry":{"type":"Point","coordinates":[121.56308257453119,25.03622809272327]},"properties":{"OBJECTID":9281,"LANDMARKID":"6300000001788","LANDMARKCO":"303","LANDMARKNA":"府前廣場地下停車場","LANDMARKAD":"6300002","ADDRESS":" ","TEL":" ","COUNTYNAME":"台北市","TOWNNAME":"信義區","MARKTYPE":"993","Class":"303"}},{"type":"Feature","id":9282,"geometry":{"type":"Point","coordinates":[121.56279543569704,25.025327245461266]},"properties":{"OBJECTID":9282,"LANDMARKID":"6300000001789","LANDMARKCO":"303","LANDMARKNA":"北醫附設醫院第二停車場","LANDMARKAD":"6300002","ADDRESS":" ","TEL":" ","COUNTYNAME":"台北市","TOWNNAME":"信義區","MARKTYPE":"993","Class":"303"}},{"type":"Feature","id":9283,"geometry":{"type":"Point","coordinates":[121.56381307342494,25.026844434518885]},"properties":{"OBJECTID":9283,"LANDMARKID":"6300000001790","LANDMARKCO":"303","LANDMARKNA":"北醫附設醫院第一停車場","LANDMARKAD":"6300002","ADDRESS":" ","TEL":" ","COUNTYNAME":"台北市","TOWNNAME":"信義區","MARKTYPE":"993","Class":"303"}},{"type":"Feature","id":9284,"geometry":{"type":"Point","coordinates":[121.56332941860478,25.024907577984983]},"properties":{"OBJECTID":9284,"LANDMARKID":"6300000001791","LANDMARKCO":"303","LANDMARKNA":"臨時平面停車場","LANDMARKAD":"6300002","ADDRESS":" ","TEL":" ","COUNTYNAME":"台北市","TOWNNAME":"信義區","MARKTYPE":"993","Class":"303"}},{"type":"Feature","id":9285,"geometry":{"type":"Point","coordinates":[121.5640210631,25.036439589181079]},"properties":{"OBJECTID":9285,"LANDMARKID":"6300000001792","LANDMARKCO":"303","LANDMARKNA":"台北市政府府前停車場","LANDMARKAD":"6300002","ADDRESS":" ","TEL":"02-27236456","COUNTYNAME":"台北市","TOWNNAME":"信義區","MARKTYPE":"993","Class":"303"}},{"type":"Feature","id":9286,"geometry":{"type":"Point","coordinates":[121.56382120422704,25.044059801760525]},"properties":{"OBJECTID":9286,"LANDMARKID":"6300000001793","LANDMARKCO":"303","LANDMARKNA":"松山高中地下停車場","LANDMARKAD":"6300002","ADDRESS":" ","TEL":"02-27685492","COUNTYNAME":"台北市","TOWNNAME":"信義區","MARKTYPE":"993","Class":"303"}},{"type":"Feature","id":9287,"geometry":{"type":"Point","coordinates":[121.56505507904392,25.038862196740894]},"properties":{"OBJECTID":9287,"LANDMARKID":"6300000001794","LANDMARKCO":"303","LANDMARKNA":"台北市政府府前地下停車場","LANDMARKAD":"6300002","ADDRESS":" ","TEL":" ","COUNTYNAME":"台北市","TOWNNAME":"信義區","MARKTYPE":"993","Class":"303"}},{"type":"Feature","id":9288,"geometry":{"type":"Point","coordinates":[121.56604469845958,25.028700370227305]},"properties":{"OBJECTID":9288,"LANDMARKID":"6300000001795","LANDMARKCO":"303","LANDMARKNA":"信義國中停車場","LANDMARKAD":"6300002","ADDRESS":" ","TEL":"02-27206823","COUNTYNAME":"台北市","TOWNNAME":"信義區","MARKTYPE":"993","Class":"303"}},{"type":"Feature","id":9289,"geometry":{"type":"Point","coordinates":[121.56569669790883,25.041617798382642]},"properties":{"OBJECTID":9289,"LANDMARKID":"6300000001796","LANDMARKCO":"303","LANDMARKNA":"忠基停車場","LANDMARKAD":"6300002","ADDRESS":"台北市信義區忠孝東路五段15巷15號","TEL":" ","COUNTYNAME":"台北市","TOWNNAME":"信義區","MARKTYPE":"993","Class":"303"}},{"type":"Feature","id":9290,"geometry":{"type":"Point","coordinates":[121.56716052662493,25.033351193382526]},"properties":{"OBJECTID":9290,"LANDMARKID":"6300000001797","LANDMARKCO":"303","LANDMARKNA":"信義廣場地下停車場","LANDMARKAD":"6300002","ADDRESS":" ","TEL":"02-87800133","COUNTYNAME":"台北市","TOWNNAME":"信義區","MARKTYPE":"993","Class":"303"}},{"type":"Feature","id":9291,"geometry":{"type":"Point","coordinates":[121.56616158536674,25.037981456796647]},"properties":{"OBJECTID":9291,"LANDMARKID":"6300000001798","LANDMARKCO":"303","LANDMARKNA":"松濤廣場停車場","LANDMARKAD":"6300002","ADDRESS":" ","TEL":" ","COUNTYNAME":"台北市","TOWNNAME":"信義區","MARKTYPE":"993","Class":"303"}},{"type":"Feature","id":9292,"geometry":{"type":"Point","coordinates":[121.56692320891059,25.038855099953398]},"properties":{"OBJECTID":9292,"LANDMARKID":"6300000001799","LANDMARKCO":"303","LANDMARKNA":"新光三越信義二館停車場","LANDMARKAD":"6300002","ADDRESS":"台北市信義區松高路12號B3樓","TEL":" ","COUNTYNAME":"台北市","TOWNNAME":"信義區","MARKTYPE":"993","Class":"303"}},{"type":"Feature","id":9293,"geometry":{"type":"Point","coordinates":[121.56750277112148,25.035015578367801]},"properties":{"OBJECTID":9293,"LANDMARKID":"6300000001800","LANDMARKCO":"303","LANDMARKNA":"華納停車場A16","LANDMARKAD":"6300002","ADDRESS":" ","TEL":"02-87805566","COUNTYNAME":"台北市","TOWNNAME":"信義區","MARKTYPE":"993","Class":"303"}},{"type":"Feature","id":9294,"geometry":{"type":"Point","coordinates":[121.5676998852703,25.036614839308623]},"properties":{"OBJECTID":9294,"LANDMARKID":"6300000001801","LANDMARKCO":"303","LANDMARKNA":"A12平面停車場","LANDMARKAD":"6300002","ADDRESS":" ","TEL":" ","COUNTYNAME":"台北市","TOWNNAME":"信義區","MARKTYPE":"993","Class":"303"}},{"type":"Feature","id":9295,"geometry":{"type":"Point","coordinates":[121.56770959819704,25.03768669007755]},"properties":{"OBJECTID":9295,"LANDMARKID":"6300000001802","LANDMARKCO":"303","LANDMARKNA":"機車專用停車場","LANDMARKAD":"6300002","ADDRESS":" ","TEL":" ","COUNTYNAME":"台北市","TOWNNAME":"信義區","MARKTYPE":"993","Class":"303"}},{"type":"Feature","id":9296,"geometry":{"type":"Point","coordinates":[121.56770413343536,25.037886342817149]},"properties":{"OBJECTID":9296,"LANDMARKID":"6300000001803","LANDMARKCO":"303","LANDMARKNA":"信義A12平面停車場","LANDMARKAD":"6300002","ADDRESS":" ","TEL":" ","COUNTYNAME":"台北市","TOWNNAME":"信義區","MARKTYPE":"993","Class":"303"}},{"type":"Feature","id":9297,"geometry":{"type":"Point","coordinates":[121.56791775888424,25.035670321669834]},"properties":{"OBJECTID":9297,"LANDMARKID":"6300000001804","LANDMARKCO":"303","LANDMARKNA":"NEO19停車場","LANDMARKAD":"6300002","ADDRESS":" ","TEL":" ","COUNTYNAME":"台北市","TOWNNAME":"信義區","MARKTYPE":"993","Class":"303"}},{"type":"Feature","id":9298,"geometry":{"type":"Point","coordinates":[121.56962341565476,25.037238262826154]},"properties":{"OBJECTID":9298,"LANDMARKID":"6300000001805","LANDMARKCO":"303","LANDMARKNA":"一號交易廣場計時停車場","LANDMARKAD":"6300002","ADDRESS":" ","TEL":" ","COUNTYNAME":"台北市","TOWNNAME":"信義區","MARKTYPE":"993","Class":"303"}},{"type":"Feature","id":9299,"geometry":{"type":"Point","coordinates":[121.56866852491785,25.038827450505138]},"properties":{"OBJECTID":9299,"LANDMARKID":"6300000001806","LANDMARKCO":"303","LANDMARKNA":"國泰金融大樓停車場","LANDMARKAD":"6300002","ADDRESS":" ","TEL":" ","COUNTYNAME":"台北市","TOWNNAME":"信義區","MARKTYPE":"993","Class":"303"}},{"type":"Feature","id":9300,"geometry":{"type":"Point","coordinates":[121.56932812911549,25.036283611052081]},"properties":{"OBJECTID":9300,"LANDMARKID":"6300000001807","LANDMARKCO":"303","LANDMARKNA":"群益金融大樓計時停車場","LANDMARKAD":"6300002","ADDRESS":" ","TEL":" ","COUNTYNAME":"台北市","TOWNNAME":"信義區","MARKTYPE":"993","Class":"303"}},{"type":"Feature","id":9301,"geometry":{"type":"Point","coordinates":[121.57005942138731,25.039178849778924]},"properties":{"OBJECTID":9301,"LANDMARKID":"6300000001808","LANDMARKCO":"303","LANDMARKNA":"松高路停車場","LANDMARKAD":"6300002","ADDRESS":" ","TEL":" ","COUNTYNAME":"台北市","TOWNNAME":"信義區","MARKTYPE":"993","Class":"303"}},{"type":"Feature","id":9302,"geometry":{"type":"Point","coordinates":[121.57000092890547,25.023938965231633]},"properties":{"OBJECTID":9302,"LANDMARKID":"6300000001809","LANDMARKCO":"303","LANDMARKNA":"國華人壽信義大樓停車場","LANDMARKAD":"6300002","ADDRESS":" ","TEL":" ","COUNTYNAME":"台北市","TOWNNAME":"信義區","MARKTYPE":"993","Class":"303"}},{"type":"Feature","id":9303,"geometry":{"type":"Point","coordinates":[121.569842443713,25.038240374228632]},"properties":{"OBJECTID":9303,"LANDMARKID":"6300000001810","LANDMARKCO":"303","LANDMARKNA":"亞太會館停車場","LANDMARKAD":"6300002","ADDRESS":" ","TEL":"02-87805168","COUNTYNAME":"台北市","TOWNNAME":"信義區","MARKTYPE":"993","Class":"303"}},{"type":"Feature","id":9304,"geometry":{"type":"Point","coordinates":[121.57152053826039,25.047554125360929]},"properties":{"OBJECTID":9304,"LANDMARKID":"6300000001811","LANDMARKCO":"303","LANDMARKNA":"雅祥停車場","LANDMARKAD":"6300002","ADDRESS":" ","TEL":" ","COUNTYNAME":"台北市","TOWNNAME":"信義區","MARKTYPE":"993","Class":"303"}},{"type":"Feature","id":9305,"geometry":{"type":"Point","coordinates":[121.57357199262701,25.031551049311755]},"properties":{"OBJECTID":9305,"LANDMARKID":"6300000001812","LANDMARKCO":"303","LANDMARKNA":"松德臨時平面停車場","LANDMARKAD":"6300002","ADDRESS":" ","TEL":" ","COUNTYNAME":"台北市","TOWNNAME":"信義區","MARKTYPE":"993","Class":"303"}},{"type":"Feature","id":9306,"geometry":{"type":"Point","coordinates":[121.57321863684766,25.034546258572462]},"properties":{"OBJECTID":9306,"LANDMARKID":"6300000001813","LANDMARKCO":"303","LANDMARKNA":"私人停車場","LANDMARKAD":"6300002","ADDRESS":" ","TEL":" ","COUNTYNAME":"台北市","TOWNNAME":"信義區","MARKTYPE":"993","Class":"303"}},{"type":"Feature","id":9307,"geometry":{"type":"Point","coordinates":[121.58104588119703,25.042490180928624]},"properties":{"OBJECTID":9307,"LANDMARKID":"6300000001814","LANDMARKCO":"303","LANDMARKNA":"春光公園地下停車場","LANDMARKAD":"6300002","ADDRESS":"台北市信義區忠孝東路五段666號地下室","TEL":" ","COUNTYNAME":"台北市","TOWNNAME":"信義區","MARKTYPE":"993","Class":"303"}},{"type":"Feature","id":9308,"geometry":{"type":"Point","coordinates":[121.58565274980663,25.035386975005459]},"properties":{"OBJECTID":9308,"LANDMARKID":"6300000001815","LANDMARKCO":"303","LANDMARKNA":"華原福德拖吊保管場","LANDMARKAD":"6300002","ADDRESS":"台北市信義區福德街221巷21號","TEL":" ","COUNTYNAME":"台北市","TOWNNAME":"信義區","MARKTYPE":"993","Class":"303"}},{"type":"Feature","id":9309,"geometry":{"type":"Point","coordinates":[121.56410755899314,25.038736400515262]},"properties":{"OBJECTID":9309,"LANDMARKID":"6300000001816","LANDMARKCO":"303","LANDMARKNA":"衛生局地下停車場","LANDMARKAD":"6300002","ADDRESS":" ","TEL":" ","COUNTYNAME":"台北市","TOWNNAME":"信義區","MARKTYPE":"993","Class":"303"}},{"type":"Feature","id":9310,"geometry":{"type":"Point","coordinates":[121.56755182035016,25.038339096342607]},"properties":{"OBJECTID":9310,"LANDMARKID":"6300000001817","LANDMARKCO":"303","LANDMARKNA":"信義A10平面停車場","LANDMARKAD":"6300002","ADDRESS":" ","TEL":" ","COUNTYNAME":"台北市","TOWNNAME":"信義區","MARKTYPE":"993","Class":"303"}},{"type":"Feature","id":9311,"geometry":{"type":"Point","coordinates":[121.5743146770773,25.036674362956163]},"properties":{"OBJECTID":9311,"LANDMARKID":"6300000001818","LANDMARKCO":"303","LANDMARKNA":"民營停車場","LANDMARKAD":"6300002","ADDRESS":" ","TEL":" ","COUNTYNAME":"台北市","TOWNNAME":"信義區","MARKTYPE":"993","Class":"303"}},{"type":"Feature","id":9312,"geometry":{"type":"Point","coordinates":[121.56502345219242,25.036369634472674]},"properties":{"OBJECTID":9312,"LANDMARKID":"6300000001819","LANDMARKCO":"303","LANDMARKNA":"台北市政府地下停車場","LANDMARKAD":"6300002","ADDRESS":" ","TEL":" ","COUNTYNAME":"台北市","TOWNNAME":"信義區","MARKTYPE":"993","Class":"303"}},{"type":"Feature","id":9313,"geometry":{"type":"Point","coordinates":[121.56699015277138,25.030564632760687]},"properties":{"OBJECTID":9313,"LANDMARKID":"6300000001820","LANDMARKCO":"303","LANDMARKNA":"三張里公園地下停車場","LANDMARKAD":"6300002","ADDRESS":" ","TEL":" ","COUNTYNAME":"台北市","TOWNNAME":"信義區","MARKTYPE":"993","Class":"303"}},{"type":"Feature","id":9314,"geometry":{"type":"Point","coordinates":[121.56136177749207,25.026017567516263]},"properties":{"OBJECTID":9314,"LANDMARKID":"6300000001821","LANDMARKCO":"303","LANDMARKNA":"台北醫學大學停車場","LANDMARKAD":"6300002","ADDRESS":" ","TEL":" ","COUNTYNAME":"台北市","TOWNNAME":"信義區","MARKTYPE":"993","Class":"303"}},{"type":"Feature","id":9315,"geometry":{"type":"Point","coordinates":[121.56229062214325,25.036680430512547]},"properties":{"OBJECTID":9315,"LANDMARKID":"6300000001822","LANDMARKCO":"303","LANDMARKNA":"府前廣場地下停車場","LANDMARKAD":"6300002","ADDRESS":"台北市信義區","TEL":" ","COUNTYNAME":"台北市","TOWNNAME":"信義區","MARKTYPE":"993","Class":"303"}},{"type":"Feature","id":9316,"geometry":{"type":"Point","coordinates":[121.5662848016113,25.035476068180071]},"properties":{"OBJECTID":9316,"LANDMARKID":"6300000001823","LANDMARKCO":"303","LANDMARKNA":"台北市政府府前停車場","LANDMARKAD":"6300002","ADDRESS":"台北市信義區松壽路1號B1樓","TEL":"02-27236456","COUNTYNAME":"台北市","TOWNNAME":"信義區","MARKTYPE":"993","Class":"303"}},{"type":"Feature","id":9317,"geometry":{"type":"Point","coordinates":[121.5608651506615,25.033170563311334]},"properties":{"OBJECTID":9317,"LANDMARKID":"6300000001824","LANDMARKCO":"303","LANDMARKNA":"中興嘟嘟房停車場-世貿站","LANDMARKAD":"6300002","ADDRESS":"台北市信義路5段1號B1-B2(台北國際會議中心)","TEL":"2725-5200轉3040","COUNTYNAME":"台北市","TOWNNAME":"信義區","MARKTYPE":"993","Class":"303"}},{"type":"Feature","id":9318,"geometry":{"type":"Point","coordinates":[121.55787580455276,25.033269573888479]},"properties":{"OBJECTID":9318,"LANDMARKID":"6300000001825","LANDMARKCO":"303","LANDMARKNA":"中興嘟嘟房停車場-博客加盟-信義站","LANDMARKAD":"6300002","ADDRESS":"台北市信義路4段375號B1","TEL":"2345-7486","COUNTYNAME":"台北市","TOWNNAME":"信義區","MARKTYPE":"993","Class":"303"}},{"type":"Feature","id":9319,"geometry":{"type":"Point","coordinates":[121.56815525098398,25.037158974672749]},"properties":{"OBJECTID":9319,"LANDMARKID":"6300000001826","LANDMARKCO":"303","LANDMARKNA":"1號交易廣場計時停車場","LANDMARKAD":"6300002","ADDRESS":"台北市信義區松仁路89號B3","TEL":" ","COUNTYNAME":"台北市","TOWNNAME":"信義區","MARKTYPE":"993","Class":"303"}},{"type":"Feature","id":9320,"geometry":{"type":"Point","coordinates":[121.56529060777727,25.035338444220198]},"properties":{"OBJECTID":9320,"LANDMARKID":"6300000001827","LANDMARKCO":"303","LANDMARKNA":"A21平面停車場","LANDMARKAD":"6300002","ADDRESS":"台北市信義區","TEL":" ","COUNTYNAME":"台北市","TOWNNAME":"信義區","MARKTYPE":"993","Class":"303"}},{"type":"Feature","id":9321,"geometry":{"type":"Point","coordinates":[121.56822594525741,25.035569935204929]},"properties":{"OBJECTID":9321,"LANDMARKID":"6300000001828","LANDMARKCO":"303","LANDMARKNA":"信義B5平面停車場","LANDMARKAD":"6300002","ADDRESS":"台北市信義區松仁路與松壽路口","TEL":" ","COUNTYNAME":"台北市","TOWNNAME":"信義區","MARKTYPE":"993","Class":"303"}},{"type":"Feature","id":9322,"geometry":{"type":"Point","coordinates":[121.58047813265593,25.045636910813503]},"properties":{"OBJECTID":9322,"LANDMARKID":"6300000001829","LANDMARKCO":"303","LANDMARKNA":"中坡公園地下停車場","LANDMARKAD":"6300002","ADDRESS":"台北市信義區中坡北路57號","TEL":" ","COUNTYNAME":"台北市","TOWNNAME":"信義區","MARKTYPE":"993","Class":"303"}},{"type":"Feature","id":9323,"geometry":{"type":"Point","coordinates":[121.56088355388238,25.033168121283218]},"properties":{"OBJECTID":9323,"LANDMARKID":"6300000001830","LANDMARKCO":"303","LANDMARKNA":"台北世界貿易中心展覽大樓停車場","LANDMARKAD":"6300002","ADDRESS":"台北市信義區信義路五段5號B1","TEL":" ","COUNTYNAME":"台北市","TOWNNAME":"信義區","MARKTYPE":"993","Class":"303"}},{"type":"Feature","id":9324,"geometry":{"type":"Point","coordinates":[121.56113133024746,25.034260822808491]},"properties":{"OBJECTID":9324,"LANDMARKID":"6300000001831","LANDMARKCO":"303","LANDMARKNA":"台北世界貿易中心停車場","LANDMARKAD":"6300002","ADDRESS":"台北市信義區基隆路一段333號","TEL":" ","COUNTYNAME":"台北市","TOWNNAME":"信義區","MARKTYPE":"993","Class":"303"}},{"type":"Feature","id":9325,"geometry":{"type":"Point","coordinates":[121.56237311410318,25.033150255533691]},"properties":{"OBJECTID":9325,"LANDMARKID":"6300000001832","LANDMARKCO":"303","LANDMARKNA":"台北國際會議中心停車場","LANDMARKAD":"6300002","ADDRESS":"台北市信義區信義路五段1號","TEL":" ","COUNTYNAME":"台北市","TOWNNAME":"信義區","MARKTYPE":"993","Class":"303"}},{"type":"Feature","id":9326,"geometry":{"type":"Point","coordinates":[121.56265401620755,25.035645184458406]},"properties":{"OBJECTID":9326,"LANDMARKID":"6300000001833","LANDMARKCO":"303","LANDMARKNA":"台北凱悅大飯店停車場","LANDMARKAD":"6300002","ADDRESS":"台北市信義區松壽路2號","TEL":" ","COUNTYNAME":"台北市","TOWNNAME":"信義區","MARKTYPE":"993","Class":"303"}},{"type":"Feature","id":9327,"geometry":{"type":"Point","coordinates":[121.57001720749066,25.044626781210638]},"properties":{"OBJECTID":9327,"LANDMARKID":"6300000001834","LANDMARKCO":"303","LANDMARKNA":"永吉平面停車場","LANDMARKAD":"6300002","ADDRESS":"台北市信義區永吉路120巷22弄","TEL":" ","COUNTYNAME":"台北市","TOWNNAME":"信義區","MARKTYPE":"993","Class":"303"}},{"type":"Feature","id":9328,"geometry":{"type":"Point","coordinates":[121.57991996619906,25.048066986269045]},"properties":{"OBJECTID":9328,"LANDMARKID":"6300000001835","LANDMARKCO":"303","LANDMARKNA":"全磐信義信停車場","LANDMARKAD":"6300002","ADDRESS":"台北市信義區信義段四小段23地號","TEL":" ","COUNTYNAME":"台北市","TOWNNAME":"信義區","MARKTYPE":"993","Class":"303"}},{"type":"Feature","id":9329,"geometry":{"type":"Point","coordinates":[121.57132173321956,25.043547228713482]},"properties":{"OBJECTID":9329,"LANDMARKID":"6300000001836","LANDMARKCO":"303","LANDMARKNA":"車之屋立體停車塔","LANDMARKAD":"6300002","ADDRESS":"台北市信義區永吉路180巷66弄3號","TEL":" ","COUNTYNAME":"台北市","TOWNNAME":"信義區","MARKTYPE":"993","Class":"303"}},{"type":"Feature","id":9330,"geometry":{"type":"Point","coordinates":[121.56873509774812,25.025199955917373]},"properties":{"OBJECTID":9330,"LANDMARKID":"6300000001837","LANDMARKCO":"303","LANDMARKNA":"亞太駐車聯盟吳興站停車場","LANDMARKAD":"6300002","ADDRESS":"台北市信義區吳興街375巷22號B1","TEL":" ","COUNTYNAME":"台北市","TOWNNAME":"信義區","MARKTYPE":"993","Class":"303"}},{"type":"Feature","id":9331,"geometry":{"type":"Point","coordinates":[121.56817908979538,25.02689494346923]},"properties":{"OBJECTID":9331,"LANDMARKID":"6300000001838","LANDMARKCO":"303","LANDMARKNA":"亞太駐車聯盟松仁站停車場","LANDMARKAD":"6300002","ADDRESS":"台北市信義區松仁路230號B1","TEL":" ","COUNTYNAME":"台北市","TOWNNAME":"信義區","MARKTYPE":"993","Class":"303"}},{"type":"Feature","id":9332,"geometry":{"type":"Point","coordinates":[121.56595167154515,25.043178383333476]},"properties":{"OBJECTID":9332,"LANDMARKID":"6300000001839","LANDMARKCO":"303","LANDMARKNA":"周家股份有限公司停車場","LANDMARKAD":"6300002","ADDRESS":"台北市信義區基隆路一段139號B1","TEL":" ","COUNTYNAME":"台北市","TOWNNAME":"信義區","MARKTYPE":"993","Class":"303"}},{"type":"Feature","id":9333,"geometry":{"type":"Point","coordinates":[121.57317640898007,25.041123956961403]},"properties":{"OBJECTID":9333,"LANDMARKID":"6300000001840","LANDMARKCO":"303","LANDMARKNA":"明德百貨公司停車場","LANDMARKAD":"6300002","ADDRESS":"台北市信義區忠孝東路五段297號B4","TEL":" ","COUNTYNAME":"台北市","TOWNNAME":"信義區","MARKTYPE":"993","Class":"303"}},{"type":"Feature","id":9334,"geometry":{"type":"Point","coordinates":[121.56646749074449,25.045054419538772]},"properties":{"OBJECTID":9334,"LANDMARKID":"6300000001841","LANDMARKCO":"303","LANDMARKNA":"松山高中地下停車場","LANDMARKAD":"6300002","ADDRESS":"台北市信義區基隆路一段156號B1","TEL":" ","COUNTYNAME":"台北市","TOWNNAME":"信義區","MARKTYPE":"993","Class":"303"}},{"type":"Feature","id":9335,"geometry":{"type":"Point","coordinates":[121.57014846813868,25.040857852743152]},"properties":{"OBJECTID":9335,"LANDMARKID":"6300000001842","LANDMARKCO":"303","LANDMARKNA":"松仁停車場","LANDMARKAD":"6300002","ADDRESS":"台北市信義區忠孝東路五段208號","TEL":" ","COUNTYNAME":"台北市","TOWNNAME":"信義區","MARKTYPE":"993","Class":"303"}},{"type":"Feature","id":9336,"geometry":{"type":"Point","coordinates":[121.57584839495338,25.048307688117148]},"properties":{"OBJECTID":9336,"LANDMARKID":"6300000001843","LANDMARKCO":"303","LANDMARKNA":"松隆平面停車場","LANDMARKAD":"6300002","ADDRESS":"台北市信義區虎林街30巷2弄2號旁","TEL":" ","COUNTYNAME":"台北市","TOWNNAME":"信義區","MARKTYPE":"993","Class":"303"}},{"type":"Feature","id":9337,"geometry":{"type":"Point","coordinates":[121.56595216044862,25.03763676546512]},"properties":{"OBJECTID":9337,"LANDMARKID":"6300000001844","LANDMARKCO":"303","LANDMARKNA":"松壽廣場地下停車場","LANDMARKAD":"6300002","ADDRESS":"台北市信義區松智路75號","TEL":" ","COUNTYNAME":"台北市","TOWNNAME":"信義區","MARKTYPE":"993","Class":"303"}},{"type":"Feature","id":9338,"geometry":{"type":"Point","coordinates":[121.57250693854436,25.031938691847877]},"properties":{"OBJECTID":9338,"LANDMARKID":"6300000001845","LANDMARKCO":"303","LANDMARKNA":"松德臨時平面停車場","LANDMARKAD":"6300002","ADDRESS":"台北市信義區中強公園旁","TEL":" ","COUNTYNAME":"台北市","TOWNNAME":"信義區","MARKTYPE":"993","Class":"303"}},{"type":"Feature","id":9339,"geometry":{"type":"Point","coordinates":[121.56365003060118,25.032654829714421]},"properties":{"OBJECTID":9339,"LANDMARKID":"6300000001846","LANDMARKCO":"303","LANDMARKNA":"信義2號廣場停車場","LANDMARKAD":"6300002","ADDRESS":"台北市信義區信義路五段信義行政中心西側","TEL":" ","COUNTYNAME":"台北市","TOWNNAME":"信義區","MARKTYPE":"993","Class":"303"}},{"type":"Feature","id":9340,"geometry":{"type":"Point","coordinates":[121.56812547903411,25.036048928881041]},"properties":{"OBJECTID":9340,"LANDMARKID":"6300000001847","LANDMARKCO":"303","LANDMARKNA":"信義A13平面停車場","LANDMARKAD":"6300002","ADDRESS":"台北市信義區","TEL":" ","COUNTYNAME":"台北市","TOWNNAME":"信義區","MARKTYPE":"993","Class":"303"}},{"type":"Feature","id":9341,"geometry":{"type":"Point","coordinates":[121.56683841312379,25.036678533678497]},"properties":{"OBJECTID":9341,"LANDMARKID":"6300000001848","LANDMARKCO":"303","LANDMARKNA":"信義A9平面停車場","LANDMARKAD":"6300002","ADDRESS":"台北市信義區松壽路11號旁","TEL":" ","COUNTYNAME":"台北市","TOWNNAME":"信義區","MARKTYPE":"993","Class":"303"}},{"type":"Feature","id":9342,"geometry":{"type":"Point","coordinates":[121.56738890499385,25.03598703627873]},"properties":{"OBJECTID":9342,"LANDMARKID":"6300000001849","LANDMARKCO":"303","LANDMARKNA":"信義店停車場","LANDMARKAD":"6300002","ADDRESS":"台北市信義區松壽路11號B3","TEL":" ","COUNTYNAME":"台北市","TOWNNAME":"信義區","MARKTYPE":"993","Class":"303"}},{"type":"Feature","id":9343,"geometry":{"type":"Point","coordinates":[121.56606894332381,25.028884786220864]},"properties":{"OBJECTID":9343,"LANDMARKID":"6300000001850","LANDMARKCO":"303","LANDMARKNA":"信義國中旁平面停車場","LANDMARKAD":"6300002","ADDRESS":"台北市信義區莊敬路391巷11弄與423巷7弄口","TEL":" ","COUNTYNAME":"台北市","TOWNNAME":"信義區","MARKTYPE":"993","Class":"303"}},{"type":"Feature","id":9344,"geometry":{"type":"Point","coordinates":[121.55845304198429,25.040622929890958]},"properties":{"OBJECTID":9344,"LANDMARKID":"6300000001851","LANDMARKCO":"303","LANDMARKNA":"國父紀念館停車場","LANDMARKAD":"6300002","ADDRESS":"台北市信義區","TEL":" ","COUNTYNAME":"台北市","TOWNNAME":"信義區","MARKTYPE":"993","Class":"303"}},{"type":"Feature","id":9345,"geometry":{"type":"Point","coordinates":[121.56404886881873,25.041455936463063]},"properties":{"OBJECTID":9345,"LANDMARKID":"6300000001852","LANDMARKCO":"303","LANDMARKNA":"揚昇忠孝停車場","LANDMARKAD":"6300002","ADDRESS":"台北市信義區忠孝東路四段563號B3","TEL":" ","COUNTYNAME":"台北市","TOWNNAME":"信義區","MARKTYPE":"993","Class":"303"}},{"type":"Feature","id":9346,"geometry":{"type":"Point","coordinates":[121.56667009532431,25.035584347201421]},"properties":{"OBJECTID":9346,"LANDMARKID":"6300000001853","LANDMARKCO":"303","LANDMARKNA":"華納停車場A16","LANDMARKAD":"6300002","ADDRESS":"台北市信義區松壽路18號B1","TEL":" ","COUNTYNAME":"台北市","TOWNNAME":"信義區","MARKTYPE":"993","Class":"303"}},{"type":"Feature","id":9347,"geometry":{"type":"Point","coordinates":[121.56667009532431,25.035584347201421]},"properties":{"OBJECTID":9347,"LANDMARKID":"6300000001854","LANDMARKCO":"303","LANDMARKNA":"華納停車場A17","LANDMARKAD":"6300002","ADDRESS":"台北市信義區松壽路16號B1樓","TEL":" ","COUNTYNAME":"台北市","TOWNNAME":"信義區","MARKTYPE":"993","Class":"303"}},{"type":"Feature","id":9348,"geometry":{"type":"Point","coordinates":[121.56815757755503,25.036736003395621]},"properties":{"OBJECTID":9348,"LANDMARKID":"6300000001855","LANDMARKCO":"303","LANDMARKNA":"群益金融大樓計時停車場","LANDMARKAD":"6300002","ADDRESS":"台北市信義區松仁路97號B3樓","TEL":" ","COUNTYNAME":"台北市","TOWNNAME":"信義區","MARKTYPE":"993","Class":"303"}},{"type":"Feature","id":9349,"geometry":{"type":"Point","coordinates":[121.57281919563769,25.034849024124348]},"properties":{"OBJECTID":9349,"LANDMARKID":"6300000001856","LANDMARKCO":"303","LANDMARKNA":"興雅國中地下停車場","LANDMARKAD":"6300002","ADDRESS":"台北市信義區松德路200巷18號B1","TEL":" ","COUNTYNAME":"台北市","TOWNNAME":"信義區","MARKTYPE":"993","Class":"303"}},{"type":"Feature","id":9350,"geometry":{"type":"Point","coordinates":[121.56817856914694,25.040492582769875]},"properties":{"OBJECTID":9350,"LANDMARKID":"6300000001857","LANDMARKCO":"303","LANDMARKNA":"忠信地下停車場","LANDMARKAD":"6300002","ADDRESS":"台北市信義區松仁路2號B1樓","TEL":" ","COUNTYNAME":"台北市","TOWNNAME":"信義區","MARKTYPE":"993","Class":"303"}},{"type":"Feature","id":9351,"geometry":{"type":"Point","coordinates":[121.5648190126478,25.040877492531251]},"properties":{"OBJECTID":9351,"LANDMARKID":"6300000001858","LANDMARKCO":"303","LANDMARKNA":"轉運站平面停車場","LANDMARKAD":"6300002","ADDRESS":"台北市信義區","TEL":" ","COUNTYNAME":"台北市","TOWNNAME":"信義區","MARKTYPE":"993","Class":"303"}},{"type":"Feature","id":9352,"geometry":{"type":"Point","coordinates":[121.55837185518028,25.042481773024939]},"properties":{"OBJECTID":9352,"LANDMARKID":"6300000001859","LANDMARKCO":"303","LANDMARKNA":"富升停車場","LANDMARKAD":"6300002","ADDRESS":"台北市松山區濱江段四小段351之5地號","TEL":" ","COUNTYNAME":"台北市","TOWNNAME":"信義區","MARKTYPE":"993","Class":"303"}},{"type":"Feature","id":9353,"geometry":{"type":"Point","coordinates":[121.57805884321196,25.04817480060052]},"properties":{"OBJECTID":9353,"LANDMARKID":"6300000001860","LANDMARKCO":"303","LANDMARKNA":"松山火車站前廣場停車場","LANDMARKAD":"6300002","ADDRESS":"台北市信義區松隆路","TEL":" ","COUNTYNAME":"台北市","TOWNNAME":"信義區","MARKTYPE":"993","Class":"303"}},{"type":"Feature","id":9354,"geometry":{"type":"Point","coordinates":[121.57991433729948,25.048061975118934]},"properties":{"OBJECTID":9354,"LANDMARKID":"6300000001861","LANDMARKCO":"303","LANDMARKNA":"基河停車場","LANDMARKAD":"6300002","ADDRESS":"台北市信義區通化段三小段89地號","TEL":" ","COUNTYNAME":"台北市","TOWNNAME":"信義區","MARKTYPE":"993","Class":"303"}},{"type":"Feature","id":9355,"geometry":{"type":"Point","coordinates":[121.5731444057685,25.034281524695174]},"properties":{"OBJECTID":9355,"LANDMARKID":"6300000001862","LANDMARKCO":"303","LANDMARKNA":"應安停車場-松勇場","LANDMARKAD":"6300002","ADDRESS":"台北市信義區松勇路53巷35號","TEL":"0980-933205","COUNTYNAME":"台北市","TOWNNAME":"信義區","MARKTYPE":"993","Class":"303"}},{"type":"Feature","id":9356,"geometry":{"type":"Point","coordinates":[121.56392337385408,25.031949948009707]},"properties":{"OBJECTID":9356,"LANDMARKID":"6300000001863","LANDMARKCO":"303","LANDMARKNA":"永固停車場-信義一","LANDMARKAD":"6300002","ADDRESS":"台北市信義區松勤路68號對面空地","TEL":"02-27296010","COUNTYNAME":"台北市","TOWNNAME":"信義區","MARKTYPE":"993","Class":"303"}},{"type":"Feature","id":9357,"geometry":{"type":"Point","coordinates":[121.56349154722861,25.040103069790231]},"properties":{"OBJECTID":9357,"LANDMARKID":"6300000001864","LANDMARKCO":"303","LANDMARKNA":"永固停車場-忠孝站","LANDMARKAD":"6300002","ADDRESS":"台北市信義區基隆路一段200號B2~4","TEL":"02-87892166","COUNTYNAME":"台北市","TOWNNAME":"信義區","MARKTYPE":"993","Class":"303"}},{"type":"Feature","id":9358,"geometry":{"type":"Point","coordinates":[121.56527273364405,25.032679821532248]},"properties":{"OBJECTID":9358,"LANDMARKID":"6300000001865","LANDMARKCO":"303","LANDMARKNA":"永固停車場-信義二","LANDMARKAD":"6300002","ADDRESS":"台北市信義區松智路與信義路交口空地","TEL":" ","COUNTYNAME":"台北市","TOWNNAME":"信義區","MARKTYPE":"993","Class":"303"}},{"type":"Feature","id":9359,"geometry":{"type":"Point","coordinates":[121.56844688146234,25.027579281355241]},"properties":{"OBJECTID":9359,"LANDMARKID":"6300000001866","LANDMARKCO":"303","LANDMARKNA":"永固停車場-信義三","LANDMARKAD":"6300002","ADDRESS":"台北市信義區松仁路201號旁空地","TEL":"02-27296431","COUNTYNAME":"台北市","TOWNNAME":"信義區","MARKTYPE":"993","Class":"303"}},{"type":"Feature","id":9360,"geometry":{"type":"Point","coordinates":[121.56350361241431,25.032660026272954]},"properties":{"OBJECTID":9360,"LANDMARKID":"6300000001867","LANDMARKCO":"303","LANDMARKNA":"Times(普客二四停車場)-101前停車場","LANDMARKAD":"6300002","ADDRESS":"台北市信義區信義路五段18號旁","TEL":" ","COUNTYNAME":"台北市","TOWNNAME":"信義區","MARKTYPE":"993","Class":"303"}},{"type":"Feature","id":9361,"geometry":{"type":"Point","coordinates":[121.56593332219222,25.039255754610544]},"properties":{"OBJECTID":9361,"LANDMARKID":"6300000001868","LANDMARKCO":"303","LANDMARKNA":"台灣聯通停車場-誠品信義場","LANDMARKAD":"6300002","ADDRESS":"台北市松高路11號","TEL":" ","COUNTYNAME":"台北市","TOWNNAME":"信義區","MARKTYPE":"993","Class":"303"}},{"type":"Feature","id":9362,"geometry":{"type":"Point","coordinates":[121.56373166317553,25.032670161207797]},"properties":{"OBJECTID":9362,"LANDMARKID":"6300000001869","LANDMARKCO":"303","LANDMARKNA":"台灣聯通停車場-101場","LANDMARKAD":"6300002","ADDRESS":"台北市信義路五段18號旁","TEL":" ","COUNTYNAME":"台北市","TOWNNAME":"信義區","MARKTYPE":"993","Class":"303"}},{"type":"Feature","id":9363,"geometry":{"type":"Point","coordinates":[121.57339987466793,25.036729538807858]},"properties":{"OBJECTID":9363,"LANDMARKID":"6300000001870","LANDMARKCO":"303","LANDMARKNA":"台灣聯通停車場-松德場","LANDMARKAD":"6300002","ADDRESS":"台北市松德路168巷20號B2~B3","TEL":" ","COUNTYNAME":"台北市","TOWNNAME":"信義區","MARKTYPE":"993","Class":"303"}},{"type":"Feature","id":9364,"geometry":{"type":"Point","coordinates":[121.55918205064252,25.032772888015664]},"properties":{"OBJECTID":9364,"LANDMARKID":"6300000001871","LANDMARKCO":"303","LANDMARKNA":"台灣聯通停車場-世貿場","LANDMARKAD":"6300002","ADDRESS":"台北市信義路四段468號","TEL":" ","COUNTYNAME":"台北市","TOWNNAME":"信義區","MARKTYPE":"993","Class":"303"}},{"type":"Feature","id":9365,"geometry":{"type":"Point","coordinates":[121.56525869778214,25.02923987578939]},"properties":{"OBJECTID":9365,"LANDMARKID":"6300000001872","LANDMARKCO":"303","LANDMARKNA":"中興嘟嘟房停車場-信義松智站","LANDMARKAD":"6300002","ADDRESS":"台北市信義區莊敬路391巷與松智路口(近台北101)","TEL":"02-27206823","COUNTYNAME":"台北市","TOWNNAME":"信義區","MARKTYPE":"993","Class":"303"}},{"type":"Feature","id":9366,"geometry":{"type":"Point","coordinates":[121.57788666503183,25.04919705223401]},"properties":{"OBJECTID":9366,"LANDMARKID":"6300000000839","LANDMARKCO":"301","LANDMARKNA":"松山火車站","LANDMARKAD":"6300002","ADDRESS":"台北市信義區慈祐里松山路11號","TEL":"02-27673819","COUNTYNAME":"台北市","TOWNNAME":"信義區","MARKTYPE":"993","Class":"301"}},{"type":"Feature","id":9367,"geometry":{"type":"Point","coordinates":[121.56801226591719,25.033636478004127]},"properties":{"OBJECTID":9367,"LANDMARKID":"6300000002335","LANDMARKCO":"402","LANDMARKNA":"中華電信-台北東區營運處","LANDMARKAD":"6300002","ADDRESS":"台北市松仁路130號","TEL":"123或0800-080-123","COUNTYNAME":"台北市","TOWNNAME":"信義區","MARKTYPE":"994","Class":"4"}},{"type":"Feature","id":9368,"geometry":{"type":"Point","coordinates":[121.57773059434379,25.039299286638396]},"properties":{"OBJECTID":9368,"LANDMARKID":"6300000002336","LANDMARKCO":"402","LANDMARKNA":"中華電信-台北松山特約服務中心","LANDMARKAD":"6300002","ADDRESS":"台北市松德路1號","TEL":"02-27269999","COUNTYNAME":"台北市","TOWNNAME":"信義區","MARKTYPE":"994","Class":"4"}},{"type":"Feature","id":9369,"geometry":{"type":"Point","coordinates":[121.56479962731646,25.033415667350013]},"properties":{"OBJECTID":9369,"LANDMARKID":"6300000002337","LANDMARKCO":"402","LANDMARKNA":"中華電信-中華電信101服務中心(101塔樓","LANDMARKAD":"6300002","ADDRESS":"台北市信義區信義路五段7號","TEL":"123或0800-080-123","COUNTYNAME":"台北市","TOWNNAME":"信義區","MARKTYPE":"994","Class":"4"}},{"type":"Feature","id":9370,"geometry":{"type":"Point","coordinates":[121.56712899649166,25.035647488435934]},"properties":{"OBJECTID":9370,"LANDMARKID":"6300000002338","LANDMARKCO":"402","LANDMARKNA":"遠傳電信-遠傳無限城-華納店","LANDMARKAD":"6300002","ADDRESS":"台北市松壽路16號","TEL":" ","COUNTYNAME":"台北市","TOWNNAME":"信義區","MARKTYPE":"994","Class":"4"}},{"type":"Feature","id":9371,"geometry":{"type":"Point","coordinates":[121.57588351514933,25.041010928917903]},"properties":{"OBJECTID":9371,"LANDMARKID":"6300000002339","LANDMARKCO":"402","LANDMARKNA":"威寶電信-台北忠孝東特約服務中心","LANDMARKAD":"6300002","ADDRESS":"台北市信義區忠孝東路五段435之2號","TEL":"(02)27682013","COUNTYNAME":"台北市","TOWNNAME":"信義區","MARKTYPE":"994","Class":"4"}},{"type":"Feature","id":9372,"geometry":{"type":"Point","coordinates":[121.57497888942483,25.033676410581286]},"properties":{"OBJECTID":9372,"LANDMARKID":"6300000002340","LANDMARKCO":"402","LANDMARKNA":"大眾電信(傑昇通信)-信義店","LANDMARKAD":"6300002","ADDRESS":"台北巿信義路六段10號","TEL":"02-27593399","COUNTYNAME":"台北市","TOWNNAME":"信義區","MARKTYPE":"994","Class":"4"}},{"type":"Feature","id":9373,"geometry":{"type":"Point","coordinates":[121.55571888593181,25.021644062360398]},"properties":{"OBJECTID":9373,"LANDMARKID":"6300000002341","LANDMARKCO":"402","LANDMARKNA":"大眾電信(震旦通訊)-台北六張犁店","LANDMARKAD":"6300002","ADDRESS":"台北市和平東路三段307號","TEL":"02-27392288","COUNTYNAME":"台北市","TOWNNAME":"信義區","MARKTYPE":"994","Class":"4"}},{"type":"Feature","id":9374,"geometry":{"type":"Point","coordinates":[121.57801758821356,25.039262688506518]},"properties":{"OBJECTID":9374,"LANDMARKID":"6300000002342","LANDMARKCO":"402","LANDMARKNA":"大眾電信(震旦通訊)-台北松山店","LANDMARKAD":"6300002","ADDRESS":"台北市松山路477號","TEL":"02-27595608","COUNTYNAME":"台北市","TOWNNAME":"信義區","MARKTYPE":"994","Class":"4"}},{"type":"Feature","id":9375,"geometry":{"type":"Point","coordinates":[121.56837163343366,25.026528671921117]},"properties":{"OBJECTID":9375,"LANDMARKID":"6300000002343","LANDMARKCO":"402","LANDMARKNA":"大眾電信(震旦通訊)-台北松仁店","LANDMARKAD":"6300002","ADDRESS":"台北市松仁路216號","TEL":"02-27588289","COUNTYNAME":"台北市","TOWNNAME":"信義區","MARKTYPE":"994","Class":"4"}},{"type":"Feature","id":9376,"geometry":{"type":"Point","coordinates":[121.55989182829552,25.032817962476884]},"properties":{"OBJECTID":9376,"LANDMARKID":"6300000002344","LANDMARKCO":"402","LANDMARKNA":"大眾電信(震旦通訊)-台北世貿店","LANDMARKAD":"6300002","ADDRESS":"台北市信義路五段2號B1","TEL":"02-27582345","COUNTYNAME":"台北市","TOWNNAME":"信義區","MARKTYPE":"994","Class":"4"}},{"type":"Feature","id":9377,"geometry":{"type":"Point","coordinates":[121.56867102109304,25.042614357723767]},"properties":{"OBJECTID":9377,"LANDMARKID":"6300000003405","LANDMARKCO":"603","LANDMARKNA":"華大HOTEL","LANDMARKAD":"6300002","ADDRESS":"台北市信義區永吉路30巷150號1-7樓","TEL":"02-27635313","COUNTYNAME":"台北市","TOWNNAME":"信義區","MARKTYPE":"996","Class":"6"}},{"type":"Feature","id":9378,"geometry":{"type":"Point","coordinates":[121.55789674826853,25.032452401114138]},"properties":{"OBJECTID":9378,"LANDMARKID":"6300000003406","LANDMARKCO":"603","LANDMARKNA":"太平洋商務中心台北會館","LANDMARKAD":"6300002","ADDRESS":"台北市信義區光復南路495號11樓之2及13","TEL":"16","COUNTYNAME":"台北市","TOWNNAME":"信義區","MARKTYPE":"996","Class":"6"}},{"type":"Feature","id":9379,"geometry":{"type":"Point","coordinates":[121.57315936453678,25.041129610166365]},"properties":{"OBJECTID":9379,"LANDMARKID":"6300000003407","LANDMARKCO":"603","LANDMARKNA":"柯旅天閣飯店(信義店)","LANDMARKAD":"6300002","ADDRESS":"台北市信義區忠孝東路5段297號1-6樓","TEL":"02-25288000","COUNTYNAME":"台北市","TOWNNAME":"信義區","MARKTYPE":"996","Class":"6"}},{"type":"Feature","id":9380,"geometry":{"type":"Point","coordinates":[121.57798048777502,25.046539603202213]},"properties":{"OBJECTID":9380,"LANDMARKID":"6300000003408","LANDMARKCO":"603","LANDMARKNA":"萬泰協和旅館","LANDMARKAD":"6300002","ADDRESS":"台北市信義區松山路153號2-7樓","TEL":"02-27636660","COUNTYNAME":"台北市","TOWNNAME":"信義區","MARKTYPE":"996","Class":"6"}},{"type":"Feature","id":9381,"geometry":{"type":"Point","coordinates":[121.55872431173358,25.031923928322691]},"properties":{"OBJECTID":9381,"LANDMARKID":"6300000003409","LANDMARKCO":"603","LANDMARKNA":"愛芝園旅館","LANDMARKAD":"6300002","ADDRESS":"台北市信義區基隆路2段22號5樓","TEL":"02-27295828","COUNTYNAME":"台北市","TOWNNAME":"信義區","MARKTYPE":"996","Class":"6"}},{"type":"Feature","id":9382,"geometry":{"type":"Point","coordinates":[121.56263000654472,25.035642553402841]},"properties":{"OBJECTID":9382,"LANDMARKID":"6300000003374","LANDMARKCO":"601","LANDMARKNA":"台北君悅大飯店","LANDMARKAD":"6300002","ADDRESS":"台北市信義區松壽路2號","TEL":"02-2720-1234","COUNTYNAME":"台北市","TOWNNAME":"信義區","MARKTYPE":"996","Class":"6"}},{"type":"Feature","id":9383,"geometry":{"type":"Point","coordinates":[121.57896475884378,25.046634419805706]},"properties":{"OBJECTID":9383,"LANDMARKID":"6300000003323","LANDMARKCO":"511","LANDMARKNA":"五分埔服飾區","LANDMARKAD":"6300002","ADDRESS":"台北市信義區","TEL":" ","COUNTYNAME":"台北市","TOWNNAME":"信義區","MARKTYPE":"995","Class":"5"}},{"type":"Feature","id":9384,"geometry":{"type":"Point","coordinates":[121.55901553400915,25.033943113737326]},"properties":{"OBJECTID":9384,"LANDMARKID":"6300000003124","LANDMARKCO":"503","LANDMARKNA":"TITA台北市自助旅行協會","LANDMARKAD":"6300002","ADDRESS":"台北市信義區光復南路473巷11弄34號","TEL":" ","COUNTYNAME":"台北市","TOWNNAME":"信義區","MARKTYPE":"995","Class":"5"}},{"type":"Feature","id":9385,"geometry":{"type":"Point","coordinates":[121.56420965123432,25.033475823331084]},"properties":{"OBJECTID":9385,"LANDMARKID":"6300000003105","LANDMARKCO":"410","LANDMARKNA":"台北101大樓","LANDMARKAD":"6300002","ADDRESS":"台北市信義區","TEL":"02-81018293","COUNTYNAME":"台北市","TOWNNAME":"信義區","MARKTYPE":"994","Class":"4"}},{"type":"Feature","id":9386,"geometry":{"type":"Point","coordinates":[121.56057577352368,25.03372360017541]},"properties":{"OBJECTID":9386,"LANDMARKID":"6300000003106","LANDMARKCO":"410","LANDMARKNA":"台北國際會議中心","LANDMARKAD":"6300002","ADDRESS":"台北市信義區","TEL":" ","COUNTYNAME":"台北市","TOWNNAME":"信義區","MARKTYPE":"994","Class":"4"}},{"type":"Feature","id":9387,"geometry":{"type":"Point","coordinates":[121.53663998074677,25.044422356336344]},"properties":{"OBJECTID":9387,"LANDMARKID":"6300000002401","LANDMARKCO":"405","LANDMARKNA":"中油加油站-心路(中油直營)","LANDMARKAD":"6300003","ADDRESS":"台北市大安區建國南路一段57-1號","TEL":"02-27733453","COUNTYNAME":"台北市","TOWNNAME":"大安區","MARKTYPE":"994","Class":"4"}},{"type":"Feature","id":9388,"geometry":{"type":"Point","coordinates":[121.5366400320013,25.044422975477016]},"properties":{"OBJECTID":9388,"LANDMARKID":"6300000002402","LANDMARKCO":"405","LANDMARKNA":"中油加油站-伊甸站","LANDMARKAD":"6300003","ADDRESS":"台北市大安區建國南路一段57之1號","TEL":"02-2773-3453","COUNTYNAME":"台北市","TOWNNAME":"大安區","MARKTYPE":"994","Class":"4"}},{"type":"Feature","id":9389,"geometry":{"type":"Point","coordinates":[121.53786057995046,25.030971511284736]},"properties":{"OBJECTID":9389,"LANDMARKID":"6300000002403","LANDMARKCO":"405","LANDMARKNA":"中油加油站-陽光加油站(中油直營)","LANDMARKAD":"6300003","ADDRESS":"台北市大安區建國南路二段75-1號","TEL":"02-27006510","COUNTYNAME":"台北市","TOWNNAME":"大安區","MARKTYPE":"994","Class":"4"}},{"type":"Feature","id":9390,"geometry":{"type":"Point","coordinates":[121.53786045221099,25.03097130410098]},"properties":{"OBJECTID":9390,"LANDMARKID":"6300000002404","LANDMARKCO":"405","LANDMARKNA":"中油加油站-勝利站","LANDMARKAD":"6300003","ADDRESS":"台北市大安區建國南路二段75之1號","TEL":"02-2755-5499","COUNTYNAME":"台北市","TOWNNAME":"大安區","MARKTYPE":"994","Class":"4"}},{"type":"Feature","id":9391,"geometry":{"type":"Point","coordinates":[121.55597622052069,25.027607430397342]},"properties":{"OBJECTID":9391,"LANDMARKID":"6300000002405","LANDMARKCO":"405","LANDMARKNA":"中油加油站-基隆路站(中油直營)","LANDMARKAD":"6300003","ADDRESS":"台北市大安區基隆路二段162號","TEL":"02-27383992","COUNTYNAME":"台北市","TOWNNAME":"大安區","MARKTYPE":"994","Class":"4"}},{"type":"Feature","id":9392,"geometry":{"type":"Point","coordinates":[121.5272050945749,25.031473551165973]},"properties":{"OBJECTID":9392,"LANDMARKID":"6300000002406","LANDMARKCO":"405","LANDMARKNA":"中油加油站-金山南路站(中油直營)","LANDMARKAD":"6300003","ADDRESS":"台北市大安區金山南路二段77號","TEL":"02-23518346","COUNTYNAME":"台北市","TOWNNAME":"大安區","MARKTYPE":"994","Class":"4"}},{"type":"Feature","id":9393,"geometry":{"type":"Point","coordinates":[121.53526714911494,25.025717588407684]},"properties":{"OBJECTID":9393,"LANDMARKID":"6300000002407","LANDMARKCO":"405","LANDMARKNA":"中油加油站-龍安站(中油直營)","LANDMARKAD":"6300003","ADDRESS":"台北市大安區和平東路二段2號","TEL":"02-23631735","COUNTYNAME":"台北市","TOWNNAME":"大安區","MARKTYPE":"994","Class":"4"}},{"type":"Feature","id":9394,"geometry":{"type":"Point","coordinates":[121.53320896765304,25.038471401327033]},"properties":{"OBJECTID":9394,"LANDMARKID":"6300000002408","LANDMARKCO":"405","LANDMARKNA":"中油加油站-新生南路站(中油直營)","LANDMARKAD":"6300003","ADDRESS":"台北市大安區仁愛路三段1號","TEL":"02-27112316","COUNTYNAME":"台北市","TOWNNAME":"大安區","MARKTYPE":"994","Class":"4"}},{"type":"Feature","id":9395,"geometry":{"type":"Point","coordinates":[121.55692609342717,25.019116885681104]},"properties":{"OBJECTID":9395,"LANDMARKID":"6300000002409","LANDMARKCO":"405","LANDMARKNA":"中油加油站-富陽街站","LANDMARKAD":"6300003","ADDRESS":"台北市大安區富陽街129號","TEL":"02-27324229","COUNTYNAME":"台北市","TOWNNAME":"大安區","MARKTYPE":"994","Class":"4"}},{"type":"Feature","id":9396,"geometry":{"type":"Point","coordinates":[121.55544847877245,25.032883100961115]},"properties":{"OBJECTID":9396,"LANDMARKID":"6300000002410","LANDMARKCO":"405","LANDMARKNA":"中油加油站-信義路站(中油直營)","LANDMARKAD":"6300003","ADDRESS":"台北市大安區信義路四段374號","TEL":"02-27081235","COUNTYNAME":"台北市","TOWNNAME":"大安區","MARKTYPE":"994","Class":"4"}},{"type":"Feature","id":9397,"geometry":{"type":"Point","coordinates":[121.53153070672519,25.017775268140085]},"properties":{"OBJECTID":9397,"LANDMARKID":"6300000002323","LANDMARKCO":"402","LANDMARKNA":"My Phone台灣大哥大-台北公館直營服務中心","LANDMARKAD":"6300003","ADDRESS":"台北市大安區羅斯福路三段289號","TEL":" ","COUNTYNAME":"台北市","TOWNNAME":"大安區","MARKTYPE":"994","Class":"4"}},{"type":"Feature","id":9398,"geometry":{"type":"Point","coordinates":[121.5539593325435,25.029582476196577]},"properties":{"OBJECTID":9398,"LANDMARKID":"6300000002324","LANDMARKCO":"402","LANDMARKNA":"My Phone台灣大哥大-大安－通化","LANDMARKAD":"6300003","ADDRESS":"台北市大安區通化街104號","TEL":"02-87331215","COUNTYNAME":"台北市","TOWNNAME":"大安區","MARKTYPE":"994","Class":"4"}},{"type":"Feature","id":9399,"geometry":{"type":"Point","coordinates":[121.52959331608581,25.033569342977259]},"properties":{"OBJECTID":9399,"LANDMARKID":"6300000002325","LANDMARKCO":"402","LANDMARKNA":"My Phone台灣大哥大-台北永康直營服務中心","LANDMARKAD":"6300003","ADDRESS":"台北市大安區信義路二段174號","TEL":" ","COUNTYNAME":"台北市","TOWNNAME":"大安區","MARKTYPE":"994","Class":"4"}},{"type":"Feature","id":9400,"geometry":{"type":"Point","coordinates":[121.55496730539967,25.039234961523828]},"properties":{"OBJECTID":9400,"LANDMARKID":"6300000002326","LANDMARKCO":"402","LANDMARKNA":"My Phone台灣大哥大-大安延吉","LANDMARKAD":"6300003","ADDRESS":"台北市大安區延吉街162號","TEL":"(02)2773-6595","COUNTYNAME":"台北市","TOWNNAME":"大安區","MARKTYPE":"994","Class":"4"}}]}