{"type":"FeatureCollection","features":[{"type":"Feature","id":23801,"geometry":{"type":"Point","coordinates":[121.60293638452504,23.977449734368633]},"properties":{"OBJECTID":23801,"LANDMARKID":"1001500001235","LANDMARKCO":"604","LANDMARKNA":"凱群民宿","LANDMARKAD":"1001501","ADDRESS":"花蓮縣花蓮市仁愛街96號","TEL":"03-8330103","COUNTYNAME":"花蓮縣","TOWNNAME":"花蓮市","MARKTYPE":"996","Class":"6"}},{"type":"Feature","id":23802,"geometry":{"type":"Point","coordinates":[121.57265416959159,23.994061260507163]},"properties":{"OBJECTID":23802,"LANDMARKID":"1001500001236","LANDMARKCO":"604","LANDMARKNA":"法蘭絲花園民宿","LANDMARKAD":"1001501","ADDRESS":"花蓮縣花蓮市介仁街5巷13號","TEL":"03-8568505","COUNTYNAME":"花蓮縣","TOWNNAME":"花蓮市","MARKTYPE":"996","Class":"6"}},{"type":"Feature","id":23803,"geometry":{"type":"Point","coordinates":[121.57395336786749,23.995658738651297]},"properties":{"OBJECTID":23803,"LANDMARKID":"1001500001237","LANDMARKCO":"604","LANDMARKNA":"二草緣民宿","LANDMARKAD":"1001501","ADDRESS":"花蓮縣花蓮市介仁街68號","TEL":"03-8574934","COUNTYNAME":"花蓮縣","TOWNNAME":"花蓮市","MARKTYPE":"996","Class":"6"}},{"type":"Feature","id":23804,"geometry":{"type":"Point","coordinates":[121.57149675761039,23.996822514534013]},"properties":{"OBJECTID":23804,"LANDMARKID":"1001500001238","LANDMARKCO":"604","LANDMARKNA":"夏綠地民宿","LANDMARKAD":"1001501","ADDRESS":"花蓮縣花蓮市介林八街69號","TEL":"03-8466020","COUNTYNAME":"花蓮縣","TOWNNAME":"花蓮市","MARKTYPE":"996","Class":"6"}},{"type":"Feature","id":23805,"geometry":{"type":"Point","coordinates":[121.57146982524367,23.997111656578138]},"properties":{"OBJECTID":23805,"LANDMARKID":"1001500001239","LANDMARKCO":"604","LANDMARKNA":"蓓森朵芙民宿","LANDMARKAD":"1001501","ADDRESS":"花蓮縣花蓮市介林八街72號","TEL":"0938-042011","COUNTYNAME":"花蓮縣","TOWNNAME":"花蓮市","MARKTYPE":"996","Class":"6"}},{"type":"Feature","id":23806,"geometry":{"type":"Point","coordinates":[121.57524195771863,23.994395398863702]},"properties":{"OBJECTID":23806,"LANDMARKID":"1001500001240","LANDMARKCO":"604","LANDMARKNA":"雲天別館民宿","LANDMARKAD":"1001501","ADDRESS":"花蓮縣花蓮市介林五街113號","TEL":"03-8460121","COUNTYNAME":"花蓮縣","TOWNNAME":"花蓮市","MARKTYPE":"996","Class":"6"}},{"type":"Feature","id":23807,"geometry":{"type":"Point","coordinates":[121.57544758767104,23.994592457081865]},"properties":{"OBJECTID":23807,"LANDMARKID":"1001500001241","LANDMARKCO":"604","LANDMARKNA":"來來我家民宿","LANDMARKAD":"1001501","ADDRESS":"花蓮縣花蓮市介林五街122號","TEL":"03-8310677","COUNTYNAME":"花蓮縣","TOWNNAME":"花蓮市","MARKTYPE":"996","Class":"6"}},{"type":"Feature","id":23808,"geometry":{"type":"Point","coordinates":[121.57517345805783,23.994711896321796]},"properties":{"OBJECTID":23808,"LANDMARKID":"1001500001242","LANDMARKCO":"604","LANDMARKNA":"曾媽媽民宿","LANDMARKAD":"1001501","ADDRESS":"花蓮縣花蓮市介林五街138號","TEL":"03-8568495","COUNTYNAME":"花蓮縣","TOWNNAME":"花蓮市","MARKTYPE":"996","Class":"6"}},{"type":"Feature","id":23809,"geometry":{"type":"Point","coordinates":[121.56995628175891,23.996003274075729]},"properties":{"OBJECTID":23809,"LANDMARKID":"1001500001243","LANDMARKCO":"604","LANDMARKNA":"菩提園民宿","LANDMARKAD":"1001501","ADDRESS":"花蓮縣花蓮市介林五街281號","TEL":"03-8565806","COUNTYNAME":"花蓮縣","TOWNNAME":"花蓮市","MARKTYPE":"996","Class":"6"}},{"type":"Feature","id":23810,"geometry":{"type":"Point","coordinates":[121.60038373531692,23.967174485007007]},"properties":{"OBJECTID":23810,"LANDMARKID":"1001500001244","LANDMARKCO":"604","LANDMARKNA":"花之戀民宿","LANDMARKAD":"1001501","ADDRESS":"花蓮縣花蓮市福建街92巷45號","TEL":"03-8545365","COUNTYNAME":"花蓮縣","TOWNNAME":"花蓮市","MARKTYPE":"996","Class":"6"}},{"type":"Feature","id":23811,"geometry":{"type":"Point","coordinates":[121.61360740351196,23.971447805396156]},"properties":{"OBJECTID":23811,"LANDMARKID":"1001500001245","LANDMARKCO":"604","LANDMARKNA":"海傳民宿","LANDMARKAD":"1001501","ADDRESS":"花蓮縣花蓮市海濱街4號","TEL":"03-8348817","COUNTYNAME":"花蓮縣","TOWNNAME":"花蓮市","MARKTYPE":"996","Class":"6"}},{"type":"Feature","id":23812,"geometry":{"type":"Point","coordinates":[121.60667978694832,23.995489639381795]},"properties":{"OBJECTID":23812,"LANDMARKID":"1001500001246","LANDMARKCO":"604","LANDMARKNA":"圓緣民宿","LANDMARKAD":"1001501","ADDRESS":"花蓮縣花蓮市國盛三街60號","TEL":"03-8351313","COUNTYNAME":"花蓮縣","TOWNNAME":"花蓮市","MARKTYPE":"996","Class":"6"}},{"type":"Feature","id":23813,"geometry":{"type":"Point","coordinates":[121.60179662667349,24.000535562796081]},"properties":{"OBJECTID":23813,"LANDMARKID":"1001500001247","LANDMARKCO":"604","LANDMARKNA":"綠地音樂花園別墅民宿","LANDMARKAD":"1001501","ADDRESS":"花蓮縣花蓮市豐村36-11號","TEL":"03-8520385","COUNTYNAME":"花蓮縣","TOWNNAME":"花蓮市","MARKTYPE":"996","Class":"6"}},{"type":"Feature","id":23814,"geometry":{"type":"Point","coordinates":[121.61513171473952,23.974001963215702]},"properties":{"OBJECTID":23814,"LANDMARKID":"1001500001248","LANDMARKCO":"604","LANDMARKNA":"陽光海岸民宿","LANDMARKAD":"1001501","ADDRESS":"花蓮縣花蓮市康樂街2號","TEL":"03-8311255","COUNTYNAME":"花蓮縣","TOWNNAME":"花蓮市","MARKTYPE":"996","Class":"6"}},{"type":"Feature","id":23815,"geometry":{"type":"Point","coordinates":[121.62226975562353,23.992316331449256]},"properties":{"OBJECTID":23815,"LANDMARKID":"1001500001249","LANDMARKCO":"604","LANDMARKNA":"白舍民宿","LANDMARKAD":"1001501","ADDRESS":"花蓮縣花蓮市府前路224巷1號","TEL":"03-8225556","COUNTYNAME":"花蓮縣","TOWNNAME":"花蓮市","MARKTYPE":"996","Class":"6"}},{"type":"Feature","id":23816,"geometry":{"type":"Point","coordinates":[121.59663414719509,23.997809383619309]},"properties":{"OBJECTID":23816,"LANDMARKID":"1001500001250","LANDMARKCO":"604","LANDMARKNA":"水悅雅築民宿","LANDMARKAD":"1001501","ADDRESS":"花蓮縣花蓮市富裕十五街68號","TEL":"03-8580661","COUNTYNAME":"花蓮縣","TOWNNAME":"花蓮市","MARKTYPE":"996","Class":"6"}},{"type":"Feature","id":23817,"geometry":{"type":"Point","coordinates":[121.60311589263053,23.980175161089747]},"properties":{"OBJECTID":23817,"LANDMARKID":"1001500001251","LANDMARKCO":"604","LANDMARKNA":"阿桃姐民宿","LANDMARKAD":"1001501","ADDRESS":"花蓮縣花蓮市林森路305巷2號","TEL":"03-8343167","COUNTYNAME":"花蓮縣","TOWNNAME":"花蓮市","MARKTYPE":"996","Class":"6"}},{"type":"Feature","id":23818,"geometry":{"type":"Point","coordinates":[121.61481115318806,23.98409018687628]},"properties":{"OBJECTID":23818,"LANDMARKID":"1001500001252","LANDMARKCO":"604","LANDMARKNA":"知了居民宿","LANDMARKAD":"1001501","ADDRESS":"花蓮縣花蓮市水源街55巷18號","TEL":"03-8329676","COUNTYNAME":"花蓮縣","TOWNNAME":"花蓮市","MARKTYPE":"996","Class":"6"}},{"type":"Feature","id":23819,"geometry":{"type":"Point","coordinates":[121.60233184391072,23.985290015307118]},"properties":{"OBJECTID":23819,"LANDMARKID":"1001500001253","LANDMARKCO":"604","LANDMARKNA":"御之宿民宿","LANDMARKAD":"1001501","ADDRESS":"花蓮縣花蓮市中山路525巷2弄7-1號","TEL":"0936-291648","COUNTYNAME":"花蓮縣","TOWNNAME":"花蓮市","MARKTYPE":"996","Class":"6"}},{"type":"Feature","id":23820,"geometry":{"type":"Point","coordinates":[121.61428954718548,23.97223894176636]},"properties":{"OBJECTID":23820,"LANDMARKID":"1001500001254","LANDMARKCO":"604","LANDMARKNA":"浪淘沙","LANDMARKAD":"1001501","ADDRESS":"花蓮縣花蓮市海濱街20號","TEL":"03-8323169","COUNTYNAME":"花蓮縣","TOWNNAME":"花蓮市","MARKTYPE":"996","Class":"6"}},{"type":"Feature","id":23821,"geometry":{"type":"Point","coordinates":[121.62385794200999,23.991535982461034]},"properties":{"OBJECTID":23821,"LANDMARKID":"1001500001255","LANDMARKCO":"604","LANDMARKNA":"黎明優光民宿","LANDMARKAD":"1001501","ADDRESS":"花蓮縣花蓮市民權九街13巷12號","TEL":"03-8233220","COUNTYNAME":"花蓮縣","TOWNNAME":"花蓮市","MARKTYPE":"996","Class":"6"}},{"type":"Feature","id":23822,"geometry":{"type":"Point","coordinates":[121.62173835688753,23.996697631663359]},"properties":{"OBJECTID":23822,"LANDMARKID":"1001500001256","LANDMARKCO":"604","LANDMARKNA":"麗都小築民宿","LANDMARKAD":"1001501","ADDRESS":"花蓮縣花蓮市府前路340號","TEL":"0920-559717","COUNTYNAME":"花蓮縣","TOWNNAME":"花蓮市","MARKTYPE":"996","Class":"6"}},{"type":"Feature","id":23823,"geometry":{"type":"Point","coordinates":[121.57447520052379,23.995763183882467]},"properties":{"OBJECTID":23823,"LANDMARKID":"1001500001257","LANDMARKCO":"604","LANDMARKNA":"雲想優質民宿","LANDMARKAD":"1001501","ADDRESS":"花蓮縣花蓮市建興街137巷15弄9號","TEL":"03-8564916","COUNTYNAME":"花蓮縣","TOWNNAME":"花蓮市","MARKTYPE":"996","Class":"6"}},{"type":"Feature","id":23824,"geometry":{"type":"Point","coordinates":[121.6142969085914,23.983751189725147]},"properties":{"OBJECTID":23824,"LANDMARKID":"1001500001258","LANDMARKCO":"604","LANDMARKNA":"伯特利民宿","LANDMARKAD":"1001501","ADDRESS":"花蓮縣花蓮市水源街55巷8號","TEL":"03-8328902","COUNTYNAME":"花蓮縣","TOWNNAME":"花蓮市","MARKTYPE":"996","Class":"6"}},{"type":"Feature","id":23825,"geometry":{"type":"Point","coordinates":[121.59836834306689,23.97793325516497]},"properties":{"OBJECTID":23825,"LANDMARKID":"1001500001259","LANDMARKCO":"604","LANDMARKNA":"島國BALI民宿","LANDMARKAD":"1001501","ADDRESS":"花蓮縣花蓮市林榮街36號","TEL":"03-8323979","COUNTYNAME":"花蓮縣","TOWNNAME":"花蓮市","MARKTYPE":"996","Class":"6"}},{"type":"Feature","id":23826,"geometry":{"type":"Point","coordinates":[121.6028992195467,23.989901350653255]},"properties":{"OBJECTID":23826,"LANDMARKID":"1001500001260","LANDMARKCO":"604","LANDMARKNA":"洄瀾雅舍民宿","LANDMARKAD":"1001501","ADDRESS":"花蓮縣花蓮市國聯二路78號","TEL":"03-8326668","COUNTYNAME":"花蓮縣","TOWNNAME":"花蓮市","MARKTYPE":"996","Class":"6"}},{"type":"Feature","id":23827,"geometry":{"type":"Point","coordinates":[121.57427095333567,23.994897888520448]},"properties":{"OBJECTID":23827,"LANDMARKID":"1001500001261","LANDMARKCO":"604","LANDMARKNA":"水雲鄉山景民宿","LANDMARKAD":"1001501","ADDRESS":"花蓮縣花蓮市建興街59巷18號","TEL":"03-8566558","COUNTYNAME":"花蓮縣","TOWNNAME":"花蓮市","MARKTYPE":"996","Class":"6"}},{"type":"Feature","id":23828,"geometry":{"type":"Point","coordinates":[121.60281004503132,23.974100857468212]},"properties":{"OBJECTID":23828,"LANDMARKID":"1001500001262","LANDMARKCO":"604","LANDMARKNA":"歐洲之星民宿","LANDMARKAD":"1001501","ADDRESS":"花蓮縣花蓮市中正路354號","TEL":"03-8350789","COUNTYNAME":"花蓮縣","TOWNNAME":"花蓮市","MARKTYPE":"996","Class":"6"}},{"type":"Feature","id":23829,"geometry":{"type":"Point","coordinates":[121.63305729479445,23.991955069380452]},"properties":{"OBJECTID":23829,"LANDMARKID":"1001500001263","LANDMARKCO":"604","LANDMARKNA":"伊万里民宿","LANDMARKAD":"1001501","ADDRESS":"花蓮縣花蓮市忠義一街27之4號","TEL":"03-8236600","COUNTYNAME":"花蓮縣","TOWNNAME":"花蓮市","MARKTYPE":"996","Class":"6"}},{"type":"Feature","id":23830,"geometry":{"type":"Point","coordinates":[121.62318750355895,23.983433133182981]},"properties":{"OBJECTID":23830,"LANDMARKID":"1001500000829","LANDMARKCO":"601","LANDMARKNA":"花蓮亞士都飯店","LANDMARKAD":"1001501","ADDRESS":"花蓮縣花蓮市民權路6之1號","TEL":"038-326-111","COUNTYNAME":"花蓮縣","TOWNNAME":"花蓮市","MARKTYPE":"996","Class":"6"}},{"type":"Feature","id":23831,"geometry":{"type":"Point","coordinates":[121.61181923895904,23.977376255514791]},"properties":{"OBJECTID":23831,"LANDMARKID":"1001500000830","LANDMARKCO":"601","LANDMARKNA":"統帥大飯店","LANDMARKAD":"1001501","ADDRESS":"花蓮縣花蓮市公園路36號","TEL":"038-326-123","COUNTYNAME":"花蓮縣","TOWNNAME":"花蓮市","MARKTYPE":"996","Class":"6"}},{"type":"Feature","id":23832,"geometry":{"type":"Point","coordinates":[121.6268044336957,23.991712812343746]},"properties":{"OBJECTID":23832,"LANDMARKID":"1001500000831","LANDMARKCO":"601","LANDMARKNA":"中信大飯店(花蓮)","LANDMARKAD":"1001501","ADDRESS":"花蓮縣花蓮市美崙區永興路2號","TEL":"038-221-171","COUNTYNAME":"花蓮縣","TOWNNAME":"花蓮市","MARKTYPE":"996","Class":"6"}},{"type":"Feature","id":23833,"geometry":{"type":"Point","coordinates":[121.62796636285032,24.000166001858254]},"properties":{"OBJECTID":23833,"LANDMARKID":"1001500000832","LANDMARKCO":"601","LANDMARKNA":"美侖大飯店","LANDMARKAD":"1001501","ADDRESS":"花蓮縣花蓮市美崙區林園1之1號","TEL":"038-222-111","COUNTYNAME":"花蓮縣","TOWNNAME":"花蓮市","MARKTYPE":"996","Class":"6"}},{"type":"Feature","id":23834,"geometry":{"type":"Point","coordinates":[121.60917075356097,23.979851749374831]},"properties":{"OBJECTID":23834,"LANDMARKID":"1001500000834","LANDMARKCO":"602","LANDMARKNA":"華京大飯店(花蓮)","LANDMARKAD":"1001501","ADDRESS":"花蓮縣花蓮市三民街50號","TEL":"03-8326-151","COUNTYNAME":"花蓮縣","TOWNNAME":"花蓮市","MARKTYPE":"996","Class":"6"}},{"type":"Feature","id":23835,"geometry":{"type":"Point","coordinates":[121.60708127421458,23.974907543691536]},"properties":{"OBJECTID":23835,"LANDMARKID":"1001500000792","LANDMARKCO":"511","LANDMARKNA":"溝仔尾夜市","LANDMARKAD":"1001501","ADDRESS":"花蓮縣花蓮市自由街和明義街之間","TEL":" ","COUNTYNAME":"花蓮縣","TOWNNAME":"花蓮市","MARKTYPE":"995","Class":"5"}},{"type":"Feature","id":23836,"geometry":{"type":"Point","coordinates":[121.6099613087374,23.976503922688668]},"properties":{"OBJECTID":23836,"LANDMARKID":"1001500000793","LANDMARKCO":"511","LANDMARKNA":"黃昏市場夜市","LANDMARKAD":"1001501","ADDRESS":"花蓮縣花蓮市","TEL":" ","COUNTYNAME":"花蓮縣","TOWNNAME":"花蓮市","MARKTYPE":"995","Class":"5"}},{"type":"Feature","id":23837,"geometry":{"type":"Point","coordinates":[121.60906606074469,23.967305590098924]},"properties":{"OBJECTID":23837,"LANDMARKID":"1001500000794","LANDMARKCO":"511","LANDMARKNA":"南濱公園夜市","LANDMARKAD":"1001501","ADDRESS":"花蓮縣花蓮市","TEL":" ","COUNTYNAME":"花蓮縣","TOWNNAME":"花蓮市","MARKTYPE":"995","Class":"5"}},{"type":"Feature","id":23838,"geometry":{"type":"Point","coordinates":[121.60722851467021,23.974866764622764]},"properties":{"OBJECTID":23838,"LANDMARKID":"1001500000795","LANDMARKCO":"511","LANDMARKNA":"中央市場夜市","LANDMARKAD":"1001501","ADDRESS":"花蓮縣花蓮市","TEL":" ","COUNTYNAME":"花蓮縣","TOWNNAME":"花蓮市","MARKTYPE":"995","Class":"5"}},{"type":"Feature","id":23839,"geometry":{"type":"Point","coordinates":[121.62662229318556,23.99790248500053]},"properties":{"OBJECTID":23839,"LANDMARKID":"1001500000791","LANDMARKCO":"510","LANDMARKNA":"財團法人花蓮高爾夫俱樂部","LANDMARKAD":"1001501","ADDRESS":"花蓮縣花蓮市化道路120號","TEL":"03-8227528","COUNTYNAME":"花蓮縣","TOWNNAME":"花蓮市","MARKTYPE":"995","Class":"5"}},{"type":"Feature","id":23840,"geometry":{"type":"Point","coordinates":[121.57639824446476,23.975555667434403]},"properties":{"OBJECTID":23840,"LANDMARKID":"1001500000589","LANDMARKCO":"405","LANDMARKNA":"中油加油站-慶豐昌站","LANDMARKAD":"1001505","ADDRESS":"花蓮縣吉安鄉中央路2段336號","TEL":"03-8510661","COUNTYNAME":"花蓮縣","TOWNNAME":"吉安鄉","MARKTYPE":"994","Class":"4"}},{"type":"Feature","id":23841,"geometry":{"type":"Point","coordinates":[121.58976774324697,23.983253805771611]},"properties":{"OBJECTID":23841,"LANDMARKID":"1001500000590","LANDMARKCO":"405","LANDMARKNA":"中油加油站-富薪站","LANDMARKAD":"1001505","ADDRESS":"花蓮縣吉安鄉北昌村自強路400號","TEL":"03-8575580","COUNTYNAME":"花蓮縣","TOWNNAME":"吉安鄉","MARKTYPE":"994","Class":"4"}},{"type":"Feature","id":23842,"geometry":{"type":"Point","coordinates":[121.59152039182192,23.927863947347635]},"properties":{"OBJECTID":23842,"LANDMARKID":"1001500000591","LANDMARKCO":"405","LANDMARKNA":"統一速邁樂加油站-花蓮加油站(中油)","LANDMARKAD":"1001505","ADDRESS":"花蓮縣吉安鄉光華村海岸路789號","TEL":" ","COUNTYNAME":"花蓮縣","TOWNNAME":"吉安鄉","MARKTYPE":"994","Class":"4"}},{"type":"Feature","id":23843,"geometry":{"type":"Point","coordinates":[121.58197565537364,23.973737962172788]},"properties":{"OBJECTID":23843,"LANDMARKID":"1001500000592","LANDMARKCO":"405","LANDMARKNA":"北基加油站-花蓮站(中油)","LANDMARKAD":"1001505","ADDRESS":"花蓮縣吉安鄉中華路2段248號","TEL":"(03)853-5268","COUNTYNAME":"花蓮縣","TOWNNAME":"吉安鄉","MARKTYPE":"994","Class":"4"}},{"type":"Feature","id":23844,"geometry":{"type":"Point","coordinates":[121.59421918969747,23.930328855307671]},"properties":{"OBJECTID":23844,"LANDMARKID":"1001500000593","LANDMARKCO":"405","LANDMARKNA":"中油加油站-友華站","LANDMARKAD":"1001505","ADDRESS":"花蓮縣吉安鄉光華村南濱路1段533號","TEL":"03-8421636","COUNTYNAME":"花蓮縣","TOWNNAME":"吉安鄉","MARKTYPE":"994","Class":"4"}},{"type":"Feature","id":23845,"geometry":{"type":"Point","coordinates":[121.58426830751274,23.988908136243502]},"properties":{"OBJECTID":23845,"LANDMARKID":"1001500000594","LANDMARKCO":"405","LANDMARKNA":"中油加油站-建國路站","LANDMARKAD":"1001505","ADDRESS":"花蓮縣吉安鄉建國路二段3號","TEL":"03-8579058","COUNTYNAME":"花蓮縣","TOWNNAME":"吉安鄉","MARKTYPE":"994","Class":"4"}},{"type":"Feature","id":23846,"geometry":{"type":"Point","coordinates":[121.57547360239344,23.967996449965373]},"properties":{"OBJECTID":23846,"LANDMARKID":"1001500000595","LANDMARKCO":"405","LANDMARKNA":"中油加油站-吉興路站","LANDMARKAD":"1001505","ADDRESS":"花蓮縣吉安鄉吉安村吉興路一段126號","TEL":"03-8520247","COUNTYNAME":"花蓮縣","TOWNNAME":"吉安鄉","MARKTYPE":"994","Class":"4"}},{"type":"Feature","id":23847,"geometry":{"type":"Point","coordinates":[121.58837284954267,23.988246358656085]},"properties":{"OBJECTID":23847,"LANDMARKID":"1001500000596","LANDMARKCO":"405","LANDMARKNA":"中油加油站-長良站","LANDMARKAD":"1001505","ADDRESS":"花蓮縣吉安鄉中央路三段529號","TEL":"03-8578399","COUNTYNAME":"花蓮縣","TOWNNAME":"吉安鄉","MARKTYPE":"994","Class":"4"}},{"type":"Feature","id":23848,"geometry":{"type":"Point","coordinates":[121.60459113745198,23.962480553165964]},"properties":{"OBJECTID":23848,"LANDMARKID":"1001500000597","LANDMARKCO":"405","LANDMARKNA":"中油加油站-太平洋站","LANDMARKAD":"1001505","ADDRESS":"花蓮縣吉安鄉南濱路一段6號","TEL":"03-8534370","COUNTYNAME":"花蓮縣","TOWNNAME":"吉安鄉","MARKTYPE":"994","Class":"4"}},{"type":"Feature","id":23849,"geometry":{"type":"Point","coordinates":[121.59193145450807,23.981306627185983]},"properties":{"OBJECTID":23849,"LANDMARKID":"1001500000598","LANDMARKCO":"405","LANDMARKNA":"中油加油站-巨豐站","LANDMARKAD":"1001505","ADDRESS":"花蓮縣吉安鄉勝安村和平路1段45號","TEL":"03-8580391","COUNTYNAME":"花蓮縣","TOWNNAME":"吉安鄉","MARKTYPE":"994","Class":"4"}},{"type":"Feature","id":23850,"geometry":{"type":"Point","coordinates":[121.58156379217411,23.964233733748401]},"properties":{"OBJECTID":23850,"LANDMARKID":"1001500000599","LANDMARKCO":"405","LANDMARKNA":"中油加油站-美得吉豐營業處站","LANDMARKAD":"1001505","ADDRESS":"花蓮縣吉安鄉吉豐路一段198號","TEL":"03-8540006","COUNTYNAME":"花蓮縣","TOWNNAME":"吉安鄉","MARKTYPE":"994","Class":"4"}},{"type":"Feature","id":23851,"geometry":{"type":"Point","coordinates":[121.58960986181025,23.964132078075941]},"properties":{"OBJECTID":23851,"LANDMARKID":"1001500000600","LANDMARKCO":"405","LANDMARKNA":"中油加油站-南埔站(中油自營)","LANDMARKAD":"1001505","ADDRESS":"花蓮縣吉安鄉仁和村中正路二段6號","TEL":"03-8522853","COUNTYNAME":"花蓮縣","TOWNNAME":"吉安鄉","MARKTYPE":"994","Class":"4"}},{"type":"Feature","id":23852,"geometry":{"type":"Point","coordinates":[121.57970930521248,23.973189430958897]},"properties":{"OBJECTID":23852,"LANDMARKID":"1001500000554","LANDMARKCO":"402","LANDMARKNA":"亞太行動寬頻電信-花蓮吉安加盟服務中心","LANDMARKAD":"1001505","ADDRESS":"花蓮縣吉安鄉中華路2段255號","TEL":"03-8547755","COUNTYNAME":"花蓮縣","TOWNNAME":"吉安鄉","MARKTYPE":"994","Class":"4"}},{"type":"Feature","id":23853,"geometry":{"type":"Point","coordinates":[121.56586616970441,23.974824560982256]},"properties":{"OBJECTID":23853,"LANDMARKID":"1001500000767","LANDMARKCO":"507","LANDMARKNA":"吉安慶修院","LANDMARKAD":"1001505","ADDRESS":"花蓮縣吉安鄉吉安村中興路349號","TEL":" ","COUNTYNAME":"花蓮縣","TOWNNAME":"吉安鄉","MARKTYPE":"995","Class":"5"}},{"type":"Feature","id":23854,"geometry":{"type":"Point","coordinates":[121.52510444100538,23.948719212416211]},"properties":{"OBJECTID":23854,"LANDMARKID":"1001500000768","LANDMARKCO":"507","LANDMARKNA":"吉安橫斷道路開鑿紀念碑","LANDMARKAD":"1001505","ADDRESS":"花蓮縣吉安鄉干城村吉安段4781之9地號","TEL":" ","COUNTYNAME":"花蓮縣","TOWNNAME":"吉安鄉","MARKTYPE":"995","Class":"5"}},{"type":"Feature","id":23855,"geometry":{"type":"Point","coordinates":[121.56020190943939,23.986788146519249]},"properties":{"OBJECTID":23855,"LANDMARKID":"1001500000760","LANDMARKCO":"506","LANDMARKNA":"慈雲山觀光農園","LANDMARKAD":"1001505","ADDRESS":"花蓮縣吉安鄉慶豐村中山路三段953巷53號","TEL":"03-8536328","COUNTYNAME":"花蓮縣","TOWNNAME":"吉安鄉","MARKTYPE":"995","Class":"5"}},{"type":"Feature","id":23856,"geometry":{"type":"Point","coordinates":[121.54336952607994,23.943106501575421]},"properties":{"OBJECTID":23856,"LANDMARKID":"1001500000761","LANDMARKCO":"506","LANDMARKNA":"君達香草健康世界","LANDMARKAD":"1001505","ADDRESS":"花蓮縣吉安鄉干城村干城45之63號","TEL":"038-525775","COUNTYNAME":"花蓮縣","TOWNNAME":"吉安鄉","MARKTYPE":"995","Class":"5"}},{"type":"Feature","id":23857,"geometry":{"type":"Point","coordinates":[121.56666115796367,23.978381972868913]},"properties":{"OBJECTID":23857,"LANDMARKID":"1001500000701","LANDMARKCO":"408","LANDMARKNA":"郵局-吉安郵局","LANDMARKAD":"1001505","ADDRESS":"花蓮縣吉安鄉慶豐村吉安路2段280號","TEL":"(03)8521-279","COUNTYNAME":"花蓮縣","TOWNNAME":"吉安鄉","MARKTYPE":"994","Class":"4"}},{"type":"Feature","id":23858,"geometry":{"type":"Point","coordinates":[121.5928399269883,23.967453606012686]},"properties":{"OBJECTID":23858,"LANDMARKID":"1001500000702","LANDMARKCO":"408","LANDMARKNA":"郵局-吉安仁里郵局","LANDMARKAD":"1001505","ADDRESS":"花蓮縣吉安鄉仁里村中正路1段48號","TEL":"(03)8520-442","COUNTYNAME":"花蓮縣","TOWNNAME":"吉安鄉","MARKTYPE":"994","Class":"4"}},{"type":"Feature","id":23859,"geometry":{"type":"Point","coordinates":[121.58513743610405,23.973620752902946]},"properties":{"OBJECTID":23859,"LANDMARKID":"1001500000703","LANDMARKCO":"408","LANDMARKNA":"郵局-吉安宜昌郵局","LANDMARKAD":"1001505","ADDRESS":"花蓮縣吉安鄉中華路2段83號","TEL":"(03)8528-673","COUNTYNAME":"花蓮縣","TOWNNAME":"吉安鄉","MARKTYPE":"994","Class":"4"}},{"type":"Feature","id":23860,"geometry":{"type":"Point","coordinates":[121.5751474125133,23.99175951979252]},"properties":{"OBJECTID":23860,"LANDMARKID":"1001500000704","LANDMARKCO":"408","LANDMARKNA":"郵局-吉安太昌郵局","LANDMARKAD":"1001505","ADDRESS":"花蓮縣吉安鄉永安村吉安路段35號","TEL":"(03)8568-217","COUNTYNAME":"花蓮縣","TOWNNAME":"吉安鄉","MARKTYPE":"994","Class":"4"}},{"type":"Feature","id":23861,"geometry":{"type":"Point","coordinates":[121.57255337407828,23.961705806599866]},"properties":{"OBJECTID":23861,"LANDMARKID":"1001500000569","LANDMARKCO":"404","LANDMARKNA":"台灣自來水吉安壽豐服務所","LANDMARKAD":"1001505","ADDRESS":"花蓮縣吉安鄉稻香村16鄰稻香路8號","TEL":"03-8523131","COUNTYNAME":"花蓮縣","TOWNNAME":"吉安鄉","MARKTYPE":"994","Class":"4"}},{"type":"Feature","id":23862,"geometry":{"type":"Point","coordinates":[121.57218372842499,23.962041234395119]},"properties":{"OBJECTID":23862,"LANDMARKID":"1001500000570","LANDMARKCO":"404","LANDMARKNA":"台灣省自來水吉安服務所","LANDMARKAD":"1001505","ADDRESS":"花蓮縣吉安鄉稻香村16鄰稻香路8號","TEL":" ","COUNTYNAME":"花蓮縣","TOWNNAME":"吉安鄉","MARKTYPE":"994","Class":"4"}},{"type":"Feature","id":23863,"geometry":{"type":"Point","coordinates":[121.57260850847915,23.990387133829927]},"properties":{"OBJECTID":23863,"LANDMARKID":"1001500000666","LANDMARKCO":"406","LANDMARKNA":"榮安公園","LANDMARKAD":"1001505","ADDRESS":"花蓮縣吉安鄉","TEL":" ","COUNTYNAME":"花蓮縣","TOWNNAME":"吉安鄉","MARKTYPE":"994","Class":"4"}},{"type":"Feature","id":23864,"geometry":{"type":"Point","coordinates":[121.57828478151575,23.973081275737449]},"properties":{"OBJECTID":23864,"LANDMARKID":"1001500000667","LANDMARKCO":"406","LANDMARKNA":"中山公園","LANDMARKAD":"1001505","ADDRESS":"花蓮縣吉安鄉","TEL":" ","COUNTYNAME":"花蓮縣","TOWNNAME":"吉安鄉","MARKTYPE":"994","Class":"4"}},{"type":"Feature","id":23865,"geometry":{"type":"Point","coordinates":[121.58869825697802,23.963864161562437]},"properties":{"OBJECTID":23865,"LANDMARKID":"1001500000668","LANDMARKCO":"406","LANDMARKNA":"南埔公園","LANDMARKAD":"1001505","ADDRESS":"花蓮縣吉安鄉","TEL":" ","COUNTYNAME":"花蓮縣","TOWNNAME":"吉安鄉","MARKTYPE":"994","Class":"4"}},{"type":"Feature","id":23866,"geometry":{"type":"Point","coordinates":[121.57079636830373,23.970609896890469]},"properties":{"OBJECTID":23866,"LANDMARKID":"1001500000587","LANDMARKCO":"405","LANDMARKNA":"台塑加油站-台灣吉安站(台塑)","LANDMARKAD":"1001505","ADDRESS":"花蓮縣吉安鄉中興路121號","TEL":"03-8534930","COUNTYNAME":"花蓮縣","TOWNNAME":"吉安鄉","MARKTYPE":"994","Class":"4"}},{"type":"Feature","id":23867,"geometry":{"type":"Point","coordinates":[121.54804702252217,23.946338095796982]},"properties":{"OBJECTID":23867,"LANDMARKID":"1001500000588","LANDMARKCO":"405","LANDMARKNA":"台塑加油站-花東站(台塑)","LANDMARKAD":"1001505","ADDRESS":"花蓮縣吉安鄉干城村干城71-5號","TEL":"03-8544608","COUNTYNAME":"花蓮縣","TOWNNAME":"吉安鄉","MARKTYPE":"994","Class":"4"}},{"type":"Feature","id":23868,"geometry":{"type":"Point","coordinates":[121.5636771601817,23.973734662894131]},"properties":{"OBJECTID":23868,"LANDMARKID":"1001500000157","LANDMARKCO":"107","LANDMARKNA":"花蓮縣警察局吉安派出所","LANDMARKAD":"1001505","ADDRESS":"花蓮縣吉安鄉吉安村吉安路二段128號","TEL":"03-8525894","COUNTYNAME":"花蓮縣","TOWNNAME":"吉安鄉","MARKTYPE":"991","Class":"1"}},{"type":"Feature","id":23869,"geometry":{"type":"Point","coordinates":[121.56321887692238,23.973015671669462]},"properties":{"OBJECTID":23869,"LANDMARKID":"1001500000158","LANDMARKCO":"107","LANDMARKNA":"花蓮縣消防局吉安消防分隊","LANDMARKAD":"1001505","ADDRESS":"花蓮縣吉安鄉吉安路二段120號","TEL":"03-8522334","COUNTYNAME":"花蓮縣","TOWNNAME":"吉安鄉","MARKTYPE":"991","Class":"1"}},{"type":"Feature","id":23870,"geometry":{"type":"Point","coordinates":[121.56313885593386,23.972853728392153]},"properties":{"OBJECTID":23870,"LANDMARKID":"1001500000062","LANDMARKCO":"103","LANDMARKNA":"花蓮縣吉安鄉鄉民代表會","LANDMARKAD":"1001505","ADDRESS":"花蓮縣吉安鄉吉安路二段110號","TEL":"03-8539956","COUNTYNAME":"花蓮縣","TOWNNAME":"吉安鄉","MARKTYPE":"991","Class":"1"}},{"type":"Feature","id":23871,"geometry":{"type":"Point","coordinates":[121.59243162703977,23.969009824909442]},"properties":{"OBJECTID":23871,"LANDMARKID":"1001500000172","LANDMARKCO":"107","LANDMARKNA":"花蓮縣消防局仁里消防分隊","LANDMARKAD":"1001505","ADDRESS":"花蓮縣吉安鄉仁里三街11號","TEL":"03-8524143","COUNTYNAME":"花蓮縣","TOWNNAME":"吉安鄉","MARKTYPE":"991","Class":"1"}},{"type":"Feature","id":23872,"geometry":{"type":"Point","coordinates":[121.59315855892156,23.967911646189567]},"properties":{"OBJECTID":23872,"LANDMARKID":"1001500000173","LANDMARKCO":"107","LANDMARKNA":"花蓮縣警察局吉安分局","LANDMARKAD":"1001505","ADDRESS":"花蓮縣吉安鄉仁里村中正路一段38號","TEL":"03-8514200","COUNTYNAME":"花蓮縣","TOWNNAME":"吉安鄉","MARKTYPE":"991","Class":"1"}},{"type":"Feature","id":23873,"geometry":{"type":"Point","coordinates":[121.59202569613269,23.98807375657784]},"properties":{"OBJECTID":23873,"LANDMARKID":"1001500000174","LANDMARKCO":"107","LANDMARKNA":"花蓮縣警察局北昌派出所","LANDMARKAD":"1001505","ADDRESS":"花蓮縣吉安鄉北昌村34鄰壽昌街6號","TEL":"03-8569376","COUNTYNAME":"花蓮縣","TOWNNAME":"吉安鄉","MARKTYPE":"991","Class":"1"}},{"type":"Feature","id":23874,"geometry":{"type":"Point","coordinates":[121.57520952834629,23.991569476900032]},"properties":{"OBJECTID":23874,"LANDMARKID":"1001500000175","LANDMARKCO":"107","LANDMARKNA":"花蓮縣警察局太昌派出所","LANDMARKAD":"1001505","ADDRESS":"花蓮縣吉安鄉吉安村吉安路一段37號","TEL":"03-8569425","COUNTYNAME":"花蓮縣","TOWNNAME":"吉安鄉","MARKTYPE":"991","Class":"1"}},{"type":"Feature","id":23875,"geometry":{"type":"Point","coordinates":[121.59315855892156,23.967911646189567]},"properties":{"OBJECTID":23875,"LANDMARKID":"1001500000176","LANDMARKCO":"107","LANDMARKNA":"花蓮縣警察局仁里派出所","LANDMARKAD":"1001505","ADDRESS":"花蓮縣吉安鄉中正路一段38號","TEL":"03-8527894","COUNTYNAME":"花蓮縣","TOWNNAME":"吉安鄉","MARKTYPE":"991","Class":"1"}},{"type":"Feature","id":23876,"geometry":{"type":"Point","coordinates":[121.56384947301888,23.97320968853219]},"properties":{"OBJECTID":23876,"LANDMARKID":"1001500000105","LANDMARKCO":"106","LANDMARKNA":"花蓮縣吉安鄉戶政事務所","LANDMARKAD":"1001505","ADDRESS":"花蓮縣吉安鄉吉安路二段124巷6號","TEL":"03-8528267","COUNTYNAME":"花蓮縣","TOWNNAME":"吉安鄉","MARKTYPE":"991","Class":"1"}},{"type":"Feature","id":23877,"geometry":{"type":"Point","coordinates":[121.58670761466618,23.961023500993402]},"properties":{"OBJECTID":23877,"LANDMARKID":"1001500000035","LANDMARKCO":"101","LANDMARKNA":"台北區監理所花蓮監理站","LANDMARKAD":"1001505","ADDRESS":"花蓮縣吉安鄉中正路二段152號","TEL":"03-8523166","COUNTYNAME":"花蓮縣","TOWNNAME":"吉安鄉","MARKTYPE":"991","Class":"1"}},{"type":"Feature","id":23878,"geometry":{"type":"Point","coordinates":[121.5274202148664,23.948365733470702]},"properties":{"OBJECTID":23878,"LANDMARKID":"1001500000036","LANDMARKCO":"101","LANDMARKNA":"台灣花蓮監獄","LANDMARKAD":"1001505","ADDRESS":"花蓮縣吉安鄉干城村吉安路6段700號","TEL":"03-8521141","COUNTYNAME":"花蓮縣","TOWNNAME":"吉安鄉","MARKTYPE":"991","Class":"1"}},{"type":"Feature","id":23879,"geometry":{"type":"Point","coordinates":[121.59252904632497,23.965379281935412]},"properties":{"OBJECTID":23879,"LANDMARKID":"1001500000037","LANDMARKCO":"101","LANDMARKNA":"內政部國土測繪中心吉安辦公室","LANDMARKAD":"1001505","ADDRESS":"花蓮縣吉安鄉東海十街22號之1","TEL":"03-8511146","COUNTYNAME":"花蓮縣","TOWNNAME":"吉安鄉","MARKTYPE":"991","Class":"1"}},{"type":"Feature","id":23880,"geometry":{"type":"Point","coordinates":[121.54748688947275,23.950307364340627]},"properties":{"OBJECTID":23880,"LANDMARKID":"1001500000038","LANDMARKCO":"101","LANDMARKNA":"農業委員會畜產試驗所花蓮種畜繁殖場","LANDMARKAD":"1001505","ADDRESS":"花蓮縣吉安鄉吉安路6段38號","TEL":"03-8524365","COUNTYNAME":"花蓮縣","TOWNNAME":"吉安鄉","MARKTYPE":"991","Class":"1"}},{"type":"Feature","id":23881,"geometry":{"type":"Point","coordinates":[121.564303330337,23.974552894102363]},"properties":{"OBJECTID":23881,"LANDMARKID":"1001500000039","LANDMARKCO":"101","LANDMARKNA":"農業委員會花蓮區農業改良場","LANDMARKAD":"1001505","ADDRESS":"花蓮縣吉安鄉吉安路二段150號","TEL":"03-8521108","COUNTYNAME":"花蓮縣","TOWNNAME":"吉安鄉","MARKTYPE":"991","Class":"1"}},{"type":"Feature","id":23882,"geometry":{"type":"Point","coordinates":[121.54836575954548,23.945732252692981]},"properties":{"OBJECTID":23882,"LANDMARKID":"1001500000040","LANDMARKCO":"101","LANDMARKNA":"林務局花蓮林區管理處南華工作站","LANDMARKAD":"1001505","ADDRESS":"花蓮縣吉安鄉干城村4鄰吉安路6段117號","TEL":"03-8527526","COUNTYNAME":"花蓮縣","TOWNNAME":"吉安鄉","MARKTYPE":"991","Class":"1"}},{"type":"Feature","id":23883,"geometry":{"type":"Point","coordinates":[121.56385458085444,23.973796565277688]},"properties":{"OBJECTID":23883,"LANDMARKID":"1001500000061","LANDMARKCO":"103","LANDMARKNA":"花蓮縣吉安鄉衛生所","LANDMARKAD":"1001505","ADDRESS":"花蓮縣吉安鄉吉安路二段132號","TEL":"03-8521113","COUNTYNAME":"花蓮縣","TOWNNAME":"吉安鄉","MARKTYPE":"991","Class":"1"}},{"type":"Feature","id":23884,"geometry":{"type":"Point","coordinates":[121.56357025867557,23.972742208285528]},"properties":{"OBJECTID":23884,"LANDMARKID":"1001500000233","LANDMARKCO":"108","LANDMARKNA":"花蓮縣吉安鄉公所","LANDMARKAD":"1001505","ADDRESS":"花蓮縣吉安鄉吉安村吉安路116號","TEL":"03-8523126","COUNTYNAME":"花蓮縣","TOWNNAME":"吉安鄉","MARKTYPE":"991","Class":"1"}},{"type":"Feature","id":23885,"geometry":{"type":"Point","coordinates":[121.57203017546497,23.963771321096857]},"properties":{"OBJECTID":23885,"LANDMARKID":"1001500000159","LANDMARKCO":"107","LANDMARKNA":"花蓮縣警察局稻香派出所","LANDMARKAD":"1001505","ADDRESS":"花蓮縣吉安鄉稻香村47之1號","TEL":"03-8521340","COUNTYNAME":"花蓮縣","TOWNNAME":"吉安鄉","MARKTYPE":"991","Class":"1"}},{"type":"Feature","id":23886,"geometry":{"type":"Point","coordinates":[121.54756126907486,23.947254907254123]},"properties":{"OBJECTID":23886,"LANDMARKID":"1001500000160","LANDMARKCO":"107","LANDMARKNA":"花蓮縣警察局南華派出所","LANDMARKAD":"1001505","ADDRESS":"花蓮縣吉安鄉干城村干城168號","TEL":"03-8521672","COUNTYNAME":"花蓮縣","TOWNNAME":"吉安鄉","MARKTYPE":"991","Class":"1"}},{"type":"Feature","id":23887,"geometry":{"type":"Point","coordinates":[121.58092186485736,23.970007215992116]},"properties":{"OBJECTID":23887,"LANDMARKID":"1001500000415","LANDMARKCO":"205","LANDMARKNA":"吉安鄉阿美文物館","LANDMARKAD":"1001505","ADDRESS":"花蓮縣吉安鄉文化五街43號","TEL":"03-8531116","COUNTYNAME":"花蓮縣","TOWNNAME":"吉安鄉","MARKTYPE":"992","Class":"2"}},{"type":"Feature","id":23888,"geometry":{"type":"Point","coordinates":[121.57792125782321,23.972929609373292]},"properties":{"OBJECTID":23888,"LANDMARKID":"1001500000408","LANDMARKCO":"204","LANDMARKNA":"花蓮縣立圖書館吉安分館","LANDMARKAD":"1001505","ADDRESS":"花蓮縣吉安鄉吉安村中山路三段3號","TEL":" ","COUNTYNAME":"花蓮縣","TOWNNAME":"吉安鄉","MARKTYPE":"992","Class":"2"}},{"type":"Feature","id":23889,"geometry":{"type":"Point","coordinates":[121.59150894101442,23.987444023776394]},"properties":{"OBJECTID":23889,"LANDMARKID":"1001500000328","LANDMARKCO":"203","LANDMARKNA":"縣立北昌國小","LANDMARKAD":"1001505","ADDRESS":"花蓮縣吉安鄉北昌村自強路533號","TEL":"03-8562619","COUNTYNAME":"花蓮縣","TOWNNAME":"吉安鄉","MARKTYPE":"992","Class":"2"}},{"type":"Feature","id":23890,"geometry":{"type":"Point","coordinates":[121.59611256277141,23.962599302693537]},"properties":{"OBJECTID":23890,"LANDMARKID":"1001500000329","LANDMARKCO":"203","LANDMARKNA":"縣立化仁國小","LANDMARKAD":"1001505","ADDRESS":"花蓮縣吉安鄉東昌村東里十一街83號","TEL":"03-8528720","COUNTYNAME":"花蓮縣","TOWNNAME":"吉安鄉","MARKTYPE":"992","Class":"2"}},{"type":"Feature","id":23891,"geometry":{"type":"Point","coordinates":[121.55866350225391,23.972108851735491]},"properties":{"OBJECTID":23891,"LANDMARKID":"1001500000256","LANDMARKCO":"202","LANDMARKNA":"私立中華工商","LANDMARKAD":"1001505","ADDRESS":"花蓮縣吉安鄉吉安村吉興四街101號","TEL":"03-8538565","COUNTYNAME":"花蓮縣","TOWNNAME":"吉安鄉","MARKTYPE":"992","Class":"2"}},{"type":"Feature","id":23892,"geometry":{"type":"Point","coordinates":[121.56123709327763,23.983477096484858]},"properties":{"OBJECTID":23892,"LANDMARKID":"1001500000309","LANDMARKCO":"203","LANDMARKNA":"縣立吉安國中","LANDMARKAD":"1001505","ADDRESS":"花蓮縣吉安鄉中山路三段662號","TEL":"03-8523136","COUNTYNAME":"花蓮縣","TOWNNAME":"吉安鄉","MARKTYPE":"992","Class":"2"}},{"type":"Feature","id":23893,"geometry":{"type":"Point","coordinates":[121.5932278086031,23.965500296927193]},"properties":{"OBJECTID":23893,"LANDMARKID":"1001500000310","LANDMARKCO":"203","LANDMARKNA":"縣立化仁國中","LANDMARKAD":"1001505","ADDRESS":"花蓮縣吉安鄉仁里村東海十街3號","TEL":"03-8543471","COUNTYNAME":"花蓮縣","TOWNNAME":"吉安鄉","MARKTYPE":"992","Class":"2"}},{"type":"Feature","id":23894,"geometry":{"type":"Point","coordinates":[121.56512339301065,23.995178780202465]},"properties":{"OBJECTID":23894,"LANDMARKID":"1001500000311","LANDMARKCO":"203","LANDMARKNA":"縣立太昌國小","LANDMARKAD":"1001505","ADDRESS":"花蓮縣吉安鄉太昌村明義五街1號","TEL":"03-8571746","COUNTYNAME":"花蓮縣","TOWNNAME":"吉安鄉","MARKTYPE":"992","Class":"2"}},{"type":"Feature","id":23895,"geometry":{"type":"Point","coordinates":[121.58552001946704,23.971071578437012]},"properties":{"OBJECTID":23895,"LANDMARKID":"1001500000312","LANDMARKCO":"203","LANDMARKNA":"縣立宜昌國小","LANDMARKAD":"1001505","ADDRESS":"花蓮縣吉安鄉宜昌一街45號","TEL":"03-8520209","COUNTYNAME":"花蓮縣","TOWNNAME":"吉安鄉","MARKTYPE":"992","Class":"2"}},{"type":"Feature","id":23896,"geometry":{"type":"Point","coordinates":[121.56281938271448,23.97340686970665]},"properties":{"OBJECTID":23896,"LANDMARKID":"1001500000313","LANDMARKCO":"203","LANDMARKNA":"縣立吉安國小","LANDMARKAD":"1001505","ADDRESS":"花蓮縣吉安鄉吉安路二段97號","TEL":"03-8523984","COUNTYNAME":"花蓮縣","TOWNNAME":"吉安鄉","MARKTYPE":"992","Class":"2"}},{"type":"Feature","id":23897,"geometry":{"type":"Point","coordinates":[121.58939638410767,23.992426374099765]},"properties":{"OBJECTID":23897,"LANDMARKID":"1001500000240","LANDMARKCO":"201","LANDMARKNA":"慈濟大學","LANDMARKAD":"1001505","ADDRESS":"花蓮縣花蓮市中央路三段701號","TEL":"03-8565301","COUNTYNAME":"花蓮縣","TOWNNAME":"吉安鄉","MARKTYPE":"992","Class":"2"}},{"type":"Feature","id":23898,"geometry":{"type":"Point","coordinates":[121.58759187107989,23.972294281859419]},"properties":{"OBJECTID":23898,"LANDMARKID":"1001500000322","LANDMARKCO":"203","LANDMARKNA":"縣立宜昌國中","LANDMARKAD":"1001505","ADDRESS":"花蓮縣吉安鄉宜昌村1鄰41號","TEL":"03-8520803","COUNTYNAME":"花蓮縣","TOWNNAME":"吉安鄉","MARKTYPE":"992","Class":"2"}},{"type":"Feature","id":23899,"geometry":{"type":"Point","coordinates":[121.56869216736258,23.96297319409512]},"properties":{"OBJECTID":23899,"LANDMARKID":"1001500000323","LANDMARKCO":"203","LANDMARKNA":"縣立稻香國小","LANDMARKAD":"1001505","ADDRESS":"花蓮縣吉安鄉稻香村21鄰49號","TEL":"03-8524734","COUNTYNAME":"花蓮縣","TOWNNAME":"吉安鄉","MARKTYPE":"992","Class":"2"}},{"type":"Feature","id":23900,"geometry":{"type":"Point","coordinates":[121.57853587219773,23.935672489794214]},"properties":{"OBJECTID":23900,"LANDMARKID":"1001500000324","LANDMARKCO":"203","LANDMARKNA":"縣立光華國小","LANDMARKAD":"1001505","ADDRESS":"花蓮縣吉安鄉光華村39之1號","TEL":"03-8521611","COUNTYNAME":"花蓮縣","TOWNNAME":"吉安鄉","MARKTYPE":"992","Class":"2"}},{"type":"Feature","id":23901,"geometry":{"type":"Point","coordinates":[121.54701876795183,23.949325684693225]},"properties":{"OBJECTID":23901,"LANDMARKID":"1001500000325","LANDMARKCO":"203","LANDMARKNA":"縣立南華國小","LANDMARKAD":"1001505","ADDRESS":"花蓮縣吉安鄉干城村46號","TEL":"03-8525043","COUNTYNAME":"花蓮縣","TOWNNAME":"吉安鄉","MARKTYPE":"992","Class":"2"}},{"type":"Feature","id":23902,"geometry":{"type":"Point","coordinates":[121.58986365176011,23.97111370586536]},"properties":{"OBJECTID":23902,"LANDMARKID":"1001500000326","LANDMARKCO":"203","LANDMARKNA":"縣立仁里國小","LANDMARKAD":"1001505","ADDRESS":"花蓮縣吉安鄉","TEL":" ","COUNTYNAME":"花蓮縣","TOWNNAME":"吉安鄉","MARKTYPE":"992","Class":"2"}},{"type":"Feature","id":23903,"geometry":{"type":"Point","coordinates":[121.58405482117479,23.970956332361585]},"properties":{"OBJECTID":23903,"LANDMARKID":"1001500000327","LANDMARKCO":"203","LANDMARKNA":"國立花蓮啟智學校","LANDMARKAD":"1001505","ADDRESS":"花蓮縣吉安鄉中山路二段2號","TEL":"03-8544225","COUNTYNAME":"花蓮縣","TOWNNAME":"吉安鄉","MARKTYPE":"992","Class":"2"}},{"type":"Feature","id":23904,"geometry":{"type":"Point","coordinates":[121.59390389106242,23.96839950578973]},"properties":{"OBJECTID":23904,"LANDMARKID":"1001500000467","LANDMARKCO":"303","LANDMARKNA":"吉安仁里停四停車場","LANDMARKAD":"1001505","ADDRESS":"花蓮縣吉安鄉中正路一段","TEL":" ","COUNTYNAME":"花蓮縣","TOWNNAME":"吉安鄉","MARKTYPE":"993","Class":"303"}},{"type":"Feature","id":23905,"geometry":{"type":"Point","coordinates":[121.54490331291677,23.942117872776269]},"properties":{"OBJECTID":23905,"LANDMARKID":"1001500000430","LANDMARKCO":"301","LANDMARKNA":"南華火車站(閒)","LANDMARKAD":"1001505","ADDRESS":"花蓮縣吉安鄉","TEL":" ","COUNTYNAME":"花蓮縣","TOWNNAME":"吉安鄉","MARKTYPE":"993","Class":"301"}},{"type":"Feature","id":23906,"geometry":{"type":"Point","coordinates":[121.58214107882581,23.967544774590518]},"properties":{"OBJECTID":23906,"LANDMARKID":"1001500000431","LANDMARKCO":"301","LANDMARKNA":"吉安火車站","LANDMARKAD":"1001505","ADDRESS":"花蓮縣吉安鄉南昌街200號","TEL":"03-8539423","COUNTYNAME":"花蓮縣","TOWNNAME":"吉安鄉","MARKTYPE":"993","Class":"301"}},{"type":"Feature","id":23907,"geometry":{"type":"Point","coordinates":[121.59629508055119,23.984999525135621]},"properties":{"OBJECTID":23907,"LANDMARKID":"1001500000544","LANDMARKCO":"402","LANDMARKNA":"中華電信-花蓮建國特約服務中心","LANDMARKAD":"1001505","ADDRESS":"花蓮縣吉安鄉建國路一段16號","TEL":"03-8575899","COUNTYNAME":"花蓮縣","TOWNNAME":"吉安鄉","MARKTYPE":"994","Class":"4"}},{"type":"Feature","id":23908,"geometry":{"type":"Point","coordinates":[121.58092151519037,23.97358807724456]},"properties":{"OBJECTID":23908,"LANDMARKID":"1001500000545","LANDMARKCO":"402","LANDMARKNA":"威寶電信-吉安中華特約服務中心","LANDMARKAD":"1001505","ADDRESS":"花蓮縣吉安鄉中華路二段276號","TEL":"03-8536869","COUNTYNAME":"花蓮縣","TOWNNAME":"吉安鄉","MARKTYPE":"994","Class":"4"}},{"type":"Feature","id":23909,"geometry":{"type":"Point","coordinates":[121.5767500942152,23.974714504090112]},"properties":{"OBJECTID":23909,"LANDMARKID":"1001500000546","LANDMARKCO":"402","LANDMARKNA":"中華電信-吉安服務中心","LANDMARKAD":"1001505","ADDRESS":"花蓮縣吉安鄉中山路三段76號","TEL":"123或0800-080-123","COUNTYNAME":"花蓮縣","TOWNNAME":"吉安鄉","MARKTYPE":"994","Class":"4"}},{"type":"Feature","id":23910,"geometry":{"type":"Point","coordinates":[121.56754605875966,23.934032826123584]},"properties":{"OBJECTID":23910,"LANDMARKID":"1001500001406","LANDMARKCO":"604","LANDMARKNA":"光華農場田莊民宿","LANDMARKAD":"1001505","ADDRESS":"花蓮縣吉安鄉光華村1鄰光華七街18號","TEL":"0937-976598","COUNTYNAME":"花蓮縣","TOWNNAME":"吉安鄉","MARKTYPE":"996","Class":"6"}},{"type":"Feature","id":23911,"geometry":{"type":"Point","coordinates":[121.56259057249135,23.966798656531516]},"properties":{"OBJECTID":23911,"LANDMARKID":"1001500001407","LANDMARKCO":"604","LANDMARKNA":"花東縱谷民宿","LANDMARKAD":"1001505","ADDRESS":"花蓮縣瑞穗鄉瑞良村中山路3段216-1號","TEL":"0919-923709","COUNTYNAME":"花蓮縣","TOWNNAME":"吉安鄉","MARKTYPE":"996","Class":"6"}},{"type":"Feature","id":23912,"geometry":{"type":"Point","coordinates":[121.60058518055008,23.951766784387896]},"properties":{"OBJECTID":23912,"LANDMARKID":"1001500001408","LANDMARKCO":"604","LANDMARKNA":"海景福居民宿","LANDMARKAD":"1001505","ADDRESS":"花蓮縣吉安鄉仁安村海濱路137號","TEL":"03-8420856","COUNTYNAME":"花蓮縣","TOWNNAME":"吉安鄉","MARKTYPE":"996","Class":"6"}},{"type":"Feature","id":23913,"geometry":{"type":"Point","coordinates":[121.58277409976854,23.940024671716742]},"properties":{"OBJECTID":23913,"LANDMARKID":"1001500001409","LANDMARKCO":"604","LANDMARKNA":"鄉貌休閒民宿","LANDMARKAD":"1001505","ADDRESS":"花蓮縣吉安鄉光華村知卡宣大道2段199號","TEL":"03-8422585","COUNTYNAME":"花蓮縣","TOWNNAME":"吉安鄉","MARKTYPE":"996","Class":"6"}},{"type":"Feature","id":23914,"geometry":{"type":"Point","coordinates":[121.54899910556146,23.954456229099279]},"properties":{"OBJECTID":23914,"LANDMARKID":"1001500001410","LANDMARKCO":"604","LANDMARKNA":"藍-日式民宿","LANDMARKAD":"1001505","ADDRESS":"花蓮縣吉安鄉南華村南華266-6號","TEL":"0933-189330","COUNTYNAME":"花蓮縣","TOWNNAME":"吉安鄉","MARKTYPE":"996","Class":"6"}},{"type":"Feature","id":23915,"geometry":{"type":"Point","coordinates":[121.60049058879741,23.951855154771469]},"properties":{"OBJECTID":23915,"LANDMARKID":"1001500001411","LANDMARKCO":"604","LANDMARKNA":"福園古厝民宿","LANDMARKAD":"1001505","ADDRESS":"花蓮縣吉安鄉仁安村海濱路48號","TEL":"03-8542317","COUNTYNAME":"花蓮縣","TOWNNAME":"吉安鄉","MARKTYPE":"996","Class":"6"}},{"type":"Feature","id":23916,"geometry":{"type":"Point","coordinates":[121.56312611688459,23.966923692797828]},"properties":{"OBJECTID":23916,"LANDMARKID":"1001500001412","LANDMARKCO":"604","LANDMARKNA":"桃花緣民宿","LANDMARKAD":"1001505","ADDRESS":"花蓮縣吉安鄉福興村福興158巷7號","TEL":"03-8529537","COUNTYNAME":"花蓮縣","TOWNNAME":"吉安鄉","MARKTYPE":"996","Class":"6"}},{"type":"Feature","id":23917,"geometry":{"type":"Point","coordinates":[121.56965395940752,23.963605294868355]},"properties":{"OBJECTID":23917,"LANDMARKID":"1001500001413","LANDMARKCO":"604","LANDMARKNA":"小品雅舍民宿","LANDMARKAD":"1001505","ADDRESS":"花蓮縣吉安鄉稻香村稻香四街60巷3號","TEL":"03-8546168","COUNTYNAME":"花蓮縣","TOWNNAME":"吉安鄉","MARKTYPE":"996","Class":"6"}},{"type":"Feature","id":23918,"geometry":{"type":"Point","coordinates":[121.58313303376011,23.972896299218664]},"properties":{"OBJECTID":23918,"LANDMARKID":"1001500000920","LANDMARKCO":"603","LANDMARKNA":"阿季大飯店","LANDMARKAD":"1001505","ADDRESS":"花蓮縣吉安鄉宜昌六街11號","TEL":"03-8544438","COUNTYNAME":"花蓮縣","TOWNNAME":"吉安鄉","MARKTYPE":"996","Class":"6"}},{"type":"Feature","id":23919,"geometry":{"type":"Point","coordinates":[121.57277023246331,23.976862027301586]},"properties":{"OBJECTID":23919,"LANDMARKID":"1001500000921","LANDMARKCO":"603","LANDMARKNA":"美爽爽旅館","LANDMARKAD":"1001505","ADDRESS":"花蓮縣吉安鄉慶豐村中山路三段176","TEL":"178號","COUNTYNAME":"花蓮縣","TOWNNAME":"吉安鄉","MARKTYPE":"996","Class":"6"}},{"type":"Feature","id":23920,"geometry":{"type":"Point","coordinates":[121.58287680256574,23.969988605711766]},"properties":{"OBJECTID":23920,"LANDMARKID":"1001500000922","LANDMARKCO":"603","LANDMARKNA":"華登旅店","LANDMARKAD":"1001505","ADDRESS":"花蓮縣吉安鄉南昌村南昌北路34號","TEL":"03-8521106-7","COUNTYNAME":"花蓮縣","TOWNNAME":"吉安鄉","MARKTYPE":"996","Class":"6"}},{"type":"Feature","id":23921,"geometry":{"type":"Point","coordinates":[121.58499621616335,23.976782087292779]},"properties":{"OBJECTID":23921,"LANDMARKID":"1001500000923","LANDMARKCO":"603","LANDMARKNA":"松石旅館","LANDMARKAD":"1001505","ADDRESS":"花蓮縣吉安鄉勝安村自強路21號","TEL":"03-8525106","COUNTYNAME":"花蓮縣","TOWNNAME":"吉安鄉","MARKTYPE":"996","Class":"6"}},{"type":"Feature","id":23922,"geometry":{"type":"Point","coordinates":[121.58498777566916,23.976935652584032]},"properties":{"OBJECTID":23922,"LANDMARKID":"1001500000924","LANDMARKCO":"603","LANDMARKNA":"函園大飯店","LANDMARKAD":"1001505","ADDRESS":"花蓮縣吉安鄉勝安村自強路25號3樓","TEL":"03-8539098","COUNTYNAME":"花蓮縣","TOWNNAME":"吉安鄉","MARKTYPE":"996","Class":"6"}},{"type":"Feature","id":23923,"geometry":{"type":"Point","coordinates":[121.58679334694263,23.973094983889478]},"properties":{"OBJECTID":23923,"LANDMARKID":"1001500000925","LANDMARKCO":"603","LANDMARKNA":"源雄飯店","LANDMARKAD":"1001505","ADDRESS":"花蓮縣吉安鄉宜昌村宜昌一街2之2號","TEL":"03-8533188","COUNTYNAME":"花蓮縣","TOWNNAME":"吉安鄉","MARKTYPE":"996","Class":"6"}},{"type":"Feature","id":23924,"geometry":{"type":"Point","coordinates":[121.56491445725688,23.987342903136408]},"properties":{"OBJECTID":23924,"LANDMARKID":"1001500000935","LANDMARKCO":"604","LANDMARKNA":"春夏秋冬渡假民宿","LANDMARKAD":"1001505","ADDRESS":"花蓮縣吉安鄉太昌村明義三街210巷16號","TEL":"03-8562713","COUNTYNAME":"花蓮縣","TOWNNAME":"吉安鄉","MARKTYPE":"996","Class":"6"}},{"type":"Feature","id":23925,"geometry":{"type":"Point","coordinates":[121.562447287032,23.969906211987084]},"properties":{"OBJECTID":23925,"LANDMARKID":"1001500000936","LANDMARKCO":"604","LANDMARKNA":"吉昌之家民宿","LANDMARKAD":"1001505","ADDRESS":"花蓮縣吉安鄉吉安村吉昌三街266巷9弄23號","TEL":"03-8579632","COUNTYNAME":"花蓮縣","TOWNNAME":"吉安鄉","MARKTYPE":"996","Class":"6"}},{"type":"Feature","id":23926,"geometry":{"type":"Point","coordinates":[121.57605033176993,23.973901858030434]},"properties":{"OBJECTID":23926,"LANDMARKID":"1001500000937","LANDMARKCO":"604","LANDMARKNA":"白被單民宿","LANDMARKAD":"1001505","ADDRESS":"花蓮縣吉安鄉吉安村吉興一街373巷28號","TEL":"0911-861916","COUNTYNAME":"花蓮縣","TOWNNAME":"吉安鄉","MARKTYPE":"996","Class":"6"}},{"type":"Feature","id":23927,"geometry":{"type":"Point","coordinates":[121.57015319815679,23.973771688155921]},"properties":{"OBJECTID":23927,"LANDMARKID":"1001500000938","LANDMARKCO":"604","LANDMARKNA":"鬱金香花園夢幻城堡","LANDMARKAD":"1001505","ADDRESS":"花蓮縣吉安鄉吉安村吉興二街330-1號","TEL":"03-8511111","COUNTYNAME":"花蓮縣","TOWNNAME":"吉安鄉","MARKTYPE":"996","Class":"6"}},{"type":"Feature","id":23928,"geometry":{"type":"Point","coordinates":[121.56576665646715,23.974451823229806]},"properties":{"OBJECTID":23928,"LANDMARKID":"1001500000939","LANDMARKCO":"604","LANDMARKNA":"協同民宿","LANDMARKAD":"1001505","ADDRESS":"花蓮縣吉安鄉吉安村吉興三街127巷18-1號","TEL":"03-8549466","COUNTYNAME":"花蓮縣","TOWNNAME":"吉安鄉","MARKTYPE":"996","Class":"6"}},{"type":"Feature","id":23929,"geometry":{"type":"Point","coordinates":[121.56580572424909,23.974424446782958]},"properties":{"OBJECTID":23929,"LANDMARKID":"1001500000940","LANDMARKCO":"604","LANDMARKNA":"水鈴子民宿","LANDMARKAD":"1001505","ADDRESS":"花蓮縣吉安鄉吉安村吉興三街127巷18號","TEL":"03-8543722","COUNTYNAME":"花蓮縣","TOWNNAME":"吉安鄉","MARKTYPE":"996","Class":"6"}},{"type":"Feature","id":23930,"geometry":{"type":"Point","coordinates":[121.56457953387257,23.971029417013806]},"properties":{"OBJECTID":23930,"LANDMARKID":"1001500000941","LANDMARKCO":"604","LANDMARKNA":"波斯民宿","LANDMARKAD":"1001505","ADDRESS":"花蓮縣吉安鄉吉安村吉興三街87號","TEL":"03-8539388","COUNTYNAME":"花蓮縣","TOWNNAME":"吉安鄉","MARKTYPE":"996","Class":"6"}},{"type":"Feature","id":23931,"geometry":{"type":"Point","coordinates":[121.57365239621279,23.965268388232005]},"properties":{"OBJECTID":23931,"LANDMARKID":"1001500000942","LANDMARKCO":"604","LANDMARKNA":"昌慶居民宿","LANDMARKAD":"1001505","ADDRESS":"花蓮縣吉安鄉吉安村吉興路一段216-1號","TEL":"03-8531196","COUNTYNAME":"花蓮縣","TOWNNAME":"吉安鄉","MARKTYPE":"996","Class":"6"}},{"type":"Feature","id":23932,"geometry":{"type":"Point","coordinates":[121.5794309874491,23.975322471597423]},"properties":{"OBJECTID":23932,"LANDMARKID":"1001500000943","LANDMARKCO":"604","LANDMARKNA":"吾家民宿","LANDMARKAD":"1001505","ADDRESS":"花蓮縣吉安鄉吉安村南山五街45巷1號","TEL":"03-8549922","COUNTYNAME":"花蓮縣","TOWNNAME":"吉安鄉","MARKTYPE":"996","Class":"6"}},{"type":"Feature","id":23933,"geometry":{"type":"Point","coordinates":[121.57230363770428,23.977206187409255]},"properties":{"OBJECTID":23933,"LANDMARKID":"1001500000944","LANDMARKCO":"604","LANDMARKNA":"采豐民宿","LANDMARKAD":"1001505","ADDRESS":"花蓮縣吉安鄉慶豐村中山路三段222號","TEL":"03-8514654","COUNTYNAME":"花蓮縣","TOWNNAME":"吉安鄉","MARKTYPE":"996","Class":"6"}},{"type":"Feature","id":23934,"geometry":{"type":"Point","coordinates":[121.57120494166917,23.97742074812658]},"properties":{"OBJECTID":23934,"LANDMARKID":"1001500000945","LANDMARKCO":"604","LANDMARKNA":"平安民宿","LANDMARKAD":"1001505","ADDRESS":"花蓮縣吉安鄉慶豐村中山路三段257號","TEL":"03-8521081","COUNTYNAME":"花蓮縣","TOWNNAME":"吉安鄉","MARKTYPE":"996","Class":"6"}},{"type":"Feature","id":23935,"geometry":{"type":"Point","coordinates":[121.56939661670229,23.979906959147758]},"properties":{"OBJECTID":23935,"LANDMARKID":"1001500000946","LANDMARKCO":"604","LANDMARKNA":"一間民宿","LANDMARKAD":"1001505","ADDRESS":"花蓮縣吉安鄉慶豐村慶北二街346號","TEL":"03-8539333","COUNTYNAME":"花蓮縣","TOWNNAME":"吉安鄉","MARKTYPE":"996","Class":"6"}},{"type":"Feature","id":23936,"geometry":{"type":"Point","coordinates":[121.57112782398808,23.980093992641294]},"properties":{"OBJECTID":23936,"LANDMARKID":"1001500000947","LANDMARKCO":"604","LANDMARKNA":"辰發民宿","LANDMARKAD":"1001505","ADDRESS":"花蓮縣吉安鄉慶豐村慶北三街248巷1號","TEL":"03-8533993","COUNTYNAME":"花蓮縣","TOWNNAME":"吉安鄉","MARKTYPE":"996","Class":"6"}},{"type":"Feature","id":23937,"geometry":{"type":"Point","coordinates":[121.5658113860645,23.978975158700433]},"properties":{"OBJECTID":23937,"LANDMARKID":"1001500000948","LANDMARKCO":"604","LANDMARKNA":"戀家民宿","LANDMARKAD":"1001505","ADDRESS":"花蓮縣吉安鄉慶豐村慶南三街286巷19號","TEL":"0963-005576","COUNTYNAME":"花蓮縣","TOWNNAME":"吉安鄉","MARKTYPE":"996","Class":"6"}},{"type":"Feature","id":23938,"geometry":{"type":"Point","coordinates":[121.57763813644453,23.969844773078108]},"properties":{"OBJECTID":23938,"LANDMARKID":"1001500000949","LANDMARKCO":"604","LANDMARKNA":"未央花苑民宿","LANDMARKAD":"1001505","ADDRESS":"花蓮縣吉安鄉南昌村昌隆八街10巷2號","TEL":"03-8525268","COUNTYNAME":"花蓮縣","TOWNNAME":"吉安鄉","MARKTYPE":"996","Class":"6"}},{"type":"Feature","id":23939,"geometry":{"type":"Point","coordinates":[121.53776646331431,23.951041167826986]},"properties":{"OBJECTID":23939,"LANDMARKID":"1001500000950","LANDMARKCO":"604","LANDMARKNA":"干城小鎮民宿","LANDMARKAD":"1001505","ADDRESS":"花蓮縣吉安鄉干城村干城一街305號","TEL":"03-8538811","COUNTYNAME":"花蓮縣","TOWNNAME":"吉安鄉","MARKTYPE":"996","Class":"6"}},{"type":"Feature","id":23940,"geometry":{"type":"Point","coordinates":[121.54365247281908,23.946025984804074]},"properties":{"OBJECTID":23940,"LANDMARKID":"1001500000951","LANDMARKCO":"604","LANDMARKNA":"家榛民宿","LANDMARKAD":"1001505","ADDRESS":"花蓮縣吉安鄉干城村干城二街101號","TEL":"03-8512820","COUNTYNAME":"花蓮縣","TOWNNAME":"吉安鄉","MARKTYPE":"996","Class":"6"}},{"type":"Feature","id":23941,"geometry":{"type":"Point","coordinates":[121.54365247281908,23.946025984804074]},"properties":{"OBJECTID":23941,"LANDMARKID":"1001500000952","LANDMARKCO":"604","LANDMARKNA":"文達民宿","LANDMARKAD":"1001505","ADDRESS":"花蓮縣吉安鄉干城村干城二街101號2樓","TEL":"03-8525225","COUNTYNAME":"花蓮縣","TOWNNAME":"吉安鄉","MARKTYPE":"996","Class":"6"}},{"type":"Feature","id":23942,"geometry":{"type":"Point","coordinates":[121.54362239515125,23.945953961968797]},"properties":{"OBJECTID":23942,"LANDMARKID":"1001500000953","LANDMARKCO":"604","LANDMARKNA":"偉倫民宿","LANDMARKAD":"1001505","ADDRESS":"花蓮縣吉安鄉干城村干城二街103號","TEL":"03-8525775","COUNTYNAME":"花蓮縣","TOWNNAME":"吉安鄉","MARKTYPE":"996","Class":"6"}},{"type":"Feature","id":23943,"geometry":{"type":"Point","coordinates":[121.54351311930672,23.945810263470417]},"properties":{"OBJECTID":23943,"LANDMARKID":"1001500000954","LANDMARKCO":"604","LANDMARKNA":"書浩民宿","LANDMARKAD":"1001505","ADDRESS":"花蓮縣吉安鄉干城村干城二街105號","TEL":"0933-260758","COUNTYNAME":"花蓮縣","TOWNNAME":"吉安鄉","MARKTYPE":"996","Class":"6"}},{"type":"Feature","id":23944,"geometry":{"type":"Point","coordinates":[121.54351311930672,23.945810263470417]},"properties":{"OBJECTID":23944,"LANDMARKID":"1001500000955","LANDMARKCO":"604","LANDMARKNA":"君達民宿","LANDMARKAD":"1001505","ADDRESS":"花蓮縣吉安鄉干城村干城二街105號2樓","TEL":"03-8525225","COUNTYNAME":"花蓮縣","TOWNNAME":"吉安鄉","MARKTYPE":"996","Class":"6"}},{"type":"Feature","id":23945,"geometry":{"type":"Point","coordinates":[121.54349294202197,23.945747199724693]},"properties":{"OBJECTID":23945,"LANDMARKID":"1001500000956","LANDMARKCO":"604","LANDMARKNA":"婉菁民宿","LANDMARKAD":"1001505","ADDRESS":"花蓮縣吉安鄉干城村干城二街107號","TEL":"03-8549099","COUNTYNAME":"花蓮縣","TOWNNAME":"吉安鄉","MARKTYPE":"996","Class":"6"}},{"type":"Feature","id":23946,"geometry":{"type":"Point","coordinates":[121.53272298175015,23.951833567690954]},"properties":{"OBJECTID":23946,"LANDMARKID":"1001500000957","LANDMARKCO":"604","LANDMARKNA":"拾穗田園民宿","LANDMARKAD":"1001505","ADDRESS":"花蓮縣吉安鄉干城村干城二街407號","TEL":"03-8526020","COUNTYNAME":"花蓮縣","TOWNNAME":"吉安鄉","MARKTYPE":"996","Class":"6"}},{"type":"Feature","id":23947,"geometry":{"type":"Point","coordinates":[121.56214813248398,23.991578776518924]},"properties":{"OBJECTID":23947,"LANDMARKID":"1001500000958","LANDMARKCO":"604","LANDMARKNA":"香柚園休閒民宿","LANDMARKAD":"1001505","ADDRESS":"花蓮縣吉安鄉太昌村明義五街112號","TEL":"0933-481976","COUNTYNAME":"花蓮縣","TOWNNAME":"吉安鄉","MARKTYPE":"996","Class":"6"}},{"type":"Feature","id":23948,"geometry":{"type":"Point","coordinates":[121.56312234546121,23.991977909176352]},"properties":{"OBJECTID":23948,"LANDMARKID":"1001500000959","LANDMARKCO":"604","LANDMARKNA":"逸鄉休閒民宿","LANDMARKAD":"1001505","ADDRESS":"花蓮縣吉安鄉太昌村明義五街93號","TEL":"03-8577780","COUNTYNAME":"花蓮縣","TOWNNAME":"吉安鄉","MARKTYPE":"996","Class":"6"}},{"type":"Feature","id":23949,"geometry":{"type":"Point","coordinates":[121.56309050718021,23.991707259217041]},"properties":{"OBJECTID":23949,"LANDMARKID":"1001500000960","LANDMARKCO":"604","LANDMARKNA":"築園民宿","LANDMARKAD":"1001505","ADDRESS":"花蓮縣吉安鄉太昌村明義五街95號","TEL":"03-8466984","COUNTYNAME":"花蓮縣","TOWNNAME":"吉安鄉","MARKTYPE":"996","Class":"6"}},{"type":"Feature","id":23950,"geometry":{"type":"Point","coordinates":[121.55907792738731,23.996186979555063]},"properties":{"OBJECTID":23950,"LANDMARKID":"1001500000961","LANDMARKCO":"604","LANDMARKNA":"溫蒂花園民宿","LANDMARKAD":"1001505","ADDRESS":"花蓮縣吉安鄉太昌村明義六街25號","TEL":"03-8560685","COUNTYNAME":"花蓮縣","TOWNNAME":"吉安鄉","MARKTYPE":"996","Class":"6"}},{"type":"Feature","id":23951,"geometry":{"type":"Point","coordinates":[121.55870905858933,23.99419420601626]},"properties":{"OBJECTID":23951,"LANDMARKID":"1001500000962","LANDMARKCO":"604","LANDMARKNA":"大山休閒民宿","LANDMARKAD":"1001505","ADDRESS":"花蓮縣吉安鄉太昌村明義六街69巷10號","TEL":"03-8580678","COUNTYNAME":"花蓮縣","TOWNNAME":"吉安鄉","MARKTYPE":"996","Class":"6"}},{"type":"Feature","id":23952,"geometry":{"type":"Point","coordinates":[121.5664738177415,23.983069594531806]},"properties":{"OBJECTID":23952,"LANDMARKID":"1001500000963","LANDMARKCO":"604","LANDMARKNA":"夏朵內民宿","LANDMARKAD":"1001505","ADDRESS":"花蓮縣吉安鄉慶豐村慶豐十一街212號","TEL":"03-8652181","COUNTYNAME":"花蓮縣","TOWNNAME":"吉安鄉","MARKTYPE":"996","Class":"6"}},{"type":"Feature","id":23953,"geometry":{"type":"Point","coordinates":[121.56623810112698,23.983351202849409]},"properties":{"OBJECTID":23953,"LANDMARKID":"1001500000964","LANDMARKCO":"604","LANDMARKNA":"吉野屋民宿","LANDMARKAD":"1001505","ADDRESS":"花蓮縣吉安鄉慶豐村慶豐十一街227號","TEL":"03-8510390","COUNTYNAME":"花蓮縣","TOWNNAME":"吉安鄉","MARKTYPE":"996","Class":"6"}},{"type":"Feature","id":23954,"geometry":{"type":"Point","coordinates":[121.55558379216922,23.981782480648398]},"properties":{"OBJECTID":23954,"LANDMARKID":"1001500000965","LANDMARKCO":"604","LANDMARKNA":"後山之旅民宿","LANDMARKAD":"1001505","ADDRESS":"花蓮縣吉安鄉慶豐村慶豐十五街1號","TEL":"03-8520256","COUNTYNAME":"花蓮縣","TOWNNAME":"吉安鄉","MARKTYPE":"996","Class":"6"}},{"type":"Feature","id":23955,"geometry":{"type":"Point","coordinates":[121.56949564336655,23.979997773103971]},"properties":{"OBJECTID":23955,"LANDMARKID":"1001500000966","LANDMARKCO":"604","LANDMARKNA":"加南美地之窩民宿","LANDMARKAD":"1001505","ADDRESS":"花蓮縣吉安鄉慶豐村慶豐九街106巷12號","TEL":"0933-993411","COUNTYNAME":"花蓮縣","TOWNNAME":"吉安鄉","MARKTYPE":"996","Class":"6"}},{"type":"Feature","id":23956,"geometry":{"type":"Point","coordinates":[121.56808144191936,23.977857994603394]},"properties":{"OBJECTID":23956,"LANDMARKID":"1001500000967","LANDMARKCO":"604","LANDMARKNA":"觀星小語民宿","LANDMARKAD":"1001505","ADDRESS":"花蓮縣吉安鄉慶豐村慶豐八街107號","TEL":"03-8530281","COUNTYNAME":"花蓮縣","TOWNNAME":"吉安鄉","MARKTYPE":"996","Class":"6"}},{"type":"Feature","id":23957,"geometry":{"type":"Point","coordinates":[121.56671845855239,23.981831959365142]},"properties":{"OBJECTID":23957,"LANDMARKID":"1001500000968","LANDMARKCO":"604","LANDMARKNA":"花蓮好民宿","LANDMARKAD":"1001505","ADDRESS":"花蓮縣吉安鄉慶豐村慶豐十一街186巷19號","TEL":"0910-660504","COUNTYNAME":"花蓮縣","TOWNNAME":"吉安鄉","MARKTYPE":"996","Class":"6"}},{"type":"Feature","id":23958,"geometry":{"type":"Point","coordinates":[121.56286654212153,23.978219134503153]},"properties":{"OBJECTID":23958,"LANDMARKID":"1001500000969","LANDMARKCO":"604","LANDMARKNA":"茗新休閒花園民宿","LANDMARKAD":"1001505","ADDRESS":"花蓮縣吉安鄉慶豐村慶豐十一街31號","TEL":"03-8510176","COUNTYNAME":"花蓮縣","TOWNNAME":"吉安鄉","MARKTYPE":"996","Class":"6"}},{"type":"Feature","id":23959,"geometry":{"type":"Point","coordinates":[121.56691546752543,23.981884680448278]},"properties":{"OBJECTID":23959,"LANDMARKID":"1001500000970","LANDMARKCO":"604","LANDMARKNA":"慶豐民宿","LANDMARKAD":"1001505","ADDRESS":"花蓮縣吉安鄉慶豐村慶豐十街229號","TEL":"03-8549948","COUNTYNAME":"花蓮縣","TOWNNAME":"吉安鄉","MARKTYPE":"996","Class":"6"}},{"type":"Feature","id":23960,"geometry":{"type":"Point","coordinates":[121.57207126599189,23.977594882294145]},"properties":{"OBJECTID":23960,"LANDMARKID":"1001500000971","LANDMARKCO":"604","LANDMARKNA":"雅築民宿","LANDMARKAD":"1001505","ADDRESS":"花蓮縣吉安鄉慶豐村慶豐四街137號","TEL":"03-8527028","COUNTYNAME":"花蓮縣","TOWNNAME":"吉安鄉","MARKTYPE":"996","Class":"6"}},{"type":"Feature","id":23961,"geometry":{"type":"Point","coordinates":[121.58066328693427,23.963341788476278]},"properties":{"OBJECTID":23961,"LANDMARKID":"1001500000972","LANDMARKCO":"604","LANDMARKNA":"松芸居休閒民宿","LANDMARKAD":"1001505","ADDRESS":"花蓮縣吉安鄉稻香村吉豐路2段31號","TEL":"0980-199150","COUNTYNAME":"花蓮縣","TOWNNAME":"吉安鄉","MARKTYPE":"996","Class":"6"}},{"type":"Feature","id":23962,"geometry":{"type":"Point","coordinates":[121.58483335411815,23.974769811307201]},"properties":{"OBJECTID":23962,"LANDMARKID":"1001500000973","LANDMARKCO":"604","LANDMARKNA":"米蘭小鎮民宿","LANDMARKAD":"1001505","ADDRESS":"花蓮縣吉安鄉宜昌村吉祥三街20號","TEL":"03-8267707","COUNTYNAME":"花蓮縣","TOWNNAME":"吉安鄉","MARKTYPE":"996","Class":"6"}},{"type":"Feature","id":23963,"geometry":{"type":"Point","coordinates":[121.58490287105349,23.974850546309394]},"properties":{"OBJECTID":23963,"LANDMARKID":"1001500000974","LANDMARKCO":"604","LANDMARKNA":"無名小築民宿","LANDMARKAD":"1001505","ADDRESS":"花蓮縣吉安鄉宜昌村吉祥三街22-1號","TEL":"03-8524532","COUNTYNAME":"花蓮縣","TOWNNAME":"吉安鄉","MARKTYPE":"996","Class":"6"}},{"type":"Feature","id":23964,"geometry":{"type":"Point","coordinates":[121.58493267591268,23.974886436996609]},"properties":{"OBJECTID":23964,"LANDMARKID":"1001500000975","LANDMARKCO":"604","LANDMARKNA":"呼吸民宿","LANDMARKAD":"1001505","ADDRESS":"花蓮縣吉安鄉宜昌村吉祥三街22-2號","TEL":"03-8529836","COUNTYNAME":"花蓮縣","TOWNNAME":"吉安鄉","MARKTYPE":"996","Class":"6"}},{"type":"Feature","id":23965,"geometry":{"type":"Point","coordinates":[121.5848631589393,23.974805702009043]},"properties":{"OBJECTID":23965,"LANDMARKID":"1001500000976","LANDMARKCO":"604","LANDMARKNA":"EZDAY民宿","LANDMARKAD":"1001505","ADDRESS":"花蓮縣吉安鄉宜昌村吉祥三街22號","TEL":"03-8524532","COUNTYNAME":"花蓮縣","TOWNNAME":"吉安鄉","MARKTYPE":"996","Class":"6"}},{"type":"Feature","id":23966,"geometry":{"type":"Point","coordinates":[121.58387582868687,23.975680001176681]},"properties":{"OBJECTID":23966,"LANDMARKID":"1001500000977","LANDMARKCO":"604","LANDMARKNA":"天外天民宿","LANDMARKAD":"1001505","ADDRESS":"花蓮縣吉安鄉宜昌村吉祥五街50號","TEL":"03-8527057","COUNTYNAME":"花蓮縣","TOWNNAME":"吉安鄉","MARKTYPE":"996","Class":"6"}},{"type":"Feature","id":23967,"geometry":{"type":"Point","coordinates":[121.58410150455154,23.97564216555098]},"properties":{"OBJECTID":23967,"LANDMARKID":"1001500000978","LANDMARKCO":"604","LANDMARKNA":"元元民宿","LANDMARKAD":"1001505","ADDRESS":"花蓮縣吉安鄉宜昌村吉祥五街52巷12號","TEL":"0937-925613","COUNTYNAME":"花蓮縣","TOWNNAME":"吉安鄉","MARKTYPE":"996","Class":"6"}},{"type":"Feature","id":23968,"geometry":{"type":"Point","coordinates":[121.58320288632972,23.975150876761866]},"properties":{"OBJECTID":23968,"LANDMARKID":"1001500000979","LANDMARKCO":"604","LANDMARKNA":"山水的故鄉民宿","LANDMARKAD":"1001505","ADDRESS":"花蓮縣吉安鄉宜昌村吉祥五街7號","TEL":"0932-521044","COUNTYNAME":"花蓮縣","TOWNNAME":"吉安鄉","MARKTYPE":"996","Class":"6"}},{"type":"Feature","id":23969,"geometry":{"type":"Point","coordinates":[121.5839980411248,23.974767144296454]},"properties":{"OBJECTID":23969,"LANDMARKID":"1001500000980","LANDMARKCO":"604","LANDMARKNA":"百合民宿","LANDMARKAD":"1001505","ADDRESS":"花蓮縣吉安鄉宜昌村吉祥四街20號","TEL":"03-8526569","COUNTYNAME":"花蓮縣","TOWNNAME":"吉安鄉","MARKTYPE":"996","Class":"6"}},{"type":"Feature","id":23970,"geometry":{"type":"Point","coordinates":[121.54380165095577,23.946241636902194]},"properties":{"OBJECTID":23970,"LANDMARKID":"1001500000981","LANDMARKCO":"604","LANDMARKNA":"富珍民宿","LANDMARKAD":"1001505","ADDRESS":"花蓮縣吉安鄉干城村干城二街97號","TEL":"0972-281537","COUNTYNAME":"花蓮縣","TOWNNAME":"吉安鄉","MARKTYPE":"996","Class":"6"}},{"type":"Feature","id":23971,"geometry":{"type":"Point","coordinates":[121.58982452022079,23.988098085680548]},"properties":{"OBJECTID":23971,"LANDMARKID":"1001500000982","LANDMARKCO":"604","LANDMARKNA":"家樂園民宿","LANDMARKAD":"1001505","ADDRESS":"花蓮縣吉安鄉北昌村北昌五街51號","TEL":"03-8566818","COUNTYNAME":"花蓮縣","TOWNNAME":"吉安鄉","MARKTYPE":"996","Class":"6"}},{"type":"Feature","id":23972,"geometry":{"type":"Point","coordinates":[121.58681070844565,23.972842026935218]},"properties":{"OBJECTID":23972,"LANDMARKID":"1001500000983","LANDMARKCO":"604","LANDMARKNA":"十大民宿","LANDMARKAD":"1001505","ADDRESS":"花蓮縣吉安鄉宜昌村宜昌一街6號","TEL":"03-8549483","COUNTYNAME":"花蓮縣","TOWNNAME":"吉安鄉","MARKTYPE":"996","Class":"6"}},{"type":"Feature","id":23973,"geometry":{"type":"Point","coordinates":[121.57939188291863,23.956830766150997]},"properties":{"OBJECTID":23973,"LANDMARKID":"1001500000984","LANDMARKCO":"604","LANDMARKNA":"雲香園民宿","LANDMARKAD":"1001505","ADDRESS":"花蓮縣吉安鄉稻香村廣賢路1段238巷8號","TEL":"0916-009039","COUNTYNAME":"花蓮縣","TOWNNAME":"吉安鄉","MARKTYPE":"996","Class":"6"}},{"type":"Feature","id":23974,"geometry":{"type":"Point","coordinates":[121.54380165095577,23.946241636902194]},"properties":{"OBJECTID":23974,"LANDMARKID":"1001500000985","LANDMARKCO":"604","LANDMARKNA":"秋明民宿","LANDMARKAD":"1001505","ADDRESS":"花蓮縣吉安鄉干城村干城二街97號2樓","TEL":"0919-250042","COUNTYNAME":"花蓮縣","TOWNNAME":"吉安鄉","MARKTYPE":"996","Class":"6"}},{"type":"Feature","id":23975,"geometry":{"type":"Point","coordinates":[121.54377172448578,23.946187671395858]},"properties":{"OBJECTID":23975,"LANDMARKID":"1001500000986","LANDMARKCO":"604","LANDMARKNA":"友維民宿","LANDMARKAD":"1001505","ADDRESS":"花蓮縣吉安鄉干城村干城二街99號","TEL":"03-8525839","COUNTYNAME":"花蓮縣","TOWNNAME":"吉安鄉","MARKTYPE":"996","Class":"6"}},{"type":"Feature","id":23976,"geometry":{"type":"Point","coordinates":[121.54336402723877,23.946777475049117]},"properties":{"OBJECTID":23976,"LANDMARKID":"1001500000987","LANDMARKCO":"604","LANDMARKNA":"樹窩優質民宿","LANDMARKAD":"1001505","ADDRESS":"花蓮縣吉安鄉干城村干城二街121號","TEL":"03-8536465","COUNTYNAME":"花蓮縣","TOWNNAME":"吉安鄉","MARKTYPE":"996","Class":"6"}},{"type":"Feature","id":23977,"geometry":{"type":"Point","coordinates":[121.54306695666291,23.946499661862887]},"properties":{"OBJECTID":23977,"LANDMARKID":"1001500000988","LANDMARKCO":"604","LANDMARKNA":"金澤居民宿","LANDMARKAD":"1001505","ADDRESS":"花蓮縣吉安鄉干城村干城二街125巷3號","TEL":"03-8521981","COUNTYNAME":"花蓮縣","TOWNNAME":"吉安鄉","MARKTYPE":"996","Class":"6"}},{"type":"Feature","id":23978,"geometry":{"type":"Point","coordinates":[121.58786785925398,23.967443450697765]},"properties":{"OBJECTID":23978,"LANDMARKID":"1001500000989","LANDMARKCO":"604","LANDMARKNA":"別有天民宿","LANDMARKAD":"1001505","ADDRESS":"花蓮縣吉安鄉仁里村中山路1段118-3號","TEL":"03-8520882","COUNTYNAME":"花蓮縣","TOWNNAME":"吉安鄉","MARKTYPE":"996","Class":"6"}},{"type":"Feature","id":23979,"geometry":{"type":"Point","coordinates":[121.58728248202571,23.941001104155838]},"properties":{"OBJECTID":23979,"LANDMARKID":"1001500000990","LANDMARKCO":"604","LANDMARKNA":"瑪格莉特民宿","LANDMARKAD":"1001505","ADDRESS":"花蓮縣吉安鄉仁安村海岸路645巷42弄3號","TEL":"0925-637627","COUNTYNAME":"花蓮縣","TOWNNAME":"吉安鄉","MARKTYPE":"996","Class":"6"}},{"type":"Feature","id":23980,"geometry":{"type":"Point","coordinates":[121.58747460911475,23.941604610258867]},"properties":{"OBJECTID":23980,"LANDMARKID":"1001500000991","LANDMARKCO":"604","LANDMARKNA":"快樂園丁","LANDMARKAD":"1001505","ADDRESS":"花蓮縣吉安鄉仁安村南海十街143巷2弄12號","TEL":"03-8423725","COUNTYNAME":"花蓮縣","TOWNNAME":"吉安鄉","MARKTYPE":"996","Class":"6"}},{"type":"Feature","id":23981,"geometry":{"type":"Point","coordinates":[121.58739626390759,23.941632297616405]},"properties":{"OBJECTID":23981,"LANDMARKID":"1001500000992","LANDMARKCO":"604","LANDMARKNA":"碧海藍天民宿","LANDMARKAD":"1001505","ADDRESS":"花蓮縣吉安鄉仁安村南海十街143巷2弄16號","TEL":"03-8423699","COUNTYNAME":"花蓮縣","TOWNNAME":"吉安鄉","MARKTYPE":"996","Class":"6"}},{"type":"Feature","id":23982,"geometry":{"type":"Point","coordinates":[121.58709074759926,23.941526280244648]},"properties":{"OBJECTID":23982,"LANDMARKID":"1001500000993","LANDMARKCO":"604","LANDMARKNA":"懶人宿民宿","LANDMARKAD":"1001505","ADDRESS":"花蓮縣吉安鄉仁安村南海十街143巷2弄17號","TEL":"03-8420141","COUNTYNAME":"花蓮縣","TOWNNAME":"吉安鄉","MARKTYPE":"996","Class":"6"}},{"type":"Feature","id":23983,"geometry":{"type":"Point","coordinates":[121.58746265970122,23.94136993500182]},"properties":{"OBJECTID":23983,"LANDMARKID":"1001500000994","LANDMARKCO":"604","LANDMARKNA":"咪咪民宿","LANDMARKAD":"1001505","ADDRESS":"花蓮縣吉安鄉仁安村南海十街143巷2弄7號","TEL":"03-8422377","COUNTYNAME":"花蓮縣","TOWNNAME":"吉安鄉","MARKTYPE":"996","Class":"6"}},{"type":"Feature","id":23984,"geometry":{"type":"Point","coordinates":[121.59653051059061,23.984952547006216]},"properties":{"OBJECTID":23984,"LANDMARKID":"1001500000995","LANDMARKCO":"604","LANDMARKNA":"如意民宿","LANDMARKAD":"1001505","ADDRESS":"花蓮縣吉安鄉北昌村建國路一段12-2號","TEL":"03-8463839","COUNTYNAME":"花蓮縣","TOWNNAME":"吉安鄉","MARKTYPE":"996","Class":"6"}},{"type":"Feature","id":23985,"geometry":{"type":"Point","coordinates":[121.57949296459594,23.985317453031705]},"properties":{"OBJECTID":23985,"LANDMARKID":"1001500000996","LANDMARKCO":"604","LANDMARKNA":"和風民宿","LANDMARKAD":"1001505","ADDRESS":"花蓮縣吉安鄉永安村太昌路50號","TEL":"03-8463636","COUNTYNAME":"花蓮縣","TOWNNAME":"吉安鄉","MARKTYPE":"996","Class":"6"}},{"type":"Feature","id":23986,"geometry":{"type":"Point","coordinates":[121.57686790263055,23.990175517398459]},"properties":{"OBJECTID":23986,"LANDMARKID":"1001500000997","LANDMARKCO":"604","LANDMARKNA":"峇里戀人民宿","LANDMARKAD":"1001505","ADDRESS":"花蓮縣吉安鄉永安村明仁一街107巷33號","TEL":"03-8562635","COUNTYNAME":"花蓮縣","TOWNNAME":"吉安鄉","MARKTYPE":"996","Class":"6"}},{"type":"Feature","id":23987,"geometry":{"type":"Point","coordinates":[121.57539897248174,23.989662845487533]},"properties":{"OBJECTID":23987,"LANDMARKID":"1001500000998","LANDMARKCO":"604","LANDMARKNA":"牧牛與尋劍民宿","LANDMARKAD":"1001505","ADDRESS":"花蓮縣吉安鄉永安村明仁二街176巷1號","TEL":"03-8572758","COUNTYNAME":"花蓮縣","TOWNNAME":"吉安鄉","MARKTYPE":"996","Class":"6"}},{"type":"Feature","id":23988,"geometry":{"type":"Point","coordinates":[121.56910275962142,23.986419231352674]},"properties":{"OBJECTID":23988,"LANDMARKID":"1001500000999","LANDMARKCO":"604","LANDMARKNA":"悅容莊民宿","LANDMARKAD":"1001505","ADDRESS":"花蓮縣吉安鄉永安村明仁三街228巷3弄12號","TEL":"03-8573896","COUNTYNAME":"花蓮縣","TOWNNAME":"吉安鄉","MARKTYPE":"996","Class":"6"}},{"type":"Feature","id":23989,"geometry":{"type":"Point","coordinates":[121.57616111030541,23.98168426957416]},"properties":{"OBJECTID":23989,"LANDMARKID":"1001500001000","LANDMARKCO":"604","LANDMARKNA":"莊家堡田園民宿","LANDMARKAD":"1001505","ADDRESS":"花蓮縣吉安鄉永安村明仁三街45號","TEL":"03-8567808","COUNTYNAME":"花蓮縣","TOWNNAME":"吉安鄉","MARKTYPE":"996","Class":"6"}},{"type":"Feature","id":23990,"geometry":{"type":"Point","coordinates":[121.58298775938732,23.974971969771161]},"properties":{"OBJECTID":23990,"LANDMARKID":"1001500001001","LANDMARKCO":"604","LANDMARKNA":"雅爾富的家民宿","LANDMARKAD":"1001505","ADDRESS":"花蓮縣吉安鄉宜昌村南山一街32號","TEL":"03-8549013","COUNTYNAME":"花蓮縣","TOWNNAME":"吉安鄉","MARKTYPE":"996","Class":"6"}},{"type":"Feature","id":23991,"geometry":{"type":"Point","coordinates":[121.59870101650041,23.95954706152628]},"properties":{"OBJECTID":23991,"LANDMARKID":"1001500001002","LANDMARKCO":"604","LANDMARKNA":"觀星水閣民宿","LANDMARKAD":"1001505","ADDRESS":"花蓮縣吉安鄉東昌村東里十五街121巷16號","TEL":"03-8511891","COUNTYNAME":"花蓮縣","TOWNNAME":"吉安鄉","MARKTYPE":"996","Class":"6"}},{"type":"Feature","id":23992,"geometry":{"type":"Point","coordinates":[121.5960586808928,23.966996963968082]},"properties":{"OBJECTID":23992,"LANDMARKID":"1001500001003","LANDMARKCO":"604","LANDMARKNA":"麻吉的家民宿","LANDMARKAD":"1001505","ADDRESS":"花蓮縣吉安鄉東昌村東海一街58號","TEL":"03-8523478","COUNTYNAME":"花蓮縣","TOWNNAME":"吉安鄉","MARKTYPE":"996","Class":"6"}},{"type":"Feature","id":23993,"geometry":{"type":"Point","coordinates":[121.59182904808929,23.962657837675472]},"properties":{"OBJECTID":23993,"LANDMARKID":"1001500001004","LANDMARKCO":"604","LANDMARKNA":"Home Space民宿","LANDMARKAD":"1001505","ADDRESS":"花蓮縣吉安鄉東昌村東海十五街23之1號","TEL":"03-8538868","COUNTYNAME":"花蓮縣","TOWNNAME":"吉安鄉","MARKTYPE":"996","Class":"6"}},{"type":"Feature","id":23994,"geometry":{"type":"Point","coordinates":[121.59892153737627,23.962470833986043]},"properties":{"OBJECTID":23994,"LANDMARKID":"1001500001005","LANDMARKCO":"604","LANDMARKNA":"閒雲居花園民宿","LANDMARKAD":"1001505","ADDRESS":"花蓮縣吉安鄉東昌村東海六街195號","TEL":"03-8544417","COUNTYNAME":"花蓮縣","TOWNNAME":"吉安鄉","MARKTYPE":"996","Class":"6"}},{"type":"Feature","id":23995,"geometry":{"type":"Point","coordinates":[121.58308160438537,23.970908053149156]},"properties":{"OBJECTID":23995,"LANDMARKID":"1001500001006","LANDMARKCO":"604","LANDMARKNA":"荷風藍亭民宿","LANDMARKAD":"1001505","ADDRESS":"花蓮縣吉安鄉南昌村中山路二段87號","TEL":"03-8525126","COUNTYNAME":"花蓮縣","TOWNNAME":"吉安鄉","MARKTYPE":"996","Class":"6"}},{"type":"Feature","id":23996,"geometry":{"type":"Point","coordinates":[121.58111162376386,23.971482823283068]},"properties":{"OBJECTID":23996,"LANDMARKID":"1001500001007","LANDMARKCO":"604","LANDMARKNA":"方翊民宿","LANDMARKAD":"1001505","ADDRESS":"花蓮縣吉安鄉南昌村文化七街27-1號","TEL":"03-8536359","COUNTYNAME":"花蓮縣","TOWNNAME":"吉安鄉","MARKTYPE":"996","Class":"6"}},{"type":"Feature","id":23997,"geometry":{"type":"Point","coordinates":[121.58165413118762,23.962070161665572]},"properties":{"OBJECTID":23997,"LANDMARKID":"1001500001008","LANDMARKCO":"604","LANDMARKNA":"桔園民宿","LANDMARKAD":"1001505","ADDRESS":"花蓮縣吉安鄉稻香村廣豐一街56號","TEL":"0911-493992","COUNTYNAME":"花蓮縣","TOWNNAME":"吉安鄉","MARKTYPE":"996","Class":"6"}},{"type":"Feature","id":23998,"geometry":{"type":"Point","coordinates":[121.57495295272824,23.955958445469822]},"properties":{"OBJECTID":23998,"LANDMARKID":"1001500001009","LANDMARKCO":"604","LANDMARKNA":"凱苑民宿","LANDMARKAD":"1001505","ADDRESS":"花蓮縣吉安鄉稻香村廣豐路126號","TEL":"03-8539039","COUNTYNAME":"花蓮縣","TOWNNAME":"吉安鄉","MARKTYPE":"996","Class":"6"}},{"type":"Feature","id":23999,"geometry":{"type":"Point","coordinates":[121.57448087229048,23.954517310166562]},"properties":{"OBJECTID":23999,"LANDMARKID":"1001500001010","LANDMARKCO":"604","LANDMARKNA":"戀戀花蓮民宿","LANDMARKAD":"1001505","ADDRESS":"花蓮縣吉安鄉稻香村廣豐路83巷18號","TEL":"03-8460250","COUNTYNAME":"花蓮縣","TOWNNAME":"吉安鄉","MARKTYPE":"996","Class":"6"}},{"type":"Feature","id":24000,"geometry":{"type":"Point","coordinates":[121.57495982265432,23.95534443567254]},"properties":{"OBJECTID":24000,"LANDMARKID":"1001500001011","LANDMARKCO":"604","LANDMARKNA":"南洋風情民宿","LANDMARKAD":"1001505","ADDRESS":"花蓮縣吉安鄉稻香村廣豐路83巷7號","TEL":"03-8524612","COUNTYNAME":"花蓮縣","TOWNNAME":"吉安鄉","MARKTYPE":"996","Class":"6"}}]}