{"type":"FeatureCollection","features":[{"type":"Feature","id":5801,"geometry":{"type":"Point","coordinates":[121.44372860012358,24.972720634157191]},"properties":{"OBJECTID":5801,"LANDMARKID":"1000100001472","LANDMARKCO":"306","LANDMARKNA":"土城捷運站-出口2","LANDMARKAD":"1000113","ADDRESS":" ","TEL":" ","COUNTYNAME":"新北市","TOWNNAME":"土城區","MARKTYPE":"993","Class":"306"}},{"type":"Feature","id":5802,"geometry":{"type":"Point","coordinates":[121.44521350041217,24.973651412875878]},"properties":{"OBJECTID":5802,"LANDMARKID":"1000100001473","LANDMARKCO":"306","LANDMARKNA":"土城捷運站-出口3","LANDMARKAD":"1000113","ADDRESS":" ","TEL":" ","COUNTYNAME":"新北市","TOWNNAME":"土城區","MARKTYPE":"993","Class":"306"}},{"type":"Feature","id":5803,"geometry":{"type":"Point","coordinates":[121.43534841293572,24.966827427114243]},"properties":{"OBJECTID":5803,"LANDMARKID":"1000100001474","LANDMARKCO":"306","LANDMARKNA":"永寧捷運站-出口1","LANDMARKAD":"1000113","ADDRESS":" ","TEL":" ","COUNTYNAME":"新北市","TOWNNAME":"土城區","MARKTYPE":"993","Class":"306"}},{"type":"Feature","id":5804,"geometry":{"type":"Point","coordinates":[121.43710625507103,24.96712747662184]},"properties":{"OBJECTID":5804,"LANDMARKID":"1000100001475","LANDMARKCO":"306","LANDMARKNA":"永寧捷運站-出口3","LANDMARKAD":"1000113","ADDRESS":" ","TEL":" ","COUNTYNAME":"新北市","TOWNNAME":"土城區","MARKTYPE":"993","Class":"306"}},{"type":"Feature","id":5805,"geometry":{"type":"Point","coordinates":[121.43682316886463,24.967589365738572]},"properties":{"OBJECTID":5805,"LANDMARKID":"1000100001476","LANDMARKCO":"306","LANDMARKNA":"永寧捷運站-出口4","LANDMARKAD":"1000113","ADDRESS":" ","TEL":" ","COUNTYNAME":"新北市","TOWNNAME":"土城區","MARKTYPE":"993","Class":"306"}},{"type":"Feature","id":5806,"geometry":{"type":"Point","coordinates":[121.43584876603455,24.965900208948543]},"properties":{"OBJECTID":5806,"LANDMARKID":"1000100001477","LANDMARKCO":"306","LANDMARKNA":"永寧捷運站-出口2","LANDMARKAD":"1000113","ADDRESS":" ","TEL":" ","COUNTYNAME":"新北市","TOWNNAME":"土城區","MARKTYPE":"993","Class":"306"}},{"type":"Feature","id":5807,"geometry":{"type":"Point","coordinates":[121.45772715185089,24.977487499293343]},"properties":{"OBJECTID":5807,"LANDMARKID":"1000100000959","LANDMARKCO":"302","LANDMARKNA":"大南汽車客運光復站","LANDMARKAD":"1000113","ADDRESS":"新北市土城區明德路一段398號之1","TEL":" ","COUNTYNAME":"新北市","TOWNNAME":"土城區","MARKTYPE":"993","Class":"302"}},{"type":"Feature","id":5808,"geometry":{"type":"Point","coordinates":[121.45952966008008,24.968330899369228]},"properties":{"OBJECTID":5808,"LANDMARKID":"1000100000960","LANDMARKCO":"302","LANDMARKNA":"台北汽車客運四海站","LANDMARKAD":"1000113","ADDRESS":"新北市土城區石門路15之1號","TEL":" ","COUNTYNAME":"新北市","TOWNNAME":"土城區","MARKTYPE":"993","Class":"302"}},{"type":"Feature","id":5809,"geometry":{"type":"Point","coordinates":[121.43844143640131,24.964763257242911]},"properties":{"OBJECTID":5809,"LANDMARKID":"1000100000961","LANDMARKCO":"302","LANDMARKNA":"台北汽車客運土城站","LANDMARKAD":"1000113","ADDRESS":"新北市土城區忠承路59號","TEL":" ","COUNTYNAME":"新北市","TOWNNAME":"土城區","MARKTYPE":"993","Class":"302"}},{"type":"Feature","id":5810,"geometry":{"type":"Point","coordinates":[121.44062329716019,24.971536640009145]},"properties":{"OBJECTID":5810,"LANDMARKID":"1000100001202","LANDMARKCO":"303","LANDMARKNA":"錫章停車場","LANDMARKAD":"1000113","ADDRESS":"新北市土城區","TEL":" ","COUNTYNAME":"新北市","TOWNNAME":"土城區","MARKTYPE":"993","Class":"303"}},{"type":"Feature","id":5811,"geometry":{"type":"Point","coordinates":[121.44322657226101,24.972156828059862]},"properties":{"OBJECTID":5811,"LANDMARKID":"1000100001203","LANDMARKCO":"303","LANDMARKNA":"土城公有停車場","LANDMARKAD":"1000113","ADDRESS":"新北市土城區和平路","TEL":" ","COUNTYNAME":"新北市","TOWNNAME":"土城區","MARKTYPE":"993","Class":"303"}},{"type":"Feature","id":5812,"geometry":{"type":"Point","coordinates":[121.45612463602119,24.973139243570877]},"properties":{"OBJECTID":5812,"LANDMARKID":"1000100001204","LANDMARKCO":"303","LANDMARKNA":"德霖技術學院停車場","LANDMARKAD":"1000113","ADDRESS":" ","TEL":" ","COUNTYNAME":"新北市","TOWNNAME":"土城區","MARKTYPE":"993","Class":"303"}},{"type":"Feature","id":5813,"geometry":{"type":"Point","coordinates":[121.45091529973382,24.988112327305103]},"properties":{"OBJECTID":5813,"LANDMARKID":"1000100001205","LANDMARKCO":"303","LANDMARKNA":"成功停車場","LANDMARKAD":"1000113","ADDRESS":"新北市土城區","TEL":" ","COUNTYNAME":"新北市","TOWNNAME":"土城區","MARKTYPE":"993","Class":"303"}},{"type":"Feature","id":5814,"geometry":{"type":"Point","coordinates":[121.45430856459247,24.992192475178395]},"properties":{"OBJECTID":5814,"LANDMARKID":"1000100001206","LANDMARKCO":"303","LANDMARKNA":"華德公園平面停車場","LANDMARKAD":"1000113","ADDRESS":" ","TEL":" ","COUNTYNAME":"新北市","TOWNNAME":"土城區","MARKTYPE":"993","Class":"303"}},{"type":"Feature","id":5815,"geometry":{"type":"Point","coordinates":[121.4547692329147,24.9921231351858]},"properties":{"OBJECTID":5815,"LANDMARKID":"1000100001207","LANDMARKCO":"303","LANDMARKNA":"亞東停車場","LANDMARKAD":"1000113","ADDRESS":" ","TEL":" ","COUNTYNAME":"新北市","TOWNNAME":"土城區","MARKTYPE":"993","Class":"303"}},{"type":"Feature","id":5816,"geometry":{"type":"Point","coordinates":[121.45614331510998,24.991200684656171]},"properties":{"OBJECTID":5816,"LANDMARKID":"1000100001208","LANDMARKCO":"303","LANDMARKNA":"佳來停車場","LANDMARKAD":"1000113","ADDRESS":"新北市土城區","TEL":" ","COUNTYNAME":"新北市","TOWNNAME":"土城區","MARKTYPE":"993","Class":"303"}},{"type":"Feature","id":5817,"geometry":{"type":"Point","coordinates":[121.41893830231081,24.964090724761324]},"properties":{"OBJECTID":5817,"LANDMARKID":"1000100001209","LANDMARKCO":"303","LANDMARKNA":"民族公園停車場","LANDMARKAD":"1000113","ADDRESS":"新北市土城區","TEL":" ","COUNTYNAME":"新北市","TOWNNAME":"土城區","MARKTYPE":"993","Class":"303"}},{"type":"Feature","id":5818,"geometry":{"type":"Point","coordinates":[121.44353461852612,24.97285984983899]},"properties":{"OBJECTID":5818,"LANDMARKID":"1000100001210","LANDMARKCO":"303","LANDMARKNA":"和平路停車場","LANDMARKAD":"1000113","ADDRESS":"新北市土城區土城里和平路","TEL":" ","COUNTYNAME":"新北市","TOWNNAME":"土城區","MARKTYPE":"993","Class":"303"}},{"type":"Feature","id":5819,"geometry":{"type":"Point","coordinates":[121.46793005072838,24.985980724506195]},"properties":{"OBJECTID":5819,"LANDMARKID":"1000100001211","LANDMARKCO":"303","LANDMARKNA":"延吉停車場","LANDMARKAD":"1000113","ADDRESS":"新北市土城區德峰街65號","TEL":" ","COUNTYNAME":"新北市","TOWNNAME":"土城區","MARKTYPE":"993","Class":"303"}},{"type":"Feature","id":5820,"geometry":{"type":"Point","coordinates":[121.45865399313367,24.984045031348185]},"properties":{"OBJECTID":5820,"LANDMARKID":"1000100001212","LANDMARKCO":"303","LANDMARKNA":"金城停車場","LANDMARKAD":"1000113","ADDRESS":"新北市土城區金城路286號","TEL":" ","COUNTYNAME":"新北市","TOWNNAME":"土城區","MARKTYPE":"993","Class":"303"}},{"type":"Feature","id":5821,"geometry":{"type":"Point","coordinates":[121.45915257686767,24.984670989199245]},"properties":{"OBJECTID":5821,"LANDMARKID":"1000100001213","LANDMARKCO":"303","LANDMARKNA":"青雲路、金城路口停車場","LANDMARKAD":"1000113","ADDRESS":"新北市土城區青溪里青雲路","TEL":" ","COUNTYNAME":"新北市","TOWNNAME":"土城區","MARKTYPE":"993","Class":"303"}},{"type":"Feature","id":5822,"geometry":{"type":"Point","coordinates":[121.45886224267088,24.979204030733403]},"properties":{"OBJECTID":5822,"LANDMARKID":"1000100001214","LANDMARKCO":"303","LANDMARKNA":"停七停車場","LANDMARKAD":"1000113","ADDRESS":"新北市土城區青雲路","TEL":" ","COUNTYNAME":"新北市","TOWNNAME":"土城區","MARKTYPE":"993","Class":"303"}},{"type":"Feature","id":5823,"geometry":{"type":"Point","coordinates":[121.46699868115095,24.981691824076776]},"properties":{"OBJECTID":5823,"LANDMARKID":"1000100001215","LANDMARKCO":"303","LANDMARKNA":"停二停車場","LANDMARKAD":"1000113","ADDRESS":"新北市土城區延和里立德路","TEL":" ","COUNTYNAME":"新北市","TOWNNAME":"土城區","MARKTYPE":"993","Class":"303"}},{"type":"Feature","id":5824,"geometry":{"type":"Point","coordinates":[121.44307414372467,24.978062341653381]},"properties":{"OBJECTID":5824,"LANDMARKID":"1000100001216","LANDMARKCO":"303","LANDMARKNA":"停八停車場","LANDMARKAD":"1000113","ADDRESS":"新北市土城區員林街","TEL":" ","COUNTYNAME":"新北市","TOWNNAME":"土城區","MARKTYPE":"993","Class":"303"}},{"type":"Feature","id":5825,"geometry":{"type":"Point","coordinates":[121.46953423927209,24.979159796924002]},"properties":{"OBJECTID":5825,"LANDMARKID":"1000100001217","LANDMARKCO":"303","LANDMARKNA":"停三停車場","LANDMARKAD":"1000113","ADDRESS":"新北市土城區永豐街","TEL":" ","COUNTYNAME":"新北市","TOWNNAME":"土城區","MARKTYPE":"993","Class":"303"}},{"type":"Feature","id":5826,"geometry":{"type":"Point","coordinates":[121.46123626565982,24.985275882512234]},"properties":{"OBJECTID":5826,"LANDMARKID":"1000100001218","LANDMARKCO":"303","LANDMARKNA":"停四立體停車場","LANDMARKAD":"1000113","ADDRESS":"新北市土城區青雲里金城路","TEL":" ","COUNTYNAME":"新北市","TOWNNAME":"土城區","MARKTYPE":"993","Class":"303"}},{"type":"Feature","id":5827,"geometry":{"type":"Point","coordinates":[121.46288577325883,24.985743982995398]},"properties":{"OBJECTID":5827,"LANDMARKID":"1000100001219","LANDMARKCO":"303","LANDMARKNA":"新豐停車場","LANDMARKAD":"1000113","ADDRESS":"新北市土城區金城路二段266號","TEL":" ","COUNTYNAME":"新北市","TOWNNAME":"土城區","MARKTYPE":"993","Class":"303"}},{"type":"Feature","id":5828,"geometry":{"type":"Point","coordinates":[121.44717423369143,24.984453884171032]},"properties":{"OBJECTID":5828,"LANDMARKID":"1000100001220","LANDMARKCO":"303","LANDMARKNA":"裕生停車場","LANDMARKAD":"1000113","ADDRESS":"新北市土城區裕生路106號","TEL":" ","COUNTYNAME":"新北市","TOWNNAME":"土城區","MARKTYPE":"993","Class":"303"}},{"type":"Feature","id":5829,"geometry":{"type":"Point","coordinates":[121.44922725258196,24.973271728681084]},"properties":{"OBJECTID":5829,"LANDMARKID":"1000100001221","LANDMARKCO":"303","LANDMARKNA":"停一立體停車場","LANDMARKAD":"1000113","ADDRESS":"新北市土城區峰延里明峰路","TEL":" ","COUNTYNAME":"新北市","TOWNNAME":"土城區","MARKTYPE":"993","Class":"303"}},{"type":"Feature","id":5830,"geometry":{"type":"Point","coordinates":[121.44936109497583,24.981957635793176]},"properties":{"OBJECTID":5830,"LANDMARKID":"1000100001222","LANDMARKCO":"303","LANDMARKNA":"應安停車場-學府場","LANDMARKAD":"1000113","ADDRESS":"新北市學府路二段21號B1(皇翔快樂花園)","TEL":"0980-933207","COUNTYNAME":"新北市","TOWNNAME":"土城區","MARKTYPE":"993","Class":"303"}},{"type":"Feature","id":5831,"geometry":{"type":"Point","coordinates":[121.457539360604,24.981733992948072]},"properties":{"OBJECTID":5831,"LANDMARKID":"1000100001223","LANDMARKCO":"303","LANDMARKNA":"應安停車場-土城清水場","LANDMARKAD":"1000113","ADDRESS":"新北市土城區清水路117號","TEL":" ","COUNTYNAME":"新北市","TOWNNAME":"土城區","MARKTYPE":"993","Class":"303"}},{"type":"Feature","id":5832,"geometry":{"type":"Point","coordinates":[121.43874752093033,24.969591332439101]},"properties":{"OBJECTID":5832,"LANDMARKID":"1000100001224","LANDMARKCO":"303","LANDMARKNA":"應安停車場-土城中央場","LANDMARKAD":"1000113","ADDRESS":"新北市土城區中央路三段6號","TEL":"0980-933201","COUNTYNAME":"新北市","TOWNNAME":"土城區","MARKTYPE":"993","Class":"303"}},{"type":"Feature","id":5833,"geometry":{"type":"Point","coordinates":[121.44754609849271,24.989192104470156]},"properties":{"OBJECTID":5833,"LANDMARKID":"1000100001225","LANDMARKCO":"303","LANDMARKNA":"Times(普客二四停車場)-裕民路停車場","LANDMARKAD":"1000113","ADDRESS":"土城區學成段106地號（中央路一段與裕民路口）","TEL":" ","COUNTYNAME":"新北市","TOWNNAME":"土城區","MARKTYPE":"993","Class":"303"}},{"type":"Feature","id":5834,"geometry":{"type":"Point","coordinates":[121.46887968077394,24.988136121580744]},"properties":{"OBJECTID":5834,"LANDMARKID":"1000100001226","LANDMARKCO":"303","LANDMARKNA":"Times(普客二四停車場)-金城路停車場","LANDMARKAD":"1000113","ADDRESS":"新北市土城區金城路三段200號及202號","TEL":" ","COUNTYNAME":"新北市","TOWNNAME":"土城區","MARKTYPE":"993","Class":"303"}},{"type":"Feature","id":5835,"geometry":{"type":"Point","coordinates":[121.46554960611842,24.986360058301504]},"properties":{"OBJECTID":5835,"LANDMARKID":"1000100001781","LANDMARKCO":"402","LANDMARKNA":"中華電信-土城金城特約服務中心","LANDMARKAD":"1000113","ADDRESS":"土城區金城路三段38號","TEL":"02-82613737","COUNTYNAME":"新北市","TOWNNAME":"土城區","MARKTYPE":"994","Class":"4"}},{"type":"Feature","id":5836,"geometry":{"type":"Point","coordinates":[121.45888557494075,24.985300875124597]},"properties":{"OBJECTID":5836,"LANDMARKID":"1000100001782","LANDMARKCO":"402","LANDMARKNA":"中華電信-土城服務中心","LANDMARKAD":"1000113","ADDRESS":"新北市土城區青雲路136號","TEL":"123或0800-080-123","COUNTYNAME":"新北市","TOWNNAME":"土城區","MARKTYPE":"994","Class":"4"}},{"type":"Feature","id":5837,"geometry":{"type":"Point","coordinates":[121.44831869028002,24.988392051916794]},"properties":{"OBJECTID":5837,"LANDMARKID":"1000100001783","LANDMARKCO":"402","LANDMARKNA":"中華電信-土城裕民特約服務中心","LANDMARKAD":"1000113","ADDRESS":"新北市土城區裕民路35號","TEL":"02-22605665","COUNTYNAME":"新北市","TOWNNAME":"土城區","MARKTYPE":"994","Class":"4"}},{"type":"Feature","id":5838,"geometry":{"type":"Point","coordinates":[121.44224106170127,24.977948091131555]},"properties":{"OBJECTID":5838,"LANDMARKID":"1000100001784","LANDMARKCO":"402","LANDMARKNA":"遠傳電信-土城中央門市","LANDMARKAD":"1000113","ADDRESS":"新北市土城區中央路二段95號","TEL":" ","COUNTYNAME":"新北市","TOWNNAME":"土城區","MARKTYPE":"994","Class":"4"}},{"type":"Feature","id":5839,"geometry":{"type":"Point","coordinates":[121.44727514897396,24.989310162251694]},"properties":{"OBJECTID":5839,"LANDMARKID":"1000100001785","LANDMARKCO":"402","LANDMARKNA":"威寶電信-土城裕民特約服務中心","LANDMARKAD":"1000113","ADDRESS":"新北市土城區中央路一段74號","TEL":"02-22646420","COUNTYNAME":"新北市","TOWNNAME":"土城區","MARKTYPE":"994","Class":"4"}},{"type":"Feature","id":5840,"geometry":{"type":"Point","coordinates":[121.44236773210676,24.97903976638224]},"properties":{"OBJECTID":5840,"LANDMARKID":"1000100001786","LANDMARKCO":"402","LANDMARKNA":"威寶電信-土城中央特約服務中心","LANDMARKAD":"1000113","ADDRESS":"新北市土城區中央路二段74號","TEL":"02-22657512","COUNTYNAME":"新北市","TOWNNAME":"土城區","MARKTYPE":"994","Class":"4"}},{"type":"Feature","id":5841,"geometry":{"type":"Point","coordinates":[121.45775017782121,24.988531443720866]},"properties":{"OBJECTID":5841,"LANDMARKID":"1000100001787","LANDMARKCO":"402","LANDMARKNA":"威寶電信-土城學府特約服務中心","LANDMARKAD":"1000113","ADDRESS":"新北市土城區學府路一段48號","TEL":"(02)22700124","COUNTYNAME":"新北市","TOWNNAME":"土城區","MARKTYPE":"994","Class":"4"}},{"type":"Feature","id":5842,"geometry":{"type":"Point","coordinates":[121.44765607161878,24.989930825325963]},"properties":{"OBJECTID":5842,"LANDMARKID":"1000100001788","LANDMARKCO":"402","LANDMARKNA":"大眾電信(傑昇通信)-中央店","LANDMARKAD":"1000113","ADDRESS":"新北市土城巿中央路一段48號","TEL":"02-22634468","COUNTYNAME":"新北市","TOWNNAME":"土城區","MARKTYPE":"994","Class":"4"}},{"type":"Feature","id":5843,"geometry":{"type":"Point","coordinates":[121.46348682324958,24.987357417594669]},"properties":{"OBJECTID":5843,"LANDMARKID":"1000100001789","LANDMARKCO":"402","LANDMARKNA":"大眾電信(傑昇通信)-立德店","LANDMARKAD":"1000113","ADDRESS":"新北市土城巿立德路38號","TEL":"02-82602121","COUNTYNAME":"新北市","TOWNNAME":"土城區","MARKTYPE":"994","Class":"4"}},{"type":"Feature","id":5844,"geometry":{"type":"Point","coordinates":[121.47176834382839,24.990085025688327]},"properties":{"OBJECTID":5844,"LANDMARKID":"1000100001790","LANDMARKCO":"402","LANDMARKNA":"大眾電信(傑昇通信)-金城店","LANDMARKAD":"1000113","ADDRESS":"新北市土城巿金城路三段253號","TEL":"02-22637828","COUNTYNAME":"新北市","TOWNNAME":"土城區","MARKTYPE":"994","Class":"4"}},{"type":"Feature","id":5845,"geometry":{"type":"Point","coordinates":[121.44782354045516,24.988413090699872]},"properties":{"OBJECTID":5845,"LANDMARKID":"1000100001791","LANDMARKCO":"402","LANDMARKNA":"大眾電信(傑昇通信)-土城店","LANDMARKAD":"1000113","ADDRESS":"新北市土城巿裕民路30號","TEL":"02-22655000","COUNTYNAME":"新北市","TOWNNAME":"土城區","MARKTYPE":"994","Class":"4"}},{"type":"Feature","id":5846,"geometry":{"type":"Point","coordinates":[121.46532916457154,24.984637062506522]},"properties":{"OBJECTID":5846,"LANDMARKID":"1000100001792","LANDMARKCO":"402","LANDMARKNA":"大眾電信(震旦通訊)-土城明德店","LANDMARKAD":"1000113","ADDRESS":"新北市土城區明德路一段57號","TEL":"02-82731889","COUNTYNAME":"新北市","TOWNNAME":"土城區","MARKTYPE":"994","Class":"4"}},{"type":"Feature","id":5847,"geometry":{"type":"Point","coordinates":[121.44765606072414,24.988540495240422]},"properties":{"OBJECTID":5847,"LANDMARKID":"1000100001793","LANDMARKCO":"402","LANDMARKNA":"大眾電信(震旦通訊)-土城裕民店","LANDMARKAD":"1000113","ADDRESS":"新北市土城區裕民路22號","TEL":"02-22633638","COUNTYNAME":"新北市","TOWNNAME":"土城區","MARKTYPE":"994","Class":"4"}},{"type":"Feature","id":5848,"geometry":{"type":"Point","coordinates":[121.44880892200618,24.987693917204869]},"properties":{"OBJECTID":5848,"LANDMARKID":"1000100001794","LANDMARKCO":"402","LANDMARKNA":"大眾電信-土城專賣店","LANDMARKAD":"1000113","ADDRESS":"新北市土城區裕生路21巷1弄15號(海山捷運站3號出口)","TEL":"02-22666661","COUNTYNAME":"新北市","TOWNNAME":"土城區","MARKTYPE":"994","Class":"4"}},{"type":"Feature","id":5849,"geometry":{"type":"Point","coordinates":[121.4562613375284,24.988134313853653]},"properties":{"OBJECTID":5849,"LANDMARKID":"1000100001795","LANDMARKCO":"402","LANDMARKNA":"大眾電信(震旦通訊)-土城學府店","LANDMARKAD":"1000113","ADDRESS":"新北市土城區學府路一段90號","TEL":"02-22629398","COUNTYNAME":"新北市","TOWNNAME":"土城區","MARKTYPE":"994","Class":"4"}},{"type":"Feature","id":5850,"geometry":{"type":"Point","coordinates":[121.43938872054446,24.971336604144117]},"properties":{"OBJECTID":5850,"LANDMARKID":"1000100002767","LANDMARKCO":"603","LANDMARKNA":"有馬旅館","LANDMARKAD":"1000113","ADDRESS":"新北市土城區中央路2段392號","TEL":"02-22606666","COUNTYNAME":"新北市","TOWNNAME":"土城區","MARKTYPE":"996","Class":"6"}},{"type":"Feature","id":5851,"geometry":{"type":"Point","coordinates":[121.44068669047844,24.97387737551815]},"properties":{"OBJECTID":5851,"LANDMARKID":"1000100002768","LANDMARKCO":"603","LANDMARKNA":"簡愛旅棧","LANDMARKAD":"1000113","ADDRESS":"新北市土城區中央路2段282號1","TEL":"4至7樓","COUNTYNAME":"新北市","TOWNNAME":"土城區","MARKTYPE":"996","Class":"6"}},{"type":"Feature","id":5852,"geometry":{"type":"Point","coordinates":[121.44074309348134,24.973452710562221]},"properties":{"OBJECTID":5852,"LANDMARKID":"1000100002769","LANDMARKCO":"603","LANDMARKNA":"紅堡旅店","LANDMARKAD":"1000113","ADDRESS":"新北市土城區中央路2段223之4號1至2樓","TEL":"223之5號3至5樓","COUNTYNAME":"新北市","TOWNNAME":"土城區","MARKTYPE":"996","Class":"6"}},{"type":"Feature","id":5853,"geometry":{"type":"Point","coordinates":[121.44324116258178,24.975134360342519]},"properties":{"OBJECTID":5853,"LANDMARKID":"1000100002770","LANDMARKCO":"603","LANDMARKNA":"福客旅店","LANDMARKAD":"1000113","ADDRESS":"新北市土城區中正路28號1至9樓","TEL":"02-22649705","COUNTYNAME":"新北市","TOWNNAME":"土城區","MARKTYPE":"996","Class":"6"}},{"type":"Feature","id":5854,"geometry":{"type":"Point","coordinates":[121.44232830874731,24.974905083113629]},"properties":{"OBJECTID":5854,"LANDMARKID":"1000100002771","LANDMARKCO":"603","LANDMARKNA":"名喬賓館","LANDMARKAD":"1000113","ADDRESS":"新北市土城區中正路2號4樓","TEL":"02-22604568","COUNTYNAME":"新北市","TOWNNAME":"土城區","MARKTYPE":"996","Class":"6"}},{"type":"Feature","id":5855,"geometry":{"type":"Point","coordinates":[121.44418133944741,24.990242020216126]},"properties":{"OBJECTID":5855,"LANDMARKID":"1000100002772","LANDMARKCO":"603","LANDMARKNA":"Q汽車旅館","LANDMARKAD":"1000113","ADDRESS":"新北市土城區中華路1段56巷38號","TEL":"02-22629999","COUNTYNAME":"新北市","TOWNNAME":"土城區","MARKTYPE":"996","Class":"6"}},{"type":"Feature","id":5856,"geometry":{"type":"Point","coordinates":[121.43808955769047,24.97776669674646]},"properties":{"OBJECTID":5856,"LANDMARKID":"1000100002773","LANDMARKCO":"603","LANDMARKNA":"艾蔓精緻旅館-土城館","LANDMARKAD":"1000113","ADDRESS":"新北市土城區城林路6巷18號","TEL":"02-22673399","COUNTYNAME":"新北市","TOWNNAME":"土城區","MARKTYPE":"996","Class":"6"}},{"type":"Feature","id":5857,"geometry":{"type":"Point","coordinates":[121.4485635738488,24.953210659815365]},"properties":{"OBJECTID":5857,"LANDMARKID":"1000100002560","LANDMARKCO":"504","LANDMARKNA":"南天母森林遊樂園(停)","LANDMARKAD":"1000113","ADDRESS":"新北市土城區南天母路171巷20號","TEL":" ","COUNTYNAME":"新北市","TOWNNAME":"土城區","MARKTYPE":"995","Class":"5"}},{"type":"Feature","id":5858,"geometry":{"type":"Point","coordinates":[121.43073731650082,24.942748525405939]},"properties":{"OBJECTID":5858,"LANDMARKID":"1000100002528","LANDMARKCO":"503","LANDMARKNA":"媽祖田風景區","LANDMARKAD":"1000113","ADDRESS":"新北市土城區","TEL":" ","COUNTYNAME":"新北市","TOWNNAME":"土城區","MARKTYPE":"995","Class":"5"}},{"type":"Feature","id":5859,"geometry":{"type":"Point","coordinates":[121.34078127407074,24.952993895129943]},"properties":{"OBJECTID":5859,"LANDMARKID":"1000100002003","LANDMARKCO":"405","LANDMARKNA":"中油加油站-鶯桃路站(中油直營)","LANDMARKAD":"1000108","ADDRESS":"新北市鶯歌區鶯桃路永新巷1號","TEL":"02-26792083","COUNTYNAME":"新北市","TOWNNAME":"鶯歌區","MARKTYPE":"994","Class":"4"}},{"type":"Feature","id":5860,"geometry":{"type":"Point","coordinates":[121.35207791615257,24.950322162824502]},"properties":{"OBJECTID":5860,"LANDMARKID":"1000100002004","LANDMARKCO":"405","LANDMARKNA":"中油加油站-鶯歌站(刷卡自助)(中油直營)","LANDMARKAD":"1000108","ADDRESS":"新北市鶯歌區文化路152號","TEL":"02-26792944","COUNTYNAME":"新北市","TOWNNAME":"鶯歌區","MARKTYPE":"994","Class":"4"}},{"type":"Feature","id":5861,"geometry":{"type":"Point","coordinates":[121.33324520163906,24.964335064058915]},"properties":{"OBJECTID":5861,"LANDMARKID":"1000100002005","LANDMARKCO":"405","LANDMARKNA":"中油加油站-亞柏鶯歌站","LANDMARKAD":"1000108","ADDRESS":"新北市鶯歌區鶯桃路412號","TEL":"02-86777277","COUNTYNAME":"新北市","TOWNNAME":"鶯歌區","MARKTYPE":"994","Class":"4"}},{"type":"Feature","id":5862,"geometry":{"type":"Point","coordinates":[121.35315313215995,24.946595150288729]},"properties":{"OBJECTID":5862,"LANDMARKID":"1000100002006","LANDMARKCO":"405","LANDMARKNA":"統一速邁樂加油站-鶯歌二站(中油)","LANDMARKAD":"1000108","ADDRESS":"新北市鶯歌區文化路669號","TEL":"02-26799303","COUNTYNAME":"新北市","TOWNNAME":"鶯歌區","MARKTYPE":"994","Class":"4"}},{"type":"Feature","id":5863,"geometry":{"type":"Point","coordinates":[121.35399385450934,24.957253173507567]},"properties":{"OBJECTID":5863,"LANDMARKID":"1000100002007","LANDMARKCO":"405","LANDMARKNA":"中油加油站-峰沅站","LANDMARKAD":"1000108","ADDRESS":"新北市鶯歌區中正一路225號","TEL":"02-26780368","COUNTYNAME":"新北市","TOWNNAME":"鶯歌區","MARKTYPE":"994","Class":"4"}},{"type":"Feature","id":5864,"geometry":{"type":"Point","coordinates":[121.34656333279663,24.957103143226195]},"properties":{"OBJECTID":5864,"LANDMARKID":"1000100002008","LANDMARKCO":"405","LANDMARKNA":"統一速邁樂加油站-鶯歌加油站(中油)","LANDMARKAD":"1000108","ADDRESS":"新北市鶯歌區中山路198號","TEL":" ","COUNTYNAME":"新北市","TOWNNAME":"鶯歌區","MARKTYPE":"994","Class":"4"}},{"type":"Feature","id":5865,"geometry":{"type":"Point","coordinates":[121.33560909858035,24.970147266713507]},"properties":{"OBJECTID":5865,"LANDMARKID":"1000100002009","LANDMARKCO":"405","LANDMARKNA":"山隆加油站-鶯歌站(中油)","LANDMARKAD":"1000108","ADDRESS":"新北市鶯歌區永和二街28號","TEL":"(02)2670-9799","COUNTYNAME":"新北市","TOWNNAME":"鶯歌區","MARKTYPE":"994","Class":"4"}},{"type":"Feature","id":5866,"geometry":{"type":"Point","coordinates":[121.32483469635498,24.973299342029719]},"properties":{"OBJECTID":5866,"LANDMARKID":"1000100001611","LANDMARKCO":"401","LANDMARKNA":"名恩療養院","LANDMARKAD":"1000108","ADDRESS":"新北市鶯歌區鶯桃路二段62號1-4樓","TEL":"02-26701092","COUNTYNAME":"新北市","TOWNNAME":"鶯歌區","MARKTYPE":"994","Class":"4"}},{"type":"Feature","id":5867,"geometry":{"type":"Point","coordinates":[121.36422648485546,24.956561455840049]},"properties":{"OBJECTID":5867,"LANDMARKID":"1000100002002","LANDMARKCO":"405","LANDMARKNA":"台塑加油站-東林站(台塑)","LANDMARKAD":"1000108","ADDRESS":"新北市鶯歌區中正一路461-5號","TEL":"02-86773511","COUNTYNAME":"新北市","TOWNNAME":"鶯歌區","MARKTYPE":"994","Class":"4"}},{"type":"Feature","id":5868,"geometry":{"type":"Point","coordinates":[121.35230318077286,24.953895649144552]},"properties":{"OBJECTID":5868,"LANDMARKID":"1000100002320","LANDMARKCO":"408","LANDMARKNA":"郵局-鶯歌郵局","LANDMARKAD":"1000108","ADDRESS":"新北市鶯歌區中正一路47號","TEL":"(02)2679-2330","COUNTYNAME":"新北市","TOWNNAME":"鶯歌區","MARKTYPE":"994","Class":"4"}},{"type":"Feature","id":5869,"geometry":{"type":"Point","coordinates":[121.33041734244297,24.967918244699167]},"properties":{"OBJECTID":5869,"LANDMARKID":"1000100002321","LANDMARKCO":"408","LANDMARKNA":"郵局-鶯歌鳳鳴郵局","LANDMARKAD":"1000108","ADDRESS":"新北市鶯歌區鶯桃路2段11號","TEL":"(02)2679-4155","COUNTYNAME":"新北市","TOWNNAME":"鶯歌區","MARKTYPE":"994","Class":"4"}},{"type":"Feature","id":5870,"geometry":{"type":"Point","coordinates":[121.33224523454078,24.938063320306046]},"properties":{"OBJECTID":5870,"LANDMARKID":"1000100002322","LANDMARKCO":"408","LANDMARKNA":"郵局-鶯歌二橋郵局","LANDMARKAD":"1000108","ADDRESS":"新北市鶯歌區中正3路208之4號","TEL":"(02)2679-6540","COUNTYNAME":"新北市","TOWNNAME":"鶯歌區","MARKTYPE":"994","Class":"4"}},{"type":"Feature","id":5871,"geometry":{"type":"Point","coordinates":[121.33859065120137,24.954478462244264]},"properties":{"OBJECTID":5871,"LANDMARKID":"1000100002323","LANDMARKCO":"408","LANDMARKNA":"郵局-鶯歌永昌郵局","LANDMARKAD":"1000108","ADDRESS":"新北市鶯歌區鶯桃路104號","TEL":"(02)2678-3133","COUNTYNAME":"新北市","TOWNNAME":"鶯歌區","MARKTYPE":"994","Class":"4"}},{"type":"Feature","id":5872,"geometry":{"type":"Point","coordinates":[121.35587572326457,24.954204827821236]},"properties":{"OBJECTID":5872,"LANDMARKID":"1000100002470","LANDMARKCO":"409","LANDMARKNA":"新北市鶯歌區農會","LANDMARKAD":"1000108","ADDRESS":"新北市鶯歌區文化路181號","TEL":"02-26706262-72","COUNTYNAME":"新北市","TOWNNAME":"鶯歌區","MARKTYPE":"994","Class":"4"}},{"type":"Feature","id":5873,"geometry":{"type":"Point","coordinates":[121.35269345811518,24.950337894100851]},"properties":{"OBJECTID":5873,"LANDMARKID":"1000100001869","LANDMARKCO":"404","LANDMARKNA":"台灣省自來水鶯歌服務所","LANDMARKAD":"1000108","ADDRESS":"新北市鶯歌區環河路57號","TEL":" ","COUNTYNAME":"新北市","TOWNNAME":"鶯歌區","MARKTYPE":"994","Class":"4"}},{"type":"Feature","id":5874,"geometry":{"type":"Point","coordinates":[121.3491625702061,24.952589097422489]},"properties":{"OBJECTID":5874,"LANDMARKID":"1000100002177","LANDMARKCO":"406","LANDMARKNA":"三號公園","LANDMARKAD":"1000108","ADDRESS":"新北市鶯歌區","TEL":" ","COUNTYNAME":"新北市","TOWNNAME":"鶯歌區","MARKTYPE":"994","Class":"4"}},{"type":"Feature","id":5875,"geometry":{"type":"Point","coordinates":[121.35421831762591,24.955932494043957]},"properties":{"OBJECTID":5875,"LANDMARKID":"1000100000430","LANDMARKCO":"108","LANDMARKNA":"新北市鶯歌區公所","LANDMARKAD":"1000108","ADDRESS":"新北市鶯歌區仁愛路55號","TEL":"02-26780202","COUNTYNAME":"新北市","TOWNNAME":"鶯歌區","MARKTYPE":"991","Class":"1"}},{"type":"Feature","id":5876,"geometry":{"type":"Point","coordinates":[121.35356778954866,24.95709889381418]},"properties":{"OBJECTID":5876,"LANDMARKID":"1000100000203","LANDMARKCO":"107","LANDMARKNA":"新北市政府警察局鶯歌分駐所","LANDMARKAD":"1000108","ADDRESS":"新北市鶯歌區西鶯里中正一路195號","TEL":"02-26792024","COUNTYNAME":"新北市","TOWNNAME":"鶯歌區","MARKTYPE":"991","Class":"1"}},{"type":"Feature","id":5877,"geometry":{"type":"Point","coordinates":[121.35403819951911,24.956115247462723]},"properties":{"OBJECTID":5877,"LANDMARKID":"1000100000170","LANDMARKCO":"106","LANDMARKNA":"新北市鶯歌區戶政事務所","LANDMARKAD":"1000108","ADDRESS":"新北市鶯歌區仁愛路53號","TEL":"02-26797784","COUNTYNAME":"新北市","TOWNNAME":"鶯歌區","MARKTYPE":"991","Class":"1"}},{"type":"Feature","id":5878,"geometry":{"type":"Point","coordinates":[121.35348995111393,24.957097040869094]},"properties":{"OBJECTID":5878,"LANDMARKID":"1000100000194","LANDMARKCO":"107","LANDMARKNA":"新北市消防局鶯歌分隊","LANDMARKAD":"1000108","ADDRESS":"新北市鶯歌區中正一路193號","TEL":"02-26792082","COUNTYNAME":"新北市","TOWNNAME":"鶯歌區","MARKTYPE":"991","Class":"1"}},{"type":"Feature","id":5879,"geometry":{"type":"Point","coordinates":[121.35259360260601,24.950574434412768]},"properties":{"OBJECTID":5879,"LANDMARKID":"1000100000055","LANDMARKCO":"103","LANDMARKNA":"新北市鶯歌區衛生所","LANDMARKAD":"1000108","ADDRESS":"新北市鶯歌區文化路389號","TEL":"02-26702304","COUNTYNAME":"新北市","TOWNNAME":"鶯歌區","MARKTYPE":"991","Class":"1"}},{"type":"Feature","id":5880,"geometry":{"type":"Point","coordinates":[121.3457465468648,24.973344954713635]},"properties":{"OBJECTID":5880,"LANDMARKID":"1000100000195","LANDMARKCO":"107","LANDMARKNA":"新北市政府警察局湖山派出所","LANDMARKAD":"1000108","ADDRESS":"新北市鶯歌區大湖路370號","TEL":"02-26792474","COUNTYNAME":"新北市","TOWNNAME":"鶯歌區","MARKTYPE":"991","Class":"1"}},{"type":"Feature","id":5881,"geometry":{"type":"Point","coordinates":[121.332756051516,24.966330590923405]},"properties":{"OBJECTID":5881,"LANDMARKID":"1000100000196","LANDMARKCO":"107","LANDMARKNA":"新北市政府警察局鳳鳴派出所","LANDMARKAD":"1000108","ADDRESS":"新北市鶯歌區莒光街20號","TEL":"02-26789110","COUNTYNAME":"新北市","TOWNNAME":"鶯歌區","MARKTYPE":"991","Class":"1"}},{"type":"Feature","id":5882,"geometry":{"type":"Point","coordinates":[121.34615684488989,24.956911512408556]},"properties":{"OBJECTID":5882,"LANDMARKID":"1000100000056","LANDMARKCO":"103","LANDMARKNA":"新北市鶯歌區鎮民代表會","LANDMARKAD":"1000108","ADDRESS":"新北市鶯歌區中山路150號1樓","TEL":"02-26791767","COUNTYNAME":"新北市","TOWNNAME":"鶯歌區","MARKTYPE":"991","Class":"1"}},{"type":"Feature","id":5883,"geometry":{"type":"Point","coordinates":[121.34956996516684,24.957644189944972]},"properties":{"OBJECTID":5883,"LANDMARKID":"1000100000880","LANDMARKCO":"204","LANDMARKNA":"新北市立圖書館鶯歌分館","LANDMARKAD":"1000108","ADDRESS":"新北市鶯歌區中山路150號3樓","TEL":" ","COUNTYNAME":"新北市","TOWNNAME":"鶯歌區","MARKTYPE":"992","Class":"2"}},{"type":"Feature","id":5884,"geometry":{"type":"Point","coordinates":[121.33486143500649,24.940235438575314]},"properties":{"OBJECTID":5884,"LANDMARKID":"1000100000505","LANDMARKCO":"202","LANDMARKNA":"縣立鶯歌工商","LANDMARKAD":"1000108","ADDRESS":"新北市鶯歌區中正三路154號","TEL":"02-26775040","COUNTYNAME":"新北市","TOWNNAME":"鶯歌區","MARKTYPE":"992","Class":"2"}},{"type":"Feature","id":5885,"geometry":{"type":"Point","coordinates":[121.33203480577011,24.968049185917646]},"properties":{"OBJECTID":5885,"LANDMARKID":"1000100000561","LANDMARKCO":"203","LANDMARKNA":"縣立鳳鳴國中","LANDMARKAD":"1000108","ADDRESS":"新北市鶯歌區永和街33號","TEL":"02-26780047","COUNTYNAME":"新北市","TOWNNAME":"鶯歌區","MARKTYPE":"992","Class":"2"}},{"type":"Feature","id":5886,"geometry":{"type":"Point","coordinates":[121.34443727901052,24.951225237685925]},"properties":{"OBJECTID":5886,"LANDMARKID":"1000100000562","LANDMARKCO":"203","LANDMARKNA":"縣立鶯歌國中","LANDMARKAD":"1000108","ADDRESS":"新北市鶯歌區尖山埔路108號","TEL":"02-26706091","COUNTYNAME":"新北市","TOWNNAME":"鶯歌區","MARKTYPE":"992","Class":"2"}},{"type":"Feature","id":5887,"geometry":{"type":"Point","coordinates":[121.34230050307831,24.945276379896836]},"properties":{"OBJECTID":5887,"LANDMARKID":"1000100000563","LANDMARKCO":"203","LANDMARKNA":"縣立尖山國中","LANDMARKAD":"1000108","ADDRESS":"新北市鶯歌區國中街1號","TEL":"02-26781670","COUNTYNAME":"新北市","TOWNNAME":"鶯歌區","MARKTYPE":"992","Class":"2"}},{"type":"Feature","id":5888,"geometry":{"type":"Point","coordinates":[121.33730272839468,24.941223792072755]},"properties":{"OBJECTID":5888,"LANDMARKID":"1000100000564","LANDMARKCO":"203","LANDMARKNA":"縣立二橋國小","LANDMARKAD":"1000108","ADDRESS":"新北市鶯歌區二橋里中正三路106號","TEL":"02-26792364","COUNTYNAME":"新北市","TOWNNAME":"鶯歌區","MARKTYPE":"992","Class":"2"}},{"type":"Feature","id":5889,"geometry":{"type":"Point","coordinates":[121.34909582113868,24.973606626644013]},"properties":{"OBJECTID":5889,"LANDMARKID":"1000100000565","LANDMARKCO":"203","LANDMARKNA":"縣立中湖國小","LANDMARKAD":"1000108","ADDRESS":"新北市鶯歌區中湖里中湖街25號","TEL":"02-26792084","COUNTYNAME":"新北市","TOWNNAME":"鶯歌區","MARKTYPE":"992","Class":"2"}},{"type":"Feature","id":5890,"geometry":{"type":"Point","coordinates":[121.33596921654852,24.968489146749555]},"properties":{"OBJECTID":5890,"LANDMARKID":"1000100000566","LANDMARKCO":"203","LANDMARKNA":"縣立鳳鳴國小","LANDMARKAD":"1000108","ADDRESS":"新北市鶯歌區鳳鳴里永和街120號","TEL":"02-26797554","COUNTYNAME":"新北市","TOWNNAME":"鶯歌區","MARKTYPE":"992","Class":"2"}},{"type":"Feature","id":5891,"geometry":{"type":"Point","coordinates":[121.34623222087356,24.951674732661846]},"properties":{"OBJECTID":5891,"LANDMARKID":"1000100000567","LANDMARKCO":"203","LANDMARKNA":"縣立鶯歌國小","LANDMARKAD":"1000108","ADDRESS":"新北市鶯歌區同慶里尖山埔路101號","TEL":"02-26793843","COUNTYNAME":"新北市","TOWNNAME":"鶯歌區","MARKTYPE":"992","Class":"2"}},{"type":"Feature","id":5892,"geometry":{"type":"Point","coordinates":[121.34616391159074,24.955015536007391]},"properties":{"OBJECTID":5892,"LANDMARKID":"1000100000568","LANDMARKCO":"203","LANDMARKNA":"縣立建國國小","LANDMARKAD":"1000108","ADDRESS":"新北市鶯歌區育英街2號","TEL":"02-26709228","COUNTYNAME":"新北市","TOWNNAME":"鶯歌區","MARKTYPE":"992","Class":"2"}},{"type":"Feature","id":5893,"geometry":{"type":"Point","coordinates":[121.33254301593394,24.958928302536396]},"properties":{"OBJECTID":5893,"LANDMARKID":"1000100000569","LANDMARKCO":"203","LANDMARKNA":"縣立永吉國小","LANDMARKAD":"1000108","ADDRESS":"新北市鶯歌區德昌二街2號","TEL":"02-26704177","COUNTYNAME":"新北市","TOWNNAME":"鶯歌區","MARKTYPE":"992","Class":"2"}},{"type":"Feature","id":5894,"geometry":{"type":"Point","coordinates":[121.3480251128005,24.9734310726549]},"properties":{"OBJECTID":5894,"LANDMARKID":"1000100000570","LANDMARKCO":"203","LANDMARKNA":"縣立中湖國中","LANDMARKAD":"1000108","ADDRESS":"新北市鶯歌區","TEL":" ","COUNTYNAME":"新北市","TOWNNAME":"鶯歌區","MARKTYPE":"992","Class":"2"}},{"type":"Feature","id":5895,"geometry":{"type":"Point","coordinates":[121.34569092975306,24.947343634590776]},"properties":{"OBJECTID":5895,"LANDMARKID":"1000100000571","LANDMARKCO":"203","LANDMARKNA":"縣立尖山國小","LANDMARKAD":"1000108","ADDRESS":"新北市鶯歌區","TEL":" ","COUNTYNAME":"新北市","TOWNNAME":"鶯歌區","MARKTYPE":"992","Class":"2"}},{"type":"Feature","id":5896,"geometry":{"type":"Point","coordinates":[121.32955864628754,24.939352710120826]},"properties":{"OBJECTID":5896,"LANDMARKID":"1000100001535","LANDMARKCO":"308","LANDMARKNA":"國2-鶯歌系統交流道-北上","LANDMARKAD":"1000108","ADDRESS":"新北市鶯歌區","TEL":" ","COUNTYNAME":"新北市","TOWNNAME":"鶯歌區","MARKTYPE":"993","Class":"308"}},{"type":"Feature","id":5897,"geometry":{"type":"Point","coordinates":[121.32437380382484,24.94253349879407]},"properties":{"OBJECTID":5897,"LANDMARKID":"1000100001536","LANDMARKCO":"308","LANDMARKNA":"國2-鶯歌系統交流道-北上","LANDMARKAD":"1000108","ADDRESS":"新北市鶯歌區","TEL":" ","COUNTYNAME":"新北市","TOWNNAME":"鶯歌區","MARKTYPE":"993","Class":"308"}},{"type":"Feature","id":5898,"geometry":{"type":"Point","coordinates":[121.32074899740191,24.938005916182625]},"properties":{"OBJECTID":5898,"LANDMARKID":"1000100001537","LANDMARKCO":"308","LANDMARKNA":"國2-鶯歌系統交流道-南下","LANDMARKAD":"1000108","ADDRESS":"新北市鶯歌區","TEL":" ","COUNTYNAME":"新北市","TOWNNAME":"鶯歌區","MARKTYPE":"993","Class":"308"}},{"type":"Feature","id":5899,"geometry":{"type":"Point","coordinates":[121.35483117440035,24.95533430650039]},"properties":{"OBJECTID":5899,"LANDMARKID":"1000100001156","LANDMARKCO":"303","LANDMARKNA":"鶯歌火車站站前停車場","LANDMARKAD":"1000108","ADDRESS":" ","TEL":" ","COUNTYNAME":"新北市","TOWNNAME":"鶯歌區","MARKTYPE":"993","Class":"303"}},{"type":"Feature","id":5900,"geometry":{"type":"Point","coordinates":[121.35014519673364,24.952660334932958]},"properties":{"OBJECTID":5900,"LANDMARKID":"1000100001157","LANDMARKCO":"303","LANDMARKNA":"停一停車場","LANDMARKAD":"1000108","ADDRESS":"新北市鶯歌區建國路","TEL":" ","COUNTYNAME":"新北市","TOWNNAME":"鶯歌區","MARKTYPE":"993","Class":"303"}},{"type":"Feature","id":5901,"geometry":{"type":"Point","coordinates":[121.33507510644816,24.977378358075956]},"properties":{"OBJECTID":5901,"LANDMARKID":"1000100001158","LANDMARKCO":"303","LANDMARKNA":"尖山埔路停車場","LANDMARKAD":"1000108","ADDRESS":"新北市鶯歌區尖山埔路","TEL":" ","COUNTYNAME":"新北市","TOWNNAME":"鶯歌區","MARKTYPE":"993","Class":"303"}},{"type":"Feature","id":5902,"geometry":{"type":"Point","coordinates":[121.33640030330153,24.974023301718987]},"properties":{"OBJECTID":5902,"LANDMARKID":"1000100001159","LANDMARKCO":"303","LANDMARKNA":"碧龍宮停車場","LANDMARKAD":"1000108","ADDRESS":"新北市鶯歌區碧龍宮路","TEL":" ","COUNTYNAME":"新北市","TOWNNAME":"鶯歌區","MARKTYPE":"993","Class":"303"}},{"type":"Feature","id":5903,"geometry":{"type":"Point","coordinates":[121.35551630747749,24.954487564804925]},"properties":{"OBJECTID":5903,"LANDMARKID":"1000100000927","LANDMARKCO":"301","LANDMARKNA":"鶯歌火車站","LANDMARKAD":"1000108","ADDRESS":"新北市鶯歌區東鶯里文化路68號","TEL":"02-26792004","COUNTYNAME":"新北市","TOWNNAME":"鶯歌區","MARKTYPE":"993","Class":"301"}},{"type":"Feature","id":5904,"geometry":{"type":"Point","coordinates":[121.35298308606866,24.95248559148726]},"properties":{"OBJECTID":5904,"LANDMARKID":"1000100002786","LANDMARKCO":"603","LANDMARKNA":"玉山旅店","LANDMARKAD":"1000108","ADDRESS":"新北市鶯歌區文化路228號","TEL":"02-86776060","COUNTYNAME":"新北市","TOWNNAME":"鶯歌區","MARKTYPE":"996","Class":"6"}},{"type":"Feature","id":5905,"geometry":{"type":"Point","coordinates":[121.33281970794148,24.962862035410744]},"properties":{"OBJECTID":5905,"LANDMARKID":"1000100002787","LANDMARKCO":"603","LANDMARKNA":"北國之春溫泉汽車旅館","LANDMARKAD":"1000108","ADDRESS":"新北市鶯歌區鶯桃路362之1號","TEL":"02-26780899","COUNTYNAME":"新北市","TOWNNAME":"鶯歌區","MARKTYPE":"996","Class":"6"}},{"type":"Feature","id":5906,"geometry":{"type":"Point","coordinates":[121.34894606579005,24.950909060050705]},"properties":{"OBJECTID":5906,"LANDMARKID":"1000100002576","LANDMARKCO":"505","LANDMARKNA":"吉洲窯","LANDMARKAD":"1000108","ADDRESS":"新北市鶯歌區尖山埔路37號","TEL":"02-26782591","COUNTYNAME":"新北市","TOWNNAME":"鶯歌區","MARKTYPE":"995","Class":"5"}},{"type":"Feature","id":5907,"geometry":{"type":"Point","coordinates":[121.35452893073574,24.954652777299085]},"properties":{"OBJECTID":5907,"LANDMARKID":"1000100002714","LANDMARKCO":"511","LANDMARKNA":"鶯歌觀光陶市","LANDMARKAD":"1000108","ADDRESS":"新北市鶯歌區","TEL":" ","COUNTYNAME":"新北市","TOWNNAME":"鶯歌區","MARKTYPE":"995","Class":"5"}},{"type":"Feature","id":5908,"geometry":{"type":"Point","coordinates":[121.64260172281605,25.009241001311999]},"properties":{"OBJECTID":5908,"LANDMARKID":"1000100002001","LANDMARKCO":"405","LANDMARKNA":"中油加油站-泰和站","LANDMARKAD":"1000119","ADDRESS":"新北市石碇區豐林村楓子林66號","TEL":"02-26633669","COUNTYNAME":"新北市","TOWNNAME":"石碇區","MARKTYPE":"994","Class":"4"}},{"type":"Feature","id":5909,"geometry":{"type":"Point","coordinates":[121.62340520223353,24.942308452111583]},"properties":{"OBJECTID":5909,"LANDMARKID":"1000100002582","LANDMARKCO":"506","LANDMARKNA":"雲海茶園","LANDMARKAD":"1000119","ADDRESS":"新北市石碇區格頭村土巷1之1號","TEL":"02-26651612","COUNTYNAME":"新北市","TOWNNAME":"石碇區","MARKTYPE":"995","Class":"5"}},{"type":"Feature","id":5910,"geometry":{"type":"Point","coordinates":[121.65770205160726,24.991341605902107]},"properties":{"OBJECTID":5910,"LANDMARKID":"1000100002324","LANDMARKCO":"408","LANDMARKNA":"郵局-石碇郵局","LANDMARKAD":"1000119","ADDRESS":"新北市石碇區石崁22號","TEL":"(02)2663-1833","COUNTYNAME":"新北市","TOWNNAME":"石碇區","MARKTYPE":"994","Class":"4"}},{"type":"Feature","id":5911,"geometry":{"type":"Point","coordinates":[121.69218646011859,24.978574662462403]},"properties":{"OBJECTID":5911,"LANDMARKID":"1000100002325","LANDMARKCO":"408","LANDMARKNA":"郵局-石碇華梵大學郵局","LANDMARKAD":"1000119","ADDRESS":"新北市石碇區豐田村華梵路1號","TEL":"(02)2663-2697","COUNTYNAME":"新北市","TOWNNAME":"石碇區","MARKTYPE":"994","Class":"4"}},{"type":"Feature","id":5936,"geometry":{"type":"Point","coordinates":[121.6485839992807,25.007124936643699]},"properties":{"OBJECTID":5936,"LANDMARKID":"1000100001540","LANDMARKCO":"308","LANDMARKNA":"國5-石碇交流道-南下","LANDMARKAD":"1000119","ADDRESS":"新北市石碇區","TEL":" ","COUNTYNAME":"新北市","TOWNNAME":"石碇區","MARKTYPE":"993","Class":"308"}},{"type":"Feature","id":5937,"geometry":{"type":"Point","coordinates":[121.67881017751888,24.986363747750882]},"properties":{"OBJECTID":5937,"LANDMARKID":"1000100001160","LANDMARKCO":"303","LANDMARKNA":"皇帝殿風景區登山口停車場","LANDMARKAD":"1000119","ADDRESS":"新北市石碇區","TEL":" ","COUNTYNAME":"新北市","TOWNNAME":"石碇區","MARKTYPE":"993","Class":"303"}},{"type":"Feature","id":5938,"geometry":{"type":"Point","coordinates":[121.6138326259769,24.960738124799523]},"properties":{"OBJECTID":5938,"LANDMARKID":"1000100001161","LANDMARKCO":"303","LANDMARKNA":"楠枋寮停車場","LANDMARKAD":"1000119","ADDRESS":"新北市石碇區","TEL":" ","COUNTYNAME":"新北市","TOWNNAME":"石碇區","MARKTYPE":"993","Class":"303"}},{"type":"Feature","id":5939,"geometry":{"type":"Point","coordinates":[121.61985203638676,24.959204052756462]},"properties":{"OBJECTID":5939,"LANDMARKID":"1000100001162","LANDMARKCO":"303","LANDMARKNA":"二格公園停車場","LANDMARKAD":"1000119","ADDRESS":"新北市石碇區","TEL":" ","COUNTYNAME":"新北市","TOWNNAME":"石碇區","MARKTYPE":"993","Class":"303"}},{"type":"Feature","id":5940,"geometry":{"type":"Point","coordinates":[121.65914006850738,24.985244109346574]},"properties":{"OBJECTID":5940,"LANDMARKID":"1000100002529","LANDMARKCO":"503","LANDMARKNA":"流螢谷","LANDMARKAD":"1000119","ADDRESS":"新北市石碇區","TEL":" ","COUNTYNAME":"新北市","TOWNNAME":"石碇區","MARKTYPE":"995","Class":"5"}},{"type":"Feature","id":5941,"geometry":{"type":"Point","coordinates":[121.5188231958107,24.974594169522057]},"properties":{"OBJECTID":5941,"LANDMARKID":"1000100002014","LANDMARKCO":"405","LANDMARKNA":"中油加油站-安坑站","LANDMARKAD":"1000106","ADDRESS":"新北市新店區安和路二段192號","TEL":"02-22114678","COUNTYNAME":"新北市","TOWNNAME":"新店區","MARKTYPE":"994","Class":"4"}},{"type":"Feature","id":5942,"geometry":{"type":"Point","coordinates":[121.53711133074113,24.967270435225622]},"properties":{"OBJECTID":5942,"LANDMARKID":"1000100002015","LANDMARKCO":"405","LANDMARKNA":"統一速邁樂加油站-新店加油站(中油)","LANDMARKAD":"1000106","ADDRESS":"新北市新店區中華里環河路116號","TEL":"02-86653965","COUNTYNAME":"新北市","TOWNNAME":"新店區","MARKTYPE":"994","Class":"4"}},{"type":"Feature","id":5943,"geometry":{"type":"Point","coordinates":[121.53422977657362,24.979583255637344]},"properties":{"OBJECTID":5943,"LANDMARKID":"1000100002016","LANDMARKCO":"405","LANDMARKNA":"中油加油站-新店中正路站(中油直營)","LANDMARKAD":"1000106","ADDRESS":"新北市新店區中正路470號","TEL":"02-22192678","COUNTYNAME":"新北市","TOWNNAME":"新店區","MARKTYPE":"994","Class":"4"}},{"type":"Feature","id":5944,"geometry":{"type":"Point","coordinates":[121.5172825877811,24.981413344971607]},"properties":{"OBJECTID":5944,"LANDMARKID":"1000100002017","LANDMARKCO":"405","LANDMARKNA":"中油加油站-欣欣站","LANDMARKAD":"1000106","ADDRESS":"新北市新店區永安里安和路3段35號","TEL":"02-86685314","COUNTYNAME":"新北市","TOWNNAME":"新店區","MARKTYPE":"994","Class":"4"}},{"type":"Feature","id":5945,"geometry":{"type":"Point","coordinates":[121.53120187487463,24.961066666151112]},"properties":{"OBJECTID":5945,"LANDMARKID":"1000100002018","LANDMARKCO":"405","LANDMARKNA":"中油加油站-碧安站","LANDMARKAD":"1000106","ADDRESS":"新北市新店區安康路一段20號","TEL":"02-22126979","COUNTYNAME":"新北市","TOWNNAME":"新店區","MARKTYPE":"994","Class":"4"}},{"type":"Feature","id":5946,"geometry":{"type":"Point","coordinates":[121.50413081320103,24.957688425243063]},"properties":{"OBJECTID":5946,"LANDMARKID":"1000100002019","LANDMARKCO":"405","LANDMARKNA":"中油加油站-車子路站","LANDMARKAD":"1000106","ADDRESS":"新北市新店區安康路二段269號","TEL":"02-22121171","COUNTYNAME":"新北市","TOWNNAME":"新店區","MARKTYPE":"994","Class":"4"}},{"type":"Feature","id":5947,"geometry":{"type":"Point","coordinates":[121.50193558422575,24.957444271740407]},"properties":{"OBJECTID":5947,"LANDMARKID":"1000100002020","LANDMARKCO":"405","LANDMARKNA":"中油加油站-德安站","LANDMARKAD":"1000106","ADDRESS":"新北市新店區安康路二段362號","TEL":"02-22115288","COUNTYNAME":"新北市","TOWNNAME":"新店區","MARKTYPE":"994","Class":"4"}},{"type":"Feature","id":5948,"geometry":{"type":"Point","coordinates":[121.47104660365201,24.940146480606327]},"properties":{"OBJECTID":5948,"LANDMARKID":"1000100002021","LANDMARKCO":"405","LANDMARKNA":"中油加油站-五城站","LANDMARKAD":"1000106","ADDRESS":"新北市新店區安康路三段800號","TEL":"02-22143761","COUNTYNAME":"新北市","TOWNNAME":"新店區","MARKTYPE":"994","Class":"4"}},{"type":"Feature","id":5949,"geometry":{"type":"Point","coordinates":[121.54745781959321,24.916154079925423]},"properties":{"OBJECTID":5949,"LANDMARKID":"1000100002022","LANDMARKCO":"405","LANDMARKNA":"中油加油站-屈尺站(中油直營)","LANDMARKAD":"1000106","ADDRESS":"新北市新店區新烏路2段202號","TEL":"02-26668137","COUNTYNAME":"新北市","TOWNNAME":"新店區","MARKTYPE":"994","Class":"4"}},{"type":"Feature","id":5950,"geometry":{"type":"Point","coordinates":[121.54912555812618,24.977510810448045]},"properties":{"OBJECTID":5950,"LANDMARKID":"1000100002023","LANDMARKCO":"405","LANDMARKNA":"中油加油站-寶橋站(中油直營)","LANDMARKAD":"1000106","ADDRESS":"新北市新店區寶橋路219號","TEL":"02-29111965","COUNTYNAME":"新北市","TOWNNAME":"新店區","MARKTYPE":"994","Class":"4"}},{"type":"Feature","id":5951,"geometry":{"type":"Point","coordinates":[121.54209803088196,24.968392152123322]},"properties":{"OBJECTID":5951,"LANDMARKID":"1000100002024","LANDMARKCO":"405","LANDMARKNA":"中油加油站-新店北新路站(刷卡自助)(中油直營)","LANDMARKAD":"1000106","ADDRESS":"新北市新店區北新路一段90號","TEL":"02-29180305","COUNTYNAME":"新北市","TOWNNAME":"新店區","MARKTYPE":"994","Class":"4"}},{"type":"Feature","id":5952,"geometry":{"type":"Point","coordinates":[121.51737164912313,24.964375645605106]},"properties":{"OBJECTID":5952,"LANDMARKID":"1000100002025","LANDMARKCO":"405","LANDMARKNA":"台灣優力加油站-安康站(中油)","LANDMARKAD":"1000106","ADDRESS":"新北市新店區安康路一段308號","TEL":"02-86665693","COUNTYNAME":"新北市","TOWNNAME":"新店區","MARKTYPE":"994","Class":"4"}},{"type":"Feature","id":5953,"geometry":{"type":"Point","coordinates":[121.53374819217416,24.980445592895904]},"properties":{"OBJECTID":5953,"LANDMARKID":"1000100002026","LANDMARKCO":"405","LANDMARKNA":"中油加油站-莊敬站","LANDMARKAD":"1000106","ADDRESS":"新北市新店區中正路457號","TEL":"02-22181270","COUNTYNAME":"新北市","TOWNNAME":"新店區","MARKTYPE":"994","Class":"4"}},{"type":"Feature","id":5935,"geometry":{"type":"Point","coordinates":[121.64688305728612,25.009664577595228]},"properties":{"OBJECTID":5935,"LANDMARKID":"1000100001539","LANDMARKCO":"308","LANDMARKNA":"國5-石碇交流道-北上","LANDMARKAD":"1000119","ADDRESS":"新北市石碇區","TEL":" ","COUNTYNAME":"新北市","TOWNNAME":"石碇區","MARKTYPE":"993","Class":"308"}},{"type":"Feature","id":5934,"geometry":{"type":"Point","coordinates":[121.64533711488275,25.008695535059324]},"properties":{"OBJECTID":5934,"LANDMARKID":"1000100001538","LANDMARKCO":"308","LANDMARKNA":"石碇服務區","LANDMARKAD":"1000119","ADDRESS":" ","TEL":" ","COUNTYNAME":"新北市","TOWNNAME":"石碇區","MARKTYPE":"993","Class":"308"}},{"type":"Feature","id":5933,"geometry":{"type":"Point","coordinates":[121.68824736142801,25.007899562015385]},"properties":{"OBJECTID":5933,"LANDMARKID":"1000100000579","LANDMARKCO":"203","LANDMARKNA":"縣立永定國小","LANDMARKAD":"1000119","ADDRESS":"新北市石碇區永定村蚯蚓坑20號","TEL":"02-26631288","COUNTYNAME":"新北市","TOWNNAME":"石碇區","MARKTYPE":"992","Class":"2"}},{"type":"Feature","id":5932,"geometry":{"type":"Point","coordinates":[121.66068072885886,24.934265027453957]},"properties":{"OBJECTID":5932,"LANDMARKID":"1000100000578","LANDMARKCO":"203","LANDMARKNA":"縣立永安國小","LANDMARKAD":"1000119","ADDRESS":"新北市石碇區永安村直潭路1號","TEL":"02-26651811","COUNTYNAME":"新北市","TOWNNAME":"石碇區","MARKTYPE":"992","Class":"2"}},{"type":"Feature","id":5931,"geometry":{"type":"Point","coordinates":[121.63688410144451,24.953244391058597]},"properties":{"OBJECTID":5931,"LANDMARKID":"1000100000577","LANDMARKCO":"203","LANDMARKNA":"縣立雲海國小","LANDMARKAD":"1000119","ADDRESS":"新北市石碇區格頭村坑內1號","TEL":"02-26651754","COUNTYNAME":"新北市","TOWNNAME":"石碇區","MARKTYPE":"992","Class":"2"}},{"type":"Feature","id":5930,"geometry":{"type":"Point","coordinates":[121.65899573135972,24.990705219756414]},"properties":{"OBJECTID":5930,"LANDMARKID":"1000100000576","LANDMARKCO":"203","LANDMARKNA":"縣立石碇國小","LANDMARKAD":"1000119","ADDRESS":"新北市石碇區石碇村石碇西街15號","TEL":"02-26631244","COUNTYNAME":"新北市","TOWNNAME":"石碇區","MARKTYPE":"992","Class":"2"}},{"type":"Feature","id":5929,"geometry":{"type":"Point","coordinates":[121.64157326584468,25.011537136320801]},"properties":{"OBJECTID":5929,"LANDMARKID":"1000100000575","LANDMARKCO":"203","LANDMARKNA":"縣立和平國小","LANDMARKAD":"1000119","ADDRESS":"新北市石碇區隆盛村八分寮5號","TEL":"02-26631405","COUNTYNAME":"新北市","TOWNNAME":"石碇區","MARKTYPE":"992","Class":"2"}},{"type":"Feature","id":5928,"geometry":{"type":"Point","coordinates":[121.6734448920498,25.017902394715104]},"properties":{"OBJECTID":5928,"LANDMARKID":"1000100000574","LANDMARKCO":"203","LANDMARKNA":"縣立永定國小光明分校","LANDMARKAD":"1000119","ADDRESS":"新北市石碇區","TEL":" ","COUNTYNAME":"新北市","TOWNNAME":"石碇區","MARKTYPE":"992","Class":"2"}},{"type":"Feature","id":5927,"geometry":{"type":"Point","coordinates":[121.64301162103486,25.013613157054817]},"properties":{"OBJECTID":5927,"LANDMARKID":"1000100000504","LANDMARKCO":"202","LANDMARKNA":"縣立石碇高中","LANDMARKAD":"1000119","ADDRESS":"新北市石碇區八分寮45號","TEL":"02-26631224","COUNTYNAME":"新北市","TOWNNAME":"石碇區","MARKTYPE":"992","Class":"2"}},{"type":"Feature","id":5926,"geometry":{"type":"Point","coordinates":[121.69184985014722,24.978641222537316]},"properties":{"OBJECTID":5926,"LANDMARKID":"1000100000435","LANDMARKCO":"201","LANDMARKNA":"華梵大學","LANDMARKAD":"1000119","ADDRESS":"新北市石碇區華梵路1號","TEL":"02-26632102","COUNTYNAME":"新北市","TOWNNAME":"石碇區","MARKTYPE":"992","Class":"2"}},{"type":"Feature","id":5925,"geometry":{"type":"Point","coordinates":[121.6602774003118,24.991504843316925]},"properties":{"OBJECTID":5925,"LANDMARKID":"1000100000879","LANDMARKCO":"204","LANDMARKNA":"新北市立圖書館石碇分館","LANDMARKAD":"1000119","ADDRESS":"新北市石碇區潭邊村湳窟11號2樓","TEL":" ","COUNTYNAME":"新北市","TOWNNAME":"石碇區","MARKTYPE":"992","Class":"2"}},{"type":"Feature","id":5924,"geometry":{"type":"Point","coordinates":[121.6915242992343,24.980480373733108]},"properties":{"OBJECTID":5924,"LANDMARKID":"1000100000895","LANDMARKCO":"205","LANDMARKNA":"華梵大學華梵文物館","LANDMARKAD":"1000119","ADDRESS":"新北市石碇區豐田村華梵路1號","TEL":" ","COUNTYNAME":"新北市","TOWNNAME":"石碇區","MARKTYPE":"992","Class":"2"}},{"type":"Feature","id":5923,"geometry":{"type":"Point","coordinates":[121.66094994133455,24.990958730857741]},"properties":{"OBJECTID":5923,"LANDMARKID":"1000100000197","LANDMARKCO":"107","LANDMARKNA":"新北市政府警察局石碇分駐所","LANDMARKAD":"1000119","ADDRESS":"新北市石碇區潭邊村湳窟20號","TEL":"0226631240","COUNTYNAME":"新北市","TOWNNAME":"石碇區","MARKTYPE":"991","Class":"1"}},{"type":"Feature","id":5922,"geometry":{"type":"Point","coordinates":[121.66094994133455,24.990958730857741]},"properties":{"OBJECTID":5922,"LANDMARKID":"1000100000169","LANDMARKCO":"106","LANDMARKNA":"新北市石碇區戶政事務所","LANDMARKAD":"1000119","ADDRESS":"新北市石碇區潭邊村6鄰湳窟20號2樓","TEL":"02-26631337","COUNTYNAME":"新北市","TOWNNAME":"石碇區","MARKTYPE":"991","Class":"1"}},{"type":"Feature","id":5921,"geometry":{"type":"Point","coordinates":[121.69127979586456,24.971320997014047]},"properties":{"OBJECTID":5921,"LANDMARKID":"1000100000202","LANDMARKCO":"107","LANDMARKNA":"新北市政府警察局豐田派出所","LANDMARKAD":"1000119","ADDRESS":"新北市石碇區豊田村磨石坑8號","TEL":"02-26631975","COUNTYNAME":"新北市","TOWNNAME":"石碇區","MARKTYPE":"991","Class":"1"}},{"type":"Feature","id":5920,"geometry":{"type":"Point","coordinates":[121.69902169762356,25.009746578450141]},"properties":{"OBJECTID":5920,"LANDMARKID":"1000100000201","LANDMARKCO":"107","LANDMARKNA":"新北市政府警察局中民派出所","LANDMARKAD":"1000119","ADDRESS":"新北市石碇區中民村石碇仔埔1號","TEL":"02-26631254","COUNTYNAME":"新北市","TOWNNAME":"石碇區","MARKTYPE":"991","Class":"1"}},{"type":"Feature","id":5919,"geometry":{"type":"Point","coordinates":[121.64214885955649,25.011634409540232]},"properties":{"OBJECTID":5919,"LANDMARKID":"1000100000200","LANDMARKCO":"107","LANDMARKNA":"新北市政府警察局楓子林派出所","LANDMARKAD":"1000119","ADDRESS":"新北市石碇區隆盛村楓子林32號","TEL":"02-26631285","COUNTYNAME":"新北市","TOWNNAME":"石碇區","MARKTYPE":"991","Class":"1"}},{"type":"Feature","id":5918,"geometry":{"type":"Point","coordinates":[121.65820103988439,24.991422247677914]},"properties":{"OBJECTID":5918,"LANDMARKID":"1000100000058","LANDMARKCO":"103","LANDMARKNA":"新北市石碇區鄉民代表會","LANDMARKAD":"1000119","ADDRESS":"新北市石碇區潭邊村石崁25號4樓","TEL":"02-26631080轉27","COUNTYNAME":"新北市","TOWNNAME":"石碇區","MARKTYPE":"991","Class":"1"}},{"type":"Feature","id":5917,"geometry":{"type":"Point","coordinates":[121.65796198396593,24.99268824788771]},"properties":{"OBJECTID":5917,"LANDMARKID":"1000100000057","LANDMARKCO":"103","LANDMARKNA":"新北市石碇區衛生所","LANDMARKAD":"1000119","ADDRESS":"新北市石碇區潭邊村石崁27號","TEL":"02-26631325","COUNTYNAME":"新北市","TOWNNAME":"石碇區","MARKTYPE":"991","Class":"1"}},{"type":"Feature","id":5916,"geometry":{"type":"Point","coordinates":[121.63166130678452,24.951459651925479]},"properties":{"OBJECTID":5916,"LANDMARKID":"1000100000199","LANDMARKCO":"107","LANDMARKNA":"新北市政府警察局碧山派出所","LANDMARKAD":"1000119","ADDRESS":"新北市石碇區格頭村北宜路五段42號","TEL":"02-26651835","COUNTYNAME":"新北市","TOWNNAME":"石碇區","MARKTYPE":"991","Class":"1"}},{"type":"Feature","id":5915,"geometry":{"type":"Point","coordinates":[121.65992258880442,24.991690041572522]},"properties":{"OBJECTID":5915,"LANDMARKID":"1000100000198","LANDMARKCO":"107","LANDMARKNA":"新北市消防局石碇分隊","LANDMARKAD":"1000119","ADDRESS":"新北市石碇區湳窟路9之1號","TEL":"02-26632234","COUNTYNAME":"新北市","TOWNNAME":"石碇區","MARKTYPE":"991","Class":"1"}},{"type":"Feature","id":5914,"geometry":{"type":"Point","coordinates":[121.65881523269117,24.991429075730412]},"properties":{"OBJECTID":5914,"LANDMARKID":"1000100000429","LANDMARKCO":"108","LANDMARKNA":"新北市石碇區公所","LANDMARKAD":"1000119","ADDRESS":"新北市石碇區潭邊村石崁路25號","TEL":"02-26631080","COUNTYNAME":"新北市","TOWNNAME":"石碇區","MARKTYPE":"991","Class":"1"}},{"type":"Feature","id":5913,"geometry":{"type":"Point","coordinates":[121.65406358326864,25.007247296298289]},"properties":{"OBJECTID":5913,"LANDMARKID":"1000100001870","LANDMARKCO":"404","LANDMARKNA":"台灣省自來水文山營運所","LANDMARKAD":"1000119","ADDRESS":"新北市石碇區雙溪口80之1號","TEL":" ","COUNTYNAME":"新北市","TOWNNAME":"石碇區","MARKTYPE":"994","Class":"4"}},{"type":"Feature","id":5912,"geometry":{"type":"Point","coordinates":[121.66092674539148,24.990884132568294]},"properties":{"OBJECTID":5912,"LANDMARKID":"1000100002469","LANDMARKCO":"409","LANDMARKNA":"新北市石碇區農會","LANDMARKAD":"1000119","ADDRESS":"新北市石碇區湳窟路6號","TEL":"02-26631214","COUNTYNAME":"新北市","TOWNNAME":"石碇區","MARKTYPE":"994","Class":"4"}},{"type":"Feature","id":5954,"geometry":{"type":"Point","coordinates":[121.54233609053644,24.97841005758962]},"properties":{"OBJECTID":5954,"LANDMARKID":"1000100002027","LANDMARKCO":"405","LANDMARKNA":"中油加油站-大豐站","LANDMARKAD":"1000106","ADDRESS":"新北市新店區北新路二段205號","TEL":"02-29117053","COUNTYNAME":"新北市","TOWNNAME":"新店區","MARKTYPE":"994","Class":"4"}},{"type":"Feature","id":5979,"geometry":{"type":"Point","coordinates":[121.49276357628524,24.952562719073406]},"properties":{"OBJECTID":5979,"LANDMARKID":"1000100002337","LANDMARKCO":"408","LANDMARKNA":"郵局-新店雙城郵局","LANDMARKAD":"1000106","ADDRESS":"新北市新店區安康路3段47號","TEL":"(02)2215-7065","COUNTYNAME":"新北市","TOWNNAME":"新店區","MARKTYPE":"994","Class":"4"}},{"type":"Feature","id":5980,"geometry":{"type":"Point","coordinates":[121.54700048745411,24.922755213998752]},"properties":{"OBJECTID":5980,"LANDMARKID":"1000100002338","LANDMARKCO":"408","LANDMARKNA":"郵局-新店屈尺郵局","LANDMARKAD":"1000106","ADDRESS":"新北市新店區屈尺路64號","TEL":"(02)2666-8950","COUNTYNAME":"新北市","TOWNNAME":"新店區","MARKTYPE":"994","Class":"4"}},{"type":"Feature","id":5981,"geometry":{"type":"Point","coordinates":[121.5336258797138,24.983048074627021]},"properties":{"OBJECTID":5981,"LANDMARKID":"1000100002339","LANDMARKCO":"408","LANDMARKNA":"郵局-新店水尾郵局","LANDMARKAD":"1000106","ADDRESS":"新北市新店區中正路493之5號","TEL":"(02)2218-0146","COUNTYNAME":"新北市","TOWNNAME":"新店區","MARKTYPE":"994","Class":"4"}},{"type":"Feature","id":5982,"geometry":{"type":"Point","coordinates":[121.54501665574917,24.969571835530836]},"properties":{"OBJECTID":5982,"LANDMARKID":"1000100002340","LANDMARKCO":"408","LANDMARKNA":"郵局-新店五峰郵局","LANDMARKAD":"1000106","ADDRESS":"新北市新店區中正路35號","TEL":"(02)2916-0300","COUNTYNAME":"新北市","TOWNNAME":"新店區","MARKTYPE":"994","Class":"4"}},{"type":"Feature","id":5983,"geometry":{"type":"Point","coordinates":[121.53877924320768,24.969821734857955]},"properties":{"OBJECTID":5983,"LANDMARKID":"1000100002341","LANDMARKCO":"408","LANDMARKNA":"郵局-新店中華路郵局","LANDMARKAD":"1000106","ADDRESS":"新北市新店區中華路74號","TEL":"(02)2912-0115","COUNTYNAME":"新北市","TOWNNAME":"新店區","MARKTYPE":"994","Class":"4"}},{"type":"Feature","id":5984,"geometry":{"type":"Point","coordinates":[121.49669193037153,24.946921238125395]},"properties":{"OBJECTID":5984,"LANDMARKID":"1000100002342","LANDMARKCO":"408","LANDMARKNA":"郵局-新店玫瑰城郵局","LANDMARKAD":"1000106","ADDRESS":"新北市新店區如意街112號","TEL":"(02)2214-0502","COUNTYNAME":"新北市","TOWNNAME":"新店區","MARKTYPE":"994","Class":"4"}},{"type":"Feature","id":5985,"geometry":{"type":"Point","coordinates":[121.55128491911364,24.909440334582506]},"properties":{"OBJECTID":5985,"LANDMARKID":"1000100002343","LANDMARKCO":"408","LANDMARKNA":"郵局-新店龜山郵局","LANDMARKAD":"1000106","ADDRESS":"新北市新店區新烏路2段392、394號","TEL":"(02)2666-7584","COUNTYNAME":"新北市","TOWNNAME":"新店區","MARKTYPE":"994","Class":"4"}},{"type":"Feature","id":5986,"geometry":{"type":"Point","coordinates":[121.55760361555903,24.953358425979793]},"properties":{"OBJECTID":5986,"LANDMARKID":"1000100002344","LANDMARKCO":"408","LANDMARKNA":"郵局-新店青潭郵局","LANDMARKAD":"1000106","ADDRESS":"新北市新店區郵政路1號","TEL":"(02)2217-1465","COUNTYNAME":"新北市","TOWNNAME":"新店區","MARKTYPE":"994","Class":"4"}},{"type":"Feature","id":5987,"geometry":{"type":"Point","coordinates":[121.54900935369599,24.979659496757865]},"properties":{"OBJECTID":5987,"LANDMARKID":"1000100002345","LANDMARKCO":"408","LANDMARKNA":"郵局-新店寶橋郵局","LANDMARKAD":"1000106","ADDRESS":"新北市新店區寶中路94-2號1樓","TEL":"(02)2914-4585","COUNTYNAME":"新北市","TOWNNAME":"新店區","MARKTYPE":"994","Class":"4"}},{"type":"Feature","id":5988,"geometry":{"type":"Point","coordinates":[121.53828694234984,24.957152230646404]},"properties":{"OBJECTID":5988,"LANDMARKID":"1000100002346","LANDMARKCO":"408","LANDMARKNA":"郵局-新店碧潭郵局","LANDMARKAD":"1000106","ADDRESS":"新北市新店區北宜路1段47號","TEL":"(02)2911-1564","COUNTYNAME":"新北市","TOWNNAME":"新店區","MARKTYPE":"994","Class":"4"}},{"type":"Feature","id":5989,"geometry":{"type":"Point","coordinates":[121.53898253727137,24.960394524765452]},"properties":{"OBJECTID":5989,"LANDMARKID":"1000100002468","LANDMARKCO":"409","LANDMARKNA":"新北市新店地區農會","LANDMARKAD":"1000106","ADDRESS":"新北市新店區光明街98號","TEL":"02-29106666","COUNTYNAME":"新北市","TOWNNAME":"新店區","MARKTYPE":"994","Class":"4"}},{"type":"Feature","id":5990,"geometry":{"type":"Point","coordinates":[121.54512476265839,24.981543698780676]},"properties":{"OBJECTID":5990,"LANDMARKID":"1000100002168","LANDMARKCO":"406","LANDMARKNA":"中興公園","LANDMARKAD":"1000106","ADDRESS":"新北市新店區","TEL":" ","COUNTYNAME":"新北市","TOWNNAME":"新店區","MARKTYPE":"994","Class":"4"}},{"type":"Feature","id":5991,"geometry":{"type":"Point","coordinates":[121.5385643082106,24.976385803748755]},"properties":{"OBJECTID":5991,"LANDMARKID":"1000100002169","LANDMARKCO":"406","LANDMARKNA":"交通公園","LANDMARKAD":"1000106","ADDRESS":"新北市新店區","TEL":" ","COUNTYNAME":"新北市","TOWNNAME":"新店區","MARKTYPE":"994","Class":"4"}},{"type":"Feature","id":5992,"geometry":{"type":"Point","coordinates":[121.54456535855638,24.97256278336625]},"properties":{"OBJECTID":5992,"LANDMARKID":"1000100002170","LANDMARKCO":"406","LANDMARKNA":"原野公園","LANDMARKAD":"1000106","ADDRESS":"新北市新店區","TEL":" ","COUNTYNAME":"新北市","TOWNNAME":"新店區","MARKTYPE":"994","Class":"4"}},{"type":"Feature","id":5993,"geometry":{"type":"Point","coordinates":[121.53211472341481,24.95874811740444]},"properties":{"OBJECTID":5993,"LANDMARKID":"1000100002171","LANDMARKCO":"406","LANDMARKNA":"太平運動公園","LANDMARKAD":"1000106","ADDRESS":"新北市新店區","TEL":" ","COUNTYNAME":"新北市","TOWNNAME":"新店區","MARKTYPE":"994","Class":"4"}},{"type":"Feature","id":5994,"geometry":{"type":"Point","coordinates":[121.54499931972204,24.929449919509604]},"properties":{"OBJECTID":5994,"LANDMARKID":"1000100002172","LANDMARKCO":"406","LANDMARKNA":"碧山公園","LANDMARKAD":"1000106","ADDRESS":"新北市新店區","TEL":" ","COUNTYNAME":"新北市","TOWNNAME":"新店區","MARKTYPE":"994","Class":"4"}},{"type":"Feature","id":5995,"geometry":{"type":"Point","coordinates":[121.50419383861542,24.917417162115726]},"properties":{"OBJECTID":5995,"LANDMARKID":"1000100002173","LANDMARKCO":"406","LANDMARKNA":"聰明公園","LANDMARKAD":"1000106","ADDRESS":"新北市新店區","TEL":" ","COUNTYNAME":"新北市","TOWNNAME":"新店區","MARKTYPE":"994","Class":"4"}},{"type":"Feature","id":5955,"geometry":{"type":"Point","coordinates":[121.54274385468713,24.976322318119731]},"properties":{"OBJECTID":5955,"LANDMARKID":"1000100001728","LANDMARKCO":"402","LANDMARKNA":"My Phone台灣大哥大-新店七張直營服務中心","LANDMARKAD":"1000106","ADDRESS":"新北市新店區北新路二段165號","TEL":"0809-000-166","COUNTYNAME":"新北市","TOWNNAME":"新店區","MARKTYPE":"994","Class":"4"}},{"type":"Feature","id":5956,"geometry":{"type":"Point","coordinates":[121.5338363180542,24.983570123844622]},"properties":{"OBJECTID":5956,"LANDMARKID":"1000100001729","LANDMARKCO":"402","LANDMARKNA":"My Phone台灣大哥大-新店中正二直營服務中心","LANDMARKAD":"1000106","ADDRESS":"新北市新店區中正路516之1號","TEL":" ","COUNTYNAME":"新北市","TOWNNAME":"新店區","MARKTYPE":"994","Class":"4"}},{"type":"Feature","id":5957,"geometry":{"type":"Point","coordinates":[121.54311282741784,24.972961145258083]},"properties":{"OBJECTID":5957,"LANDMARKID":"1000100001730","LANDMARKCO":"402","LANDMARKNA":"亞太行動寬頻電信-新店北新二加盟服務中心","LANDMARKAD":"1000106","ADDRESS":"新北市新店區北新路2段88號","TEL":"02-29158789","COUNTYNAME":"新北市","TOWNNAME":"新店區","MARKTYPE":"994","Class":"4"}},{"type":"Feature","id":5958,"geometry":{"type":"Point","coordinates":[121.5421050513541,24.980543140470534]},"properties":{"OBJECTID":5958,"LANDMARKID":"1000100001731","LANDMARKCO":"402","LANDMARKNA":"亞太行動寬頻電信-新店北新加盟服務中心","LANDMARKAD":"1000106","ADDRESS":"新北市新店區北新路3段74號","TEL":"02-55915735","COUNTYNAME":"新北市","TOWNNAME":"新店區","MARKTYPE":"994","Class":"4"}},{"type":"Feature","id":5959,"geometry":{"type":"Point","coordinates":[121.51215921620091,24.960983796013963]},"properties":{"OBJECTID":5959,"LANDMARKID":"1000100001732","LANDMARKCO":"402","LANDMARKNA":"亞太行動寬頻電信-新店安康加盟服務中心","LANDMARKAD":"1000106","ADDRESS":"新北市新店區安康路二段156號","TEL":"02-86663699","COUNTYNAME":"新北市","TOWNNAME":"新店區","MARKTYPE":"994","Class":"4"}},{"type":"Feature","id":5960,"geometry":{"type":"Point","coordinates":[121.53692825001296,24.985605121223063]},"properties":{"OBJECTID":5960,"LANDMARKID":"1000100001606","LANDMARKCO":"401","LANDMARKNA":"佛教慈濟綜合醫院-台北院區(新店院區)","LANDMARKAD":"1000106","ADDRESS":"新北市新店區復興里復興路289號","TEL":"02-66289779","COUNTYNAME":"新北市","TOWNNAME":"新店區","MARKTYPE":"994","Class":"4"}},{"type":"Feature","id":5961,"geometry":{"type":"Point","coordinates":[121.48805411718872,24.938635859927754]},"properties":{"OBJECTID":5961,"LANDMARKID":"1000100001607","LANDMARKCO":"401","LANDMARKNA":"宏慈療養院","LANDMARKAD":"1000106","ADDRESS":"新北市新店區安泰路157號","TEL":"02-22151177","COUNTYNAME":"新北市","TOWNNAME":"新店區","MARKTYPE":"994","Class":"4"}},{"type":"Feature","id":5962,"geometry":{"type":"Point","coordinates":[121.51395431120548,24.958904472855892]},"properties":{"OBJECTID":5962,"LANDMARKID":"1000100001608","LANDMARKCO":"401","LANDMARKNA":"宏濟神經精神科醫院","LANDMARKAD":"1000106","ADDRESS":"新北市新店區安忠路57巷5號","TEL":" ","COUNTYNAME":"新北市","TOWNNAME":"新店區","MARKTYPE":"994","Class":"4"}},{"type":"Feature","id":5963,"geometry":{"type":"Point","coordinates":[121.53562016266639,24.976072983376287]},"properties":{"OBJECTID":5963,"LANDMARKID":"1000100001609","LANDMARKCO":"401","LANDMARKNA":"財團法人天主教耕莘醫院","LANDMARKAD":"1000106","ADDRESS":"新北市新店區中正路362號","TEL":"02-22193391","COUNTYNAME":"新北市","TOWNNAME":"新店區","MARKTYPE":"994","Class":"4"}},{"type":"Feature","id":5964,"geometry":{"type":"Point","coordinates":[121.5377539405371,24.982757452058621]},"properties":{"OBJECTID":5964,"LANDMARKID":"1000100001610","LANDMARKCO":"401","LANDMARKNA":"同仁醫院","LANDMARKAD":"1000106","ADDRESS":"新北市新店區民權路89號","TEL":"02-29170201","COUNTYNAME":"新北市","TOWNNAME":"新店區","MARKTYPE":"994","Class":"4"}},{"type":"Feature","id":5965,"geometry":{"type":"Point","coordinates":[121.54086011321017,24.933282745789139]},"properties":{"OBJECTID":5965,"LANDMARKID":"1000100002583","LANDMARKCO":"506","LANDMARKNA":"文山農場","LANDMARKAD":"1000106","ADDRESS":"新北市新店區湖子內路100號","TEL":"02-26667512","COUNTYNAME":"新北市","TOWNNAME":"新店區","MARKTYPE":"995","Class":"5"}},{"type":"Feature","id":5966,"geometry":{"type":"Point","coordinates":[121.49472282668445,24.9496666592309]},"properties":{"OBJECTID":5966,"LANDMARKID":"1000100002166","LANDMARKCO":"406","LANDMARKNA":"中央公園","LANDMARKAD":"1000106","ADDRESS":"新北市新店區","TEL":" ","COUNTYNAME":"新北市","TOWNNAME":"新店區","MARKTYPE":"994","Class":"4"}},{"type":"Feature","id":5967,"geometry":{"type":"Point","coordinates":[121.49393303482196,24.949851965968797]},"properties":{"OBJECTID":5967,"LANDMARKID":"1000100002167","LANDMARKCO":"406","LANDMARKNA":"中央公園","LANDMARKAD":"1000106","ADDRESS":"新北市新店區","TEL":" ","COUNTYNAME":"新北市","TOWNNAME":"新店區","MARKTYPE":"994","Class":"4"}},{"type":"Feature","id":5968,"geometry":{"type":"Point","coordinates":[121.54267246364124,24.97721667836672]},"properties":{"OBJECTID":5968,"LANDMARKID":"1000100002326","LANDMARKCO":"408","LANDMARKNA":"郵局-新店郵局","LANDMARKAD":"1000106","ADDRESS":"新北市新店區北新路2段177號","TEL":"(02)2911-1249","COUNTYNAME":"新北市","TOWNNAME":"新店區","MARKTYPE":"994","Class":"4"}},{"type":"Feature","id":5969,"geometry":{"type":"Point","coordinates":[121.52969056583564,24.961424869348434]},"properties":{"OBJECTID":5969,"LANDMARKID":"1000100002327","LANDMARKCO":"408","LANDMARKNA":"郵局-新店頂城郵局","LANDMARKAD":"1000106","ADDRESS":"新北市新店區安康路1段50-1號","TEL":"(02)2211-8791","COUNTYNAME":"新北市","TOWNNAME":"新店區","MARKTYPE":"994","Class":"4"}},{"type":"Feature","id":5970,"geometry":{"type":"Point","coordinates":[121.47941636346273,24.944939629490666]},"properties":{"OBJECTID":5970,"LANDMARKID":"1000100002328","LANDMARKCO":"408","LANDMARKNA":"郵局-新店五城郵局","LANDMARKAD":"1000106","ADDRESS":"新北市新店區錦秀路5號","TEL":"(02)2214-2424","COUNTYNAME":"新北市","TOWNNAME":"新店區","MARKTYPE":"994","Class":"4"}},{"type":"Feature","id":5971,"geometry":{"type":"Point","coordinates":[121.54175578736429,24.981638101354992]},"properties":{"OBJECTID":5971,"LANDMARKID":"1000100002329","LANDMARKCO":"408","LANDMARKNA":"郵局-新店大坪林郵局","LANDMARKAD":"1000106","ADDRESS":"新北市新店區北新路3段116號","TEL":"(02)2911-2892","COUNTYNAME":"新北市","TOWNNAME":"新店區","MARKTYPE":"994","Class":"4"}},{"type":"Feature","id":5972,"geometry":{"type":"Point","coordinates":[121.50962850072364,24.959140883950262]},"properties":{"OBJECTID":5972,"LANDMARKID":"1000100002330","LANDMARKCO":"408","LANDMARKNA":"郵局-新店公崙郵局","LANDMARKAD":"1000106","ADDRESS":"新北市新店區安康路2段179號","TEL":"(02)2211-7431","COUNTYNAME":"新北市","TOWNNAME":"新店區","MARKTYPE":"994","Class":"4"}},{"type":"Feature","id":5973,"geometry":{"type":"Point","coordinates":[121.54097288607423,24.966719191050629]},"properties":{"OBJECTID":5973,"LANDMARKID":"1000100002331","LANDMARKCO":"408","LANDMARKNA":"郵局-新店檳榔路郵局","LANDMARKAD":"1000106","ADDRESS":"新北市新店區北新路1段273號","TEL":"(02)2911-4400","COUNTYNAME":"新北市","TOWNNAME":"新店區","MARKTYPE":"994","Class":"4"}},{"type":"Feature","id":5974,"geometry":{"type":"Point","coordinates":[121.53916249371495,24.986901226298382]},"properties":{"OBJECTID":5974,"LANDMARKID":"1000100002332","LANDMARKCO":"408","LANDMARKNA":"郵局-新店復興郵局","LANDMARKAD":"1000106","ADDRESS":"新北市新店區復興路30號","TEL":"(02)2911-5002","COUNTYNAME":"新北市","TOWNNAME":"新店區","MARKTYPE":"994","Class":"4"}},{"type":"Feature","id":5975,"geometry":{"type":"Point","coordinates":[121.52935344388489,24.972721512116394]},"properties":{"OBJECTID":5975,"LANDMARKID":"1000100002333","LANDMARKCO":"408","LANDMARKNA":"郵局-新店中央郵局","LANDMARKAD":"1000106","ADDRESS":"新北市新店區中央路232號","TEL":"(02)2219-5162","COUNTYNAME":"新北市","TOWNNAME":"新店區","MARKTYPE":"994","Class":"4"}},{"type":"Feature","id":5976,"geometry":{"type":"Point","coordinates":[121.53891717953024,24.973405928213474]},"properties":{"OBJECTID":5976,"LANDMARKID":"1000100002334","LANDMARKCO":"408","LANDMARKNA":"郵局-新店中正郵局","LANDMARKAD":"1000106","ADDRESS":"新北市新店區中正路253號","TEL":"(02)2915-0640","COUNTYNAME":"新北市","TOWNNAME":"新店區","MARKTYPE":"994","Class":"4"}},{"type":"Feature","id":5977,"geometry":{"type":"Point","coordinates":[121.51834110789241,24.968932111949272]},"properties":{"OBJECTID":5977,"LANDMARKID":"1000100002335","LANDMARKCO":"408","LANDMARKNA":"郵局-新店十四份郵局","LANDMARKAD":"1000106","ADDRESS":"新北市新店區安和路2段79號","TEL":"(02)2211-2584","COUNTYNAME":"新北市","TOWNNAME":"新店區","MARKTYPE":"994","Class":"4"}},{"type":"Feature","id":5978,"geometry":{"type":"Point","coordinates":[121.51788476170258,24.982883815173384]},"properties":{"OBJECTID":5978,"LANDMARKID":"1000100002336","LANDMARKCO":"408","LANDMARKNA":"郵局-新店永安郵局","LANDMARKAD":"1000106","ADDRESS":"新北市新店區安和路3段57號","TEL":"(02)2944-2541","COUNTYNAME":"新北市","TOWNNAME":"新店區","MARKTYPE":"994","Class":"4"}},{"type":"Feature","id":5996,"geometry":{"type":"Point","coordinates":[121.53238980378818,24.972812451480713]},"properties":{"OBJECTID":5996,"LANDMARKID":"1000100002174","LANDMARKCO":"406","LANDMARKNA":"福民公園","LANDMARKAD":"1000106","ADDRESS":"新北市新店區","TEL":" ","COUNTYNAME":"新北市","TOWNNAME":"新店區","MARKTYPE":"994","Class":"4"}},{"type":"Feature","id":5997,"geometry":{"type":"Point","coordinates":[121.49612585935726,24.947265032139558]},"properties":{"OBJECTID":5997,"LANDMARKID":"1000100002175","LANDMARKCO":"406","LANDMARKNA":"誠中公園","LANDMARKAD":"1000106","ADDRESS":"新北市新店區","TEL":" ","COUNTYNAME":"新北市","TOWNNAME":"新店區","MARKTYPE":"994","Class":"4"}},{"type":"Feature","id":5998,"geometry":{"type":"Point","coordinates":[121.5365624508038,24.99067108119467]},"properties":{"OBJECTID":5998,"LANDMARKID":"1000100002176","LANDMARKCO":"406","LANDMARKNA":"景美河濱公園","LANDMARKAD":"1000106","ADDRESS":"新北市新店區","TEL":" ","COUNTYNAME":"新北市","TOWNNAME":"新店區","MARKTYPE":"994","Class":"4"}},{"type":"Feature","id":5999,"geometry":{"type":"Point","coordinates":[121.54456098537769,24.9792100394621]},"properties":{"OBJECTID":5999,"LANDMARKID":"1000100002010","LANDMARKCO":"405","LANDMARKNA":"台亞加油站-新店中興路站（台塑）","LANDMARKAD":"1000106","ADDRESS":"新北市新店區中興路三段131號","TEL":"(02)8911-4089轉201","COUNTYNAME":"新北市","TOWNNAME":"新店區","MARKTYPE":"994","Class":"4"}},{"type":"Feature","id":6000,"geometry":{"type":"Point","coordinates":[121.53853036034505,24.961096321389228]},"properties":{"OBJECTID":6000,"LANDMARKID":"1000100002011","LANDMARKCO":"405","LANDMARKNA":"台亞加油站-新店北新路站（台塑）","LANDMARKAD":"1000106","ADDRESS":"新北市新店區北新路一段85號","TEL":"(02)2918-6111","COUNTYNAME":"新北市","TOWNNAME":"新店區","MARKTYPE":"994","Class":"4"}}]}