{"type":"FeatureCollection","features":[{"type":"Feature","id":17601,"geometry":{"type":"Point","coordinates":[120.6820189503815,23.753822552314812]},"properties":{"OBJECTID":17601,"LANDMARKID":"1000800001033","LANDMARKCO":"603","LANDMARKNA":"金都大旅社","LANDMARKAD":"1000804","ADDRESS":"南投縣竹山鎮中山里竹山路150號","TEL":"049-2642143","COUNTYNAME":"南投縣","TOWNNAME":"竹山鎮","MARKTYPE":"996","Class":"6"}},{"type":"Feature","id":17602,"geometry":{"type":"Point","coordinates":[120.68317265007965,23.754630945667099]},"properties":{"OBJECTID":17602,"LANDMARKID":"1000800001034","LANDMARKCO":"603","LANDMARKNA":"竹山旅社","LANDMARKAD":"1000804","ADDRESS":"南投縣竹山鎮中山里竹山路169號","TEL":"049-2653339","COUNTYNAME":"南投縣","TOWNNAME":"竹山鎮","MARKTYPE":"996","Class":"6"}},{"type":"Feature","id":17603,"geometry":{"type":"Point","coordinates":[120.68319392355001,23.755678477998273]},"properties":{"OBJECTID":17603,"LANDMARKID":"1000800001035","LANDMARKCO":"603","LANDMARKNA":"新民旅社","LANDMARKAD":"1000804","ADDRESS":"南投縣竹山鎮中山里橫街63號","TEL":"049-2642018","COUNTYNAME":"南投縣","TOWNNAME":"竹山鎮","MARKTYPE":"996","Class":"6"}},{"type":"Feature","id":17604,"geometry":{"type":"Point","coordinates":[120.68103393102979,23.756030783479265]},"properties":{"OBJECTID":17604,"LANDMARKID":"1000800001036","LANDMARKCO":"603","LANDMARKNA":"山明大旅社","LANDMARKAD":"1000804","ADDRESS":"南投縣竹山鎮雲林里頂橫街47號","TEL":"049-2642103","COUNTYNAME":"南投縣","TOWNNAME":"竹山鎮","MARKTYPE":"996","Class":"6"}},{"type":"Feature","id":17605,"geometry":{"type":"Point","coordinates":[120.68276876058579,23.756362999614435]},"properties":{"OBJECTID":17605,"LANDMARKID":"1000800001037","LANDMARKCO":"603","LANDMARKNA":"振興旅社","LANDMARKAD":"1000804","ADDRESS":"南投縣竹山鎮雲林里橫街89號","TEL":"049-2642113","COUNTYNAME":"南投縣","TOWNNAME":"竹山鎮","MARKTYPE":"996","Class":"6"}},{"type":"Feature","id":17606,"geometry":{"type":"Point","coordinates":[120.71784399329395,23.694095737555077]},"properties":{"OBJECTID":17606,"LANDMARKID":"1000800001038","LANDMARKCO":"604","LANDMARKNA":"大鞍吳家古厝民宿","LANDMARKAD":"1000804","ADDRESS":"南投縣竹山鎮大鞍里頂林路570號","TEL":"049-2841047","COUNTYNAME":"南投縣","TOWNNAME":"竹山鎮","MARKTYPE":"996","Class":"6"}},{"type":"Feature","id":17607,"geometry":{"type":"Point","coordinates":[120.71245613455849,23.794253769164946]},"properties":{"OBJECTID":17607,"LANDMARKID":"1000800001039","LANDMARKCO":"604","LANDMARKNA":"竹林民宿","LANDMARKAD":"1000804","ADDRESS":"南投縣竹山鎮山崇里集山路二段201巷47號","TEL":"049-2623919","COUNTYNAME":"南投縣","TOWNNAME":"竹山鎮","MARKTYPE":"996","Class":"6"}},{"type":"Feature","id":17608,"geometry":{"type":"Point","coordinates":[120.68428709926519,23.7568330514016]},"properties":{"OBJECTID":17608,"LANDMARKID":"1000800001040","LANDMARKCO":"604","LANDMARKNA":"江澤休閒民宿","LANDMARKAD":"1000804","ADDRESS":"南投縣竹山鎮竹山里下橫街40-1號","TEL":"049-2658761","COUNTYNAME":"南投縣","TOWNNAME":"竹山鎮","MARKTYPE":"996","Class":"6"}},{"type":"Feature","id":17609,"geometry":{"type":"Point","coordinates":[120.6840697462019,23.75714820663762]},"properties":{"OBJECTID":17609,"LANDMARKID":"1000800001041","LANDMARKCO":"604","LANDMARKNA":"農昌民宿","LANDMARKAD":"1000804","ADDRESS":"南投縣竹山鎮竹山里下橫街48-4-1號","TEL":"049-2643377","COUNTYNAME":"南投縣","TOWNNAME":"竹山鎮","MARKTYPE":"996","Class":"6"}},{"type":"Feature","id":17610,"geometry":{"type":"Point","coordinates":[120.73208816820247,23.678463731682939]},"properties":{"OBJECTID":17610,"LANDMARKID":"1000800001042","LANDMARKCO":"604","LANDMARKNA":"富御民宿","LANDMARKAD":"1000804","ADDRESS":"南投縣竹山鎮大鞍里頂林路589號","TEL":"049-2841161","COUNTYNAME":"南投縣","TOWNNAME":"竹山鎮","MARKTYPE":"996","Class":"6"}},{"type":"Feature","id":17611,"geometry":{"type":"Point","coordinates":[120.71648446005743,23.696949314629038]},"properties":{"OBJECTID":17611,"LANDMARKID":"1000800001043","LANDMARKCO":"604","LANDMARKNA":"大書櫃民宿","LANDMARKAD":"1000804","ADDRESS":"南投縣竹山鎮大鞍里頂林路562-2號","TEL":"049-2841158","COUNTYNAME":"南投縣","TOWNNAME":"竹山鎮","MARKTYPE":"996","Class":"6"}},{"type":"Feature","id":17612,"geometry":{"type":"Point","coordinates":[120.7166113141772,23.697094257587661]},"properties":{"OBJECTID":17612,"LANDMARKID":"1000800001044","LANDMARKCO":"604","LANDMARKNA":"大鞍山林瓦舍","LANDMARKAD":"1000804","ADDRESS":"南投縣竹山鎮大鞍里頂林路443號","TEL":"049-2841173","COUNTYNAME":"南投縣","TOWNNAME":"竹山鎮","MARKTYPE":"996","Class":"6"}},{"type":"Feature","id":17613,"geometry":{"type":"Point","coordinates":[120.69517684213537,23.755418684754844]},"properties":{"OBJECTID":17613,"LANDMARKID":"1000800001045","LANDMARKCO":"604","LANDMARKNA":"彩虹屋","LANDMARKAD":"1000804","ADDRESS":"南投縣竹山鎮桂林里中正巷23-5號","TEL":"049-2651917","COUNTYNAME":"南投縣","TOWNNAME":"竹山鎮","MARKTYPE":"996","Class":"6"}},{"type":"Feature","id":17614,"geometry":{"type":"Point","coordinates":[120.74745890628778,23.8120111922237]},"properties":{"OBJECTID":17614,"LANDMARKID":"1000800001046","LANDMARKCO":"604","LANDMARKNA":"隱竹別院","LANDMARKAD":"1000804","ADDRESS":"南投縣竹山鎮富州里富州巷31號","TEL":"049-2623928","COUNTYNAME":"南投縣","TOWNNAME":"竹山鎮","MARKTYPE":"996","Class":"6"}},{"type":"Feature","id":17615,"geometry":{"type":"Point","coordinates":[120.69460102635168,23.661515439887321]},"properties":{"OBJECTID":17615,"LANDMARKID":"1000800000840","LANDMARKCO":"503","LANDMARKNA":"瑞龍瀑布","LANDMARKAD":"1000804","ADDRESS":"南投縣竹山鎮","TEL":" ","COUNTYNAME":"南投縣","TOWNNAME":"竹山鎮","MARKTYPE":"995","Class":"5"}},{"type":"Feature","id":17616,"geometry":{"type":"Point","coordinates":[120.79241872264144,23.639479764433108]},"properties":{"OBJECTID":17616,"LANDMARKID":"1000800000850","LANDMARKCO":"504","LANDMARKNA":"杉林溪森林遊樂區","LANDMARKAD":"1000804","ADDRESS":"南投縣竹山鎮大鞍里溪山路6號","TEL":" ","COUNTYNAME":"南投縣","TOWNNAME":"竹山鎮","MARKTYPE":"995","Class":"5"}},{"type":"Feature","id":17617,"geometry":{"type":"Point","coordinates":[120.86631474521144,23.625812045876206]},"properties":{"OBJECTID":17617,"LANDMARKID":"1000800000726","LANDMARKCO":"405","LANDMARKNA":"中油加油站-新中橫站","LANDMARKAD":"1000812","ADDRESS":"南投縣信義鄉羅娜村信筆巷182-1號","TEL":"049-2831616","COUNTYNAME":"南投縣","TOWNNAME":"信義鄉","MARKTYPE":"994","Class":"4"}},{"type":"Feature","id":17618,"geometry":{"type":"Point","coordinates":[120.85982656826755,23.689448468694049]},"properties":{"OBJECTID":17618,"LANDMARKID":"1000800000727","LANDMARKCO":"405","LANDMARKNA":"中油加油站-信義站(中油直營)","LANDMARKAD":"1000812","ADDRESS":"南投縣信義鄉明德村玉山路116號","TEL":"049-2791837","COUNTYNAME":"南投縣","TOWNNAME":"信義鄉","MARKTYPE":"994","Class":"4"}},{"type":"Feature","id":17619,"geometry":{"type":"Point","coordinates":[121.00213175605668,23.494701676475785]},"properties":{"OBJECTID":17619,"LANDMARKID":"1000800000878","LANDMARKCO":"507","LANDMARKNA":"八通關古道","LANDMARKAD":"1000812","ADDRESS":"南投縣信義鄉","TEL":" ","COUNTYNAME":"南投縣","TOWNNAME":"信義鄉","MARKTYPE":"995","Class":"5"}},{"type":"Feature","id":17620,"geometry":{"type":"Point","coordinates":[120.87553370077411,23.662537188426061]},"properties":{"OBJECTID":17620,"LANDMARKID":"1000800000879","LANDMARKCO":"507","LANDMARKNA":"楠仔腳蔓社學堂遺蹟","LANDMARKAD":"1000812","ADDRESS":"南投縣信義鄉望美村部落","TEL":" ","COUNTYNAME":"南投縣","TOWNNAME":"信義鄉","MARKTYPE":"995","Class":"5"}},{"type":"Feature","id":17621,"geometry":{"type":"Point","coordinates":[120.87283360346338,23.671243133037283]},"properties":{"OBJECTID":17621,"LANDMARKID":"1000800000876","LANDMARKCO":"506","LANDMARKNA":"豐丘葡萄觀光果園","LANDMARKAD":"1000812","ADDRESS":"南投縣信義鄉豐丘村敦福路136號","TEL":"049-2791178","COUNTYNAME":"南投縣","TOWNNAME":"信義鄉","MARKTYPE":"995","Class":"5"}},{"type":"Feature","id":17622,"geometry":{"type":"Point","coordinates":[120.89921903900357,23.630522932390331]},"properties":{"OBJECTID":17622,"LANDMARKID":"1000800000877","LANDMARKCO":"506","LANDMARKNA":"信義鄉玉山觀光茶園","LANDMARKAD":"1000812","ADDRESS":"南投縣信義鄉明德村明德街29號","TEL":"049-2792300","COUNTYNAME":"南投縣","TOWNNAME":"信義鄉","MARKTYPE":"995","Class":"5"}},{"type":"Feature","id":17623,"geometry":{"type":"Point","coordinates":[120.85405912787263,23.69702828317892]},"properties":{"OBJECTID":17623,"LANDMARKID":"1000800000795","LANDMARKCO":"408","LANDMARKNA":"郵局-信義郵局","LANDMARKAD":"1000812","ADDRESS":"南投縣信義鄉玉山路44號","TEL":"(049)2791-257","COUNTYNAME":"南投縣","TOWNNAME":"信義鄉","MARKTYPE":"994","Class":"4"}},{"type":"Feature","id":17624,"geometry":{"type":"Point","coordinates":[120.88958516197951,23.591085566821931]},"properties":{"OBJECTID":17624,"LANDMARKID":"1000800000796","LANDMARKCO":"408","LANDMARKNA":"郵局-信義和社郵局","LANDMARKAD":"1000812","ADDRESS":"南投縣信義鄉同和巷72-7號","TEL":"(049)2701-172","COUNTYNAME":"南投縣","TOWNNAME":"信義鄉","MARKTYPE":"994","Class":"4"}},{"type":"Feature","id":17625,"geometry":{"type":"Point","coordinates":[120.85244759298828,23.696473128033048]},"properties":{"OBJECTID":17625,"LANDMARKID":"1000800000797","LANDMARKCO":"409","LANDMARKNA":"南投縣信義鄉農會","LANDMARKAD":"1000812","ADDRESS":"南投縣信義鄉明德村明德街29號","TEL":"049-2792689","COUNTYNAME":"南投縣","TOWNNAME":"信義鄉","MARKTYPE":"994","Class":"4"}},{"type":"Feature","id":17626,"geometry":{"type":"Point","coordinates":[120.88352489458589,23.477766493162122]},"properties":{"OBJECTID":17626,"LANDMARKID":"1000800000728","LANDMARKCO":"406","LANDMARKNA":"鹿林山自然公園","LANDMARKAD":"1000812","ADDRESS":"南投縣信義鄉","TEL":" ","COUNTYNAME":"南投縣","TOWNNAME":"信義鄉","MARKTYPE":"994","Class":"4"}},{"type":"Feature","id":17627,"geometry":{"type":"Point","coordinates":[120.85532597561901,23.699938213661028]},"properties":{"OBJECTID":17627,"LANDMARKID":"1000800000244","LANDMARKCO":"108","LANDMARKNA":"南投縣信義鄉公所","LANDMARKAD":"1000812","ADDRESS":"南投縣信義鄉明德村玉山路47號","TEL":"049-2791515","COUNTYNAME":"南投縣","TOWNNAME":"信義鄉","MARKTYPE":"991","Class":"1"}},{"type":"Feature","id":17628,"geometry":{"type":"Point","coordinates":[120.85439850052803,23.696685705303818]},"properties":{"OBJECTID":17628,"LANDMARKID":"1000800000048","LANDMARKCO":"103","LANDMARKNA":"南投縣信義鄉民代表會","LANDMARKAD":"1000812","ADDRESS":"南投縣信義鄉玉山路47號之1","TEL":"049-2791009","COUNTYNAME":"南投縣","TOWNNAME":"信義鄉","MARKTYPE":"991","Class":"1"}},{"type":"Feature","id":17629,"geometry":{"type":"Point","coordinates":[120.85476292430684,23.695963996696502]},"properties":{"OBJECTID":17629,"LANDMARKID":"1000800000049","LANDMARKCO":"103","LANDMARKNA":"南投縣信義鄉衛生所","LANDMARKAD":"1000812","ADDRESS":"南投縣信義鄉明德村玉山路45號","TEL":"049-2791148","COUNTYNAME":"南投縣","TOWNNAME":"信義鄉","MARKTYPE":"991","Class":"1"}},{"type":"Feature","id":17630,"geometry":{"type":"Point","coordinates":[120.85871687887949,23.694972838576785]},"properties":{"OBJECTID":17630,"LANDMARKID":"1000800000123","LANDMARKCO":"107","LANDMARKNA":"南投縣消防局信義消防分隊","LANDMARKAD":"1000812","ADDRESS":"南投縣信義鄉明德街50號","TEL":"049-2791760","COUNTYNAME":"南投縣","TOWNNAME":"信義鄉","MARKTYPE":"991","Class":"1"}},{"type":"Feature","id":17631,"geometry":{"type":"Point","coordinates":[120.85791045241471,23.696057520880014]},"properties":{"OBJECTID":17631,"LANDMARKID":"1000800000124","LANDMARKCO":"107","LANDMARKNA":"南投縣政府警察局信義分局","LANDMARKAD":"1000812","ADDRESS":"南投縣信義鄉明德村玉山路49號","TEL":"049-2791260","COUNTYNAME":"南投縣","TOWNNAME":"信義鄉","MARKTYPE":"991","Class":"1"}},{"type":"Feature","id":17632,"geometry":{"type":"Point","coordinates":[120.85791045241471,23.696057520880014]},"properties":{"OBJECTID":17632,"LANDMARKID":"1000800000125","LANDMARKCO":"107","LANDMARKNA":"南投縣政府警察局信義派出所","LANDMARKAD":"1000812","ADDRESS":"南投縣信義鄉明德村玉山路49號","TEL":"049-2791261","COUNTYNAME":"南投縣","TOWNNAME":"信義鄉","MARKTYPE":"991","Class":"1"}},{"type":"Feature","id":17633,"geometry":{"type":"Point","coordinates":[120.85781180595808,23.696328237472891]},"properties":{"OBJECTID":17633,"LANDMARKID":"1000800000112","LANDMARKCO":"106","LANDMARKNA":"南投縣信義鄉戶政事務所","LANDMARKAD":"1000812","ADDRESS":"南投縣信義鄉明德村4鄰玉山路19號","TEL":"049-2791262","COUNTYNAME":"南投縣","TOWNNAME":"信義鄉","MARKTYPE":"991","Class":"1"}},{"type":"Feature","id":17634,"geometry":{"type":"Point","coordinates":[120.89197753333657,23.610659529341682]},"properties":{"OBJECTID":17634,"LANDMARKID":"1000800000113","LANDMARKCO":"107","LANDMARKNA":"南投縣政府警察局久美派出所","LANDMARKAD":"1000812","ADDRESS":"南投縣信義鄉望美村美信巷55號","TEL":"049-2831472","COUNTYNAME":"南投縣","TOWNNAME":"信義鄉","MARKTYPE":"991","Class":"1"}},{"type":"Feature","id":17635,"geometry":{"type":"Point","coordinates":[120.94266860061782,23.820541756796416]},"properties":{"OBJECTID":17635,"LANDMARKID":"1000800000114","LANDMARKCO":"107","LANDMARKNA":"南投縣警察局潭南派出所","LANDMARKAD":"1000812","ADDRESS":"南投縣信義鄉潭南村和平巷47號","TEL":"049-2741264","COUNTYNAME":"南投縣","TOWNNAME":"信義鄉","MARKTYPE":"991","Class":"1"}},{"type":"Feature","id":17636,"geometry":{"type":"Point","coordinates":[120.87552588465594,23.672593100437879]},"properties":{"OBJECTID":17636,"LANDMARKID":"1000800000115","LANDMARKCO":"107","LANDMARKNA":"南投縣警察局豐丘派出所","LANDMARKAD":"1000812","ADDRESS":"南投縣信義鄉豐丘村高平巷8號","TEL":"049-2791583","COUNTYNAME":"南投縣","TOWNNAME":"信義鄉","MARKTYPE":"991","Class":"1"}},{"type":"Feature","id":17637,"geometry":{"type":"Point","coordinates":[120.87678791322737,23.643067133262484]},"properties":{"OBJECTID":17637,"LANDMARKID":"1000800000116","LANDMARKCO":"107","LANDMARKNA":"南投縣政府警察局新鄉派出所","LANDMARKAD":"1000812","ADDRESS":"南投縣信義鄉新鄉村新鄉路105號","TEL":"049-2831595","COUNTYNAME":"南投縣","TOWNNAME":"信義鄉","MARKTYPE":"991","Class":"1"}},{"type":"Feature","id":17638,"geometry":{"type":"Point","coordinates":[120.92315696995313,23.567424384305369]},"properties":{"OBJECTID":17638,"LANDMARKID":"1000800000117","LANDMARKCO":"107","LANDMARKNA":"南投縣政府警察局東埔派出所","LANDMARKAD":"1000812","ADDRESS":"南投縣信義鄉東埔村開高巷56號","TEL":"049-2701321","COUNTYNAME":"南投縣","TOWNNAME":"信義鄉","MARKTYPE":"991","Class":"1"}},{"type":"Feature","id":17639,"geometry":{"type":"Point","coordinates":[120.95191623035946,23.788399042598119]},"properties":{"OBJECTID":17639,"LANDMARKID":"1000800000118","LANDMARKCO":"107","LANDMARKNA":"南投縣警察局雙龍派出所","LANDMARKAD":"1000812","ADDRESS":"南投縣信義鄉雙龍村光復巷33號","TEL":"049-2741321","COUNTYNAME":"南投縣","TOWNNAME":"信義鄉","MARKTYPE":"991","Class":"1"}},{"type":"Feature","id":17640,"geometry":{"type":"Point","coordinates":[120.88776834335771,23.616436745961465]},"properties":{"OBJECTID":17640,"LANDMARKID":"1000800000119","LANDMARKCO":"107","LANDMARKNA":"南投縣警察局羅娜派出所","LANDMARKAD":"1000812","ADDRESS":"南投縣信義鄉羅娜村信筆巷66號","TEL":"049-2831471","COUNTYNAME":"南投縣","TOWNNAME":"信義鄉","MARKTYPE":"991","Class":"1"}},{"type":"Feature","id":17641,"geometry":{"type":"Point","coordinates":[120.89596986253225,23.780967450235504]},"properties":{"OBJECTID":17641,"LANDMARKID":"1000800000120","LANDMARKCO":"107","LANDMARKNA":"南投縣政府警察局人倫派出所","LANDMARKAD":"1000812","ADDRESS":"南投縣信義鄉人和村民生巷10號","TEL":"049-2770310","COUNTYNAME":"南投縣","TOWNNAME":"信義鄉","MARKTYPE":"991","Class":"1"}},{"type":"Feature","id":17642,"geometry":{"type":"Point","coordinates":[120.9446916508179,23.795168467809432]},"properties":{"OBJECTID":17642,"LANDMARKID":"1000800000121","LANDMARKCO":"107","LANDMARKNA":"南投縣政府警察局青雲派出所","LANDMARKAD":"1000812","ADDRESS":"南投縣信義鄉地利村開信巷14號","TEL":"049-2741142","COUNTYNAME":"南投縣","TOWNNAME":"信義鄉","MARKTYPE":"991","Class":"1"}},{"type":"Feature","id":17643,"geometry":{"type":"Point","coordinates":[120.8897698640683,23.592237119872994]},"properties":{"OBJECTID":17643,"LANDMARKID":"1000800000122","LANDMARKCO":"107","LANDMARKNA":"南投縣政府警察局和社派出所","LANDMARKAD":"1000812","ADDRESS":"南投縣信義鄉同富村同和巷6號","TEL":"049-2701304","COUNTYNAME":"南投縣","TOWNNAME":"信義鄉","MARKTYPE":"991","Class":"1"}},{"type":"Feature","id":17644,"geometry":{"type":"Point","coordinates":[120.91478557313972,23.545206028129467]},"properties":{"OBJECTID":17644,"LANDMARKID":"1000800000047","LANDMARKCO":"101","LANDMARKNA":"公路總局新中橫監工站","LANDMARKAD":"1000812","ADDRESS":"南投縣信義鄉","TEL":" ","COUNTYNAME":"南投縣","TOWNNAME":"信義鄉","MARKTYPE":"991","Class":"1"}},{"type":"Feature","id":17645,"geometry":{"type":"Point","coordinates":[120.85376947410519,23.697549302214505]},"properties":{"OBJECTID":17645,"LANDMARKID":"1000800000450","LANDMARKCO":"204","LANDMARKNA":"南投縣立圖書館信義分館","LANDMARKAD":"1000812","ADDRESS":"南投縣信義鄉明德村玉山路4之2號","TEL":" ","COUNTYNAME":"南投縣","TOWNNAME":"信義鄉","MARKTYPE":"992","Class":"2"}},{"type":"Feature","id":17646,"geometry":{"type":"Point","coordinates":[120.85349654175148,23.696593704646745]},"properties":{"OBJECTID":17646,"LANDMARKID":"1000800000429","LANDMARKCO":"203","LANDMARKNA":"縣立信義國中","LANDMARKAD":"1000812","ADDRESS":"南投縣信義鄉明德村玉山路20號","TEL":"049-2791129","COUNTYNAME":"南投縣","TOWNNAME":"信義鄉","MARKTYPE":"992","Class":"2"}},{"type":"Feature","id":17647,"geometry":{"type":"Point","coordinates":[120.85449723866522,23.697769478920023]},"properties":{"OBJECTID":17647,"LANDMARKID":"1000800000430","LANDMARKCO":"203","LANDMARKNA":"縣立信義國小","LANDMARKAD":"1000812","ADDRESS":"南投縣信義鄉明德村玉山路24號","TEL":"049-2791263","COUNTYNAME":"南投縣","TOWNNAME":"信義鄉","MARKTYPE":"992","Class":"2"}},{"type":"Feature","id":17648,"geometry":{"type":"Point","coordinates":[120.88713126792462,23.595305555656278]},"properties":{"OBJECTID":17648,"LANDMARKID":"1000800000431","LANDMARKCO":"203","LANDMARKNA":"縣立同富國中","LANDMARKAD":"1000812","ADDRESS":"南投縣信義鄉同富村同和巷7號","TEL":"049-2701317","COUNTYNAME":"南投縣","TOWNNAME":"信義鄉","MARKTYPE":"992","Class":"2"}},{"type":"Feature","id":17649,"geometry":{"type":"Point","coordinates":[120.95032773290198,23.785418194065453]},"properties":{"OBJECTID":17649,"LANDMARKID":"1000800000432","LANDMARKCO":"203","LANDMARKNA":"縣立雙龍國小","LANDMARKAD":"1000812","ADDRESS":"南投縣信義鄉雙龍村光復巷4號","TEL":"049-2741325","COUNTYNAME":"南投縣","TOWNNAME":"信義鄉","MARKTYPE":"992","Class":"2"}},{"type":"Feature","id":17650,"geometry":{"type":"Point","coordinates":[120.87487048551883,23.670427124076827]},"properties":{"OBJECTID":17650,"LANDMARKID":"1000800000433","LANDMARKCO":"203","LANDMARKNA":"縣立豐丘國小","LANDMARKAD":"1000812","ADDRESS":"南投縣信義鄉豐丘村高平巷77號","TEL":"049-2791723","COUNTYNAME":"南投縣","TOWNNAME":"信義鄉","MARKTYPE":"992","Class":"2"}},{"type":"Feature","id":17651,"geometry":{"type":"Point","coordinates":[120.86934205282627,23.639811091412149]},"properties":{"OBJECTID":17651,"LANDMARKID":"1000800000434","LANDMARKCO":"203","LANDMARKNA":"縣立新鄉國小","LANDMARKAD":"1000812","ADDRESS":"南投縣信義鄉新鄉村新鄉路80號","TEL":"049-2831591","COUNTYNAME":"南投縣","TOWNNAME":"信義鄉","MARKTYPE":"992","Class":"2"}},{"type":"Feature","id":17652,"geometry":{"type":"Point","coordinates":[120.94044951136613,23.821444129094921]},"properties":{"OBJECTID":17652,"LANDMARKID":"1000800000435","LANDMARKCO":"203","LANDMARKNA":"縣立潭南國小","LANDMARKAD":"1000812","ADDRESS":"南投縣信義鄉潭南村和平巷49號","TEL":"049-2741381","COUNTYNAME":"南投縣","TOWNNAME":"信義鄉","MARKTYPE":"992","Class":"2"}},{"type":"Feature","id":17653,"geometry":{"type":"Point","coordinates":[120.87078471765369,23.628343055719505]},"properties":{"OBJECTID":17653,"LANDMARKID":"1000800000436","LANDMARKCO":"203","LANDMARKNA":"縣立羅娜國小","LANDMARKAD":"1000812","ADDRESS":"南投縣信義鄉羅娜村信筆巷73號","TEL":"049-2831327","COUNTYNAME":"南投縣","TOWNNAME":"信義鄉","MARKTYPE":"992","Class":"2"}},{"type":"Feature","id":17654,"geometry":{"type":"Point","coordinates":[120.84857651493216,23.694061244017902]},"properties":{"OBJECTID":17654,"LANDMARKID":"1000800000437","LANDMARKCO":"203","LANDMARKNA":"縣立愛國國小","LANDMARKAD":"1000812","ADDRESS":"南投縣信義鄉愛國村愛國巷108號","TEL":"049-2791465","COUNTYNAME":"南投縣","TOWNNAME":"信義鄉","MARKTYPE":"992","Class":"2"}},{"type":"Feature","id":17655,"geometry":{"type":"Point","coordinates":[120.88805226461008,23.593952383410745]},"properties":{"OBJECTID":17655,"LANDMARKID":"1000800000438","LANDMARKCO":"203","LANDMARKNA":"縣立同富國小","LANDMARKAD":"1000812","ADDRESS":"南投縣信義鄉同富村同和巷4號","TEL":"049-2701503","COUNTYNAME":"南投縣","TOWNNAME":"信義鄉","MARKTYPE":"992","Class":"2"}},{"type":"Feature","id":17656,"geometry":{"type":"Point","coordinates":[120.88442807326074,23.615530904969532]},"properties":{"OBJECTID":17656,"LANDMARKID":"1000800000439","LANDMARKCO":"203","LANDMARKNA":"縣立久美國小","LANDMARKAD":"1000812","ADDRESS":"南投縣信義鄉望美村美信巷54號","TEL":"049-2831506","COUNTYNAME":"南投縣","TOWNNAME":"信義鄉","MARKTYPE":"992","Class":"2"}},{"type":"Feature","id":17657,"geometry":{"type":"Point","coordinates":[120.87166384147815,23.71169095242357]},"properties":{"OBJECTID":17657,"LANDMARKID":"1000800000440","LANDMARKCO":"203","LANDMARKNA":"縣立忠信國小","LANDMARKAD":"1000812","ADDRESS":"南投縣信義鄉明德村中平巷39號","TEL":"049-2791320","COUNTYNAME":"南投縣","TOWNNAME":"信義鄉","MARKTYPE":"992","Class":"2"}},{"type":"Feature","id":17658,"geometry":{"type":"Point","coordinates":[120.87516044608056,23.560168856996235]},"properties":{"OBJECTID":17658,"LANDMARKID":"1000800000441","LANDMARKCO":"203","LANDMARKNA":"縣立桐林國小","LANDMARKAD":"1000812","ADDRESS":"南投縣信義鄉同富村太平巷18號","TEL":"049-2701483","COUNTYNAME":"南投縣","TOWNNAME":"信義鄉","MARKTYPE":"992","Class":"2"}},{"type":"Feature","id":17659,"geometry":{"type":"Point","coordinates":[120.89674540721188,23.779343123121311]},"properties":{"OBJECTID":17659,"LANDMARKID":"1000800000442","LANDMARKCO":"203","LANDMARKNA":"縣立人和國小","LANDMARKAD":"1000812","ADDRESS":"南投縣信義鄉人和村民生巷3號","TEL":"049-2773259","COUNTYNAME":"南投縣","TOWNNAME":"信義鄉","MARKTYPE":"992","Class":"2"}},{"type":"Feature","id":17660,"geometry":{"type":"Point","coordinates":[120.87634217396781,23.574257655788596]},"properties":{"OBJECTID":17660,"LANDMARKID":"1000800000443","LANDMARKCO":"203","LANDMARKNA":"縣立隆華國小","LANDMARKAD":"1000812","ADDRESS":"南投縣信義鄉神木村民和巷21號","TEL":"049-2701478","COUNTYNAME":"南投縣","TOWNNAME":"信義鄉","MARKTYPE":"992","Class":"2"}},{"type":"Feature","id":17661,"geometry":{"type":"Point","coordinates":[120.85709405767145,23.528007465276289]},"properties":{"OBJECTID":17661,"LANDMARKID":"1000800000444","LANDMARKCO":"203","LANDMARKNA":"縣立神木國小","LANDMARKAD":"1000812","ADDRESS":"南投縣信義鄉神木村神木巷61號","TEL":"049-2701502","COUNTYNAME":"南投縣","TOWNNAME":"信義鄉","MARKTYPE":"992","Class":"2"}},{"type":"Feature","id":17662,"geometry":{"type":"Point","coordinates":[120.94352366994745,23.79399477097375]},"properties":{"OBJECTID":17662,"LANDMARKID":"1000800000445","LANDMARKCO":"203","LANDMARKNA":"縣立地利國小","LANDMARKAD":"1000812","ADDRESS":"南投縣信義鄉地利村開信巷17號","TEL":"049-2741254","COUNTYNAME":"南投縣","TOWNNAME":"信義鄉","MARKTYPE":"992","Class":"2"}},{"type":"Feature","id":17663,"geometry":{"type":"Point","coordinates":[120.92769480126266,23.562731730305291]},"properties":{"OBJECTID":17663,"LANDMARKID":"1000800000446","LANDMARKCO":"203","LANDMARKNA":"縣立東埔國小","LANDMARKAD":"1000812","ADDRESS":"南投縣信義鄉東埔村開高巷63號","TEL":"049-2701340","COUNTYNAME":"南投縣","TOWNNAME":"信義鄉","MARKTYPE":"992","Class":"2"}},{"type":"Feature","id":17664,"geometry":{"type":"Point","coordinates":[120.85639123036741,23.669777617537086]},"properties":{"OBJECTID":17664,"LANDMARKID":"1000800000447","LANDMARKCO":"203","LANDMARKNA":"縣立自強國小","LANDMARKAD":"1000812","ADDRESS":"南投縣信義鄉自強村陽和巷52號","TEL":"049-2791120","COUNTYNAME":"南投縣","TOWNNAME":"信義鄉","MARKTYPE":"992","Class":"2"}},{"type":"Feature","id":17665,"geometry":{"type":"Point","coordinates":[120.88562039036329,23.482447477448627]},"properties":{"OBJECTID":17665,"LANDMARKID":"1000800000567","LANDMARKCO":"303","LANDMARKNA":"上東埔停車場","LANDMARKAD":"1000812","ADDRESS":"南投縣信義鄉","TEL":" ","COUNTYNAME":"南投縣","TOWNNAME":"信義鄉","MARKTYPE":"993","Class":"303"}},{"type":"Feature","id":17666,"geometry":{"type":"Point","coordinates":[120.90719843639235,23.540409730477254]},"properties":{"OBJECTID":17666,"LANDMARKID":"1000800000568","LANDMARKCO":"303","LANDMARKNA":"烏乾停車場","LANDMARKAD":"1000812","ADDRESS":"南投縣信義鄉","TEL":" ","COUNTYNAME":"南投縣","TOWNNAME":"信義鄉","MARKTYPE":"993","Class":"303"}},{"type":"Feature","id":17667,"geometry":{"type":"Point","coordinates":[120.86717596171599,23.480457836489201]},"properties":{"OBJECTID":17667,"LANDMARKID":"1000800000569","LANDMARKCO":"303","LANDMARKNA":"鹿林山停車場","LANDMARKAD":"1000812","ADDRESS":"南投縣信義鄉","TEL":" ","COUNTYNAME":"南投縣","TOWNNAME":"信義鄉","MARKTYPE":"993","Class":"303"}},{"type":"Feature","id":17668,"geometry":{"type":"Point","coordinates":[120.97676982289774,23.488083316986216]},"properties":{"OBJECTID":17668,"LANDMARKID":"1000800000570","LANDMARKCO":"303","LANDMARKNA":"玉山國家公園管理處塔塔加中心停車場","LANDMARKAD":"1000812","ADDRESS":"南投縣信義鄉同富村太平巷118號","TEL":" ","COUNTYNAME":"南投縣","TOWNNAME":"信義鄉","MARKTYPE":"993","Class":"303"}},{"type":"Feature","id":17669,"geometry":{"type":"Point","coordinates":[120.87691794883945,23.565016600209749]},"properties":{"OBJECTID":17669,"LANDMARKID":"1000800001047","LANDMARKCO":"604","LANDMARKNA":"新高山夢想家","LANDMARKAD":"1000812","ADDRESS":"南投縣信義鄉同富村太平巷58號","TEL":"049-2702957","COUNTYNAME":"南投縣","TOWNNAME":"信義鄉","MARKTYPE":"996","Class":"6"}},{"type":"Feature","id":17670,"geometry":{"type":"Point","coordinates":[120.94013758946687,23.792562560343679]},"properties":{"OBJECTID":17670,"LANDMARKID":"1000800001048","LANDMARKCO":"604","LANDMARKNA":"岩石休閒民宿","LANDMARKAD":"1000812","ADDRESS":"南投縣信義鄉地利村開信7-2號","TEL":"049-2741100","COUNTYNAME":"南投縣","TOWNNAME":"信義鄉","MARKTYPE":"996","Class":"6"}},{"type":"Feature","id":17671,"geometry":{"type":"Point","coordinates":[120.92825068927793,23.561683287890148]},"properties":{"OBJECTID":17671,"LANDMARKID":"1000800001049","LANDMARKCO":"604","LANDMARKNA":"景祥溫泉民宿","LANDMARKAD":"1000812","ADDRESS":"南投縣信義鄉東埔村開高巷62號","TEL":"049-2702100","COUNTYNAME":"南投縣","TOWNNAME":"信義鄉","MARKTYPE":"996","Class":"6"}},{"type":"Feature","id":17672,"geometry":{"type":"Point","coordinates":[120.94763366027199,23.784181211438838]},"properties":{"OBJECTID":17672,"LANDMARKID":"1000800001050","LANDMARKCO":"604","LANDMARKNA":"雙龍客棧民宿","LANDMARKAD":"1000812","ADDRESS":"南投縣信義鄉雙龍村光復巷34-3號","TEL":"049-2742227","COUNTYNAME":"南投縣","TOWNNAME":"信義鄉","MARKTYPE":"996","Class":"6"}},{"type":"Feature","id":17673,"geometry":{"type":"Point","coordinates":[121.00833250329519,23.532882403065194]},"properties":{"OBJECTID":17673,"LANDMARKID":"1000800000841","LANDMARKCO":"503","LANDMARKNA":"東埔溫泉風景特定區","LANDMARKAD":"1000812","ADDRESS":"南投縣信義鄉","TEL":" ","COUNTYNAME":"南投縣","TOWNNAME":"信義鄉","MARKTYPE":"995","Class":"5"}},{"type":"Feature","id":17674,"geometry":{"type":"Point","coordinates":[120.91241227422356,23.572111434671264]},"properties":{"OBJECTID":17674,"LANDMARKID":"1000800000912","LANDMARKCO":"508","LANDMARKNA":"真和園溫泉小木屋","LANDMARKAD":"1000812","ADDRESS":"南投縣信義鄉東埔村開高巷125之2號","TEL":"049-2701588","COUNTYNAME":"南投縣","TOWNNAME":"信義鄉","MARKTYPE":"995","Class":"5"}},{"type":"Feature","id":17675,"geometry":{"type":"Point","coordinates":[120.89155907591169,23.592815558866228]},"properties":{"OBJECTID":17675,"LANDMARKID":"1000800000913","LANDMARKCO":"508","LANDMARKNA":"櫻泉溫泉會館","LANDMARKAD":"1000812","ADDRESS":"南投縣信義鄉東埔村開高巷153號","TEL":"049-2701188","COUNTYNAME":"南投縣","TOWNNAME":"信義鄉","MARKTYPE":"995","Class":"5"}},{"type":"Feature","id":17676,"geometry":{"type":"Point","coordinates":[120.92664974082183,23.56128922196929]},"properties":{"OBJECTID":17676,"LANDMARKID":"1000800000914","LANDMARKCO":"508","LANDMARKNA":"東埔帝綸溫泉飯店","LANDMARKAD":"1000812","ADDRESS":"南投縣信義鄉東埔村開高巷86號","TEL":"049-2701616","COUNTYNAME":"南投縣","TOWNNAME":"信義鄉","MARKTYPE":"995","Class":"5"}},{"type":"Feature","id":17677,"geometry":{"type":"Point","coordinates":[120.92731429823162,23.561280276396502]},"properties":{"OBJECTID":17677,"LANDMARKID":"1000800000915","LANDMARKCO":"508","LANDMARKNA":"東埔大飯店","LANDMARKAD":"1000812","ADDRESS":"南投縣信義鄉東埔村開高巷70之2號","TEL":"049-2701090","COUNTYNAME":"南投縣","TOWNNAME":"信義鄉","MARKTYPE":"995","Class":"5"}},{"type":"Feature","id":17678,"geometry":{"type":"Point","coordinates":[120.92745019543348,23.561270030213588]},"properties":{"OBJECTID":17678,"LANDMARKID":"1000800000916","LANDMARKCO":"508","LANDMARKNA":"沙里仙渡假大飯店","LANDMARKAD":"1000812","ADDRESS":"南投縣信義鄉東埔村開高巷74號","TEL":"049-2702988","COUNTYNAME":"南投縣","TOWNNAME":"信義鄉","MARKTYPE":"995","Class":"5"}},{"type":"Feature","id":17679,"geometry":{"type":"Point","coordinates":[120.92756504793022,23.561267240185099]},"properties":{"OBJECTID":17679,"LANDMARKID":"1000800000917","LANDMARKCO":"508","LANDMARKNA":"彩虹山莊","LANDMARKAD":"1000812","ADDRESS":"南投縣信義鄉東埔村開高巷75號","TEL":"049-2701125","COUNTYNAME":"南投縣","TOWNNAME":"信義鄉","MARKTYPE":"995","Class":"5"}},{"type":"Feature","id":17680,"geometry":{"type":"Point","coordinates":[120.92814687705783,23.561484990735057]},"properties":{"OBJECTID":17680,"LANDMARKID":"1000800000918","LANDMARKCO":"508","LANDMARKNA":"東光大飯店","LANDMARKAD":"1000812","ADDRESS":"南投縣信義鄉東埔村72之2號","TEL":"049-2701105","COUNTYNAME":"南投縣","TOWNNAME":"信義鄉","MARKTYPE":"995","Class":"5"}},{"type":"Feature","id":17681,"geometry":{"type":"Point","coordinates":[120.92444655765848,23.754642163357072]},"properties":{"OBJECTID":17681,"LANDMARKID":"1000800000843","LANDMARKCO":"503","LANDMARKNA":"小半天瀑布","LANDMARKAD":"1000812","ADDRESS":"南投縣信義鄉","TEL":" ","COUNTYNAME":"南投縣","TOWNNAME":"信義鄉","MARKTYPE":"995","Class":"5"}},{"type":"Feature","id":17682,"geometry":{"type":"Point","coordinates":[120.96579322319035,23.754545603004114]},"properties":{"OBJECTID":17682,"LANDMARKID":"1000800000844","LANDMARKCO":"503","LANDMARKNA":"木瓜坑瀑布","LANDMARKAD":"1000812","ADDRESS":"南投縣信義鄉","TEL":" ","COUNTYNAME":"南投縣","TOWNNAME":"信義鄉","MARKTYPE":"995","Class":"5"}},{"type":"Feature","id":17683,"geometry":{"type":"Point","coordinates":[121.05086110547614,23.602703422521412]},"properties":{"OBJECTID":17683,"LANDMARKID":"1000800000845","LANDMARKCO":"503","LANDMARKNA":"彩虹瀑布","LANDMARKAD":"1000812","ADDRESS":"南投縣信義鄉","TEL":" ","COUNTYNAME":"南投縣","TOWNNAME":"信義鄉","MARKTYPE":"995","Class":"5"}},{"type":"Feature","id":17684,"geometry":{"type":"Point","coordinates":[121.07627795632835,23.563210464627602]},"properties":{"OBJECTID":17684,"LANDMARKID":"1000800000846","LANDMARKCO":"503","LANDMARKNA":"雲龍瀑布","LANDMARKAD":"1000812","ADDRESS":"南投縣信義鄉","TEL":" ","COUNTYNAME":"南投縣","TOWNNAME":"信義鄉","MARKTYPE":"995","Class":"5"}},{"type":"Feature","id":17685,"geometry":{"type":"Point","coordinates":[121.08127926149739,23.552905616133323]},"properties":{"OBJECTID":17685,"LANDMARKID":"1000800000847","LANDMARKCO":"503","LANDMARKNA":"乙女瀑布","LANDMARKAD":"1000812","ADDRESS":"南投縣信義鄉","TEL":" ","COUNTYNAME":"南投縣","TOWNNAME":"信義鄉","MARKTYPE":"995","Class":"5"}},{"type":"Feature","id":17686,"geometry":{"type":"Point","coordinates":[120.89008825392837,23.48662093912748]},"properties":{"OBJECTID":17686,"LANDMARKID":"1000800000848","LANDMARKCO":"503","LANDMARKNA":"塔塔加遊憩區","LANDMARKAD":"1000812","ADDRESS":"南投縣信義鄉","TEL":" ","COUNTYNAME":"南投縣","TOWNNAME":"信義鄉","MARKTYPE":"995","Class":"5"}},{"type":"Feature","id":17687,"geometry":{"type":"Point","coordinates":[120.95727086277257,23.469990156842734]},"properties":{"OBJECTID":17687,"LANDMARKID":"1000800000944","LANDMARKCO":"513","LANDMARKNA":"玉山","LANDMARKAD":"1000812","ADDRESS":"南投縣信義鄉","TEL":" ","COUNTYNAME":"南投縣","TOWNNAME":"信義鄉","MARKTYPE":"995","Class":"5"}},{"type":"Feature","id":17688,"geometry":{"type":"Point","coordinates":[120.95967363731691,23.48743732259268]},"properties":{"OBJECTID":17688,"LANDMARKID":"1000800000945","LANDMARKCO":"513","LANDMARKNA":"玉山北峰","LANDMARKAD":"1000812","ADDRESS":"南投縣信義鄉","TEL":" ","COUNTYNAME":"南投縣","TOWNNAME":"信義鄉","MARKTYPE":"995","Class":"5"}},{"type":"Feature","id":17689,"geometry":{"type":"Point","coordinates":[121.06724150596759,23.520324284784955]},"properties":{"OBJECTID":17689,"LANDMARKID":"1000800000946","LANDMARKCO":"513","LANDMARKNA":"馬博拉斯山","LANDMARKAD":"1000812","ADDRESS":"南投縣信義鄉","TEL":" ","COUNTYNAME":"南投縣","TOWNNAME":"信義鄉","MARKTYPE":"995","Class":"5"}},{"type":"Feature","id":17690,"geometry":{"type":"Point","coordinates":[121.038622110284,23.473836580585438]},"properties":{"OBJECTID":17690,"LANDMARKID":"1000800000947","LANDMARKCO":"513","LANDMARKNA":"大水窟山","LANDMARKAD":"1000812","ADDRESS":"南投縣信義鄉","TEL":" ","COUNTYNAME":"南投縣","TOWNNAME":"信義鄉","MARKTYPE":"995","Class":"5"}},{"type":"Feature","id":17691,"geometry":{"type":"Point","coordinates":[121.09209363281882,23.62672390549616]},"properties":{"OBJECTID":17691,"LANDMARKID":"1000800000948","LANDMARKCO":"513","LANDMARKNA":"東郡大山","LANDMARKAD":"1000812","ADDRESS":"南投縣信義鄉","TEL":" ","COUNTYNAME":"南投縣","TOWNNAME":"信義鄉","MARKTYPE":"995","Class":"5"}},{"type":"Feature","id":17692,"geometry":{"type":"Point","coordinates":[121.00959678532647,23.490177707914938]},"properties":{"OBJECTID":17692,"LANDMARKID":"1000800000949","LANDMARKCO":"513","LANDMARKNA":"八通關山","LANDMARKAD":"1000812","ADDRESS":"南投縣信義鄉","TEL":" ","COUNTYNAME":"南投縣","TOWNNAME":"信義鄉","MARKTYPE":"995","Class":"5"}},{"type":"Feature","id":17693,"geometry":{"type":"Point","coordinates":[121.08157103345764,23.64865485413425]},"properties":{"OBJECTID":17693,"LANDMARKID":"1000800000950","LANDMARKCO":"513","LANDMARKNA":"東巒大山","LANDMARKAD":"1000812","ADDRESS":"南投縣信義鄉","TEL":" ","COUNTYNAME":"南投縣","TOWNNAME":"信義鄉","MARKTYPE":"995","Class":"5"}},{"type":"Feature","id":17694,"geometry":{"type":"Point","coordinates":[120.96237024854037,23.57735268117646]},"properties":{"OBJECTID":17694,"LANDMARKID":"1000800000951","LANDMARKCO":"513","LANDMARKNA":"郡大山","LANDMARKAD":"1000812","ADDRESS":"南投縣信義鄉","TEL":" ","COUNTYNAME":"南投縣","TOWNNAME":"信義鄉","MARKTYPE":"995","Class":"5"}},{"type":"Feature","id":17695,"geometry":{"type":"Point","coordinates":[121.18553389357184,23.851864553334476]},"properties":{"OBJECTID":17695,"LANDMARKID":"1000800000952","LANDMARKCO":"513","LANDMARKNA":"萬東山西峰","LANDMARKAD":"1000812","ADDRESS":"南投縣信義鄉","TEL":" ","COUNTYNAME":"南投縣","TOWNNAME":"信義鄉","MARKTYPE":"995","Class":"5"}},{"type":"Feature","id":17696,"geometry":{"type":"Point","coordinates":[121.05731352360475,23.59093566515071]},"properties":{"OBJECTID":17696,"LANDMARKID":"1000800000953","LANDMARKCO":"513","LANDMARKNA":"無雙山","LANDMARKAD":"1000812","ADDRESS":"南投縣信義鄉","TEL":" ","COUNTYNAME":"南投縣","TOWNNAME":"信義鄉","MARKTYPE":"995","Class":"5"}},{"type":"Feature","id":17697,"geometry":{"type":"Point","coordinates":[121.01308227859835,23.489798077752052]},"properties":{"OBJECTID":17697,"LANDMARKID":"1000800000954","LANDMARKCO":"513","LANDMARKNA":"尖山","LANDMARKAD":"1000812","ADDRESS":"南投縣信義鄉","TEL":" ","COUNTYNAME":"南投縣","TOWNNAME":"信義鄉","MARKTYPE":"995","Class":"5"}},{"type":"Feature","id":17698,"geometry":{"type":"Point","coordinates":[121.03253203769069,23.548374558899074]},"properties":{"OBJECTID":17698,"LANDMARKID":"1000800000955","LANDMARKCO":"513","LANDMARKNA":"駒盆山","LANDMARKAD":"1000812","ADDRESS":"南投縣信義鄉","TEL":" ","COUNTYNAME":"南投縣","TOWNNAME":"信義鄉","MARKTYPE":"995","Class":"5"}},{"type":"Feature","id":17699,"geometry":{"type":"Point","coordinates":[120.94716759852223,23.694009929403496]},"properties":{"OBJECTID":17699,"LANDMARKID":"1000800000956","LANDMARKCO":"513","LANDMARKNA":"巒大山","LANDMARKAD":"1000812","ADDRESS":"南投縣信義鄉","TEL":" ","COUNTYNAME":"南投縣","TOWNNAME":"信義鄉","MARKTYPE":"995","Class":"5"}},{"type":"Feature","id":17700,"geometry":{"type":"Point","coordinates":[120.85486467210798,24.672253933231016]},"properties":{"OBJECTID":17700,"LANDMARKID":"1000500000651","LANDMARKCO":"405","LANDMARKNA":"中油加油站-百路達站(中油直營)","LANDMARKAD":"1000504","ADDRESS":"苗栗縣竹南鎮海口里21鄰海口366號","TEL":"03-7550890","COUNTYNAME":"苗栗縣","TOWNNAME":"竹南鎮","MARKTYPE":"994","Class":"4"}},{"type":"Feature","id":17701,"geometry":{"type":"Point","coordinates":[120.86734586756623,24.706519441615821]},"properties":{"OBJECTID":17701,"LANDMARKID":"1000500000652","LANDMARKCO":"405","LANDMARKNA":"中油加油站-皇家站","LANDMARKAD":"1000504","ADDRESS":"苗栗縣竹南鎮崎頂里青草50-6號","TEL":"03-7476111","COUNTYNAME":"苗栗縣","TOWNNAME":"竹南鎮","MARKTYPE":"994","Class":"4"}},{"type":"Feature","id":17702,"geometry":{"type":"Point","coordinates":[120.87617886909864,24.660726688561596]},"properties":{"OBJECTID":17702,"LANDMARKID":"1000500000653","LANDMARKCO":"405","LANDMARKNA":"中油加油站-來來站","LANDMARKAD":"1000504","ADDRESS":"苗栗縣竹南鎮公館里公館仔65號","TEL":"03-7634224","COUNTYNAME":"苗栗縣","TOWNNAME":"竹南鎮","MARKTYPE":"994","Class":"4"}},{"type":"Feature","id":17703,"geometry":{"type":"Point","coordinates":[120.87294584651247,24.691967831640532]},"properties":{"OBJECTID":17703,"LANDMARKID":"1000500000654","LANDMARKCO":"405","LANDMARKNA":"中油加油站-正達站","LANDMARKAD":"1000504","ADDRESS":"苗栗縣竹南鎮聖福里龍天路2號","TEL":"03-7550160","COUNTYNAME":"苗栗縣","TOWNNAME":"竹南鎮","MARKTYPE":"994","Class":"4"}},{"type":"Feature","id":17704,"geometry":{"type":"Point","coordinates":[120.90615290674472,24.739012432741141]},"properties":{"OBJECTID":17704,"LANDMARKID":"1000500000655","LANDMARKCO":"405","LANDMARKNA":"中油加油站-光美站","LANDMARKAD":"1000504","ADDRESS":"苗栗縣竹南鎮公義路2433之11號","TEL":"037-580585","COUNTYNAME":"苗栗縣","TOWNNAME":"竹南鎮","MARKTYPE":"994","Class":"4"}},{"type":"Feature","id":17705,"geometry":{"type":"Point","coordinates":[120.90616269870196,24.738908645949081]},"properties":{"OBJECTID":17705,"LANDMARKID":"1000500000656","LANDMARKCO":"405","LANDMARKNA":"中油加油站-光騏站","LANDMARKAD":"1000504","ADDRESS":"苗栗縣竹南鎮公義路2433-10號","TEL":"037-582188","COUNTYNAME":"苗栗縣","TOWNNAME":"竹南鎮","MARKTYPE":"994","Class":"4"}},{"type":"Feature","id":17706,"geometry":{"type":"Point","coordinates":[120.86588066280218,24.688830645114727]},"properties":{"OBJECTID":17706,"LANDMARKID":"1000500000657","LANDMARKCO":"405","LANDMARKNA":"中油加油站-國利站(中油直營)","LANDMARKAD":"1000504","ADDRESS":"苗栗縣竹南鎮竹興里博愛街869號","TEL":"037-481165","COUNTYNAME":"苗栗縣","TOWNNAME":"竹南鎮","MARKTYPE":"994","Class":"4"}},{"type":"Feature","id":17707,"geometry":{"type":"Point","coordinates":[120.87235002729946,24.68366681978187]},"properties":{"OBJECTID":17707,"LANDMARKID":"1000500000658","LANDMARKCO":"405","LANDMARKNA":"中油加油站-中正路站","LANDMARKAD":"1000504","ADDRESS":"苗栗縣竹南鎮中正路120號","TEL":"037-463428","COUNTYNAME":"苗栗縣","TOWNNAME":"竹南鎮","MARKTYPE":"994","Class":"4"}},{"type":"Feature","id":17708,"geometry":{"type":"Point","coordinates":[120.89050915320665,24.704963891554932]},"properties":{"OBJECTID":17708,"LANDMARKID":"1000500000659","LANDMARKCO":"405","LANDMARKNA":"中油加油站-大埔站","LANDMARKAD":"1000504","ADDRESS":"苗栗縣竹南鎮大埔里公義路498號","TEL":"037-581762","COUNTYNAME":"苗栗縣","TOWNNAME":"竹南鎮","MARKTYPE":"994","Class":"4"}},{"type":"Feature","id":17709,"geometry":{"type":"Point","coordinates":[120.88348765978999,24.684775177601093]},"properties":{"OBJECTID":17709,"LANDMARKID":"1000500000660","LANDMARKCO":"405","LANDMARKNA":"中油加油站-竹南站(中油直營)","LANDMARKAD":"1000504","ADDRESS":"苗栗縣竹南鎮東平路101號","TEL":"037-624865","COUNTYNAME":"苗栗縣","TOWNNAME":"竹南鎮","MARKTYPE":"994","Class":"4"}},{"type":"Feature","id":17710,"geometry":{"type":"Point","coordinates":[120.88879757907439,24.704378052626968]},"properties":{"OBJECTID":17710,"LANDMARKID":"1000500000661","LANDMARKCO":"405","LANDMARKNA":"中油加油站-興昌加油站(中油直營)","LANDMARKAD":"1000504","ADDRESS":"苗栗縣竹南鎮公義路485號","TEL":" ","COUNTYNAME":"苗栗縣","TOWNNAME":"竹南鎮","MARKTYPE":"994","Class":"4"}},{"type":"Feature","id":17711,"geometry":{"type":"Point","coordinates":[120.90687860509341,24.729651885354453]},"properties":{"OBJECTID":17711,"LANDMARKID":"1000500000662","LANDMARKCO":"405","LANDMARKNA":"中油加油站-必勝站","LANDMARKAD":"1000504","ADDRESS":"苗栗縣竹南鎮公義路2000號","TEL":"037-582611","COUNTYNAME":"苗栗縣","TOWNNAME":"竹南鎮","MARKTYPE":"994","Class":"4"}},{"type":"Feature","id":17712,"geometry":{"type":"Point","coordinates":[120.86618279710092,24.673350099558494]},"properties":{"OBJECTID":17712,"LANDMARKID":"1000500000663","LANDMARKCO":"405","LANDMARKNA":"中油加油站-萬里達站","LANDMARKAD":"1000504","ADDRESS":"苗栗縣竹南鎮全天路99號","TEL":"037-469995","COUNTYNAME":"苗栗縣","TOWNNAME":"竹南鎮","MARKTYPE":"994","Class":"4"}},{"type":"Feature","id":17713,"geometry":{"type":"Point","coordinates":[120.87378230993762,24.659019375863437]},"properties":{"OBJECTID":17713,"LANDMARKID":"1000500000664","LANDMARKCO":"405","LANDMARKNA":"中油加油站-龍安站","LANDMARKAD":"1000504","ADDRESS":"苗栗縣竹南鎮公館里大埔頂5-1號","TEL":"03-7626752","COUNTYNAME":"苗栗縣","TOWNNAME":"竹南鎮","MARKTYPE":"994","Class":"4"}},{"type":"Feature","id":17714,"geometry":{"type":"Point","coordinates":[120.8755521408775,24.686976496452239]},"properties":{"OBJECTID":17714,"LANDMARKID":"1000500000570","LANDMARKCO":"402","LANDMARKNA":"My Phone台灣大哥大-竹南博愛直營服務中心","LANDMARKAD":"1000504","ADDRESS":"苗栗縣竹南鎮博愛街142號","TEL":"0809-000166","COUNTYNAME":"苗栗縣","TOWNNAME":"竹南鎮","MARKTYPE":"994","Class":"4"}},{"type":"Feature","id":17715,"geometry":{"type":"Point","coordinates":[120.87852290864727,24.686205643283504]},"properties":{"OBJECTID":17715,"LANDMARKID":"1000500000571","LANDMARKCO":"402","LANDMARKNA":"亞太行動寬頻電信-苗栗縣","LANDMARKAD":"1000504","ADDRESS":"苗栗縣竹南鎮民族街94-1號","TEL":" ","COUNTYNAME":"苗栗縣","TOWNNAME":"竹南鎮","MARKTYPE":"994","Class":"4"}},{"type":"Feature","id":17716,"geometry":{"type":"Point","coordinates":[120.87515213678147,24.686978164245794]},"properties":{"OBJECTID":17716,"LANDMARKID":"1000500000572","LANDMARKCO":"402","LANDMARKNA":"亞太行動寬頻電信-竹南博愛加盟服務中心","LANDMARKAD":"1000504","ADDRESS":"苗栗縣竹南鎮博愛街156號","TEL":"037-478978","COUNTYNAME":"苗栗縣","TOWNNAME":"竹南鎮","MARKTYPE":"994","Class":"4"}},{"type":"Feature","id":17717,"geometry":{"type":"Point","coordinates":[120.87947034853615,24.684697246805182]},"properties":{"OBJECTID":17717,"LANDMARKID":"1000500000568","LANDMARKCO":"401","LANDMARKNA":"慈祐醫院","LANDMARKAD":"1000504","ADDRESS":"苗栗縣竹南鎮民治街17號","TEL":"037-474029","COUNTYNAME":"苗栗縣","TOWNNAME":"竹南鎮","MARKTYPE":"994","Class":"4"}},{"type":"Feature","id":17718,"geometry":{"type":"Point","coordinates":[120.87958264469997,24.690746687592306]},"properties":{"OBJECTID":17718,"LANDMARKID":"1000500000569","LANDMARKCO":"401","LANDMARKNA":"大眾醫院","LANDMARKAD":"1000504","ADDRESS":"苗栗縣竹南鎮光復路304號","TEL":"037-551479","COUNTYNAME":"苗栗縣","TOWNNAME":"竹南鎮","MARKTYPE":"994","Class":"4"}},{"type":"Feature","id":17719,"geometry":{"type":"Point","coordinates":[120.86393923020719,24.682541157873228]},"properties":{"OBJECTID":17719,"LANDMARKID":"1000500000817","LANDMARKCO":"507","LANDMARKNA":"中港慈祐宮","LANDMARKAD":"1000504","ADDRESS":"苗栗縣竹南鎮中美里民生路7號","TEL":" ","COUNTYNAME":"苗栗縣","TOWNNAME":"竹南鎮","MARKTYPE":"995","Class":"5"}},{"type":"Feature","id":17720,"geometry":{"type":"Point","coordinates":[120.87854533909915,24.686079699552295]},"properties":{"OBJECTID":17720,"LANDMARKID":"1000500000739","LANDMARKCO":"408","LANDMARKNA":"郵局-竹南郵局","LANDMARKAD":"1000504","ADDRESS":"苗栗縣竹南鎮民族街86號","TEL":"(037)472-634","COUNTYNAME":"苗栗縣","TOWNNAME":"竹南鎮","MARKTYPE":"994","Class":"4"}},{"type":"Feature","id":17721,"geometry":{"type":"Point","coordinates":[120.86727375005957,24.683569613997502]},"properties":{"OBJECTID":17721,"LANDMARKID":"1000500000740","LANDMARKCO":"408","LANDMARKNA":"郵局-竹南中港郵局","LANDMARKAD":"1000504","ADDRESS":"苗栗縣竹南鎮中正路244號","TEL":"(037)463-654","COUNTYNAME":"苗栗縣","TOWNNAME":"竹南鎮","MARKTYPE":"994","Class":"4"}},{"type":"Feature","id":17722,"geometry":{"type":"Point","coordinates":[120.92369602080095,24.709939833022979]},"properties":{"OBJECTID":17722,"LANDMARKID":"1000500000741","LANDMARKCO":"408","LANDMARKNA":"郵局-竹南頂埔郵局","LANDMARKAD":"1000504","ADDRESS":"苗栗縣竹南鎮中華路129號","TEL":"(037)671-644","COUNTYNAME":"苗栗縣","TOWNNAME":"竹南鎮","MARKTYPE":"994","Class":"4"}},{"type":"Feature","id":17723,"geometry":{"type":"Point","coordinates":[120.87964341815666,24.691577582902426]},"properties":{"OBJECTID":17723,"LANDMARKID":"1000500000742","LANDMARKCO":"408","LANDMARKNA":"郵局-竹南照南郵局","LANDMARKAD":"1000504","ADDRESS":"苗栗縣竹南鎮光復路352號","TEL":"(037)479-634","COUNTYNAME":"苗栗縣","TOWNNAME":"竹南鎮","MARKTYPE":"994","Class":"4"}},{"type":"Feature","id":17724,"geometry":{"type":"Point","coordinates":[120.87290602244522,24.684297657043771]},"properties":{"OBJECTID":17724,"LANDMARKID":"1000500000776","LANDMARKCO":"409","LANDMARKNA":"竹南鎮農會","LANDMARKAD":"1000504","ADDRESS":"苗栗縣竹南鎮大營路93號","TEL":"037-47963","COUNTYNAME":"苗栗縣","TOWNNAME":"竹南鎮","MARKTYPE":"994","Class":"4"}},{"type":"Feature","id":17725,"geometry":{"type":"Point","coordinates":[120.8892987741032,24.689027881847974]},"properties":{"OBJECTID":17725,"LANDMARKID":"1000500000714","LANDMARKCO":"406","LANDMARKNA":"綜合運動場公園","LANDMARKAD":"1000504","ADDRESS":"苗栗縣竹南鎮","TEL":" ","COUNTYNAME":"苗栗縣","TOWNNAME":"竹南鎮","MARKTYPE":"994","Class":"4"}},{"type":"Feature","id":17726,"geometry":{"type":"Point","coordinates":[120.87803582664802,24.686109799205266]},"properties":{"OBJECTID":17726,"LANDMARKID":"1000500000715","LANDMARKCO":"406","LANDMARKNA":"長春公園","LANDMARKAD":"1000504","ADDRESS":"苗栗縣竹南鎮","TEL":" ","COUNTYNAME":"苗栗縣","TOWNNAME":"竹南鎮","MARKTYPE":"994","Class":"4"}},{"type":"Feature","id":17727,"geometry":{"type":"Point","coordinates":[120.87060264443402,24.684848303386779]},"properties":{"OBJECTID":17727,"LANDMARKID":"1000500000716","LANDMARKCO":"406","LANDMARKNA":"博愛公園","LANDMARKAD":"1000504","ADDRESS":"苗栗縣竹南鎮","TEL":" ","COUNTYNAME":"苗栗縣","TOWNNAME":"竹南鎮","MARKTYPE":"994","Class":"4"}},{"type":"Feature","id":17728,"geometry":{"type":"Point","coordinates":[120.87810993432312,24.686908183087613]},"properties":{"OBJECTID":17728,"LANDMARKID":"1000500000722","LANDMARKCO":"407","LANDMARKNA":"三商百貨","LANDMARKAD":"1000504","ADDRESS":"苗栗縣竹南鎮博愛街64號","TEL":"037-479143","COUNTYNAME":"苗栗縣","TOWNNAME":"竹南鎮","MARKTYPE":"994","Class":"4"}},{"type":"Feature","id":17729,"geometry":{"type":"Point","coordinates":[120.86668583627211,24.7119374373192]},"properties":{"OBJECTID":17729,"LANDMARKID":"1000500000649","LANDMARKCO":"405","LANDMARKNA":"台塑加油站-南海站(台塑)","LANDMARKAD":"1000504","ADDRESS":"苗栗縣竹南鎮崎頂里一鄰天祥街二段551號","TEL":"03-7481118","COUNTYNAME":"苗栗縣","TOWNNAME":"竹南鎮","MARKTYPE":"994","Class":"4"}},{"type":"Feature","id":17730,"geometry":{"type":"Point","coordinates":[120.92218730056366,24.715015543524824]},"properties":{"OBJECTID":17730,"LANDMARKID":"1000500000650","LANDMARKCO":"405","LANDMARKNA":"台塑加油站-竹苗站(台塑)","LANDMARKAD":"1000504","ADDRESS":"苗栗縣竹南鎮中華路378號","TEL":"03-7672288","COUNTYNAME":"苗栗縣","TOWNNAME":"竹南鎮","MARKTYPE":"994","Class":"4"}},{"type":"Feature","id":17731,"geometry":{"type":"Point","coordinates":[120.88053246337499,24.71025030507187]},"properties":{"OBJECTID":17731,"LANDMARKID":"1000500000001","LANDMARKCO":"101","LANDMARKNA":"工業局頭份兼竹南及銅鑼工業區","LANDMARKAD":"1000504","ADDRESS":"苗栗縣頭份鎮自強路二段166號","TEL":"037-625504","COUNTYNAME":"苗栗縣","TOWNNAME":"竹南鎮","MARKTYPE":"991","Class":"1"}},{"type":"Feature","id":17732,"geometry":{"type":"Point","coordinates":[120.87538996075796,24.682887160127699]},"properties":{"OBJECTID":17732,"LANDMARKID":"1000500000063","LANDMARKCO":"104","LANDMARKNA":"中區國稅局竹南稽徵所","LANDMARKAD":"1000504","ADDRESS":"苗栗縣竹南鎮福德路135號3樓","TEL":"037-460597","COUNTYNAME":"苗栗縣","TOWNNAME":"竹南鎮","MARKTYPE":"991","Class":"1"}},{"type":"Feature","id":17733,"geometry":{"type":"Point","coordinates":[120.87329453726646,24.684511165892111]},"properties":{"OBJECTID":17733,"LANDMARKID":"1000500000082","LANDMARKCO":"106","LANDMARKNA":"苗栗縣竹南鎮戶政事務所","LANDMARKAD":"1000504","ADDRESS":"苗栗縣竹南鎮正南里5鄰中正路110號","TEL":"037-475945","COUNTYNAME":"苗栗縣","TOWNNAME":"竹南鎮","MARKTYPE":"991","Class":"1"}},{"type":"Feature","id":17734,"geometry":{"type":"Point","coordinates":[120.86658526321646,24.682881692138068]},"properties":{"OBJECTID":17734,"LANDMARKID":"1000500000130","LANDMARKCO":"107","LANDMARKNA":"苗栗縣警察局中港派出所","LANDMARKAD":"1000504","ADDRESS":"苗栗縣竹南鎮中正路477號","TEL":"037-470314","COUNTYNAME":"苗栗縣","TOWNNAME":"竹南鎮","MARKTYPE":"991","Class":"1"}},{"type":"Feature","id":17735,"geometry":{"type":"Point","coordinates":[120.89743461138636,24.709899588166426]},"properties":{"OBJECTID":17735,"LANDMARKID":"1000500000131","LANDMARKCO":"107","LANDMARKNA":"苗栗縣警察局大同派出所","LANDMARKAD":"1000504","ADDRESS":"苗栗縣竹南鎮大埔里公義路931號","TEL":"037-581712","COUNTYNAME":"苗栗縣","TOWNNAME":"竹南鎮","MARKTYPE":"991","Class":"1"}},{"type":"Feature","id":17736,"geometry":{"type":"Point","coordinates":[120.87852028838742,24.685418054365403]},"properties":{"OBJECTID":17736,"LANDMARKID":"1000500000132","LANDMARKCO":"107","LANDMARKNA":"苗栗縣消防局竹南消防分隊","LANDMARKAD":"1000504","ADDRESS":"苗栗縣竹南鎮博愛街785號","TEL":"037-472061","COUNTYNAME":"苗栗縣","TOWNNAME":"竹南鎮","MARKTYPE":"991","Class":"1"}},{"type":"Feature","id":17737,"geometry":{"type":"Point","coordinates":[120.87253899628055,24.688121386010724]},"properties":{"OBJECTID":17737,"LANDMARKID":"1000500000052","LANDMARKCO":"103","LANDMARKNA":"苗栗縣竹南鎮衛生所","LANDMARKAD":"1000504","ADDRESS":"苗栗縣竹南鎮營盤里大營路209號","TEL":"037-470152","COUNTYNAME":"苗栗縣","TOWNNAME":"竹南鎮","MARKTYPE":"991","Class":"1"}},{"type":"Feature","id":17738,"geometry":{"type":"Point","coordinates":[120.87344422314808,24.683789117641215]},"properties":{"OBJECTID":17738,"LANDMARKID":"1000500000200","LANDMARKCO":"108","LANDMARKNA":"苗栗縣竹南鎮公所","LANDMARKAD":"1000504","ADDRESS":"苗栗縣竹南鎮正南里23鄰中正路112號","TEL":"037-462101","COUNTYNAME":"苗栗縣","TOWNNAME":"竹南鎮","MARKTYPE":"991","Class":"1"}},{"type":"Feature","id":17739,"geometry":{"type":"Point","coordinates":[120.8727155918332,24.688753698719417]},"properties":{"OBJECTID":17739,"LANDMARKID":"1000500000053","LANDMARKCO":"103","LANDMARKNA":"苗栗縣竹南鎮民代表會","LANDMARKAD":"1000504","ADDRESS":"苗栗縣竹南鎮大營路98號","TEL":"037-462830","COUNTYNAME":"苗栗縣","TOWNNAME":"竹南鎮","MARKTYPE":"991","Class":"1"}},{"type":"Feature","id":17740,"geometry":{"type":"Point","coordinates":[120.87590441993049,24.683971460653748]},"properties":{"OBJECTID":17740,"LANDMARKID":"1000500000068","LANDMARKCO":"105","LANDMARKNA":"苗栗縣竹南地政事務所","LANDMARKAD":"1000504","ADDRESS":"苗栗縣竹南鎮正南里中正路96號","TEL":"037-468860","COUNTYNAME":"苗栗縣","TOWNNAME":"竹南鎮","MARKTYPE":"991","Class":"1"}},{"type":"Feature","id":17741,"geometry":{"type":"Point","coordinates":[120.88531079614982,24.716031719427583]},"properties":{"OBJECTID":17741,"LANDMARKID":"1000500000002","LANDMARKCO":"101","LANDMARKNA":"水利署水利規劃試驗所","LANDMARKAD":"1000504","ADDRESS":"苗栗縣竹南鎮崎頂里13鄰12號之10","TEL":"037-584514","COUNTYNAME":"苗栗縣","TOWNNAME":"竹南鎮","MARKTYPE":"991","Class":"1"}},{"type":"Feature","id":17742,"geometry":{"type":"Point","coordinates":[120.86683397407346,24.711320147408014]},"properties":{"OBJECTID":17742,"LANDMARKID":"1000500000003","LANDMARKCO":"101","LANDMARKNA":"農業委員會家畜衛生試驗所","LANDMARKAD":"1000504","ADDRESS":"苗栗縣竹南鎮崎頂里牧場21號","TEL":"037-584811","COUNTYNAME":"苗栗縣","TOWNNAME":"竹南鎮","MARKTYPE":"991","Class":"1"}},{"type":"Feature","id":17743,"geometry":{"type":"Point","coordinates":[120.86041885240373,24.699116273795052]},"properties":{"OBJECTID":17743,"LANDMARKID":"1000500000051","LANDMARKCO":"103","LANDMARKNA":"龍鳳漁港管理站","LANDMARKAD":"1000504","ADDRESS":"苗栗縣竹南鎮龍鳳里10鄰海埔39號","TEL":"037-464122","COUNTYNAME":"苗栗縣","TOWNNAME":"竹南鎮","MARKTYPE":"991","Class":"1"}},{"type":"Feature","id":17744,"geometry":{"type":"Point","coordinates":[120.87852098919592,24.685056904947444]},"properties":{"OBJECTID":17744,"LANDMARKID":"1000500000133","LANDMARKCO":"107","LANDMARKNA":"苗栗縣警察局竹南分局","LANDMARKAD":"1000504","ADDRESS":"苗栗縣竹南鎮民族街72號","TEL":"037-472029","COUNTYNAME":"苗栗縣","TOWNNAME":"竹南鎮","MARKTYPE":"991","Class":"1"}},{"type":"Feature","id":17745,"geometry":{"type":"Point","coordinates":[120.86159037582786,24.679083117802527]},"properties":{"OBJECTID":17745,"LANDMARKID":"1000500000134","LANDMARKCO":"107","LANDMARKNA":"苗栗縣警察局海口派出所","LANDMARKAD":"1000504","ADDRESS":"苗栗縣竹南鎮海口里6鄰62之12號","TEL":"037-460684","COUNTYNAME":"苗栗縣","TOWNNAME":"竹南鎮","MARKTYPE":"991","Class":"1"}},{"type":"Feature","id":17746,"geometry":{"type":"Point","coordinates":[120.87852098919592,24.685056904947444]},"properties":{"OBJECTID":17746,"LANDMARKID":"1000500000135","LANDMARKCO":"107","LANDMARKNA":"苗栗縣警察局竹南派出所","LANDMARKAD":"1000504","ADDRESS":"苗栗縣竹南鎮民族街72號","TEL":"037-474796","COUNTYNAME":"苗栗縣","TOWNNAME":"竹南鎮","MARKTYPE":"991","Class":"1"}},{"type":"Feature","id":17747,"geometry":{"type":"Point","coordinates":[120.87855981671089,24.685418117940724]},"properties":{"OBJECTID":17747,"LANDMARKID":"1000500000136","LANDMARKCO":"107","LANDMARKNA":"苗栗縣消防局第二消防大隊","LANDMARKAD":"1000504","ADDRESS":"苗栗縣竹南博愛街785號","TEL":"037-472061","COUNTYNAME":"苗栗縣","TOWNNAME":"竹南鎮","MARKTYPE":"991","Class":"1"}},{"type":"Feature","id":17748,"geometry":{"type":"Point","coordinates":[120.87395267023514,24.683830390464703]},"properties":{"OBJECTID":17748,"LANDMARKID":"1000500000397","LANDMARKCO":"204","LANDMARKNA":"苗栗縣立圖書館竹南萬春分館","LANDMARKAD":"1000504","ADDRESS":"苗栗縣竹南鎮中正路108號","TEL":" ","COUNTYNAME":"苗栗縣","TOWNNAME":"竹南鎮","MARKTYPE":"992","Class":"2"}},{"type":"Feature","id":17749,"geometry":{"type":"Point","coordinates":[120.88580212004931,24.689309413830216]},"properties":{"OBJECTID":17749,"LANDMARKID":"1000500000398","LANDMARKCO":"204","LANDMARKNA":"苗栗縣立圖書館李科永紀念分館","LANDMARKAD":"1000504","ADDRESS":"苗栗縣竹南鎮正南里永貞路二段196號","TEL":" ","COUNTYNAME":"苗栗縣","TOWNNAME":"竹南鎮","MARKTYPE":"992","Class":"2"}},{"type":"Feature","id":17750,"geometry":{"type":"Point","coordinates":[120.87414292597947,24.68523489348194]},"properties":{"OBJECTID":17750,"LANDMARKID":"1000500000215","LANDMARKCO":"202","LANDMARKNA":"國立竹南高中","LANDMARKAD":"1000504","ADDRESS":"苗栗縣竹南鎮中正路98號","TEL":"037-471474","COUNTYNAME":"苗栗縣","TOWNNAME":"竹南鎮","MARKTYPE":"992","Class":"2"}},{"type":"Feature","id":17751,"geometry":{"type":"Point","coordinates":[120.88347872660448,24.700318915489813]},"properties":{"OBJECTID":17751,"LANDMARKID":"1000500000216","LANDMARKCO":"202","LANDMARKNA":"私立君毅高中","LANDMARKAD":"1000504","ADDRESS":"苗栗縣竹南鎮公義路245號","TEL":"037-622009","COUNTYNAME":"苗栗縣","TOWNNAME":"竹南鎮","MARKTYPE":"992","Class":"2"}},{"type":"Feature","id":17752,"geometry":{"type":"Point","coordinates":[120.87219256446062,24.688394049419564]},"properties":{"OBJECTID":17752,"LANDMARKID":"1000500000217","LANDMARKCO":"202","LANDMARKNA":"私立中興商工","LANDMARKAD":"1000504","ADDRESS":"苗栗縣竹南鎮大營路211號","TEL":"037-467360","COUNTYNAME":"苗栗縣","TOWNNAME":"竹南鎮","MARKTYPE":"992","Class":"2"}},{"type":"Feature","id":17753,"geometry":{"type":"Point","coordinates":[120.8835579586313,24.700228751050616]},"properties":{"OBJECTID":17753,"LANDMARKID":"1000500000218","LANDMARKCO":"202","LANDMARKNA":"私立君毅高中附設國中部","LANDMARKAD":"1000504","ADDRESS":"苗栗縣竹南鎮公義路245號","TEL":"037-622009","COUNTYNAME":"苗栗縣","TOWNNAME":"竹南鎮","MARKTYPE":"992","Class":"2"}},{"type":"Feature","id":17754,"geometry":{"type":"Point","coordinates":[120.87730569272819,24.694176247595202]},"properties":{"OBJECTID":17754,"LANDMARKID":"1000500000336","LANDMARKCO":"203","LANDMARKNA":"縣立照南國中","LANDMARKAD":"1000504","ADDRESS":"苗栗縣竹南鎮山佳里14鄰公教路2號","TEL":"037-472750","COUNTYNAME":"苗栗縣","TOWNNAME":"竹南鎮","MARKTYPE":"992","Class":"2"}},{"type":"Feature","id":17755,"geometry":{"type":"Point","coordinates":[120.87606074241495,24.684874594780752]},"properties":{"OBJECTID":17755,"LANDMARKID":"1000500000337","LANDMARKCO":"203","LANDMARKNA":"縣立竹南國中","LANDMARKAD":"1000504","ADDRESS":"苗栗縣竹南鎮正南里中正路92號","TEL":"037-475100","COUNTYNAME":"苗栗縣","TOWNNAME":"竹南鎮","MARKTYPE":"992","Class":"2"}},{"type":"Feature","id":17756,"geometry":{"type":"Point","coordinates":[120.92372619310497,24.708200424893665]},"properties":{"OBJECTID":17756,"LANDMARKID":"1000500000338","LANDMARKCO":"203","LANDMARKNA":"縣立頂埔國小","LANDMARKAD":"1000504","ADDRESS":"苗栗縣竹南鎮頂埔里中華路110號","TEL":"037-671785","COUNTYNAME":"苗栗縣","TOWNNAME":"竹南鎮","MARKTYPE":"992","Class":"2"}},{"type":"Feature","id":17757,"geometry":{"type":"Point","coordinates":[120.88482141674594,24.688764203277447]},"properties":{"OBJECTID":17757,"LANDMARKID":"1000500000339","LANDMARKCO":"203","LANDMARKNA":"縣立新南國小","LANDMARKAD":"1000504","ADDRESS":"苗栗縣竹南鎮新南里五谷街2號","TEL":"037-613843","COUNTYNAME":"苗栗縣","TOWNNAME":"竹南鎮","MARKTYPE":"992","Class":"2"}},{"type":"Feature","id":17758,"geometry":{"type":"Point","coordinates":[120.87030145803122,24.68396671847778]},"properties":{"OBJECTID":17758,"LANDMARKID":"1000500000340","LANDMARKCO":"203","LANDMARKNA":"縣立竹南國小","LANDMARKAD":"1000504","ADDRESS":"苗栗縣竹南鎮大厝里中正路146號","TEL":"037-462020","COUNTYNAME":"苗栗縣","TOWNNAME":"竹南鎮","MARKTYPE":"992","Class":"2"}},{"type":"Feature","id":17759,"geometry":{"type":"Point","coordinates":[120.8898460035965,24.708630747467208]},"properties":{"OBJECTID":17759,"LANDMARKID":"1000500000341","LANDMARKCO":"203","LANDMARKNA":"縣立大埔國小","LANDMARKAD":"1000504","ADDRESS":"苗栗縣竹南鎮大埔里仁愛路1092號","TEL":"037-584370","COUNTYNAME":"苗栗縣","TOWNNAME":"竹南鎮","MARKTYPE":"992","Class":"2"}},{"type":"Feature","id":17760,"geometry":{"type":"Point","coordinates":[120.87893634306133,24.694176609071882]},"properties":{"OBJECTID":17760,"LANDMARKID":"1000500000342","LANDMARKCO":"203","LANDMARKNA":"縣立照南國小","LANDMARKAD":"1000504","ADDRESS":"苗栗縣竹南鎮山佳里光復路331號","TEL":"037-472663","COUNTYNAME":"苗栗縣","TOWNNAME":"竹南鎮","MARKTYPE":"992","Class":"2"}},{"type":"Feature","id":17761,"geometry":{"type":"Point","coordinates":[120.86424880951691,24.687662738978837]},"properties":{"OBJECTID":17761,"LANDMARKID":"1000500000343","LANDMARKCO":"203","LANDMARKNA":"縣立竹興國小","LANDMARKAD":"1000504","ADDRESS":"苗栗縣竹南鎮竹興里竹圍街27號","TEL":"037-465037","COUNTYNAME":"苗栗縣","TOWNNAME":"竹南鎮","MARKTYPE":"992","Class":"2"}},{"type":"Feature","id":17762,"geometry":{"type":"Point","coordinates":[120.87825679824267,24.702211082898959]},"properties":{"OBJECTID":17762,"LANDMARKID":"1000500000344","LANDMARKCO":"203","LANDMARKNA":"縣立山佳國小","LANDMARKAD":"1000504","ADDRESS":"苗栗縣竹南鎮山佳里龍山路三段39號","TEL":"037-612839","COUNTYNAME":"苗栗縣","TOWNNAME":"竹南鎮","MARKTYPE":"992","Class":"2"}},{"type":"Feature","id":17763,"geometry":{"type":"Point","coordinates":[120.89595241876286,24.708274305543913]},"properties":{"OBJECTID":17763,"LANDMARKID":"1000500000345","LANDMARKCO":"203","LANDMARKNA":"縣立大同國中","LANDMARKAD":"1000504","ADDRESS":"苗栗縣竹南鎮大埔里六鄰公義路890號","TEL":"037-580566","COUNTYNAME":"苗栗縣","TOWNNAME":"竹南鎮","MARKTYPE":"992","Class":"2"}},{"type":"Feature","id":17764,"geometry":{"type":"Point","coordinates":[120.86147591144109,24.675832553936822]},"properties":{"OBJECTID":17764,"LANDMARKID":"1000500000346","LANDMARKCO":"203","LANDMARKNA":"縣立海口國小","LANDMARKAD":"1000504","ADDRESS":"苗栗縣竹南鎮海口里7鄰93號","TEL":"037-461354","COUNTYNAME":"苗栗縣","TOWNNAME":"竹南鎮","MARKTYPE":"992","Class":"2"}},{"type":"Feature","id":17765,"geometry":{"type":"Point","coordinates":[120.8589000813725,24.699375748728169]},"properties":{"OBJECTID":17765,"LANDMARKID":"1000500000484","LANDMARKCO":"305","LANDMARKNA":"龍鳳漁港","LANDMARKAD":"1000504","ADDRESS":"苗栗縣竹南鎮龍鳳里","TEL":" ","COUNTYNAME":"苗栗縣","TOWNNAME":"竹南鎮","MARKTYPE":"993","Class":"305"}},{"type":"Feature","id":17766,"geometry":{"type":"Point","coordinates":[120.87077724908102,24.70293585173447]},"properties":{"OBJECTID":17766,"LANDMARKID":"1000500000485","LANDMARKCO":"308","LANDMARKNA":"國3-西濱交流道-北上","LANDMARKAD":"1000504","ADDRESS":"苗栗縣竹南鎮","TEL":" ","COUNTYNAME":"苗栗縣","TOWNNAME":"竹南鎮","MARKTYPE":"993","Class":"308"}},{"type":"Feature","id":17767,"geometry":{"type":"Point","coordinates":[120.84752499748565,24.67759627059387]},"properties":{"OBJECTID":17767,"LANDMARKID":"1000500000486","LANDMARKCO":"308","LANDMARKNA":"國3-竹南交流道-北上","LANDMARKAD":"1000504","ADDRESS":"苗栗縣竹南鎮","TEL":" ","COUNTYNAME":"苗栗縣","TOWNNAME":"竹南鎮","MARKTYPE":"993","Class":"308"}},{"type":"Feature","id":17768,"geometry":{"type":"Point","coordinates":[120.84715998780166,24.673436583058681]},"properties":{"OBJECTID":17768,"LANDMARKID":"1000500000487","LANDMARKCO":"308","LANDMARKNA":"國3-竹南交流道-南下","LANDMARKAD":"1000504","ADDRESS":"苗栗縣竹南鎮","TEL":" ","COUNTYNAME":"苗栗縣","TOWNNAME":"竹南鎮","MARKTYPE":"993","Class":"308"}},{"type":"Feature","id":17769,"geometry":{"type":"Point","coordinates":[120.86997473181498,24.724303293080407]},"properties":{"OBJECTID":17769,"LANDMARKID":"1000500000488","LANDMARKCO":"308","LANDMARKNA":"台61-苗2線平交匝道-北上","LANDMARKAD":"1000504","ADDRESS":" ","TEL":" ","COUNTYNAME":"苗栗縣","TOWNNAME":"竹南鎮","MARKTYPE":"993","Class":"308"}},{"type":"Feature","id":17770,"geometry":{"type":"Point","coordinates":[120.86582971572982,24.70051221485857]},"properties":{"OBJECTID":17770,"LANDMARKID":"1000500000489","LANDMARKCO":"308","LANDMARKNA":"台61-西濱交流道-南下","LANDMARKAD":"1000504","ADDRESS":" ","TEL":" ","COUNTYNAME":"苗栗縣","TOWNNAME":"竹南鎮","MARKTYPE":"993","Class":"308"}},{"type":"Feature","id":17771,"geometry":{"type":"Point","coordinates":[120.8579053012668,24.692675372096289]},"properties":{"OBJECTID":17771,"LANDMARKID":"1000500000490","LANDMARKCO":"308","LANDMARKNA":"台61-博愛街平交匝道-南下","LANDMARKAD":"1000504","ADDRESS":" ","TEL":" ","COUNTYNAME":"苗栗縣","TOWNNAME":"竹南鎮","MARKTYPE":"993","Class":"308"}},{"type":"Feature","id":17772,"geometry":{"type":"Point","coordinates":[120.86304558177522,24.695614064180376]},"properties":{"OBJECTID":17772,"LANDMARKID":"1000500000491","LANDMARKCO":"308","LANDMARKNA":"台61-博愛街平交匝道-北上","LANDMARKAD":"1000504","ADDRESS":" ","TEL":" ","COUNTYNAME":"苗栗縣","TOWNNAME":"竹南鎮","MARKTYPE":"993","Class":"308"}},{"type":"Feature","id":17773,"geometry":{"type":"Point","coordinates":[120.85322578998807,24.686907967194536]},"properties":{"OBJECTID":17773,"LANDMARKID":"1000500000492","LANDMARKCO":"308","LANDMARKNA":"台61-苗6線平交匝道-北上","LANDMARKAD":"1000504","ADDRESS":" ","TEL":" ","COUNTYNAME":"苗栗縣","TOWNNAME":"竹南鎮","MARKTYPE":"993","Class":"308"}},{"type":"Feature","id":17774,"geometry":{"type":"Point","coordinates":[120.84924676111447,24.683119805170733]},"properties":{"OBJECTID":17774,"LANDMARKID":"1000500000493","LANDMARKCO":"308","LANDMARKNA":"台61-苗6線平交匝道-南下","LANDMARKAD":"1000504","ADDRESS":" ","TEL":" ","COUNTYNAME":"苗栗縣","TOWNNAME":"竹南鎮","MARKTYPE":"993","Class":"308"}},{"type":"Feature","id":17775,"geometry":{"type":"Point","coordinates":[120.84570317739265,24.67947609437994]},"properties":{"OBJECTID":17775,"LANDMARKID":"1000500000494","LANDMARKCO":"308","LANDMARKNA":"台61-竹南連絡道平交匝道-北上","LANDMARKAD":"1000504","ADDRESS":" ","TEL":" ","COUNTYNAME":"苗栗縣","TOWNNAME":"竹南鎮","MARKTYPE":"993","Class":"308"}},{"type":"Feature","id":17776,"geometry":{"type":"Point","coordinates":[120.8412439042971,24.675496505371747]},"properties":{"OBJECTID":17776,"LANDMARKID":"1000500000495","LANDMARKCO":"308","LANDMARKNA":"台61-竹南連絡道平交匝道-南下","LANDMARKAD":"1000504","ADDRESS":" ","TEL":" ","COUNTYNAME":"苗栗縣","TOWNNAME":"竹南鎮","MARKTYPE":"993","Class":"308"}},{"type":"Feature","id":17777,"geometry":{"type":"Point","coordinates":[120.8670414327697,24.71218400203141]},"properties":{"OBJECTID":17777,"LANDMARKID":"1000500000496","LANDMARKCO":"308","LANDMARKNA":"台61-苗1線平交匝道","LANDMARKAD":"1000504","ADDRESS":" ","TEL":" ","COUNTYNAME":"苗栗縣","TOWNNAME":"竹南鎮","MARKTYPE":"993","Class":"308"}},{"type":"Feature","id":17778,"geometry":{"type":"Point","coordinates":[120.85648624324472,24.691133768533362]},"properties":{"OBJECTID":17778,"LANDMARKID":"1000500000497","LANDMARKCO":"308","LANDMARKNA":"台61-復興路平交匝道","LANDMARKAD":"1000504","ADDRESS":" ","TEL":" ","COUNTYNAME":"苗栗縣","TOWNNAME":"竹南鎮","MARKTYPE":"993","Class":"308"}},{"type":"Feature","id":17779,"geometry":{"type":"Point","coordinates":[120.86466507503924,24.697388207356717]},"properties":{"OBJECTID":17779,"LANDMARKID":"1000500000498","LANDMARKCO":"308","LANDMARKNA":"台61-苗3-3線平交匝道","LANDMARKAD":"1000504","ADDRESS":" ","TEL":" ","COUNTYNAME":"苗栗縣","TOWNNAME":"竹南鎮","MARKTYPE":"993","Class":"308"}},{"type":"Feature","id":17780,"geometry":{"type":"Point","coordinates":[120.86868112836214,24.722018378461186]},"properties":{"OBJECTID":17780,"LANDMARKID":"1000500000499","LANDMARKCO":"308","LANDMARKNA":"台61-苗2線平交匝道","LANDMARKAD":"1000504","ADDRESS":"苗栗縣竹南鎮","TEL":" ","COUNTYNAME":"苗栗縣","TOWNNAME":"竹南鎮","MARKTYPE":"993","Class":"308"}},{"type":"Feature","id":17781,"geometry":{"type":"Point","coordinates":[120.87902659067188,24.710881812186017]},"properties":{"OBJECTID":17781,"LANDMARKID":"1000500000452","LANDMARKCO":"303","LANDMARKNA":"竹南啤酒廠停車場","LANDMARKAD":"1000504","ADDRESS":"苗栗縣竹南鎮和興路345號","TEL":"037-583001","COUNTYNAME":"苗栗縣","TOWNNAME":"竹南鎮","MARKTYPE":"993","Class":"303"}},{"type":"Feature","id":17782,"geometry":{"type":"Point","coordinates":[120.88158302383027,24.685424909737488]},"properties":{"OBJECTID":17782,"LANDMARKID":"1000500000453","LANDMARKCO":"303","LANDMARKNA":"竹南火車站停車場","LANDMARKAD":"1000504","ADDRESS":"苗栗縣竹南鎮維新街","TEL":" ","COUNTYNAME":"苗栗縣","TOWNNAME":"竹南鎮","MARKTYPE":"993","Class":"303"}},{"type":"Feature","id":17783,"geometry":{"type":"Point","coordinates":[120.8804937165451,24.686625427419081]},"properties":{"OBJECTID":17783,"LANDMARKID":"1000500000429","LANDMARKCO":"301","LANDMARKNA":"竹南火車站","LANDMARKAD":"1000504","ADDRESS":"苗栗縣竹南鎮中山路166號","TEL":"037-472030","COUNTYNAME":"苗栗縣","TOWNNAME":"竹南鎮","MARKTYPE":"993","Class":"301"}},{"type":"Feature","id":17784,"geometry":{"type":"Point","coordinates":[120.87164732513631,24.722875871308243]},"properties":{"OBJECTID":17784,"LANDMARKID":"1000500000430","LANDMARKCO":"301","LANDMARKNA":"崎頂火車站","LANDMARKAD":"1000504","ADDRESS":"苗栗縣竹南鎮崎頂里56號","TEL":" ","COUNTYNAME":"苗栗縣","TOWNNAME":"竹南鎮","MARKTYPE":"993","Class":"301"}},{"type":"Feature","id":17785,"geometry":{"type":"Point","coordinates":[120.87974138670296,24.686750662205647]},"properties":{"OBJECTID":17785,"LANDMARKID":"1000500000573","LANDMARKCO":"402","LANDMARKNA":"中華電信-竹南博愛特約服務中心","LANDMARKAD":"1000504","ADDRESS":"苗栗縣竹南鎮博愛街2之1號","TEL":"037-551580","COUNTYNAME":"苗栗縣","TOWNNAME":"竹南鎮","MARKTYPE":"994","Class":"4"}},{"type":"Feature","id":17786,"geometry":{"type":"Point","coordinates":[120.87472407879815,24.687032184231473]},"properties":{"OBJECTID":17786,"LANDMARKID":"1000500000574","LANDMARKCO":"402","LANDMARKNA":"威寶電信-竹南博愛特約服務中心","LANDMARKAD":"1000504","ADDRESS":"苗栗縣竹南鎮博愛街178號","TEL":"037-484088","COUNTYNAME":"苗栗縣","TOWNNAME":"竹南鎮","MARKTYPE":"994","Class":"4"}},{"type":"Feature","id":17787,"geometry":{"type":"Point","coordinates":[120.8794673667484,24.686769442580033]},"properties":{"OBJECTID":17787,"LANDMARKID":"1000500000575","LANDMARKCO":"402","LANDMARKNA":"大眾電信(震旦通訊)-竹南博愛店","LANDMARKAD":"1000504","ADDRESS":"苗栗縣竹南鎮博愛街14號","TEL":"035-464299","COUNTYNAME":"苗栗縣","TOWNNAME":"竹南鎮","MARKTYPE":"994","Class":"4"}},{"type":"Feature","id":17788,"geometry":{"type":"Point","coordinates":[120.91988869220846,24.707599314751221]},"properties":{"OBJECTID":17788,"LANDMARKID":"1000500000576","LANDMARKCO":"402","LANDMARKNA":"中華電信-竹南科學園區服務中心","LANDMARKAD":"1000504","ADDRESS":"苗栗縣竹南鎮頂埔里科東三路8號","TEL":"(037)583-884","COUNTYNAME":"苗栗縣","TOWNNAME":"竹南鎮","MARKTYPE":"994","Class":"4"}},{"type":"Feature","id":17789,"geometry":{"type":"Point","coordinates":[120.87764781415265,24.684548256573581]},"properties":{"OBJECTID":17789,"LANDMARKID":"1000500000868","LANDMARKCO":"603","LANDMARKNA":"竹豐旅社","LANDMARKAD":"1000504","ADDRESS":"苗栗縣竹南鎮和平街95號","TEL":"037-472120","COUNTYNAME":"苗栗縣","TOWNNAME":"竹南鎮","MARKTYPE":"996","Class":"6"}},{"type":"Feature","id":17790,"geometry":{"type":"Point","coordinates":[120.87891530131277,24.686834998534064]},"properties":{"OBJECTID":17790,"LANDMARKID":"1000500000869","LANDMARKCO":"603","LANDMARKNA":"新光明大旅社","LANDMARKAD":"1000504","ADDRESS":"苗栗縣竹南鎮博愛街48號","TEL":"037-472267","COUNTYNAME":"苗栗縣","TOWNNAME":"竹南鎮","MARKTYPE":"996","Class":"6"}},{"type":"Feature","id":17791,"geometry":{"type":"Point","coordinates":[120.8800280799793,24.675961890037197]},"properties":{"OBJECTID":17791,"LANDMARKID":"1000500000870","LANDMARKCO":"603","LANDMARKNA":"九龍大飯店","LANDMARKAD":"1000504","ADDRESS":"苗栗縣竹南鎮中山路136號","TEL":"037-474111-2","COUNTYNAME":"苗栗縣","TOWNNAME":"竹南鎮","MARKTYPE":"996","Class":"6"}},{"type":"Feature","id":17792,"geometry":{"type":"Point","coordinates":[120.87995146683456,24.68388982986675]},"properties":{"OBJECTID":17792,"LANDMARKID":"1000500000871","LANDMARKCO":"603","LANDMARKNA":"台灣新旅社","LANDMARKAD":"1000504","ADDRESS":"苗栗縣竹南鎮中山路28號1-2樓","TEL":"037-473636","COUNTYNAME":"苗栗縣","TOWNNAME":"竹南鎮","MARKTYPE":"996","Class":"6"}},{"type":"Feature","id":17793,"geometry":{"type":"Point","coordinates":[120.90884446979494,24.720171388185523]},"properties":{"OBJECTID":17793,"LANDMARKID":"1000500000872","LANDMARKCO":"603","LANDMARKNA":"御和園商務汽車旅館","LANDMARKAD":"1000504","ADDRESS":"苗栗縣竹南鎮公義路1500號","TEL":"037-584748","COUNTYNAME":"苗栗縣","TOWNNAME":"竹南鎮","MARKTYPE":"996","Class":"6"}},{"type":"Feature","id":17794,"geometry":{"type":"Point","coordinates":[120.88051823809631,24.700799282839007]},"properties":{"OBJECTID":17794,"LANDMARKID":"1000500000873","LANDMARKCO":"603","LANDMARKNA":"芝柏山汽車旅","LANDMARKAD":"1000504","ADDRESS":"苗栗縣竹南鎮四維街90號","TEL":"037-627567","COUNTYNAME":"苗栗縣","TOWNNAME":"竹南鎮","MARKTYPE":"996","Class":"6"}},{"type":"Feature","id":17795,"geometry":{"type":"Point","coordinates":[120.87909597584938,24.683358143643215]},"properties":{"OBJECTID":17795,"LANDMARKID":"1000500000874","LANDMARKCO":"603","LANDMARKNA":"竹南旅社","LANDMARKAD":"1000504","ADDRESS":"苗栗縣竹南鎮光復路18號","TEL":"037-472435","COUNTYNAME":"苗栗縣","TOWNNAME":"竹南鎮","MARKTYPE":"996","Class":"6"}},{"type":"Feature","id":17796,"geometry":{"type":"Point","coordinates":[120.87840045841742,24.685803808188449]},"properties":{"OBJECTID":17796,"LANDMARKID":"1000500000832","LANDMARKCO":"511","LANDMARKNA":"竹南夜市","LANDMARKAD":"1000504","ADDRESS":"苗栗縣竹南鎮","TEL":" ","COUNTYNAME":"苗栗縣","TOWNNAME":"竹南鎮","MARKTYPE":"995","Class":"5"}},{"type":"Feature","id":17797,"geometry":{"type":"Point","coordinates":[120.89283522453235,24.692051745209866]},"properties":{"OBJECTID":17797,"LANDMARKID":"1000500000636","LANDMARKCO":"405","LANDMARKNA":"中油加油站-后庄站","LANDMARKAD":"1000505","ADDRESS":"苗栗縣頭份鎮德義路234號","TEL":"03-7629370","COUNTYNAME":"苗栗縣","TOWNNAME":"頭份鎮","MARKTYPE":"994","Class":"4"}},{"type":"Feature","id":17798,"geometry":{"type":"Point","coordinates":[120.88290646763789,24.637455570881109]},"properties":{"OBJECTID":17798,"LANDMARKID":"1000500000637","LANDMARKCO":"405","LANDMARKNA":"中油加油站-永炬站","LANDMARKAD":"1000505","ADDRESS":"苗栗縣頭份鎮濫坑里尖豐路931號","TEL":"03-7542109","COUNTYNAME":"苗栗縣","TOWNNAME":"頭份鎮","MARKTYPE":"994","Class":"4"}},{"type":"Feature","id":17799,"geometry":{"type":"Point","coordinates":[120.88437126394903,24.678018585626003]},"properties":{"OBJECTID":17799,"LANDMARKID":"1000500000638","LANDMARKCO":"405","LANDMARKNA":"中油加油站-南平站(中油直營)","LANDMARKAD":"1000505","ADDRESS":"苗栗縣頭份鎮蘆竹路270號","TEL":"03-7612746","COUNTYNAME":"苗栗縣","TOWNNAME":"頭份鎮","MARKTYPE":"994","Class":"4"}},{"type":"Feature","id":17800,"geometry":{"type":"Point","coordinates":[120.88216948060935,24.670735686724569]},"properties":{"OBJECTID":17800,"LANDMARKID":"1000500000639","LANDMARKCO":"405","LANDMARKNA":"山隆加油站-頭份站(中油)","LANDMARKAD":"1000505","ADDRESS":"苗栗縣頭份鎮永貞路一段25號","TEL":"(037)613-101","COUNTYNAME":"苗栗縣","TOWNNAME":"頭份鎮","MARKTYPE":"994","Class":"4"}}]}